,GPS LATITUDE (degrees), GPS LONGITUDE (degrees), GPS ALTITUDE (m), GPS SPEED (Kmh), GPS ACCURACY (m), GPS ORIENTATION (Â°),GPS SATELLITES IN RANGE, TIME SINCE START (ms), DATE (YYYY-MO-DD HH-MI-SS_SSS), ACCELEROMETER X (m/s²) , ACCELEROMETER Y (m/s²), ACCELEROMETER Z (m/s²), GRAVITY X (m/s²), GRAVITY Y (m/s²), GRAVITY Z (m/s²), GYROSCOPE Yaw (rad/s), GYROSCOPE Pitch (rad/s), GYROSCOPE Roll (rad/s), MAGNETIC FIELD X (Î¼T), MAGNETIC FIELD Y (Î¼T), MAGNETIC FIELD Z (Î¼T), ORIENTATION (Yaw) (Â°), ORIENTATION (Pitch) (Â°), ORIENTATION (Roll ) (Â°)
40561,51.608646,-2.468395,127,25.85,12,37.6,Sep-22,4056188,2019-08-31 09:33:07:910,0.3641,-0.5087,10.556,0.0597,0.006,9.8065,0.0501,0.0431,0.032,9.81,-18.14,-29.74,62.33,-0.15,2.35
40562,51.608646,-2.468395,127,25.85,12,37.6,Sep-22,4056288,2019-08-31 09:33:08:010,0.3418,-0.2587,8.7573,0.124,-0.0155,9.8059,0.0235,0.0069,0.0225,9.43,-17.77,-30.99,64.85,-0.4,3.04
40563,51.608646,-2.468395,127,25.85,12,37.6,Sep-22,4056389,2019-08-31 09:33:08:111,0.414,-0.3604,9.5756,0.0105,-0.0144,9.8066,-0.0309,0.0389,0.0118,9.81,-17.39,-29.74,61.33,-0.35,3.13
40564,51.608833,-2.468165,126,26.02,11,37.4,Oct-22,4056488,2019-08-31 09:33:08:210,-0.3267,-0.1013,9.1743,-0.042,0.0173,9.8065,-0.0223,0.0101,0.0139,9.81,-17.39,-29.74,61.33,-0.35,3.13
40565,51.608833,-2.468165,126,26.02,11,37.4,Oct-22,4056588,2019-08-31 09:33:08:310,-0.098,-0.293,9.8288,-0.0137,0.0044,9.8066,-0.0127,0.0176,0.0171,9.43,-17.77,-30.12,64.8,-0.32,2.86
40566,51.608833,-2.468165,126,26.02,11,37.4,Oct-22,4056688,2019-08-31 09:33:08:410,-0.2724,-0.2505,9.9802,-0.0078,0.0098,9.8066,0.0022,-0.024,0.0129,9.81,-18.14,-30.18,62.4,-0.31,2.78
40567,51.608833,-2.468165,126,26.02,11,37.4,Oct-22,4056787,2019-08-31 09:33:08:509,-0.2943,-0.1166,10.0849,-0.0089,0.0179,9.8066,0.0267,0.0037,0.0193,9.81,-18.14,-30.56,62.31,-0.38,2.69
40568,51.608833,-2.468165,126,26.02,11,37.4,Oct-22,4056888,2019-08-31 09:33:08:610,-0.2609,0.0765,8.96,0.0079,-0.0143,9.8066,0.0267,0.0037,0.0193,9.81,-18.14,-30.56,62.31,-0.38,2.69
40569,51.608833,-2.468165,126,26.02,11,37.4,Oct-22,4056988,2019-08-31 09:33:08:710,-0.0583,0.0471,8.5011,0.0231,-0.0235,9.8066,0.0597,-0.025,0.0097,10.12,-17.39,-30.56,61.16,-0.33,2.76
40570,51.608833,-2.468165,126,26.02,11,37.4,Oct-22,4057088,2019-08-31 09:33:08:810,-0.0212,-0.1788,9.3798,0.0372,-0.0682,9.8063,0.0011,-0.1113,0.0427,10.12,-17.39,-30.12,61.66,-0.08,3.15
40571,51.608833,-2.468165,126,26.02,11,37.4,Oct-22,4057187,2019-08-31 09:33:08:909,0.1239,0.0114,9.873,-0.0158,-0.0187,9.8066,0.0096,-0.0155,0.0075,10.12,-17.39,-30.12,61.66,-0.08,3.15
40572,51.608833,-2.468165,126,26.02,11,37.4,Oct-22,4057288,2019-08-31 09:33:09:010,0.1227,-0.2705,10.6562,0.0012,0.0126,9.8066,0.0107,-0.0155,0.0225,10.12,-17.39,-30.56,61.89,0.06,3.12
40573,51.608833,-2.468165,126,26.02,11,37.4,Oct-21,4057388,2019-08-31 09:33:09:110,-0.0358,0.0402,10.0431,0.0247,0.0379,9.8065,0.0064,0.024,0.0288,9.43,-17.39,-30.56,64.0,-0.21,3.14
40574,51.609,-2.46793,126,25.89,11,35.8,Oct-21,4057488,2019-08-31 09:33:09:210,0.1874,0.0104,9.8392,0.0245,0.0249,9.8066,0.0032,0.0112,0.0235,9.81,-17.02,-30.56,64.0,-0.21,3.14
40575,51.609,-2.46793,126,25.89,11,35.8,Oct-21,4057588,2019-08-31 09:33:09:310,0.0883,0.0412,9.418,0.0553,0.0029,9.8065,-0.001,-0.0495,0.0363,9.81,-17.02,-30.56,64.0,-0.21,3.14
40576,51.609,-2.46793,126,25.89,11,35.8,Oct-21,4057688,2019-08-31 09:33:09:410,-0.3967,-0.3689,10.3038,0.0006,-0.0221,9.8066,0.0043,0.0357,0.0118,9.81,-17.39,-29.74,61.51,-0.36,3.42
40577,51.609,-2.46793,126,25.89,11,35.8,Oct-21,4057790,2019-08-31 09:33:09:512,-0.1579,-0.2734,9.4281,0.0008,-0.0063,9.8066,0.0043,0.0357,0.0118,10.12,-17.02,-29.74,61.68,-0.25,3.49
40578,51.609,-2.46793,126,25.89,11,35.8,Oct-21,4057888,2019-08-31 09:33:09:610,0.3092,0.1783,9.6771,-0.0029,0.0021,9.8067,-0.0223,0.0058,0.0129,9.81,-17.77,-30.18,61.68,-0.25,3.49
40579,51.609,-2.46793,126,25.89,11,35.8,Oct-21,4057987,2019-08-31 09:33:09:709,0.1795,0.1731,9.3498,-0.0085,0.011,9.8066,-0.0096,-0.0101,0.015,9.81,-17.77,-30.18,61.68,-0.25,3.49
40580,51.609,-2.46793,126,25.89,11,35.8,Oct-21,4058088,2019-08-31 09:33:09:810,0.5412,0.1194,9.8495,-0.0009,-0.0046,9.8066,-0.0191,-0.0261,0.0225,10.12,-17.77,-30.12,62.82,-0.28,3.41
40581,51.609,-2.46793,126,25.89,11,35.8,Oct-21,4058187,2019-08-31 09:33:09:909,0.1047,0.1738,9.3716,-0.007,0.0066,9.8066,-0.0021,0.025,0.0129,9.81,-17.39,-30.12,62.82,-0.28,3.41
40582,51.609,-2.46793,126,25.89,11,35.8,Oct-21,4058287,2019-08-31 09:33:10:009,-0.3198,0.3084,10.1258,-0.013,0.0316,9.8066,-0.0138,0.0229,0.0235,9.81,-17.77,-30.56,62.63,-0.41,3.26
40583,51.609,-2.46793,126,25.89,11,35.8,Oct-21,4058388,2019-08-31 09:33:10:110,0.2145,-0.0356,9.5845,-0.0038,0.0045,9.8066,0.0086,-0.0272,0.0235,9.81,-17.39,-30.12,61.3,-0.43,3.23
40584,51.609188,-2.467701,124,25.65,11,35.3,Oct-22,4058489,2019-08-31 09:33:10:211,0.0218,0.018,9.6315,-0.0038,-0.053,9.8065,0.0086,-0.0272,0.0235,9.81,-17.39,-30.12,61.3,-0.43,3.23
40585,51.609188,-2.467701,124,25.65,11,35.3,Oct-22,4058587,2019-08-31 09:33:10:309,0.1228,0.3427,9.1562,0.0148,-0.0032,9.8066,0.0064,-0.0037,0.0395,9.81,-17.39,-29.68,61.73,-0.14,3.36
40586,51.609188,-2.467701,124,25.65,11,35.3,Oct-22,4058688,2019-08-31 09:33:10:410,0.2308,0.0872,9.5082,0.0122,0.0139,9.8066,-0.0106,-0.0027,0.0182,10.12,-17.39,-30.12,61.62,-0.25,3.38
40587,51.609188,-2.467701,124,25.65,11,35.3,Oct-22,4058788,2019-08-31 09:33:10:510,0.0831,-0.1378,9.1577,-0.0154,-0.0118,9.8066,-0.0223,-0.0751,0.0299,10.12,-17.02,-30.93,61.62,-0.25,3.38
40588,51.609188,-2.467701,124,25.65,11,35.3,Oct-22,4058888,2019-08-31 09:33:10:610,0.2613,-0.1963,9.3209,-0.0138,-0.0229,9.8066,0.0117,0.0101,0.0267,10.12,-17.02,-30.93,61.62,-0.25,3.38
40589,51.609188,-2.467701,124,25.65,11,35.3,Oct-22,4058988,2019-08-31 09:33:10:710,0.1284,-0.2438,9.6824,0.0192,0.0071,9.8066,0.0181,0.0272,0.0246,10.12,-17.77,-30.56,63.08,-0.09,3.38
40590,51.609188,-2.467701,124,25.65,11,35.3,Oct-22,4059088,2019-08-31 09:33:10:810,-0.0134,-0.1811,10.4412,0.0527,0.0131,9.8065,-0.0064,0.0154,0.0438,10.12,-17.77,-30.56,63.08,-0.09,3.38
40591,51.609188,-2.467701,124,25.65,11,35.3,Oct-22,4059188,2019-08-31 09:33:10:910,0.2011,0.2668,9.2484,0.0111,-0.0122,9.8066,-0.0042,-0.0485,0.0416,10.07,-17.47,-27.68,61.57,-0.3,3.62
40592,51.609188,-2.467701,124,25.65,11,35.3,Oct-22,4059288,2019-08-31 09:33:11:010,0.3885,0.0948,9.0785,0.0232,-0.0271,9.8066,-0.0042,-0.0485,0.0416,10.07,-17.47,-27.68,61.57,-0.3,3.62
40593,51.609188,-2.467701,124,25.65,11,35.3,Oct-22,4059391,2019-08-31 09:33:11:113,0.6374,0.3296,8.9071,0.0299,-0.0396,9.8065,0.0352,0.0101,0.0065,10.07,-17.47,-27.68,61.86,-0.18,3.88
40594,51.609417,-2.467473,123,26.18,11,33.5,Dec-22,4059487,2019-08-31 09:33:11:209,-0.079,-0.3018,9.72,0.0065,-0.011,9.8066,0.0,-0.0325,0.0374,10.07,-17.09,-27.68,61.86,-0.18,3.88
40595,51.609417,-2.467473,123,26.18,11,33.5,Dec-22,4059588,2019-08-31 09:33:11:310,-0.2933,0.011,10.1471,0.0079,-0.0239,9.8066,-0.0096,-0.0464,0.0512,10.07,-17.09,-27.68,61.86,-0.18,3.88
40596,51.609417,-2.467473,123,26.18,11,33.5,Dec-22,4059688,2019-08-31 09:33:11:410,0.3303,-0.0192,9.8516,0.0214,-0.016,9.8066,0.0043,0.0794,0.0267,10.07,-17.09,-27.68,62.04,-0.08,3.99
40597,51.609417,-2.467473,123,26.18,11,33.5,Dec-22,4059787,2019-08-31 09:33:11:509,-0.2959,-0.1387,10.5458,0.0253,0.0202,9.8066,-0.0266,-0.0346,0.0384,10.07,-17.09,-27.68,62.04,-0.22,4.26
40598,51.609417,-2.467473,123,26.18,11,33.5,Dec-22,4059889,2019-08-31 09:33:11:611,0.14,0.0893,9.8124,0.0379,0.0135,9.8066,0.0341,-0.0048,0.0118,9.76,-17.47,-27.68,62.04,-0.22,4.26
40599,51.609417,-2.467473,123,26.18,11,33.5,Dec-22,4059988,2019-08-31 09:33:11:710,0.1626,-0.0021,10.0894,0.0523,-0.0034,9.8065,0.0032,0.0346,0.0352,9.76,-17.47,-27.68,62.04,-0.22,4.26
40600,51.609417,-2.467473,123,26.18,11,33.5,Dec-22,4060088,2019-08-31 09:33:11:810,0.2222,-0.2598,9.1877,0.0165,-0.0095,9.8066,0.0032,0.0346,0.0352,10.45,-17.09,-27.68,62.07,-0.35,4.54
40601,51.609417,-2.467473,123,26.18,11,33.5,Dec-22,4060188,2019-08-31 09:33:11:910,-0.0736,-0.0886,10.1167,-0.0086,-0.0184,9.8066,-0.0074,-0.0155,0.0427,10.45,-16.72,-27.62,62.14,-0.34,4.65
40602,51.609417,-2.467473,123,26.18,11,33.5,Dec-22,4060288,2019-08-31 09:33:12:010,0.203,-0.1837,9.9786,-0.0175,-0.0394,9.8066,0.0086,-0.0091,0.032,10.45,-16.72,-27.62,62.42,-0.09,4.67
40603,51.609417,-2.467473,123,26.18,11,33.5,Dec-22,4060388,2019-08-31 09:33:12:110,-0.0493,0.0704,11.1571,-0.0053,-0.0127,9.8066,-0.0053,0.008,0.0299,10.45,-16.72,-27.62,62.42,-0.09,4.67
40604,51.60963,-2.467285,121,26.12,10,32.0,Dec-22,4060488,2019-08-31 09:33:12:210,-0.5379,-0.0755,9.9394,0.0131,0.0297,9.8066,-0.0191,0.025,0.015,10.07,-17.47,-27.24,62.41,-0.01,4.68
40605,51.60963,-2.467285,121,26.12,10,32.0,Dec-22,4060588,2019-08-31 09:33:12:310,-0.2799,0.1025,9.9825,0.0098,0.0741,9.8064,0.0054,-0.0027,0.0214,10.07,-17.09,-27.24,62.41,-0.01,4.68
40606,51.60963,-2.467285,121,26.12,10,32.0,Dec-22,4060688,2019-08-31 09:33:12:410,0.1781,0.1491,8.5608,-0.0046,0.0862,9.8063,0.0054,-0.0027,0.0214,10.07,-16.72,-27.62,61.89,-0.44,4.42
40607,51.60963,-2.467285,121,26.12,10,32.0,Dec-22,4060788,2019-08-31 09:33:12:510,-0.4267,-0.1889,9.6981,-0.0236,-0.0125,9.8066,-0.0117,-0.0453,0.0331,9.76,-17.09,-27.68,61.98,-0.32,4.33
40608,51.60963,-2.467285,121,26.12,10,32.0,Dec-22,4060888,2019-08-31 09:33:12:610,-0.0326,0.2659,9.9151,-0.0398,0.0322,9.8065,-0.0383,0.0165,0.0374,9.76,-17.09,-27.68,61.98,-0.32,4.33
40609,51.60963,-2.467285,121,26.12,10,32.0,Dec-22,4060987,2019-08-31 09:33:12:709,-0.5387,0.1584,9.8051,-0.0132,-0.0094,9.8066,0.016,-0.0176,0.0161,10.07,-16.72,-27.24,61.67,-0.37,4.04
40610,51.60963,-2.467285,121,26.12,10,32.0,Dec-22,4061088,2019-08-31 09:33:12:810,0.1197,0.169,10.2054,-0.004,-0.0363,9.8066,0.0352,0.008,0.0043,10.07,-16.34,-27.68,61.67,-0.37,4.04
40611,51.60963,-2.467285,121,26.12,10,32.0,Dec-22,4061188,2019-08-31 09:33:12:910,0.0238,0.1016,9.4973,-0.0083,-0.0327,9.8066,0.0043,0.0282,0.0171,10.07,-16.34,-27.68,61.67,-0.37,4.04
40612,51.60963,-2.467285,121,26.12,10,32.0,Dec-22,4061287,2019-08-31 09:33:13:009,0.398,0.044,9.4332,-0.011,0.0183,9.8066,-0.0415,0.0154,0.0448,10.07,-15.97,-27.24,60.59,-0.18,4.09
40613,51.609848,-2.467098,121,25.9,10,31.1,Dec-22,4061388,2019-08-31 09:33:13:110,-0.2754,0.163,9.6271,-0.0091,0.058,9.8065,-0.0085,0.0698,0.0097,10.07,-15.97,-27.24,60.59,-0.18,4.09
40614,51.609848,-2.467098,121,25.9,10,31.1,Dec-22,4061487,2019-08-31 09:33:13:209,-0.0585,0.4365,9.7138,-0.0292,0.0808,9.8063,-0.0085,0.0698,0.0097,10.07,-16.34,-27.24,59.99,-0.51,3.71
40615,51.609848,-2.467098,121,25.9,10,31.1,Dec-22,4061588,2019-08-31 09:33:13:310,0.1822,-0.0173,10.5245,-0.0188,0.009,9.8066,0.0086,-0.0453,0.0139,10.45,-16.34,-27.68,59.99,-0.51,3.71
40616,51.609848,-2.467098,121,25.9,10,31.1,Dec-22,4061688,2019-08-31 09:33:13:410,-0.1829,-0.1101,10.2805,-0.0338,-0.0027,9.8066,0.0405,0.0197,-0.0074,10.45,-16.34,-27.68,59.99,-0.51,3.71
40617,51.609848,-2.467098,121,25.9,10,31.1,Dec-22,4061788,2019-08-31 09:33:13:510,-0.4583,-0.2019,10.2452,-0.0022,-0.0007,9.8067,0.0022,0.0005,0.0139,10.45,-16.34,-27.68,60.08,-0.4,3.54
40618,51.609848,-2.467098,121,25.9,10,31.1,Dec-22,4061887,2019-08-31 09:33:13:609,-0.8158,-0.1752,10.3336,-0.0298,-0.0044,9.8066,-0.0064,-0.0112,-0.0031,10.45,-16.34,-27.68,60.03,-0.38,3.43
40619,51.609848,-2.467098,121,25.9,10,31.1,Dec-22,4061988,2019-08-31 09:33:13:710,-0.2649,0.1037,10.1089,-0.0467,-0.0073,9.8065,0.0054,0.0112,0.0129,10.45,-16.34,-27.68,60.03,-0.38,3.43
40620,51.609848,-2.467098,121,25.9,10,31.1,Dec-22,4062089,2019-08-31 09:33:13:811,-0.0123,0.2512,9.7609,0.0009,0.0254,9.8066,0.0043,0.025,0.0139,10.45,-16.34,-27.62,60.08,-0.2,3.21
40621,51.609848,-2.467098,121,25.9,10,31.1,Dec-22,4062189,2019-08-31 09:33:13:911,-0.0622,0.0468,9.8005,0.0128,0.0391,9.8066,0.0224,0.0485,0.0054,10.45,-16.34,-27.68,59.88,-0.33,3.14
40622,51.609848,-2.467098,121,25.9,10,31.1,Dec-22,4062288,2019-08-31 09:33:14:010,0.3627,0.3448,10.8256,0.0136,0.0523,9.8065,0.0224,0.0485,0.0054,10.45,-16.34,-28.12,59.48,-0.64,3.06
40623,51.609848,-2.467098,121,25.9,10,31.1,Dec-22,4062388,2019-08-31 09:33:14:110,-0.5402,0.0739,9.5502,0.0018,-0.013,9.8066,0.0288,0.0208,0.0171,10.45,-16.34,-28.12,59.48,-0.64,3.06
40624,51.61004,-2.466924,119,25.45,10,31.2,Dec-22,4062488,2019-08-31 09:33:14:210,0.3297,0.1364,9.5571,0.0104,-0.0155,9.8066,0.0117,-0.0378,0.0235,10.82,-15.97,-28.05,57.2,-0.58,3.11
40625,51.61004,-2.466924,119,25.45,10,31.2,Dec-22,4062588,2019-08-31 09:33:14:310,-0.6385,-0.2271,9.8056,0.0079,-0.0395,9.8066,-0.0202,-0.0442,0.0235,10.45,-15.97,-28.05,57.2,-0.58,3.11
40626,51.61004,-2.466924,119,25.45,10,31.2,Dec-22,4062688,2019-08-31 09:33:14:410,-0.4172,0.0884,9.1492,-0.0188,-0.0618,9.8064,0.0054,-0.0112,0.0054,10.82,-16.34,-28.05,57.67,-0.21,3.21
40627,51.61004,-2.466924,119,25.45,10,31.2,Dec-22,4062789,2019-08-31 09:33:14:511,-0.1737,0.0952,10.0202,-0.0388,-0.0087,9.8066,0.0043,0.0591,0.015,11.2,-16.34,-28.05,57.74,-0.05,3.05
40628,51.61004,-2.466924,119,25.45,10,31.2,Dec-22,4062888,2019-08-31 09:33:14:610,0.2335,0.3024,10.6669,0.0003,0.044,9.8066,-0.0042,0.0676,0.0416,11.2,-16.34,-28.05,57.74,-0.05,3.05
40629,51.61004,-2.466924,119,25.45,10,31.2,Dec-22,4062987,2019-08-31 09:33:14:709,0.5435,0.2046,10.4369,0.0207,0.0013,9.8066,-0.0042,0.0676,0.0416,10.45,-15.97,-28.05,59.43,-0.57,2.88
40630,51.61004,-2.466924,119,25.45,10,31.2,Dec-22,4063089,2019-08-31 09:33:14:811,-0.783,-0.37,10.8741,-0.0063,0.0096,9.8066,-0.0223,-0.0069,0.0459,10.07,-15.59,-27.68,59.42,-0.64,2.99
40631,51.61004,-2.466924,119,25.45,10,31.2,Dec-22,4063188,2019-08-31 09:33:14:910,0.021,-0.3252,8.7876,-0.017,0.018,9.8066,-0.0362,0.0048,0.0278,10.07,-15.97,-28.49,59.28,-0.68,2.85
40632,51.61004,-2.466924,119,25.45,10,31.2,Dec-22,4063287,2019-08-31 09:33:15:009,-0.0847,-0.1506,9.5229,-0.0152,-0.0244,9.8066,-0.0202,-0.008,0.0427,10.07,-15.97,-28.49,59.28,-0.68,2.85
40633,51.61004,-2.466924,119,25.45,10,31.2,Dec-22,4063387,2019-08-31 09:33:15:109,-0.4037,-0.3211,10.3713,-0.0169,-0.0601,9.8065,0.032,-0.0133,0.0129,10.82,-15.97,-28.05,59.28,-0.68,2.85
40634,51.610233,-2.46673,117,25.44,10,30.2,Dec-22,4063488,2019-08-31 09:33:15:210,0.0859,-0.2454,9.7145,0.0239,-0.026,9.8066,0.0373,0.0346,0.0342,10.45,-15.97,-27.68,59.75,-0.33,2.94
40635,51.610233,-2.46673,117,25.44,10,30.2,Dec-22,4063588,2019-08-31 09:33:15:310,0.508,0.0227,9.5694,0.051,-0.0213,9.8065,0.0064,0.0698,0.0097,10.82,-15.97,-28.12,57.54,-0.37,3.26
40636,51.610233,-2.46673,117,25.44,10,30.2,Dec-22,4063688,2019-08-31 09:33:15:410,0.6793,0.1899,9.9638,0.0174,0.009,9.8066,-0.0234,0.0186,0.0192,10.45,-15.59,-27.68,57.54,-0.37,3.26
40637,51.610233,-2.46673,117,25.44,10,30.2,Dec-22,4063787,2019-08-31 09:33:15:509,-0.2464,0.1975,10.1875,-0.0008,0.0257,9.8066,-0.0234,0.0186,0.0192,10.45,-15.59,-27.68,57.54,-0.37,3.26
40638,51.610233,-2.46673,117,25.44,10,30.2,Dec-22,4063887,2019-08-31 09:33:15:609,-0.0682,0.1739,9.5229,-0.0044,0.0103,9.8066,0.0128,-0.0059,0.0246,10.82,-16.34,-27.68,57.34,-0.5,3.18
40639,51.610233,-2.46673,117,25.44,10,30.2,Dec-22,4063988,2019-08-31 09:33:15:710,0.3863,-0.1106,9.0974,0.0316,-0.0102,9.8066,0.0331,-0.0101,0.0192,10.45,-16.34,-28.12,59.68,-0.54,3.19
40640,51.610233,-2.46673,117,25.44,10,30.2,Dec-22,4064089,2019-08-31 09:33:15:811,0.5808,0.0198,9.4959,0.0437,-0.0248,9.8065,0.0043,0.024,0.0171,10.82,-15.97,-27.68,59.68,-0.54,3.19
40641,51.610233,-2.46673,117,25.44,10,30.2,Dec-22,4064188,2019-08-31 09:33:15:910,-0.3869,-0.3405,10.2922,-0.0249,-0.0157,9.8066,-0.0362,-0.0442,0.0416,10.82,-15.59,-27.68,57.51,-0.54,3.49
40642,51.610233,-2.46673,117,25.44,10,30.2,Dec-22,4064288,2019-08-31 09:33:16:010,-0.2703,-0.2718,10.5875,-0.0413,-0.0276,9.8065,-0.0351,-0.0474,0.0448,10.82,-15.97,-27.68,57.51,-0.54,3.49
40643,51.610233,-2.46673,117,25.44,10,30.2,Dec-22,4064388,2019-08-31 09:33:16:110,0.0718,-0.1701,10.1596,-0.0331,-0.0192,9.8066,0.0437,0.0453,-0.0031,10.82,-15.97,-27.68,57.51,-0.54,3.49
40644,51.610435,-2.466532,116,25.53,10,29.2,Dec-22,4064488,2019-08-31 09:33:16:210,-0.4626,-0.1869,10.0465,0.0314,0.0165,9.8066,0.0437,0.0453,-0.0031,10.82,-16.34,-28.05,57.65,-0.35,3.38
40645,51.610435,-2.466532,116,25.53,10,29.2,Dec-22,4064588,2019-08-31 09:33:16:310,0.4126,-0.0032,11.0386,0.0842,0.0347,9.8062,0.0362,0.0026,0.0214,10.82,-16.34,-27.68,57.4,-0.78,3.69
40646,51.610435,-2.466532,116,25.53,10,29.2,Dec-22,4064688,2019-08-31 09:33:16:410,-0.6441,-0.0342,9.9788,0.0287,-0.0093,9.8066,0.0011,-0.0208,0.0374,10.82,-16.34,-28.05,57.4,-0.78,3.69
40647,51.610435,-2.466532,116,25.53,10,29.2,Dec-22,4064788,2019-08-31 09:33:16:510,0.3734,-0.34,8.4274,0.0566,-0.0304,9.8064,-0.001,-0.0027,0.0363,10.82,-16.34,-28.05,57.4,-0.78,3.69
40648,51.610435,-2.466532,116,25.53,10,29.2,Dec-22,4064888,2019-08-31 09:33:16:610,0.4221,-0.0579,9.8149,0.0419,-0.0612,9.8064,-0.0468,-0.0208,0.0469,9.76,-16.72,-27.68,61.52,-0.61,4.09
40649,51.610435,-2.466532,116,25.53,10,29.2,Dec-22,4064988,2019-08-31 09:33:16:710,0.0201,-0.037,9.7888,-0.0301,-0.0319,9.8066,-0.0213,-0.0027,0.0299,10.45,-15.59,-24.74,60.19,-0.36,4.03
40650,51.610435,-2.466532,116,25.53,10,29.2,Dec-22,4065088,2019-08-31 09:33:16:810,0.1908,0.4707,9.5896,-0.0016,-0.0016,9.8066,-0.0053,-0.0069,0.0192,10.45,-15.59,-24.74,60.19,-0.36,4.03
40651,51.610435,-2.466532,116,25.53,10,29.2,Dec-22,4065188,2019-08-31 09:33:16:910,0.0461,0.2227,9.8167,0.0297,0.0434,9.8065,0.0075,0.074,0.0214,11.95,-15.97,-26.8,55.75,-0.35,4.02
40652,51.610435,-2.466532,116,25.53,10,29.2,Dec-22,4065288,2019-08-31 09:33:17:010,0.5223,-0.0524,10.605,0.0421,0.0489,9.8064,0.0075,0.074,0.0214,11.95,-15.97,-26.8,55.75,-0.35,4.02
40653,51.610435,-2.466532,116,25.53,10,29.2,Dec-22,4065388,2019-08-31 09:33:17:110,0.0003,-0.2386,10.4587,-0.0069,-0.0126,9.8066,0.0107,-0.024,0.0171,11.57,-15.59,-27.24,55.41,-0.73,4.06
40654,51.610622,-2.46637,112,25.58,10,28.3,Dec-22,4065488,2019-08-31 09:33:17:210,-0.2042,0.0796,9.678,0.0031,0.0273,9.8066,-0.0245,-0.0219,0.0427,11.57,-15.22,-27.24,53.94,-0.64,4.07
40655,51.610622,-2.46637,112,25.58,10,28.3,Dec-22,4065588,2019-08-31 09:33:17:310,-0.3397,0.0821,9.8207,0.0154,0.0491,9.8065,-0.0085,-0.008,0.0352,11.2,-15.22,-26.8,53.94,-0.64,4.07
40656,51.610622,-2.46637,112,25.58,10,28.3,Dec-22,4065688,2019-08-31 09:33:17:410,-0.5281,-0.0849,9.1102,-0.0056,0.0156,9.8066,-0.001,-0.057,0.0065,11.2,-14.91,-26.37,56.03,-0.7,3.99
40657,51.610622,-2.46637,112,25.58,10,28.3,Dec-22,4065788,2019-08-31 09:33:17:510,-0.1344,0.2081,9.5122,-0.0383,-0.0436,9.8065,-0.0096,-0.0091,0.0171,11.2,-14.91,-26.37,56.03,-0.7,3.99
40658,51.610622,-2.46637,112,25.58,10,28.3,Dec-22,4065888,2019-08-31 09:33:17:610,0.0415,0.2756,9.8338,-0.022,0.0186,9.8066,-0.0234,0.0293,0.0224,11.57,-15.28,-26.43,54.04,-0.36,3.95
40659,51.610622,-2.46637,112,25.58,10,28.3,Dec-22,4065988,2019-08-31 09:33:17:710,-0.4224,0.4336,10.3388,-0.0314,0.0716,9.8063,0.0011,-0.0123,0.0054,11.2,-15.22,-27.24,55.9,-0.59,3.55
40660,51.610622,-2.46637,112,25.58,10,28.3,Dec-22,4066088,2019-08-31 09:33:17:810,-0.2906,0.4379,10.1965,-0.0033,0.0395,9.8066,0.0011,-0.0123,0.0054,11.2,-15.28,-27.24,55.9,-0.59,3.55
40661,51.610622,-2.46637,112,25.58,10,28.3,Dec-22,4066188,2019-08-31 09:33:17:910,0.2587,0.606,9.1513,-0.0341,0.0794,9.8063,-0.0181,-0.0187,0.0182,11.2,-15.28,-27.24,55.9,-0.59,3.55
40662,51.610622,-2.46637,112,25.58,10,28.3,Dec-22,4066289,2019-08-31 09:33:18:011,-0.1632,0.2487,9.7689,-0.0085,0.0189,9.8066,0.0011,0.0026,0.0139,11.2,-15.59,-27.68,56.91,-0.86,3.13
40663,51.610622,-2.46637,112,25.58,10,28.3,Dec-22,4066387,2019-08-31 09:33:18:109,-0.2978,0.0072,9.2428,-0.0288,0.0328,9.8066,-0.0128,0.0218,0.0086,11.2,-15.59,-28.12,56.91,-0.86,3.13
40664,51.61083,-2.466215,109,25.9,9,26.7,Dec-22,4066488,2019-08-31 09:33:18:210,-0.1447,0.1006,9.3368,-0.0481,0.0273,9.8065,0.0032,-0.0091,0.0139,11.2,-15.97,-27.68,56.7,-0.84,2.81
40665,51.61083,-2.466215,109,25.9,9,26.7,Dec-22,4066588,2019-08-31 09:33:18:310,0.0726,-0.0987,9.1171,-0.023,-0.0071,9.8066,0.0117,-0.0282,-0.001,11.57,-15.28,-28.55,56.7,-0.84,2.81
40666,51.61083,-2.466215,109,25.9,9,26.7,Dec-22,4066687,2019-08-31 09:33:18:409,-0.1444,-0.2242,10.1458,-0.0424,-0.0141,9.8065,0.0288,0.0602,0.0033,11.57,-15.28,-28.55,56.7,-0.84,2.81
40667,51.61083,-2.466215,109,25.9,9,26.7,Dec-22,4066788,2019-08-31 09:33:18:510,-0.1201,0.0011,10.5219,0.0053,0.0162,9.8066,0.033,0.041,0.015,11.2,-15.66,-28.18,56.8,-0.64,2.64
40668,51.61083,-2.466215,109,25.9,9,26.7,Dec-22,4066888,2019-08-31 09:33:18:610,-0.5062,-0.3069,9.0992,0.0228,0.015,9.8066,0.033,0.041,0.015,11.2,-15.28,-28.18,56.8,-0.64,2.64
40669,51.61083,-2.466215,109,25.9,9,26.7,Dec-22,4066988,2019-08-31 09:33:18:710,-0.3371,-0.5029,8.8822,0.0404,0.042,9.8065,-0.0149,0.0176,0.0512,11.2,-15.66,-27.74,56.49,-0.97,2.71
40670,51.61083,-2.466215,109,25.9,9,26.7,Dec-22,4067088,2019-08-31 09:33:18:810,-0.0202,0.2713,9.1106,0.0011,-0.0127,9.8066,0.0022,-0.0219,0.0182,11.2,-15.66,-27.74,56.58,-0.91,2.75
40671,51.61083,-2.466215,109,25.9,9,26.7,Dec-22,4067187,2019-08-31 09:33:18:909,-0.3163,0.1471,9.8744,-0.0169,0.0183,9.8066,-0.0362,-0.0123,0.0256,11.2,-15.66,-27.74,56.58,-0.91,2.75
40672,51.61083,-2.466215,109,25.9,9,26.7,Dec-22,4067288,2019-08-31 09:33:19:010,0.2466,0.0842,10.0434,-0.0017,-0.0061,9.8066,0.0075,0.0261,0.0129,11.2,-15.66,-27.74,56.33,-1.0,2.53
40673,51.61083,-2.466215,109,25.9,9,26.7,Dec-22,4067388,2019-08-31 09:33:19:110,-0.5596,0.272,9.8158,-0.0148,-0.0436,9.8065,0.0725,0.0272,-0.0202,11.2,-15.28,-27.37,56.33,-1.0,2.53
40674,51.61105,-2.466039,107,25.91,9,26.1,Dec-22,4067488,2019-08-31 09:33:19:210,-0.5103,-0.0011,9.8096,-0.0169,-0.041,9.8065,0.0107,0.0474,-0.0063,11.2,-15.28,-27.37,56.33,-1.0,2.53
40675,51.61105,-2.466039,107,25.91,9,26.1,Dec-22,4067588,2019-08-31 09:33:19:310,-0.5713,0.0491,10.1608,0.008,0.0133,9.8066,0.0256,0.0165,0.0139,11.2,-15.66,-27.74,56.64,-0.74,2.58
40676,51.61105,-2.466039,107,25.91,9,26.1,Dec-22,4067689,2019-08-31 09:33:19:411,0.0604,-0.2094,10.0236,0.0205,-0.0075,9.8066,0.0256,0.0165,0.0139,10.82,-15.66,-27.8,56.54,-0.83,2.58
40677,51.61105,-2.466039,107,25.91,9,26.1,Dec-22,4067787,2019-08-31 09:33:19:509,0.0746,-0.4741,9.2471,0.0434,-0.012,9.8065,0.016,-0.0378,0.031,11.2,-15.28,-27.37,56.54,-0.83,2.58
40678,51.61105,-2.466039,107,25.91,9,26.1,Dec-22,4067888,2019-08-31 09:33:19:610,-0.036,-0.2196,9.8189,0.0805,-0.0105,9.8063,0.0192,-0.0346,0.0267,10.82,-15.28,-27.37,55.01,-1.04,3.01
40679,51.61105,-2.466039,107,25.91,9,26.1,Dec-22,4067988,2019-08-31 09:33:19:710,-0.285,-0.556,9.9592,0.0086,-0.0069,9.8066,0.0054,0.0058,0.0139,10.82,-15.28,-27.37,55.01,-1.04,3.01
40680,51.61105,-2.466039,107,25.91,9,26.1,Dec-22,4068087,2019-08-31 09:33:19:809,-0.4199,-0.4742,10.1169,-0.0106,-0.0259,9.8066,-0.0245,-0.0133,0.0203,10.82,-15.66,-27.37,56.64,-1.04,3.07
40681,51.61105,-2.466039,107,25.91,9,26.1,Dec-22,4068188,2019-08-31 09:33:19:910,0.0451,-0.1977,9.83,-0.0381,-0.0435,9.8065,-0.0149,-0.0144,0.0192,10.82,-15.28,-28.18,56.64,-1.04,3.07
40682,51.61105,-2.466039,107,25.91,9,26.1,Dec-22,4068289,2019-08-31 09:33:20:011,-0.401,-0.1816,9.8506,-0.0122,0.0071,9.8066,-0.0096,-0.0357,0.0342,11.2,-15.28,-27.37,55.39,-0.7,3.02
40683,51.61105,-2.466039,107,25.91,9,26.1,Dec-22,4068389,2019-08-31 09:33:20:111,-0.1102,0.0457,10.1817,-0.0045,0.0072,9.8066,-0.0053,0.009,0.0352,11.2,-14.91,-27.8,55.39,-0.72,2.98
40684,51.611256,-2.465879,107,25.88,9,25.5,Dec-22,4068487,2019-08-31 09:33:20:209,0.5949,0.159,8.4072,0.0016,-0.0105,9.8066,-0.0053,0.009,0.0352,11.2,-14.91,-27.8,55.39,-0.72,2.98
40685,51.611256,-2.465879,107,25.88,9,25.5,Dec-22,4068588,2019-08-31 09:33:20:310,1.2456,0.0302,9.6483,-0.0025,0.0112,9.8066,-0.0106,-0.008,0.0246,11.57,-14.91,-28.24,53.19,-0.64,2.99
40686,51.611256,-2.465879,107,25.88,9,25.5,Dec-22,4068688,2019-08-31 09:33:20:410,-0.1293,0.1189,9.8365,0.0041,0.0048,9.8067,-0.0117,-0.0421,0.0363,11.2,-14.53,-27.8,55.4,-0.68,2.94
40687,51.611256,-2.465879,107,25.88,9,25.5,Dec-22,4068788,2019-08-31 09:33:20:510,-0.8245,0.1956,9.2408,-0.0107,-0.0105,9.8066,-0.0266,-0.0176,0.0299,11.2,-14.53,-27.8,55.4,-0.68,2.94
40688,51.611256,-2.465879,107,25.88,9,25.5,Dec-22,4068888,2019-08-31 09:33:20:610,0.518,-0.0243,9.1501,-0.016,-0.0113,9.8066,-0.0266,-0.0506,0.0203,11.95,-14.53,-28.18,53.18,-0.6,2.92
40689,51.611256,-2.465879,107,25.88,9,25.5,Dec-22,4068988,2019-08-31 09:33:20:710,0.1265,-0.0584,9.72,-0.0165,-0.0038,9.8066,-0.0128,0.0154,0.0405,11.2,-14.91,-27.8,53.18,-0.6,2.92
40690,51.611256,-2.465879,107,25.88,9,25.5,Dec-22,4069088,2019-08-31 09:33:20:810,0.2237,-0.3851,10.3778,-0.0051,0.0046,9.8066,0.0107,0.0058,0.0224,11.46,-14.95,-25.51,55.33,-0.6,2.88
40691,51.611256,-2.465879,107,25.88,9,25.5,Dec-22,4069188,2019-08-31 09:33:20:910,-0.3307,-0.1143,10.0665,0.0111,-0.0028,9.8066,-0.0042,-0.0144,0.0224,11.46,-14.95,-25.51,55.33,-0.6,2.88
40692,51.611256,-2.465879,107,25.88,9,25.5,Dec-22,4069288,2019-08-31 09:33:21:010,0.0639,-0.2918,9.0742,0.0273,-0.0081,9.8066,-0.0042,-0.0144,0.0224,11.08,-14.2,-25.14,53.62,-0.65,3.04
40693,51.611256,-2.465879,107,25.88,9,25.5,Dec-22,4069388,2019-08-31 09:33:21:110,-0.2362,0.1914,9.6788,0.0177,0.0047,9.8066,0.0085,0.0261,0.016,11.46,-14.58,-25.14,53.62,-0.65,3.04
40694,51.611465,-2.465727,106,25.86,9,24.9,Dec-22,4069487,2019-08-31 09:33:21:209,0.4591,-0.1442,8.989,0.0078,-0.0236,9.8066,0.033,0.0069,0.0043,11.46,-14.58,-25.14,55.37,-0.68,3.12
40695,51.611465,-2.465727,106,25.86,9,24.9,Dec-22,4069587,2019-08-31 09:33:21:309,0.0639,0.2208,9.5841,0.0254,-0.0282,9.8066,0.0085,0.0229,0.0384,11.46,-14.58,-25.14,55.37,-0.68,3.12
40696,51.611465,-2.465727,106,25.86,9,24.9,Dec-22,4069688,2019-08-31 09:33:21:410,-0.2317,-0.044,10.9823,0.0151,0.0095,9.8066,-0.0074,-0.0378,0.0448,11.08,-13.83,-25.14,53.87,-0.63,3.33
40697,51.611465,-2.465727,106,25.86,9,24.9,Dec-22,4069788,2019-08-31 09:33:21:510,-0.0872,-0.1611,9.1402,0.0123,0.0109,9.8066,-0.0277,-0.0123,0.0267,11.46,-14.58,-25.14,53.87,-0.63,3.33
40698,51.611465,-2.465727,106,25.86,9,24.9,Dec-22,4069888,2019-08-31 09:33:21:610,0.0442,-0.1624,8.8625,-0.0223,-0.0116,9.8066,-0.017,-0.0677,0.0246,11.46,-14.2,-25.08,53.79,-0.72,3.36
40699,51.611465,-2.465727,106,25.86,9,24.9,Dec-22,4069988,2019-08-31 09:33:21:710,-0.1575,-0.1647,10.4182,-0.03,-0.0264,9.8066,-0.017,-0.0677,0.0246,11.46,-14.2,-25.08,53.79,-0.72,3.36
40700,51.611465,-2.465727,106,25.86,9,24.9,Dec-22,4070088,2019-08-31 09:33:21:810,0.235,-0.1643,9.9275,0.0217,0.009,9.8066,0.0309,0.0346,0.0256,11.46,-14.58,-25.14,55.68,-0.49,3.3
40701,51.611465,-2.465727,106,25.86,9,24.9,Dec-22,4070188,2019-08-31 09:33:21:910,0.8084,0.0534,9.9203,0.0359,-0.0085,9.8066,-0.0032,-0.0123,0.0395,11.46,-14.58,-25.14,55.62,-0.61,3.38
40702,51.611465,-2.465727,106,25.86,9,24.9,Dec-22,4070288,2019-08-31 09:33:22:010,-0.4564,-0.2874,10.2409,0.054,-0.012,9.8065,-0.0373,0.0325,0.0107,11.46,-14.58,-25.14,55.7,-0.73,3.68
40703,51.611465,-2.465727,106,25.86,9,24.9,Dec-22,4070388,2019-08-31 09:33:22:110,-0.3014,-0.016,9.4022,-0.0787,0.0681,9.8061,-0.0532,0.0421,0.0203,11.46,-14.58,-24.33,55.7,-0.73,3.68
40704,51.61168,-2.465584,106,25.8,10,24.1,Dec-22,4070487,2019-08-31 09:33:22:209,-0.1632,0.1386,9.5934,-0.1101,0.0504,9.8059,0.0032,-0.0581,0.0395,11.46,-14.58,-24.33,55.7,-0.73,3.68
40705,51.61168,-2.465584,106,25.8,10,24.1,Dec-22,4070588,2019-08-31 09:33:22:310,-0.3964,-0.0934,8.896,-0.002,-0.0306,9.8066,0.0309,-0.0378,0.0097,11.46,-14.95,-24.7,55.34,-0.61,2.98
40706,51.61168,-2.465584,106,25.8,10,24.1,Dec-22,4070687,2019-08-31 09:33:22:409,0.1138,-0.1272,9.936,-0.0206,-0.066,9.8064,0.0309,-0.0378,0.0097,11.83,-14.58,-25.08,55.34,-0.61,2.98
40707,51.61168,-2.465584,106,25.8,10,24.1,Dec-22,4070788,2019-08-31 09:33:22:510,-0.3895,0.0628,10.3549,-0.0408,-0.0616,9.8064,-0.0287,0.0112,0.0182,11.83,-14.58,-24.33,53.36,-0.18,2.99
40708,51.61168,-2.465584,106,25.8,10,24.1,Dec-22,4070889,2019-08-31 09:33:22:611,0.0524,0.3378,10.2231,0.005,0.0133,9.8066,-0.0096,0.0303,0.0299,11.46,-14.58,-25.14,53.36,-0.18,2.99
40709,51.61168,-2.465584,106,25.8,10,24.1,Dec-22,4070989,2019-08-31 09:33:22:711,0.0765,0.1029,10.0186,0.047,0.0295,9.8065,0.0458,0.0346,0.0139,11.46,-14.58,-25.14,53.36,-0.18,2.99
40710,51.61168,-2.465584,106,25.8,10,24.1,Dec-22,4071088,2019-08-31 09:33:22:810,0.2458,-0.0468,9.7006,0.046,0.0099,9.8065,0.0373,-0.0091,0.0086,11.08,-13.83,-24.7,53.85,-0.48,3.11
40711,51.61168,-2.465584,106,25.8,10,24.1,Dec-22,4071189,2019-08-31 09:33:22:911,-0.0756,-0.0943,9.5115,0.0585,-0.0057,9.8065,-0.0181,-0.0229,0.0022,11.46,-14.2,-24.7,53.9,-0.65,3.4
40712,51.61168,-2.465584,106,25.8,10,24.1,Dec-22,4071288,2019-08-31 09:33:23:010,-0.0903,0.1378,8.7364,-0.0297,-0.0078,9.8066,0.0128,0.0048,-0.0021,11.46,-14.2,-25.14,53.95,-0.51,3.29
40713,51.61168,-2.465584,106,25.8,10,24.1,Dec-22,4071389,2019-08-31 09:33:23:111,0.015,0.1888,9.484,-0.0336,0.0126,9.8066,0.0224,-0.0219,0.0139,11.46,-14.2,-25.08,53.95,-0.51,3.29
40714,51.611893,-2.465442,105,26.01,9,22.6,Dec-22,4071488,2019-08-31 09:33:23:210,-0.0391,0.1767,9.8055,-0.0577,-0.0201,9.8065,0.0224,-0.0219,0.0139,11.46,-14.2,-25.08,53.95,-0.51,3.29
40715,51.611893,-2.465442,105,26.01,9,22.6,Dec-22,4071589,2019-08-31 09:33:23:311,-0.116,-0.2762,9.9974,-0.0078,-0.0045,9.8066,0.0171,-0.0219,0.015,11.83,-14.2,-24.7,51.72,-0.22,3.09
40716,51.611893,-2.465442,105,26.01,9,22.6,Dec-22,4071688,2019-08-31 09:33:23:410,-0.6839,-0.0038,9.9121,-0.0154,0.0138,9.8066,-0.0213,0.0037,0.0405,11.83,-14.2,-24.7,51.72,-0.22,3.09
40717,51.611893,-2.465442,105,26.01,9,22.6,Dec-22,4071787,2019-08-31 09:33:23:509,-0.0306,-0.2733,10.3381,0.0024,0.0273,9.8066,-0.0138,0.0176,0.0256,11.46,-14.2,-25.14,54.0,-0.23,2.97
40718,51.611893,-2.465442,105,26.01,9,22.6,Dec-22,4071888,2019-08-31 09:33:23:610,-0.3685,-0.2813,9.9287,0.0025,0.0191,9.8066,-0.0245,0.0058,0.0331,11.46,-14.2,-25.51,53.87,-0.37,2.88
40719,51.611893,-2.465442,105,26.01,9,22.6,Dec-22,4071988,2019-08-31 09:33:23:710,0.4647,-0.2772,10.6573,0.0203,0.0169,9.8066,-0.0032,-0.0016,0.0373,11.08,-14.2,-24.7,53.87,-0.37,2.88
40720,51.611893,-2.465442,105,26.01,9,22.6,Dec-22,4072088,2019-08-31 09:33:23:810,-0.114,0.1873,9.8251,0.0277,0.0066,9.8066,0.016,0.0048,0.0267,11.46,-13.83,-24.7,53.75,-0.49,2.99
40721,51.611893,-2.465442,105,26.01,9,22.6,Dec-22,4072187,2019-08-31 09:33:23:909,0.4037,0.1031,8.5863,-0.0018,-0.0187,9.8066,0.0022,-0.0645,0.031,11.83,-14.2,-24.7,53.75,-0.49,2.99
40722,51.611893,-2.465442,105,26.01,9,22.6,Dec-22,4072288,2019-08-31 09:33:24:010,0.1474,-0.0912,9.7389,-0.0023,-0.0369,9.8066,0.0022,-0.0645,0.031,11.83,-14.2,-24.7,53.75,-0.49,2.99
40723,51.611893,-2.465442,105,26.01,9,22.6,Dec-22,4072389,2019-08-31 09:33:24:111,0.1281,0.2452,9.3586,0.0208,-0.0424,9.8065,0.032,-0.0091,0.015,11.46,-14.2,-24.7,54.07,-0.37,3.24
40724,51.612106,-2.465309,105,26.16,10,21.5,Dec-22,4072488,2019-08-31 09:33:24:210,0.0025,-0.1436,9.4163,0.0107,0.005,9.8066,0.0256,-0.0101,0.0054,11.46,-13.83,-24.64,54.07,-0.37,3.24
40725,51.612106,-2.465309,105,26.16,10,21.5,Dec-22,4072588,2019-08-31 09:33:24:310,0.2869,-0.0689,10.3022,0.0119,-0.0021,9.8066,0.0043,-0.0176,0.032,11.83,-13.45,-24.26,49.69,-0.43,3.28
40726,51.612106,-2.465309,105,26.16,10,21.5,Dec-22,4072689,2019-08-31 09:33:24:411,-0.4298,-0.2433,9.894,0.032,0.0117,9.8066,0.0011,0.0314,0.0096,11.83,-13.45,-24.26,49.69,-0.43,3.28
40727,51.612106,-2.465309,105,26.16,10,21.5,Dec-22,4072787,2019-08-31 09:33:24:509,-0.5541,-0.2476,10.1482,-0.0293,-0.0031,9.8066,-0.0255,-0.0421,0.016,11.46,-13.45,-24.7,52.08,-0.61,3.37
40728,51.612106,-2.465309,105,26.16,10,21.5,Dec-22,4072888,2019-08-31 09:33:24:610,-0.5679,0.1147,9.8243,-0.0591,-0.0288,9.8064,0.0288,-0.0336,0.0011,11.83,-13.45,-24.64,52.08,-0.61,3.37
40729,51.612106,-2.465309,105,26.16,10,21.5,Dec-22,4072988,2019-08-31 09:33:24:710,-0.1981,0.0132,9.8127,-0.0611,-0.0352,9.8064,-0.0106,0.0346,0.0437,11.83,-13.45,-24.26,49.84,-0.22,3.22
40730,51.612106,-2.465309,105,26.16,10,21.5,Dec-22,4073087,2019-08-31 09:33:24:809,-0.0035,-0.0127,9.5665,0.0314,0.0226,9.8066,-0.0106,0.0346,0.0437,12.21,-13.08,-24.26,49.68,-0.44,3.27
40731,51.612106,-2.465309,105,26.16,10,21.5,Dec-22,4073188,2019-08-31 09:33:24:910,-0.1985,-0.0779,10.1849,0.0205,-0.0061,9.8066,0.0203,-0.0005,0.0235,12.21,-13.08,-24.26,49.68,-0.44,3.27
40732,51.612106,-2.465309,105,26.16,10,21.5,Dec-22,4073288,2019-08-31 09:33:25:010,0.1586,-0.1799,9.0906,0.0038,-0.0436,9.8066,0.0085,-0.0741,0.0075,12.58,-13.08,-24.64,47.85,-0.26,3.46
40733,51.612106,-2.465309,105,26.16,10,21.5,Dec-22,4073388,2019-08-31 09:33:25:110,-0.2152,-0.1179,9.3505,-0.0241,-0.0041,9.8066,-0.0042,0.0016,0.0299,12.58,-13.83,-24.7,49.77,-0.15,3.37
40734,51.612316,-2.465192,103,25.8,10,20.9,Dec-22,4073487,2019-08-31 09:33:25:209,-0.0502,-0.0423,10.3236,-0.0074,0.0062,9.8066,-0.001,0.0208,0.015,12.58,-13.83,-24.7,49.77,-0.15,3.37
40735,51.612316,-2.465192,103,25.8,10,20.9,Dec-22,4073588,2019-08-31 09:33:25:310,-0.1063,-0.2611,9.6062,-0.0025,0.0075,9.8066,-0.0085,-0.0048,0.0299,12.89,-14.2,-24.64,49.77,-0.15,3.37
40736,51.612316,-2.465192,103,25.8,10,20.9,Dec-22,4073689,2019-08-31 09:33:25:411,-0.0846,-0.0683,9.7328,-0.0247,-0.0041,9.8066,-0.0085,0.009,0.0139,12.21,-13.83,-24.2,51.86,-0.18,3.33
40737,51.612316,-2.465192,103,25.8,10,20.9,Dec-22,4073787,2019-08-31 09:33:25:509,-0.0648,0.1551,10.1038,-0.0012,0.0378,9.8066,-0.0383,0.0218,0.0278,12.58,-14.2,-24.64,49.74,-0.07,3.23
40738,51.612316,-2.465192,103,25.8,10,20.9,Dec-22,4073888,2019-08-31 09:33:25:610,0.0753,0.3898,10.2663,0.001,0.0684,9.8064,-0.0383,0.0218,0.0278,12.21,-14.2,-24.64,49.74,-0.07,3.23
40739,51.612316,-2.465192,103,25.8,10,20.9,Dec-22,4073989,2019-08-31 09:33:25:711,0.0874,0.323,9.7038,0.0004,0.0105,9.8066,0.0213,0.025,0.0139,11.83,-13.83,-24.64,51.49,-0.38,2.98
40740,51.612316,-2.465192,103,25.8,10,20.9,Dec-22,4074088,2019-08-31 09:33:25:810,0.3698,0.1936,9.504,-0.0087,0.0132,9.8066,0.0171,0.0261,0.0203,11.83,-13.83,-24.64,51.49,-0.38,2.98
40741,51.612316,-2.465192,103,25.8,10,20.9,Dec-22,4074187,2019-08-31 09:33:25:909,0.0895,0.2134,9.5382,-0.0036,-0.0088,9.8066,-0.0085,-0.0506,0.0341,11.83,-13.83,-24.26,51.31,-0.4,2.89
40742,51.612316,-2.465192,103,25.8,10,20.9,Dec-22,4074288,2019-08-31 09:33:26:010,-0.1449,0.0741,9.661,-0.0108,-0.0297,9.8066,0.0192,0.0026,0.0096,11.83,-13.83,-25.08,51.31,-0.4,2.89
40743,51.612316,-2.465192,103,25.8,10,20.9,Dec-22,4074387,2019-08-31 09:33:26:109,-0.0627,-0.0415,9.7676,-0.0236,-0.0134,9.8066,0.016,0.0112,0.0139,11.83,-13.83,-24.64,51.61,-0.23,2.95
40744,51.612537,-2.465072,103,25.84,10,20.0,Dec-22,4074488,2019-08-31 09:33:26:210,0.2206,-0.3717,10.0887,-0.019,-0.0128,9.8066,0.0064,0.008,0.0182,11.83,-13.83,-24.64,51.7,-0.1,2.91
40745,51.612537,-2.465072,103,25.84,10,20.0,Dec-22,4074588,2019-08-31 09:33:26:310,0.197,-0.1423,10.1106,0.0087,0.0017,9.8066,0.0064,0.008,0.0182,12.21,-13.83,-24.64,51.69,-0.14,2.94
40746,51.612537,-2.465072,103,25.84,10,20.0,Dec-22,4074688,2019-08-31 09:33:26:410,0.0333,0.0789,10.2037,-0.0037,0.0187,9.8066,-0.0085,0.0101,0.0139,11.83,-13.45,-24.64,51.69,-0.14,2.94
40747,51.612537,-2.465072,103,25.84,10,20.0,Dec-22,4074788,2019-08-31 09:33:26:510,-0.1952,-0.1224,10.5583,0.0165,0.0153,9.8066,0.0128,-0.0005,0.0043,11.83,-13.83,-25.51,51.35,-0.4,2.74
40748,51.612537,-2.465072,103,25.84,10,20.0,Dec-22,4074888,2019-08-31 09:33:26:610,-0.1589,-0.2719,9.5783,0.0328,0.0074,9.8066,0.0618,0.0101,0.0214,11.83,-13.83,-25.51,51.35,-0.4,2.74
40749,51.612537,-2.465072,103,25.84,10,20.0,Dec-22,4074989,2019-08-31 09:33:26:711,-0.4827,-0.2062,9.3319,0.0002,-0.0124,9.8066,-0.0053,-0.0187,0.0299,11.83,-13.45,-25.08,49.31,-0.56,2.86
40750,51.612537,-2.465072,103,25.84,10,20.0,Dec-22,4075088,2019-08-31 09:33:26:810,-0.2189,-0.1392,9.5927,-0.0372,-0.0489,9.8065,-0.0224,-0.0282,0.0075,11.83,-13.45,-24.64,49.68,-0.2,2.88
40751,51.612537,-2.465072,103,25.84,10,20.0,Dec-22,4075189,2019-08-31 09:33:26:911,-0.2655,-0.3965,9.9682,-0.0531,-0.0242,9.8065,0.0149,0.0389,0.0235,12.21,-13.83,-24.64,49.68,-0.2,2.88
40752,51.612537,-2.465072,103,25.84,10,20.0,Dec-22,4075288,2019-08-31 09:33:27:010,-0.1418,0.128,10.3885,-0.034,-0.0103,9.8066,0.0235,0.0591,0.0278,12.21,-13.83,-24.64,49.68,-0.2,2.88
40753,51.61274,-2.464953,101,25.74,10,19.3,Dec-22,4075390,2019-08-31 09:33:27:112,0.1909,-0.0415,10.7122,0.033,0.0119,9.8066,0.0085,-0.0048,0.0278,11.83,-13.83,-25.01,51.49,-0.38,2.98
40754,51.61274,-2.464953,101,25.74,10,19.3,Dec-22,4075488,2019-08-31 09:33:27:210,0.1867,-0.1475,9.1875,0.0497,0.0014,9.8065,0.0085,-0.0048,0.0278,11.83,-13.08,-25.01,51.49,-0.38,2.98
40755,51.61274,-2.464953,101,25.74,10,19.3,Dec-22,4075588,2019-08-31 09:33:27:310,0.1629,0.0946,8.3641,0.0367,-0.0162,9.8066,-0.0224,-0.0421,0.0192,11.83,-13.08,-25.01,51.49,-0.38,2.98
40756,51.61274,-2.464953,101,25.74,10,19.3,Dec-22,4075688,2019-08-31 09:33:27:410,0.3088,0.3157,8.8516,-0.0615,0.0145,9.8064,-0.0351,-0.0091,0.0107,11.83,-13.08,-24.64,49.73,-0.44,3.21
40757,51.61274,-2.464953,101,25.74,10,19.3,Dec-22,4075788,2019-08-31 09:33:27:510,-0.0572,0.0357,9.9737,-0.0181,0.019,9.8066,-0.0085,0.0154,0.0096,12.21,-13.08,-24.64,49.61,-0.27,2.88
40758,51.61274,-2.464953,101,25.74,10,19.3,Dec-22,4075888,2019-08-31 09:33:27:610,0.3882,-0.0668,9.4717,-0.0334,-0.0141,9.8066,-0.0106,-0.0496,0.0288,12.21,-12.7,-25.01,49.47,-0.28,2.73
40759,51.61274,-2.464953,101,25.74,10,19.3,Dec-22,4075988,2019-08-31 09:33:27:710,0.055,0.2514,8.8803,-0.0243,-0.024,9.8066,0.0309,0.0261,0.0224,12.21,-12.7,-25.01,49.47,-0.28,2.73
40760,51.61274,-2.464953,101,25.74,10,19.3,Dec-22,4076088,2019-08-31 09:33:27:810,0.3263,-0.0228,9.5528,0.0337,-0.0064,9.8066,0.0085,-0.0016,0.0448,11.83,-13.08,-24.64,49.65,-0.08,2.71
40761,51.61274,-2.464953,101,25.74,10,19.3,Dec-22,4076188,2019-08-31 09:33:27:910,0.4242,-0.178,10.0059,0.0547,-0.0182,9.8065,0.0085,-0.0016,0.0448,11.83,-13.08,-25.45,49.79,-0.21,3.02
40762,51.61274,-2.464953,101,25.74,10,19.3,Dec-22,4076288,2019-08-31 09:33:28:010,0.606,-0.0736,9.5894,0.0138,-0.012,9.8066,-0.0149,-0.0293,0.0256,12.21,-13.08,-25.08,49.88,-0.21,3.13
40763,51.61296,-2.46483,100,25.92,10,18.4,Dec-22,4076388,2019-08-31 09:33:28:110,-0.0082,-0.001,9.437,0.0258,0.0061,9.8066,0.0256,0.0463,0.0033,12.21,-13.08,-25.08,49.88,-0.21,3.13
40764,51.61296,-2.46483,100,25.92,10,18.4,Dec-22,4076487,2019-08-31 09:33:28:209,-0.1417,-0.208,10.4897,0.0233,0.0044,9.8066,0.0245,0.0005,0.0203,11.83,-12.7,-25.01,49.84,-0.33,3.22
40765,51.61296,-2.46483,100,25.92,10,18.4,Dec-22,4076588,2019-08-31 09:33:28:310,-0.2813,-0.3536,9.9483,0.0251,-0.0212,9.8066,0.0085,-0.0208,0.0246,11.83,-12.39,-25.08,47.97,-0.33,3.42
40766,51.61296,-2.46483,100,25.92,10,18.4,Dec-22,4076687,2019-08-31 09:33:28:409,0.2907,0.1027,9.8641,0.0003,0.0129,9.8066,0.0192,0.0378,-0.0106,12.21,-12.7,-25.08,50.14,-0.24,3.48
40767,51.61296,-2.46483,100,25.92,10,18.4,Dec-22,4076788,2019-08-31 09:33:28:510,-0.0067,0.2262,9.3608,-0.0046,0.0501,9.8065,-0.0128,0.0261,0.0203,12.21,-12.7,-25.08,50.14,-0.24,3.48
40768,51.61296,-2.46483,100,25.92,10,18.4,Dec-22,4076888,2019-08-31 09:33:28:610,-0.2761,0.002,10.5205,-0.0071,0.0031,9.8066,0.0085,0.0133,0.0054,11.08,-13.08,-25.01,52.17,-0.45,3.28
40769,51.61296,-2.46483,100,25.92,10,18.4,Dec-22,4076988,2019-08-31 09:33:28:710,0.1067,0.049,9.2384,-0.0249,-0.0055,9.8066,0.0085,0.0133,0.0054,10.33,-13.08,-25.08,52.17,-0.45,3.28
40770,51.61296,-2.46483,100,25.92,10,18.4,Dec-22,4077087,2019-08-31 09:33:28:809,-0.4024,0.1205,9.6872,-0.0146,-0.0047,9.8066,-0.0266,-0.0282,0.0395,8.56,-15.23,-24.39,60.75,-0.33,3.18
40771,51.61296,-2.46483,100,25.92,10,18.4,Dec-22,4077188,2019-08-31 09:33:28:910,0.2974,0.3678,10.303,-0.0171,0.0087,9.8066,-0.0149,0.0122,0.0299,7.64,-24.24,-15.94,60.75,-0.33,3.18
40772,51.61296,-2.46483,100,25.92,10,18.4,Dec-22,4077288,2019-08-31 09:33:29:010,0.2396,-0.1374,10.0425,-0.002,0.0148,9.8066,-0.0319,0.0016,0.0341,19.14,-14.2,-23.39,38.49,-0.4,3.13
40773,51.613186,-2.464712,99,25.62,9,17.8,Dec-22,4077387,2019-08-31 09:33:29:109,0.4532,0.2358,10.0156,0.0035,0.0146,9.8066,0.0032,0.0208,0.0139,19.14,-14.2,-23.39,38.49,-0.4,3.13
40774,51.613186,-2.464712,99,25.62,9,17.8,Dec-22,4077488,2019-08-31 09:33:29:210,0.2614,-0.1164,9.3476,0.034,0.0109,9.8066,0.0085,0.0186,0.0246,14.39,-13.45,-24.2,45.16,-0.47,3.07
40775,51.613186,-2.464712,99,25.62,9,17.8,Dec-22,4077589,2019-08-31 09:33:29:311,0.2648,-0.323,10.2567,0.0119,-0.0218,9.8066,0.0213,-0.0144,0.0278,12.21,-12.7,-25.08,49.48,-0.66,3.17
40776,51.613186,-2.464712,99,25.62,9,17.8,Dec-22,4077689,2019-08-31 09:33:29:411,-0.3329,0.0235,9.7858,0.0133,-0.0439,9.8065,0.0245,-0.0144,0.0128,12.21,-12.33,-25.01,47.77,-0.51,3.4
40777,51.613186,-2.464712,99,25.62,9,17.8,Dec-22,4077789,2019-08-31 09:33:29:511,-0.1043,-0.291,9.5107,0.0065,-0.0172,9.8066,0.0,0.008,0.0001,12.21,-12.33,-25.01,47.77,-0.51,3.4
40778,51.613186,-2.464712,99,25.62,9,17.8,Dec-22,4077888,2019-08-31 09:33:29:610,-0.3641,-0.0642,9.4518,-0.0118,0.0048,9.8066,0.0,0.008,0.0001,12.21,-12.39,-24.64,47.91,-0.46,3.49
40779,51.613186,-2.464712,99,25.62,9,17.8,Dec-22,4077988,2019-08-31 09:33:29:710,-0.1357,-0.4277,9.5419,-0.0154,0.0109,9.8066,0.0085,0.0357,0.0214,11.83,-13.08,-24.64,49.85,-0.45,3.38
40780,51.613186,-2.464712,99,25.62,9,17.8,Dec-22,4078088,2019-08-31 09:33:29:810,-0.0523,-0.0059,9.656,0.0048,-0.0056,9.8066,0.0352,0.0122,0.0054,11.83,-13.08,-24.64,49.85,-0.45,3.38
40781,51.613186,-2.464712,99,25.62,9,17.8,Dec-22,4078188,2019-08-31 09:33:29:910,-0.2123,0.0571,10.7031,0.0211,0.0077,9.8066,-0.016,-0.0112,0.0437,11.83,-12.7,-25.45,49.9,-0.44,3.43
40782,51.613186,-2.464712,99,25.62,9,17.8,Dec-22,4078288,2019-08-31 09:33:30:010,0.2324,-0.1051,10.4074,0.0455,0.0179,9.8065,-0.017,0.0133,0.0341,11.83,-12.39,-24.64,47.74,-0.7,3.56
40783,51.613186,-2.464712,99,25.62,9,17.8,Dec-22,4078387,2019-08-31 09:33:30:109,-0.4236,-0.0507,9.8182,0.0098,-0.0079,9.8066,0.0362,-0.0133,0.0086,11.83,-12.39,-24.64,47.74,-0.7,3.56
40784,51.613407,-2.464605,100,25.43,9,17.0,Dec-22,4078488,2019-08-31 09:33:30:210,0.0012,-0.427,9.0759,0.0145,-0.0072,9.8066,0.0096,0.0026,0.0118,12.21,-12.33,-25.01,47.8,-0.7,3.63
40785,51.613407,-2.464605,100,25.43,9,17.0,Dec-22,4078588,2019-08-31 09:33:30:310,0.2009,0.2251,10.1597,0.0014,-0.0344,9.8066,0.0032,-0.0559,0.0128,12.3,-12.42,-24.38,47.8,-0.7,3.63
40786,51.613407,-2.464605,100,25.43,9,17.0,Dec-22,4078688,2019-08-31 09:33:30:410,-0.0894,0.0937,10.3136,-0.0195,0.0091,9.8066,0.0032,-0.0559,0.0128,12.03,-12.22,-24.61,48.07,-0.56,3.78
40787,51.613407,-2.464605,100,25.43,9,17.0,Dec-22,4078788,2019-08-31 09:33:30:510,0.2912,0.3879,10.409,-0.0195,0.0091,9.8066,-0.0032,0.041,0.0224,12.61,-12.36,-24.26,48.07,-0.56,3.78
40788,51.613407,-2.464605,100,25.43,9,17.0,Dec-22,4078888,2019-08-31 09:33:30:610,0.0659,0.6426,9.8726,0.019,0.0054,9.8066,0.0203,0.0453,0.0096,12.21,-12.39,-24.64,47.78,-0.62,3.53
40789,51.613407,-2.464605,100,25.43,9,17.0,Dec-22,4078988,2019-08-31 09:33:30:710,0.7329,0.2711,8.8655,0.0281,-0.0007,9.8066,0.0235,-0.0123,0.0171,12.21,-12.02,-25.01,47.78,-0.62,3.53
40790,51.613407,-2.464605,100,25.43,9,17.0,Dec-22,4079087,2019-08-31 09:33:30:809,0.3874,0.1239,8.9523,0.0341,-0.0024,9.8066,-0.0266,-0.0559,0.0437,12.21,-12.02,-24.64,47.8,-0.75,3.69
40791,51.613407,-2.464605,100,25.43,9,17.0,Dec-22,4079187,2019-08-31 09:33:30:909,0.0228,-0.03,9.5957,0.0019,-0.004,9.8067,0.0298,0.0176,0.016,12.21,-12.02,-24.64,47.8,-0.75,3.69
40792,51.613407,-2.464605,100,25.43,9,17.0,Dec-22,4079288,2019-08-31 09:33:31:010,0.1427,-0.108,9.7534,-0.0003,-0.0062,9.8066,0.0064,-0.0336,0.0171,12.58,-12.02,-25.08,45.6,-0.74,3.71
40793,51.613407,-2.464605,100,25.43,9,17.0,Dec-22,4079390,2019-08-31 09:33:31:112,-0.2086,0.0265,9.6523,-0.0063,-0.0214,9.8066,-0.0309,-0.0005,0.0437,12.22,-12.03,-24.61,45.6,-0.74,3.71
40794,51.613625,-2.464507,100,25.46,10,15.9,Dec-22,4079487,2019-08-31 09:33:31:209,0.12,-0.4134,10.3657,-0.0146,-0.0389,9.8066,-0.0309,-0.0005,0.0437,12.73,-11.78,-24.48,45.77,-0.52,3.81
40795,51.613625,-2.464507,100,25.46,10,15.9,Dec-22,4079588,2019-08-31 09:33:31:310,-0.2601,0.1962,9.9382,-0.0109,0.0058,9.8066,0.0021,0.0346,0.0011,12.73,-11.78,-24.48,45.77,-0.52,3.81
40796,51.613625,-2.464507,100,25.46,10,15.9,Dec-22,4079688,2019-08-31 09:33:31:410,-0.1241,0.5083,9.9975,-0.0024,0.0451,9.8065,-0.016,0.0719,0.0309,13.12,-12.7,-23.8,47.49,-0.69,3.62
40797,51.613625,-2.464507,100,25.46,10,15.9,Dec-22,4079787,2019-08-31 09:33:31:509,-0.3685,0.0295,10.7086,0.0114,0.0379,9.8066,0.0149,0.0069,0.0214,13.07,-13.05,-23.64,47.23,-0.9,3.51
40798,51.613625,-2.464507,100,25.46,10,15.9,Dec-22,4079888,2019-08-31 09:33:31:610,0.1951,-0.1149,9.2865,0.0154,0.0028,9.8066,0.0064,-0.0005,0.0341,13.07,-13.05,-23.64,47.23,-0.9,3.51
40799,51.613625,-2.464507,100,25.46,10,15.9,Dec-22,4079988,2019-08-31 09:33:31:710,-0.0004,-0.3127,9.4951,0.0178,0.0126,9.8066,-0.0277,-0.0005,0.0278,13.45,-12.62,-23.66,47.23,-0.9,3.51
40800,51.613625,-2.464507,100,25.46,10,15.9,Dec-22,4080089,2019-08-31 09:33:31:811,-0.4169,0.1191,9.5379,-0.0112,-0.0066,9.8066,0.016,-0.0048,0.0001,13.05,-13.03,-23.66,47.15,-1.03,3.54
40801,51.613625,-2.464507,100,25.46,10,15.9,Dec-22,4080188,2019-08-31 09:33:31:910,0.0275,-0.1259,9.8469,-0.0378,-0.0442,9.8065,0.0021,-0.0208,0.0001,13.05,-13.03,-23.66,47.15,-1.03,3.54
40802,51.613625,-2.464507,100,25.46,10,15.9,Dec-22,4080287,2019-08-31 09:33:32:009,-0.2229,0.0135,9.3844,-0.0274,-0.0047,9.8066,0.0021,-0.0208,0.0001,13.14,-12.33,-23.98,45.4,-0.69,3.55
40803,51.613625,-2.464507,100,25.46,10,15.9,Dec-22,4080387,2019-08-31 09:33:32:109,0.3,0.4785,8.9277,-0.017,0.0229,9.8066,-0.0032,-0.0176,0.0224,13.07,-13.05,-23.64,47.29,-0.71,3.39
40804,51.613853,-2.464406,99,25.35,10,15.3,Dec-22,4080488,2019-08-31 09:33:32:210,0.6487,0.1324,9.4841,0.0091,0.0124,9.8066,0.0245,0.057,0.0139,12.82,-12.41,-24.12,47.29,-0.71,3.39
40805,51.613853,-2.464406,99,25.35,10,15.3,Dec-22,4080588,2019-08-31 09:33:32:310,-0.1313,0.0344,10.345,0.005,0.0079,9.8066,0.0128,0.0676,0.0267,12.82,-12.41,-24.12,47.29,-0.71,3.39
40806,51.613853,-2.464406,99,25.35,10,15.3,Dec-22,4080688,2019-08-31 09:33:32:410,-0.072,0.2624,9.5846,0.0194,0.0096,9.8066,0.0043,0.0463,0.0128,13.31,-12.49,-23.81,45.14,-0.86,3.42
40807,51.613853,-2.464406,99,25.35,10,15.3,Dec-22,4080788,2019-08-31 09:33:32:510,0.4381,0.0162,9.4595,0.0132,0.0111,9.8066,-0.0042,0.0058,0.0235,13.23,-12.82,-23.68,45.14,-0.86,3.42
40808,51.613853,-2.464406,99,25.35,10,15.3,Dec-22,4080888,2019-08-31 09:33:32:610,-0.2955,-0.1049,10.2896,-0.0077,-0.0144,9.8066,0.048,0.0602,-0.0042,12.91,-12.89,-23.81,47.11,-0.96,3.43
40809,51.613853,-2.464406,99,25.35,10,15.3,Dec-22,4080988,2019-08-31 09:33:32:710,-0.2513,0.2227,9.4946,-0.0071,-0.0344,9.8066,0.0171,-0.0123,0.0235,12.98,-12.56,-23.95,47.35,-0.79,3.54
40810,51.613853,-2.464406,99,25.35,10,15.3,Dec-22,4081088,2019-08-31 09:33:32:810,0.4124,0.0999,10.3405,0.0064,0.0066,9.8066,0.0171,-0.0123,0.0235,12.98,-12.56,-23.95,47.35,-0.79,3.54
40811,51.613853,-2.464406,99,25.35,10,15.3,Dec-22,4081189,2019-08-31 09:33:32:911,-0.1067,0.4382,10.0765,-0.0242,-0.0095,9.8066,0.0235,0.025,-0.0053,13.15,-12.72,-23.78,47.3,-0.84,3.54
40812,51.613853,-2.464406,99,25.35,10,15.3,Dec-22,4081288,2019-08-31 09:33:33:010,0.3211,-0.3298,9.639,-0.0388,-0.0113,9.8066,-0.0213,0.009,0.0395,13.14,-12.33,-23.98,45.33,-0.64,3.42
40813,51.613853,-2.464406,99,25.35,10,15.3,Dec-22,4081387,2019-08-31 09:33:33:109,0.2099,-0.4975,10.0497,0.009,-0.0025,9.8066,0.0235,0.0506,0.0299,13.14,-12.33,-23.98,45.33,-0.64,3.42
40814,51.61407,-2.464309,98,25.51,9,14.3,Dec-22,4081488,2019-08-31 09:33:33:210,0.207,0.2286,10.3375,0.0381,-0.0036,9.8066,0.0575,0.0431,0.0118,13.47,-12.64,-23.63,47.4,-0.78,3.59
40815,51.61407,-2.464309,98,25.51,9,14.3,Dec-22,4081587,2019-08-31 09:33:33:309,-0.0664,-0.2468,11.2004,0.046,-0.0063,9.8065,0.0139,0.009,0.0054,13.03,-12.2,-24.11,47.4,-0.78,3.59
40816,51.61407,-2.464309,98,25.51,9,14.3,Dec-22,4081689,2019-08-31 09:33:33:411,-0.3642,0.1309,9.7142,0.0597,-0.0011,9.8065,-0.0106,-0.0016,-0.0106,13.05,-12.23,-24.09,45.38,-1.01,3.85
40817,51.61407,-2.464309,98,25.51,9,14.3,Dec-22,4081788,2019-08-31 09:33:33:510,-0.4227,-0.1914,10.1238,-0.0649,0.0194,9.8064,-0.0074,-0.0016,0.0107,13.5,-12.75,-23.56,45.38,-1.01,3.85
40818,51.61407,-2.464309,98,25.51,9,14.3,Dec-22,4081888,2019-08-31 09:33:33:610,-0.5867,0.1686,9.4414,-0.004,0.0138,9.8066,-0.0074,-0.0016,0.0107,13.38,-12.15,-23.94,45.24,-0.83,3.5
40819,51.61407,-2.464309,98,25.51,9,14.3,Dec-22,4081987,2019-08-31 09:33:33:709,0.0702,0.1192,10.2942,-0.0063,0.0075,9.8066,-0.0117,-0.0634,0.0469,13.38,-12.15,-23.94,45.24,-0.83,3.5
40820,51.61407,-2.464309,98,25.51,9,14.3,Dec-22,4082088,2019-08-31 09:33:33:810,-0.2534,-0.0385,9.5861,0.0064,-0.016,9.8066,0.0192,-0.0442,0.0341,13.23,-12.82,-23.68,47.24,-0.83,3.45
40821,51.61407,-2.464309,98,25.51,9,14.3,Dec-22,4082188,2019-08-31 09:33:33:910,-0.2183,0.2884,9.107,0.0181,-0.0392,9.8066,0.0203,-0.0144,0.0288,13.38,-12.15,-23.94,47.24,-0.83,3.45
40822,51.61407,-2.464309,98,25.51,9,14.3,Dec-22,4082289,2019-08-31 09:33:34:011,-0.4414,0.0384,9.4647,-0.0053,0.0036,9.8066,-0.0074,0.0069,0.0256,13.41,-12.27,-23.86,45.47,-0.74,3.68
40823,51.61407,-2.464309,98,25.51,9,14.3,Dec-22,4082389,2019-08-31 09:33:34:111,0.6695,0.0236,10.1752,0.003,0.0217,9.8066,0.0128,0.0176,0.0032,13.05,-12.23,-24.09,45.31,-0.84,3.6
40824,51.614292,-2.464225,98,25.2,9,14.1,Dec-22,4082487,2019-08-31 09:33:34:209,0.3173,-0.1635,10.3325,0.0042,0.0117,9.8066,-0.0287,-0.0272,0.0118,13.05,-12.23,-24.09,45.31,-0.84,3.6
40825,51.614292,-2.464225,98,25.2,9,14.1,Dec-22,4082587,2019-08-31 09:33:34:309,-0.3609,-0.1936,10.3396,-0.0001,0.0318,9.8066,0.0192,0.024,0.015,12.98,-12.56,-23.95,47.14,-0.97,3.47
40826,51.614292,-2.464225,98,25.2,9,14.1,Dec-22,4082688,2019-08-31 09:33:34:410,0.1015,0.2354,8.8408,0.0006,0.0044,9.8066,0.0192,0.024,0.015,13.38,-12.15,-23.94,47.14,-0.97,3.47
40827,51.614292,-2.464225,98,25.2,9,14.1,Dec-22,4082787,2019-08-31 09:33:34:509,-0.3334,-0.3752,9.7688,-0.0187,-0.0151,9.8066,0.0192,-0.0762,-0.001,13.38,-12.15,-23.94,47.14,-0.97,3.47
40828,51.614292,-2.464225,98,25.2,9,14.1,Dec-22,4082888,2019-08-31 09:33:34:610,0.2204,-0.1652,9.0481,-0.0174,-0.0013,9.8066,-0.0128,-0.008,0.0139,13.62,-12.78,-23.48,45.08,-0.83,3.45
40829,51.614292,-2.464225,98,25.2,9,14.1,Dec-22,4082988,2019-08-31 09:33:34:710,-0.0221,0.2588,10.3682,-0.0328,0.0134,9.8066,-0.0234,-0.0123,0.0256,13.38,-12.15,-23.94,45.09,-0.75,3.26
40830,51.614292,-2.464225,98,25.2,9,14.1,Dec-22,4083087,2019-08-31 09:33:34:809,0.325,0.0769,9.908,0.0026,0.0183,9.8066,0.0139,-0.0027,0.0363,13.38,-12.15,-23.94,45.09,-0.75,3.26
40831,51.614292,-2.464225,98,25.2,9,14.1,Dec-22,4083188,2019-08-31 09:33:34:910,0.5638,0.0558,9.4227,0.0208,0.0119,9.8066,0.049,0.0335,0.0171,13.38,-12.15,-23.94,44.96,-0.84,3.2
40832,51.614292,-2.464225,98,25.2,9,14.1,Dec-22,4083288,2019-08-31 09:33:35:010,0.4248,-0.253,10.5912,0.0566,0.011,9.8065,0.0384,-0.0229,0.0096,13.22,-12.0,-24.11,44.96,-0.84,3.2
40833,51.614292,-2.464225,98,25.2,9,14.1,Dec-22,4083388,2019-08-31 09:33:35:110,0.4007,0.1384,8.9455,0.0167,-0.0161,9.8066,0.0096,-0.0314,0.0267,13.53,-12.28,-23.79,42.83,-1.12,3.38
40834,51.61452,-2.464136,97,25.16,9,12.7,Dec-22,4083488,2019-08-31 09:33:35:210,-0.5884,-0.1433,10.7451,0.0132,-0.0176,9.8066,0.0096,-0.0314,0.0267,13.53,-12.28,-23.79,42.95,-1.1,3.51
40835,51.61452,-2.464136,97,25.16,9,12.7,Dec-22,4083588,2019-08-31 09:33:35:310,-0.1548,-0.0883,9.583,-0.0141,-0.0191,9.8066,0.0277,0.0069,0.0182,13.53,-12.28,-23.79,42.95,-1.1,3.51
40836,51.61452,-2.464136,97,25.16,9,12.7,Dec-22,4083688,2019-08-31 09:33:35:410,-0.5558,-0.2402,10.2299,-0.0203,-0.0459,9.8065,-0.0202,-0.041,0.0363,13.97,-12.38,-23.49,43.16,-0.83,3.63
40837,51.61452,-2.464136,97,25.16,9,12.7,Dec-22,4083788,2019-08-31 09:33:35:510,-0.2887,-0.0428,10.5955,0.0028,-0.0022,9.8067,0.0139,0.0772,0.0224,13.45,-11.81,-24.07,43.16,-0.83,3.63
40838,51.61452,-2.464136,97,25.16,9,12.7,Dec-22,4083888,2019-08-31 09:33:35:610,0.6702,0.325,8.5178,0.0305,0.0313,9.8066,-0.0138,0.0985,0.016,13.45,-11.81,-24.07,43.16,-0.83,3.63
40839,51.61452,-2.464136,97,25.16,9,12.7,Dec-22,4083988,2019-08-31 09:33:35:710,-0.3775,-0.2472,10.0298,-0.0226,0.0202,9.8066,-0.0714,-0.0027,0.0544,13.14,-12.33,-23.98,45.11,-1.09,3.62
40840,51.61452,-2.464136,97,25.16,9,12.7,Dec-22,4084088,2019-08-31 09:33:35:810,0.0375,0.7993,9.3237,-0.0035,0.0359,9.8066,-0.0383,0.0027,0.0437,13.13,-11.88,-24.22,44.96,-1.08,3.44
40841,51.61452,-2.464136,97,25.16,9,12.7,Dec-22,4084189,2019-08-31 09:33:35:911,0.1194,0.3212,9.6013,0.0003,0.0439,9.8066,0.0064,-0.0133,0.0054,13.13,-11.88,-24.22,44.96,-1.08,3.44
40842,51.61452,-2.464136,97,25.16,9,12.7,Dec-22,4084288,2019-08-31 09:33:36:010,-0.6868,-0.311,9.895,-0.0339,0.0066,9.8066,0.0064,-0.0133,0.0054,12.98,-12.56,-23.95,46.72,-1.26,3.26
40843,51.61452,-2.464136,97,25.16,9,12.7,Dec-22,4084388,2019-08-31 09:33:36:110,0.1494,0.1258,9.6964,-0.0657,-0.0206,9.8064,0.0128,-0.0176,0.015,13.8,-12.22,-23.67,42.71,-0.91,3.06
40844,51.614727,-2.464079,95,25.14,9,11.4,Dec-22,4084488,2019-08-31 09:33:36:210,-0.2739,0.2516,9.7112,-0.0067,0.018,9.8066,-0.0128,-0.0091,0.0246,13.8,-12.22,-23.67,42.71,-0.91,3.06
40845,51.614727,-2.464079,95,25.14,9,11.4,Dec-22,4084588,2019-08-31 09:33:36:310,-0.2364,-0.0456,10.0016,0.016,0.0371,9.8066,0.0064,0.0058,0.0278,13.48,-11.94,-23.99,44.65,-0.95,2.96
40846,51.614727,-2.464079,95,25.14,9,11.4,Dec-22,4084688,2019-08-31 09:33:36:410,0.0107,0.1148,9.5918,0.0249,0.0421,9.8065,0.0192,-0.0368,0.0139,13.55,-12.31,-23.77,42.3,-1.23,2.89
40847,51.614727,-2.464079,95,25.14,9,11.4,Dec-22,4084788,2019-08-31 09:33:36:510,0.3237,-0.0421,9.5493,0.0047,-0.0144,9.8066,-0.0138,-0.008,0.0224,13.55,-12.31,-23.77,42.3,-1.23,2.89
40848,51.614727,-2.464079,95,25.14,9,11.4,Dec-22,4084888,2019-08-31 09:33:36:610,-0.6744,0.1073,10.4992,0.0008,-0.0202,9.8066,0.0064,-0.0549,0.0278,13.24,-12.02,-24.09,44.49,-1.15,2.98
40849,51.614727,-2.464079,95,25.14,9,11.4,Dec-22,4084988,2019-08-31 09:33:36:710,0.2406,-0.2263,9.325,0.025,-0.0044,9.8066,-0.0064,0.0154,0.0075,13.15,-11.91,-24.19,44.49,-1.15,2.98
40850,51.614727,-2.464079,95,25.14,9,11.4,Dec-22,4085088,2019-08-31 09:33:36:810,-0.6075,-0.0111,10.694,-0.0214,-0.0182,9.8066,-0.0064,0.0154,0.0075,13.24,-12.02,-24.09,44.52,-1.24,3.1
40851,51.614727,-2.464079,95,25.14,9,11.4,Dec-22,4085188,2019-08-31 09:33:36:910,-0.0825,0.0641,10.0044,-0.0138,-0.0068,9.8066,-0.0564,-0.0549,0.0501,13.24,-12.02,-24.09,44.52,-1.24,3.1
40852,51.614727,-2.464079,95,25.14,9,11.4,Dec-22,4085288,2019-08-31 09:33:37:010,-0.3295,0.1215,9.517,0.0059,0.0223,9.8066,-0.017,-0.0005,0.0363,13.78,-12.1,-23.75,42.52,-1.16,3.07
40853,51.614727,-2.464079,95,25.14,9,11.4,Nov-22,4085389,2019-08-31 09:33:37:111,-0.2178,0.0765,9.1343,-0.0054,0.0276,9.8066,-0.0074,-0.0389,-0.0042,13.38,-12.15,-23.94,42.52,-1.16,3.07
40854,51.614964,-2.463993,96,25.49,9,11.2,Nov-22,4085488,2019-08-31 09:33:37:210,0.0065,0.0733,9.7953,-0.0057,0.0276,9.8066,0.0011,0.0186,0.0086,13.28,-11.66,-24.24,44.37,-1.24,2.93
40855,51.614964,-2.463993,96,25.49,9,11.2,Nov-22,4085588,2019-08-31 09:33:37:310,0.3466,0.5101,9.0972,-0.0082,0.0056,9.8066,-0.0053,0.0335,0.0214,13.28,-11.66,-24.24,44.37,-1.24,2.93
40856,51.614964,-2.463993,96,25.49,9,11.2,Nov-22,4085688,2019-08-31 09:33:37:410,0.5295,0.2027,9.5765,-0.0026,0.0169,9.8066,-0.0224,0.0112,0.015,13.55,-12.31,-23.77,42.29,-1.23,2.87
40857,51.614964,-2.463993,96,25.49,9,11.2,Nov-22,4085787,2019-08-31 09:33:37:509,0.0089,0.0618,9.8376,-0.0156,0.027,9.8066,0.016,-0.0069,0.0043,13.28,-11.66,-24.24,44.14,-1.27,2.69
40858,51.614964,-2.463993,96,25.49,9,11.2,Nov-22,4085888,2019-08-31 09:33:37:610,-0.5098,0.0577,9.404,-0.0121,0.0104,9.8066,0.016,-0.0069,0.0043,13.55,-12.31,-23.77,44.14,-1.27,2.69
40859,51.614964,-2.463993,96,25.49,9,11.2,Nov-22,4085987,2019-08-31 09:33:37:709,0.114,-0.0469,9.6125,-0.0074,0.0079,9.8066,-0.0202,0.0133,0.0501,13.55,-12.31,-23.77,44.14,-1.27,2.69
40860,51.614964,-2.463993,96,25.49,9,11.2,Nov-22,4086087,2019-08-31 09:33:37:809,-0.1453,-0.2881,10.1986,-0.0115,-0.006,9.8066,0.0128,0.0101,0.0022,12.98,-12.56,-23.95,46.15,-1.38,2.7
40861,51.614964,-2.463993,96,25.49,9,11.2,Nov-22,4086187,2019-08-31 09:33:37:909,-0.3186,-0.3264,9.6518,-0.0166,-0.0132,9.8066,0.0245,-0.0219,-0.0095,13.48,-11.83,-24.05,44.08,-1.31,2.67
40862,51.614964,-2.463993,96,25.49,9,11.2,Nov-22,4086288,2019-08-31 09:33:38:010,-0.2905,-0.1427,9.0822,-0.0347,-0.0025,9.8066,-0.0309,-0.0474,0.0437,13.48,-11.83,-24.05,44.08,-1.31,2.67
40863,51.614964,-2.463993,96,25.49,9,11.2,Nov-22,4086388,2019-08-31 09:33:38:110,0.3791,0.0413,8.8868,-0.0087,0.0069,9.8066,0.0096,0.0144,0.0011,13.58,-11.63,-24.09,42.05,-1.16,2.54
40864,51.61519,-2.463943,95,25.29,9,9.9,Nov-22,4086487,2019-08-31 09:33:38:209,-0.3313,-0.2804,9.6617,-0.0175,-0.0241,9.8066,0.0128,-0.04,0.0086,13.45,-11.81,-24.07,44.05,-1.14,2.48
40865,51.61519,-2.463943,95,25.29,9,9.9,Nov-22,4086588,2019-08-31 09:33:38:310,0.3711,-0.039,9.4642,-0.0189,-0.0214,9.8066,0.0021,0.0218,0.0096,13.9,-11.9,-23.78,42.15,-0.98,2.49
40866,51.61519,-2.463943,95,25.29,9,9.9,Nov-22,4086687,2019-08-31 09:33:38:409,-0.2195,-0.1505,9.856,0.0183,0.011,9.8066,0.0021,0.0218,0.0096,13.9,-11.9,-23.78,42.15,-0.98,2.49
40867,51.61519,-2.463943,95,25.29,9,9.9,Nov-22,4086788,2019-08-31 09:33:38:510,-0.0693,0.1255,9.5595,0.0202,-0.0051,9.8066,-0.0032,0.0005,0.0437,13.65,-12.09,-23.82,42.07,-1.1,2.52
40868,51.61519,-2.463943,95,25.29,9,9.9,Nov-22,4086888,2019-08-31 09:33:38:610,0.4791,-0.0127,9.0004,0.033,-0.0133,9.8066,-0.0021,-0.0069,0.0384,13.6,-11.94,-23.92,42.07,-1.1,2.52
40869,51.61519,-2.463943,95,25.29,9,9.9,Nov-22,4086988,2019-08-31 09:33:38:710,-0.2132,-0.0238,9.4551,0.0002,0.002,9.8066,0.0213,0.0474,0.0096,13.68,-11.59,-24.05,42.17,-1.19,2.7
40870,51.61519,-2.463943,95,25.29,9,9.9,Nov-22,4087088,2019-08-31 09:33:38:810,0.1875,0.6479,9.7623,0.0078,0.0061,9.8066,-0.0032,-0.008,0.0107,14.2,-11.32,-23.88,42.17,-1.19,2.7
40871,51.61519,-2.463943,95,25.29,9,9.9,Nov-22,4087188,2019-08-31 09:33:38:910,-0.0812,-0.1762,9.139,-0.0195,-0.0061,9.8066,0.0011,0.0005,0.0128,14.15,-11.7,-23.72,42.08,-1.27,2.68
40872,51.61519,-2.463943,95,25.29,9,9.9,Nov-22,4087288,2019-08-31 09:33:39:010,-0.3045,-0.2324,9.6623,-0.0353,-0.012,9.8066,0.0043,0.0261,0.0064,14.15,-11.7,-23.72,42.08,-1.27,2.68
40873,51.61519,-2.463943,95,25.29,9,9.9,Nov-22,4087388,2019-08-31 09:33:39:110,-0.229,-0.0847,9.5308,-0.0049,-0.0004,9.8067,-0.0074,0.0165,0.0288,14.03,-11.9,-23.7,42.16,-1.07,2.59
40874,51.61541,-2.463896,94,25.47,9,9.2,13 / 22,4087488,2019-08-31 09:33:39:210,0.0026,-0.2201,9.4979,-0.0153,-0.0067,9.8066,-0.0074,0.0165,0.0288,13.66,-10.76,-24.45,39.95,-0.98,2.56
40875,51.61541,-2.463896,94,25.47,9,9.2,13 / 22,4087588,2019-08-31 09:33:39:310,0.3608,-0.1564,8.258,-0.0061,-0.0024,9.8066,-0.016,-0.008,0.0267,13.53,-11.47,-24.2,39.97,-0.95,2.55
40876,51.61541,-2.463896,94,25.47,9,9.2,13 / 22,4087688,2019-08-31 09:33:39:410,-0.01,0.2104,10.5574,0.0089,0.01,9.8066,0.0075,-0.0282,0.0128,13.53,-11.47,-24.2,39.97,-0.95,2.55
40877,51.61541,-2.463896,94,25.47,9,9.2,13 / 22,4087788,2019-08-31 09:33:39:510,-0.1342,0.0937,9.835,0.0195,0.0226,9.8066,-0.0106,0.009,0.0171,13.95,-11.53,-23.93,42.15,-1.02,2.54
40878,51.61541,-2.463896,94,25.47,9,9.2,13 / 22,4087888,2019-08-31 09:33:39:610,0.2578,0.1757,9.9663,0.0373,0.0293,9.8065,0.0298,0.0314,0.0192,13.2,-11.54,-24.35,43.99,-1.3,2.56
40879,51.61541,-2.463896,94,25.47,9,9.2,13 / 22,4087988,2019-08-31 09:33:39:710,-0.1251,-0.1976,9.637,-0.0156,-0.0151,9.8066,-0.001,-0.0282,0.0331,13.2,-11.54,-24.35,43.99,-1.3,2.56
40880,51.61541,-2.463896,94,25.47,9,9.2,13 / 22,4088088,2019-08-31 09:33:39:810,0.1927,-0.0877,9.3687,-0.0205,-0.0283,9.8066,-0.001,-0.0282,0.0331,13.95,-11.53,-23.93,42.14,-1.1,2.59
40881,51.61541,-2.463896,94,25.47,9,9.2,13 / 22,4088188,2019-08-31 09:33:39:910,0.1833,-0.3828,9.4061,-0.0105,-0.0403,9.8066,0.0213,0.0165,0.0107,13.95,-11.53,-23.93,42.14,-1.1,2.59
40882,51.61541,-2.463896,94,25.47,9,9.2,13 / 22,4088288,2019-08-31 09:33:40:010,0.5653,-0.2233,9.312,0.0032,-0.0255,9.8066,0.0203,-0.0229,0.0192,13.95,-11.53,-23.93,42.43,-0.9,2.73
40883,51.61541,-2.463896,94,25.47,9,9.2,13 / 22,4088388,2019-08-31 09:33:40:110,0.1875,-0.076,9.2317,0.0214,-0.0001,9.8066,-0.0032,0.0154,0.0363,14.02,-11.18,-24.05,40.36,-0.81,2.85
40884,51.615623,-2.46385,92,25.32,9,8.5,13 / 22,4088488,2019-08-31 09:33:40:210,0.2156,0.142,9.7574,0.0556,0.017,9.8065,0.0021,0.0474,0.0235,14.02,-11.18,-24.05,40.36,-0.81,2.85
