,GPS LATITUDE (degrees), GPS LONGITUDE (degrees), GPS ALTITUDE (m), GPS SPEED (Kmh), GPS ACCURACY (m), GPS ORIENTATION (Â°),GPS SATELLITES IN RANGE, TIME SINCE START (ms), DATE (YYYY-MO-DD HH-MI-SS_SSS), ACCELEROMETER X (m/s²) , ACCELEROMETER Y (m/s²), ACCELEROMETER Z (m/s²), GRAVITY X (m/s²), GRAVITY Y (m/s²), GRAVITY Z (m/s²), GYROSCOPE Yaw (rad/s), GYROSCOPE Pitch (rad/s), GYROSCOPE Roll (rad/s), MAGNETIC FIELD X (Î¼T), MAGNETIC FIELD Y (Î¼T), MAGNETIC FIELD Z (Î¼T), ORIENTATION (Yaw) (Â°), ORIENTATION (Pitch) (Â°), ORIENTATION (Roll ) (Â°)
100665,52.421474,-1.486762,154.98,16.24,3.0,183.63,21 / 22,5645176,2019-09-07 12:01:18:330,-0.4973,0.0618,10.021,0.006,0.0001,9.8066,0.0214,0.0058,0.0124,-26.44,-17.12,29.75,354.97,-83.72,-143.85
100666,52.421474,-1.486762,154.98,16.24,3.0,183.63,21 / 23,5645275,2019-09-07 12:01:18:429,0.2055,-0.3388,10.3657,0.0001,-0.003,9.8066,0.0121,0.0127,0.0359,-27.0,-18.25,28.5,352.02,-83.58,-144.57
100667,52.421474,-1.486762,154.98,16.24,3.0,183.63,21 / 23,5645376,2019-09-07 12:01:18:530,0.3422,-0.4964,11.2555,0.0055,-0.0048,9.8066,0.0076,-0.0025,0.0032,-27.62,-19.87,28.75,350.8,-83.46,-144.63
100668,52.421474,-1.486762,154.98,16.24,3.0,183.63,21 / 23,5645475,2019-09-07 12:01:18:629,0.1393,-0.4853,10.1584,-0.005,-0.0059,9.8066,-0.0227,0.0256,0.0113,-28.62,-21.75,29.19,350.34,-83.43,-144.01
100669,52.421474,-1.486762,154.98,16.24,3.0,183.63,21 / 23,5645576,2019-09-07 12:01:18:730,0.0192,-0.5783,10.1828,-0.0049,-0.0084,9.8066,0.0213,0.0829,0.0695,-28.75,-23.25,29.81,352.17,-83.47,-143.26
100670,52.421474,-1.486762,154.98,16.24,3.0,183.63,21 / 23,5645675,2019-09-07 12:01:18:829,-0.0757,0.5949,9.5481,-0.0014,-0.005,9.8066,0.0459,0.0716,0.0404,-28.31,-24.87,31.75,355.25,-83.43,-143.21
100671,52.421474,-1.486762,154.98,16.24,3.0,183.63,21 / 23,5645775,2019-09-07 12:01:18:929,0.3375,0.1643,8.6547,0.0005,0.0,9.8066,-0.038,-0.0745,-0.0496,-27.94,-24.94,31.06,353.51,-83.35,-143.91
100672,52.421474,-1.486762,154.98,16.24,3.0,183.63,21 / 23,5645877,2019-09-07 12:01:19:031,0.441,-0.6947,9.5675,-0.0054,-0.0054,9.8066,0.0047,0.034,-0.0021,-28.69,-25.06,31.75,353.99,-83.27,-143.38
100673,52.421474,-1.486762,154.98,16.24,3.0,183.63,21 / 23,5645977,2019-09-07 12:01:19:131,-0.0759,0.0754,9.3263,-0.0019,0.003,9.8066,-0.0003,0.0455,0.0208,-27.94,-26.25,32.19,355.12,-83.29,-143.31
100674,52.421474,-1.486762,154.98,16.24,3.0,183.63,21 / 23,5646076,2019-09-07 12:01:19:230,-0.2138,-0.3343,9.9157,0.0013,0.0044,9.8066,0.0011,0.0187,-0.0144,-27.25,-27.19,32.38,356.09,-83.34,-143.43
100675,52.421474,-1.486762,154.98,16.24,3.0,183.63,21 / 23,5646176,2019-09-07 12:01:19:330,0.4738,-0.588,9.674,0.0036,0.0126,9.8066,-0.0369,-0.0091,-0.0417,-27.37,-28.0,33.81,357.13,-83.45,-144.19
100676,52.421474,-1.486762,154.98,16.24,3.0,183.63,21 / 22,5646275,2019-09-07 12:01:19:429,0.5479,0.2188,9.2924,0.0084,0.0085,9.8066,-0.0146,-0.0254,-0.0632,-24.44,-27.19,33.31,358.81,-83.6,-145.07
100677,52.421474,-1.486762,154.98,16.24,3.0,183.63,21 / 22,5646376,2019-09-07 12:01:19:530,-0.1424,-0.6377,10.6995,0.0176,-0.0022,9.8066,0.0227,-0.0244,-0.0456,-24.0,-26.56,31.31,355.9,-83.61,-146.02
100678,52.421474,-1.486762,154.98,16.24,3.0,183.63,21 / 22,5646475,2019-09-07 12:01:19:629,0.4743,0.0787,9.8443,0.0174,0.0008,9.8065,0.0227,-0.0356,-0.0304,-25.31,-27.06,30.13,351.51,-83.5,-147.97
100679,52.421474,-1.486762,154.98,16.24,3.0,183.63,21 / 22,5646575,2019-09-07 12:01:19:729,0.2923,-0.1582,10.9253,-0.0062,-0.0192,9.8066,0.0495,0.0994,0.0978,-26.37,-28.5,30.63,351.78,-83.18,-147.51
100680,52.421474,-1.486762,154.98,16.24,3.0,183.63,21 / 22,5646675,2019-09-07 12:01:19:829,0.977,-0.146,8.5601,-0.0014,0.0013,9.8066,-0.0139,-0.0283,-0.0197,-27.44,-27.81,32.88,352.89,-83.13,-147.22
100681,52.421474,-1.486762,154.98,16.24,3.0,183.63,21 / 22,5646775,2019-09-07 12:01:19:929,-0.1921,-0.2641,8.648,-0.0024,0.0008,9.8066,-0.0139,0.0133,-0.0031,-25.87,-26.5,34.44,355.63,-83.03,-146.61
100682,52.421474,-1.486762,154.98,16.24,3.0,183.63,21 / 22,5646875,2019-09-07 12:01:20:029,0.7034,-0.2326,9.7265,0.0177,0.0068,9.8065,-0.0262,-0.0236,-0.0482,-25.19,-23.87,33.88,355.86,-83.06,-147.5
100683,52.421474,-1.486762,154.98,16.24,3.0,183.63,21 / 22,5646975,2019-09-07 12:01:20:129,0.1344,0.1489,10.9502,0.0036,-0.0018,9.8066,-0.0236,-0.0644,-0.0768,-24.69,-22.44,32.88,354.2,-83.11,-148.24
100684,52.421474,-1.486762,154.98,16.24,3.0,183.63,21 / 22,5647076,2019-09-07 12:01:20:230,1.3288,-0.4988,10.9806,0.0024,-0.0133,9.8066,0.0247,0.0811,0.0493,-25.5,-21.44,30.25,350.9,-83.01,-148.63
100685,52.421474,-1.486762,154.98,16.24,3.0,183.63,21 / 22,5647175,2019-09-07 12:01:20:329,0.718,-0.0921,10.0783,0.004,-0.0184,9.8066,0.06,0.0908,0.0533,-26.56,-23.37,29.63,348.63,-82.83,-148.49
100686,52.421474,-1.486762,154.98,16.24,3.0,183.63,22 / 22,5647276,2019-09-07 12:01:20:430,0.1659,-0.2978,10.182,0.0067,-0.0102,9.8066,0.0002,0.0591,0.0309,-27.06,-23.94,30.13,348.24,-82.73,-148.8
100687,52.421474,-1.486762,154.98,16.24,3.0,183.63,22 / 22,5647375,2019-09-07 12:01:20:529,0.3884,-0.8671,11.1389,0.0047,0.0053,9.8066,-0.033,-0.0381,-0.0658,-29.0,-23.06,31.13,347.13,-82.71,-148.8
100688,52.421474,-1.486762,154.98,16.24,3.0,183.63,22 / 22,5647475,2019-09-07 12:01:20:629,0.7695,-0.8335,9.9843,0.0039,-0.0007,9.8066,0.0032,-0.0128,-0.053,-28.5,-22.56,31.5,348.32,-82.78,-149.61
100689,52.421474,-1.486762,154.98,16.24,3.0,183.63,22 / 22,5647576,2019-09-07 12:01:20:730,0.544,-0.2118,9.627,-0.0066,0.0049,9.8066,-0.0049,0.055,0.0168,-27.37,-24.31,31.31,348.07,-82.78,-149.91
100690,52.421474,-1.486762,154.98,16.24,3.0,183.63,22 / 22,5647675,2019-09-07 12:01:20:829,0.2009,0.7683,9.0478,0.0046,0.0024,9.8066,0.0212,-0.0133,-0.029,-27.06,-25.19,31.38,348.0,-82.81,-149.95
100691,52.421474,-1.486762,154.98,16.24,3.0,183.63,22 / 22,5647775,2019-09-07 12:01:20:929,0.1863,-0.0823,11.1446,0.0042,-0.0092,9.8066,0.0309,0.0037,-0.0054,-27.56,-20.69,30.25,345.39,-82.62,-150.52
100692,52.421474,-1.486762,154.98,16.24,3.0,183.63,22 / 22,5647875,2019-09-07 12:01:21:029,0.3177,0.2235,9.4614,0.0082,-0.0038,9.8066,0.0272,0.0728,0.0463,-29.0,-17.25,27.0,340.65,-82.53,-151.09
100693,52.421474,-1.486762,154.98,16.24,3.0,183.63,22 / 22,5647976,2019-09-07 12:01:21:130,0.354,-0.6059,10.4289,0.0019,-0.0001,9.8066,-0.0076,-0.0184,-0.0077,-30.87,-14.87,25.31,336.34,-82.53,-151.24
100694,52.421474,-1.486762,154.98,16.24,3.0,183.63,22 / 22,5648075,2019-09-07 12:01:21:229,0.9961,0.0096,8.4694,0.0035,-0.0048,9.8066,0.0133,0.0329,-0.0069,-32.62,-11.75,26.69,336.38,-82.49,-151.88
100695,52.421474,-1.486762,154.98,16.24,3.0,183.63,22 / 22,5648175,2019-09-07 12:01:21:329,-0.6831,0.2479,10.5461,0.0038,-0.0027,9.8066,0.0029,-0.0117,-0.0352,-31.81,-11.37,29.81,340.27,-82.52,-152.1
100696,52.421474,-1.486762,154.98,16.24,3.0,183.63,21 / 21,5648275,2019-09-07 12:01:21:429,0.2883,-0.2024,10.3256,0.0062,-0.0041,9.8066,0.0118,0.0038,-0.009,-28.44,-11.56,33.44,346.47,-82.47,-152.62
100697,52.421474,-1.486762,154.98,16.24,3.0,183.63,21 / 21,5648375,2019-09-07 12:01:21:529,1.0738,-0.8674,10.1911,0.0068,-0.0063,9.8066,0.0391,0.0578,0.0155,-24.5,-11.87,36.19,352.66,-82.37,-153.32
100698,52.421474,-1.486762,154.98,16.24,3.0,183.63,21 / 21,5648476,2019-09-07 12:01:21:630,0.5508,-1.6728,10.1854,-0.0016,-0.0042,9.8066,0.0167,0.0843,0.0288,-22.75,-11.5,34.44,352.15,-82.33,-153.42
100699,52.421474,-1.486762,154.98,16.24,3.0,183.63,21 / 21,5648575,2019-09-07 12:01:21:729,-0.2754,-0.6396,10.2771,-0.0017,0.0019,9.8066,0.004,0.0368,0.0148,-22.5,-13.12,31.81,351.81,-82.32,-153.25
100700,52.421474,-1.486762,154.98,16.24,3.0,183.63,21 / 21,5648676,2019-09-07 12:01:21:830,-0.3854,0.0593,10.8354,0.0012,-0.004,9.8066,0.0334,0.0246,0.0023,-25.12,-19.37,28.94,344.94,-82.3,-153.18
100701,52.421474,-1.486762,154.98,16.24,3.0,183.63,21 / 21,5648776,2019-09-07 12:01:21:930,-0.1431,-0.4416,9.5029,0.0065,-0.0102,9.8065,0.0204,-0.041,-0.0333,-27.31,-22.94,30.13,343.33,-82.2,-153.27
100702,52.421474,-1.486762,154.98,16.24,3.0,183.63,21 / 21,5648875,2019-09-07 12:01:22:029,0.4922,0.0918,9.8373,0.01,-0.0104,9.8065,0.065,0.0666,0.0421,-29.56,-24.06,32.5,342.44,-81.93,-153.81
100703,52.421474,-1.486762,154.98,16.24,3.0,183.63,21 / 21,5648976,2019-09-07 12:01:22:130,0.2155,-0.4463,10.6274,0.0009,-0.0031,9.8066,0.0002,0.0119,0.0094,-29.44,-24.75,36.0,345.84,-81.73,-154.07
100704,52.421474,-1.486762,154.98,16.24,3.0,183.63,21 / 21,5649076,2019-09-07 12:01:22:230,0.4439,-0.4571,9.4808,0.0,0.001,9.8066,-0.0327,-0.0352,-0.0329,-26.81,-24.12,36.38,348.1,-81.74,-154.01
100705,52.421474,-1.486762,154.98,16.24,3.0,183.63,21 / 21,5649175,2019-09-07 12:01:22:329,-0.5873,-0.4089,10.5088,-0.0065,-0.0025,9.8065,-0.0406,-0.0772,-0.0481,-25.94,-22.94,35.25,348.45,-81.75,-153.96
100706,52.421474,-1.486762,154.98,16.24,3.0,183.63,20 / 22,5649275,2019-09-07 12:01:22:429,-0.0952,0.0911,10.406,0.0057,-0.0041,9.8066,0.0058,-0.0003,-0.0133,-27.94,-21.69,34.81,346.41,-81.7,-153.84
100707,52.41999,-1.486841,154.44,20.51,4.0,179.36,20 / 22,5649375,2019-09-07 12:01:22:529,0.7844,-0.338,9.5998,0.0136,-0.012,9.8065,0.0411,0.0081,0.0055,-26.69,-20.12,36.44,348.01,-81.67,-154.23
100708,52.41999,-1.486841,154.44,20.51,4.0,179.36,20 / 22,5649476,2019-09-07 12:01:22:630,-0.1056,-0.1418,10.6427,0.0003,-0.0114,9.8066,0.0226,-0.0128,0.0202,-23.56,-18.75,33.94,349.34,-81.44,-154.61
100709,52.41999,-1.486841,154.44,20.51,4.0,179.36,20 / 22,5649575,2019-09-07 12:01:22:729,0.0869,0.3262,10.3626,-0.004,-0.0106,9.8066,0.025,0.0345,0.0113,-23.25,-19.81,30.75,347.66,-81.38,-154.68
100710,52.41999,-1.486841,154.44,20.51,4.0,179.36,20 / 22,5649675,2019-09-07 12:01:22:829,-0.4152,-0.5283,10.5691,-0.0042,-0.0098,9.8066,-0.0134,-0.0299,-0.0145,-24.75,-20.94,29.56,344.65,-81.24,-154.13
100711,52.41999,-1.486841,154.44,20.51,4.0,179.36,20 / 22,5649775,2019-09-07 12:01:22:929,0.6115,-0.7592,10.2852,0.0007,-0.0077,9.8066,0.0035,-0.0343,-0.0092,-27.44,-20.87,30.25,342.44,-81.14,-153.99
100712,52.41999,-1.486841,154.44,20.51,4.0,179.36,20 / 22,5649875,2019-09-07 12:01:23:029,0.9596,-0.108,9.6448,0.0041,0.0048,9.8066,0.0338,0.077,0.0442,-28.5,-21.12,29.63,341.04,-81.15,-154.26
100713,52.41999,-1.486841,154.44,20.51,4.0,179.36,20 / 22,5649975,2019-09-07 12:01:23:129,0.2829,-1.1252,9.0833,0.0015,0.0004,9.8066,0.0327,0.0755,0.0499,-29.5,-22.87,31.19,341.12,-81.07,-154.01
100714,52.41999,-1.486841,154.44,20.51,4.0,179.36,20 / 22,5650075,2019-09-07 12:01:23:229,0.1377,-0.2645,9.8826,0.004,-0.0029,9.8066,-0.0048,-0.0076,-0.0168,-27.44,-26.69,33.25,344.77,-81.03,-154.28
100715,52.41999,-1.486841,154.44,20.51,4.0,179.36,20 / 22,5650176,2019-09-07 12:01:23:330,-0.1924,0.3131,8.5102,0.0043,0.0066,9.8066,0.0008,-0.0059,-0.0189,-26.56,-28.56,33.25,344.39,-81.02,-154.5
100716,52.41999,-1.486841,154.44,20.51,4.0,179.36,20 / 22,5650275,2019-09-07 12:01:23:429,0.7801,-0.3913,9.0249,0.0032,-0.0088,9.8065,0.003,0.0023,0.0101,-26.5,-28.87,33.38,344.99,-81.01,-155.0
100717,52.41999,-1.486841,154.44,20.51,4.0,179.36,21 / 22,5650376,2019-09-07 12:01:23:530,0.691,-0.2771,11.0724,0.0036,0.0016,9.8066,0.0024,0.0517,0.0432,-24.94,-27.31,33.81,346.93,-80.91,-155.27
100718,52.41999,-1.486841,154.44,20.51,4.0,179.36,21 / 22,5650476,2019-09-07 12:01:23:630,-0.0452,-0.0653,10.267,-0.0021,-0.0093,9.8065,0.0305,0.0496,0.0285,-24.44,-27.19,32.5,347.6,-80.86,-154.92
100719,52.41999,-1.486841,154.44,20.51,4.0,179.36,21 / 22,5650576,2019-09-07 12:01:23:730,0.3867,0.4311,10.0833,-0.0027,-0.0065,9.8065,-0.0072,-0.0534,-0.0343,-25.06,-26.75,31.81,345.43,-80.79,-154.85
100720,52.41999,-1.486841,154.44,20.51,4.0,179.36,21 / 22,5650675,2019-09-07 12:01:23:829,0.488,-0.6339,7.4727,0.0045,0.004,9.8065,0.0235,0.0748,0.0266,-27.62,-27.94,31.88,341.51,-80.78,-155.16
100721,52.41999,-1.486841,154.44,20.51,4.0,179.36,21 / 22,5650776,2019-09-07 12:01:23:930,-0.1944,-0.1459,10.7101,-0.0065,0.0076,9.8066,-0.0195,0.027,0.0237,-28.81,-27.62,32.75,341.26,-80.74,-155.32
100722,52.41999,-1.486841,154.44,20.51,4.0,179.36,21 / 22,5650875,2019-09-07 12:01:24:029,-0.3303,-0.736,10.0893,-0.0074,0.0019,9.8066,-0.0134,0.0179,0.0112,-29.5,-27.37,33.81,342.95,-80.87,-154.77
100723,52.41999,-1.486841,154.44,20.51,4.0,179.36,21 / 22,5650975,2019-09-07 12:01:24:129,-0.0958,0.4842,10.5588,-0.0024,-0.0072,9.8066,-0.0167,-0.0228,0.0038,-28.87,-24.0,34.13,343.41,-80.89,-154.53
100724,52.41999,-1.486841,154.44,20.51,4.0,179.36,21 / 22,5651076,2019-09-07 12:01:24:230,-0.7852,0.0765,9.2393,-0.0044,-0.0087,9.8066,-0.0018,-0.0402,-0.0466,-30.56,-22.87,34.25,342.05,-80.83,-153.97
100725,52.41999,-1.486841,154.44,20.51,4.0,179.36,21 / 22,5651175,2019-09-07 12:01:24:329,-0.0968,0.5071,9.6706,-0.0054,0.001,9.8066,-0.0112,-0.0097,-0.0129,-30.25,-23.31,35.56,344.27,-80.78,-154.51
100726,52.41999,-1.486841,154.44,20.51,4.0,179.36,23 / 23,5651275,2019-09-07 12:01:24:429,0.1152,0.2987,9.2357,0.0013,-0.0015,9.8066,-0.0083,0.0012,-0.0131,-28.12,-23.31,35.44,345.46,-80.78,-154.51
100727,52.41999,-1.486841,154.44,20.51,4.0,179.36,23 / 23,5651376,2019-09-07 12:01:24:530,-0.0984,0.0113,9.2447,-0.0043,-0.0008,9.8066,-0.0228,-0.0497,-0.0152,-27.56,-24.94,34.31,344.42,-80.81,-154.52
100728,52.41999,-1.486841,154.44,20.51,4.0,179.36,23 / 23,5651475,2019-09-07 12:01:24:629,0.3396,0.2578,9.4423,0.001,-0.0019,9.8066,0.0017,0.0243,0.0002,-27.25,-26.19,33.88,345.68,-80.82,-154.34
100729,52.41999,-1.486841,154.44,20.51,4.0,179.36,23 / 23,5651575,2019-09-07 12:01:24:729,-0.0305,-0.4943,9.5575,0.0027,0.0073,9.8066,0.0424,0.056,0.024,-26.94,-26.0,35.19,346.89,-80.75,-154.07
100730,52.41999,-1.486841,154.44,20.51,4.0,179.36,23 / 23,5651675,2019-09-07 12:01:24:829,0.0135,-0.1117,10.6234,-0.0059,-0.0001,9.8066,-0.0071,0.0099,0.0036,-25.69,-25.44,35.19,348.28,-80.74,-153.89
100731,52.41999,-1.486841,154.44,20.51,4.0,179.36,23 / 23,5651775,2019-09-07 12:01:24:929,0.2409,-0.6778,9.4932,0.0067,0.015,9.8065,-0.0066,0.0355,0.0317,-25.31,-25.94,35.0,349.94,-80.75,-153.42
100732,52.41999,-1.486841,154.44,20.51,4.0,179.36,23 / 23,5651875,2019-09-07 12:01:25:029,-1.0047,0.8544,9.1257,0.0038,0.0072,9.8066,-0.0301,-0.0111,-0.0678,-25.75,-26.56,35.56,349.16,-80.88,-153.83
100733,52.41999,-1.486841,154.44,20.51,4.0,179.36,23 / 23,5651975,2019-09-07 12:01:25:129,-0.6247,0.8117,10.4049,0.0091,0.0084,9.8066,0.0181,0.0109,-0.0037,-24.12,-25.25,36.0,350.24,-81.08,-155.08
100734,52.41999,-1.486841,154.44,20.51,4.0,179.36,23 / 23,5652075,2019-09-07 12:01:25:229,0.0792,-0.0301,10.2329,0.002,-0.0099,9.8066,0.0161,-0.0099,-0.018,-22.87,-25.0,34.06,349.34,-81.03,-155.45
100735,52.41999,-1.486841,154.44,20.51,4.0,179.36,23 / 23,5652175,2019-09-07 12:01:25:329,-0.2819,-0.2871,9.3221,-0.0038,-0.0046,9.8066,0.0101,0.0155,0.0255,-23.37,-26.19,32.0,347.46,-80.9,-155.38
100736,52.41999,-1.486841,154.44,20.51,4.0,179.36,22 / 22,5652276,2019-09-07 12:01:25:430,0.0467,-0.2705,10.0852,-0.0043,-0.0041,9.8066,-0.0182,-0.0827,-0.0548,-23.62,-29.0,30.25,344.61,-80.82,-154.71
100737,52.41999,-1.486841,154.44,20.51,4.0,179.36,22 / 22,5652376,2019-09-07 12:01:25:530,-0.7084,-0.3843,10.0217,0.007,0.0058,9.8066,-0.0099,-0.0159,-0.0331,-25.62,-28.5,29.81,342.0,-80.83,-154.88
100738,52.41999,-1.486841,154.44,20.51,4.0,179.36,22 / 22,5652477,2019-09-07 12:01:25:631,0.1436,0.5422,9.0799,0.0028,0.0032,9.8066,0.0093,0.0153,0.0008,-26.81,-29.25,30.75,340.9,-80.89,-155.73
100739,52.41999,-1.486841,154.44,20.51,4.0,179.36,22 / 22,5652575,2019-09-07 12:01:25:729,-0.1118,0.4555,10.4966,0.0033,0.0113,9.8066,0.017,0.0565,0.0264,-27.62,-27.75,31.0,339.31,-80.98,-156.23
100740,52.41999,-1.486841,154.44,20.51,4.0,179.36,22 / 22,5652675,2019-09-07 12:01:25:829,-0.3861,0.3819,10.8976,0.0084,-0.0089,9.8066,0.0242,0.039,0.0202,-29.0,-27.06,32.69,339.94,-80.91,-156.61
100741,52.41999,-1.486841,154.44,20.51,4.0,179.36,22 / 22,5652775,2019-09-07 12:01:25:929,-0.5462,0.9347,11.0464,0.0046,-0.0103,9.8066,-0.0028,-0.0363,-0.0002,-28.25,-26.44,34.38,342.06,-80.78,-156.58
100742,52.41999,-1.486841,154.44,20.51,4.0,179.36,22 / 22,5652875,2019-09-07 12:01:26:029,-0.374,0.3212,10.8436,-0.0039,-0.0131,9.8066,-0.0176,-0.0291,0.0234,-27.25,-25.69,35.75,345.3,-80.65,-156.27
100743,52.41999,-1.486841,154.44,20.51,4.0,179.36,22 / 22,5652976,2019-09-07 12:01:26:130,-0.7091,-0.159,9.6107,-0.0121,-0.0002,9.8066,-0.0003,0.0671,0.062,-27.06,-25.0,35.25,345.21,-80.68,-155.61
100744,52.41999,-1.486841,154.44,20.51,4.0,179.36,22 / 22,5653075,2019-09-07 12:01:26:229,-0.654,0.0311,9.0959,-0.0074,-0.0009,9.8066,-0.0403,-0.0358,-0.0282,-25.06,-25.19,34.63,348.62,-80.73,-154.64
100745,52.41999,-1.486841,154.44,20.51,4.0,179.36,22 / 22,5653175,2019-09-07 12:01:26:329,-0.7729,-0.1836,10.235,0.0027,0.0128,9.8066,-0.0061,0.0135,0.0024,-25.37,-25.44,33.44,346.8,-80.88,-154.64
100746,52.41999,-1.486841,154.44,20.51,4.0,179.36,23 / 23,5653276,2019-09-07 12:01:26:430,0.2811,-0.251,10.684,0.0083,-0.0011,9.8066,0.0177,0.0243,-0.0202,-26.31,-25.75,34.06,346.07,-80.88,-155.02
100747,52.41999,-1.486841,154.44,20.51,4.0,179.36,23 / 23,5653375,2019-09-07 12:01:26:529,0.2961,0.756,9.3504,0.0039,0.0045,9.8066,0.0048,0.0037,-0.0178,-26.06,-25.75,35.75,347.27,-80.87,-155.57
100748,52.41999,-1.486841,154.44,20.51,4.0,179.36,23 / 23,5653476,2019-09-07 12:01:26:630,-0.7704,0.1448,9.4244,-0.0025,-0.008,9.8066,-0.0362,-0.0901,-0.0795,-23.0,-25.0,36.06,350.69,-80.88,-155.76
100749,52.41999,-1.486841,154.44,20.51,4.0,179.36,23 / 23,5653575,2019-09-07 12:01:26:729,0.2806,-0.3811,10.0372,-0.0022,0.0032,9.8066,0.0162,0.0663,0.0563,-22.5,-24.56,35.13,350.8,-80.89,-156.06
100750,52.41999,-1.486841,154.44,20.51,4.0,179.36,23 / 23,5653676,2019-09-07 12:01:26:830,-0.4034,0.4532,9.4606,-0.0009,-0.0087,9.8066,-0.0036,-0.0009,-0.017,-21.62,-25.0,33.75,350.27,-80.85,-155.75
100751,52.41999,-1.486841,154.44,20.51,4.0,179.36,23 / 23,5653776,2019-09-07 12:01:26:930,0.2909,0.932,10.4504,-0.0021,-0.0026,9.8065,-0.0067,-0.0312,-0.0191,-22.69,-25.06,30.63,345.81,-80.85,-156.0
100752,52.41999,-1.486841,154.44,20.51,4.0,179.36,23 / 23,5653876,2019-09-07 12:01:27:030,0.6715,-0.0154,9.6005,-0.0046,-0.0042,9.8066,-0.002,-0.0435,-0.0352,-24.19,-25.62,30.0,343.5,-80.82,-155.88
100753,52.41999,-1.486841,154.44,20.51,4.0,179.36,23 / 23,5653975,2019-09-07 12:01:27:129,-0.0358,-0.5906,11.1461,0.0036,-0.0078,9.8066,0.0024,0.0235,0.032,-27.19,-26.75,30.56,341.14,-80.74,-155.62
100754,52.41999,-1.486841,154.44,20.51,4.0,179.36,23 / 23,5654075,2019-09-07 12:01:27:229,-0.9462,-0.1578,9.5976,0.0003,-0.0047,9.8066,-0.0005,0.0201,0.0127,-28.62,-25.62,34.19,342.09,-80.66,-155.56
100755,52.41999,-1.486841,154.44,20.51,4.0,179.36,23 / 23,5654176,2019-09-07 12:01:27:330,1.0966,0.2081,11.5271,-0.0032,0.01,9.8066,-0.0329,0.0328,-0.0191,-26.44,-25.19,35.81,347.07,-80.7,-155.76
100756,52.41999,-1.486841,154.44,20.51,4.0,179.36,21 / 22,5654276,2019-09-07 12:01:27:430,0.4047,-0.534,9.1808,0.0038,-0.0019,9.8066,0.0092,-0.0328,-0.0426,-24.0,-25.31,34.31,347.22,-80.8,-156.19
100757,52.41999,-1.486841,154.44,20.51,4.0,179.36,21 / 22,5654375,2019-09-07 12:01:27:529,0.1463,0.8354,10.7342,-0.0006,-0.0008,9.8066,0.0094,-0.0082,0.0235,-24.5,-25.25,33.13,345.36,-80.75,-157.0
100758,52.41999,-1.486841,154.44,20.51,4.0,179.36,21 / 22,5654475,2019-09-07 12:01:27:629,-0.7288,0.3001,9.6893,-0.0083,-0.0051,9.8066,0.0228,0.0465,0.03,-26.5,-24.75,31.56,342.43,-80.75,-156.57
100759,52.41999,-1.486841,154.44,20.51,4.0,179.36,21 / 22,5654576,2019-09-07 12:01:27:730,-0.4528,0.295,9.3836,0.0041,0.0153,9.8066,0.0121,0.0724,0.0332,-26.69,-24.56,32.81,342.79,-80.75,-156.11
100760,52.41999,-1.486841,154.44,20.51,4.0,179.36,21 / 22,5654675,2019-09-07 12:01:27:829,-1.2207,-0.3892,10.2772,-0.0051,-0.0051,9.8066,-0.0189,-0.0782,-0.08,-26.37,-24.75,32.94,343.71,-80.84,-156.34
100761,52.41999,-1.486841,154.44,20.51,4.0,179.36,21 / 22,5654775,2019-09-07 12:01:27:929,-0.5999,-0.4078,9.5666,-0.0048,-0.0106,9.8066,-0.0275,-0.0812,-0.0682,-26.06,-24.62,33.69,344.23,-80.85,-156.72
100762,52.41999,-1.486841,154.44,20.51,4.0,179.36,21 / 22,5654875,2019-09-07 12:01:28:029,-0.8348,0.5102,10.9244,0.001,0.0023,9.8066,0.0263,0.0186,0.0095,-25.56,-24.44,33.13,343.48,-80.81,-156.6
100763,52.41999,-1.486841,154.44,20.51,4.0,179.36,21 / 22,5654975,2019-09-07 12:01:28:129,-0.2737,0.1419,10.0696,0.0013,-0.0125,9.8065,-0.0088,0.005,0.0073,-26.81,-25.12,33.5,343.22,-80.62,-156.56
100764,52.41999,-1.486841,154.44,20.51,4.0,179.36,21 / 22,5655076,2019-09-07 12:01:28:230,-0.3231,0.1002,9.4762,-0.0063,0.0057,9.8066,-0.033,-0.0455,-0.0462,-26.25,-25.0,33.81,344.71,-80.66,-156.25
100765,52.41999,-1.486841,154.44,20.51,4.0,179.36,21 / 22,5655176,2019-09-07 12:01:28:330,-0.0365,0.1369,10.2111,-0.0035,-0.0025,9.8066,-0.0162,-0.0203,-0.0291,-26.31,-25.19,33.0,343.35,-80.77,-156.64
100766,52.41999,-1.486841,154.44,20.51,4.0,179.36,22 / 22,5655276,2019-09-07 12:01:28:430,-0.2015,0.239,10.8445,-0.0003,-0.0069,9.8066,-0.0083,-0.035,-0.0158,-26.81,-25.19,34.44,343.4,-80.71,-156.42
100767,52.41999,-1.486841,154.44,20.51,4.0,179.36,22 / 22,5655375,2019-09-07 12:01:28:529,0.0837,-0.3035,9.2747,-0.0075,-0.005,9.8066,-0.0189,0.0077,0.0008,-25.31,-25.0,34.5,346.71,-80.74,-156.35
100768,52.41999,-1.486841,154.44,20.51,4.0,179.36,22 / 22,5655475,2019-09-07 12:01:28:629,-0.3487,0.6482,9.6265,0.0005,0.0066,9.8065,-0.0366,-0.028,-0.0313,-24.5,-24.81,33.69,347.64,-80.8,-155.81
100769,52.41999,-1.486841,154.44,20.51,4.0,179.36,22 / 22,5655576,2019-09-07 12:01:28:730,-0.2349,0.2089,9.9159,0.0099,0.0028,9.8065,0.0189,0.0181,-0.0232,-25.19,-24.75,32.0,343.95,-80.92,-156.32
100770,52.41999,-1.486841,154.44,20.51,4.0,179.36,22 / 22,5655675,2019-09-07 12:01:28:829,-0.3482,0.3131,10.1446,0.0058,0.0019,9.8066,0.0186,-0.008,-0.0165,-26.31,-24.62,31.75,342.36,-80.89,-156.67
100771,52.41999,-1.486841,154.44,20.51,4.0,179.36,22 / 22,5655775,2019-09-07 12:01:28:929,-0.2357,-0.6481,10.7499,0.0018,-0.0089,9.8066,0.0486,0.0351,0.0098,-26.62,-24.12,32.81,341.76,-80.84,-157.12
100772,52.41999,-1.486841,154.44,20.51,4.0,179.36,22 / 22,5655875,2019-09-07 12:01:29:029,-0.2481,-1.098,10.449,-0.0021,0.0043,9.8066,0.0074,0.0193,0.0183,-27.75,-24.5,31.31,338.76,-80.7,-156.96
100773,52.41999,-1.486841,154.44,20.51,4.0,179.36,22 / 22,5655975,2019-09-07 12:01:29:129,-0.106,0.4207,10.3003,-0.0148,-0.0128,9.8066,-0.0226,-0.0397,-0.0033,-28.0,-24.69,32.81,340.91,-80.72,-156.79
100774,52.41999,-1.486841,154.44,20.51,4.0,179.36,22 / 22,5656076,2019-09-07 12:01:29:230,-1.1755,0.5061,8.7322,0.0004,0.0032,9.8066,0.0258,0.059,0.05,-28.19,-25.06,32.56,341.91,-80.66,-155.88
100775,52.41999,-1.486841,154.44,20.51,4.0,179.36,22 / 22,5656176,2019-09-07 12:01:29:330,0.2952,-0.5604,9.5416,0.0013,-0.0058,9.8066,-0.0678,-0.0843,-0.0782,-28.62,-25.56,33.5,342.1,-80.64,-155.54
100776,52.41999,-1.486841,154.44,20.51,4.0,179.36,20 / 21,5656276,2019-09-07 12:01:29:430,-0.6841,0.1225,9.5502,-0.0078,0.0102,9.8066,-0.0416,-0.0354,-0.0386,-28.19,-25.12,33.56,343.16,-80.83,-155.66
100777,52.41999,-1.486841,154.44,20.51,4.0,179.36,20 / 21,5656376,2019-09-07 12:01:29:530,0.149,0.7922,10.443,0.0006,0.0059,9.8066,-0.0025,0.0155,0.0185,-28.69,-24.56,34.81,343.08,-80.91,-155.62
100778,52.41999,-1.486841,154.44,20.51,4.0,179.36,20 / 21,5656476,2019-09-07 12:01:29:630,-1.1761,0.0749,9.6214,-0.0076,-0.0112,9.8066,-0.0265,-0.0535,-0.0557,-27.44,-24.44,35.44,345.54,-80.93,-155.41
100779,52.41999,-1.486841,154.44,20.51,4.0,179.36,20 / 21,5656575,2019-09-07 12:01:29:729,1.0594,-0.0016,10.2482,0.0013,-0.0047,9.8065,0.0182,-0.0276,-0.0305,-26.62,-23.94,34.31,344.54,-80.98,-155.5
100780,52.41999,-1.486841,154.44,20.51,4.0,179.36,20 / 21,5656675,2019-09-07 12:01:29:829,0.3264,-0.0604,9.3015,0.0093,-0.0073,9.8066,0.0064,-0.0451,-0.0361,-26.5,-24.0,33.94,345.01,-80.87,-156.09
100781,52.41999,-1.486841,154.44,20.51,4.0,179.36,20 / 21,5656775,2019-09-07 12:01:29:929,-0.4028,-0.0054,9.5314,-0.0023,0.0042,9.8066,-0.0131,0.009,0.0012,-26.5,-24.0,33.63,344.74,-80.83,-156.32
100782,52.41999,-1.486841,154.44,20.51,4.0,179.36,20 / 21,5656875,2019-09-07 12:01:30:029,-0.7343,0.0301,9.1074,0.0022,-0.0023,9.8066,0.0033,0.0103,-0.0135,-26.31,-24.12,33.88,344.96,-80.83,-156.12
100783,52.41999,-1.486841,154.44,20.51,4.0,179.36,20 / 21,5656975,2019-09-07 12:01:30:129,-0.6635,0.0346,10.3195,-0.0049,0.0053,9.8066,-0.0209,-0.0145,-0.0297,-25.69,-24.06,33.25,344.06,-80.89,-156.09
100784,52.41999,-1.486841,154.44,20.51,4.0,179.36,20 / 21,5657076,2019-09-07 12:01:30:230,0.0387,-0.2308,9.867,0.0142,0.0008,9.8066,0.034,0.0334,-0.0126,-26.56,-24.75,33.63,343.28,-80.94,-156.57
100785,52.41999,-1.486841,154.44,20.51,4.0,179.36,20 / 21,5657176,2019-09-07 12:01:30:330,-0.6969,0.5738,8.7421,-0.0066,-0.0036,9.8066,-0.0088,0.0208,0.0084,-26.12,-24.75,33.44,343.13,-80.94,-156.87
100786,52.41999,-1.486841,154.44,20.51,4.0,179.36,21 / 22,5657278,2019-09-07 12:01:30:432,0.5513,0.0106,10.4718,-0.0024,-0.0018,9.8066,-0.0001,-0.0655,-0.0454,-26.25,-25.0,32.38,342.79,-80.89,-156.28
100787,52.41999,-1.486841,154.44,20.51,4.0,179.36,21 / 22,5657376,2019-09-07 12:01:30:530,-0.4501,0.2853,9.6596,-0.0016,-0.0015,9.8066,-0.0006,-0.0023,0.0103,-27.12,-25.62,33.06,342.46,-80.89,-156.38
100788,52.41999,-1.486841,154.44,20.51,4.0,179.36,21 / 22,5657475,2019-09-07 12:01:30:629,-0.2601,-0.4033,10.12,-0.0085,-0.0034,9.8066,-0.0254,-0.001,0.0155,-28.12,-25.25,33.25,341.98,-80.86,-155.87
100789,52.41999,-1.486841,154.44,20.51,4.0,179.36,21 / 22,5657575,2019-09-07 12:01:30:729,-1.0448,0.7398,9.2276,-0.004,0.0078,9.8066,-0.0441,-0.0289,-0.0223,-27.56,-24.87,33.63,343.07,-80.88,-155.75
100790,52.41999,-1.486841,154.44,20.51,4.0,179.36,21 / 22,5657675,2019-09-07 12:01:30:829,-1.0629,0.2295,10.1998,-0.0006,0.0133,9.8065,-0.0184,-0.0208,-0.0298,-27.62,-25.31,33.75,343.1,-81.08,-155.77
100791,52.41999,-1.486841,154.44,20.51,4.0,179.36,21 / 22,5657775,2019-09-07 12:01:30:929,0.5409,0.4679,10.0492,-0.0166,-0.0251,9.8066,-0.0635,-0.1869,-0.1269,-27.25,-24.56,34.94,346.04,-80.94,-154.92
100792,52.41999,-1.486841,154.44,20.51,4.0,179.36,21 / 22,5657875,2019-09-07 12:01:31:029,1.199,0.3076,9.3575,0.0161,0.0145,9.8066,0.0335,0.114,0.0748,-25.69,-24.56,34.75,346.15,-81.05,-155.85
100793,52.41999,-1.486841,154.44,20.51,4.0,179.36,21 / 22,5657975,2019-09-07 12:01:31:129,-0.8873,0.6454,10.6389,-0.0046,-0.0044,9.8065,-0.0134,-0.0205,-0.0639,-24.44,-24.56,34.75,348.92,-81.02,-155.49
100794,52.41999,-1.486841,154.44,20.51,4.0,179.36,21 / 22,5658076,2019-09-07 12:01:31:230,-0.0694,0.3783,9.8119,-0.0045,0.008,9.8066,-0.0157,0.004,0.0113,-23.81,-24.75,32.88,347.34,-81.08,-155.29
100795,52.41999,-1.486841,154.44,20.51,4.0,179.36,21 / 22,5658176,2019-09-07 12:01:31:330,0.0092,-0.4832,8.8752,-0.0075,-0.004,9.8066,0.0003,-0.0052,0.0001,-25.0,-25.12,31.69,345.83,-81.14,-154.68
100796,52.418262,-1.48685,152.3,21.47,3.0,179.53,20 / 21,5658276,2019-09-07 12:01:31:430,-0.0737,-0.5657,9.5403,-0.0128,0.0023,9.8066,-0.0227,0.0316,0.0261,-26.19,-25.87,31.63,345.62,-81.15,-153.74
100797,52.418262,-1.48685,152.3,21.47,3.0,179.53,20 / 21,5658375,2019-09-07 12:01:31:529,-0.6827,-0.096,9.031,-0.0075,0.0035,9.8066,-0.0577,-0.0705,-0.0509,-26.5,-26.0,32.56,347.41,-81.21,-153.03
100798,52.418262,-1.48685,152.3,21.47,3.0,179.53,20 / 21,5658475,2019-09-07 12:01:31:629,0.3751,-0.0606,9.4312,0.0064,-0.0078,9.8066,0.0161,-0.0107,-0.0016,-26.69,-25.31,31.88,345.09,-81.29,-153.26
100799,52.418262,-1.48685,152.3,21.47,3.0,179.53,20 / 21,5658576,2019-09-07 12:01:31:730,0.2489,-0.22,11.0483,0.0095,-0.0147,9.8066,-0.0086,-0.0602,-0.0376,-28.31,-25.06,32.94,344.38,-81.09,-153.74
100800,52.418262,-1.48685,152.3,21.47,3.0,179.53,20 / 21,5658675,2019-09-07 12:01:31:829,-0.6437,-0.3975,8.9731,-0.0031,0.0014,9.8066,-0.0017,0.0113,-0.0119,-26.94,-25.19,33.81,346.15,-81.1,-154.01
100801,52.418262,-1.48685,152.3,21.47,3.0,179.53,20 / 21,5658775,2019-09-07 12:01:31:929,-0.5481,-0.0217,9.6255,-0.0007,0.0105,9.8066,-0.0108,0.0289,0.0088,-26.87,-25.44,33.44,345.43,-81.16,-153.81
100802,52.418262,-1.48685,152.3,21.47,3.0,179.53,20 / 21,5658876,2019-09-07 12:01:32:030,-0.6914,-0.3166,9.654,0.0015,0.0074,9.8065,-0.0049,-0.017,-0.0679,-26.44,-26.19,33.56,347.31,-81.25,-153.98
100803,52.418262,-1.48685,152.3,21.47,3.0,179.53,20 / 21,5658975,2019-09-07 12:01:32:129,0.1824,0.0514,10.0922,0.0158,0.0142,9.8066,-0.0088,0.0229,-0.0254,-26.75,-25.56,33.38,343.77,-81.37,-155.3
100804,52.418262,-1.48685,152.3,21.47,3.0,179.53,20 / 21,5659075,2019-09-07 12:01:32:229,0.4343,0.7991,9.7738,-0.002,-0.0102,9.8066,-0.0199,-0.0887,-0.0619,-26.25,-25.69,33.88,345.24,-81.47,-155.88
100805,52.418262,-1.48685,152.3,21.47,3.0,179.53,20 / 21,5659175,2019-09-07 12:01:32:329,-1.1129,0.0513,9.8919,-0.0055,0.0058,9.8066,-0.0121,0.013,0.0298,-25.94,-26.12,32.81,344.63,-81.44,-155.58
100806,52.418262,-1.48685,152.3,21.47,3.0,179.53,21 / 22,5659275,2019-09-07 12:01:32:429,-1.0507,0.0566,10.7282,-0.0162,-0.0033,9.8066,-0.0185,-0.0675,-0.0445,-25.87,-25.62,33.13,346.07,-81.54,-154.29
100807,52.418262,-1.48685,152.3,21.47,3.0,179.53,21 / 22,5659375,2019-09-07 12:01:32:529,-0.5628,0.666,11.1811,0.008,0.0016,9.8066,0.0585,0.0995,0.0617,-26.12,-25.81,32.81,345.66,-81.52,-154.66
100808,52.418262,-1.48685,152.3,21.47,3.0,179.53,21 / 22,5659476,2019-09-07 12:01:32:630,0.1122,0.2429,9.3461,0.0016,0.0011,9.8065,0.0205,0.0558,0.0312,-26.19,-26.0,32.94,345.88,-81.45,-154.45
100809,52.418262,-1.48685,152.3,21.47,3.0,179.53,21 / 22,5659576,2019-09-07 12:01:32:730,-0.4941,-0.2656,9.249,-0.0072,0.0133,9.8066,0.0164,0.0733,0.0417,-26.56,-25.81,32.5,344.86,-81.57,-154.35
100810,52.418262,-1.48685,152.3,21.47,3.0,179.53,21 / 22,5659675,2019-09-07 12:01:32:829,-0.2524,-0.4557,10.3019,-0.0093,0.0069,9.8065,-0.0251,-0.007,0.0012,-26.12,-26.25,33.0,346.42,-81.64,-154.0
100811,52.418262,-1.48685,152.3,21.47,3.0,179.53,21 / 22,5659775,2019-09-07 12:01:32:929,-0.4648,0.4533,9.8397,-0.0019,-0.0004,9.8066,-0.0023,-0.0649,-0.0487,-26.0,-26.75,32.75,346.95,-81.7,-153.48
100812,52.418262,-1.48685,152.3,21.47,3.0,179.53,21 / 22,5659875,2019-09-07 12:01:33:029,0.3459,-0.5225,9.802,0.0042,-0.0006,9.8066,0.0054,0.0149,-0.0005,-25.69,-25.81,32.69,346.2,-81.68,-154.2
100813,52.418262,-1.48685,152.3,21.47,3.0,179.53,21 / 22,5659975,2019-09-07 12:01:33:129,-0.7819,0.3354,9.8146,0.0057,0.0015,9.8065,0.0395,0.0637,0.0599,-26.12,-26.37,33.0,345.86,-81.65,-154.51
100814,52.418262,-1.48685,152.3,21.47,3.0,179.53,21 / 22,5660075,2019-09-07 12:01:33:229,-0.3886,-0.2354,9.8618,-0.0059,0.0078,9.8066,-0.0371,-0.0091,-0.0171,-25.62,-25.62,32.63,346.21,-81.58,-154.17
100815,52.418262,-1.48685,152.3,21.47,3.0,179.53,21 / 22,5660175,2019-09-07 12:01:33:329,-0.855,-0.1185,8.4789,-0.0049,0.0138,9.8066,0.0033,-0.0005,-0.0202,-26.06,-26.0,32.94,346.15,-81.82,-154.27
100816,52.418262,-1.48685,152.3,21.47,3.0,179.53,22 / 23,5660277,2019-09-07 12:01:33:431,0.1421,-0.2702,9.9568,0.005,-0.0029,9.8066,-0.0303,-0.029,-0.0299,-26.06,-25.75,33.56,346.49,-81.9,-154.83
100817,52.418262,-1.48685,152.3,21.47,3.0,179.53,22 / 23,5660377,2019-09-07 12:01:33:531,-0.0225,-0.049,10.1956,0.0054,-0.0009,9.8065,0.037,0.0335,0.0325,-26.06,-26.25,32.75,345.08,-81.9,-155.25
100818,52.418262,-1.48685,152.3,21.47,3.0,179.53,22 / 23,5660475,2019-09-07 12:01:33:629,-0.1919,0.1,9.7987,-0.0035,0.0001,9.8066,0.0081,0.0245,0.0231,-25.94,-25.87,33.0,345.51,-81.82,-154.85
100819,52.418262,-1.48685,152.3,21.47,3.0,179.53,22 / 23,5660576,2019-09-07 12:01:33:730,-0.8844,-0.4174,8.9332,-0.0161,-0.0054,9.8066,-0.037,-0.0659,-0.0307,-25.94,-25.94,32.31,345.69,-81.78,-153.8
100820,52.418262,-1.48685,152.3,21.47,3.0,179.53,22 / 23,5660675,2019-09-07 12:01:33:829,-0.6689,0.222,9.6977,-0.0014,-0.0033,9.8066,-0.0136,-0.0118,0.0099,-25.87,-25.87,32.69,346.89,-81.87,-153.61
100821,52.418262,-1.48685,152.3,21.47,3.0,179.53,22 / 23,5660775,2019-09-07 12:01:33:929,-0.0699,0.0784,9.9678,0.0031,-0.0073,9.8066,-0.0365,-0.0868,-0.0595,-26.12,-25.56,32.94,347.25,-81.77,-153.27
100822,52.418262,-1.48685,152.3,21.47,3.0,179.53,22 / 23,5660875,2019-09-07 12:01:34:029,0.0379,0.0659,8.3989,-0.0113,-0.0032,9.8066,-0.0517,-0.0211,-0.0004,-26.0,-26.56,32.38,346.01,-81.82,-153.47
100823,52.418262,-1.48685,152.3,21.47,3.0,179.53,22 / 23,5660975,2019-09-07 12:01:34:129,-0.4592,0.0628,9.5859,-0.0087,0.0072,9.8066,-0.0202,0.0057,-0.0315,-26.56,-26.19,32.81,347.31,-81.96,-152.21
100824,52.418262,-1.48685,152.3,21.47,3.0,179.53,22 / 23,5661075,2019-09-07 12:01:34:229,-0.2812,0.6136,10.3988,-0.0013,-0.0029,9.8065,-0.0162,0.0216,0.0032,-26.5,-25.81,32.69,348.57,-82.0,-152.11
100825,52.418262,-1.48685,152.3,21.47,3.0,179.53,22 / 23,5661175,2019-09-07 12:01:34:329,-0.5027,0.6033,8.6252,0.0082,0.0088,9.8066,0.0287,0.0394,0.0233,-26.12,-26.87,32.94,348.31,-82.07,-152.32
100826,52.418262,-1.48685,152.3,21.47,3.0,179.53,20 / 22,5661278,2019-09-07 12:01:34:432,0.1929,-0.0534,9.6331,-0.0044,0.0003,9.8066,0.0179,0.0575,0.0279,-26.37,-26.5,32.63,348.01,-82.09,-152.63
100827,52.418262,-1.48685,152.3,21.47,3.0,179.53,20 / 22,5661375,2019-09-07 12:01:34:529,0.6752,-0.4282,9.5718,-0.0031,0.0046,9.8066,0.0028,0.0166,-0.0021,-26.56,-26.5,32.44,346.02,-82.13,-152.52
100828,52.418262,-1.48685,152.3,21.47,3.0,179.53,20 / 22,5661475,2019-09-07 12:01:34:629,-0.107,-0.1908,10.5257,-0.0081,0.0079,9.8066,-0.0287,-0.0168,-0.0057,-26.37,-26.0,32.56,348.19,-82.17,-152.48
100829,52.418262,-1.48685,152.3,21.47,3.0,179.53,20 / 22,5661576,2019-09-07 12:01:34:730,-1.2284,0.321,10.2177,0.003,0.0039,9.8066,0.0147,0.0791,0.0571,-26.5,-27.0,32.06,347.31,-82.25,-152.37
100830,52.418262,-1.48685,152.3,21.47,3.0,179.53,20 / 22,5661675,2019-09-07 12:01:34:829,0.8328,0.4156,9.9827,0.0059,0.0055,9.8065,-0.0108,-0.0438,-0.0476,-26.44,-26.31,32.88,347.9,-82.29,-152.77
100831,52.418262,-1.48685,152.3,21.47,3.0,179.53,20 / 22,5661775,2019-09-07 12:01:34:929,-0.1451,0.5345,9.1836,0.0033,-0.0044,9.8066,0.0023,0.0331,0.0165,-26.12,-26.19,32.88,347.86,-82.22,-152.79
100832,52.418262,-1.48685,152.3,21.47,3.0,179.53,20 / 22,5661875,2019-09-07 12:01:35:029,-0.9596,-0.2268,9.6173,-0.0047,0.0017,9.8066,-0.0134,-0.0166,-0.0065,-26.25,-26.31,32.56,348.39,-82.23,-152.31
100833,52.418262,-1.48685,152.3,21.47,3.0,179.53,20 / 22,5661975,2019-09-07 12:01:35:129,-1.0324,-0.5597,10.5425,-0.0065,-0.0037,9.8065,-0.0427,-0.0417,-0.0301,-26.44,-26.44,33.06,349.24,-82.2,-151.53
100834,52.418262,-1.48685,152.3,21.47,3.0,179.53,20 / 22,5662075,2019-09-07 12:01:35:229,-0.0146,-0.2337,10.0277,-0.0062,-0.0046,9.8066,0.0313,0.0896,0.0764,-26.44,-26.31,32.56,350.1,-82.23,-150.76
100835,52.418262,-1.48685,152.3,21.47,3.0,179.53,20 / 22,5662175,2019-09-07 12:01:35:329,-0.7162,0.165,9.9447,-0.0004,0.0087,9.8066,-0.0498,-0.0091,-0.0205,-25.87,-26.75,32.94,350.51,-82.3,-150.36
100836,52.418262,-1.48685,152.3,21.47,3.0,179.53,22 / 23,5662276,2019-09-07 12:01:35:430,0.2013,-0.3788,9.6834,0.0014,-0.0065,9.8066,0.0187,0.0485,-0.013,-26.31,-26.81,32.81,351.54,-82.51,-149.45
100837,52.418262,-1.48685,152.3,21.47,3.0,179.53,22 / 23,5662376,2019-09-07 12:01:35:530,0.8371,0.3261,10.1644,0.0164,0.0148,9.8066,0.0082,-0.0596,-0.1012,-25.87,-26.31,33.19,350.38,-82.63,-150.55
100838,52.418262,-1.48685,152.3,21.47,3.0,179.53,22 / 23,5662475,2019-09-07 12:01:35:629,0.6904,-0.64,9.9396,-0.0046,-0.0004,9.8065,-0.0023,0.0182,0.0171,-25.69,-26.12,32.56,349.02,-82.53,-151.78
100839,52.418262,-1.48685,152.3,21.47,3.0,179.53,22 / 23,5662576,2019-09-07 12:01:35:730,-0.4625,-0.0501,11.7353,0.0087,0.0125,9.8065,-0.04,0.0024,-0.0056,-26.19,-26.19,32.31,347.47,-82.54,-152.31
100840,52.418262,-1.48685,152.3,21.47,3.0,179.53,22 / 23,5662675,2019-09-07 12:01:35:829,-0.8661,0.3092,9.488,-0.0132,-0.013,9.8066,0.0397,0.1335,0.138,-26.25,-26.12,32.25,348.88,-82.49,-151.02
100841,52.418262,-1.48685,152.3,21.47,3.0,179.53,22 / 23,5662775,2019-09-07 12:01:35:929,0.5153,0.1561,10.2241,-0.011,-0.0049,9.8066,-0.0309,0.0163,0.0508,-26.31,-26.31,32.81,351.51,-82.37,-149.49
100842,52.418262,-1.48685,152.3,21.47,3.0,179.53,22 / 23,5662878,2019-09-07 12:01:36:032,0.1874,-0.0682,8.8898,-0.0048,0.0071,9.8066,-0.0332,-0.0098,-0.0289,-25.87,-26.69,32.19,352.01,-82.43,-148.14
100843,52.418262,-1.48685,152.3,21.47,3.0,179.53,22 / 23,5662976,2019-09-07 12:01:36:130,-0.5653,0.8472,9.2515,-0.0004,0.0028,9.8066,-0.0161,-0.0008,-0.0145,-25.69,-26.81,32.31,352.23,-82.53,-147.95
100844,52.418262,-1.48685,152.3,21.47,3.0,179.53,22 / 23,5663075,2019-09-07 12:01:36:229,-0.2172,-0.0015,10.3783,0.0133,0.0023,9.8066,0.0125,-0.0048,-0.0396,-26.25,-27.06,32.88,352.37,-82.61,-148.71
100845,52.418262,-1.48685,152.3,21.47,3.0,179.53,22 / 23,5663175,2019-09-07 12:01:36:329,0.8027,-0.4027,10.6456,0.0094,0.0025,9.8066,-0.0212,-0.0442,-0.0479,-25.87,-27.06,32.25,349.84,-82.6,-150.13
100846,52.418262,-1.48685,152.3,21.47,3.0,179.53,22 / 22,5663276,2019-09-07 12:01:36:430,0.2419,-0.02,10.3638,0.0017,0.01,9.8066,-0.0026,0.0065,-0.0262,-25.81,-26.81,32.25,349.6,-82.69,-150.36
100847,52.418262,-1.48685,152.3,21.47,3.0,179.53,22 / 22,5663375,2019-09-07 12:01:36:529,-1.0185,0.4106,9.0422,-0.0001,0.0045,9.8066,-0.0121,-0.0604,-0.0595,-26.0,-26.12,31.94,349.65,-82.86,-150.37
100848,52.418262,-1.48685,152.3,21.47,3.0,179.53,22 / 22,5663476,2019-09-07 12:01:36:630,1.3821,-0.0635,9.6623,-0.0066,-0.0099,9.8066,0.0003,-0.0113,0.0144,-26.06,-26.44,31.94,349.79,-82.79,-150.23
100849,52.418262,-1.48685,152.3,21.47,3.0,179.53,22 / 22,5663575,2019-09-07 12:01:36:729,-0.2278,-0.3074,10.1675,-0.0068,0.0013,9.8066,-0.0262,0.0027,-0.004,-26.31,-26.44,32.19,350.31,-82.81,-149.76
100850,52.418262,-1.48685,152.3,21.47,3.0,179.53,22 / 22,5663675,2019-09-07 12:01:36:829,-0.0343,0.1517,9.7777,-0.0036,0.0116,9.8066,-0.0077,0.0391,0.0097,-26.31,-26.69,32.19,350.88,-82.82,-149.22
100851,52.418262,-1.48685,152.3,21.47,3.0,179.53,22 / 22,5663775,2019-09-07 12:01:36:929,-0.3619,0.2347,10.1825,-0.0057,0.0002,9.8066,0.0039,0.0131,0.0159,-25.81,-26.81,31.88,351.44,-82.9,-148.72
100852,52.418262,-1.48685,152.3,21.47,3.0,179.53,22 / 22,5663876,2019-09-07 12:01:37:030,0.1812,-0.0372,9.4711,0.0083,-0.0087,9.8066,0.0273,0.0072,0.0057,-26.37,-26.81,32.31,351.17,-82.83,-148.95
100853,52.418262,-1.48685,152.3,21.47,3.0,179.53,22 / 22,5663976,2019-09-07 12:01:37:130,0.1263,0.1287,8.9863,0.0011,-0.0103,9.8066,0.0044,0.0778,0.0366,-26.75,-25.62,31.06,348.56,-82.71,-149.39
100854,52.418262,-1.48685,152.3,21.47,3.0,179.53,22 / 22,5664075,2019-09-07 12:01:37:229,-0.3675,-0.1062,9.3069,-0.0056,0.0138,9.8066,-0.0249,0.0128,-0.0056,-26.81,-26.56,32.31,349.73,-82.92,-149.22
100855,52.418262,-1.48685,152.3,21.47,3.0,179.53,22 / 22,5664178,2019-09-07 12:01:37:332,-0.0631,-0.5327,9.6743,-0.0097,0.0093,9.8066,-0.0318,-0.0111,-0.0014,-26.87,-26.44,31.56,350.49,-83.09,-148.58
100856,52.418262,-1.48685,152.3,21.47,3.0,179.53,23 / 23,5664275,2019-09-07 12:01:37:429,1.417,-0.1755,9.6621,-0.0034,0.0064,9.8066,-0.0541,-0.0647,-0.0538,-27.19,-26.37,32.31,351.64,-83.1,-147.52
100857,52.418262,-1.48685,152.3,21.47,3.0,179.53,23 / 23,5664376,2019-09-07 12:01:37:530,0.3249,0.4844,9.7259,-0.0019,-0.0071,9.8066,0.0436,0.0877,0.0574,-26.69,-26.37,32.13,351.75,-83.04,-147.41
100858,52.418262,-1.48685,152.3,21.47,3.0,179.53,23 / 23,5664475,2019-09-07 12:01:37:629,1.0931,-0.883,9.9631,-0.0043,-0.0014,9.8066,0.0167,0.0654,0.0547,-26.0,-26.31,32.0,352.59,-82.96,-147.69
100859,52.418262,-1.48685,152.3,21.47,3.0,179.53,23 / 23,5664576,2019-09-07 12:01:37:730,0.2542,-0.0942,9.6348,-0.0036,0.0013,9.8066,-0.0111,0.0383,0.0327,-26.25,-27.12,31.56,353.46,-82.94,-146.87
100860,52.418262,-1.48685,152.3,21.47,3.0,179.53,23 / 23,5664675,2019-09-07 12:01:37:829,-1.3499,0.0083,9.8571,-0.0047,0.013,9.8066,-0.0112,0.0109,0.0055,-27.0,-26.87,32.38,353.37,-83.06,-145.91
100861,52.418262,-1.48685,152.3,21.47,3.0,179.53,23 / 23,5664775,2019-09-07 12:01:37:929,-1.1675,0.1034,10.3583,-0.0027,-0.0002,9.8066,0.0079,0.0304,0.0137,-25.94,-27.06,32.13,354.87,-83.04,-145.59
100862,52.418262,-1.48685,152.3,21.47,3.0,179.53,23 / 23,5664876,2019-09-07 12:01:38:030,0.2071,-0.5351,10.5154,0.0092,0.003,9.8066,0.0112,-0.0513,-0.0576,-26.75,-26.94,32.19,353.45,-83.15,-145.84
100863,52.418262,-1.48685,152.3,21.47,3.0,179.53,23 / 23,5664976,2019-09-07 12:01:38:130,-0.3017,-0.1001,10.7514,0.0076,-0.0095,9.8066,0.0149,-0.025,-0.0172,-26.94,-27.25,32.31,352.19,-83.08,-146.99
100864,52.418262,-1.48685,152.3,21.47,3.0,179.53,23 / 23,5665075,2019-09-07 12:01:38:229,0.5523,-0.6794,10.0582,-0.0044,-0.0012,9.8066,-0.0059,0.0205,0.0134,-26.19,-27.06,32.25,353.12,-83.0,-147.18
100865,52.418262,-1.48685,152.3,21.47,3.0,179.53,23 / 23,5665175,2019-09-07 12:01:38:329,-1.1155,0.8839,8.6399,-0.0007,0.0086,9.8066,-0.026,-0.0289,-0.0228,-25.75,-26.87,32.25,353.66,-83.08,-146.7
100866,52.418262,-1.48685,152.3,21.47,3.0,179.53,22 / 22,5665276,2019-09-07 12:01:38:430,-0.3727,-0.7019,10.111,0.0046,0.0041,9.8066,-0.0018,-0.0298,-0.0349,-26.56,-26.44,31.88,353.16,-83.15,-146.13
100867,52.418262,-1.48685,152.3,21.47,3.0,179.53,22 / 22,5665376,2019-09-07 12:01:38:530,0.619,0.0017,10.3382,0.0164,-0.0032,9.8066,-0.0014,-0.0332,-0.0281,-26.31,-26.44,31.75,353.15,-83.1,-147.19
100868,52.418262,-1.48685,152.3,21.47,3.0,179.53,22 / 22,5665475,2019-09-07 12:01:38:629,-0.2528,0.3994,9.6402,0.0003,0.0026,9.8066,0.0349,0.0776,0.0457,-26.69,-26.37,31.94,352.03,-83.05,-147.15
100869,52.418262,-1.48685,152.3,21.47,3.0,179.53,22 / 22,5665575,2019-09-07 12:01:38:729,0.077,0.1707,9.2361,-0.0087,-0.0006,9.8066,-0.007,0.0163,0.0194,-25.94,-26.37,31.5,353.76,-83.14,-146.63
100870,52.418262,-1.48685,152.3,21.47,3.0,179.53,22 / 22,5665675,2019-09-07 12:01:38:829,-0.0539,-0.2773,10.9768,0.0009,-0.0088,9.8066,0.0126,-0.008,0.0047,-26.94,-26.75,30.88,352.18,-83.1,-146.1
100871,52.418262,-1.48685,152.3,21.47,3.0,179.53,22 / 22,5665775,2019-09-07 12:01:38:929,0.3391,-0.5377,9.9505,0.002,-0.0021,9.8066,0.0024,-0.0105,-0.0246,-28.37,-26.37,31.19,350.68,-83.05,-146.46
100872,52.418262,-1.48685,152.3,21.47,3.0,179.53,22 / 22,5665875,2019-09-07 12:01:39:029,-0.291,0.2842,9.5083,-0.001,0.0065,9.8066,-0.0174,-0.0371,-0.0334,-28.06,-26.56,32.75,352.34,-83.08,-146.72
100873,52.418262,-1.48685,152.3,21.47,3.0,179.53,22 / 22,5665975,2019-09-07 12:01:39:129,-0.1548,0.8173,10.5247,0.0081,-0.0011,9.8066,0.0083,-0.0486,-0.0197,-26.12,-25.94,32.88,354.34,-83.11,-146.96
100874,52.418262,-1.48685,152.3,21.47,3.0,179.53,22 / 22,5666075,2019-09-07 12:01:39:229,-0.0915,0.3341,9.8302,0.0026,-0.0007,9.8066,0.012,0.0264,0.0092,-26.37,-25.94,31.38,352.1,-83.03,-147.24
100875,52.418262,-1.48685,152.3,21.47,3.0,179.53,22 / 22,5666176,2019-09-07 12:01:39:330,-0.3702,0.1915,9.4751,0.0041,0.013,9.8066,-0.0203,-0.035,-0.0415,-27.19,-25.87,32.0,351.79,-83.09,-147.38
100876,52.418262,-1.48685,152.3,21.47,3.0,179.53,23 / 23,5666276,2019-09-07 12:01:39:430,-0.657,-0.0107,9.934,-0.0033,0.0003,9.8066,-0.0046,0.0105,-0.0075,-27.44,-26.25,32.75,352.72,-83.15,-147.41
100877,52.418262,-1.48685,152.3,21.47,3.0,179.53,23 / 23,5666375,2019-09-07 12:01:39:529,-0.2871,0.4599,10.0878,-0.0049,-0.0053,9.8066,0.0239,0.0376,0.038,-26.25,-25.5,33.44,354.22,-83.13,-147.09
100878,52.418262,-1.48685,152.3,21.47,3.0,179.53,23 / 23,5666475,2019-09-07 12:01:39:629,0.7887,0.0611,9.0133,0.0103,-0.0031,9.8066,0.011,-0.0521,-0.0489,-25.56,-25.31,32.63,354.45,-83.06,-146.88
100879,52.418262,-1.48685,152.3,21.47,3.0,179.53,23 / 23,5666575,2019-09-07 12:01:39:729,-0.0177,0.5336,10.4902,-0.0024,0.0017,9.8066,-0.0522,-0.0903,-0.0612,-26.12,-25.94,30.63,352.46,-83.01,-146.91
100880,52.418262,-1.48685,152.3,21.47,3.0,179.53,23 / 23,5666675,2019-09-07 12:01:39:829,-0.4517,0.3526,9.0542,-0.002,0.002,9.8066,-0.0158,-0.0283,-0.0391,-26.87,-26.31,30.81,351.8,-83.1,-146.47
100881,52.418262,-1.48685,152.3,21.47,3.0,179.53,23 / 23,5666776,2019-09-07 12:01:39:930,-0.7961,-0.181,10.7114,0.0084,0.002,9.8066,0.0073,0.0284,-0.0158,-27.37,-26.44,31.69,352.21,-83.11,-147.0
100882,52.418262,-1.48685,152.3,21.47,3.0,179.53,23 / 23,5666876,2019-09-07 12:01:40:030,0.2325,-0.2749,9.8199,-0.0001,-0.0018,9.8066,0.0183,0.0617,0.0327,-25.69,-25.81,33.13,353.5,-83.17,-147.75
100883,52.418262,-1.48685,152.3,21.47,3.0,179.53,23 / 23,5666975,2019-09-07 12:01:40:129,0.2672,-0.3909,10.3201,0.0033,0.0034,9.8066,0.0122,-0.0149,-0.0141,-25.69,-26.06,31.69,352.42,-83.24,-147.88
100884,52.418262,-1.48685,152.3,21.47,3.0,179.53,23 / 23,5667076,2019-09-07 12:01:40:230,0.194,-0.0712,9.584,0.0043,-0.0029,9.8066,0.0107,-0.0227,-0.0126,-26.69,-26.25,30.63,349.91,-83.18,-148.21
100885,52.418262,-1.48685,152.3,21.47,3.0,179.53,23 / 23,5667175,2019-09-07 12:01:40:329,-0.6273,0.301,10.3128,-0.0055,0.0012,9.8065,-0.0133,-0.0369,-0.0334,-27.75,-26.31,32.06,350.02,-83.18,-148.0
100886,52.416508,-1.486827,151.58,21.73,3.0,179.87,21 / 21,5667275,2019-09-07 12:01:40:429,-0.6172,0.0408,10.1266,0.0057,-0.0121,9.8066,-0.0028,-0.0132,0.0059,-27.31,-26.06,32.69,351.87,-83.11,-148.19
100887,52.416508,-1.486827,151.58,21.73,3.0,179.87,21 / 21,5667375,2019-09-07 12:01:40:529,-0.835,-0.3326,10.7627,0.0033,-0.0078,9.8066,0.0076,0.0045,-0.0075,-25.56,-26.25,32.88,353.39,-83.07,-147.84
100888,52.416508,-1.486827,151.58,21.73,3.0,179.87,21 / 21,5667476,2019-09-07 12:01:40:630,-0.6681,-0.6329,9.9812,0.0046,0.0046,9.8066,-0.0051,-0.0298,-0.0126,-25.56,-27.37,32.31,352.42,-82.97,-147.82
100889,52.416508,-1.486827,151.58,21.73,3.0,179.87,21 / 21,5667575,2019-09-07 12:01:40:729,0.4744,-0.0016,10.016,-0.006,-0.0031,9.8066,-0.0161,-0.0506,-0.035,-25.25,-27.62,33.31,355.16,-82.97,-147.26
100890,52.416508,-1.486827,151.58,21.73,3.0,179.87,21 / 21,5667676,2019-09-07 12:01:40:830,-0.0969,-0.1209,9.6084,-0.0053,0.0042,9.8066,0.0147,0.056,0.0237,-25.56,-27.06,33.31,353.97,-83.11,-147.29
100891,52.416508,-1.486827,151.58,21.73,3.0,179.87,21 / 21,5667775,2019-09-07 12:01:40:929,-0.4012,-0.1384,11.4242,0.0096,0.0021,9.8066,0.0241,0.0066,-0.0069,-25.12,-26.25,32.31,354.17,-83.07,-147.34
100892,52.416508,-1.486827,151.58,21.73,3.0,179.87,21 / 21,5667876,2019-09-07 12:01:41:030,-0.2871,0.0246,10.1547,0.0035,-0.0055,9.8065,0.0371,0.0592,0.0453,-24.81,-27.12,32.06,353.2,-83.04,-148.2
100893,52.416508,-1.486827,151.58,21.73,3.0,179.87,21 / 21,5667976,2019-09-07 12:01:41:130,0.0651,0.3896,9.6801,0.0039,0.0007,9.8066,0.0189,0.0188,0.0128,-24.81,-27.06,30.31,351.22,-82.95,-148.16
100894,52.416508,-1.486827,151.58,21.73,3.0,179.87,21 / 21,5668078,2019-09-07 12:01:41:232,0.5478,-0.1629,10.0102,-0.0011,-0.0051,9.8066,-0.0056,0.0021,-0.0074,-26.25,-27.0,30.25,349.54,-82.91,-148.6
100895,52.416508,-1.486827,151.58,21.73,3.0,179.87,21 / 21,5668176,2019-09-07 12:01:41:330,0.1123,-0.3584,9.5789,-0.005,0.0072,9.8066,-0.0544,-0.0773,-0.0546,-28.12,-26.12,29.94,348.08,-82.94,-147.89
100896,52.416508,-1.486827,151.58,21.73,3.0,179.87,20 / 21,5668276,2019-09-07 12:01:41:430,-0.5572,-0.0504,10.3121,-0.0011,0.008,9.8066,0.0077,0.0265,0.0287,-29.44,-25.44,30.5,348.16,-83.03,-147.82
100897,52.416508,-1.486827,151.58,21.73,3.0,179.87,20 / 21,5668375,2019-09-07 12:01:41:529,0.2227,-0.6178,10.7074,0.003,-0.0002,9.8066,-0.0241,-0.0245,-0.0158,-28.94,-25.19,32.06,349.05,-82.99,-147.92
100898,52.416508,-1.486827,151.58,21.73,3.0,179.87,20 / 21,5668476,2019-09-07 12:01:41:630,-0.4573,0.3187,9.7921,0.0017,-0.0023,9.8066,0.0403,0.0867,0.0648,-27.81,-24.0,32.81,350.59,-83.03,-148.4
100899,52.416508,-1.486827,151.58,21.73,3.0,179.87,20 / 21,5668575,2019-09-07 12:01:41:729,-0.1039,0.3098,10.8505,0.0017,-0.0198,9.8065,0.0123,-0.028,0.0026,-27.44,-22.94,33.06,351.89,-82.93,-148.22
100900,52.416508,-1.486827,151.58,21.73,3.0,179.87,20 / 21,5668675,2019-09-07 12:01:41:829,0.3287,-0.3315,10.1439,0.0048,-0.008,9.8066,0.0183,0.0216,0.0162,-26.25,-23.5,32.19,351.96,-82.72,-148.31
100901,52.416508,-1.486827,151.58,21.73,3.0,179.87,20 / 21,5668775,2019-09-07 12:01:41:929,-0.5388,0.0226,9.4135,-0.0045,-0.0026,9.8066,-0.0028,0.0068,0.0204,-26.62,-23.81,31.13,350.82,-82.61,-147.36
100902,52.416508,-1.486827,151.58,21.73,3.0,179.87,20 / 21,5668875,2019-09-07 12:01:42:029,0.089,-0.5695,10.206,-0.0076,-0.0048,9.8066,-0.0384,-0.038,-0.0258,-27.5,-24.06,30.69,351.48,-82.59,-146.76
100903,52.416508,-1.486827,151.58,21.73,3.0,179.87,20 / 21,5668976,2019-09-07 12:01:42:130,-0.1821,0.6759,7.9495,0.001,-0.0019,9.8066,0.0152,0.0161,-0.0089,-28.94,-24.06,31.38,349.62,-82.69,-146.46
100904,52.416508,-1.486827,151.58,21.73,3.0,179.87,20 / 21,5669075,2019-09-07 12:01:42:229,-0.3169,0.0431,9.2529,0.0025,0.0033,9.8066,0.0069,-0.0193,-0.027,-28.62,-24.06,32.0,350.34,-82.66,-146.71
100905,52.416508,-1.486827,151.58,21.73,3.0,179.87,20 / 21,5669175,2019-09-07 12:01:42:329,0.1364,0.2874,10.0906,0.0044,-0.0045,9.8066,-0.017,-0.0225,0.0047,-27.5,-25.75,31.94,351.09,-82.63,-147.98
100906,52.416508,-1.486827,151.58,21.73,3.0,179.87,21 / 21,5669275,2019-09-07 12:01:42:429,-1.082,0.2297,8.9477,-0.0043,-0.0127,9.8066,-0.0249,-0.0361,-0.014,-25.87,-27.31,32.44,352.08,-82.6,-148.09
100907,52.416508,-1.486827,151.58,21.73,3.0,179.87,21 / 21,5669375,2019-09-07 12:01:42:529,-0.1164,-0.1929,10.8075,0.0086,0.0008,9.8066,0.0111,0.0383,0.0371,-28.12,-26.25,32.69,350.59,-82.54,-148.29
100908,52.416508,-1.486827,151.58,21.73,3.0,179.87,21 / 21,5669476,2019-09-07 12:01:42:630,-0.663,-0.324,9.6223,-0.0026,-0.0068,9.8065,-0.0405,-0.0685,-0.0603,-28.56,-25.62,34.13,350.95,-82.51,-147.82
100909,52.416508,-1.486827,151.58,21.73,3.0,179.87,21 / 21,5669575,2019-09-07 12:01:42:729,-0.5604,0.3313,11.0189,-0.0042,-0.0052,9.8066,0.0058,-0.055,-0.0451,-27.56,-23.87,35.0,353.11,-82.59,-147.7
100910,52.416508,-1.486827,151.58,21.73,3.0,179.87,21 / 21,5669675,2019-09-07 12:01:42:829,0.6357,-1.2592,10.4209,0.0049,-0.0011,9.8066,0.0566,0.0812,0.0725,-26.37,-24.81,32.94,353.1,-82.57,-148.08
100911,52.416508,-1.486827,151.58,21.73,3.0,179.87,21 / 21,5669776,2019-09-07 12:01:42:930,0.0022,0.6185,10.0552,0.0046,-0.0072,9.8066,0.0222,0.0256,0.0259,-26.62,-25.25,32.81,352.35,-82.45,-147.71
100912,52.416508,-1.486827,151.58,21.73,3.0,179.87,21 / 21,5669875,2019-09-07 12:01:43:029,-0.1568,-0.9195,11.0001,-0.0003,-0.0059,9.8066,0.0018,-0.0375,-0.0397,-26.75,-25.44,33.0,351.95,-82.37,-148.07
100913,52.416508,-1.486827,151.58,21.73,3.0,179.87,21 / 21,5669975,2019-09-07 12:01:43:129,-0.5466,0.0284,9.0992,-0.0059,0.0065,9.8066,-0.023,-0.0455,-0.0426,-26.12,-25.31,33.44,353.02,-82.43,-148.14
100914,52.416508,-1.486827,151.58,21.73,3.0,179.87,21 / 21,5670075,2019-09-07 12:01:43:229,-0.5295,0.0209,11.1833,-0.0102,0.0112,9.8066,-0.0287,-0.0108,-0.0011,-25.69,-25.0,32.44,352.4,-82.53,-147.85
100915,52.416508,-1.486827,151.58,21.73,3.0,179.87,21 / 21,5670175,2019-09-07 12:01:43:329,-0.0716,-0.0597,8.9365,0.0031,0.0036,9.8066,0.0097,0.0166,0.0106,-26.25,-25.19,31.13,351.88,-82.55,-147.42
100916,52.416508,-1.486827,151.58,21.73,3.0,179.87,21 / 22,5670275,2019-09-07 12:01:43:429,-0.3723,-0.5364,10.7235,-0.0023,-0.0054,9.8066,-0.012,-0.0748,-0.0664,-28.5,-25.81,32.06,350.47,-82.54,-147.51
100917,52.416508,-1.486827,151.58,21.73,3.0,179.87,21 / 22,5670376,2019-09-07 12:01:43:530,-0.2416,-0.4388,10.3292,0.012,-0.0083,9.8066,0.0057,-0.022,-0.0324,-27.69,-25.31,34.0,351.4,-82.56,-148.43
100918,52.416508,-1.486827,151.58,21.73,3.0,179.87,21 / 22,5670475,2019-09-07 12:01:43:629,-0.5103,0.2423,10.2754,0.0085,-0.0014,9.8066,0.0027,0.0047,0.0019,-25.94,-25.75,35.31,353.13,-82.45,-149.66
100919,52.416508,-1.486827,151.58,21.73,3.0,179.87,21 / 22,5670576,2019-09-07 12:01:43:730,-0.0203,0.0752,9.3901,-0.0038,-0.0031,9.8066,-0.0276,-0.0017,0.0254,-23.37,-25.0,33.06,355.15,-82.45,-149.54
100920,52.416508,-1.486827,151.58,21.73,3.0,179.87,21 / 22,5670675,2019-09-07 12:01:43:829,0.0574,-0.1097,9.2136,-0.0087,0.0037,9.8066,-0.0202,0.0066,0.0099,-23.62,-24.87,31.81,353.94,-82.51,-148.65
100921,52.416508,-1.486827,151.58,21.73,3.0,179.87,21 / 22,5670775,2019-09-07 12:01:43:929,-0.222,-0.2503,10.4641,-0.0284,-0.011,9.8066,-0.0434,-0.0902,-0.0388,-25.25,-25.37,31.56,354.16,-82.53,-147.32
100922,52.416508,-1.486827,151.58,21.73,3.0,179.87,21 / 22,5670875,2019-09-07 12:01:44:029,0.0279,-0.5049,10.6567,0.0058,-0.0011,9.8066,0.0234,0.0358,0.0448,-26.25,-25.87,32.06,354.33,-82.48,-146.06
100923,52.416508,-1.486827,151.58,21.73,3.0,179.87,21 / 22,5670975,2019-09-07 12:01:44:129,0.205,-0.1242,9.8579,0.0095,0.0039,9.8066,0.04,0.0549,0.0472,-26.62,-25.5,31.69,353.55,-82.38,-145.72
100924,52.416508,-1.486827,151.58,21.73,3.0,179.87,21 / 22,5671075,2019-09-07 12:01:44:229,-0.4939,-0.0227,10.3214,0.0016,-0.0075,9.8066,0.0274,0.0277,0.0095,-28.56,-25.75,31.44,349.66,-82.31,-146.32
100925,52.416508,-1.486827,151.58,21.73,3.0,179.87,21 / 22,5671175,2019-09-07 12:01:44:329,0.6175,-0.1272,10.2661,0.0051,0.0085,9.8065,0.0207,0.083,0.0451,-26.62,-26.31,34.56,355.19,-82.29,-146.74
100926,52.416508,-1.486827,151.58,21.73,3.0,179.87,21 / 22,5671276,2019-09-07 12:01:44:430,-0.1622,-0.5171,9.6894,-0.0044,0.0014,9.8066,-0.0115,-0.044,-0.0491,-24.69,-25.94,34.19,356.99,-82.31,-146.41
100927,52.416508,-1.486827,151.58,21.73,3.0,179.87,21 / 21,5671375,2019-09-07 12:01:44:529,-0.3983,0.395,8.9471,0.0084,0.0054,9.8066,0.0228,0.0406,0.0287,-24.12,-26.31,32.88,356.68,-82.38,-146.98
100928,52.416508,-1.486827,151.58,21.73,3.0,179.87,21 / 21,5671476,2019-09-07 12:01:44:630,-0.4308,-0.3223,10.1609,-0.0054,0.0039,9.8066,-0.0236,-0.0029,-0.0158,-25.44,-26.44,32.56,355.15,-82.44,-147.26
100929,52.416508,-1.486827,151.58,21.73,3.0,179.87,21 / 21,5671576,2019-09-07 12:01:44:730,0.0029,-0.2083,9.2251,0.0081,0.0121,9.8066,-0.0104,-0.0155,-0.0328,-26.31,-26.62,32.69,354.65,-82.51,-146.62
100930,52.416508,-1.486827,151.58,21.73,3.0,179.87,21 / 21,5671676,2019-09-07 12:01:44:830,-0.9832,0.7345,8.5504,-0.0079,-0.0017,9.8066,-0.0348,-0.0621,-0.033,-25.81,-25.69,33.31,354.27,-82.6,-146.99
100931,52.416508,-1.486827,151.58,21.73,3.0,179.87,21 / 21,5671776,2019-09-07 12:01:44:930,-0.6031,0.0138,9.9035,-0.0001,-0.002,9.8066,0.0218,0.0124,0.0086,-25.62,-24.5,33.31,354.04,-82.59,-147.24
100932,52.416508,-1.486827,151.58,21.73,3.0,179.87,21 / 21,5671876,2019-09-07 12:01:45:030,-0.5134,0.1413,11.1581,0.0078,-0.0074,9.8066,-0.0031,-0.0253,0.0029,-25.31,-24.44,33.94,355.91,-82.45,-147.42
100933,52.416508,-1.486827,151.58,21.73,3.0,179.87,21 / 21,5671975,2019-09-07 12:01:45:129,-0.0732,-0.152,9.8472,-0.0052,-0.0052,9.8066,0.0196,0.0369,0.056,-24.56,-23.0,33.69,356.03,-82.3,-147.32
100934,52.416508,-1.486827,151.58,21.73,3.0,179.87,21 / 21,5672075,2019-09-07 12:01:45:229,0.0106,-0.1393,10.4583,-0.0085,-0.0073,9.8066,-0.0442,-0.0509,-0.0258,-24.37,-24.06,32.0,356.31,-82.24,-146.49
100935,52.416508,-1.486827,151.58,21.73,3.0,179.87,21 / 21,5672175,2019-09-07 12:01:45:329,-0.2233,0.4248,9.4108,-0.0038,0.0039,9.8066,0.0133,0.0064,0.003,-25.69,-25.0,31.06,353.36,-82.38,-146.05
100936,52.416508,-1.486827,151.58,21.73,3.0,179.87,21 / 21,5672276,2019-09-07 12:01:45:430,0.1567,-0.5918,9.2907,0.0058,0.0045,9.8066,0.0369,0.0932,0.0384,-26.31,-25.81,32.44,354.27,-82.41,-146.11
100937,52.416508,-1.486827,151.58,21.73,3.0,179.87,21 / 21,5672375,2019-09-07 12:01:45:529,-0.2479,0.2626,10.2396,0.0035,0.0184,9.8066,-0.0027,-0.0002,-0.0214,-25.44,-26.31,31.63,355.01,-82.52,-146.53
100938,52.416508,-1.486827,151.58,21.73,3.0,179.87,21 / 21,5672475,2019-09-07 12:01:45:629,0.3984,-0.2399,9.7577,0.0037,0.0113,9.8066,0.0292,0.0327,0.021,-26.69,-27.06,30.81,351.02,-82.63,-147.1
100939,52.416508,-1.486827,151.58,21.73,3.0,179.87,21 / 21,5672575,2019-09-07 12:01:45:729,0.2048,-0.0413,10.0567,-0.0032,-0.0163,9.8065,-0.0099,-0.0661,-0.0387,-29.12,-26.44,30.88,348.53,-82.56,-147.38
100940,52.416508,-1.486827,151.58,21.73,3.0,179.87,21 / 21,5672675,2019-09-07 12:01:45:829,-0.699,0.1487,8.9702,0.0026,-0.0005,9.8066,-0.0132,-0.0194,0.0007,-29.75,-26.37,32.94,349.67,-82.4,-147.18
100941,52.416508,-1.486827,151.58,21.73,3.0,179.87,21 / 21,5672775,2019-09-07 12:01:45:929,-0.0777,-0.3414,10.8739,-0.0067,-0.0075,9.8066,-0.0181,-0.026,0.0147,-29.37,-25.87,33.56,351.79,-82.41,-147.05
100942,52.416508,-1.486827,151.58,21.73,3.0,179.87,21 / 21,5672876,2019-09-07 12:01:46:030,-0.7166,-0.0734,9.5085,-0.0055,-0.0053,9.8066,-0.0181,-0.0645,-0.0525,-28.81,-25.81,34.88,353.72,-82.32,-146.1
100943,52.416508,-1.486827,151.58,21.73,3.0,179.87,21 / 21,5672976,2019-09-07 12:01:46:130,-0.6622,-0.2396,10.513,-0.0051,0.0084,9.8066,-0.0168,0.0165,0.0031,-26.69,-25.62,35.63,356.95,-82.4,-145.92
100944,52.416508,-1.486827,151.58,21.73,3.0,179.87,21 / 21,5673076,2019-09-07 12:01:46:230,-0.5424,-0.2521,10.1636,-0.0064,0.0118,9.8066,-0.0085,0.0254,0.0279,-25.25,-25.56,35.56,359.81,-82.51,-145.4
100945,52.416508,-1.486827,151.58,21.73,3.0,179.87,21 / 21,5673176,2019-09-07 12:01:46:330,-1.1599,-0.6055,9.5126,0.0008,-0.0042,9.8066,0.0304,0.0177,0.017,-24.0,-26.5,35.0,0.51,-82.48,-145.1
100946,52.416508,-1.486827,151.58,21.73,3.0,179.87,21 / 21,5673275,2019-09-07 12:01:46:429,-0.7097,0.355,10.0443,0.0046,-0.0024,9.8066,-0.0172,0.0033,0.0002,-22.75,-26.62,35.13,1.58,-82.36,-145.26
100947,52.416508,-1.486827,151.58,21.73,3.0,179.87,21 / 21,5673376,2019-09-07 12:01:46:530,-0.4644,-0.5427,8.8682,-0.0041,-0.0005,9.8066,-0.0315,-0.0766,-0.0655,-21.69,-27.31,33.0,0.92,-82.46,-145.48
100948,52.416508,-1.486827,151.58,21.73,3.0,179.87,21 / 21,5673476,2019-09-07 12:01:46:630,0.7834,-0.0919,9.7944,0.0077,0.0132,9.8066,0.0008,-0.0125,-0.0111,-22.37,-28.31,31.5,359.89,-82.54,-145.59
100949,52.416508,-1.486827,151.58,21.73,3.0,179.87,21 / 21,5673576,2019-09-07 12:01:46:730,-0.18,-0.583,10.4353,0.0117,-0.0054,9.8066,0.0254,-0.0173,-0.0109,-23.87,-28.75,31.56,357.47,-82.53,-145.4
100950,52.416508,-1.486827,151.58,21.73,3.0,179.87,21 / 21,5673676,2019-09-07 12:01:46:830,-0.4263,-0.129,8.9705,-0.0065,0.0024,9.8066,-0.0261,-0.0136,0.0135,-24.19,-29.94,32.69,358.18,-82.43,-145.6
100951,52.416508,-1.486827,151.58,21.73,3.0,179.87,21 / 21,5673775,2019-09-07 12:01:46:929,0.2752,0.0891,8.3203,-0.0138,-0.0022,9.8066,-0.0357,-0.0785,-0.0304,-23.44,-29.87,32.19,359.78,-82.47,-144.49
100952,52.416508,-1.486827,151.58,21.73,3.0,179.87,21 / 21,5673876,2019-09-07 12:01:47:030,-0.0092,-0.5477,10.2064,-0.0025,-0.0025,9.8066,-0.0037,-0.0436,-0.0079,-24.0,-30.31,30.75,357.98,-82.45,-144.05
100953,52.416508,-1.486827,151.58,21.73,3.0,179.87,21 / 21,5673975,2019-09-07 12:01:47:129,-0.2832,-0.0835,9.8062,0.0051,0.0042,9.8065,-0.0123,0.0285,0.0225,-25.62,-29.94,31.0,355.29,-82.38,-144.22
100954,52.416508,-1.486827,151.58,21.73,3.0,179.87,21 / 21,5674075,2019-09-07 12:01:47:229,-0.4816,-0.1219,9.7547,-0.0041,0.0088,9.8066,-0.0298,-0.0056,-0.0265,-26.12,-29.94,31.25,355.4,-82.51,-144.13
100955,52.416508,-1.486827,151.58,21.73,3.0,179.87,21 / 21,5674176,2019-09-07 12:01:47:330,-0.5755,-0.1058,10.2522,0.0092,-0.0013,9.8066,0.0222,-0.0042,0.0007,-27.5,-30.56,31.75,355.11,-82.61,-144.23
100956,52.416508,-1.486827,151.58,21.73,3.0,179.87,22 / 22,5674276,2019-09-07 12:01:47:430,0.4122,-0.7655,9.9497,0.0062,-0.008,9.8066,0.0001,-0.0209,0.0063,-27.44,-29.87,33.56,356.07,-82.5,-145.09
100957,52.416508,-1.486827,151.58,21.73,3.0,179.87,22 / 22,5674376,2019-09-07 12:01:47:530,-0.1817,-0.1312,9.156,-0.0017,0.0064,9.8066,-0.0128,-0.0355,-0.0354,-26.37,-29.31,34.38,357.35,-82.54,-144.99
100958,52.416508,-1.486827,151.58,21.73,3.0,179.87,22 / 22,5674475,2019-09-07 12:01:47:629,-0.6983,0.3197,9.9243,0.0027,0.0091,9.8066,0.001,0.0457,0.0427,-25.25,-28.81,34.94,359.18,-82.63,-145.2
100959,52.416508,-1.486827,151.58,21.73,3.0,179.87,22 / 22,5674575,2019-09-07 12:01:47:729,0.3113,-0.6149,10.442,-0.0025,0.0129,9.8065,0.0131,0.0048,-0.0007,-24.56,-28.75,34.63,359.6,-82.62,-144.83
100960,52.416508,-1.486827,151.58,21.73,3.0,179.87,22 / 22,5674675,2019-09-07 12:01:47:829,-0.2076,-0.573,11.5815,0.0008,-0.0121,9.8066,-0.001,-0.057,-0.0146,-22.56,-27.75,35.31,2.06,-82.59,-144.82
100961,52.416508,-1.486827,151.58,21.73,3.0,179.87,22 / 22,5674775,2019-09-07 12:01:47:929,0.2354,-0.5684,10.0814,-0.0024,0.0014,9.8066,-0.0266,-0.0764,-0.045,-21.12,-28.37,33.38,2.67,-82.48,-145.13
100962,52.416508,-1.486827,151.58,21.73,3.0,179.87,22 / 22,5674875,2019-09-07 12:01:48:029,0.8624,-0.5266,8.9698,-0.0048,0.0086,9.8066,0.0005,0.009,0.0028,-20.62,-28.25,32.19,2.3,-82.56,-144.66
100963,52.416508,-1.486827,151.58,21.73,3.0,179.87,22 / 22,5674977,2019-09-07 12:01:48:131,-1.3403,-0.0092,9.8462,0.0038,0.0124,9.8065,0.0254,0.0682,0.0271,-23.0,-28.69,30.88,358.88,-82.62,-144.43
100964,52.416508,-1.486827,151.58,21.73,3.0,179.87,22 / 22,5675075,2019-09-07 12:01:48:229,-0.8686,-0.0501,10.2859,-0.0031,0.0,9.8066,-0.0306,-0.0899,-0.0709,-23.69,-28.56,31.19,357.64,-82.61,-144.37
