,GPS LATITUDE (degrees), GPS LONGITUDE (degrees), GPS ALTITUDE (m), GPS SPEED (Kmh), GPS ACCURACY (m), GPS ORIENTATION (Â°),GPS SATELLITES IN RANGE, TIME SINCE START (ms), DATE (YYYY-MO-DD HH-MI-SS_SSS), ACCELEROMETER X (m/s²) , ACCELEROMETER Y (m/s²), ACCELEROMETER Z (m/s²), GRAVITY X (m/s²), GRAVITY Y (m/s²), GRAVITY Z (m/s²), GYROSCOPE Yaw (rad/s), GYROSCOPE Pitch (rad/s), GYROSCOPE Roll (rad/s), MAGNETIC FIELD X (Î¼T), MAGNETIC FIELD Y (Î¼T), MAGNETIC FIELD Z (Î¼T), ORIENTATION (Yaw) (Â°), ORIENTATION (Pitch) (Â°), ORIENTATION (Roll ) (Â°)
27310,52.415592,-1.578641,171.29,6.77,2,113.13,25 / 28,2733922,2019-09-08 10:53:20:546,-0.4968,-0.0111,9.9879,-0.0019,-0.0086,9.8066,0.0302,0.1045,0.0331,-33.12,-27.44,11.81,264.91,-82.17,160.93
27311,52.415592,-1.578641,171.29,6.77,2,113.13,25 / 28,2734021,2019-09-08 10:53:20:645,-0.7025,-0.647,9.9122,-0.0006,-0.0076,9.8065,0.0076,0.1038,0.0111,-33.69,-27.5,12.44,265.9,-82.16,162.33
27312,52.415592,-1.578641,171.29,6.77,2,113.13,25 / 28,2734122,2019-09-08 10:53:20:746,-0.4876,-0.6467,9.837,-0.0013,-0.0039,9.8066,0.0025,0.0838,0.0186,-33.5,-27.87,12.38,266.5,-82.13,162.8
27313,52.415592,-1.578641,171.29,6.77,2,113.13,25 / 28,2734222,2019-09-08 10:53:20:846,-0.1783,-0.585,9.8604,0.0095,0.0022,9.8066,0.0039,0.077,-0.0142,-33.0,-27.37,12.81,268.55,-82.08,163.11
27314,52.415592,-1.578641,171.29,6.77,2,113.13,25 / 28,2734321,2019-09-08 10:53:20:945,-0.3657,-0.4472,9.7695,0.0071,0.002,9.8066,0.023,0.0755,-0.0191,-33.12,-27.44,12.25,266.58,-81.96,162.79
27315,52.415592,-1.578641,171.29,6.77,2,113.13,25 / 28,2734421,2019-09-08 10:53:21:045,0.1048,-0.4335,9.8012,0.0046,0.0083,9.8065,0.0025,0.0807,-0.0369,-32.69,-27.12,12.19,266.11,-81.86,162.38
27316,52.415592,-1.578641,171.29,6.77,2,113.13,25 / 28,2734522,2019-09-08 10:53:21:146,-0.0965,-0.3978,9.8446,0.0014,0.008,9.8066,0.0276,0.0642,-0.0055,-32.75,-27.44,12.13,265.18,-81.76,161.52
27317,52.415592,-1.578641,171.29,6.77,2,113.13,25 / 28,2734621,2019-09-08 10:53:21:245,0.2714,-0.4982,9.9402,0.0094,0.0003,9.8066,-0.0025,0.0774,-0.0007,-32.44,-27.25,12.06,265.29,-81.62,161.34
27318,52.415592,-1.578641,171.29,6.77,2,113.13,25 / 28,2734721,2019-09-08 10:53:21:345,0.5961,-0.734,9.8389,0.0056,0.0002,9.8066,0.0008,0.0667,-0.0116,-32.12,-27.81,12.44,265.03,-81.56,161.37
27319,52.415592,-1.578641,171.29,6.77,2,113.13,26 / 27,2734821,2019-09-08 10:53:21:445,0.682,-0.6912,10.0642,0.0072,-0.0007,9.8065,0.0319,0.0664,-0.022,-32.0,-26.87,12.38,265.3,-81.49,161.45
27320,52.415592,-1.578641,171.29,6.77,2,113.13,26 / 27,2734922,2019-09-08 10:53:21:546,0.4788,-0.3714,9.895,0.0064,0.002,9.8065,0.0249,0.0759,-0.0238,-32.25,-27.19,12.19,265.1,-81.37,161.35
27321,52.415592,-1.578641,171.29,6.77,2,113.13,26 / 27,2735022,2019-09-08 10:53:21:646,1.227,-0.8889,9.8785,0.0041,0.0023,9.8066,0.0247,0.1009,-0.031,-32.12,-27.75,12.19,264.53,-81.26,161.11
27322,52.415592,-1.578641,171.29,6.77,2,113.13,26 / 27,2735122,2019-09-08 10:53:21:746,1.5517,-0.7688,10.1206,0.0077,0.007,9.8066,0.0345,0.081,-0.0368,-31.37,-28.12,12.25,264.47,-81.09,160.79
27323,52.415592,-1.578641,171.29,6.77,2,113.13,26 / 27,2735221,2019-09-08 10:53:21:845,0.974,-0.3396,9.8878,0.0131,0.0041,9.8066,0.014,0.0957,-0.0178,-31.81,-27.75,11.75,263.71,-80.84,160.62
27324,52.415592,-1.578641,171.29,6.77,2,113.13,26 / 27,2735321,2019-09-08 10:53:21:945,0.4777,-0.5324,9.6599,0.0079,0.0034,9.8066,0.009,0.1221,-0.0355,-31.94,-28.19,11.25,261.89,-80.74,160.49
27325,52.415592,-1.578641,171.29,6.77,2,113.13,26 / 27,2735421,2019-09-08 10:53:22:045,-0.4093,-0.4255,9.7098,-0.0085,0.0018,9.8066,-0.0023,0.0961,0.0069,-32.44,-28.19,11.44,261.69,-80.69,160.32
27326,52.415592,-1.578641,171.29,6.77,2,113.13,26 / 27,2735521,2019-09-08 10:53:22:145,-1.0624,-0.2637,9.7682,-0.0166,0.0062,9.8065,-0.0145,0.111,-0.0161,-32.19,-28.19,10.81,261.4,-80.81,159.92
27327,52.415592,-1.578641,171.29,6.77,2,113.13,26 / 27,2735622,2019-09-08 10:53:22:246,-1.3762,-0.3565,9.9573,0.0036,-0.0036,9.8066,-0.0344,0.0987,0.0032,-32.06,-28.75,10.38,259.39,-80.88,159.75
27328,52.415592,-1.578641,171.29,6.77,2,113.13,26 / 27,2735721,2019-09-08 10:53:22:345,-1.41,-0.5751,9.7132,0.0087,-0.0065,9.8066,-0.003,0.0842,0.0003,-31.5,-28.62,10.25,260.01,-80.89,160.09
27329,52.415592,-1.578641,171.29,6.77,2,113.13,26 / 27,2735821,2019-09-08 10:53:22:445,-1.8491,-0.6643,9.5928,-0.0061,-0.0035,9.8066,0.0299,0.0575,-0.0008,-31.69,-27.69,10.63,262.11,-80.91,160.57
27330,52.415592,-1.578641,171.29,6.77,2,113.13,24 / 26,2735921,2019-09-08 10:53:22:545,-1.7834,-0.706,9.7614,-0.007,-0.0004,9.8066,0.0385,0.0437,-0.0005,-31.69,-28.12,10.44,260.65,-80.9,160.76
27331,52.415592,-1.578641,171.29,6.77,2,113.13,24 / 26,2736022,2019-09-08 10:53:22:646,-1.8406,-0.6208,9.8546,0.009,0.0025,9.8066,-0.0195,0.0251,-0.0118,-31.87,-27.81,10.75,262.17,-80.86,160.67
27332,52.415592,-1.578641,171.29,6.77,2,113.13,24 / 26,2736121,2019-09-08 10:53:22:745,-1.8818,-0.4873,9.7357,0.0056,0.0045,9.8066,-0.009,0.0104,0.0021,-31.87,-27.87,9.94,260.06,-80.8,160.23
27333,52.415592,-1.578641,171.29,6.77,2,113.13,24 / 26,2736221,2019-09-08 10:53:22:845,-1.5952,-0.4649,9.8183,-0.0025,0.0034,9.8065,0.0192,-0.006,-0.0014,-32.12,-28.12,10.0,259.86,-80.81,160.02
27334,52.415592,-1.578641,171.29,6.77,2,113.13,24 / 26,2736321,2019-09-08 10:53:22:945,-0.6641,-0.4516,10.0811,-0.0032,0.0034,9.8066,0.0462,-0.0089,-0.0162,-31.87,-28.25,9.81,259.52,-80.82,159.66
27335,52.415592,-1.578641,171.29,6.77,2,113.13,24 / 26,2736421,2019-09-08 10:53:23:045,0.163,-0.6559,9.6087,0.0145,0.0003,9.8066,-0.0044,-0.0141,0.006,-31.19,-27.81,10.81,261.15,-80.66,159.45
27336,52.415592,-1.578641,171.29,6.77,2,113.13,24 / 26,2736522,2019-09-08 10:53:23:146,0.0387,-0.6807,9.6053,0.0105,-0.0059,9.8066,-0.0101,-0.0201,-0.004,-31.81,-28.06,11.06,261.18,-80.58,159.89
27337,52.415592,-1.578641,171.29,6.77,2,113.13,24 / 26,2736621,2019-09-08 10:53:23:245,0.1109,-0.4603,9.8291,-0.0009,0.0047,9.8066,0.0225,-0.0082,0.0057,-31.5,-28.06,10.5,261.45,-80.55,159.84
27338,52.415592,-1.578641,171.29,6.77,2,113.13,24 / 26,2736722,2019-09-08 10:53:23:346,0.321,-0.6511,9.8269,-0.0026,0.0012,9.8066,0.0118,-0.0118,0.0045,-31.94,-28.44,11.0,260.83,-80.56,159.54
27339,52.415592,-1.578641,171.29,6.77,2,113.13,24 / 26,2736822,2019-09-08 10:53:23:446,0.1955,-0.6309,9.8205,0.0036,0.0009,9.8066,-0.0093,-0.0089,0.007,-31.44,-28.06,10.94,261.05,-80.56,159.43
27340,52.415592,-1.578641,171.29,6.77,2,113.13,25 / 27,2736921,2019-09-08 10:53:23:545,0.2395,-0.6162,9.7999,-0.0029,0.0009,9.8065,0.0118,-0.0073,-0.0047,-32.19,-27.94,11.0,260.7,-80.57,159.39
27341,52.415592,-1.578641,171.29,6.77,2,113.13,25 / 27,2737021,2019-09-08 10:53:23:645,0.3318,-0.681,9.7154,-0.0015,0.0029,9.8066,0.0083,-0.0051,0.0065,-31.94,-27.94,10.69,260.62,-80.58,159.3
27342,52.415592,-1.578641,171.29,6.77,2,113.13,25 / 27,2737121,2019-09-08 10:53:23:745,-0.0947,-0.6825,9.7858,0.0003,-0.0005,9.8066,-0.0029,-0.0189,0.0077,-32.31,-27.81,10.44,258.98,-80.6,159.27
27343,52.415592,-1.578641,171.29,6.77,2,113.13,25 / 27,2737221,2019-09-08 10:53:23:845,0.2285,-0.6197,9.8432,-0.001,0.0008,9.8066,0.0136,-0.0047,-0.0014,-31.94,-27.81,10.31,258.9,-80.62,159.18
27344,52.415592,-1.578641,171.29,6.77,2,113.13,25 / 27,2737321,2019-09-08 10:53:23:945,-0.0386,-0.5543,9.7696,-0.0017,0.0,9.8066,-0.0045,0.0022,0.0104,-31.62,-27.75,10.63,260.42,-80.63,159.06
27345,52.415592,-1.578641,171.29,6.77,2,113.13,25 / 27,2737422,2019-09-08 10:53:24:046,0.1867,-0.6226,9.8701,-0.0005,-0.0002,9.8066,-0.0138,-0.0032,0.0073,-31.25,-28.75,10.38,258.83,-80.64,159.08
27346,52.415592,-1.578641,171.29,6.77,2,113.13,25 / 27,2737521,2019-09-08 10:53:24:145,0.1023,-0.7542,9.8657,-0.0031,0.0002,9.8066,0.0115,-0.0105,0.001,-31.69,-28.56,10.38,258.6,-80.67,159.11
27347,52.415592,-1.578641,171.29,6.77,2,113.13,25 / 27,2737621,2019-09-08 10:53:24:245,0.1917,-0.7246,9.8588,0.0,-0.0021,9.8065,-0.0018,-0.0001,0.0043,-31.5,-28.31,10.44,259.2,-80.69,159.13
27348,52.415592,-1.578641,171.29,6.77,2,113.13,25 / 27,2737722,2019-09-08 10:53:24:346,0.0345,-0.5705,9.9548,-0.0012,0.0002,9.8066,-0.0041,-0.0119,0.0004,-31.69,-28.37,10.56,260.59,-80.71,159.17
27349,52.415592,-1.578641,171.29,6.77,2,113.13,25 / 27,2737822,2019-09-08 10:53:24:446,0.2368,-0.6637,9.8924,-0.0026,0.0,9.8066,0.0188,-0.0119,0.0039,-31.81,-27.81,10.25,258.96,-80.75,159.13
27350,52.415592,-1.578359,171.15,0.0,3,49.24,24 / 26,2737921,2019-09-08 10:53:24:545,0.2652,-0.6439,9.7345,-0.0029,0.0009,9.8066,-0.0061,-0.0014,0.0064,-31.62,-27.87,10.81,260.65,-80.75,159.2
27351,52.415592,-1.578359,171.15,0.0,3,49.24,24 / 26,2738021,2019-09-08 10:53:24:645,-0.0505,-0.5881,9.916,0.0003,-0.0018,9.8066,-0.0025,-0.0029,-0.0014,-32.0,-28.0,10.69,260.72,-80.77,159.25
27352,52.415592,-1.578359,171.15,0.0,3,49.24,24 / 26,2738121,2019-09-08 10:53:24:745,0.2258,-0.6594,9.7934,-0.0036,0.0,9.8066,0.0228,-0.0114,0.0092,-32.19,-28.31,10.75,260.71,-80.82,159.2
27353,52.415592,-1.578359,171.15,0.0,3,49.24,24 / 26,2738221,2019-09-08 10:53:24:845,0.0362,-0.6642,9.9713,-0.0039,-0.0004,9.8065,0.0032,0.0005,0.0044,-31.87,-27.81,11.06,260.8,-80.84,159.28
27354,52.415592,-1.578359,171.15,0.0,3,49.24,24 / 26,2738321,2019-09-08 10:53:24:945,0.2225,-0.78,9.6696,-0.0011,-0.0015,9.8065,-0.0119,0.0053,-0.0036,-32.06,-27.75,10.81,260.92,-80.85,159.39
27355,52.415592,-1.578359,171.15,0.0,3,49.24,24 / 26,2738422,2019-09-08 10:53:25:046,-0.0722,-0.5491,9.9757,-0.0033,-0.0008,9.8066,0.0197,-0.008,0.0064,-31.12,-27.94,10.38,259.66,-80.89,159.43
27356,52.415592,-1.578359,171.15,0.0,3,49.24,24 / 26,2738521,2019-09-08 10:53:25:145,0.2343,-0.7284,9.6746,-0.001,-0.0021,9.8066,-0.0028,-0.002,-0.0041,-32.31,-27.81,10.81,261.05,-80.92,159.48
27357,52.415592,-1.578359,171.15,0.0,3,49.24,24 / 26,2738622,2019-09-08 10:53:25:246,0.0543,-0.6488,9.8844,-0.0015,-0.0009,9.8066,-0.012,-0.0005,0.0042,-31.62,-28.37,10.5,261.17,-80.94,159.58
27358,52.415592,-1.578359,171.15,0.0,3,49.24,24 / 26,2738722,2019-09-08 10:53:25:346,0.0686,-0.6978,9.7998,0.0002,-0.0015,9.8066,-0.0146,0.0052,-0.0081,-31.94,-28.0,11.13,261.34,-80.97,159.74
27359,52.415592,-1.578359,171.15,0.0,3,49.24,24 / 26,2738822,2019-09-08 10:53:25:446,0.216,-0.661,9.6581,0.0008,-0.0016,9.8066,-0.0049,-0.0121,0.0012,-31.37,-28.0,11.0,261.78,-80.99,159.82
27360,52.415592,-1.578359,171.15,0.0,3,49.24,25 / 27,2738921,2019-09-08 10:53:25:545,0.0517,-0.6021,9.9236,-0.0032,-0.0018,9.8066,0.0176,-0.0101,-0.001,-31.62,-28.62,10.44,259.66,-81.01,159.91
27361,52.415592,-1.578359,171.15,0.0,3,49.24,25 / 27,2739021,2019-09-08 10:53:25:645,0.247,-0.7589,9.7981,-0.0014,-0.0015,9.8066,0.0098,-0.0191,0.0059,-31.56,-27.94,10.81,261.78,-81.05,160.12
27362,52.415592,-1.578359,171.15,0.0,3,49.24,25 / 27,2739121,2019-09-08 10:53:25:745,0.3898,-0.7445,9.6711,0.0007,-0.0013,9.8066,0.0043,-0.0072,0.0083,-31.44,-27.87,11.0,262.31,-81.06,160.3
27363,52.415592,-1.578359,171.15,0.0,3,49.24,25 / 27,2739221,2019-09-08 10:53:25:845,0.1496,-0.7444,9.8543,0.0016,-0.0018,9.8066,-0.0017,0.0079,0.0134,-31.19,-27.31,10.94,262.65,-81.09,160.36
27364,52.415592,-1.578359,171.15,0.0,3,49.24,25 / 27,2739322,2019-09-08 10:53:25:946,-0.0419,-0.7101,9.8122,-0.0036,-0.001,9.8066,0.0027,-0.0027,0.014,-32.06,-27.5,10.19,260.77,-81.08,160.47
27365,52.415592,-1.578359,171.15,0.0,3,49.24,25 / 27,2739422,2019-09-08 10:53:26:046,0.4671,-0.6563,9.8418,-0.0012,-0.001,9.8066,0.0154,0.0027,0.0154,-31.5,-27.87,10.38,260.98,-81.13,160.61
27366,52.415592,-1.578359,171.15,0.0,3,49.24,25 / 27,2739521,2019-09-08 10:53:26:145,0.8099,-0.6947,10.0819,-0.0002,-0.005,9.8066,0.0106,0.0069,0.0104,-32.37,-27.81,10.75,262.57,-81.13,160.86
27367,52.415592,-1.578359,171.15,0.0,3,49.24,25 / 27,2739621,2019-09-08 10:53:26:245,0.5585,-0.3962,9.9763,0.0053,-0.0009,9.8066,0.0359,0.0287,-0.0048,-31.31,-28.25,10.25,261.51,-81.11,161.18
27368,52.415592,-1.578359,171.15,0.0,3,49.24,25 / 27,2739721,2019-09-08 10:53:26:345,1.878,-0.5306,9.8243,0.0153,-0.001,9.8066,0.0194,0.0236,-0.0029,-31.37,-27.87,10.81,263.3,-80.88,161.47
27369,52.415592,-1.578359,171.15,0.0,3,49.24,26 / 28,2739822,2019-09-08 10:53:26:446,2.306,-0.5057,9.9436,0.0269,-0.0056,9.8066,0.0319,0.048,-0.0166,-31.75,-28.19,11.25,263.19,-80.64,161.91
27370,52.415592,-1.578359,171.15,0.0,3,49.24,26 / 28,2739921,2019-09-08 10:53:26:545,2.6182,-0.4981,9.826,0.0097,-0.0032,9.8066,0.063,0.067,-0.0118,-31.5,-27.56,11.25,263.91,-80.4,162.51
27371,52.415592,-1.578359,171.15,0.0,3,49.24,26 / 28,2740022,2019-09-08 10:53:26:646,3.4252,-0.7384,9.8232,0.0031,-0.002,9.8065,0.0352,0.0917,-0.0205,-31.25,-28.19,11.69,265.88,-80.24,162.96
27372,52.415592,-1.578359,171.15,0.0,3,49.24,26 / 28,2740122,2019-09-08 10:53:26:746,3.405,-0.6753,9.7195,0.0056,0.0002,9.8066,-0.0163,0.1438,-0.0266,-31.69,-27.69,11.31,263.94,-80.18,163.06
27373,52.415592,-1.578359,171.15,0.0,3,49.24,26 / 28,2740221,2019-09-08 10:53:26:845,2.7261,-0.5773,9.677,0.0034,-0.0047,9.8065,0.0032,0.1426,0.0023,-31.31,-27.87,10.81,264.42,-80.07,163.33
27374,52.415592,-1.578359,171.15,0.0,3,49.24,26 / 28,2740322,2019-09-08 10:53:26:946,1.3042,-0.2509,9.9491,-0.0024,-0.0073,9.8066,0.0226,0.1498,-0.0265,-30.19,-28.19,11.38,265.6,-80.07,164.2
27375,52.415592,-1.578359,171.15,0.0,3,49.24,26 / 28,2740421,2019-09-08 10:53:27:045,2.0729,-0.4741,9.7653,0.0086,-0.0056,9.8066,-0.0252,0.1592,-0.0085,-31.12,-28.0,10.44,263.92,-80.06,164.56
27376,52.415592,-1.578359,171.15,0.0,3,49.24,26 / 28,2740522,2019-09-08 10:53:27:146,1.6521,-0.0933,9.8126,0.0026,0.0077,9.8066,0.0597,0.266,-0.0937,-30.19,-28.62,10.5,265.74,-80.01,164.71
27377,52.415592,-1.578359,171.15,0.0,3,49.24,26 / 28,2740622,2019-09-08 10:53:27:246,1.8015,0.362,10.4868,0.0137,-0.0007,9.8066,0.0304,0.2535,-0.0074,-30.31,-28.5,9.31,262.06,-79.82,164.38
27378,52.415592,-1.578359,171.15,0.0,3,49.24,26 / 28,2740722,2019-09-08 10:53:27:346,1.4689,1.3762,9.6349,-0.0101,-0.0029,9.8066,0.0155,0.2933,-0.0017,-30.62,-28.06,8.56,262.07,-79.72,164.71
27379,52.415592,-1.578359,171.15,0.0,3,49.24,26 / 28,2740822,2019-09-08 10:53:27:446,1.629,0.8826,9.4805,-0.0035,-0.0209,9.8066,0.0378,0.3479,-0.0535,-30.31,-28.56,9.06,263.29,-79.78,166.02
27380,52.415592,-1.578359,171.15,0.0,3,49.24,27 / 29,2740921,2019-09-08 10:53:27:545,2.1623,0.3754,10.5575,0.0318,-0.0143,9.8066,-0.0132,0.3367,-0.0107,-29.56,-28.37,8.5,264.93,-79.59,167.55
27381,52.415592,-1.578359,171.15,0.0,3,49.24,27 / 29,2741021,2019-09-08 10:53:27:645,0.7044,0.4656,10.6127,0.0445,-0.025,9.8064,-0.0908,0.3757,0.0401,-29.06,-28.31,8.0,264.21,-79.56,168.52
27382,52.415592,-1.578359,171.15,0.0,3,49.24,27 / 29,2741122,2019-09-08 10:53:27:746,1.2164,-0.5463,10.0898,-0.001,-0.0155,9.8066,0.1343,0.4181,-0.1036,-28.5,-27.75,7.06,263.48,-79.55,169.57
27383,52.415592,-1.578359,171.15,0.0,3,49.24,27 / 29,2741221,2019-09-08 10:53:27:845,2.3519,1.6016,10.1302,0.0001,-0.0023,9.8066,0.1076,0.3402,-0.1163,-28.44,-29.06,7.19,263.61,-79.38,170.25
27384,52.415592,-1.578359,171.15,0.0,3,49.24,27 / 29,2741321,2019-09-08 10:53:27:945,0.6329,1.0572,9.8221,0.0066,-0.0073,9.8066,0.0278,0.3328,-0.0801,-27.31,-28.5,7.19,264.38,-79.23,170.69
27385,52.415592,-1.578359,171.15,0.0,3,49.24,27 / 29,2741421,2019-09-08 10:53:28:045,0.873,1.1177,10.3053,-0.0015,0.0078,9.8066,0.0486,0.4135,-0.1293,-27.12,-28.75,6.88,264.3,-79.08,171.17
27386,52.415592,-1.578359,171.15,0.0,3,49.24,27 / 29,2741521,2019-09-08 10:53:28:145,2.0972,0.8809,9.6289,0.0306,-0.0203,9.8065,-0.0567,0.4269,-0.0276,-26.37,-28.37,5.5,262.48,-78.79,171.23
27387,52.415592,-1.578359,171.15,0.0,3,49.24,27 / 29,2741621,2019-09-08 10:53:28:245,0.798,0.6279,9.4771,0.0107,-0.0091,9.8066,-0.0517,0.3684,-0.0104,-25.62,-28.75,5.63,263.17,-78.79,172.38
27388,52.415592,-1.578359,171.15,0.0,3,49.24,27 / 29,2741721,2019-09-08 10:53:28:345,-0.3443,0.5647,9.1644,-0.0172,-0.021,9.8066,0.0328,0.3667,-0.0056,-25.12,-28.69,5.38,261.65,-78.79,173.07
27389,52.415592,-1.578359,171.15,0.0,3,49.24,27 / 29,2741821,2019-09-08 10:53:28:445,-0.2148,-0.0823,10.052,-0.0255,-0.0161,9.8065,0.0192,0.3737,-0.0849,-25.37,-28.75,5.31,263.64,-79.06,174.83
27390,52.415592,-1.578359,171.15,0.0,3,49.24,27 / 29,2741921,2019-09-08 10:53:28:545,0.116,-0.3261,9.4246,-0.001,0.0004,9.8066,-0.0832,0.3153,-0.0331,-24.5,-28.75,4.25,261.58,-79.09,175.1
27391,52.415592,-1.578359,171.15,0.0,3,49.24,27 / 29,2742022,2019-09-08 10:53:28:646,0.6265,0.622,9.4666,0.014,-0.0168,9.8065,-0.068,0.3509,-0.0523,-23.87,-28.87,4.06,262.15,-78.93,175.89
27392,52.415592,-1.578359,171.15,0.0,3,49.24,27 / 29,2742121,2019-09-08 10:53:28:745,1.2298,0.4398,9.5791,0.0043,-0.0152,9.8066,0.0593,0.3699,-0.0574,-22.69,-28.37,4.5,265.94,-78.69,177.32
27393,52.415592,-1.578359,171.15,0.0,3,49.24,27 / 29,2742222,2019-09-08 10:53:28:846,2.0988,-0.7916,10.8067,-0.0067,-0.0179,9.8066,0.0833,0.2269,0.0789,-23.31,-28.37,5.19,266.55,-78.64,178.02
27394,52.415592,-1.578359,171.15,0.0,3,49.24,27 / 29,2742322,2019-09-08 10:53:28:946,2.0352,0.0117,9.4172,0.0037,-0.0018,9.8066,-0.1084,0.2753,-0.0474,-22.87,-28.81,4.44,264.57,-78.6,179.03
27395,52.415592,-1.578359,171.15,0.0,3,49.24,27 / 29,2742422,2019-09-08 10:53:29:046,3.0337,-0.0932,9.5365,0.0254,0.0018,9.8065,-0.1976,0.2309,-0.0402,-22.06,-29.12,4.75,266.83,-78.41,179.23
27396,52.415592,-1.578359,171.15,0.0,3,49.24,27 / 29,2742522,2019-09-08 10:53:29:146,1.6752,0.0408,9.5304,-0.025,-0.001,9.8066,0.1492,0.1668,-0.0419,-22.12,-29.25,3.88,264.04,-78.26,179.15
27397,52.415592,-1.578359,171.15,0.0,3,49.24,27 / 29,2742622,2019-09-08 10:53:29:246,0.4096,1.1119,10.1586,-0.0524,-0.013,9.8064,0.1995,0.2287,-0.128,-21.44,-29.19,3.94,264.21,-78.45,179.31
27398,52.415592,-1.578359,171.15,0.0,3,49.24,27 / 29,2742721,2019-09-08 10:53:29:345,1.1487,0.2694,11.3091,-0.0837,-0.0122,9.8063,0.2466,0.1274,0.0409,-20.94,-29.19,4.19,264.46,-78.52,179.47
27399,52.415592,-1.578359,171.15,0.0,3,49.24,27 / 29,2742821,2019-09-08 10:53:29:445,1.8869,-0.5887,10.1599,0.1062,-0.0075,9.806,-0.3492,0.0252,-0.0775,-20.75,-29.19,3.75,265.05,-77.92,-179.03
27400,52.415592,-1.578359,171.15,0.0,3,49.24,26 / 27,2742921,2019-09-08 10:53:29:545,-0.2176,-2.3129,10.0344,-0.1132,-0.0251,9.8059,0.3749,-0.0352,-0.2248,-21.12,-28.62,3.88,265.51,-77.88,-178.49
27401,52.415592,-1.578359,171.15,0.0,3,49.24,26 / 27,2743021,2019-09-08 10:53:29:645,-0.3897,-0.4794,8.7075,-0.113,-0.006,9.8059,0.3476,-0.1012,-0.2141,-20.94,-29.81,5.0,268.47,-78.47,-178.49
27402,52.415592,-1.578359,171.15,0.0,3,49.24,26 / 27,2743122,2019-09-08 10:53:29:746,1.9716,-3.327,12.4978,0.0907,0.0198,9.8062,0.1691,-0.1996,-0.0884,-20.81,-29.44,5.13,268.64,-78.38,-178.75
27403,52.415592,-1.578359,171.15,0.0,3,49.24,26 / 27,2743221,2019-09-08 10:53:29:845,4.3704,0.0357,12.6745,0.0383,0.0011,9.8065,0.3948,-0.0654,-0.0041,-20.5,-29.25,4.19,263.92,-77.93,-179.93
27404,52.415592,-1.578359,171.15,0.0,3,49.24,26 / 27,2743322,2019-09-08 10:53:29:946,3.8658,-3.9694,11.4994,0.0222,-0.0195,9.8065,-0.4842,0.184,0.0596,-21.0,-29.12,4.38,264.79,-77.93,-179.32
27405,52.415592,-1.578359,171.15,0.0,3,49.24,26 / 27,2743421,2019-09-08 10:53:30:045,-1.9828,-0.1425,7.1876,0.0651,-0.0043,9.8064,-0.5709,0.1028,0.0313,-21.19,-29.81,4.06,264.7,-77.75,-178.54
27406,52.415592,-1.578359,171.15,0.0,3,49.24,26 / 27,2743521,2019-09-08 10:53:30:145,-1.3717,1.5821,7.4018,-0.0978,0.004,9.8061,0.4569,-0.0754,0.1811,-20.44,-28.81,4.06,264.94,-77.68,-178.48
27407,52.415592,-1.578359,171.15,0.0,3,49.24,26 / 27,2743621,2019-09-08 10:53:30:245,0.5715,0.1783,8.5929,-0.0871,0.0051,9.8062,0.4465,-0.0361,0.0691,-21.12,-28.81,4.5,268.34,-78.24,-178.86
27408,52.415592,-1.578359,171.15,0.0,3,49.24,26 / 27,2743721,2019-09-08 10:53:30:345,2.1698,-1.2698,10.122,0.0846,-0.0175,9.8062,-0.3022,0.0518,-0.0366,-21.5,-29.37,4.88,268.57,-78.36,-178.79
27409,52.415592,-1.578359,171.15,0.0,3,49.24,27 / 29,2743822,2019-09-08 10:53:30:446,1.2916,-0.37,9.8126,0.079,-0.0034,9.8063,-0.2744,-0.07,0.011,-21.12,-29.5,4.38,266.13,-78.04,-178.08
27410,52.415592,-1.578359,171.15,0.0,3,49.24,27 / 29,2743922,2019-09-08 10:53:30:546,0.236,0.533,9.1744,-0.0404,0.0016,9.8065,0.1373,-0.1245,0.1218,-21.62,-29.62,4.25,266.72,-78.14,-177.32
27411,52.415592,-1.578359,171.15,0.0,3,49.24,27 / 29,2744021,2019-09-08 10:53:30:645,2.2652,-0.019,9.0973,-0.0223,-0.0091,9.8066,0.0684,0.0827,-0.0591,-21.44,-29.5,4.69,270.29,-78.28,-176.91
27412,52.415592,-1.578359,171.15,0.0,3,49.24,27 / 29,2744122,2019-09-08 10:53:30:746,0.5735,-0.0864,9.9245,0.0244,-0.0079,9.8065,0.05,-0.0285,0.1217,-21.69,-29.69,4.44,266.67,-78.19,-177.45
27413,52.415592,-1.578359,171.15,0.0,3,49.24,27 / 29,2744221,2019-09-08 10:53:30:845,0.9253,-1.5503,10.9503,0.014,-0.0138,9.8066,0.0532,-0.0038,0.031,-21.94,-29.44,4.94,270.73,-78.04,-176.26
27414,52.415592,-1.578359,171.15,0.0,3,49.24,27 / 29,2744321,2019-09-08 10:53:30:945,0.706,-0.677,8.9402,-0.0247,-0.0063,9.8066,-0.0768,-0.0238,-0.0328,-21.19,-29.62,3.88,267.98,-78.31,-175.98
27415,52.415592,-1.578359,171.15,0.0,3,49.24,27 / 29,2744421,2019-09-08 10:53:31:045,0.7076,-1.0171,9.7671,-0.019,0.0025,9.8066,-0.0077,-0.0977,-0.0267,-22.19,-29.37,4.69,271.33,-78.3,-176.01
27416,52.415592,-1.578359,171.15,0.0,3,49.24,27 / 29,2744522,2019-09-08 10:53:31:146,0.4716,-0.2326,10.3811,0.0345,-0.0037,9.8066,-0.1381,-0.0817,-0.0119,-22.44,-29.37,4.06,269.05,-78.27,-175.65
27417,52.415592,-1.578359,171.15,0.0,3,49.24,27 / 29,2744622,2019-09-08 10:53:31:246,1.005,-1.068,9.8596,0.0234,-0.0091,9.8066,-0.1195,-0.0088,-0.0017,-22.56,-29.12,4.63,272.13,-78.19,-175.17
27418,52.415592,-1.578359,171.15,0.0,3,49.24,27 / 29,2744722,2019-09-08 10:53:31:346,0.1612,-1.3119,9.5188,-0.0278,-0.0107,9.8065,0.0814,-0.137,0.0511,-22.69,-29.94,4.5,272.57,-78.39,-174.48
27419,52.415592,-1.578359,171.15,0.0,3,49.24,27 / 29,2744821,2019-09-08 10:53:31:445,0.4106,-1.3154,10.1132,-0.007,-0.0128,9.8066,-0.0083,-0.0882,0.0071,-22.81,-29.37,4.19,271.99,-78.72,-173.49
27420,52.415592,-1.578359,171.15,0.0,3,49.24,27 / 28,2744922,2019-09-08 10:53:31:546,-0.8533,-1.8265,10.4613,-0.0084,-0.0173,9.8065,-0.0175,-0.1291,0.0608,-23.12,-29.37,4.44,272.65,-78.96,-173.15
27421,52.415592,-1.578359,171.15,0.0,3,49.24,27 / 28,2745021,2019-09-08 10:53:31:645,-0.8597,-1.9999,10.044,0.0117,-0.0049,9.8066,0.0023,-0.0951,0.0301,-23.19,-29.44,4.63,275.9,-78.94,-172.39
27422,52.415592,-1.578359,171.15,0.0,3,49.24,27 / 28,2745121,2019-09-08 10:53:31:745,0.2713,-1.3759,10.0283,0.0398,0.0009,9.8066,-0.0115,-0.128,0.0186,-23.44,-29.12,4.75,275.22,-78.55,-172.56
27423,52.415592,-1.578359,171.15,0.0,3,49.24,27 / 28,2745222,2019-09-08 10:53:31:846,0.4903,-1.257,9.1642,0.0404,-0.0021,9.8065,-0.1149,-0.1303,0.0088,-23.56,-30.12,4.56,274.55,-78.37,-172.59
27424,52.415592,-1.578359,171.15,0.0,3,49.24,27 / 28,2745321,2019-09-08 10:53:31:945,0.3981,-1.0348,9.2973,-0.0323,-0.0066,9.8066,0.0771,-0.1471,0.084,-23.62,-29.06,4.56,275.61,-78.41,-172.07
27425,52.415592,-1.578359,171.15,0.0,3,49.24,27 / 28,2745421,2019-09-08 10:53:32:045,-0.094,-1.5803,9.7391,-0.0408,-0.0235,9.8064,0.0541,-0.0506,0.005,-24.5,-29.19,4.0,274.95,-78.78,-170.79
27426,52.415592,-1.578359,171.15,0.0,3,49.24,27 / 28,2745521,2019-09-08 10:53:32:145,-0.0901,-1.5108,9.9733,0.0255,0.0042,9.8065,-0.0881,-0.0836,0.0597,-24.12,-29.0,4.0,275.49,-78.86,-170.36
27427,52.415592,-1.578359,171.15,0.0,3,49.24,27 / 28,2745621,2019-09-08 10:53:32:245,0.6086,-1.3979,9.8916,0.0263,-0.009,9.8065,0.0221,-0.1525,0.0783,-24.75,-28.5,4.75,278.29,-78.67,-170.28
27428,52.415592,-1.578359,171.15,0.0,3,49.24,27 / 28,2745722,2019-09-08 10:53:32:346,-0.34,-1.9293,9.8273,0.002,-0.0079,9.8066,0.1022,-0.119,0.0327,-25.31,-29.19,5.0,278.43,-78.47,-169.44
27429,52.415592,-1.578359,171.15,0.0,3,49.24,27 / 30,2745821,2019-09-08 10:53:32:445,0.0943,-1.9312,9.8917,0.0064,-0.005,9.8066,0.1324,-0.1341,0.0399,-25.19,-28.69,4.75,278.37,-78.35,-169.35
27430,52.415592,-1.578359,171.15,0.0,3,49.24,27 / 30,2745922,2019-09-08 10:53:32:546,0.5786,-1.0123,9.6379,-0.0343,0.0064,9.8065,0.052,-0.1452,0.06,-25.69,-29.44,5.06,278.61,-78.28,-169.12
27431,52.415592,-1.578359,171.15,0.0,3,49.24,27 / 30,2746021,2019-09-08 10:53:32:645,-0.159,-2.495,10.0705,-0.0414,-0.0082,9.8065,0.0586,-0.1031,-0.0346,-25.44,-29.0,4.88,279.36,-78.63,-168.73
27432,52.415592,-1.578359,171.15,0.0,3,49.24,27 / 30,2746121,2019-09-08 10:53:32:745,-0.8359,-1.1244,9.8589,0.0228,0.0028,9.8066,-0.0655,-0.1321,0.0208,-25.75,-28.81,4.63,279.25,-78.85,-169.16
27433,52.415592,-1.578359,171.15,0.0,3,49.24,27 / 30,2746221,2019-09-08 10:53:32:845,-0.2529,-0.6193,8.94,0.0166,0.0112,9.8066,-0.1001,-0.1091,-0.0427,-25.81,-28.81,4.75,278.71,-78.78,-169.61
27434,52.415592,-1.578359,171.15,0.0,3,49.24,27 / 30,2746322,2019-09-08 10:53:32:946,-0.8838,-2.0344,9.6137,0.0068,-0.0027,9.8066,0.0399,-0.0656,-0.115,-25.75,-28.94,5.25,278.0,-78.71,-170.23
27435,52.415592,-1.578359,171.15,0.0,3,49.24,27 / 30,2746421,2019-09-08 10:53:33:045,1.3161,-0.6739,9.899,0.0162,0.0077,9.8065,-0.0335,-0.0977,-0.0321,-26.0,-28.75,5.25,277.45,-78.66,-170.71
27436,52.415592,-1.578359,171.15,0.0,3,49.24,27 / 30,2746521,2019-09-08 10:53:33:145,0.2579,-1.1108,9.9616,-0.0002,0.001,9.8066,0.0071,-0.0613,-0.0405,-25.87,-28.81,5.13,276.9,-78.66,-171.26
27437,52.415592,-1.578359,171.15,0.0,3,49.24,27 / 30,2746622,2019-09-08 10:53:33:246,-0.8291,-0.3929,9.5706,-0.0159,0.0036,9.8066,0.0931,-0.1193,0.0495,-26.12,-28.94,5.06,276.68,-78.63,-171.44
27438,52.415592,-1.578359,171.15,0.0,3,49.24,27 / 30,2746722,2019-09-08 10:53:33:346,-0.4738,-1.5444,9.2471,0.0247,-0.0034,9.8065,-0.0624,-0.02,0.0035,-25.5,-28.5,4.56,276.88,-78.47,-171.44
27439,52.415592,-1.578359,171.15,0.0,3,49.24,27 / 30,2746823,2019-09-08 10:53:33:447,-0.2111,-1.3486,9.8453,0.02,-0.0043,9.8066,-0.089,-0.1327,0.0783,-25.87,-28.87,5.69,278.46,-78.28,-171.47
27440,52.415897,-1.578285,171.28,7.66,3,15.35,26 / 28,2746922,2019-09-08 10:53:33:546,-0.7885,-0.2563,9.7893,-0.0491,0.0089,9.8065,0.1404,-0.1229,0.0513,-25.69,-28.56,4.81,277.03,-78.51,-170.95
27441,52.415897,-1.578285,171.28,7.66,3,15.35,26 / 28,2747021,2019-09-08 10:53:33:645,-0.5738,-1.0806,9.6285,-0.046,-0.0071,9.8065,0.1312,-0.0595,-0.007,-26.62,-29.37,5.56,279.5,-78.52,-170.72
27442,52.415897,-1.578285,171.28,7.66,3,15.35,26 / 28,2747122,2019-09-08 10:53:33:746,2.5972,-2.9058,11.1449,0.0603,-0.0174,9.8064,-0.0541,-0.0971,-0.0064,-26.81,-29.06,5.31,277.6,-78.46,-170.39
27443,52.415897,-1.578285,171.28,7.66,3,15.35,26 / 28,2747221,2019-09-08 10:53:33:845,1.5563,0.8858,10.1626,0.1057,-0.0061,9.806,-0.2116,-0.0149,-0.1246,-26.62,-28.94,5.63,278.92,-77.82,-170.5
27444,52.415897,-1.578285,171.28,7.66,3,15.35,26 / 28,2747321,2019-09-08 10:53:33:945,-0.7551,-1.1858,8.3704,-0.1121,0.0042,9.8059,0.1562,-0.1053,0.0066,-26.31,-28.56,4.94,276.47,-77.82,-170.68
27445,52.415897,-1.578285,171.28,7.66,3,15.35,26 / 28,2747421,2019-09-08 10:53:34:045,0.3819,-1.0802,10.8997,-0.107,0.0006,9.806,0.1723,-0.0915,0.0053,-26.5,-28.56,5.75,279.54,-78.41,-170.57
27446,52.415897,-1.578285,171.28,7.66,3,15.35,26 / 28,2747521,2019-09-08 10:53:34:145,4.1084,0.1499,10.1495,0.1624,0.019,9.8052,-0.4961,-0.1058,0.055,-26.94,-28.81,5.88,277.13,-77.47,-171.87
27447,52.415897,-1.578285,171.28,7.66,3,15.35,26 / 28,2747621,2019-09-08 10:53:34:245,2.4238,-0.9307,10.7881,0.1506,0.0029,9.8054,-0.4324,0.0291,0.0192,-26.62,-28.75,5.5,276.96,-77.42,-171.98
27448,52.415897,-1.578285,171.28,7.66,3,15.35,26 / 28,2747721,2019-09-08 10:53:34:345,-1.5156,0.4854,7.9904,-0.1833,-0.0097,9.8048,0.4184,0.0219,0.0401,-26.87,-28.87,5.5,276.9,-77.41,-172.02
27449,52.415897,-1.578285,171.28,7.66,3,15.35,26 / 28,2747822,2019-09-08 10:53:34:446,2.7542,-2.1887,11.0756,-0.2561,0.0092,9.8032,0.5138,-0.1559,0.0287,-26.87,-28.44,6.06,279.91,-78.52,-170.74
27450,52.415897,-1.578285,171.28,7.66,3,15.35,27 / 29,2747921,2019-09-08 10:53:34:545,1.6266,0.5873,11.2307,0.1872,-0.0017,9.8048,-0.2678,-0.1562,0.0052,-27.37,-28.94,5.81,279.11,-78.25,-170.79
27451,52.415897,-1.578285,171.28,7.66,3,15.35,27 / 29,2748021,2019-09-08 10:53:34:645,0.3422,-0.3721,9.6237,0.1323,-0.0044,9.8057,-0.29,-0.0565,-0.0249,-26.87,-28.62,5.5,277.89,-77.28,-170.9
27452,52.415897,-1.578285,171.28,7.66,3,15.35,27 / 29,2748121,2019-09-08 10:53:34:745,-1.3133,-2.2615,9.6746,-0.1404,0.0054,9.8055,0.3177,0.0847,-0.0557,-27.37,-28.81,5.88,279.66,-78.09,-170.07
27453,52.415897,-1.578285,171.28,7.66,3,15.35,27 / 29,2748222,2019-09-08 10:53:34:846,0.6527,0.0045,11.4689,-0.1162,-0.0074,9.8059,0.3365,0.0071,0.0443,-27.06,-28.37,5.69,279.51,-78.18,-170.76
27454,52.415897,-1.578285,171.28,7.66,3,15.35,27 / 29,2748322,2019-09-08 10:53:34:946,1.4597,0.1265,11.4488,0.0877,0.0025,9.8062,-0.2653,-0.0434,0.0242,-27.44,-28.31,5.5,279.32,-78.15,-170.92
27455,52.415897,-1.578285,171.28,7.66,3,15.35,27 / 29,2748422,2019-09-08 10:53:35:046,-2.1821,0.0288,9.7167,0.0913,-0.0082,9.8062,-0.2466,0.0259,0.0,-27.0,-28.5,5.5,278.33,-77.4,-171.07
27456,52.415897,-1.578285,171.28,7.66,3,15.35,27 / 29,2748522,2019-09-08 10:53:35:146,-1.3419,-0.6601,9.119,-0.0242,0.0044,9.8065,0.1434,0.0125,-0.0702,-27.94,-28.25,6.13,277.98,-77.14,-171.14
27457,52.415897,-1.578285,171.28,7.66,3,15.35,27 / 29,2748622,2019-09-08 10:53:35:246,0.8148,-0.9652,9.5612,-0.0334,0.0022,9.8066,0.0598,-0.0856,-0.0428,-27.56,-28.37,6.38,278.08,-77.24,-171.16
27458,52.415897,-1.578285,171.28,7.66,3,15.35,27 / 29,2748721,2019-09-08 10:53:35:345,0.2759,-0.4592,10.2523,0.0003,0.0022,9.8066,-0.0954,0.0911,-0.0271,-27.62,-28.94,6.13,277.79,-77.25,-171.0
27459,52.415897,-1.578285,171.28,7.66,3,15.35,27 / 29,2748821,2019-09-08 10:53:35:445,-1.5978,-1.8188,10.2748,-0.0037,0.0106,9.8065,-0.0069,-0.0283,0.151,-27.37,-29.19,5.44,275.57,-77.38,-171.17
27460,52.415897,-1.578285,171.28,7.66,3,15.35,27 / 29,2748922,2019-09-08 10:53:35:546,-0.1514,-0.13,9.7681,0.0141,-0.0061,9.8066,-0.0251,-0.0506,0.054,-27.06,-28.12,5.5,278.66,-77.3,-170.63
27461,52.415897,-1.578285,171.28,7.66,3,15.35,27 / 29,2749021,2019-09-08 10:53:35:645,-0.7112,0.962,9.5399,-0.0017,-0.0067,9.8066,0.0489,0.1877,-0.0505,-27.87,-28.69,5.88,278.3,-77.18,-170.42
27462,52.415897,-1.578285,171.28,7.66,3,15.35,27 / 29,2749121,2019-09-08 10:53:35:745,0.6911,-0.0114,10.8777,0.0293,0.0085,9.8065,-0.1388,0.0456,0.0234,-27.75,-28.5,5.38,276.28,-77.28,-170.92
27463,52.415897,-1.578285,171.28,7.66,3,15.35,27 / 29,2749222,2019-09-08 10:53:35:846,-1.0983,-0.4486,10.4789,0.0575,0.0108,9.8065,-0.2025,-0.0305,0.0661,-27.62,-28.81,5.94,276.95,-77.09,-171.65
27464,52.415897,-1.578285,171.28,7.66,3,15.35,27 / 29,2749322,2019-09-08 10:53:35:946,-3.7166,2.0776,10.9935,-0.0032,0.0316,9.8065,0.4432,-0.0323,0.0429,-27.56,-28.62,5.81,275.58,-76.99,-172.91
27465,52.415897,-1.578285,171.28,7.66,3,15.35,27 / 29,2749421,2019-09-08 10:53:36:045,3.0769,1.6019,10.2965,0.0108,-0.0192,9.8066,0.577,0.0524,-0.171,-27.31,-28.81,6.56,277.41,-76.48,-172.57
27466,52.415897,-1.578285,171.28,7.66,3,15.35,27 / 29,2749521,2019-09-08 10:53:36:145,1.244,-1.089,9.6969,0.0056,0.0105,9.8066,-0.263,0.0117,-0.0482,-27.06,-29.0,6.38,274.19,-75.99,-173.09
27467,52.415897,-1.578285,171.28,7.66,3,15.35,27 / 29,2749622,2019-09-08 10:53:36:246,0.3485,1.6091,9.7696,0.0098,0.0175,9.8066,-0.4393,0.0333,0.0066,-27.0,-28.87,6.25,273.16,-76.06,-174.21
27468,52.415897,-1.578285,171.28,7.66,3,15.35,27 / 29,2749721,2019-09-08 10:53:36:345,-2.9328,-0.935,11.2172,-0.0111,-0.0062,9.8066,0.1332,0.0265,-0.1585,-26.37,-28.25,6.25,275.06,-76.81,-173.62
27469,52.415897,-1.578285,171.28,7.66,3,15.35,27 / 29,2749821,2019-09-08 10:53:36:445,-0.714,-1.4912,10.4619,0.0115,0.0121,9.8066,0.08,-0.079,0.0559,-26.94,-28.56,5.69,274.73,-77.11,-173.85
27470,52.415897,-1.578285,171.28,7.66,3,15.35,26 / 27,2749921,2019-09-08 10:53:36:545,0.5361,0.8883,9.2618,0.0212,-0.0022,9.8066,0.0188,-0.0337,0.0424,-26.19,-28.25,5.94,274.34,-76.68,-174.2
27471,52.415897,-1.578285,171.28,7.66,3,15.35,26 / 27,2750021,2019-09-08 10:53:36:645,-1.1038,0.6175,9.7001,0.0233,-0.0076,9.8065,0.1082,0.1125,-0.0518,-27.31,-28.69,6.81,275.73,-76.22,-173.95
27472,52.415897,-1.578285,171.28,7.66,3,15.35,26 / 27,2750122,2019-09-08 10:53:36:746,0.8748,-0.7284,9.7935,0.0368,-0.008,9.8065,-0.0494,0.1551,-0.0444,-26.31,-28.87,6.38,273.17,-75.97,-173.99
27473,52.415897,-1.578285,171.28,7.66,3,15.35,26 / 27,2750221,2019-09-08 10:53:36:845,-0.2347,-0.5144,9.5111,0.0251,-0.015,9.8066,-0.09,0.0537,0.0131,-27.06,-28.87,6.63,275.65,-75.81,-173.55
27474,52.415897,-1.578285,171.28,7.66,3,15.35,26 / 27,2750321,2019-09-08 10:53:36:945,-2.3901,0.7376,9.7181,-0.0451,-0.011,9.8065,0.0687,0.0434,0.0576,-26.44,-28.25,5.44,272.55,-76.08,-173.08
27475,52.415897,-1.578285,171.28,7.66,3,15.35,26 / 27,2750421,2019-09-08 10:53:37:045,-1.7047,-0.5175,9.6862,-0.025,-0.0086,9.8065,0.0925,0.0373,-0.0092,-26.62,-28.56,6.44,275.49,-76.32,-172.17
27476,52.415897,-1.578285,171.28,7.66,3,15.35,26 / 27,2750521,2019-09-08 10:53:37:145,-0.2134,-0.2907,9.4897,0.0369,-0.0067,9.8065,-0.0149,0.0588,0.0023,-26.81,-28.81,6.69,277.07,-75.95,-172.29
27477,52.415897,-1.578285,171.28,7.66,3,15.35,26 / 27,2750622,2019-09-08 10:53:37:246,-2.3743,-1.1562,11.9585,0.0172,0.0071,9.8066,0.1658,0.0572,0.0102,-26.19,-28.87,6.19,274.62,-75.84,-172.37
27478,52.415897,-1.578285,171.28,7.66,3,15.35,26 / 27,2750722,2019-09-08 10:53:37:346,-1.4619,0.3779,11.8716,0.1429,-0.0061,9.8056,-0.2571,-0.0471,0.135,-26.12,-28.87,6.88,276.27,-75.74,-172.82
27479,52.415897,-1.578285,171.28,7.66,3,15.35,26 / 27,2750821,2019-09-08 10:53:37:445,-0.7159,-0.5004,7.1954,0.142,-0.0075,9.8056,-0.2278,0.0631,-0.0544,-25.75,-28.75,6.75,275.08,-74.44,-172.42
27480,52.415897,-1.578285,171.28,7.66,3,15.35,26 / 29,2750921,2019-09-08 10:53:37:545,-3.0466,1.2886,8.3818,-0.0867,-0.0046,9.8062,0.4188,0.1355,-0.1677,-26.19,-29.12,7.31,273.87,-74.01,-173.11
27481,52.415897,-1.578285,171.28,7.66,3,15.35,26 / 29,2751022,2019-09-08 10:53:37:646,-0.3393,0.5081,8.7894,-0.1278,0.0091,9.8057,0.1516,-0.0094,-0.0045,-26.06,-29.69,7.13,273.77,-74.58,-173.3
27482,52.415897,-1.578285,171.28,7.66,3,15.35,26 / 29,2751121,2019-09-08 10:53:37:745,-2.4754,-0.8498,10.5823,0.0077,0.0137,9.8066,-0.2892,0.0867,0.0308,-25.75,-29.62,6.56,274.02,-74.79,-173.33
27483,52.415897,-1.578285,171.28,7.66,3,15.35,26 / 29,2751221,2019-09-08 10:53:37:845,-2.8605,-0.9648,10.0453,0.0239,0.0311,9.8065,-0.0787,0.0859,-0.0002,-25.75,-29.87,7.0,273.5,-75.12,-174.26
27484,52.415897,-1.578285,171.28,7.66,3,15.35,26 / 29,2751321,2019-09-08 10:53:37:945,-2.2347,0.6911,8.9746,0.0068,-0.0073,9.8065,0.2404,0.1085,0.0279,-25.12,-29.75,6.69,271.85,-74.88,-175.54
27485,52.415897,-1.578285,171.28,7.66,3,15.35,26 / 29,2751421,2019-09-08 10:53:38:045,-0.2331,0.6572,9.5175,0.0339,-0.0096,9.8065,0.1048,0.0036,0.0024,-24.87,-29.44,7.44,272.17,-74.18,-174.94
27486,52.415897,-1.578285,171.28,7.66,3,15.35,26 / 29,2751522,2019-09-08 10:53:38:146,-1.5569,0.1922,9.3895,-0.0302,0.0097,9.8065,0.1167,0.0585,-0.0493,-25.0,-29.62,6.75,271.12,-73.99,-175.12
27487,52.415897,-1.578285,171.28,7.66,3,15.35,26 / 29,2751622,2019-09-08 10:53:38:246,-1.3019,0.6781,10.1481,-0.0624,0.0142,9.8064,0.0885,0.092,-0.097,-24.37,-30.44,6.63,271.05,-74.46,-175.67
27488,52.415897,-1.578285,171.28,7.66,3,15.35,26 / 29,2751728,2019-09-08 10:53:38:352,-3.7275,-0.3929,9.8569,-0.0153,-0.0097,9.8065,-0.1539,0.0539,0.0077,-24.12,-29.94,6.19,268.85,-74.84,-176.05
27489,52.415897,-1.578285,171.28,7.66,3,15.35,26 / 29,2751823,2019-09-08 10:53:38:447,-2.8957,-0.2218,9.4866,-0.0167,-0.0086,9.8065,-0.137,0.0822,0.0043,-24.75,-29.75,6.06,269.55,-74.97,-175.71
27490,52.415897,-1.578285,171.28,7.66,3,15.35,28 / 30,2751921,2019-09-08 10:53:38:545,-1.4202,-0.1158,9.9481,0.0433,-0.0047,9.8065,0.1901,0.008,0.0419,-24.31,-29.56,6.25,269.59,-74.91,-175.37
27491,52.415897,-1.578285,171.28,7.66,3,15.35,28 / 30,2752022,2019-09-08 10:53:38:646,-1.0766,-0.3172,9.6234,0.0294,-0.003,9.8065,0.1179,0.0273,0.0004,-24.81,-29.94,7.38,271.73,-74.42,-175.06
27492,52.415897,-1.578285,171.28,7.66,3,15.35,28 / 30,2752122,2019-09-08 10:53:38:746,-1.3231,-0.3866,9.7312,0.0039,-0.0075,9.8066,0.0276,0.0686,-0.0761,-24.75,-30.56,7.19,271.13,-74.24,-174.78
27493,52.415897,-1.578285,171.28,7.66,3,15.35,28 / 30,2752221,2019-09-08 10:53:38:845,-1.3241,-0.1148,10.0022,0.0059,0.002,9.8066,0.0311,0.0448,0.0159,-24.5,-29.62,6.94,271.5,-74.19,-174.84
27494,52.415897,-1.578285,171.28,7.66,3,15.35,28 / 30,2752321,2019-09-08 10:53:38:945,-1.7584,-0.6469,8.9126,-0.0199,-0.0091,9.8066,0.0362,0.0697,-0.0198,-23.94,-30.12,6.5,271.85,-74.26,-174.58
27495,52.415897,-1.578285,171.28,7.66,3,15.35,28 / 30,2752421,2019-09-08 10:53:39:045,-1.6843,-0.3145,8.9657,-0.0431,0.0052,9.8065,0.0284,0.0048,0.0319,-24.75,-30.25,6.19,269.84,-74.25,-174.45
27496,52.415897,-1.578285,171.28,7.66,3,15.35,28 / 30,2752522,2019-09-08 10:53:39:146,-1.5315,0.4431,10.4365,0.0334,0.0045,9.8066,-0.0909,0.0152,-0.0053,-24.56,-30.56,7.38,272.12,-74.62,-174.29
27497,52.415897,-1.578285,171.28,7.66,3,15.35,28 / 30,2752621,2019-09-08 10:53:39:245,-2.0962,-0.2846,9.7041,0.0424,0.0001,9.8065,-0.0648,0.0539,-0.0322,-24.31,-30.25,6.81,272.33,-74.41,-174.29
27498,52.415897,-1.578285,171.28,7.66,3,15.35,28 / 30,2752721,2019-09-08 10:53:39:345,-1.7581,-0.3047,9.2745,-0.0439,-0.018,9.8065,0.0489,0.0605,0.0389,-24.87,-30.75,7.38,272.79,-74.66,-173.65
27499,52.415897,-1.578285,171.28,7.66,3,15.35,27 / 29,2752821,2019-09-08 10:53:39:445,-1.4474,-0.662,9.7347,-0.0279,-0.0058,9.8065,0.0831,0.0543,0.0038,-24.69,-30.62,7.31,273.22,-74.68,-173.25
27500,52.415897,-1.578285,171.28,7.66,3,15.35,27 / 29,2752922,2019-09-08 10:53:39:546,-1.5652,0.2862,9.5431,0.0213,0.0065,9.8066,-0.0483,0.0572,-0.0216,-24.37,-29.94,7.44,273.58,-74.66,-173.37
27501,52.415897,-1.578285,171.28,7.66,3,15.35,27 / 29,2753022,2019-09-08 10:53:39:646,-1.5591,-0.1766,10.0864,0.0246,0.0016,9.8065,-0.0643,0.0518,-0.0462,-23.75,-30.06,8.38,275.45,-74.46,-173.62
27502,52.415897,-1.578285,171.28,7.66,3,15.35,27 / 29,2753121,2019-09-08 10:53:39:745,-1.994,0.1169,10.0026,-0.0179,-0.0036,9.8066,0.0362,0.0454,0.0128,-23.62,-29.81,8.44,275.44,-74.52,-173.72
27503,52.415897,-1.578285,171.28,7.66,3,15.35,27 / 29,2753222,2019-09-08 10:53:39:846,-1.7361,0.3318,9.48,-0.0163,-0.0039,9.8065,-0.0114,0.065,-0.0123,-23.87,-30.0,7.13,273.68,-74.72,-173.35
27504,52.415897,-1.578285,171.28,7.66,3,15.35,27 / 29,2753322,2019-09-08 10:53:39:946,-1.6688,-0.3202,9.6301,0.0074,-0.0115,9.8066,0.0199,0.065,-0.0017,-23.31,-30.0,6.56,274.47,-74.8,-172.55
27505,52.415897,-1.578285,171.28,7.66,3,15.35,27 / 29,2753421,2019-09-08 10:53:40:045,-1.2792,-0.4205,9.5211,0.0144,-0.0002,9.8066,0.0245,0.0554,0.0035,-23.37,-29.44,6.44,272.7,-74.79,-172.47
27506,52.415897,-1.578285,171.28,7.66,3,15.35,27 / 29,2753521,2019-09-08 10:53:40:145,-1.1123,-0.0967,9.2116,-0.0214,-0.0013,9.8066,0.0191,0.0462,-0.0186,-23.31,-29.56,7.25,274.6,-74.73,-172.32
27507,52.415897,-1.578285,171.28,7.66,3,15.35,27 / 29,2753622,2019-09-08 10:53:40:246,-1.6075,-0.0479,9.7947,-0.0223,-0.0021,9.8066,-0.0076,0.0498,-0.0062,-23.19,-29.75,6.44,272.5,-74.92,-172.18
27508,52.415897,-1.578285,171.28,7.66,3,15.35,27 / 29,2753721,2019-09-08 10:53:40:345,-0.7013,0.6486,9.3034,-0.0098,-0.0132,9.8066,-0.0652,0.0653,0.0297,-22.75,-29.5,6.81,276.14,-75.13,-172.01
27509,52.415897,-1.578285,171.28,7.66,3,15.35,27 / 29,2753822,2019-09-08 10:53:40:446,-1.7367,-0.1859,9.928,-0.0039,-0.017,9.8066,-0.0472,0.077,0.0143,-23.19,-29.31,5.81,275.18,-75.33,-170.73
27510,52.415897,-1.578285,171.28,7.66,3,15.35,27 / 29,2753922,2019-09-08 10:53:40:546,-1.7472,-0.6766,9.8722,-0.0255,-0.005,9.8065,0.0821,0.0903,-0.0108,-22.44,-28.75,6.25,276.09,-75.62,-170.07
27511,52.415897,-1.578285,171.28,7.66,3,15.35,27 / 29,2754021,2019-09-08 10:53:40:645,-1.3932,-0.2698,9.9157,-0.0156,0.0038,9.8066,0.0949,0.0501,-0.0059,-22.94,-29.31,5.63,276.0,-75.55,-170.22
27512,52.415897,-1.578285,171.28,7.66,3,15.35,27 / 29,2754121,2019-09-08 10:53:40:745,-0.3236,-0.0481,10.2164,0.0266,0.0184,9.8066,-0.0054,0.0533,-0.0291,-23.06,-30.06,6.06,274.74,-75.48,-170.72
27513,52.415897,-1.578285,171.28,7.66,3,15.35,27 / 29,2754221,2019-09-08 10:53:40:845,-0.3808,0.4083,9.5296,0.0141,0.0088,9.8066,0.0144,0.0785,-0.0163,-22.37,-30.06,6.25,273.65,-75.41,-171.5
27514,52.415897,-1.578285,171.28,7.66,3,15.35,27 / 29,2754321,2019-09-08 10:53:40:945,-0.1424,-0.1001,9.4418,-0.0036,0.0031,9.8066,0.0616,0.0836,-0.0268,-21.44,-29.69,5.88,272.74,-75.23,-171.91
27515,52.415897,-1.578285,171.28,7.66,3,15.35,27 / 29,2754422,2019-09-08 10:53:41:046,0.4917,0.6493,9.7376,-0.0025,-0.0015,9.8066,0.1061,0.1126,-0.0163,-22.0,-29.69,5.75,272.78,-75.21,-172.09
27516,52.415897,-1.578285,171.28,7.66,3,15.35,27 / 29,2754522,2019-09-08 10:53:41:146,0.6072,0.6102,10.4407,0.0306,0.0001,9.8066,-0.048,0.0401,0.0172,-21.37,-29.56,6.44,272.02,-74.86,-172.04
27517,52.415897,-1.578285,171.28,7.66,3,15.35,27 / 29,2754622,2019-09-08 10:53:41:246,-0.5774,0.0186,10.0623,0.0222,-0.002,9.8065,-0.1044,0.1118,-0.0131,-22.06,-30.12,6.88,274.95,-74.82,-171.96
27518,52.415897,-1.578285,171.28,7.66,3,15.35,27 / 29,2754722,2019-09-08 10:53:41:346,-0.8549,1.0118,9.8293,-0.0351,0.0009,9.8065,0.0452,0.099,0.0047,-21.75,-30.12,6.81,275.38,-75.0,-171.81
27519,52.415897,-1.578285,171.28,7.66,3,15.35,29 / 30,2754821,2019-09-08 10:53:41:445,-1.7352,0.0737,11.0657,-0.0178,-0.0133,9.8066,0.0662,0.1308,-0.0257,-21.31,-29.62,5.69,273.56,-75.31,-171.21
27520,52.415897,-1.578285,171.28,7.66,3,15.35,29 / 30,2754922,2019-09-08 10:53:41:546,-1.6034,-0.4336,9.7159,0.0176,0.0051,9.8066,-0.0011,0.1248,-0.042,-21.06,-30.44,6.31,273.27,-75.29,-171.47
27521,52.415897,-1.578285,171.28,7.66,3,15.35,29 / 30,2755022,2019-09-08 10:53:41:646,-1.0551,-0.0466,9.383,0.0302,0.0021,9.8065,-0.0322,0.0979,-0.0492,-21.31,-29.81,7.0,275.61,-75.12,-171.63
27522,52.415897,-1.578285,171.28,7.66,3,15.35,29 / 30,2755122,2019-09-08 10:53:41:746,-1.5467,-0.1737,8.8853,-0.0091,0.0121,9.8066,0.0673,0.1149,-0.0968,-20.37,-29.81,7.06,274.93,-75.06,-172.08
27523,52.415897,-1.578285,171.28,7.66,3,15.35,29 / 30,2755221,2019-09-08 10:53:41:845,-1.3281,0.0302,9.7631,-0.0104,0.013,9.8066,0.052,0.1086,-0.0544,-20.44,-30.56,7.0,273.36,-75.15,-173.04
27524,52.415897,-1.578285,171.28,7.66,3,15.35,29 / 30,2755321,2019-09-08 10:53:41:945,-1.0722,0.5127,9.8438,-0.0058,0.0086,9.8066,-0.0461,0.0935,-0.0342,-20.06,-30.31,6.75,274.0,-75.21,-173.27
27525,52.415897,-1.578285,171.28,7.66,3,15.35,29 / 30,2755421,2019-09-08 10:53:42:045,-1.5466,-0.143,9.9218,-0.0032,-0.0058,9.8066,-0.0057,0.0991,0.0024,-19.5,-30.25,5.81,270.94,-75.32,-173.33
27526,52.415897,-1.578285,171.28,7.66,3,15.35,29 / 30,2755521,2019-09-08 10:53:42:145,-1.167,-0.2665,9.9716,0.0116,-0.0005,9.8066,0.0027,0.1452,-0.0377,-20.0,-30.56,5.31,267.79,-75.27,-173.05
27527,52.415897,-1.578285,171.28,7.66,3,15.35,29 / 30,2755621,2019-09-08 10:53:42:245,-1.2714,0.2279,9.9755,0.0049,-0.0127,9.8065,0.009,0.1254,0.0383,-19.75,-30.0,6.25,271.71,-75.25,-172.73
27528,52.415897,-1.578285,171.28,7.66,3,15.35,29 / 30,2755721,2019-09-08 10:53:42:345,-1.0374,-0.8897,9.9798,-0.0107,-0.0072,9.8066,-0.0378,0.1295,-0.0111,-19.56,-30.12,6.06,272.49,-75.25,-171.91
27529,52.415897,-1.578285,171.28,7.66,3,15.35,29 / 30,2755821,2019-09-08 10:53:42:445,-1.2487,-0.5895,9.7052,-0.016,-0.0021,9.8066,-0.0449,0.1245,-0.0043,-18.94,-29.81,6.63,276.1,-75.53,-171.59
27530,52.4164,-1.578069,171.83,2.4,3,353.75,29 / 30,2755922,2019-09-08 10:53:42:546,-1.3222,-0.415,9.5878,-0.0428,0.0018,9.8065,-0.0172,0.098,-0.0682,-19.0,-30.62,6.88,275.82,-75.78,-171.52
27531,52.4164,-1.578069,171.83,2.4,3,353.75,29 / 30,2756022,2019-09-08 10:53:42:646,-1.0136,-0.0625,9.5145,-0.004,0.0141,9.8065,-0.0038,0.0863,-0.0456,-18.56,-30.69,6.19,272.17,-75.99,-172.46
27532,52.4164,-1.578069,171.83,2.4,3,353.75,29 / 30,2756122,2019-09-08 10:53:42:746,-1.3704,0.1134,9.7526,0.0015,0.0097,9.8065,-0.0058,0.1155,-0.0466,-18.37,-30.87,5.94,271.42,-76.01,-172.95
27533,52.4164,-1.578069,171.83,2.4,3,353.75,29 / 30,2756222,2019-09-08 10:53:42:846,-1.0436,0.3941,9.6023,-0.0045,0.0028,9.8066,0.0102,0.0819,0.0036,-18.62,-30.44,5.81,272.22,-76.04,-173.28
27534,52.4164,-1.578069,171.83,2.4,3,353.75,29 / 30,2756321,2019-09-08 10:53:42:945,-1.1897,-0.3697,9.9964,-0.0121,-0.0089,9.8066,0.0008,0.0808,-0.0109,-18.75,-30.56,6.31,271.93,-76.15,-173.0
27535,52.4164,-1.578069,171.83,2.4,3,353.75,29 / 30,2756422,2019-09-08 10:53:43:046,-1.0536,-0.2569,9.7078,-0.0153,-0.0037,9.8066,-0.0088,0.0874,-0.0054,-18.37,-30.62,6.0,272.13,-76.28,-172.76
27536,52.4164,-1.578069,171.83,2.4,3,353.75,29 / 30,2756521,2019-09-08 10:53:43:145,-1.0166,-0.53,9.7696,-0.0123,-0.0036,9.8065,-0.0129,0.0955,-0.0166,-18.56,-30.0,6.38,273.9,-76.5,-172.39
27537,52.4164,-1.578069,171.83,2.4,3,353.75,29 / 30,2756622,2019-09-08 10:53:43:246,-0.7263,-0.3901,9.6744,-0.0059,0.0032,9.8066,-0.0085,0.0844,-0.0127,-17.75,-29.87,5.94,273.97,-76.65,-172.37
27538,52.4164,-1.578069,171.83,2.4,3,353.75,29 / 30,2756722,2019-09-08 10:53:43:346,-1.0165,-0.3264,9.8168,-0.0067,0.0033,9.8066,0.0013,0.0834,-0.0219,-17.62,-30.25,6.31,274.03,-76.74,-172.48
27539,52.4164,-1.578069,171.83,2.4,3,353.75,29 / 30,2756822,2019-09-08 10:53:43:446,-1.0741,-0.3016,9.7381,-0.0147,0.0033,9.8066,0.0027,0.0685,-0.001,-16.69,-30.06,6.0,273.78,-76.84,-172.72
27540,52.4164,-1.578069,171.83,2.4,3,353.75,28 / 29,2756921,2019-09-08 10:53:43:545,-0.4491,-0.4173,9.6541,-0.0192,0.0008,9.8066,0.0177,0.0572,-0.0026,-17.06,-30.25,6.38,274.12,-77.05,-172.79
27541,52.4164,-1.578069,171.83,2.4,3,353.75,28 / 29,2757022,2019-09-08 10:53:43:646,-1.0458,-0.4038,9.7367,-0.0063,-0.0016,9.8066,-0.0154,0.0678,-0.0194,-17.12,-30.44,6.56,277.84,-77.17,-172.75
27542,52.4164,-1.578069,171.83,2.4,3,353.75,28 / 29,2757122,2019-09-08 10:53:43:746,-1.0276,-0.2417,9.8386,-0.008,0.0,9.8066,0.0334,0.0638,-0.0024,-16.81,-30.19,6.56,278.26,-77.31,-172.6
27543,52.4164,-1.578069,171.83,2.4,3,353.75,28 / 29,2757222,2019-09-08 10:53:43:846,-0.5497,-0.1663,10.0501,0.0024,0.0011,9.8066,0.0304,0.0599,0.0146,-16.5,-30.5,6.56,278.41,-77.33,-172.57
27544,52.4164,-1.578069,171.83,2.4,3,353.75,28 / 29,2757322,2019-09-08 10:53:43:946,0.9132,-0.1579,10.206,0.0011,0.0006,9.8066,0.0497,0.0552,0.0022,-16.87,-30.81,6.0,274.06,-77.34,-172.62
27545,52.4164,-1.578069,171.83,2.4,3,353.75,28 / 29,2757421,2019-09-08 10:53:44:045,1.1378,-0.1175,9.9596,0.0107,0.0016,9.8066,-0.001,0.0835,-0.0229,-16.56,-30.5,6.56,278.11,-77.29,-172.72
27546,52.4164,-1.578069,171.83,2.4,3,353.75,28 / 29,2757521,2019-09-08 10:53:44:145,1.7117,-0.1138,9.9909,0.0023,0.001,9.8066,-0.0058,0.0905,-0.0146,-16.62,-30.62,6.19,273.44,-77.2,-172.95
27547,52.4164,-1.578069,171.83,2.4,3,353.75,28 / 29,2757621,2019-09-08 10:53:44:245,2.2053,-0.0773,9.9587,-0.0001,0.0042,9.8065,0.0066,0.1165,-0.0446,-16.44,-30.81,6.19,273.09,-77.22,-173.14
27548,52.4164,-1.578069,171.83,2.4,3,353.75,28 / 29,2757722,2019-09-08 10:53:44:346,2.4017,0.2643,9.9956,-0.0017,0.005,9.8065,-0.0227,0.1188,-0.0313,-16.62,-29.94,6.63,277.31,-77.32,-173.54
27549,52.4164,-1.578069,171.83,2.4,3,353.75,28 / 29,2757822,2019-09-08 10:53:44:446,1.4523,0.4406,9.9636,-0.0192,0.0015,9.8066,0.0045,0.1549,-0.0172,-16.0,-30.0,6.63,277.79,-77.56,-173.62
27550,52.4164,-1.578069,171.83,2.4,3,353.75,29 / 30,2757921,2019-09-08 10:53:44:545,1.9194,0.6504,10.0394,-0.0131,-0.0081,9.8066,-0.022,0.1762,0.0021,-16.69,-30.56,6.81,277.47,-77.68,-173.33
27551,52.4164,-1.578069,171.83,2.4,3,353.75,29 / 30,2758022,2019-09-08 10:53:44:646,2.0999,0.0622,9.7413,-0.0241,-0.002,9.8065,-0.0227,0.2187,-0.0537,-16.37,-30.19,6.38,275.55,-77.83,-172.76
27552,52.4164,-1.578069,171.83,2.4,3,353.75,29 / 30,2758121,2019-09-08 10:53:44:745,1.5416,1.028,10.2729,-0.0325,-0.0021,9.8065,0.0495,0.2199,-0.0521,-15.75,-30.5,7.19,280.04,-78.14,-172.58
27553,52.4164,-1.578069,171.83,2.4,3,353.75,29 / 30,2758221,2019-09-08 10:53:44:845,2.1078,-0.5284,10.9668,0.0164,-0.0012,9.8065,-0.0887,0.2643,-0.1596,-15.69,-30.31,7.69,284.4,-78.25,-172.14
27554,52.4164,-1.578069,171.83,2.4,3,353.75,29 / 30,2758322,2019-09-08 10:53:44:946,1.4579,1.0726,10.2403,0.0017,0.0375,9.8065,-0.0946,0.2665,-0.103,-15.12,-30.44,6.75,279.52,-78.48,-173.97
27555,52.4164,-1.578069,171.83,2.4,3,353.75,29 / 30,2758421,2019-09-08 10:53:45:045,0.3174,1.3763,9.6007,-0.0416,0.0244,9.8065,-0.0362,0.3308,-0.1054,-14.12,-30.37,6.81,279.4,-79.1,-175.64
27556,52.4164,-1.578069,171.83,2.4,3,353.75,29 / 30,2758521,2019-09-08 10:53:45:145,0.1348,2.3502,9.8759,-0.0363,0.0182,9.8065,-0.0332,0.3752,-0.0966,-13.19,-30.25,6.25,275.05,-79.44,-176.75
27557,52.4164,-1.578069,171.83,2.4,3,353.75,29 / 30,2758621,2019-09-08 10:53:45:245,0.3208,1.5555,9.6964,-0.0115,-0.0048,9.8066,0.0103,0.3906,-0.0286,-12.87,-29.87,6.38,275.47,-79.65,-176.82
27558,52.4164,-1.578069,171.83,2.4,3,353.75,29 / 30,2758722,2019-09-08 10:53:45:346,0.5837,1.0087,9.7004,-0.0085,-0.0158,9.8065,0.0211,0.414,-0.0176,-12.12,-29.5,6.63,282.87,-79.73,-175.57
27559,52.4164,-1.578069,171.83,2.4,3,353.75,29 / 30,2758822,2019-09-08 10:53:45:446,-0.2248,0.9712,9.0669,-0.0178,-0.0139,9.8066,-0.045,0.4438,-0.0319,-11.62,-30.19,6.81,283.39,-79.77,-174.4
27560,52.4164,-1.578069,171.83,2.4,3,353.75,28 / 29,2758921,2019-09-08 10:53:45:545,0.7611,0.8394,10.0057,-0.0255,-0.0071,9.8065,-0.0004,0.4593,-0.0683,-11.56,-30.12,6.25,280.71,-80.0,-172.91
27561,52.4164,-1.578069,171.83,2.4,3,353.75,28 / 29,2759021,2019-09-08 10:53:45:645,0.1812,0.988,10.3725,0.0055,0.0046,9.8066,0.038,0.4464,-0.0839,-10.37,-29.94,7.13,286.94,-79.99,-173.33
27562,52.4164,-1.578069,171.83,2.4,3,353.75,28 / 29,2759122,2019-09-08 10:53:45:746,0.2182,1.3937,10.1394,0.0139,0.0072,9.8066,-0.0156,0.4843,-0.1352,-10.25,-29.87,8.0,291.84,-79.94,-173.87
27563,52.4164,-1.578069,171.83,2.4,3,353.75,28 / 29,2759221,2019-09-08 10:53:45:845,0.6631,0.9612,9.6372,-0.0014,0.0228,9.8066,0.0808,0.5001,-0.1616,-8.75,-29.75,7.81,292.4,-79.95,-174.87
27564,52.4164,-1.578069,171.83,2.4,3,353.75,28 / 29,2759322,2019-09-08 10:53:45:946,2.1699,1.5629,9.3311,0.011,0.0117,9.8066,-0.0034,0.4639,-0.0853,-8.0,-29.5,8.44,293.01,-79.93,-176.97
27565,52.4164,-1.578069,171.83,2.4,3,353.75,28 / 29,2759422,2019-09-08 10:53:46:046,0.6365,0.8457,10.1979,-0.0113,-0.0095,9.8066,0.0072,0.4616,-0.0751,-7.75,-29.75,9.44,298.86,-79.95,-176.48
27566,52.4164,-1.578069,171.83,2.4,3,353.75,28 / 29,2759521,2019-09-08 10:53:46:145,1.0382,0.234,10.4674,-0.0005,-0.0041,9.8066,-0.0157,0.4755,-0.0655,-7.5,-29.56,9.56,309.46,-80.05,-175.8
27567,52.4164,-1.578069,171.83,2.4,3,353.75,28 / 29,2759622,2019-09-08 10:53:46:246,1.5876,-0.0955,9.9561,-0.0011,0.0148,9.8066,0.0171,0.478,-0.0831,-6.69,-29.62,10.0,309.37,-80.11,-175.99
27568,52.4164,-1.578069,171.83,2.4,3,353.75,28 / 29,2759721,2019-09-08 10:53:46:345,1.49,0.5228,9.6644,0.0077,0.0084,9.8066,0.0649,0.4582,-0.1155,-6.12,-28.94,10.75,318.54,-80.09,-177.03
27569,52.4164,-1.578069,171.83,2.4,3,353.75,28 / 29,2759823,2019-09-08 10:53:46:447,2.3702,0.2637,10.1327,0.0206,-0.0219,9.8065,0.0938,0.4116,-0.0695,-5.44,-28.69,11.81,326.62,-79.97,-177.96
27570,52.4164,-1.578069,171.83,2.4,3,353.75,28 / 29,2759921,2019-09-08 10:53:46:545,1.942,-0.2591,9.8825,0.0072,-0.0356,9.8065,-0.0043,0.4441,-0.0336,-5.56,-29.06,13.06,324.85,-79.61,-177.73
27571,52.4164,-1.578069,171.83,2.4,3,353.75,28 / 29,2760022,2019-09-08 10:53:46:646,0.8034,-0.1319,10.0721,-0.0138,-0.0212,9.8065,0.0236,0.4051,-0.0258,-5.62,-29.0,13.75,331.01,-79.36,-175.52
27572,52.4164,-1.578069,171.83,2.4,3,353.75,28 / 29,2760121,2019-09-08 10:53:46:745,0.4819,-1.482,10.0775,-0.0133,-0.0111,9.8066,0.0406,0.3701,-0.0541,-4.81,-29.06,14.75,339.96,-79.23,-174.52
27573,52.4164,-1.578069,171.83,2.4,3,353.75,28 / 29,2760222,2019-09-08 10:53:46:846,0.3096,-1.6452,10.1167,-0.0006,-0.0117,9.8066,0.0413,0.3359,-0.0218,-4.81,-28.5,15.25,340.8,-79.15,-174.14
27574,52.4164,-1.578069,171.83,2.4,3,353.75,28 / 29,2760322,2019-09-08 10:53:46:946,0.0982,-1.354,10.2528,0.0201,-0.0084,9.8066,0.0852,0.312,-0.1046,-4.37,-28.87,15.31,344.68,-78.99,-174.7
27575,52.4164,-1.578069,171.83,2.4,3,353.75,28 / 29,2760422,2019-09-08 10:53:47:046,0.8178,-0.4878,9.8372,0.0037,-0.0136,9.8066,0.0831,0.2217,-0.0964,-4.31,-28.94,16.19,345.44,-78.95,-175.4
27576,52.4164,-1.578069,171.83,2.4,3,353.75,28 / 29,2760521,2019-09-08 10:53:47:145,0.8638,-1.7531,9.5336,0.0015,-0.0218,9.8066,-0.0067,0.2286,-0.026,-3.94,-28.87,16.56,347.12,-78.82,-175.28
27577,52.4164,-1.578069,171.83,2.4,3,353.75,28 / 29,2760621,2019-09-08 10:53:47:245,0.5584,-1.38,10.2059,-0.0039,-0.0116,9.8065,0.0697,0.1726,0.025,-4.0,-29.0,17.69,349.63,-78.76,-174.48
27578,52.4164,-1.578069,171.83,2.4,3,353.75,28 / 29,2760721,2019-09-08 10:53:47:345,0.4437,-1.1237,9.738,0.0037,-0.0162,9.8066,0.0068,0.1825,-0.0619,-3.94,-29.19,16.94,348.52,-78.68,-174.3
27579,52.4164,-1.578069,171.83,2.4,3,353.75,28 / 29,2760822,2019-09-08 10:53:47:446,-0.2212,-1.7473,9.8917,-0.003,-0.0066,9.8066,0.0016,0.0617,0.0117,-3.75,-28.87,17.38,348.74,-78.66,-174.15
27580,52.4164,-1.578069,171.83,2.4,3,353.75,28 / 29,2760922,2019-09-08 10:53:47:546,-0.7522,-1.4605,10.0014,0.0102,0.0001,9.8065,0.0452,0.0656,-0.0788,-3.44,-28.56,17.63,354.27,-78.69,-174.38
27581,52.4164,-1.578069,171.83,2.4,3,353.75,28 / 29,2761021,2019-09-08 10:53:47:645,-1.0955,0.1619,10.0902,-0.0004,-0.0014,9.8066,0.1153,0.0968,-0.0314,-3.19,-29.06,18.13,353.71,-78.69,-174.75
27582,52.4164,-1.578069,171.83,2.4,3,353.75,28 / 29,2761122,2019-09-08 10:53:47:746,-0.9913,-1.6564,9.6778,0.0136,-0.0128,9.8066,-0.208,0.0739,-0.0305,-3.56,-28.44,18.06,348.84,-78.67,-175.11
27583,52.4164,-1.578069,171.83,2.4,3,353.75,28 / 29,2761222,2019-09-08 10:53:47:846,-0.8971,-0.5704,9.64,-0.0134,0.0651,9.8064,-0.1631,-0.0172,0.0355,-3.5,-28.25,17.94,353.88,-78.99,-174.75
27584,52.4164,-1.578069,171.83,2.4,3,353.75,28 / 29,2761321,2019-09-08 10:53:47:945,-0.6386,-0.3997,9.8441,-0.0295,0.0686,9.8063,0.1118,-0.0979,0.0509,-3.94,-28.62,17.56,349.61,-79.05,-174.59
27585,52.4164,-1.578069,171.83,2.4,3,353.75,28 / 29,2761421,2019-09-08 10:53:48:045,1.0074,-1.0149,9.6139,0.0076,-0.0547,9.8064,0.0533,0.0468,-0.091,-3.5,-27.87,17.75,353.52,-79.06,-175.01
27586,52.4164,-1.578069,171.83,2.4,3,353.75,28 / 29,2761522,2019-09-08 10:53:48:146,-0.2829,0.9886,10.1942,0.0076,-0.042,9.8065,0.0717,-0.0188,-0.0255,-3.44,-28.75,17.38,352.93,-78.88,-174.64
27587,52.4164,-1.578069,171.83,2.4,3,353.75,28 / 29,2761622,2019-09-08 10:53:48:246,-1.9034,0.3706,9.4893,-0.0191,0.0225,9.8066,0.0027,0.0148,-0.0419,-3.25,-28.5,17.38,353.06,-78.95,-174.65
27588,52.4164,-1.578069,171.83,2.4,3,353.75,28 / 29,2761722,2019-09-08 10:53:48:346,-1.2035,-1.5426,9.954,-0.0141,0.018,9.8065,0.0021,-0.0264,-0.0021,-4.06,-28.5,17.5,351.24,-79.02,-173.54
27589,52.4164,-1.578069,171.83,2.4,3,353.75,28 / 29,2761821,2019-09-08 10:53:48:445,0.6031,-1.4054,9.8411,0.0016,-0.0172,9.8066,-0.0389,0.0097,0.0114,-4.19,-29.12,17.81,351.59,-78.95,-173.2
27590,52.4164,-1.578069,171.83,2.4,3,353.75,27 / 29,2761921,2019-09-08 10:53:48:545,-0.356,-0.186,9.1669,-0.0021,-0.0164,9.8066,0.0379,-0.0396,0.0184,-3.75,-29.25,17.75,352.41,-78.94,-172.64
27591,52.4164,-1.578069,171.83,2.4,3,353.75,27 / 29,2762021,2019-09-08 10:53:48:645,0.4445,-0.406,9.5617,-0.0021,-0.0067,9.8066,0.1196,0.0051,-0.0749,-3.69,-28.81,18.31,352.15,-78.85,-172.8
27592,52.4164,-1.578069,171.83,2.4,3,353.75,27 / 29,2762121,2019-09-08 10:53:48:745,-0.3243,-0.564,9.5643,-0.0042,-0.0172,9.8066,-0.1627,0.001,0.0023,-4.25,-29.19,17.69,353.19,-78.85,-172.09
27593,52.4164,-1.578069,171.83,2.4,3,353.75,27 / 29,2762221,2019-09-08 10:53:48:845,-0.552,-1.341,9.2743,-0.0035,0.032,9.8066,-0.0593,-0.0779,0.0215,-3.81,-28.62,17.75,353.69,-79.13,-171.8
27594,52.4164,-1.578069,171.83,2.4,3,353.75,27 / 29,2762322,2019-09-08 10:53:48:946,0.4118,-1.4421,9.6156,-0.0078,0.0373,9.8065,-0.014,0.0027,-0.0384,-4.25,-28.56,17.38,352.11,-79.25,-172.08
27595,52.4164,-1.578069,171.83,2.4,3,353.75,27 / 29,2762422,2019-09-08 10:53:49:046,0.163,-0.8027,9.9041,0.0052,-0.0064,9.8066,-0.0573,0.0052,0.0158,-4.0,-28.44,16.81,352.67,-79.29,-171.78
27596,52.4164,-1.578069,171.83,2.4,3,353.75,27 / 29,2762522,2019-09-08 10:53:49:146,0.3698,-0.153,9.3016,-0.0051,0.002,9.8066,0.0357,-0.0387,0.0513,-3.75,-28.81,17.0,352.74,-79.32,-171.67
27597,52.4164,-1.578069,171.83,2.4,3,353.75,27 / 29,2762621,2019-09-08 10:53:49:245,-0.5258,-2.1754,9.9192,0.0026,-0.0095,9.8066,-0.006,-0.0179,0.0115,-3.81,-28.75,16.88,352.45,-79.28,-171.85
27598,52.4164,-1.578069,171.83,2.4,3,353.75,27 / 29,2762721,2019-09-08 10:53:49:345,0.1449,0.2561,9.6493,-0.0007,-0.0106,9.8066,0.0433,-0.0594,0.0256,-4.06,-28.81,17.25,352.33,-79.17,-171.91
27599,52.4164,-1.578069,171.83,2.4,3,353.75,27 / 29,2762822,2019-09-08 10:53:49:446,0.5869,0.2891,9.9723,-0.0113,-0.0063,9.8066,0.0245,0.0378,-0.0282,-3.44,-28.87,16.75,357.68,-79.2,-171.54
27600,52.4164,-1.578069,171.83,2.4,3,353.75,29 / 30,2762922,2019-09-08 10:53:49:546,-0.9359,-0.6248,10.1513,-0.0005,-0.011,9.8066,-0.0197,-0.0487,0.0024,-3.81,-28.75,16.94,354.31,-79.09,-170.56
27601,52.4164,-1.578069,171.83,2.4,3,353.75,29 / 30,2763021,2019-09-08 10:53:49:645,-0.5237,0.0707,10.023,-0.0057,0.0121,9.8066,-0.0903,-0.0386,0.0051,-3.62,-29.31,16.06,352.56,-79.23,-170.84
27602,52.4164,-1.578069,171.83,2.4,3,353.75,29 / 30,2763122,2019-09-08 10:53:49:746,-0.7003,1.0442,10.1699,-0.0151,0.0133,9.8066,0.052,-0.0673,0.0808,-4.19,-29.0,16.56,355.07,-79.38,-170.1
27603,52.4164,-1.578069,171.83,2.4,3,353.75,29 / 30,2763222,2019-09-08 10:53:49:846,-0.4139,-1.2971,9.8975,-0.0024,-0.0236,9.8065,0.1329,-0.0121,-0.0004,-3.87,-29.69,16.5,355.53,-79.17,-169.71
27604,52.4164,-1.578069,171.83,2.4,3,353.75,29 / 30,2763322,2019-09-08 10:53:49:946,-1.4255,0.204,9.8282,0.0077,-0.0157,9.8066,-0.1127,-0.0563,-0.0149,-3.81,-29.44,16.75,355.85,-79.14,-169.54
27605,52.4164,-1.578069,171.83,2.4,3,353.75,29 / 30,2763422,2019-09-08 10:53:50:046,-0.9057,-1.2691,9.5755,-0.0073,0.0269,9.8065,-0.1391,-0.1416,0.0099,-3.69,-30.5,16.44,353.54,-79.15,-170.1
27606,52.4164,-1.578069,171.83,2.4,3,353.75,29 / 30,2763522,2019-09-08 10:53:50:146,-0.8547,-1.498,9.9436,-0.0198,0.0432,9.8065,0.0777,-0.1317,0.0446,-3.25,-29.81,16.31,359.16,-79.36,-169.92
27607,52.4164,-1.578069,171.83,2.4,3,353.75,29 / 30,2763621,2019-09-08 10:53:50:245,-0.5247,-1.0024,10.1116,0.0276,-0.0505,9.8064,0.0633,-0.0299,-0.0754,-3.75,-29.5,17.0,354.81,-79.32,-170.27
27608,52.4164,-1.578069,171.83,2.4,3,353.75,29 / 30,2763722,2019-09-08 10:53:50:346,-0.4477,-1.2201,9.3197,0.0186,-0.0386,9.8065,-0.0309,-0.0398,-0.0819,-4.0,-30.06,16.31,351.45,-79.04,-171.41
27609,52.4164,-1.578069,171.83,2.4,3,353.75,29 / 30,2763821,2019-09-08 10:53:50:445,-0.9436,-0.3922,10.2751,0.0082,0.0093,9.8066,0.0009,-0.0872,-0.0692,-3.25,-30.25,16.69,356.58,-79.28,-172.25
27610,52.4164,-1.578069,171.83,2.4,3,353.75,25 / 28,2763921,2019-09-08 10:53:50:545,-0.1709,-0.9405,9.4098,0.0092,-0.0053,9.8066,-0.0574,-0.0933,-0.0048,-3.87,-29.81,16.81,350.85,-79.26,-172.83
27611,52.4164,-1.578069,171.83,2.4,3,353.75,25 / 28,2764021,2019-09-08 10:53:50:645,-0.7494,-1.4001,9.6255,0.0076,0.009,9.8066,-0.0236,-0.0487,-0.0219,-3.81,-28.37,16.19,348.82,-79.23,-173.42
27612,52.4164,-1.578069,171.83,2.4,3,353.75,25 / 28,2764122,2019-09-08 10:53:50:746,-0.8666,-0.2895,9.5712,-0.0038,0.0084,9.8066,-0.0597,0.0112,-0.0051,-4.0,-28.87,16.0,348.27,-79.34,-173.7
27613,52.4164,-1.578069,171.83,2.4,3,353.75,25 / 28,2764221,2019-09-08 10:53:50:845,-0.825,-0.94,9.6176,-0.0062,0.0193,9.8066,-0.0702,-0.0729,0.0362,-4.25,-29.12,15.63,348.87,-79.43,-173.34
27614,52.4164,-1.578069,171.83,2.4,3,353.75,25 / 28,2764322,2019-09-08 10:53:50:946,-0.0101,-0.03,9.6742,-0.0052,0.0203,9.8066,0.0082,-0.0822,0.0145,-3.5,-28.75,15.0,352.67,-79.67,-173.42
27615,52.4164,-1.578069,171.83,2.4,3,353.75,25 / 28,2764421,2019-09-08 10:53:51:045,-0.2761,-0.6629,9.6244,0.0033,-0.0055,9.8066,0.0476,-0.0002,-0.0104,-3.62,-29.62,15.88,348.84,-79.58,-173.29
27616,52.4164,-1.578069,171.83,2.4,3,353.75,25 / 28,2764521,2019-09-08 10:53:51:145,-0.1067,-0.5499,9.6793,0.0044,-0.0097,9.8065,0.0036,-0.0577,0.0275,-3.81,-29.69,15.69,348.63,-79.55,-173.42
27617,52.4164,-1.578069,171.83,2.4,3,353.75,25 / 28,2764621,2019-09-08 10:53:51:245,-1.2545,-0.4252,10.4587,-0.0038,-0.004,9.8066,-0.0298,-0.0234,0.0306,-4.37,-28.87,15.63,348.45,-79.43,-173.62
27618,52.4164,-1.578069,171.83,2.4,3,353.75,25 / 28,2764721,2019-09-08 10:53:51:345,-0.9968,0.1736,9.8801,0.0101,-0.0111,9.8066,0.1245,-0.0689,0.0918,-3.94,-28.25,15.75,346.87,-79.37,-173.64
27619,52.4164,-1.578069,171.83,2.4,3,353.75,25 / 28,2764821,2019-09-08 10:53:51:445,-0.3729,-0.9171,10.3233,0.0038,-0.0084,9.8066,0.1555,-0.0188,-0.0123,-4.0,-29.0,16.19,347.61,-79.25,-174.11
