,GPS LATITUDE (degrees), GPS LONGITUDE (degrees), GPS ALTITUDE (m), GPS SPEED (Kmh), GPS ACCURACY (m), GPS ORIENTATION (Â°),GPS SATELLITES IN RANGE, TIME SINCE START (ms), DATE (YYYY-MO-DD HH-MI-SS_SSS), ACCELEROMETER X (m/s²) , ACCELEROMETER Y (m/s²), ACCELEROMETER Z (m/s²), GRAVITY X (m/s²), GRAVITY Y (m/s²), GRAVITY Z (m/s²), GYROSCOPE Yaw (rad/s), GYROSCOPE Pitch (rad/s), GYROSCOPE Roll (rad/s), MAGNETIC FIELD X (Î¼T), MAGNETIC FIELD Y (Î¼T), MAGNETIC FIELD Z (Î¼T), ORIENTATION (Yaw) (Â°), ORIENTATION (Pitch) (Â°), ORIENTATION (Roll ) (Â°)
0,52.596283,-1.608857,147.72,0,6,114.12,22 / 22,12,2020-01-08 17:29:49:943,-0.0265,-0.1984,9.7334,0.0056,-0.0024,9.8066,-0.018,-0.0225,0.0159,-16.56,-28.62,12.19,305.72,-86.04,-174.95
1,52.596283,-1.608857,147.72,0,6,114.12,22 / 22,111,2020-01-08 17:29:50:042,-0.2415,-0.0668,9.8255,-0.0001,-0.0018,9.8066,-0.0141,-0.0221,0.0162,-16.81,-28.31,12.69,308.42,-86.07,-174.88
2,52.596283,-1.608857,147.72,0,6,114.12,22 / 22,212,2020-01-08 17:29:50:143,-0.0024,-0.3063,9.8669,0.0015,0.0005,9.8066,-0.0027,-0.0292,-0.0095,-16.25,-28.81,12.06,307.42,-86.06,-174.83
3,52.596283,-1.608857,147.72,0,6,114.12,22 / 22,312,2020-01-08 17:29:50:243,-0.1658,0.0141,9.773,-0.0034,-0.0045,9.8066,0.0059,0.0021,0.004,-16.37,-28.81,11.94,307.02,-86.06,-175.21
4,52.596283,-1.608857,147.72,0,6,114.12,22 / 22,413,2020-01-08 17:29:50:344,0.269,0.1985,9.9055,-0.003,-0.002,9.8066,0.0077,0.0225,-0.024,-16.31,-28.19,12.31,307.76,-86.06,-174.68
5,52.596283,-1.608857,147.72,0,6,114.12,22 / 22,511,2020-01-08 17:29:50:442,-0.0728,0.0671,9.8346,-0.0024,-0.0038,9.8066,0.0037,0.0361,-0.0197,-16.06,-28.56,11.94,307.69,-86.06,-174.59
6,52.596283,-1.608857,147.72,0,6,114.12,22 / 22,611,2020-01-08 17:29:50:542,0.1506,0.2706,9.8239,-0.0019,-0.0013,9.8066,-0.0089,0.0512,-0.0109,-16.62,-28.44,12.13,306.1,-86.07,-174.77
7,52.596283,-1.608857,147.72,0,6,114.12,22 / 22,712,2020-01-08 17:29:50:643,-0.0612,-0.2653,9.8516,0.0002,-0.0034,9.8066,0.0012,0.0438,-0.0265,-16.75,-28.75,12.06,305.98,-86.08,-174.75
8,52.596283,-1.608857,147.72,0,6,114.12,22 / 22,811,2020-01-08 17:29:50:742,0.1663,0.137,9.8445,-0.0036,-0.0035,9.8066,0.0042,0.0342,-0.0227,-16.31,-28.44,12.19,307.89,-86.06,-174.55
9,52.596283,-1.608857,147.72,0,6,114.12,22 / 22,912,2020-01-08 17:29:50:843,-0.0182,-0.2528,9.9314,0.001,0.0014,9.8066,-0.0098,0.0291,-0.0049,-16.44,-28.19,12.19,307.46,-86.05,-174.94
10,52.596283,-1.608857,147.72,0,6,114.12,23 / 23,1012,2020-01-08 17:29:50:943,-0.0176,0.1351,9.7174,-0.0015,-0.0051,9.8066,-0.0012,-0.0062,-0.0124,-16.62,-29.12,12.38,305.86,-86.04,-174.81
11,52.596283,-1.608857,147.72,0,6,114.12,23 / 23,1112,2020-01-08 17:29:51:043,0.1863,0.0984,9.9335,0.0045,0.0026,9.8066,-0.0102,-0.0025,0.0215,-16.5,-28.19,12.0,307.12,-86.03,-175.24
12,52.596283,-1.608857,147.72,0,6,114.12,23 / 23,1212,2020-01-08 17:29:51:143,0.0695,0.1954,9.8319,-0.0011,-0.0023,9.8066,0.003,-0.018,0.0071,-16.56,-28.44,12.69,308.49,-86.04,-174.78
13,52.596283,-1.608857,147.72,0,6,114.12,23 / 23,1312,2020-01-08 17:29:51:243,0.0049,0.0984,9.8024,0.001,0.0015,9.8066,0.0043,-0.0261,0.0062,-16.5,-28.5,12.13,307.5,-86.03,-174.88
14,52.596283,-1.608857,147.72,0,6,114.12,23 / 23,1412,2020-01-08 17:29:51:343,0.0067,-0.297,9.8772,0.0022,0.0016,9.8066,0.0027,-0.0052,0.0121,-16.56,-28.94,12.06,305.55,-86.01,-175.08
15,52.596283,-1.608857,147.72,0,6,114.12,23 / 23,1512,2020-01-08 17:29:51:443,0.21,0.1068,9.988,-0.0008,0.0004,9.8066,0.0021,-0.0141,-0.0025,-16.87,-28.69,12.38,305.39,-86.01,-175.21
16,52.596283,-1.608857,147.72,0,6,114.12,23 / 23,1612,2020-01-08 17:29:51:543,-0.2443,-0.1354,9.7946,0.0044,0.0017,9.8066,-0.003,0.0185,0.0044,-16.37,-28.69,12.38,306.8,-86.01,-175.36
17,52.596283,-1.608857,147.72,0,6,114.12,23 / 23,1712,2020-01-08 17:29:51:643,-0.113,0.133,9.7487,-0.001,0.0007,9.8066,-0.005,0.0255,0.0007,-16.0,-29.0,11.69,306.95,-86.02,-175.23
18,52.596283,-1.608857,147.72,0,6,114.12,23 / 23,1812,2020-01-08 17:29:51:743,-0.1079,-0.0135,9.8904,-0.0004,0.001,9.8066,0.002,0.0186,-0.0178,-16.31,-28.94,12.44,306.96,-86.02,-175.22
19,52.596283,-1.608857,147.72,0,6,114.12,23 / 23,1912,2020-01-08 17:29:51:843,0.0425,-0.1701,9.8094,-0.0024,-0.0017,9.8066,0.001,0.0207,-0.0117,-16.31,-28.25,12.38,306.87,-86.01,-175.46
20,52.596283,-1.608857,147.72,0,6,114.12,23 / 23,2012,2020-01-08 17:29:51:943,-0.1269,-0.0106,9.8319,-0.0006,-0.002,9.8065,0.0069,0.0042,-0.0198,-16.5,-28.81,12.19,306.76,-86.0,-175.39
21,52.596283,-1.608857,147.72,0,6,114.12,23 / 23,2111,2020-01-08 17:29:52:042,0.0293,-0.2658,9.8783,0.0015,-0.0012,9.8066,-0.0083,0.0141,0.0044,-16.62,-28.5,11.94,305.5,-86.02,-175.28
22,52.596283,-1.608857,147.72,0,6,114.12,23 / 23,2212,2020-01-08 17:29:52:143,-0.203,0.1095,9.7149,-0.0016,-0.0019,9.8066,-0.0121,0.0017,0.0059,-16.44,-28.5,12.31,307.05,-86.02,-175.3
23,52.596283,-1.608857,147.72,0,6,114.12,23 / 23,2312,2020-01-08 17:29:52:243,0.0342,-0.2651,9.8454,-0.001,0.0007,9.8066,-0.0029,-0.0183,0.0113,-16.56,-28.31,11.94,305.36,-86.05,-175.45
24,52.596283,-1.608857,147.72,0,6,114.12,23 / 23,2411,2020-01-08 17:29:52:342,-0.1773,-0.0084,9.7625,-0.0005,-0.002,9.8066,-0.0044,-0.0156,0.0136,-16.06,-28.62,12.88,309.43,-86.03,-175.28
25,52.596283,-1.608857,147.72,0,6,114.12,23 / 23,2511,2020-01-08 17:29:52:442,-0.0001,0.1194,9.8786,0.0037,0.0033,9.8066,-0.0053,-0.0156,0.0061,-16.69,-27.94,12.69,307.98,-86.04,-175.27
26,52.596283,-1.608857,147.72,0,6,114.12,23 / 23,2612,2020-01-08 17:29:52:543,-0.1868,-0.1253,9.7648,-0.0002,-0.0005,9.8066,-0.0015,0.0012,0.007,-16.0,-28.12,12.31,306.98,-86.03,-175.38
27,52.596283,-1.608857,147.72,0,6,114.12,23 / 23,2712,2020-01-08 17:29:52:643,0.2243,-0.0054,9.8555,0.0024,0.0024,9.8066,-0.0017,0.0194,-0.0093,-16.44,-28.25,12.38,306.94,-86.04,-175.42
28,52.596283,-1.608857,147.72,0,6,114.12,23 / 23,2812,2020-01-08 17:29:52:743,-0.2934,-0.1305,9.6799,0.0026,0.0025,9.8066,0.0135,0.0238,-0.014,-16.31,-28.69,12.25,306.74,-86.03,-175.45
29,52.596283,-1.608857,147.72,0,6,114.12,23 / 23,2912,2020-01-08 17:29:52:843,0.4249,0.0834,9.9971,0.0009,-0.0018,9.8066,0.011,0.025,-0.027,-16.25,-29.06,12.44,306.67,-86.05,-175.53
30,52.596283,-1.608857,147.72,0,6,114.12,22 / 23,3011,2020-01-08 17:29:52:942,-0.1162,0.0612,9.8042,0.0031,0.0015,9.8066,-0.0116,0.0559,-0.0066,-16.25,-28.69,11.81,306.89,-86.04,-175.32
31,52.596283,-1.608857,147.72,0,6,114.12,22 / 23,3111,2020-01-08 17:29:53:042,0.3567,0.1393,9.8594,-0.0016,-0.0028,9.8066,-0.0027,0.0235,-0.022,-15.69,-28.94,12.19,306.67,-86.03,-175.51
32,52.596283,-1.608857,147.72,0,6,114.12,22 / 23,3212,2020-01-08 17:29:53:143,-0.0882,0.0793,9.8303,-0.001,0.0022,9.8066,-0.0058,0.0062,-0.0204,-16.69,-28.62,12.56,307.63,-86.05,-175.46
33,52.596283,-1.608857,147.72,0,6,114.12,22 / 23,3312,2020-01-08 17:29:53:243,-0.1347,-0.4122,9.8723,-0.002,-0.0052,9.8066,0.0042,0.0062,0.0058,-16.25,-28.75,12.0,306.77,-86.03,-175.42
34,52.596283,-1.608857,147.72,0,6,114.12,22 / 23,3412,2020-01-08 17:29:53:343,-0.0974,-0.0028,9.8541,-0.0009,-0.0017,9.8066,0.0056,-0.0238,0.0093,-16.37,-28.44,11.56,307.03,-86.02,-175.31
35,52.596283,-1.608857,147.72,0,6,114.12,22 / 23,3512,2020-01-08 17:29:53:443,-0.1655,-0.3569,9.8404,0.0006,-0.0026,9.8066,-0.0042,-0.0264,0.0186,-16.44,-28.56,12.19,307.01,-86.02,-175.17
36,52.596283,-1.608857,147.72,0,6,114.12,22 / 23,3612,2020-01-08 17:29:53:543,0.0655,0.176,9.8298,-0.0045,-0.0037,9.8066,-0.0209,-0.0402,0.0286,-16.06,-28.5,12.25,307.36,-86.01,-174.99
37,52.596283,-1.608857,147.72,0,6,114.12,22 / 23,3712,2020-01-08 17:29:53:643,-0.0892,-0.3525,9.8777,-0.0009,0.0002,9.8066,-0.0019,-0.0443,0.0042,-16.69,-28.37,12.25,305.59,-86.01,-175.19
38,52.596283,-1.608857,147.72,0,6,114.12,22 / 23,3811,2020-01-08 17:29:53:742,0.016,0.2386,9.7975,-0.0024,-0.0027,9.8066,0.0,-0.0171,0.0175,-16.12,-28.75,11.81,307.27,-86.01,-174.93
39,52.596283,-1.608857,147.72,0,6,114.12,22 / 23,3912,2020-01-08 17:29:53:843,-0.1207,-0.0611,9.8771,0.0026,0.0018,9.8066,0.0137,-0.0091,0.0002,-16.69,-28.56,12.13,305.4,-86.0,-175.2
40,52.596283,-1.608857,147.72,0,6,114.12,23 / 23,4012,2020-01-08 17:29:53:943,-0.0278,-0.3471,9.8275,0.0001,-0.0006,9.8066,0.0107,0.0199,-0.0094,-16.5,-28.19,11.75,306.99,-86.0,-175.34
41,52.596283,-1.608857,147.72,0,6,114.12,23 / 23,4112,2020-01-08 17:29:54:043,0.2582,0.0912,9.9,0.0029,0.0024,9.8066,-0.0024,0.0312,-0.0063,-16.81,-28.69,11.94,305.52,-86.0,-175.09
42,52.596283,-1.608857,147.72,0,6,114.12,23 / 23,4212,2020-01-08 17:29:54:143,-0.1304,0.0081,9.7794,0.0016,0.0009,9.8066,-0.0019,0.016,-0.0162,-16.75,-28.62,12.31,305.22,-85.99,-175.36
43,52.596283,-1.608857,147.72,0,6,114.12,23 / 23,4312,2020-01-08 17:29:54:243,0.2088,0.1073,9.9007,-0.0003,0.0006,9.8066,-0.0025,0.022,-0.0095,-16.37,-27.94,12.88,309.45,-85.99,-175.37
44,52.596283,-1.608857,147.72,0,6,114.12,23 / 23,4411,2020-01-08 17:29:54:342,-0.1126,-0.1037,9.8716,0.0019,0.0033,9.8066,-0.0063,0.0156,-0.01,-16.06,-28.31,12.25,306.94,-86.01,-175.38
45,52.596283,-1.608857,147.72,0,6,114.12,23 / 23,4512,2020-01-08 17:29:54:443,0.1466,0.097,9.859,-0.0025,0.0007,9.8066,-0.0024,0.0126,-0.0064,-16.5,-28.44,11.88,307.13,-86.01,-175.2
46,52.596283,-1.608857,147.72,0,6,114.12,23 / 23,4612,2020-01-08 17:29:54:543,-0.1018,-0.0403,9.8625,0.0,0.0016,9.8066,-0.0106,0.0007,0.0066,-16.44,-28.5,12.25,307.13,-86.01,-175.21
47,52.596283,-1.608857,147.72,0,6,114.12,23 / 23,4712,2020-01-08 17:29:54:643,-0.0497,-0.0588,9.7754,0.0014,-0.0004,9.8066,-0.0001,-0.013,-0.0056,-16.25,-28.81,12.06,307.06,-86.01,-175.12
48,52.596283,-1.608857,147.72,0,6,114.12,23 / 23,4811,2020-01-08 17:29:54:742,0.2034,0.0248,9.9261,-0.0036,0.0,9.8066,-0.0027,-0.0277,0.0021,-16.56,-28.62,11.81,305.39,-85.99,-175.2
49,52.596283,-1.608857,147.72,0,6,114.12,23 / 23,4912,2020-01-08 17:29:54:843,-0.0938,-0.0706,9.8336,-0.0003,-0.0014,9.8066,0.0029,-0.0055,0.003,-15.94,-28.69,12.44,307.23,-86.01,-174.95
50,52.596283,-1.608857,147.72,0,6,114.12,22 / 24,5012,2020-01-08 17:29:54:943,-0.1216,0.0216,9.8649,-0.0014,-0.0001,9.8066,-0.0029,0.0017,-0.0027,-16.69,-29.19,12.19,305.66,-86.01,-174.97
51,52.596283,-1.608857,147.72,0,6,114.12,22 / 24,5111,2020-01-08 17:29:55:042,0.14,-0.2179,9.8699,-0.0008,-0.0009,9.8066,-0.0025,0.0371,0.0142,-16.25,-28.81,12.5,309.69,-86.01,-175.01
52,52.596283,-1.608857,147.72,0,6,114.12,22 / 24,5211,2020-01-08 17:29:55:142,-0.128,-0.0017,9.7722,0.0022,0.0001,9.8066,-0.0002,0.0319,-0.0168,-16.5,-28.69,12.13,307.31,-86.02,-174.89
53,52.596283,-1.608857,147.72,0,6,114.12,22 / 24,5311,2020-01-08 17:29:55:242,0.291,-0.0035,9.9742,0.0034,0.0015,9.8066,-0.0016,0.012,-0.0075,-16.0,-28.94,11.5,307.4,-86.03,-174.82
54,52.596283,-1.608857,147.72,0,6,114.12,22 / 24,5411,2020-01-08 17:29:55:342,-0.1715,0.0752,9.851,0.0018,0.0005,9.8066,0.0068,0.0108,-0.0093,-16.5,-28.87,11.69,307.15,-86.03,-175.05
55,52.596283,-1.608857,147.72,0,6,114.12,22 / 24,5512,2020-01-08 17:29:55:443,0.1892,-0.0559,9.9166,0.0039,0.0003,9.8066,0.0079,0.0024,-0.01,-16.5,-29.25,11.56,307.1,-86.03,-175.1
56,52.596283,-1.608857,147.72,0,6,114.12,22 / 24,5612,2020-01-08 17:29:55:543,-0.1829,0.0493,9.835,0.0008,-0.0001,9.8066,0.011,0.0099,0.0003,-16.81,-28.81,12.19,305.58,-86.03,-175.07
57,52.596283,-1.608857,147.72,0,6,114.12,22 / 24,5712,2020-01-08 17:29:55:643,0.0685,-0.1079,9.8245,-0.0002,-0.0007,9.8066,0.0067,0.0011,-0.006,-16.56,-28.37,12.31,305.67,-86.04,-175.15
58,52.596283,-1.608857,147.72,0,6,114.12,22 / 24,5812,2020-01-08 17:29:55:743,0.0604,0.0755,9.9566,-0.0045,-0.0005,9.8066,0.002,-0.0048,-0.0057,-16.19,-28.5,12.25,307.45,-86.05,-174.96
59,52.596283,-1.608857,147.72,0,6,114.12,22 / 24,5912,2020-01-08 17:29:55:843,-0.2195,-0.0916,9.6736,-0.0037,0.0011,9.8066,-0.009,-0.0108,-0.0095,-16.44,-28.81,12.06,307.23,-86.03,-174.99
60,52.596283,-1.608857,147.72,0,6,114.12,22 / 23,6012,2020-01-08 17:29:55:943,-0.1295,0.0427,9.7619,-0.0021,-0.0026,9.8066,-0.0125,-0.0073,-0.002,-16.0,-28.69,12.13,307.39,-86.04,-174.85
61,52.596283,-1.608857,147.72,0,6,114.12,22 / 23,6112,2020-01-08 17:29:56:043,-0.1488,-0.2315,9.8435,0.0005,-0.0015,9.8066,-0.0017,0.0092,-0.0039,-16.94,-28.75,12.06,305.78,-86.04,-174.88
62,52.596283,-1.608857,147.72,0,6,114.12,22 / 23,6212,2020-01-08 17:29:56:143,0.1215,-0.0188,9.8415,-0.0034,-0.0025,9.8066,0.0104,0.0353,-0.0165,-16.44,-28.87,12.25,307.51,-86.05,-174.74
63,52.596283,-1.608857,147.72,0,6,114.12,22 / 23,6312,2020-01-08 17:29:56:243,-0.191,-0.1361,9.787,-0.0019,0.0005,9.8066,0.0106,0.0405,-0.0238,-16.37,-29.0,11.94,307.42,-86.04,-174.81
64,52.596283,-1.608857,147.72,0,6,114.12,22 / 23,6412,2020-01-08 17:29:56:343,0.216,-0.0209,9.88,-0.0026,-0.0031,9.8066,0.0065,0.0328,-0.023,-15.87,-28.81,12.38,307.69,-86.05,-174.58
65,52.596283,-1.608857,147.72,0,6,114.12,22 / 23,6512,2020-01-08 17:29:56:443,-0.0262,0.149,9.931,0.0024,0.0013,9.8066,-0.009,0.0377,-0.0101,-16.75,-28.44,11.94,306.32,-86.04,-174.53
66,52.596283,-1.608857,147.72,0,6,114.12,22 / 23,6612,2020-01-08 17:29:56:543,0.4071,0.0768,9.9452,-0.0009,0.0008,9.8066,0.0109,0.0157,-0.0114,-16.5,-28.62,11.69,307.6,-86.05,-174.66
67,52.596283,-1.608857,147.72,0,6,114.12,22 / 23,6712,2020-01-08 17:29:56:643,-0.088,0.1444,9.7863,0.0019,0.0045,9.8066,0.0043,0.0107,-0.0115,-16.12,-28.62,12.25,307.16,-86.05,-175.06
68,52.596283,-1.608857,147.72,0,6,114.12,22 / 23,6811,2020-01-08 17:29:56:742,-0.1858,-0.4307,9.9035,0.0011,0.0018,9.8066,0.0066,-0.009,0.0158,-16.75,-28.25,11.44,303.33,-86.04,-174.93
69,52.596283,-1.608857,147.72,0,6,114.12,22 / 23,6912,2020-01-08 17:29:56:843,-0.0359,0.0211,9.8619,0.0015,0.004,9.8066,-0.0106,-0.0265,0.0156,-16.25,-28.87,11.56,307.74,-86.02,-174.49
70,52.596283,-1.608857,147.72,0,6,114.12,22 / 23,7012,2020-01-08 17:29:56:943,-0.0842,-0.3326,9.8369,0.0044,0.0037,9.8066,-0.0073,-0.024,0.0306,-16.5,-27.75,12.56,309.86,-86.02,-175.01
71,52.596283,-1.608857,147.72,0,6,114.12,22 / 23,7112,2020-01-08 17:29:57:043,-0.0999,0.1627,9.8706,-0.0003,0.0017,9.8066,0.0012,-0.0358,0.0177,-15.75,-28.69,12.06,307.6,-86.01,-174.62
72,52.596283,-1.608857,147.72,0,6,114.12,22 / 23,7211,2020-01-08 17:29:57:142,-0.0269,-0.3487,9.8915,0.0005,0.005,9.8066,0.0117,-0.049,0.0106,-15.94,-29.06,12.19,307.46,-86.03,-174.77
73,52.596283,-1.608857,147.72,0,6,114.12,22 / 23,7312,2020-01-08 17:29:57:243,-0.0009,0.259,9.8296,-0.0029,0.0015,9.8066,0.0051,-0.0184,0.0078,-16.37,-28.56,12.75,310.06,-86.03,-174.68
74,52.596283,-1.608857,147.72,0,6,114.12,22 / 23,7411,2020-01-08 17:29:57:342,0.0928,0.0927,9.7492,0.0004,0.0016,9.8066,0.005,-0.0082,0.0031,-16.75,-29.0,12.06,305.87,-86.02,-174.78
75,52.596283,-1.608857,147.72,0,6,114.12,22 / 23,7512,2020-01-08 17:29:57:443,-0.1718,0.1052,9.8269,0.0011,-0.0027,9.8066,-0.0013,0.0091,-0.0032,-16.06,-29.31,12.63,310.28,-86.02,-174.46
76,52.596283,-1.608857,147.72,0,6,114.12,22 / 23,7612,2020-01-08 17:29:57:543,-0.0536,-0.0351,9.8927,-0.0023,0.0017,9.8066,-0.0036,0.0253,-0.0104,-16.0,-28.75,12.75,310.39,-86.02,-174.36
77,52.596283,-1.608857,147.72,0,6,114.12,22 / 23,7711,2020-01-08 17:29:57:642,0.0367,-0.1098,9.7632,-0.0018,0.0,9.8066,0.0079,-0.0062,-0.0126,-16.12,-29.19,11.88,307.71,-86.02,-174.52
78,52.596283,-1.608857,147.72,0,6,114.12,22 / 23,7812,2020-01-08 17:29:57:743,-0.1534,0.0486,9.8558,-0.0015,-0.0004,9.8066,-0.0021,0.0011,0.0015,-17.0,-28.69,12.25,306.14,-86.03,-174.53
79,52.596283,-1.608857,147.72,0,6,114.12,22 / 23,7911,2020-01-08 17:29:57:842,0.0342,-0.2909,9.8325,0.0009,-0.0015,9.8066,-0.007,0.0052,0.0073,-16.81,-29.0,11.88,306.45,-86.03,-174.24
80,52.596283,-1.608857,147.72,0,6,114.12,22 / 23,8012,2020-01-08 17:29:57:943,-0.03,0.0959,9.8155,0.0004,-0.0012,9.8066,-0.0017,-0.0054,0.0063,-16.44,-28.25,12.25,308.39,-86.03,-174.05
81,52.596283,-1.608857,147.72,0,6,114.12,22 / 23,8112,2020-01-08 17:29:58:043,0.0857,0.0848,9.8651,0.0013,0.0012,9.8066,0.0018,-0.0145,0.0093,-16.25,-28.31,12.44,308.47,-86.04,-173.98
82,52.596283,-1.608857,147.72,0,6,114.12,22 / 23,8212,2020-01-08 17:29:58:143,-0.1667,-0.0389,9.7563,0.0002,-0.0002,9.8066,0.0004,-0.0187,-0.0005,-16.37,-28.62,12.0,308.3,-86.04,-173.99
83,52.596283,-1.608857,147.72,0,6,114.12,22 / 23,8312,2020-01-08 17:29:58:243,0.1698,0.1242,9.9046,0.0008,0.0014,9.8066,-0.0014,-0.0244,-0.0028,-16.44,-28.87,12.13,308.59,-86.04,-173.72
84,52.596283,-1.608857,147.72,0,6,114.12,22 / 23,8411,2020-01-08 17:29:58:342,-0.0527,-0.0755,9.8059,0.0035,0.0017,9.8066,-0.0055,-0.0072,-0.0023,-16.31,-28.56,12.44,308.33,-86.04,-173.97
85,52.596283,-1.608857,147.72,0,6,114.12,22 / 23,8511,2020-01-08 17:29:58:442,0.2175,0.1073,9.886,-0.0016,-0.0018,9.8066,0.0054,0.0198,-0.0147,-16.25,-28.69,12.44,308.42,-86.05,-173.88
86,52.596283,-1.608857,147.72,0,6,114.12,22 / 23,8612,2020-01-08 17:29:58:543,-0.1103,-0.0911,9.8706,0.001,0.0019,9.8066,0.0054,0.0365,-0.0135,-16.94,-28.44,12.0,307.32,-86.05,-173.59
87,52.596283,-1.608857,147.72,0,6,114.12,22 / 23,8712,2020-01-08 17:29:58:643,-0.1672,-0.1094,9.8108,-0.0024,-0.0018,9.8066,-0.0012,0.0393,-0.0171,-16.87,-28.37,12.38,307.19,-86.04,-173.71
88,52.596283,-1.608857,147.72,0,6,114.12,22 / 23,8811,2020-01-08 17:29:58:742,-0.1726,-0.1138,9.797,0.0004,-0.0011,9.8066,-0.0034,0.0239,-0.0182,-16.69,-28.69,12.38,307.08,-86.04,-173.67
89,52.596283,-1.608857,147.72,0,6,114.12,22 / 23,8912,2020-01-08 17:29:58:843,-0.1673,0.074,9.7606,0.0002,-0.0039,9.8066,-0.0156,0.0265,-0.0053,-16.62,-28.12,12.06,307.22,-86.05,-173.69
90,52.596283,-1.608857,147.72,0,6,114.12,22 / 23,9012,2020-01-08 17:29:58:943,0.2858,0.1324,9.9145,-0.0016,-0.0004,9.8066,-0.0093,0.0056,-0.0062,-16.69,-28.62,12.19,307.21,-86.06,-173.56
91,52.596283,-1.608857,147.72,0,6,114.12,22 / 23,9112,2020-01-08 17:29:59:043,-0.2464,-0.0931,9.8382,-0.0025,-0.0039,9.8066,0.0052,0.0025,0.0021,-16.12,-28.75,11.94,308.78,-86.07,-173.57
92,52.596283,-1.608857,147.72,0,6,114.12,22 / 23,9212,2020-01-08 17:29:59:143,0.1353,-0.0213,9.8596,-0.0002,-0.0035,9.8066,0.0048,-0.0015,-0.0019,-16.56,-28.5,12.63,310.18,-86.06,-173.21
93,52.596283,-1.608857,147.72,0,6,114.12,22 / 23,9312,2020-01-08 17:29:59:243,-0.0709,0.022,9.8948,0.0013,0.0001,9.8066,-0.0054,-0.023,0.0034,-16.5,-28.19,11.5,309.51,-86.07,-173.04
94,52.596283,-1.608857,147.72,0,6,114.12,22 / 23,9412,2020-01-08 17:29:59:343,-0.0829,-0.0448,9.7369,-0.0002,-0.0007,9.8066,-0.0132,-0.0116,0.0125,-16.44,-28.56,12.44,309.5,-86.08,-172.9
95,52.596283,-1.608857,147.72,0,6,114.12,22 / 23,9512,2020-01-08 17:29:59:443,-0.0481,-0.043,9.8558,0.0036,0.0015,9.8066,0.0024,-0.0023,-0.0079,-16.25,-28.25,12.69,312.5,-86.08,-172.6
96,52.596283,-1.608857,147.72,0,6,114.12,22 / 23,9612,2020-01-08 17:29:59:543,-0.1649,-0.1475,9.7334,0.0026,0.0002,9.8066,0.0019,0.0209,-0.0022,-16.37,-27.87,11.81,309.86,-86.07,-172.71
97,52.596283,-1.608857,147.72,0,6,114.12,22 / 23,9712,2020-01-08 17:29:59:643,0.2938,0.1802,9.9626,0.0023,0.0006,9.8066,0.0101,0.0504,-0.0119,-16.5,-29.0,12.13,309.83,-86.08,-172.6
98,52.596283,-1.608857,147.72,0,6,114.12,22 / 23,9812,2020-01-08 17:29:59:743,-0.0383,-0.2996,9.8183,0.0058,0.0028,9.8066,0.0138,0.0498,-0.0235,-16.56,-28.69,12.56,310.44,-86.06,-172.83
99,52.596283,-1.608857,147.72,0,6,114.12,22 / 23,9912,2020-01-08 17:29:59:843,-0.0917,0.0245,9.8199,-0.0008,-0.001,9.8066,-0.0091,0.05,-0.0149,-16.44,-28.62,11.63,309.79,-86.07,-172.63
100,52.596283,-1.608857,147.72,0,6,114.12,22 / 23,10012,2020-01-08 17:29:59:943,-0.0441,-0.3163,9.8705,0.0002,0.0024,9.8066,-0.003,0.0232,-0.0074,-16.62,-28.69,12.13,308.25,-86.07,-172.6
101,52.596283,-1.608857,147.72,0,6,114.12,22 / 23,10111,2020-01-08 17:30:00:042,-0.0441,0.1353,9.8053,-0.0007,-0.0029,9.8066,0.0033,0.0024,-0.0204,-16.06,-28.81,11.81,309.65,-86.08,-172.77
102,52.596283,-1.608857,147.72,0,6,114.12,22 / 23,10212,2020-01-08 17:30:00:143,0.2062,0.1441,9.8813,-0.0027,0.0003,9.8066,-0.0071,-0.0053,0.0123,-16.12,-28.87,12.19,309.96,-86.09,-172.49
103,52.596283,-1.608857,147.72,0,6,114.12,22 / 23,10312,2020-01-08 17:30:00:243,-0.1092,0.1324,9.7536,-0.0018,-0.005,9.8066,-0.01,-0.0167,0.0226,-16.06,-28.0,12.06,309.96,-86.08,-172.63
104,52.596283,-1.608857,147.72,0,6,114.12,22 / 23,10412,2020-01-08 17:30:00:343,0.2248,0.1678,9.9074,-0.0033,-0.001,9.8066,-0.0075,-0.0332,0.0161,-16.25,-28.06,12.19,310.19,-86.07,-172.4
105,52.596283,-1.608857,147.72,0,6,114.12,22 / 23,10512,2020-01-08 17:30:00:443,-0.122,-0.1589,9.8262,-0.002,-0.0024,9.8066,-0.005,-0.016,0.0234,-16.44,-29.0,11.75,310.28,-86.06,-172.16
106,52.596283,-1.608857,147.72,0,6,114.12,22 / 23,10611,2020-01-08 17:30:00:542,0.2174,0.0727,9.9067,0.0011,-0.0021,9.8066,0.0004,-0.019,0.0033,-16.31,-28.31,11.88,310.23,-86.06,-172.35
107,52.596283,-1.608857,147.72,0,6,114.12,22 / 23,10712,2020-01-08 17:30:00:643,-0.1052,-0.0793,9.8442,0.0028,0.0024,9.8066,-0.0013,-0.0239,-0.0001,-16.25,-28.75,12.31,310.13,-86.07,-172.32
108,52.596283,-1.608857,147.72,0,6,114.12,22 / 23,10812,2020-01-08 17:30:00:743,-0.0085,-0.0749,9.8455,-0.0041,-0.0036,9.8066,-0.0006,0.0162,0.0057,-16.56,-27.87,11.44,306.35,-86.08,-172.12
109,52.596283,-1.608857,147.72,0,6,114.12,22 / 23,10911,2020-01-08 17:30:00:842,0.1794,0.0717,9.8437,0.002,0.0014,9.8066,0.0097,0.0196,-0.0117,-15.87,-28.44,13.0,312.78,-86.06,-172.31
110,52.596283,-1.608857,147.72,0,6,114.12,22 / 22,11012,2020-01-08 17:30:00:943,-0.0102,-0.2252,9.7622,0.0023,-0.0011,9.8066,0.0163,0.023,-0.0109,-16.94,-28.44,12.13,308.68,-86.06,-172.33
111,52.596283,-1.608857,147.72,0,6,114.12,22 / 22,11112,2020-01-08 17:30:01:043,0.2471,0.1157,9.944,0.0039,0.0014,9.8065,0.0046,0.0259,-0.0144,-16.75,-28.5,12.06,308.52,-86.05,-172.47
112,52.596283,-1.608857,147.72,0,6,114.12,22 / 22,11212,2020-01-08 17:30:01:143,-0.0087,-0.0585,9.8488,0.0016,0.0023,9.8066,-0.0013,0.0081,-0.0222,-16.56,-28.44,12.06,308.61,-86.06,-172.39
113,52.596283,-1.608857,147.72,0,6,114.12,22 / 22,11312,2020-01-08 17:30:01:243,0.1232,0.1272,9.8066,-0.0028,0.0004,9.8066,-0.0113,0.0161,0.0093,-16.37,-28.0,11.75,310.02,-86.05,-172.54
114,52.596283,-1.608857,147.72,0,6,114.12,22 / 22,11412,2020-01-08 17:30:01:343,0.034,-0.0123,9.8948,0.0009,0.0029,9.8066,-0.0084,-0.0044,0.0066,-16.56,-28.62,12.25,308.21,-86.05,-172.62
115,52.596283,-1.608857,147.72,0,6,114.12,22 / 22,11512,2020-01-08 17:30:01:443,0.0642,0.1515,9.828,-0.0027,-0.0024,9.8066,0.0001,0.003,0.0123,-16.87,-28.31,12.0,308.23,-86.05,-172.74
116,52.596283,-1.608857,147.72,0,6,114.12,22 / 22,11611,2020-01-08 17:30:01:542,0.1251,0.09,9.93,-0.0006,0.0018,9.8066,-0.01,-0.0172,0.0089,-16.31,-28.25,12.81,312.7,-86.07,-172.4
117,52.596283,-1.608857,147.72,0,6,114.12,22 / 22,11712,2020-01-08 17:30:01:643,-0.0753,-0.1584,9.7887,-0.0037,-0.0036,9.8066,0.0014,-0.0305,0.0134,-16.62,-28.5,12.63,311.12,-86.06,-172.33
118,52.596283,-1.608857,147.72,0,6,114.12,22 / 22,11812,2020-01-08 17:30:01:743,0.0845,0.0878,9.905,-0.003,-0.0028,9.8066,-0.0052,-0.0137,0.0037,-16.0,-28.75,12.5,312.76,-86.06,-172.19
119,52.596283,-1.608857,147.72,0,6,114.12,22 / 22,11912,2020-01-08 17:30:01:843,-0.0505,-0.1529,9.8246,-0.0012,-0.0006,9.8065,0.0008,-0.0059,-0.0014,-16.37,-28.56,12.44,310.24,-86.07,-172.21
120,52.596283,-1.608857,147.72,0,6,114.12,22 / 24,12012,2020-01-08 17:30:01:943,0.1391,0.0486,9.8469,0.0008,-0.0021,9.8066,0.0141,0.0157,-0.0154,-16.31,-28.06,12.5,312.85,-86.07,-172.26
121,52.596283,-1.608857,147.72,0,6,114.12,22 / 24,12112,2020-01-08 17:30:02:043,0.0161,0.1156,9.8536,0.0014,0.0011,9.8066,0.006,0.0386,-0.0076,-16.75,-28.0,12.19,308.74,-86.09,-172.3
122,52.596283,-1.608857,147.72,0,6,114.12,22 / 24,12212,2020-01-08 17:30:02:143,0.1332,0.0419,9.8604,-0.001,-0.0007,9.8066,-0.0039,0.0268,-0.0051,-16.25,-28.37,12.13,310.5,-86.09,-172.14
123,52.596283,-1.608857,147.72,0,6,114.12,22 / 24,12311,2020-01-08 17:30:02:242,0.0181,0.2077,9.8822,0.0043,0.0031,9.8066,-0.0075,0.0253,-0.0047,-16.56,-28.62,12.44,308.8,-86.08,-172.1
124,52.596283,-1.608857,147.72,0,6,114.12,22 / 24,12412,2020-01-08 17:30:02:343,-0.1523,-0.2401,9.7652,0.0025,0.001,9.8066,0.0032,0.0088,-0.0031,-16.37,-28.75,12.25,309.96,-86.08,-172.48
125,52.596283,-1.608857,147.72,0,6,114.12,22 / 24,12512,2020-01-08 17:30:02:443,-0.0081,0.1893,9.7753,0.0049,0.0018,9.8066,0.0127,-0.0244,-0.0087,-16.0,-28.56,12.63,312.99,-86.09,-172.01
126,52.596283,-1.608857,147.72,0,6,114.12,22 / 24,12612,2020-01-08 17:30:02:543,-0.0918,-0.3012,9.8728,0.002,0.006,9.8066,0.0063,-0.0371,0.004,-16.0,-28.5,12.25,310.07,-86.08,-172.53
127,52.596283,-1.608857,147.72,0,6,114.12,22 / 24,12712,2020-01-08 17:30:02:643,0.033,0.0984,9.8434,0.0,0.002,9.8066,-0.0056,-0.0269,0.0173,-15.87,-28.12,11.69,309.92,-86.07,-172.66
128,52.596283,-1.608857,147.72,0,6,114.12,22 / 24,12811,2020-01-08 17:30:02:742,-0.0874,0.0394,9.8189,0.0043,0.0035,9.8066,-0.0115,-0.0273,0.0161,-16.62,-28.56,12.0,308.12,-86.07,-172.72
129,52.596283,-1.608857,147.72,0,6,114.12,22 / 24,12911,2020-01-08 17:30:02:842,0.2756,0.2097,9.8266,-0.0007,-0.0005,9.8066,-0.0162,-0.0322,0.0253,-16.37,-28.37,12.19,309.83,-86.07,-172.74
130,52.596283,-1.608857,147.72,0,6,114.12,0 / 21,13012,2020-01-08 17:30:02:943,-0.0636,-0.2335,9.8989,-0.0013,0.0012,9.8066,-0.0008,-0.0326,0.0131,-15.94,-27.69,11.56,310.04,-86.08,-172.56
131,52.596283,-1.608857,147.72,0,6,114.12,May-26,13112,2020-01-08 17:30:03:043,-0.1955,-0.0797,9.7631,-0.0037,-0.0032,9.8066,-0.0021,-0.0209,0.0074,-16.44,-28.31,12.69,312.29,-86.07,-172.78
132,52.596283,-1.608857,147.72,0,6,114.12,May-26,13211,2020-01-08 17:30:03:142,0.3584,0.1735,9.8625,-0.0014,0.0006,9.8066,-0.0026,0.0238,0.0007,-16.44,-28.31,11.88,309.92,-86.08,-172.66
133,52.596283,-1.608857,147.72,0,6,114.12,May-26,13311,2020-01-08 17:30:03:242,-0.0373,0.0344,9.7854,-0.0022,-0.0046,9.8066,-0.0062,0.0345,-0.0043,-16.5,-28.5,11.75,310.21,-86.07,-172.39
134,52.596283,-1.608857,147.72,0,6,114.12,May-26,13412,2020-01-08 17:30:03:343,0.2788,0.0239,9.9461,-0.0019,-0.0027,9.8065,-0.0022,0.03,-0.0189,-16.0,-28.37,11.94,310.27,-86.08,-172.34
135,52.596283,-1.608857,147.72,0,6,114.12,May-26,13512,2020-01-08 17:30:03:443,-0.2064,-0.1348,9.8086,-0.0014,-0.0015,9.8066,0.0029,0.0237,-0.0135,-16.0,-28.56,12.44,309.89,-86.09,-172.55
136,52.596283,-1.608857,147.72,0,6,114.12,May-26,13612,2020-01-08 17:30:03:543,0.0683,-0.031,9.8342,-0.003,-0.0034,9.8066,0.0092,-0.001,-0.0212,-16.44,-28.87,12.0,310.33,-86.09,-172.15
137,52.596283,-1.608857,147.72,0,6,114.12,May-26,13712,2020-01-08 17:30:03:643,-0.1891,-0.1725,9.867,0.0016,0.0027,9.8066,-0.0026,0.008,0.001,-16.5,-28.37,12.31,309.99,-86.08,-172.6
138,52.596283,-1.608857,147.72,0,6,114.12,May-26,13812,2020-01-08 17:30:03:743,-0.0638,-0.0261,9.7965,0.0007,-0.0021,9.8066,-0.0061,0.0025,0.0067,-16.25,-29.0,12.19,310.15,-86.08,-172.3
139,52.596283,-1.608857,147.72,0,6,114.12,May-26,13912,2020-01-08 17:30:03:843,0.2166,0.0715,9.8783,-0.0001,0.0006,9.8066,-0.0067,-0.0246,0.0007,-16.56,-28.62,12.0,308.54,-86.09,-172.34
140,52.596283,-1.608857,147.72,0,6,114.12,May-26,14012,2020-01-08 17:30:03:943,-0.0896,-0.1107,9.7745,0.0023,0.0005,9.8066,-0.0093,-0.0148,0.0105,-16.31,-28.81,12.06,310.05,-86.08,-172.4
141,52.596283,-1.608857,147.72,0,6,114.12,13 / 19,14111,2020-01-08 17:30:04:042,0.2053,0.0389,9.9387,-0.0028,-0.0003,9.8066,-0.0021,-0.0184,-0.001,-16.06,-27.87,12.38,310.25,-86.09,-172.37
142,52.596283,-1.608857,147.72,0,6,114.12,13 / 19,14212,2020-01-08 17:30:04:143,-0.0201,0.1636,9.7845,0.003,0.0017,9.8066,-0.0039,-0.0029,0.0002,-16.31,-28.62,11.81,309.99,-86.09,-172.47
143,52.596283,-1.608857,147.72,0,6,114.12,13 / 19,14312,2020-01-08 17:30:04:243,0.1584,0.0623,9.7666,-0.0003,-0.0014,9.8066,-0.0076,0.0315,0.0025,-16.56,-28.19,12.25,308.73,-86.1,-172.31
144,52.596283,-1.608857,147.72,0,6,114.12,13 / 19,14411,2020-01-08 17:30:04:342,0.0518,0.0661,9.9177,-0.0033,0.0004,9.8066,0.0056,0.0229,-0.012,-16.94,-28.81,12.5,311.29,-86.11,-172.09
145,52.596283,-1.608857,147.72,0,6,114.12,13 / 19,14511,2020-01-08 17:30:04:442,-0.0308,-0.2286,9.7796,-0.0013,-0.0009,9.8066,0.0099,0.0243,-0.0213,-16.81,-28.44,12.56,311.27,-86.11,-172.24
146,52.596283,-1.608857,147.72,0,6,114.12,13 / 19,14612,2020-01-08 17:30:04:543,-0.0834,0.1126,9.8222,-0.0005,-0.0011,9.8066,0.0019,0.02,-0.0129,-16.75,-28.62,12.5,311.01,-86.1,-172.33
147,52.596283,-1.608857,147.72,0,6,114.12,13 / 19,14712,2020-01-08 17:30:04:643,-0.0463,-0.2465,9.8665,0.0008,-0.0012,9.8066,0.0002,-0.0042,-0.0138,-16.44,-28.25,12.31,310.34,-86.1,-172.29
148,52.596283,-1.608857,147.72,0,6,114.12,13 / 19,14811,2020-01-08 17:30:04:742,-0.0792,0.0894,9.8533,-0.0015,-0.0022,9.8066,-0.003,0.0025,0.0027,-16.0,-29.0,12.56,312.66,-86.09,-172.31
149,52.596283,-1.608857,147.72,0,6,114.12,13 / 19,14912,2020-01-08 17:30:04:843,0.1145,0.1764,9.8206,0.0005,0.0019,9.8066,0.0012,-0.0002,0.0143,-16.5,-28.31,12.56,312.6,-86.09,-172.52
150,52.596283,-1.608857,147.72,0,6,114.12,13 / 19,15012,2020-01-08 17:30:04:943,0.2364,0.099,9.8383,0.0003,-0.0017,9.8066,-0.0017,-0.0114,0.01,-16.0,-29.0,12.0,309.99,-86.09,-172.47
151,52.596283,-1.608857,147.72,0,6,114.12,15 / 18,15112,2020-01-08 17:30:05:043,-0.0343,0.1076,9.8876,0.0049,0.0029,9.8066,-0.0138,-0.0273,0.0234,-16.62,-28.75,12.44,307.98,-86.08,-172.86
152,52.596283,-1.608857,147.72,0,6,114.12,15 / 18,15212,2020-01-08 17:30:05:143,-0.0902,-0.3083,9.7991,-0.0006,-0.0004,9.8066,-0.0148,-0.039,0.0147,-16.44,-28.69,12.06,309.86,-86.09,-172.59
153,52.596283,-1.608857,147.72,0,6,114.12,15 / 18,15311,2020-01-08 17:30:05:242,-0.049,0.1307,9.8356,0.0029,0.0022,9.8066,0.0003,-0.0184,0.0019,-15.75,-29.0,12.75,312.65,-86.1,-172.33
154,52.596283,-1.608857,147.72,0,6,114.12,15 / 18,15411,2020-01-08 17:30:05:342,-0.142,-0.2654,9.807,0.0031,0.0028,9.8066,0.0078,-0.0007,-0.0063,-16.5,-28.69,12.06,309.75,-86.09,-172.69
155,52.596283,-1.608857,147.72,0,6,114.12,15 / 18,15512,2020-01-08 17:30:05:443,-0.0558,0.0851,9.8354,-0.0003,0.0002,9.8066,0.0105,0.0374,-0.0134,-16.25,-28.94,12.13,309.98,-86.09,-172.48
156,52.596283,-1.608857,147.72,0,6,114.12,15 / 18,15612,2020-01-08 17:30:05:543,-0.0153,-0.396,9.8806,0.0049,0.0043,9.8066,-0.0005,0.0432,-0.0139,-16.62,-28.69,12.44,308.18,-86.1,-172.69
157,52.596283,-1.608857,147.72,0,6,114.12,15 / 18,15712,2020-01-08 17:30:05:643,-0.0409,0.2075,9.763,-0.0015,0.0,9.8066,-0.0092,0.0386,-0.0126,-16.06,-29.06,12.19,309.84,-86.09,-172.6
158,52.596283,-1.608857,147.72,0,6,114.12,15 / 18,15812,2020-01-08 17:30:05:743,0.2904,0.138,9.8973,-0.0018,-0.0004,9.8065,0.0011,0.031,-0.0156,-16.44,-29.12,12.25,309.98,-86.09,-172.47
159,52.596283,-1.608857,147.72,0,6,114.12,15 / 18,15911,2020-01-08 17:30:05:842,-0.0233,0.0992,9.8264,-0.0026,-0.003,9.8066,-0.0017,0.0241,-0.0078,-16.44,-28.5,12.56,312.56,-86.08,-172.53
160,52.596283,-1.608857,147.72,0,6,114.12,15 / 18,16012,2020-01-08 17:30:05:943,0.1067,0.236,9.8623,-0.0013,-0.0016,9.8066,0.0033,-0.0002,-0.0061,-17.06,-28.69,12.13,308.63,-86.07,-172.23
161,52.596283,-1.608857,147.72,0,6,114.12,15 / 18,16112,2020-01-08 17:30:06:043,-0.0915,-0.2138,9.8601,-0.0009,-0.0027,9.8066,-0.0087,-0.0078,0.0133,-16.62,-28.31,12.25,308.96,-86.08,-172.08
162,52.596283,-1.608857,147.72,0,6,114.12,15 / 18,16212,2020-01-08 17:30:06:143,0.2316,0.1328,9.8782,-0.0033,-0.0039,9.8066,-0.0099,-0.0218,0.02,-16.62,-28.44,12.5,311.63,-86.07,-171.86
163,52.596283,-1.608857,147.72,0,6,114.12,15 / 18,16312,2020-01-08 17:30:06:243,-0.08,-0.2152,9.9145,-0.0024,-0.0008,9.8066,0.001,-0.0374,0.0068,-16.81,-28.37,11.63,308.94,-86.07,-172.09
164,52.596283,-1.608857,147.72,0,6,114.12,15 / 18,16412,2020-01-08 17:30:06:343,-0.1002,0.0395,9.745,0.0003,-0.0015,9.8066,-0.0002,-0.023,0.0135,-16.75,-28.5,12.25,309.15,-86.06,-171.89
165,52.596283,-1.608857,147.72,0,6,114.12,15 / 18,16512,2020-01-08 17:30:06:443,-0.1014,-0.1473,9.7834,0.0052,0.0007,9.8066,0.0064,-0.013,0.0073,-16.37,-28.69,12.31,310.78,-86.07,-171.7
166,52.596283,-1.608857,147.72,0,6,114.12,15 / 18,16611,2020-01-08 17:30:06:542,-0.0917,-0.0506,9.868,-0.0008,-0.0016,9.8066,0.0017,0.0094,-0.0014,-16.56,-28.25,12.5,311.68,-86.06,-171.81
167,52.596283,-1.608857,147.72,0,6,114.12,15 / 18,16712,2020-01-08 17:30:06:643,0.2105,0.1111,9.8025,0.001,0.0016,9.8066,-0.001,0.0334,0.0025,-16.44,-28.56,12.81,313.17,-86.05,-171.8
168,52.596283,-1.608857,147.72,0,6,114.12,15 / 18,16812,2020-01-08 17:30:06:743,-0.2122,-0.1003,9.7004,0.0042,0.0012,9.8066,0.0094,0.034,-0.0248,-16.0,-27.87,12.31,310.56,-86.03,-172.01
169,52.596283,-1.608857,147.72,0,6,114.12,15 / 18,16912,2020-01-08 17:30:06:843,0.3778,0.1343,9.963,0.0001,0.0008,9.8066,0.0096,0.0341,-0.0249,-15.94,-28.37,12.63,313.31,-86.04,-171.8
170,52.596283,-1.608857,147.72,0,6,114.12,17 / 19,17012,2020-01-08 17:30:06:943,-0.0864,0.0825,9.8106,0.0037,0.0019,9.8066,-0.0012,0.0229,-0.0036,-16.87,-28.62,12.31,309.09,-86.05,-171.78
171,52.596283,-1.608857,147.72,0,6,114.12,17 / 19,17111,2020-01-08 17:30:07:042,0.235,0.1667,9.85,-0.0022,-0.0011,9.8066,-0.0022,0.0005,-0.0093,-16.94,-28.0,12.63,311.79,-86.04,-171.68
172,52.596283,-1.608857,147.72,0,6,114.12,17 / 19,17212,2020-01-08 17:30:07:143,-0.0681,0.105,9.8354,-0.0022,0.0011,9.8066,0.0053,-0.0113,0.0068,-16.19,-28.62,11.88,310.62,-86.05,-171.83
173,52.596283,-1.608857,147.72,0,6,114.12,17 / 19,17312,2020-01-08 17:30:07:243,-0.0404,-0.2953,9.8675,-0.0016,-0.0036,9.8066,0.0068,-0.0141,0.0122,-16.5,-28.81,12.0,310.48,-86.04,-171.95
174,52.596283,-1.608857,147.72,0,6,114.12,17 / 19,17412,2020-01-08 17:30:07:343,0.0235,0.0632,9.9016,-0.0021,-0.0027,9.8066,-0.0028,-0.0446,0.0151,-16.56,-28.44,12.25,309.39,-86.03,-171.62
175,52.596283,-1.608857,147.72,0,6,114.12,17 / 19,17512,2020-01-08 17:30:07:443,-0.2349,-0.0788,9.7018,-0.0018,-0.0048,9.8066,-0.0153,-0.0349,0.0287,-16.81,-29.12,12.63,311.67,-86.04,-171.65
176,52.596283,-1.608857,147.72,0,6,114.12,17 / 19,17612,2020-01-08 17:30:07:543,0.4394,0.2321,9.9586,-0.0059,-0.004,9.8066,-0.0169,-0.0321,0.0258,-17.31,-28.62,12.31,309.83,-86.03,-171.06
177,52.596283,-1.608857,147.72,0,6,114.12,17 / 19,17712,2020-01-08 17:30:07:643,-0.1234,0.0545,9.8304,-0.0023,-0.0009,9.8066,-0.0009,-0.021,0.008,-16.87,-29.06,12.31,309.53,-86.01,-171.32
178,52.596283,-1.608857,147.72,0,6,114.12,17 / 19,17812,2020-01-08 17:30:07:743,-0.1191,-0.0728,9.7796,-0.0001,-0.0026,9.8066,0.0089,0.0313,0.0011,-16.62,-28.44,12.38,310.15,-86.02,-170.89
179,52.596283,-1.608857,147.72,0,6,114.12,17 / 19,17912,2020-01-08 17:30:07:843,0.2355,0.1526,9.9515,0.0044,0.0016,9.8066,0.0161,0.0265,-0.0206,-16.56,-28.81,12.5,312.37,-86.02,-170.98
180,52.596283,-1.608857,147.72,0,6,114.12,13 / 18,18012,2020-01-08 17:30:07:943,0.0236,-0.3081,9.8614,-0.001,0.0,9.8066,-0.0062,0.0237,-0.0191,-16.5,-28.56,12.38,311.52,-86.02,-170.95
181,52.596283,-1.608857,147.72,0,6,114.12,13 / 18,18111,2020-01-08 17:30:08:042,0.2229,0.1641,9.8463,0.0004,0.0029,9.8065,-0.0055,0.0219,-0.0165,-16.12,-28.75,12.25,311.34,-86.02,-171.13
182,52.596283,-1.608857,147.72,0,6,114.12,13 / 18,18212,2020-01-08 17:30:08:143,-0.0683,0.0128,9.7238,0.0041,0.003,9.8066,-0.0008,0.0079,-0.0208,-16.19,-28.75,12.63,313.63,-86.01,-171.32
183,52.596283,-1.608857,147.72,0,6,114.12,13 / 18,18311,2020-01-08 17:30:08:242,0.2423,0.1251,9.9273,-0.0002,0.0007,9.8066,-0.0015,0.0205,-0.0023,-16.19,-29.19,12.31,311.25,-86.02,-171.2
184,52.596283,-1.608857,147.72,0,6,114.12,13 / 18,18412,2020-01-08 17:30:08:343,-0.117,0.0233,9.8298,0.0014,0.0026,9.8066,0.0036,0.0077,0.0052,-15.87,-28.37,12.5,313.9,-86.03,-171.23
185,52.596283,-1.608857,147.72,0,6,114.12,13 / 18,18511,2020-01-08 17:30:08:442,0.1569,0.1425,9.8239,-0.0024,-0.0001,9.8066,-0.0043,0.0034,0.0105,-16.81,-28.81,12.06,309.76,-86.03,-171.13
186,52.596283,-1.608857,147.72,0,6,114.12,13 / 18,18611,2020-01-08 17:30:08:542,-0.2052,-0.1013,9.8271,-0.0018,0.0018,9.8066,-0.0188,-0.0202,0.0216,-16.5,-29.37,12.19,311.4,-86.04,-171.09
187,52.596283,-1.608857,147.72,0,6,114.12,13 / 18,18712,2020-01-08 17:30:08:643,-0.1721,0.0452,9.7726,0.0006,-0.0008,9.8066,0.0011,-0.0298,0.0044,-16.44,-28.56,12.5,314.0,-86.03,-171.01
188,52.596283,-1.608857,147.72,0,6,114.12,13 / 18,18812,2020-01-08 17:30:08:743,0.1965,0.1822,9.9241,-0.0039,-0.0008,9.8066,0.0022,-0.0132,-0.0067,-16.62,-28.31,12.31,310.34,-86.05,-170.75
189,52.596283,-1.608857,147.72,0,6,114.12,13 / 18,18911,2020-01-08 17:30:08:842,0.0239,-0.1519,9.7988,-0.001,-0.0006,9.8066,0.0042,0.0003,-0.0029,-16.12,-28.94,12.44,311.6,-86.04,-170.91
190,52.596283,-1.608857,147.72,0,6,114.12,13 / 18,19012,2020-01-08 17:30:08:943,0.0246,-0.0252,9.9279,-0.003,-0.0007,9.8066,0.0106,0.0117,-0.0237,-16.56,-28.25,12.0,310.21,-86.04,-170.87
191,52.596283,-1.608857,147.72,0,6,114.12,May-25,19112,2020-01-08 17:30:09:043,-0.0771,-0.1909,9.8713,-0.0004,-0.0005,9.8066,-0.004,0.0426,-0.0087,-16.56,-29.19,12.25,309.76,-86.04,-171.14
192,52.596283,-1.608857,147.72,0,6,114.12,May-25,19212,2020-01-08 17:30:09:143,0.0244,0.0663,9.8276,-0.0009,-0.0037,9.8066,-0.0004,0.0413,-0.0187,-16.12,-28.87,12.5,314.22,-86.03,-170.81
193,52.596283,-1.608857,147.72,0,6,114.12,May-25,19312,2020-01-08 17:30:09:243,0.1012,0.2562,9.8649,0.0046,0.0048,9.8066,0.0016,0.033,-0.0295,-16.87,-28.5,11.63,310.43,-86.03,-170.64
194,52.596283,-1.608857,147.72,0,6,114.12,May-25,19411,2020-01-08 17:30:09:342,0.0905,0.1463,9.7756,-0.0007,0.0011,9.8066,-0.0096,0.015,-0.0025,-16.31,-28.56,12.56,313.85,-86.04,-171.15
195,52.596283,-1.608857,147.72,0,6,114.12,May-25,19512,2020-01-08 17:30:09:443,0.1864,0.2037,9.9912,0.0046,0.0035,9.8066,-0.0123,-0.0102,-0.0005,-16.25,-28.69,12.44,311.01,-86.02,-171.43
196,52.596283,-1.608857,147.72,0,6,114.12,May-25,19612,2020-01-08 17:30:09:543,-0.0871,-0.3416,9.7461,0.0045,0.0051,9.8066,0.0005,-0.0106,0.0079,-16.37,-28.44,11.81,311.11,-86.03,-171.5
197,52.596283,-1.608857,147.72,0,6,114.12,May-25,19712,2020-01-08 17:30:09:643,0.064,0.2528,9.8074,0.0008,0.0012,9.8066,-0.0006,-0.0105,0.0188,-16.69,-28.56,12.44,309.46,-86.03,-171.42
198,52.596283,-1.608857,147.72,0,6,114.12,May-25,19812,2020-01-08 17:30:09:743,0.0062,-0.3515,9.9295,0.0021,0.0046,9.8066,0.0009,-0.0289,0.0151,-16.56,-28.69,11.5,309.35,-86.04,-171.52
199,52.596283,-1.608857,147.72,0,6,114.12,May-25,19912,2020-01-08 17:30:09:843,-0.1077,0.0743,9.7873,-0.003,-0.001,9.8066,-0.001,-0.0428,0.021,-16.44,-28.37,11.88,311.25,-86.03,-171.37
200,52.596283,-1.608857,147.72,0,6,114.12,16 / 19,20012,2020-01-08 17:30:09:943,-0.152,-0.3005,9.8585,0.0013,0.0043,9.8066,0.0025,-0.049,0.0166,-16.44,-28.75,11.88,311.09,-86.04,-171.38
201,52.596283,-1.608857,147.72,0,6,114.12,16 / 19,20111,2020-01-08 17:30:10:042,-0.1068,0.0827,9.7743,-0.0012,-0.0035,9.8066,0.0134,-0.0051,0.0008,-16.62,-28.19,12.25,309.78,-86.04,-171.27
202,52.596283,-1.608857,147.72,0,6,114.12,16 / 19,20212,2020-01-08 17:30:10:143,0.3315,0.0966,9.95,-0.0011,0.0017,9.8066,0.0157,0.0239,0.0065,-16.62,-28.0,12.69,312.28,-86.04,-171.22
203,52.596283,-1.608857,147.72,0,6,114.12,16 / 19,20312,2020-01-08 17:30:10:243,0.0481,0.1009,9.8233,-0.0037,-0.0036,9.8066,-0.0071,0.0355,-0.0062,-16.25,-28.5,12.5,314.45,-86.04,-170.72
204,52.596283,-1.608857,147.72,0,6,114.12,16 / 19,20411,2020-01-08 17:30:10:342,0.2594,0.0688,9.8679,0.0007,0.0003,9.8066,-0.0125,0.0326,-0.0027,-16.56,-28.19,11.69,309.89,-86.02,-171.15
205,52.596283,-1.608857,147.72,0,6,114.12,16 / 19,20512,2020-01-08 17:30:10:443,-0.0337,-0.0568,9.9315,0.0014,-0.0029,9.8066,-0.0201,0.0374,-0.0083,-16.44,-28.5,12.13,311.53,-86.04,-171.11
206,52.596283,-1.608857,147.72,0,6,114.12,16 / 19,20612,2020-01-08 17:30:10:543,0.3034,0.0768,9.9944,-0.0014,-0.0017,9.8066,0.0053,0.0087,-0.0137,-16.44,-28.37,11.5,311.83,-86.04,-170.83
207,52.596283,-1.608857,147.72,0,6,114.12,16 / 19,20711,2020-01-08 17:30:10:642,-0.1865,-0.0415,9.8179,0.0005,0.0011,9.8066,0.0026,0.0061,-0.0054,-16.19,-28.25,11.56,311.67,-86.03,-170.97
208,52.596283,-1.608857,147.72,0,6,114.12,16 / 19,20812,2020-01-08 17:30:10:743,-0.0457,-0.1138,9.844,0.0026,-0.0012,9.8066,-0.0003,0.0023,0.014,-16.69,-29.0,11.94,309.45,-86.02,-171.41
209,52.596283,-1.608857,147.72,0,6,114.12,16 / 19,20911,2020-01-08 17:30:10:842,0.1587,0.0258,9.9406,0.0022,0.0003,9.8066,-0.0088,-0.016,-0.0013,-16.25,-28.62,12.06,311.13,-86.02,-171.32
210,52.596283,-1.608857,147.72,0,6,114.12,17 / 21,21012,2020-01-08 17:30:10:943,-0.0568,-0.0384,9.8173,0.0032,0.0011,9.8066,-0.0104,-0.0005,0.017,-16.56,-28.69,11.63,309.39,-86.02,-171.46
211,52.596283,-1.608857,147.72,0,6,114.12,17 / 21,21112,2020-01-08 17:30:11:043,0.2396,0.092,9.9221,0.0006,0.0017,9.8066,0.0059,-0.0045,-0.0068,-16.69,-28.81,12.06,309.41,-86.01,-171.44
212,52.596283,-1.608857,147.72,0,6,114.12,17 / 21,21212,2020-01-08 17:30:11:143,0.026,0.0838,9.8527,0.0034,0.0011,9.8066,-0.0061,-0.038,0.003,-16.44,-28.56,11.88,310.64,-86.01,-171.76
213,52.596283,-1.608857,147.72,0,6,114.12,17 / 21,21312,2020-01-08 17:30:11:243,0.4067,0.2126,10.0002,-0.0035,-0.0004,9.8066,0.0067,0.0463,-0.0153,-16.87,-28.81,11.75,309.02,-86.01,-171.8
214,52.596283,-1.608857,147.72,0,6,114.12,17 / 21,21412,2020-01-08 17:30:11:343,-0.1953,0.0061,9.7759,0.005,0.0003,9.8066,-0.0104,-0.0084,0.0078,-15.87,-29.44,11.69,310.48,-86.01,-171.92
215,52.596283,-1.608857,147.72,0,6,114.12,17 / 21,21512,2020-01-08 17:30:11:443,-0.1657,-0.0078,9.7735,-0.0014,-0.0039,9.8066,-0.0081,0.0476,-0.0228,-16.25,-28.69,11.56,310.75,-86.01,-171.66
216,52.596283,-1.608857,147.72,0,6,114.12,17 / 21,21612,2020-01-08 17:30:11:543,0.3712,0.2264,9.9416,-0.0024,-0.0004,9.8066,0.0152,0.0328,-0.009,-16.75,-28.69,11.75,309.07,-86.01,-171.76
217,52.596283,-1.608857,147.72,0,6,114.12,17 / 21,21712,2020-01-08 17:30:11:643,-0.0002,0.0656,9.8633,-0.0053,-0.0052,9.8066,0.0055,0.0221,-0.0308,-17.12,-28.56,11.69,308.88,-86.0,-171.92
218,52.596283,-1.608857,147.72,0,6,114.12,17 / 21,21812,2020-01-08 17:30:11:743,0.2899,0.1913,9.8447,0.002,-0.0024,9.8066,-0.0129,0.0491,-0.014,-16.56,-28.62,11.88,309.19,-85.99,-171.62
219,52.596283,-1.608857,147.72,0,6,114.12,17 / 21,21912,2020-01-08 17:30:11:843,-0.1485,-0.1763,9.925,0.0015,-0.0023,9.8066,-0.0049,0.0105,0.0026,-17.0,-28.94,12.25,309.27,-85.99,-171.54
220,52.596283,-1.608857,147.72,0,6,114.12,17 / 21,22012,2020-01-08 17:30:11:943,0.3068,0.193,9.9375,-0.0029,-0.0046,9.8066,0.0006,0.0191,-0.0216,-17.06,-28.81,12.06,309.48,-85.99,-171.35
221,52.596283,-1.608857,147.72,0,6,114.12,19 / 23,22112,2020-01-08 17:30:12:043,-0.2605,-0.1086,9.8459,0.0015,0.0011,9.8066,0.0013,-0.0141,0.0116,-16.62,-28.19,12.25,309.63,-85.99,-171.36
222,52.596283,-1.608857,147.72,0,6,114.12,19 / 23,22212,2020-01-08 17:30:12:143,-0.1876,-0.1148,9.7991,0.0,-0.0024,9.8066,-0.0111,0.022,0.0043,-16.75,-28.44,12.5,311.79,-85.97,-171.61
223,52.596283,-1.608857,147.72,0,6,114.12,19 / 23,22312,2020-01-08 17:30:12:243,-0.1171,-0.0483,9.8388,0.0033,0.0034,9.8066,-0.006,-0.0386,0.0097,-16.37,-28.87,12.63,313.31,-85.99,-171.6
224,52.596283,-1.608857,147.72,0,6,114.12,19 / 23,22412,2020-01-08 17:30:12:343,-0.0335,-0.0949,9.89,0.0005,0.0018,9.8066,0.0019,-0.0037,0.0121,-16.87,-28.81,12.31,308.71,-86.0,-172.07
225,52.596283,-1.608857,147.72,0,6,114.12,19 / 23,22512,2020-01-08 17:30:12:443,0.0549,0.1243,9.7567,-0.0014,0.0013,9.8066,0.0085,-0.0117,0.0001,-16.19,-28.5,12.25,310.7,-86.0,-171.85
226,52.596283,-1.608857,147.72,0,6,114.12,19 / 23,22612,2020-01-08 17:30:12:543,-0.1666,-0.1661,9.7257,0.0012,0.0019,9.8066,-0.0047,-0.0277,0.0072,-16.56,-28.56,11.75,308.83,-85.99,-171.96
227,52.596283,-1.608857,147.72,0,6,114.12,19 / 23,22711,2020-01-08 17:30:12:642,0.1932,0.1558,9.9079,-0.0012,0.0018,9.8066,0.0094,0.0322,0.0002,-16.37,-28.44,12.44,310.5,-86.01,-172.04
228,52.596283,-1.608857,147.72,0,6,114.12,19 / 23,22812,2020-01-08 17:30:12:743,-0.2419,-0.0597,9.7804,0.0028,0.0009,9.8066,-0.0057,-0.0173,0.0092,-16.81,-28.37,12.38,308.86,-86.0,-172.09
229,52.596283,-1.608857,147.72,0,6,114.12,19 / 23,22911,2020-01-08 17:30:12:842,-0.1549,-0.0656,9.8276,-0.0009,-0.0014,9.8066,-0.0055,0.0279,-0.012,-16.56,-28.81,12.75,311.23,-86.01,-172.03
230,52.596283,-1.608857,147.72,0,6,114.12,20 / 22,23012,2020-01-08 17:30:12:943,-0.088,-0.0311,9.8435,-0.0012,0.0004,9.8065,0.0078,0.0266,-0.0058,-16.44,-28.69,12.19,310.26,-86.0,-172.11
231,52.596283,-1.608857,147.72,0,6,114.12,20 / 22,23112,2020-01-08 17:30:13:043,-0.0473,-0.1493,9.8205,-0.0025,-0.0026,9.8066,0.0002,0.0028,-0.0149,-16.56,-28.81,11.88,308.51,-85.99,-172.26
232,52.596283,-1.608857,147.72,0,6,114.12,20 / 22,23212,2020-01-08 17:30:13:143,0.0456,0.1267,9.8121,0.0003,-0.0013,9.8066,-0.001,0.022,-0.0163,-17.12,-28.62,12.06,308.68,-85.98,-172.09
233,52.596283,-1.608857,147.72,0,6,114.12,20 / 22,23312,2020-01-08 17:30:13:243,-0.1932,-0.1878,9.7346,0.001,-0.0015,9.8066,-0.0107,0.0071,0.0091,-16.44,-29.06,11.63,310.03,-85.99,-172.31
234,52.596283,-1.608857,147.72,0,6,114.12,20 / 22,23412,2020-01-08 17:30:13:343,0.1881,0.1599,9.8974,-0.0023,-0.0025,9.8066,0.0075,0.0087,-0.0179,-16.12,-28.25,11.88,310.29,-85.98,-172.21
235,52.596283,-1.608857,147.72,0,6,114.12,20 / 22,23511,2020-01-08 17:30:13:442,-0.0125,0.1396,9.8519,-0.0011,-0.0015,9.8066,-0.0038,-0.012,0.0106,-16.31,-28.44,12.19,310.17,-85.98,-172.32
236,52.596283,-1.608857,147.72,0,6,114.12,20 / 22,23612,2020-01-08 17:30:13:543,0.1373,0.1522,9.8586,-0.0002,-0.0005,9.8066,-0.0027,0.0078,0.01,-16.62,-28.37,12.38,308.72,-85.98,-172.2
237,52.596283,-1.608857,147.72,0,6,114.12,20 / 22,23712,2020-01-08 17:30:13:643,-0.014,0.1718,9.8442,0.0023,0.0022,9.8066,0.001,-0.0495,0.002,-16.06,-28.44,12.0,310.5,-85.98,-172.02
238,52.596283,-1.608857,147.72,0,6,114.12,20 / 22,23811,2020-01-08 17:30:13:742,-0.0408,-0.1967,9.8472,0.0007,0.0024,9.8066,0.0001,-0.0203,0.0206,-16.06,-28.81,12.5,312.46,-85.98,-172.38
239,52.596283,-1.608857,147.72,0,6,114.12,20 / 22,23912,2020-01-08 17:30:13:843,0.1237,0.1564,9.8562,0.0003,0.0024,9.8066,0.0169,-0.0315,-0.007,-16.19,-28.44,11.81,310.06,-85.99,-172.43
240,52.596283,-1.608857,147.72,0,6,114.12,20 / 22,24011,2020-01-08 17:30:13:942,-0.2356,-0.2001,9.7643,0.0044,0.004,9.8066,-0.0126,-0.0357,0.0197,-17.25,-28.44,11.94,308.67,-85.97,-172.24
241,52.596283,-1.608857,147.72,0,6,114.12,21 / 23,24112,2020-01-08 17:30:14:043,0.1812,0.1686,9.9246,-0.0001,0.0002,9.8066,-0.003,0.0309,0.002,-16.31,-29.0,12.25,309.72,-85.98,-172.59
242,52.596283,-1.608857,147.72,0,6,114.12,21 / 23,24212,2020-01-08 17:30:14:143,0.0129,0.1241,9.8209,0.0008,0.0011,9.8066,0.0039,-0.0121,0.0021,-16.06,-28.5,12.06,310.0,-85.99,-172.49
243,52.596283,-1.608857,147.72,0,6,114.12,21 / 23,24311,2020-01-08 17:30:14:242,0.1095,0.1261,9.8827,-0.0026,-0.0019,9.8066,0.0058,0.0356,-0.0211,-16.19,-28.44,12.44,309.86,-85.98,-172.61
244,52.596283,-1.608857,147.72,0,6,114.12,21 / 23,24412,2020-01-08 17:30:14:343,-0.0817,0.1887,9.8003,-0.001,0.0003,9.8066,0.0004,0.0346,-0.0067,-16.12,-28.56,12.25,309.66,-85.98,-172.65
245,52.596283,-1.608857,147.72,0,6,114.12,21 / 23,24511,2020-01-08 17:30:14:442,0.0325,-0.3014,9.9057,-0.0003,-0.0025,9.8066,-0.0076,0.0156,-0.0084,-16.31,-28.81,12.13,309.72,-85.97,-172.58
246,52.596283,-1.608857,147.72,0,6,114.12,21 / 23,24611,2020-01-08 17:30:14:542,-0.0144,0.0995,9.8574,-0.0016,-0.0039,9.8066,0.0005,0.0296,-0.0262,-16.44,-29.25,12.13,309.85,-85.97,-172.45
247,52.596283,-1.608857,147.72,0,6,114.12,21 / 23,24712,2020-01-08 17:30:14:643,0.0169,-0.2387,9.7994,0.0013,-0.0014,9.8066,-0.0093,0.0146,0.0168,-16.44,-28.69,11.88,309.45,-85.97,-172.83
248,52.596283,-1.608857,147.72,0,6,114.12,21 / 23,24812,2020-01-08 17:30:14:743,0.0441,0.0875,9.8398,-0.0047,-0.0022,9.8066,0.0072,0.0115,-0.0371,-16.44,-28.81,12.25,310.04,-85.96,-172.27
249,52.596283,-1.608857,147.72,0,6,114.12,21 / 23,24912,2020-01-08 17:30:14:843,-0.0358,0.0696,9.9138,-0.0003,-0.0006,9.8066,-0.0124,-0.0006,0.0085,-16.0,-28.75,12.5,312.12,-85.96,-172.68
250,52.596283,-1.608857,147.72,0,6,114.12,20 / 23,25011,2020-01-08 17:30:14:942,0.1475,0.1591,9.8353,0.0018,0.0,9.8066,-0.0016,-0.0127,0.0068,-16.19,-28.37,12.5,312.33,-85.96,-172.63
251,52.596283,-1.608857,147.72,0,6,114.12,20 / 23,25111,2020-01-08 17:30:15:042,0.0047,0.1448,9.8473,0.0028,-0.0004,9.8066,-0.0098,-0.0392,0.0006,-16.75,-28.56,12.81,310.5,-85.95,-172.65
252,52.596283,-1.608857,147.72,0,6,114.12,20 / 23,25212,2020-01-08 17:30:15:143,-0.0429,-0.2951,9.9289,0.0013,0.0036,9.8066,0.0059,-0.0077,0.02,-16.25,-28.75,12.13,309.58,-85.96,-172.69
253,52.596283,-1.608857,147.72,0,6,114.12,20 / 23,25312,2020-01-08 17:30:15:243,0.0928,0.1033,9.9258,-0.0019,0.0015,9.8066,0.014,-0.021,-0.0057,-16.44,-28.69,11.75,309.67,-85.96,-172.61
254,52.596283,-1.608857,147.72,0,6,114.12,20 / 23,25412,2020-01-08 17:30:15:343,-0.1097,-0.2923,9.7482,0.0015,0.0008,9.8066,-0.0158,-0.04,0.0206,-16.19,-28.81,12.31,309.73,-85.96,-172.56
255,52.596283,-1.608857,147.72,0,6,114.12,20 / 23,25511,2020-01-08 17:30:15:442,-0.0148,0.0669,9.8229,-0.0042,-0.0029,9.8066,-0.0007,0.0304,0.0078,-16.81,-28.69,11.94,308.32,-85.96,-172.41
256,52.596283,-1.608857,147.72,0,6,114.12,20 / 23,25612,2020-01-08 17:30:15:543,0.0342,-0.3346,9.8637,0.0019,0.0012,9.8066,0.0083,-0.0093,-0.0023,-16.31,-29.44,11.56,309.71,-85.95,-172.56
257,52.596283,-1.608857,147.72,0,6,114.12,20 / 23,25712,2020-01-08 17:30:15:643,0.2761,0.1599,9.9752,0.0016,-0.002,9.8066,0.0143,0.0389,-0.0347,-16.06,-28.81,12.0,309.71,-85.95,-172.56
258,52.596283,-1.608857,147.72,0,6,114.12,20 / 23,25812,2020-01-08 17:30:15:743,-0.0352,0.2135,9.7671,0.0011,0.0038,9.8066,-0.0139,0.0395,0.0036,-16.37,-27.94,12.5,312.08,-85.96,-172.86
259,52.596283,-1.608857,147.72,0,6,114.12,20 / 23,25912,2020-01-08 17:30:15:843,-0.0091,-0.3381,9.901,0.0009,0.0023,9.8066,-0.0096,0.0193,-0.0139,-16.25,-28.81,11.94,309.39,-85.95,-172.87
260,52.596283,-1.608857,147.72,0,6,114.12,20 / 23,26012,2020-01-08 17:30:15:943,0.0652,0.1206,9.9091,0.0013,0.0033,9.8066,0.0072,0.0352,-0.0302,-15.87,-28.75,12.25,309.4,-85.94,-172.84
261,52.596283,-1.608857,147.72,0,6,114.12,20 / 23,26112,2020-01-08 17:30:16:043,-0.0656,-0.3207,9.78,0.0048,0.0014,9.8066,-0.0018,0.0198,0.007,-16.62,-28.62,11.88,307.7,-85.93,-172.96
262,52.596283,-1.608857,147.72,0,6,114.12,20 / 23,26212,2020-01-08 17:30:16:143,-0.0355,0.0725,9.826,0.0015,-0.0003,9.8066,-0.0004,0.0154,-0.0225,-16.44,-28.69,11.88,307.81,-85.95,-172.88
263,52.596283,-1.608857,147.72,0,6,114.12,20 / 23,26312,2020-01-08 17:30:16:243,-0.0973,-0.3161,9.7889,-0.0014,0.0016,9.8066,-0.0152,-0.0192,0.0228,-16.62,-28.19,12.44,308.06,-85.95,-172.79
264,52.596283,-1.608857,147.72,0,6,114.12,20 / 23,26411,2020-01-08 17:30:16:342,-0.1113,0.071,9.8539,-0.0037,-0.0028,9.8066,0.0001,0.0132,-0.002,-16.75,-29.0,12.56,310.1,-85.93,-173.0
265,52.596283,-1.608857,147.72,0,6,114.12,20 / 23,26512,2020-01-08 17:30:16:443,0.2589,0.1854,9.893,0.0013,0.0021,9.8066,-0.0057,-0.0511,0.009,-16.06,-28.12,12.5,311.98,-85.94,-172.93
266,52.596283,-1.608857,147.72,0,6,114.12,20 / 23,26612,2020-01-08 17:30:16:543,-0.0653,0.1937,9.7421,-0.0012,-0.006,9.8066,0.0103,-0.0138,0.0199,-16.44,-28.81,12.38,309.54,-85.92,-172.69
267,52.596283,-1.608857,147.72,0,6,114.12,20 / 23,26712,2020-01-08 17:30:16:643,0.2936,0.195,9.9756,-0.0031,0.0004,9.8066,0.0009,-0.0311,0.0035,-17.0,-28.37,12.25,308.03,-85.95,-172.82
268,52.596283,-1.608857,147.72,0,6,114.12,20 / 23,26811,2020-01-08 17:30:16:742,-0.1099,-0.3575,9.7938,-0.0024,-0.0041,9.8066,-0.0118,-0.0426,0.026,-16.81,-29.25,11.94,307.52,-85.95,-173.14
269,52.596283,-1.608857,147.72,0,6,114.12,20 / 23,26912,2020-01-08 17:30:16:843,0.0216,0.1013,9.8306,-0.0038,-0.0025,9.8066,0.0034,0.0059,0.0015,-16.19,-28.69,12.31,309.47,-85.94,-172.77
270,52.596283,-1.608857,147.72,0,6,114.12,20 / 21,27012,2020-01-08 17:30:16:943,-0.0404,0.1378,9.8989,0.0029,0.0016,9.8066,0.0032,-0.0224,0.0077,-16.44,-29.06,12.19,309.42,-85.96,-172.84
271,52.596283,-1.608857,147.72,0,6,114.12,20 / 21,27111,2020-01-08 17:30:17:042,-0.1325,-0.1072,9.8274,-0.0019,-0.0025,9.8066,0.0057,0.0415,-0.0208,-16.0,-28.62,11.81,309.34,-85.96,-172.92
272,52.596283,-1.608857,147.72,0,6,114.12,20 / 21,27212,2020-01-08 17:30:17:143,-0.1959,-0.1759,9.8217,0.0,0.0022,9.8066,-0.0021,0.0175,0.0025,-16.44,-29.06,11.75,309.09,-85.96,-173.16
273,52.596283,-1.608857,147.72,0,6,114.12,20 / 21,27312,2020-01-08 17:30:17:243,-0.1723,-0.1032,9.7863,0.0026,0.0008,9.8066,-0.0079,0.0377,-0.0156,-16.81,-28.37,12.31,307.77,-85.95,-173.07
274,52.596283,-1.608857,147.72,0,6,114.12,20 / 21,27412,2020-01-08 17:30:17:343,0.4107,0.2227,9.9541,0.0036,0.0038,9.8066,0.0188,0.0337,-0.0346,-16.81,-28.25,12.13,307.95,-85.95,-172.9
275,52.596283,-1.608857,147.72,0,6,114.12,20 / 21,27511,2020-01-08 17:30:17:442,-0.1838,-0.0208,9.8218,0.0039,0.0016,9.8066,-0.0003,0.0195,-0.0084,-16.0,-28.06,12.44,309.55,-85.96,-172.87
276,52.596283,-1.608857,147.72,0,6,114.12,20 / 21,27612,2020-01-08 17:30:17:543,0.1861,0.1977,9.8647,-0.001,-0.0001,9.8066,-0.0037,0.0321,-0.0143,-16.44,-28.56,11.88,309.36,-85.96,-172.9
277,52.596283,-1.608857,147.72,0,6,114.12,20 / 21,27712,2020-01-08 17:30:17:643,-0.1302,-0.2145,9.8281,0.0043,0.0044,9.8066,-0.0056,-0.0037,0.0078,-17.0,-28.69,12.31,307.52,-85.95,-173.14
278,52.596283,-1.608857,147.72,0,6,114.12,20 / 21,27812,2020-01-08 17:30:17:743,-0.0298,0.1116,9.8628,-0.0022,-0.0014,9.8066,0.0013,0.0106,-0.0015,-17.0,-28.87,12.0,308.2,-85.95,-172.51
279,52.596283,-1.608857,147.72,0,6,114.12,20 / 21,27912,2020-01-08 17:30:17:843,0.039,0.2328,9.8614,0.0022,0.0035,9.8066,-0.006,-0.0394,0.0174,-16.0,-28.69,12.19,309.22,-85.96,-173.03
280,52.596283,-1.608857,147.72,0,6,114.12,19 / 23,28012,2020-01-08 17:30:17:943,-0.0134,0.1908,9.8113,-0.003,-0.0047,9.8066,-0.002,-0.0124,0.0155,-16.31,-28.81,12.31,309.38,-85.95,-172.87
281,52.596283,-1.608857,147.72,0,6,114.12,19 / 23,28112,2020-01-08 17:30:18:043,-0.1273,0.0029,9.862,-0.0039,-0.0015,9.8066,-0.0065,-0.0383,0.025,-16.75,-28.69,12.56,310.7,-85.96,-172.47
282,52.596283,-1.608857,147.72,0,6,114.12,19 / 23,28211,2020-01-08 17:30:18:142,-0.1365,-0.2946,9.8631,-0.0017,-0.0023,9.8066,-0.0066,-0.0288,0.0158,-16.56,-28.81,12.06,308.05,-85.95,-172.65
283,52.596283,-1.608857,147.72,0,6,114.12,19 / 23,28312,2020-01-08 17:30:18:243,0.0444,0.1523,9.8698,-0.0028,-0.0029,9.8065,0.0011,0.0002,0.003,-16.81,-28.56,12.06,308.28,-85.95,-172.44
284,52.596283,-1.608857,147.72,0,6,114.12,19 / 23,28412,2020-01-08 17:30:18:343,-0.2044,-0.2276,9.7716,0.0019,0.0001,9.8066,-0.0019,-0.051,0.0128,-16.25,-28.56,12.56,312.23,-85.95,-172.57
285,52.596283,-1.608857,147.72,0,6,114.12,19 / 23,28512,2020-01-08 17:30:18:443,0.1558,0.1011,9.9335,-0.0023,-0.0026,9.8066,0.0102,0.0305,-0.0197,-16.69,-28.87,12.25,308.37,-85.95,-172.35
286,52.596283,-1.608857,147.72,0,6,114.12,19 / 23,28612,2020-01-08 17:30:18:543,-0.0122,0.0305,9.8477,0.0018,0.0037,9.8066,0.0003,-0.0061,-0.0039,-16.37,-28.5,12.06,310.11,-85.95,-172.34
287,52.596283,-1.608857,147.72,0,6,114.12,19 / 23,28712,2020-01-08 17:30:18:643,-0.2893,-0.3001,9.7636,0.0003,0.0021,9.8066,0.0046,0.0644,-0.0297,-16.25,-28.25,12.19,309.9,-85.97,-172.56
288,52.596283,-1.608857,147.72,0,6,114.12,19 / 23,28812,2020-01-08 17:30:18:743,-0.0881,-0.059,9.7842,0.0032,0.0056,9.8066,0.0044,0.032,-0.0258,-16.56,-28.62,11.75,308.18,-85.96,-172.53
289,52.596283,-1.608857,147.72,0,6,114.12,19 / 23,28912,2020-01-08 17:30:18:843,-0.094,0.0104,9.8752,0.0021,0.0033,9.8066,-0.0012,0.0432,-0.0282,-16.0,-28.56,12.88,312.04,-85.97,-172.77
290,52.596283,-1.608857,147.72,0,6,114.12,20 / 23,29012,2020-01-08 17:30:18:943,0.0214,0.1547,9.8541,0.0029,0.0035,9.8066,-0.0004,0.0619,-0.0171,-16.44,-28.19,12.0,309.61,-85.98,-172.85
291,52.596283,-1.608857,147.72,0,6,114.12,20 / 23,29112,2020-01-08 17:30:19:043,-0.2298,-0.3847,9.8226,0.0033,0.0056,9.8066,0.001,0.0002,-0.0189,-16.12,-28.87,12.0,309.41,-85.98,-172.89
292,52.596283,-1.608857,147.72,0,6,114.12,20 / 23,29212,2020-01-08 17:30:19:143,0.1268,0.1166,9.8998,0.001,0.0018,9.8066,0.0005,0.0592,-0.0299,-16.37,-29.06,12.81,312.16,-85.98,-172.67
293,52.596283,-1.608857,147.72,0,6,114.12,20 / 23,29312,2020-01-08 17:30:19:243,-0.3121,-0.3072,9.797,0.0023,0.0031,9.8066,-0.0069,-0.0263,0.0186,-16.44,-28.44,11.5,309.56,-85.98,-172.9
294,52.596283,-1.608857,147.72,0,6,114.12,20 / 23,29412,2020-01-08 17:30:19:343,0.2804,0.1688,9.9179,-0.0004,-0.0019,9.8066,0.0054,0.0126,-0.021,-16.69,-29.12,12.31,307.8,-85.98,-172.91
295,52.596283,-1.608857,147.72,0,6,114.12,20 / 23,29511,2020-01-08 17:30:19:442,-0.0139,0.2814,9.7825,0.0026,0.0018,9.8066,0.0026,-0.0353,0.0203,-15.69,-28.69,12.44,309.21,-85.97,-173.06
296,52.596283,-1.608857,147.72,0,6,114.12,20 / 23,29611,2020-01-08 17:30:19:542,0.3217,0.1763,9.8704,-0.0012,-0.0037,9.8066,-0.0016,-0.0189,0.0121,-16.37,-28.44,12.38,309.71,-85.96,-172.73
297,52.596283,-1.608857,147.72,0,6,114.12,20 / 23,29712,2020-01-08 17:30:19:643,0.0688,0.213,9.8798,-0.0019,0.0009,9.8066,-0.0001,-0.0468,0.0218,-16.25,-27.94,12.25,309.37,-85.97,-173.07
298,52.596283,-1.608857,147.72,0,6,114.12,20 / 23,29812,2020-01-08 17:30:19:743,-0.2997,-0.3589,9.7915,-0.0048,-0.0049,9.8066,-0.0035,-0.0321,0.0328,-16.06,-28.75,12.06,309.07,-85.96,-173.17
299,52.596283,-1.608857,147.72,0,6,114.12,20 / 23,29911,2020-01-08 17:30:19:842,0.356,0.3189,9.9203,-0.0028,-0.003,9.8066,-0.0088,-0.0372,0.0221,-17.0,-28.94,12.0,307.95,-85.97,-172.76
300,52.596283,-1.608857,147.72,0,6,114.12,21 / 22,30012,2020-01-08 17:30:19:943,-0.3512,-0.111,9.7971,-0.0037,-0.0037,9.8066,-0.0086,-0.0485,0.0338,-16.25,-29.0,11.56,309.91,-85.97,-172.4
301,52.596283,-1.608857,147.72,0,6,114.12,21 / 22,30112,2020-01-08 17:30:20:043,0.3479,0.3576,9.9292,-0.0058,-0.0053,9.8066,-0.0064,-0.0045,0.0075,-16.37,-28.75,12.19,310.03,-85.97,-172.29
302,52.596283,-1.608857,147.72,0,6,114.12,21 / 22,30212,2020-01-08 17:30:20:143,-0.1613,-0.0774,9.795,-0.0036,-0.0008,9.8066,-0.0164,-0.0439,0.0339,-16.25,-28.5,12.13,309.98,-85.98,-172.5
303,52.596283,-1.608857,147.72,0,6,114.12,21 / 22,30312,2020-01-08 17:30:20:243,0.3826,0.344,9.9227,-0.0018,-0.0051,9.8066,0.0099,0.022,-0.0199,-16.37,-28.37,12.19,310.31,-85.99,-172.2
304,52.596283,-1.608857,147.72,0,6,114.12,21 / 22,30412,2020-01-08 17:30:20:343,-0.1057,-0.1775,9.8449,-0.0012,0.0012,9.8066,-0.0062,-0.0238,0.0153,-16.75,-28.12,12.06,308.37,-86.0,-172.55
305,52.596283,-1.608857,147.72,0,6,114.12,21 / 22,30512,2020-01-08 17:30:20:443,-0.2565,-0.2327,9.7892,-0.0027,-0.0031,9.8066,0.0016,0.068,-0.0263,-16.06,-27.87,12.5,312.85,-86.01,-172.2
306,52.596283,-1.608857,147.72,0,6,114.12,21 / 22,30612,2020-01-08 17:30:20:543,-0.137,-0.2852,9.8826,0.0019,0.0045,9.8066,0.0015,0.0082,-0.0025,-16.81,-28.62,12.0,308.51,-86.01,-172.28
307,52.596283,-1.608857,147.72,0,6,114.12,21 / 22,30712,2020-01-08 17:30:20:643,-0.2805,-0.1944,9.7395,0.0027,0.001,9.8066,-0.0092,0.0511,-0.0223,-16.94,-28.0,12.25,308.6,-86.0,-172.33
308,52.596283,-1.608857,147.72,0,6,114.12,21 / 22,30812,2020-01-08 17:30:20:743,0.4247,0.3531,9.8821,0.0054,0.0052,9.8066,0.0064,0.0553,-0.0226,-16.69,-28.87,11.88,308.27,-86.0,-172.5
309,52.596283,-1.608857,147.72,0,6,114.12,21 / 22,30912,2020-01-08 17:30:20:843,-0.1342,-0.4269,9.8609,0.0048,0.0035,9.8066,0.0066,0.0203,-0.0172,-16.12,-28.75,11.25,307.16,-85.98,-172.49
310,52.596283,-1.608857,147.72,0,6,114.12,22 / 23,31012,2020-01-08 17:30:20:943,0.1644,0.3361,9.8199,-0.0009,0.002,9.8066,-0.0114,0.0441,-0.0206,-16.81,-28.94,12.25,308.66,-85.99,-172.12
311,52.596283,-1.608857,147.72,0,6,114.12,22 / 23,31112,2020-01-08 17:30:21:043,-0.1789,-0.1544,9.8701,0.0007,0.0052,9.8066,-0.0151,-0.01,0.0085,-16.5,-28.44,11.94,310.3,-86.01,-172.23
312,52.596283,-1.608857,147.72,0,6,114.12,22 / 23,31211,2020-01-08 17:30:21:142,0.0645,0.2326,9.8139,-0.0018,-0.0005,9.8066,0.0099,0.0212,-0.0187,-16.94,-28.5,12.25,308.74,-86.0,-172.2
313,52.596283,-1.608857,147.72,0,6,114.12,22 / 23,31312,2020-01-08 17:30:21:243,0.1973,0.0893,9.8436,-0.0006,0.0009,9.8066,0.0005,-0.0257,0.022,-16.56,-28.69,11.69,308.81,-86.01,-172.0
314,52.596283,-1.608857,147.72,0,6,114.12,22 / 23,31412,2020-01-08 17:30:21:343,-0.1561,0.2209,9.676,0.0017,-0.0028,9.8065,-0.0055,-0.0059,0.0061,-16.69,-29.19,12.06,308.95,-86.02,-171.88
315,52.596283,-1.608857,147.72,0,6,114.12,22 / 23,31512,2020-01-08 17:30:21:443,0.2617,0.0344,9.9306,-0.0038,0.0016,9.8066,-0.0008,-0.0291,0.0148,-16.44,-28.44,12.5,313.07,-86.02,-172.0
316,52.596283,-1.608857,147.72,0,6,114.12,22 / 23,31611,2020-01-08 17:30:21:542,-0.2611,-0.0658,9.832,0.0014,0.0007,9.8066,-0.009,-0.0125,0.0187,-16.69,-28.62,11.94,308.9,-86.01,-171.92
317,52.596283,-1.608857,147.72,0,6,114.12,22 / 23,31711,2020-01-08 17:30:21:642,0.1571,-0.0677,9.8864,-0.0017,0.0014,9.8066,0.0151,0.0023,-0.0028,-16.5,-28.69,12.19,310.9,-86.04,-171.55
318,52.596283,-1.608857,147.72,0,6,114.12,22 / 23,31812,2020-01-08 17:30:21:743,0.0053,0.0451,9.8741,-0.0022,0.0012,9.8066,0.0056,-0.0101,-0.0111,-17.0,-29.0,12.06,309.15,-86.04,-171.71
