,GPS LATITUDE (degrees), GPS LONGITUDE (degrees), GPS ALTITUDE (m), GPS SPEED (Kmh), GPS ACCURACY (m), GPS ORIENTATION (Â°),GPS SATELLITES IN RANGE, TIME SINCE START (ms), DATE (YYYY-MO-DD HH-MI-SS_SSS), ACCELEROMETER X (m/s²) , ACCELEROMETER Y (m/s²), ACCELEROMETER Z (m/s²), GRAVITY X (m/s²), GRAVITY Y (m/s²), GRAVITY Z (m/s²), GYROSCOPE Yaw (rad/s), GYROSCOPE Pitch (rad/s), GYROSCOPE Roll (rad/s), MAGNETIC FIELD X (Î¼T), MAGNETIC FIELD Y (Î¼T), MAGNETIC FIELD Z (Î¼T), ORIENTATION (Yaw) (Â°), ORIENTATION (Pitch) (Â°), ORIENTATION (Roll ) (Â°)
35379,52.421345,-1.534866,180.5,0.1,4,269.34,21 / 21,19310,2019-09-06 19:20:25:053,-0.0832,-0.078,9.7265,-0.0002,-0.0031,9.8065,0.0019,0.0079,0.0083,2.5,-31.62,20.38,55.44,-85.03,-139.68
35380,52.421345,-1.534866,180.5,0.1,4,269.34,21 / 22,19410,2019-09-06 19:20:25:153,0.1221,-0.2168,9.7675,-0.0001,0.0028,9.8066,-0.0027,-0.0207,-0.0199,2.75,-31.31,20.63,54.53,-85.03,-139.64
35381,52.421345,-1.534866,180.5,0.1,4,269.34,21 / 22,19510,2019-09-06 19:20:25:253,-0.0029,0.0872,10.0562,0.0014,-0.005,9.8066,0.003,0.0226,0.0079,2.38,-31.5,20.88,51.57,-85.04,-139.69
35382,52.421345,-1.534866,180.5,0.1,4,269.34,21 / 22,19609,2019-09-06 19:20:25:352,-0.0936,0.0537,9.8734,-0.0013,-0.0041,9.8066,0.0321,-0.0401,-0.0164,2.06,-31.5,20.81,51.43,-85.04,-139.83
35383,52.421345,-1.534866,180.5,0.1,4,269.34,21 / 22,19710,2019-09-06 19:20:25:453,-0.0793,0.2143,10.0506,-0.0004,0.0053,9.8066,0.0023,0.0348,0.0049,1.88,-31.5,21.25,51.28,-85.02,-139.99
35384,52.421345,-1.534866,180.5,0.1,4,269.34,21 / 22,19809,2019-09-06 19:20:25:552,-0.0437,-0.0543,9.6414,0.0017,0.0045,9.8066,-0.0148,-0.0363,-0.0246,2.38,-31.75,21.44,51.58,-85.01,-139.91
35385,52.421345,-1.534866,180.5,0.1,4,269.34,21 / 22,19910,2019-09-06 19:20:25:653,-0.0614,0.1664,10.0894,-0.0017,-0.0044,9.8066,0.0135,0.0215,0.0061,2.13,-31.87,21.13,51.68,-85.02,-139.81
35386,52.421345,-1.534866,180.5,0.1,4,269.34,21 / 22,20010,2019-09-06 19:20:25:753,0.0403,-0.2457,9.6922,0.0,-0.0031,9.8066,0.0167,-0.0217,-0.0306,2.63,-31.44,21.13,54.24,-85.01,-139.93
35387,52.421345,-1.534866,180.5,0.1,4,269.34,21 / 22,20110,2019-09-06 19:20:25:853,0.0822,-0.0919,10.0032,-0.0013,-0.0054,9.8066,0.0065,0.0094,0.0118,2.81,-31.69,21.06,54.42,-85.0,-139.97
35388,52.421345,-1.534866,180.5,0.1,4,269.34,21 / 22,20209,2019-09-06 19:20:25:952,0.0803,-0.2437,9.6353,0.0009,0.0031,9.8066,-0.0092,-0.0311,-0.023,2.44,-31.5,21.31,51.46,-85.01,-139.84
35389,52.421345,-1.534866,180.5,0.1,4,269.34,21 / 22,20309,2019-09-06 19:20:26:052,0.0088,-0.0525,10.0119,0.001,0.0052,9.8066,0.0098,0.0176,0.0032,2.75,-31.69,20.88,54.61,-85.01,-139.78
35390,52.421345,-1.534866,180.5,0.1,4,269.34,19 / 20,20410,2019-09-06 19:20:26:153,-0.0811,-0.0555,9.7371,-0.0003,-0.0037,9.8066,0.0202,-0.036,-0.0213,2.44,-31.12,21.13,51.34,-84.99,-139.98
35391,52.421345,-1.534866,180.5,0.1,4,269.34,19 / 20,20509,2019-09-06 19:20:26:252,0.0822,-0.2857,9.6893,-0.0005,0.0019,9.8066,0.0089,0.0151,-0.0042,2.75,-31.44,21.0,54.24,-84.99,-139.95
35392,52.421345,-1.534866,180.5,0.1,4,269.34,19 / 20,20610,2019-09-06 19:20:26:353,0.0122,0.0992,10.0452,0.0002,0.0048,9.8066,-0.0247,-0.0239,-0.0201,2.75,-31.81,20.63,54.56,-84.98,-139.86
35393,52.421345,-1.534866,180.5,0.1,4,269.34,19 / 20,20709,2019-09-06 19:20:26:452,-0.077,0.2391,9.9909,-0.0002,0.0023,9.8066,0.0251,0.0165,0.0017,2.69,-30.87,20.69,54.52,-84.99,-139.69
35394,52.421345,-1.534866,180.5,0.1,4,269.34,19 / 20,20810,2019-09-06 19:20:26:553,0.012,-0.2279,9.8118,0.0012,-0.0045,9.8065,0.0138,-0.0237,-0.0225,2.06,-31.19,21.69,50.9,-84.98,-139.88
35395,52.421345,-1.534866,180.5,0.1,4,269.34,19 / 20,20910,2019-09-06 19:20:26:653,-0.0274,0.181,9.8848,0.0017,0.0057,9.8066,0.0053,-0.0045,-0.0019,2.5,-31.81,20.88,54.57,-84.98,-139.86
35396,52.421345,-1.534866,180.5,0.1,4,269.34,19 / 20,21009,2019-09-06 19:20:26:752,0.1373,-0.2425,9.6804,0.0019,0.006,9.8066,-0.0225,-0.0374,-0.0125,2.5,-32.0,20.88,54.67,-84.98,-139.77
35397,52.421345,-1.534866,180.5,0.1,4,269.34,19 / 20,21110,2019-09-06 19:20:26:853,-0.0251,0.0341,9.9352,-0.0025,-0.0058,9.8066,0.0184,-0.016,-0.0184,2.63,-31.56,20.69,55.01,-85.01,-139.41
35398,52.421345,-1.534866,180.5,0.1,4,269.34,19 / 20,21210,2019-09-06 19:20:26:953,-0.0543,0.2094,9.9001,-0.002,-0.0054,9.8066,0.0075,-0.0287,0.0008,2.31,-31.87,21.38,51.9,-84.97,-139.67
35399,52.421345,-1.534866,180.5,0.1,4,269.34,19 / 20,21310,2019-09-06 19:20:27:053,0.2287,-0.1107,9.7796,-0.0002,-0.0057,9.8065,0.0003,-0.0101,-0.027,2.25,-31.69,21.38,51.78,-84.98,-139.77
35400,52.421345,-1.534866,180.5,0.1,4,269.34,19 / 20,21410,2019-09-06 19:20:27:153,0.0516,0.0858,10.1062,0.0007,0.0054,9.8066,-0.0336,-0.0072,-0.009,2.63,-31.62,20.88,54.95,-85.01,-139.47
35401,52.421345,-1.534866,180.5,0.1,4,269.34,19 / 20,21510,2019-09-06 19:20:27:253,-0.1151,0.128,9.9107,0.0014,0.0049,9.8066,0.0276,-0.0309,-0.0179,2.44,-31.87,21.25,51.97,-85.01,-139.55
35402,52.421345,-1.534866,180.5,0.1,4,269.34,19 / 20,21609,2019-09-06 19:20:27:352,-0.0647,-0.2535,9.9268,-0.0014,-0.0062,9.8066,0.0125,-0.0057,-0.0017,2.44,-31.69,20.56,51.82,-84.97,-139.74
35403,52.421345,-1.534866,180.5,0.1,4,269.34,19 / 20,21710,2019-09-06 19:20:27:453,0.0186,0.1275,9.7722,0.0018,0.0065,9.8066,-0.0094,-0.0247,-0.0242,1.94,-32.0,21.38,51.72,-84.96,-139.84
35404,52.421345,-1.534866,180.5,0.1,4,269.34,19 / 20,21809,2019-09-06 19:20:27:552,0.2462,-0.0302,9.9359,0.0017,0.0066,9.8065,-0.0315,-0.0099,0.0101,2.94,-31.31,20.56,54.7,-85.0,-139.51
35405,52.421345,-1.534866,180.5,0.1,4,269.34,19 / 20,21910,2019-09-06 19:20:27:653,-0.0279,-0.1194,9.7521,-0.0007,-0.0056,9.8066,0.0319,-0.0182,-0.0188,2.56,-31.44,21.0,54.81,-84.99,-139.42
35406,52.421345,-1.534866,180.5,0.1,4,269.34,19 / 20,22009,2019-09-06 19:20:27:752,0.0648,-0.1065,9.9965,-0.0019,-0.0053,9.8066,-0.0051,0.034,0.0185,1.69,-31.19,21.13,51.82,-84.99,-139.52
35407,52.421345,-1.534866,180.5,0.1,4,269.34,19 / 20,22109,2019-09-06 19:20:27:852,0.0741,0.1598,10.0647,0.0007,0.0032,9.8066,0.0034,0.0022,-0.015,2.56,-31.44,21.19,54.58,-84.98,-139.66
35408,52.421345,-1.534866,180.5,0.1,4,269.34,19 / 20,22210,2019-09-06 19:20:27:953,-0.0494,0.0088,9.8684,0.0028,0.005,9.8066,-0.0328,-0.0117,-0.0074,2.44,-31.62,21.0,52.02,-85.0,-139.53
35409,52.421345,-1.534866,180.5,0.1,4,269.34,19 / 20,22309,2019-09-06 19:20:28:052,-0.1143,-0.2222,9.6282,0.0009,0.0019,9.8066,0.0279,-0.0176,-0.0107,2.81,-31.62,21.0,54.81,-85.0,-139.61
35410,52.421345,-1.534866,180.5,0.1,4,269.34,19 / 20,22410,2019-09-06 19:20:28:153,-0.0858,0.1961,10.1055,0.0006,-0.0022,9.8065,-0.0089,0.0313,0.0097,2.44,-31.62,21.0,51.97,-84.99,-139.58
35411,52.421345,-1.534866,180.5,0.1,4,269.34,19 / 20,22509,2019-09-06 19:20:28:252,0.0348,0.1609,10.0658,-0.0012,-0.0029,9.8066,0.0012,-0.0225,-0.0102,2.06,-31.62,21.06,51.8,-84.98,-139.74
35412,52.421345,-1.534866,180.5,0.1,4,269.34,19 / 20,22610,2019-09-06 19:20:28:353,-0.091,-0.3093,9.6199,0.0024,0.0025,9.8066,0.0052,0.0342,0.0133,2.5,-31.69,21.13,54.68,-85.0,-139.73
35413,52.421345,-1.534866,180.5,0.1,4,269.34,19 / 20,22710,2019-09-06 19:20:28:453,-0.0898,0.3531,10.1235,-0.0008,0.0016,9.8066,0.0238,-0.0246,-0.0237,2.31,-31.56,21.06,51.76,-84.99,-139.77
35414,52.421345,-1.534866,180.5,0.1,4,269.34,19 / 20,22809,2019-09-06 19:20:28:552,0.0052,0.0314,9.6523,-0.0001,-0.002,9.8066,0.0086,0.0249,0.0168,1.94,-31.75,21.69,51.01,-84.99,-139.95
35415,52.421345,-1.534866,180.5,0.1,4,269.34,19 / 20,22910,2019-09-06 19:20:28:653,0.0469,0.248,10.1134,0.0008,-0.0011,9.8066,0.0091,-0.0304,-0.0231,2.56,-31.37,21.19,54.24,-84.99,-139.95
35416,52.421345,-1.534866,180.5,0.1,4,269.34,19 / 20,23009,2019-09-06 19:20:28:752,-0.0769,-0.1746,9.9345,-0.0018,0.0022,9.8066,0.0004,0.0189,0.009,2.56,-31.69,20.69,54.4,-84.98,-140.0
35417,52.421345,-1.534866,180.5,0.1,4,269.34,19 / 20,23110,2019-09-06 19:20:28:853,-0.0932,-0.264,9.6511,0.0018,0.0011,9.8066,0.026,-0.0359,-0.0109,2.5,-31.81,21.25,54.48,-84.99,-139.93
35418,52.421345,-1.534866,180.5,0.1,4,269.34,19 / 20,23209,2019-09-06 19:20:28:952,-0.0409,0.0347,9.6502,-0.0001,-0.0014,9.8066,0.0021,0.0332,0.0068,2.69,-31.5,21.25,54.34,-84.97,-139.88
35419,52.421345,-1.534866,180.5,0.1,4,269.34,20 / 21,23310,2019-09-06 19:20:29:053,0.0018,-0.0832,9.7251,-0.0003,-0.0032,9.8066,-0.0134,-0.0316,-0.0261,2.44,-31.0,21.19,51.2,-84.96,-140.14
35420,52.421345,-1.534866,180.5,0.1,4,269.34,20 / 21,23410,2019-09-06 19:20:29:153,-0.0573,-0.3942,9.71,0.0018,0.0007,9.8066,0.0145,0.029,0.0133,1.88,-31.25,21.63,50.51,-84.97,-140.25
35421,52.421345,-1.534866,180.5,0.1,4,269.34,20 / 21,23509,2019-09-06 19:20:29:252,-0.0654,0.0894,10.0262,-0.0008,-0.0013,9.8066,0.0228,-0.0193,-0.0293,2.31,-31.62,22.06,50.62,-84.96,-140.35
35422,52.421345,-1.534866,180.5,0.1,4,269.34,20 / 21,23611,2019-09-06 19:20:29:354,-0.0346,0.1103,9.7968,0.0012,-0.0017,9.8066,-0.0003,0.023,0.0215,2.44,-31.56,21.31,51.24,-84.98,-140.26
35423,52.421345,-1.534866,180.5,0.1,4,269.34,20 / 21,23709,2019-09-06 19:20:29:452,0.0557,-0.128,9.6179,-0.0015,-0.0016,9.8066,-0.0012,-0.0204,-0.0258,2.13,-31.69,21.06,51.21,-84.96,-140.31
35424,52.421345,-1.534866,180.5,0.1,4,269.34,20 / 21,23811,2019-09-06 19:20:29:554,-0.1001,0.1636,10.0171,0.0002,0.0,9.8066,-0.0084,0.0205,0.0051,2.44,-31.81,21.13,51.02,-84.96,-140.49
35425,52.421345,-1.534866,180.5,0.1,4,269.34,20 / 21,23910,2019-09-06 19:20:29:653,-0.0553,-0.2328,9.6755,0.0021,-0.0011,9.8066,0.0283,-0.0261,-0.0071,2.63,-31.56,21.0,53.7,-84.97,-140.67
35426,52.421345,-1.534866,180.5,0.1,4,269.34,20 / 21,24009,2019-09-06 19:20:29:752,-0.0882,0.2008,9.9417,-0.0005,0.0016,9.8066,-0.0106,0.035,0.009,2.44,-32.19,21.5,50.25,-84.96,-140.68
35427,52.421345,-1.534866,180.5,0.1,4,269.34,20 / 21,24110,2019-09-06 19:20:29:853,-0.1135,-0.1795,9.8191,0.0011,0.0034,9.8066,0.0056,-0.0179,-0.0074,2.38,-31.62,20.44,51.49,-84.97,-140.61
35428,52.421345,-1.534866,180.5,0.1,4,269.34,20 / 21,24209,2019-09-06 19:20:29:952,-0.1876,0.1617,9.9317,-0.001,-0.004,9.8066,-0.0153,0.0354,0.01,2.38,-31.5,20.94,50.76,-84.97,-140.53
35429,52.421345,-1.534866,180.5,0.1,4,269.34,20 / 21,24310,2019-09-06 19:20:30:053,0.163,-0.1154,9.6207,0.0007,0.0048,9.8066,0.0265,-0.0085,-0.0132,2.56,-31.5,20.94,53.24,-84.95,-140.93
35430,52.421345,-1.534866,180.5,0.1,4,269.34,19 / 21,24409,2019-09-06 19:20:30:152,-0.0175,-0.0443,9.9572,0.0007,0.0058,9.8066,-0.0045,0.0204,0.0228,2.81,-31.37,20.94,53.56,-84.96,-140.62
35431,52.421345,-1.534866,180.5,0.1,4,269.34,19 / 21,24509,2019-09-06 19:20:30:252,-0.105,0.2555,9.9693,-0.0013,0.0029,9.8066,-0.0042,0.0138,-0.0103,2.06,-31.56,21.63,50.42,-84.95,-140.53
35432,52.421345,-1.534866,180.5,0.1,4,269.34,19 / 21,24610,2019-09-06 19:20:30:353,-0.075,0.2249,9.9006,-0.0003,-0.0053,9.8066,-0.0224,0.0095,0.0232,2.25,-31.56,21.13,50.83,-84.93,-140.71
35433,52.421345,-1.534866,180.5,0.1,4,269.34,19 / 21,24709,2019-09-06 19:20:30:452,-0.0177,-0.0081,9.6706,-0.001,-0.0034,9.8066,0.0243,0.0087,0.0005,2.44,-31.25,20.81,50.63,-84.93,-140.7
35434,52.421345,-1.534866,180.5,0.1,4,269.34,19 / 21,24810,2019-09-06 19:20:30:553,0.0222,0.1994,10.0636,-0.0003,0.0023,9.8066,-0.0104,0.0065,0.0128,2.44,-31.0,21.13,50.84,-84.93,-140.5
35435,52.421345,-1.534866,180.5,0.1,4,269.34,19 / 21,24909,2019-09-06 19:20:30:652,-0.0156,-0.0687,9.7606,0.001,0.0038,9.8066,0.0052,0.0122,0.0116,2.81,-31.44,20.56,53.81,-84.93,-140.42
35436,52.421345,-1.534866,180.5,0.1,4,269.34,19 / 21,25009,2019-09-06 19:20:30:752,-0.0153,0.0961,9.7392,-0.0016,-0.0031,9.8066,-0.0234,0.0209,0.0152,2.88,-31.37,21.06,53.7,-84.92,-140.54
35437,52.421345,-1.534866,180.5,0.1,4,269.34,19 / 21,25109,2019-09-06 19:20:30:852,0.0921,-0.3162,9.6565,-0.0004,-0.0034,9.8066,0.0007,0.0146,0.0029,2.31,-31.37,21.38,50.88,-84.93,-140.47
35438,52.421345,-1.534866,180.5,0.1,4,269.34,19 / 21,25210,2019-09-06 19:20:30:953,0.0109,0.1162,9.9627,0.0013,0.0034,9.8066,-0.0025,0.0152,0.0097,2.63,-30.94,21.38,53.7,-84.93,-140.53
35439,52.421345,-1.534866,180.5,0.1,4,269.34,19 / 21,25310,2019-09-06 19:20:31:053,-0.1304,-0.1384,9.6963,0.0014,0.0012,9.8066,0.0039,0.0286,-0.0026,2.69,-31.62,21.0,53.9,-84.95,-140.52
35440,52.421345,-1.534866,180.5,0.1,4,269.34,20 / 22,25410,2019-09-06 19:20:31:153,-0.0219,-0.2387,9.837,-0.0015,-0.0035,9.8066,-0.033,0.0049,0.0168,2.38,-31.94,21.25,50.97,-84.92,-140.58
35441,52.421345,-1.534866,180.5,0.1,4,269.34,20 / 22,25510,2019-09-06 19:20:31:253,0.0029,0.2092,9.7992,-0.0017,-0.0026,9.8066,0.0229,-0.0261,-0.0256,2.56,-31.81,21.38,53.92,-84.92,-140.53
35442,52.421345,-1.534866,180.5,0.1,4,269.34,20 / 22,25609,2019-09-06 19:20:31:352,-0.0514,-0.2015,9.6665,0.001,0.0016,9.8066,-0.0072,-0.0011,0.0108,2.13,-32.06,20.56,51.11,-84.92,-140.46
35443,52.421345,-1.534866,180.5,0.1,4,269.34,20 / 22,25709,2019-09-06 19:20:31:452,0.0088,-0.1026,9.9508,0.0007,0.0023,9.8066,-0.0056,-0.0273,-0.0166,2.19,-31.5,21.5,50.39,-84.93,-140.41
35444,52.421345,-1.534866,180.5,0.1,4,269.34,20 / 22,25809,2019-09-06 19:20:31:552,0.0339,0.2205,9.7365,-0.0013,-0.003,9.8066,-0.0374,0.0142,0.0071,2.25,-31.81,21.13,51.11,-84.95,-140.42
35445,52.421345,-1.534866,180.5,0.1,4,269.34,20 / 22,25910,2019-09-06 19:20:31:653,0.1024,-0.2311,9.5994,0.0007,0.0007,9.8066,0.0241,-0.0356,-0.0154,2.38,-32.0,20.88,51.1,-84.94,-140.44
35446,52.421345,-1.534866,180.5,0.1,4,269.34,20 / 22,26010,2019-09-06 19:20:31:753,0.0037,-0.0752,10.0092,0.0003,0.001,9.8066,0.0014,0.0173,0.0088,2.0,-31.62,21.13,51.06,-84.93,-140.48
35447,52.421345,-1.534866,180.5,0.1,4,269.34,20 / 22,26110,2019-09-06 19:20:31:853,0.0151,0.2113,9.9768,0.0026,0.0015,9.8066,-0.0205,-0.0361,-0.019,2.19,-32.0,21.25,51.02,-84.95,-140.5
35448,52.421345,-1.534866,180.5,0.1,4,269.34,20 / 22,26210,2019-09-06 19:20:31:953,0.0042,0.0852,9.6212,0.0004,-0.0006,9.8066,-0.0336,0.0077,0.0212,2.38,-31.56,21.25,51.05,-84.93,-140.5
35449,52.421345,-1.534866,180.5,0.1,4,269.34,20 / 22,26310,2019-09-06 19:20:32:053,-0.0076,-0.113,9.7283,0.0033,-0.0004,9.8066,0.0227,-0.03,-0.0243,2.31,-31.94,20.94,50.94,-84.94,-140.59
35450,52.421345,-1.534866,180.5,0.1,4,269.34,20 / 21,26409,2019-09-06 19:20:32:152,-0.0928,0.2299,10.0127,0.0008,0.0047,9.8066,-0.0094,0.0181,0.0136,2.44,-31.12,20.5,50.47,-84.95,-140.82
35451,52.421345,-1.534866,180.5,0.1,4,269.34,20 / 21,26510,2019-09-06 19:20:32:253,-0.125,0.222,9.8568,-0.001,-0.0058,9.8066,-0.0074,-0.0329,-0.0153,2.31,-32.12,20.88,50.49,-84.92,-141.02
35452,52.421345,-1.534866,180.5,0.1,4,269.34,20 / 21,26609,2019-09-06 19:20:32:352,-0.0295,0.0354,9.6485,-0.0016,-0.0027,9.8066,-0.0224,0.0241,0.0128,2.56,-31.81,20.75,53.45,-84.91,-140.97
35453,52.421345,-1.534866,180.5,0.1,4,269.34,20 / 21,26710,2019-09-06 19:20:32:453,0.1621,-0.1443,9.8889,0.0011,0.0049,9.8066,0.0229,-0.0348,-0.0114,2.44,-31.56,21.63,50.1,-84.92,-140.87
35454,52.421345,-1.534866,180.5,0.1,4,269.34,20 / 21,26809,2019-09-06 19:20:32:552,-0.0036,-0.0732,9.76,0.001,0.0045,9.8066,-0.003,0.0106,0.0057,2.19,-31.81,21.44,50.9,-84.94,-140.63
35455,52.421345,-1.534866,180.5,0.1,4,269.34,20 / 21,26909,2019-09-06 19:20:32:652,-0.027,0.1301,9.7215,-0.0018,-0.0013,9.8066,-0.0063,-0.0352,-0.0234,2.44,-31.62,21.13,50.84,-84.93,-140.7
35456,52.421345,-1.534866,180.5,0.1,4,269.34,20 / 21,27009,2019-09-06 19:20:32:752,0.0974,-0.1976,9.6894,-0.0004,-0.0024,9.8066,-0.0204,0.0043,0.0201,2.75,-31.75,21.31,53.71,-84.93,-140.71
35457,52.421345,-1.534866,180.5,0.1,4,269.34,20 / 21,27110,2019-09-06 19:20:32:853,0.0271,0.2185,10.0005,0.0004,0.0024,9.8066,0.0187,-0.0343,-0.028,2.06,-31.56,21.44,50.82,-84.94,-140.7
35458,52.421345,-1.534866,180.5,0.1,4,269.34,20 / 21,27210,2019-09-06 19:20:32:953,-0.1103,-0.1056,9.6849,0.0008,0.0016,9.8066,-0.0061,0.0043,0.0156,2.69,-31.62,21.31,53.73,-84.95,-140.67
35459,52.421345,-1.534866,180.5,0.1,4,269.34,20 / 21,27310,2019-09-06 19:20:33:053,-0.11,0.2495,9.8941,-0.0009,-0.0016,9.8066,0.0004,-0.0283,-0.0198,2.0,-31.37,21.0,50.69,-84.93,-140.65
35460,52.421345,-1.534866,180.5,0.1,4,269.34,21 / 21,27409,2019-09-06 19:20:33:152,-0.0468,-0.1706,9.8108,0.001,0.0033,9.8066,-0.0313,0.0186,0.0086,2.25,-31.25,21.0,50.49,-84.94,-140.81
35461,52.421345,-1.534866,180.5,0.1,4,269.34,21 / 21,27510,2019-09-06 19:20:33:253,-0.1676,0.0583,9.902,-0.0013,-0.004,9.8066,0.0309,-0.0398,-0.0111,2.0,-31.31,20.56,50.73,-84.95,-140.58
35462,52.421345,-1.534866,180.5,0.1,4,269.34,21 / 21,27610,2019-09-06 19:20:33:353,-0.0071,-0.296,9.6364,-0.001,-0.0052,9.8066,-0.0004,0.0184,0.0098,2.63,-31.87,21.06,53.56,-84.93,-140.85
35463,52.421345,-1.534866,180.5,0.1,4,269.34,21 / 21,27709,2019-09-06 19:20:33:452,0.0071,-0.0037,9.6487,-0.0015,-0.0038,9.8066,-0.0154,-0.0344,-0.0205,2.25,-31.31,21.0,50.7,-84.93,-140.63
35464,52.421345,-1.534866,180.5,0.1,4,269.34,21 / 21,27810,2019-09-06 19:20:33:553,0.0119,0.2227,10.1033,0.0003,0.0056,9.8066,-0.0398,0.0156,0.0164,2.63,-31.12,21.5,52.82,-84.92,-140.72
35465,52.421345,-1.534866,180.5,0.1,4,269.34,21 / 21,27909,2019-09-06 19:20:33:652,0.017,-0.0645,9.7782,0.0023,0.0066,9.8066,0.0249,-0.0269,-0.0286,2.5,-31.69,21.19,54.02,-84.96,-140.39
35466,52.421345,-1.534866,180.5,0.1,4,269.34,21 / 21,28010,2019-09-06 19:20:33:753,-0.0331,-0.3175,9.6705,-0.0021,-0.0042,9.8066,-0.0061,0.0141,0.0165,2.19,-31.25,21.38,50.67,-84.92,-140.67
35467,52.421345,-1.534866,180.5,0.1,4,269.34,21 / 21,28109,2019-09-06 19:20:33:852,0.1093,-0.1831,9.5906,-0.0008,-0.0033,9.8066,-0.0123,-0.0241,-0.0267,2.75,-31.56,20.81,53.76,-84.93,-140.67
35468,52.421345,-1.534866,180.5,0.1,4,269.34,21 / 21,28210,2019-09-06 19:20:33:953,-0.0096,0.1955,10.0471,0.0007,0.0028,9.8066,-0.0173,0.0229,0.0141,2.25,-31.56,20.94,50.88,-84.92,-140.66
35469,52.421345,-1.534866,180.5,0.1,4,269.34,21 / 21,28309,2019-09-06 19:20:34:052,-0.071,0.0641,9.7396,0.0,0.0033,9.8066,0.0113,-0.0383,-0.0198,2.5,-31.94,21.06,53.93,-84.93,-140.5
35470,52.421345,-1.534866,180.5,0.1,4,269.34,21 / 21,28410,2019-09-06 19:20:34:153,0.0556,-0.2593,9.7384,-0.0012,-0.0037,9.8066,0.0025,0.0318,0.027,1.94,-31.81,21.25,51.1,-84.95,-140.43
35471,52.421345,-1.534866,180.5,0.1,4,269.34,21 / 21,28509,2019-09-06 19:20:34:252,-0.0225,-0.0904,9.8066,-0.0013,-0.003,9.8066,-0.0158,-0.0309,-0.0141,2.06,-31.81,21.69,50.44,-84.92,-140.56
35472,52.421345,-1.534866,180.5,0.1,4,269.34,21 / 21,28609,2019-09-06 19:20:34:352,-0.1126,0.1368,9.9302,0.0015,0.0046,9.8066,-0.0291,0.0151,0.0215,2.13,-31.37,21.5,50.4,-84.95,-140.38
35473,52.421345,-1.534866,180.5,0.1,4,269.34,21 / 21,28709,2019-09-06 19:20:34:452,0.0182,-0.3422,9.6344,0.0,0.0047,9.8066,0.0279,-0.0273,-0.0192,2.31,-31.94,21.06,51.29,-84.95,-140.25
35474,52.421345,-1.534866,180.5,0.1,4,269.34,21 / 21,28810,2019-09-06 19:20:34:553,0.0301,-0.3359,9.8814,-0.0012,-0.0037,9.8066,-0.0084,0.014,0.0126,2.19,-31.81,20.88,51.3,-84.95,-140.25
35475,52.421345,-1.534866,180.5,0.1,4,269.34,21 / 21,28909,2019-09-06 19:20:34:652,0.0973,-0.1012,9.9271,0.0007,-0.0036,9.8066,-0.0099,-0.0247,-0.019,2.5,-30.94,21.0,53.87,-84.94,-140.35
35476,52.421345,-1.534866,180.5,0.1,4,269.34,21 / 21,29010,2019-09-06 19:20:34:753,-0.0089,-0.1587,9.7155,0.0008,0.0049,9.8066,0.0022,0.0184,0.0093,2.44,-31.31,21.19,51.27,-84.97,-140.06
35477,52.421345,-1.534866,180.5,0.1,4,269.34,21 / 21,29110,2019-09-06 19:20:34:853,0.0634,-0.0297,10.0143,-0.0016,-0.0039,9.8066,0.0287,-0.0302,-0.0102,2.38,-31.44,21.25,51.38,-84.96,-139.97
35478,52.421345,-1.534866,180.5,0.1,4,269.34,21 / 21,29209,2019-09-06 19:20:34:952,-0.1221,0.2277,9.7688,0.0009,-0.0036,9.8066,0.0016,0.0059,0.0063,2.13,-31.56,20.44,52.26,-84.96,-139.93
35479,52.421345,-1.534866,180.5,0.1,4,269.34,21 / 21,29309,2019-09-06 19:20:35:052,-0.0741,-0.1583,9.6719,-0.0006,-0.003,9.8066,0.0014,-0.0271,-0.0064,2.69,-31.5,21.25,54.06,-84.95,-140.16
35480,52.421345,-1.534866,180.5,0.1,4,269.34,20 / 22,29410,2019-09-06 19:20:35:153,0.0312,-0.316,9.7606,0.0016,0.0025,9.8066,-0.0072,0.0318,0.0114,2.06,-31.62,21.06,51.37,-84.98,-140.15
35481,52.421345,-1.534866,180.5,0.1,4,269.34,20 / 22,29509,2019-09-06 19:20:35:252,-0.1487,0.0549,10.0211,-0.0017,-0.0022,9.8065,0.0275,-0.0017,-0.0055,2.38,-31.5,21.06,51.21,-84.98,-140.1
35482,52.421345,-1.534866,180.5,0.1,4,269.34,20 / 22,29610,2019-09-06 19:20:35:353,-0.0415,-0.0006,9.6729,0.0003,0.001,9.8066,0.0094,0.0182,0.0168,2.0,-31.19,21.56,50.57,-84.98,-140.19
35483,52.421345,-1.534866,180.5,0.1,4,269.34,20 / 22,29709,2019-09-06 19:20:35:452,0.1221,0.0048,10.0082,0.0016,0.0037,9.8066,0.0067,0.0182,-0.0032,2.38,-31.56,21.19,51.29,-84.97,-140.23
35484,52.421345,-1.534866,180.5,0.1,4,269.34,20 / 22,29810,2019-09-06 19:20:35:553,-0.025,0.0828,10.0443,-0.0011,-0.0042,9.8066,-0.0342,-0.0003,0.0141,2.56,-32.31,21.13,54.03,-84.98,-140.36
35485,52.421345,-1.534866,180.5,0.1,4,269.34,20 / 22,29910,2019-09-06 19:20:35:653,-0.0374,0.2456,9.8146,-0.0001,-0.0029,9.8066,0.0143,0.0259,0.013,2.63,-31.44,20.5,53.76,-84.96,-140.43
35486,52.421345,-1.534866,180.5,0.1,4,269.34,20 / 22,30010,2019-09-06 19:20:35:753,0.0672,-0.1588,9.5966,0.0003,0.0047,9.8066,-0.0013,-0.0115,0.0061,2.56,-31.31,21.0,54.0,-84.98,-140.2
35487,52.421345,-1.534866,180.5,0.1,4,269.34,20 / 22,30110,2019-09-06 19:20:35:853,0.0682,-0.3075,9.6841,0.0004,-0.0047,9.8066,-0.0031,0.0283,0.0178,2.06,-31.62,21.0,51.3,-84.99,-140.2
35488,52.421345,-1.534866,180.5,0.1,4,269.34,20 / 22,30209,2019-09-06 19:20:35:952,0.0193,-0.2091,9.9529,-0.0007,-0.0038,9.8066,-0.0336,0.0002,-0.0053,2.31,-31.69,21.56,50.64,-84.98,-140.3
35489,52.421345,-1.534866,180.5,0.1,4,269.34,20 / 22,30309,2019-09-06 19:20:36:052,-0.1579,0.175,9.965,0.0005,-0.0052,9.8066,-0.0011,0.0178,0.0183,2.25,-31.56,21.0,50.93,-84.96,-140.57
35490,52.421345,-1.534866,180.5,0.1,4,269.34,20 / 21,30409,2019-09-06 19:20:36:152,-0.0788,-0.0037,9.6287,0.0002,0.0027,9.8066,-0.0087,0.0008,-0.0042,2.38,-31.5,21.19,50.84,-84.95,-140.48
35491,52.421345,-1.534866,180.5,0.1,4,269.34,20 / 21,30509,2019-09-06 19:20:36:252,-0.0547,-0.0087,9.7041,-0.0001,0.0034,9.8066,0.0025,0.0336,0.0186,2.81,-31.87,21.19,54.06,-84.96,-140.35
35492,52.421345,-1.534866,180.5,0.1,4,269.34,20 / 21,30610,2019-09-06 19:20:36:353,-0.0058,-0.3185,9.7742,-0.0006,-0.0026,9.8066,-0.0288,-0.0014,0.0092,2.56,-31.37,21.31,53.99,-84.95,-140.24
35493,52.421345,-1.534866,180.5,0.1,4,269.34,20 / 21,30710,2019-09-06 19:20:36:453,0.0189,-0.1158,9.8246,-0.0015,-0.0029,9.8066,0.008,0.0345,0.0168,2.19,-31.31,20.81,51.21,-84.94,-140.15
35494,52.421345,-1.534866,180.5,0.1,4,269.34,20 / 21,30810,2019-09-06 19:20:36:553,0.0539,0.1698,10.0911,0.0009,0.0038,9.8066,-0.0075,-0.0021,0.0065,2.38,-31.75,21.44,51.56,-84.96,-140.0
35495,52.421345,-1.534866,180.5,0.1,4,269.34,20 / 21,30909,2019-09-06 19:20:36:652,-0.0299,0.0578,9.8688,0.0016,0.0039,9.8066,0.0081,0.02,0.0191,2.63,-31.12,21.56,53.59,-84.96,-139.97
35496,52.421345,-1.534866,180.5,0.1,4,269.34,20 / 21,31010,2019-09-06 19:20:36:753,-0.099,-0.2861,9.648,-0.0009,-0.0042,9.8066,-0.0334,0.0075,0.0057,2.44,-31.87,21.31,51.32,-84.93,-140.26
35497,52.421345,-1.534866,180.5,0.1,4,269.34,20 / 21,31109,2019-09-06 19:20:36:852,0.1855,-0.1274,9.8603,0.0003,0.0025,9.8066,-0.0005,0.0184,0.0152,2.38,-31.94,21.38,51.75,-84.96,-139.82
35498,52.421345,-1.534866,180.5,0.1,4,269.34,20 / 21,31210,2019-09-06 19:20:36:953,-0.0139,0.1333,10.0594,0.0018,0.0019,9.8066,0.0068,0.0056,0.0113,2.13,-31.37,20.94,51.42,-84.97,-139.93
35499,52.421345,-1.534866,180.5,0.1,4,269.34,20 / 21,31309,2019-09-06 19:20:37:052,0.0171,-0.1679,9.6998,0.0001,0.0002,9.8066,-0.0004,0.0303,0.0086,2.0,-31.25,21.44,51.45,-84.95,-139.92
35500,52.421345,-1.534866,180.5,0.1,4,269.34,22 / 22,31410,2019-09-06 19:20:37:153,-0.1098,0.2328,10.0123,0.0001,0.0007,9.8066,-0.0187,-0.004,0.0111,2.69,-31.37,21.19,54.27,-84.95,-139.97
35501,52.421345,-1.534866,180.5,0.1,4,269.34,22 / 22,31510,2019-09-06 19:20:37:253,-0.0424,0.0198,9.6726,0.0004,-0.002,9.8066,0.0175,0.024,0.0091,2.44,-31.81,21.44,51.55,-84.95,-140.01
35502,52.421345,-1.534866,180.5,0.1,4,269.34,22 / 22,31610,2019-09-06 19:20:37:353,-0.0843,-0.0791,9.6978,0.0004,0.0036,9.8066,-0.003,-0.0278,-0.0077,2.38,-31.62,21.25,51.69,-84.96,-139.87
35503,52.421345,-1.534866,180.5,0.1,4,269.34,22 / 22,31709,2019-09-06 19:20:37:452,0.0275,-0.1646,9.899,-0.0012,-0.0041,9.8066,0.005,0.0274,0.0231,2.56,-31.69,21.38,54.47,-84.98,-139.95
35504,52.421345,-1.534866,180.5,0.1,4,269.34,22 / 22,31810,2019-09-06 19:20:37:553,0.0909,0.1601,10.0132,-0.0004,-0.0042,9.8066,-0.0315,-0.0137,-0.0145,3.0,-32.0,21.19,54.22,-84.95,-140.21
35505,52.421345,-1.534866,180.5,0.1,4,269.34,22 / 22,31909,2019-09-06 19:20:37:652,-0.0681,0.207,10.0465,-0.0001,0.0061,9.8066,-0.0144,0.0233,0.0276,2.94,-31.12,21.31,54.17,-84.97,-140.05
35506,52.421345,-1.534866,180.5,0.1,4,269.34,22 / 22,32009,2019-09-06 19:20:37:752,-0.0101,-0.2055,9.7199,0.0001,-0.006,9.8066,0.0106,-0.0192,-0.022,2.63,-31.44,21.06,54.17,-84.96,-140.05
35507,52.421345,-1.534866,180.5,0.1,4,269.34,22 / 22,32109,2019-09-06 19:20:37:852,0.0761,-0.292,9.8086,-0.0022,-0.0026,9.8065,-0.0031,-0.0061,-0.0021,2.25,-31.5,21.56,50.62,-84.96,-140.16
35508,52.421345,-1.534866,180.5,0.1,4,269.34,22 / 22,32210,2019-09-06 19:20:37:953,0.1207,-0.1927,9.8224,-0.0004,-0.0046,9.8066,-0.0156,-0.0212,-0.012,2.19,-31.5,21.63,50.63,-84.94,-140.18
35509,52.421345,-1.534866,180.5,0.1,4,269.34,22 / 22,32310,2019-09-06 19:20:38:053,-0.0024,0.1261,9.7956,-0.0008,0.0016,9.8066,-0.0116,0.0299,0.0173,2.5,-31.69,21.5,53.85,-84.96,-139.9
35510,52.421345,-1.534866,180.5,0.1,4,269.34,20 / 21,32410,2019-09-06 19:20:38:153,0.066,-0.2045,9.9575,0.0013,-0.0005,9.8066,0.0143,-0.0358,-0.0121,2.88,-31.31,21.44,54.26,-84.96,-139.98
35511,52.421345,-1.534866,180.5,0.1,4,269.34,20 / 21,32509,2019-09-06 19:20:38:252,-0.1295,0.22,9.9586,-0.0005,0.0018,9.8066,0.0034,0.0229,-0.0047,2.63,-31.56,20.88,54.39,-84.96,-140.05
35512,52.421345,-1.534866,180.5,0.1,4,269.34,20 / 21,32609,2019-09-06 19:20:38:352,-0.0059,0.1617,9.8659,0.0011,0.0019,9.8066,-0.0143,-0.0275,-0.0158,2.13,-31.44,21.31,51.3,-84.97,-140.04
35513,52.421345,-1.534866,180.5,0.1,4,269.34,20 / 21,32709,2019-09-06 19:20:38:452,-0.0761,-0.2148,9.6843,0.0015,0.0038,9.8066,0.0191,0.0136,-0.0013,2.25,-31.62,20.81,51.53,-84.97,-140.01
35514,52.421345,-1.534866,180.5,0.1,4,269.34,20 / 21,32809,2019-09-06 19:20:38:552,-0.0175,-0.2231,9.8632,-0.0005,-0.0036,9.8066,0.0241,-0.0216,-0.0236,2.38,-31.75,20.94,51.34,-84.98,-140.18
35515,52.421345,-1.534866,180.5,0.1,4,269.34,20 / 21,32909,2019-09-06 19:20:38:652,0.0255,0.0684,10.0339,-0.0009,-0.0026,9.8066,0.0017,0.0132,0.0085,2.56,-31.44,20.81,54.04,-84.97,-140.17
35516,52.421345,-1.534866,180.5,0.1,4,269.34,20 / 21,33009,2019-09-06 19:20:38:752,0.0635,0.2461,10.0927,-0.0002,0.0045,9.8066,-0.0067,-0.0272,-0.0175,2.81,-31.56,20.56,54.36,-84.98,-140.04
35517,52.421345,-1.534866,180.5,0.1,4,269.34,20 / 21,33110,2019-09-06 19:20:38:853,0.0256,-0.0337,9.7803,0.002,0.0022,9.8066,0.0103,0.018,0.0088,2.19,-31.87,21.5,50.78,-84.99,-140.16
35518,52.421345,-1.534866,180.5,0.1,4,269.34,20 / 21,33210,2019-09-06 19:20:38:953,-0.0486,-0.2581,9.6527,-0.0014,-0.0049,9.8065,0.0219,-0.0374,-0.0147,2.44,-31.56,21.13,51.34,-84.99,-140.16
35519,52.421345,-1.534866,180.5,0.1,4,269.34,20 / 21,33309,2019-09-06 19:20:39:052,-0.161,0.2266,9.9745,-0.0006,-0.0042,9.8066,0.0022,0.0275,-0.0004,2.69,-31.19,21.19,53.83,-84.97,-140.36
35520,52.421345,-1.534866,180.5,0.1,4,269.34,20 / 21,33410,2019-09-06 19:20:39:153,-0.0009,0.1793,9.9981,0.001,0.0038,9.8065,-0.0066,-0.0344,-0.0185,2.75,-31.94,21.31,54.34,-84.98,-140.07
35521,52.421345,-1.534866,180.5,0.1,4,269.34,20 / 21,33509,2019-09-06 19:20:39:252,0.044,-0.3105,9.7587,0.0008,0.005,9.8066,0.011,0.0234,0.0072,2.38,-31.37,21.19,51.37,-84.98,-139.95
35522,52.421345,-1.534866,180.5,0.1,4,269.34,20 / 21,33610,2019-09-06 19:20:39:353,-0.1016,0.0712,10.0461,-0.0004,-0.0029,9.8065,0.0215,-0.0274,-0.029,3.06,-31.0,21.31,54.03,-84.97,-140.17
35523,52.421345,-1.534866,180.5,0.1,4,269.34,20 / 21,33710,2019-09-06 19:20:39:453,0.0009,0.1755,9.8938,-0.0019,-0.0021,9.8066,0.0085,0.0104,0.015,2.5,-32.06,20.75,54.36,-84.97,-140.06
35524,52.421345,-1.534866,180.5,0.1,4,269.34,20 / 21,33810,2019-09-06 19:20:39:553,0.1448,-0.2202,9.8277,-0.0004,0.0034,9.8066,-0.0051,-0.0287,-0.0245,2.44,-31.44,20.88,51.44,-84.98,-139.89
35525,52.421345,-1.534866,180.5,0.1,4,269.34,20 / 21,33910,2019-09-06 19:20:39:653,0.0133,0.0819,9.8761,-0.0007,-0.0025,9.8066,0.0134,0.016,0.0116,2.13,-31.44,20.75,51.52,-84.98,-139.82
35526,52.421345,-1.534866,180.5,0.1,4,269.34,20 / 21,34009,2019-09-06 19:20:39:752,-0.0466,-0.2757,9.6702,-0.0011,-0.0048,9.8066,0.0215,-0.0418,-0.0176,2.31,-30.75,20.75,51.61,-84.99,-139.72
35527,52.421345,-1.534866,180.5,0.1,4,269.34,20 / 21,34109,2019-09-06 19:20:39:852,0.0771,-0.1889,9.8814,-0.0002,0.0026,9.8066,0.0148,0.0227,-0.0032,2.69,-31.62,21.19,54.7,-84.99,-139.73
35528,52.421345,-1.534866,180.5,0.1,4,269.34,20 / 21,34210,2019-09-06 19:20:39:953,-0.0431,0.1352,10.0766,0.0011,0.0015,9.8066,-0.012,-0.0344,-0.0231,2.06,-31.31,21.13,51.65,-84.99,-139.68
35529,52.421345,-1.534866,180.5,0.1,4,269.34,20 / 21,34310,2019-09-06 19:20:40:053,-0.1027,0.0112,9.8012,0.001,-0.0011,9.8066,0.0228,0.0171,0.0,2.31,-31.81,21.88,51.25,-84.99,-139.73
35530,52.421345,-1.534866,180.5,0.1,4,269.34,20 / 20,34409,2019-09-06 19:20:40:152,-0.1413,0.2399,10.0049,-0.0012,-0.0001,9.8066,0.0214,-0.0266,-0.0255,1.69,-31.37,20.63,51.59,-84.99,-139.74
35531,52.421345,-1.534866,180.5,0.1,4,269.34,20 / 20,34510,2019-09-06 19:20:40:253,-0.0153,0.0541,9.6439,0.001,0.0026,9.8066,0.01,0.0043,0.0098,1.94,-31.25,20.94,51.39,-85.0,-139.91
35532,52.421345,-1.534866,180.5,0.1,4,269.34,20 / 20,34610,2019-09-06 19:20:40:353,-0.1067,-0.1413,9.6933,-0.0007,0.0016,9.8066,-0.0068,-0.0236,-0.0201,2.06,-31.25,21.19,51.4,-84.99,-139.91
35533,52.421345,-1.534866,180.5,0.1,4,269.34,20 / 20,34710,2019-09-06 19:20:40:453,-0.0603,-0.2887,9.8445,0.0001,-0.0041,9.8066,0.0045,0.018,0.0146,2.19,-31.87,20.0,52.04,-84.98,-140.11
35534,52.421345,-1.534866,180.5,0.1,4,269.34,20 / 20,34809,2019-09-06 19:20:40:552,-0.048,0.0525,9.9654,-0.0005,-0.0049,9.8066,0.0234,-0.0281,-0.0215,2.38,-31.87,21.06,51.39,-84.98,-140.13
35535,52.421345,-1.534866,180.5,0.1,4,269.34,20 / 20,34909,2019-09-06 19:20:40:652,0.0516,-0.3233,9.6259,0.0002,0.0044,9.8066,0.0024,0.034,0.0057,1.88,-32.06,20.69,51.22,-84.96,-140.31
35536,52.421345,-1.534866,180.5,0.1,4,269.34,20 / 20,35009,2019-09-06 19:20:40:752,0.0311,-0.3153,9.844,0.0008,0.0046,9.8066,-0.0115,-0.0237,-0.0144,2.56,-31.44,21.44,54.1,-84.99,-140.09
35537,52.421345,-1.534866,180.5,0.1,4,269.34,20 / 20,35109,2019-09-06 19:20:40:852,0.0275,0.0815,10.0054,-0.0015,-0.0046,9.8066,-0.0123,0.0254,0.0098,2.13,-31.56,20.75,51.1,-84.95,-140.43
35538,52.421345,-1.534866,180.5,0.1,4,269.34,20 / 20,35210,2019-09-06 19:20:40:953,-0.0839,0.0851,9.6569,0.0006,0.0048,9.8065,0.0196,-0.0343,-0.0125,2.88,-31.75,21.06,53.99,-84.95,-140.42
35539,52.421345,-1.534866,180.5,0.1,4,269.34,20 / 20,35309,2019-09-06 19:20:41:052,-0.0461,0.0013,10.0072,0.0002,0.0023,9.8066,-0.004,0.0146,0.0164,2.63,-32.06,20.94,54.12,-84.95,-140.31
35540,52.421345,-1.534866,180.5,0.1,4,269.34,20 / 20,35410,2019-09-06 19:20:41:153,0.1046,0.1338,10.0535,0.0007,0.0027,9.8066,0.0015,-0.0284,-0.0107,2.0,-32.06,20.69,51.35,-84.97,-140.17
35541,52.421345,-1.534866,180.5,0.1,4,269.34,20 / 20,35510,2019-09-06 19:20:41:253,-0.0694,0.0627,9.7337,0.0001,-0.0023,9.8066,-0.0222,-0.0034,0.0121,1.94,-31.5,20.75,51.1,-84.95,-140.23
35542,52.421345,-1.534866,180.5,0.1,4,269.34,20 / 20,35610,2019-09-06 19:20:41:353,-0.0452,-0.1966,9.6827,-0.0007,0.0011,9.8066,0.0206,-0.0203,-0.0251,2.81,-32.12,21.31,54.23,-84.96,-140.2
35543,52.421345,-1.534866,180.5,0.1,4,269.34,20 / 20,35710,2019-09-06 19:20:41:453,-0.1067,0.2294,10.0216,0.001,0.0003,9.8066,-0.0052,-0.0105,0.0079,2.38,-31.87,21.13,51.4,-84.95,-140.15
35544,52.421345,-1.534866,180.5,0.1,4,269.34,20 / 20,35809,2019-09-06 19:20:41:552,0.0463,-0.1531,9.7088,-0.0004,0.0011,9.8066,-0.0047,-0.0165,-0.0256,2.88,-31.5,21.13,54.18,-84.96,-140.05
35545,52.421345,-1.534866,180.5,0.1,4,269.34,20 / 20,35909,2019-09-06 19:20:41:652,0.0754,-0.0213,9.9978,0.0007,0.0024,9.8065,-0.0343,-0.0017,0.0019,2.5,-31.25,21.56,53.47,-84.96,-140.07
35546,52.421345,-1.534866,180.5,0.1,4,269.34,20 / 20,36009,2019-09-06 19:20:41:752,0.0709,0.0608,9.5821,0.0005,-0.004,9.8066,0.0321,-0.0312,-0.0186,2.25,-31.56,20.81,51.61,-84.98,-139.92
35547,52.421345,-1.534866,180.5,0.1,4,269.34,20 / 20,36110,2019-09-06 19:20:41:853,-0.0236,0.1437,10.1135,0.0005,-0.0022,9.8066,0.0099,0.0068,-0.0032,2.44,-31.5,20.94,51.27,-84.98,-140.05
35548,52.421345,-1.534866,180.5,0.1,4,269.34,20 / 20,36209,2019-09-06 19:20:41:952,0.0369,0.1703,9.771,0.0012,-0.0019,9.8066,-0.0147,-0.0264,-0.0215,2.5,-32.19,20.88,54.13,-84.98,-140.25
35549,52.421345,-1.534866,180.5,0.1,4,269.34,20 / 20,36311,2019-09-06 19:20:42:054,0.0308,-0.1744,9.5587,0.0006,0.0012,9.8066,-0.0251,-0.0148,0.0098,2.44,-31.81,20.94,51.34,-84.99,-140.16
35550,52.421345,-1.534866,180.5,0.1,4,269.34,20 / 20,36410,2019-09-06 19:20:42:153,-0.1025,-0.1757,9.9228,-0.0006,0.0001,9.8066,0.0191,-0.0178,-0.029,2.63,-31.44,20.38,54.82,-84.99,-140.11
35551,52.421345,-1.534866,180.5,0.1,4,269.34,20 / 20,36511,2019-09-06 19:20:42:254,0.0925,-0.2069,9.9597,0.0004,0.0018,9.8066,-0.0135,-0.0034,0.0079,2.25,-32.0,21.19,51.6,-84.98,-139.92
35552,52.421345,-1.534866,180.5,0.1,4,269.34,20 / 20,36609,2019-09-06 19:20:42:352,-0.0953,0.2203,10.0324,0.0004,-0.0003,9.8066,0.0116,-0.0222,-0.0248,2.56,-32.0,21.31,54.34,-84.99,-140.05
35553,52.421345,-1.534866,180.5,0.1,4,269.34,20 / 20,36710,2019-09-06 19:20:42:453,0.0138,0.1594,9.7103,0.0009,0.0005,9.8066,-0.03,0.0056,0.0053,2.69,-31.56,20.63,54.37,-85.0,-140.02
35554,52.421345,-1.534866,180.5,0.1,4,269.34,20 / 20,36810,2019-09-06 19:20:42:553,-0.1808,-0.1809,9.696,0.0002,0.0034,9.8066,0.028,-0.0243,-0.012,2.19,-31.87,20.69,51.43,-85.0,-140.05
35555,52.421345,-1.534866,180.5,0.1,4,269.34,20 / 20,36909,2019-09-06 19:20:42:652,-0.0429,-0.3218,9.8033,-0.0008,-0.0059,9.8066,0.0134,0.0022,-0.0024,2.25,-31.37,21.25,50.97,-84.98,-140.32
35556,52.421345,-1.534866,180.5,0.1,4,269.34,20 / 20,37010,2019-09-06 19:20:42:753,0.0597,0.0189,9.9972,-0.001,-0.0062,9.8066,-0.0039,-0.0394,-0.0133,1.94,-31.69,20.75,51.14,-84.98,-140.35
35557,52.421345,-1.534866,180.5,0.1,4,269.34,20 / 20,37110,2019-09-06 19:20:42:853,-0.0306,0.1727,9.7319,-0.0002,0.0057,9.8066,-0.0335,-0.0106,0.0026,2.63,-31.5,21.13,53.75,-84.99,-140.41
35558,52.421345,-1.534866,180.5,0.1,4,269.34,20 / 20,37209,2019-09-06 19:20:42:952,-0.0069,-0.3792,9.6601,0.0017,0.0063,9.8066,0.0356,-0.0136,-0.014,2.19,-31.87,21.56,50.8,-85.01,-140.12
35559,52.421345,-1.534866,180.5,0.1,4,269.34,20 / 20,37309,2019-09-06 19:20:43:052,-0.0417,-0.2764,9.9201,-0.0009,-0.0046,9.8066,-0.012,-0.0028,-0.008,2.56,-31.56,21.0,53.92,-84.97,-140.47
35560,52.421345,-1.534866,180.5,0.1,4,269.34,20 / 20,37410,2019-09-06 19:20:43:153,-0.0943,-0.0586,9.5867,-0.0021,-0.0051,9.8066,0.0034,-0.005,-0.0149,2.38,-31.44,20.94,50.83,-84.97,-140.46
35561,52.421345,-1.534866,180.5,0.1,4,269.34,20 / 20,37510,2019-09-06 19:20:43:253,-0.0417,0.0792,10.0289,0.0022,0.0051,9.8066,-0.0345,-0.0169,-0.0162,2.13,-31.69,21.06,51.21,-84.99,-140.28
35562,52.421345,-1.534866,180.5,0.1,4,269.34,20 / 20,37609,2019-09-06 19:20:43:352,-0.1576,-0.241,9.6493,-0.0007,0.0037,9.8066,0.0282,0.0079,0.0019,2.13,-31.62,20.75,51.23,-84.99,-140.27
35563,52.421345,-1.534866,180.5,0.1,4,269.34,20 / 20,37709,2019-09-06 19:20:43:452,-0.1801,0.1821,9.9897,0.0002,-0.0026,9.8066,0.0048,-0.0105,-0.0201,2.38,-31.37,20.81,51.03,-84.97,-140.28
35564,52.421345,-1.534866,180.5,0.1,4,269.34,20 / 20,37809,2019-09-06 19:20:43:552,-0.0691,-0.0071,9.6684,-0.0013,-0.0028,9.8066,0.0074,-0.0002,0.0104,2.13,-31.37,20.81,51.14,-84.97,-140.18
35565,52.421345,-1.534866,180.5,0.1,4,269.34,20 / 20,37909,2019-09-06 19:20:43:652,0.1477,-0.1704,9.7804,0.0022,0.0033,9.8066,-0.0041,-0.0254,-0.0207,2.75,-31.81,20.69,54.34,-84.99,-140.05
35566,52.421345,-1.534866,180.5,0.1,4,269.34,20 / 20,38010,2019-09-06 19:20:43:753,-0.1047,0.1375,10.0445,-0.0017,0.0019,9.8066,0.0089,0.0161,0.012,2.19,-31.94,20.81,51.54,-84.98,-140.0
35567,52.421345,-1.534866,180.5,0.1,4,269.34,20 / 20,38110,2019-09-06 19:20:43:853,-0.08,0.0589,9.737,-0.0004,-0.0011,9.8066,0.0199,-0.0338,-0.0119,2.44,-31.37,20.75,51.31,-84.97,-140.02
35568,52.421345,-1.534866,180.5,0.1,4,269.34,20 / 20,38209,2019-09-06 19:20:43:952,0.0677,-0.0923,9.9677,-0.0006,0.0004,9.8066,0.0042,0.0268,0.0122,2.19,-32.12,21.06,51.64,-84.97,-139.91
35569,52.421345,-1.534866,180.5,0.1,4,269.34,20 / 20,38309,2019-09-06 19:20:44:052,-0.0102,0.0954,10.0118,-0.0004,0.0012,9.8066,-0.0035,-0.0312,-0.0182,3.13,-30.94,20.88,54.35,-84.97,-139.87
35570,52.421345,-1.534866,180.5,0.1,4,269.34,20 / 20,38412,2019-09-06 19:20:44:155,0.0945,0.0065,10.0081,0.001,-0.0081,9.8066,-0.0087,0.033,0.0147,2.81,-31.44,20.94,53.91,-84.95,-140.31
35571,52.421345,-1.534866,180.5,0.1,4,269.34,20 / 20,38510,2019-09-06 19:20:44:253,0.0091,-0.0012,9.5981,-0.0003,0.003,9.8066,-0.0015,-0.0127,0.005,2.19,-31.56,21.06,51.24,-84.96,-140.29
35572,52.421345,-1.534866,180.5,0.1,4,269.34,20 / 20,38609,2019-09-06 19:20:44:352,-0.0126,0.0673,10.0941,0.0011,0.0058,9.8066,0.0027,0.0343,0.021,2.69,-31.62,21.38,54.45,-84.97,-139.98
35573,52.421345,-1.534866,180.5,0.1,4,269.34,20 / 20,38710,2019-09-06 19:20:44:453,-0.0868,-0.2374,9.6643,0.0008,0.0059,9.8066,-0.0383,0.0035,0.0025,2.19,-31.12,20.69,51.33,-84.97,-140.01
35574,52.421345,-1.534866,180.5,0.1,4,269.34,20 / 20,38810,2019-09-06 19:20:44:553,-0.0366,0.1555,10.0777,-0.0013,-0.0057,9.8066,-0.0046,0.0246,0.0167,2.56,-31.81,21.38,54.2,-84.95,-140.24
35575,52.421345,-1.534866,180.5,0.1,4,269.34,20 / 20,38910,2019-09-06 19:20:44:653,0.0008,0.01,9.6618,0.0005,0.0041,9.8065,0.0038,0.0019,0.0141,2.25,-32.19,20.69,51.38,-84.93,-140.19
35576,52.421345,-1.534866,180.5,0.1,4,269.34,20 / 20,39009,2019-09-06 19:20:44:752,0.065,0.2958,10.1345,-0.001,0.0043,9.8066,-0.0048,0.0349,0.008,2.19,-31.62,21.44,51.71,-84.94,-139.88
35577,52.421345,-1.534866,180.5,0.1,4,269.34,20 / 20,39109,2019-09-06 19:20:44:852,0.066,-0.2508,9.659,0.0015,0.0055,9.8066,-0.0327,0.0035,0.0138,2.56,-31.12,21.0,54.49,-84.94,-139.79
35578,52.421345,-1.534866,180.5,0.1,4,269.34,20 / 20,39209,2019-09-06 19:20:44:952,0.0698,0.1918,10.0235,-0.0025,-0.0046,9.8066,0.0034,0.0364,0.0146,2.31,-31.06,21.0,51.47,-84.93,-139.93
35579,52.421345,-1.534866,180.5,0.1,4,269.34,20 / 20,39309,2019-09-06 19:20:45:052,-0.1061,0.3313,9.9789,0.0008,-0.003,9.8066,-0.0068,0.0023,0.0101,2.0,-31.44,21.13,51.53,-84.95,-139.85
35580,52.421345,-1.534866,180.5,0.1,4,269.34,19 / 20,39410,2019-09-06 19:20:45:153,-0.0307,-0.0802,10.0286,0.0008,0.0037,9.8066,0.0034,0.0252,0.0184,2.69,-31.19,20.5,54.44,-84.94,-139.82
35581,52.421345,-1.534866,180.5,0.1,4,269.34,19 / 20,39510,2019-09-06 19:20:45:253,0.105,-0.0785,10.0433,-0.0009,-0.003,9.8066,-0.0268,0.0021,-0.0022,2.69,-30.94,21.25,54.53,-84.97,-139.71
35582,52.421345,-1.534866,180.5,0.1,4,269.34,19 / 20,39609,2019-09-06 19:20:45:352,-0.1139,0.2208,9.8877,0.0005,-0.0028,9.8066,0.0056,0.0204,0.019,2.63,-31.94,20.69,54.64,-84.96,-139.82
35583,52.421345,-1.534866,180.5,0.1,4,269.34,19 / 20,39709,2019-09-06 19:20:45:452,-0.0264,0.0042,9.6359,-0.0003,0.0022,9.8066,0.0008,-0.0029,-0.0012,2.44,-31.0,20.56,51.39,-84.96,-139.97
35584,52.421345,-1.534866,180.5,0.1,4,269.34,19 / 20,39810,2019-09-06 19:20:45:553,-0.0235,-0.2249,9.6356,0.002,0.0013,9.8066,0.0005,0.0341,0.0109,2.44,-31.25,21.0,51.41,-84.98,-139.93
35585,52.421345,-1.534866,180.5,0.1,4,269.34,19 / 20,39909,2019-09-06 19:20:45:652,-0.0512,-0.1868,9.9626,-0.0004,0.0022,9.8066,-0.0247,-0.0097,0.0046,2.38,-31.69,21.25,51.67,-84.97,-139.88
35586,52.421345,-1.534866,180.5,0.1,4,269.34,19 / 20,40010,2019-09-06 19:20:45:753,-0.0031,0.1941,9.955,-0.0003,-0.0015,9.8066,-0.0012,0.0315,0.0118,1.94,-31.12,21.0,51.31,-84.98,-140.01
35587,52.421345,-1.534866,180.5,0.1,4,269.34,19 / 20,40109,2019-09-06 19:20:45:852,-0.0385,0.1899,10.0165,0.0013,0.0005,9.8066,0.0018,-0.0173,0.0017,2.38,-31.75,20.88,51.51,-84.97,-140.03
35588,52.421345,-1.534866,180.5,0.1,4,269.34,19 / 20,40210,2019-09-06 19:20:45:953,0.021,-0.2992,9.7856,-0.0009,-0.0006,9.8066,0.0011,0.0252,0.0221,2.06,-31.62,21.31,51.39,-84.98,-140.12
35589,52.421345,-1.534866,180.5,0.1,4,269.34,19 / 20,40309,2019-09-06 19:20:46:052,0.0196,0.0322,10.0131,0.0009,0.0006,9.8066,-0.0306,-0.0146,-0.0074,2.88,-31.31,21.0,54.08,-84.98,-140.11
35590,52.421345,-1.534866,180.5,0.1,4,269.34,20 / 20,40410,2019-09-06 19:20:46:153,-0.1381,0.1722,9.8174,0.0004,-0.0005,9.8066,-0.011,0.0216,0.0224,2.75,-31.81,21.38,54.12,-84.97,-140.29
35591,52.421345,-1.534866,180.5,0.1,4,269.34,20 / 20,40510,2019-09-06 19:20:46:253,-0.0162,-0.0162,9.863,-0.0004,-0.0022,9.8066,0.0116,-0.0154,-0.0093,2.38,-31.5,21.06,50.87,-84.98,-140.42
35592,52.421345,-1.534866,180.5,0.1,4,269.34,20 / 20,40609,2019-09-06 19:20:46:352,0.0601,-0.2579,9.9052,0.0016,-0.0002,9.8066,-0.01,0.0374,0.0127,2.44,-31.5,20.81,50.76,-84.97,-140.53
35593,52.421345,-1.534866,180.5,0.1,4,269.34,20 / 20,40709,2019-09-06 19:20:46:452,-0.1494,0.2028,10.0194,-0.0007,-0.0017,9.8066,-0.0153,-0.0252,-0.006,2.63,-32.06,20.5,53.74,-84.97,-140.64
35594,52.421345,-1.534866,180.5,0.1,4,269.34,20 / 20,40810,2019-09-06 19:20:46:553,-0.0322,0.1557,9.6781,0.0012,0.0026,9.8066,-0.0179,0.0388,0.0157,2.38,-31.81,20.94,50.77,-84.96,-140.72
35595,52.421345,-1.534866,180.5,0.1,4,269.34,20 / 20,40909,2019-09-06 19:20:46:652,-0.1035,-0.1927,9.6875,-0.0001,0.0034,9.8066,0.0153,-0.0324,-0.0079,2.63,-31.87,21.25,53.75,-84.97,-140.62
35596,52.421345,-1.534866,180.5,0.1,4,269.34,20 / 20,41010,2019-09-06 19:20:46:753,-0.0133,0.2123,10.1125,-0.0015,-0.0055,9.8066,0.0049,0.0192,0.0192,2.56,-31.44,21.13,53.4,-84.94,-140.78
35597,52.421345,-1.534866,180.5,0.1,4,269.34,20 / 20,41110,2019-09-06 19:20:46:853,-0.0428,0.2004,9.8817,0.0003,-0.0001,9.8066,-0.0308,-0.0269,-0.0184,2.88,-31.5,20.75,53.57,-84.96,-140.62
35598,52.421345,-1.534866,180.5,0.1,4,269.34,20 / 20,41210,2019-09-06 19:20:46:953,0.043,-0.1211,9.5321,-0.0002,0.0042,9.8066,-0.0222,0.0221,0.0273,2.5,-31.56,21.0,53.57,-84.95,-140.81
35599,52.421345,-1.534866,180.5,0.1,4,269.34,20 / 20,41309,2019-09-06 19:20:47:052,-0.0313,-0.1687,9.8227,0.0019,0.0042,9.8066,0.0131,-0.0157,-0.0138,2.5,-31.81,20.94,53.68,-84.97,-140.69
35600,52.421345,-1.534866,180.5,0.1,4,269.34,20 / 20,41409,2019-09-06 19:20:47:152,0.0643,0.1058,10.0347,-0.0009,-0.0037,9.8066,-0.0014,0.0352,0.0158,2.44,-31.44,21.38,50.69,-84.96,-140.61
35601,52.421345,-1.534866,180.5,0.1,4,269.34,20 / 20,41510,2019-09-06 19:20:47:253,0.0676,-0.144,9.6117,-0.0006,0.0023,9.8066,-0.0161,-0.0223,-0.0003,2.69,-31.81,21.19,53.51,-84.94,-140.88
35602,52.421345,-1.534866,180.5,0.1,4,269.34,20 / 20,41609,2019-09-06 19:20:47:352,-0.0127,-0.1021,9.9351,0.0016,0.0025,9.8066,-0.0085,0.037,0.0116,2.31,-32.06,21.06,50.67,-84.94,-140.83
35603,52.421345,-1.534866,180.5,0.1,4,269.34,20 / 20,41710,2019-09-06 19:20:47:453,-0.0764,0.2235,10.0799,-0.0004,-0.0031,9.8066,0.0004,-0.0304,-0.0038,2.38,-31.31,20.88,50.39,-84.95,-140.9
35604,52.421345,-1.534866,180.5,0.1,4,269.34,20 / 20,41809,2019-09-06 19:20:47:552,-0.0246,-0.1099,9.6943,-0.0022,-0.0032,9.8066,-0.0014,0.0309,0.0232,2.63,-31.31,21.19,53.29,-84.94,-140.89
35605,52.421345,-1.534866,180.5,0.1,4,269.34,20 / 20,41910,2019-09-06 19:20:47:653,-0.0053,0.0612,9.6879,-0.0007,-0.0036,9.8066,-0.022,-0.0182,-0.0103,2.38,-31.25,20.56,50.34,-84.92,-140.96
35606,52.421345,-1.534866,180.5,0.1,4,269.34,20 / 20,42009,2019-09-06 19:20:47:752,0.105,-0.207,9.7913,-0.0003,0.0052,9.8066,0.0297,0.0001,0.0028,3.0,-31.12,20.25,54.38,-84.94,-140.59
35607,52.421345,-1.534866,180.5,0.1,4,269.34,20 / 20,42109,2019-09-06 19:20:47:852,-0.0058,-0.1706,9.9095,0.0014,0.0053,9.8066,0.0186,-0.0166,-0.0224,2.06,-31.81,21.63,50.42,-84.94,-140.54
35608,52.421345,-1.534866,180.5,0.1,4,269.34,20 / 20,42210,2019-09-06 19:20:47:953,0.0982,0.2031,9.9986,-0.001,-0.0018,9.8066,-0.0058,0.0169,0.012,2.63,-31.12,21.38,53.59,-84.94,-140.62
35609,52.421345,-1.534866,180.5,0.1,4,269.34,20 / 20,42310,2019-09-06 19:20:48:053,-0.0782,0.0156,9.6578,-0.0002,-0.0026,9.8066,-0.0047,-0.0292,-0.016,1.88,-31.31,21.13,50.7,-84.92,-140.64
35610,52.421345,-1.534866,180.5,0.1,4,269.34,20 / 20,42409,2019-09-06 19:20:48:152,-0.0234,0.0443,10.0353,-0.0001,0.0037,9.8066,0.0155,0.011,0.0012,2.31,-31.94,21.31,51.1,-84.93,-140.46
35611,52.421345,-1.534866,180.5,0.1,4,269.34,20 / 20,42509,2019-09-06 19:20:48:252,0.0701,-0.1136,9.9962,0.0018,0.0043,9.8066,0.0275,-0.0387,-0.0114,2.31,-31.94,21.63,50.51,-84.94,-140.47
35612,52.421345,-1.534866,180.5,0.1,4,269.34,20 / 20,42609,2019-09-06 19:20:48:352,-0.0379,0.2969,9.9161,-0.0011,-0.0023,9.8066,0.0183,0.0157,-0.0009,2.25,-31.12,20.63,50.97,-84.94,-140.38
35613,52.421345,-1.534866,180.5,0.1,4,269.34,20 / 20,42709,2019-09-06 19:20:48:452,-0.0052,0.0242,9.6405,-0.001,-0.0022,9.8066,-0.0179,-0.0317,-0.0157,2.19,-31.37,21.38,50.84,-84.93,-140.51
35614,52.421345,-1.534866,180.5,0.1,4,269.34,20 / 20,42810,2019-09-06 19:20:48:553,0.0848,-0.2758,9.7768,0.0001,0.0021,9.8066,0.0251,0.0114,0.0063,2.81,-31.31,21.56,53.24,-84.94,-140.31
35615,52.421345,-1.534866,180.5,0.1,4,269.34,20 / 20,42910,2019-09-06 19:20:48:653,-0.0709,0.2672,10.068,0.0003,-0.0017,9.8066,0.0246,-0.0297,-0.0251,2.13,-30.94,21.19,51.06,-84.94,-140.29
35616,52.421345,-1.534866,180.5,0.1,4,269.34,20 / 20,43010,2019-09-06 19:20:48:753,-0.0172,0.118,9.7726,0.0,-0.0026,9.8066,0.0028,0.0055,0.0062,1.75,-31.62,21.25,50.98,-84.94,-140.56
35617,52.421345,-1.534866,180.5,0.1,4,269.34,20 / 20,43109,2019-09-06 19:20:48:852,0.1213,-0.1005,9.9419,-0.0008,-0.0009,9.8066,-0.0065,-0.0316,-0.0167,2.0,-31.94,21.13,51.01,-84.94,-140.52
35618,52.421345,-1.534866,180.5,0.1,4,269.34,20 / 20,43209,2019-09-06 19:20:48:952,-0.0342,-0.188,9.722,0.0011,0.0022,9.8066,0.0032,0.0127,0.0014,2.38,-31.56,21.31,50.91,-84.93,-140.62
35619,52.421345,-1.534866,180.5,0.1,4,269.34,20 / 20,43310,2019-09-06 19:20:49:053,0.0619,-0.0525,9.983,0.0025,0.0,9.8066,0.0256,-0.0283,-0.0119,2.5,-31.25,21.25,53.45,-84.96,-140.72
35620,52.421345,-1.534866,180.5,0.1,4,269.34,20 / 20,43410,2019-09-06 19:20:49:153,-0.0729,0.2051,9.8257,0.0004,0.0,9.8066,0.0006,0.0313,0.0093,1.94,-31.37,21.31,50.48,-84.95,-140.81
35621,52.421345,-1.534866,180.5,0.1,4,269.34,20 / 20,43509,2019-09-06 19:20:49:252,0.01,-0.038,9.6773,0.0004,-0.0007,9.8066,-0.0133,-0.0186,-0.0127,2.13,-32.19,20.88,50.5,-84.96,-140.97
35622,52.421345,-1.534866,180.5,0.1,4,269.34,20 / 20,43610,2019-09-06 19:20:49:353,-0.0422,0.3177,9.9836,0.0023,0.0001,9.8066,-0.0009,0.0294,0.0107,2.19,-31.37,20.88,50.29,-84.95,-140.98
35623,52.421345,-1.534866,180.5,0.1,4,269.34,20 / 20,43710,2019-09-06 19:20:49:453,0.0219,-0.1749,9.5951,-0.0007,-0.0027,9.8066,0.0153,0.0006,-0.0091,2.13,-31.37,21.25,50.02,-84.95,-141.23
35624,52.421345,-1.534866,180.5,0.1,4,269.34,20 / 20,43810,2019-09-06 19:20:49:553,-0.0536,-0.1192,9.9321,0.0014,0.0023,9.8066,0.0017,0.0153,0.0172,2.13,-31.31,20.38,50.65,-84.97,-141.19
35625,52.421345,-1.534866,180.5,0.1,4,269.34,20 / 20,43909,2019-09-06 19:20:49:652,-0.0395,0.2949,10.0436,-0.0006,-0.0038,9.8066,0.0042,0.0163,-0.0063,2.0,-31.5,21.44,50.07,-84.95,-141.19
35626,52.421345,-1.534866,180.5,0.1,4,269.34,20 / 20,44009,2019-09-06 19:20:49:752,-0.1567,0.2017,9.8557,-0.001,-0.0048,9.8066,-0.0265,-0.0033,0.0136,2.44,-31.5,21.19,49.96,-84.94,-141.3
35627,52.421345,-1.534866,180.5,0.1,4,269.34,20 / 20,44109,2019-09-06 19:20:49:852,-0.0032,0.0365,9.6823,-0.0012,-0.0051,9.8066,0.0026,0.03,0.011,1.88,-31.81,21.06,50.16,-84.93,-141.31
35628,52.421345,-1.534866,180.5,0.1,4,269.34,20 / 20,44209,2019-09-06 19:20:49:952,0.07,-0.1577,9.6377,0.0008,0.0043,9.8066,0.0031,-0.0163,-0.0016,1.81,-31.37,21.25,50.01,-84.93,-141.26
35629,52.421345,-1.534866,180.5,0.1,4,269.34,20 / 20,44310,2019-09-06 19:20:50:053,-0.072,0.0591,10.01,0.0007,0.0056,9.8066,-0.006,0.0246,0.0182,2.25,-31.0,20.75,50.3,-84.96,-140.96
35630,52.421345,-1.534866,180.5,0.1,4,269.34,20 / 20,44409,2019-09-06 19:20:50:152,0.0546,0.1248,9.8153,-0.0015,-0.004,9.8066,-0.0247,-0.0112,-0.0166,2.38,-31.81,21.25,50.29,-84.94,-141.19
35631,52.421345,-1.534866,180.5,0.1,4,269.34,20 / 20,44509,2019-09-06 19:20:50:252,0.1244,-0.1762,9.6589,0.0005,0.0026,9.8066,-0.0143,0.0068,0.0207,2.31,-31.62,20.5,50.29,-84.95,-141.18
35632,52.421345,-1.534866,180.5,0.1,4,269.34,20 / 20,44610,2019-09-06 19:20:50:353,-0.0363,-0.2469,9.792,-0.0009,0.0013,9.8066,0.0197,-0.0209,-0.022,1.63,-31.69,21.0,50.27,-84.94,-141.2
35633,52.421345,-1.534866,180.5,0.1,4,269.34,20 / 20,44710,2019-09-06 19:20:50:453,-0.0015,-0.0054,9.992,0.0001,-0.001,9.8066,-0.0053,-0.0022,0.0078,2.38,-31.87,21.25,50.37,-84.94,-141.11
35634,52.421345,-1.534866,180.5,0.1,4,269.34,20 / 20,44809,2019-09-06 19:20:50:552,-0.0297,0.2523,10.0609,0.0014,0.001,9.8066,0.0068,-0.0136,-0.0187,2.31,-31.25,21.06,50.02,-84.95,-141.23
35635,52.421345,-1.534866,180.5,0.1,4,269.34,20 / 20,44910,2019-09-06 19:20:50:653,-0.005,-0.0551,9.8009,-0.0017,-0.0027,9.8066,-0.0391,0.0018,-0.0036,2.38,-31.56,21.25,50.16,-84.95,-141.28
35636,52.421345,-1.534866,180.5,0.1,4,269.34,20 / 20,45010,2019-09-06 19:20:50:753,0.0976,-0.1115,9.9509,0.0017,-0.0003,9.8066,0.0322,-0.0293,-0.0075,2.25,-31.69,21.13,50.12,-84.95,-141.32
35637,52.421345,-1.534866,180.5,0.1,4,269.34,20 / 20,45110,2019-09-06 19:20:50:853,-0.1262,0.2887,10.0152,-0.0005,-0.0008,9.8065,-0.0071,-0.0041,-0.0068,2.19,-31.19,21.13,49.93,-84.94,-141.32
35638,52.421345,-1.534866,180.5,0.1,4,269.34,20 / 20,45210,2019-09-06 19:20:50:953,-0.0338,-0.1388,9.7044,0.0011,0.0014,9.8066,-0.0031,-0.0253,-0.0127,1.94,-31.75,21.0,50.15,-84.95,-141.3
35639,52.421345,-1.534866,180.5,0.1,4,269.34,20 / 20,45309,2019-09-06 19:20:51:052,-0.1211,0.2222,9.9804,0.0,0.0041,9.8066,-0.0059,0.0377,0.0076,2.75,-31.69,21.5,52.52,-84.95,-141.15
35640,52.421345,-1.534866,180.5,0.1,4,269.34,20 / 20,45410,2019-09-06 19:20:51:153,-0.0169,-0.2384,9.7991,0.0006,-0.003,9.8066,0.0239,-0.0166,-0.0188,2.38,-31.0,20.63,50.03,-84.96,-141.22
35641,52.421345,-1.534866,180.5,0.1,4,269.34,20 / 20,45510,2019-09-06 19:20:51:253,-0.0301,0.174,9.8185,-0.0004,-0.0034,9.8066,-0.0004,0.0234,0.0151,2.5,-31.19,21.44,52.81,-84.95,-141.32
35642,52.421345,-1.534866,180.5,0.1,4,269.34,20 / 20,45609,2019-09-06 19:20:51:352,0.0317,-0.1856,9.5634,0.0003,0.0038,9.8066,0.0078,-0.0046,-0.011,2.25,-31.5,21.13,49.95,-84.96,-141.29
35643,52.421345,-1.534866,180.5,0.1,4,269.34,20 / 20,45709,2019-09-06 19:20:51:452,-0.0191,-0.0728,9.9164,0.0017,0.0056,9.8066,-0.0138,0.0271,0.0236,2.69,-31.62,21.38,53.11,-84.97,-141.21
35644,52.421345,-1.534866,180.5,0.1,4,269.34,20 / 20,45810,2019-09-06 19:20:51:553,0.0443,-0.1677,9.9676,-0.0011,-0.0032,9.8066,0.0273,-0.0112,-0.0083,2.38,-31.31,20.56,49.95,-84.95,-141.3
35645,52.421345,-1.534866,180.5,0.1,4,269.34,20 / 20,45910,2019-09-06 19:20:51:653,0.0925,-0.2517,9.7339,-0.0005,-0.0037,9.8066,-0.0171,0.0247,0.0127,2.25,-31.5,21.0,49.94,-84.95,-141.3
35646,52.421345,-1.534866,180.5,0.1,4,269.34,20 / 20,46010,2019-09-06 19:20:51:753,-0.0466,0.109,10.0589,0.0014,0.0043,9.8066,0.0077,-0.0122,0.0031,2.44,-31.37,21.06,50.21,-84.96,-141.05
35647,52.421345,-1.534866,180.5,0.1,4,269.34,20 / 20,46110,2019-09-06 19:20:51:853,-0.1903,0.1036,9.8031,-0.0008,0.0018,9.8066,-0.0293,0.0301,0.0024,2.88,-31.94,20.94,53.28,-84.95,-141.08
35648,52.421345,-1.534866,180.5,0.1,4,269.34,20 / 20,46209,2019-09-06 19:20:51:952,0.0803,0.0917,9.6643,0.002,-0.0004,9.8066,0.0032,0.0093,0.0009,2.56,-30.81,20.63,53.03,-84.96,-141.1
35649,52.421345,-1.534866,180.5,0.1,4,269.34,20 / 20,46310,2019-09-06 19:20:52:053,0.14,-0.0156,9.9577,-0.0017,-0.0022,9.8066,0.0039,0.0038,0.0058,2.69,-31.37,21.0,53.08,-84.97,-141.06
35650,52.421345,-1.534866,180.5,0.1,4,269.34,20 / 20,46410,2019-09-06 19:20:52:153,-0.0316,0.107,10.0604,-0.0022,0.0029,9.8066,-0.007,0.0218,0.0091,2.13,-31.81,21.25,50.59,-84.97,-140.88
35651,52.421345,-1.534866,180.5,0.1,4,269.34,20 / 20,46509,2019-09-06 19:20:52:252,-0.1878,0.1447,9.9315,0.001,-0.0035,9.8066,-0.0076,-0.0167,0.004,2.31,-31.31,21.06,50.16,-84.95,-141.1
35652,52.421345,-1.534866,180.5,0.1,4,269.34,20 / 20,46609,2019-09-06 19:20:52:352,-0.0275,0.0165,9.6753,-0.0004,-0.0032,9.8066,-0.0061,0.0306,0.0093,2.19,-31.56,20.88,50.32,-84.94,-141.15
35653,52.421345,-1.534866,180.5,0.1,4,269.34,20 / 20,46709,2019-09-06 19:20:52:452,0.0902,-0.2234,9.8402,0.0006,0.0018,9.8066,-0.0026,-0.0246,-0.0116,2.19,-31.62,20.75,50.1,-84.95,-141.34
35654,52.421345,-1.534866,180.5,0.1,4,269.34,20 / 20,46810,2019-09-06 19:20:52:553,0.027,-0.0218,9.7377,0.0009,-0.0024,9.8066,-0.0073,0.0188,0.016,1.88,-31.12,21.56,49.41,-84.97,-141.27
35655,52.421345,-1.534866,180.5,0.1,4,269.34,20 / 20,46910,2019-09-06 19:20:52:653,0.0589,-0.1111,9.9827,-0.0014,-0.0015,9.8066,-0.0048,-0.0279,-0.0119,2.19,-31.44,20.63,49.79,-84.95,-141.44
35656,52.421345,-1.534866,180.5,0.1,4,269.34,20 / 20,47009,2019-09-06 19:20:52:752,0.0028,0.0065,10.0661,-0.0007,-0.002,9.8066,-0.0289,-0.0026,0.0136,2.56,-31.87,21.38,53.03,-84.95,-141.32
35657,52.421345,-1.534866,180.5,0.1,4,269.34,20 / 20,47110,2019-09-06 19:20:52:853,0.0721,0.1373,9.8511,0.0013,0.0021,9.8066,0.023,-0.0193,-0.0313,2.31,-31.19,21.19,50.08,-84.95,-141.18
35658,52.421345,-1.534866,180.5,0.1,4,269.34,20 / 20,47210,2019-09-06 19:20:52:953,-0.0715,-0.244,9.6923,-0.002,-0.0008,9.8066,0.0024,0.0008,0.0092,2.13,-31.0,20.69,50.0,-84.97,-141.23
35659,52.421345,-1.534866,180.5,0.1,4,269.34,20 / 20,47310,2019-09-06 19:20:53:053,-0.0849,-0.2012,9.9274,-0.002,-0.0009,9.8066,0.0005,-0.0246,-0.0227,2.44,-31.44,21.94,49.71,-84.95,-141.01
35660,52.421345,-1.534866,180.5,0.1,4,269.34,20 / 20,47409,2019-09-06 19:20:53:152,-0.0096,-0.0134,9.9556,0.0008,0.0056,9.8066,-0.038,0.0116,0.007,2.06,-31.44,21.25,50.14,-84.98,-141.09
35661,52.421345,-1.534866,180.5,0.1,4,269.34,20 / 20,47510,2019-09-06 19:20:53:253,-0.0631,0.0733,9.7826,0.0009,0.002,9.8066,0.0302,-0.0324,-0.0161,2.31,-32.0,20.94,50.65,-84.97,-140.82
35662,52.421345,-1.534866,180.5,0.1,4,269.34,20 / 20,47609,2019-09-06 19:20:53:352,-0.0161,-0.3039,9.6453,-0.0016,-0.0001,9.8066,0.0025,0.0054,0.0087,2.25,-31.69,21.38,50.83,-84.96,-140.66
35663,52.421345,-1.534866,180.5,0.1,4,269.34,20 / 20,47709,2019-09-06 19:20:53:452,-0.0192,-0.2286,9.9307,-0.0001,-0.0024,9.8065,-0.0197,-0.028,-0.0277,2.06,-31.37,21.0,50.56,-84.95,-140.74
35664,52.421345,-1.534866,180.5,0.1,4,269.34,20 / 20,47810,2019-09-06 19:20:53:553,-0.0067,0.2778,10.1004,0.0004,0.0001,9.8066,-0.029,0.0038,0.025,2.38,-31.75,21.75,50.25,-84.96,-140.68
35665,52.421345,-1.534866,180.5,0.1,4,269.34,20 / 20,47910,2019-09-06 19:20:53:653,0.0453,-0.0893,9.7603,-0.0017,0.0008,9.8066,0.0103,-0.0217,-0.0315,2.63,-31.25,21.75,52.95,-84.95,-140.56
35666,52.421345,-1.534866,180.5,0.1,4,269.34,20 / 20,48010,2019-09-06 19:20:53:753,-0.0228,-0.3087,9.7093,-0.0006,-0.002,9.8066,-0.0113,0.0196,0.0229,2.0,-31.56,20.94,51.0,-84.97,-140.5
35667,52.421345,-1.534866,180.5,0.1,4,269.34,20 / 20,48109,2019-09-06 19:20:53:852,-0.1089,0.3153,9.972,0.0016,-0.0057,9.8066,-0.0061,-0.0299,-0.0256,2.0,-31.44,21.25,50.35,-84.94,-140.94
35668,52.421345,-1.534866,180.5,0.1,4,269.34,20 / 20,48210,2019-09-06 19:20:53:953,-0.0421,-0.1227,9.7784,0.0012,0.0063,9.8066,-0.0292,0.0297,0.014,2.25,-31.62,20.88,50.53,-84.93,-140.97
35669,52.421345,-1.534866,180.5,0.1,4,269.34,20 / 20,48310,2019-09-06 19:20:54:053,-0.0867,0.1476,10.0385,0.0002,0.004,9.8066,0.0185,-0.0384,-0.0173,2.31,-31.44,21.13,50.66,-84.95,-140.65
35670,52.421345,-1.534866,180.5,0.1,4,269.34,19 / 21,48410,2019-09-06 19:20:54:153,-0.1447,0.1784,9.7552,-0.0008,-0.0059,9.8065,0.0002,0.0244,-0.0043,2.13,-31.0,21.44,50.52,-84.94,-140.79
35671,52.421345,-1.534866,180.5,0.1,4,269.34,19 / 21,48510,2019-09-06 19:20:54:253,-0.074,-0.0635,9.6211,-0.0027,-0.0061,9.8066,-0.0203,-0.0306,-0.0251,2.25,-31.75,20.88,50.83,-84.93,-140.7
35672,52.421345,-1.534866,180.5,0.1,4,269.34,19 / 21,48610,2019-09-06 19:20:54:353,0.1382,-0.0603,9.9404,0.002,0.0046,9.8066,0.0079,0.0249,-0.0015,2.38,-31.94,20.81,51.03,-84.97,-140.47
35673,52.421345,-1.534866,180.5,0.1,4,269.34,19 / 21,48710,2019-09-06 19:20:54:453,-0.0765,-0.0729,10.0066,0.0002,0.0035,9.8066,0.0282,-0.0333,-0.0256,1.94,-31.31,20.88,50.9,-84.95,-140.42
35674,52.421345,-1.534866,180.5,0.1,4,269.34,19 / 21,48809,2019-09-06 19:20:54:552,-0.0659,0.1247,9.9562,-0.0003,-0.0035,9.8066,-0.0158,0.0087,0.014,2.44,-31.69,21.56,50.33,-84.94,-140.63
35675,52.421345,-1.534866,180.5,0.1,4,269.34,19 / 21,48909,2019-09-06 19:20:54:652,0.1171,-0.1492,9.7573,0.0017,-0.0018,9.8065,0.0041,-0.0278,-0.0151,2.44,-31.69,21.63,50.4,-84.96,-140.55
35676,52.421345,-1.534866,180.5,0.1,4,269.34,19 / 21,49010,2019-09-06 19:20:54:753,-0.0663,0.0342,9.8974,0.0015,0.002,9.8066,-0.0124,0.0246,0.0165,2.75,-31.62,20.44,54.53,-84.96,-140.62
35677,52.421345,-1.534866,180.5,0.1,4,269.34,19 / 21,49109,2019-09-06 19:20:54:852,-0.0658,-0.1863,9.651,-0.0004,-0.0005,9.8066,0.0236,-0.0274,-0.0138,1.88,-31.37,20.5,50.63,-84.95,-140.66
35678,52.421345,-1.534866,180.5,0.1,4,269.34,19 / 21,49210,2019-09-06 19:20:54:953,0.1191,-0.1199,9.6282,-0.0006,0.0015,9.8066,-0.0022,0.0342,0.0053,2.44,-31.75,21.13,50.73,-84.96,-140.76
35679,52.421345,-1.534866,180.5,0.1,4,269.34,19 / 21,49315,2019-09-06 19:20:55:058,-0.0594,-0.1763,9.9573,0.0015,0.0041,9.8066,0.0002,-0.0321,-0.0144,2.38,-31.94,21.13,50.6,-84.93,-140.91
35680,52.421345,-1.534866,180.5,0.1,4,269.34,19 / 20,49409,2019-09-06 19:20:55:152,0.1002,-0.1731,9.5846,0.0001,0.0049,9.8066,0.0,0.0349,0.0054,2.25,-31.37,21.56,49.97,-84.96,-140.77
35681,52.421345,-1.534866,180.5,0.1,4,269.34,19 / 20,49510,2019-09-06 19:20:55:253,0.0122,-0.0147,9.7448,0.0002,-0.0049,9.8066,0.033,-0.0242,-0.0224,2.25,-31.37,21.31,50.22,-84.93,-141.07
35682,52.421345,-1.534866,180.5,0.1,4,269.34,19 / 20,49610,2019-09-06 19:20:55:353,-0.0189,-0.1313,9.7176,-0.0001,0.0022,9.8066,-0.0189,0.0295,0.018,2.44,-31.69,21.44,50.53,-84.94,-140.97
35683,52.421345,-1.534866,180.5,0.1,4,269.34,19 / 20,49710,2019-09-06 19:20:55:453,0.0278,0.0876,10.0565,-0.0007,0.0026,9.8066,0.003,-0.0174,-0.0195,2.31,-31.31,20.81,50.26,-84.93,-141.04
35684,52.421345,-1.534866,180.5,0.1,4,269.34,19 / 20,49810,2019-09-06 19:20:55:553,-0.0603,0.1196,9.8982,0.0009,0.004,9.8066,-0.006,0.0238,0.0184,2.44,-31.12,20.69,50.53,-84.94,-140.78
35685,52.421345,-1.534866,180.5,0.1,4,269.34,19 / 20,49910,2019-09-06 19:20:55:653,-0.0245,0.1113,9.821,0.0,-0.0018,9.8066,0.0191,-0.0262,-0.0184,2.13,-31.19,21.0,50.53,-84.93,-140.79
35686,52.421345,-1.534866,180.5,0.1,4,269.34,19 / 20,50009,2019-09-06 19:20:55:752,0.0565,-0.1872,9.559,-0.001,-0.0056,9.8066,0.0051,0.0299,0.0079,2.63,-31.44,20.56,53.24,-84.91,-140.98
35687,52.421345,-1.534866,180.5,0.1,4,269.34,19 / 20,50109,2019-09-06 19:20:55:852,-0.0131,-0.0455,9.8813,0.0003,0.0039,9.8066,0.0007,-0.0352,-0.02,2.13,-31.5,20.88,50.52,-84.92,-140.81
35688,52.421345,-1.534866,180.5,0.1,4,269.34,19 / 20,50209,2019-09-06 19:20:55:952,0.0064,-0.328,9.8463,0.0008,0.0026,9.8066,0.016,0.0199,0.0157,1.81,-31.62,21.25,50.58,-84.92,-140.94
35689,52.421345,-1.534866,180.5,0.1,4,269.34,19 / 20,50310,2019-09-06 19:20:56:053,-0.0918,0.2875,10.09,0.0002,-0.0032,9.8065,0.0191,-0.0235,-0.0263,2.5,-31.5,21.06,53.17,-84.92,-141.03
35690,52.421345,-1.534866,180.5,0.1,4,269.34,21 / 21,50409,2019-09-06 19:20:56:152,0.0415,-0.308,9.8896,-0.0007,-0.002,9.8066,-0.0178,0.0113,0.0104,2.31,-31.87,21.38,50.57,-84.93,-140.93
35691,52.421345,-1.534866,180.5,0.1,4,269.34,21 / 21,50510,2019-09-06 19:20:56:253,-0.0995,0.0691,9.8092,0.0011,0.0028,9.8066,0.0012,-0.0303,-0.0224,2.13,-30.94,21.19,50.3,-84.94,-140.99
35692,52.421345,-1.534866,180.5,0.1,4,269.34,21 / 21,50610,2019-09-06 19:20:56:353,0.0429,-0.2281,9.7546,0.0002,0.0036,9.8066,-0.0022,0.0185,0.0068,2.25,-31.12,21.31,50.23,-84.94,-141.06
35693,52.421345,-1.534866,180.5,0.1,4,269.34,21 / 21,50710,2019-09-06 19:20:56:453,0.0116,0.2409,9.9719,-0.0024,-0.0039,9.8066,0.0328,-0.0342,-0.0129,2.06,-32.06,20.81,50.42,-84.95,-141.05
35694,52.421345,-1.534866,180.5,0.1,4,269.34,21 / 21,50809,2019-09-06 19:20:56:552,0.0204,-0.0163,9.5814,-0.0005,0.0034,9.8066,-0.0008,0.0291,0.0013,2.56,-31.5,21.13,52.93,-84.94,-141.22
35695,52.421345,-1.534866,180.5,0.1,4,269.34,21 / 21,50911,2019-09-06 19:20:56:654,-0.0254,-0.2887,9.6889,0.0014,0.004,9.8066,-0.0097,-0.0323,-0.0184,2.94,-30.94,20.94,53.03,-84.96,-141.11
