,GPS LATITUDE (degrees), GPS LONGITUDE (degrees), GPS ALTITUDE (m), GPS SPEED (Kmh), GPS ACCURACY (m), GPS ORIENTATION (Â°),GPS SATELLITES IN RANGE, TIME SINCE START (ms), DATE (YYYY-MO-DD HH-MI-SS_SSS), ACCELEROMETER X (m/s²) , ACCELEROMETER Y (m/s²), ACCELEROMETER Z (m/s²), GRAVITY X (m/s²), GRAVITY Y (m/s²), GRAVITY Z (m/s²), GYROSCOPE Yaw (rad/s), GYROSCOPE Pitch (rad/s), GYROSCOPE Roll (rad/s), MAGNETIC FIELD X (Î¼T), MAGNETIC FIELD Y (Î¼T), MAGNETIC FIELD Z (Î¼T), ORIENTATION (Yaw) (Â°), ORIENTATION (Pitch) (Â°), ORIENTATION (Roll ) (Â°)
27526,53.229668,-1.332663,147.83,26.04,4,352.47,23 / 23,2752638,2019-11-08 10:43:10:249,0.8777,-0.1173,10.0642,-0.0685,-0.0368,9.8063,0.0162,-0.6873,0.3675,-9.5,-46.12,30.38,343.65,-81.28,-175.87
27527,53.229668,-1.332663,147.83,26.04,4,352.47,23 / 23,2752738,2019-11-08 10:43:10:349,5.6184,1.4318,9.0655,0.0099,0.0269,9.8065,-0.0861,-0.6351,0.5091,-9.5,-46.81,30.25,346.62,-81.21,-173.48
27528,53.229668,-1.332663,147.83,26.04,4,352.47,23 / 23,2752839,2019-11-08 10:43:10:450,1.3362,0.1046,10.0715,-0.0584,-0.0186,9.8064,0.0104,-0.5617,0.3567,-9.12,-46.06,30.5,347.96,-81.23,-173.11
27529,53.229668,-1.332663,147.83,26.04,4,352.47,23 / 23,2752939,2019-11-08 10:43:10:550,6.0953,3.2959,8.7423,0.0781,0.0551,9.8061,0.037,-0.0604,-0.0147,-9.5,-46.37,30.06,348.21,-81.14,-172.31
27530,53.229668,-1.332663,147.83,26.04,4,352.47,23 / 23,2753039,2019-11-08 10:43:10:650,-2.7752,-0.6515,10.3319,0.0237,0.0152,9.8065,-0.0503,0.3387,-0.1528,-9.5,-46.62,29.5,345.57,-81.18,-174.28
27531,53.229668,-1.332663,147.83,26.04,4,352.47,23 / 23,2753139,2019-11-08 10:43:10:750,7.2085,3.6228,9.5302,0.0628,0.0462,9.8063,-0.0102,0.8161,-0.5934,-9.37,-46.37,29.63,347.14,-81.07,-173.1
27532,53.229668,-1.332663,147.83,26.04,4,352.47,23 / 23,2753239,2019-11-08 10:43:10:850,-2.8477,-0.1669,8.9259,0.0994,0.0732,9.8058,-0.0755,0.9671,-0.6137,-9.81,-46.5,30.25,346.23,-81.11,-172.11
27533,53.229668,-1.332663,147.83,26.04,4,352.47,23 / 23,2753339,2019-11-08 10:43:10:950,-7.2813,-3.4623,11.1822,-0.0109,-0.0238,9.8066,-0.0822,0.5637,-0.3647,-9.5,-46.31,29.81,344.26,-81.41,-175.46
27534,53.229668,-1.332663,147.83,26.04,4,352.47,23 / 23,2753439,2019-11-08 10:43:11:050,0.3083,0.3056,9.3118,0.0394,0.0296,9.8065,-0.0521,0.1021,-0.0775,-9.25,-46.62,29.75,343.66,-81.41,-175.85
27535,53.231754,-1.332996,147.99,25.84,4,356.93,23 / 23,2753540,2019-11-08 10:43:11:151,-9.1881,-3.4969,11.1319,-0.1124,-0.0863,9.8056,0.1621,-0.7195,0.4631,-9.87,-46.56,30.69,340.92,-81.58,-177.04
27536,53.231754,-1.332996,147.99,25.84,4,356.93,23 / 23,2753638,2019-11-08 10:43:11:249,1.2074,0.4096,9.7472,-0.0447,-0.0649,9.8063,0.2609,-1.0486,0.5168,-9.31,-46.0,29.88,344.41,-81.59,-175.41
27537,53.231754,-1.332996,147.99,25.84,4,356.93,23 / 23,2753738,2019-11-08 10:43:11:349,-8.5007,-2.5908,10.4403,-0.0388,-0.032,9.8064,0.1216,-0.8577,0.5216,-9.5,-45.69,30.38,346.14,-81.45,-174.02
27538,53.231754,-1.332996,147.99,25.84,4,356.93,23 / 23,2753838,2019-11-08 10:43:11:449,-2.2041,0.9305,10.3721,-0.0975,-0.066,9.8059,0.0665,-0.6132,0.346,-9.25,-46.31,30.31,349.77,-81.27,-171.15
27539,53.231754,-1.332996,147.99,25.84,4,356.93,23 / 23,2753938,2019-11-08 10:43:11:549,7.9624,4.8081,8.604,0.0638,0.0705,9.8061,-0.147,0.4453,-0.247,-9.75,-46.25,30.13,346.71,-81.25,-171.79
27540,53.231754,-1.332996,147.99,25.84,4,356.93,23 / 23,2754038,2019-11-08 10:43:11:649,-3.96,-1.8628,10.6042,-0.0072,0.0165,9.8066,-0.2036,0.8022,-0.4474,-9.75,-45.87,30.56,345.16,-81.42,-173.7
27541,53.231754,-1.332996,147.99,25.84,4,356.93,23 / 23,2754138,2019-11-08 10:43:11:749,7.1518,3.3132,8.1383,0.0866,0.0812,9.8058,-0.2101,0.9335,-0.6028,-9.5,-46.75,29.69,349.06,-81.3,-171.65
27542,53.231754,-1.332996,147.99,25.84,4,356.93,23 / 23,2754238,2019-11-08 10:43:11:849,2.7888,0.8539,10.1871,0.0708,0.0604,9.8062,-0.0054,0.4585,-0.2336,-9.56,-45.94,29.38,345.43,-81.3,-172.11
27543,53.231754,-1.332996,147.99,25.84,4,356.93,23 / 23,2754338,2019-11-08 10:43:11:949,5.717,2.3415,9.9678,0.0223,-0.0135,9.8065,0.1072,0.0453,-0.0545,-10.0,-46.56,29.56,343.72,-81.47,-174.13
27544,53.231754,-1.332996,147.99,25.84,4,356.93,23 / 23,2754438,2019-11-08 10:43:12:049,3.2727,1.4373,9.3005,0.0872,0.0404,9.8061,0.1628,-0.6102,0.4136,-9.19,-46.25,30.06,342.31,-81.43,-176.99
27545,53.231754,-1.332996,147.99,25.84,4,356.93,23 / 23,2754539,2019-11-08 10:43:12:150,-6.3473,-3.97,11.4273,0.0993,0.079,9.8057,0.1407,-0.8979,0.4989,-9.19,-46.06,30.38,341.15,-81.36,-177.86
27546,53.231754,-1.332996,147.99,25.84,4,356.93,23 / 23,2754639,2019-11-08 10:43:12:250,4.0682,1.34,9.4317,-0.0359,-0.0076,9.8065,0.062,-0.7236,0.4263,-9.56,-45.75,30.81,341.8,-81.2,-176.25
27547,53.231754,-1.332996,147.99,25.84,4,356.93,23 / 23,2754738,2019-11-08 10:43:12:349,-6.7337,-2.6514,10.7547,0.0415,0.0159,9.8065,-0.0993,-0.3884,0.2759,-9.75,-46.81,30.31,338.1,-81.08,-178.28
27548,53.231754,-1.332996,147.99,25.84,4,356.93,23 / 23,2754839,2019-11-08 10:43:12:450,2.3848,0.3011,9.3613,-0.0626,-0.079,9.8061,-0.0813,0.2991,-0.1514,-9.56,-46.0,30.13,337.8,-81.16,-178.67
27549,53.231754,-1.332996,147.99,25.84,4,356.93,23 / 23,2754939,2019-11-08 10:43:12:550,5.4024,3.1495,8.2871,0.0161,0.017,9.8066,-0.1211,0.5478,-0.292,-9.25,-45.75,30.5,343.93,-80.88,-176.1
27550,53.231754,-1.332996,147.99,25.84,4,356.93,23 / 23,2755039,2019-11-08 10:43:12:650,-0.8748,-0.4883,9.0282,-0.0041,-0.0318,9.8065,-0.0463,0.6452,-0.371,-9.56,-46.56,30.06,340.55,-80.87,-176.28
27551,53.231754,-1.332996,147.99,25.84,4,356.93,23 / 23,2755139,2019-11-08 10:43:12:750,5.7441,1.9731,9.2836,0.069,0.0379,9.8063,-0.0574,0.4816,-0.3414,-9.62,-46.12,29.88,342.3,-80.89,-175.03
27552,53.231754,-1.332996,147.99,25.84,4,356.93,23 / 23,2755239,2019-11-08 10:43:12:850,0.2484,-0.4494,9.3503,0.0381,0.0148,9.8065,0.0437,0.082,0.016,-10.0,-46.12,29.56,339.42,-80.88,-177.25
27553,53.231754,-1.332996,147.99,25.84,4,356.93,23 / 23,2755339,2019-11-08 10:43:12:950,4.1507,1.9448,9.2454,0.0379,0.0062,9.8065,0.1045,-0.1544,0.0686,-9.62,-46.06,30.0,341.47,-80.87,-175.67
27554,53.231754,-1.332996,147.99,25.84,4,356.93,23 / 23,2755439,2019-11-08 10:43:13:050,0.9879,0.1625,9.9956,0.0279,0.0365,9.8064,0.0805,-0.4588,0.3211,-9.44,-46.19,30.38,342.12,-80.88,-176.86
27555,53.231754,-1.332996,147.99,25.84,4,356.93,23 / 23,2755539,2019-11-08 10:43:13:150,-2.5699,-1.04,9.5175,-0.0256,-0.0036,9.8066,0.0609,-0.4121,0.2513,-9.56,-46.5,30.06,339.73,-80.74,-176.93
27556,53.231754,-1.332996,147.99,25.84,4,356.93,23 / 23,2755639,2019-11-08 10:43:13:250,3.1707,1.984,9.6679,-0.0097,0.0107,9.8066,-0.0418,-0.2178,0.176,-9.44,-46.37,29.88,342.1,-80.84,-176.86
27557,53.231754,-1.332996,147.99,25.84,4,356.93,23 / 23,2755739,2019-11-08 10:43:13:350,-3.2546,-0.9036,10.3159,-0.0437,-0.0255,9.8065,-0.0819,-0.0113,0.0663,-9.25,-45.75,30.31,341.49,-80.79,-177.3
27558,53.231754,-1.332996,147.99,25.84,4,356.93,23 / 23,2755838,2019-11-08 10:43:13:449,1.728,0.6995,9.5227,-0.0389,-0.0335,9.8065,0.0054,0.2699,-0.1702,-9.87,-45.62,29.88,339.79,-80.89,-176.97
27559,53.231754,-1.332996,147.99,25.84,4,356.93,23 / 23,2755939,2019-11-08 10:43:13:550,2.2191,1.7024,9.5847,0.0018,-0.0043,9.8066,-0.0235,0.4118,-0.2156,-9.5,-45.94,29.81,343.58,-80.72,-175.67
27560,53.231754,-1.332996,147.99,25.84,4,356.93,23 / 23,2756038,2019-11-08 10:43:13:649,2.4824,0.7662,9.6768,-0.0551,-0.0195,9.8064,-0.0317,0.4278,-0.3542,-9.75,-46.0,29.81,343.34,-80.73,-174.16
27561,53.231754,-1.332996,147.99,25.84,4,356.93,23 / 23,2756138,2019-11-08 10:43:13:749,3.3258,1.9384,8.9258,0.0217,0.0332,9.8065,0.0075,0.1896,-0.1943,-9.37,-46.25,29.94,345.29,-80.64,-174.34
27562,53.231754,-1.332996,147.99,25.84,4,356.93,23 / 23,2756239,2019-11-08 10:43:13:850,-2.67,-1.4958,10.4944,0.0245,0.0176,9.8065,0.0507,-0.1845,0.1668,-10.06,-45.69,30.06,343.23,-80.62,-174.2
27563,53.231754,-1.332996,147.99,25.84,4,356.93,23 / 23,2756339,2019-11-08 10:43:13:950,4.5938,0.5339,11.0484,0.0415,0.0177,9.8065,0.0474,-0.4667,0.1916,-10.25,-45.94,30.0,343.67,-80.62,-173.86
27564,53.231754,-1.332996,147.99,25.84,4,356.93,23 / 23,2756439,2019-11-08 10:43:14:050,-2.2293,0.0296,8.8585,0.0661,0.0318,9.8063,-0.0237,-0.5778,0.4285,-9.56,-45.87,29.75,340.55,-80.73,-176.3
27565,53.231754,-1.332996,147.99,25.84,4,356.93,23 / 23,2756539,2019-11-08 10:43:14:150,-3.5344,-2.4287,10.7339,-0.0038,0.0087,9.8066,0.1019,-0.5028,0.3502,-10.06,-46.12,29.88,342.69,-80.95,-174.77
27566,53.231754,-1.332996,147.99,25.84,4,356.93,23 / 23,2756639,2019-11-08 10:43:14:250,-0.3957,-0.3951,9.918,0.0289,0.0471,9.8064,0.0433,-0.0435,0.0022,-9.56,-46.0,30.0,341.49,-81.1,-175.77
27567,53.231754,-1.332996,147.99,25.84,4,356.93,23 / 23,2756739,2019-11-08 10:43:14:350,-4.4441,-2.1522,9.5081,-0.0623,-0.0338,9.8063,0.0476,0.1352,-0.1762,-9.94,-45.81,29.5,340.31,-81.14,-176.7
27568,53.231754,-1.332996,147.99,25.84,4,356.93,23 / 23,2756839,2019-11-08 10:43:14:450,2.4748,0.8036,9.8232,-0.0138,-0.0287,9.8065,-0.018,0.5083,-0.3044,-10.12,-46.25,29.81,342.1,-80.89,-175.19
27569,53.231754,-1.332996,147.99,25.84,4,356.93,23 / 23,2756938,2019-11-08 10:43:14:549,-4.1257,-2.4829,10.4912,-0.0221,-0.0273,9.8065,0.0072,0.6531,-0.2998,-10.12,-46.5,29.56,341.26,-80.98,-175.88
27570,53.231754,-1.332996,147.99,25.84,4,356.93,23 / 23,2757038,2019-11-08 10:43:14:649,0.6131,0.3451,9.4047,-0.0545,-0.0265,9.8064,-0.0943,0.3294,-0.2218,-10.25,-47.06,30.19,342.88,-80.87,-174.49
27571,53.231754,-1.332996,147.99,25.84,4,356.93,23 / 23,2757138,2019-11-08 10:43:14:749,4.0696,1.7125,9.5959,0.0178,0.0142,9.8065,-0.1286,0.0925,-0.0634,-9.62,-46.25,29.56,342.84,-81.22,-174.78
27572,53.231754,-1.332996,147.99,25.84,4,356.93,23 / 23,2757238,2019-11-08 10:43:14:849,0.2212,0.2305,9.8421,-0.0368,-0.0107,9.8065,0.0596,-0.2381,0.1377,-9.62,-45.87,29.81,341.42,-81.3,-175.92
27573,53.231754,-1.332996,147.99,25.84,4,356.93,23 / 23,2757339,2019-11-08 10:43:14:950,4.224,2.5331,9.7363,0.0565,0.0295,9.8064,0.1246,-0.5201,0.3895,-10.75,-46.0,30.0,341.45,-81.24,-174.21
27574,53.231754,-1.332996,147.99,25.84,4,356.93,23 / 23,2757438,2019-11-08 10:43:15:049,-1.2328,-0.883,9.6421,0.0128,0.0357,9.8065,0.0259,-0.5527,0.3014,-9.5,-45.87,29.88,344.95,-81.38,-174.91
27575,53.231754,-1.332996,147.99,25.84,4,356.93,23 / 23,2757538,2019-11-08 10:43:15:149,5.0522,2.3211,9.4932,-0.0089,-0.0089,9.8066,0.0931,-0.5046,0.2663,-10.31,-46.25,30.19,343.47,-81.28,-174.32
27576,53.231754,-1.332996,147.99,25.84,4,356.93,23 / 23,2757638,2019-11-08 10:43:15:249,-1.824,0.1387,9.7176,0.0529,0.0752,9.8061,-0.0323,-0.1324,0.126,-10.31,-46.31,30.25,340.57,-81.29,-176.58
27577,53.231754,-1.332996,147.99,25.84,4,356.93,23 / 23,2757738,2019-11-08 10:43:15:349,-5.2188,-1.9349,10.2911,-0.0275,-0.0058,9.8066,0.0121,0.323,-0.2466,-10.06,-46.37,29.19,339.87,-81.26,-176.39
27578,53.231754,-1.332996,147.99,25.84,4,356.93,23 / 23,2757838,2019-11-08 10:43:15:449,-0.8048,0.6378,9.5762,0.0356,0.0165,9.8066,-0.0491,0.5437,-0.3225,-9.87,-46.06,29.88,342.85,-81.26,-174.79
27579,53.231754,-1.332996,147.99,25.84,4,356.93,23 / 23,2757938,2019-11-08 10:43:15:549,-5.3864,-2.6421,10.8893,-0.0531,-0.0631,9.8062,-0.0462,0.6051,-0.4202,-9.69,-46.56,30.44,339.94,-81.23,-176.94
27580,53.231754,-1.332996,147.99,25.84,4,356.93,23 / 23,2758039,2019-11-08 10:43:15:650,2.4242,0.6538,9.2223,-0.0031,-0.0386,9.8065,-0.1244,0.5221,-0.3412,-9.5,-46.37,30.0,343.51,-80.97,-175.85
27581,53.231754,-1.332996,147.99,25.84,4,356.93,23 / 23,2758139,2019-11-08 10:43:15:750,-4.6838,-1.8017,10.3128,-0.0489,-0.0425,9.8063,-0.0301,0.1155,-0.1153,-9.87,-46.56,29.31,338.85,-81.2,-177.04
27582,53.231754,-1.332996,147.99,25.84,4,356.93,23 / 23,2758238,2019-11-08 10:43:15:849,1.0843,0.6443,10.1548,-0.0509,-0.0386,9.8063,0.036,-0.1427,0.0724,-10.5,-46.31,29.56,343.04,-81.08,-174.56
27583,53.231754,-1.332996,147.99,25.84,4,356.93,23 / 23,2758339,2019-11-08 10:43:15:950,3.9797,1.362,9.7689,0.0095,-0.0003,9.8065,0.0664,-0.4656,0.3208,-10.0,-46.0,30.06,342.42,-81.01,-175.0
27584,53.231754,-1.332996,147.99,25.84,4,356.93,23 / 23,2758439,2019-11-08 10:43:16:050,1.7921,-0.0233,9.8943,-0.0457,-0.036,9.8064,0.0766,-0.5796,0.3735,-10.37,-46.0,30.5,341.69,-80.99,-176.23
27585,53.231754,-1.332996,147.99,25.84,4,356.93,23 / 23,2758538,2019-11-08 10:43:16:149,3.9144,1.551,8.7476,0.0357,0.045,9.8064,0.0855,-0.5591,0.3286,-9.87,-46.31,29.5,344.22,-80.93,-173.58
27586,53.231754,-1.332996,147.99,25.84,4,356.93,23 / 23,2758639,2019-11-08 10:43:16:250,-5.4911,-2.0794,9.974,0.01,-0.0013,9.8066,0.1033,-0.4369,0.2502,-10.37,-46.69,30.13,342.97,-80.91,-174.45
27587,53.231754,-1.332996,147.99,25.84,4,356.93,23 / 23,2758738,2019-11-08 10:43:16:349,0.5886,0.0256,9.9456,0.0589,0.038,9.8063,-0.0542,0.0605,-0.0547,-10.25,-46.37,30.06,344.35,-80.98,-173.5
27588,53.231754,-1.332996,147.99,25.84,4,356.93,23 / 23,2758839,2019-11-08 10:43:16:450,-5.1538,-2.7238,9.9865,0.0619,0.035,9.8063,-0.0232,0.1306,-0.1621,-10.69,-46.44,29.88,339.16,-81.15,-175.95
27589,53.231754,-1.332996,147.99,25.84,4,356.93,23 / 23,2758939,2019-11-08 10:43:16:550,1.9528,-0.0843,10.4153,0.0339,-0.0019,9.8065,-0.0874,0.4812,-0.3228,-10.44,-45.81,29.56,343.4,-81.2,-174.33
27590,53.231754,-1.332996,147.99,25.84,4,356.93,23 / 23,2759038,2019-11-08 10:43:16:649,4.2194,1.4337,9.3929,0.0599,0.0308,9.8064,-0.0416,0.5608,-0.3879,-10.25,-46.37,29.63,344.39,-81.05,-173.5
27591,53.231754,-1.332996,147.99,25.84,4,356.93,23 / 23,2759139,2019-11-08 10:43:16:750,1.571,1.1656,10.262,-0.0035,-0.0429,9.8065,-0.1225,0.5144,-0.3139,-10.81,-45.81,29.69,340.19,-81.25,-175.19
27592,53.231754,-1.332996,147.99,25.84,4,356.93,23 / 23,2759239,2019-11-08 10:43:16:850,3.8561,1.0799,9.3039,0.0285,0.0135,9.8065,-0.0016,0.4286,-0.2836,-10.12,-45.94,29.94,341.51,-81.11,-175.76
27593,53.231754,-1.332996,147.99,25.84,4,356.93,23 / 23,2759339,2019-11-08 10:43:16:950,-3.0434,-2.2905,9.9771,-0.0525,-0.0291,9.8064,-0.0402,0.1726,-0.0277,-10.44,-46.44,30.25,341.11,-81.03,-176.03
27594,53.231754,-1.332996,147.99,25.84,4,356.93,23 / 23,2759438,2019-11-08 10:43:17:049,3.4636,1.6498,9.1083,-0.0166,-0.0218,9.8065,0.0227,-0.0172,0.0586,-9.75,-46.62,30.06,342.54,-80.96,-174.8
27595,53.231754,-1.332996,147.99,25.84,4,356.93,23 / 23,2759538,2019-11-08 10:43:17:149,-3.1981,-1.6875,10.4045,0.035,0.0069,9.8065,0.107,-0.4332,0.2551,-10.31,-45.81,30.13,341.72,-81.01,-175.54
27596,53.231754,-1.332996,147.99,25.84,4,356.93,23 / 23,2759638,2019-11-08 10:43:17:249,-0.8657,-0.8297,10.3467,-0.0389,-0.0353,9.8065,0.065,-0.4079,0.2831,-10.19,-46.62,30.06,340.86,-80.94,-176.08
27597,53.231754,-1.332996,147.99,25.84,4,356.93,23 / 23,2759738,2019-11-08 10:43:17:349,-2.5753,-1.11,9.301,-0.014,0.0099,9.8066,-0.0557,-0.3583,0.2852,-10.37,-46.12,29.0,341.0,-80.89,-175.31
27598,53.231754,-1.332996,147.99,25.84,4,356.93,23 / 23,2759838,2019-11-08 10:43:17:449,0.1297,0.4103,10.6843,-0.0546,-0.0116,9.8065,-0.0101,-0.3178,0.2628,-10.5,-46.44,30.19,343.35,-80.93,-174.25
27599,53.231754,-1.332996,147.99,25.84,4,356.93,23 / 23,2759938,2019-11-08 10:43:17:549,1.8915,1.0512,9.1656,-0.0036,0.0231,9.8065,-0.0258,-0.1863,0.0714,-10.12,-46.37,29.0,341.72,-80.91,-174.78
27600,53.231754,-1.332996,147.99,25.84,4,356.93,23 / 23,2760038,2019-11-08 10:43:17:649,0.1968,1.6671,10.0094,-0.0289,-0.0048,9.8066,-0.0568,-0.0684,0.1071,-10.56,-46.37,29.81,341.45,-81.1,-174.13
27601,53.231754,-1.332996,147.99,25.84,4,356.93,23 / 23,2760138,2019-11-08 10:43:17:749,0.3856,0.7064,9.8833,-0.011,-0.0287,9.8065,0.0511,-0.0601,0.0416,-10.06,-46.0,29.25,342.26,-81.01,-174.41
27602,53.231754,-1.332996,147.99,25.84,4,356.93,23 / 23,2760238,2019-11-08 10:43:17:849,-2.5445,-0.5934,9.8811,-0.0135,-0.0073,9.8066,-0.0165,0.035,0.0061,-10.31,-46.56,29.94,342.22,-81.07,-175.1
27603,53.231754,-1.332996,147.99,25.84,4,356.93,23 / 23,2760338,2019-11-08 10:43:17:949,-0.1157,0.956,9.5035,0.0373,0.0183,9.8065,0.0211,0.1475,-0.1339,-10.5,-45.62,29.88,344.78,-81.09,-173.22
27604,53.231754,-1.332996,147.99,25.84,4,356.93,23 / 23,2760438,2019-11-08 10:43:18:049,-3.2909,-0.4071,10.1408,-0.0158,0.0162,9.8066,-0.0306,0.2886,-0.1375,-10.81,-45.94,30.13,342.53,-81.17,-173.33
27605,53.231754,-1.332996,147.99,25.84,4,356.93,23 / 23,2760538,2019-11-08 10:43:18:149,3.1548,1.3031,10.5789,0.0616,0.0329,9.8063,-0.0286,0.3589,-0.361,-10.69,-46.56,29.56,343.9,-81.08,-172.15
27606,53.231754,-1.332996,147.99,25.84,4,356.93,23 / 23,2760639,2019-11-08 10:43:18:250,-3.3737,-0.3611,10.8218,0.0081,0.0337,9.8065,-0.1458,0.4674,-0.298,-10.37,-46.19,30.63,345.53,-80.88,-173.2
27607,53.231754,-1.332996,147.99,25.84,4,356.93,23 / 23,2760739,2019-11-08 10:43:18:350,4.0035,0.8843,10.7493,0.0609,0.0045,9.8064,0.1285,0.4346,-0.3237,-10.62,-46.19,29.19,342.29,-81.1,-172.73
27608,53.231754,-1.332996,147.99,25.84,4,356.93,23 / 23,2760839,2019-11-08 10:43:18:450,-0.174,1.8297,8.6834,0.0394,0.057,9.8063,-0.0281,0.3837,-0.2235,-9.87,-46.0,29.75,343.05,-81.22,-174.61
27609,53.231754,-1.332996,147.99,25.84,4,356.93,23 / 23,2760938,2019-11-08 10:43:18:549,3.7318,1.8697,9.3517,0.0231,0.0181,9.8065,0.0122,0.2167,-0.1702,-10.25,-45.81,30.19,344.05,-81.09,-173.78
27610,53.231754,-1.332996,147.99,25.84,4,356.93,23 / 23,2761039,2019-11-08 10:43:18:650,-1.2132,0.2514,9.8386,0.0504,0.0377,9.8064,0.0481,0.0068,0.0114,-10.81,-45.94,30.06,340.04,-81.08,-175.22
27611,53.231754,-1.332996,147.99,25.84,4,356.93,23 / 23,2761139,2019-11-08 10:43:18:750,-2.5235,-1.5547,11.1526,0.0196,-0.0182,9.8065,0.1319,-0.1034,0.0133,-10.75,-46.06,29.56,341.57,-81.02,-174.0
27612,53.231754,-1.332996,147.99,25.84,4,356.93,23 / 23,2761238,2019-11-08 10:43:18:849,-2.7161,-0.3666,9.565,0.0342,0.0316,9.8065,0.0457,-0.2308,0.1969,-10.31,-46.19,29.63,344.52,-80.91,-173.34
27613,53.231754,-1.332996,147.99,25.84,4,356.93,23 / 23,2761338,2019-11-08 10:43:18:949,-1.4006,-0.4197,10.9204,0.0021,-0.0349,9.8066,0.0932,-0.2823,0.1947,-11.06,-46.56,29.94,340.6,-81.09,-174.7
27614,53.231754,-1.332996,147.99,25.84,4,356.93,23 / 23,2761438,2019-11-08 10:43:19:049,3.6162,1.8518,8.9491,0.0376,0.01,9.8065,0.1891,-0.4442,0.2611,-11.0,-46.06,29.38,338.92,-81.0,-175.28
27615,53.231754,-1.332996,147.99,25.84,4,356.93,23 / 23,2761538,2019-11-08 10:43:19:149,-0.0362,-1.0526,10.18,-0.0228,-0.0424,9.8065,0.1125,-0.4496,0.2198,-10.0,-45.87,29.94,341.85,-81.0,-175.44
27616,53.231754,-1.332996,147.99,25.84,4,356.93,23 / 23,2761639,2019-11-08 10:43:19:250,3.3326,1.7346,8.8849,-0.0006,0.0012,9.8066,0.0217,-0.3745,0.2679,-10.37,-46.37,29.69,342.56,-80.97,-174.88
27617,53.231754,-1.332996,147.99,25.84,4,356.93,23 / 23,2761739,2019-11-08 10:43:19:350,-1.5039,-1.0407,9.4547,-0.0379,-0.0345,9.8065,0.0098,-0.2762,0.2219,-10.94,-46.12,29.88,339.88,-81.07,-175.34
27618,53.231754,-1.332996,147.99,25.84,4,356.93,23 / 23,2761839,2019-11-08 10:43:19:450,2.0882,0.9797,9.5538,-0.0164,-0.0216,9.8065,-0.0115,-0.0619,0.0747,-10.81,-46.25,29.69,340.77,-81.1,-174.67
27619,53.231754,-1.332996,147.99,25.84,4,356.93,23 / 23,2761939,2019-11-08 10:43:19:550,-2.0898,-1.4526,9.9903,-0.0262,-0.0235,9.8066,0.0148,-0.0666,0.0053,-10.69,-46.56,29.63,340.91,-81.03,-174.43
27620,53.231754,-1.332996,147.99,25.84,4,356.93,23 / 23,2762039,2019-11-08 10:43:19:650,-0.3132,-1.0119,10.8962,-0.0205,-0.0208,9.8065,-0.1308,0.1477,-0.0775,-10.62,-46.56,29.44,340.58,-80.91,-173.85
27621,53.231754,-1.332996,147.99,25.84,4,356.93,23 / 23,2762139,2019-11-08 10:43:19:750,-0.7701,-0.2538,9.7734,-0.0067,0.0064,9.8066,-0.0599,0.1279,-0.0706,-10.75,-45.69,29.88,340.9,-81.02,-174.52
27622,53.231754,-1.332996,147.99,25.84,4,356.93,23 / 23,2762238,2019-11-08 10:43:19:849,0.026,-0.2608,10.6177,-0.0116,-0.0043,9.8066,-0.0791,0.0647,-0.0417,-10.69,-45.94,30.63,341.78,-81.03,-174.56
27623,53.231754,-1.332996,147.99,25.84,4,356.93,23 / 23,2762338,2019-11-08 10:43:19:949,-0.5284,-0.4686,9.6526,-0.0248,0.0007,9.8066,0.0033,-0.0996,-0.0375,-10.81,-46.25,30.0,340.33,-81.07,-174.99
27624,53.231754,-1.332996,147.99,25.84,4,356.93,23 / 23,2762438,2019-11-08 10:43:20:049,0.3982,0.4025,9.6117,-0.0108,-0.004,9.8066,-0.0833,0.0025,0.0882,-10.56,-46.12,29.0,339.25,-81.1,-175.08
27625,53.233875,-1.33309,148.3,27.19,4,0.29,23 / 23,2762538,2019-11-08 10:43:20:149,-1.8795,0.2302,10.7468,-0.0218,-0.0121,9.8066,-0.0579,-0.1024,0.0527,-10.44,-45.87,29.5,343.74,-81.09,-174.02
27626,53.233875,-1.33309,148.3,27.19,4,0.29,23 / 23,2762639,2019-11-08 10:43:20:250,2.3189,-0.261,10.437,0.0293,-0.0161,9.8065,-0.1701,-0.1238,0.1542,-10.81,-46.0,29.63,341.34,-81.07,-174.21
27627,53.233875,-1.33309,148.3,27.19,4,0.29,23 / 23,2762739,2019-11-08 10:43:20:350,-1.0055,-0.1013,9.7909,-0.016,-0.0217,9.8065,0.0574,-0.1652,0.0575,-10.81,-46.19,30.44,341.36,-81.24,-174.28
27628,53.233875,-1.33309,148.3,27.19,4,0.29,23 / 23,2762838,2019-11-08 10:43:20:449,1.9695,1.7213,9.1961,-0.0073,-0.014,9.8066,-0.0347,0.1571,-0.1391,-10.31,-45.94,29.81,343.5,-81.09,-174.2
27629,53.233875,-1.33309,148.3,27.19,4,0.29,23 / 23,2762938,2019-11-08 10:43:20:549,-0.6645,-1.2325,9.7783,-0.0523,-0.0044,9.8065,0.1195,0.1516,-0.2394,-10.5,-46.25,30.38,342.12,-81.19,-175.32
27630,53.233875,-1.33309,148.3,27.19,4,0.29,23 / 23,2763038,2019-11-08 10:43:20:649,3.0943,0.9111,9.9832,-0.0286,-0.0213,9.8065,-0.0264,0.3543,-0.2302,-10.62,-46.19,29.38,338.79,-81.25,-175.52
27631,53.233875,-1.33309,148.3,27.19,4,0.29,23 / 23,2763138,2019-11-08 10:43:20:749,-3.6069,-0.4356,9.7716,0.0158,-0.0124,9.8065,-0.0352,0.325,-0.3038,-11.37,-46.5,29.63,340.18,-81.22,-175.19
27632,53.233875,-1.33309,148.3,27.19,4,0.29,23 / 23,2763238,2019-11-08 10:43:20:849,-0.6389,0.0573,10.9579,-0.0275,-0.0484,9.8064,-0.1037,0.4103,-0.2473,-10.0,-46.25,29.06,343.34,-81.11,-173.63
27633,53.233875,-1.33309,148.3,27.19,4,0.29,23 / 23,2763338,2019-11-08 10:43:20:949,-3.331,-1.4199,10.4933,-0.0479,-0.0066,9.8064,-0.0583,0.3304,-0.3057,-10.75,-46.19,30.19,341.42,-81.22,-174.22
27634,53.233875,-1.33309,148.3,27.19,4,0.29,23 / 23,2763438,2019-11-08 10:43:21:049,1.5899,1.7064,9.9709,-0.0249,-0.0472,9.8064,-0.1051,0.4416,-0.2879,-11.0,-46.5,30.31,343.18,-81.12,-172.8
27635,53.233875,-1.33309,148.3,27.19,4,0.29,24 / 24,2763538,2019-11-08 10:43:21:149,1.0903,1.8309,8.3907,-0.033,-0.0019,9.8066,-0.0996,0.3945,-0.2822,-11.12,-46.0,29.88,342.34,-81.33,-173.55
27636,53.233875,-1.33309,148.3,27.19,4,0.29,24 / 24,2763638,2019-11-08 10:43:21:249,2.8336,1.5713,9.8453,-0.0329,-0.0484,9.8065,0.0213,0.2587,-0.1761,-10.87,-46.19,29.94,342.17,-81.4,-173.72
27637,53.233875,-1.33309,148.3,27.19,4,0.29,24 / 24,2763738,2019-11-08 10:43:21:349,-0.9444,0.3181,9.4916,-0.018,0.0079,9.8066,0.0442,0.1937,-0.1879,-10.94,-46.5,30.44,342.83,-81.08,-173.06
27638,53.233875,-1.33309,148.3,27.19,4,0.29,24 / 24,2763839,2019-11-08 10:43:21:450,-0.9773,-1.1894,11.1661,-0.0204,-0.0264,9.8065,0.0349,0.1061,-0.1429,-10.75,-46.12,29.94,343.03,-81.07,-172.89
27639,53.233875,-1.33309,148.3,27.19,4,0.29,24 / 24,2763939,2019-11-08 10:43:21:550,-1.3284,-0.8214,9.934,-0.0123,0.0237,9.8065,-0.0335,0.0901,0.0068,-10.94,-46.12,29.63,342.44,-81.28,-173.46
27640,53.233875,-1.33309,148.3,27.19,4,0.29,24 / 24,2764040,2019-11-08 10:43:21:651,-0.2017,0.6645,10.4333,-0.0309,-0.0244,9.8066,0.0764,0.0193,-0.0497,-10.94,-46.69,29.75,343.91,-81.39,-172.28
27641,53.233875,-1.33309,148.3,27.19,4,0.29,24 / 24,2764138,2019-11-08 10:43:21:749,1.3811,1.6153,9.1188,-0.0005,0.004,9.8066,0.0912,-0.071,-0.0378,-10.81,-46.37,30.13,343.12,-81.36,-172.96
27642,53.233875,-1.33309,148.3,27.19,4,0.29,24 / 24,2764238,2019-11-08 10:43:21:849,0.4698,0.3403,10.164,-0.003,-0.0234,9.8065,0.0875,-0.095,-0.01,-11.31,-45.75,29.88,342.24,-81.28,-173.61
27643,53.233875,-1.33309,148.3,27.19,4,0.29,24 / 24,2764339,2019-11-08 10:43:21:950,0.7661,0.6982,9.5544,-0.0021,0.0115,9.8066,0.042,-0.0206,0.0351,-10.62,-46.5,30.38,342.55,-81.2,-173.33
27644,53.233875,-1.33309,148.3,27.19,4,0.29,24 / 24,2764438,2019-11-08 10:43:22:049,1.3156,-0.3455,10.0519,-0.0278,0.0061,9.8065,0.0919,0.1105,-0.0624,-10.81,-46.25,29.94,343.59,-81.24,-172.54
27645,53.233875,-1.33309,148.3,27.19,4,0.29,24 / 24,2764539,2019-11-08 10:43:22:150,-1.8561,0.0636,9.6699,-0.0419,-0.005,9.8065,0.1014,0.1494,-0.1086,-11.0,-46.56,29.94,343.79,-81.34,-172.35
27646,53.233875,-1.33309,148.3,27.19,4,0.29,24 / 24,2764638,2019-11-08 10:43:22:249,2.1284,1.0075,10.3212,-0.03,-0.0208,9.8066,0.1455,0.1358,-0.1064,-10.75,-46.12,29.44,345.15,-81.26,-170.6
27647,53.233875,-1.33309,148.3,27.19,4,0.29,24 / 24,2764739,2019-11-08 10:43:22:350,0.8902,1.698,8.9993,-0.0189,-0.011,9.8066,-0.0006,-0.0938,0.0388,-11.06,-46.25,29.63,346.13,-81.35,-170.61
27648,53.233875,-1.33309,148.3,27.19,4,0.29,24 / 24,2764839,2019-11-08 10:43:22:450,1.2672,-0.1203,9.7938,-0.0208,0.0045,9.8066,0.0237,-0.0531,-0.0163,-11.44,-46.19,29.94,346.69,-81.38,-170.18
27649,53.233875,-1.33309,148.3,27.19,4,0.29,24 / 24,2764939,2019-11-08 10:43:22:550,-0.0973,-1.1455,9.7404,0.0022,-0.0158,9.8066,-0.0128,0.0601,0.0125,-11.37,-46.25,30.44,347.3,-81.55,-169.76
27650,53.233875,-1.33309,148.3,27.19,4,0.29,24 / 24,2765039,2019-11-08 10:43:22:650,-0.0812,0.7425,9.92,-0.0267,-0.009,9.8066,-0.0091,0.0445,-0.0256,-11.44,-46.0,30.0,346.68,-81.29,-170.16
27651,53.233875,-1.33309,148.3,27.19,4,0.29,24 / 24,2765139,2019-11-08 10:43:22:750,-1.9137,-0.6691,9.4572,-0.0395,0.0094,9.8065,0.0622,0.0066,0.029,-11.12,-46.12,30.31,345.35,-81.2,-171.15
27652,53.233875,-1.33309,148.3,27.19,4,0.29,24 / 24,2765238,2019-11-08 10:43:22:849,1.4531,1.0176,10.6533,-0.0497,-0.0069,9.8065,0.0227,-0.0417,0.09,-11.0,-46.12,30.75,349.2,-81.35,-168.89
27653,53.233875,-1.33309,148.3,27.19,4,0.29,24 / 24,2765338,2019-11-08 10:43:22:949,-0.3767,2.2815,8.2823,-0.037,0.0036,9.8065,0.1491,-0.1335,0.0773,-11.25,-45.5,30.5,348.03,-81.3,-169.84
27654,53.233875,-1.33309,148.3,27.19,4,0.29,24 / 24,2765438,2019-11-08 10:43:23:049,2.0774,1.5841,9.3088,-0.0297,-0.0434,9.8065,0.1792,-0.138,0.0986,-11.06,-46.06,30.06,346.75,-81.33,-170.11
27655,53.233875,-1.33309,148.3,27.19,4,0.29,24 / 24,2765539,2019-11-08 10:43:23:150,-0.5681,-0.833,10.2536,-0.0128,-0.0129,9.8065,0.1551,-0.215,0.0622,-10.81,-45.56,30.56,348.09,-81.04,-169.66
27656,53.233875,-1.33309,148.3,27.19,4,0.29,24 / 24,2765639,2019-11-08 10:43:23:250,-0.9287,-0.334,10.3293,-0.0153,-0.0264,9.8065,0.0627,-0.1884,0.1325,-11.0,-45.81,30.38,347.7,-80.93,-169.24
27657,53.233875,-1.33309,148.3,27.19,4,0.29,24 / 24,2765739,2019-11-08 10:43:23:350,-2.0858,-0.8709,10.1344,-0.0073,-0.0025,9.8066,0.0489,-0.262,0.1987,-10.81,-46.25,30.56,347.93,-80.98,-169.76
27658,53.233875,-1.33309,148.3,27.19,4,0.29,24 / 24,2765839,2019-11-08 10:43:23:450,1.0613,0.1107,10.7223,-0.0411,-0.0187,9.8065,0.0234,-0.2417,0.2199,-11.19,-46.69,29.94,348.13,-80.95,-168.86
27659,53.233875,-1.33309,148.3,27.19,4,0.29,24 / 24,2765938,2019-11-08 10:43:23:549,1.345,0.902,8.967,-0.0288,0.0031,9.8065,0.0865,-0.2099,0.2155,-10.87,-46.5,29.94,348.0,-80.8,-168.97
27660,53.233875,-1.33309,148.3,27.19,4,0.29,24 / 24,2766038,2019-11-08 10:43:23:649,0.935,0.7628,10.207,-0.033,-0.0301,9.8065,0.0597,-0.1745,0.2087,-11.87,-45.81,30.38,346.5,-80.77,-168.47
27661,53.233875,-1.33309,148.3,27.19,4,0.29,24 / 24,2766138,2019-11-08 10:43:23:749,-0.9669,-0.1286,9.5187,-0.0214,0.0,9.8066,0.1011,-0.1949,0.1615,-11.5,-46.25,30.75,350.84,-80.52,-167.4
27662,53.233875,-1.33309,148.3,27.19,4,0.29,24 / 24,2766238,2019-11-08 10:43:23:849,-0.0808,-0.2844,10.1822,-0.0353,-0.0068,9.8066,0.0017,-0.1246,0.1855,-11.75,-46.94,30.44,349.57,-80.59,-166.03
27663,53.233875,-1.33309,148.3,27.19,4,0.29,24 / 24,2766338,2019-11-08 10:43:23:949,-1.2395,-1.7357,9.5339,-0.0241,0.0066,9.8065,0.0102,-0.246,0.1915,-11.56,-46.56,30.69,350.19,-80.61,-166.26
27664,53.233875,-1.33309,148.3,27.19,4,0.29,24 / 24,2766438,2019-11-08 10:43:24:049,1.1647,-0.3423,10.6143,-0.0399,-0.0075,9.8065,-0.0431,-0.1555,0.1808,-12.25,-46.5,30.31,351.42,-80.66,-164.69
27665,53.233875,-1.33309,148.3,27.19,4,0.29,23 / 23,2766539,2019-11-08 10:43:24:150,1.4168,0.1819,9.021,-0.0327,0.0166,9.8065,-0.1118,-0.1909,0.2369,-12.0,-46.31,30.63,351.93,-80.53,-164.97
27666,53.233875,-1.33309,148.3,27.19,4,0.29,23 / 23,2766638,2019-11-08 10:43:24:249,1.6568,0.1885,9.3326,-0.03,-0.0191,9.8066,-0.035,-0.1227,0.2164,-11.87,-46.25,30.5,351.72,-80.62,-165.14
27667,53.233875,-1.33309,148.3,27.19,4,0.29,23 / 23,2766739,2019-11-08 10:43:24:350,-1.3684,0.364,9.0125,-0.0389,0.0072,9.8065,-0.0373,-0.1417,0.1445,-12.44,-46.69,30.25,352.36,-80.65,-163.94
27668,53.233875,-1.33309,148.3,27.19,4,0.29,23 / 23,2766839,2019-11-08 10:43:24:450,-0.8371,0.4341,11.0971,-0.0233,-0.0245,9.8065,-0.089,-0.1747,0.1579,-12.81,-46.69,30.31,352.67,-80.58,-162.08
27669,53.233875,-1.33309,148.3,27.19,4,0.29,23 / 23,2766938,2019-11-08 10:43:24:549,-2.3376,-0.7211,10.7245,-0.0424,-0.002,9.8065,-0.0531,-0.2019,0.2485,-12.44,-46.81,30.19,354.32,-80.52,-162.44
27670,53.233875,-1.33309,148.3,27.19,4,0.29,23 / 23,2767038,2019-11-08 10:43:24:649,1.853,-0.0645,10.2886,-0.0173,-0.0382,9.8065,-0.0046,-0.2595,0.175,-11.94,-46.5,30.0,355.75,-80.38,-161.38
27671,53.233875,-1.33309,148.3,27.19,4,0.29,23 / 23,2767138,2019-11-08 10:43:24:749,0.3004,0.8785,8.0967,-0.0438,0.0101,9.8065,-0.0699,-0.2159,0.2461,-12.06,-46.12,30.06,355.37,-80.4,-161.67
27672,53.233875,-1.33309,148.3,27.19,4,0.29,23 / 23,2767239,2019-11-08 10:43:24:850,1.6882,1.6532,8.3799,-0.027,-0.042,9.8065,-0.0588,-0.129,0.1137,-12.75,-46.31,30.56,355.22,-80.68,-160.91
27673,53.233875,-1.33309,148.3,27.19,4,0.29,23 / 23,2767339,2019-11-08 10:43:24:950,-0.3045,0.7058,10.0688,-0.0117,0.0015,9.8065,-0.0219,-0.0323,0.0516,-12.62,-45.75,30.75,356.25,-80.42,-160.1
27674,53.233875,-1.33309,148.3,27.19,4,0.29,23 / 23,2767439,2019-11-08 10:43:25:050,-1.7318,0.358,10.1783,-0.006,-0.0313,9.8066,0.0013,0.0978,-0.0136,-13.19,-46.62,30.69,357.06,-80.3,-159.46
27675,53.233875,-1.33309,148.3,27.19,4,0.29,24 / 24,2767540,2019-11-08 10:43:25:151,0.0428,-0.5261,9.8937,-0.0059,-0.0144,9.8066,-0.0226,0.0515,-0.038,-12.44,-45.94,30.5,358.88,-80.25,-159.68
27676,53.233875,-1.33309,148.3,27.19,4,0.29,24 / 24,2767638,2019-11-08 10:43:25:249,1.3504,-0.0787,9.5985,-0.0182,0.0035,9.8066,-0.0709,-0.0689,0.1216,-12.69,-46.25,30.19,356.94,-80.39,-158.87
27677,53.233875,-1.33309,148.3,27.19,4,0.29,24 / 24,2767738,2019-11-08 10:43:25:349,0.0313,-0.4508,9.0184,-0.0286,0.0138,9.8066,-0.0381,-0.1354,0.0814,-12.19,-46.06,30.69,359.44,-80.57,-159.27
27678,53.233875,-1.33309,148.3,27.19,4,0.29,24 / 24,2767838,2019-11-08 10:43:25:449,1.2425,0.5033,10.0653,-0.0097,-0.0142,9.8066,-0.093,-0.1271,0.124,-12.94,-46.25,30.81,357.34,-80.65,-159.28
27679,53.233875,-1.33309,148.3,27.19,4,0.29,24 / 24,2767938,2019-11-08 10:43:25:549,-1.7891,-0.8572,9.8423,0.0319,-0.0131,9.8065,-0.0291,-0.1741,0.1253,-13.5,-46.31,30.81,356.1,-80.51,-160.21
27680,53.233875,-1.33309,148.3,27.19,4,0.29,24 / 24,2768038,2019-11-08 10:43:25:649,1.9029,1.1905,9.1246,0.0131,-0.0241,9.8066,-0.1798,-0.0005,0.1423,-13.0,-45.94,30.31,356.17,-80.3,-159.44
27681,53.233875,-1.33309,148.3,27.19,4,0.29,24 / 24,2768138,2019-11-08 10:43:25:749,-1.3112,0.3974,10.0215,-0.0292,0.0141,9.8065,-0.111,-0.0197,0.0401,-13.19,-45.81,30.06,355.58,-80.34,-159.88
27682,53.233875,-1.33309,148.3,27.19,4,0.29,24 / 24,2768239,2019-11-08 10:43:25:850,-0.0117,0.5995,10.382,0.0073,-0.0318,9.8066,-0.0492,0.0395,0.0271,-12.75,-46.06,30.5,357.48,-80.62,-159.17
27683,53.233875,-1.33309,148.3,27.19,4,0.29,24 / 24,2768338,2019-11-08 10:43:25:949,-1.1177,-0.4422,10.2076,-0.0182,0.0006,9.8065,-0.0641,-0.0134,-0.0116,-13.25,-46.31,30.56,356.92,-80.48,-159.59
27684,53.233875,-1.33309,148.3,27.19,4,0.29,24 / 24,2768438,2019-11-08 10:43:26:049,1.8053,0.3909,9.8733,-0.0049,-0.029,9.8066,-0.0949,-0.0069,0.0405,-13.37,-46.87,30.38,356.06,-80.38,-159.51
27685,53.233875,-1.33309,148.3,27.19,4,0.29,24 / 24,2768538,2019-11-08 10:43:26:149,-0.4465,0.0226,9.1857,-0.0362,0.0076,9.8065,-0.1015,-0.0243,0.0546,-12.94,-46.0,30.63,356.9,-80.41,-159.6
27686,53.233875,-1.33309,148.3,27.19,4,0.29,24 / 24,2768639,2019-11-08 10:43:26:250,1.0472,0.6894,9.2984,0.0037,-0.0176,9.8065,-0.0814,-0.0363,0.0406,-13.37,-46.12,30.13,357.16,-80.47,-158.71
27687,53.233875,-1.33309,148.3,27.19,4,0.29,24 / 24,2768739,2019-11-08 10:43:26:350,-1.6544,-0.1628,9.9493,-0.0369,-0.0069,9.8065,-0.1237,-0.0948,0.0621,-13.12,-45.94,30.5,357.38,-80.56,-159.25
27688,53.233875,-1.33309,148.3,27.19,4,0.29,24 / 24,2768838,2019-11-08 10:43:26:449,-0.344,2.3864,9.9038,0.0203,-0.0379,9.8065,-0.0153,-0.0937,0.0486,-12.87,-46.31,30.88,358.42,-80.62,-158.46
27689,53.233875,-1.33309,148.3,27.19,4,0.29,24 / 24,2768938,2019-11-08 10:43:26:549,1.2297,-0.6048,10.447,-0.0231,0.0028,9.8066,-0.0747,-0.0803,0.1179,-13.19,-46.06,30.13,355.1,-80.36,-160.25
27690,53.233875,-1.33309,148.3,27.19,4,0.29,24 / 24,2769038,2019-11-08 10:43:26:649,-0.4325,1.7974,8.8038,0.0193,-0.02,9.8066,-0.1134,-0.1322,0.102,-12.56,-45.69,30.56,356.43,-80.4,-159.95
27691,53.233875,-1.33309,148.3,27.19,4,0.29,24 / 24,2769138,2019-11-08 10:43:26:749,-1.5079,-0.7718,10.5876,0.0364,0.0075,9.8065,-0.1263,-0.0971,0.1512,-12.81,-45.69,30.81,355.94,-80.38,-160.32
27692,53.233875,-1.33309,148.3,27.19,4,0.29,24 / 24,2769238,2019-11-08 10:43:26:849,1.8389,1.351,10.1475,0.0091,-0.0169,9.8065,-0.0811,-0.1103,0.0923,-13.44,-46.19,30.56,357.24,-80.3,-159.34
27693,53.233875,-1.33309,148.3,27.19,4,0.29,24 / 24,2769338,2019-11-08 10:43:26:949,-0.6614,-0.4057,11.2644,-0.012,-0.0488,9.8065,-0.1236,-0.0452,0.083,-13.19,-45.94,30.5,355.99,-80.29,-160.28
27694,53.233875,-1.33309,148.3,27.19,4,0.29,24 / 24,2769438,2019-11-08 10:43:27:049,1.4433,1.837,9.5876,0.0068,-0.019,9.8066,-0.1477,0.1063,-0.0262,-13.25,-45.62,31.0,356.04,-80.14,-160.22
27695,53.233875,-1.33309,148.3,27.19,4,0.29,22 / 23,2769539,2019-11-08 10:43:27:150,-1.1921,0.3088,9.7387,0.0337,0.0076,9.8065,-0.1218,0.114,-0.0292,-13.0,-45.87,30.25,354.04,-80.22,-161.02
27696,53.233875,-1.33309,148.3,27.19,4,0.29,22 / 23,2769638,2019-11-08 10:43:27:249,1.0724,1.9482,8.4548,0.0204,0.0302,9.8066,-0.144,0.013,0.0426,-13.0,-45.75,30.19,353.03,-80.24,-161.79
27697,53.233875,-1.33309,148.3,27.19,4,0.29,22 / 23,2769738,2019-11-08 10:43:27:349,-0.8758,0.7401,9.9876,-0.0015,-0.0387,9.8065,-0.1273,0.1102,0.0177,-13.31,-45.69,30.19,353.91,-80.44,-161.16
27698,53.233875,-1.33309,148.3,27.19,4,0.29,22 / 23,2769839,2019-11-08 10:43:27:450,0.6647,-0.811,9.7582,0.007,-0.0079,9.8066,-0.0787,0.0648,0.0589,-13.31,-45.81,30.0,354.28,-80.27,-160.85
27699,53.233875,-1.33309,148.3,27.19,4,0.29,22 / 23,2769939,2019-11-08 10:43:27:550,1.0631,0.8682,10.1949,0.0128,-0.0048,9.8065,-0.0537,-0.0705,0.0624,-13.12,-46.0,30.88,356.3,-80.34,-160.04
27700,53.233875,-1.33309,148.3,27.19,4,0.29,22 / 23,2770039,2019-11-08 10:43:27:650,0.6435,0.634,9.0061,0.0294,0.0114,9.8066,-0.0997,-0.2022,0.1743,-12.87,-46.5,30.69,356.97,-80.34,-159.54
27701,53.233875,-1.33309,148.3,27.19,4,0.29,22 / 23,2770138,2019-11-08 10:43:27:749,2.5813,0.923,10.1955,0.028,-0.0049,9.8066,-0.0589,-0.2068,0.1728,-13.0,-45.75,30.63,356.67,-80.48,-159.78
27702,53.233875,-1.33309,148.3,27.19,4,0.29,22 / 23,2770238,2019-11-08 10:43:27:849,-1.7737,0.8336,8.907,0.0305,0.0224,9.8065,-0.0644,-0.323,0.2141,-13.75,-45.87,30.56,353.87,-80.52,-160.38
27703,53.233875,-1.33309,148.3,27.19,4,0.29,22 / 23,2770338,2019-11-08 10:43:27:949,-2.0056,-1.0061,11.4198,0.0177,-0.0185,9.8066,-0.0969,-0.2877,0.1998,-13.81,-45.56,30.63,355.12,-80.57,-159.43
27704,53.233875,-1.33309,148.3,27.19,4,0.29,22 / 23,2770438,2019-11-08 10:43:28:049,-2.0037,-1.1818,10.0392,0.0254,0.0441,9.8065,-0.0586,-0.0485,0.0506,-13.37,-45.87,30.5,356.75,-80.57,-159.73
27705,53.233875,-1.33309,148.3,27.19,4,0.29,23 / 24,2770538,2019-11-08 10:43:28:149,-1.9838,-0.8339,11.7457,-0.0067,-0.0378,9.8066,-0.1269,0.1184,-0.0497,-13.25,-45.5,30.88,357.63,-80.68,-159.07
27706,53.233875,-1.33309,148.3,27.19,4,0.29,23 / 24,2770638,2019-11-08 10:43:28:249,1.3876,2.3367,8.106,0.0172,0.0109,9.8065,-0.1546,0.1563,-0.0988,-13.75,-45.87,30.94,356.2,-80.61,-158.6
27707,53.233875,-1.33309,148.3,27.19,4,0.29,23 / 24,2770738,2019-11-08 10:43:28:349,0.1163,0.0251,9.5746,-0.0068,-0.0098,9.8066,-0.096,0.1061,-0.0803,-12.87,-45.75,30.56,357.69,-80.68,-159.02
27708,53.233875,-1.33309,148.3,27.19,4,0.29,23 / 24,2770839,2019-11-08 10:43:28:450,-0.1837,1.9223,9.2079,0.0142,-0.0054,9.8065,-0.083,0.1033,-0.0626,-13.5,-46.44,30.81,356.99,-80.63,-159.55
27709,53.233875,-1.33309,148.3,27.19,4,0.29,23 / 24,2770939,2019-11-08 10:43:28:550,0.4809,-0.1106,11.0039,0.0191,-0.0199,9.8066,-0.0898,0.0564,0.0293,-13.5,-45.69,30.69,357.17,-80.66,-159.41
27710,53.233875,-1.33309,148.3,27.19,4,0.29,23 / 24,2771039,2019-11-08 10:43:28:650,0.4058,-0.0128,9.9084,0.0002,0.0012,9.8066,-0.0772,-0.0354,0.0386,-13.75,-45.94,31.0,354.45,-80.58,-159.95
27711,53.233875,-1.33309,148.3,27.19,4,0.29,23 / 24,2771138,2019-11-08 10:43:28:749,1.1331,0.6077,10.5976,-0.0267,0.0144,9.8065,-0.0387,-0.1087,0.0877,-12.44,-45.56,30.81,359.37,-80.63,-159.32
27712,53.233875,-1.33309,148.3,27.19,4,0.29,23 / 24,2771238,2019-11-08 10:43:28:849,-1.6774,0.6151,9.076,0.0134,-0.0016,9.8066,-0.0862,-0.1865,0.1507,-13.44,-45.5,31.06,356.48,-80.52,-159.95
27713,53.233875,-1.33309,148.3,27.19,4,0.29,23 / 24,2771338,2019-11-08 10:43:28:949,0.8567,1.1916,8.8076,0.0239,0.0252,9.8066,-0.0487,-0.2318,0.1791,-12.94,-45.87,31.56,357.97,-80.52,-159.44
27714,53.233875,-1.33309,148.3,27.19,4,0.29,23 / 24,2771438,2019-11-08 10:43:29:049,-2.5612,-0.9109,9.9559,0.0021,0.0263,9.8066,-0.0881,-0.2455,0.1847,-12.94,-45.31,31.69,357.85,-80.7,-159.56
27715,53.236103,-1.332975,148.56,27.52,4,1.98,23 / 23,2771538,2019-11-08 10:43:29:149,-2.3865,0.0009,10.7239,-0.0348,0.0057,9.8065,-0.0552,-0.0823,0.0105,-13.37,-45.87,31.25,357.9,-80.61,-158.85
27716,53.236103,-1.332975,148.56,27.52,4,1.98,23 / 23,2771639,2019-11-08 10:43:29:250,-2.3517,-0.4041,10.5645,0.0309,0.0276,9.8065,-0.11,-0.0132,0.0512,-12.94,-45.5,31.0,356.74,-80.7,-159.76
27717,53.236103,-1.332975,148.56,27.52,4,1.98,23 / 23,2771739,2019-11-08 10:43:29:350,1.7318,1.2936,10.3262,0.03,0.0162,9.8065,-0.1053,0.1013,-0.0411,-12.62,-45.12,30.94,357.68,-80.53,-159.03
27718,53.236103,-1.332975,148.56,27.52,4,1.98,23 / 23,2771839,2019-11-08 10:43:29:450,0.3023,1.9659,9.2141,0.0331,0.0345,9.8065,-0.1085,0.132,-0.0978,-12.0,-45.25,30.94,359.45,-80.43,-159.26
27719,53.236103,-1.332975,148.56,27.52,4,1.98,23 / 23,2771939,2019-11-08 10:43:29:550,3.2875,1.5998,9.0501,0.0006,0.0156,9.8066,-0.1086,0.2837,-0.138,-11.94,-45.06,31.69,358.62,-80.53,-160.51
27720,53.236103,-1.332975,148.56,27.52,4,1.98,23 / 23,2772038,2019-11-08 10:43:29:649,0.0392,0.8311,9.2893,0.0202,0.0337,9.8065,-0.1685,0.3607,-0.1514,-11.75,-45.69,30.31,356.33,-80.61,-160.97
27721,53.236103,-1.332975,148.56,27.52,4,1.98,23 / 23,2772138,2019-11-08 10:43:29:749,-1.3475,-0.1418,11.6254,0.0238,-0.0433,9.8064,-0.1862,0.2045,-0.1344,-11.81,-45.12,30.94,357.73,-80.57,-160.58
27722,53.236103,-1.332975,148.56,27.52,4,1.98,23 / 23,2772238,2019-11-08 10:43:29:849,0.0836,-1.0282,10.9272,0.0013,0.0347,9.8065,-0.2009,0.1647,-0.0487,-12.0,-44.87,29.88,357.05,-80.49,-160.43
27723,53.236103,-1.332975,148.56,27.52,4,1.98,23 / 23,2772338,2019-11-08 10:43:29:949,0.589,-0.0698,9.8912,0.0117,-0.0085,9.8066,-0.1786,0.0988,-0.0216,-11.75,-45.44,29.75,357.11,-80.4,-160.38
27724,53.236103,-1.332975,148.56,27.52,4,1.98,23 / 23,2772438,2019-11-08 10:43:30:049,0.772,0.9824,8.6434,-0.0059,0.0285,9.8065,-0.1538,0.1461,-0.0277,-11.69,-45.25,29.44,355.71,-80.25,-160.7
27725,53.236103,-1.332975,148.56,27.52,4,1.98,23 / 23,2772539,2019-11-08 10:43:30:150,0.5596,0.3087,9.6047,0.0003,-0.0027,9.8066,-0.0404,0.067,-0.0456,-12.12,-44.31,29.25,356.3,-80.46,-160.31
27726,53.236103,-1.332975,148.56,27.52,4,1.98,23 / 23,2772638,2019-11-08 10:43:30:249,-0.7264,-0.2039,9.6594,0.004,0.0035,9.8066,-0.039,0.0559,-0.0363,-12.69,-43.5,29.44,354.78,-80.53,-159.84
27727,53.236103,-1.332975,148.56,27.52,4,1.98,23 / 23,2772741,2019-11-08 10:43:30:352,1.5472,-0.0081,10.2557,0.0304,-0.008,9.8065,-0.0583,0.1011,-0.0347,-12.81,-42.81,30.44,356.85,-80.51,-158.99
27728,53.236103,-1.332975,148.56,27.52,4,1.98,23 / 23,2772839,2019-11-08 10:43:30:450,-0.4443,0.7705,9.7103,0.0092,0.0151,9.8066,-0.0838,0.139,-0.0668,-12.94,-42.56,32.31,357.12,-80.44,-160.14
27729,53.236103,-1.332975,148.56,27.52,4,1.98,23 / 23,2772939,2019-11-08 10:43:30:550,2.0145,0.185,9.787,0.035,-0.0005,9.8065,-0.0425,0.1884,-0.1222,-12.75,-43.25,32.31,357.36,-80.38,-159.94
27730,53.236103,-1.332975,148.56,27.52,4,1.98,23 / 23,2773039,2019-11-08 10:43:30:650,-1.8672,-0.8014,9.8657,0.0181,0.0275,9.8066,-0.0687,0.204,-0.1725,-13.06,-42.5,32.94,357.92,-80.35,-160.14
27731,53.236103,-1.332975,148.56,27.52,4,1.98,23 / 23,2773138,2019-11-08 10:43:30:749,0.5398,-0.1652,10.0367,0.0187,0.0242,9.8066,-0.118,0.2512,-0.1516,-13.25,-43.62,32.81,357.49,-80.46,-160.46
27732,53.236103,-1.332975,148.56,27.52,4,1.98,23 / 23,2773238,2019-11-08 10:43:30:849,-2.6562,-0.3956,9.51,0.0103,0.0342,9.8065,-0.037,0.2867,-0.1288,-13.62,-44.12,31.63,354.53,-80.72,-160.66
27733,53.236103,-1.332975,148.56,27.52,4,1.98,23 / 23,2773339,2019-11-08 10:43:30:950,-0.0978,0.8059,11.2288,0.0228,-0.0156,9.8066,0.0742,0.1474,-0.1598,-13.44,-44.06,31.63,357.72,-80.76,-159.67
27734,53.236103,-1.332975,148.56,27.52,4,1.98,23 / 23,2773439,2019-11-08 10:43:31:050,1.1821,2.2012,8.107,0.0401,0.0108,9.8065,0.0686,0.2191,-0.1441,-12.56,-44.69,29.5,354.49,-80.84,-160.81
27735,53.236103,-1.332975,148.56,27.52,4,1.98,21 / 24,2773539,2019-11-08 10:43:31:150,1.8701,1.8763,9.4759,0.0125,-0.0247,9.8066,0.0624,0.1551,-0.1217,-13.06,-44.81,28.56,354.93,-80.92,-159.73
27736,53.236103,-1.332975,148.56,27.52,4,1.98,21 / 24,2773638,2019-11-08 10:43:31:249,0.3312,2.473,9.1157,0.0246,0.0185,9.8066,0.1136,-0.0513,-0.0587,-12.19,-45.31,28.75,357.77,-80.79,-159.21
27737,53.236103,-1.332975,148.56,27.52,4,1.98,21 / 24,2773738,2019-11-08 10:43:31:349,-1.892,0.0107,10.6093,-0.0124,-0.0331,9.8066,0.0486,-0.1199,0.1251,-13.06,-44.87,29.56,355.84,-80.92,-159.77
27738,53.236103,-1.332975,148.56,27.52,4,1.98,21 / 24,2773838,2019-11-08 10:43:31:449,-0.7161,-0.1042,9.3583,0.0147,0.0003,9.8066,0.1011,-0.1096,0.0479,-12.12,-44.87,30.25,357.63,-80.79,-160.01
27739,53.236103,-1.332975,148.56,27.52,4,1.98,21 / 24,2773939,2019-11-08 10:43:31:550,-1.2197,-1.0662,10.367,-0.0067,-0.022,9.8066,0.0571,-0.144,0.0718,-12.56,-44.87,29.63,357.04,-80.96,-158.86
27740,53.236103,-1.332975,148.56,27.52,4,1.98,21 / 24,2774039,2019-11-08 10:43:31:650,0.7654,0.8134,8.6624,0.0017,-0.0009,9.8066,0.124,-0.1808,0.0972,-12.94,-45.19,29.44,356.78,-80.99,-158.32
27741,53.236103,-1.332975,148.56,27.52,4,1.98,21 / 24,2774139,2019-11-08 10:43:31:750,-1.0231,0.3433,10.865,0.0035,-0.0348,9.8065,0.075,-0.1023,0.0771,-13.06,-45.87,29.75,357.82,-81.03,-158.25
27742,53.236103,-1.332975,148.56,27.52,4,1.98,21 / 24,2774239,2019-11-08 10:43:31:850,0.0055,1.5614,9.3865,-0.0011,0.0009,9.8066,0.0148,-0.0905,0.0523,-13.31,-45.94,29.81,357.32,-80.85,-158.62
27743,53.236103,-1.332975,148.56,27.52,4,1.98,21 / 24,2774338,2019-11-08 10:43:31:949,-0.0109,-1.1258,9.7083,-0.0151,0.0021,9.8066,0.0056,0.0063,0.0867,-13.25,-45.81,30.5,358.73,-81.03,-158.24
27744,53.236103,-1.332975,148.56,27.52,4,1.98,21 / 24,2774438,2019-11-08 10:43:32:049,-0.183,0.4163,8.7612,0.0111,0.006,9.8066,-0.0948,-0.0295,0.0283,-13.12,-46.0,30.06,358.44,-81.23,-157.78
27745,53.236103,-1.332975,148.56,27.52,4,1.98,22 / 24,2774538,2019-11-08 10:43:32:149,-0.664,0.5338,9.5357,-0.0231,0.011,9.8065,-0.071,-0.0661,0.083,-12.75,-45.87,29.88,357.66,-81.32,-158.39
27746,53.236103,-1.332975,148.56,27.52,4,1.98,22 / 24,2774639,2019-11-08 10:43:32:250,0.5356,1.4449,10.3715,0.0183,-0.0038,9.8066,-0.0254,-0.1474,0.1322,-12.5,-45.44,30.0,1.62,-81.4,-156.93
27747,53.236103,-1.332975,148.56,27.52,4,1.98,22 / 24,2774739,2019-11-08 10:43:32:350,0.0291,-0.439,11.6041,-0.0195,0.0141,9.8066,-0.1383,-0.187,0.1803,-13.37,-46.25,29.88,359.78,-81.39,-156.74
27748,53.236103,-1.332975,148.56,27.52,4,1.98,22 / 24,2774838,2019-11-08 10:43:32:449,1.9017,0.9039,9.27,0.0277,0.032,9.8065,-0.0483,-0.1718,0.1477,-13.56,-45.94,30.56,358.28,-81.29,-157.04
27749,53.236103,-1.332975,148.56,27.52,4,1.98,22 / 24,2774938,2019-11-08 10:43:32:549,-1.7491,0.1993,9.1066,-0.0245,0.0378,9.8065,-0.0763,-0.1648,0.1875,-13.44,-46.06,29.81,359.78,-81.65,-156.74
27750,53.236103,-1.332975,148.56,27.52,4,1.98,22 / 24,2775038,2019-11-08 10:43:32:649,1.5282,0.1702,9.4752,0.0214,0.0231,9.8066,-0.0455,-0.188,0.1013,-13.25,-46.75,29.88,0.02,-81.59,-156.56
27751,53.236103,-1.332975,148.56,27.52,4,1.98,22 / 24,2775139,2019-11-08 10:43:32:750,-1.835,-1.0387,10.2076,0.0125,0.0264,9.8066,-0.0715,-0.083,0.0894,-13.19,-46.75,29.94,0.29,-81.62,-156.34
27752,53.236103,-1.332975,148.56,27.52,4,1.98,22 / 24,2775239,2019-11-08 10:43:32:850,0.9985,0.4382,9.8314,0.0122,0.0239,9.8066,-0.0335,0.012,-0.004,-12.75,-46.06,30.06,0.11,-81.65,-156.49
27753,53.236103,-1.332975,148.56,27.52,4,1.98,22 / 24,2775339,2019-11-08 10:43:32:950,-2.0486,-0.9196,11.0117,0.0206,0.0337,9.8065,-0.1381,0.1019,-0.0501,-13.06,-45.81,30.38,0.43,-81.91,-156.23
27754,53.236103,-1.332975,148.56,27.52,4,1.98,22 / 24,2775439,2019-11-08 10:43:33:050,1.9761,1.833,9.7827,0.0228,0.0231,9.8065,-0.0514,0.1637,-0.1555,-13.62,-45.62,30.13,359.1,-81.86,-155.7
27755,53.236103,-1.332975,148.56,27.52,4,1.98,23 / 24,2775539,2019-11-08 10:43:33:150,1.8219,0.3931,8.9124,0.0304,0.04,9.8065,-0.1121,0.2564,-0.1366,-13.19,-45.5,30.19,1.65,-81.82,-155.26
27756,53.236103,-1.332975,148.56,27.52,4,1.98,23 / 24,2775638,2019-11-08 10:43:33:249,2.5852,0.5082,10.3455,0.0016,-0.0294,9.8066,-0.0063,0.3432,-0.2146,-12.94,-46.0,30.31,0.86,-82.0,-155.89
27757,53.236103,-1.332975,148.56,27.52,4,1.98,23 / 24,2775738,2019-11-08 10:43:33:349,1.3982,1.3321,9.0197,0.0277,0.0025,9.8066,-0.0299,0.3207,-0.1895,-12.5,-45.94,29.94,2.3,-81.83,-156.39
27758,53.236103,-1.332975,148.56,27.52,4,1.98,23 / 24,2775838,2019-11-08 10:43:33:449,-1.6109,-0.9564,10.6172,0.003,-0.0398,9.8065,0.0371,0.1299,-0.2,-12.25,-45.75,30.38,2.57,-81.85,-156.17
27759,53.236103,-1.332975,148.56,27.52,4,1.98,23 / 24,2775938,2019-11-08 10:43:33:549,-0.1017,0.2637,9.4459,0.0125,0.0116,9.8066,-0.0111,0.1633,-0.0939,-12.69,-46.06,29.81,0.72,-81.82,-156.01
27760,53.236103,-1.332975,148.56,27.52,4,1.98,23 / 24,2776039,2019-11-08 10:43:33:650,-0.8722,-0.261,10.0296,-0.012,-0.0118,9.8066,0.0383,-0.0041,-0.0426,-12.94,-46.31,30.06,0.53,-81.81,-156.15
27761,53.236103,-1.332975,148.56,27.52,4,1.98,23 / 24,2776138,2019-11-08 10:43:33:749,1.2893,0.6748,10.2256,0.0034,-0.0151,9.8066,0.019,0.0218,0.0313,-12.62,-46.12,30.31,1.16,-81.85,-155.65
27762,53.236103,-1.332975,148.56,27.52,4,1.98,23 / 24,2776239,2019-11-08 10:43:33:850,-0.6185,-0.291,10.1783,-0.0173,-0.0191,9.8066,0.0938,-0.0652,-0.0093,-12.87,-46.12,30.38,0.03,-81.78,-156.54
27763,53.236103,-1.332975,148.56,27.52,4,1.98,23 / 24,2776339,2019-11-08 10:43:33:950,0.8397,0.0517,9.3204,0.0152,-0.031,9.8065,0.0461,-0.0946,0.0025,-13.25,-46.12,29.75,0.27,-81.55,-156.36
27764,53.236103,-1.332975,148.56,27.52,4,1.98,23 / 24,2776439,2019-11-08 10:43:34:050,-0.8907,0.0794,9.7093,-0.0137,-0.0145,9.8066,0.1292,-0.0752,0.0284,-13.44,-46.12,30.06,1.03,-81.66,-155.76
27765,53.236103,-1.332975,148.56,27.52,4,1.98,23 / 24,2776539,2019-11-08 10:43:34:150,-0.2329,-0.1427,9.8009,0.0081,-0.0202,9.8066,0.0608,-0.0291,0.0146,-12.94,-46.31,30.44,1.68,-81.55,-155.26
27766,53.236103,-1.332975,148.56,27.52,4,1.98,23 / 24,2776638,2019-11-08 10:43:34:249,-0.6126,-0.3708,8.8296,-0.0195,0.0136,9.8066,-0.0327,-0.0379,0.0249,-13.25,-46.94,31.0,2.63,-81.56,-155.19
27767,53.236103,-1.332975,148.56,27.52,4,1.98,23 / 24,2776739,2019-11-08 10:43:34:350,-0.0121,1.2001,11.1765,0.013,-0.0304,9.8065,0.0249,-0.0536,0.0891,-13.31,-46.69,30.25,1.79,-81.6,-155.18
27768,53.236103,-1.332975,148.56,27.52,4,1.98,23 / 24,2776838,2019-11-08 10:43:34:449,0.0216,-0.1115,10.8134,-0.0011,-0.0072,9.8066,0.1302,-0.1174,-0.0348,-13.62,-46.12,30.63,358.9,-81.58,-156.56
27769,53.236103,-1.332975,148.56,27.52,4,1.98,23 / 24,2776939,2019-11-08 10:43:34:550,0.8354,0.3648,9.7962,-0.0122,-0.0089,9.8066,0.0483,-0.1557,0.069,-13.12,-45.94,30.56,2.0,-81.68,-155.66
27770,53.236103,-1.332975,148.56,27.52,4,1.98,23 / 24,2777038,2019-11-08 10:43:34:649,-0.0235,-0.2091,9.5073,-0.0166,0.0057,9.8066,0.0015,-0.1133,0.0614,-13.37,-45.87,30.44,1.1,-81.74,-155.7
27771,53.236103,-1.332975,148.56,27.52,4,1.98,23 / 24,2777139,2019-11-08 10:43:34:750,2.033,0.0662,10.1836,-0.0134,-0.0045,9.8066,0.0116,-0.1241,0.0998,-13.31,-46.0,30.75,2.69,-81.79,-155.11
27772,53.236103,-1.332975,148.56,27.52,4,1.98,23 / 24,2777239,2019-11-08 10:43:34:850,-1.5278,-0.2699,9.2289,-0.0272,0.0156,9.8065,-0.0708,-0.1645,0.1271,-13.06,-46.19,30.13,1.03,-81.74,-155.76
27773,53.236103,-1.332975,148.56,27.52,4,1.98,23 / 24,2777338,2019-11-08 10:43:34:949,-0.1463,-0.4339,10.6325,-0.0258,-0.0203,9.8065,-0.0584,-0.0911,0.135,-13.12,-46.62,30.13,0.87,-81.9,-155.89
27774,53.236103,-1.332975,148.56,27.52,4,1.98,23 / 24,2777438,2019-11-08 10:43:35:049,-2.2198,-0.4551,9.8931,-0.0036,0.0072,9.8066,0.0072,-0.0635,0.0096,-12.69,-45.69,30.25,1.25,-81.9,-155.58
27775,53.236103,-1.332975,148.56,27.52,4,1.98,23 / 24,2777538,2019-11-08 10:43:35:149,0.1639,-0.5893,12.1709,-0.0287,-0.0034,9.8066,-0.2522,0.1726,-0.0612,-13.12,-45.81,30.13,1.83,-82.06,-155.12
27776,53.236103,-1.332975,148.56,27.52,4,1.98,23 / 24,2777638,2019-11-08 10:43:35:249,1.13,0.3521,9.2026,-0.0119,0.0328,9.8066,-0.1632,0.1653,-0.01,-12.37,-45.44,30.13,2.67,-82.02,-156.07
27777,53.236103,-1.332975,148.56,27.52,4,1.98,23 / 24,2777738,2019-11-08 10:43:35:349,0.7212,1.4744,9.6475,0.0171,-0.0234,9.8065,-0.087,0.0394,-0.0061,-13.37,-45.37,30.94,1.15,-82.16,-156.32
27778,53.236103,-1.332975,148.56,27.52,4,1.98,23 / 24,2777838,2019-11-08 10:43:35:449,0.9479,-0.5044,11.0733,0.0088,-0.0158,9.8065,0.0412,0.0383,-0.008,-12.87,-45.81,30.88,359.32,-82.1,-157.79
27779,53.236103,-1.332975,148.56,27.52,4,1.98,23 / 24,2777938,2019-11-08 10:43:35:549,-0.0159,0.2517,9.0877,-0.0164,-0.0062,9.8066,0.0332,0.0804,-0.0148,-12.69,-45.87,30.06,359.5,-82.08,-156.97
27780,53.236103,-1.332975,148.56,27.52,4,1.98,23 / 24,2778038,2019-11-08 10:43:35:649,-0.6542,0.2867,8.9406,0.0132,0.0047,9.8065,0.0247,0.1269,-0.1069,-13.25,-46.0,30.13,1.36,-82.17,-155.48
27781,53.236103,-1.332975,148.56,27.52,4,1.98,23 / 24,2778138,2019-11-08 10:43:35:749,-0.5964,0.6992,9.3154,-0.0238,0.0122,9.8066,0.0401,0.1818,-0.1232,-12.94,-45.44,29.94,2.32,-82.28,-154.7
27782,53.236103,-1.332975,148.56,27.52,4,1.98,23 / 24,2778238,2019-11-08 10:43:35:849,2.393,1.3574,10.026,0.0305,0.0109,9.8065,0.0357,0.2757,-0.1519,-13.12,-45.81,30.19,2.72,-82.3,-154.39
27783,53.236103,-1.332975,148.56,27.52,4,1.98,23 / 24,2778339,2019-11-08 10:43:35:950,-0.6505,-0.2827,11.0022,-0.0061,0.0181,9.8066,0.0121,0.2123,-0.1321,-12.69,-45.62,30.31,2.15,-82.22,-154.85
27784,53.236103,-1.332975,148.56,27.52,4,1.98,23 / 24,2778439,2019-11-08 10:43:36:050,2.1035,1.7071,10.2187,0.026,0.0186,9.8065,0.0212,0.1384,-0.0913,-12.94,-45.25,30.19,2.24,-82.13,-154.78
27785,53.236103,-1.332975,148.56,27.52,4,1.98,24 / 24,2778542,2019-11-08 10:43:36:153,-0.5724,0.4056,9.6152,0.0165,0.0214,9.8065,-0.0057,0.026,0.0724,-13.25,-45.87,30.94,2.27,-82.24,-155.42
27786,53.236103,-1.332975,148.56,27.52,4,1.98,24 / 24,2778639,2019-11-08 10:43:36:250,2.0429,1.6815,9.6486,0.0263,0.0079,9.8065,0.0094,-0.1604,0.1056,-12.94,-46.31,30.69,3.6,-82.16,-154.36
27787,53.236103,-1.332975,148.56,27.52,4,1.98,24 / 24,2778739,2019-11-08 10:43:36:350,-0.8947,0.4325,9.504,0.0325,0.0348,9.8065,0.0218,-0.2739,0.1883,-13.12,-46.44,30.38,2.97,-82.15,-154.2
27788,53.236103,-1.332975,148.56,27.52,4,1.98,24 / 24,2778839,2019-11-08 10:43:36:450,-1.8895,-1.6584,10.0945,-0.005,-0.0081,9.8066,-0.022,-0.3199,0.2364,-12.87,-46.12,30.13,1.51,-82.36,-155.35
27789,53.236103,-1.332975,148.56,27.52,4,1.98,24 / 24,2778939,2019-11-08 10:43:36:550,-1.1695,-0.3044,9.2923,0.0147,0.0186,9.8066,0.0252,-0.3351,0.2095,-13.44,-45.5,30.81,3.62,-82.49,-154.29
27790,53.236103,-1.332975,148.56,27.52,4,1.98,24 / 24,2779039,2019-11-08 10:43:36:650,-3.1937,-2.0629,11.3935,-0.0366,-0.0563,9.8063,-0.0609,-0.3915,0.191,-13.56,-45.69,30.75,1.91,-82.53,-154.13
27791,53.236103,-1.332975,148.56,27.52,4,1.98,24 / 24,2779139,2019-11-08 10:43:36:750,2.4046,1.9864,9.8488,0.021,-0.0107,9.8065,-0.0336,-0.0412,0.0386,-13.87,-45.19,31.31,1.58,-82.33,-154.41
27792,53.236103,-1.332975,148.56,27.52,4,1.98,24 / 24,2779239,2019-11-08 10:43:36:850,-2.3458,-0.8966,10.8453,-0.0305,-0.0342,9.8064,-0.0885,0.1221,-0.0507,-14.56,-45.94,31.31,358.21,-82.44,-155.64
27793,53.236103,-1.332975,148.56,27.52,4,1.98,24 / 24,2779339,2019-11-08 10:43:36:950,3.2556,1.7791,9.8363,-0.0357,-0.0422,9.8064,-0.0556,0.292,-0.2182,-14.62,-46.75,30.75,357.78,-82.47,-155.98
27794,53.236103,-1.332975,148.56,27.52,4,1.98,24 / 24,2779438,2019-11-08 10:43:37:049,1.1387,-0.0119,9.4014,-0.0332,-0.0132,9.8065,-0.0815,0.4341,-0.2173,-14.31,-46.56,30.44,359.46,-82.3,-155.41
27795,53.236103,-1.332975,148.56,27.52,4,1.98,24 / 24,2779541,2019-11-08 10:43:37:152,0.5161,-0.2915,10.8638,-0.0268,-0.0449,9.8064,-0.0537,0.3417,-0.1659,-13.81,-46.69,29.88,0.8,-82.11,-154.35
27796,53.236103,-1.332975,148.56,27.52,4,1.98,24 / 24,2779639,2019-11-08 10:43:37:250,-0.2932,-0.3441,9.8514,0.0066,0.0144,9.8066,-0.0346,0.271,-0.1959,-13.37,-46.06,29.31,1.72,-82.18,-154.49
27797,53.236103,-1.332975,148.56,27.52,4,1.98,24 / 24,2779739,2019-11-08 10:43:37:350,-1.0613,-1.493,10.0386,-0.0308,-0.0132,9.8065,-0.0348,0.1768,-0.1111,-13.37,-45.56,29.75,2.55,-82.34,-154.52
27798,53.236103,-1.332975,148.56,27.52,4,1.98,24 / 24,2779839,2019-11-08 10:43:37:450,-1.027,-0.249,9.1655,0.0233,0.0123,9.8066,-0.0157,0.1717,-0.0267,-12.69,-45.75,29.81,3.72,-82.47,-153.57
27799,53.236103,-1.332975,148.56,27.52,4,1.98,24 / 24,2779939,2019-11-08 10:43:37:550,-0.3687,-1.3824,11.0177,-0.0426,0.0008,9.8065,0.1489,0.1034,-0.0713,-13.12,-45.56,30.38,2.32,-82.47,-154.7
27800,53.236103,-1.332975,148.56,27.52,4,1.98,24 / 24,2780038,2019-11-08 10:43:37:649,1.9853,0.7944,9.7224,0.0176,0.0271,9.8065,0.1594,-0.0148,-0.0685,-12.37,-45.81,30.75,5.88,-82.2,-154.11
27801,53.236103,-1.332975,148.56,27.52,4,1.98,24 / 24,2780138,2019-11-08 10:43:37:749,-0.8225,-1.6283,10.0105,0.0141,-0.003,9.8066,0.1088,-0.2593,0.1464,-13.19,-46.12,30.94,0.91,-82.13,-156.52
27802,53.236103,-1.332975,148.56,27.52,4,1.98,24 / 24,2780238,2019-11-08 10:43:37:849,3.4365,1.906,9.6918,0.0287,0.0481,9.8064,-0.0756,-0.3486,0.2812,-13.0,-46.31,30.56,2.58,-82.16,-155.17
27803,53.236103,-1.332975,148.56,27.52,4,1.98,24 / 24,2780338,2019-11-08 10:43:37:949,0.8393,-0.1358,8.9268,0.0284,0.0288,9.8065,-0.0367,-0.395,0.1847,-13.06,-46.19,29.63,2.03,-82.54,-154.93
27804,53.236103,-1.332975,148.56,27.52,4,1.98,24 / 24,2780438,2019-11-08 10:43:38:049,3.7558,1.4978,9.6967,0.0402,-0.0085,9.8066,-0.0428,-0.2892,0.254,-13.06,-46.0,30.0,3.44,-82.62,-153.78
27805,53.238293,-1.332851,148.66,26.32,4,2.11,24 / 24,2780538,2019-11-08 10:43:38:149,-1.1536,-1.0606,9.95,-0.0388,-0.0058,9.8065,0.0495,-0.2284,0.2057,-12.87,-45.31,30.31,1.94,-82.6,-154.99
27806,53.238293,-1.332851,148.66,26.32,4,2.11,24 / 24,2780639,2019-11-08 10:43:38:250,-1.9971,-1.6505,10.5223,-0.0546,-0.0114,9.8064,-0.0812,-0.1093,0.0893,-12.94,-45.87,30.44,5.1,-82.56,-152.44
27807,53.238293,-1.332851,148.66,26.32,4,2.11,24 / 24,2780739,2019-11-08 10:43:38:350,-2.0586,-0.7254,9.8353,0.0174,0.0236,9.8065,-0.1096,0.177,-0.127,-12.94,-45.69,30.31,4.63,-82.54,-152.82
27808,53.238293,-1.332851,148.66,26.32,4,2.11,24 / 24,2780838,2019-11-08 10:43:38:449,-2.3877,-0.9553,10.7005,-0.0536,-0.0046,9.8064,-0.1402,0.4933,-0.2227,-12.87,-45.56,30.81,3.98,-82.71,-153.99
27809,53.238293,-1.332851,148.66,26.32,4,2.11,24 / 24,2780940,2019-11-08 10:43:38:551,3.6483,1.6986,9.2302,0.0319,0.0625,9.8063,-0.0645,0.5911,-0.319,-13.12,-45.75,30.06,7.65,-82.59,-150.37
27810,53.238293,-1.332851,148.66,26.32,4,2.11,24 / 24,2781039,2019-11-08 10:43:38:650,-2.4217,-2.8266,10.5493,0.0189,0.0228,9.8066,-0.0452,0.4272,-0.2621,-13.25,-46.0,29.88,8.03,-82.84,-150.01
27811,53.238293,-1.332851,148.66,26.32,4,2.11,24 / 24,2781138,2019-11-08 10:43:38:749,4.1181,1.8608,9.7639,0.0505,0.0358,9.8064,0.0024,0.3395,-0.176,-13.62,-46.06,30.06,7.85,-82.85,-148.54
27812,53.238293,-1.332851,148.66,26.32,4,2.11,24 / 24,2781239,2019-11-08 10:43:38:850,-2.0874,-0.3589,9.7084,0.0481,0.0639,9.8062,0.0716,-0.0507,0.0077,-13.44,-45.44,30.63,9.49,-83.29,-149.31
27813,53.238293,-1.332851,148.66,26.32,4,2.11,24 / 24,2781339,2019-11-08 10:43:38:950,-2.6739,-2.0389,11.22,0.011,-0.0089,9.8066,0.087,-0.2213,0.1395,-13.0,-45.5,30.25,9.92,-83.18,-148.34
27814,53.238293,-1.332851,148.66,26.32,4,2.11,24 / 24,2781439,2019-11-08 10:43:39:050,-1.2675,-1.0148,10.3678,0.0533,0.0322,9.8064,0.1168,-0.5168,0.2549,-13.12,-45.56,29.69,10.86,-83.03,-147.64
27815,53.238293,-1.332851,148.66,26.32,4,2.11,24 / 24,2781539,2019-11-08 10:43:39:150,0.5195,0.6385,9.7125,-0.041,-0.0322,9.8065,0.0417,-0.542,0.3142,-13.06,-46.31,29.94,7.29,-83.2,-150.54
27816,53.238293,-1.332851,148.66,26.32,4,2.11,24 / 24,2781639,2019-11-08 10:43:39:250,4.8136,1.7748,9.605,-0.0016,0.0114,9.8065,-0.0637,-0.4502,0.2941,-12.5,-45.75,30.38,10.29,-83.13,-149.72
27817,53.238293,-1.332851,148.66,26.32,4,2.11,24 / 24,2781738,2019-11-08 10:43:39:349,-1.7286,-1.5761,9.284,0.0626,0.0294,9.8064,-0.08,-0.2621,0.1672,-12.44,-45.69,30.69,10.35,-83.36,-150.2
27818,53.238293,-1.332851,148.66,26.32,4,2.11,24 / 24,2781838,2019-11-08 10:43:39:449,4.4628,1.2069,8.9541,-0.0454,-0.0396,9.8064,0.0426,0.1863,-0.0349,-13.12,-45.5,30.63,9.03,-83.52,-149.64
27819,53.238293,-1.332851,148.66,26.32,4,2.11,24 / 24,2781938,2019-11-08 10:43:39:549,-2.447,-0.16,9.2399,-0.0323,-0.011,9.8065,0.0646,0.2811,-0.2616,-13.31,-45.62,30.31,11.54,-83.38,-146.96
27820,53.238293,-1.332851,148.66,26.32,4,2.11,24 / 24,2782038,2019-11-08 10:43:39:649,-3.3717,-1.3993,11.1447,-0.0654,-0.0403,9.8063,-0.0952,0.5169,-0.3675,-12.87,-45.81,30.13,13.09,-83.14,-145.76
27821,53.238293,-1.332851,148.66,26.32,4,2.11,24 / 24,2782139,2019-11-08 10:43:39:750,-2.6411,0.1818,10.6059,0.0028,0.0139,9.8066,-0.1107,0.4478,-0.3682,-12.25,-45.81,31.13,13.36,-83.24,-147.73
27822,53.238293,-1.332851,148.66,26.32,4,2.11,24 / 24,2782239,2019-11-08 10:43:39:850,-2.8776,-1.7029,10.1075,-0.0071,-0.0313,9.8065,-0.0853,0.436,-0.1739,-12.94,-46.25,30.81,9.85,-83.18,-149.06
27823,53.238293,-1.332851,148.66,26.32,4,2.11,24 / 24,2782339,2019-11-08 10:43:39:950,4.2679,0.6326,10.2647,0.0665,0.0296,9.8063,0.0,0.186,-0.1573,-12.44,-45.75,30.44,12.17,-83.11,-148.18
27824,53.238293,-1.332851,148.66,26.32,4,2.11,24 / 24,2782438,2019-11-08 10:43:40:049,-2.0165,-0.997,10.6536,-0.0058,0.0221,9.8066,0.0842,-0.0534,0.0328,-13.0,-45.62,30.5,9.56,-83.27,-149.28
27825,53.238293,-1.332851,148.66,26.32,4,2.11,24 / 24,2782539,2019-11-08 10:43:40:150,3.3584,1.5943,9.314,0.0448,0.0307,9.8064,0.0964,-0.162,0.1567,-12.62,-46.12,30.81,10.66,-83.11,-148.41
27826,53.238293,-1.332851,148.66,26.32,4,2.11,24 / 24,2782638,2019-11-08 10:43:40:249,1.79,-1.0093,9.8606,0.0304,0.0361,9.8065,-0.0258,-0.3916,0.2207,-12.75,-45.31,30.38,7.95,-83.26,-149.95
27827,53.238293,-1.332851,148.66,26.32,4,2.11,24 / 24,2782739,2019-11-08 10:43:40:350,3.9223,1.0382,9.5335,0.015,0.0053,9.8066,0.0065,-0.4264,0.2643,-12.44,-45.75,30.19,11.55,-83.28,-148.64
27828,53.238293,-1.332851,148.66,26.32,4,2.11,24 / 24,2782839,2019-11-08 10:43:40:450,1.4893,-0.6516,9.4523,0.0478,0.0299,9.8064,0.0338,-0.34,0.1967,-12.75,-45.94,30.69,11.85,-83.2,-147.39
27829,53.238293,-1.332851,148.66,26.32,4,2.11,24 / 24,2782939,2019-11-08 10:43:40:550,-2.3665,-1.8614,9.9829,-0.0219,-0.0157,9.8065,-0.0276,-0.1832,0.1354,-12.69,-45.62,29.75,8.51,-83.38,-149.49
27830,53.238293,-1.332851,148.66,26.32,4,2.11,24 / 24,2783039,2019-11-08 10:43:40:650,0.7854,-0.7782,9.742,0.0057,0.0017,9.8066,-0.0054,0.027,-0.0574,-12.94,-45.25,30.0,9.1,-83.3,-148.99
27831,53.238293,-1.332851,148.66,26.32,4,2.11,24 / 24,2783139,2019-11-08 10:43:40:750,-1.5082,-1.0947,10.6506,-0.0511,-0.0351,9.8064,-0.058,0.1855,-0.1396,-12.69,-45.81,30.75,9.35,-83.37,-149.43
27832,53.238293,-1.332851,148.66,26.32,4,2.11,24 / 24,2783239,2019-11-08 10:43:40:850,2.5016,1.9691,9.8932,-0.0275,-0.0204,9.8066,-0.0268,0.3578,-0.2188,-12.06,-45.44,30.13,13.54,-83.25,-146.95
27833,53.238293,-1.332851,148.66,26.32,4,2.11,24 / 24,2783338,2019-11-08 10:43:40:949,1.729,-0.7974,9.634,-0.0279,-0.0118,9.8065,-0.0882,0.3458,-0.2507,-12.37,-45.81,29.44,12.58,-83.41,-147.12
