,GPS LATITUDE (degrees), GPS LONGITUDE (degrees), GPS ALTITUDE (m), GPS SPEED (Kmh), GPS ACCURACY (m), GPS ORIENTATION (Â°),GPS SATELLITES IN RANGE, TIME SINCE START (ms), DATE (YYYY-MO-DD HH-MI-SS_SSS), ACCELEROMETER X (m/s²) , ACCELEROMETER Y (m/s²), ACCELEROMETER Z (m/s²), GRAVITY X (m/s²), GRAVITY Y (m/s²), GRAVITY Z (m/s²), GYROSCOPE Yaw (rad/s), GYROSCOPE Pitch (rad/s), GYROSCOPE Roll (rad/s), MAGNETIC FIELD X (Î¼T), MAGNETIC FIELD Y (Î¼T), MAGNETIC FIELD Z (Î¼T), ORIENTATION (Yaw) (Â°), ORIENTATION (Pitch) (Â°), ORIENTATION (Roll ) (Â°)
3606,51.93138,-2.137083,72,30.14,8,215.8,13 / 21,1803020,2020-03-21 11:41:11:097,0.59,-0.2536,10.5077,-0.001,-0.0036,9.8067,0.0202,-0.0117,0.0192,4.72,-4.7,-39.26,32.87,-16.71,7.65
3607,51.93138,-2.137083,72,30.14,8,215.8,13 / 21,1803521,2020-03-21 11:41:11:598,0.5332,-0.1144,9.2518,0.0058,0.0058,9.8066,0.0,0.0234,0.0053,5.09,-5.08,-39.26,33.61,-16.6,8.01
3608,51.93138,-2.137083,72,30.14,8,215.8,13 / 21,1804020,2020-03-21 11:41:12:097,0.2314,0.1017,8.3665,0.0101,0.0131,9.8066,-0.0106,0.0479,0.0149,4.72,-5.08,-38.82,33.26,-16.66,7.84
3609,51.93138,-2.137083,72,30.14,8,215.8,0 / 21,1804521,2020-03-21 11:41:12:598,-0.435,1.1074,9.4847,0.0037,0.0067,9.8066,-0.0011,0.0043,0.016,4.72,-5.08,-39.26,33.17,-16.63,7.78
3610,51.93138,-2.137083,72,30.14,8,215.8,0 / 21,1805021,2020-03-21 11:41:13:098,-0.1434,-0.14,9.6698,0.0094,0.0026,9.8066,0.0501,-0.0224,0.0,4.72,-5.45,-39.26,32.86,-16.56,7.56
3611,51.93138,-2.137083,72,30.14,8,215.8,Aug-21,1805520,2020-03-21 11:41:13:597,0.2944,-0.1775,9.8966,-0.0099,0.0034,9.8066,-0.032,-0.0043,0.016,5.09,-5.45,-39.7,32.84,-16.57,7.63
3612,51.93138,-2.137083,72,30.14,8,215.8,Aug-21,1806021,2020-03-21 11:41:14:098,-0.3087,-0.1051,9.3342,-0.008,0.0031,9.8066,0.0256,-0.0245,-0.0011,4.72,-5.08,-40.51,32.25,-16.55,7.37
3613,51.92936,-2.139425,70,30.28,13,215.6,Aug-21,1806521,2020-03-21 11:41:14:598,-0.1028,0.1761,9.7851,-0.0126,0.0092,9.8066,-0.0298,0.016,0.0,4.34,-5.83,-39.7,35.64,-16.74,6.95
3614,51.92936,-2.139425,70,30.28,13,215.6,Aug-21,1807021,2020-03-21 11:41:15:098,0.1859,-0.2928,9.6979,-0.0016,0.0046,9.8066,-0.0021,0.0075,0.0074,5.09,-6.2,-39.26,33.81,-16.61,6.67
3615,51.92936,-2.139425,70,30.28,13,215.6,Aug-21,1807520,2020-03-21 11:41:15:597,-0.3715,-0.2076,9.8455,-0.0005,-0.0012,9.8067,0.0234,0.0362,-0.0085,5.78,-5.45,-39.26,29.34,-16.5,6.42
3616,51.92936,-2.139425,70,30.28,13,215.6,Aug-21,1808021,2020-03-21 11:41:16:098,0.0378,0.2215,10.4139,-0.0064,0.0047,9.8066,-0.0053,0.0213,0.0181,6.16,-5.45,-40.95,28.34,-16.45,5.99
3617,51.92936,-2.139425,70,30.28,13,215.6,Aug-21,1808520,2020-03-21 11:41:16:597,-0.2287,0.4992,10.9413,-0.0036,-0.0051,9.8066,-0.0202,0.0021,0.0085,6.53,-5.45,-37.95,27.08,-16.58,5.89
3618,51.92936,-2.139425,70,30.28,13,215.6,Aug-21,1809020,2020-03-21 11:41:17:097,-0.1213,0.2904,9.593,0.0056,-0.0099,9.8066,0.032,0.0085,-0.0096,5.09,-6.2,-35.82,33.42,-16.72,6.16
3619,51.92936,-2.139425,70,30.28,13,215.6,Aug-21,1809521,2020-03-21 11:41:17:598,0.3264,-0.24,9.2848,-0.0063,-0.0037,9.8066,0.0288,-0.0426,0.0117,7.28,-3.64,-39.7,25.22,-16.75,6.48
3620,51.92936,-2.139425,70,30.28,13,215.6,Aug-21,1810021,2020-03-21 11:41:18:098,0.4998,-0.7518,10.1789,0.0025,0.0009,9.8067,-0.0298,-0.0011,0.0106,5.09,-4.33,-38.82,27.92,-16.64,6.44
3621,51.92936,-2.139425,70,30.28,13,215.6,Aug-21,1810520,2020-03-21 11:41:18:597,0.179,-0.242,10.1233,-0.0069,-0.0037,9.8066,-0.0096,-0.0288,0.0106,5.09,-5.45,-40.07,30.59,-16.71,6.49
3622,51.92936,-2.139425,70,30.28,13,215.6,Aug-21,1811021,2020-03-21 11:41:19:098,0.0617,0.3818,8.9208,-0.0002,0.0025,9.8067,-0.0447,0.0543,0.0042,4.72,-5.45,-39.7,29.68,-16.73,6.02
3623,51.92936,-2.139425,70,30.28,13,215.6,Aug-21,1811521,2020-03-21 11:41:19:598,-0.2426,0.2084,9.4235,0.0065,0.0047,9.8066,0.0171,0.0149,0.0085,5.09,-5.45,-39.7,29.25,-16.82,5.85
3624,51.92936,-2.139425,70,30.28,13,215.6,Aug-21,1812020,2020-03-21 11:41:20:097,-0.2354,0.3889,9.8311,-0.0002,0.0042,9.8066,0.0277,-0.0288,0.0149,5.09,-4.7,-39.26,29.19,-16.85,5.74
3625,51.92936,-2.139425,70,30.28,13,215.6,0 / 21,1812521,2020-03-21 11:41:20:598,-0.3112,-0.1752,9.8607,-0.0019,-0.0027,9.8066,-0.0383,0.0565,-0.0075,5.47,-4.7,-39.7,29.3,-16.74,5.83
3626,51.92936,-2.139425,70,30.28,13,215.6,0 / 21,1813020,2020-03-21 11:41:21:097,-0.2124,0.9173,9.3731,-0.0021,-0.0036,9.8067,0.0139,0.0021,0.0128,5.47,-5.08,-39.26,29.1,-16.81,5.67
3627,51.92936,-2.139425,70,30.28,13,215.6,Sep-21,1813520,2020-03-21 11:41:21:597,0.535,-0.2297,10.1842,-0.0014,0.0035,9.8066,-0.0309,-0.0213,0.0021,5.09,-4.7,-39.26,30.02,-16.83,6.17
3628,51.92936,-2.139425,70,30.28,13,215.6,Sep-21,1814020,2020-03-21 11:41:22:097,-0.2755,0.4321,9.4934,0.0042,-0.0041,9.8067,0.0362,-0.0224,0.0096,5.09,-5.08,-39.26,29.9,-16.87,6.13
3629,51.92936,-2.139425,70,30.28,13,215.6,Sep-21,1814521,2020-03-21 11:41:22:598,0.1832,0.4109,9.4599,0.0001,0.0078,9.8066,-0.0415,0.0341,0.0042,5.47,-4.33,-40.07,27.26,-16.7,6.19
3630,51.92936,-2.139425,70,30.28,13,215.6,Sep-21,1815021,2020-03-21 11:41:23:098,-0.7252,0.854,9.1867,0.006,-0.0039,9.8066,-0.0053,0.033,-0.0043,5.47,-4.7,-39.7,30.93,-16.68,6.66
3631,51.92936,-2.139425,70,30.28,13,215.6,Sep-21,1815521,2020-03-21 11:41:23:598,-0.3039,-0.1307,9.8892,-0.009,0.0179,9.8066,-0.0117,-0.0064,0.0202,5.47,-4.7,-39.26,30.69,-16.71,6.47
3632,51.92936,-2.139425,70,30.28,13,215.6,Sep-21,1816021,2020-03-21 11:41:24:098,-0.2026,-0.7202,9.848,-0.0077,0.0079,9.8066,0.0245,-0.0405,0.0,5.78,-4.7,-39.26,28.77,-16.63,6.17
3633,51.92936,-2.139425,70,30.28,13,215.6,Sep-21,1816521,2020-03-21 11:41:24:598,0.1305,-0.2552,9.0222,-0.0034,-0.0033,9.8066,-0.0074,0.0149,0.0053,5.78,-4.7,-38.82,27.64,-16.72,5.61
3634,51.92936,-2.139425,70,30.28,13,215.6,Sep-21,1817021,2020-03-21 11:41:25:098,0.0734,-0.1406,10.1222,0.005,0.0026,9.8066,-0.0554,0.0511,0.0032,5.78,-3.95,-39.7,25.14,-16.68,5.77
3635,51.92936,-2.139425,70,30.28,13,215.6,Sep-21,1817520,2020-03-21 11:41:25:597,-0.1537,0.2389,9.8574,-0.0016,-0.0031,9.8067,0.0522,-0.0629,0.0224,5.47,-4.33,-39.7,26.04,-16.64,5.56
3636,51.92936,-2.139425,70,30.28,13,215.6,Sep-21,1818020,2020-03-21 11:41:26:097,0.5396,-0.4469,9.8631,0.0012,0.0014,9.8067,0.0479,0.0032,-0.0053,5.47,-4.33,-39.26,26.44,-16.68,5.71
3637,51.92936,-2.139425,70,30.28,13,215.6,Sep-21,1818521,2020-03-21 11:41:26:598,0.2501,-0.5884,10.1684,0.0075,-0.0129,9.8066,-0.0479,0.0543,-0.0181,6.16,-3.64,-39.26,25.94,-16.62,6.11
3638,51.92936,-2.139425,70,30.28,13,215.6,Sep-21,1819021,2020-03-21 11:41:27:098,0.0278,0.1528,9.7661,0.0115,-0.0111,9.8066,0.0085,0.0138,0.0,5.78,-3.95,-39.26,27.23,-16.69,6.83
3639,51.92936,-2.139425,70,30.28,13,215.6,Sep-21,1819520,2020-03-21 11:41:27:597,-0.7155,0.8118,9.3523,-0.0059,0.0037,9.8066,0.049,-0.0607,-0.0011,5.78,-3.95,-39.26,27.48,-16.67,6.96
3640,51.92936,-2.139425,70,30.28,13,215.6,Sep-21,1820021,2020-03-21 11:41:28:098,0.4573,-0.4269,9.511,0.01,-0.0066,9.8066,0.0426,0.0043,0.0096,5.47,-3.95,-38.82,28.72,-16.62,6.84
3641,51.92936,-2.139425,70,30.28,13,215.6,Sep-21,1820521,2020-03-21 11:41:28:598,0.0689,-0.2974,9.0942,-0.0039,0.0081,9.8066,-0.0043,0.0117,0.0138,5.78,-3.95,-39.26,26.78,-16.59,6.55
3642,51.92936,-2.139425,70,30.28,13,215.6,Sep-21,1821020,2020-03-21 11:41:29:097,-0.1101,0.7885,9.8829,-0.0038,-0.0025,9.8066,0.0075,-0.0064,0.0064,6.16,-3.95,-39.26,26.06,-16.5,6.13
3643,51.92936,-2.139425,70,30.28,13,215.6,Sep-21,1821521,2020-03-21 11:41:29:598,0.2612,0.3018,10.3178,-0.0025,0.0042,9.8066,0.016,-0.0096,0.016,5.78,-3.64,-39.26,25.98,-16.57,6.11
3644,51.92936,-2.139425,70,30.28,13,215.6,Sep-21,1822020,2020-03-21 11:41:30:097,0.419,-0.7095,9.6476,0.0054,-0.0028,9.8066,-0.0011,0.0085,0.0085,5.78,-3.95,-39.26,26.06,-16.68,6.21
3645,51.925648,-2.143136,62,30.3,9,209.7,Sep-21,1822521,2020-03-21 11:41:30:598,-0.0152,0.4462,9.7815,0.0048,0.0045,9.8066,-0.0149,0.0202,0.0117,6.16,-3.64,-38.82,25.98,-16.71,6.18
3646,51.925648,-2.143136,62,30.3,9,209.7,Sep-21,1823021,2020-03-21 11:41:31:098,-0.3143,0.5823,9.9062,-0.0022,0.015,9.8066,-0.0043,-0.0064,0.016,5.78,-3.64,-38.39,26.53,-16.65,6.4
3647,51.925648,-2.143136,62,30.3,9,209.7,Sep-21,1823520,2020-03-21 11:41:31:597,-0.4572,0.5923,9.1357,0.0038,-0.0184,9.8066,0.0277,-0.0192,-0.0043,6.16,-3.64,-39.26,26.28,-16.64,6.31
3648,51.925648,-2.143136,62,30.3,9,209.7,Sep-21,1824021,2020-03-21 11:41:32:098,0.2607,-0.0674,9.3973,-0.0058,-0.0019,9.8066,-0.0032,0.0117,0.0074,5.78,-2.89,-38.82,24.26,-16.72,6.76
3649,51.925648,-2.143136,62,30.3,9,209.7,Sep-21,1824521,2020-03-21 11:41:32:598,0.177,0.4012,9.2861,0.0058,0.0035,9.8066,0.0117,0.0149,0.0042,6.53,-2.89,-39.26,22.9,-16.57,6.6
3650,51.925648,-2.143136,62,30.3,9,209.7,Sep-21,1825021,2020-03-21 11:41:33:098,-0.0763,0.5842,10.0666,0.0123,0.0075,9.8066,0.0053,0.0245,0.0053,6.53,-2.89,-39.64,22.69,-16.54,6.48
3651,51.925648,-2.143136,62,30.3,9,209.7,Sep-21,1825520,2020-03-21 11:41:33:597,0.1207,-0.4149,10.0352,0.0055,-0.0014,9.8066,-0.0266,0.0405,0.0096,6.16,-2.89,-38.82,24.19,-16.5,6.63
3652,51.925648,-2.143136,62,30.3,9,209.7,Sep-21,1826021,2020-03-21 11:41:34:098,-0.1941,0.3664,10.1085,0.0096,-0.0029,9.8066,0.0021,-0.0181,0.0021,6.53,-2.89,-39.64,23.55,-16.63,6.97
3653,51.925648,-2.143136,62,30.3,9,209.7,Sep-21,1826521,2020-03-21 11:41:34:598,0.2016,-0.197,9.4233,-0.004,-0.0048,9.8066,0.0139,0.0064,0.0053,5.78,-3.27,-39.26,24.67,-16.83,7.01
3654,51.925648,-2.143136,62,30.3,9,209.7,Sep-21,1827021,2020-03-21 11:41:35:098,-0.2046,-0.0797,9.6436,0.0039,-0.002,9.8066,-0.0096,0.0032,-0.0085,6.16,-3.27,-39.64,25.38,-16.83,7.39
3655,51.925648,-2.143136,62,30.3,9,209.7,Sep-21,1827521,2020-03-21 11:41:35:598,-0.4849,0.4292,8.5479,-0.0004,0.0048,9.8066,0.0,0.0106,0.0042,5.78,-3.27,-39.64,25.17,-16.88,7.3
3656,51.925648,-2.143136,62,30.3,9,209.7,Sep-21,1828020,2020-03-21 11:41:36:097,-0.282,0.3818,9.9667,-0.0048,0.0182,9.8066,-0.0298,0.0149,0.0287,6.16,-3.95,-40.07,26.78,-16.78,6.67
3657,51.925648,-2.143136,62,30.3,9,209.7,Sep-21,1828521,2020-03-21 11:41:36:598,-0.0331,-0.5196,9.7654,-0.0047,-0.0145,9.8066,-0.0234,0.0043,0.0128,6.16,-3.27,-39.64,23.28,-16.64,6.24
3658,51.925648,-2.143136,62,30.3,9,209.7,Sep-21,1829021,2020-03-21 11:41:37:098,0.2658,-0.2484,10.0063,0.0045,0.0052,9.8066,-0.0074,0.0192,0.0106,6.16,-2.89,-39.64,23.5,-16.68,6.37
3659,51.925648,-2.143136,62,30.3,9,209.7,Jul-21,1829520,2020-03-21 11:41:37:597,-0.482,0.2998,10.0789,-0.0049,0.0072,9.8066,-0.0106,-0.0234,0.0032,6.16,-3.27,-40.07,22.43,-16.69,5.84
3660,51.925648,-2.143136,62,30.3,9,209.7,Jul-21,1830020,2020-03-21 11:41:38:097,0.3311,0.0545,9.8707,-0.0053,0.0004,9.8067,0.0533,-0.0288,0.0181,6.16,-2.89,-39.64,21.65,-16.69,5.45
3661,51.925648,-2.143136,62,30.3,9,209.7,Dec-21,1830521,2020-03-21 11:41:38:598,0.0508,-0.4779,9.508,0.0003,-0.012,9.8066,0.0554,-0.0277,0.001,6.53,-3.27,-39.26,20.72,-16.62,5.47
3662,51.925648,-2.143136,62,30.3,9,209.7,Dec-21,1831021,2020-03-21 11:41:39:098,0.2089,-0.3733,9.175,0.0067,-0.0071,9.8066,-0.0053,0.032,0.001,6.91,-2.89,-40.07,21.33,-16.59,5.79
3663,51.925648,-2.143136,62,30.3,9,209.7,Dec-21,1831521,2020-03-21 11:41:39:598,-0.1632,0.5543,9.3944,-0.0041,0.0125,9.8066,-0.0149,0.0096,0.0202,6.53,-2.89,-39.7,21.59,-16.57,5.92
3664,51.925648,-2.143136,62,30.3,9,209.7,Dec-21,1832021,2020-03-21 11:41:40:098,0.3019,-0.2977,8.8969,0.0035,-0.0081,9.8066,0.0352,-0.0192,0.0255,7.28,-2.89,-39.2,21.7,-16.53,5.95
3665,51.925648,-2.143136,62,30.3,9,209.7,Dec-21,1832521,2020-03-21 11:41:40:598,0.0026,-0.0616,9.6079,-0.0018,-0.0036,9.8066,0.0021,-0.0192,0.0042,6.53,-2.52,-40.07,21.95,-16.68,6.14
3666,51.925648,-2.143136,62,30.3,9,209.7,Dec-21,1833020,2020-03-21 11:41:41:097,-0.1979,-0.094,8.8889,0.002,-0.0137,9.8066,0.0021,0.0075,-0.0064,6.16,-2.52,-39.64,23.86,-16.56,6.5
3667,51.925648,-2.143136,62,30.3,9,209.7,Dec-21,1833521,2020-03-21 11:41:41:598,-0.2395,0.7323,9.8089,0.0012,0.0072,9.8066,0.0181,-0.0192,0.0021,6.91,-2.52,-39.26,23.22,-16.58,6.77
3668,51.925648,-2.143136,62,30.3,9,209.7,Dec-21,1834020,2020-03-21 11:41:42:097,0.2418,-0.0691,9.4535,0.004,0.0084,9.8066,0.0341,0.0149,0.0117,6.53,-1.77,-38.39,20.0,-16.65,6.6
3669,51.925648,-2.143136,62,30.3,9,209.7,Dec-21,1834521,2020-03-21 11:41:42:598,0.1547,0.0585,9.7407,0.0022,-0.0243,9.8066,0.0043,-0.0171,-0.0107,6.91,-1.39,-38.82,16.22,-16.7,6.16
3670,51.925648,-2.143136,62,30.3,9,209.7,Dec-21,1835020,2020-03-21 11:41:43:097,0.2416,-0.2379,9.2195,-0.0066,0.0055,9.8066,-0.0426,0.0202,0.0245,6.53,-1.77,-39.64,20.1,-16.79,6.66
3671,51.925648,-2.143136,62,30.3,9,209.7,Dec-21,1835520,2020-03-21 11:41:43:597,0.0309,0.6611,9.0774,0.0007,-0.006,9.8066,-0.0064,0.0149,-0.0043,7.28,-2.14,-39.2,19.52,-16.66,6.34
3672,51.925648,-2.143136,62,30.3,9,209.7,Dec-21,1836021,2020-03-21 11:41:44:098,0.2768,-0.4269,10.9839,0.0041,0.0012,9.8066,-0.0043,-0.0128,0.0138,6.53,-2.14,-39.26,20.25,-16.74,6.74
3673,51.925648,-2.143136,62,30.3,9,209.7,Dec-21,1836520,2020-03-21 11:41:44:597,-0.3823,0.1844,8.9074,0.0055,-0.0027,9.8066,0.0021,-0.0064,-0.0043,7.28,-2.14,-39.26,19.94,-16.63,6.55
3674,51.925648,-2.143136,62,30.3,9,209.7,Dec-21,1837021,2020-03-21 11:41:45:098,-0.1332,-0.2435,9.1946,0.0012,-0.0013,9.8066,0.0256,-0.0309,0.0021,6.91,-2.52,-38.82,23.35,-16.87,6.95
3675,51.925648,-2.143136,62,30.3,9,209.7,May-21,1837520,2020-03-21 11:41:45:597,0.124,0.1667,9.4308,0.0035,-0.0015,9.8066,0.0852,-0.0362,0.001,6.91,-2.52,-38.82,23.33,-16.8,6.91
3676,51.925648,-2.143136,62,30.3,9,209.7,May-21,1838021,2020-03-21 11:41:46:098,-0.0476,0.3591,9.2476,-0.0067,0.009,9.8066,0.0171,-0.0362,0.016,6.53,-2.14,-39.26,19.89,-16.75,6.56
3677,51.925648,-2.143136,62,30.3,9,209.7,Sep-21,1838521,2020-03-21 11:41:46:598,0.0904,0.6555,9.8276,0.0009,-0.0031,9.8067,-0.0032,-0.0011,0.0032,4.34,-2.14,-37.95,22.78,-16.7,6.27
3678,51.925648,-2.143136,62,30.3,9,209.7,Sep-21,1839020,2020-03-21 11:41:47:097,0.2153,-0.5089,9.3602,0.0032,-0.0017,9.8067,0.0053,0.017,0.0106,11.72,-0.64,-40.95,13.14,-16.71,6.18
3679,51.921543,-2.146471,59,30.29,9,203.2,Sep-21,1839521,2020-03-21 11:41:47:598,0.1872,-0.1363,10.024,0.0099,0.0054,9.8066,0.049,-0.0309,0.0234,6.91,-1.39,-39.2,15.92,-16.64,6.0
3680,51.921543,-2.146471,59,30.29,9,203.2,Sep-21,1840021,2020-03-21 11:41:48:098,-0.0016,0.2317,9.6501,0.0041,0.009,9.8066,0.0064,0.0011,0.0192,7.28,-2.14,-38.82,19.41,-16.63,6.27
3681,51.921543,-2.146471,59,30.29,9,203.2,Sep-21,1840521,2020-03-21 11:41:48:598,-0.0733,0.0618,9.7582,0.0014,-0.0014,9.8067,-0.0543,0.0692,-0.0085,7.28,-2.14,-39.26,19.2,-16.75,6.21
3682,51.921543,-2.146471,59,30.29,9,203.2,Sep-21,1841021,2020-03-21 11:41:49:098,0.135,-0.2649,9.4354,-0.007,-0.0042,9.8066,0.0032,-0.0192,0.0085,7.28,-2.14,-39.64,19.0,-16.75,6.09
3683,51.921543,-2.146471,59,30.29,9,203.2,Sep-21,1841521,2020-03-21 11:41:49:598,-0.7949,0.3234,9.6531,-0.009,0.0174,9.8066,0.0139,-0.0107,0.0202,7.28,-2.14,-39.64,18.2,-16.61,5.65
3684,51.921543,-2.146471,59,30.29,9,203.2,Sep-21,1842021,2020-03-21 11:41:50:098,0.4482,-0.4151,9.912,-0.0039,-0.0079,9.8066,0.0373,-0.049,0.0255,7.28,-1.77,-39.2,18.86,-16.71,6.02
3685,51.921543,-2.146471,59,30.29,9,203.2,Sep-21,1842521,2020-03-21 11:41:50:598,0.162,0.1948,10.4144,0.008,-0.0086,9.8066,0.0128,-0.0011,-0.0085,6.91,-2.52,-38.82,20.71,-16.68,5.49
3686,51.921543,-2.146471,59,30.29,9,203.2,Sep-21,1843021,2020-03-21 11:41:51:098,0.0592,0.2322,10.2293,-0.0041,0.0109,9.8066,-0.0905,0.017,0.0064,6.91,-1.77,-40.07,17.68,-16.7,5.42
3687,51.921543,-2.146471,59,30.29,9,203.2,Sep-21,1843520,2020-03-21 11:41:51:597,0.4293,-0.227,9.8524,0.0015,0.0055,9.8066,0.0554,-0.032,0.016,6.91,-1.39,-40.07,15.06,-16.66,5.56
3688,51.921543,-2.146471,59,30.29,9,203.2,Sep-21,1844020,2020-03-21 11:41:52:097,0.6247,-0.5473,9.9894,0.01,-0.0039,9.8066,0.0586,-0.0533,0.0042,6.91,-1.39,-39.2,15.19,-16.61,5.64
3689,51.921543,-2.146471,59,30.29,9,203.2,Sep-21,1844521,2020-03-21 11:41:52:598,-0.2975,0.1253,9.5538,0.0032,-0.0025,9.8066,0.0597,0.0117,0.0128,7.3,-0.91,-39.64,15.69,-16.58,5.84
3690,51.921543,-2.146471,59,30.29,9,203.2,Sep-21,1845021,2020-03-21 11:41:53:098,-0.6403,0.4044,9.3483,-0.006,-0.0031,9.8066,-0.0234,0.0106,0.0032,7.68,-1.28,-39.64,15.45,-16.68,6.13
3691,51.921543,-2.146471,59,30.29,9,203.2,0 / 21,1845521,2020-03-21 11:41:53:598,0.1184,-0.528,9.0922,0.0063,-0.0034,9.8066,0.0266,0.0021,0.0106,7.68,-1.28,-38.83,15.59,-16.57,6.22
3692,51.921543,-2.146471,59,30.29,9,203.2,0 / 21,1846021,2020-03-21 11:41:54:098,0.4752,-0.7003,9.4664,0.0037,-0.007,9.8066,0.0128,0.0277,0.0053,7.3,-0.91,-39.2,17.31,-16.65,6.69
3693,51.921543,-2.146471,59,30.29,9,203.2,Sep-21,1846521,2020-03-21 11:41:54:598,-0.0196,0.617,10.1249,0.0066,0.0081,9.8066,-0.0426,0.0149,0.001,7.68,-0.91,-39.27,16.21,-16.57,6.54
3694,51.921543,-2.146471,59,30.29,9,203.2,Sep-21,1847021,2020-03-21 11:41:55:098,0.154,0.5113,9.6588,0.0014,-0.008,9.8066,-0.0202,0.0075,0.0138,7.68,-0.91,-38.83,16.56,-16.6,6.72
3695,51.921543,-2.146471,59,30.29,9,203.2,Sep-21,1847521,2020-03-21 11:41:55:598,0.2487,-0.4133,10.102,0.0067,-0.0042,9.8066,0.0021,0.0309,-0.0192,7.3,-0.91,-38.83,17.6,-16.75,6.87
3696,51.921543,-2.146471,59,30.29,9,203.2,Sep-21,1848020,2020-03-21 11:41:56:097,-0.0209,-0.0942,8.9507,-0.0009,-0.0035,9.8067,-0.0117,0.0309,0.0053,7.68,-0.91,-39.27,16.86,-16.73,6.92
3697,51.921543,-2.146471,59,30.29,9,203.2,Sep-21,1848521,2020-03-21 11:41:56:598,-0.5885,0.8391,10.178,-0.0086,0.0109,9.8066,0.0053,-0.0394,0.0021,7.3,-0.91,-39.2,17.63,-16.71,6.87
3698,51.921543,-2.146471,59,30.29,9,203.2,Sep-21,1849021,2020-03-21 11:41:57:098,0.041,-0.2728,9.535,-0.0007,0.0001,9.8067,0.0043,-0.0213,0.0202,7.3,-0.53,-39.27,18.0,-16.67,7.04
3699,51.921543,-2.146471,59,30.29,9,203.2,Sep-21,1849521,2020-03-21 11:41:57:598,-0.0199,-0.2307,9.5514,-0.0065,-0.0015,9.8066,-0.0128,0.0096,0.0106,7.68,-0.53,-38.83,16.34,-16.62,6.62
3700,51.921543,-2.146471,59,30.29,9,203.2,Sep-21,1850021,2020-03-21 11:41:58:098,-0.1542,0.0144,9.4765,-0.004,0.003,9.8066,0.0277,-0.0234,0.0192,7.68,-0.53,-39.2,15.81,-16.72,6.36
3701,51.921543,-2.146471,59,30.29,9,203.2,Sep-21,1850521,2020-03-21 11:41:58:598,-0.002,2.0182,9.4189,-0.003,0.0068,9.8066,-0.0128,0.0106,-0.0053,8.05,-0.53,-38.83,15.22,-16.65,6.04
3702,51.921543,-2.146471,59,30.29,9,203.2,Sep-21,1851021,2020-03-21 11:41:59:098,0.039,0.1486,9.4409,0.0033,0.0048,9.8066,0.0458,-0.0192,0.0021,6.93,-0.16,-39.2,13.47,-16.64,6.28
3703,51.921543,-2.146471,59,30.29,9,203.2,Sep-21,1851520,2020-03-21 11:41:59:597,-0.8069,0.3419,10.1778,-0.0033,-0.0033,9.8067,-0.033,-0.0224,0.0106,6.93,0.91,-39.27,10.38,-16.69,6.28
3704,51.921543,-2.146471,59,30.29,9,203.2,Sep-21,1852020,2020-03-21 11:42:00:097,-0.1811,-0.3312,8.9323,0.0019,-0.0041,9.8066,0.0373,-0.0202,0.0106,6.55,2.78,-39.64,4.63,-16.6,6.39
3705,51.921543,-2.146471,59,30.29,9,203.2,Sep-21,1852520,2020-03-21 11:42:00:597,-0.056,0.2391,9.736,-0.0026,0.0014,9.8067,0.0224,-0.0213,0.0064,8.8,0.91,-38.83,9.35,-16.6,6.24
3706,51.921543,-2.146471,59,30.29,9,203.2,Sep-21,1853021,2020-03-21 11:42:01:098,-0.0088,-0.3616,9.797,0.0014,-0.0045,9.8066,-0.0351,0.0362,0.0021,8.8,0.16,-38.83,12.12,-16.64,6.24
3707,51.921543,-2.146471,59,30.29,9,203.2,0 / 21,1853521,2020-03-21 11:42:01:598,0.4001,-0.6134,7.9289,-0.0023,-0.0123,9.8066,0.065,-0.0266,0.0181,7.68,-0.16,-38.83,13.18,-16.68,6.47
3708,51.921543,-2.146471,59,30.29,9,203.2,0 / 21,1854021,2020-03-21 11:42:02:098,0.2047,-0.1193,10.115,0.0051,-0.0025,9.8067,0.0021,-0.0043,0.0032,7.68,-0.16,-39.27,13.34,-16.7,6.56
3709,51.921543,-2.146471,59,30.29,9,203.2,Jun-21,1854520,2020-03-21 11:42:02:597,-0.0005,-0.063,9.2864,-0.0034,-0.0024,9.8066,0.0458,-0.0437,0.0117,7.68,0.16,-39.64,14.24,-16.68,6.94
3710,51.921543,-2.146471,59,30.29,9,203.2,Jun-21,1855020,2020-03-21 11:42:03:097,0.349,-0.4021,9.373,0.0045,-0.0115,9.8066,0.0085,0.0234,-0.0053,7.68,0.16,-40.08,14.59,-16.72,7.13
3711,51.917477,-2.148784,63,29.98,13,196.4,Sep-21,1855521,2020-03-21 11:42:03:598,0.1891,-0.683,9.5723,-0.0072,-0.0112,9.8066,-0.0447,0.0458,0.0085,8.05,-0.53,-38.83,18.57,-16.72,7.81
3712,51.917477,-2.148784,63,29.98,13,196.4,Sep-21,1856020,2020-03-21 11:42:04:097,-0.0252,-0.417,9.7473,0.0,-0.0001,9.8067,-0.0383,0.0202,0.0074,8.05,-0.53,-39.2,18.75,-16.75,7.92
3713,51.917477,-2.148784,63,29.98,13,196.4,Sep-21,1856521,2020-03-21 11:42:04:598,-0.1961,0.4826,9.1733,0.0047,0.0031,9.8066,-0.0011,-0.0075,0.0042,7.68,0.16,-40.08,15.89,-16.75,7.8
3714,51.917477,-2.148784,63,29.98,13,196.4,Sep-21,1857021,2020-03-21 11:42:05:098,0.4959,-0.6995,10.0007,-0.0026,0.0029,9.8067,0.0139,-0.0075,0.0192,7.68,-0.16,-40.08,16.16,-16.7,7.93
3715,51.917477,-2.148784,63,29.98,13,196.4,Sep-21,1857521,2020-03-21 11:42:05:598,0.6284,-0.3867,9.726,-0.0004,-0.003,9.8067,0.0661,-0.0171,0.0224,7.68,-0.16,-38.83,15.6,-16.69,7.72
3716,51.917477,-2.148784,63,29.98,13,196.4,Sep-21,1858020,2020-03-21 11:42:06:097,0.555,-0.1881,10.5341,-0.0026,0.0001,9.8066,0.0426,-0.0085,-0.0085,7.68,-0.16,-38.83,14.81,-16.65,7.3
3717,51.917477,-2.148784,63,29.98,13,196.4,Sep-21,1858521,2020-03-21 11:42:06:598,-0.1049,0.7353,9.9054,-0.0067,0.0149,9.8066,-0.0128,-0.0021,0.0053,7.3,-0.53,-40.08,18.28,-16.59,7.12
3718,51.917477,-2.148784,63,29.98,13,196.4,Sep-21,1859021,2020-03-21 11:42:07:098,-0.2115,0.2264,9.8425,-0.0048,0.0032,9.8066,-0.0533,-0.0117,0.0149,7.68,0.16,-39.2,14.62,-16.57,7.18
3719,51.917477,-2.148784,63,29.98,13,196.4,Sep-21,1859521,2020-03-21 11:42:07:598,-0.1856,-0.5476,9.508,-0.0079,-0.0018,9.8066,0.0224,-0.0458,0.0138,7.68,-0.53,-39.64,16.6,-16.63,6.71
3720,51.917477,-2.148784,63,29.98,13,196.4,Sep-21,1860021,2020-03-21 11:42:08:098,0.3818,-0.2218,10.0146,-0.0033,-0.0008,9.8066,0.0085,0.0213,0.0064,7.68,-0.16,-39.27,12.53,-16.64,6.14
3721,51.917477,-2.148784,63,29.98,13,196.4,Sep-21,1860521,2020-03-21 11:42:08:598,-0.2631,0.4922,9.3773,0.0009,0.0086,9.8066,-0.0298,-0.0053,0.0096,7.68,0.53,-39.27,9.54,-16.6,6.11
3722,51.917477,-2.148784,63,29.98,13,196.4,Sep-21,1861020,2020-03-21 11:42:09:097,0.0139,-0.7626,9.4958,0.0002,-0.0007,9.8067,0.0224,0.017,0.016,8.05,1.28,-39.2,8.96,-16.61,5.82
3723,51.917477,-2.148784,63,29.98,13,196.4,Sep-21,1861520,2020-03-21 11:42:09:597,0.2986,-0.1924,9.9656,-0.0029,0.0025,9.8066,0.0171,-0.0394,0.0309,8.05,0.53,-38.83,8.31,-16.5,5.49
3724,51.917477,-2.148784,63,29.98,13,196.4,Sep-21,1862021,2020-03-21 11:42:10:098,0.0665,0.3529,9.6834,-0.0024,-0.0045,9.8066,0.0011,-0.0117,0.016,7.68,0.53,-39.2,7.96,-16.65,5.34
3725,51.917477,-2.148784,63,29.98,13,196.4,Sep-21,1862520,2020-03-21 11:42:10:597,-0.1559,-0.1904,8.8141,0.0039,-0.0019,9.8067,0.0053,0.0192,-0.0011,8.05,0.53,-39.64,7.61,-16.66,5.09
3726,51.917477,-2.148784,63,29.98,13,196.4,Sep-21,1863021,2020-03-21 11:42:11:098,-0.2653,0.0188,9.2748,0.0044,-0.0066,9.8066,0.0011,0.0053,-0.0053,8.05,0.91,-38.83,8.41,-16.66,5.56
3727,51.917477,-2.148784,63,29.98,13,196.4,Oct-21,1863520,2020-03-21 11:42:11:597,-0.0473,-0.6831,9.8296,-0.0027,-0.0042,9.8067,0.0,-0.0053,0.0192,8.43,0.53,-38.83,9.37,-16.66,6.03
3728,51.917477,-2.148784,63,29.98,13,196.4,Oct-21,1864021,2020-03-21 11:42:12:098,0.1495,0.1178,9.3574,0.0021,-0.0037,9.8067,0.0213,0.0117,0.0053,8.43,0.53,-38.83,9.02,-16.64,5.86
3729,51.917477,-2.148784,63,29.98,13,196.4,Oct-21,1864521,2020-03-21 11:42:12:598,0.2341,0.3766,9.8575,0.0013,0.0115,9.8066,-0.0202,0.0224,0.0234,8.05,0.91,-39.2,9.65,-16.61,6.17
3730,51.917477,-2.148784,63,29.98,13,196.4,Oct-21,1865020,2020-03-21 11:42:13:097,-0.0722,-0.2699,10.2816,0.0022,-0.0015,9.8067,-0.0373,0.0032,0.0042,8.05,0.91,-39.2,9.29,-16.7,6.0
3731,51.917477,-2.148784,63,29.98,13,196.4,Oct-21,1865521,2020-03-21 11:42:13:598,-0.0016,-0.2437,9.0093,0.0013,-0.0072,9.8066,0.0,0.0117,0.001,8.05,0.91,-39.2,9.2,-16.79,5.97
3732,51.917477,-2.148784,63,29.98,13,196.4,Oct-21,1866020,2020-03-21 11:42:14:097,0.3335,-0.1524,9.2952,-0.0044,-0.0065,9.8066,0.0554,-0.0128,0.0138,8.43,1.66,-38.83,6.79,-16.76,6.24
3733,51.917477,-2.148784,63,29.98,13,196.4,Oct-21,1866521,2020-03-21 11:42:14:598,-0.1838,0.3904,9.4557,0.0043,-0.0001,9.8067,-0.0277,0.0234,-0.0011,8.43,1.66,-39.27,6.77,-16.61,6.21
3734,51.917477,-2.148784,63,29.98,13,196.4,Oct-21,1867021,2020-03-21 11:42:15:098,-0.1621,-0.5147,10.0118,0.001,0.0046,9.8066,-0.0309,0.016,0.0096,8.43,1.66,-38.39,7.17,-16.67,6.53
3735,51.917477,-2.148784,63,29.98,13,196.4,Oct-21,1867520,2020-03-21 11:42:15:597,-0.1434,-0.2319,9.7504,-0.0054,-0.0058,9.8066,0.049,-0.033,0.0181,8.05,1.28,-40.08,10.17,-16.58,6.33
3736,51.917477,-2.148784,63,29.98,13,196.4,Oct-21,1868020,2020-03-21 11:42:16:097,0.3213,0.3201,9.2962,0.0019,0.003,9.8066,0.0384,-0.0266,0.0192,8.43,2.03,-39.2,6.4,-16.65,6.04
3737,51.917477,-2.148784,63,29.98,13,196.4,Oct-21,1868521,2020-03-21 11:42:16:598,0.3344,0.134,9.2316,0.0042,-0.0001,9.8067,-0.0128,0.0533,-0.0021,8.05,2.03,-38.83,6.96,-16.73,6.32
3738,51.917477,-2.148784,63,29.98,13,196.4,Oct-21,1869021,2020-03-21 11:42:17:098,-0.7656,-0.3413,10.0986,-0.0009,-0.0033,9.8067,-0.0074,-0.0277,-0.0043,8.05,1.28,-38.83,10.46,-16.62,6.57
3739,51.917477,-2.148784,63,29.98,13,196.4,Oct-21,1869521,2020-03-21 11:42:17:598,0.0897,0.1779,10.0366,0.0049,-0.0147,9.8066,0.0416,-0.0202,0.0042,8.43,1.66,-38.83,7.95,-16.67,6.8
3740,51.917477,-2.148784,63,29.98,13,196.4,Oct-21,1870021,2020-03-21 11:42:18:098,0.4305,0.0305,8.6854,-0.0035,-0.0039,9.8066,0.0778,-0.0352,0.0138,8.8,1.66,-38.39,7.35,-16.66,6.8
3741,51.917477,-2.148784,63,29.98,13,196.4,0 / 21,1870520,2020-03-21 11:42:18:597,-0.002,-0.0262,9.5138,0.006,-0.0017,9.8066,-0.0554,0.0383,-0.0064,8.05,1.66,-38.39,7.2,-16.66,6.55
3742,51.917477,-2.148784,63,29.98,13,196.4,0 / 21,1871021,2020-03-21 11:42:19:098,0.1455,-0.3764,10.3728,-0.0002,0.003,9.8067,-0.0277,0.0277,0.0074,8.05,1.66,-39.64,7.33,-16.69,6.39
3743,51.917477,-2.148784,63,29.98,13,196.4,Aug-21,1871520,2020-03-21 11:42:19:597,-0.3031,0.517,9.9849,0.0002,0.0076,9.8066,-0.0032,-0.0171,0.0074,8.8,0.91,-38.83,9.51,-16.67,6.34
3744,51.917477,-2.148784,63,29.98,13,196.4,Aug-21,1872021,2020-03-21 11:42:20:098,0.4158,-0.8191,9.7768,0.0025,0.0036,9.8067,0.0181,0.0064,0.0192,8.8,2.03,-38.83,6.65,-16.64,6.32
3745,51.912968,-2.150669,62,30.45,10,191.0,13 / 21,1872520,2020-03-21 11:42:20:597,0.2513,-0.6515,9.9666,-0.0029,-0.0063,9.8066,0.0085,0.0234,0.0032,8.43,2.41,-39.2,6.67,-16.7,6.17
3746,51.912968,-2.150669,62,30.45,10,191.0,13 / 21,1873021,2020-03-21 11:42:21:098,-0.119,0.2353,9.7447,0.0012,-0.0034,9.8067,-0.065,0.0202,-0.0021,8.43,1.66,-38.39,6.62,-16.84,6.28
3747,51.912968,-2.150669,62,30.45,10,191.0,13 / 21,1873520,2020-03-21 11:42:21:597,-0.2749,0.1523,9.8152,0.0011,0.0085,9.8066,0.0171,-0.0234,0.0181,8.8,2.78,-38.39,3.09,-16.81,6.11
3748,51.912968,-2.150669,62,30.45,10,191.0,13 / 21,1874021,2020-03-21 11:42:22:098,0.0551,-0.0928,9.1682,0.0048,-0.0074,9.8066,0.0202,0.0053,0.0021,9.11,2.03,-38.83,6.75,-16.67,6.38
3749,51.912968,-2.150669,62,30.45,10,191.0,13 / 21,1874521,2020-03-21 11:42:22:598,-0.1711,0.2739,9.7275,-0.0048,-0.0005,9.8066,0.016,-0.0298,0.0042,8.43,1.28,-38.83,10.56,-16.56,6.61
3750,51.912968,-2.150669,62,30.45,10,191.0,13 / 21,1875021,2020-03-21 11:42:23:098,-0.3092,0.1857,9.3849,0.0109,0.0053,9.8066,-0.0149,0.0032,0.0042,8.43,0.91,-37.95,10.73,-16.57,6.79
3751,51.912968,-2.150669,62,30.45,10,191.0,13 / 21,1875521,2020-03-21 11:42:23:598,0.1843,-0.3593,9.2514,0.0013,0.0061,9.8066,0.0426,-0.0149,0.0202,9.11,1.28,-38.83,10.02,-16.66,6.61
3752,51.912968,-2.150669,62,30.45,10,191.0,13 / 21,1876021,2020-03-21 11:42:24:098,-0.3382,-0.139,9.4993,0.0023,0.0024,9.8067,0.0788,-0.0416,0.0042,8.0,1.01,-38.04,9.59,-16.63,6.23
3753,51.912968,-2.150669,62,30.45,10,191.0,13 / 21,1876520,2020-03-21 11:42:24:597,0.1398,0.3898,9.5868,-0.003,0.004,9.8067,0.0107,-0.0352,0.0149,8.38,1.01,-37.6,9.87,-16.86,6.4
3754,51.912968,-2.150669,62,30.45,10,191.0,13 / 21,1877021,2020-03-21 11:42:25:098,0.0726,-0.5509,9.8266,-0.0032,-0.0024,9.8066,0.0149,-0.0107,0.0074,8.38,2.51,-38.92,4.03,-16.92,6.36
3755,51.912968,-2.150669,62,30.45,10,191.0,13 / 21,1877521,2020-03-21 11:42:25:598,0.2083,-0.4385,9.5514,-0.0075,0.0026,9.8066,0.0256,-0.032,0.0234,9.07,2.51,-38.48,3.28,-16.81,6.21
3756,51.912968,-2.150669,62,30.45,10,191.0,13 / 21,1878020,2020-03-21 11:42:26:097,-0.1319,0.4289,9.9744,0.0049,0.0061,9.8066,-0.0128,-0.0032,0.0138,8.38,2.51,-39.35,2.72,-16.69,5.72
3757,51.912968,-2.150669,62,30.45,10,191.0,Jul-21,1878521,2020-03-21 11:42:26:598,0.2041,0.2551,9.5505,-0.0064,0.0099,9.8066,0.0373,-0.0202,0.0245,8.75,2.89,-38.92,1.14,-16.64,4.98
3758,51.912968,-2.150669,62,30.45,10,191.0,Jul-21,1879021,2020-03-21 11:42:27:098,0.0642,0.7211,10.6528,-0.0077,0.0058,9.8066,0.0043,-0.0234,0.016,8.38,2.89,-39.29,0.1,-16.52,4.45
3759,51.912968,-2.150669,62,30.45,10,191.0,Jul-21,1879521,2020-03-21 11:42:27:598,0.0011,0.0294,9.1676,0.0025,0.002,9.8067,0.0011,-0.0117,0.0192,8.75,3.26,-38.48,359.86,-16.49,4.44
3760,51.912968,-2.150669,62,30.45,10,191.0,Jul-21,1880020,2020-03-21 11:42:28:097,-0.9136,-0.6942,9.6455,-0.0074,0.0016,9.8066,0.0149,-0.0778,0.0266,8.75,3.64,-38.48,356.89,-16.52,4.42
3761,51.912968,-2.150669,62,30.45,10,191.0,Jul-21,1880520,2020-03-21 11:42:28:597,0.1705,-0.4803,9.6754,0.0041,-0.0083,9.8066,0.0149,-0.0128,0.0213,8.75,3.95,-38.92,358.72,-16.58,5.21
3762,51.912968,-2.150669,62,30.45,10,191.0,Jul-21,1881021,2020-03-21 11:42:29:098,0.257,0.0452,9.2772,-0.0005,-0.0115,9.8066,0.0075,0.0128,0.0021,8.38,3.64,-38.92,359.47,-16.58,5.6
3763,51.912968,-2.150669,62,30.45,10,191.0,Jul-21,1881521,2020-03-21 11:42:29:598,-0.101,-0.1588,9.8238,0.0028,-0.0081,9.8066,-0.0543,0.0213,-0.0021,8.38,3.26,-38.92,3.78,-16.57,6.22
3764,51.912968,-2.150669,62,30.45,10,191.0,Jul-21,1882021,2020-03-21 11:42:30:098,-0.4374,-0.6478,10.7799,0.019,-0.005,9.8066,-0.1012,0.0362,0.0266,9.07,3.95,-39.29,1.56,-16.45,6.64
3765,51.912968,-2.150669,62,30.45,10,191.0,Jul-21,1882521,2020-03-21 11:42:30:598,-0.1322,0.2166,10.8846,-0.0076,-0.0064,9.8066,-0.0202,-0.0277,0.0074,8.38,3.95,-39.29,3.45,-16.68,7.52
3766,51.912968,-2.150669,62,30.45,10,191.0,Jul-21,1883020,2020-03-21 11:42:31:097,-0.064,0.1499,9.9676,0.0052,-0.0095,9.8066,-0.0128,0.0032,-0.0139,8.75,3.26,-38.92,6.84,-16.59,7.88
3767,51.912968,-2.150669,62,30.45,10,191.0,Jul-21,1883521,2020-03-21 11:42:31:598,0.0826,-0.2235,9.4563,-0.0021,0.0029,9.8067,0.0021,0.0149,-0.0011,8.38,3.26,-39.73,7.91,-16.67,8.09
3768,51.912968,-2.150669,62,30.45,10,191.0,Jul-21,1884020,2020-03-21 11:42:32:097,0.0719,0.1153,9.9246,0.002,0.0002,9.8067,-0.0458,0.0064,-0.0032,8.75,3.64,-38.04,4.13,-16.71,8.13
3769,51.912968,-2.150669,62,30.45,10,191.0,Jul-21,1884521,2020-03-21 11:42:32:598,0.0489,-0.4924,8.6754,0.004,0.0061,9.8066,0.0416,-0.0149,0.0117,8.38,3.26,-39.73,7.69,-16.81,8.0
3770,51.912968,-2.150669,62,30.45,10,191.0,Jul-21,1885021,2020-03-21 11:42:33:098,0.2047,-0.7818,10.2747,0.007,-0.0031,9.8066,0.0139,0.0213,0.0106,8.38,3.95,-39.35,4.38,-16.79,7.98
3771,51.912968,-2.150669,62,30.45,10,191.0,Aug-21,1885521,2020-03-21 11:42:33:598,-0.0043,-0.0606,10.3068,-0.0021,0.0059,9.8066,-0.0522,0.0256,-0.0064,8.38,3.57,-38.92,3.67,-16.76,7.63
3772,51.912968,-2.150669,62,30.45,10,191.0,Aug-21,1886020,2020-03-21 11:42:34:097,-0.2961,0.7908,9.5034,-0.0007,0.0079,9.8066,-0.0714,0.0256,-0.0043,8.38,3.57,-39.35,3.46,-16.87,7.54
3773,51.90917,-2.151451,54,30.23,7,182.9,Oct-21,1886520,2020-03-21 11:42:34:597,-0.3543,0.4749,9.7779,0.0036,0.0009,9.8067,0.0458,-0.0192,0.001,8.38,3.95,-39.79,3.39,-16.79,7.34
3774,51.90917,-2.151451,54,30.23,7,182.9,Oct-21,1887021,2020-03-21 11:42:35:098,-0.2368,0.1827,9.0029,0.0084,0.0005,9.8066,0.0373,0.0245,-0.0117,8.75,3.26,-38.92,5.02,-16.73,6.95
3775,51.90917,-2.151451,54,30.23,7,182.9,0 / 21,1887521,2020-03-21 11:42:35:598,-0.1162,-0.9826,9.1958,0.006,0.0158,9.8066,-0.0533,0.0437,0.0053,9.13,3.95,-39.35,1.9,-16.69,6.82
3776,51.90917,-2.151451,54,30.23,7,182.9,0 / 21,1888020,2020-03-21 11:42:36:097,0.0117,0.2405,10.1356,-0.0027,0.0032,9.8067,0.0181,-0.0192,0.0149,8.38,3.95,-39.79,2.14,-16.71,6.73
3777,51.90917,-2.151451,54,30.23,7,182.9,Aug-21,1888521,2020-03-21 11:42:36:598,-0.1816,0.471,9.7799,-0.006,0.0111,9.8066,0.0117,0.0011,0.017,9.13,3.57,-39.35,1.06,-16.69,6.39
3778,51.90917,-2.151451,54,30.23,7,182.9,Aug-21,1889020,2020-03-21 11:42:37:097,-0.2616,-1.3757,9.5187,0.002,0.0002,9.8067,-0.0341,0.0383,-0.0171,8.38,3.95,-38.54,0.88,-16.63,6.28
3779,51.90917,-2.151451,54,30.23,7,182.9,Aug-21,1889521,2020-03-21 11:42:37:598,-0.0025,-0.3409,8.5883,0.0078,-0.0026,9.8066,-0.0586,0.0426,0.0192,9.13,4.7,-39.35,357.84,-16.47,6.22
3780,51.90917,-2.151451,54,30.23,7,182.9,Aug-21,1890020,2020-03-21 11:42:38:097,0.0028,-0.5065,9.5596,0.0091,-0.003,9.8066,0.0117,-0.0032,0.0096,9.5,4.32,-39.35,0.0,-16.34,5.86
3781,51.90917,-2.151451,54,30.23,7,182.9,Aug-21,1890521,2020-03-21 11:42:38:598,-0.0889,-0.2538,9.3569,0.0032,0.0021,9.8066,0.0096,-0.0053,0.0128,9.13,3.57,-39.35,0.14,-16.31,5.92
3782,51.90917,-2.151451,54,30.23,7,182.9,Aug-21,1891020,2020-03-21 11:42:39:097,-0.185,0.4206,9.7516,0.0024,0.0007,9.8066,-0.0128,-0.0149,0.0021,8.75,4.32,-38.92,359.58,-16.32,5.64
3783,51.90917,-2.151451,54,30.23,7,182.9,Aug-21,1891521,2020-03-21 11:42:39:598,-0.2347,-0.8965,9.5537,-0.0004,-0.0051,9.8066,0.0384,-0.0171,0.0096,8.38,3.95,-38.54,359.76,-16.31,5.74
3784,51.90917,-2.151451,54,30.23,7,182.9,Aug-21,1892020,2020-03-21 11:42:40:097,0.1914,0.0508,8.2257,0.0054,-0.0146,9.8066,0.0373,0.0117,0.0085,8.75,3.95,-39.35,359.78,-16.22,5.75
3785,51.90917,-2.151451,54,30.23,7,182.9,Aug-21,1892521,2020-03-21 11:42:40:598,0.6667,-0.3679,9.5967,0.0044,0.0041,9.8066,0.0586,0.0085,0.0277,8.75,4.32,-38.54,0.53,-16.19,6.12
3786,51.90917,-2.151451,54,30.23,7,182.9,Aug-21,1893021,2020-03-21 11:42:41:098,0.3543,0.0083,10.7832,0.0066,-0.0048,9.8066,-0.0415,0.0522,-0.0064,8.75,4.32,-38.92,0.8,-16.2,6.25
3787,51.90917,-2.151451,54,30.23,7,182.9,Aug-21,1893520,2020-03-21 11:42:41:597,-0.0774,0.0174,9.5812,0.0047,-0.0014,9.8066,0.0021,0.0,-0.0032,9.13,4.7,-38.92,358.13,-16.28,6.37
3788,51.90917,-2.151451,54,30.23,7,182.9,Aug-21,1894021,2020-03-21 11:42:42:098,0.3082,0.3622,10.0248,0.0052,0.0037,9.8066,0.0213,-0.0298,0.0106,9.5,4.32,-39.35,1.72,-16.27,6.76
3789,51.90917,-2.151451,54,30.23,7,182.9,Aug-21,1894520,2020-03-21 11:42:42:597,0.1172,-0.5343,9.6677,0.0053,-0.0063,9.8066,0.0234,0.0181,-0.0064,9.82,3.95,-39.79,1.44,-16.21,6.46
3790,51.90917,-2.151451,54,30.23,7,182.9,Aug-21,1895020,2020-03-21 11:42:43:097,-0.1658,0.0391,9.3184,0.0012,-0.0052,9.8067,-0.0096,0.0181,-0.0171,9.82,0.64,-38.92,9.38,-16.25,6.44
3791,51.90917,-2.151451,54,30.23,7,182.9,Aug-21,1895521,2020-03-21 11:42:43:598,0.3021,0.5767,10.0181,-0.0007,0.0015,9.8066,-0.0043,-0.0171,0.016,4.32,10.26,-37.23,338.29,-16.3,6.48
3792,51.90917,-2.151451,54,30.23,7,182.9,Aug-21,1896021,2020-03-21 11:42:44:098,-0.1265,-0.0869,9.3131,-0.0019,0.0004,9.8067,-0.0383,0.0341,-0.0021,9.13,6.95,-38.48,351.88,-16.26,6.32
3793,51.90917,-2.151451,54,30.23,7,182.9,Aug-21,1896520,2020-03-21 11:42:44:597,0.182,-0.2853,9.2843,0.0041,-0.0055,9.8066,-0.0213,0.0479,-0.0096,9.5,4.32,-39.35,1.47,-16.3,6.63
3794,51.90917,-2.151451,54,30.23,7,182.9,Aug-21,1897021,2020-03-21 11:42:45:098,-0.1149,0.7751,9.2647,0.0044,0.0091,9.8066,-0.0575,0.0075,0.0032,9.13,4.7,-38.48,357.85,-16.27,6.41
3795,51.90917,-2.151451,54,30.23,7,182.9,Jul-21,1897520,2020-03-21 11:42:45:597,-0.0889,0.274,10.0682,0.0104,0.0015,9.8066,-0.0447,0.0458,0.0,9.13,4.32,-38.48,0.81,-16.26,6.42
3796,51.90917,-2.151451,54,30.23,7,182.9,Jul-21,1898020,2020-03-21 11:42:46:097,-0.0158,-0.5993,10.0168,0.0074,-0.0024,9.8066,0.0107,0.0021,0.0096,9.13,5.07,-38.92,358.5,-16.28,6.56
3797,51.906,-2.151724,78,30.24,8,181.4,Dec-21,1898521,2020-03-21 11:42:46:598,-0.1349,0.3435,9.6021,-0.0086,-0.0037,9.8066,0.0149,-0.0224,0.0064,9.13,4.7,-38.92,358.26,-16.4,6.43
3798,51.906,-2.151724,78,30.24,8,181.4,Dec-21,1899020,2020-03-21 11:42:47:097,-0.1515,0.0022,8.7596,-0.0001,0.0014,9.8066,0.0181,0.0021,0.0021,9.5,4.32,-38.92,0.49,-16.29,6.12
3799,51.906,-2.151724,78,30.24,8,181.4,Dec-21,1899521,2020-03-21 11:42:47:598,-0.5735,0.2483,9.3607,-0.001,0.0074,9.8066,0.0117,-0.032,0.0106,9.13,5.07,-38.48,357.01,-16.25,5.98
3800,51.906,-2.151724,78,30.24,8,181.4,Dec-21,1900021,2020-03-21 11:42:48:098,0.6039,0.7965,9.5323,-0.0023,0.0058,9.8066,0.0128,0.0043,0.016,8.75,5.07,-38.92,357.05,-16.18,5.84
3801,51.906,-2.151724,78,30.24,8,181.4,Dec-21,1900521,2020-03-21 11:42:48:598,0.0221,0.3598,9.987,-0.0094,0.004,9.8066,-0.0533,0.0479,0.0042,9.13,5.07,-38.92,356.6,-16.1,5.61
3802,51.906,-2.151724,78,30.24,8,181.4,Dec-21,1901021,2020-03-21 11:42:49:098,-0.0776,-0.7823,10.2436,-0.0001,-0.0014,9.8067,-0.0277,0.032,0.016,9.44,4.7,-38.48,356.81,-16.18,5.89
3803,51.906,-2.151724,78,30.24,8,181.4,Dec-21,1901521,2020-03-21 11:42:49:598,-0.1722,0.0179,9.4324,-0.0033,0.0047,9.8067,0.0117,-0.0213,0.0096,9.13,5.07,-38.48,355.94,-16.09,5.45
3804,51.906,-2.151724,78,30.24,8,181.4,Dec-21,1902020,2020-03-21 11:42:50:097,-0.2853,-0.0049,10.3794,0.0011,-0.0086,9.8066,-0.0746,0.0224,-0.016,9.13,5.07,-38.48,356.77,-16.11,5.87
3805,51.906,-2.151724,78,30.24,8,181.4,Dec-21,1902520,2020-03-21 11:42:50:597,-0.5082,-0.4692,9.8683,-0.0144,-0.0015,9.8066,0.0128,-0.0309,0.0053,9.13,5.07,-38.92,358.01,-16.01,6.32
3806,51.906,-2.151724,78,30.24,8,181.4,Dec-21,1903020,2020-03-21 11:42:51:097,-0.3951,0.1803,9.5304,-0.0068,-0.0053,9.8066,-0.0032,-0.0341,0.0064,8.75,5.07,-38.48,358.49,-16.17,6.74
3807,51.906,-2.151724,78,30.24,8,181.4,Dec-21,1903521,2020-03-21 11:42:51:598,0.2115,-0.9642,8.4609,-0.0001,-0.0143,9.8066,0.0469,0.0138,-0.0149,9.13,5.45,-38.92,359.98,-16.15,7.29
3808,51.906,-2.151724,78,30.24,8,181.4,Dec-21,1904021,2020-03-21 11:42:52:098,-0.2139,0.1464,10.3177,-0.003,-0.0012,9.8066,-0.0778,0.0075,-0.0075,9.44,5.07,-38.48,0.17,-16.25,7.58
3809,51.906,-2.151724,78,30.24,8,181.4,Dec-21,1904520,2020-03-21 11:42:52:597,-0.0141,0.4539,9.9087,0.0074,0.0018,9.8066,-0.0138,0.0106,-0.0021,9.13,5.07,-38.92,0.53,-16.22,7.57
3810,51.906,-2.151724,78,30.24,8,181.4,Dec-21,1905021,2020-03-21 11:42:53:098,0.2141,0.0814,9.8394,-0.0025,0.0045,9.8066,0.0139,0.0043,0.0117,8.75,5.45,-38.92,0.35,-16.3,7.48
3811,51.906,-2.151724,78,30.24,8,181.4,Jan-21,1905521,2020-03-21 11:42:53:598,-0.1555,-0.8055,9.4911,0.0048,-0.0066,9.8066,0.0213,0.0021,-0.0032,8.75,6.2,-38.92,356.79,-16.2,7.15
3812,51.906,-2.151724,78,30.24,8,181.4,Jan-21,1906020,2020-03-21 11:42:54:097,0.1584,0.0601,9.6895,-0.0025,-0.0015,9.8067,-0.017,0.0202,-0.0139,8.75,5.82,-38.48,357.43,-16.41,7.67
3813,51.906,-2.151724,78,30.24,8,181.4,Aug-21,1906520,2020-03-21 11:42:54:597,0.0507,1.0123,9.2125,-0.0041,0.0041,9.8066,0.0043,-0.0107,-0.0117,8.0,5.82,-38.92,358.03,-16.37,7.81
3814,51.906,-2.151724,78,30.24,8,181.4,Aug-21,1907021,2020-03-21 11:42:55:098,-0.0938,-0.0671,9.7568,-0.0071,0.0068,9.8066,0.0,-0.0341,0.017,8.75,5.82,-38.48,358.02,-16.3,7.97
3815,51.906,-2.151724,78,30.24,8,181.4,Aug-21,1907521,2020-03-21 11:42:55:598,-0.2205,-0.5167,9.4228,0.004,-0.0045,9.8066,0.0171,0.0245,-0.0053,8.75,5.82,-38.48,357.73,-16.27,7.82
3816,51.906,-2.151724,78,30.24,8,181.4,Aug-21,1908020,2020-03-21 11:42:56:097,0.3548,-0.5652,10.711,0.003,-0.0012,9.8066,0.0171,-0.0032,0.0074,9.44,5.45,-38.48,0.72,-16.24,7.86
3817,51.906,-2.151724,78,30.24,8,181.4,Aug-21,1908520,2020-03-21 11:42:56:597,0.4829,-0.0581,9.8449,0.0061,-0.0109,9.8066,0.0043,0.0128,0.0032,8.75,5.45,-38.48,1.64,-16.42,8.33
3818,51.906,-2.151724,78,30.24,8,181.4,Aug-21,1909021,2020-03-21 11:42:57:098,-0.5194,0.2249,9.196,0.0007,0.0023,9.8066,-0.0213,0.0011,-0.0053,9.13,5.82,-37.6,358.23,-16.29,8.08
3819,51.906,-2.151724,78,30.24,8,181.4,Aug-21,1909520,2020-03-21 11:42:57:597,-0.3305,-0.5823,8.5007,-0.0015,-0.0047,9.8066,0.0373,-0.0096,0.001,9.13,5.82,-38.04,358.02,-16.37,7.97
3820,51.906,-2.151724,78,30.24,8,181.4,Aug-21,1910021,2020-03-21 11:42:58:098,-0.0843,-0.3865,9.2636,0.0038,-0.0086,9.8066,0.0075,0.0043,-0.0096,8.75,5.07,-38.48,1.39,-16.65,8.21
3821,51.906,-2.151724,78,30.24,8,181.4,Aug-21,1910521,2020-03-21 11:42:58:598,-0.0496,-0.0373,8.9862,-0.0054,-0.002,9.8066,0.0075,-0.0085,-0.0053,8.0,5.82,-38.48,359.14,-16.53,8.55
3822,51.906,-2.151724,78,30.24,8,181.4,Aug-21,1911020,2020-03-21 11:42:59:097,0.2575,0.7211,9.5801,0.0051,0.0048,9.8066,-0.0053,0.0298,-0.0064,9.13,5.82,-39.35,359.29,-16.57,8.39
3823,51.906,-2.151724,78,30.24,8,181.4,Aug-21,1911521,2020-03-21 11:42:59:598,0.0127,0.5816,10.2974,-0.0045,-0.0031,9.8066,-0.0192,0.0,0.0,9.44,5.07,-38.92,2.36,-16.49,8.49
3824,51.906,-2.151724,78,30.24,8,181.4,Aug-21,1912021,2020-03-21 11:43:00:098,-0.4549,-0.3518,10.044,-0.0016,0.0103,9.8066,-0.0128,-0.0213,-0.0064,8.75,5.45,-38.04,1.37,-16.54,8.2
3825,51.906,-2.151724,78,30.24,8,181.4,Aug-21,1912520,2020-03-21 11:43:00:597,-0.1895,0.1142,8.7812,-0.0037,0.0034,9.8066,0.0501,-0.0447,0.0085,9.44,5.45,-38.92,1.08,-16.6,7.85
3826,51.906,-2.151724,78,30.24,8,181.4,Aug-21,1913021,2020-03-21 11:43:01:098,-0.2536,-0.5795,8.5846,0.0004,-0.0055,9.8066,0.0448,-0.0021,0.0053,8.75,6.2,-39.35,357.97,-16.74,7.72
3827,51.906,-2.151724,78,30.24,8,181.4,Jan-21,1913521,2020-03-21 11:43:01:598,0.0031,-0.5184,9.2706,0.0023,-0.0009,9.8067,-0.0011,0.032,-0.0011,8.38,5.45,-38.48,0.01,-16.77,7.5
3828,51.906,-2.151724,78,30.24,8,181.4,Jan-21,1914020,2020-03-21 11:43:02:097,-0.0573,0.6202,10.681,-0.0012,0.0006,9.8067,-0.0256,0.0032,-0.0064,8.75,5.45,-38.04,359.92,-16.64,7.45
3829,51.906,-2.151724,78,30.24,8,181.4,Nov-21,1914521,2020-03-21 11:43:02:598,-0.1186,0.1216,11.2907,-0.0064,0.0035,9.8066,0.0724,-0.1172,0.0096,8.75,5.82,-38.48,357.48,-16.77,7.68
3830,51.906,-2.151724,78,30.24,8,181.4,Nov-21,1915021,2020-03-21 11:43:03:098,0.1886,0.267,9.2686,0.0021,0.0001,9.8067,-0.0011,-0.0021,-0.0021,8.75,6.2,-38.48,358.76,-16.8,8.34
3831,51.90135,-2.151401,79,30.42,13,179.0,Nov-21,1915520,2020-03-21 11:43:03:597,0.0715,-0.5175,9.2143,0.0002,0.0018,9.8067,0.0181,0.0032,-0.0021,8.75,5.07,-38.48,1.12,-16.83,8.07
3832,51.90135,-2.151401,79,30.42,13,179.0,Nov-21,1916020,2020-03-21 11:43:04:097,0.1801,0.3511,9.559,0.0115,0.0187,9.8066,-0.0074,-0.0234,0.0255,5.75,5.82,-35.92,356.37,-16.6,7.85
3833,51.90135,-2.151401,79,30.42,13,179.0,Nov-21,1916521,2020-03-21 11:43:04:598,0.2275,0.0803,9.5509,0.0331,-0.0149,9.8066,0.082,-0.0234,-0.0117,8.0,-10.05,-50.04,37.42,-16.59,7.47
3834,51.90135,-2.151401,79,30.42,13,179.0,Nov-21,1917021,2020-03-21 11:43:05:098,0.2797,-0.4348,9.4259,0.0158,-0.0133,9.8066,0.0277,0.0362,-0.0341,3.57,-7.8,-41.48,41.19,-17.05,7.8
3835,51.90135,-2.151401,79,30.42,13,179.0,Nov-21,1917520,2020-03-21 11:43:05:597,0.4188,0.081,11.3308,0.0001,-0.0363,9.8066,-0.0948,0.0799,0.0074,10.19,5.82,-38.92,359.09,-17.18,8.25
3836,51.90135,-2.151401,79,30.42,13,179.0,Nov-21,1918020,2020-03-21 11:43:06:097,-0.0807,0.5894,8.2924,0.0206,0.0149,9.8066,-0.0181,0.0277,0.0053,9.5,6.2,-38.1,358.13,-16.92,7.96
3837,51.90135,-2.151401,79,30.42,13,179.0,Nov-21,1918521,2020-03-21 11:43:06:598,0.1612,-0.0866,10.5277,0.0028,-0.0038,9.8067,0.032,0.0021,0.0064,9.13,6.2,-39.35,358.38,-16.91,7.92
3838,51.90135,-2.151401,79,30.42,13,179.0,Nov-21,1919021,2020-03-21 11:43:07:098,0.3702,-1.3681,8.9823,-0.0035,0.0016,9.8067,0.0266,0.0288,0.0202,8.75,5.45,-39.35,1.23,-16.96,7.94
3839,51.90135,-2.151401,79,30.42,13,179.0,Nov-21,1919520,2020-03-21 11:43:07:597,0.1775,-0.1691,8.906,-0.0008,-0.0019,9.8067,0.0053,0.0138,-0.0064,8.38,5.07,-38.48,359.87,-17.04,7.43
3840,51.90135,-2.151401,79,30.42,13,179.0,Nov-21,1920021,2020-03-21 11:43:08:098,-0.2522,0.3296,8.7122,0.0009,-0.0009,9.8067,0.0277,0.0032,0.0032,8.38,5.07,-38.92,359.76,-17.02,7.19
3841,51.90135,-2.151401,79,30.42,13,179.0,Nov-21,1920520,2020-03-21 11:43:08:597,0.2339,1.8491,9.303,-0.0001,-0.0019,9.8067,-0.0415,0.0362,-0.0181,8.75,5.45,-38.92,359.88,-16.98,7.24
3842,51.90135,-2.151401,79,30.42,13,179.0,Nov-21,1921021,2020-03-21 11:43:09:098,-0.1193,0.098,10.0692,0.0072,0.0006,9.8066,0.0053,0.017,0.0042,8.38,5.07,-38.48,359.52,-17.01,7.26
3843,51.90135,-2.151401,79,30.42,13,179.0,Jan-21,1921521,2020-03-21 11:43:09:598,0.1425,0.0682,10.192,0.0045,0.0009,9.8066,-0.0096,0.0149,0.0053,8.38,5.45,-38.1,359.3,-17.05,7.15
3844,51.90135,-2.151401,79,30.42,13,179.0,Jan-21,1922021,2020-03-21 11:43:10:098,-0.3647,-0.0056,9.7071,-0.0006,0.0056,9.8066,0.0171,-0.0213,0.0106,8.0,5.82,-38.48,356.31,-17.2,7.14
3845,51.90135,-2.151401,79,30.42,13,179.0,Nov-21,1922520,2020-03-21 11:43:10:597,-0.4633,0.4975,9.4844,-0.0105,0.005,9.8066,0.0128,-0.0426,0.0096,8.0,5.82,-38.48,355.13,-17.27,6.55
3846,51.90135,-2.151401,79,30.42,13,179.0,Nov-21,1923021,2020-03-21 11:43:11:098,-0.1432,-0.7679,9.3512,0.0028,-0.0087,9.8066,0.0511,-0.033,0.017,8.0,6.2,-38.48,355.48,-17.28,6.73
3847,51.90135,-2.151401,79,30.42,13,179.0,13 / 21,1923521,2020-03-21 11:43:11:598,-0.0338,-0.6564,9.1892,-0.0044,-0.0166,9.8066,0.0011,0.0128,0.0042,8.0,5.82,-39.35,357.34,-17.29,7.44
3848,51.90135,-2.151401,79,30.42,13,179.0,13 / 21,1924021,2020-03-21 11:43:12:098,0.4091,-0.3432,10.3244,0.0168,-0.0057,9.8066,0.0373,0.0245,-0.0203,8.0,5.45,-38.48,1.45,-17.37,8.22
3849,51.90135,-2.151401,79,30.42,13,179.0,13 / 21,1924521,2020-03-21 11:43:12:598,0.1371,0.3179,9.4384,-0.0119,0.0,9.8066,-0.0596,0.0437,0.0074,8.0,5.82,-38.48,358.93,-17.22,8.44
3850,51.90135,-2.151401,79,30.42,13,179.0,13 / 21,1925020,2020-03-21 11:43:13:097,0.1561,-0.3155,10.5631,0.0047,-0.0133,9.8066,0.0234,-0.0373,0.0117,8.0,5.45,-38.92,2.86,-17.36,8.71
3851,51.90135,-2.151401,79,30.42,13,179.0,13 / 21,1925521,2020-03-21 11:43:13:598,0.1189,0.7209,9.2789,-0.0036,0.0087,9.8066,0.0288,-0.0543,0.0021,7.63,5.45,-38.48,1.8,-17.44,8.39
3852,51.90135,-2.151401,79,30.42,13,179.0,13 / 21,1926021,2020-03-21 11:43:14:098,0.0284,-0.6468,9.3771,-0.0039,-0.0044,9.8066,-0.0064,0.0245,-0.0043,8.0,5.45,-38.48,1.1,-17.59,8.05
3853,51.90135,-2.151401,79,30.42,13,179.0,13 / 21,1926520,2020-03-21 11:43:14:597,-0.2516,-0.7127,9.1491,-0.0012,0.0165,9.8066,-0.0181,0.0234,0.0106,8.0,5.45,-38.92,0.47,-17.46,7.54
3854,51.90135,-2.151401,79,30.42,13,179.0,13 / 21,1927021,2020-03-21 11:43:15:098,0.2127,-0.708,10.5821,-0.0058,-0.0071,9.8066,-0.0831,0.0447,0.0021,8.0,5.82,-38.48,357.73,-17.54,7.84
3855,51.90135,-2.151401,79,30.42,13,179.0,13 / 21,1927521,2020-03-21 11:43:15:598,-0.3125,0.5339,9.4096,0.0009,0.0086,9.8066,-0.0831,0.0351,0.0,6.88,5.45,-38.92,0.9,-17.65,7.73
3856,51.90135,-2.151401,79,30.42,13,179.0,13 / 21,1928021,2020-03-21 11:43:16:098,0.2537,-0.1093,9.4948,0.0042,0.0116,9.8066,-0.0309,0.0011,0.0096,7.25,5.82,-38.92,358.38,-17.78,7.98
3857,51.90135,-2.151401,79,30.42,13,179.0,13 / 21,1928520,2020-03-21 11:43:16:597,-0.091,0.1575,9.2826,-0.0049,-0.0032,9.8067,-0.0085,0.0021,-0.0085,8.0,5.82,-39.79,358.19,-17.77,7.63
3858,51.90135,-2.151401,79,30.42,13,179.0,13 / 21,1929021,2020-03-21 11:43:17:098,0.422,-0.2164,10.1955,-0.003,-0.0081,9.8066,0.0064,-0.0202,-0.0064,8.0,5.82,-38.48,358.05,-17.85,7.99
3859,51.90135,-2.151401,79,30.42,13,179.0,13 / 21,1929521,2020-03-21 11:43:17:598,0.0856,0.5776,9.4909,-0.004,0.0055,9.8066,0.049,-0.0245,0.0117,8.0,6.57,-38.92,355.1,-17.84,7.73
3860,51.90135,-2.151401,79,30.42,13,179.0,13 / 21,1930020,2020-03-21 11:43:18:097,-0.1463,-0.0453,10.2687,0.0012,0.0017,9.8067,0.0021,0.0106,-0.0107,7.63,5.45,-38.48,0.38,-17.93,7.69
3861,51.90135,-2.151401,79,30.42,13,179.0,Sep-21,1930521,2020-03-21 11:43:18:598,-0.3861,-0.0745,9.3738,0.0023,0.0003,9.8067,-0.0554,0.049,-0.0075,8.0,5.45,-38.48,0.97,-17.89,7.99
3862,51.90135,-2.151401,79,30.42,13,179.0,Sep-21,1931020,2020-03-21 11:43:19:097,0.1655,0.1605,10.0698,0.0071,0.0039,9.8066,-0.0032,-0.0266,0.0085,8.0,5.45,-38.92,1.28,-17.82,7.95
3863,51.896973,-2.151319,78,30.42,10,179.0,Dec-21,1931521,2020-03-21 11:43:19:598,-0.1744,0.2836,9.1429,-0.0037,-0.0032,9.8066,0.033,-0.0437,0.0202,8.38,5.07,-38.92,0.37,-17.74,7.49
3864,51.896973,-2.151319,78,30.42,10,179.0,Dec-21,1932020,2020-03-21 11:43:20:097,-0.0755,-0.0675,9.4708,-0.0012,-0.0055,9.8066,0.082,-0.0469,0.0106,8.0,5.45,-39.35,0.02,-17.71,7.31
3865,51.896973,-2.151319,78,30.42,10,179.0,Dec-21,1932521,2020-03-21 11:43:20:598,-0.1856,0.1258,8.6807,0.0051,0.0042,9.8066,0.0288,0.033,-0.0203,8.0,5.07,-39.35,359.59,-17.6,7.1
3866,51.896973,-2.151319,78,30.42,10,179.0,Dec-21,1933021,2020-03-21 11:43:21:098,0.3755,-0.4105,9.0744,-0.0026,0.0055,9.8066,-0.0628,0.0277,0.0053,8.0,5.07,-38.04,359.46,-17.51,7.22
3867,51.896973,-2.151319,78,30.42,10,179.0,Dec-21,1933520,2020-03-21 11:43:21:597,0.2852,-0.1896,9.0996,0.0027,-0.0029,9.8066,-0.0383,0.0692,-0.0139,7.63,5.07,-39.35,359.44,-17.42,7.03
3868,51.896973,-2.151319,78,30.42,10,179.0,Dec-21,1934020,2020-03-21 11:43:22:097,0.0935,-0.2732,9.3753,0.0091,-0.0001,9.8066,0.0416,0.0085,0.0138,8.0,5.07,-38.92,359.6,-17.27,7.11
3869,51.896973,-2.151319,78,30.42,10,179.0,Dec-21,1934521,2020-03-21 11:43:22:598,0.072,0.6636,8.9683,0.0115,0.014,9.8066,0.0011,0.016,0.0138,8.38,5.07,-39.35,359.96,-17.14,7.28
3870,51.896973,-2.151319,78,30.42,10,179.0,Dec-21,1935020,2020-03-21 11:43:23:097,-0.0492,-0.6986,9.9799,0.0054,0.0011,9.8066,-0.0266,0.0383,0.0074,8.38,5.45,-38.48,359.83,-17.0,7.41
3871,51.896973,-2.151319,78,30.42,10,179.0,Dec-21,1935521,2020-03-21 11:43:23:598,-0.0247,-0.0643,9.4425,0.0041,0.0067,9.8066,-0.0234,-0.0032,0.0149,8.38,5.07,-38.04,359.87,-16.93,7.43
3872,51.896973,-2.151319,78,30.42,10,179.0,Dec-21,1936020,2020-03-21 11:43:24:097,-0.3825,0.7195,9.022,0.0018,0.0015,9.8066,0.0043,0.0405,0.0,8.75,6.2,-38.48,356.27,-16.81,7.06
3873,51.896973,-2.151319,78,30.42,10,179.0,Dec-21,1936521,2020-03-21 11:43:24:598,-0.219,-0.7322,10.0503,0.0002,-0.0094,9.8066,0.032,0.0032,-0.0053,9.44,5.82,-38.48,356.47,-16.82,7.16
3874,51.896973,-2.151319,78,30.42,10,179.0,Dec-21,1937021,2020-03-21 11:43:25:098,0.2134,-0.7003,9.9082,-0.0054,0.0114,9.8066,-0.0309,0.0,0.0373,9.13,5.45,-38.48,0.43,-16.89,7.72
3875,51.896973,-2.151319,78,30.42,10,179.0,Dec-21,1937520,2020-03-21 11:43:25:597,0.3567,0.5037,9.6812,0.0001,-0.004,9.8067,-0.017,0.017,0.0021,8.75,5.07,-38.04,0.08,-16.79,7.54
3876,51.896973,-2.151319,78,30.42,10,179.0,Dec-21,1938021,2020-03-21 11:43:26:098,0.0461,-0.4525,10.0758,0.0038,0.0002,9.8067,0.0,-0.0011,-0.0075,8.75,5.82,-38.48,357.1,-16.7,7.49
3877,51.896973,-2.151319,78,30.42,10,179.0,Aug-21,1938520,2020-03-21 11:43:26:597,-0.191,0.0562,9.2775,0.0006,-0.0002,9.8066,0.0298,-0.0277,0.0106,8.38,5.45,-38.04,0.09,-16.62,7.54
3878,51.896973,-2.151319,78,30.42,10,179.0,Aug-21,1939021,2020-03-21 11:43:27:098,0.327,-0.1134,10.0231,-0.0007,0.0028,9.8067,0.0043,0.0053,0.0021,8.75,4.32,-39.79,3.11,-16.58,7.26
3879,51.896973,-2.151319,78,30.42,10,179.0,Dec-21,1939521,2020-03-21 11:43:27:598,-0.4322,0.1502,9.2946,0.002,-0.0007,9.8067,-0.0373,0.0224,-0.0117,8.75,5.07,-39.35,0.22,-16.46,7.42
3880,51.896973,-2.151319,78,30.42,10,179.0,Dec-21,1940021,2020-03-21 11:43:28:098,0.41,0.3522,9.2805,0.01,0.0043,9.8066,0.0128,0.0106,0.0213,8.38,5.45,-38.92,0.57,-16.48,7.58
3881,51.896973,-2.151319,78,30.42,10,179.0,Dec-21,1940520,2020-03-21 11:43:28:597,0.0828,-0.9566,9.3812,0.0035,-0.0011,9.8067,0.0021,0.0351,0.0053,8.38,5.45,-38.92,0.96,-16.4,7.77
3882,51.896973,-2.151319,78,30.42,10,179.0,Dec-21,1941020,2020-03-21 11:43:29:097,0.1853,-1.0319,9.7242,-0.0016,0.0016,9.8067,0.0543,-0.0043,0.0106,8.75,5.45,-38.04,0.4,-16.42,7.7
3883,51.896973,-2.151319,78,30.42,10,179.0,Dec-21,1941521,2020-03-21 11:43:29:598,0.0491,-0.1614,9.2504,0.0019,0.0162,9.8066,0.0522,-0.0032,0.0149,8.75,5.07,-38.92,1.03,-16.64,7.82
3884,51.896973,-2.151319,78,30.42,10,179.0,Dec-21,1942021,2020-03-21 11:43:30:098,0.6621,0.9569,8.1989,-0.0023,0.0049,9.8066,0.0533,-0.0479,0.0234,8.75,5.45,-38.92,0.77,-16.65,7.69
3885,51.896973,-2.151319,78,30.42,10,179.0,Dec-21,1942521,2020-03-21 11:43:30:598,0.2137,-0.7346,10.3808,-0.003,0.0126,9.8066,-0.0437,0.0533,-0.0032,8.75,6.2,-38.92,357.6,-16.6,7.53
3886,51.896973,-2.151319,78,30.42,10,179.0,Dec-21,1943020,2020-03-21 11:43:31:097,-0.016,0.9047,9.4607,-0.0039,0.0087,9.8066,-0.0192,-0.0192,0.017,8.38,5.45,-39.35,359.92,-16.47,7.27
3887,51.896973,-2.151319,78,30.42,10,179.0,Dec-21,1943521,2020-03-21 11:43:31:598,-0.0776,-0.4499,9.4905,-0.0033,-0.0035,9.8067,-0.0043,0.0309,0.0096,8.8,4.77,-39.28,359.69,-16.58,7.15
3888,51.896973,-2.151319,78,30.42,10,179.0,Dec-21,1944020,2020-03-21 11:43:32:097,0.615,-0.7882,10.2469,-0.0002,-0.0138,9.8066,-0.0383,-0.0224,0.0032,5.12,5.52,-40.53,356.79,-16.57,7.04
3889,51.896973,-2.151319,78,30.42,10,179.0,Dec-21,1944521,2020-03-21 11:43:32:598,-0.3254,-0.3641,9.5267,-0.0047,-0.0119,9.8066,0.049,-0.0373,0.0064,9.12,4.77,-37.97,359.62,-16.74,7.3
3890,51.896973,-2.151319,78,30.42,10,179.0,Dec-21,1945021,2020-03-21 11:43:33:098,0.5721,-0.5763,9.3472,0.0003,0.0027,9.8066,-0.1023,0.0554,-0.0203,9.18,4.77,-38.85,0.2,-16.71,7.41
3891,51.896973,-2.151319,78,30.42,10,179.0,Dec-21,1945520,2020-03-21 11:43:33:597,0.4636,0.2024,10.4993,0.0069,-0.0083,9.8066,-0.0011,0.0575,-0.0341,8.43,4.39,-39.66,2.93,-16.65,7.11
3892,51.896973,-2.151319,78,30.42,10,179.0,Dec-21,1946020,2020-03-21 11:43:34:097,0.0141,-0.1643,9.3604,0.0025,0.0039,9.8066,-0.0085,-0.0256,0.0085,8.8,5.14,-39.28,0.59,-16.74,7.6
3893,51.896973,-2.151319,78,30.42,10,179.0,Jan-21,1946521,2020-03-21 11:43:34:598,0.2584,-0.9805,10.131,0.0007,-0.0029,9.8067,0.0266,-0.0181,0.017,8.43,5.52,-39.28,358.29,-16.74,7.92
3894,51.896973,-2.151319,78,30.42,10,179.0,Jan-21,1947020,2020-03-21 11:43:35:097,-0.5888,0.2212,9.4331,0.0008,0.0047,9.8067,0.0032,0.0064,0.0181,9.18,5.52,-39.28,358.22,-16.54,7.85
3895,51.8926,-2.151252,75,29.66,16,177.0,Dec-21,1947521,2020-03-21 11:43:35:598,0.4314,0.3325,10.0442,-0.0025,-0.0022,9.8067,0.0277,-0.0021,-0.0075,8.43,5.52,-38.85,357.52,-16.58,7.56
3896,51.8926,-2.151252,75,29.66,16,177.0,Dec-21,1948020,2020-03-21 11:43:36:097,0.2445,0.3609,9.4412,0.0014,0.0036,9.8066,0.0362,-0.0128,0.0042,9.18,5.14,-39.28,0.09,-16.55,7.35
3897,51.8926,-2.151252,75,29.66,16,177.0,Dec-21,1948521,2020-03-21 11:43:36:598,-0.0554,-0.7068,9.569,0.0012,-0.007,9.8066,-0.0138,0.0383,-0.0064,8.8,5.89,-38.41,357.02,-16.58,7.45
3898,51.8926,-2.151252,75,29.66,16,177.0,Dec-21,1949021,2020-03-21 11:43:37:098,-0.1053,-0.0967,10.0482,-0.0022,-0.0034,9.8067,-0.017,0.0202,-0.0032,8.43,5.89,-38.85,357.47,-16.47,7.54
3899,51.8926,-2.151252,75,29.66,16,177.0,Dec-21,1949521,2020-03-21 11:43:37:598,0.2822,0.2546,9.8652,-0.0049,-0.0045,9.8066,0.0373,-0.0373,0.0021,8.8,6.27,-37.97,358.11,-16.57,8.01
3900,51.8926,-2.151252,75,29.66,16,177.0,Dec-21,1950021,2020-03-21 11:43:38:098,0.0537,-1.573,8.42,-0.0053,-0.004,9.8066,0.1577,-0.0522,0.0,8.8,6.27,-37.97,358.18,-16.64,8.04
3901,51.8926,-2.151252,75,29.66,16,177.0,Dec-21,1950521,2020-03-21 11:43:38:598,0.2631,-0.5866,9.3775,0.0057,-0.0073,9.8066,0.0043,0.0405,-0.0181,8.8,5.89,-37.97,358.51,-16.63,8.21
3902,51.8926,-2.151252,75,29.66,16,177.0,Dec-21,1951020,2020-03-21 11:43:39:097,-0.2402,-0.2956,9.9172,0.004,0.0035,9.8066,-0.0415,0.0277,-0.0096,8.8,6.27,-38.85,359.3,-16.63,8.39
3903,51.8926,-2.151252,75,29.66,16,177.0,Dec-21,1951521,2020-03-21 11:43:39:598,0.0367,-0.184,10.0623,0.0034,-0.003,9.8066,0.065,-0.0149,0.0,9.18,5.52,-38.85,359.26,-16.59,8.37
3904,51.8926,-2.151252,75,29.66,16,177.0,Dec-21,1952021,2020-03-21 11:43:40:098,0.0675,0.0027,9.4157,-0.0002,-0.0036,9.8066,0.0181,0.0202,-0.0107,9.18,5.52,-38.41,358.73,-16.73,8.32
3905,51.8926,-2.151252,75,29.66,16,177.0,Dec-21,1952521,2020-03-21 11:43:40:598,0.1548,-0.1141,9.3382,0.0009,-0.0001,9.8067,0.0139,0.0075,-0.0011,8.43,5.89,-38.41,358.63,-16.75,8.3
3906,51.8926,-2.151252,75,29.66,16,177.0,Dec-21,1953021,2020-03-21 11:43:41:098,-0.1981,0.4978,9.2291,0.0002,0.0075,9.8066,-0.0533,0.0106,0.0085,8.43,5.89,-38.41,358.36,-16.75,8.17
3907,51.8926,-2.151252,75,29.66,16,177.0,Dec-21,1953521,2020-03-21 11:43:41:598,0.2902,0.4023,9.453,-0.0006,0.0059,9.8066,0.0085,-0.0149,0.0181,9.49,7.02,-38.85,356.24,-16.78,8.27
3908,51.8926,-2.151252,75,29.66,16,177.0,Dec-21,1954021,2020-03-21 11:43:42:098,0.1607,0.3014,9.0524,0.0047,-0.0009,9.8067,0.0405,-0.0288,0.0,10.99,5.52,-38.85,358.99,-16.68,8.18
3909,51.8926,-2.151252,75,29.66,16,177.0,Jan-21,1954521,2020-03-21 11:43:42:598,0.0962,-0.0304,10.1999,-0.0009,0.0059,9.8066,-0.0362,0.0117,0.0053,6.18,4.77,-35.85,0.42,-16.86,8.09
3910,51.8926,-2.151252,75,29.66,16,177.0,Jan-21,1955021,2020-03-21 11:43:43:098,0.0601,-0.3138,9.7646,-0.0035,0.0077,9.8066,-0.017,-0.0011,0.0053,9.49,5.52,-37.53,358.16,-16.77,8.03
3911,51.8926,-2.151252,75,29.66,16,177.0,Oct-21,1955520,2020-03-21 11:43:43:597,-0.3118,0.2876,10.2306,-0.0043,-0.0006,9.8067,-0.0288,0.0021,0.001,9.49,6.64,-38.85,355.51,-16.69,7.91
3912,51.8926,-2.151252,75,29.66,16,177.0,Oct-21,1956021,2020-03-21 11:43:44:098,-0.0223,0.0805,10.5246,-0.0078,-0.0012,9.8066,0.0064,-0.0256,-0.0032,8.8,5.52,-37.97,357.59,-16.69,7.74
3913,51.890137,-2.151113,76,30.43,14,178.7,Oct-21,1956521,2020-03-21 11:43:44:598,-0.1634,-0.17,9.3404,-0.0065,-0.0102,9.8066,0.0341,-0.0277,-0.0064,9.49,7.02,-38.85,355.29,-16.66,7.79
3914,51.890137,-2.151113,76,30.43,14,178.7,Oct-21,1957020,2020-03-21 11:43:45:097,0.3151,-0.0318,10.1766,-0.0066,-0.0046,9.8066,-0.0383,0.0224,-0.0021,10.24,5.52,-38.85,358.83,-16.74,8.13
3915,51.890137,-2.151113,76,30.43,14,178.7,Oct-21,1957520,2020-03-21 11:43:45:597,0.0223,0.9928,9.8869,0.0042,0.0011,9.8066,-0.049,0.0213,-0.0128,9.49,1.45,-39.28,13.27,-16.73,8.33
3916,51.890137,-2.151113,76,30.43,14,178.7,Oct-21,1958021,2020-03-21 11:43:46:098,0.0567,-0.2745,9.9885,0.0048,-0.0037,9.8066,-0.0032,0.0224,-0.0128,4.74,1.45,-35.85,15.04,-16.69,8.04
3917,51.890137,-2.151113,76,30.43,14,178.7,Oct-21,1958521,2020-03-21 11:43:46:598,0.193,0.7287,9.2387,0.0056,0.0076,9.8066,0.0139,-0.0075,-0.0053,8.43,5.14,-36.72,0.61,-16.74,8.0
3918,51.890137,-2.151113,76,30.43,14,178.7,Oct-21,1959021,2020-03-21 11:43:47:098,-0.034,0.9155,9.788,0.003,0.0084,9.8066,-0.017,-0.0053,-0.0064,10.24,5.52,-37.97,358.04,-16.72,7.92
3919,51.890137,-2.151113,76,30.43,14,178.7,Oct-21,1959520,2020-03-21 11:43:47:597,-0.0158,-0.0241,9.3936,0.0007,0.0035,9.8067,-0.0117,-0.0085,0.016,9.18,5.52,-37.97,358.31,-16.74,8.11
3920,51.890137,-2.151113,76,30.43,14,178.7,Oct-21,1960021,2020-03-21 11:43:48:098,-0.3381,0.266,9.0209,-0.0002,0.0054,9.8067,0.0298,-0.0256,0.0032,8.8,5.89,-38.85,358.01,-16.74,7.74
3921,51.890137,-2.151113,76,30.43,14,178.7,Oct-21,1960521,2020-03-21 11:43:48:598,0.412,-0.0009,9.1775,0.0009,-0.0039,9.8067,0.0192,0.0075,0.0106,8.8,5.52,-39.28,358.12,-16.69,7.79
3922,51.890137,-2.151113,76,30.43,14,178.7,Oct-21,1961020,2020-03-21 11:43:49:097,0.7296,-0.1633,9.4362,-0.0001,0.0019,9.8066,0.0405,0.0288,0.0106,9.49,6.27,-39.28,358.27,-16.67,7.87
3923,51.890137,-2.151113,76,30.43,14,178.7,Oct-21,1961521,2020-03-21 11:43:49:598,0.7473,0.9716,9.4538,0.0029,0.0046,9.8066,-0.0469,0.0053,0.0,8.05,5.52,-42.22,359.29,-16.74,7.8
3924,51.890137,-2.151113,76,30.43,14,178.7,Oct-21,1962021,2020-03-21 11:43:50:098,0.0557,1.0204,9.8947,-0.0011,0.0049,9.8066,-0.033,-0.0213,-0.0064,10.62,4.39,-34.97,2.72,-16.67,8.11
3925,51.890137,-2.151113,76,30.43,14,178.7,Jan-21,1962521,2020-03-21 11:43:50:598,-0.2617,1.025,10.0636,-0.0016,0.0085,9.8066,-0.0596,0.0053,0.0106,9.87,5.89,-37.97,357.77,-16.72,7.78
3926,51.890137,-2.151113,76,30.43,14,178.7,Jan-21,1963021,2020-03-21 11:43:51:098,-0.3716,0.0414,9.9329,0.0051,0.0099,9.8066,-0.0192,-0.0064,0.0106,9.18,6.27,-38.41,357.56,-16.52,7.73
3927,51.890137,-2.151113,76,30.43,14,178.7,Dec-21,1963520,2020-03-21 11:43:51:597,-0.267,-0.2197,10.3707,-0.0014,-0.0099,9.8066,-0.0202,0.0032,-0.0139,9.12,5.52,-38.85,358.36,-16.69,7.92
3928,51.890137,-2.151113,76,30.43,14,178.7,Dec-21,1964021,2020-03-21 11:43:52:098,0.0378,-0.7486,9.3959,-0.0048,0.0007,9.8066,0.0362,-0.0096,0.0,8.8,5.14,-38.85,0.49,-16.58,7.55
3929,51.890137,-2.151113,76,30.43,14,178.7,Dec-21,1964521,2020-03-21 11:43:52:598,0.2305,0.4137,10.0746,-0.0066,0.0048,9.8066,-0.0053,-0.0309,0.0021,8.8,5.52,-38.85,358.12,-16.64,7.8
3930,51.890137,-2.151113,76,30.43,14,178.7,Dec-21,1965021,2020-03-21 11:43:53:098,0.0446,-0.1538,9.5214,-0.0089,0.0008,9.8066,0.0448,-0.0426,0.0106,8.8,5.52,-39.28,358.06,-16.55,7.77
3931,51.890137,-2.151113,76,30.43,14,178.7,Dec-21,1965521,2020-03-21 11:43:53:598,-0.0858,-0.4195,9.5848,0.0023,-0.0017,9.8067,0.016,-0.0032,0.0021,8.8,5.89,-39.28,357.93,-16.59,7.7
3932,51.890137,-2.151113,76,30.43,14,178.7,Dec-21,1966021,2020-03-21 11:43:54:098,0.0844,0.0932,9.6677,0.0035,0.005,9.8066,-0.0192,0.0064,-0.0053,8.8,5.52,-38.85,357.31,-16.59,7.39
3933,51.890137,-2.151113,76,30.43,14,178.7,Dec-21,1966520,2020-03-21 11:43:54:597,-0.1233,0.36,9.1883,0.0081,-0.0012,9.8066,-0.0011,0.0117,-0.0011,8.8,5.14,-39.28,0.02,-16.59,7.31
