,GPS LATITUDE (degrees),GPS LONGITUDE (degrees), GPS ALTITUDE (m),GPS SPEED (Kmh),GPS ACCURACY (m),GPS ORIENTATION (Â°), SATELLITES IN RANGE, TIME SINCE START (ms), DATE (YYYY-MO-DD HH-MI-SS_SSS),ACCELEROMETER X (m/s²) , ACCELEROMETER Y (m/s²), ACCELEROMETER Z (m/s²), GRAVITY X (m/s²), GRAVITY Y (m/s²), GRAVITY Z (m/s²), GYROSCOPE Yaw (rad/s), GYROSCOPE Pitch (rad/s), GYROSCOPE Roll (rad/s)
91936,47.130234,-1.883707,65.61,23.0,3.216,232.8,13 / 20,9194797,2019-08-18 17:46:57:334,-0.8732,-0.562,10.3761,-0.9172,-0.3018,9.759,0.0203,0.0014,-0.0059
91937,47.130234,-1.883707,65.61,23.0,3.216,232.8,13 / 20,9194897,2019-08-18 17:46:57:434,-0.7194,-0.3041,9.9111,-0.902,-0.2989,9.7605,-0.0105,-0.0328,-0.0071
91938,47.130234,-1.883707,65.61,23.0,3.216,232.8,13 / 20,9194997,2019-08-18 17:46:57:534,-0.9451,-0.1544,10.348,-0.8465,-0.3268,9.7646,-0.0511,-0.0501,-0.0112
91939,47.130234,-1.883707,65.61,23.0,3.216,232.8,13 / 20,9195097,2019-08-18 17:46:57:634,-0.7038,-0.4076,9.613,-0.8221,-0.3508,9.7658,-0.0276,-0.0002,-0.0046
91940,47.130234,-1.883707,65.61,23.0,3.216,232.8,13 / 20,9195197,2019-08-18 17:46:57:734,-0.6931,-0.437,9.6321,-0.8283,-0.3786,9.7643,-0.01,0.0268,0.0018
91941,47.130234,-1.883707,65.61,23.0,3.216,232.8,13 / 20,9195297,2019-08-18 17:46:57:834,-0.5111,-0.1622,9.0414,-0.8437,-0.378,9.763,0.0101,0.01,0.0054
91942,47.130234,-1.883707,65.61,23.0,3.216,232.8,13 / 20,9195397,2019-08-18 17:46:57:934,-0.8541,-0.577,10.0894,-0.8542,-0.3555,9.7629,0.0041,0.0087,0.0025
91943,47.130234,-1.883707,65.61,23.0,3.216,232.8,13 / 20,9195498,2019-08-18 17:46:58:035,-0.6452,0.1305,10.0864,-0.8569,-0.3536,9.7627,0.0041,0.0087,0.0025
91944,47.130234,-1.883707,65.61,23.0,3.216,232.8,13 / 20,9195597,2019-08-18 17:46:58:134,-0.8499,-0.1239,10.0463,-0.8665,-0.3356,9.7625,0.0006,0.0046,0.0065
91945,47.130234,-1.883707,65.61,23.0,3.216,232.8,13 / 20,9195697,2019-08-18 17:46:58:234,-0.7158,-0.0042,9.8518,-0.8701,-0.3231,9.7626,-0.011,-0.0131,0.0076
91946,47.130234,-1.883707,65.61,23.0,3.216,232.8,13 / 20,9195797,2019-08-18 17:46:58:334,-0.6829,0.173,10.1858,-0.8634,-0.3138,9.7635,-0.0107,-0.0017,0.006
91947,47.130234,-1.883707,65.61,23.0,3.216,232.8,13 / 20,9195897,2019-08-18 17:46:58:434,-0.8026,0.0264,9.8033,-0.8603,-0.3189,9.7636,-0.0334,-0.0103,0.0041
91948,47.130234,-1.883707,65.61,23.0,3.216,232.8,13 / 20,9195997,2019-08-18 17:46:58:534,-0.8146,-0.149,9.9027,-0.8585,-0.3338,9.7633,0.0122,-0.0063,0.0042
91949,47.130234,-1.883707,65.61,23.0,3.216,232.8,13 / 20,9196098,2019-08-18 17:46:58:635,-0.7092,-0.2484,9.9913,-0.8512,-0.3178,9.7645,0.0147,-0.0265,0.0065
91950,47.130234,-1.883707,65.61,23.0,3.216,232.8,13 / 20,9196196,2019-08-18 17:46:58:733,-0.7727,-0.2143,9.4993,-0.8349,-0.3061,9.7662,-0.0061,0.0148,0.006
91951,47.130234,-1.883707,65.61,23.0,3.216,232.8,13 / 20,9196297,2019-08-18 17:46:58:834,-1.0971,-0.2005,10.0846,-0.8478,-0.3055,9.7652,-0.0011,0.0143,0.0074
91952,47.130234,-1.883707,65.61,23.0,3.216,232.8,13 / 20,9196397,2019-08-18 17:46:58:934,-0.9804,-0.1891,9.2006,-0.8611,-0.2897,9.7645,0.0122,-0.0023,0.0045
91953,47.130234,-1.883707,65.61,23.0,3.216,232.8,13 / 20,9196497,2019-08-18 17:46:59:034,-0.5925,-0.4274,9.7339,-0.8544,-0.2791,9.7654,0.0199,0.0208,-0.0005
91954,47.130234,-1.883707,65.61,23.0,3.216,232.8,13 / 20,9196597,2019-08-18 17:46:59:134,-0.5165,-0.5195,9.4962,-0.8749,-0.2579,9.7641,0.0117,0.0128,-0.002
91955,47.130234,-1.883707,65.61,23.0,3.216,232.8,13 / 20,9196697,2019-08-18 17:46:59:234,-0.6775,-0.2119,9.6662,-0.8835,-0.2463,9.7637,0.0005,-0.008,-0.0132
91956,47.130234,-1.883707,65.61,23.0,3.216,232.8,13 / 20,9196797,2019-08-18 17:46:59:334,-0.535,-0.6339,10.6539,-0.875,-0.2433,9.7645,0.0118,0.0009,-0.0166
91957,47.130234,-1.883707,65.61,23.0,3.216,232.8,13 / 20,9196897,2019-08-18 17:46:59:434,-0.8798,-0.5447,9.9996,-0.8671,-0.2584,9.7648,-0.0025,-0.0228,-0.0289
91958,47.130234,-1.883707,65.61,23.0,3.216,232.8,13 / 20,9196997,2019-08-18 17:46:59:534,-0.4752,-0.817,10.1774,-0.8214,-0.2916,9.7678,-0.0083,-0.0322,-0.0362
91959,47.130234,-1.883707,65.61,23.0,3.216,232.8,Dec-18,9197097,2019-08-18 17:46:59:634,-0.4961,-1.2306,9.7985,-0.8022,-0.3101,9.7689,0.0066,0.0082,-0.0382
91960,47.130234,-1.883707,65.61,23.0,3.216,232.8,Dec-18,9197197,2019-08-18 17:46:59:734,-0.3256,-0.9643,9.1335,-0.8091,-0.3302,9.7676,0.0179,0.0285,-0.0339
91961,47.130234,-1.883707,65.61,23.0,3.216,232.8,Dec-18,9197297,2019-08-18 17:46:59:834,-0.7505,-0.835,9.6118,-0.8081,-0.3325,9.7676,0.0036,-0.0136,-0.039
91962,47.130234,-1.883707,65.61,23.0,3.216,232.8,Dec-18,9197397,2019-08-18 17:46:59:934,0.0013,-0.6572,9.7381,-0.7893,-0.3528,9.7685,0.0013,0.0105,-0.0395
91963,47.130234,-1.883707,65.61,23.0,3.216,232.8,Dec-18,9197497,2019-08-18 17:47:00:034,-0.1747,-1.0684,9.4657,-0.7838,-0.366,9.7684,0.0462,0.0533,-0.0326
91964,47.130234,-1.883707,65.61,23.0,3.216,232.8,Dec-18,9197597,2019-08-18 17:47:00:134,-0.4004,-0.9954,9.9087,-0.8864,-0.3001,9.7619,0.063,0.0424,-0.0299
91965,47.130234,-1.883707,65.61,23.0,3.216,232.8,Dec-18,9197697,2019-08-18 17:47:00:234,-0.553,-0.6171,9.7393,-0.895,-0.2759,9.7618,0.0421,-0.0043,-0.0348
91966,47.130234,-1.883707,65.61,23.0,3.216,232.8,Dec-18,9197797,2019-08-18 17:47:00:334,-0.1777,-0.4166,10.2582,-0.8806,-0.2663,9.7634,-0.0069,-0.0002,-0.0418
91967,47.130234,-1.883707,65.61,23.0,3.216,232.8,Dec-18,9197897,2019-08-18 17:47:00:434,-0.3447,-1.0116,9.6848,-0.8608,-0.293,9.7644,0.0022,0.006,-0.0372
91968,47.130234,-1.883707,65.61,23.0,3.216,232.8,Dec-18,9197996,2019-08-18 17:47:00:533,-0.7272,-0.7817,10.0523,-0.8571,-0.3017,9.7645,0.0235,0.0071,-0.0329
91969,47.130234,-1.883707,65.61,23.0,3.216,232.8,13 / 19,9198097,2019-08-18 17:47:00:634,-0.644,-1.0714,9.6788,-0.8472,-0.2987,9.7654,0.0025,-0.0175,-0.0335
91970,47.130234,-1.883707,65.61,23.0,3.216,232.8,13 / 19,9198197,2019-08-18 17:47:00:734,-0.4518,-0.6075,10.008,-0.8278,-0.3055,9.7669,-0.0014,-0.0182,-0.0378
91971,47.130234,-1.883707,65.61,23.0,3.216,232.8,13 / 19,9198297,2019-08-18 17:47:00:834,-0.5895,-0.6411,9.7034,-0.7972,-0.3231,9.7689,-0.0063,-0.0183,-0.0375
91972,47.130234,-1.883707,65.61,23.0,3.216,232.8,13 / 19,9198397,2019-08-18 17:47:00:934,-0.1077,-0.8445,9.7051,-0.7856,-0.3315,9.7695,-0.0056,0.0183,-0.0327
91973,47.130234,-1.883707,65.61,23.0,3.216,232.8,13 / 19,9198497,2019-08-18 17:47:01:034,-0.2166,-0.2735,9.4454,-0.7967,-0.3511,9.7679,0.0039,0.0212,-0.0323
91974,47.130234,-1.883707,65.61,23.0,3.216,232.8,13 / 19,9198597,2019-08-18 17:47:01:134,-0.4093,-0.5926,9.9907,-0.7929,-0.355,9.7681,-0.0042,-0.0044,-0.031
91975,47.130234,-1.883707,65.61,23.0,3.216,232.8,13 / 19,9198697,2019-08-18 17:47:01:234,-0.8158,-0.5908,9.425,-0.7764,-0.3768,9.7686,-0.0024,0.0029,-0.0259
91976,47.130234,-1.883707,65.61,23.0,3.216,232.8,13 / 19,9198797,2019-08-18 17:47:01:334,-0.8212,-0.7685,9.2287,-0.7739,-0.3825,9.7686,0.0034,0.0184,-0.0238
91977,47.130234,-1.883707,65.61,23.0,3.216,232.8,13 / 19,9198897,2019-08-18 17:47:01:434,-0.7829,-0.9008,10.1391,-0.8071,-0.3898,9.7656,0.0079,0.0427,-0.0195
91978,47.130234,-1.883707,65.61,23.0,3.216,232.8,13 / 19,9198997,2019-08-18 17:47:01:534,-0.4255,-0.3136,10.8011,-0.8299,-0.3907,9.7637,0.0089,0.0186,-0.0228
91979,47.130234,-1.883707,65.61,23.0,3.216,232.8,13 / 17,9199097,2019-08-18 17:47:01:634,-0.905,-0.5507,10.6185,-0.8234,-0.3979,9.7639,-0.0069,-0.0363,-0.0282
91980,47.12916,-1.885827,64.74,22.06,3.216,237.7,13 / 17,9199197,2019-08-18 17:47:01:734,-0.7523,-0.7362,10.3618,-0.8009,-0.4064,9.7654,-0.0021,-0.0252,-0.0294
91981,47.12916,-1.885827,64.74,22.06,3.216,237.7,13 / 17,9199297,2019-08-18 17:47:01:834,-0.72,-0.4627,9.7596,-0.7737,-0.4151,9.7673,-0.0052,-0.0059,-0.0231
91982,47.12916,-1.885827,64.74,22.06,3.216,237.7,13 / 17,9199397,2019-08-18 17:47:01:934,-0.6637,-0.5722,9.662,-0.7694,-0.4228,9.7673,0.0039,0.0055,-0.0216
91983,47.12916,-1.885827,64.74,22.06,3.216,237.7,13 / 17,9199496,2019-08-18 17:47:02:033,-0.6069,-0.814,10.0104,-0.7741,-0.4272,9.7667,0.0031,0.0114,-0.0249
91984,47.12916,-1.885827,64.74,22.06,3.216,237.7,13 / 17,9199597,2019-08-18 17:47:02:134,-0.635,-0.6243,9.4292,-0.7778,-0.4301,9.7663,0.0013,0.0027,-0.0249
91985,47.12916,-1.885827,64.74,22.06,3.216,237.7,13 / 17,9199697,2019-08-18 17:47:02:234,-0.8523,-0.5034,9.6932,-0.7709,-0.4333,9.7667,-0.0005,-0.0152,-0.0255
91986,47.12916,-1.885827,64.74,22.06,3.216,237.7,13 / 17,9199796,2019-08-18 17:47:02:333,-0.7439,-0.3543,9.279,-0.7626,-0.4304,9.7675,0.0075,0.0064,-0.0235
91987,47.12916,-1.885827,64.74,22.06,3.216,237.7,13 / 17,9199897,2019-08-18 17:47:02:434,-0.5458,-0.5453,9.8392,-0.7589,-0.4221,9.7681,0.0137,0.0091,-0.0235
91988,47.12916,-1.885827,64.74,22.06,3.216,237.7,13 / 17,9199997,2019-08-18 17:47:02:534,-0.5482,-0.489,9.4603,-0.7572,-0.4183,9.7684,0.0057,0.0046,-0.0217
91989,47.12916,-1.885827,64.74,22.06,3.216,237.7,13 / 17,9200097,2019-08-18 17:47:02:634,-0.1987,-0.4357,9.5555,-0.76,-0.4112,9.7685,0.0052,0.0123,-0.0228
91990,47.12916,-1.885827,64.74,22.06,3.216,237.7,13 / 17,9200197,2019-08-18 17:47:02:734,-0.3106,-0.3334,9.2628,-0.7604,-0.4037,9.7688,0.0106,0.0081,-0.0227
91991,47.12916,-1.885827,64.74,22.06,3.216,237.7,13 / 17,9200297,2019-08-18 17:47:02:834,-0.2525,-0.2634,10.0308,-0.746,-0.4028,9.7699,0.0002,0.0011,-0.0266
91992,47.12916,-1.885827,64.74,22.06,3.216,237.7,13 / 17,9200396,2019-08-18 17:47:02:933,-0.1681,-0.4405,10.0122,-0.7399,-0.403,9.7704,0.0027,0.0021,-0.0291
91993,47.12916,-1.885827,64.74,22.06,3.216,237.7,13 / 17,9200498,2019-08-18 17:47:03:035,-0.2023,-0.173,9.6842,-0.7286,-0.4017,9.7713,0.0068,0.0087,-0.028
91994,47.12916,-1.885827,64.74,22.06,3.216,237.7,13 / 17,9200597,2019-08-18 17:47:03:134,-0.3142,-0.2041,9.9709,-0.724,-0.3984,9.7718,-0.0025,-0.0009,-0.0303
91995,47.12916,-1.885827,64.74,22.06,3.216,237.7,13 / 17,9200697,2019-08-18 17:47:03:234,-0.3076,-0.3885,10.0128,-0.696,-0.4042,9.7736,-0.0001,-0.013,-0.0316
91996,47.12916,-1.885827,64.74,22.06,3.216,237.7,13 / 17,9200797,2019-08-18 17:47:03:334,-0.1622,-0.407,10.3779,-0.6674,-0.4025,9.7756,0.0163,-0.0109,-0.0343
91997,47.12916,-1.885827,64.74,22.06,3.216,237.7,13 / 17,9200897,2019-08-18 17:47:03:434,-0.1167,-0.6961,10.3977,-0.6308,-0.3979,9.7783,-0.0042,-0.0143,-0.0407
91998,47.12916,-1.885827,64.74,22.06,3.216,237.7,13 / 17,9200997,2019-08-18 17:47:03:534,-0.1346,-0.568,10.1535,-0.6089,-0.406,9.7793,0.0056,0.0019,-0.0426
91999,47.12916,-1.885827,64.74,22.06,3.216,237.7,15 / 20,9201097,2019-08-18 17:47:03:634,-0.119,-0.817,9.9871,-0.5952,-0.4099,9.78,0.0103,0.0053,-0.0432
92000,47.12916,-1.885827,64.74,22.06,3.216,237.7,15 / 20,9201197,2019-08-18 17:47:03:734,0.1904,-0.6602,9.7423,-0.5837,-0.4103,9.7807,0.0115,0.0075,-0.0424
92001,47.12916,-1.885827,64.74,22.06,3.216,237.7,15 / 20,9201298,2019-08-18 17:47:03:835,-0.1969,-0.8517,9.1192,-0.5822,-0.41,9.7808,0.013,0.0271,-0.0407
92002,47.12916,-1.885827,64.74,22.06,3.216,237.7,15 / 20,9201397,2019-08-18 17:47:03:934,0.0833,-0.6345,9.2718,-0.5869,-0.4082,9.7806,0.0046,0.0101,-0.0419
92003,47.12916,-1.885827,64.74,22.06,3.216,237.7,15 / 20,9201496,2019-08-18 17:47:04:033,-0.2819,-0.5094,9.1635,-0.5835,-0.4109,9.7807,-0.001,0.0095,-0.043
92004,47.12916,-1.885827,64.74,22.06,3.216,237.7,15 / 20,9201597,2019-08-18 17:47:04:134,-0.0664,-0.6542,9.5735,-0.5882,-0.44,9.7791,-0.0157,0.0168,-0.0448
92005,47.12916,-1.885827,64.74,22.06,3.216,237.7,15 / 20,9201697,2019-08-18 17:47:04:234,-0.4896,-0.7985,9.6932,-0.5917,-0.4613,9.7779,-0.0083,0.0105,-0.0455
92006,47.12916,-1.885827,64.74,22.06,3.216,237.7,15 / 20,9201797,2019-08-18 17:47:04:334,-0.1687,-0.9894,9.8578,-0.5914,-0.4852,9.7768,-0.005,0.0028,-0.046
92007,47.12916,-1.885827,64.74,22.06,3.216,237.7,15 / 20,9201897,2019-08-18 17:47:04:434,-0.6817,-0.899,10.0972,-0.5891,-0.4932,9.7765,0.0117,0.0057,-0.0322
92008,47.12916,-1.885827,64.74,22.06,3.216,237.7,15 / 20,9201997,2019-08-18 17:47:04:534,-0.6584,-0.884,9.4909,-0.5962,-0.4958,9.7759,0.0018,0.0202,-0.0295
92009,47.12916,-1.885827,64.74,22.06,3.216,237.7,14 / 18,9202097,2019-08-18 17:47:04:634,-0.954,-0.8787,9.7183,-0.6104,-0.5003,9.7748,0.0043,0.0132,-0.0316
92010,47.12916,-1.885827,64.74,22.06,3.216,237.7,14 / 18,9202196,2019-08-18 17:47:04:733,-1.1372,-0.9517,9.8656,-0.6176,-0.5022,9.7743,0.0092,-0.0027,-0.0311
92011,47.12916,-1.885827,64.74,22.06,3.216,237.7,14 / 18,9202297,2019-08-18 17:47:04:834,-0.4219,-0.4621,9.6531,-0.6137,-0.5022,9.7745,0.0007,-0.0081,-0.0298
92012,47.12916,-1.885827,64.74,22.06,3.216,237.7,14 / 18,9202397,2019-08-18 17:47:04:934,-0.2968,-0.6105,9.944,-0.6059,-0.5113,9.7745,-0.0038,-0.0002,-0.0304
92013,47.12916,-1.885827,64.74,22.06,3.216,237.7,14 / 18,9202497,2019-08-18 17:47:05:034,-0.8092,-0.498,9.7512,-0.6054,-0.5184,9.7742,-0.0047,-0.0006,-0.0298
92014,47.12916,-1.885827,64.74,22.06,3.216,237.7,14 / 18,9202597,2019-08-18 17:47:05:134,-0.6907,-0.9451,10.3576,-0.6052,-0.5297,9.7736,0.0084,-0.0017,-0.0276
92015,47.12916,-1.885827,64.74,22.06,3.216,237.7,14 / 18,9202697,2019-08-18 17:47:05:234,-0.3465,-0.4363,9.9996,-0.6037,-0.528,9.7738,0.0004,-0.0129,-0.0272
92016,47.12916,-1.885827,64.74,22.06,3.216,237.7,14 / 18,9202797,2019-08-18 17:47:05:334,-0.8744,-0.6997,9.7824,-0.5847,-0.536,9.7745,-0.0051,-0.0062,-0.0262
92017,47.12916,-1.885827,64.74,22.06,3.216,237.7,14 / 18,9202897,2019-08-18 17:47:05:434,-0.3561,-0.3256,10.1672,-0.5809,-0.539,9.7746,0.0031,0.004,-0.0271
92018,47.12916,-1.885827,64.74,22.06,3.216,237.7,14 / 18,9202997,2019-08-18 17:47:05:534,-0.5386,-0.6764,9.9518,-0.5802,-0.5426,9.7744,0.0013,-0.0142,-0.0274
92019,47.12916,-1.885827,64.74,22.06,3.216,237.7,17 / 21,9203097,2019-08-18 17:47:05:634,-0.3477,-0.6967,10.1642,-0.5625,-0.542,9.7755,0.0051,-0.0167,-0.0303
92020,47.12916,-1.885827,64.74,22.06,3.216,237.7,17 / 21,9203197,2019-08-18 17:47:05:734,-0.4004,-0.756,9.7931,-0.5475,-0.5434,9.7763,-0.0041,0.0061,-0.0292
92021,47.12916,-1.885827,64.74,22.06,3.216,237.7,17 / 21,9203297,2019-08-18 17:47:05:834,-0.4525,-0.5746,9.6351,-0.549,-0.55,9.7758,-0.0038,0.0107,-0.0283
92022,47.12916,-1.885827,64.74,22.06,3.216,237.7,17 / 21,9203397,2019-08-18 17:47:05:934,-0.2208,-0.4411,9.8374,-0.5535,-0.5479,9.7757,0.0028,0.0085,-0.03
92023,47.12916,-1.885827,64.74,22.06,3.216,237.7,17 / 21,9203497,2019-08-18 17:47:06:034,-0.1352,-0.4399,9.7339,-0.5254,-0.5511,9.777,0.0171,-0.0108,-0.0282
92024,47.12916,-1.885827,64.74,22.06,3.216,237.7,17 / 21,9203597,2019-08-18 17:47:06:134,-0.1903,-0.2041,10.2235,-0.4955,-0.5284,9.7799,0.0121,-0.0157,-0.0276
92025,47.12916,-1.885827,64.74,22.06,3.216,237.7,17 / 21,9203697,2019-08-18 17:47:06:234,-0.304,-0.4274,10.2283,-0.4829,-0.5177,9.7811,0.0131,-0.0068,-0.0277
92026,47.12916,-1.885827,64.74,22.06,3.216,237.7,17 / 21,9203797,2019-08-18 17:47:06:334,-0.2579,-0.5249,10.1385,-0.4609,-0.4997,9.7831,0.0161,-0.0052,-0.0285
92027,47.12916,-1.885827,64.74,22.06,3.216,237.7,17 / 21,9203897,2019-08-18 17:47:06:434,-0.216,-0.4531,9.8494,-0.4499,-0.4914,9.784,0.0111,-0.0117,-0.0298
92028,47.12916,-1.885827,64.74,22.06,3.216,237.7,17 / 21,9203997,2019-08-18 17:47:06:534,-0.1598,-0.4046,10.4857,-0.4224,-0.488,9.7854,0.0001,-0.0133,-0.028
92029,47.12916,-1.885827,64.74,22.06,3.216,237.7,18 / 21,9204097,2019-08-18 17:47:06:634,-0.1999,-0.2999,10.2965,-0.4134,-0.481,9.7861,0.0144,-0.003,-0.0289
92030,47.12916,-1.885827,64.74,22.06,3.216,237.7,18 / 21,9204197,2019-08-18 17:47:06:734,-0.0514,-0.3849,9.6782,-0.4022,-0.469,9.7872,-0.0054,0.0121,-0.0289
92031,47.12916,-1.885827,64.74,22.06,3.216,237.7,18 / 21,9204297,2019-08-18 17:47:06:834,-0.4411,-0.6291,9.3664,-0.4143,-0.4787,9.7862,-0.0163,0.0212,-0.0334
92032,47.12916,-1.885827,64.74,22.06,3.216,237.7,18 / 21,9204397,2019-08-18 17:47:06:934,-0.3728,-0.7386,9.8715,-0.4246,-0.5174,9.7838,-0.0203,0.0087,-0.0479
92033,47.12916,-1.885827,64.74,22.06,3.216,237.7,18 / 21,9204497,2019-08-18 17:47:07:034,-0.4758,-0.8344,9.0964,-0.426,-0.5388,9.7826,-0.0048,0.0018,-0.049
92034,47.12916,-1.885827,64.74,22.06,3.216,237.7,18 / 21,9204597,2019-08-18 17:47:07:134,-0.4548,-1.1833,9.6249,-0.4244,-0.5471,9.7822,-0.0023,0.0049,-0.0469
92035,47.12916,-1.885827,64.74,22.06,3.216,237.7,18 / 21,9204697,2019-08-18 17:47:07:234,-0.4183,-1.2354,9.7243,-0.4226,-0.5713,9.7809,-0.0082,-0.0022,-0.0476
92036,47.12916,-1.885827,64.74,22.06,3.216,237.7,18 / 21,9204797,2019-08-18 17:47:07:334,-0.2819,-1.0038,10.1493,-0.4209,-0.585,9.7801,-0.0035,0.0008,-0.0467
92037,47.12916,-1.885827,64.74,22.06,3.216,237.7,18 / 21,9204897,2019-08-18 17:47:07:434,-0.4465,-1.47,9.37,-0.4086,-0.6037,9.7795,0.0075,-0.0072,-0.046
92038,47.12916,-1.885827,64.74,22.06,3.216,237.7,18 / 21,9204997,2019-08-18 17:47:07:534,-0.1035,-1.0954,10.0685,-0.4053,-0.6051,9.7796,0.0123,-0.0057,-0.0448
92039,47.12916,-1.885827,64.74,22.06,3.216,237.7,15 / 17,9205097,2019-08-18 17:47:07:634,-0.2699,-1.2581,10.1846,-0.3867,-0.6009,9.7806,0.0262,-0.0107,-0.0416
92040,47.12916,-1.885827,64.74,22.06,3.216,237.7,15 / 17,9205197,2019-08-18 17:47:07:734,0.0168,-0.8691,10.0589,-0.3792,-0.5933,9.7813,0.0229,-0.0009,-0.0385
92041,47.12916,-1.885827,64.74,22.06,3.216,237.7,15 / 17,9205297,2019-08-18 17:47:07:834,-0.2041,-0.9762,10.1924,-0.3656,-0.5747,9.783,0.0146,-0.0045,-0.0389
92042,47.12916,-1.885827,64.74,22.06,3.216,237.7,15 / 17,9205397,2019-08-18 17:47:07:934,-0.0831,-0.9188,10.2151,-0.3564,-0.5688,9.7837,0.0138,-0.0062,-0.0405
92043,47.12916,-1.885827,64.74,22.06,3.216,237.7,15 / 17,9205497,2019-08-18 17:47:08:034,-0.1113,-0.5902,10.664,-0.3195,-0.5648,9.7852,0.0097,-0.0285,-0.0389
92044,47.12916,-1.885827,64.74,22.06,3.216,237.7,15 / 17,9205597,2019-08-18 17:47:08:134,-0.1227,-0.5159,9.9649,-0.2997,-0.5514,9.7866,0.013,-0.0022,-0.0316
92045,47.12916,-1.885827,64.74,22.06,3.216,237.7,15 / 17,9205697,2019-08-18 17:47:08:234,-0.1412,-0.6961,10.251,-0.296,-0.5401,9.7873,0.0075,0.003,-0.0262
92046,47.12916,-1.885827,64.74,22.06,3.216,237.7,15 / 17,9205797,2019-08-18 17:47:08:334,-0.6476,-0.4513,9.762,-0.2978,-0.5363,9.7874,0.0089,0.0004,-0.027
92047,47.12916,-1.885827,64.74,22.06,3.216,237.7,15 / 17,9205898,2019-08-18 17:47:08:435,-0.5901,-0.5716,10.3306,-0.2984,-0.5295,9.7878,0.0058,-0.0063,-0.0288
92048,47.12916,-1.885827,64.74,22.06,3.216,237.7,15 / 17,9205997,2019-08-18 17:47:08:534,-0.4129,-0.7572,10.2079,-0.2957,-0.5288,9.7879,0.0055,-0.005,-0.0289
92049,47.12916,-1.885827,64.74,22.06,3.216,237.7,15 / 17,9206097,2019-08-18 17:47:08:634,-0.5847,-0.6243,9.452,-0.2975,-0.5239,9.7881,-0.0012,0.0081,-0.0283
92050,47.12916,-1.885827,64.74,22.06,3.216,237.7,15 / 17,9206197,2019-08-18 17:47:08:734,-0.5811,-0.7955,9.8153,-0.3008,-0.5314,9.7876,-0.0099,0.0085,-0.0285
92051,47.12916,-1.885827,64.74,22.06,3.216,237.7,15 / 17,9206297,2019-08-18 17:47:08:834,-0.2052,-0.8619,10.0338,-0.3316,-0.5532,9.7854,-0.0013,0.0247,-0.0275
92052,47.12916,-1.885827,64.74,22.06,3.216,237.7,15 / 17,9206397,2019-08-18 17:47:08:934,-0.1274,-0.4405,9.9386,-0.3479,-0.553,9.7849,0.0188,0.0106,-0.0261
92053,47.12916,-1.885827,64.74,22.06,3.216,237.7,15 / 17,9206497,2019-08-18 17:47:09:034,-0.5572,-0.975,10.2055,-0.3293,-0.5312,9.7867,0.0096,-0.0303,-0.0312
92054,47.12916,-1.885827,64.74,22.06,3.216,237.7,15 / 17,9206597,2019-08-18 17:47:09:134,-0.4111,-0.9708,9.8793,-0.3136,-0.5389,9.7868,-0.0047,0.0066,-0.0405
92055,47.12916,-1.885827,64.74,22.06,3.216,237.7,15 / 17,9206697,2019-08-18 17:47:09:234,-0.553,-0.9846,9.8775,-0.329,-0.5564,9.7853,-0.0074,0.0227,-0.0395
92056,47.12916,-1.885827,64.74,22.06,3.216,237.7,15 / 17,9206797,2019-08-18 17:47:09:334,-0.474,-0.8068,9.6848,-0.344,-0.5688,9.7841,-0.0073,0.0145,-0.0392
92057,47.12916,-1.885827,64.74,22.06,3.216,237.7,15 / 17,9206897,2019-08-18 17:47:09:434,-0.4543,-0.9266,9.4591,-0.3586,-0.5863,9.7825,0.0011,0.0074,-0.0399
92058,47.12916,-1.885827,64.74,22.06,3.216,237.7,15 / 17,9206997,2019-08-18 17:47:09:534,-0.7344,-0.9523,10.0834,-0.3657,-0.5885,9.7821,0.0112,0.0069,-0.0412
92059,47.12916,-1.885827,64.74,22.06,3.216,237.7,16 / 19,9207097,2019-08-18 17:47:09:634,-0.5261,-0.8559,9.8033,-0.3605,-0.5906,9.7822,0.0129,-0.0073,-0.04
92060,47.12916,-1.885827,64.74,22.06,3.216,237.7,16 / 19,9207197,2019-08-18 17:47:09:734,-0.6619,-1.0529,9.9033,-0.3624,-0.5939,9.7819,0.0029,0.0,-0.0386
92061,47.12916,-1.885827,64.74,22.06,3.216,237.7,16 / 19,9207297,2019-08-18 17:47:09:834,-0.5243,-0.8978,9.9769,-0.3686,-0.6053,9.781,0.0072,0.0081,-0.0416
92062,47.12916,-1.885827,64.74,22.06,3.216,237.7,16 / 19,9207397,2019-08-18 17:47:09:934,-0.869,-0.9481,10.0038,-0.3751,-0.6081,9.7806,0.0025,0.004,-0.0415
92063,47.12916,-1.885827,64.74,22.06,3.216,237.7,16 / 19,9207496,2019-08-18 17:47:10:033,-0.4872,-1.1331,10.1032,-0.3802,-0.621,9.7796,0.0081,-0.0061,-0.0428
92064,47.12916,-1.885827,64.74,22.06,3.216,237.7,16 / 19,9207597,2019-08-18 17:47:10:134,-0.3705,-1.151,10.1535,-0.3772,-0.6236,9.7795,0.0044,-0.0138,-0.0432
92065,47.12916,-1.885827,64.74,22.06,3.216,237.7,16 / 19,9207697,2019-08-18 17:47:10:234,-0.5566,-1.0822,9.8997,-0.376,-0.6391,9.7786,0.0023,-0.0018,-0.04
92066,47.12916,-1.885827,64.74,22.06,3.216,237.7,16 / 19,9207797,2019-08-18 17:47:10:334,-0.8289,-1.2623,9.4148,-0.3774,-0.6426,9.7783,0.008,-0.0014,-0.0405
92067,47.12916,-1.885827,64.74,22.06,3.216,237.7,16 / 19,9207897,2019-08-18 17:47:10:434,-0.8864,-1.1438,10.1253,-0.3784,-0.6487,9.7779,0.0057,-0.0043,-0.0392
92068,47.12916,-1.885827,64.74,22.06,3.216,237.7,16 / 19,9207997,2019-08-18 17:47:10:534,-0.7829,-0.9678,9.9356,-0.3882,-0.6601,9.7767,-0.0028,0.0053,-0.0384
92069,47.128403,-1.888317,65.7,23.33,3.216,255.0,17 / 19,9208097,2019-08-18 17:47:10:634,-0.383,-1.057,10.0212,-0.3924,-0.6696,9.7759,0.0117,0.0035,-0.0373
92070,47.128403,-1.888317,65.7,23.33,3.216,255.0,17 / 19,9208197,2019-08-18 17:47:10:734,-0.6063,-1.0487,9.592,-0.4007,-0.6677,9.7757,0.0117,-0.0039,-0.0365
92071,47.128403,-1.888317,65.7,23.33,3.216,255.0,17 / 19,9208297,2019-08-18 17:47:10:834,-0.3914,-0.7721,9.8255,-0.3994,-0.6688,9.7757,0.0074,0.0043,-0.0333
92072,47.128403,-1.888317,65.7,23.33,3.216,255.0,17 / 19,9208397,2019-08-18 17:47:10:934,-0.7392,-1.0427,9.7494,-0.4085,-0.6649,9.7756,0.0113,0.0011,-0.0326
92073,47.128403,-1.888317,65.7,23.33,3.216,255.0,17 / 19,9208497,2019-08-18 17:47:11:034,-0.7906,-0.8003,10.2684,-0.405,-0.6636,9.7758,0.0082,-0.011,-0.0324
92074,47.128403,-1.888317,65.7,23.33,3.216,255.0,17 / 19,9208597,2019-08-18 17:47:11:134,-0.5626,-0.8841,10.3773,-0.3945,-0.6545,9.7768,0.0102,-0.0172,-0.0289
92075,47.128403,-1.888317,65.7,23.33,3.216,255.0,17 / 19,9208697,2019-08-18 17:47:11:234,-0.4495,-0.7679,9.8368,-0.3872,-0.6488,9.7775,0.0032,-0.0183,-0.0277
92076,47.128403,-1.888317,65.7,23.33,3.216,255.0,17 / 19,9208797,2019-08-18 17:47:11:334,-0.7751,-0.4286,9.2221,-0.3775,-0.6455,9.7781,0.0001,-0.0026,-0.0278
92077,47.128403,-1.888317,65.7,23.33,3.216,255.0,17 / 19,9208897,2019-08-18 17:47:11:434,-0.4123,-0.4872,9.0449,-0.3866,-0.6456,9.7777,-0.0026,0.0116,-0.0245
92078,47.128403,-1.888317,65.7,23.33,3.216,255.0,17 / 19,9208997,2019-08-18 17:47:11:534,-0.3034,-0.7308,9.4992,-0.4068,-0.6463,9.7769,0.0076,0.0186,-0.0274
92079,47.128403,-1.888317,65.7,23.33,3.216,255.0,17 / 18,9209097,2019-08-18 17:47:11:634,-0.4674,-0.6788,9.9823,-0.4181,-0.6401,9.7768,0.0155,0.0089,-0.0272
92080,47.128403,-1.888317,65.7,23.33,3.216,255.0,17 / 18,9209197,2019-08-18 17:47:11:734,-0.2663,-1.0169,10.0757,-0.4092,-0.6229,9.7783,0.0166,-0.0556,-0.0302
92081,47.128403,-1.888317,65.7,23.33,3.216,255.0,17 / 18,9209297,2019-08-18 17:47:11:834,-0.6608,-0.3932,9.6136,-0.3601,-0.61,9.781,-0.0043,-0.0206,-0.0316
92082,47.128403,-1.888317,65.7,23.33,3.216,255.0,17 / 18,9209397,2019-08-18 17:47:11:934,-0.0299,-0.3585,10.2115,-0.3578,-0.6253,9.7801,-0.0079,0.0091,-0.0313
92083,47.128403,-1.888317,65.7,23.33,3.216,255.0,17 / 18,9209497,2019-08-18 17:47:12:034,-0.4291,-0.6063,9.2892,-0.3602,-0.6298,9.7798,-0.0051,0.0078,-0.0292
92084,47.128403,-1.888317,65.7,23.33,3.216,255.0,17 / 18,9209597,2019-08-18 17:47:12:134,-0.5087,-0.7189,9.7734,-0.3541,-0.6223,9.7805,0.0225,-0.0072,-0.0253
92085,47.128403,-1.888317,65.7,23.33,3.216,255.0,17 / 18,9209697,2019-08-18 17:47:12:234,-0.3357,-0.6411,10.4791,-0.35,-0.6063,9.7816,0.0314,-0.0056,-0.0246
92086,47.128403,-1.888317,65.7,23.33,3.216,255.0,17 / 18,9209797,2019-08-18 17:47:12:334,-0.2825,-0.3268,10.1086,-0.3458,-0.5758,9.7836,0.0073,0.0059,-0.0232
92087,47.128403,-1.888317,65.7,23.33,3.216,255.0,17 / 18,9209896,2019-08-18 17:47:12:433,-0.4507,-0.3849,10.2456,-0.3518,-0.58,9.7832,-0.0073,0.0074,-0.0258
92088,47.128403,-1.888317,65.7,23.33,3.216,255.0,17 / 18,9209997,2019-08-18 17:47:12:534,-0.7451,-0.5752,10.1098,-0.3394,-0.5913,9.7829,-0.0198,-0.0276,-0.0278
92089,47.128403,-1.888317,65.7,23.33,3.216,255.0,18 / 19,9210097,2019-08-18 17:47:12:634,-0.5614,-0.7949,9.8171,-0.3316,-0.5972,9.7828,-0.0087,-0.0122,-0.0284
92090,47.128403,-1.888317,65.7,23.33,3.216,255.0,18 / 19,9210197,2019-08-18 17:47:12:734,-0.5207,-0.6099,9.6363,-0.3262,-0.6083,9.7823,-0.0033,0.001,-0.0267
92091,47.128403,-1.888317,65.7,23.33,3.216,255.0,18 / 19,9210297,2019-08-18 17:47:12:834,-0.4525,-0.8003,9.7895,-0.3352,-0.6084,9.782,0.0069,0.0102,-0.0246
92092,47.128403,-1.888317,65.7,23.33,3.216,255.0,18 / 19,9210397,2019-08-18 17:47:12:934,-0.6189,-0.8936,9.7034,-0.3642,-0.5999,9.7815,0.0117,0.0187,-0.0248
92093,47.128403,-1.888317,65.7,23.33,3.216,255.0,18 / 19,9210497,2019-08-18 17:47:13:034,-0.8415,-0.6428,9.8823,-0.3726,-0.6033,9.781,-0.0021,0.0018,-0.0293
92094,47.128403,-1.888317,65.7,23.33,3.216,255.0,18 / 19,9210597,2019-08-18 17:47:13:134,-0.8667,-0.9481,9.7506,-0.3837,-0.6147,9.7798,-0.0085,0.011,-0.0293
92095,47.128403,-1.888317,65.7,23.33,3.216,255.0,18 / 19,9210697,2019-08-18 17:47:13:234,-0.5428,-0.6015,9.437,-0.3941,-0.6238,9.7789,-0.0078,0.0127,-0.0307
92096,47.128403,-1.888317,65.7,23.33,3.216,255.0,18 / 19,9210797,2019-08-18 17:47:13:334,-0.4698,-0.6668,9.7644,-0.4058,-0.6305,9.7779,-0.0038,-0.0028,-0.0297
92097,47.128403,-1.888317,65.7,23.33,3.216,255.0,18 / 19,9210897,2019-08-18 17:47:13:434,-0.3226,-0.6967,10.1128,-0.4092,-0.6407,9.7771,0.0076,0.0026,-0.029
92098,47.128403,-1.888317,65.7,23.33,3.216,255.0,18 / 19,9210997,2019-08-18 17:47:13:534,-0.893,-0.9283,9.9093,-0.4143,-0.639,9.777,0.0019,0.0018,-0.0259
92099,47.128403,-1.888317,65.7,23.33,3.216,255.0,17 / 18,9211098,2019-08-18 17:47:13:635,-0.7415,-0.8745,9.7554,-0.4162,-0.6418,9.7768,-0.0042,-0.001,-0.0261
92100,47.128403,-1.888317,65.7,23.33,3.216,255.0,17 / 18,9211196,2019-08-18 17:47:13:733,-0.5297,-0.6752,9.944,-0.4209,-0.6449,9.7764,-0.0018,-0.0063,-0.0271
92101,47.128403,-1.888317,65.7,23.33,3.216,255.0,17 / 18,9211297,2019-08-18 17:47:13:834,-0.6991,-0.6416,10.6377,-0.4139,-0.6511,9.7763,0.0048,-0.0142,-0.0289
92102,47.128403,-1.888317,65.7,23.33,3.216,255.0,17 / 18,9211397,2019-08-18 17:47:13:934,-0.8271,-0.6644,9.8889,-0.3993,-0.6512,9.7769,-0.0021,-0.0031,-0.0272
92103,47.128403,-1.888317,65.7,23.33,3.216,255.0,17 / 18,9211497,2019-08-18 17:47:14:034,-0.4985,-0.6668,9.4741,-0.4001,-0.656,9.7765,-0.0024,0.0087,-0.0271
92104,47.128403,-1.888317,65.7,23.33,3.216,255.0,17 / 18,9211597,2019-08-18 17:47:14:134,-0.8026,-0.665,10.0541,-0.4099,-0.6601,9.7758,-0.0143,0.0014,-0.0269
92105,47.128403,-1.888317,65.7,23.33,3.216,255.0,17 / 18,9211697,2019-08-18 17:47:14:234,-0.702,-0.9708,10.1205,-0.41,-0.671,9.7751,0.0189,-0.0103,-0.028
92106,47.128403,-1.888317,65.7,23.33,3.216,255.0,17 / 18,9211797,2019-08-18 17:47:14:334,-0.3734,-0.7566,10.0631,-0.4044,-0.6643,9.7758,0.0154,-0.001,-0.025
92107,47.128403,-1.888317,65.7,23.33,3.216,255.0,17 / 18,9211897,2019-08-18 17:47:14:434,-0.4596,-0.7416,9.762,-0.4176,-0.654,9.7759,-0.0001,0.011,-0.0193
92108,47.128403,-1.888317,65.7,23.33,3.216,255.0,17 / 18,9211997,2019-08-18 17:47:14:534,-0.723,-0.5022,10.0523,-0.4261,-0.6537,9.7756,-0.007,0.0077,-0.0199
92109,47.128403,-1.888317,65.7,23.33,3.216,255.0,19 / 21,9212097,2019-08-18 17:47:14:634,-0.878,-0.6554,9.9081,-0.4461,-0.6641,9.774,-0.0006,-0.0033,-0.0182
92110,47.128403,-1.888317,65.7,23.33,3.216,255.0,19 / 21,9212197,2019-08-18 17:47:14:734,-0.9091,-0.4848,9.8799,-0.4478,-0.6636,9.7739,-0.0021,-0.0099,-0.0195
92111,47.128403,-1.888317,65.7,23.33,3.216,255.0,19 / 21,9212297,2019-08-18 17:47:14:834,-0.5374,-0.5596,10.2983,-0.4457,-0.6644,9.774,-0.001,0.0006,-0.0182
92112,47.128403,-1.888317,65.7,23.33,3.216,255.0,19 / 21,9212397,2019-08-18 17:47:14:934,-0.6787,-0.8051,9.3053,-0.4531,-0.6667,9.7735,-0.0057,0.0017,-0.0191
92113,47.128403,-1.888317,65.7,23.33,3.216,255.0,19 / 21,9212497,2019-08-18 17:47:15:034,-0.8379,-0.7608,10.0924,-0.4571,-0.6761,9.7726,-0.0099,-0.0153,-0.0194
92114,47.128403,-1.888317,65.7,23.33,3.216,255.0,19 / 21,9212597,2019-08-18 17:47:15:134,-0.7607,-0.4112,9.7752,-0.4552,-0.681,9.7724,-0.0001,-0.0082,-0.0165
92115,47.128403,-1.888317,65.7,23.33,3.216,255.0,19 / 21,9212697,2019-08-18 17:47:15:234,-0.9319,-0.6722,9.9853,-0.4569,-0.6886,9.7718,-0.02,-0.0178,-0.018
92116,47.128403,-1.888317,65.7,23.33,3.216,255.0,19 / 21,9212797,2019-08-18 17:47:15:334,-0.899,-0.6632,9.7369,-0.4536,-0.6979,9.7713,-0.0059,-0.0102,-0.0174
92117,47.128403,-1.888317,65.7,23.33,3.216,255.0,19 / 21,9212897,2019-08-18 17:47:15:434,-0.9068,-0.8272,10.2516,-0.451,-0.7025,9.771,-0.0072,-0.0141,-0.0175
92118,47.128403,-1.888317,65.7,23.33,3.216,255.0,19 / 21,9212997,2019-08-18 17:47:15:534,-0.5105,-0.5148,10.2672,-0.4475,-0.6993,9.7714,-0.0024,-0.0123,-0.0121
92119,47.128403,-1.888317,65.7,23.33,3.216,255.0,18 / 20,9213099,2019-08-18 17:47:15:636,-0.6308,-0.3771,9.4945,-0.441,-0.6989,9.7718,-0.0099,-0.0038,-0.0094
92120,47.128403,-1.888317,65.7,23.33,3.216,255.0,18 / 20,9213196,2019-08-18 17:47:15:733,-0.6476,-0.2903,9.2862,-0.4525,-0.699,9.7712,-0.0084,0.0127,-0.0074
92121,47.128403,-1.888317,65.7,23.33,3.216,255.0,18 / 20,9213297,2019-08-18 17:47:15:834,-0.7697,-0.1694,9.5914,-0.4771,-0.7045,9.7697,-0.0138,0.0076,-0.0076
92122,47.128403,-1.888317,65.7,23.33,3.216,255.0,18 / 20,9213397,2019-08-18 17:47:15:934,-0.8702,-0.4651,9.6908,-0.4812,-0.7105,9.769,-0.026,-0.006,-0.0099
92123,47.128403,-1.888317,65.7,23.33,3.216,255.0,18 / 20,9213497,2019-08-18 17:47:16:034,-0.62,-0.5363,10.0834,-0.4794,-0.7369,9.7672,-0.0269,-0.0102,-0.0094
92124,47.128403,-1.888317,65.7,23.33,3.216,255.0,18 / 20,9213597,2019-08-18 17:47:16:134,-0.6141,-0.5668,9.92,-0.4757,-0.7417,9.767,-0.0033,-0.0095,-0.0072
92125,47.128403,-1.888317,65.7,23.33,3.216,255.0,18 / 20,9213697,2019-08-18 17:47:16:234,-0.9079,-0.2388,9.8703,-0.4752,-0.7358,9.7675,0.0004,-0.0021,-0.004
92126,47.128403,-1.888317,65.7,23.33,3.216,255.0,18 / 20,9213797,2019-08-18 17:47:16:334,-0.6524,-0.3196,9.7782,-0.4842,-0.7217,9.7681,0.0033,-0.0073,0.0114
92127,47.128403,-1.888317,65.7,23.33,3.216,255.0,18 / 20,9213897,2019-08-18 17:47:16:434,-0.8259,0.1592,9.2694,-0.502,-0.6907,9.7694,-0.0101,0.034,0.0139
92128,47.128403,-1.888317,65.7,23.33,3.216,255.0,18 / 20,9213997,2019-08-18 17:47:16:534,-1.0067,-0.237,9.8189,-0.5367,-0.6844,9.768,0.0049,0.0226,0.0173
92129,47.128403,-1.888317,65.7,23.33,3.216,255.0,18 / 20,9214097,2019-08-18 17:47:16:634,-1.2563,-0.0425,9.537,-0.5515,-0.6689,9.7683,-0.0013,-0.0156,0.0158
92130,47.128403,-1.888317,65.7,23.33,3.216,255.0,17 / 20,9214197,2019-08-18 17:47:16:734,-0.8409,-0.1736,9.4508,-0.5537,-0.6387,9.7702,0.0019,-0.0171,0.0137
92131,47.128403,-1.888317,65.7,23.33,3.216,255.0,17 / 20,9214297,2019-08-18 17:47:16:834,-0.9995,-0.0952,9.4065,-0.5561,-0.6151,9.7715,-0.0074,0.0036,0.0153
92132,47.128403,-1.888317,65.7,23.33,3.216,255.0,17 / 20,9214397,2019-08-18 17:47:16:934,-1.0576,0.1293,9.9841,-0.5596,-0.6103,9.7716,-0.0015,0.0038,0.0169
92133,47.128403,-1.888317,65.7,23.33,3.216,255.0,17 / 20,9214497,2019-08-18 17:47:17:034,-0.5147,0.0102,9.8727,-0.568,-0.5987,9.7719,-0.0063,-0.0067,0.0157
92134,47.128403,-1.888317,65.7,23.33,3.216,255.0,17 / 20,9214597,2019-08-18 17:47:17:134,-0.8732,0.1425,9.9589,-0.5712,-0.5859,9.7725,-0.0079,-0.003,0.0132
92135,47.128403,-1.888317,65.7,23.33,3.216,255.0,17 / 20,9214697,2019-08-18 17:47:17:234,-0.9325,0.182,10.424,-0.5706,-0.5756,9.7731,0.0008,-0.0116,0.0143
92136,47.128403,-1.888317,65.7,23.33,3.216,255.0,17 / 20,9214797,2019-08-18 17:47:17:334,-0.8134,0.1969,9.8213,-0.5729,-0.5478,9.7746,0.0042,-0.0014,0.0177
92137,47.128403,-1.888317,65.7,23.33,3.216,255.0,17 / 20,9214897,2019-08-18 17:47:17:434,-0.8277,0.1915,9.7093,-0.5839,-0.5306,9.7749,0.0076,0.0154,0.0174
92138,47.128403,-1.888317,65.7,23.33,3.216,255.0,17 / 20,9214997,2019-08-18 17:47:17:534,-0.8445,-0.1951,9.6076,-0.6084,-0.5094,9.7745,0.003,0.0227,0.0173
92139,47.128403,-1.888317,65.7,23.33,3.216,255.0,15 / 20,9215097,2019-08-18 17:47:17:634,-1.2587,0.0641,9.5034,-0.6338,-0.5027,9.7732,-0.0046,-0.0013,0.0111
92140,47.128403,-1.888317,65.7,23.33,3.216,255.0,15 / 20,9215197,2019-08-18 17:47:17:734,-0.799,0.0958,10.1702,-0.6299,-0.49,9.7741,-0.0061,-0.0201,0.007
92141,47.128403,-1.888317,65.7,23.33,3.216,255.0,15 / 20,9215298,2019-08-18 17:47:17:835,-1.0061,-0.0066,9.938,-0.6216,-0.4869,9.7748,-0.0165,-0.0108,0.0072
92142,47.128403,-1.888317,65.7,23.33,3.216,255.0,15 / 20,9215397,2019-08-18 17:47:17:934,-0.5931,-0.2472,9.5597,-0.6319,-0.4938,9.7738,-0.0182,0.0079,0.0079
92143,47.128403,-1.888317,65.7,23.33,3.216,255.0,15 / 20,9215497,2019-08-18 17:47:18:034,-1.0211,-0.2735,9.8476,-0.6534,-0.4863,9.7728,0.0035,0.0359,0.0093
92144,47.128403,-1.888317,65.7,23.33,3.216,255.0,15 / 20,9215597,2019-08-18 17:47:18:134,-0.9893,-0.0389,10.3001,-0.6594,-0.469,9.7732,-0.0047,-0.0417,0.0053
92145,47.128403,-1.888317,65.7,23.33,3.216,255.0,15 / 20,9215697,2019-08-18 17:47:18:234,-0.8259,-0.0736,10.3342,-0.6403,-0.4656,9.7746,-0.0192,-0.0436,0.0002
92146,47.128403,-1.888317,65.7,23.33,3.216,255.0,15 / 20,9215797,2019-08-18 17:47:18:334,-0.7116,-0.3837,9.8464,-0.6134,-0.4769,9.7758,0.0011,0.0033,0.0037
92147,47.128403,-1.888317,65.7,23.33,3.216,255.0,15 / 20,9215897,2019-08-18 17:47:18:434,-0.5716,-0.7362,9.2101,-0.6149,-0.4737,9.7759,0.0063,0.006,0.0026
92148,47.128403,-1.888317,65.7,23.33,3.216,255.0,15 / 20,9215996,2019-08-18 17:47:18:533,-0.3896,-0.5566,9.2598,-0.6286,-0.4558,9.7759,0.0099,0.0108,-0.0014
92149,47.128403,-1.888317,65.7,23.33,3.216,255.0,16 / 21,9216097,2019-08-18 17:47:18:634,-0.5177,-0.4124,10.4414,-0.633,-0.4498,9.7759,0.0062,-0.0024,-0.01
92150,47.128403,-1.888317,65.7,23.33,3.216,255.0,16 / 21,9216197,2019-08-18 17:47:18:734,-0.5883,-0.0186,10.4467,-0.6296,-0.4469,9.7762,0.0042,0.0056,-0.0098
92151,47.128403,-1.888317,65.7,23.33,3.216,255.0,16 / 21,9216297,2019-08-18 17:47:18:834,-0.8667,-0.4333,10.9256,-0.6283,-0.4484,9.7762,0.0192,-0.0034,-0.0074
92152,47.128403,-1.888317,65.7,23.33,3.216,255.0,16 / 21,9216397,2019-08-18 17:47:18:934,-0.4961,-0.4956,11.2506,-0.6121,-0.4291,9.7781,0.0133,-0.0186,-0.009
92153,47.128403,-1.888317,65.7,23.33,3.216,255.0,16 / 21,9216497,2019-08-18 17:47:19:034,-0.2543,-0.1454,10.202,-0.5923,-0.4264,9.7795,-0.02,-0.027,-0.0108
92154,47.128403,-1.888317,65.7,23.33,3.216,255.0,16 / 21,9216597,2019-08-18 17:47:19:134,-0.4494,-0.7476,9.2502,-0.5687,-0.4464,9.78,-0.016,-0.0005,-0.0103
92155,47.128403,-1.888317,65.7,23.33,3.216,255.0,16 / 21,9216697,2019-08-18 17:47:19:234,-0.4489,-0.4753,9.2281,-0.5677,-0.4415,9.7802,0.0254,0.0113,-0.0022
92156,47.128403,-1.888317,65.7,23.33,3.216,255.0,16 / 21,9216797,2019-08-18 17:47:19:334,-0.4082,-0.3406,9.3322,-0.5857,-0.4102,9.7805,0.0187,0.0272,0.0006
92157,47.128403,-1.888317,65.7,23.33,3.216,255.0,16 / 21,9216897,2019-08-18 17:47:19:434,-0.5793,-0.1449,9.7028,-0.5973,-0.4011,9.7802,0.0126,0.015,-0.0019
92158,47.128403,-1.888317,65.7,23.33,3.216,255.0,16 / 21,9216997,2019-08-18 17:47:19:534,-0.8319,-0.1245,10.6563,-0.6057,-0.3783,9.7806,0.0083,-0.0023,-0.0047
92159,47.128403,-1.888317,65.7,23.33,3.216,255.0,Dec-19,9217096,2019-08-18 17:47:19:633,-0.6488,-0.1652,10.2606,-0.5987,-0.3777,9.7811,-0.0087,-0.0122,-0.0025
92160,47.12814,-1.890954,62.19,22.59,3.216,262.0,Dec-19,9217197,2019-08-18 17:47:19:734,-0.5787,-0.4968,10.1319,-0.5862,-0.384,9.7816,-0.0093,0.007,-0.0019
92161,47.12814,-1.890954,62.19,22.59,3.216,262.0,Dec-19,9217298,2019-08-18 17:47:19:835,-0.5997,-0.2993,10.1595,-0.5896,-0.3872,9.7813,-0.0073,-0.0063,-0.0008
92162,47.12814,-1.890954,62.19,22.59,3.216,262.0,Dec-19,9217397,2019-08-18 17:47:19:934,-0.8092,0.015,10.0451,-0.5724,-0.3889,9.7822,-0.0078,-0.0208,0.001
92163,47.12814,-1.890954,62.19,22.59,3.216,262.0,Dec-19,9217497,2019-08-18 17:47:20:034,-0.6572,-0.2957,9.5854,-0.563,-0.3889,9.7828,-0.0097,-0.008,0.0009
92164,47.12814,-1.890954,62.19,22.59,3.216,262.0,Dec-19,9217597,2019-08-18 17:47:20:134,-0.6069,-0.2981,9.1587,-0.5637,-0.3941,9.7825,-0.0198,0.0082,0.0019
92165,47.12814,-1.890954,62.19,22.59,3.216,262.0,Dec-19,9217697,2019-08-18 17:47:20:234,-0.5865,-0.234,9.5094,-0.5821,-0.4127,9.7807,-0.0073,0.0221,0.0028
92166,47.12814,-1.890954,62.19,22.59,3.216,262.0,Dec-19,9217797,2019-08-18 17:47:20:334,-0.7882,-0.003,9.7566,-0.5983,-0.4124,9.7797,-0.014,-0.0022,0.0019
92167,47.12814,-1.890954,62.19,22.59,3.216,262.0,Dec-19,9217897,2019-08-18 17:47:20:434,-0.9103,-0.3448,9.5178,-0.6179,-0.4095,9.7786,-0.0133,-0.0059,0.0006
92168,47.12814,-1.890954,62.19,22.59,3.216,262.0,Dec-19,9217997,2019-08-18 17:47:20:534,-0.8702,-0.5507,10.2097,-0.6221,-0.4152,9.7781,-0.0269,0.0015,-0.0026
92169,47.12814,-1.890954,62.19,22.59,3.216,262.0,13 / 20,9218097,2019-08-18 17:47:20:634,-0.6045,-0.4142,9.6914,-0.6291,-0.4405,9.7765,-0.0099,-0.0025,0.0008
92170,47.12814,-1.890954,62.19,22.59,3.216,262.0,13 / 20,9218197,2019-08-18 17:47:20:734,-0.5494,-0.6494,9.777,-0.631,-0.4415,9.7764,0.0083,0.0158,-0.0024
92171,47.12814,-1.890954,62.19,22.59,3.216,262.0,13 / 20,9218297,2019-08-18 17:47:20:834,-0.6326,-0.4058,10.3007,-0.6428,-0.4389,9.7757,0.0132,-0.0085,-0.0093
92172,47.12814,-1.890954,62.19,22.59,3.216,262.0,13 / 20,9218397,2019-08-18 17:47:20:934,-0.7445,-0.3513,10.1379,-0.6379,-0.4315,9.7764,0.0047,-0.0221,-0.0126
92173,47.12814,-1.890954,62.19,22.59,3.216,262.0,13 / 20,9218497,2019-08-18 17:47:21:034,-0.4961,-0.6919,10.0152,-0.6099,-0.4378,9.7779,-0.0129,-0.0283,-0.0145
92174,47.12814,-1.890954,62.19,22.59,3.216,262.0,13 / 20,9218597,2019-08-18 17:47:21:134,-0.5859,-0.7536,9.3119,-0.6017,-0.4443,9.7781,0.0143,0.0052,-0.0125
92175,47.12814,-1.890954,62.19,22.59,3.216,262.0,13 / 20,9218697,2019-08-18 17:47:21:234,-0.1268,-0.9631,9.9164,-0.6181,-0.4256,9.7779,0.0196,0.0352,-0.0076
92176,47.12814,-1.890954,62.19,22.59,3.216,262.0,13 / 20,9218797,2019-08-18 17:47:21:334,-0.5081,-0.6794,9.5956,-0.6381,-0.4182,9.7769,0.0165,0.0275,-0.0076
92177,47.12814,-1.890954,62.19,22.59,3.216,262.0,13 / 20,9218897,2019-08-18 17:47:21:434,-0.5177,-0.4339,10.4031,-0.6479,-0.4099,9.7766,0.0019,-0.0098,-0.0112
92178,47.12814,-1.890954,62.19,22.59,3.216,262.0,13 / 20,9218998,2019-08-18 17:47:21:535,-0.6751,-0.5195,10.2085,-0.6405,-0.4099,9.7771,0.0,-0.0231,-0.0109
92179,47.12814,-1.890954,62.19,22.59,3.216,262.0,Nov-18,9219096,2019-08-18 17:47:21:633,-0.6625,-0.425,10.2738,-0.6026,-0.4135,9.7794,0.0042,-0.0146,-0.0067
92180,47.12814,-1.890954,62.19,22.59,3.216,262.0,Nov-18,9219197,2019-08-18 17:47:21:734,-0.3681,-0.6243,10.1475,-0.5955,-0.4092,9.78,0.0013,-0.011,-0.0028
92181,47.12814,-1.890954,62.19,22.59,3.216,262.0,Nov-18,9219297,2019-08-18 17:47:21:834,-0.6416,-0.2185,10.1612,-0.5814,-0.4099,9.7808,-0.0097,-0.0131,-0.0056
92182,47.12814,-1.890954,62.19,22.59,3.216,262.0,Nov-18,9219397,2019-08-18 17:47:21:934,-0.5171,-0.2514,10.1756,-0.5653,-0.4183,9.7814,-0.0046,-0.014,-0.0034
92183,47.12814,-1.890954,62.19,22.59,3.216,262.0,Nov-18,9219497,2019-08-18 17:47:22:034,-0.4034,-0.392,10.2145,-0.5469,-0.4171,9.7825,-0.0077,-0.0031,-0.0025
92184,47.12814,-1.890954,62.19,22.59,3.216,262.0,Nov-18,9219596,2019-08-18 17:47:22:133,-0.6224,-0.3669,9.3155,-0.5486,-0.4228,9.7822,-0.0103,0.0075,-0.0023
92185,47.12814,-1.890954,62.19,22.59,3.216,262.0,Nov-18,9219697,2019-08-18 17:47:22:234,-0.3148,-0.2119,9.3759,-0.5479,-0.4326,9.7818,-0.0167,-0.0016,-0.0017
92186,47.12814,-1.890954,62.19,22.59,3.216,262.0,Nov-18,9219797,2019-08-18 17:47:22:334,-0.3986,-0.091,9.8662,-0.5443,-0.4411,9.7816,-0.0155,0.0,-0.0031
92187,47.12814,-1.890954,62.19,22.59,3.216,262.0,Nov-18,9219896,2019-08-18 17:47:22:433,-0.2507,-0.2562,9.4759,-0.5389,-0.4472,9.7816,-0.0104,0.005,-0.0029
92188,47.12814,-1.890954,62.19,22.59,3.216,262.0,Nov-18,9219997,2019-08-18 17:47:22:534,-0.3561,-0.3089,9.6249,-0.5464,-0.4447,9.7813,0.0214,0.0114,0.001
92189,47.12814,-1.890954,62.19,22.59,3.216,262.0,14 / 21,9220097,2019-08-18 17:47:22:634,-0.4824,-0.0371,9.7919,-0.5501,-0.418,9.7823,0.0103,0.0032,0.0005
92190,47.12814,-1.890954,62.19,22.59,3.216,262.0,14 / 21,9220197,2019-08-18 17:47:22:734,-0.3669,-0.5944,10.1217,-0.5466,-0.4135,9.7827,-0.0078,-0.0094,-0.0022
92191,47.12814,-1.890954,62.19,22.59,3.216,262.0,14 / 21,9220297,2019-08-18 17:47:22:834,-0.3866,-0.0215,10.1499,-0.5255,-0.4104,9.784,0.0002,-0.0177,-0.0025
92192,47.12814,-1.890954,62.19,22.59,3.216,262.0,14 / 21,9220397,2019-08-18 17:47:22:934,-0.4129,-0.094,10.0338,-0.5138,-0.4083,9.7847,-0.0069,-0.0164,-0.003
92193,47.12814,-1.890954,62.19,22.59,3.216,262.0,14 / 21,9220497,2019-08-18 17:47:23:034,-0.2094,-0.1676,9.6453,-0.4986,-0.4121,9.7853,-0.0158,0.0112,0.0004
92194,47.12814,-1.890954,62.19,22.59,3.216,262.0,14 / 21,9220597,2019-08-18 17:47:23:134,-0.4255,-0.4657,9.4855,-0.5065,-0.4233,9.7844,0.002,0.0286,0.0024
92195,47.12814,-1.890954,62.19,22.59,3.216,262.0,14 / 21,9220697,2019-08-18 17:47:23:234,-0.8678,-0.0221,10.1361,-0.5251,-0.4173,9.7837,0.0196,0.0071,0.003
92196,47.12814,-1.890954,62.19,22.59,3.216,262.0,14 / 21,9220798,2019-08-18 17:47:23:335,-0.6542,-0.1077,10.5216,-0.5352,-0.3941,9.7841,0.0176,-0.0048,0.0029
92197,47.12814,-1.890954,62.19,22.59,3.216,262.0,14 / 21,9220897,2019-08-18 17:47:23:434,-0.8086,-0.3178,10.6479,-0.5296,-0.3813,9.7849,-0.0012,-0.0218,-0.0014
92198,47.12814,-1.890954,62.19,22.59,3.216,262.0,14 / 21,9221001,2019-08-18 17:47:23:538,-0.5428,-0.3831,9.7237,-0.5084,-0.3769,9.7862,-0.0081,-0.0208,-0.0013
92199,47.12814,-1.890954,62.19,22.59,3.216,262.0,13 / 20,9221097,2019-08-18 17:47:23:634,-0.8056,-0.2855,8.8762,-0.5013,-0.383,9.7863,-0.0269,0.0075,-0.0002
92200,47.12814,-1.890954,62.19,22.59,3.216,262.0,13 / 20,9221197,2019-08-18 17:47:23:734,-0.5273,-0.5106,9.51,-0.5147,-0.4071,9.7847,-0.0076,0.0237,0.0023
92201,47.12814,-1.890954,62.19,22.59,3.216,262.0,13 / 20,9221297,2019-08-18 17:47:23:834,-0.3094,-0.2969,9.8943,-0.5345,-0.4026,9.7838,0.0114,0.0226,0.0055
92202,47.12814,-1.890954,62.19,22.59,3.216,262.0,13 / 20,9221397,2019-08-18 17:47:23:934,-0.6069,-0.3914,9.9027,-0.5596,-0.3871,9.783,0.0028,0.0005,0.0038
92203,47.12814,-1.890954,62.19,22.59,3.216,262.0,13 / 20,9221497,2019-08-18 17:47:24:034,-0.7787,-0.2819,10.5228,-0.556,-0.3846,9.7833,0.0046,-0.0113,-0.0005
92204,47.12814,-1.890954,62.19,22.59,3.216,262.0,13 / 20,9221597,2019-08-18 17:47:24:134,-0.3884,-0.4268,10.9633,-0.5368,-0.3734,9.7848,0.0028,-0.0286,0.001
92205,47.12814,-1.890954,62.19,22.59,3.216,262.0,13 / 20,9221697,2019-08-18 17:47:24:234,-0.7009,-0.0832,9.9631,-0.5221,-0.3683,9.7858,-0.016,-0.0238,0.0001
92206,47.12814,-1.890954,62.19,22.59,3.216,262.0,13 / 20,9221797,2019-08-18 17:47:24:334,-0.5763,-0.1526,9.6381,-0.4903,-0.3879,9.7867,-0.0276,-0.0149,-0.0014
92207,47.12814,-1.890954,62.19,22.59,3.216,262.0,13 / 20,9221897,2019-08-18 17:47:24:434,-0.2645,-0.331,8.9743,-0.4788,-0.4054,9.7866,-0.035,-0.012,-0.0008
92208,47.12814,-1.890954,62.19,22.59,3.216,262.0,13 / 20,9221997,2019-08-18 17:47:24:534,-0.3698,-0.6919,9.2275,-0.4643,-0.4404,9.7857,-0.029,-0.0036,-0.0006
92209,47.12814,-1.890954,62.19,22.59,3.216,262.0,Dec-19,9222097,2019-08-18 17:47:24:634,-0.723,-0.3974,9.7746,-0.4614,-0.4588,9.785,-0.0287,-0.0137,0.0006
92210,47.12814,-1.890954,62.19,22.59,3.216,262.0,Dec-19,9222197,2019-08-18 17:47:24:734,-0.9331,-0.7039,9.5064,-0.447,-0.4955,9.7839,-0.0248,-0.005,0.0005
92211,47.12814,-1.890954,62.19,22.59,3.216,262.0,Dec-19,9222297,2019-08-18 17:47:24:834,-0.7607,-0.519,10.1032,-0.4472,-0.5107,9.7831,-0.0252,0.0042,0.0018
92212,47.12814,-1.890954,62.19,22.59,3.216,262.0,Dec-19,9222397,2019-08-18 17:47:24:934,-0.729,-0.3508,9.7548,-0.469,-0.5454,9.7802,-0.0224,0.0014,0.0035
92213,47.12814,-1.890954,62.19,22.59,3.216,262.0,Dec-19,9222496,2019-08-18 17:47:25:033,-0.9433,-0.3076,9.4388,-0.4725,-0.5591,9.7793,-0.025,-0.0158,0.0055
92214,47.12814,-1.890954,62.19,22.59,3.216,262.0,Dec-19,9222597,2019-08-18 17:47:25:134,-0.9756,-0.5028,9.2407,-0.4537,-0.6065,9.7774,-0.0496,-0.0312,0.0036
92215,47.12814,-1.890954,62.19,22.59,3.216,262.0,Dec-19,9222697,2019-08-18 17:47:25:234,-0.7924,-0.568,9.8231,-0.4487,-0.6284,9.7762,-0.0214,-0.0173,0.0056
92216,47.12814,-1.890954,62.19,22.59,3.216,262.0,Dec-19,9222797,2019-08-18 17:47:25:334,-1.0929,-0.5172,10.0086,-0.4382,-0.6542,9.775,-0.005,-0.006,0.0096
92217,47.12814,-1.890954,62.19,22.59,3.216,262.0,Dec-19,9222897,2019-08-18 17:47:25:434,-1.1767,-0.3053,10.1128,-0.4488,-0.6541,9.7745,-0.006,0.0011,0.0244
92218,47.12814,-1.890954,62.19,22.59,3.216,262.0,Dec-19,9222997,2019-08-18 17:47:25:534,-1.3054,-0.2753,8.9145,-0.4752,-0.6463,9.7738,-0.0039,0.0178,0.0306
92219,47.12814,-1.890954,62.19,22.59,3.216,262.0,13 / 20,9223097,2019-08-18 17:47:25:634,-1.2826,-0.258,9.4334,-0.4915,-0.6455,9.773,-0.0169,0.0025,0.0357
92220,47.12814,-1.890954,62.19,22.59,3.216,262.0,13 / 20,9223197,2019-08-18 17:47:25:734,-1.2994,-0.2233,9.753,-0.5192,-0.6482,9.7714,-0.0148,-0.0231,0.0335
92221,47.12814,-1.890954,62.19,22.59,3.216,262.0,13 / 20,9223298,2019-08-18 17:47:25:835,-1.0426,-0.2705,9.7249,-0.5069,-0.6475,9.7721,-0.0178,-0.0303,0.0328
92222,47.12814,-1.890954,62.19,22.59,3.216,262.0,13 / 20,9223397,2019-08-18 17:47:25:934,-0.9888,0.1383,9.5699,-0.5055,-0.6494,9.7721,-0.0151,-0.0001,0.0337
92223,47.12814,-1.890954,62.19,22.59,3.216,262.0,13 / 20,9223497,2019-08-18 17:47:26:034,-1.1552,-0.6428,9.276,-0.5241,-0.6522,9.7709,-0.0139,-0.0055,0.03
92224,47.12814,-1.890954,62.19,22.59,3.216,262.0,13 / 20,9223597,2019-08-18 17:47:26:134,-0.9558,-0.5243,9.7004,-0.52,-0.6523,9.7711,-0.0081,-0.0255,0.0263
92225,47.12814,-1.890954,62.19,22.59,3.216,262.0,13 / 20,9223697,2019-08-18 17:47:26:234,-1.0983,-0.267,9.4131,-0.5166,-0.653,9.7712,-0.0052,-0.0145,0.0208
92226,47.12814,-1.890954,62.19,22.59,3.216,262.0,13 / 20,9223797,2019-08-18 17:47:26:334,-0.9055,-0.4705,10.3875,-0.5297,-0.6719,9.7693,-0.0171,-0.023,0.0169
92227,47.12814,-1.890954,62.19,22.59,3.216,262.0,13 / 20,9223897,2019-08-18 17:47:26:434,-0.887,-0.6979,10.2905,-0.5189,-0.6786,9.7694,-0.0079,-0.0359,0.0163
92228,47.12814,-1.890954,62.19,22.59,3.216,262.0,13 / 20,9223997,2019-08-18 17:47:26:534,-0.7457,-0.4579,10.36,-0.5066,-0.6796,9.7699,-0.0151,-0.009,0.0171
92229,47.12814,-1.890954,62.19,22.59,3.216,262.0,13 / 20,9224096,2019-08-18 17:47:26:633,-0.4794,-0.5758,9.4813,-0.4903,-0.6916,9.7699,-0.0119,0.0118,0.0182
92230,47.12814,-1.890954,62.19,22.59,3.216,262.0,13 / 20,9224197,2019-08-18 17:47:26:734,-0.5123,-0.4531,8.9869,-0.5087,-0.6947,9.7688,-0.0057,0.0179,0.0209
92231,47.12814,-1.890954,62.19,22.59,3.216,262.0,13 / 20,9224296,2019-08-18 17:47:26:833,-0.8403,-0.3358,9.3951,-0.5342,-0.6954,9.7674,-0.012,-0.0004,0.02
92232,47.12814,-1.890954,62.19,22.59,3.216,262.0,13 / 20,9224397,2019-08-18 17:47:26:934,-0.8397,-0.3717,10.0577,-0.5386,-0.6942,9.7672,0.0056,-0.0086,0.0226
92233,47.12814,-1.890954,62.19,22.59,3.216,262.0,13 / 20,9224496,2019-08-18 17:47:27:033,-1.1869,-0.1616,9.7381,-0.5476,-0.6679,9.7685,-0.0029,-0.0022,0.0402
92234,47.12814,-1.890954,62.19,22.59,3.216,262.0,13 / 20,9224596,2019-08-18 17:47:27:133,-1.2342,0.012,10.178,-0.5587,-0.6695,9.7678,-0.0259,-0.0038,0.0451
92235,47.12814,-1.890954,62.19,22.59,3.216,262.0,13 / 20,9224696,2019-08-18 17:47:27:233,-1.0977,0.1993,10.0266,-0.5734,-0.6708,9.7669,-0.0136,-0.0142,0.046
92236,47.12814,-1.890954,62.19,22.59,3.216,262.0,13 / 20,9224797,2019-08-18 17:47:27:334,-1.0839,-0.0173,9.8362,-0.5778,-0.6673,9.7668,-0.0203,-0.0075,0.045
92237,47.12814,-1.890954,62.19,22.59,3.216,262.0,13 / 20,9224897,2019-08-18 17:47:27:434,-1.3844,0.1323,9.7494,-0.5903,-0.6614,9.7665,0.0177,-0.0007,0.0457
92238,47.12814,-1.890954,62.19,22.59,3.216,262.0,13 / 20,9224997,2019-08-18 17:47:27:534,-1.1761,0.1197,9.8266,-0.5968,-0.6441,9.7673,0.0209,0.0133,0.0484
92239,47.12814,-1.890954,62.19,22.59,3.216,262.0,Dec-19,9225097,2019-08-18 17:47:27:634,-1.4526,-0.4423,9.6411,-0.6373,-0.602,9.7674,0.0145,0.0122,0.0482
92240,47.12814,-1.890954,62.19,22.59,3.216,262.0,Dec-19,9225199,2019-08-18 17:47:27:736,-1.4945,-0.4417,10.1792,-0.6508,-0.5933,9.767,-0.003,-0.0042,0.0422
92241,47.12814,-1.890954,62.19,22.59,3.216,262.0,Dec-19,9225301,2019-08-18 17:47:27:838,-1.1635,-0.3148,10.0062,-0.666,-0.5767,9.767,-0.0149,-0.0182,0.0394
92242,47.12814,-1.890954,62.19,22.59,3.216,262.0,Dec-19,9225397,2019-08-18 17:47:27:934,-0.8804,-0.0952,10.409,-0.6631,-0.5762,9.7672,-0.0154,-0.0178,0.0419
92243,47.12814,-1.890954,62.19,22.59,3.216,262.0,Dec-19,9225497,2019-08-18 17:47:28:034,-1.3736,-0.176,9.3083,-0.6683,-0.5695,9.7673,-0.0053,-0.0096,0.0406
92244,47.12814,-1.890954,62.19,22.59,3.216,262.0,Dec-19,9225597,2019-08-18 17:47:28:134,-1.0588,0.0359,9.1676,-0.6701,-0.5657,9.7674,-0.0044,-0.0057,0.0439
92245,47.12814,-1.890954,62.19,22.59,3.216,262.0,Dec-19,9225697,2019-08-18 17:47:28:234,-1.0265,-0.6686,9.7069,-0.6905,-0.5589,9.7663,-0.0094,0.0099,0.0429
92246,47.12814,-1.890954,62.19,22.59,3.216,262.0,Dec-19,9225797,2019-08-18 17:47:28:334,-1.1803,-0.0024,9.9601,-0.7084,-0.5515,9.7655,0.0093,0.0087,0.0437
92247,47.12814,-1.890954,62.19,22.59,3.216,262.0,Dec-19,9225898,2019-08-18 17:47:28:435,-0.7966,-0.319,10.8268,-0.7269,-0.514,9.7662,0.0213,-0.0023,0.0452
92248,47.12814,-1.890954,62.19,22.59,3.216,262.0,Dec-19,9225997,2019-08-18 17:47:28:534,-1.9787,-0.419,8.7307,-0.7273,-0.4918,9.7673,0.0239,0.0291,0.0466
92249,47.12785,-1.893635,64.34,22.55,3.216,258.0,Dec-19,9226098,2019-08-18 17:47:28:635,-1.2198,-0.073,10.4545,-0.7718,-0.4443,9.7661,0.0226,0.0139,0.0455
92250,47.12785,-1.893635,64.34,22.55,3.216,258.0,Dec-19,9226197,2019-08-18 17:47:28:734,-0.9295,-0.094,8.7948,-0.7781,-0.4289,9.7663,-0.0215,-0.0048,0.0405
92251,47.12785,-1.893635,64.34,22.55,3.216,258.0,Dec-19,9226297,2019-08-18 17:47:28:834,-1.2425,-0.1802,9.1874,-0.7916,-0.4459,9.7645,-0.0458,0.0169,0.0398
92252,47.12785,-1.893635,64.34,22.55,3.216,258.0,Dec-19,9226398,2019-08-18 17:47:28:935,-0.9103,-0.4232,9.8638,-0.8174,-0.4582,9.7618,-0.0122,0.0147,0.0427
92253,47.12785,-1.893635,64.34,22.55,3.216,258.0,Dec-19,9226496,2019-08-18 17:47:29:033,-1.3192,-0.0012,9.8213,-0.8497,-0.4558,9.7591,-0.0028,0.007,0.0448
92254,47.12785,-1.893635,64.34,22.55,3.216,258.0,Dec-19,9226596,2019-08-18 17:47:29:133,-1.1456,-0.0078,9.7189,-0.8593,-0.4484,9.7586,0.0101,0.0177,0.0447
92255,47.12785,-1.893635,64.34,22.55,3.216,258.0,Dec-19,9226697,2019-08-18 17:47:29:234,-1.2246,-0.1484,10.3516,-0.9049,-0.4194,9.7558,0.012,0.0309,0.0432
92256,47.12785,-1.893635,64.34,22.55,3.216,258.0,Dec-19,9226797,2019-08-18 17:47:29:334,-1.6388,-0.2873,9.6339,-0.9332,-0.4109,9.7535,-0.0036,0.0108,0.0422
92257,47.12785,-1.893635,64.34,22.55,3.216,258.0,Dec-19,9226897,2019-08-18 17:47:29:434,-1.364,-0.2903,9.9757,-0.9557,-0.4076,9.7515,-0.011,-0.0101,0.0388
92258,47.12785,-1.893635,64.34,22.55,3.216,258.0,Dec-19,9226996,2019-08-18 17:47:29:533,-1.2282,-0.1484,9.7985,-0.9598,-0.4072,9.7511,0.0055,-0.0045,0.0395
92259,47.12785,-1.893635,64.34,22.55,3.216,258.0,15 / 19,9227097,2019-08-18 17:47:29:634,-1.2144,-0.4184,9.6632,-0.9705,-0.3919,9.7506,0.0099,0.0112,0.0419
92260,47.12785,-1.893635,64.34,22.55,3.216,258.0,15 / 19,9227197,2019-08-18 17:47:29:734,-1.4556,-0.2215,9.9595,-0.9973,-0.375,9.7486,0.0094,0.0281,0.0439
92261,47.12785,-1.893635,64.34,22.55,3.216,258.0,15 / 19,9227297,2019-08-18 17:47:29:834,-1.7675,-0.3364,9.2036,-1.0369,-0.3528,9.7453,0.0116,0.0016,0.0432
92262,47.12785,-1.893635,64.34,22.55,3.216,258.0,15 / 19,9227397,2019-08-18 17:47:29:934,-1.4987,-0.267,8.9809,-1.0523,-0.3406,9.7441,0.0053,0.0198,0.0423
92263,47.12785,-1.893635,64.34,22.55,3.216,258.0,15 / 19,9227498,2019-08-18 17:47:30:035,-1.461,-0.2466,9.3221,-1.0761,-0.3365,9.7416,0.0148,0.0394,0.0396
92264,47.12785,-1.893635,64.34,22.55,3.216,258.0,15 / 19,9227596,2019-08-18 17:47:30:133,-1.6454,-0.4549,10.166,-1.1408,-0.3205,9.7348,0.0024,0.0217,0.0371
92265,47.12785,-1.893635,64.34,22.55,3.216,258.0,15 / 19,9227697,2019-08-18 17:47:30:234,-1.4526,-0.4274,9.6309,-1.1523,-0.3212,9.7334,-0.0054,-0.0276,0.0312
92266,47.12785,-1.893635,64.34,22.55,3.216,258.0,15 / 19,9227796,2019-08-18 17:47:30:333,-1.364,-0.3089,10.1427,-1.1422,-0.3247,9.7345,-0.0065,-0.0045,0.027
92267,47.12785,-1.893635,64.34,22.55,3.216,258.0,15 / 19,9227897,2019-08-18 17:47:30:434,-1.6292,-1.0415,9.0264,-1.1538,-0.3335,9.7328,0.0121,0.0076,0.0279
92268,47.12785,-1.893635,64.34,22.55,3.216,258.0,15 / 19,9227997,2019-08-18 17:47:30:534,-1.5676,-0.586,9.1317,-1.1594,-0.331,9.7322,0.013,-0.0018,0.025
92269,47.12785,-1.893635,64.34,22.55,3.216,258.0,15 / 19,9228097,2019-08-18 17:47:30:634,-1.1073,-0.5638,9.5741,-1.1645,-0.3168,9.7321,0.0125,0.008,0.0234
92270,47.12785,-1.893635,64.34,22.55,3.216,258.0,15 / 19,9228197,2019-08-18 17:47:30:734,-1.0456,-0.395,9.2329,-1.1767,-0.2995,9.7312,0.0145,0.0156,0.0236
92271,47.12785,-1.893635,64.34,22.55,3.216,258.0,15 / 19,9228297,2019-08-18 17:47:30:834,-0.8469,-0.504,9.033,-1.191,-0.2947,9.7296,0.0145,0.0156,0.0236
92272,47.12785,-1.893635,64.34,22.55,3.216,258.0,15 / 19,9228397,2019-08-18 17:47:30:934,-1.1839,-0.3639,9.7919,-1.2336,-0.2732,9.7249,0.0236,0.0369,0.025
92273,47.12785,-1.893635,64.34,22.55,3.216,258.0,15 / 19,9228498,2019-08-18 17:47:31:035,-1.1258,-0.4483,10.497,-1.2437,-0.2541,9.7241,0.0289,-0.0027,0.0228
92274,47.12785,-1.893635,64.34,22.55,3.216,258.0,15 / 19,9228597,2019-08-18 17:47:31:134,-1.1988,-0.2921,10.5246,-1.2271,-0.2208,9.7271,0.0233,0.0027,0.0206
92275,47.12785,-1.893635,64.34,22.55,3.216,258.0,15 / 19,9228697,2019-08-18 17:47:31:234,-1.0845,-0.3436,9.9458,-1.2273,-0.2059,9.7274,0.0192,0.0188,0.022
92276,47.12785,-1.893635,64.34,22.55,3.216,258.0,15 / 19,9228797,2019-08-18 17:47:31:334,-0.9858,-0.2239,10.2989,-1.2545,-0.1614,9.7247,0.0363,0.0196,0.0151
92277,47.12785,-1.893635,64.34,22.55,3.216,258.0,15 / 19,9228897,2019-08-18 17:47:31:434,-0.8744,-0.5968,10.2678,-1.2589,-0.1493,9.7244,0.0324,-0.0101,0.0111
92278,47.12785,-1.893635,64.34,22.55,3.216,258.0,15 / 19,9228997,2019-08-18 17:47:31:534,-0.805,-0.0808,10.6383,-1.1772,-0.122,9.735,0.0036,-0.0812,-0.0022
92279,47.12785,-1.893635,64.34,22.55,3.216,258.0,15 / 18,9229098,2019-08-18 17:47:31:635,-0.6763,-0.0299,10.1828,-1.1152,-0.1291,9.7422,-0.0273,-0.0425,-0.0024
92280,47.12785,-1.893635,64.34,22.55,3.216,258.0,15 / 18,9229197,2019-08-18 17:47:31:734,-0.3363,-0.4717,9.3035,-1.1011,-0.1706,9.7431,-0.0243,0.039,0.0092
92281,47.12785,-1.893635,64.34,22.55,3.216,258.0,15 / 18,9229297,2019-08-18 17:47:31:834,-0.459,-0.2017,9.6818,-1.1227,-0.1838,9.7404,0.0239,0.0234,0.0131
92282,47.12785,-1.893635,64.34,22.55,3.216,258.0,15 / 18,9229397,2019-08-18 17:47:31:934,-0.3076,-0.103,9.838,-1.1283,-0.1531,9.7403,0.0317,0.0098,0.0127
92283,47.12785,-1.893635,64.34,22.55,3.216,258.0,15 / 18,9229497,2019-08-18 17:47:32:034,-0.647,-0.0569,10.509,-1.119,-0.1351,9.7417,0.0176,-0.0045,0.0085
92284,47.12785,-1.893635,64.34,22.55,3.216,258.0,15 / 18,9229597,2019-08-18 17:47:32:134,-0.4884,-0.0599,10.0966,-1.097,-0.1108,9.7445,0.0144,0.0118,0.0092
92285,47.12785,-1.893635,64.34,22.55,3.216,258.0,15 / 18,9229697,2019-08-18 17:47:32:234,-0.3854,-0.1508,9.5531,-1.1006,-0.1057,9.7441,0.0051,0.025,0.0104
92286,47.12785,-1.893635,64.34,22.55,3.216,258.0,15 / 18,9229797,2019-08-18 17:47:32:334,-0.4411,0.0269,9.8883,-1.1093,-0.0918,9.7433,0.0145,0.0231,0.0104
92287,47.12785,-1.893635,64.34,22.55,3.216,258.0,15 / 18,9229897,2019-08-18 17:47:32:434,-0.1687,-0.1329,10.0032,-1.1071,-0.0772,9.7437,0.0212,0.0038,0.0079
92288,47.12785,-1.893635,64.34,22.55,3.216,258.0,15 / 18,9229997,2019-08-18 17:47:32:534,-0.1615,-0.0712,10.0302,-1.0804,-0.0526,9.7468,0.0141,-0.0019,0.004
92289,47.12785,-1.893635,64.34,22.55,3.216,258.0,18 / 20,9230097,2019-08-18 17:47:32:634,-0.2669,0.0251,9.7279,-1.0698,-0.043,9.748,0.0103,0.0147,-0.0014
92290,47.12785,-1.893635,64.34,22.55,3.216,258.0,18 / 20,9230197,2019-08-18 17:47:32:734,-0.304,-0.0742,9.6052,-1.0698,-0.0308,9.7481,0.0213,0.0475,-0.0016
92291,47.12785,-1.893635,64.34,22.55,3.216,258.0,18 / 20,9230296,2019-08-18 17:47:32:833,-0.1448,-0.0293,10.0834,-1.0882,-0.0195,9.7461,0.0106,0.0358,-0.0022
92292,47.12785,-1.893635,64.34,22.55,3.216,258.0,18 / 20,9230397,2019-08-18 17:47:32:934,-0.4387,-0.0162,10.3905,-1.089,-0.0019,9.746,0.0159,-0.0132,-0.0032
92293,47.12785,-1.893635,64.34,22.55,3.216,258.0,18 / 20,9230496,2019-08-18 17:47:33:033,-0.2352,-0.1077,10.3139,-1.0638,0.0066,9.7488,0.0071,-0.0233,-0.0051
92294,47.12785,-1.893635,64.34,22.55,3.216,258.0,18 / 20,9230597,2019-08-18 17:47:33:134,-0.4435,-0.1012,10.3995,-1.0363,0.0051,9.7517,-0.0119,-0.0209,-0.0076
92295,47.12785,-1.893635,64.34,22.55,3.216,258.0,18 / 20,9230697,2019-08-18 17:47:33:234,-0.2992,-0.0826,10.0296,-0.9855,-0.0114,9.757,-0.0088,-0.0158,-0.004
92296,47.12785,-1.893635,64.34,22.55,3.216,258.0,18 / 20,9230797,2019-08-18 17:47:33:334,-0.2998,-0.2221,10.1624,-0.9681,-0.0178,9.7587,-0.0024,0.0009,-0.0049
92297,47.12785,-1.893635,64.34,22.55,3.216,258.0,18 / 20,9230897,2019-08-18 17:47:33:434,-0.325,-0.1185,9.7494,-0.9444,-0.025,9.761,-0.0012,0.002,-0.0035
92298,47.12785,-1.893635,64.34,22.55,3.216,258.0,18 / 20,9230997,2019-08-18 17:47:33:534,-0.2088,-0.1377,9.5591,-0.9372,-0.025,9.7617,0.0017,0.006,-0.0014
92299,47.12785,-1.893635,64.34,22.55,3.216,258.0,18 / 20,9231099,2019-08-18 17:47:33:636,-0.3088,-0.0533,9.5651,-0.9212,-0.0239,9.7633,0.0073,0.0065,-0.001
92300,47.12785,-1.893635,64.34,22.55,3.216,258.0,18 / 20,9231197,2019-08-18 17:47:33:734,-0.3208,-0.3041,9.7117,-0.9133,-0.0225,9.764,-0.0043,-0.0001,-0.0004
92301,47.12785,-1.893635,64.34,22.55,3.216,258.0,18 / 20,9231297,2019-08-18 17:47:33:834,-0.2872,-0.185,10.3827,-0.8947,-0.0263,9.7657,0.0013,-0.0075,-0.0014
92302,47.12785,-1.893635,64.34,22.55,3.216,258.0,18 / 20,9231397,2019-08-18 17:47:33:934,-0.4243,-0.1419,10.3959,-0.8701,-0.0245,9.7679,0.0032,-0.024,-0.0036
92303,47.12785,-1.893635,64.34,22.55,3.216,258.0,18 / 20,9231497,2019-08-18 17:47:34:034,-0.2854,-0.0682,10.5994,-0.8332,-0.0165,9.7712,-0.0065,-0.019,-0.0055
92304,47.12785,-1.893635,64.34,22.55,3.216,258.0,18 / 20,9231597,2019-08-18 17:47:34:134,-0.4279,-0.0138,9.8985,-0.8086,-0.0209,9.7732,-0.0037,-0.0027,-0.0049
92305,47.12785,-1.893635,64.34,22.55,3.216,258.0,18 / 20,9231697,2019-08-18 17:47:34:234,-0.2669,-0.0425,9.6369,-0.7919,-0.0348,9.7746,-0.0008,0.0078,-0.0015
92306,47.12785,-1.893635,64.34,22.55,3.216,258.0,18 / 20,9231797,2019-08-18 17:47:34:334,-0.489,-0.2765,9.9865,-0.7911,-0.0367,9.7746,0.0107,0.0091,-0.0001
92307,47.12785,-1.893635,64.34,22.55,3.216,258.0,18 / 20,9231897,2019-08-18 17:47:34:434,-0.1915,-0.2693,10.1517,-0.7741,-0.022,9.776,0.0141,-0.0114,-0.0018
92308,47.12785,-1.893635,64.34,22.55,3.216,258.0,18 / 20,9231997,2019-08-18 17:47:34:534,-0.3549,-0.0551,10.2223,-0.761,-0.0168,9.7771,0.0013,-0.011,-0.0043
92309,47.12785,-1.893635,64.34,22.55,3.216,258.0,18 / 20,9232099,2019-08-18 17:47:34:636,-0.2483,-0.1239,9.8093,-0.7366,-0.0231,9.7789,-0.0096,0.0038,-0.0063
92310,47.12785,-1.893635,64.34,22.55,3.216,258.0,18 / 20,9232197,2019-08-18 17:47:34:734,-0.0059,-0.729,9.8177,-0.7299,-0.0323,9.7794,-0.0111,0.0061,-0.0117
92311,47.12785,-1.893635,64.34,22.55,3.216,258.0,18 / 20,9232297,2019-08-18 17:47:34:834,-0.1328,-0.2879,9.5759,-0.7162,-0.0587,9.7803,-0.006,0.0104,-0.0276
92312,47.12785,-1.893635,64.34,22.55,3.216,258.0,18 / 20,9232397,2019-08-18 17:47:34:934,-0.0478,-0.3843,9.5675,-0.7086,-0.0725,9.7807,-0.0041,0.0124,-0.0292
92313,47.12785,-1.893635,64.34,22.55,3.216,258.0,18 / 20,9232497,2019-08-18 17:47:35:034,-0.1095,-0.334,9.7931,-0.6942,-0.1005,9.7815,0.0049,0.0045,-0.0242
92314,47.12785,-1.893635,64.34,22.55,3.216,258.0,18 / 20,9232597,2019-08-18 17:47:35:134,0.1018,-0.5237,9.5579,-0.6846,-0.1033,9.7822,0.0147,0.0119,-0.0195
92315,47.12785,-1.893635,64.34,22.55,3.216,258.0,18 / 20,9232697,2019-08-18 17:47:35:234,-0.0442,-0.3466,10.2875,-0.6816,-0.1019,9.7824,0.0039,0.013,-0.0192
