,GPS LATITUDE (degrees), GPS LONGITUDE (degrees), GPS ALTITUDE (m), GPS SPEED (Kmh), GPS ACCURACY (m), GPS ORIENTATION (Â°),GPS SATELLITES IN RANGE, TIME SINCE START (ms), DATE (YYYY-MO-DD HH-MI-SS_SSS), ACCELEROMETER X (m/s²) , ACCELEROMETER Y (m/s²), ACCELEROMETER Z (m/s²), GRAVITY X (m/s²), GRAVITY Y (m/s²), GRAVITY Z (m/s²), GYROSCOPE Yaw (rad/s), GYROSCOPE Pitch (rad/s), GYROSCOPE Roll (rad/s), MAGNETIC FIELD X (Î¼T), MAGNETIC FIELD Y (Î¼T), MAGNETIC FIELD Z (Î¼T), ORIENTATION (Yaw) (Â°), ORIENTATION (Pitch) (Â°), ORIENTATION (Roll ) (Â°)
43995,52.037888,-0.645207,128.54,20.84,4,124.39,20 / 21,4399511,2020-01-08 11:29:06:185,-3.0394,-1.6674,10.1,0.0367,0.0395,9.8064,-0.02,0.1397,-0.3106,-26.19,-30.81,26.25,345.43,-83.18,-148.03
43996,52.037888,-0.645207,128.54,20.84,4,124.39,20 / 21,4399610,2020-01-08 11:29:06:284,0.6077,1.4962,10.1707,-0.0398,-0.0276,9.8065,0.036,0.2449,-0.0376,-25.5,-31.06,26.63,348.06,-83.23,-147.88
43997,52.037888,-0.645207,128.54,20.84,4,124.39,20 / 21,4399710,2020-01-08 11:29:06:384,0.6996,1.3399,10.4114,0.008,-0.005,9.8066,0.0858,0.2075,0.0161,-25.12,-30.5,27.06,346.44,-83.34,-149.41
43998,52.037888,-0.645207,128.54,20.84,4,124.39,20 / 21,4399811,2020-01-08 11:29:06:485,1.0391,1.2354,10.3359,0.0129,0.0204,9.8066,0.0927,0.2302,-0.2263,-25.5,-30.19,26.88,346.48,-83.37,-149.38
43999,52.037888,-0.645207,128.54,20.84,4,124.39,20 / 21,4399911,2020-01-08 11:29:06:585,1.9409,1.2314,9.781,0.0318,0.0236,9.8066,0.0952,0.2726,-0.1939,-24.94,-30.37,26.75,348.01,-83.26,-147.97
44000,52.037888,-0.645207,128.54,20.84,4,124.39,20 / 21,4400010,2020-01-08 11:29:06:684,-0.4455,0.1997,9.6201,0.0,0.0191,9.8066,0.0613,0.0226,0.0066,-25.25,-30.69,26.0,346.1,-83.41,-148.58
44001,52.037888,-0.645207,128.54,20.84,4,124.39,20 / 21,4400111,2020-01-08 11:29:06:785,-0.5977,0.8344,9.6809,0.0036,0.0018,9.8066,0.0295,-0.0065,-0.0397,-26.19,-31.12,26.38,345.97,-83.43,-147.6
44002,52.037888,-0.645207,128.54,20.84,4,124.39,20 / 21,4400211,2020-01-08 11:29:06:885,-0.388,0.0358,9.9377,-0.0176,0.0057,9.8066,0.0556,-0.1628,0.1439,-25.69,-30.87,26.75,348.07,-83.45,-146.82
44003,52.037888,-0.645207,128.54,20.84,4,124.39,19 / 20,4400312,2020-01-08 11:29:06:986,-0.5087,-0.8723,11.2351,0.0108,-0.0424,9.8064,0.0771,-0.1353,0.1803,-25.25,-30.37,25.69,347.52,-83.23,-147.3
44004,52.037888,-0.645207,128.54,20.84,4,124.39,19 / 20,4400411,2020-01-08 11:29:07:085,0.2873,-0.0638,9.0411,0.0248,-0.0062,9.8065,0.01,-0.0325,-0.0331,-26.25,-30.94,25.5,346.29,-83.25,-147.27
44005,52.037888,-0.645207,128.54,20.84,4,124.39,19 / 20,4400511,2020-01-08 11:29:07:185,-0.3421,0.8171,10.361,-0.0256,0.0041,9.8066,-0.1585,-0.0969,-0.0235,-26.56,-31.44,26.94,347.02,-83.15,-146.64
44006,52.037888,-0.645207,128.54,20.84,4,124.39,19 / 20,4400611,2020-01-08 11:29:07:285,0.7331,-0.5059,10.7296,0.0054,-0.0063,9.8065,-0.0772,-0.1955,0.2206,-26.31,-30.75,26.56,345.89,-83.0,-148.68
44007,52.037888,-0.645207,128.54,20.84,4,124.39,19 / 20,4400711,2020-01-08 11:29:07:385,0.276,2.0697,8.0235,-0.0804,0.02,9.8063,-0.106,-0.3052,0.2607,-25.81,-30.69,26.5,343.72,-82.95,-150.61
44008,52.037888,-0.645207,128.54,20.84,4,124.39,19 / 20,4400811,2020-01-08 11:29:07:485,2.4269,1.5447,10.8127,-0.0101,0.0607,9.8064,-0.027,-0.37,0.225,-25.87,-31.06,26.06,343.92,-83.33,-149.42
44009,52.037888,-0.645207,128.54,20.84,4,124.39,19 / 20,4400912,2020-01-08 11:29:07:586,1.2739,0.9595,10.184,-0.0436,0.0076,9.8065,-0.1377,-0.1826,0.1895,-25.62,-30.19,26.63,344.63,-83.37,-149.95
44010,52.037888,-0.645207,128.54,20.84,4,124.39,19 / 20,4401011,2020-01-08 11:29:07:685,0.9398,1.508,9.5704,0.0221,-0.001,9.8065,-0.0989,0.1111,-0.0751,-25.31,-30.94,26.25,345.16,-83.49,-149.44
44011,52.037888,-0.645207,128.54,20.84,4,124.39,19 / 20,4401111,2020-01-08 11:29:07:785,-0.8678,-1.4504,10.2321,-0.0108,-0.0369,9.8066,0.0495,0.0183,-0.1452,-26.37,-30.87,26.44,344.1,-83.46,-149.29
44012,52.037888,-0.645207,128.54,20.84,4,124.39,19 / 20,4401212,2020-01-08 11:29:07:886,1.1145,2.3226,9.2499,-0.0165,-0.021,9.8066,0.0562,0.1783,-0.0803,-25.06,-30.0,26.56,345.67,-83.49,-150.13
44013,52.037888,-0.645207,128.54,20.84,4,124.39,19 / 20,4401311,2020-01-08 11:29:07:985,-0.0437,-1.503,10.8539,0.0131,-0.0384,9.8066,0.0547,0.1319,-0.1009,-25.06,-30.37,27.06,345.31,-83.48,-150.46
44014,52.037888,-0.645207,128.54,20.84,4,124.39,19 / 20,4401411,2020-01-08 11:29:08:085,1.7309,0.9415,9.857,-0.0098,-0.0287,9.8065,-0.0432,0.2621,-0.1824,-25.12,-29.75,26.13,343.78,-83.16,-150.65
44015,52.037888,-0.645207,128.54,20.84,4,124.39,19 / 20,4401510,2020-01-08 11:29:08:184,-0.7246,-0.4839,10.351,0.0058,-0.0216,9.8066,-0.0997,0.1586,-0.0828,-25.56,-30.31,26.06,341.71,-83.2,-151.43
44016,52.037888,-0.645207,128.54,20.84,4,124.39,19 / 20,4401611,2020-01-08 11:29:08:285,-0.2302,0.4967,9.1236,0.0051,-0.0197,9.8066,-0.0901,0.1124,-0.0334,-26.19,-30.5,26.81,343.16,-83.12,-151.21
44017,52.037888,-0.645207,128.54,20.84,4,124.39,19 / 20,4401710,2020-01-08 11:29:08:384,0.5117,-0.3505,10.1565,0.0129,-0.0055,9.8066,-0.0124,0.1718,-0.1293,-26.5,-30.87,26.75,343.48,-83.22,-150.9
44018,52.037888,-0.645207,128.54,20.84,4,124.39,19 / 20,4401811,2020-01-08 11:29:08:485,1.4927,1.0764,10.157,-0.012,-0.0116,9.8065,0.0594,0.0913,-0.0438,-26.12,-30.5,26.75,344.01,-83.3,-150.49
44019,52.037888,-0.645207,128.54,20.84,4,124.39,19 / 20,4401911,2020-01-08 11:29:08:585,0.1248,0.3833,8.7861,0.0042,0.0247,9.8066,0.041,0.0044,-0.0221,-25.06,-30.12,27.69,345.64,-83.37,-151.19
44020,52.037888,-0.645207,128.54,20.84,4,124.39,19 / 20,4402011,2020-01-08 11:29:08:685,-1.1327,-0.1254,8.688,-0.047,0.0093,9.8064,-0.0062,0.0593,0.006,-24.87,-30.0,27.13,346.42,-83.36,-149.42
44021,52.037888,-0.645207,128.54,20.84,4,124.39,19 / 20,4402111,2020-01-08 11:29:08:785,-2.9144,-0.5462,9.1407,0.0335,0.0179,9.8065,0.0207,-0.1339,0.1084,-25.06,-30.06,26.94,347.41,-83.34,-148.53
44022,52.037888,-0.645207,128.54,20.84,4,124.39,19 / 20,4402211,2020-01-08 11:29:08:885,1.6058,2.6941,10.2334,-0.0039,-0.0013,9.8066,-0.0772,-0.1039,0.1106,-24.69,-30.31,26.56,346.86,-83.35,-149.02
44023,52.037888,-0.645207,128.54,20.84,4,124.39,19 / 20,4402310,2020-01-08 11:29:08:984,-2.9618,-2.6764,10.5584,0.0513,0.0278,9.8064,-0.0157,-0.2201,0.2189,-24.31,-29.87,26.75,345.58,-83.27,-151.3
44024,52.037888,-0.645207,128.54,20.84,4,124.39,19 / 20,4402411,2020-01-08 11:29:09:085,0.2006,-1.0221,10.366,-0.0099,-0.0188,9.8065,0.0151,-0.3267,0.1774,-25.0,-31.0,26.31,345.27,-83.09,-149.24
44025,52.037888,-0.645207,128.54,20.84,4,124.39,19 / 20,4402511,2020-01-08 11:29:09:185,1.9158,0.5695,9.0682,0.0188,0.0391,9.8065,0.0324,-0.1138,0.1028,-25.44,-30.5,27.31,344.92,-83.23,-150.75
44026,52.037888,-0.645207,128.54,20.84,4,124.39,19 / 20,4402611,2020-01-08 11:29:09:285,1.7171,0.887,9.6524,-0.0152,0.0072,9.8066,0.0342,-0.1536,0.0267,-25.06,-29.94,26.5,344.83,-83.22,-150.83
44027,52.037888,-0.645207,128.54,20.84,4,124.39,19 / 20,4402710,2020-01-08 11:29:09:384,0.2399,1.4166,7.9251,0.0288,-0.019,9.8065,0.0955,-0.1587,0.0411,-24.37,-30.56,27.88,346.99,-83.22,-151.04
44028,52.037888,-0.645207,128.54,20.84,4,124.39,19 / 20,4402810,2020-01-08 11:29:09:484,0.9411,0.2615,10.1759,-0.0214,-0.0054,9.8065,0.0313,-0.1019,0.0885,-24.62,-30.0,28.31,347.33,-83.27,-149.65
44029,52.037888,-0.645207,128.54,20.84,4,124.39,19 / 20,4402911,2020-01-08 11:29:09:585,-0.2028,-0.2928,9.2367,0.0173,-0.0203,9.8065,-0.0963,-0.1076,0.0708,-23.87,-29.0,28.94,348.4,-83.25,-150.86
44030,52.037888,-0.645207,128.54,20.84,4,124.39,19 / 20,4403011,2020-01-08 11:29:09:685,-0.4743,-0.3511,10.3198,-0.0148,0.0117,9.8066,-0.1423,-0.0466,0.002,-22.25,-28.56,29.19,352.61,-83.38,-149.48
44031,52.037888,-0.645207,128.54,20.84,4,124.39,19 / 20,4403111,2020-01-08 11:29:09:785,-1.2678,-0.3361,10.3331,-0.0159,-0.0015,9.8066,0.0431,0.2831,0.0012,-21.5,-28.69,28.38,353.25,-83.42,-149.2
44032,52.037888,-0.645207,128.54,20.84,4,124.39,19 / 20,4403210,2020-01-08 11:29:09:884,-2.6344,0.7175,8.8249,0.0368,0.0316,9.8065,0.1277,0.1872,-0.2091,-21.44,-28.75,27.63,352.02,-83.55,-150.32
44033,52.037888,-0.645207,128.54,20.84,4,124.39,20 / 20,4403311,2020-01-08 11:29:09:985,1.2272,0.2357,9.5776,-0.0165,0.0042,9.8066,0.0253,0.1638,-0.227,-21.44,-29.87,27.25,353.1,-83.47,-148.29
44034,52.037888,-0.645207,128.54,20.84,4,124.39,20 / 20,4403411,2020-01-08 11:29:10:085,1.6436,0.4464,9.8128,-0.0018,0.0064,9.8066,-0.0644,0.2332,-0.024,-22.06,-31.69,26.5,348.33,-83.52,-151.22
44035,52.037888,-0.645207,128.54,20.84,4,124.39,20 / 20,4403511,2020-01-08 11:29:10:185,1.2293,0.1969,9.6269,0.0109,0.0171,9.8066,-0.0484,0.1256,-0.1425,-22.69,-32.44,24.0,342.01,-83.47,-152.16
44036,52.037888,-0.645207,128.54,20.84,4,124.39,20 / 20,4403611,2020-01-08 11:29:10:285,0.092,-0.8275,9.0276,-0.0168,0.0345,9.8066,-0.0639,0.0145,-0.1779,-23.37,-30.62,22.0,340.34,-83.55,-151.16
44037,52.037888,-0.645207,128.54,20.84,4,124.39,20 / 20,4403711,2020-01-08 11:29:10:385,0.1527,0.8107,10.2254,-0.0412,0.0112,9.8065,0.0441,0.0328,0.0623,-23.69,-29.06,20.56,338.36,-83.72,-150.61
44038,52.037888,-0.645207,128.54,20.84,4,124.39,20 / 20,4403811,2020-01-08 11:29:10:485,0.2846,1.1478,8.8109,0.0036,-0.0127,9.8065,0.1376,-0.0734,0.0377,-23.5,-25.75,18.63,336.81,-83.79,-150.5
44039,52.037888,-0.645207,128.54,20.84,4,124.39,20 / 20,4403911,2020-01-08 11:29:10:585,1.3545,0.8869,9.8977,-0.0103,-0.0074,9.8066,0.1205,0.0776,-0.0123,-23.31,-23.81,19.69,338.98,-83.66,-150.12
44040,52.037888,-0.645207,128.54,20.84,4,124.39,20 / 20,4404011,2020-01-08 11:29:10:685,0.219,-0.1471,10.9481,0.0255,-0.0155,9.8065,-0.0121,0.1459,-0.0539,-22.75,-24.19,21.94,340.37,-83.49,-151.6
44041,52.037888,-0.645207,128.54,20.84,4,124.39,20 / 20,4404111,2020-01-08 11:29:10:785,0.0473,0.147,8.9327,0.009,-0.0373,9.8065,-0.1134,-0.0111,-0.0395,-22.44,-24.5,23.75,345.09,-83.47,-151.07
44042,52.037888,-0.645207,128.54,20.84,4,124.39,20 / 20,4404211,2020-01-08 11:29:10:885,0.1568,0.3069,9.9155,-0.0169,-0.023,9.8066,-0.1323,0.0271,0.1194,-23.5,-26.87,26.19,346.71,-83.58,-150.57
44043,52.03696,-0.642866,129.28,21.55,4,121.74,19 / 19,4404310,2020-01-08 11:29:10:984,-1.3203,0.6069,9.7449,0.0322,-0.0154,9.8065,-0.1241,0.0608,0.0362,-23.75,-28.5,25.75,344.83,-83.56,-151.04
44044,52.03696,-0.642866,129.28,21.55,4,121.74,19 / 19,4404411,2020-01-08 11:29:11:085,1.7568,0.6811,9.5458,0.0199,0.0169,9.8065,0.023,0.0676,-0.0286,-24.06,-28.81,26.94,347.92,-83.44,-149.27
44045,52.03696,-0.642866,129.28,21.55,4,121.74,19 / 19,4404510,2020-01-08 11:29:11:184,0.9729,0.5762,10.4864,-0.0093,-0.007,9.8066,0.0385,0.0928,-0.0889,-23.94,-29.31,27.13,347.78,-83.37,-149.38
44046,52.03696,-0.642866,129.28,21.55,4,121.74,19 / 19,4404611,2020-01-08 11:29:11:285,-0.6203,-0.8592,9.7378,0.0049,-0.0097,9.8066,0.1048,0.065,-0.1459,-23.75,-29.69,27.31,348.24,-83.42,-148.94
44047,52.03696,-0.642866,129.28,21.55,4,121.74,19 / 19,4404711,2020-01-08 11:29:11:385,0.9303,0.7204,9.4127,-0.0245,0.0111,9.8066,0.2384,-0.171,-0.0306,-23.75,-30.19,26.63,348.12,-83.53,-149.07
44048,52.03696,-0.642866,129.28,21.55,4,121.74,19 / 19,4404811,2020-01-08 11:29:11:485,-1.6417,2.6443,7.6364,0.0134,-0.0528,9.8065,0.1364,0.1155,-0.021,-24.25,-30.31,25.5,345.69,-83.64,-150.19
44049,52.03696,-0.642866,129.28,21.55,4,121.74,19 / 19,4404911,2020-01-08 11:29:11:585,0.0942,1.3597,9.8492,-0.0248,0.0049,9.8065,0.0637,0.0373,-0.0911,-24.94,-30.81,25.56,346.59,-83.6,-148.18
44050,52.03696,-0.642866,129.28,21.55,4,121.74,19 / 19,4405011,2020-01-08 11:29:11:685,-0.106,-3.0589,10.609,0.0251,-0.0618,9.8063,-0.0792,0.3235,-0.1732,-25.25,-31.06,25.69,345.93,-83.31,-148.71
44051,52.03696,-0.642866,129.28,21.55,4,121.74,19 / 19,4405111,2020-01-08 11:29:11:785,0.2364,1.9296,7.9265,-0.0023,-0.0402,9.8065,-0.248,0.4457,-0.13,-25.31,-30.5,25.81,347.34,-83.52,-147.53
44052,52.03696,-0.642866,129.28,21.55,4,121.74,19 / 19,4405211,2020-01-08 11:29:11:885,2.1812,0.9367,9.7436,0.0261,-0.037,9.8065,-0.2063,0.2527,-0.1436,-25.31,-30.94,26.63,349.65,-83.81,-146.56
44053,52.03696,-0.642866,129.28,21.55,4,121.74,19 / 19,4405311,2020-01-08 11:29:11:985,1.8763,1.3959,9.0827,0.0096,-0.0459,9.8064,-0.1186,0.1629,-0.0849,-25.5,-31.19,26.25,348.2,-83.67,-146.74
44054,52.03696,-0.642866,129.28,21.55,4,121.74,19 / 19,4405410,2020-01-08 11:29:12:084,-1.9815,0.0031,10.089,0.0204,0.0064,9.8066,-0.0413,0.1067,-0.0138,-25.69,-30.44,27.13,347.07,-83.75,-147.82
44055,52.03696,-0.642866,129.28,21.55,4,121.74,19 / 19,4405511,2020-01-08 11:29:12:185,-1.892,-0.3309,10.0466,-0.0073,-0.0403,9.8065,-0.0452,0.0264,-0.0005,-25.0,-30.87,26.31,347.88,-83.55,-147.01
44056,52.03696,-0.642866,129.28,21.55,4,121.74,19 / 19,4405611,2020-01-08 11:29:12:285,1.0655,1.638,10.4472,0.0166,0.009,9.8066,0.0124,-0.051,0.0656,-25.94,-31.31,26.44,346.27,-83.63,-147.37
44057,52.03696,-0.642866,129.28,21.55,4,121.74,19 / 19,4405711,2020-01-08 11:29:12:385,1.4577,1.8647,10.4751,-0.0159,0.0053,9.8066,-0.0361,-0.0178,0.1231,-24.75,-31.06,26.88,348.0,-83.56,-148.0
44058,52.03696,-0.642866,129.28,21.55,4,121.74,19 / 19,4405811,2020-01-08 11:29:12:485,-0.7683,0.2739,9.5837,0.0205,0.0134,9.8065,-0.0916,-0.1022,0.0315,-24.69,-30.81,26.31,347.63,-83.56,-147.24
44059,52.03696,-0.642866,129.28,21.55,4,121.74,19 / 19,4405911,2020-01-08 11:29:12:585,-0.7076,0.0723,9.725,-0.0172,0.0139,9.8066,-0.0632,-0.1048,0.0056,-25.06,-31.0,26.13,347.56,-83.79,-147.34
44060,52.03696,-0.642866,129.28,21.55,4,121.74,19 / 19,4406011,2020-01-08 11:29:12:685,1.0158,-0.9288,9.6809,0.0129,0.0171,9.8065,0.0147,-0.0394,0.0864,-25.81,-31.12,25.75,344.97,-83.96,-148.63
44061,52.03696,-0.642866,129.28,21.55,4,121.74,19 / 19,4406111,2020-01-08 11:29:12:785,1.9414,0.3504,9.6075,0.0022,0.0076,9.8066,0.004,0.0137,0.0824,-25.81,-31.62,25.19,343.1,-83.88,-149.11
44062,52.03696,-0.642866,129.28,21.55,4,121.74,19 / 19,4406210,2020-01-08 11:29:12:884,0.0396,-0.4511,9.5753,-0.005,-0.0223,9.8066,0.0435,0.1313,-0.117,-26.5,-31.12,25.44,342.73,-83.88,-149.5
44063,52.03696,-0.642866,129.28,21.55,4,121.74,20 / 20,4406311,2020-01-08 11:29:12:985,0.1057,1.2102,9.8157,-0.0132,-0.0027,9.8066,0.0185,0.1031,-0.1291,-25.94,-31.12,25.81,344.14,-83.8,-149.35
44064,52.03696,-0.642866,129.28,21.55,4,121.74,20 / 20,4406411,2020-01-08 11:29:13:085,-0.8456,0.0296,10.3521,0.0007,-0.0132,9.8066,0.0134,0.0907,0.0232,-25.5,-31.5,26.88,347.11,-83.7,-148.83
44065,52.03696,-0.642866,129.28,21.55,4,121.74,20 / 20,4406511,2020-01-08 11:29:13:185,0.2615,-0.2957,9.6482,-0.0215,-0.0242,9.8066,0.04,0.0962,-0.054,-25.62,-30.94,26.25,345.45,-83.64,-148.12
44066,52.03696,-0.642866,129.28,21.55,4,121.74,20 / 20,4406610,2020-01-08 11:29:13:284,-1.041,0.2906,9.4685,-0.03,-0.0079,9.8066,0.028,0.2002,-0.1502,-25.69,-31.37,25.88,344.51,-83.65,-148.97
44067,52.03696,-0.642866,129.28,21.55,4,121.74,20 / 20,4406711,2020-01-08 11:29:13:385,1.5194,1.3251,10.067,0.0038,0.0024,9.8066,0.054,0.2277,-0.1565,-26.44,-31.25,24.81,343.54,-83.74,-148.72
44068,52.03696,-0.642866,129.28,21.55,4,121.74,20 / 20,4406811,2020-01-08 11:29:13:485,-0.6839,-0.7136,9.5485,-0.0384,-0.0114,9.8065,0.0897,0.2636,-0.2207,-26.56,-31.44,26.75,342.94,-83.71,-150.47
44069,52.03696,-0.642866,129.28,21.55,4,121.74,20 / 20,4406911,2020-01-08 11:29:13:585,1.1092,1.5146,9.3516,0.0228,0.0021,9.8066,0.0656,0.2732,-0.2242,-26.12,-31.06,26.56,344.75,-83.72,-149.88
44070,52.03696,-0.642866,129.28,21.55,4,121.74,20 / 20,4407010,2020-01-08 11:29:13:684,0.6702,0.2143,10.2129,-0.0012,-0.0154,9.8065,0.0286,0.0495,-0.0507,-25.62,-30.81,26.0,345.44,-83.69,-148.15
44071,52.03696,-0.642866,129.28,21.55,4,121.74,20 / 20,4407111,2020-01-08 11:29:13:785,0.0106,0.4419,9.9627,0.012,-0.014,9.8065,0.0363,0.1639,-0.0083,-25.87,-31.0,26.88,347.15,-83.64,-147.68
44072,52.03696,-0.642866,129.28,21.55,4,121.74,19 / 19,4407211,2020-01-08 11:29:13:885,-0.108,-0.8749,10.5766,-0.0059,-0.0214,9.8066,0.0046,0.0717,-0.0764,-25.37,-30.5,26.19,347.28,-83.52,-147.58
44073,52.03696,-0.642866,129.28,21.55,4,121.74,19 / 19,4407310,2020-01-08 11:29:13:984,-0.103,-0.2666,9.9471,0.0195,-0.0053,9.8065,0.0605,0.0824,-0.0459,-25.5,-30.94,26.56,348.33,-83.48,-147.69
44074,52.03696,-0.642866,129.28,21.55,4,121.74,19 / 19,4407411,2020-01-08 11:29:14:085,-0.3435,-0.0047,9.0658,-0.0024,-0.0119,9.8066,-0.0594,-0.0337,-0.0358,-26.06,-30.87,25.69,345.11,-83.37,-148.36
44075,52.03696,-0.642866,129.28,21.55,4,121.74,19 / 19,4407511,2020-01-08 11:29:14:185,0.0443,0.4164,9.4252,-0.022,0.0007,9.8066,-0.0825,-0.0407,0.0733,-26.56,-31.56,25.25,340.85,-83.44,-149.96
44076,52.03696,-0.642866,129.28,21.55,4,121.74,19 / 19,4407611,2020-01-08 11:29:14:285,1.4677,0.8186,10.1702,-0.0225,0.0095,9.8065,0.0722,-0.0178,-0.1643,-26.94,-31.25,26.0,343.75,-83.49,-148.57
44077,52.03696,-0.642866,129.28,21.55,4,121.74,19 / 19,4407711,2020-01-08 11:29:14:385,1.0374,0.3401,10.0837,-0.0404,-0.0671,9.8063,0.0615,-0.194,-0.0868,-26.75,-31.06,26.44,345.52,-83.3,-146.93
44078,52.03696,-0.642866,129.28,21.55,4,121.74,19 / 19,4407811,2020-01-08 11:29:14:485,0.4256,-0.7849,9.7782,0.0049,0.0046,9.8066,-0.0005,0.0525,0.1919,-26.69,-31.62,26.63,344.32,-83.45,-149.1
44079,52.03696,-0.642866,129.28,21.55,4,121.74,19 / 19,4407920,2020-01-08 11:29:14:594,-0.0156,-0.24,10.3884,0.0148,0.0006,9.8066,-0.0898,0.1116,0.0588,-26.62,-31.37,26.69,345.64,-83.4,-147.94
44080,52.03696,-0.642866,129.28,21.55,4,121.74,19 / 19,4408010,2020-01-08 11:29:14:684,1.1544,0.7267,9.0496,-0.0008,0.0145,9.8066,-0.1434,0.0629,-0.1484,-25.5,-31.0,27.06,347.7,-83.42,-148.25
44081,52.03696,-0.642866,129.28,21.55,4,121.74,19 / 19,4408111,2020-01-08 11:29:14:785,1.7664,0.1946,10.8579,-0.0147,0.0223,9.8065,0.0008,-0.0462,0.0668,-25.69,-31.0,25.63,346.86,-83.46,-146.81
44082,52.03696,-0.642866,129.28,21.55,4,121.74,19 / 19,4408210,2020-01-08 11:29:14:884,-0.4787,0.0241,10.176,0.0436,-0.0273,9.8065,0.0136,-0.0438,0.0361,-26.12,-30.75,25.44,346.24,-83.51,-146.23
44083,52.03696,-0.642866,129.28,21.55,4,121.74,20 / 21,4408311,2020-01-08 11:29:14:985,-0.4936,-0.5291,10.4232,-0.0039,0.0033,9.8066,0.0663,0.0079,-0.1104,-26.81,-31.19,26.38,345.32,-83.33,-147.11
44084,52.03696,-0.642866,129.28,21.55,4,121.74,20 / 21,4408411,2020-01-08 11:29:15:085,2.9461,0.6777,10.131,0.0714,0.0036,9.8063,0.093,-0.0451,-0.0993,-26.75,-30.87,26.5,343.69,-83.16,-149.65
44085,52.03696,-0.642866,129.28,21.55,4,121.74,20 / 21,4408511,2020-01-08 11:29:15:185,0.8056,0.1124,9.2185,-0.01,0.013,9.8066,-0.1173,0.5042,-0.265,-26.62,-30.69,25.56,344.46,-83.21,-147.86
44086,52.03696,-0.642866,129.28,21.55,4,121.74,20 / 21,4408611,2020-01-08 11:29:15:285,-1.095,0.763,10.1637,-0.0036,0.1218,9.8059,-0.2959,0.364,-0.6029,-25.87,-31.25,25.63,345.01,-83.17,-148.4
44087,52.03696,-0.642866,129.28,21.55,4,121.74,20 / 21,4408711,2020-01-08 11:29:15:385,-1.1779,-1.6953,9.936,0.0066,0.0432,9.8065,-0.0652,0.5311,-0.1651,-26.12,-30.94,26.63,346.91,-83.54,-147.88
44088,52.03696,-0.642866,129.28,21.55,4,121.74,20 / 21,4408811,2020-01-08 11:29:15:485,1.8232,2.0795,8.03,-0.0026,0.0471,9.8065,-0.1946,0.3532,-0.2006,-25.44,-30.69,25.69,346.13,-83.52,-148.58
44089,52.03696,-0.642866,129.28,21.55,4,121.74,20 / 21,4408911,2020-01-08 11:29:15:585,0.2417,0.4767,10.4725,-0.0408,0.0566,9.8064,-0.3287,0.1874,0.0946,-25.19,-30.56,25.56,346.59,-83.75,-148.21
44090,52.03696,-0.642866,129.28,21.55,4,121.74,20 / 21,4409011,2020-01-08 11:29:15:685,2.0127,2.9777,7.5172,-0.0479,-0.021,9.8065,-0.1397,0.0623,0.2098,-26.19,-31.75,25.0,345.2,-83.73,-147.17
44091,52.03696,-0.642866,129.28,21.55,4,121.74,20 / 21,4409111,2020-01-08 11:29:15:785,-0.5979,-1.4624,11.3922,-0.0128,0.0489,9.8065,0.0273,-0.1524,0.0129,-26.69,-31.06,25.44,341.39,-83.96,-149.69
44092,52.03696,-0.642866,129.28,21.55,4,121.74,20 / 21,4409211,2020-01-08 11:29:15:885,-0.7783,0.3132,10.0491,0.0078,-0.0293,9.8066,0.0824,-0.2458,0.0415,-25.94,-30.94,26.56,345.85,-83.88,-148.92
44093,52.03696,-0.642866,129.28,21.55,4,121.74,19 / 19,4409311,2020-01-08 11:29:15:985,2.9193,2.7973,8.6372,-0.0141,-0.0333,9.8065,0.0901,-0.3631,0.3668,-25.75,-30.5,26.06,344.72,-83.64,-148.83
44094,52.03696,-0.642866,129.28,21.55,4,121.74,19 / 19,4409411,2020-01-08 11:29:16:085,1.2331,-0.0098,10.0547,-0.0381,-0.0549,9.8063,0.0094,-0.31,0.3333,-26.0,-31.19,25.56,343.09,-83.76,-150.29
44095,52.03696,-0.642866,129.28,21.55,4,121.74,19 / 19,4409510,2020-01-08 11:29:16:184,0.6022,1.0762,10.2661,0.035,0.0133,9.8065,-0.0074,-0.1386,-0.0459,-25.75,-31.06,26.19,343.51,-83.75,-149.91
44096,52.03696,-0.642866,129.28,21.55,4,121.74,19 / 19,4409611,2020-01-08 11:29:16:285,-0.6787,-0.3125,10.1385,0.0229,-0.0031,9.8065,0.0894,-0.0745,-0.0934,-26.25,-30.94,25.5,341.75,-83.7,-151.49
44097,52.03696,-0.642866,129.28,21.55,4,121.74,19 / 19,4409710,2020-01-08 11:29:16:384,3.4604,2.1191,11.4099,-0.0602,-0.0292,9.8063,0.1027,0.0079,-0.0568,-26.12,-31.06,25.94,343.19,-83.68,-150.17
44098,52.03696,-0.642866,129.28,21.55,4,121.74,19 / 19,4409811,2020-01-08 11:29:16:485,-3.1565,-1.9724,8.8955,0.0003,-0.0309,9.8066,0.1329,-0.0423,0.0146,-26.06,-31.62,26.44,341.3,-83.57,-151.8
44099,52.03696,-0.642866,129.28,21.55,4,121.74,19 / 19,4409911,2020-01-08 11:29:16:585,-1.1258,0.1815,9.9234,-0.0678,0.0155,9.8064,0.1469,0.3289,-0.2693,-26.31,-30.75,25.88,342.73,-83.95,-150.67
44100,52.03696,-0.642866,129.28,21.55,4,121.74,19 / 19,4410011,2020-01-08 11:29:16:685,-3.4928,-2.5034,9.6599,0.0294,0.0164,9.8065,0.1012,0.2759,-0.3806,-25.69,-30.94,25.56,343.46,-83.88,-149.98
44101,52.03696,-0.642866,129.28,21.55,4,121.74,19 / 19,4410111,2020-01-08 11:29:16:785,2.0674,2.521,10.4602,-0.0732,-0.0509,9.8062,0.0748,0.351,-0.1064,-26.31,-30.81,25.13,343.34,-83.76,-148.91
44102,52.03696,-0.642866,129.28,21.55,4,121.74,19 / 19,4410211,2020-01-08 11:29:16:885,1.4213,1.8957,9.8276,0.0085,0.0021,9.8066,0.0999,0.4118,-0.057,-26.94,-32.37,25.56,343.27,-83.75,-149.03
44103,52.03696,-0.642866,129.28,21.55,4,121.74,19 / 21,4410310,2020-01-08 11:29:16:984,1.2823,2.2662,9.5955,-0.0223,0.0143,9.8066,0.0302,0.2812,-0.2857,-26.62,-31.56,25.75,345.4,-83.68,-147.08
44104,52.03696,-0.642866,129.28,21.55,4,121.74,19 / 21,4410411,2020-01-08 11:29:17:085,-0.6755,0.5956,9.7988,0.0218,0.0458,9.8065,-0.0385,0.3888,-0.2952,-26.94,-31.69,25.75,344.61,-83.89,-147.84
44105,52.03696,-0.642866,129.28,21.55,4,121.74,19 / 21,4410511,2020-01-08 11:29:17:185,-1.7749,-1.0169,10.1704,0.007,0.0092,9.8066,-0.0227,0.1866,-0.1206,-26.56,-31.75,26.13,343.88,-83.91,-148.51
44106,52.03696,-0.642866,129.28,21.55,4,121.74,19 / 21,4410611,2020-01-08 11:29:17:285,-0.0309,0.3201,10.0526,0.0085,0.0103,9.8066,-0.0528,0.0388,-0.0556,-25.44,-31.06,25.44,343.81,-83.92,-149.62
44107,52.03696,-0.642866,129.28,21.55,4,121.74,19 / 21,4410711,2020-01-08 11:29:17:385,-1.2962,-0.4497,10.0931,0.0181,0.0014,9.8066,0.0156,0.0278,0.0032,-25.62,-31.69,24.94,342.28,-83.85,-149.84
44108,52.03696,-0.642866,129.28,21.55,4,121.74,19 / 21,4410812,2020-01-08 11:29:17:486,1.5804,1.3912,10.1025,0.0279,0.0001,9.8066,0.0827,0.0356,-0.0618,-26.12,-32.0,25.06,342.22,-83.77,-149.88
44109,52.03696,-0.642866,129.28,21.55,4,121.74,19 / 21,4410911,2020-01-08 11:29:17:585,0.6597,0.8213,10.884,-0.0433,0.0003,9.8065,0.0704,0.07,-0.0976,-26.5,-32.19,25.56,342.03,-83.8,-151.21
44110,52.03696,-0.642866,129.28,21.55,4,121.74,19 / 21,4411010,2020-01-08 11:29:17:684,-0.917,-1.0032,10.5078,0.0024,0.023,9.8066,0.0475,0.186,-0.1349,-26.87,-31.87,25.88,341.54,-83.83,-150.61
44111,52.03696,-0.642866,129.28,21.55,4,121.74,19 / 21,4411111,2020-01-08 11:29:17:785,-0.7997,0.8368,8.8367,-0.012,0.0182,9.8066,-0.0414,-0.0144,-0.0277,-24.87,-30.87,26.56,346.14,-83.86,-149.75
44112,52.03696,-0.642866,129.28,21.55,4,121.74,19 / 21,4411211,2020-01-08 11:29:17:885,-0.7321,1.312,9.5818,-0.03,-0.0031,9.8065,-0.0637,0.0197,0.0824,-25.0,-31.31,25.56,346.21,-83.8,-148.57
44113,52.03696,-0.642866,129.28,21.55,4,121.74,20 / 22,4411311,2020-01-08 11:29:17:985,-1.1195,0.0708,9.4521,-0.0128,-0.0056,9.8065,-0.081,-0.093,0.0029,-25.12,-31.19,24.56,345.94,-83.91,-147.69
44114,52.03696,-0.642866,129.28,21.55,4,121.74,20 / 22,4411411,2020-01-08 11:29:18:085,0.4059,0.8651,10.1416,-0.0091,-0.0152,9.8066,-0.0545,-0.3394,0.1971,-26.06,-31.94,24.25,343.54,-83.83,-147.5
44115,52.03696,-0.642866,129.28,21.55,4,121.74,20 / 22,4411510,2020-01-08 11:29:18:184,-1.8795,-1.2739,9.7887,-0.0016,0.009,9.8066,-0.1018,-0.3061,0.2712,-27.19,-31.81,24.5,342.57,-83.82,-148.53
44116,52.03696,-0.642866,129.28,21.55,4,121.74,20 / 22,4411611,2020-01-08 11:29:18:285,2.9554,1.9006,10.791,-0.0733,-0.0298,9.8063,-0.1589,-0.321,0.2743,-26.19,-30.81,26.44,346.11,-83.86,-147.57
44117,52.03696,-0.642866,129.28,21.55,4,121.74,20 / 22,4411711,2020-01-08 11:29:18:385,-1.7994,-0.2309,9.6457,-0.0307,-0.0291,9.8065,-0.1493,-0.3472,0.2494,-25.75,-30.62,26.0,347.01,-83.86,-146.75
44118,52.03696,-0.642866,129.28,21.55,4,121.74,20 / 22,4411810,2020-01-08 11:29:18:484,-0.205,0.0121,9.8014,-0.0356,-0.0057,9.8065,-0.0482,-0.0694,-0.0059,-25.31,-30.94,25.06,347.25,-83.84,-146.49
44119,52.03696,-0.642866,129.28,21.55,4,121.74,20 / 22,4411911,2020-01-08 11:29:18:585,0.8387,0.3188,10.0091,0.0332,0.0153,9.8065,-0.0385,-0.1392,-0.0776,-25.87,-31.12,25.13,345.82,-83.74,-146.65
44120,52.03696,-0.642866,129.28,21.55,4,121.74,20 / 22,4412011,2020-01-08 11:29:18:685,2.1898,0.4434,10.2487,-0.0311,-0.0236,9.8065,-0.0447,0.0282,0.1584,-26.37,-31.81,24.63,345.12,-83.69,-147.24
44121,52.03696,-0.642866,129.28,21.55,4,121.74,20 / 22,4412111,2020-01-08 11:29:18:785,0.9525,0.5499,9.4374,-0.0116,-0.0025,9.8066,-0.0687,0.0815,0.0371,-26.37,-31.81,26.13,344.55,-83.94,-148.96
44122,52.03696,-0.642866,129.28,21.55,4,121.74,20 / 22,4412211,2020-01-08 11:29:18:885,-0.3453,-0.9429,9.7407,0.0148,0.0273,9.8065,0.0515,0.0875,-0.2195,-25.75,-31.12,25.63,344.27,-84.06,-149.29
44123,52.03696,-0.642866,129.28,21.55,4,121.74,19 / 21,4412311,2020-01-08 11:29:18:985,-0.67,-0.2501,10.2872,0.0367,0.0086,9.8066,0.0723,0.1156,-0.0966,-26.44,-31.0,25.19,344.7,-83.89,-147.71
44124,52.03696,-0.642866,129.28,21.55,4,121.74,19 / 21,4412410,2020-01-08 11:29:19:084,-0.9687,-2.5874,10.1584,0.0202,-0.0005,9.8065,-0.0156,0.3699,-0.1679,-25.62,-31.19,25.25,340.66,-83.87,-151.37
44125,52.03696,-0.642866,129.28,21.55,4,121.74,19 / 21,4412510,2020-01-08 11:29:19:184,2.339,1.2593,9.6238,0.0145,0.025,9.8066,-0.0121,0.2515,-0.2182,-25.69,-30.81,25.19,341.18,-83.97,-150.93
44126,52.03696,-0.642866,129.28,21.55,4,121.74,19 / 21,4412611,2020-01-08 11:29:19:285,-0.6794,-0.4097,9.289,0.0175,0.0076,9.8066,-0.0079,0.1091,-0.0206,-25.94,-30.94,24.75,343.63,-83.91,-148.69
44127,52.03696,-0.642866,129.28,21.55,4,121.74,19 / 21,4412711,2020-01-08 11:29:19:385,2.9026,1.7781,9.6563,-0.0126,0.0004,9.8066,-0.021,0.1844,0.0551,-26.81,-31.69,24.38,341.45,-83.97,-148.39
44128,52.03696,-0.642866,129.28,21.55,4,121.74,19 / 21,4412810,2020-01-08 11:29:19:484,-0.9881,-1.5793,10.3992,0.0413,0.0471,9.8064,0.0726,-0.1511,-0.0514,-26.19,-30.94,25.88,344.25,-84.07,-149.32
44129,52.03696,-0.642866,129.28,21.55,4,121.74,19 / 21,4412911,2020-01-08 11:29:19:585,0.3474,-0.6861,10.5892,0.0176,-0.0136,9.8066,0.0871,-0.0911,0.0005,-25.75,-31.06,24.94,344.88,-83.99,-147.58
44130,52.03696,-0.642866,129.28,21.55,4,121.74,19 / 21,4413011,2020-01-08 11:29:19:685,-0.5047,-1.7647,11.0987,0.0081,0.0187,9.8066,0.1495,-0.1832,0.0982,-26.25,-30.94,24.75,343.32,-84.01,-148.99
44131,52.03696,-0.642866,129.28,21.55,4,121.74,19 / 21,4413111,2020-01-08 11:29:19:785,0.1343,-2.4083,11.5949,0.0194,-0.0352,9.8065,0.1382,-0.1893,0.1237,-27.44,-31.81,24.94,343.01,-84.15,-148.22
44132,52.03696,-0.642866,129.28,21.55,4,121.74,19 / 21,4413211,2020-01-08 11:29:19:885,1.3325,-0.0111,9.4615,0.0314,-0.0045,9.8066,0.0769,-0.0011,-0.0819,-27.37,-31.5,25.88,343.0,-83.97,-149.37
44133,52.036087,-0.640424,129.8,21.81,4,118.81,18 / 20,4413311,2020-01-08 11:29:19:985,0.7296,-1.4472,11.6698,0.0173,-0.0059,9.8066,-0.045,0.0278,-0.0815,-26.12,-31.31,26.25,345.14,-83.96,-148.47
44134,52.036087,-0.640424,129.8,21.81,4,118.81,18 / 20,4413411,2020-01-08 11:29:20:085,1.2198,0.0512,10.4436,0.0347,-0.0255,9.8065,-0.1517,-0.1702,0.0818,-25.31,-30.94,25.19,344.32,-84.08,-149.2
44135,52.036087,-0.640424,129.8,21.81,4,118.81,18 / 20,4413511,2020-01-08 11:29:20:185,1.7278,-0.7794,11.4727,-0.033,-0.0034,9.8065,-0.2374,-0.0231,0.1442,-25.37,-30.94,24.94,343.78,-83.91,-149.64
44136,52.036087,-0.640424,129.8,21.81,4,118.81,18 / 20,4413611,2020-01-08 11:29:20:285,-0.0436,-1.2805,9.2422,0.0292,-0.0161,9.8066,-0.2166,0.1066,0.0408,-25.69,-31.06,24.81,340.72,-83.76,-151.28
44137,52.036087,-0.640424,129.8,21.81,4,118.81,18 / 20,4413711,2020-01-08 11:29:20:385,1.2104,0.8719,8.2452,-0.0157,0.0393,9.8065,-0.172,-0.0093,0.0552,-25.5,-30.81,25.06,341.73,-83.72,-151.44
44138,52.036087,-0.640424,129.8,21.81,4,118.81,18 / 20,4413810,2020-01-08 11:29:20:484,-0.687,-0.8044,9.2688,0.0055,0.0245,9.8066,-0.1152,-0.1451,0.087,-25.87,-31.56,24.81,339.98,-83.93,-151.95
44139,52.036087,-0.640424,129.8,21.81,4,118.81,18 / 20,4413911,2020-01-08 11:29:20:585,0.2099,-0.0523,9.4755,-0.0319,-0.0028,9.8065,-0.0497,-0.143,0.1117,-26.19,-31.06,24.69,341.27,-83.96,-150.85
44140,52.036087,-0.640424,129.8,21.81,4,118.81,18 / 20,4414015,2020-01-08 11:29:20:689,1.7891,0.0176,10.2589,-0.0063,0.0035,9.8066,-0.0412,-0.113,0.1066,-26.5,-31.69,24.88,340.62,-83.91,-151.37
44141,52.036087,-0.640424,129.8,21.81,4,118.81,18 / 20,4414111,2020-01-08 11:29:20:785,0.4487,0.699,9.3918,-0.0163,-0.0111,9.8065,0.0482,-0.1627,0.1118,-26.87,-31.81,25.63,340.65,-83.85,-151.43
44142,52.036087,-0.640424,129.8,21.81,4,118.81,18 / 20,4414211,2020-01-08 11:29:20:885,2.3754,1.5988,9.8759,-0.0003,0.0033,9.8066,0.0038,-0.1166,-0.0125,-25.94,-31.44,25.5,341.75,-83.75,-151.5
44143,52.036087,-0.640424,129.8,21.81,4,118.81,18 / 20,4414315,2020-01-08 11:29:20:989,3.1014,1.2574,10.7027,-0.0422,-0.0211,9.8065,-0.0442,0.0084,-0.0055,-26.44,-31.31,25.69,342.63,-83.72,-150.7
44144,52.036087,-0.640424,129.8,21.81,4,118.81,18 / 18,4414411,2020-01-08 11:29:21:085,-0.4446,-1.8532,9.8554,-0.0134,-0.0013,9.8066,0.0694,-0.0857,0.0519,-26.25,-31.12,25.44,339.6,-83.8,-152.31
44145,52.036087,-0.640424,129.8,21.81,4,118.81,18 / 18,4414511,2020-01-08 11:29:21:185,-0.2462,0.2213,8.0551,-0.0584,-0.0016,9.8064,0.25,0.0057,0.0294,-25.94,-30.56,25.06,337.57,-83.72,-154.13
44146,52.036087,-0.640424,129.8,21.81,4,118.81,18 / 18,4414611,2020-01-08 11:29:21:285,2.6622,0.8277,10.5866,-0.0418,0.035,9.8064,0.1949,0.1233,-0.1116,-25.37,-30.69,24.81,340.86,-83.85,-152.27
44147,52.036087,-0.640424,129.8,21.81,4,118.81,18 / 18,4414711,2020-01-08 11:29:21:385,-0.3506,-1.2605,8.8297,-0.0451,-0.0085,9.8064,0.1927,0.2462,-0.1806,-26.0,-31.31,24.56,341.21,-83.82,-150.86
44148,52.036087,-0.640424,129.8,21.81,4,118.81,18 / 18,4414811,2020-01-08 11:29:21:485,1.7815,0.9306,11.1067,-0.0679,0.0015,9.8063,0.2349,0.1925,-0.1555,-26.19,-31.12,24.25,340.97,-83.86,-149.88
44149,52.036087,-0.640424,129.8,21.81,4,118.81,18 / 18,4414911,2020-01-08 11:29:21:585,-1.8873,-0.6904,7.9032,-0.0095,-0.0017,9.8066,0.2343,0.2963,-0.1651,-26.94,-30.94,25.06,339.56,-83.71,-151.27
44150,52.036087,-0.640424,129.8,21.81,4,118.81,18 / 18,4415011,2020-01-08 11:29:21:685,2.4838,0.7335,9.9405,-0.076,-0.0074,9.8062,0.1335,0.3575,-0.2764,-26.62,-30.25,25.25,341.97,-83.68,-149.13
44151,52.036087,-0.640424,129.8,21.81,4,118.81,18 / 18,4415110,2020-01-08 11:29:21:784,-2.1391,-1.7778,9.3976,-0.0234,-0.0329,9.8065,0.0529,0.2871,-0.1822,-26.19,-30.5,24.38,340.22,-83.72,-150.58
44152,52.036087,-0.640424,129.8,21.81,4,118.81,18 / 18,4415211,2020-01-08 11:29:21:885,2.586,-0.4012,10.7958,-0.0278,-0.0104,9.8065,0.0894,0.1696,0.0243,-28.06,-30.5,24.19,339.81,-83.64,-148.9
44153,52.036087,-0.640424,129.8,21.81,4,118.81,18 / 19,4415311,2020-01-08 11:29:21:985,0.9642,0.4743,8.6792,-0.0096,0.0326,9.8066,0.1299,-0.0434,-0.1604,-27.62,-30.19,25.0,341.26,-83.45,-148.71
44154,52.036087,-0.640424,129.8,21.81,4,118.81,18 / 19,4415411,2020-01-08 11:29:22:085,1.162,-0.8107,11.357,-0.0409,0.003,9.8065,0.0219,-0.0182,-0.1634,-27.62,-31.0,25.81,341.67,-83.56,-149.46
44155,52.036087,-0.640424,129.8,21.81,4,118.81,18 / 19,4415510,2020-01-08 11:29:22:184,0.2851,-1.2372,10.0012,0.0218,0.0027,9.8066,-0.0344,-0.0171,0.0827,-27.12,-30.25,25.75,341.22,-83.53,-150.92
44156,52.036087,-0.640424,129.8,21.81,4,118.81,18 / 19,4415611,2020-01-08 11:29:22:285,-0.7617,-1.106,10.0199,-0.0003,-0.0141,9.8066,-0.0305,-0.0608,0.1147,-27.12,-29.94,24.81,341.1,-83.48,-149.86
44157,52.036087,-0.640424,129.8,21.81,4,118.81,18 / 19,4415710,2020-01-08 11:29:22:384,0.0465,-0.5572,9.6133,0.0066,0.0155,9.8066,-0.0005,-0.2814,0.0749,-27.0,-30.06,25.38,341.78,-83.47,-149.25
44158,52.036087,-0.640424,129.8,21.81,4,118.81,18 / 19,4415810,2020-01-08 11:29:22:484,0.259,-0.3866,10.3448,-0.0032,0.0251,9.8065,0.0504,-0.0901,0.1571,-27.44,-29.94,24.81,341.58,-83.58,-149.46
44159,52.036087,-0.640424,129.8,21.81,4,118.81,18 / 19,4415911,2020-01-08 11:29:22:585,0.6399,-0.002,9.9493,0.0158,-0.0043,9.8066,-0.0543,0.0598,0.0144,-27.12,-29.62,25.19,341.16,-83.5,-149.81
44160,52.036087,-0.640424,129.8,21.81,4,118.81,18 / 19,4416011,2020-01-08 11:29:22:685,1.2204,0.2526,8.8377,0.0044,-0.0111,9.8066,-0.1069,0.0758,-0.0559,-27.62,-29.5,25.5,341.55,-83.47,-149.65
44161,52.036087,-0.640424,129.8,21.81,4,118.81,18 / 19,4416111,2020-01-08 11:29:22:785,0.4391,-0.2792,9.7559,0.0186,0.029,9.8065,0.0373,-0.1434,0.1315,-27.37,-29.81,24.88,341.47,-83.33,-149.49
44162,52.036087,-0.640424,129.8,21.81,4,118.81,18 / 19,4416211,2020-01-08 11:29:22:885,-0.3525,-2.1652,10.8462,-0.0151,0.0383,9.8065,0.0841,-0.1848,0.0046,-27.69,-30.44,25.06,339.41,-83.6,-150.43
44163,52.036087,-0.640424,129.8,21.81,4,118.81,19 / 21,4416311,2020-01-08 11:29:22:985,-0.618,0.8093,9.6565,-0.0094,0.0168,9.8066,0.0282,0.1414,-0.0572,-27.0,-30.06,25.06,340.26,-83.69,-150.69
44164,52.036087,-0.640424,129.8,21.81,4,118.81,19 / 21,4416411,2020-01-08 11:29:23:085,0.0471,0.1329,9.732,0.0127,-0.0005,9.8066,0.0654,0.0952,0.0091,-26.81,-30.5,25.38,339.95,-83.75,-151.0
44165,52.036087,-0.640424,129.8,21.81,4,118.81,19 / 21,4416510,2020-01-08 11:29:23:184,0.1456,-0.8406,11.6182,0.0329,-0.0493,9.8064,-0.0036,-0.0078,-0.0526,-27.12,-30.56,25.38,339.34,-83.5,-151.4
44166,52.036087,-0.640424,129.8,21.81,4,118.81,19 / 21,4416611,2020-01-08 11:29:23:285,-1.0661,-1.0536,8.7204,0.0804,-0.0335,9.8062,0.0527,-0.2223,0.0304,-27.12,-30.62,25.56,338.66,-83.44,-153.16
44167,52.036087,-0.640424,129.8,21.81,4,118.81,19 / 21,4416711,2020-01-08 11:29:23:385,2.8089,2.5778,9.7702,0.0282,0.0413,9.8065,0.0084,-0.1992,0.0414,-26.75,-31.19,25.63,339.76,-83.47,-152.17
44168,52.036087,-0.640424,129.8,21.81,4,118.81,19 / 21,4416811,2020-01-08 11:29:23:485,-1.3051,-1.8642,10.6256,0.0444,0.0385,9.8064,-0.0563,-0.0261,0.0006,-24.87,-30.5,25.19,338.47,-83.7,-154.46
44169,52.036087,-0.640424,129.8,21.81,4,118.81,19 / 21,4416911,2020-01-08 11:29:23:585,0.7714,2.3711,7.9794,0.0585,-0.0116,9.8064,-0.2535,0.272,-0.0137,-26.06,-31.25,23.56,335.68,-83.53,-154.56
44170,52.036087,-0.640424,129.8,21.81,4,118.81,19 / 21,4417011,2020-01-08 11:29:23:685,-0.9987,0.749,8.5674,0.0305,-0.0004,9.8066,-0.1527,0.0692,-0.0436,-26.37,-31.44,24.5,338.31,-83.64,-153.43
44171,52.036087,-0.640424,129.8,21.81,4,118.81,19 / 21,4417110,2020-01-08 11:29:23:784,2.4224,1.2297,10.7248,0.0681,0.0031,9.8064,-0.0422,-0.3232,0.1272,-26.94,-31.56,24.88,338.53,-83.64,-155.58
44172,52.036087,-0.640424,129.8,21.81,4,118.81,19 / 21,4417211,2020-01-08 11:29:23:885,-1.8573,-2.8439,10.1101,0.0261,-0.0051,9.8066,0.0101,-0.3463,0.1802,-26.12,-31.75,24.94,337.05,-83.67,-154.51
44173,52.036087,-0.640424,129.8,21.81,4,118.81,18 / 18,4417310,2020-01-08 11:29:23:984,0.8086,0.5992,10.0369,0.0089,0.0233,9.8065,0.0251,0.0463,-0.0486,-25.69,-30.56,24.75,337.5,-83.69,-154.18
44174,52.036087,-0.640424,129.8,21.81,4,118.81,18 / 18,4417410,2020-01-08 11:29:24:084,-1.364,-1.3219,10.4004,0.0201,0.0346,9.8065,-0.002,0.0809,-0.1667,-25.5,-30.81,24.06,336.66,-83.88,-154.88
44175,52.036087,-0.640424,129.8,21.81,4,118.81,18 / 18,4417511,2020-01-08 11:29:24:185,0.2911,-0.0883,10.9015,0.0099,-0.0121,9.8066,0.0291,0.226,-0.0184,-26.44,-31.0,24.19,337.25,-83.81,-153.25
44176,52.036087,-0.640424,129.8,21.81,4,118.81,18 / 18,4417610,2020-01-08 11:29:24:284,-0.7451,-0.2383,9.7728,0.0121,-0.003,9.8066,0.0522,0.182,-0.0985,-26.25,-31.19,24.5,338.54,-83.8,-153.28
44177,52.036087,-0.640424,129.8,21.81,4,118.81,18 / 18,4417711,2020-01-08 11:29:24:385,0.7507,1.7048,10.3645,0.0252,0.0239,9.8065,0.0823,0.076,-0.1067,-26.69,-30.94,24.63,339.8,-83.73,-151.06
44178,52.036087,-0.640424,129.8,21.81,4,118.81,18 / 18,4417811,2020-01-08 11:29:24:485,-1.4634,-0.5483,9.486,0.0129,-0.0089,9.8065,0.0328,0.3426,-0.065,-26.62,-31.44,24.06,338.34,-83.69,-151.18
44179,52.036087,-0.640424,129.8,21.81,4,118.81,18 / 18,4417911,2020-01-08 11:29:24:585,-0.9715,-1.1248,10.1711,-0.0366,-0.0283,9.8065,0.013,0.3938,-0.2332,-26.94,-31.81,25.06,341.19,-83.65,-149.73
44180,52.036087,-0.640424,129.8,21.81,4,118.81,18 / 18,4418010,2020-01-08 11:29:24:684,-1.1774,-0.7409,10.9261,0.0202,0.0354,9.8065,-0.0271,-0.0444,-0.0656,-25.44,-31.0,25.56,343.62,-83.74,-150.9
44181,52.036087,-0.640424,129.8,21.81,4,118.81,18 / 18,4418111,2020-01-08 11:29:24:785,-2.4189,-0.4103,9.9361,0.0303,-0.0139,9.8066,0.035,-0.274,0.0673,-25.94,-31.12,24.69,341.55,-83.59,-150.48
44182,52.036087,-0.640424,129.8,21.81,4,118.81,18 / 18,4418211,2020-01-08 11:29:24:885,1.066,1.4447,9.1521,-0.0216,-0.0304,9.8066,0.0092,-0.1962,0.2328,-25.75,-31.12,24.75,341.05,-83.51,-150.9
44183,52.036087,-0.640424,129.8,21.81,4,118.81,19 / 20,4418311,2020-01-08 11:29:24:985,0.5233,-0.804,10.3647,-0.0319,-0.0052,9.8066,-0.0272,-0.1201,0.0808,-25.69,-30.94,23.94,337.48,-83.69,-152.99
44184,52.036087,-0.640424,129.8,21.81,4,118.81,19 / 20,4418411,2020-01-08 11:29:25:085,-0.1241,0.0793,10.1385,0.0061,-0.0001,9.8066,-0.0548,-0.0661,-0.0123,-26.37,-31.25,24.31,339.01,-83.73,-151.62
44185,52.036087,-0.640424,129.8,21.81,4,118.81,19 / 20,4418511,2020-01-08 11:29:25:185,-1.6924,-0.0036,9.6497,-0.0132,-0.0056,9.8066,-0.0623,-0.1405,0.1382,-27.75,-31.62,23.63,338.38,-83.8,-150.12
44186,52.036087,-0.640424,129.8,21.81,4,118.81,19 / 20,4418610,2020-01-08 11:29:25:284,0.7573,0.9512,9.8087,-0.0194,-0.0356,9.8065,-0.0883,0.0096,-0.0057,-27.0,-31.56,25.31,342.46,-83.73,-148.59
44187,52.036087,-0.640424,129.8,21.81,4,118.81,19 / 20,4418710,2020-01-08 11:29:25:384,-0.0688,1.2601,9.979,-0.0199,0.0389,9.8065,-0.1348,0.2154,-0.0679,-26.19,-31.44,25.13,341.79,-83.57,-150.25
44188,52.036087,-0.640424,129.8,21.81,4,118.81,19 / 20,4418811,2020-01-08 11:29:25:485,-0.8292,-1.7023,11.3092,0.0392,0.0306,9.8065,-0.2425,0.3741,-0.1789,-25.81,-30.94,24.56,338.12,-83.69,-153.62
44189,52.036087,-0.640424,129.8,21.81,4,118.81,19 / 20,4418911,2020-01-08 11:29:25:585,2.1936,2.3008,11.1693,-0.0305,0.065,9.8063,-0.2334,0.319,-0.2689,-26.5,-31.44,24.5,337.62,-83.91,-154.15
44190,52.036087,-0.640424,129.8,21.81,4,118.81,19 / 20,4419011,2020-01-08 11:29:25:685,-3.1964,-2.3267,9.2737,0.0352,0.028,9.8065,-0.0988,-0.0342,0.1742,-25.62,-30.75,24.63,336.44,-83.65,-155.13
44191,52.036087,-0.640424,129.8,21.81,4,118.81,19 / 20,4419110,2020-01-08 11:29:25:784,0.4787,1.7105,9.8807,-0.0248,-0.0282,9.8065,-0.0396,-0.1203,0.1409,-26.31,-31.5,24.0,335.73,-83.58,-154.54
44192,52.036087,-0.640424,129.8,21.81,4,118.81,18 / 20,4419211,2020-01-08 11:29:25:885,0.0901,1.0744,10.1887,0.0356,0.0292,9.8065,-0.0853,-0.0365,-0.0494,-26.69,-30.94,24.31,332.29,-83.66,-156.67
44193,52.036087,-0.640424,129.8,21.81,4,118.81,18 / 20,4419311,2020-01-08 11:29:25:985,-1.6658,-0.1135,9.6933,-0.0289,-0.0076,9.8066,-0.0611,-0.1389,0.0945,-26.75,-31.37,24.5,334.47,-83.59,-155.86
44194,52.036087,-0.640424,129.8,21.81,4,118.81,18 / 20,4419411,2020-01-08 11:29:26:085,-2.0121,-2.5434,10.9206,-0.0004,-0.0082,9.8066,0.002,-0.376,0.3031,-26.44,-31.25,24.44,335.07,-83.56,-155.12
44195,52.036087,-0.640424,129.8,21.81,4,118.81,18 / 20,4419511,2020-01-08 11:29:26:185,-1.0118,-1.5773,9.2242,-0.0246,-0.0643,9.8064,0.1229,-0.4969,0.3233,-27.06,-31.19,24.56,336.81,-83.27,-153.62
44196,52.036087,-0.640424,129.8,21.81,4,118.81,18 / 20,4419610,2020-01-08 11:29:26:284,2.8295,2.122,9.9594,-0.0377,0.0013,9.8065,0.0936,-0.2346,0.0642,-26.31,-31.37,24.88,337.87,-83.47,-153.76
44197,52.036087,-0.640424,129.8,21.81,4,118.81,18 / 20,4419712,2020-01-08 11:29:26:386,-1.8916,-1.7312,9.0113,-0.0084,-0.0388,9.8065,0.0923,-0.1738,0.0574,-26.19,-31.0,24.69,336.53,-83.46,-154.97
44198,52.036087,-0.640424,129.8,21.81,4,118.81,18 / 20,4419811,2020-01-08 11:29:26:485,2.5614,1.5228,9.7778,-0.0577,-0.038,9.8064,0.013,0.1176,-0.0819,-26.31,-30.87,23.81,337.25,-83.34,-153.06
44199,52.036087,-0.640424,129.8,21.81,4,118.81,18 / 20,4419911,2020-01-08 11:29:26:585,-1.9346,-0.7408,8.3735,-0.0264,-0.0069,9.8066,0.0118,0.1463,-0.0141,-27.06,-32.0,23.94,335.28,-83.46,-153.79
44200,52.036087,-0.640424,129.8,21.81,4,118.81,18 / 20,4420010,2020-01-08 11:29:26:684,0.1997,1.0689,10.6945,-0.0441,-0.0004,9.8065,0.0792,0.1682,-0.1497,-27.37,-31.69,24.56,336.49,-83.45,-153.9
44201,52.036087,-0.640424,129.8,21.81,4,118.81,18 / 20,4420111,2020-01-08 11:29:26:785,-1.1093,-0.8196,10.6905,0.0068,-0.0265,9.8066,0.1549,0.0649,-0.2164,-27.81,-31.56,25.25,335.36,-83.33,-153.89
44202,52.036087,-0.640424,129.8,21.81,4,118.81,18 / 20,4420211,2020-01-08 11:29:26:885,0.9842,1.8725,8.7566,-0.0679,-0.0249,9.8063,0.2119,0.1914,-0.0084,-26.69,-31.19,25.69,339.35,-83.31,-152.49
44203,52.036087,-0.640424,129.8,21.81,4,118.81,18 / 21,4420311,2020-01-08 11:29:26:985,-2.0526,-2.9714,10.4428,0.0181,0.0099,9.8066,0.1512,0.385,-0.0967,-26.25,-30.37,24.69,337.6,-83.3,-154.02
44204,52.036087,-0.640424,129.8,21.81,4,118.81,18 / 21,4420411,2020-01-08 11:29:27:085,2.8472,1.3172,9.4376,-0.0123,-0.0103,9.8066,-0.0292,0.3663,-0.2371,-25.69,-30.69,25.0,338.51,-83.19,-153.09
44205,52.036087,-0.640424,129.8,21.81,4,118.81,18 / 21,4420510,2020-01-08 11:29:27:184,0.807,0.8555,9.4565,0.0133,0.0095,9.8066,0.0138,0.1876,-0.1843,-25.44,-30.62,23.69,337.1,-83.26,-154.25
44206,52.036087,-0.640424,129.8,21.81,4,118.81,18 / 21,4420611,2020-01-08 11:29:27:285,-1.8683,-2.4728,8.8891,-0.0411,-0.0088,9.8065,0.0858,0.1219,0.0948,-26.12,-30.75,24.19,338.29,-83.27,-152.11
44207,52.036087,-0.640424,129.8,21.81,4,118.81,18 / 21,4420711,2020-01-08 11:29:27:385,-1.2178,-0.8198,10.2317,-0.037,-0.0163,9.8065,0.0147,0.126,-0.0421,-26.75,-30.87,24.31,335.14,-83.34,-153.95
44208,52.036087,-0.640424,129.8,21.81,4,118.81,18 / 21,4420810,2020-01-08 11:29:27:484,-0.9302,-1.2074,8.3802,-0.0566,-0.0265,9.8064,-0.1316,0.0116,-0.1205,-27.0,-31.56,24.19,335.3,-83.33,-153.71
44209,52.036087,-0.640424,129.8,21.81,4,118.81,18 / 21,4420911,2020-01-08 11:29:27:585,3.8105,1.0078,11.3389,-0.0467,0.0087,9.8064,-0.2047,-0.1843,0.0995,-26.0,-30.5,25.19,337.67,-83.31,-153.96
44210,52.036087,-0.640424,129.8,21.81,4,118.81,18 / 21,4421010,2020-01-08 11:29:27:684,-2.7214,-3.1971,10.6686,-0.0054,-0.0554,9.8064,-0.0267,-0.3743,0.3023,-25.69,-31.0,24.63,337.51,-83.01,-153.92
44211,52.036087,-0.640424,129.8,21.81,4,118.81,18 / 21,4421111,2020-01-08 11:29:27:785,1.2979,1.7212,9.74,-0.0219,-0.0345,9.8066,0.0056,-0.1757,0.1491,-26.0,-30.62,23.94,335.99,-83.16,-154.13
44212,52.036087,-0.640424,129.8,21.81,4,118.81,18 / 21,4421211,2020-01-08 11:29:27:885,-0.3167,1.1282,9.8002,0.004,0.0126,9.8066,-0.006,-0.2767,0.0399,-26.31,-31.19,23.25,334.23,-83.2,-154.47
44213,52.036087,-0.640424,129.8,21.81,4,118.81,19 / 20,4421311,2020-01-08 11:29:27:985,-0.3499,3.488,8.4927,0.0043,-0.0234,9.8066,0.2602,-0.1952,0.0305,-27.56,-31.19,24.38,333.48,-83.2,-154.41
44214,52.036087,-0.640424,129.8,21.81,4,118.81,19 / 20,4421410,2020-01-08 11:29:28:084,-0.9024,1.1063,11.5334,-0.0597,0.0503,9.8063,0.3357,-0.3075,-0.068,-26.37,-30.94,24.31,337.01,-83.49,-153.34
44215,52.036087,-0.640424,129.8,21.81,4,118.81,19 / 20,4421511,2020-01-08 11:29:28:185,-1.843,-1.1303,9.7683,-0.0037,-0.0249,9.8066,0.2313,0.4356,-0.1326,-26.81,-31.31,24.75,335.56,-83.36,-154.77
44216,52.036087,-0.640424,129.8,21.81,4,118.81,19 / 20,4421611,2020-01-08 11:29:28:285,-0.6221,-0.0897,9.8474,-0.0659,-0.037,9.8063,0.1718,0.3707,-0.4659,-26.12,-30.56,24.5,340.26,-83.14,-151.5
44217,52.036087,-0.640424,129.8,21.81,4,118.81,19 / 20,4421711,2020-01-08 11:29:28:385,-1.0848,0.254,8.6539,-0.0575,-0.0614,9.8063,0.1038,0.5504,-0.3765,-26.37,-31.0,23.94,335.24,-83.22,-154.83
44218,52.036087,-0.640424,129.8,21.81,4,118.81,19 / 20,4421811,2020-01-08 11:29:28:485,3.8974,3.5383,10.9532,-0.0541,-0.024,9.8064,0.1125,0.5951,-0.2644,-26.94,-31.81,24.25,337.21,-83.17,-151.94
44219,52.036087,-0.640424,129.8,21.81,4,118.81,19 / 20,4421910,2020-01-08 11:29:28:584,-1.2382,-0.1583,9.3131,-0.0042,0.0069,9.8066,0.1334,0.4314,-0.3807,-26.0,-30.62,24.38,337.75,-83.11,-152.54
44220,52.036087,-0.640424,129.8,21.81,4,118.81,19 / 20,4422011,2020-01-08 11:29:28:685,3.3048,2.7549,10.4225,-0.0729,-0.0631,9.8061,0.0787,0.258,-0.3259,-25.94,-30.56,23.69,339.04,-83.08,-151.37
44221,52.036087,-0.640424,129.8,21.81,4,118.81,19 / 20,4422110,2020-01-08 11:29:28:784,-2.1752,-0.0886,8.3047,-0.0009,0.0139,9.8065,0.1852,-0.0394,0.0666,-26.56,-31.0,23.75,335.8,-83.13,-153.26
44222,52.036087,-0.640424,129.8,21.81,4,118.81,19 / 20,4422210,2020-01-08 11:29:28:884,-0.9372,-0.7462,10.8655,-0.0681,0.0097,9.8063,0.1892,-0.0554,0.0466,-26.44,-30.56,24.69,340.01,-83.14,-151.72
44223,52.036087,-0.640424,129.8,21.81,4,118.81,19 / 20,4422311,2020-01-08 11:29:28:985,2.1152,0.0397,9.7373,0.0166,-0.0101,9.8066,-0.0468,-0.0414,0.0823,-27.12,-30.94,24.63,337.33,-83.11,-153.08
44224,52.035225,-0.637636,130.32,24.35,4,114.89,20 / 21,4422411,2020-01-08 11:29:29:085,2.6986,1.7805,10.813,-0.0562,0.0097,9.8064,-0.1049,0.0843,0.1389,-26.81,-30.69,24.13,338.76,-83.16,-150.61
44225,52.035225,-0.637636,130.32,24.35,4,114.89,20 / 21,4422511,2020-01-08 11:29:29:185,-1.5781,0.9044,8.464,0.0096,0.0277,9.8065,0.0659,-0.1783,0.0929,-27.12,-31.19,23.06,335.98,-82.98,-151.79
44226,52.035225,-0.637636,130.32,24.35,4,114.89,20 / 21,4422611,2020-01-08 11:29:29:285,-0.4828,-1.0671,10.4351,-0.0267,0.0007,9.8065,0.0809,-0.1067,0.1608,-27.25,-30.31,23.94,336.7,-82.95,-152.46
44227,52.035225,-0.637636,130.32,24.35,4,114.89,20 / 21,4422711,2020-01-08 11:29:29:385,-2.02,-1.1755,9.5174,-0.0268,0.0281,9.8065,0.0099,-0.2974,0.1117,-27.12,-30.37,24.31,337.95,-83.15,-151.41
44228,52.035225,-0.637636,130.32,24.35,4,114.89,20 / 21,4422811,2020-01-08 11:29:29:485,0.2098,-0.0712,11.008,-0.0322,0.0101,9.8066,-0.0165,-0.1426,0.0869,-27.56,-29.94,24.5,340.01,-83.18,-149.76
44229,52.035225,-0.637636,130.32,24.35,4,114.89,20 / 21,4422910,2020-01-08 11:29:29:584,0.1725,0.6993,9.6415,0.0294,0.0148,9.8066,-0.0877,-0.13,0.082,-26.75,-30.12,24.19,339.59,-83.04,-149.89
44230,52.035225,-0.637636,130.32,24.35,4,114.89,20 / 21,4423010,2020-01-08 11:29:29:684,-1.835,-0.5842,9.423,0.0198,0.0109,9.8066,-0.1422,-0.1196,0.0937,-27.94,-29.5,23.69,335.92,-83.01,-152.28
44231,52.035225,-0.637636,130.32,24.35,4,114.89,20 / 21,4423110,2020-01-08 11:29:29:784,0.0592,-0.2536,11.0508,0.0456,0.0043,9.8065,-0.0829,-0.217,0.0975,-27.25,-30.0,24.5,335.16,-83.04,-155.09
44232,52.035225,-0.637636,130.32,24.35,4,114.89,20 / 21,4423211,2020-01-08 11:29:29:885,-1.2071,-0.8933,9.004,0.0268,-0.0111,9.8066,-0.0421,-0.1869,0.1442,-27.25,-30.69,25.06,335.36,-83.14,-154.87
44233,52.035225,-0.637636,130.32,24.35,4,114.89,21 / 22,4423310,2020-01-08 11:29:29:984,2.4951,3.1034,9.9203,0.0277,0.0292,9.8065,-0.0422,-0.1541,0.0914,-27.44,-29.44,24.19,332.88,-83.33,-156.16
44234,52.035225,-0.637636,130.32,24.35,4,114.89,21 / 22,4423411,2020-01-08 11:29:30:085,0.0,-0.7316,10.5916,0.0218,0.0234,9.8065,-0.0619,0.0225,0.0635,-27.06,-29.69,23.56,333.79,-83.27,-155.22
44235,52.035225,-0.637636,130.32,24.35,4,114.89,21 / 22,4423510,2020-01-08 11:29:30:184,1.1798,1.5795,9.7482,0.032,0.0025,9.8065,-0.0928,-0.0114,-0.0091,-27.87,-30.81,24.69,334.59,-83.22,-154.61
44236,52.035225,-0.637636,130.32,24.35,4,114.89,21 / 22,4423610,2020-01-08 11:29:30:284,-1.8281,0.1494,9.2671,0.0164,0.0091,9.8066,-0.0657,0.028,0.0778,-27.31,-30.12,24.69,335.27,-83.18,-155.05
44237,52.035225,-0.637636,130.32,24.35,4,114.89,21 / 22,4423710,2020-01-08 11:29:30:384,-0.3044,0.3729,9.8756,0.0162,0.0096,9.8066,0.0539,-0.1196,0.0357,-26.5,-30.12,23.75,334.69,-83.3,-155.44
44238,52.035225,-0.637636,130.32,24.35,4,114.89,21 / 22,4423811,2020-01-08 11:29:30:485,-1.3134,-1.4605,8.8044,0.0157,0.0083,9.8066,0.0615,0.1129,-0.034,-26.56,-30.06,23.5,334.44,-83.31,-154.64
44239,52.035225,-0.637636,130.32,24.35,4,114.89,21 / 22,4423911,2020-01-08 11:29:30:585,1.0139,2.3786,8.2483,-0.0211,0.0298,9.8065,0.0171,0.2989,-0.237,-26.31,-30.12,23.38,335.86,-83.52,-153.22
44240,52.035225,-0.637636,130.32,24.35,4,114.89,21 / 22,4424011,2020-01-08 11:29:30:685,-1.8358,-1.7976,9.8232,0.0059,0.0417,9.8065,-0.0126,0.3575,-0.1441,-26.31,-30.12,23.19,336.56,-83.41,-152.54
44241,52.035225,-0.637636,130.32,24.35,4,114.89,21 / 22,4424110,2020-01-08 11:29:30:784,1.0347,1.3484,9.2677,-0.0272,-0.0605,9.8064,-0.0521,0.1385,-0.094,-27.81,-30.0,23.19,335.9,-83.16,-151.04
44242,52.035225,-0.637636,130.32,24.35,4,114.89,21 / 22,4424210,2020-01-08 11:29:30:884,-1.0344,0.7359,10.2038,0.0091,0.0243,9.8066,-0.0324,0.0885,-0.2635,-27.37,-30.06,24.06,335.02,-83.36,-154.14
44243,52.035225,-0.637636,130.32,24.35,4,114.89,20 / 20,4424311,2020-01-08 11:29:30:985,-0.3362,-0.4464,9.7985,0.0091,0.0052,9.8066,0.0934,-0.1687,0.058,-27.44,-30.0,24.06,335.88,-83.2,-153.3
44244,52.035225,-0.637636,130.32,24.35,4,114.89,20 / 20,4424411,2020-01-08 11:29:31:085,-0.4538,0.9333,9.239,-0.0198,-0.0413,9.8065,-0.0102,0.0383,0.1401,-27.25,-29.19,23.38,335.28,-83.14,-152.64
44245,52.035225,-0.637636,130.32,24.35,4,114.89,20 / 20,4424511,2020-01-08 11:29:31:185,0.1131,0.509,9.7837,-0.0319,-0.0205,9.8065,0.0492,0.058,-0.1075,-27.81,-28.69,23.5,333.47,-83.26,-154.6
44246,52.035225,-0.637636,130.32,24.35,4,114.89,20 / 20,4424611,2020-01-08 11:29:31:285,0.6504,0.9654,10.4698,0.0148,0.0045,9.8066,-0.0095,-0.1505,0.0888,-28.31,-28.56,23.25,333.4,-83.2,-153.4
44247,52.035225,-0.637636,130.32,24.35,4,114.89,20 / 20,4424711,2020-01-08 11:29:31:385,-1.0805,-1.5763,9.6865,-0.0109,-0.0174,9.8066,0.0375,-0.2156,0.2371,-28.56,-28.0,23.81,334.98,-83.04,-152.28
44248,52.035225,-0.637636,130.32,24.35,4,114.89,20 / 20,4424811,2020-01-08 11:29:31:485,0.583,1.6808,8.6051,-0.0128,-0.0358,9.8065,-0.0031,-0.15,0.1059,-29.12,-28.31,24.31,334.97,-83.09,-152.31
44249,52.035225,-0.637636,130.32,24.35,4,114.89,20 / 20,4424910,2020-01-08 11:29:31:584,-0.7817,0.3406,9.8658,-0.0164,0.0141,9.8066,-0.0188,-0.0725,-0.0003,-27.94,-27.56,24.25,336.28,-83.26,-152.12
44250,52.035225,-0.637636,130.32,24.35,4,114.89,20 / 20,4425011,2020-01-08 11:29:31:685,-1.3775,-0.403,10.1235,0.002,-0.0186,9.8066,0.0303,0.0989,-0.0117,-28.69,-27.56,23.06,335.62,-83.33,-150.57
44251,52.035225,-0.637636,130.32,24.35,4,114.89,20 / 20,4425110,2020-01-08 11:29:31:784,0.391,0.057,10.9904,0.017,-0.0004,9.8066,-0.0179,0.211,-0.0626,-28.81,-28.31,23.56,336.85,-83.34,-150.67
44252,52.035225,-0.637636,130.32,24.35,4,114.89,20 / 20,4425211,2020-01-08 11:29:31:885,0.4209,-0.0944,10.6772,-0.0029,0.0288,9.8065,0.0088,0.0025,-0.1577,-28.81,-29.0,24.81,337.27,-83.34,-151.4
44253,52.035225,-0.637636,130.32,24.35,4,114.89,20 / 21,4425311,2020-01-08 11:29:31:985,-1.8437,-1.0296,10.4747,0.0206,0.0044,9.8066,0.0707,-0.0938,0.0275,-27.69,-29.19,24.44,337.7,-83.35,-150.78
44254,52.035225,-0.637636,130.32,24.35,4,114.89,20 / 21,4425410,2020-01-08 11:29:32:084,0.0137,1.3377,8.7758,0.0105,-0.0224,9.8066,0.102,0.057,-0.0034,-28.31,-30.19,23.94,337.49,-83.43,-150.93
44255,52.035225,-0.637636,130.32,24.35,4,114.89,20 / 21,4425510,2020-01-08 11:29:32:184,1.2631,4.1119,9.2751,0.0055,0.0371,9.8066,-0.0122,0.3094,-0.1973,-28.25,-30.0,24.25,337.64,-83.44,-150.8
44256,52.035225,-0.637636,130.32,24.35,4,114.89,20 / 21,4425611,2020-01-08 11:29:32:285,-1.6686,-0.5347,9.3254,0.0274,0.0183,9.8065,-0.0506,0.2841,-0.1317,-26.75,-29.44,25.06,339.96,-83.52,-150.97
44257,52.035225,-0.637636,130.32,24.35,4,114.89,20 / 21,4425711,2020-01-08 11:29:32:385,1.7818,1.817,9.608,-0.0214,0.0072,9.8066,-0.1052,0.1713,0.0005,-26.12,-29.25,22.75,339.26,-83.58,-150.22
44258,52.035225,-0.637636,130.32,24.35,4,114.89,20 / 21,4425811,2020-01-08 11:29:32:485,-0.9966,0.872,9.0188,0.0295,0.018,9.8066,-0.0321,-0.1783,0.0141,-26.69,-28.94,22.5,338.39,-83.65,-150.0
44259,52.035225,-0.637636,130.32,24.35,4,114.89,20 / 21,4425911,2020-01-08 11:29:32:585,0.3488,-0.4426,9.3731,-0.0026,-0.0125,9.8065,-0.1555,-0.0107,0.1027,-27.87,-28.75,21.56,335.63,-83.64,-150.26
44260,52.035225,-0.637636,130.32,24.35,4,114.89,20 / 21,4426011,2020-01-08 11:29:32:685,-3.8642,-0.458,8.4485,0.0541,-0.0053,9.8064,-0.1978,0.0263,0.2101,-27.5,-28.44,22.56,335.12,-83.46,-152.99
44261,52.035225,-0.637636,130.32,24.35,4,114.89,20 / 21,4426110,2020-01-08 11:29:32:784,4.4573,2.3648,9.6259,-0.0705,0.0187,9.8063,-0.2821,-0.0399,0.2553,-27.06,-26.94,23.31,334.42,-83.62,-153.77
44262,52.035225,-0.637636,130.32,24.35,4,114.89,20 / 21,4426210,2020-01-08 11:29:32:884,0.8006,0.9532,10.8411,0.048,0.0477,9.8063,-0.0997,-0.3813,0.1309,-27.31,-27.31,23.56,335.95,-83.75,-153.66
44263,52.035225,-0.637636,130.32,24.35,4,114.89,20 / 21,4426311,2020-01-08 11:29:32:985,-3.6017,-2.2348,9.5534,-0.0205,-0.0494,9.8064,-0.031,-0.5496,0.2786,-28.0,-27.94,23.69,337.28,-83.48,-151.28
44264,52.035225,-0.637636,130.32,24.35,4,114.89,20 / 21,4426411,2020-01-08 11:29:33:085,-1.6317,-1.0661,8.673,0.0234,0.0078,9.8065,-0.1,-0.3735,0.2845,-27.19,-28.19,23.0,335.38,-83.66,-152.83
44265,52.035225,-0.637636,130.32,24.35,4,114.89,20 / 21,4426510,2020-01-08 11:29:33:184,-0.0282,0.2374,10.5234,-0.0322,-0.0165,9.8065,-0.1486,-0.2444,0.1885,-27.06,-27.94,22.31,334.78,-83.64,-152.08
44266,52.035225,-0.637636,130.32,24.35,4,114.89,20 / 21,4426610,2020-01-08 11:29:33:284,0.8793,2.3188,10.0444,0.0167,-0.0153,9.8065,0.0024,-0.1808,0.0883,-27.87,-29.31,22.31,334.42,-83.61,-151.36
44267,52.035225,-0.637636,130.32,24.35,4,114.89,20 / 21,4426711,2020-01-08 11:29:33:385,-1.2965,-1.9716,10.9747,-0.0006,-0.0534,9.8064,0.0338,-0.2565,0.1626,-28.62,-29.12,22.0,332.7,-83.63,-152.02
44268,52.035225,-0.637636,130.32,24.35,4,114.89,20 / 21,4426811,2020-01-08 11:29:33:485,1.6498,1.0974,10.0005,0.0082,-0.0064,9.8066,0.1041,0.0405,-0.0573,-28.56,-29.12,23.19,334.53,-83.43,-151.54
44269,52.035225,-0.637636,130.32,24.35,4,114.89,20 / 21,4426911,2020-01-08 11:29:33:585,-2.6028,-1.4465,10.4336,0.0159,-0.0069,9.8066,-0.0046,0.2767,-0.2535,-27.44,-28.81,23.31,338.03,-83.54,-150.3
44270,52.035225,-0.637636,130.32,24.35,4,114.89,20 / 21,4427011,2020-01-08 11:29:33:685,-1.4018,0.104,9.2126,-0.0151,-0.0337,9.8065,0.1063,0.362,-0.1946,-27.0,-28.62,22.88,338.22,-83.58,-150.13
44271,52.035225,-0.637636,130.32,24.35,4,114.89,20 / 21,4427110,2020-01-08 11:29:33:784,-1.4971,-0.8023,10.2258,0.0339,0.0186,9.8066,0.0848,0.3429,-0.1286,-27.31,-28.5,23.0,336.12,-83.68,-152.16
44272,52.035225,-0.637636,130.32,24.35,4,114.89,19 / 19,4427215,2020-01-08 11:29:33:889,-0.0795,0.4955,9.5363,-0.0062,-0.0306,9.8065,0.0149,0.0506,-0.1565,-27.12,-28.37,22.69,338.38,-83.45,-150.01
44273,52.035225,-0.637636,130.32,24.35,4,114.89,19 / 19,4427311,2020-01-08 11:29:33:985,-0.2819,-1.2799,10.614,0.0135,-0.0265,9.8065,0.0246,0.1021,-0.0052,-27.75,-28.12,23.0,336.63,-83.27,-150.56
44274,52.035225,-0.637636,130.32,24.35,4,114.89,19 / 19,4427410,2020-01-08 11:29:34:084,-1.3374,-2.4297,9.5932,0.016,-0.0159,9.8066,-0.0839,0.2204,-0.081,-28.06,-27.94,22.94,337.21,-83.22,-150.02
44275,52.035225,-0.637636,130.32,24.35,4,114.89,19 / 19,4427511,2020-01-08 11:29:34:185,-0.0155,-1.1057,10.0801,0.0036,0.0499,9.8064,-0.0153,0.0729,-0.0768,-28.12,-28.06,23.06,337.24,-83.44,-150.06
44276,52.035225,-0.637636,130.32,24.35,4,114.89,19 / 19,4427610,2020-01-08 11:29:34:284,-0.5875,-0.6453,9.8362,-0.0018,0.0202,9.8066,-0.0591,-0.1499,0.0289,-28.37,-27.94,23.44,337.89,-83.39,-149.46
44277,52.035225,-0.637636,130.32,24.35,4,114.89,19 / 19,4427710,2020-01-08 11:29:34:384,0.5432,0.7869,10.2226,0.0089,-0.0128,9.8066,-0.0615,-0.1811,0.1073,-28.37,-27.44,23.69,339.57,-83.45,-149.24
44278,52.035225,-0.637636,130.32,24.35,4,114.89,19 / 19,4427810,2020-01-08 11:29:34:484,-0.6614,1.3113,7.4556,0.0324,0.0135,9.8065,-0.1824,0.0732,0.1131,-28.31,-27.81,22.94,336.52,-83.4,-150.71
44279,52.035225,-0.637636,130.32,24.35,4,114.89,19 / 19,4427911,2020-01-08 11:29:34:585,0.5279,-0.8431,10.7793,0.0632,0.0156,9.8063,-0.2177,-0.1745,0.0287,-29.12,-27.75,22.63,337.07,-83.41,-149.27
44280,52.035225,-0.637636,130.32,24.35,4,114.89,19 / 19,4428011,2020-01-08 11:29:34:685,-1.3886,-1.1995,9.7049,0.0404,0.0024,9.8065,-0.1047,-0.071,0.1743,-28.81,-27.94,23.0,333.73,-83.44,-152.34
44281,52.035225,-0.637636,130.32,24.35,4,114.89,19 / 19,4428110,2020-01-08 11:29:34:784,2.8535,1.0756,10.1651,0.0387,0.0251,9.8065,-0.016,-0.2495,0.1407,-28.37,-27.56,22.88,333.88,-83.42,-153.14
44282,52.035225,-0.637636,130.32,24.35,4,114.89,19 / 19,4428212,2020-01-08 11:29:34:886,-0.0168,-1.0591,11.5571,-0.0505,0.0122,9.8065,-0.0146,-0.1169,0.0619,-28.56,-27.5,22.94,332.91,-83.3,-153.12
44283,52.035225,-0.637636,130.32,24.35,4,114.89,19 / 19,4428311,2020-01-08 11:29:34:985,0.0206,0.7879,9.0936,-0.0061,-0.0043,9.8065,-0.1684,0.0659,-0.0477,-28.94,-27.69,22.88,334.54,-83.36,-151.57
44284,52.035225,-0.637636,130.32,24.35,4,114.89,19 / 19,4428411,2020-01-08 11:29:35:085,1.0655,0.7035,9.9368,-0.0389,0.0278,9.8065,-0.2029,-0.0227,0.1105,-29.12,-27.37,23.75,337.84,-83.47,-149.87
44285,52.035225,-0.637636,130.32,24.35,4,114.89,19 / 19,4428511,2020-01-08 11:29:35:185,1.415,1.7736,10.4304,-0.0558,-0.0114,9.8064,-0.1474,-0.228,0.3445,-28.62,-27.87,22.69,335.58,-83.37,-150.62
44286,52.035225,-0.637636,130.32,24.35,4,114.89,19 / 19,4428611,2020-01-08 11:29:35:285,-1.6338,-2.0784,9.9982,-0.0276,-0.0364,9.8065,-0.0289,-0.3088,0.0948,-30.31,-27.31,22.75,333.88,-83.26,-151.32
44287,52.035225,-0.637636,130.32,24.35,4,114.89,19 / 19,4428711,2020-01-08 11:29:35:385,0.2466,1.9298,9.6164,-0.0056,-0.0214,9.8066,0.0232,-0.1887,0.1502,-29.5,-26.81,22.44,333.5,-83.25,-151.29
44288,52.035225,-0.637636,130.32,24.35,4,114.89,19 / 19,4428811,2020-01-08 11:29:35:485,0.8475,0.823,9.1324,-0.0079,-0.0237,9.8065,0.0706,-0.0359,0.1752,-29.62,-26.69,22.25,331.38,-83.39,-152.42
44289,52.035225,-0.637636,130.32,24.35,4,114.89,19 / 19,4428910,2020-01-08 11:29:35:584,0.2215,1.1169,9.9528,-0.007,0.0119,9.8066,0.0575,-0.0858,-0.0623,-29.87,-25.81,21.81,331.49,-83.46,-152.43
44290,52.035225,-0.637636,130.32,24.35,4,114.89,19 / 19,4429010,2020-01-08 11:29:35:684,-0.1327,-0.0057,10.7402,0.0287,-0.0054,9.8065,0.1271,-0.0966,-0.0427,-30.56,-25.37,22.19,331.48,-83.39,-151.64
44291,52.035225,-0.637636,130.32,24.35,4,114.89,19 / 19,4429110,2020-01-08 11:29:35:784,-1.163,-0.3549,8.1776,-0.0409,-0.0146,9.8065,0.07,0.0414,0.0129,-31.19,-25.62,21.5,333.28,-83.5,-149.94
44292,52.035225,-0.637636,130.32,24.35,4,114.89,19 / 19,4429210,2020-01-08 11:29:35:884,-2.1978,-3.2341,10.2234,0.0328,0.0114,9.8065,0.0855,0.0136,-0.1552,-31.06,-25.5,21.88,333.27,-83.52,-150.03
44293,52.035225,-0.637636,130.32,24.35,4,114.89,19 / 19,4429311,2020-01-08 11:29:35:985,0.3502,2.6165,8.785,0.0114,-0.046,9.8065,0.0673,0.2717,-0.2041,-32.5,-25.12,21.44,330.61,-83.38,-150.38
44294,52.035225,-0.637636,130.32,24.35,4,114.89,19 / 20,4429411,2020-01-08 11:29:36:085,0.8071,1.1908,10.4525,0.0126,0.0076,9.8066,-0.0024,0.3022,-0.0634,-32.81,-25.31,21.5,330.8,-83.44,-150.72
44295,52.035225,-0.637636,130.32,24.35,4,114.89,19 / 20,4429511,2020-01-08 11:29:36:185,-1.4501,0.1737,8.8265,0.0584,-0.0093,9.8064,-0.0774,0.3799,-0.0278,-33.31,-25.5,22.63,329.82,-83.41,-152.83
44296,52.035225,-0.637636,130.32,24.35,4,114.89,19 / 20,4429611,2020-01-08 11:29:36:285,3.6084,2.8408,10.7697,0.0079,0.032,9.8065,-0.1036,0.17,-0.0773,-33.06,-25.31,22.94,332.67,-83.54,-150.21
44297,52.035225,-0.637636,130.32,24.35,4,114.89,19 / 20,4429711,2020-01-08 11:29:36:385,-1.846,0.9141,7.2717,0.065,-0.0208,9.8064,-0.0372,0.0752,-0.1106,-33.12,-24.81,22.56,333.55,-83.38,-149.34
44298,52.035225,-0.637636,130.32,24.35,4,114.89,19 / 20,4429811,2020-01-08 11:29:36:485,1.447,2.6669,10.6589,0.0223,0.0029,9.8066,0.0139,0.3112,0.0593,-32.19,-24.62,22.5,334.25,-83.39,-149.48
44299,52.035225,-0.637636,130.32,24.35,4,114.89,19 / 20,4429911,2020-01-08 11:29:36:585,-1.5505,-1.588,10.2357,0.0695,0.0677,9.8061,0.0281,-0.0157,-0.0456,-32.06,-24.5,23.0,333.28,-83.59,-150.53
