,GPS LATITUDE (degrees), GPS LONGITUDE (degrees), GPS ALTITUDE (m), GPS SPEED (Kmh), GPS ACCURACY (m), GPS ORIENTATION (Â°),GPS SATELLITES IN RANGE, TIME SINCE START (ms), DATE (YYYY-MO-DD HH-MI-SS_SSS), ACCELEROMETER X (m/s²) , ACCELEROMETER Y (m/s²), ACCELEROMETER Z (m/s²), GRAVITY X (m/s²), GRAVITY Y (m/s²), GRAVITY Z (m/s²), GYROSCOPE Yaw (rad/s), GYROSCOPE Pitch (rad/s), GYROSCOPE Roll (rad/s), MAGNETIC FIELD X (Î¼T), MAGNETIC FIELD Y (Î¼T), MAGNETIC FIELD Z (Î¼T), ORIENTATION (Yaw) (Â°), ORIENTATION (Pitch) (Â°), ORIENTATION (Roll ) (Â°)
83680,52.53598,-1.445165,144.8,8.57,2,31.83,24 / 24,8181610,2019-09-08 14:23:20:849,-1.5933,0.3129,9.107,0.017,-0.0401,9.8065,-0.0697,0.2699,-0.0741,2.19,-37.5,-1.87,165.38,-80.9,179.04
83681,52.536488,-1.444863,144.92,6.91,3,316.04,24 / 24,8181710,2019-09-08 14:23:20:949,-1.1899,0.6907,9.9138,0.0038,-0.0249,9.8065,-0.1439,0.2078,0.0136,2.0,-37.06,-2.19,165.54,-80.74,178.97
83682,52.536488,-1.444863,144.92,6.91,3,316.04,24 / 24,8181809,2019-09-08 14:23:21:048,-2.1414,0.7682,10.7283,-0.0279,0.0686,9.8063,-0.1457,0.0946,0.1149,2.63,-37.94,-2.12,159.15,-81.11,-179.8
83683,52.536488,-1.444863,144.92,6.91,3,316.04,24 / 24,8181910,2019-09-08 14:23:21:149,-0.1446,0.7833,9.2273,-0.0087,0.0846,9.8063,-0.1465,0.1266,0.0257,2.31,-38.31,-2.19,166.65,-80.6,-178.66
83684,52.536488,-1.444863,144.92,6.91,3,316.04,24 / 24,8182010,2019-09-08 14:23:21:249,0.3824,-0.1176,9.1374,0.0325,-0.0543,9.8064,0.1579,0.1741,-0.0462,2.88,-38.44,-1.19,158.17,-80.51,-177.53
83685,52.536488,-1.444863,144.92,6.91,3,316.04,24 / 24,8182110,2019-09-08 14:23:21:349,-0.2115,0.4794,9.4893,0.0233,-0.0562,9.8064,0.041,0.1047,0.0548,3.31,-38.44,-0.44,154.27,-80.77,-177.54
83686,52.536488,-1.444863,144.92,6.91,3,316.04,24 / 24,8182210,2019-09-08 14:23:21:449,-0.9335,0.5217,9.9804,-0.0475,0.025,9.8064,-0.1016,0.033,0.0395,2.69,-37.44,0.5,149.92,-80.47,-178.19
83687,52.536488,-1.444863,144.92,6.91,3,316.04,24 / 24,8182310,2019-09-08 14:23:21:549,-0.5054,-0.5576,10.0033,-0.0314,0.0456,9.8065,-0.0474,0.121,-0.0072,3.25,-36.56,1.13,149.81,-80.53,-177.74
83688,52.536488,-1.444863,144.92,6.91,3,316.04,24 / 24,8182410,2019-09-08 14:23:21:649,0.9431,0.682,9.4099,0.0384,-0.0235,9.8065,-0.0265,0.2469,-0.0139,2.75,-36.0,0.63,148.75,-80.58,-178.28
83689,52.536488,-1.444863,144.92,6.91,3,316.04,24 / 24,8182510,2019-09-08 14:23:21:749,-0.0394,0.8782,10.7025,0.0426,-0.0214,9.8065,0.0533,0.0408,0.1159,3.75,-35.5,1.31,139.78,-80.82,-177.4
83690,52.536488,-1.444863,144.92,6.91,3,316.04,24 / 24,8182610,2019-09-08 14:23:21:849,-0.964,0.9649,10.5478,-0.0409,0.064,9.8063,-0.0203,0.0125,-0.0288,4.38,-36.56,0.31,147.25,-80.73,-176.42
83691,52.536488,-1.444863,144.92,6.91,3,316.04,24 / 24,8182710,2019-09-08 14:23:21:949,-1.0551,1.4457,9.8651,-0.0312,0.0448,9.8064,0.0316,-0.0364,-0.0022,3.5,-35.81,0.63,143.07,-80.24,-175.86
83692,52.536488,-1.444863,144.92,6.91,3,316.04,24 / 24,8182810,2019-09-08 14:23:22:049,-0.1181,-0.1062,9.4103,0.015,-0.0245,9.8066,-0.0007,-0.0319,0.0471,4.25,-35.56,1.25,143.49,-80.16,-175.26
83693,52.536488,-1.444863,144.92,6.91,3,316.04,24 / 24,8182910,2019-09-08 14:23:22:149,-0.5675,0.7101,9.7795,0.015,-0.0268,9.8066,-0.0683,0.0794,-0.0249,3.81,-35.62,0.0,147.98,-80.29,-175.55
83694,52.536488,-1.444863,144.92,6.91,3,316.04,24 / 24,8183009,2019-09-08 14:23:22:248,-0.676,0.3428,9.757,-0.0219,0.0081,9.8065,-0.1149,-0.0072,0.0733,3.56,-35.37,0.5,141.89,-80.32,-175.95
83695,52.536488,-1.444863,144.92,6.91,3,316.04,24 / 24,8183110,2019-09-08 14:23:22:349,0.7711,-0.9823,9.8757,-0.012,0.007,9.8066,-0.103,0.0071,-0.0121,3.44,-35.87,-0.31,154.5,-80.26,-176.41
83696,52.536488,-1.444863,144.92,6.91,3,316.04,24 / 24,8183210,2019-09-08 14:23:22:449,0.0351,0.4386,9.9281,-0.0128,0.0242,9.8065,0.0134,0.0648,-0.0638,4.13,-36.31,-0.31,147.97,-80.17,-176.58
83697,52.536488,-1.444863,144.92,6.91,3,316.04,24 / 24,8183310,2019-09-08 14:23:22:549,0.598,0.4388,9.6935,-0.0168,0.0043,9.8066,0.0793,0.0007,0.043,3.75,-36.69,-0.37,148.39,-80.18,-177.4
83698,52.536488,-1.444863,144.92,6.91,3,316.04,24 / 24,8183410,2019-09-08 14:23:22:649,0.9268,0.7352,9.8679,0.0045,-0.0036,9.8065,-0.003,0.0908,-0.0742,4.0,-37.06,0.56,144.03,-80.07,-177.54
83699,52.536488,-1.444863,144.92,6.91,3,316.04,24 / 24,8183510,2019-09-08 14:23:22:749,0.0723,1.7443,10.3824,-0.0002,-0.0231,9.8065,0.0387,-0.0046,0.032,4.44,-37.06,0.19,148.31,-80.08,-178.49
83700,52.536488,-1.444863,144.92,6.91,3,316.04,24 / 24,8183610,2019-09-08 14:23:22:849,0.4288,-0.4305,10.3015,-0.0259,0.0127,9.8066,0.0267,0.0492,-0.0044,4.5,-36.37,-0.12,141.45,-80.1,-179.04
83701,52.536488,-1.444863,144.92,6.91,3,316.04,23 / 24,8183710,2019-09-08 14:23:22:949,-0.0182,1.0927,9.7394,-0.0293,0.0058,9.8066,0.0153,-0.0038,0.0771,4.81,-37.12,-0.12,142.03,-79.96,179.51
83702,52.536488,-1.444863,144.92,6.91,3,316.04,23 / 24,8183810,2019-09-08 14:23:23:049,0.3889,-0.4731,9.4352,0.0097,-0.0332,9.8065,0.0054,0.056,-0.0279,4.06,-37.56,0.13,148.21,-80.07,178.51
83703,52.536488,-1.444863,144.92,6.91,3,316.04,23 / 24,8183910,2019-09-08 14:23:23:149,-0.3428,0.3576,10.1473,0.0049,-0.0135,9.8066,0.0014,0.0309,-0.0376,4.44,-37.31,0.25,147.42,-80.03,177.85
83704,52.536488,-1.444863,144.92,6.91,3,316.04,23 / 24,8184010,2019-09-08 14:23:23:249,-0.4034,0.7129,9.6227,-0.0178,-0.0022,9.8066,-0.0213,-0.0433,-0.0247,4.31,-38.19,0.0,147.98,-80.02,177.17
83705,52.536488,-1.444863,144.92,6.91,3,316.04,23 / 24,8184110,2019-09-08 14:23:23:349,-0.2221,1.1108,9.8993,-0.0079,-0.0015,9.8066,-0.031,-0.0194,-0.0933,5.75,-39.37,0.0,136.92,-79.98,176.24
83706,52.536488,-1.444863,144.92,6.91,3,316.04,23 / 24,8184210,2019-09-08 14:23:23:449,-0.2303,0.0567,9.7738,-0.0058,-0.0059,9.8066,-0.0021,-0.0311,0.0135,5.13,-39.44,1.69,132.57,-79.98,175.42
83707,52.536488,-1.444863,144.92,6.91,3,316.04,23 / 24,8184310,2019-09-08 14:23:23:549,0.7746,-0.4507,9.6729,-0.0037,0.0011,9.8065,0.0131,0.0106,-0.0096,5.13,-38.06,1.94,131.48,-79.94,175.12
83708,52.536488,-1.444863,144.92,6.91,3,316.04,23 / 24,8184410,2019-09-08 14:23:23:649,-0.3789,0.7929,9.7594,-0.0074,0.0198,9.8066,-0.0171,0.0976,-0.0355,4.19,-36.12,1.81,137.06,-79.77,175.12
83709,52.536488,-1.444863,144.92,6.91,3,316.04,23 / 24,8184510,2019-09-08 14:23:23:749,0.4877,1.0911,9.8431,-0.0088,0.0179,9.8066,-0.0089,-0.0125,0.07,4.44,-36.12,0.81,142.51,-79.75,174.9
83710,52.536488,-1.444863,144.92,6.91,3,316.04,23 / 24,8184610,2019-09-08 14:23:23:849,0.1549,-0.8049,9.5554,0.0114,-0.0298,9.8066,0.0537,-0.0056,0.0571,4.56,-36.94,0.13,141.26,-79.73,175.54
83711,52.536488,-1.444863,144.92,6.91,3,316.04,24 / 24,8184710,2019-09-08 14:23:23:949,-0.0996,-0.1135,10.0899,0.0273,-0.0184,9.8066,0.0595,0.0452,0.0,5.0,-37.37,1.25,136.27,-79.91,175.73
83712,52.536488,-1.444863,144.92,6.91,3,316.04,24 / 24,8184810,2019-09-08 14:23:24:049,1.1482,1.1825,10.0211,-0.0103,0.0305,9.8065,-0.0397,-0.0587,0.0295,4.56,-37.62,1.38,137.73,-79.81,176.25
83713,52.536488,-1.444863,144.92,6.91,3,316.04,24 / 24,8184910,2019-09-08 14:23:24:149,0.3417,-0.8607,8.4624,-0.0365,0.0478,9.8065,-0.3194,0.1136,0.0066,4.38,-37.0,0.81,144.75,-79.45,176.86
83714,52.536488,-1.444863,144.92,6.91,3,316.04,24 / 24,8185010,2019-09-08 14:23:24:249,-0.1857,0.5068,10.7192,0.0497,-0.0521,9.8064,0.417,0.055,-0.0547,3.81,-37.56,1.38,144.99,-79.69,177.47
83715,52.536488,-1.444863,144.92,6.91,3,316.04,24 / 24,8185110,2019-09-08 14:23:24:349,0.4943,1.7762,10.6735,0.0473,-0.0715,9.8062,0.3606,-0.0728,-0.0128,4.63,-36.19,2.13,130.75,-79.7,176.99
83716,52.536488,-1.444863,144.92,6.91,3,316.04,24 / 24,8185210,2019-09-08 14:23:24:449,-0.4952,-0.7483,10.0215,-0.0317,0.0077,9.8066,-0.072,-0.0198,0.0703,4.19,-36.25,2.0,138.12,-79.57,176.68
83717,52.536488,-1.444863,144.92,6.91,3,316.04,24 / 24,8185310,2019-09-08 14:23:24:549,0.2314,-1.4456,9.3492,-0.0034,0.0009,9.8066,-0.0252,0.0476,0.0326,4.19,-35.06,0.88,142.64,-79.47,175.84
83718,52.536488,-1.444863,144.92,6.91,3,316.04,24 / 24,8185410,2019-09-08 14:23:24:649,0.4118,-0.5768,9.4227,0.0095,-0.0221,9.8065,0.0562,0.0047,0.0096,4.25,-35.62,0.88,143.44,-79.5,175.46
83719,52.536488,-1.444863,144.92,6.91,3,316.04,24 / 24,8185510,2019-09-08 14:23:24:749,0.458,0.3895,9.3891,-0.0014,-0.0267,9.8066,0.1018,-0.0105,0.0435,3.94,-35.75,-0.25,146.59,-79.76,174.69
83720,52.536488,-1.444863,144.92,6.91,3,316.04,24 / 24,8185610,2019-09-08 14:23:24:849,0.0468,-0.4501,9.2363,-0.0083,-0.0086,9.8065,-0.0393,0.0665,-0.0469,4.88,-36.12,0.31,139.78,-79.79,174.17
83721,52.536488,-1.444863,144.92,6.91,3,316.04,24 / 24,8185710,2019-09-08 14:23:24:949,0.1186,-0.2887,9.3076,-0.0166,-0.0111,9.8066,-0.0662,-0.0076,0.0257,4.69,-35.81,0.38,139.53,-79.75,173.15
83722,52.536488,-1.444863,144.92,6.91,3,316.04,24 / 24,8185812,2019-09-08 14:23:25:051,0.2362,-1.9388,8.5535,0.0245,-0.0226,9.8065,0.1034,0.0004,0.0337,5.0,-36.12,0.56,134.84,-79.76,172.84
83723,52.536488,-1.444863,144.92,6.91,3,316.04,24 / 24,8185910,2019-09-08 14:23:25:149,1.5657,-0.4627,8.6241,0.0382,-0.0322,9.8065,0.1123,-0.0499,0.0697,4.88,-36.0,0.0,138.68,-80.1,173.77
83724,52.536488,-1.444863,144.92,6.91,3,316.04,24 / 24,8186010,2019-09-08 14:23:25:249,1.1662,-2.8112,9.2614,0.0394,-0.0889,9.8061,0.0688,0.0693,-0.0048,4.88,-36.37,-0.06,138.88,-79.96,173.13
83725,52.536488,-1.444863,144.92,6.91,3,316.04,24 / 24,8186109,2019-09-08 14:23:25:348,0.5223,-2.2026,10.2703,0.0545,-0.0577,9.8062,0.151,0.0099,-0.0071,5.13,-36.87,-0.06,137.77,-80.48,172.27
83726,52.536488,-1.444863,144.92,6.91,3,316.04,24 / 24,8186210,2019-09-08 14:23:25:449,-1.9795,1.6089,11.1659,-0.049,0.0848,9.8061,0.2269,0.0868,-0.0003,4.81,-36.81,1.06,137.58,-79.41,174.3
83727,52.536488,-1.444863,144.92,6.91,3,316.04,24 / 24,8186310,2019-09-08 14:23:25:549,0.539,-1.3322,10.0686,-0.0269,0.0318,9.8065,0.0956,0.0473,0.0376,4.56,-36.69,0.81,139.73,-78.83,175.29
83728,52.536488,-1.444863,144.92,6.91,3,316.04,24 / 24,8186410,2019-09-08 14:23:25:649,-0.8846,-1.3034,8.5923,0.0398,-0.0433,9.8064,-0.0095,0.0377,0.0944,4.75,-36.87,1.56,135.91,-78.61,175.98
83729,52.536488,-1.444863,144.92,6.91,3,316.04,24 / 24,8186510,2019-09-08 14:23:25:749,0.0285,-0.6616,10.4252,0.0718,-0.066,9.8061,-0.0244,0.0252,0.0453,4.88,-36.75,1.0,138.18,-79.48,177.08
83730,52.536488,-1.444863,144.92,6.91,3,316.04,24 / 24,8186610,2019-09-08 14:23:25:849,0.3728,0.4827,10.2769,-0.0202,0.0238,9.8066,-0.0936,0.0314,0.0356,5.25,-36.81,1.0,136.85,-79.93,177.65
83731,52.536488,-1.444863,144.92,6.91,3,316.04,24 / 24,8186710,2019-09-08 14:23:25:949,0.554,-0.0447,9.1698,-0.0201,-0.0032,9.8065,-0.0072,0.0195,0.0789,5.0,-36.62,1.0,136.55,-79.97,177.24
83732,52.536488,-1.444863,144.92,6.91,3,316.04,24 / 24,8186810,2019-09-08 14:23:26:049,0.929,-0.9735,9.5978,0.0022,0.0009,9.8066,-0.076,0.058,0.0274,5.75,-36.5,1.25,130.72,-79.91,178.2
83733,52.536488,-1.444863,144.92,6.91,3,316.04,24 / 24,8186910,2019-09-08 14:23:26:149,0.323,-0.1924,10.2453,-0.0009,-0.011,9.8066,-0.015,0.1116,0.0248,5.38,-36.37,0.75,135.88,-79.95,177.84
83734,52.536488,-1.444863,144.92,6.91,3,316.04,24 / 24,8187010,2019-09-08 14:23:26:249,0.8068,-1.5486,9.7154,0.0081,-0.0045,9.8066,0.0379,0.1215,0.0141,5.94,-36.62,1.63,125.62,-79.93,177.34
83735,52.536488,-1.444863,144.92,6.91,3,316.04,24 / 24,8187110,2019-09-08 14:23:26:349,-0.3499,-0.5324,9.8473,-0.0206,0.0208,9.8065,-0.0335,0.1295,-0.0611,5.56,-37.19,0.94,131.96,-79.77,177.76
83736,52.536488,-1.444863,144.92,6.91,3,316.04,24 / 24,8187210,2019-09-08 14:23:26:449,0.4065,-1.7187,9.0062,0.016,-0.002,9.8066,-0.0911,0.1591,0.011,5.5,-36.56,2.13,126.38,-79.75,177.4
83737,52.536488,-1.444863,144.92,6.91,3,316.04,24 / 24,8187310,2019-09-08 14:23:26:549,0.8326,-1.2494,9.8642,0.0051,0.0058,9.8066,-0.1312,0.0831,0.0227,5.81,-37.12,1.5,126.48,-79.82,178.23
83738,52.536488,-1.444863,144.92,6.91,3,316.04,24 / 24,8187410,2019-09-08 14:23:26:649,-0.1217,-0.3921,10.5026,0.0041,-0.0107,9.8065,0.1454,0.093,-0.0145,5.69,-36.75,1.63,126.53,-79.82,178.3
83739,52.536488,-1.444863,144.92,6.91,3,316.04,24 / 24,8187510,2019-09-08 14:23:26:749,-0.8064,-1.1974,10.2438,-0.0024,0.0162,9.8066,0.1428,0.1179,-0.0376,5.63,-36.31,2.25,126.7,-79.55,178.82
83740,52.536488,-1.444863,144.92,6.91,3,316.04,24 / 24,8187610,2019-09-08 14:23:26:849,-0.0521,-1.013,9.3349,-0.0145,0.0032,9.8066,-0.0677,0.0435,0.0266,5.38,-36.81,2.81,128.48,-79.19,179.66
83741,52.536488,-1.444863,144.92,6.91,3,316.04,24 / 24,8187709,2019-09-08 14:23:26:948,0.7161,-1.0446,10.0525,-0.0018,0.0075,9.8066,-0.1173,0.0625,-0.0443,6.19,-37.19,2.69,124.09,-79.03,179.51
83742,52.536488,-1.444863,144.92,6.91,3,316.04,24 / 24,8187810,2019-09-08 14:23:27:049,-1.107,-1.2039,10.8065,0.0063,0.0064,9.8066,0.0895,0.0799,0.0008,5.69,-37.5,2.88,124.03,-79.08,179.83
83743,52.536488,-1.444863,144.92,6.91,3,316.04,24 / 24,8187910,2019-09-08 14:23:27:149,-0.2295,-0.0369,10.2427,-0.0334,0.0131,9.8065,-0.0236,0.0431,0.0484,5.63,-37.19,3.88,118.44,-78.86,-179.56
83744,52.536488,-1.444863,144.92,6.91,3,316.04,24 / 24,8188010,2019-09-08 14:23:27:249,1.7148,0.3167,8.7698,0.0529,-0.0201,9.8064,0.1032,0.1976,-0.149,5.88,-37.56,3.81,121.09,-78.58,-179.78
83745,52.536488,-1.444863,144.92,6.91,3,316.04,24 / 24,8188110,2019-09-08 14:23:27:349,-0.1838,-2.9741,9.1839,0.0841,-0.0567,9.8061,0.0532,0.2739,-0.2242,6.38,-36.69,5.25,109.72,-78.85,178.57
83746,52.536488,-1.444863,144.92,6.91,3,316.04,24 / 24,8188210,2019-09-08 14:23:27:449,0.2668,-1.0895,10.25,-0.0374,0.0316,9.8064,0.1771,0.1044,0.0268,6.25,-36.37,5.31,107.47,-78.78,177.04
83747,52.536488,-1.444863,144.92,6.91,3,316.04,24 / 24,8188309,2019-09-08 14:23:27:548,0.9243,-2.098,10.232,-0.0083,0.0042,9.8066,0.1211,0.036,0.063,6.44,-36.69,5.19,109.98,-78.75,178.11
83748,52.536488,-1.444863,144.92,6.91,3,316.04,24 / 24,8188410,2019-09-08 14:23:27:649,1.5963,-0.7081,9.6202,-0.0199,-0.0009,9.8066,-0.0674,0.1922,-0.1433,6.75,-36.31,4.63,105.55,-78.76,178.23
83749,52.536488,-1.444863,144.92,6.91,3,316.04,24 / 24,8188510,2019-09-08 14:23:27:749,0.2494,-0.8937,9.5833,-0.0267,-0.0066,9.8066,-0.0497,0.0073,-0.0005,6.88,-36.5,5.13,105.19,-78.71,177.36
83750,52.536488,-1.444863,144.92,6.91,3,316.04,24 / 24,8188610,2019-09-08 14:23:27:849,-0.0735,-0.4422,11.2024,-0.0032,0.0177,9.8066,0.0873,0.07,0.0949,7.88,-36.37,5.44,103.3,-78.7,177.73
83751,52.536488,-1.444863,144.92,6.91,3,316.04,25 / 25,8188710,2019-09-08 14:23:27:949,-0.8514,-1.3215,9.9785,0.0043,0.0409,9.8065,0.071,0.1984,-0.0019,7.06,-36.37,5.56,100.56,-78.55,-179.59
83752,52.536488,-1.444863,144.92,6.91,3,316.04,25 / 25,8188810,2019-09-08 14:23:28:049,0.5621,-0.0152,9.7185,-0.0123,0.0197,9.8066,0.0533,0.1619,-0.0175,7.06,-36.37,6.69,94.63,-78.36,-178.57
83753,52.536488,-1.444863,144.92,6.91,3,316.04,25 / 25,8188910,2019-09-08 14:23:28:149,-0.5072,-1.2263,10.0658,0.0073,0.0078,9.8066,0.0261,0.1403,-0.02,6.44,-36.37,6.69,97.09,-78.17,-177.56
83754,52.536488,-1.444863,144.92,6.91,3,316.04,25 / 25,8189010,2019-09-08 14:23:28:249,0.7394,-0.4537,10.3589,0.0046,-0.0016,9.8066,0.016,0.1476,-0.0095,7.25,-36.5,7.06,96.11,-78.26,-177.46
83755,52.536488,-1.444863,144.92,6.91,3,316.04,25 / 25,8189110,2019-09-08 14:23:28:349,-0.0218,-1.1043,10.1046,0.0188,-0.0032,9.8066,0.1008,0.1081,0.0086,7.0,-36.12,6.75,95.21,-78.43,-177.53
83756,52.536488,-1.444863,144.92,6.91,3,316.04,25 / 25,8189210,2019-09-08 14:23:28:449,0.6985,-0.9297,9.0461,-0.0137,0.0004,9.8065,-0.1538,0.1371,-0.0752,7.38,-35.87,7.38,95.42,-78.46,-177.13
83757,52.536488,-1.444863,144.92,6.91,3,316.04,25 / 25,8189310,2019-09-08 14:23:28:549,0.1035,-0.9053,10.2298,-0.0252,0.0146,9.8065,-0.15,0.1604,-0.0546,6.94,-36.5,7.25,96.21,-78.3,-177.11
83758,52.536488,-1.444863,144.92,6.91,3,316.04,25 / 25,8189410,2019-09-08 14:23:28:649,-1.1242,-1.409,9.7666,-0.0177,0.014,9.8066,0.0352,0.1,0.1092,7.0,-36.06,7.81,88.01,-78.43,-177.06
83759,52.536488,-1.444863,144.92,6.91,3,316.04,25 / 25,8189510,2019-09-08 14:23:28:749,0.7538,-1.4573,9.9394,0.004,0.0281,9.8066,0.0029,0.2085,-0.0788,6.56,-36.44,7.63,89.99,-78.43,-175.08
83760,52.536488,-1.444863,144.92,6.91,3,316.04,25 / 25,8189610,2019-09-08 14:23:28:849,0.8802,-0.3452,9.6238,0.0283,0.0244,9.8066,-0.0509,0.125,-0.1275,7.63,-36.37,7.81,91.49,-78.53,-173.67
83761,52.536488,-1.444863,144.92,6.91,3,316.04,24 / 24,8189710,2019-09-08 14:23:28:949,1.0337,0.4042,10.2167,0.0246,0.0073,9.8066,0.0358,-0.0476,0.0106,6.31,-36.12,7.44,98.48,-78.59,-173.11
83762,52.536488,-1.444863,144.92,6.91,3,316.04,24 / 24,8189810,2019-09-08 14:23:29:049,0.1426,-0.8696,10.2115,-0.0278,-0.0056,9.8066,0.0151,0.055,-0.0655,6.75,-36.12,8.19,91.93,-78.53,-172.6
83763,52.536488,-1.444863,144.92,6.91,3,316.04,24 / 24,8189910,2019-09-08 14:23:29:149,0.3528,0.7276,10.368,0.003,-0.013,9.8066,0.0566,-0.0109,0.0575,5.88,-36.56,8.44,93.5,-78.28,-173.28
83764,52.536488,-1.444863,144.92,6.91,3,316.04,24 / 24,8190010,2019-09-08 14:23:29:249,1.4004,-1.0448,9.5648,-0.0044,-0.0066,9.8066,0.0776,0.0617,0.1028,6.75,-35.75,8.31,93.0,-78.1,-173.58
83765,52.536488,-1.444863,144.92,6.91,3,316.04,24 / 24,8190110,2019-09-08 14:23:29:349,-0.1615,0.3729,10.021,0.0468,-0.0078,9.8064,0.0578,-0.0436,0.1375,6.25,-36.44,8.44,92.17,-78.19,-173.44
83766,52.536488,-1.444863,144.92,6.91,3,316.04,24 / 24,8190210,2019-09-08 14:23:29:449,0.1477,0.0617,9.6266,0.0086,0.011,9.8066,0.0209,0.0187,0.0318,7.13,-35.44,9.0,84.81,-78.23,-172.74
83767,52.536488,-1.444863,144.92,6.91,3,316.04,24 / 24,8190310,2019-09-08 14:23:29:549,-0.4914,0.8764,10.6299,0.0211,0.0145,9.8066,0.1099,-0.0673,0.0897,6.38,-36.12,9.0,84.25,-78.56,-171.62
83768,52.536488,-1.444863,144.92,6.91,3,316.04,24 / 24,8190410,2019-09-08 14:23:29:649,1.0377,1.0198,10.2593,-0.0288,-0.006,9.8065,-0.0259,0.0083,-0.0105,6.38,-36.06,8.56,84.82,-78.66,-170.63
83769,52.536488,-1.444863,144.92,6.91,3,316.04,24 / 24,8190510,2019-09-08 14:23:29:749,-0.3204,0.9496,9.5595,-0.0353,-0.0069,9.8065,-0.0084,-0.014,0.0634,6.38,-36.37,9.06,86.14,-78.33,-170.91
83770,52.536488,-1.444863,144.92,6.91,3,316.04,24 / 24,8190610,2019-09-08 14:23:29:849,-0.3835,0.6896,9.2406,0.0188,0.0069,9.8066,0.0277,0.0022,0.0162,6.19,-35.5,8.56,85.82,-78.17,-170.46
83771,52.536797,-1.44584,144.83,9.59,2,277.35,25 / 25,8190710,2019-09-08 14:23:29:949,0.4784,0.206,9.3042,0.0624,0.0056,9.8064,0.0813,0.0163,0.0119,5.56,-35.94,8.69,87.53,-78.07,-170.84
83772,52.536797,-1.44584,144.83,9.59,2,277.35,25 / 25,8190809,2019-09-08 14:23:30:048,0.3874,0.696,10.0491,-0.0009,0.012,9.8066,-0.1343,-0.0249,0.0735,6.19,-35.94,9.0,86.04,-78.51,-170.17
83773,52.536797,-1.44584,144.83,9.59,2,277.35,25 / 25,8190910,2019-09-08 14:23:30:149,0.7163,2.2668,9.7554,-0.0068,0.0042,9.8066,-0.0489,-0.0654,0.0797,5.56,-36.56,8.56,88.19,-78.54,-169.41
83774,52.536797,-1.44584,144.83,9.59,2,277.35,25 / 25,8191010,2019-09-08 14:23:30:249,0.1764,0.2617,8.8892,-0.0172,-0.0088,9.8065,0.1073,-0.044,0.033,6.13,-35.75,8.69,86.82,-78.38,-170.04
83775,52.536797,-1.44584,144.83,9.59,2,277.35,25 / 25,8191110,2019-09-08 14:23:30:349,1.2617,1.5842,9.3931,0.0348,0.0307,9.8065,0.0004,-0.1032,0.1189,5.06,-36.62,9.06,87.49,-78.43,-168.94
83776,52.536797,-1.44584,144.83,9.59,2,277.35,25 / 25,8191210,2019-09-08 14:23:30:449,0.3615,2.1729,10.8328,0.0722,0.0161,9.8063,0.2034,-0.1164,0.0513,6.25,-35.81,8.38,94.23,-78.68,-168.48
83777,52.536797,-1.44584,144.83,9.59,2,277.35,25 / 25,8191310,2019-09-08 14:23:30:549,-2.1629,3.5348,12.9073,-0.1773,0.0093,9.805,0.5673,-0.2152,0.2512,5.0,-36.81,9.0,86.14,-79.13,-166.49
83778,52.536797,-1.44584,144.83,9.59,2,277.35,25 / 25,8191410,2019-09-08 14:23:30:649,4.5289,1.9549,9.9443,-0.1537,-0.0409,9.8053,-0.427,-0.193,-0.025,5.63,-36.31,7.88,98.94,-78.19,-165.74
83779,52.536797,-1.44584,144.83,9.59,2,277.35,25 / 25,8191510,2019-09-08 14:23:30:749,2.7599,-0.2647,7.1007,0.0637,-0.0117,9.8064,-0.2608,-0.0823,-0.0374,5.56,-36.31,7.88,96.49,-78.23,-168.39
83780,52.536797,-1.44584,144.83,9.59,2,277.35,25 / 25,8191610,2019-09-08 14:23:30:849,2.5494,1.3168,9.4621,-0.0095,-0.0001,9.8066,0.353,-0.2588,0.1159,5.81,-36.31,8.0,96.93,-78.02,-169.1
83781,52.536797,-1.44584,144.83,9.59,2,277.35,24 / 24,8191710,2019-09-08 14:23:30:949,-0.2671,1.231,11.7974,-0.0012,-0.029,9.8066,0.2112,-0.1229,-0.1018,6.25,-36.44,8.13,95.19,-78.0,-171.21
83782,52.536797,-1.44584,144.83,9.59,2,277.35,24 / 24,8191810,2019-09-08 14:23:31:049,2.4428,-1.7305,9.2015,0.0237,-0.048,9.8064,-0.1163,0.0724,-0.1398,5.88,-37.06,8.06,92.93,-78.26,-174.03
83783,52.536797,-1.44584,144.83,9.59,2,277.35,24 / 24,8191910,2019-09-08 14:23:31:149,-1.0911,4.0019,10.4674,-0.0148,-0.0037,9.8066,0.0168,-0.2579,0.0834,6.38,-37.44,7.94,94.85,-78.08,-173.02
83784,52.536797,-1.44584,144.83,9.59,2,277.35,24 / 24,8192010,2019-09-08 14:23:31:249,-0.6456,3.1328,8.3763,-0.0448,0.0153,9.8065,-0.2352,-0.285,0.1293,5.94,-36.69,7.81,93.6,-78.15,-174.0
83785,52.536797,-1.44584,144.83,9.59,2,277.35,24 / 24,8192110,2019-09-08 14:23:31:349,0.4064,1.0863,8.4376,0.0141,-0.0008,9.8066,-0.0918,-0.2058,0.0281,6.5,-36.62,7.38,95.49,-78.81,-176.78
83786,52.536797,-1.44584,144.83,9.59,2,277.35,24 / 24,8192210,2019-09-08 14:23:31:449,0.4136,-3.5854,8.8644,0.0221,-0.0342,9.8065,-0.0542,-0.3814,0.3848,6.06,-36.44,6.31,97.9,-79.49,-178.16
83787,52.536797,-1.44584,144.83,9.59,2,277.35,24 / 24,8192310,2019-09-08 14:23:31:549,2.3854,0.8647,10.8461,0.0636,0.0075,9.8064,-0.1035,-0.0723,0.1047,6.5,-36.37,5.56,94.9,-80.15,-176.93
83788,52.536797,-1.44584,144.83,9.59,2,277.35,24 / 24,8192410,2019-09-08 14:23:31:649,1.6755,1.7103,10.2683,0.0036,-0.0187,9.8066,0.3478,-0.0581,0.0306,6.38,-36.44,5.94,97.38,-79.63,-177.81
83789,52.536797,-1.44584,144.83,9.59,2,277.35,24 / 24,8192510,2019-09-08 14:23:31:749,-1.3437,1.5692,10.403,-0.1005,0.0021,9.8061,0.3511,-0.1278,0.0242,6.13,-36.69,6.5,92.41,-79.07,-178.9
83790,52.536797,-1.44584,144.83,9.59,2,277.35,24 / 24,8192610,2019-09-08 14:23:31:849,0.7516,0.9888,9.003,-0.0684,0.0313,9.8063,-0.2301,-0.1677,0.1259,6.88,-36.37,6.25,102.95,-78.25,-178.45
83791,52.536797,-1.44584,144.83,9.59,2,277.35,23 / 24,8192710,2019-09-08 14:23:31:949,1.6923,1.3562,9.2744,0.0793,-0.0035,9.8063,-0.221,-0.1111,0.0713,6.44,-36.0,5.13,111.89,-78.55,-177.61
83792,52.536797,-1.44584,144.83,9.59,2,277.35,23 / 24,8192810,2019-09-08 14:23:32:049,1.6082,1.382,9.2397,0.0424,-0.014,9.8065,0.0581,-0.1364,0.0191,5.5,-35.94,5.94,100.48,-79.23,-176.79
83793,52.536797,-1.44584,144.83,9.59,2,277.35,23 / 24,8192910,2019-09-08 14:23:32:149,1.1495,0.2051,9.4165,-0.0023,-0.0184,9.8066,0.0825,-0.0851,-0.0001,6.5,-36.12,5.31,104.99,-79.43,-178.09
83794,52.536797,-1.44584,144.83,9.59,2,277.35,23 / 24,8193010,2019-09-08 14:23:32:249,1.6947,0.5642,9.7695,-0.0236,-0.0151,9.8066,0.0657,-0.1065,-0.0343,6.06,-36.62,4.81,108.27,-79.37,-179.11
83795,52.536797,-1.44584,144.83,9.59,2,277.35,23 / 24,8193110,2019-09-08 14:23:32:349,1.2721,0.337,10.1894,0.0016,-0.0147,9.8066,0.0324,-0.0731,-0.112,6.63,-36.06,4.88,104.84,-79.2,-179.76
83796,52.536797,-1.44584,144.83,9.59,2,277.35,23 / 24,8193210,2019-09-08 14:23:32:449,0.3602,0.8266,9.2931,-0.0065,-0.0091,9.8066,-0.0105,-0.0735,0.02,6.44,-36.62,5.0,108.71,-79.1,179.22
83797,52.536797,-1.44584,144.83,9.59,2,277.35,23 / 24,8193310,2019-09-08 14:23:32:549,0.5867,-0.3677,9.1975,0.0387,0.0019,9.8065,-0.0965,-0.0303,0.0015,6.69,-36.37,5.31,104.04,-79.2,179.16
83798,52.536797,-1.44584,144.83,9.59,2,277.35,23 / 24,8193410,2019-09-08 14:23:32:649,1.2965,0.5923,9.6029,0.0644,-0.033,9.8063,0.0378,-0.1241,0.0437,5.81,-36.31,3.88,112.95,-79.69,-179.52
83799,52.536797,-1.44584,144.83,9.59,2,277.35,23 / 24,8193510,2019-09-08 14:23:32:749,1.4683,0.1835,10.0013,0.0128,0.01,9.8066,0.0119,-0.002,0.0352,6.13,-36.37,4.0,112.66,-79.95,-177.87
83800,52.536797,-1.44584,144.83,9.59,2,277.35,23 / 24,8193610,2019-09-08 14:23:32:849,-0.9762,2.248,9.9648,-0.0036,0.0004,9.8065,-0.0109,-0.0287,-0.0264,5.5,-36.37,4.75,105.42,-79.86,-177.09
83801,52.536797,-1.44584,144.83,9.59,2,277.35,24 / 25,8193710,2019-09-08 14:23:32:949,-0.0666,0.7649,9.8179,-0.0636,0.0271,9.8064,0.082,-0.0562,-0.0244,5.69,-36.56,4.25,114.44,-79.92,-177.44
83802,52.536797,-1.44584,144.83,9.59,2,277.35,24 / 25,8193810,2019-09-08 14:23:33:049,1.9737,0.5703,10.2843,-0.0433,0.0079,9.8065,0.0345,-0.0759,0.0292,5.38,-36.81,3.44,127.4,-79.64,-177.54
83803,52.536797,-1.44584,144.83,9.59,2,277.35,24 / 25,8193910,2019-09-08 14:23:33:149,2.0812,0.3369,10.1575,-0.0162,-0.0143,9.8065,0.1833,-0.0606,-0.0752,5.38,-36.56,3.44,126.35,-79.8,-178.31
83804,52.536797,-1.44584,144.83,9.59,2,277.35,24 / 25,8194010,2019-09-08 14:23:33:249,0.6905,-0.5428,9.5865,-0.0381,-0.0129,9.8065,-0.0977,-0.1152,-0.0448,5.5,-36.37,3.38,119.75,-79.81,-179.84
83805,52.536797,-1.44584,144.83,9.59,2,277.35,24 / 25,8194110,2019-09-08 14:23:33:349,1.2204,1.4726,9.7942,-0.0013,-0.009,9.8066,-0.0588,-0.1106,-0.0257,6.0,-35.94,3.63,110.96,-79.85,178.59
83806,52.536797,-1.44584,144.83,9.59,2,277.35,24 / 25,8194210,2019-09-08 14:23:33:449,3.6026,-1.8922,9.4578,-0.05,0.0054,9.8064,0.1018,0.1112,-0.0664,5.81,-36.06,2.81,117.53,-79.88,176.6
83807,52.536797,-1.44584,144.83,9.59,2,277.35,24 / 25,8194310,2019-09-08 14:23:33:549,-0.1757,-1.9149,10.9708,0.0472,-0.0317,9.8064,0.2892,0.142,-0.1126,5.44,-37.12,3.19,123.29,-80.03,176.51
83808,52.536797,-1.44584,144.83,9.59,2,277.35,24 / 25,8194410,2019-09-08 14:23:33:649,-0.3806,2.8256,11.0354,0.0543,-0.0463,9.8063,-0.0073,0.1269,-0.1163,5.13,-36.31,3.25,120.39,-80.36,177.35
83809,52.536797,-1.44584,144.83,9.59,2,277.35,24 / 25,8194510,2019-09-08 14:23:33:749,-0.3956,0.5043,8.4081,-0.0831,0.0424,9.8062,0.0828,0.1196,0.0525,5.38,-37.0,3.56,113.46,-80.41,179.09
83810,52.536797,-1.44584,144.83,9.59,2,277.35,24 / 25,8194610,2019-09-08 14:23:33:849,0.6029,1.0947,10.5082,-0.0983,0.0423,9.806,-0.4519,-0.0691,0.0509,5.19,-36.81,3.19,126.02,-79.83,-178.89
83811,52.536797,-1.44584,144.83,9.59,2,277.35,22 / 23,8194710,2019-09-08 14:23:33:949,2.4339,0.5139,10.115,0.0389,0.0046,9.8065,-0.2647,-0.0988,-0.0021,4.94,-36.87,3.06,124.66,-80.2,-177.8
83812,52.536797,-1.44584,144.83,9.59,2,277.35,22 / 23,8194810,2019-09-08 14:23:34:049,1.8677,-0.3385,9.6246,0.0088,0.0085,9.8066,0.1095,-0.0285,-0.0336,4.56,-37.12,2.94,124.52,-80.34,-176.5
83813,52.536797,-1.44584,144.83,9.59,2,277.35,22 / 23,8194910,2019-09-08 14:23:34:149,0.5422,-0.8035,9.0606,0.0065,0.0094,9.8066,0.0042,0.0261,-0.0215,4.88,-37.56,3.13,126.8,-80.18,-175.74
83814,52.536797,-1.44584,144.83,9.59,2,277.35,22 / 23,8195010,2019-09-08 14:23:34:249,0.9188,0.2779,9.5506,-0.0052,0.006,9.8066,-0.1099,-0.0472,0.0043,4.44,-36.94,3.31,131.17,-80.19,-174.77
83815,52.536797,-1.44584,144.83,9.59,2,277.35,22 / 23,8195110,2019-09-08 14:23:34:349,1.9397,-0.202,9.4611,0.0196,-0.024,9.8066,-0.1606,0.016,-0.0522,4.69,-37.81,3.0,126.53,-80.32,-174.79
83816,52.536797,-1.44584,144.83,9.59,2,277.35,22 / 23,8195210,2019-09-08 14:23:34:449,1.1719,-0.6044,9.71,0.0216,-0.0198,9.8065,0.1448,-0.0423,0.0467,4.94,-37.19,3.0,123.78,-80.62,-175.1
83817,52.536797,-1.44584,144.83,9.59,2,277.35,22 / 23,8195310,2019-09-08 14:23:34:549,0.789,-0.0291,10.2509,-0.0237,0.0041,9.8065,0.1483,0.0087,-0.0552,4.69,-37.06,3.0,123.29,-80.71,-175.2
83818,52.536797,-1.44584,144.83,9.59,2,277.35,22 / 23,8195410,2019-09-08 14:23:34:649,1.623,-0.5942,9.0909,-0.0413,0.0251,9.8064,-0.138,-0.0254,-0.0188,5.19,-36.87,2.63,123.82,-80.55,-175.7
83819,52.536797,-1.44584,144.83,9.59,2,277.35,22 / 23,8195510,2019-09-08 14:23:34:749,0.7964,-0.5374,9.3613,0.0213,-0.0082,9.8066,-0.0672,0.0058,0.0058,5.69,-37.44,3.38,119.54,-80.57,-176.17
83820,52.536797,-1.44584,144.83,9.59,2,277.35,22 / 23,8195610,2019-09-08 14:23:34:849,1.5571,-0.8793,10.0584,0.0041,0.0055,9.8066,0.0484,-0.024,0.0403,4.56,-37.94,2.75,124.6,-80.65,-175.66
83821,52.536797,-1.44584,144.83,9.59,2,277.35,24 / 24,8195710,2019-09-08 14:23:34:949,2.0037,-0.6145,9.8212,0.0216,-0.0024,9.8065,0.0204,0.0433,0.0099,4.94,-37.94,2.75,124.24,-80.79,-174.91
83822,52.536797,-1.44584,144.83,9.59,2,277.35,24 / 24,8195810,2019-09-08 14:23:35:049,1.4046,-0.9893,9.23,0.0022,-0.0049,9.8066,-0.0376,0.0506,-0.0527,4.25,-38.31,2.56,129.94,-80.69,-174.55
83823,52.536797,-1.44584,144.83,9.59,2,277.35,24 / 24,8195910,2019-09-08 14:23:35:149,2.1904,-0.009,9.5292,0.0241,-0.0189,9.8066,-0.0724,-0.0519,0.0736,4.5,-38.19,2.88,125.34,-80.62,-174.3
83824,52.536797,-1.44584,144.83,9.59,2,277.35,24 / 24,8196010,2019-09-08 14:23:35:249,1.7535,-1.6136,8.9999,0.048,-0.0211,9.8064,0.0644,-0.0638,0.019,4.81,-37.69,2.63,124.14,-80.86,-174.39
83825,52.536797,-1.44584,144.83,9.59,2,277.35,24 / 24,8196110,2019-09-08 14:23:35:349,1.0381,-0.9762,9.1749,0.0174,0.0129,9.8066,-0.015,-0.0177,-0.0117,4.63,-37.56,2.25,131.2,-80.91,-174.26
83826,52.536797,-1.44584,144.83,9.59,2,277.35,24 / 24,8196210,2019-09-08 14:23:35:449,2.8408,-0.3938,10.216,0.0129,0.0053,9.8066,0.083,-0.0749,0.0105,4.81,-37.37,2.88,122.99,-81.09,-171.99
83827,52.536797,-1.44584,144.83,9.59,2,277.35,24 / 24,8196310,2019-09-08 14:23:35:549,2.3412,-1.6379,10.722,-0.0171,-0.0289,9.8065,0.1762,-0.02,-0.1129,4.5,-37.37,2.81,121.85,-81.21,-173.02
83828,52.536797,-1.44584,144.83,9.59,2,277.35,24 / 24,8196410,2019-09-08 14:23:35:649,1.8612,-2.1974,9.1581,-0.0569,-0.0084,9.8065,-0.2169,0.0128,-0.0623,5.25,-36.75,2.31,129.56,-81.0,-174.9
83829,52.536797,-1.44584,144.83,9.59,2,277.35,24 / 24,8196510,2019-09-08 14:23:35:749,1.8479,-1.1916,8.5237,0.0191,-0.0064,9.8066,-0.1943,-0.0452,0.0353,4.69,-36.94,2.5,122.35,-80.82,-176.07
83830,52.536797,-1.44584,144.83,9.59,2,277.35,24 / 24,8196610,2019-09-08 14:23:35:849,2.2815,-1.7039,8.0161,0.034,-0.0014,9.8065,0.1909,-0.035,-0.0037,5.44,-36.94,2.69,122.79,-80.85,-174.72
83831,52.536797,-1.44584,144.83,9.59,2,277.35,24 / 24,8196712,2019-09-08 14:23:35:951,0.5534,-0.0708,10.466,0.0236,-0.0015,9.8066,0.0857,-0.0272,-0.0083,5.13,-37.31,1.88,130.15,-80.95,-173.99
83832,52.536797,-1.44584,144.83,9.59,2,277.35,24 / 24,8196810,2019-09-08 14:23:36:049,1.7824,0.4493,10.7133,0.0186,-0.0322,9.8065,-0.13,0.0208,-0.0974,4.63,-36.5,2.5,119.03,-81.42,-174.07
83833,52.536797,-1.44584,144.83,9.59,2,277.35,24 / 24,8196910,2019-09-08 14:23:36:149,2.2063,-0.976,10.1207,-0.0123,0.0055,9.8066,-0.0855,-0.0543,0.0634,5.63,-37.19,2.19,123.64,-81.54,-173.86
83834,52.536797,-1.44584,144.83,9.59,2,277.35,24 / 24,8197010,2019-09-08 14:23:36:249,2.0781,-2.33,9.3477,-0.0221,0.0258,9.8065,0.0921,-0.003,-0.0316,4.69,-37.12,1.69,128.51,-81.4,-173.42
83835,52.536797,-1.44584,144.83,9.59,2,277.35,24 / 24,8197110,2019-09-08 14:23:36:349,1.971,-0.0473,9.6555,0.0094,0.011,9.8066,0.1367,-0.0574,0.057,5.5,-36.75,2.31,125.24,-81.3,-172.77
83836,52.536797,-1.44584,144.83,9.59,2,277.35,24 / 24,8197210,2019-09-08 14:23:36:449,1.0598,-0.4072,9.4563,0.0044,0.0198,9.8066,-0.1643,-0.0679,0.0837,4.63,-37.12,1.94,130.18,-81.27,-171.05
83837,52.536797,-1.44584,144.83,9.59,2,277.35,24 / 24,8197310,2019-09-08 14:23:36:549,2.3866,-1.2081,9.4567,0.0636,-0.0141,9.8064,-0.2566,-0.0725,0.0554,3.56,-37.44,1.94,135.17,-81.31,-170.3
83838,52.536797,-1.44584,144.83,9.59,2,277.35,24 / 24,8197410,2019-09-08 14:23:36:649,1.8327,-0.4479,10.2994,0.0601,-0.0262,9.8064,0.1368,-0.0538,0.0648,4.31,-37.0,2.31,133.78,-81.86,-167.6
83839,52.536797,-1.44584,144.83,9.59,2,277.35,24 / 24,8197510,2019-09-08 14:23:36:749,1.6433,0.1605,10.6154,-0.0221,0.0164,9.8066,0.1776,-0.017,0.0138,4.69,-37.06,1.88,129.13,-82.0,-167.06
83840,52.536797,-1.44584,144.83,9.59,2,277.35,24 / 24,8197610,2019-09-08 14:23:36:849,1.6081,-1.1074,9.2908,-0.0242,0.0226,9.8066,-0.1236,-0.0519,0.0038,3.75,-37.69,1.38,142.33,-81.88,-166.4
83841,52.536797,-1.44584,144.83,9.59,2,277.35,24 / 24,8197710,2019-09-08 14:23:36:949,2.8134,-0.3424,9.5232,0.0185,0.0138,9.8065,-0.1068,-0.1187,0.0993,3.88,-37.12,1.88,134.92,-81.79,-165.51
83842,52.536797,-1.44584,144.83,9.59,2,277.35,24 / 24,8197810,2019-09-08 14:23:37:049,2.2904,0.4377,9.7171,0.0134,0.008,9.8065,0.1023,-0.1491,0.0411,3.38,-37.06,2.0,141.5,-81.63,-163.6
83843,52.536797,-1.44584,144.83,9.59,2,277.35,24 / 24,8197910,2019-09-08 14:23:37:149,1.9631,1.2179,10.3638,-0.0061,0.0177,9.8065,0.0639,-0.158,0.0558,3.25,-37.44,1.25,150.11,-81.39,-162.27
83844,52.536797,-1.44584,144.83,9.59,2,277.35,24 / 24,8198009,2019-09-08 14:23:37:248,2.1467,0.2386,9.9425,0.0033,0.0069,9.8066,-0.0261,-0.1849,0.0421,2.5,-37.56,1.56,143.76,-81.39,-161.69
83845,52.536797,-1.44584,144.83,9.59,2,277.35,24 / 24,8198110,2019-09-08 14:23:37:349,1.9316,1.4682,9.7039,0.0098,0.0104,9.8066,0.0225,-0.2554,0.0896,2.31,-37.06,1.63,149.51,-81.38,-161.18
83846,52.536797,-1.44584,144.83,9.59,2,277.35,24 / 24,8198210,2019-09-08 14:23:37:449,2.8009,2.0709,9.8159,0.0023,-0.0034,9.8066,0.0106,-0.3377,0.0657,2.5,-36.94,0.94,150.68,-81.36,-160.32
83847,52.536797,-1.44584,144.83,9.59,2,277.35,24 / 24,8198310,2019-09-08 14:23:37:549,1.7193,0.2868,9.8051,0.0136,-0.0063,9.8066,0.006,-0.2796,0.0516,1.44,-37.0,0.75,165.62,-81.33,-160.57
83848,52.536797,-1.44584,144.83,9.59,2,277.35,24 / 24,8198410,2019-09-08 14:23:37:649,3.2679,1.5293,9.7766,0.0029,-0.015,9.8066,-0.0115,-0.3202,-0.0404,0.94,-37.19,0.19,171.01,-81.33,-159.66
83849,52.536797,-1.44584,144.83,9.59,2,277.35,24 / 24,8198510,2019-09-08 14:23:37:749,2.4066,1.6605,9.7076,-0.0117,0.001,9.8066,0.0532,-0.4614,0.0158,2.25,-37.87,0.0,163.55,-81.38,-160.09
83850,52.536797,-1.44584,144.83,9.59,2,277.35,24 / 24,8198610,2019-09-08 14:23:37:849,3.324,-0.4546,10.1206,-0.0059,-0.0092,9.8066,-0.0396,-0.4479,-0.0134,0.63,-37.69,-1.0,174.79,-81.53,-161.24
83851,52.536797,-1.44584,144.83,9.59,2,277.35,24 / 25,8198710,2019-09-08 14:23:37:949,3.0062,0.4701,9.6156,0.005,-0.008,9.8066,-0.0567,-0.456,0.0423,1.44,-37.75,-1.0,174.43,-81.64,-162.81
83852,52.536797,-1.44584,144.83,9.59,2,277.35,24 / 25,8198809,2019-09-08 14:23:38:048,2.0054,-0.2614,9.8834,-0.0153,-0.0399,9.8065,0.0346,-0.4163,0.0225,0.56,-37.69,-2.37,176.8,-81.86,-164.33
83853,52.536797,-1.44584,144.83,9.59,2,277.35,24 / 25,8198910,2019-09-08 14:23:38:149,3.6606,0.2971,9.4828,-0.0329,0.0184,9.8066,0.0099,-0.4968,0.0481,0.56,-38.25,-2.5,176.23,-81.79,-166.36
83854,52.536797,-1.44584,144.83,9.59,2,277.35,24 / 25,8199010,2019-09-08 14:23:38:249,1.5783,-1.5493,8.6006,-0.0267,0.0231,9.8065,-0.0757,-0.4812,-0.0101,0.5,-37.62,-3.0,177.61,-81.96,-167.96
83855,52.536797,-1.44584,144.83,9.59,2,277.35,24 / 25,8199110,2019-09-08 14:23:38:349,3.7886,-0.9871,9.3696,0.0349,-0.0545,9.8064,-0.1911,-0.5415,0.1411,0.25,-37.44,-3.81,185.39,-82.06,-167.76
83856,52.536797,-1.44584,144.83,9.59,2,277.35,24 / 25,8199210,2019-09-08 14:23:38:449,3.7327,0.2798,10.55,0.0019,-0.0457,9.8065,0.0318,-0.552,0.1885,-0.62,-37.37,-3.87,192.84,-82.42,-166.05
83857,52.536797,-1.44584,144.83,9.59,2,277.35,24 / 25,8199310,2019-09-08 14:23:38:549,2.0967,-1.5263,10.4883,0.018,0.0053,9.8066,-0.062,-0.463,0.0538,-1.75,-37.44,-4.75,199.37,-82.4,-165.03
83858,52.536797,-1.44584,144.83,9.59,2,277.35,24 / 25,8199410,2019-09-08 14:23:38:649,2.3482,0.329,10.9192,-0.0106,-0.0388,9.8065,0.0814,-0.611,0.0556,-2.19,-37.31,-5.19,200.47,-82.49,-163.17
83859,52.536797,-1.44584,144.83,9.59,2,277.35,24 / 25,8199510,2019-09-08 14:23:38:749,3.2564,-0.9026,11.0819,0.0117,0.076,9.8063,0.1331,-0.6221,0.0691,-3.12,-36.81,-5.94,204.56,-82.31,-164.31
83860,52.536797,-1.44584,144.83,9.59,2,277.35,24 / 25,8199610,2019-09-08 14:23:38:849,2.7243,-1.0045,10.5605,0.0,0.0811,9.8063,-0.1137,-0.6034,0.0345,-3.81,-37.31,-5.5,209.61,-82.15,-166.28
83861,52.536797,-1.44584,144.83,9.59,2,277.35,25 / 25,8199710,2019-09-08 14:23:38:949,1.9952,-0.4093,8.3362,0.0028,-0.0284,9.8066,-0.1287,-0.5104,0.0617,-4.37,-37.81,-6.75,205.63,-81.92,-167.64
83862,52.537064,-1.446794,144.78,5.43,3,341.28,25 / 25,8199811,2019-09-08 14:23:39:050,2.9756,-0.2548,8.9781,0.0661,0.0234,9.8063,0.0707,-0.6026,0.187,-5.06,-38.37,-6.44,211.76,-81.84,-166.93
83863,52.537064,-1.446794,144.78,5.43,3,341.28,25 / 25,8199910,2019-09-08 14:23:39:149,3.0707,-0.543,9.5144,0.0299,-0.0111,9.8066,0.0829,-0.5431,0.1423,-7.0,-37.75,-6.12,222.56,-81.43,-162.48
83864,52.537064,-1.446794,144.78,5.43,3,341.28,25 / 25,8200010,2019-09-08 14:23:39:249,4.8818,-2.3167,10.5203,0.0158,-0.0016,9.8066,-0.2669,-0.4959,0.0349,-8.25,-36.94,-7.19,226.66,-81.37,-160.0
83865,52.537064,-1.446794,144.78,5.43,3,341.28,25 / 25,8200110,2019-09-08 14:23:39:349,2.3516,-1.3763,10.2811,-0.0046,-0.0109,9.8066,-0.1799,-0.522,0.0034,-7.94,-37.31,-7.0,227.61,-81.68,-159.53
83866,52.537064,-1.446794,144.78,5.43,3,341.28,25 / 25,8200211,2019-09-08 14:23:39:450,3.084,-0.1888,10.0588,-0.0218,-0.0271,9.8066,0.0982,-0.5116,0.0424,-9.06,-37.06,-7.37,232.29,-82.17,-159.48
83867,52.537064,-1.446794,144.78,5.43,3,341.28,25 / 25,8200310,2019-09-08 14:23:39:549,1.711,-1.6577,10.0286,0.0063,-0.0072,9.8066,0.1165,-0.5204,0.035,-10.25,-37.44,-7.5,235.59,-82.14,-159.53
83868,52.537064,-1.446794,144.78,5.43,3,341.28,25 / 25,8200410,2019-09-08 14:23:39:649,1.0651,-0.7037,9.4219,0.0626,0.0013,9.8064,-0.0538,-0.5943,0.2826,-10.69,-37.06,-7.69,236.15,-82.07,-159.8
83869,52.537064,-1.446794,144.78,5.43,3,341.28,25 / 25,8200510,2019-09-08 14:23:39:749,-0.149,-0.4337,9.042,0.0277,0.0021,9.8065,-0.0979,-0.4516,0.1732,-12.0,-36.69,-7.31,242.64,-81.3,-156.2
83870,52.537064,-1.446794,144.78,5.43,3,341.28,25 / 25,8200610,2019-09-08 14:23:39:849,2.0786,-0.6356,9.8103,-0.0093,-0.0168,9.8066,0.1813,-0.316,-0.0039,-13.31,-37.12,-7.25,244.53,-81.1,-156.74
83871,52.537064,-1.446794,144.78,5.43,3,341.28,25 / 25,8200710,2019-09-08 14:23:39:949,1.1666,-0.2582,10.346,-0.0265,-0.0202,9.8065,0.1417,-0.4196,0.0209,-13.56,-36.75,-6.94,247.16,-81.19,-156.83
83872,52.537064,-1.446794,144.78,5.43,3,341.28,25 / 25,8200810,2019-09-08 14:23:40:049,0.6217,0.749,9.4698,0.0227,0.0175,9.8066,-0.0706,-0.3509,0.0689,-13.5,-36.62,-6.69,243.23,-81.06,-158.19
83873,52.537064,-1.446794,144.78,5.43,3,341.28,25 / 25,8200910,2019-09-08 14:23:40:149,0.2806,0.3698,9.1704,0.0253,0.0033,9.8066,-0.2519,-0.239,-0.035,-14.37,-37.12,-6.87,246.14,-80.74,-156.97
83874,52.537064,-1.446794,144.78,5.43,3,341.28,25 / 25,8201010,2019-09-08 14:23:40:249,0.5876,-0.3242,9.2203,-0.0081,-0.0388,9.8065,-0.0008,-0.2403,0.2161,-15.37,-36.62,-7.31,249.25,-80.83,-156.3
83875,52.537064,-1.446794,144.78,5.43,3,341.28,25 / 25,8201110,2019-09-08 14:23:40:349,2.6476,-0.8572,9.7841,-0.0038,-0.0372,9.8065,0.0543,-0.274,0.2219,-15.69,-36.5,-6.75,255.22,-80.89,-152.71
83876,52.537064,-1.446794,144.78,5.43,3,341.28,25 / 25,8201210,2019-09-08 14:23:40:449,2.4952,-0.3548,9.6889,0.0298,0.0193,9.8066,-0.1174,-0.3637,0.1139,-17.25,-36.44,-6.62,258.67,-80.75,-150.88
83877,52.537064,-1.446794,144.78,5.43,3,341.28,25 / 25,8201310,2019-09-08 14:23:40:549,1.4113,-0.6191,9.5531,0.0138,0.0175,9.8065,-0.0365,-0.2117,-0.0706,-17.44,-36.44,-6.06,260.21,-80.53,-151.33
83878,52.537064,-1.446794,144.78,5.43,3,341.28,25 / 25,8201410,2019-09-08 14:23:40:649,1.2162,0.0358,10.2684,-0.0287,-0.0111,9.8066,0.0066,-0.219,-0.077,-16.75,-35.94,-5.75,259.86,-80.74,-152.14
83879,52.537064,-1.446794,144.78,5.43,3,341.28,25 / 25,8201510,2019-09-08 14:23:40:749,1.203,0.2202,10.6831,-0.037,-0.013,9.8065,0.0482,-0.2236,0.0123,-17.44,-36.94,-5.69,258.8,-80.89,-153.06
83880,52.537064,-1.446794,144.78,5.43,3,341.28,25 / 25,8201610,2019-09-08 14:23:40:849,1.8733,0.4802,10.1719,0.0406,0.0246,9.8064,-0.0416,-0.0937,0.0171,-17.37,-36.06,-5.5,261.4,-80.85,-153.44
83881,52.537064,-1.446794,144.78,5.43,3,341.28,25 / 25,8201710,2019-09-08 14:23:40:949,1.4725,-0.7656,10.018,0.0464,0.0221,9.8065,0.0076,-0.1818,0.1272,-18.0,-36.56,-5.44,261.32,-80.47,-154.09
83882,52.537064,-1.446794,144.78,5.43,3,341.28,24 / 24,8201810,2019-09-08 14:23:41:049,0.7154,-0.1053,9.7579,-0.0173,-0.0135,9.8065,0.0636,-0.0908,0.0358,-18.12,-36.31,-5.75,259.33,-80.29,-153.79
83883,52.537064,-1.446794,144.78,5.43,3,341.28,24 / 24,8201910,2019-09-08 14:23:41:149,1.5262,0.0888,10.0529,-0.0078,-0.0082,9.8066,0.0282,-0.0562,-0.0063,-17.94,-35.94,-5.31,261.78,-80.29,-153.77
83884,52.537064,-1.446794,144.78,5.43,3,341.28,24 / 24,8202009,2019-09-08 14:23:41:248,0.2886,0.7241,9.9874,-0.0025,0.0032,9.8066,0.0764,-0.1059,0.0028,-17.94,-36.62,-5.06,260.8,-80.24,-154.16
83885,52.537064,-1.446794,144.78,5.43,3,341.28,24 / 24,8202110,2019-09-08 14:23:41:349,0.1119,1.1287,9.6551,0.0073,0.0059,9.8065,0.0228,-0.0244,-0.089,-18.31,-35.81,-4.87,260.84,-80.18,-154.55
83886,52.537064,-1.446794,144.78,5.43,3,341.28,24 / 24,8202210,2019-09-08 14:23:41:449,1.4872,-0.5995,10.1057,-0.0066,-0.0044,9.8066,-0.0199,-0.0921,0.0754,-18.5,-36.44,-5.12,260.93,-80.14,-154.37
83887,52.537064,-1.446794,144.78,5.43,3,341.28,24 / 24,8202310,2019-09-08 14:23:41:549,0.8196,1.3204,9.8656,0.002,-0.0231,9.8066,-0.0076,0.0628,-0.0875,-18.0,-36.25,-5.56,259.19,-80.14,-153.64
83888,52.537064,-1.446794,144.78,5.43,3,341.28,24 / 24,8202410,2019-09-08 14:23:41:649,0.2282,0.5431,10.3376,0.0188,0.0084,9.8065,0.0601,-0.0562,-0.0024,-18.06,-36.06,-4.94,261.65,-80.12,-153.57
83889,52.537064,-1.446794,144.78,5.43,3,341.28,24 / 24,8202510,2019-09-08 14:23:41:749,0.6905,1.6622,9.5007,0.0245,0.0061,9.8065,-0.0235,0.1021,-0.072,-18.62,-36.81,-5.06,262.8,-80.05,-153.44
83890,52.537064,-1.446794,144.78,5.43,3,341.28,24 / 24,8202610,2019-09-08 14:23:41:849,-0.2271,-1.0774,9.2134,0.0086,-0.0097,9.8066,-0.0624,0.0349,-0.0029,-18.19,-35.69,-4.87,261.45,-79.92,-153.37
83891,52.537064,-1.446794,144.78,5.43,3,341.28,24 / 24,8202710,2019-09-08 14:23:41:949,-0.5341,-0.1386,9.1841,0.0041,-0.0117,9.8066,-0.1101,-0.0305,0.009,-17.69,-36.19,-4.44,264.23,-79.89,-153.06
83892,52.537064,-1.446794,144.78,5.43,3,341.28,24 / 24,8202810,2019-09-08 14:23:42:049,2.5365,2.1237,10.5111,0.0044,0.0052,9.8066,0.1007,-0.0948,-0.0159,-18.0,-35.44,-5.44,262.69,-79.92,-152.61
83893,52.537064,-1.446794,144.78,5.43,3,341.28,24 / 24,8202910,2019-09-08 14:23:42:149,-1.435,1.3366,10.5074,0.0376,0.0219,9.8065,-0.0942,0.0653,-0.0384,-17.87,-36.19,-4.94,262.01,-79.76,-152.44
83894,52.537064,-1.446794,144.78,5.43,3,341.28,24 / 24,8203010,2019-09-08 14:23:42:249,0.7172,0.8897,9.6264,-0.0053,-0.0176,9.8066,-0.0644,-0.0319,0.0615,-18.0,-36.06,-5.31,262.59,-79.91,-152.13
83895,52.537064,-1.446794,144.78,5.43,3,341.28,24 / 24,8203110,2019-09-08 14:23:42:349,0.1524,0.7012,9.2611,0.0032,0.0081,9.8065,-0.1755,-0.0116,-0.0136,-17.75,-36.5,-4.94,262.82,-79.85,-151.76
83896,52.537064,-1.446794,144.78,5.43,3,341.28,24 / 24,8203210,2019-09-08 14:23:42:449,0.7103,1.3296,10.0974,-0.0024,-0.0075,9.8065,0.0776,-0.002,-0.0916,-18.06,-36.56,-5.12,262.1,-79.86,-151.97
83897,52.537064,-1.446794,144.78,5.43,3,341.28,24 / 24,8203310,2019-09-08 14:23:42:549,0.9187,0.9515,10.0305,-0.0122,-0.0144,9.8066,0.0451,-0.0081,-0.0541,-18.25,-35.94,-5.12,263.28,-79.93,-151.43
83898,52.537064,-1.446794,144.78,5.43,3,341.28,24 / 24,8203410,2019-09-08 14:23:42:649,0.0815,1.5543,9.7134,0.0121,0.0164,9.8066,-0.0232,0.0775,-0.0444,-17.94,-36.19,-5.12,262.86,-79.9,-151.82
83899,52.537064,-1.446794,144.78,5.43,3,341.28,24 / 24,8203510,2019-09-08 14:23:42:749,-0.2256,0.7419,9.9795,0.0319,0.0236,9.8065,-0.0944,0.019,-0.0212,-17.69,-35.87,-5.12,261.48,-79.72,-152.92
83900,52.537064,-1.446794,144.78,5.43,3,341.28,24 / 24,8203611,2019-09-08 14:23:42:850,-0.1469,0.761,9.6861,0.0022,-0.0036,9.8066,-0.0216,-0.0196,0.0921,-17.56,-36.62,-5.25,261.37,-79.78,-152.58
83901,52.537064,-1.446794,144.78,5.43,3,341.28,24 / 24,8203711,2019-09-08 14:23:42:950,0.4497,1.1362,9.7932,0.0156,0.0092,9.8066,-0.0835,0.0088,-0.0445,-17.87,-36.37,-5.75,259.51,-79.74,-152.5
83902,52.537064,-1.446794,144.78,5.43,3,341.28,24 / 24,8203810,2019-09-08 14:23:43:049,0.2174,0.7314,9.6706,-0.0256,-0.0111,9.8065,0.0642,-0.0588,0.0663,-18.25,-36.06,-5.37,261.63,-79.6,-152.5
83903,52.537064,-1.446794,144.78,5.43,3,341.28,24 / 24,8203910,2019-09-08 14:23:43:149,-0.1658,0.6147,9.9758,-0.0284,-0.0145,9.8066,0.1098,0.0255,0.0068,-18.37,-36.81,-5.12,261.55,-79.72,-152.26
83904,52.537064,-1.446794,144.78,5.43,3,341.28,24 / 24,8204010,2019-09-08 14:23:43:249,-0.1567,1.4002,9.4946,0.0801,0.0306,9.8062,-0.1153,0.0255,-0.0926,-17.62,-35.81,-4.87,260.64,-79.22,-152.79
83905,52.537064,-1.446794,144.78,5.43,3,341.28,24 / 24,8204110,2019-09-08 14:23:43:349,-0.2174,-1.0399,9.6257,0.0411,0.0646,9.8063,-0.1645,-0.037,0.0144,-17.69,-36.44,-5.06,260.34,-79.29,-153.25
83906,52.537064,-1.446794,144.78,5.43,3,341.28,24 / 24,8204210,2019-09-08 14:23:43:449,-0.6394,2.236,9.3469,-0.0323,-0.0136,9.8066,0.0675,-0.0236,0.2118,-16.75,-36.25,-4.94,258.5,-79.41,-153.47
83907,52.537064,-1.446794,144.78,5.43,3,341.28,24 / 24,8204310,2019-09-08 14:23:43:549,0.007,0.9228,10.4207,-0.0231,-0.0329,9.8065,0.0579,0.0348,0.0344,-17.75,-36.31,-5.19,261.95,-79.59,-152.14
83908,52.537064,-1.446794,144.78,5.43,3,341.28,24 / 24,8204410,2019-09-08 14:23:43:649,1.2959,1.2373,10.124,0.0417,0.0278,9.8064,-0.1081,0.0165,-0.0446,-17.56,-35.81,-5.0,260.9,-79.39,-152.87
83909,52.537064,-1.446794,144.78,5.43,3,341.28,24 / 24,8204510,2019-09-08 14:23:43:749,0.5232,0.1345,10.1435,0.0196,0.0219,9.8066,-0.0387,-0.0735,0.0374,-17.94,-36.19,-5.69,258.91,-79.51,-152.68
83910,52.537064,-1.446794,144.78,5.43,3,341.28,24 / 24,8204610,2019-09-08 14:23:43:849,0.9642,1.1988,10.2997,-0.0118,-0.0045,9.8065,0.1441,0.0415,-0.0387,-16.94,-36.0,-5.37,259.24,-79.5,-152.85
83911,52.537064,-1.446794,144.78,5.43,3,341.28,24 / 24,8204710,2019-09-08 14:23:43:949,0.7718,1.9561,9.8489,-0.0285,-0.0242,9.8065,0.1474,0.0306,-0.0374,-17.5,-35.81,-5.37,259.3,-79.54,-152.88
83912,52.537064,-1.446794,144.78,5.43,3,341.28,24 / 24,8204810,2019-09-08 14:23:44:049,1.7512,-0.0118,10.9618,0.0484,0.0181,9.8065,-0.0902,0.0413,-0.0956,-16.56,-35.94,-4.94,258.79,-79.53,-153.4
83913,52.537064,-1.446794,144.78,5.43,3,341.28,24 / 24,8204910,2019-09-08 14:23:44:149,-0.6844,0.1294,9.7793,0.0285,0.0392,9.8065,-0.1016,-0.0403,-0.0161,-17.5,-36.25,-5.19,257.68,-79.33,-154.2
83914,52.537064,-1.446794,144.78,5.43,3,341.28,24 / 24,8205010,2019-09-08 14:23:44:249,-0.0996,1.0135,9.8752,-0.0117,0.0028,9.8066,0.0088,-0.0332,-0.0243,-17.12,-36.75,-5.31,257.35,-79.52,-154.34
83915,52.537064,-1.446794,144.78,5.43,3,341.28,24 / 24,8205110,2019-09-08 14:23:44:349,0.6208,-1.2614,9.7172,-0.0043,0.0018,9.8066,-0.0591,-0.1132,0.0456,-17.06,-37.06,-5.62,254.74,-79.49,-154.56
83916,52.537064,-1.446794,144.78,5.43,3,341.28,24 / 24,8205210,2019-09-08 14:23:44:449,2.1544,-1.4145,10.1628,0.039,0.0534,9.8064,-0.3533,-0.1803,0.1913,-16.69,-35.94,-4.87,258.09,-79.56,-154.24
83917,52.537064,-1.446794,144.78,5.43,3,341.28,24 / 24,8205310,2019-09-08 14:23:44:549,-1.0425,0.9322,8.6927,0.0365,0.0092,9.8065,-0.2736,0.0648,-0.0951,-16.94,-36.25,-5.37,256.91,-79.25,-154.89
83918,52.537064,-1.446794,144.78,5.43,3,341.28,24 / 24,8205410,2019-09-08 14:23:44:649,-0.1757,0.9142,8.8048,-0.028,-0.0119,9.8066,0.2689,0.0143,0.125,-17.56,-36.75,-5.37,257.55,-79.05,-155.19
83919,52.537064,-1.446794,144.78,5.43,3,341.28,24 / 24,8205510,2019-09-08 14:23:44:749,-0.0842,0.2088,11.2235,-0.0361,-0.0678,9.8062,0.2738,0.0595,0.0427,-17.37,-35.75,-4.94,258.2,-79.3,-153.56
83920,52.537064,-1.446794,144.78,5.43,3,341.28,24 / 24,8205610,2019-09-08 14:23:44:849,1.119,0.7887,10.3525,0.0711,0.0476,9.8062,-0.1862,0.0625,-0.0246,-17.81,-36.69,-5.0,258.05,-78.82,-154.16
83921,52.537064,-1.446794,144.78,5.43,3,341.28,24 / 24,8205710,2019-09-08 14:23:44:949,1.106,0.5075,9.6446,0.0478,0.0525,9.8064,-0.0904,-0.0347,0.1083,-17.62,-35.87,-4.56,258.7,-78.96,-154.36
83922,52.537064,-1.446794,144.78,5.43,3,341.28,24 / 24,8205810,2019-09-08 14:23:45:049,-0.1971,-0.7144,9.7629,-0.0346,-0.0293,9.8065,0.0964,-0.0583,0.0331,-17.5,-36.31,-5.5,257.22,-78.95,-153.89
83923,52.537064,-1.446794,144.78,5.43,3,341.28,24 / 24,8205910,2019-09-08 14:23:45:149,-1.5685,1.0131,9.6967,-0.0371,-0.028,9.8065,0.0771,0.0832,-0.0925,-17.19,-36.37,-4.87,258.38,-79.24,-153.23
83924,52.537064,-1.446794,144.78,5.43,3,341.28,24 / 24,8206010,2019-09-08 14:23:45:249,0.067,-0.4409,10.2113,0.019,0.0189,9.8065,-0.0809,0.1118,-0.056,-17.5,-36.31,-5.5,257.84,-79.32,-154.01
83925,52.537064,-1.446794,144.78,5.43,3,341.28,24 / 24,8206110,2019-09-08 14:23:45:349,-1.2416,-0.2149,9.9391,0.013,0.0171,9.8066,-0.0241,0.0333,-0.0098,-17.37,-35.62,-5.37,256.98,-79.31,-154.94
83926,52.537064,-1.446794,144.78,5.43,3,341.28,24 / 24,8206210,2019-09-08 14:23:45:449,-0.7507,0.4642,9.7254,0.003,0.0073,9.8066,0.0459,0.0345,0.0632,-17.06,-36.25,-5.94,254.41,-79.39,-155.31
83927,52.537064,-1.446794,144.78,5.43,3,341.28,24 / 24,8206310,2019-09-08 14:23:45:549,1.4083,0.9579,9.5417,-0.0071,-0.0021,9.8066,0.1084,-0.0106,0.0844,-16.19,-36.37,-5.62,252.48,-79.41,-155.22
83928,52.537064,-1.446794,144.78,5.43,3,341.28,24 / 24,8206410,2019-09-08 14:23:45:649,-0.7773,0.5063,9.5036,-0.0158,-0.0128,9.8066,0.0765,-0.0124,0.0469,-17.0,-36.75,-5.75,253.86,-79.38,-155.29
83929,52.537064,-1.446794,144.78,5.43,3,341.28,24 / 24,8206509,2019-09-08 14:23:45:748,-0.8722,-0.1865,10.373,-0.0032,-0.0077,9.8065,0.0298,0.0199,0.0487,-16.81,-35.94,-6.0,255.04,-79.44,-154.72
83930,52.537064,-1.446794,144.78,5.43,3,341.28,24 / 24,8206610,2019-09-08 14:23:45:849,-0.3036,-1.2211,10.339,0.0303,0.0049,9.8065,-0.1385,0.0466,-0.0902,-16.81,-36.25,-6.12,255.48,-79.29,-153.89
83931,52.537064,-1.446794,144.78,5.43,3,341.28,24 / 24,8206710,2019-09-08 14:23:45:949,0.9472,0.5915,9.9475,0.0322,0.0103,9.8066,-0.1467,-0.0567,-0.0049,-17.44,-36.5,-5.56,255.6,-79.23,-153.65
83932,52.537064,-1.446794,144.78,5.43,3,341.28,24 / 24,8206810,2019-09-08 14:23:46:049,-0.5375,1.5857,10.0267,-0.0024,-0.0053,9.8066,0.1482,0.0854,-0.0252,-17.0,-36.31,-5.31,258.11,-79.23,-153.52
83933,52.537064,-1.446794,144.78,5.43,3,341.28,24 / 24,8206910,2019-09-08 14:23:46:149,-0.6824,-0.4605,10.3139,0.0053,0.0092,9.8066,0.0313,-0.0165,0.079,-17.0,-36.69,-5.25,257.26,-79.13,-153.59
83934,52.537064,-1.446794,144.78,5.43,3,341.28,24 / 24,8207010,2019-09-08 14:23:46:249,-1.3876,-0.2733,9.5104,-0.0207,-0.0133,9.8065,0.013,-0.021,-0.0009,-17.5,-36.19,-5.37,257.73,-79.05,-153.54
83935,52.537064,-1.446794,144.78,5.43,3,341.28,24 / 24,8207110,2019-09-08 14:23:46:349,-0.0184,0.2109,10.1606,-0.0165,-0.0074,9.8066,-0.0307,-0.0596,-0.0213,-16.75,-37.12,-5.62,254.95,-79.11,-153.5
83936,52.537064,-1.446794,144.78,5.43,3,341.28,24 / 24,8207211,2019-09-08 14:23:46:450,-0.2698,0.4122,10.6157,0.0095,0.0157,9.8066,0.1397,-0.0262,0.0209,-17.25,-36.12,-5.56,254.79,-79.05,-154.18
83937,52.537064,-1.446794,144.78,5.43,3,341.28,24 / 24,8207310,2019-09-08 14:23:46:549,0.4055,0.0347,10.8932,0.0155,0.0079,9.8066,0.1369,-0.0654,0.0426,-17.69,-36.75,-5.5,258.55,-79.02,-154.02
83938,52.537064,-1.446794,144.78,5.43,3,341.28,24 / 24,8207411,2019-09-08 14:23:46:650,-1.0215,-0.1944,9.3077,0.0023,0.0035,9.8066,-0.0803,0.0338,-0.0132,-16.94,-36.25,-5.19,257.58,-79.02,-153.62
83939,52.537064,-1.446794,144.78,5.43,3,341.28,24 / 24,8207509,2019-09-08 14:23:46:748,-0.2516,0.4261,9.2571,0.0135,0.0056,9.8065,-0.1056,-0.0025,-0.0438,-17.19,-36.62,-5.81,254.42,-78.97,-153.78
83940,52.537064,-1.446794,144.78,5.43,3,341.28,24 / 24,8207610,2019-09-08 14:23:46:849,-0.0667,0.0562,9.8289,-0.0157,-0.0207,9.8066,0.0657,-0.0308,-0.0573,-16.75,-36.5,-5.81,254.97,-78.98,-153.84
83941,52.537064,-1.446794,144.78,5.43,3,341.28,23 / 23,8207710,2019-09-08 14:23:46:949,-0.6267,-0.4647,10.2738,-0.0177,-0.009,9.8066,-0.0001,-0.0583,-0.0095,-17.31,-35.75,-5.5,257.86,-79.07,-153.44
83942,52.537064,-1.446794,144.78,5.43,3,341.28,23 / 23,8207809,2019-09-08 14:23:47:048,-0.0173,0.7943,10.944,0.0274,0.0204,9.8066,0.091,-0.0367,-0.0436,-17.12,-36.37,-5.0,256.97,-78.86,-153.95
83943,52.537064,-1.446794,144.78,5.43,3,341.28,23 / 23,8207910,2019-09-08 14:23:47:149,-0.1261,0.668,10.779,0.0154,0.0323,9.8066,0.0184,-0.052,0.0588,-17.25,-36.19,-5.81,253.78,-78.75,-154.69
83944,52.537064,-1.446794,144.78,5.43,3,341.28,23 / 23,8208010,2019-09-08 14:23:47:249,0.0245,-0.6446,9.6466,-0.0182,-0.0296,9.8066,-0.0506,-0.0324,0.0751,-17.19,-36.44,-5.06,256.42,-78.65,-154.12
83945,52.537064,-1.446794,144.78,5.43,3,341.28,23 / 23,8208110,2019-09-08 14:23:47:349,-0.0205,0.887,9.817,-0.0191,-0.0149,9.8066,-0.0002,0.0238,-0.0136,-17.12,-35.56,-5.06,257.33,-78.7,-153.22
83946,52.537064,-1.446794,144.78,5.43,3,341.28,23 / 23,8208210,2019-09-08 14:23:47:449,-0.7752,0.5602,9.8572,0.0026,0.0013,9.8065,0.137,-0.0333,0.0595,-17.19,-36.31,-5.25,256.86,-78.62,-153.57
83947,52.537064,-1.446794,144.78,5.43,3,341.28,23 / 23,8208310,2019-09-08 14:23:47:549,-1.076,0.7952,9.9041,0.0027,-0.0037,9.8066,0.1458,0.0595,0.0305,-17.31,-36.0,-5.06,256.79,-78.56,-153.51
83948,52.537064,-1.446794,144.78,5.43,3,341.28,23 / 23,8208410,2019-09-08 14:23:47:649,0.174,-1.2367,9.591,0.0115,0.0028,9.8066,-0.1714,0.0628,0.015,-17.62,-36.5,-5.19,258.77,-78.53,-153.39
83949,52.537064,-1.446794,144.78,5.43,3,341.28,23 / 23,8208510,2019-09-08 14:23:47:749,-1.9013,-0.0118,8.4158,0.017,0.007,9.8066,-0.2064,-0.0091,0.0128,-17.06,-36.31,-4.87,256.22,-78.42,-153.85
83950,52.537064,-1.446794,144.78,5.43,3,341.28,23 / 23,8208610,2019-09-08 14:23:47:849,1.4421,1.7791,10.7447,0.0075,0.005,9.8066,0.1749,0.0131,0.0452,-17.81,-36.12,-5.06,258.41,-78.43,-153.6
83951,52.537064,-1.446794,144.78,5.43,3,341.28,22 / 24,8208711,2019-09-08 14:23:47:950,-0.477,0.5518,9.9547,0.0001,0.0015,9.8066,0.1486,-0.0075,0.109,-17.56,-36.5,-5.06,258.39,-78.39,-153.53
83952,52.537663,-1.446299,144.65,10.37,2,28.02,22 / 24,8208810,2019-09-08 14:23:48:049,-3.8595,-0.4134,10.5368,-0.0477,-0.0284,9.8064,0.1266,0.1318,-0.0862,-17.12,-36.5,-5.31,256.86,-78.34,-152.95
83953,52.537663,-1.446299,144.65,10.37,2,28.02,22 / 24,8208910,2019-09-08 14:23:48:149,0.5581,2.6544,11.4805,-0.1154,-0.1293,9.8051,0.4263,0.1115,-0.1485,-17.37,-36.75,-5.06,258.54,-78.84,-151.49
83954,52.537663,-1.446299,144.65,10.37,2,28.02,22 / 24,8209010,2019-09-08 14:23:48:249,1.5681,0.5976,12.4843,0.1201,0.0846,9.8055,0.0646,0.087,-0.1112,-17.69,-36.81,-4.75,260.77,-78.96,-151.46
83955,52.537663,-1.446299,144.65,10.37,2,28.02,22 / 24,8209110,2019-09-08 14:23:48:349,-0.561,-2.915,8.5168,0.0737,0.067,9.806,0.2,-0.0764,0.0085,-17.12,-35.94,-4.62,256.02,-78.24,-153.68
83956,52.537663,-1.446299,144.65,10.37,2,28.02,22 / 24,8209210,2019-09-08 14:23:48:449,0.5988,0.1821,8.3596,-0.0174,-0.0139,9.8065,-0.442,-0.0219,-0.0008,-17.37,-35.75,-4.87,256.93,-78.32,-152.82
83957,52.537663,-1.446299,144.65,10.37,2,28.02,22 / 24,8209310,2019-09-08 14:23:48:549,-1.3631,-2.253,8.03,0.0704,0.0572,9.8062,-0.615,-0.0258,0.1056,-17.62,-36.44,-6.0,255.91,-78.14,-153.25
83958,52.537663,-1.446299,144.65,10.37,2,28.02,22 / 24,8209410,2019-09-08 14:23:48:649,0.6674,-0.0376,10.1964,-0.1126,-0.0887,9.8055,0.4176,-0.0162,0.066,-17.06,-36.06,-5.0,256.09,-78.08,-153.24
83959,52.537663,-1.446299,144.65,10.37,2,28.02,22 / 24,8209510,2019-09-08 14:23:48:749,0.4076,1.3872,10.8922,-0.1016,-0.0865,9.8057,0.3548,0.0443,-0.013,-17.25,-35.69,-5.19,259.77,-78.96,-151.09
83960,52.537663,-1.446299,144.65,10.37,2,28.02,22 / 24,8209610,2019-09-08 14:23:48:849,0.9754,0.5786,11.1185,0.078,0.0697,9.8061,-0.3085,0.0476,-0.06,-17.75,-35.87,-6.5,256.89,-78.58,-153.03
83961,52.537663,-1.446299,144.65,10.37,2,28.02,24 / 24,8209710,2019-09-08 14:23:48:949,-1.5952,-1.3823,8.5649,0.0698,0.0617,9.8061,-0.2076,0.0047,-0.0264,-17.31,-36.44,-4.94,257.18,-78.66,-153.3
83962,52.537663,-1.446299,144.65,10.37,2,28.02,24 / 24,8209810,2019-09-08 14:23:49:049,-0.4881,-0.7627,9.6497,-0.047,-0.0368,9.8064,0.0699,-0.0602,-0.0013,-16.87,-36.44,-5.56,254.38,-78.57,-153.64
83963,52.537663,-1.446299,144.65,10.37,2,28.02,24 / 24,8209910,2019-09-08 14:23:49:149,-0.4712,0.4649,9.904,-0.0292,-0.0128,9.8066,-0.0483,-0.0223,-0.0046,-16.62,-35.5,-5.5,258.04,-78.87,-153.46
83964,52.537663,-1.446299,144.65,10.37,2,28.02,24 / 24,8210010,2019-09-08 14:23:49:249,-0.6155,-0.073,10.4773,0.0297,0.0314,9.8065,-0.0006,0.0129,-0.0234,-16.69,-35.87,-5.5,256.01,-78.65,-154.58
83965,52.537663,-1.446299,144.65,10.37,2,28.02,24 / 24,8210110,2019-09-08 14:23:49:349,-0.6353,-0.8275,9.4262,0.0197,0.0286,9.8066,0.0854,0.0029,0.0094,-17.62,-37.19,-5.69,254.6,-78.65,-155.12
83966,52.537663,-1.446299,144.65,10.37,2,28.02,24 / 24,8210210,2019-09-08 14:23:49:449,-0.9328,0.2523,8.9989,-0.0395,-0.0247,9.8065,0.0409,0.0008,0.0409,-17.0,-36.37,-5.12,254.82,-78.56,-155.75
83967,52.537663,-1.446299,144.65,10.37,2,28.02,24 / 24,8210310,2019-09-08 14:23:49:549,0.0654,-0.2976,9.7474,-0.0386,-0.0238,9.8065,0.0359,0.0337,0.0238,-17.25,-36.69,-5.44,255.09,-78.87,-155.44
83968,52.537663,-1.446299,144.65,10.37,2,28.02,24 / 24,8210410,2019-09-08 14:23:49:649,0.363,1.2567,10.2144,0.0162,0.0108,9.8066,0.0911,0.0233,0.078,-17.0,-36.12,-5.5,255.04,-78.97,-156.37
83969,52.537663,-1.446299,144.65,10.37,2,28.02,24 / 24,8210510,2019-09-08 14:23:49:749,0.6269,0.1933,10.4319,0.0013,0.0014,9.8066,0.1009,-0.0205,0.0653,-16.81,-36.31,-5.31,254.75,-78.81,-156.37
83970,52.537663,-1.446299,144.65,10.37,2,28.02,24 / 24,8210610,2019-09-08 14:23:49:849,0.7532,0.986,10.3541,0.0309,0.0334,9.8065,-0.201,0.0081,-0.0354,-16.81,-36.56,-5.12,253.42,-78.69,-156.95
83971,52.537663,-1.446299,144.65,10.37,2,28.02,24 / 24,8210709,2019-09-08 14:23:49:948,-1.6542,-0.5831,10.2749,0.0368,0.037,9.8064,-0.189,-0.0307,-0.0568,-16.19,-36.69,-5.37,251.21,-78.68,-157.11
83972,52.537663,-1.446299,144.65,10.37,2,28.02,24 / 24,8210810,2019-09-08 14:23:50:049,0.006,-0.2074,9.7891,-0.038,-0.0205,9.8065,0.1615,-0.0476,0.0179,-16.5,-36.44,-4.69,251.54,-78.74,-157.57
83973,52.537663,-1.446299,144.65,10.37,2,28.02,24 / 24,8210910,2019-09-08 14:23:50:149,-0.7369,1.2813,10.486,-0.0243,-0.0196,9.8065,0.1884,0.1071,-0.0371,-16.62,-36.12,-4.5,256.61,-79.06,-157.6
83974,52.537663,-1.446299,144.65,10.37,2,28.02,24 / 24,8211010,2019-09-08 14:23:50:249,-0.704,0.3511,9.115,0.0278,0.0071,9.8065,-0.1351,0.0998,-0.0313,-17.12,-36.87,-5.44,253.71,-79.19,-157.71
83975,52.537663,-1.446299,144.65,10.37,2,28.02,24 / 24,8211110,2019-09-08 14:23:50:349,-1.0787,-0.009,9.3414,0.0373,0.0124,9.8065,-0.0754,0.0396,0.0476,-16.37,-36.69,-5.12,251.54,-79.02,-157.5
83976,52.537663,-1.446299,144.65,10.37,2,28.02,24 / 24,8211210,2019-09-08 14:23:50:449,-1.3673,0.4373,8.8779,-0.0312,-0.0257,9.8065,0.0565,-0.0492,0.0526,-17.0,-36.19,-5.37,254.57,-78.93,-156.83
83977,52.537663,-1.446299,144.65,10.37,2,28.02,24 / 24,8211310,2019-09-08 14:23:50:549,0.2086,-0.0162,10.3466,-0.0205,-0.0269,9.8066,-0.023,0.0022,0.0932,-17.0,-37.19,-5.87,253.0,-79.1,-155.68
83978,52.537663,-1.446299,144.65,10.37,2,28.02,24 / 24,8211410,2019-09-08 14:23:50:649,-1.7271,0.1799,10.1727,0.0052,0.0004,9.8066,0.1235,0.0193,0.0182,-16.75,-36.56,-5.75,253.49,-79.05,-155.02
83979,52.537663,-1.446299,144.65,10.37,2,28.02,24 / 24,8211510,2019-09-08 14:23:50:749,0.5712,-0.4242,10.1737,0.0084,0.0088,9.8065,0.0867,-0.0696,0.0817,-16.94,-36.69,-5.44,255.97,-78.98,-154.69
83980,52.537663,-1.446299,144.65,10.37,2,28.02,24 / 24,8211610,2019-09-08 14:23:50:849,-1.2962,-0.843,9.1836,-0.0195,-0.0147,9.8066,0.0544,0.0196,0.0758,-17.37,-36.19,-5.06,257.44,-79.07,-153.89
83981,52.537663,-1.446299,144.65,10.37,2,28.02,23 / 23,8211710,2019-09-08 14:23:50:949,-0.1116,0.9642,9.8246,-0.0076,-0.0071,9.8065,0.0746,0.0655,0.0304,-17.31,-36.56,-5.25,256.93,-78.87,-153.36
83982,52.537663,-1.446299,144.65,10.37,2,28.02,23 / 23,8211810,2019-09-08 14:23:51:049,-0.9613,-1.1055,9.88,0.0068,0.0162,9.8065,-0.1933,0.09,-0.0092,-17.37,-36.31,-5.44,257.67,-78.89,-153.25
83983,52.537663,-1.446299,144.65,10.37,2,28.02,23 / 23,8211910,2019-09-08 14:23:51:149,-0.447,-0.5784,10.1275,-0.0782,-0.0624,9.8061,-0.0928,-0.0051,-0.0476,-17.19,-36.25,-5.69,257.13,-79.33,-152.15
83984,52.537663,-1.446299,144.65,10.37,2,28.02,23 / 23,8212010,2019-09-08 14:23:51:249,0.1124,0.9043,10.5959,-0.0526,-0.0494,9.8063,0.1765,-0.0069,-0.1066,-18.25,-36.25,-5.31,261.6,-79.31,-151.94
83985,52.537663,-1.446299,144.65,10.37,2,28.02,23 / 23,8212110,2019-09-08 14:23:51:349,-0.0266,-1.7798,10.7351,0.0682,0.0437,9.8062,0.2287,-0.0926,0.1061,-17.25,-36.19,-5.25,259.34,-79.32,-152.34
83986,52.537663,-1.446299,144.65,10.37,2,28.02,23 / 23,8212210,2019-09-08 14:23:51:449,-0.0587,-1.5782,8.8132,0.0407,0.0537,9.8064,-0.2324,-0.0335,0.0717,-17.5,-35.87,-5.56,255.2,-79.08,-153.77
83987,52.537663,-1.446299,144.65,10.37,2,28.02,23 / 23,8212310,2019-09-08 14:23:51:549,-1.6969,-0.2823,9.2587,-0.0561,-0.0332,9.8063,-0.248,0.0591,-0.0616,-17.56,-35.81,-5.0,259.66,-79.19,-153.79
83988,52.537663,-1.446299,144.65,10.37,2,28.02,23 / 23,8212410,2019-09-08 14:23:51:649,-1.4834,-0.3984,9.6929,-0.0313,-0.0217,9.8065,0.1004,0.0762,0.0175,-17.31,-36.31,-5.87,256.65,-79.53,-153.11
