,GPS LATITUDE (degrees),GPS LONGITUDE (degrees), GPS ALTITUDE (m),GPS SPEED (Kmh),GPS ACCURACY (m),GPS ORIENTATION (Â°), SATELLITES IN RANGE, TIME SINCE START (ms), DATE (YYYY-MO-DD HH-MI-SS_SSS),ACCELEROMETER X (m/s²) , ACCELEROMETER Y (m/s²), ACCELEROMETER Z (m/s²), GRAVITY X (m/s²), GRAVITY Y (m/s²), GRAVITY Z (m/s²), GYROSCOPE Yaw (rad/s), GYROSCOPE Pitch (rad/s), GYROSCOPE Roll (rad/s)
5475,47.31436,-2.198632,55.05,20.89,3.216,31.8,16 / 21,547510,2019-08-09 20:23:16:248,-1.656,-1.1024,9.4825,-0.9639,0.0548,9.759,-0.0271,-0.0584,0.1045
5476,47.31436,-2.198632,55.05,20.89,3.216,31.8,15 / 17,547611,2019-08-09 20:23:16:349,-1.4501,-0.4925,9.4933,-0.9569,0.0268,9.7598,0.0001,-0.0864,0.0617
5477,47.31436,-2.198632,55.05,20.89,3.216,31.8,15 / 17,547711,2019-08-09 20:23:16:449,-0.93,0.3251,9.6435,-0.9483,0.0156,9.7607,-0.0118,0.0456,-0.0364
5478,47.31436,-2.198632,55.05,20.89,3.216,31.8,15 / 17,547810,2019-08-09 20:23:16:548,-0.1237,0.3162,9.5783,-0.9186,0.015,9.7635,-0.0022,0.0499,-0.0099
5479,47.31436,-2.198632,55.05,20.89,3.216,31.8,15 / 17,547910,2019-08-09 20:23:16:648,0.072,0.2635,10.1002,-0.8906,0.0132,9.7661,-0.0039,-0.0227,-0.0129
5480,47.31436,-2.198632,55.05,20.89,3.216,31.8,15 / 17,548010,2019-08-09 20:23:16:748,0.3204,0.1563,9.8542,-0.8927,0.0027,9.7659,-0.0188,0.0039,0.0105
5481,47.31436,-2.198632,55.05,20.89,3.216,31.8,15 / 17,548110,2019-08-09 20:23:16:848,-0.6595,-0.1878,9.4915,-0.9008,-0.0125,9.7652,-0.0123,-0.0128,0.0202
5482,47.31436,-2.198632,55.05,20.89,3.216,31.8,15 / 17,548210,2019-08-09 20:23:16:948,-0.1411,0.303,10.3271,-0.8932,-0.0336,9.7658,-0.0231,0.0278,-0.0133
5483,47.31436,-2.198632,55.05,20.89,3.216,31.8,15 / 17,548310,2019-08-09 20:23:17:048,0.1049,-0.0573,10.0469,-0.8887,-0.0457,9.7662,-0.0195,0.0396,-0.0121
5484,47.31436,-2.198632,55.05,20.89,3.216,31.8,15 / 17,548411,2019-08-09 20:23:17:149,-0.0376,-0.2441,8.9618,-0.8766,-0.0597,9.7672,0.0047,0.0286,-0.0166
5485,47.31436,-2.198632,55.05,20.89,3.216,31.8,15 / 17,548510,2019-08-09 20:23:17:248,-0.9677,-0.0484,9.5723,-0.8709,-0.0534,9.7678,-0.0031,-0.0098,-0.0153
5486,47.31436,-2.198632,55.05,20.89,3.216,31.8,16 / 21,548611,2019-08-09 20:23:17:349,-0.6487,-0.1046,9.7584,-0.871,-0.0544,9.7677,-0.0199,0.0386,-0.0264
5487,47.31436,-2.198632,55.05,20.89,3.216,31.8,16 / 21,548710,2019-08-09 20:23:17:448,-1.9481,-0.0304,10.0182,-0.8562,-0.0653,9.769,-0.019,-0.0038,0.0134
5488,47.31436,-2.198632,55.05,20.89,3.216,31.8,16 / 21,548810,2019-08-09 20:23:17:548,0.1989,-0.2064,9.4412,-0.8557,-0.0742,9.769,-0.0053,-0.0149,-0.0175
5489,47.31436,-2.198632,55.05,20.89,3.216,31.8,16 / 21,548910,2019-08-09 20:23:17:648,-0.0226,0.1013,9.683,-0.8593,-0.075,9.7686,-0.0071,0.0027,-0.0246
5490,47.31436,-2.198632,55.05,20.89,3.216,31.8,16 / 21,549010,2019-08-09 20:23:17:748,0.4084,0.2078,9.3383,-0.8431,-0.0754,9.77,-0.0153,0.079,-0.0538
5491,47.31436,-2.198632,55.05,20.89,3.216,31.8,16 / 21,549110,2019-08-09 20:23:17:848,-0.6152,0.4275,10.8292,-0.8454,-0.0789,9.7698,-0.0118,-0.0595,0.0438
5492,47.31436,-2.198632,55.05,20.89,3.216,31.8,16 / 21,549210,2019-08-09 20:23:17:948,-0.9204,0.315,10.1607,-0.8578,-0.0942,9.7686,-0.0285,0.0655,-0.0535
5493,47.31436,-2.198632,55.05,20.89,3.216,31.8,16 / 21,549310,2019-08-09 20:23:18:048,-0.8857,0.2641,10.5635,-0.8695,-0.0966,9.7675,-0.0067,0.072,-0.0376
5494,47.31436,-2.198632,55.05,20.89,3.216,31.8,16 / 21,549411,2019-08-09 20:23:18:149,-0.2794,-0.0442,9.7369,-0.8366,-0.0957,9.7704,-0.0068,-0.0173,-0.0026
5495,47.31436,-2.198632,55.05,20.89,3.216,31.8,16 / 21,549511,2019-08-09 20:23:18:249,-0.6158,-0.0615,9.9386,-0.852,-0.0948,9.7691,0.0031,-0.01,0.0047
5496,47.31436,-2.198632,55.05,20.89,3.216,31.8,16 / 19,549611,2019-08-09 20:23:18:349,-0.6654,0.0546,9.783,-0.8595,-0.0946,9.7685,0.0031,-0.0111,-0.0034
5497,47.31436,-2.198632,55.05,20.89,3.216,31.8,16 / 19,549710,2019-08-09 20:23:18:448,-0.3542,0.1162,9.8333,-0.8448,-0.0828,9.7698,0.0057,-0.0059,0.0026
5498,47.31436,-2.198632,55.05,20.89,3.216,31.8,16 / 19,549811,2019-08-09 20:23:18:549,-0.8091,0.0085,10.1409,-0.8388,-0.0812,9.7704,-0.0014,0.004,-0.0163
5499,47.31436,-2.198632,55.05,20.89,3.216,31.8,16 / 19,549911,2019-08-09 20:23:18:649,-0.7522,-0.0196,9.6974,-0.832,-0.0802,9.771,-0.0071,0.0067,-0.0045
5500,47.31436,-2.198632,55.05,20.89,3.216,31.8,16 / 19,550010,2019-08-09 20:23:18:748,-0.1854,-0.0957,9.6375,-0.8242,-0.0853,9.7716,-0.0071,0.0067,-0.0045
5501,47.31436,-2.198632,55.05,20.89,3.216,31.8,16 / 19,550110,2019-08-09 20:23:18:848,-0.1914,-0.0172,9.4514,-0.8051,-0.0884,9.7731,-0.011,0.0236,-0.0109
5502,47.31436,-2.198632,55.05,20.89,3.216,31.8,16 / 19,550211,2019-08-09 20:23:18:949,-0.7331,0.0217,9.5501,-0.7956,-0.0925,9.7739,-0.016,-0.0311,0.0
5503,47.31436,-2.198632,55.05,20.89,3.216,31.8,16 / 19,550311,2019-08-09 20:23:19:049,-0.7947,-0.0909,9.6711,-0.7858,-0.11,9.7745,-0.0115,-0.0002,0.0185
5504,47.31436,-2.198632,55.05,20.89,3.216,31.8,16 / 19,550410,2019-08-09 20:23:19:148,-1.3214,-0.2399,9.112,-0.7665,-0.1176,9.7759,-0.023,-0.0091,-0.0214
5505,47.31436,-2.198632,55.05,20.89,3.216,31.8,16 / 19,550510,2019-08-09 20:23:19:248,-0.8977,-0.2555,9.3305,-0.7437,-0.1493,9.7773,-0.0217,-0.0236,0.008
5506,47.31436,-2.198632,55.05,20.89,3.216,31.8,16 / 21,550610,2019-08-09 20:23:19:348,-0.0202,-0.3955,9.0096,-0.7092,-0.1601,9.7797,-0.0174,-0.0051,0.007
5507,47.31436,-2.198632,55.05,20.89,3.216,31.8,16 / 21,550711,2019-08-09 20:23:19:449,-0.754,-0.0418,9.8859,-0.7056,-0.1895,9.7794,-0.0157,-0.0018,0.0311
5508,47.31436,-2.198632,55.05,20.89,3.216,31.8,16 / 21,550810,2019-08-09 20:23:19:548,-0.9761,-0.4853,9.7016,-0.7125,-0.2056,9.7786,-0.0125,0.0197,-0.0013
5509,47.31436,-2.198632,55.05,20.89,3.216,31.8,16 / 21,550910,2019-08-09 20:23:19:648,-0.2003,-0.3572,9.4777,-0.7087,-0.2161,9.7786,-0.0085,0.0137,0.0021
5510,47.31436,-2.198632,55.05,20.89,3.216,31.8,16 / 21,551010,2019-08-09 20:23:19:748,0.2294,-0.1519,10.0948,-0.7058,-0.2296,9.7785,-0.0239,0.0175,0.0032
5511,47.31436,-2.198632,55.05,20.89,3.216,31.8,16 / 21,551111,2019-08-09 20:23:19:849,-0.4362,-0.2848,10.1535,-0.7095,-0.2618,9.7774,-0.0232,0.0298,-0.0023
5512,47.31436,-2.198632,55.05,20.89,3.216,31.8,16 / 21,551210,2019-08-09 20:23:19:948,0.5215,-0.4213,10.1164,-0.7223,-0.2746,9.7762,-0.0182,0.0446,-0.0166
5513,47.31436,-2.198632,55.05,20.89,3.216,31.8,16 / 21,551311,2019-08-09 20:23:20:049,-2.3563,-0.4045,10.6413,-0.7418,-0.2942,9.7741,-0.0082,0.0141,0.0141
5514,47.31436,-2.198632,55.05,20.89,3.216,31.8,16 / 21,551410,2019-08-09 20:23:20:148,-1.7267,-0.4374,10.1786,-0.7828,-0.3036,9.7706,0.0089,-0.0414,0.0278
5515,47.31436,-2.198632,55.05,20.89,3.216,31.8,16 / 21,551510,2019-08-09 20:23:20:248,-0.3488,0.0013,10.0858,-0.7761,-0.2997,9.7713,0.0053,0.0289,-0.0385
5516,47.31436,-2.198632,55.05,20.89,3.216,31.8,15 / 20,551610,2019-08-09 20:23:20:348,-1.1365,-0.2543,10.0272,-0.7699,-0.2951,9.7719,0.0061,-0.0005,0.0071
5517,47.31436,-2.198632,55.05,20.89,3.216,31.8,15 / 20,551711,2019-08-09 20:23:20:449,-1.2831,-0.3626,9.5316,-0.7805,-0.2979,9.771,0.0009,0.0419,0.002
5518,47.31436,-2.198632,55.05,20.89,3.216,31.8,15 / 20,551810,2019-08-09 20:23:20:548,-0.9438,-0.2734,9.9601,-0.786,-0.2966,9.7706,-0.002,0.0154,-0.0005
5519,47.31436,-2.198632,55.05,20.89,3.216,31.8,15 / 20,551911,2019-08-09 20:23:20:649,-0.083,-0.0986,10.4767,-0.8049,-0.297,9.7691,-0.0031,-0.0149,0.0125
5520,47.31436,-2.198632,55.05,20.89,3.216,31.8,15 / 20,552010,2019-08-09 20:23:20:748,-0.268,-0.3428,9.3927,-0.7987,-0.3041,9.7693,0.0039,0.0043,-0.0022
5521,47.31436,-2.198632,55.05,20.89,3.216,31.8,15 / 20,552111,2019-08-09 20:23:20:849,-1.009,-0.1866,9.2999,-0.7936,-0.3013,9.7698,0.0013,-0.0491,0.0045
5522,47.31436,-2.198632,55.05,20.89,3.216,31.8,15 / 20,552210,2019-08-09 20:23:20:948,0.491,-0.0986,9.033,-0.7512,-0.3016,9.7732,-0.006,-0.0088,0.0025
5523,47.31436,-2.198632,55.05,20.89,3.216,31.8,15 / 20,552310,2019-08-09 20:23:21:048,-0.3117,-0.3943,9.3035,-0.7192,-0.3048,9.7755,-0.0074,-0.0309,-0.0025
5524,47.31436,-2.198632,55.05,20.89,3.216,31.8,15 / 20,552411,2019-08-09 20:23:21:149,-0.9096,-0.3997,9.6962,-0.7105,-0.3077,9.776,0.0042,0.0049,0.0036
5525,47.31436,-2.198632,55.05,20.89,3.216,31.8,15 / 20,552511,2019-08-09 20:23:21:249,-0.7899,-0.2794,9.1401,-0.6932,-0.3082,9.7773,-0.0026,-0.0286,-0.0085
5526,47.31436,-2.198632,55.05,20.89,3.216,31.8,15 / 20,552610,2019-08-09 20:23:21:348,-0.8031,-0.1196,10.2313,-0.7097,-0.307,9.7761,-0.0007,0.0381,-0.0223
5527,47.31436,-2.198632,55.05,20.89,3.216,31.8,15 / 20,552711,2019-08-09 20:23:21:449,-0.9881,-1.0964,9.6716,-0.6953,-0.3132,9.777,0.0059,0.0343,0.0229
5528,47.31436,-2.198632,55.05,20.89,3.216,31.8,15 / 20,552811,2019-08-09 20:23:21:549,-0.4236,-0.1082,9.7219,-0.7119,-0.3141,9.7757,0.0064,-0.0031,-0.0458
5529,47.31436,-2.198632,55.05,20.89,3.216,31.8,15 / 20,552911,2019-08-09 20:23:21:649,-0.1968,-0.4554,9.7884,-0.7252,-0.3069,9.775,-0.0097,-0.0321,-0.0246
5530,47.31436,-2.198632,55.05,20.89,3.216,31.8,15 / 20,553010,2019-08-09 20:23:21:748,0.9949,-0.116,9.7375,-0.6923,-0.3285,9.7767,0.0031,0.0115,0.0651
5531,47.31436,-2.198632,55.05,20.89,3.216,31.8,15 / 20,553110,2019-08-09 20:23:21:848,0.2653,0.7585,9.373,-0.6949,-0.3297,9.7764,-0.0085,-0.0011,-0.0952
5532,47.31436,-2.198632,55.05,20.89,3.216,31.8,15 / 20,553210,2019-08-09 20:23:21:948,0.1013,-1.2509,9.3586,-0.6735,-0.3238,9.7781,0.0316,-0.0198,0.0741
5533,47.31436,-2.198632,55.05,20.89,3.216,31.8,15 / 20,553311,2019-08-09 20:23:22:049,0.3365,-0.4823,9.0288,-0.6646,-0.3125,9.7791,0.0102,-0.0604,0.0011
5534,47.31436,-2.198632,55.05,20.89,3.216,31.8,15 / 20,553410,2019-08-09 20:23:22:148,-0.283,-0.3015,9.1497,-0.6099,-0.3063,9.7829,-0.0133,-0.0483,-0.0124
5535,47.31436,-2.198632,55.05,20.89,3.216,31.8,15 / 20,553510,2019-08-09 20:23:22:248,-0.8953,-0.1208,9.1808,-0.576,-0.3156,9.7846,-0.0117,-0.0115,0.013
5536,47.31436,-2.198632,55.05,20.89,3.216,31.8,15 / 19,553611,2019-08-09 20:23:22:349,-1.27,-0.0376,9.0073,-0.5437,-0.3278,9.7861,-0.0117,-0.0087,0.0093
5537,47.31436,-2.198632,55.05,20.89,3.216,31.8,15 / 19,553711,2019-08-09 20:23:22:449,-0.7552,-0.0741,9.4334,-0.5308,-0.3347,9.7866,-0.0206,-0.0227,-0.0193
5538,47.31436,-2.198632,55.05,20.89,3.216,31.8,15 / 19,553810,2019-08-09 20:23:22:548,-0.0459,-0.5051,9.2742,-0.4974,-0.3563,9.7875,-0.019,0.0112,-0.0108
5539,47.31436,-2.198632,55.05,20.89,3.216,31.8,15 / 19,553911,2019-08-09 20:23:22:649,0.3036,-0.107,11.2464,-0.512,-0.3697,9.7863,-0.0287,0.0737,-0.0213
5540,47.31436,-2.198632,55.05,20.89,3.216,31.8,15 / 19,554010,2019-08-09 20:23:22:748,-0.9438,-0.4075,10.2085,-0.5527,-0.3959,9.7831,-0.0047,0.0739,-0.0107
5541,47.31436,-2.198632,55.05,20.89,3.216,31.8,15 / 19,554110,2019-08-09 20:23:22:848,-2.4389,-0.0508,9.9643,-0.5724,-0.4018,9.7817,-0.0124,-0.0535,-0.0111
5542,47.31436,-2.198632,55.05,20.89,3.216,31.8,15 / 19,554210,2019-08-09 20:23:22:948,-1.2041,0.03,9.7788,-0.5409,-0.4013,9.7835,0.0034,-0.0241,-0.0081
5543,47.31436,-2.198632,55.05,20.89,3.216,31.8,15 / 19,554311,2019-08-09 20:23:23:049,0.1001,0.1037,10.7969,-0.4871,-0.3935,9.7866,-0.0013,0.0365,0.0174
5544,47.31436,-2.198632,55.05,20.89,3.216,31.8,15 / 19,554410,2019-08-09 20:23:23:148,-0.5427,-0.7732,10.0577,-0.5447,-0.4032,9.7832,-0.0067,0.0605,-0.0039
5545,47.31436,-2.198632,55.05,20.89,3.216,31.8,15 / 19,554510,2019-08-09 20:23:23:248,-0.9432,-0.7499,9.8991,-0.574,-0.4064,9.7814,-0.0034,0.022,0.017
5546,47.31436,-2.198632,55.05,20.89,3.216,31.8,16 / 21,554610,2019-08-09 20:23:23:348,-0.1327,-0.6391,9.3269,-0.5635,-0.4016,9.7822,0.0143,-0.0177,0.0035
5547,47.31436,-2.198632,55.05,20.89,3.216,31.8,16 / 21,554710,2019-08-09 20:23:23:448,-0.7019,-0.6499,9.1551,-0.5331,-0.3977,9.7841,0.0108,-0.0342,0.0073
5548,47.31436,-2.198632,55.05,20.89,3.216,31.8,16 / 21,554811,2019-08-09 20:23:23:549,-0.5547,-0.2315,10.111,-0.5359,-0.3896,9.7842,0.0024,0.0167,-0.0045
5549,47.31436,-2.198632,55.05,20.89,3.216,31.8,16 / 21,554910,2019-08-09 20:23:23:648,-1.4723,0.0684,10.0679,-0.4993,-0.3846,9.7864,-0.0026,0.0696,-0.0667
5550,47.31436,-2.198632,55.05,20.89,3.216,31.8,16 / 21,555011,2019-08-09 20:23:23:749,-1.7907,-0.5583,9.2748,-0.5015,-0.3786,9.7865,-0.0074,0.0948,-0.0699
5551,47.31436,-2.198632,55.05,20.89,3.216,31.8,16 / 21,555110,2019-08-09 20:23:23:848,-1.2167,-0.1465,10.6784,-0.5625,-0.3801,9.7831,0.0119,-0.0406,0.0441
5552,47.31436,-2.198632,55.05,20.89,3.216,31.8,16 / 21,555210,2019-08-09 20:23:23:948,-1.8871,-0.0711,10.8029,-0.5341,-0.3749,9.7849,0.0153,-0.0618,0.032
5553,47.31436,-2.198632,55.05,20.89,3.216,31.8,16 / 21,555310,2019-08-09 20:23:24:048,-0.0106,-0.7391,9.1036,-0.5732,-0.3586,9.7833,0.0274,0.0448,-0.0278
5554,47.31436,-2.198632,55.05,20.89,3.216,31.8,16 / 21,555410,2019-08-09 20:23:24:148,-0.3111,-0.3447,9.3927,-0.6015,-0.3453,9.7821,0.0317,-0.0402,-0.0008
5555,47.31436,-2.198632,55.05,20.89,3.216,31.8,16 / 21,555511,2019-08-09 20:23:24:249,-0.089,-0.2148,9.5771,-0.5905,-0.3036,9.7841,0.0235,-0.0182,-0.0024
5556,47.31577,-2.197292,55.92,20.25,3.216,33.4,16 / 21,555611,2019-08-09 20:23:24:349,-0.7696,0.0247,10.1595,-0.5841,-0.2923,9.7849,0.0137,0.027,-0.0152
5557,47.31577,-2.197292,55.92,20.25,3.216,33.4,16 / 21,555711,2019-08-09 20:23:24:449,-1.3783,-0.1352,10.0529,-0.6224,-0.2694,9.7832,0.0108,0.0031,-0.0077
5558,47.31577,-2.197292,55.92,20.25,3.216,33.4,16 / 21,555810,2019-08-09 20:23:24:548,-0.5673,0.4658,10.342,-0.646,-0.2545,9.782,0.0075,-0.0249,0.0002
5559,47.31577,-2.197292,55.92,20.25,3.216,33.4,16 / 21,555911,2019-08-09 20:23:24:649,-2.7855,-0.5661,9.7207,-0.6615,-0.235,9.7815,0.0104,0.0036,-0.0186
5560,47.31577,-2.197292,55.92,20.25,3.216,33.4,16 / 21,556010,2019-08-09 20:23:24:748,-1.2598,-0.4177,8.6547,-0.6501,-0.2268,9.7825,0.0099,-0.0277,-0.0361
5561,47.31577,-2.197292,55.92,20.25,3.216,33.4,16 / 21,556111,2019-08-09 20:23:24:849,0.1289,0.1839,9.4047,-0.6265,-0.2117,9.7843,0.0,-0.0447,-0.0012
5562,47.31577,-2.197292,55.92,20.25,3.216,33.4,16 / 21,556211,2019-08-09 20:23:24:949,-1.1862,-0.1525,9.7273,-0.6202,-0.2177,9.7846,-0.0196,0.0153,-0.0067
5563,47.31577,-2.197292,55.92,20.25,3.216,33.4,16 / 21,556310,2019-08-09 20:23:25:048,-0.9444,-0.2411,9.8135,-0.6378,-0.2384,9.783,-0.0208,0.01,0.0056
5564,47.31577,-2.197292,55.92,20.25,3.216,33.4,16 / 21,556410,2019-08-09 20:23:25:148,-1.4112,-0.1878,10.0751,-0.6566,-0.2489,9.7815,-0.013,0.0076,-0.0087
5565,47.31577,-2.197292,55.92,20.25,3.216,33.4,16 / 21,556510,2019-08-09 20:23:25:248,-0.089,-0.3195,9.9949,-0.681,-0.2655,9.7794,-0.0134,0.0143,0.0016
5566,47.31577,-2.197292,55.92,20.25,3.216,33.4,16 / 21,556610,2019-08-09 20:23:25:348,-0.4817,-0.4949,9.4628,-0.6981,-0.2739,9.7779,-0.0073,-0.0375,0.0219
5567,47.31577,-2.197292,55.92,20.25,3.216,33.4,16 / 21,556711,2019-08-09 20:23:25:449,-0.5212,-0.3111,9.4005,-0.6857,-0.2757,9.7788,0.0288,-0.0235,0.0033
5568,47.31577,-2.197292,55.92,20.25,3.216,33.4,16 / 21,556810,2019-08-09 20:23:25:548,-1.1993,-0.3542,9.2018,-0.6729,-0.2618,9.78,0.0261,-0.0027,0.0077
5569,47.31577,-2.197292,55.92,20.25,3.216,33.4,16 / 21,556911,2019-08-09 20:23:25:649,-0.2674,0.473,9.7967,-0.6799,-0.2431,9.78,0.0004,0.0385,0.0469
5570,47.31577,-2.197292,55.92,20.25,3.216,33.4,16 / 21,557010,2019-08-09 20:23:25:748,-1.1993,0.1384,9.7183,-0.6826,-0.2423,9.7799,-0.0046,-0.0117,-0.0411
5571,47.31577,-2.197292,55.92,20.25,3.216,33.4,16 / 21,557111,2019-08-09 20:23:25:849,-2.7173,-0.2267,9.4256,-0.7004,-0.2455,9.7785,0.0002,-0.034,-0.0203
5572,47.31577,-2.197292,55.92,20.25,3.216,33.4,16 / 21,557210,2019-08-09 20:23:25:948,0.9303,0.1887,10.5389,-0.734,-0.2512,9.7759,-0.0148,0.0799,-0.0046
5573,47.31577,-2.197292,55.92,20.25,3.216,33.4,16 / 21,557310,2019-08-09 20:23:26:048,-0.244,0.0342,10.5808,-0.7639,-0.2708,9.7731,-0.0265,0.0307,-0.0081
5574,47.31577,-2.197292,55.92,20.25,3.216,33.4,16 / 21,557411,2019-08-09 20:23:26:149,-0.4954,-0.3333,9.4598,-0.7596,-0.2841,9.7731,0.0032,-0.0131,-0.0188
5575,47.31577,-2.197292,55.92,20.25,3.216,33.4,16 / 21,557511,2019-08-09 20:23:26:249,-1.4388,-0.4033,9.3993,-0.7566,-0.2794,9.7734,0.0139,-0.0052,-0.0189
5576,47.31577,-2.197292,55.92,20.25,3.216,33.4,14 / 19,557611,2019-08-09 20:23:26:349,-0.7504,-0.3081,9.5741,-0.7609,-0.2696,9.7734,0.0119,-0.0081,-0.018
5577,47.31577,-2.197292,55.92,20.25,3.216,33.4,14 / 19,557710,2019-08-09 20:23:26:448,-0.7995,0.2222,10.2564,-0.7675,-0.2414,9.7736,0.0093,0.0263,-0.0292
5578,47.31577,-2.197292,55.92,20.25,3.216,33.4,14 / 19,557810,2019-08-09 20:23:26:548,0.5622,0.0408,9.4807,-0.7665,-0.236,9.7738,-0.0014,-0.0227,-0.0248
5579,47.31577,-2.197292,55.92,20.25,3.216,33.4,14 / 19,557910,2019-08-09 20:23:26:648,-0.3404,0.1611,9.0827,-0.7628,-0.2162,9.7745,-0.0093,-0.0758,0.0099
5580,47.31577,-2.197292,55.92,20.25,3.216,33.4,14 / 19,558010,2019-08-09 20:23:26:748,0.078,-0.3069,9.5112,-0.7694,-0.2203,9.7739,0.0242,-0.0423,0.057
5581,47.31577,-2.197292,55.92,20.25,3.216,33.4,14 / 19,558111,2019-08-09 20:23:26:849,-1.3502,-0.2333,8.9648,-0.753,-0.1954,9.7757,0.0106,0.0194,-0.085
5582,47.31577,-2.197292,55.92,20.25,3.216,33.4,14 / 19,558210,2019-08-09 20:23:26:948,-1.4663,-0.0849,9.7447,-0.7335,-0.1741,9.7776,0.0048,0.0925,-0.0545
5583,47.31577,-2.197292,55.92,20.25,3.216,33.4,14 / 19,558310,2019-08-09 20:23:27:048,-1.1676,-0.1896,10.1948,-0.7973,-0.1612,9.7729,-0.0103,0.0444,-0.0424
5584,47.31577,-2.197292,55.92,20.25,3.216,33.4,14 / 19,558411,2019-08-09 20:23:27:149,-1.3256,-0.1657,9.7447,-0.8217,-0.1633,9.7708,-0.0013,-0.0518,0.0274
5585,47.31577,-2.197292,55.92,20.25,3.216,33.4,14 / 19,558510,2019-08-09 20:23:27:248,-1.5866,-0.0496,9.2898,-0.7977,-0.1605,9.7728,0.0041,-0.0491,-0.0095
5586,47.31577,-2.197292,55.92,20.25,3.216,33.4,15 / 20,558610,2019-08-09 20:23:27:348,-0.7678,0.1587,9.3772,-0.7777,-0.1573,9.7745,-0.008,-0.0217,-0.0209
5587,47.31577,-2.197292,55.92,20.25,3.216,33.4,15 / 20,558710,2019-08-09 20:23:27:448,-1.0054,-0.2082,9.3808,-0.7573,-0.1619,9.776,-0.0194,0.0042,-0.0249
5588,47.31577,-2.197292,55.92,20.25,3.216,33.4,15 / 20,558810,2019-08-09 20:23:27:548,-0.0693,0.0402,10.0314,-0.7723,-0.1807,9.7745,-0.0234,0.0148,-0.0084
5589,47.31577,-2.197292,55.92,20.25,3.216,33.4,15 / 20,558910,2019-08-09 20:23:27:648,-1.2454,-0.4566,9.9482,-0.7745,-0.1949,9.7741,-0.0221,0.0138,0.0107
5590,47.31577,-2.197292,55.92,20.25,3.216,33.4,15 / 20,559011,2019-08-09 20:23:27:749,-0.6588,-0.3554,9.1772,-0.7743,-0.2031,9.7739,0.0173,-0.0349,-0.0098
5591,47.31577,-2.197292,55.92,20.25,3.216,33.4,15 / 20,559111,2019-08-09 20:23:27:849,-0.3895,0.0426,9.686,-0.7771,-0.1934,9.7739,0.0075,0.0066,-0.0216
5592,47.31577,-2.197292,55.92,20.25,3.216,33.4,15 / 20,559211,2019-08-09 20:23:27:949,-0.9396,0.0372,10.1487,-0.7788,-0.1828,9.774,-0.0061,0.0068,-0.0144
5593,47.31577,-2.197292,55.92,20.25,3.216,33.4,15 / 20,559311,2019-08-09 20:23:28:049,-1.8691,-0.1262,9.4825,-0.7814,-0.183,9.7738,0.004,0.0217,-0.0087
5594,47.31577,-2.197292,55.92,20.25,3.216,33.4,15 / 20,559410,2019-08-09 20:23:28:148,-1.0156,-0.0184,9.9368,-0.7942,-0.1805,9.7728,0.0014,-0.0003,-0.0151
5595,47.31577,-2.197292,55.92,20.25,3.216,33.4,15 / 20,559510,2019-08-09 20:23:28:248,-0.9719,-0.2178,9.5891,-0.7868,-0.1795,9.7734,-0.004,-0.0155,-0.0054
5596,47.31577,-2.197292,55.92,20.25,3.216,33.4,17 / 21,559610,2019-08-09 20:23:28:348,-0.769,-0.3584,9.5142,-0.7789,-0.171,9.7742,0.0184,-0.0082,-0.0075
5597,47.31577,-2.197292,55.92,20.25,3.216,33.4,17 / 21,559711,2019-08-09 20:23:28:449,-0.9851,-0.1022,10.4222,-0.8032,-0.1583,9.7724,0.0087,0.0122,-0.0063
5598,47.31577,-2.197292,55.92,20.25,3.216,33.4,17 / 21,559811,2019-08-09 20:23:28:549,-0.2524,-0.1711,10.661,-0.8475,-0.1441,9.7689,0.0088,0.0708,0.0014
5599,47.31577,-2.197292,55.92,20.25,3.216,33.4,17 / 21,559910,2019-08-09 20:23:28:648,-1.2604,-0.1543,9.9536,-0.866,-0.1367,9.7674,0.0215,-0.0075,0.0002
5600,47.31577,-2.197292,55.92,20.25,3.216,33.4,17 / 21,560010,2019-08-09 20:23:28:748,-1.2724,0.0534,9.1976,-0.8565,-0.1127,9.7685,0.0124,-0.0362,0.0031
5601,47.31577,-2.197292,55.92,20.25,3.216,33.4,17 / 21,560110,2019-08-09 20:23:28:848,-1.0108,-0.0089,9.1581,-0.8435,-0.1059,9.7697,0.003,-0.026,-0.0174
5602,47.31577,-2.197292,55.92,20.25,3.216,33.4,17 / 21,560210,2019-08-09 20:23:28:948,-0.4505,0.0324,9.3347,-0.8146,-0.0966,9.7723,-0.0007,0.0378,-0.0253
5603,47.31577,-2.197292,55.92,20.25,3.216,33.4,17 / 21,560310,2019-08-09 20:23:29:048,-0.2602,-0.0849,9.215,-0.815,-0.092,9.7723,-0.0078,-0.0489,0.0029
5604,47.31577,-2.197292,55.92,20.25,3.216,33.4,17 / 21,560410,2019-08-09 20:23:29:148,-1.3807,-0.2196,9.1036,-0.8,-0.0988,9.7735,0.0114,-0.0145,-0.016
5605,47.31577,-2.197292,55.92,20.25,3.216,33.4,17 / 21,560510,2019-08-09 20:23:29:248,-0.8234,0.4191,10.3067,-0.8059,-0.097,9.773,-0.0006,0.0424,-0.0334
5606,47.31577,-2.197292,55.92,20.25,3.216,33.4,17 / 21,560611,2019-08-09 20:23:29:349,-1.7763,-0.2237,9.6914,-0.8262,-0.1004,9.7713,-0.0062,-0.0096,-0.0035
5607,47.31577,-2.197292,55.92,20.25,3.216,33.4,17 / 21,560710,2019-08-09 20:23:29:448,-0.6577,0.1246,9.6327,-0.8163,-0.1035,9.7721,0.0011,0.0127,-0.0316
5608,47.31577,-2.197292,55.92,20.25,3.216,33.4,17 / 21,560810,2019-08-09 20:23:29:548,-1.2873,-0.0765,9.8638,-0.8209,-0.1015,9.7717,-0.0032,-0.0144,-0.0098
5609,47.31577,-2.197292,55.92,20.25,3.216,33.4,17 / 21,560910,2019-08-09 20:23:29:648,-1.4866,0.0193,9.2616,-0.8057,-0.0945,9.773,0.0182,0.0195,-0.014
5610,47.31577,-2.197292,55.92,20.25,3.216,33.4,17 / 21,561011,2019-08-09 20:23:29:749,-0.8647,0.0702,9.9482,-0.7851,-0.0778,9.7749,0.0042,-0.0042,-0.0212
5611,47.31577,-2.197292,55.92,20.25,3.216,33.4,17 / 21,561110,2019-08-09 20:23:29:848,0.227,-0.1346,9.7417,-0.7702,-0.0737,9.7761,0.0002,-0.0165,-0.0005
5612,47.31577,-2.197292,55.92,20.25,3.216,33.4,17 / 21,561210,2019-08-09 20:23:29:948,-0.1142,0.0552,9.5483,-0.7629,-0.0663,9.7767,0.0036,-0.0084,-0.0134
5613,47.31577,-2.197292,55.92,20.25,3.216,33.4,17 / 21,561310,2019-08-09 20:23:30:048,-1.8691,0.0737,9.8476,-0.7424,-0.0622,9.7783,0.0101,0.0061,-0.0245
5614,47.31577,-2.197292,55.92,20.25,3.216,33.4,17 / 21,561411,2019-08-09 20:23:30:149,0.9746,0.1348,10.281,-0.7461,-0.053,9.7781,-0.0002,0.0322,0.0055
5615,47.31577,-2.197292,55.92,20.25,3.216,33.4,17 / 21,561511,2019-08-09 20:23:30:249,-0.693,-0.0693,10.2343,-0.7487,-0.057,9.7779,-0.0017,-0.0019,-0.0076
5616,47.31577,-2.197292,55.92,20.25,3.216,33.4,15 / 19,561610,2019-08-09 20:23:30:348,-0.3171,0.0378,9.4119,-0.7345,-0.0546,9.779,-0.002,0.0332,-0.021
5617,47.31577,-2.197292,55.92,20.25,3.216,33.4,15 / 19,561711,2019-08-09 20:23:30:449,0.1725,0.2198,10.1062,-0.7587,-0.0555,9.7771,-0.0026,-0.0663,0.0095
5618,47.31577,-2.197292,55.92,20.25,3.216,33.4,15 / 19,561810,2019-08-09 20:23:30:548,2.1322,0.6226,10.3767,-0.7464,-0.062,9.778,-0.0094,-0.0023,0.0223
5619,47.31577,-2.197292,55.92,20.25,3.216,33.4,15 / 19,561910,2019-08-09 20:23:30:648,-0.353,0.1761,9.4753,-0.7189,-0.0623,9.7801,-0.0154,-0.025,-0.0284
5620,47.31577,-2.197292,55.92,20.25,3.216,33.4,15 / 19,562010,2019-08-09 20:23:30:748,-0.7576,-0.2064,9.2551,-0.7303,-0.0732,9.7791,-0.0042,-0.0099,-0.0198
5621,47.31577,-2.197292,55.92,20.25,3.216,33.4,15 / 19,562111,2019-08-09 20:23:30:849,-0.2117,-0.0556,9.1659,-0.6917,-0.081,9.7819,-0.0018,-0.0325,0.0011
5622,47.31577,-2.197292,55.92,20.25,3.216,33.4,15 / 19,562210,2019-08-09 20:23:30:948,-0.2698,0.1067,9.8219,-0.6794,-0.0796,9.7828,0.0018,-0.0183,-0.0254
5623,47.31577,-2.197292,55.92,20.25,3.216,33.4,15 / 19,562311,2019-08-09 20:23:31:049,-0.5314,0.2479,9.9907,-0.6882,-0.0752,9.7822,-0.0081,0.0478,-0.0191
5624,47.31577,-2.197292,55.92,20.25,3.216,33.4,15 / 19,562411,2019-08-09 20:23:31:149,-0.4332,-0.0436,9.6166,-0.6889,-0.0761,9.7821,0.0035,0.0346,-0.0462
5625,47.31577,-2.197292,55.92,20.25,3.216,33.4,15 / 19,562511,2019-08-09 20:23:31:249,0.6017,0.0989,10.2259,-0.7257,-0.0656,9.7795,0.0092,0.0247,0.0048
5626,47.31577,-2.197292,55.92,20.25,3.216,33.4,17 / 21,562610,2019-08-09 20:23:31:348,-2.0241,-0.298,10.2894,-0.7415,-0.0666,9.7783,-0.0003,0.0426,-0.0168
5627,47.31577,-2.197292,55.92,20.25,3.216,33.4,17 / 21,562711,2019-08-09 20:23:31:449,-2.005,0.2485,9.8883,-0.7785,-0.0466,9.7756,0.0102,0.0204,-0.0309
5628,47.31577,-2.197292,55.92,20.25,3.216,33.4,17 / 21,562811,2019-08-09 20:23:31:549,-1.1335,0.2246,9.7471,-0.7483,-0.0371,9.778,-0.0035,-0.0224,-0.0337
5629,47.31577,-2.197292,55.92,20.25,3.216,33.4,17 / 21,562910,2019-08-09 20:23:31:648,-0.8558,0.1623,9.7824,-0.7679,-0.045,9.7764,-0.0139,0.0115,-0.0187
5630,47.31577,-2.197292,55.92,20.25,3.216,33.4,17 / 21,563011,2019-08-09 20:23:31:749,-1.3963,-0.28,9.0893,-0.7487,-0.058,9.7779,-0.0194,-0.0396,-0.0112
5631,47.31577,-2.197292,55.92,20.25,3.216,33.4,17 / 21,563110,2019-08-09 20:23:31:848,-1.2335,-0.0382,9.6746,-0.7331,-0.0802,9.7789,-0.0226,0.0222,-0.0198
5632,47.31577,-2.197292,55.92,20.25,3.216,33.4,17 / 21,563210,2019-08-09 20:23:31:948,-0.0226,0.1354,10.1978,-0.7428,-0.0975,9.778,-0.032,-0.0295,-0.0002
5633,47.31577,-2.197292,55.92,20.25,3.216,33.4,17 / 21,563310,2019-08-09 20:23:32:048,-0.2644,-0.4871,9.4711,-0.725,-0.1295,9.779,-0.0044,-0.0126,-0.0129
5634,47.31577,-2.197292,55.92,20.25,3.216,33.4,17 / 21,563411,2019-08-09 20:23:32:149,-0.4236,-0.2806,9.6651,-0.7158,-0.1359,9.7795,0.0086,-0.0093,-0.0092
5635,47.31577,-2.197292,55.92,20.25,3.216,33.4,17 / 21,563510,2019-08-09 20:23:32:248,-0.4619,0.0995,10.339,-0.7383,-0.1322,9.7779,0.0002,0.0267,0.0022
5636,47.31577,-2.197292,55.92,20.25,3.216,33.4,16 / 21,563610,2019-08-09 20:23:32:348,-0.5984,-0.1573,10.1541,-0.7361,-0.1298,9.7781,0.004,0.0009,-0.0169
5637,47.31577,-2.197292,55.92,20.25,3.216,33.4,16 / 21,563711,2019-08-09 20:23:32:449,-0.4589,-0.0693,9.7578,-0.7594,-0.1229,9.7764,0.0098,0.0105,-0.0245
5638,47.31577,-2.197292,55.92,20.25,3.216,33.4,16 / 21,563810,2019-08-09 20:23:32:548,-1.3705,-0.1842,9.7878,-0.7732,-0.1158,9.7754,0.0115,0.006,0.0027
5639,47.31577,-2.197292,55.92,20.25,3.216,33.4,16 / 21,563911,2019-08-09 20:23:32:649,-2.1199,-0.2441,9.7327,-0.7705,-0.1072,9.7757,0.0042,0.0086,0.0044
5640,47.31577,-2.197292,55.92,20.25,3.216,33.4,16 / 21,564010,2019-08-09 20:23:32:748,-0.7624,-0.1806,9.5328,-0.7657,-0.1065,9.7761,0.011,-0.0307,-0.0289
5641,47.31577,-2.197292,55.92,20.25,3.216,33.4,16 / 21,564110,2019-08-09 20:23:32:848,-0.9707,0.0498,9.3574,-0.7456,-0.0859,9.7779,0.0193,-0.0146,0.0121
5642,47.31577,-2.197292,55.92,20.25,3.216,33.4,16 / 21,564211,2019-08-09 20:23:32:949,-1.5255,0.2503,10.1792,-0.7572,-0.0843,9.777,-0.0003,0.04,-0.0408
5643,47.31577,-2.197292,55.92,20.25,3.216,33.4,16 / 21,564310,2019-08-09 20:23:33:048,-1.589,-0.0496,9.6429,-0.7408,-0.0763,9.7783,0.0039,0.0262,-0.0207
5644,47.31577,-2.197292,55.92,20.25,3.216,33.4,16 / 21,564410,2019-08-09 20:23:33:148,0.7837,-0.0873,9.525,-0.7309,-0.0707,9.7791,0.0098,0.0054,-0.0119
5645,47.31577,-2.197292,55.92,20.25,3.216,33.4,16 / 21,564510,2019-08-09 20:23:33:248,0.5191,-0.2351,9.3897,-0.7193,-0.0794,9.7799,-0.0109,-0.0149,-0.0015
5646,47.317177,-2.195784,54.29,22.07,3.216,38.0,15 / 20,564610,2019-08-09 20:23:33:348,-1.4585,-0.0059,9.1665,-0.6991,-0.0794,9.7814,-0.0003,0.0013,-0.0152
5647,47.317177,-2.195784,54.29,22.07,3.216,38.0,15 / 20,564710,2019-08-09 20:23:33:448,0.6059,-0.192,9.4969,-0.6851,-0.0786,9.7824,0.0054,-0.0384,0.0043
5648,47.317177,-2.195784,54.29,22.07,3.216,38.0,15 / 20,564810,2019-08-09 20:23:33:548,0.5377,0.1216,10.2014,-0.7002,-0.0789,9.7813,-0.0074,-0.0359,-0.0066
5649,47.317177,-2.195784,54.29,22.07,3.216,38.0,15 / 20,564911,2019-08-09 20:23:33:649,-1.0132,-0.0268,9.8698,-0.6959,-0.092,9.7815,-0.0041,-0.0354,-0.0047
5650,47.317177,-2.195784,54.29,22.07,3.216,38.0,15 / 20,565010,2019-08-09 20:23:33:748,-1.7141,-0.3081,9.1066,-0.6858,-0.093,9.7822,0.0045,0.0037,-0.029
5651,47.317177,-2.195784,54.29,22.07,3.216,38.0,15 / 20,565111,2019-08-09 20:23:33:849,-1.5267,-0.0436,9.783,-0.6951,-0.092,9.7816,-0.0167,0.0449,-0.0221
5652,47.317177,-2.195784,54.29,22.07,3.216,38.0,15 / 20,565211,2019-08-09 20:23:33:949,0.1295,0.0558,9.6315,-0.7026,-0.0983,9.781,-0.0214,-0.0283,-0.0076
5653,47.317177,-2.195784,54.29,22.07,3.216,38.0,15 / 20,565311,2019-08-09 20:23:34:049,0.2647,0.124,9.7225,-0.7034,-0.1125,9.7807,-0.0017,0.0395,-0.0282
5654,47.317177,-2.195784,54.29,22.07,3.216,38.0,15 / 20,565411,2019-08-09 20:23:34:149,-0.7684,0.1929,10.1236,-0.7176,-0.1117,9.7797,-0.0119,0.0177,-0.022
5655,47.317177,-2.195784,54.29,22.07,3.216,38.0,15 / 20,565511,2019-08-09 20:23:34:249,-0.1183,0.1863,10.4444,-0.7266,-0.114,9.779,0.0108,-0.008,-0.0105
5656,47.317177,-2.195784,54.29,22.07,3.216,38.0,16 / 21,565611,2019-08-09 20:23:34:349,-1.0946,0.2874,9.6112,-0.7185,-0.103,9.7798,0.0223,0.0022,-0.0287
5657,47.317177,-2.195784,54.29,22.07,3.216,38.0,16 / 21,565711,2019-08-09 20:23:34:449,-0.0627,0.1282,9.9991,-0.7245,-0.0869,9.7795,0.0181,0.0,-0.0134
5658,47.317177,-2.195784,54.29,22.07,3.216,38.0,16 / 21,565811,2019-08-09 20:23:34:549,-0.362,-0.0454,9.7758,-0.6982,-0.096,9.7813,-0.0224,-0.0106,0.0153
5659,47.317177,-2.195784,54.29,22.07,3.216,38.0,16 / 21,565910,2019-08-09 20:23:34:648,-1.0395,-0.2914,8.9701,-0.6931,-0.1136,9.7815,-0.0228,-0.0365,-0.0065
5660,47.317177,-2.195784,54.29,22.07,3.216,38.0,16 / 21,566011,2019-08-09 20:23:34:749,-0.1357,-0.1974,9.7722,-0.6689,-0.1401,9.7828,-0.0127,0.0091,-0.0062
5661,47.317177,-2.195784,54.29,22.07,3.216,38.0,16 / 21,566111,2019-08-09 20:23:34:849,-0.1423,0.364,10.5234,-0.66,-0.1428,9.7834,-0.0194,0.0097,-0.0321
5662,47.317177,-2.195784,54.29,22.07,3.216,38.0,16 / 21,566210,2019-08-09 20:23:34:948,2.3046,-0.0747,10.0852,-0.6748,-0.1629,9.782,0.0043,-0.0201,0.0019
5663,47.317177,-2.195784,54.29,22.07,3.216,38.0,16 / 21,566310,2019-08-09 20:23:35:048,-1.4411,-0.5182,8.9492,-0.6798,-0.1621,9.7817,0.0133,0.0236,-0.0265
5664,47.317177,-2.195784,54.29,22.07,3.216,38.0,16 / 21,566411,2019-08-09 20:23:35:149,-0.3243,-0.1812,9.4975,-0.661,-0.1451,9.7833,0.0199,-0.0423,-0.0115
5665,47.317177,-2.195784,54.29,22.07,3.216,38.0,16 / 21,566511,2019-08-09 20:23:35:249,-0.4164,-0.2273,9.5448,-0.6889,-0.1399,9.7814,0.0095,0.054,-0.0304
5666,47.317177,-2.195784,54.29,22.07,3.216,38.0,15 / 20,566610,2019-08-09 20:23:35:348,-1.1173,-0.0591,9.7141,-0.6735,-0.1303,9.7826,0.0111,-0.0153,0.0009
5667,47.317177,-2.195784,54.29,22.07,3.216,38.0,15 / 20,566710,2019-08-09 20:23:35:448,0.2378,0.1216,9.7518,-0.6667,-0.1179,9.7833,0.0144,0.017,-0.0307
5668,47.317177,-2.195784,54.29,22.07,3.216,38.0,15 / 20,566811,2019-08-09 20:23:35:549,-0.3524,0.1168,10.6084,-0.6883,-0.106,9.7819,0.0004,0.0381,-0.0223
5669,47.317177,-2.195784,54.29,22.07,3.216,38.0,15 / 20,566911,2019-08-09 20:23:35:649,-1.5692,-0.3692,9.6501,-0.6972,-0.1016,9.7813,0.0109,-0.046,0.0069
5670,47.317177,-2.195784,54.29,22.07,3.216,38.0,15 / 20,567011,2019-08-09 20:23:35:749,-1.7344,-0.0011,8.5811,-0.6517,-0.0977,9.7845,-0.0002,-0.0304,0.007
5671,47.317177,-2.195784,54.29,22.07,3.216,38.0,15 / 20,567111,2019-08-09 20:23:35:849,-0.575,-0.0059,10.761,-0.631,-0.1054,9.7858,-0.0058,-0.0127,0.0551
5672,47.317177,-2.195784,54.29,22.07,3.216,38.0,15 / 20,567212,2019-08-09 20:23:35:950,0.0516,-0.523,9.9877,-0.6689,-0.1261,9.783,0.0021,0.0958,-0.0256
5673,47.317177,-2.195784,54.29,22.07,3.216,38.0,15 / 20,567311,2019-08-09 20:23:36:049,-1.9056,-0.1208,9.595,-0.6797,-0.1076,9.7825,0.0344,-0.0055,-0.0006
5674,47.317177,-2.195784,54.29,22.07,3.216,38.0,15 / 20,567410,2019-08-09 20:23:36:148,-1.3268,0.1599,9.4346,-0.6725,-0.0835,9.7832,0.0105,-0.017,-0.0301
5675,47.317177,-2.195784,54.29,22.07,3.216,38.0,15 / 20,567510,2019-08-09 20:23:36:248,-0.3596,-0.1184,9.8536,-0.6632,-0.0802,9.7839,0.0016,0.004,0.0034
5676,47.317177,-2.195784,54.29,22.07,3.216,38.0,14 / 21,567611,2019-08-09 20:23:36:349,-0.9515,0.1707,9.2479,-0.6479,-0.0746,9.7849,0.0059,-0.0031,-0.0121
5677,47.317177,-2.195784,54.29,22.07,3.216,38.0,14 / 21,567711,2019-08-09 20:23:36:449,-0.8145,0.4407,9.9613,-0.6451,-0.0675,9.7852,-0.0054,0.0134,0.0156
5678,47.317177,-2.195784,54.29,22.07,3.216,38.0,14 / 21,567811,2019-08-09 20:23:36:549,-0.7756,-0.0011,9.7908,-0.6678,-0.0861,9.7835,-0.0291,0.0236,-0.0383
5679,47.317177,-2.195784,54.29,22.07,3.216,38.0,14 / 21,567911,2019-08-09 20:23:36:649,-1.0874,-0.0148,9.862,-0.6755,-0.0892,9.7829,0.0051,0.0661,-0.0068
5680,47.317177,-2.195784,54.29,22.07,3.216,38.0,14 / 21,568011,2019-08-09 20:23:36:749,-1.3992,-0.1262,9.8123,-0.7058,-0.0793,9.7809,0.0208,-0.0211,-0.0137
5681,47.317177,-2.195784,54.29,22.07,3.216,38.0,14 / 21,568111,2019-08-09 20:23:36:849,-0.1142,0.4317,10.2283,-0.7314,-0.0695,9.7791,0.0082,0.0235,-0.047
5682,47.317177,-2.195784,54.29,22.07,3.216,38.0,14 / 21,568211,2019-08-09 20:23:36:949,0.71,0.1707,10.0098,-0.7323,-0.0612,9.7791,0.0068,-0.0265,-0.0174
5683,47.317177,-2.195784,54.29,22.07,3.216,38.0,14 / 21,568311,2019-08-09 20:23:37:049,0.9578,-0.0765,9.428,-0.7297,-0.0558,9.7793,0.0146,0.0014,-0.005
5684,47.317177,-2.195784,54.29,22.07,3.216,38.0,14 / 21,568411,2019-08-09 20:23:37:149,-1.9864,0.2719,9.5759,-0.7188,-0.0421,9.7802,-0.0132,-0.0177,-0.0346
5685,47.317177,-2.195784,54.29,22.07,3.216,38.0,14 / 21,568510,2019-08-09 20:23:37:248,0.0349,0.3012,10.254,-0.735,-0.0506,9.7789,-0.023,0.0176,0.0134
5686,47.317177,-2.195784,54.29,22.07,3.216,38.0,15 / 20,568611,2019-08-09 20:23:37:349,-0.8743,-0.4512,9.9206,-0.708,-0.0612,9.7809,-0.001,-0.0141,-0.0302
5687,47.317177,-2.195784,54.29,22.07,3.216,38.0,15 / 20,568711,2019-08-09 20:23:37:449,-0.6989,0.2066,9.0773,-0.7051,-0.0694,9.781,0.0063,0.0122,0.011
5688,47.317177,-2.195784,54.29,22.07,3.216,38.0,15 / 20,568810,2019-08-09 20:23:37:548,-1.437,0.0067,10.0463,-0.7332,-0.0741,9.7789,-0.0273,-0.0221,-0.0247
5689,47.317177,-2.195784,54.29,22.07,3.216,38.0,15 / 20,568910,2019-08-09 20:23:37:648,-0.9054,-0.626,9.7507,-0.7224,-0.0948,9.7795,-0.0074,-0.0025,0.0326
5690,47.317177,-2.195784,54.29,22.07,3.216,38.0,15 / 20,569010,2019-08-09 20:23:37:748,-0.9456,-0.1094,9.7435,-0.7219,-0.1055,9.7795,-0.0029,0.015,-0.0285
5691,47.317177,-2.195784,54.29,22.07,3.216,38.0,15 / 20,569111,2019-08-09 20:23:37:849,-1.565,0.0552,9.8021,-0.7254,-0.0998,9.7793,0.0007,0.0044,-0.0235
5692,47.317177,-2.195784,54.29,22.07,3.216,38.0,15 / 20,569211,2019-08-09 20:23:37:949,-0.7768,-0.277,9.4119,-0.717,-0.1032,9.7799,-0.0018,-0.0144,0.005
5693,47.317177,-2.195784,54.29,22.07,3.216,38.0,15 / 20,569311,2019-08-09 20:23:38:049,0.5658,-0.2974,9.9907,-0.7001,-0.1085,9.781,-0.0001,-0.0209,-0.0136
5694,47.317177,-2.195784,54.29,22.07,3.216,38.0,15 / 20,569411,2019-08-09 20:23:38:149,-1.8416,0.033,9.9889,-0.6948,-0.1106,9.7814,-0.0148,0.0607,-0.0057
5695,47.317177,-2.195784,54.29,22.07,3.216,38.0,15 / 20,569510,2019-08-09 20:23:38:248,-1.0036,-0.3782,9.9147,-0.7079,-0.1344,9.7801,-0.0294,-0.0152,-0.008
5696,47.317177,-2.195784,54.29,22.07,3.216,38.0,15 / 21,569611,2019-08-09 20:23:38:349,0.3509,-0.2662,9.8327,-0.6888,-0.1442,9.7814,0.0141,0.0192,-0.0109
5697,47.317177,-2.195784,54.29,22.07,3.216,38.0,15 / 21,569710,2019-08-09 20:23:38:448,-0.7049,0.1947,10.1224,-0.7145,-0.1372,9.7796,0.0031,0.0258,-0.0335
5698,47.317177,-2.195784,54.29,22.07,3.216,38.0,15 / 21,569810,2019-08-09 20:23:38:548,-0.1321,-0.3973,10.0248,-0.7014,-0.1405,9.7805,-0.0044,-0.0159,0.0036
5699,47.317177,-2.195784,54.29,22.07,3.216,38.0,15 / 21,569911,2019-08-09 20:23:38:649,-0.4182,-0.5422,9.3293,-0.6851,-0.1412,9.7817,0.0349,0.0054,0.0146
5700,47.317177,-2.195784,54.29,22.07,3.216,38.0,15 / 21,570010,2019-08-09 20:23:38:748,-0.8246,0.1079,9.1228,-0.6895,-0.126,9.7816,0.0221,-0.038,-0.0266
5701,47.317177,-2.195784,54.29,22.07,3.216,38.0,15 / 21,570110,2019-08-09 20:23:38:848,-1.1078,-0.2375,9.774,-0.6503,-0.1024,9.7845,0.0051,0.0472,-0.022
5702,47.317177,-2.195784,54.29,22.07,3.216,38.0,15 / 21,570211,2019-08-09 20:23:38:949,-1.5226,-0.5835,9.5142,-0.654,-0.105,9.7843,0.0101,-0.0017,-0.0389
5703,47.317177,-2.195784,54.29,22.07,3.216,38.0,15 / 21,570311,2019-08-09 20:23:39:049,-0.3763,-0.1693,9.5938,-0.6606,-0.0864,9.784,0.026,0.0034,-0.0039
5704,47.317177,-2.195784,54.29,22.07,3.216,38.0,15 / 21,570410,2019-08-09 20:23:39:148,-0.5002,-0.131,10.3061,-0.6659,-0.0791,9.7837,0.0053,0.0296,-0.0043
5705,47.317177,-2.195784,54.29,22.07,3.216,38.0,15 / 21,570511,2019-08-09 20:23:39:249,-0.4739,-0.4638,9.8171,-0.663,-0.0779,9.7839,0.0067,0.02,0.0197
5706,47.317177,-2.195784,54.29,22.07,3.216,38.0,14 / 20,570611,2019-08-09 20:23:39:349,-0.9916,0.0163,9.4891,-0.6497,-0.0769,9.7848,0.0104,-0.0262,-0.0192
5707,47.317177,-2.195784,54.29,22.07,3.216,38.0,14 / 20,570711,2019-08-09 20:23:39:449,-1.1945,0.0157,10.0314,-0.6456,-0.0688,9.7851,-0.0017,-0.0016,-0.0044
5708,47.317177,-2.195784,54.29,22.07,3.216,38.0,14 / 20,570811,2019-08-09 20:23:39:549,-1.237,-0.2411,9.9093,-0.6401,-0.0758,9.7854,-0.0062,-0.0092,0.0022
5709,47.317177,-2.195784,54.29,22.07,3.216,38.0,14 / 20,570910,2019-08-09 20:23:39:648,-0.0645,-0.3512,9.6525,-0.6451,-0.0841,9.785,0.0047,0.0054,-0.0003
5710,47.317177,-2.195784,54.29,22.07,3.216,38.0,14 / 20,571010,2019-08-09 20:23:39:748,0.2318,-0.3063,9.9464,-0.6346,-0.0821,9.7857,-0.0016,-0.0039,-0.0242
5711,47.317177,-2.195784,54.29,22.07,3.216,38.0,14 / 20,571111,2019-08-09 20:23:39:849,-0.2333,0.0672,10.1295,-0.6453,-0.087,9.785,-0.0055,0.0177,-0.0036
5712,47.317177,-2.195784,54.29,22.07,3.216,38.0,14 / 20,571211,2019-08-09 20:23:39:949,-0.4673,-0.2668,10.5174,-0.6586,-0.0946,9.7841,-0.0158,0.0323,0.0032
5713,47.317177,-2.195784,54.29,22.07,3.216,38.0,14 / 20,571310,2019-08-09 20:23:40:048,-0.0591,-0.4458,9.6645,-0.6482,-0.1241,9.7844,-0.0111,-0.0171,0.0201
5714,47.317177,-2.195784,54.29,22.07,3.216,38.0,14 / 20,571410,2019-08-09 20:23:40:148,0.2941,-0.1765,9.6824,-0.6607,-0.1322,9.7835,-0.0121,-0.0044,-0.0139
5715,47.317177,-2.195784,54.29,22.07,3.216,38.0,14 / 20,571510,2019-08-09 20:23:40:248,-1.8607,-0.0538,9.8506,-0.6344,-0.1557,9.7849,-0.019,-0.0177,0.0091
5716,47.317177,-2.195784,54.29,22.07,3.216,38.0,16 / 20,571610,2019-08-09 20:23:40:348,-1.759,-0.3321,9.2838,-0.6262,-0.1726,9.7851,-0.0138,0.0,-0.024
5717,47.317177,-2.195784,54.29,22.07,3.216,38.0,16 / 20,571710,2019-08-09 20:23:40:448,-1.1802,-0.4434,9.4615,-0.6085,-0.1813,9.7861,-0.006,-0.0046,-0.0461
5718,47.317177,-2.195784,54.29,22.07,3.216,38.0,16 / 20,571811,2019-08-09 20:23:40:549,-0.3805,-0.0651,9.7854,-0.6059,-0.1826,9.7862,-0.0021,-0.0045,0.0111
5719,47.317177,-2.195784,54.29,22.07,3.216,38.0,16 / 20,571911,2019-08-09 20:23:40:649,-1.6842,-0.2315,9.8446,-0.5876,-0.1845,9.7873,0.0058,-0.032,-0.0174
5720,47.317177,-2.195784,54.29,22.07,3.216,38.0,16 / 20,572011,2019-08-09 20:23:40:749,-1.5974,-0.1711,10.1325,-0.596,-0.176,9.7869,0.0137,0.0411,-0.0077
5721,47.317177,-2.195784,54.29,22.07,3.216,38.0,16 / 20,572111,2019-08-09 20:23:40:849,0.2378,-0.1944,9.9099,-0.6097,-0.1643,9.7863,0.0122,-0.0173,-0.007
5722,47.317177,-2.195784,54.29,22.07,3.216,38.0,16 / 20,572210,2019-08-09 20:23:40:948,-0.3847,-0.4506,9.5082,-0.5935,-0.152,9.7875,0.0264,0.0082,-0.0096
5723,47.317177,-2.195784,54.29,22.07,3.216,38.0,16 / 20,572310,2019-08-09 20:23:41:048,-1.653,0.0977,9.6094,-0.6075,-0.1183,9.7871,0.0177,-0.0064,-0.0156
5724,47.317177,-2.195784,54.29,22.07,3.216,38.0,16 / 20,572410,2019-08-09 20:23:41:148,1.235,0.0456,10.1385,-0.614,-0.112,9.7868,-0.0004,0.007,-0.0206
5725,47.317177,-2.195784,54.29,22.07,3.216,38.0,16 / 20,572510,2019-08-09 20:23:41:248,0.7047,-0.3417,9.4999,-0.6129,-0.1137,9.7868,-0.0011,-0.0115,-0.0121
5726,47.317177,-2.195784,54.29,22.07,3.216,38.0,14 / 19,572610,2019-08-09 20:23:41:348,-0.201,-0.1801,9.2,-0.6061,-0.1121,9.7873,0.0162,-0.028,0.0016
5727,47.317177,-2.195784,54.29,22.07,3.216,38.0,14 / 19,572711,2019-08-09 20:23:41:449,-0.851,0.0384,9.9284,-0.606,-0.1076,9.7873,0.0061,0.019,-0.017
5728,47.317177,-2.195784,54.29,22.07,3.216,38.0,14 / 19,572810,2019-08-09 20:23:41:548,0.3587,-0.2992,9.7423,-0.5926,-0.1186,9.788,-0.0112,-0.0129,0.0092
5729,47.317177,-2.195784,54.29,22.07,3.216,38.0,14 / 19,572911,2019-08-09 20:23:41:649,1.2703,0.1761,9.6621,-0.5842,-0.1209,9.7885,0.0042,0.0064,-0.0292
5730,47.317177,-2.195784,54.29,22.07,3.216,38.0,14 / 19,573011,2019-08-09 20:23:41:749,0.3695,0.0324,10.2935,-0.5877,-0.1225,9.7883,-0.0134,0.0399,-0.0019
5731,47.317177,-2.195784,54.29,22.07,3.216,38.0,14 / 19,573110,2019-08-09 20:23:41:848,-0.7432,-0.3536,9.7477,-0.5985,-0.1274,9.7875,-0.0137,-0.0165,-0.0012
5732,47.317177,-2.195784,54.29,22.07,3.216,38.0,14 / 19,573211,2019-08-09 20:23:41:949,0.0229,-0.453,9.291,-0.5828,-0.1386,9.7883,0.011,-0.0027,-0.0103
5733,47.317177,-2.195784,54.29,22.07,3.216,38.0,14 / 19,573311,2019-08-09 20:23:42:049,0.5706,-0.2423,9.8931,-0.5728,-0.1357,9.789,-0.0003,0.0029,-0.0315
5734,47.317177,-2.195784,54.29,22.07,3.216,38.0,14 / 19,573410,2019-08-09 20:23:42:148,-1.6512,-0.0544,10.1487,-0.5771,-0.1288,9.7888,0.0023,-0.0105,0.0196
5735,47.317177,-2.195784,54.29,22.07,3.216,38.0,14 / 19,573511,2019-08-09 20:23:42:249,-1.8655,-0.5679,9.3203,-0.5737,-0.134,9.7889,0.0029,0.0095,0.0013
5736,47.31855,-2.194032,53.91,22.02,3.216,42.5,17 / 20,573611,2019-08-09 20:23:42:349,-0.4793,-0.052,9.3772,-0.5654,-0.1118,9.7897,0.0255,-0.0204,-0.012
5737,47.31855,-2.194032,53.91,22.02,3.216,42.5,17 / 20,573711,2019-08-09 20:23:42:449,-1.5166,0.0163,9.7465,-0.5591,-0.0973,9.7902,0.0134,0.0139,-0.0179
5738,47.31855,-2.194032,53.91,22.02,3.216,42.5,17 / 20,573810,2019-08-09 20:23:42:548,-1.3819,-0.1393,9.4179,-0.5444,-0.0906,9.7911,0.0012,-0.0222,-0.0063
5739,47.31855,-2.194032,53.91,22.02,3.216,42.5,17 / 20,573911,2019-08-09 20:23:42:649,-1.8637,-0.0591,9.4496,-0.5391,-0.0849,9.7915,0.0151,0.0217,-0.0147
5740,47.31855,-2.194032,53.91,22.02,3.216,42.5,17 / 20,574011,2019-08-09 20:23:42:749,1.3277,-0.1962,9.1491,-0.5248,-0.0663,9.7924,0.0198,-0.0294,-0.0003
5741,47.31855,-2.194032,53.91,22.02,3.216,42.5,17 / 20,574110,2019-08-09 20:23:42:848,0.2282,0.0935,10.0625,-0.5431,-0.0607,9.7914,0.0009,0.0148,0.0099
5742,47.31855,-2.194032,53.91,22.02,3.216,42.5,17 / 20,574210,2019-08-09 20:23:42:948,-1.6536,-0.1112,9.2299,-0.5392,-0.0551,9.7917,0.0097,-0.0055,-0.0066
5743,47.31855,-2.194032,53.91,22.02,3.216,42.5,17 / 20,574310,2019-08-09 20:23:43:048,0.4269,-0.2202,9.5358,-0.5347,-0.0429,9.792,0.0243,-0.0186,0.0043
5744,47.31855,-2.194032,53.91,22.02,3.216,42.5,17 / 20,574410,2019-08-09 20:23:43:148,-0.0423,0.0726,10.1858,-0.5466,-0.0338,9.7913,-0.0057,0.0035,0.0098
5745,47.31855,-2.194032,53.91,22.02,3.216,42.5,17 / 20,574510,2019-08-09 20:23:43:248,-0.4661,-0.3369,9.3299,-0.5284,-0.0402,9.7923,0.0084,0.0004,0.012
5746,47.31855,-2.194032,53.91,22.02,3.216,42.5,17 / 19,574610,2019-08-09 20:23:43:348,-0.9037,-0.0657,9.3005,-0.5367,-0.0312,9.7919,0.0148,-0.0015,-0.0253
5747,47.31855,-2.194032,53.91,22.02,3.216,42.5,17 / 19,574710,2019-08-09 20:23:43:448,0.3072,0.2976,10.0679,-0.5383,-0.0247,9.7918,-0.014,0.0213,-0.0202
5748,47.31855,-2.194032,53.91,22.02,3.216,42.5,17 / 19,574810,2019-08-09 20:23:43:548,0.74,-0.4847,9.4466,-0.5292,-0.0369,9.7923,0.0074,-0.0001,-0.009
5749,47.31855,-2.194032,53.91,22.02,3.216,42.5,17 / 19,574911,2019-08-09 20:23:43:649,-2.2085,-0.0382,9.2898,-0.545,-0.0402,9.7914,0.006,-0.0296,0.0092
5750,47.31855,-2.194032,53.91,22.02,3.216,42.5,17 / 19,575011,2019-08-09 20:23:43:749,-1.2083,0.1115,9.6651,-0.5292,-0.0436,9.7923,-0.0085,-0.0511,0.0102
5751,47.31855,-2.194032,53.91,22.02,3.216,42.5,17 / 19,575110,2019-08-09 20:23:43:848,-0.9396,-0.1417,9.616,-0.5127,-0.0452,9.7931,-0.0058,0.0054,-0.0034
5752,47.31855,-2.194032,53.91,22.02,3.216,42.5,17 / 19,575211,2019-08-09 20:23:43:949,-0.9396,-0.5284,9.8051,-0.5237,-0.0582,9.7925,0.0067,-0.0036,0.0094
5753,47.31855,-2.194032,53.91,22.02,3.216,42.5,17 / 19,575311,2019-08-09 20:23:44:049,-1.164,-0.511,8.9462,-0.5087,-0.0498,9.7933,0.0288,-0.0355,-0.008
5754,47.31855,-2.194032,53.91,22.02,3.216,42.5,17 / 19,575411,2019-08-09 20:23:44:149,-0.6307,0.4017,9.5986,-0.5345,-0.0246,9.792,0.0088,-0.0026,-0.0123
5755,47.31855,-2.194032,53.91,22.02,3.216,42.5,17 / 19,575510,2019-08-09 20:23:44:248,-1.2107,-0.5661,9.6848,-0.5371,-0.0146,9.7919,0.0119,-0.0422,-0.0004
5756,47.31855,-2.194032,53.91,22.02,3.216,42.5,16 / 20,575610,2019-08-09 20:23:44:348,-1.176,-0.2399,9.0085,-0.527,-0.0057,9.7925,0.006,0.0354,-0.0121
5757,47.31855,-2.194032,53.91,22.02,3.216,42.5,16 / 20,575710,2019-08-09 20:23:44:448,-1.5549,-0.0137,9.8548,-0.527,-0.0101,9.7925,-0.0149,-0.015,0.0006
5758,47.31855,-2.194032,53.91,22.02,3.216,42.5,16 / 20,575810,2019-08-09 20:23:44:548,0.3892,-0.0466,10.275,-0.5316,-0.025,9.7922,-0.0272,0.0027,0.0066
5759,47.31855,-2.194032,53.91,22.02,3.216,42.5,16 / 20,575911,2019-08-09 20:23:44:649,0.005,-0.1908,10.4486,-0.566,-0.065,9.7901,-0.0274,0.043,0.0031
5760,47.31855,-2.194032,53.91,22.02,3.216,42.5,16 / 20,576011,2019-08-09 20:23:44:749,-0.5727,0.054,10.0463,-0.5573,-0.0795,9.7905,-0.0203,0.0395,-0.0065
5761,47.31855,-2.194032,53.91,22.02,3.216,42.5,16 / 20,576111,2019-08-09 20:23:44:849,-0.9821,-0.1573,9.8057,-0.5675,-0.1037,9.7897,-0.0148,-0.0264,-0.0086
5762,47.31855,-2.194032,53.91,22.02,3.216,42.5,16 / 20,576211,2019-08-09 20:23:44:949,-0.7803,0.1504,9.4951,-0.5656,-0.1059,9.7898,0.0059,-0.0035,-0.0439
5763,47.31855,-2.194032,53.91,22.02,3.216,42.5,16 / 20,576310,2019-08-09 20:23:45:048,-1.5387,0.1953,9.9577,-0.5715,-0.0952,9.7895,-0.0038,-0.0049,-0.0077
5764,47.31855,-2.194032,53.91,22.02,3.216,42.5,16 / 20,576410,2019-08-09 20:23:45:148,0.06,0.2324,9.4592,-0.565,-0.0933,9.7899,-0.0054,-0.017,-0.0332
5765,47.31855,-2.194032,53.91,22.02,3.216,42.5,16 / 20,576511,2019-08-09 20:23:45:249,-0.271,-0.0651,9.5394,-0.5752,-0.0817,9.7894,0.0071,0.0254,-0.0487
5766,47.31855,-2.194032,53.91,22.02,3.216,42.5,15 / 19,576610,2019-08-09 20:23:45:348,-1.0527,-0.0975,10.0188,-0.5745,-0.0736,9.7895,0.0133,0.0079,0.0104
5767,47.31855,-2.194032,53.91,22.02,3.216,42.5,15 / 19,576711,2019-08-09 20:23:45:449,-0.6876,-0.104,9.7902,-0.5939,-0.0537,9.7885,0.0209,-0.0192,-0.0068
5768,47.31855,-2.194032,53.91,22.02,3.216,42.5,15 / 19,576810,2019-08-09 20:23:45:548,-0.18,0.0749,9.1407,-0.5751,-0.0403,9.7897,0.0236,-0.0253,-0.0131
5769,47.31855,-2.194032,53.91,22.02,3.216,42.5,15 / 19,576911,2019-08-09 20:23:45:649,-1.3328,0.2695,9.194,-0.55,-0.0167,9.7912,0.005,-0.0138,0.0113
5770,47.31855,-2.194032,53.91,22.02,3.216,42.5,15 / 19,577011,2019-08-09 20:23:45:749,-0.4338,0.0576,10.2068,-0.5694,-0.02,9.7901,-0.0239,-0.0239,-0.0012
5771,47.31855,-2.194032,53.91,22.02,3.216,42.5,15 / 19,577110,2019-08-09 20:23:45:848,-0.4877,0.2527,9.3993,-0.5774,-0.0382,9.7896,-0.0101,-0.0034,0.0125
5772,47.31855,-2.194032,53.91,22.02,3.216,42.5,15 / 19,577211,2019-08-09 20:23:45:949,-0.8665,0.2078,9.4071,-0.5535,-0.0448,9.7909,-0.004,-0.0209,-0.0278
5773,47.31855,-2.194032,53.91,22.02,3.216,42.5,15 / 19,577311,2019-08-09 20:23:46:049,-0.1309,0.2359,10.3115,-0.588,-0.0533,9.7889,-0.0149,-0.0006,-0.0271
5774,47.31855,-2.194032,53.91,22.02,3.216,42.5,15 / 19,577411,2019-08-09 20:23:46:149,-1.8661,-0.1573,9.8853,-0.5844,-0.0597,9.789,-0.0085,-0.0037,-0.0007
5775,47.31855,-2.194032,53.91,22.02,3.216,42.5,15 / 19,577510,2019-08-09 20:23:46:248,-1.1485,-0.0136,9.1204,-0.5742,-0.0584,9.7897,0.0082,0.0062,-0.0309
5776,47.31855,-2.194032,53.91,22.02,3.216,42.5,13 / 16,577611,2019-08-09 20:23:46:349,-0.2877,0.2306,10.0242,-0.5887,-0.0511,9.7888,-0.0097,0.027,-0.0183
5777,47.31855,-2.194032,53.91,22.02,3.216,42.5,13 / 16,577710,2019-08-09 20:23:46:448,-0.9749,-0.1208,10.0858,-0.6043,-0.0545,9.7879,-0.0028,-0.0156,0.0089
5778,47.31855,-2.194032,53.91,22.02,3.216,42.5,13 / 16,577811,2019-08-09 20:23:46:549,-0.933,-0.2381,9.3418,-0.6045,-0.0507,9.7879,0.0142,-0.0266,-0.0187
5779,47.31855,-2.194032,53.91,22.02,3.216,42.5,13 / 16,577911,2019-08-09 20:23:46:649,-0.6481,0.1994,9.6411,-0.6018,-0.0371,9.7881,0.0108,0.0054,-0.0156
5780,47.31855,-2.194032,53.91,22.02,3.216,42.5,13 / 16,578010,2019-08-09 20:23:46:748,-0.2901,0.124,10.3558,-0.6157,-0.0359,9.7872,-0.0006,0.0199,-0.0048
5781,47.31855,-2.194032,53.91,22.02,3.216,42.5,13 / 16,578110,2019-08-09 20:23:46:848,-0.8504,-0.1094,9.3514,-0.6011,-0.0488,9.7881,0.0056,-0.0028,-0.0005
5782,47.31855,-2.194032,53.91,22.02,3.216,42.5,13 / 16,578211,2019-08-09 20:23:46:949,-1.5405,-0.0053,9.4376,-0.6031,-0.0471,9.788,0.0041,-0.0181,-0.0266
5783,47.31855,-2.194032,53.91,22.02,3.216,42.5,13 / 16,578310,2019-08-09 20:23:47:048,0.2791,0.1539,9.5831,-0.583,-0.0482,9.7892,-0.0061,0.0266,-0.0122
5784,47.31855,-2.194032,53.91,22.02,3.216,42.5,13 / 16,578411,2019-08-09 20:23:47:149,-0.2896,0.1138,10.4893,-0.6101,-0.0514,9.7875,-0.0185,-0.0024,-0.0338
5785,47.31855,-2.194032,53.91,22.02,3.216,42.5,13 / 16,578511,2019-08-09 20:23:47:249,-2.0158,-0.4835,9.4388,-0.5952,-0.0773,9.7883,-0.0076,-0.0058,-0.0163
5786,47.31855,-2.194032,53.91,22.02,3.216,42.5,16 / 19,578611,2019-08-09 20:23:47:349,0.5383,-0.0867,9.9655,-0.6253,-0.08,9.7864,-0.0049,0.0603,-0.0198
5787,47.31855,-2.194032,53.91,22.02,3.216,42.5,16 / 19,578711,2019-08-09 20:23:47:449,-0.8665,-0.0741,9.8105,-0.6357,-0.0899,9.7856,-0.005,-0.0079,0.0041
5788,47.31855,-2.194032,53.91,22.02,3.216,42.5,16 / 19,578811,2019-08-09 20:23:47:549,-1.4597,-0.1591,9.4448,-0.6264,-0.0936,9.7862,0.0023,-0.0213,-0.0153
5789,47.31855,-2.194032,53.91,22.02,3.216,42.5,16 / 19,578911,2019-08-09 20:23:47:649,-0.5224,0.0839,10.2654,-0.646,-0.0973,9.7849,-0.0131,0.0088,-0.0121
5790,47.31855,-2.194032,53.91,22.02,3.216,42.5,16 / 19,579011,2019-08-09 20:23:47:749,-0.6367,-0.3614,9.8734,-0.6354,-0.1044,9.7855,-0.0058,-0.0054,0.0123
5791,47.31855,-2.194032,53.91,22.02,3.216,42.5,16 / 19,579110,2019-08-09 20:23:47:848,-0.7857,-0.3901,9.27,-0.6254,-0.1016,9.7862,0.0126,0.0091,-0.0043
5792,47.31855,-2.194032,53.91,22.02,3.216,42.5,16 / 19,579210,2019-08-09 20:23:47:948,-0.6553,-0.6439,9.5292,-0.6161,-0.0983,9.7868,0.0071,0.0061,-0.013
5793,47.31855,-2.194032,53.91,22.02,3.216,42.5,16 / 19,579311,2019-08-09 20:23:48:049,-0.1058,-0.1591,9.5807,-0.613,-0.0995,9.787,0.0148,-0.0373,0.0261
5794,47.31855,-2.194032,53.91,22.02,3.216,42.5,16 / 19,579411,2019-08-09 20:23:48:149,0.2162,-0.3069,9.4915,-0.5947,-0.0988,9.7881,-0.0065,-0.0228,0.0345
5795,47.31855,-2.194032,53.91,22.02,3.216,42.5,16 / 19,579511,2019-08-09 20:23:48:249,-0.6026,-0.4769,10.1325,-0.5768,-0.1076,9.7891,-0.0194,0.0274,0.0119
5796,47.31855,-2.194032,53.91,22.02,3.216,42.5,15 / 19,579611,2019-08-09 20:23:48:349,-0.2255,-0.6176,10.2103,-0.6013,-0.1504,9.787,-0.0218,0.021,0.0297
5797,47.31855,-2.194032,53.91,22.02,3.216,42.5,15 / 19,579710,2019-08-09 20:23:48:448,-1.0144,-1.0491,9.3269,-0.598,-0.1705,9.7869,0.0086,-0.011,0.0139
5798,47.31855,-2.194032,53.91,22.02,3.216,42.5,15 / 19,579811,2019-08-09 20:23:48:549,-1.0311,-0.4488,10.2014,-0.6118,-0.1762,9.786,-0.0132,0.0159,-0.0071
5799,47.31855,-2.194032,53.91,22.02,3.216,42.5,15 / 19,579911,2019-08-09 20:23:48:649,-0.6122,-0.5146,10.2971,-0.6263,-0.1948,9.7847,-0.0126,-0.0096,0.0332
5800,47.31855,-2.194032,53.91,22.02,3.216,42.5,15 / 19,580011,2019-08-09 20:23:48:749,0.0822,-0.6379,9.513,-0.6218,-0.2151,9.7846,0.0079,-0.0476,0.0125
5801,47.31855,-2.194032,53.91,22.02,3.216,42.5,15 / 19,580110,2019-08-09 20:23:48:848,-0.0399,-0.3955,10.0655,-0.6172,-0.2192,9.7848,-0.0121,0.0136,0.0067
5802,47.31855,-2.194032,53.91,22.02,3.216,42.5,15 / 19,580210,2019-08-09 20:23:48:948,-0.8851,-0.2531,10.0595,-0.6214,-0.2382,9.784,-0.015,-0.0076,0.0247
5803,47.31855,-2.194032,53.91,22.02,3.216,42.5,15 / 19,580310,2019-08-09 20:23:49:048,-0.7612,-0.7451,9.1228,-0.6047,-0.2512,9.7848,-0.0051,-0.0314,0.018
5804,47.31855,-2.194032,53.91,22.02,3.216,42.5,15 / 19,580410,2019-08-09 20:23:49:148,-1.3711,-0.3536,10.114,-0.6154,-0.2548,9.784,0.0043,0.0289,-0.0042
5805,47.31855,-2.194032,53.91,22.02,3.216,42.5,15 / 19,580510,2019-08-09 20:23:49:248,-0.1208,-0.1441,10.2355,-0.6178,-0.2547,9.7839,-0.0058,0.0204,-0.0136
5806,47.31855,-2.194032,53.91,22.02,3.216,42.5,17 / 20,580611,2019-08-09 20:23:49:349,-0.9599,-0.4171,9.4646,-0.6126,-0.258,9.7841,0.008,-0.0164,-0.0127
5807,47.31855,-2.194032,53.91,22.02,3.216,42.5,17 / 20,580710,2019-08-09 20:23:49:448,-0.2285,-0.3033,9.6782,-0.6268,-0.2486,9.7834,0.0158,0.0204,-0.0372
5808,47.31855,-2.194032,53.91,22.02,3.216,42.5,17 / 20,580810,2019-08-09 20:23:49:548,-1.41,-0.0304,10.2504,-0.638,-0.2268,9.7832,0.0065,0.014,0.0137
5809,47.31855,-2.194032,53.91,22.02,3.216,42.5,17 / 20,580910,2019-08-09 20:23:49:648,-0.3871,-0.3746,9.3808,-0.6232,-0.2285,9.7842,0.0173,-0.0308,0.0164
5810,47.31855,-2.194032,53.91,22.02,3.216,42.5,17 / 20,581011,2019-08-09 20:23:49:749,-0.4865,-0.1639,9.6675,-0.6163,-0.2139,9.7849,0.011,0.0086,-0.0148
5811,47.31855,-2.194032,53.91,22.02,3.216,42.5,17 / 20,581111,2019-08-09 20:23:49:849,-0.3195,-0.0986,9.9727,-0.6167,-0.2115,9.785,0.0039,0.0012,-0.0002
5812,47.31855,-2.194032,53.91,22.02,3.216,42.5,17 / 20,581211,2019-08-09 20:23:49:949,-1.0365,-0.5488,9.0282,-0.5931,-0.2154,9.7863,0.0007,-0.0056,0.0098
5813,47.31855,-2.194032,53.91,22.02,3.216,42.5,17 / 20,581310,2019-08-09 20:23:50:048,-0.8647,-0.1028,10.035,-0.586,-0.2133,9.7868,0.0052,-0.0071,-0.0156
5814,47.31855,-2.194032,53.91,22.02,3.216,42.5,17 / 20,581410,2019-08-09 20:23:50:148,-0.6403,-0.0125,9.9404,-0.599,-0.227,9.7857,-0.0191,-0.0061,0.0031
5815,47.31855,-2.194032,53.91,22.02,3.216,42.5,17 / 20,581510,2019-08-09 20:23:50:248,-0.7193,-0.1633,9.54,-0.5976,-0.2434,9.7854,-0.0155,-0.0143,0.0095
5816,47.31855,-2.194032,53.91,22.02,3.216,42.5,15 / 19,581610,2019-08-09 20:23:50:348,-0.8863,-0.1866,9.3083,-0.5797,-0.2628,9.786,-0.0179,0.0153,-0.0017
5817,47.31855,-2.194032,53.91,22.02,3.216,42.5,15 / 19,581710,2019-08-09 20:23:50:448,-0.1902,-0.11,9.8829,-0.5733,-0.2765,9.786,-0.0349,0.0033,-0.0147
5818,47.31855,-2.194032,53.91,22.02,3.216,42.5,15 / 19,581810,2019-08-09 20:23:50:548,-0.3853,-0.3476,9.7177,-0.571,-0.3133,9.785,-0.0076,0.0113,0.0074
5819,47.31855,-2.194032,53.91,22.02,3.216,42.5,15 / 19,581911,2019-08-09 20:23:50:649,-0.438,-0.1112,10.0954,-0.5811,-0.317,9.7843,0.0023,0.0286,-0.0283
5820,47.31855,-2.194032,53.91,22.02,3.216,42.5,15 / 19,582010,2019-08-09 20:23:50:748,-1.5124,-0.2303,10.0098,-0.596,-0.3072,9.7837,-0.001,0.018,-0.0325
5821,47.31855,-2.194032,53.91,22.02,3.216,42.5,15 / 19,582110,2019-08-09 20:23:50:848,-1.2023,-0.0154,9.5418,-0.5966,-0.306,9.7837,-0.0032,-0.0132,0.0037
5822,47.31855,-2.194032,53.91,22.02,3.216,42.5,15 / 19,582210,2019-08-09 20:23:50:948,-0.9952,0.1498,10.09,-0.6114,-0.3049,9.7828,-0.0067,0.0285,0.0041
5823,47.31855,-2.194032,53.91,22.02,3.216,42.5,15 / 19,582311,2019-08-09 20:23:51:049,0.5042,-0.2184,10.0033,-0.6103,-0.3074,9.7828,-0.0039,0.0015,-0.0197
5824,47.31855,-2.194032,53.91,22.02,3.216,42.5,15 / 19,582410,2019-08-09 20:23:51:148,-0.9797,-0.3153,9.6321,-0.6013,-0.2956,9.7837,0.017,-0.0292,-0.0019
5825,47.31855,-2.194032,53.91,22.02,3.216,42.5,15 / 19,582510,2019-08-09 20:23:51:248,-0.1555,-0.0208,9.7483,-0.6119,-0.2755,9.7837,0.0242,0.0016,-0.0089
5826,47.3199,-2.192134,51.6,24.18,3.216,44.3,16 / 21,582610,2019-08-09 20:23:51:348,-0.3536,0.0247,10.1469,-0.6097,-0.2583,9.7843,0.0086,0.016,-0.018
5827,47.3199,-2.192134,51.6,24.18,3.216,44.3,16 / 21,582711,2019-08-09 20:23:51:449,-0.8258,-0.1136,9.3179,-0.5936,-0.2387,9.7858,0.0062,-0.0323,-0.0106
5828,47.3199,-2.192134,51.6,24.18,3.216,44.3,16 / 21,582811,2019-08-09 20:23:51:549,-1.0497,-0.0172,9.4382,-0.5908,-0.2311,9.7861,0.0083,-0.0056,-0.0135
5829,47.3199,-2.192134,51.6,24.18,3.216,44.3,16 / 21,582910,2019-08-09 20:23:51:648,-0.6355,0.1671,10.0427,-0.5912,-0.2188,9.7864,-0.0121,0.0209,-0.012
5830,47.3199,-2.192134,51.6,24.18,3.216,44.3,16 / 21,583011,2019-08-09 20:23:51:749,-0.6708,0.063,9.6788,-0.6034,-0.2209,9.7856,-0.0101,-0.0183,-0.0081
5831,47.3199,-2.192134,51.6,24.18,3.216,44.3,16 / 21,583110,2019-08-09 20:23:51:848,0.1444,0.309,9.5968,-0.5868,-0.2128,9.7868,0.016,-0.0019,-0.0336
5832,47.3199,-2.192134,51.6,24.18,3.216,44.3,16 / 21,583210,2019-08-09 20:23:51:948,-0.7055,0.64,10.0912,-0.5887,-0.1957,9.787,0.008,-0.0137,-0.0083
5833,47.3199,-2.192134,51.6,24.18,3.216,44.3,16 / 21,583310,2019-08-09 20:23:52:048,0.0528,0.0953,9.7267,-0.5793,-0.1702,9.788,0.0097,0.0022,-0.0405
5834,47.3199,-2.192134,51.6,24.18,3.216,44.3,16 / 21,583411,2019-08-09 20:23:52:149,-0.599,0.3994,9.774,-0.593,-0.1519,9.7875,0.0185,0.0191,-0.033
5835,47.3199,-2.192134,51.6,24.18,3.216,44.3,16 / 21,583511,2019-08-09 20:23:52:249,0.1869,0.3449,10.4707,-0.61,-0.1219,9.7869,0.005,0.0276,-0.0197
5836,47.3199,-2.192134,51.6,24.18,3.216,44.3,16 / 21,583610,2019-08-09 20:23:52:348,-1.2245,0.5795,10.3696,-0.6331,-0.113,9.7855,-0.0042,0.0169,-0.0322
5837,47.3199,-2.192134,51.6,24.18,3.216,44.3,16 / 21,583711,2019-08-09 20:23:52:449,-0.5721,0.479,9.8129,-0.6314,-0.104,9.7857,-0.0059,-0.0081,-0.0359
5838,47.3199,-2.192134,51.6,24.18,3.216,44.3,16 / 21,583810,2019-08-09 20:23:52:548,-0.9725,0.7112,9.8829,-0.641,-0.0948,9.7852,-0.0147,0.0294,-0.0695
5839,47.3199,-2.192134,51.6,24.18,3.216,44.3,16 / 21,583911,2019-08-09 20:23:52:649,0.0606,0.5191,9.8722,-0.6247,-0.0898,9.7863,-0.0159,-0.0472,0.007
5840,47.3199,-2.192134,51.6,24.18,3.216,44.3,16 / 21,584011,2019-08-09 20:23:52:749,-0.4703,0.2312,9.9135,-0.6211,-0.0968,9.7865,-0.0067,0.0066,-0.0296
5841,47.3199,-2.192134,51.6,24.18,3.216,44.3,16 / 21,584110,2019-08-09 20:23:52:848,0.4826,0.3611,9.8722,-0.6172,-0.0873,9.7868,0.0044,-0.0087,-0.0253
5842,47.3199,-2.192134,51.6,24.18,3.216,44.3,16 / 21,584210,2019-08-09 20:23:52:948,-1.4944,0.3563,9.2413,-0.6107,-0.0766,9.7873,0.011,-0.0157,-0.0324
5843,47.3199,-2.192134,51.6,24.18,3.216,44.3,16 / 21,584311,2019-08-09 20:23:53:049,-0.6529,0.7076,9.2407,-0.5871,-0.0418,9.789,0.0138,-0.0272,-0.0478
5844,47.3199,-2.192134,51.6,24.18,3.216,44.3,16 / 21,584410,2019-08-09 20:23:53:148,-1.3981,0.9883,10.1134,-0.5927,-0.0279,9.7887,-0.0159,0.0016,-0.0444
5845,47.3199,-2.192134,51.6,24.18,3.216,44.3,16 / 21,584510,2019-08-09 20:23:53:248,-0.6738,0.6292,9.92,-0.5786,-0.0239,9.7895,0.0123,-0.0093,-0.007
5846,47.3199,-2.192134,51.6,24.18,3.216,44.3,15 / 20,584610,2019-08-09 20:23:53:348,-0.1279,0.6759,9.5956,-0.5774,-0.0093,9.7896,0.0156,0.0159,-0.0491
5847,47.3199,-2.192134,51.6,24.18,3.216,44.3,15 / 20,584710,2019-08-09 20:23:53:448,-0.253,0.78,10.6976,-0.6029,0.0198,9.7881,-0.0043,0.0277,-0.0307
5848,47.3199,-2.192134,51.6,24.18,3.216,44.3,15 / 20,584810,2019-08-09 20:23:53:548,-0.4883,0.5472,10.427,-0.6129,0.0286,9.7874,-0.0049,0.0331,-0.0396
5849,47.3199,-2.192134,51.6,24.18,3.216,44.3,15 / 20,584910,2019-08-09 20:23:53:648,-0.9384,0.5831,10.1912,-0.6417,0.0399,9.7856,0.0103,0.0044,-0.0255
5850,47.3199,-2.192134,51.6,24.18,3.216,44.3,15 / 20,585011,2019-08-09 20:23:53:749,0.0325,0.7543,9.8775,-0.6512,0.0553,9.7849,0.0071,0.0036,-0.0501
5851,47.3199,-2.192134,51.6,24.18,3.216,44.3,15 / 20,585110,2019-08-09 20:23:53:848,-1.1263,0.8309,9.8105,-0.644,0.0693,9.7852,-0.01,-0.0025,-0.017
5852,47.3199,-2.192134,51.6,24.18,3.216,44.3,15 / 20,585210,2019-08-09 20:23:53:948,-0.4948,0.4574,9.853,-0.6476,0.0658,9.785,-0.0108,0.0119,-0.0336
5853,47.3199,-2.192134,51.6,24.18,3.216,44.3,15 / 20,585310,2019-08-09 20:23:54:048,-0.4655,0.4981,10.1325,-0.6539,0.0635,9.7846,-0.0059,0.0201,-0.0254
5854,47.3199,-2.192134,51.6,24.18,3.216,44.3,15 / 20,585410,2019-08-09 20:23:54:148,-1.2221,0.0324,9.7914,-0.6493,0.0674,9.7849,0.0013,-0.0121,-0.0252
5855,47.3199,-2.192134,51.6,24.18,3.216,44.3,15 / 20,585511,2019-08-09 20:23:54:249,-0.6606,0.1025,9.6004,-0.6476,0.0811,9.7849,0.0111,0.0067,-0.0302
5856,47.3199,-2.192134,51.6,24.18,3.216,44.3,14 / 21,585610,2019-08-09 20:23:54:348,-0.426,0.4574,10.4982,-0.6515,0.0928,9.7845,0.0067,0.0362,-0.0382
5857,47.3199,-2.192134,51.6,24.18,3.216,44.3,14 / 21,585711,2019-08-09 20:23:54:449,-0.4859,0.3754,10.4037,-0.673,0.1109,9.7829,0.0112,-0.0034,-0.007
5858,47.3199,-2.192134,51.6,24.18,3.216,44.3,14 / 21,585810,2019-08-09 20:23:54:548,-0.7468,0.3,9.6477,-0.6982,0.125,9.781,0.0269,-0.0015,-0.0379
5859,47.3199,-2.192134,51.6,24.18,3.216,44.3,14 / 21,585910,2019-08-09 20:23:54:648,-0.3656,0.7256,10.3324,-0.7216,0.1676,9.7786,0.0171,0.0043,-0.0456
5860,47.3199,-2.192134,51.6,24.18,3.216,44.3,14 / 21,586011,2019-08-09 20:23:54:749,-0.6397,0.4125,10.1954,-0.735,0.1747,9.7775,0.004,0.0191,-0.0237
5861,47.3199,-2.192134,51.6,24.18,3.216,44.3,14 / 21,586110,2019-08-09 20:23:54:848,-0.5703,0.1869,9.358,-0.7163,0.1762,9.7789,-0.0144,-0.0008,-0.0457
5862,47.3199,-2.192134,51.6,24.18,3.216,44.3,14 / 21,586210,2019-08-09 20:23:54:948,-1.0581,0.5053,9.8811,-0.7244,0.1577,9.7786,-0.0423,-0.0087,-0.0574
