,GPS LATITUDE (degrees), GPS LONGITUDE (degrees), GPS ALTITUDE (m), GPS SPEED (Kmh), GPS ACCURACY (m), GPS ORIENTATION (Â°),GPS SATELLITES IN RANGE, TIME SINCE START (ms), DATE (YYYY-MO-DD HH-MI-SS_SSS), ACCELEROMETER X (m/s²) , ACCELEROMETER Y (m/s²), ACCELEROMETER Z (m/s²), GRAVITY X (m/s²), GRAVITY Y (m/s²), GRAVITY Z (m/s²), GYROSCOPE Yaw (rad/s), GYROSCOPE Pitch (rad/s), GYROSCOPE Roll (rad/s), MAGNETIC FIELD X (Î¼T), MAGNETIC FIELD Y (Î¼T), MAGNETIC FIELD Z (Î¼T), ORIENTATION (Yaw) (Â°), ORIENTATION (Pitch) (Â°), ORIENTATION (Roll ) (Â°)
5738,52.396233,-1.431454,143.87,1.89,3,96.87,16 / 16,605121,2019-09-04 19:31:25:294,0.5171,0.0065,9.9641,-0.0031,0.0007,9.8066,0.0002,0.0003,-0.0043,-19.75,-30.37,9.13,78.19,-88.94,-37.46
5739,52.396233,-1.431454,143.87,1.89,3,96.87,16 / 16,605221,2019-09-04 19:31:25:394,0.4844,-0.0493,9.7991,-0.0028,-0.0011,9.8066,-0.0013,0.0183,0.0158,-20.12,-30.31,7.94,76.4,-88.91,-36.88
5740,52.396233,-1.431454,143.87,1.89,3,96.87,17 / 17,605321,2019-09-04 19:31:25:494,0.3972,0.056,9.7999,-0.0041,-0.0007,9.8066,-0.0035,0.0106,0.0056,-20.31,-30.31,9.25,79.11,-88.85,-36.67
5741,52.396233,-1.431454,143.87,1.89,3,96.87,17 / 17,605420,2019-09-04 19:31:25:593,0.5618,-0.0615,9.9246,-0.0013,-0.001,9.8066,0.003,-0.0118,-0.0112,-20.44,-29.81,9.0,79.43,-88.79,-36.42
5742,52.396233,-1.431454,143.87,1.89,3,96.87,17 / 17,605520,2019-09-04 19:31:25:693,0.4703,-0.0616,9.7499,-0.0028,0.0008,9.8066,0.0045,-0.011,-0.018,-20.0,-30.31,9.25,79.96,-88.75,-35.96
5743,52.396233,-1.431454,143.87,1.89,3,96.87,17 / 17,605621,2019-09-04 19:31:25:794,0.4382,0.0711,9.9141,-0.0034,0.0005,9.8066,0.0027,-0.0083,-0.0065,-20.0,-30.12,9.19,80.83,-88.69,-35.17
5744,52.396233,-1.431454,143.87,1.89,3,96.87,17 / 17,605721,2019-09-04 19:31:25:894,0.5716,-0.1356,9.8892,-0.0027,0.0018,9.8066,-0.0028,0.0222,0.0204,-20.31,-30.25,9.13,81.39,-88.68,-34.63
5745,52.396233,-1.431454,143.87,1.89,3,96.87,17 / 17,605821,2019-09-04 19:31:25:994,0.4556,-0.0317,9.7658,-0.0033,-0.0001,9.8066,-0.0045,0.016,0.012,-19.87,-29.87,9.38,82.15,-88.65,-33.9
5746,52.396233,-1.431454,143.87,1.89,3,96.87,17 / 17,605920,2019-09-04 19:31:26:093,0.4886,0.0719,9.8791,-0.0002,-0.0004,9.8066,-0.0013,-0.0059,-0.0093,-19.87,-30.62,9.19,82.44,-88.6,-33.74
5747,52.396233,-1.431454,143.87,1.89,3,96.87,17 / 17,606021,2019-09-04 19:31:26:194,0.5581,-0.1363,9.8274,-0.0035,-0.0001,9.8066,0.0035,-0.0253,-0.0232,-20.06,-30.5,8.81,82.7,-88.56,-33.49
5748,52.396233,-1.431454,143.87,1.89,3,96.87,17 / 17,606121,2019-09-04 19:31:26:294,0.4556,0.0416,9.7546,-0.0026,0.0005,9.8066,0.0025,0.0054,-0.0009,-20.19,-30.12,9.13,83.37,-88.52,-32.87
5749,52.396233,-1.431454,143.87,1.89,3,96.87,17 / 17,606221,2019-09-04 19:31:26:394,0.557,0.0108,9.9015,-0.0022,0.0007,9.8066,-0.0036,0.023,0.013,-20.31,-30.25,8.75,83.85,-88.49,-32.44
5750,52.396233,-1.431454,143.87,1.89,3,96.87,15 / 16,606321,2019-09-04 19:31:26:494,0.5199,-0.1313,9.7564,-0.0024,0.0004,9.8066,-0.0031,0.0146,0.015,-19.56,-29.94,8.88,84.9,-88.44,-31.45
5751,52.396233,-1.431454,143.87,1.89,3,96.87,15 / 16,606421,2019-09-04 19:31:26:594,0.4908,0.014,9.7348,-0.0038,0.0005,9.8066,0.0009,-0.0036,-0.0008,-19.5,-30.06,8.75,86.62,-88.39,-31.02
5752,52.396233,-1.431454,143.87,1.89,3,96.87,15 / 16,606520,2019-09-04 19:31:26:693,0.6121,-0.0354,9.9702,-0.0015,0.0012,9.8066,0.0031,-0.0184,-0.0217,-20.19,-30.37,8.94,85.6,-88.35,-30.88
5753,52.396233,-1.431454,143.87,1.89,3,96.87,15 / 16,606620,2019-09-04 19:31:26:793,0.5298,-0.0749,9.744,-0.0016,0.0016,9.8066,0.0039,-0.0156,-0.0094,-20.31,-30.25,8.44,84.23,-88.32,-29.9
5754,52.396233,-1.431454,143.87,1.89,3,96.87,15 / 16,606720,2019-09-04 19:31:26:893,0.4833,0.052,9.7903,-0.0013,0.0017,9.8066,-0.0062,0.0206,0.0161,-20.37,-30.5,8.81,87.03,-88.3,-29.52
5755,52.396233,-1.431454,143.87,1.89,3,96.87,15 / 16,606821,2019-09-04 19:31:26:994,0.6533,-0.109,9.929,-0.0029,0.0014,9.8066,-0.0031,0.02,0.0192,-19.75,-30.19,9.0,87.8,-88.28,-28.78
5756,52.396233,-1.431454,143.87,1.89,3,96.87,15 / 16,606921,2019-09-04 19:31:27:094,0.5416,-0.0176,9.6951,-0.0014,-0.0002,9.8066,0.0008,-0.0017,-0.0013,-20.31,-30.06,8.88,88.62,-88.25,-28.01
5757,52.396233,-1.431454,143.87,1.89,3,96.87,15 / 16,607021,2019-09-04 19:31:27:194,0.527,0.0759,9.8309,-0.0005,0.0001,9.8066,0.0039,-0.0175,-0.0144,-20.0,-30.44,9.13,88.63,-88.24,-28.0
5758,52.396233,-1.431454,143.87,1.89,3,96.87,15 / 16,607121,2019-09-04 19:31:27:294,0.6797,-0.1433,9.9199,-0.0018,0.0013,9.8066,0.0025,-0.0164,-0.021,-20.19,-29.69,8.5,89.13,-88.22,-27.54
5759,52.396233,-1.431454,143.87,1.89,3,96.87,15 / 16,607221,2019-09-04 19:31:27:394,0.5268,0.033,9.8707,0.0005,0.0024,9.8066,0.0013,-0.0009,-0.0003,-20.19,-30.12,8.69,90.28,-88.2,-26.41
5760,52.396233,-1.431454,143.87,1.89,3,96.87,15 / 16,607320,2019-09-04 19:31:27:493,0.6517,-0.124,9.8749,0.0002,0.0019,9.8066,-0.0039,0.0255,0.022,-20.56,-30.44,8.56,89.5,-88.22,-26.04
5761,52.396233,-1.431454,143.87,1.89,3,96.87,15 / 16,607420,2019-09-04 19:31:27:593,0.6256,-0.1435,9.7293,-0.0012,0.0018,9.8066,-0.0074,0.0264,0.0234,-20.31,-30.44,8.81,91.21,-88.22,-25.46
5762,52.396233,-1.431454,143.87,1.89,3,96.87,15 / 16,607521,2019-09-04 19:31:27:694,0.5043,0.0624,9.8195,-0.0014,0.0009,9.8066,-0.0032,0.0074,0.009,-19.94,-30.25,8.13,89.57,-88.19,-24.75
5763,52.396233,-1.431454,143.87,1.89,3,96.87,15 / 16,607620,2019-09-04 19:31:27:793,0.7184,-0.1187,9.9414,-0.0011,0.0008,9.8066,-0.0002,-0.0057,-0.0043,-20.19,-30.25,8.5,92.4,-88.18,-24.32
5764,52.396233,-1.431454,143.87,1.89,3,96.87,15 / 16,607721,2019-09-04 19:31:27:894,0.6631,-0.1648,9.8025,-0.0008,-0.0003,9.8066,0.0041,-0.027,-0.0251,-19.87,-29.69,8.69,92.54,-88.17,-24.19
5765,52.396233,-1.431454,143.87,1.89,3,96.87,15 / 16,607821,2019-09-04 19:31:27:994,0.4999,-0.0041,9.763,-0.0004,0.0021,9.8066,0.0037,-0.0234,-0.0234,-20.0,-29.81,8.88,93.3,-88.16,-23.44
5766,52.396233,-1.431454,143.87,1.89,3,96.87,15 / 16,607921,2019-09-04 19:31:28:094,0.6371,-0.0816,9.9834,0.0005,0.0021,9.8066,-0.0017,0.0072,0.0057,-19.94,-30.06,8.19,91.56,-88.17,-22.8
5767,52.396233,-1.431454,143.87,1.89,3,96.87,15 / 16,608021,2019-09-04 19:31:28:194,0.7009,-0.1414,9.8327,0.0008,0.0015,9.8066,-0.0035,0.0244,0.024,-20.56,-30.12,8.63,93.59,-88.18,-22.0
5768,52.396233,-1.431454,143.87,1.89,3,96.87,15 / 16,608121,2019-09-04 19:31:28:294,0.5128,-0.0567,9.7356,0.0016,0.0007,9.8066,-0.0071,0.0265,0.0245,-20.37,-30.06,8.81,95.24,-88.19,-21.45
5769,52.396233,-1.431454,143.87,1.89,3,96.87,15 / 16,608221,2019-09-04 19:31:28:394,0.519,-0.1069,9.7169,0.0005,0.001,9.8066,-0.0058,0.0132,0.015,-19.69,-30.69,8.75,95.61,-88.2,-21.14
5770,52.396233,-1.431454,143.87,1.89,3,96.87,16 / 16,608321,2019-09-04 19:31:28:494,0.5562,0.0087,9.8773,0.0008,0.0,9.8066,0.0023,-0.0148,-0.0117,-19.94,-30.12,8.69,95.4,-88.21,-21.27
5771,52.396233,-1.431454,143.87,1.89,3,96.87,16 / 16,608420,2019-09-04 19:31:28:593,0.6967,-0.188,9.8852,0.0013,0.0004,9.8066,0.0026,-0.0219,-0.0256,-20.19,-30.25,9.06,95.47,-88.22,-21.19
5772,52.396233,-1.431454,143.87,1.89,3,96.87,16 / 16,608520,2019-09-04 19:31:28:693,0.5602,-0.1205,9.7285,0.001,0.0005,9.8066,0.0051,-0.0337,-0.0273,-20.06,-29.87,8.31,93.68,-88.23,-20.58
5773,52.396233,-1.431454,143.87,1.89,3,96.87,16 / 16,608621,2019-09-04 19:31:28:794,0.4797,-0.0213,9.8192,0.0026,0.0009,9.8066,0.0015,-0.0133,-0.0161,-20.44,-30.12,8.88,96.61,-88.26,-19.97
5774,52.396233,-1.431454,143.87,1.89,3,96.87,16 / 16,608721,2019-09-04 19:31:28:894,0.6654,-0.156,9.9788,0.0026,0.0009,9.8066,-0.0035,0.0184,0.0117,-20.0,-30.12,8.69,97.12,-88.28,-19.43
5775,52.396233,-1.431454,143.87,1.89,3,96.87,16 / 16,608820,2019-09-04 19:31:28:993,0.6152,-0.1568,9.8189,0.001,0.0004,9.8066,-0.0034,0.0224,0.0239,-20.12,-29.94,8.25,95.38,-88.31,-18.76
5776,52.396233,-1.431454,143.87,1.89,3,96.87,16 / 16,608921,2019-09-04 19:31:29:094,0.4774,-0.0063,9.8083,0.0022,-0.0003,9.8066,-0.0068,0.0234,0.0199,-20.12,-29.81,8.88,98.08,-88.33,-18.41
5777,52.396233,-1.431454,143.87,1.89,3,96.87,16 / 16,609021,2019-09-04 19:31:29:194,0.6608,-0.0965,9.9332,0.0012,-0.0008,9.8066,-0.0001,0.004,0.002,-20.56,-30.06,8.63,97.0,-88.35,-18.35
5778,52.396233,-1.431454,143.87,1.89,3,96.87,16 / 16,609120,2019-09-04 19:31:29:293,0.6073,-0.1807,9.8821,0.0017,-0.0003,9.8066,0.0025,-0.0207,-0.0204,-19.87,-30.25,9.0,97.72,-88.37,-18.71
5779,52.396233,-1.431454,143.87,1.89,3,96.87,17 / 17,609221,2019-09-04 19:31:29:394,0.4537,-0.0684,9.7977,0.0024,0.0007,9.8066,0.004,-0.0293,-0.031,-20.0,-30.0,9.13,97.99,-88.41,-18.4
5780,52.396233,-1.431454,143.87,1.89,3,96.87,17 / 17,609320,2019-09-04 19:31:29:493,0.5973,-0.0393,9.9017,0.0025,0.0011,9.8066,0.0016,-0.0114,-0.0122,-19.75,-30.12,9.0,98.26,-88.44,-18.08
5781,52.396233,-1.431454,143.87,1.89,3,96.87,17 / 17,609421,2019-09-04 19:31:29:594,0.6229,-0.1386,9.9557,0.0029,0.0003,9.8066,-0.0043,0.0126,0.0018,-20.31,-30.12,8.75,98.98,-88.48,-17.3
5782,52.396233,-1.431454,143.87,1.89,3,96.87,17 / 17,609521,2019-09-04 19:31:29:694,0.5074,-0.1796,9.7579,0.0025,-0.0009,9.8066,-0.004,0.0278,0.0285,-20.06,-30.19,9.25,99.23,-88.51,-17.01
5783,52.396233,-1.431454,143.87,1.89,3,96.87,17 / 17,609620,2019-09-04 19:31:29:793,0.4727,0.0389,9.8252,0.0019,0.0,9.8066,-0.0059,0.0317,0.0282,-20.25,-30.19,8.56,99.06,-88.54,-17.14
5784,52.396233,-1.431454,143.87,1.89,3,96.87,17 / 17,609720,2019-09-04 19:31:29:893,0.5274,-0.0312,9.9369,0.0022,-0.0001,9.8066,-0.0062,0.0247,0.0228,-20.19,-30.62,8.63,99.23,-88.58,-16.97
5785,52.396233,-1.431454,143.87,1.89,3,96.87,17 / 17,609821,2019-09-04 19:31:29:994,0.5573,-0.1503,9.7732,0.0024,-0.0002,9.8066,0.0011,-0.0002,0.0029,-20.37,-30.19,8.19,96.12,-88.62,-17.59
5786,52.396233,-1.431454,143.87,1.89,3,96.87,17 / 17,609921,2019-09-04 19:31:30:094,0.4303,-0.011,9.7759,0.0023,-0.0008,9.8066,0.0017,-0.021,-0.022,-19.37,-29.87,9.31,99.3,-88.65,-17.95
5787,52.396233,-1.431454,143.87,1.89,3,96.87,17 / 17,610021,2019-09-04 19:31:30:194,0.4451,0.0064,9.8558,0.0032,0.0015,9.8066,0.006,-0.0286,-0.0318,-20.37,-30.5,9.31,98.19,-88.69,-17.81
5788,52.396233,-1.431454,143.87,1.89,3,96.87,17 / 17,610121,2019-09-04 19:31:30:294,0.5929,-0.133,9.862,0.0033,-0.0005,9.8066,0.0057,-0.0166,-0.0155,-19.69,-30.12,8.19,96.24,-88.72,-17.32
5789,52.396233,-1.431454,143.87,1.89,3,96.87,17 / 17,610220,2019-09-04 19:31:30:393,0.4158,-0.0583,9.6693,0.0035,0.0005,9.8066,-0.0011,0.0088,0.0049,-20.19,-30.12,9.19,98.73,-88.77,-17.16
5790,52.396233,-1.431454,143.87,1.89,3,96.87,17 / 17,610321,2019-09-04 19:31:30:494,0.3991,-0.0193,9.8419,0.0035,-0.0007,9.8066,-0.0047,0.0293,0.0256,-20.0,-30.19,9.31,99.42,-88.81,-16.41
5791,52.396233,-1.431454,143.87,1.89,3,96.87,17 / 17,610420,2019-09-04 19:31:30:593,0.5612,-0.0524,10.0076,0.0028,-0.0009,9.8066,-0.0065,0.0273,0.0328,-20.37,-30.44,8.56,99.24,-88.87,-16.52
5792,52.396233,-1.431454,143.87,1.89,3,96.87,17 / 17,610521,2019-09-04 19:31:30:694,0.4568,-0.1794,9.714,0.0018,-0.0004,9.8066,-0.004,0.0216,0.0268,-20.81,-30.12,8.75,98.13,-88.89,-16.5
5793,52.396233,-1.431454,143.87,1.89,3,96.87,17 / 17,610621,2019-09-04 19:31:30:794,0.4094,-0.1109,9.7438,0.0021,-0.0005,9.8066,-0.0061,0.0088,0.015,-19.81,-29.87,8.31,96.22,-88.93,-17.06
5794,52.396233,-1.431454,143.87,1.89,3,96.87,17 / 17,610721,2019-09-04 19:31:30:894,0.4611,0.0547,9.844,0.0016,-0.0011,9.8066,0.0019,-0.021,-0.0188,-20.37,-30.44,8.63,97.44,-88.95,-18.21
5795,52.396233,-1.431454,143.87,1.89,3,96.87,17 / 17,610821,2019-09-04 19:31:30:994,0.5149,-0.1648,9.8518,0.0018,-0.0003,9.8066,0.0043,-0.0289,-0.0287,-19.69,-30.31,8.88,97.01,-88.97,-18.62
5796,52.396233,-1.431454,143.87,1.89,3,96.87,17 / 17,610920,2019-09-04 19:31:31:093,0.4557,-0.1623,9.74,0.0015,0.0001,9.8066,0.0072,-0.0265,-0.024,-20.06,-30.19,8.88,96.65,-89.01,-18.93
5797,52.396233,-1.431454,143.87,1.89,3,96.87,17 / 17,611020,2019-09-04 19:31:31:193,0.3577,0.0694,9.8183,0.0032,0.001,9.8066,0.0033,-0.0074,-0.0054,-19.94,-30.44,8.38,95.13,-89.05,-17.99
5798,52.396233,-1.431454,143.87,1.89,3,96.87,17 / 17,611121,2019-09-04 19:31:31:294,0.5098,-0.153,9.9379,0.002,0.0006,9.8066,-0.0046,0.0167,0.0181,-20.5,-29.87,9.25,97.42,-89.09,-18.04
5799,52.396233,-1.431454,143.87,1.89,3,96.87,17 / 17,611221,2019-09-04 19:31:31:394,0.3104,-0.0607,9.7455,0.0027,-0.0007,9.8066,-0.008,0.032,0.0315,-20.25,-30.19,8.94,98.08,-89.13,-17.32
5800,52.396233,-1.431454,143.87,1.89,3,96.87,16 / 17,611321,2019-09-04 19:31:31:494,0.481,-0.0156,9.9875,0.0011,-0.0006,9.8066,-0.0041,0.0155,0.0153,-20.06,-30.25,8.75,97.34,-89.15,-18.04
5801,52.396233,-1.431454,143.87,1.89,3,96.87,16 / 17,611420,2019-09-04 19:31:31:593,0.4054,-0.1389,9.741,0.0011,-0.0021,9.8066,0.001,-0.0069,-0.0011,-19.5,-30.5,8.63,97.41,-89.18,-19.09
5802,52.396233,-1.431454,143.87,1.89,3,96.87,16 / 17,611520,2019-09-04 19:31:31:693,0.3466,0.0328,9.895,0.0018,-0.0003,9.8066,0.0069,-0.0272,-0.0253,-20.62,-30.12,8.81,93.6,-89.21,-20.64
5803,52.396233,-1.431454,143.87,1.89,3,96.87,16 / 17,611620,2019-09-04 19:31:31:793,0.4276,0.0221,9.9141,0.0021,0.0002,9.8066,0.0103,-0.0273,-0.0215,-20.19,-30.0,8.75,94.76,-89.24,-20.5
5804,52.396233,-1.431454,143.87,1.89,3,96.87,16 / 17,611720,2019-09-04 19:31:31:893,0.4373,-0.1457,9.7807,0.001,0.0,9.8066,0.0014,0.0041,0.0008,-20.06,-30.69,8.88,94.86,-89.26,-20.41
5805,52.396233,-1.431454,143.87,1.89,3,96.87,16 / 17,611820,2019-09-04 19:31:31:993,0.306,0.0064,9.7753,0.0018,-0.0002,9.8066,-0.0027,0.0218,0.0202,-20.37,-29.44,8.75,95.23,-89.31,-19.91
5806,52.396233,-1.431454,143.87,1.89,3,96.87,16 / 17,611920,2019-09-04 19:31:32:093,0.3163,0.0605,9.8188,0.0027,0.0005,9.8066,-0.0077,0.0319,0.031,-19.75,-30.94,8.75,94.83,-89.33,-20.34
5807,52.396233,-1.431454,143.87,1.89,3,96.87,16 / 17,612020,2019-09-04 19:31:32:193,0.4561,-0.1174,9.9199,0.0025,-0.0015,9.8066,-0.0073,0.0239,0.0215,-20.12,-30.0,8.81,95.14,-89.36,-19.97
5808,52.396233,-1.431454,143.87,1.89,3,96.87,16 / 17,612120,2019-09-04 19:31:32:293,0.3173,-0.05,9.7652,0.0016,-0.0009,9.8066,-0.0025,-0.0023,-0.0014,-20.37,-30.19,9.0,94.79,-89.39,-20.27
5809,52.396233,-1.431454,143.87,1.89,3,96.87,16 / 17,612220,2019-09-04 19:31:32:393,0.2672,0.0399,9.7756,0.0015,-0.0013,9.8066,0.004,-0.0198,-0.0222,-20.0,-30.19,8.31,90.81,-89.41,-21.81
5810,52.396233,-1.431454,143.87,1.89,3,96.87,17 / 18,612320,2019-09-04 19:31:32:493,0.4531,-0.0587,10.0205,0.002,-0.0008,9.8066,0.0079,-0.028,-0.0268,-20.44,-30.25,8.69,92.85,-89.44,-22.15
5811,52.396233,-1.431454,143.87,1.89,3,96.87,17 / 18,612421,2019-09-04 19:31:32:594,0.3451,-0.1069,9.7465,0.0032,0.0001,9.8066,0.0061,-0.0249,-0.0259,-20.19,-30.5,8.75,93.13,-89.49,-21.8
5812,52.396233,-1.431454,143.87,1.89,3,96.87,17 / 18,612520,2019-09-04 19:31:32:693,0.2532,-0.0378,9.7163,0.0027,-0.0001,9.8066,-0.0022,0.0095,0.0021,-19.87,-30.25,9.13,94.76,-89.52,-20.13
5813,52.396233,-1.431454,143.87,1.89,3,96.87,17 / 18,612621,2019-09-04 19:31:32:794,0.3777,-0.001,9.9209,0.002,0.0007,9.8066,-0.0004,0.0185,0.0205,-20.75,-30.75,8.88,95.6,-89.55,-18.2
5814,52.396233,-1.431454,143.87,1.89,3,96.87,17 / 18,612720,2019-09-04 19:31:32:893,0.4146,-0.1397,9.8356,0.0024,0.0013,9.8066,-0.0074,0.0324,0.0278,-20.56,-30.12,8.5,96.4,-89.58,-17.35
5815,52.396233,-1.431454,143.87,1.89,3,96.87,17 / 18,612820,2019-09-04 19:31:32:993,0.3149,-0.1312,9.7891,0.0007,-0.001,9.8066,-0.0039,0.0208,0.0224,-20.5,-30.06,8.81,96.95,-89.6,-17.82
5816,52.396233,-1.431454,143.87,1.89,3,96.87,17 / 18,612921,2019-09-04 19:31:33:094,0.2475,0.0441,9.8161,0.0016,-0.0011,9.8066,0.0004,-0.0001,-0.0046,-20.0,-30.19,8.56,94.35,-89.62,-20.39
5817,52.396233,-1.431454,143.87,1.89,3,96.87,17 / 18,613020,2019-09-04 19:31:33:193,0.4355,-0.1046,9.9597,0.0005,-0.0006,9.8066,0.0044,-0.0281,-0.0168,-19.69,-30.44,8.19,90.02,-89.64,-22.27
5818,52.396233,-1.431454,143.87,1.89,3,96.87,17 / 18,613121,2019-09-04 19:31:33:294,0.3557,-0.1379,9.7642,0.001,0.0001,9.8066,0.0016,-0.0159,-0.0273,-20.0,-30.69,8.81,91.14,-89.66,-23.57
5819,52.396233,-1.431454,143.87,1.89,3,96.87,17 / 18,613221,2019-09-04 19:31:33:394,0.253,0.0399,9.8777,0.002,0.0006,9.8066,0.0017,-0.0019,-0.0071,-20.12,-30.37,8.56,93.56,-89.68,-21.1
5820,52.396233,-1.431454,143.87,1.89,3,96.87,16 / 17,613321,2019-09-04 19:31:33:494,0.4384,-0.0923,9.926,0.0019,0.0007,9.8066,-0.005,0.0233,0.016,-20.0,-30.0,9.0,96.15,-89.71,-18.47
5821,52.396233,-1.431454,143.87,1.89,3,96.87,16 / 17,613422,2019-09-04 19:31:33:595,0.3457,-0.1389,9.7943,0.0022,-0.0001,9.8066,-0.0055,0.024,0.0207,-20.31,-30.06,8.75,98.2,-89.74,-16.37
5822,52.396233,-1.431454,143.87,1.89,3,96.87,16 / 17,613521,2019-09-04 19:31:33:694,0.2645,0.0277,9.8251,0.0005,-0.0012,9.8066,-0.0024,0.0038,0.0095,-20.19,-30.5,8.69,99.9,-89.76,-14.65
5823,52.396233,-1.431454,143.87,1.89,3,96.87,16 / 17,613621,2019-09-04 19:31:33:794,0.422,-0.0819,9.9224,0.0009,-0.0002,9.8066,0.0002,-0.0089,-0.0134,-20.0,-30.44,8.81,95.63,-89.77,-18.9
5824,52.396233,-1.431454,143.87,1.89,3,96.87,16 / 17,613721,2019-09-04 19:31:33:894,0.3816,-0.2031,9.8366,0.0003,-0.0019,9.8066,0.0028,-0.0224,-0.0253,-19.87,-30.25,8.88,94.66,-89.79,-19.86
5825,52.396233,-1.431454,143.87,1.89,3,96.87,16 / 17,613821,2019-09-04 19:31:33:994,0.2452,0.0004,9.7323,0.0008,0.0006,9.8066,0.0039,-0.0219,-0.0279,-20.5,-30.44,8.69,90.96,-89.8,-23.54
5826,52.396233,-1.431454,143.87,1.89,3,96.87,16 / 17,613921,2019-09-04 19:31:34:094,0.3685,-0.0412,9.9488,0.0028,0.0003,9.8066,-0.0013,0.0012,-0.0026,-20.0,-29.94,8.81,94.89,-89.82,-19.58
5827,52.396233,-1.431454,143.87,1.89,3,96.87,16 / 17,614020,2019-09-04 19:31:34:193,0.4463,-0.1103,9.9791,0.0026,0.0,9.8066,-0.0023,0.0195,0.0135,-20.06,-30.5,8.06,94.98,-89.86,-17.02
5828,52.396233,-1.431454,143.87,1.89,3,96.87,16 / 17,614120,2019-09-04 19:31:34:293,0.2817,-0.1,9.7424,0.0016,0.0005,9.8066,-0.005,0.036,0.0302,-19.81,-30.19,8.69,103.19,-89.88,-11.2
5829,52.396233,-1.431454,143.87,1.89,3,96.87,16 / 17,614220,2019-09-04 19:31:34:393,0.2761,0.0657,9.8548,0.0019,0.0005,9.8066,-0.0081,0.0352,0.0346,-20.0,-30.44,8.81,105.65,-89.92,-8.69
5830,52.396233,-1.431454,143.87,1.89,3,96.87,17 / 17,614321,2019-09-04 19:31:34:494,0.3709,-0.0268,9.9775,0.0004,-0.0021,9.8066,-0.0016,0.0039,0.0095,-20.0,-30.0,8.81,96.72,-89.93,-17.61
5831,52.396233,-1.431454,143.87,1.89,3,96.87,17 / 17,614420,2019-09-04 19:31:34:593,0.3273,-0.1234,9.7479,0.0008,-0.0011,9.8066,0.0013,-0.0056,-0.0061,-20.19,-30.37,8.88,82.94,-89.93,-31.38
5832,52.396233,-1.431454,143.87,1.89,3,96.87,17 / 17,614521,2019-09-04 19:31:34:694,0.1762,0.0659,9.8168,0.0008,-0.0012,9.8066,0.0047,-0.0254,-0.0272,-20.19,-30.12,8.5,61.64,-89.94,-52.65
5833,52.396233,-1.431454,143.87,1.89,3,96.87,17 / 17,614621,2019-09-04 19:31:34:794,0.2953,0.0513,9.8775,0.0023,0.0004,9.8066,0.0049,-0.0234,-0.0254,-20.31,-30.25,8.63,44.1,-89.97,-70.17
5834,52.396233,-1.431454,143.87,1.89,3,96.87,17 / 17,614720,2019-09-04 19:31:34:893,0.4151,-0.1297,9.8362,0.0013,0.0006,9.8066,0.0049,-0.011,-0.0082,-20.06,-30.31,8.19,28.94,-89.97,-82.87
5835,52.396233,-1.431454,143.87,1.89,3,96.87,17 / 17,614821,2019-09-04 19:31:34:994,0.1545,0.0198,9.7676,0.0018,0.0004,9.8066,-0.0043,0.0162,0.0165,-20.31,-30.5,8.88,302.57,-89.97,-171.63
5836,52.396233,-1.431454,143.87,1.89,3,96.87,17 / 17,614920,2019-09-04 19:31:35:093,0.2267,0.04,9.8234,0.0012,0.0008,9.8066,-0.0064,0.0279,0.0201,-19.94,-29.62,9.06,287.48,-89.97,173.29
5837,52.396233,-1.431454,143.87,1.89,3,96.87,17 / 17,615021,2019-09-04 19:31:35:194,0.3734,-0.0803,9.9068,0.0012,-0.0004,9.8066,-0.0084,0.0261,0.0234,-20.12,-30.31,8.44,265.52,-89.96,153.78
5838,52.396233,-1.431454,143.87,1.89,3,96.87,17 / 17,615120,2019-09-04 19:31:35:293,0.2328,-0.0117,9.6976,0.0008,-0.0006,9.8066,0.001,-0.01,-0.0076,-20.62,-30.31,8.81,291.46,-89.94,178.33
5839,52.396233,-1.431454,143.87,1.89,3,96.87,17 / 17,615220,2019-09-04 19:31:35:393,0.1811,0.067,9.7869,-0.0002,-0.0006,9.8066,0.0049,-0.0221,-0.0222,-20.06,-30.81,8.63,300.63,-89.93,-173.51
5840,52.396233,-1.431454,143.87,1.89,3,96.87,17 / 17,615321,2019-09-04 19:31:35:494,0.3779,-0.0852,10.0335,0.0019,-0.0005,9.8066,0.0027,-0.0252,-0.0287,-20.12,-29.75,8.88,297.47,-89.92,-176.66
5841,52.396233,-1.431454,143.87,1.89,3,96.87,17 / 17,615420,2019-09-04 19:31:35:593,0.2348,-0.1132,9.6979,0.0024,0.0005,9.8066,0.0052,-0.0132,-0.013,-20.06,-29.75,8.88,289.99,-89.9,175.89
5842,52.396233,-1.431454,143.87,1.89,3,96.87,17 / 17,615521,2019-09-04 19:31:35:694,0.1721,0.0287,9.7776,0.0022,0.0003,9.8066,-0.0012,0.013,0.0103,-19.69,-30.31,8.56,283.57,-89.87,169.51
5843,52.396233,-1.431454,143.87,1.89,3,96.87,17 / 17,615620,2019-09-04 19:31:35:793,0.3236,0.0057,9.9728,0.0007,-0.0004,9.8066,-0.0063,0.0263,0.0267,-19.81,-29.94,8.44,277.45,-89.85,165.86
5844,52.396233,-1.431454,143.87,1.89,3,96.87,17 / 17,615721,2019-09-04 19:31:35:894,0.3202,-0.1486,9.84,0.0014,0.0007,9.8066,-0.0057,0.0295,0.0323,-20.0,-30.5,8.69,279.39,-89.85,165.37
5845,52.396233,-1.431454,143.87,1.89,3,96.87,17 / 17,615821,2019-09-04 19:31:35:994,0.208,-0.073,9.7445,0.0002,0.0004,9.8066,-0.0057,0.0188,0.0139,-20.31,-30.0,8.5,281.0,-89.84,166.99
5846,52.396233,-1.431454,143.87,1.89,3,96.87,17 / 17,615921,2019-09-04 19:31:36:094,0.1688,0.0904,9.8411,0.0012,0.0,9.8066,-0.0011,-0.0096,-0.0078,-20.12,-30.19,8.25,279.31,-89.83,167.74
5847,52.396233,-1.431454,143.87,1.89,3,96.87,17 / 17,616021,2019-09-04 19:31:36:194,0.3509,-0.1087,9.9303,0.0004,-0.0009,9.8066,0.0049,-0.0285,-0.0269,-20.5,-30.0,8.25,280.71,-89.82,169.16
5848,52.396233,-1.431454,143.87,1.89,3,96.87,17 / 17,616120,2019-09-04 19:31:36:293,0.2444,-0.0924,9.7625,0.0012,0.0009,9.8066,0.0028,-0.0266,-0.0246,-19.75,-29.75,9.0,282.59,-89.8,168.62
5849,52.396233,-1.431454,143.87,1.89,3,96.87,17 / 17,616220,2019-09-04 19:31:36:393,0.1218,0.0547,9.8602,0.0023,0.0005,9.8066,0.0015,-0.0134,-0.0134,-19.81,-30.56,8.63,279.08,-89.78,165.16
5850,52.396233,-1.431454,143.87,1.89,3,96.87,17 / 17,616320,2019-09-04 19:31:36:493,0.3508,-0.1075,10.0269,0.0003,-0.0009,9.8066,0.0011,-0.0061,-0.0116,-20.37,-30.25,8.69,276.8,-89.77,162.89
5851,52.396233,-1.431454,143.87,1.89,3,96.87,17 / 17,616421,2019-09-04 19:31:36:594,0.3077,-0.1258,9.8333,0.0016,-0.0006,9.8066,0.0053,-0.0255,-0.0282,-20.25,-30.25,9.13,280.57,-89.76,166.66
5852,52.396233,-1.431454,143.87,1.89,3,96.87,17 / 17,616521,2019-09-04 19:31:36:694,0.1379,0.0203,9.7469,0.0004,-0.0016,9.8066,0.0056,-0.0383,-0.0335,-20.31,-29.62,8.63,283.83,-89.74,169.95
5853,52.396233,-1.431454,143.87,1.89,3,96.87,17 / 17,616621,2019-09-04 19:31:36:794,0.2737,0.0417,9.9352,0.0009,0.0003,9.8066,0.0015,-0.0155,-0.01,-20.12,-30.25,8.56,282.53,-89.73,168.67
5854,52.396233,-1.431454,143.87,1.89,3,96.87,17 / 17,616721,2019-09-04 19:31:36:894,0.3226,-0.0722,10.0418,0.0024,0.0005,9.8066,0.0002,0.0012,0.0058,-20.31,-30.56,8.81,280.77,-89.71,166.95
5855,52.396233,-1.431454,143.87,1.89,3,96.87,17 / 17,616821,2019-09-04 19:31:36:994,0.1979,-0.0914,9.7247,0.0002,0.0002,9.8066,-0.0097,0.0308,0.0219,-20.12,-30.06,9.0,280.0,-89.69,166.2
5856,52.396233,-1.431454,143.87,1.89,3,96.87,17 / 17,616920,2019-09-04 19:31:37:093,0.182,0.1157,9.8526,0.0009,0.0,9.8066,-0.0056,0.0308,0.0334,-19.75,-29.87,9.06,277.42,-89.68,163.62
5857,52.396233,-1.431454,143.87,1.89,3,96.87,17 / 17,617020,2019-09-04 19:31:37:193,0.2477,0.0314,10.0022,0.0001,-0.0005,9.8066,-0.0064,0.0215,0.0211,-19.87,-30.31,9.06,277.67,-89.67,163.89
5858,52.396233,-1.431454,143.87,1.89,3,96.87,17 / 17,617120,2019-09-04 19:31:37:293,0.2772,-0.1165,9.8227,0.0003,-0.001,9.8066,0.0016,-0.0001,0.0051,-19.87,-30.25,8.31,276.04,-89.66,164.71
5859,52.396233,-1.431454,143.87,1.89,3,96.87,17 / 17,617221,2019-09-04 19:31:37:394,0.1385,0.0296,9.7127,0.0008,-0.0006,9.8066,0.0039,-0.0213,-0.0226,-19.37,-30.31,8.63,281.58,-89.65,166.72
5860,52.396233,-1.431454,143.87,1.89,3,96.87,17 / 17,617320,2019-09-04 19:31:37:493,0.1452,0.0377,9.8624,0.0001,-0.0004,9.8066,0.0051,-0.0323,-0.0339,-19.69,-29.69,9.31,282.96,-89.64,169.21
5861,52.396233,-1.431454,143.87,1.89,3,96.87,17 / 17,617420,2019-09-04 19:31:37:593,0.3211,-0.0238,10.01,-0.0004,-0.0004,9.8066,0.0057,-0.0299,-0.0308,-20.25,-30.0,9.06,283.09,-89.64,169.33
5862,52.396233,-1.431454,143.87,1.89,3,96.87,17 / 17,617521,2019-09-04 19:31:37:694,0.1583,-0.0917,9.6503,0.0026,0.0011,9.8066,0.0016,-0.0078,-0.0175,-19.25,-30.5,8.63,285.16,-89.64,170.31
5863,52.396233,-1.431454,143.87,1.89,3,96.87,17 / 17,617620,2019-09-04 19:31:37:793,0.116,0.0115,9.7175,0.0007,0.0008,9.8066,-0.0039,0.0201,0.0071,-20.31,-30.5,8.31,278.3,-89.6,167.05
5864,52.396233,-1.431454,143.87,1.89,3,96.87,17 / 17,617722,2019-09-04 19:31:37:895,0.116,0.0115,9.7175,0.0007,0.0008,9.8066,-0.0039,0.0201,0.0071,-20.31,-30.5,8.31,278.3,-89.6,167.05
5865,52.396233,-1.431454,143.87,1.89,3,96.87,17 / 17,617820,2019-09-04 19:31:37:993,0.2157,-0.1391,9.7543,0.0007,0.0006,9.8066,-0.0059,0.0241,0.0269,-19.5,-30.31,9.0,283.58,-89.6,168.79
5866,52.396233,-1.431454,143.87,1.89,3,96.87,17 / 17,617920,2019-09-04 19:31:38:093,0.1796,-0.0128,9.7459,0.001,0.0007,9.8066,-0.003,0.0164,0.0195,-19.81,-30.56,8.94,280.63,-89.59,166.97
5867,52.396233,-1.431454,143.87,1.89,3,96.87,17 / 17,618021,2019-09-04 19:31:38:194,0.1634,0.0671,9.839,0.0012,-0.0001,9.8066,0.0007,-0.0153,-0.0087,-19.94,-29.94,9.0,279.27,-89.57,165.63
5868,52.396233,-1.431454,143.87,1.89,3,96.87,17 / 17,618121,2019-09-04 19:31:38:294,0.2591,-0.1527,9.8487,0.0013,0.0008,9.8066,0.0036,-0.0199,-0.0241,-20.12,-30.31,8.63,278.49,-89.56,164.86
5869,52.396233,-1.431454,143.87,1.89,3,96.87,17 / 17,618221,2019-09-04 19:31:38:394,0.2393,-0.1121,9.7658,0.0012,0.0009,9.8066,0.0033,-0.0249,-0.0236,-20.12,-30.62,8.75,277.46,-89.55,163.87
5870,52.396233,-1.431454,143.87,1.89,3,96.87,17 / 17,618321,2019-09-04 19:31:38:494,0.1113,0.1513,9.85,0.0014,-0.0003,9.8066,0.0034,-0.0038,-0.0106,-19.69,-30.06,8.44,275.45,-89.55,164.28
5871,52.396233,-1.431454,143.87,1.89,3,96.87,17 / 17,618420,2019-09-04 19:31:38:593,0.2914,-0.102,9.8974,0.0001,-0.0003,9.8066,-0.0051,0.0193,0.0186,-20.0,-30.37,8.19,276.42,-89.54,165.26
5872,52.396233,-1.431454,143.87,1.89,3,96.87,17 / 17,618520,2019-09-04 19:31:38:693,0.2441,-0.1168,9.8151,0.0006,0.0003,9.8066,-0.0093,0.0266,0.0258,-20.0,-29.87,8.38,277.52,-89.53,166.36
5873,52.396233,-1.431454,143.87,1.89,3,96.87,17 / 17,618621,2019-09-04 19:31:38:794,0.1108,0.1215,9.8355,0.0025,0.001,9.8066,0.0005,0.004,0.0054,-20.06,-30.25,9.06,278.23,-89.52,164.65
5874,52.396233,-1.431454,143.87,1.89,3,96.87,17 / 17,618720,2019-09-04 19:31:38:893,0.2919,-0.0887,9.9557,0.0016,0.001,9.8066,0.0018,-0.0135,-0.0126,-20.19,-30.31,8.81,277.5,-89.51,163.94
5875,52.396233,-1.431454,143.87,1.89,3,96.87,17 / 17,618820,2019-09-04 19:31:38:993,0.2716,-0.1424,9.8427,0.0002,0.0008,9.8066,0.0042,-0.0288,-0.0286,-19.69,-30.5,8.25,273.19,-89.49,162.1
5876,52.396233,-1.431454,143.87,1.89,3,96.87,17 / 17,618920,2019-09-04 19:31:39:093,0.0794,0.0741,9.7579,-0.0001,-0.0002,9.8066,0.0043,-0.0212,-0.0209,-20.06,-29.81,8.69,275.98,-89.48,162.46
5877,52.396233,-1.431454,143.87,1.89,3,96.87,17 / 17,619020,2019-09-04 19:31:39:193,0.2809,-0.0419,10.022,0.0007,-0.0014,9.8066,-0.0011,0.0112,0.0031,-20.44,-30.0,8.88,276.59,-89.47,163.08
5878,52.396233,-1.431454,143.87,1.89,3,96.87,17 / 17,619120,2019-09-04 19:31:39:293,0.2856,-0.1109,9.8941,0.0006,0.0004,9.8066,-0.005,0.0197,0.0207,-20.25,-30.25,8.44,276.13,-89.46,165.07
5879,52.396233,-1.431454,143.87,1.89,3,96.87,17 / 17,619220,2019-09-04 19:31:39:393,0.1117,0.0422,9.7592,0.0006,0.0003,9.8066,-0.007,0.0208,0.0301,-20.31,-30.37,8.88,277.48,-89.46,163.98
5880,52.396233,-1.431454,143.87,1.89,3,96.87,17 / 17,619320,2019-09-04 19:31:39:493,0.2254,-0.0052,9.9337,0.001,0.0003,9.8066,-0.0042,0.0118,0.0151,-19.94,-29.69,8.94,278.0,-89.46,164.51
5881,52.396233,-1.431454,143.87,1.89,3,96.87,17 / 17,619421,2019-09-04 19:31:39:594,0.2728,-0.0678,9.9425,0.0003,0.0004,9.8066,-0.0008,-0.0085,-0.0103,-19.87,-30.12,8.38,273.8,-89.45,162.77
5882,52.396233,-1.431454,143.87,1.89,3,96.87,17 / 17,619520,2019-09-04 19:31:39:693,0.1316,-0.0897,9.7611,0.0006,0.0011,9.8066,0.0016,-0.024,-0.0299,-19.87,-30.06,8.81,276.54,-89.43,163.08
5883,52.396233,-1.431454,143.87,1.89,3,96.87,17 / 17,619620,2019-09-04 19:31:39:793,0.1387,0.0706,9.8652,0.0007,-0.0003,9.8066,0.0073,-0.0294,-0.0294,-19.69,-29.94,8.63,275.68,-89.43,162.23
5884,52.396233,-1.431454,143.87,1.89,3,96.87,17 / 17,619721,2019-09-04 19:31:39:894,0.2282,0.0243,9.9877,0.0007,-0.0017,9.8066,0.0092,-0.0231,-0.015,-20.37,-30.12,8.25,273.55,-89.42,162.56
5885,52.396233,-1.431454,143.87,1.89,3,96.87,17 / 17,619820,2019-09-04 19:31:39:993,0.1832,-0.1127,9.7897,0.0002,-0.0012,9.8066,-0.0041,0.0137,0.0108,-20.56,-30.19,8.06,275.01,-89.41,164.94
5886,52.396233,-1.431454,143.87,1.89,3,96.87,17 / 17,619921,2019-09-04 19:31:40:094,0.1043,0.03,9.886,0.0009,-0.0005,9.8066,-0.002,0.0195,0.02,-19.62,-29.62,8.56,279.13,-89.42,165.68
5887,52.396233,-1.431454,143.87,1.89,3,96.87,17 / 17,620021,2019-09-04 19:31:40:194,0.1835,0.0765,9.9037,0.0018,0.0,9.8066,-0.0051,0.023,0.0251,-20.25,-30.12,8.94,279.26,-89.4,165.84
5888,52.396233,-1.431454,143.87,1.89,3,96.87,17 / 17,620120,2019-09-04 19:31:40:293,0.2228,-0.1189,9.8347,0.0013,0.0014,9.8066,-0.0031,0.0112,0.007,-19.25,-30.37,8.94,279.51,-89.39,165.02
5889,52.396233,-1.431454,143.87,1.89,3,96.87,17 / 17,620221,2019-09-04 19:31:40:394,0.1301,0.0305,9.7675,0.0017,0.0009,9.8066,0.0026,-0.0141,-0.0149,-19.87,-29.94,8.75,277.51,-89.38,164.12
5890,52.396233,-1.431454,143.87,1.89,3,96.87,16 / 16,620321,2019-09-04 19:31:40:494,0.2023,-0.1357,9.7695,-0.0006,-0.0002,9.8066,0.0071,-0.0365,-0.0349,-19.69,-30.25,9.13,276.69,-89.37,163.32
5891,52.396233,-1.431454,143.87,1.89,3,96.87,16 / 16,620420,2019-09-04 19:31:40:593,0.1536,-0.0988,9.7508,0.001,0.0,9.8066,0.0041,-0.0104,-0.0114,-20.06,-30.31,8.81,277.03,-89.36,163.67
5892,52.396233,-1.431454,143.87,1.89,3,96.87,16 / 16,620520,2019-09-04 19:31:40:693,0.0908,0.0664,9.8605,0.0001,-0.0005,9.8066,0.0001,0.0006,-0.0049,-20.06,-29.75,9.19,278.51,-89.36,165.15
5893,52.396233,-1.431454,143.87,1.89,3,96.87,16 / 16,620621,2019-09-04 19:31:40:794,0.2459,-0.1017,9.8993,0.0002,-0.001,9.8066,-0.005,0.0228,0.0196,-20.19,-30.0,8.63,278.99,-89.37,165.62
5894,52.396233,-1.431454,143.87,1.89,3,96.87,16 / 16,620720,2019-09-04 19:31:40:893,0.1883,-0.1218,9.786,-0.0001,0.0011,9.8066,-0.0088,0.0231,0.0182,-19.69,-29.81,8.69,279.29,-89.36,165.93
5895,52.396233,-1.431454,143.87,1.89,3,96.87,16 / 16,620820,2019-09-04 19:31:40:993,0.0977,0.085,9.8712,0.0014,0.0009,9.8066,-0.0015,0.0025,-0.001,-19.75,-30.25,9.38,277.94,-89.35,164.59
5896,52.396233,-1.431454,143.87,1.89,3,96.87,16 / 16,620921,2019-09-04 19:31:41:094,0.2557,-0.0824,9.8957,0.0006,0.0004,9.8066,0.0026,-0.0206,-0.0176,-19.87,-29.62,8.69,276.94,-89.33,163.62
5897,52.396233,-1.431454,143.87,1.89,3,96.87,16 / 16,621021,2019-09-04 19:31:41:194,0.1881,-0.1452,9.8055,0.0005,0.0002,9.8066,0.0048,-0.0223,-0.0186,-20.06,-30.06,9.19,276.91,-89.33,163.59
5898,52.396233,-1.431454,143.87,1.89,3,96.87,16 / 16,621121,2019-09-04 19:31:41:294,0.0656,0.0507,9.8192,0.0,-0.0018,9.8066,0.005,-0.0068,-0.0056,-20.37,-30.37,8.75,277.68,-89.32,164.37
5899,52.396233,-1.431454,143.87,1.89,3,96.87,16 / 16,621220,2019-09-04 19:31:41:393,0.174,-0.0856,9.7413,0.0018,-0.0003,9.8066,-0.0045,0.0242,0.0212,-19.62,-30.19,8.63,279.2,-89.31,165.91
5900,52.396233,-1.431454,143.87,1.89,3,96.87,17 / 17,621321,2019-09-04 19:31:41:494,0.0724,0.0816,9.8534,-0.0006,0.0001,9.8066,-0.0094,0.0337,0.0287,-20.19,-30.0,8.19,277.34,-89.3,166.51
5901,52.396233,-1.431454,143.87,1.89,3,96.87,17 / 17,621420,2019-09-04 19:31:41:593,0.1759,0.0465,9.9226,0.0011,-0.0005,9.8066,0.0002,0.0158,0.0216,-20.19,-29.94,8.19,277.18,-89.29,166.36
5902,52.396233,-1.431454,143.87,1.89,3,96.87,17 / 17,621521,2019-09-04 19:31:41:694,0.2403,-0.112,9.8063,0.002,0.0018,9.8066,-0.0036,0.0077,0.003,-20.5,-29.69,8.69,278.66,-89.27,165.42
5903,52.396233,-1.431454,143.87,1.89,3,96.87,17 / 17,621620,2019-09-04 19:31:41:793,0.0626,0.0659,9.7388,0.0013,0.0002,9.8066,0.0025,-0.019,-0.0232,-19.94,-30.0,9.06,276.74,-89.25,163.53
5904,52.396233,-1.431454,143.87,1.89,3,96.87,17 / 17,621720,2019-09-04 19:31:41:893,0.0687,0.0611,9.8359,0.0012,-0.0002,9.8066,0.0051,-0.0354,-0.0294,-19.56,-30.19,8.5,275.93,-89.23,162.75
5905,52.396233,-1.431454,143.87,1.89,3,96.87,17 / 17,621820,2019-09-04 19:31:41:993,0.2364,-0.0658,9.9486,0.0005,-0.0002,9.8066,0.0037,-0.0224,-0.0249,-20.25,-30.12,8.31,273.67,-89.22,162.96
5906,52.396233,-1.431454,143.87,1.89,3,96.87,17 / 17,621921,2019-09-04 19:31:42:094,0.0691,-0.0512,9.7253,-0.0006,-0.0011,9.8066,0.0027,-0.0045,-0.0079,-19.75,-30.56,9.13,276.74,-89.22,163.61
5907,52.396233,-1.431454,143.87,1.89,3,96.87,17 / 17,622021,2019-09-04 19:31:42:194,0.0768,0.0308,9.8008,0.0004,-0.0015,9.8066,-0.003,0.0247,0.0135,-20.37,-30.44,9.06,278.11,-89.22,164.95
5908,52.396233,-1.431454,143.87,1.89,3,96.87,17 / 17,622120,2019-09-04 19:31:42:293,0.247,-0.0236,9.9666,0.0004,-0.0011,9.8066,-0.0084,0.0296,0.0253,-19.56,-30.19,8.75,278.21,-89.2,165.06
5909,52.396233,-1.431454,143.87,1.89,3,96.87,17 / 17,622220,2019-09-04 19:31:42:393,0.1355,-0.033,9.785,0.0011,0.0012,9.8066,-0.0004,0.0089,0.0069,-20.69,-29.69,9.19,276.74,-89.2,164.59
5910,52.396233,-1.431454,143.87,1.89,3,96.87,17 / 17,622321,2019-09-04 19:31:42:494,0.0622,-0.0172,9.8139,0.001,0.0002,9.8066,0.0029,-0.0174,-0.009,-20.0,-29.44,8.5,276.85,-89.17,163.72
5911,52.396233,-1.431454,143.87,1.89,3,96.87,17 / 17,622420,2019-09-04 19:31:42:593,0.2019,-0.0197,9.9533,-0.0009,-0.0002,9.8066,0.0048,-0.0284,-0.029,-20.44,-30.62,8.63,276.11,-89.16,163.06
5912,52.396233,-1.431454,143.87,1.89,3,96.87,17 / 17,622521,2019-09-04 19:31:42:694,0.1246,-0.0689,9.7621,0.0005,-0.0004,9.8066,0.005,-0.02,-0.0181,-20.12,-29.94,8.81,275.78,-89.16,162.69
5913,52.396233,-1.431454,143.87,1.89,3,96.87,17 / 17,622621,2019-09-04 19:31:42:794,0.06,0.0049,9.7545,0.0002,-0.0013,9.8066,-0.0042,0.0089,0.0037,-20.5,-30.12,8.63,277.1,-89.16,164.02
5914,52.396233,-1.431454,143.87,1.89,3,96.87,17 / 17,622721,2019-09-04 19:31:42:894,0.2065,-0.0014,9.9378,-0.0004,-0.0002,9.8066,-0.007,0.0287,0.024,-20.0,-30.69,8.88,277.52,-89.16,164.47
5915,52.396233,-1.431454,143.87,1.89,3,96.87,17 / 17,622821,2019-09-04 19:31:42:994,0.142,-0.1083,9.7649,0.0012,0.0008,9.8066,-0.0059,0.0211,0.0239,-20.06,-29.69,9.0,277.98,-89.15,164.9
5916,52.396233,-1.431454,143.87,1.89,3,96.87,17 / 17,622921,2019-09-04 19:31:43:094,0.1052,-0.0256,9.7349,0.0009,0.0009,9.8066,-0.0044,0.0106,0.012,-19.87,-29.81,8.63,277.63,-89.14,164.57
5917,52.396233,-1.431454,143.87,1.89,3,96.87,17 / 17,623020,2019-09-04 19:31:43:193,0.2274,-0.0675,9.9623,0.0005,0.0012,9.8066,0.0014,-0.0124,-0.015,-20.0,-29.87,8.25,273.83,-89.12,163.25
5918,52.396233,-1.431454,143.87,1.89,3,96.87,17 / 17,623121,2019-09-04 19:31:43:294,0.086,-0.0353,9.743,0.0009,-0.0003,9.8066,0.0067,-0.0292,-0.0262,-20.25,-30.12,9.06,275.51,-89.11,162.49
5919,52.396233,-1.431454,143.87,1.89,3,96.87,17 / 17,623221,2019-09-04 19:31:43:394,0.1154,0.0541,9.8912,-0.0003,-0.0013,9.8066,0.0047,-0.0324,-0.0328,-20.12,-29.69,8.5,275.41,-89.1,162.41
5920,52.396233,-1.431454,143.87,1.89,3,96.87,16 / 17,623320,2019-09-04 19:31:43:493,0.167,0.023,9.9918,-0.0001,-0.0012,9.8066,0.0043,-0.0118,-0.0112,-20.0,-30.25,9.06,275.9,-89.1,162.89
5921,52.396233,-1.431454,143.87,1.89,3,96.87,16 / 17,623421,2019-09-04 19:31:43:594,-0.0145,-0.0811,9.7149,0.0005,-0.0004,9.8066,-0.004,0.0261,0.015,-20.12,-30.12,8.69,276.52,-89.09,163.53
5922,52.396233,-1.431454,143.87,1.89,3,96.87,16 / 17,623521,2019-09-04 19:31:43:694,-0.0808,0.1673,9.8638,0.0014,0.0004,9.8066,-0.0047,0.033,0.0276,-20.25,-29.75,8.25,274.05,-89.09,163.51
5923,52.396233,-1.431454,143.87,1.89,3,96.87,16 / 17,623620,2019-09-04 19:31:43:793,0.231,0.0371,9.933,0.001,0.0015,9.8066,-0.0075,0.0198,0.0243,-19.87,-29.62,8.75,275.34,-89.07,162.37
5924,52.396233,-1.431454,143.87,1.89,3,96.87,16 / 17,623720,2019-09-04 19:31:43:893,0.2627,-0.1924,9.8522,0.0023,0.0019,9.8066,0.0009,-0.0061,-0.0071,-20.44,-29.75,8.38,272.59,-89.06,162.09
5925,52.396233,-1.431454,143.87,1.89,3,96.87,16 / 17,623821,2019-09-04 19:31:43:994,0.1806,-0.0545,9.9098,0.001,0.0005,9.8066,0.0037,-0.0055,-0.0085,-19.75,-29.56,8.38,271.44,-89.04,160.98
5926,52.396233,-1.431454,143.87,1.89,3,96.87,16 / 17,623920,2019-09-04 19:31:44:093,0.4888,-0.213,9.9093,0.0009,-0.0004,9.8066,-0.0018,0.0109,0.0105,-19.62,-30.06,8.19,271.64,-89.02,161.2
5927,52.396233,-1.431454,143.87,1.89,3,96.87,16 / 17,624021,2019-09-04 19:31:44:194,0.3834,-0.0583,9.9023,0.002,0.0005,9.8066,0.0052,-0.0104,-0.0043,-19.44,-29.75,8.81,274.75,-88.99,160.84
5928,52.396233,-1.431454,143.87,1.89,3,96.87,16 / 17,624120,2019-09-04 19:31:44:293,0.5371,-0.2758,9.915,0.002,-0.0022,9.8066,0.0111,-0.0199,-0.0139,-20.06,-29.81,8.5,274.27,-88.96,161.46
5929,52.396233,-1.431454,143.87,1.89,3,96.87,16 / 17,624220,2019-09-04 19:31:44:393,0.3025,-0.131,9.8095,0.0,-0.0016,9.8066,0.0,0.0053,0.0077,-20.06,-30.06,8.31,273.13,-88.94,162.8
5930,52.396233,-1.431454,143.87,1.89,3,96.87,16 / 17,624321,2019-09-04 19:31:44:494,0.5568,-0.3302,9.9491,0.0009,0.0001,9.8066,-0.0037,0.0057,0.0108,-19.69,-30.12,8.5,276.12,-88.93,163.35
5931,52.396233,-1.431454,143.87,1.89,3,96.87,16 / 17,624421,2019-09-04 19:31:44:594,0.258,-0.0185,9.7807,0.0011,0.001,9.8066,0.0041,-0.0252,-0.0184,-20.06,-30.12,8.56,275.6,-88.91,162.86
5932,52.396233,-1.431454,143.87,1.89,3,96.87,16 / 17,624520,2019-09-04 19:31:44:693,0.3631,-0.1019,9.8253,0.0004,-0.001,9.8066,0.0037,-0.0135,-0.0038,-19.81,-30.12,8.69,275.33,-88.9,162.6
5933,52.396233,-1.431454,143.87,1.89,3,96.87,16 / 17,624621,2019-09-04 19:31:44:794,0.5552,-0.2356,9.8807,-0.0005,-0.0001,9.8066,0.0036,-0.0099,-0.0025,-19.94,-30.31,8.63,275.98,-88.9,163.25
5934,52.396233,-1.431454,143.87,1.89,3,96.87,16 / 17,624720,2019-09-04 19:31:44:893,0.7158,-0.3618,9.775,0.0012,-0.0017,9.8066,0.0043,-0.0052,0.0121,-19.87,-29.25,8.75,276.25,-88.88,163.5
5935,52.396233,-1.431454,143.87,1.89,3,96.87,16 / 17,624821,2019-09-04 19:31:44:994,0.6756,-0.3599,9.9682,0.0057,-0.0019,9.8066,0.0099,-0.0092,-0.0101,-20.12,-29.75,8.63,277.58,-88.82,164.96
5936,52.396233,-1.431454,143.87,1.89,3,96.87,16 / 17,624921,2019-09-04 19:31:45:094,0.7556,-0.4291,9.9072,0.0043,0.0008,9.8066,0.0011,-0.0199,-0.0068,-20.5,-30.19,8.63,277.84,-88.78,165.27
5937,52.396233,-1.431454,143.87,1.89,3,96.87,16 / 17,625021,2019-09-04 19:31:45:194,0.9962,-0.605,9.7732,0.0006,-0.0019,9.8066,0.0155,-0.0367,-0.013,-20.06,-30.19,9.13,277.67,-88.73,165.17
5938,52.396233,-1.431454,143.87,1.89,3,96.87,16 / 17,625121,2019-09-04 19:31:45:294,0.7455,-0.2709,9.5731,0.0064,0.001,9.8066,0.0099,-0.0319,-0.0075,-20.0,-29.75,9.25,278.9,-88.7,166.43
5939,52.396233,-1.431454,143.87,1.89,3,96.87,16 / 17,625221,2019-09-04 19:31:45:394,1.2827,-0.6648,10.2442,0.0066,0.0,9.8066,-0.0012,-0.0207,0.0077,-20.0,-30.12,9.25,279.0,-88.63,166.63
5940,52.396233,-1.431454,143.87,1.89,3,96.87,16 / 17,625320,2019-09-04 19:31:45:493,1.2872,-0.6853,9.4393,0.001,-0.0052,9.8066,0.0026,-0.0226,0.0132,-20.19,-30.0,9.38,279.78,-88.6,167.45
5941,52.396233,-1.431454,143.87,1.89,3,96.87,16 / 17,625421,2019-09-04 19:31:45:594,1.567,-0.9728,9.5258,0.0051,-0.0053,9.8066,0.0217,-0.0362,0.0079,-19.87,-30.12,10.19,284.67,-88.53,170.02
5942,52.396233,-1.431454,143.87,1.89,3,96.87,16 / 17,625520,2019-09-04 19:31:45:693,2.21,-1.3156,9.8901,0.0081,-0.0069,9.8066,0.0256,-0.0393,0.0025,-19.62,-30.12,10.13,286.27,-88.43,171.74
5943,52.396233,-1.431454,143.87,1.89,3,96.87,16 / 17,625621,2019-09-04 19:31:45:794,2.038,-1.2236,9.1573,0.0076,-0.0054,9.8066,0.0073,-0.0486,-0.0013,-19.44,-29.44,9.94,288.46,-88.29,172.89
5944,52.396233,-1.431454,143.87,1.89,3,96.87,16 / 17,625720,2019-09-04 19:31:45:893,2.2951,-1.4895,9.3948,-0.0012,-0.001,9.8066,-0.008,-0.0534,0.0031,-19.19,-29.5,10.88,291.88,-88.2,174.02
5945,52.396233,-1.431454,143.87,1.89,3,96.87,16 / 17,625820,2019-09-04 19:31:45:993,2.0475,-1.3584,10.6403,-0.0019,-0.0014,9.8066,-0.0037,-0.0623,0.0045,-19.12,-29.56,11.13,292.68,-88.22,174.86
5946,52.396233,-1.431454,143.87,1.89,3,96.87,16 / 17,625920,2019-09-04 19:31:46:093,1.9392,-1.3827,10.3746,0.0017,0.0002,9.8066,0.0024,-0.0705,0.0016,-19.56,-30.12,10.5,291.7,-88.23,175.06
5947,52.396233,-1.431454,143.87,1.89,3,96.87,16 / 17,626020,2019-09-04 19:31:46:193,1.6885,-1.0882,9.7882,0.0047,-0.0028,9.8066,0.009,-0.0738,-0.0009,-19.5,-30.69,10.56,292.81,-88.17,175.14
5948,52.396233,-1.431454,143.87,1.89,3,96.87,16 / 17,626120,2019-09-04 19:31:46:293,1.8466,-1.3494,9.3982,-0.0001,-0.002,9.8066,-0.0034,-0.0764,0.0088,-19.12,-29.62,10.94,293.18,-88.13,175.47
5949,52.396233,-1.431454,143.87,1.89,3,96.87,16 / 17,626220,2019-09-04 19:31:46:393,1.6046,-1.3642,9.7214,-0.0005,0.0037,9.8066,-0.0063,-0.082,-0.0016,-19.56,-30.0,10.56,291.99,-88.12,175.48
5950,52.396233,-1.431454,143.87,1.89,3,96.87,16 / 17,626320,2019-09-04 19:31:46:493,1.4881,-1.0448,10.4724,-0.0069,0.0047,9.8066,-0.0211,-0.0882,0.0087,-19.5,-29.87,11.5,294.27,-88.2,174.2
5951,52.396233,-1.431454,143.87,1.89,3,96.87,16 / 17,626421,2019-09-04 19:31:46:594,1.2643,-1.0411,9.942,0.0011,-0.0009,9.8066,-0.0008,-0.094,-0.0035,-19.19,-29.81,11.13,291.94,-88.25,174.11
5952,52.396233,-1.431454,143.87,1.89,3,96.87,16 / 17,626521,2019-09-04 19:31:46:694,1.8079,-1.4577,9.6302,0.0011,-0.0036,9.8066,0.0029,-0.113,-0.0144,-19.25,-30.31,11.19,291.21,-88.2,173.44
5953,52.396233,-1.431454,143.87,1.89,3,96.87,16 / 17,626621,2019-09-04 19:31:46:794,1.8888,-1.5135,9.4413,0.0003,-0.0055,9.8066,0.0175,-0.1132,0.0092,-19.06,-30.62,12.0,295.58,-88.15,175.62
5954,52.396233,-1.431454,143.87,1.89,3,96.87,16 / 17,626720,2019-09-04 19:31:46:893,1.7041,-1.6948,9.5528,-0.0006,-0.0038,9.8066,-0.0079,-0.1212,0.0063,-19.06,-29.94,11.88,297.25,-88.11,177.23
5955,52.396233,-1.431454,143.87,1.89,3,96.87,16 / 17,626820,2019-09-04 19:31:46:993,1.7748,-1.7512,9.8918,-0.0052,-0.0008,9.8066,-0.0161,-0.1247,0.0009,-19.56,-29.75,12.13,296.91,-88.13,178.11
5956,52.396233,-1.431454,143.87,1.89,3,96.87,16 / 17,626921,2019-09-04 19:31:47:094,1.6815,-1.4829,9.6502,0.0035,-0.0061,9.8066,0.0155,-0.121,0.0162,-19.62,-29.62,12.63,300.18,-88.16,179.16
5957,52.396233,-1.431454,143.87,1.89,3,96.87,16 / 17,627021,2019-09-04 19:31:47:194,0.6993,-1.1897,10.1517,0.0043,-0.0024,9.8066,-0.0137,-0.1181,0.0024,-19.12,-30.62,12.63,302.01,-88.06,179.86
5958,52.396233,-1.431454,143.87,1.89,3,96.87,16 / 17,627121,2019-09-04 19:31:47:294,0.8736,-0.8971,10.0605,-0.0068,0.0059,9.8066,-0.0299,-0.1496,-0.0191,-18.87,-30.81,12.75,301.38,-88.12,179.18
5959,52.396233,-1.431454,143.87,1.89,3,96.87,16 / 17,627220,2019-09-04 19:31:47:393,0.4601,-0.8852,10.0081,-0.0048,0.0031,9.8066,-0.0159,-0.1525,-0.0218,-19.0,-29.81,12.69,301.71,-88.21,179.33
5960,52.396233,-1.431454,143.87,1.89,3,96.87,17 / 17,627320,2019-09-04 19:31:47:493,0.5553,-1.3083,9.4224,0.0076,-0.0016,9.8066,0.014,-0.1479,-0.0141,-18.87,-29.75,13.13,301.39,-88.25,178.97
5961,52.396233,-1.431454,143.87,1.89,3,96.87,17 / 17,627421,2019-09-04 19:31:47:594,0.5922,-1.5704,10.1554,0.0026,-0.0129,9.8066,0.0211,-0.1628,-0.0077,-19.0,-29.87,13.75,305.07,-88.1,-179.33
5962,52.396233,-1.431454,143.87,1.89,3,96.87,17 / 17,627520,2019-09-04 19:31:47:693,0.5104,-1.3117,9.9999,0.001,-0.0066,9.8066,0.0079,-0.1784,-0.0173,-19.0,-30.06,13.69,306.36,-88.01,-177.96
5963,52.396233,-1.431454,143.87,1.89,3,96.87,17 / 17,627621,2019-09-04 19:31:47:794,0.4006,-1.3428,10.1896,-0.0061,-0.0075,9.8066,-0.0088,-0.1348,0.028,-18.94,-29.56,14.19,309.87,-87.95,-174.5
5964,52.396233,-1.431454,143.87,1.89,3,96.87,17 / 17,627721,2019-09-04 19:31:47:894,0.0276,-1.5484,9.4622,-0.0007,0.0,9.8066,-0.0056,-0.1454,0.0115,-19.25,-30.12,14.63,313.36,-87.96,-173.07
5965,52.396233,-1.431454,143.87,1.89,3,96.87,17 / 17,627820,2019-09-04 19:31:47:993,0.7805,-1.4804,9.6443,0.0027,-0.0022,9.8066,0.0013,-0.1227,0.0367,-18.81,-30.37,14.38,311.54,-87.95,-172.88
5966,52.396233,-1.431454,143.87,1.89,3,96.87,17 / 17,627921,2019-09-04 19:31:48:094,0.0454,-1.6119,9.3554,0.0059,0.0037,9.8066,-0.0015,-0.1297,0.0227,-18.56,-29.69,14.75,313.92,-87.91,-172.49
5967,52.396233,-1.431454,143.87,1.89,3,96.87,17 / 17,628020,2019-09-04 19:31:48:193,0.6417,-1.2786,10.0093,-0.0082,0.0014,9.8065,-0.0191,-0.1659,0.0196,-18.81,-29.31,15.25,313.2,-87.97,-173.3
5968,52.396233,-1.431454,143.87,1.89,3,96.87,17 / 17,628120,2019-09-04 19:31:48:293,0.484,-1.7601,9.9247,-0.0014,0.0019,9.8066,-0.006,-0.1676,-0.0087,-18.44,-30.37,15.19,317.16,-88.03,-170.92
5969,52.396233,-1.431454,143.87,1.89,3,96.87,17 / 17,628221,2019-09-04 19:31:48:394,-0.1821,-1.6303,10.1934,0.0043,-0.0068,9.8066,0.0235,-0.1741,0.0008,-17.94,-29.75,15.25,317.6,-88.02,-170.48
5970,52.39621,-1.431312,144.35,5.68,3,116.82,16 / 17,628321,2019-09-04 19:31:48:494,0.1098,-1.774,10.1755,0.0102,-0.0009,9.8065,0.0215,-0.1741,-0.0195,-17.62,-29.75,15.69,318.25,-87.94,-171.66
5971,52.39621,-1.431312,144.35,5.68,3,116.82,16 / 17,628420,2019-09-04 19:31:48:593,0.2496,-1.5737,9.5412,0.0146,-0.0039,9.8066,0.0236,-0.1648,-0.0002,-18.06,-30.0,16.56,316.05,-87.74,-175.39
5972,52.39621,-1.431312,144.35,5.68,3,116.82,16 / 17,628520,2019-09-04 19:31:48:693,0.2534,-1.7414,9.8307,0.0065,-0.003,9.8066,-0.003,-0.173,-0.0011,-17.25,-29.69,16.13,313.02,-87.56,-177.93
5973,52.39621,-1.431312,144.35,5.68,3,116.82,16 / 17,628620,2019-09-04 19:31:48:793,0.1825,-1.386,10.0101,-0.0041,0.0023,9.8066,-0.0301,-0.1908,0.0063,-17.37,-29.87,17.0,313.76,-87.57,-179.02
5974,52.39621,-1.431312,144.35,5.68,3,116.82,16 / 17,628721,2019-09-04 19:31:48:894,-0.0378,-1.4471,9.7949,-0.002,0.0127,9.8066,-0.0415,-0.1665,-0.0082,-17.31,-30.0,16.69,313.08,-87.71,-179.81
5975,52.39621,-1.431312,144.35,5.68,3,116.82,16 / 17,628821,2019-09-04 19:31:48:994,0.2124,-1.4503,9.7353,-0.0101,0.0063,9.8066,-0.0345,-0.1779,0.0185,-16.87,-29.81,17.0,311.81,-87.85,178.83
5976,52.39621,-1.431312,144.35,5.68,3,116.82,16 / 17,628921,2019-09-04 19:31:49:094,-0.0458,-1.4184,10.1208,-0.013,0.0025,9.8066,-0.0198,-0.2041,0.0082,-16.94,-30.0,17.13,313.2,-87.99,-179.95
5977,52.39621,-1.431312,144.35,5.68,3,116.82,16 / 17,629021,2019-09-04 19:31:49:194,-0.0312,-1.4128,9.6346,-0.0028,-0.0065,9.8066,0.0072,-0.1775,0.0331,-17.06,-30.25,17.5,318.03,-88.1,-177.05
5978,52.39621,-1.431312,144.35,5.68,3,116.82,16 / 17,629120,2019-09-04 19:31:49:293,-0.2871,-1.5853,9.6184,-0.0044,-0.0107,9.8066,0.0106,-0.1967,0.0103,-16.5,-29.5,17.38,322.18,-88.0,-173.02
5979,52.39621,-1.431312,144.35,5.68,3,116.82,16 / 17,629220,2019-09-04 19:31:49:393,-0.0317,-1.6192,9.9852,-0.0052,-0.0142,9.8066,0.0219,-0.1958,0.0383,-16.81,-29.94,17.94,325.5,-87.92,-169.69
5980,52.39621,-1.431312,144.35,5.68,3,116.82,17 / 17,629320,2019-09-04 19:31:49:493,-0.2312,-2.2609,10.2913,-0.0073,-0.0142,9.8065,0.0045,-0.1792,0.053,-16.87,-30.12,18.31,332.23,-87.74,-163.11
5981,52.39621,-1.431312,144.35,5.68,3,116.82,17 / 17,629421,2019-09-04 19:31:49:594,-0.3129,-1.7041,10.289,0.0005,-0.0062,9.8066,0.0087,-0.1962,0.0035,-16.75,-29.25,17.56,334.79,-87.66,-160.66
5982,52.39621,-1.431312,144.35,5.68,3,116.82,17 / 17,629521,2019-09-04 19:31:49:694,-0.1115,-1.4092,10.2992,-0.0001,-0.0061,9.8066,0.0088,-0.183,0.0206,-16.25,-29.69,19.06,338.47,-87.6,-160.34
5983,52.39621,-1.431312,144.35,5.68,3,116.82,17 / 17,629620,2019-09-04 19:31:49:793,-0.3508,-1.2639,9.7918,0.0013,-0.0112,9.8066,0.0165,-0.1813,0.0252,-15.81,-29.81,18.63,339.48,-87.46,-159.33
5984,52.39621,-1.431312,144.35,5.68,3,116.82,17 / 17,629720,2019-09-04 19:31:49:893,-0.6827,-1.6046,9.9448,0.0045,-0.0085,9.8065,0.0229,-0.1672,0.0063,-16.25,-29.62,19.25,339.48,-87.27,-159.24
5985,52.39621,-1.431312,144.35,5.68,3,116.82,17 / 17,629820,2019-09-04 19:31:49:993,-0.1557,-1.2961,10.5523,0.0114,-0.0087,9.8066,0.033,-0.1583,0.0117,-16.19,-30.0,19.5,339.1,-87.13,-161.02
5986,52.39621,-1.431312,144.35,5.68,3,116.82,17 / 17,629920,2019-09-04 19:31:50:093,-0.2942,-0.9613,9.9,0.0195,-0.0036,9.8066,0.0156,-0.1296,-0.0178,-16.12,-29.75,19.94,335.44,-86.89,-164.35
5987,52.39621,-1.431312,144.35,5.68,3,116.82,17 / 17,630021,2019-09-04 19:31:50:194,-0.0476,-1.3774,9.8328,0.0132,0.0035,9.8065,-0.005,-0.1303,-0.0332,-14.81,-29.44,20.06,333.39,-86.82,-168.05
5988,52.39621,-1.431312,144.35,5.68,3,116.82,17 / 17,630121,2019-09-04 19:31:50:294,0.2942,-0.953,10.1437,0.0126,0.0128,9.8066,-0.0188,-0.1102,-0.0232,-14.69,-29.69,20.38,330.19,-86.82,-171.0
5989,52.39621,-1.431312,144.35,5.68,3,116.82,17 / 17,630221,2019-09-04 19:31:50:394,0.0633,-0.8092,10.0216,0.0131,0.0154,9.8065,-0.0106,-0.079,-0.0249,-14.75,-29.94,20.13,324.14,-86.91,-176.78
5990,52.39621,-1.431312,144.35,5.68,3,116.82,16 / 16,630321,2019-09-04 19:31:50:494,0.2621,-0.3573,9.775,0.0125,0.0059,9.8066,-0.0035,-0.0748,-0.0212,-13.94,-30.25,20.75,321.78,-86.9,177.79
5991,52.39621,-1.431312,144.35,5.68,3,116.82,16 / 16,630420,2019-09-04 19:31:50:593,0.3495,-0.4947,9.7646,0.002,-0.0044,9.8066,0.0039,-0.0477,0.0468,-14.56,-29.94,20.5,318.36,-86.85,176.37
5992,52.39621,-1.431312,144.35,5.68,3,116.82,16 / 16,630521,2019-09-04 19:31:50:694,0.2831,-0.5083,9.6679,-0.0161,-0.0139,9.8066,-0.007,-0.0624,0.0746,-14.31,-29.75,20.63,324.03,-86.79,-180.0
5993,52.39621,-1.431312,144.35,5.68,3,116.82,16 / 16,630620,2019-09-04 19:31:50:793,0.167,-0.3563,9.8956,-0.0169,-0.0103,9.8066,-0.0093,-0.1004,0.0045,-14.69,-30.06,21.19,327.05,-86.8,-175.35
5994,52.39621,-1.431312,144.35,5.68,3,116.82,16 / 16,630720,2019-09-04 19:31:50:893,0.5505,-0.2474,9.9893,-0.0159,-0.0037,9.8066,-0.0207,-0.0648,0.0438,-14.31,-29.44,21.0,332.73,-86.82,-171.87
5995,52.39621,-1.431312,144.35,5.68,3,116.82,16 / 16,630821,2019-09-04 19:31:50:994,0.5113,-0.1719,9.9519,-0.0272,-0.0175,9.8065,-0.0156,-0.0082,0.1148,-14.69,-29.75,20.56,337.41,-86.86,-165.62
5996,52.39621,-1.431312,144.35,5.68,3,116.82,16 / 16,630920,2019-09-04 19:31:51:093,0.3594,-0.4983,9.7363,-0.0309,-0.0274,9.8065,-0.0022,-0.0308,0.105,-14.75,-29.81,21.13,349.04,-86.63,-154.66
5997,52.39621,-1.431312,144.35,5.68,3,116.82,16 / 16,631020,2019-09-04 19:31:51:193,-0.39,-0.9748,10.2022,-0.0278,-0.0217,9.8066,-0.0051,-0.0458,0.0118,-15.0,-29.19,21.0,356.42,-86.39,-147.78
5998,52.39621,-1.431312,144.35,5.68,3,116.82,16 / 16,631120,2019-09-04 19:31:51:293,-0.1914,-0.4373,9.9598,0.0013,-0.0082,9.8066,-0.0022,-0.0143,0.0007,-15.31,-29.37,20.75,359.05,-86.2,-145.34
5999,52.39621,-1.431312,144.35,5.68,3,116.82,16 / 16,631220,2019-09-04 19:31:51:393,0.6358,-0.0297,10.3356,0.0011,-0.0071,9.8066,0.0283,-0.0201,-0.0021,-15.87,-29.19,21.06,357.41,-86.08,-145.08
6000,52.39621,-1.431312,144.35,5.68,3,116.82,17 / 17,631320,2019-09-04 19:31:51:493,0.642,-0.7367,9.6546,0.0025,-0.0128,9.8065,0.0346,0.0055,0.0252,-15.56,-30.0,21.44,356.41,-85.88,-145.99
6001,52.39621,-1.431312,144.35,5.68,3,116.82,17 / 17,631421,2019-09-04 19:31:51:594,0.4602,-0.5306,9.1845,-0.0019,0.0026,9.8066,-0.0318,0.0023,-0.0313,-15.56,-29.56,21.44,356.36,-85.74,-146.02
6002,52.39621,-1.431312,144.35,5.68,3,116.82,17 / 17,631520,2019-09-04 19:31:51:693,1.0112,-0.3325,10.2605,-0.0006,0.0209,9.8065,-0.0668,0.0175,-0.0123,-15.0,-29.37,21.0,358.39,-85.95,-145.94
6003,52.39621,-1.431312,144.35,5.68,3,116.82,17 / 17,631621,2019-09-04 19:31:51:794,0.4941,-0.6044,9.7873,-0.0108,0.0162,9.8066,-0.0579,0.0232,0.0181,-15.5,-29.94,20.81,0.69,-86.2,-143.83
6004,52.39621,-1.431312,144.35,5.68,3,116.82,17 / 17,631721,2019-09-04 19:31:51:894,-0.0758,-0.2125,9.6398,-0.0067,0.0051,9.8066,-0.0119,-0.005,-0.0119,-15.62,-29.62,20.75,1.3,-86.36,-141.49
6005,52.39621,-1.431312,144.35,5.68,3,116.82,17 / 17,631821,2019-09-04 19:31:51:994,0.2287,-0.5639,9.4403,0.008,-0.0105,9.8066,0.0234,0.0072,-0.0235,-15.94,-30.0,20.13,0.3,-86.33,-141.06
6006,52.39621,-1.431312,144.35,5.68,3,116.82,17 / 17,631921,2019-09-04 19:31:52:094,0.9076,-0.9756,9.6821,0.0101,-0.0083,9.8066,0.024,0.0052,-0.0061,-15.69,-29.56,20.25,357.41,-86.18,-143.72
6007,52.39621,-1.431312,144.35,5.68,3,116.82,17 / 17,632020,2019-09-04 19:31:52:193,0.063,-0.3466,9.6143,0.0043,0.0097,9.8066,-0.0213,0.0256,-0.0153,-15.69,-29.69,20.75,357.77,-86.17,-144.75
6008,52.39621,-1.431312,144.35,5.68,3,116.82,17 / 17,632120,2019-09-04 19:31:52:293,0.2721,0.4999,10.4155,0.0026,0.0081,9.8066,-0.0115,0.0369,0.025,-14.87,-29.19,20.63,358.98,-86.33,-145.41
6009,52.39621,-1.431312,144.35,5.68,3,116.82,17 / 17,632221,2019-09-04 19:31:52:394,0.0656,-0.1257,9.5823,0.0074,-0.0034,9.8066,0.0158,0.023,-0.0093,-15.81,-29.62,20.75,356.38,-86.29,-146.05
6010,52.39621,-1.431312,144.35,5.68,3,116.82,17 / 17,632321,2019-09-04 19:31:52:494,0.93,-0.4337,9.3789,0.0086,-0.0047,9.8066,0.0025,0.0193,0.0036,-14.94,-29.31,20.56,356.34,-86.25,-147.85
6011,52.39621,-1.431312,144.35,5.68,3,116.82,17 / 17,632421,2019-09-04 19:31:52:594,0.4615,0.0831,9.8783,-0.0016,0.0022,9.8066,0.0107,-0.0073,-0.0213,-15.44,-29.62,20.5,355.14,-86.22,-148.94
6012,52.39621,-1.431312,144.35,5.68,3,116.82,17 / 17,632521,2019-09-04 19:31:52:694,0.8708,-0.1802,10.3032,0.005,-0.0062,9.8066,0.0063,0.0328,0.019,-15.5,-29.19,20.0,352.87,-86.17,-149.69
6013,52.39621,-1.431312,144.35,5.68,3,116.82,17 / 17,632620,2019-09-04 19:31:52:793,0.633,0.0766,10.4185,0.0043,-0.0154,9.8066,0.0403,0.017,0.0093,-15.56,-29.44,20.13,350.3,-86.07,-150.26
6014,52.39621,-1.431312,144.35,5.68,3,116.82,17 / 17,632721,2019-09-04 19:31:52:894,0.0491,-0.3146,10.1326,-0.0007,-0.017,9.8066,0.0304,-0.0048,-0.019,-15.5,-29.31,20.5,353.93,-85.78,-150.02
6015,52.39621,-1.431312,144.35,5.68,3,116.82,17 / 17,632820,2019-09-04 19:31:52:993,0.7824,-0.2854,9.8946,0.0049,-0.0086,9.8066,0.0146,0.0446,0.009,-15.5,-29.06,20.69,352.33,-85.67,-151.46
6016,52.39621,-1.431312,144.35,5.68,3,116.82,17 / 17,632920,2019-09-04 19:31:53:093,0.5533,-0.3409,9.8343,-0.0035,-0.0036,9.8066,-0.0002,0.027,-0.0023,-15.56,-28.69,21.06,350.22,-85.58,-151.63
6017,52.39621,-1.431312,144.35,5.68,3,116.82,17 / 17,633020,2019-09-04 19:31:53:193,1.1383,0.1615,9.8277,0.0018,-0.0016,9.8066,-0.0167,0.0831,0.0522,-15.37,-29.37,20.69,351.96,-85.57,-151.79
6018,52.39621,-1.431312,144.35,5.68,3,116.82,17 / 17,633121,2019-09-04 19:31:53:294,0.2264,-0.0383,9.7918,-0.0032,-0.0035,9.8066,-0.0001,0.0555,-0.01,-16.19,-29.69,20.38,348.78,-85.53,-151.51
6019,52.39621,-1.431312,144.35,5.68,3,116.82,17 / 17,633220,2019-09-04 19:31:53:393,0.5836,0.7467,10.2595,0.0019,-0.0012,9.8066,0.0087,0.0274,-0.0201,-15.87,-29.75,20.5,349.13,-85.51,-152.57
6020,52.39621,-1.431312,144.35,5.68,3,116.82,16 / 17,633321,2019-09-04 19:31:53:494,0.6868,0.2565,10.2228,0.0041,-0.0073,9.8066,0.0327,0.0451,0.0167,-15.94,-28.94,20.5,349.3,-85.42,-152.43
6021,52.39621,-1.431312,144.35,5.68,3,116.82,16 / 17,633421,2019-09-04 19:31:53:594,0.5197,0.2221,9.5553,0.0042,-0.012,9.8066,0.035,0.0463,-0.0086,-16.31,-29.44,20.69,348.91,-85.26,-152.75
6022,52.39621,-1.431312,144.35,5.68,3,116.82,16 / 17,633521,2019-09-04 19:31:53:694,1.0123,-0.448,9.9,-0.0029,-0.0109,9.8066,0.0004,0.026,0.0033,-15.75,-29.81,20.5,347.66,-85.14,-153.81
6023,52.39621,-1.431312,144.35,5.68,3,116.82,16 / 17,633621,2019-09-04 19:31:53:794,0.5616,0.146,10.6722,-0.0061,-0.0002,9.8066,-0.007,0.044,-0.0235,-16.37,-29.0,20.44,348.25,-85.02,-151.9
6024,52.39621,-1.431312,144.35,5.68,3,116.82,16 / 17,633720,2019-09-04 19:31:53:893,0.9506,0.4982,9.7929,-0.0076,-0.0043,9.8066,-0.0102,0.0324,0.0155,-15.87,-29.37,20.0,349.56,-85.01,-150.72
6025,52.39621,-1.431312,144.35,5.68,3,116.82,16 / 17,633820,2019-09-04 19:31:53:993,0.5614,0.5176,9.9305,-0.0039,-0.0087,9.8066,0.0044,0.0487,0.0,-16.62,-29.06,20.0,349.38,-84.94,-149.18
6026,52.39621,-1.431312,144.35,5.68,3,116.82,16 / 17,633920,2019-09-04 19:31:54:093,0.3677,0.1419,9.4037,-0.0058,-0.0114,9.8066,0.0105,0.0538,0.0238,-16.94,-29.44,20.56,352.05,-84.79,-148.15
6027,52.39621,-1.431312,144.35,5.68,3,116.82,16 / 17,634020,2019-09-04 19:31:54:193,0.6411,0.0533,9.7405,-0.0119,-0.005,9.8066,-0.0101,0.0368,-0.0075,-17.12,-28.94,19.88,351.84,-84.7,-146.93
6028,52.39621,-1.431312,144.35,5.68,3,116.82,16 / 17,634121,2019-09-04 19:31:54:294,0.5658,0.2966,10.0632,-0.0061,0.0038,9.8066,-0.0052,0.0458,-0.0156,-17.12,-29.25,19.88,353.44,-84.68,-145.49
6029,52.39621,-1.431312,144.35,5.68,3,116.82,16 / 17,634220,2019-09-04 19:31:54:393,0.6003,-0.0684,9.8111,-0.004,-0.0012,9.8066,0.0076,0.0605,-0.0216,-17.0,-29.25,20.25,354.18,-84.73,-144.84
6030,52.39621,-1.431312,144.35,5.68,3,116.82,17 / 17,634321,2019-09-04 19:31:54:494,0.2452,0.0264,10.2195,-0.0029,-0.006,9.8066,0.0076,0.0605,-0.0216,-17.0,-29.25,20.25,354.18,-84.73,-144.84
6031,52.39621,-1.431312,144.35,5.68,3,116.82,17 / 17,634420,2019-09-04 19:31:54:593,0.7929,0.4792,9.4592,-0.0054,-0.0059,9.8066,-0.0055,0.0486,0.0007,-17.0,-28.94,20.0,353.9,-84.51,-145.07
6032,52.39621,-1.431312,144.35,5.68,3,116.82,17 / 17,634520,2019-09-04 19:31:54:693,0.7617,0.2783,9.7279,-0.0095,0.0003,9.8066,-0.0219,0.079,0.0353,-17.25,-29.31,19.81,354.6,-84.49,-144.44
6033,52.39621,-1.431312,144.35,5.68,3,116.82,17 / 17,634621,2019-09-04 19:31:54:794,0.9142,0.5505,9.6152,-0.0055,0.0015,9.8066,-0.0157,0.0543,0.008,-17.75,-29.37,19.75,355.24,-84.51,-142.26
6034,52.39621,-1.431312,144.35,5.68,3,116.82,17 / 17,634721,2019-09-04 19:31:54:894,0.5408,0.2536,9.1734,-0.0059,-0.0017,9.8066,0.0018,0.0687,0.0097,-17.62,-29.06,19.38,355.08,-84.49,-140.93
6035,52.39621,-1.431312,144.35,5.68,3,116.82,17 / 17,634820,2019-09-04 19:31:54:993,0.7834,0.7495,8.9999,-0.0094,0.0013,9.8066,-0.0233,0.0793,0.0348,-17.44,-29.0,19.19,357.48,-84.51,-140.41
6036,52.39621,-1.431312,144.35,5.68,3,116.82,17 / 17,634921,2019-09-04 19:31:55:094,0.5614,0.5842,10.1299,-0.0001,0.0006,9.8066,0.0119,0.0572,-0.0284,-18.56,-29.06,19.13,355.66,-84.5,-138.87
6037,52.39621,-1.431312,144.35,5.68,3,116.82,17 / 17,635021,2019-09-04 19:31:55:194,-0.4096,1.6344,8.6579,0.0097,-0.009,9.8066,0.0599,0.0193,-0.0226,-18.0,-28.81,19.13,356.41,-84.43,-139.73
6038,52.39621,-1.431312,144.35,5.68,3,116.82,17 / 17,635120,2019-09-04 19:31:55:293,1.2641,0.2641,10.1574,0.0141,-0.0164,9.8066,0.0402,0.0669,0.0017,-18.75,-28.94,18.88,354.18,-84.17,-140.16
6039,52.39621,-1.431312,144.35,5.68,3,116.82,17 / 17,635220,2019-09-04 19:31:55:393,0.6261,0.5501,9.3656,-0.0037,-0.005,9.8066,-0.0168,0.0263,-0.0529,-18.69,-28.81,19.63,354.75,-83.98,-141.11
6040,52.39621,-1.431312,144.35,5.68,3,116.82,17 / 17,635320,2019-09-04 19:31:55:493,0.6637,0.929,10.1956,-0.0006,0.0072,9.8066,-0.0185,0.0827,-0.0014,-17.94,-29.25,19.25,355.76,-84.09,-140.28
6041,52.39621,-1.431312,144.35,5.68,3,116.82,17 / 17,635421,2019-09-04 19:31:55:594,1.1996,0.7719,9.7655,0.0052,-0.0056,9.8066,0.0195,0.0311,-0.0445,-18.25,-28.87,18.94,355.58,-84.15,-140.45
6042,52.39621,-1.431312,144.35,5.68,3,116.82,17 / 17,635521,2019-09-04 19:31:55:694,0.6921,0.1872,9.8088,-0.0012,0.0019,9.8066,-0.0054,0.063,-0.0256,-18.5,-28.87,18.94,354.98,-84.12,-140.97
6043,52.39621,-1.431312,144.35,5.68,3,116.82,17 / 17,635620,2019-09-04 19:31:55:793,1.6469,0.5882,9.5069,-0.0078,0.0052,9.8066,-0.0115,0.0678,0.0065,-18.12,-29.12,18.81,354.73,-84.21,-141.2
6044,52.39621,-1.431312,144.35,5.68,3,116.82,17 / 17,635721,2019-09-04 19:31:55:894,2.0919,1.4852,9.4607,-0.0101,-0.0015,9.8066,0.0076,0.0713,0.0032,-18.31,-29.06,18.38,353.33,-84.27,-140.88
6045,52.39621,-1.431312,144.35,5.68,3,116.82,17 / 17,635821,2019-09-04 19:31:55:994,0.8099,1.3561,9.0736,-0.0123,-0.0055,9.8066,-0.0058,0.0701,0.0218,-18.25,-29.37,18.44,354.68,-84.22,-139.69
6046,52.39621,-1.431312,144.35,5.68,3,116.82,17 / 17,635921,2019-09-04 19:31:56:094,1.3092,1.3353,9.5863,-0.0058,0.0078,9.8066,-0.0372,0.1294,0.0604,-18.12,-29.25,18.38,355.01,-84.33,-139.4
6047,52.39621,-1.431312,144.35,5.68,3,116.82,17 / 17,636021,2019-09-04 19:31:56:194,0.8261,0.3024,9.6229,0.0029,-0.0046,9.8066,0.018,0.0691,0.0079,-18.44,-29.25,18.25,356.0,-84.32,-138.53
6048,52.39621,-1.431312,144.35,5.68,3,116.82,17 / 17,636121,2019-09-04 19:31:56:294,0.1813,0.5311,10.295,0.0015,-0.0059,9.8066,0.0005,0.1074,0.0443,-19.62,-30.0,18.5,353.74,-84.22,-139.08
6049,52.39621,-1.431312,144.35,5.68,3,116.82,17 / 17,636221,2019-09-04 19:31:56:394,0.7255,0.702,9.6163,0.0076,-0.0031,9.8066,0.0073,0.1012,0.0294,-18.25,-28.75,18.19,354.64,-84.19,-139.72
6050,52.39621,-1.431312,144.35,5.68,3,116.82,16 / 17,636320,2019-09-04 19:31:56:493,0.6997,0.9155,10.1227,-0.0004,-0.0027,9.8066,0.0066,0.0862,0.0366,-19.0,-29.0,18.5,354.34,-84.17,-140.01
6051,52.39621,-1.431312,144.35,5.68,3,116.82,16 / 17,636421,2019-09-04 19:31:56:594,0.0938,0.62,10.1256,-0.0036,-0.0012,9.8066,-0.0033,0.0407,-0.0334,-18.75,-28.81,18.31,353.67,-84.1,-139.03
