,GPS LATITUDE (degrees), GPS LONGITUDE (degrees), GPS ALTITUDE (m), GPS SPEED (Kmh), GPS ACCURACY (m), GPS ORIENTATION (Â°),GPS SATELLITES IN RANGE, TIME SINCE START (ms), DATE (YYYY-MO-DD HH-MI-SS_SSS), ACCELEROMETER X (m/s²) , ACCELEROMETER Y (m/s²), ACCELEROMETER Z (m/s²), GRAVITY X (m/s²), GRAVITY Y (m/s²), GRAVITY Z (m/s²), GYROSCOPE Yaw (rad/s), GYROSCOPE Pitch (rad/s), GYROSCOPE Roll (rad/s), MAGNETIC FIELD X (Î¼T), MAGNETIC FIELD Y (Î¼T), MAGNETIC FIELD Z (Î¼T), ORIENTATION (Yaw) (Â°), ORIENTATION (Pitch) (Â°), ORIENTATION (Roll ) (Â°)
69066,52.37704,-1.48559,130.29,24.38,4,270.64,22 / 23,3388010,2019-09-06 20:16:33:753,0.9841,-0.4995,9.5746,0.0212,-0.0109,9.8066,0.0088,-0.0104,0.0053,11.63,-36.81,6.56,110.42,-82.83,-147.46
69067,52.37704,-1.48559,130.29,24.38,4,270.64,22 / 23,3388109,2019-09-06 20:16:33:852,0.0083,-0.3435,9.2884,0.0286,0.0051,9.8066,-0.0195,-0.0485,-0.0229,11.81,-36.81,6.81,109.56,-83.06,-147.84
69068,52.37704,-1.48559,130.29,24.38,4,270.64,22 / 23,3388210,2019-09-06 20:16:33:953,0.8955,0.0893,10.3962,0.0097,0.009,9.8066,0.0326,0.0124,-0.0241,11.69,-36.87,7.13,110.09,-83.03,-147.32
69069,52.37704,-1.48559,130.29,24.38,4,270.64,22 / 23,3388310,2019-09-06 20:16:34:053,0.962,-0.7328,9.7999,-0.0225,-0.0137,9.8065,0.0049,0.0568,-0.0292,11.69,-36.87,7.06,110.06,-83.12,-147.11
69070,52.37704,-1.48559,130.29,24.38,4,270.64,21 / 22,3388410,2019-09-06 20:16:34:153,-0.5437,-0.7419,9.8172,0.0112,-0.0007,9.8066,0.0119,0.0083,0.0243,11.5,-36.69,7.31,108.23,-83.0,-149.46
69071,52.37704,-1.48559,130.29,24.38,4,270.64,21 / 22,3388509,2019-09-06 20:16:34:252,-0.5636,-0.5995,9.5032,0.0205,0.0112,9.8065,0.0415,-0.0314,-0.0253,11.63,-36.87,6.69,108.45,-83.08,-149.02
69072,52.37704,-1.48559,130.29,24.38,4,270.64,21 / 22,3388610,2019-09-06 20:16:34:353,0.4217,0.2189,9.5651,0.0218,0.0222,9.8066,-0.1472,-0.016,-0.0123,11.38,-36.56,7.31,108.98,-83.14,-147.23
69073,52.37704,-1.48559,130.29,24.38,4,270.64,21 / 22,3388709,2019-09-06 20:16:34:452,0.5571,0.1206,9.9503,-0.0009,-0.001,9.8066,-0.1284,-0.0057,0.0113,11.5,-37.06,7.06,110.53,-83.13,-146.54
69074,52.37704,-1.48559,130.29,24.38,4,270.64,21 / 22,3388810,2019-09-06 20:16:34:553,1.1271,-0.6888,10.3222,-0.011,-0.0196,9.8066,0.1364,0.0018,0.0282,11.63,-37.31,7.38,109.67,-83.11,-147.58
69075,52.37704,-1.48559,130.29,24.38,4,270.64,21 / 22,3388910,2019-09-06 20:16:34:653,0.9187,-0.4068,10.2073,-0.0421,-0.0032,9.8065,0.1292,0.0824,-0.0301,11.75,-37.12,7.13,108.49,-82.91,-149.41
69076,52.37704,-1.48559,130.29,24.38,4,270.64,21 / 22,3389010,2019-09-06 20:16:34:753,0.4312,-0.6284,9.477,-0.0058,0.0016,9.8066,0.0696,-0.0343,0.0657,11.25,-36.44,7.06,107.9,-82.96,-148.42
69077,52.37704,-1.48559,130.29,24.38,4,270.64,21 / 22,3389109,2019-09-06 20:16:34:852,0.1805,0.3017,9.8939,0.0141,0.0085,9.8066,0.0853,-0.04,0.0019,11.56,-36.31,6.44,113.6,-83.12,-146.93
69078,52.37704,-1.48559,130.29,24.38,4,270.64,21 / 22,3389210,2019-09-06 20:16:34:953,0.0399,-0.4058,9.4528,0.0153,-0.0027,9.8066,-0.0851,0.0261,0.0001,11.06,-36.87,7.06,109.39,-83.15,-146.76
69079,52.37704,-1.48559,130.29,24.38,4,270.64,21 / 22,3389310,2019-09-06 20:16:35:053,1.1903,0.513,10.4928,0.0065,0.0027,9.8066,-0.1123,0.0022,-0.0064,11.63,-37.0,6.5,109.92,-83.23,-146.99
69080,52.377186,-1.48878,129.94,24.37,4,275.0,21 / 22,3389409,2019-09-06 20:16:35:152,-0.4578,-0.2208,11.1336,0.0084,0.0037,9.8066,0.1221,0.0181,-0.0253,11.63,-37.37,7.19,110.04,-83.1,-147.19
69081,52.377186,-1.48878,129.94,24.37,4,275.0,21 / 22,3389510,2019-09-06 20:16:35:253,0.025,-0.8576,10.0594,-0.0342,-0.0163,9.8065,0.1439,0.0017,-0.0179,11.44,-36.56,6.81,108.98,-82.97,-147.72
69082,52.377186,-1.48878,129.94,24.37,4,275.0,21 / 22,3389610,2019-09-06 20:16:35:353,-0.6047,-0.1343,9.8297,0.0133,0.0102,9.8065,-0.0328,-0.0229,0.0122,11.44,-36.5,6.94,107.43,-82.84,-149.28
69083,52.377186,-1.48878,129.94,24.37,4,275.0,21 / 22,3389709,2019-09-06 20:16:35:452,-1.0397,-0.2487,9.4803,0.028,0.0078,9.8065,-0.0655,-0.038,0.0005,11.13,-36.69,6.94,108.79,-83.06,-147.67
69084,52.377186,-1.48878,129.94,24.37,4,275.0,21 / 22,3389810,2019-09-06 20:16:35:553,1.1031,-0.5992,9.1707,0.0311,0.0157,9.8065,0.0088,-0.05,0.039,11.81,-37.0,6.25,114.03,-83.24,-146.59
69085,52.377186,-1.48878,129.94,24.37,4,275.0,21 / 22,3389910,2019-09-06 20:16:35:653,0.2765,0.26,10.3335,-0.0274,-0.01,9.8065,0.0835,0.0156,-0.0031,11.19,-36.94,6.88,108.51,-83.19,-147.61
69086,52.377186,-1.48878,129.94,24.37,4,275.0,21 / 22,3390010,2019-09-06 20:16:35:753,-0.4505,-1.471,10.9221,-0.0422,-0.0211,9.8065,0.1,0.0439,-0.0239,11.44,-36.62,7.13,108.26,-83.11,-148.13
69087,52.377186,-1.48878,129.94,24.37,4,275.0,21 / 22,3390109,2019-09-06 20:16:35:852,-0.6136,-0.3632,10.1887,-0.0697,-0.0042,9.8064,0.271,-0.0476,0.0524,11.5,-36.69,6.81,108.96,-83.1,-148.38
69088,52.377186,-1.48878,129.94,24.37,4,275.0,21 / 22,3390209,2019-09-06 20:16:35:952,-0.2351,0.211,9.66,0.0018,0.0033,9.8066,-0.0686,-0.0271,0.0525,11.19,-37.25,7.13,108.77,-82.98,-147.94
69089,52.377186,-1.48878,129.94,24.37,4,275.0,21 / 22,3390309,2019-09-06 20:16:36:052,-1.0622,-0.4665,9.3148,0.0308,-0.0034,9.8065,-0.1313,0.0049,-0.028,11.25,-36.81,6.5,109.21,-83.22,-146.75
69090,52.377186,-1.48878,129.94,24.37,4,275.0,21 / 22,3390409,2019-09-06 20:16:36:152,0.5673,-0.6988,8.889,-0.0188,-0.0058,9.8066,-0.0741,0.0053,0.0323,10.69,-36.5,7.0,108.15,-83.12,-147.69
69091,52.377186,-1.48878,129.94,24.37,4,275.0,21 / 22,3390510,2019-09-06 20:16:36:253,-0.444,0.4071,10.3443,0.0286,-0.0052,9.8066,-0.0799,0.0589,-0.0522,11.19,-36.94,6.88,106.95,-83.26,-149.16
69092,52.377186,-1.48878,129.94,24.37,4,275.0,21 / 22,3390609,2019-09-06 20:16:36:352,-0.8021,-1.4812,9.9804,0.0166,0.0079,9.8066,0.0453,0.0284,-0.0141,10.94,-36.87,7.0,107.16,-83.1,-149.39
69093,52.377186,-1.48878,129.94,24.37,4,275.0,21 / 22,3390710,2019-09-06 20:16:36:453,0.4723,-0.9909,9.1953,-0.0225,-0.004,9.8066,0.041,-0.0207,0.0184,11.31,-37.12,7.0,107.81,-83.08,-148.73
69094,52.377186,-1.48878,129.94,24.37,4,275.0,21 / 22,3390810,2019-09-06 20:16:36:553,0.0955,-0.2183,10.0489,0.0011,-0.0082,9.8066,0.0478,0.0001,0.0024,11.88,-36.75,6.94,108.57,-83.03,-149.0
69095,52.377186,-1.48878,129.94,24.37,4,275.0,21 / 22,3390909,2019-09-06 20:16:36:652,-0.8819,-0.7731,9.9126,-0.0033,-0.0129,9.8065,-0.1011,-0.0153,-0.0379,11.06,-36.81,6.88,106.18,-83.08,-150.53
69096,52.377186,-1.48878,129.94,24.37,4,275.0,21 / 22,3391010,2019-09-06 20:16:36:753,0.1713,-1.1466,9.4951,-0.0161,-0.0071,9.8066,-0.0719,-0.0213,0.0318,11.0,-37.0,7.06,105.42,-83.13,-151.23
69097,52.377186,-1.48878,129.94,24.37,4,275.0,21 / 22,3391110,2019-09-06 20:16:36:853,-0.1552,0.5598,9.3594,0.0304,0.0177,9.8065,-0.0118,-0.0182,0.0497,11.38,-36.37,6.63,106.2,-83.31,-149.34
69098,52.377186,-1.48878,129.94,24.37,4,275.0,21 / 22,3391210,2019-09-06 20:16:36:953,0.3787,-0.9148,10.3599,0.0195,0.0046,9.8065,0.073,0.0477,-0.0981,10.69,-36.62,6.81,106.99,-83.28,-149.08
69099,52.377186,-1.48878,129.94,24.37,4,275.0,21 / 22,3391310,2019-09-06 20:16:37:053,-0.6046,-1.7342,10.0457,-0.0392,-0.019,9.8065,0.1023,-0.0524,-0.002,11.38,-36.81,7.0,104.77,-83.19,-151.77
69100,52.377186,-1.48878,129.94,24.37,4,275.0,22 / 23,3391409,2019-09-06 20:16:37:152,0.1828,-0.797,10.1634,0.0011,-0.0037,9.8066,0.1011,0.0054,0.0577,11.06,-36.44,7.19,104.06,-83.29,-151.73
69101,52.377186,-1.48878,129.94,24.37,4,275.0,22 / 23,3391509,2019-09-06 20:16:37:252,0.6701,-0.727,9.5647,-0.0214,0.0018,9.8066,-0.1575,-0.0401,0.0258,11.0,-36.12,7.06,105.16,-83.12,-151.0
69102,52.377186,-1.48878,129.94,24.37,4,275.0,22 / 23,3391610,2019-09-06 20:16:37:353,-0.9962,0.019,9.4304,-0.0233,-0.0074,9.8066,-0.0867,-0.0634,0.0448,11.25,-36.44,7.06,105.1,-83.2,-150.85
69103,52.377186,-1.48878,129.94,24.37,4,275.0,22 / 23,3391709,2019-09-06 20:16:37:452,-0.4197,0.0935,9.6553,0.0398,0.0049,9.8065,0.0987,0.0846,0.0132,10.75,-36.69,7.31,105.37,-83.27,-150.88
69104,52.377186,-1.48878,129.94,24.37,4,275.0,22 / 23,3391810,2019-09-06 20:16:37:553,1.275,-0.5494,9.6893,0.0305,0.0082,9.8066,-0.0191,0.0302,-0.0746,11.19,-36.5,7.5,100.89,-83.48,-150.3
69105,52.377186,-1.48878,129.94,24.37,4,275.0,22 / 23,3391910,2019-09-06 20:16:37:653,0.9652,-0.8354,10.3448,-0.0137,0.0023,9.8066,0.1155,-0.043,0.0345,10.63,-36.81,7.94,100.56,-83.43,-151.28
69106,52.377186,-1.48878,129.94,24.37,4,275.0,22 / 23,3392009,2019-09-06 20:16:37:752,0.1879,-0.7784,10.4236,0.0021,-0.0022,9.8066,0.0602,-0.0532,0.0152,10.69,-37.56,8.81,97.07,-83.32,-151.7
69107,52.377186,-1.48878,129.94,24.37,4,275.0,22 / 23,3392109,2019-09-06 20:16:37:852,-0.141,-0.6994,9.2922,-0.004,-0.0151,9.8066,-0.127,-0.0376,-0.051,10.38,-38.5,8.81,95.21,-83.2,-152.35
69108,52.377186,-1.48878,129.94,24.37,4,275.0,22 / 23,3392210,2019-09-06 20:16:37:953,-0.1411,-0.2981,8.7178,0.0028,-0.0028,9.8066,0.0109,-0.0073,0.0291,10.44,-39.75,8.25,100.14,-83.41,-151.93
69109,52.377186,-1.48878,129.94,24.37,4,275.0,22 / 23,3392310,2019-09-06 20:16:38:053,0.4283,0.081,9.6369,0.0212,0.0124,9.8065,-0.019,0.0523,0.0008,10.19,-40.44,6.5,105.57,-83.64,-149.92
69110,52.377186,-1.48878,129.94,24.37,4,275.0,21 / 22,3392410,2019-09-06 20:16:38:153,0.7627,-0.1713,10.1824,-0.0056,0.0017,9.8066,0.0045,0.0457,-0.0436,10.0,-40.06,5.75,110.1,-83.64,-149.84
69111,52.377186,-1.48878,129.94,24.37,4,275.0,21 / 22,3392510,2019-09-06 20:16:38:253,0.7164,0.1027,10.6943,-0.0193,-0.0105,9.8066,0.0864,-0.0149,-0.0093,10.44,-37.81,5.69,107.77,-83.52,-151.79
69112,52.377186,-1.48878,129.94,24.37,4,275.0,21 / 22,3392609,2019-09-06 20:16:38:352,-0.6777,-0.7667,10.6345,-0.0126,-0.0036,9.8066,-0.0041,-0.019,0.0392,10.94,-37.62,6.56,103.99,-83.36,-152.67
69113,52.377186,-1.48878,129.94,24.37,4,275.0,21 / 22,3392709,2019-09-06 20:16:38:452,-0.005,-0.802,9.7971,-0.0087,0.0024,9.8066,-0.154,0.0019,-0.0038,10.88,-36.87,6.69,104.02,-83.28,-152.33
69114,52.377186,-1.48878,129.94,24.37,4,275.0,21 / 22,3392810,2019-09-06 20:16:38:553,-0.1179,-0.2299,9.0552,0.005,0.0105,9.8066,-0.0417,-0.0262,0.0404,10.69,-36.44,6.75,104.27,-83.4,-151.19
69115,52.377186,-1.48878,129.94,24.37,4,275.0,21 / 22,3392909,2019-09-06 20:16:38:652,-0.4694,-0.6587,9.5591,0.0106,0.0044,9.8066,-0.0381,0.0253,0.0197,11.0,-36.56,7.13,105.71,-83.52,-149.78
69116,52.377186,-1.48878,129.94,24.37,4,275.0,21 / 22,3393010,2019-09-06 20:16:38:753,0.3962,-0.1281,9.4499,-0.0449,-0.0157,9.8065,-0.0339,0.0254,-0.0109,10.94,-37.75,6.75,105.88,-83.46,-150.29
69117,52.377186,-1.48878,129.94,24.37,4,275.0,21 / 22,3393110,2019-09-06 20:16:38:853,-0.0322,-0.7052,10.4266,0.0274,0.0048,9.8066,0.1976,-0.066,0.044,11.38,-36.56,6.56,104.74,-83.62,-150.56
69118,52.377186,-1.48878,129.94,24.37,4,275.0,21 / 22,3393210,2019-09-06 20:16:38:953,0.0292,-0.6558,9.8934,0.0198,0.0084,9.8066,0.1832,-0.0543,0.0331,11.13,-36.75,6.81,104.93,-83.41,-150.96
69119,52.377186,-1.48878,129.94,24.37,4,275.0,21 / 22,3393310,2019-09-06 20:16:39:053,1.26,-0.2997,10.3781,0.0035,-0.0023,9.8065,-0.0708,0.014,-0.0207,10.88,-36.81,7.38,104.05,-83.33,-152.17
69120,52.377186,-1.48878,129.94,24.37,4,275.0,20 / 21,3393410,2019-09-06 20:16:39:153,-0.1396,-0.411,9.7418,-0.017,0.0104,9.8065,-0.1034,-0.0156,-0.0104,11.25,-36.31,7.06,103.17,-83.51,-152.09
69121,52.377186,-1.48878,129.94,24.37,4,275.0,20 / 21,3393510,2019-09-06 20:16:39:253,0.1266,-0.3795,9.0949,-0.0076,-0.0007,9.8066,-0.0835,0.0406,-0.0131,11.44,-36.87,7.44,104.87,-83.45,-150.91
69122,52.377186,-1.48878,129.94,24.37,4,275.0,20 / 21,3393610,2019-09-06 20:16:39:353,0.1261,0.4814,10.0775,0.0122,0.0039,9.8066,-0.0234,0.0389,-0.0418,11.06,-36.75,7.06,104.44,-83.56,-151.07
69123,52.377186,-1.48878,129.94,24.37,4,275.0,20 / 21,3393710,2019-09-06 20:16:39:453,-1.3066,-1.2092,10.2138,0.0155,-0.0011,9.8066,0.1875,0.0009,-0.0191,11.31,-37.06,7.13,104.11,-83.52,-151.53
69124,52.377186,-1.48878,129.94,24.37,4,275.0,20 / 21,3393810,2019-09-06 20:16:39:553,0.9341,-0.6323,10.2041,-0.005,0.0029,9.8066,0.1992,-0.0012,0.0049,11.25,-36.37,7.31,103.01,-83.42,-152.51
69125,52.377186,-1.48878,129.94,24.37,4,275.0,20 / 21,3393910,2019-09-06 20:16:39:653,0.7323,-0.7558,10.0582,-0.0101,0.0025,9.8066,-0.0718,-0.0211,-0.0233,11.5,-36.69,6.63,104.77,-83.29,-152.52
69126,52.377186,-1.48878,129.94,24.37,4,275.0,20 / 21,3394010,2019-09-06 20:16:39:753,0.1933,-0.9967,9.5076,0.0061,-0.0008,9.8066,0.058,-0.0367,0.0636,11.19,-37.12,7.19,104.24,-83.33,-151.95
69127,52.377186,-1.48878,129.94,24.37,4,275.0,20 / 21,3394110,2019-09-06 20:16:39:853,0.0283,-0.4423,9.2948,-0.007,-0.0027,9.8065,-0.1085,-0.0092,-0.0269,11.19,-36.94,6.38,108.95,-83.38,-151.21
69128,52.377186,-1.48878,129.94,24.37,4,275.0,20 / 21,3394210,2019-09-06 20:16:39:953,0.7199,0.2913,9.7277,-0.0011,-0.0082,9.8066,-0.075,0.038,-0.0068,11.0,-36.75,7.38,104.58,-83.5,-151.08
69129,52.377186,-1.48878,129.94,24.37,4,275.0,20 / 21,3394310,2019-09-06 20:16:40:053,-0.8042,-0.7888,9.9213,-0.0016,-0.004,9.8066,0.1831,0.0131,0.0176,11.38,-37.31,7.0,103.7,-83.46,-152.15
69130,52.377186,-1.48878,129.94,24.37,4,275.0,21 / 22,3394410,2019-09-06 20:16:40:153,0.2807,-0.5163,10.2184,0.023,0.008,9.8066,0.2364,0.006,0.0013,11.5,-36.44,6.88,104.22,-83.23,-152.77
69131,52.377186,-1.48878,129.94,24.37,4,275.0,21 / 22,3394510,2019-09-06 20:16:40:253,0.2796,0.7148,10.0892,0.0188,0.0028,9.8065,-0.029,0.0157,-0.0134,11.25,-36.81,7.25,103.69,-83.25,-152.79
69132,52.377186,-1.48878,129.94,24.37,4,275.0,21 / 22,3394609,2019-09-06 20:16:40:352,0.8989,-1.0815,10.1948,0.038,0.0067,9.8065,-0.1003,-0.0894,0.0294,11.69,-36.75,6.88,104.7,-83.4,-152.28
69133,52.377186,-1.48878,129.94,24.37,4,275.0,21 / 22,3394709,2019-09-06 20:16:40:452,0.6443,0.5571,8.7486,0.0049,0.0095,9.8066,-0.0526,-0.0044,0.0294,10.88,-36.87,6.88,104.2,-83.57,-151.28
69134,52.377186,-1.48878,129.94,24.37,4,275.0,21 / 22,3394809,2019-09-06 20:16:40:552,0.9137,-0.5816,9.8688,0.0385,0.0032,9.8065,-0.0162,0.0254,0.007,11.25,-36.94,6.94,104.19,-83.86,-150.48
69135,52.377186,-1.48878,129.94,24.37,4,275.0,21 / 22,3394910,2019-09-06 20:16:40:653,0.1847,-0.7501,10.7312,-0.0293,-0.0239,9.8065,0.145,0.0201,-0.0512,10.94,-36.56,6.69,102.59,-83.72,-152.61
69136,52.377186,-1.48878,129.94,24.37,4,275.0,21 / 22,3395010,2019-09-06 20:16:40:753,1.1852,-0.8411,11.469,-0.0515,-0.0229,9.8064,0.1058,-0.0274,0.0104,11.56,-36.69,7.81,98.39,-83.51,-154.63
69137,52.377186,-1.48878,129.94,24.37,4,275.0,21 / 22,3395110,2019-09-06 20:16:40:853,-0.482,-0.1552,10.2,-0.0011,0.0129,9.8066,0.0515,-0.0535,0.047,11.44,-36.69,7.81,96.87,-83.22,-155.77
69138,52.377186,-1.48878,129.94,24.37,4,275.0,21 / 22,3395210,2019-09-06 20:16:40:953,1.163,0.2718,8.518,0.0072,0.0195,9.8066,-0.0409,-0.0462,0.0164,11.38,-37.44,7.06,103.15,-83.17,-153.59
69139,52.377186,-1.48878,129.94,24.37,4,275.0,21 / 22,3395309,2019-09-06 20:16:41:052,1.8678,0.5288,8.3402,0.0537,0.0084,9.8065,-0.2377,-0.0032,-0.0189,11.38,-37.19,6.88,103.16,-83.7,-152.05
69140,52.377186,-1.48878,129.94,24.37,4,275.0,21 / 22,3395409,2019-09-06 20:16:41:152,-0.2153,-1.3499,9.2309,0.0362,-0.0045,9.8065,0.0491,0.0331,-0.0117,11.13,-36.94,6.88,101.91,-83.91,-152.77
69141,52.377186,-1.48878,129.94,24.37,4,275.0,21 / 22,3395510,2019-09-06 20:16:41:253,1.1318,-0.2495,9.2506,-0.0375,-0.006,9.8065,0.0891,-0.0443,0.0703,11.0,-36.81,6.75,102.02,-83.67,-153.36
69142,52.377186,-1.48878,129.94,24.37,4,275.0,21 / 22,3395609,2019-09-06 20:16:41:352,1.1408,0.1038,10.2708,-0.0536,-0.0168,9.8065,0.1359,-0.0201,-0.0184,11.38,-37.06,6.56,101.63,-83.51,-154.26
69143,52.377186,-1.48878,129.94,24.37,4,275.0,21 / 22,3395709,2019-09-06 20:16:41:452,-1.5314,-1.3533,9.6821,0.0047,0.0097,9.8066,0.0461,-0.0284,0.0466,11.44,-36.5,7.06,101.34,-83.37,-154.46
69144,52.377186,-1.48878,129.94,24.37,4,275.0,21 / 22,3395809,2019-09-06 20:16:41:552,1.6074,0.3697,9.1856,-0.0117,0.006,9.8066,-0.0486,-0.0299,0.0493,11.13,-36.81,7.06,102.95,-83.32,-153.37
69145,52.377186,-1.48878,129.94,24.37,4,275.0,21 / 22,3395910,2019-09-06 20:16:41:653,0.1418,0.0426,9.046,0.0429,0.006,9.8065,-0.1074,-0.0129,-0.0134,11.25,-37.06,6.63,103.77,-83.77,-151.17
69146,52.377186,-1.48878,129.94,24.37,4,275.0,21 / 22,3396009,2019-09-06 20:16:41:752,1.2056,-1.0283,10.5371,0.0286,-0.0025,9.8065,-0.0651,0.02,-0.027,11.44,-36.94,6.94,103.25,-83.96,-151.19
69147,52.377186,-1.48878,129.94,24.37,4,275.0,21 / 22,3396110,2019-09-06 20:16:41:853,1.9199,-0.3212,10.2264,-0.0319,-0.0051,9.8066,0.1031,0.0145,0.047,11.5,-36.94,6.81,104.27,-83.6,-152.21
69148,52.377186,-1.48878,129.94,24.37,4,275.0,21 / 22,3396210,2019-09-06 20:16:41:953,0.2244,-0.2458,10.4175,-0.0484,-0.0153,9.8065,0.0971,-0.0521,-0.0092,10.88,-36.56,7.31,103.13,-83.3,-153.24
69149,52.377186,-1.48878,129.94,24.37,4,275.0,21 / 22,3396310,2019-09-06 20:16:42:053,0.541,0.0982,9.6282,0.0203,0.0058,9.8066,-0.0268,0.0108,0.0273,11.31,-36.81,6.94,102.69,-83.22,-153.97
69150,52.377186,-1.48878,129.94,24.37,4,275.0,20 / 21,3396409,2019-09-06 20:16:42:152,0.2423,0.2616,9.6777,0.0319,0.0121,9.8066,-0.0447,-0.0556,0.0656,11.25,-36.62,7.38,103.11,-83.47,-152.76
69151,52.377186,-1.48878,129.94,24.37,4,275.0,20 / 21,3396510,2019-09-06 20:16:42:253,0.2845,0.0535,9.2682,0.0118,0.0106,9.8066,-0.0215,-0.0095,0.0183,11.31,-36.94,6.81,103.66,-83.69,-151.55
69152,52.377186,-1.48878,129.94,24.37,4,275.0,20 / 21,3396610,2019-09-06 20:16:42:353,1.5277,0.5038,11.381,-0.0094,0.002,9.8066,0.1089,0.047,-0.0186,11.75,-36.81,7.06,105.34,-83.66,-150.88
69153,52.377186,-1.48878,129.94,24.37,4,275.0,20 / 21,3396710,2019-09-06 20:16:42:453,-0.3822,-0.8116,11.2116,-0.0326,-0.0412,9.8064,0.083,-0.002,-0.0974,11.25,-36.5,7.75,97.84,-83.5,-153.46
69154,52.377186,-1.48878,129.94,24.37,4,275.0,20 / 21,3396809,2019-09-06 20:16:42:552,0.2524,-0.8465,10.1852,-0.0127,-0.0107,9.8066,0.0369,0.0105,0.0085,11.13,-36.87,7.19,99.63,-83.22,-157.26
69155,52.377186,-1.48878,129.94,24.37,4,275.0,20 / 21,3396910,2019-09-06 20:16:42:653,-0.5497,-0.632,9.7504,-0.0119,0.0089,9.8066,0.044,0.0217,0.0205,11.38,-37.44,7.19,101.87,-83.1,-155.21
69156,52.377186,-1.48878,129.94,24.37,4,275.0,20 / 21,3397009,2019-09-06 20:16:42:752,-0.0362,-0.8844,9.299,-0.0225,0.0013,9.8065,-0.2688,0.0056,-0.0133,11.13,-36.62,7.38,103.12,-83.2,-153.57
69157,52.377186,-1.48878,129.94,24.37,4,275.0,20 / 21,3397110,2019-09-06 20:16:42:853,0.1689,-0.2369,9.3509,0.0182,0.0017,9.8066,-0.0609,-0.0315,-0.0115,11.38,-36.56,7.31,103.71,-83.39,-152.35
69158,52.377186,-1.48878,129.94,24.37,4,275.0,20 / 21,3397209,2019-09-06 20:16:42:952,-0.0614,-0.5091,9.3588,0.005,-0.0072,9.8066,0.0629,0.0467,-0.0597,11.44,-36.69,7.44,102.78,-83.42,-153.29
69159,52.377186,-1.48878,129.94,24.37,4,275.0,20 / 21,3397310,2019-09-06 20:16:43:053,0.9792,-0.3046,10.3221,-0.0116,-0.0134,9.8066,0.0061,0.0178,-0.0118,11.13,-37.0,6.81,101.89,-83.35,-154.44
69160,52.377186,-1.48878,129.94,24.37,4,275.0,21 / 22,3397409,2019-09-06 20:16:43:152,1.001,-0.0729,10.7058,0.0057,-0.0017,9.8065,0.0705,-0.0411,0.0041,10.94,-36.75,7.31,101.21,-83.26,-155.44
69161,52.377186,-1.48878,129.94,24.37,4,275.0,21 / 22,3397510,2019-09-06 20:16:43:253,0.2367,-1.0822,10.3401,0.0109,0.0004,9.8066,0.0827,-0.0656,0.0136,11.0,-36.87,7.31,100.88,-83.11,-156.23
69162,52.377186,-1.48878,129.94,24.37,4,275.0,21 / 22,3397609,2019-09-06 20:16:43:352,0.6948,-0.5483,9.5875,-0.0121,-0.0035,9.8066,-0.0468,-0.015,-0.0293,11.38,-37.12,7.25,100.9,-83.11,-156.23
69163,52.377186,-1.48878,129.94,24.37,4,275.0,21 / 22,3397710,2019-09-06 20:16:43:453,-0.3268,0.309,9.3878,0.0154,0.0076,9.8066,-0.0633,0.0469,0.0192,10.81,-37.0,7.56,97.18,-83.26,-155.34
69164,52.377186,-1.48878,129.94,24.37,4,275.0,21 / 22,3397810,2019-09-06 20:16:43:553,-0.3996,-0.4493,10.0205,0.0082,0.0011,9.8066,0.1121,0.0019,-0.0062,11.13,-36.94,7.31,101.84,-83.34,-154.51
69165,52.377186,-1.48878,129.94,24.37,4,275.0,21 / 22,3397909,2019-09-06 20:16:43:652,1.6566,-0.2727,10.1967,-0.0163,-0.0116,9.8066,0.07,-0.0128,0.0106,11.25,-37.12,7.13,100.81,-83.21,-156.03
69166,52.377186,-1.48878,129.94,24.37,4,275.0,21 / 22,3398009,2019-09-06 20:16:43:752,0.6661,-0.4744,10.2187,-0.0048,-0.0037,9.8066,-0.0776,0.0035,-0.0161,11.13,-36.94,7.81,95.36,-83.02,-157.95
69167,52.377186,-1.48878,129.94,24.37,4,275.0,21 / 22,3398110,2019-09-06 20:16:43:853,-0.395,-0.7322,9.3135,0.008,0.0158,9.8066,-0.067,-0.0714,0.0731,11.69,-36.44,7.69,96.75,-82.9,-157.5
69168,52.377186,-1.48878,129.94,24.37,4,275.0,21 / 22,3398210,2019-09-06 20:16:43:953,0.2599,0.2879,9.5407,0.0082,0.015,9.8065,-0.0025,-0.003,0.0451,11.0,-36.94,7.06,102.52,-82.95,-154.93
69169,52.377186,-1.48878,129.94,24.37,4,275.0,21 / 22,3398309,2019-09-06 20:16:44:052,1.727,1.115,10.3013,0.0013,-0.0092,9.8066,0.0788,0.0414,-0.0761,11.31,-37.06,7.06,103.03,-83.11,-153.91
69170,52.37733,-1.492026,128.25,24.07,4,274.07,20 / 21,3398410,2019-09-06 20:16:44:153,-0.4497,-0.3611,10.3363,0.0029,-0.0153,9.8066,0.0733,-0.0347,-0.0532,11.63,-37.25,7.5,97.54,-83.15,-156.52
69171,52.37733,-1.492026,128.25,24.07,4,274.07,20 / 21,3398509,2019-09-06 20:16:44:252,-0.2428,-0.838,10.0401,0.0063,-0.0045,9.8066,-0.08,-0.0255,0.0183,11.69,-37.0,7.44,100.33,-83.0,-158.11
69172,52.37733,-1.492026,128.25,24.07,4,274.07,20 / 21,3398610,2019-09-06 20:16:44:353,1.5075,0.0504,9.2732,0.0093,-0.0003,9.8066,-0.0905,-0.0111,-0.0009,11.31,-37.12,7.31,98.8,-83.0,-158.79
69173,52.37733,-1.492026,128.25,24.07,4,274.07,20 / 21,3398710,2019-09-06 20:16:44:453,0.0261,-0.7766,10.7982,0.0234,0.0084,9.8065,0.0309,0.0093,-0.0419,11.25,-36.56,7.75,94.61,-83.17,-158.28
69174,52.37733,-1.492026,128.25,24.07,4,274.07,20 / 21,3398810,2019-09-06 20:16:44:553,-0.8687,-0.9726,10.0328,-0.0216,-0.0046,9.8066,0.0812,-0.0186,0.0594,11.31,-36.87,7.38,99.66,-82.89,-158.23
69175,52.37733,-1.492026,128.25,24.07,4,274.07,20 / 21,3398910,2019-09-06 20:16:44:653,0.666,0.4468,10.0227,-0.0289,-0.0088,9.8066,0.104,-0.0018,-0.0215,11.38,-36.56,7.63,95.41,-82.74,-158.71
69176,52.37733,-1.492026,128.25,24.07,4,274.07,20 / 21,3399010,2019-09-06 20:16:44:753,0.4161,-0.1975,9.3565,0.014,0.0033,9.8066,0.0627,-0.0387,0.0481,11.69,-36.87,8.0,97.15,-82.82,-157.8
69177,52.37733,-1.492026,128.25,24.07,4,274.07,20 / 21,3399109,2019-09-06 20:16:44:852,0.0375,-1.1632,8.7483,0.0207,0.0059,9.8066,-0.1205,-0.0205,-0.0096,11.5,-36.94,7.56,96.97,-83.03,-157.41
69178,52.37733,-1.492026,128.25,24.07,4,274.07,20 / 21,3399209,2019-09-06 20:16:44:952,0.5589,0.5094,9.6899,0.0108,-0.0037,9.8066,-0.006,-0.0614,0.0072,11.81,-37.0,8.0,96.86,-83.1,-157.36
69179,52.37733,-1.492026,128.25,24.07,4,274.07,20 / 21,3399310,2019-09-06 20:16:45:053,1.1982,-0.2194,10.3786,-0.0085,-0.0116,9.8066,0.0795,0.0321,-0.0282,10.75,-36.62,8.06,94.41,-83.12,-158.64
69180,52.37733,-1.492026,128.25,24.07,4,274.07,21 / 22,3399411,2019-09-06 20:16:45:154,0.4361,-0.1112,10.0686,-0.0159,-0.0138,9.8066,0.0357,0.0394,-0.0482,11.19,-36.56,8.0,93.4,-82.91,-160.29
69181,52.37733,-1.492026,128.25,24.07,4,274.07,21 / 22,3399509,2019-09-06 20:16:45:252,0.7571,0.4806,10.1643,-0.02,0.0,9.8066,0.0403,-0.0365,0.0678,11.13,-37.0,7.88,93.64,-82.74,-160.55
69182,52.37733,-1.492026,128.25,24.07,4,274.07,21 / 22,3399609,2019-09-06 20:16:45:352,-0.467,0.4095,10.4565,0.009,0.0119,9.8066,-0.0056,-0.0226,0.0096,11.19,-36.94,7.81,94.4,-82.78,-159.62
69183,52.37733,-1.492026,128.25,24.07,4,274.07,21 / 22,3399710,2019-09-06 20:16:45:453,0.6821,0.5969,9.9701,0.0105,0.0098,9.8065,-0.0249,0.0174,-0.0064,11.44,-37.06,8.19,95.04,-82.79,-158.95
69184,52.37733,-1.492026,128.25,24.07,4,274.07,21 / 22,3399810,2019-09-06 20:16:45:553,0.3404,0.5114,9.4768,-0.0061,0.004,9.8066,-0.0044,-0.0142,0.0132,11.31,-36.5,7.69,94.99,-82.76,-158.52
69185,52.37733,-1.492026,128.25,24.07,4,274.07,21 / 22,3399910,2019-09-06 20:16:45:653,0.3381,0.4635,10.0058,-0.0131,-0.0058,9.8065,-0.0337,-0.0109,-0.0445,11.25,-36.69,8.13,96.22,-82.66,-158.1
69186,52.37733,-1.492026,128.25,24.07,4,274.07,21 / 22,3400009,2019-09-06 20:16:45:752,0.0546,0.3234,10.4012,-0.0077,-0.01,9.8066,0.0699,-0.0208,0.0098,11.13,-37.25,8.38,96.16,-82.6,-158.31
69187,52.37733,-1.492026,128.25,24.07,4,274.07,21 / 22,3400110,2019-09-06 20:16:45:853,-0.4815,-0.2909,9.9755,-0.0229,-0.0143,9.8065,0.0285,-0.0071,-0.0695,11.38,-37.06,8.06,94.94,-82.71,-159.29
69188,52.37733,-1.492026,128.25,24.07,4,274.07,21 / 22,3400209,2019-09-06 20:16:45:952,0.3032,0.8156,10.3016,0.0168,0.0089,9.8066,-0.0616,-0.015,0.0186,10.94,-37.06,8.06,94.86,-82.74,-159.26
69189,52.37733,-1.492026,128.25,24.07,4,274.07,21 / 22,3400310,2019-09-06 20:16:46:053,0.393,0.611,11.4647,0.0104,-0.0016,9.8066,0.131,-0.0627,0.0509,10.88,-36.75,8.38,94.52,-82.67,-159.84
69190,52.37733,-1.492026,128.25,24.07,4,274.07,21 / 22,3400410,2019-09-06 20:16:46:153,-0.5286,0.0527,9.0237,-0.0765,-0.025,9.8063,0.2459,-0.0701,0.0045,11.0,-36.75,8.13,93.7,-82.66,-160.71
69191,52.37733,-1.492026,128.25,24.07,4,274.07,21 / 22,3400510,2019-09-06 20:16:46:253,1.4413,1.6119,9.127,0.0605,0.0242,9.8063,-0.1606,-0.0797,0.0949,11.5,-36.62,7.81,94.9,-82.27,-161.67
69192,52.37733,-1.492026,128.25,24.07,4,274.07,21 / 22,3400609,2019-09-06 20:16:46:352,0.1526,0.7244,8.8585,0.0683,0.0038,9.8064,-0.2955,0.0588,-0.0783,11.0,-37.0,7.94,93.23,-82.89,-160.52
69193,52.37733,-1.492026,128.25,24.07,4,274.07,21 / 22,3400710,2019-09-06 20:16:46:453,-0.3726,0.1234,10.2863,-0.0426,-0.0152,9.8065,0.1366,0.0089,0.0588,11.81,-36.69,7.25,98.8,-82.94,-159.9
69194,52.37733,-1.492026,128.25,24.07,4,274.07,21 / 22,3400810,2019-09-06 20:16:46:553,0.8743,0.0776,10.6882,-0.0258,-0.0242,9.8065,0.1193,-0.0242,-0.049,10.94,-36.69,7.56,92.16,-82.66,-162.3
69195,52.37733,-1.492026,128.25,24.07,4,274.07,21 / 22,3400910,2019-09-06 20:16:46:653,-0.0091,-0.2875,10.7717,-0.0031,-0.0023,9.8066,-0.0076,0.0121,-0.0194,11.69,-36.37,8.0,91.93,-82.43,-163.72
69196,52.37733,-1.492026,128.25,24.07,4,274.07,21 / 22,3401010,2019-09-06 20:16:46:753,1.4018,-1.0322,10.0056,-0.0063,0.0161,9.8066,-0.013,-0.038,0.0294,11.44,-36.37,8.44,91.13,-82.2,-164.08
69197,52.37733,-1.492026,128.25,24.07,4,274.07,21 / 22,3401110,2019-09-06 20:16:46:853,-0.4839,0.0555,9.2262,0.0023,0.0208,9.8066,-0.0362,-0.015,0.0235,11.06,-37.0,7.75,93.88,-82.19,-161.9
69198,52.37733,-1.492026,128.25,24.07,4,274.07,21 / 22,3401210,2019-09-06 20:16:46:953,0.2463,0.8751,8.8515,0.033,0.0041,9.8066,0.0491,0.0461,-0.0505,11.44,-36.19,7.56,93.73,-82.56,-160.39
69199,52.37733,-1.492026,128.25,24.07,4,274.07,21 / 22,3401311,2019-09-06 20:16:47:054,0.4967,0.4209,10.1398,0.0254,-0.0124,9.8065,0.044,0.008,-0.0881,11.31,-36.0,6.81,96.72,-82.73,-161.21
69200,52.37733,-1.492026,128.25,24.07,4,274.07,20 / 21,3401409,2019-09-06 20:16:47:152,-0.3036,-0.8258,10.2513,-0.0562,-0.0143,9.8065,0.0823,-0.0325,0.0431,11.75,-36.25,8.19,91.91,-82.45,-163.68
69201,52.37733,-1.492026,128.25,24.07,4,274.07,20 / 21,3401510,2019-09-06 20:16:47:253,0.7961,-0.0855,10.0576,-0.0504,-0.0136,9.8065,-0.0609,-0.0406,-0.0256,11.38,-35.44,7.94,90.76,-82.25,-163.71
69202,52.37733,-1.492026,128.25,24.07,4,274.07,20 / 21,3401610,2019-09-06 20:16:47:353,-0.3675,0.6452,10.0637,0.0255,-0.0004,9.8066,-0.0631,0.0317,-0.0612,11.5,-35.75,7.94,91.89,-82.12,-164.61
69203,52.37733,-1.492026,128.25,24.07,4,274.07,20 / 21,3401710,2019-09-06 20:16:47:453,0.3611,0.0101,9.5738,-0.0008,0.0041,9.8066,-0.0872,0.0244,-0.0213,11.75,-35.87,7.31,95.88,-82.32,-164.15
69204,52.37733,-1.492026,128.25,24.07,4,274.07,20 / 21,3401810,2019-09-06 20:16:47:553,0.5246,0.0539,10.5687,-0.0289,-0.0222,9.8066,-0.0623,0.0313,-0.0346,12.0,-36.0,6.63,94.4,-82.47,-165.27
69205,52.37733,-1.492026,128.25,24.07,4,274.07,20 / 21,3401910,2019-09-06 20:16:47:653,0.0719,-0.3369,10.9732,-0.0078,-0.0174,9.8066,0.1129,-0.0317,-0.0216,12.19,-35.19,7.25,92.27,-82.57,-166.63
69206,52.37733,-1.492026,128.25,24.07,4,274.07,20 / 21,3402010,2019-09-06 20:16:47:753,-1.279,-0.2454,9.3977,-0.0107,-0.0061,9.8066,-0.1017,0.0478,-0.0086,13.19,-35.44,6.44,96.83,-82.23,-167.67
69207,52.37733,-1.492026,128.25,24.07,4,274.07,20 / 21,3402109,2019-09-06 20:16:47:852,1.3492,-0.6969,8.9499,-0.036,0.0155,9.8065,-0.4118,0.0727,-0.0585,13.06,-34.19,5.38,101.46,-82.04,-166.93
69208,52.37733,-1.492026,128.25,24.07,4,274.07,20 / 21,3402209,2019-09-06 20:16:47:952,-1.1508,0.8203,9.3673,0.1126,-0.0098,9.8059,0.2568,-0.0506,0.0425,14.13,-36.0,3.06,109.45,-82.18,-167.28
69209,52.37733,-1.492026,128.25,24.07,4,274.07,20 / 21,3402310,2019-09-06 20:16:48:053,0.3247,-0.6011,9.4667,0.086,-0.0174,9.8062,0.0381,-0.0135,-0.0151,15.88,-40.56,5.0,103.99,-82.98,-165.52
69210,52.37733,-1.492026,128.25,24.07,4,274.07,20 / 21,3402410,2019-09-06 20:16:48:153,-0.7223,-0.7087,10.2605,-0.0322,-0.0083,9.8066,-0.0367,0.0247,-0.001,14.88,-37.44,8.56,88.58,-82.77,-166.03
69211,52.37733,-1.492026,128.25,24.07,4,274.07,20 / 21,3402509,2019-09-06 20:16:48:252,0.7533,-0.9118,10.6869,-0.0303,-0.0168,9.8066,0.0257,0.0892,-0.0123,12.13,-31.5,7.31,89.75,-82.62,-166.8
69212,52.37733,-1.492026,128.25,24.07,4,274.07,20 / 21,3402610,2019-09-06 20:16:48:353,-0.5952,0.9851,10.389,0.0212,-0.007,9.8066,0.1985,-0.0727,0.0704,11.63,-34.06,0.75,116.73,-82.51,-167.62
69213,52.37733,-1.492026,128.25,24.07,4,274.07,20 / 21,3402710,2019-09-06 20:16:48:453,0.5849,0.1326,9.8809,-0.0102,0.0044,9.8066,0.0723,0.0503,-0.0133,11.81,-43.44,-0.87,127.98,-82.67,-167.7
69214,52.37733,-1.492026,128.25,24.07,4,274.07,20 / 21,3402810,2019-09-06 20:16:48:553,-0.0344,-1.7271,10.0455,-0.0118,0.0116,9.8066,-0.0578,-0.0679,0.0881,8.06,-45.44,5.75,100.52,-82.61,-167.54
69215,52.37733,-1.492026,128.25,24.07,4,274.07,20 / 21,3402909,2019-09-06 20:16:48:652,-0.4558,0.7916,9.375,-0.0272,0.002,9.8065,-0.0318,0.0344,0.0164,5.06,-45.19,10.25,70.42,-82.56,-165.95
69216,52.37733,-1.492026,128.25,24.07,4,274.07,20 / 21,3403010,2019-09-06 20:16:48:753,0.9697,-0.2292,9.5756,-0.0145,-0.0065,9.8066,-0.0696,-0.0731,-0.0393,8.38,-40.06,14.25,60.97,-82.63,-165.25
69217,52.37733,-1.492026,128.25,24.07,4,274.07,20 / 21,3403109,2019-09-06 20:16:48:852,0.259,-1.4898,9.2769,0.0125,-0.0158,9.8065,-0.0202,-0.0386,0.0647,9.88,-37.31,13.5,63.78,-82.77,-166.08
69218,52.37733,-1.492026,128.25,24.07,4,274.07,20 / 21,3403210,2019-09-06 20:16:48:953,2.7107,2.3759,10.0454,0.0195,0.0261,9.8065,0.0619,-0.0481,0.087,10.13,-36.87,12.38,68.6,-82.76,-167.62
69219,52.37733,-1.492026,128.25,24.07,4,274.07,20 / 21,3403310,2019-09-06 20:16:49:053,0.5314,0.3547,9.8625,0.0211,0.0074,9.8066,-0.1542,0.1046,0.0246,11.06,-35.56,12.44,72.2,-82.56,-166.4
69220,52.37733,-1.492026,128.25,24.07,4,274.07,21 / 22,3403409,2019-09-06 20:16:49:152,1.2788,1.1876,9.796,0.0539,0.042,9.8064,0.2073,-0.1081,0.1072,10.94,-35.19,11.56,71.28,-82.81,-166.24
69221,52.37733,-1.492026,128.25,24.07,4,274.07,21 / 22,3403510,2019-09-06 20:16:49:253,-3.2822,0.0872,9.868,0.1088,0.0326,9.806,-0.3338,0.2366,-0.209,11.88,-34.87,10.06,79.34,-82.88,-166.9
69222,52.37733,-1.492026,128.25,24.07,4,274.07,21 / 22,3403609,2019-09-06 20:16:49:352,0.7735,-0.2931,8.6883,0.0389,0.0085,9.8065,0.1415,-0.1563,0.1854,12.13,-35.06,9.81,73.27,-83.2,-171.87
69223,52.37733,-1.492026,128.25,24.07,4,274.07,21 / 22,3403710,2019-09-06 20:16:49:453,1.365,-0.9164,10.4493,0.0077,0.0254,9.8066,-0.023,-0.0334,0.0986,11.81,-35.19,8.44,84.66,-83.07,-168.78
69224,52.37733,-1.492026,128.25,24.07,4,274.07,21 / 22,3403810,2019-09-06 20:16:49:553,0.3375,-1.0178,10.0939,-0.0322,-0.0078,9.8065,0.0822,0.1078,-0.0268,11.94,-35.56,8.75,81.61,-83.01,-168.51
69225,52.37733,-1.492026,128.25,24.07,4,274.07,21 / 22,3403910,2019-09-06 20:16:49:653,0.097,-0.9671,9.3808,-0.005,-0.0083,9.8066,-0.0094,0.0242,-0.0619,11.88,-36.0,8.81,81.38,-82.76,-169.35
69226,52.37733,-1.492026,128.25,24.07,4,274.07,21 / 22,3404009,2019-09-06 20:16:49:752,0.8017,0.355,9.8527,0.0014,0.0004,9.8065,-0.0749,-0.1639,0.1475,11.63,-35.69,8.13,86.97,-82.73,-167.91
69227,52.37733,-1.492026,128.25,24.07,4,274.07,21 / 22,3404110,2019-09-06 20:16:49:853,-0.5368,-0.3035,10.278,-0.0193,0.0205,9.8066,-0.0325,0.0489,0.0245,11.38,-35.75,8.69,83.61,-82.7,-165.97
69228,52.37733,-1.492026,128.25,24.07,4,274.07,21 / 22,3404210,2019-09-06 20:16:49:953,0.5635,0.8046,9.5672,-0.0008,0.0007,9.8066,0.0361,0.0115,0.1824,11.31,-35.94,8.13,88.28,-82.68,-165.59
69229,52.37733,-1.492026,128.25,24.07,4,274.07,21 / 22,3404310,2019-09-06 20:16:50:053,-0.9336,-0.0276,9.2617,-0.0062,0.0145,9.8065,-0.0789,-0.0283,-0.0539,11.56,-36.12,8.25,90.8,-82.68,-164.19
69230,52.37733,-1.492026,128.25,24.07,4,274.07,21 / 23,3404409,2019-09-06 20:16:50:152,-0.0117,-0.0264,10.3099,0.0127,-0.0044,9.8066,0.0569,0.0121,-0.006,11.38,-36.37,9.13,86.16,-82.63,-163.65
69231,52.37733,-1.492026,128.25,24.07,4,274.07,21 / 23,3404510,2019-09-06 20:16:50:253,0.3782,-0.3895,10.0147,0.0136,-0.0085,9.8065,0.0028,-0.0009,0.0265,11.63,-35.56,8.25,89.75,-82.71,-165.2
69232,52.37733,-1.492026,128.25,24.07,4,274.07,21 / 23,3404610,2019-09-06 20:16:50:353,-0.3699,0.0545,9.7804,-0.0095,-0.0019,9.8066,-0.1014,0.018,0.0031,10.88,-36.44,7.88,88.51,-82.63,-165.5
69233,52.37733,-1.492026,128.25,24.07,4,274.07,21 / 23,3404710,2019-09-06 20:16:50:453,0.2281,-0.9243,9.8151,0.0135,0.0059,9.8066,0.0483,-0.0172,0.014,11.63,-36.5,8.13,88.52,-82.69,-166.46
69234,52.37733,-1.492026,128.25,24.07,4,274.07,21 / 23,3404809,2019-09-06 20:16:50:552,0.6444,-0.6597,10.5583,-0.0163,0.0027,9.8066,0.1093,0.0491,0.0315,11.75,-36.69,7.88,90.06,-82.62,-165.67
69235,52.37733,-1.492026,128.25,24.07,4,274.07,21 / 23,3404910,2019-09-06 20:16:50:653,-0.7328,-0.8202,10.1677,0.0143,0.0154,9.8066,-0.0439,0.1121,0.0183,12.25,-36.25,8.06,90.14,-82.75,-164.69
69236,52.37733,-1.492026,128.25,24.07,4,274.07,21 / 23,3405009,2019-09-06 20:16:50:752,0.3671,1.2245,9.505,-0.0515,-0.0061,9.8064,0.0766,0.1061,-0.0633,11.81,-36.44,8.13,90.07,-82.87,-164.43
69237,52.37733,-1.492026,128.25,24.07,4,274.07,21 / 23,3405109,2019-09-06 20:16:50:852,1.6157,-0.2985,8.1824,-0.0743,-0.006,9.8063,0.1671,-0.196,0.1397,11.63,-36.44,7.69,92.67,-82.54,-162.67
69238,52.37733,-1.492026,128.25,24.07,4,274.07,21 / 23,3405210,2019-09-06 20:16:50:953,1.0022,-1.6412,8.8628,0.0489,0.0246,9.8065,-0.1921,0.1012,-0.0751,11.5,-36.37,8.13,92.16,-82.95,-162.1
69239,52.37733,-1.492026,128.25,24.07,4,274.07,21 / 23,3405310,2019-09-06 20:16:51:053,-1.1082,-0.7769,10.6097,-0.0171,-0.0159,9.8065,0.2242,-0.0607,0.1472,11.25,-36.25,7.81,90.33,-82.82,-163.13
69240,52.37733,-1.492026,128.25,24.07,4,274.07,21 / 22,3405409,2019-09-06 20:16:51:152,-0.4568,-0.9077,10.7619,-0.0372,0.0211,9.8065,0.1237,-0.0109,-0.0213,11.44,-36.69,8.25,90.88,-82.73,-163.39
69241,52.37733,-1.492026,128.25,24.07,4,274.07,21 / 22,3405510,2019-09-06 20:16:51:253,0.0827,-0.9282,10.8216,-0.0276,0.0029,9.8065,-0.0789,-0.0135,0.0755,11.25,-36.19,8.5,89.25,-82.28,-161.56
69242,52.37733,-1.492026,128.25,24.07,4,274.07,21 / 22,3405610,2019-09-06 20:16:51:353,1.0038,-0.2585,8.7041,-0.0099,-0.006,9.8066,-0.0322,-0.0119,-0.0561,11.38,-36.75,7.94,93.12,-82.36,-162.2
69243,52.37733,-1.492026,128.25,24.07,4,274.07,21 / 22,3405709,2019-09-06 20:16:51:452,1.2009,0.2494,9.5335,-0.0411,-0.008,9.8065,0.1013,-0.044,0.0165,11.5,-37.12,7.44,98.47,-82.37,-161.87
69244,52.37733,-1.492026,128.25,24.07,4,274.07,21 / 22,3405810,2019-09-06 20:16:51:553,1.2668,-0.2436,9.9041,0.0351,0.018,9.8065,-0.1106,0.0225,0.0213,11.13,-36.5,8.06,92.93,-82.57,-161.19
69245,52.37733,-1.492026,128.25,24.07,4,274.07,21 / 22,3405910,2019-09-06 20:16:51:653,-0.3334,-0.4363,10.5074,0.0359,0.0046,9.8065,0.1278,0.0351,0.02,11.38,-36.69,8.44,93.61,-82.4,-161.57
69246,52.37733,-1.492026,128.25,24.07,4,274.07,21 / 22,3406010,2019-09-06 20:16:51:753,-0.4986,0.1848,9.9951,0.0027,-0.008,9.8066,0.0378,0.0344,-0.0806,11.31,-36.37,8.06,92.44,-82.24,-162.63
69247,52.37733,-1.492026,128.25,24.07,4,274.07,21 / 22,3406110,2019-09-06 20:16:51:853,1.5035,-0.0005,10.4047,-0.0042,-0.0006,9.8066,0.0921,0.0073,0.0499,11.25,-36.06,8.0,92.13,-82.26,-162.88
69248,52.37733,-1.492026,128.25,24.07,4,274.07,21 / 22,3406209,2019-09-06 20:16:51:952,0.9141,-0.3405,9.5922,-0.0003,-0.0096,9.8066,0.0337,-0.0151,-0.0776,11.0,-36.25,8.63,86.94,-82.29,-163.82
69249,52.37733,-1.492026,128.25,24.07,4,274.07,21 / 22,3406310,2019-09-06 20:16:52:053,0.2548,0.5158,10.0781,0.0047,0.0088,9.8066,-0.0313,0.0346,-0.0495,11.44,-36.31,8.63,87.14,-82.32,-163.53
69250,52.37733,-1.492026,128.25,24.07,4,274.07,21 / 22,3406409,2019-09-06 20:16:52:152,-0.5796,-0.5112,9.7174,0.0118,-0.0044,9.8066,-0.0385,0.0319,-0.0109,11.75,-36.37,8.88,88.12,-82.3,-163.96
69251,52.37733,-1.492026,128.25,24.07,4,274.07,21 / 22,3406509,2019-09-06 20:16:52:252,-0.5014,0.29,10.1705,0.009,-0.0004,9.8066,0.0963,-0.0147,0.0295,11.63,-36.25,8.63,88.02,-82.28,-164.1
69252,52.37733,-1.492026,128.25,24.07,4,274.07,21 / 22,3406609,2019-09-06 20:16:52:352,0.4483,0.0421,10.1943,0.0081,-0.0022,9.8066,-0.025,0.0373,-0.0269,11.19,-36.37,8.31,91.08,-82.19,-164.17
69253,52.37733,-1.492026,128.25,24.07,4,274.07,21 / 22,3406710,2019-09-06 20:16:52:453,0.1894,-0.1538,10.4989,0.0088,0.0038,9.8066,0.0132,0.0093,0.0192,12.0,-36.19,9.31,87.97,-82.13,-164.53
69254,52.37733,-1.492026,128.25,24.07,4,274.07,21 / 22,3406810,2019-09-06 20:16:52:553,0.0468,0.3007,9.956,0.0098,-0.0058,9.8066,-0.029,0.031,-0.0515,12.25,-36.37,8.94,87.22,-82.16,-165.22
69255,52.37733,-1.492026,128.25,24.07,4,274.07,21 / 22,3406910,2019-09-06 20:16:52:653,-0.9473,0.2251,10.0334,0.0115,0.0169,9.8066,0.0834,-0.0266,0.0835,11.25,-36.69,8.75,86.99,-82.24,-164.49
69256,52.37733,-1.492026,128.25,24.07,4,274.07,21 / 22,3407010,2019-09-06 20:16:52:753,0.5632,-0.2746,9.6204,-0.0225,-0.0056,9.8065,0.1001,-0.0005,-0.0272,11.56,-36.25,8.69,89.02,-82.23,-163.22
69257,52.37733,-1.492026,128.25,24.07,4,274.07,21 / 22,3407110,2019-09-06 20:16:52:853,0.885,-0.0943,9.2923,0.0344,0.0036,9.8065,-0.073,-0.012,-0.0146,11.38,-36.19,8.19,91.57,-81.85,-164.66
69258,52.37733,-1.492026,128.25,24.07,4,274.07,21 / 22,3407210,2019-09-06 20:16:52:953,0.5521,0.144,10.9201,-0.0002,0.003,9.8066,-0.0019,0.0445,-0.001,11.44,-36.44,9.13,87.13,-81.77,-165.09
69259,52.37733,-1.492026,128.25,24.07,4,274.07,21 / 22,3407309,2019-09-06 20:16:53:052,-0.2086,-0.4469,10.3817,-0.0103,0.0267,9.8066,0.0726,-0.0106,0.1508,11.06,-36.75,9.38,89.42,-81.59,-163.94
69260,52.37749,-1.495141,126.3,23.57,4,274.6,21 / 23,3407410,2019-09-06 20:16:53:153,-0.862,0.2797,9.9329,-0.0048,0.0014,9.8066,0.0151,-0.0035,0.0012,11.13,-36.69,9.56,88.07,-81.44,-161.67
69261,52.37749,-1.495141,126.3,23.57,4,274.6,21 / 23,3407509,2019-09-06 20:16:53:252,0.5175,0.6918,9.2444,0.0276,-0.0027,9.8065,-0.0705,-0.006,-0.052,11.19,-37.12,8.88,92.53,-81.59,-160.77
69262,52.37749,-1.495141,126.3,23.57,4,274.6,21 / 23,3407609,2019-09-06 20:16:53:352,-0.4095,-0.8157,8.8002,0.0133,-0.0032,9.8066,-0.101,-0.0212,-0.0096,11.13,-37.19,8.56,91.16,-81.83,-161.48
69263,52.37749,-1.495141,126.3,23.57,4,274.6,21 / 23,3407709,2019-09-06 20:16:53:452,0.8252,0.1203,9.0546,-0.0169,-0.0104,9.8066,-0.1073,0.0243,-0.0478,10.5,-36.69,8.38,94.61,-81.83,-162.24
69264,52.37749,-1.495141,126.3,23.57,4,274.6,21 / 23,3407810,2019-09-06 20:16:53:553,0.7238,-0.3124,10.8797,0.0495,-0.0123,9.8064,0.0015,0.0428,-0.0526,9.88,-36.12,9.13,85.37,-81.94,-164.87
69265,52.37749,-1.495141,126.3,23.57,4,274.6,21 / 23,3407909,2019-09-06 20:16:53:652,-0.1345,-0.5983,10.7014,-0.0049,-0.0123,9.8066,-0.007,-0.0001,0.0224,9.81,-35.81,8.56,84.38,-81.53,-167.05
69266,52.37749,-1.495141,126.3,23.57,4,274.6,21 / 23,3408009,2019-09-06 20:16:53:752,0.237,-1.0882,9.7975,-0.0107,0.0028,9.8066,-0.1342,-0.1148,0.0784,10.06,-36.5,8.25,89.18,-81.57,-166.79
69267,52.37749,-1.495141,126.3,23.57,4,274.6,21 / 23,3408110,2019-09-06 20:16:53:853,1.4209,-0.5548,9.7465,0.0229,0.006,9.8065,-0.0379,0.0226,0.0223,10.75,-36.12,8.63,86.58,-81.68,-165.86
69268,52.37749,-1.495141,126.3,23.57,4,274.6,21 / 23,3408211,2019-09-06 20:16:53:954,-0.1538,0.2859,9.3546,-0.0157,-0.0099,9.8066,0.0341,0.0904,0.0162,11.0,-36.37,8.19,90.69,-81.74,-165.88
69269,52.37749,-1.495141,126.3,23.57,4,274.6,21 / 23,3408309,2019-09-06 20:16:54:052,0.9933,-1.0074,10.1627,-0.0205,-0.0015,9.8066,-0.0423,0.0681,-0.0643,10.88,-35.75,8.0,90.79,-81.67,-165.98
69270,52.37749,-1.495141,126.3,23.57,4,274.6,20 / 21,3408409,2019-09-06 20:16:54:152,0.2505,-0.9327,10.9908,-0.012,0.0026,9.8066,0.1179,-0.0782,0.0819,10.94,-35.69,8.25,90.97,-81.58,-166.05
69271,52.37749,-1.495141,126.3,23.57,4,274.6,20 / 21,3408510,2019-09-06 20:16:54:253,0.5393,0.066,10.4072,-0.0173,-0.0017,9.8065,0.0693,0.025,-0.0036,10.56,-36.25,8.75,87.32,-81.53,-165.54
69272,52.37749,-1.495141,126.3,23.57,4,274.6,20 / 21,3408610,2019-09-06 20:16:54:353,1.4573,-0.0763,10.857,0.04,0.0093,9.8065,0.2345,0.045,0.0111,9.63,-36.0,8.31,90.89,-81.32,-165.86
69273,52.37749,-1.495141,126.3,23.57,4,274.6,20 / 21,3408710,2019-09-06 20:16:54:453,-0.4841,0.162,10.3546,-0.0494,-0.0241,9.8064,0.116,0.0984,-0.0798,8.75,-36.94,5.81,100.88,-81.57,-165.18
69274,52.37749,-1.495141,126.3,23.57,4,274.6,20 / 21,3408810,2019-09-06 20:16:54:553,1.201,-1.4956,10.0099,0.0192,0.0083,9.8066,0.0717,-0.1338,0.1259,5.56,-40.12,4.38,116.75,-81.63,-165.93
69275,52.37749,-1.495141,126.3,23.57,4,274.6,20 / 21,3408909,2019-09-06 20:16:54:652,0.3899,-0.2334,10.0366,0.0456,-0.014,9.8065,0.1451,-0.0632,0.0219,0.75,-43.87,7.81,69.99,-81.72,-165.55
69276,52.37749,-1.495141,126.3,23.57,4,274.6,20 / 21,3409010,2019-09-06 20:16:54:753,-0.3134,-0.4752,10.0775,0.0024,-0.0232,9.8066,-0.053,-0.0017,0.0278,-2.0,-41.37,11.06,9.81,-81.36,-165.38
69277,52.37749,-1.495141,126.3,23.57,4,274.6,20 / 21,3409110,2019-09-06 20:16:54:853,1.3828,2.0209,10.1017,0.0085,0.0196,9.8066,0.0076,0.0216,-0.0233,-3.06,-40.25,12.13,0.21,-81.0,-165.86
69278,52.37749,-1.495141,126.3,23.57,4,274.6,20 / 21,3409209,2019-09-06 20:16:54:952,1.3759,0.8631,9.8636,-0.005,0.0114,9.8066,0.0623,-0.0532,0.0611,-2.81,-37.62,12.88,1.17,-80.92,-166.38
69279,52.37749,-1.495141,126.3,23.57,4,274.6,20 / 21,3409309,2019-09-06 20:16:55:052,-0.9645,-0.1034,9.6095,0.001,0.027,9.8065,-0.1136,-0.0079,0.0311,-2.94,-36.0,10.69,357.8,-81.05,-165.84
69280,52.37749,-1.495141,126.3,23.57,4,274.6,20 / 21,3409410,2019-09-06 20:16:55:153,-0.657,0.6718,9.7283,-0.0154,0.042,9.8065,0.1338,-0.0082,0.0352,-2.81,-39.12,8.19,337.18,-81.37,-166.6
69281,52.37749,-1.495141,126.3,23.57,4,274.6,20 / 21,3409509,2019-09-06 20:16:55:252,1.4261,0.1288,9.4954,0.0079,-0.0401,9.8065,0.046,0.0287,-0.0606,-1.25,-43.94,10.69,19.33,-81.38,-167.09
69282,52.37749,-1.495141,126.3,23.57,4,274.6,20 / 21,3409610,2019-09-06 20:16:55:353,1.1387,-1.5071,10.6169,-0.0052,0.0097,9.8066,0.2727,0.0936,-0.0595,9.44,-40.5,14.25,64.98,-81.25,-167.57
69283,52.37749,-1.495141,126.3,23.57,4,274.6,20 / 21,3409710,2019-09-06 20:16:55:453,-1.2656,0.2512,9.9359,0.0531,0.0268,9.8064,0.1572,-0.106,-0.0051,15.63,-37.5,12.69,79.49,-81.22,-167.35
69284,52.37749,-1.495141,126.3,23.57,4,274.6,20 / 21,3409809,2019-09-06 20:16:55:552,1.0168,0.771,10.5592,-0.008,-0.0084,9.8066,-0.0121,0.0101,-0.0685,14.88,-36.25,13.25,78.72,-80.95,-166.97
69285,52.37749,-1.495141,126.3,23.57,4,274.6,20 / 21,3409910,2019-09-06 20:16:55:653,2.764,0.8566,10.3231,-0.0273,-0.0193,9.8066,0.0888,0.0075,0.0538,13.06,-36.19,12.5,75.51,-80.81,-167.52
69286,52.37749,-1.495141,126.3,23.57,4,274.6,20 / 21,3410010,2019-09-06 20:16:55:753,1.3592,0.8249,10.0957,0.0256,0.0218,9.8065,0.0516,0.0158,0.0199,12.19,-35.56,12.19,78.3,-80.65,-166.84
69287,52.37749,-1.495141,126.3,23.57,4,274.6,20 / 21,3410109,2019-09-06 20:16:55:852,-0.9308,-0.0031,9.8441,0.0058,0.0108,9.8066,-0.1429,0.0447,-0.0243,11.5,-35.31,12.38,78.15,-80.49,-166.77
69288,52.37749,-1.495141,126.3,23.57,4,274.6,20 / 21,3410210,2019-09-06 20:16:55:953,-0.6639,-0.0457,9.2627,0.0109,-0.0043,9.8066,0.0921,-0.0102,0.038,11.69,-35.62,12.0,78.34,-80.53,-167.08
69289,52.37749,-1.495141,126.3,23.57,4,274.6,20 / 21,3410310,2019-09-06 20:16:56:053,1.0752,-0.3421,10.0809,-0.0144,-0.0168,9.8066,0.1899,-0.0069,-0.0542,11.75,-35.87,10.81,81.1,-80.56,-167.79
69290,52.37749,-1.495141,126.3,23.57,4,274.6,20 / 21,3410410,2019-09-06 20:16:56:153,1.1216,-0.2043,9.9844,-0.0011,-0.0081,9.8066,0.0043,-0.0221,0.0301,11.19,-35.69,11.25,78.71,-80.47,-168.84
69291,52.37749,-1.495141,126.3,23.57,4,274.6,20 / 21,3410510,2019-09-06 20:16:56:253,1.3226,0.6629,10.4178,-0.0205,-0.0065,9.8066,-0.0543,-0.0404,0.0344,11.19,-35.44,11.63,74.67,-80.22,-168.98
69292,52.37749,-1.495141,126.3,23.57,4,274.6,20 / 21,3410609,2019-09-06 20:16:56:352,0.9306,-0.2021,10.5069,0.0084,-0.0009,9.8066,0.0335,0.033,-0.0256,10.69,-35.56,11.75,75.24,-80.17,-169.2
69293,52.37749,-1.495141,126.3,23.57,4,274.6,20 / 21,3410709,2019-09-06 20:16:56:452,0.6455,-0.6875,9.7583,0.0122,0.0044,9.8066,0.034,0.0094,0.0111,11.69,-35.62,11.75,76.42,-80.3,-169.4
69294,52.37749,-1.495141,126.3,23.57,4,274.6,20 / 21,3410810,2019-09-06 20:16:56:553,-0.9033,0.4221,9.7305,0.0149,0.0045,9.8066,-0.0077,-0.0582,0.0483,11.13,-35.56,10.88,77.91,-80.42,-169.7
69295,52.37749,-1.495141,126.3,23.57,4,274.6,20 / 21,3410910,2019-09-06 20:16:56:653,0.0538,0.3213,10.3987,-0.0013,0.0062,9.8066,-0.0394,-0.0165,0.0323,11.25,-35.44,10.94,77.95,-80.35,-169.17
69296,52.37749,-1.495141,126.3,23.57,4,274.6,20 / 21,3411010,2019-09-06 20:16:56:753,-0.5269,-0.0964,10.0118,-0.0133,-0.0045,9.8066,0.123,-0.0039,0.0022,11.06,-35.75,10.94,78.86,-80.22,-169.34
69297,52.37749,-1.495141,126.3,23.57,4,274.6,20 / 21,3411109,2019-09-06 20:16:56:852,1.9933,1.1029,9.5969,-0.0221,-0.0128,9.8066,0.0842,0.0447,0.0515,11.94,-36.12,10.94,80.14,-80.17,-169.66
69298,52.37749,-1.495141,126.3,23.57,4,274.6,20 / 21,3411210,2019-09-06 20:16:56:953,0.7176,0.1718,10.364,0.0202,0.0065,9.8066,-0.0504,-0.0292,-0.0928,11.63,-35.81,10.81,79.8,-80.18,-169.95
69299,52.37749,-1.495141,126.3,23.57,4,274.6,20 / 21,3411310,2019-09-06 20:16:57:053,0.8173,-0.7379,9.2525,0.0291,-0.0101,9.8066,0.0013,-0.0434,0.0576,11.44,-35.69,10.63,77.3,-80.28,-170.61
69300,52.37749,-1.495141,126.3,23.57,4,274.6,20 / 21,3411410,2019-09-06 20:16:57:153,0.073,-2.0178,9.5556,0.025,0.0208,9.8065,-0.0819,0.0154,-0.0151,11.56,-35.56,10.81,78.15,-80.46,-170.83
69301,52.37749,-1.495141,126.3,23.57,4,274.6,20 / 21,3411509,2019-09-06 20:16:57:252,0.8124,-0.9923,9.5825,-0.0147,-0.0102,9.8066,-0.021,-0.0878,0.0689,11.13,-36.19,10.25,80.61,-80.54,-170.69
69302,52.37749,-1.495141,126.3,23.57,4,274.6,20 / 21,3411610,2019-09-06 20:16:57:353,1.048,-1.1067,9.6233,-0.0058,-0.0048,9.8066,-0.0747,0.1049,-0.0574,11.5,-36.56,10.81,79.2,-80.29,-170.9
69303,52.37749,-1.495141,126.3,23.57,4,274.6,20 / 21,3411710,2019-09-06 20:16:57:453,-0.0664,0.1524,10.5442,-0.0021,-0.0279,9.8065,0.1429,0.0343,0.0371,11.38,-36.19,10.56,76.02,-80.09,-172.26
69304,52.37749,-1.495141,126.3,23.57,4,274.6,20 / 21,3411810,2019-09-06 20:16:57:553,-0.908,-0.681,10.2157,0.0144,0.0084,9.8066,0.0631,-0.042,-0.0587,11.25,-36.31,11.31,75.39,-80.21,-172.51
69305,52.37749,-1.495141,126.3,23.57,4,274.6,20 / 21,3411910,2019-09-06 20:16:57:653,-0.0064,-0.4698,9.6835,0.0197,0.0096,9.8066,-0.1461,-0.0524,-0.0122,11.94,-36.75,10.75,77.58,-80.34,-172.26
69306,52.37749,-1.495141,126.3,23.57,4,274.6,20 / 21,3412010,2019-09-06 20:16:57:753,1.4122,-0.055,9.533,-0.016,-0.0185,9.8066,-0.0316,0.0088,0.0045,11.5,-36.0,10.44,80.16,-80.37,-172.82
69307,52.37749,-1.495141,126.3,23.57,4,274.6,20 / 21,3412109,2019-09-06 20:16:57:852,0.6269,0.7513,9.6045,-0.0188,-0.0096,9.8065,0.1263,0.0302,-0.0694,12.0,-35.87,10.44,79.7,-80.42,-173.12
69308,52.37749,-1.495141,126.3,23.57,4,274.6,20 / 21,3412210,2019-09-06 20:16:57:953,-0.6307,0.3842,10.1318,0.0181,-0.0017,9.8066,0.0284,0.0202,-0.0197,11.94,-35.69,10.88,75.92,-80.34,-173.15
69309,52.37749,-1.495141,126.3,23.57,4,274.6,20 / 21,3412310,2019-09-06 20:16:58:053,0.1315,0.2536,9.223,-0.0159,-0.005,9.8066,-0.0897,-0.0238,0.0364,12.19,-35.62,10.25,79.26,-80.33,-173.76
69310,52.37749,-1.495141,126.3,23.57,4,274.6,20 / 21,3412410,2019-09-06 20:16:58:153,0.7025,-0.4085,9.6458,-0.0033,-0.0065,9.8066,-0.0977,0.0449,-0.0233,12.56,-35.75,10.81,75.76,-80.44,-174.36
69311,52.37749,-1.495141,126.3,23.57,4,274.6,20 / 21,3412509,2019-09-06 20:16:58:252,0.6597,0.1544,9.6267,0.0006,-0.0247,9.8066,0.0881,-0.0261,-0.0228,12.56,-36.19,10.94,74.54,-80.48,-175.39
69312,52.37749,-1.495141,126.3,23.57,4,274.6,20 / 21,3412610,2019-09-06 20:16:58:353,-1.1073,0.4729,10.1564,0.0217,0.0044,9.8066,-0.0568,0.0472,0.0182,12.25,-35.56,10.19,75.51,-80.66,-176.39
69313,52.37749,-1.495141,126.3,23.57,4,274.6,20 / 21,3412709,2019-09-06 20:16:58:452,0.3812,-0.5752,10.3656,0.025,-0.0005,9.8065,-0.0027,0.0046,0.0798,12.81,-35.81,10.5,72.69,-80.56,-176.87
69314,52.37749,-1.495141,126.3,23.57,4,274.6,20 / 21,3412810,2019-09-06 20:16:58:553,0.2657,-0.5771,9.864,-0.0054,-0.007,9.8066,-0.0175,-0.009,-0.0252,12.69,-36.31,10.56,71.55,-80.52,-177.98
69315,52.37749,-1.495141,126.3,23.57,4,274.6,20 / 21,3412910,2019-09-06 20:16:58:653,0.0667,0.4271,9.4159,0.0319,0.0048,9.8066,0.0435,0.0098,0.0386,12.81,-35.62,10.31,75.12,-80.44,-178.44
69316,52.37749,-1.495141,126.3,23.57,4,274.6,20 / 21,3413010,2019-09-06 20:16:58:753,-0.4925,0.3656,9.7351,0.041,0.0007,9.8065,-0.1808,0.028,-0.0827,12.81,-35.62,10.31,73.03,-80.71,-179.66
69317,52.37749,-1.495141,126.3,23.57,4,274.6,20 / 21,3413109,2019-09-06 20:16:58:852,-0.9696,-0.2182,9.5612,-0.0085,-0.0222,9.8066,-0.025,0.0258,0.0445,12.69,-35.75,10.63,69.77,-80.58,-179.42
69318,52.37749,-1.495141,126.3,23.57,4,274.6,20 / 21,3413210,2019-09-06 20:16:58:953,-0.253,-0.1308,9.4541,0.0246,0.0067,9.8066,0.0301,-0.0711,-0.0688,12.94,-35.62,10.56,68.94,-80.6,179.89
69319,52.37749,-1.495141,126.3,23.57,4,274.6,20 / 21,3413309,2019-09-06 20:16:59:052,0.2609,-0.2639,9.256,0.0232,0.0,9.8065,-0.0862,-0.0396,-0.0414,12.69,-35.62,10.25,71.9,-80.77,179.45
69320,52.37749,-1.495141,126.3,23.57,4,274.6,20 / 22,3413410,2019-09-06 20:16:59:153,-0.1775,0.868,9.763,0.0341,0.0041,9.8065,-0.0903,-0.0572,-0.0124,12.81,-35.5,10.31,71.11,-80.65,179.05
69321,52.37749,-1.495141,126.3,23.57,4,274.6,20 / 22,3413510,2019-09-06 20:16:59:253,-0.4499,-1.0235,10.4053,-0.0377,-0.0151,9.8066,0.1656,-0.012,-0.0852,12.44,-35.5,9.94,67.16,-80.86,177.35
69322,52.37749,-1.495141,126.3,23.57,4,274.6,20 / 22,3413610,2019-09-06 20:16:59:353,-0.7034,-0.4118,10.3319,-0.0227,-0.003,9.8066,0.0994,-0.0057,0.0115,13.38,-35.69,10.19,69.99,-80.78,177.79
69323,52.37749,-1.495141,126.3,23.57,4,274.6,20 / 22,3413710,2019-09-06 20:16:59:453,1.1977,-0.1931,10.1332,0.0274,-0.0091,9.8066,-0.0454,-0.0494,-0.1021,12.94,-35.12,10.38,69.08,-80.8,177.61
69324,52.37749,-1.495141,126.3,23.57,4,274.6,20 / 22,3413810,2019-09-06 20:16:59:553,-0.5742,0.903,9.4316,0.0288,0.0029,9.8065,-0.031,0.0695,0.0475,12.94,-35.5,10.31,67.21,-80.93,176.25
69325,52.37749,-1.495141,126.3,23.57,4,274.6,20 / 22,3413910,2019-09-06 20:16:59:653,-1.8038,-0.1406,8.8741,0.0036,-0.0067,9.8066,0.0953,-0.0641,0.0333,12.88,-35.62,9.88,68.14,-80.81,176.25
69326,52.37749,-1.495141,126.3,23.57,4,274.6,20 / 22,3414010,2019-09-06 20:16:59:753,-0.0753,0.5397,9.9392,-0.0421,-0.0269,9.8064,0.2899,0.0327,0.0102,13.19,-35.56,9.88,66.62,-80.95,175.25
69327,52.37749,-1.495141,126.3,23.57,4,274.6,20 / 22,3414109,2019-09-06 20:16:59:852,0.0733,0.8449,7.9646,-0.1839,-0.0206,9.8048,-0.3013,0.068,0.116,13.25,-35.44,9.5,69.53,-80.25,176.76
69328,52.37749,-1.495141,126.3,23.57,4,274.6,20 / 22,3414209,2019-09-06 20:16:59:952,-0.8145,-2.2234,8.1257,0.0334,0.036,9.8065,0.0313,-0.351,0.1588,12.94,-35.12,9.94,69.98,-80.68,178.12
69329,52.37749,-1.495141,126.3,23.57,4,274.6,20 / 22,3414310,2019-09-06 20:17:00:053,0.3997,-1.1014,7.7898,0.0136,-0.0376,9.8065,-0.1812,0.1815,-0.3089,13.69,-35.62,10.0,70.65,-80.78,177.3
69330,52.37749,-1.495141,126.3,23.57,4,274.6,20 / 21,3414409,2019-09-06 20:17:00:152,1.8794,-0.4428,8.6582,0.0087,0.0067,9.8066,0.0298,-0.1099,0.0493,13.5,-35.19,9.44,70.91,-81.1,175.32
69331,52.37749,-1.495141,126.3,23.57,4,274.6,20 / 21,3414510,2019-09-06 20:17:00:253,0.6286,-0.4266,8.2962,-0.0527,-0.0595,9.8063,-0.1849,-0.0124,-0.0553,14.0,-35.31,10.0,64.25,-81.07,172.81
69332,52.37749,-1.495141,126.3,23.57,4,274.6,20 / 21,3414609,2019-09-06 20:17:00:352,2.0941,-0.5709,9.4873,0.0238,-0.0073,9.8066,0.2596,-0.0014,-0.0446,13.88,-34.87,9.44,66.99,-80.99,171.63
69333,52.37749,-1.495141,126.3,23.57,4,274.6,20 / 21,3414710,2019-09-06 20:17:00:453,-1.3672,-1.0532,9.9693,-0.0199,0.0069,9.8065,0.0353,-0.0575,0.0567,13.63,-35.19,9.63,62.43,-80.93,170.99
69334,52.37749,-1.495141,126.3,23.57,4,274.6,20 / 21,3414809,2019-09-06 20:17:00:552,-0.2029,0.6648,9.8138,0.0049,0.0049,9.8066,-0.0082,0.0527,-0.0185,13.31,-34.87,8.94,65.96,-80.98,171.71
69335,52.37749,-1.495141,126.3,23.57,4,274.6,20 / 21,3414909,2019-09-06 20:17:00:652,-0.0516,-0.977,9.4139,0.0085,0.0128,9.8065,0.0473,0.0062,-0.0808,13.38,-35.0,9.44,66.36,-81.11,172.34
69336,52.37749,-1.495141,126.3,23.57,4,274.6,20 / 21,3415010,2019-09-06 20:17:00:753,-2.3469,0.6549,8.6682,0.0064,-0.0164,9.8066,-0.1649,0.0572,-0.0735,13.0,-34.62,9.56,60.29,-81.21,170.97
69337,52.37749,-1.495141,126.3,23.57,4,274.6,20 / 21,3415110,2019-09-06 20:17:00:853,-1.2315,1.6392,9.3486,-0.0183,-0.001,9.8066,-0.0408,-0.0355,-0.0151,13.56,-35.25,9.19,66.26,-81.22,171.48
69338,52.37749,-1.495141,126.3,23.57,4,274.6,20 / 21,3415210,2019-09-06 20:17:00:953,-1.311,-0.7162,10.5127,-0.0304,-0.0026,9.8066,-0.0486,-0.0166,0.0434,13.56,-34.69,8.75,64.65,-81.45,170.57
69339,52.37749,-1.495141,126.3,23.57,4,274.6,20 / 21,3415310,2019-09-06 20:17:01:053,1.1659,-0.3297,10.4808,-0.0098,0.0103,9.8066,0.1355,-0.0485,0.0596,13.63,-34.5,8.75,64.0,-81.33,170.26
69340,52.37749,-1.495141,126.3,23.57,4,274.6,20 / 21,3415409,2019-09-06 20:17:01:152,0.9968,1.1459,10.6459,-0.0118,0.0093,9.8066,0.0443,0.0377,-0.0366,13.38,-34.69,7.94,70.25,-81.18,172.09
69341,52.37749,-1.495141,126.3,23.57,4,274.6,20 / 21,3415509,2019-09-06 20:17:01:252,-0.1549,1.1508,10.8399,-0.0037,0.0198,9.8066,0.0114,-0.0005,0.1024,13.06,-34.5,7.81,70.93,-81.23,173.4
69342,52.37749,-1.495141,126.3,23.57,4,274.6,20 / 21,3415610,2019-09-06 20:17:01:353,-0.4843,-0.0533,9.7128,-0.0211,-0.0106,9.8066,-0.0255,0.0509,0.0119,12.0,-33.75,7.0,75.21,-81.17,173.76
69343,52.37749,-1.495141,126.3,23.57,4,274.6,20 / 21,3415710,2019-09-06 20:17:01:453,-0.3362,-0.3086,8.7672,-0.0028,-0.0111,9.8065,-0.0172,0.0016,-0.0851,11.69,-34.5,6.19,79.04,-81.21,172.88
69344,52.37749,-1.495141,126.3,23.57,4,274.6,20 / 21,3415810,2019-09-06 20:17:01:553,-0.1202,-0.7899,8.9792,0.0011,-0.0074,9.8066,-0.062,-0.0481,0.0194,11.94,-35.31,6.56,73.19,-81.38,171.85
69345,52.37749,-1.495141,126.3,23.57,4,274.6,20 / 21,3415910,2019-09-06 20:17:01:653,1.3085,-0.8206,9.5436,-0.0212,-0.0019,9.8066,-0.198,-0.0017,0.0217,12.94,-35.81,4.44,88.35,-81.39,171.82
69346,52.37749,-1.495141,126.3,23.57,4,274.6,20 / 21,3416010,2019-09-06 20:17:01:753,-0.0634,-0.9437,9.0052,0.0272,-0.0145,9.8065,-0.0421,-0.0089,-0.0187,14.0,-39.37,2.0,97.51,-81.44,171.44
69347,52.37749,-1.495141,126.3,23.57,4,274.6,20 / 21,3416109,2019-09-06 20:17:01:852,-4.1465,-2.4038,8.9197,-0.0628,0.0192,9.8064,0.0373,0.0095,0.0347,13.44,-49.25,3.25,102.52,-81.07,171.39
69348,52.37749,-1.495141,126.3,23.57,4,274.6,20 / 21,3416210,2019-09-06 20:17:01:953,3.9263,-4.4993,8.4792,0.1477,0.07,9.8053,0.0535,0.3138,-0.3165,12.19,-48.87,15.5,44.31,-81.66,172.68
69349,52.37749,-1.495141,126.3,23.57,4,274.6,20 / 21,3416309,2019-09-06 20:17:02:052,-2.4776,4.1591,8.6818,0.005,0.0107,9.8066,-0.6034,0.1457,-0.2617,13.06,-44.44,15.44,47.59,-81.29,171.9
69350,52.37763,-1.49817,126.62,22.82,6,274.87,20 / 22,3416410,2019-09-06 20:17:02:153,2.075,-0.1895,8.4248,0.1248,0.0142,9.8058,0.2931,-0.0467,-0.0409,13.88,-42.06,12.38,60.96,-81.37,173.74
69351,52.37763,-1.49817,126.62,22.82,6,274.87,20 / 22,3416509,2019-09-06 20:17:02:252,-0.1198,1.433,8.7948,0.0366,-0.008,9.8065,-0.1211,0.121,-0.1281,14.06,-40.87,8.69,67.43,-81.91,171.11
69352,52.37763,-1.49817,126.62,22.82,6,274.87,20 / 22,3416609,2019-09-06 20:17:02:352,-1.8319,-0.0767,10.3685,0.0265,0.013,9.8065,0.1162,-0.0069,0.146,13.88,-43.06,5.94,81.76,-81.99,171.73
69353,52.37763,-1.49817,126.62,22.82,6,274.87,20 / 22,3416710,2019-09-06 20:17:02:453,0.8725,-0.0396,9.4516,-0.0533,0.0047,9.8064,0.1495,-0.0826,-0.0174,14.75,-44.94,4.5,87.09,-82.07,172.16
69354,52.37763,-1.49817,126.62,22.82,6,274.87,20 / 22,3416809,2019-09-06 20:17:02:552,0.1543,-0.0482,9.5252,-0.0325,0.0097,9.8066,-0.1687,0.0001,-0.0146,14.63,-51.62,2.25,103.34,-81.83,172.42
69355,52.37763,-1.49817,126.62,22.82,6,274.87,20 / 22,3416909,2019-09-06 20:17:02:652,0.2799,-1.6486,9.6537,0.0132,-0.0126,9.8066,-0.0298,-0.1021,-0.0467,14.13,-55.5,10.25,71.41,-81.97,171.48
69356,52.37763,-1.49817,126.62,22.82,6,274.87,20 / 22,3417010,2019-09-06 20:17:02:753,1.8262,0.908,9.8747,-0.0014,-0.0098,9.8066,-0.1262,0.119,-0.0819,11.63,-44.5,17.19,36.91,-81.94,171.13
69357,52.37763,-1.49817,126.62,22.82,6,274.87,20 / 22,3417109,2019-09-06 20:17:02:852,0.3932,1.5708,10.1206,0.0026,0.0233,9.8066,-0.0335,-0.0607,0.0259,10.38,-37.0,13.81,39.18,-82.08,172.54
69358,52.37763,-1.49817,126.62,22.82,6,274.87,20 / 22,3417209,2019-09-06 20:17:02:952,0.2529,1.2061,10.3539,0.0087,0.0014,9.8066,-0.0312,-0.1144,-0.0746,9.81,-35.62,12.81,42.06,-82.01,172.38
69359,52.37763,-1.49817,126.62,22.82,6,274.87,20 / 22,3417310,2019-09-06 20:17:03:053,0.9465,0.3532,10.3438,0.0014,0.0039,9.8066,0.0459,-0.0349,0.154,9.25,-35.12,11.63,41.8,-81.96,172.03
69360,52.37763,-1.49817,126.62,22.82,6,274.87,20 / 21,3417410,2019-09-06 20:17:03:153,-1.7224,0.9562,9.664,-0.0035,0.0154,9.8066,0.0327,-0.0846,0.0362,9.19,-35.62,11.56,44.71,-81.9,173.72
69361,52.37763,-1.49817,126.62,22.82,6,274.87,20 / 21,3417509,2019-09-06 20:17:03:252,-1.4258,1.423,8.7797,0.0115,0.0103,9.8066,-0.0085,-0.05,0.0804,9.06,-35.06,10.19,52.3,-82.07,173.44
69362,52.37763,-1.49817,126.62,22.82,6,274.87,20 / 21,3417610,2019-09-06 20:17:03:353,-0.8483,0.5257,9.0204,-0.0167,0.0038,9.8065,0.1037,-0.0881,0.1345,9.94,-35.75,10.06,55.93,-82.21,173.97
69363,52.37763,-1.49817,126.62,22.82,6,274.87,20 / 21,3417709,2019-09-06 20:17:03:452,-0.26,0.1828,9.5813,-0.0028,-0.0078,9.8066,0.0903,-0.1519,0.0226,10.56,-35.5,10.31,57.87,-82.28,174.27
69364,52.37763,-1.49817,126.62,22.82,6,274.87,20 / 21,3417809,2019-09-06 20:17:03:552,-0.9464,0.4222,9.8633,0.0002,0.0092,9.8066,0.1285,-0.0649,0.051,11.63,-34.87,9.13,64.62,-82.32,174.81
69365,52.37763,-1.49817,126.62,22.82,6,274.87,20 / 21,3417910,2019-09-06 20:17:03:653,0.5352,1.6693,10.2752,-0.0081,-0.0129,9.8066,-0.008,-0.0192,-0.075,12.38,-34.62,9.13,65.86,-82.08,175.33
69366,52.37763,-1.49817,126.62,22.82,6,274.87,20 / 21,3418010,2019-09-06 20:17:03:753,-0.3986,-0.2753,10.2212,-0.0054,-0.0012,9.8066,0.0395,-0.1295,0.0538,12.31,-35.37,9.13,65.64,-81.97,174.87
69367,52.37763,-1.49817,126.62,22.82,6,274.87,20 / 21,3418109,2019-09-06 20:17:03:852,0.2589,1.0493,9.6581,-0.0028,-0.0161,9.8066,0.0125,-0.0374,-0.0168,12.63,-35.5,8.38,70.48,-81.86,173.91
69368,52.37763,-1.49817,126.62,22.82,6,274.87,20 / 21,3418210,2019-09-06 20:17:03:953,0.6489,-0.99,8.9274,-0.0075,-0.0058,9.8066,-0.0643,0.0595,-0.0361,13.06,-36.0,8.38,70.79,-81.94,173.87
69369,52.37763,-1.49817,126.62,22.82,6,274.87,20 / 21,3418309,2019-09-06 20:17:04:052,0.1675,1.1535,9.6683,0.0165,0.0051,9.8066,-0.0164,0.0659,-0.0918,13.31,-35.69,8.44,70.24,-82.02,173.56
69370,52.37763,-1.49817,126.62,22.82,6,274.87,19 / 20,3418409,2019-09-06 20:17:04:152,0.2994,-0.2892,9.657,-0.0049,-0.0049,9.8066,-0.0187,0.0094,-0.0254,13.0,-35.81,8.13,68.73,-82.09,172.39
69371,52.37763,-1.49817,126.62,22.82,6,274.87,19 / 20,3418510,2019-09-06 20:17:04:253,0.9407,-0.8306,9.2289,0.0107,-0.0017,9.8066,0.0338,-0.1266,0.0274,13.25,-35.81,7.69,68.16,-82.14,172.02
69372,52.37763,-1.49817,126.62,22.82,6,274.87,19 / 20,3418610,2019-09-06 20:17:04:353,0.1378,0.1745,9.5154,0.0343,0.0017,9.8065,-0.0347,-0.0243,0.037,13.81,-35.31,7.31,73.25,-82.05,172.27
69373,52.37763,-1.49817,126.62,22.82,6,274.87,19 / 20,3418710,2019-09-06 20:17:04:453,-0.6361,-0.6614,8.7376,0.0229,0.0008,9.8066,-0.0717,0.0342,-0.039,13.19,-35.5,7.19,71.02,-82.26,171.45
69374,52.37763,-1.49817,126.62,22.82,6,274.87,19 / 20,3418810,2019-09-06 20:17:04:553,0.5556,-0.3503,9.8163,-0.0364,-0.0017,9.8066,-0.1553,0.1009,0.0113,13.44,-35.12,6.94,72.22,-82.19,172.34
69375,52.37763,-1.49817,126.62,22.82,6,274.87,19 / 20,3418910,2019-09-06 20:17:04:653,0.9694,-1.1755,10.7595,-0.0409,-0.0095,9.8065,0.2077,-0.045,0.1572,13.06,-35.5,7.44,72.51,-82.14,172.49
69376,52.37763,-1.49817,126.62,22.82,6,274.87,19 / 20,3419010,2019-09-06 20:17:04:753,-0.359,0.2013,10.2641,-0.0303,0.0102,9.8065,0.0499,-0.017,0.0214,13.38,-35.44,8.13,68.11,-82.12,172.43
