,GPS LATITUDE (degrees), GPS LONGITUDE (degrees), GPS ALTITUDE (m), GPS SPEED (Kmh), GPS ACCURACY (m), GPS ORIENTATION (Â°),GPS SATELLITES IN RANGE, TIME SINCE START (ms), DATE (YYYY-MO-DD HH-MI-SS_SSS), ACCELEROMETER X (m/s²) , ACCELEROMETER Y (m/s²), ACCELEROMETER Z (m/s²), GRAVITY X (m/s²), GRAVITY Y (m/s²), GRAVITY Z (m/s²), GYROSCOPE Yaw (rad/s), GYROSCOPE Pitch (rad/s), GYROSCOPE Roll (rad/s), MAGNETIC FIELD X (Î¼T), MAGNETIC FIELD Y (Î¼T), MAGNETIC FIELD Z (Î¼T), ORIENTATION (Yaw) (Â°), ORIENTATION (Pitch) (Â°), ORIENTATION (Roll ) (Â°)
36499,52.421345,-1.534866,180.5,0.1,4,269.34,19 / 20,131309,2019-09-06 19:22:17:052,0.0394,-0.0392,9.6247,-0.0001,0.0019,9.8066,0.0037,-0.0108,-0.0242,2.13,-31.5,20.69,52.03,-84.88,-139.47
36500,52.421345,-1.534866,180.5,0.1,4,269.34,19 / 19,131409,2019-09-06 19:22:17:152,0.005,-0.2864,9.6306,0.0008,0.0034,9.8066,0.0237,-0.006,-0.0076,3.0,-31.37,20.69,54.86,-84.88,-139.52
36501,52.421345,-1.534866,180.5,0.1,4,269.34,19 / 19,131510,2019-09-06 19:22:17:253,0.1154,0.1789,10.0193,-0.0014,-0.0044,9.8066,0.0289,-0.0025,-0.0026,1.94,-32.0,20.94,51.93,-84.86,-139.78
36502,52.421345,-1.534866,180.5,0.1,4,269.34,19 / 19,131610,2019-09-06 19:22:17:353,0.1277,-0.1396,9.6247,0.0005,0.0048,9.8066,0.0003,0.0241,-0.0083,1.94,-31.81,21.31,51.96,-84.86,-139.74
36503,52.421345,-1.534866,180.5,0.1,4,269.34,19 / 19,131709,2019-09-06 19:22:17:452,-0.0254,-0.0444,10.0007,0.0,0.0068,9.8066,0.0143,0.0147,0.007,2.0,-31.37,20.75,51.88,-84.85,-139.64
36504,52.421345,-1.534866,180.5,0.1,4,269.34,19 / 19,131809,2019-09-06 19:22:17:552,0.1266,0.0163,10.0573,0.002,0.0061,9.8066,0.0123,0.0238,0.0066,2.56,-31.19,21.13,55.1,-84.89,-139.28
36505,52.421345,-1.534866,180.5,0.1,4,269.34,19 / 19,131909,2019-09-06 19:22:17:652,-0.032,-0.0924,9.5854,0.0002,-0.0036,9.8065,-0.0037,0.0332,0.0051,2.13,-31.56,20.94,52.19,-84.87,-139.54
36506,52.421345,-1.534866,180.5,0.1,4,269.34,19 / 19,132010,2019-09-06 19:22:17:753,-0.0836,-0.2723,9.6698,-0.0011,0.0029,9.8066,0.0114,0.0208,0.0236,2.25,-31.12,21.06,52.02,-84.86,-139.51
36507,52.421345,-1.534866,180.5,0.1,4,269.34,19 / 19,132109,2019-09-06 19:22:17:852,0.0582,0.1865,10.1301,0.0017,0.0044,9.8066,0.0088,0.0301,0.0113,1.94,-31.69,21.44,52.28,-84.85,-139.47
36508,52.421345,-1.534866,180.5,0.1,4,269.34,19 / 19,132209,2019-09-06 19:22:17:952,-0.0281,0.208,10.1352,0.0003,0.0039,9.8066,-0.0041,0.0238,0.016,2.13,-31.69,21.13,52.4,-84.87,-139.34
36509,52.421345,-1.534866,180.5,0.1,4,269.34,19 / 19,132310,2019-09-06 19:22:18:053,-0.014,-0.0186,9.5895,-0.0008,-0.0022,9.8066,0.001,0.029,0.0211,2.19,-31.62,20.56,52.4,-84.87,-139.33
36510,52.421345,-1.534866,180.5,0.1,4,269.34,19 / 20,132410,2019-09-06 19:22:18:153,0.1644,-0.2413,9.7381,0.0005,0.0028,9.8066,-0.0064,0.0392,0.0159,2.38,-31.94,21.13,52.46,-84.86,-139.3
36511,52.421345,-1.534866,180.5,0.1,4,269.34,19 / 20,132509,2019-09-06 19:22:18:252,-0.054,0.1005,10.1325,-0.0002,0.0033,9.8066,-0.0085,0.0224,0.0199,2.19,-31.44,20.94,52.27,-84.85,-139.28
36512,52.421345,-1.534866,180.5,0.1,4,269.34,19 / 20,132609,2019-09-06 19:22:18:352,0.1647,0.1708,10.0815,0.0007,0.0029,9.8066,-0.0105,0.0374,0.0127,2.19,-31.87,21.19,52.61,-84.87,-139.14
36513,52.421345,-1.534866,180.5,0.1,4,269.34,19 / 20,132710,2019-09-06 19:22:18:453,-0.0411,0.2446,9.8471,-0.0003,-0.0024,9.8066,-0.0091,0.0206,0.0259,2.25,-31.87,20.5,52.46,-84.84,-139.32
36514,52.421345,-1.534866,180.5,0.1,4,269.34,19 / 20,132809,2019-09-06 19:22:18:552,-0.0364,-0.0318,9.5763,-0.0003,-0.0019,9.8066,0.0022,0.0291,0.0228,2.38,-31.87,21.25,52.46,-84.85,-139.3
36515,52.421345,-1.534866,180.5,0.1,4,269.34,19 / 20,132909,2019-09-06 19:22:18:652,0.0218,0.2246,10.172,0.0013,0.0029,9.8066,-0.023,0.0412,0.016,2.31,-31.56,21.25,52.64,-84.85,-139.15
36516,52.421345,-1.534866,180.5,0.1,4,269.34,19 / 20,133010,2019-09-06 19:22:18:753,-0.0685,0.4034,10.0633,-0.0001,0.0021,9.8066,-0.0318,0.0272,0.0241,2.5,-31.5,20.75,55.47,-84.86,-138.98
36517,52.421345,-1.534866,180.5,0.1,4,269.34,19 / 20,133110,2019-09-06 19:22:18:853,-0.0737,0.0606,9.7074,-0.0001,-0.005,9.8066,-0.0239,0.0386,0.0142,2.06,-32.12,21.19,52.55,-84.84,-139.24
36518,52.421345,-1.534866,180.5,0.1,4,269.34,19 / 20,133209,2019-09-06 19:22:18:952,0.1612,-0.1534,9.6594,-0.0007,-0.0035,9.8066,-0.0161,0.0201,0.0183,2.5,-31.5,21.38,55.2,-84.85,-139.24
36519,52.421345,-1.534866,180.5,0.1,4,269.34,19 / 20,133310,2019-09-06 19:22:19:053,0.0547,0.129,9.9109,0.0007,-0.0042,9.8066,-0.005,0.0139,0.007,3.38,-32.0,20.69,55.34,-84.85,-139.31
36520,52.421345,-1.534866,180.5,0.1,4,269.34,19 / 20,133409,2019-09-06 19:22:19:152,-0.1094,0.1202,9.8937,-0.0005,0.003,9.8066,0.0361,-0.0076,-0.0018,2.19,-32.06,21.06,52.41,-84.85,-139.36
36521,52.421345,-1.534866,180.5,0.1,4,269.34,19 / 20,133510,2019-09-06 19:22:19:253,-0.1445,0.2561,10.0543,-0.0001,-0.003,9.8066,-0.011,-0.0154,0.007,2.69,-31.44,20.75,55.05,-84.83,-139.4
36522,52.421345,-1.534866,180.5,0.1,4,269.34,19 / 20,133610,2019-09-06 19:22:19:353,0.052,-0.0336,9.8089,0.0027,0.0047,9.8066,-0.0016,0.0037,-0.0132,2.13,-31.06,20.94,52.34,-84.85,-139.23
36523,52.421345,-1.534866,180.5,0.1,4,269.34,19 / 20,133710,2019-09-06 19:22:19:453,0.0444,-0.3407,9.7628,0.0011,0.0002,9.8066,0.0026,-0.0285,-0.0062,2.19,-31.56,21.63,51.88,-84.85,-139.31
36524,52.421345,-1.534866,180.5,0.1,4,269.34,19 / 20,133809,2019-09-06 19:22:19:552,-0.0986,0.1542,9.7883,-0.0006,-0.0027,9.8066,-0.0052,-0.0167,-0.0105,3.25,-31.56,21.56,54.56,-84.84,-139.39
36525,52.421345,-1.534866,180.5,0.1,4,269.34,19 / 20,133909,2019-09-06 19:22:19:652,-0.0834,-0.1046,9.7255,0.0013,0.0018,9.8066,-0.0036,-0.0265,-0.0149,2.31,-31.31,20.5,52.13,-84.84,-139.42
36526,52.421345,-1.534866,180.5,0.1,4,269.34,19 / 20,134009,2019-09-06 19:22:19:752,-0.2886,0.4363,9.9285,-0.0005,0.0021,9.8066,0.238,-0.0358,0.0153,2.31,-31.25,21.25,52.09,-84.84,-139.46
36527,52.421345,-1.534866,180.5,0.1,4,269.34,19 / 20,134109,2019-09-06 19:22:19:852,0.1559,-0.3843,9.889,0.0064,0.0034,9.8066,-0.0246,-0.0043,0.0158,2.31,-31.44,21.13,50.38,-84.68,-141.23
36528,52.421345,-1.534866,180.5,0.1,4,269.34,19 / 20,134209,2019-09-06 19:22:19:952,0.0523,0.0883,9.8452,0.0008,0.0025,9.8066,-0.0671,-0.0038,0.0012,2.56,-31.37,20.81,54.48,-84.82,-139.95
36529,52.421345,-1.534866,180.5,0.1,4,269.34,19 / 20,134309,2019-09-06 19:22:20:052,-0.0106,0.3593,9.9433,-0.0007,-0.0022,9.8066,-0.0627,-0.026,-0.0004,2.38,-31.44,21.19,51.87,-84.85,-139.66
36530,52.421345,-1.534866,180.5,0.1,4,269.34,19 / 20,134410,2019-09-06 19:22:20:153,0.066,0.0933,9.6585,-0.0021,-0.0071,9.8066,0.0234,-0.0258,-0.0079,2.19,-31.69,20.75,52.33,-84.85,-139.42
36531,52.421345,-1.534866,180.5,0.1,4,269.34,19 / 20,134509,2019-09-06 19:22:20:252,0.0518,-0.2571,9.8109,-0.0002,0.0027,9.8066,-0.0207,-0.0244,-0.0102,2.31,-31.25,21.0,52.34,-84.88,-139.19
36532,52.421345,-1.534866,180.5,0.1,4,269.34,19 / 20,134609,2019-09-06 19:22:20:352,0.051,0.1664,9.7316,0.001,0.0081,9.8066,-0.0115,-0.0238,-0.023,2.38,-31.37,21.06,53.23,-84.94,-138.29
36533,52.421345,-1.534866,180.5,0.1,4,269.34,19 / 20,134710,2019-09-06 19:22:20:453,0.013,-0.225,9.9615,-0.0017,-0.0082,9.8066,0.016,-0.0174,-0.0207,2.31,-31.06,21.13,53.27,-84.94,-138.25
36534,52.421345,-1.534866,180.5,0.1,4,269.34,19 / 20,134809,2019-09-06 19:22:20:552,0.0885,0.2,10.005,0.0,-0.0014,9.8066,-0.0327,0.0393,0.0121,2.63,-31.87,20.63,56.16,-84.91,-138.47
36535,52.421345,-1.534866,180.5,0.1,4,269.34,19 / 20,134910,2019-09-06 19:22:20:653,0.0858,0.039,9.6518,-0.0014,-0.0142,9.8066,0.0255,0.0307,0.0205,2.63,-32.12,21.31,55.76,-84.85,-138.92
36536,52.421345,-1.534866,180.5,0.1,4,269.34,19 / 20,135009,2019-09-06 19:22:20:752,0.0093,-0.0576,10.1449,0.0016,0.0062,9.8066,0.0186,0.0291,0.0214,2.44,-31.44,21.31,52.02,-84.85,-139.51
36537,52.421345,-1.534866,180.5,0.1,4,269.34,19 / 20,135109,2019-09-06 19:22:20:852,-0.0118,0.2858,10.2319,0.0014,0.0077,9.8066,-0.0413,0.0403,0.0216,2.31,-31.75,20.81,52.23,-84.85,-139.52
36538,52.421345,-1.534866,180.5,0.1,4,269.34,19 / 20,135210,2019-09-06 19:22:20:953,-0.1346,0.3336,10.0039,-0.0019,-0.0082,9.8066,-0.033,0.0214,0.0316,1.94,-31.75,21.56,51.3,-84.81,-139.9
36539,52.421345,-1.534866,180.5,0.1,4,269.34,19 / 20,135309,2019-09-06 19:22:21:052,0.0514,0.2826,10.0042,-0.0022,-0.0062,9.8066,0.0002,-0.0356,-0.0062,2.5,-31.94,21.13,54.83,-84.8,-139.85
36540,52.421345,-1.534866,180.5,0.1,4,269.34,19 / 20,135410,2019-09-06 19:22:21:153,0.1258,-0.2327,9.6122,0.0021,0.0036,9.8066,0.0021,-0.0248,-0.0243,2.5,-31.62,20.81,54.82,-84.8,-139.85
36541,52.421345,-1.534866,180.5,0.1,4,269.34,19 / 20,135510,2019-09-06 19:22:21:253,0.0706,-0.2713,9.7182,-0.0006,-0.0043,9.8066,0.0238,-0.0201,-0.0265,2.75,-31.69,20.69,54.95,-84.83,-139.69
36542,52.421345,-1.534866,180.5,0.1,4,269.34,19 / 20,135610,2019-09-06 19:22:21:353,0.0847,-0.0302,10.0231,-0.0016,-0.0029,9.8066,0.0024,-0.0242,-0.0126,3.31,-30.75,20.88,54.7,-84.81,-139.75
36543,52.421345,-1.534866,180.5,0.1,4,269.34,19 / 20,135710,2019-09-06 19:22:21:453,0.0361,0.0032,9.6028,-0.0013,-0.0053,9.8066,0.0016,-0.0101,-0.0192,2.38,-31.62,21.38,51.92,-84.81,-139.85
36544,52.421345,-1.534866,180.5,0.1,4,269.34,19 / 20,135810,2019-09-06 19:22:21:553,0.0301,0.1176,10.0707,0.0009,0.0067,9.8066,0.0338,-0.0078,-0.0203,2.63,-31.56,21.0,55.07,-84.83,-139.58
36545,52.421345,-1.534866,180.5,0.1,4,269.34,19 / 20,135910,2019-09-06 19:22:21:653,-0.1667,0.0726,9.8843,-0.0025,-0.0057,9.8066,0.0387,-0.005,-0.0041,2.5,-31.69,21.81,54.22,-84.83,-139.71
36546,52.421345,-1.534866,180.5,0.1,4,269.34,19 / 20,136009,2019-09-06 19:22:21:752,-0.0258,-0.2838,9.8917,0.0008,-0.0046,9.8066,0.0003,0.0133,-0.0106,2.94,-31.25,20.88,54.49,-84.81,-139.94
36547,52.421345,-1.534866,180.5,0.1,4,269.34,19 / 20,136110,2019-09-06 19:22:21:853,0.0092,0.1796,10.0278,0.0001,0.0043,9.8066,0.0001,0.0046,0.0022,2.75,-30.94,21.0,54.58,-84.82,-139.86
36548,52.421345,-1.534866,180.5,0.1,4,269.34,19 / 20,136210,2019-09-06 19:22:21:953,0.1063,-0.1084,9.9484,0.0007,0.0038,9.8066,0.0217,0.0148,0.009,2.81,-31.44,20.81,54.57,-84.81,-139.88
36549,52.421345,-1.534866,180.5,0.1,4,269.34,19 / 20,136309,2019-09-06 19:22:22:052,0.0132,0.2091,10.0195,0.0005,0.003,9.8066,0.0078,0.0207,0.0035,2.06,-31.75,21.13,52.1,-84.82,-139.67
36550,52.421345,-1.534866,180.5,0.1,4,269.34,19 / 20,136409,2019-09-06 19:22:22:152,0.0299,0.2263,9.926,-0.0011,-0.0017,9.8066,0.0082,0.0225,0.0193,2.56,-31.19,21.0,54.66,-84.82,-139.78
36551,52.421345,-1.534866,180.5,0.1,4,269.34,19 / 20,136510,2019-09-06 19:22:22:253,0.1459,-0.1977,9.8184,0.0008,0.0019,9.8066,-0.0042,0.034,0.0154,2.38,-31.87,21.0,51.97,-84.82,-139.8
36552,52.421345,-1.534866,180.5,0.1,4,269.34,19 / 20,136609,2019-09-06 19:22:22:352,0.0544,0.1328,10.0542,0.0009,0.0035,9.8066,-0.0169,0.019,0.0215,2.63,-31.5,20.81,54.59,-84.82,-139.84
36553,52.421345,-1.534866,180.5,0.1,4,269.34,19 / 20,136709,2019-09-06 19:22:22:452,-0.0197,-0.3232,9.7348,0.0014,0.0021,9.8066,-0.0196,0.0342,0.0112,2.06,-31.87,21.13,52.06,-84.84,-139.69
36554,52.421345,-1.534866,180.5,0.1,4,269.34,19 / 20,136810,2019-09-06 19:22:22:553,-0.0155,-0.2362,9.9412,0.0004,0.0039,9.8066,-0.0269,0.0322,-0.0268,2.44,-31.75,21.0,51.69,-84.82,-140.05
36555,52.421345,-1.534866,180.5,0.1,4,269.34,19 / 20,136910,2019-09-06 19:22:22:653,-0.0706,-0.1475,10.1306,-0.0122,0.0041,9.8066,0.1359,-0.0223,-0.0138,2.63,-31.75,21.81,54.05,-84.91,-139.78
36556,52.421345,-1.534866,180.5,0.1,4,269.34,19 / 20,137009,2019-09-06 19:22:22:752,-0.3455,-0.1576,9.8674,0.0051,0.0206,9.8065,0.0553,-0.0506,-0.0544,1.94,-31.62,20.63,51.88,-84.82,-139.87
36557,52.421345,-1.534866,180.5,0.1,4,269.34,19 / 20,137110,2019-09-06 19:22:22:853,0.2108,0.2587,9.9503,0.0193,-0.0067,9.8066,-0.0027,-0.0008,-0.0997,3.0,-31.69,21.13,50.28,-84.94,-143.84
36558,52.421345,-1.534866,180.5,0.1,4,269.34,19 / 20,137209,2019-09-06 19:22:22:952,-0.0661,-0.1362,9.9832,-0.0071,-0.0188,9.8066,0.0455,-0.0529,-0.1517,2.94,-31.19,21.38,45.64,-84.91,-147.94
36559,52.421345,-1.534866,180.5,0.1,4,269.34,19 / 20,137310,2019-09-06 19:22:23:053,-0.3427,0.0745,10.0423,0.0318,0.0392,9.8065,-0.1027,-0.0393,-0.0726,2.56,-31.81,21.06,37.71,-85.28,-154.88
36560,52.421345,-1.534866,180.5,0.1,4,269.34,18 / 20,137409,2019-09-06 19:22:23:152,0.1088,-0.155,9.835,0.0366,0.0195,9.8066,-0.0642,-0.022,0.0039,3.31,-32.19,21.31,33.5,-85.79,-158.21
36561,52.421345,-1.534866,180.5,0.1,4,269.34,18 / 20,137509,2019-09-06 19:22:23:252,0.2562,0.0697,9.6439,0.0737,0.0133,9.8064,-0.0868,-0.0238,0.0509,3.88,-32.06,20.88,27.84,-86.46,-165.46
36562,52.421345,-1.534866,180.5,0.1,4,269.34,18 / 20,137610,2019-09-06 19:22:23:353,0.6158,-0.3141,9.798,0.0728,-0.0302,9.8063,-0.012,-0.0248,-0.0214,4.0,-32.69,21.13,28.04,-86.65,-165.21
36563,52.421345,-1.534866,180.5,0.1,4,269.34,18 / 20,137709,2019-09-06 19:22:23:452,0.9293,-0.3783,9.686,0.0404,0.0052,9.8065,0.0387,0.1048,-0.2857,4.19,-32.31,21.06,22.19,-86.72,-170.48
36564,52.421345,-1.534866,180.5,0.1,4,269.34,18 / 20,137809,2019-09-06 19:22:23:552,0.4974,-0.1833,9.7553,-0.0367,-0.0011,9.8066,0.0791,0.0518,-0.0642,4.13,-32.44,20.69,13.87,-86.7,-178.12
36565,52.421345,-1.534866,180.5,0.1,4,269.34,18 / 20,137909,2019-09-06 19:22:23:652,-0.3392,0.4536,9.5369,0.0706,0.0457,9.8062,-0.0549,-0.0109,-0.1057,4.06,-33.06,20.5,5.32,-86.64,174.05
36566,52.421345,-1.534866,180.5,0.1,4,269.34,18 / 20,138010,2019-09-06 19:22:23:753,-0.3255,0.0791,10.2251,0.0874,-0.0497,9.8061,-0.0357,-0.1061,-0.299,5.25,-32.31,21.19,352.74,-86.34,160.05
36567,52.421345,-1.534866,180.5,0.1,4,269.34,18 / 20,138109,2019-09-06 19:22:23:852,0.2922,0.0224,9.3728,-0.0855,-0.0521,9.806,0.3046,0.0844,0.4637,5.31,-32.0,21.25,339.91,-85.29,148.98
36568,52.421345,-1.534866,180.5,0.1,4,269.34,18 / 20,138210,2019-09-06 19:22:23:953,-0.3887,-0.0349,9.911,-0.0932,-0.0727,9.8059,0.0376,0.0182,0.0307,4.75,-31.5,21.81,2.71,-84.64,169.54
36569,52.421345,-1.534866,180.5,0.1,4,269.34,18 / 20,138310,2019-09-06 19:22:24:053,-0.0976,-0.1742,10.1714,-0.0068,0.003,9.8066,-0.0136,-0.0845,0.0457,4.63,-31.56,21.5,7.18,-84.43,173.36
36570,52.421345,-1.534866,180.5,0.1,4,269.34,18 / 19,138409,2019-09-06 19:22:24:152,-0.6187,-0.2436,10.0331,-0.0126,0.0348,9.8065,-0.05,-0.0123,0.0607,4.69,-31.62,21.94,9.34,-84.78,175.3
36571,52.421345,-1.534866,180.5,0.1,4,269.34,18 / 19,138509,2019-09-06 19:22:24:252,0.0955,-0.1472,9.8468,-0.0112,0.0159,9.8066,0.1376,0.0586,-0.0316,4.75,-31.69,21.13,12.91,-85.12,177.86
36572,52.421345,-1.534866,180.5,0.1,4,269.34,18 / 19,138609,2019-09-06 19:22:24:352,-0.1347,0.2861,9.984,-0.0009,0.016,9.8066,-0.0302,0.0487,0.0389,4.69,-31.5,22.0,11.47,-84.86,177.21
36573,52.421345,-1.534866,180.5,0.1,4,269.34,18 / 19,138710,2019-09-06 19:22:24:453,-0.0035,-0.3408,9.7531,-0.0025,-0.0087,9.8066,0.0386,0.0262,-0.0014,4.69,-31.94,21.31,12.46,-84.88,177.39
36574,52.421345,-1.534866,180.5,0.1,4,269.34,18 / 19,138809,2019-09-06 19:22:24:552,-0.012,-0.0011,10.201,0.0015,0.0014,9.8066,0.0407,0.0362,0.0186,4.31,-31.56,22.0,8.68,-84.83,177.22
36575,52.421345,-1.534866,180.5,0.1,4,269.34,18 / 19,138910,2019-09-06 19:22:24:653,-0.0084,-0.2218,9.6545,-0.0018,-0.0075,9.8066,-0.04,0.0369,0.0194,4.06,-31.37,21.69,8.75,-84.8,177.31
36576,52.421345,-1.534866,180.5,0.1,4,269.34,18 / 19,139010,2019-09-06 19:22:24:753,-0.1294,0.3631,9.9558,-0.0026,-0.0102,9.8066,-0.0505,0.019,0.0223,4.19,-31.37,22.06,8.84,-84.79,177.39
36577,52.421345,-1.534866,180.5,0.1,4,269.34,18 / 19,139111,2019-09-06 19:22:24:854,-0.0483,-0.172,9.681,0.003,0.011,9.8066,0.015,0.0208,0.0158,4.69,-31.87,21.44,12.56,-84.86,177.46
36578,52.421345,-1.534866,180.5,0.1,4,269.34,18 / 19,139209,2019-09-06 19:22:24:952,-0.1188,0.1547,10.0568,0.0011,0.0089,9.8066,-0.04,0.025,0.0126,4.5,-31.5,21.75,11.69,-84.87,177.41
36579,52.421345,-1.534866,180.5,0.1,4,269.34,18 / 19,139309,2019-09-06 19:22:25:052,-0.0443,0.1279,9.9638,-0.003,-0.0008,9.8066,0.0291,-0.0064,-0.0129,4.88,-31.69,21.56,11.7,-84.87,177.38
36580,52.421345,-1.534866,180.5,0.1,4,269.34,18 / 19,139409,2019-09-06 19:22:25:152,0.0002,-0.175,9.7653,0.0017,0.0023,9.8066,0.005,0.0067,0.0052,4.69,-31.12,21.75,11.92,-84.87,177.61
36581,52.421345,-1.534866,180.5,0.1,4,269.34,18 / 19,139509,2019-09-06 19:22:25:252,-0.0051,0.2605,10.0922,0.0019,0.0064,9.8066,-0.0015,-0.0094,0.0099,4.5,-31.5,21.75,11.74,-84.87,177.45
36582,52.421345,-1.534866,180.5,0.1,4,269.34,18 / 19,139610,2019-09-06 19:22:25:353,0.0088,0.0539,9.8822,0.0008,0.006,9.8066,-0.0272,-0.0157,0.0066,4.38,-31.56,21.69,9.09,-84.86,177.59
36583,52.421345,-1.534866,180.5,0.1,4,269.34,18 / 19,139710,2019-09-06 19:22:25:453,-0.0932,-0.3771,9.6803,-0.0027,-0.0073,9.8066,-0.0408,-0.0048,-0.0064,4.75,-31.5,21.56,11.96,-84.83,177.64
36584,52.421345,-1.534866,180.5,0.1,4,269.34,18 / 19,139810,2019-09-06 19:22:25:553,-0.1741,0.2176,9.9716,-0.0007,-0.0044,9.8066,-0.0251,-0.0233,0.0012,4.56,-31.06,21.38,12.7,-84.84,177.63
36585,52.421345,-1.534866,180.5,0.1,4,269.34,18 / 19,139910,2019-09-06 19:22:25:653,-0.0497,-0.2213,9.6625,0.0021,0.0052,9.8066,0.0058,-0.0168,-0.0152,4.69,-31.44,21.38,12.77,-84.83,177.69
36586,52.421345,-1.534866,180.5,0.1,4,269.34,18 / 19,140010,2019-09-06 19:22:25:753,0.0652,0.0395,10.0425,-0.0019,-0.0035,9.8066,-0.0243,-0.0251,-0.0089,4.5,-31.37,21.94,11.84,-84.87,177.55
36587,52.421345,-1.534866,180.5,0.1,4,269.34,18 / 19,140110,2019-09-06 19:22:25:853,-0.1578,0.1514,9.884,-0.0003,-0.004,9.8066,-0.0068,-0.0276,-0.0113,4.63,-31.44,20.88,12.72,-84.85,177.65
36588,52.421345,-1.534866,180.5,0.1,4,269.34,18 / 19,140210,2019-09-06 19:22:25:953,0.0213,-0.0961,9.6887,0.004,-0.0007,9.8066,-0.0024,0.0269,0.0247,5.0,-31.37,21.81,11.67,-84.86,177.39
36589,52.421345,-1.534866,180.5,0.1,4,269.34,18 / 19,140310,2019-09-06 19:22:26:053,-0.0732,-0.2956,9.6718,-0.0011,0.0032,9.8066,-0.0244,0.0273,-0.0032,3.88,-31.62,21.56,9.01,-84.86,177.52
36590,52.421345,-1.534866,180.5,0.1,4,269.34,18 / 19,140409,2019-09-06 19:22:26:152,-0.0532,-0.0198,10.0542,-0.0007,-0.0044,9.8066,-0.0299,0.0131,0.0191,4.5,-31.12,22.19,11.73,-84.83,177.44
36591,52.421345,-1.534866,180.5,0.1,4,269.34,18 / 19,140509,2019-09-06 19:22:26:252,-0.0084,0.1495,9.8732,-0.0015,-0.0036,9.8066,-0.0046,0.005,0.0043,4.63,-31.44,21.75,11.86,-84.84,177.56
36592,52.421345,-1.534866,180.5,0.1,4,269.34,18 / 19,140610,2019-09-06 19:22:26:353,-0.1398,0.1158,9.8271,0.0003,0.0047,9.8066,-0.0098,-0.005,0.0022,4.75,-31.37,21.5,11.8,-84.84,177.5
36593,52.421345,-1.534866,180.5,0.1,4,269.34,18 / 19,140710,2019-09-06 19:22:26:453,-0.0088,-0.3358,9.7181,0.0005,0.0054,9.8066,-0.019,-0.0166,0.0007,5.06,-31.06,21.75,12.0,-84.88,177.69
36594,52.421345,-1.534866,180.5,0.1,4,269.34,18 / 19,140809,2019-09-06 19:22:26:552,0.0361,0.2235,9.9374,-0.0025,-0.0034,9.8066,-0.0245,-0.0168,-0.0093,4.75,-31.81,21.5,12.16,-84.85,177.77
36595,52.421345,-1.534866,180.5,0.1,4,269.34,18 / 19,140910,2019-09-06 19:22:26:653,0.1404,-0.1368,9.8019,-0.0002,-0.0031,9.8066,0.0258,-0.0387,-0.0161,4.63,-31.94,21.75,12.19,-84.86,177.8
36596,52.421345,-1.534866,180.5,0.1,4,269.34,18 / 19,141009,2019-09-06 19:22:26:752,-0.0054,-0.1618,9.813,0.0002,0.0046,9.8066,0.0197,-0.0231,-0.022,4.19,-30.69,21.88,9.26,-84.88,177.78
36597,52.421345,-1.534866,180.5,0.1,4,269.34,18 / 19,141110,2019-09-06 19:22:26:853,-0.1415,0.0141,9.8147,-0.0003,-0.0031,9.8066,-0.0071,-0.0254,-0.0154,4.19,-31.69,21.94,9.29,-84.88,177.77
36598,52.421345,-1.534866,180.5,0.1,4,269.34,18 / 19,141209,2019-09-06 19:22:26:952,-0.0076,-0.0727,9.9752,0.0008,0.0001,9.8066,0.0158,-0.0191,-0.019,4.19,-31.81,21.75,9.36,-84.87,177.83
36599,52.421345,-1.534866,180.5,0.1,4,269.34,18 / 19,141309,2019-09-06 19:22:27:052,-0.0276,0.1619,10.0468,-0.0003,-0.0023,9.8066,-0.0064,-0.0275,-0.0211,4.19,-31.44,21.44,9.82,-84.85,177.73
36600,52.421345,-1.534866,180.5,0.1,4,269.34,18 / 19,141409,2019-09-06 19:22:27:152,-0.1898,-0.0891,9.7248,0.0019,0.0012,9.8066,0.0252,-0.0223,-0.0057,3.88,-31.94,21.75,9.1,-84.88,177.6
36601,52.421345,-1.534866,180.5,0.1,4,269.34,18 / 19,141510,2019-09-06 19:22:27:253,-0.1355,0.0123,10.0124,-0.001,-0.0002,9.8066,0.0019,-0.0086,-0.0182,4.81,-31.81,21.5,12.09,-84.88,177.72
36602,52.421345,-1.534866,180.5,0.1,4,269.34,18 / 19,141609,2019-09-06 19:22:27:352,0.015,0.2801,9.9416,0.0,-0.0003,9.8066,0.0063,-0.0115,-0.004,4.69,-31.69,21.63,12.01,-84.87,177.65
36603,52.421345,-1.534866,180.5,0.1,4,269.34,18 / 19,141710,2019-09-06 19:22:27:453,0.1055,-0.2059,9.7973,0.002,0.0002,9.8066,0.0345,0.0006,-0.0026,4.63,-31.44,21.44,12.74,-84.87,177.67
36604,52.421345,-1.534866,180.5,0.1,4,269.34,18 / 19,141809,2019-09-06 19:22:27:552,-0.0865,-0.2384,9.9177,-0.0001,-0.0007,9.8066,0.0209,0.0061,-0.0025,4.5,-31.19,22.06,11.85,-84.87,177.55
36605,52.421345,-1.534866,180.5,0.1,4,269.34,18 / 19,141909,2019-09-06 19:22:27:652,-0.0137,0.2006,9.9954,0.0014,-0.003,9.8066,0.0236,0.0179,-0.0013,4.5,-31.69,21.5,11.79,-84.87,177.45
36606,52.421345,-1.534866,180.5,0.1,4,269.34,18 / 19,142010,2019-09-06 19:22:27:753,0.0991,-0.2305,9.7156,0.0014,0.001,9.8066,-0.0076,0.0257,0.0034,4.25,-31.69,21.94,8.87,-84.86,177.4
36607,52.421345,-1.534866,180.5,0.1,4,269.34,18 / 19,142109,2019-09-06 19:22:27:852,-0.0036,0.1615,9.89,0.0019,0.0001,9.8066,0.0071,0.0209,0.0155,4.06,-31.06,21.69,8.53,-84.87,177.14
36608,52.421345,-1.534866,180.5,0.1,4,269.34,18 / 19,142209,2019-09-06 19:22:27:952,0.067,-0.2236,9.9475,0.0012,0.0051,9.8066,-0.0002,0.0225,0.0095,4.13,-31.44,21.75,8.7,-84.88,177.29
36609,52.421345,-1.534866,180.5,0.1,4,269.34,18 / 19,142309,2019-09-06 19:22:28:052,-0.0256,0.0097,9.7233,-0.0003,-0.0003,9.8066,-0.013,0.0242,0.0125,4.19,-31.75,21.25,9.43,-84.86,177.35
36610,52.421345,-1.534866,180.5,0.1,4,269.34,18 / 19,142409,2019-09-06 19:22:28:152,-0.0344,0.0227,10.0495,-0.0008,-0.0009,9.8066,-0.0176,0.0213,0.0137,4.5,-31.44,22.0,11.66,-84.87,177.39
36611,52.421345,-1.534866,180.5,0.1,4,269.34,18 / 19,142509,2019-09-06 19:22:28:252,-0.1358,0.1488,9.9437,0.0013,0.0008,9.8066,0.0272,-0.0061,-0.0051,4.13,-31.69,22.0,8.83,-84.88,177.37
36612,52.421345,-1.534866,180.5,0.1,4,269.34,18 / 19,142610,2019-09-06 19:22:28:353,-0.1095,0.1999,9.854,-0.0007,-0.0011,9.8066,0.0041,0.0112,-0.0191,4.5,-31.75,22.25,11.64,-84.88,177.33
36613,52.421345,-1.534866,180.5,0.1,4,269.34,18 / 19,142709,2019-09-06 19:22:28:452,-0.0313,-0.1951,9.8675,0.001,0.0032,9.8066,0.0147,-0.0083,0.0016,4.94,-31.37,22.44,11.51,-84.89,177.26
36614,52.421345,-1.534866,180.5,0.1,4,269.34,18 / 19,142809,2019-09-06 19:22:28:552,-0.1678,0.0966,9.9285,0.0,0.0033,9.8066,0.0266,0.0195,-0.0007,4.44,-31.31,21.69,8.71,-84.91,177.3
36615,52.421345,-1.534866,180.5,0.1,4,269.34,18 / 19,142909,2019-09-06 19:22:28:652,-0.0876,-0.3473,9.8684,-0.0007,-0.0019,9.8066,0.0239,0.0096,-0.0053,4.44,-31.69,22.0,8.76,-84.91,177.31
36616,52.421345,-1.534866,180.5,0.1,4,269.34,18 / 19,143009,2019-09-06 19:22:28:752,0.0247,0.2239,10.0308,0.0005,-0.0023,9.8066,0.0056,0.0057,0.0038,4.5,-31.44,21.38,12.29,-84.92,177.3
36617,52.421345,-1.534866,180.5,0.1,4,269.34,18 / 19,143110,2019-09-06 19:22:28:853,-0.0176,0.2144,9.7277,0.0007,0.0027,9.8066,-0.0433,-0.0121,-0.0027,4.75,-31.62,21.63,11.51,-84.92,177.22
36618,52.421345,-1.534866,180.5,0.1,4,269.34,18 / 19,143209,2019-09-06 19:22:28:952,-0.0438,0.0262,9.9639,0.0011,0.0045,9.8065,0.0209,0.0167,0.0066,4.81,-31.56,21.69,11.45,-84.94,177.18
36619,52.421345,-1.534866,180.5,0.1,4,269.34,18 / 19,143309,2019-09-06 19:22:29:052,-0.1562,-0.0981,9.743,-0.0006,0.0001,9.8066,0.0026,-0.0272,-0.0048,4.69,-31.56,21.44,12.33,-84.93,177.29
36620,52.421345,-1.534866,180.5,0.1,4,269.34,18 / 19,143409,2019-09-06 19:22:29:152,-0.146,-0.0102,10.0447,-0.001,-0.0048,9.8066,-0.0259,-0.0242,-0.0124,4.13,-31.69,21.81,8.91,-84.94,177.45
36621,52.421345,-1.534866,180.5,0.1,4,269.34,18 / 19,143509,2019-09-06 19:22:29:252,-0.0386,-0.0178,9.657,-0.0008,-0.004,9.8066,0.0129,-0.0256,-0.0153,4.81,-32.12,21.56,11.66,-84.92,177.35
36622,52.421345,-1.534866,180.5,0.1,4,269.34,18 / 19,143610,2019-09-06 19:22:29:353,0.0413,0.2238,10.1012,0.0016,0.004,9.8066,0.0137,-0.036,-0.0162,4.5,-31.81,21.13,12.4,-84.94,177.35
36623,52.421345,-1.534866,180.5,0.1,4,269.34,18 / 19,143709,2019-09-06 19:22:29:452,0.0148,-0.2693,9.652,0.0009,0.0011,9.8066,-0.0014,-0.025,-0.0158,4.19,-31.81,22.38,8.77,-84.93,177.32
36624,52.421345,-1.534866,180.5,0.1,4,269.34,18 / 19,143809,2019-09-06 19:22:29:552,0.0316,-0.2501,9.8897,-0.0012,-0.0018,9.8066,-0.0075,-0.0284,-0.0161,4.88,-31.37,21.69,11.58,-84.94,177.34
36625,52.421345,-1.534866,180.5,0.1,4,269.34,18 / 19,143910,2019-09-06 19:22:29:653,-0.0648,0.044,9.7098,0.0002,0.0001,9.8066,-0.0047,0.0211,0.0101,4.19,-31.56,21.5,8.87,-84.94,177.42
36626,52.421345,-1.534866,180.5,0.1,4,269.34,18 / 19,144010,2019-09-06 19:22:29:753,-0.0274,0.1328,9.9966,0.0014,-0.0005,9.8065,0.0201,-0.0074,-0.0186,4.19,-31.25,21.69,8.56,-84.94,177.18
36627,52.421345,-1.534866,180.5,0.1,4,269.34,18 / 19,144109,2019-09-06 19:22:29:852,0.0568,-0.2685,9.8626,-0.0019,-0.0037,9.8066,0.0272,-0.0019,-0.0032,4.19,-31.87,21.31,9.18,-84.95,177.16
36628,52.421345,-1.534866,180.5,0.1,4,269.34,18 / 19,144209,2019-09-06 19:22:29:952,-0.164,0.1955,10.0229,0.0005,-0.0028,9.8066,0.0013,0.0191,-0.0026,4.38,-31.19,21.94,8.51,-84.93,177.14
36629,52.421345,-1.534866,180.5,0.1,4,269.34,18 / 19,144310,2019-09-06 19:22:30:053,-0.0559,-0.2243,9.7091,0.0005,0.0033,9.8066,0.0142,0.0101,0.0136,4.25,-31.62,21.75,8.77,-84.92,177.33
36630,52.421345,-1.534866,180.5,0.1,4,269.34,18 / 19,144410,2019-09-06 19:22:30:153,-0.0244,-0.3803,9.812,0.0006,0.0031,9.8066,-0.0014,0.0365,0.007,4.5,-31.81,21.44,12.24,-84.94,177.22
36631,52.421345,-1.534866,180.5,0.1,4,269.34,18 / 19,144509,2019-09-06 19:22:30:252,-0.1484,0.1682,10.0372,-0.0009,-0.0032,9.8066,-0.0139,0.0318,0.0108,4.94,-31.37,21.69,11.57,-84.91,177.32
36632,52.421345,-1.534866,180.5,0.1,4,269.34,18 / 19,144610,2019-09-06 19:22:30:353,-0.059,0.0539,9.7329,-0.0011,-0.0031,9.8066,-0.0047,0.0247,0.0214,3.94,-31.75,22.06,8.75,-84.92,177.31
36633,52.421345,-1.534866,180.5,0.1,4,269.34,18 / 19,144710,2019-09-06 19:22:30:453,-0.2286,-0.2304,9.692,0.0027,0.0015,9.8066,-0.0052,0.0143,0.0072,4.63,-31.69,22.25,11.66,-84.92,177.36
36634,52.421345,-1.534866,180.5,0.1,4,269.34,18 / 19,144810,2019-09-06 19:22:30:553,-0.0387,-0.2974,9.8418,-0.001,0.0001,9.8066,-0.0201,0.0018,0.0108,4.75,-31.25,21.5,11.38,-84.93,177.16
36635,52.421345,-1.534866,180.5,0.1,4,269.34,18 / 19,144909,2019-09-06 19:22:30:652,0.0109,0.1539,10.0575,0.0002,-0.0001,9.8066,-0.0301,0.0021,0.0048,4.63,-31.44,21.44,12.05,-84.94,177.1
36636,52.421345,-1.534866,180.5,0.1,4,269.34,18 / 19,145009,2019-09-06 19:22:30:752,-0.1405,0.0148,9.8208,0.0008,-0.0001,9.8066,-0.0059,-0.0217,-0.0032,4.31,-31.5,21.44,8.99,-84.93,177.02
36637,52.421345,-1.534866,180.5,0.1,4,269.34,18 / 19,145110,2019-09-06 19:22:30:853,-0.0447,-0.3901,9.7121,-0.0004,-0.0032,9.8066,0.0052,-0.0131,-0.0123,4.56,-31.56,21.81,11.2,-84.92,176.95
36638,52.421345,-1.534866,180.5,0.1,4,269.34,18 / 19,145210,2019-09-06 19:22:30:953,0.0152,0.2556,9.9915,0.0005,-0.0033,9.8066,-0.033,-0.027,-0.0136,4.69,-31.5,21.94,11.14,-84.91,176.95
36639,52.421345,-1.534866,180.5,0.1,4,269.34,18 / 19,145309,2019-09-06 19:22:31:052,-0.0076,-0.04,9.5955,0.0004,0.0029,9.8066,0.0079,-0.0361,-0.0088,4.25,-31.37,21.75,8.27,-84.94,176.93
36640,52.421345,-1.534866,180.5,0.1,4,269.34,18 / 19,145410,2019-09-06 19:22:31:153,-0.0598,0.0853,10.062,0.0003,0.0036,9.8066,0.0126,-0.022,-0.0192,4.19,-31.06,22.38,8.57,-84.93,177.19
36641,52.421345,-1.534866,180.5,0.1,4,269.34,18 / 19,145510,2019-09-06 19:22:31:253,0.0168,0.1669,10.0565,0.0007,0.0035,9.8066,-0.0231,-0.0307,-0.0213,4.5,-31.69,21.56,11.41,-84.94,177.15
36642,52.421345,-1.534866,180.5,0.1,4,269.34,18 / 19,145609,2019-09-06 19:22:31:352,-0.0813,0.1457,9.7674,-0.0001,-0.0011,9.8066,-0.0024,-0.0286,-0.0187,4.25,-31.5,22.0,8.63,-84.92,177.23
36643,52.421345,-1.534866,180.5,0.1,4,269.34,18 / 19,145709,2019-09-06 19:22:31:452,-0.0519,-0.1369,9.9325,-0.0006,-0.0042,9.8066,-0.0038,0.0331,0.0183,4.0,-31.56,22.0,8.66,-84.9,177.22
36644,52.421345,-1.534866,180.5,0.1,4,269.34,18 / 19,145809,2019-09-06 19:22:31:552,-0.161,-0.052,9.7728,0.0024,0.0026,9.8066,-0.012,0.0266,0.0121,4.25,-31.87,21.69,8.56,-84.92,177.14
36645,52.421345,-1.534866,180.5,0.1,4,269.34,18 / 19,145910,2019-09-06 19:22:31:653,-0.0201,-0.3661,9.7542,0.0027,-0.0047,9.8066,-0.0271,0.0158,0.0172,4.63,-31.44,22.06,11.07,-84.88,176.88
36646,52.421345,-1.534866,180.5,0.1,4,269.34,18 / 19,146009,2019-09-06 19:22:31:752,0.064,0.0376,10.0398,-0.0026,-0.0068,9.8066,-0.0349,0.0235,0.0044,4.63,-31.87,21.63,11.25,-84.87,176.98
36647,52.421345,-1.534866,180.5,0.1,4,269.34,18 / 19,146109,2019-09-06 19:22:31:852,0.0551,-0.1753,9.5653,-0.0009,0.003,9.8066,-0.0059,-0.0036,0.0069,4.56,-31.06,21.69,11.02,-84.87,176.83
36648,52.421345,-1.534866,180.5,0.1,4,269.34,18 / 19,146210,2019-09-06 19:22:31:953,-0.07,-0.243,9.9111,0.0016,0.0051,9.8066,-0.0313,-0.0064,0.0098,4.38,-31.62,22.0,8.38,-84.88,176.98
36649,52.421345,-1.534866,180.5,0.1,4,269.34,18 / 19,146310,2019-09-06 19:22:32:053,0.0347,0.224,10.018,-0.0026,-0.0075,9.8065,-0.0432,-0.0075,-0.0075,4.13,-31.87,21.81,8.44,-84.84,177.02
36650,52.421345,-1.534866,180.5,0.1,4,269.34,18 / 19,146409,2019-09-06 19:22:32:152,0.1036,-0.1381,9.7076,-0.001,-0.0057,9.8066,0.0156,-0.0253,-0.0106,4.56,-31.75,21.88,11.39,-84.86,177.1
36651,52.421345,-1.534866,180.5,0.1,4,269.34,18 / 19,146509,2019-09-06 19:22:32:252,-0.0296,0.0603,9.9088,-0.0006,0.0062,9.8066,0.0238,-0.0154,-0.0158,4.19,-31.81,21.75,8.6,-84.9,177.17
36652,52.421345,-1.534866,180.5,0.1,4,269.34,18 / 19,146611,2019-09-06 19:22:32:354,-0.0273,-0.4257,9.8279,-0.0027,-0.0046,9.8066,-0.0275,-0.0298,-0.0182,4.06,-31.0,21.94,8.57,-84.89,177.18
36653,52.421345,-1.534866,180.5,0.1,4,269.34,18 / 19,146710,2019-09-06 19:22:32:453,0.0166,-0.2756,9.8383,0.0,-0.0036,9.8066,-0.0195,-0.0312,-0.0167,4.5,-31.56,21.44,12.43,-84.89,177.36
36654,52.421345,-1.534866,180.5,0.1,4,269.34,18 / 19,146809,2019-09-06 19:22:32:552,-0.0575,-0.0946,9.637,-0.0015,-0.0045,9.8066,0.0189,-0.028,-0.0205,5.13,-31.44,21.94,11.57,-84.86,177.3
36655,52.421345,-1.534866,180.5,0.1,4,269.34,18 / 19,146909,2019-09-06 19:22:32:652,-0.021,-0.2452,9.7251,0.0002,0.0023,9.8066,0.0188,-0.028,-0.0213,4.31,-31.56,22.06,8.87,-84.88,177.4
36656,52.421345,-1.534866,180.5,0.1,4,269.34,18 / 19,147010,2019-09-06 19:22:32:753,-0.0441,-0.0581,10.0063,0.0017,0.0045,9.8066,0.0011,-0.0267,-0.0188,4.56,-31.75,22.0,11.67,-84.89,177.35
36657,52.421345,-1.534866,180.5,0.1,4,269.34,18 / 19,147109,2019-09-06 19:22:32:852,0.8133,0.8268,9.5005,-0.0003,-0.0052,9.8066,0.1342,0.0126,0.2002,4.75,-31.81,21.94,11.64,-84.89,177.33
36658,52.421345,-1.534866,180.5,0.1,4,269.34,18 / 19,147211,2019-09-06 19:22:32:954,-0.3937,-0.0174,9.8549,-0.0171,-0.0232,9.8066,0.1042,-0.0383,-0.0243,4.25,-31.06,22.63,11.46,-84.31,-179.96
36659,52.421345,-1.534866,180.5,0.1,4,269.34,18 / 19,147309,2019-09-06 19:22:33:052,0.0462,0.8347,9.3666,0.0348,0.1061,9.806,0.0537,-0.0171,0.0016,3.88,-31.12,21.5,9.4,-84.7,177.85
36660,52.421345,-1.534866,180.5,0.1,4,269.34,18 / 19,147410,2019-09-06 19:22:33:153,0.2178,-0.3216,9.9876,-0.0071,-0.0214,9.8066,0.2599,0.0105,0.213,4.25,-30.25,22.31,9.75,-84.18,178.07
36661,52.421345,-1.534866,180.5,0.1,4,269.34,18 / 19,147509,2019-09-06 19:22:33:252,-0.4506,-0.5063,10.2404,-0.0012,-0.0569,9.8065,-0.1635,0.0584,-0.0286,3.88,-30.44,22.69,14.0,-82.64,-178.26
36662,52.421345,-1.534866,180.5,0.1,4,269.34,18 / 19,147610,2019-09-06 19:22:33:353,-0.1081,0.0098,9.8123,-0.0506,0.0478,9.8064,0.0442,0.0207,0.0392,3.88,-31.06,22.88,17.83,-83.29,-174.88
36663,52.421345,-1.534866,180.5,0.1,4,269.34,18 / 19,147709,2019-09-06 19:22:33:452,0.3897,-0.017,9.8964,-0.0238,0.0068,9.8065,-0.0284,0.0228,0.0355,3.69,-30.87,22.88,18.99,-83.02,-174.02
36664,52.421345,-1.534866,180.5,0.1,4,269.34,18 / 19,147809,2019-09-06 19:22:33:552,-0.463,0.0437,9.885,-0.0147,-0.0156,9.8065,0.0725,0.0077,0.0382,3.5,-30.19,22.75,22.0,-82.95,-171.4
36665,52.421345,-1.534866,180.5,0.1,4,269.34,18 / 19,147910,2019-09-06 19:22:33:653,0.0581,-0.2483,9.9375,-0.0217,-0.0216,9.8065,-0.0053,-0.0028,0.1039,3.5,-29.81,23.0,21.64,-82.63,-171.88
36666,52.421345,-1.534866,180.5,0.1,4,269.34,18 / 19,148009,2019-09-06 19:22:33:752,0.6332,0.0301,9.7196,-0.0327,0.0488,9.8064,0.0431,0.0705,0.0237,2.94,-30.06,22.19,25.52,-82.69,-166.68
36667,52.421345,-1.534866,180.5,0.1,4,269.34,18 / 19,148110,2019-09-06 19:22:33:853,0.5991,-0.1122,9.838,0.0203,-0.0429,9.8064,0.0718,0.0255,0.0776,3.06,-29.62,23.19,27.0,-82.15,-165.25
36668,52.421345,-1.534866,180.5,0.1,4,269.34,18 / 19,148210,2019-09-06 19:22:33:953,0.0796,0.0037,9.8829,-0.01,0.0103,9.8066,-0.0629,0.0158,0.0181,2.63,-29.81,23.25,28.1,-81.59,-164.72
36669,52.421345,-1.534866,180.5,0.1,4,269.34,18 / 19,148310,2019-09-06 19:22:34:053,0.7416,0.0136,9.5614,0.0217,-0.0215,9.8066,-0.0815,0.0294,0.2037,2.63,-29.87,23.19,28.08,-81.54,-164.76
36670,52.421345,-1.534866,180.5,0.1,4,269.34,18 / 19,148409,2019-09-06 19:22:34:152,-0.4083,0.0123,10.1142,-0.0304,0.0001,9.8066,0.0883,0.0318,-0.0211,2.31,-29.12,23.19,29.78,-81.64,-160.67
36671,52.421345,-1.534866,180.5,0.1,4,269.34,18 / 19,148510,2019-09-06 19:22:34:253,-0.2039,0.3296,9.7178,-0.0359,0.0202,9.8065,-0.0809,0.0401,0.0154,1.69,-29.87,23.25,30.21,-81.3,-160.74
36672,52.421345,-1.534866,180.5,0.1,4,269.34,18 / 19,148609,2019-09-06 19:22:34:352,-0.054,0.1819,9.8557,0.0363,-0.0439,9.8064,0.0452,-0.0211,-0.1211,2.56,-29.5,23.06,32.0,-81.29,-161.5
36673,52.421345,-1.534866,180.5,0.1,4,269.34,18 / 19,148710,2019-09-06 19:22:34:453,0.2079,-0.5289,10.0538,0.07,-0.0357,9.8062,-0.1741,-0.0248,-0.0768,3.13,-29.5,23.38,24.64,-81.23,-167.61
36674,52.421345,-1.534866,180.5,0.1,4,269.34,18 / 19,148810,2019-09-06 19:22:34:553,-0.0209,0.3118,9.8202,0.0396,0.0542,9.8064,-0.1751,-0.015,-0.0351,3.44,-29.94,22.88,21.91,-81.94,-169.6
36675,52.421345,-1.534866,180.5,0.1,4,269.34,18 / 19,148909,2019-09-06 19:22:34:652,-0.022,-0.0907,9.608,0.0172,0.0155,9.8065,-0.0076,0.0017,0.0032,3.19,-29.75,23.44,19.62,-82.45,-171.24
36676,52.421345,-1.534866,180.5,0.1,4,269.34,18 / 19,149010,2019-09-06 19:22:34:753,-0.1045,0.0824,9.7192,0.0035,0.0025,9.8066,-0.0004,-0.0157,-0.0229,3.25,-29.87,22.31,19.06,-82.69,-172.07
36677,52.421345,-1.534866,180.5,0.1,4,269.34,18 / 19,149109,2019-09-06 19:22:34:852,0.159,-0.1211,9.9022,0.0022,0.0036,9.8066,0.0164,-0.0405,-0.0058,3.56,-30.31,22.44,21.94,-82.72,-172.17
36678,52.421345,-1.534866,180.5,0.1,4,269.34,18 / 19,149210,2019-09-06 19:22:34:953,-0.1207,0.1345,10.0203,-0.0002,0.0017,9.8066,-0.0179,-0.0254,-0.021,3.5,-30.56,22.75,21.37,-82.75,-172.16
36679,52.421345,-1.534866,180.5,0.1,4,269.34,19 / 20,149310,2019-09-06 19:22:35:053,-0.0928,0.1321,9.8029,0.0,-0.0003,9.8066,-0.0096,-0.0378,-0.0151,3.69,-30.62,23.06,21.38,-82.76,-172.14
36680,52.421345,-1.534866,180.5,0.1,4,269.34,19 / 20,149409,2019-09-06 19:22:35:152,0.0288,-0.0933,9.6628,0.0,-0.0015,9.8066,0.0215,-0.0361,-0.0134,3.31,-30.37,22.69,18.41,-82.76,-172.11
36681,52.421345,-1.534866,180.5,0.1,4,269.34,19 / 20,149509,2019-09-06 19:22:35:252,0.0088,-0.1834,9.7336,-0.0006,0.0041,9.8066,0.0166,-0.0234,-0.0255,3.75,-30.31,22.75,21.28,-82.77,-172.11
36682,52.421345,-1.534866,180.5,0.1,4,269.34,19 / 20,149609,2019-09-06 19:22:35:352,0.0209,0.2533,10.0075,0.0008,0.002,9.8066,0.0042,-0.0274,-0.0148,3.69,-30.0,22.81,21.34,-82.8,-172.05
36683,52.421345,-1.534866,180.5,0.1,4,269.34,19 / 20,149710,2019-09-06 19:22:35:453,-0.1093,-0.0843,9.6133,0.0001,0.0006,9.8066,0.0131,-0.0133,-0.016,3.44,-29.87,21.63,19.04,-82.79,-172.03
36684,52.421345,-1.534866,180.5,0.1,4,269.34,19 / 20,149809,2019-09-06 19:22:35:552,-0.1083,-0.2313,9.7408,0.0011,0.0005,9.8066,0.004,-0.021,-0.0097,3.63,-30.44,22.88,21.26,-82.81,-172.11
36685,52.421345,-1.534866,180.5,0.1,4,269.34,19 / 20,149910,2019-09-06 19:22:35:653,-0.1583,0.1682,9.9431,0.0024,-0.0009,9.8066,0.0312,-0.0174,-0.008,3.25,-30.12,22.19,18.86,-82.81,-172.18
36686,52.421345,-1.534866,180.5,0.1,4,269.34,19 / 20,150010,2019-09-06 19:22:35:753,-0.0753,-0.2256,9.8808,0.0003,0.0011,9.8066,-0.0273,0.0034,0.0062,3.56,-30.37,22.81,21.22,-82.82,-172.13
36687,52.421345,-1.534866,180.5,0.1,4,269.34,19 / 20,150109,2019-09-06 19:22:35:852,-0.0898,0.1641,9.7981,0.0007,0.0015,9.8066,-0.0023,-0.0011,-0.001,3.81,-30.37,23.25,21.09,-82.83,-172.23
36688,52.421345,-1.534866,180.5,0.1,4,269.34,19 / 20,150210,2019-09-06 19:22:35:953,-0.1569,0.0744,9.8529,0.0007,0.0021,9.8066,-0.0009,-0.0151,0.0,3.69,-29.81,22.69,21.18,-82.83,-172.16
36689,52.421345,-1.534866,180.5,0.1,4,269.34,19 / 20,150310,2019-09-06 19:22:36:053,-0.0091,0.0311,9.8089,-0.0007,-0.0012,9.8066,-0.0227,-0.0167,-0.0011,3.56,-30.56,22.06,21.89,-82.83,-172.27
36690,52.421345,-1.534866,180.5,0.1,4,269.34,18 / 20,150409,2019-09-06 19:22:36:152,-0.1878,0.032,9.7667,0.0003,-0.001,9.8066,0.0109,0.0161,0.0088,3.44,-30.31,22.75,18.25,-82.83,-172.21
36691,52.421345,-1.534866,180.5,0.1,4,269.34,18 / 20,150509,2019-09-06 19:22:36:252,-0.0874,0.0529,9.7455,0.0007,-0.0028,9.8066,-0.0054,-0.0268,-0.0089,3.56,-30.12,22.5,21.17,-82.81,-172.18
36692,52.421345,-1.534866,180.5,0.1,4,269.34,18 / 20,150610,2019-09-06 19:22:36:353,-0.0622,-0.1537,9.7608,0.0016,0.0024,9.8066,0.0033,-0.0226,-0.0165,3.06,-30.12,22.5,18.25,-82.81,-172.22
36693,52.421345,-1.534866,180.5,0.1,4,269.34,18 / 20,150710,2019-09-06 19:22:36:453,-0.0813,0.2366,10.0068,0.0,0.003,9.8066,0.0067,-0.0328,-0.0093,3.56,-30.25,22.5,21.03,-82.83,-172.29
36694,52.421345,-1.534866,180.5,0.1,4,269.34,18 / 20,150809,2019-09-06 19:22:36:552,-0.0687,-0.2931,9.8032,0.0007,-0.0023,9.8066,-0.0131,-0.0261,-0.0171,2.75,-30.25,22.56,18.19,-82.81,-172.27
36695,52.421345,-1.534866,180.5,0.1,4,269.34,18 / 20,150910,2019-09-06 19:22:36:653,-0.0564,0.2082,9.8868,-0.0004,-0.0016,9.8066,-0.0113,-0.0297,-0.0153,3.44,-30.69,22.75,18.27,-82.82,-172.3
36696,52.421345,-1.534866,180.5,0.1,4,269.34,18 / 20,151010,2019-09-06 19:22:36:753,0.0785,-0.1812,9.8499,0.0013,0.0017,9.8065,0.0134,-0.0421,-0.0149,3.56,-30.0,22.81,20.91,-82.83,-172.39
36697,52.421345,-1.534866,180.5,0.1,4,269.34,18 / 20,151109,2019-09-06 19:22:36:852,-0.0193,-0.0082,9.8198,-0.0009,0.0006,9.8066,0.0145,-0.0252,-0.0263,3.06,-30.94,22.31,18.74,-82.82,-172.38
36698,52.421345,-1.534866,180.5,0.1,4,269.34,18 / 20,151210,2019-09-06 19:22:36:953,-0.0391,0.8026,9.3665,-0.0038,0.0142,9.8066,-0.1862,-0.0224,-0.0439,3.31,-30.44,22.38,18.55,-82.83,-172.43
36699,52.421345,-1.534866,180.5,0.1,4,269.34,18 / 20,151309,2019-09-06 19:22:37:052,-0.1256,0.5464,9.3845,-0.0095,-0.0633,9.8064,-0.2489,-0.0366,0.0333,3.44,-30.44,22.75,17.96,-82.66,-172.53
36700,52.421345,-1.534866,180.5,0.1,4,269.34,18 / 20,151410,2019-09-06 19:22:37:153,-0.1331,0.1684,10.0287,0.0053,0.0324,9.8065,-0.1282,0.02,-0.0156,3.38,-30.69,22.31,19.43,-83.16,-171.64
36701,52.421345,-1.534866,180.5,0.1,4,269.34,18 / 20,151511,2019-09-06 19:22:37:254,0.1885,-0.1057,9.8216,0.0204,0.0507,9.8064,-0.0738,-0.002,0.0009,3.75,-31.19,21.75,21.85,-84.51,-171.38
36702,52.421345,-1.534866,180.5,0.1,4,269.34,18 / 20,151610,2019-09-06 19:22:37:353,-0.052,-0.013,9.8634,0.0142,0.0512,9.8064,-0.1086,0.0034,-0.0056,3.81,-31.75,21.88,22.96,-85.0,-170.22
36703,52.421345,-1.534866,180.5,0.1,4,269.34,18 / 20,151709,2019-09-06 19:22:37:452,-0.0802,0.2105,9.8088,0.0085,0.0419,9.8065,-0.1522,0.0236,-0.0107,4.13,-32.0,21.19,24.9,-85.52,-168.78
36704,52.421345,-1.534866,180.5,0.1,4,269.34,18 / 20,151810,2019-09-06 19:22:37:553,0.043,-0.2143,9.7612,0.0038,0.0234,9.8065,-0.047,-0.0153,0.0033,3.56,-32.44,20.94,25.73,-86.0,-167.7
36705,52.421345,-1.534866,180.5,0.1,4,269.34,18 / 20,151910,2019-09-06 19:22:37:653,0.0553,0.5042,9.6498,0.0147,0.0652,9.8064,-0.1093,-0.0111,0.0039,4.0,-32.25,20.75,27.46,-86.51,-165.78
36706,52.421345,-1.534866,180.5,0.1,4,269.34,18 / 20,152009,2019-09-06 19:22:37:752,0.2712,-0.0179,9.9211,0.0082,0.0456,9.8065,-0.0851,-0.029,0.0172,3.88,-32.37,20.38,30.03,-86.87,-163.77
36707,52.421345,-1.534866,180.5,0.1,4,269.34,18 / 20,152109,2019-09-06 19:22:37:852,-0.2643,0.1694,9.67,0.0053,0.0314,9.8066,-0.0174,-0.0321,-0.0177,3.56,-32.75,19.94,32.99,-87.36,-160.68
36708,52.421345,-1.534866,180.5,0.1,4,269.34,18 / 20,152209,2019-09-06 19:22:37:952,-0.1752,0.4022,9.7981,0.0221,0.0829,9.8062,-0.002,-0.0136,-0.0237,3.38,-33.69,19.06,37.55,-88.04,-153.55
36709,52.421345,-1.534866,180.5,0.1,4,269.34,18 / 20,152310,2019-09-06 19:22:38:053,0.0595,0.1042,9.9059,0.0012,0.0201,9.8066,-0.0057,-0.0325,-0.0128,3.44,-33.75,19.75,42.54,-88.45,-147.76
36710,52.421345,-1.534866,180.5,0.1,4,269.34,18 / 20,152410,2019-09-06 19:22:38:153,0.1603,-0.0492,10.058,-0.0064,-0.0233,9.8065,-0.016,-0.0369,-0.0062,3.75,-33.81,19.88,45.02,-88.42,-148.17
36711,52.421345,-1.534866,180.5,0.1,4,269.34,18 / 20,152510,2019-09-06 19:22:38:253,-0.229,-0.2481,9.865,0.0034,0.0162,9.8066,-0.2358,-0.0277,-0.0141,3.75,-33.81,19.31,49.94,-88.53,-143.93
36712,52.421345,-1.534866,180.5,0.1,4,269.34,18 / 20,152610,2019-09-06 19:22:38:353,0.0123,0.3069,9.7027,0.0259,0.078,9.8063,0.1667,-0.0239,-0.0117,4.69,-34.06,18.63,102.78,-89.17,-93.36
36713,52.421345,-1.534866,180.5,0.1,4,269.34,18 / 20,152709,2019-09-06 19:22:38:452,0.215,0.0088,9.9548,0.0,-0.0064,9.8066,-0.0554,-0.0076,-0.0143,3.81,-34.06,19.63,74.21,-89.07,-118.6
36714,52.421345,-1.534866,180.5,0.1,4,269.34,18 / 20,152809,2019-09-06 19:22:38:552,0.0631,0.117,9.9835,0.0008,0.0044,9.8066,-0.1887,-0.0141,-0.0332,3.25,-35.0,18.81,78.58,-89.13,-111.95
36715,52.421345,-1.534866,180.5,0.1,4,269.34,18 / 20,152909,2019-09-06 19:22:38:652,-0.1626,0.5358,9.7182,0.0182,0.0738,9.8063,-0.1475,-0.0126,-0.0038,3.5,-34.81,18.31,152.94,-88.82,-40.6
36716,52.421345,-1.534866,180.5,0.1,4,269.34,18 / 20,153010,2019-09-06 19:22:38:753,-0.2251,-0.0625,9.7703,-0.0134,-0.0686,9.8064,0.1557,-0.0326,-0.0016,3.38,-34.25,19.0,137.85,-89.03,-52.28
36717,52.421345,-1.534866,180.5,0.1,4,269.34,18 / 20,153110,2019-09-06 19:22:38:853,-0.1639,0.0649,9.5681,-0.025,-0.0838,9.8062,0.3206,-0.0345,0.0006,3.94,-33.5,19.88,89.56,-89.15,-103.13
36718,52.421345,-1.534866,180.5,0.1,4,269.34,18 / 20,153209,2019-09-06 19:22:38:952,-0.0904,-0.4651,9.7993,-0.042,-0.1669,9.8051,0.3692,0.036,0.0091,3.88,-32.69,21.25,33.33,-87.35,-159.73
36719,52.421345,-1.534866,180.5,0.1,4,269.34,19 / 21,153309,2019-09-06 19:22:39:052,-0.0842,-0.28,9.7352,-0.0077,-0.0752,9.8063,0.0546,0.0201,0.036,3.63,-31.94,21.06,25.08,-85.52,-168.61
36720,52.421345,-1.534866,180.5,0.1,4,269.34,19 / 21,153409,2019-09-06 19:22:39:152,-0.267,0.3307,9.7967,0.0001,-0.0314,9.8065,-0.0489,0.0074,0.0734,3.88,-31.5,21.81,23.43,-85.13,-169.63
36721,52.421345,-1.534866,180.5,0.1,4,269.34,19 / 21,153509,2019-09-06 19:22:39:252,-0.0717,0.1456,9.5838,0.0039,0.013,9.8065,0.0504,0.0149,0.0005,4.06,-31.0,21.38,23.97,-85.1,-169.78
36722,52.421345,-1.534866,180.5,0.1,4,269.34,19 / 21,153610,2019-09-06 19:22:39:353,-0.0407,-0.2412,9.8188,-0.0022,-0.0123,9.8066,0.0442,0.018,0.0004,3.69,-31.5,21.13,23.82,-85.12,-169.9
36723,52.421345,-1.534866,180.5,0.1,4,269.34,19 / 21,153710,2019-09-06 19:22:39:453,-0.2105,0.0051,9.9409,-0.001,-0.0088,9.8066,0.0405,-0.0089,0.0033,3.5,-31.0,22.0,22.89,-85.03,-170.17
36724,52.421345,-1.534866,180.5,0.1,4,269.34,19 / 21,153810,2019-09-06 19:22:39:553,-0.0862,-0.2241,9.9275,-0.0002,-0.0058,9.8066,-0.0313,-0.0052,0.006,3.88,-31.62,21.81,22.9,-85.01,-170.26
36725,52.421345,-1.534866,180.5,0.1,4,269.34,19 / 21,153910,2019-09-06 19:22:39:653,-0.1451,0.0445,9.7113,0.0003,0.0007,9.8066,0.0149,-0.0136,-0.0159,3.56,-31.56,21.44,23.62,-84.99,-170.25
36726,52.421345,-1.534866,180.5,0.1,4,269.34,19 / 21,154009,2019-09-06 19:22:39:752,-0.1306,-0.0217,9.7988,0.0003,0.0008,9.8066,0.0052,-0.0285,-0.0111,3.88,-31.81,21.63,22.85,-84.99,-170.31
36727,52.421345,-1.534866,180.5,0.1,4,269.34,19 / 21,154110,2019-09-06 19:22:39:853,-0.0498,0.0816,10.0604,-0.0019,-0.0026,9.8066,0.0043,0.0245,0.0044,4.0,-31.19,21.38,23.39,-84.98,-170.36
36728,52.421345,-1.534866,180.5,0.1,4,269.34,19 / 21,154210,2019-09-06 19:22:39:953,-0.0897,0.0287,9.6867,0.001,-0.0011,9.8066,0.0068,0.0265,0.0173,3.5,-31.56,21.31,23.5,-84.96,-170.37
36729,52.421345,-1.534866,180.5,0.1,4,269.34,19 / 21,154310,2019-09-06 19:22:40:053,-0.1423,0.0794,10.0703,-0.0007,-0.0003,9.8066,-0.0039,0.0331,0.013,3.44,-31.19,21.25,20.39,-84.95,-170.38
36730,52.421345,-1.534866,180.5,0.1,4,269.34,19 / 20,154409,2019-09-06 19:22:40:152,0.0082,-0.1659,9.6817,0.0014,0.0031,9.8066,-0.005,0.0182,0.0163,3.81,-31.62,21.56,22.73,-84.96,-170.44
36731,52.421345,-1.534866,180.5,0.1,4,269.34,19 / 20,154510,2019-09-06 19:22:40:253,0.0718,0.2265,10.0727,-0.0009,-0.0045,9.8066,-0.011,0.0361,0.0102,3.56,-31.81,21.25,23.43,-84.89,-170.48
36732,52.421345,-1.534866,180.5,0.1,4,269.34,19 / 20,154609,2019-09-06 19:22:40:352,-0.1042,0.0578,9.7007,0.001,-0.0025,9.8066,-0.0043,0.0192,0.0244,3.75,-31.62,21.44,23.25,-84.89,-170.63
36733,52.421345,-1.534866,180.5,0.1,4,269.34,19 / 20,154710,2019-09-06 19:22:40:453,-0.0792,-0.1753,9.705,0.0004,0.0016,9.8066,-0.0079,0.02,0.0134,4.19,-31.62,21.63,22.55,-84.87,-170.65
36734,52.421345,-1.534866,180.5,0.1,4,269.34,19 / 20,154810,2019-09-06 19:22:40:553,-0.1133,0.1984,9.9741,-0.0017,-0.0028,9.8066,-0.0204,0.0258,0.0049,3.63,-31.56,22.0,22.57,-84.87,-170.63
36735,52.421345,-1.534866,180.5,0.1,4,269.34,19 / 20,154909,2019-09-06 19:22:40:652,-0.2126,0.1225,9.9052,0.0014,0.0,9.8066,-0.0093,0.005,0.0234,2.94,-31.81,21.25,20.19,-84.87,-170.69
36736,52.421345,-1.534866,180.5,0.1,4,269.34,19 / 20,155009,2019-09-06 19:22:40:752,-0.044,-0.1243,9.823,-0.0011,-0.0027,9.8066,-0.016,0.0053,-0.0015,3.69,-31.25,21.81,22.48,-84.86,-170.63
36737,52.421345,-1.534866,180.5,0.1,4,269.34,19 / 20,155110,2019-09-06 19:22:40:853,-0.1139,0.1263,9.9555,0.0009,0.0024,9.8066,-0.0029,0.0003,0.0046,3.63,-31.5,21.5,22.38,-84.86,-170.71
36738,52.421345,-1.534866,180.5,0.1,4,269.34,19 / 20,155209,2019-09-06 19:22:40:952,-0.033,-0.3435,9.8191,0.0003,0.0031,9.8066,-0.032,0.0009,0.0171,3.44,-32.06,21.56,19.6,-84.86,-170.72
36739,52.421345,-1.534866,180.5,0.1,4,269.34,19 / 20,155310,2019-09-06 19:22:41:053,-0.1309,-0.1974,9.6576,-0.0012,-0.0021,9.8066,-0.0345,0.0093,0.0023,3.81,-31.25,21.56,22.44,-84.85,-170.67
36740,52.421345,-1.534866,180.5,0.1,4,269.34,19 / 21,155410,2019-09-06 19:22:41:153,0.097,-0.1962,9.8658,0.0005,-0.003,9.8066,-0.0049,0.0017,0.0041,4.0,-31.37,21.25,23.06,-84.84,-170.73
36741,52.421345,-1.534866,180.5,0.1,4,269.34,19 / 21,155510,2019-09-06 19:22:41:253,-0.0295,0.153,10.0851,0.0003,0.0053,9.8066,0.0077,-0.0014,0.0055,3.63,-31.5,21.5,22.43,-84.86,-170.67
36742,52.421345,-1.534866,180.5,0.1,4,269.34,19 / 21,155610,2019-09-06 19:22:41:353,-0.2008,0.0171,9.8324,-0.0001,0.0045,9.8066,-0.0352,-0.0073,-0.0086,3.88,-31.81,21.13,23.35,-84.86,-170.57
36743,52.421345,-1.534866,180.5,0.1,4,269.34,19 / 21,155709,2019-09-06 19:22:41:452,-0.0692,-0.1147,9.9745,0.0008,-0.004,9.8066,-0.0141,-0.0225,0.0042,3.94,-31.81,21.19,23.25,-84.82,-170.68
36744,52.421345,-1.534866,180.5,0.1,4,269.34,19 / 21,155810,2019-09-06 19:22:41:553,-0.0473,-0.0165,9.9627,-0.0016,-0.0053,9.8066,0.0052,-0.013,-0.0142,3.44,-31.44,21.81,19.55,-84.81,-170.72
36745,52.421345,-1.534866,180.5,0.1,4,269.34,19 / 21,155911,2019-09-06 19:22:41:654,0.1488,-0.1574,9.79,0.0011,0.0057,9.8066,0.0127,-0.0303,-0.0041,3.69,-31.75,21.63,22.56,-84.85,-170.65
36746,52.421345,-1.534866,180.5,0.1,4,269.34,19 / 21,156009,2019-09-06 19:22:41:752,-0.0408,-0.3052,9.8276,-0.0005,0.0044,9.8066,-0.0188,-0.0243,-0.0127,3.31,-31.19,21.75,19.77,-84.86,-170.49
36747,52.421345,-1.534866,180.5,0.1,4,269.34,19 / 21,156110,2019-09-06 19:22:41:853,-0.0528,0.1771,9.866,-0.0013,-0.0048,9.8066,-0.0138,-0.027,-0.0172,3.13,-31.25,21.5,19.68,-84.87,-170.57
36748,52.421345,-1.534866,180.5,0.1,4,269.34,19 / 21,156209,2019-09-06 19:22:41:952,0.1051,-0.1261,9.6805,-0.0007,-0.0017,9.8065,0.0329,-0.0307,-0.0088,4.06,-31.62,21.5,22.69,-84.85,-170.55
36749,52.421345,-1.534866,180.5,0.1,4,269.34,19 / 21,156311,2019-09-06 19:22:42:054,-0.0218,-0.0903,9.7409,0.0022,-0.002,9.8066,0.0211,-0.013,-0.0206,3.69,-31.25,21.63,22.44,-84.86,-170.66
36750,52.421345,-1.534866,180.5,0.1,4,269.34,19 / 21,156409,2019-09-06 19:22:42:152,0.0569,0.0407,10.0404,-0.0029,-0.0047,9.8066,0.0019,-0.0039,-0.0003,3.88,-31.44,21.25,23.17,-84.82,-170.65
36751,52.421345,-1.534866,180.5,0.1,4,269.34,19 / 21,156509,2019-09-06 19:22:42:252,-0.0912,0.162,9.8195,-0.0005,-0.0043,9.8066,-0.0312,-0.0021,0.0073,3.63,-31.44,21.5,22.51,-84.83,-170.62
36752,52.421345,-1.534866,180.5,0.1,4,269.34,19 / 21,156610,2019-09-06 19:22:42:353,-0.0606,-0.1149,9.6998,0.0008,0.0066,9.8066,0.0023,-0.0073,-0.0057,3.69,-31.56,21.81,22.71,-84.86,-170.51
36753,52.421345,-1.534866,180.5,0.1,4,269.34,19 / 21,156709,2019-09-06 19:22:42:452,-0.0851,0.2842,10.0259,0.0002,0.0034,9.8066,0.0011,-0.0263,-0.0038,3.63,-31.19,21.63,22.49,-84.86,-170.62
36754,52.421345,-1.534866,180.5,0.1,4,269.34,19 / 21,156809,2019-09-06 19:22:42:552,-0.0341,-0.291,9.8189,-0.0002,-0.0021,9.8066,-0.0119,-0.0231,-0.0114,3.69,-31.5,21.38,23.13,-84.85,-170.67
36755,52.421345,-1.534866,180.5,0.1,4,269.34,19 / 21,156910,2019-09-06 19:22:42:653,-0.0532,0.1212,10.0484,-0.0008,-0.0031,9.8066,-0.0197,-0.0237,-0.0161,3.75,-31.81,21.75,22.52,-84.84,-170.69
36756,52.421345,-1.534866,180.5,0.1,4,269.34,19 / 21,157010,2019-09-06 19:22:42:753,-0.1609,0.043,9.8809,0.0007,0.0008,9.8066,0.0231,-0.0355,-0.0105,3.69,-31.75,21.69,22.48,-84.85,-170.73
36757,52.421345,-1.534866,180.5,0.1,4,269.34,19 / 21,157110,2019-09-06 19:22:42:853,0.0231,-0.3175,9.7157,0.0002,0.0007,9.8066,-0.0204,0.0199,0.0209,3.44,-31.69,21.88,19.63,-84.85,-170.7
36758,52.421345,-1.534866,180.5,0.1,4,269.34,19 / 21,157210,2019-09-06 19:22:42:953,-0.0775,-0.1185,9.6436,-0.0012,-0.0032,9.8066,0.0004,0.0305,0.017,3.81,-31.25,21.81,22.21,-84.83,-170.88
36759,52.421345,-1.534866,180.5,0.1,4,269.34,19 / 21,157313,2019-09-06 19:22:43:056,0.083,-0.0534,9.9604,0.0004,-0.0016,9.8066,-0.001,0.0145,0.0145,3.69,-31.06,21.81,22.18,-84.83,-170.91
36760,52.421345,-1.534866,180.5,0.1,4,269.34,19 / 21,157409,2019-09-06 19:22:43:152,-0.0099,-0.0388,9.7892,0.0008,0.0009,9.8066,-0.0204,0.0138,0.016,3.56,-31.56,21.38,22.77,-84.83,-171.09
36761,52.421345,-1.534866,180.5,0.1,4,269.34,20 / 22,157510,2019-09-06 19:22:43:253,-0.0539,-0.3878,9.6704,-0.0003,-0.0042,9.8065,-0.0177,0.027,0.0103,3.5,-31.5,21.75,21.91,-84.84,-171.15
36762,52.421345,-1.534866,180.5,0.1,4,269.34,20 / 22,157610,2019-09-06 19:22:43:353,-0.1251,0.0517,10.0371,-0.0004,-0.002,9.8066,-0.0092,0.0082,0.0092,4.19,-31.56,21.63,22.01,-84.82,-171.16
36763,52.421345,-1.534866,180.5,0.1,4,269.34,20 / 22,157710,2019-09-06 19:22:43:453,-0.0608,0.1775,9.998,-0.0001,-0.0026,9.8066,-0.0099,0.0211,0.009,3.81,-31.5,21.94,21.67,-84.8,-171.38
36764,52.421345,-1.534866,180.5,0.1,4,269.34,20 / 22,157809,2019-09-06 19:22:43:552,-0.1109,-0.0617,9.7034,0.0002,0.0012,9.8066,-0.0247,0.0254,0.0134,3.94,-31.94,21.69,21.71,-84.81,-171.42
36765,52.421345,-1.534866,180.5,0.1,4,269.34,20 / 22,157910,2019-09-06 19:22:43:653,-0.0501,-0.2994,9.7971,-0.0002,0.0006,9.8066,-0.0251,0.0008,0.0169,3.88,-30.75,21.44,22.36,-84.81,-171.36
36766,52.421345,-1.534866,180.5,0.1,4,269.34,20 / 22,158009,2019-09-06 19:22:43:752,0.0407,0.1679,10.0486,0.0004,0.0011,9.8066,-0.0011,0.0061,0.0015,3.5,-31.62,21.63,21.76,-84.82,-171.37
36767,52.421345,-1.534866,180.5,0.1,4,269.34,20 / 22,158109,2019-09-06 19:22:43:852,0.0957,-0.1877,9.6242,0.001,0.0017,9.8066,0.0013,-0.0123,0.0068,3.5,-31.81,21.88,21.72,-84.82,-171.4
36768,52.421345,-1.534866,180.5,0.1,4,269.34,20 / 22,158210,2019-09-06 19:22:43:953,-0.032,-0.0236,9.827,-0.0002,-0.0025,9.8066,-0.0347,-0.0106,-0.0013,3.81,-31.25,21.75,21.52,-84.82,-171.5
36769,52.421345,-1.534866,180.5,0.1,4,269.34,20 / 22,158310,2019-09-06 19:22:44:053,-0.0966,0.089,9.724,-0.0005,-0.0029,9.8066,-0.0237,-0.0185,-0.0039,3.81,-31.62,21.38,22.26,-84.8,-171.56
36770,52.421345,-1.534866,180.5,0.1,4,269.34,20 / 21,158409,2019-09-06 19:22:44:152,0.0685,-0.2725,9.6424,0.0006,0.0006,9.8066,-0.0016,-0.0205,-0.0084,3.56,-31.87,21.63,21.54,-84.8,-171.58
36771,52.421345,-1.534866,180.5,0.1,4,269.34,20 / 21,158510,2019-09-06 19:22:44:253,-0.0537,0.0514,9.9891,-0.0002,0.0006,9.8066,0.0075,-0.0201,-0.0114,4.0,-31.44,21.5,21.41,-84.8,-171.6
36772,52.421345,-1.534866,180.5,0.1,4,269.34,20 / 21,158609,2019-09-06 19:22:44:352,0.0443,0.0386,10.0281,0.0005,-0.0019,9.8066,-0.0238,-0.0247,-0.0138,3.38,-31.44,21.63,18.53,-84.78,-171.62
36773,52.421345,-1.534866,180.5,0.1,4,269.34,20 / 21,158710,2019-09-06 19:22:44:453,-0.1349,0.2348,9.8716,-0.0006,-0.0028,9.8066,-0.0206,-0.0258,-0.0123,3.88,-31.25,21.56,21.38,-84.78,-171.64
36774,52.421345,-1.534866,180.5,0.1,4,269.34,20 / 21,158809,2019-09-06 19:22:44:552,-0.0849,-0.0223,9.6262,0.0011,0.0035,9.8065,0.0235,-0.0257,-0.0211,3.56,-31.75,21.88,21.55,-84.77,-171.58
36775,52.421345,-1.534866,180.5,0.1,4,269.34,20 / 21,158909,2019-09-06 19:22:44:652,-0.1113,-0.3042,9.6879,0.0008,0.0051,9.8066,0.0278,-0.0279,-0.0091,3.63,-31.81,21.44,22.23,-84.8,-171.58
36776,52.421345,-1.534866,180.5,0.1,4,269.34,20 / 21,159009,2019-09-06 19:22:44:752,-0.1355,-0.043,9.9827,-0.0004,-0.0042,9.8066,-0.016,0.0188,0.0249,3.63,-31.56,21.88,21.5,-84.79,-171.62
36777,52.421345,-1.534866,180.5,0.1,4,269.34,20 / 21,159109,2019-09-06 19:22:44:852,-0.1385,-0.0129,9.6673,-0.0005,0.0034,9.8066,-0.0134,0.0143,0.0055,3.56,-31.94,21.69,21.56,-84.76,-171.58
36778,52.421345,-1.534866,180.5,0.1,4,269.34,20 / 21,159209,2019-09-06 19:22:44:952,0.0796,-0.2012,9.7656,0.0015,0.0039,9.8066,-0.0086,0.0039,0.0048,3.75,-31.25,21.5,21.47,-84.78,-171.57
36779,52.421345,-1.534866,180.5,0.1,4,269.34,20 / 21,159310,2019-09-06 19:22:45:053,-0.0591,0.0321,9.8552,0.001,0.0054,9.8066,0.0217,-0.0071,-0.0101,4.13,-31.37,21.13,22.16,-84.78,-171.56
36780,52.421345,-1.534866,180.5,0.1,4,269.34,19 / 21,159409,2019-09-06 19:22:45:152,0.0437,-0.1748,9.9282,-0.0019,-0.0022,9.8066,0.01,0.0143,0.012,3.69,-31.5,21.5,21.49,-84.76,-171.56
36781,52.421345,-1.534866,180.5,0.1,4,269.34,19 / 21,159510,2019-09-06 19:22:45:253,-0.0968,0.075,9.7197,0.0009,0.004,9.8066,0.0008,0.0261,-0.0049,4.06,-31.12,21.81,21.54,-84.77,-171.51
36782,52.421345,-1.534866,180.5,0.1,4,269.34,19 / 21,159609,2019-09-06 19:22:45:352,-0.0148,-0.0865,9.7597,0.0007,0.0024,9.8066,0.0138,0.023,0.0114,3.63,-31.75,21.63,21.65,-84.79,-171.49
36783,52.421345,-1.534866,180.5,0.1,4,269.34,19 / 21,159710,2019-09-06 19:22:45:453,-0.0558,-0.3372,9.7226,-0.0014,-0.0028,9.8066,0.009,0.0302,0.0129,3.5,-31.25,21.38,22.1,-84.79,-171.6
36784,52.421345,-1.534866,180.5,0.1,4,269.34,19 / 21,159809,2019-09-06 19:22:45:552,-0.1413,0.1243,10.0434,0.0008,-0.0018,9.8066,0.0075,0.0207,0.0113,3.69,-31.25,21.81,21.46,-84.78,-171.57
36785,52.421345,-1.534866,180.5,0.1,4,269.34,19 / 21,159910,2019-09-06 19:22:45:653,-0.0601,0.1469,10.0743,-0.0009,0.0006,9.8066,0.0062,0.0287,0.0233,3.25,-31.25,21.31,19.2,-84.77,-171.51
36786,52.421345,-1.534866,180.5,0.1,4,269.34,19 / 21,160010,2019-09-06 19:22:45:753,-0.1146,-0.248,9.6738,0.0013,0.0017,9.8066,-0.0072,0.0301,0.0092,3.25,-31.62,21.25,19.21,-84.78,-171.58
36787,52.421345,-1.534866,180.5,0.1,4,269.34,19 / 21,160110,2019-09-06 19:22:45:853,-0.0442,-0.1295,9.9269,-0.0012,0.0,9.8066,-0.028,0.0258,0.0199,4.0,-31.25,21.38,22.16,-84.77,-171.57
36788,52.421345,-1.534866,180.5,0.1,4,269.34,19 / 21,160210,2019-09-06 19:22:45:953,0.0374,0.3212,10.066,-0.0002,0.0002,9.8066,0.0008,0.0217,0.0225,3.75,-31.0,21.13,22.09,-84.78,-171.62
36789,52.421345,-1.534866,180.5,0.1,4,269.34,19 / 21,160310,2019-09-06 19:22:46:053,-0.1131,0.0696,9.6954,0.0002,-0.001,9.8066,-0.0031,0.0327,0.0118,3.06,-31.06,21.69,18.52,-84.76,-171.64
36790,52.421345,-1.534866,180.5,0.1,4,269.34,19 / 19,160410,2019-09-06 19:22:46:153,-0.0388,-0.3631,9.759,0.0011,0.0019,9.8066,-0.0202,0.0206,0.0201,3.75,-31.12,21.19,22.06,-84.77,-171.66
36791,52.421345,-1.534866,180.5,0.1,4,269.34,19 / 19,160510,2019-09-06 19:22:46:253,0.0596,0.067,10.0535,0.0019,0.0006,9.8066,-0.0319,0.0206,0.0032,3.94,-31.5,21.25,21.89,-84.76,-171.81
36792,52.421345,-1.534866,180.5,0.1,4,269.34,19 / 19,160610,2019-09-06 19:22:46:353,-0.1081,0.2748,9.9454,-0.0001,-0.0007,9.8065,-0.0056,0.0024,0.0099,4.13,-31.75,21.94,21.4,-84.77,-171.71
36793,52.421345,-1.534866,180.5,0.1,4,269.34,19 / 19,160709,2019-09-06 19:22:46:452,-0.0254,-0.082,9.8512,-0.0001,-0.0021,9.8066,-0.0077,0.0128,0.007,3.38,-31.56,21.56,18.36,-84.75,-171.86
36794,52.421345,-1.534866,180.5,0.1,4,269.34,19 / 19,160810,2019-09-06 19:22:46:553,-0.197,0.0925,9.88,0.0011,-0.0001,9.8066,-0.0347,0.0009,-0.0047,3.5,-31.62,21.5,21.23,-84.74,-171.88
36795,52.421345,-1.534866,180.5,0.1,4,269.34,19 / 19,160909,2019-09-06 19:22:46:652,-0.1052,-0.2078,9.9134,-0.0011,-0.0015,9.8065,-0.0289,-0.0185,0.0025,3.69,-31.75,21.75,21.12,-84.74,-171.98
36796,52.421345,-1.534866,180.5,0.1,4,269.34,19 / 19,161009,2019-09-06 19:22:46:752,-0.1206,0.1347,9.752,0.0005,0.0015,9.8066,-0.0016,-0.0103,-0.0097,3.38,-31.31,21.44,18.67,-84.74,-171.99
36797,52.421345,-1.534866,180.5,0.1,4,269.34,19 / 19,161110,2019-09-06 19:22:46:853,0.0813,0.0039,9.9791,0.0007,-0.0016,9.8066,0.0051,-0.0269,-0.0055,3.81,-31.44,21.81,21.02,-84.74,-171.98
36798,52.421345,-1.534866,180.5,0.1,4,269.34,19 / 19,161209,2019-09-06 19:22:46:952,-0.1552,0.0871,10.0363,-0.0008,-0.0031,9.8066,-0.0229,-0.0253,-0.0095,3.38,-31.5,21.44,18.52,-84.73,-172.12
36799,52.421345,-1.534866,180.5,0.1,4,269.34,19 / 19,161310,2019-09-06 19:22:47:053,-0.0275,0.2465,9.8955,0.0,-0.0042,9.8066,-0.0183,-0.0269,-0.0147,4.0,-31.56,21.19,21.63,-84.73,-172.14
36800,52.421345,-1.534866,180.5,0.1,4,269.34,19 / 19,161410,2019-09-06 19:22:47:153,0.0491,-0.14,9.6051,-0.0008,0.002,9.8066,-0.0111,-0.0195,-0.0149,3.5,-30.81,21.75,20.84,-84.73,-172.14
36801,52.421345,-1.534866,180.5,0.1,4,269.34,19 / 19,161509,2019-09-06 19:22:47:252,-0.0625,0.2504,10.0696,0.0007,0.002,9.8066,0.0218,-0.0157,-0.0222,3.56,-31.5,21.31,21.61,-84.74,-172.06
36802,52.421345,-1.534866,180.5,0.1,4,269.34,19 / 19,161610,2019-09-06 19:22:47:353,-0.1785,-0.1348,9.7029,-0.0014,-0.0029,9.8066,0.0289,-0.023,-0.007,3.94,-31.25,21.56,20.97,-84.75,-172.02
36803,52.421345,-1.534866,180.5,0.1,4,269.34,19 / 19,161709,2019-09-06 19:22:47:452,-0.2023,0.0687,10.0018,-0.0009,-0.0036,9.8066,-0.0055,0.0019,-0.0171,3.75,-30.87,21.06,21.69,-84.74,-172.0
36804,52.421345,-1.534866,180.5,0.1,4,269.34,19 / 19,161810,2019-09-06 19:22:47:553,0.0059,0.2597,10.1025,-0.0004,0.0022,9.8066,0.0192,0.0028,0.0113,3.0,-31.06,21.56,18.35,-84.74,-171.79
36805,52.421345,-1.534866,180.5,0.1,4,269.34,19 / 19,161909,2019-09-06 19:22:47:652,-0.2148,-0.0316,9.7726,0.0028,0.0053,9.8066,0.0061,0.0168,-0.0027,4.13,-31.0,21.75,21.04,-84.77,-171.95
36806,52.421345,-1.534866,180.5,0.1,4,269.34,19 / 19,162009,2019-09-06 19:22:47:752,-0.0897,-0.4058,9.7548,-0.0009,-0.0057,9.8066,0.0201,0.0143,0.0131,3.5,-31.25,21.56,21.3,-84.76,-171.72
36807,52.421345,-1.534866,180.5,0.1,4,269.34,19 / 19,162110,2019-09-06 19:22:47:853,0.0015,0.2254,10.0711,-0.0009,-0.0035,9.8066,-0.006,0.0228,0.013,3.44,-31.44,21.75,18.36,-84.74,-171.79
36808,52.421345,-1.534866,180.5,0.1,4,269.34,19 / 19,162209,2019-09-06 19:22:47:952,-0.2115,0.0383,9.8526,0.001,0.0017,9.8066,-0.001,0.0317,0.0095,3.19,-31.44,21.63,18.3,-84.76,-171.83
36809,52.421345,-1.534866,180.5,0.1,4,269.34,19 / 19,162310,2019-09-06 19:22:48:053,-0.0123,-0.2761,9.7493,-0.0008,0.0018,9.8066,-0.0103,0.0196,0.0264,3.31,-30.56,21.44,18.83,-84.75,-171.85
36810,52.421345,-1.534866,180.5,0.1,4,269.34,19 / 20,162409,2019-09-06 19:22:48:152,-0.0923,-0.147,9.7022,-0.0003,-0.0023,9.8066,-0.0079,0.0279,0.0108,4.0,-31.25,21.56,20.98,-84.76,-172.0
36811,52.421345,-1.534866,180.5,0.1,4,269.34,19 / 20,162509,2019-09-06 19:22:48:252,-0.038,0.1211,10.0103,-0.0018,-0.0004,9.8066,-0.0126,0.0156,0.0164,3.25,-31.25,21.81,18.27,-84.75,-171.86
36812,52.421345,-1.534866,180.5,0.1,4,269.34,19 / 20,162609,2019-09-06 19:22:48:352,-0.0581,0.1532,9.9802,0.0006,0.0008,9.8066,-0.0095,0.0183,0.0065,3.81,-31.31,21.75,20.95,-84.75,-172.03
36813,52.421345,-1.534866,180.5,0.1,4,269.34,19 / 20,162709,2019-09-06 19:22:48:452,-0.0656,0.2296,9.9669,0.0,0.0015,9.8066,-0.0218,0.0179,0.0077,3.94,-31.25,21.56,20.95,-84.75,-172.04
36814,52.421345,-1.534866,180.5,0.1,4,269.34,19 / 20,162810,2019-09-06 19:22:48:553,-0.0127,-0.0981,9.6121,-0.0001,-0.0005,9.8066,-0.0147,0.0055,0.0098,3.56,-31.19,22.13,21.11,-84.76,-171.89
