,GPS LATITUDE (degrees), GPS LONGITUDE (degrees), GPS ALTITUDE (m), GPS SPEED (Kmh), GPS ACCURACY (m), GPS ORIENTATION (Â°),GPS SATELLITES IN RANGE, TIME SINCE START (ms), DATE (YYYY-MO-DD HH-MI-SS_SSS), ACCELEROMETER X (m/s²) , ACCELEROMETER Y (m/s²), ACCELEROMETER Z (m/s²), GRAVITY X (m/s²), GRAVITY Y (m/s²), GRAVITY Z (m/s²), GYROSCOPE Yaw (rad/s), GYROSCOPE Pitch (rad/s), GYROSCOPE Roll (rad/s), MAGNETIC FIELD X (Î¼T), MAGNETIC FIELD Y (Î¼T), MAGNETIC FIELD Z (Î¼T), ORIENTATION (Yaw) (Â°), ORIENTATION (Pitch) (Â°), ORIENTATION (Roll ) (Â°)
72310,51.104446,-2.990979,57,24.56,9,215.5,14 / 22,7231373,2019-08-16 14:49:45:153,0.1664,0.2813,9.6472,-0.0145,0.0155,9.8066,0.0011,0.0347,0.0176,-18.34,22.45,-7.73,229.2,7.75,0.45
72311,51.104446,-2.990979,57,24.56,9,215.5,14 / 22,7231473,2019-08-16 14:49:45:253,-0.1879,0.1537,9.9277,-0.0067,0.0037,9.8066,0.0011,0.0347,0.0176,-17.7,22.38,-9.25,228.95,7.76,0.57
72312,51.104446,-2.990979,57,24.56,9,215.5,14 / 22,7231573,2019-08-16 14:49:45:353,0.2625,0.3857,9.5468,-0.0265,0.0134,9.8066,-0.0011,-0.0346,0.0218,-17.72,22.41,-9.14,228.95,7.76,0.57
72313,51.104446,-2.990979,57,24.56,9,215.5,14 / 22,7231673,2019-08-16 14:49:45:453,-0.1652,-0.3597,9.4708,-0.0454,-0.0074,9.8065,-0.0043,0.0432,-0.0059,-17.72,21.86,-10.4,228.72,7.55,0.75
72314,51.104267,-2.991175,57,24.57,9,215.3,14 / 22,7231772,2019-08-16 14:49:45:552,-0.413,-0.5596,10.0955,-0.0026,-0.0059,9.8066,-0.0181,-0.025,0.0101,-17.75,21.89,-10.29,228.73,7.52,0.73
72315,51.104267,-2.991175,57,24.57,9,215.3,14 / 22,7231873,2019-08-16 14:49:45:653,0.0829,-0.1221,9.2495,0.0026,0.0051,9.8066,0.0032,0.0134,0.008,-17.75,21.89,-10.29,228.73,7.52,0.73
72316,51.104267,-2.991175,57,24.57,9,215.3,14 / 22,7231973,2019-08-16 14:49:45:753,0.1905,0.3246,10.2226,0.017,0.0317,9.8066,0.016,0.0048,-0.0027,-17.4,22.2,-10.21,230.18,7.72,0.78
72317,51.104267,-2.991175,57,24.57,9,215.3,14 / 22,7232073,2019-08-16 14:49:45:853,0.0595,-0.2992,9.7197,0.0035,-0.0191,9.8066,-0.0277,0.0251,0.0026,-17.72,21.86,-10.4,228.64,7.86,0.83
72318,51.104267,-2.991175,57,24.57,9,215.3,14 / 22,7232173,2019-08-16 14:49:45:953,0.0028,-0.5676,9.5407,0.0075,-0.0475,9.8065,-0.0213,0.0155,0.0101,-16.93,22.31,-10.76,228.64,7.86,0.83
72319,51.104267,-2.991175,57,24.57,9,215.3,14 / 22,7232272,2019-08-16 14:49:46:052,-0.0489,-0.3703,10.2235,0.0204,-0.0414,9.8065,-0.0213,0.0155,0.0101,-16.93,22.31,-10.76,228.64,7.86,0.83
72320,51.104267,-2.991175,57,24.57,9,215.3,14 / 22,7232373,2019-08-16 14:49:46:153,0.0202,-0.0172,9.4226,-0.0029,0.0186,9.8066,0.0138,-0.0442,-0.0027,-17.87,22.6,-8.37,230.42,7.76,0.58
72321,51.104267,-2.991175,57,24.57,9,215.3,14 / 22,7232472,2019-08-16 14:49:46:252,-0.1268,0.2461,9.7807,-0.0134,0.0167,9.8066,0.0138,-0.0122,-0.0006,-18.18,22.25,-8.64,228.91,7.78,0.7
72322,51.104267,-2.991175,57,24.57,9,215.3,14 / 22,7232573,2019-08-16 14:49:46:353,-0.1529,0.0324,10.3336,-0.0022,-0.0125,9.8066,-0.0117,0.0219,0.0005,-18.31,22.25,-8.36,229.15,7.72,0.66
72323,51.104267,-2.991175,57,24.57,9,215.3,14 / 22,7232673,2019-08-16 14:49:46:453,-0.042,-0.1421,9.7735,0.0245,-0.0038,9.8066,0.0053,0.007,-0.0048,-18.31,22.25,-8.36,229.15,7.72,0.66
72324,51.10409,-2.991379,57,24.58,9,215.3,14 / 22,7232773,2019-08-16 14:49:46:553,-0.0395,0.1081,9.4982,0.0246,-0.0008,9.8066,0.0224,0.0272,0.0016,-17.25,22.73,-9.27,231.7,7.81,0.55
72325,51.10409,-2.991379,57,24.58,9,215.3,14 / 22,7232872,2019-08-16 14:49:46:652,-0.3393,0.1419,10.117,-0.0286,-0.0129,9.8066,0.0224,0.0272,0.0016,-18.18,22.1,-9.01,231.7,7.81,0.55
72326,51.10409,-2.991379,57,24.58,9,215.3,14 / 22,7232973,2019-08-16 14:49:46:753,-0.1922,-0.2434,10.1965,-0.0534,-0.028,9.8065,0.0202,0.0208,-0.0016,-18.18,22.1,-9.01,231.7,7.81,0.55
72327,51.10409,-2.991379,57,24.58,9,215.3,14 / 22,7233073,2019-08-16 14:49:46:853,0.2668,0.1069,10.131,0.0423,0.0152,9.8065,0.0,-0.0623,0.0069,-18.34,21.57,-9.92,228.75,7.49,0.69
72328,51.10409,-2.991379,57,24.58,9,215.3,14 / 22,7233172,2019-08-16 14:49:46:952,-0.3278,-0.1523,9.1661,0.0034,0.0362,9.8066,-0.0128,-0.0026,-0.0112,-17.73,22.06,-9.95,228.75,7.72,0.57
72329,51.10409,-2.991379,57,24.58,9,215.3,14 / 22,7233273,2019-08-16 14:49:47:053,0.4109,0.2872,10.145,0.0025,0.0062,9.8066,0.0117,0.0347,-0.0187,-17.73,22.06,-9.95,228.67,7.89,0.69
72330,51.10409,-2.991379,57,24.58,9,215.3,14 / 22,7233372,2019-08-16 14:49:47:152,0.4623,-0.0178,10.194,0.0181,0.0158,9.8066,-0.0043,-0.0186,-0.0048,-17.73,22.06,-9.95,228.67,7.89,0.69
72331,51.10409,-2.991379,57,24.58,9,215.3,14 / 22,7233473,2019-08-16 14:49:47:253,-0.137,-0.1449,9.4002,0.0037,0.0155,9.8066,0.0106,-0.0175,0.0005,-17.9,22.07,-9.62,228.65,8.03,0.67
72332,51.10409,-2.991379,57,24.58,9,215.3,14 / 22,7233572,2019-08-16 14:49:47:352,0.084,0.0744,9.7756,-0.0325,-0.0067,9.8066,-0.0064,0.1092,0.0176,-18.34,21.57,-9.92,228.65,7.87,0.79
72333,51.10409,-2.991379,57,24.58,9,215.3,14 / 22,7233673,2019-08-16 14:49:47:453,-0.4317,-0.1344,9.9947,-0.0382,-0.0319,9.8065,-0.0064,0.1092,0.0176,-18.18,22.25,-8.64,228.65,7.87,0.79
72334,51.103916,-2.991582,58,24.57,9,215.3,14 / 22,7233773,2019-08-16 14:49:47:553,0.1045,0.4502,9.8265,-0.0425,-0.0351,9.8065,0.0106,-0.0026,0.0069,-18.77,22.09,-7.73,227.67,7.56,0.84
72335,51.103916,-2.991582,58,24.57,9,215.3,14 / 22,7233873,2019-08-16 14:49:47:653,0.2709,-0.0977,9.4219,0.0301,0.0268,9.8066,-0.0298,-0.0601,-0.0176,-18.32,22.42,-7.85,227.67,7.56,0.84
72336,51.103916,-2.991582,58,24.57,9,215.3,14 / 22,7233973,2019-08-16 14:49:47:753,0.0302,0.1396,10.4712,0.0429,0.0351,9.8065,-0.0064,0.008,-0.0037,-18.32,22.42,-7.85,227.67,7.56,0.84
72337,51.103916,-2.991582,58,24.57,9,215.3,14 / 22,7234073,2019-08-16 14:49:47:853,-0.0004,0.4799,9.7809,0.0011,0.0236,9.8066,0.0277,-0.0261,0.0037,-17.99,22.74,-7.7,230.34,7.83,0.85
72338,51.103916,-2.991582,58,24.57,9,215.3,14 / 22,7234173,2019-08-16 14:49:47:953,0.1003,0.0835,9.2335,0.0092,0.0238,9.8066,-0.0053,-0.0175,0.0058,-17.87,22.6,-8.37,230.3,7.94,0.93
72339,51.103916,-2.991582,58,24.57,9,215.3,14 / 22,7234272,2019-08-16 14:49:48:052,-0.1908,0.1359,10.3174,-0.0033,0.0168,9.8066,-0.0181,0.056,0.0037,-17.87,22.6,-8.37,230.3,7.94,0.93
72340,51.103916,-2.991582,58,24.57,9,215.3,14 / 22,7234373,2019-08-16 14:49:48:153,-0.1384,0.4215,10.1762,-0.0179,-0.0096,9.8066,0.0181,-0.025,-0.0027,-17.57,22.22,-9.89,228.55,8.0,1.01
72341,51.103916,-2.991582,58,24.57,9,215.3,14 / 22,7234474,2019-08-16 14:49:48:254,0.1991,0.0748,9.8437,-0.0102,0.0021,9.8066,-0.0139,-0.0197,-0.0059,-17.57,22.41,-9.44,228.79,7.89,1.05
72342,51.103916,-2.991582,58,24.57,9,215.3,14 / 22,7234572,2019-08-16 14:49:48:352,0.1676,-0.1447,10.2629,0.0012,0.0179,9.8066,-0.0139,-0.0197,-0.0059,-17.07,22.73,-9.58,231.27,7.97,1.12
72343,51.103916,-2.991582,58,24.57,9,215.3,14 / 22,7234673,2019-08-16 14:49:48:453,-0.3471,-0.2002,10.8859,0.0067,-0.0125,9.8066,-0.0202,-0.0079,-0.0123,-17.07,22.73,-9.58,231.27,7.97,1.12
72344,51.103733,-2.991776,57,24.56,9,215.2,14 / 21,7234773,2019-08-16 14:49:48:553,-0.025,-0.0555,10.1965,-0.0022,-0.0367,9.8066,-0.0277,0.0538,0.0144,-17.43,22.23,-10.1,230.09,7.8,0.99
72345,51.103733,-2.991776,57,24.56,9,215.2,14 / 21,7234873,2019-08-16 14:49:48:653,0.2226,-0.102,9.2952,-0.0009,-0.0103,9.8066,0.0021,-0.0261,-0.0037,-18.82,21.42,-9.33,230.09,7.8,0.99
72346,51.103733,-2.991776,57,24.56,9,215.2,14 / 21,7234972,2019-08-16 14:49:48:752,0.1795,0.5082,9.7469,0.0142,0.0053,9.8066,-0.0053,-0.0591,0.0048,-17.72,22.41,-9.14,228.82,7.87,0.95
72347,51.103733,-2.991776,57,24.56,9,215.2,14 / 21,7235072,2019-08-16 14:49:48:852,0.3005,0.3661,10.3222,0.0014,0.0496,9.8065,0.0021,0.0102,0.0016,-17.72,22.41,-9.14,228.82,7.87,0.95
72348,51.103733,-2.991776,57,24.56,9,215.2,14 / 21,7235173,2019-08-16 14:49:48:953,-0.2362,0.1495,11.2165,0.0026,-0.0051,9.8066,-0.0075,0.0783,-0.0027,-18.2,22.27,-8.53,228.73,8.1,1.13
72349,51.103733,-2.991776,57,24.56,9,215.2,14 / 21,7235273,2019-08-16 14:49:49:053,0.212,0.1325,10.1227,-0.0085,-0.0201,9.8066,-0.0192,-0.009,-0.0059,-18.53,21.94,-8.68,227.3,8.09,1.1
72350,51.103733,-2.991776,57,24.56,9,215.2,14 / 21,7235372,2019-08-16 14:49:49:152,0.3033,-0.0048,10.1567,-0.0184,-0.009,9.8066,-0.0192,-0.009,-0.0059,-18.33,22.27,-8.25,229.0,7.97,1.06
72351,51.103733,-2.991776,57,24.56,9,215.2,14 / 21,7235473,2019-08-16 14:49:49:253,-0.1043,0.203,9.8764,-0.0281,-0.0188,9.8066,0.017,0.0762,0.0122,-18.33,22.27,-8.25,229.0,7.97,1.06
72352,51.103733,-2.991776,57,24.56,9,215.2,14 / 21,7235573,2019-08-16 14:49:49:353,0.4391,-0.5534,9.0236,-0.0097,0.0253,9.8066,0.0277,-0.0229,0.0048,-17.87,22.6,-8.37,230.28,7.78,1.11
72353,51.103733,-2.991776,57,24.56,9,215.2,14 / 21,7235673,2019-08-16 14:49:49:453,0.1992,0.1027,10.5921,0.0058,0.0322,9.8066,-0.0224,-0.0133,-0.0155,-18.5,21.76,-9.17,230.28,7.78,1.11
72354,51.103554,-2.991982,58,24.49,9,215.3,14 / 22,7235772,2019-08-16 14:49:49:552,-0.1705,-0.3157,10.0054,0.0187,0.0411,9.8065,-0.0192,0.04,0.0122,-17.9,22.07,-9.62,228.49,8.03,1.18
72355,51.103554,-2.991982,58,24.49,9,215.3,14 / 22,7235873,2019-08-16 14:49:49:653,0.2198,0.053,9.5839,-0.0052,-0.009,9.8066,0.0138,0.0496,0.0133,-17.9,22.07,-9.62,228.49,8.03,1.18
72356,51.103554,-2.991982,58,24.49,9,215.3,14 / 22,7235972,2019-08-16 14:49:49:752,0.1229,-0.3598,9.4778,-0.0209,0.0021,9.8066,-0.0192,0.0347,0.0058,-18.7,21.38,-9.65,225.71,7.96,1.28
72357,51.103554,-2.991982,58,24.49,9,215.3,14 / 22,7236074,2019-08-16 14:49:49:854,0.1632,0.3132,9.0832,-0.0051,-0.0002,9.8066,-0.0192,0.0347,0.0058,-17.9,22.07,-9.62,228.47,7.94,1.3
72358,51.103554,-2.991982,58,24.49,9,215.3,14 / 22,7236173,2019-08-16 14:49:49:953,0.1561,-0.3543,9.1841,-0.0028,-0.0118,9.8066,0.0021,0.0144,0.0005,-17.75,21.89,-10.29,228.47,7.9,1.34
72359,51.103554,-2.991982,58,24.49,9,215.3,14 / 22,7236273,2019-08-16 14:49:50:053,0.3468,0.0093,9.9345,0.005,-0.0096,9.8066,0.016,0.0187,-0.0091,-18.63,21.92,-8.51,228.47,7.9,1.34
72360,51.103554,-2.991982,58,24.49,9,215.3,14 / 22,7236373,2019-08-16 14:49:50:153,-0.0017,-0.2627,9.0143,0.0185,-0.009,9.8066,-0.0192,-0.0175,0.0016,-18.63,21.92,-8.51,228.47,7.9,1.34
72361,51.103554,-2.991982,58,24.49,9,215.3,14 / 22,7236473,2019-08-16 14:49:50:253,-0.3016,-0.3254,9.6474,0.0022,0.0007,9.8067,0.0043,-0.0292,-0.0101,-18.65,21.94,-8.4,227.52,7.93,1.22
72362,51.103554,-2.991982,58,24.49,9,215.3,14 / 22,7236573,2019-08-16 14:49:50:353,-0.0131,-0.5259,8.9394,0.0052,-0.0188,9.8066,0.0085,-0.0292,-0.0101,-18.32,22.42,-7.85,227.52,7.93,1.22
72363,51.103554,-2.991982,58,24.49,9,215.3,14 / 22,7236673,2019-08-16 14:49:50:453,0.1617,0.254,10.2455,0.0102,-0.0055,9.8066,-0.0298,0.0038,0.0186,-18.0,22.77,-7.59,230.26,7.87,1.12
72364,51.103363,-2.992167,57,24.49,9,215.0,14 / 22,7236773,2019-08-16 14:49:50:553,-0.0314,0.1731,9.3071,0.0189,0.0044,9.8066,-0.0298,0.0038,0.0186,-18.34,22.45,-7.73,229.0,7.96,1.06
72365,51.103363,-2.992167,57,24.49,9,215.0,14 / 22,7236872,2019-08-16 14:49:50:652,-0.1052,-0.3105,9.7816,-0.0106,-0.003,9.8066,0.0149,0.0347,0.0122,-18.34,22.45,-7.73,229.0,7.96,1.06
72366,51.103363,-2.992167,57,24.49,9,215.0,14 / 22,7236973,2019-08-16 14:49:50:753,0.1991,-0.3971,9.5726,-0.0513,-0.0126,9.8065,0.0096,0.057,0.008,-18.04,22.09,-9.31,228.77,7.71,1.24
72367,51.103363,-2.992167,57,24.49,9,215.0,14 / 22,7237073,2019-08-16 14:49:50:853,0.4553,0.234,9.7654,-0.0082,-0.0174,9.8066,-0.0064,-0.0516,-0.0059,-17.88,21.3,-11.24,228.77,7.71,1.24
72368,51.103363,-2.992167,57,24.49,9,215.0,14 / 22,7237173,2019-08-16 14:49:50:953,0.1121,-0.2868,9.1501,0.04,-0.0499,9.8064,-0.0298,-0.0058,-0.0101,-17.88,21.3,-11.24,228.77,7.71,1.24
72369,51.103363,-2.992167,57,24.49,9,215.0,14 / 22,7237274,2019-08-16 14:49:51:054,-0.0294,0.4865,10.4872,0.0278,0.0285,9.8066,0.0138,-0.0175,-0.0091,-17.9,22.07,-9.62,228.67,7.65,0.86
72370,51.103363,-2.992167,57,24.49,9,215.0,14 / 22,7237372,2019-08-16 14:49:51:152,0.2729,0.3407,9.2451,-0.0024,0.0198,9.8066,0.0053,-0.0069,0.0122,-17.4,22.4,-9.76,230.12,7.88,0.85
72371,51.103363,-2.992167,57,24.49,9,215.0,14 / 22,7237473,2019-08-16 14:49:51:253,-0.0876,-0.0256,9.2464,0.0145,0.0596,9.8065,-0.016,0.0038,-0.0219,-17.4,22.4,-9.76,230.12,7.88,0.85
72372,51.103363,-2.992167,57,24.49,9,215.0,14 / 22,7237573,2019-08-16 14:49:51:353,-0.2938,-0.2111,10.7558,0.005,-0.0297,9.8066,-0.016,0.0038,-0.0219,-17.75,21.89,-10.29,228.51,8.2,1.01
72373,51.103363,-2.992167,57,24.49,9,215.0,14 / 22,7237673,2019-08-16 14:49:51:453,0.2461,-0.2904,10.1224,0.0069,-0.1098,9.806,-0.033,0.0464,-0.0027,-17.43,22.04,-10.51,228.51,8.2,1.01
72374,51.103176,-2.992363,55,24.48,9,214.7,14 / 22,7237772,2019-08-16 14:49:51:552,0.1285,-0.2909,9.535,0.0072,-0.1577,9.8054,-0.0011,0.0091,0.009,-18.5,21.76,-9.17,229.05,7.54,0.36
72375,51.103176,-2.992363,55,24.48,9,214.7,14 / 22,7237872,2019-08-16 14:49:51:652,-0.0916,-0.4812,9.231,-0.0042,-0.003,9.8067,0.0277,0.0091,-0.0037,-18.5,21.76,-9.17,229.05,7.54,0.36
72376,51.103176,-2.992363,55,24.48,9,214.7,14 / 22,7237973,2019-08-16 14:49:51:753,-0.1108,-0.197,9.0757,-0.0031,0.0165,9.8066,0.0149,0.0134,-0.0165,-18.98,21.6,-8.55,227.6,7.51,0.37
72377,51.103176,-2.992363,55,24.48,9,214.7,14 / 22,7238073,2019-08-16 14:49:51:853,0.2936,-0.1151,9.1371,0.007,0.0228,9.8066,-0.0107,-0.0335,-0.0037,-18.79,22.11,-7.61,227.6,7.51,0.37
72378,51.103176,-2.992363,55,24.48,9,214.7,14 / 22,7238173,2019-08-16 14:49:51:953,0.2537,-0.0706,9.0269,0.0132,0.0145,9.8066,0.0021,0.0059,-0.0048,-18.07,22.11,-9.2,228.99,7.77,0.43
72379,51.103176,-2.992363,55,24.48,9,214.7,14 / 22,7238273,2019-08-16 14:49:52:053,0.1609,-0.2581,9.5053,0.001,0.0135,9.8066,0.0383,0.0198,-0.0112,-18.34,21.57,-9.92,228.99,7.77,0.43
72380,51.103176,-2.992363,55,24.48,9,214.7,14 / 22,7238373,2019-08-16 14:49:52:153,0.0771,-0.0325,9.7323,-0.02,-0.0072,9.8066,0.0383,0.0198,-0.0112,-17.88,21.89,-10.06,228.78,7.66,0.5
72381,51.103176,-2.992363,55,24.48,9,214.7,14 / 22,7238472,2019-08-16 14:49:52:252,-0.1686,0.0946,10.022,-0.001,-0.0071,9.8066,-0.0234,0.0176,-0.0027,-17.57,22.41,-9.44,228.78,7.66,0.5
72382,51.103176,-2.992363,55,24.48,9,214.7,14 / 22,7238573,2019-08-16 14:49:52:353,0.2297,-0.0222,9.3157,-0.0007,-0.0045,9.8066,-0.0234,0.0411,0.0112,-17.57,22.41,-9.44,228.78,7.66,0.5
72383,51.103176,-2.992363,55,24.48,9,214.7,14 / 22,7238672,2019-08-16 14:49:52:452,-0.0786,-0.1896,10.0971,-0.0016,-0.0057,9.8066,0.0011,-0.0229,-0.0091,-18.07,21.53,-10.47,228.79,7.63,0.48
72384,51.102993,-2.992571,56,24.5,9,215.2,14 / 22,7238773,2019-08-16 14:49:52:553,0.3558,0.5307,9.18,-0.001,-0.0277,9.8066,-0.0192,0.0102,-0.0006,-18.07,21.53,-10.47,228.79,7.63,0.48
72385,51.102993,-2.992571,56,24.5,9,215.2,14 / 22,7238873,2019-08-16 14:49:52:653,-0.0172,-0.0369,9.6875,0.0082,-0.0079,9.8066,0.0096,-0.0388,-0.0069,-18.23,21.72,-9.8,228.84,7.51,0.38
72386,51.102993,-2.992571,56,24.5,9,215.2,14 / 22,7238973,2019-08-16 14:49:52:753,-0.0482,-0.3634,10.0947,0.0097,-0.0031,9.8066,0.0256,-0.0016,-0.0027,-18.37,21.74,-9.47,229.06,7.53,0.32
72387,51.102993,-2.992571,56,24.5,9,215.2,14 / 22,7239072,2019-08-16 14:49:52:852,-0.1161,0.6025,9.6676,0.0024,0.0048,9.8066,0.0437,-0.0207,-0.0016,-17.43,22.75,-8.87,231.81,7.56,0.33
72388,51.102993,-2.992571,56,24.5,9,215.2,14 / 22,7239172,2019-08-16 14:49:52:952,-0.1621,0.2933,9.6436,-0.0352,0.0211,9.8066,0.0437,-0.0207,-0.0016,-17.43,22.75,-8.87,231.81,7.56,0.33
72389,51.102993,-2.992571,56,24.5,9,215.2,14 / 22,7239273,2019-08-16 14:49:53:053,-0.3709,0.159,9.3105,0.0163,-0.0072,9.8066,-0.0192,-0.0229,-0.0091,-17.41,23.67,-6.06,233.57,7.53,0.57
72390,51.102993,-2.992571,56,24.5,9,215.2,14 / 22,7239373,2019-08-16 14:49:53:153,-0.5302,-0.5089,10.0057,0.0362,-0.0099,9.8066,-0.0202,-0.0165,0.0005,-17.78,23.2,-6.78,233.57,7.53,0.57
72391,51.102993,-2.992571,56,24.5,9,215.2,14 / 22,7239472,2019-08-16 14:49:53:252,0.0728,-0.2641,9.7186,-0.0037,-0.0222,9.8066,-0.0117,-0.0314,0.009,-18.24,23.06,-5.97,230.91,7.61,0.36
72392,51.102993,-2.992571,56,24.5,9,215.2,14 / 22,7239573,2019-08-16 14:49:53:353,0.1397,0.7125,9.4512,-0.0024,-0.0343,9.8066,0.0075,-0.0047,0.0048,-18.24,23.06,-5.97,230.91,7.61,0.36
72393,51.102993,-2.992571,56,24.5,9,215.2,14 / 22,7239673,2019-08-16 14:49:53:453,-0.2394,-0.1913,9.461,-0.0029,0.0193,9.8066,0.0128,0.0506,0.0026,-17.87,22.6,-8.37,230.55,7.45,0.25
72394,51.102818,-2.992766,56,24.5,9,215.3,14 / 22,7239772,2019-08-16 14:49:53:552,-0.2616,0.0822,9.7668,-0.0086,0.0309,9.8066,0.0138,0.0134,0.0058,-17.09,22.52,-10.03,230.55,7.45,0.25
72395,51.102818,-2.992766,56,24.5,9,215.3,14 / 22,7239872,2019-08-16 14:49:53:652,-0.1621,0.5276,9.7724,-0.0153,0.0501,9.8065,0.0213,0.0112,-0.0006,-18.37,21.74,-9.47,228.99,7.62,0.51
72396,51.102818,-2.992766,56,24.5,9,215.3,14 / 22,7239973,2019-08-16 14:49:53:753,-0.2493,-0.1524,10.1751,-0.0149,0.0221,9.8066,0.0213,0.0112,-0.0006,-17.7,21.83,-10.5,228.52,7.66,0.66
72397,51.102818,-2.992766,56,24.5,9,215.3,14 / 22,7240073,2019-08-16 14:49:53:853,-0.3038,0.0945,9.867,-0.0186,0.01,9.8066,0.0149,0.0155,0.0016,-17.7,21.83,-10.5,228.52,7.66,0.66
72398,51.102818,-2.992766,56,24.5,9,215.3,14 / 22,7240172,2019-08-16 14:49:53:952,0.1452,0.2893,9.2247,0.0016,-0.018,9.8066,-0.0298,-0.042,-0.0165,-18.37,21.74,-9.47,228.91,7.63,0.78
72399,51.102818,-2.992766,56,24.5,9,215.3,14 / 22,7240273,2019-08-16 14:49:54:053,0.2535,-0.1299,8.985,0.0159,-0.0186,9.8066,-0.0149,0.0283,-0.0027,-17.04,21.95,-11.31,230.02,7.56,0.7
72400,51.102818,-2.992766,56,24.5,9,215.3,14 / 22,7240373,2019-08-16 14:49:54:153,-0.2377,-0.1548,9.6901,0.0365,-0.0222,9.8066,-0.0021,-0.0133,-0.0133,-17.38,22.17,-10.32,230.31,7.59,0.45
72401,51.102818,-2.992766,56,24.5,9,215.3,14 / 22,7240473,2019-08-16 14:49:54:253,-0.018,0.0423,9.5744,0.0124,-0.0042,9.8066,-0.0032,-0.0101,-0.008,-17.38,22.17,-10.32,230.31,7.59,0.45
72402,51.102818,-2.992766,56,24.5,9,215.3,14 / 22,7240573,2019-08-16 14:49:54:353,0.2595,0.1729,9.8855,0.0083,-0.0122,9.8066,0.016,0.0379,0.0026,-18.15,22.22,-8.75,229.03,7.62,0.38
72403,51.102818,-2.992766,56,24.5,9,215.3,14 / 22,7240673,2019-08-16 14:49:54:453,0.2166,0.037,10.0727,0.0153,-0.0111,9.8066,0.016,0.0379,0.0026,-18.15,22.22,-8.75,229.06,7.63,0.27
72404,51.102634,-2.992968,56,24.53,9,215.2,14 / 22,7240773,2019-08-16 14:49:54:553,0.2253,-0.1008,10.1771,0.002,0.0195,9.8066,0.0618,-0.042,-0.0016,-18.31,22.58,-7.4,230.69,7.72,0.34
72405,51.102634,-2.992968,56,24.53,9,215.2,14 / 22,7240873,2019-08-16 14:49:54:653,0.4073,-0.0457,9.4942,-0.0131,0.0049,9.8066,0.0085,0.0304,-0.0091,-17.94,22.88,-7.38,230.69,7.72,0.34
72406,51.102634,-2.992968,56,24.53,9,215.2,14 / 22,7240973,2019-08-16 14:49:54:753,0.2864,0.3293,10.1578,-0.0723,-0.0023,9.8064,0.0096,0.0688,0.0101,-17.94,22.88,-7.38,230.69,7.72,0.34
72407,51.102634,-2.992968,56,24.53,9,215.2,14 / 22,7241072,2019-08-16 14:49:54:852,0.1472,0.6369,9.7127,-0.034,0.0394,9.8065,0.0298,-0.0239,0.0186,-18.01,22.22,-9.05,228.98,7.45,0.66
72408,51.102634,-2.992968,56,24.53,9,215.2,14 / 22,7241173,2019-08-16 14:49:54:953,-0.445,-0.0397,9.9707,-0.0159,0.0088,9.8066,-0.0224,0.0506,0.0005,-18.13,22.2,-8.86,228.89,7.49,0.96
72409,51.102634,-2.992968,56,24.53,9,215.2,14 / 22,7241273,2019-08-16 14:49:55:053,-0.0572,-0.3021,9.1363,-0.0073,0.0048,9.8066,-0.0234,0.0123,0.0037,-18.13,22.2,-8.86,228.89,7.49,0.96
72410,51.102634,-2.992968,56,24.53,9,215.2,14 / 22,7241372,2019-08-16 14:49:55:152,0.0403,0.4419,10.4154,0.002,0.0097,9.8066,0.0096,-0.0388,0.0069,-17.68,21.99,-10.18,228.66,7.48,1.01
72411,51.102634,-2.992968,56,24.53,9,215.2,14 / 22,7241472,2019-08-16 14:49:55:252,-0.4271,-0.0044,9.973,0.0072,0.0185,9.8066,0.016,-0.0303,0.0026,-18.54,21.43,-9.86,228.66,7.48,1.01
72412,51.102634,-2.992968,56,24.53,9,215.2,14 / 22,7241573,2019-08-16 14:49:55:353,-0.0029,-0.184,9.5174,0.0108,0.017,9.8066,0.016,-0.0303,0.0026,-18.96,20.91,-10.16,225.85,7.6,1.03
72413,51.102634,-2.992968,56,24.53,9,215.2,14 / 22,7241673,2019-08-16 14:49:55:453,-0.0666,-0.4473,10.1249,-0.0046,0.0134,9.8066,0.0362,-0.0825,-0.0059,-18.96,20.91,-10.16,225.85,7.6,1.03
72414,51.10246,-2.993174,57,24.56,9,215.2,14 / 22,7241772,2019-08-16 14:49:55:552,0.2275,0.5252,11.4048,-0.0128,-0.0059,9.8066,-0.0085,0.0038,0.0208,-19.52,20.74,-9.41,224.66,7.63,1.1
72415,51.10246,-2.993174,57,24.56,9,215.2,14 / 22,7241872,2019-08-16 14:49:55:652,0.2693,0.4208,10.5645,-0.0121,0.0136,9.8066,-0.0139,0.0144,-0.0059,-19.5,21.36,-7.97,224.84,7.64,1.21
72416,51.10246,-2.993174,57,24.56,9,215.2,14 / 22,7241973,2019-08-16 14:49:55:753,0.548,-0.0437,9.3123,0.0046,-0.0045,9.8066,-0.0394,0.0315,0.0058,-20.18,21.3,-6.25,224.84,7.64,1.21
72417,51.10246,-2.993174,57,24.56,9,215.2,14 / 22,7242073,2019-08-16 14:49:55:853,0.0759,-0.3324,9.9479,0.0126,-0.0261,9.8066,0.0085,-0.0218,0.008,-20.18,21.3,-6.25,225.32,7.51,1.02
72418,51.10246,-2.993174,57,24.56,9,215.2,14 / 22,7242173,2019-08-16 14:49:55:953,0.0336,-0.1224,9.5565,0.0331,0.016,9.8066,0.0181,-0.0175,0.0154,-20.05,21.17,-7.06,225.32,7.51,1.02
72419,51.10246,-2.993174,57,24.56,9,215.2,14 / 22,7242274,2019-08-16 14:49:56:054,0.0795,-0.0616,9.035,0.0434,0.0641,9.8063,0.0181,-0.0175,0.0154,-20.05,21.17,-7.06,225.32,7.51,1.02
72420,51.10246,-2.993174,57,24.56,9,215.2,14 / 22,7242374,2019-08-16 14:49:56:154,-0.1226,-0.1648,9.6243,-0.0072,0.0153,9.8066,-0.0075,-0.0207,0.0058,-18.89,21.99,-7.72,227.55,7.96,1.1
72421,51.10246,-2.993174,57,24.56,9,215.2,14 / 22,7242473,2019-08-16 14:49:56:253,0.2209,-0.1806,9.5353,-0.0066,0.0058,9.8066,-0.0234,0.0592,-0.008,-17.39,22.79,-8.86,231.5,7.96,1.15
72422,51.10246,-2.993174,57,24.56,9,215.2,14 / 22,7242572,2019-08-16 14:49:56:352,-0.1095,0.0731,10.4074,0.0071,-0.0226,9.8066,-0.017,0.0123,0.0101,-17.39,22.79,-8.86,231.5,7.96,1.15
72423,51.10246,-2.993174,57,24.56,9,215.2,14 / 22,7242673,2019-08-16 14:49:56:453,0.2866,-0.0326,10.1092,0.0147,-0.0087,9.8066,-0.0341,0.0506,-0.0133,-16.43,23.46,-8.94,233.11,7.88,1.04
72424,51.10228,-2.993386,57,24.98,9,216.1,14 / 22,7242772,2019-08-16 14:49:56:552,0.0639,-0.9983,9.7522,0.0145,-0.0468,9.8065,-0.0075,0.0666,0.0005,-16.26,24.31,-6.67,234.83,7.71,0.8
72425,51.10228,-2.993386,57,24.98,9,216.1,14 / 22,7242873,2019-08-16 14:49:56:653,0.2535,-0.0247,10.8869,-0.0088,0.0049,9.8066,0.0064,0.0325,0.0016,-18.6,23.14,-4.31,229.8,7.59,0.64
72426,51.10228,-2.993386,57,24.98,9,216.1,14 / 22,7242974,2019-08-16 14:49:56:754,-0.0182,-0.2619,9.6456,-0.0061,0.0094,9.8066,0.0064,0.0325,0.0016,-19.34,22.0,-6.46,229.8,7.59,0.64
72427,51.10228,-2.993386,57,24.98,9,216.1,14 / 22,7243074,2019-08-16 14:49:56:854,0.1273,0.3475,9.1723,-0.0061,0.0094,9.8066,-0.0181,0.0102,-0.0006,-19.34,22.0,-6.46,229.8,7.59,0.64
72428,51.10228,-2.993386,57,24.98,9,216.1,14 / 22,7243173,2019-08-16 14:49:56:953,0.4619,-0.1891,9.0623,0.0383,-0.0047,9.8066,0.0011,-0.0143,-0.0165,-18.76,22.21,-7.4,227.92,7.73,0.57
72429,51.10228,-2.993386,57,24.98,9,216.1,14 / 22,7243273,2019-08-16 14:49:57:053,0.0974,-0.0798,9.3071,0.0303,0.0027,9.8066,0.0043,-0.0058,-0.0112,-18.73,22.04,-7.95,227.75,7.86,0.38
72430,51.10228,-2.993386,57,24.98,9,216.1,14 / 22,7243372,2019-08-16 14:49:57:152,-0.2074,0.0081,10.6464,0.0213,0.0275,9.8066,0.0224,-0.0037,0.0005,-18.73,22.04,-7.95,227.75,7.86,0.38
72431,51.10228,-2.993386,57,24.98,9,216.1,14 / 22,7243472,2019-08-16 14:49:57:252,-0.0036,-0.2379,9.9253,-0.0321,-0.0035,9.8066,0.049,0.0027,0.0122,-18.73,22.04,-7.95,227.72,8.06,0.4
72432,51.10228,-2.993386,57,24.98,9,216.1,14 / 22,7243573,2019-08-16 14:49:57:353,-0.3793,-0.1,10.7771,-0.0392,-0.01,9.8066,0.0245,0.0293,-0.0006,-18.53,22.52,-7.03,229.18,7.92,0.53
72433,51.10228,-2.993386,57,24.98,9,216.1,14 / 22,7243673,2019-08-16 14:49:57:453,-0.0887,0.4329,9.6412,-0.0753,-0.0001,9.8064,-0.0245,0.0293,-0.0101,-18.61,21.89,-8.62,227.45,7.63,0.86
72434,51.102104,-2.993588,56,24.6,10,216.0,14 / 22,7243773,2019-08-16 14:49:57:553,-0.1836,-0.2674,9.1246,0.0021,0.0075,9.8066,-0.0245,0.0293,-0.0101,-18.42,22.39,-7.7,227.45,7.63,0.86
72435,51.102104,-2.993588,56,24.6,10,216.0,14 / 22,7243872,2019-08-16 14:49:57:652,0.055,0.1008,9.6893,0.04,0.0098,9.8066,-0.0181,-0.0101,0.0069,-18.42,22.39,-7.7,227.45,7.63,0.86
72436,51.102104,-2.993588,56,24.6,10,216.0,14 / 22,7243973,2019-08-16 14:49:57:753,-0.2196,0.3989,9.4729,0.0201,0.0179,9.8066,0.0096,-0.0388,0.0176,-18.14,22.04,-9.23,228.89,7.83,0.73
72437,51.102104,-2.993588,56,24.6,10,216.0,14 / 22,7244073,2019-08-16 14:49:57:853,-0.2164,0.3723,9.9373,0.0257,0.0501,9.8065,-0.0032,0.0027,0.0037,-18.32,21.69,-9.7,228.89,7.83,0.73
72438,51.102104,-2.993588,56,24.6,10,216.0,14 / 22,7244173,2019-08-16 14:49:57:953,-0.033,-0.0254,10.6443,0.0044,-0.0209,9.8066,0.0149,0.0112,-0.0112,-18.35,21.87,-9.22,228.81,8.15,0.81
72439,51.102104,-2.993588,56,24.6,10,216.0,14 / 22,7244273,2019-08-16 14:49:58:053,0.0762,0.1635,10.0854,-0.0018,-0.0414,9.8066,-0.0107,0.024,0.0048,-18.35,21.87,-9.22,228.81,8.15,0.81
72440,51.102104,-2.993588,56,24.6,10,216.0,14 / 22,7244373,2019-08-16 14:49:58:153,-0.0194,0.0295,9.5391,-0.0151,-0.0073,9.8066,0.0107,-0.0399,-0.0048,-18.49,21.88,-8.91,228.89,7.96,0.65
72441,51.102104,-2.993588,56,24.6,10,216.0,14 / 22,7244473,2019-08-16 14:49:58:253,0.0331,0.0697,10.0795,-0.0223,0.0046,9.8066,0.0149,-0.0079,-0.0101,-17.87,22.04,-9.73,228.65,7.89,0.77
72442,51.102104,-2.993588,56,24.6,10,216.0,14 / 22,7244573,2019-08-16 14:49:58:353,0.6625,0.2909,9.939,0.0054,-0.0004,9.8066,0.0149,-0.0079,-0.0101,-17.87,22.04,-9.73,228.65,7.89,0.77
72443,51.102104,-2.993588,56,24.6,10,216.0,14 / 22,7244673,2019-08-16 14:49:58:453,0.2586,-0.1214,10.0862,0.013,0.0092,9.8066,-0.0117,-0.0101,-0.0048,-17.86,21.86,-10.17,228.65,7.91,0.75
72444,51.101917,-2.993785,55,24.51,9,215.3,14 / 22,7244773,2019-08-16 14:49:58:553,-0.0916,0.2279,9.1835,0.0158,0.019,9.8066,-0.016,0.0176,-0.0048,-18.48,21.74,-9.28,228.65,7.91,0.75
72445,51.101917,-2.993785,55,24.51,9,215.3,14 / 22,7244873,2019-08-16 14:49:58:653,-0.0403,0.2443,10.5226,0.0296,0.0153,9.8066,0.0096,0.0251,0.0016,-18.0,22.03,-9.53,228.64,8.09,0.67
72446,51.101917,-2.993785,55,24.51,9,215.3,14 / 22,7244973,2019-08-16 14:49:58:753,-0.3171,-0.2164,9.6445,0.0006,-0.0265,9.8066,-0.0085,-0.0388,0.0186,-18.42,22.39,-7.7,228.64,8.09,0.67
72447,51.101917,-2.993785,55,24.51,9,215.3,14 / 22,7245072,2019-08-16 14:49:58:852,-0.1834,-0.1221,9.2567,-0.0095,-0.0065,9.8066,0.0256,0.0038,0.0101,-18.75,22.06,-7.84,227.64,8.03,0.69
72448,51.101917,-2.993785,55,24.51,9,215.3,14 / 22,7245173,2019-08-16 14:49:58:953,-0.1729,-0.1668,9.7037,-0.0138,0.018,9.8066,0.0415,0.0443,-0.0027,-17.83,22.54,-8.6,227.64,8.03,0.69
72449,51.101917,-2.993785,55,24.51,9,215.3,14 / 22,7245273,2019-08-16 14:49:59:053,-0.0379,0.0479,9.7811,-0.0196,0.0164,9.8066,0.0415,0.0443,-0.0027,-17.83,22.54,-8.6,227.64,8.03,0.69
72450,51.101917,-2.993785,55,24.51,9,215.3,14 / 22,7245373,2019-08-16 14:49:59:153,0.0435,0.3171,10.3499,0.0268,-0.0103,9.8066,-0.0415,0.024,-0.0091,-17.88,22.31,-9.09,228.82,8.02,0.84
72451,51.101917,-2.993785,55,24.51,9,215.3,14 / 22,7245473,2019-08-16 14:49:59:253,0.1667,-0.7067,9.3287,0.038,-0.0389,9.8065,-0.0597,0.0709,0.008,-17.88,22.31,-9.09,228.82,8.02,0.84
72452,51.101917,-2.993785,55,24.51,9,215.3,14 / 22,7245573,2019-08-16 14:49:59:353,0.3928,0.1446,9.465,-0.0038,-0.0186,9.8066,0.0309,0.0464,0.0005,-17.87,22.04,-9.73,228.7,8.0,0.52
72453,51.101917,-2.993785,55,24.51,9,215.3,14 / 22,7245673,2019-08-16 14:49:59:453,-0.5537,-0.1519,10.1514,-0.0245,-0.0182,9.8066,0.0213,0.0155,0.0037,-17.85,22.01,-9.84,228.7,8.0,0.52
72454,51.10173,-2.993992,56,24.52,9,215.2,14 / 22,7245772,2019-08-16 14:49:59:552,0.0223,-0.0838,9.2991,-0.0377,-0.0235,9.8065,-0.0064,-0.0037,-0.0048,-17.87,22.04,-9.73,228.73,7.75,0.6
72455,51.10173,-2.993992,56,24.52,9,215.2,14 / 22,7245873,2019-08-16 14:49:59:653,-0.3014,-0.236,9.6606,-0.0061,0.0041,9.8066,0.0192,-0.0261,-0.0123,-17.87,22.04,-9.73,228.73,7.75,0.6
72456,51.10173,-2.993992,56,24.52,9,215.2,14 / 22,7245973,2019-08-16 14:49:59:753,-0.3041,-0.1546,9.446,0.0012,0.0151,9.8066,0.0192,-0.0261,-0.0123,-18.2,21.69,-9.91,228.72,7.74,0.64
72457,51.10173,-2.993992,56,24.52,9,215.2,14 / 22,7246073,2019-08-16 14:49:59:853,-0.0991,-0.0162,9.5388,-0.0195,0.0082,9.8066,0.016,0.0347,0.0048,-18.02,22.06,-9.42,228.9,7.81,0.69
72458,51.10173,-2.993992,56,24.52,9,215.2,14 / 22,7246173,2019-08-16 14:49:59:953,-0.1827,0.2536,9.0441,-0.0207,0.0228,9.8066,0.0,0.0176,0.009,-18.75,22.06,-7.84,227.65,7.78,0.81
72459,51.10173,-2.993992,56,24.52,9,215.2,14 / 22,7246272,2019-08-16 14:50:00:052,-0.2709,-0.3126,9.6738,-0.0277,0.0235,9.8066,-0.0043,0.0176,0.0016,-18.87,22.2,-7.16,227.81,7.77,1.03
72460,51.10173,-2.993992,56,24.52,9,215.2,14 / 22,7246373,2019-08-16 14:50:00:153,0.399,0.676,9.3948,0.0102,-0.0149,9.8066,0.0021,-0.0037,-0.0091,-18.87,22.2,-7.16,227.81,7.77,1.03
72461,51.10173,-2.993992,56,24.52,9,215.2,14 / 22,7246474,2019-08-16 14:50:00:254,0.3014,0.3034,9.78,0.0026,-0.0046,9.8066,-0.0139,-0.0079,-0.008,-19.19,21.73,-7.72,227.62,7.74,0.92
72462,51.10173,-2.993992,56,24.52,9,215.2,14 / 22,7246573,2019-08-16 14:50:00:353,0.6743,0.0477,9.6767,0.0102,-0.0251,9.8066,-0.0075,0.008,0.0122,-18.98,22.21,-6.81,227.88,7.68,0.78
72463,51.10173,-2.993992,56,24.52,9,215.2,14 / 22,7246672,2019-08-16 14:50:00:452,0.1168,-0.2604,9.3358,0.0214,-0.0116,9.8066,0.0202,-0.0282,0.0048,-19.21,21.75,-7.61,227.7,7.71,0.64
72464,51.101547,-2.994195,57,24.49,9,215.2,13 / 21,7246772,2019-08-16 14:50:00:552,-0.0314,-0.4494,9.5404,0.0209,0.005,9.8066,0.0202,-0.0282,0.0048,-19.21,21.75,-7.61,227.7,7.71,0.64
72465,51.101547,-2.994195,57,24.49,9,215.2,13 / 21,7246874,2019-08-16 14:50:00:654,-0.1052,-0.0678,9.9368,-0.0181,-0.0033,9.8066,0.0053,0.0389,-0.0016,-18.64,22.06,-8.11,227.7,7.85,0.57
72466,51.101547,-2.994195,57,24.49,9,215.2,13 / 21,7246973,2019-08-16 14:50:00:753,-0.2893,-0.264,10.8842,-0.0319,-0.0107,9.8066,0.0096,0.0219,0.0058,-17.83,22.54,-8.6,230.19,7.68,0.67
72467,51.101547,-2.994195,57,24.49,9,215.2,13 / 21,7247073,2019-08-16 14:50:00:853,-0.1981,-0.0969,10.3313,-0.0233,-0.0196,9.8066,0.0075,0.0453,-0.0038,-17.83,22.54,-8.6,230.19,7.68,0.67
72468,51.101547,-2.994195,57,24.49,9,215.2,13 / 21,7247173,2019-08-16 14:50:00:953,-0.3566,-0.0539,9.4454,-0.02,-0.0148,9.8066,-0.0021,0.0198,0.0026,-18.1,22.7,-7.57,230.43,7.5,0.7
72469,51.101547,-2.994195,57,24.49,9,215.2,13 / 21,7247273,2019-08-16 14:50:01:053,-0.3748,0.1976,9.6985,-0.0165,-0.0035,9.8066,0.0149,0.0123,0.0197,-16.47,22.4,-11.28,230.43,7.5,0.7
72470,51.101547,-2.994195,57,24.49,9,215.2,13 / 21,7247373,2019-08-16 14:50:01:153,-0.0816,-0.4138,8.946,-0.0083,0.0252,9.8066,-0.0458,0.024,-0.0048,-14.95,23.67,-10.79,235.53,7.59,0.84
72471,51.101547,-2.994195,57,24.49,9,215.2,13 / 21,7247473,2019-08-16 14:50:01:253,-0.2802,0.4255,9.4972,0.0132,-0.0006,9.8066,-0.0458,0.0198,0.0026,-14.95,23.67,-10.79,235.53,7.59,0.84
72472,51.101547,-2.994195,57,24.49,9,215.2,13 / 21,7247573,2019-08-16 14:50:01:353,-0.2305,-0.0073,9.693,0.0134,-0.0092,9.8066,-0.0458,0.0198,0.0026,-15.46,23.87,-9.56,235.77,7.63,0.77
72473,51.101547,-2.994195,57,24.49,9,215.2,13 / 21,7247673,2019-08-16 14:50:01:453,-0.4499,0.3786,10.3211,0.0228,-0.0038,9.8066,0.0043,-0.0101,0.0026,-15.59,24.5,-7.52,235.77,7.63,0.77
72474,51.10137,-2.994395,57,24.79,9,214.8,14 / 22,7247773,2019-08-16 14:50:01:553,-0.3863,0.154,11.2487,0.0015,0.0235,9.8066,0.0224,0.0091,0.008,-18.17,23.18,-5.69,230.79,7.75,0.84
72475,51.10137,-2.994395,57,24.79,9,214.8,14 / 22,7247874,2019-08-16 14:50:01:654,-0.3916,0.1823,10.7965,-0.0394,-0.0152,9.8066,-0.0597,0.0549,0.0112,-18.19,23.0,-6.32,230.79,7.75,0.84
72476,51.10137,-2.994395,57,24.79,9,214.8,14 / 22,7247972,2019-08-16 14:50:01:752,-0.1227,-0.3541,10.3742,0.0222,-0.0118,9.8066,-0.0202,0.0581,-0.008,-18.98,22.21,-6.81,227.91,7.28,0.84
72477,51.10137,-2.994395,57,24.79,9,214.8,14 / 22,7248074,2019-08-16 14:50:01:854,0.2329,0.5097,10.208,0.0484,-0.0133,9.8065,-0.0181,-0.0388,0.0144,-18.98,22.21,-6.81,227.91,7.28,0.84
72478,51.10137,-2.994395,57,24.79,9,214.8,14 / 22,7248173,2019-08-16 14:50:01:953,-0.2962,0.1247,9.3887,-0.0076,0.0261,9.8066,-0.0128,0.0261,0.0165,-18.45,21.71,-9.39,229.01,7.41,0.57
72479,51.10137,-2.994395,57,24.79,9,214.8,14 / 22,7248273,2019-08-16 14:50:02:053,-0.0034,0.0087,10.1126,-0.0205,0.0287,9.8066,-0.0128,0.0261,0.0165,-18.02,22.06,-9.42,229.01,7.41,0.57
72480,51.10137,-2.994395,57,24.79,9,214.8,14 / 22,7248372,2019-08-16 14:50:02:152,0.1634,0.561,10.0052,-0.0228,0.0378,9.8066,0.0341,-0.0101,0.0005,-18.35,21.72,-9.59,228.71,7.49,0.82
72481,51.10137,-2.994395,57,24.79,9,214.8,14 / 22,7248473,2019-08-16 14:50:02:253,0.1399,0.3582,9.9391,0.016,0.0245,9.8066,-0.0171,-0.0346,-0.008,-18.35,21.72,-9.59,228.71,7.49,0.82
72482,51.10137,-2.994395,57,24.79,9,214.8,14 / 22,7248572,2019-08-16 14:50:02:352,0.0482,-0.0016,9.298,0.0173,0.0043,9.8066,-0.0245,0.0112,0.0005,-18.37,21.74,-9.47,228.89,7.66,0.84
72483,51.10137,-2.994395,57,24.79,9,214.8,14 / 22,7248673,2019-08-16 14:50:02:453,-0.071,0.0433,9.7955,0.0158,-0.0055,9.8066,0.0053,0.0325,-0.0006,-18.02,22.06,-9.42,228.91,7.69,0.75
72484,51.10119,-2.994604,58,24.73,10,215.1,14 / 22,7248773,2019-08-16 14:50:02:553,-0.2432,0.0175,10.4355,-0.0118,-0.0069,9.8066,-0.0064,-0.0101,0.009,-17.55,22.38,-9.55,228.7,7.62,0.78
72485,51.10119,-2.994604,58,24.73,10,215.1,14 / 22,7248873,2019-08-16 14:50:02:653,0.0821,-0.1403,9.5871,-0.0133,0.0079,9.8066,-0.0426,0.0112,-0.0091,-17.55,22.38,-9.55,228.7,7.62,0.78
72486,51.10119,-2.994604,58,24.73,10,215.1,14 / 22,7248973,2019-08-16 14:50:02:753,-0.1542,-0.1736,9.8239,0.0141,-0.0252,9.8066,-0.0224,0.0283,-0.0155,-18.74,21.93,-8.24,227.66,7.6,0.87
72487,51.10119,-2.994604,58,24.73,10,215.1,14 / 22,7249072,2019-08-16 14:50:02:852,0.0622,-0.2367,9.4634,0.0309,-0.0342,9.8065,-0.0224,0.0283,-0.0155,-19.06,21.59,-8.39,227.66,7.6,0.87
72488,51.10119,-2.994604,58,24.73,10,215.1,14 / 22,7249173,2019-08-16 14:50:02:953,0.1357,-0.0734,9.8671,0.0147,0.0286,9.8066,0.0202,-0.0218,-0.0123,-19.11,21.74,-7.87,227.73,7.57,0.6
72489,51.10119,-2.994604,58,24.73,10,215.1,14 / 22,7249274,2019-08-16 14:50:03:054,0.2546,0.0343,9.6328,0.0167,0.0621,9.8064,-0.0021,-0.0495,0.0144,-18.63,21.92,-8.51,227.73,7.57,0.6
72490,51.10119,-2.994604,58,24.73,10,215.1,14 / 22,7249373,2019-08-16 14:50:03:153,-0.0663,0.2294,9.9034,-0.0033,0.0747,9.8064,0.0032,0.0336,0.0069,-18.16,22.07,-9.12,228.83,7.88,0.91
72491,51.10119,-2.994604,58,24.73,10,215.1,14 / 22,7249473,2019-08-16 14:50:03:253,0.1546,0.4218,10.8665,-0.0216,-0.0104,9.8066,-0.0192,0.0347,0.0048,-18.16,22.07,-9.12,228.83,7.88,0.91
72492,51.10119,-2.994604,58,24.73,10,215.1,14 / 22,7249572,2019-08-16 14:50:03:352,0.3391,0.1876,9.922,-0.017,-0.0195,9.8066,-0.0224,-0.0378,0.008,-17.7,22.38,-9.25,228.86,7.73,0.91
72493,51.10119,-2.994604,58,24.73,10,215.1,14 / 22,7249673,2019-08-16 14:50:03:453,-0.2029,-0.2181,10.4597,0.0116,-0.0072,9.8066,0.0138,-0.0005,0.0048,-17.72,21.86,-10.4,228.86,7.73,0.91
72494,51.101006,-2.994807,58,24.45,9,215.4,14 / 22,7249774,2019-08-16 14:50:03:554,0.3262,0.2758,9.7534,-0.0036,0.0088,9.8066,0.0043,0.0134,0.0122,-17.9,22.07,-9.62,228.65,7.78,0.82
72495,51.101006,-2.994807,58,24.45,9,215.4,14 / 22,7249872,2019-08-16 14:50:03:652,-0.1129,0.127,9.7459,-0.0067,0.0194,9.8066,0.0043,0.0134,0.0122,-17.9,22.07,-9.62,228.65,7.78,0.82
72496,51.101006,-2.994807,58,24.45,9,215.4,14 / 22,7249973,2019-08-16 14:50:03:753,-0.0659,-0.1568,10.4979,-0.0088,0.0222,9.8066,-0.0171,-0.0058,0.0101,-17.4,22.2,-10.21,230.11,7.84,0.93
72497,51.101006,-2.994807,58,24.45,9,215.4,14 / 22,7250072,2019-08-16 14:50:03:852,-0.3202,0.215,10.7758,-0.022,0.0133,9.8066,0.0,0.0634,-0.0059,-17.4,22.2,-10.21,230.11,7.84,0.93
72498,51.101006,-2.994807,58,24.45,9,215.4,14 / 22,7250172,2019-08-16 14:50:03:952,0.2082,-0.3875,10.1048,-0.003,-0.0096,9.8066,-0.0064,-0.0324,-0.0176,-17.88,21.89,-10.06,228.57,7.82,1.08
72499,51.101006,-2.994807,58,24.45,9,215.4,14 / 22,7250273,2019-08-16 14:50:04:053,0.2226,-0.0135,9.7323,0.0158,-0.0094,9.8066,-0.0043,-0.0516,-0.0304,-18.34,21.57,-9.92,228.59,7.76,1.05
72500,51.101006,-2.994807,58,24.45,9,215.4,14 / 22,7250373,2019-08-16 14:50:04:153,0.2776,0.008,9.7141,0.0355,-0.0139,9.8066,-0.0053,-0.0058,-0.0048,-17.99,22.56,-8.22,230.34,7.84,0.84
72501,51.101006,-2.994807,58,24.45,9,215.4,14 / 22,7250472,2019-08-16 14:50:04:252,-0.1442,-0.2922,9.8394,0.0105,0.0016,9.8066,0.0085,0.0006,0.0112,-17.85,22.57,-8.49,230.34,7.84,0.84
72502,51.101006,-2.994807,58,24.45,9,215.4,14 / 22,7250572,2019-08-16 14:50:04:352,0.6461,-0.001,9.1796,-0.0022,0.006,9.8066,0.0064,0.0176,-0.0006,-17.85,22.57,-8.49,230.34,7.84,0.84
72503,51.101006,-2.994807,58,24.45,9,215.4,14 / 22,7250673,2019-08-16 14:50:04:453,1.041,0.7569,9.9419,-0.0111,-0.0095,9.8066,-0.0085,-0.0953,-0.0176,-18.32,22.42,-7.85,229.09,7.75,0.86
72504,51.100822,-2.995011,58,24.33,9,215.6,14 / 22,7250772,2019-08-16 14:50:04:552,0.0939,-0.8545,9.7365,-0.0135,0.0028,9.8066,-0.0085,-0.0953,-0.0176,-17.99,22.74,-7.7,229.09,7.75,0.86
72505,51.100822,-2.995011,58,24.33,9,215.6,14 / 22,7250873,2019-08-16 14:50:04:653,0.2033,-0.4218,10.1891,-0.0001,-0.0119,9.8066,0.0224,0.008,-0.0251,-18.48,21.74,-9.28,228.85,7.72,0.93
72506,51.100822,-2.995011,58,24.33,9,215.6,14 / 22,7250973,2019-08-16 14:50:04:753,0.0391,0.0527,9.9335,-0.0002,-0.0137,9.8066,0.0192,0.0027,0.0016,-18.18,22.25,-8.64,228.85,7.72,0.93
72507,51.100822,-2.995011,58,24.33,9,215.6,14 / 22,7251073,2019-08-16 14:50:04:853,-0.3405,0.137,10.0835,0.0095,-0.0196,9.8066,-0.0288,-0.0292,0.0069,-18.23,21.72,-9.8,228.68,7.67,0.81
72508,51.100822,-2.995011,58,24.33,9,215.6,14 / 22,7251172,2019-08-16 14:50:04:952,0.144,0.5144,9.2446,-0.01,0.0094,9.8066,-0.0352,0.0389,0.0016,-18.23,21.72,-9.8,228.68,7.67,0.81
72509,51.100822,-2.995011,58,24.33,9,215.6,14 / 22,7251272,2019-08-16 14:50:05:052,-0.0504,0.0071,9.2091,-0.0038,0.0021,9.8067,0.0043,-0.0058,-0.0155,-17.04,21.95,-11.31,229.93,7.67,0.89
72510,51.100822,-2.995011,58,24.33,9,215.6,14 / 22,7251372,2019-08-16 14:50:05:152,-0.4093,0.0308,10.3293,0.014,-0.0025,9.8066,-0.0085,-0.0143,0.0037,-17.4,22.2,-10.21,230.17,7.71,0.82
72511,51.100822,-2.995011,58,24.33,9,215.6,14 / 22,7251474,2019-08-16 14:50:05:254,-0.029,0.099,8.9704,0.0043,0.028,9.8066,-0.0043,0.0272,0.0218,-17.4,22.2,-10.21,230.17,7.71,0.82
72512,51.100822,-2.995011,58,24.33,9,215.6,14 / 22,7251573,2019-08-16 14:50:05:353,-0.1944,0.0993,10.3223,-0.0113,0.0553,9.8065,-0.0043,0.0272,0.0218,-17.43,22.23,-10.1,230.04,7.92,1.08
72513,51.100822,-2.995011,58,24.33,9,215.6,14 / 22,7251673,2019-08-16 14:50:05:453,0.3387,-0.1806,11.052,-0.0269,-0.0306,9.8066,-0.0394,0.0379,-0.0059,-17.72,21.86,-10.4,230.04,7.92,1.08
72514,51.100647,-2.995219,59,24.48,9,215.2,14 / 22,7251773,2019-08-16 14:50:05:553,-0.0527,-0.5653,9.8305,-0.003,-0.0394,9.8066,-0.016,-0.0122,-0.0251,-18.5,21.76,-9.17,228.85,7.73,0.94
72515,51.100647,-2.995219,59,24.48,9,215.2,14 / 22,7251872,2019-08-16 14:50:05:652,0.2062,0.028,9.448,0.0117,-0.0189,9.8066,-0.0298,0.0347,0.0048,-18.5,21.76,-9.17,228.85,7.73,0.94
72516,51.100647,-2.995219,59,24.48,9,215.2,14 / 22,7251972,2019-08-16 14:50:05:752,0.0767,0.2244,9.7817,0.0044,-0.0221,9.8066,0.0373,0.0315,-0.0016,-18.93,21.44,-9.04,228.85,7.73,0.94
72517,51.100647,-2.995219,59,24.48,9,215.2,14 / 22,7252073,2019-08-16 14:50:05:853,0.2318,-0.6762,9.6587,-0.0057,0.0152,9.8066,0.0224,-0.0079,-0.0123,-18.33,22.27,-8.25,229.11,7.65,0.84
72518,51.100647,-2.995219,59,24.48,9,215.2,14 / 22,7252173,2019-08-16 14:50:05:953,-0.0543,0.1716,11.2076,0.0256,0.022,9.8066,0.0,-0.0591,-0.0155,-18.33,22.27,-8.25,229.11,7.65,0.84
72519,51.100647,-2.995219,59,24.48,9,215.2,14 / 22,7252272,2019-08-16 14:50:06:052,0.2206,-0.3968,10.0234,0.0442,0.0077,9.8065,0.016,-0.1091,-0.0091,-18.5,21.76,-9.17,228.87,7.84,0.81
72520,51.100647,-2.995219,59,24.48,9,215.2,14 / 22,7252373,2019-08-16 14:50:06:153,0.6655,0.1051,10.4531,0.0461,-0.0081,9.8065,0.016,-0.1091,-0.0091,-17.07,21.98,-11.2,229.96,7.98,0.57
72521,51.100647,-2.995219,59,24.48,9,215.2,14 / 22,7252473,2019-08-16 14:50:06:253,0.207,0.203,9.257,-0.0102,0.0109,9.8066,0.0341,0.0038,-0.0016,-17.07,21.98,-11.2,229.96,7.98,0.57
72522,51.100647,-2.995219,59,24.48,9,215.2,14 / 22,7252573,2019-08-16 14:50:06:353,0.3303,0.373,9.4741,0.0011,0.0079,9.8066,0.0149,-0.0474,-0.0123,-17.54,21.63,-11.15,228.44,7.99,0.66
72523,51.100647,-2.995219,59,24.48,9,215.2,14 / 22,7252674,2019-08-16 14:50:06:454,0.062,0.7358,9.5414,-0.0275,0.0009,9.8066,-0.0117,0.0208,0.0197,-18.05,21.5,-10.59,228.44,7.99,0.66
72524,51.100468,-2.995413,59,24.42,9,215.1,14 / 22,7252773,2019-08-16 14:50:06:553,-0.316,-0.0803,9.3065,-0.0528,-0.0188,9.8065,0.0106,0.0911,0.0165,-18.4,21.92,-8.99,228.89,7.71,0.82
72525,51.100468,-2.995413,59,24.42,9,215.1,14 / 22,7252872,2019-08-16 14:50:06:652,0.3605,-0.0487,10.0211,-0.0237,0.0247,9.8066,-0.0128,0.0379,0.0261,-18.4,21.92,-8.99,228.89,7.71,0.82
72526,51.100468,-2.995413,59,24.42,9,215.1,14 / 22,7252973,2019-08-16 14:50:06:753,0.0065,0.5515,9.7164,-0.0014,0.0037,9.8066,-0.0224,0.0027,0.0069,-18.16,20.76,-11.81,226.82,7.73,1.02
72527,51.100468,-2.995413,59,24.42,9,215.1,14 / 22,7253073,2019-08-16 14:50:06:853,0.0743,-0.0232,10.0041,-0.0075,-0.0086,9.8066,-0.0234,0.0272,-0.0165,-17.87,22.6,-8.37,230.32,7.66,1.02
72528,51.100468,-2.995413,59,24.42,9,215.1,14 / 22,7253173,2019-08-16 14:50:06:953,0.5828,0.2134,9.3634,0.0058,-0.0189,9.8066,0.0011,-0.0346,-0.0208,-18.44,22.41,-7.59,230.32,7.66,1.02
72529,51.100468,-2.995413,59,24.42,9,215.1,14 / 22,7253272,2019-08-16 14:50:07:052,0.1575,0.0598,9.7041,0.0179,-0.0257,9.8066,0.0011,-0.0346,-0.0208,-18.44,22.41,-7.59,230.32,7.66,1.02
72530,51.100468,-2.995413,59,24.42,9,215.1,14 / 22,7253373,2019-08-16 14:50:07:153,0.0366,0.1465,10.3096,-0.0047,-0.0006,9.8066,-0.0288,0.0155,0.0005,-18.31,22.25,-8.36,229.11,7.61,0.84
72531,51.100468,-2.995413,59,24.42,9,215.1,14 / 22,7253473,2019-08-16 14:50:07:253,-0.1247,-0.2866,9.4527,-0.012,0.0025,9.8066,0.0096,0.0176,-0.0048,-18.18,22.25,-8.64,229.11,7.61,0.84
72532,51.100468,-2.995413,59,24.42,9,215.1,14 / 22,7253572,2019-08-16 14:50:07:352,0.0335,-0.4316,10.0769,-0.0076,-0.0136,9.8066,0.0138,-0.025,-0.0123,-17.87,22.6,-8.37,230.39,7.52,0.82
72533,51.100468,-2.995413,59,24.42,9,215.1,14 / 22,7253673,2019-08-16 14:50:07:453,0.408,-0.0314,9.7784,0.0066,0.0016,9.8066,-0.0128,0.008,0.0176,-18.31,22.25,-8.36,229.13,7.55,0.8
72534,51.10029,-2.9956,59,24.45,9,215.1,14 / 22,7253774,2019-08-16 14:50:07:554,-0.3549,-0.1763,10.4062,0.0026,0.0212,9.8066,-0.0117,0.0155,-0.0101,-18.31,22.25,-8.36,229.13,7.55,0.8
72535,51.10029,-2.9956,59,24.45,9,215.1,14 / 22,7253872,2019-08-16 14:50:07:652,-0.2799,-0.0244,10.0456,-0.011,0.0178,9.8066,-0.0511,-0.0143,0.0069,-18.04,22.09,-9.31,228.88,7.59,0.92
72536,51.10029,-2.9956,59,24.45,9,215.1,14 / 22,7253973,2019-08-16 14:50:07:753,-0.1247,-0.2185,10.4984,-0.0061,-0.0589,9.8065,-0.0511,-0.0143,0.0069,-17.9,22.07,-9.62,228.78,7.31,0.71
72537,51.10029,-2.9956,59,24.45,9,215.1,14 / 22,7254073,2019-08-16 14:50:07:853,0.4396,-0.2949,9.2224,0.0311,-0.0269,9.8066,-0.0107,0.0187,0.0005,-17.9,22.07,-9.62,228.78,7.31,0.71
72538,51.10029,-2.9956,59,24.45,9,215.1,14 / 22,7254173,2019-08-16 14:50:07:953,0.3195,-0.484,8.7118,0.0135,0.0063,9.8066,0.0138,0.0283,-0.0112,-18.23,21.72,-9.8,228.86,7.31,0.47
72539,51.10029,-2.9956,59,24.45,9,215.1,14 / 22,7254273,2019-08-16 14:50:08:053,0.3913,0.3326,9.6297,0.0129,0.0086,9.8066,0.0085,0.0432,-0.0006,-18.23,21.72,-9.8,228.86,7.31,0.47
72540,51.10029,-2.9956,59,24.45,9,215.1,14 / 22,7254372,2019-08-16 14:50:08:152,0.0069,-0.0284,9.602,-0.0365,-0.0184,9.8066,0.0011,0.0357,0.0154,-17.72,21.86,-10.4,228.85,7.4,0.45
72541,51.10029,-2.9956,59,24.45,9,215.1,14 / 22,7254472,2019-08-16 14:50:08:252,-0.4331,-0.9024,9.266,-0.0658,-0.0315,9.8064,0.0905,-0.0569,-0.0389,-18.82,21.42,-9.33,228.85,7.4,0.45
72542,51.10029,-2.9956,59,24.45,9,215.1,14 / 22,7254573,2019-08-16 14:50:08:353,-0.9015,0.8595,10.4917,-0.0649,-0.031,9.8064,-0.0021,-0.1645,-0.0006,-18.82,21.42,-9.33,228.85,7.4,0.45
72543,51.10029,-2.9956,59,24.45,9,215.1,14 / 22,7254673,2019-08-16 14:50:08:453,-0.3335,0.2412,7.3753,0.0204,0.0023,9.8066,-0.0053,0.0538,0.0218,-17.72,22.41,-9.14,229.07,7.01,0.62
72544,51.100105,-2.995801,59,24.54,9,215.2,14 / 22,7254773,2019-08-16 14:50:08:553,-0.5198,0.7001,9.8257,0.0445,0.0589,9.8064,-0.0053,0.0538,0.0218,-18.19,22.43,-8.12,229.19,7.44,0.65
72545,51.100105,-2.995801,59,24.54,9,215.2,14 / 22,7254872,2019-08-16 14:50:08:652,0.4169,-0.7013,9.525,-0.0056,-0.0009,9.8066,-0.0288,0.056,-0.0123,-18.04,22.09,-9.31,229.19,7.44,0.65
72546,51.100105,-2.995801,59,24.54,9,215.2,14 / 22,7254972,2019-08-16 14:50:08:752,0.4229,0.4798,9.7335,0.0313,0.0097,9.8066,0.0202,0.0645,-0.0389,-18.33,22.27,-8.25,229.19,7.6,0.54
72547,51.100105,-2.995801,59,24.54,9,215.2,14 / 22,7255073,2019-08-16 14:50:08:853,0.7178,-0.155,9.7742,-0.0056,-0.0324,9.8066,-0.0234,-0.0101,0.0122,-18.04,22.09,-9.31,229.19,7.6,0.54
72548,51.100105,-2.995801,59,24.54,9,215.2,14 / 22,7255173,2019-08-16 14:50:08:953,0.8086,-0.8796,6.7262,0.0004,-0.0327,9.8066,0.0863,-0.1603,-0.0549,-18.04,22.09,-9.31,229.19,7.6,0.54
72549,51.100105,-2.995801,59,24.54,9,215.2,14 / 22,7255273,2019-08-16 14:50:09:053,0.1864,0.4618,11.1553,-0.0124,0.0238,9.8066,0.0064,0.0283,-0.0091,-17.57,21.67,-11.04,228.64,7.46,0.42
72550,51.100105,-2.995801,59,24.54,9,215.2,14 / 22,7255373,2019-08-16 14:50:09:153,0.0284,0.5443,10.1507,-0.0176,0.0378,9.8066,0.0394,0.0123,-0.0197,-17.57,22.41,-9.44,228.96,7.56,0.64
72551,51.100105,-2.995801,59,24.54,9,215.2,14 / 22,7255474,2019-08-16 14:50:09:254,0.6233,0.2443,8.812,-0.0346,-0.0208,9.8066,0.0394,0.0123,-0.0197,-17.57,22.41,-9.44,228.96,7.56,0.64
72552,51.100105,-2.995801,59,24.54,9,215.2,14 / 22,7255573,2019-08-16 14:50:09:353,-0.033,-0.9422,9.6352,-0.0003,-0.0457,9.8065,-0.0384,0.0283,-0.0208,-18.23,21.72,-9.8,228.78,7.33,0.71
72553,51.100105,-2.995801,59,24.54,9,215.2,14 / 22,7255673,2019-08-16 14:50:09:453,-0.0084,-0.667,9.2737,0.0678,-0.0719,9.8062,-0.0842,-0.0037,0.0218,-17.55,21.83,-10.75,228.77,7.28,0.13
72554,51.09993,-2.996012,60,24.65,9,215.1,14 / 22,7255773,2019-08-16 14:50:09:553,0.3561,0.0931,9.8469,0.0212,-0.0139,9.8066,0.0053,-0.0335,0.0016,-17.55,21.83,-10.75,228.77,7.28,0.13
72555,51.09993,-2.996012,60,24.65,9,215.1,14 / 22,7255873,2019-08-16 14:50:09:653,-0.6683,-0.0084,9.3266,-0.0212,0.0089,9.8066,0.0596,0.056,-0.0251,-17.57,22.41,-9.44,229.13,7.23,0.26
72556,51.09993,-2.996012,60,24.65,9,215.1,14 / 22,7255973,2019-08-16 14:50:09:753,-0.7006,-0.2588,10.8681,-0.0184,-0.0215,9.8066,-0.0181,-0.0047,-0.0219,-18.04,22.09,-9.31,229.12,6.95,0.47
72557,51.09993,-2.996012,60,24.65,9,215.1,14 / 22,7256072,2019-08-16 14:50:09:852,-0.2202,-0.2307,10.4458,0.0162,-0.0159,9.8066,-0.032,-0.0527,-0.024,-18.82,21.42,-9.33,229.12,6.95,0.47
72558,51.09993,-2.996012,60,24.65,9,215.1,14 / 22,7256172,2019-08-16 14:50:09:952,0.0668,-0.2616,10.0743,0.0221,-0.0318,9.8066,0.0128,-0.0218,-0.0112,-18.82,21.42,-9.33,229.12,6.95,0.47
72559,51.09993,-2.996012,60,24.65,9,215.1,14 / 22,7256273,2019-08-16 14:50:10:053,0.0892,-0.272,7.6514,-0.0321,-0.0449,9.8065,0.0128,-0.0218,-0.0112,-18.2,22.27,-8.53,229.19,6.89,0.25
72560,51.09993,-2.996012,60,24.65,9,215.1,14 / 22,7256372,2019-08-16 14:50:10:152,-0.964,0.0704,10.959,-0.0557,-0.0382,9.8064,0.0181,-0.0772,0.0122,-18.65,21.94,-8.4,229.19,6.89,0.25
72561,51.09993,-2.996012,60,24.65,9,215.1,14 / 22,7256472,2019-08-16 14:50:10:252,-0.3364,0.0163,9.6358,0.0272,-0.0074,9.8066,0.0106,-0.0495,-0.0219,-17.72,22.41,-9.14,229.23,6.51,0.35
72562,51.09993,-2.996012,60,24.65,9,215.1,14 / 22,7256572,2019-08-16 14:50:10:352,-0.6326,-0.14,8.9262,0.0483,-0.0376,9.8065,-0.0533,-0.0069,-0.0006,-17.73,21.71,-10.7,228.99,6.53,-0.01
72563,51.09993,-2.996012,60,24.65,9,215.1,14 / 22,7256673,2019-08-16 14:50:10:453,-0.8185,-0.7546,9.8377,-0.018,-0.0485,9.8065,0.0213,0.0762,0.008,-17.73,21.71,-10.7,228.99,6.53,-0.01
72564,51.09974,-2.996209,61,24.77,9,215.2,14 / 22,7256775,2019-08-16 14:50:10:555,0.2526,0.3506,10.4438,-0.0185,0.0037,9.8066,0.0362,-0.0484,0.0069,-17.75,21.89,-10.29,229.25,6.24,-0.12
72565,51.09974,-2.996209,61,24.77,9,215.2,14 / 22,7256873,2019-08-16 14:50:10:653,-0.0428,0.6774,10.2031,-0.0316,0.0343,9.8065,0.0362,-0.0484,0.0069,-18.06,22.27,-8.82,229.33,6.28,0.16
72566,51.09974,-2.996209,61,24.77,9,215.2,14 / 22,7256972,2019-08-16 14:50:10:752,-0.5474,-0.5632,8.7723,-0.012,0.0073,9.8066,0.0106,0.0315,0.0069,-18.37,21.74,-9.47,229.31,6.26,0.24
72567,51.09974,-2.996209,61,24.77,9,215.2,14 / 22,7257073,2019-08-16 14:50:10:853,-0.4718,0.2027,9.2961,-0.0212,0.0092,9.8066,0.0245,0.0869,0.0346,-18.37,21.74,-9.47,229.31,6.26,0.24
72568,51.09974,-2.996209,61,24.77,9,215.2,14 / 22,7257174,2019-08-16 14:50:10:954,-0.5085,0.2803,10.025,0.0008,0.0037,9.8066,-0.0107,-0.0143,0.0005,-18.06,22.27,-8.82,229.27,6.14,0.48
72569,51.09974,-2.996209,61,24.77,9,215.2,14 / 22,7257273,2019-08-16 14:50:11:053,-0.17,0.4472,9.1359,-0.0043,-0.0253,9.8066,-0.0416,-0.0335,-0.0027,-18.2,22.27,-8.53,229.26,6.16,0.49
72570,51.09974,-2.996209,61,24.77,9,215.2,14 / 22,7257373,2019-08-16 14:50:11:153,-0.5897,0.1419,10.262,-0.0348,-0.0774,9.8063,-0.0501,0.0688,0.0271,-18.33,22.27,-8.25,229.55,5.68,0.34
72571,51.09974,-2.996209,61,24.77,9,215.2,14 / 22,7257474,2019-08-16 14:50:11:254,-0.408,-0.6676,10.9037,-0.0591,-0.045,9.8064,0.0213,0.0272,0.009,-18.33,22.27,-8.25,229.55,5.68,0.34
72572,51.09974,-2.996209,61,24.77,9,215.2,14 / 22,7257574,2019-08-16 14:50:11:354,-0.3436,-0.9412,9.797,-0.0595,-0.0312,9.8064,-0.0053,-0.0143,0.0144,-19.23,21.77,-7.5,228.27,5.26,0.44
72573,51.09974,-2.996209,61,24.77,9,215.2,14 / 22,7257673,2019-08-16 14:50:11:453,0.1508,-1.1201,8.7949,-0.1062,-0.037,9.806,-0.0043,0.0464,0.0239,-19.56,21.43,-7.63,225.39,4.68,0.76
72574,51.099564,-2.996431,61,25.11,9,215.4,14 / 22,7257772,2019-08-16 14:50:11:552,-0.2756,-1.1504,10.0965,-0.0445,-0.0157,9.8065,0.0437,-0.0303,0.0261,-19.56,21.43,-7.63,225.39,4.68,0.76
72575,51.099564,-2.996431,61,25.11,9,215.4,14 / 22,7257873,2019-08-16 14:50:11:653,-0.3221,0.5089,9.6595,-0.0805,-0.0278,9.8063,0.0437,-0.0303,0.0261,-18.0,23.27,-5.89,231.18,4.24,0.98
72576,51.099564,-2.996431,61,25.11,9,215.4,14 / 22,7257973,2019-08-16 14:50:11:753,-0.7173,0.4337,10.1171,-0.0222,0.0082,9.8066,-0.0096,-0.0122,0.0048,-18.76,21.95,-8.14,231.18,4.24,0.98
72577,51.099564,-2.996431,61,25.11,9,215.4,14 / 22,7258072,2019-08-16 14:50:11:852,-0.4253,0.003,9.0314,-0.028,-0.0017,9.8066,-0.0043,-0.0026,-0.0176,-18.76,21.95,-8.14,231.18,4.24,0.98
72578,51.099564,-2.996431,61,25.11,9,215.4,14 / 22,7258173,2019-08-16 14:50:11:953,-0.0533,0.4279,9.1103,-0.024,-0.0338,9.8066,0.0,0.0645,0.0357,-17.87,22.6,-8.37,230.9,4.13,1.1
72579,51.099564,-2.996431,61,25.11,9,215.4,14 / 22,7258273,2019-08-16 14:50:12:053,-0.5296,-0.0984,10.067,-0.0648,-0.0427,9.8063,-0.0224,0.0048,0.0005,-18.34,22.45,-7.73,230.9,4.13,1.1
72580,51.099564,-2.996431,61,25.11,9,215.4,14 / 22,7258373,2019-08-16 14:50:12:153,-0.2724,-0.1189,11.1965,-0.0429,0.0047,9.8066,0.0085,0.0272,0.0101,-18.19,22.43,-8.12,229.7,3.7,1.24
72581,51.099564,-2.996431,61,25.11,9,215.4,14 / 22,7258473,2019-08-16 14:50:12:253,0.022,-0.4297,8.6384,-0.0523,0.0045,9.8065,-0.0032,0.0123,-0.0048,-18.68,22.11,-7.87,228.18,3.52,1.49
72582,51.099564,-2.996431,61,25.11,9,215.4,14 / 22,7258572,2019-08-16 14:50:12:352,0.0659,-0.4918,9.2438,0.0035,-0.0437,9.8066,0.033,-0.0484,-0.0283,-19.48,21.41,-7.89,228.18,3.52,1.49
72583,51.099564,-2.996431,61,25.11,9,215.4,14 / 22,7258673,2019-08-16 14:50:12:453,0.8011,0.1047,9.3542,0.0011,-0.0743,9.8064,0.033,-0.0484,-0.0283,-19.48,21.41,-7.89,228.18,3.52,1.49
72584,51.09937,-2.996629,61,25.75,9,215.2,14 / 22,7258772,2019-08-16 14:50:12:552,0.5949,-0.2176,10.135,-0.0095,0.0023,9.8066,-0.0139,0.0176,0.0122,-18.65,21.94,-8.4,228.31,3.2,1.19
72585,51.09937,-2.996629,61,25.75,9,215.2,14 / 22,7258872,2019-08-16 14:50:12:652,0.7016,0.6965,9.9886,0.0054,-0.0102,9.8066,0.0234,-0.0836,0.0314,-19.68,21.55,-6.94,226.98,3.22,1.23
72586,51.09937,-2.996629,61,25.75,9,215.2,14 / 22,7258973,2019-08-16 14:50:12:753,0.1908,-0.1679,9.1814,-0.0244,-0.0091,9.8066,0.0341,-0.0314,0.0144,-19.23,21.77,-7.5,228.42,3.19,1.17
72587,51.09937,-2.996629,61,25.75,9,215.2,14 / 22,7259073,2019-08-16 14:50:12:853,-0.2578,-0.1932,9.8127,-0.037,-0.0192,9.8066,0.0234,0.0421,0.0112,-19.85,21.67,-6.03,228.42,3.19,1.17
72588,51.09937,-2.996629,61,25.75,9,215.2,14 / 22,7259173,2019-08-16 14:50:12:953,-0.4272,0.1456,10.2112,-0.0461,-0.0563,9.8064,0.0202,0.0794,0.0186,-19.85,21.67,-6.03,228.42,3.19,1.17
72589,51.09937,-2.996629,61,25.75,9,215.2,14 / 22,7259272,2019-08-16 14:50:13:052,-0.6858,-0.4364,9.0316,-0.0176,0.0121,9.8066,-0.0128,0.0219,-0.0133,-19.75,21.56,-6.71,227.06,2.77,1.15
72590,51.09937,-2.996629,61,25.75,9,215.2,14 / 22,7259373,2019-08-16 14:50:13:153,-0.1901,-0.3472,8.9808,-0.0181,0.0056,9.8066,0.0192,-0.0346,-0.0059,-18.67,22.54,-6.58,229.74,2.75,1.27
72591,51.09937,-2.996629,61,25.75,9,215.2,14 / 22,7259473,2019-08-16 14:50:13:253,0.6383,-0.0081,9.8088,-0.0062,0.0101,9.8066,0.0192,-0.0346,-0.0059,-18.18,22.1,-9.01,229.75,2.77,1.34
72592,51.09937,-2.996629,61,25.75,9,215.2,14 / 22,7259573,2019-08-16 14:50:13:353,0.3211,-0.0658,9.202,0.0152,-0.0027,9.8066,-0.0192,-0.042,0.0101,-18.18,22.1,-9.01,229.75,2.77,1.34
72593,51.09937,-2.996629,61,25.75,9,215.2,14 / 22,7259673,2019-08-16 14:50:13:453,0.0534,-0.0878,9.0876,0.0022,-0.0172,9.8066,-0.0032,-0.0079,0.0069,-18.34,22.45,-7.73,229.87,2.82,1.26
72594,51.099182,-2.996851,62,26.5,9,215.1,14 / 22,7259772,2019-08-16 14:50:13:552,0.4253,0.7773,10.3486,0.0187,-0.0272,9.8066,-0.0352,0.0411,-0.0069,-17.56,22.61,-8.95,229.87,2.82,1.26
72595,51.099182,-2.996851,62,26.5,9,215.1,14 / 22,7259873,2019-08-16 14:50:13:653,0.2486,0.3418,9.0575,0.0084,-0.0448,9.8065,0.0032,0.0357,0.0101,-18.06,22.27,-8.82,229.85,2.65,1.06
72596,51.099182,-2.996851,62,26.5,9,215.1,14 / 22,7259973,2019-08-16 14:50:13:753,-0.0811,-0.8082,9.3295,-0.051,-0.008,9.8065,0.0458,-0.0719,-0.0261,-17.53,23.1,-7.7,229.85,2.65,1.06
72597,51.099182,-2.996851,62,26.5,9,215.1,14 / 22,7260072,2019-08-16 14:50:13:852,0.3811,0.3149,9.4352,-0.0535,0.0393,9.8064,-0.0224,-0.0772,0.0314,-17.53,23.1,-7.7,229.85,2.65,1.06
72598,51.099182,-2.996851,62,26.5,9,215.1,14 / 22,7260174,2019-08-16 14:50:13:954,0.5571,0.3797,8.6605,0.0439,0.0798,9.8062,0.0479,-0.0559,-0.0272,-17.55,22.9,-8.22,231.13,2.62,1.44
72599,51.099182,-2.996851,62,26.5,9,215.1,14 / 22,7260273,2019-08-16 14:50:14:053,0.5395,0.8218,9.5027,0.0832,0.1378,9.8053,0.0479,-0.0559,-0.0272,-18.0,22.77,-7.59,231.13,2.62,1.44
72600,51.099182,-2.996851,62,26.5,9,215.1,14 / 22,7260372,2019-08-16 14:50:14:152,-0.0011,0.3913,10.1973,0.0264,0.0522,9.8065,-0.0277,0.0464,0.0282,-17.84,22.76,-7.96,230.91,3.56,1.57
72601,51.099182,-2.996851,62,26.5,9,215.1,14 / 22,7260472,2019-08-16 14:50:14:252,0.2327,1.0944,10.4685,0.0353,0.1298,9.8057,0.0469,-0.0271,0.0197,-17.84,22.76,-7.96,230.91,3.56,1.57
72602,51.099182,-2.996851,62,26.5,9,215.1,14 / 22,7260572,2019-08-16 14:50:14:352,0.5559,1.2137,10.1222,0.0068,0.0828,9.8063,0.0362,-0.0111,0.0229,-18.79,22.11,-7.61,227.95,4.27,1.89
72603,51.099182,-2.996851,62,26.5,9,215.1,14 / 22,7260673,2019-08-16 14:50:14:453,0.3697,0.5429,9.6271,0.0164,0.0655,9.8064,-0.0011,-0.0783,0.0005,-18.34,22.45,-7.73,229.28,4.66,2.18
72604,51.098995,-2.997076,62,27.19,9,214.8,14 / 22,7260773,2019-08-16 14:50:14:553,0.4604,0.8654,10.5934,0.0482,0.1276,9.8057,0.0085,-0.0143,-0.0069,-18.07,22.11,-9.2,228.87,5.41,2.46
72605,51.098995,-2.997076,62,27.19,9,214.8,14 / 22,7260873,2019-08-16 14:50:14:653,0.4475,0.6463,8.8509,0.0389,0.0651,9.8064,0.0213,0.0325,0.0314,-18.07,22.11,-9.2,228.87,5.41,2.46
72606,51.098995,-2.997076,62,27.19,9,214.8,14 / 22,7260973,2019-08-16 14:50:14:753,0.3614,0.3941,8.5947,0.0184,0.0455,9.8065,-0.0021,-0.0175,0.0357,-18.06,22.27,-8.82,228.69,6.04,2.64
72607,51.098995,-2.997076,62,27.19,9,214.8,14 / 22,7261073,2019-08-16 14:50:14:853,0.3996,0.4585,9.852,0.0239,0.0982,9.8061,-0.0021,-0.0175,0.0357,-18.25,21.75,-9.68,228.69,6.04,2.64
72608,51.098995,-2.997076,62,27.19,9,214.8,14 / 22,7261173,2019-08-16 14:50:14:953,0.2271,0.4997,9.1585,0.0137,0.0556,9.8065,-0.0085,0.0144,0.0421,-18.07,21.53,-10.47,228.26,6.56,2.92
72609,51.098995,-2.997076,62,27.19,9,214.8,14 / 22,7261273,2019-08-16 14:50:15:053,0.1672,0.9248,10.0033,0.0288,0.1084,9.806,-0.0288,-0.0069,0.0271,-18.07,21.53,-10.47,228.26,6.56,2.92
72610,51.098995,-2.997076,62,27.19,9,214.8,14 / 22,7261373,2019-08-16 14:50:15:153,0.682,0.6557,10.0509,0.0332,0.0329,9.8065,-0.0309,0.0411,-0.0123,-17.75,21.89,-10.29,228.03,7.14,3.22
72611,51.098995,-2.997076,62,27.19,9,214.8,14 / 22,7261474,2019-08-16 14:50:15:254,0.4455,0.4718,9.6821,0.1079,0.0684,9.8058,-0.0234,-0.0015,0.0048,-18.82,21.42,-9.33,225.42,7.86,3.01
72612,51.098995,-2.997076,62,27.19,9,214.8,14 / 22,7261573,2019-08-16 14:50:15:353,0.6082,0.4809,9.6522,0.055,0.0172,9.8065,-0.016,0.0293,0.008,-18.52,21.79,-9.06,225.42,7.86,3.01
72613,51.098995,-2.997076,62,27.19,9,214.8,14 / 22,7261673,2019-08-16 14:50:15:453,0.5647,-0.0817,10.09,0.0929,0.0291,9.8062,0.0106,-0.0474,0.0101,-18.52,21.79,-9.06,225.42,7.86,3.01
72614,51.098797,-2.997297,62,27.09,9,213.9,14 / 22,7261772,2019-08-16 14:50:15:552,0.1989,-0.1501,9.2155,0.1298,0.0385,9.8057,-0.0256,0.0656,0.0122,-19.56,21.43,-7.63,224.32,8.56,2.63
72615,51.098797,-2.997297,62,27.09,9,213.9,14 / 22,7261874,2019-08-16 14:50:15:654,0.597,0.1376,10.0488,0.0028,0.0083,9.8066,-0.0256,0.0656,0.0122,-18.67,21.97,-8.29,227.06,8.59,2.53
72616,51.098797,-2.997297,62,27.09,9,213.9,14 / 22,7261972,2019-08-16 14:50:15:752,0.7098,0.3899,9.6742,0.021,0.0512,9.8065,0.0021,-0.0261,0.0197,-18.46,22.43,-7.48,228.7,8.89,2.65
72617,51.098797,-2.997297,62,27.09,9,213.9,14 / 22,7262073,2019-08-16 14:50:15:853,0.4469,0.2665,9.4256,0.0379,0.028,9.8065,0.0288,-0.0186,-0.0048,-18.46,22.43,-7.48,228.7,8.89,2.65
72618,51.098797,-2.997297,62,27.09,9,213.9,14 / 22,7262173,2019-08-16 14:50:15:953,0.2041,0.2146,9.2521,0.0538,0.0395,9.8064,-0.0511,0.0166,0.0112,-17.98,22.93,-7.14,228.7,8.89,2.65
72619,51.098797,-2.997297,62,27.09,9,213.9,14 / 22,7262273,2019-08-16 14:50:16:053,0.2524,-0.2413,9.4603,0.0054,0.0118,9.8066,-0.0213,0.024,0.0005,-18.53,21.94,-8.68,226.66,9.27,2.56
72620,51.098797,-2.997297,62,27.09,9,213.9,14 / 22,7262372,2019-08-16 14:50:16:152,-0.0132,0.2017,9.9392,0.0356,0.0177,9.8066,-0.016,0.0112,-0.0037,-18.53,21.94,-8.68,226.66,9.27,2.56
72621,51.098797,-2.997297,62,27.09,9,213.9,14 / 22,7262473,2019-08-16 14:50:16:253,0.0187,-0.1983,9.022,0.0207,0.0055,9.8066,-0.0032,-0.0591,0.0218,-18.53,21.94,-8.68,226.65,9.49,2.48
72622,51.098797,-2.997297,62,27.09,9,213.9,14 / 22,7262573,2019-08-16 14:50:16:353,0.4986,0.0874,10.0434,0.0397,-0.0001,9.8066,-0.0032,-0.0591,0.0218,-18.87,21.58,-8.84,226.66,9.59,2.41
72623,51.098797,-2.997297,62,27.09,9,213.9,14 / 22,7262673,2019-08-16 14:50:16:453,0.0254,0.1725,9.6034,0.0669,0.012,9.8064,0.0309,-0.0367,-0.0165,-18.57,21.34,-9.98,225.04,9.91,2.17
72624,51.098602,-2.99751,63,26.59,9,213.4,14 / 22,7262773,2019-08-16 14:50:16:553,-0.2267,0.3014,10.4344,0.0251,0.0191,9.8066,0.0011,-0.0079,-0.0091,-18.2,20.92,-11.44,225.04,9.91,2.17
72625,51.098602,-2.99751,63,26.59,9,213.4,14 / 22,7262872,2019-08-16 14:50:16:652,0.1242,0.5488,8.9001,0.0691,0.0598,9.8062,0.0181,-0.0101,-0.0006,-18.2,20.92,-11.44,225.04,9.91,2.17
72626,51.098602,-2.99751,63,26.59,9,213.4,14 / 22,7262972,2019-08-16 14:50:16:752,0.2387,0.3315,8.5032,0.0295,0.0356,9.8065,0.0192,-0.0239,0.0144,-18.33,20.95,-11.18,226.05,10.45,2.13
72627,51.098602,-2.99751,63,26.59,9,213.4,14 / 22,7263072,2019-08-16 14:50:16:852,0.4773,-0.4658,10.3837,0.0425,0.0706,9.8063,0.0032,-0.0271,-0.0027,-18.37,21.74,-9.47,226.05,10.45,2.13
72628,51.098602,-2.99751,63,26.59,9,213.4,14 / 22,7263173,2019-08-16 14:50:16:953,0.0858,-0.4532,11.371,0.0227,0.0764,9.8063,0.0043,0.0293,-0.0144,-17.23,22.18,-10.55,228.67,10.86,2.35
72629,51.098602,-2.99751,63,26.59,9,213.4,14 / 22,7263273,2019-08-16 14:50:17:053,-0.7489,-0.0986,10.0351,-0.0217,0.0043,9.8066,-0.0266,-0.0143,-0.0016,-18.15,22.22,-8.75,227.85,10.79,2.47
72630,51.098602,-2.99751,63,26.59,9,213.4,14 / 22,7263373,2019-08-16 14:50:17:153,-0.1694,-0.1151,9.3666,0.0,-0.0151,9.8066,0.0714,0.024,-0.0016,-18.15,22.22,-8.75,227.85,10.79,2.47
72631,51.098602,-2.99751,63,26.59,9,213.4,14 / 22,7263473,2019-08-16 14:50:17:253,0.7608,0.4967,5.4556,0.0054,0.001,9.8067,0.0714,0.024,-0.0016,-18.8,21.39,-9.44,225.11,10.82,2.45
72632,51.098602,-2.99751,63,26.59,9,213.4,14 / 22,7263573,2019-08-16 14:50:17:353,-0.2786,-0.6642,8.8988,0.015,-0.0219,9.8066,-0.0714,0.0475,-0.0112,-18.49,21.14,-10.53,225.92,10.79,2.29
