,GPS LATITUDE (degrees), GPS LONGITUDE (degrees), GPS ALTITUDE (m), GPS SPEED (Kmh), GPS ACCURACY (m), GPS ORIENTATION (Â°),GPS SATELLITES IN RANGE, TIME SINCE START (ms), DATE (YYYY-MO-DD HH-MI-SS_SSS), ACCELEROMETER X (m/s²) , ACCELEROMETER Y (m/s²), ACCELEROMETER Z (m/s²), GRAVITY X (m/s²), GRAVITY Y (m/s²), GRAVITY Z (m/s²), GYROSCOPE Yaw (rad/s), GYROSCOPE Pitch (rad/s), GYROSCOPE Roll (rad/s), MAGNETIC FIELD X (Î¼T), MAGNETIC FIELD Y (Î¼T), MAGNETIC FIELD Z (Î¼T), ORIENTATION (Yaw) (Â°), ORIENTATION (Pitch) (Â°), ORIENTATION (Roll ) (Â°)
46383,52.24704,-1.642994,129,24.49,10.0,41.1,16 / 24,4638342,2019-08-31 11:07:38:421,-0.7933,-0.2023,9.2907,-0.0221,-0.0017,9.8066,-0.0256,0.0016,0.0217,13.89,-16.61,-20.77,49.67,-2.99,1.93
46384,52.24704,-1.642994,129,24.49,10.0,41.1,16 / 24,4638441,2019-08-31 11:07:38:520,-0.2919,-0.5074,8.6199,-0.0712,0.0047,9.8064,0.0021,-0.0847,0.0121,13.89,-16.61,-20.77,49.67,-2.99,1.93
46385,52.24704,-1.642994,129,24.49,10.0,41.1,16 / 24,4638541,2019-08-31 11:07:38:620,-0.5587,-0.223,9.8106,-0.0016,0.0209,9.8066,0.0053,0.0634,0.0355,13.59,-17.24,-20.44,49.63,-2.74,1.6
46386,52.24704,-1.642994,129,24.49,10.0,41.1,16 / 24,4638640,2019-08-31 11:07:38:719,-0.1813,0.2877,6.9316,0.0186,0.0196,9.8066,0.0064,-0.0506,-0.0018,13.95,-17.7,-19.8,49.63,-2.74,1.6
46387,52.24704,-1.642994,129,24.49,10.0,41.1,16 / 24,4638741,2019-08-31 11:07:38:820,-0.3099,-0.464,8.4439,0.0141,0.0407,9.8066,0.0064,-0.0506,-0.0018,13.66,-17.75,-19.96,51.1,-2.9,1.6
46388,52.24704,-1.642994,129,24.49,10.0,41.1,16 / 24,4638841,2019-08-31 11:07:38:920,0.6338,0.7546,10.3655,0.0054,0.0389,9.8066,0.0415,-0.0464,-0.0231,13.66,-17.75,-19.96,51.1,-2.9,1.6
46389,52.24704,-1.642994,129,24.49,10.0,41.1,16 / 24,4638942,2019-08-31 11:07:39:021,-0.9369,0.097,9.1446,-0.0133,0.007,9.8066,0.0074,-0.0347,0.0025,13.51,-17.55,-20.24,50.92,-3.1,1.49
46390,52.247234,-1.642739,129,25.09,10.0,40.6,16 / 24,4639041,2019-08-31 11:07:39:120,0.6518,0.3052,9.5348,-0.0494,-0.047,9.8064,0.0287,-0.0368,0.0174,13.94,-17.17,-20.27,50.92,-3.1,1.49
46391,52.247234,-1.642739,129,25.09,10.0,40.6,14 / 24,4639141,2019-08-31 11:07:39:220,-0.3059,0.2225,8.1647,-0.077,-0.0986,9.8059,-0.0096,0.0634,0.0046,13.66,-17.22,-20.42,49.82,-2.37,1.5
46392,52.247234,-1.642739,129,25.09,10.0,40.6,14 / 24,4639241,2019-08-31 11:07:39:320,0.7743,0.1632,9.9153,-0.0036,0.004,9.8066,-0.0267,0.0389,0.0089,13.66,-17.22,-20.42,49.82,-2.37,1.5
46393,52.247234,-1.642739,129,25.09,10.0,40.6,14 / 24,4639341,2019-08-31 11:07:39:420,0.05,-0.1262,10.4716,0.0258,0.0066,9.8066,-0.0054,-0.0922,0.0206,14.15,-17.34,-19.98,49.79,-2.49,1.59
46394,52.247234,-1.642739,129,25.09,10.0,40.6,14 / 24,4639442,2019-08-31 11:07:39:521,0.6612,0.5172,13.3165,0.0186,-0.0122,9.8066,-0.0054,-0.0922,0.0206,14.43,-17.25,-19.86,49.85,-2.51,1.72
46395,52.247234,-1.642739,129,25.09,10.0,40.6,14 / 24,4639542,2019-08-31 11:07:39:621,1.4365,0.3142,9.9893,0.0262,0.0347,9.8066,-0.0703,-0.0773,0.06,14.09,-17.36,-20.0,49.6,-2.89,1.69
46396,52.247234,-1.642739,129,25.09,10.0,40.6,14 / 24,4639641,2019-08-31 11:07:39:720,0.1646,0.3707,8.0629,0.0305,0.0835,9.8062,0.0117,0.1305,-0.0103,14.09,-17.36,-20.0,49.6,-2.89,1.69
46397,52.247234,-1.642739,129,25.09,10.0,40.6,14 / 24,4639741,2019-08-31 11:07:39:820,-0.5023,0.3469,9.6714,-0.0432,-0.0124,9.8065,-0.0086,0.0026,-0.0071,13.98,-17.65,-19.83,50.76,-3.38,1.51
46398,52.247234,-1.642739,129,25.09,10.0,40.6,14 / 24,4639840,2019-08-31 11:07:39:919,-0.4796,-0.5698,8.694,-0.1022,-0.0784,9.8058,-0.0341,-0.0432,0.0131,14.43,-17.25,-19.86,50.76,-3.38,1.51
46399,52.247234,-1.642739,129,25.09,10.0,40.6,14 / 24,4639941,2019-08-31 11:07:40:020,-0.4903,-0.1263,9.6928,-0.1286,-0.1386,9.8048,-0.0064,-0.0187,0.0046,14.43,-17.25,-19.86,50.76,-3.38,1.51
46400,52.247402,-1.642495,129,24.9,10.0,40.3,14 / 24,4640041,2019-08-31 11:07:40:120,0.1658,0.0625,10.1356,-0.0379,-0.0249,9.8065,0.0096,0.0516,0.0046,14.4,-16.71,-20.34,49.84,-2.27,1.44
46401,52.247402,-1.642495,129,24.9,10.0,40.3,14 / 24,4640141,2019-08-31 11:07:40:220,-0.1055,-0.288,9.8386,-0.0624,-0.0413,9.8064,0.065,0.0399,0.0121,13.94,-17.17,-20.27,49.84,-2.27,1.44
46402,52.247402,-1.642495,129,24.9,10.0,40.3,14 / 24,4640241,2019-08-31 11:07:40:320,-0.2819,-0.2359,10.5699,-0.0351,-0.0739,9.8063,0.0351,0.0357,0.0014,14.05,-16.8,-20.5,50.19,-1.81,1.57
46403,52.247402,-1.642495,129,24.9,10.0,40.3,14 / 24,4640341,2019-08-31 11:07:40:420,-0.4041,0.0978,10.9539,0.0089,-0.0244,9.8066,0.0351,0.0357,0.0014,14.05,-16.8,-20.5,50.19,-1.81,1.57
46404,52.247402,-1.642495,129,24.9,10.0,40.3,14 / 24,4640441,2019-08-31 11:07:40:520,-0.2874,-0.2958,9.6646,0.0035,-0.0117,9.8066,0.0362,-0.0027,0.0174,13.54,-16.68,-20.94,50.32,-1.74,1.7
46405,52.247402,-1.642495,129,24.9,10.0,40.3,14 / 24,4640541,2019-08-31 11:07:40:620,0.5343,0.1443,10.5643,-0.0338,-0.0275,9.8066,0.0277,0.058,-0.006,13.42,-17.02,-20.75,52.52,-1.65,1.97
46406,52.247402,-1.642495,129,24.9,10.0,40.3,14 / 24,4640641,2019-08-31 11:07:40:720,0.2598,-0.3161,10.4666,-0.1017,-0.0511,9.806,-0.0693,-0.0847,0.0131,13.42,-17.02,-20.75,52.52,-1.65,1.97
46407,52.247402,-1.642495,129,24.9,10.0,40.3,14 / 24,4640741,2019-08-31 11:07:40:820,-0.1523,-0.0722,10.8347,-0.0597,-0.0284,9.8064,-0.0288,0.0175,0.011,14.07,-17.33,-20.04,50.77,-1.05,1.68
46408,52.247402,-1.642495,129,24.9,10.0,40.3,14 / 24,4640841,2019-08-31 11:07:40:920,-0.1839,0.1937,11.4642,-0.0105,0.024,9.8066,-0.0277,0.0943,-0.0114,13.86,-16.58,-20.81,50.92,-0.71,1.52
46409,52.247402,-1.642495,129,24.9,10.0,40.3,14 / 24,4640941,2019-08-31 11:07:41:020,0.4468,0.2741,11.1613,0.0101,0.0534,9.8065,0.0564,0.074,0.0089,13.54,-16.68,-20.94,50.64,-0.98,1.37
46410,52.24759,-1.642269,129,24.63,10.0,39.8,14 / 24,4641041,2019-08-31 11:07:41:120,0.0659,0.2019,9.0794,0.0737,0.0317,9.8063,0.0383,0.0452,0.0078,13.54,-16.68,-20.94,50.64,-0.98,1.37
46411,52.24759,-1.642269,129,24.63,10.0,39.8,14 / 24,4641141,2019-08-31 11:07:41:220,0.1243,0.2132,9.5409,0.0136,0.0008,9.8066,0.0383,0.0452,0.0078,12.99,-17.11,-20.94,52.47,-1.4,1.58
46412,52.24759,-1.642269,129,24.63,10.0,39.8,14 / 24,4641242,2019-08-31 11:07:41:321,-0.5755,-0.1388,9.2558,0.0003,0.0158,9.8066,-0.0064,-0.0751,-0.0103,12.96,-16.58,-21.38,52.47,-1.4,1.58
46413,52.24759,-1.642269,129,24.63,10.0,39.8,14 / 24,4641341,2019-08-31 11:07:41:420,0.0663,-0.1724,10.4253,-0.0146,0.0156,9.8066,-0.0117,-0.024,0.0451,13.82,-16.53,-20.87,50.39,-1.42,1.46
46414,52.24759,-1.642269,129,24.63,10.0,39.8,14 / 24,4641442,2019-08-31 11:07:41:521,-0.3734,0.0762,11.5181,0.0182,-0.0062,9.8066,0.0159,-0.0187,0.0046,13.82,-16.53,-20.87,50.39,-1.42,1.46
46415,52.24759,-1.642269,129,24.63,10.0,39.8,14 / 24,4641541,2019-08-31 11:07:41:620,0.502,-0.1531,9.2242,0.0148,0.0005,9.8066,-0.0299,-0.0378,0.0653,13.27,-16.45,-21.29,50.77,-1.49,1.58
46416,52.24759,-1.642269,129,24.63,10.0,39.8,14 / 24,4641641,2019-08-31 11:07:41:720,0.757,0.1714,10.0377,0.0032,-0.0264,9.8066,0.0266,-0.0197,0.0014,13.64,-16.3,-21.17,48.9,-1.38,1.69
46417,52.24759,-1.642269,129,24.63,10.0,39.8,14 / 24,4641741,2019-08-31 11:07:41:820,0.2199,0.0526,9.6658,0.0161,0.0025,9.8066,0.0245,0.0346,-0.0018,13.64,-16.3,-21.17,48.9,-1.38,1.69
46418,52.24759,-1.642269,129,24.63,10.0,39.8,14 / 24,4641841,2019-08-31 11:07:41:920,-0.0181,0.1582,9.2082,0.0304,0.0187,9.8066,0.0298,0.0261,0.0334,13.76,-16.55,-20.9,50.54,-1.45,1.75
46419,52.24759,-1.642269,129,24.63,10.0,39.8,14 / 24,4641941,2019-08-31 11:07:42:020,0.0572,-0.0235,11.0727,0.0386,-0.0034,9.8066,0.0298,0.0261,0.0334,13.73,-16.52,-20.94,50.45,-1.65,1.82
46420,52.24775,-1.642048,129,24.22,10.0,39.6,14 / 24,4642042,2019-08-31 11:07:42:121,-0.1128,-0.0522,10.5749,0.0572,0.0113,9.8065,0.0394,-0.04,0.0046,13.73,-16.52,-20.94,50.45,-1.65,1.82
46421,52.24775,-1.642048,129,24.22,10.0,39.6,14 / 24,4642141,2019-08-31 11:07:42:220,0.4548,0.3617,11.1765,0.0264,0.0173,9.8066,0.0255,0.0516,-0.005,12.83,-16.55,-21.49,52.37,-1.91,2.03
46422,52.24775,-1.642048,129,24.22,10.0,39.6,14 / 24,4642241,2019-08-31 11:07:42:320,0.019,0.3601,8.9789,0.0289,0.0417,9.8065,0.0245,-0.0368,-0.0071,13.42,-16.65,-21.04,52.15,-2.21,2.02
46423,52.24775,-1.642048,129,24.22,10.0,39.6,14 / 24,4642341,2019-08-31 11:07:42:420,0.0316,-0.031,10.3822,-0.0102,-0.0056,9.8066,0.0468,-0.0389,0.0068,13.36,-16.07,-21.53,52.15,-2.21,2.02
46424,52.24775,-1.642048,129,24.22,10.0,39.6,14 / 24,4642442,2019-08-31 11:07:42:521,-0.9852,-0.1537,10.6248,-0.0082,-0.0041,9.8066,0.0266,-0.0133,0.0345,13.36,-16.07,-21.53,52.15,-2.21,2.02
46425,52.24775,-1.642048,129,24.22,10.0,39.6,14 / 24,4642542,2019-08-31 11:07:42:621,-0.1187,0.2887,9.1951,0.0223,-0.0029,9.8066,0.0266,-0.0133,0.0345,13.36,-16.07,-21.53,50.53,-2.16,2.0
46426,52.24775,-1.642048,129,24.22,10.0,39.6,14 / 24,4642642,2019-08-31 11:07:42:721,-0.7088,-0.0514,10.6,0.0142,-0.0003,9.8066,0.0479,0.0101,-0.0103,12.93,-16.25,-21.65,50.55,-2.23,2.11
46427,52.24775,-1.642048,129,24.22,10.0,39.6,14 / 24,4642741,2019-08-31 11:07:42:820,-0.1215,-0.3521,10.0913,0.0227,0.0074,9.8066,0.0341,-0.0197,-0.0028,12.93,-16.25,-21.65,50.55,-2.23,2.11
46428,52.24775,-1.642048,129,24.22,10.0,39.6,14 / 24,4642841,2019-08-31 11:07:42:920,-1.3849,0.1776,10.1377,0.0345,-0.0023,9.8066,0.0213,-0.0677,0.01,13.17,-15.84,-21.81,50.51,-2.35,2.18
46429,52.24775,-1.642048,129,24.22,10.0,39.6,14 / 24,4642941,2019-08-31 11:07:43:020,1.0233,0.1736,7.9264,0.0463,0.0059,9.8065,0.0405,-0.007,-0.0316,13.46,-15.76,-21.69,50.49,-2.55,2.37
46430,52.24793,-1.641815,131,24.02,9.0,39.7,14 / 24,4643041,2019-08-31 11:07:43:120,0.1809,-0.1549,11.9521,0.0057,-0.0103,9.8066,0.0245,-0.1145,0.0078,13.46,-15.76,-21.69,50.49,-2.55,2.37
46431,52.24793,-1.641815,131,24.02,9.0,39.7,14 / 24,4643141,2019-08-31 11:07:43:220,-0.5405,-0.1697,9.7027,-0.0021,-0.0105,9.8066,0.0074,0.0474,-0.022,13.98,-15.27,-21.71,46.84,-2.49,2.4
46432,52.24793,-1.641815,131,24.02,9.0,39.7,14 / 24,4643241,2019-08-31 11:07:43:320,-0.2727,0.0316,11.0842,-0.0142,0.0096,9.8066,0.0074,0.0474,-0.022,13.36,-16.07,-21.53,46.84,-2.49,2.4
46433,52.24793,-1.641815,131,24.02,9.0,39.7,14 / 24,4643341,2019-08-31 11:07:43:420,0.3316,0.326,9.0002,-0.0098,-0.0104,9.8066,0.0032,-0.0666,-0.0135,13.88,-15.58,-21.55,48.48,-2.52,2.27
46434,52.24793,-1.641815,131,24.02,9.0,39.7,14 / 24,4643441,2019-08-31 11:07:43:520,0.2582,-0.0981,9.0999,-0.0008,-0.0147,9.8066,0.0032,0.0133,-0.0231,14.09,-15.48,-21.49,46.83,-2.45,2.32
46435,52.24793,-1.641815,131,24.02,9.0,39.7,14 / 24,4643541,2019-08-31 11:07:43:620,0.364,-0.3584,10.1144,-0.0181,0.008,9.8066,0.0064,-0.0101,0.0217,13.98,-15.27,-21.71,46.83,-2.45,2.32
46436,52.24793,-1.641815,131,24.02,9.0,39.7,14 / 24,4643641,2019-08-31 11:07:43:720,-0.1895,-0.0351,11.0732,-0.0177,-0.0058,9.8066,0.0287,-0.0038,-0.005,13.98,-15.27,-21.71,46.83,-2.45,2.32
46437,52.24793,-1.641815,131,24.02,9.0,39.7,14 / 24,4643741,2019-08-31 11:07:43:820,0.1088,0.1297,10.2889,0.0088,0.0053,9.8066,0.0319,0.0165,-0.0145,14.1,-14.89,-21.9,46.85,-2.36,2.27
46438,52.24793,-1.641815,131,24.02,9.0,39.7,14 / 24,4643841,2019-08-31 11:07:43:920,0.6029,0.052,11.491,0.0327,0.0306,9.8065,0.049,0.0346,0.0057,13.9,-14.67,-22.17,46.85,-2.36,2.27
46439,52.24793,-1.641815,131,24.02,9.0,39.7,14 / 24,4643941,2019-08-31 11:07:44:020,0.0336,-0.0877,9.9012,0.0455,0.048,9.8064,0.001,-0.0315,-0.0412,13.48,-15.7,-21.72,50.28,-2.74,2.27
46440,52.2481,-1.641588,130,24.01,9.0,40.3,14 / 24,4644041,2019-08-31 11:07:44:120,0.1345,0.0314,8.7895,0.0111,0.0035,9.8066,0.001,-0.0315,-0.0412,13.48,-15.7,-21.72,50.28,-2.74,2.27
46441,52.2481,-1.641588,130,24.01,9.0,40.3,14 / 24,4644141,2019-08-31 11:07:44:220,0.0631,0.0976,10.5412,-0.0043,-0.034,9.8066,0.0724,-0.0357,-0.0231,13.93,-14.7,-22.13,46.57,-2.8,2.31
46442,52.2481,-1.641588,130,24.01,9.0,40.3,14 / 24,4644241,2019-08-31 11:07:44:320,-0.1296,0.2711,7.7556,-0.0147,-0.0901,9.8062,0.0436,0.0165,-0.0145,13.93,-14.7,-22.13,46.57,-2.8,2.31
46443,52.2481,-1.641588,130,24.01,9.0,40.3,14 / 24,4644341,2019-08-31 11:07:44:420,0.5188,-0.1304,8.1851,-0.0289,-0.0224,9.8066,-0.0469,-0.1167,0.0046,14.26,-14.6,-21.99,47.08,-2.36,2.61
46444,52.2481,-1.641588,130,24.01,9.0,40.3,14 / 24,4644442,2019-08-31 11:07:44:521,-0.6264,-0.0682,10.4429,-0.0555,-0.0297,9.8064,-0.0011,-0.0155,-0.0252,14.26,-14.6,-21.99,47.08,-2.36,2.61
46445,52.2481,-1.641588,130,24.01,9.0,40.3,14 / 24,4644541,2019-08-31 11:07:44:620,0.2448,-0.0508,10.3064,-0.0185,0.0403,9.8066,-0.0384,0.0144,0.0014,14.46,-14.82,-21.71,47.24,-2.01,2.49
46446,52.2481,-1.641588,130,24.01,9.0,40.3,14 / 24,4644641,2019-08-31 11:07:44:720,0.9926,-0.0042,9.9331,0.015,0.0509,9.8065,0.0223,0.0911,-0.0167,13.98,-15.27,-21.71,47.01,-2.11,2.25
46447,52.2481,-1.641588,130,24.01,9.0,40.3,14 / 24,4644741,2019-08-31 11:07:44:820,0.6716,0.222,10.5126,0.0434,0.0862,9.8062,-0.0107,0.0346,-0.0018,13.41,-15.2,-22.12,48.49,-2.65,2.09
46448,52.2481,-1.641588,130,24.01,9.0,40.3,14 / 24,4644841,2019-08-31 11:07:44:920,0.2799,0.3212,10.2177,0.0181,0.0246,9.8066,-0.0118,-0.0133,-0.0092,13.61,-15.42,-21.84,48.49,-2.65,2.09
46449,52.2481,-1.641588,130,24.01,9.0,40.3,14 / 24,4644941,2019-08-31 11:07:45:020,-0.3379,0.0308,11.1023,0.0159,0.0354,9.8066,0.017,0.0218,-0.0124,13.61,-15.42,-21.84,48.49,-2.65,2.09
46450,52.24826,-1.641358,131,23.99,9.0,40.9,14 / 24,4645041,2019-08-31 11:07:45:120,-0.5218,0.0365,10.8001,0.0247,0.0359,9.8066,0.017,0.0218,-0.0124,14.01,-15.3,-21.67,46.33,-2.9,2.06
46451,52.24826,-1.641358,131,23.99,9.0,40.9,14 / 24,4645141,2019-08-31 11:07:45:220,-0.5049,-0.4309,10.3218,0.0006,-0.0294,9.8066,0.0032,-0.0677,0.0004,13.83,-15.02,-21.98,46.49,-2.78,2.18
46452,52.24826,-1.641358,131,23.99,9.0,40.9,14 / 24,4645241,2019-08-31 11:07:45:320,0.6491,0.0692,10.1123,-0.0226,0.0085,9.8066,-0.0448,0.0026,0.0078,13.61,-15.42,-21.84,46.5,-2.63,2.04
46453,52.24826,-1.641358,131,23.99,9.0,40.9,14 / 24,4645340,2019-08-31 11:07:45:419,0.0936,-0.2167,10.0808,-0.0112,0.0193,9.8066,0.0106,-0.0528,0.0163,14.01,-15.3,-21.67,46.5,-2.63,2.04
46454,52.24826,-1.641358,131,23.99,9.0,40.9,14 / 24,4645441,2019-08-31 11:07:45:520,0.6875,0.3531,9.9533,0.0181,0.0082,9.8066,0.017,0.0431,0.0025,14.13,-14.92,-21.86,46.46,-2.73,2.08
46455,52.24826,-1.641358,131,23.99,9.0,40.9,14 / 24,4645541,2019-08-31 11:07:45:620,0.6048,-0.2303,10.5308,0.0202,0.0047,9.8066,-0.0224,0.0197,0.011,14.13,-14.92,-21.86,46.46,-2.73,2.08
46456,52.24826,-1.641358,131,23.99,9.0,40.9,14 / 24,4645642,2019-08-31 11:07:45:721,-0.0556,0.254,9.9107,0.0235,0.0307,9.8066,-0.0224,0.0197,0.011,14.14,-14.98,-21.81,46.43,-2.84,2.15
46457,52.24826,-1.641358,131,23.99,9.0,40.9,14 / 24,4645741,2019-08-31 11:07:45:820,0.3212,-0.0106,10.1426,0.0353,0.088,9.8062,-0.0224,0.0538,-0.006,13.61,-15.42,-21.84,45.94,-3.35,1.95
46458,52.24826,-1.641358,131,23.99,9.0,40.9,14 / 24,4645841,2019-08-31 11:07:45:920,0.1081,0.2102,9.0374,-0.0151,0.0293,9.8066,-0.0022,-0.0315,0.0068,13.61,-15.42,-21.84,45.94,-3.35,1.95
46459,52.24826,-1.641358,131,23.99,9.0,40.9,14 / 24,4645941,2019-08-31 11:07:46:020,-0.4619,-0.0404,9.6836,-0.0042,-0.0014,9.8066,0.0426,-0.0655,-0.0028,14.19,-15.49,-21.42,45.99,-3.33,1.93
46460,52.24826,-1.641358,131,23.99,9.0,40.9,14 / 24,4646041,2019-08-31 11:07:46:120,0.2433,-0.2264,9.7327,-0.0012,-0.0355,9.8066,-0.0064,-0.0208,-0.0071,14.01,-15.3,-21.67,46.15,-3.17,2.07
46461,52.248436,-1.641133,131,24.08,9.0,41.3,14 / 24,4646141,2019-08-31 11:07:46:220,-0.6978,-0.2357,10.0898,-0.0479,-0.0019,9.8065,-0.0224,-0.0485,0.0206,14.01,-15.3,-21.67,46.15,-3.17,2.07
46462,52.248436,-1.641133,131,24.08,9.0,41.3,14 / 24,4646241,2019-08-31 11:07:46:320,-0.4302,-0.1946,8.7356,-0.0539,0.0016,9.8065,0.0266,-0.0091,-0.006,14.57,-15.35,-21.26,46.15,-3.17,2.07
46463,52.248436,-1.641133,131,24.08,9.0,41.3,14 / 24,4646342,2019-08-31 11:07:46:421,-0.1684,-0.3759,10.2009,0.0141,-0.0068,9.8066,0.0373,0.0804,-0.022,14.36,-15.14,-21.56,46.13,-2.96,1.84
46464,52.248436,-1.641133,131,24.08,9.0,41.3,14 / 24,4646441,2019-08-31 11:07:46:520,0.8995,0.1766,10.0075,0.0575,0.006,9.8065,0.0373,0.0804,-0.022,14.46,-14.82,-21.71,46.17,-2.99,1.93
46465,52.248436,-1.641133,131,24.08,9.0,41.3,14 / 24,4646541,2019-08-31 11:07:46:620,0.6077,-0.1104,9.1348,0.0713,0.0208,9.8064,-0.0075,-0.0155,-0.0092,14.46,-14.82,-21.71,46.17,-2.99,1.93
46466,52.248436,-1.641133,131,24.08,9.0,41.3,14 / 24,4646641,2019-08-31 11:07:46:720,-0.4802,-0.2944,8.9891,0.0049,0.0116,9.8066,-0.0086,0.0484,-0.0146,13.91,-15.61,-21.51,47.82,-3.37,2.14
46467,52.248436,-1.641133,131,24.08,9.0,41.3,14 / 24,4646742,2019-08-31 11:07:46:821,-0.5935,-0.2727,9.7988,0.0016,0.0313,9.8066,-0.0128,0.0165,-0.0135,14.0,-15.78,-21.33,47.82,-3.37,2.14
46468,52.248436,-1.641133,131,24.08,9.0,41.3,14 / 24,4646841,2019-08-31 11:07:46:920,-0.1626,-0.1076,9.1238,-0.0196,0.0336,9.8066,-0.0448,-0.0538,0.0078,14.03,-15.24,-21.7,45.87,-3.44,1.93
46469,52.248436,-1.641133,131,24.08,9.0,41.3,14 / 24,4646941,2019-08-31 11:07:47:020,0.0522,-0.1768,9.9139,-0.0413,0.0017,9.8066,-0.0512,-0.0432,0.0131,14.03,-15.24,-21.7,45.87,-3.44,1.93
46470,52.248592,-1.640894,131,24.12,9.0,42.0,14 / 24,4647041,2019-08-31 11:07:47:120,0.1968,-0.232,9.2872,-0.0895,-0.013,9.8062,-0.0288,0.0239,-0.0135,14.19,-14.95,-21.8,45.92,-3.02,1.6
46471,52.248592,-1.640894,131,24.12,9.0,42.0,14 / 24,4647141,2019-08-31 11:07:47:220,0.3528,-0.1356,9.6642,-0.0089,0.0171,9.8066,-0.0224,-0.0357,-0.0092,13.91,-15.61,-21.51,47.65,-2.99,1.51
46472,52.248592,-1.640894,131,24.12,9.0,42.0,14 / 24,4647241,2019-08-31 11:07:47:320,-0.2295,-0.233,9.1198,-0.0378,0.0047,9.8066,0.0266,-0.0336,-0.0209,13.79,-15.98,-21.32,47.65,-2.99,1.51
46473,52.248592,-1.640894,131,24.12,9.0,42.0,14 / 24,4647342,2019-08-31 11:07:47:421,0.0098,-0.2388,9.0302,-0.054,-0.0278,9.8065,0.0266,-0.0336,-0.0209,14.44,-15.73,-21.07,47.84,-2.66,1.38
46474,52.248592,-1.640894,131,24.12,9.0,42.0,14 / 24,4647441,2019-08-31 11:07:47:520,-0.1595,-0.2131,9.5956,0.0035,-0.0005,9.8067,0.0191,0.0357,-0.0305,14.44,-15.73,-21.07,47.84,-2.66,1.38
46475,52.248592,-1.640894,131,24.12,9.0,42.0,14 / 24,4647541,2019-08-31 11:07:47:620,-0.0752,-0.1321,10.4303,0.0356,0.02,9.8066,0.0234,0.0506,-0.0113,14.11,-15.84,-21.22,47.85,-2.67,1.4
46476,52.248592,-1.640894,131,24.12,9.0,42.0,14 / 24,4647642,2019-08-31 11:07:47:721,0.1327,0.0185,10.5121,0.076,0.0406,9.8063,0.0287,0.0538,-0.0145,13.51,-15.73,-21.68,47.59,-3.14,1.57
46477,52.248592,-1.640894,131,24.12,9.0,42.0,14 / 24,4647741,2019-08-31 11:07:47:820,0.6877,0.0627,10.3818,0.0303,0.0012,9.8066,0.0032,0.0186,-0.0241,14.03,-15.24,-21.7,47.59,-3.14,1.57
46478,52.248592,-1.640894,131,24.12,9.0,42.0,14 / 24,4647841,2019-08-31 11:07:47:920,-0.191,-0.334,10.491,0.0324,-0.0127,9.8066,0.0213,0.0463,-0.0209,13.34,-15.54,-21.92,49.6,-3.21,1.76
46479,52.248592,-1.640894,131,24.12,9.0,42.0,14 / 24,4647942,2019-08-31 11:07:48:021,0.4893,0.0842,10.9795,-0.0075,-0.0089,9.8066,-0.0352,-0.089,0.0025,13.34,-15.54,-21.92,49.6,-3.21,1.76
46480,52.248745,-1.640656,132,24.6,9.0,42.5,14 / 24,4648042,2019-08-31 11:07:48:121,-0.2331,-0.1766,9.0202,-0.0181,-0.0238,9.8066,0.0202,-0.024,-0.0188,13.74,-15.42,-21.75,46.11,-2.9,1.76
46481,52.248745,-1.640656,132,24.6,9.0,42.5,14 / 24,4648142,2019-08-31 11:07:48:221,-0.4135,-0.2932,8.7675,-0.0158,-0.0379,9.8066,0.0202,-0.024,-0.0188,13.74,-15.42,-21.75,46.11,-2.9,1.76
46482,52.248745,-1.640656,132,24.6,9.0,42.5,14 / 24,4648241,2019-08-31 11:07:48:320,0.1429,0.0764,11.2895,0.0217,-0.0004,9.8066,0.017,0.0346,0.0068,13.79,-15.98,-21.32,48.13,-2.68,1.84
46483,52.248745,-1.640656,132,24.6,9.0,42.5,14 / 24,4648342,2019-08-31 11:07:48:421,-0.1817,-0.2837,9.7112,0.0139,-0.0145,9.8066,0.0245,-0.0144,-0.0316,13.51,-15.73,-21.68,48.13,-2.68,1.84
46484,52.248745,-1.640656,132,24.6,9.0,42.5,14 / 24,4648441,2019-08-31 11:07:48:520,-0.204,-0.3164,9.2615,-0.0284,-0.0003,9.8066,-0.0054,-0.0868,0.0046,13.91,-15.61,-21.51,48.18,-2.67,1.96
46485,52.248745,-1.640656,132,24.6,9.0,42.5,14 / 24,4648540,2019-08-31 11:07:48:619,0.3977,0.2523,8.9646,-0.0362,0.0161,9.8066,-0.0554,0.0335,0.0409,13.91,-15.61,-21.51,48.18,-2.67,1.96
46486,52.248745,-1.640656,132,24.6,9.0,42.5,14 / 24,4648641,2019-08-31 11:07:48:720,0.0869,-0.5857,9.0315,0.0266,-0.0028,9.8066,-0.0267,-0.0549,0.0217,13.79,-15.98,-21.32,48.11,-2.6,1.74
46487,52.248745,-1.640656,132,24.6,9.0,42.5,14 / 24,4648741,2019-08-31 11:07:48:820,0.8486,0.4404,11.5802,0.0661,0.008,9.8064,-0.0022,0.0623,0.027,13.74,-15.42,-21.75,48.11,-2.6,1.74
46488,52.248745,-1.640656,132,24.6,9.0,42.5,14 / 24,4648841,2019-08-31 11:07:48:920,1.4378,0.0129,9.4056,0.0894,-0.0184,9.8062,-0.0022,0.0623,0.027,13.51,-15.73,-21.68,48.2,-2.87,2.2
46489,52.248745,-1.640656,132,24.6,9.0,42.5,14 / 24,4648942,2019-08-31 11:07:49:021,-0.0686,-0.0546,9.5518,-0.0034,-0.0007,9.8067,-0.0384,-0.057,0.0153,13.51,-15.73,-21.68,48.2,-2.87,2.2
46490,52.248913,-1.640412,133,24.43,9.0,42.9,14 / 24,4649047,2019-08-31 11:07:49:126,-0.1624,-0.287,10.4428,-0.0097,-0.0208,9.8066,-0.0022,0.0101,0.0036,14.08,-15.8,-21.26,48.34,-2.74,2.24
46491,52.248913,-1.640412,133,24.43,9.0,42.9,14 / 24,4649141,2019-08-31 11:07:49:220,-0.3892,-0.1604,8.945,-0.0202,-0.025,9.8066,-0.0118,-0.0123,-0.039,14.31,-16.09,-20.88,48.47,-2.55,2.25
46492,52.248913,-1.640412,133,24.43,9.0,42.9,14 / 24,4649241,2019-08-31 11:07:49:320,-0.167,0.0994,10.3974,-0.0447,-0.0092,9.8065,-0.0107,-0.0197,-0.0135,13.79,-15.98,-21.32,48.47,-2.55,2.25
46493,52.248913,-1.640412,133,24.43,9.0,42.9,14 / 24,4649341,2019-08-31 11:07:49:420,-0.7648,0.2796,10.5148,-0.0262,0.0095,9.8066,-0.0043,0.0005,0.0227,13.79,-15.98,-21.32,48.47,-2.55,2.25
46494,52.248913,-1.640412,133,24.43,9.0,42.9,14 / 24,4649441,2019-08-31 11:07:49:520,-0.5533,-0.0133,10.4815,0.0191,0.0147,9.8066,0.0436,0.0378,-0.0103,13.62,-15.79,-21.57,48.39,-2.49,2.1
46495,52.248913,-1.640412,133,24.43,9.0,42.9,14 / 24,4649541,2019-08-31 11:07:49:620,0.6293,-0.0443,9.7724,0.0413,0.0095,9.8066,0.0436,0.0378,-0.0103,13.79,-15.98,-21.32,48.37,-2.69,2.24
46496,52.248913,-1.640412,133,24.43,9.0,42.9,14 / 24,4649641,2019-08-31 11:07:49:720,0.1877,0.3908,8.9191,0.0071,-0.0131,9.8066,0.0213,0.0176,-0.0028,13.79,-15.98,-21.32,48.37,-2.69,2.24
46497,52.248913,-1.640412,133,24.43,9.0,42.9,14 / 24,4649741,2019-08-31 11:07:49:820,0.2006,-0.0831,10.245,-0.0029,-0.0008,9.8067,0.0149,-0.0474,-0.006,13.74,-15.42,-21.75,46.67,-2.66,2.32
46498,52.248913,-1.640412,133,24.43,9.0,42.9,14 / 24,4649842,2019-08-31 11:07:49:921,-0.0643,0.1128,8.4155,-0.0038,-0.0352,9.8066,0.0138,-0.0229,-0.0231,13.91,-15.61,-21.51,48.42,-2.65,2.32
46499,52.248913,-1.640412,133,24.43,9.0,42.9,14 / 24,4649941,2019-08-31 11:07:50:020,0.4103,-0.1935,9.5805,-0.0232,-0.0747,9.8063,-0.0181,-0.0197,0.0025,13.22,-15.91,-21.73,50.8,-2.23,2.5
46500,52.248913,-1.640412,133,24.43,9.0,42.9,14 / 24,4650040,2019-08-31 11:07:50:119,-0.6114,-0.1781,9.6597,0.0008,0.0044,9.8066,0.0234,-0.0112,-0.0145,13.22,-15.91,-21.73,50.8,-2.23,2.5
46501,52.249065,-1.64017,133,24.45,9.0,43.3,14 / 24,4650140,2019-08-31 11:07:50:219,-0.1493,0.1516,8.9566,0.0148,0.0272,9.8066,-0.032,-0.0719,0.0004,13.81,-16.01,-21.28,48.7,-2.41,2.47
46502,52.249065,-1.64017,133,24.45,9.0,43.3,14 / 24,4650241,2019-08-31 11:07:50:320,-0.8631,0.082,8.2486,-0.0016,0.0297,9.8066,-0.0544,0.0666,-0.0135,13.62,-15.79,-21.57,48.52,-2.53,2.35
46503,52.249065,-1.64017,133,24.45,9.0,43.3,14 / 24,4650342,2019-08-31 11:07:50:421,0.1668,-0.1625,9.3791,0.0175,0.0051,9.8066,-0.0192,-0.0016,0.0196,13.62,-15.79,-21.57,48.52,-2.53,2.35
46504,52.249065,-1.64017,133,24.45,9.0,43.3,14 / 24,4650442,2019-08-31 11:07:50:521,-1.1337,0.0544,9.9284,-0.0442,-0.0052,9.8066,-0.0192,-0.0016,0.0196,13.81,-16.01,-21.28,48.52,-2.62,2.41
46505,52.249065,-1.64017,133,24.45,9.0,43.3,14 / 24,4650541,2019-08-31 11:07:50:620,-0.3743,-0.0581,9.4434,-0.0331,0.0188,9.8066,0.0202,0.0122,0.0185,13.98,-16.2,-21.02,48.52,-2.62,2.41
46506,52.249065,-1.64017,133,24.45,9.0,43.3,14 / 24,4650641,2019-08-31 11:07:50:720,-0.5512,-0.0738,11.7695,-0.0035,-0.0093,9.8066,0.0085,0.0101,-0.0231,13.69,-16.37,-21.09,48.41,-2.58,2.19
46507,52.249065,-1.64017,133,24.45,9.0,43.3,14 / 24,4650741,2019-08-31 11:07:50:820,0.637,0.436,10.4604,0.0239,-0.0337,9.8066,0.049,-0.0027,0.0068,14.14,-15.87,-21.17,48.41,-2.58,2.19
46508,52.249065,-1.64017,133,24.45,9.0,43.3,14 / 24,4650841,2019-08-31 11:07:50:920,-0.2839,-0.5076,9.4466,0.0453,-0.0307,9.8065,0.0096,-0.0123,0.0078,14.14,-15.87,-21.17,48.41,-2.58,2.19
46509,52.249065,-1.64017,133,24.45,9.0,43.3,14 / 24,4650941,2019-08-31 11:07:51:020,0.4535,0.1639,11.365,0.0174,0.0233,9.8066,-0.0203,0.0804,-0.0049,14.24,-15.51,-21.37,48.58,-2.62,2.51
46510,52.249065,-1.64017,133,24.45,9.0,43.3,14 / 24,4651041,2019-08-31 11:07:51:120,-1.0031,-0.0728,10.9939,-0.0084,-0.0095,9.8066,-0.0128,-0.0155,-0.0295,14.06,-15.27,-21.66,46.7,-2.79,2.49
46511,52.249226,-1.63993,132,24.43,9.0,43.7,14 / 24,4651141,2019-08-31 11:07:51:220,0.5131,0.3022,9.4526,-0.0379,-0.0231,9.8066,-0.0192,0.0911,0.0014,14.27,-15.54,-21.33,48.58,-2.54,2.42
46512,52.249226,-1.63993,132,24.43,9.0,43.7,14 / 24,4651241,2019-08-31 11:07:51:320,-0.4428,0.0157,11.1777,-0.005,0.0298,9.8066,-0.0192,0.0911,0.0014,14.27,-15.54,-21.33,48.58,-2.54,2.42
46513,52.249226,-1.63993,132,24.43,9.0,43.7,14 / 24,4651341,2019-08-31 11:07:51:420,1.6108,0.0765,9.1823,0.0132,0.0055,9.8066,0.0426,-0.0048,0.0014,13.85,-16.56,-20.83,50.06,-2.65,2.29
46514,52.249226,-1.63993,132,24.43,9.0,43.7,14 / 24,4651441,2019-08-31 11:07:51:520,-0.4238,0.2407,9.4055,-0.004,0.023,9.8066,0.0724,-0.0719,-0.0039,13.69,-16.37,-21.09,48.3,-2.74,2.18
46515,52.249226,-1.63993,132,24.43,9.0,43.7,14 / 24,4651541,2019-08-31 11:07:51:620,0.0177,0.0894,8.2804,0.0066,-0.0258,9.8066,-0.0118,-0.0474,0.0196,13.69,-16.37,-21.09,48.3,-2.74,2.18
46516,52.249226,-1.63993,132,24.43,9.0,43.7,14 / 24,4651641,2019-08-31 11:07:51:720,-0.5264,-0.0082,10.4884,0.0007,-0.0132,9.8066,0.0,0.0154,-0.0092,14.01,-16.23,-20.98,48.44,-2.65,2.31
46517,52.249226,-1.63993,132,24.43,9.0,43.7,14 / 24,4651742,2019-08-31 11:07:51:821,0.0837,0.0372,9.824,0.0119,-0.0149,9.8066,-0.0022,0.0261,0.0206,13.81,-16.01,-21.28,48.52,-2.63,2.42
46518,52.249226,-1.63993,132,24.43,9.0,43.7,14 / 24,4651841,2019-08-31 11:07:51:920,-0.0778,-0.107,10.9464,0.012,-0.0031,9.8066,0.0202,-0.0293,-0.006,13.81,-16.01,-21.28,48.52,-2.63,2.42
46519,52.249226,-1.63993,132,24.43,9.0,43.7,14 / 24,4651940,2019-08-31 11:07:52:019,0.2916,-0.1656,10.3784,0.0353,-0.0042,9.8066,0.0202,-0.0293,-0.006,13.98,-15.72,-21.39,48.54,-2.67,2.48
46520,52.249226,-1.63993,132,24.43,9.0,43.7,14 / 24,4652043,2019-08-31 11:07:52:122,0.3666,0.6456,10.3971,0.0362,-0.0016,9.8066,-0.0224,0.0325,0.0174,14.18,-16.43,-20.71,48.55,-2.8,2.65
46521,52.24939,-1.63968,132,24.85,9.0,44.0,14 / 24,4652140,2019-08-31 11:07:52:219,1.1447,-0.4425,11.7377,0.0116,0.0137,9.8066,-0.0171,-0.0346,-0.0124,14.18,-16.43,-20.71,48.55,-2.8,2.65
46522,52.24939,-1.63968,132,24.85,9.0,44.0,14 / 24,4652241,2019-08-31 11:07:52:320,0.2994,-0.205,9.3029,-0.0225,-0.0067,9.8066,0.0277,-0.0293,0.0046,13.97,-15.68,-21.43,48.58,-2.68,2.58
46523,52.24939,-1.63968,132,24.85,9.0,44.0,14 / 24,4652341,2019-08-31 11:07:52:420,-1.0821,-0.3272,8.6096,-0.0008,0.0269,9.8066,-0.0181,-0.0219,-0.0177,13.62,-15.79,-21.57,48.42,-2.8,2.47
46524,52.24939,-1.63968,132,24.85,9.0,44.0,14 / 24,4652440,2019-08-31 11:07:52:519,-0.4083,-0.0992,9.7938,0.0048,0.0277,9.8066,0.001,-0.0389,0.0078,13.62,-15.79,-21.57,48.42,-2.8,2.47
46525,52.24939,-1.63968,132,24.85,9.0,44.0,14 / 24,4652541,2019-08-31 11:07:52:620,0.1267,0.1288,9.1723,0.0043,0.0277,9.8066,0.0234,-0.0219,0.0014,14.01,-16.23,-20.98,48.3,-2.93,2.38
46526,52.24939,-1.63968,132,24.85,9.0,44.0,14 / 24,4652641,2019-08-31 11:07:52:720,-0.669,-0.1334,9.2947,-0.0038,-0.071,9.8064,0.0266,0.0176,-0.006,13.62,-15.79,-21.57,48.3,-2.93,2.38
46527,52.24939,-1.63968,132,24.85,9.0,44.0,14 / 24,4652741,2019-08-31 11:07:52:820,0.0439,-0.1469,8.8757,0.0226,-0.0803,9.8063,0.0266,0.0176,-0.006,13.62,-15.79,-21.57,48.3,-2.93,2.38
46528,52.24939,-1.63968,132,24.85,9.0,44.0,14 / 24,4652842,2019-08-31 11:07:52:921,0.138,0.0147,10.3458,0.0174,-0.0028,9.8066,0.0181,-0.0037,0.0132,13.74,-15.42,-21.75,46.99,-2.67,2.79
46529,52.24939,-1.63968,132,24.85,9.0,44.0,14 / 24,4652941,2019-08-31 11:07:53:020,0.8311,0.5394,10.7721,-0.0006,0.006,9.8066,-0.0192,-0.0474,-0.0177,14.27,-15.54,-21.33,46.99,-2.67,2.79
46530,52.24939,-1.63968,132,24.85,9.0,44.0,14 / 24,4653042,2019-08-31 11:07:53:121,-0.53,-0.2556,9.7759,-0.0378,-0.0074,9.8066,-0.0064,-0.0421,-0.0103,14.47,-15.76,-21.03,48.76,-2.49,2.66
46531,52.24955,-1.639426,133,24.86,9.0,44.4,14 / 24,4653141,2019-08-31 11:07:53:220,-0.6073,-0.3726,9.2695,-0.023,-0.004,9.8066,-0.0075,-0.0538,0.0004,14.47,-15.76,-21.03,48.76,-2.49,2.66
46532,52.24955,-1.639426,133,24.86,9.0,44.4,14 / 24,4653242,2019-08-31 11:07:53:321,-0.0692,0.1991,10.7484,-0.0255,-0.0125,9.8066,-0.0245,-0.0677,0.0259,13.62,-15.79,-21.57,48.77,-2.38,2.57
46533,52.24955,-1.639426,133,24.86,9.0,44.4,14 / 24,4653341,2019-08-31 11:07:53:420,-0.2758,-0.1474,10.4831,-0.0391,-0.0352,9.8065,0.0032,0.0548,-0.0124,14.01,-16.23,-20.98,48.96,-2.08,2.54
46534,52.24955,-1.639426,133,24.86,9.0,44.4,14 / 24,4653441,2019-08-31 11:07:53:520,-0.2437,-0.2321,9.4136,-0.0232,-0.0239,9.8066,0.0032,0.0548,-0.0124,13.95,-15.69,-21.43,49.08,-1.88,2.53
46535,52.24955,-1.639426,133,24.86,9.0,44.4,14 / 24,4653541,2019-08-31 11:07:53:620,-0.3731,-0.2876,8.7959,-0.0511,-0.0329,9.8065,0.0128,0.0346,-0.022,13.95,-15.69,-21.43,49.08,-1.88,2.53
46536,52.24955,-1.639426,133,24.86,9.0,44.4,14 / 24,4653641,2019-08-31 11:07:53:720,-0.2796,-0.1559,9.4988,0.0076,-0.0266,9.8066,0.017,0.0293,0.0057,14.14,-15.91,-21.14,49.25,-1.54,2.43
46537,52.24955,-1.639426,133,24.86,9.0,44.4,14 / 24,4653742,2019-08-31 11:07:53:821,0.2275,0.1603,9.8879,0.014,-0.0417,9.8066,0.0,0.025,-0.022,14.14,-15.91,-21.14,49.25,-1.54,2.43
46538,52.24955,-1.639426,133,24.86,9.0,44.4,14 / 24,4653842,2019-08-31 11:07:53:921,-0.2063,0.1069,11.1564,0.0203,-0.0494,9.8065,0.017,0.0069,-0.022,14.14,-15.91,-21.14,49.51,-1.4,2.71
46539,52.24955,-1.639426,133,24.86,9.0,44.4,14 / 24,4653941,2019-08-31 11:07:54:020,0.1685,0.3121,8.9203,0.0041,-0.0008,9.8066,0.0032,0.058,-0.0199,14.14,-15.91,-21.14,49.51,-1.4,2.71
46540,52.249706,-1.639164,133,25.07,9.0,44.7,14 / 24,4654041,2019-08-31 11:07:54:120,0.7213,0.2457,9.4909,0.0049,0.0044,9.8066,-0.0054,0.0591,-0.0092,14.53,-15.78,-20.97,47.62,-1.41,2.73
46541,52.249706,-1.639164,133,25.07,9.0,44.7,14 / 24,4654141,2019-08-31 11:07:54:220,0.9224,0.032,8.7139,-0.0062,0.0105,9.8066,-0.0139,-0.0687,0.0536,14.47,-15.76,-21.03,49.46,-1.43,2.66
46542,52.249706,-1.639164,133,25.07,9.0,44.7,14 / 24,4654241,2019-08-31 11:07:54:320,0.1871,0.1349,10.0548,0.0116,0.0127,9.8066,-0.0139,-0.0687,0.0536,14.21,-16.48,-20.65,49.4,-1.53,2.66
46543,52.249706,-1.639164,133,25.07,9.0,44.7,14 / 24,4654340,2019-08-31 11:07:54:419,0.0409,-0.1623,9.0345,0.0019,0.0177,9.8066,-0.0011,0.0421,0.011,14.21,-16.48,-20.65,49.4,-1.53,2.66
46544,52.249706,-1.639164,133,25.07,9.0,44.7,14 / 24,4654441,2019-08-31 11:07:54:520,0.6849,0.0502,9.8891,-0.0088,0.0388,9.8066,-0.0171,-0.0421,-0.0081,14.34,-16.13,-20.84,49.19,-1.67,2.48
46545,52.249706,-1.639164,133,25.07,9.0,44.7,14 / 24,4654542,2019-08-31 11:07:54:621,-0.0955,-0.1156,10.4905,-0.0304,-0.0118,9.8066,0.0032,0.0048,0.0014,14.14,-15.91,-21.14,49.25,-1.5,2.39
46546,52.249706,-1.639164,133,25.07,9.0,44.7,14 / 24,4654642,2019-08-31 11:07:54:721,-0.3842,-0.2371,8.9471,-0.0162,-0.0051,9.8066,0.001,0.0389,0.0014,14.14,-15.91,-21.14,49.25,-1.5,2.39
46547,52.249706,-1.639164,133,25.07,9.0,44.7,14 / 24,4654741,2019-08-31 11:07:54:820,0.9267,-0.0055,9.0963,-0.0303,0.0072,9.8066,-0.0565,-0.0453,0.0046,14.51,-16.32,-20.57,49.25,-1.5,2.39
46548,52.249706,-1.639164,133,25.07,9.0,44.7,14 / 24,4654841,2019-08-31 11:07:54:920,0.2406,0.1739,8.6446,-0.0138,0.0228,9.8066,0.0128,0.0303,0.0014,14.34,-16.13,-20.84,49.21,-1.42,2.22
46549,52.249706,-1.639164,133,25.07,9.0,44.7,14 / 24,4654941,2019-08-31 11:07:55:020,0.041,-0.0182,8.4148,-0.0136,0.0422,9.8066,0.0042,-0.0336,0.0046,14.34,-16.13,-20.84,49.21,-1.42,2.22
46550,52.249855,-1.638914,132,24.98,9.0,45.2,14 / 24,4655041,2019-08-31 11:07:55:120,-0.2001,0.263,9.0841,0.0097,-0.0128,9.8066,0.0042,-0.0336,0.0046,14.21,-16.48,-20.65,48.98,-1.56,2.0
46551,52.249855,-1.638914,132,24.98,9.0,45.2,14 / 24,4655141,2019-08-31 11:07:55:220,1.1705,0.1945,9.718,0.033,-0.0216,9.8066,0.0479,0.0602,-0.0188,13.48,-16.72,-20.95,48.98,-1.56,2.0
46552,52.249855,-1.638914,132,24.98,9.0,45.2,14 / 24,4655242,2019-08-31 11:07:55:321,0.4785,0.547,10.3219,0.0207,-0.0208,9.8066,-0.0043,0.0048,-0.0028,13.88,-16.59,-20.79,50.73,-1.59,2.23
46553,52.249855,-1.638914,132,24.98,9.0,45.2,14 / 24,4655341,2019-08-31 11:07:55:420,-0.0968,0.0023,7.1976,0.0182,0.0222,9.8066,-0.0224,0.0058,-0.0199,13.48,-16.72,-20.95,52.84,-1.53,2.38
46554,52.249855,-1.638914,132,24.98,9.0,45.2,14 / 24,4655441,2019-08-31 11:07:55:520,0.2253,0.2761,10.3901,0.0305,0.028,9.8066,0.0042,-0.0176,0.0068,13.48,-16.72,-20.95,52.84,-1.53,2.38
46555,52.249855,-1.638914,132,24.98,9.0,45.2,14 / 24,4655541,2019-08-31 11:07:55:620,-0.7575,0.088,10.7468,0.0297,-0.0105,9.8066,0.0554,0.0964,-0.0124,14.01,-16.23,-20.98,49.1,-1.77,2.43
46556,52.249855,-1.638914,132,24.98,9.0,45.2,14 / 24,4655642,2019-08-31 11:07:55:721,0.5257,-0.162,9.3389,0.0596,-0.0085,9.8065,-0.0043,0.0037,-0.0156,14.3,-15.57,-21.29,49.1,-1.77,2.43
46557,52.249855,-1.638914,132,24.98,9.0,45.2,14 / 24,4655741,2019-08-31 11:07:55:820,0.3816,0.0929,9.5681,0.0575,-0.0055,9.8065,-0.0149,-0.0016,-0.0081,13.84,-16.04,-21.24,49.13,-1.96,2.7
46558,52.249855,-1.638914,132,24.98,9.0,45.2,14 / 24,4655841,2019-08-31 11:07:55:920,-0.0872,-0.0446,9.2027,-0.0086,0.0076,9.8066,-0.0149,-0.0016,-0.0081,13.84,-16.04,-21.24,49.13,-1.96,2.7
46559,52.249855,-1.638914,132,24.98,9.0,45.2,14 / 24,4655941,2019-08-31 11:07:56:020,-0.2492,0.0049,10.2515,0.003,0.0216,9.8066,-0.0469,0.0474,0.0164,14.01,-16.23,-20.98,49.09,-1.97,2.64
46560,52.249855,-1.638914,132,24.98,9.0,45.2,14 / 24,4656043,2019-08-31 11:07:56:122,0.58,0.1543,8.547,-0.0083,0.0256,9.8066,-0.0192,0.0762,-0.0113,14.34,-16.09,-20.87,48.98,-2.07,2.57
46561,52.25002,-1.638665,132,25.12,9.0,45.6,14 / 24,4656142,2019-08-31 11:07:56:221,-0.1081,0.4182,10.6555,-0.0051,0.0487,9.8065,0.0202,0.0293,-0.0018,14.17,-15.94,-21.1,48.98,-2.07,2.57
46562,52.25002,-1.638665,132,25.12,9.0,45.6,14 / 24,4656241,2019-08-31 11:07:56:320,0.4812,0.4159,9.5792,0.0014,0.0548,9.8065,0.0426,0.0335,-0.0124,14.73,-16.0,-20.67,46.83,-2.32,2.36
46563,52.25002,-1.638665,132,25.12,9.0,45.6,14 / 24,4656341,2019-08-31 11:07:56:420,0.3744,-0.2273,9.3335,-0.0071,0.0061,9.8066,-0.0022,0.0421,-0.039,14.73,-16.0,-20.67,46.83,-2.32,2.36
46564,52.25002,-1.638665,132,25.12,9.0,45.6,14 / 24,4656441,2019-08-31 11:07:56:520,-0.1008,-0.3653,9.2088,-0.0173,0.0182,9.8066,0.0245,-0.0432,0.0174,13.29,-16.86,-20.96,52.18,-2.33,2.22
46565,52.25002,-1.638665,132,25.12,9.0,45.6,14 / 24,4656540,2019-08-31 11:07:56:619,-0.274,-0.5117,9.302,-0.0184,-0.0289,9.8066,0.0085,0.0005,-0.0007,13.17,-16.84,-21.05,52.26,-2.17,2.17
46566,52.25002,-1.638665,132,25.12,9.0,45.6,14 / 24,4656641,2019-08-31 11:07:56:720,0.0383,-0.2272,8.8836,-0.0419,-0.0564,9.8064,0.0298,0.0058,-0.0188,14.46,-16.7,-20.3,52.26,-2.17,2.17
46567,52.25002,-1.638665,132,25.12,9.0,45.6,14 / 24,4656740,2019-08-31 11:07:56:819,-0.1414,-0.261,8.4409,-0.0272,-0.0812,9.8063,0.0298,0.0058,-0.0188,14.46,-16.7,-20.3,52.26,-2.17,2.17
46568,52.25002,-1.638665,132,25.12,9.0,45.6,14 / 24,4656841,2019-08-31 11:07:56:920,-0.6694,-0.4727,10.0109,-0.025,-0.0192,9.8066,0.0277,0.0975,-0.0241,14.04,-16.29,-20.91,49.08,-1.7,2.33
46569,52.25002,-1.638665,132,25.12,9.0,45.6,14 / 24,4656941,2019-08-31 11:07:57:020,0.2439,-0.3012,9.3831,-0.0001,-0.0179,9.8066,0.0085,0.0197,-0.0018,13.86,-16.08,-21.2,49.18,-1.52,2.29
46570,52.250175,-1.638408,132,25.27,9.0,46.0,14 / 24,4657041,2019-08-31 11:07:57:120,-0.0535,0.3057,10.2411,0.0022,-0.0225,9.8066,0.0085,0.0527,-0.0167,13.86,-16.08,-21.2,49.18,-1.52,2.29
46571,52.250175,-1.638408,132,25.27,9.0,46.0,14 / 24,4657141,2019-08-31 11:07:57:220,-0.2295,0.051,9.4074,0.0103,-0.0175,9.8066,0.033,0.0122,-0.0241,13.73,-16.42,-21.02,49.3,-1.43,2.39
46572,52.250175,-1.638408,132,25.27,9.0,46.0,14 / 24,4657241,2019-08-31 11:07:57:320,0.9767,-0.136,9.852,0.0152,-0.0391,9.8066,-0.0011,0.0421,-0.0103,13.84,-16.04,-21.24,49.51,-1.31,2.61
46573,52.250175,-1.638408,132,25.27,9.0,46.0,14 / 24,4657341,2019-08-31 11:07:57:420,1.1427,0.0666,7.7959,-0.0216,-0.0162,9.8066,0.0128,0.0122,0.0046,13.84,-16.04,-21.24,49.51,-1.31,2.61
46574,52.250175,-1.638408,132,25.27,9.0,46.0,14 / 24,4657441,2019-08-31 11:07:57:520,-1.2501,-0.265,10.3019,-0.0361,-0.0263,9.8066,0.0128,0.0122,0.0046,14.02,-16.26,-20.95,49.65,-1.06,2.55
46575,52.250175,-1.638408,132,25.27,9.0,46.0,14 / 24,4657541,2019-08-31 11:07:57:620,0.472,-0.0752,8.8883,-0.0216,-0.0243,9.8066,0.0426,0.0708,-0.0113,14.4,-16.14,-20.79,49.65,-1.06,2.55
46576,52.250175,-1.638408,132,25.27,9.0,46.0,14 / 24,4657642,2019-08-31 11:07:57:721,-0.2208,-0.3585,10.251,0.0279,0.0213,9.8066,0.0074,0.0857,0.0089,14.21,-16.48,-20.65,49.78,-0.87,2.54
46577,52.250175,-1.638408,132,25.27,9.0,46.0,14 / 24,4657741,2019-08-31 11:07:57:820,-0.4588,-0.0946,9.6101,0.005,0.0376,9.8066,0.0042,0.0037,-0.0188,13.48,-16.72,-20.95,53.28,-1.07,2.59
46578,52.250175,-1.638408,132,25.27,9.0,46.0,14 / 24,4657841,2019-08-31 11:07:57:920,-0.6983,-0.1965,9.8032,0.0056,0.0743,9.8064,0.0085,0.0612,0.0046,13.48,-16.72,-20.95,53.28,-1.07,2.59
46579,52.250175,-1.638408,132,25.27,9.0,46.0,14 / 24,4657941,2019-08-31 11:07:58:020,0.6218,0.2845,12.5563,0.0152,0.0052,9.8066,0.0234,0.0378,0.0004,13.72,-16.4,-21.05,49.28,-1.44,2.35
46580,52.250175,-1.638408,132,25.27,9.0,46.0,14 / 24,4658040,2019-08-31 11:07:58:119,0.6415,-0.2347,7.7189,0.0397,-0.0263,9.8065,-0.0203,-0.0698,-0.0209,14.21,-16.48,-20.65,49.42,-1.47,2.63
46581,52.25033,-1.638135,131,25.3,9.0,46.4,14 / 24,4658141,2019-08-31 11:07:58:220,0.6056,-0.4679,10.4104,-0.0143,-0.0092,9.8066,-0.0448,-0.0506,-0.0231,14.21,-16.48,-20.65,49.42,-1.47,2.63
46582,52.25033,-1.638135,131,25.3,9.0,46.4,14 / 24,4658241,2019-08-31 11:07:58:320,-0.1889,-0.0652,10.2104,-0.0236,0.0,9.8066,-0.0448,-0.0506,-0.0231,14.14,-15.91,-21.14,49.47,-1.37,2.6
46583,52.25033,-1.638135,131,25.3,9.0,46.4,14 / 24,4658341,2019-08-31 11:07:58:420,0.5266,0.9155,10.0446,-0.0404,-0.058,9.8064,0.0543,-0.0368,-0.0145,13.69,-16.37,-21.09,49.77,-0.96,2.64
46584,52.25033,-1.638135,131,25.3,9.0,46.4,14 / 24,4658441,2019-08-31 11:07:58:520,-0.0333,-0.0178,9.9915,-0.0021,-0.006,9.8066,-0.0224,-0.0432,0.0227,13.84,-16.04,-21.24,49.8,-0.93,2.65
46585,52.25033,-1.638135,131,25.3,9.0,46.4,14 / 24,4658541,2019-08-31 11:07:58:620,0.3838,0.1942,11.1071,0.0689,0.0378,9.8063,0.001,0.0676,0.0249,13.32,-16.52,-21.21,49.8,-0.93,2.65
46586,52.25033,-1.638135,131,25.3,9.0,46.4,14 / 24,4658641,2019-08-31 11:07:58:720,-0.4162,0.2641,9.2138,0.1179,0.0517,9.8058,0.0,-0.0165,-0.0135,13.32,-16.52,-21.21,49.8,-0.93,2.65
46587,52.25033,-1.638135,131,25.3,9.0,46.4,14 / 24,4658741,2019-08-31 11:07:58:820,-0.092,-0.1386,11.6145,-0.0134,-0.0065,9.8066,-0.0469,-0.0591,0.0643,13.98,-15.72,-21.39,49.54,-1.6,2.99
46588,52.25033,-1.638135,131,25.3,9.0,46.4,14 / 24,4658840,2019-08-31 11:07:58:919,-0.3436,-0.4098,9.4333,-0.0269,-0.0113,9.8066,0.0,-0.0453,-0.0103,14.17,-15.94,-21.1,49.6,-1.45,2.91
46589,52.25033,-1.638135,131,25.3,9.0,46.4,14 / 24,4658941,2019-08-31 11:07:59:020,-0.2169,0.3664,9.7021,-0.0265,-0.0299,9.8066,-0.0181,-0.041,0.0004,14.17,-15.94,-21.1,49.6,-1.45,2.91
46590,52.250496,-1.637861,132,25.33,9.0,46.7,14 / 24,4659042,2019-08-31 11:07:59:121,-0.4676,0.0065,10.4858,-0.0738,-0.0613,9.8062,-0.0181,-0.041,0.0004,14.04,-16.29,-20.91,49.76,-1.22,2.9
46591,52.250496,-1.637861,132,25.33,9.0,46.7,14 / 24,4659141,2019-08-31 11:07:59:220,0.0164,-0.0014,10.2432,-0.0995,-0.081,9.8058,-0.0075,-0.0506,-0.0199,14.24,-15.95,-21.04,49.76,-1.22,2.9
46592,52.250496,-1.637861,132,25.33,9.0,46.7,14 / 24,4659241,2019-08-31 11:07:59:320,-0.3931,0.0739,10.6505,-0.0964,-0.0517,9.806,0.0117,0.0804,0.0025,14.24,-15.95,-21.04,49.76,-1.22,2.9
46593,52.250496,-1.637861,132,25.33,9.0,46.7,14 / 24,4659341,2019-08-31 11:07:59:420,1.3812,0.6329,9.8924,0.0391,0.0281,9.8065,0.0255,0.0516,0.0313,14.21,-16.48,-20.65,50.02,-0.62,2.67
46594,52.250496,-1.637861,132,25.33,9.0,46.7,14 / 24,4659442,2019-08-31 11:07:59:521,-0.4138,0.2633,8.5929,0.0327,0.0063,9.8066,0.065,-0.0069,-0.0103,13.57,-16.71,-20.9,51.6,-0.78,2.79
46595,52.250496,-1.637861,132,25.33,9.0,46.7,14 / 24,4659541,2019-08-31 11:07:59:620,0.2068,-0.3691,10.3393,-0.0059,-0.0452,9.8065,-0.0054,-0.0677,0.0174,14.4,-16.14,-20.79,51.6,-0.78,2.79
46596,52.250496,-1.637861,132,25.33,9.0,46.7,14 / 24,4659646,2019-08-31 11:07:59:725,-0.0619,-0.1412,10.2172,-0.0167,-0.0571,9.8065,-0.0416,-0.0091,-0.0018,14.4,-16.14,-20.79,51.6,-0.78,2.79
46597,52.250496,-1.637861,132,25.33,9.0,46.7,14 / 24,4659741,2019-08-31 11:07:59:820,0.0005,-0.0734,9.9897,-0.0124,0.0103,9.8066,-0.0213,-0.0815,0.0078,13.92,-16.64,-20.72,51.76,-0.55,2.81
46598,52.250496,-1.637861,132,25.33,9.0,46.7,14 / 24,4659841,2019-08-31 11:07:59:920,-0.3372,-0.2934,9.1807,-0.0107,-0.0079,9.8066,0.0234,-0.0389,-0.0156,14.43,-16.17,-20.75,51.76,-0.55,2.81
46599,52.250496,-1.637861,132,25.33,9.0,46.7,14 / 24,4659941,2019-08-31 11:08:00:020,-0.0597,-0.1557,9.2945,-0.0018,-0.0311,9.8066,0.0234,-0.0389,-0.0156,14.08,-16.83,-20.46,51.74,-0.48,2.79
46600,52.250496,-1.637861,132,25.33,9.0,46.7,14 / 24,4660043,2019-08-31 11:08:00:122,0.3006,-0.2948,9.5146,-0.0107,-0.0343,9.8066,0.0,0.0037,0.0238,14.4,-16.14,-20.79,50.38,-0.28,2.86
46601,52.25066,-1.637597,132,25.38,9.0,46.8,14 / 24,4660141,2019-08-31 11:08:00:220,-0.4926,0.0679,10.0449,0.0032,-0.0043,9.8066,-0.0022,0.0655,-0.0081,14.4,-16.14,-20.79,50.38,-0.28,2.86
46602,52.25066,-1.637597,132,25.38,9.0,46.8,14 / 24,4660241,2019-08-31 11:08:00:320,-0.2744,-0.2979,9.0851,-0.007,-0.0083,9.8066,0.0042,-0.0219,0.0036,14.21,-16.48,-20.65,50.4,-0.27,2.89
46603,52.25066,-1.637597,132,25.38,9.0,46.8,14 / 24,4660341,2019-08-31 11:08:00:420,0.0493,-0.2029,9.7512,-0.0234,-0.0152,9.8066,0.001,-0.0016,-0.0124,14.04,-16.29,-20.91,50.4,-0.27,2.89
46604,52.25066,-1.637597,132,25.38,9.0,46.8,14 / 24,4660441,2019-08-31 11:08:00:520,0.0131,-0.2116,9.0714,-0.0326,-0.0237,9.8066,0.0117,0.0666,-0.0071,14.43,-16.17,-20.75,50.53,-0.05,2.83
46605,52.25066,-1.637597,132,25.38,9.0,46.8,14 / 24,4660541,2019-08-31 11:08:00:620,0.3233,-0.1004,9.644,-0.0026,-0.0088,9.8066,0.0341,0.0314,-0.0209,14.43,-16.17,-20.75,50.53,-0.05,2.83
46606,52.25066,-1.637597,132,25.38,9.0,46.8,14 / 24,4660641,2019-08-31 11:08:00:720,0.9791,0.2386,9.6705,0.0231,-0.0135,9.8066,0.0341,0.0314,-0.0209,14.04,-16.29,-20.91,50.6,-0.07,2.99
46607,52.25066,-1.637597,132,25.38,9.0,46.8,14 / 24,4660742,2019-08-31 11:08:00:821,-0.3865,-0.2439,8.1147,0.0093,-0.0285,9.8066,-0.0086,-0.0389,0.0206,14.43,-16.17,-20.75,50.67,-0.08,3.13
46608,52.25066,-1.637597,132,25.38,9.0,46.8,14 / 24,4660841,2019-08-31 11:08:00:920,0.292,-0.0751,9.5044,0.0118,-0.0275,9.8066,-0.0096,0.0165,-0.0039,14.75,-16.03,-20.63,50.67,-0.08,3.13
46609,52.25066,-1.637597,132,25.38,9.0,46.8,14 / 24,4660941,2019-08-31 11:08:01:020,-0.0001,0.0357,11.3283,0.0266,-0.0098,9.8066,0.001,0.0676,0.0121,14.76,-17.13,-19.71,50.3,-0.13,3.29
46610,52.250824,-1.637346,132,25.48,9.0,46.8,14 / 24,4661041,2019-08-31 11:08:01:120,-0.2121,-0.1305,12.0998,0.0343,-0.0017,9.8066,0.033,0.1241,0.0014,14.76,-17.13,-19.71,50.3,-0.13,3.29
46611,52.250824,-1.637346,132,25.48,9.0,46.8,14 / 24,4661141,2019-08-31 11:08:01:220,-0.0579,-0.8673,9.5495,0.0147,-0.0207,9.8066,0.0586,-0.0442,0.0014,14.94,-16.18,-20.37,50.3,-0.13,3.29
46612,52.250824,-1.637346,132,25.48,9.0,46.8,14 / 24,4661241,2019-08-31 11:08:01:320,-0.0189,-0.4177,9.2081,-0.014,-0.051,9.8065,0.0586,-0.0442,0.0014,14.86,-15.63,-20.86,48.89,-0.09,3.43
46613,52.250824,-1.637346,132,25.48,9.0,46.8,14 / 24,4661341,2019-08-31 11:08:01:420,0.2426,-0.2981,9.7058,-0.0444,-0.0962,9.8061,-0.0181,-0.0474,0.0185,14.96,-16.76,-19.89,50.85,0.5,3.6
46614,52.250824,-1.637346,132,25.48,9.0,46.8,14 / 24,4661441,2019-08-31 11:08:01:520,-0.3733,-0.2164,9.9291,-0.0052,-0.0238,9.8066,0.0149,0.0176,-0.0039,15.31,-16.07,-20.18,50.85,0.5,3.6
46615,52.250824,-1.637346,132,25.48,9.0,46.8,14 / 24,4661541,2019-08-31 11:08:01:620,-0.1005,-0.2495,10.5508,0.0107,-0.0086,9.8066,0.0479,0.0602,-0.0305,15.31,-16.07,-20.18,50.85,0.5,3.6
46616,52.250824,-1.637346,132,25.48,9.0,46.8,14 / 24,4661641,2019-08-31 11:08:01:720,0.3366,-0.7185,12.4364,0.0202,0.0296,9.8066,-0.049,0.0602,0.0398,14.93,-16.21,-20.36,49.31,0.5,3.68
46617,52.250824,-1.637346,132,25.48,9.0,46.8,14 / 24,4661741,2019-08-31 11:08:01:820,-0.0966,-0.0389,8.8721,0.009,0.0209,9.8066,-0.016,0.0474,-0.0422,14.27,-16.48,-20.61,51.24,0.29,3.66
46618,52.250824,-1.637346,132,25.48,9.0,46.8,14 / 24,4661841,2019-08-31 11:08:01:920,0.4495,0.2394,9.4254,-0.0198,0.0373,9.8066,0.0149,-0.0091,-0.005,14.21,-16.48,-20.65,51.13,0.16,3.63
46619,52.250824,-1.637346,132,25.48,9.0,46.8,14 / 24,4661942,2019-08-31 11:08:02:021,0.1389,-0.1238,10.3106,-0.0203,0.053,9.8065,0.0522,-0.0261,-0.0113,14.43,-16.67,-20.34,52.33,0.0,3.34
46620,52.25098,-1.637069,132,25.66,9.0,46.9,14 / 24,4662043,2019-08-31 11:08:02:122,-0.0654,-0.5216,9.6449,0.0107,-0.0437,9.8065,0.0319,0.0229,-0.0209,14.43,-16.67,-20.34,52.33,0.0,3.34
46621,52.25098,-1.637069,132,25.66,9.0,46.9,14 / 24,4662141,2019-08-31 11:08:02:220,-0.2358,-0.2041,8.6804,-0.0186,-0.0722,9.8064,0.0319,0.0229,-0.0209,14.75,-15.98,-20.67,49.13,0.16,3.54
46622,52.25098,-1.637069,132,25.66,9.0,46.9,14 / 24,4662242,2019-08-31 11:08:02:321,-0.6715,-0.2348,10.3335,-0.0231,-0.0867,9.8062,0.0202,-0.0187,0.0153,14.6,-16.85,-20.07,49.13,0.16,3.54
46623,52.25098,-1.637069,132,25.66,9.0,46.9,14 / 24,4662341,2019-08-31 11:08:02:420,0.0516,-0.2287,11.5959,-0.0009,-0.0461,9.8065,-0.0118,0.058,0.0195,13.99,-16.23,-21.0,51.32,0.37,3.72
46624,52.25098,-1.637069,132,25.66,9.0,46.9,14 / 24,4662441,2019-08-31 11:08:02:520,-0.7704,-0.116,8.9358,0.0135,0.0199,9.8066,0.0404,-0.0027,0.0163,14.54,-16.29,-20.57,51.32,0.37,3.72
46625,52.25098,-1.637069,132,25.66,9.0,46.9,14 / 24,4662542,2019-08-31 11:08:02:621,0.8377,-0.0234,10.477,0.038,-0.0007,9.8066,0.001,0.0378,-0.005,14.54,-16.29,-20.57,51.32,0.37,3.72
46626,52.25098,-1.637069,132,25.66,9.0,46.9,14 / 24,4662641,2019-08-31 11:08:02:720,0.4586,0.0887,9.1841,0.0124,0.0151,9.8066,-0.0522,0.0357,0.0259,14.23,-16.09,-20.94,51.23,0.03,3.98
46627,52.25098,-1.637069,132,25.66,9.0,46.9,14 / 24,4662741,2019-08-31 11:08:02:820,0.1939,0.0192,9.8541,-0.012,0.0055,9.8066,-0.0224,-0.0421,0.0057,13.7,-16.87,-20.68,52.75,0.04,3.91
46628,52.25098,-1.637069,132,25.66,9.0,46.9,14 / 24,4662841,2019-08-31 11:08:02:920,-0.1845,-0.2251,9.052,-0.0311,-0.0239,9.8066,-0.0224,-0.0421,0.0057,13.7,-16.87,-20.68,52.75,0.04,3.91
46629,52.25098,-1.637069,132,25.66,9.0,46.9,14 / 24,4662941,2019-08-31 11:08:03:020,0.4157,0.2887,9.4448,-0.0115,-0.0186,9.8066,-0.016,-0.0421,0.0174,14.91,-16.16,-20.41,49.25,0.27,3.85
46630,52.251137,-1.636795,132,25.42,9.0,46.7,14 / 24,4663040,2019-08-31 11:08:03:119,-0.6046,0.0931,10.0044,0.0044,-0.0205,9.8066,0.0127,0.0186,-0.0082,14.41,-16.64,-20.39,49.25,0.27,3.85
46631,52.251137,-1.636795,132,25.42,9.0,46.7,14 / 24,4663141,2019-08-31 11:08:03:220,0.977,0.4178,11.0473,0.0376,-0.0001,9.8066,0.0032,0.0005,0.0387,14.67,-15.93,-20.76,49.37,0.12,4.02
46632,52.251137,-1.636795,132,25.42,9.0,46.7,14 / 24,4663242,2019-08-31 11:08:03:321,0.0086,-0.2795,8.4571,0.01,0.0043,9.8066,0.0277,0.008,-0.0039,14.67,-15.93,-20.76,49.37,0.12,4.02
46633,52.251137,-1.636795,132,25.42,9.0,46.7,14 / 24,4663340,2019-08-31 11:08:03:419,-0.5389,0.0424,10.6492,0.0186,-0.0006,9.8066,0.0032,0.0378,0.0195,13.96,-16.2,-21.04,51.29,0.07,4.04
46634,52.251137,-1.636795,132,25.42,9.0,46.7,14 / 24,4663441,2019-08-31 11:08:03:520,0.399,0.5269,11.0567,0.0253,-0.0064,9.8066,0.0287,-0.0378,-0.0039,14.15,-16.42,-20.74,51.32,0.0,4.18
46635,52.251137,-1.636795,132,25.42,9.0,46.7,14 / 24,4663541,2019-08-31 11:08:03:620,-0.3536,-0.0296,8.561,-0.0078,-0.0068,9.8066,0.0085,-0.0016,0.0142,14.35,-16.07,-20.88,51.17,-0.15,4.1
46636,52.251137,-1.636795,132,25.42,9.0,46.7,14 / 24,4663641,2019-08-31 11:08:03:720,0.0514,-0.2636,8.7846,-0.033,-0.0449,9.8065,0.0085,-0.0016,0.0142,13.96,-16.2,-21.04,51.17,-0.15,4.1
46637,52.251137,-1.636795,132,25.42,9.0,46.7,14 / 24,4663742,2019-08-31 11:08:03:821,-0.9223,-0.7054,8.6424,-0.1001,-0.1096,9.8055,0.001,-0.1156,0.0078,13.96,-16.2,-21.04,51.17,-0.15,4.1
46638,52.251137,-1.636795,132,25.42,9.0,46.7,14 / 24,4663841,2019-08-31 11:08:03:920,0.2324,-0.5201,8.9056,-0.0122,-0.0103,9.8066,-0.0352,-0.0325,-0.0092,14.91,-16.16,-20.41,49.64,0.71,4.04
46639,52.251137,-1.636795,132,25.42,9.0,46.7,14 / 24,4663941,2019-08-31 11:08:04:020,0.7501,-0.1435,13.0078,0.0166,0.0551,9.8065,-0.0171,0.1752,0.0366,14.35,-16.07,-20.88,51.45,0.4,3.91
46640,52.251297,-1.636526,132,25.3,9.0,46.6,14 / 24,4664042,2019-08-31 11:08:04:121,-0.3328,0.5636,11.3176,0.0473,0.0693,9.8063,0.0202,0.0357,0.011,14.91,-16.16,-20.41,49.04,-0.09,3.87
46641,52.251297,-1.636526,132,25.3,9.0,46.6,14 / 24,4664141,2019-08-31 11:08:04:220,0.059,-0.0199,10.3591,0.0617,-0.0055,9.8065,0.0106,0.0048,0.0078,14.91,-16.16,-20.41,49.04,-0.09,3.87
46642,52.251297,-1.636526,132,25.3,9.0,46.6,14 / 24,4664241,2019-08-31 11:08:04:320,0.1781,0.2655,9.9827,0.0251,-0.0017,9.8066,-0.0544,0.0218,0.0323,14.35,-16.07,-20.88,51.11,-0.3,4.17
46643,52.251297,-1.636526,132,25.3,9.0,46.6,14 / 24,4664341,2019-08-31 11:08:04:420,0.1186,0.2123,9.1539,0.0138,0.0157,9.8066,-0.0096,-0.0059,0.0036,13.87,-15.69,-21.48,51.11,-0.3,4.17
46644,52.251297,-1.636526,132,25.3,9.0,46.6,14 / 24,4664442,2019-08-31 11:08:04:521,-0.8552,0.2915,10.3384,-0.0322,-0.0201,9.8066,-0.0096,-0.0059,0.0036,13.78,-15.98,-21.33,51.09,-0.3,4.12
46645,52.251297,-1.636526,132,25.3,9.0,46.6,14 / 24,4664541,2019-08-31 11:08:04:620,0.1844,-0.1695,9.498,-0.022,-0.0637,9.8064,0.0479,-0.0027,-0.0039,14.7,-16.48,-20.31,49.14,-0.09,4.05
46646,52.251297,-1.636526,132,25.3,9.0,46.6,14 / 24,4664641,2019-08-31 11:08:04:720,0.1194,-0.2064,9.8829,-0.0126,-0.0698,9.8064,0.0223,0.0122,0.0142,14.7,-16.48,-20.31,49.14,-0.09,4.05
46647,52.251297,-1.636526,132,25.3,9.0,46.6,14 / 24,4664741,2019-08-31 11:08:04:820,-0.1336,-0.0745,9.1397,0.0161,0.0173,9.8066,0.0085,-0.0208,0.0025,14.35,-16.07,-20.88,51.55,0.27,4.26
46648,52.251297,-1.636526,132,25.3,9.0,46.6,14 / 24,4664842,2019-08-31 11:08:04:921,0.1515,-0.1179,10.0525,0.0251,0.0195,9.8066,0.0138,-0.0133,-0.0028,14.54,-16.29,-20.57,51.55,0.27,4.26
46649,52.251297,-1.636526,132,25.3,9.0,46.6,14 / 24,4664941,2019-08-31 11:08:05:020,0.4111,0.1755,9.1094,0.0073,-0.003,9.8066,0.0032,0.0431,0.0057,14.54,-16.29,-20.57,49.51,0.09,4.31
46650,52.251457,-1.636264,132,25.33,9.0,46.5,14 / 24,4665041,2019-08-31 11:08:05:120,-0.138,-0.0273,8.4953,0.0125,0.0037,9.8066,-0.0277,0.0058,-0.0028,14.09,-15.84,-21.23,51.43,0.03,4.35
46651,52.251457,-1.636264,132,25.33,9.0,46.5,14 / 24,4665141,2019-08-31 11:08:05:220,0.1177,-0.0513,9.849,-0.0029,0.0233,9.8066,-0.0118,-0.0197,0.0249,14.09,-15.84,-21.23,51.43,0.03,4.35
46652,52.251457,-1.636264,132,25.33,9.0,46.5,14 / 24,4665241,2019-08-31 11:08:05:320,-0.4774,0.0015,9.1206,-0.0134,0.0098,9.8066,-0.016,-0.0282,-0.0124,14.54,-16.29,-20.57,49.37,-0.07,4.25
46653,52.251457,-1.636264,132,25.33,9.0,46.5,14 / 24,4665341,2019-08-31 11:08:05:420,-0.5461,-0.0323,9.6196,-0.0369,-0.0026,9.8066,-0.016,-0.0282,-0.0124,14.5,-15.75,-21.02,51.33,0.08,4.1
46654,52.251457,-1.636264,132,25.33,9.0,46.5,14 / 24,4665442,2019-08-31 11:08:05:521,-0.6601,0.0876,9.218,-0.065,0.0031,9.8064,-0.0331,-0.0069,-0.0081,14.41,-16.64,-20.39,51.33,0.08,4.1
46655,52.251457,-1.636264,132,25.33,9.0,46.5,14 / 24,4665541,2019-08-31 11:08:05:620,-0.7523,0.0826,9.1108,-0.0896,0.0452,9.8061,-0.0064,0.0687,-0.0231,14.41,-16.64,-20.39,51.33,0.08,4.1
46656,52.251457,-1.636264,132,25.33,9.0,46.5,14 / 24,4665641,2019-08-31 11:08:05:720,-0.2532,-0.341,10.0966,-0.0169,0.0128,9.8066,-0.0842,0.1529,0.027,14.22,-16.42,-20.69,51.1,0.2,3.52
46657,52.251457,-1.636264,132,25.33,9.0,46.5,14 / 24,4665742,2019-08-31 11:08:05:821,-0.4948,0.0437,10.5338,0.0388,0.0262,9.8065,0.0415,0.0144,0.0249,14.41,-16.64,-20.39,52.5,0.21,3.4
46658,52.251457,-1.636264,132,25.33,9.0,46.5,14 / 24,4665841,2019-08-31 11:08:05:920,0.5517,-0.4352,8.8841,0.0229,0.0212,9.8066,0.0703,-0.0804,-0.0326,14.02,-16.77,-20.55,52.5,0.21,3.4
46659,52.251457,-1.636264,132,25.33,9.0,46.5,14 / 24,4665942,2019-08-31 11:08:06:021,-0.6436,0.1767,8.2267,0.0249,0.0091,9.8066,-0.0086,-0.0677,-0.0113,14.02,-16.77,-20.55,52.5,0.21,3.4
46660,52.251614,-1.635989,132,25.36,9.0,46.6,14 / 24,4666041,2019-08-31 11:08:06:120,-0.2013,0.1291,8.5575,0.0026,-0.0253,9.8066,-0.0086,-0.0677,-0.0113,14.54,-16.29,-20.57,49.03,0.08,3.48
46661,52.251614,-1.635989,132,25.36,9.0,46.6,14 / 24,4666141,2019-08-31 11:08:06:220,0.0781,-0.1496,8.4918,-0.0139,-0.0382,9.8066,0.0255,0.0666,-0.0071,14.85,-15.59,-20.89,49.23,0.3,3.57
46662,52.251614,-1.635989,132,25.36,9.0,46.6,14 / 24,4666242,2019-08-31 11:08:06:321,0.3359,-0.1526,6.4813,0.0089,-0.0103,9.8066,0.033,-0.0421,-0.0018,14.78,-16.5,-20.23,49.23,0.3,3.57
46663,52.251614,-1.635989,132,25.36,9.0,46.6,14 / 24,4666342,2019-08-31 11:08:06:421,-0.4406,0.298,9.4747,-0.0028,-0.0259,9.8066,0.0234,0.0506,-0.0028,14.78,-16.5,-20.23,49.23,0.3,3.57
46664,52.251614,-1.635989,132,25.36,9.0,46.6,14 / 24,4666441,2019-08-31 11:08:06:520,-0.4536,0.0085,11.3212,-0.0074,0.0129,9.8066,0.0277,0.074,-0.005,14.35,-16.07,-20.88,51.33,0.45,3.63
46665,52.251614,-1.635989,132,25.36,9.0,46.6,14 / 24,4666542,2019-08-31 11:08:06:621,0.2071,0.4694,7.823,0.0082,0.0493,9.8065,0.0127,0.0516,-0.0135,14.88,-15.62,-20.85,49.3,0.42,3.54
46666,52.251614,-1.635989,132,25.36,9.0,46.6,14 / 24,4666641,2019-08-31 11:08:06:720,-0.8429,0.2613,9.1568,-0.0103,0.0688,9.8064,0.0287,-0.041,-0.0316,14.88,-15.62,-20.85,49.3,0.42,3.54
46667,52.251614,-1.635989,132,25.36,9.0,46.6,14 / 24,4666742,2019-08-31 11:08:06:821,0.1468,0.057,9.5295,-0.0044,0.0207,9.8066,0.0042,0.057,0.0078,14.73,-16.51,-20.26,50.45,0.16,3.24
46668,52.251614,-1.635989,132,25.36,9.0,46.6,14 / 24,4666841,2019-08-31 11:08:06:920,-0.178,0.212,10.7019,-0.021,0.0216,9.8066,0.0042,0.057,0.0078,14.57,-16.32,-20.53,48.83,0.14,3.06
46669,52.251614,-1.635989,132,25.36,9.0,46.6,14 / 24,4666941,2019-08-31 11:08:07:020,-0.0273,0.1222,9.1287,-0.0102,-0.0085,9.8066,-0.016,0.0367,0.0334,14.18,-16.45,-20.7,48.83,0.14,3.06
46670,52.251766,-1.635714,132,25.34,9.0,46.8,14 / 24,4667041,2019-08-31 11:08:07:120,0.0204,-0.1605,10.4669,-0.0112,-0.0075,9.8066,-0.0139,-0.0773,0.0132,14.48,-16.29,-20.62,50.83,0.21,3.04
46671,52.251766,-1.635714,132,25.34,9.0,46.8,14 / 24,4667141,2019-08-31 11:08:07:220,0.332,0.2775,9.6425,-0.015,-0.006,9.8066,-0.0309,-0.1582,0.011,14.41,-16.64,-20.39,52.35,0.29,3.0
46672,52.251766,-1.635714,132,25.34,9.0,46.8,14 / 24,4667241,2019-08-31 11:08:07:320,-0.215,-0.0946,10.5943,0.0027,-0.0182,9.8066,0.0372,0.0825,-0.0103,14.41,-16.64,-20.39,52.35,0.29,3.0
46673,52.251766,-1.635714,132,25.34,9.0,46.8,14 / 24,4667341,2019-08-31 11:08:07:420,-0.2107,-0.5277,9.0245,0.038,-0.0036,9.8066,-0.0096,-0.0655,0.0078,14.73,-16.51,-20.26,50.61,0.38,3.27
46674,52.251766,-1.635714,132,25.34,9.0,46.8,14 / 24,4667442,2019-08-31 11:08:07:521,-0.1443,-0.2821,6.6464,0.0321,0.0099,9.8066,-0.0789,0.0985,0.0238,14.54,-16.29,-20.57,50.61,0.38,3.27
46675,52.251766,-1.635714,132,25.34,9.0,46.8,14 / 24,4667542,2019-08-31 11:08:07:621,1.837,0.9111,11.4108,0.0313,-0.009,9.8066,-0.0075,-0.0251,0.0046,14.54,-16.29,-20.57,50.61,0.38,3.27
46676,52.251766,-1.635714,132,25.34,9.0,46.8,14 / 24,4667641,2019-08-31 11:08:07:720,0.9805,0.6939,10.5654,0.0074,-0.0052,9.8066,0.0383,-0.0325,0.0142,14.57,-16.32,-20.53,49.17,0.3,3.45
46677,52.251766,-1.635714,132,25.34,9.0,46.8,14 / 24,4667741,2019-08-31 11:08:07:820,0.9952,0.5167,9.7234,0.0134,0.0045,9.8066,0.0383,-0.0325,0.0142,15.11,-16.37,-20.09,49.08,0.3,3.5
46678,52.251766,-1.635714,132,25.34,9.0,46.8,14 / 24,4667841,2019-08-31 11:08:07:920,-0.324,0.3563,10.9161,0.0412,-0.0075,9.8066,-0.0277,0.0772,-0.0018,15.11,-16.37,-20.09,49.08,0.3,3.5
46679,52.251766,-1.635714,132,25.34,9.0,46.8,14 / 24,4667941,2019-08-31 11:08:08:020,-0.6357,-0.2258,8.7748,-0.0072,0.0146,9.8066,-0.0245,0.0378,-0.0071,14.41,-16.64,-20.39,52.63,0.18,3.71
46680,52.251915,-1.635433,131,25.34,9.0,47.0,14 / 24,4668041,2019-08-31 11:08:08:120,-0.3392,-0.0454,8.3685,-0.0144,0.0405,9.8066,-0.0213,-0.0346,0.0345,14.73,-16.51,-20.26,52.63,0.18,3.71
46681,52.251915,-1.635433,131,25.34,9.0,47.0,14 / 24,4668141,2019-08-31 11:08:08:220,-0.2818,-0.2876,8.0486,-0.0399,0.0444,9.8065,-0.0128,-0.0208,0.0238,14.21,-16.99,-20.23,52.42,0.11,3.37
46682,52.251915,-1.635433,131,25.34,9.0,47.0,14 / 24,4668241,2019-08-31 11:08:08:320,-0.3269,0.2346,10.1186,0.0129,-0.0116,9.8066,0.0319,0.0857,-0.0028,14.21,-16.99,-20.23,52.42,0.11,3.37
46683,52.251915,-1.635433,131,25.34,9.0,47.0,14 / 24,4668341,2019-08-31 11:08:08:420,-0.1821,-0.1159,9.9541,0.0103,0.0004,9.8066,0.0117,-0.1018,-0.0113,14.41,-16.64,-20.39,52.48,0.12,3.47
46684,52.251915,-1.635433,131,25.34,9.0,47.0,14 / 24,4668441,2019-08-31 11:08:08:520,-0.1545,0.1302,11.0193,0.0075,-0.0226,9.8066,0.0223,-0.0197,0.0004,14.57,-16.32,-20.53,49.06,0.08,3.51
46685,52.251915,-1.635433,131,25.34,9.0,47.0,14 / 24,4668542,2019-08-31 11:08:08:621,0.075,0.0375,7.8957,0.0057,-0.0393,9.8066,0.0223,-0.0197,0.0004,14.5,-15.75,-21.02,51.21,0.23,3.69
46686,52.251915,-1.635433,131,25.34,9.0,47.0,14 / 24,4668641,2019-08-31 11:08:08:720,0.0216,-0.3419,10.0878,-0.0035,-0.024,9.8066,-0.0192,-0.0879,0.0153,14.5,-15.75,-21.02,51.21,0.23,3.69
46687,52.251915,-1.635433,131,25.34,9.0,47.0,14 / 24,4668741,2019-08-31 11:08:08:820,-0.268,-0.0362,9.8738,0.0035,0.0141,9.8066,-0.0363,-0.0293,0.044,14.57,-16.32,-20.53,49.38,0.35,3.76
46688,52.251915,-1.635433,131,25.34,9.0,47.0,14 / 24,4668842,2019-08-31 11:08:08:921,0.4045,-0.3635,10.6588,0.0425,0.0208,9.8065,-0.0309,0.0186,0.0227,14.21,-15.92,-21.08,51.26,0.28,3.72
46689,52.251915,-1.635433,131,25.34,9.0,47.0,14 / 24,4668941,2019-08-31 11:08:09:020,0.4856,0.3988,7.8937,0.0582,0.0161,9.8065,-0.0416,-0.0325,0.0036,14.43,-16.67,-20.34,52.62,-0.01,3.93
46690,52.25208,-1.635154,131,25.24,9.0,46.9,14 / 24,4669041,2019-08-31 11:08:09:120,0.2501,-0.0238,8.7923,-0.0228,-0.0054,9.8066,-0.0022,0.0218,-0.0284,14.43,-16.67,-20.34,52.62,-0.01,3.93
46691,52.25208,-1.635154,131,25.24,9.0,46.9,14 / 24,4669141,2019-08-31 11:08:09:220,-0.101,0.2348,9.532,-0.046,0.0384,9.8065,-0.0128,0.0857,0.0164,14.4,-16.14,-20.79,51.2,0.1,3.84
46692,52.25208,-1.635154,131,25.24,9.0,46.9,14 / 24,4669241,2019-08-31 11:08:09:320,-0.1501,-0.1931,9.0105,-0.0112,-0.0014,9.8066,-0.0128,0.0857,0.0164,14.49,-16.66,-20.31,52.47,0.09,3.49
46693,52.25208,-1.635154,131,25.24,9.0,46.9,14 / 24,4669342,2019-08-31 11:08:09:421,-0.4596,0.0791,10.1641,0.0125,-0.0216,9.8066,0.0692,-0.0165,-0.0071,14.25,-16.45,-20.65,52.47,0.09,3.49
46694,52.25208,-1.635154,131,25.24,9.0,46.9,14 / 24,4669441,2019-08-31 11:08:09:520,-0.0355,-0.1781,9.6489,0.0634,0.0038,9.8064,0.0586,-0.0037,-0.0081,15.0,-16.75,-19.86,50.53,-0.15,3.77
46695,52.25208,-1.635154,131,25.24,9.0,46.9,14 / 24,4669541,2019-08-31 11:08:09:620,0.9247,0.2349,8.8894,0.01,0.0303,9.8066,0.017,0.0208,-0.0316,15.0,-16.75,-19.86,50.53,-0.15,3.77
46696,52.25208,-1.635154,131,25.24,9.0,46.9,14 / 24,4669641,2019-08-31 11:08:09:720,-0.3827,0.1668,9.6838,0.0078,-0.0119,9.8066,0.033,-0.0442,0.0014,14.79,-17.07,-19.74,50.39,-0.32,3.71
46697,52.25208,-1.635154,131,25.24,9.0,46.9,14 / 24,4669741,2019-08-31 11:08:09:820,-0.4067,-0.4334,7.8256,0.0094,-0.0315,9.8066,-0.0043,0.0069,0.01,14.54,-16.87,-20.1,50.54,-0.22,3.87
46698,52.25208,-1.635154,131,25.24,9.0,46.9,14 / 24,4669841,2019-08-31 11:08:09:920,0.2836,-0.2095,10.2551,-0.0057,-0.0335,9.8066,-0.0277,-0.0197,0.0345,14.54,-16.87,-20.1,50.54,-0.22,3.87
46699,52.25208,-1.635154,131,25.24,9.0,46.9,14 / 24,4669941,2019-08-31 11:08:10:020,-0.5699,-0.5966,8.0852,-0.0085,-0.022,9.8066,-0.0064,-0.0261,-0.0071,14.79,-17.07,-19.74,50.7,-0.05,3.96
46700,52.25223,-1.634887,130,25.37,9.0,46.8,14 / 24,4670042,2019-08-31 11:08:10:121,-0.1827,-0.4756,11.1106,-0.0089,-0.0122,9.8066,0.0106,0.0176,0.0068,14.79,-17.07,-19.74,50.92,0.26,4.05
