,GPS LATITUDE (degrees),GPS LONGITUDE (degrees), GPS ALTITUDE (m),GPS SPEED (Kmh),GPS ACCURACY (m),GPS ORIENTATION (Â°), SATELLITES IN RANGE, TIME SINCE START (ms), DATE (YYYY-MO-DD HH-MI-SS_SSS),ACCELEROMETER X (m/s²) , ACCELEROMETER Y (m/s²), ACCELEROMETER Z (m/s²), GRAVITY X (m/s²), GRAVITY Y (m/s²), GRAVITY Z (m/s²), GYROSCOPE Yaw (rad/s), GYROSCOPE Pitch (rad/s), GYROSCOPE Roll (rad/s)
50753,46.80813,-1.207934,150.17,34.73,3.216,150.6,15 / 20,5075310,2019-08-09 21:38:44:048,0.6149,0.3299,10.1116,-0.5688,-0.1165,9.7894,0.0003,0.0036,-0.0101
50754,46.80813,-1.207934,150.17,34.73,3.216,150.6,15 / 20,5075410,2019-08-09 21:38:44:148,-1.0389,0.1037,10.0457,-0.5644,-0.1246,9.7896,-0.0064,-0.0417,0.0285
50755,46.80813,-1.207934,150.17,34.73,3.216,150.6,15 / 20,5075510,2019-08-09 21:38:44:248,0.0415,-0.0166,9.3257,-0.5618,-0.1281,9.7897,0.004,0.0065,-0.022
50756,46.80813,-1.207934,150.17,34.73,3.216,150.6,16 / 21,5075610,2019-08-09 21:38:44:348,-0.2895,0.2599,9.8524,-0.5665,-0.111,9.7896,-0.0047,-0.0004,-0.0202
50757,46.80813,-1.207934,150.17,34.73,3.216,150.6,16 / 21,5075710,2019-08-09 21:38:44:448,0.8854,-0.0675,9.3275,-0.546,-0.1099,9.7908,-0.0057,-0.0087,0.0
50758,46.80813,-1.207934,150.17,34.73,3.216,150.6,16 / 21,5075810,2019-08-09 21:38:44:548,0.382,0.0809,10.0074,-0.5714,-0.1044,9.7894,0.0044,0.0197,-0.0259
50759,46.80813,-1.207934,150.17,34.73,3.216,150.6,16 / 21,5075910,2019-08-09 21:38:44:648,-1.5387,-0.1872,9.422,-0.5736,-0.0977,9.7894,0.0062,-0.0193,0.0051
50760,46.80813,-1.207934,150.17,34.73,3.216,150.6,16 / 21,5076010,2019-08-09 21:38:44:748,0.0475,-0.1908,9.3143,-0.5538,-0.0873,9.7906,0.0114,0.0114,-0.0074
50761,46.80813,-1.207934,150.17,34.73,3.216,150.6,16 / 21,5076110,2019-08-09 21:38:44:848,0.1187,-0.1651,9.537,-0.5416,-0.0833,9.7913,0.0,-0.0258,-0.0014
50762,46.80813,-1.207934,150.17,34.73,3.216,150.6,16 / 21,5076210,2019-08-09 21:38:44:948,-0.0513,0.3539,10.5042,-0.5624,-0.091,9.7901,-0.0065,0.0202,-0.0132
50763,46.80813,-1.207934,150.17,34.73,3.216,150.6,16 / 21,5076310,2019-08-09 21:38:45:048,-2.1863,0.1324,9.9212,-0.5592,-0.0964,9.7902,-0.0208,-0.0008,-0.0072
50764,46.80813,-1.207934,150.17,34.73,3.216,150.6,16 / 21,5076410,2019-08-09 21:38:45:148,-1.8188,0.1468,9.8039,-0.5717,-0.0928,9.7895,0.0053,0.009,-0.0194
50765,46.80813,-1.207934,150.17,34.73,3.216,150.6,16 / 21,5076510,2019-08-09 21:38:45:248,-1.6291,0.203,9.4837,-0.5697,-0.0841,9.7897,0.0045,-0.0046,-0.0142
50766,46.80813,-1.207934,150.17,34.73,3.216,150.6,16 / 21,5076610,2019-08-09 21:38:45:348,0.8764,0.5095,9.6806,-0.5707,-0.0761,9.7897,0.0058,0.0639,-0.0325
50767,46.80813,-1.207934,150.17,34.73,3.216,150.6,16 / 21,5076710,2019-08-09 21:38:45:448,0.6759,0.5526,10.0356,-0.5737,-0.0477,9.7897,0.0019,-0.0384,-0.0113
50768,46.80813,-1.207934,150.17,34.73,3.216,150.6,16 / 21,5076810,2019-08-09 21:38:45:548,-0.2315,0.3515,9.1629,-0.5705,-0.0427,9.7899,0.0078,-0.0064,-0.0052
50769,46.80813,-1.207934,150.17,34.73,3.216,150.6,16 / 21,5076910,2019-08-09 21:38:45:648,0.2276,0.2814,9.592,-0.5618,-0.0178,9.7905,0.0018,0.0235,-0.0339
50770,46.80813,-1.207934,150.17,34.73,3.216,150.6,16 / 21,5077010,2019-08-09 21:38:45:748,1.2015,0.4101,9.513,-0.5628,-0.0104,9.7905,-0.0087,-0.0444,-0.0038
50771,46.80813,-1.207934,150.17,34.73,3.216,150.6,16 / 21,5077110,2019-08-09 21:38:45:848,0.5443,0.0977,9.7896,-0.5478,-0.0114,9.7913,-0.0087,0.0181,-0.0114
50772,46.80813,-1.207934,150.17,34.73,3.216,150.6,16 / 21,5077210,2019-08-09 21:38:45:948,-0.672,-0.0418,9.9404,-0.5577,-0.0155,9.7908,-0.0095,-0.0009,0.0091
50773,46.80813,-1.207934,150.17,34.73,3.216,150.6,16 / 21,5077310,2019-08-09 21:38:46:048,-1.6686,-0.0376,9.7602,-0.5651,-0.0275,9.7903,-0.0065,-0.01,0.0018
50774,46.80813,-1.207934,150.17,34.73,3.216,150.6,16 / 21,5077411,2019-08-09 21:38:46:149,-2.5814,-0.1585,9.3442,-0.5539,-0.0294,9.7909,0.0009,-0.0119,0.0229
50775,46.80813,-1.207934,150.17,34.73,3.216,150.6,16 / 21,5077511,2019-08-09 21:38:46:249,-1.6554,-0.2932,10.084,-0.5394,-0.0346,9.7917,-0.015,0.018,-0.0193
50776,46.80813,-1.207934,150.17,34.73,3.216,150.6,14 / 20,5077610,2019-08-09 21:38:46:348,-0.4374,-0.022,10.096,-0.5454,-0.0463,9.7914,-0.015,0.018,-0.0193
50777,46.80813,-1.207934,150.17,34.73,3.216,150.6,14 / 20,5077711,2019-08-09 21:38:46:449,-0.7127,-0.4632,9.5442,-0.5356,-0.0695,9.7918,-0.0117,-0.0029,0.0018
50778,46.80813,-1.207934,150.17,34.73,3.216,150.6,14 / 20,5077810,2019-08-09 21:38:46:548,-1.0736,-0.3046,9.8171,-0.5505,-0.0761,9.7909,-0.0083,-0.0076,0.0142
50779,46.80813,-1.207934,150.17,34.73,3.216,150.6,14 / 20,5077911,2019-08-09 21:38:46:649,0.6945,-0.4829,9.5717,-0.5316,-0.0973,9.7917,-0.01,-0.0131,0.0067
50780,46.80813,-1.207934,150.17,34.73,3.216,150.6,14 / 20,5078010,2019-08-09 21:38:46:748,1.1165,-0.3842,9.8734,-0.5346,-0.1036,9.7915,-0.0017,0.0321,-0.0018
50781,46.80813,-1.207934,150.17,34.73,3.216,150.6,14 / 20,5078110,2019-08-09 21:38:46:848,0.6586,-0.3584,9.8183,-0.5276,-0.1189,9.7917,0.0001,0.0127,0.0086
50782,46.80813,-1.207934,150.17,34.73,3.216,150.6,14 / 20,5078210,2019-08-09 21:38:46:948,-0.4793,-0.526,9.8871,-0.5313,-0.1228,9.7915,-0.0039,0.0052,-0.0051
50783,46.80813,-1.207934,150.17,34.73,3.216,150.6,14 / 20,5078311,2019-08-09 21:38:47:049,0.0265,-0.3925,9.519,-0.5179,-0.1314,9.7921,0.01,-0.0092,-0.0063
50784,46.80813,-1.207934,150.17,34.73,3.216,150.6,14 / 20,5078411,2019-08-09 21:38:47:149,0.2899,-0.14,9.8871,-0.5206,-0.1293,9.792,0.015,0.0074,-0.004
50785,46.80813,-1.207934,150.17,34.73,3.216,150.6,14 / 20,5078511,2019-08-09 21:38:47:249,-1.2227,-0.4231,9.7345,-0.5159,-0.1171,9.7924,0.0021,-0.0127,-0.0258
50786,46.80813,-1.207934,150.17,34.73,3.216,150.6,15 / 21,5078611,2019-08-09 21:38:47:349,-1.5495,-0.1998,9.2676,-0.5218,-0.115,9.7921,0.0084,0.0002,0.0022
50787,46.80813,-1.207934,150.17,34.73,3.216,150.6,15 / 21,5078710,2019-08-09 21:38:47:448,-1.5244,-0.0903,9.5573,-0.4991,-0.1097,9.7933,-0.0031,-0.0259,0.0045
50788,46.80813,-1.207934,150.17,34.73,3.216,150.6,15 / 21,5078810,2019-08-09 21:38:47:548,0.0145,-0.1633,10.0894,-0.5102,-0.1111,9.7927,0.002,0.013,0.0021
50789,46.80813,-1.207934,150.17,34.73,3.216,150.6,15 / 21,5078910,2019-08-09 21:38:47:648,-0.1848,0.2174,10.2103,-0.5128,-0.1128,9.7926,-0.0088,0.0043,-0.0073
50790,46.80813,-1.207934,150.17,34.73,3.216,150.6,15 / 21,5079010,2019-08-09 21:38:47:748,0.0181,-0.0801,9.774,-0.4911,-0.1163,9.7937,0.0059,-0.0086,0.0004
50791,46.80813,-1.207934,150.17,34.73,3.216,150.6,15 / 21,5079110,2019-08-09 21:38:47:848,-0.268,0.2168,10.0002,-0.5177,-0.1138,9.7923,0.0018,0.0386,-0.0155
50792,46.80813,-1.207934,150.17,34.73,3.216,150.6,15 / 21,5079210,2019-08-09 21:38:47:948,-0.0818,-0.2363,9.5974,-0.4934,-0.1118,9.7936,-0.0026,-0.0304,-0.0023
50793,46.80813,-1.207934,150.17,34.73,3.216,150.6,15 / 21,5079311,2019-08-09 21:38:48:049,-0.2369,0.2366,9.8351,-0.4894,-0.1095,9.7938,0.0032,0.0131,-0.0182
50794,46.80813,-1.207934,150.17,34.73,3.216,150.6,15 / 21,5079411,2019-08-09 21:38:48:149,0.953,-0.11,9.3424,-0.4592,-0.1035,9.7953,0.0017,-0.0452,0.0075
50795,46.80813,-1.207934,150.17,34.73,3.216,150.6,15 / 21,5079511,2019-08-09 21:38:48:249,1.0141,-0.0274,9.5292,-0.4579,-0.096,9.7955,0.0099,0.0013,-0.0036
50796,46.80813,-1.207934,150.17,34.73,3.216,150.6,15 / 21,5079610,2019-08-09 21:38:48:348,0.3204,-0.3494,9.2443,-0.4683,-0.0927,9.795,0.0032,-0.0349,0.0199
50797,46.80813,-1.207934,150.17,34.73,3.216,150.6,15 / 21,5079710,2019-08-09 21:38:48:448,-0.0358,-0.186,9.4885,-0.4465,-0.0902,9.7961,0.0092,0.0085,-0.011
50798,46.80813,-1.207934,150.17,34.73,3.216,150.6,15 / 21,5079810,2019-08-09 21:38:48:548,0.1127,0.142,9.8075,-0.4442,-0.0796,9.7963,0.0002,-0.0025,-0.0025
50799,46.80813,-1.207934,150.17,34.73,3.216,150.6,15 / 21,5079910,2019-08-09 21:38:48:648,-0.8701,0.1318,10.0386,-0.4441,-0.0768,9.7963,-0.0043,0.0015,-0.0203
50800,46.80813,-1.207934,150.17,34.73,3.216,150.6,15 / 21,5080010,2019-08-09 21:38:48:748,-1.1455,0.1324,9.9661,-0.4523,-0.0772,9.7959,-0.002,-0.0025,-0.0172
50801,46.80813,-1.207934,150.17,34.73,3.216,150.6,15 / 21,5080110,2019-08-09 21:38:48:848,-0.5409,0.3138,9.4376,-0.4341,-0.0707,9.7968,0.0103,0.0152,-0.022
50802,46.80813,-1.207934,150.17,34.73,3.216,150.6,15 / 21,5080210,2019-08-09 21:38:48:948,-0.8354,0.6549,10.1056,-0.4494,-0.0555,9.7962,-0.0061,0.0177,-0.0192
50803,46.80813,-1.207934,150.17,34.73,3.216,150.6,15 / 21,5080310,2019-08-09 21:38:49:048,-1.6913,0.0546,9.7357,-0.4509,-0.0529,9.7961,-0.0058,-0.0028,-0.0012
50804,46.80813,-1.207934,150.17,34.73,3.216,150.6,15 / 21,5080410,2019-08-09 21:38:49:148,-1.1233,0.4023,9.5831,-0.4448,-0.0352,9.7965,0.0114,0.0092,-0.0339
50805,46.80813,-1.207934,150.17,34.73,3.216,150.6,15 / 21,5080510,2019-08-09 21:38:49:248,0.582,0.6663,10.0811,-0.4756,-0.0249,9.7951,-0.0013,0.0097,-0.0214
50806,46.805664,-1.205994,148.4,34.07,3.216,152.6,15 / 21,5080611,2019-08-09 21:38:49:349,0.1624,0.3066,9.1455,-0.4427,-0.0121,9.7966,0.0057,-0.0308,-0.0186
50807,46.805664,-1.205994,148.4,34.07,3.216,152.6,15 / 21,5080711,2019-08-09 21:38:49:449,0.1366,0.4179,9.3921,-0.4572,0.0013,9.796,0.0114,-0.0024,-0.0041
50808,46.805664,-1.205994,148.4,34.07,3.216,152.6,15 / 21,5080811,2019-08-09 21:38:49:549,0.139,0.4407,9.786,-0.455,0.0216,9.7961,0.0015,-0.0118,-0.0277
50809,46.805664,-1.205994,148.4,34.07,3.216,152.6,15 / 21,5080911,2019-08-09 21:38:49:649,0.2408,0.2006,10.1666,-0.4659,0.0241,9.7955,-0.0178,-0.0214,0.0008
50810,46.805664,-1.205994,148.4,34.07,3.216,152.6,15 / 21,5081010,2019-08-09 21:38:49:748,0.1031,0.0073,9.291,-0.4632,0.0161,9.7957,-0.0033,-0.0065,0.0064
50811,46.805664,-1.205994,148.4,34.07,3.216,152.6,15 / 21,5081110,2019-08-09 21:38:49:848,-0.4936,0.2282,9.8997,-0.4737,0.017,9.7952,0.0029,0.0109,-0.0131
50812,46.805664,-1.205994,148.4,34.07,3.216,152.6,15 / 21,5081210,2019-08-09 21:38:49:948,0.3126,-0.2028,9.5956,-0.4591,0.0147,9.7959,-0.0085,-0.0143,0.0127
50813,46.805664,-1.205994,148.4,34.07,3.216,152.6,15 / 21,5081310,2019-08-09 21:38:50:048,0.2941,-0.0825,9.6028,-0.463,0.0094,9.7957,0.0054,0.0019,-0.0023
50814,46.805664,-1.205994,148.4,34.07,3.216,152.6,15 / 21,5081411,2019-08-09 21:38:50:149,-0.0196,-0.1777,9.4681,-0.4508,0.0093,9.7963,-0.0086,-0.0119,-0.0045
50815,46.805664,-1.205994,148.4,34.07,3.216,152.6,15 / 21,5081510,2019-08-09 21:38:50:248,-1.5722,0.0492,10.12,-0.4566,0.0,9.796,-0.0034,0.0125,0.0186
50816,46.805664,-1.205994,148.4,34.07,3.216,152.6,16 / 20,5081611,2019-08-09 21:38:50:349,-1.3975,-0.116,9.2922,-0.4571,0.0028,9.796,0.007,-0.0506,0.0041
50817,46.805664,-1.205994,148.4,34.07,3.216,152.6,16 / 20,5081711,2019-08-09 21:38:50:449,-0.5589,0.6082,10.688,-0.4438,0.0017,9.7966,-0.0056,0.0887,-0.0356
50818,46.805664,-1.205994,148.4,34.07,3.216,152.6,16 / 20,5081810,2019-08-09 21:38:50:548,-2.4838,-0.1705,10.1349,-0.4813,-0.0128,9.7948,-0.0094,0.0118,-0.0207
50819,46.805664,-1.205994,148.4,34.07,3.216,152.6,16 / 20,5081910,2019-08-09 21:38:50:648,-1.9918,-0.1352,9.6681,-0.4768,-0.0102,9.795,0.0058,-0.0008,-0.0035
50820,46.805664,-1.205994,148.4,34.07,3.216,152.6,16 / 20,5082010,2019-08-09 21:38:50:748,-1.7027,0.2078,9.5956,-0.4646,0.0063,9.7956,0.0153,0.0097,-0.0253
50821,46.805664,-1.205994,148.4,34.07,3.216,152.6,16 / 20,5082110,2019-08-09 21:38:50:848,-0.2153,0.3048,9.8596,-0.481,0.0134,9.7948,-0.0017,-0.0267,-0.0085
50822,46.805664,-1.205994,148.4,34.07,3.216,152.6,16 / 20,5082210,2019-08-09 21:38:50:948,-0.8857,0.2216,9.9188,-0.4719,0.0038,9.7953,-0.0151,0.0285,-0.0259
50823,46.805664,-1.205994,148.4,34.07,3.216,152.6,16 / 20,5082310,2019-08-09 21:38:51:048,-1.8476,-0.0023,9.9446,-0.4699,-0.0014,9.7954,0.0002,0.0341,-0.0089
50824,46.805664,-1.205994,148.4,34.07,3.216,152.6,16 / 20,5082410,2019-08-09 21:38:51:148,1.4379,-0.2573,9.5382,-0.4801,-0.001,9.7949,0.0149,-0.0345,-0.006
50825,46.805664,-1.205994,148.4,34.07,3.216,152.6,16 / 20,5082510,2019-08-09 21:38:51:248,0.8112,-0.1471,9.4795,-0.4814,0.0076,9.7948,0.0098,-0.0015,-0.0015
50826,46.805664,-1.205994,148.4,34.07,3.216,152.6,17 / 21,5082611,2019-08-09 21:38:51:349,0.1576,0.0318,9.4005,-0.4752,0.0111,9.7951,0.0013,-0.0343,-0.006
50827,46.805664,-1.205994,148.4,34.07,3.216,152.6,17 / 21,5082711,2019-08-09 21:38:51:449,0.084,-0.0663,10.369,-0.499,0.0089,9.7939,-0.0039,0.0476,-0.003
50828,46.805664,-1.205994,148.4,34.07,3.216,152.6,17 / 21,5082811,2019-08-09 21:38:51:549,0.7166,0.2192,9.8333,-0.4699,0.0016,9.7954,0.0066,0.033,-0.0173
50829,46.805664,-1.205994,148.4,34.07,3.216,152.6,17 / 21,5082910,2019-08-09 21:38:51:648,0.163,0.0265,9.9129,-0.4764,0.0046,9.7951,-0.0133,-0.0119,0.0128
50830,46.805664,-1.205994,148.4,34.07,3.216,152.6,17 / 21,5083010,2019-08-09 21:38:51:748,-1.185,-0.4709,8.8929,-0.4803,-0.0088,9.7949,0.0012,0.0493,-0.0141
50831,46.805664,-1.205994,148.4,34.07,3.216,152.6,17 / 21,5083110,2019-08-09 21:38:51:848,-0.2566,0.1893,10.2678,-0.487,-0.0099,9.7945,-0.007,0.031,0.0004
50832,46.805664,-1.205994,148.4,34.07,3.216,152.6,17 / 21,5083210,2019-08-09 21:38:51:948,-0.411,-0.3907,9.3448,-0.4944,-0.0173,9.7942,0.0122,0.0276,0.0015
50833,46.805664,-1.205994,148.4,34.07,3.216,152.6,17 / 21,5083310,2019-08-09 21:38:52:048,-1.4986,-0.1992,9.5178,-0.4971,-0.0142,9.794,0.0148,-0.0416,-0.0107
50834,46.805664,-1.205994,148.4,34.07,3.216,152.6,17 / 21,5083410,2019-08-09 21:38:52:148,-0.9922,-0.1148,9.209,-0.5065,-0.0071,9.7936,0.0019,0.0086,0.0004
50835,46.805664,-1.205994,148.4,34.07,3.216,152.6,17 / 21,5083510,2019-08-09 21:38:52:248,-0.5487,-0.1974,9.8045,-0.4989,-0.0101,9.7939,0.0,-0.0037,0.0039
50836,46.805664,-1.205994,148.4,34.07,3.216,152.6,13 / 17,5083611,2019-08-09 21:38:52:349,-1.7746,0.1737,9.7698,-0.4866,-0.0119,9.7946,-0.0065,-0.0047,-0.0151
50837,46.805664,-1.205994,148.4,34.07,3.216,152.6,13 / 17,5083711,2019-08-09 21:38:52:449,-1.522,0.0283,10.266,-0.5034,-0.017,9.7937,-0.0008,0.0349,-0.017
50838,46.805664,-1.205994,148.4,34.07,3.216,152.6,13 / 17,5083810,2019-08-09 21:38:52:548,-1.1221,0.0701,10.4276,-0.5059,-0.017,9.7936,-0.0102,-0.0162,0.0247
50839,46.805664,-1.205994,148.4,34.07,3.216,152.6,13 / 17,5083910,2019-08-09 21:38:52:648,-0.6062,-0.0783,9.3209,-0.5119,-0.036,9.7932,-0.0069,0.0221,-0.0208
50840,46.805664,-1.205994,148.4,34.07,3.216,152.6,13 / 17,5084010,2019-08-09 21:38:52:748,-0.6553,0.0127,9.7578,-0.5045,-0.0344,9.7936,0.0044,0.0214,-0.0012
50841,46.805664,-1.205994,148.4,34.07,3.216,152.6,13 / 17,5084111,2019-08-09 21:38:52:849,-0.8079,-0.1364,9.7261,-0.5001,-0.031,9.7938,0.0,-0.0261,0.0049
50842,46.805664,-1.205994,148.4,34.07,3.216,152.6,13 / 17,5084211,2019-08-09 21:38:52:949,0.7753,0.3102,10.0002,-0.5131,-0.0351,9.7932,-0.0038,0.0004,-0.0246
50843,46.805664,-1.205994,148.4,34.07,3.216,152.6,13 / 17,5084310,2019-08-09 21:38:53:048,1.0273,-0.2495,9.446,-0.5132,-0.0379,9.7931,-0.0053,-0.0463,0.0057
50844,46.805664,-1.205994,148.4,34.07,3.216,152.6,13 / 17,5084410,2019-08-09 21:38:53:148,0.4856,0.1408,9.5549,-0.53,-0.036,9.7923,0.0091,0.0119,-0.0091
50845,46.805664,-1.205994,148.4,34.07,3.216,152.6,13 / 17,5084510,2019-08-09 21:38:53:248,-0.5888,0.1761,9.9847,-0.5294,-0.0332,9.7923,-0.0077,-0.0086,-0.0134
50846,46.805664,-1.205994,148.4,34.07,3.216,152.6,16 / 20,5084610,2019-08-09 21:38:53:348,-0.2716,-0.3447,10.0709,-0.5328,-0.0418,9.7921,-0.0053,0.0057,-0.0086
50847,46.805664,-1.205994,148.4,34.07,3.216,152.6,16 / 20,5084711,2019-08-09 21:38:53:449,-0.0687,-0.2381,9.2281,-0.5339,-0.047,9.792,0.0113,-0.0259,-0.0082
50848,46.805664,-1.205994,148.4,34.07,3.216,152.6,16 / 20,5084811,2019-08-09 21:38:53:549,-0.9994,-0.2058,9.2293,-0.5264,-0.0442,9.7924,0.0103,-0.0016,-0.0105
50849,46.805664,-1.205994,148.4,34.07,3.216,152.6,16 / 20,5084911,2019-08-09 21:38:53:649,-1.2622,-0.2998,9.7788,-0.5335,-0.04,9.792,-0.0011,-0.0337,-0.0069
50850,46.805664,-1.205994,148.4,34.07,3.216,152.6,16 / 20,5085010,2019-08-09 21:38:53:748,-1.1425,-0.4135,9.6657,-0.5324,-0.0413,9.7921,0.0063,0.0308,0.0135
50851,46.805664,-1.205994,148.4,34.07,3.216,152.6,16 / 20,5085110,2019-08-09 21:38:53:848,-1.2448,-0.0549,10.5773,-0.5606,-0.0397,9.7905,-0.0015,0.0208,-0.0063
50852,46.805664,-1.205994,148.4,34.07,3.216,152.6,16 / 20,5085210,2019-08-09 21:38:53:948,-0.3949,-0.1292,9.4047,-0.5533,-0.0412,9.7909,0.008,-0.0368,0.0108
50853,46.805664,-1.205994,148.4,34.07,3.216,152.6,16 / 20,5085311,2019-08-09 21:38:54:049,-1.5459,0.1246,9.6836,-0.5533,-0.0272,9.791,0.0144,-0.0164,-0.0106
50854,46.805664,-1.205994,148.4,34.07,3.216,152.6,16 / 20,5085410,2019-08-09 21:38:54:148,-1.3735,0.3156,9.5436,-0.5572,-0.0209,9.7908,0.0028,-0.0316,-0.0174
50855,46.805664,-1.205994,148.4,34.07,3.216,152.6,16 / 20,5085510,2019-08-09 21:38:54:248,-0.8354,0.1085,9.9643,-0.5608,-0.0136,9.7906,-0.0069,-0.0189,-0.0049
50856,46.805664,-1.205994,148.4,34.07,3.216,152.6,16 / 20,5085610,2019-08-09 21:38:54:348,-0.1172,0.0678,9.7758,-0.5623,-0.014,9.7905,0.0064,0.0011,-0.0073
50857,46.805664,-1.205994,148.4,34.07,3.216,152.6,16 / 20,5085710,2019-08-09 21:38:54:448,-0.0184,0.4251,9.6914,-0.5664,0.0087,9.7903,0.0057,0.0197,-0.0388
50858,46.805664,-1.205994,148.4,34.07,3.216,152.6,16 / 20,5085810,2019-08-09 21:38:54:548,-0.2476,0.5807,9.4592,-0.5593,0.0156,9.7907,-0.012,-0.0354,0.0078
50859,46.805664,-1.205994,148.4,34.07,3.216,152.6,16 / 20,5085910,2019-08-09 21:38:54:648,-0.0591,0.0905,9.0007,-0.5573,0.0081,9.7908,-0.0067,0.0412,-0.032
50860,46.805664,-1.205994,148.4,34.07,3.216,152.6,16 / 20,5086010,2019-08-09 21:38:54:748,0.8561,0.4035,9.862,-0.555,0.0094,9.7909,-0.0103,-0.0197,-0.0188
50861,46.805664,-1.205994,148.4,34.07,3.216,152.6,16 / 20,5086111,2019-08-09 21:38:54:849,0.5161,0.1779,9.5076,-0.5545,0.0105,9.791,-0.0025,-0.0107,-0.0115
50862,46.805664,-1.205994,148.4,34.07,3.216,152.6,16 / 20,5086211,2019-08-09 21:38:54:949,-0.6529,0.4179,9.8668,-0.5695,0.0109,9.7901,-0.0074,0.0174,-0.0304
50863,46.805664,-1.205994,148.4,34.07,3.216,152.6,16 / 20,5086310,2019-08-09 21:38:55:048,-0.7768,-0.0825,9.5268,-0.554,0.0166,9.791,0.0052,0.0199,-0.0132
50864,46.805664,-1.205994,148.4,34.07,3.216,152.6,16 / 20,5086410,2019-08-09 21:38:55:148,-0.3757,0.3485,9.9206,-0.5612,0.021,9.7906,-0.0073,-0.0342,-0.0083
50865,46.805664,-1.205994,148.4,34.07,3.216,152.6,16 / 20,5086510,2019-08-09 21:38:55:248,-2.269,-0.1094,9.1653,-0.5391,0.0218,9.7918,0.0123,0.0028,-0.021
50866,46.805664,-1.205994,148.4,34.07,3.216,152.6,17 / 21,5086610,2019-08-09 21:38:55:348,-1.853,0.1037,9.6543,-0.5439,0.0286,9.7915,0.0083,0.0186,-0.0235
50867,46.805664,-1.205994,148.4,34.07,3.216,152.6,17 / 21,5086710,2019-08-09 21:38:55:448,-1.109,0.0576,9.9967,-0.5466,0.0337,9.7913,-0.0108,-0.0046,0.0087
50868,46.805664,-1.205994,148.4,34.07,3.216,152.6,17 / 21,5086810,2019-08-09 21:38:55:548,-1.2682,-0.1609,9.8434,-0.549,0.0185,9.7913,-0.0028,0.0133,-0.0037
50869,46.805664,-1.205994,148.4,34.07,3.216,152.6,17 / 21,5086910,2019-08-09 21:38:55:648,-1.4729,-0.0035,10.3743,-0.5686,0.0127,9.7901,-0.0057,0.0258,-0.0047
50870,46.805664,-1.205994,148.4,34.07,3.216,152.6,17 / 21,5087010,2019-08-09 21:38:55:748,-2.0445,-0.3417,9.3329,-0.5654,0.0039,9.7903,0.0018,-0.0269,0.0177
50871,46.805664,-1.205994,148.4,34.07,3.216,152.6,17 / 21,5087110,2019-08-09 21:38:55:848,-0.5302,-0.3363,9.4454,-0.5755,0.0027,9.7897,0.0016,0.0168,-0.0205
50872,46.805664,-1.205994,148.4,34.07,3.216,152.6,17 / 21,5087210,2019-08-09 21:38:55:948,-0.0567,-0.0909,9.3873,-0.5512,0.004,9.7911,0.0088,-0.0081,0.0025
50873,46.805664,-1.205994,148.4,34.07,3.216,152.6,17 / 21,5087310,2019-08-09 21:38:56:048,-0.2848,-0.0214,9.7147,-0.5537,0.0061,9.791,0.0027,-0.0097,0.0121
50874,46.805664,-1.205994,148.4,34.07,3.216,152.6,17 / 21,5087410,2019-08-09 21:38:56:148,-1.0473,-0.1747,9.4532,-0.5367,0.0023,9.792,-0.0047,0.0306,-0.0054
50875,46.805664,-1.205994,148.4,34.07,3.216,152.6,17 / 21,5087510,2019-08-09 21:38:56:248,0.9339,0.1234,10.5557,-0.5632,-0.0016,9.7905,-0.0242,0.0159,0.0182
50876,46.805664,-1.205994,148.4,34.07,3.216,152.6,15 / 20,5087614,2019-08-09 21:38:56:352,0.2629,-0.5524,9.6537,-0.5594,-0.0363,9.7906,-0.0188,-0.0166,0.0101
50877,46.805664,-1.205994,148.4,34.07,3.216,152.6,15 / 20,5087711,2019-08-09 21:38:56:449,-0.2273,-0.2926,9.5459,-0.5463,-0.0461,9.7913,0.004,-0.0049,-0.0034
50878,46.805664,-1.205994,148.4,34.07,3.216,152.6,15 / 20,5087811,2019-08-09 21:38:56:549,-0.1884,-0.1166,10.3277,-0.5647,-0.0645,9.7902,-0.0194,0.0368,0.0036
50879,46.805664,-1.205994,148.4,34.07,3.216,152.6,15 / 20,5087910,2019-08-09 21:38:56:648,-0.2021,-0.7678,9.7501,-0.5574,-0.0839,9.7904,-0.002,-0.0153,0.0179
50880,46.805664,-1.205994,148.4,34.07,3.216,152.6,15 / 20,5088011,2019-08-09 21:38:56:749,0.403,-0.4991,9.6926,-0.5515,-0.0996,9.7906,0.0083,-0.0232,-0.0069
50881,46.805664,-1.205994,148.4,34.07,3.216,152.6,15 / 20,5088110,2019-08-09 21:38:56:848,-2.0696,-0.0927,9.6704,-0.5536,-0.1014,9.7905,0.0049,0.0327,0.0099
50882,46.805664,-1.205994,148.4,34.07,3.216,152.6,15 / 20,5088210,2019-08-09 21:38:56:948,-2.3976,-0.1579,9.698,-0.5547,-0.1011,9.7904,0.0099,-0.0195,0.0106
50883,46.805664,-1.205994,148.4,34.07,3.216,152.6,15 / 20,5088310,2019-08-09 21:38:57:048,-1.4735,-0.1962,9.5011,-0.5429,-0.0993,9.7911,0.0103,0.0116,-0.0205
50884,46.805664,-1.205994,148.4,34.07,3.216,152.6,15 / 20,5088410,2019-08-09 21:38:57:148,-0.162,0.4873,10.1607,-0.5541,-0.0841,9.7906,-0.009,0.0168,-0.0078
50885,46.805664,-1.205994,148.4,34.07,3.216,152.6,15 / 20,5088510,2019-08-09 21:38:57:248,-0.2309,-0.0148,9.1784,-0.5661,-0.0782,9.79,-0.0091,-0.064,-0.0137
50886,46.805664,-1.205994,148.4,34.07,3.216,152.6,16 / 21,5088610,2019-08-09 21:38:57:348,-0.9048,0.5717,9.7776,-0.5637,-0.086,9.7901,-0.0107,-0.0546,-0.0168
50887,46.805664,-1.205994,148.4,34.07,3.216,152.6,16 / 21,5088710,2019-08-09 21:38:57:448,-0.7384,-0.8115,9.4807,-0.5556,-0.0688,9.7907,0.0239,-0.0287,-0.0124
50888,46.805664,-1.205994,148.4,34.07,3.216,152.6,16 / 21,5088810,2019-08-09 21:38:57:548,1.2284,-0.7319,9.4831,-0.5503,-0.0672,9.791,-0.0174,-0.0365,-0.0809
50889,46.805664,-1.205994,148.4,34.07,3.216,152.6,16 / 21,5088910,2019-08-09 21:38:57:648,0.4628,0.4436,10.2199,-0.5686,-0.0545,9.79,-0.0182,0.0709,-0.0282
50890,46.805664,-1.205994,148.4,34.07,3.216,152.6,16 / 21,5089010,2019-08-09 21:38:57:748,-1.1718,-0.441,10.8173,-0.5664,-0.0785,9.79,0.01,-0.0741,0.0194
50891,46.805664,-1.205994,148.4,34.07,3.216,152.6,16 / 21,5089110,2019-08-09 21:38:57:848,0.7771,-0.1537,9.6214,-0.5977,-0.0688,9.7882,0.0303,0.0206,-0.0234
50892,46.805664,-1.205994,148.4,34.07,3.216,152.6,16 / 21,5089210,2019-08-09 21:38:57:948,0.3485,0.2916,9.9931,-0.5537,-0.0452,9.7909,0.0022,-0.0056,-0.002
50893,46.805664,-1.205994,148.4,34.07,3.216,152.6,16 / 21,5089310,2019-08-09 21:38:58:048,-1.0042,-0.2896,10.0882,-0.5522,-0.0527,9.791,-0.0242,0.0185,0.027
50894,46.805664,-1.205994,148.4,34.07,3.216,152.6,16 / 21,5089410,2019-08-09 21:38:58:148,-1.0617,0.0887,8.9666,-0.546,-0.0781,9.7911,0.0038,-0.0265,-0.0666
50895,46.805664,-1.205994,148.4,34.07,3.216,152.6,16 / 21,5089510,2019-08-09 21:38:58:248,-0.5511,0.1593,9.6519,-0.5642,-0.0769,9.7901,-0.0188,0.0114,0.0221
50896,46.80318,-1.204234,145.76,34.26,3.216,155.2,16 / 21,5089610,2019-08-09 21:38:58:348,-0.4416,-0.5691,9.422,-0.5344,-0.0815,9.7917,0.0157,0.0213,-0.0142
50897,46.80318,-1.204234,145.76,34.26,3.216,155.2,16 / 21,5089710,2019-08-09 21:38:58:448,-0.4637,0.2473,9.9685,-0.5513,-0.0741,9.7909,0.0068,-0.0065,-0.0018
50898,46.80318,-1.204234,145.76,34.26,3.216,155.2,16 / 21,5089810,2019-08-09 21:38:58:548,-1.8535,-0.2405,9.3353,-0.521,-0.0674,9.7926,0.0071,-0.0183,-0.0055
50899,46.80318,-1.204234,145.76,34.26,3.216,155.2,16 / 21,5089910,2019-08-09 21:38:58:648,0.5897,-0.1268,9.6136,-0.5493,-0.0639,9.791,0.0127,0.047,-0.0226
50900,46.80318,-1.204234,145.76,34.26,3.216,155.2,16 / 21,5090011,2019-08-09 21:38:58:749,-0.5224,0.0516,10.0954,-0.542,-0.056,9.7915,-0.0078,0.0005,-0.0198
50901,46.80318,-1.204234,145.76,34.26,3.216,155.2,16 / 21,5090111,2019-08-09 21:38:58:849,-0.9479,-0.0867,10.1014,-0.5528,-0.054,9.7909,0.0062,0.0078,-0.0024
50902,46.80318,-1.204234,145.76,34.26,3.216,155.2,16 / 21,5090210,2019-08-09 21:38:58:948,-0.9234,0.0714,9.9865,-0.5569,-0.0525,9.7907,0.0005,0.0036,-0.0272
50903,46.80318,-1.204234,145.76,34.26,3.216,155.2,16 / 21,5090310,2019-08-09 21:38:59:048,-0.8043,-0.0202,9.516,-0.5515,-0.0374,9.7911,0.0128,-0.0277,0.0079
50904,46.80318,-1.204234,145.76,34.26,3.216,155.2,16 / 21,5090411,2019-08-09 21:38:59:149,-0.7726,0.203,9.7932,-0.5535,-0.03,9.791,0.0055,0.0172,-0.0246
50905,46.80318,-1.204234,145.76,34.26,3.216,155.2,16 / 21,5090511,2019-08-09 21:38:59:249,-1.2951,0.2072,9.5328,-0.5521,-0.0232,9.7911,-0.0084,-0.0319,-0.0014
50906,46.80318,-1.204234,145.76,34.26,3.216,155.2,16 / 21,5090611,2019-08-09 21:38:59:349,-1.6357,0.3299,10.0206,-0.5606,-0.0233,9.7906,-0.0026,0.0063,-0.0372
50907,46.80318,-1.204234,145.76,34.26,3.216,155.2,16 / 21,5090711,2019-08-09 21:38:59:449,-0.7366,0.0522,9.7692,-0.5593,-0.0162,9.7907,-0.0005,-0.0301,0.0135
50908,46.80318,-1.204234,145.76,34.26,3.216,155.2,16 / 21,5090810,2019-08-09 21:38:59:548,-0.6888,0.1192,9.2922,-0.5549,-0.0134,9.7909,0.0058,0.0126,-0.0358
50909,46.80318,-1.204234,145.76,34.26,3.216,155.2,16 / 21,5090910,2019-08-09 21:38:59:648,-0.6259,0.0779,9.2497,-0.5587,-0.0063,9.7907,-0.0081,-0.0134,-0.005
50910,46.80318,-1.204234,145.76,34.26,3.216,155.2,16 / 21,5091010,2019-08-09 21:38:59:748,-0.2123,-0.1435,9.4927,-0.5561,-0.0099,9.7909,0.0053,-0.0119,0.0017
50911,46.80318,-1.204234,145.76,34.26,3.216,155.2,16 / 21,5091111,2019-08-09 21:38:59:849,-0.2889,0.6394,10.4587,-0.5809,-0.0053,9.7894,0.0013,0.0419,-0.0299
50912,46.80318,-1.204234,145.76,34.26,3.216,155.2,16 / 21,5091210,2019-08-09 21:38:59:948,0.4688,0.2761,9.8734,-0.5736,-0.0053,9.7899,-0.0137,-0.0131,0.0015
50913,46.80318,-1.204234,145.76,34.26,3.216,155.2,16 / 21,5091310,2019-08-09 21:39:00:048,-0.5906,-0.277,9.7967,-0.5929,-0.0128,9.7887,0.0181,-0.0359,-0.0257
50914,46.80318,-1.204234,145.76,34.26,3.216,155.2,16 / 21,5091410,2019-08-09 21:39:00:148,0.6394,0.1318,9.2598,-0.5585,0.0002,9.7907,0.0292,0.0091,-0.0073
50915,46.80318,-1.204234,145.76,34.26,3.216,155.2,16 / 21,5091510,2019-08-09 21:39:00:248,1.2918,0.4454,9.9308,-0.5687,0.0294,9.7901,-0.009,0.0066,-0.0107
50916,46.80318,-1.204234,145.76,34.26,3.216,155.2,15 / 19,5091610,2019-08-09 21:39:00:348,-2.1067,0.0695,9.5645,-0.5654,0.0266,9.7903,-0.0046,-0.0163,0.0115
50917,46.80318,-1.204234,145.76,34.26,3.216,155.2,15 / 19,5091710,2019-08-09 21:39:00:448,-1.5213,0.2509,9.9655,-0.5745,0.0337,9.7898,0.0046,0.0259,-0.0239
50918,46.80318,-1.204234,145.76,34.26,3.216,155.2,15 / 19,5091810,2019-08-09 21:39:00:548,-1.158,0.3192,9.7435,-0.5887,0.0408,9.7889,-0.0062,-0.004,-0.0146
50919,46.80318,-1.204234,145.76,34.26,3.216,155.2,15 / 19,5091910,2019-08-09 21:39:00:648,-1.4621,-0.0161,9.5681,-0.58,0.0425,9.7894,0.0087,-0.0076,-0.015
50920,46.80318,-1.204234,145.76,34.26,3.216,155.2,15 / 19,5092010,2019-08-09 21:39:00:748,-2.2863,0.4059,9.938,-0.59,0.0488,9.7888,0.0044,0.0217,-0.0308
50921,46.80318,-1.204234,145.76,34.26,3.216,155.2,15 / 19,5092110,2019-08-09 21:39:00:848,-1.9266,-0.0334,9.6423,-0.5679,0.0573,9.79,0.0024,-0.0018,-0.0073
50922,46.80318,-1.204234,145.76,34.26,3.216,155.2,15 / 19,5092210,2019-08-09 21:39:00:948,0.485,0.3138,9.9613,-0.5698,0.0621,9.7899,0.0026,0.0279,-0.0287
50923,46.80318,-1.204234,145.76,34.26,3.216,155.2,15 / 19,5092310,2019-08-09 21:39:01:048,0.1965,0.3521,9.7542,-0.5698,0.0625,9.7899,-0.0078,0.0055,-0.0115
50924,46.80318,-1.204234,145.76,34.26,3.216,155.2,15 / 19,5092410,2019-08-09 21:39:01:148,-0.6158,0.1318,9.9326,-0.5742,0.0586,9.7896,-0.0069,0.0009,-0.0007
50925,46.80318,-1.204234,145.76,34.26,3.216,155.2,15 / 19,5092510,2019-08-09 21:39:01:248,0.336,0.0504,9.4334,-0.5691,0.0512,9.79,-0.0089,-0.0191,0.0088
50926,46.80318,-1.204234,145.76,34.26,3.216,155.2,17 / 21,5092610,2019-08-09 21:39:01:348,0.4162,0.1737,9.8111,-0.5689,0.0444,9.79,-0.0058,-0.004,-0.0062
50927,46.80318,-1.204234,145.76,34.26,3.216,155.2,17 / 21,5092710,2019-08-09 21:39:01:448,0.3449,-0.2124,9.4155,-0.5629,0.0285,9.7904,-0.014,-0.045,0.0086
50928,46.80318,-1.204234,145.76,34.26,3.216,155.2,17 / 21,5092810,2019-08-09 21:39:01:548,-0.578,-0.122,10.0182,-0.5766,0.0193,9.7897,-0.008,0.0321,-0.0046
50929,46.80318,-1.204234,145.76,34.26,3.216,155.2,17 / 21,5092910,2019-08-09 21:39:01:648,-0.8522,-0.2543,9.92,-0.5876,0.0109,9.789,0.0114,0.0047,0.0054
50930,46.80318,-1.204234,145.76,34.26,3.216,155.2,17 / 21,5093010,2019-08-09 21:39:01:748,-1.4866,-0.0196,9.5555,-0.583,0.0141,9.7893,0.0157,-0.0263,-0.0307
50931,46.80318,-1.204234,145.76,34.26,3.216,155.2,17 / 21,5093110,2019-08-09 21:39:01:848,-1.2831,0.0079,9.3849,-0.5659,0.0239,9.7903,-0.0016,-0.0066,-0.0069
50932,46.80318,-1.204234,145.76,34.26,3.216,155.2,17 / 21,5093210,2019-08-09 21:39:01:948,-0.5822,-0.0436,10.0248,-0.5789,0.0233,9.7895,-0.0051,0.0187,-0.0188
50933,46.80318,-1.204234,145.76,34.26,3.216,155.2,17 / 21,5093310,2019-08-09 21:39:02:048,-1.4771,-0.0603,9.7734,-0.5883,0.0131,9.789,-0.006,-0.0173,0.0016
50934,46.80318,-1.204234,145.76,34.26,3.216,155.2,17 / 21,5093410,2019-08-09 21:39:02:148,-1.5381,-0.0885,9.6268,-0.585,0.0131,9.7892,0.015,0.0059,-0.0033
50935,46.80318,-1.204234,145.76,34.26,3.216,155.2,17 / 21,5093510,2019-08-09 21:39:02:248,-0.5349,0.1528,9.6597,-0.591,0.0173,9.7888,0.0026,-0.0167,-0.0067
50936,46.80318,-1.204234,145.76,34.26,3.216,155.2,17 / 21,5093610,2019-08-09 21:39:02:348,-0.2093,-0.1992,9.5687,-0.5717,0.0277,9.7899,-0.0023,-0.0057,0.0056
50937,46.80318,-1.204234,145.76,34.26,3.216,155.2,17 / 21,5093711,2019-08-09 21:39:02:449,-0.5751,0.1426,10.2283,-0.5819,0.0205,9.7894,-0.0164,0.0085,-0.0067
50938,46.80318,-1.204234,145.76,34.26,3.216,155.2,17 / 21,5093810,2019-08-09 21:39:02:548,-0.6289,-0.2597,9.6441,-0.5867,0.0033,9.7891,-0.0132,-0.0152,0.0095
50939,46.80318,-1.204234,145.76,34.26,3.216,155.2,17 / 21,5093911,2019-08-09 21:39:02:649,0.0858,0.1839,10.2834,-0.5963,-0.004,9.7885,-0.0066,0.0337,-0.0085
50940,46.80318,-1.204234,145.76,34.26,3.216,155.2,17 / 21,5094010,2019-08-09 21:39:02:748,0.1606,-0.1836,9.9859,-0.6081,-0.0203,9.7878,-0.0043,0.0006,0.0135
50941,46.80318,-1.204234,145.76,34.26,3.216,155.2,17 / 21,5094110,2019-08-09 21:39:02:848,-0.8695,-0.6583,9.2467,-0.6193,-0.0302,9.787,0.0091,-0.0057,-0.0042
50942,46.80318,-1.204234,145.76,34.26,3.216,155.2,17 / 21,5094210,2019-08-09 21:39:02:948,-0.9294,-0.3171,9.2072,-0.607,-0.0296,9.7878,0.0088,-0.0296,-0.0037
50943,46.80318,-1.204234,145.76,34.26,3.216,155.2,17 / 21,5094310,2019-08-09 21:39:03:048,-0.0513,-0.4482,9.4286,-0.6026,-0.0341,9.7881,-0.003,-0.0137,0.0128
50944,46.80318,-1.204234,145.76,34.26,3.216,155.2,17 / 21,5094411,2019-08-09 21:39:03:149,-1.0329,-0.7427,9.8859,-0.6203,-0.0405,9.7869,0.0126,0.0268,0.0112
50945,46.80318,-1.204234,145.76,34.26,3.216,155.2,17 / 21,5094511,2019-08-09 21:39:03:249,-1.5501,-0.7906,9.4221,-0.5926,-0.0343,9.7887,0.0281,-0.013,0.0226
50946,46.80318,-1.204234,145.76,34.26,3.216,155.2,16 / 20,5094610,2019-08-09 21:39:03:348,-1.3035,-0.1633,9.519,-0.5916,-0.0228,9.7888,0.0074,-0.0226,-0.0043
50947,46.80318,-1.204234,145.76,34.26,3.216,155.2,16 / 20,5094710,2019-08-09 21:39:03:448,0.1893,-0.3524,9.3383,-0.5698,-0.0203,9.7901,0.0045,-0.0176,0.0045
50948,46.80318,-1.204234,145.76,34.26,3.216,155.2,16 / 20,5094810,2019-08-09 21:39:03:548,0.2677,0.1725,10.3941,-0.5934,-0.0273,9.7886,-0.0115,0.0108,-0.0039
50949,46.80318,-1.204234,145.76,34.26,3.216,155.2,16 / 20,5094911,2019-08-09 21:39:03:649,-0.7576,-0.3985,9.6297,-0.5873,-0.0329,9.789,-0.013,-0.0083,0.0048
50950,46.80318,-1.204234,145.76,34.26,3.216,155.2,16 / 20,5095011,2019-08-09 21:39:03:749,-1.2388,-0.1962,9.1964,-0.5753,-0.0443,9.7897,0.0115,0.0372,-0.0168
50951,46.80318,-1.204234,145.76,34.26,3.216,155.2,16 / 20,5095111,2019-08-09 21:39:03:849,-1.6309,0.1031,9.4927,-0.5875,-0.0427,9.7889,-0.0074,-0.0298,-0.0074
50952,46.80318,-1.204234,145.76,34.26,3.216,155.2,16 / 20,5095210,2019-08-09 21:39:03:948,-0.7408,0.0103,10.117,-0.5761,-0.0494,9.7896,-0.0005,0.0413,-0.0123
50953,46.80318,-1.204234,145.76,34.26,3.216,155.2,16 / 20,5095310,2019-08-09 21:39:04:048,-0.0483,-0.1651,9.4256,-0.5748,-0.0508,9.7897,0.0015,0.0055,-0.0037
50954,46.80318,-1.204234,145.76,34.26,3.216,155.2,16 / 20,5095410,2019-08-09 21:39:04:148,-0.8995,-0.1615,9.4268,-0.5699,-0.0495,9.79,0.0044,0.0181,-0.0124
50955,46.80318,-1.204234,145.76,34.26,3.216,155.2,16 / 20,5095510,2019-08-09 21:39:04:248,-1.1323,0.133,10.1583,-0.5857,-0.0506,9.789,-0.0065,0.0009,-0.0092
50956,46.80318,-1.204234,145.76,34.26,3.216,155.2,17 / 21,5095610,2019-08-09 21:39:04:348,-1.0,-0.1956,9.8351,-0.5834,-0.057,9.7891,0.0004,-0.0036,-0.0169
50957,46.80318,-1.204234,145.76,34.26,3.216,155.2,17 / 21,5095710,2019-08-09 21:39:04:448,-1.0545,0.3598,10.4282,-0.5977,-0.0568,9.7883,-0.0134,-0.0209,-0.0241
50958,46.80318,-1.204234,145.76,34.26,3.216,155.2,17 / 21,5095810,2019-08-09 21:39:04:548,-0.8941,-0.2213,9.279,-0.5771,-0.0592,9.7895,0.0033,-0.017,0.0145
50959,46.80318,-1.204234,145.76,34.26,3.216,155.2,17 / 21,5095911,2019-08-09 21:39:04:649,-0.739,-0.0316,10.0272,-0.5811,-0.0528,9.7893,0.0097,0.0312,-0.0273
50960,46.80318,-1.204234,145.76,34.26,3.216,155.2,17 / 21,5096011,2019-08-09 21:39:04:749,-1.2047,-0.1795,9.5663,-0.5802,-0.0431,9.7894,-0.0008,-0.0338,-0.0039
50961,46.80318,-1.204234,145.76,34.26,3.216,155.2,17 / 21,5096110,2019-08-09 21:39:04:848,0.2581,-0.101,9.3562,-0.5683,-0.0463,9.7901,0.0091,0.0601,-0.0201
50962,46.80318,-1.204234,145.76,34.26,3.216,155.2,17 / 21,5096211,2019-08-09 21:39:04:949,0.233,0.2892,9.8069,-0.5924,-0.0379,9.7887,-0.006,-0.0345,0.0087
50963,46.80318,-1.204234,145.76,34.26,3.216,155.2,17 / 21,5096310,2019-08-09 21:39:05:048,0.7992,0.1575,9.9045,-0.5738,-0.0383,9.7898,-0.0014,0.0666,-0.0314
50964,46.80318,-1.204234,145.76,34.26,3.216,155.2,17 / 21,5096410,2019-08-09 21:39:05:148,-1.076,-0.0047,9.8961,-0.57,-0.035,9.79,0.0045,0.0462,-0.0108
50965,46.80318,-1.204234,145.76,34.26,3.216,155.2,17 / 21,5096510,2019-08-09 21:39:05:248,-0.5888,-0.116,9.343,-0.5893,-0.0355,9.7889,0.0067,-0.0266,-0.0024
50966,46.80318,-1.204234,145.76,34.26,3.216,155.2,17 / 21,5096610,2019-08-09 21:39:05:348,-0.4547,-0.1376,9.0761,-0.5696,-0.036,9.79,-0.0095,-0.0237,-0.006
50967,46.80318,-1.204234,145.76,34.26,3.216,155.2,17 / 21,5096711,2019-08-09 21:39:05:449,-0.7145,0.0157,9.8787,-0.5927,-0.0395,9.7886,0.0007,0.0087,-0.0058
50968,46.80318,-1.204234,145.76,34.26,3.216,155.2,17 / 21,5096811,2019-08-09 21:39:05:549,-1.4675,-0.0777,10.281,-0.5982,-0.0401,9.7883,0.0006,-0.0423,0.006
50969,46.80318,-1.204234,145.76,34.26,3.216,155.2,17 / 21,5096910,2019-08-09 21:39:05:648,-2.151,-0.3524,9.2802,-0.5819,-0.0405,9.7893,0.0121,0.0035,0.005
50970,46.80318,-1.204234,145.76,34.26,3.216,155.2,17 / 21,5097011,2019-08-09 21:39:05:749,0.3521,0.1539,9.841,-0.5751,-0.0367,9.7897,-0.008,-0.0161,-0.0106
50971,46.80318,-1.204234,145.76,34.26,3.216,155.2,17 / 21,5097110,2019-08-09 21:39:05:848,-0.28,-0.432,9.2461,-0.5705,-0.038,9.79,-0.0087,-0.0264,0.0201
50972,46.80318,-1.204234,145.76,34.26,3.216,155.2,17 / 21,5097210,2019-08-09 21:39:05:948,-0.0842,0.0037,9.9955,-0.5838,-0.0451,9.7892,0.0008,0.0145,-0.0126
50973,46.80318,-1.204234,145.76,34.26,3.216,155.2,17 / 21,5097310,2019-08-09 21:39:06:048,-2.2845,0.2491,10.2989,-0.59,-0.0439,9.7888,-0.0096,0.014,0.0014
50974,46.80318,-1.204234,145.76,34.26,3.216,155.2,17 / 21,5097410,2019-08-09 21:39:06:148,-1.2706,-0.2908,10.0386,-0.5758,-0.0484,9.7896,0.0099,0.0543,-0.0262
50975,46.80318,-1.204234,145.76,34.26,3.216,155.2,17 / 21,5097510,2019-08-09 21:39:06:248,-0.1543,0.2342,9.6232,-0.5856,-0.0356,9.7891,0.003,-0.0252,-0.0032
50976,46.80318,-1.204234,145.76,34.26,3.216,155.2,16 / 21,5097610,2019-08-09 21:39:06:348,-1.0084,0.133,8.6757,-0.5505,-0.0303,9.7911,0.0063,0.0235,-0.0273
50977,46.80318,-1.204234,145.76,34.26,3.216,155.2,16 / 21,5097711,2019-08-09 21:39:06:449,-0.5996,0.3114,10.0823,-0.5837,-0.026,9.7892,-0.0061,0.0013,-0.0087
50978,46.80318,-1.204234,145.76,34.26,3.216,155.2,16 / 21,5097811,2019-08-09 21:39:06:549,-0.7223,-0.104,9.5094,-0.5649,-0.0235,9.7903,-0.004,-0.0183,0.0063
50979,46.80318,-1.204234,145.76,34.26,3.216,155.2,16 / 21,5097911,2019-08-09 21:39:06:649,-0.0789,0.5155,10.1649,-0.5959,-0.0098,9.7885,-0.0037,0.0267,0.0035
50980,46.80318,-1.204234,145.76,34.26,3.216,155.2,16 / 21,5098010,2019-08-09 21:39:06:748,-0.4081,-0.0148,9.1712,-0.604,-0.0121,9.788,-0.0038,-0.0552,-0.0028
50981,46.80318,-1.204234,145.76,34.26,3.216,155.2,16 / 21,5098110,2019-08-09 21:39:06:848,0.0941,-0.049,9.5759,-0.5921,-0.0118,9.7888,-0.0011,0.0145,0.005
50982,46.80318,-1.204234,145.76,34.26,3.216,155.2,16 / 21,5098210,2019-08-09 21:39:06:948,-1.9565,-0.0113,10.1804,-0.6247,-0.0145,9.7867,-0.0069,-0.0453,-0.0081
50983,46.80318,-1.204234,145.76,34.26,3.216,155.2,16 / 21,5098310,2019-08-09 21:39:07:048,-1.2664,0.1767,11.0124,-0.624,-0.0186,9.7868,-0.0054,-0.0274,0.021
50984,46.80318,-1.204234,145.76,34.26,3.216,155.2,16 / 21,5098411,2019-08-09 21:39:07:149,-1.3633,-0.2824,10.2516,-0.583,-0.0195,9.7893,0.0067,0.0416,-0.0081
50985,46.80318,-1.204234,145.76,34.26,3.216,155.2,16 / 21,5098511,2019-08-09 21:39:07:249,-0.8803,-0.0735,9.3843,-0.6226,-0.0085,9.7869,0.0115,0.0357,-0.0013
50986,46.8006,-1.202667,141.36,34.72,3.216,158.5,15 / 20,5098610,2019-08-09 21:39:07:348,-0.6541,-0.0639,9.5944,-0.5934,-0.0064,9.7887,-0.0023,-0.0173,-0.0119
50987,46.8006,-1.202667,141.36,34.72,3.216,158.5,15 / 20,5098710,2019-08-09 21:39:07:448,0.2683,-0.2106,9.9284,-0.5913,0.0088,9.7888,0.0167,0.0669,0.0119
50988,46.8006,-1.202667,141.36,34.72,3.216,158.5,15 / 20,5098810,2019-08-09 21:39:07:548,-1.8811,-0.4709,8.3955,-0.6474,0.005,9.7853,0.0153,-0.1589,-0.0057
50989,46.8006,-1.202667,141.36,34.72,3.216,158.5,15 / 20,5098910,2019-08-09 21:39:07:648,-1.0539,0.3257,8.4638,-0.5642,0.0211,9.7904,0.001,0.0236,-0.0301
50990,46.8006,-1.202667,141.36,34.72,3.216,158.5,15 / 20,5099010,2019-08-09 21:39:07:748,-0.6355,0.552,10.2708,-0.543,0.0145,9.7916,-0.0342,0.0068,-0.0156
50991,46.8006,-1.202667,141.36,34.72,3.216,158.5,15 / 20,5099110,2019-08-09 21:39:07:848,-1.7386,-0.1417,11.083,-0.5842,-0.0208,9.7892,-0.0215,-0.0178,-0.0023
50992,46.8006,-1.202667,141.36,34.72,3.216,158.5,15 / 20,5099210,2019-08-09 21:39:07:948,0.2318,-0.2519,10.4947,-0.6007,-0.037,9.7882,-0.0215,-0.0178,-0.0023
50993,46.8006,-1.202667,141.36,34.72,3.216,158.5,15 / 20,5099310,2019-08-09 21:39:08:048,0.1324,0.0953,9.7297,-0.596,-0.0268,9.7885,0.0199,0.0045,-0.0182
50994,46.8006,-1.202667,141.36,34.72,3.216,158.5,15 / 20,5099410,2019-08-09 21:39:08:148,0.6801,0.2814,9.953,-0.584,-0.0153,9.7892,0.0226,-0.0476,-0.0086
50995,46.8006,-1.202667,141.36,34.72,3.216,158.5,15 / 20,5099511,2019-08-09 21:39:08:249,-1.5046,-0.3046,9.8829,-0.5869,-0.0164,9.7891,-0.0016,-0.0142,0.0154
50996,46.8006,-1.202667,141.36,34.72,3.216,158.5,15 / 20,5099610,2019-08-09 21:39:08:348,-1.3364,-0.3572,9.3275,-0.5702,-0.0151,9.79,0.004,0.0108,-0.0054
50997,46.8006,-1.202667,141.36,34.72,3.216,158.5,15 / 20,5099710,2019-08-09 21:39:08:448,-1.3244,0.0714,10.3899,-0.6039,-0.0114,9.788,-0.0011,0.0576,-0.0037
50998,46.8006,-1.202667,141.36,34.72,3.216,158.5,15 / 20,5099810,2019-08-09 21:39:08:548,0.1157,-0.1411,9.9703,-0.5846,-0.0133,9.7892,-0.0077,-0.0161,0.0131
50999,46.8006,-1.202667,141.36,34.72,3.216,158.5,15 / 20,5099910,2019-08-09 21:39:08:648,-0.0394,-0.2872,8.9636,-0.5825,-0.0254,9.7893,0.0073,0.0546,-0.0303
51000,46.8006,-1.202667,141.36,34.72,3.216,158.5,15 / 20,5100010,2019-08-09 21:39:08:748,-0.4254,-0.2387,8.7996,-0.594,-0.0223,9.7886,0.0047,-0.0876,0.0142
51001,46.8006,-1.202667,141.36,34.72,3.216,158.5,15 / 20,5100110,2019-08-09 21:39:08:848,-0.1375,0.0145,10.3019,-0.5824,-0.019,9.7893,-0.0006,-0.0614,-0.0021
51002,46.8006,-1.202667,141.36,34.72,3.216,158.5,15 / 20,5100210,2019-08-09 21:39:08:948,-0.8372,-0.0137,10.4013,-0.601,-0.0217,9.7882,0.0004,0.0435,-0.0097
51003,46.8006,-1.202667,141.36,34.72,3.216,158.5,15 / 20,5100310,2019-08-09 21:39:09:048,-0.8175,-0.0585,9.6579,-0.5902,-0.0159,9.7889,0.0164,-0.0291,-0.009
51004,46.8006,-1.202667,141.36,34.72,3.216,158.5,15 / 20,5100410,2019-08-09 21:39:09:148,-1.4274,-0.1513,8.8893,-0.5751,-0.0003,9.7898,0.0149,0.0124,-0.0051
51005,46.8006,-1.202667,141.36,34.72,3.216,158.5,15 / 20,5100511,2019-08-09 21:39:09:249,0.3725,0.0414,9.7686,-0.578,-0.0009,9.7896,-0.0141,0.0201,-0.019
51006,46.8006,-1.202667,141.36,34.72,3.216,158.5,15 / 21,5100610,2019-08-09 21:39:09:348,-1.2197,-0.2184,9.9996,-0.5745,-0.0138,9.7898,-0.0047,-0.0084,0.0069
51007,46.8006,-1.202667,141.36,34.72,3.216,158.5,15 / 21,5100710,2019-08-09 21:39:09:448,-0.037,-0.1759,9.5352,-0.5782,-0.0145,9.7896,0.0123,-0.0429,-0.0027
51008,46.8006,-1.202667,141.36,34.72,3.216,158.5,15 / 21,5100810,2019-08-09 21:39:09:548,0.5005,0.3497,10.2163,-0.5873,-0.0083,9.789,-0.011,0.0104,0.0026
51009,46.8006,-1.202667,141.36,34.72,3.216,158.5,15 / 21,5100910,2019-08-09 21:39:09:648,-0.9503,0.0612,10.1451,-0.5903,-0.0092,9.7889,-0.003,-0.0563,0.0237
51010,46.8006,-1.202667,141.36,34.72,3.216,158.5,15 / 21,5101010,2019-08-09 21:39:09:748,-1.416,0.203,9.7979,-0.5818,-0.016,9.7894,0.0071,0.0413,-0.0436
51011,46.8006,-1.202667,141.36,34.72,3.216,158.5,15 / 21,5101110,2019-08-09 21:39:09:848,-2.2384,0.0271,9.9697,-0.588,-0.0095,9.789,0.0062,0.0043,-0.0075
51012,46.8006,-1.202667,141.36,34.72,3.216,158.5,15 / 21,5101210,2019-08-09 21:39:09:948,0.2228,-0.0047,9.7141,-0.5842,-0.0131,9.7892,0.0128,-0.0164,0.005
51013,46.8006,-1.202667,141.36,34.72,3.216,158.5,15 / 21,5101310,2019-08-09 21:39:10:048,0.1444,0.3688,10.1708,-0.5973,-0.0086,9.7884,0.004,0.0126,-0.015
51014,46.8006,-1.202667,141.36,34.72,3.216,158.5,15 / 21,5101411,2019-08-09 21:39:10:149,0.1684,0.1593,10.2989,-0.5985,0.0009,9.7884,-0.0037,-0.006,-0.0159
51015,46.8006,-1.202667,141.36,34.72,3.216,158.5,15 / 21,5101510,2019-08-09 21:39:10:248,-1.595,-0.0909,9.7973,-0.5952,0.0007,9.7886,-0.0011,0.0308,-0.0006
51016,46.8006,-1.202667,141.36,34.72,3.216,158.5,14 / 20,5101610,2019-08-09 21:39:10:348,-1.9984,-0.0705,9.0845,-0.5721,0.0066,9.7899,0.0099,0.0202,-0.0098
51017,46.8006,-1.202667,141.36,34.72,3.216,158.5,14 / 20,5101710,2019-08-09 21:39:10:448,-1.744,0.1521,10.6012,-0.5749,0.0081,9.7898,-0.0173,-0.0351,-0.0048
51018,46.8006,-1.202667,141.36,34.72,3.216,158.5,14 / 20,5101810,2019-08-09 21:39:10:548,0.2743,0.0223,9.7536,-0.5898,-0.0012,9.7889,-0.0082,0.0345,0.0054
51019,46.8006,-1.202667,141.36,34.72,3.216,158.5,14 / 20,5101910,2019-08-09 21:39:10:648,-0.1656,0.0097,9.677,-0.5974,-0.0046,9.7884,0.0049,-0.0232,-0.0195
51020,46.8006,-1.202667,141.36,34.72,3.216,158.5,14 / 20,5102010,2019-08-09 21:39:10:748,-0.2321,0.0827,9.4017,-0.5784,0.0087,9.7896,0.0071,-0.0188,-0.0089
51021,46.8006,-1.202667,141.36,34.72,3.216,158.5,14 / 20,5102110,2019-08-09 21:39:10:848,-0.7325,0.1378,9.7698,-0.5913,0.0127,9.7888,0.0047,0.0345,-0.0203
51022,46.8006,-1.202667,141.36,34.72,3.216,158.5,14 / 20,5102210,2019-08-09 21:39:10:948,-0.3147,0.0893,9.7088,-0.597,0.0137,9.7885,-0.0029,-0.0208,0.0087
51023,46.8006,-1.202667,141.36,34.72,3.216,158.5,14 / 20,5102310,2019-08-09 21:39:11:048,0.2821,0.3616,9.5998,-0.6022,0.0164,9.7881,0.0098,-0.0118,-0.0228
51024,46.8006,-1.202667,141.36,34.72,3.216,158.5,14 / 20,5102410,2019-08-09 21:39:11:148,-1.0287,0.2958,9.5651,-0.5939,0.0318,9.7886,-0.0002,-0.0019,-0.0111
51025,46.8006,-1.202667,141.36,34.72,3.216,158.5,14 / 20,5102510,2019-08-09 21:39:11:248,-1.3011,0.2413,9.9039,-0.5998,0.034,9.7882,0.0001,0.015,-0.0145
51026,46.8006,-1.202667,141.36,34.72,3.216,158.5,15 / 21,5102610,2019-08-09 21:39:11:348,-1.8344,0.1845,9.8356,-0.6102,0.037,9.7876,-0.0051,0.0244,-0.0106
51027,46.8006,-1.202667,141.36,34.72,3.216,158.5,15 / 21,5102710,2019-08-09 21:39:11:448,0.236,0.0947,9.2862,-0.5999,0.0425,9.7882,0.0069,-0.0471,0.0033
51028,46.8006,-1.202667,141.36,34.72,3.216,158.5,15 / 21,5102810,2019-08-09 21:39:11:548,-0.5888,0.2216,9.6812,-0.6045,0.0544,9.7878,0.0036,-0.0435,-0.0124
51029,46.8006,-1.202667,141.36,34.72,3.216,158.5,15 / 21,5102910,2019-08-09 21:39:11:648,-0.4835,0.2587,9.6537,-0.5858,0.0592,9.789,0.0062,0.0299,-0.006
51030,46.8006,-1.202667,141.36,34.72,3.216,158.5,15 / 21,5103010,2019-08-09 21:39:11:748,-0.602,0.1845,10.0685,-0.5958,0.0635,9.7883,-0.006,-0.0064,0.0016
51031,46.8006,-1.202667,141.36,34.72,3.216,158.5,15 / 21,5103110,2019-08-09 21:39:11:848,0.1313,0.0474,9.7878,-0.5875,0.0593,9.7889,-0.0041,0.0395,-0.0027
51032,46.8006,-1.202667,141.36,34.72,3.216,158.5,15 / 21,5103211,2019-08-09 21:39:11:949,-0.2369,0.1593,9.8069,-0.5953,0.0559,9.7884,-0.0028,0.0034,-0.0049
51033,46.8006,-1.202667,141.36,34.72,3.216,158.5,15 / 21,5103311,2019-08-09 21:39:12:049,-0.2566,0.1971,9.6351,-0.587,0.0583,9.7889,0.0071,-0.0144,-0.0066
51034,46.8006,-1.202667,141.36,34.72,3.216,158.5,15 / 21,5103411,2019-08-09 21:39:12:149,-0.8282,0.2342,10.1505,-0.6005,0.0578,9.7881,-0.0055,-0.0093,-0.0025
51035,46.8006,-1.202667,141.36,34.72,3.216,158.5,15 / 21,5103511,2019-08-09 21:39:12:249,-0.7402,-0.1286,9.2018,-0.5917,0.0526,9.7886,0.0043,-0.0244,0.0139
51036,46.8006,-1.202667,141.36,34.72,3.216,158.5,15 / 20,5103611,2019-08-09 21:39:12:349,-0.4057,0.3317,9.9147,-0.5942,0.0678,9.7884,0.0038,-0.0062,-0.011
51037,46.8006,-1.202667,141.36,34.72,3.216,158.5,15 / 20,5103711,2019-08-09 21:39:12:449,-0.6116,0.2377,9.8093,-0.5811,0.0667,9.7892,-0.0121,0.0088,0.0
51038,46.8006,-1.202667,141.36,34.72,3.216,158.5,15 / 20,5103810,2019-08-09 21:39:12:548,-0.9192,0.1138,9.613,-0.5682,0.0615,9.79,-0.0026,0.0385,-0.0114
51039,46.8006,-1.202667,141.36,34.72,3.216,158.5,15 / 20,5103910,2019-08-09 21:39:12:648,-1.2466,0.0139,9.6279,-0.5809,0.0566,9.7893,-0.0063,-0.0012,-0.0001
51040,46.8006,-1.202667,141.36,34.72,3.216,158.5,15 / 20,5104011,2019-08-09 21:39:12:749,-0.0705,-0.1519,9.8165,-0.5783,0.0532,9.7894,-0.0023,0.0313,-0.0073
51041,46.8006,-1.202667,141.36,34.72,3.216,158.5,15 / 20,5104110,2019-08-09 21:39:12:848,-0.2255,0.1402,9.9577,-0.5942,0.0455,9.7885,-0.008,-0.0002,-0.0073
51042,46.8006,-1.202667,141.36,34.72,3.216,158.5,15 / 20,5104211,2019-08-09 21:39:12:949,0.0163,-0.019,9.3083,-0.5787,0.0422,9.7895,0.0004,-0.0028,-0.0094
51043,46.8006,-1.202667,141.36,34.72,3.216,158.5,15 / 20,5104310,2019-08-09 21:39:13:048,-0.3925,0.1474,10.093,-0.5967,0.0394,9.7884,0.0054,0.0227,-0.0182
51044,46.8006,-1.202667,141.36,34.72,3.216,158.5,15 / 20,5104410,2019-08-09 21:39:13:148,-0.8001,0.1246,9.6058,-0.5957,0.039,9.7885,-0.0088,-0.0177,-0.0058
51045,46.8006,-1.202667,141.36,34.72,3.216,158.5,15 / 20,5104511,2019-08-09 21:39:13:249,-0.9408,-0.1836,9.5843,-0.5803,0.0339,9.7894,0.0183,0.0086,-0.012
51046,46.8006,-1.202667,141.36,34.72,3.216,158.5,14 / 18,5104610,2019-08-09 21:39:13:348,-0.3386,0.291,9.8716,-0.5966,0.041,9.7884,0.0068,-0.0178,-0.0216
51047,46.8006,-1.202667,141.36,34.72,3.216,158.5,14 / 18,5104710,2019-08-09 21:39:13:448,-0.1465,0.1917,9.9931,-0.5893,0.0465,9.7888,-0.0069,0.0061,-0.0112
51048,46.8006,-1.202667,141.36,34.72,3.216,158.5,14 / 18,5104810,2019-08-09 21:39:13:548,-0.9408,-0.0927,9.6393,-0.5832,0.0452,9.7892,0.0051,-0.0142,0.0018
51049,46.8006,-1.202667,141.36,34.72,3.216,158.5,14 / 18,5104910,2019-08-09 21:39:13:648,-0.745,-0.1082,9.4209,-0.58,0.0384,9.7894,0.0064,-0.0013,0.0034
51050,46.8006,-1.202667,141.36,34.72,3.216,158.5,14 / 18,5105010,2019-08-09 21:39:13:748,-0.3075,0.1988,9.5005,-0.5774,0.043,9.7895,0.0047,-0.0197,-0.0207
51051,46.8006,-1.202667,141.36,34.72,3.216,158.5,14 / 18,5105110,2019-08-09 21:39:13:848,0.3018,0.0618,9.5627,-0.5674,0.0459,9.7901,-0.0096,0.0138,-0.02
51052,46.8006,-1.202667,141.36,34.72,3.216,158.5,14 / 18,5105210,2019-08-09 21:39:13:948,-0.9156,-0.2974,9.9033,-0.5743,0.0414,9.7897,0.0005,0.002,0.006
51053,46.8006,-1.202667,141.36,34.72,3.216,158.5,14 / 18,5105311,2019-08-09 21:39:14:049,-1.2358,-0.1896,9.7147,-0.5774,0.0367,9.7896,0.0058,-0.0055,-0.0092
51054,46.8006,-1.202667,141.36,34.72,3.216,158.5,14 / 18,5105411,2019-08-09 21:39:14:149,-1.8158,0.2713,9.7896,-0.5843,0.0449,9.7891,0.0055,0.0076,-0.0219
51055,46.8006,-1.202667,141.36,34.72,3.216,158.5,14 / 18,5105511,2019-08-09 21:39:14:249,0.5856,0.2671,9.4598,-0.5798,0.0548,9.7893,-0.0009,-0.0109,-0.0052
51056,46.8006,-1.202667,141.36,34.72,3.216,158.5,16 / 21,5105611,2019-08-09 21:39:14:349,0.324,0.1025,9.8781,-0.591,0.0509,9.7887,0.0022,0.0086,-0.0156
51057,46.8006,-1.202667,141.36,34.72,3.216,158.5,16 / 21,5105710,2019-08-09 21:39:14:448,-1.349,-0.1028,9.1982,-0.5706,0.0577,9.7899,-0.0039,0.0541,-0.0247
51058,46.8006,-1.202667,141.36,34.72,3.216,158.5,16 / 21,5105810,2019-08-09 21:39:14:548,-0.3488,0.2886,10.0655,-0.5976,0.0539,9.7883,-0.0039,0.0541,-0.0247
51059,46.8006,-1.202667,141.36,34.72,3.216,158.5,16 / 21,5105911,2019-08-09 21:39:14:649,-0.4452,0.2048,10.3037,-0.5936,0.0572,9.7885,-0.002,0.054,-0.0089
51060,46.8006,-1.202667,141.36,34.72,3.216,158.5,16 / 21,5106010,2019-08-09 21:39:14:748,-0.1345,-0.0065,9.5052,-0.6004,0.0532,9.7881,-0.0107,0.0053,-0.0163
51061,46.8006,-1.202667,141.36,34.72,3.216,158.5,16 / 21,5106110,2019-08-09 21:39:14:848,-0.5559,-0.0663,9.7764,-0.5985,0.0599,9.7882,0.0233,-0.0683,-0.0137
51062,46.8006,-1.202667,141.36,34.72,3.216,158.5,16 / 21,5106210,2019-08-09 21:39:14:948,0.2563,0.5993,10.0655,-0.5846,0.0808,9.7889,0.0099,0.0598,-0.0291
51063,46.8006,-1.202667,141.36,34.72,3.216,158.5,16 / 21,5106310,2019-08-09 21:39:15:048,0.5849,-0.0663,9.3041,-0.5727,0.0869,9.7895,0.0022,-0.0259,-0.0082
51064,46.8006,-1.202667,141.36,34.72,3.216,158.5,16 / 21,5106410,2019-08-09 21:39:15:148,-1.8566,0.0061,9.5507,-0.5777,0.0873,9.7892,0.0063,0.0369,-0.018
51065,46.8006,-1.202667,141.36,34.72,3.216,158.5,16 / 21,5106510,2019-08-09 21:39:15:248,-2.2318,-0.0137,10.0212,-0.5869,0.0907,9.7887,-0.0056,-0.0241,-0.0028
51066,46.8006,-1.202667,141.36,34.72,3.216,158.5,16 / 20,5106610,2019-08-09 21:39:15:348,-1.735,-0.186,9.6202,-0.5961,0.0883,9.7881,0.0133,0.0153,0.0108
51067,46.8006,-1.202667,141.36,34.72,3.216,158.5,16 / 20,5106710,2019-08-09 21:39:15:448,0.6173,0.1971,9.7357,-0.5864,0.1046,9.7885,0.0111,0.0022,-0.0002
51068,46.8006,-1.202667,141.36,34.72,3.216,158.5,16 / 20,5106810,2019-08-09 21:39:15:548,0.0696,0.0827,9.607,-0.5921,0.1061,9.7882,0.0027,-0.0255,-0.0025
51069,46.8006,-1.202667,141.36,34.72,3.216,158.5,16 / 20,5106910,2019-08-09 21:39:15:648,-0.4051,-0.0137,9.9733,-0.589,0.1068,9.7884,-0.0068,-0.0227,0.0129
51070,46.8006,-1.202667,141.36,34.72,3.216,158.5,16 / 20,5107011,2019-08-09 21:39:15:749,-1.1401,0.0037,9.4526,-0.5865,0.1022,9.7886,-0.0011,-0.0256,-0.0122
51071,46.8006,-1.202667,141.36,34.72,3.216,158.5,16 / 20,5107111,2019-08-09 21:39:15:849,-0.3961,0.5562,9.5801,-0.5729,0.1038,9.7893,-0.0007,-0.0276,-0.0238
51072,46.8006,-1.202667,141.36,34.72,3.216,158.5,16 / 20,5107211,2019-08-09 21:39:15:949,0.1869,0.1761,9.5645,-0.5812,0.1033,9.7889,-0.0097,-0.0203,0.0002
51073,46.8006,-1.202667,141.36,34.72,3.216,158.5,16 / 20,5107311,2019-08-09 21:39:16:049,-1.3639,-0.0729,9.8117,-0.5719,0.0981,9.7895,-0.0102,0.015,-0.0119
51074,46.8006,-1.202667,141.36,34.72,3.216,158.5,16 / 20,5107411,2019-08-09 21:39:16:149,-1.4328,0.0163,9.2982,-0.5691,0.0867,9.7897,-0.0041,-0.0114,0.0039
51075,46.8006,-1.202667,141.36,34.72,3.216,158.5,16 / 20,5107511,2019-08-09 21:39:16:249,-1.2747,0.397,10.6293,-0.5729,0.0903,9.7895,0.0003,0.0658,-0.0214
51076,46.797962,-1.20127,138.86,34.94,3.216,161.9,17 / 21,5107611,2019-08-09 21:39:16:349,-0.1118,0.1462,10.1846,-0.6047,0.0857,9.7876,-0.0014,-0.0084,0.0107
51077,46.797962,-1.20127,138.86,34.94,3.216,161.9,17 / 21,5107711,2019-08-09 21:39:16:449,-0.3297,-0.1022,9.7429,-0.5928,0.083,9.7884,0.0142,0.0135,-0.005
51078,46.797962,-1.20127,138.86,34.94,3.216,161.9,17 / 21,5107811,2019-08-09 21:39:16:549,0.3078,0.2808,10.0912,-0.6158,0.1,9.7868,0.0068,-0.0125,-0.0157
51079,46.797962,-1.20127,138.86,34.94,3.216,161.9,17 / 21,5107910,2019-08-09 21:39:16:648,-1.2688,-0.022,9.2227,-0.5868,0.106,9.7885,0.0046,-0.0082,0.0169
51080,46.797962,-1.20127,138.86,34.94,3.216,161.9,17 / 21,5108011,2019-08-09 21:39:16:749,-1.6381,-0.2848,9.2856,-0.5827,0.0967,9.7888,-0.0176,0.0011,0.0149
51081,46.797962,-1.20127,138.86,34.94,3.216,161.9,17 / 21,5108110,2019-08-09 21:39:16:848,-1.0383,-0.1609,9.4753,-0.5774,0.082,9.7893,-0.017,-0.038,0.0114
51082,46.797962,-1.20127,138.86,34.94,3.216,161.9,17 / 21,5108210,2019-08-09 21:39:16:948,-0.5511,-0.1908,10.2816,-0.5887,0.0468,9.7889,-0.0196,-0.0327,0.0013
51083,46.797962,-1.20127,138.86,34.94,3.216,161.9,17 / 21,5108310,2019-08-09 21:39:17:048,-1.6381,-0.4356,9.1796,-0.581,0.0391,9.7893,-0.001,-0.0073,0.0011
51084,46.797962,-1.20127,138.86,34.94,3.216,161.9,17 / 21,5108410,2019-08-09 21:39:17:148,-1.1916,-0.2172,9.6675,-0.5971,0.0236,9.7884,-0.0112,-0.0629,0.0184
51085,46.797962,-1.20127,138.86,34.94,3.216,161.9,17 / 21,5108510,2019-08-09 21:39:17:248,-0.368,-0.2938,10.2044,-0.6008,0.0069,9.7882,-0.0091,0.0573,0.0041
51086,46.797962,-1.20127,138.86,34.94,3.216,161.9,17 / 21,5108610,2019-08-09 21:39:17:348,-0.5559,-0.1016,10.6371,-0.6169,0.0068,9.7872,0.0111,0.0394,-0.0138
51087,46.797962,-1.20127,138.86,34.94,3.216,161.9,17 / 21,5108710,2019-08-09 21:39:17:448,-0.3943,-0.1854,9.795,-0.5977,0.0072,9.7884,-0.0053,-0.0281,-0.0152
51088,46.797962,-1.20127,138.86,34.94,3.216,161.9,17 / 21,5108810,2019-08-09 21:39:17:548,-0.1902,0.1851,10.0942,-0.6051,0.0049,9.788,0.0031,-0.0258,-0.0093
51089,46.797962,-1.20127,138.86,34.94,3.216,161.9,17 / 21,5108910,2019-08-09 21:39:17:648,-1.507,-0.0202,9.5891,-0.59,0.0078,9.7889,0.0031,-0.0258,-0.0093
51090,46.797962,-1.20127,138.86,34.94,3.216,161.9,17 / 21,5109010,2019-08-09 21:39:17:748,-0.8941,-0.1795,9.5118,-0.5837,0.0043,9.7893,-0.0029,-0.0213,0.0087
51091,46.797962,-1.20127,138.86,34.94,3.216,161.9,17 / 21,5109110,2019-08-09 21:39:17:848,-0.5403,0.0797,9.8009,-0.5887,0.0038,9.789,-0.0041,0.0052,-0.015
51092,46.797962,-1.20127,138.86,34.94,3.216,161.9,17 / 21,5109210,2019-08-09 21:39:17:948,0.2809,-0.0633,9.5986,-0.5921,-0.0049,9.7888,-0.0087,-0.0075,-0.0081
51093,46.797962,-1.20127,138.86,34.94,3.216,161.9,17 / 21,5109310,2019-08-09 21:39:18:048,0.3246,-0.0562,9.8704,-0.617,-0.0136,9.7872,-0.0201,0.0022,0.0003
51094,46.797962,-1.20127,138.86,34.94,3.216,161.9,17 / 21,5109410,2019-08-09 21:39:18:148,0.2384,-0.2704,9.2712,-0.5958,-0.0285,9.7885,0.025,0.0035,-0.0073
51095,46.797962,-1.20127,138.86,34.94,3.216,161.9,17 / 21,5109510,2019-08-09 21:39:18:248,-1.431,0.0725,9.5819,-0.6164,-0.0169,9.7872,0.0221,-0.0306,-0.0061
51096,46.797962,-1.20127,138.86,34.94,3.216,161.9,17 / 21,5109610,2019-08-09 21:39:18:348,-1.0359,-0.022,9.2664,-0.5839,0.0066,9.7892,0.0054,0.02,-0.0194
51097,46.797962,-1.20127,138.86,34.94,3.216,161.9,17 / 21,5109710,2019-08-09 21:39:18:448,-0.7875,0.3174,10.26,-0.6017,0.0073,9.7882,-0.0128,0.0177,-0.0202
51098,46.797962,-1.20127,138.86,34.94,3.216,161.9,17 / 21,5109810,2019-08-09 21:39:18:548,-0.6696,-0.2369,9.44,-0.589,-0.0094,9.7889,-0.0045,-0.0062,0.0
51099,46.797962,-1.20127,138.86,34.94,3.216,161.9,17 / 21,5109911,2019-08-09 21:39:18:649,-0.5062,-0.0208,9.8452,-0.6068,-0.0113,9.7878,0.0014,0.0031,-0.0173
51100,46.797962,-1.20127,138.86,34.94,3.216,161.9,17 / 21,5110010,2019-08-09 21:39:18:748,-0.8306,-0.04,9.5412,-0.5954,-0.0148,9.7885,-0.0083,-0.035,-0.0114
51101,46.797962,-1.20127,138.86,34.94,3.216,161.9,17 / 21,5110110,2019-08-09 21:39:18:848,-0.0034,0.1144,9.9512,-0.5891,-0.0206,9.7889,-0.0094,0.0451,-0.0114
51102,46.797962,-1.20127,138.86,34.94,3.216,161.9,17 / 21,5110210,2019-08-09 21:39:18:948,-0.3135,-0.4602,9.7997,-0.5951,-0.0264,9.7885,0.0119,0.009,0.0072
51103,46.797962,-1.20127,138.86,34.94,3.216,161.9,17 / 21,5110311,2019-08-09 21:39:19:049,0.0463,0.1156,10.5246,-0.5989,-0.0199,9.7883,0.0064,0.0002,-0.0294
51104,46.797962,-1.20127,138.86,34.94,3.216,161.9,17 / 21,5110411,2019-08-09 21:39:19:149,-1.9679,0.0755,9.6387,-0.6172,-0.01,9.7872,0.0111,-0.0128,0.0172
51105,46.797962,-1.20127,138.86,34.94,3.216,161.9,17 / 21,5110511,2019-08-09 21:39:19:249,-1.5022,-0.0825,9.4843,-0.6121,-0.0012,9.7875,0.0051,0.0039,-0.0183
51106,46.797962,-1.20127,138.86,34.94,3.216,161.9,16 / 20,5110611,2019-08-09 21:39:19:349,-1.6584,-0.0771,9.1377,-0.5973,0.0053,9.7884,0.0091,-0.0069,0.0037
51107,46.797962,-1.20127,138.86,34.94,3.216,161.9,16 / 20,5110710,2019-08-09 21:39:19:448,0.798,0.4484,9.7243,-0.588,0.0116,9.789,-0.0011,0.0027,-0.0256
51108,46.797962,-1.20127,138.86,34.94,3.216,161.9,16 / 20,5110810,2019-08-09 21:39:19:548,0.4772,0.045,10.0212,-0.6014,0.0054,9.7882,-0.0175,0.0092,0.0095
51109,46.797962,-1.20127,138.86,34.94,3.216,161.9,16 / 20,5110910,2019-08-09 21:39:19:648,0.2953,0.1797,10.0517,-0.6069,-0.0062,9.7878,-0.0084,0.0116,-0.0276
51110,46.797962,-1.20127,138.86,34.94,3.216,161.9,16 / 20,5111010,2019-08-09 21:39:19:748,-0.104,0.1641,9.9955,-0.6117,0.0003,9.7876,0.0071,0.0108,-0.0155
51111,46.797962,-1.20127,138.86,34.94,3.216,161.9,16 / 20,5111110,2019-08-09 21:39:19:848,0.0654,-0.0436,9.6387,-0.5972,0.0052,9.7884,0.0007,0.0076,-0.0104
51112,46.797962,-1.20127,138.86,34.94,3.216,161.9,16 / 20,5111210,2019-08-09 21:39:19:948,-1.182,0.145,10.1511,-0.6037,-0.0005,9.7881,-0.0123,0.0173,0.005
51113,46.797962,-1.20127,138.86,34.94,3.216,161.9,16 / 20,5111310,2019-08-09 21:39:20:048,-1.3364,-0.4446,9.6262,-0.6073,-0.0189,9.7878,-0.0082,-0.0164,0.0012
51114,46.797962,-1.20127,138.86,34.94,3.216,161.9,16 / 20,5111410,2019-08-09 21:39:20:148,-1.1676,-0.1387,9.7554,-0.59,-0.0234,9.7889,0.005,-0.0347,0.0031
51115,46.797962,-1.20127,138.86,34.94,3.216,161.9,16 / 20,5111510,2019-08-09 21:39:20:248,0.1815,-0.1968,9.1527,-0.5871,-0.0261,9.789,0.0028,0.0238,0.0
51116,46.797962,-1.20127,138.86,34.94,3.216,161.9,16 / 20,5111610,2019-08-09 21:39:20:348,0.1354,-0.107,10.2504,-0.592,-0.027,9.7887,-0.003,0.0028,-0.0017
51117,46.797962,-1.20127,138.86,34.94,3.216,161.9,16 / 20,5111710,2019-08-09 21:39:20:448,-0.8318,-0.2585,9.8147,-0.6065,-0.0312,9.7878,0.0061,-0.0019,-0.0118
51118,46.797962,-1.20127,138.86,34.94,3.216,161.9,16 / 20,5111810,2019-08-09 21:39:20:548,-0.4146,-0.0179,9.6495,-0.5943,-0.0264,9.7886,0.011,0.0247,-0.0151
51119,46.797962,-1.20127,138.86,34.94,3.216,161.9,16 / 20,5111911,2019-08-09 21:39:20:649,0.0624,-0.037,9.2515,-0.5995,-0.0177,9.7883,0.0157,0.0142,-0.0119
51120,46.797962,-1.20127,138.86,34.94,3.216,161.9,16 / 20,5112010,2019-08-09 21:39:20:748,0.3336,0.2359,10.5533,-0.5916,-0.0081,9.7888,-0.0159,0.0214,-0.0061
51121,46.797962,-1.20127,138.86,34.94,3.216,161.9,16 / 20,5112110,2019-08-09 21:39:20:848,-1.2496,-0.034,9.856,-0.5987,-0.0229,9.7883,-0.0167,0.0047,0.0097
51122,46.797962,-1.20127,138.86,34.94,3.216,161.9,16 / 20,5112210,2019-08-09 21:39:20:948,-1.2574,-0.1783,9.4358,-0.6058,-0.0296,9.7879,0.021,-0.0045,0.0106
51123,46.797962,-1.20127,138.86,34.94,3.216,161.9,16 / 20,5112310,2019-08-09 21:39:21:048,-1.264,0.1144,9.3945,-0.5974,-0.014,9.7884,0.0055,-0.0208,0.0063
51124,46.797962,-1.20127,138.86,34.94,3.216,161.9,16 / 20,5112410,2019-08-09 21:39:21:148,0.1103,0.0372,9.4939,-0.5818,-0.009,9.7894,0.0055,-0.0208,0.0063
51125,46.797962,-1.20127,138.86,34.94,3.216,161.9,16 / 20,5112510,2019-08-09 21:39:21:248,0.561,0.1246,10.2558,-0.5831,-0.0159,9.7893,-0.0069,0.0154,-0.0173
51126,46.797962,-1.20127,138.86,34.94,3.216,161.9,15 / 20,5112610,2019-08-09 21:39:21:348,0.1779,-0.301,9.4837,-0.5824,-0.0205,9.7893,0.002,-0.021,0.0099
51127,46.797962,-1.20127,138.86,34.94,3.216,161.9,15 / 20,5112712,2019-08-09 21:39:21:450,-1.2604,-0.1184,10.1798,-0.5915,-0.0155,9.7888,0.0002,-0.018,-0.0041
51128,46.797962,-1.20127,138.86,34.94,3.216,161.9,15 / 20,5112811,2019-08-09 21:39:21:549,-1.4651,-0.1663,9.7201,-0.5814,-0.0106,9.7894,-0.0021,-0.0165,-0.0053
51129,46.797962,-1.20127,138.86,34.94,3.216,161.9,15 / 20,5112910,2019-08-09 21:39:21:648,-0.9545,0.4275,10.5162,-0.6041,-0.0171,9.788,-0.008,0.0151,-0.0176
51130,46.797962,-1.20127,138.86,34.94,3.216,161.9,15 / 20,5113010,2019-08-09 21:39:21:748,0.3354,-0.0125,9.7979,-0.5863,-0.0145,9.7891,-0.0043,-0.0423,-0.003
51131,46.797962,-1.20127,138.86,34.94,3.216,161.9,15 / 20,5113110,2019-08-09 21:39:21:848,0.0612,-0.0023,9.7189,-0.5937,-0.0142,9.7887,-0.0013,0.0417,-0.0225
51132,46.797962,-1.20127,138.86,34.94,3.216,161.9,15 / 20,5113210,2019-08-09 21:39:21:948,-0.4948,0.0175,9.3275,-0.5927,-0.0129,9.7887,-0.0057,-0.0472,0.0023
51133,46.797962,-1.20127,138.86,34.94,3.216,161.9,15 / 20,5113310,2019-08-09 21:39:22:048,-0.6062,-0.0867,9.2556,-0.5701,-0.0103,9.7901,0.0099,0.0022,-0.0205
