,GPS LATITUDE (degrees),GPS LONGITUDE (degrees), GPS ALTITUDE (m),GPS SPEED (Kmh),GPS ACCURACY (m),GPS ORIENTATION (Â°), SATELLITES IN RANGE, TIME SINCE START (ms), DATE (YYYY-MO-DD HH-MI-SS_SSS),ACCELEROMETER X (m/s²) , ACCELEROMETER Y (m/s²), ACCELEROMETER Z (m/s²), GRAVITY X (m/s²), GRAVITY Y (m/s²), GRAVITY Z (m/s²), GYROSCOPE Yaw (rad/s), GYROSCOPE Pitch (rad/s), GYROSCOPE Roll (rad/s)
45423,45.950485,-0.500995,84.49,11.28,10.72,291.8,0 / 16,2256637,2019-08-12 11:02:19:127,0.1714,0.0565,9.2702,-0.0945,-0.6376,9.7854,-0.0068,0.0493,-0.0017
45424,45.950485,-0.500995,84.49,11.28,10.72,291.8,0 / 16,2256737,2019-08-12 11:02:19:227,0.1205,-0.1913,9.3977,-0.1151,-0.6101,9.787,0.0103,0.0312,0.0004
45425,45.950485,-0.500995,84.49,11.28,10.72,291.8,0 / 16,2256837,2019-08-12 11:02:19:327,0.3408,0.093,9.6676,-0.0936,-0.5928,9.7883,-0.0121,-0.0168,-0.0038
45426,45.950485,-0.500995,84.49,11.28,10.72,291.8,0 / 16,2256937,2019-08-12 11:02:19:427,0.4042,-0.0578,10.0567,-0.0572,-0.58,9.7893,-0.0068,-0.0359,-0.0007
45427,45.950485,-0.500995,84.49,11.28,10.72,291.8,0 / 16,2257037,2019-08-12 11:02:19:527,0.4677,-0.1566,9.6682,-0.0139,-0.5629,9.7905,-0.0014,-0.005,0.0004
45428,45.950485,-0.500995,84.49,11.28,10.72,291.8,0 / 16,2257137,2019-08-12 11:02:19:627,0.4683,0.1325,9.8029,0.0782,-0.4655,9.7953,-0.0302,0.0205,0.0015
45429,45.950485,-0.500995,84.49,11.28,10.72,291.8,0 / 16,2257237,2019-08-12 11:02:19:727,0.8136,-0.1261,8.9554,0.1102,-0.4074,9.7976,0.0135,0.0333,0.0068
45430,45.950485,-0.500995,84.49,11.28,10.72,291.8,0 / 16,2257337,2019-08-12 11:02:19:827,0.4353,-0.0261,9.8436,0.1022,-0.3908,9.7983,0.0039,0.0248,0.0004
45431,45.950485,-0.500995,84.49,11.28,10.72,291.8,0 / 16,2257437,2019-08-12 11:02:19:927,0.4431,-0.2147,9.7041,0.1513,-0.363,9.7988,0.0167,-0.0487,0.0036
45432,45.950485,-0.500995,84.49,11.28,10.72,291.8,0 / 16,2257538,2019-08-12 11:02:20:028,0.1049,0.1337,10.6744,0.2065,-0.3516,9.7982,-0.0089,-0.0647,0.0015
45433,45.950485,-0.500995,84.49,11.28,10.72,291.8,0 / 16,2257637,2019-08-12 11:02:20:127,0.1774,-0.1554,10.2243,0.2875,-0.3472,9.7963,-0.0046,-0.0476,0.0025
45434,45.950485,-0.500995,84.49,11.28,10.72,291.8,0 / 16,2257737,2019-08-12 11:02:20:227,0.7274,-0.1243,10.1369,0.3014,-0.3423,9.796,-0.0132,0.012,0.0036
45435,45.950485,-0.500995,84.49,11.28,10.72,291.8,0 / 16,2257837,2019-08-12 11:02:20:327,0.8854,-0.1404,9.3791,0.2651,-0.3244,9.7977,0.0039,0.0514,0.0079
45436,45.950485,-0.500995,84.49,11.28,10.72,291.8,0 / 16,2258221,2019-08-12 11:02:20:711,0.8854,-0.1404,9.3791,0.2577,-0.3199,9.798,0.0018,0.0397,0.01
45437,45.950485,-0.500995,84.49,11.28,10.72,291.8,0 / 16,2258222,2019-08-12 11:02:20:712,0.8854,-0.1404,9.3791,0.2577,-0.3199,9.798,0.0018,0.0397,0.01
45438,45.950485,-0.500995,84.49,11.28,10.72,291.8,0 / 16,2258223,2019-08-12 11:02:20:713,0.8854,-0.1404,9.3791,0.2577,-0.3199,9.798,0.0018,0.0397,0.01
45439,45.950485,-0.500995,84.49,11.28,10.72,291.8,0 / 16,2258223,2019-08-12 11:02:20:713,0.8854,-0.1404,9.3791,0.2577,-0.3199,9.798,0.0018,0.0397,0.01
45440,45.950485,-0.500995,84.49,11.28,10.72,291.8,0 / 16,2258223,2019-08-12 11:02:20:713,0.8854,-0.1404,9.3791,0.2577,-0.3199,9.798,0.0018,0.0397,0.01
45441,45.950485,-0.500995,84.49,11.28,10.72,291.8,0 / 16,2258224,2019-08-12 11:02:20:714,0.8854,-0.1404,9.3791,0.2577,-0.3199,9.798,0.0018,0.0397,0.01
45442,45.950485,-0.500995,84.49,11.28,10.72,291.8,0 / 16,2258224,2019-08-12 11:02:20:714,0.8854,-0.1404,9.3791,0.2577,-0.3199,9.798,0.0018,0.0397,0.01
45443,45.950485,-0.500995,84.49,11.28,10.72,291.8,0 / 16,2258224,2019-08-12 11:02:20:714,0.8854,-0.1404,9.3791,0.2577,-0.3199,9.798,0.0018,0.0397,0.01
45444,45.950485,-0.500995,84.49,11.28,10.72,291.8,0 / 16,2258225,2019-08-12 11:02:20:715,0.8854,-0.1404,9.3791,0.2577,-0.3199,9.798,0.0018,0.0397,0.01
45445,45.950485,-0.500995,84.49,11.28,10.72,291.8,0 / 16,2258225,2019-08-12 11:02:20:715,0.8854,-0.1404,9.3791,0.2577,-0.3199,9.798,0.0018,0.0397,0.01
45446,45.950485,-0.500995,84.49,11.28,10.72,291.8,0 / 16,2258226,2019-08-12 11:02:20:716,0.8854,-0.1404,9.3791,0.2577,-0.3199,9.798,0.0018,0.0397,0.01
45447,45.950485,-0.500995,84.49,11.28,10.72,291.8,0 / 16,2258226,2019-08-12 11:02:20:716,0.8854,-0.1404,9.3791,0.2577,-0.3199,9.798,0.0018,0.0397,0.01
45448,45.950485,-0.500995,84.49,11.28,10.72,291.8,0 / 16,2258226,2019-08-12 11:02:20:716,0.8854,-0.1404,9.3791,0.2577,-0.3199,9.798,0.0018,0.0397,0.01
45449,45.950485,-0.500995,84.49,11.28,10.72,291.8,0 / 16,2258226,2019-08-12 11:02:20:716,0.8854,-0.1404,9.3791,0.2577,-0.3199,9.798,0.0018,0.0397,0.01
45450,45.950485,-0.500995,84.49,11.28,10.72,291.8,0 / 16,2258227,2019-08-12 11:02:20:717,0.8854,-0.1404,9.3791,0.2577,-0.3199,9.798,0.0018,0.0397,0.01
45451,45.950485,-0.500995,84.49,11.28,10.72,291.8,0 / 16,2258227,2019-08-12 11:02:20:717,0.8854,-0.1404,9.3791,0.2577,-0.3199,9.798,0.0018,0.0397,0.01
45452,45.950485,-0.500995,84.49,11.28,10.72,291.8,0 / 16,2258227,2019-08-12 11:02:20:717,0.8854,-0.1404,9.3791,0.2577,-0.3199,9.798,0.0018,0.0397,0.01
45453,45.950485,-0.500995,84.49,11.28,10.72,291.8,0 / 16,2258228,2019-08-12 11:02:20:718,0.8854,-0.1404,9.3791,0.2577,-0.3199,9.798,0.0018,0.0397,0.01
45454,45.950485,-0.500995,84.49,11.28,10.72,291.8,0 / 16,2258228,2019-08-12 11:02:20:718,0.8854,-0.1404,9.3791,0.2577,-0.3199,9.798,0.0018,0.0397,0.01
45455,45.950485,-0.500995,84.49,11.28,10.72,291.8,0 / 16,2258228,2019-08-12 11:02:20:718,0.8854,-0.1404,9.3791,0.2577,-0.3199,9.798,0.0018,0.0397,0.01
45456,45.950485,-0.500995,84.49,11.28,10.72,291.8,0 / 16,2258229,2019-08-12 11:02:20:719,0.8854,-0.1404,9.3791,0.2577,-0.3199,9.798,0.0018,0.0397,0.01
45457,45.950485,-0.500995,84.49,11.28,10.72,291.8,0 / 16,2258229,2019-08-12 11:02:20:719,0.8854,-0.1404,9.3791,0.2577,-0.3199,9.798,0.0018,0.0397,0.01
45458,45.950485,-0.500995,84.49,11.28,10.72,291.8,0 / 16,2258230,2019-08-12 11:02:20:720,0.8854,-0.1404,9.3791,0.2577,-0.3199,9.798,0.0018,0.0397,0.01
45459,45.950485,-0.500995,84.49,11.28,10.72,291.8,0 / 16,2258230,2019-08-12 11:02:20:720,0.8854,-0.1404,9.3791,0.2577,-0.3199,9.798,0.0018,0.0397,0.01
45460,45.950485,-0.500995,84.49,11.28,10.72,291.8,0 / 16,2258231,2019-08-12 11:02:20:721,0.8854,-0.1404,9.3791,0.2577,-0.3199,9.798,0.0018,0.0397,0.01
45461,45.950485,-0.500995,84.49,11.28,10.72,291.8,0 / 16,2258231,2019-08-12 11:02:20:721,0.8854,-0.1404,9.3791,0.2577,-0.3199,9.798,0.0018,0.0397,0.01
45462,45.950485,-0.500995,84.49,11.28,10.72,291.8,0 / 16,2258232,2019-08-12 11:02:20:722,0.8854,-0.1404,9.3791,0.2577,-0.3199,9.798,0.0018,0.0397,0.01
45463,45.950485,-0.500995,84.49,11.28,10.72,291.8,0 / 16,2258240,2019-08-12 11:02:20:730,0.8854,-0.1404,9.3791,0.2577,-0.3199,9.798,0.0018,0.0397,0.01
45464,45.950485,-0.500995,84.49,11.28,10.72,291.8,0 / 16,2258241,2019-08-12 11:02:20:731,0.8854,-0.1404,9.3791,0.2577,-0.3199,9.798,0.0018,0.0397,0.01
45465,45.950485,-0.500995,84.49,11.28,10.72,291.8,0 / 16,2258242,2019-08-12 11:02:20:732,0.8854,-0.1404,9.3791,0.2577,-0.3199,9.798,0.0018,0.0397,0.01
45466,45.950485,-0.500995,84.49,11.28,10.72,291.8,0 / 16,2258304,2019-08-12 11:02:20:794,0.8854,-0.1404,9.3791,0.2577,-0.3199,9.798,0.0018,0.0397,0.01
45467,45.950485,-0.500995,84.49,11.28,10.72,291.8,14 / 17,2258715,2019-08-12 11:02:21:205,0.8854,-0.1404,9.3791,0.2577,-0.3199,9.798,0.0018,0.0397,0.01
45468,45.950485,-0.500995,84.49,11.28,10.72,291.8,14 / 17,2258716,2019-08-12 11:02:21:206,0.8854,-0.1404,9.3791,0.2577,-0.3199,9.798,0.0018,0.0397,0.01
45469,45.950485,-0.500995,84.49,11.28,10.72,291.8,14 / 17,2258716,2019-08-12 11:02:21:206,0.8854,-0.1404,9.3791,0.2577,-0.3199,9.798,0.0018,0.0397,0.01
45470,45.950485,-0.500995,84.49,11.28,10.72,291.8,14 / 17,2258717,2019-08-12 11:02:21:207,0.8854,-0.1404,9.3791,0.2577,-0.3199,9.798,0.0018,0.0397,0.01
45471,45.950485,-0.500995,84.49,11.28,10.72,291.8,14 / 17,2258717,2019-08-12 11:02:21:207,0.8854,-0.1404,9.3791,0.2577,-0.3199,9.798,0.0018,0.0397,0.01
45472,45.950485,-0.500995,84.49,11.28,10.72,291.8,14 / 17,2258718,2019-08-12 11:02:21:208,0.8854,-0.1404,9.3791,0.2577,-0.3199,9.798,0.0018,0.0397,0.01
45473,45.950485,-0.500995,84.49,11.28,10.72,291.8,14 / 17,2258718,2019-08-12 11:02:21:208,0.8854,-0.1404,9.3791,0.2577,-0.3199,9.798,0.0018,0.0397,0.01
45474,45.950485,-0.500995,84.49,11.28,10.72,291.8,14 / 17,2258719,2019-08-12 11:02:21:209,0.8854,-0.1404,9.3791,0.2577,-0.3199,9.798,0.0018,0.0397,0.01
45475,45.950485,-0.500995,84.49,11.28,10.72,291.8,14 / 17,2258719,2019-08-12 11:02:21:209,0.8854,-0.1404,9.3791,0.2577,-0.3199,9.798,0.0018,0.0397,0.01
45476,45.950485,-0.500995,84.49,11.28,10.72,291.8,14 / 17,2258775,2019-08-12 11:02:21:265,0.8854,-0.1404,9.3791,0.2577,-0.3199,9.798,0.0018,0.0397,0.01
45477,45.950485,-0.500995,84.49,11.28,10.72,291.8,14 / 17,2259166,2019-08-12 11:02:21:656,0.8854,-0.1404,9.3791,0.2577,-0.3199,9.798,0.0018,0.0397,0.01
45478,45.950485,-0.500995,84.49,11.28,10.72,291.8,14 / 17,2259167,2019-08-12 11:02:21:657,0.8854,-0.1404,9.3791,0.2577,-0.3199,9.798,0.0018,0.0397,0.01
45479,45.950485,-0.500995,84.49,11.28,10.72,291.8,14 / 17,2259167,2019-08-12 11:02:21:657,0.8854,-0.1404,9.3791,0.2577,-0.3199,9.798,0.0018,0.0397,0.01
45480,45.950485,-0.500995,84.49,11.28,10.72,291.8,14 / 17,2259168,2019-08-12 11:02:21:658,0.8854,-0.1404,9.3791,0.2577,-0.3199,9.798,0.0018,0.0397,0.01
45481,45.950485,-0.500995,84.49,11.28,10.72,291.8,14 / 17,2259168,2019-08-12 11:02:21:658,0.8854,-0.1404,9.3791,0.2577,-0.3199,9.798,0.0018,0.0397,0.01
45482,45.950485,-0.500995,84.49,11.28,10.72,291.8,14 / 17,2259169,2019-08-12 11:02:21:659,0.8854,-0.1404,9.3791,0.2577,-0.3199,9.798,0.0018,0.0397,0.01
45483,45.950485,-0.500995,84.49,11.28,10.72,291.8,14 / 17,2259169,2019-08-12 11:02:21:659,0.8854,-0.1404,9.3791,0.2577,-0.3199,9.798,0.0018,0.0397,0.01
45484,45.950485,-0.500995,84.49,11.28,10.72,291.8,14 / 17,2259169,2019-08-12 11:02:21:659,0.8854,-0.1404,9.3791,0.2577,-0.3199,9.798,0.0018,0.0397,0.01
45485,45.950485,-0.500995,84.49,11.28,10.72,291.8,14 / 17,2259170,2019-08-12 11:02:21:660,0.8854,-0.1404,9.3791,0.2577,-0.3199,9.798,0.0018,0.0397,0.01
45486,45.950485,-0.500995,84.49,11.28,10.72,291.8,14 / 17,2259170,2019-08-12 11:02:21:660,0.8854,-0.1404,9.3791,0.2577,-0.3199,9.798,0.0018,0.0397,0.01
45487,45.950485,-0.500995,84.49,11.28,10.72,291.8,14 / 17,2259170,2019-08-12 11:02:21:660,0.8854,-0.1404,9.3791,0.2577,-0.3199,9.798,0.0018,0.0397,0.01
45488,45.950485,-0.500995,84.49,11.28,10.72,291.8,14 / 17,2259171,2019-08-12 11:02:21:661,0.8854,-0.1404,9.3791,0.2577,-0.3199,9.798,0.0018,0.0397,0.01
45489,45.950485,-0.500995,84.49,11.28,10.72,291.8,14 / 17,2259171,2019-08-12 11:02:21:661,0.8854,-0.1404,9.3791,0.2577,-0.3199,9.798,0.0018,0.0397,0.01
45490,45.950485,-0.500995,84.49,11.28,10.72,291.8,14 / 17,2259172,2019-08-12 11:02:21:662,0.8854,-0.1404,9.3791,0.2577,-0.3199,9.798,0.0018,0.0397,0.01
45491,45.950485,-0.500995,84.49,11.28,10.72,291.8,14 / 17,2259172,2019-08-12 11:02:21:662,0.8854,-0.1404,9.3791,0.2577,-0.3199,9.798,0.0018,0.0397,0.01
45492,45.950485,-0.500995,84.49,11.28,10.72,291.8,14 / 17,2259172,2019-08-12 11:02:21:662,0.8854,-0.1404,9.3791,0.2577,-0.3199,9.798,0.0018,0.0397,0.01
45493,45.950485,-0.500995,84.49,11.28,10.72,291.8,14 / 17,2259173,2019-08-12 11:02:21:663,0.8854,-0.1404,9.3791,0.2577,-0.3199,9.798,0.0018,0.0397,0.01
45494,45.950485,-0.500995,84.49,11.28,10.72,291.8,14 / 17,2259174,2019-08-12 11:02:21:664,0.8854,-0.1404,9.3791,0.2577,-0.3199,9.798,0.0018,0.0397,0.01
45495,45.950485,-0.500995,84.49,11.28,10.72,291.8,14 / 17,2259174,2019-08-12 11:02:21:664,0.8854,-0.1404,9.3791,0.2577,-0.3199,9.798,0.0018,0.0397,0.01
45496,45.950485,-0.500995,84.49,11.28,10.72,291.8,14 / 17,2259175,2019-08-12 11:02:21:665,0.8854,-0.1404,9.3791,0.2577,-0.3199,9.798,0.0018,0.0397,0.01
45497,45.950485,-0.500995,84.49,11.28,10.72,291.8,14 / 17,2259175,2019-08-12 11:02:21:665,0.8854,-0.1404,9.3791,0.2577,-0.3199,9.798,0.0018,0.0397,0.01
45498,45.950485,-0.500995,84.49,11.28,10.72,291.8,14 / 17,2259177,2019-08-12 11:02:21:667,0.8854,-0.1404,9.3791,0.2577,-0.3199,9.798,0.0018,0.0397,0.01
45499,45.950485,-0.500995,84.49,11.28,10.72,291.8,14 / 17,2259177,2019-08-12 11:02:21:667,0.8854,-0.1404,9.3791,0.2577,-0.3199,9.798,0.0018,0.0397,0.01
45500,45.950485,-0.500995,84.49,11.28,10.72,291.8,14 / 17,2259181,2019-08-12 11:02:21:671,0.8854,-0.1404,9.3791,0.2577,-0.3199,9.798,0.0018,0.0397,0.01
45501,45.950485,-0.500995,84.49,11.28,10.72,291.8,14 / 17,2259182,2019-08-12 11:02:21:672,0.8854,-0.1404,9.3791,0.2577,-0.3199,9.798,0.0018,0.0397,0.01
45502,45.950485,-0.500995,84.49,11.28,10.72,291.8,14 / 17,2259182,2019-08-12 11:02:21:672,0.8854,-0.1404,9.3791,0.2577,-0.3199,9.798,0.0018,0.0397,0.01
45503,45.950485,-0.500995,84.49,11.28,10.72,291.8,14 / 17,2259183,2019-08-12 11:02:21:673,0.8854,-0.1404,9.3791,0.2577,-0.3199,9.798,0.0018,0.0397,0.01
45504,45.950485,-0.500995,84.49,11.28,10.72,291.8,14 / 17,2259184,2019-08-12 11:02:21:674,0.8854,-0.1404,9.3791,0.2577,-0.3199,9.798,0.0018,0.0397,0.01
45505,45.950485,-0.500995,84.49,11.28,10.72,291.8,14 / 17,2259184,2019-08-12 11:02:21:674,0.8854,-0.1404,9.3791,0.2577,-0.3199,9.798,0.0018,0.0397,0.01
45506,45.950485,-0.500995,84.49,11.28,10.72,291.8,14 / 17,2259185,2019-08-12 11:02:21:675,0.8854,-0.1404,9.3791,0.2577,-0.3199,9.798,0.0018,0.0397,0.01
45507,45.950485,-0.500995,84.49,11.28,10.72,291.8,14 / 17,2259185,2019-08-12 11:02:21:675,0.8854,-0.1404,9.3791,0.2577,-0.3199,9.798,0.0018,0.0397,0.01
45508,45.950485,-0.500995,84.49,11.28,10.72,291.8,14 / 17,2259186,2019-08-12 11:02:21:676,0.8854,-0.1404,9.3791,0.2577,-0.3199,9.798,0.0018,0.0397,0.01
45509,45.950485,-0.500995,84.49,11.28,10.72,291.8,14 / 17,2259186,2019-08-12 11:02:21:676,0.8854,-0.1404,9.3791,0.2577,-0.3199,9.798,0.0018,0.0397,0.01
45510,45.950485,-0.500995,84.49,11.28,10.72,291.8,14 / 17,2259187,2019-08-12 11:02:21:677,0.8854,-0.1404,9.3791,0.2577,-0.3199,9.798,0.0018,0.0397,0.01
45511,45.950485,-0.500995,84.49,11.28,10.72,291.8,14 / 17,2259187,2019-08-12 11:02:21:677,0.8854,-0.1404,9.3791,0.2577,-0.3199,9.798,0.0018,0.0397,0.01
45512,45.950485,-0.500995,84.49,11.28,10.72,291.8,14 / 17,2259188,2019-08-12 11:02:21:678,0.8854,-0.1404,9.3791,0.2577,-0.3199,9.798,0.0018,0.0397,0.01
45513,45.950485,-0.500995,84.49,11.28,10.72,291.8,14 / 17,2259188,2019-08-12 11:02:21:678,0.8854,-0.1404,9.3791,0.2577,-0.3199,9.798,0.0018,0.0397,0.01
45514,45.950485,-0.500995,84.49,11.28,10.72,291.8,14 / 17,2259189,2019-08-12 11:02:21:679,0.8854,-0.1404,9.3791,0.2577,-0.3199,9.798,0.0018,0.0397,0.01
45515,45.950485,-0.500995,84.49,11.28,10.72,291.8,14 / 17,2259190,2019-08-12 11:02:21:680,0.8854,-0.1404,9.3791,0.2577,-0.3199,9.798,0.0018,0.0397,0.01
45516,45.950485,-0.500995,84.49,11.28,10.72,291.8,14 / 17,2259190,2019-08-12 11:02:21:680,0.8854,-0.1404,9.3791,0.2577,-0.3199,9.798,0.0018,0.0397,0.01
45517,45.950485,-0.500995,84.49,11.28,10.72,291.8,14 / 17,2259191,2019-08-12 11:02:21:681,0.8854,-0.1404,9.3791,0.2577,-0.3199,9.798,0.0018,0.0397,0.01
45518,45.950485,-0.500995,84.49,11.28,10.72,291.8,14 / 17,2259191,2019-08-12 11:02:21:681,0.8854,-0.1404,9.3791,0.2577,-0.3199,9.798,0.0018,0.0397,0.01
45519,45.950485,-0.500995,84.49,11.28,10.72,291.8,14 / 17,2259192,2019-08-12 11:02:21:682,0.8854,-0.1404,9.3791,0.2577,-0.3199,9.798,0.0018,0.0397,0.01
45520,45.950485,-0.500995,84.49,11.28,10.72,291.8,14 / 17,2259192,2019-08-12 11:02:21:682,0.8854,-0.1404,9.3791,0.2577,-0.3199,9.798,0.0018,0.0397,0.01
45521,45.950485,-0.500995,84.49,11.28,10.72,291.8,14 / 17,2259193,2019-08-12 11:02:21:683,0.8854,-0.1404,9.3791,0.2577,-0.3199,9.798,0.0018,0.0397,0.01
45522,45.950485,-0.500995,84.49,11.28,10.72,291.8,14 / 17,2259193,2019-08-12 11:02:21:683,0.8854,-0.1404,9.3791,0.2577,-0.3199,9.798,0.0018,0.0397,0.01
45523,45.950485,-0.500995,84.49,11.28,10.72,291.8,14 / 17,2259193,2019-08-12 11:02:21:683,0.8854,-0.1404,9.3791,0.2577,-0.3199,9.798,0.0018,0.0397,0.01
45524,45.950485,-0.500995,84.49,11.28,10.72,291.8,14 / 17,2259194,2019-08-12 11:02:21:684,0.8854,-0.1404,9.3791,0.2577,-0.3199,9.798,0.0018,0.0397,0.01
45525,45.950485,-0.500995,84.49,11.28,10.72,291.8,14 / 17,2259194,2019-08-12 11:02:21:684,0.8854,-0.1404,9.3791,0.2577,-0.3199,9.798,0.0018,0.0397,0.01
45526,45.950485,-0.500995,84.49,11.28,10.72,291.8,14 / 17,2259194,2019-08-12 11:02:21:684,0.8854,-0.1404,9.3791,0.2577,-0.3199,9.798,0.0018,0.0397,0.01
45527,45.950485,-0.500995,84.49,11.28,10.72,291.8,14 / 17,2259195,2019-08-12 11:02:21:685,0.8854,-0.1404,9.3791,0.2577,-0.3199,9.798,0.0018,0.0397,0.01
45528,45.950485,-0.500995,84.49,11.28,10.72,291.8,14 / 17,2259195,2019-08-12 11:02:21:685,0.8854,-0.1404,9.3791,0.2577,-0.3199,9.798,0.0018,0.0397,0.01
45529,45.950485,-0.500995,84.49,11.28,10.72,291.8,14 / 17,2259195,2019-08-12 11:02:21:685,0.8854,-0.1404,9.3791,0.2577,-0.3199,9.798,0.0018,0.0397,0.01
45530,45.950485,-0.500995,84.49,11.28,10.72,291.8,14 / 17,2259196,2019-08-12 11:02:21:686,0.8854,-0.1404,9.3791,0.2577,-0.3199,9.798,0.0018,0.0397,0.01
45531,45.950485,-0.500995,84.49,11.28,10.72,291.8,14 / 17,2259196,2019-08-12 11:02:21:686,0.8854,-0.1404,9.3791,0.2577,-0.3199,9.798,0.0018,0.0397,0.01
45532,45.950485,-0.500995,84.49,11.28,10.72,291.8,14 / 17,2259196,2019-08-12 11:02:21:686,0.8854,-0.1404,9.3791,0.2577,-0.3199,9.798,0.0018,0.0397,0.01
45533,45.950485,-0.500995,84.49,11.28,10.72,291.8,14 / 17,2259197,2019-08-12 11:02:21:687,0.8854,-0.1404,9.3791,0.2577,-0.3199,9.798,0.0018,0.0397,0.01
45534,45.950485,-0.500995,84.49,11.28,10.72,291.8,14 / 17,2259197,2019-08-12 11:02:21:687,0.8854,-0.1404,9.3791,0.2577,-0.3199,9.798,0.0018,0.0397,0.01
45535,45.950485,-0.500995,84.49,11.28,10.72,291.8,14 / 17,2259197,2019-08-12 11:02:21:687,0.8854,-0.1404,9.3791,0.2577,-0.3199,9.798,0.0018,0.0397,0.01
45536,45.950485,-0.500995,84.49,11.28,10.72,291.8,14 / 17,2259197,2019-08-12 11:02:21:687,0.8854,-0.1404,9.3791,0.2577,-0.3199,9.798,0.0018,0.0397,0.01
45537,45.950485,-0.500995,84.49,11.28,10.72,291.8,14 / 17,2259198,2019-08-12 11:02:21:688,0.8854,-0.1404,9.3791,0.2577,-0.3199,9.798,0.0018,0.0397,0.01
45538,45.950485,-0.500995,84.49,11.28,10.72,291.8,14 / 17,2259198,2019-08-12 11:02:21:688,0.8854,-0.1404,9.3791,0.2577,-0.3199,9.798,0.0018,0.0397,0.01
45539,45.950485,-0.500995,84.49,11.28,10.72,291.8,14 / 17,2259198,2019-08-12 11:02:21:688,0.8854,-0.1404,9.3791,0.2577,-0.3199,9.798,0.0018,0.0397,0.01
45540,45.950485,-0.500995,84.49,11.28,10.72,291.8,14 / 17,2259201,2019-08-12 11:02:21:691,0.8854,-0.1404,9.3791,0.2577,-0.3199,9.798,0.0018,0.0397,0.01
45541,45.950485,-0.500995,84.49,11.28,10.72,291.8,14 / 17,2259201,2019-08-12 11:02:21:691,0.8854,-0.1404,9.3791,0.2577,-0.3199,9.798,0.0018,0.0397,0.01
45542,45.950485,-0.500995,84.49,11.28,10.72,291.8,14 / 17,2259202,2019-08-12 11:02:21:692,0.8854,-0.1404,9.3791,0.2577,-0.3199,9.798,0.0018,0.0397,0.01
45543,45.950485,-0.500995,84.49,11.28,10.72,291.8,14 / 17,2259202,2019-08-12 11:02:21:692,0.8854,-0.1404,9.3791,0.2577,-0.3199,9.798,0.0018,0.0397,0.01
45544,45.950485,-0.500995,84.49,11.28,10.72,291.8,14 / 17,2259203,2019-08-12 11:02:21:693,0.8854,-0.1404,9.3791,0.2577,-0.3199,9.798,0.0018,0.0397,0.01
45545,45.950485,-0.500995,84.49,11.28,10.72,291.8,14 / 17,2259203,2019-08-12 11:02:21:693,0.8854,-0.1404,9.3791,0.2577,-0.3199,9.798,0.0018,0.0397,0.01
45546,45.950485,-0.500995,84.49,11.28,10.72,291.8,14 / 17,2259203,2019-08-12 11:02:21:693,0.8854,-0.1404,9.3791,0.2577,-0.3199,9.798,0.0018,0.0397,0.01
45547,45.950485,-0.500995,84.49,11.28,10.72,291.8,14 / 17,2259204,2019-08-12 11:02:21:694,0.8854,-0.1404,9.3791,0.2577,-0.3199,9.798,0.0018,0.0397,0.01
45548,45.950485,-0.500995,84.49,11.28,10.72,291.8,14 / 17,2259204,2019-08-12 11:02:21:694,0.8854,-0.1404,9.3791,0.2577,-0.3199,9.798,0.0018,0.0397,0.01
45549,45.950485,-0.500995,84.49,11.28,10.72,291.8,14 / 17,2259204,2019-08-12 11:02:21:694,0.8854,-0.1404,9.3791,0.2577,-0.3199,9.798,0.0018,0.0397,0.01
45550,45.950485,-0.500995,84.49,11.28,10.72,291.8,14 / 17,2259204,2019-08-12 11:02:21:694,0.8854,-0.1404,9.3791,0.2577,-0.3199,9.798,0.0018,0.0397,0.01
45551,45.950485,-0.500995,84.49,11.28,10.72,291.8,14 / 17,2259205,2019-08-12 11:02:21:695,0.8854,-0.1404,9.3791,0.2577,-0.3199,9.798,0.0018,0.0397,0.01
45552,45.950485,-0.500995,84.49,11.28,10.72,291.8,14 / 17,2259205,2019-08-12 11:02:21:695,0.8854,-0.1404,9.3791,0.2577,-0.3199,9.798,0.0018,0.0397,0.01
45553,45.950485,-0.500995,84.49,11.28,10.72,291.8,14 / 17,2259206,2019-08-12 11:02:21:696,0.8854,-0.1404,9.3791,0.2577,-0.3199,9.798,0.0018,0.0397,0.01
45554,45.950485,-0.500995,84.49,11.28,10.72,291.8,14 / 17,2259206,2019-08-12 11:02:21:696,0.8854,-0.1404,9.3791,0.2577,-0.3199,9.798,0.0018,0.0397,0.01
45555,45.950485,-0.500995,84.49,11.28,10.72,291.8,14 / 17,2259206,2019-08-12 11:02:21:696,0.8854,-0.1404,9.3791,0.2577,-0.3199,9.798,0.0018,0.0397,0.01
45556,45.950485,-0.500995,84.49,11.28,10.72,291.8,14 / 17,2259258,2019-08-12 11:02:21:748,0.8854,-0.1404,9.3791,0.2577,-0.3199,9.798,0.0018,0.0397,0.01
45557,45.950485,-0.500995,84.49,11.28,10.72,291.8,14 / 17,2259627,2019-08-12 11:02:22:117,0.8854,-0.1404,9.3791,0.2577,-0.3199,9.798,0.0018,0.0397,0.01
45558,45.950485,-0.500995,84.49,11.28,10.72,291.8,14 / 17,2259627,2019-08-12 11:02:22:117,0.8854,-0.1404,9.3791,0.2577,-0.3199,9.798,0.0018,0.0397,0.01
45559,45.950485,-0.500995,84.49,11.28,10.72,291.8,14 / 17,2259628,2019-08-12 11:02:22:118,0.8854,-0.1404,9.3791,0.2577,-0.3199,9.798,0.0018,0.0397,0.01
45560,45.950485,-0.500995,84.49,11.28,10.72,291.8,14 / 17,2259628,2019-08-12 11:02:22:118,0.8854,-0.1404,9.3791,0.2577,-0.3199,9.798,0.0018,0.0397,0.01
45561,45.950485,-0.500995,84.49,11.28,10.72,291.8,14 / 17,2259629,2019-08-12 11:02:22:119,0.8854,-0.1404,9.3791,0.2577,-0.3199,9.798,0.0018,0.0397,0.01
45562,45.950485,-0.500995,84.49,11.28,10.72,291.8,14 / 17,2259629,2019-08-12 11:02:22:119,0.8854,-0.1404,9.3791,0.2577,-0.3199,9.798,0.0018,0.0397,0.01
45563,45.950485,-0.500995,84.49,11.28,10.72,291.8,14 / 17,2259632,2019-08-12 11:02:22:122,0.8854,-0.1404,9.3791,0.2577,-0.3199,9.798,0.0018,0.0397,0.01
45564,45.950485,-0.500995,84.49,11.28,10.72,291.8,14 / 17,2259633,2019-08-12 11:02:22:123,0.8854,-0.1404,9.3791,0.2577,-0.3199,9.798,0.0018,0.0397,0.01
45565,45.950485,-0.500995,84.49,11.28,10.72,291.8,Nov-16,2259633,2019-08-12 11:02:22:123,0.8854,-0.1404,9.3791,0.2577,-0.3199,9.798,0.0018,0.0397,0.01
45566,45.950485,-0.500995,84.49,11.28,10.72,291.8,Nov-16,2259713,2019-08-12 11:02:22:203,0.8854,-0.1404,9.3791,0.2577,-0.3199,9.798,0.0018,0.0397,0.01
45567,45.950485,-0.500995,84.49,11.28,10.72,291.8,0 / 17,2260086,2019-08-12 11:02:22:576,0.8854,-0.1404,9.3791,0.2577,-0.3199,9.798,0.0018,0.0397,0.01
45568,45.950485,-0.500995,84.49,11.28,10.72,291.8,0 / 17,2260086,2019-08-12 11:02:22:576,0.8854,-0.1404,9.3791,0.2577,-0.3199,9.798,0.0018,0.0397,0.01
45569,45.950485,-0.500995,84.49,11.28,10.72,291.8,0 / 17,2260087,2019-08-12 11:02:22:577,0.8854,-0.1404,9.3791,0.2577,-0.3199,9.798,0.0018,0.0397,0.01
45570,45.950485,-0.500995,84.49,11.28,10.72,291.8,0 / 17,2260087,2019-08-12 11:02:22:577,0.8854,-0.1404,9.3791,0.2577,-0.3199,9.798,0.0018,0.0397,0.01
45571,45.950485,-0.500995,84.49,11.28,10.72,291.8,0 / 17,2260088,2019-08-12 11:02:22:578,0.8854,-0.1404,9.3791,0.2577,-0.3199,9.798,0.0018,0.0397,0.01
45572,45.950485,-0.500995,84.49,11.28,10.72,291.8,0 / 17,2260088,2019-08-12 11:02:22:578,0.8854,-0.1404,9.3791,0.2577,-0.3199,9.798,0.0018,0.0397,0.01
45573,45.950485,-0.500995,84.49,11.28,10.72,291.8,0 / 17,2260088,2019-08-12 11:02:22:578,0.8854,-0.1404,9.3791,0.2577,-0.3199,9.798,0.0018,0.0397,0.01
45574,45.950485,-0.500995,84.49,11.28,10.72,291.8,0 / 17,2260089,2019-08-12 11:02:22:579,0.8854,-0.1404,9.3791,0.2577,-0.3199,9.798,0.0018,0.0397,0.01
45575,45.950485,-0.500995,84.49,11.28,10.72,291.8,0 / 17,2260089,2019-08-12 11:02:22:579,0.8854,-0.1404,9.3791,0.2577,-0.3199,9.798,0.0018,0.0397,0.01
45576,45.95265,-0.503423,84.92,20.35,6.432,315.3,0 / 17,2260167,2019-08-12 11:02:22:657,0.8854,-0.1404,9.3791,0.2577,-0.3199,9.798,0.0018,0.0397,0.01
45577,45.95265,-0.503423,84.92,20.35,6.432,315.3,0 / 17,2260563,2019-08-12 11:02:23:053,0.8854,-0.1404,9.3791,0.2577,-0.3199,9.798,0.0018,0.0397,0.01
45578,45.95265,-0.503423,84.92,20.35,6.432,315.3,0 / 17,2260564,2019-08-12 11:02:23:054,0.8854,-0.1404,9.3791,0.2577,-0.3199,9.798,0.0018,0.0397,0.01
45579,45.95265,-0.503423,84.92,20.35,6.432,315.3,0 / 17,2260564,2019-08-12 11:02:23:054,0.8854,-0.1404,9.3791,0.2577,-0.3199,9.798,0.0018,0.0397,0.01
45580,45.95265,-0.503423,84.92,20.35,6.432,315.3,0 / 17,2260565,2019-08-12 11:02:23:055,0.8854,-0.1404,9.3791,0.2577,-0.3199,9.798,0.0018,0.0397,0.01
45581,45.95265,-0.503423,84.92,20.35,6.432,315.3,0 / 17,2260565,2019-08-12 11:02:23:055,0.8854,-0.1404,9.3791,0.2577,-0.3199,9.798,0.0018,0.0397,0.01
45582,45.95265,-0.503423,84.92,20.35,6.432,315.3,0 / 17,2260565,2019-08-12 11:02:23:055,0.8854,-0.1404,9.3791,0.2577,-0.3199,9.798,0.0018,0.0397,0.01
45583,45.95265,-0.503423,84.92,20.35,6.432,315.3,0 / 17,2260566,2019-08-12 11:02:23:056,0.8854,-0.1404,9.3791,0.2577,-0.3199,9.798,0.0018,0.0397,0.01
45584,45.95265,-0.503423,84.92,20.35,6.432,315.3,0 / 17,2260566,2019-08-12 11:02:23:056,0.8854,-0.1404,9.3791,0.2577,-0.3199,9.798,0.0018,0.0397,0.01
45585,45.95265,-0.503423,84.92,20.35,6.432,315.3,0 / 17,2260566,2019-08-12 11:02:23:056,0.8854,-0.1404,9.3791,0.2577,-0.3199,9.798,0.0018,0.0397,0.01
45586,45.95265,-0.503423,84.92,20.35,6.432,315.3,0 / 17,2260567,2019-08-12 11:02:23:057,0.8854,-0.1404,9.3791,0.2577,-0.3199,9.798,0.0018,0.0397,0.01
45587,45.95265,-0.503423,84.92,20.35,6.432,315.3,0 / 17,2260568,2019-08-12 11:02:23:058,0.8854,-0.1404,9.3791,0.2577,-0.3199,9.798,0.0018,0.0397,0.01
45588,45.95265,-0.503423,84.92,20.35,6.432,315.3,0 / 17,2260568,2019-08-12 11:02:23:058,0.8854,-0.1404,9.3791,0.2577,-0.3199,9.798,0.0018,0.0397,0.01
45589,45.95265,-0.503423,84.92,20.35,6.432,315.3,0 / 17,2260571,2019-08-12 11:02:23:061,0.8854,-0.1404,9.3791,0.2577,-0.3199,9.798,0.0018,0.0397,0.01
45590,45.95265,-0.503423,84.92,20.35,6.432,315.3,0 / 17,2260659,2019-08-12 11:02:23:149,0.8854,-0.1404,9.3791,0.2577,-0.3199,9.798,0.0018,0.0397,0.01
45591,45.95265,-0.503423,84.92,20.35,6.432,315.3,0 / 17,2260759,2019-08-12 11:02:23:249,0.8854,-0.1404,9.3791,0.2577,-0.3199,9.798,0.0018,0.0397,0.01
45592,45.95265,-0.503423,84.92,20.35,6.432,315.3,0 / 17,2260859,2019-08-12 11:02:23:349,0.0439,0.4467,11.6219,-0.2081,0.4226,9.7953,0.0135,0.012,0.0089
45593,45.95265,-0.503423,84.92,20.35,6.432,315.3,0 / 17,2260960,2019-08-12 11:02:23:450,-0.4942,0.5976,10.0621,-0.2093,0.4468,9.7942,0.0199,-0.0018,0.0249
45594,45.95265,-0.503423,84.92,20.35,6.432,315.3,0 / 17,2261060,2019-08-12 11:02:23:550,-0.9384,0.6796,9.1894,-0.2315,0.4489,9.7936,-0.0057,0.0205,0.0249
45595,45.95265,-0.503423,84.92,20.35,6.432,315.3,0 / 17,2261160,2019-08-12 11:02:23:650,-0.6852,0.4916,8.7872,-0.2647,0.4483,9.7928,-0.0099,0.0163,0.0238
45596,45.95265,-0.503423,84.92,20.35,6.432,315.3,0 / 17,2261259,2019-08-12 11:02:23:749,-0.8581,0.7215,9.1852,-0.2788,0.4477,9.7925,-0.0004,0.0014,0.0217
45597,45.95265,-0.503423,84.92,20.35,6.432,315.3,0 / 17,2261359,2019-08-12 11:02:23:849,-0.6343,0.1816,9.3151,-0.2822,0.4427,9.7926,-0.0025,-0.0082,0.0175
45598,45.95265,-0.503423,84.92,20.35,6.432,315.3,0 / 17,2261459,2019-08-12 11:02:23:949,-0.5732,0.3456,10.0477,-0.2841,0.434,9.7929,-0.0142,-0.0029,0.0185
45599,45.95265,-0.503423,84.92,20.35,6.432,315.3,0 / 17,2261559,2019-08-12 11:02:24:049,-0.593,0.603,9.9597,-0.2817,0.4307,9.7931,-0.0057,-0.0199,0.0175
45600,45.95265,-0.503423,84.92,20.35,6.432,315.3,0 / 17,2261659,2019-08-12 11:02:24:149,-0.4302,0.0673,10.3805,-0.2756,0.4356,9.7931,0.0209,-0.0146,0.0175
45601,45.95265,-0.503423,84.92,20.35,6.432,315.3,0 / 17,2261759,2019-08-12 11:02:24:249,-0.2949,0.6143,9.8634,-0.2823,0.442,9.7926,-0.0099,0.0109,0.0153
45602,45.95265,-0.503423,84.92,20.35,6.432,315.3,0 / 17,2261859,2019-08-12 11:02:24:349,-0.268,0.1385,9.9957,-0.2993,0.4389,9.7923,0.0039,0.0163,0.0132
45603,45.95265,-0.503423,84.92,20.35,6.432,315.3,0 / 17,2261959,2019-08-12 11:02:24:449,-0.4236,0.2253,10.0908,-0.317,0.421,9.7925,-0.0057,0.0067,0.0121
45604,45.95265,-0.503423,84.92,20.35,6.432,315.3,0 / 17,2262059,2019-08-12 11:02:24:549,-0.4607,0.3402,9.9328,-0.3125,0.4157,9.7929,0.0114,-0.0093,0.0132
45605,45.95265,-0.503423,84.92,20.35,6.432,315.3,0 / 17,2262159,2019-08-12 11:02:24:649,-0.4817,0.1846,8.9937,-0.3092,0.4116,9.7931,0.0039,-0.0018,0.0143
45606,45.95265,-0.503423,84.92,20.35,6.432,315.3,0 / 17,2262260,2019-08-12 11:02:24:750,-0.5247,0.3145,9.3606,-0.3229,0.4048,9.793,0.0007,0.0152,0.0143
45607,45.95265,-0.503423,84.92,20.35,6.432,315.3,0 / 17,2262360,2019-08-12 11:02:24:850,-0.4493,0.321,9.7036,-0.3246,0.389,9.7936,-0.0174,-0.0008,0.0089
45608,45.95265,-0.503423,84.92,20.35,6.432,315.3,0 / 17,2262459,2019-08-12 11:02:24:949,-0.338,0.0882,10.5499,-0.3094,0.3623,9.7951,-0.0206,-0.0221,0.0036
45609,45.95265,-0.503423,84.92,20.35,6.432,315.3,0 / 17,2262560,2019-08-12 11:02:25:050,0.1606,0.0355,10.6235,-0.3011,0.3544,9.7956,0.0028,-0.0082,0.0036
45610,45.95265,-0.503423,84.92,20.35,6.432,315.3,0 / 17,2262660,2019-08-12 11:02:25:150,-0.2315,-0.2063,9.8963,-0.3041,0.3282,9.7964,-0.0185,0.0035,-0.0017
45611,45.95265,-0.503423,84.92,20.35,6.432,315.3,0 / 17,2262759,2019-08-12 11:02:25:249,-0.2985,-0.1991,10.1668,-0.307,0.3051,9.7971,-0.0036,0.0003,-0.007
45612,45.95265,-0.503423,84.92,20.35,6.432,315.3,0 / 17,2262860,2019-08-12 11:02:25:350,-0.2273,-0.2488,9.3169,-0.2892,0.2782,9.7984,-0.0036,-0.0242,-0.0081
45613,45.95265,-0.503423,84.92,20.35,6.432,315.3,0 / 17,2262959,2019-08-12 11:02:25:449,0.0888,-0.0159,9.7347,-0.2856,0.2673,9.7988,0.006,-0.0018,-0.0028
45614,45.95265,-0.503423,84.92,20.35,6.432,315.3,0 / 17,2263060,2019-08-12 11:02:25:550,0.1744,0.1421,9.3396,-0.2979,0.2137,9.7998,-0.011,0.0216,0.0015
45615,45.95265,-0.503423,84.92,20.35,6.432,315.3,0 / 17,2263159,2019-08-12 11:02:25:649,-0.0148,-0.2679,9.5898,-0.3303,0.2136,9.7988,0.0092,0.0482,0.0057
45616,45.95265,-0.503423,84.92,20.35,6.432,315.3,0 / 17,2263259,2019-08-12 11:02:25:749,-0.3194,-0.0207,10.0154,-0.3387,0.2222,9.7983,0.0188,-0.0135,0.0057
45617,45.95265,-0.503423,84.92,20.35,6.432,315.3,0 / 17,2263359,2019-08-12 11:02:25:849,-0.3063,0.102,10.7217,-0.3096,0.2373,9.7989,0.0241,-0.0381,0.0089
45618,45.95265,-0.503423,84.92,20.35,6.432,315.3,0 / 17,2263459,2019-08-12 11:02:25:949,-0.0363,0.0433,8.7878,-0.291,0.2377,9.7995,-0.0014,0.0035,0.0153
45619,45.95265,-0.503423,84.92,20.35,6.432,315.3,0 / 17,2263559,2019-08-12 11:02:26:049,0.7418,0.6808,11.1407,-0.3156,0.2405,9.7986,-0.0089,0.0472,0.01
45620,45.95265,-0.503423,84.92,20.35,6.432,315.3,0 / 17,2263660,2019-08-12 11:02:26:150,-0.6355,0.2031,10.5092,-0.3383,0.2317,9.7981,-0.0078,0.0035,0.0153
45621,45.95265,-0.503423,84.92,20.35,6.432,315.3,0 / 17,2263760,2019-08-12 11:02:26:250,-0.1477,0.4042,10.2129,-0.3326,0.2275,9.7984,-0.0174,-0.0135,0.0185
45622,45.95265,-0.503423,84.92,20.35,6.432,315.3,0 / 17,2263860,2019-08-12 11:02:26:350,-0.0471,0.3911,10.0633,-0.3092,0.2362,9.7989,0.0092,-0.0231,0.027
45623,45.95265,-0.503423,84.92,20.35,6.432,315.3,0 / 17,2263959,2019-08-12 11:02:26:449,-0.1309,-0.0782,10.3518,-0.2871,0.2615,9.799,0.0369,-0.0306,0.0249
45624,45.95265,-0.503423,84.92,20.35,6.432,315.3,0 / 17,2264059,2019-08-12 11:02:26:549,0.1468,0.6682,10.9288,-0.256,0.2967,9.7988,0.0114,-0.0178,0.026
45625,45.95265,-0.503423,84.92,20.35,6.432,315.3,0 / 17,2264159,2019-08-12 11:02:26:649,-0.3152,0.6077,9.2163,-0.2495,0.3026,9.7988,-0.011,-0.0018,0.0217
45626,45.95265,-0.503423,84.92,20.35,6.432,315.3,0 / 17,2264260,2019-08-12 11:02:26:750,-0.1866,0.6161,9.3492,-0.2707,0.2941,9.7985,-0.0206,0.0312,0.0249
45627,45.95265,-0.503423,84.92,20.35,6.432,315.3,0 / 17,2264360,2019-08-12 11:02:26:850,-0.3482,0.6024,9.0128,-0.2951,0.2934,9.7978,-0.0057,0.0376,0.0281
45628,45.95265,-0.503423,84.92,20.35,6.432,315.3,0 / 17,2264461,2019-08-12 11:02:26:951,-0.1764,0.6113,9.2534,-0.329,0.3024,9.7965,0.0007,0.0291,0.0302
45629,45.95265,-0.503423,84.92,20.35,6.432,315.3,0 / 17,2264562,2019-08-12 11:02:27:052,-0.2255,0.5539,10.1788,-0.3304,0.3175,9.7959,0.0114,-0.0018,0.0281
45630,45.95265,-0.503423,84.92,20.35,6.432,315.3,0 / 17,2264661,2019-08-12 11:02:27:151,-0.2704,0.4671,10.3709,-0.2959,0.33,9.7966,-0.0057,-0.0327,0.0281
45631,45.95265,-0.503423,84.92,20.35,6.432,315.3,0 / 17,2264760,2019-08-12 11:02:27:250,-0.2339,0.3779,10.4464,-0.2742,0.3283,9.7973,-0.011,-0.0221,0.026
45632,45.95265,-0.503423,84.92,20.35,6.432,315.3,0 / 17,2264859,2019-08-12 11:02:27:349,-0.2225,0.5228,10.3685,-0.2528,0.3373,9.7976,-0.0068,-0.0135,0.0238
45633,45.95265,-0.503423,84.92,20.35,6.432,315.3,0 / 17,2264959,2019-08-12 11:02:27:449,-0.2327,0.5766,10.5864,-0.2429,0.3532,9.7973,-0.0025,-0.0061,0.026
45634,45.95265,-0.503423,84.92,20.35,6.432,315.3,0 / 17,2265060,2019-08-12 11:02:27:550,-0.408,0.576,10.332,-0.2419,0.3526,9.7973,-0.0057,0.0003,0.027
45635,45.95265,-0.503423,84.92,20.35,6.432,315.3,0 / 17,2265489,2019-08-12 11:02:27:979,-0.1788,0.731,9.5629,-0.2397,0.3552,9.7973,-0.0089,-0.0008,0.027
45636,45.95265,-0.503423,84.92,20.35,6.432,315.3,0 / 17,2265490,2019-08-12 11:02:27:980,-0.1788,0.731,9.5629,-0.2397,0.3552,9.7973,-0.0089,-0.0008,0.027
45637,45.95265,-0.503423,84.92,20.35,6.432,315.3,0 / 17,2265490,2019-08-12 11:02:27:980,-0.1788,0.731,9.5629,-0.2397,0.3552,9.7973,-0.0089,-0.0008,0.027
45638,45.95265,-0.503423,84.92,20.35,6.432,315.3,0 / 17,2265491,2019-08-12 11:02:27:981,-0.1788,0.731,9.5629,-0.2397,0.3552,9.7973,-0.0089,-0.0008,0.027
45639,45.95265,-0.503423,84.92,20.35,6.432,315.3,0 / 17,2265491,2019-08-12 11:02:27:981,-0.1788,0.731,9.5629,-0.2397,0.3552,9.7973,-0.0089,-0.0008,0.027
45640,45.95265,-0.503423,84.92,20.35,6.432,315.3,0 / 17,2265491,2019-08-12 11:02:27:981,-0.1788,0.731,9.5629,-0.2397,0.3552,9.7973,-0.0089,-0.0008,0.027
45641,45.95265,-0.503423,84.92,20.35,6.432,315.3,0 / 17,2265491,2019-08-12 11:02:27:981,-0.1788,0.731,9.5629,-0.2397,0.3552,9.7973,-0.0089,-0.0008,0.027
45642,45.95265,-0.503423,84.92,20.35,6.432,315.3,0 / 17,2265492,2019-08-12 11:02:27:982,-0.1788,0.731,9.5629,-0.2397,0.3552,9.7973,-0.0089,-0.0008,0.027
45643,45.95265,-0.503423,84.92,20.35,6.432,315.3,0 / 17,2265492,2019-08-12 11:02:27:982,-0.1788,0.731,9.5629,-0.2397,0.3552,9.7973,-0.0089,-0.0008,0.027
45644,45.95265,-0.503423,84.92,20.35,6.432,315.3,0 / 17,2265493,2019-08-12 11:02:27:983,-0.1788,0.731,9.5629,-0.2397,0.3552,9.7973,-0.0089,-0.0008,0.027
45645,45.95265,-0.503423,84.92,20.35,6.432,315.3,0 / 17,2265493,2019-08-12 11:02:27:983,-0.1788,0.731,9.5629,-0.2397,0.3552,9.7973,-0.0089,-0.0008,0.027
45646,45.95265,-0.503423,84.92,20.35,6.432,315.3,0 / 17,2265569,2019-08-12 11:02:28:059,-0.1788,0.731,9.5629,-0.2397,0.3552,9.7973,-0.0089,-0.0008,0.027
45647,45.95265,-0.503423,84.92,20.35,6.432,315.3,0 / 17,2265947,2019-08-12 11:02:28:437,-0.1788,0.731,9.5629,-0.2397,0.3552,9.7973,-0.0089,-0.0008,0.027
45648,45.95265,-0.503423,84.92,20.35,6.432,315.3,0 / 17,2265948,2019-08-12 11:02:28:438,-0.1788,0.731,9.5629,-0.2397,0.3552,9.7973,-0.0089,-0.0008,0.027
45649,45.95265,-0.503423,84.92,20.35,6.432,315.3,0 / 17,2265948,2019-08-12 11:02:28:438,-0.1788,0.731,9.5629,-0.2397,0.3552,9.7973,-0.0089,-0.0008,0.027
45650,45.95265,-0.503423,84.92,20.35,6.432,315.3,0 / 17,2265949,2019-08-12 11:02:28:439,-0.1788,0.731,9.5629,-0.2397,0.3552,9.7973,-0.0089,-0.0008,0.027
45651,45.95265,-0.503423,84.92,20.35,6.432,315.3,0 / 17,2265949,2019-08-12 11:02:28:439,-0.1788,0.731,9.5629,-0.2397,0.3552,9.7973,-0.0089,-0.0008,0.027
45652,45.95265,-0.503423,84.92,20.35,6.432,315.3,0 / 17,2265953,2019-08-12 11:02:28:443,-0.1788,0.731,9.5629,-0.2397,0.3552,9.7973,-0.0089,-0.0008,0.027
45653,45.95265,-0.503423,84.92,20.35,6.432,315.3,0 / 17,2265956,2019-08-12 11:02:28:446,-0.1788,0.731,9.5629,-0.2397,0.3552,9.7973,-0.0089,-0.0008,0.027
45654,45.95265,-0.503423,84.92,20.35,6.432,315.3,0 / 17,2265958,2019-08-12 11:02:28:448,-0.1788,0.731,9.5629,-0.2397,0.3552,9.7973,-0.0089,-0.0008,0.027
45655,45.95265,-0.503423,84.92,20.35,6.432,315.3,0 / 17,2265962,2019-08-12 11:02:28:452,-0.1788,0.731,9.5629,-0.2397,0.3552,9.7973,-0.0089,-0.0008,0.027
45656,45.95265,-0.503423,84.92,20.35,6.432,315.3,Dec-16,2266029,2019-08-12 11:02:28:519,-0.1788,0.731,9.5629,-0.2397,0.3552,9.7973,-0.0089,-0.0008,0.027
45657,45.95265,-0.503423,84.92,20.35,6.432,315.3,Dec-16,2266448,2019-08-12 11:02:28:938,-0.1788,0.731,9.5629,-0.2397,0.3552,9.7973,-0.0089,-0.0008,0.027
45658,45.95265,-0.503423,84.92,20.35,6.432,315.3,Dec-16,2266449,2019-08-12 11:02:28:939,-0.1788,0.731,9.5629,-0.2397,0.3552,9.7973,-0.0089,-0.0008,0.027
45659,45.95265,-0.503423,84.92,20.35,6.432,315.3,Dec-16,2266450,2019-08-12 11:02:28:940,-0.1788,0.731,9.5629,-0.2397,0.3552,9.7973,-0.0089,-0.0008,0.027
45660,45.95265,-0.503423,84.92,20.35,6.432,315.3,Dec-16,2266450,2019-08-12 11:02:28:940,-0.1788,0.731,9.5629,-0.2397,0.3552,9.7973,-0.0089,-0.0008,0.027
45661,45.95265,-0.503423,84.92,20.35,6.432,315.3,Dec-16,2266450,2019-08-12 11:02:28:940,-0.1788,0.731,9.5629,-0.2397,0.3552,9.7973,-0.0089,-0.0008,0.027
45662,45.95265,-0.503423,84.92,20.35,6.432,315.3,Dec-16,2266451,2019-08-12 11:02:28:941,-0.1788,0.731,9.5629,-0.2397,0.3552,9.7973,-0.0089,-0.0008,0.027
45663,45.95265,-0.503423,84.92,20.35,6.432,315.3,Dec-16,2266451,2019-08-12 11:02:28:941,-0.1788,0.731,9.5629,-0.2397,0.3552,9.7973,-0.0089,-0.0008,0.027
45664,45.95265,-0.503423,84.92,20.35,6.432,315.3,Dec-16,2266452,2019-08-12 11:02:28:942,-0.1788,0.731,9.5629,-0.2397,0.3552,9.7973,-0.0089,-0.0008,0.027
45665,45.95265,-0.503423,84.92,20.35,6.432,315.3,Dec-16,2266452,2019-08-12 11:02:28:942,-0.1788,0.731,9.5629,-0.2397,0.3552,9.7973,-0.0089,-0.0008,0.027
45666,45.95265,-0.503423,84.92,20.35,6.432,315.3,Dec-16,2266455,2019-08-12 11:02:28:945,-0.1788,0.731,9.5629,-0.2397,0.3552,9.7973,-0.0089,-0.0008,0.027
45667,45.95265,-0.503423,84.92,20.35,6.432,315.3,Dec-16,2266455,2019-08-12 11:02:28:945,-0.1788,0.731,9.5629,-0.2397,0.3552,9.7973,-0.0089,-0.0008,0.027
45668,45.95265,-0.503423,84.92,20.35,6.432,315.3,Dec-16,2266456,2019-08-12 11:02:28:946,-0.1788,0.731,9.5629,-0.2397,0.3552,9.7973,-0.0089,-0.0008,0.027
45669,45.95265,-0.503423,84.92,20.35,6.432,315.3,Dec-16,2266456,2019-08-12 11:02:28:946,-0.1788,0.731,9.5629,-0.2397,0.3552,9.7973,-0.0089,-0.0008,0.027
45670,45.95265,-0.503423,84.92,20.35,6.432,315.3,Dec-16,2266457,2019-08-12 11:02:28:947,-0.1788,0.731,9.5629,-0.2397,0.3552,9.7973,-0.0089,-0.0008,0.027
45671,45.95265,-0.503423,84.92,20.35,6.432,315.3,Dec-16,2266460,2019-08-12 11:02:28:950,-0.1788,0.731,9.5629,-0.2397,0.3552,9.7973,-0.0089,-0.0008,0.027
45672,45.95265,-0.503423,84.92,20.35,6.432,315.3,Dec-16,2266460,2019-08-12 11:02:28:950,-0.1788,0.731,9.5629,-0.2397,0.3552,9.7973,-0.0089,-0.0008,0.027
45673,45.95265,-0.503423,84.92,20.35,6.432,315.3,Dec-16,2266461,2019-08-12 11:02:28:951,-0.1788,0.731,9.5629,-0.2397,0.3552,9.7973,-0.0089,-0.0008,0.027
45674,45.95265,-0.503423,84.92,20.35,6.432,315.3,Dec-16,2266462,2019-08-12 11:02:28:952,-0.1788,0.731,9.5629,-0.2397,0.3552,9.7973,-0.0089,-0.0008,0.027
45675,45.95265,-0.503423,84.92,20.35,6.432,315.3,Dec-16,2266463,2019-08-12 11:02:28:953,-0.1788,0.731,9.5629,-0.2397,0.3552,9.7973,-0.0089,-0.0008,0.027
45676,45.95265,-0.503423,84.92,20.35,6.432,315.3,Dec-16,2266465,2019-08-12 11:02:28:955,-0.1788,0.731,9.5629,-0.2397,0.3552,9.7973,-0.0089,-0.0008,0.027
45677,45.95265,-0.503423,84.92,20.35,6.432,315.3,Dec-16,2266466,2019-08-12 11:02:28:956,-0.1788,0.731,9.5629,-0.2397,0.3552,9.7973,-0.0089,-0.0008,0.027
45678,45.95265,-0.503423,84.92,20.35,6.432,315.3,Dec-16,2266466,2019-08-12 11:02:28:956,-0.1788,0.731,9.5629,-0.2397,0.3552,9.7973,-0.0089,-0.0008,0.027
45679,45.95265,-0.503423,84.92,20.35,6.432,315.3,Dec-16,2266467,2019-08-12 11:02:28:957,-0.1788,0.731,9.5629,-0.2397,0.3552,9.7973,-0.0089,-0.0008,0.027
45680,45.95265,-0.503423,84.92,20.35,6.432,315.3,Dec-16,2266467,2019-08-12 11:02:28:957,-0.1788,0.731,9.5629,-0.2397,0.3552,9.7973,-0.0089,-0.0008,0.027
45681,45.95265,-0.503423,84.92,20.35,6.432,315.3,Dec-16,2266467,2019-08-12 11:02:28:957,-0.1788,0.731,9.5629,-0.2397,0.3552,9.7973,-0.0089,-0.0008,0.027
45682,45.95265,-0.503423,84.92,20.35,6.432,315.3,Dec-16,2266468,2019-08-12 11:02:28:958,-0.1788,0.731,9.5629,-0.2397,0.3552,9.7973,-0.0089,-0.0008,0.027
45683,45.95265,-0.503423,84.92,20.35,6.432,315.3,Dec-16,2266468,2019-08-12 11:02:28:958,-0.1788,0.731,9.5629,-0.2397,0.3552,9.7973,-0.0089,-0.0008,0.027
45684,45.95265,-0.503423,84.92,20.35,6.432,315.3,Dec-16,2266468,2019-08-12 11:02:28:958,-0.1788,0.731,9.5629,-0.2397,0.3552,9.7973,-0.0089,-0.0008,0.027
45685,45.95265,-0.503423,84.92,20.35,6.432,315.3,Dec-16,2266469,2019-08-12 11:02:28:959,-0.1788,0.731,9.5629,-0.2397,0.3552,9.7973,-0.0089,-0.0008,0.027
45686,45.95265,-0.503423,84.92,20.35,6.432,315.3,Dec-16,2266470,2019-08-12 11:02:28:960,-0.1788,0.731,9.5629,-0.2397,0.3552,9.7973,-0.0089,-0.0008,0.027
45687,45.95265,-0.503423,84.92,20.35,6.432,315.3,Dec-16,2266471,2019-08-12 11:02:28:961,-0.1788,0.731,9.5629,-0.2397,0.3552,9.7973,-0.0089,-0.0008,0.027
45688,45.95265,-0.503423,84.92,20.35,6.432,315.3,Dec-16,2266471,2019-08-12 11:02:28:961,-0.1788,0.731,9.5629,-0.2397,0.3552,9.7973,-0.0089,-0.0008,0.027
45689,45.95265,-0.503423,84.92,20.35,6.432,315.3,Dec-16,2266472,2019-08-12 11:02:28:962,-0.1788,0.731,9.5629,-0.2397,0.3552,9.7973,-0.0089,-0.0008,0.027
45690,45.95265,-0.503423,84.92,20.35,6.432,315.3,Dec-16,2266473,2019-08-12 11:02:28:963,-0.1788,0.731,9.5629,-0.2397,0.3552,9.7973,-0.0089,-0.0008,0.027
45691,45.95265,-0.503423,84.92,20.35,6.432,315.3,Dec-16,2266473,2019-08-12 11:02:28:963,-0.1788,0.731,9.5629,-0.2397,0.3552,9.7973,-0.0089,-0.0008,0.027
45692,45.95265,-0.503423,84.92,20.35,6.432,315.3,Dec-16,2266474,2019-08-12 11:02:28:964,-0.1788,0.731,9.5629,-0.2397,0.3552,9.7973,-0.0089,-0.0008,0.027
45693,45.95265,-0.503423,84.92,20.35,6.432,315.3,Dec-16,2266474,2019-08-12 11:02:28:964,-0.1788,0.731,9.5629,-0.2397,0.3552,9.7973,-0.0089,-0.0008,0.027
45694,45.95265,-0.503423,84.92,20.35,6.432,315.3,Dec-16,2266474,2019-08-12 11:02:28:964,-0.1788,0.731,9.5629,-0.2397,0.3552,9.7973,-0.0089,-0.0008,0.027
45695,45.95265,-0.503423,84.92,20.35,6.432,315.3,Dec-16,2266475,2019-08-12 11:02:28:965,-0.1788,0.731,9.5629,-0.2397,0.3552,9.7973,-0.0089,-0.0008,0.027
45696,45.95265,-0.503423,84.92,20.35,6.432,315.3,Dec-16,2266475,2019-08-12 11:02:28:965,-0.1788,0.731,9.5629,-0.2397,0.3552,9.7973,-0.0089,-0.0008,0.027
45697,45.95265,-0.503423,84.92,20.35,6.432,315.3,Dec-16,2266475,2019-08-12 11:02:28:965,-0.1788,0.731,9.5629,-0.2397,0.3552,9.7973,-0.0089,-0.0008,0.027
45698,45.95265,-0.503423,84.92,20.35,6.432,315.3,Dec-16,2266476,2019-08-12 11:02:28:966,-0.1788,0.731,9.5629,-0.2397,0.3552,9.7973,-0.0089,-0.0008,0.027
45699,45.95265,-0.503423,84.92,20.35,6.432,315.3,Dec-16,2266476,2019-08-12 11:02:28:966,-0.1788,0.731,9.5629,-0.2397,0.3552,9.7973,-0.0089,-0.0008,0.027
45700,45.95265,-0.503423,84.92,20.35,6.432,315.3,Dec-16,2266478,2019-08-12 11:02:28:968,-0.1788,0.731,9.5629,-0.2397,0.3552,9.7973,-0.0089,-0.0008,0.027
45701,45.95265,-0.503423,84.92,20.35,6.432,315.3,Dec-16,2266479,2019-08-12 11:02:28:969,-0.1788,0.731,9.5629,-0.2397,0.3552,9.7973,-0.0089,-0.0008,0.027
45702,45.95265,-0.503423,84.92,20.35,6.432,315.3,Dec-16,2266480,2019-08-12 11:02:28:970,-0.1788,0.731,9.5629,-0.2397,0.3552,9.7973,-0.0089,-0.0008,0.027
45703,45.95265,-0.503423,84.92,20.35,6.432,315.3,Dec-16,2266480,2019-08-12 11:02:28:970,-0.1788,0.731,9.5629,-0.2397,0.3552,9.7973,-0.0089,-0.0008,0.027
45704,45.95265,-0.503423,84.92,20.35,6.432,315.3,Dec-16,2266480,2019-08-12 11:02:28:970,-0.1788,0.731,9.5629,-0.2397,0.3552,9.7973,-0.0089,-0.0008,0.027
45705,45.95265,-0.503423,84.92,20.35,6.432,315.3,Dec-16,2266481,2019-08-12 11:02:28:971,-0.1788,0.731,9.5629,-0.2397,0.3552,9.7973,-0.0089,-0.0008,0.027
45706,45.95265,-0.503423,84.92,20.35,6.432,315.3,Dec-16,2266481,2019-08-12 11:02:28:971,-0.1788,0.731,9.5629,-0.2397,0.3552,9.7973,-0.0089,-0.0008,0.027
45707,45.95265,-0.503423,84.92,20.35,6.432,315.3,Dec-16,2266481,2019-08-12 11:02:28:971,-0.1788,0.731,9.5629,-0.2397,0.3552,9.7973,-0.0089,-0.0008,0.027
45708,45.95265,-0.503423,84.92,20.35,6.432,315.3,Dec-16,2266482,2019-08-12 11:02:28:972,-0.1788,0.731,9.5629,-0.2397,0.3552,9.7973,-0.0089,-0.0008,0.027
45709,45.95265,-0.503423,84.92,20.35,6.432,315.3,Dec-16,2266482,2019-08-12 11:02:28:972,-0.1788,0.731,9.5629,-0.2397,0.3552,9.7973,-0.0089,-0.0008,0.027
45710,45.95265,-0.503423,84.92,20.35,6.432,315.3,Dec-16,2266482,2019-08-12 11:02:28:972,-0.1788,0.731,9.5629,-0.2397,0.3552,9.7973,-0.0089,-0.0008,0.027
45711,45.95265,-0.503423,84.92,20.35,6.432,315.3,Dec-16,2266483,2019-08-12 11:02:28:973,-0.1788,0.731,9.5629,-0.2397,0.3552,9.7973,-0.0089,-0.0008,0.027
45712,45.95265,-0.503423,84.92,20.35,6.432,315.3,Dec-16,2266483,2019-08-12 11:02:28:973,-0.1788,0.731,9.5629,-0.2397,0.3552,9.7973,-0.0089,-0.0008,0.027
45713,45.95265,-0.503423,84.92,20.35,6.432,315.3,Dec-16,2266483,2019-08-12 11:02:28:973,-0.1788,0.731,9.5629,-0.2397,0.3552,9.7973,-0.0089,-0.0008,0.027
45714,45.95265,-0.503423,84.92,20.35,6.432,315.3,Dec-16,2266484,2019-08-12 11:02:28:974,-0.1788,0.731,9.5629,-0.2397,0.3552,9.7973,-0.0089,-0.0008,0.027
45715,45.95265,-0.503423,84.92,20.35,6.432,315.3,Dec-16,2266484,2019-08-12 11:02:28:974,-0.1788,0.731,9.5629,-0.2397,0.3552,9.7973,-0.0089,-0.0008,0.027
45716,45.95265,-0.503423,84.92,20.35,6.432,315.3,Dec-16,2266484,2019-08-12 11:02:28:974,-0.1788,0.731,9.5629,-0.2397,0.3552,9.7973,-0.0089,-0.0008,0.027
45717,45.95265,-0.503423,84.92,20.35,6.432,315.3,Dec-16,2266485,2019-08-12 11:02:28:975,-0.1788,0.731,9.5629,-0.2397,0.3552,9.7973,-0.0089,-0.0008,0.027
45718,45.95265,-0.503423,84.92,20.35,6.432,315.3,Dec-16,2266485,2019-08-12 11:02:28:975,-0.1788,0.731,9.5629,-0.2397,0.3552,9.7973,-0.0089,-0.0008,0.027
45719,45.95265,-0.503423,84.92,20.35,6.432,315.3,Dec-16,2266485,2019-08-12 11:02:28:975,-0.1788,0.731,9.5629,-0.2397,0.3552,9.7973,-0.0089,-0.0008,0.027
45720,45.95265,-0.503423,84.92,20.35,6.432,315.3,Dec-16,2266486,2019-08-12 11:02:28:976,-0.1788,0.731,9.5629,-0.2397,0.3552,9.7973,-0.0089,-0.0008,0.027
45721,45.95265,-0.503423,84.92,20.35,6.432,315.3,Dec-16,2266486,2019-08-12 11:02:28:976,-0.1788,0.731,9.5629,-0.2397,0.3552,9.7973,-0.0089,-0.0008,0.027
45722,45.95265,-0.503423,84.92,20.35,6.432,315.3,Dec-16,2266487,2019-08-12 11:02:28:977,-0.1788,0.731,9.5629,-0.2397,0.3552,9.7973,-0.0089,-0.0008,0.027
45723,45.95265,-0.503423,84.92,20.35,6.432,315.3,Dec-16,2266487,2019-08-12 11:02:28:977,-0.1788,0.731,9.5629,-0.2397,0.3552,9.7973,-0.0089,-0.0008,0.027
45724,45.95265,-0.503423,84.92,20.35,6.432,315.3,Dec-16,2266487,2019-08-12 11:02:28:977,-0.1788,0.731,9.5629,-0.2397,0.3552,9.7973,-0.0089,-0.0008,0.027
45725,45.95265,-0.503423,84.92,20.35,6.432,315.3,Dec-16,2266488,2019-08-12 11:02:28:978,-0.1788,0.731,9.5629,-0.2397,0.3552,9.7973,-0.0089,-0.0008,0.027
45726,45.95265,-0.503423,84.92,20.35,6.432,315.3,Dec-16,2266488,2019-08-12 11:02:28:978,-0.1788,0.731,9.5629,-0.2397,0.3552,9.7973,-0.0089,-0.0008,0.027
45727,45.95265,-0.503423,84.92,20.35,6.432,315.3,Dec-16,2266488,2019-08-12 11:02:28:978,-0.1788,0.731,9.5629,-0.2397,0.3552,9.7973,-0.0089,-0.0008,0.027
45728,45.95265,-0.503423,84.92,20.35,6.432,315.3,Dec-16,2266488,2019-08-12 11:02:28:978,-0.1788,0.731,9.5629,-0.2397,0.3552,9.7973,-0.0089,-0.0008,0.027
45729,45.95265,-0.503423,84.92,20.35,6.432,315.3,Dec-16,2266489,2019-08-12 11:02:28:979,-0.1788,0.731,9.5629,-0.2397,0.3552,9.7973,-0.0089,-0.0008,0.027
45730,45.95265,-0.503423,84.92,20.35,6.432,315.3,Dec-16,2266489,2019-08-12 11:02:28:979,-0.1788,0.731,9.5629,-0.2397,0.3552,9.7973,-0.0089,-0.0008,0.027
45731,45.95265,-0.503423,84.92,20.35,6.432,315.3,Dec-16,2266490,2019-08-12 11:02:28:980,-0.1788,0.731,9.5629,-0.2397,0.3552,9.7973,-0.0089,-0.0008,0.027
45732,45.95265,-0.503423,84.92,20.35,6.432,315.3,Dec-16,2266490,2019-08-12 11:02:28:980,-0.1788,0.731,9.5629,-0.2397,0.3552,9.7973,-0.0089,-0.0008,0.027
45733,45.95265,-0.503423,84.92,20.35,6.432,315.3,Dec-16,2266490,2019-08-12 11:02:28:980,-0.1788,0.731,9.5629,-0.2397,0.3552,9.7973,-0.0089,-0.0008,0.027
45734,45.95265,-0.503423,84.92,20.35,6.432,315.3,Dec-16,2266491,2019-08-12 11:02:28:981,-0.1788,0.731,9.5629,-0.2397,0.3552,9.7973,-0.0089,-0.0008,0.027
45735,45.95265,-0.503423,84.92,20.35,6.432,315.3,Dec-16,2266491,2019-08-12 11:02:28:981,-0.1788,0.731,9.5629,-0.2397,0.3552,9.7973,-0.0089,-0.0008,0.027
45736,45.95265,-0.503423,84.92,20.35,6.432,315.3,Dec-16,2266528,2019-08-12 11:02:29:018,-0.1788,0.731,9.5629,-0.2397,0.3552,9.7973,-0.0089,-0.0008,0.027
45737,45.95265,-0.503423,84.92,20.35,6.432,315.3,Sep-16,2266919,2019-08-12 11:02:29:409,-0.1788,0.731,9.5629,-0.2397,0.3552,9.7973,-0.0089,-0.0008,0.027
45738,45.95265,-0.503423,84.92,20.35,6.432,315.3,Sep-16,2266920,2019-08-12 11:02:29:410,-0.1788,0.731,9.5629,-0.2397,0.3552,9.7973,-0.0089,-0.0008,0.027
45739,45.95265,-0.503423,84.92,20.35,6.432,315.3,Sep-16,2266921,2019-08-12 11:02:29:411,-0.1788,0.731,9.5629,-0.2397,0.3552,9.7973,-0.0089,-0.0008,0.027
45740,45.95265,-0.503423,84.92,20.35,6.432,315.3,Sep-16,2266921,2019-08-12 11:02:29:411,-0.1788,0.731,9.5629,-0.2397,0.3552,9.7973,-0.0089,-0.0008,0.027
45741,45.95265,-0.503423,84.92,20.35,6.432,315.3,Sep-16,2266921,2019-08-12 11:02:29:411,-0.1788,0.731,9.5629,-0.2397,0.3552,9.7973,-0.0089,-0.0008,0.027
45742,45.95265,-0.503423,84.92,20.35,6.432,315.3,Sep-16,2266922,2019-08-12 11:02:29:412,-0.1788,0.731,9.5629,-0.2397,0.3552,9.7973,-0.0089,-0.0008,0.027
45743,45.95265,-0.503423,84.92,20.35,6.432,315.3,Sep-16,2266922,2019-08-12 11:02:29:412,-0.1788,0.731,9.5629,-0.2397,0.3552,9.7973,-0.0089,-0.0008,0.027
45744,45.95265,-0.503423,84.92,20.35,6.432,315.3,Sep-16,2266923,2019-08-12 11:02:29:413,-0.1788,0.731,9.5629,-0.2397,0.3552,9.7973,-0.0089,-0.0008,0.027
45745,45.95265,-0.503423,84.92,20.35,6.432,315.3,Sep-16,2266923,2019-08-12 11:02:29:413,-0.1788,0.731,9.5629,-0.2397,0.3552,9.7973,-0.0089,-0.0008,0.027
45746,45.95265,-0.503423,84.92,20.35,6.432,315.3,Sep-16,2267002,2019-08-12 11:02:29:492,-0.1788,0.731,9.5629,-0.2397,0.3552,9.7973,-0.0089,-0.0008,0.027
45747,45.95265,-0.503423,84.92,20.35,6.432,315.3,Sep-16,2267407,2019-08-12 11:02:29:897,-0.1788,0.731,9.5629,-0.2397,0.3552,9.7973,-0.0089,-0.0008,0.027
45748,45.95265,-0.503423,84.92,20.35,6.432,315.3,Sep-16,2267408,2019-08-12 11:02:29:898,-0.1788,0.731,9.5629,-0.2397,0.3552,9.7973,-0.0089,-0.0008,0.027
45749,45.95265,-0.503423,84.92,20.35,6.432,315.3,Sep-16,2267408,2019-08-12 11:02:29:898,-0.1788,0.731,9.5629,-0.2397,0.3552,9.7973,-0.0089,-0.0008,0.027
45750,45.95265,-0.503423,84.92,20.35,6.432,315.3,Sep-16,2267409,2019-08-12 11:02:29:899,-0.1788,0.731,9.5629,-0.2397,0.3552,9.7973,-0.0089,-0.0008,0.027
45751,45.95265,-0.503423,84.92,20.35,6.432,315.3,Sep-16,2267409,2019-08-12 11:02:29:899,-0.1788,0.731,9.5629,-0.2397,0.3552,9.7973,-0.0089,-0.0008,0.027
45752,45.95265,-0.503423,84.92,20.35,6.432,315.3,Sep-16,2267410,2019-08-12 11:02:29:900,-0.1788,0.731,9.5629,-0.2397,0.3552,9.7973,-0.0089,-0.0008,0.027
45753,45.95265,-0.503423,84.92,20.35,6.432,315.3,Sep-16,2267410,2019-08-12 11:02:29:900,-0.1788,0.731,9.5629,-0.2397,0.3552,9.7973,-0.0089,-0.0008,0.027
45754,45.95265,-0.503423,84.92,20.35,6.432,315.3,Sep-16,2267411,2019-08-12 11:02:29:901,-0.1788,0.731,9.5629,-0.2397,0.3552,9.7973,-0.0089,-0.0008,0.027
45755,45.95265,-0.503423,84.92,20.35,6.432,315.3,Sep-16,2267411,2019-08-12 11:02:29:901,-0.1788,0.731,9.5629,-0.2397,0.3552,9.7973,-0.0089,-0.0008,0.027
45756,45.954674,-0.507481,92.11,20.71,12.864,295.9,0 / 16,2267478,2019-08-12 11:02:29:968,-0.1788,0.731,9.5629,-0.2397,0.3552,9.7973,-0.0089,-0.0008,0.027
45757,45.954674,-0.507481,92.11,20.71,12.864,295.9,0 / 16,2267578,2019-08-12 11:02:30:068,-0.1788,0.731,9.5629,-0.2397,0.3552,9.7973,-0.0089,-0.0008,0.027
45758,45.954674,-0.507481,92.11,20.71,12.864,295.9,0 / 16,2267677,2019-08-12 11:02:30:167,-0.4074,0.3414,10.1327,-0.3752,0.3779,9.7922,-0.0163,0.0035,0.0164
45759,45.954674,-0.507481,92.11,20.71,12.864,295.9,0 / 16,2267777,2019-08-12 11:02:30:267,-0.3458,0.7711,10.2315,-0.3721,0.3891,9.7919,0.022,-0.005,0.0281
45760,45.954674,-0.507481,92.11,20.71,12.864,295.9,0 / 16,2267877,2019-08-12 11:02:30:367,-0.3458,0.7711,10.2315,-0.3721,0.3891,9.7919,0.022,-0.005,0.0281
45761,45.954674,-0.507481,92.11,20.71,12.864,295.9,0 / 16,2267978,2019-08-12 11:02:30:468,-0.2704,0.5377,10.1441,-0.3753,0.4095,9.7909,0.0082,-0.0135,0.027
45762,45.954674,-0.507481,92.11,20.71,12.864,295.9,0 / 16,2268353,2019-08-12 11:02:30:843,-0.2494,0.5377,9.7383,-0.3851,0.408,9.7906,-0.0036,0.0109,0.027
45763,45.954674,-0.507481,92.11,20.71,12.864,295.9,0 / 16,2268354,2019-08-12 11:02:30:844,-0.2494,0.5377,9.7383,-0.3851,0.408,9.7906,-0.0036,0.0109,0.027
45764,45.954674,-0.507481,92.11,20.71,12.864,295.9,0 / 16,2268355,2019-08-12 11:02:30:845,-0.2494,0.5377,9.7383,-0.3851,0.408,9.7906,-0.0036,0.0109,0.027
45765,45.954674,-0.507481,92.11,20.71,12.864,295.9,0 / 16,2268355,2019-08-12 11:02:30:845,-0.2494,0.5377,9.7383,-0.3851,0.408,9.7906,-0.0036,0.0109,0.027
45766,45.954674,-0.507481,92.11,20.71,12.864,295.9,0 / 16,2268356,2019-08-12 11:02:30:846,-0.2494,0.5377,9.7383,-0.3851,0.408,9.7906,-0.0036,0.0109,0.027
45767,45.954674,-0.507481,92.11,20.71,12.864,295.9,0 / 16,2268356,2019-08-12 11:02:30:846,-0.2494,0.5377,9.7383,-0.3851,0.408,9.7906,-0.0036,0.0109,0.027
45768,45.954674,-0.507481,92.11,20.71,12.864,295.9,0 / 16,2268358,2019-08-12 11:02:30:848,-0.2494,0.5377,9.7383,-0.3851,0.408,9.7906,-0.0036,0.0109,0.027
45769,45.954674,-0.507481,92.11,20.71,12.864,295.9,0 / 16,2268359,2019-08-12 11:02:30:849,-0.2494,0.5377,9.7383,-0.3851,0.408,9.7906,-0.0036,0.0109,0.027
45770,45.954674,-0.507481,92.11,20.71,12.864,295.9,0 / 16,2268360,2019-08-12 11:02:30:850,-0.2494,0.5377,9.7383,-0.3851,0.408,9.7906,-0.0036,0.0109,0.027
45771,45.954674,-0.507481,92.11,20.71,12.864,295.9,0 / 16,2268360,2019-08-12 11:02:30:850,-0.2494,0.5377,9.7383,-0.3851,0.408,9.7906,-0.0036,0.0109,0.027
45772,45.954674,-0.507481,92.11,20.71,12.864,295.9,0 / 16,2268361,2019-08-12 11:02:30:851,-0.2494,0.5377,9.7383,-0.3851,0.408,9.7906,-0.0036,0.0109,0.027
45773,45.954674,-0.507481,92.11,20.71,12.864,295.9,0 / 16,2268361,2019-08-12 11:02:30:851,-0.2494,0.5377,9.7383,-0.3851,0.408,9.7906,-0.0036,0.0109,0.027
45774,45.954674,-0.507481,92.11,20.71,12.864,295.9,0 / 16,2268362,2019-08-12 11:02:30:852,-0.2494,0.5377,9.7383,-0.3851,0.408,9.7906,-0.0036,0.0109,0.027
45775,45.954674,-0.507481,92.11,20.71,12.864,295.9,0 / 16,2268362,2019-08-12 11:02:30:852,-0.2494,0.5377,9.7383,-0.3851,0.408,9.7906,-0.0036,0.0109,0.027
45776,45.954674,-0.507481,92.11,20.71,12.864,295.9,0 / 16,2268362,2019-08-12 11:02:30:852,-0.2494,0.5377,9.7383,-0.3851,0.408,9.7906,-0.0036,0.0109,0.027
45777,45.954674,-0.507481,92.11,20.71,12.864,295.9,0 / 16,2268363,2019-08-12 11:02:30:853,-0.2494,0.5377,9.7383,-0.3851,0.408,9.7906,-0.0036,0.0109,0.027
45778,45.954674,-0.507481,92.11,20.71,12.864,295.9,0 / 16,2268364,2019-08-12 11:02:30:854,-0.2494,0.5377,9.7383,-0.3851,0.408,9.7906,-0.0036,0.0109,0.027
45779,45.954674,-0.507481,92.11,20.71,12.864,295.9,0 / 16,2268365,2019-08-12 11:02:30:855,-0.2494,0.5377,9.7383,-0.3851,0.408,9.7906,-0.0036,0.0109,0.027
45780,45.954674,-0.507481,92.11,20.71,12.864,295.9,0 / 16,2268366,2019-08-12 11:02:30:856,-0.2494,0.5377,9.7383,-0.3851,0.408,9.7906,-0.0036,0.0109,0.027
45781,45.954674,-0.507481,92.11,20.71,12.864,295.9,0 / 16,2268368,2019-08-12 11:02:30:858,-0.2494,0.5377,9.7383,-0.3851,0.408,9.7906,-0.0036,0.0109,0.027
45782,45.954674,-0.507481,92.11,20.71,12.864,295.9,0 / 16,2268368,2019-08-12 11:02:30:858,-0.2494,0.5377,9.7383,-0.3851,0.408,9.7906,-0.0036,0.0109,0.027
45783,45.954674,-0.507481,92.11,20.71,12.864,295.9,0 / 16,2268369,2019-08-12 11:02:30:859,-0.2494,0.5377,9.7383,-0.3851,0.408,9.7906,-0.0036,0.0109,0.027
45784,45.954674,-0.507481,92.11,20.71,12.864,295.9,0 / 16,2268370,2019-08-12 11:02:30:860,-0.2494,0.5377,9.7383,-0.3851,0.408,9.7906,-0.0036,0.0109,0.027
45785,45.954674,-0.507481,92.11,20.71,12.864,295.9,0 / 16,2268371,2019-08-12 11:02:30:861,-0.2494,0.5377,9.7383,-0.3851,0.408,9.7906,-0.0036,0.0109,0.027
45786,45.954674,-0.507481,92.11,20.71,12.864,295.9,0 / 16,2268371,2019-08-12 11:02:30:861,-0.2494,0.5377,9.7383,-0.3851,0.408,9.7906,-0.0036,0.0109,0.027
45787,45.954674,-0.507481,92.11,20.71,12.864,295.9,0 / 16,2268372,2019-08-12 11:02:30:862,-0.2494,0.5377,9.7383,-0.3851,0.408,9.7906,-0.0036,0.0109,0.027
45788,45.954674,-0.507481,92.11,20.71,12.864,295.9,0 / 16,2268372,2019-08-12 11:02:30:862,-0.2494,0.5377,9.7383,-0.3851,0.408,9.7906,-0.0036,0.0109,0.027
45789,45.954674,-0.507481,92.11,20.71,12.864,295.9,0 / 16,2268373,2019-08-12 11:02:30:863,-0.2494,0.5377,9.7383,-0.3851,0.408,9.7906,-0.0036,0.0109,0.027
45790,45.954674,-0.507481,92.11,20.71,12.864,295.9,0 / 16,2268373,2019-08-12 11:02:30:863,-0.2494,0.5377,9.7383,-0.3851,0.408,9.7906,-0.0036,0.0109,0.027
45791,45.954674,-0.507481,92.11,20.71,12.864,295.9,0 / 16,2268373,2019-08-12 11:02:30:863,-0.2494,0.5377,9.7383,-0.3851,0.408,9.7906,-0.0036,0.0109,0.027
45792,45.954674,-0.507481,92.11,20.71,12.864,295.9,0 / 16,2268374,2019-08-12 11:02:30:864,-0.2494,0.5377,9.7383,-0.3851,0.408,9.7906,-0.0036,0.0109,0.027
45793,45.954674,-0.507481,92.11,20.71,12.864,295.9,0 / 16,2268374,2019-08-12 11:02:30:864,-0.2494,0.5377,9.7383,-0.3851,0.408,9.7906,-0.0036,0.0109,0.027
45794,45.954674,-0.507481,92.11,20.71,12.864,295.9,0 / 16,2268375,2019-08-12 11:02:30:865,-0.2494,0.5377,9.7383,-0.3851,0.408,9.7906,-0.0036,0.0109,0.027
45795,45.954674,-0.507481,92.11,20.71,12.864,295.9,0 / 16,2268376,2019-08-12 11:02:30:866,-0.2494,0.5377,9.7383,-0.3851,0.408,9.7906,-0.0036,0.0109,0.027
45796,45.954674,-0.507481,92.11,20.71,12.864,295.9,0 / 16,2268376,2019-08-12 11:02:30:866,-0.2494,0.5377,9.7383,-0.3851,0.408,9.7906,-0.0036,0.0109,0.027
45797,45.954674,-0.507481,92.11,20.71,12.864,295.9,0 / 16,2268377,2019-08-12 11:02:30:867,-0.2494,0.5377,9.7383,-0.3851,0.408,9.7906,-0.0036,0.0109,0.027
45798,45.954674,-0.507481,92.11,20.71,12.864,295.9,0 / 16,2268377,2019-08-12 11:02:30:867,-0.2494,0.5377,9.7383,-0.3851,0.408,9.7906,-0.0036,0.0109,0.027
45799,45.954674,-0.507481,92.11,20.71,12.864,295.9,0 / 16,2268378,2019-08-12 11:02:30:868,-0.2494,0.5377,9.7383,-0.3851,0.408,9.7906,-0.0036,0.0109,0.027
45800,45.954674,-0.507481,92.11,20.71,12.864,295.9,0 / 16,2268380,2019-08-12 11:02:30:870,-0.2494,0.5377,9.7383,-0.3851,0.408,9.7906,-0.0036,0.0109,0.027
45801,45.954674,-0.507481,92.11,20.71,12.864,295.9,0 / 16,2268381,2019-08-12 11:02:30:871,-0.2494,0.5377,9.7383,-0.3851,0.408,9.7906,-0.0036,0.0109,0.027
45802,45.954674,-0.507481,92.11,20.71,12.864,295.9,0 / 16,2268381,2019-08-12 11:02:30:871,-0.2494,0.5377,9.7383,-0.3851,0.408,9.7906,-0.0036,0.0109,0.027
45803,45.954674,-0.507481,92.11,20.71,12.864,295.9,0 / 16,2268382,2019-08-12 11:02:30:872,-0.2494,0.5377,9.7383,-0.3851,0.408,9.7906,-0.0036,0.0109,0.027
45804,45.954674,-0.507481,92.11,20.71,12.864,295.9,0 / 16,2268382,2019-08-12 11:02:30:872,-0.2494,0.5377,9.7383,-0.3851,0.408,9.7906,-0.0036,0.0109,0.027
45805,45.954674,-0.507481,92.11,20.71,12.864,295.9,0 / 16,2268383,2019-08-12 11:02:30:873,-0.2494,0.5377,9.7383,-0.3851,0.408,9.7906,-0.0036,0.0109,0.027
45806,45.954674,-0.507481,92.11,20.71,12.864,295.9,0 / 16,2268383,2019-08-12 11:02:30:873,-0.2494,0.5377,9.7383,-0.3851,0.408,9.7906,-0.0036,0.0109,0.027
45807,45.954674,-0.507481,92.11,20.71,12.864,295.9,0 / 16,2268383,2019-08-12 11:02:30:873,-0.2494,0.5377,9.7383,-0.3851,0.408,9.7906,-0.0036,0.0109,0.027
45808,45.954674,-0.507481,92.11,20.71,12.864,295.9,0 / 16,2268384,2019-08-12 11:02:30:874,-0.2494,0.5377,9.7383,-0.3851,0.408,9.7906,-0.0036,0.0109,0.027
45809,45.954674,-0.507481,92.11,20.71,12.864,295.9,0 / 16,2268384,2019-08-12 11:02:30:874,-0.2494,0.5377,9.7383,-0.3851,0.408,9.7906,-0.0036,0.0109,0.027
45810,45.954674,-0.507481,92.11,20.71,12.864,295.9,0 / 16,2268384,2019-08-12 11:02:30:874,-0.2494,0.5377,9.7383,-0.3851,0.408,9.7906,-0.0036,0.0109,0.027
45811,45.954674,-0.507481,92.11,20.71,12.864,295.9,0 / 16,2268385,2019-08-12 11:02:30:875,-0.2494,0.5377,9.7383,-0.3851,0.408,9.7906,-0.0036,0.0109,0.027
45812,45.954674,-0.507481,92.11,20.71,12.864,295.9,0 / 16,2268385,2019-08-12 11:02:30:875,-0.2494,0.5377,9.7383,-0.3851,0.408,9.7906,-0.0036,0.0109,0.027
