,GPS LATITUDE (degrees), GPS LONGITUDE (degrees), GPS ALTITUDE (m), GPS SPEED (Kmh), GPS ACCURACY (m), GPS ORIENTATION (Â°),GPS SATELLITES IN RANGE, TIME SINCE START (ms), DATE (YYYY-MO-DD HH-MI-SS_SSS), ACCELEROMETER X (m/s²) , ACCELEROMETER Y (m/s²), ACCELEROMETER Z (m/s²), GRAVITY X (m/s²), GRAVITY Y (m/s²), GRAVITY Z (m/s²), GYROSCOPE Yaw (rad/s), GYROSCOPE Pitch (rad/s), GYROSCOPE Roll (rad/s), MAGNETIC FIELD X (Î¼T), MAGNETIC FIELD Y (Î¼T), MAGNETIC FIELD Z (Î¼T), ORIENTATION (Yaw) (Â°), ORIENTATION (Pitch) (Â°), ORIENTATION (Roll ) (Â°)
81555,52.374207,-1.553803,141.54,9.53,4,114.45,20 / 21,4636910,2019-09-06 20:37:22:653,-0.3838,-0.6346,10.084,-0.0083,-0.0162,9.8066,0.0067,-0.0068,0.0935,-14.12,-33.44,26.56,312.11,-82.06,166.21
81556,52.374207,-1.553803,141.54,9.53,4,114.45,20 / 21,4637010,2019-09-06 20:37:22:753,-0.581,-0.2447,9.6729,0.0056,-0.0171,9.8066,0.0036,-0.0431,-0.0158,-14.37,-33.0,26.25,312.04,-82.03,167.26
81557,52.374207,-1.553803,141.54,9.53,4,114.45,20 / 21,4637110,2019-09-06 20:37:22:853,-0.0199,0.2183,10.051,-0.0002,-0.0108,9.8066,-0.0495,-0.0304,-0.0611,-14.56,-33.31,26.56,311.88,-81.94,167.65
81558,52.374207,-1.553803,141.54,9.53,4,114.45,20 / 21,4637209,2019-09-06 20:37:22:952,0.4683,-0.2537,9.6262,-0.0012,0.0004,9.8066,0.0042,-0.0007,0.0046,-13.94,-33.12,26.94,314.37,-81.82,168.45
81559,52.374207,-1.553803,141.54,9.53,4,114.45,20 / 21,4637310,2019-09-06 20:37:23:053,-0.1426,0.0399,9.6754,-0.0025,0.0037,9.8065,-0.0028,-0.0665,-0.0095,-14.81,-33.25,26.69,312.11,-81.88,167.92
81560,52.373745,-1.552659,145.85,12.66,3,130.62,20 / 21,4637410,2019-09-06 20:37:23:153,-0.6431,-0.59,9.4642,0.0008,0.0047,9.8066,-0.0045,-0.0445,-0.019,-14.44,-32.69,26.69,312.74,-82.03,166.8
81561,52.373745,-1.552659,145.85,12.66,3,130.62,20 / 21,4637509,2019-09-06 20:37:23:252,0.1115,-0.0683,9.3197,0.0169,0.0127,9.8065,-0.0139,0.0043,0.0043,-14.69,-32.81,25.63,307.67,-82.0,164.92
81562,52.373745,-1.552659,145.85,12.66,3,130.62,20 / 21,4637609,2019-09-06 20:37:23:352,0.1814,-0.2616,9.999,0.0063,0.0034,9.8066,-0.0173,-0.0117,-0.04,-14.31,-33.0,25.88,308.16,-82.0,163.8
81563,52.373745,-1.552659,145.85,12.66,3,130.62,20 / 21,4637710,2019-09-06 20:37:23:453,0.5098,-0.0755,10.2487,-0.002,0.0187,9.8065,-0.0271,-0.0262,-0.0136,-14.44,-33.37,26.13,307.18,-82.05,162.87
81564,52.373745,-1.552659,145.85,12.66,3,130.62,20 / 21,4637810,2019-09-06 20:37:23:553,0.9573,-0.5973,10.0478,0.0225,-0.0225,9.8065,-0.0821,-0.0486,0.0059,-14.06,-33.06,25.81,306.99,-82.01,162.73
81565,52.373745,-1.552659,145.85,12.66,3,130.62,20 / 21,4637910,2019-09-06 20:37:23:653,0.1752,0.7637,9.369,0.0249,-0.0263,9.8065,0.1041,0.0218,0.0583,-13.75,-34.0,26.06,306.8,-81.7,163.09
81566,52.373745,-1.552659,145.85,12.66,3,130.62,20 / 21,4638010,2019-09-06 20:37:23:753,-0.0606,0.3843,9.8099,-0.0241,-0.0098,9.8066,0.011,-0.0377,0.0405,-14.06,-33.37,26.38,308.96,-81.81,164.7
81567,52.373745,-1.552659,145.85,12.66,3,130.62,20 / 21,4638109,2019-09-06 20:37:23:852,0.1197,0.1431,10.0945,-0.0205,0.0055,9.8065,-0.0103,0.025,0.0167,-14.69,-33.37,25.75,308.8,-81.88,166.06
81568,52.373745,-1.552659,145.85,12.66,3,130.62,20 / 21,4638209,2019-09-06 20:37:23:952,0.0401,-0.4685,9.6071,-0.0125,-0.002,9.8066,0.0916,-0.0315,0.0859,-14.19,-33.25,26.75,313.27,-81.9,167.39
81569,52.373745,-1.552659,145.85,12.66,3,130.62,20 / 21,4638309,2019-09-06 20:37:24:052,0.7526,-1.7144,9.4474,-0.0159,-0.0097,9.8066,-0.1134,-0.0183,0.0034,-14.12,-33.0,26.38,313.9,-81.84,169.08
81570,52.373745,-1.552659,145.85,12.66,3,130.62,19 / 21,4638409,2019-09-06 20:37:24:152,-0.6675,-0.5865,9.8128,-0.0036,-0.005,9.8066,-0.0446,0.0257,-0.0025,-14.06,-33.12,26.63,315.67,-81.87,169.55
81571,52.373745,-1.552659,145.85,12.66,3,130.62,19 / 21,4638510,2019-09-06 20:37:24:253,0.238,0.2591,10.0512,-0.0079,0.01,9.8066,0.0381,-0.0211,0.0064,-14.37,-32.87,26.56,315.6,-81.95,169.43
81572,52.373745,-1.552659,145.85,12.66,3,130.62,19 / 21,4638609,2019-09-06 20:37:24:352,0.2416,-0.0344,10.0684,-0.0058,0.0006,9.8066,0.1022,-0.0201,0.0059,-14.44,-33.56,25.81,315.1,-81.9,170.29
81573,52.373745,-1.552659,145.85,12.66,3,130.62,19 / 21,4638710,2019-09-06 20:37:24:453,0.5114,0.0336,10.1989,-0.0126,0.0093,9.8066,-0.0594,-0.063,0.0726,-14.69,-33.25,26.31,314.13,-81.79,170.91
81574,52.373745,-1.552659,145.85,12.66,3,130.62,19 / 21,4638810,2019-09-06 20:37:24:553,-0.2257,-0.394,9.358,-0.0034,-0.0163,9.8065,-0.0266,-0.068,0.0829,-14.69,-33.37,26.56,317.35,-81.74,172.69
81575,52.373745,-1.552659,145.85,12.66,3,130.62,19 / 21,4638909,2019-09-06 20:37:24:652,-1.5992,0.9292,9.6685,0.0034,-0.0363,9.8065,0.1196,-0.0013,-0.0329,-14.94,-33.31,26.5,319.21,-81.59,174.45
81576,52.373745,-1.552659,145.85,12.66,3,130.62,19 / 21,4639009,2019-09-06 20:37:24:752,1.2348,-0.097,9.3099,0.0224,0.0219,9.8065,-0.097,-0.1025,0.122,-14.31,-34.5,26.44,320.61,-81.83,175.19
81577,52.373745,-1.552659,145.85,12.66,3,130.62,19 / 21,4639110,2019-09-06 20:37:24:853,0.0663,-0.781,9.2779,0.0011,-0.0227,9.8065,-0.0271,-0.0559,-0.018,-14.31,-34.37,25.94,320.05,-81.79,174.73
81578,52.373745,-1.552659,145.85,12.66,3,130.62,19 / 21,4639210,2019-09-06 20:37:24:953,-0.2256,0.7667,10.0316,0.0084,0.0121,9.8066,0.018,-0.0862,-0.0331,-14.12,-34.44,25.94,319.22,-82.02,173.82
81579,52.373745,-1.552659,145.85,12.66,3,130.62,19 / 21,4639310,2019-09-06 20:37:25:053,-0.696,0.4811,9.2878,0.003,-0.0105,9.8066,0.0233,-0.0051,0.0061,-13.5,-34.5,26.63,321.82,-81.8,173.58
81580,52.373745,-1.552659,145.85,12.66,3,130.62,19 / 20,4639409,2019-09-06 20:37:25:152,-0.3352,-0.2855,10.1848,0.0001,-0.0105,9.8066,-0.0494,-0.0333,-0.0074,-14.12,-34.19,27.13,320.27,-81.69,173.92
81581,52.373745,-1.552659,145.85,12.66,3,130.62,19 / 20,4639510,2019-09-06 20:37:25:253,-0.3729,0.2765,9.511,0.0098,0.0037,9.8066,-0.0612,-0.0358,0.0346,-14.69,-32.94,26.75,318.5,-81.69,173.75
81582,52.373745,-1.552659,145.85,12.66,3,130.62,19 / 20,4639609,2019-09-06 20:37:25:352,-0.0416,0.7408,9.2669,0.0009,0.0179,9.8066,-0.0652,-0.0615,-0.0519,-14.69,-33.44,27.13,317.31,-81.73,172.68
81583,52.373745,-1.552659,145.85,12.66,3,130.62,19 / 20,4639710,2019-09-06 20:37:25:453,-1.2545,0.2972,9.7579,0.0114,0.007,9.8066,0.0117,-0.05,-0.0305,-14.62,-34.56,26.94,315.77,-81.68,171.73
81584,52.373745,-1.552659,145.85,12.66,3,130.62,19 / 20,4639809,2019-09-06 20:37:25:552,-1.0152,-0.3832,9.9661,0.0114,0.0069,9.8066,0.0035,-0.0571,0.0734,-14.37,-34.0,27.13,315.96,-81.64,170.19
81585,52.373745,-1.552659,145.85,12.66,3,130.62,19 / 20,4639909,2019-09-06 20:37:25:652,-0.5368,0.8319,9.8844,-0.0006,0.0055,9.8065,0.0318,-0.0648,-0.0132,-13.94,-34.0,27.44,315.69,-81.69,169.91
81586,52.373745,-1.552659,145.85,12.66,3,130.62,19 / 20,4640009,2019-09-06 20:37:25:752,-0.9868,0.3433,10.1087,0.0045,0.0134,9.8066,0.0739,-0.0893,0.0211,-13.06,-34.31,26.94,317.41,-81.61,169.9
81587,52.373745,-1.552659,145.85,12.66,3,130.62,19 / 20,4640110,2019-09-06 20:37:25:853,-0.4407,0.1044,9.9067,0.0011,0.0001,9.8066,-0.0184,-0.0522,0.0174,-13.37,-34.37,26.56,316.78,-81.58,169.36
81588,52.373745,-1.552659,145.85,12.66,3,130.62,19 / 20,4640210,2019-09-06 20:37:25:953,-0.4528,0.0589,9.968,0.0034,-0.001,9.8066,0.0757,-0.0457,-0.0192,-13.56,-33.25,26.88,315.19,-81.43,169.5
81589,52.373745,-1.552659,145.85,12.66,3,130.62,19 / 20,4640310,2019-09-06 20:37:26:053,0.3435,-0.5156,9.8857,-0.0082,0.0179,9.8066,-0.1242,0.0151,-0.0052,-13.0,-33.94,27.06,316.57,-81.52,169.23
81590,52.373745,-1.552659,145.85,12.66,3,130.62,19 / 21,4640409,2019-09-06 20:37:26:152,-0.1523,-0.1257,9.9113,0.0255,-0.0322,9.8065,-0.1053,-0.0686,0.0172,-13.0,-34.37,27.31,316.28,-81.47,169.02
81591,52.373745,-1.552659,145.85,12.66,3,130.62,19 / 21,4640510,2019-09-06 20:37:26:253,-0.4019,0.1949,9.126,0.022,-0.0344,9.8066,0.0745,-0.0362,0.0114,-13.56,-34.12,26.81,314.55,-81.47,169.1
81592,52.373745,-1.552659,145.85,12.66,3,130.62,19 / 21,4640610,2019-09-06 20:37:26:353,-0.737,0.3163,9.6268,-0.018,0.0281,9.8065,0.0148,-0.044,0.0077,-13.69,-33.94,26.44,313.51,-81.52,169.24
81593,52.373745,-1.552659,145.85,12.66,3,130.62,19 / 21,4640710,2019-09-06 20:37:26:453,-0.6842,0.436,10.2006,-0.0173,0.0193,9.8065,-0.0739,-0.0551,-0.0242,-12.94,-34.44,26.69,316.36,-81.79,168.82
81594,52.373745,-1.552659,145.85,12.66,3,130.62,19 / 21,4640810,2019-09-06 20:37:26:553,-1.5685,-0.0524,10.1153,0.0036,-0.0101,9.8065,-0.0292,-0.0219,-0.0199,-12.69,-34.37,26.44,316.55,-81.87,169.96
81595,52.373745,-1.552659,145.85,12.66,3,130.62,19 / 21,4640909,2019-09-06 20:37:26:652,-0.1805,1.7167,9.6874,-0.0038,-0.0045,9.8066,0.0422,-0.1005,0.11,-12.75,-34.06,26.56,317.8,-81.84,170.04
81596,52.373745,-1.552659,145.85,12.66,3,130.62,19 / 21,4641009,2019-09-06 20:37:26:752,-0.9232,0.264,10.3663,-0.0059,-0.0081,9.8066,-0.0196,-0.0031,0.0127,-13.75,-34.31,27.88,318.94,-81.71,171.73
81597,52.373745,-1.552659,145.85,12.66,3,130.62,19 / 21,4641110,2019-09-06 20:37:26:853,-0.7337,-0.1488,9.7876,-0.0125,-0.001,9.8066,-0.0733,-0.1808,-0.0088,-13.06,-33.06,27.25,320.27,-81.74,172.1
81598,52.373745,-1.552659,145.85,12.66,3,130.62,19 / 21,4641210,2019-09-06 20:37:26:953,-0.1781,1.454,9.9748,0.0224,-0.0159,9.8066,-0.2285,-0.0134,-0.0319,-13.06,-33.25,27.31,322.16,-81.6,173.85
81599,52.373745,-1.552659,145.85,12.66,3,130.62,19 / 21,4641309,2019-09-06 20:37:27:052,0.4562,0.62,9.831,0.0137,-0.0233,9.8066,0.0604,-0.2179,0.0863,-12.94,-33.69,27.25,321.03,-81.53,173.11
81600,52.373745,-1.552659,145.85,12.66,3,130.62,19 / 21,4641410,2019-09-06 20:37:27:153,-0.9925,-0.6227,9.5136,-0.0017,-0.0068,9.8065,-0.0096,-0.0262,-0.1128,-13.19,-33.81,27.25,322.85,-81.48,174.71
81601,52.373745,-1.552659,145.85,12.66,3,130.62,19 / 21,4641509,2019-09-06 20:37:27:252,-0.8564,1.0981,10.3851,0.033,-0.0031,9.8065,0.1512,-0.1044,0.1434,-13.0,-33.12,27.06,321.41,-81.42,173.34
81602,52.373745,-1.552659,145.85,12.66,3,130.62,19 / 21,4641610,2019-09-06 20:37:27:353,-0.9022,0.2165,9.9275,-0.0297,0.0235,9.8065,0.0034,-0.077,-0.0631,-12.94,-33.87,27.31,322.56,-81.42,174.51
81603,52.373745,-1.552659,145.85,12.66,3,130.62,19 / 21,4641709,2019-09-06 20:37:27:452,0.0328,-0.0458,9.2766,-0.0205,0.0358,9.8065,0.0086,-0.1064,0.0703,-13.31,-33.69,27.13,323.03,-81.66,174.74
81604,52.373745,-1.552659,145.85,12.66,3,130.62,19 / 21,4641810,2019-09-06 20:37:27:553,-1.0494,0.1913,10.6752,-0.0052,-0.0111,9.8066,-0.0431,-0.0901,-0.0642,-12.5,-33.25,26.56,326.2,-81.72,175.6
81605,52.373745,-1.552659,145.85,12.66,3,130.62,19 / 21,4641910,2019-09-06 20:37:27:653,-0.2926,-0.5941,9.8148,-0.0027,0.0198,9.8065,0.0773,-0.0681,0.0712,-13.19,-33.44,27.56,325.19,-81.78,175.39
81606,52.373745,-1.552659,145.85,12.66,3,130.62,19 / 21,4642010,2019-09-06 20:37:27:753,0.4079,-1.0536,9.6383,0.0028,-0.0214,9.8066,0.0077,-0.0438,0.0014,-13.25,-33.56,27.81,324.93,-81.68,175.39
81607,52.373745,-1.552659,145.85,12.66,3,130.62,19 / 21,4642110,2019-09-06 20:37:27:853,-1.3292,-0.5452,10.3036,-0.002,-0.013,9.8066,0.1256,-0.047,-0.0017,-13.25,-33.75,27.44,324.74,-81.75,176.14
81608,52.373745,-1.552659,145.85,12.66,3,130.62,19 / 21,4642210,2019-09-06 20:37:27:953,-0.7299,-0.7394,9.3077,-0.0108,0.0166,9.8065,0.1426,-0.0906,0.1178,-13.25,-34.25,27.44,325.24,-81.83,176.51
81609,52.373745,-1.552659,145.85,12.66,3,130.62,19 / 21,4642310,2019-09-06 20:37:28:053,-0.113,-0.6503,9.6716,-0.0136,-0.0207,9.8065,-0.0269,-0.0445,0.0295,-12.69,-33.87,28.0,328.26,-81.82,178.17
81610,52.373745,-1.552659,145.85,12.66,3,130.62,19 / 21,4642410,2019-09-06 20:37:28:153,-1.4749,-0.9657,9.6071,0.0051,-0.0033,9.8066,-0.0719,-0.152,0.1168,-12.69,-33.69,28.13,328.82,-81.85,178.63
81611,52.373745,-1.552659,145.85,12.66,3,130.62,19 / 21,4642509,2019-09-06 20:37:28:252,-0.9402,0.2224,9.7791,0.0013,-0.0192,9.8066,0.0279,-0.1218,-0.0766,-12.19,-33.44,28.06,331.8,-81.89,179.39
81612,52.373745,-1.552659,145.85,12.66,3,130.62,19 / 21,4642610,2019-09-06 20:37:28:353,-1.1476,-1.1665,10.0411,0.0137,0.0063,9.8066,0.054,-0.1317,0.1072,-12.5,-33.31,27.69,330.75,-81.88,178.49
81613,52.373745,-1.552659,145.85,12.66,3,130.62,19 / 21,4642710,2019-09-06 20:37:28:453,-1.2116,-0.8375,11.2868,0.0298,-0.0403,9.8065,-0.0837,-0.0412,-0.0314,-12.5,-34.12,27.69,330.13,-81.88,178.09
81614,52.373745,-1.552659,145.85,12.66,3,130.62,19 / 21,4642809,2019-09-06 20:37:28:552,-0.0335,-1.9101,10.5795,0.0359,-0.0433,9.8065,0.0557,-0.0972,-0.0112,-12.12,-34.75,28.88,329.3,-81.43,176.94
81615,52.373745,-1.552659,145.85,12.66,3,130.62,19 / 21,4642910,2019-09-06 20:37:28:653,-0.5606,-0.7642,9.3648,-0.0019,-0.0019,9.8066,-0.0646,-0.0054,0.0128,-12.62,-33.81,28.44,325.84,-81.32,176.43
81616,52.373745,-1.552659,145.85,12.66,3,130.62,19 / 21,4643009,2019-09-06 20:37:28:752,-0.8779,-1.2569,10.0045,-0.0006,-0.0187,9.8066,-0.0572,-0.0719,0.0709,-11.37,-33.56,28.0,330.6,-81.44,177.07
81617,52.373745,-1.552659,145.85,12.66,3,130.62,19 / 21,4643109,2019-09-06 20:37:28:852,-1.0676,0.8469,9.9535,-0.0002,0.0088,9.8065,-0.0344,0.0036,-0.0601,-10.25,-32.94,28.06,333.15,-81.78,177.16
81618,52.373745,-1.552659,145.85,12.66,3,130.62,19 / 21,4643210,2019-09-06 20:37:28:953,-0.5848,-0.0414,9.606,0.0138,-0.029,9.8066,-0.0379,-0.0329,0.0419,-10.94,-33.0,29.44,331.36,-81.94,176.48
81619,52.373745,-1.552659,145.85,12.66,3,130.62,19 / 21,4643310,2019-09-06 20:37:29:053,-0.7078,0.4208,10.0582,0.0137,-0.0221,9.8066,0.0367,-0.0578,-0.0262,-11.12,-33.75,28.63,331.13,-81.68,176.56
81620,52.373745,-1.552659,145.85,12.66,3,130.62,20 / 21,4643410,2019-09-06 20:37:29:153,-0.9164,0.8607,10.0371,-0.0006,0.0018,9.8066,-0.0045,-0.0144,0.0324,-11.37,-32.62,28.63,330.58,-81.66,175.97
81621,52.373745,-1.552659,145.85,12.66,3,130.62,20 / 21,4643509,2019-09-06 20:37:29:252,0.0226,0.3888,9.9769,-0.0056,0.0104,9.8066,0.0236,-0.0576,-0.0169,-10.87,-32.31,29.19,331.13,-81.55,176.37
81622,52.373745,-1.552659,145.85,12.66,3,130.62,20 / 21,4643610,2019-09-06 20:37:29:353,0.1351,0.4017,9.536,0.0042,0.005,9.8066,-0.0343,-0.1031,0.0886,-12.0,-33.44,29.38,328.9,-81.59,176.23
81623,52.373745,-1.552659,145.85,12.66,3,130.62,20 / 21,4643710,2019-09-06 20:37:29:453,-1.5004,0.3931,10.1681,-0.0139,0.0101,9.8065,0.0409,-0.0482,0.0449,-11.12,-32.5,29.13,331.71,-81.75,176.76
81624,52.373745,-1.552659,145.85,12.66,3,130.62,20 / 21,4643810,2019-09-06 20:37:29:553,0.2821,0.4768,9.5204,-0.0257,0.0335,9.8065,-0.0235,-0.0914,0.0208,-10.94,-33.12,28.94,332.06,-81.84,177.14
81625,52.373745,-1.552659,145.85,12.66,3,130.62,20 / 21,4643909,2019-09-06 20:37:29:652,0.2093,-1.0055,9.773,0.0028,-0.023,9.8066,-0.0046,-0.0721,0.0506,-11.44,-33.25,28.75,332.75,-81.71,177.81
81626,52.373745,-1.552659,145.85,12.66,3,130.62,20 / 21,4644009,2019-09-06 20:37:29:752,-1.3379,0.7767,9.7691,-0.0028,-0.0252,9.8065,0.0081,-0.0086,0.004,-10.87,-33.25,28.56,334.09,-81.57,179.02
81627,52.373745,-1.552659,145.85,12.66,3,130.62,20 / 21,4644110,2019-09-06 20:37:29:853,-0.423,0.222,10.3794,-0.0211,0.0168,9.8065,0.0818,-0.0887,0.1018,-11.19,-32.06,29.63,336.88,-81.61,-179.46
81628,52.373745,-1.552659,145.85,12.66,3,130.62,20 / 21,4644209,2019-09-06 20:37:29:952,-0.2995,0.525,9.593,-0.0162,-0.001,9.8066,-0.086,-0.0537,-0.0352,-11.31,-33.12,29.63,338.24,-81.49,-178.16
81629,52.373745,-1.552659,145.85,12.66,3,130.62,20 / 21,4644309,2019-09-06 20:37:30:052,-0.5377,-0.8909,9.363,0.0044,0.0022,9.8066,-0.0492,-0.0823,0.079,-10.69,-33.56,28.63,338.1,-81.47,-177.42
81630,52.373745,-1.552659,145.85,12.66,3,130.62,19 / 21,4644410,2019-09-06 20:37:30:153,-1.0138,-0.0081,10.2637,0.0012,-0.0071,9.8066,-0.0023,-0.0919,-0.007,-10.5,-33.44,29.25,341.21,-81.44,-176.61
81631,52.373745,-1.552659,145.85,12.66,3,130.62,19 / 21,4644509,2019-09-06 20:37:30:252,0.3575,-1.3499,9.6616,-0.003,0.0057,9.8066,0.1214,-0.0747,-0.0544,-10.69,-33.37,29.25,339.18,-81.39,-176.58
81632,52.373745,-1.552659,145.85,12.66,3,130.62,19 / 21,4644610,2019-09-06 20:37:30:353,0.208,-0.1577,9.6086,0.0159,-0.0049,9.8066,-0.0306,-0.1116,0.0393,-10.62,-33.19,29.5,338.93,-81.26,-177.47
81633,52.373745,-1.552659,145.85,12.66,3,130.62,19 / 21,4644710,2019-09-06 20:37:30:453,-0.8272,-0.8814,9.8849,-0.0051,0.0087,9.8066,0.0297,-0.0427,-0.072,-10.5,-33.06,29.88,339.97,-81.48,-178.36
81634,52.373745,-1.552659,145.85,12.66,3,130.62,19 / 21,4644810,2019-09-06 20:37:30:553,-0.5224,-1.0188,10.8711,0.0017,0.0037,9.8066,0.0517,-0.0978,0.0295,-9.44,-33.31,29.56,341.31,-81.51,-178.94
81635,52.373745,-1.552659,145.85,12.66,3,130.62,19 / 21,4644910,2019-09-06 20:37:30:653,0.0498,1.2625,9.4529,0.0217,-0.0191,9.8066,-0.1271,-0.0157,0.007,-10.37,-32.69,29.63,338.06,-81.35,-179.91
81636,52.373745,-1.552659,145.85,12.66,3,130.62,19 / 21,4645010,2019-09-06 20:37:30:753,-0.855,-0.0169,9.4762,0.0052,-0.0343,9.8065,0.1499,-0.0972,0.0329,-11.0,-32.5,30.38,336.41,-81.23,-179.7
81637,52.373745,-1.552659,145.85,12.66,3,130.62,19 / 21,4645109,2019-09-06 20:37:30:852,-0.9975,-1.3847,10.3681,-0.0341,0.0383,9.8065,0.0908,-0.197,0.0465,-11.75,-32.62,29.31,335.71,-81.32,-177.81
81638,52.373745,-1.552659,145.85,12.66,3,130.62,19 / 21,4645209,2019-09-06 20:37:30:952,-0.673,0.4239,9.9724,-0.0269,0.0247,9.8065,0.0613,-0.0727,0.0826,-10.94,-31.81,29.56,341.29,-81.63,-175.71
81639,52.373745,-1.552659,145.85,12.66,3,130.62,19 / 21,4645309,2019-09-06 20:37:31:052,-1.2557,-0.5231,10.4855,-0.0146,-0.0118,9.8065,0.1179,-0.1123,0.1142,-11.06,-31.81,29.44,343.34,-81.49,-173.21
81640,52.373745,-1.552659,145.85,12.66,3,130.62,20 / 21,4645410,2019-09-06 20:37:31:153,-1.0255,-0.214,10.0061,-0.0249,-0.0075,9.8066,-0.043,-0.1148,0.0498,-10.19,-32.69,28.81,347.34,-81.34,-171.46
81641,52.373745,-1.552659,145.85,12.66,3,130.62,20 / 21,4645509,2019-09-06 20:37:31:252,-1.4029,-0.1949,9.6354,-0.0129,0.0019,9.8066,0.0236,-0.092,0.0141,-10.0,-32.56,29.75,349.35,-81.2,-170.4
81642,52.373745,-1.552659,145.85,12.66,3,130.62,20 / 21,4645610,2019-09-06 20:37:31:353,-0.4208,0.0028,10.1061,-0.0096,0.006,9.8065,-0.0639,-0.0646,0.0159,-10.31,-32.94,29.75,350.34,-81.23,-169.58
81643,52.373745,-1.552659,145.85,12.66,3,130.62,20 / 21,4645710,2019-09-06 20:37:31:453,-0.4663,-0.1007,9.6339,0.0066,-0.0279,9.8066,-0.0599,-0.0293,-0.0039,-10.44,-33.12,30.56,351.06,-81.14,-169.57
81644,52.373745,-1.552659,145.85,12.66,3,130.62,20 / 21,4645809,2019-09-06 20:37:31:552,-0.902,0.1259,9.2963,0.0156,-0.0318,9.8065,0.0596,-0.0057,-0.0059,-9.94,-33.0,30.75,350.62,-81.0,-169.91
81645,52.373745,-1.552659,145.85,12.66,3,130.62,20 / 21,4645910,2019-09-06 20:37:31:653,0.2335,0.0893,9.6374,-0.0084,0.0305,9.8065,0.0932,-0.097,0.068,-9.44,-32.31,30.0,351.86,-81.07,-170.06
81646,52.373745,-1.552659,145.85,12.66,3,130.62,20 / 21,4646010,2019-09-06 20:37:31:753,-0.2809,-0.124,9.6342,-0.0081,0.0055,9.8066,-0.007,-0.0621,0.0232,-10.56,-32.5,30.06,348.1,-80.94,-169.75
81647,52.373745,-1.552659,145.85,12.66,3,130.62,20 / 21,4646110,2019-09-06 20:37:31:853,-0.1483,-0.4224,9.7072,-0.0029,-0.0097,9.8065,-0.0831,0.0077,0.0161,-9.81,-32.56,30.19,350.76,-81.01,-169.2
81648,52.373745,-1.552659,145.85,12.66,3,130.62,20 / 21,4646210,2019-09-06 20:37:31:953,-0.6974,0.3023,9.7163,0.0029,-0.0093,9.8066,0.0714,-0.0636,0.013,-9.56,-33.06,30.13,351.05,-81.04,-168.96
81649,52.373745,-1.552659,145.85,12.66,3,130.62,20 / 21,4646310,2019-09-06 20:37:32:053,0.131,0.2987,9.7966,0.002,-0.0103,9.8066,0.027,-0.0437,-0.0287,-9.87,-32.81,30.38,351.7,-81.03,-168.42
81650,52.372944,-1.551573,150.03,13.0,3,156.23,21 / 22,4646410,2019-09-06 20:37:32:153,-0.4018,-0.9192,10.1018,-0.0031,-0.017,9.8065,0.0501,-0.0228,0.0235,-9.62,-32.56,30.44,352.01,-81.06,-168.17
81651,52.372944,-1.551573,150.03,13.0,3,156.23,21 / 22,4646509,2019-09-06 20:37:32:252,-0.4371,1.0408,10.123,0.0036,-0.0057,9.8066,0.088,-0.0781,0.033,-9.44,-33.56,30.81,355.02,-80.86,-167.9
81652,52.372944,-1.551573,150.03,13.0,3,156.23,21 / 22,4646609,2019-09-06 20:37:32:352,-0.2132,0.2352,9.8197,0.002,-0.0034,9.8066,0.0394,-0.0465,0.0414,-9.69,-32.94,30.44,352.47,-80.75,-167.74
81653,52.372944,-1.551573,150.03,13.0,3,156.23,21 / 22,4646710,2019-09-06 20:37:32:453,0.5527,0.6493,8.4044,-0.0118,-0.0066,9.8066,0.0578,-0.1132,0.045,-9.75,-33.12,30.63,354.06,-80.64,-167.0
81654,52.372944,-1.551573,150.03,13.0,3,156.23,21 / 22,4646809,2019-09-06 20:37:32:552,0.426,0.7921,8.894,-0.0235,0.0747,9.8063,-0.0883,-0.1535,0.0629,-9.69,-33.06,30.5,354.84,-80.37,-166.33
81655,52.372944,-1.551573,150.03,13.0,3,156.23,21 / 22,4646910,2019-09-06 20:37:32:653,0.6355,-1.7061,11.1671,0.0007,-0.0118,9.8066,0.2749,-0.2319,0.0527,-9.5,-32.81,31.19,357.55,-80.7,-165.82
81656,52.372944,-1.551573,150.03,13.0,3,156.23,21 / 22,4647009,2019-09-06 20:37:32:752,-2.0583,0.5178,10.328,-0.0148,0.0774,9.8063,0.2246,-0.1382,0.0174,-9.19,-32.56,30.94,357.72,-80.7,-165.68
81657,52.372944,-1.551573,150.03,13.0,3,156.23,21 / 22,4647109,2019-09-06 20:37:32:852,-0.4525,0.2164,9.9129,-0.0201,0.0609,9.8064,0.02,-0.0675,0.0039,-9.0,-32.56,30.81,357.11,-80.53,-166.17
81658,52.372944,-1.551573,150.03,13.0,3,156.23,21 / 22,4647210,2019-09-06 20:37:32:953,-0.4219,-0.0848,10.3895,0.0013,-0.0118,9.8066,0.0792,-0.0417,-0.0109,-8.31,-32.81,30.75,358.34,-80.31,-166.87
81659,52.372944,-1.551573,150.03,13.0,3,156.23,21 / 22,4647310,2019-09-06 20:37:33:053,-0.0918,-0.0418,9.788,0.0041,0.0131,9.8066,-0.0951,-0.089,0.0425,-8.69,-33.5,30.88,355.85,-80.34,-167.19
81660,52.372944,-1.551573,150.03,13.0,3,156.23,20 / 21,4647409,2019-09-06 20:37:33:152,-0.1858,-0.5119,10.1749,0.0007,-0.0118,9.8066,-0.0275,-0.0372,-0.036,-8.56,-33.56,31.13,355.71,-80.34,-167.29
81661,52.372944,-1.551573,150.03,13.0,3,156.23,20 / 21,4647510,2019-09-06 20:37:33:253,-0.6983,0.0327,9.9629,-0.0004,0.0133,9.8066,0.0082,-0.0568,0.0109,-8.69,-33.75,30.81,355.5,-80.31,-167.45
81662,52.372944,-1.551573,150.03,13.0,3,156.23,20 / 21,4647609,2019-09-06 20:37:33:352,-0.1587,1.0153,9.4023,-0.0023,-0.0024,9.8066,-0.0778,-0.0174,0.0091,-8.62,-32.62,31.44,355.33,-80.36,-167.62
81663,52.372944,-1.551573,150.03,13.0,3,156.23,20 / 21,4647709,2019-09-06 20:37:33:452,0.098,0.8566,10.1581,0.001,-0.0145,9.8066,0.1149,0.0118,-0.006,-8.56,-33.12,30.88,355.68,-80.38,-167.33
81664,52.372944,-1.551573,150.03,13.0,3,156.23,20 / 21,4647810,2019-09-06 20:37:33:553,0.3018,0.086,9.6288,0.0001,-0.006,9.8066,0.0261,-0.0194,0.002,-9.06,-33.19,31.31,355.79,-80.44,-167.24
81665,52.372944,-1.551573,150.03,13.0,3,156.23,20 / 21,4647909,2019-09-06 20:37:33:652,0.1751,0.4874,9.8266,-0.0044,-0.0079,9.8066,-0.0627,-0.0222,0.0301,-7.87,-32.81,30.88,358.34,-80.5,-166.88
81666,52.372944,-1.551573,150.03,13.0,3,156.23,20 / 21,4648010,2019-09-06 20:37:33:753,0.2549,1.0132,9.3885,-0.0074,-0.0048,9.8066,-0.1034,0.0,0.0019,-8.31,-33.5,31.0,358.91,-80.63,-166.42
81667,52.372944,-1.551573,150.03,13.0,3,156.23,20 / 21,4648109,2019-09-06 20:37:33:852,0.1545,0.1616,9.7083,-0.0083,0.0036,9.8066,0.0436,-0.0206,0.042,-8.94,-33.44,30.44,357.29,-80.62,-165.51
81668,52.372944,-1.551573,150.03,13.0,3,156.23,20 / 21,4648210,2019-09-06 20:37:33:953,0.1595,-0.3232,10.2893,-0.0127,-0.0196,9.8065,0.0742,-0.0471,-0.0074,-8.44,-33.06,31.25,1.21,-80.57,-164.54
81669,52.372944,-1.551573,150.03,13.0,3,156.23,20 / 21,4648310,2019-09-06 20:37:34:053,0.6022,0.6375,10.1061,-0.0053,-0.0028,9.8066,-0.0368,0.0167,0.0703,-8.44,-32.56,31.0,2.04,-80.5,-163.87
81670,52.372944,-1.551573,150.03,13.0,3,156.23,20 / 21,4648409,2019-09-06 20:37:34:152,0.4016,0.074,10.3819,-0.0084,-0.0291,9.8066,-0.0698,0.0519,0.0723,-8.75,-32.62,31.13,0.94,-80.31,-163.05
81671,52.372944,-1.551573,150.03,13.0,3,156.23,20 / 21,4648509,2019-09-06 20:37:34:252,-1.4251,-0.0583,10.2328,-0.0114,0.0005,9.8065,-0.0543,0.0137,-0.0952,-8.81,-32.37,30.56,1.86,-80.36,-162.29
81672,52.372944,-1.551573,150.03,13.0,3,156.23,20 / 21,4648610,2019-09-06 20:37:34:353,-0.9633,1.1779,10.3792,0.0084,0.0063,9.8066,0.1185,-0.0506,0.0109,-8.31,-32.19,31.44,3.54,-80.35,-162.63
81673,52.372944,-1.551573,150.03,13.0,3,156.23,20 / 21,4648710,2019-09-06 20:37:34:453,-0.8131,0.9037,10.2453,0.0091,0.008,9.8066,-0.0448,-0.0125,-0.033,-8.31,-32.12,31.56,3.31,-80.32,-163.24
81674,52.372944,-1.551573,150.03,13.0,3,156.23,20 / 21,4648810,2019-09-06 20:37:34:553,0.3742,0.4275,10.0143,0.014,0.0054,9.8066,0.0598,0.0193,-0.0571,-8.31,-32.06,31.13,1.24,-80.31,-164.52
81675,52.372944,-1.551573,150.03,13.0,3,156.23,20 / 21,4648909,2019-09-06 20:37:34:652,-0.5193,1.1511,9.8657,0.0093,0.0,9.8066,0.0049,-0.0198,-0.0484,-8.5,-32.0,31.75,359.81,-80.3,-166.12
81676,52.372944,-1.551573,150.03,13.0,3,156.23,20 / 21,4649010,2019-09-06 20:37:34:753,0.9211,-0.2933,9.9595,0.0039,0.0044,9.8066,0.0784,-0.0035,-0.0024,-8.56,-33.06,31.31,356.64,-80.17,-166.54
81677,52.372944,-1.551573,150.03,13.0,3,156.23,20 / 21,4649110,2019-09-06 20:37:34:853,0.3776,-0.7289,9.8107,-0.007,0.005,9.8066,-0.2029,0.0249,-0.031,-8.56,-32.12,30.81,356.87,-80.11,-166.36
81678,52.372944,-1.551573,150.03,13.0,3,156.23,20 / 21,4649210,2019-09-06 20:37:34:953,0.6041,0.8289,8.8365,0.0008,-0.026,9.8065,-0.2283,0.0308,0.0456,-8.0,-32.94,31.38,359.14,-79.97,-166.22
81679,52.372944,-1.551573,150.03,13.0,3,156.23,20 / 21,4649310,2019-09-06 20:37:35:053,0.1618,1.7316,9.3324,-0.0064,-0.0271,9.8066,0.1118,-0.1011,0.1095,-8.56,-32.31,31.56,358.85,-80.0,-165.24
81680,52.372944,-1.551573,150.03,13.0,3,156.23,19 / 21,4649409,2019-09-06 20:37:35:152,0.4071,0.9801,9.9801,-0.024,0.0209,9.8065,-0.0297,0.0413,-0.0826,-9.25,-32.62,30.94,0.15,-80.1,-163.69
81681,52.372944,-1.551573,150.03,13.0,3,156.23,19 / 21,4649509,2019-09-06 20:37:35:252,0.7889,0.7049,10.1847,-0.0095,-0.0013,9.8065,-0.0178,-0.0171,0.0945,-9.06,-32.06,29.63,0.55,-80.15,-162.86
81682,52.372944,-1.551573,150.03,13.0,3,156.23,19 / 21,4649610,2019-09-06 20:37:35:353,-0.2848,1.783,9.9169,-0.0057,-0.0354,9.8065,-0.0812,0.0289,0.0144,-7.69,-31.87,30.44,3.33,-79.89,-162.39
81683,52.372944,-1.551573,150.03,13.0,3,156.23,19 / 21,4649709,2019-09-06 20:37:35:452,-0.0429,0.6449,9.9693,0.0052,-0.0228,9.8066,0.0577,-0.0158,-0.0283,-8.19,-32.62,31.25,4.05,-79.87,-162.28
81684,52.372944,-1.551573,150.03,13.0,3,156.23,19 / 21,4649809,2019-09-06 20:37:35:552,0.3872,0.763,9.8681,-0.0034,0.0188,9.8065,0.0631,-0.0421,-0.0186,-8.31,-32.44,30.94,3.27,-80.1,-162.87
81685,52.372944,-1.551573,150.03,13.0,3,156.23,19 / 21,4649909,2019-09-06 20:37:35:652,-0.3013,-0.0513,9.9526,0.0021,0.0303,9.8065,-0.0783,0.0333,-0.0221,-9.25,-32.06,31.56,1.23,-80.19,-163.28
81686,52.372944,-1.551573,150.03,13.0,3,156.23,19 / 21,4650010,2019-09-06 20:37:35:753,0.0068,0.5184,9.7231,0.0148,-0.0146,9.8066,-0.0822,-0.024,0.0286,-9.25,-32.31,30.63,358.84,-80.17,-164.76
81687,52.372944,-1.551573,150.03,13.0,3,156.23,19 / 21,4650109,2019-09-06 20:37:35:852,0.8518,0.6438,9.7711,0.0016,-0.0086,9.8066,-0.0023,0.0102,-0.0375,-7.94,-32.37,30.38,0.46,-80.26,-164.7
81688,52.372944,-1.551573,150.03,13.0,3,156.23,19 / 21,4650209,2019-09-06 20:37:35:952,-0.2166,0.6112,9.9993,-0.0096,0.0106,9.8065,0.0251,-0.0393,0.0299,-7.12,-33.0,31.0,2.84,-80.36,-164.97
81689,52.372944,-1.551573,150.03,13.0,3,156.23,19 / 21,4650309,2019-09-06 20:37:36:052,0.4675,0.7181,9.7464,-0.0073,0.0046,9.8066,-0.0179,0.0489,0.0461,-7.94,-33.12,30.81,1.41,-80.31,-164.38
81690,52.372944,-1.551573,150.03,13.0,3,156.23,19 / 21,4650410,2019-09-06 20:37:36:153,1.1036,0.0247,9.7021,-0.0101,-0.0101,9.8065,0.0122,-0.0492,0.0504,-8.31,-32.56,31.44,1.4,-80.24,-164.39
81691,52.372944,-1.551573,150.03,13.0,3,156.23,19 / 21,4650509,2019-09-06 20:37:36:252,-0.4999,1.0294,9.7189,-0.0026,-0.0158,9.8066,0.0742,0.0338,-0.0378,-7.56,-33.0,30.75,2.13,-80.16,-163.8
81692,52.372944,-1.551573,150.03,13.0,3,156.23,19 / 21,4650609,2019-09-06 20:37:36:352,-0.0377,-0.1385,9.8848,0.0031,0.0282,9.8066,0.0711,0.023,0.0981,-8.44,-32.94,30.88,1.74,-80.1,-164.13
81693,52.372944,-1.551573,150.03,13.0,3,156.23,19 / 21,4650709,2019-09-06 20:37:36:452,-0.026,-0.3035,9.7948,-0.0114,0.0141,9.8066,-0.0957,0.0258,-0.0983,-7.69,-32.37,30.81,1.89,-80.21,-163.99
81694,52.372944,-1.551573,150.03,13.0,3,156.23,19 / 21,4650809,2019-09-06 20:37:36:552,-0.0628,0.0985,10.1059,0.0049,0.0021,9.8066,-0.0238,-0.0997,0.0432,-7.69,-32.56,31.25,1.71,-80.31,-164.14
81695,52.372944,-1.551573,150.03,13.0,3,156.23,19 / 21,4650909,2019-09-06 20:37:36:652,0.9896,-1.0039,10.4432,0.0004,-0.0041,9.8066,0.011,0.0533,0.0044,-8.19,-32.75,30.94,1.76,-80.29,-164.1
81696,52.372944,-1.551573,150.03,13.0,3,156.23,19 / 21,4651010,2019-09-06 20:37:36:753,0.484,0.3618,9.5869,-0.0059,-0.034,9.8066,-0.0262,-0.0452,0.0884,-8.62,-32.44,31.38,359.34,-80.08,-164.35
81697,52.372944,-1.551573,150.03,13.0,3,156.23,19 / 21,4651110,2019-09-06 20:37:36:853,-0.8258,-0.0927,10.2638,-0.0149,0.0068,9.8066,0.107,-0.0429,0.0149,-8.5,-32.44,31.25,3.07,-79.94,-163.04
81698,52.372944,-1.551573,150.03,13.0,3,156.23,19 / 21,4651209,2019-09-06 20:37:36:952,0.4854,0.15,9.9402,-0.009,0.0128,9.8066,0.0926,0.0301,0.0302,-9.12,-32.37,30.81,1.62,-79.92,-162.5
81699,52.372944,-1.551573,150.03,13.0,3,156.23,19 / 21,4651310,2019-09-06 20:37:37:053,0.7082,-0.9055,9.6203,-0.0061,-0.0087,9.8066,0.0049,0.0038,-0.002,-9.06,-32.06,31.19,2.53,-79.92,-161.76
81700,52.372944,-1.551573,150.03,13.0,3,156.23,20 / 21,4651409,2019-09-06 20:37:37:152,-0.4278,0.7556,10.1445,-0.0057,0.0262,9.8065,0.0552,-0.0029,0.0252,-8.44,-31.94,31.5,5.53,-79.98,-161.45
81701,52.372944,-1.551573,150.03,13.0,3,156.23,20 / 21,4651510,2019-09-06 20:37:37:253,1.0293,-1.218,9.6614,-0.0002,0.0266,9.8066,-0.0055,0.0183,-0.0877,-8.19,-31.69,31.19,4.72,-79.99,-161.7
81702,52.372944,-1.551573,150.03,13.0,3,156.23,20 / 21,4651609,2019-09-06 20:37:37:352,0.1608,-0.1198,10.0363,0.0091,0.0228,9.8066,0.0381,0.0793,0.0438,-8.87,-32.12,30.75,1.82,-80.14,-162.33
81703,52.372944,-1.551573,150.03,13.0,3,156.23,20 / 21,4651709,2019-09-06 20:37:37:452,-0.2296,-1.3684,9.6009,-0.0184,0.0241,9.8065,-0.0242,0.005,-0.0857,-7.62,-32.56,30.25,3.46,-80.26,-162.28
81704,52.372944,-1.551573,150.03,13.0,3,156.23,20 / 21,4651810,2019-09-06 20:37:37:553,-0.2644,1.0232,10.1826,0.0052,0.0111,9.8066,-0.1636,-0.0738,-0.0371,-8.25,-32.81,30.88,4.61,-80.24,-161.79
81705,52.372944,-1.551573,150.03,13.0,3,156.23,20 / 21,4651910,2019-09-06 20:37:37:653,1.9067,0.8948,9.5612,0.0108,0.0208,9.8065,-0.0128,-0.0577,0.0389,-7.81,-33.44,31.63,4.48,-80.53,-162.28
81706,52.372944,-1.551573,150.03,13.0,3,156.23,20 / 21,4652010,2019-09-06 20:37:37:753,0.143,1.0107,9.34,-0.004,0.0144,9.8066,0.1588,-0.0853,-0.0242,-7.87,-33.69,31.5,4.28,-80.64,-162.46
81707,52.372944,-1.551573,150.03,13.0,3,156.23,20 / 21,4652109,2019-09-06 20:37:37:852,1.3988,-0.3498,9.7894,0.0102,0.0544,9.8064,-0.1347,-0.0832,0.1131,-8.0,-32.81,31.19,2.38,-80.6,-163.58
81708,52.372944,-1.551573,150.03,13.0,3,156.23,20 / 21,4652209,2019-09-06 20:37:37:952,-0.45,1.2757,10.9398,-0.0048,0.0013,9.8066,0.0518,-0.0865,-0.0228,-8.44,-32.94,31.38,2.06,-80.56,-163.85
81709,52.372944,-1.551573,150.03,13.0,3,156.23,20 / 21,4652309,2019-09-06 20:37:38:052,0.5744,0.7803,10.1515,-0.0062,0.0302,9.8066,-0.0279,-0.009,-0.0825,-7.81,-32.62,31.0,1.99,-80.53,-163.91
81710,52.372944,-1.551573,150.03,13.0,3,156.23,21 / 22,4652409,2019-09-06 20:37:38:152,-0.444,-1.2559,10.2168,-0.0072,-0.0045,9.8066,0.166,-0.0491,0.1393,-8.44,-32.87,31.31,1.14,-80.39,-164.61
81711,52.372944,-1.551573,150.03,13.0,3,156.23,21 / 22,4652510,2019-09-06 20:37:38:253,-0.1866,0.3196,10.2454,-0.0215,0.0359,9.8065,-0.1717,0.0314,-0.0451,-8.94,-33.25,31.69,1.21,-80.42,-163.3
81712,52.372944,-1.551573,150.03,13.0,3,156.23,21 / 22,4652609,2019-09-06 20:37:38:352,0.0482,0.4991,10.065,0.0046,-0.0227,9.8066,0.028,-0.0587,0.0889,-8.44,-33.19,31.56,3.19,-80.41,-163.35
81713,52.372944,-1.551573,150.03,13.0,3,156.23,21 / 22,4652710,2019-09-06 20:37:38:453,-0.7763,1.1864,9.8339,0.0022,-0.0389,9.8065,0.0239,-0.0405,0.0289,-8.44,-33.12,32.13,3.81,-80.32,-162.84
81714,52.372944,-1.551573,150.03,13.0,3,156.23,21 / 22,4652810,2019-09-06 20:37:38:553,0.7554,0.0343,10.0191,-0.0084,0.0104,9.8066,0.073,-0.0234,-0.0236,-8.87,-31.75,30.88,1.65,-80.42,-162.46
81715,52.372944,-1.551573,150.03,13.0,3,156.23,21 / 22,4652910,2019-09-06 20:37:38:653,0.3962,0.52,10.1436,-0.0103,0.0274,9.8066,-0.1088,-0.0577,0.0654,-8.5,-32.75,30.69,4.12,-80.38,-162.18
81716,52.372944,-1.551573,150.03,13.0,3,156.23,21 / 22,4653010,2019-09-06 20:37:38:753,-0.0043,0.3191,9.7024,-0.0043,-0.0282,9.8066,-0.0705,-0.0632,-0.0216,-7.62,-32.81,31.38,4.31,-80.51,-162.01
81717,52.372944,-1.551573,150.03,13.0,3,156.23,21 / 22,4653110,2019-09-06 20:37:38:853,0.5959,0.6252,9.8295,-0.0034,-0.0017,9.8066,0.0137,-0.0571,0.0466,-7.81,-32.81,31.38,5.06,-80.45,-161.4
81718,52.372944,-1.551573,150.03,13.0,3,156.23,21 / 22,4653210,2019-09-06 20:37:38:953,0.5548,0.4311,9.7128,-0.0026,-0.0149,9.8066,-0.0137,-0.015,-0.0083,-8.56,-32.5,31.31,3.2,-80.45,-161.18
81719,52.372944,-1.551573,150.03,13.0,3,156.23,21 / 22,4653309,2019-09-06 20:37:39:052,-2.6296,-0.5619,8.6602,-0.0041,-0.0251,9.8066,-0.2292,-0.1422,0.1438,-8.75,-33.56,32.0,4.53,-80.42,-160.6
81720,52.372944,-1.551573,150.03,13.0,3,156.23,20 / 21,4653409,2019-09-06 20:37:39:152,0.5539,1.1822,8.2682,-0.0129,-0.0197,9.8065,-0.3305,0.1416,-0.0569,-8.62,-32.62,31.06,5.36,-80.45,-159.43
81721,52.372944,-1.551573,150.03,13.0,3,156.23,20 / 21,4653510,2019-09-06 20:37:39:253,-0.5152,6.1042,7.7912,-0.04,0.1217,9.8058,0.2809,-0.1081,0.0513,-9.25,-32.37,31.0,5.08,-80.36,-159.65
81722,52.372944,-1.551573,150.03,13.0,3,156.23,20 / 21,4653609,2019-09-06 20:37:39:352,0.3501,0.2539,9.602,-0.0384,0.1092,9.8059,0.1444,0.023,-0.0809,-9.19,-32.5,30.69,4.65,-80.39,-160.0
81723,52.372944,-1.551573,150.03,13.0,3,156.23,20 / 21,4653710,2019-09-06 20:37:39:453,-0.0221,0.7738,9.596,0.02,-0.0279,9.8065,0.1111,-0.0304,0.0164,-8.62,-32.31,31.69,5.45,-80.75,-159.76
81724,52.372944,-1.551573,150.03,13.0,3,156.23,20 / 21,4653809,2019-09-06 20:37:39:552,0.9966,-0.5558,10.0223,0.0105,-0.0022,9.8066,0.0969,-0.0145,0.0086,-8.87,-32.25,31.13,2.91,-80.61,-161.41
81725,52.372944,-1.551573,150.03,13.0,3,156.23,20 / 21,4653909,2019-09-06 20:37:39:652,-0.3885,0.6834,10.3928,-0.0037,0.0153,9.8066,-0.0276,0.003,-0.0454,-8.19,-32.75,31.38,5.02,-80.65,-161.41
81726,52.372944,-1.551573,150.03,13.0,3,156.23,20 / 21,4654010,2019-09-06 20:37:39:753,-0.4057,0.0319,10.1439,0.0069,-0.0189,9.8066,0.0001,-0.0443,0.0607,-8.25,-32.12,31.38,3.79,-80.59,-162.41
81727,52.372944,-1.551573,150.03,13.0,3,156.23,20 / 21,4654109,2019-09-06 20:37:39:852,0.7825,-0.364,9.7563,0.0007,-0.0126,9.8066,-0.0352,-0.015,-0.0385,-8.87,-32.44,30.88,1.98,-80.59,-162.18
81728,52.372944,-1.551573,150.03,13.0,3,156.23,20 / 21,4654209,2019-09-06 20:37:39:952,0.2151,1.0771,9.3579,-0.0002,0.0102,9.8066,0.0665,0.0164,0.0062,-8.44,-31.75,31.44,3.46,-80.59,-162.68
81729,52.372944,-1.551573,150.03,13.0,3,156.23,20 / 21,4654310,2019-09-06 20:37:40:053,0.3533,1.1919,9.572,-0.0021,-0.0096,9.8066,0.019,-0.031,0.0089,-8.75,-32.87,30.88,1.42,-80.61,-162.65
81730,52.372944,-1.551573,150.03,13.0,3,156.23,19 / 22,4654409,2019-09-06 20:37:40:152,0.0334,0.0704,9.8246,0.0072,-0.0004,9.8065,-0.0339,-0.004,0.0078,-8.31,-33.12,30.31,2.79,-80.63,-162.8
81731,52.372944,-1.551573,150.03,13.0,3,156.23,19 / 22,4654510,2019-09-06 20:37:40:253,-0.2865,0.1054,9.5846,-0.0084,-0.0105,9.8066,-0.0475,0.0818,-0.0331,-7.69,-34.31,29.69,3.19,-80.66,-162.48
81732,52.372944,-1.551573,150.03,13.0,3,156.23,19 / 22,4654610,2019-09-06 20:37:40:353,0.8543,-0.4422,9.7171,0.0045,0.0064,9.8066,0.0408,0.0145,0.0644,-7.56,-34.31,31.38,3.43,-80.81,-162.73
81733,52.372944,-1.551573,150.03,13.0,3,156.23,19 / 22,4654709,2019-09-06 20:37:40:452,0.7252,0.9949,9.4544,0.003,-0.0243,9.8066,0.0509,0.0127,-0.0116,-7.94,-33.69,31.5,3.97,-80.61,-162.72
81734,52.372944,-1.551573,150.03,13.0,3,156.23,19 / 22,4654809,2019-09-06 20:37:40:552,-0.0669,0.8127,9.0814,-0.0147,0.0193,9.8065,0.0467,0.0024,0.0276,-8.19,-33.25,31.13,3.58,-80.48,-162.61
81735,52.372944,-1.551573,150.03,13.0,3,156.23,19 / 22,4654910,2019-09-06 20:37:40:653,0.6174,-0.0024,9.7551,-0.0073,0.002,9.8066,0.091,-0.0295,0.0476,-8.31,-32.94,31.88,5.3,-80.46,-161.62
81736,52.372944,-1.551573,150.03,13.0,3,156.23,19 / 22,4655010,2019-09-06 20:37:40:753,0.2535,0.2847,9.9795,-0.0066,0.0224,9.8066,0.0586,0.0557,0.0246,-8.62,-32.25,31.31,3.87,-80.6,-160.62
81737,52.372944,-1.551573,150.03,13.0,3,156.23,19 / 22,4655110,2019-09-06 20:37:40:853,0.3804,0.4522,9.7856,-0.0078,0.0014,9.8066,0.0198,0.0329,-0.0154,-8.75,-32.87,30.81,4.38,-80.59,-160.22
81738,52.372944,-1.551573,150.03,13.0,3,156.23,19 / 22,4655210,2019-09-06 20:37:40:953,-0.475,0.1808,9.5493,-0.0005,0.0026,9.8066,-0.004,-0.0505,0.0191,-8.87,-33.19,31.44,4.64,-80.58,-160.01
81739,52.372944,-1.551573,150.03,13.0,3,156.23,19 / 22,4655310,2019-09-06 20:37:41:053,0.7958,-0.1185,10.3319,0.01,-0.0078,9.8066,0.026,-0.0245,0.0107,-8.94,-32.31,30.88,4.62,-80.57,-160.0
81740,52.371975,-1.551015,153.34,12.26,3,161.56,19 / 21,4655409,2019-09-06 20:37:41:152,-0.0442,1.0988,10.0134,-0.0066,0.0292,9.8066,0.0807,0.0327,0.015,-8.81,-32.56,31.56,5.13,-80.7,-160.05
81741,52.371975,-1.551015,153.34,12.26,3,161.56,19 / 21,4655510,2019-09-06 20:37:41:253,0.07,0.6453,9.8358,0.0028,0.0082,9.8065,-0.0265,-0.0458,0.0121,-8.87,-33.12,31.69,4.58,-80.74,-160.5
81742,52.371975,-1.551015,153.34,12.26,3,161.56,19 / 21,4655609,2019-09-06 20:37:41:352,0.7424,-0.2951,9.6701,-0.0083,0.0069,9.8066,0.0131,0.016,0.0238,-9.25,-33.0,31.38,4.2,-80.73,-160.35
81743,52.371975,-1.551015,153.34,12.26,3,161.56,19 / 21,4655710,2019-09-06 20:37:41:453,0.6506,1.2887,9.5077,0.0,0.0064,9.8066,0.0413,-0.0019,0.0287,-8.94,-32.87,31.56,4.06,-80.73,-160.93
81744,52.371975,-1.551015,153.34,12.26,3,161.56,19 / 21,4655810,2019-09-06 20:37:41:553,0.3127,-0.8713,9.9631,0.0003,-0.0075,9.8066,-0.0557,-0.0448,0.0081,-8.94,-33.0,31.19,3.64,-80.73,-160.81
81745,52.371975,-1.551015,153.34,12.26,3,161.56,19 / 21,4655910,2019-09-06 20:37:41:653,1.201,-0.2758,9.6029,0.006,0.0059,9.8066,-0.0473,-0.0039,-0.023,-9.12,-32.31,31.13,2.64,-80.83,-161.62
81746,52.371975,-1.551015,153.34,12.26,3,161.56,19 / 21,4656009,2019-09-06 20:37:41:752,0.0106,0.3591,9.3977,-0.0022,0.0031,9.8065,0.048,0.0403,-0.0196,-8.94,-32.75,31.0,2.94,-80.89,-161.39
81747,52.371975,-1.551015,153.34,12.26,3,161.56,19 / 21,4656110,2019-09-06 20:37:41:853,-0.0494,-0.7612,10.1917,0.0046,0.0232,9.8065,0.0805,-0.0146,0.043,-8.5,-33.06,31.31,4.2,-81.08,-162.05
81748,52.371975,-1.551015,153.34,12.26,3,161.56,19 / 21,4656210,2019-09-06 20:37:41:953,0.888,0.0325,9.3519,0.0101,0.0138,9.8066,0.0075,-0.0215,-0.0348,-8.37,-32.56,31.44,3.26,-81.08,-162.83
81749,52.371975,-1.551015,153.34,12.26,3,161.56,19 / 21,4656310,2019-09-06 20:37:42:053,-0.0395,0.2844,9.5957,-0.0042,0.0361,9.8065,0.0598,0.0218,0.0217,-9.31,-33.06,31.5,0.95,-81.05,-163.5
81750,52.371975,-1.551015,153.34,12.26,3,161.56,19 / 21,4656410,2019-09-06 20:37:42:153,-0.0513,0.6604,9.2168,0.0026,-0.0126,9.8066,-0.0192,-0.0352,-0.0751,-8.62,-32.62,31.0,0.35,-81.4,-163.51
81751,52.371975,-1.551015,153.34,12.26,3,161.56,19 / 21,4656509,2019-09-06 20:37:42:252,0.7465,0.3415,9.7158,0.01,0.0119,9.8065,0.0523,0.0179,-0.0071,-8.12,-32.69,31.0,1.64,-81.47,-164.15
81752,52.371975,-1.551015,153.34,12.26,3,161.56,19 / 21,4656610,2019-09-06 20:37:42:353,0.2166,-0.7302,9.7699,-0.0003,0.0175,9.8066,0.0546,0.0788,0.0029,-8.75,-33.37,31.38,359.29,-81.62,-164.41
81753,52.371975,-1.551015,153.34,12.26,3,161.56,19 / 21,4656710,2019-09-06 20:37:42:453,-0.2188,-1.5501,10.6045,-0.0067,-0.0107,9.8066,0.0564,0.0443,0.0523,-8.62,-32.62,30.81,359.81,-81.62,-163.97
81754,52.371975,-1.551015,153.34,12.26,3,161.56,19 / 21,4656810,2019-09-06 20:37:42:553,0.6243,0.1259,10.3915,-0.0034,0.0081,9.8065,-0.0192,0.109,-0.1531,-8.25,-33.0,30.81,2.53,-81.71,-163.4
81755,52.371975,-1.551015,153.34,12.26,3,161.56,19 / 21,4656910,2019-09-06 20:37:42:653,0.4837,-1.6045,9.9396,0.0062,-0.0018,9.8066,0.1066,0.0366,0.068,-8.94,-33.25,31.56,0.97,-81.53,-163.47
81756,52.371975,-1.551015,153.34,12.26,3,161.56,19 / 21,4657010,2019-09-06 20:37:42:753,0.1592,-0.3644,10.3897,-0.0092,0.005,9.8065,-0.1184,-0.0046,-0.0042,-8.75,-33.25,30.94,0.51,-81.53,-163.39
81757,52.371975,-1.551015,153.34,12.26,3,161.56,19 / 21,4657109,2019-09-06 20:37:42:852,0.9777,1.0583,9.6909,-0.0014,-0.0116,9.8065,-0.0814,0.0681,-0.0626,-9.06,-33.31,30.81,1.38,-81.45,-162.66
81758,52.371975,-1.551015,153.34,12.26,3,161.56,19 / 21,4657210,2019-09-06 20:37:42:953,0.9489,0.1843,9.4964,0.0098,0.0071,9.8066,0.0333,0.0178,0.0195,-9.44,-32.44,30.56,0.75,-81.54,-163.17
81759,52.371975,-1.551015,153.34,12.26,3,161.56,19 / 21,4657310,2019-09-06 20:37:43:053,0.3521,-1.0218,9.4368,-0.0072,0.0004,9.8066,-0.0191,0.0176,-0.0497,-9.0,-33.25,31.06,0.88,-81.64,-163.07
81760,52.371975,-1.551015,153.34,12.26,3,161.56,19 / 21,4657409,2019-09-06 20:37:43:152,-0.082,1.0266,9.6403,-0.0023,0.0073,9.8066,-0.0018,0.0213,0.0474,-9.0,-33.06,30.81,1.54,-81.81,-162.51
81761,52.371975,-1.551015,153.34,12.26,3,161.56,19 / 21,4657510,2019-09-06 20:37:43:253,0.2873,1.2527,9.872,-0.0032,0.0084,9.8066,-0.0461,0.0638,-0.0003,-9.06,-32.87,30.0,1.43,-82.02,-162.09
81762,52.371975,-1.551015,153.34,12.26,3,161.56,19 / 21,4657609,2019-09-06 20:37:43:352,0.2766,-0.1908,9.9237,-0.0067,0.0121,9.8065,-0.0726,0.0356,-0.0196,-9.19,-32.81,30.13,1.75,-82.13,-161.82
81763,52.371975,-1.551015,153.34,12.26,3,161.56,19 / 21,4657710,2019-09-06 20:37:43:453,-0.2244,-0.5433,9.3758,0.0044,-0.0105,9.8065,-0.0066,-0.0549,0.025,-8.94,-32.94,30.5,1.69,-82.05,-162.37
81764,52.371975,-1.551015,153.34,12.26,3,161.56,19 / 21,4657810,2019-09-06 20:37:43:553,0.6239,0.5458,9.1331,0.0094,-0.0116,9.8065,-0.0128,0.0309,-0.0333,-9.12,-32.81,30.19,1.25,-82.08,-162.24
81765,52.371975,-1.551015,153.34,12.26,3,161.56,19 / 21,4657910,2019-09-06 20:37:43:653,0.0365,0.48,9.2684,-0.0042,0.0383,9.8065,0.0484,0.0204,0.1047,-9.62,-33.25,29.88,358.64,-82.25,-162.72
81766,52.371975,-1.551015,153.34,12.26,3,161.56,19 / 21,4658010,2019-09-06 20:37:43:753,-0.2381,0.2786,10.4849,-0.0201,0.0168,9.8065,-0.0962,0.0408,-0.0883,-9.25,-33.31,30.06,1.94,-82.59,-161.64
81767,52.371975,-1.551015,153.34,12.26,3,161.56,19 / 21,4658110,2019-09-06 20:37:43:853,-0.1913,0.3242,9.9313,0.0169,-0.001,9.8066,0.0191,-0.0066,0.042,-9.44,-33.19,30.25,1.35,-82.6,-162.15
81768,52.371975,-1.551015,153.34,12.26,3,161.56,19 / 21,4658209,2019-09-06 20:37:43:952,0.075,0.3287,10.4892,0.0077,-0.0388,9.8066,-0.031,0.0131,-0.0101,-9.56,-33.56,29.88,358.64,-82.44,-162.72
81769,52.371975,-1.551015,153.34,12.26,3,161.56,19 / 21,4658309,2019-09-06 20:37:44:052,0.6747,0.4192,9.8176,0.0056,-0.0046,9.8066,0.0846,0.0264,-0.0153,-9.25,-33.56,30.25,359.77,-82.42,-163.5
81770,52.371975,-1.551015,153.34,12.26,3,161.56,20 / 21,4658410,2019-09-06 20:37:44:153,0.211,0.1966,9.746,0.0002,0.0132,9.8066,-0.0957,0.0733,-0.0375,-9.0,-33.62,30.31,359.36,-82.45,-163.84
81771,52.371975,-1.551015,153.34,12.26,3,161.56,20 / 21,4658509,2019-09-06 20:37:44:252,0.6156,0.0139,9.5501,0.0106,0.0103,9.8066,-0.0708,0.0484,0.0185,-9.31,-33.19,29.88,358.35,-82.67,-164.72
81772,52.371975,-1.551015,153.34,12.26,3,161.56,20 / 21,4658610,2019-09-06 20:37:44:353,0.0846,1.2136,9.746,0.0009,0.0,9.8066,0.0772,0.0034,-0.0671,-9.25,-33.37,29.69,357.93,-82.78,-165.08
81773,52.371975,-1.551015,153.34,12.26,3,161.56,20 / 21,4658710,2019-09-06 20:37:44:453,0.0921,1.3251,9.6045,0.0084,0.0325,9.8065,0.0619,0.0078,0.0092,-9.44,-33.31,29.56,356.53,-83.04,-166.3
81774,52.371975,-1.551015,153.34,12.26,3,161.56,20 / 21,4658809,2019-09-06 20:37:44:552,0.9033,0.6442,9.3431,-0.0047,0.0203,9.8065,-0.0708,0.0572,0.0024,-9.75,-33.75,29.56,354.2,-83.08,-166.57
81775,52.371975,-1.551015,153.34,12.26,3,161.56,20 / 21,4658910,2019-09-06 20:37:44:653,0.2805,0.5537,9.8949,-0.0027,-0.0113,9.8066,-0.1158,0.039,0.0031,-9.44,-33.94,29.38,355.15,-83.16,-166.93
81776,52.371975,-1.551015,153.34,12.26,3,161.56,20 / 21,4659010,2019-09-06 20:37:44:753,1.1134,1.0215,9.7699,0.0067,0.0054,9.8066,0.0486,0.0386,0.0318,-9.5,-33.37,29.5,355.93,-83.26,-166.84
81777,52.371975,-1.551015,153.34,12.26,3,161.56,20 / 21,4659110,2019-09-06 20:37:44:853,0.7237,1.0378,9.6828,-0.0073,0.0031,9.8066,-0.0016,0.0651,-0.0106,-10.44,-33.44,28.94,354.53,-83.3,-165.73
81778,52.371975,-1.551015,153.34,12.26,3,161.56,20 / 21,4659210,2019-09-06 20:37:44:953,0.5604,0.6726,9.7517,-0.0088,-0.004,9.8066,0.007,0.0563,0.0582,-10.12,-34.12,29.31,355.39,-83.3,-164.96
81779,52.371975,-1.551015,153.34,12.26,3,161.56,20 / 21,4659310,2019-09-06 20:37:45:053,0.4739,1.0843,9.7191,-0.0217,0.0148,9.8065,-0.0135,0.0457,0.0062,-10.0,-33.31,29.25,358.03,-83.41,-162.69
81780,52.371975,-1.551015,153.34,12.26,3,161.56,20 / 21,4659409,2019-09-06 20:37:45:152,0.3947,0.9884,9.9163,-0.013,0.0191,9.8066,-0.0309,0.0961,-0.0243,-10.37,-33.37,29.19,359.0,-83.42,-161.85
81781,52.371975,-1.551015,153.34,12.26,3,161.56,20 / 21,4659510,2019-09-06 20:37:45:253,-0.2808,1.1931,9.9766,0.0121,-0.0172,9.8066,-0.0785,0.0341,0.0595,-9.94,-33.81,29.13,358.79,-83.55,-162.03
81782,52.371975,-1.551015,153.34,12.26,3,161.56,20 / 21,4659609,2019-09-06 20:37:45:352,0.8138,0.797,10.0303,0.0107,-0.023,9.8065,0.0931,0.018,-0.0177,-10.12,-33.69,29.88,358.18,-83.47,-163.15
81783,52.371975,-1.551015,153.34,12.26,3,161.56,20 / 21,4659710,2019-09-06 20:37:45:453,0.9408,0.6093,9.883,0.0078,0.0089,9.8066,0.0782,0.063,-0.0095,-10.69,-33.12,29.44,354.31,-83.56,-164.2
81784,52.371975,-1.551015,153.34,12.26,3,161.56,20 / 21,4659809,2019-09-06 20:37:45:552,0.6291,0.9451,9.5751,0.0092,-0.0081,9.8066,-0.0254,0.0621,-0.0328,-10.5,-33.12,29.19,355.25,-83.5,-165.11
81785,52.371975,-1.551015,153.34,12.26,3,161.56,20 / 21,4659910,2019-09-06 20:37:45:653,0.8167,0.6152,9.6997,0.0007,0.0184,9.8066,-0.0333,0.0798,0.0021,-10.31,-33.37,29.31,354.31,-83.58,-165.94
81786,52.371975,-1.551015,153.34,12.26,3,161.56,20 / 21,4660010,2019-09-06 20:37:45:753,1.1243,0.9502,9.3528,0.0093,-0.0061,9.8066,0.0648,0.0642,0.0049,-10.81,-33.81,28.63,351.66,-83.65,-166.51
81787,52.371975,-1.551015,153.34,12.26,3,161.56,20 / 21,4660110,2019-09-06 20:37:45:853,1.0394,0.2879,10.1111,-0.0095,0.0024,9.8066,0.0439,0.1042,-0.044,-11.06,-33.62,29.06,351.43,-83.65,-166.71
81788,52.371975,-1.551015,153.34,12.26,3,161.56,20 / 21,4660209,2019-09-06 20:37:45:952,1.8039,0.495,9.8169,0.0077,0.018,9.8066,-0.0039,0.0264,0.0478,-11.19,-33.87,29.06,351.11,-83.78,-167.01
81789,52.371975,-1.551015,153.34,12.26,3,161.56,20 / 21,4660309,2019-09-06 20:37:46:052,0.7019,0.2698,9.4963,-0.0044,-0.0084,9.8066,-0.0631,0.0991,-0.0813,-10.94,-33.44,28.75,351.8,-83.73,-166.43
81790,52.371975,-1.551015,153.34,12.26,3,161.56,20 / 21,4660410,2019-09-06 20:37:46:153,1.0891,0.6353,10.1326,-0.0084,0.0067,9.8066,-0.0356,0.0669,-0.0642,-10.44,-33.0,28.63,353.22,-83.72,-166.92
81791,52.371975,-1.551015,153.34,12.26,3,161.56,20 / 21,4660509,2019-09-06 20:37:46:252,1.2006,-0.4967,10.0247,0.0028,0.0103,9.8066,-0.012,0.0583,-0.0185,-10.75,-33.5,28.94,350.9,-83.8,-167.23
81792,52.371975,-1.551015,153.34,12.26,3,161.56,20 / 21,4660610,2019-09-06 20:37:46:353,1.2144,0.1618,9.9486,0.0108,0.0045,9.8066,0.0512,0.0443,-0.0023,-11.19,-33.81,28.44,348.23,-83.73,-168.81
81793,52.371975,-1.551015,153.34,12.26,3,161.56,20 / 21,4660710,2019-09-06 20:37:46:453,1.0174,1.3002,9.5341,0.0037,0.0004,9.8066,-0.026,0.017,-0.0197,-11.69,-33.37,28.56,346.67,-83.73,-169.26
81794,52.371975,-1.551015,153.34,12.26,3,161.56,20 / 21,4660810,2019-09-06 20:37:46:553,1.2643,0.6531,10.0949,0.0034,0.0069,9.8066,-0.0215,0.0683,-0.0426,-10.94,-34.06,28.13,346.78,-83.81,-170.1
81795,52.371975,-1.551015,153.34,12.26,3,161.56,20 / 21,4660909,2019-09-06 20:37:46:652,0.9279,1.4877,10.481,-0.0004,0.0182,9.8066,0.0249,0.0785,0.0377,-10.94,-33.87,28.81,347.11,-83.86,-170.55
81796,52.371975,-1.551015,153.34,12.26,3,161.56,20 / 21,4661010,2019-09-06 20:37:46:753,1.0449,1.4568,9.9211,0.0123,-0.0353,9.8065,-0.0315,0.1129,-0.0253,-11.31,-33.75,28.63,345.97,-83.87,-171.55
81797,52.371975,-1.551015,153.34,12.26,3,161.56,20 / 21,4661110,2019-09-06 20:37:46:853,1.8696,0.3722,9.7168,0.0092,-0.016,9.8066,0.0175,0.078,-0.0157,-11.62,-34.06,28.81,343.22,-83.58,-172.19
81798,52.371975,-1.551015,153.34,12.26,3,161.56,20 / 21,4661209,2019-09-06 20:37:46:952,1.0802,0.7617,10.3719,-0.0106,0.0114,9.8066,0.0774,0.1244,-0.0195,-12.19,-34.12,28.63,344.22,-83.66,-171.34
81799,52.371975,-1.551015,153.34,12.26,3,161.56,20 / 21,4661309,2019-09-06 20:37:47:052,1.397,1.9749,9.8734,-0.0015,0.011,9.8066,-0.0507,0.1706,-0.032,-12.12,-33.94,28.81,344.09,-83.72,-171.48
81800,52.371975,-1.551015,153.34,12.26,3,161.56,20 / 21,4661409,2019-09-06 20:37:47:152,1.1758,1.0516,9.788,-0.003,0.0111,9.8066,0.0192,0.0991,0.023,-12.19,-33.87,28.25,343.72,-83.73,-171.03
81801,52.371975,-1.551015,153.34,12.26,3,161.56,20 / 21,4661510,2019-09-06 20:37:47:253,0.3576,2.0446,9.8264,-0.0102,-0.0085,9.8066,0.0172,0.1425,-0.0288,-13.12,-33.87,27.94,342.6,-83.71,-170.32
81802,52.371975,-1.551015,153.34,12.26,3,161.56,20 / 21,4661610,2019-09-06 20:37:47:353,0.7222,1.2862,10.3989,-0.0021,-0.0075,9.8066,0.0387,0.1265,-0.0179,-13.19,-33.69,28.0,343.91,-83.69,-169.17
81803,52.371975,-1.551015,153.34,12.26,3,161.56,20 / 21,4661709,2019-09-06 20:37:47:452,0.3146,1.6157,10.0536,0.0059,-0.0035,9.8066,0.0019,0.1368,0.0243,-13.62,-33.62,27.38,340.95,-83.65,-169.22
81804,52.371975,-1.551015,153.34,12.26,3,161.56,20 / 21,4661810,2019-09-06 20:37:47:553,1.1621,1.9523,9.4935,-0.0012,-0.0063,9.8066,-0.0336,0.1371,-0.0475,-14.19,-34.56,28.25,342.01,-83.51,-169.08
81805,52.371975,-1.551015,153.34,12.26,3,161.56,20 / 21,4661909,2019-09-06 20:37:47:652,1.0546,1.6623,10.2719,-0.009,0.0164,9.8066,-0.053,0.1337,0.0089,-13.81,-33.94,27.63,342.15,-83.57,-169.04
81806,52.371975,-1.551015,153.34,12.26,3,161.56,20 / 21,4662010,2019-09-06 20:37:47:753,0.3826,1.6775,9.4915,0.0206,-0.013,9.8065,-0.0334,0.1021,-0.0077,-14.06,-33.81,27.38,340.17,-83.67,-169.91
81807,52.371975,-1.551015,153.34,12.26,3,161.56,20 / 21,4662110,2019-09-06 20:37:47:853,0.9593,2.2,9.9934,-0.014,0.023,9.8065,0.0909,0.196,-0.0066,-15.0,-34.12,27.06,337.8,-83.65,-170.39
81808,52.371975,-1.551015,153.34,12.26,3,161.56,20 / 21,4662209,2019-09-06 20:37:47:952,0.5846,2.7934,10.716,-0.0175,-0.0029,9.8066,0.1432,0.1771,-0.002,-14.75,-34.12,27.06,337.79,-83.59,-170.36
81809,52.371975,-1.551015,153.34,12.26,3,161.56,20 / 21,4662310,2019-09-06 20:37:48:053,0.8948,1.5111,10.6837,0.0016,0.0087,9.8066,0.1861,0.1397,-0.0245,-15.06,-34.25,27.94,339.35,-83.37,-169.84
81810,52.371975,-1.551015,153.34,12.26,3,161.56,19 / 21,4662410,2019-09-06 20:37:48:153,0.9587,1.5567,9.1087,0.0315,-0.0372,9.8065,-0.1681,0.1503,-0.0735,-15.5,-34.0,27.0,336.22,-82.94,-171.44
81811,52.371975,-1.551015,153.34,12.26,3,161.56,19 / 21,4662509,2019-09-06 20:37:48:252,-0.2815,1.8582,9.269,-0.0333,0.0392,9.8065,0.1129,0.1643,-0.0727,-15.62,-34.06,26.63,333.3,-83.18,-172.56
81812,52.371975,-1.551015,153.34,12.26,3,161.56,19 / 21,4662609,2019-09-06 20:37:48:352,0.5339,1.7381,9.456,-0.032,0.0804,9.8062,0.0928,0.1389,-0.0328,-15.56,-35.0,26.44,332.16,-83.42,-172.56
81813,52.371975,-1.551015,153.34,12.26,3,161.56,19 / 21,4662710,2019-09-06 20:37:48:453,0.6633,1.2471,10.0418,-0.0197,0.0306,9.8066,-0.1217,0.1205,-0.0159,-15.62,-34.75,26.19,331.14,-84.11,-173.87
81814,52.371975,-1.551015,153.34,12.26,3,161.56,19 / 21,4662810,2019-09-06 20:37:48:553,0.0912,1.7969,9.8018,0.0229,-0.0316,9.8065,-0.0505,0.0295,0.0422,-15.5,-35.0,26.44,331.69,-83.76,-174.74
81815,52.371975,-1.551015,153.34,12.26,3,161.56,19 / 21,4662910,2019-09-06 20:37:48:653,0.6549,1.4126,9.3718,0.0165,-0.0339,9.8065,0.141,0.1379,0.0117,-15.87,-34.69,25.81,330.81,-83.49,-173.79
81816,52.371975,-1.551015,153.34,12.26,3,161.56,19 / 21,4663010,2019-09-06 20:37:48:753,1.3103,1.2485,10.4847,-0.0366,0.0207,9.8065,0.1479,0.2005,-0.0551,-15.37,-34.81,25.69,333.91,-83.55,-172.66
81817,52.371975,-1.551015,153.34,12.26,3,161.56,19 / 21,4663110,2019-09-06 20:37:48:853,0.8553,0.6464,10.7514,-0.0381,0.0618,9.8064,-0.1689,0.0883,0.0057,-16.31,-34.31,25.69,332.67,-83.76,-172.39
81818,52.371975,-1.551015,153.34,12.26,3,161.56,19 / 21,4663210,2019-09-06 20:37:48:953,-1.115,1.3326,10.4956,0.04,-0.0448,9.8064,-0.1362,0.0946,-0.047,-15.75,-34.44,25.56,332.99,-84.04,-172.26
81819,52.371975,-1.551015,153.34,12.26,3,161.56,19 / 21,4663309,2019-09-06 20:37:49:052,0.017,1.5662,9.0956,0.0402,-0.0428,9.8064,0.1002,0.1344,-0.0168,-15.62,-34.56,25.81,330.65,-83.7,-174.05
81820,52.371975,-1.551015,153.34,12.26,3,161.56,18 / 21,4663410,2019-09-06 20:37:49:153,-2.0191,1.9671,9.5167,-0.0351,0.0583,9.8064,0.2997,0.125,-0.01,-16.62,-35.0,26.25,329.59,-84.09,-173.73
81821,52.371975,-1.551015,153.34,12.26,3,161.56,18 / 21,4663509,2019-09-06 20:37:49:252,-0.3696,2.6259,10.4277,-0.0537,0.0628,9.8063,0.2801,0.0972,-0.0125,-16.06,-34.5,25.75,332.22,-84.05,-172.95
81822,52.371975,-1.551015,153.34,12.26,3,161.56,18 / 21,4663609,2019-09-06 20:37:49:352,1.5087,1.6209,10.6239,0.0109,-0.0133,9.8066,-0.138,0.0274,-0.0223,-16.87,-34.44,25.56,330.21,-84.01,-173.21
81823,52.371975,-1.551015,153.34,12.26,3,161.56,18 / 21,4663710,2019-09-06 20:37:49:453,-1.3935,0.4422,9.8948,-0.0001,-0.0246,9.8066,-0.0575,-0.0034,0.0653,-15.94,-33.25,25.75,331.55,-83.86,-173.55
81824,52.371975,-1.551015,153.34,12.26,3,161.56,18 / 21,4663809,2019-09-06 20:37:49:552,0.2068,1.2155,9.6883,0.0263,-0.0146,9.8066,-0.0511,0.0183,-0.0194,-16.81,-33.69,25.81,330.14,-83.73,-173.11
81825,52.371975,-1.551015,153.34,12.26,3,161.56,18 / 21,4663910,2019-09-06 20:37:49:653,-0.6336,2.5728,9.8349,0.0322,-0.0308,9.8065,-0.2273,0.0937,-0.0695,-16.37,-33.69,25.13,328.91,-83.51,-174.47
81826,52.371975,-1.551015,153.34,12.26,3,161.56,18 / 21,4664010,2019-09-06 20:37:49:753,-1.0323,1.9455,9.4732,-0.0135,0.0317,9.8065,0.0519,0.0332,0.0109,-16.5,-34.31,25.44,328.66,-83.87,-174.92
81827,52.371975,-1.551015,153.34,12.26,3,161.56,18 / 21,4664110,2019-09-06 20:37:49:853,-0.4134,1.4467,9.4763,0.0077,0.0027,9.8066,-0.0897,0.0198,-0.0593,-16.44,-33.62,25.0,327.92,-83.85,-175.56
81828,52.371975,-1.551015,153.34,12.26,3,161.56,18 / 21,4664210,2019-09-06 20:37:49:953,-1.0832,1.3842,10.0709,-0.0227,0.0146,9.8066,0.1156,0.0417,0.0576,-17.06,-33.62,24.94,326.77,-83.99,-175.16
81829,52.371975,-1.551015,153.34,12.26,3,161.56,18 / 21,4664310,2019-09-06 20:37:50:053,-1.2822,1.6958,9.9608,-0.0058,0.0097,9.8066,0.1273,0.0386,-0.0427,-17.19,-33.62,24.81,327.0,-83.97,-174.95
81830,52.371128,-1.550313,155.64,9.53,3,130.33,18 / 21,4664409,2019-09-06 20:37:50:152,-1.0367,1.25,9.9445,-0.0144,0.0056,9.8066,0.0159,0.0629,-0.0247,-17.19,-34.25,24.06,324.57,-83.88,-175.86
81831,52.371128,-1.550313,155.64,9.53,3,130.33,18 / 21,4664510,2019-09-06 20:37:50:253,-0.5832,1.7603,9.7833,0.0049,0.0047,9.8066,-0.0539,0.0175,0.0326,-16.81,-33.87,24.31,325.21,-83.85,-175.26
81832,52.371128,-1.550313,155.64,9.53,3,130.33,18 / 21,4664610,2019-09-06 20:37:50:353,-1.5799,1.7149,9.6056,0.0023,-0.0037,9.8066,-0.0615,0.0404,0.0144,-17.37,-34.06,23.94,325.09,-83.91,-175.42
81833,52.371128,-1.550313,155.64,9.53,3,130.33,18 / 21,4664709,2019-09-06 20:37:50:452,-0.7488,1.4806,9.8195,0.0136,-0.0113,9.8066,0.0534,0.0302,-0.0177,-16.62,-34.31,24.06,325.25,-83.96,-175.31
81834,52.371128,-1.550313,155.64,9.53,3,130.33,18 / 21,4664810,2019-09-06 20:37:50:553,-0.352,1.2343,10.2286,0.0063,0.0048,9.8066,0.0097,0.0595,0.0033,-18.06,-34.69,23.75,322.8,-84.08,-176.0
81835,52.371128,-1.550313,155.64,9.53,3,130.33,18 / 21,4664909,2019-09-06 20:37:50:652,-0.527,1.2862,9.9545,0.0145,-0.011,9.8066,0.1115,0.0674,-0.0241,-17.44,-33.87,24.56,324.93,-83.99,-176.82
81836,52.371128,-1.550313,155.64,9.53,3,130.33,18 / 21,4665009,2019-09-06 20:37:50:752,-0.4381,0.5591,9.9412,0.016,-0.0007,9.8066,0.0669,0.0481,-0.0208,-17.75,-34.87,23.69,320.47,-83.87,-177.94
81837,52.371128,-1.550313,155.64,9.53,3,130.33,18 / 21,4665110,2019-09-06 20:37:50:853,0.7312,0.95,9.7014,0.0129,-0.002,9.8066,-0.087,0.0758,0.0037,-17.06,-35.0,23.88,320.71,-83.85,-179.17
81838,52.371128,-1.550313,155.64,9.53,3,130.33,18 / 21,4665210,2019-09-06 20:37:50:953,-0.3178,2.7648,9.8455,0.0105,-0.003,9.8066,-0.1621,0.1549,-0.054,-17.75,-34.94,24.38,318.05,-83.82,179.92
81839,52.371128,-1.550313,155.64,9.53,3,130.33,18 / 21,4665310,2019-09-06 20:37:51:053,-0.577,1.0043,10.0029,0.0053,0.0059,9.8066,-0.0923,0.0136,0.026,-17.87,-34.75,24.5,318.45,-83.89,178.98
81840,52.371128,-1.550313,155.64,9.53,3,130.33,18 / 21,4665410,2019-09-06 20:37:51:153,0.3746,1.2254,9.7663,0.0136,0.0226,9.8065,0.0601,0.0602,0.0121,-17.94,-34.31,24.44,316.49,-83.89,178.3
81841,52.371128,-1.550313,155.64,9.53,3,130.33,18 / 21,4665509,2019-09-06 20:37:51:252,-0.5222,2.4275,9.7565,0.0157,-0.0004,9.8066,0.0188,0.1814,-0.055,-18.37,-35.06,23.81,313.46,-83.9,175.68
81842,52.371128,-1.550313,155.64,9.53,3,130.33,18 / 21,4665610,2019-09-06 20:37:51:353,0.584,2.5386,10.0916,0.0049,0.0122,9.8066,-0.0006,0.2294,-0.0723,-18.19,-33.81,23.5,310.94,-83.95,173.16
81843,52.371128,-1.550313,155.64,9.53,3,130.33,18 / 21,4665710,2019-09-06 20:37:51:453,0.6527,2.0305,10.0246,0.0332,-0.0052,9.8065,-0.0524,0.2656,-0.0521,-18.81,-34.19,23.13,306.07,-83.91,171.41
81844,52.371128,-1.550313,155.64,9.53,3,130.33,18 / 21,4665810,2019-09-06 20:37:51:553,0.3951,1.9215,9.6296,0.0302,-0.0151,9.8065,0.011,0.2525,-0.0415,-18.94,-34.5,22.38,301.87,-83.64,169.19
81845,52.371128,-1.550313,155.64,9.53,3,130.33,18 / 21,4665909,2019-09-06 20:37:51:652,0.5282,2.3121,9.5975,0.0307,-0.0111,9.8065,-0.0371,0.2938,-0.0664,-19.31,-34.94,22.13,300.74,-83.52,168.45
81846,52.371128,-1.550313,155.64,9.53,3,130.33,18 / 21,4666009,2019-09-06 20:37:51:752,0.5127,1.9744,9.9155,0.0052,0.0072,9.8066,-0.0302,0.2547,-0.0152,-19.31,-35.12,22.25,299.51,-83.45,167.38
81847,52.371128,-1.550313,155.64,9.53,3,130.33,18 / 21,4666110,2019-09-06 20:37:51:853,0.6683,1.8497,9.8431,0.0127,0.0077,9.8065,0.0098,0.3009,-0.0889,-18.94,-34.75,21.75,297.79,-83.36,165.88
81848,52.371128,-1.550313,155.64,9.53,3,130.33,18 / 21,4666210,2019-09-06 20:37:51:953,1.267,2.146,10.382,0.0275,0.0084,9.8066,0.0252,0.3201,-0.0631,-19.19,-35.44,22.0,294.41,-83.15,162.94
81849,52.371128,-1.550313,155.64,9.53,3,130.33,18 / 21,4666309,2019-09-06 20:37:52:052,1.5484,1.9047,9.5731,0.0113,0.0027,9.8066,-0.0842,0.325,-0.0412,-19.81,-35.0,21.06,289.95,-83.13,161.54
81850,52.371128,-1.550313,155.64,9.53,3,130.33,18 / 22,4666410,2019-09-06 20:37:52:153,0.6189,3.4555,9.4915,0.0111,0.0069,9.8066,-0.0387,0.3616,-0.0526,-20.0,-34.44,20.38,287.98,-83.0,161.18
81851,52.371128,-1.550313,155.64,9.53,3,130.33,18 / 22,4666509,2019-09-06 20:37:52:252,-0.0545,2.8973,10.2454,0.0345,-0.0055,9.8065,0.1958,0.3535,-0.0397,-20.25,-34.37,20.31,286.5,-82.69,160.13
81852,52.371128,-1.550313,155.64,9.53,3,130.33,18 / 22,4666610,2019-09-06 20:37:52:353,0.577,2.3193,10.7609,-0.0116,0.0189,9.8066,0.2002,0.3994,-0.0559,-20.12,-34.25,19.19,283.57,-82.5,159.22
81853,52.371128,-1.550313,155.64,9.53,3,130.33,18 / 22,4666709,2019-09-06 20:37:52:452,1.0817,2.7537,9.9784,-0.02,0.009,9.8066,-0.0004,0.3553,0.0001,-20.62,-34.56,18.94,282.23,-82.31,159.58
81854,52.371128,-1.550313,155.64,9.53,3,130.33,18 / 22,4666809,2019-09-06 20:37:52:552,0.4743,1.2368,9.6103,0.0059,-0.0002,9.8066,0.0592,0.3517,-0.0206,-21.31,-34.31,17.69,281.55,-82.08,160.7
81855,52.371128,-1.550313,155.64,9.53,3,130.33,18 / 22,4666910,2019-09-06 20:37:52:653,0.6611,1.9196,9.8701,0.0067,0.0083,9.8066,0.0562,0.3897,-0.111,-21.0,-34.75,16.88,279.02,-81.98,160.49
81856,52.371128,-1.550313,155.64,9.53,3,130.33,18 / 22,4667010,2019-09-06 20:37:52:753,0.8713,2.3588,9.643,-0.0157,0.0179,9.8066,0.0598,0.4045,-0.0323,-20.62,-34.5,16.63,277.81,-81.88,159.14
81857,52.371128,-1.550313,155.64,9.53,3,130.33,18 / 22,4667109,2019-09-06 20:37:52:852,0.6625,1.4441,9.2849,-0.0571,0.0136,9.8064,-0.1871,0.339,-0.0423,-21.25,-35.31,14.06,271.13,-82.24,158.34
81858,52.371128,-1.550313,155.64,9.53,3,130.33,18 / 22,4667209,2019-09-06 20:37:52:952,0.7557,3.5004,10.1985,0.0511,0.0093,9.8064,-0.1787,0.4226,-0.0203,-21.19,-35.31,13.19,267.57,-82.1,157.12
81859,52.371128,-1.550313,155.64,9.53,3,130.33,18 / 22,4667310,2019-09-06 20:37:53:053,-0.2257,0.283,9.8983,0.0236,-0.0447,9.8065,-0.0512,0.5139,-0.1136,-21.0,-34.81,13.44,269.24,-82.28,158.54
81860,52.371128,-1.550313,155.64,9.53,3,130.33,19 / 21,4667410,2019-09-06 20:37:53:153,0.2004,2.3935,9.4512,-0.0063,-0.0041,9.8066,-0.1279,0.3456,0.0597,-21.44,-35.25,11.81,268.84,-82.38,160.25
81861,52.371128,-1.550313,155.64,9.53,3,130.33,19 / 21,4667509,2019-09-06 20:37:53:252,0.74,1.5823,9.5135,0.022,-0.0026,9.8065,0.144,0.5484,-0.1979,-21.5,-35.69,12.13,269.08,-82.26,161.0
