,GPS LATITUDE (degrees), GPS LONGITUDE (degrees), GPS ALTITUDE (m), GPS SPEED (Kmh), GPS ACCURACY (m), GPS ORIENTATION (Â°),GPS SATELLITES IN RANGE, TIME SINCE START (ms), DATE (YYYY-MO-DD HH-MI-SS_SSS), ACCELEROMETER X (m/s²) , ACCELEROMETER Y (m/s²), ACCELEROMETER Z (m/s²), GRAVITY X (m/s²), GRAVITY Y (m/s²), GRAVITY Z (m/s²), GYROSCOPE Yaw (rad/s), GYROSCOPE Pitch (rad/s), GYROSCOPE Roll (rad/s), MAGNETIC FIELD X (Î¼T), MAGNETIC FIELD Y (Î¼T), MAGNETIC FIELD Z (Î¼T), ORIENTATION (Yaw) (Â°), ORIENTATION (Pitch) (Â°), ORIENTATION (Roll ) (Â°)
9700,52.416428,-1.596704,181.87,7.97,2,353.12,28 / 30,972922,2019-09-08 10:23:59:546,-0.1752,-0.2776,9.9581,0.0124,-0.01,9.8066,0.0449,0.0631,0.0111,-15.37,-29.81,2.38,278.5,-78.48,-155.37
9701,52.416428,-1.596704,181.87,7.97,2,353.12,28 / 30,973021,2019-09-08 10:23:59:645,-0.6361,0.1491,10.2312,0.0116,-0.0158,9.8066,0.0646,0.0045,0.0288,-16.0,-30.12,2.31,280.14,-78.26,-154.41
9702,52.416428,-1.596704,181.87,7.97,2,353.12,28 / 30,973121,2019-09-08 10:23:59:745,0.6192,-0.4151,10.1622,0.0206,-0.0206,9.8065,-0.0208,0.0023,0.0366,-15.94,-29.19,2.44,281.49,-77.94,-153.28
9703,52.416428,-1.596704,181.87,7.97,2,353.12,28 / 30,973221,2019-09-08 10:23:59:845,0.6756,0.31,9.6185,0.0132,-0.0101,9.8066,-0.0188,0.0287,0.032,-16.31,-29.25,2.75,285.77,-77.8,-152.78
9704,52.416428,-1.596704,181.87,7.97,2,353.12,28 / 30,973322,2019-09-08 10:23:59:946,-0.6138,-0.5352,9.5414,-0.0007,-0.0079,9.8066,0.0397,-0.0057,-0.0026,-16.37,-29.5,2.94,285.82,-77.62,-152.38
9705,52.416428,-1.596704,181.87,7.97,2,353.12,28 / 30,973422,2019-09-08 10:24:00:046,-1.8565,0.1718,9.6652,0.032,-0.009,9.8066,-0.2878,0.0323,-0.0031,-16.06,-29.69,3.25,284.95,-77.43,-151.97
9706,52.416428,-1.596704,181.87,7.97,2,353.12,28 / 30,973521,2019-09-08 10:24:00:145,0.308,0.6278,10.3594,-0.002,0.0032,9.8065,0.2428,-0.0516,0.0771,-16.87,-29.69,3.25,286.97,-77.44,-150.96
9707,52.416428,-1.596704,181.87,7.97,2,353.12,28 / 30,973621,2019-09-08 10:24:00:245,1.0573,0.1276,10.4965,0.0136,0.0088,9.8065,0.1328,0.017,0.0015,-16.06,-29.0,3.06,287.04,-77.53,-151.11
9708,52.416428,-1.596704,181.87,7.97,2,353.12,28 / 30,973721,2019-09-08 10:24:00:345,0.2436,-0.2221,9.5335,-0.0501,0.001,9.8065,0.0378,-0.1193,0.1543,-16.81,-29.62,2.63,287.47,-77.81,-151.23
9709,52.416428,-1.596704,181.87,7.97,2,353.12,25 / 27,973822,2019-09-08 10:24:00:446,-0.7373,0.2964,9.8951,-0.0832,-0.0213,9.8062,0.1592,0.0686,0.0154,-16.56,-29.37,2.63,286.45,-77.4,-152.11
9710,52.416428,-1.596704,181.87,7.97,2,353.12,25 / 27,973921,2019-09-08 10:24:00:545,1.3168,-0.248,10.0954,0.0743,0.0217,9.8063,-0.1051,0.0462,-0.0135,-16.87,-29.69,2.06,283.57,-77.74,-151.14
9711,52.416428,-1.596704,181.87,7.97,2,353.12,25 / 27,974021,2019-09-08 10:24:00:645,-0.1945,-0.4243,9.3776,0.0627,0.0203,9.8064,-0.1607,-0.0304,0.0421,-17.06,-29.06,2.31,282.0,-77.31,-152.53
9712,52.416428,-1.596704,181.87,7.97,2,353.12,25 / 27,974121,2019-09-08 10:24:00:745,-0.0103,0.0403,9.9259,-0.0294,-0.0093,9.8065,0.1383,0.0422,-0.0057,-17.37,-29.5,2.5,286.46,-77.44,-152.17
9713,52.416428,-1.596704,181.87,7.97,2,353.12,25 / 27,974221,2019-09-08 10:24:00:845,0.3485,-0.009,9.8817,-0.0264,-0.0058,9.8065,0.0859,0.0434,0.0141,-16.12,-29.06,2.31,281.49,-77.46,-152.31
9714,52.416428,-1.596704,181.87,7.97,2,353.12,25 / 27,974321,2019-09-08 10:24:00:945,0.6845,0.9351,9.8474,-0.0151,-0.0005,9.8066,0.0766,0.0516,0.006,-16.56,-29.87,2.56,284.96,-77.47,-152.82
9715,52.416428,-1.596704,181.87,7.97,2,353.12,25 / 27,974421,2019-09-08 10:24:01:045,0.6855,0.4223,10.0615,-0.0114,0.0049,9.8066,0.1125,0.0224,-0.0134,-15.56,-29.44,3.19,284.83,-77.51,-153.05
9716,52.416428,-1.596704,181.87,7.97,2,353.12,25 / 27,974521,2019-09-08 10:24:01:145,-0.9661,0.4224,9.9711,0.0071,0.0106,9.8066,0.0666,0.0226,-0.0663,-15.81,-29.19,2.63,284.15,-77.35,-153.36
9717,52.416428,-1.596704,181.87,7.97,2,353.12,25 / 27,974621,2019-09-08 10:24:01:245,0.5495,0.5203,10.4694,0.0,0.0079,9.8066,0.1118,-0.0092,0.0098,-15.31,-29.31,3.0,281.63,-77.29,-154.66
9718,52.416428,-1.596704,181.87,7.97,2,353.12,25 / 27,974721,2019-09-08 10:24:01:345,0.2637,0.7495,9.829,0.0303,0.0106,9.8065,-0.1265,-0.0133,0.0147,-15.75,-29.62,3.25,280.39,-77.07,-155.39
9719,52.416428,-1.596704,181.87,7.97,2,353.12,26 / 30,974821,2019-09-08 10:24:01:445,-0.6931,1.1785,9.8613,-0.0029,0.0024,9.8065,-0.0717,0.0298,-0.0648,-15.19,-29.25,3.44,280.37,-77.13,-155.48
9720,52.416428,-1.596704,181.87,7.97,2,353.12,26 / 30,974922,2019-09-08 10:24:01:546,0.5309,0.4309,9.9812,0.0358,0.0221,9.8065,-0.0677,0.0167,-0.0835,-14.81,-29.5,3.31,280.75,-77.27,-155.44
9721,52.416428,-1.596704,181.87,7.97,2,353.12,26 / 30,975021,2019-09-08 10:24:01:645,0.5727,1.2241,8.4003,0.0443,0.0123,9.8064,-0.081,0.0707,-0.0759,-15.0,-29.56,3.38,278.05,-77.11,-156.68
9722,52.416428,-1.596704,181.87,7.97,2,353.12,26 / 30,975121,2019-09-08 10:24:01:745,-1.333,0.7329,9.9028,-0.0183,-0.0122,9.8065,0.1406,0.0667,-0.0431,-15.19,-29.56,3.44,278.1,-77.08,-156.57
9723,52.416428,-1.596704,181.87,7.97,2,353.12,26 / 30,975222,2019-09-08 10:24:01:846,-0.3211,1.7636,10.061,-0.0086,-0.012,9.8066,0.0419,0.1126,-0.0373,-14.87,-29.12,4.06,284.13,-77.1,-155.98
9724,52.416428,-1.596704,181.87,7.97,2,353.12,26 / 30,975322,2019-09-08 10:24:01:946,-1.4576,0.6772,8.8385,-0.0203,-0.0144,9.8066,0.0593,0.0539,0.0588,-15.31,-29.69,3.38,279.2,-77.1,-155.57
9725,52.416428,-1.596704,181.87,7.97,2,353.12,26 / 30,975422,2019-09-08 10:24:02:046,-0.1761,0.995,9.7341,-0.0359,-0.0263,9.8065,0.1176,0.0932,0.0305,-14.69,-29.69,3.56,283.89,-76.94,-154.94
9726,52.416428,-1.596704,181.87,7.97,2,353.12,26 / 30,975522,2019-09-08 10:24:02:146,-0.7199,0.0483,9.8827,0.0289,-0.0056,9.8066,-0.0244,0.0988,0.0747,-14.94,-29.87,3.63,283.56,-76.74,-154.79
9727,52.416428,-1.596704,181.87,7.97,2,353.12,26 / 30,975621,2019-09-08 10:24:02:245,-0.6319,0.2064,9.9773,0.0193,-0.0145,9.8065,-0.0568,-0.0087,0.0485,-14.5,-29.19,4.25,283.54,-76.46,-154.28
9728,52.416428,-1.596704,181.87,7.97,2,353.12,26 / 30,975721,2019-09-08 10:24:02:345,0.7171,0.0253,9.7147,0.0035,0.0099,9.8066,0.0333,0.0298,0.0597,-15.06,-29.31,3.88,285.04,-76.44,-153.75
9729,52.416428,-1.596704,181.87,7.97,2,353.12,26 / 30,975822,2019-09-08 10:24:02:446,0.1179,-0.8084,9.4144,0.0139,-0.0082,9.8066,0.0069,0.0128,-0.007,-14.56,-29.69,4.25,284.15,-76.43,-153.54
9730,52.416428,-1.596704,181.87,7.97,2,353.12,25 / 28,975921,2019-09-08 10:24:02:545,-0.1105,1.3087,9.5657,-0.0173,0.0127,9.8066,0.1103,-0.0288,0.0021,-14.62,-30.31,3.94,283.8,-76.53,-154.08
9731,52.416428,-1.596704,181.87,7.97,2,353.12,25 / 28,976021,2019-09-08 10:24:02:645,-0.2891,0.1873,9.4954,-0.0113,0.0076,9.8066,0.0174,0.0255,-0.0026,-13.87,-29.69,3.88,283.03,-76.74,-154.37
9732,52.416428,-1.596704,181.87,7.97,2,353.12,25 / 28,976121,2019-09-08 10:24:02:745,-0.8152,0.9597,9.1676,-0.0159,0.0119,9.8066,-0.0791,0.0721,-0.0603,-15.0,-30.0,3.56,284.55,-76.94,-154.34
9733,52.416428,-1.596704,181.87,7.97,2,353.12,25 / 28,976221,2019-09-08 10:24:02:845,-1.1615,-0.8054,9.5263,-0.0036,0.0065,9.8066,-0.0888,-0.0312,0.0212,-14.25,-29.56,3.88,283.95,-77.18,-154.63
9734,52.416428,-1.596704,181.87,7.97,2,353.12,25 / 28,976322,2019-09-08 10:24:02:946,-0.0248,1.052,9.5357,0.0081,0.0154,9.8066,-0.0505,0.0406,-0.0385,-14.19,-29.87,3.94,283.75,-77.29,-155.07
9735,52.416428,-1.596704,181.87,7.97,2,353.12,25 / 28,976421,2019-09-08 10:24:03:045,-0.2187,0.3834,9.1155,0.0142,-0.0001,9.8066,-0.0314,0.0299,-0.0148,-13.62,-29.87,4.13,283.85,-77.34,-155.11
9736,52.416428,-1.596704,181.87,7.97,2,353.12,25 / 28,976521,2019-09-08 10:24:03:145,-0.0523,1.699,9.2654,-0.0315,-0.0159,9.8065,0.0819,-0.0812,0.1286,-13.94,-29.44,4.0,285.47,-77.46,-154.89
9737,52.416428,-1.596704,181.87,7.97,2,353.12,25 / 28,976621,2019-09-08 10:24:03:245,-2.4115,0.3661,10.4406,-0.0482,-0.0189,9.8065,0.1926,0.0705,-0.0453,-13.62,-29.56,3.75,286.79,-77.64,-153.22
9738,52.416428,-1.596704,181.87,7.97,2,353.12,25 / 28,976722,2019-09-08 10:24:03:346,-0.808,0.749,10.0631,0.0297,0.0027,9.8065,-0.0122,-0.0656,0.1261,-14.31,-29.62,3.81,286.27,-77.56,-153.49
9739,52.416428,-1.596704,181.87,7.97,2,353.12,26 / 28,976821,2019-09-08 10:24:03:445,-0.0902,0.855,10.0689,0.0256,-0.0126,9.8065,0.0924,0.087,-0.0469,-14.37,-29.31,3.75,286.54,-77.2,-153.35
9740,52.416428,-1.596704,181.87,7.97,2,353.12,26 / 28,976921,2019-09-08 10:24:03:545,0.4356,0.317,9.9096,0.0022,0.0005,9.8066,-0.0566,-0.0168,0.0604,-14.06,-28.87,4.56,290.62,-77.09,-153.89
9741,52.416428,-1.596704,181.87,7.97,2,353.12,26 / 28,977021,2019-09-08 10:24:03:645,-0.4452,-0.0604,10.0308,-0.024,-0.0043,9.8066,-0.0094,0.0192,-0.024,-13.5,-29.44,3.63,285.37,-77.19,-153.55
9742,52.416428,-1.596704,181.87,7.97,2,353.12,26 / 28,977121,2019-09-08 10:24:03:745,0.8061,0.3739,10.2342,0.0275,0.0145,9.8065,-0.1278,0.0084,-0.0238,-13.69,-29.44,3.88,286.67,-77.36,-153.6
9743,52.416428,-1.596704,181.87,7.97,2,353.12,26 / 28,977221,2019-09-08 10:24:03:845,-1.0021,0.7512,9.3502,0.0146,0.0111,9.8066,-0.0778,0.027,-0.0258,-13.31,-28.87,2.94,279.95,-77.43,-154.32
9744,52.416428,-1.596704,181.87,7.97,2,353.12,26 / 28,977322,2019-09-08 10:24:03:946,-0.5688,0.2444,9.8621,0.0022,0.0094,9.8065,-0.0562,0.0435,-0.0678,-12.94,-28.87,3.13,280.24,-77.54,-154.33
9745,52.416428,-1.596704,181.87,7.97,2,353.12,26 / 28,977422,2019-09-08 10:24:04:046,-0.9861,-0.1712,9.6324,-0.0098,0.0141,9.8066,-0.0685,0.0141,0.0007,-13.5,-29.69,3.81,284.01,-77.69,-154.97
9746,52.416428,-1.596704,181.87,7.97,2,353.12,26 / 28,977521,2019-09-08 10:24:04:145,0.6633,-0.59,9.5317,-0.0091,-0.0097,9.8066,0.0087,0.0962,-0.0365,-13.44,-28.81,3.19,279.84,-77.77,-155.28
9747,52.416428,-1.596704,181.87,7.97,2,353.12,26 / 28,977621,2019-09-08 10:24:04:245,-0.4124,-0.0964,10.0887,-0.0157,-0.0032,9.8066,0.0268,0.0013,0.0472,-13.19,-29.69,3.38,279.69,-77.97,-154.91
9748,52.416428,-1.596704,181.87,7.97,2,353.12,26 / 28,977721,2019-09-08 10:24:04:345,0.0049,-0.2265,9.576,-0.0083,-0.0114,9.8066,-0.0919,0.0258,0.0154,-13.12,-29.06,3.31,281.58,-78.08,-154.47
9749,52.416428,-1.596704,181.87,7.97,2,353.12,26 / 28,977822,2019-09-08 10:24:04:446,-1.3415,-0.5881,9.3278,-0.0241,-0.0017,9.8066,-0.0836,0.0074,-0.0258,-14.06,-29.5,3.19,284.11,-78.27,-153.66
9750,52.4171,-1.597054,182.36,9.53,2,334.39,27 / 29,977921,2019-09-08 10:24:04:545,-0.5706,0.3924,9.9582,0.0073,0.0235,9.8065,0.0275,-0.072,0.022,-13.06,-29.44,3.06,282.84,-78.27,-153.81
9751,52.4171,-1.597054,182.36,9.53,2,334.39,27 / 29,978021,2019-09-08 10:24:04:645,-1.091,-0.3376,9.7847,0.0221,0.0064,9.8065,0.0486,-0.0049,0.0043,-13.25,-29.31,3.44,281.47,-78.19,-154.85
9752,52.4171,-1.597054,182.36,9.53,2,334.39,27 / 29,978121,2019-09-08 10:24:04:745,1.3321,-1.03,9.8454,0.0319,0.0083,9.8066,-0.1408,-0.0464,-0.0316,-13.12,-29.12,3.25,281.2,-78.19,-155.12
9753,52.4171,-1.597054,182.36,9.53,2,334.39,27 / 29,978221,2019-09-08 10:24:04:845,-0.9187,0.0071,9.7353,0.0044,0.0046,9.8066,-0.0562,0.004,-0.0397,-13.37,-29.37,3.06,280.63,-78.19,-155.63
9754,52.4171,-1.597054,182.36,9.53,2,334.39,27 / 29,978322,2019-09-08 10:24:04:946,-1.332,-1.1922,10.0938,-0.0084,0.0016,9.8065,0.047,-0.0043,-0.0798,-12.31,-29.44,3.13,279.63,-78.33,-155.72
9755,52.4171,-1.597054,182.36,9.53,2,334.39,27 / 29,978422,2019-09-08 10:24:05:046,-1.1409,0.4595,9.3601,0.013,0.0102,9.8066,-0.0526,-0.0175,-0.0081,-13.12,-29.31,3.38,280.2,-78.3,-156.3
9756,52.4171,-1.597054,182.36,9.53,2,334.39,27 / 29,978522,2019-09-08 10:24:05:146,-0.4509,-0.4909,9.6723,-0.0107,-0.0049,9.8066,0.0611,0.0138,-0.017,-12.75,-29.44,2.63,279.93,-78.22,-156.34
9757,52.4171,-1.597054,182.36,9.53,2,334.39,27 / 29,978621,2019-09-08 10:24:05:245,-1.2903,-0.6728,9.777,-0.0042,0.0004,9.8066,0.009,0.0088,0.0124,-12.94,-28.81,3.31,280.05,-78.22,-156.24
9758,52.4171,-1.597054,182.36,9.53,2,334.39,27 / 29,978721,2019-09-08 10:24:05:345,-1.2453,-0.1593,9.8914,-0.0022,-0.0054,9.8065,0.0293,-0.0135,0.0077,-12.87,-29.25,3.25,279.92,-78.17,-156.23
9759,52.4171,-1.597054,182.36,9.53,2,334.39,27 / 29,978822,2019-09-08 10:24:05:446,-1.1648,-0.8467,10.1601,0.0143,0.0019,9.8066,-0.0092,-0.0341,0.0103,-13.44,-28.62,4.13,284.76,-78.05,-156.2
9760,52.4171,-1.597054,182.36,9.53,2,334.39,29 / 30,978921,2019-09-08 10:24:05:545,-0.44,-0.4972,9.3989,0.0013,0.0032,9.8066,-0.0159,-0.0244,0.0173,-13.12,-29.5,3.56,284.87,-78.14,-156.31
9761,52.4171,-1.597054,182.36,9.53,2,334.39,29 / 30,979022,2019-09-08 10:24:05:646,-1.1721,-0.6903,9.7644,-0.0213,0.0023,9.8066,0.005,-0.0395,0.0351,-12.75,-28.87,3.19,280.02,-78.26,-156.37
9762,52.4171,-1.597054,182.36,9.53,2,334.39,29 / 30,979122,2019-09-08 10:24:05:746,-1.3637,-0.1896,10.0696,-0.013,0.015,9.8065,0.0318,0.0046,-0.0558,-12.69,-28.94,3.25,279.89,-78.3,-156.6
9763,52.4171,-1.597054,182.36,9.53,2,334.39,29 / 30,979221,2019-09-08 10:24:05:845,-1.4445,0.3319,9.9761,0.0088,0.016,9.8066,-0.0577,-0.0707,-0.0595,-13.06,-28.94,2.75,278.83,-78.37,-157.77
9764,52.4171,-1.597054,182.36,9.53,2,334.39,29 / 30,979322,2019-09-08 10:24:05:946,-1.3218,-0.5398,10.6271,-0.0072,0.0093,9.8065,0.1218,0.0135,-0.1217,-12.5,-28.87,3.88,282.73,-78.4,-158.16
9765,52.4171,-1.597054,182.36,9.53,2,334.39,29 / 30,979421,2019-09-08 10:24:06:045,-1.7536,-0.1399,9.9648,0.001,0.0166,9.8066,0.0779,-0.029,0.0337,-13.19,-29.12,3.44,277.2,-78.48,-159.57
9766,52.4171,-1.597054,182.36,9.53,2,334.39,29 / 30,979522,2019-09-08 10:24:06:146,0.0034,0.19,9.8505,-0.0017,0.0141,9.8066,-0.0586,0.0067,-0.0304,-12.12,-28.81,3.13,275.12,-78.43,-160.26
9767,52.4171,-1.597054,182.36,9.53,2,334.39,29 / 30,979621,2019-09-08 10:24:06:245,-0.6521,-0.0113,9.6234,-0.0054,0.0125,9.8066,-0.0437,0.0344,-0.0021,-12.62,-29.12,3.13,275.77,-78.55,-161.13
9768,52.4171,-1.597054,182.36,9.53,2,334.39,29 / 30,979721,2019-09-08 10:24:06:345,-0.4778,0.6258,9.8041,0.0101,0.0191,9.8066,-0.0354,0.0535,-0.0119,-11.87,-29.25,3.38,274.56,-78.72,-161.62
9769,52.4171,-1.597054,182.36,9.53,2,334.39,28 / 29,979821,2019-09-08 10:24:06:445,-0.4047,0.4881,9.7255,0.0119,0.0149,9.8066,-0.064,0.0527,-0.0378,-12.44,-29.31,3.0,273.64,-78.77,-162.65
9770,52.4171,-1.597054,182.36,9.53,2,334.39,28 / 29,979921,2019-09-08 10:24:06:545,-1.838,-0.5384,9.8264,-0.0384,0.0056,9.8065,0.1059,0.021,-0.0343,-11.25,-29.19,3.06,271.83,-78.82,-163.24
9771,52.4171,-1.597054,182.36,9.53,2,334.39,28 / 29,980022,2019-09-08 10:24:06:646,-0.149,1.3391,10.2109,-0.0353,0.0173,9.8065,0.1288,0.0656,-0.0722,-11.69,-30.19,3.25,271.43,-79.13,-164.83
9772,52.4171,-1.597054,182.36,9.53,2,334.39,28 / 29,980122,2019-09-08 10:24:06:746,-0.7497,0.6853,9.7319,0.0056,0.0125,9.8066,-0.095,0.0435,-0.0476,-10.75,-29.37,3.88,275.72,-79.08,-165.76
9773,52.4171,-1.597054,182.36,9.53,2,334.39,28 / 29,980222,2019-09-08 10:24:06:846,-1.1831,0.0165,9.4981,-0.0113,0.0027,9.8066,0.0294,0.0271,0.0041,-11.69,-29.81,3.63,275.18,-79.16,-166.28
9774,52.4171,-1.597054,182.36,9.53,2,334.39,28 / 29,980322,2019-09-08 10:24:06:946,-0.4035,1.0081,9.6133,0.0173,0.0082,9.8066,-0.0372,0.0549,-0.0499,-10.31,-29.5,3.75,273.92,-79.14,-166.81
9775,52.4171,-1.597054,182.36,9.53,2,334.39,28 / 29,980421,2019-09-08 10:24:07:045,-1.0473,0.7051,9.8269,0.0225,0.0049,9.8065,-0.093,0.0881,-0.0463,-11.12,-29.62,3.19,267.33,-79.03,-167.33
9776,52.4171,-1.597054,182.36,9.53,2,334.39,28 / 29,980521,2019-09-08 10:24:07:145,-0.5764,0.1515,10.2066,0.0077,-0.004,9.8065,0.0041,0.1516,-0.0464,-10.37,-29.94,3.38,265.74,-79.14,-167.67
9777,52.4171,-1.597054,182.36,9.53,2,334.39,28 / 29,980622,2019-09-08 10:24:07:246,-2.1795,1.4299,9.2345,0.015,0.0109,9.8065,-0.0462,0.1457,-0.0878,-10.56,-29.69,3.63,272.42,-79.11,-167.99
9778,52.4171,-1.597054,182.36,9.53,2,334.39,28 / 29,980724,2019-09-08 10:24:07:348,-0.8505,1.7522,9.7986,-0.0158,-0.0014,9.8066,0.0907,0.0465,0.0467,-9.69,-29.06,3.88,272.11,-79.07,-168.36
9779,52.4171,-1.597054,182.36,9.53,2,334.39,29 / 30,980822,2019-09-08 10:24:07:446,-1.8977,0.4324,9.9614,-0.016,-0.015,9.8066,0.1575,0.0883,-0.0297,-10.19,-29.31,3.88,273.16,-79.17,-167.64
9780,52.4171,-1.597054,182.36,9.53,2,334.39,29 / 30,980922,2019-09-08 10:24:07:546,-0.2539,2.0289,9.8917,0.0044,0.0055,9.8066,-0.1071,0.1195,-0.0128,-10.25,-29.44,4.19,273.02,-79.14,-167.67
9781,52.4171,-1.597054,182.36,9.53,2,334.39,29 / 30,981021,2019-09-08 10:24:07:645,-1.4182,0.88,10.2058,-0.0018,-0.0099,9.8066,-0.0537,0.0823,-0.0118,-9.87,-29.19,4.56,279.69,-79.11,-167.24
9782,52.4171,-1.597054,182.36,9.53,2,334.39,29 / 30,981122,2019-09-08 10:24:07:746,0.2254,0.8652,9.7736,0.0162,-0.0058,9.8066,0.0243,0.1053,0.0332,-9.81,-28.56,4.75,279.75,-79.01,-166.88
9783,52.4171,-1.597054,182.36,9.53,2,334.39,29 / 30,981222,2019-09-08 10:24:07:846,-0.1473,0.5147,9.4455,0.0106,0.0015,9.8066,-0.0535,0.0506,0.0657,-8.75,-27.75,5.0,280.66,-78.95,-166.76
9784,52.4171,-1.597054,182.36,9.53,2,334.39,29 / 30,981321,2019-09-08 10:24:07:945,-1.5872,0.5009,10.3191,-0.0027,-0.0052,9.8066,0.0642,0.0637,0.0399,-9.06,-27.12,4.63,282.51,-78.94,-166.32
9785,52.4171,-1.597054,182.36,9.53,2,334.39,29 / 30,981422,2019-09-08 10:24:08:046,-0.6187,0.9882,9.2386,-0.0264,-0.0051,9.8066,0.0894,0.1341,-0.011,-7.69,-27.0,4.0,275.48,-79.13,-165.77
9786,52.4171,-1.597054,182.36,9.53,2,334.39,29 / 30,981522,2019-09-08 10:24:08:146,-0.7539,0.6755,10.1897,-0.0315,0.0003,9.8065,-0.043,0.1147,-0.0289,-8.62,-28.25,4.56,282.74,-79.18,-165.67
9787,52.4171,-1.597054,182.36,9.53,2,334.39,29 / 30,981622,2019-09-08 10:24:08:246,-0.114,-0.5717,10.1408,-0.0366,-0.0026,9.8065,-0.0365,-0.0003,0.0443,-8.81,-28.62,4.31,275.48,-79.5,-165.5
9788,52.4171,-1.597054,182.36,9.53,2,334.39,29 / 30,981722,2019-09-08 10:24:08:346,1.6211,1.8684,9.4183,0.0309,0.0204,9.8065,-0.1361,0.0038,0.0303,-7.87,-28.56,4.19,273.38,-79.43,-165.99
9789,52.4171,-1.597054,182.36,9.53,2,334.39,29 / 30,981821,2019-09-08 10:24:08:445,-0.0116,0.5472,10.3282,0.0251,0.0006,9.8066,-0.0824,0.0982,-0.0117,-8.12,-29.0,4.31,274.25,-79.58,-165.77
9790,52.4171,-1.597054,182.36,9.53,2,334.39,27 / 29,981921,2019-09-08 10:24:08:545,-0.7427,0.1094,10.4723,-0.0282,0.0027,9.8066,0.0772,0.1187,-0.1066,-8.44,-29.06,5.13,283.03,-79.65,-165.63
9791,52.4171,-1.597054,182.36,9.53,2,334.39,27 / 29,982022,2019-09-08 10:24:08:646,-0.6487,1.0248,9.6892,-0.0025,0.0127,9.8065,0.0265,0.0574,0.0273,-8.69,-28.56,5.56,289.82,-79.74,-166.47
9792,52.4171,-1.597054,182.36,9.53,2,334.39,27 / 29,982121,2019-09-08 10:24:08:745,0.1564,0.3812,9.25,0.0096,0.0037,9.8066,0.0412,0.0705,-0.0084,-8.06,-28.69,5.81,290.73,-79.63,-166.13
9793,52.4171,-1.597054,182.36,9.53,2,334.39,27 / 29,982222,2019-09-08 10:24:08:846,1.8875,-0.0662,9.7156,0.0023,-0.0049,9.8066,0.0096,0.0662,-0.0797,-8.94,-28.87,5.5,288.81,-79.48,-166.52
9794,52.4171,-1.597054,182.36,9.53,2,334.39,27 / 29,982322,2019-09-08 10:24:08:946,0.0619,0.5226,9.8952,0.0256,0.0144,9.8065,-0.0044,0.0614,-0.0861,-8.69,-27.94,6.25,288.37,-79.29,-167.38
9795,52.4171,-1.597054,182.36,9.53,2,334.39,27 / 29,982422,2019-09-08 10:24:09:046,0.6096,0.8396,9.2702,0.0056,0.004,9.8066,0.0599,0.0595,-0.0184,-8.62,-28.37,5.5,287.78,-79.25,-167.75
9796,52.4171,-1.597054,182.36,9.53,2,334.39,27 / 29,982521,2019-09-08 10:24:09:145,0.3753,-0.1387,9.2511,0.0019,0.0063,9.8066,0.084,0.1089,-0.0405,-8.0,-28.69,5.0,278.83,-79.25,-167.82
9797,52.4171,-1.597054,182.36,9.53,2,334.39,27 / 29,982621,2019-09-08 10:24:09:245,1.4391,1.1379,9.8348,-0.0053,0.0097,9.8066,-0.1501,0.0612,-0.0127,-8.0,-29.31,5.38,279.12,-79.36,-167.97
9798,52.4171,-1.597054,182.36,9.53,2,334.39,27 / 29,982722,2019-09-08 10:24:09:346,-0.3144,0.9178,9.7901,-0.0143,-0.0045,9.8066,-0.0807,0.0738,-0.0055,-7.37,-28.81,4.81,279.52,-79.6,-168.3
9799,52.4171,-1.597054,182.36,9.53,2,334.39,27 / 29,982822,2019-09-08 10:24:09:446,-0.1875,1.1191,9.9777,-0.0195,0.0022,9.8065,0.165,-0.0035,0.0768,-7.94,-28.94,5.31,280.14,-79.62,-168.05
9800,52.4171,-1.597054,182.36,9.53,2,334.39,27 / 29,982922,2019-09-08 10:24:09:546,0.2727,1.3212,9.9617,0.042,-0.009,9.8065,0.1034,0.1291,-0.0486,-7.25,-28.75,6.38,287.31,-79.34,-168.66
9801,52.4171,-1.597054,182.36,9.53,2,334.39,27 / 29,983021,2019-09-08 10:24:09:645,0.4446,0.1824,10.2819,0.0334,0.0019,9.8065,0.0597,0.1104,-0.029,-7.69,-29.06,6.25,285.8,-79.27,-168.93
9802,52.4171,-1.597054,182.36,9.53,2,334.39,27 / 29,983122,2019-09-08 10:24:09:746,0.4249,1.0133,10.1216,-0.0082,-0.0186,9.8066,0.0539,-0.0708,0.1047,-7.69,-28.56,6.13,286.63,-79.26,-168.2
9803,52.4171,-1.597054,182.36,9.53,2,334.39,27 / 29,983222,2019-09-08 10:24:09:846,0.9116,-1.035,9.9233,-0.0037,0.004,9.8066,-0.0444,0.0733,0.0107,-7.69,-29.69,6.5,293.61,-79.2,-167.74
9804,52.4171,-1.597054,182.36,9.53,2,334.39,27 / 29,983322,2019-09-08 10:24:09:946,1.5592,1.5693,9.1723,0.006,0.0163,9.8065,-0.0272,0.0736,-0.0452,-7.56,-29.62,6.38,285.07,-79.12,-167.77
9805,52.4171,-1.597054,182.36,9.53,2,334.39,27 / 29,983422,2019-09-08 10:24:10:046,1.3204,1.3737,10.0415,-0.0235,0.0015,9.8066,0.0025,-0.0114,0.0542,-7.69,-29.87,6.56,293.03,-79.28,-168.43
9806,52.4171,-1.597054,182.36,9.53,2,334.39,27 / 29,983522,2019-09-08 10:24:10:146,-0.4832,2.1217,9.5587,-0.0104,0.0128,9.8066,0.0034,0.1818,-0.0916,-6.56,-28.75,6.69,296.23,-79.46,-169.21
9807,52.4171,-1.597054,182.36,9.53,2,334.39,27 / 29,983622,2019-09-08 10:24:10:246,0.0894,0.9412,10.2386,0.0021,0.0015,9.8066,-0.0013,0.0702,-0.0385,-6.69,-29.69,7.13,294.71,-79.46,-169.23
9808,52.4171,-1.597054,182.36,9.53,2,334.39,27 / 29,983721,2019-09-08 10:24:10:345,0.4515,0.1928,9.6397,-0.0096,0.0002,9.8066,0.0482,0.1252,-0.0349,-6.75,-28.62,6.38,286.72,-79.57,-169.98
9809,52.4171,-1.597054,182.36,9.53,2,334.39,27 / 29,983821,2019-09-08 10:24:10:445,-0.8242,2.3845,10.3195,-0.0036,0.0007,9.8065,-0.0472,0.1654,-0.0522,-7.25,-28.44,7.31,297.6,-79.66,-169.91
9810,52.4171,-1.597054,182.36,9.53,2,334.39,25 / 29,983921,2019-09-08 10:24:10:545,0.1389,0.6116,10.159,-0.0054,-0.0011,9.8066,0.0121,0.1261,-0.0083,-6.31,-27.12,8.13,311.96,-79.81,-169.71
9811,52.4171,-1.597054,182.36,9.53,2,334.39,25 / 29,984022,2019-09-08 10:24:10:646,-0.4447,0.8927,10.2217,0.0083,-0.0022,9.8066,-0.0029,0.1182,-0.0497,-5.25,-26.87,8.63,325.58,-79.85,-169.72
9812,52.4171,-1.597054,182.36,9.53,2,334.39,25 / 29,984122,2019-09-08 10:24:10:746,1.0139,1.0201,9.432,-0.0116,0.0023,9.8066,0.0005,0.0741,0.0404,-4.56,-27.87,8.13,317.07,-79.89,-169.54
9813,52.4171,-1.597054,182.36,9.53,2,334.39,25 / 29,984222,2019-09-08 10:24:10:846,-0.7126,1.6214,10.0618,-0.0003,-0.0029,9.8066,0.0587,0.1243,-0.0064,-4.69,-27.81,6.94,306.99,-79.79,-169.3
9814,52.4171,-1.597054,182.36,9.53,2,334.39,25 / 29,984321,2019-09-08 10:24:10:945,0.2544,0.2648,9.8716,0.0053,-0.0034,9.8066,-0.0355,0.0619,0.037,-4.81,-28.0,7.06,307.29,-79.93,-169.53
9815,52.4171,-1.597054,182.36,9.53,2,334.39,25 / 29,984421,2019-09-08 10:24:11:045,-0.0905,1.6395,9.5994,0.002,0.0036,9.8066,0.0283,0.1244,-0.067,-5.19,-29.06,6.81,305.28,-80.01,-169.94
9816,52.4171,-1.597054,182.36,9.53,2,334.39,25 / 29,984521,2019-09-08 10:24:11:145,-0.7343,0.1005,9.7517,-0.0009,-0.0132,9.8066,0.0667,0.0297,0.0431,-5.25,-29.0,7.56,315.53,-80.09,-170.1
9817,52.4171,-1.597054,182.36,9.53,2,334.39,25 / 29,984621,2019-09-08 10:24:11:245,0.1553,1.512,9.6839,-0.0135,0.0146,9.8066,-0.0099,0.0777,-0.0181,-4.87,-29.0,8.0,316.07,-80.16,-169.97
9818,52.4171,-1.597054,182.36,9.53,2,334.39,25 / 29,984721,2019-09-08 10:24:11:345,-0.5379,2.167,9.6289,0.0027,0.0072,9.8066,-0.0827,0.1041,-0.0398,-4.87,-29.12,8.31,316.04,-80.24,-170.18
9819,52.4171,-1.597054,182.36,9.53,2,334.39,25 / 29,984821,2019-09-08 10:24:11:445,0.4924,1.0392,9.3602,-0.0052,0.0028,9.8066,0.0157,0.0897,0.0697,-5.12,-29.44,8.13,316.3,-80.29,-170.13
9820,52.4171,-1.597054,182.36,9.53,2,334.39,26 / 28,984922,2019-09-08 10:24:11:546,0.3251,0.8594,9.9997,0.0067,-0.0053,9.8066,0.036,0.1035,0.0284,-4.62,-29.12,9.19,324.58,-80.41,-170.13
9821,52.4171,-1.597054,182.36,9.53,2,334.39,26 / 28,985022,2019-09-08 10:24:11:646,0.1053,0.9187,10.1739,0.0043,-0.0137,9.8066,-0.001,0.1106,0.0577,-4.31,-28.87,8.06,325.35,-80.48,-169.88
9822,52.4171,-1.597054,182.36,9.53,2,334.39,26 / 28,985121,2019-09-08 10:24:11:745,-0.4345,1.2837,10.1564,0.0051,-0.003,9.8066,0.0584,0.0663,-0.0067,-4.31,-28.81,8.38,326.7,-80.68,-169.56
9823,52.4171,-1.597054,182.36,9.53,2,334.39,26 / 28,985222,2019-09-08 10:24:11:846,-0.0334,1.895,9.7186,0.0069,-0.0156,9.8066,0.0426,0.0134,0.0243,-4.12,-28.81,8.13,326.7,-80.66,-169.52
9824,52.4171,-1.597054,182.36,9.53,2,334.39,26 / 28,985321,2019-09-08 10:24:11:945,-0.0643,1.2658,9.8398,-0.0023,0.0037,9.8065,-0.0018,0.0542,-0.0191,-4.69,-29.06,8.88,325.95,-80.57,-169.6
9825,52.4171,-1.597054,182.36,9.53,2,334.39,26 / 28,985422,2019-09-08 10:24:12:046,0.0044,0.8919,9.947,-0.0005,0.0084,9.8066,0.0095,0.0436,-0.0527,-4.31,-28.87,9.5,338.75,-80.48,-169.88
9826,52.4171,-1.597054,182.36,9.53,2,334.39,26 / 28,985522,2019-09-08 10:24:12:146,-0.7553,0.8022,10.1803,0.0073,-0.0121,9.8065,0.0343,0.0515,-0.0183,-4.5,-28.62,8.94,332.48,-80.47,-170.18
9827,52.4171,-1.597054,182.36,9.53,2,334.39,26 / 28,985622,2019-09-08 10:24:12:246,0.9073,2.0652,9.7227,0.0153,0.0064,9.8065,-0.0121,0.0455,-0.0366,-4.44,-29.31,9.31,330.22,-80.41,-171.32
9828,52.4171,-1.597054,182.36,9.53,2,334.39,26 / 28,985721,2019-09-08 10:24:12:345,0.3838,1.4464,9.4094,-0.0136,0.0052,9.8066,-0.0218,0.1299,0.0002,-3.81,-28.56,9.56,336.44,-80.38,-171.08
9829,52.4171,-1.597054,182.36,9.53,2,334.39,26 / 28,985821,2019-09-08 10:24:12:445,0.168,1.2121,10.1881,-0.0115,0.0097,9.8065,0.0331,0.0709,0.0431,-3.87,-28.69,9.5,336.89,-80.41,-170.86
9830,52.4171,-1.597054,182.36,9.53,2,334.39,26 / 27,985922,2019-09-08 10:24:12:546,0.4087,1.164,10.4531,-0.0026,-0.0238,9.8065,0.0517,0.0979,0.088,-3.5,-28.25,10.25,346.98,-80.49,-170.42
9831,52.4171,-1.597054,182.36,9.53,2,334.39,26 / 27,986021,2019-09-08 10:24:12:645,-0.1999,2.0385,10.3301,0.004,-0.0237,9.8066,-0.0069,0.1096,0.0093,-3.12,-28.37,9.63,348.5,-80.32,-169.48
9832,52.4171,-1.597054,182.36,9.53,2,334.39,26 / 27,986122,2019-09-08 10:24:12:746,0.3752,1.3941,9.706,-0.0021,0.0106,9.8066,0.0495,0.1113,0.0046,-3.37,-27.62,10.19,348.39,-80.16,-169.45
9833,52.4171,-1.597054,182.36,9.53,2,334.39,26 / 27,986221,2019-09-08 10:24:12:845,0.8977,0.3235,9.7286,-0.0145,0.0289,9.8065,-0.0505,0.116,0.0149,-4.06,-28.06,9.81,339.39,-80.1,-169.46
9834,52.4171,-1.597054,182.36,9.53,2,334.39,26 / 27,986322,2019-09-08 10:24:12:946,1.0629,0.0751,10.189,0.0099,-0.0004,9.8066,-0.1387,0.1619,-0.0651,-4.31,-27.37,9.44,334.18,-80.06,-169.6
9835,52.4171,-1.597054,182.36,9.53,2,334.39,26 / 27,986421,2019-09-08 10:24:13:045,-0.1132,1.7524,9.5572,-0.0047,0.0048,9.8066,0.0974,0.1174,-0.0159,-4.62,-27.5,10.75,337.01,-80.16,-169.64
9836,52.4171,-1.597054,182.36,9.53,2,334.39,26 / 27,986521,2019-09-08 10:24:13:145,1.3654,2.3683,9.099,-0.0014,0.0176,9.8066,0.0693,0.1935,-0.0532,-4.31,-27.19,11.13,344.66,-80.23,-169.19
9837,52.4171,-1.597054,182.36,9.53,2,334.39,26 / 27,986621,2019-09-08 10:24:13:245,0.6846,1.0604,10.7211,-0.0133,-0.015,9.8066,-0.1486,0.1141,0.0339,-4.12,-27.19,11.5,349.05,-80.19,-168.4
9838,52.4171,-1.597054,182.36,9.53,2,334.39,26 / 27,986721,2019-09-08 10:24:13:345,0.4262,1.1548,9.3587,-0.0075,0.0061,9.8066,-0.1033,0.1301,-0.0033,-3.44,-28.0,12.0,356.71,-80.12,-167.93
9839,52.417645,-1.597804,183.31,8.28,3,294.52,28 / 29,986823,2019-09-08 10:24:13:447,1.4031,1.3422,9.0133,-0.0166,0.0127,9.8065,0.0356,0.1445,0.0299,-3.31,-28.12,11.94,358.07,-80.13,-167.12
9840,52.417645,-1.597804,183.31,8.28,3,294.52,28 / 29,986921,2019-09-08 10:24:13:545,0.37,0.9586,10.3886,-0.0355,-0.0145,9.8065,-0.0041,0.0896,0.0733,-2.87,-28.37,11.88,0.4,-79.96,-165.73
9841,52.417645,-1.597804,183.31,8.28,3,294.52,28 / 29,987022,2019-09-08 10:24:13:646,-0.4371,0.9822,10.1286,-0.0058,-0.0319,9.8065,-0.0249,0.0989,0.0287,-2.87,-28.37,12.31,2.31,-79.99,-164.6
9842,52.417645,-1.597804,183.31,8.28,3,294.52,28 / 29,987122,2019-09-08 10:24:13:746,0.2269,1.2058,9.7246,-0.0113,-0.012,9.8066,-0.0225,0.0786,0.0027,-2.75,-28.44,12.56,5.29,-79.78,-163.77
9843,52.417645,-1.597804,183.31,8.28,3,294.52,28 / 29,987221,2019-09-08 10:24:13:845,0.6361,0.3567,9.8625,0.0032,-0.0005,9.8066,0.0061,0.0427,-0.0129,-3.0,-27.56,13.13,6.21,-79.73,-163.21
9844,52.417645,-1.597804,183.31,8.28,3,294.52,28 / 29,987321,2019-09-08 10:24:13:945,-0.2061,0.8811,9.8002,-0.0084,-0.0075,9.8066,0.0193,0.0487,0.0062,-1.94,-28.12,14.06,14.19,-79.7,-162.88
9845,52.417645,-1.597804,183.31,8.28,3,294.52,28 / 29,987422,2019-09-08 10:24:14:046,-0.1475,1.0386,10.2248,0.0032,-0.0056,9.8066,-0.0266,0.0597,-0.0188,-2.31,-27.81,13.25,14.16,-79.68,-162.67
9846,52.417645,-1.597804,183.31,8.28,3,294.52,28 / 29,987522,2019-09-08 10:24:14:146,-0.1772,0.3064,10.3116,-0.0014,-0.0182,9.8066,-0.002,0.0369,0.0228,-2.75,-27.56,14.19,8.06,-79.61,-162.81
9847,52.417645,-1.597804,183.31,8.28,3,294.52,28 / 29,987621,2019-09-08 10:24:14:245,-0.2145,0.64,9.618,0.0031,-0.0013,9.8066,0.0601,0.0146,0.0682,-3.12,-28.12,13.88,7.9,-79.55,-162.93
9848,52.417645,-1.597804,183.31,8.28,3,294.52,28 / 29,987721,2019-09-08 10:24:14:345,0.5089,-0.0896,9.9998,-0.0082,-0.005,9.8066,0.0352,0.0818,-0.0084,-2.25,-27.5,13.69,14.31,-79.47,-162.74
9849,52.417645,-1.597804,183.31,8.28,3,294.52,28 / 29,987821,2019-09-08 10:24:14:445,0.6674,-0.5921,9.6675,-0.0172,-0.009,9.8065,0.0122,-0.0316,0.0522,-2.69,-27.44,14.06,7.81,-79.48,-162.91
9850,52.417645,-1.597804,183.31,8.28,3,294.52,26 / 30,987921,2019-09-08 10:24:14:545,-0.418,0.4954,10.0049,0.007,0.0127,9.8066,-0.0002,-0.0569,0.034,-3.0,-27.69,14.19,9.13,-79.42,-162.2
9851,52.417645,-1.597804,183.31,8.28,3,294.52,26 / 30,988021,2019-09-08 10:24:14:645,-0.5306,-0.4162,9.8735,-0.0002,-0.0303,9.8065,-0.028,0.039,-0.0353,-2.94,-27.75,13.56,9.62,-79.43,-161.88
9852,52.417645,-1.597804,183.31,8.28,3,294.52,26 / 30,988122,2019-09-08 10:24:14:746,-0.3857,0.5021,9.1354,0.0069,-0.0163,9.8066,-0.0606,-0.0001,0.0293,-2.94,-28.37,13.75,8.9,-79.31,-162.38
9853,52.417645,-1.597804,183.31,8.28,3,294.52,26 / 30,988222,2019-09-08 10:24:14:846,1.1513,-0.5712,9.4652,0.0085,0.0211,9.8066,0.0512,-0.0006,0.0921,-2.87,-28.44,13.75,8.62,-79.5,-162.49
9854,52.417645,-1.597804,183.31,8.28,3,294.52,26 / 30,988322,2019-09-08 10:24:14:946,0.6498,-0.8077,10.2982,-0.0079,0.024,9.8066,0.0745,0.0,0.0692,-3.81,-28.75,13.19,1.4,-79.55,-162.06
9855,52.417645,-1.597804,183.31,8.28,3,294.52,26 / 30,988422,2019-09-08 10:24:15:046,-0.2389,-1.6501,9.1271,0.0131,0.0012,9.8065,0.0265,-0.0386,0.0458,-3.25,-28.5,12.81,7.79,-79.54,-162.31
9856,52.417645,-1.597804,183.31,8.28,3,294.52,26 / 30,988522,2019-09-08 10:24:15:146,0.2257,-0.9455,9.2237,0.0026,-0.0134,9.8066,-0.0259,-0.0065,-0.0215,-3.56,-28.75,13.25,359.8,-79.48,-163.01
9857,52.417645,-1.597804,183.31,8.28,3,294.52,26 / 30,988622,2019-09-08 10:24:15:246,-0.0165,0.6727,9.6644,0.0002,0.0236,9.8066,0.0927,-0.0378,-0.0535,-3.81,-29.25,13.56,1.49,-79.48,-163.13
9858,52.417645,-1.597804,183.31,8.28,3,294.52,26 / 30,988721,2019-09-08 10:24:15:345,-0.1982,-1.0109,10.3643,0.0086,0.0207,9.8065,0.0547,-0.0433,-0.0131,-3.31,-28.31,13.38,5.11,-79.7,-163.89
9859,52.417645,-1.597804,183.31,8.28,3,294.52,26 / 30,988822,2019-09-08 10:24:15:446,-0.2122,0.7687,9.424,0.0176,0.0456,9.8065,0.0849,-0.0329,-0.0593,-3.19,-28.62,13.25,3.66,-79.94,-164.79
9860,52.417645,-1.597804,183.31,8.28,3,294.52,27 / 28,988922,2019-09-08 10:24:15:546,-0.4429,0.0387,9.8521,-0.0042,0.0276,9.8066,0.1456,-0.0261,0.0221,-3.37,-28.81,13.5,3.86,-80.01,-165.46
9861,52.417645,-1.597804,183.31,8.28,3,294.52,27 / 28,989021,2019-09-08 10:24:15:645,-0.3085,0.2818,10.4642,0.0082,-0.0193,9.8066,-0.0554,0.0294,-0.0095,-3.37,-29.0,13.25,2.05,-79.98,-165.76
9862,52.417645,-1.597804,183.31,8.28,3,294.52,27 / 28,989122,2019-09-08 10:24:15:746,0.0439,-0.8324,9.2663,0.0091,-0.0007,9.8066,0.0026,0.0053,0.0277,-3.12,-29.12,13.5,1.96,-79.92,-166.67
9863,52.417645,-1.597804,183.31,8.28,3,294.52,27 / 28,989222,2019-09-08 10:24:15:846,0.1964,0.3604,9.9346,-0.0033,-0.0243,9.8065,0.1174,0.0192,0.0545,-3.12,-29.12,13.25,0.07,-79.85,-166.96
9864,52.417645,-1.597804,183.31,8.28,3,294.52,27 / 28,989322,2019-09-08 10:24:15:946,-0.29,0.2982,9.8823,-0.0004,-0.0359,9.8066,0.0101,-0.018,-0.0004,-3.31,-28.06,13.88,1.79,-79.52,-166.78
9865,52.417645,-1.597804,183.31,8.28,3,294.52,27 / 28,989422,2019-09-08 10:24:16:046,0.051,-1.1827,10.043,-0.0085,0.0293,9.8065,0.1747,0.0107,0.0063,-3.37,-29.31,14.06,3.17,-79.55,-165.95
9866,52.417645,-1.597804,183.31,8.28,3,294.52,27 / 28,989522,2019-09-08 10:24:16:146,-0.2681,0.0704,9.1241,0.0032,0.0318,9.8065,0.1203,-0.1138,0.0778,-3.37,-28.12,13.81,2.38,-79.5,-166.42
9867,52.417645,-1.597804,183.31,8.28,3,294.52,27 / 28,989621,2019-09-08 10:24:16:245,0.0796,-1.3659,10.1354,0.0014,-0.0317,9.8066,-0.1823,-0.0442,-0.042,-3.5,-28.19,13.63,3.02,-79.54,-166.01
9868,52.417645,-1.597804,183.31,8.28,3,294.52,27 / 28,989721,2019-09-08 10:24:16:345,0.7422,0.064,9.8652,0.011,-0.036,9.8065,-0.1452,-0.0003,-0.0479,-3.75,-28.0,12.94,354.75,-79.42,-166.08
9869,52.417645,-1.597804,183.31,8.28,3,294.52,28 / 30,989821,2019-09-08 10:24:16:445,-0.2554,-1.0972,9.4101,-0.004,0.0242,9.8066,0.1494,0.0356,-0.0475,-4.56,-28.44,13.44,348.88,-79.49,-165.84
9870,52.417645,-1.597804,183.31,8.28,3,294.52,28 / 30,989922,2019-09-08 10:24:16:546,0.8332,0.0572,9.4266,0.0088,-0.0235,9.8066,0.0741,0.0199,-0.0155,-4.5,-27.94,13.44,355.2,-79.44,-165.81
9871,52.417645,-1.597804,183.31,8.28,3,294.52,28 / 30,990021,2019-09-08 10:24:16:645,0.4338,0.097,9.6495,0.0018,-0.0225,9.8066,-0.0231,0.0063,0.0095,-5.31,-28.62,14.19,351.65,-79.29,-165.54
9872,52.417645,-1.597804,183.31,8.28,3,294.52,28 / 30,990121,2019-09-08 10:24:16:745,0.2656,-0.1031,9.8011,-0.0137,0.0372,9.8066,-0.0508,0.0183,0.0266,-4.31,-27.87,14.94,358.7,-79.42,-165.92
9873,52.417645,-1.597804,183.31,8.28,3,294.52,28 / 30,990224,2019-09-08 10:24:16:848,1.1171,0.0612,9.8111,-0.0035,0.0087,9.8066,-0.1087,-0.0311,0.0109,-4.19,-28.69,14.44,358.15,-79.56,-165.2
9874,52.417645,-1.597804,183.31,8.28,3,294.52,28 / 30,990321,2019-09-08 10:24:16:945,-0.7802,0.6299,9.3972,0.0015,0.0327,9.8066,-0.1049,0.016,-0.0397,-3.19,-27.56,14.19,3.14,-79.85,-165.9
9875,52.417645,-1.597804,183.31,8.28,3,294.52,28 / 30,990422,2019-09-08 10:24:17:046,0.0028,1.116,9.2859,0.0042,0.0351,9.8065,0.0594,0.0444,-0.022,-3.19,-27.81,13.38,1.1,-80.02,-166.33
9876,52.417645,-1.597804,183.31,8.28,3,294.52,28 / 30,990522,2019-09-08 10:24:17:146,0.1937,-0.2338,9.5977,0.006,0.0081,9.8066,-0.022,0.023,0.0163,-3.19,-27.69,13.69,2.01,-80.17,-166.6
9877,52.417645,-1.597804,183.31,8.28,3,294.52,28 / 30,990621,2019-09-08 10:24:17:245,-0.3105,-0.0854,10.1778,-0.0035,0.0262,9.8065,0.0517,0.059,-0.0343,-4.62,-27.37,13.81,350.28,-80.36,-166.99
9878,52.417645,-1.597804,183.31,8.28,3,294.52,28 / 30,990722,2019-09-08 10:24:17:346,0.4658,-0.2193,10.6845,0.0026,-0.0201,9.8066,0.0261,0.0438,0.0229,-4.25,-28.19,14.75,357.36,-80.28,-166.87
9879,52.417645,-1.597804,183.31,8.28,3,294.52,27 / 28,990822,2019-09-08 10:24:17:446,1.3046,-2.0002,10.0752,-0.0039,-0.026,9.8065,-0.2556,-0.0476,0.0035,-3.56,-28.5,14.88,357.88,-79.99,-166.49
9880,52.417645,-1.597804,183.31,8.28,3,294.52,27 / 28,990921,2019-09-08 10:24:17:545,0.4046,0.3317,9.0716,-0.0063,0.027,9.8066,-0.1839,0.0152,0.0029,-2.94,-28.75,14.5,2.32,-80.17,-167.16
9881,52.417645,-1.597804,183.31,8.28,3,294.52,27 / 28,991021,2019-09-08 10:24:17:645,-1.0825,2.2531,9.2791,-0.0046,0.0255,9.8066,0.1852,-0.002,0.0294,-2.62,-27.87,14.13,1.36,-80.22,-167.02
9882,52.417645,-1.597804,183.31,8.28,3,294.52,27 / 28,991122,2019-09-08 10:24:17:746,-0.0321,-0.1488,10.2358,0.0164,-0.0138,9.8066,0.1406,0.0153,-0.0616,-2.37,-28.19,14.63,7.39,-80.18,-167.45
9883,52.417645,-1.597804,183.31,8.28,3,294.52,27 / 28,991222,2019-09-08 10:24:17:846,1.3169,-1.0869,10.4903,0.0067,-0.0127,9.8066,-0.0121,-0.0215,0.0443,-2.19,-28.0,14.19,5.16,-80.0,-168.56
9884,52.417645,-1.597804,183.31,8.28,3,294.52,27 / 28,991322,2019-09-08 10:24:17:946,-0.2512,-0.3421,9.3213,-0.0044,0.008,9.8066,-0.0462,-0.0165,0.0333,-2.31,-28.5,14.0,4.23,-79.85,-169.18
9885,52.417645,-1.597804,183.31,8.28,3,294.52,27 / 28,991422,2019-09-08 10:24:18:046,1.0878,0.4292,10.0126,0.0049,0.0348,9.8065,0.0055,0.0053,0.0212,-2.19,-28.31,14.56,4.74,-79.94,-169.27
9886,52.417645,-1.597804,183.31,8.28,3,294.52,27 / 28,991522,2019-09-08 10:24:18:146,0.5134,0.0736,9.6007,0.0037,0.0045,9.8066,-0.1016,0.0466,-0.0428,-2.37,-28.12,14.38,4.14,-79.9,-169.23
9887,52.417645,-1.597804,183.31,8.28,3,294.52,27 / 28,991621,2019-09-08 10:24:18:245,-0.4044,0.7154,9.8686,-0.0109,0.0014,9.8066,0.044,0.0205,0.0317,-2.31,-28.06,14.94,5.61,-79.84,-168.71
9888,52.417645,-1.597804,183.31,8.28,3,294.52,27 / 28,991721,2019-09-08 10:24:18:345,-0.0508,-0.4569,10.0628,0.0034,-0.0105,9.8065,0.0089,-0.0852,0.0221,-2.62,-28.37,14.25,359.31,-79.8,-168.35
9889,52.417645,-1.597804,183.31,8.28,3,294.52,27 / 28,991821,2019-09-08 10:24:18:445,-0.3172,-0.2196,9.8639,-0.0038,0.0112,9.8066,-0.0746,0.0247,-0.0164,-2.87,-28.25,14.38,358.62,-79.78,-168.79
9890,52.417645,-1.597804,183.31,8.28,3,294.52,28 / 29,991921,2019-09-08 10:24:18:545,-0.6188,-0.1966,9.7526,-0.0204,0.0148,9.8066,-0.0105,-0.0733,0.1092,-2.31,-28.19,14.13,6.25,-79.8,-167.9
9891,52.417645,-1.597804,183.31,8.28,3,294.52,28 / 29,992022,2019-09-08 10:24:18:646,-0.7209,1.7698,10.2168,0.0082,0.0125,9.8066,0.2213,0.027,-0.0535,-3.0,-28.44,14.06,1.33,-79.88,-167.06
9892,52.417645,-1.597804,183.31,8.28,3,294.52,28 / 29,992122,2019-09-08 10:24:18:746,0.4364,-0.0929,10.0,0.0042,-0.0533,9.8064,0.1503,0.011,0.0803,-3.31,-27.69,14.38,0.4,-79.53,-167.65
9893,52.417645,-1.597804,183.31,8.28,3,294.52,28 / 29,992222,2019-09-08 10:24:18:846,0.4442,-1.2156,9.6887,-0.0164,-0.045,9.8064,-0.1519,-0.0255,0.1014,-2.62,-27.94,14.06,1.81,-79.27,-166.78
9894,52.417645,-1.597804,183.31,8.28,3,294.52,28 / 29,992322,2019-09-08 10:24:18:946,-0.2627,0.3529,9.7801,-0.0164,0.0344,9.8065,-0.044,0.0031,0.0525,-3.0,-28.87,14.38,2.44,-79.31,-166.42
9895,52.417645,-1.597804,183.31,8.28,3,294.52,28 / 29,992422,2019-09-08 10:24:19:046,0.1236,0.573,10.5291,0.0044,0.0479,9.8065,0.0983,0.02,-0.0817,-3.25,-27.94,14.25,3.1,-79.72,-165.94
9896,52.417645,-1.597804,183.31,8.28,3,294.52,28 / 29,992522,2019-09-08 10:24:19:146,-0.0972,0.833,9.8922,-0.0042,-0.0476,9.8065,0.1691,-0.0246,0.0076,-3.31,-28.12,14.44,3.43,-79.68,-165.73
9897,52.417645,-1.597804,183.31,8.28,3,294.52,28 / 29,992621,2019-09-08 10:24:19:245,0.5819,0.0981,9.4712,0.0072,-0.0407,9.8065,0.0732,-0.0729,0.0981,-3.5,-27.69,14.31,4.37,-79.24,-165.2
9898,52.417645,-1.597804,183.31,8.28,3,294.52,28 / 29,992721,2019-09-08 10:24:19:345,-0.5984,0.2911,9.5387,-0.0069,0.0341,9.8065,-0.0443,-0.0103,0.0217,-4.06,-27.5,14.19,358.81,-79.16,-164.81
9899,52.417645,-1.597804,183.31,8.28,3,294.52,28 / 29,992821,2019-09-08 10:24:19:445,-0.0435,-0.5211,10.0323,-0.0134,0.0302,9.8066,-0.0475,-0.0163,0.0722,-4.25,-27.06,14.81,1.04,-79.41,-164.38
9900,52.417645,-1.597804,183.31,8.28,3,294.52,28 / 29,992921,2019-09-08 10:24:19:545,-0.2423,0.2309,10.4798,0.008,-0.0034,9.8066,-0.0447,0.0335,-0.0242,-4.12,-26.94,15.75,3.48,-79.42,-163.59
9901,52.417645,-1.597804,183.31,8.28,3,294.52,28 / 29,993021,2019-09-08 10:24:19:645,0.0461,0.2556,9.4817,-0.0044,-0.0077,9.8066,0.0443,-0.0335,-0.0208,-2.81,-27.25,14.56,7.32,-79.47,-163.85
9902,52.417645,-1.597804,183.31,8.28,3,294.52,28 / 29,993122,2019-09-08 10:24:19:746,-0.3542,-0.4593,9.3707,-0.0028,-0.0089,9.8066,0.1289,-0.0491,0.0159,-2.81,-27.44,14.25,6.37,-79.53,-163.82
9903,52.417645,-1.597804,183.31,8.28,3,294.52,28 / 29,993222,2019-09-08 10:24:19:846,-0.365,-0.2368,9.647,0.0086,0.0023,9.8065,-0.0906,-0.0406,0.0314,-2.69,-28.31,13.44,5.13,-79.56,-163.91
9904,52.417645,-1.597804,183.31,8.28,3,294.52,28 / 29,993322,2019-09-08 10:24:19:946,0.8109,1.129,9.4309,0.0042,0.0314,9.8065,-0.0689,0.0294,-0.0379,-2.12,-28.44,13.44,11.87,-79.81,-164.01
9905,52.417645,-1.597804,183.31,8.28,3,294.52,28 / 29,993421,2019-09-08 10:24:20:045,-0.82,1.1845,9.5825,-0.0062,0.0114,9.8066,0.0804,-0.0235,-0.0553,-2.62,-28.06,13.5,6.65,-79.73,-163.67
9906,52.417645,-1.597804,183.31,8.28,3,294.52,28 / 29,993521,2019-09-08 10:24:20:145,-0.5668,-0.2772,10.2498,-0.0014,-0.0118,9.8065,-0.0265,-0.0011,-0.066,-2.31,-28.19,14.44,13.23,-79.76,-163.47
9907,52.417645,-1.597804,183.31,8.28,3,294.52,28 / 29,993622,2019-09-08 10:24:20:246,-0.8445,0.1918,9.9943,-0.0074,0.0168,9.8066,0.0282,0.0113,-0.0334,-2.44,-28.19,14.31,13.93,-79.82,-162.99
9908,52.417645,-1.597804,183.31,8.28,3,294.52,28 / 29,993721,2019-09-08 10:24:20:345,-1.8385,0.9542,10.4414,-0.0153,-0.0014,9.8066,-0.071,-0.1073,0.0642,-2.69,-27.87,14.69,9.25,-79.78,-162.58
9909,52.417645,-1.597804,183.31,8.28,3,294.52,29 / 30,993821,2019-09-08 10:24:20:445,0.0137,-1.1292,8.7721,-0.0018,0.0003,9.8066,0.0357,-0.0144,0.0418,-3.06,-28.06,14.25,9.17,-79.82,-162.04
9910,52.417645,-1.597804,183.31,8.28,3,294.52,29 / 30,993921,2019-09-08 10:24:20:545,0.1999,1.0473,9.2545,0.0033,0.0245,9.8066,0.0043,-0.0139,0.0116,-3.44,-28.19,14.38,9.55,-79.83,-161.79
9911,52.417645,-1.597804,183.31,8.28,3,294.52,29 / 30,994021,2019-09-08 10:24:20:645,0.3181,-0.1729,9.4264,-0.0027,0.0279,9.8065,-0.127,-0.029,0.0251,-3.44,-28.31,14.38,9.72,-80.1,-161.58
9912,52.417645,-1.597804,183.31,8.28,3,294.52,29 / 30,994121,2019-09-08 10:24:20:745,-0.2813,2.3664,10.0655,-0.0036,0.0151,9.8066,-0.0613,-0.0027,0.008,-3.25,-28.25,13.63,9.73,-79.96,-161.62
9913,52.417645,-1.597804,183.31,8.28,3,294.52,29 / 30,994221,2019-09-08 10:24:20:845,-0.0962,1.1371,10.1382,0.0,0.0077,9.8066,0.1048,-0.0494,0.0538,-4.0,-28.75,14.0,3.53,-79.96,-161.8
9914,52.417645,-1.597804,183.31,8.28,3,294.52,29 / 30,994321,2019-09-08 10:24:20:945,-1.7573,0.2257,9.886,-0.008,-0.0396,9.8065,0.0976,-0.0156,0.0445,-3.44,-27.87,13.19,8.66,-79.6,-161.76
9915,52.417645,-1.597804,183.31,8.28,3,294.52,29 / 30,994421,2019-09-08 10:24:21:045,0.0012,0.7851,8.7225,0.0009,-0.0322,9.8065,-0.1543,-0.0064,0.0102,-4.0,-28.31,13.75,3.84,-79.53,-161.62
9916,52.417645,-1.597804,183.31,8.28,3,294.52,29 / 30,994521,2019-09-08 10:24:21:145,-0.2914,2.3158,9.1989,-0.0027,0.0563,9.8064,-0.1481,-0.038,0.0038,-3.44,-28.25,13.88,9.96,-79.55,-161.63
9917,52.417645,-1.597804,183.31,8.28,3,294.52,29 / 30,994621,2019-09-08 10:24:21:245,-0.7615,1.2044,9.4133,-0.001,0.046,9.8065,0.0484,-0.0334,-0.0039,-3.62,-29.12,13.38,2.54,-79.92,-161.35
9918,52.417645,-1.597804,183.31,8.28,3,294.52,29 / 30,994721,2019-09-08 10:24:21:345,-0.4045,-1.1184,9.6795,0.01,-0.0385,9.8065,0.1925,-0.0574,0.044,-3.62,-28.37,13.69,3.52,-79.93,-161.77
9919,52.417645,-1.597804,183.31,8.28,3,294.52,29 / 30,994822,2019-09-08 10:24:21:446,-0.131,0.8489,10.0519,0.0007,-0.0465,9.8065,-0.0655,-0.0383,0.0534,-3.37,-29.19,13.5,9.57,-79.6,-161.97
9920,52.417645,-1.597804,183.31,8.28,3,294.52,28 / 29,994921,2019-09-08 10:24:21:545,-0.9618,0.4083,9.2644,-0.008,0.0296,9.8065,-0.0347,-0.0606,0.0494,-3.94,-29.31,14.0,3.48,-79.87,-161.85
9921,52.417645,-1.597804,183.31,8.28,3,294.52,28 / 29,995021,2019-09-08 10:24:21:645,-0.7956,0.5888,10.0111,-0.0062,0.0216,9.8065,-0.0902,-0.0523,0.0092,-3.19,-28.87,13.0,8.24,-79.93,-162.02
9922,52.417645,-1.597804,183.31,8.28,3,294.52,28 / 29,995121,2019-09-08 10:24:21:745,0.0096,2.1932,9.6013,0.0058,0.0057,9.8066,-0.0094,0.055,-0.0232,-3.69,-28.87,13.19,0.69,-79.95,-162.48
9923,52.417645,-1.597804,183.31,8.28,3,294.52,28 / 29,995222,2019-09-08 10:24:21:846,-0.5204,1.4446,9.8782,0.0164,0.0021,9.8066,0.046,0.0342,-0.0203,-3.12,-28.56,13.06,6.29,-79.9,-163.21
9924,52.417645,-1.597804,183.31,8.28,3,294.52,28 / 29,995321,2019-09-08 10:24:21:945,-0.2639,1.291,9.8363,0.0039,-0.0213,9.8065,0.1229,-0.0513,0.0585,-3.5,-29.69,13.63,7.03,-79.72,-163.61
9925,52.417645,-1.597804,183.31,8.28,3,294.52,28 / 29,995421,2019-09-08 10:24:22:045,0.1813,0.5844,9.4598,0.0062,-0.0067,9.8066,-0.0779,-0.0192,0.0414,-4.06,-28.62,13.44,358.31,-79.8,-163.92
9926,52.417645,-1.597804,183.31,8.28,3,294.52,28 / 29,995521,2019-09-08 10:24:22:145,-0.7212,1.8236,10.0747,0.006,0.0141,9.8066,-0.0408,0.0284,-0.0324,-3.75,-29.62,13.88,359.72,-79.84,-164.23
9927,52.417645,-1.597804,183.31,8.28,3,294.52,28 / 29,995621,2019-09-08 10:24:22:245,0.6263,0.515,10.0069,0.0072,0.0066,9.8065,-0.0807,-0.029,0.0438,-3.25,-28.44,14.0,4.61,-79.96,-164.94
9928,52.417645,-1.597804,183.31,8.28,3,294.52,28 / 29,995722,2019-09-08 10:24:22:346,-0.978,0.0634,9.9445,-0.0029,0.0106,9.8066,-0.0973,-0.0181,-0.0028,-3.44,-29.25,14.06,5.03,-79.97,-164.72
9929,52.41788,-1.599005,184.56,9.72,3,288.91,28 / 30,995821,2019-09-08 10:24:22:445,-2.0425,1.3944,9.9307,0.0137,0.0153,9.8066,-0.0171,0.0376,-0.1098,-3.19,-29.12,14.06,3.85,-80.13,-165.45
9930,52.41788,-1.599005,184.56,9.72,3,288.91,28 / 30,995921,2019-09-08 10:24:22:545,-0.0206,1.087,9.592,0.0163,0.0139,9.8066,-0.0885,0.0032,-0.0445,-3.12,-29.5,13.44,2.34,-80.09,-165.58
9931,52.41788,-1.599005,184.56,9.72,3,288.91,28 / 30,996022,2019-09-08 10:24:22:646,-0.6265,1.3309,9.6545,-0.0062,0.0176,9.8066,0.0626,0.0561,-0.0168,-2.87,-29.06,13.38,1.11,-80.29,-166.32
9932,52.41788,-1.599005,184.56,9.72,3,288.91,28 / 30,996121,2019-09-08 10:24:22:745,0.4859,1.0839,9.7971,-0.0031,0.0164,9.8066,0.0748,-0.0442,0.0087,-2.75,-28.69,13.5,3.01,-80.39,-165.95
9933,52.41788,-1.599005,184.56,9.72,3,288.91,28 / 30,996222,2019-09-08 10:24:22:846,-0.162,2.2818,10.0592,-0.0017,-0.0089,9.8066,-0.0444,0.0145,0.0047,-2.94,-29.12,13.38,1.85,-80.33,-165.86
9934,52.41788,-1.599005,184.56,9.72,3,288.91,28 / 30,996321,2019-09-08 10:24:22:945,-0.7915,0.9495,9.8678,-0.0091,0.0068,9.8065,0.0473,-0.0592,0.0316,-2.87,-28.69,13.44,2.49,-80.29,-165.47
9935,52.41788,-1.599005,184.56,9.72,3,288.91,28 / 30,996421,2019-09-08 10:24:23:045,-0.1987,0.0054,9.9238,0.0045,-0.0179,9.8065,-0.0777,-0.0313,0.0499,-3.62,-28.94,13.75,358.09,-80.28,-165.29
9936,52.41788,-1.599005,184.56,9.72,3,288.91,28 / 30,996521,2019-09-08 10:24:23:145,-0.3796,2.6992,9.9672,-0.0013,-0.0116,9.8065,-0.0941,-0.0003,-0.0265,-3.0,-29.56,13.13,3.46,-80.16,-164.92
9937,52.41788,-1.599005,184.56,9.72,3,288.91,28 / 30,996621,2019-09-08 10:24:23:245,-0.6132,0.9241,10.3338,0.002,-0.0183,9.8066,-0.0382,0.0116,-0.0238,-3.12,-28.75,13.25,3.37,-80.3,-164.91
9938,52.41788,-1.599005,184.56,9.72,3,288.91,28 / 30,996722,2019-09-08 10:24:23:346,-0.4384,1.2814,10.0426,0.0122,-0.0319,9.8065,-0.118,0.0216,-0.0196,-3.06,-28.94,13.19,2.8,-80.23,-165.28
9939,52.41788,-1.599005,184.56,9.72,3,288.91,28 / 30,996822,2019-09-08 10:24:23:446,-0.4867,0.8416,9.4085,0.0024,0.0187,9.8065,0.1144,-0.0198,-0.0078,-3.25,-28.56,13.56,3.24,-80.41,-165.8
9940,52.41788,-1.599005,184.56,9.72,3,288.91,29 / 30,996921,2019-09-08 10:24:23:545,-0.6939,1.5505,9.9465,0.0021,0.0062,9.8066,0.0337,-0.0077,0.0158,-3.37,-28.62,12.63,1.4,-80.42,-166.13
9941,52.41788,-1.599005,184.56,9.72,3,288.91,29 / 30,997022,2019-09-08 10:24:23:646,1.3148,1.2069,10.1857,0.0068,-0.0134,9.8066,-0.0716,-0.0147,0.0132,-3.12,-28.19,12.75,1.28,-80.51,-166.19
9942,52.41788,-1.599005,184.56,9.72,3,288.91,29 / 30,997121,2019-09-08 10:24:23:745,-0.5098,2.5099,9.5447,0.0124,-0.015,9.8065,-0.111,0.0088,-0.0209,-2.87,-28.87,13.0,0.98,-80.45,-166.39
9943,52.41788,-1.599005,184.56,9.72,3,288.91,29 / 30,997222,2019-09-08 10:24:23:846,0.2575,1.9387,8.9384,0.0035,0.0156,9.8066,0.0633,0.0342,0.0393,-3.5,-28.31,12.94,0.35,-80.45,-166.78
9944,52.41788,-1.599005,184.56,9.72,3,288.91,29 / 30,997322,2019-09-08 10:24:23:946,1.4573,1.4318,10.2231,0.001,-0.0003,9.8066,0.0572,0.0477,0.0542,-2.75,-28.69,13.25,359.85,-80.49,-167.1
9945,52.41788,-1.599005,184.56,9.72,3,288.91,29 / 30,997422,2019-09-08 10:24:24:046,0.7186,2.0298,9.5286,0.0081,0.0114,9.8066,0.061,0.0944,-0.0448,-2.94,-27.37,12.94,359.39,-80.59,-167.41
9946,52.41788,-1.599005,184.56,9.72,3,288.91,29 / 30,997521,2019-09-08 10:24:24:145,-0.002,2.4395,9.734,0.002,0.0081,9.8066,-0.0104,0.049,-0.0017,-3.0,-28.25,13.75,0.18,-80.56,-167.79
9947,52.41788,-1.599005,184.56,9.72,3,288.91,29 / 30,997621,2019-09-08 10:24:24:245,0.1274,2.2668,10.3357,0.0155,-0.008,9.8066,-0.0202,0.0193,-0.0288,-3.37,-27.75,13.31,357.84,-80.66,-168.4
9948,52.41788,-1.599005,184.56,9.72,3,288.91,29 / 30,997721,2019-09-08 10:24:24:345,0.1514,2.8358,10.1947,0.0067,0.01,9.8066,0.0247,0.1102,-0.0779,-3.75,-27.62,13.44,350.18,-80.71,-169.34
9949,52.41788,-1.599005,184.56,9.72,3,288.91,29 / 30,997821,2019-09-08 10:24:24:445,0.2264,2.1511,9.8464,-0.0005,0.008,9.8066,0.119,0.1142,-0.0226,-3.69,-27.31,14.25,351.13,-80.65,-170.14
9950,52.41788,-1.599005,184.56,9.72,3,288.91,28 / 29,997921,2019-09-08 10:24:24:545,0.3472,1.6837,9.692,-0.0007,-0.0099,9.8065,0.047,0.0594,0.0559,-3.19,-26.56,15.19,358.09,-80.53,-170.02
9951,52.41788,-1.599005,184.56,9.72,3,288.91,28 / 29,998021,2019-09-08 10:24:24:645,-0.3647,2.5636,10.0045,-0.026,0.0159,9.8066,0.0699,0.1158,0.0209,-2.44,-26.87,15.75,6.89,-80.5,-167.98
9952,52.41788,-1.599005,184.56,9.72,3,288.91,28 / 29,998121,2019-09-08 10:24:24:745,0.1029,1.1053,10.0218,-0.0019,0.0142,9.8066,0.0499,0.0777,0.0403,-2.19,-27.5,14.94,6.91,-80.5,-167.62
9953,52.41788,-1.599005,184.56,9.72,3,288.91,28 / 29,998221,2019-09-08 10:24:24:845,0.3191,1.86,9.4146,-0.014,0.0299,9.8065,-0.0256,0.1189,0.0087,-2.0,-26.75,14.75,7.87,-80.58,-166.93
9954,52.41788,-1.599005,184.56,9.72,3,288.91,28 / 29,998321,2019-09-08 10:24:24:945,-0.4167,2.5669,10.2408,-0.0102,0.0345,9.8065,0.0158,0.0531,0.0604,-2.06,-28.25,14.56,10.16,-80.87,-165.34
9955,52.41788,-1.599005,184.56,9.72,3,288.91,28 / 29,998421,2019-09-08 10:24:25:045,-0.0818,1.9311,9.8237,-0.0047,-0.0242,9.8065,-0.0992,0.0895,-0.0552,-2.56,-27.5,14.88,6.35,-80.88,-164.19
9956,52.41788,-1.599005,184.56,9.72,3,288.91,28 / 29,998522,2019-09-08 10:24:25:146,-0.3091,2.6192,9.3167,-0.0161,-0.0173,9.8065,-0.1133,0.143,-0.0168,-1.87,-28.37,15.44,13.21,-80.69,-163.29
9957,52.41788,-1.599005,184.56,9.72,3,288.91,28 / 29,998621,2019-09-08 10:24:25:245,0.8708,2.1623,9.7148,0.0036,-0.0212,9.8066,0.0114,0.1312,-0.0962,-3.06,-28.37,15.06,7.69,-80.59,-163.4
9958,52.41788,-1.599005,184.56,9.72,3,288.91,28 / 29,998722,2019-09-08 10:24:25:346,-0.186,3.0697,10.1246,0.01,-0.0105,9.8066,0.0009,0.075,0.0348,-2.62,-27.5,16.06,7.93,-80.57,-163.7
9959,52.41788,-1.599005,184.56,9.72,3,288.91,28 / 29,998821,2019-09-08 10:24:25:445,0.6067,2.8079,9.8728,-0.0075,-0.0037,9.8066,0.0154,0.2106,-0.0595,-2.37,-27.81,16.56,13.89,-80.59,-163.26
9960,52.41788,-1.599005,184.56,9.72,3,288.91,27 / 29,998921,2019-09-08 10:24:25:545,0.1827,3.371,9.7525,-0.0106,0.0036,9.8066,-0.0008,0.1323,0.0693,-2.69,-28.44,16.19,9.51,-80.61,-162.66
9961,52.41788,-1.599005,184.56,9.72,3,288.91,27 / 29,999022,2019-09-08 10:24:25:646,0.2573,2.5227,9.6867,-0.0013,0.0009,9.8066,0.0227,0.1231,0.0819,-2.69,-28.69,16.63,11.29,-80.71,-161.89
9962,52.41788,-1.599005,184.56,9.72,3,288.91,27 / 29,999122,2019-09-08 10:24:25:746,0.1483,2.4201,9.8584,-0.0136,-0.003,9.8065,0.0229,0.1688,0.0495,-2.19,-28.31,16.56,17.12,-80.75,-160.82
9963,52.41788,-1.599005,184.56,9.72,3,288.91,27 / 29,999221,2019-09-08 10:24:25:845,-0.2346,3.2714,10.7936,-0.0098,-0.0102,9.8066,-0.0244,0.1772,-0.041,-2.5,-28.37,16.69,18.26,-80.71,-160.01
9964,52.41788,-1.599005,184.56,9.72,3,288.91,27 / 29,999321,2019-09-08 10:24:25:945,1.1078,2.8502,9.6717,-0.0015,-0.0058,9.8066,-0.0158,0.1565,-0.002,-2.19,-28.62,17.5,18.89,-80.75,-159.78
9965,52.41788,-1.599005,184.56,9.72,3,288.91,27 / 29,999421,2019-09-08 10:24:26:045,0.5278,2.483,9.213,-0.0019,-0.0037,9.8066,0.0257,0.1709,-0.0157,-2.81,-28.12,17.75,15.02,-80.75,-159.37
9966,52.41788,-1.599005,184.56,9.72,3,288.91,27 / 29,999521,2019-09-08 10:24:26:145,0.6823,2.519,9.5617,-0.0071,-0.0069,9.8066,0.0602,0.1835,0.0017,-2.31,-28.25,17.88,19.61,-80.64,-159.14
9967,52.41788,-1.599005,184.56,9.72,3,288.91,27 / 29,999622,2019-09-08 10:24:26:246,0.8282,1.9975,9.7708,-0.004,-0.0049,9.8066,0.0602,0.132,0.0004,-3.12,-28.31,19.0,16.03,-80.51,-159.01
9968,52.41788,-1.599005,184.56,9.72,3,288.91,27 / 29,999722,2019-09-08 10:24:26:346,0.3203,1.9437,10.1163,-0.0056,-0.0057,9.8066,0.0051,0.1835,-0.021,-3.12,-28.56,18.88,16.76,-80.35,-158.67
9969,52.41788,-1.599005,184.56,9.72,3,288.91,27 / 29,999823,2019-09-08 10:24:26:447,0.2817,1.7796,9.8625,-0.005,0.0004,9.8066,-0.0165,0.1698,-0.0358,-3.12,-28.12,19.19,16.94,-80.38,-158.38
9970,52.41788,-1.599005,184.56,9.72,3,288.91,29 / 30,999921,2019-09-08 10:24:26:545,0.6226,1.8494,9.871,-0.0006,0.0005,9.8066,-0.0327,0.15,-0.0197,-3.0,-28.19,19.25,17.28,-80.46,-158.08
9971,52.41788,-1.599005,184.56,9.72,3,288.91,29 / 30,1000021,2019-09-08 10:24:26:645,0.5677,1.3151,9.7936,0.0075,0.0103,9.8066,0.0243,0.1848,-0.0412,-2.87,-28.06,19.63,17.74,-80.56,-157.93
9972,52.41788,-1.599005,184.56,9.72,3,288.91,29 / 30,1000121,2019-09-08 10:24:26:745,0.9737,0.7414,9.8896,-0.003,0.0031,9.8066,0.0442,0.1801,-0.0041,-2.56,-28.37,20.31,17.48,-80.65,-158.09
9973,52.41788,-1.599005,184.56,9.72,3,288.91,29 / 30,1000221,2019-09-08 10:24:26:845,0.6772,0.9654,9.6657,-0.0048,0.0098,9.8066,0.0191,0.1916,-0.0209,-2.5,-28.37,20.88,21.6,-80.61,-157.81
9974,52.41788,-1.599005,184.56,9.72,3,288.91,29 / 30,1000321,2019-09-08 10:24:26:945,0.5878,0.0014,9.5967,-0.0035,0.016,9.8066,0.0133,0.1947,-0.0177,-3.5,-28.25,20.88,19.03,-80.72,-157.06
9975,52.41788,-1.599005,184.56,9.72,3,288.91,29 / 30,1000421,2019-09-08 10:24:27:045,0.3988,0.3816,9.8193,-0.0006,0.0071,9.8065,-0.0602,0.2196,-0.0477,-3.31,-28.19,21.19,19.52,-80.91,-156.58
9976,52.41788,-1.599005,184.56,9.72,3,288.91,29 / 30,1000522,2019-09-08 10:24:27:146,0.6882,0.4625,9.7926,0.0058,0.0108,9.8066,-0.0402,0.2014,-0.0179,-3.12,-27.75,21.31,19.61,-81.14,-156.39
9977,52.41788,-1.599005,184.56,9.72,3,288.91,29 / 30,1000622,2019-09-08 10:24:27:246,0.6924,0.4219,10.1535,-0.0027,0.0145,9.8066,0.0036,0.2379,-0.0227,-3.12,-27.69,22.0,20.28,-81.32,-155.95
9978,52.41788,-1.599005,184.56,9.72,3,288.91,29 / 30,1000722,2019-09-08 10:24:27:346,0.7915,0.473,10.0051,0.0053,0.0087,9.8066,-0.0412,0.2304,-0.0169,-2.75,-27.94,22.19,20.62,-81.54,-155.57
9979,52.41788,-1.599005,184.56,9.72,3,288.91,29 / 30,1000822,2019-09-08 10:24:27:446,0.5212,0.1781,10.011,-0.001,0.0131,9.8066,0.0097,0.2368,-0.0361,-2.75,-27.31,22.75,21.29,-81.77,-154.95
9980,52.41788,-1.599005,184.56,9.72,3,288.91,29 / 30,1000921,2019-09-08 10:24:27:545,0.8084,0.2729,9.963,0.0134,0.0011,9.8066,0.0324,0.2543,-0.0617,-3.37,-27.19,23.31,20.91,-81.92,-155.2
9981,52.41788,-1.599005,184.56,9.72,3,288.91,29 / 30,1001022,2019-09-08 10:24:27:646,1.3122,-0.2945,9.7996,0.019,0.002,9.8066,0.0884,0.2797,-0.0644,-2.94,-27.0,23.38,18.61,-82.07,-157.07
9982,52.41788,-1.599005,184.56,9.72,3,288.91,29 / 30,1001122,2019-09-08 10:24:27:746,1.1292,-0.4385,9.571,0.0226,-0.0106,9.8065,0.0726,0.3036,-0.0735,-3.19,-26.75,24.19,16.87,-82.14,-158.7
9983,52.41788,-1.599005,184.56,9.72,3,288.91,29 / 30,1001222,2019-09-08 10:24:27:846,1.4631,-0.8573,9.6333,0.0158,-0.0142,9.8066,-0.0214,0.3228,-0.0366,-2.56,-26.56,24.63,14.06,-82.12,-161.28
9984,52.41788,-1.599005,184.56,9.72,3,288.91,29 / 30,1001321,2019-09-08 10:24:27:945,2.2154,-0.1518,9.6063,0.0069,0.0112,9.8065,-0.0263,0.3429,-0.0218,-3.06,-26.37,25.19,12.58,-82.17,-162.44
9985,52.41788,-1.599005,184.56,9.72,3,288.91,29 / 30,1001421,2019-09-08 10:24:28:045,1.3336,-0.4697,9.3155,0.0069,0.0076,9.8066,0.0483,0.404,-0.0625,-3.81,-26.69,25.63,10.01,-82.15,-162.73
9986,52.41788,-1.599005,184.56,9.72,3,288.91,29 / 30,1001522,2019-09-08 10:24:28:146,0.6609,-0.4354,10.1587,0.0017,0.0009,9.8066,0.0331,0.3495,-0.0252,-3.56,-26.62,26.94,9.69,-82.13,-163.28
9987,52.41788,-1.599005,184.56,9.72,3,288.91,29 / 30,1001622,2019-09-08 10:24:28:246,2.1177,0.3116,9.8676,0.0131,0.0054,9.8066,0.0481,0.3636,-0.0511,-3.44,-25.75,26.81,10.65,-82.11,-164.5
9988,52.41788,-1.599005,184.56,9.72,3,288.91,29 / 30,1001722,2019-09-08 10:24:28:346,1.7163,0.2957,10.8386,-0.0078,-0.0219,9.8066,0.0778,0.4369,-0.0474,-3.75,-25.69,28.25,8.07,-82.05,-164.9
9989,52.41788,-1.599005,184.56,9.72,3,288.91,29 / 30,1001822,2019-09-08 10:24:28:446,2.3708,-0.4322,9.795,-0.0069,-0.0137,9.8066,0.0607,0.4272,-0.0153,-4.19,-25.94,29.13,9.46,-81.76,-163.98
9990,52.41788,-1.599005,184.56,9.72,3,288.91,29 / 30,1001921,2019-09-08 10:24:28:545,1.7936,-0.1388,9.6735,-0.0079,-0.0105,9.8066,0.0409,0.4523,-0.024,-5.31,-25.94,30.31,8.24,-81.49,-163.43
9991,52.41788,-1.599005,184.56,9.72,3,288.91,29 / 30,1002021,2019-09-08 10:24:28:645,1.8012,-0.3643,9.5493,-0.0132,-0.0176,9.8066,-0.0211,0.5077,-0.039,-5.87,-25.5,30.25,7.01,-81.23,-162.64
9992,52.41788,-1.599005,184.56,9.72,3,288.91,29 / 30,1002122,2019-09-08 10:24:28:746,2.8092,0.6381,9.3687,-0.0264,-0.0114,9.8066,0.0852,0.4532,0.0539,-6.37,-25.25,31.0,8.43,-81.06,-161.75
9993,52.41788,-1.599005,184.56,9.72,3,288.91,29 / 30,1002221,2019-09-08 10:24:28:845,2.1491,0.0263,10.3955,-0.0174,-0.0166,9.8066,-0.0103,0.478,-0.0315,-6.56,-25.06,31.75,9.25,-80.7,-159.67
9994,52.41788,-1.599005,184.56,9.72,3,288.91,29 / 30,1002321,2019-09-08 10:24:28:945,2.4969,0.1256,10.3337,-0.0007,0.0046,9.8065,0.0863,0.5071,-0.0473,-7.69,-25.31,32.75,7.78,-80.58,-159.63
9995,52.41788,-1.599005,184.56,9.72,3,288.91,29 / 30,1002421,2019-09-08 10:24:29:045,2.246,-0.6644,10.0808,-0.0222,0.0155,9.8065,0.0781,0.5152,-0.0291,-8.69,-25.56,33.19,6.97,-80.53,-158.74
9996,52.41788,-1.599005,184.56,9.72,3,288.91,29 / 30,1002522,2019-09-08 10:24:29:146,2.9263,0.5994,9.5858,-0.005,-0.0029,9.8066,-0.0991,0.4719,0.0136,-8.87,-25.69,33.75,8.56,-80.74,-157.74
9997,52.41788,-1.599005,184.56,9.72,3,288.91,29 / 30,1002621,2019-09-08 10:24:29:245,2.9677,0.5251,9.1526,-0.0201,0.0102,9.8066,-0.0132,0.5591,-0.0266,-10.44,-24.81,33.94,8.9,-80.87,-155.81
9998,52.41788,-1.599005,184.56,9.72,3,288.91,29 / 30,1002721,2019-09-08 10:24:29:345,2.3304,-0.3366,9.5009,-0.0238,-0.0165,9.8065,0.042,0.5178,0.0306,-11.37,-24.75,34.75,9.28,-80.77,-154.4
9999,52.41788,-1.599005,184.56,9.72,3,288.91,29 / 30,1002821,2019-09-08 10:24:29:445,1.6688,-0.4226,10.2148,-0.034,-0.0508,9.8064,0.0177,0.4401,0.1173,-11.69,-25.25,35.06,10.86,-80.24,-151.61
10000,52.41788,-1.599005,184.56,9.72,3,288.91,29 / 30,1002921,2019-09-08 10:24:29:545,1.1912,-0.741,9.7042,-0.031,0.0223,9.8066,0.1135,0.3837,-0.0131,-13.5,-24.69,35.5,13.48,-80.03,-148.38
10001,52.41788,-1.599005,184.56,9.72,3,288.91,29 / 30,1003022,2019-09-08 10:24:29:646,1.0092,-1.1696,10.1154,-0.0172,0.0316,9.8065,0.0389,0.3811,-0.0724,-14.0,-24.31,36.31,12.82,-79.98,-147.49
10002,52.41788,-1.599005,184.56,9.72,3,288.91,29 / 30,1003122,2019-09-08 10:24:29:746,1.2576,-0.8022,9.7249,0.0185,0.0205,9.8066,-0.0232,0.3105,-0.0908,-14.37,-25.12,36.5,13.46,-80.15,-147.45
10003,52.41788,-1.599005,184.56,9.72,3,288.91,29 / 30,1003222,2019-09-08 10:24:29:846,2.1414,-0.916,9.2176,0.0132,0.0077,9.8065,0.0011,0.3121,-0.1129,-14.19,-24.87,36.25,11.3,-80.45,-148.81
10004,52.41788,-1.599005,184.56,9.72,3,288.91,29 / 30,1003322,2019-09-08 10:24:29:946,1.8875,-0.2261,9.4542,-0.0026,0.0049,9.8066,0.0483,0.2283,0.0112,-14.5,-24.5,36.31,10.72,-80.51,-149.26
10005,52.41788,-1.599005,184.56,9.72,3,288.91,29 / 30,1003421,2019-09-08 10:24:30:045,0.906,-1.8832,9.7933,-0.0135,-0.0022,9.8065,-0.0024,0.1978,0.0246,-14.69,-24.87,36.75,10.81,-80.46,-148.39
10006,52.41788,-1.599005,184.56,9.72,3,288.91,29 / 30,1003521,2019-09-08 10:24:30:145,1.4927,-0.6203,9.3387,-0.0455,0.0348,9.8064,0.0933,0.0721,0.1168,-15.81,-24.94,35.69,11.23,-80.62,-146.11
10007,52.41788,-1.599005,184.56,9.72,3,288.91,29 / 30,1003621,2019-09-08 10:24:30:245,1.5257,-0.1375,9.6277,-0.0404,0.0229,9.8065,0.0081,0.3307,-0.2038,-15.69,-24.81,36.06,13.67,-80.32,-144.0
10008,52.41788,-1.599005,184.56,9.72,3,288.91,29 / 30,1003721,2019-09-08 10:24:30:345,-0.5464,-1.0827,10.2026,-0.0029,-0.0199,9.8066,0.0836,0.1561,-0.0531,-14.87,-24.87,37.13,14.34,-80.4,-145.26
10009,52.41788,-1.599005,184.56,9.72,3,288.91,26 / 29,1003821,2019-09-08 10:24:30:445,0.5248,-0.8851,9.6189,0.0224,-0.01,9.8066,0.0158,0.0873,-0.058,-16.94,-24.12,37.94,11.8,-80.28,-145.4
10010,52.41788,-1.599005,184.56,9.72,3,288.91,26 / 29,1003922,2019-09-08 10:24:30:546,2.344,-0.1677,8.4369,-0.0066,-0.0029,9.8066,-0.0117,0.1128,0.0009,-17.25,-24.37,37.63,9.54,-80.27,-147.41
10011,52.41788,-1.599005,184.56,9.72,3,288.91,26 / 29,1004022,2019-09-08 10:24:30:646,-0.2787,-1.5763,9.2911,-0.026,0.0175,9.8065,0.1378,0.058,0.0938,-16.62,-25.06,37.75,10.98,-80.05,-146.21
10012,52.41788,-1.599005,184.56,9.72,3,288.91,26 / 29,1004121,2019-09-08 10:24:30:745,-0.0153,-1.2027,10.4704,-0.017,-0.0117,9.8065,0.0773,0.029,0.0712,-17.0,-25.12,37.56,11.74,-80.1,-145.53
10013,52.41788,-1.599005,184.56,9.72,3,288.91,26 / 29,1004222,2019-09-08 10:24:30:846,-0.1692,-1.2407,9.7964,0.0085,-0.0031,9.8066,-0.0108,0.0539,-0.0128,-17.25,-23.62,37.38,11.93,-80.12,-144.76
