,GPS LATITUDE (degrees), GPS LONGITUDE (degrees), GPS ALTITUDE (m), GPS SPEED (Kmh), GPS ACCURACY (m), GPS ORIENTATION (Â°),GPS SATELLITES IN RANGE, TIME SINCE START (ms), DATE (YYYY-MO-DD HH-MI-SS_SSS), ACCELEROMETER X (m/s²) , ACCELEROMETER Y (m/s²), ACCELEROMETER Z (m/s²), GRAVITY X (m/s²), GRAVITY Y (m/s²), GRAVITY Z (m/s²), GYROSCOPE Yaw (rad/s), GYROSCOPE Pitch (rad/s), GYROSCOPE Roll (rad/s), MAGNETIC FIELD X (Î¼T), MAGNETIC FIELD Y (Î¼T), MAGNETIC FIELD Z (Î¼T), ORIENTATION (Yaw) (Â°), ORIENTATION (Pitch) (Â°), ORIENTATION (Roll ) (Â°)
19188,52.554695,-1.463064,0,0,6,0,23 / 24,1918819,2020-01-08 10:09:54:616,0.002,-0.3017,9.8745,-0.0012,0.0016,9.8066,-0.0142,0.0341,-0.0314,-0.75,-29.06,32.5,345.0,-86.37,167.59
19189,52.554695,-1.463064,0,0,6,0,23 / 24,1918919,2020-01-08 10:09:54:716,0.1927,-0.3014,9.8642,0.007,0.0023,9.8066,-0.011,0.0391,-0.0425,-0.12,-28.44,32.44,346.11,-86.37,166.9
19190,52.554695,-1.463064,0,0,6,0,23 / 24,1919019,2020-01-08 10:09:54:816,-0.3951,0.2286,9.8771,-0.003,-0.0024,9.8066,-0.0039,0.0607,-0.0364,-0.12,-28.81,33.38,346.32,-86.37,167.1
19191,52.554695,-1.463064,0,0,6,0,23 / 24,1919119,2020-01-08 10:09:54:916,0.1329,0.3206,9.7884,0.0019,0.0005,9.8066,-0.0017,0.0384,-0.0198,-0.06,-28.56,32.69,346.61,-86.37,167.38
19192,52.554695,-1.463064,0,0,6,0,23 / 24,1919218,2020-01-08 10:09:55:015,-0.2972,-0.1702,9.9338,-0.0046,0.0012,9.8066,0.0011,0.0168,0.0142,-0.62,-28.25,32.75,344.71,-86.36,167.29
19193,52.554695,-1.463064,0,0,6,0,23 / 24,1919319,2020-01-08 10:09:55:116,0.4357,0.1992,9.7965,-0.0058,0.0001,9.8066,-0.0053,0.0008,0.0024,-0.75,-27.94,32.69,344.83,-86.37,167.4
19194,52.554695,-1.463064,0,0,6,0,23 / 24,1919419,2020-01-08 10:09:55:216,-0.0548,-0.433,9.9629,-0.0019,0.0002,9.8066,-0.0214,-0.0218,-0.0138,-0.5,-28.69,33.0,346.56,-86.38,167.32
19195,52.554695,-1.463064,0,0,6,0,23 / 24,1919519,2020-01-08 10:09:55:316,0.3397,0.332,9.8127,-0.0036,0.003,9.8066,-0.0142,-0.0259,0.0183,-0.12,-28.37,32.69,346.45,-86.37,167.2
19196,52.554695,-1.463064,0,0,6,0,23 / 24,1919619,2020-01-08 10:09:55:416,-0.0256,-0.4068,9.9109,-0.0005,-0.0009,9.8066,-0.009,-0.0209,0.0353,-0.12,-28.87,33.5,346.45,-86.38,167.2
19197,52.554695,-1.463064,0,0,6,0,23 / 24,1919718,2020-01-08 10:09:55:515,-0.326,0.3791,9.7964,-0.0046,-0.0008,9.8066,0.0033,-0.013,0.0188,-0.12,-28.62,32.81,346.47,-86.38,167.24
19198,52.554695,-1.463064,0,0,6,0,23 / 24,1919819,2020-01-08 10:09:55:616,0.3076,0.3639,9.8011,0.0024,-0.0011,9.8066,0.009,0.0005,0.0002,-0.5,-28.25,33.06,346.59,-86.38,167.33
19199,52.554695,-1.463064,0,0,6,0,23 / 24,1919918,2020-01-08 10:09:55:715,-0.2978,0.0297,9.8407,-0.0053,0.0011,9.8066,0.0037,0.0045,-0.014,-0.25,-28.81,32.69,346.29,-86.37,167.07
19200,52.554695,-1.463064,0,0,6,0,23 / 24,1920018,2020-01-08 10:09:55:815,0.2674,-0.2595,9.8065,-0.0036,-0.0004,9.8066,-0.009,0.0202,-0.0305,-0.62,-29.37,32.75,344.58,-86.37,167.19
19201,52.554695,-1.463064,0,0,6,0,23 / 24,1920119,2020-01-08 10:09:55:916,-0.2831,0.258,9.8946,-0.0032,-0.0015,9.8066,-0.0174,0.0464,-0.0168,-0.31,-28.69,32.88,346.7,-86.37,167.46
19202,52.554695,-1.463064,0,0,6,0,23 / 24,1920218,2020-01-08 10:09:56:015,0.0274,-0.0899,9.8292,-0.0027,-0.0013,9.8066,-0.002,0.0585,-0.018,-0.31,-28.06,32.69,346.74,-86.37,167.47
19203,52.554695,-1.463064,0,0,6,0,23 / 24,1920319,2020-01-08 10:09:56:116,0.0091,-0.3912,9.8579,-0.0006,0.001,9.8065,0.0132,0.0575,-0.0369,-0.56,-28.62,33.44,344.77,-86.37,167.37
19204,52.554695,-1.463064,0,0,6,0,23 / 24,1920418,2020-01-08 10:09:56:215,-0.2595,0.2713,9.8057,-0.0074,0.0011,9.8066,0.0004,0.0281,-0.0265,-0.44,-28.75,33.63,346.1,-86.36,166.88
19205,52.554695,-1.463064,0,0,6,0,23 / 24,1920519,2020-01-08 10:09:56:316,0.1945,0.2858,9.8184,0.0024,-0.0006,9.8066,-0.0067,0.0029,0.0017,-0.75,-28.31,32.81,344.93,-86.37,167.49
19206,52.554695,-1.463064,0,0,6,0,23 / 24,1920620,2020-01-08 10:09:56:417,-0.4306,0.2303,9.8142,0.0019,-0.0004,9.8066,-0.0219,-0.0312,0.0297,-0.37,-28.44,33.31,346.73,-86.37,167.46
19207,52.554695,-1.463064,0,0,6,0,23 / 24,1920719,2020-01-08 10:09:56:516,0.389,-0.0385,9.8695,0.0079,-0.0009,9.8065,-0.0067,-0.0317,0.0117,-0.19,-28.12,33.38,346.92,-86.38,167.64
19208,52.554695,-1.463064,0,0,6,0,23 / 24,1920819,2020-01-08 10:09:56:616,-0.0631,-0.2993,9.9015,-0.0004,-0.0012,9.8066,0.0088,-0.0237,-0.0034,-0.06,-28.0,32.94,346.47,-86.37,167.22
19209,52.554695,-1.463064,0,0,6,0,23 / 24,1920919,2020-01-08 10:09:56:716,-0.2085,-0.3247,9.873,0.0015,0.0016,9.8066,0.0076,-0.0116,0.0108,-0.19,-28.69,32.75,346.33,-86.36,167.11
19210,52.554695,-1.463064,0,0,6,0,23 / 24,1921019,2020-01-08 10:09:56:816,0.1977,-0.3306,9.9101,0.0116,-0.0021,9.8066,-0.0047,-0.002,0.0242,-0.25,-28.37,33.25,345.72,-86.35,166.51
19211,52.554695,-1.463064,0,0,6,0,23 / 24,1921118,2020-01-08 10:09:56:915,-0.0878,0.0759,9.8212,0.0028,0.0005,9.8066,-0.0123,0.0083,-0.003,-0.12,-28.44,32.94,346.1,-86.36,166.87
19212,52.554695,-1.463064,0,0,6,0,23 / 24,1921219,2020-01-08 10:09:57:016,0.2785,0.2022,9.8511,0.0009,0.0007,9.8066,-0.0075,0.0283,-0.0299,-0.31,-28.37,32.88,346.06,-86.36,166.83
19213,52.554695,-1.463064,0,0,6,0,23 / 24,1921319,2020-01-08 10:09:57:116,0.165,-0.4384,9.899,-0.007,0.0005,9.8066,0.0011,0.047,-0.0471,0.0,-28.37,32.44,345.68,-86.35,166.5
19214,52.554695,-1.463064,0,0,6,0,23 / 24,1921418,2020-01-08 10:09:57:215,0.271,0.1668,9.8696,0.0046,0.0008,9.8066,0.0081,0.0609,-0.0368,-0.62,-28.62,32.69,344.37,-86.34,167.0
19215,52.554695,-1.463064,0,0,6,0,23 / 24,1921519,2020-01-08 10:09:57:316,-0.1885,-0.159,9.8766,-0.0038,0.0,9.8066,-0.0028,0.052,-0.0223,0.19,-28.44,33.13,345.93,-86.35,166.71
19216,52.554695,-1.463064,0,0,6,0,23 / 24,1921619,2020-01-08 10:09:57:416,0.0942,-0.3427,9.8459,-0.004,0.0023,9.8066,-0.0024,0.0501,-0.0181,-0.12,-29.06,32.75,346.12,-86.36,166.92
19217,52.554695,-1.463064,0,0,6,0,23 / 24,1921718,2020-01-08 10:09:57:515,-0.0248,-0.3184,9.9311,-0.0073,0.0006,9.8066,-0.0064,0.0126,-0.01,-0.56,-28.87,33.0,344.08,-86.34,166.72
19218,52.554695,-1.463064,0,0,6,0,23 / 24,1921819,2020-01-08 10:09:57:616,0.2711,0.1555,9.7828,-0.0046,0.0005,9.8066,-0.0166,-0.0002,-0.0239,-0.19,-28.56,32.19,346.01,-86.35,166.84
19219,52.554695,-1.463064,0,0,6,0,23 / 24,1921919,2020-01-08 10:09:57:716,0.2896,0.2322,9.8382,0.0016,-0.0017,9.8066,-0.0022,-0.0323,0.0152,-0.37,-28.25,33.06,345.43,-86.34,166.24
19220,52.554695,-1.463064,0,0,6,0,23 / 24,1922019,2020-01-08 10:09:57:816,0.1974,-0.2626,9.7944,-0.0033,-0.001,9.8066,-0.0008,-0.0406,0.0419,-0.87,-28.37,33.13,344.16,-86.35,166.77
19221,52.554695,-1.463064,0,0,6,0,23 / 24,1922119,2020-01-08 10:09:57:916,-0.0731,-0.2836,9.9511,0.0011,0.0004,9.8066,0.0075,-0.0101,0.0129,-0.87,-28.12,32.63,344.14,-86.35,166.75
19222,52.554695,-1.463064,0,0,6,0,23 / 24,1922219,2020-01-08 10:09:58:016,-0.3129,0.1798,9.8597,0.0025,-0.0009,9.8066,0.0095,-0.0019,-0.0227,0.06,-28.44,33.06,345.5,-86.32,166.31
19223,52.554695,-1.463064,0,0,6,0,23 / 24,1922318,2020-01-08 10:09:58:115,0.1417,-0.1054,9.8295,0.008,0.0015,9.8066,0.0015,0.0203,-0.0073,0.0,-28.12,32.81,345.18,-86.33,166.0
19224,52.554695,-1.463064,0,0,6,0,23 / 24,1922419,2020-01-08 10:09:58:216,0.1925,-0.1515,9.8692,0.0029,-0.0004,9.8066,-0.0133,0.0323,0.0034,-0.12,-28.37,32.69,345.56,-86.34,166.37
19225,52.554695,-1.463064,0,0,6,0,23 / 24,1922519,2020-01-08 10:09:58:316,0.1954,0.2166,9.8324,0.0001,0.0003,9.8066,-0.0123,0.0311,-0.0243,-0.69,-28.25,33.38,343.69,-86.34,166.33
19226,52.554695,-1.463064,0,0,6,0,23 / 24,1922619,2020-01-08 10:09:58:416,0.0592,-0.2691,9.8651,0.0048,-0.0022,9.8066,-0.0043,0.0424,-0.0325,-0.12,-28.5,32.75,345.25,-86.33,166.07
19227,52.554695,-1.463064,0,0,6,0,23 / 24,1922719,2020-01-08 10:09:58:516,-0.3571,0.0638,9.8286,-0.0011,0.0006,9.8066,0.0016,0.0541,-0.0434,-0.62,-28.25,33.06,343.64,-86.33,166.28
19228,52.554695,-1.463064,0,0,6,0,23 / 24,1922819,2020-01-08 10:09:58:616,-0.0208,-0.2085,9.8561,0.0042,0.0011,9.8066,0.0043,0.043,-0.0258,-0.12,-27.69,32.63,345.38,-86.33,166.19
19229,52.554695,-1.463064,0,0,6,0,23 / 24,1922918,2020-01-08 10:09:58:715,-0.1672,-0.2578,9.8314,-0.0053,0.0019,9.8066,-0.0089,0.0197,0.0079,-0.75,-28.12,32.81,343.88,-86.35,166.51
19230,52.554695,-1.463064,0,0,6,0,23 / 24,1923019,2020-01-08 10:09:58:816,0.4395,0.1781,9.9077,-0.0023,0.0017,9.8066,-0.0122,0.0031,0.0086,-1.0,-28.06,32.63,343.37,-86.31,166.03
19231,52.554695,-1.463064,0,0,6,0,23 / 24,1923119,2020-01-08 10:09:58:916,-0.3046,-0.1583,9.8755,-0.0101,0.0022,9.8066,-0.0162,-0.0137,-0.0052,-0.56,-28.75,33.25,342.85,-86.31,165.57
19232,52.554695,-1.463064,0,0,6,0,23 / 24,1923219,2020-01-08 10:09:59:016,-0.1678,0.0911,9.7633,0.0006,0.0019,9.8065,-0.0197,-0.0311,-0.0167,-0.75,-28.44,32.94,343.46,-86.34,166.11
19233,52.554695,-1.463064,0,0,6,0,23 / 24,1923319,2020-01-08 10:09:59:116,-0.5545,0.2085,9.8589,0.0003,-0.001,9.8066,0.003,-0.0277,0.0392,-0.56,-28.56,33.0,343.82,-86.34,166.48
19234,52.554695,-1.463064,0,0,6,0,23 / 24,1923419,2020-01-08 10:09:59:216,0.224,-0.3845,9.8335,0.0051,0.0012,9.8066,0.003,-0.0149,0.0474,-0.56,-28.75,33.0,343.74,-86.34,166.4
19235,52.554695,-1.463064,0,0,6,0,23 / 24,1923519,2020-01-08 10:09:59:316,0.1464,-0.2413,9.9098,0.0013,0.0021,9.8066,0.002,0.0006,-0.0081,-0.69,-28.5,32.5,343.53,-86.35,166.18
19236,52.554695,-1.463064,0,0,6,0,23 / 24,1923619,2020-01-08 10:09:59:416,-0.4184,0.2481,9.8609,-0.0062,-0.0009,9.8066,-0.0017,0.0101,-0.0197,-0.37,-28.25,33.06,345.05,-86.35,165.87
19237,52.554695,-1.463064,0,0,6,0,23 / 24,1923718,2020-01-08 10:09:59:515,0.1527,-0.329,9.8706,0.0012,0.0013,9.8066,-0.0158,0.0353,-0.0218,-0.37,-28.37,32.56,345.2,-86.34,166.02
19238,52.554695,-1.463064,0,0,6,0,23 / 24,1923819,2020-01-08 10:09:59:616,-0.4259,0.2687,9.8673,-0.0072,-0.0018,9.8066,-0.0131,0.0339,-0.0365,-0.31,-28.69,33.31,344.73,-86.35,165.6
19239,52.554695,-1.463064,0,0,6,0,23 / 24,1923918,2020-01-08 10:09:59:715,0.0289,-0.1422,9.829,0.0021,0.0018,9.8066,-0.0046,0.054,-0.0097,-0.5,-28.44,32.44,345.41,-86.33,166.25
19240,52.554695,-1.463064,0,0,6,0,23 / 24,1924019,2020-01-08 10:09:59:816,-0.4932,0.3415,9.8609,-0.0012,0.0011,9.8066,0.0034,0.052,-0.0039,-0.69,-28.5,33.06,343.63,-86.33,166.28
19241,52.554695,-1.463064,0,0,6,0,23 / 24,1924118,2020-01-08 10:09:59:915,0.2272,-0.1939,9.7958,-0.0096,0.0001,9.8066,-0.0013,0.0351,-0.0381,-0.25,-28.19,33.0,345.65,-86.34,166.44
19242,52.554695,-1.463064,0,0,6,0,23 / 24,1924219,2020-01-08 10:10:00:016,0.1654,-0.2139,9.8801,0.0,0.0004,9.8066,-0.0037,0.0038,0.0119,-0.31,-28.5,32.81,345.05,-86.34,165.88
19243,52.554695,-1.463064,0,0,6,0,23 / 24,1924320,2020-01-08 10:10:00:117,0.1302,0.0167,9.9508,-0.0014,0.0019,9.8066,-0.0154,-0.0105,0.0324,-0.56,-28.75,32.81,343.41,-86.35,166.09
19244,52.554695,-1.463064,0,0,6,0,23 / 24,1924419,2020-01-08 10:10:00:216,0.2711,-0.2312,9.8761,0.004,-0.0013,9.8066,-0.0205,-0.0212,0.0134,-0.19,-28.31,32.44,345.41,-86.36,166.24
19245,52.554695,-1.463064,0,0,6,0,23 / 24,1924518,2020-01-08 10:10:00:315,-0.3153,0.2093,9.8275,-0.0021,-0.0008,9.8066,-0.0071,-0.0305,0.0002,-0.62,-28.62,32.75,343.43,-86.35,166.11
19246,52.554695,-1.463064,0,0,6,0,23 / 24,1924619,2020-01-08 10:10:00:416,0.0771,0.0706,9.8124,0.0049,-0.0006,9.8066,0.002,-0.0136,0.0123,-0.44,-28.19,32.5,345.2,-86.35,166.02
19247,52.554695,-1.463064,0,0,6,0,23 / 24,1924719,2020-01-08 10:10:00:516,-0.0382,-0.3395,9.9275,0.0052,-0.003,9.8066,0.0152,-0.0084,0.0168,-0.37,-28.19,33.19,345.0,-86.33,165.84
19248,52.554695,-1.463064,0,0,6,0,23 / 24,1924819,2020-01-08 10:10:00:616,-0.0974,-0.3552,9.9158,0.0008,0.0039,9.8066,0.0038,0.0135,-0.0099,-0.19,-28.12,32.81,345.24,-86.32,166.07
19249,52.554695,-1.463064,0,0,6,0,23 / 24,1924919,2020-01-08 10:10:00:716,-0.2362,0.254,9.8771,0.0036,0.0036,9.8066,0.011,0.0356,-0.0195,-0.5,-28.19,32.63,344.96,-86.35,165.79
19250,52.554695,-1.463064,0,0,6,0,23 / 24,1925018,2020-01-08 10:10:00:815,0.1464,0.1031,9.8147,-0.0068,0.0018,9.8065,-0.0093,0.0467,-0.0544,-0.25,-28.75,33.44,344.78,-86.33,165.65
19251,52.554695,-1.463064,0,0,6,0,23 / 24,1925119,2020-01-08 10:10:00:916,0.2762,-0.3076,9.8699,0.0063,0.0006,9.8066,-0.0175,0.057,-0.0476,-0.44,-28.87,33.19,344.76,-86.35,165.64
19252,52.554695,-1.463064,0,0,6,0,23 / 24,1925218,2020-01-08 10:10:01:015,-0.2349,0.2233,9.8348,-0.0022,-0.0006,9.8066,-0.0082,0.0422,-0.0051,-0.62,-29.12,32.81,343.32,-86.35,166.01
19253,52.554695,-1.463064,0,0,6,0,23 / 24,1925319,2020-01-08 10:10:01:116,0.4524,-0.3892,9.8812,-0.0054,0.0029,9.8066,-0.0019,0.042,-0.0009,-0.37,-28.75,32.75,344.99,-86.33,165.85
19254,52.554695,-1.463064,0,0,6,0,23 / 24,1925418,2020-01-08 10:10:01:215,-0.3481,-0.3108,9.8541,-0.0092,-0.0011,9.8066,-0.0074,0.0136,-0.0139,-0.75,-29.25,33.44,342.7,-86.34,165.43
19255,52.554695,-1.463064,0,0,6,0,23 / 24,1925518,2020-01-08 10:10:01:315,0.1313,0.3274,9.8081,-0.0033,0.0009,9.8066,-0.0045,-0.0028,-0.0052,-0.5,-28.5,33.06,344.9,-86.35,165.73
19256,52.554695,-1.463064,0,0,6,0,23 / 24,1925619,2020-01-08 10:10:01:416,0.3412,-0.2211,9.833,0.0015,-0.0003,9.8066,-0.0035,-0.0299,0.0403,-0.75,-29.12,32.81,343.62,-86.37,166.28
19257,52.554695,-1.463064,0,0,6,0,23 / 24,1925719,2020-01-08 10:10:01:516,-0.2862,-0.1809,9.877,-0.0078,0.0006,9.8066,-0.0143,-0.0355,0.0387,-0.81,-28.31,32.63,343.62,-86.37,166.25
19258,52.554695,-1.463064,0,0,6,0,23 / 24,1925818,2020-01-08 10:10:01:615,-0.1974,0.0862,9.8088,0.0001,-0.0007,9.8066,-0.0139,-0.0264,0.0116,-0.44,-28.19,32.69,344.95,-86.35,165.78
19259,52.554695,-1.463064,0,0,6,0,23 / 24,1925919,2020-01-08 10:10:01:716,-0.1531,0.3191,9.7962,-0.0013,0.0001,9.8066,-0.0161,-0.0354,-0.0007,-0.19,-28.0,32.81,345.24,-86.36,166.06
19260,52.554695,-1.463064,0,0,6,0,23 / 24,1926019,2020-01-08 10:10:01:816,0.0285,0.2813,9.9229,0.0105,-0.0033,9.8066,-0.0079,-0.0194,0.0204,-0.37,-28.5,33.25,344.77,-86.33,165.62
19261,52.554695,-1.463064,0,0,6,0,23 / 24,1926118,2020-01-08 10:10:01:915,-0.3169,-0.1485,9.7648,-0.0025,-0.0022,9.8066,-0.0029,-0.0049,0.0153,-0.44,-28.81,32.81,345.21,-86.35,166.06
19262,52.554695,-1.463064,0,0,6,0,23 / 24,1926219,2020-01-08 10:10:02:016,0.0528,-0.1133,9.8706,0.0044,-0.0028,9.8066,0.0192,0.0439,-0.0386,-0.25,-28.56,33.31,345.11,-86.34,165.96
19263,52.554695,-1.463064,0,0,6,0,23 / 24,1926321,2020-01-08 10:10:02:118,-0.5095,0.0415,9.7798,0.01,-0.0031,9.8066,0.0149,0.0565,-0.0528,0.0,-29.06,33.06,344.62,-86.33,165.51
19264,52.554695,-1.463064,0,0,6,0,23 / 24,1926419,2020-01-08 10:10:02:216,0.2747,-0.3161,9.9157,0.0094,-0.0033,9.8066,0.0044,0.0617,-0.0168,-0.37,-28.25,33.56,345.59,-86.36,166.36
19265,52.554695,-1.463064,0,0,6,0,23 / 24,1926519,2020-01-08 10:10:02:316,-0.2931,-0.3305,9.783,0.0015,-0.0022,9.8066,0.0003,0.0549,-0.0062,-0.44,-28.5,32.31,344.91,-86.33,165.77
19266,52.554695,-1.463064,0,0,6,0,23 / 24,1926619,2020-01-08 10:10:02:416,0.4936,-0.2792,9.9597,-0.0001,0.0001,9.8066,-0.0047,0.0468,-0.0504,0.0,-28.81,33.25,344.66,-86.35,165.54
19267,52.554695,-1.463064,0,0,6,0,23 / 24,1926719,2020-01-08 10:10:02:516,-0.2107,0.2786,9.8108,0.0108,-0.0058,9.8066,0.0057,0.0413,-0.0573,-0.25,-28.44,32.81,344.48,-86.33,165.35
19268,52.554695,-1.463064,0,0,6,0,23 / 24,1926818,2020-01-08 10:10:02:615,-0.2581,-0.2952,9.7939,-0.0017,0.0032,9.8066,0.008,0.0387,-0.0185,-0.5,-28.75,32.5,345.01,-86.36,165.86
19269,52.554695,-1.463064,0,0,6,0,23 / 24,1926919,2020-01-08 10:10:02:716,-0.178,0.172,9.8572,0.0048,-0.0026,9.8066,-0.004,0.0396,-0.0038,-0.56,-28.56,32.63,342.85,-86.32,165.57
19270,52.554695,-1.463064,0,0,6,0,23 / 24,1927019,2020-01-08 10:10:02:816,-0.3154,-0.2995,9.7877,-0.0015,-0.0003,9.8066,-0.0117,0.0134,0.0119,-0.56,-28.06,32.75,342.96,-86.35,165.64
19271,52.554695,-1.463064,0,0,6,0,23 / 24,1927119,2020-01-08 10:10:02:916,0.3857,-0.2633,9.9191,0.0025,0.0011,9.8066,-0.0136,-0.025,0.0073,-0.19,-29.12,32.63,344.42,-86.33,165.32
19272,52.554695,-1.463064,0,0,6,0,23 / 24,1927218,2020-01-08 10:10:03:015,-0.2928,-0.002,9.8126,-0.0032,-0.0001,9.8066,-0.0191,-0.0426,0.0012,-0.31,-28.56,33.31,344.75,-86.34,165.62
19273,52.554695,-1.463064,0,0,6,0,23 / 24,1927319,2020-01-08 10:10:03:116,0.3797,0.2464,9.8724,-0.0062,0.0017,9.8066,-0.008,-0.0549,0.0374,-0.56,-27.69,33.13,343.24,-86.34,165.9
19274,52.554695,-1.463064,0,0,6,0,23 / 24,1927419,2020-01-08 10:10:03:216,-0.0779,-0.0632,9.8607,-0.0099,0.0014,9.8066,-0.0088,-0.0343,0.0479,-0.31,-28.87,32.81,344.22,-86.33,165.13
19275,52.554695,-1.463064,0,0,6,0,23 / 24,1927519,2020-01-08 10:10:03:316,-0.2686,-0.135,9.8153,-0.0037,-0.0011,9.8066,0.0053,-0.003,-0.0013,-0.25,-28.12,32.75,344.76,-86.34,165.6
19276,52.554695,-1.463064,0,0,6,0,23 / 24,1927619,2020-01-08 10:10:03:416,-0.3816,0.246,9.82,0.0033,-0.0018,9.8065,0.0193,0.0114,-0.0239,-0.12,-28.56,33.06,345.02,-86.33,165.88
19277,52.554695,-1.463064,0,0,6,0,23 / 24,1927718,2020-01-08 10:10:03:515,-0.1418,-0.0307,9.7852,-0.008,-0.0013,9.8066,0.014,0.039,-0.0252,-0.56,-28.81,33.13,343.41,-86.33,166.09
19278,52.554695,-1.463064,0,0,6,0,23 / 24,1927819,2020-01-08 10:10:03:616,0.247,-0.2597,9.9038,0.0026,-0.001,9.8066,-0.0042,0.0453,-0.0238,-0.31,-28.37,32.81,344.8,-86.3,165.65
19279,52.554695,-1.463064,0,0,6,0,23 / 24,1927919,2020-01-08 10:10:03:716,-0.3312,-0.2813,9.8096,-0.0003,-0.0017,9.8066,-0.003,0.0512,-0.0248,-0.5,-28.31,33.06,344.68,-86.31,165.54
19280,52.554695,-1.463064,0,0,6,0,23 / 24,1928018,2020-01-08 10:10:03:815,0.257,0.1952,9.8454,0.0089,-0.0035,9.8066,-0.0058,0.053,-0.0368,-0.5,-28.69,32.69,345.06,-86.3,165.92
19281,52.554695,-1.463064,0,0,6,0,23 / 24,1928119,2020-01-08 10:10:03:916,0.2141,-0.0244,9.8981,0.005,-0.0009,9.8066,-0.011,0.038,-0.0461,-0.56,-28.62,33.13,342.86,-86.29,165.58
19282,52.554695,-1.463064,0,0,6,0,23 / 24,1928219,2020-01-08 10:10:04:016,0.3393,-0.4104,9.9726,0.003,-0.001,9.8066,-0.0097,0.0198,-0.0222,-0.69,-29.25,33.06,343.03,-86.3,165.74
19283,52.554695,-1.463064,0,0,6,0,23 / 24,1928319,2020-01-08 10:10:04:116,-0.2217,0.1955,9.812,0.0074,-0.0037,9.8066,-0.0073,0.0113,0.028,0.19,-28.31,33.19,344.4,-86.26,165.29
19284,52.554695,-1.463064,0,0,6,0,23 / 24,1928419,2020-01-08 10:10:04:216,0.2487,0.2473,9.8224,0.0051,-0.0002,9.8066,-0.005,0.0058,0.014,-0.81,-28.5,33.56,343.07,-86.29,165.68
19285,52.554695,-1.463064,0,0,6,0,23 / 24,1928519,2020-01-08 10:10:04:316,0.1675,-0.0711,9.9063,0.0054,-0.0021,9.8066,-0.0064,-0.0152,-0.0084,-0.37,-28.94,33.25,345.19,-86.29,166.05
19286,52.554695,-1.463064,0,0,6,0,23 / 24,1928619,2020-01-08 10:10:04:416,-0.4677,0.036,9.7719,-0.0065,0.0026,9.8066,-0.015,-0.0264,0.0208,-0.56,-28.37,32.94,342.7,-86.27,165.41
19287,52.554695,-1.463064,0,0,6,0,23 / 24,1928719,2020-01-08 10:10:04:516,-0.3304,0.0586,9.8495,0.007,-0.0022,9.8066,-0.0158,-0.0293,0.0594,-0.31,-28.56,33.25,344.22,-86.27,165.14
19288,52.554695,-1.463064,0,0,6,0,23 / 24,1928819,2020-01-08 10:10:04:616,-0.1408,0.3177,9.6786,0.0004,0.0029,9.8066,-0.0105,-0.0317,0.0282,-0.31,-28.56,32.63,344.57,-86.28,165.47
19289,52.554695,-1.463064,0,0,6,0,23 / 24,1928919,2020-01-08 10:10:04:716,0.2479,-0.4576,9.9887,-0.0037,-0.0011,9.8066,-0.0171,-0.0294,-0.0138,-0.56,-28.69,33.25,342.81,-86.27,165.55
19290,52.554695,-1.463064,0,0,6,0,23 / 24,1929019,2020-01-08 10:10:04:816,-0.0942,0.2678,9.8076,-0.0116,0.0017,9.8066,-0.0195,-0.0241,0.0183,-0.75,-28.44,32.44,342.25,-86.24,165.07
19291,52.554695,-1.463064,0,0,6,0,23 / 24,1929119,2020-01-08 10:10:04:916,0.1242,-0.2199,10.0022,0.0061,0.0005,9.8066,-0.016,0.0005,0.018,0.0,-28.0,33.13,344.9,-86.27,165.76
19292,52.554695,-1.463064,0,0,6,0,23 / 24,1929218,2020-01-08 10:10:05:015,0.0789,-0.1937,9.7804,-0.002,0.0053,9.8066,-0.0066,0.0024,-0.0336,-0.44,-28.37,32.44,344.98,-86.26,165.86
19293,52.554695,-1.463064,0,0,6,0,23 / 24,1929319,2020-01-08 10:10:05:116,0.3915,-0.0333,9.9614,-0.0082,0.005,9.8066,0.0199,0.0432,-0.0316,-0.37,-28.12,32.81,344.95,-86.29,165.8
19294,52.554695,-1.463064,0,0,6,0,23 / 24,1929419,2020-01-08 10:10:05:216,-0.3752,-0.0783,9.7086,-0.0069,0.0005,9.8066,0.0259,0.0486,-0.017,-0.69,-28.69,33.0,342.74,-86.26,165.49
19295,52.554695,-1.463064,0,0,6,0,23 / 24,1929518,2020-01-08 10:10:05:315,0.2331,-0.0805,9.7956,-0.0058,0.0048,9.8066,0.015,0.0528,-0.0402,-0.62,-28.44,33.0,343.44,-86.28,166.11
19296,52.554695,-1.463064,0,0,6,0,23 / 24,1929619,2020-01-08 10:10:05:416,0.1751,0.1806,9.9118,-0.0015,-0.003,9.8066,0.0059,0.0628,-0.033,-0.31,-27.87,32.75,344.86,-86.28,165.71
19297,52.554695,-1.463064,0,0,6,0,23 / 24,1929719,2020-01-08 10:10:05:516,-0.4273,0.0482,9.871,-0.0074,0.0006,9.8066,-0.0046,0.0482,-0.0427,0.0,-28.44,32.94,344.87,-86.25,165.73
19298,52.554695,-1.463064,0,0,6,0,23 / 24,1929819,2020-01-08 10:10:05:616,-0.3304,-0.0885,9.8497,-0.002,-0.0002,9.8066,-0.0163,0.0394,-0.0501,0.0,-29.06,32.38,345.07,-86.26,165.97
19299,52.554695,-1.463064,0,0,6,0,23 / 24,1929918,2020-01-08 10:10:05:715,-0.247,0.3523,9.7551,-0.0014,0.0002,9.8066,-0.0076,0.0103,0.0038,-0.87,-28.62,33.5,343.22,-86.26,165.86
19300,52.554695,-1.463064,0,0,6,0,23 / 24,1930019,2020-01-08 10:10:05:816,0.4871,-0.4367,9.964,0.0109,-0.001,9.8066,-0.0079,0.0085,0.0202,-0.44,-28.25,32.94,345.48,-86.27,166.3
19301,52.554695,-1.463064,0,0,6,0,23 / 24,1930118,2020-01-08 10:10:05:915,-0.4211,-0.2077,9.8269,-0.0035,-0.0019,9.8066,-0.009,-0.0032,-0.0125,-0.56,-28.56,33.25,342.89,-86.27,165.62
19302,52.554695,-1.463064,0,0,6,0,23 / 24,1930218,2020-01-08 10:10:06:015,0.1498,-0.212,9.9435,0.0013,-0.0029,9.8066,-0.0148,-0.0003,-0.0123,-0.62,-28.69,33.0,342.85,-86.24,165.59
19303,52.554695,-1.463064,0,0,6,0,23 / 24,1930319,2020-01-08 10:10:06:116,-0.4222,0.2469,9.7908,0.007,0.0,9.8066,-0.004,-0.0166,0.041,-0.5,-29.0,32.69,344.34,-86.27,165.26
19304,52.554695,-1.463064,0,0,6,0,23 / 24,1930419,2020-01-08 10:10:06:216,0.4998,-0.3621,9.907,0.0093,-0.0025,9.8066,-0.0092,-0.0321,0.0203,-0.75,-28.31,33.63,343.44,-86.28,166.03
19305,52.554695,-1.463064,0,0,6,0,23 / 24,1930519,2020-01-08 10:10:06:316,-0.1167,0.1795,9.8902,0.0019,-0.0013,9.8066,-0.0135,-0.0143,0.01,-0.69,-28.0,32.81,342.99,-86.26,165.69
19306,52.554695,-1.463064,0,0,6,0,23 / 24,1930619,2020-01-08 10:10:06:416,0.4324,-0.4231,9.9784,0.0007,-0.0027,9.8066,-0.0177,-0.0332,-0.0039,-0.56,-28.81,33.0,342.83,-86.27,165.56
19307,52.554695,-1.463064,0,0,6,0,23 / 24,1930719,2020-01-08 10:10:06:516,-0.4398,-0.2817,9.8639,0.0105,-0.0023,9.8066,-0.0164,-0.0252,0.0292,-0.56,-28.62,32.81,342.44,-86.25,165.21
19308,52.554695,-1.463064,0,0,6,0,23 / 24,1930818,2020-01-08 10:10:06:615,0.2818,-0.2634,9.9359,0.0038,0.0001,9.8066,-0.003,-0.0032,0.0048,-0.69,-27.87,32.38,342.93,-86.27,165.71
19309,52.554695,-1.463064,0,0,6,0,23 / 24,1930918,2020-01-08 10:10:06:715,0.1193,0.2491,9.8387,0.0009,-0.0031,9.8065,0.0073,0.0161,-0.0201,-0.25,-28.5,32.81,344.73,-86.25,165.6
19310,52.554695,-1.463064,0,0,6,0,23 / 24,1931019,2020-01-08 10:10:06:816,-0.4536,-0.205,9.7913,-0.0092,0.0032,9.8066,0.0142,0.04,-0.0299,-0.5,-28.56,33.19,345.33,-86.28,166.19
19311,52.554695,-1.463064,0,0,6,0,23 / 24,1931119,2020-01-08 10:10:06:916,-0.2325,0.2279,9.8497,0.0026,-0.0028,9.8066,0.016,0.0557,-0.0166,-0.31,-28.62,32.44,345.21,-86.29,166.1
19312,52.554695,-1.463064,0,0,6,0,23 / 24,1931218,2020-01-08 10:10:07:015,-0.2354,-0.0696,9.7546,-0.001,-0.0021,9.8066,-0.0006,0.0576,-0.0263,-0.87,-28.31,32.88,343.27,-86.28,165.94
19313,52.554695,-1.463064,0,0,6,0,23 / 24,1931319,2020-01-08 10:10:07:116,0.4213,-0.5052,9.9688,0.0081,-0.0036,9.8066,0.0025,0.0564,-0.0357,-0.25,-28.37,32.94,345.34,-86.29,166.17
19314,52.554695,-1.463064,0,0,6,0,23 / 24,1931418,2020-01-08 10:10:07:215,-0.3602,0.1661,9.7723,0.0008,-0.0003,9.8066,-0.0063,0.0429,-0.0373,-0.62,-28.75,32.13,343.19,-86.28,165.99
19315,52.554695,-1.463064,0,0,6,0,23 / 24,1931518,2020-01-08 10:10:07:315,0.1946,-0.2422,9.8689,0.005,-0.0029,9.8066,0.0002,0.037,-0.0257,-0.5,-28.31,33.13,345.31,-86.3,166.13
19316,52.554695,-1.463064,0,0,6,0,23 / 24,1931619,2020-01-08 10:10:07:416,-0.2693,0.045,9.779,0.0016,-0.0018,9.8066,-0.0024,0.0323,-0.0111,-0.25,-28.69,32.94,345.17,-86.27,166.04
19317,52.554695,-1.463064,0,0,6,0,23 / 24,1931719,2020-01-08 10:10:07:516,0.2203,0.0893,9.9317,0.0028,-0.0029,9.8065,-0.0054,0.0189,0.009,-0.5,-27.94,33.19,345.08,-86.27,165.92
19318,52.554695,-1.463064,0,0,6,0,23 / 24,1931819,2020-01-08 10:10:07:616,-0.4094,0.252,9.8712,0.0098,-0.0031,9.8066,-0.0057,0.0113,-0.0053,-0.5,-28.56,33.31,344.71,-86.26,165.61
19319,52.554695,-1.463064,0,0,6,0,23 / 24,1931918,2020-01-08 10:10:07:715,0.0528,0.4009,9.7132,0.0035,0.0033,9.8066,-0.0179,-0.0004,-0.0186,-0.44,-28.31,32.56,345.46,-86.26,166.28
19320,52.554695,-1.463064,0,0,6,0,23 / 24,1932019,2020-01-08 10:10:07:816,0.1742,0.1657,9.8517,0.0007,-0.0019,9.8066,-0.0218,-0.0272,0.0574,-0.69,-28.37,32.44,343.07,-86.27,165.84
19321,52.554695,-1.463064,0,0,6,0,23 / 24,1932119,2020-01-08 10:10:07:916,-0.514,-0.3057,9.8622,-0.0121,0.0,9.8065,-0.0106,-0.0437,0.0646,0.0,-28.75,32.94,344.67,-86.27,165.56
19322,52.554695,-1.463064,0,0,6,0,23 / 24,1932219,2020-01-08 10:10:08:016,-0.0195,0.3038,9.8509,-0.0023,-0.0003,9.8066,-0.0118,-0.043,-0.0155,-0.5,-29.0,33.44,344.83,-86.27,165.72
19323,52.554695,-1.463064,0,0,6,0,23 / 24,1932319,2020-01-08 10:10:08:116,-0.5615,-0.1465,9.8149,0.006,-0.0003,9.8066,-0.0147,-0.032,-0.0172,-0.5,-28.37,33.31,344.84,-86.28,165.7
19324,52.554695,-1.463064,0,0,6,0,23 / 24,1932418,2020-01-08 10:10:08:215,0.4561,-0.3941,9.9805,0.0101,-0.0029,9.8066,-0.0016,-0.0068,0.0255,-1.19,-28.87,32.81,342.93,-86.26,165.66
19325,52.554695,-1.463064,0,0,6,0,23 / 24,1932519,2020-01-08 10:10:08:316,-0.1652,-0.0365,9.9074,0.0002,-0.0024,9.8066,0.0011,0.0115,0.0005,-0.25,-28.5,34.06,344.94,-86.28,165.76
19326,52.554695,-1.463064,0,0,6,0,23 / 24,1932619,2020-01-08 10:10:08:416,0.0068,0.2144,9.7392,-0.0022,0.0003,9.8066,0.0179,0.0544,-0.035,-0.81,-28.37,32.69,343.41,-86.28,166.08
19327,52.554695,-1.463064,0,0,6,0,23 / 24,1932718,2020-01-08 10:10:08:515,-0.6256,-0.0863,9.7542,0.0102,-0.0045,9.8066,0.024,0.0486,-0.0475,-0.44,-28.31,33.13,344.83,-86.25,165.69
19328,52.554695,-1.463064,0,0,6,0,23 / 24,1932819,2020-01-08 10:10:08:616,0.3382,-0.1587,9.8643,0.0063,0.0001,9.8066,0.0097,0.0654,-0.0366,-0.25,-28.19,32.38,345.35,-86.26,166.21
19329,52.554695,-1.463064,0,0,6,0,23 / 24,1932920,2020-01-08 10:10:08:717,-0.2618,-0.3239,9.8534,0.0035,-0.0023,9.8066,0.0076,0.0749,-0.0203,-0.12,-28.5,33.13,344.98,-86.25,165.83
19330,52.554695,-1.463064,0,0,6,0,23 / 24,1933018,2020-01-08 10:10:08:815,-0.1681,0.1174,9.8228,-0.0041,0.0017,9.8066,0.0042,0.0545,-0.0432,-0.87,-28.56,33.19,342.97,-86.25,165.7
19331,52.554695,-1.463064,0,0,6,0,23 / 24,1933119,2020-01-08 10:10:08:916,0.3319,-0.1351,9.8955,0.0107,-0.0036,9.8066,-0.0028,0.0361,-0.0585,-0.5,-28.0,32.75,345.76,-86.28,166.56
19332,52.554695,-1.463064,0,0,6,0,23 / 24,1933219,2020-01-08 10:10:09:016,0.0632,-0.0156,9.9145,-0.0006,0.0007,9.8065,-0.0066,0.0213,-0.0033,-0.5,-28.12,32.69,345.18,-86.26,166.02
19333,52.554695,-1.463064,0,0,6,0,23 / 24,1933319,2020-01-08 10:10:09:116,-0.0099,0.1172,9.7786,-0.001,-0.0019,9.8066,-0.0095,0.0093,0.0095,-0.62,-28.94,32.69,343.25,-86.25,165.96
19334,52.554695,-1.463064,0,0,6,0,23 / 24,1933419,2020-01-08 10:10:09:216,-0.2589,0.1622,9.7798,-0.0053,0.0007,9.8066,0.0068,0.0171,-0.0068,-0.75,-27.94,33.06,342.98,-86.25,165.68
19335,52.554695,-1.463064,0,0,6,0,23 / 24,1933519,2020-01-08 10:10:09:316,0.2673,-0.3405,9.9715,0.0067,0.0001,9.8066,0.0,0.0112,-0.0205,-0.44,-28.87,33.0,344.64,-86.26,165.54
19336,52.554695,-1.463064,0,0,6,0,23 / 24,1933619,2020-01-08 10:10:09:416,-0.0426,-0.1324,9.7775,-0.0017,0.003,9.8066,-0.0104,-0.0004,0.0104,-0.44,-28.37,33.13,345.15,-86.26,165.99
19337,52.554695,-1.463064,0,0,6,0,23 / 24,1933719,2020-01-08 10:10:09:516,0.1231,0.0873,9.8301,-0.0073,0.0035,9.8066,-0.0146,-0.0246,0.0495,-0.69,-28.62,33.19,342.83,-86.24,165.58
19338,52.554695,-1.463064,0,0,6,0,23 / 24,1933819,2020-01-08 10:10:09:616,-0.2512,0.1723,9.941,-0.0076,0.0,9.8066,-0.0195,-0.0187,0.0272,-0.37,-28.0,32.88,344.54,-86.25,165.42
19339,52.554695,-1.463064,0,0,6,0,23 / 24,1933920,2020-01-08 10:10:09:717,-0.0667,0.5318,9.6842,-0.0006,0.005,9.8066,-0.0119,-0.0305,-0.0099,-0.19,-28.0,32.44,344.83,-86.26,165.72
19340,52.554695,-1.463064,0,0,6,0,23 / 24,1934019,2020-01-08 10:10:09:816,0.1724,0.2303,9.8536,0.0009,-0.0032,9.8066,-0.0032,-0.0314,0.0039,-0.12,-28.5,33.0,345.28,-86.27,166.12
19341,52.554695,-1.463064,0,0,6,0,23 / 24,1934118,2020-01-08 10:10:09:915,0.5036,-0.3308,9.7973,-0.0104,0.0002,9.8066,-0.0164,-0.0184,0.0331,-0.19,-29.06,32.69,345.23,-86.24,166.1
19342,52.554695,-1.463064,0,0,6,0,23 / 24,1934219,2020-01-08 10:10:10:016,0.0449,0.0825,9.8813,-0.0014,-0.0011,9.8066,-0.0105,0.0037,0.0016,-0.69,-28.37,33.13,342.77,-86.24,165.48
19343,52.554695,-1.463064,0,0,6,0,23 / 24,1934319,2020-01-08 10:10:10:116,-0.441,0.1136,9.7951,-0.0001,0.0016,9.8066,0.0029,0.0389,-0.0523,-0.62,-28.56,32.25,342.98,-86.24,165.8
19344,52.554695,-1.463064,0,0,6,0,23 / 24,1934419,2020-01-08 10:10:10:216,-0.2879,-0.1563,9.8691,0.0028,-0.0014,9.8066,0.0083,0.0417,-0.0293,-0.25,-28.69,32.63,345.1,-86.24,165.97
19345,52.554695,-1.463064,0,0,6,0,23 / 24,1934519,2020-01-08 10:10:10:316,-0.1057,0.3231,9.6763,-0.0066,0.0012,9.8066,0.0109,0.0593,0.0002,-0.5,-28.37,32.94,345.06,-86.24,165.92
19346,52.554695,-1.463064,0,0,6,0,23 / 24,1934619,2020-01-08 10:10:10:416,0.194,-0.3982,9.9984,0.0063,-0.0018,9.8066,0.0223,0.0487,-0.0208,-0.69,-28.19,32.75,342.68,-86.24,165.4
19347,52.554695,-1.463064,0,0,6,0,23 / 24,1934719,2020-01-08 10:10:10:516,-0.3876,-0.2824,9.8491,0.0026,-0.0032,9.8066,0.008,0.0565,-0.0563,-0.25,-28.56,33.19,344.78,-86.25,165.68
19348,52.554695,-1.463064,0,0,6,0,23 / 24,1934819,2020-01-08 10:10:10:616,0.0398,0.2403,9.9462,0.0069,-0.0034,9.8066,0.0066,0.0463,-0.048,-0.12,-28.94,32.94,345.2,-86.26,166.07
19349,52.554695,-1.463064,0,0,6,0,23 / 24,1934919,2020-01-08 10:10:10:716,-0.2727,0.3208,9.735,-0.0008,-0.002,9.8066,-0.0109,0.0293,-0.0031,-0.37,-28.94,32.81,344.79,-86.25,165.69
19350,52.554695,-1.463064,0,0,6,0,23 / 24,1935018,2020-01-08 10:10:10:815,0.3903,-0.0186,9.8783,0.0054,-0.003,9.8066,-0.012,0.0122,0.007,-0.5,-28.37,32.88,344.79,-86.25,165.66
19351,52.554695,-1.463064,0,0,6,0,23 / 24,1935120,2020-01-08 10:10:10:917,-0.3528,0.0098,9.7439,0.0084,-0.0017,9.8066,-0.0157,0.0138,-0.0167,-0.19,-28.69,32.63,344.28,-86.23,165.21
19352,52.554695,-1.463064,0,0,6,0,23 / 24,1935219,2020-01-08 10:10:11:016,0.1534,-0.1377,9.8751,0.0041,-0.0011,9.8066,-0.017,-0.007,-0.0231,-0.87,-27.37,32.69,342.76,-86.23,165.45
19353,52.554695,-1.463064,0,0,6,0,23 / 24,1935319,2020-01-08 10:10:11:116,0.2238,0.2855,9.8907,0.004,-0.004,9.8066,-0.0164,-0.0135,0.0443,-0.56,-28.19,32.44,342.33,-86.21,165.16
19354,52.554695,-1.463064,0,0,6,0,23 / 24,1935419,2020-01-08 10:10:11:216,0.5017,-0.398,9.8673,0.0006,0.0001,9.8066,-0.0087,-0.0063,0.0521,-0.75,-28.87,33.19,342.45,-86.24,165.22
19355,52.554695,-1.463064,0,0,6,0,23 / 24,1935518,2020-01-08 10:10:11:315,-0.1174,-0.3217,9.8535,0.0066,-0.0013,9.8066,-0.0063,-0.0174,-0.0054,0.0,-28.5,33.19,345.09,-86.24,165.94
19356,52.554695,-1.463064,0,0,6,0,23 / 24,1935619,2020-01-08 10:10:11:416,0.0655,-0.3942,9.9484,-0.0055,0.0004,9.8066,-0.0074,-0.0226,0.0046,-0.37,-28.25,33.13,344.97,-86.25,165.83
19357,52.554695,-1.463064,0,0,6,0,23 / 24,1935719,2020-01-08 10:10:11:516,0.1771,0.2115,9.8581,0.0042,-0.0031,9.8066,-0.0135,-0.0155,0.0403,-0.19,-28.37,33.19,344.49,-86.22,165.38
19358,52.554695,-1.463064,0,0,6,0,23 / 24,1935818,2020-01-08 10:10:11:615,-0.3139,0.1098,9.7473,-0.001,0.0031,9.8066,-0.0079,-0.0193,0.0319,-0.37,-28.94,32.69,344.5,-86.23,165.42
19359,52.554695,-1.463064,0,0,6,0,23 / 24,1935919,2020-01-08 10:10:11:716,0.0518,-0.2624,9.8886,0.0007,0.0009,9.8066,-0.0019,-0.003,-0.0188,-0.37,-28.5,32.81,344.7,-86.24,165.57
19360,52.554695,-1.463064,0,0,6,0,23 / 24,1936019,2020-01-08 10:10:11:816,-0.1943,-0.0565,9.8722,-0.0078,0.0021,9.8066,-0.0143,-0.0012,-0.0245,-0.31,-28.19,33.25,344.25,-86.22,165.15
19361,52.554695,-1.463064,0,0,6,0,23 / 24,1936119,2020-01-08 10:10:11:916,0.1294,0.1791,9.8611,0.002,-0.0005,9.8066,-0.0112,0.0044,0.02,-1.0,-28.0,33.06,342.55,-86.22,165.28
19362,52.554695,-1.463064,0,0,6,0,23 / 24,1936219,2020-01-08 10:10:12:016,0.0124,-0.2609,9.792,0.0006,0.0036,9.8066,-0.0057,0.01,0.0057,-0.75,-29.0,32.31,342.75,-86.22,165.59
19363,52.554695,-1.463064,0,0,6,0,23 / 24,1936319,2020-01-08 10:10:12:116,0.2476,0.1378,9.8516,-0.0051,0.0008,9.8066,-0.0032,0.0197,-0.0429,-0.56,-28.25,33.06,343.06,-86.23,165.76
19364,52.554695,-1.463064,0,0,6,0,23 / 24,1936418,2020-01-08 10:10:12:215,-0.3282,0.081,9.8057,-0.008,0.0036,9.8066,-0.0014,0.0199,-0.031,-0.75,-28.56,33.06,342.45,-86.21,165.22
19365,52.554695,-1.463064,0,0,6,0,23 / 24,1936519,2020-01-08 10:10:12:316,-0.0041,-0.1843,9.9449,0.0031,0.0026,9.8066,0.0109,0.0265,0.0164,-1.0,-27.94,32.88,342.56,-86.24,165.29
19366,52.554695,-1.463064,0,0,6,0,23 / 24,1936618,2020-01-08 10:10:12:415,0.1397,-0.2335,9.8359,0.0011,0.0034,9.8065,0.0121,0.0464,-0.0077,-0.56,-28.37,32.63,343.15,-86.23,165.85
19367,52.554695,-1.463064,0,0,6,0,23 / 24,1936719,2020-01-08 10:10:12:516,0.1367,0.2134,9.8285,-0.0059,0.001,9.8066,0.0078,0.0295,-0.0427,-0.5,-28.06,33.0,344.85,-86.25,165.71
19368,52.554695,-1.463064,0,0,6,0,23 / 24,1936818,2020-01-08 10:10:12:615,-0.0884,-0.3162,9.8404,-0.002,0.0006,9.8066,0.0063,0.0327,-0.0175,-0.31,-29.0,33.25,344.31,-86.23,165.23
19369,52.554695,-1.463064,0,0,6,0,23 / 24,1936918,2020-01-08 10:10:12:715,-0.0467,-0.3914,9.9815,0.0011,0.0039,9.8066,0.009,0.0299,0.0076,-0.31,-28.69,32.88,344.45,-86.26,165.36
19370,52.554695,-1.463064,0,0,6,0,23 / 24,1937019,2020-01-08 10:10:12:816,0.0504,0.1633,9.8531,-0.0033,0.0,9.8066,0.0082,0.0308,-0.0209,-0.06,-28.81,32.94,344.59,-86.26,165.49
19371,52.554695,-1.463064,0,0,6,0,23 / 24,1937119,2020-01-08 10:10:12:916,0.1332,-0.2924,9.9166,-0.0043,0.0035,9.8066,-0.009,0.0201,-0.0381,-0.25,-28.56,33.0,344.63,-86.27,165.53
19372,52.554695,-1.463064,0,0,6,0,23 / 24,1937219,2020-01-08 10:10:13:016,-0.0537,-0.0079,9.8834,0.0009,-0.0026,9.8066,-0.0167,0.0155,0.0101,-0.69,-28.44,32.56,342.72,-86.26,165.44
19373,52.554695,-1.463064,0,0,6,0,23 / 24,1937319,2020-01-08 10:10:13:116,-0.0641,0.245,9.8013,-0.0038,0.0023,9.8066,-0.0212,0.0179,0.0088,-0.62,-28.81,33.0,343.25,-86.27,165.96
19374,52.554695,-1.463064,0,0,6,0,23 / 24,1937419,2020-01-08 10:10:13:216,0.2116,0.0329,9.8957,-0.0006,-0.0024,9.8066,-0.0115,0.0189,-0.0264,-0.56,-28.25,32.25,342.82,-86.27,165.61
19375,52.554695,-1.463064,0,0,6,0,23 / 24,1937519,2020-01-08 10:10:13:316,0.13,-0.0928,9.8217,-0.0039,0.0001,9.8066,-0.0098,0.0145,-0.0167,-0.37,-28.37,33.0,344.36,-86.25,165.25
19376,52.554695,-1.463064,0,0,6,0,23 / 24,1937619,2020-01-08 10:10:13:416,0.1806,0.2263,9.8767,0.0038,-0.0035,9.8066,-0.0084,-0.0051,0.0281,0.0,-28.62,32.94,344.8,-86.27,165.69
19377,52.554695,-1.463064,0,0,6,0,23 / 24,1937719,2020-01-08 10:10:13:516,-0.3962,-0.2503,9.8158,-0.002,-0.0002,9.8066,-0.0083,-0.0046,0.0311,-0.12,-28.56,32.75,345.06,-86.26,165.93
19378,52.554695,-1.463064,0,0,6,0,23 / 24,1937818,2020-01-08 10:10:13:615,0.3178,-0.3419,9.9113,0.0038,-0.0005,9.8066,-0.0038,-0.0174,0.0084,-0.56,-28.31,33.25,342.74,-86.24,165.45
19379,52.554695,-1.463064,0,0,6,0,23 / 24,1937919,2020-01-08 10:10:13:716,-0.1181,-0.2658,9.8199,-0.0014,0.0052,9.8066,-0.0124,-0.0153,-0.002,-0.37,-28.37,32.88,345.01,-86.24,165.86
19380,52.554695,-1.463064,0,0,6,0,23 / 24,1938019,2020-01-08 10:10:13:816,0.1945,-0.2271,9.9174,-0.0065,0.0044,9.8066,-0.0259,-0.0286,0.0266,-0.25,-28.62,32.69,344.54,-86.24,165.45
19381,52.554695,-1.463064,0,0,6,0,23 / 24,1938119,2020-01-08 10:10:13:916,-0.2745,0.2613,9.7358,-0.0106,0.0014,9.8065,-0.0144,-0.0292,0.0365,-0.25,-28.62,32.38,345.39,-86.27,166.27
19382,52.554695,-1.463064,0,0,6,0,23 / 24,1938219,2020-01-08 10:10:14:016,0.1594,-0.3152,9.9287,0.0011,0.0033,9.8066,-0.0032,-0.0064,-0.0065,-0.37,-28.5,32.13,344.89,-86.25,165.78
19383,52.554695,-1.463064,0,0,6,0,23 / 24,1938319,2020-01-08 10:10:14:116,-0.119,-0.2184,9.8191,0.0055,-0.001,9.8066,0.0004,0.0063,-0.0397,-0.12,-28.19,32.88,344.43,-86.24,165.32
19384,52.554695,-1.463064,0,0,6,0,23 / 24,1938419,2020-01-08 10:10:14:216,-0.2007,0.4339,9.7461,0.0061,-0.0015,9.8066,0.0082,0.0279,-0.0134,-0.44,-28.5,33.06,344.77,-86.27,165.63
19385,52.554695,-1.463064,0,0,6,0,23 / 24,1938519,2020-01-08 10:10:14:316,-0.0292,0.2088,9.9076,0.0046,-0.0021,9.8066,0.0057,0.0454,0.0145,-0.56,-28.12,32.81,342.98,-86.26,165.68
19386,52.554695,-1.463064,0,0,6,0,23 / 24,1938619,2020-01-08 10:10:14:416,-0.3186,0.2201,9.7364,-0.0045,0.0001,9.8066,0.0089,0.0568,-0.0358,-0.12,-28.5,32.69,344.83,-86.27,165.69
19387,52.554695,-1.463064,0,0,6,0,23 / 24,1938719,2020-01-08 10:10:14:516,0.5021,-0.2165,9.9469,0.0078,-0.0018,9.8066,0.0167,0.0497,-0.0674,-0.56,-28.5,32.94,342.51,-86.25,165.24
19388,52.554695,-1.463064,0,0,6,0,23 / 24,1938819,2020-01-08 10:10:14:616,0.2166,0.0622,9.8381,0.0023,0.0033,9.8066,0.0012,0.0483,-0.0287,-0.19,-28.5,33.44,344.78,-86.26,165.64
19389,52.554695,-1.463064,0,0,6,0,23 / 24,1938918,2020-01-08 10:10:14:715,0.2086,0.0734,9.9443,0.0019,-0.0011,9.8066,-0.0062,0.0366,-0.0077,-0.37,-28.69,33.13,344.66,-86.27,165.56
19390,52.554695,-1.463064,0,0,6,0,23 / 24,1939019,2020-01-08 10:10:14:816,-0.4057,-0.3084,9.788,-0.0101,0.0057,9.8066,-0.0105,0.0261,-0.0193,-0.5,-27.94,32.94,344.43,-86.25,165.32
19391,52.554695,-1.463064,0,0,6,0,23 / 24,1939118,2020-01-08 10:10:14:915,-0.078,0.2535,9.9185,0.0018,0.0016,9.8066,-0.0167,0.0249,-0.0315,-0.62,-28.19,32.44,342.57,-86.27,165.37
19392,52.554695,-1.463064,0,0,6,0,23 / 24,1939219,2020-01-08 10:10:15:016,-0.1909,-0.142,9.782,-0.0021,0.0031,9.8066,-0.0235,-0.0004,-0.0086,-0.37,-28.19,32.63,344.74,-86.29,165.6
19393,52.554695,-1.463064,0,0,6,0,23 / 24,1939319,2020-01-08 10:10:15:116,-0.0523,-0.0757,9.8612,-0.0061,0.0038,9.8066,-0.0189,-0.0068,0.0243,-0.75,-28.44,33.63,343.4,-86.3,165.99
19394,52.554695,-1.463064,0,0,6,0,23 / 24,1939419,2020-01-08 10:10:15:216,-0.4479,0.1708,9.778,0.0012,0.0009,9.8066,-0.0103,-0.009,0.0304,-0.69,-28.19,33.06,342.76,-86.28,165.46
19395,52.554695,-1.463064,0,0,6,0,23 / 24,1939519,2020-01-08 10:10:15:316,0.1966,-0.0506,9.9272,0.0068,-0.0006,9.8066,-0.005,-0.0105,0.0028,-0.62,-28.5,32.88,343.64,-86.3,166.3
19396,52.554695,-1.463064,0,0,6,0,23 / 24,1939619,2020-01-08 10:10:15:416,0.0175,-0.2957,9.8471,0.0007,-0.0018,9.8066,-0.0102,-0.0179,0.004,0.0,-28.31,32.88,344.9,-86.29,165.75
19397,52.554695,-1.463064,0,0,6,0,23 / 24,1939719,2020-01-08 10:10:15:516,-0.4086,0.2657,9.7846,0.0002,-0.0019,9.8066,-0.0158,-0.0197,0.042,-0.25,-28.81,32.81,344.65,-86.3,165.54
19398,52.554695,-1.463064,0,0,6,0,23 / 24,1939818,2020-01-08 10:10:15:615,-0.2473,-0.2875,9.8417,0.0111,-0.0017,9.8066,-0.0126,-0.0072,0.035,-0.44,-28.75,32.69,344.67,-86.28,165.57
19399,52.554695,-1.463064,0,0,6,0,23 / 24,1939919,2020-01-08 10:10:15:716,0.0064,-0.3731,9.9848,-0.0022,0.0002,9.8066,-0.0132,-0.021,-0.0238,-0.56,-28.56,32.69,343.15,-86.3,165.86
19400,52.554695,-1.463064,0,0,6,0,23 / 24,1940019,2020-01-08 10:10:15:816,-0.2088,-0.2519,9.9091,0.0003,-0.0019,9.8066,-0.0103,-0.0112,-0.0081,-0.37,-28.69,33.13,344.67,-86.28,165.57
19401,52.554695,-1.463064,0,0,6,0,23 / 24,1940119,2020-01-08 10:10:15:916,-0.0277,0.4241,9.6994,0.0006,0.0032,9.8066,-0.0076,-0.0004,0.0187,-0.25,-28.69,32.88,344.72,-86.29,165.6
19402,52.554695,-1.463064,0,0,6,0,23 / 24,1940219,2020-01-08 10:10:16:016,0.0346,0.1419,9.9116,0.0024,-0.0011,9.8066,0.0019,0.0084,-0.0075,-0.31,-28.25,33.25,344.83,-86.28,165.69
19403,52.554695,-1.463064,0,0,6,0,23 / 24,1940319,2020-01-08 10:10:16:116,-0.3162,0.2796,9.7354,-0.0055,0.0031,9.8066,0.0167,0.0423,-0.0295,-0.19,-28.87,33.56,344.59,-86.27,165.46
19404,52.554695,-1.463064,0,0,6,0,23 / 24,1940418,2020-01-08 10:10:16:215,0.3768,-0.0389,9.916,-0.0029,0.0002,9.8066,0.0144,0.0491,-0.034,-0.06,-28.69,32.31,344.86,-86.28,165.77
19405,52.554695,-1.463064,0,0,6,0,23 / 24,1940519,2020-01-08 10:10:16:316,-0.2823,-0.2591,9.912,-0.007,0.004,9.8066,0.0135,0.0489,-0.019,-0.44,-28.44,32.38,344.61,-86.25,165.51
19406,52.554695,-1.463064,0,0,6,0,23 / 24,1940619,2020-01-08 10:10:16:416,-0.1408,0.4317,9.6646,0.0005,0.004,9.8066,0.0208,0.0571,-0.0077,-0.37,-28.75,33.38,345.15,-86.27,166.02
19407,52.554695,-1.463064,0,0,6,0,23 / 24,1940719,2020-01-08 10:10:16:516,0.3831,0.2177,9.8925,0.0092,-0.0029,9.8066,0.0018,0.0504,-0.0524,-0.62,-29.12,32.88,342.69,-86.26,165.44
19408,52.554695,-1.463064,0,0,6,0,23 / 24,1940819,2020-01-08 10:10:16:616,-0.3416,0.2768,9.7575,0.0089,-0.0001,9.8065,-0.0049,0.0374,-0.0571,-0.25,-28.69,32.81,344.82,-86.26,165.71
19409,52.554695,-1.463064,0,0,6,0,23 / 24,1940919,2020-01-08 10:10:16:716,0.1137,-0.0373,9.9565,0.0,-0.003,9.8066,-0.008,0.0179,0.0158,0.0,-28.44,32.5,345.44,-86.28,166.26
19410,52.554695,-1.463064,0,0,6,0,23 / 24,1941019,2020-01-08 10:10:16:816,-0.4553,0.3507,9.8173,-0.0017,0.0004,9.8066,-0.0137,0.0159,0.0225,-0.5,-28.62,33.63,345.03,-86.26,165.89
19411,52.554695,-1.463064,0,0,6,0,23 / 24,1941118,2020-01-08 10:10:16:915,-0.3514,-0.3405,9.8585,0.0121,-0.0024,9.8066,-0.0154,-0.0084,-0.032,0.13,-28.25,32.94,344.76,-86.26,165.62
19412,52.554695,-1.463064,0,0,6,0,23 / 24,1941219,2020-01-08 10:10:17:016,-0.1065,0.2322,9.7727,-0.0011,0.0011,9.8066,-0.0062,-0.004,-0.0093,-0.62,-28.25,33.06,343.34,-86.27,166.01
19413,52.554695,-1.463064,0,0,6,0,23 / 24,1941318,2020-01-08 10:10:17:115,0.3728,-0.2218,9.9383,0.003,-0.0034,9.8066,-0.0087,-0.0049,0.0302,-0.37,-28.62,32.38,344.93,-86.27,165.84
19414,52.554695,-1.463064,0,0,6,0,23 / 24,1941419,2020-01-08 10:10:17:216,-0.2644,-0.148,9.764,-0.0041,0.0027,9.8066,-0.0073,-0.0135,0.0169,-0.19,-28.5,32.88,345.01,-86.25,165.87
19415,52.554695,-1.463064,0,0,6,0,23 / 24,1941519,2020-01-08 10:10:17:316,0.2582,-0.4655,9.9279,0.0009,-0.0012,9.8066,-0.0081,-0.0007,0.0199,-0.44,-28.69,33.13,345.28,-86.26,166.14
19416,52.554695,-1.463064,0,0,6,0,23 / 24,1941619,2020-01-08 10:10:17:416,-0.0982,0.1703,9.7469,-0.0007,0.0031,9.8066,-0.0105,-0.0029,0.0113,-0.75,-28.5,32.31,343.33,-86.25,166.09
19417,52.554695,-1.463064,0,0,6,0,23 / 24,1941720,2020-01-08 10:10:17:517,0.1723,0.1295,9.8385,-0.0032,-0.0001,9.8066,-0.0299,-0.0223,-0.0029,-0.81,-29.0,32.88,343.6,-86.25,166.3
19418,52.554695,-1.463064,0,0,6,0,23 / 24,1941819,2020-01-08 10:10:17:616,-0.3861,-0.2818,9.7858,-0.0105,0.0033,9.8066,-0.0226,-0.0086,0.0271,-0.75,-28.87,33.19,343.24,-86.25,165.96
19419,52.554695,-1.463064,0,0,6,0,23 / 24,1941918,2020-01-08 10:10:17:715,0.1822,0.3727,9.7675,0.0036,0.0028,9.8066,0.0071,0.0101,0.0097,-0.56,-28.81,33.75,343.48,-86.28,166.1
19420,52.554695,-1.463064,0,0,6,0,23 / 24,1942019,2020-01-08 10:10:17:816,-0.2964,-0.2288,9.8098,0.0005,0.0013,9.8066,0.0175,0.0176,-0.0318,-1.31,-28.81,33.31,343.79,-86.27,166.48
19421,52.554695,-1.463064,0,0,6,0,23 / 24,1942119,2020-01-08 10:10:17:916,0.3077,0.3549,9.7735,-0.0098,0.0018,9.8066,0.0128,0.0277,-0.0225,-1.19,-28.12,33.25,344.03,-86.28,166.67
19422,52.554695,-1.463064,0,0,6,0,23 / 24,1942219,2020-01-08 10:10:18:016,0.0781,-0.3293,9.8866,-0.0053,0.0021,9.8066,-0.0022,0.0419,-0.0069,-1.0,-28.37,33.38,343.42,-86.28,166.09
19423,52.554695,-1.463064,0,0,6,0,23 / 24,1942319,2020-01-08 10:10:18:116,0.1623,0.4773,9.7715,-0.0018,-0.0005,9.8065,-0.0117,0.0314,-0.0318,-1.19,-28.25,33.19,343.81,-86.3,166.45
19424,52.554695,-1.463064,0,0,6,0,23 / 24,1942418,2020-01-08 10:10:18:215,0.2363,-0.5361,9.9528,0.0024,-0.0016,9.8066,-0.0158,0.0388,-0.0332,-1.25,-28.44,33.63,343.49,-86.29,166.08
19425,52.554695,-1.463064,0,0,6,0,23 / 24,1942519,2020-01-08 10:10:18:316,-0.4886,0.2126,9.8439,-0.0018,-0.0004,9.8066,0.0018,0.0591,-0.0221,-1.31,-28.5,32.94,343.53,-86.32,166.18
19426,52.554695,-1.463064,0,0,6,0,23 / 24,1942619,2020-01-08 10:10:18:416,0.3811,0.3726,9.7391,0.005,-0.0011,9.8066,-0.0019,0.054,-0.0311,-0.56,-28.12,32.81,343.94,-86.32,166.57
19427,52.554695,-1.463064,0,0,6,0,23 / 24,1942719,2020-01-08 10:10:18:516,-0.1364,0.163,9.7551,-0.0016,-0.0021,9.8066,-0.0179,0.0094,0.0016,-1.31,-27.81,32.81,343.75,-86.29,166.4
19428,52.554695,-1.463064,0,0,6,0,23 / 24,1942819,2020-01-08 10:10:18:616,0.6265,-0.1782,9.8555,0.0049,0.0,9.8066,-0.0154,-0.0268,0.0382,-1.06,-28.37,33.13,343.58,-86.31,166.23
19429,52.554695,-1.463064,0,0,6,0,23 / 24,1942919,2020-01-08 10:10:18:716,-0.4584,0.249,9.905,0.0093,-0.0013,9.8066,-0.0073,-0.0452,0.0307,-1.06,-28.25,33.25,343.43,-86.3,166.09
19430,52.554695,-1.463064,0,0,6,0,23 / 24,1943019,2020-01-08 10:10:18:816,-0.1146,-0.4622,9.8458,-0.001,0.0036,9.8066,0.0016,-0.0314,-0.0076,-1.12,-28.69,33.56,343.84,-86.3,166.44
19431,52.554695,-1.463064,0,0,6,0,23 / 24,1943119,2020-01-08 10:10:18:916,-0.2321,0.3215,9.8898,0.0015,0.0044,9.8066,0.0157,0.0007,-0.0059,-0.69,-28.62,32.94,343.28,-86.33,165.97
19432,52.554695,-1.463064,0,0,6,0,23 / 24,1943218,2020-01-08 10:10:19:015,0.129,0.2741,9.7626,-0.0037,0.0002,9.8066,0.0062,0.015,0.012,-1.5,-28.56,33.31,343.16,-86.31,165.87
19433,52.554695,-1.463064,0,0,6,0,23 / 24,1943319,2020-01-08 10:10:19:116,0.3003,-0.4142,9.8805,0.0024,0.003,9.8066,0.0002,0.0471,-0.0049,-1.06,-28.56,33.69,343.31,-86.33,165.93
19434,52.554695,-1.463064,0,0,6,0,23 / 24,1943419,2020-01-08 10:10:19:216,-0.1829,0.2258,9.7729,-0.007,0.001,9.8066,0.0112,0.0539,-0.0336,-1.31,-28.31,33.0,343.26,-86.32,165.92
19435,52.554695,-1.463064,0,0,6,0,23 / 24,1943519,2020-01-08 10:10:19:316,0.3826,-0.5267,9.916,-0.0061,0.0007,9.8066,-0.0022,0.0468,-0.0523,-0.5,-28.12,32.81,345.53,-86.33,166.34
19436,52.554695,-1.463064,0,0,6,0,23 / 24,1943618,2020-01-08 10:10:19:415,-0.2128,-0.3619,9.8241,-0.0052,0.001,9.8066,-0.0111,0.0411,-0.0143,-0.56,-28.37,33.38,343.53,-86.34,166.18
19437,52.554695,-1.463064,0,0,6,0,23 / 24,1943719,2020-01-08 10:10:19:516,0.0215,0.2937,9.7946,-0.0035,0.0044,9.8066,-0.0109,0.0327,-0.0062,-0.87,-28.19,33.38,343.6,-86.35,166.24
19438,52.554695,-1.463064,0,0,6,0,23 / 24,1943819,2020-01-08 10:10:19:616,0.3841,-0.3146,9.9422,-0.0013,-0.0011,9.8066,-0.0062,0.0225,-0.031,-0.69,-28.06,33.19,343.4,-86.35,166.06
19439,52.554695,-1.463064,0,0,6,0,23 / 24,1943919,2020-01-08 10:10:19:716,0.3296,0.0708,9.838,-0.0098,0.0003,9.8066,-0.0037,0.0375,-0.0297,-0.87,-28.37,33.13,343.83,-86.34,166.46
19440,52.554695,-1.463064,0,0,6,0,23 / 24,1944019,2020-01-08 10:10:19:816,-0.128,0.2421,9.8255,0.0018,-0.004,9.8066,-0.0102,0.0132,0.0123,-0.87,-28.81,33.5,343.48,-86.32,166.09
19441,52.554695,-1.463064,0,0,6,0,23 / 24,1944119,2020-01-08 10:10:19:916,-0.3845,-0.0902,9.7847,0.0003,-0.0017,9.8066,-0.0156,-0.0096,0.0457,-0.81,-28.37,33.13,343.6,-86.33,166.24
19442,52.554695,-1.463064,0,0,6,0,23 / 24,1944219,2020-01-08 10:10:20:016,0.5566,-0.2551,9.8651,0.0072,-0.0015,9.8066,-0.0148,-0.023,0.0179,-0.94,-28.62,33.13,343.91,-86.33,166.57
19443,52.554695,-1.463064,0,0,6,0,23 / 24,1944319,2020-01-08 10:10:20:116,-0.1044,-0.0806,9.8044,-0.0042,-0.0008,9.8066,-0.0112,-0.0391,-0.0018,-0.62,-28.69,32.75,343.49,-86.32,166.17
19444,52.554695,-1.463064,0,0,6,0,23 / 24,1944418,2020-01-08 10:10:20:215,0.4166,-0.3278,9.9068,0.0049,-0.0035,9.8066,-0.0113,-0.0439,0.0103,-0.62,-28.56,33.06,343.45,-86.33,166.14
19445,52.554695,-1.463064,0,0,6,0,23 / 24,1944519,2020-01-08 10:10:20:316,-0.155,0.1045,9.8231,0.009,-0.0008,9.8065,-0.0091,-0.0323,0.0307,-0.75,-28.31,32.94,343.18,-86.31,165.86
19446,52.554695,-1.463064,0,0,6,0,23 / 24,1944619,2020-01-08 10:10:20:416,0.3422,-0.2605,9.9196,0.0085,0.0,9.8066,0.0003,-0.0012,0.023,-0.37,-28.5,33.06,345.82,-86.33,166.61
19447,52.554695,-1.463064,0,0,6,0,23 / 24,1944718,2020-01-08 10:10:20:515,-0.1342,0.0953,9.8301,0.0023,-0.0041,9.8066,0.0022,0.0151,0.0013,-1.0,-28.44,33.38,343.44,-86.32,166.1
19448,52.554695,-1.463064,0,0,6,0,23 / 24,1944819,2020-01-08 10:10:20:616,-0.3755,-0.3934,9.7754,-0.0041,0.0051,9.8066,0.0097,0.0375,-0.045,-0.56,-28.5,33.06,343.62,-86.35,166.26
19449,52.554695,-1.463064,0,0,6,0,23 / 24,1944919,2020-01-08 10:10:20:716,-0.665,0.499,9.8476,0.0051,0.0026,9.8066,-0.0078,0.0543,-0.0562,-1.06,-28.5,33.38,343.04,-86.33,165.71
19450,52.554695,-1.463064,0,0,6,0,23 / 24,1945019,2020-01-08 10:10:20:816,0.1369,-0.1843,9.8189,-0.0026,-0.0045,9.8066,-0.0173,0.0601,-0.0371,-0.75,-28.75,33.25,343.05,-86.34,165.75
19451,52.554695,-1.463064,0,0,6,0,23 / 24,1945119,2020-01-08 10:10:20:916,0.3481,0.2856,9.8874,0.0012,0.0037,9.8066,-0.0073,0.0656,-0.0098,-0.87,-28.31,33.06,343.57,-86.31,166.23
19452,52.554695,-1.463064,0,0,6,0,23 / 24,1945218,2020-01-08 10:10:21:015,-0.1174,-0.1703,9.7892,-0.0095,0.0027,9.8066,-0.0084,0.0331,0.0006,-0.31,-28.12,33.25,344.94,-86.33,165.78
19453,52.554695,-1.463064,0,0,6,0,23 / 24,1945319,2020-01-08 10:10:21:116,0.2577,0.3616,9.874,-0.0056,-0.0012,9.8066,0.0036,-0.0025,-0.0177,-0.31,-28.81,33.13,345.16,-86.36,166.01
19454,52.554695,-1.463064,0,0,6,0,23 / 24,1945419,2020-01-08 10:10:21:216,-0.102,-0.0432,9.8613,-0.0008,0.0039,9.8066,-0.001,-0.0097,-0.0009,-1.0,-28.56,32.69,342.94,-86.35,165.65
19455,52.554695,-1.463064,0,0,6,0,23 / 24,1945519,2020-01-08 10:10:21:316,-0.2529,0.2488,9.8324,-0.0046,-0.0021,9.8066,-0.0024,-0.0325,0.0186,-1.12,-28.62,33.69,342.63,-86.37,165.27
19456,52.554695,-1.463064,0,0,6,0,23 / 24,1945619,2020-01-08 10:10:21:416,0.2449,0.331,9.8043,0.0022,-0.0014,9.8066,-0.0044,-0.0264,0.0235,-0.87,-28.44,33.13,343.33,-86.39,165.97
19457,52.554695,-1.463064,0,0,6,0,23 / 24,1945719,2020-01-08 10:10:21:516,0.1879,-0.5356,9.9359,-0.0037,0.0019,9.8066,-0.0096,-0.0168,0.0211,-0.81,-28.69,32.81,343.59,-86.37,166.26
19458,52.554695,-1.463064,0,0,6,0,23 / 24,1945819,2020-01-08 10:10:21:616,0.2527,0.084,9.8156,0.0027,-0.0015,9.8066,-0.0127,-0.0037,0.0007,-1.06,-28.25,32.94,343.19,-86.36,165.85
19459,52.554695,-1.463064,0,0,6,0,23 / 24,1945919,2020-01-08 10:10:21:716,-0.4077,0.3379,9.8365,0.0027,0.0019,9.8066,-0.0079,0.0077,-0.0241,-0.81,-28.5,33.69,343.17,-86.36,165.75
19460,52.554695,-1.463064,0,0,6,0,23 / 24,1946019,2020-01-08 10:10:21:816,0.3335,-0.4508,9.895,0.0061,0.0009,9.8066,0.0033,0.0635,-0.0195,-0.56,-28.19,33.44,343.46,-86.36,166.11
19461,52.554695,-1.463064,0,0,6,0,23 / 24,1946118,2020-01-08 10:10:21:915,0.0134,0.4531,9.7789,0.0044,0.0007,9.8066,-0.0045,0.06,-0.0194,-0.81,-28.37,33.13,342.87,-86.38,165.54
19462,52.554695,-1.463064,0,0,6,0,23 / 24,1946219,2020-01-08 10:10:22:016,0.1336,-0.3171,9.8602,0.0005,0.0012,9.8066,-0.0225,0.0191,-0.0053,-0.81,-29.44,32.81,342.96,-86.38,165.66
19463,52.554695,-1.463064,0,0,6,0,23 / 24,1946318,2020-01-08 10:10:22:115,0.1952,0.3035,9.7918,-0.0013,-0.0015,9.8066,-0.0183,0.0095,0.0079,-0.87,-28.81,33.25,343.04,-86.36,165.74
19464,52.554695,-1.463064,0,0,6,0,23 / 24,1946419,2020-01-08 10:10:22:216,-0.2508,-0.4028,9.9884,-0.0037,-0.0038,9.8066,0.0182,0.0153,-0.0116,-0.56,-28.5,32.56,342.79,-86.38,165.46
19465,52.554695,-1.463064,0,0,6,0,23 / 24,1946519,2020-01-08 10:10:22:316,0.0369,-0.2012,9.7333,0.0031,-0.0015,9.8066,0.0277,0.0243,-0.0148,-0.5,-28.81,32.31,344.83,-86.36,165.72
19466,52.554695,-1.463064,0,0,6,0,23 / 24,1946619,2020-01-08 10:10:22:416,-0.0439,-0.0857,9.8573,0.001,-0.0044,9.8066,0.0033,-0.0074,0.0014,-1.19,-27.94,32.38,343.28,-86.35,166.02
19467,52.554695,-1.463064,0,0,6,0,23 / 24,1946719,2020-01-08 10:10:22:516,-0.1256,-0.2727,9.9688,-0.0006,-0.0028,9.8066,-0.0065,-0.0132,-0.0046,-1.0,-28.5,33.19,343.35,-86.35,166.0
19468,52.554695,-1.463064,0,0,6,0,23 / 24,1946818,2020-01-08 10:10:22:615,-0.0354,0.245,9.7373,0.0029,0.0066,9.8066,-0.0187,0.0149,-0.0117,-0.69,-28.44,32.75,343.45,-86.33,166.11
19469,52.554695,-1.463064,0,0,6,0,23 / 24,1946918,2020-01-08 10:10:22:715,-0.0248,-0.0273,9.8661,-0.0034,0.0004,9.8066,-0.0134,0.0191,0.0252,-0.75,-27.94,33.19,343.34,-86.36,166.0
19470,52.554695,-1.463064,0,0,6,0,23 / 24,1947019,2020-01-08 10:10:22:816,-0.109,0.0947,9.8274,-0.003,-0.0007,9.8066,-0.0188,0.0031,-0.0041,-0.87,-28.37,33.31,343.07,-86.36,165.73
19471,52.554695,-1.463064,0,0,6,0,23 / 24,1947118,2020-01-08 10:10:22:915,0.1388,-0.0266,9.8104,0.0055,0.0006,9.8066,0.0033,0.0119,-0.017,-0.44,-28.19,33.0,345.51,-86.34,166.31
19472,52.554695,-1.463064,0,0,6,0,23 / 24,1947219,2020-01-08 10:10:23:016,-0.1251,0.4121,9.9046,0.0017,-0.0067,9.8066,0.0215,0.0141,-0.0101,-0.75,-28.31,33.56,343.37,-86.32,165.95
19473,52.554695,-1.463064,0,0,6,0,23 / 24,1947318,2020-01-08 10:10:23:115,0.0793,-0.3276,9.8101,-0.0038,0.0054,9.8066,-0.006,-0.0164,-0.0035,-0.75,-28.81,33.0,343.36,-86.37,166.04
19474,52.554695,-1.463064,0,0,6,0,23 / 24,1947418,2020-01-08 10:10:23:215,0.0282,0.3722,9.7843,-0.0002,-0.0007,9.8066,-0.0124,-0.0194,-0.0022,-0.69,-28.94,32.63,343.24,-86.36,165.93
19475,52.554695,-1.463064,0,0,6,0,23 / 24,1947519,2020-01-08 10:10:23:316,0.2414,-0.2126,9.8522,-0.0036,-0.0014,9.8066,-0.0209,0.0168,0.0192,-1.19,-28.56,33.0,343.14,-86.35,165.83
19476,52.554695,-1.463064,0,0,6,0,23 / 24,1947618,2020-01-08 10:10:23:415,-0.1237,0.4947,9.6787,-0.0039,0.0073,9.8066,-0.0126,0.0272,0.0151,-0.94,-28.81,32.94,342.91,-86.33,165.63
19477,52.554695,-1.463064,0,0,6,0,23 / 24,1947719,2020-01-08 10:10:23:516,0.0396,-0.1865,9.8663,0.0046,0.0009,9.8066,-0.0087,0.0064,-0.0149,-0.62,-27.87,33.25,342.91,-86.37,165.59
19478,52.554695,-1.463064,0,0,6,0,23 / 24,1947818,2020-01-08 10:10:23:615,0.1009,-0.152,9.8567,0.0029,-0.0007,9.8066,-0.0159,-0.0057,-0.0183,-0.69,-28.44,33.06,342.97,-86.35,165.64
19479,52.554695,-1.463064,0,0,6,0,23 / 24,1947919,2020-01-08 10:10:23:716,0.1084,0.1742,9.8112,-0.0003,0.0033,9.8066,0.0056,-0.0065,0.0042,-0.37,-28.19,33.63,344.82,-86.35,165.64
19480,52.554695,-1.463064,0,0,6,0,23 / 24,1948019,2020-01-08 10:10:23:816,-0.2258,-0.0367,9.8932,-0.0046,-0.0019,9.8066,0.0022,-0.0037,0.018,-0.69,-29.06,32.75,342.71,-86.36,165.42
19481,52.554695,-1.463064,0,0,6,0,23 / 24,1948118,2020-01-08 10:10:23:915,0.0673,0.2937,9.7776,-0.0011,0.0012,9.8066,0.0006,-0.0016,0.0082,-0.87,-28.94,33.13,343.01,-86.35,165.72
19482,52.554695,-1.463064,0,0,6,0,23 / 24,1948218,2020-01-08 10:10:24:015,-0.0373,-0.4251,9.9808,-0.0014,0.0001,9.8066,-0.0107,-0.0049,0.0054,-0.75,-28.75,33.63,343.13,-86.34,165.75
19483,52.554695,-1.463064,0,0,6,0,23 / 24,1948318,2020-01-08 10:10:24:115,-0.188,0.1253,9.8489,0.0007,-0.002,9.8066,-0.0058,0.0228,-0.0208,-0.87,-29.06,32.94,342.91,-86.37,165.62
19484,52.554695,-1.463064,0,0,6,0,23 / 24,1948419,2020-01-08 10:10:24:216,-0.1055,-0.5736,9.9161,0.0044,0.0008,9.8066,-0.0079,0.0367,-0.0417,-0.94,-28.75,33.25,343.3,-86.38,165.98
19485,52.554695,-1.463064,0,0,6,0,23 / 24,1948519,2020-01-08 10:10:24:316,-0.0409,0.0522,9.8786,-0.004,-0.0019,9.8066,-0.0052,0.0441,-0.0172,-0.5,-28.87,33.5,345.03,-86.37,165.86
19486,52.554695,-1.463064,0,0,6,0,23 / 24,1948619,2020-01-08 10:10:24:416,-0.0331,0.5336,9.6908,-0.0028,0.0052,9.8066,-0.0087,0.0256,0.0045,-0.44,-28.31,31.94,344.56,-86.41,165.42
19487,52.554695,-1.463064,0,0,6,0,23 / 24,1948719,2020-01-08 10:10:24:516,-0.1599,0.0944,9.9287,0.0056,-0.0013,9.8066,-0.0128,-0.0183,0.0168,-0.81,-28.44,32.5,342.38,-86.37,165.08
19488,52.554695,-1.463064,0,0,6,0,23 / 24,1948819,2020-01-08 10:10:24:616,-0.1118,-0.1999,9.9318,0.0043,0.0005,9.8066,-0.0082,-0.0204,0.0154,-0.75,-28.81,33.25,342.72,-86.38,165.43
19489,52.554695,-1.463064,0,0,6,0,23 / 24,1948919,2020-01-08 10:10:24:716,-0.0278,-0.2406,9.9373,0.0023,0.0056,9.8066,0.0136,-0.0028,-0.017,-0.5,-28.75,32.63,344.19,-86.42,165.08
19490,52.554695,-1.463064,0,0,6,0,23 / 24,1949019,2020-01-08 10:10:24:816,-0.3496,-0.2361,9.9401,-0.0063,-0.003,9.8066,0.0106,0.0029,-0.0229,-0.44,-28.75,33.56,344.03,-86.4,164.9
19491,52.554695,-1.463064,0,0,6,0,23 / 24,1949119,2020-01-08 10:10:24:916,0.352,-0.0325,9.7719,-0.0012,0.0024,9.8066,-0.0029,0.0177,0.0219,-0.19,-28.69,33.0,344.12,-86.4,165.01
19492,52.554695,-1.463064,0,0,6,0,23 / 24,1949219,2020-01-08 10:10:25:016,-0.0557,-0.3549,9.8972,0.0008,0.0004,9.8066,-0.0032,0.0205,0.0175,-0.94,-28.87,33.25,342.29,-86.4,165.02
19493,52.554695,-1.463064,0,0,6,0,23 / 24,1949319,2020-01-08 10:10:25:116,0.267,0.234,9.7945,-0.0038,-0.0047,9.8066,-0.0135,0.0308,-0.0361,-1.0,-28.75,32.94,342.78,-86.38,165.49
19494,52.554695,-1.463064,0,0,6,0,23 / 24,1949419,2020-01-08 10:10:25:216,-0.0641,-0.2312,9.9123,-0.0006,-0.0025,9.8066,-0.0071,0.0356,-0.0443,-0.69,-28.44,32.81,342.36,-86.4,165.05
19495,52.554695,-1.463064,0,0,6,0,23 / 24,1949519,2020-01-08 10:10:25:316,-0.2319,0.0043,9.8317,-0.0053,0.0004,9.8066,-0.0015,0.0541,-0.0257,-0.56,-28.25,33.44,342.53,-86.38,165.22
19496,52.554695,-1.463064,0,0,6,0,23 / 24,1949619,2020-01-08 10:10:25:416,0.0224,-0.4181,9.9653,0.0004,-0.0024,9.8066,-0.0025,0.0273,-0.0131,-1.31,-28.62,32.88,342.37,-86.36,165.1
19497,52.554695,-1.463064,0,0,6,0,23 / 24,1949719,2020-01-08 10:10:25:516,-0.409,0.2349,9.839,0.0034,-0.0007,9.8066,-0.0149,-0.0153,0.0246,-0.94,-28.87,32.75,342.2,-86.37,164.95
19498,52.554695,-1.463064,0,0,6,0,23 / 24,1949819,2020-01-08 10:10:25:616,0.2527,-0.1851,9.8424,0.0087,0.0006,9.8066,-0.0165,-0.0358,0.0272,-1.19,-28.69,32.88,342.8,-86.37,165.51
19499,52.554695,-1.463064,0,0,6,0,23 / 24,1949918,2020-01-08 10:10:25:715,-0.2441,0.3804,9.851,0.0002,-0.0005,9.8066,0.0123,-0.0208,0.0073,-0.62,-28.62,32.94,342.54,-86.36,165.27
19500,52.554695,-1.463064,0,0,6,0,23 / 24,1950019,2020-01-08 10:10:25:816,0.0134,-0.1427,9.8922,-0.0018,0.003,9.8066,0.0055,-0.0056,-0.0105,-1.37,-28.56,33.0,342.48,-86.34,165.21
19501,52.554695,-1.463064,0,0,6,0,23 / 24,1950119,2020-01-08 10:10:25:916,0.3663,0.1231,9.8498,0.0054,0.0006,9.8066,-0.0007,0.0006,0.0088,-0.94,-28.25,33.19,342.15,-86.36,164.86
19502,52.554695,-1.463064,0,0,6,0,23 / 24,1950219,2020-01-08 10:10:26:016,-0.3628,0.3734,9.816,0.0005,-0.0028,9.8066,-0.0161,-0.0082,0.0091,-0.44,-28.87,32.56,344.34,-86.36,165.24
19503,52.554695,-1.463064,0,0,6,0,23 / 24,1950319,2020-01-08 10:10:26:116,0.0375,-0.5555,9.9459,0.0018,0.0022,9.8066,-0.0166,0.0112,-0.003,-0.37,-27.75,33.25,344.59,-86.36,165.44
19504,52.554695,-1.463064,0,0,6,0,23 / 24,1950418,2020-01-08 10:10:26:215,-0.3354,0.188,9.8155,-0.0044,-0.0018,9.8066,0.009,0.065,-0.0273,-0.69,-28.81,33.31,342.6,-86.36,165.33
19505,52.554695,-1.463064,0,0,6,0,23 / 24,1950519,2020-01-08 10:10:26:316,0.1413,-0.5005,9.9009,-0.0054,0.0009,9.8066,0.0098,0.0827,-0.0383,-0.94,-29.31,32.94,342.57,-86.35,165.29
19506,52.554695,-1.463064,0,0,6,0,23 / 24,1950618,2020-01-08 10:10:26:415,-0.3171,-0.1623,9.8933,-0.0095,0.0004,9.8066,-0.0156,0.031,-0.0381,-0.75,-28.31,32.44,342.53,-86.34,165.31
19507,52.554695,-1.463064,0,0,6,0,23 / 24,1950718,2020-01-08 10:10:26:515,0.0872,-0.1806,9.8799,0.0022,-0.0023,9.8066,-0.0211,0.0005,-0.0088,-0.37,-28.69,33.19,344.73,-86.35,165.61
19508,52.554695,-1.463064,0,0,6,0,23 / 24,1950819,2020-01-08 10:10:26:616,-0.0638,-0.5385,9.9195,0.0071,0.0004,9.8066,-0.0131,-0.0182,0.0364,-0.94,-28.5,33.13,343.46,-86.37,166.11
19509,52.554695,-1.463064,0,0,6,0,23 / 24,1950920,2020-01-08 10:10:26:717,0.2331,-0.0388,9.799,-0.0077,-0.0027,9.8066,0.0018,-0.0054,0.0254,-1.06,-28.69,32.63,343.73,-86.34,166.39
19510,52.554695,-1.463064,0,0,6,0,23 / 24,1951019,2020-01-08 10:10:26:816,-0.0589,0.4523,9.8109,0.0,0.0006,9.8066,0.0186,-0.0141,-0.011,-0.31,-28.81,33.44,345.0,-86.34,165.86
19511,52.554695,-1.463064,0,0,6,0,23 / 24,1951118,2020-01-08 10:10:26:915,-0.2719,0.1969,9.8338,0.0027,0.0013,9.8066,0.0093,-0.0065,-0.007,-0.94,-28.0,33.56,342.99,-86.33,165.59
19512,52.554695,-1.463064,0,0,6,0,23 / 24,1951219,2020-01-08 10:10:27:016,0.2901,0.1875,9.7505,0.0029,0.0,9.8066,-0.0225,-0.0095,-0.0077,-1.0,-28.5,32.94,343.09,-86.32,165.76
19513,52.554695,-1.463064,0,0,6,0,23 / 24,1951318,2020-01-08 10:10:27:115,-0.1031,-0.2897,9.9172,0.0035,0.0045,9.8066,-0.0304,0.0066,0.0021,-0.25,-28.06,32.94,345.0,-86.35,165.83
19514,52.554695,-1.463064,0,0,6,0,23 / 24,1951419,2020-01-08 10:10:27:216,-0.1252,0.27,9.8451,0.0002,-0.0006,9.8066,-0.0158,0.0367,-0.0054,-0.62,-28.25,33.63,343.5,-86.33,166.07
19515,52.554695,-1.463064,0,0,6,0,23 / 24,1951519,2020-01-08 10:10:27:316,0.1055,-0.2438,9.8718,-0.0019,-0.0003,9.8065,-0.0073,0.0351,-0.0253,-0.94,-28.87,33.81,343.36,-86.33,165.97
19516,52.554695,-1.463064,0,0,6,0,23 / 24,1951619,2020-01-08 10:10:27:416,-0.2154,0.2007,9.9172,0.0063,0.0042,9.8066,0.0035,0.0348,-0.026,-1.25,-28.87,33.38,342.86,-86.34,165.58
19517,52.554695,-1.463064,0,0,6,0,23 / 24,1951719,2020-01-08 10:10:27:516,-0.1312,0.0676,9.8192,0.0008,-0.0018,9.8066,-0.0012,0.0185,0.007,-0.69,-29.12,33.31,343.33,-86.32,166.02
19518,52.554695,-1.463064,0,0,6,0,23 / 24,1951818,2020-01-08 10:10:27:615,-0.4241,0.0772,9.9146,0.0004,-0.0016,9.8066,-0.0049,-0.0088,0.0322,-0.62,-28.31,33.44,343.39,-86.33,166.05
