,GPS LATITUDE (degrees), GPS LONGITUDE (degrees), GPS ALTITUDE (m), GPS SPEED (Kmh), GPS ACCURACY (m), GPS ORIENTATION (Â°),GPS SATELLITES IN RANGE, TIME SINCE START (ms), DATE (YYYY-MO-DD HH-MI-SS_SSS), ACCELEROMETER X (m/s²) , ACCELEROMETER Y (m/s²), ACCELEROMETER Z (m/s²), GRAVITY X (m/s²), GRAVITY Y (m/s²), GRAVITY Z (m/s²), GYROSCOPE Yaw (rad/s), GYROSCOPE Pitch (rad/s), GYROSCOPE Roll (rad/s), MAGNETIC FIELD X (Î¼T), MAGNETIC FIELD Y (Î¼T), MAGNETIC FIELD Z (Î¼T), ORIENTATION (Yaw) (Â°), ORIENTATION (Pitch) (Â°), ORIENTATION (Roll ) (Â°)
15481,53.121338,-1.883695,311.03,12.33,4,82.62,20 / 21,1547494,2019-11-06 13:53:08:287,1.1195,0.4802,9.4948,0.0077,-0.0013,9.8066,0.0013,0.1708,-0.1148,-26.25,-36.06,14.25,264.81,-85.17,152.38
15482,53.121338,-1.883695,311.03,12.33,4,82.62,20 / 21,1547593,2019-11-06 13:53:08:386,0.2257,-1.3519,9.3419,-0.0071,-0.027,9.8066,-0.0079,0.0563,-0.051,-25.37,-36.62,15.75,269.79,-85.14,153.25
15483,53.121338,-1.883695,311.03,12.33,4,82.62,20 / 21,1547693,2019-11-06 13:53:08:486,1.6247,-0.638,10.3537,-0.03,-0.0218,9.8065,-0.0148,-0.1527,0.0542,-25.19,-34.94,21.69,280.65,-85.21,154.3
15484,53.121338,-1.883695,311.03,12.33,4,82.62,20 / 21,1547793,2019-11-06 13:53:08:586,-1.7674,-0.2331,10.0907,-0.0212,-0.0096,9.8066,0.044,0.0151,-0.0088,-37.56,-39.37,41.44,290.23,-85.21,156.26
15485,53.121338,-1.883695,311.03,12.33,4,82.62,20 / 21,1547893,2019-11-06 13:53:08:686,0.1993,-1.0353,10.1413,0.0209,-0.0448,9.8065,0.0313,0.1044,-0.0472,-32.94,-37.62,13.25,266.61,-85.18,160.27
15486,53.121338,-1.883695,311.03,12.33,4,82.62,20 / 21,1547993,2019-11-06 13:53:08:786,-0.1778,0.0392,9.3341,0.0178,-0.0156,9.8066,0.0276,0.0599,0.0198,-29.0,-37.31,12.75,271.74,-84.95,163.5
15487,53.121338,-1.883695,311.03,12.33,4,82.62,20 / 21,1548093,2019-11-06 13:53:08:886,-0.1115,-1.7023,8.938,-0.0098,-0.0054,9.8066,0.0335,-0.0612,-0.0286,-28.69,-36.62,12.88,273.32,-84.88,165.17
15488,53.121338,-1.883695,311.03,12.33,4,82.62,20 / 21,1548194,2019-11-06 13:53:08:987,1.1187,-1.2028,9.7609,-0.0222,-0.0025,9.8066,-0.0507,-0.0715,-0.0328,-28.94,-37.31,12.25,271.03,-85.01,164.46
15489,53.121338,-1.883695,311.03,12.33,4,82.62,20 / 21,1548293,2019-11-06 13:53:09:086,1.621,0.2524,9.6573,-0.0096,0.0139,9.8066,-0.0744,0.1891,0.0018,-32.44,-38.12,13.13,270.55,-85.25,163.68
15490,53.121338,-1.883695,311.03,12.33,4,82.62,20 / 21,1548393,2019-11-06 13:53:09:186,-1.9781,0.8892,9.6886,0.0207,-0.0118,9.8065,0.0042,0.0212,-0.0865,-43.75,-40.31,35.69,289.17,-85.34,163.05
15491,53.121338,-1.883695,311.03,12.33,4,82.62,20 / 21,1548493,2019-11-06 13:53:09:286,1.5283,0.8548,10.5476,-0.0014,-0.0166,9.8066,0.0125,0.2535,-0.0867,-26.44,-34.75,22.44,286.85,-85.04,161.57
15492,53.121338,-1.883695,311.03,12.33,4,82.62,20 / 21,1548593,2019-11-06 13:53:09:386,-0.9814,-1.1076,9.9864,0.0225,0.02,9.8065,0.095,-0.163,0.0857,-25.75,-35.44,16.81,277.47,-84.77,160.2
15493,53.121338,-1.883695,311.03,12.33,4,82.62,20 / 21,1548693,2019-11-06 13:53:09:486,-0.2349,-1.1768,9.466,-0.0054,-0.0163,9.8066,-0.0495,-0.107,0.0014,-26.06,-36.19,14.5,274.29,-84.66,160.74
15494,53.121338,-1.883695,311.03,12.33,4,82.62,20 / 21,1548794,2019-11-06 13:53:09:587,-0.4322,-0.9972,10.7933,-0.0011,0.018,9.8066,0.0479,-0.1874,0.1812,-26.37,-36.81,14.19,272.27,-84.68,160.68
15495,53.121338,-1.883695,311.03,12.33,4,82.62,20 / 21,1548893,2019-11-06 13:53:09:686,-0.767,0.2973,9.3092,0.0052,-0.014,9.8065,-0.0157,0.041,-0.0561,-26.25,-36.5,14.13,275.66,-84.72,163.82
15496,53.121338,-1.883695,311.03,12.33,4,82.62,20 / 21,1548993,2019-11-06 13:53:09:786,1.8349,-1.167,10.043,0.0036,-0.0079,9.8066,-0.0785,0.0833,0.0108,-26.12,-36.0,16.56,280.95,-84.58,164.01
15497,53.121338,-1.883695,311.03,12.33,4,82.62,20 / 21,1549093,2019-11-06 13:53:09:886,1.648,0.9108,10.4997,-0.031,-0.0181,9.8065,-0.0045,0.3107,-0.2084,-24.94,-34.69,30.19,301.73,-84.78,165.63
15498,53.121338,-1.883695,311.03,12.33,4,82.62,20 / 21,1549194,2019-11-06 13:53:09:987,-0.1344,-1.3658,9.2875,-0.0036,-0.0172,9.8066,-0.0232,-0.1141,-0.0437,-44.87,-41.25,31.44,285.68,-84.77,164.96
15499,53.121338,-1.883695,311.03,12.33,4,82.62,20 / 21,1549293,2019-11-06 13:53:10:086,1.5205,3.9946,10.7789,-0.0078,-0.0186,9.8066,0.1563,-0.5769,0.2478,-31.5,-38.0,12.06,271.18,-84.74,166.05
15500,53.121338,-1.883695,311.03,12.33,4,82.62,20 / 21,1549393,2019-11-06 13:53:10:186,-4.2583,-4.8807,10.3688,0.0549,0.0466,9.8063,-0.204,-0.7735,0.4609,-28.81,-37.12,12.5,274.06,-84.69,166.13
15501,53.121338,-1.883695,311.03,12.33,4,82.62,20 / 21,1549493,2019-11-06 13:53:10:286,1.2468,-4.5396,12.1875,0.0373,-0.0054,9.8065,-0.0299,0.31,-0.0959,-28.5,-37.0,12.19,275.82,-84.87,168.88
15502,53.121338,-1.883695,311.03,12.33,4,82.62,20 / 21,1549593,2019-11-06 13:53:10:386,-0.63,-2.5356,11.3173,0.0177,0.043,9.8065,0.1447,-0.2687,0.1399,-28.75,-37.44,11.94,276.43,-84.5,170.46
15503,53.121338,-1.883695,311.03,12.33,4,82.62,20 / 21,1549693,2019-11-06 13:53:10:486,-0.5947,-2.9623,10.1163,-0.0087,0.0779,9.8063,-0.0067,-0.5751,0.3092,-38.19,-39.37,14.69,273.24,-84.28,167.2
15504,53.121338,-1.883695,311.03,12.33,4,82.62,20 / 21,1549793,2019-11-06 13:53:10:586,2.8595,4.2048,10.1394,-0.0062,-0.005,9.8066,-0.0763,0.3781,-0.1333,-36.75,-38.31,41.69,305.0,-84.49,169.57
15505,53.121338,-1.883695,311.03,12.33,4,82.62,20 / 21,1549893,2019-11-06 13:53:10:686,-0.8626,-0.4284,9.6934,0.0212,0.0222,9.8066,0.0546,0.3136,-0.1172,-26.12,-34.5,20.88,293.65,-84.6,169.87
15506,53.121338,-1.883695,311.03,12.33,4,82.62,20 / 21,1549994,2019-11-06 13:53:10:787,1.9516,1.461,10.0892,0.0073,-0.0342,9.8065,0.0579,0.16,0.0005,-26.94,-35.81,15.0,288.55,-84.42,175.78
15507,53.121338,-1.883695,311.03,12.33,4,82.62,20 / 21,1550093,2019-11-06 13:53:10:886,-0.442,-0.922,10.5084,0.0061,-0.026,9.8066,0.0345,0.4128,-0.0616,-27.25,-35.81,14.0,289.35,-84.17,178.58
15508,53.121338,-1.883695,311.03,12.33,4,82.62,20 / 21,1550194,2019-11-06 13:53:10:987,0.148,2.8937,10.1139,0.0097,-0.0506,9.8064,-0.023,0.4177,-0.1945,-27.25,-35.44,12.75,288.24,-83.94,179.38
15509,53.121338,-1.883695,311.03,12.33,4,82.62,20 / 21,1550293,2019-11-06 13:53:11:086,-3.3261,0.914,8.2644,-0.0556,0.0188,9.8064,0.0011,0.2962,-0.0908,-26.37,-35.06,14.0,293.58,-84.06,-178.12
15510,53.121338,-1.883695,311.03,12.33,4,82.62,20 / 21,1550394,2019-11-06 13:53:11:187,-2.0697,-1.6538,9.2684,-0.016,-0.0464,9.8064,-0.1105,0.3266,-0.2012,-26.37,-34.69,16.81,301.47,-84.23,-176.02
15511,53.121338,-1.883695,311.03,12.33,4,82.62,20 / 21,1550493,2019-11-06 13:53:11:286,-0.7519,1.2898,9.258,-0.0096,-0.011,9.8066,0.0895,-0.3844,0.2294,-27.06,-34.56,30.19,317.44,-84.27,-177.07
15512,53.121338,-1.883695,311.03,12.33,4,82.62,20 / 21,1550593,2019-11-06 13:53:11:386,1.7506,-2.5641,10.674,0.0025,-0.0019,9.8066,0.1228,0.0304,-0.0202,-40.06,-38.69,15.94,289.58,-83.87,-176.87
15513,53.121338,-1.883695,311.03,12.33,4,82.62,20 / 21,1550694,2019-11-06 13:53:11:487,2.2961,-0.0727,11.5296,0.0298,-0.0305,9.8065,-0.07,-0.079,-0.1664,-30.5,-37.0,10.94,284.92,-83.45,-177.75
15514,53.121338,-1.883695,311.03,12.33,4,82.62,20 / 21,1550794,2019-11-06 13:53:11:587,0.3808,-0.5606,10.3863,-0.0045,0.0196,9.8066,0.032,0.1047,0.1176,-29.12,-37.31,11.44,285.04,-83.39,-177.97
15515,53.121338,-1.883695,311.03,12.33,4,82.62,20 / 21,1550893,2019-11-06 13:53:11:686,-0.5487,2.8036,10.2468,-0.0238,-0.0411,9.8065,-0.0089,-0.6233,0.1339,-29.12,-37.56,10.81,286.32,-83.59,-176.77
15516,53.121338,-1.883695,311.03,12.33,4,82.62,20 / 21,1550993,2019-11-06 13:53:11:786,-2.0749,-7.3819,10.9992,-0.0012,0.0638,9.8064,0.1709,-0.6809,0.4632,-30.37,-36.87,10.94,283.64,-83.75,-179.35
15517,53.121338,-1.883695,311.03,12.33,4,82.62,20 / 20,1551093,2019-11-06 13:53:11:886,0.7128,-1.4468,9.7063,0.0244,-0.0137,9.8066,-0.1543,-0.2118,0.0013,-39.5,-39.25,15.38,286.42,-83.53,-178.69
15518,53.121338,-1.883695,311.03,12.33,4,82.62,20 / 20,1551193,2019-11-06 13:53:11:986,3.8165,7.7565,7.2502,0.0408,0.1051,9.806,0.1477,-0.7941,0.372,-26.37,-34.5,31.94,311.92,-83.87,174.95
15519,53.121338,-1.883695,311.03,12.33,4,82.62,20 / 20,1551293,2019-11-06 13:53:12:086,0.9928,0.1378,9.2103,0.0015,0.0703,9.8063,0.1793,-0.4977,0.1095,-26.31,-35.44,16.5,290.9,-83.65,174.57
15520,53.121338,-1.883695,311.03,12.33,4,82.62,20 / 20,1551393,2019-11-06 13:53:12:186,1.6327,5.1026,9.547,0.0018,0.0199,9.8066,-0.0387,-0.2989,0.1254,-25.81,-36.62,13.13,281.99,-83.36,173.83
15521,53.121338,-1.883695,311.03,12.33,4,82.62,20 / 20,1551493,2019-11-06 13:53:12:286,-0.9202,-1.0849,8.3517,-0.0099,0.0539,9.8064,-0.0972,-0.3685,0.4098,-26.5,-36.44,11.19,278.85,-83.69,173.98
15522,53.121338,-1.883695,311.03,12.33,4,82.62,20 / 20,1551593,2019-11-06 13:53:12:386,-0.1033,3.2116,9.5808,-0.0057,-0.0541,9.8064,-0.0805,0.1858,-0.0337,-26.75,-36.44,11.31,287.68,-83.91,-177.19
15523,53.121338,-1.883695,311.03,12.33,4,82.62,20 / 20,1551693,2019-11-06 13:53:12:486,1.2396,0.3451,12.2396,0.0053,-0.0387,9.8065,0.2077,0.1547,0.0106,-26.37,-35.62,13.0,295.89,-83.7,-173.48
15524,53.121338,-1.883695,311.03,12.33,4,82.62,20 / 20,1551793,2019-11-06 13:53:12:586,1.7347,1.782,10.2775,0.0073,-0.0535,9.8064,0.0062,0.3092,-0.1991,-26.94,-34.75,17.19,303.16,-83.28,-172.66
15525,53.121338,-1.883695,311.03,12.33,4,82.62,20 / 20,1551893,2019-11-06 13:53:12:686,3.789,1.7657,9.4057,-0.0142,-0.0259,9.8066,0.0088,0.7097,-0.1919,-40.81,-39.56,38.06,317.47,-83.06,-171.79
15526,53.121338,-1.883695,311.03,12.33,4,82.62,20 / 20,1551993,2019-11-06 13:53:12:786,-1.1835,-3.9046,10.2179,-0.0205,-0.0068,9.8066,-0.0226,0.1366,-0.0912,-35.94,-37.56,11.56,290.07,-83.14,-171.74
15527,53.121338,-1.883695,311.03,12.33,4,82.62,19 / 20,1552093,2019-11-06 13:53:12:886,0.2229,0.9106,10.7029,-0.0018,-0.0356,9.8066,-0.0237,0.4493,-0.19,-29.87,-37.62,9.13,285.72,-83.31,-173.0
15528,53.121338,-1.883695,311.03,12.33,4,82.62,19 / 20,1552194,2019-11-06 13:53:12:987,0.2078,-0.5101,10.1163,-0.0095,0.0299,9.8065,0.169,-0.1214,0.0638,-28.69,-37.06,9.63,285.73,-83.47,-175.57
15529,53.121338,-1.883695,311.03,12.33,4,82.62,19 / 20,1552294,2019-11-06 13:53:13:087,0.7622,1.5366,9.1506,0.0109,-0.0256,9.8066,-0.022,0.1689,-0.0103,-29.44,-37.69,8.81,283.53,-83.18,-175.26
15530,53.121338,-1.883695,311.03,12.33,4,82.62,19 / 20,1552393,2019-11-06 13:53:13:186,1.7946,0.3957,10.7185,0.0207,-0.0132,9.8066,-0.1802,-0.0573,0.2437,-31.81,-37.75,9.81,286.25,-83.32,-173.68
15531,53.121338,-1.883695,311.03,12.33,4,82.62,19 / 20,1552493,2019-11-06 13:53:13:286,1.2108,4.2783,10.7543,-0.0357,-0.064,9.8063,0.0363,0.1817,-0.0605,-44.25,-39.75,32.88,314.84,-83.48,-168.48
15532,53.121338,-1.883695,311.03,12.33,4,82.62,19 / 20,1552593,2019-11-06 13:53:13:386,0.3247,1.8295,10.0834,0.0159,0.0459,9.8065,0.2835,-0.8569,0.3885,-26.81,-34.0,23.5,318.82,-83.39,-168.52
15533,53.121338,-1.883695,311.03,12.33,4,82.62,19 / 20,1552693,2019-11-06 13:53:13:486,-3.6564,-4.9457,11.3908,0.0456,0.0367,9.8064,0.0692,-0.4187,0.2675,-27.12,-35.06,14.75,302.53,-82.89,-169.49
15534,53.121338,-1.883695,311.03,12.33,4,82.62,19 / 20,1552793,2019-11-06 13:53:13:586,2.368,3.4446,8.0206,0.0013,0.0756,9.8063,-0.0496,0.1521,-0.0211,-26.44,-36.25,10.75,291.24,-82.83,-172.95
15535,53.121338,-1.883695,311.03,12.33,4,82.62,19 / 20,1552893,2019-11-06 13:53:13:686,-2.1551,-1.1262,9.7187,-0.0491,0.0487,9.8063,-0.1677,0.5799,-0.2453,-26.87,-36.12,10.44,286.71,-83.11,-175.18
15536,53.121338,-1.883695,311.03,12.33,4,82.62,19 / 20,1552993,2019-11-06 13:53:13:786,-2.0081,-1.7577,8.6653,-0.0458,-0.0536,9.8063,-0.0313,0.7503,-0.3269,-26.44,-36.56,9.5,286.14,-83.24,-176.09
15537,53.121338,-1.883695,311.03,12.33,4,82.62,19 / 20,1553094,2019-11-06 13:53:13:887,-3.3009,-4.9465,8.9412,0.0145,-0.0323,9.8065,0.0963,0.5225,-0.109,-27.19,-35.62,12.38,295.31,-83.26,-171.03
15538,53.121338,-1.883695,311.03,12.33,4,82.62,19 / 20,1553193,2019-11-06 13:53:13:986,-3.7326,-4.5447,11.7685,-0.0045,-0.1279,9.8058,0.082,1.1736,-0.6672,-26.56,-34.56,19.44,314.65,-82.78,-164.79
15539,53.121338,-1.883695,311.03,12.33,4,82.62,19 / 20,1553293,2019-11-06 13:53:14:086,-5.4467,-9.9752,13.5983,-0.0032,0.0099,9.8066,-0.0639,-0.2128,-0.033,-42.0,-39.44,36.06,316.28,-82.81,-170.58
15540,53.121338,-1.883695,311.03,12.33,4,82.62,19 / 20,1553393,2019-11-06 13:53:14:186,-0.1372,-0.1964,10.4495,0.0492,-0.0195,9.8065,-0.1692,1.3901,-0.6847,-31.31,-38.25,8.69,278.29,-82.41,-178.9
15541,53.121338,-1.883695,311.03,12.33,4,82.62,19 / 20,1553493,2019-11-06 13:53:14:286,1.8833,10.9594,6.8407,0.0127,-0.0425,9.8065,-0.2536,1.0928,-0.8248,-27.94,-37.69,8.69,271.12,-82.53,173.07
15542,53.121338,-1.883695,311.03,12.33,4,82.62,19 / 20,1553593,2019-11-06 13:53:14:386,-2.4145,-0.1754,7.2618,-0.0473,-0.016,9.8065,0.0546,0.1307,0.0452,-26.75,-37.56,8.19,263.46,-82.76,166.71
15543,53.121338,-1.883695,311.03,12.33,4,82.62,19 / 20,1553693,2019-11-06 13:53:14:486,-0.5516,5.709,8.1143,-0.0087,-0.0763,9.8063,0.0421,-0.2756,0.2463,-27.37,-38.25,7.81,265.03,-83.18,167.74
15544,53.121338,-1.883695,311.03,12.33,4,82.62,19 / 20,1553793,2019-11-06 13:53:14:586,0.554,-4.2856,9.6531,-0.0135,-0.0723,9.8063,0.0176,0.6439,-0.0778,-32.25,-39.06,8.19,268.31,-83.35,172.18
15545,53.121338,-1.883695,311.03,12.33,4,82.62,19 / 20,1553893,2019-11-06 13:53:14:686,-3.7064,-3.1937,9.3818,-0.0119,-0.1239,9.8058,0.0278,-1.0066,0.543,-41.75,-40.94,31.75,298.92,-83.33,176.33
15546,53.121338,-1.883695,311.03,12.33,4,82.62,19 / 20,1553993,2019-11-06 13:53:14:786,-5.6503,-7.4195,10.7817,-0.0433,-0.0603,9.8063,-0.0052,-0.0957,0.1783,-25.87,-34.87,16.56,297.7,-83.45,-178.76
15547,53.12153,-1.881682,314.94,16.21,4,70.44,20 / 20,1554093,2019-11-06 13:53:14:886,2.5904,9.3647,9.2388,-0.0269,-0.1449,9.8055,-0.0714,0.2789,-0.195,-25.62,-36.06,10.56,291.58,-83.48,-173.44
15548,53.12153,-1.881682,314.94,16.21,4,70.44,20 / 20,1554193,2019-11-06 13:53:14:986,-0.7129,-8.2737,10.5601,-0.0322,-0.0078,9.8065,0.0547,-0.9062,0.5811,-26.44,-36.44,9.94,288.6,-83.42,-174.2
15549,53.12153,-1.881682,314.94,16.21,4,70.44,20 / 20,1554293,2019-11-06 13:53:15:086,0.766,-1.3499,9.9065,-0.0105,-0.0738,9.8063,-0.1221,0.5944,-0.341,-26.37,-36.44,8.5,288.65,-83.67,-172.44
15550,53.12153,-1.881682,314.94,16.21,4,70.44,20 / 20,1554393,2019-11-06 13:53:15:186,-1.2024,-8.3861,10.0183,0.0013,0.0644,9.8064,-0.0038,-0.5056,0.16,-26.0,-36.62,8.69,283.18,-84.04,-177.98
15551,53.12153,-1.881682,314.94,16.21,4,70.44,20 / 20,1554493,2019-11-06 13:53:15:286,1.6392,3.9766,9.4647,-0.0032,-0.0272,9.8065,0.0628,0.7442,-0.48,-25.12,-36.69,10.69,288.63,-83.85,-177.07
15552,53.12153,-1.881682,314.94,16.21,4,70.44,20 / 20,1554593,2019-11-06 13:53:15:386,2.3056,4.019,10.9928,0.0535,0.0716,9.8062,0.0511,-0.4034,0.1639,-24.5,-35.56,25.63,308.3,-83.67,176.25
15553,53.12153,-1.881682,314.94,16.21,4,70.44,20 / 20,1554693,2019-11-06 13:53:15:486,4.4328,7.7081,9.1444,-0.0022,-0.0702,9.8063,-0.0552,0.8478,-0.3366,-44.62,-41.62,22.94,290.45,-83.64,178.47
15554,53.12153,-1.881682,314.94,16.21,4,70.44,20 / 20,1554793,2019-11-06 13:53:15:586,-0.3768,0.6503,10.085,-0.028,0.0467,9.8065,-0.011,-0.0344,0.0219,-30.31,-37.94,7.0,271.78,-83.62,176.59
15555,53.12153,-1.881682,314.94,16.21,4,70.44,20 / 20,1554893,2019-11-06 13:53:15:686,-0.0261,4.8158,8.1939,0.0055,-0.0051,9.8066,-0.2279,0.4437,-0.1822,-27.56,-37.31,5.88,269.81,-83.6,176.05
15556,53.12153,-1.881682,314.94,16.21,4,70.44,20 / 20,1554993,2019-11-06 13:53:15:786,0.6474,1.7407,9.0883,-0.0209,0.0058,9.8066,-0.0001,0.4124,-0.1354,-26.87,-37.31,5.63,271.9,-83.9,177.59
15557,53.12153,-1.881682,314.94,16.21,4,70.44,21 / 21,1555093,2019-11-06 13:53:15:886,-0.3743,-2.3488,10.1302,-0.0022,0.0418,9.8065,-0.0133,0.3132,-0.2031,-28.37,-38.5,6.25,271.68,-83.9,177.75
15558,53.12153,-1.881682,314.94,16.21,4,70.44,21 / 21,1555194,2019-11-06 13:53:15:987,0.0835,3.8219,10.5789,0.0194,0.0326,9.8066,0.039,0.7184,-0.256,-38.0,-39.5,9.31,274.54,-83.65,177.61
15559,53.12153,-1.881682,314.94,16.21,4,70.44,21 / 21,1555294,2019-11-06 13:53:16:087,-0.8713,-3.8395,10.2801,0.043,0.0642,9.8063,-0.0039,0.3829,-0.1603,-34.87,-38.0,36.0,307.13,-83.69,175.31
15560,53.12153,-1.881682,314.94,16.21,4,70.44,21 / 21,1555393,2019-11-06 13:53:16:186,3.9133,9.1597,9.8284,0.0091,0.034,9.8066,0.0908,-1.0413,0.6205,-24.94,-35.19,13.69,290.31,-83.65,178.49
15561,53.12153,-1.881682,314.94,16.21,4,70.44,21 / 21,1555493,2019-11-06 13:53:16:286,0.1089,-3.9153,10.2877,-0.0009,0.123,9.8058,0.0914,-0.0027,0.0443,-24.69,-36.19,8.25,274.1,-83.76,174.97
15562,53.12153,-1.881682,314.94,16.21,4,70.44,21 / 21,1555593,2019-11-06 13:53:16:386,-0.217,8.0096,10.2387,0.0118,0.0159,9.8066,-0.0464,1.029,-0.5216,-24.94,-36.56,6.75,273.48,-83.42,177.31
15563,53.12153,-1.881682,314.94,16.21,4,70.44,21 / 21,1555693,2019-11-06 13:53:16:486,-0.1645,-5.3662,12.5133,-0.0027,0.1082,9.806,0.1615,-0.7406,0.3072,-25.06,-36.81,7.44,269.78,-83.19,173.94
15564,53.12153,-1.881682,314.94,16.21,4,70.44,21 / 21,1555793,2019-11-06 13:53:16:586,0.2614,-5.4825,10.1898,0.0168,-0.0258,9.8066,-0.1406,0.378,-0.1579,-24.75,-36.94,8.0,271.17,-82.9,173.54
15565,53.12153,-1.881682,314.94,16.21,4,70.44,21 / 21,1555893,2019-11-06 13:53:16:686,-2.5785,-3.6473,9.2504,-0.0332,0.025,9.8065,-0.0006,-1.1248,0.5701,-23.37,-36.06,10.88,274.55,-83.09,168.86
15566,53.12153,-1.881682,314.94,16.21,4,70.44,21 / 21,1555994,2019-11-06 13:53:16:787,-1.8054,-0.8492,10.0955,-0.0542,-0.0773,9.8062,0.0826,-0.2929,0.2217,-23.37,-36.0,25.56,298.43,-83.15,166.38
15567,53.12153,-1.881682,314.94,16.21,4,70.44,20 / 20,1556093,2019-11-06 13:53:16:886,-2.7995,-5.3981,9.5337,0.0133,-0.0209,9.8065,-0.0093,-0.7036,0.418,-37.19,-39.62,9.75,265.74,-82.96,167.97
15568,53.12153,-1.881682,314.94,16.21,4,70.44,20 / 20,1556193,2019-11-06 13:53:16:986,-1.318,3.9741,9.4233,-0.0026,-0.0649,9.8064,0.0769,-0.2042,0.0624,-27.19,-38.62,5.38,258.56,-82.82,168.07
15569,53.12153,-1.881682,314.94,16.21,4,70.44,20 / 20,1556293,2019-11-06 13:53:17:086,2.3648,3.7448,11.7291,-0.0397,-0.0305,9.8065,0.0065,-0.6991,0.361,-25.81,-38.31,5.69,259.28,-82.89,166.26
15570,53.12153,-1.881682,314.94,16.21,4,70.44,20 / 20,1556393,2019-11-06 13:53:17:186,0.1853,-5.6779,8.8615,-0.0203,-0.104,9.806,-0.0488,-0.3414,0.3595,-26.25,-38.06,4.94,261.66,-82.75,171.12
15571,53.12153,-1.881682,314.94,16.21,4,70.44,20 / 20,1556493,2019-11-06 13:53:17:286,-1.3084,-0.9462,9.1947,-0.0341,-0.0171,9.8066,-0.0639,-0.3574,0.2625,-28.06,-38.75,4.81,259.71,-82.99,169.05
15572,53.12153,-1.881682,314.94,16.21,4,70.44,20 / 20,1556593,2019-11-06 13:53:17:386,-0.0897,-1.8907,10.0081,-0.0127,-0.0213,9.8066,-0.007,-0.2057,0.1156,-38.5,-40.12,8.94,267.21,-83.01,171.07
15573,53.12153,-1.881682,314.94,16.21,4,70.44,20 / 20,1556693,2019-11-06 13:53:17:486,-3.1741,-2.2681,11.1406,0.0001,-0.0095,9.8066,0.187,-0.4408,0.1902,-24.69,-35.62,25.63,301.4,-83.2,171.28
15574,53.12153,-1.881682,314.94,16.21,4,70.44,20 / 20,1556793,2019-11-06 13:53:17:586,-0.7547,2.7218,8.7215,0.0182,-0.0178,9.8065,0.0552,-0.1563,0.0415,-23.87,-35.87,10.81,276.37,-83.08,171.26
15575,53.12153,-1.881682,314.94,16.21,4,70.44,20 / 20,1556893,2019-11-06 13:53:17:686,0.7256,4.3294,10.5322,0.0146,-0.0217,9.8066,0.055,-0.6984,0.2536,-23.56,-37.25,7.44,265.35,-82.93,169.6
15576,53.12153,-1.881682,314.94,16.21,4,70.44,20 / 20,1556993,2019-11-06 13:53:17:786,-0.2296,-6.3727,11.3235,0.0202,-0.0563,9.8064,0.1292,-0.8198,0.3847,-23.62,-37.06,6.0,260.97,-82.67,167.81
15577,53.12153,-1.881682,314.94,16.21,4,70.44,20 / 21,1557093,2019-11-06 13:53:17:886,0.5753,4.2613,8.6047,0.0097,-0.0467,9.8065,-0.0451,-0.0942,0.0356,-23.44,-37.56,5.69,259.32,-82.77,166.11
15578,53.12153,-1.881682,314.94,16.21,4,70.44,20 / 21,1557194,2019-11-06 13:53:17:987,-0.2111,-5.8879,9.4944,0.0022,-0.0023,9.8066,-0.0299,0.8168,-0.4511,-23.25,-36.75,6.88,260.87,-82.96,164.68
15579,53.12153,-1.881682,314.94,16.21,4,70.44,20 / 21,1557293,2019-11-06 13:53:18:086,1.3251,3.5562,10.1466,-0.0176,-0.0721,9.8063,-0.0149,0.5436,-0.2003,-23.37,-35.44,13.06,277.26,-83.18,166.88
15580,53.12153,-1.881682,314.94,16.21,4,70.44,20 / 21,1557393,2019-11-06 13:53:18:186,-2.6484,-7.0367,10.4183,0.0304,0.0321,9.8065,0.0337,-0.2662,0.1375,-34.37,-39.25,34.0,295.0,-83.04,165.31
15581,53.12153,-1.881682,314.94,16.21,4,70.44,20 / 21,1557493,2019-11-06 13:53:18:286,-1.2971,0.254,7.6202,0.0004,-0.0206,9.8066,-0.0537,0.8612,-0.4113,-35.25,-39.56,7.69,262.78,-83.07,167.58
15582,53.12153,-1.881682,314.94,16.21,4,70.44,20 / 21,1557594,2019-11-06 13:53:18:387,0.7779,-5.613,9.1753,-0.0172,0.0478,9.8065,-0.1344,-0.0135,-0.0137,-27.44,-38.19,3.19,253.85,-83.69,165.96
15583,53.12153,-1.881682,314.94,16.21,4,70.44,20 / 21,1557693,2019-11-06 13:53:18:486,2.5777,1.066,10.801,-0.0653,-0.0262,9.8064,0.031,0.2228,-0.0851,-26.25,-37.75,4.19,259.68,-84.2,169.18
15584,53.12153,-1.881682,314.94,16.21,4,70.44,20 / 21,1557793,2019-11-06 13:53:18:586,-1.2155,1.4818,9.9221,-0.0201,-0.0165,9.8066,-0.0661,0.2472,0.0812,-26.94,-37.94,4.06,257.05,-83.8,167.02
15585,53.12153,-1.881682,314.94,16.21,4,70.44,20 / 21,1557893,2019-11-06 13:53:18:686,-0.111,4.5443,9.0033,0.0496,0.0515,9.8063,-0.1738,0.6108,-0.1615,-29.87,-39.0,3.63,255.36,-83.39,165.97
15586,53.12153,-1.881682,314.94,16.21,4,70.44,20 / 21,1557994,2019-11-06 13:53:18:787,-1.1614,-3.6545,10.7591,0.015,0.0778,9.8063,0.2977,0.2026,-0.2981,-42.31,-41.0,24.25,279.53,-83.38,165.41
15587,53.12153,-1.881682,314.94,16.21,4,70.44,21 / 21,1558094,2019-11-06 13:53:18:887,0.0066,0.2843,9.2346,0.0565,-0.0235,9.8064,0.1755,0.8377,-0.6761,-24.75,-35.5,22.0,293.56,-83.57,168.58
15588,53.12153,-1.881682,314.94,16.21,4,70.44,21 / 21,1558193,2019-11-06 13:53:18:986,-0.8105,-3.5834,9.7641,0.054,0.0626,9.8062,0.1706,0.4212,-0.5237,-24.12,-36.19,7.69,267.52,-83.53,168.34
15589,53.12153,-1.881682,314.94,16.21,4,70.44,21 / 21,1558293,2019-11-06 13:53:19:086,-1.354,4.4741,8.9021,-0.0458,-0.0801,9.8061,-0.3019,0.5519,-0.1173,-24.25,-36.94,5.25,264.16,-83.75,171.83
15590,53.12153,-1.881682,314.94,16.21,4,70.44,21 / 21,1558393,2019-11-06 13:53:19:186,-1.0271,-0.2229,9.9886,-0.0526,-0.0195,9.8065,-0.0575,0.0221,0.043,-24.06,-36.75,4.75,261.25,-83.58,169.08
15591,53.12153,-1.881682,314.94,16.21,4,70.44,21 / 21,1558493,2019-11-06 13:53:19:286,1.0631,-2.5858,10.9687,0.0461,0.0063,9.8065,-0.1223,0.2955,-0.0926,-24.62,-36.75,5.25,262.44,-83.34,170.74
15592,53.12153,-1.881682,314.94,16.21,4,70.44,21 / 21,1558593,2019-11-06 13:53:19:386,-1.4608,-0.8663,9.3945,-0.0089,0.0395,9.8065,0.0099,-0.0228,-0.049,-23.87,-36.75,7.25,266.43,-83.66,169.6
15593,53.12153,-1.881682,314.94,16.21,4,70.44,21 / 21,1558693,2019-11-06 13:53:19:486,-0.0991,0.2866,10.0645,0.0207,0.0329,9.8065,-0.0256,-0.1179,-0.1153,-23.62,-35.62,13.5,279.9,-83.62,167.91
15594,53.12153,-1.881682,314.94,16.21,4,70.44,21 / 21,1558793,2019-11-06 13:53:19:586,-1.8184,-0.7948,8.6907,-0.0072,-0.0082,9.8066,0.0117,-0.158,0.1722,-37.75,-40.31,31.06,288.46,-83.52,164.4
15595,53.12153,-1.881682,314.94,16.21,4,70.44,21 / 21,1558893,2019-11-06 13:53:19:686,-0.4375,6.0871,8.6551,-0.0233,-0.0299,9.8065,-0.0641,-0.5975,0.3524,-31.44,-38.69,4.38,253.27,-83.68,163.43
15596,53.12153,-1.881682,314.94,16.21,4,70.44,21 / 21,1558994,2019-11-06 13:53:19:787,0.6085,-1.0708,9.8898,-0.0192,-0.0615,9.8064,0.0803,-0.7125,0.3687,-26.25,-38.06,3.06,252.99,-84.15,164.5
15597,53.12153,-1.881682,314.94,16.21,4,70.44,20 / 22,1559093,2019-11-06 13:53:19:886,-0.4576,6.8637,8.9589,0.0302,-0.0799,9.8062,-0.021,-0.4535,0.3495,-25.87,-37.87,3.38,253.26,-84.13,164.8
15598,53.12153,-1.881682,314.94,16.21,4,70.44,20 / 22,1559193,2019-11-06 13:53:19:986,-0.669,2.7013,11.7545,0.0544,-0.0689,9.8062,-0.0549,0.7628,-0.3718,-26.06,-37.94,3.31,250.84,-83.96,162.5
15599,53.12153,-1.881682,314.94,16.21,4,70.44,20 / 22,1559293,2019-11-06 13:53:20:086,0.1852,3.9991,10.5547,0.0722,-0.0851,9.8059,0.0542,-0.2393,0.1025,-32.25,-39.19,5.25,259.42,-83.29,168.47
15600,53.12153,-1.881682,314.94,16.21,4,70.44,20 / 22,1559393,2019-11-06 13:53:20:186,-2.4316,-9.4583,10.2375,0.0016,-0.0151,9.8066,0.0427,-1.1189,0.4655,-39.31,-40.19,31.38,289.49,-83.16,166.35
15601,53.12153,-1.881682,314.94,16.21,4,70.44,20 / 22,1559493,2019-11-06 13:53:20:286,0.2736,0.5593,9.5437,-0.0509,-0.0567,9.8063,-0.0347,0.1745,-0.1117,-24.0,-35.62,15.06,278.52,-83.36,165.0
15602,53.12153,-1.881682,314.94,16.21,4,70.44,20 / 22,1559593,2019-11-06 13:53:20:386,-2.4202,-6.5752,10.0804,-0.0014,0.0251,9.8065,0.0905,-0.7467,0.2093,-23.25,-36.5,6.44,254.48,-83.48,159.36
15603,53.12153,-1.881682,314.94,16.21,4,70.44,20 / 22,1559693,2019-11-06 13:53:20:486,0.3997,4.1456,9.8571,0.0351,-0.0569,9.8064,0.0236,0.4601,-0.3434,-23.75,-37.56,4.06,250.32,-83.46,160.43
15604,53.12153,-1.881682,314.94,16.21,4,70.44,20 / 22,1559794,2019-11-06 13:53:20:587,0.5869,-0.5013,9.9216,0.0136,0.0197,9.8066,0.0838,-0.6556,0.3274,-24.12,-37.44,4.81,251.97,-83.39,159.67
15605,53.12153,-1.881682,314.94,16.21,4,70.44,20 / 22,1559893,2019-11-06 13:53:20:686,-1.5761,6.3712,9.6138,-0.0072,-0.1223,9.8058,-0.1356,0.5392,-0.265,-23.75,-37.0,5.5,257.33,-83.39,162.95
15606,53.12153,-1.881682,314.94,16.21,4,70.44,20 / 22,1559993,2019-11-06 13:53:20:786,-1.7653,-4.4084,10.2014,-0.0147,0.0017,9.8065,-0.0395,-0.4395,0.253,-23.56,-36.75,7.94,260.06,-83.36,161.22
15607,53.12153,-1.881682,314.94,16.21,4,70.44,20 / 21,1560093,2019-11-06 13:53:20:886,-2.9261,-5.1519,10.3517,-0.0086,-0.0445,9.8065,-0.0747,0.8101,-0.4793,-24.06,-34.94,15.19,277.28,-83.35,163.55
15608,53.12153,-1.881682,314.94,16.21,4,70.44,20 / 21,1560193,2019-11-06 13:53:20:986,-4.0104,-4.7657,9.9122,0.0266,0.056,9.8064,0.0408,0.3083,-0.2417,-43.44,-41.62,19.88,273.08,-83.34,164.09
15609,53.12153,-1.881682,314.94,16.21,4,70.44,20 / 21,1560293,2019-11-06 13:53:21:086,-1.0969,-2.3119,10.0978,0.0123,0.0151,9.8066,-0.0626,0.7565,-0.3717,-28.75,-38.31,3.94,253.66,-83.13,164.32
15610,53.12153,-1.881682,314.94,16.21,4,70.44,20 / 21,1560393,2019-11-06 13:53:21:186,-1.5067,5.4071,8.3802,-0.0434,0.0717,9.8063,-0.0767,0.3959,-0.151,-26.06,-38.62,2.94,250.82,-82.9,164.19
15611,53.12153,-1.881682,314.94,16.21,4,70.44,20 / 21,1560493,2019-11-06 13:53:21:286,-1.0497,-0.2421,9.5533,0.0138,0.0101,9.8066,-0.1127,0.5252,-0.0982,-26.06,-37.81,3.25,248.92,-82.87,161.94
15612,53.12153,-1.881682,314.94,16.21,4,70.44,20 / 21,1560593,2019-11-06 13:53:21:386,-1.0386,1.6734,9.1591,0.0001,0.0506,9.8064,-0.1085,0.3565,-0.2801,-27.19,-38.5,3.25,248.51,-82.91,161.32
15613,53.12153,-1.881682,314.94,16.21,4,70.44,20 / 21,1560693,2019-11-06 13:53:21:486,1.0007,-3.0494,9.9408,-0.0309,0.0188,9.8065,-0.0415,0.1661,-0.0011,-33.69,-39.5,4.81,252.56,-83.02,161.68
15614,53.12153,-1.881682,314.94,16.21,4,70.44,20 / 21,1560793,2019-11-06 13:53:21:586,1.4278,3.299,9.0589,0.0011,0.033,9.8065,-0.0609,0.5755,-0.4126,-36.69,-39.94,32.31,285.95,-82.86,160.86
15615,53.12153,-1.881682,314.94,16.21,4,70.44,20 / 21,1560893,2019-11-06 13:53:21:686,-0.4375,-4.194,9.5348,0.025,0.0865,9.8062,-0.0332,-0.0725,-0.1463,-23.87,-35.75,11.19,262.24,-83.02,157.09
15616,53.12153,-1.881682,314.94,16.21,4,70.44,20 / 21,1560993,2019-11-06 13:53:21:786,-0.2764,2.0669,10.4182,0.0029,0.0083,9.8066,0.1201,-0.5347,0.2973,-23.5,-37.44,6.06,250.22,-83.07,155.72
15617,53.12153,-1.881682,314.94,16.21,4,70.44,21 / 22,1561093,2019-11-06 13:53:21:886,0.225,-4.0485,9.8334,-0.0078,0.0662,9.8064,-0.0467,-0.2807,0.0797,-23.25,-37.31,4.88,245.21,-82.79,153.16
15618,53.12153,-1.881682,314.94,16.21,4,70.44,21 / 22,1561193,2019-11-06 13:53:21:986,0.0113,2.7376,12.1299,-0.0002,-0.0168,9.8065,0.0342,0.395,-0.1082,-23.69,-37.31,5.38,245.67,-82.54,154.07
15619,53.12153,-1.881682,314.94,16.21,4,70.44,21 / 22,1561293,2019-11-06 13:53:22:086,-0.9181,1.5593,12.7355,0.0802,0.0431,9.8062,0.1605,-0.5252,0.21,-22.81,-37.0,6.25,247.13,-81.83,154.16
15620,53.12153,-1.881682,314.94,16.21,4,70.44,21 / 22,1561393,2019-11-06 13:53:22:186,0.1954,1.11,11.4232,0.0037,-0.0256,9.8066,-0.0724,-0.1979,0.0459,-22.62,-36.75,8.75,254.89,-81.4,155.99
15621,53.12153,-1.881682,314.94,16.21,4,70.44,21 / 22,1561493,2019-11-06 13:53:22:286,1.4982,-0.3257,8.1443,-0.0374,-0.0044,9.8065,-0.1647,-0.3852,0.2734,-26.06,-38.0,30.31,287.69,-81.6,156.51
15622,53.12153,-1.881682,314.94,16.21,4,70.44,21 / 22,1561593,2019-11-06 13:53:22:386,-1.2228,-3.554,7.2428,-0.0417,0.0002,9.8065,0.0255,-0.5621,0.0897,-40.5,-41.19,12.63,255.33,-82.18,154.63
15623,53.12153,-1.881682,314.94,16.21,4,70.44,21 / 22,1561693,2019-11-06 13:53:22:486,-0.3282,2.5289,9.008,0.0061,-0.0144,9.8066,0.0735,-0.1891,-0.0552,-26.87,-38.87,3.81,241.93,-82.25,153.14
15624,53.12153,-1.881682,314.94,16.21,4,70.44,21 / 22,1561793,2019-11-06 13:53:22:586,-1.825,-4.511,9.1776,0.0309,0.0071,9.8065,0.1181,0.6009,-0.3045,-24.06,-38.56,3.63,237.58,-81.84,149.01
15625,53.12153,-1.881682,314.94,16.21,4,70.44,21 / 22,1561893,2019-11-06 13:53:22:686,-0.7082,1.5094,10.846,-0.0061,-0.0398,9.8066,-0.0138,-0.0242,-0.0473,-24.06,-39.19,3.75,237.04,-81.66,148.63
15626,53.12153,-1.881682,314.94,16.21,4,70.44,21 / 22,1561993,2019-11-06 13:53:22:786,0.9672,-1.9587,10.9547,-0.008,-0.046,9.8064,0.0263,-0.3511,0.3315,-25.56,-38.87,3.94,236.72,-81.58,148.23
15627,53.12153,-1.881682,314.94,16.21,4,70.44,21 / 21,1562094,2019-11-06 13:53:22:887,-1.0155,2.4339,10.2253,-0.0079,-0.0328,9.8066,-0.006,-0.3448,0.1119,-38.69,-41.31,11.13,247.7,-81.79,149.5
15628,53.12153,-1.881682,314.94,16.21,4,70.44,21 / 21,1562193,2019-11-06 13:53:22:986,3.9955,3.4481,11.3168,-0.0236,-0.0506,9.8065,0.0497,0.1341,-0.2103,-27.81,-37.19,32.19,283.08,-81.9,151.32
15629,53.12153,-1.881682,314.94,16.21,4,70.44,21 / 21,1562293,2019-11-06 13:53:23:086,-1.1492,0.7029,10.5225,-0.0084,-0.0885,9.8062,0.1109,-0.5872,0.4901,-22.94,-36.81,11.19,256.79,-81.68,153.01
15630,53.12153,-1.881682,314.94,16.21,4,70.44,21 / 21,1562395,2019-11-06 13:53:23:188,-1.572,-7.1014,11.0531,0.0274,-0.0657,9.8063,0.1726,-0.8821,0.3876,-23.37,-37.62,6.69,252.26,-81.37,158.33
15631,53.12153,-1.881682,314.94,16.21,4,70.44,21 / 21,1562493,2019-11-06 13:53:23:286,-1.07,-1.8144,11.2592,0.0149,-0.0872,9.8062,0.2184,-0.0683,0.1584,-24.31,-37.12,6.31,251.7,-81.38,159.88
15632,53.12153,-1.881682,314.94,16.21,4,70.44,21 / 21,1562593,2019-11-06 13:53:23:386,-1.9709,-2.8626,6.4211,-0.0074,-0.0207,9.8065,-0.1854,-0.5007,0.1771,-24.31,-37.44,5.0,247.49,-81.37,157.69
15633,53.12153,-1.881682,314.94,16.21,4,70.44,21 / 21,1562693,2019-11-06 13:53:23:486,-3.1721,2.2519,9.0566,-0.0091,-0.0521,9.8064,-0.0453,-0.1139,0.1805,-22.94,-37.31,6.38,251.29,-81.61,159.02
15634,53.12153,-1.881682,314.94,16.21,4,70.44,21 / 21,1562793,2019-11-06 13:53:23:586,1.6868,-4.2287,11.6125,0.0546,-0.0785,9.8062,0.2003,-0.0744,0.1534,-22.94,-36.12,11.06,264.6,-81.13,161.64
15635,53.12153,-1.881682,314.94,16.21,4,70.44,21 / 21,1562893,2019-11-06 13:53:23:686,0.4451,-1.7955,9.6098,0.0175,-0.0001,9.8066,-0.0342,-0.2495,0.0005,-26.19,-37.56,29.25,290.59,-80.91,161.1
15636,53.12153,-1.881682,314.94,16.21,4,70.44,21 / 21,1562995,2019-11-06 13:53:23:788,-2.3004,-2.4081,8.2335,-0.0142,-0.0199,9.8066,-0.0414,-0.1985,0.2288,-34.25,-39.12,5.56,252.54,-81.06,162.08
15637,53.122215,-1.879369,322.04,20.35,4,62.22,22 / 22,1563094,2019-11-06 13:53:23:887,-0.1977,0.9496,8.4267,-0.056,-0.0228,9.8064,0.0169,-0.2468,0.0185,-28.37,-38.69,3.63,247.27,-81.1,160.36
15638,53.122215,-1.879369,322.04,20.35,4,62.22,22 / 22,1563193,2019-11-06 13:53:23:986,-2.4168,-3.4154,8.6869,-0.024,-0.0368,9.8065,-0.1062,-0.0369,0.2253,-26.12,-37.75,3.69,248.37,-81.72,160.67
15639,53.122215,-1.879369,322.04,20.35,4,62.22,22 / 22,1563293,2019-11-06 13:53:24:086,-2.263,-3.0036,9.7246,-0.0015,0.0081,9.8066,0.0574,-0.244,0.1453,-26.25,-37.75,3.56,246.48,-81.64,158.72
15640,53.122215,-1.879369,322.04,20.35,4,62.22,22 / 22,1563393,2019-11-06 13:53:24:186,-0.4499,1.2802,10.6456,0.0155,0.0057,9.8066,0.0671,0.0759,-0.1011,-27.56,-38.44,3.63,247.59,-81.58,159.81
15641,53.122215,-1.879369,322.04,20.35,4,62.22,22 / 22,1563493,2019-11-06 13:53:24:286,-2.5691,-0.7162,11.5062,0.0177,-0.0306,9.8065,0.1652,-0.1453,0.1679,-42.37,-41.56,21.75,272.16,-81.61,162.04
15642,53.122215,-1.879369,322.04,20.35,4,62.22,22 / 22,1563593,2019-11-06 13:53:24:386,0.5194,1.1694,10.5504,-0.0116,-0.0412,9.8065,0.0095,-0.1509,0.0694,-25.06,-35.44,24.0,289.87,-81.34,164.56
15643,53.122215,-1.879369,322.04,20.35,4,62.22,22 / 22,1563693,2019-11-06 13:53:24:486,-1.5547,-0.144,9.7306,0.0006,-0.008,9.8066,0.0165,-0.2101,0.2517,-23.69,-35.31,9.94,265.14,-81.19,164.46
15644,53.122215,-1.879369,322.04,20.35,4,62.22,22 / 22,1563793,2019-11-06 13:53:24:586,-1.6396,-1.634,9.7069,0.0094,-0.0576,9.8064,0.0633,-0.2324,0.1109,-24.62,-37.06,5.88,258.84,-81.18,167.88
15645,53.122215,-1.879369,322.04,20.35,4,62.22,22 / 22,1563893,2019-11-06 13:53:24:686,-0.8038,-4.0689,11.0069,-0.0117,-0.0215,9.8065,0.088,-0.4306,0.2345,-25.62,-37.19,6.31,260.46,-81.13,169.67
15646,53.122215,-1.879369,322.04,20.35,4,62.22,22 / 22,1563995,2019-11-06 13:53:24:788,1.2563,-1.1098,7.2911,-0.0328,-0.0071,9.8066,-0.166,0.023,-0.0755,-24.31,-36.81,5.94,258.16,-80.97,167.41
15647,53.122215,-1.879369,322.04,20.35,4,62.22,21 / 22,1564093,2019-11-06 13:53:24:886,0.2247,1.5171,6.9479,-0.0268,0.048,9.8065,0.0213,-0.2007,0.0107,-23.25,-36.81,6.81,256.35,-81.23,162.61
15648,53.122215,-1.879369,322.04,20.35,4,62.22,21 / 22,1564193,2019-11-06 13:53:24:986,-0.2499,2.97,7.1102,0.0299,-0.0104,9.8066,0.1079,-0.1126,0.0978,-23.44,-35.94,11.81,266.16,-81.38,160.67
15649,53.122215,-1.879369,322.04,20.35,4,62.22,21 / 22,1564294,2019-11-06 13:53:25:087,-0.2163,-1.2237,12.0291,-0.0186,-0.0089,9.8066,0.1092,-0.2186,-0.0217,-34.44,-39.81,32.0,287.26,-81.7,161.02
15650,53.122215,-1.879369,322.04,20.35,4,62.22,21 / 22,1564393,2019-11-06 13:53:25:186,-1.0774,-3.4325,10.8321,0.0069,-0.0341,9.8066,0.0204,-0.0038,-0.1022,-30.69,-38.62,4.5,251.11,-81.34,162.04
15651,53.122215,-1.879369,322.04,20.35,4,62.22,21 / 22,1564493,2019-11-06 13:53:25:286,-0.3673,-4.3873,11.7477,0.0033,0.0007,9.8066,0.0734,-0.4381,0.2088,-26.69,-38.44,3.94,246.74,-81.07,159.63
15652,53.122215,-1.879369,322.04,20.35,4,62.22,21 / 22,1564593,2019-11-06 13:53:25:386,-0.1473,-1.0917,9.3088,0.0433,-0.0014,9.8065,0.2027,-0.5397,0.1227,-24.94,-38.06,3.94,245.35,-81.19,158.18
15653,53.122215,-1.879369,322.04,20.35,4,62.22,21 / 22,1564693,2019-11-06 13:53:25:486,2.1495,5.0925,10.6103,-0.0247,-0.0617,9.8063,0.253,-0.7133,0.294,-25.44,-37.62,4.0,246.45,-81.36,159.17
15654,53.122215,-1.879369,322.04,20.35,4,62.22,21 / 22,1564793,2019-11-06 13:53:25:586,1.9978,-7.5474,7.4549,-0.0071,-0.087,9.8062,-0.1831,-0.7847,0.5845,-30.0,-39.19,3.56,247.13,-81.46,159.56
15655,53.122215,-1.879369,322.04,20.35,4,62.22,21 / 22,1564894,2019-11-06 13:53:25:687,-1.7497,-0.0185,8.9549,-0.0956,-0.0728,9.8059,-0.1446,-0.7025,0.5143,-41.56,-41.31,22.19,267.9,-81.71,157.46
15656,53.122215,-1.879369,322.04,20.35,4,62.22,21 / 22,1564994,2019-11-06 13:53:25:787,-4.7966,-2.9397,9.1169,-0.0885,-0.058,9.806,0.0115,0.2789,-0.036,-23.37,-35.81,14.06,267.72,-81.93,157.29
15657,53.122215,-1.879369,322.04,20.35,4,62.22,21 / 21,1565093,2019-11-06 13:53:25:886,0.4451,5.4078,11.8453,0.0463,-0.0519,9.8063,0.1633,-0.7458,0.3778,-23.06,-36.31,8.25,255.07,-81.27,158.38
15658,53.122215,-1.879369,322.04,20.35,4,62.22,21 / 21,1565193,2019-11-06 13:53:25:986,0.8203,3.2803,11.5378,0.0657,-0.0752,9.8061,0.2301,-0.1425,0.1655,-23.56,-37.56,6.13,249.44,-80.72,158.72
15659,53.122215,-1.879369,322.04,20.35,4,62.22,21 / 21,1565293,2019-11-06 13:53:26:086,-2.6083,-2.7353,9.5531,0.0191,0.0239,9.8065,-0.0851,-0.0457,0.0534,-23.87,-37.19,5.81,251.22,-80.17,161.1
15660,53.122215,-1.879369,322.04,20.35,4,62.22,21 / 21,1565393,2019-11-06 13:53:26:186,0.4379,0.6453,6.7996,-0.0457,-0.0033,9.8065,-0.063,0.1851,-0.0497,-24.5,-36.56,5.13,251.06,-80.73,162.51
15661,53.122215,-1.879369,322.04,20.35,4,62.22,21 / 21,1565493,2019-11-06 13:53:26:286,-0.4604,-2.5405,7.9092,-0.0338,0.0012,9.8065,0.0307,-0.0511,0.1062,-23.5,-36.75,7.0,256.16,-81.45,162.06
15662,53.122215,-1.879369,322.04,20.35,4,62.22,21 / 21,1565593,2019-11-06 13:53:26:386,-0.267,-0.2368,10.0526,0.0267,0.0108,9.8066,0.1085,0.0106,-0.1822,-23.56,-35.5,17.75,279.38,-81.54,162.46
15663,53.122215,-1.879369,322.04,20.35,4,62.22,21 / 21,1565693,2019-11-06 13:53:26:486,-0.1101,-1.69,11.6279,0.0222,-0.0234,9.8065,0.2417,-0.1681,-0.0449,-41.81,-40.81,26.69,279.77,-81.54,164.05
15664,53.122215,-1.879369,322.04,20.35,4,62.22,21 / 21,1565793,2019-11-06 13:53:26:586,-1.0932,0.1669,9.9176,0.0081,-0.0346,9.8066,-0.1012,-0.1107,0.2035,-30.37,-38.69,4.38,250.73,-81.57,163.31
15665,53.122215,-1.879369,322.04,20.35,4,62.22,21 / 21,1565893,2019-11-06 13:53:26:686,-0.4161,-0.0295,9.6232,-0.0412,-0.017,9.8065,-0.3213,0.1715,0.1014,-26.69,-37.69,3.13,249.72,-81.81,164.07
15666,53.122215,-1.879369,322.04,20.35,4,62.22,21 / 21,1565993,2019-11-06 13:53:26:786,0.2688,0.847,9.6053,-0.0275,-0.0171,9.8066,0.1706,0.3337,-0.1727,-26.31,-37.37,3.63,253.28,-81.8,165.55
15667,53.122215,-1.879369,322.04,20.35,4,62.22,23 / 23,1566093,2019-11-06 13:53:26:886,0.0825,-0.2342,8.954,0.0801,0.0917,9.8059,0.1512,0.3569,-0.469,-27.06,-37.94,3.56,251.42,-81.42,164.28
15668,53.122215,-1.879369,322.04,20.35,4,62.22,23 / 23,1566193,2019-11-06 13:53:26:986,-0.9091,0.7248,9.4482,0.0367,0.104,9.806,0.0161,0.3815,-0.1963,-34.25,-39.5,5.25,251.25,-81.26,162.18
15669,53.122215,-1.879369,322.04,20.35,4,62.22,23 / 23,1566293,2019-11-06 13:53:27:086,-0.8115,-1.1437,9.8217,-0.0177,0.0369,9.8065,-0.0211,0.1584,-0.0953,-35.62,-40.25,33.25,285.56,-81.33,160.12
15670,53.122215,-1.879369,322.04,20.35,4,62.22,23 / 23,1566393,2019-11-06 13:53:27:186,-0.1226,0.2246,9.4566,-0.0217,0.0351,9.8065,-0.1225,0.1149,-0.0548,-23.69,-36.06,13.13,264.5,-81.02,157.96
15671,53.122215,-1.879369,322.04,20.35,4,62.22,23 / 23,1566493,2019-11-06 13:53:27:286,-1.5524,1.2279,9.64,0.0064,-0.0017,9.8066,0.0299,0.0132,0.0298,-23.12,-36.87,6.69,250.06,-80.97,156.17
15672,53.122215,-1.879369,322.04,20.35,4,62.22,23 / 23,1566593,2019-11-06 13:53:27:386,-1.5731,-1.3107,11.2081,0.0314,-0.0082,9.8066,0.0661,-0.3606,0.1893,-23.5,-37.0,5.56,249.56,-80.87,158.24
15673,53.122215,-1.879369,322.04,20.35,4,62.22,23 / 23,1566693,2019-11-06 13:53:27:486,-0.3316,-1.4038,10.817,0.003,-0.0422,9.8065,0.0495,0.174,-0.1024,-23.62,-37.56,4.81,248.34,-80.88,159.67
15674,53.122215,-1.879369,322.04,20.35,4,62.22,23 / 23,1566794,2019-11-06 13:53:27:587,0.1204,-3.4464,9.5985,0.0042,0.0274,9.8066,0.0575,0.2938,-0.3125,-23.69,-37.69,5.88,249.56,-80.59,159.06
15675,53.122215,-1.879369,322.04,20.35,4,62.22,23 / 23,1566894,2019-11-06 13:53:27:687,-3.0851,1.1369,8.8349,0.0047,-0.037,9.8065,-0.1039,0.58,-0.0498,-22.69,-36.87,8.31,254.95,-80.44,159.86
15676,53.122215,-1.879369,322.04,20.35,4,62.22,23 / 23,1566993,2019-11-06 13:53:27:786,-4.5435,-2.7286,8.6192,0.0221,0.0313,9.8065,-0.0747,0.1652,-0.0375,-23.06,-35.37,20.69,281.94,-80.45,160.36
15677,53.122215,-1.879369,322.04,20.35,4,62.22,22 / 22,1567094,2019-11-06 13:53:27:887,0.5903,3.0162,10.845,-0.0018,-0.0025,9.8066,0.0637,0.5021,-0.2608,-39.31,-40.31,10.19,256.34,-80.61,160.96
15678,53.122215,-1.879369,322.04,20.35,4,62.22,22 / 22,1567193,2019-11-06 13:53:27:986,-1.6566,2.0926,7.9495,-0.0249,0.0067,9.8066,-0.2353,0.3506,-0.0434,-27.94,-38.5,3.94,248.3,-80.98,161.33
15679,53.122215,-1.879369,322.04,20.35,4,62.22,22 / 22,1567294,2019-11-06 13:53:28:087,-0.9294,1.461,9.3393,-0.0232,-0.0219,9.8065,-0.1729,0.3914,-0.0246,-26.75,-37.87,3.5,250.75,-81.04,164.05
15680,53.122215,-1.879369,322.04,20.35,4,62.22,22 / 22,1567393,2019-11-06 13:53:28:186,-2.1875,0.2064,10.6487,-0.0308,0.0146,9.8065,0.0056,-0.0584,0.0943,-26.56,-37.25,4.0,251.85,-81.2,164.71
15681,53.122215,-1.879369,322.04,20.35,4,62.22,22 / 22,1567494,2019-11-06 13:53:28:287,-1.0207,-2.0821,9.2101,-0.0044,0.0318,9.8066,-0.0239,0.2499,-0.1602,-27.62,-38.31,3.5,251.7,-81.21,164.74
15682,53.122215,-1.879369,322.04,20.35,4,62.22,22 / 22,1567593,2019-11-06 13:53:28:386,0.3425,1.4513,9.5741,-0.0003,0.0206,9.8066,0.0086,0.1923,-0.1507,-35.12,-39.81,6.19,254.01,-81.07,163.88
15683,53.122215,-1.879369,322.04,20.35,4,62.22,22 / 22,1567693,2019-11-06 13:53:28:486,-2.7186,0.3836,9.4716,-0.0013,0.0303,9.8066,-0.1119,0.0982,-0.0301,-27.19,-36.5,30.0,292.68,-80.95,162.44
15684,53.122215,-1.879369,322.04,20.35,4,62.22,22 / 22,1567793,2019-11-06 13:53:28:586,0.1916,1.429,8.9124,-0.035,0.0101,9.8065,-0.1113,-0.0421,0.1787,-23.69,-35.69,10.25,261.12,-80.93,160.99
15685,53.122215,-1.879369,322.04,20.35,4,62.22,22 / 22,1567893,2019-11-06 13:53:28:686,-0.9606,1.7999,9.192,0.0113,0.0472,9.8065,-0.0718,0.2048,-0.232,-24.25,-36.94,6.0,251.0,-80.87,159.86
15686,53.122215,-1.879369,322.04,20.35,4,62.22,22 / 22,1567993,2019-11-06 13:53:28:786,-0.1451,-1.8974,9.0691,0.0207,0.0369,9.8065,0.1666,0.2245,-0.1313,-23.81,-37.56,5.13,248.06,-81.05,159.11
15687,53.122215,-1.879369,322.04,20.35,4,62.22,21 / 22,1568093,2019-11-06 13:53:28:886,-1.2234,-0.5596,9.8558,-0.0061,0.0127,9.8066,0.1417,0.3515,-0.4394,-23.69,-37.44,5.5,251.7,-81.39,159.88
15688,53.122215,-1.879369,322.04,20.35,4,62.22,21 / 22,1568193,2019-11-06 13:53:28:986,-0.5757,-4.2066,10.0751,-0.0115,0.0484,9.8064,0.1275,0.3705,-0.3068,-23.75,-36.69,5.31,252.36,-81.56,162.72
15689,53.122215,-1.879369,322.04,20.35,4,62.22,21 / 22,1568293,2019-11-06 13:53:29:086,-0.6585,2.6529,10.3132,-0.0215,-0.0349,9.8065,-0.1079,0.4727,-0.1581,-23.62,-36.0,10.88,265.17,-81.53,162.17
15690,53.122215,-1.879369,322.04,20.35,4,62.22,21 / 22,1568393,2019-11-06 13:53:29:186,-0.9487,-0.2386,9.2742,-0.0208,0.0464,9.8065,-0.075,0.0005,-0.0587,-29.25,-38.0,31.88,291.47,-81.49,160.9
15691,53.122215,-1.879369,322.04,20.35,4,62.22,21 / 22,1568493,2019-11-06 13:53:29:286,-2.6001,-3.5721,10.1266,0.0077,0.0,9.8066,-0.0505,0.4453,-0.2507,-38.81,-39.94,9.56,257.85,-81.24,161.93
15692,53.122215,-1.879369,322.04,20.35,4,62.22,21 / 22,1568593,2019-11-06 13:53:29:386,0.0561,-2.099,9.3462,-0.0139,0.0015,9.8066,-0.1048,0.1719,-0.0413,-26.87,-38.31,4.0,248.25,-81.27,161.03
15693,53.122215,-1.879369,322.04,20.35,4,62.22,21 / 22,1568693,2019-11-06 13:53:29:486,0.7337,-2.8846,11.0931,-0.047,-0.0134,9.8065,-0.2596,0.3673,-0.2574,-26.25,-37.31,3.63,249.62,-81.38,162.17
15694,53.122215,-1.879369,322.04,20.35,4,62.22,21 / 22,1568793,2019-11-06 13:53:29:586,0.653,-3.4673,12.5537,-0.0679,-0.005,9.8064,-0.1987,0.1564,0.0731,-25.94,-38.0,3.63,249.72,-81.27,162.76
15695,53.122215,-1.879369,322.04,20.35,4,62.22,21 / 22,1568893,2019-11-06 13:53:29:686,-3.3659,-2.1627,8.7173,0.0234,0.0602,9.8064,-0.0694,0.102,-0.1669,-28.37,-38.94,4.0,246.82,-81.08,159.89
15696,53.122215,-1.879369,322.04,20.35,4,62.22,21 / 22,1568993,2019-11-06 13:53:29:786,1.8597,0.3258,8.8689,0.0126,0.0883,9.8061,0.021,-0.0566,-0.1656,-41.19,-42.12,17.25,258.12,-80.76,154.11
15697,53.122215,-1.879369,322.04,20.35,4,62.22,19 / 19,1569093,2019-11-06 13:53:29:886,-1.5438,-0.2601,7.6165,-0.0335,0.0353,9.8065,-0.047,-0.0948,0.2574,-24.5,-36.69,27.31,280.1,-81.11,150.92
15698,53.122215,-1.879369,322.04,20.35,4,62.22,19 / 19,1569193,2019-11-06 13:53:29:986,-0.7923,1.3631,9.2915,-0.0268,-0.0097,9.8066,-0.0543,-0.0797,-0.0924,-22.62,-36.25,7.94,246.95,-81.21,149.65
15699,53.122215,-1.879369,322.04,20.35,4,62.22,19 / 19,1569293,2019-11-06 13:53:30:086,-2.4366,-0.3728,9.364,0.0183,-0.0288,9.8065,0.121,-0.2515,0.1809,-23.31,-37.19,6.06,244.41,-81.33,151.86
15700,53.122215,-1.879369,322.04,20.35,4,62.22,19 / 19,1569393,2019-11-06 13:53:30:186,-0.1777,-1.1413,11.594,0.0323,-0.0216,9.8066,0.0895,-0.0639,-0.0017,-23.44,-37.19,4.81,242.6,-81.27,152.41
15701,53.122215,-1.879369,322.04,20.35,4,62.22,19 / 19,1569493,2019-11-06 13:53:30:286,-4.2227,-2.174,9.1937,-0.0116,0.0057,9.8065,-0.2073,0.211,0.0562,-22.94,-37.06,5.56,245.71,-81.03,153.73
15702,53.122215,-1.879369,322.04,20.35,4,62.22,19 / 19,1569593,2019-11-06 13:53:30:386,1.9872,-0.9151,9.9281,-0.0305,-0.0323,9.8065,-0.0013,0.1332,0.1174,-22.87,-36.94,6.88,246.03,-81.01,151.67
15703,53.122215,-1.879369,322.04,20.35,4,62.22,19 / 19,1569694,2019-11-06 13:53:30:487,-1.6982,2.0139,7.6982,-0.012,0.0351,9.8066,-0.2269,0.2189,-0.2207,-23.12,-36.5,11.38,253.84,-80.91,150.6
15704,53.122215,-1.879369,322.04,20.35,4,62.22,19 / 19,1569793,2019-11-06 13:53:30:586,-2.119,-2.6009,8.8876,-0.0063,0.0457,9.8065,-0.0325,-0.1104,0.0585,-37.94,-41.37,29.75,271.27,-81.32,150.42
15705,53.122215,-1.879369,322.04,20.35,4,62.22,19 / 19,1569894,2019-11-06 13:53:30:687,-2.0708,0.075,9.7861,-0.0154,-0.0201,9.8065,0.0362,0.2571,-0.1771,-31.12,-40.06,5.31,241.24,-81.4,151.5
15706,53.122215,-1.879369,322.04,20.35,4,62.22,19 / 19,1569996,2019-11-06 13:53:30:789,0.3144,-1.8863,11.2601,-0.0053,0.0089,9.8065,-0.0193,0.1333,-0.2568,-26.44,-38.56,3.81,239.72,-81.33,151.92
15707,53.122215,-1.879369,322.04,20.35,4,62.22,21 / 23,1570095,2019-11-06 13:53:30:888,-3.3184,-1.4512,8.7148,-0.0296,-0.0168,9.8065,-0.1271,0.213,0.0824,-25.44,-38.56,4.38,238.36,-81.35,150.45
15708,53.122215,-1.879369,322.04,20.35,4,62.22,21 / 23,1570193,2019-11-06 13:53:30:986,2.4875,0.3219,10.4696,0.0051,0.0257,9.8066,0.0424,-0.1037,-0.2077,-25.56,-38.56,3.13,234.72,-81.36,148.44
15709,53.122215,-1.879369,322.04,20.35,4,62.22,21 / 23,1570293,2019-11-06 13:53:31:086,-2.7176,0.0954,8.958,-0.0089,-0.0118,9.8066,0.168,-0.2882,0.013,-28.0,-38.69,3.56,237.88,-81.57,149.41
15710,53.122215,-1.879369,322.04,20.35,4,62.22,21 / 23,1570393,2019-11-06 13:53:31:186,-2.3935,1.9873,8.4563,-0.0304,-0.0399,9.8064,-0.2369,-0.176,0.2693,-39.19,-41.19,30.38,270.0,-81.89,149.25
15711,53.122215,-1.879369,322.04,20.35,4,62.22,21 / 23,1570493,2019-11-06 13:53:31:286,-2.6051,0.3983,9.5434,-0.0298,-0.0171,9.8065,-0.2359,-0.2624,0.4628,-23.62,-35.81,17.0,265.14,-81.82,149.88
15712,53.122215,-1.879369,322.04,20.35,4,62.22,21 / 23,1570593,2019-11-06 13:53:31:386,1.2275,-4.1474,10.6441,-0.0053,-0.0452,9.8065,0.3227,-0.3059,-0.1807,-23.25,-36.31,8.5,250.34,-81.71,150.3
15713,53.122215,-1.879369,322.04,20.35,4,62.22,21 / 23,1570693,2019-11-06 13:53:31:486,0.2296,0.4502,10.3704,0.0726,0.0161,9.8063,0.1856,0.1976,-0.234,-23.94,-36.62,6.0,245.79,-81.44,153.33
15714,53.122215,-1.879369,322.04,20.35,4,62.22,21 / 23,1570794,2019-11-06 13:53:31:587,-0.1931,-0.0376,8.7867,0.035,0.0321,9.8065,-0.0487,0.0432,-0.0106,-23.94,-37.75,5.25,242.92,-81.52,152.74
15715,53.122215,-1.879369,322.04,20.35,4,62.22,21 / 23,1570894,2019-11-06 13:53:31:687,-0.9019,1.8297,7.631,-0.0713,-0.0168,9.8064,-0.1349,0.4064,-0.1656,-24.25,-36.81,5.06,244.35,-82.15,153.16
15716,53.122215,-1.879369,322.04,20.35,4,62.22,21 / 23,1570993,2019-11-06 13:53:31:786,-0.8484,-3.2512,10.0653,-0.0425,0.0161,9.8065,-0.1241,0.2363,-0.0739,-23.37,-37.12,7.94,251.14,-82.16,153.21
15717,53.122215,-1.879369,322.04,20.35,4,62.22,20 / 21,1571093,2019-11-06 13:53:31:886,-4.0932,-2.2418,6.1521,0.0411,0.0553,9.8064,-0.0777,0.732,-0.3531,-23.81,-35.94,15.25,263.7,-81.87,152.04
15718,53.122215,-1.879369,322.04,20.35,4,62.22,20 / 21,1571193,2019-11-06 13:53:31:986,4.5297,0.1732,12.9316,0.097,0.0665,9.8059,0.3408,0.1404,-0.4368,-39.44,-41.25,29.25,271.31,-82.01,151.49
15719,53.122215,-1.879369,322.04,20.35,4,62.22,20 / 21,1571294,2019-11-06 13:53:32:087,-2.3592,5.7276,11.232,0.0329,-0.0225,9.8065,0.1141,0.3744,-0.3884,-28.25,-38.19,3.25,237.58,-81.97,150.43
15720,53.122215,-1.879369,322.04,20.35,4,62.22,20 / 21,1571394,2019-11-06 13:53:32:187,2.0809,-2.7615,10.1908,-0.0237,0.0333,9.8065,-0.285,0.2169,0.0136,-26.44,-38.87,3.88,236.74,-81.96,147.78
15721,53.122215,-1.879369,322.04,20.35,4,62.22,20 / 21,1571493,2019-11-06 13:53:32:286,-3.5141,0.918,9.815,0.0102,-0.021,9.8066,-0.2777,0.6629,-0.3373,-25.44,-38.12,2.75,237.47,-81.95,150.7
15722,53.122215,-1.879369,322.04,20.35,4,62.22,20 / 21,1571593,2019-11-06 13:53:32:386,3.559,-4.1839,8.9557,-0.0133,0.0247,9.8065,0.0874,0.0495,-0.0639,-26.75,-38.31,3.31,237.71,-81.92,150.74
15723,53.122215,-1.879369,322.04,20.35,4,62.22,20 / 21,1571693,2019-11-06 13:53:32:486,0.4416,-0.7334,9.6044,-0.0284,0.0461,9.8065,-0.1209,0.3914,-0.3177,-31.69,-39.87,3.88,236.1,-82.15,146.86
15724,53.122215,-1.879369,322.04,20.35,4,62.22,20 / 21,1571793,2019-11-06 13:53:32:586,3.3748,2.8431,10.2424,0.0438,0.034,9.8065,0.0274,-0.2784,0.2067,-39.19,-40.69,30.5,268.13,-81.99,146.28
15725,53.122215,-1.879369,322.04,20.35,4,62.22,20 / 21,1571893,2019-11-06 13:53:32:686,-3.9912,-2.87,9.9448,0.0248,0.0473,9.8065,0.0768,0.0737,-0.1775,-23.31,-35.25,11.44,249.48,-81.76,144.44
15726,53.122215,-1.879369,322.04,20.35,4,62.22,20 / 21,1571993,2019-11-06 13:53:32:786,3.1665,1.5292,8.552,0.0346,-0.0172,9.8065,0.0214,0.2773,0.0323,-23.06,-36.44,6.06,241.47,-81.88,147.52
15727,53.122993,-1.876852,329.57,21.71,4,65.53,21 / 22,1572093,2019-11-06 13:53:32:886,-1.9342,-3.6707,11.1354,0.0134,-0.0139,9.8065,-0.0703,-0.2425,0.2858,-24.12,-37.25,5.63,242.52,-82.15,148.78
15728,53.122993,-1.876852,329.57,21.71,4,65.53,21 / 22,1572193,2019-11-06 13:53:32:986,-0.6152,0.7308,10.1473,0.0202,-0.0425,9.8064,0.3553,-0.5108,0.1038,-23.94,-37.37,4.88,243.04,-82.32,151.5
15729,53.122993,-1.876852,329.57,21.71,4,65.53,21 / 22,1572293,2019-11-06 13:53:33:086,-3.4129,-2.2034,6.7426,0.086,0.0786,9.8059,-0.326,-0.0168,0.2952,-23.94,-37.69,5.63,243.92,-81.69,151.25
15730,53.122993,-1.876852,329.57,21.71,4,65.53,21 / 22,1572393,2019-11-06 13:53:33:186,0.4852,0.9082,10.9371,-0.0576,-0.0585,9.8062,0.0431,0.2224,-0.4529,-22.5,-36.25,8.0,247.18,-81.76,148.81
15731,53.122993,-1.876852,329.57,21.71,4,65.53,21 / 22,1572494,2019-11-06 13:53:33:287,-2.9551,-4.9653,7.4188,-0.0512,-0.0367,9.8064,0.1307,0.0643,-0.0929,-22.12,-35.19,20.44,267.06,-82.01,144.25
15732,53.122993,-1.876852,329.57,21.71,4,65.53,21 / 22,1572593,2019-11-06 13:53:33:386,-6.2024,-3.7464,10.1367,-0.0485,-0.0562,9.8063,0.3059,0.3587,-0.415,-42.56,-41.94,21.88,255.93,-81.93,145.56
15733,53.122993,-1.876852,329.57,21.71,4,65.53,21 / 22,1572693,2019-11-06 13:53:33:486,-0.494,0.3096,11.51,0.0053,-0.0614,9.8064,0.2502,0.2852,-0.4057,-27.19,-38.31,4.69,238.66,-81.33,148.23
15734,53.122993,-1.876852,329.57,21.71,4,65.53,21 / 22,1572793,2019-11-06 13:53:33:586,3.1293,0.3791,11.7179,-0.0607,-0.0193,9.8064,-0.0247,0.2525,-0.1781,-25.62,-38.5,3.38,233.18,-80.85,146.98
15735,53.122993,-1.876852,329.57,21.71,4,65.53,21 / 22,1572894,2019-11-06 13:53:33:687,1.0104,3.7414,9.6323,-0.0968,-0.0613,9.8059,0.0158,0.4036,-0.2223,-25.44,-38.31,4.06,235.65,-80.8,147.75
15736,53.122993,-1.876852,329.57,21.71,4,65.53,21 / 22,1572993,2019-11-06 13:53:33:786,-0.6872,-7.4622,9.4152,0.0099,0.0192,9.8066,0.0182,-0.4504,0.1474,-26.81,-38.06,3.75,236.82,-81.64,147.94
15737,53.122993,-1.876852,329.57,21.71,4,65.53,22 / 22,1573093,2019-11-06 13:53:33:886,-0.2287,3.6246,9.0213,-0.0052,-0.0151,9.8066,0.0099,0.3547,-0.2104,-35.06,-39.62,6.06,239.53,-81.82,147.55
15738,53.122993,-1.876852,329.57,21.71,4,65.53,22 / 22,1573193,2019-11-06 13:53:33:986,1.8838,1.6303,10.4785,0.045,0.0263,9.8064,0.0803,-0.1612,0.0989,-33.12,-38.94,34.13,277.08,-81.49,148.32
15739,53.122993,-1.876852,329.57,21.71,4,65.53,22 / 22,1573293,2019-11-06 13:53:34:086,0.2544,0.8228,10.8651,-0.0502,-0.0754,9.8062,0.0275,0.5494,-0.3224,-23.75,-36.06,10.5,254.8,-81.92,150.8
15740,53.122993,-1.876852,329.57,21.71,4,65.53,22 / 22,1573393,2019-11-06 13:53:34:186,1.9645,2.9946,8.8253,-0.0562,-0.0412,9.8063,-0.0253,0.2961,-0.2124,-23.44,-36.87,6.19,243.67,-82.17,149.88
15741,53.122993,-1.876852,329.57,21.71,4,65.53,22 / 22,1573493,2019-11-06 13:53:34:286,-1.3323,-7.1144,9.6225,-0.0366,-0.1224,9.8058,-0.171,0.6803,-0.2474,-24.0,-37.0,5.44,240.78,-82.47,148.8
15742,53.122993,-1.876852,329.57,21.71,4,65.53,22 / 22,1573593,2019-11-06 13:53:34:386,-2.0833,-0.6882,10.0823,0.0226,-0.0878,9.8062,-0.0687,0.6761,-0.2218,-25.25,-36.62,4.69,248.32,-83.39,155.85
15743,53.122993,-1.876852,329.57,21.71,4,65.53,22 / 22,1573693,2019-11-06 13:53:34:486,-0.2419,-1.5578,8.1791,0.0293,-0.0565,9.8064,-0.1473,0.486,-0.1908,-24.5,-37.06,5.31,252.2,-83.3,160.04
15744,53.122993,-1.876852,329.57,21.71,4,65.53,22 / 22,1573793,2019-11-06 13:53:34:586,0.5396,3.7924,12.0288,-0.0435,-0.0804,9.8062,0.1846,0.6363,-0.4193,-24.31,-36.19,8.31,260.05,-83.45,160.8
15745,53.122993,-1.876852,329.57,21.71,4,65.53,22 / 22,1573893,2019-11-06 13:53:34:686,2.2117,0.6348,10.3468,-0.0803,-0.0207,9.8062,0.1418,0.1178,-0.3137,-31.0,-38.06,30.75,288.79,-83.75,159.05
15746,53.122993,-1.876852,329.57,21.71,4,65.53,22 / 22,1573994,2019-11-06 13:53:34:787,-3.2997,2.07,7.5851,-0.0282,-0.0372,9.8065,0.1682,-0.4368,0.0363,-39.81,-40.0,8.88,252.81,-83.68,155.95
15747,53.122993,-1.876852,329.57,21.71,4,65.53,19 / 21,1574093,2019-11-06 13:53:34:886,-2.0194,-4.9606,11.458,0.025,-0.0017,9.8066,0.084,-0.0124,0.1237,-28.81,-37.87,3.0,243.83,-83.96,154.9
15748,53.122993,-1.876852,329.57,21.71,4,65.53,19 / 21,1574193,2019-11-06 13:53:34:986,-3.2499,3.3562,8.4357,0.0426,-0.0515,9.8064,-0.1076,0.3969,-0.3431,-27.06,-37.37,4.06,248.0,-83.66,157.46
15749,53.122993,-1.876852,329.57,21.71,4,65.53,19 / 21,1574293,2019-11-06 13:53:35:086,-1.2118,1.2955,9.72,-0.0103,0.0357,9.8066,-0.019,-0.2103,0.2363,-26.69,-37.12,3.5,244.53,-83.44,154.03
15750,53.122993,-1.876852,329.57,21.71,4,65.53,19 / 21,1574393,2019-11-06 13:53:35:186,-1.5261,4.3895,8.7288,-0.0052,-0.0506,9.8064,-0.0435,0.3257,-0.3626,-28.37,-38.0,2.19,242.64,-83.63,156.11
15751,53.122993,-1.876852,329.57,21.71,4,65.53,19 / 21,1574493,2019-11-06 13:53:35:286,-2.2293,-0.3841,9.8245,-0.042,-0.0086,9.8065,0.2086,-0.2473,-0.0854,-42.87,-41.0,14.5,257.3,-83.74,153.52
15752,53.122993,-1.876852,329.57,21.71,4,65.53,19 / 21,1574594,2019-11-06 13:53:35:387,1.7674,3.1837,9.8174,0.0725,-0.0206,9.8063,0.1887,-0.2582,0.0002,-27.0,-36.19,28.19,284.14,-83.17,154.36
15753,53.122993,-1.876852,329.57,21.71,4,65.53,19 / 21,1574693,2019-11-06 13:53:35:486,-3.7783,-3.9217,9.8169,0.0434,0.0291,9.8065,-0.1617,-0.4272,0.508,-24.56,-35.19,10.31,259.76,-83.4,156.4
15754,53.122993,-1.876852,329.57,21.71,4,65.53,19 / 21,1574793,2019-11-06 13:53:35:586,0.483,-1.211,11.2352,-0.0347,-0.056,9.8064,0.2644,-0.2871,0.0034,-25.12,-36.75,5.75,254.57,-83.63,159.88
15755,53.122993,-1.876852,329.57,21.71,4,65.53,19 / 21,1574893,2019-11-06 13:53:35:686,-1.6997,-0.8375,6.7448,-0.0779,0.0171,9.8063,0.1631,-0.1447,-0.0002,-25.5,-36.37,4.88,253.81,-84.15,160.4
15756,53.122993,-1.876852,329.57,21.71,4,65.53,19 / 21,1574993,2019-11-06 13:53:35:786,-4.4096,2.1539,10.336,-0.0038,0.0118,9.8066,-0.0289,-0.0411,-0.1031,-25.12,-36.87,4.81,251.82,-84.01,158.73
15757,53.122993,-1.876852,329.57,21.71,4,65.53,22 / 22,1575093,2019-11-06 13:53:35:886,-2.058,5.9261,10.4464,0.0409,0.1208,9.8058,0.1673,-0.7144,0.1193,-23.94,-37.31,6.25,244.93,-83.1,150.16
15758,53.122993,-1.876852,329.57,21.71,4,65.53,22 / 22,1575193,2019-11-06 13:53:35:986,-2.357,-7.1285,10.7573,0.0508,0.0984,9.8059,0.0103,-0.6525,0.6079,-23.81,-36.0,10.38,252.52,-82.64,149.58
15759,53.122993,-1.876852,329.57,21.71,4,65.53,22 / 22,1575293,2019-11-06 13:53:36:086,-4.0167,-2.3247,10.132,0.0534,0.0496,9.8063,-0.067,-0.8971,0.6219,-30.12,-38.19,31.25,282.82,-83.32,152.74
15760,53.122993,-1.876852,329.57,21.71,4,65.53,22 / 22,1575393,2019-11-06 13:53:36:186,-4.1278,-1.6249,9.842,-0.0161,-0.0138,9.8066,-0.009,-0.2056,0.0883,-33.12,-38.62,5.0,245.32,-83.46,153.55
15761,53.122993,-1.876852,329.57,21.71,4,65.53,22 / 22,1575493,2019-11-06 13:53:36:286,-4.6089,2.0427,9.3112,-0.0386,0.0638,9.8063,-0.0746,-0.2616,0.2994,-27.87,-37.31,3.69,245.32,-83.41,154.94
15762,53.122993,-1.876852,329.57,21.71,4,65.53,22 / 22,1575593,2019-11-06 13:53:36:386,-0.2612,2.2847,9.2321,0.0237,-0.0243,9.8066,-0.0946,-0.0352,0.0512,-26.75,-37.75,4.25,247.66,-83.51,157.52
15763,53.122993,-1.876852,329.57,21.71,4,65.53,22 / 22,1575693,2019-11-06 13:53:36:486,-0.5991,-3.1026,9.6323,-0.0045,0.0636,9.8064,-0.0869,-0.1955,0.5103,-26.62,-37.75,3.44,242.69,-83.88,153.86
15764,53.122993,-1.876852,329.57,21.71,4,65.53,22 / 22,1575793,2019-11-06 13:53:36:586,0.3956,1.0547,9.0612,0.0106,-0.1197,9.8058,-0.0512,-0.5654,0.6203,-29.94,-38.87,2.69,249.73,-84.13,161.08
15765,53.122993,-1.876852,329.57,21.71,4,65.53,22 / 22,1575893,2019-11-06 13:53:36:686,-3.0536,-1.8614,11.206,-0.0457,-0.0464,9.8064,0.084,-0.1754,-0.1452,-42.44,-41.0,14.94,260.57,-84.34,156.03
15766,53.122993,-1.876852,329.57,21.71,4,65.53,22 / 22,1575993,2019-11-06 13:53:36:786,-0.9303,2.6494,8.2054,0.0423,-0.0379,9.8064,-0.141,0.3885,-0.0204,-24.12,-35.81,18.06,279.1,-84.36,158.99
15767,53.122993,-1.876852,329.57,21.71,4,65.53,23 / 23,1576094,2019-11-06 13:53:36:887,-4.0203,-2.6716,6.5477,0.0837,0.0406,9.8062,-0.2578,-0.218,0.3386,-24.19,-35.62,9.31,259.04,-84.03,156.71
15768,53.122993,-1.876852,329.57,21.71,4,65.53,23 / 23,1576193,2019-11-06 13:53:36:986,0.2907,7.868,10.9109,-0.0157,-0.0599,9.8063,-0.3213,0.8704,-0.4537,-24.56,-36.87,5.69,253.44,-84.39,157.66
15769,53.122993,-1.876852,329.57,21.71,4,65.53,23 / 23,1576293,2019-11-06 13:53:37:086,-6.6693,-7.2659,9.607,0.0589,0.0373,9.8064,0.0339,-0.6506,0.6361,-25.06,-37.12,4.56,246.13,-84.35,152.26
15770,53.122993,-1.876852,329.57,21.71,4,65.53,23 / 23,1576393,2019-11-06 13:53:37:186,-6.4309,-1.5176,12.2,-0.0188,-0.159,9.8053,0.0532,0.7955,-0.4868,-25.19,-36.87,4.94,255.25,-84.57,161.54
15771,53.122993,-1.876852,329.57,21.71,4,65.53,23 / 23,1576493,2019-11-06 13:53:37:286,2.645,-12.5884,12.7933,0.0219,0.0556,9.8064,0.35,-1.2255,0.6491,-25.06,-36.19,6.31,259.45,-83.92,164.32
15772,53.122993,-1.876852,329.57,21.71,4,65.53,23 / 23,1576593,2019-11-06 13:53:37:386,-1.3451,3.0448,7.0402,-0.0284,-0.0492,9.8064,-0.2373,0.4614,-0.0995,-24.81,-35.31,13.63,277.85,-83.62,166.43
15773,53.122993,-1.876852,329.57,21.71,4,65.53,23 / 23,1576694,2019-11-06 13:53:37:487,-7.303,-8.6943,8.3189,-0.0044,0.1407,9.8056,-0.0384,-1.3948,0.4541,-39.25,-40.69,31.81,282.19,-84.56,157.21
15774,53.122993,-1.876852,329.57,21.71,4,65.53,23 / 23,1576793,2019-11-06 13:53:37:586,-1.1986,1.3541,8.7967,-0.0214,0.0671,9.8063,0.2662,-0.7761,0.4377,-33.31,-38.12,5.06,247.63,-84.86,154.36
15775,53.122993,-1.876852,329.57,21.71,4,65.53,23 / 23,1576894,2019-11-06 13:53:37:687,-0.7604,8.341,9.4586,0.0023,0.1479,9.8055,0.2644,-1.2177,0.5078,-26.87,-38.06,3.94,239.36,-84.25,147.72
15776,53.122993,-1.876852,329.57,21.71,4,65.53,23 / 23,1576993,2019-11-06 13:53:37:786,-0.1325,-11.1402,9.0767,0.0124,0.1129,9.8059,0.1338,-1.2417,0.7131,-25.87,-37.94,3.94,241.7,-83.89,150.63
15777,53.122993,-1.876852,329.57,21.71,4,65.53,22 / 23,1577093,2019-11-06 13:53:37:886,-4.8709,2.4538,6.541,-0.0338,0.1188,9.8058,-0.1496,-0.7094,0.5822,-26.94,-37.44,3.13,245.47,-84.09,156.37
15778,53.122993,-1.876852,329.57,21.71,4,65.53,22 / 23,1577193,2019-11-06 13:53:37:986,-0.37,-6.3314,11.4059,-0.0637,0.0223,9.8064,0.3048,-0.9518,0.1612,-32.0,-38.81,3.19,244.17,-84.44,154.8
15779,53.122993,-1.876852,329.57,21.71,4,65.53,22 / 23,1577293,2019-11-06 13:53:38:086,-1.3253,0.7231,8.1973,-0.0522,-0.0072,9.8064,0.1342,0.1003,-0.3065,-41.5,-40.56,28.06,275.41,-84.63,155.54
15780,53.122993,-1.876852,329.57,21.71,4,65.53,22 / 23,1577393,2019-11-06 13:53:38:186,-5.9352,-2.9236,8.0839,0.0812,0.0822,9.806,0.2651,0.6933,-0.39,-24.75,-34.81,18.06,272.43,-84.43,153.04
15781,53.122993,-1.876852,329.57,21.71,4,65.53,22 / 23,1577493,2019-11-06 13:53:38:286,2.5557,5.2027,9.2404,0.0232,0.012,9.8066,-0.3417,0.4324,-0.1313,-24.5,-36.12,6.75,250.39,-84.39,151.7
15782,53.122993,-1.876852,329.57,21.71,4,65.53,22 / 23,1577593,2019-11-06 13:53:38:386,-1.106,6.0155,6.8148,-0.0068,0.0071,9.8066,-0.169,0.4895,-0.0397,-24.62,-36.5,4.88,247.36,-84.76,152.83
15783,53.122993,-1.876852,329.57,21.71,4,65.53,22 / 23,1577693,2019-11-06 13:53:38:486,-3.9536,2.5389,8.7049,0.0178,-0.1164,9.8059,-0.1395,0.7731,-0.4724,-25.94,-36.31,4.44,246.57,-85.05,153.99
15784,53.122993,-1.876852,329.57,21.71,4,65.53,22 / 23,1577793,2019-11-06 13:53:38:586,-0.8951,0.7655,11.2726,0.0099,-0.0089,9.8065,0.1795,0.3167,-0.1662,-25.69,-36.56,5.69,254.91,-84.88,158.75
15785,53.122993,-1.876852,329.57,21.71,4,65.53,22 / 23,1577893,2019-11-06 13:53:38:686,-0.2386,4.4676,10.7052,-0.0049,-0.0495,9.8065,0.0924,0.6006,-0.3878,-25.06,-36.25,6.81,257.69,-84.54,159.44
15786,53.122993,-1.876852,329.57,21.71,4,65.53,22 / 23,1577993,2019-11-06 13:53:38:786,-0.3005,1.7433,9.9253,0.0324,-0.006,9.8066,-0.2325,0.6567,-0.2549,-24.19,-35.75,13.13,266.31,-84.27,155.43
15787,53.122993,-1.876852,329.57,21.71,4,65.53,22 / 22,1578094,2019-11-06 13:53:38:887,-3.1096,-4.0251,8.373,-0.0122,-0.0403,9.8065,-0.1543,0.2523,0.0635,-44.06,-41.25,20.63,266.3,-84.53,155.38
15788,53.122993,-1.876852,329.57,21.71,4,65.53,22 / 22,1578193,2019-11-06 13:53:38:986,-0.8963,-1.6321,8.531,-0.0377,-0.1043,9.806,-0.0295,-0.5583,0.4478,-30.19,-37.19,3.5,250.17,-84.89,158.39
