,GPS LATITUDE (degrees), GPS LONGITUDE (degrees), GPS ALTITUDE (m), GPS SPEED (Kmh), GPS ACCURACY (m), GPS ORIENTATION (Â°),GPS SATELLITES IN RANGE, TIME SINCE START (ms), DATE (YYYY-MO-DD HH-MI-SS_SSS), ACCELEROMETER X (m/s²) , ACCELEROMETER Y (m/s²), ACCELEROMETER Z (m/s²), GRAVITY X (m/s²), GRAVITY Y (m/s²), GRAVITY Z (m/s²), GYROSCOPE Yaw (rad/s), GYROSCOPE Pitch (rad/s), GYROSCOPE Roll (rad/s), MAGNETIC FIELD X (Î¼T), MAGNETIC FIELD Y (Î¼T), MAGNETIC FIELD Z (Î¼T), ORIENTATION (Yaw) (Â°), ORIENTATION (Pitch) (Â°), ORIENTATION (Roll ) (Â°)
9730,52.65415,-1.531003,184.21,18.7,6,298.12,22 / 23,973020,2019-11-06 10:58:00:363,3.7916,-0.5136,10.1666,0.0137,0.0147,9.8066,0.0116,0.4963,-0.2851,-3.69,-36.56,6.69,329.19,-89.52,-179.93
9731,52.65415,-1.531003,184.21,18.7,6,298.12,22 / 23,973120,2019-11-06 10:58:00:463,3.1808,0.9937,9.4083,0.0418,0.041,9.8064,-0.1218,0.4092,-0.1989,-3.75,-36.69,6.5,329.19,-89.52,-179.93
9732,52.65415,-1.531003,184.21,18.7,6,298.12,22 / 23,973219,2019-11-06 10:58:00:562,-3.0042,-2.675,9.0695,-0.0535,0.0134,9.8065,-0.0459,-0.056,0.0665,-3.62,-36.87,6.81,285.83,-89.5,137.79
9733,52.65415,-1.531003,184.21,18.7,6,298.12,22 / 23,973319,2019-11-06 10:58:00:662,-1.0105,-0.8791,9.3217,-0.0969,0.0231,9.8061,-0.0116,-0.5813,0.3867,-3.44,-37.06,5.75,94.73,-89.92,-59.17
9734,52.65415,-1.531003,184.21,18.7,6,298.12,22 / 23,973420,2019-11-06 10:58:00:763,3.2925,2.0602,9.3562,0.0064,0.0386,9.8065,0.1207,-0.093,0.0348,-3.87,-36.87,6.13,94.73,-89.92,-59.17
9735,52.65415,-1.531003,184.21,18.7,6,298.12,22 / 23,973520,2019-11-06 10:58:00:863,3.7456,1.821,9.387,0.0375,0.0262,9.8065,-0.0611,0.4224,-0.2405,-3.56,-36.56,6.38,161.37,-89.76,14.69
9736,52.65415,-1.531003,184.21,18.7,6,298.12,22 / 23,973619,2019-11-06 10:58:00:962,-2.8704,-1.6003,10.0502,0.0096,0.0312,9.8066,-0.1336,0.5541,-0.2268,-3.75,-36.37,6.25,176.99,-89.59,30.57
9737,52.65415,-1.531003,184.21,18.7,6,298.12,22 / 23,973719,2019-11-06 10:58:01:062,-4.148,-2.0308,9.8661,-0.0484,-0.0176,9.8064,-0.1339,-0.1646,0.1317,-3.75,-37.0,6.13,136.4,-89.57,-11.43
9738,52.65415,-1.531003,184.21,18.7,6,298.12,22 / 23,973819,2019-11-06 10:58:01:162,-0.1472,0.0246,8.8309,-0.0029,0.025,9.8065,0.0443,-0.333,0.177,-3.87,-36.75,5.81,136.4,-89.57,-11.43
9739,52.65415,-1.531003,184.21,18.7,6,298.12,22 / 23,973920,2019-11-06 10:58:01:263,1.1179,0.8695,7.9764,0.028,0.0255,9.8066,0.1864,-0.1176,-0.0313,-3.5,-36.25,6.44,152.52,-89.45,-2.29
9740,52.654232,-1.531252,184.28,18.56,6,298.04,23 / 24,974020,2019-11-06 10:58:01:363,0.0013,1.3043,8.5485,0.0453,0.0683,9.8062,-0.1352,0.1096,-0.0896,-2.37,-36.81,6.56,189.1,-89.11,25.76
9741,52.654232,-1.531252,184.28,18.56,6,298.04,23 / 24,974120,2019-11-06 10:58:01:463,-1.3987,0.6021,9.463,-0.0111,-0.001,9.8065,0.0542,0.0316,-0.1776,-3.31,-36.87,6.63,189.1,-89.11,25.76
9742,52.654232,-1.531252,184.28,18.56,6,298.04,23 / 24,974220,2019-11-06 10:58:01:563,-1.8387,-0.5393,10.0124,-0.015,0.0025,9.8066,0.0598,-0.1603,0.1507,-3.56,-36.56,5.88,172.43,-89.12,21.65
9743,52.654232,-1.531252,184.28,18.56,6,298.04,23 / 24,974320,2019-11-06 10:58:01:663,-0.9278,-0.4867,10.2236,-0.0051,-0.0123,9.8066,-0.0402,-0.2058,0.1408,-4.0,-36.81,5.69,158.24,-89.14,10.28
9744,52.654232,-1.531252,184.28,18.56,6,298.04,23 / 24,974420,2019-11-06 10:58:01:763,1.7168,0.1445,10.6551,0.0217,-0.023,9.8066,0.0596,-0.1446,0.0649,-4.0,-36.87,6.0,163.23,-89.3,15.89
9745,52.654232,-1.531252,184.28,18.56,6,298.04,23 / 24,974520,2019-11-06 10:58:01:863,-1.2317,-1.6565,10.1122,0.0118,0.0,9.8066,-0.0156,0.3893,-0.1894,-3.44,-37.06,5.94,163.23,-89.3,15.89
9746,52.654232,-1.531252,184.28,18.56,6,298.04,23 / 24,974620,2019-11-06 10:58:01:963,-4.3752,-3.4425,10.5948,-0.0009,0.0449,9.8065,-0.2483,0.6215,-0.3314,-3.75,-36.31,6.13,168.08,-89.35,21.1
9747,52.654232,-1.531252,184.28,18.56,6,298.04,23 / 24,974720,2019-11-06 10:58:02:063,-1.1122,1.6398,8.9044,-0.0019,0.0112,9.8066,-0.0614,0.1766,-0.0447,-3.37,-35.5,7.19,178.22,-89.28,21.32
9748,52.654232,-1.531252,184.28,18.56,6,298.04,23 / 24,974820,2019-11-06 10:58:02:163,4.187,3.1888,8.7184,-0.0483,-0.0613,9.8063,0.054,-0.4857,0.2245,-3.75,-35.62,6.75,178.22,-89.28,21.32
9749,52.654232,-1.531252,184.28,18.56,6,298.04,23 / 24,974920,2019-11-06 10:58:02:263,0.5906,1.1271,9.4135,0.039,0.005,9.8066,0.055,-0.3844,0.2366,-5.25,-35.0,6.44,140.9,-89.53,-17.26
9750,52.65431,-1.531484,184.22,18.07,8,298.4,23 / 23,975020,2019-11-06 10:58:02:363,-4.3743,-2.4849,10.5799,0.054,0.0292,9.8064,-0.019,0.1729,-0.2116,-4.81,-35.44,5.19,159.77,-89.46,23.85
9751,52.65431,-1.531484,184.22,18.07,8,298.4,23 / 23,975120,2019-11-06 10:58:02:463,-0.8562,0.5604,9.2747,-0.0272,-0.0223,9.8065,-0.0242,0.469,-0.136,-4.37,-36.37,5.31,159.77,-89.46,23.85
9752,52.65431,-1.531484,184.22,18.07,8,298.4,23 / 23,975220,2019-11-06 10:58:02:563,1.5315,1.8445,8.9298,0.0062,0.0167,9.8066,-0.1439,0.3275,-0.2044,-4.12,-36.25,5.69,149.03,-89.49,1.39
9753,52.65431,-1.531484,184.22,18.07,8,298.4,23 / 23,975319,2019-11-06 10:58:02:662,0.9037,1.2366,10.0127,-0.0081,-0.0272,9.8065,0.0349,-0.3479,0.2124,-4.12,-36.37,6.06,154.57,-89.47,7.13
9754,52.65431,-1.531484,184.22,18.07,8,298.4,23 / 23,975420,2019-11-06 10:58:02:763,-1.7556,-2.1629,9.5691,-0.0277,-0.0477,9.8064,0.0358,-0.2944,0.1887,-3.81,-36.62,5.63,117.8,-89.57,-30.49
9755,52.65431,-1.531484,184.22,18.07,8,298.4,23 / 23,975520,2019-11-06 10:58:02:863,-2.3552,-1.3708,9.9847,-0.0073,0.0423,9.8065,-0.0024,0.0745,-0.0439,-3.87,-37.19,5.81,117.8,-89.57,-30.49
9756,52.65431,-1.531484,184.22,18.07,8,298.4,23 / 23,975620,2019-11-06 10:58:02:963,-0.7207,0.6933,10.6971,0.0121,0.0058,9.8066,-0.1181,0.3316,-0.1995,-3.56,-36.5,5.56,145.28,-89.26,-3.13
9757,52.65431,-1.531484,184.22,18.07,8,298.4,23 / 23,975720,2019-11-06 10:58:03:063,1.783,0.8626,9.8688,0.0011,-0.0135,9.8065,-0.0961,0.0282,-0.0675,-4.0,-36.5,5.56,155.61,-89.32,7.89
9758,52.65431,-1.531484,184.22,18.07,8,298.4,23 / 23,975820,2019-11-06 10:58:03:163,0.3822,1.0221,10.1093,-0.0081,-0.0075,9.8066,-0.0091,-0.1251,0.1407,-3.69,-37.06,5.69,155.61,-89.32,7.89
9759,52.65431,-1.531484,184.22,18.07,8,298.4,23 / 23,975920,2019-11-06 10:58:03:263,-1.5074,0.2152,11.0839,0.0274,-0.0003,9.8066,0.12,-0.1871,-0.0041,-4.12,-37.06,5.44,149.17,-89.25,5.6
9760,52.65439,-1.531717,183.94,17.63,6,298.35,21 / 22,976020,2019-11-06 10:58:03:363,-0.6542,-0.1459,10.8172,0.0582,-0.0124,9.8064,0.0973,-0.0425,-0.0008,-3.62,-36.44,5.25,173.49,-89.42,31.78
9761,52.65439,-1.531717,183.94,17.63,6,298.35,21 / 22,976120,2019-11-06 10:58:03:463,-1.2346,0.3708,10.7836,0.034,0.0018,9.8066,-0.0545,0.1497,-0.1116,-3.69,-36.31,6.06,196.55,-89.4,51.09
9762,52.65439,-1.531717,183.94,17.63,6,298.35,21 / 22,976219,2019-11-06 10:58:03:562,0.8079,0.1771,10.0409,0.0417,-0.0339,9.8064,0.0781,0.1724,-0.0676,-3.94,-36.69,5.94,196.55,-89.4,51.09
9763,52.65439,-1.531717,183.94,17.63,6,298.35,21 / 22,976319,2019-11-06 10:58:03:662,1.4372,0.1076,9.7368,0.0205,-0.0054,9.8066,-0.0752,0.0258,-0.0693,-3.69,-37.06,6.19,226.49,-89.44,82.27
9764,52.65439,-1.531717,183.94,17.63,6,298.35,21 / 22,976419,2019-11-06 10:58:03:762,-2.0055,0.6319,9.5756,0.0199,0.0162,9.8065,0.0426,-0.0393,0.0521,-3.75,-36.25,6.06,226.91,-89.29,83.19
9765,52.65439,-1.531717,183.94,17.63,6,298.35,21 / 22,976519,2019-11-06 10:58:03:862,-0.8514,-0.3613,10.1141,0.042,-0.0024,9.8065,0.107,-0.1414,0.0243,-3.19,-36.44,5.81,226.91,-89.29,83.19
9766,52.65439,-1.531717,183.94,17.63,6,298.35,21 / 22,976619,2019-11-06 10:58:03:962,1.5638,-0.9729,9.6184,0.0223,0.0033,9.8065,-0.1094,-0.0709,0.0527,-3.44,-36.75,6.31,243.63,-89.1,94.63
9767,52.65439,-1.531717,183.94,17.63,6,298.35,21 / 22,976719,2019-11-06 10:58:04:062,0.6032,0.4266,9.8347,-0.0207,0.0136,9.8066,0.0737,0.0821,-0.0235,-3.56,-36.62,6.13,233.56,-89.01,91.32
9768,52.65439,-1.531717,183.94,17.63,6,298.35,21 / 22,976819,2019-11-06 10:58:04:162,-2.689,1.7377,8.7355,-0.0259,0.0324,9.8065,0.0115,0.0457,-0.0393,-3.25,-36.75,5.19,222.14,-88.99,77.39
9769,52.65439,-1.531717,183.94,17.63,6,298.35,21 / 22,976919,2019-11-06 10:58:04:262,-3.1227,1.8927,9.548,0.0199,-0.0188,9.8066,-0.1297,0.0655,-0.0612,-3.44,-36.62,5.56,222.14,-88.99,77.39
9770,52.654465,-1.531944,183.67,17.38,6,298.42,21 / 23,977020,2019-11-06 10:58:04:363,-0.0188,-0.8842,8.7273,0.0078,-0.0372,9.8065,-0.1789,-0.0895,0.2437,-3.25,-36.81,5.69,237.71,-88.95,89.17
9771,52.654465,-1.531944,183.67,17.38,6,298.42,21 / 23,977122,2019-11-06 10:58:04:465,1.5844,1.7064,9.7098,-0.0166,0.0189,9.8066,0.0924,0.1262,-0.0272,-3.44,-36.44,5.81,248.3,-88.99,99.89
9772,52.654465,-1.531944,183.67,17.38,6,298.42,21 / 23,977220,2019-11-06 10:58:04:563,2.7179,1.9201,8.9533,-0.0371,0.0264,9.8065,-0.1167,0.3993,-0.2568,-3.75,-36.75,5.63,248.3,-88.99,99.89
9773,52.654465,-1.531944,183.67,17.38,6,298.42,21 / 23,977320,2019-11-06 10:58:04:663,-3.7659,-0.799,9.9595,-0.0226,-0.0092,9.8066,-0.0653,0.0447,-0.1533,-3.56,-36.19,5.69,239.62,-89.33,89.3
9774,52.654465,-1.531944,183.67,17.38,6,298.42,21 / 23,977420,2019-11-06 10:58:04:763,-2.136,-1.6671,10.0493,0.003,0.0312,9.8066,0.0485,-0.2796,0.2599,-4.25,-36.37,5.25,226.54,-89.51,87.19
9775,52.654465,-1.531944,183.67,17.38,6,298.42,21 / 23,977520,2019-11-06 10:58:04:863,-0.8902,1.4434,9.5464,0.0053,0.0478,9.8065,-0.0594,-0.3529,0.1345,-1.75,-36.81,5.56,230.98,-89.27,72.72
9776,52.654465,-1.531944,183.67,17.38,6,298.42,21 / 23,977620,2019-11-06 10:58:04:963,1.3379,2.0011,10.1211,-0.0014,-0.0102,9.8066,0.1101,-0.2421,0.1338,-3.25,-36.56,6.44,230.98,-89.27,72.72
9777,52.654465,-1.531944,183.67,17.38,6,298.42,21 / 23,977720,2019-11-06 10:58:05:063,-3.0623,0.5731,10.1891,0.0112,-0.027,9.8066,0.0732,0.35,-0.1924,-3.56,-36.44,6.5,226.73,-89.42,78.35
9778,52.654465,-1.531944,183.67,17.38,6,298.42,21 / 23,977820,2019-11-06 10:58:05:163,-4.541,-0.2512,10.1602,0.0272,-0.0425,9.8065,-0.0052,0.312,-0.2501,-3.81,-36.87,5.31,245.64,-89.4,107.44
9779,52.654465,-1.531944,183.67,17.38,6,298.42,21 / 23,977920,2019-11-06 10:58:05:263,-2.6673,0.4066,9.2244,0.1043,-0.0086,9.8061,0.0664,-0.1151,0.1081,-3.69,-36.19,4.88,245.64,-89.4,107.44
9780,52.65454,-1.532165,183.51,17.06,6,297.94,23 / 23,978021,2019-11-06 10:58:05:364,1.713,3.6052,8.9655,0.0499,-0.0006,9.8064,0.0259,-0.5052,0.2968,-3.75,-36.69,5.19,257.08,-88.83,122.16
9781,52.65454,-1.532165,183.51,17.06,6,297.94,23 / 23,978120,2019-11-06 10:58:05:463,1.3073,2.8981,9.3398,0.0497,-0.0255,9.8064,-0.0814,0.1592,0.009,-3.44,-37.25,5.69,276.13,-88.57,130.59
9782,52.65454,-1.532165,183.51,17.06,6,297.94,23 / 23,978220,2019-11-06 10:58:05:563,-3.2747,-1.4434,10.009,-0.0162,-0.0725,9.8064,0.0626,0.359,-0.3084,-3.25,-36.81,5.38,288.13,-88.55,147.88
9783,52.65454,-1.532165,183.51,17.06,6,297.94,23 / 23,978320,2019-11-06 10:58:05:663,-0.9407,-0.9436,9.7604,0.0481,0.0079,9.8064,-0.0696,0.2642,-0.0939,-3.5,-36.19,5.63,288.13,-88.55,147.88
9784,52.65454,-1.532165,183.51,17.06,6,297.94,23 / 23,978420,2019-11-06 10:58:05:763,1.287,-0.89,9.4295,0.0106,0.0097,9.8066,0.0367,0.074,-0.0105,-4.12,-36.44,4.88,275.21,-88.29,143.48
9785,52.65454,-1.532165,183.51,17.06,6,297.94,23 / 23,978520,2019-11-06 10:58:05:863,2.515,0.4152,8.9768,0.0036,0.0499,9.8064,0.0448,-0.0357,0.0244,-3.19,-36.5,4.75,272.06,-88.27,133.75
9786,52.65454,-1.532165,183.51,17.06,6,297.94,23 / 23,978620,2019-11-06 10:58:05:963,0.6952,-1.2313,10.3373,-0.049,0.0051,9.8065,-0.0134,-0.0025,0.023,-3.44,-36.5,5.0,272.06,-88.27,133.75
9787,52.65454,-1.532165,183.51,17.06,6,297.94,23 / 23,978720,2019-11-06 10:58:06:063,0.1769,-1.5008,10.5645,-0.023,-0.0036,9.8066,-0.1025,0.0728,-0.0661,-3.94,-36.37,5.25,265.98,-88.56,132.98
9788,52.65454,-1.532165,183.51,17.06,6,297.94,23 / 23,978820,2019-11-06 10:58:06:163,-1.3786,1.3497,10.1389,-0.0157,0.0362,9.8065,-0.0504,0.0693,0.021,-3.37,-36.81,5.56,275.11,-88.84,128.08
9789,52.65454,-1.532165,183.51,17.06,6,297.94,23 / 23,978920,2019-11-06 10:58:06:263,-1.8818,2.2392,10.2455,-0.024,0.0558,9.8064,-0.045,-0.0134,-0.0343,-3.5,-36.25,5.44,275.11,-88.84,128.08
9790,52.654617,-1.532387,183.39,16.81,6,297.92,23 / 23,979025,2019-11-06 10:58:06:368,-0.6113,0.7544,9.2971,0.0192,0.0084,9.8066,0.0641,0.018,-0.0218,-3.62,-36.0,5.88,252.01,-88.96,110.65
9791,52.654617,-1.532387,183.39,16.81,6,297.92,23 / 23,979120,2019-11-06 10:58:06:463,-1.5679,1.2277,9.3067,0.0353,-0.0021,9.8065,-0.0929,-0.0355,0.0369,-3.69,-36.06,5.44,248.99,-88.76,114.15
9792,52.654617,-1.532387,183.39,16.81,6,297.92,23 / 23,979220,2019-11-06 10:58:06:563,-1.36,0.0713,9.392,0.0128,-0.0104,9.8066,0.0831,-0.0959,0.0574,-3.81,-36.69,5.25,248.99,-88.76,114.15
9793,52.654617,-1.532387,183.39,16.81,6,297.92,23 / 23,979320,2019-11-06 10:58:06:663,-0.1664,0.5417,9.6684,0.0214,-0.0197,9.8066,0.0489,-0.0792,-0.005,-3.31,-36.25,5.94,252.3,-88.71,117.87
9794,52.654617,-1.532387,183.39,16.81,6,297.92,23 / 23,979420,2019-11-06 10:58:06:763,0.7524,-1.2022,9.8921,0.0277,-0.0354,9.8065,0.0323,0.0515,0.0659,-3.12,-36.62,4.94,268.1,-88.6,127.98
9795,52.654617,-1.532387,183.39,16.81,6,297.92,23 / 23,979520,2019-11-06 10:58:06:863,-0.919,-2.0043,8.5498,-0.0101,0.0339,9.8065,0.055,0.2754,-0.1074,-3.69,-36.56,5.44,253.32,-88.64,119.54
9796,52.654617,-1.532387,183.39,16.81,6,297.92,23 / 23,979620,2019-11-06 10:58:06:963,0.6765,0.2388,9.627,-0.0252,0.0811,9.8063,-0.1387,0.0805,-0.1209,-3.0,-36.81,5.0,253.32,-88.64,119.54
9797,52.654617,-1.532387,183.39,16.81,6,297.92,23 / 23,979719,2019-11-06 10:58:07:062,0.5722,1.2668,9.3346,-0.0448,0.0229,9.8064,0.161,-0.0165,0.0504,-3.69,-36.94,5.31,234.04,-88.55,99.47
9798,52.654617,-1.532387,183.39,16.81,6,297.92,23 / 23,979819,2019-11-06 10:58:07:162,-1.7054,-1.6322,9.1474,-0.0852,-0.0088,9.8062,-0.0023,-0.223,0.0463,-3.25,-36.37,4.81,229.69,-88.96,85.56
9799,52.654617,-1.532387,183.39,16.81,6,297.92,23 / 23,979920,2019-11-06 10:58:07:263,-1.0427,-3.3771,10.1352,0.0081,0.0204,9.8066,0.0311,-0.0719,0.045,-3.44,-36.19,4.63,229.69,-88.96,85.56
9800,52.65469,-1.532605,183.27,16.88,8,297.76,22 / 23,980020,2019-11-06 10:58:07:363,0.0942,-1.7402,9.5603,0.0,0.0224,9.8065,-0.0013,0.1953,-0.1341,-3.44,-36.19,5.25,219.65,-88.84,82.57
9801,52.65469,-1.532605,183.27,16.88,8,297.76,22 / 23,980120,2019-11-06 10:58:07:463,3.1067,-0.1379,8.765,0.0154,-0.0027,9.8066,-0.1155,0.3011,-0.1953,-3.5,-36.37,5.5,226.71,-88.71,78.31
9802,52.65469,-1.532605,183.27,16.88,8,297.76,22 / 23,980220,2019-11-06 10:58:07:563,0.0705,-0.6628,8.3424,-0.0175,-0.0025,9.8066,-0.019,0.1337,-0.0462,-3.56,-36.5,6.0,218.09,-88.79,75.49
9803,52.65469,-1.532605,183.27,16.88,8,297.76,22 / 23,980320,2019-11-06 10:58:07:663,-0.9784,-1.7893,8.8848,-0.0208,0.0182,9.8066,0.0437,-0.3379,0.178,-3.56,-36.56,5.38,218.09,-88.79,75.49
9804,52.65469,-1.532605,183.27,16.88,8,297.76,22 / 23,980420,2019-11-06 10:58:07:763,-1.8064,-0.8743,10.6897,0.0119,0.0202,9.8066,0.1278,-0.2467,0.0335,-3.0,-36.75,4.81,214.28,-88.72,69.82
9805,52.65469,-1.532605,183.27,16.88,8,297.76,22 / 23,980521,2019-11-06 10:58:07:864,3.2289,1.8567,9.5394,0.0408,0.0215,9.8065,-0.0671,-0.0147,0.0197,-3.69,-36.69,5.44,211.33,-88.48,74.57
9806,52.65469,-1.532605,183.27,16.88,8,297.76,22 / 23,980620,2019-11-06 10:58:07:963,1.8845,0.18,9.613,0.0506,0.04,9.8064,-0.0801,0.2877,-0.1763,-3.31,-36.31,5.31,211.33,-88.48,74.57
9807,52.65469,-1.532605,183.27,16.88,8,297.76,22 / 23,980720,2019-11-06 10:58:08:063,-0.5056,-3.7914,9.3769,0.0134,0.0432,9.8065,-0.1439,0.0501,-0.1291,-3.12,-35.56,4.88,220.1,-88.12,78.55
9808,52.65469,-1.532605,183.27,16.88,8,297.76,22 / 23,980820,2019-11-06 10:58:08:163,0.1286,-4.0885,9.6327,0.0091,0.0767,9.8063,-0.077,-0.2648,0.1383,-2.62,-36.06,4.44,207.79,-87.73,72.29
9809,52.65469,-1.532605,183.27,16.88,8,297.76,22 / 23,980920,2019-11-06 10:58:08:263,1.6048,-2.9786,9.7603,-0.0223,0.0971,9.8061,0.0441,-0.3521,0.0014,-2.31,-35.69,5.31,212.62,-87.26,64.31
9810,52.65476,-1.532822,183.14,17.32,6,298.63,23 / 23,981020,2019-11-06 10:58:08:363,1.8273,2.512,9.6704,0.0338,0.0281,9.8065,0.0078,-0.0798,0.0851,-2.44,-35.0,5.69,215.95,-87.0,64.13
9811,52.65476,-1.532822,183.14,17.32,6,298.63,23 / 23,981120,2019-11-06 10:58:08:463,3.1981,-2.0759,10.0375,0.0733,0.0238,9.8063,0.0182,0.3766,-0.261,-2.75,-35.37,4.81,215.95,-87.0,64.13
9812,52.65476,-1.532822,183.14,17.32,6,298.63,23 / 23,981220,2019-11-06 10:58:08:563,0.4229,-3.4701,10.7174,0.0322,-0.0247,9.8065,-0.0618,0.2805,-0.1379,-2.37,-35.94,4.56,211.43,-86.59,72.0
9813,52.65476,-1.532822,183.14,17.32,6,298.63,23 / 23,981320,2019-11-06 10:58:08:663,-3.0027,0.8667,11.2172,0.0124,0.0612,9.8064,-0.2435,0.0512,-0.0368,-1.94,-35.87,5.25,218.68,-86.47,75.33
9814,52.65476,-1.532822,183.14,17.32,6,298.63,23 / 23,981420,2019-11-06 10:58:08:763,-0.9829,3.6047,9.4522,0.0446,0.136,9.8055,0.0185,-0.0121,-0.1537,-1.62,-35.56,5.25,218.68,-86.47,75.33
9815,52.65476,-1.532822,183.14,17.32,6,298.63,23 / 23,981519,2019-11-06 10:58:08:862,-1.9855,3.7938,9.6179,0.0295,0.0994,9.806,-0.1721,-0.1587,0.0342,-1.19,-35.75,5.44,220.13,-85.68,71.43
9816,52.65476,-1.532822,183.14,17.32,6,298.63,23 / 23,981620,2019-11-06 10:58:08:963,-1.7516,-1.8319,9.4124,-0.0137,0.0051,9.8066,0.0114,-0.0542,0.1418,-0.44,-35.31,5.0,223.56,-85.07,68.0
9817,52.65476,-1.532822,183.14,17.32,6,298.63,23 / 23,981719,2019-11-06 10:58:09:062,-1.1913,-0.71,9.8785,-0.0239,0.0272,9.8066,-0.0215,0.0932,-0.2105,-1.12,-35.69,4.75,214.25,-85.05,65.56
9818,52.65476,-1.532822,183.14,17.32,6,298.63,23 / 23,981820,2019-11-06 10:58:09:163,2.1728,0.0629,10.2742,0.0291,0.0346,9.8065,-0.0644,0.3796,-0.1267,-1.06,-35.69,4.88,214.25,-85.05,65.56
9819,52.65476,-1.532822,183.14,17.32,6,298.63,23 / 23,981920,2019-11-06 10:58:09:263,3.4218,-0.5937,9.2525,0.0371,-0.0148,9.8065,0.1221,-0.2105,0.1946,-1.31,-35.19,5.38,214.13,-84.78,65.85
9820,52.65484,-1.533047,182.96,17.95,6,299.18,22 / 22,982020,2019-11-06 10:58:09:363,-0.1496,-0.3169,9.5036,0.0395,-0.026,9.8065,-0.0205,-0.2599,0.1388,-0.75,-35.0,5.38,216.06,-84.77,68.89
9821,52.65484,-1.533047,182.96,17.95,6,299.18,22 / 22,982120,2019-11-06 10:58:09:463,-2.3325,-0.4895,9.7377,-0.049,0.044,9.8064,0.0006,0.1484,-0.1655,-0.87,-35.5,4.94,216.06,-84.77,68.89
9822,52.65484,-1.533047,182.96,17.95,6,299.18,22 / 22,982220,2019-11-06 10:58:09:563,-0.175,-1.9734,9.6505,-0.0049,0.0191,9.8066,-0.0721,-0.0965,0.1465,-1.19,-34.87,4.81,208.72,-84.72,64.72
9823,52.65484,-1.533047,182.96,17.95,6,299.18,22 / 22,982320,2019-11-06 10:58:09:663,0.8123,-1.6305,10.0804,0.011,0.0323,9.8065,0.0809,-0.1319,-0.0337,-0.69,-34.81,5.13,212.52,-84.52,64.37
9824,52.65484,-1.533047,182.96,17.95,6,299.18,22 / 22,982421,2019-11-06 10:58:09:764,-0.3722,-0.7496,10.315,0.0119,-0.0221,9.8065,-0.0226,0.0346,-0.0192,-0.69,-35.37,5.88,212.52,-84.52,64.37
9825,52.65484,-1.533047,182.96,17.95,6,299.18,22 / 22,982520,2019-11-06 10:58:09:863,2.4307,-0.0189,9.8391,0.0088,-0.0341,9.8065,0.036,-0.2184,0.068,-1.12,-35.12,4.88,213.55,-84.59,65.72
9826,52.65484,-1.533047,182.96,17.95,6,299.18,22 / 22,982620,2019-11-06 10:58:09:963,1.9513,-0.7176,10.0174,-0.0075,0.021,9.8065,-0.0223,-0.4033,0.299,-1.37,-35.62,4.44,209.87,-84.73,67.39
9827,52.65484,-1.533047,182.96,17.95,6,299.18,22 / 22,982720,2019-11-06 10:58:10:063,-1.5808,-1.5771,10.3856,-0.0351,0.0155,9.8065,0.015,-0.2284,0.1063,-0.87,-35.31,5.19,213.45,-84.75,64.95
9828,52.65484,-1.533047,182.96,17.95,6,299.18,22 / 22,982820,2019-11-06 10:58:10:163,-1.5193,-2.7864,10.5318,-0.0446,-0.0435,9.8064,-0.0945,0.3703,-0.1043,-1.44,-35.56,4.88,213.45,-84.75,64.95
9829,52.65484,-1.533047,182.96,17.95,6,299.18,22 / 22,982920,2019-11-06 10:58:10:263,1.5904,0.7648,10.4213,-0.0087,-0.0136,9.8065,-0.019,0.2552,-0.1736,-1.19,-35.25,5.44,213.79,-85.1,64.04
9830,52.654926,-1.533282,182.89,18.57,6,299.98,23 / 24,983021,2019-11-06 10:58:10:364,1.8756,0.1229,10.643,-0.0081,-0.0175,9.8066,0.1074,-0.0478,0.0307,-1.31,-35.56,5.31,214.21,-85.24,64.65
9831,52.654926,-1.533282,182.89,18.57,6,299.98,23 / 24,983120,2019-11-06 10:58:10:463,-0.6805,-3.3379,10.3682,-0.0698,-0.0181,9.8064,-0.1129,-0.2204,0.1861,-2.0,-35.31,5.06,214.21,-85.24,64.65
9832,52.654926,-1.533282,182.89,18.57,6,299.98,23 / 24,983220,2019-11-06 10:58:10:563,-0.0492,-0.9802,9.6408,-0.0186,-0.0066,9.8065,-0.0003,-0.2829,0.1384,-1.56,-35.06,5.38,206.13,-85.55,61.07
9833,52.654926,-1.533282,182.89,18.57,6,299.98,23 / 24,983320,2019-11-06 10:58:10:663,0.6117,0.888,10.3078,0.0017,0.0086,9.8066,-0.0748,-0.258,0.1222,-1.62,-34.31,5.63,208.6,-85.67,58.18
9834,52.654926,-1.533282,182.89,18.57,6,299.98,23 / 24,983420,2019-11-06 10:58:10:763,-0.8443,-1.51,9.579,0.0222,0.0171,9.8066,0.0479,-0.0626,0.0678,-1.62,-35.37,4.19,200.28,-85.52,59.03
9835,52.654926,-1.533282,182.89,18.57,6,299.98,23 / 24,983520,2019-11-06 10:58:10:863,-5.0015,-4.7451,10.6624,0.0398,0.0516,9.8064,-0.0804,0.4308,-0.2436,-1.62,-35.56,4.13,200.28,-85.52,59.03
9836,52.654926,-1.533282,182.89,18.57,6,299.98,23 / 24,983620,2019-11-06 10:58:10:963,-4.5131,-3.9451,10.4187,-0.0282,-0.0171,9.8065,-0.0231,0.0535,-0.0259,-1.75,-35.06,3.56,207.24,-85.15,60.38
9837,52.654926,-1.533282,182.89,18.57,6,299.98,23 / 24,983722,2019-11-06 10:58:11:065,3.9228,3.5268,9.538,-0.0757,-0.0588,9.8061,0.1572,-0.576,0.1836,-1.87,-35.37,4.25,199.39,-85.65,57.26
9838,52.654926,-1.533282,182.89,18.57,6,299.98,23 / 24,983820,2019-11-06 10:58:11:163,2.7866,0.6424,10.1134,-0.0391,-0.0133,9.8065,-0.0126,-0.9906,0.6089,-1.75,-35.5,3.94,199.39,-85.65,57.26
9839,52.654926,-1.533282,182.89,18.57,6,299.98,23 / 24,983920,2019-11-06 10:58:11:263,-2.1407,-4.1451,10.3968,0.0635,0.105,9.8058,0.0438,-0.4636,0.2411,-1.87,-35.69,3.94,197.96,-85.8,54.67
9840,52.65502,-1.533525,182.89,18.99,6,301.73,23 / 23,984020,2019-11-06 10:58:11:363,-4.7727,-5.7791,10.0456,-0.0807,-0.0212,9.8062,0.1551,0.4348,-0.3472,-1.75,-35.87,4.13,197.88,-85.1,56.58
9841,52.65502,-1.533525,182.89,18.99,6,301.73,23 / 23,984120,2019-11-06 10:58:11:463,2.9263,1.6104,9.7544,-0.0635,0.013,9.8064,0.1992,-0.9036,0.3513,-2.12,-35.94,3.81,195.26,-85.12,52.15
9842,52.65502,-1.533525,182.89,18.99,6,301.73,23 / 23,984220,2019-11-06 10:58:11:563,4.9206,3.1368,10.1488,0.0127,-0.0606,9.8064,0.0223,-0.6971,0.5028,-2.31,-35.81,4.56,195.26,-85.12,52.15
9843,52.65502,-1.533525,182.89,18.99,6,301.73,23 / 23,984320,2019-11-06 10:58:11:663,0.6126,-0.9956,9.9999,0.0217,0.029,9.8065,0.0328,0.0108,-0.0889,-2.37,-35.75,3.81,197.15,-85.44,54.22
9844,52.65502,-1.533525,182.89,18.99,6,301.73,23 / 23,984420,2019-11-06 10:58:11:763,-4.2556,-2.904,9.1178,0.006,0.0161,9.8066,-0.0114,0.5116,-0.381,-2.5,-35.37,3.38,191.56,-85.34,54.3
9845,52.65502,-1.533525,182.89,18.99,6,301.73,23 / 23,984520,2019-11-06 10:58:11:863,-3.5389,-2.6928,8.9055,-0.0391,-0.0064,9.8065,-0.0974,-0.0016,0.1042,-2.69,-35.69,3.5,191.56,-85.34,54.3
9846,52.65502,-1.533525,182.89,18.99,6,301.73,23 / 23,984620,2019-11-06 10:58:11:963,-1.39,3.1101,9.5885,0.0088,0.01,9.8066,0.1509,-0.5245,0.1729,-2.31,-35.75,2.81,183.93,-85.42,51.59
9847,52.65502,-1.533525,182.89,18.99,6,301.73,23 / 23,984719,2019-11-06 10:58:12:062,2.1758,-1.6725,9.8423,0.0291,0.0032,9.8065,0.0849,-0.4438,0.2734,-2.37,-35.56,3.5,195.58,-85.36,52.17
9848,52.65502,-1.533525,182.89,18.99,6,301.73,23 / 23,984820,2019-11-06 10:58:12:163,1.9711,-2.0525,9.4953,-0.0111,0.0209,9.8066,-0.0703,0.0397,-0.0461,-2.94,-35.62,3.81,188.89,-85.26,51.02
9849,52.65502,-1.533525,182.89,18.99,6,301.73,23 / 23,984920,2019-11-06 10:58:12:263,-2.7382,-2.6754,8.8075,-0.0888,-0.0483,9.8061,0.0766,0.2026,-0.1728,-3.06,-35.37,3.25,188.89,-85.26,51.02
9850,52.655117,-1.533751,182.85,18.89,6,305.05,24 / 24,985020,2019-11-06 10:58:12:363,2.5542,-0.6245,9.8467,-0.0236,-0.0411,9.8065,0.0669,-0.135,0.0046,-3.5,-35.87,2.81,179.94,-85.59,44.91
9851,52.655117,-1.533751,182.85,18.89,6,305.05,24 / 24,985120,2019-11-06 10:58:12:463,0.6216,0.4089,10.0363,-0.0055,-0.0227,9.8066,0.0506,-0.6139,0.3552,-3.37,-35.62,3.25,177.74,-86.05,41.42
9852,52.655117,-1.533751,182.85,18.89,6,305.05,24 / 24,985220,2019-11-06 10:58:12:563,3.4552,0.0347,9.0351,-0.0238,-0.0218,9.8066,0.0704,-0.4274,0.2852,-3.87,-36.44,3.38,177.74,-86.05,41.42
9853,52.655117,-1.533751,182.85,18.89,6,305.05,24 / 24,985320,2019-11-06 10:58:12:663,-1.6361,-4.1845,9.6953,-0.0353,-0.0004,9.8066,-0.1751,0.4056,-0.1713,-3.81,-35.94,3.38,170.61,-86.17,39.26
9854,52.655117,-1.533751,182.85,18.89,6,305.05,24 / 24,985420,2019-11-06 10:58:12:763,-4.7153,-4.8452,10.0147,0.0119,-0.0021,9.8066,-0.0175,0.5284,-0.2907,-3.81,-36.0,2.69,166.15,-86.23,32.8
9855,52.655117,-1.533751,182.85,18.89,6,305.05,24 / 24,985520,2019-11-06 10:58:12:863,0.314,-1.4084,9.0196,-0.0065,-0.0449,9.8065,0.0143,0.0335,-0.1015,-4.56,-35.87,2.75,159.68,-86.47,31.18
9856,52.655117,-1.533751,182.85,18.89,6,305.05,24 / 24,985620,2019-11-06 10:58:12:963,1.842,1.3804,9.1082,-0.0535,-0.0891,9.8061,-0.075,-0.6235,0.5601,-4.31,-35.87,2.63,159.68,-86.47,31.18
9857,52.655117,-1.533751,182.85,18.89,6,305.05,24 / 24,985720,2019-11-06 10:58:13:063,2.2615,-0.6264,10.6471,-0.0477,-0.0646,9.8063,0.1081,0.3601,-0.3138,-4.75,-35.94,2.38,158.04,-86.82,22.6
9858,52.655117,-1.533751,182.85,18.89,6,305.05,24 / 24,985820,2019-11-06 10:58:13:163,1.8541,-0.2077,10.1921,-0.0569,-0.0906,9.806,-0.1915,0.3401,-0.1207,-4.94,-36.0,2.38,137.26,-87.14,12.4
9859,52.655117,-1.533751,182.85,18.89,6,305.05,24 / 24,985920,2019-11-06 10:58:13:263,-2.0114,-4.9456,11.5087,-0.0131,0.0136,9.8066,-0.0867,-0.0905,0.1023,-5.5,-36.75,2.13,137.26,-87.14,12.4
9860,52.655224,-1.533973,182.78,19.06,6,309.25,24 / 24,986020,2019-11-06 10:58:13:363,-1.7247,-4.7541,11.1288,-0.0084,-0.0831,9.8062,0.1934,-0.5105,0.1815,-5.81,-36.5,2.44,125.2,-87.3,4.13
9861,52.655224,-1.533973,182.78,19.06,6,309.25,24 / 24,986120,2019-11-06 10:58:13:463,2.4748,0.3084,10.1262,-0.0014,-0.0055,9.8066,-0.0631,-0.008,-0.0195,-5.81,-36.44,2.44,125.2,-87.3,4.13
9862,52.655224,-1.533973,182.78,19.06,6,309.25,24 / 24,986220,2019-11-06 10:58:13:563,3.4458,1.1177,10.4219,0.0032,-0.0209,9.8066,0.0202,0.5374,-0.3767,-5.62,-36.56,2.81,128.56,-87.41,0.79
9863,52.655224,-1.533973,182.78,19.06,6,309.25,24 / 24,986320,2019-11-06 10:58:13:663,1.3152,-2.3888,10.845,0.0122,0.0377,9.8065,-0.2303,0.5063,-0.1369,-5.69,-36.62,2.25,124.73,-87.39,3.64
9864,52.655224,-1.533973,182.78,19.06,6,309.25,24 / 24,986420,2019-11-06 10:58:13:763,-0.8231,-4.6031,11.9753,0.0107,0.064,9.8064,-0.3171,0.5466,-0.1774,-5.5,-36.5,1.5,124.73,-87.39,3.64
9865,52.655224,-1.533973,182.78,19.06,6,309.25,24 / 24,986519,2019-11-06 10:58:13:862,3.0422,3.5256,10.0896,0.0088,-0.0647,9.8064,0.1185,-0.43,0.161,-6.19,-36.25,1.44,129.64,-87.4,9.44
9866,52.655224,-1.533973,182.78,19.06,6,309.25,24 / 24,986619,2019-11-06 10:58:13:962,3.9818,2.7151,10.025,0.0066,0.0032,9.8066,-0.0105,-0.8061,0.5264,-5.87,-36.19,1.63,118.71,-87.8,-0.76
9867,52.655224,-1.533973,182.78,19.06,6,309.25,24 / 24,986719,2019-11-06 10:58:14:062,-0.6924,-3.7123,11.4821,0.0193,0.0471,9.8065,0.1562,-0.4187,0.1321,-5.69,-36.19,1.81,125.67,-87.75,6.78
9868,52.655224,-1.533973,182.78,19.06,6,309.25,24 / 24,986820,2019-11-06 10:58:14:163,-1.9251,-3.7431,10.8714,0.0271,0.0408,9.8065,0.1376,0.1166,-0.2627,-6.06,-37.0,2.13,125.67,-87.75,6.78
9869,52.655224,-1.533973,182.78,19.06,6,309.25,24 / 24,986920,2019-11-06 10:58:14:263,0.3443,-0.9115,10.291,0.0145,0.0068,9.8066,-0.0981,0.3033,-0.2708,-5.56,-36.75,1.81,136.54,-87.67,18.7
9870,52.655354,-1.534197,182.68,19.44,6,312.95,24 / 24,987020,2019-11-06 10:58:14:363,1.3904,1.6124,9.6596,0.0523,0.0368,9.8063,0.2502,-0.0797,-0.0669,-5.25,-36.31,1.75,147.93,-87.69,27.93
9871,52.655354,-1.534197,182.68,19.44,6,312.95,24 / 24,987120,2019-11-06 10:58:14:463,-0.3934,-0.8614,9.8241,0.0271,0.0436,9.8065,-0.1104,-0.2874,0.1733,-5.69,-36.75,2.06,147.93,-87.69,27.93
9872,52.655354,-1.534197,182.68,19.44,6,312.95,24 / 24,987220,2019-11-06 10:58:14:563,-2.4808,-2.8231,9.9043,0.015,0.0062,9.8065,-0.0145,-0.3571,0.2719,-5.56,-36.5,1.5,145.63,-87.55,34.24
9873,52.655354,-1.534197,182.68,19.44,6,312.95,24 / 24,987320,2019-11-06 10:58:14:663,-0.2989,-0.8426,9.6842,-0.0055,-0.0209,9.8066,-0.0784,0.2187,-0.1291,-5.44,-36.94,1.63,151.51,-87.63,31.92
9874,52.655354,-1.534197,182.68,19.44,6,312.95,24 / 24,987420,2019-11-06 10:58:14:763,2.2344,2.1495,9.4922,-0.0407,-0.0322,9.8064,-0.0979,0.4527,-0.1542,-5.25,-36.5,1.63,145.31,-87.66,24.59
9875,52.655354,-1.534197,182.68,19.44,6,312.95,24 / 24,987520,2019-11-06 10:58:14:863,0.3683,0.4727,9.3608,0.0156,0.0164,9.8066,0.0251,0.2795,-0.2087,-5.69,-36.06,1.69,145.31,-87.66,24.59
9876,52.655354,-1.534197,182.68,19.44,6,312.95,24 / 24,987620,2019-11-06 10:58:14:963,1.594,-3.0165,9.3105,-0.0045,0.0323,9.8065,0.0117,-0.1026,0.0143,-5.81,-36.56,1.44,137.04,-87.63,27.72
9877,52.655354,-1.534197,182.68,19.44,6,312.95,24 / 24,987720,2019-11-06 10:58:15:063,-1.3833,-2.2514,9.5014,-0.052,0.0383,9.8064,0.0204,-0.2884,0.1985,-5.81,-36.69,1.81,144.11,-87.26,26.26
9878,52.655354,-1.534197,182.68,19.44,6,312.95,24 / 24,987820,2019-11-06 10:58:15:163,-0.2437,0.3652,9.4374,-0.0231,-0.0527,9.8064,0.0561,0.0463,-0.1076,-5.94,-36.69,1.56,144.11,-87.26,26.26
9879,52.655354,-1.534197,182.68,19.44,6,312.95,24 / 24,987920,2019-11-06 10:58:15:263,1.3498,0.8482,9.6643,-0.0167,-0.026,9.8065,-0.0392,0.2257,-0.0796,-5.69,-36.25,1.38,142.25,-87.41,19.83
9880,52.655476,-1.5344,182.59,19.53,6,313.91,24 / 24,988020,2019-11-06 10:58:15:363,-0.8214,-1.5433,10.2704,-0.0051,-0.0342,9.8065,-0.0588,0.2081,-0.0447,-5.37,-36.37,0.81,129.12,-87.52,14.13
9881,52.655476,-1.5344,182.59,19.53,6,313.91,24 / 24,988120,2019-11-06 10:58:15:463,-1.7525,-0.6918,9.9191,0.0023,-0.0548,9.8064,0.0389,-0.2256,0.1112,-5.81,-37.19,1.44,119.66,-87.72,8.08
9882,52.655476,-1.5344,182.59,19.53,6,313.91,24 / 24,988220,2019-11-06 10:58:15:563,-0.6727,-1.117,9.7947,-0.0049,-0.0243,9.8065,-0.0558,-0.117,0.1397,-6.69,-36.81,1.19,119.66,-87.72,8.08
9883,52.655476,-1.5344,182.59,19.53,6,313.91,24 / 24,988319,2019-11-06 10:58:15:662,-0.1279,-0.4005,9.9081,0.0083,-0.0138,9.8066,0.0173,-0.0244,-0.0525,-6.69,-37.06,1.0,112.43,-87.78,3.5
9884,52.655476,-1.5344,182.59,19.53,6,313.91,24 / 24,988420,2019-11-06 10:58:15:763,0.1033,-0.426,10.3851,0.0257,-0.0195,9.8066,0.0949,-0.028,-0.0171,-6.25,-36.75,0.88,113.1,-87.96,2.15
9885,52.655476,-1.5344,182.59,19.53,6,313.91,24 / 24,988519,2019-11-06 10:58:15:862,-0.9465,-0.8587,9.9878,-0.0276,0.0097,9.8066,-0.0451,0.1963,-0.054,-6.62,-36.31,0.81,113.1,-87.96,2.15
9886,52.655476,-1.5344,182.59,19.53,6,313.91,24 / 24,988620,2019-11-06 10:58:15:963,-0.2004,0.4021,9.7055,-0.0084,0.0446,9.8065,-0.0136,0.0443,-0.1082,-6.25,-36.81,0.81,105.15,-87.79,1.86
9887,52.655476,-1.5344,182.59,19.53,6,313.91,24 / 24,988720,2019-11-06 10:58:16:063,0.9841,0.5943,10.0743,0.0127,0.0305,9.8065,-0.0681,-0.1478,0.15,-6.37,-36.25,0.88,117.88,-87.8,6.86
9888,52.655476,-1.5344,182.59,19.53,6,313.91,24 / 24,988820,2019-11-06 10:58:16:163,1.6318,0.7679,9.4403,0.0075,-0.0146,9.8066,0.1572,-0.3136,0.1101,-6.44,-36.62,0.69,116.45,-87.88,5.38
9889,52.655476,-1.5344,182.59,19.53,6,313.91,24 / 24,988920,2019-11-06 10:58:16:263,-1.7902,-3.2018,10.5809,0.0134,-0.0272,9.8065,-0.1119,0.1889,-0.0509,-6.37,-35.94,0.94,116.45,-87.88,5.38
9890,52.655605,-1.534606,182.47,19.28,6,314.58,24 / 24,989020,2019-11-06 10:58:16:363,-1.6376,-3.222,10.2467,0.0103,0.0152,9.8066,-0.0581,0.3754,-0.1463,-6.94,-35.81,0.69,109.91,-88.02,2.27
9891,52.655605,-1.534606,182.47,19.28,6,314.58,24 / 24,989120,2019-11-06 10:58:16:463,0.2424,3.7274,9.5157,0.0335,0.0644,9.8063,0.0799,0.1163,-0.1117,-6.31,-36.44,0.56,123.78,-88.03,14.59
9892,52.655605,-1.534606,182.47,19.28,6,314.58,24 / 24,989220,2019-11-06 10:58:16:563,1.9072,3.2026,9.5573,0.0024,-0.0636,9.8064,0.0799,0.1163,-0.1117,-6.25,-36.25,0.94,123.78,-88.03,14.59
9893,52.655605,-1.534606,182.47,19.28,6,314.58,24 / 24,989320,2019-11-06 10:58:16:663,-0.3177,-0.1924,10.5381,-0.0011,-0.0475,9.8064,0.0185,-0.1924,0.1039,-6.06,-36.69,1.56,114.19,-88.22,4.83
9894,52.655605,-1.534606,182.47,19.28,6,314.58,24 / 24,989419,2019-11-06 10:58:16:762,-1.6601,-5.4634,9.7363,0.0027,0.0243,9.8066,-0.0294,-0.4847,0.2965,-6.56,-36.44,1.25,99.47,-88.35,-6.95
9895,52.655605,-1.534606,182.47,19.28,6,314.58,24 / 24,989520,2019-11-06 10:58:16:863,0.1576,-0.7217,9.3264,-0.0003,0.1238,9.8058,0.0222,-0.5873,0.3911,-5.75,-36.5,0.25,115.41,-88.09,15.03
9896,52.655605,-1.534606,182.47,19.28,6,314.58,24 / 24,989620,2019-11-06 10:58:16:963,1.2778,4.3943,9.5576,-0.01,0.0311,9.8066,0.0222,-0.5873,0.3911,-6.19,-36.56,0.75,115.41,-88.09,15.03
9897,52.655605,-1.534606,182.47,19.28,6,314.58,24 / 24,989720,2019-11-06 10:58:17:063,1.591,1.905,9.0416,-0.0174,-0.0339,9.8065,0.0059,-0.5,0.2977,-6.37,-36.69,0.88,124.99,-87.88,14.91
9898,52.655605,-1.534606,182.47,19.28,6,314.58,24 / 24,989820,2019-11-06 10:58:17:163,-1.7051,-5.3068,10.7135,-0.0424,-0.061,9.8063,0.0519,-0.3065,0.1226,-6.31,-37.06,0.25,106.24,-87.84,3.33
9899,52.655605,-1.534606,182.47,19.28,6,314.58,24 / 24,989920,2019-11-06 10:58:17:263,-0.7799,-3.5599,10.5356,0.0414,-0.0132,9.8065,0.0064,0.1198,-0.0266,-6.25,-36.5,0.38,106.24,-87.84,3.33
9900,52.655727,-1.534804,182.34,18.99,6,314.86,24 / 24,990020,2019-11-06 10:58:17:363,-0.1106,3.3403,10.7447,0.0281,0.0152,9.8065,0.0064,0.1198,-0.0266,-6.37,-36.87,0.63,114.3,-88.1,4.28
9901,52.655727,-1.534804,182.34,18.99,6,314.86,24 / 24,990120,2019-11-06 10:58:17:463,0.6898,1.1009,9.6675,0.0386,-0.0566,9.8063,-0.0443,0.5748,-0.3195,-7.06,-36.87,1.0,114.3,-88.1,4.28
9902,52.655727,-1.534804,182.34,18.99,6,314.86,24 / 24,990220,2019-11-06 10:58:17:563,-0.332,-2.7632,10.401,-0.0065,0.0325,9.8066,-0.09,0.626,-0.2795,-6.81,-37.06,1.81,115.65,-88.31,1.94
9903,52.655727,-1.534804,182.34,18.99,6,314.86,24 / 24,990320,2019-11-06 10:58:17:663,-1.5543,-3.1204,10.1747,0.0065,0.0461,9.8065,-0.0331,0.3597,-0.1806,-6.12,-36.44,1.06,119.02,-88.21,10.25
9904,52.655727,-1.534804,182.34,18.99,6,314.86,24 / 24,990420,2019-11-06 10:58:17:763,1.4169,1.923,8.7109,-0.0287,-0.0247,9.8065,-0.0331,0.3597,-0.1806,-6.37,-36.56,0.88,119.02,-88.21,10.25
9905,52.655727,-1.534804,182.34,18.99,6,314.86,24 / 24,990520,2019-11-06 10:58:17:863,1.4586,1.9503,8.669,-0.0425,-0.014,9.8065,-0.0517,0.064,-0.0223,-6.19,-36.75,0.63,111.25,-88.12,3.92
9906,52.655727,-1.534804,182.34,18.99,6,314.86,24 / 24,990620,2019-11-06 10:58:17:963,-0.3784,0.8503,9.2639,-0.0681,-0.0058,9.8064,-0.0517,0.064,-0.0223,-6.06,-36.62,0.63,111.69,-87.75,-0.57
9907,52.655727,-1.534804,182.34,18.99,6,314.86,24 / 24,990720,2019-11-06 10:58:18:063,0.3411,-2.9255,10.8119,-0.0095,0.003,9.8066,0.0016,-0.0916,0.0605,-6.25,-36.94,0.63,111.9,-87.7,-0.67
9908,52.655727,-1.534804,182.34,18.99,6,314.86,24 / 24,990820,2019-11-06 10:58:18:163,2.3952,-2.9447,11.1783,-0.0324,-0.033,9.8065,0.0889,-0.2397,0.0925,-6.06,-36.31,0.44,111.9,-87.7,-0.67
9909,52.655727,-1.534804,182.34,18.99,6,314.86,24 / 24,990920,2019-11-06 10:58:18:263,0.8561,2.1328,10.4654,-0.0174,-0.0372,9.8065,0.0636,-0.3065,0.2417,-6.12,-36.81,1.0,107.09,-87.58,-6.59
9910,52.65585,-1.534997,182.23,18.65,6,314.9,24 / 24,991020,2019-11-06 10:58:18:363,-0.4805,-0.7692,9.6471,0.0094,-0.0627,9.8064,-0.0178,-0.3611,0.1996,-7.12,-36.62,0.75,95.14,-87.72,-14.99
9911,52.65585,-1.534997,182.23,18.65,6,314.9,24 / 24,991120,2019-11-06 10:58:18:463,-1.9395,-0.934,10.3937,0.0473,0.0553,9.8063,0.0033,-0.3385,0.1898,-7.12,-36.31,1.38,95.14,-87.72,-14.99
9912,52.65585,-1.534997,182.23,18.65,6,314.9,24 / 24,991219,2019-11-06 10:58:18:562,-1.0678,-5.1024,10.5088,0.0272,0.018,9.8066,0.0033,-0.3385,0.1898,-6.69,-36.19,0.88,103.1,-87.93,-5.34
9913,52.65585,-1.534997,182.23,18.65,6,314.9,24 / 24,991319,2019-11-06 10:58:18:662,1.0257,2.1282,10.2289,-0.0346,0.0089,9.8066,-0.0611,-0.1618,-0.0609,-6.62,-36.25,0.81,104.21,-87.72,-5.22
9914,52.65585,-1.534997,182.23,18.65,6,314.9,24 / 24,991420,2019-11-06 10:58:18:763,1.9209,6.9794,9.294,-0.0233,-0.078,9.8063,0.0007,0.4757,-0.3519,-6.69,-36.44,1.0,104.21,-87.72,-5.22
9915,52.65585,-1.534997,182.23,18.65,6,314.9,24 / 24,991520,2019-11-06 10:58:18:863,-0.259,2.0644,10.1137,0.0052,0.0104,9.8066,-0.0698,0.7794,-0.4242,-6.37,-36.87,0.75,87.7,-87.66,-16.91
9916,52.65585,-1.534997,182.23,18.65,6,314.9,24 / 24,991621,2019-11-06 10:58:18:964,-0.6046,-5.1975,10.6038,-0.0085,0.0557,9.8065,-0.0698,0.7794,-0.4242,-6.19,-37.06,1.06,107.63,-87.7,-5.26
9917,52.65585,-1.534997,182.23,18.65,6,314.9,24 / 24,991720,2019-11-06 10:58:19:063,-1.4833,-5.3783,10.0538,0.0093,0.0733,9.8063,-0.1146,0.6631,-0.423,-6.19,-37.25,1.06,117.47,-87.59,4.89
9918,52.65585,-1.534997,182.23,18.65,6,314.9,24 / 24,991820,2019-11-06 10:58:19:163,0.7611,2.8884,9.2018,-0.0096,-0.0245,9.8066,-0.0545,0.7436,-0.461,-6.62,-36.31,0.5,117.47,-87.59,4.89
9919,52.65585,-1.534997,182.23,18.65,6,314.9,24 / 24,991921,2019-11-06 10:58:19:264,3.3792,7.3781,9.1656,-0.0165,-0.0169,9.8066,0.0354,0.6861,-0.2923,-6.44,-36.75,1.25,108.9,-87.7,-3.92
9920,52.655968,-1.535188,182.1,18.39,6,315.92,24 / 24,992020,2019-11-06 10:58:19:363,1.2379,2.4965,9.4646,0.049,0.184,9.8047,-0.0522,0.1151,-0.0977,-6.37,-36.56,1.0,107.1,-87.64,-6.22
9921,52.655968,-1.535188,182.1,18.39,6,315.92,24 / 24,992120,2019-11-06 10:58:19:463,-2.8451,-8.426,10.3944,0.0102,0.0245,9.8065,-0.0522,0.1151,-0.0977,-6.5,-35.87,0.63,107.1,-87.64,-6.22
9922,52.655968,-1.535188,182.1,18.39,6,315.92,24 / 24,992220,2019-11-06 10:58:19:563,-0.47,0.0962,10.0038,0.0298,0.0809,9.8062,0.103,-0.3163,0.1411,-5.94,-35.75,1.0,115.42,-87.64,3.27
9923,52.655968,-1.535188,182.1,18.39,6,315.92,24 / 24,992320,2019-11-06 10:58:19:663,2.3978,3.7242,9.2577,0.0599,0.0928,9.806,0.0943,-0.4651,0.3711,-5.87,-36.5,1.63,136.67,-87.64,19.0
9924,52.655968,-1.535188,182.1,18.39,6,315.92,24 / 24,992420,2019-11-06 10:58:19:763,2.5644,2.9725,10.2506,0.0094,-0.0473,9.8064,-0.0183,-0.3559,0.2824,-5.81,-36.37,0.88,136.67,-87.64,19.0
9925,52.655968,-1.535188,182.1,18.39,6,315.92,24 / 24,992519,2019-11-06 10:58:19:862,0.0517,-0.3541,9.7857,-0.0237,-0.0628,9.8064,-0.0183,-0.3559,0.2824,-5.94,-36.56,0.69,124.81,-87.87,14.96
9926,52.655968,-1.535188,182.1,18.39,6,315.92,24 / 24,992619,2019-11-06 10:58:19:962,1.1897,-1.1099,9.8409,-0.0451,-0.0812,9.8061,-0.0433,-0.2192,0.129,-6.19,-36.5,0.63,111.68,-87.86,0.36
9927,52.655968,-1.535188,182.1,18.39,6,315.92,24 / 24,992719,2019-11-06 10:58:20:062,-1.3311,-1.2414,10.1776,-0.0478,-0.0095,9.8065,0.0952,-0.187,0.1432,-6.12,-36.19,1.0,109.53,-87.61,-3.36
9928,52.655968,-1.535188,182.1,18.39,6,315.92,24 / 24,992820,2019-11-06 10:58:20:163,1.0065,1.5455,9.4031,0.0463,0.0008,9.8065,0.1296,-0.3707,0.1429,-6.0,-36.25,1.38,109.53,-87.61,-3.36
9929,52.655968,-1.535188,182.1,18.39,6,315.92,24 / 24,992920,2019-11-06 10:58:20:263,1.0554,2.7484,10.1394,0.0143,-0.0042,9.8066,0.1364,-0.2312,0.1217,-6.37,-36.44,1.25,110.56,-87.86,-0.82
9930,52.65609,-1.535378,181.98,18.42,6,314.72,25 / 25,993020,2019-11-06 10:58:20:363,1.265,-0.4672,10.248,0.0092,0.0039,9.8066,-0.0232,-0.1424,0.0598,-5.69,-35.37,1.31,111.69,-88.15,2.3
9931,52.65609,-1.535378,181.98,18.42,6,314.72,25 / 25,993120,2019-11-06 10:58:20:463,0.0773,-2.9223,9.6809,0.0085,-0.014,9.8066,-0.0232,-0.1424,0.0598,-5.87,-36.25,1.63,111.69,-88.15,2.3
9932,52.65609,-1.535378,181.98,18.42,6,314.72,25 / 25,993220,2019-11-06 10:58:20:563,0.3249,0.8431,9.7656,-0.002,-0.0075,9.8066,-0.0914,0.0222,0.0097,-5.94,-36.5,1.5,114.26,-88.29,-3.09
9933,52.65609,-1.535378,181.98,18.42,6,314.72,25 / 25,993320,2019-11-06 10:58:20:663,2.316,2.2635,9.3876,0.0156,0.0196,9.8066,0.1148,0.1243,-0.1396,-6.44,-36.25,1.19,105.51,-88.26,-3.9
9934,52.65609,-1.535378,181.98,18.42,6,314.72,25 / 25,993420,2019-11-06 10:58:20:763,0.9858,0.1219,8.9745,-0.0014,0.0559,9.8064,-0.0211,0.2346,-0.1974,-6.25,-36.12,0.31,105.51,-88.26,-3.9
9935,52.65609,-1.535378,181.98,18.42,6,314.72,25 / 25,993519,2019-11-06 10:58:20:862,-0.2317,-3.7794,9.9829,0.0052,0.0223,9.8066,-0.0211,0.2346,-0.1974,-6.37,-36.81,0.56,109.02,-88.07,7.68
9936,52.65609,-1.535378,181.98,18.42,6,314.72,25 / 25,993620,2019-11-06 10:58:20:963,-0.068,-1.8171,9.3174,0.0064,-0.0224,9.8066,-0.0507,0.3164,-0.1786,-5.81,-36.31,1.38,118.65,-88.02,8.86
9937,52.65609,-1.535378,181.98,18.42,6,314.72,25 / 25,993720,2019-11-06 10:58:21:063,0.5163,1.661,9.4705,0.0107,-0.019,9.8066,-0.0507,0.3164,-0.1786,-6.69,-36.37,0.69,113.7,-88.13,6.81
9938,52.65609,-1.535378,181.98,18.42,6,314.72,25 / 25,993820,2019-11-06 10:58:21:163,-1.7849,-0.14,9.5006,0.0211,0.0373,9.8065,-0.1558,0.1666,-0.1179,-5.87,-36.81,0.94,113.7,-88.13,6.81
9939,52.65609,-1.535378,181.98,18.42,6,314.72,25 / 25,993920,2019-11-06 10:58:21:263,-1.637,-0.8474,8.7234,0.0032,0.0024,9.8066,-0.1364,0.0046,0.0968,-5.87,-36.69,1.19,124.76,-88.08,15.67
9940,52.65621,-1.535572,181.88,18.59,6,315.89,24 / 24,994020,2019-11-06 10:58:21:363,-1.1578,-3.2225,9.3078,0.0162,0.0069,9.8066,-0.1364,0.0046,0.0968,-6.69,-36.37,0.94,124.76,-88.08,15.67
9941,52.65621,-1.535572,181.88,18.59,6,315.89,24 / 24,994120,2019-11-06 10:58:21:463,-0.1683,-1.3927,10.1077,-0.0101,-0.0479,9.8065,0.0679,-0.073,0.0145,-5.94,-36.87,1.13,124.53,-88.13,18.35
9942,52.65621,-1.535572,181.88,18.59,6,315.89,24 / 24,994219,2019-11-06 10:58:21:562,-0.7684,-2.6652,11.0857,-0.0167,-0.0035,9.8066,0.017,-0.196,0.063,-5.94,-36.62,0.81,113.46,-88.18,3.82
9943,52.65621,-1.535572,181.88,18.59,6,315.89,24 / 24,994320,2019-11-06 10:58:21:663,1.9765,0.6079,10.826,-0.0136,0.0103,9.8066,0.0457,-0.3069,0.1576,-6.44,-36.56,1.06,114.62,-88.09,4.52
9944,52.65621,-1.535572,181.88,18.59,6,315.89,24 / 24,994420,2019-11-06 10:58:21:763,2.3998,2.9379,10.9243,0.0149,0.0602,9.8064,-0.0841,-0.3252,0.3356,-6.44,-36.37,1.31,114.62,-88.09,4.52
9945,52.65621,-1.535572,181.88,18.59,6,315.89,24 / 24,994520,2019-11-06 10:58:21:863,1.7173,1.1822,10.3254,-0.0068,-0.0126,9.8066,-0.0841,-0.3252,0.3356,-6.12,-36.87,0.94,124.31,-87.99,14.69
9946,52.65621,-1.535572,181.88,18.59,6,315.89,24 / 24,994620,2019-11-06 10:58:21:963,-1.079,-2.9251,10.9883,-0.0031,-0.0406,9.8065,0.0571,-0.3455,0.1867,-6.12,-36.37,1.25,117.95,-88.09,8.48
9947,52.65621,-1.535572,181.88,18.59,6,315.89,24 / 24,994720,2019-11-06 10:58:22:063,-1.4724,-0.9321,11.0952,-0.0288,-0.0145,9.8065,0.0571,-0.3455,0.1867,-6.56,-36.19,1.5,117.95,-88.09,8.48
9948,52.65621,-1.535572,181.88,18.59,6,315.89,24 / 24,994819,2019-11-06 10:58:22:162,2.1267,2.0505,9.9426,-0.019,0.0577,9.8065,0.2212,-0.0685,0.0061,-5.75,-36.5,1.06,114.51,-87.98,4.11
9949,52.65621,-1.535572,181.88,18.59,6,315.89,24 / 24,994920,2019-11-06 10:58:22:263,1.4605,1.925,9.8382,0.0155,0.0337,9.8065,0.0843,0.0605,-0.2251,-5.81,-36.31,0.81,121.67,-87.72,10.68
9950,52.656338,-1.535762,181.77,18.45,6,315.27,24 / 24,995020,2019-11-06 10:58:22:363,-0.3017,-0.757,10.2191,-0.0011,-0.0142,9.8066,-0.0327,0.3292,-0.1419,-5.94,-36.81,0.63,128.33,-87.69,17.81
9951,52.656338,-1.535762,181.77,18.45,6,315.27,24 / 24,995120,2019-11-06 10:58:22:463,-2.1337,-3.7954,10.7538,0.0027,0.0143,9.8066,-0.1163,0.4243,-0.1407,-6.37,-36.25,0.25,128.33,-87.69,17.81
9952,52.656338,-1.535762,181.77,18.45,6,315.27,24 / 24,995220,2019-11-06 10:58:22:563,-0.5485,-3.5298,11.3236,0.0015,-0.0415,9.8065,-0.1163,0.4243,-0.1407,-6.12,-36.31,1.0,126.39,-87.7,15.93
9953,52.656338,-1.535762,181.77,18.45,6,315.27,24 / 24,995320,2019-11-06 10:58:22:663,0.81,0.0592,10.3684,0.0048,0.0059,9.8066,-0.0756,0.4053,-0.2345,-6.25,-36.25,0.88,118.7,-87.89,8.25
9954,52.656338,-1.535762,181.77,18.45,6,315.27,24 / 24,995420,2019-11-06 10:58:22:763,2.5457,3.4175,8.7708,-0.0006,0.0608,9.8064,-0.0453,0.4482,-0.313,-6.06,-36.37,0.88,118.7,-87.89,8.25
9955,52.656338,-1.535762,181.77,18.45,6,315.27,24 / 24,995520,2019-11-06 10:58:22:863,1.6195,2.3833,9.3365,-0.0163,0.0824,9.8062,-0.1059,0.3049,-0.0524,-5.87,-36.25,1.44,126.72,-87.7,15.99
9956,52.656338,-1.535762,181.77,18.45,6,315.27,24 / 24,995620,2019-11-06 10:58:22:963,-1.2419,-4.8292,10.26,-0.018,-0.0267,9.8065,-0.1059,0.3049,-0.0524,-5.87,-37.25,1.38,133.97,-87.24,22.37
9957,52.656338,-1.535762,181.77,18.45,6,315.27,24 / 24,995720,2019-11-06 10:58:23:063,-0.1648,-0.9167,10.7924,-0.0353,-0.0903,9.8061,-0.0582,-0.1587,0.1127,-5.75,-36.5,1.38,123.15,-87.4,10.73
9958,52.656338,-1.535762,181.77,18.45,6,315.27,24 / 24,995820,2019-11-06 10:58:23:163,1.4057,3.5679,10.0945,0.0299,-0.0181,9.8066,0.0307,-0.5079,0.3068,-6.0,-36.5,1.75,123.15,-87.4,10.73
9959,52.656338,-1.535762,181.77,18.45,6,315.27,24 / 24,995920,2019-11-06 10:58:23:263,2.3632,3.3,9.6299,0.0085,0.0694,9.8064,0.1014,-0.5366,0.3458,-5.69,-36.69,1.06,122.39,-87.61,10.9
9960,52.656456,-1.535955,181.68,18.31,6,314.94,25 / 25,996020,2019-11-06 10:58:23:363,-0.6899,-2.0668,10.1626,0.0146,0.0698,9.8064,0.1014,-0.5366,0.3458,-6.06,-37.06,0.63,130.96,-87.43,19.64
9961,52.656456,-1.535955,181.68,18.31,6,314.94,25 / 25,996120,2019-11-06 10:58:23:463,0.301,-1.738,10.1403,0.0075,-0.0123,9.8065,0.1012,-0.4207,0.1787,-5.87,-36.87,0.94,130.96,-87.43,19.64
9962,52.656456,-1.535955,181.68,18.31,6,314.94,25 / 25,996221,2019-11-06 10:58:23:564,0.1394,-1.5207,10.6036,-0.0194,0.0098,9.8066,0.1622,-0.1878,0.1339,-5.94,-36.75,0.94,129.87,-87.51,19.06
9963,52.656456,-1.535955,181.68,18.31,6,314.94,25 / 25,996320,2019-11-06 10:58:23:663,1.6825,1.3078,9.8058,-0.0057,-0.0352,9.8065,0.041,0.0038,-0.027,-5.62,-36.56,0.88,127.91,-87.48,16.28
9964,52.656456,-1.535955,181.68,18.31,6,314.94,25 / 25,996420,2019-11-06 10:58:23:763,0.892,1.0969,10.5553,-0.0049,-0.0124,9.8066,0.041,0.0038,-0.027,-6.06,-35.94,1.13,119.69,-87.69,8.28
9965,52.656456,-1.535955,181.68,18.31,6,314.94,25 / 25,996520,2019-11-06 10:58:23:863,0.6047,-1.8109,10.1953,0.0029,-0.0094,9.8066,-0.0363,0.1456,-0.0811,-6.06,-36.5,1.38,119.69,-87.69,8.28
9966,52.656456,-1.535955,181.68,18.31,6,314.94,25 / 25,996620,2019-11-06 10:58:23:963,-1.0332,-1.5796,9.2527,-0.0079,-0.0089,9.8066,-0.0824,0.2501,-0.0988,-6.06,-36.69,1.25,118.69,-87.78,7.65
9967,52.656456,-1.535955,181.68,18.31,6,314.94,25 / 25,996721,2019-11-06 10:58:24:064,-1.1166,-0.7249,9.1312,-0.0012,0.007,9.8066,-0.0873,0.0261,-0.0772,-6.12,-36.44,1.31,117.15,-87.74,5.72
9968,52.656456,-1.535955,181.68,18.31,6,314.94,25 / 25,996819,2019-11-06 10:58:24:162,-0.8709,-0.8639,10.1373,-0.0085,0.0344,9.8065,-0.0377,-0.0766,0.0834,-6.12,-36.5,1.25,117.15,-87.74,5.72
9969,52.656456,-1.535955,181.68,18.31,6,314.94,25 / 25,996919,2019-11-06 10:58:24:262,0.4759,0.5058,9.3975,0.0013,-0.0203,9.8066,-0.0612,-0.008,0.0231,-5.94,-36.69,0.94,121.14,-87.6,9.45
9970,52.65658,-1.536142,181.6,18.3,4,315.06,24 / 24,997022,2019-11-06 10:58:24:365,0.0737,0.4175,9.8913,-0.0126,-0.0189,9.8066,-0.0612,-0.008,0.0231,-6.06,-36.62,1.63,124.96,-87.66,5.24
9971,52.65658,-1.536142,181.6,18.3,4,315.06,24 / 24,997120,2019-11-06 10:58:24:463,-0.1622,-0.0465,10.5079,-0.024,-0.0226,9.8066,0.0235,-0.0271,0.0445,-6.12,-36.44,1.19,113.27,-87.61,0.71
9972,52.65658,-1.536142,181.6,18.3,4,315.06,24 / 24,997220,2019-11-06 10:58:24:563,-0.504,-0.0821,9.6311,0.0128,-0.0209,9.8066,0.0169,-0.1145,0.0383,-6.37,-37.12,1.31,113.27,-87.61,0.71
9973,52.65658,-1.536142,181.6,18.3,4,315.06,24 / 24,997320,2019-11-06 10:58:24:663,-1.2023,-1.2928,9.2735,-0.0193,0.0081,9.8066,0.0362,-0.0229,-0.0494,-7.06,-36.44,1.31,114.83,-87.73,-1.37
9974,52.65658,-1.536142,181.6,18.3,4,315.06,24 / 24,997420,2019-11-06 10:58:24:763,-0.9066,-2.0796,9.7725,-0.0333,0.0144,9.8066,0.0362,-0.0229,-0.0494,-6.5,-36.62,0.94,112.11,-87.51,-1.5
9975,52.65658,-1.536142,181.6,18.3,4,315.06,24 / 24,997520,2019-11-06 10:58:24:863,-1.1699,-2.1227,10.2427,-0.0367,-0.0122,9.8065,0.0767,-0.1438,0.1,-6.69,-36.19,0.81,112.11,-87.51,-1.5
9976,52.65658,-1.536142,181.6,18.3,4,315.06,24 / 24,997619,2019-11-06 10:58:24:962,-0.1533,-0.232,9.15,-0.0076,-0.066,9.8064,-0.0522,-0.2507,0.1068,-7.56,-34.87,2.56,113.44,-87.34,-4.66
9977,52.65658,-1.536142,181.6,18.3,4,315.06,24 / 24,997720,2019-11-06 10:58:25:063,2.4642,2.3207,9.8107,0.0067,-0.0097,9.8066,0.0093,0.0774,-0.1071,-8.25,-33.56,1.63,101.55,-87.42,-12.95
9978,52.65658,-1.536142,181.6,18.3,4,315.06,24 / 24,997820,2019-11-06 10:58:25:163,3.2511,-2.6504,8.968,0.0848,0.0302,9.8061,0.0093,0.0774,-0.1071,-6.37,-33.94,1.56,113.4,-87.86,-5.66
9979,52.65658,-1.536142,181.6,18.3,4,315.06,24 / 24,997919,2019-11-06 10:58:25:262,-1.4165,-6.1119,9.5277,0.0291,0.0532,9.8065,0.0326,0.453,-0.3063,-7.25,-33.31,1.94,113.4,-87.86,-5.66
9980,52.656696,-1.536327,181.52,18.41,4,316.05,25 / 25,998020,2019-11-06 10:58:25:363,-2.1182,-4.5212,11.3783,-0.0277,-0.0299,9.8065,-0.087,0.9673,-0.5668,-7.37,-35.31,0.81,109.48,-87.86,3.82
9981,52.656696,-1.536327,181.52,18.41,4,316.05,25 / 25,998120,2019-11-06 10:58:25:463,1.5153,-5.1727,10.4057,-0.0088,-0.0633,9.8064,-0.1462,1.0791,-0.5732,-7.25,-36.25,0.69,98.36,-87.62,-11.85
9982,52.656696,-1.536327,181.52,18.41,4,316.05,25 / 25,998220,2019-11-06 10:58:25:563,3.253,7.6323,8.3284,-0.0245,0.0195,9.8066,-0.1364,0.4779,-0.3037,-7.06,-36.25,0.88,98.36,-87.62,-11.85
9983,52.656696,-1.536327,181.52,18.41,4,316.05,25 / 25,998320,2019-11-06 10:58:25:663,-0.9328,-0.5069,9.5692,-0.0084,0.0604,9.8064,-0.1364,0.4779,-0.3037,-6.69,-36.5,0.81,104.79,-87.46,-9.78
9984,52.656696,-1.536327,181.52,18.41,4,316.05,25 / 25,998419,2019-11-06 10:58:25:762,-2.605,-3.3281,10.2455,0.0017,-0.0267,9.8065,-0.0395,-0.1026,0.0231,-7.0,-36.31,0.56,109.85,-87.2,-1.82
9985,52.656696,-1.536327,181.52,18.41,4,316.05,25 / 25,998520,2019-11-06 10:58:25:863,0.1825,-4.1168,9.4965,-0.0199,-0.0321,9.8065,0.0289,-0.2473,0.2148,-7.12,-36.69,1.31,101.8,-87.36,-9.97
9986,52.656696,-1.536327,181.52,18.41,4,316.05,25 / 25,998620,2019-11-06 10:58:25:963,0.3525,2.0354,9.534,-0.0397,-0.0427,9.8064,0.0012,-0.1804,0.0631,-6.94,-36.5,1.06,101.8,-87.36,-9.97
9987,52.656696,-1.536327,181.52,18.41,4,316.05,25 / 25,998720,2019-11-06 10:58:26:063,0.3082,0.0476,10.7386,-0.0044,0.0033,9.8066,0.0012,-0.1804,0.0631,-7.12,-36.87,1.25,99.38,-86.97,-14.6
9988,52.656696,-1.536327,181.52,18.41,4,316.05,25 / 25,998819,2019-11-06 10:58:26:162,-0.0081,-0.4254,11.4489,0.0297,-0.0142,9.8066,0.142,-0.1385,0.0582,-7.37,-37.0,0.69,102.27,-86.93,-11.76
9989,52.656696,-1.536327,181.52,18.41,4,316.05,25 / 25,998922,2019-11-06 10:58:26:265,-0.6976,-0.7883,10.7188,0.0754,-0.0075,9.8063,0.0268,-0.0827,0.0031,-6.69,-36.62,1.19,102.27,-86.93,-11.76
9990,52.656815,-1.536514,181.46,18.53,4,315.91,24 / 24,999020,2019-11-06 10:58:26:363,2.1386,0.5268,10.0439,0.0237,0.0207,9.8066,-0.0594,-0.0635,0.0976,-6.81,-37.06,0.81,101.57,-87.57,-9.09
9991,52.656815,-1.536514,181.46,18.53,4,315.91,24 / 24,999120,2019-11-06 10:58:26:463,0.7932,0.0404,9.83,0.0478,0.0647,9.8063,-0.0594,-0.0635,0.0976,-6.37,-36.5,0.69,101.57,-87.57,-9.09
9992,52.656815,-1.536514,181.46,18.53,4,315.91,24 / 24,999220,2019-11-06 10:58:26:563,0.1401,0.1354,10.3104,-0.0114,0.0015,9.8066,-0.0522,-0.0158,0.0021,-5.94,-36.25,0.19,108.39,-87.46,3.75
9993,52.656815,-1.536514,181.46,18.53,4,315.91,24 / 24,999320,2019-11-06 10:58:26:663,1.206,1.2736,9.8496,-0.0089,-0.0147,9.8065,0.0706,-0.0333,0.0227,-6.5,-36.56,0.81,119.76,-87.26,5.68
9994,52.656815,-1.536514,181.46,18.53,4,315.91,24 / 24,999420,2019-11-06 10:58:26:763,0.6859,-1.1516,10.2252,-0.0225,-0.0367,9.8065,0.0913,-0.1488,0.0892,-7.06,-36.5,1.13,119.76,-87.26,5.68
9995,52.656815,-1.536514,181.46,18.53,4,315.91,24 / 24,999520,2019-11-06 10:58:26:863,-0.3034,-0.9738,10.7346,0.0473,-0.0035,9.8065,0.0913,-0.1488,0.0892,-6.5,-36.31,1.0,114.89,-87.24,0.45
9996,52.656815,-1.536514,181.46,18.53,4,315.91,24 / 24,999620,2019-11-06 10:58:26:963,-0.3786,-3.0697,10.129,-0.0103,0.0306,9.8066,-0.114,0.2214,-0.0253,-6.69,-37.06,0.5,111.08,-87.6,1.17
9997,52.656815,-1.536514,181.46,18.53,4,315.91,24 / 24,999720,2019-11-06 10:58:27:063,1.1841,8.8516,8.7064,0.0348,0.0855,9.8061,-0.0961,0.1799,-0.0455,-6.25,-37.0,1.25,125.55,-87.55,13.89
9998,52.656815,-1.536514,181.46,18.53,4,315.91,24 / 24,999820,2019-11-06 10:58:27:163,-0.5533,3.2565,10.0476,0.1018,0.1876,9.8043,0.187,-0.5319,0.29,-6.19,-36.75,0.94,125.55,-87.55,13.89
9999,52.656815,-1.536514,181.46,18.53,4,315.91,24 / 24,999920,2019-11-06 10:58:27:263,-2.9396,-7.1673,11.5734,0.0676,-0.0711,9.8061,0.187,-0.5319,0.29,-6.06,-37.37,1.0,147.88,-87.12,39.34
10000,52.656937,-1.536704,181.4,18.2,4,316.12,23 / 23,1000020,2019-11-06 10:58:27:363,-0.6117,-4.7214,10.801,0.0884,-0.1457,9.8051,0.2029,-0.7078,0.4144,-6.56,-37.12,1.0,142.94,-88.11,38.87
10001,52.656937,-1.536704,181.4,18.2,4,316.12,23 / 23,1000120,2019-11-06 10:58:27:463,-1.0433,-2.7571,10.1329,-0.0118,-0.0142,9.8066,0.1114,-0.4652,0.2819,-5.69,-37.19,1.31,142.94,-88.11,38.87
10002,52.656937,-1.536704,181.4,18.2,4,316.12,23 / 23,1000220,2019-11-06 10:58:27:563,0.9206,-0.5999,9.5332,-0.0731,0.0565,9.8062,-0.0524,-0.1996,0.0411,-5.81,-36.81,0.75,142.08,-88.14,35.65
10003,52.656937,-1.536704,181.4,18.2,4,316.12,23 / 23,1000320,2019-11-06 10:58:27:663,1.5372,1.3669,9.1702,-0.0334,0.0241,9.8065,-0.0046,-0.3091,0.1731,-5.0,-36.69,0.06,135.02,-87.61,32.43
10004,52.656937,-1.536704,181.4,18.2,4,316.12,23 / 23,1000420,2019-11-06 10:58:27:763,0.2618,2.5827,9.6638,-0.0452,0.0177,9.8065,-0.0648,-0.3531,0.2053,-4.44,-35.81,3.94,168.37,-87.35,29.98
10005,52.656937,-1.536704,181.4,18.2,4,316.12,23 / 23,1000520,2019-11-06 10:58:27:863,-3.0243,-0.311,11.1524,0.0111,-0.0553,9.8064,-0.0648,-0.3531,0.2053,-8.5,-35.37,2.75,168.37,-87.35,29.98
10006,52.656937,-1.536704,181.4,18.2,4,316.12,23 / 23,1000620,2019-11-06 10:58:27:963,-2.0963,-2.8413,11.1404,0.0241,0.0015,9.8066,0.0807,-0.0943,0.0779,-6.44,-36.69,0.0,134.47,-87.68,29.94
10007,52.656937,-1.536704,181.4,18.2,4,316.12,23 / 23,1000720,2019-11-06 10:58:28:063,0.5167,0.1007,11.6401,0.0315,0.015,9.8065,0.1395,0.1247,-0.0672,-6.37,-36.62,0.25,136.92,-87.82,37.72
10008,52.656937,-1.536704,181.4,18.2,4,316.12,23 / 23,1000819,2019-11-06 10:58:28:162,1.1143,3.1655,9.7821,0.046,0.0343,9.8065,0.0142,0.3681,-0.3865,-6.25,-35.87,0.5,136.92,-87.82,37.72
10009,52.656937,-1.536704,181.4,18.2,4,316.12,23 / 23,1000920,2019-11-06 10:58:28:263,0.6555,2.0664,9.3035,-0.0119,0.019,9.8066,0.0142,0.3681,-0.3865,-5.87,-36.94,1.88,152.04,-87.83,46.56
10010,52.657047,-1.536886,181.32,17.6,4,315.87,25 / 25,1001021,2019-11-06 10:58:28:364,-0.2014,-3.0769,9.6514,-0.0107,0.0437,9.8065,-0.1106,0.4569,-0.1793,-5.44,-36.75,1.56,161.72,-87.53,44.61
10011,52.657047,-1.536886,181.32,17.6,4,315.87,25 / 25,1001119,2019-11-06 10:58:28:462,-0.7765,1.6998,10.2694,-0.0048,0.0825,9.8062,-0.1356,0.3343,-0.3638,-4.87,-36.62,1.25,157.49,-87.02,47.9
10012,52.657047,-1.536886,181.32,17.6,4,315.87,25 / 25,1001220,2019-11-06 10:58:28:563,-0.5013,1.2992,11.0388,0.0056,0.1605,9.8053,0.0561,0.1002,-0.0507,-5.31,-36.0,1.69,157.49,-87.02,47.9
10013,52.657047,-1.536886,181.32,17.6,4,315.87,25 / 25,1001320,2019-11-06 10:58:28:663,-0.9124,-0.5649,10.9645,0.0175,0.0356,9.8065,0.0858,-0.2166,-0.0457,-4.25,-35.81,1.5,172.59,-85.86,57.23
10014,52.657047,-1.536886,181.32,17.6,4,315.87,25 / 25,1001420,2019-11-06 10:58:28:763,-3.0312,-1.7077,9.4897,-0.0117,0.0309,9.8066,0.0858,-0.2166,-0.0457,-4.19,-36.06,1.81,177.32,-85.52,59.08
10015,52.657047,-1.536886,181.32,17.6,4,315.87,25 / 25,1001520,2019-11-06 10:58:28:863,-0.8948,5.318,9.393,-0.0341,0.0852,9.8062,0.0625,-0.6056,0.331,-4.44,-36.0,1.69,177.32,-85.52,59.08
10016,52.657047,-1.536886,181.32,17.6,4,315.87,25 / 25,1001620,2019-11-06 10:58:28:963,-0.5876,3.8903,10.5432,0.0023,0.1014,9.806,0.0537,-0.4005,0.1405,-3.87,-35.69,1.19,176.2,-85.01,57.06
10017,52.657047,-1.536886,181.32,17.6,4,315.87,25 / 25,1001720,2019-11-06 10:58:29:063,-0.8626,-1.8571,10.7584,0.0081,-0.0002,9.8066,-0.1014,-0.2091,0.129,-3.87,-35.69,1.56,177.05,-84.4,58.17
10018,52.657047,-1.536886,181.32,17.6,4,315.87,25 / 25,1001820,2019-11-06 10:58:29:163,-0.7283,-2.5535,10.9608,0.0219,-0.0146,9.8065,-0.1014,-0.2091,0.129,-3.5,-35.87,1.38,174.21,-84.49,59.46
10019,52.657047,-1.536886,181.32,17.6,4,315.87,25 / 25,1001919,2019-11-06 10:58:29:262,-1.5775,-2.4873,11.3726,0.032,0.0291,9.8065,0.1758,-0.2871,0.1979,-3.56,-36.19,1.25,174.21,-84.49,59.46
10020,52.657158,-1.537057,181.24,16.03,4,316.88,25 / 25,1002022,2019-11-06 10:58:29:365,0.7035,2.0891,10.8106,-0.0054,0.0277,9.8066,0.1563,0.0238,-0.26,-3.81,-35.94,1.0,172.47,-84.05,61.66
10021,52.657158,-1.537057,181.24,16.03,4,316.88,25 / 25,1002120,2019-11-06 10:58:29:463,-2.6888,0.1331,9.2234,0.0308,0.0927,9.8062,-0.0245,0.0861,-0.3017,-3.0,-35.31,0.31,168.71,-83.54,63.88
10022,52.657158,-1.537057,181.24,16.03,4,316.88,25 / 25,1002219,2019-11-06 10:58:29:562,-1.7403,1.5248,9.6665,-0.0072,-0.0122,9.8065,-0.1708,0.3198,0.0768,-3.06,-35.5,1.44,168.71,-83.54,63.88
10023,52.657158,-1.537057,181.24,16.03,4,316.88,25 / 25,1002319,2019-11-06 10:58:29:662,-2.9283,-0.2221,9.2358,-0.015,-0.0429,9.8065,-0.0912,0.0805,-0.1553,-3.25,-35.25,0.88,168.43,-83.6,63.38
10024,52.657158,-1.537057,181.24,16.03,4,316.88,25 / 25,1002419,2019-11-06 10:58:29:762,-2.8382,-0.6259,8.8906,-0.0061,-0.0407,9.8065,-0.0912,0.0805,-0.1553,-3.75,-35.44,0.75,173.0,-83.82,62.61
10025,52.657158,-1.537057,181.24,16.03,4,316.88,25 / 25,1002519,2019-11-06 10:58:29:862,-2.2823,0.5866,9.2563,-0.0261,0.0188,9.8066,0.1345,-0.0985,0.0712,-3.44,-35.25,0.31,167.45,-83.69,61.36
10026,52.657158,-1.537057,181.24,16.03,4,316.88,25 / 25,1002620,2019-11-06 10:58:29:963,-2.8022,1.5405,9.3312,-0.0042,0.0372,9.8065,0.0533,0.0405,-0.1374,-3.31,-35.94,0.56,167.45,-83.69,61.36
10027,52.657158,-1.537057,181.24,16.03,4,316.88,25 / 25,1002720,2019-11-06 10:58:30:063,-3.743,2.6246,9.518,0.0061,0.0044,9.8066,0.0447,-0.0207,-0.054,-3.0,-35.5,0.81,175.56,-83.48,61.56
10028,52.657158,-1.537057,181.24,16.03,4,316.88,25 / 25,1002820,2019-11-06 10:58:30:163,-2.7653,1.552,9.3042,0.0176,0.017,9.8066,0.0447,-0.0207,-0.054,-3.0,-35.37,0.38,168.29,-83.38,62.52
10029,52.657158,-1.537057,181.24,16.03,4,316.88,25 / 25,1002920,2019-11-06 10:58:30:263,-3.7867,-0.2866,9.927,-0.016,0.0004,9.8066,-0.0644,0.0526,-0.026,-3.06,-35.75,1.0,168.29,-83.38,62.52
10030,52.657257,-1.537205,181.16,12.95,4,318.08,25 / 25,1003020,2019-11-06 10:58:30:363,-3.2742,0.2596,10.1684,-0.0113,0.0252,9.8065,-0.0735,0.0574,0.0817,-3.25,-35.12,0.19,175.67,-83.36,61.73
10031,52.657257,-1.537205,181.16,12.95,4,318.08,25 / 25,1003120,2019-11-06 10:58:30:463,-3.5795,-0.501,9.1523,0.0043,0.0064,9.8066,0.0276,0.0553,-0.1049,-2.69,-35.44,0.88,175.16,-83.25,60.46
10032,52.657257,-1.537205,181.16,12.95,4,318.08,25 / 25,1003220,2019-11-06 10:58:30:563,-1.927,0.2011,9.3001,0.0183,0.0147,9.8066,0.0987,0.0448,-0.0167,-3.44,-35.56,0.38,168.24,-83.17,61.41
10033,52.657257,-1.537205,181.16,12.95,4,318.08,25 / 25,1003319,2019-11-06 10:58:30:662,-1.0662,1.819,9.8269,0.0058,0.0066,9.8066,0.0193,-0.1113,-0.0334,-3.5,-35.5,0.63,168.24,-83.17,61.41
10034,52.657257,-1.537205,181.16,12.95,4,318.08,25 / 25,1003420,2019-11-06 10:58:30:763,-2.3129,0.5264,10.152,-0.004,-0.0268,9.8065,0.0193,-0.1113,-0.0334,-4.06,-35.37,0.63,172.84,-83.25,61.71
10035,52.657257,-1.537205,181.16,12.95,4,318.08,25 / 25,1003520,2019-11-06 10:58:30:863,-2.9671,-2.5738,9.5824,-0.002,0.0141,9.8066,0.0264,-0.2565,0.1825,-3.44,-34.94,0.0,167.9,-83.45,61.76
10036,52.657257,-1.537205,181.16,12.95,4,318.08,25 / 25,1003620,2019-11-06 10:58:30:963,-1.733,-1.8485,9.1366,0.005,0.0266,9.8065,-0.0197,-0.3028,0.1595,-3.31,-35.31,0.63,167.9,-83.45,61.76
10037,52.657257,-1.537205,181.16,12.95,4,318.08,25 / 25,1003719,2019-11-06 10:58:31:062,-1.8204,-0.1398,10.1514,-0.002,-0.0095,9.8066,0.089,-0.0959,-0.0426,-3.5,-35.69,0.38,168.23,-83.33,62.27
10038,52.657257,-1.537205,181.16,12.95,4,318.08,25 / 25,1003820,2019-11-06 10:58:31:163,-1.2295,-0.4565,9.3285,-0.0107,-0.0078,9.8066,0.089,-0.0959,-0.0426,-3.69,-35.81,0.19,166.08,-83.43,61.82
10039,52.657257,-1.537205,181.16,12.95,4,318.08,25 / 25,1003920,2019-11-06 10:58:31:263,-0.3733,0.2573,9.8953,-0.0078,-0.0134,9.8065,0.0923,-0.1415,0.0329,-4.12,-35.37,0.0,165.53,-83.49,61.26
10040,52.657337,-1.537319,181.06,10.79,4,321.27,25 / 25,1004020,2019-11-06 10:58:31:363,-0.5315,-1.9802,10.52,-0.0112,-0.0057,9.8066,-0.1707,-0.2664,0.1885,-4.25,-35.5,0.19,165.53,-83.49,61.26
10041,52.657337,-1.537319,181.06,10.79,4,321.27,25 / 25,1004120,2019-11-06 10:58:31:463,-2.0281,0.4617,10.3423,-0.0084,0.0173,9.8066,0.1345,-0.168,-0.0144,-4.25,-35.56,0.06,165.76,-83.38,61.06
10042,52.657337,-1.537319,181.06,10.79,4,321.27,25 / 25,1004220,2019-11-06 10:58:31:563,-1.4754,-2.1688,10.1263,0.0298,0.0141,9.8065,-0.0331,0.1131,-0.1052,-4.06,-35.37,-0.69,159.1,-83.34,62.7
10043,52.657337,-1.537319,181.06,10.79,4,321.27,25 / 25,1004320,2019-11-06 10:58:31:663,-1.2368,0.6445,9.3572,0.0142,0.0155,9.8066,0.0712,0.2042,-0.1426,-4.0,-34.87,0.38,159.1,-83.34,62.7
