,GPS LATITUDE (degrees), GPS LONGITUDE (degrees), GPS ALTITUDE (m), GPS SPEED (Kmh), GPS ACCURACY (m), GPS ORIENTATION (Â°),GPS SATELLITES IN RANGE, TIME SINCE START (ms), DATE (YYYY-MO-DD HH-MI-SS_SSS), ACCELEROMETER X (m/s²) , ACCELEROMETER Y (m/s²), ACCELEROMETER Z (m/s²), GRAVITY X (m/s²), GRAVITY Y (m/s²), GRAVITY Z (m/s²), GYROSCOPE Yaw (rad/s), GYROSCOPE Pitch (rad/s), GYROSCOPE Roll (rad/s), MAGNETIC FIELD X (Î¼T), MAGNETIC FIELD Y (Î¼T), MAGNETIC FIELD Z (Î¼T), ORIENTATION (Yaw) (Â°), ORIENTATION (Pitch) (Â°), ORIENTATION (Roll ) (Â°)
57188,53.746105,-1.650545,226.35,24.23,4,254.32,22 / 23,5718838,2019-11-08 11:32:36:449,0.3595,-1.751,11.142,-0.0076,-0.0076,9.8066,-0.1256,-0.0054,0.106,6.69,-42.87,52.06,21.8,-81.86,-168.54
57189,53.746105,-1.650545,226.35,24.23,4,254.32,22 / 23,5718938,2019-11-08 11:32:36:549,1.6008,-0.7957,9.6931,0.0104,-0.0101,9.8066,-0.0415,-0.0183,0.1713,6.06,-43.37,52.44,21.5,-81.91,-167.7
57190,53.746105,-1.650545,226.35,24.23,4,254.32,22 / 23,5719039,2019-11-08 11:32:36:650,0.4627,0.5853,9.6168,0.0043,0.001,9.8066,0.0668,-0.0874,-0.0735,6.06,-43.5,52.5,22.15,-81.92,-166.96
57191,53.746105,-1.650545,226.35,24.23,4,254.32,22 / 23,5719139,2019-11-08 11:32:36:750,-1.0297,0.4974,10.4547,-0.0304,-0.0094,9.8065,0.0351,-0.0434,-0.0002,5.38,-43.44,52.13,20.53,-81.95,-167.47
57192,53.746105,-1.650545,226.35,24.23,4,254.32,22 / 23,5719239,2019-11-08 11:32:36:850,0.5652,-0.3832,9.7528,-0.0002,-0.0119,9.8066,0.0044,0.1434,-0.0288,6.25,-42.56,52.44,22.58,-81.84,-166.78
57193,53.746105,-1.650545,226.35,24.23,4,254.32,22 / 23,5719339,2019-11-08 11:32:36:950,-0.413,0.4622,9.7814,-0.0001,0.0058,9.8065,0.021,0.1149,-0.1796,6.19,-42.94,52.75,23.47,-81.88,-165.8
57194,53.746105,-1.650545,226.35,24.23,4,254.32,22 / 23,5719438,2019-11-08 11:32:37:049,-0.1395,-1.5929,10.4188,-0.0143,0.0141,9.8065,-0.0526,0.0466,0.0381,5.5,-43.06,52.94,22.25,-81.96,-166.86
57195,53.746105,-1.650545,226.35,24.23,4,254.32,23 / 23,5719539,2019-11-08 11:32:37:150,0.0539,-0.5586,10.5291,0.02,0.0093,9.8066,-0.0536,0.061,0.1385,6.06,-42.87,52.25,23.59,-82.1,-165.79
57196,53.746105,-1.650545,226.35,24.23,4,254.32,23 / 23,5719638,2019-11-08 11:32:37:249,0.6,-0.4465,9.6576,-0.0226,0.0001,9.8066,0.0021,0.0648,-0.1561,5.81,-42.69,52.31,24.39,-82.17,-165.05
57197,53.746105,-1.650545,226.35,24.23,4,254.32,23 / 23,5719739,2019-11-08 11:32:37:350,0.6003,0.4184,9.6416,-0.0121,0.0184,9.8065,0.0397,0.1096,-0.0746,6.69,-43.44,52.19,24.55,-82.12,-166.0
57198,53.746105,-1.650545,226.35,24.23,4,254.32,23 / 23,5719839,2019-11-08 11:32:37:450,0.0665,1.3011,8.9633,-0.0068,0.0027,9.8066,-0.0816,0.0604,0.0164,6.0,-43.37,52.81,24.62,-82.17,-164.66
57199,53.746105,-1.650545,226.35,24.23,4,254.32,23 / 23,5719939,2019-11-08 11:32:37:550,1.2432,-0.1826,9.3413,0.0132,0.0127,9.8066,-0.0174,0.0124,-0.0302,5.88,-43.19,52.63,25.92,-82.28,-163.46
57200,53.746105,-1.650545,226.35,24.23,4,254.32,23 / 23,5720038,2019-11-08 11:32:37:649,0.079,-0.3944,10.3432,-0.0008,0.0237,9.8066,0.0897,-0.1511,0.0027,6.13,-43.31,52.44,26.48,-82.43,-163.07
57201,53.746105,-1.650545,226.35,24.23,4,254.32,23 / 23,5720138,2019-11-08 11:32:37:749,1.4641,0.4267,9.4047,0.0034,0.0162,9.8066,0.0443,-0.1355,0.0711,5.88,-43.06,52.44,26.26,-82.42,-163.27
57202,53.746105,-1.650545,226.35,24.23,4,254.32,23 / 23,5720239,2019-11-08 11:32:37:850,-0.1083,0.1231,10.559,-0.0003,0.002,9.8066,0.0615,0.0431,-0.0207,6.0,-43.37,52.56,27.13,-82.43,-162.31
57203,53.746105,-1.650545,226.35,24.23,4,254.32,23 / 23,5720339,2019-11-08 11:32:37:950,-0.2503,0.2745,9.6713,-0.0287,0.0107,9.8066,0.0747,0.0019,-0.1425,5.94,-43.0,51.75,26.58,-82.35,-163.02
57204,53.746105,-1.650545,226.35,24.23,4,254.32,23 / 23,5720439,2019-11-08 11:32:38:050,-0.7654,0.9884,9.3111,0.0104,-0.009,9.8066,-0.0426,-0.0188,0.1267,6.06,-42.62,52.25,27.8,-82.32,-161.94
57205,53.746105,-1.650545,226.35,24.23,4,254.32,22 / 23,5720539,2019-11-08 11:32:38:150,0.6944,-0.1244,10.7551,0.0212,-0.0151,9.8066,-0.1303,-0.0581,0.1689,5.25,-43.19,52.5,27.84,-82.32,-160.66
57206,53.746105,-1.650545,226.35,24.23,4,254.32,22 / 23,5720639,2019-11-08 11:32:38:250,0.2714,0.1878,9.1812,-0.0004,0.0185,9.8066,0.0871,-0.0752,-0.0287,6.19,-43.06,53.0,28.71,-82.39,-160.9
57207,53.746105,-1.650545,226.35,24.23,4,254.32,22 / 23,5720739,2019-11-08 11:32:38:350,-0.6621,0.4967,10.6823,-0.0065,0.0186,9.8066,0.0333,0.0604,-0.0934,5.44,-43.31,52.06,27.81,-82.31,-160.85
57208,53.746105,-1.650545,226.35,24.23,4,254.32,22 / 23,5720838,2019-11-08 11:32:38:449,-0.3457,-0.5569,9.9783,0.0017,-0.0058,9.8066,-0.0259,-0.0427,-0.0396,5.81,-43.0,52.94,28.51,-82.39,-161.09
57209,53.746105,-1.650545,226.35,24.23,4,254.32,22 / 23,5720938,2019-11-08 11:32:38:549,-0.4429,-0.3863,10.2155,0.012,-0.0161,9.8065,-0.0346,0.0108,-0.0167,6.13,-42.62,52.44,29.2,-82.5,-160.6
57210,53.746105,-1.650545,226.35,24.23,4,254.32,22 / 23,5721038,2019-11-08 11:32:38:649,-0.0073,0.656,9.4764,-0.0016,-0.0046,9.8066,-0.0746,-0.0552,-0.0815,6.19,-42.87,52.0,27.75,-82.49,-161.91
57211,53.746105,-1.650545,226.35,24.23,4,254.32,22 / 23,5721139,2019-11-08 11:32:38:750,0.0514,-0.8576,9.6909,0.0226,0.0069,9.8065,0.0298,0.0251,0.1024,5.94,-42.81,52.44,27.63,-82.54,-162.0
57212,53.746105,-1.650545,226.35,24.23,4,254.32,22 / 23,5721239,2019-11-08 11:32:38:850,0.634,0.1225,9.8598,-0.0156,0.001,9.8066,0.036,0.0512,-0.0286,5.63,-42.44,52.56,27.3,-82.6,-162.03
57213,53.746105,-1.650545,226.35,24.23,4,254.32,22 / 23,5721338,2019-11-08 11:32:38:949,-0.4891,-0.2006,9.8049,0.019,0.0029,9.8066,0.0185,-0.0175,-0.0306,5.81,-42.25,53.25,26.3,-82.7,-162.89
57214,53.746105,-1.650545,226.35,24.23,4,254.32,22 / 23,5721438,2019-11-08 11:32:39:049,-0.0469,-1.5297,9.781,0.0067,0.0039,9.8066,-0.0297,-0.0537,0.1265,5.81,-42.12,52.0,28.08,-82.69,-161.46
57215,53.746105,-1.650545,226.35,24.23,4,254.32,22 / 23,5721538,2019-11-08 11:32:39:149,0.1742,1.0,9.9721,0.0071,-0.0024,9.8066,-0.0593,-0.0088,0.0261,6.0,-42.5,52.06,28.99,-82.91,-160.53
57216,53.746105,-1.650545,226.35,24.23,4,254.32,22 / 23,5721638,2019-11-08 11:32:39:249,-0.0495,-0.3136,10.079,0.0041,0.0058,9.8066,0.0519,-0.014,-0.0884,6.44,-42.44,52.63,27.69,-82.99,-161.51
57217,53.746105,-1.650545,226.35,24.23,4,254.32,22 / 23,5721738,2019-11-08 11:32:39:349,-1.0115,0.9126,9.1161,-0.0071,0.0045,9.8066,0.0554,0.0865,-0.0685,6.5,-43.06,52.25,29.49,-82.89,-161.23
57218,53.746105,-1.650545,226.35,24.23,4,254.32,22 / 23,5721838,2019-11-08 11:32:39:449,-1.0129,-1.3217,9.853,0.0163,-0.0088,9.8066,-0.0686,0.0473,-0.0631,6.13,-43.12,52.38,29.24,-82.97,-160.34
57219,53.746105,-1.650545,226.35,24.23,4,254.32,22 / 23,5721938,2019-11-08 11:32:39:549,-0.7604,0.3462,9.6446,0.0004,-0.0019,9.8066,0.012,0.0041,0.0591,6.06,-43.06,51.81,30.43,-83.01,-159.25
57220,53.746105,-1.650545,226.35,24.23,4,254.32,22 / 23,5722038,2019-11-08 11:32:39:649,0.2676,-0.5913,10.0994,-0.0084,0.0019,9.8066,0.0268,-0.0537,-0.0566,6.13,-43.31,52.44,28.79,-83.0,-160.74
57221,53.746105,-1.650545,226.35,24.23,4,254.32,22 / 23,5722139,2019-11-08 11:32:39:750,-0.1924,-1.2771,9.9589,0.0213,-0.0124,9.8066,0.002,-0.1097,0.1597,6.19,-42.75,52.06,29.82,-83.0,-159.8
57222,53.746105,-1.650545,226.35,24.23,4,254.32,22 / 23,5722239,2019-11-08 11:32:39:850,0.3145,-0.228,9.8871,-0.0273,0.0141,9.8065,-0.111,0.015,0.1793,6.44,-43.25,51.88,31.09,-83.04,-158.63
57223,53.746105,-1.650545,226.35,24.23,4,254.32,22 / 23,5722339,2019-11-08 11:32:39:950,-0.9235,1.0796,9.4781,-0.0171,0.014,9.8066,0.0239,0.0268,-0.1454,5.56,-42.94,52.25,29.52,-83.0,-160.08
57224,53.746105,-1.650545,226.35,24.23,4,254.32,22 / 23,5722438,2019-11-08 11:32:40:049,-0.2281,0.5077,9.611,0.0209,-0.0046,9.8065,0.0264,0.0123,-0.0999,5.81,-43.19,52.81,29.57,-83.04,-159.84
57225,53.745586,-1.653749,227.51,24.14,4,255.21,22 / 23,5722540,2019-11-08 11:32:40:151,0.3637,-0.3224,9.3651,-0.0113,0.0186,9.8066,-0.0227,-0.049,0.0524,6.06,-43.56,52.56,29.72,-83.07,-159.75
57226,53.745586,-1.653749,227.51,24.14,4,255.21,22 / 23,5722639,2019-11-08 11:32:40:250,0.4026,-1.2141,10.0904,-0.0162,0.0185,9.8065,-0.0096,-0.0899,0.1085,5.88,-42.5,52.38,30.59,-83.32,-158.89
57227,53.745586,-1.653749,227.51,24.14,4,255.21,22 / 23,5722738,2019-11-08 11:32:40:349,1.7238,-0.041,10.0284,0.0213,0.0021,9.8066,-0.0505,0.0204,-0.111,6.13,-43.0,52.5,29.37,-83.41,-159.86
57228,53.745586,-1.653749,227.51,24.14,4,255.21,22 / 23,5722838,2019-11-08 11:32:40:449,0.0544,0.7335,9.7867,0.0204,0.0145,9.8065,-0.0595,0.0937,-0.0557,6.5,-43.44,52.38,30.94,-83.41,-159.67
57229,53.745586,-1.653749,227.51,24.14,4,255.21,22 / 23,5722939,2019-11-08 11:32:40:550,1.0002,-0.297,9.7119,-0.0135,0.0107,9.8066,-0.0135,0.109,-0.066,6.06,-42.69,52.5,27.99,-83.57,-161.05
57230,53.745586,-1.653749,227.51,24.14,4,255.21,22 / 23,5723039,2019-11-08 11:32:40:650,0.6856,-0.2409,9.6372,0.0165,-0.0051,9.8066,0.0192,0.0568,-0.1205,6.13,-42.81,52.06,28.15,-83.58,-161.07
57231,53.745586,-1.653749,227.51,24.14,4,255.21,22 / 23,5723139,2019-11-08 11:32:40:750,0.9086,0.8972,10.6701,0.0005,-0.0295,9.8065,0.0704,-0.0631,0.031,5.88,-42.75,52.69,28.95,-83.59,-160.16
57232,53.745586,-1.653749,227.51,24.14,4,255.21,22 / 23,5723239,2019-11-08 11:32:40:850,-0.2113,0.2557,10.1729,-0.0038,0.0031,9.8066,-0.0306,0.0397,0.0057,6.5,-42.87,52.56,29.15,-83.41,-161.12
57233,53.745586,-1.653749,227.51,24.14,4,255.21,22 / 23,5723339,2019-11-08 11:32:40:950,0.3324,0.08,10.1054,0.0038,0.0033,9.8066,0.0588,0.0383,-0.0274,5.81,-42.62,51.94,28.33,-83.33,-161.02
57234,53.745586,-1.653749,227.51,24.14,4,255.21,22 / 23,5723438,2019-11-08 11:32:41:049,0.4374,-0.2881,9.0137,0.006,-0.0068,9.8066,0.0505,0.0159,-0.031,6.69,-43.06,51.94,29.56,-83.47,-160.9
57235,53.745586,-1.653749,227.51,24.14,4,255.21,22 / 22,5723538,2019-11-08 11:32:41:149,0.3997,0.3772,9.2978,0.0054,0.0015,9.8066,-0.0594,0.0721,-0.0494,6.0,-43.0,52.19,29.43,-83.53,-159.92
57236,53.745586,-1.653749,227.51,24.14,4,255.21,22 / 22,5723638,2019-11-08 11:32:41:249,0.4034,-0.3673,10.0017,-0.0117,0.007,9.8066,-0.0197,-0.0258,0.0312,6.13,-42.5,52.06,29.81,-83.51,-159.52
57237,53.745586,-1.653749,227.51,24.14,4,255.21,22 / 22,5723738,2019-11-08 11:32:41:349,0.7167,-0.1739,10.4279,0.0007,-0.0198,9.8066,0.0783,0.085,-0.0705,5.75,-42.56,52.0,29.61,-83.5,-159.77
57238,53.745586,-1.653749,227.51,24.14,4,255.21,22 / 22,5723839,2019-11-08 11:32:41:450,0.0706,-1.1012,10.5049,-0.0016,0.0037,9.8066,0.0209,0.0679,-0.149,5.44,-42.62,51.88,29.96,-83.36,-158.42
57239,53.745586,-1.653749,227.51,24.14,4,255.21,22 / 22,5723940,2019-11-08 11:32:41:551,-0.9373,0.6445,9.3636,-0.0281,0.0137,9.8065,-0.0836,-0.0007,0.197,5.75,-42.37,52.25,30.62,-83.12,-158.95
57240,53.745586,-1.653749,227.51,24.14,4,255.21,22 / 22,5724038,2019-11-08 11:32:41:649,0.796,-0.8998,9.9036,0.0029,-0.0028,9.8066,-0.0025,-0.0151,-0.0619,5.94,-42.44,53.69,30.28,-83.1,-158.93
57241,53.745586,-1.653749,227.51,24.14,4,255.21,22 / 22,5724138,2019-11-08 11:32:41:749,0.1233,-1.6533,10.1986,0.0103,-0.0073,9.8066,0.0616,0.0049,-0.0859,6.25,-42.56,52.13,32.56,-83.07,-157.27
57242,53.745586,-1.653749,227.51,24.14,4,255.21,22 / 22,5724238,2019-11-08 11:32:41:849,0.2379,-0.8943,9.3238,-0.0047,-0.0051,9.8066,-0.0028,0.0091,0.0237,5.56,-42.75,52.75,31.85,-83.09,-157.74
57243,53.745586,-1.653749,227.51,24.14,4,255.21,22 / 22,5724339,2019-11-08 11:32:41:950,-0.2771,0.3293,9.727,-0.0001,-0.0011,9.8066,-0.0521,0.0362,0.0049,5.94,-43.19,52.88,30.64,-82.91,-158.93
57244,53.745586,-1.653749,227.51,24.14,4,255.21,22 / 22,5724438,2019-11-08 11:32:42:049,0.2617,0.1034,9.3141,0.0052,-0.0119,9.8066,0.025,-0.071,0.0013,5.81,-42.44,52.88,30.22,-82.81,-159.29
57245,53.745586,-1.653749,227.51,24.14,4,255.21,22 / 23,5724541,2019-11-08 11:32:42:152,-0.8315,0.503,9.2461,-0.0178,0.0077,9.8065,-0.0017,-0.0555,0.0697,5.56,-42.87,52.5,30.13,-82.9,-159.39
57246,53.745586,-1.653749,227.51,24.14,4,255.21,22 / 23,5724638,2019-11-08 11:32:42:249,-0.1955,-1.5154,10.4104,-0.0101,0.0071,9.8066,-0.0928,0.021,-0.0041,5.44,-42.94,52.94,29.7,-82.88,-158.73
57247,53.745586,-1.653749,227.51,24.14,4,255.21,22 / 23,5724738,2019-11-08 11:32:42:349,0.2783,0.5899,9.2468,-0.0029,-0.008,9.8066,-0.0408,0.0509,0.0024,5.75,-43.06,52.75,30.91,-82.92,-158.68
57248,53.745586,-1.653749,227.51,24.14,4,255.21,22 / 23,5724838,2019-11-08 11:32:42:449,0.4691,-0.8565,9.4343,-0.0004,-0.0055,9.8066,0.0502,0.0883,-0.1472,5.94,-42.81,52.69,31.39,-83.03,-158.19
57249,53.745586,-1.653749,227.51,24.14,4,255.21,22 / 23,5724938,2019-11-08 11:32:42:549,0.4038,0.3796,9.4403,0.0088,0.0092,9.8066,-0.0121,0.0915,-0.0633,5.94,-42.81,52.75,31.67,-83.03,-157.92
57250,53.745586,-1.653749,227.51,24.14,4,255.21,22 / 23,5725038,2019-11-08 11:32:42:649,-0.0609,0.0309,10.5471,-0.0027,-0.0129,9.8066,-0.0711,0.0341,0.0197,6.25,-42.81,52.94,30.84,-83.01,-158.69
57251,53.745586,-1.653749,227.51,24.14,4,255.21,22 / 23,5725139,2019-11-08 11:32:42:750,0.0075,0.3823,9.589,0.0044,-0.0039,9.8066,0.0552,0.0324,-0.0161,5.69,-42.62,52.25,30.97,-83.07,-158.73
57252,53.745586,-1.653749,227.51,24.14,4,255.21,22 / 23,5725240,2019-11-08 11:32:42:851,-0.1307,0.6024,9.9039,-0.0049,0.0208,9.8066,-0.041,0.0102,-0.003,5.94,-43.12,53.44,31.04,-83.12,-158.46
57253,53.745586,-1.653749,227.51,24.14,4,255.21,22 / 23,5725338,2019-11-08 11:32:42:949,-0.3106,0.6457,9.337,-0.0101,0.003,9.8066,-0.0651,0.0023,0.0823,6.13,-43.19,52.56,31.32,-83.16,-158.18
57254,53.745586,-1.653749,227.51,24.14,4,255.21,22 / 23,5725438,2019-11-08 11:32:43:049,-0.7925,0.9371,9.4366,0.0145,-0.0232,9.8066,0.0216,-0.0175,0.0414,6.25,-42.56,52.13,33.57,-83.17,-156.31
57255,53.745586,-1.653749,227.51,24.14,4,255.21,22 / 23,5725538,2019-11-08 11:32:43:149,0.2216,-0.5729,10.0181,-0.0044,-0.0019,9.8066,0.1183,-0.0234,-0.0651,5.81,-43.12,52.88,32.46,-82.98,-157.23
57256,53.745586,-1.653749,227.51,24.14,4,255.21,22 / 23,5725639,2019-11-08 11:32:43:250,0.3435,0.2041,9.9588,-0.0016,-0.0008,9.8066,0.0006,-0.0527,0.0308,6.19,-43.37,52.81,30.84,-82.81,-158.79
57257,53.745586,-1.653749,227.51,24.14,4,255.21,22 / 23,5725739,2019-11-08 11:32:43:350,0.4119,1.0196,10.9729,-0.0056,-0.0093,9.8066,-0.093,-0.0477,0.0474,6.25,-42.31,52.44,30.66,-82.72,-159.1
57258,53.745586,-1.653749,227.51,24.14,4,255.21,22 / 23,5725838,2019-11-08 11:32:43:449,0.1847,0.4077,8.8482,0.0102,-0.0237,9.8066,0.106,-0.0302,0.0715,5.81,-42.81,52.44,30.3,-82.6,-159.56
57259,53.745586,-1.653749,227.51,24.14,4,255.21,22 / 23,5725938,2019-11-08 11:32:43:549,0.7462,0.1315,10.705,0.0032,-0.0167,9.8066,0.1381,0.0198,-0.0541,6.38,-43.0,53.0,30.82,-82.43,-158.98
57260,53.745586,-1.653749,227.51,24.14,4,255.21,22 / 23,5726038,2019-11-08 11:32:43:649,0.1887,1.1842,10.2801,-0.0179,0.0115,9.8065,-0.0349,-0.0528,0.0005,6.31,-43.0,53.13,29.51,-82.25,-160.25
57261,53.745586,-1.653749,227.51,24.14,4,255.21,22 / 23,5726138,2019-11-08 11:32:43:749,-0.1283,0.7273,10.3111,-0.0012,0.0026,9.8066,-0.0482,-0.022,0.1233,6.0,-43.06,53.0,29.64,-82.22,-160.14
57262,53.745586,-1.653749,227.51,24.14,4,255.21,22 / 23,5726238,2019-11-08 11:32:43:849,-0.596,1.8314,9.1124,0.0063,0.0075,9.8066,0.0321,0.0248,-0.0516,6.63,-43.0,53.19,31.76,-82.35,-159.23
57263,53.745586,-1.653749,227.51,24.14,4,255.21,22 / 23,5726338,2019-11-08 11:32:43:949,0.4857,1.1346,9.0564,0.0,-0.0019,9.8066,0.0667,-0.0515,-0.0884,6.69,-43.25,52.81,31.88,-82.4,-159.1
57264,53.745586,-1.653749,227.51,24.14,4,255.21,22 / 23,5726438,2019-11-08 11:32:44:049,0.6424,-0.6332,10.211,0.0083,0.003,9.8066,-0.0134,-0.0791,0.0566,6.94,-43.31,53.0,31.31,-82.37,-159.63
57265,53.745586,-1.653749,227.51,24.14,4,255.21,22 / 23,5726538,2019-11-08 11:32:44:149,-0.3843,0.9465,9.4405,-0.0002,-0.0023,9.8066,-0.0983,0.0207,0.0633,6.69,-43.31,52.38,32.61,-82.34,-158.68
57266,53.745586,-1.653749,227.51,24.14,4,255.21,22 / 23,5726638,2019-11-08 11:32:44:249,0.4149,1.288,9.3493,-0.0001,0.0053,9.8065,0.0089,0.0118,-0.0273,6.31,-43.75,52.94,30.86,-82.25,-159.11
57267,53.745586,-1.653749,227.51,24.14,4,255.21,22 / 23,5726739,2019-11-08 11:32:44:350,-0.4879,0.6149,9.3229,0.0072,-0.0194,9.8065,0.104,0.0562,-0.0835,6.38,-43.12,52.94,31.79,-82.27,-158.19
57268,53.745586,-1.653749,227.51,24.14,4,255.21,22 / 23,5726839,2019-11-08 11:32:44:450,-0.1196,0.6437,10.0411,-0.0001,-0.0055,9.8065,-0.0356,0.0005,0.0103,6.38,-42.75,52.56,32.65,-82.22,-157.43
57269,53.745586,-1.653749,227.51,24.14,4,255.21,22 / 23,5726939,2019-11-08 11:32:44:550,-0.1013,0.488,10.1997,-0.0126,0.0109,9.8066,-0.058,-0.0302,0.0892,5.81,-43.06,52.0,33.0,-82.15,-157.34
57270,53.745586,-1.653749,227.51,24.14,4,255.21,22 / 23,5727039,2019-11-08 11:32:44:650,0.5367,0.0937,10.1183,0.0084,0.0074,9.8066,-0.018,0.0326,-0.0588,6.5,-43.06,52.25,33.15,-82.05,-158.33
57271,53.745586,-1.653749,227.51,24.14,4,255.21,22 / 23,5727139,2019-11-08 11:32:44:750,0.151,1.1464,9.2656,0.0078,-0.0115,9.8066,0.0259,0.0606,-0.0353,6.06,-43.31,51.31,31.55,-82.01,-158.91
57272,53.745586,-1.653749,227.51,24.14,4,255.21,22 / 23,5727238,2019-11-08 11:32:44:849,-0.1732,0.1227,10.2525,0.0025,-0.0034,9.8066,0.0269,0.0045,-0.0796,5.06,-43.37,52.06,30.38,-82.19,-158.6
57273,53.745586,-1.653749,227.51,24.14,4,255.21,22 / 23,5727339,2019-11-08 11:32:44:950,-0.3409,0.3522,10.6233,0.0034,0.0216,9.8066,-0.0665,0.038,-0.0047,5.75,-43.87,52.56,32.01,-82.15,-158.13
57274,53.745586,-1.653749,227.51,24.14,4,255.21,22 / 23,5727439,2019-11-08 11:32:45:050,1.1251,0.286,8.8147,0.0093,0.0185,9.8065,-0.0435,0.1745,-0.0269,5.0,-43.69,51.94,31.58,-82.28,-157.55
57275,53.745586,-1.653749,227.51,24.14,4,255.21,22 / 22,5727539,2019-11-08 11:32:45:150,0.091,0.6553,10.9173,0.0201,0.022,9.8065,-0.1541,0.0047,-0.0326,5.5,-43.37,52.69,32.89,-82.43,-157.1
57276,53.745586,-1.653749,227.51,24.14,4,255.21,22 / 22,5727639,2019-11-08 11:32:45:250,-1.6355,0.8701,9.5555,-0.0088,-0.0069,9.8066,-0.0358,0.0067,0.0838,5.94,-43.56,51.69,33.29,-82.41,-157.02
57277,53.745586,-1.653749,227.51,24.14,4,255.21,22 / 22,5727739,2019-11-08 11:32:45:350,-1.6877,0.5311,9.9235,0.005,-0.0033,9.8066,-0.0146,-0.0254,-0.0244,5.94,-44.44,52.25,33.83,-82.37,-156.56
57278,53.745586,-1.653749,227.51,24.14,4,255.21,22 / 22,5727839,2019-11-08 11:32:45:450,-1.0365,0.0331,10.2829,-0.015,-0.0035,9.8066,0.0644,-0.1418,-0.0113,5.5,-43.69,52.0,33.29,-82.39,-157.04
57279,53.745586,-1.653749,227.51,24.14,4,255.21,22 / 22,5727938,2019-11-08 11:32:45:549,0.1104,0.2802,9.5587,0.0247,0.0015,9.8066,0.0355,-0.0848,0.0787,6.38,-43.62,51.75,33.55,-82.38,-156.8
57280,53.745586,-1.653749,227.51,24.14,4,255.21,22 / 22,5728038,2019-11-08 11:32:45:649,-0.3271,0.6968,9.2504,0.0047,-0.0158,9.8066,0.0056,-0.0614,0.0505,5.5,-43.56,51.81,32.43,-82.35,-157.83
57281,53.745586,-1.653749,227.51,24.14,4,255.21,22 / 22,5728139,2019-11-08 11:32:45:750,0.4689,1.5266,10.9118,0.0078,-0.0128,9.8066,-0.0536,-0.0301,0.0365,5.94,-43.06,52.13,32.65,-82.55,-157.46
57282,53.745586,-1.653749,227.51,24.14,4,255.21,22 / 22,5728238,2019-11-08 11:32:45:849,-0.2194,-0.4502,10.6086,-0.0017,0.0069,9.8065,0.0102,-0.0156,0.0867,5.94,-43.12,52.5,32.09,-82.43,-157.83
57283,53.745586,-1.653749,227.51,24.14,4,255.21,22 / 22,5728338,2019-11-08 11:32:45:949,-0.6556,0.4063,9.9553,-0.0314,0.013,9.8065,0.0237,0.0722,-0.1146,5.75,-43.37,51.13,32.36,-82.32,-158.03
57284,53.745586,-1.653749,227.51,24.14,4,255.21,22 / 22,5728438,2019-11-08 11:32:46:049,-0.0628,0.4994,9.8646,0.0029,-0.0051,9.8066,0.0055,0.0447,-0.0834,5.94,-43.44,51.88,33.33,-82.32,-156.96
57285,53.745586,-1.653749,227.51,24.14,4,255.21,21 / 23,5728539,2019-11-08 11:32:46:150,-0.0405,0.2872,9.8714,0.001,-0.0147,9.8066,-0.0128,0.0525,0.0163,5.94,-43.56,51.88,33.92,-82.29,-156.52
57286,53.745586,-1.653749,227.51,24.14,4,255.21,21 / 23,5728639,2019-11-08 11:32:46:250,0.752,-0.7382,10.402,-0.0081,0.0085,9.8066,-0.0818,-0.0367,-0.0242,5.75,-43.37,52.31,33.34,-82.32,-156.95
57287,53.745586,-1.653749,227.51,24.14,4,255.21,21 / 23,5728738,2019-11-08 11:32:46:349,-0.2031,0.6193,8.5853,0.0165,0.0294,9.8066,0.0131,-0.0676,0.1235,5.31,-42.81,51.13,33.07,-82.26,-156.31
57288,53.745586,-1.653749,227.51,24.14,4,255.21,21 / 23,5728838,2019-11-08 11:32:46:449,0.2846,-0.5967,10.2483,-0.0133,0.023,9.8066,0.0132,0.0256,0.0301,5.81,-43.0,51.63,32.7,-82.52,-157.43
57289,53.745586,-1.653749,227.51,24.14,4,255.21,21 / 23,5728939,2019-11-08 11:32:46:550,1.3308,1.7822,8.8837,0.0099,0.0312,9.8065,0.1636,-0.0893,-0.1157,5.88,-43.44,52.31,31.64,-82.52,-158.38
57290,53.745586,-1.653749,227.51,24.14,4,255.21,21 / 23,5729038,2019-11-08 11:32:46:649,-1.5985,1.4638,9.6512,0.0121,-0.0202,9.8065,0.2575,-0.0287,0.007,6.0,-43.12,51.75,32.42,-82.6,-157.64
57291,53.745586,-1.653749,227.51,24.14,4,255.21,21 / 23,5729138,2019-11-08 11:32:46:749,0.7433,-0.0583,10.0915,0.0223,-0.0206,9.8065,0.0002,0.0484,-0.0992,5.94,-43.56,51.75,33.3,-82.88,-156.77
57292,53.745586,-1.653749,227.51,24.14,4,255.21,21 / 23,5729238,2019-11-08 11:32:46:849,-1.7083,-2.1997,10.8909,0.0249,-0.0017,9.8066,-0.0099,0.1031,-0.0969,6.38,-43.12,52.06,32.48,-82.86,-157.45
57293,53.745586,-1.653749,227.51,24.14,4,255.21,21 / 23,5729338,2019-11-08 11:32:46:949,0.2715,1.2852,10.4716,0.0,-0.0024,9.8066,-0.1464,0.2053,0.0032,5.44,-43.5,51.75,32.68,-82.91,-156.16
57294,53.745586,-1.653749,227.51,24.14,4,255.21,21 / 23,5729438,2019-11-08 11:32:47:049,1.4404,-1.7216,9.1383,0.0274,0.0208,9.8065,-0.0894,0.1665,-0.1636,5.75,-43.31,51.56,33.83,-82.88,-156.22
57295,53.745586,-1.653749,227.51,24.14,4,255.21,21 / 22,5729539,2019-11-08 11:32:47:150,0.3357,-0.8948,9.6844,0.0182,0.0223,9.8065,0.0017,0.0559,-0.0172,6.06,-43.69,52.13,34.83,-82.94,-155.35
57296,53.745586,-1.653749,227.51,24.14,4,255.21,21 / 22,5729638,2019-11-08 11:32:47:249,-0.0091,1.038,8.5607,0.008,-0.0189,9.8066,0.0525,0.052,-0.0342,6.25,-43.87,52.19,33.71,-83.07,-156.3
57297,53.745586,-1.653749,227.51,24.14,4,255.21,21 / 22,5729740,2019-11-08 11:32:47:351,0.5199,-0.1078,10.4636,0.0069,-0.0153,9.8065,-0.0454,-0.0505,0.0996,6.06,-43.75,52.38,33.58,-83.03,-156.44
57298,53.745586,-1.653749,227.51,24.14,4,255.21,21 / 22,5729838,2019-11-08 11:32:47:449,1.9273,-0.8243,9.3063,-0.0367,0.0151,9.8066,-0.0209,-0.1076,0.2209,5.88,-43.62,52.19,33.52,-82.95,-156.54
57299,53.745586,-1.653749,227.51,24.14,4,255.21,21 / 22,5729938,2019-11-08 11:32:47:549,-0.0927,0.0598,9.5638,-0.0108,0.0137,9.8066,-0.0065,-0.1691,0.0106,6.13,-43.44,52.31,33.15,-83.06,-156.75
57300,53.745586,-1.653749,227.51,24.14,4,255.21,21 / 22,5730040,2019-11-08 11:32:47:651,-2.6154,-0.8703,10.5635,-0.0136,-0.0068,9.8066,0.0008,-0.0828,-0.0363,5.31,-43.12,52.25,33.18,-83.11,-155.61
57301,53.745586,-1.653749,227.51,24.14,4,255.21,21 / 22,5730139,2019-11-08 11:32:47:750,-0.2046,-1.3406,9.7279,0.0169,-0.0027,9.8065,0.0365,0.0598,0.068,5.81,-43.62,52.25,34.89,-83.01,-155.25
57302,53.745586,-1.653749,227.51,24.14,4,255.21,21 / 22,5730238,2019-11-08 11:32:47:849,-1.1971,-1.2107,9.9493,-0.0012,-0.0003,9.8066,0.0215,-0.0096,-0.0066,5.5,-43.62,52.38,33.81,-83.05,-156.22
57303,53.745586,-1.653749,227.51,24.14,4,255.21,21 / 22,5730338,2019-11-08 11:32:47:949,1.6648,0.5289,8.5052,0.0191,0.0197,9.8066,-0.0311,0.1186,-0.0446,6.0,-43.19,51.94,34.56,-83.0,-155.48
57304,53.745586,-1.653749,227.51,24.14,4,255.21,21 / 22,5730438,2019-11-08 11:32:48:049,-1.0684,0.0046,10.0021,0.0115,-0.0022,9.8066,-0.0028,0.2104,-0.1009,5.63,-43.62,51.94,34.63,-83.21,-155.39
57305,53.745586,-1.653749,227.51,24.14,4,255.21,21 / 22,5730538,2019-11-08 11:32:48:149,0.935,-1.182,9.9045,-0.0106,0.0006,9.8065,-0.023,0.1481,-0.0729,5.38,-43.87,52.19,34.35,-83.19,-154.57
57306,53.745586,-1.653749,227.51,24.14,4,255.21,21 / 22,5730638,2019-11-08 11:32:48:249,1.7416,0.2829,9.0196,0.0236,0.0058,9.8066,0.0811,0.0935,-0.0291,5.81,-43.62,52.88,34.02,-83.16,-155.79
57307,53.745586,-1.653749,227.51,24.14,4,255.21,21 / 22,5730739,2019-11-08 11:32:48:350,-1.1169,0.4796,9.9806,-0.0056,0.0011,9.8066,-0.052,0.0748,-0.0186,5.44,-43.62,52.94,33.4,-82.97,-155.39
57308,53.745586,-1.653749,227.51,24.14,4,255.21,21 / 22,5730839,2019-11-08 11:32:48:450,-0.4908,-0.177,9.5261,0.0193,0.0002,9.8066,0.0489,-0.0657,-0.0022,6.0,-43.19,52.44,36.03,-82.92,-154.18
57309,53.745586,-1.653749,227.51,24.14,4,255.21,21 / 22,5730938,2019-11-08 11:32:48:549,-0.8488,0.143,10.1934,-0.0102,0.0047,9.8066,0.0396,-0.0991,0.0461,5.88,-44.0,52.75,36.21,-83.12,-153.81
57310,53.745586,-1.653749,227.51,24.14,4,255.21,21 / 22,5731039,2019-11-08 11:32:48:650,0.6932,0.4783,9.3189,-0.0045,0.0217,9.8066,-0.0408,-0.1684,0.0516,5.5,-43.12,51.75,37.88,-83.37,-152.23
57311,53.745586,-1.653749,227.51,24.14,4,255.21,21 / 22,5731139,2019-11-08 11:32:48:750,-0.4476,-0.8868,10.7319,0.0148,-0.0072,9.8065,-0.0328,-0.0921,0.0977,6.25,-43.69,52.25,36.75,-83.39,-153.34
57312,53.745586,-1.653749,227.51,24.14,4,255.21,21 / 22,5731238,2019-11-08 11:32:48:849,1.2022,0.1991,10.1156,0.0042,-0.0161,9.8066,-0.0382,-0.0601,-0.0244,5.31,-43.44,52.44,34.95,-83.4,-153.83
57313,53.745586,-1.653749,227.51,24.14,4,255.21,21 / 22,5731338,2019-11-08 11:32:48:949,1.4764,-0.7212,8.6671,0.0006,0.0202,9.8066,-0.0719,-0.0252,-0.1094,5.56,-43.56,51.75,36.64,-83.33,-153.48
57314,53.745586,-1.653749,227.51,24.14,4,255.21,21 / 22,5731438,2019-11-08 11:32:49:049,0.7264,-0.1624,9.7867,-0.0244,0.0117,9.8066,-0.0135,0.005,0.1067,6.38,-43.5,52.25,37.08,-83.57,-152.86
57315,53.745087,-1.656849,228.04,23.6,6,254.62,21 / 21,5731539,2019-11-08 11:32:49:150,-0.0535,-0.7924,10.2383,0.0086,-0.0038,9.8066,0.0077,0.076,0.0159,6.19,-43.37,51.75,36.92,-83.7,-152.93
57316,53.745087,-1.656849,228.04,23.6,6,254.62,21 / 21,5731638,2019-11-08 11:32:49:249,-0.2274,-0.4278,9.8433,-0.0015,-0.0093,9.8066,-0.0245,0.0821,-0.0813,5.94,-43.75,52.88,37.1,-83.73,-152.64
57317,53.745087,-1.656849,228.04,23.6,6,254.62,21 / 21,5731739,2019-11-08 11:32:49:350,1.012,0.0794,9.5251,-0.0007,0.0065,9.8066,-0.0078,0.156,-0.0011,5.94,-42.94,52.13,36.61,-83.74,-153.2
57318,53.745087,-1.656849,228.04,23.6,6,254.62,21 / 21,5731839,2019-11-08 11:32:49:450,-1.3195,-0.0091,9.281,-0.0039,0.0014,9.8066,-0.1066,0.0177,0.0677,5.69,-43.81,52.25,37.99,-83.68,-152.04
57319,53.745087,-1.656849,228.04,23.6,6,254.62,21 / 21,5731939,2019-11-08 11:32:49:550,0.9908,-1.2123,10.3015,0.0056,-0.0185,9.8066,0.0083,-0.0086,0.1374,5.94,-43.0,52.0,39.56,-83.68,-150.5
57320,53.745087,-1.656849,228.04,23.6,6,254.62,21 / 21,5732038,2019-11-08 11:32:49:649,-0.0405,-0.0883,9.0524,0.0255,-0.0113,9.8066,0.0882,-0.0851,-0.0722,5.94,-43.87,52.44,39.35,-83.56,-150.85
57321,53.745087,-1.656849,228.04,23.6,6,254.62,21 / 21,5732138,2019-11-08 11:32:49:749,-0.4332,-0.5895,9.7889,-0.0168,0.0053,9.8066,0.0015,-0.1108,-0.059,5.56,-43.44,52.5,38.94,-83.56,-150.96
57322,53.745087,-1.656849,228.04,23.6,6,254.62,21 / 21,5732238,2019-11-08 11:32:49:849,0.4106,-0.9199,9.8338,0.0085,-0.0065,9.8065,-0.0558,0.0166,0.1378,5.94,-43.81,52.06,39.34,-83.6,-150.83
57323,53.745087,-1.656849,228.04,23.6,6,254.62,21 / 21,5732338,2019-11-08 11:32:49:949,-0.1443,-0.3653,9.8193,-0.0016,-0.0101,9.8066,-0.0553,-0.0349,-0.0194,6.06,-43.25,51.63,39.78,-83.53,-150.38
57324,53.745087,-1.656849,228.04,23.6,6,254.62,21 / 21,5732438,2019-11-08 11:32:50:049,0.631,-0.3225,10.4825,-0.0064,-0.0002,9.8066,0.0547,-0.045,0.0186,5.5,-43.56,52.5,38.75,-83.48,-151.26
57325,53.745087,-1.656849,228.04,23.6,6,254.62,21 / 21,5732538,2019-11-08 11:32:50:149,-1.5034,-0.5324,10.4102,-0.0208,-0.0123,9.8066,0.0788,-0.0301,0.0013,5.19,-44.06,51.75,37.12,-83.45,-151.89
57326,53.745087,-1.656849,228.04,23.6,6,254.62,21 / 21,5732638,2019-11-08 11:32:50:249,0.9835,-1.2777,9.5607,-0.0191,-0.0083,9.8066,-0.033,0.1866,-0.061,5.5,-43.75,52.06,38.58,-83.26,-151.73
57327,53.745087,-1.656849,228.04,23.6,6,254.62,21 / 21,5732738,2019-11-08 11:32:50:349,1.7706,-1.2834,9.4076,0.0039,0.0072,9.8066,-0.0624,0.191,-0.0727,5.63,-43.69,51.81,39.01,-83.32,-151.3
57328,53.745087,-1.656849,228.04,23.6,6,254.62,21 / 21,5732838,2019-11-08 11:32:50:449,-0.2649,-1.1268,9.9378,-0.0163,0.0296,9.8065,0.0227,-0.011,-0.0553,5.44,-43.12,51.5,38.23,-83.38,-150.82
57329,53.745087,-1.656849,228.04,23.6,6,254.62,21 / 21,5732938,2019-11-08 11:32:50:549,0.4127,-0.3837,9.1792,0.0026,0.0272,9.8065,0.008,-0.0063,0.0145,5.56,-43.75,51.5,41.07,-83.54,-149.26
57330,53.745087,-1.656849,228.04,23.6,6,254.62,21 / 21,5733039,2019-11-08 11:32:50:650,-0.4586,-0.4098,9.5462,0.0063,0.0118,9.8065,0.0298,0.0013,-0.011,5.69,-42.87,52.0,42.75,-83.73,-147.51
57331,53.745087,-1.656849,228.04,23.6,6,254.62,21 / 21,5733139,2019-11-08 11:32:50:750,-0.4455,-0.8089,9.771,-0.0111,-0.0208,9.8065,0.0057,-0.0253,-0.0687,6.13,-43.0,52.31,42.27,-83.73,-147.95
57332,53.745087,-1.656849,228.04,23.6,6,254.62,21 / 21,5733239,2019-11-08 11:32:50:850,-0.5533,-0.8198,9.9818,0.0102,-0.011,9.8066,0.0299,0.0019,0.0738,5.5,-44.0,52.44,41.33,-83.62,-148.98
57333,53.745087,-1.656849,228.04,23.6,6,254.62,21 / 21,5733338,2019-11-08 11:32:50:949,1.0276,-0.1362,9.5926,0.025,-0.0031,9.8066,-0.0016,-0.0132,0.1021,5.94,-43.81,52.19,40.89,-83.44,-149.5
57334,53.745087,-1.656849,228.04,23.6,6,254.62,21 / 21,5733438,2019-11-08 11:32:51:049,-0.4014,0.1053,10.9366,-0.0126,-0.0047,9.8066,0.1004,-0.1358,-0.109,6.31,-43.5,52.0,39.51,-83.4,-150.71
57335,53.745087,-1.656849,228.04,23.6,6,254.62,21 / 21,5733539,2019-11-08 11:32:51:150,1.3959,-2.1566,8.8263,0.0143,-0.0316,9.8065,0.1777,-0.1562,0.0118,5.88,-43.31,51.25,36.88,-83.28,-153.4
57336,53.745087,-1.656849,228.04,23.6,6,254.62,21 / 21,5733639,2019-11-08 11:32:51:250,0.2981,0.4011,9.6974,0.0318,0.0128,9.8065,0.013,0.0254,0.07,6.44,-43.19,52.25,35.79,-83.39,-154.15
57337,53.745087,-1.656849,228.04,23.6,6,254.62,21 / 21,5733739,2019-11-08 11:32:51:350,-1.3132,-1.3781,10.089,-0.028,0.0131,9.8066,0.0161,0.1217,-0.1524,6.0,-43.62,52.31,35.47,-83.42,-154.5
57338,53.745087,-1.656849,228.04,23.6,6,254.62,21 / 21,5733839,2019-11-08 11:32:51:450,0.7743,0.5163,8.6988,-0.0006,-0.0071,9.8066,-0.1064,0.0705,-0.0659,6.38,-43.25,52.38,36.01,-83.63,-153.82
57339,53.745087,-1.656849,228.04,23.6,6,254.62,21 / 21,5733938,2019-11-08 11:32:51:549,1.4516,1.0201,9.8615,0.0215,-0.0225,9.8066,-0.1016,0.0613,0.196,6.13,-43.44,51.69,39.46,-83.69,-150.59
57340,53.745087,-1.656849,228.04,23.6,6,254.62,21 / 21,5734039,2019-11-08 11:32:51:650,-0.2022,-0.3604,10.4089,-0.0183,-0.0038,9.8066,-0.0236,-0.1079,0.0287,6.0,-43.31,51.5,40.21,-83.65,-149.92
57341,53.745087,-1.656849,228.04,23.6,6,254.62,21 / 21,5734139,2019-11-08 11:32:51:750,1.9244,-0.6149,9.5094,0.0075,-0.0105,9.8066,0.0344,-0.067,0.0312,5.88,-42.94,51.94,40.39,-83.57,-149.79
57342,53.745087,-1.656849,228.04,23.6,6,254.62,21 / 21,5734239,2019-11-08 11:32:51:850,0.5631,-0.1779,9.1573,0.0108,0.0287,9.8065,0.0073,0.0491,0.0882,6.06,-43.62,51.63,42.21,-83.54,-148.21
57343,53.745087,-1.656849,228.04,23.6,6,254.62,21 / 21,5734338,2019-11-08 11:32:51:949,0.444,-0.2228,9.4874,-0.0125,0.0051,9.8065,0.0287,0.069,-0.0926,5.94,-43.25,51.25,42.18,-83.53,-148.35
57344,53.745087,-1.656849,228.04,23.6,6,254.62,21 / 21,5734439,2019-11-08 11:32:52:050,0.1944,0.5809,10.4261,0.0145,-0.001,9.8066,0.0278,0.0476,-0.0597,5.19,-42.87,51.31,40.13,-83.49,-149.17
57345,53.745087,-1.656849,228.04,23.6,6,254.62,21 / 22,5734540,2019-11-08 11:32:52:151,0.8947,-0.7218,10.0844,0.0125,-0.0126,9.8066,-0.0578,-0.0139,0.038,5.81,-42.81,52.31,41.27,-83.41,-149.07
57346,53.745087,-1.656849,228.04,23.6,6,254.62,21 / 22,5734638,2019-11-08 11:32:52:249,-0.4677,0.5184,10.0358,-0.0082,0.0084,9.8065,0.023,-0.0805,0.0096,5.56,-43.12,52.06,40.15,-83.45,-150.09
57347,53.745087,-1.656849,228.04,23.6,6,254.62,21 / 22,5734738,2019-11-08 11:32:52:349,1.0056,0.2057,9.7424,0.0127,0.0171,9.8066,0.0287,-0.0488,-0.0129,5.63,-42.81,51.63,40.05,-83.48,-150.17
57348,53.745087,-1.656849,228.04,23.6,6,254.62,21 / 22,5734839,2019-11-08 11:32:52:450,0.1773,-0.9747,9.2927,0.0134,0.0013,9.8066,-0.0312,0.1103,-0.0177,6.25,-43.0,51.94,39.64,-83.61,-150.46
57349,53.745087,-1.656849,228.04,23.6,6,254.62,21 / 22,5734938,2019-11-08 11:32:52:549,-0.5263,0.5101,9.8806,-0.0111,0.0111,9.8065,-0.01,0.0886,-0.0876,6.63,-43.19,51.88,39.54,-83.62,-151.63
57350,53.745087,-1.656849,228.04,23.6,6,254.62,21 / 22,5735039,2019-11-08 11:32:52:650,0.4912,-0.0428,9.5008,0.0044,-0.0024,9.8066,0.0311,0.0771,-0.0557,6.75,-43.19,51.56,40.45,-83.61,-150.8
57351,53.745087,-1.656849,228.04,23.6,6,254.62,21 / 22,5735138,2019-11-08 11:32:52:749,-0.8374,0.9492,10.6417,-0.023,-0.0114,9.8066,0.0107,-0.0127,0.0339,6.38,-43.19,51.44,40.48,-83.61,-149.89
57352,53.745087,-1.656849,228.04,23.6,6,254.62,21 / 22,5735238,2019-11-08 11:32:52:849,-0.922,-0.516,9.6198,-0.0215,0.0029,9.8066,-0.0169,-0.1029,0.0269,6.56,-42.87,51.31,43.51,-83.54,-148.21
57353,53.745087,-1.656849,228.04,23.6,6,254.62,21 / 22,5735339,2019-11-08 11:32:52:950,0.1992,0.0125,10.3763,0.0263,-0.0047,9.8066,0.0418,-0.1019,0.1173,6.44,-42.94,51.38,42.58,-83.51,-148.0
57354,53.745087,-1.656849,228.04,23.6,6,254.62,21 / 22,5735438,2019-11-08 11:32:53:049,-0.3853,-0.0583,10.617,-0.0076,0.0037,9.8066,-0.0366,-0.0291,0.0561,6.63,-43.19,51.5,42.76,-83.61,-148.65
57355,53.745087,-1.656849,228.04,23.6,6,254.62,20 / 22,5735538,2019-11-08 11:32:53:149,0.2572,-1.1747,9.78,0.0067,0.0205,9.8066,0.0482,-0.0138,-0.0684,5.88,-42.62,51.44,41.07,-83.51,-149.39
57356,53.745087,-1.656849,228.04,23.6,6,254.62,20 / 22,5735638,2019-11-08 11:32:53:249,-0.2896,-1.527,9.8987,0.0026,0.0178,9.8066,-0.0368,0.0848,0.0513,5.5,-42.75,51.81,41.91,-83.48,-148.43
57357,53.745087,-1.656849,228.04,23.6,6,254.62,20 / 22,5735738,2019-11-08 11:32:53:349,-0.9551,0.5428,10.1404,-0.0237,0.0105,9.8065,-0.0272,0.1565,-0.1447,5.94,-42.75,51.63,42.53,-83.68,-147.74
57358,53.745087,-1.656849,228.04,23.6,6,254.62,20 / 22,5735838,2019-11-08 11:32:53:449,0.3891,-0.7981,9.4218,0.0285,-0.009,9.8065,0.0127,-0.0269,-0.1959,5.94,-42.94,52.31,42.6,-83.77,-147.62
57359,53.745087,-1.656849,228.04,23.6,6,254.62,20 / 22,5735939,2019-11-08 11:32:53:550,-1.1511,-1.1109,10.2802,0.0107,-0.0032,9.8066,0.0177,-0.0426,0.1913,5.94,-42.69,52.0,44.27,-83.74,-146.08
57360,53.745087,-1.656849,228.04,23.6,6,254.62,20 / 22,5736039,2019-11-08 11:32:53:650,0.2871,-0.7975,10.6445,-0.0099,0.013,9.8066,-0.066,-0.0503,0.0278,6.13,-42.75,51.81,43.32,-83.93,-146.86
57361,53.745087,-1.656849,228.04,23.6,6,254.62,20 / 22,5736139,2019-11-08 11:32:53:750,0.1398,0.3279,8.545,0.006,0.0214,9.8066,0.0907,0.0127,-0.0483,6.0,-43.5,52.25,42.2,-83.77,-148.0
57362,53.745087,-1.656849,228.04,23.6,6,254.62,20 / 22,5736238,2019-11-08 11:32:53:849,-0.2637,-0.4314,9.45,-0.0042,-0.0008,9.8066,0.0813,0.0573,0.0157,6.13,-43.94,52.88,43.3,-83.9,-146.77
57363,53.745087,-1.656849,228.04,23.6,6,254.62,20 / 22,5736339,2019-11-08 11:32:53:950,-0.275,0.1713,9.4379,-0.0079,0.0082,9.8066,-0.0643,0.0188,-0.0569,6.13,-44.69,52.75,43.93,-83.9,-146.26
57364,53.745087,-1.656849,228.04,23.6,6,254.62,20 / 22,5736439,2019-11-08 11:32:54:050,-0.4294,0.5788,10.0602,0.0029,0.0001,9.8066,-0.0246,-0.077,0.0157,6.63,-44.75,52.69,45.97,-83.87,-145.44
57365,53.745087,-1.656849,228.04,23.6,6,254.62,19 / 22,5736539,2019-11-08 11:32:54:150,-0.5212,0.9424,9.8705,-0.0072,-0.0003,9.8066,-0.024,-0.0268,0.0822,7.25,-46.37,52.63,45.15,-83.92,-146.25
57366,53.745087,-1.656849,228.04,23.6,6,254.62,19 / 22,5736639,2019-11-08 11:32:54:250,-0.4445,0.3589,10.1361,0.012,-0.019,9.8065,0.0377,-0.0769,-0.0608,7.63,-45.75,50.44,44.52,-83.88,-148.65
57367,53.745087,-1.656849,228.04,23.6,6,254.62,19 / 22,5736738,2019-11-08 11:32:54:349,0.9686,-1.1289,10.2624,0.0256,-0.0169,9.8066,0.0604,0.0896,-0.0586,6.88,-45.56,50.38,43.76,-83.9,-148.22
57368,53.745087,-1.656849,228.04,23.6,6,254.62,19 / 22,5736838,2019-11-08 11:32:54:449,0.542,-0.2156,9.6237,-0.0061,-0.0034,9.8066,-0.0014,0.0509,0.0247,6.69,-44.25,50.31,42.16,-83.89,-149.55
57369,53.745087,-1.656849,228.04,23.6,6,254.62,19 / 22,5736938,2019-11-08 11:32:54:549,-0.1274,-0.0067,10.008,-0.0138,0.0113,9.8065,0.0221,-0.03,0.017,6.56,-43.75,50.38,42.18,-83.86,-149.55
57370,53.745087,-1.656849,228.04,23.6,6,254.62,19 / 22,5737038,2019-11-08 11:32:54:649,-0.0717,0.381,8.6978,0.0036,0.0164,9.8066,0.0076,-0.0829,-0.0616,6.0,-43.81,50.81,42.99,-83.91,-147.44
57371,53.745087,-1.656849,228.04,23.6,6,254.62,19 / 22,5737138,2019-11-08 11:32:54:749,-1.2312,-0.5265,9.8011,-0.0251,0.0329,9.8065,-0.0775,-0.0553,0.1929,5.88,-43.5,50.88,42.05,-83.95,-148.21
57372,53.745087,-1.656849,228.04,23.6,6,254.62,19 / 22,5737238,2019-11-08 11:32:54:849,0.2214,0.6768,9.9561,-0.0107,-0.0119,9.8066,0.059,-0.0899,-0.0993,5.94,-43.44,51.19,43.64,-83.98,-146.71
57373,53.745087,-1.656849,228.04,23.6,6,254.62,19 / 22,5737338,2019-11-08 11:32:54:949,1.1697,-0.4901,9.7974,0.0088,-0.0085,9.8065,-0.0031,-0.0059,-0.0153,6.44,-43.19,50.88,44.66,-83.93,-145.79
57374,53.745087,-1.656849,228.04,23.6,6,254.62,19 / 22,5737440,2019-11-08 11:32:55:051,-0.5609,0.235,10.1022,-0.0122,0.0081,9.8066,-0.0405,0.1078,0.0329,6.25,-43.25,50.56,44.18,-84.03,-146.18
57375,53.745087,-1.656849,228.04,23.6,6,254.62,19 / 20,5737539,2019-11-08 11:32:55:150,0.0607,-0.0662,9.8584,-0.0225,-0.0059,9.8066,-0.0339,0.1521,-0.1101,5.75,-43.19,51.81,44.29,-83.96,-145.93
57376,53.745087,-1.656849,228.04,23.6,6,254.62,19 / 20,5737638,2019-11-08 11:32:55:249,-1.3064,0.3914,9.0451,-0.0021,0.0065,9.8065,-0.0863,0.1047,0.077,6.06,-43.75,51.56,43.79,-83.96,-146.47
57377,53.745087,-1.656849,228.04,23.6,6,254.62,19 / 20,5737738,2019-11-08 11:32:55:349,0.4071,-0.2056,10.2814,0.0045,0.0064,9.8066,0.026,0.0114,0.0093,5.63,-43.94,50.69,44.76,-84.02,-145.72
57378,53.745087,-1.656849,228.04,23.6,6,254.62,19 / 20,5737839,2019-11-08 11:32:55:450,0.7279,0.6253,10.0272,0.0178,0.0095,9.8065,0.0274,-0.093,-0.0244,5.5,-43.37,50.88,46.08,-84.15,-144.31
57379,53.745087,-1.656849,228.04,23.6,6,254.62,19 / 20,5737939,2019-11-08 11:32:55:550,-1.0975,-0.3325,10.1133,-0.0406,0.0077,9.8065,0.0257,-0.185,0.1596,4.94,-43.81,51.31,42.79,-84.19,-146.35
57380,53.745087,-1.656849,228.04,23.6,6,254.62,19 / 20,5738039,2019-11-08 11:32:55:650,1.0806,-0.2727,9.6629,-0.0172,-0.0134,9.8065,0.0154,-0.0172,-0.0022,4.69,-43.75,50.13,43.77,-84.17,-145.62
57381,53.745087,-1.656849,228.04,23.6,6,254.62,19 / 20,5738139,2019-11-08 11:32:55:750,0.5611,0.5627,10.1573,-0.0101,0.0071,9.8065,0.0556,0.08,-0.0899,4.63,-43.94,51.06,44.62,-84.06,-144.72
57382,53.745087,-1.656849,228.04,23.6,6,254.62,19 / 20,5738239,2019-11-08 11:32:55:850,-0.7472,-0.6857,10.0555,-0.0051,-0.0021,9.8066,-0.0625,0.1544,-0.0008,4.94,-43.87,50.75,44.46,-84.09,-144.85
57383,53.745087,-1.656849,228.04,23.6,6,254.62,19 / 20,5738338,2019-11-08 11:32:55:949,1.0132,-0.6446,9.8542,0.024,-0.0173,9.8066,0.0152,0.1245,-0.0421,4.75,-43.56,50.88,45.02,-84.15,-144.29
57384,53.745087,-1.656849,228.04,23.6,6,254.62,19 / 20,5738439,2019-11-08 11:32:56:050,0.2389,-0.9028,10.1436,-0.0023,0.0024,9.8066,-0.0099,-0.0548,-0.0192,4.88,-43.56,50.94,44.21,-84.11,-145.07
57385,53.745087,-1.656849,228.04,23.6,6,254.62,21 / 23,5738539,2019-11-08 11:32:56:150,-0.4798,0.2754,9.3347,-0.0159,0.0139,9.8065,-0.0523,-0.0449,0.1518,4.06,-43.31,51.13,41.31,-84.07,-146.62
57386,53.745087,-1.656849,228.04,23.6,6,254.62,21 / 23,5738639,2019-11-08 11:32:56:250,0.0765,0.1576,10.1579,0.0209,0.0045,9.8066,0.0555,-0.0977,-0.0646,3.63,-43.19,51.06,43.12,-84.04,-144.94
57387,53.745087,-1.656849,228.04,23.6,6,254.62,21 / 23,5738738,2019-11-08 11:32:56:349,-0.2214,-0.918,9.8912,-0.0124,0.0157,9.8065,0.008,-0.0772,-0.0778,3.56,-43.5,52.19,41.75,-84.2,-145.98
57388,53.745087,-1.656849,228.04,23.6,6,254.62,21 / 23,5738838,2019-11-08 11:32:56:449,0.9355,1.4663,9.5097,-0.0078,-0.0117,9.8066,-0.0454,0.1258,0.0361,4.25,-42.87,51.69,42.01,-84.27,-145.7
57389,53.745087,-1.656849,228.04,23.6,6,254.62,21 / 23,5738938,2019-11-08 11:32:56:549,0.858,-1.1232,10.0912,0.0177,-0.0117,9.8066,-0.0133,0.1124,-0.0859,3.69,-42.12,51.75,42.86,-84.23,-144.85
57390,53.745087,-1.656849,228.04,23.6,6,254.62,21 / 23,5739039,2019-11-08 11:32:56:650,-0.4778,-0.3054,9.9006,-0.0119,0.0048,9.8066,-0.035,0.0248,0.0214,4.31,-42.25,51.88,42.1,-84.23,-145.56
57391,53.745087,-1.656849,228.04,23.6,6,254.62,21 / 23,5739138,2019-11-08 11:32:56:749,1.6931,-0.562,9.6182,0.0211,0.0163,9.8065,-0.0869,-0.0308,0.1258,4.5,-41.75,51.75,43.69,-84.27,-145.13
57392,53.745087,-1.656849,228.04,23.6,6,254.62,21 / 23,5739238,2019-11-08 11:32:56:849,0.35,-0.0998,10.3431,0.0131,0.0098,9.8066,0.0546,-0.1304,-0.0643,3.63,-42.44,52.13,43.11,-84.28,-144.58
57393,53.745087,-1.656849,228.04,23.6,6,254.62,21 / 23,5739338,2019-11-08 11:32:56:949,-1.3557,0.0414,9.1512,-0.0316,0.0095,9.8066,-0.0614,-0.1075,-0.0059,4.13,-41.44,53.31,40.62,-84.35,-146.67
57394,53.745087,-1.656849,228.04,23.6,6,254.62,21 / 23,5739438,2019-11-08 11:32:57:049,-0.1883,-0.091,9.599,0.0198,-0.0207,9.8066,-0.009,0.0802,0.0969,4.0,-41.69,53.19,41.4,-84.31,-146.03
57395,53.745087,-1.656849,228.04,23.6,6,254.62,19 / 21,5739538,2019-11-08 11:32:57:149,-0.9769,-0.6882,10.8798,-0.0058,-0.0313,9.8066,-0.0194,-0.0129,-0.1163,4.63,-41.44,53.69,43.58,-84.33,-144.81
57396,53.745087,-1.656849,228.04,23.6,6,254.62,19 / 21,5739638,2019-11-08 11:32:57:249,0.1657,-0.0123,9.8712,0.0013,-0.0092,9.8066,0.0434,0.085,0.033,4.81,-41.12,54.06,40.8,-84.2,-147.51
57397,53.745087,-1.656849,228.04,23.6,6,254.62,19 / 21,5739738,2019-11-08 11:32:57:349,-0.0985,0.1912,10.2273,0.0163,-0.005,9.8066,0.01,0.0531,0.0372,5.5,-41.81,54.31,42.23,-84.02,-147.37
57398,53.745087,-1.656849,228.04,23.6,6,254.62,19 / 21,5739839,2019-11-08 11:32:57:450,0.0638,-0.0523,9.7745,-0.0149,-0.0056,9.8066,-0.0541,-0.0256,-0.0451,5.81,-41.5,54.38,40.9,-84.08,-148.52
57399,53.745087,-1.656849,228.04,23.6,6,254.62,19 / 21,5739939,2019-11-08 11:32:57:550,-1.1552,-0.2036,10.014,0.0069,0.0064,9.8066,0.0061,-0.0834,0.1266,6.69,-41.94,54.88,42.47,-84.03,-147.99
57400,53.745087,-1.656849,228.04,23.6,6,254.62,19 / 21,5740039,2019-11-08 11:32:57:650,0.7148,-0.3497,8.8891,-0.0057,-0.0009,9.8066,-0.0364,0.037,-0.1127,6.63,-41.44,55.44,42.61,-83.99,-147.82
57401,53.745087,-1.656849,228.04,23.6,6,254.62,19 / 21,5740138,2019-11-08 11:32:57:749,-1.3741,0.5392,10.6553,-0.0287,-0.0083,9.8066,-0.117,0.1256,-0.0834,7.75,-40.69,55.63,42.95,-84.16,-148.22
57402,53.745087,-1.656849,228.04,23.6,6,254.62,19 / 21,5740238,2019-11-08 11:32:57:849,0.5045,-0.5981,8.2823,-0.0008,-0.0034,9.8066,-0.1045,0.1169,-0.0184,8.06,-40.94,55.13,44.14,-84.08,-147.34
57403,53.745087,-1.656849,228.04,23.6,6,254.62,19 / 21,5740338,2019-11-08 11:32:57:949,-0.9437,0.7551,8.6319,-0.0001,0.0096,9.8066,-0.0818,0.1299,-0.0275,10.0,-41.69,54.94,47.12,-84.17,-146.55
57404,53.745087,-1.656849,228.04,23.6,6,254.62,19 / 21,5740438,2019-11-08 11:32:58:049,-0.3616,-0.1806,10.2002,-0.0191,0.0079,9.8066,0.031,-0.0355,-0.0965,9.5,-41.19,54.88,47.51,-84.19,-146.09
57405,53.744568,-1.660104,227.37,25.25,6,254.87,19 / 20,5740538,2019-11-08 11:32:58:149,-0.6171,0.5782,9.8461,0.0197,0.0154,9.8065,0.0173,-0.018,0.0977,10.56,-41.5,54.19,48.04,-84.29,-146.78
57406,53.744568,-1.660104,227.37,25.25,6,254.87,19 / 20,5740638,2019-11-08 11:32:58:249,-0.0524,-0.9815,10.8118,-0.0073,-0.0184,9.8066,0.0621,-0.0423,0.02,11.19,-42.12,54.0,48.85,-84.38,-146.03
57407,53.744568,-1.660104,227.37,25.25,6,254.87,19 / 20,5740738,2019-11-08 11:32:58:349,0.9495,-0.9958,9.5051,-0.0041,-0.0067,9.8066,-0.091,-0.0332,0.0115,12.19,-42.25,52.94,48.88,-84.24,-147.38
57408,53.744568,-1.660104,227.37,25.25,6,254.87,19 / 20,5740839,2019-11-08 11:32:58:450,-0.104,0.7618,9.9839,0.0226,0.0061,9.8066,-0.0564,0.056,0.1113,11.94,-41.19,52.56,48.61,-84.28,-147.53
57409,53.744568,-1.660104,227.37,25.25,6,254.87,19 / 20,5740939,2019-11-08 11:32:58:550,-0.0554,-0.3555,10.4803,-0.0109,-0.0026,9.8066,0.0278,0.0739,-0.1259,12.81,-42.12,52.06,50.02,-84.27,-147.6
57410,53.744568,-1.660104,227.37,25.25,6,254.87,19 / 20,5741039,2019-11-08 11:32:58:650,0.5833,0.3595,10.4827,-0.007,-0.0043,9.8066,-0.0004,0.0574,-0.1028,12.63,-42.12,50.81,49.16,-84.18,-148.8
57411,53.744568,-1.660104,227.37,25.25,6,254.87,19 / 20,5741139,2019-11-08 11:32:58:750,0.2858,-0.9703,9.943,-0.0076,-0.0037,9.8066,0.0225,-0.0069,0.0424,12.63,-42.12,50.69,49.76,-84.04,-148.33
57412,53.744568,-1.660104,227.37,25.25,6,254.87,19 / 20,5741238,2019-11-08 11:32:58:849,0.1443,0.2048,9.6651,-0.003,-0.0021,9.8066,0.0208,-0.0861,-0.0302,12.75,-42.25,49.31,49.26,-84.03,-149.51
57413,53.744568,-1.660104,227.37,25.25,6,254.87,19 / 20,5741338,2019-11-08 11:32:58:949,0.3592,0.4143,9.2281,0.005,0.0018,9.8066,-0.0253,0.0074,0.132,12.38,-43.06,48.19,49.2,-84.03,-148.92
57414,53.744568,-1.660104,227.37,25.25,6,254.87,19 / 20,5741438,2019-11-08 11:32:59:049,0.2979,-0.0974,10.0645,-0.0175,0.005,9.8066,0.0441,0.0011,0.0181,12.56,-43.56,47.75,50.36,-84.06,-149.0
57415,53.744568,-1.660104,227.37,25.25,6,254.87,18 / 20,5741538,2019-11-08 11:32:59:149,1.0521,-0.6986,9.6403,0.0219,-0.0243,9.8066,0.0394,-0.0045,-0.0453,11.31,-43.31,46.94,45.94,-84.09,-151.17
57416,53.744568,-1.660104,227.37,25.25,6,254.87,18 / 20,5741638,2019-11-08 11:32:59:249,0.335,0.0927,9.7217,0.0058,0.0012,9.8066,-0.0241,0.0854,0.1294,10.88,-42.94,46.5,46.37,-84.03,-150.81
57417,53.744568,-1.660104,227.37,25.25,6,254.87,18 / 20,5741738,2019-11-08 11:32:59:349,-0.4598,0.0831,9.906,-0.0264,0.0017,9.8065,-0.0105,0.0263,-0.0761,9.75,-43.12,45.75,44.98,-83.96,-151.36
57418,53.744568,-1.660104,227.37,25.25,6,254.87,18 / 20,5741839,2019-11-08 11:32:59:450,0.1575,0.3812,9.0165,0.0002,-0.0059,9.8066,-0.0382,-0.0159,-0.031,8.75,-43.0,45.44,44.88,-83.87,-150.66
57419,53.744568,-1.660104,227.37,25.25,6,254.87,18 / 20,5741939,2019-11-08 11:32:59:550,-0.5064,0.0201,9.2683,-0.0008,0.0186,9.8066,-0.0401,0.0224,0.1137,8.31,-43.25,45.5,43.09,-83.83,-150.83
57420,53.744568,-1.660104,227.37,25.25,6,254.87,18 / 20,5742039,2019-11-08 11:32:59:650,-0.128,-1.063,10.5526,-0.0054,-0.0058,9.8066,0.0581,-0.0007,-0.0679,7.38,-43.37,44.88,41.64,-83.98,-151.14
57421,53.744568,-1.660104,227.37,25.25,6,254.87,18 / 20,5742139,2019-11-08 11:32:59:750,1.4635,-1.0349,9.8046,0.0227,-0.008,9.8066,-0.001,-0.0743,0.0561,6.0,-43.19,45.44,40.38,-83.95,-151.08
57422,53.744568,-1.660104,227.37,25.25,6,254.87,18 / 20,5742239,2019-11-08 11:32:59:850,-0.3131,-0.626,9.6575,-0.0135,0.0054,9.8066,0.0098,0.0089,0.1185,4.88,-42.75,45.38,39.31,-83.96,-150.83
57423,53.744568,-1.660104,227.37,25.25,6,254.87,18 / 20,5742339,2019-11-08 11:32:59:950,0.4584,-0.0026,8.8458,0.0068,0.0259,9.8066,-0.0721,0.0035,-0.0147,4.81,-42.75,46.0,38.61,-83.93,-151.27
57424,53.744568,-1.660104,227.37,25.25,6,254.87,18 / 20,5742439,2019-11-08 11:33:00:050,0.9185,-0.3313,11.0898,-0.0011,0.012,9.8066,-0.0288,0.0865,0.0257,3.44,-42.62,47.0,36.04,-83.97,-151.01
57425,53.744568,-1.660104,227.37,25.25,6,254.87,20 / 20,5742539,2019-11-08 11:33:00:150,-1.0331,-0.8978,9.5665,-0.0234,0.019,9.8065,0.0325,0.0511,-0.1153,3.13,-42.69,48.13,34.63,-84.01,-152.13
57426,53.744568,-1.660104,227.37,25.25,6,254.87,20 / 20,5742639,2019-11-08 11:33:00:250,0.2515,-1.2814,9.5064,0.0116,-0.0045,9.8065,0.0579,-0.0135,-0.0884,2.44,-42.12,47.81,35.79,-84.06,-149.78
57427,53.744568,-1.660104,227.37,25.25,6,254.87,20 / 20,5742739,2019-11-08 11:33:00:350,-0.0663,-1.0449,9.9418,0.0013,-0.0086,9.8066,-0.0068,-0.0547,0.1057,3.06,-42.0,49.44,38.0,-84.09,-148.77
57428,53.744568,-1.660104,227.37,25.25,6,254.87,20 / 20,5742838,2019-11-08 11:33:00:449,-0.1205,-1.5262,9.4197,-0.0043,-0.0029,9.8066,0.0384,-0.0558,0.0106,2.38,-42.12,49.56,35.87,-84.06,-149.49
57429,53.744568,-1.660104,227.37,25.25,6,254.87,20 / 20,5742938,2019-11-08 11:33:00:549,-0.613,0.1736,10.5723,-0.0026,0.0039,9.8066,0.0238,-0.0182,0.0835,2.56,-42.12,51.0,37.5,-84.13,-148.95
57430,53.744568,-1.660104,227.37,25.25,6,254.87,20 / 20,5743038,2019-11-08 11:33:00:649,0.6164,0.1355,9.7072,-0.0005,-0.0072,9.8065,0.058,0.0177,0.0332,2.0,-42.0,51.31,34.84,-84.14,-150.31
57431,53.744568,-1.660104,227.37,25.25,6,254.87,20 / 20,5743138,2019-11-08 11:33:00:749,0.5495,-0.4315,8.8254,0.0018,-0.0023,9.8066,-0.034,-0.0773,0.0565,1.88,-41.19,51.63,35.72,-84.15,-149.32
57432,53.744568,-1.660104,227.37,25.25,6,254.87,20 / 20,5743238,2019-11-08 11:33:00:849,-0.0844,0.1983,9.6993,-0.0191,-0.0105,9.8066,-0.0083,0.0119,0.1391,2.81,-42.5,52.06,36.58,-84.31,-149.59
57433,53.744568,-1.660104,227.37,25.25,6,254.87,20 / 20,5743338,2019-11-08 11:33:00:949,0.9128,0.2067,9.4404,0.0144,0.0011,9.8066,-0.0313,0.0312,-0.1329,3.25,-41.75,51.5,37.26,-84.16,-149.04
57434,53.744568,-1.660104,227.37,25.25,6,254.87,20 / 20,5743438,2019-11-08 11:33:01:049,-0.3198,-0.0216,9.7442,-0.017,0.0179,9.8066,-0.0961,-0.0634,0.0006,3.44,-41.69,52.38,38.83,-84.14,-147.58
57435,53.744568,-1.660104,227.37,25.25,6,254.87,19 / 21,5743538,2019-11-08 11:33:01:149,-0.7407,-2.3781,9.5825,0.0065,0.0099,9.8066,-0.0051,-0.0557,0.1374,3.44,-42.06,51.94,37.24,-84.25,-149.01
57436,53.744568,-1.660104,227.37,25.25,6,254.87,19 / 21,5743638,2019-11-08 11:33:01:249,-1.2792,0.6126,10.4709,-0.0021,0.0204,9.8066,-0.0371,0.0188,-0.0972,3.81,-42.12,52.38,41.89,-84.35,-145.68
57437,53.744568,-1.660104,227.37,25.25,6,254.87,19 / 21,5743739,2019-11-08 11:33:01:350,-0.4241,-0.0935,10.1268,-0.013,-0.0087,9.8066,-0.0115,0.1113,0.0949,4.19,-41.94,52.75,41.11,-84.23,-146.36
57438,53.744568,-1.660104,227.37,25.25,6,254.87,19 / 21,5743839,2019-11-08 11:33:01:450,-0.9574,0.317,10.0681,0.026,-0.0001,9.8066,0.0089,0.0206,-0.1456,4.44,-42.12,53.0,42.07,-84.15,-145.5
57439,53.744568,-1.660104,227.37,25.25,6,254.87,19 / 21,5743938,2019-11-08 11:33:01:549,0.1258,0.6814,10.0201,0.0059,0.0043,9.8066,0.0035,0.0539,0.0036,4.38,-42.62,52.5,42.49,-84.21,-145.14
57440,53.744568,-1.660104,227.37,25.25,6,254.87,19 / 21,5744039,2019-11-08 11:33:01:650,1.2363,-0.8419,9.9122,0.0174,-0.0183,9.8065,0.0604,-0.0055,-0.0238,4.63,-42.56,52.44,41.31,-84.27,-147.44
57441,53.744568,-1.660104,227.37,25.25,6,254.87,19 / 21,5744138,2019-11-08 11:33:01:749,0.4516,0.6533,9.2235,0.0072,-0.0066,9.8066,0.021,-0.0627,-0.0567,5.0,-42.06,52.56,41.74,-84.37,-146.75
57442,53.744568,-1.660104,227.37,25.25,6,254.87,19 / 21,5744238,2019-11-08 11:33:01:849,0.924,0.6287,10.0699,-0.0138,0.0107,9.8066,-0.038,-0.0207,0.0892,4.56,-42.5,52.75,41.73,-84.34,-146.77
57443,53.744568,-1.660104,227.37,25.25,6,254.87,19 / 21,5744338,2019-11-08 11:33:01:949,0.007,-0.1143,10.2616,-0.0039,-0.0067,9.8066,0.0042,0.0166,0.0383,4.81,-42.69,52.44,42.36,-84.45,-146.34
57444,53.744568,-1.660104,227.37,25.25,6,254.87,19 / 21,5744438,2019-11-08 11:33:02:049,1.0924,-1.1218,10.5815,-0.019,0.0073,9.8065,-0.0467,-0.0261,0.0298,4.75,-42.62,52.69,42.48,-84.32,-146.15
57445,53.744568,-1.660104,227.37,25.25,6,254.87,19 / 21,5744538,2019-11-08 11:33:02:149,-0.2841,-1.0241,10.4793,-0.0022,-0.0205,9.8065,0.0082,0.0709,0.1192,4.75,-42.56,53.19,41.96,-84.17,-146.73
57446,53.744568,-1.660104,227.37,25.25,6,254.87,19 / 21,5744638,2019-11-08 11:33:02:249,-0.7807,0.9541,9.9402,-0.0007,-0.0066,9.8066,-0.0102,-0.0541,-0.1281,3.81,-42.5,52.88,41.43,-83.95,-146.21
57447,53.744568,-1.660104,227.37,25.25,6,254.87,19 / 21,5744739,2019-11-08 11:33:02:350,-0.8129,0.2113,10.1392,-0.0183,0.0093,9.8066,-0.0442,0.0669,0.018,4.5,-42.44,52.94,42.02,-83.91,-146.75
57448,53.744568,-1.660104,227.37,25.25,6,254.87,19 / 21,5744839,2019-11-08 11:33:02:450,-1.2066,1.0941,9.6728,0.0093,-0.0207,9.8066,-0.0279,0.165,-0.1097,4.38,-42.75,52.38,42.52,-83.96,-145.41
57449,53.744568,-1.660104,227.37,25.25,6,254.87,19 / 21,5744939,2019-11-08 11:33:02:550,1.7384,-0.8566,9.3114,0.0251,0.0025,9.8066,-0.0343,0.1034,-0.2255,5.06,-42.75,52.25,44.24,-83.89,-144.93
57450,53.744568,-1.660104,227.37,25.25,6,254.87,19 / 21,5745039,2019-11-08 11:33:02:650,-1.552,-0.9501,10.0221,-0.0006,-0.0094,9.8066,-0.0363,0.0517,0.1381,5.31,-42.69,52.88,41.54,-83.93,-147.26
57451,53.744568,-1.660104,227.37,25.25,6,254.87,19 / 21,5745139,2019-11-08 11:33:02:750,1.3632,-1.2993,9.2548,0.0066,-0.0034,9.8066,-0.0045,-0.0649,0.0367,5.5,-42.5,52.69,43.47,-83.86,-146.48
57452,53.744568,-1.660104,227.37,25.25,6,254.87,19 / 21,5745239,2019-11-08 11:33:02:850,-0.83,-0.6333,9.9888,0.0083,0.0117,9.8065,0.0238,-0.1019,0.0786,5.06,-43.31,52.63,42.45,-84.03,-146.36
57453,53.744568,-1.660104,227.37,25.25,6,254.87,19 / 21,5745338,2019-11-08 11:33:02:949,-0.0235,-0.8348,9.9279,-0.0042,-0.0104,9.8066,0.0716,-0.1439,0.1372,5.44,-43.06,52.94,42.08,-84.02,-146.7
57454,53.744568,-1.660104,227.37,25.25,6,254.87,19 / 21,5745438,2019-11-08 11:33:03:049,0.9627,-0.293,9.5272,-0.0027,0.0077,9.8066,0.0191,-0.1455,0.0238,5.25,-43.25,52.69,42.87,-83.91,-146.04
57455,53.744568,-1.660104,227.37,25.25,6,254.87,19 / 20,5745538,2019-11-08 11:33:03:149,-1.8231,-1.9529,10.3308,0.0202,0.0004,9.8066,0.0191,0.0109,0.0306,4.94,-43.12,52.38,41.94,-83.85,-147.1
57456,53.744568,-1.660104,227.37,25.25,6,254.87,19 / 20,5745640,2019-11-08 11:33:03:251,1.4073,-0.2296,9.6488,-0.0151,-0.0011,9.8066,-0.0343,0.1063,-0.0476,5.13,-42.87,52.75,41.76,-83.81,-147.13
57457,53.744568,-1.660104,227.37,25.25,6,254.87,19 / 20,5745739,2019-11-08 11:33:03:350,1.3481,-0.4166,9.0467,-0.0001,-0.0101,9.8066,-0.0592,0.2237,-0.0989,5.19,-43.81,52.0,42.04,-83.73,-147.16
57458,53.744568,-1.660104,227.37,25.25,6,254.87,19 / 20,5745839,2019-11-08 11:33:03:450,-1.6593,-0.6571,9.8939,-0.0246,-0.0034,9.8066,-0.0048,0.1696,-0.1097,5.25,-43.44,52.44,42.83,-83.69,-146.37
57459,53.744568,-1.660104,227.37,25.25,6,254.87,19 / 20,5745940,2019-11-08 11:33:03:551,0.4682,0.4351,9.6443,-0.0257,-0.009,9.8065,0.0344,0.0732,-0.0771,5.44,-43.44,51.56,42.85,-83.69,-146.35
57460,53.744568,-1.660104,227.37,25.25,6,254.87,19 / 20,5746038,2019-11-08 11:33:03:649,-1.41,0.7293,10.298,0.0027,-0.0065,9.8066,0.0088,0.0374,0.0392,4.94,-43.31,52.06,42.75,-83.66,-146.46
57461,53.744568,-1.660104,227.37,25.25,6,254.87,19 / 20,5746138,2019-11-08 11:33:03:749,1.0344,-0.4802,9.1656,0.0308,0.0249,9.8065,0.0834,-0.0513,-0.0531,5.13,-43.5,51.94,43.57,-83.58,-145.74
57462,53.744568,-1.660104,227.37,25.25,6,254.87,19 / 20,5746239,2019-11-08 11:33:03:850,-1.784,0.2214,10.2128,0.0197,0.0056,9.8065,-0.0083,-0.1855,0.1334,5.0,-43.87,51.63,42.88,-83.74,-146.38
57463,53.744568,-1.660104,227.37,25.25,6,254.87,19 / 20,5746339,2019-11-08 11:33:03:950,0.6896,-0.1642,9.8392,0.0239,-0.006,9.8066,0.0083,-0.0938,0.1494,5.44,-43.44,51.25,43.59,-83.84,-145.74
57464,53.744568,-1.660104,227.37,25.25,6,254.87,19 / 20,5746438,2019-11-08 11:33:04:049,0.7552,0.6895,8.9606,-0.0027,0.0133,9.8066,0.0356,-0.0919,-0.053,4.75,-43.44,52.25,42.58,-83.91,-146.47
57465,53.744568,-1.660104,227.37,25.25,6,254.87,21 / 23,5746540,2019-11-08 11:33:04:151,-0.2333,-0.7075,10.2021,0.0271,0.0132,9.8066,0.0181,0.0238,-0.0128,5.0,-42.56,51.69,41.39,-83.94,-147.56
57466,53.744568,-1.660104,227.37,25.25,6,254.87,21 / 23,5746638,2019-11-08 11:33:04:249,0.6835,1.4615,9.1074,-0.0027,-0.0143,9.8066,-0.0563,0.0766,-0.0305,5.0,-41.62,52.31,40.69,-83.74,-148.26
57467,53.744568,-1.660104,227.37,25.25,6,254.87,21 / 23,5746738,2019-11-08 11:33:04:349,0.0249,-0.4421,10.8623,-0.013,-0.0271,9.8066,-0.1433,0.114,-0.0406,3.88,-42.12,52.0,39.09,-83.73,-148.66
57468,53.744568,-1.660104,227.37,25.25,6,254.87,21 / 23,5746838,2019-11-08 11:33:04:449,-0.4813,1.1366,9.6127,-0.0022,0.0083,9.8066,0.0435,0.1064,0.0575,4.31,-41.75,51.81,39.71,-83.6,-148.17
57469,53.744568,-1.660104,227.37,25.25,6,254.87,21 / 23,5746939,2019-11-08 11:33:04:550,-0.9744,-0.1179,10.625,-0.0075,0.0026,9.8065,0.0249,0.0516,-0.1234,3.44,-40.69,51.56,37.98,-83.5,-148.65
57470,53.744568,-1.660104,227.37,25.25,6,254.87,21 / 23,5747039,2019-11-08 11:33:04:650,-1.1143,-0.7462,10.4823,0.0156,0.0018,9.8066,0.0268,-0.0387,0.0789,3.5,-41.0,51.88,37.45,-83.59,-150.19
57471,53.744568,-1.660104,227.37,25.25,6,254.87,21 / 23,5747138,2019-11-08 11:33:04:749,0.9814,0.2477,8.7011,0.0175,0.0242,9.8066,0.1252,-0.0507,0.103,4.06,-40.44,51.19,37.0,-83.4,-150.77
57472,53.744568,-1.660104,227.37,25.25,6,254.87,21 / 23,5747238,2019-11-08 11:33:04:849,-1.475,0.5969,10.3226,0.0187,0.0053,9.8066,-0.0097,-0.1393,0.045,3.94,-40.12,50.94,35.41,-83.57,-152.16
57473,53.744568,-1.660104,227.37,25.25,6,254.87,21 / 23,5747338,2019-11-08 11:33:04:949,1.0306,0.1723,9.2152,0.0302,0.0019,9.8066,0.0058,0.0148,0.0614,3.5,-40.12,51.63,36.29,-83.5,-151.24
57474,53.744568,-1.660104,227.37,25.25,6,254.87,21 / 23,5747439,2019-11-08 11:33:05:050,1.0272,1.0092,9.7095,-0.0111,-0.0005,9.8066,-0.0397,0.0243,-0.1233,3.69,-40.81,51.13,35.3,-83.59,-152.33
57475,53.744568,-1.660104,227.37,25.25,6,254.87,20 / 20,5747539,2019-11-08 11:33:05:150,0.3299,-0.481,10.0897,0.0051,-0.0218,9.8066,-0.0412,0.0774,0.1126,4.63,-41.5,50.94,36.84,-83.49,-152.07
57476,53.744568,-1.660104,227.37,25.25,6,254.87,20 / 20,5747639,2019-11-08 11:33:05:250,0.9893,-0.2269,9.2993,-0.0188,0.0036,9.8066,-0.0388,0.0941,0.0284,5.19,-41.87,51.13,38.1,-83.37,-151.05
57477,53.744568,-1.660104,227.37,25.25,6,254.87,20 / 20,5747739,2019-11-08 11:33:05:350,-0.3396,0.1521,9.9085,0.0045,0.0067,9.8066,-0.0121,-0.0661,-0.0427,3.94,-40.94,52.13,36.2,-83.45,-151.43
57478,53.744568,-1.660104,227.37,25.25,6,254.87,20 / 20,5747838,2019-11-08 11:33:05:449,-0.0956,-0.7524,9.5977,0.0104,0.0094,9.8066,0.0245,0.0208,0.1135,3.88,-40.94,51.69,37.95,-83.44,-149.8
57479,53.744568,-1.660104,227.37,25.25,6,254.87,20 / 20,5747938,2019-11-08 11:33:05:549,-0.3103,1.076,10.3566,-0.0007,-0.0075,9.8066,0.0164,-0.0279,-0.1223,4.38,-42.37,51.13,37.45,-83.55,-150.43
57480,53.744568,-1.660104,227.37,25.25,6,254.87,20 / 20,5748038,2019-11-08 11:33:05:649,0.7239,0.1487,9.7357,0.0143,-0.0135,9.8066,-0.0408,0.0623,-0.0127,5.0,-42.56,51.94,38.86,-83.6,-150.11
57481,53.744568,-1.660104,227.37,25.25,6,254.87,20 / 20,5748138,2019-11-08 11:33:05:749,-0.598,0.1729,9.9006,-0.0129,0.0037,9.8066,0.0074,0.1457,-0.0873,5.75,-43.25,51.94,39.29,-83.47,-150.87
57482,53.744568,-1.660104,227.37,25.25,6,254.87,20 / 20,5748238,2019-11-08 11:33:05:849,0.542,-0.6876,8.9779,-0.0076,-0.0031,9.8066,-0.0149,0.0836,-0.1575,5.5,-42.94,52.25,39.77,-83.48,-150.43
57483,53.744568,-1.660104,227.37,25.25,6,254.87,20 / 20,5748338,2019-11-08 11:33:05:949,0.2683,-0.047,10.5727,0.0282,-0.0181,9.8065,-0.1405,0.0419,0.0832,5.81,-42.81,51.94,40.53,-83.65,-149.62
57484,53.744568,-1.660104,227.37,25.25,6,254.87,20 / 20,5748439,2019-11-08 11:33:06:050,1.9488,1.3885,9.0034,-0.02,-0.0048,9.8065,0.0589,-0.0071,0.1084,5.81,-43.06,51.63,39.39,-83.61,-150.71
57485,53.744568,-1.660104,227.37,25.25,6,254.87,20 / 21,5748539,2019-11-08 11:33:06:150,2.3806,-1.9863,10.037,0.0339,-0.0295,9.8065,-0.0982,-0.3534,0.1485,5.19,-43.12,52.13,37.43,-83.82,-151.31
57486,53.744568,-1.660104,227.37,25.25,6,254.87,20 / 21,5748638,2019-11-08 11:33:06:249,-2.5991,0.8066,10.3956,-0.0148,0.0278,9.8066,-0.0935,-0.1461,0.3202,5.81,-43.62,51.56,37.8,-83.71,-152.19
57487,53.744568,-1.660104,227.37,25.25,6,254.87,20 / 21,5748738,2019-11-08 11:33:06:349,2.3462,-1.2547,9.3253,-0.0176,0.0367,9.8065,0.0157,0.1475,-0.2919,6.13,-43.44,51.63,36.47,-83.72,-153.35
57488,53.744568,-1.660104,227.37,25.25,6,254.87,20 / 21,5748838,2019-11-08 11:33:06:449,-1.2372,0.7209,10.764,0.053,-0.0108,9.8064,0.0585,0.1496,-0.2518,6.06,-43.94,52.38,37.26,-83.9,-152.58
57489,53.744568,-1.660104,227.37,25.25,6,254.87,20 / 21,5748938,2019-11-08 11:33:06:549,-1.2828,0.2236,9.7762,-0.004,-0.0007,9.8066,0.0294,0.2108,-0.0326,6.19,-43.25,51.94,38.28,-83.76,-151.64
57490,53.744568,-1.660104,227.37,25.25,6,254.87,20 / 21,5749038,2019-11-08 11:33:06:649,-1.1249,-0.3903,10.5844,0.0208,0.0027,9.8066,-0.0518,0.1805,-0.1732,5.94,-43.62,51.69,37.96,-83.76,-152.01
57491,53.744568,-1.660104,227.37,25.25,6,254.87,20 / 21,5749138,2019-11-08 11:33:06:749,-1.9107,0.2304,9.3538,-0.0135,0.0139,9.8065,-0.0627,0.1537,0.0446,6.5,-44.19,51.75,39.54,-83.81,-151.6
57492,53.744568,-1.660104,227.37,25.25,6,254.87,20 / 21,5749239,2019-11-08 11:33:06:850,1.1932,-1.8141,9.1642,-0.0209,0.0116,9.8066,0.0256,-0.0449,0.0787,6.06,-43.69,51.88,39.3,-83.92,-150.68
57493,53.744568,-1.660104,227.37,25.25,6,254.87,20 / 21,5749339,2019-11-08 11:33:06:950,-1.2929,0.9592,10.2388,-0.0037,-0.0184,9.8066,-0.0007,-0.1831,0.0153,5.56,-43.75,51.94,39.82,-84.11,-150.08
57494,53.744568,-1.660104,227.37,25.25,6,254.87,20 / 21,5749439,2019-11-08 11:33:07:050,1.5058,-0.3206,9.6126,-0.0407,-0.0255,9.8065,0.0121,-0.2555,0.2283,6.69,-43.81,51.56,40.56,-83.85,-150.63
57495,53.744007,-1.663432,225.92,25.52,4,254.47,22 / 23,5749539,2019-11-08 11:33:07:150,2.2386,0.0107,9.3822,0.0027,-0.0139,9.8066,0.0058,-0.217,0.0681,6.44,-43.37,52.0,36.97,-84.01,-152.73
57496,53.744007,-1.663432,225.92,25.52,4,254.47,22 / 23,5749639,2019-11-08 11:33:07:250,-1.875,0.3536,10.776,-0.0081,0.0027,9.8066,-0.011,-0.0805,-0.0206,6.31,-43.87,51.69,37.39,-84.02,-152.4
