,GPS LATITUDE (degrees),GPS LONGITUDE (degrees), GPS ALTITUDE (m),GPS SPEED (Kmh),GPS ACCURACY (m),GPS ORIENTATION (Â°), SATELLITES IN RANGE, TIME SINCE START (ms), DATE (YYYY-MO-DD HH-MI-SS_SSS),ACCELEROMETER X (m/s²) , ACCELEROMETER Y (m/s²), ACCELEROMETER Z (m/s²), GRAVITY X (m/s²), GRAVITY Y (m/s²), GRAVITY Z (m/s²), GYROSCOPE Yaw (rad/s), GYROSCOPE Pitch (rad/s), GYROSCOPE Roll (rad/s)
80855,48.489887,-2.680486,59.33,10.36,17.152,296.9,Dec-21,2382314,2019-08-12 17:12:22:756,0.0367,0.1552,10.3919,0.1255,0.0469,9.8057,-0.0299,-0.0159,-0.003
80856,48.489887,-2.680486,59.33,10.36,17.152,296.9,Dec-21,2382314,2019-08-12 17:12:22:756,0.0367,0.1552,10.3919,0.1255,0.0469,9.8057,-0.0299,-0.0159,-0.003
80857,48.489887,-2.680486,59.33,10.36,17.152,296.9,Dec-21,2382315,2019-08-12 17:12:22:757,0.0367,0.1552,10.3919,0.1255,0.0469,9.8057,-0.0299,-0.0159,-0.003
80858,48.489887,-2.680486,59.33,10.36,17.152,296.9,Dec-21,2382334,2019-08-12 17:12:22:776,0.0367,0.1552,10.3919,0.1255,0.0469,9.8057,-0.0299,-0.0159,-0.003
80859,48.489887,-2.680486,59.33,10.36,17.152,296.9,Dec-21,2382432,2019-08-12 17:12:22:874,0.0367,0.1552,10.3919,0.1255,0.0469,9.8057,-0.0299,-0.0159,-0.003
80860,48.489887,-2.680486,59.33,10.36,17.152,296.9,Dec-21,2382780,2019-08-12 17:12:23:222,0.0367,0.1552,10.3919,0.1255,0.0469,9.8057,-0.0299,-0.0159,-0.003
80861,48.489887,-2.680486,59.33,10.36,17.152,296.9,Dec-21,2382781,2019-08-12 17:12:23:223,0.0367,0.1552,10.3919,0.1255,0.0469,9.8057,-0.0299,-0.0159,-0.003
80862,48.489887,-2.680486,59.33,10.36,17.152,296.9,Dec-21,2382782,2019-08-12 17:12:23:224,0.0367,0.1552,10.3919,0.1255,0.0469,9.8057,-0.0299,-0.0159,-0.003
80863,48.489887,-2.680486,59.33,10.36,17.152,296.9,Dec-21,2382782,2019-08-12 17:12:23:224,0.0367,0.1552,10.3919,0.1255,0.0469,9.8057,-0.0299,-0.0159,-0.003
80864,48.489887,-2.680486,59.33,10.36,17.152,296.9,0 / 21,2382783,2019-08-12 17:12:23:225,0.0367,0.1552,10.3919,0.1255,0.0469,9.8057,-0.0299,-0.0159,-0.003
80865,48.489887,-2.680486,59.33,10.36,17.152,296.9,0 / 21,2382783,2019-08-12 17:12:23:225,0.0367,0.1552,10.3919,0.1255,0.0469,9.8057,-0.0299,-0.0159,-0.003
80866,48.489887,-2.680486,59.33,10.36,17.152,296.9,0 / 21,2382783,2019-08-12 17:12:23:225,0.0367,0.1552,10.3919,0.1255,0.0469,9.8057,-0.0299,-0.0159,-0.003
80867,48.489887,-2.680486,59.33,10.36,17.152,296.9,0 / 21,2382784,2019-08-12 17:12:23:226,0.0367,0.1552,10.3919,0.1255,0.0469,9.8057,-0.0299,-0.0159,-0.003
80868,48.489887,-2.680486,59.33,10.36,17.152,296.9,0 / 21,2382791,2019-08-12 17:12:23:233,0.0367,0.1552,10.3919,0.1255,0.0469,9.8057,-0.0299,-0.0159,-0.003
80869,48.490494,-2.681943,63.64,12.16,11.792,301.3,0 / 21,2382892,2019-08-12 17:12:23:334,0.0367,0.1552,10.3919,0.1255,0.0469,9.8057,-0.0299,-0.0159,-0.003
80870,48.490494,-2.681943,63.64,12.16,11.792,301.3,0 / 21,2383248,2019-08-12 17:12:23:690,0.0367,0.1552,10.3919,0.1255,0.0469,9.8057,-0.0299,-0.0159,-0.003
80871,48.490494,-2.681943,63.64,12.16,11.792,301.3,0 / 21,2383249,2019-08-12 17:12:23:691,0.0367,0.1552,10.3919,0.1255,0.0469,9.8057,-0.0299,-0.0159,-0.003
80872,48.490494,-2.681943,63.64,12.16,11.792,301.3,0 / 21,2383249,2019-08-12 17:12:23:691,0.0367,0.1552,10.3919,0.1255,0.0469,9.8057,-0.0299,-0.0159,-0.003
80873,48.490494,-2.681943,63.64,12.16,11.792,301.3,0 / 21,2383250,2019-08-12 17:12:23:692,0.0367,0.1552,10.3919,0.1255,0.0469,9.8057,-0.0299,-0.0159,-0.003
80874,48.490494,-2.681943,63.64,12.16,11.792,301.3,0 / 21,2383250,2019-08-12 17:12:23:692,0.0367,0.1552,10.3919,0.1255,0.0469,9.8057,-0.0299,-0.0159,-0.003
80875,48.490494,-2.681943,63.64,12.16,11.792,301.3,0 / 21,2383251,2019-08-12 17:12:23:693,0.0367,0.1552,10.3919,0.1255,0.0469,9.8057,-0.0299,-0.0159,-0.003
80876,48.490494,-2.681943,63.64,12.16,11.792,301.3,0 / 21,2383251,2019-08-12 17:12:23:693,0.0367,0.1552,10.3919,0.1255,0.0469,9.8057,-0.0299,-0.0159,-0.003
80877,48.490494,-2.681943,63.64,12.16,11.792,301.3,0 / 21,2383252,2019-08-12 17:12:23:694,0.0367,0.1552,10.3919,0.1255,0.0469,9.8057,-0.0299,-0.0159,-0.003
80878,48.490494,-2.681943,63.64,12.16,11.792,301.3,0 / 21,2383253,2019-08-12 17:12:23:695,0.0367,0.1552,10.3919,0.1255,0.0469,9.8057,-0.0299,-0.0159,-0.003
80879,48.490494,-2.681943,63.64,12.16,11.792,301.3,0 / 21,2383254,2019-08-12 17:12:23:696,0.0367,0.1552,10.3919,0.1255,0.0469,9.8057,-0.0299,-0.0159,-0.003
80880,48.490494,-2.681943,63.64,12.16,11.792,301.3,0 / 21,2383254,2019-08-12 17:12:23:696,0.0367,0.1552,10.3919,0.1255,0.0469,9.8057,-0.0299,-0.0159,-0.003
80881,48.490494,-2.681943,63.64,12.16,11.792,301.3,0 / 21,2383255,2019-08-12 17:12:23:697,0.0367,0.1552,10.3919,0.1255,0.0469,9.8057,-0.0299,-0.0159,-0.003
80882,48.490494,-2.681943,63.64,12.16,11.792,301.3,0 / 21,2383255,2019-08-12 17:12:23:697,0.0367,0.1552,10.3919,0.1255,0.0469,9.8057,-0.0299,-0.0159,-0.003
80883,48.490494,-2.681943,63.64,12.16,11.792,301.3,0 / 21,2383256,2019-08-12 17:12:23:698,0.0367,0.1552,10.3919,0.1255,0.0469,9.8057,-0.0299,-0.0159,-0.003
80884,48.490494,-2.681943,63.64,12.16,11.792,301.3,0 / 21,2383256,2019-08-12 17:12:23:698,0.0367,0.1552,10.3919,0.1255,0.0469,9.8057,-0.0299,-0.0159,-0.003
80885,48.490494,-2.681943,63.64,12.16,11.792,301.3,0 / 21,2383256,2019-08-12 17:12:23:698,0.0367,0.1552,10.3919,0.1255,0.0469,9.8057,-0.0299,-0.0159,-0.003
80886,48.490494,-2.681943,63.64,12.16,11.792,301.3,0 / 21,2383257,2019-08-12 17:12:23:699,0.0367,0.1552,10.3919,0.1255,0.0469,9.8057,-0.0299,-0.0159,-0.003
80887,48.490494,-2.681943,63.64,12.16,11.792,301.3,0 / 21,2383258,2019-08-12 17:12:23:700,0.0367,0.1552,10.3919,0.1255,0.0469,9.8057,-0.0299,-0.0159,-0.003
80888,48.490494,-2.681943,63.64,12.16,11.792,301.3,0 / 21,2383258,2019-08-12 17:12:23:700,0.0367,0.1552,10.3919,0.1255,0.0469,9.8057,-0.0299,-0.0159,-0.003
80889,48.490494,-2.681943,63.64,12.16,11.792,301.3,0 / 21,2383260,2019-08-12 17:12:23:702,0.0367,0.1552,10.3919,0.1255,0.0469,9.8057,-0.0299,-0.0159,-0.003
80890,48.490494,-2.681943,63.64,12.16,11.792,301.3,0 / 21,2383260,2019-08-12 17:12:23:702,0.0367,0.1552,10.3919,0.1255,0.0469,9.8057,-0.0299,-0.0159,-0.003
80891,48.490494,-2.681943,63.64,12.16,11.792,301.3,0 / 21,2383261,2019-08-12 17:12:23:703,0.0367,0.1552,10.3919,0.1255,0.0469,9.8057,-0.0299,-0.0159,-0.003
80892,48.490494,-2.681943,63.64,12.16,11.792,301.3,0 / 21,2383261,2019-08-12 17:12:23:703,0.0367,0.1552,10.3919,0.1255,0.0469,9.8057,-0.0299,-0.0159,-0.003
80893,48.490494,-2.681943,63.64,12.16,11.792,301.3,0 / 21,2383262,2019-08-12 17:12:23:704,0.0367,0.1552,10.3919,0.1255,0.0469,9.8057,-0.0299,-0.0159,-0.003
80894,48.490494,-2.681943,63.64,12.16,11.792,301.3,0 / 21,2383263,2019-08-12 17:12:23:705,0.0367,0.1552,10.3919,0.1255,0.0469,9.8057,-0.0299,-0.0159,-0.003
80895,48.490494,-2.681943,63.64,12.16,11.792,301.3,0 / 21,2383263,2019-08-12 17:12:23:705,0.0367,0.1552,10.3919,0.1255,0.0469,9.8057,-0.0299,-0.0159,-0.003
80896,48.490494,-2.681943,63.64,12.16,11.792,301.3,0 / 21,2383264,2019-08-12 17:12:23:706,0.0367,0.1552,10.3919,0.1255,0.0469,9.8057,-0.0299,-0.0159,-0.003
80897,48.490494,-2.681943,63.64,12.16,11.792,301.3,0 / 21,2383264,2019-08-12 17:12:23:706,0.0367,0.1552,10.3919,0.1255,0.0469,9.8057,-0.0299,-0.0159,-0.003
80898,48.490494,-2.681943,63.64,12.16,11.792,301.3,0 / 21,2383265,2019-08-12 17:12:23:707,0.0367,0.1552,10.3919,0.1255,0.0469,9.8057,-0.0299,-0.0159,-0.003
80899,48.490494,-2.681943,63.64,12.16,11.792,301.3,0 / 21,2383266,2019-08-12 17:12:23:708,0.0367,0.1552,10.3919,0.1255,0.0469,9.8057,-0.0299,-0.0159,-0.003
80900,48.490494,-2.681943,63.64,12.16,11.792,301.3,0 / 21,2383268,2019-08-12 17:12:23:710,0.0367,0.1552,10.3919,0.1255,0.0469,9.8057,-0.0299,-0.0159,-0.003
80901,48.490494,-2.681943,63.64,12.16,11.792,301.3,0 / 21,2383269,2019-08-12 17:12:23:711,0.0367,0.1552,10.3919,0.1255,0.0469,9.8057,-0.0299,-0.0159,-0.003
80902,48.490494,-2.681943,63.64,12.16,11.792,301.3,0 / 21,2383269,2019-08-12 17:12:23:711,0.0367,0.1552,10.3919,0.1255,0.0469,9.8057,-0.0299,-0.0159,-0.003
80903,48.490494,-2.681943,63.64,12.16,11.792,301.3,0 / 21,2383270,2019-08-12 17:12:23:712,0.0367,0.1552,10.3919,0.1255,0.0469,9.8057,-0.0299,-0.0159,-0.003
80904,48.490494,-2.681943,63.64,12.16,11.792,301.3,0 / 21,2383271,2019-08-12 17:12:23:713,0.0367,0.1552,10.3919,0.1255,0.0469,9.8057,-0.0299,-0.0159,-0.003
80905,48.490494,-2.681943,63.64,12.16,11.792,301.3,0 / 21,2383272,2019-08-12 17:12:23:714,0.0367,0.1552,10.3919,0.1255,0.0469,9.8057,-0.0299,-0.0159,-0.003
80906,48.490494,-2.681943,63.64,12.16,11.792,301.3,0 / 21,2383272,2019-08-12 17:12:23:714,0.0367,0.1552,10.3919,0.1255,0.0469,9.8057,-0.0299,-0.0159,-0.003
80907,48.490494,-2.681943,63.64,12.16,11.792,301.3,0 / 21,2383272,2019-08-12 17:12:23:714,0.0367,0.1552,10.3919,0.1255,0.0469,9.8057,-0.0299,-0.0159,-0.003
80908,48.490494,-2.681943,63.64,12.16,11.792,301.3,0 / 21,2383273,2019-08-12 17:12:23:715,0.0367,0.1552,10.3919,0.1255,0.0469,9.8057,-0.0299,-0.0159,-0.003
80909,48.490494,-2.681943,63.64,12.16,11.792,301.3,0 / 21,2383273,2019-08-12 17:12:23:715,0.0367,0.1552,10.3919,0.1255,0.0469,9.8057,-0.0299,-0.0159,-0.003
80910,48.490494,-2.681943,63.64,12.16,11.792,301.3,0 / 21,2383273,2019-08-12 17:12:23:715,0.0367,0.1552,10.3919,0.1255,0.0469,9.8057,-0.0299,-0.0159,-0.003
80911,48.490494,-2.681943,63.64,12.16,11.792,301.3,0 / 21,2383274,2019-08-12 17:12:23:716,0.0367,0.1552,10.3919,0.1255,0.0469,9.8057,-0.0299,-0.0159,-0.003
80912,48.490494,-2.681943,63.64,12.16,11.792,301.3,0 / 21,2383274,2019-08-12 17:12:23:716,0.0367,0.1552,10.3919,0.1255,0.0469,9.8057,-0.0299,-0.0159,-0.003
80913,48.490494,-2.681943,63.64,12.16,11.792,301.3,0 / 21,2383274,2019-08-12 17:12:23:716,0.0367,0.1552,10.3919,0.1255,0.0469,9.8057,-0.0299,-0.0159,-0.003
80914,48.490494,-2.681943,63.64,12.16,11.792,301.3,0 / 21,2383275,2019-08-12 17:12:23:717,0.0367,0.1552,10.3919,0.1255,0.0469,9.8057,-0.0299,-0.0159,-0.003
80915,48.490494,-2.681943,63.64,12.16,11.792,301.3,0 / 21,2383275,2019-08-12 17:12:23:717,0.0367,0.1552,10.3919,0.1255,0.0469,9.8057,-0.0299,-0.0159,-0.003
80916,48.490494,-2.681943,63.64,12.16,11.792,301.3,0 / 21,2383275,2019-08-12 17:12:23:717,0.0367,0.1552,10.3919,0.1255,0.0469,9.8057,-0.0299,-0.0159,-0.003
80917,48.490494,-2.681943,63.64,12.16,11.792,301.3,0 / 21,2383276,2019-08-12 17:12:23:718,0.0367,0.1552,10.3919,0.1255,0.0469,9.8057,-0.0299,-0.0159,-0.003
80918,48.490494,-2.681943,63.64,12.16,11.792,301.3,0 / 21,2383276,2019-08-12 17:12:23:718,0.0367,0.1552,10.3919,0.1255,0.0469,9.8057,-0.0299,-0.0159,-0.003
80919,48.490494,-2.681943,63.64,12.16,11.792,301.3,0 / 21,2383276,2019-08-12 17:12:23:718,0.0367,0.1552,10.3919,0.1255,0.0469,9.8057,-0.0299,-0.0159,-0.003
80920,48.490494,-2.681943,63.64,12.16,11.792,301.3,0 / 21,2383277,2019-08-12 17:12:23:719,0.0367,0.1552,10.3919,0.1255,0.0469,9.8057,-0.0299,-0.0159,-0.003
80921,48.490494,-2.681943,63.64,12.16,11.792,301.3,0 / 21,2383277,2019-08-12 17:12:23:719,0.0367,0.1552,10.3919,0.1255,0.0469,9.8057,-0.0299,-0.0159,-0.003
80922,48.490494,-2.681943,63.64,12.16,11.792,301.3,0 / 21,2383277,2019-08-12 17:12:23:719,0.0367,0.1552,10.3919,0.1255,0.0469,9.8057,-0.0299,-0.0159,-0.003
80923,48.490494,-2.681943,63.64,12.16,11.792,301.3,0 / 21,2383278,2019-08-12 17:12:23:720,0.0367,0.1552,10.3919,0.1255,0.0469,9.8057,-0.0299,-0.0159,-0.003
80924,48.490494,-2.681943,63.64,12.16,11.792,301.3,0 / 21,2383278,2019-08-12 17:12:23:720,0.0367,0.1552,10.3919,0.1255,0.0469,9.8057,-0.0299,-0.0159,-0.003
80925,48.490494,-2.681943,63.64,12.16,11.792,301.3,0 / 21,2383279,2019-08-12 17:12:23:721,0.0367,0.1552,10.3919,0.1255,0.0469,9.8057,-0.0299,-0.0159,-0.003
80926,48.490494,-2.681943,63.64,12.16,11.792,301.3,0 / 21,2383279,2019-08-12 17:12:23:721,0.0367,0.1552,10.3919,0.1255,0.0469,9.8057,-0.0299,-0.0159,-0.003
80927,48.490494,-2.681943,63.64,12.16,11.792,301.3,0 / 21,2383279,2019-08-12 17:12:23:721,0.0367,0.1552,10.3919,0.1255,0.0469,9.8057,-0.0299,-0.0159,-0.003
80928,48.490494,-2.681943,63.64,12.16,11.792,301.3,0 / 21,2383280,2019-08-12 17:12:23:722,0.0367,0.1552,10.3919,0.1255,0.0469,9.8057,-0.0299,-0.0159,-0.003
80929,48.490494,-2.681943,63.64,12.16,11.792,301.3,0 / 21,2383280,2019-08-12 17:12:23:722,0.0367,0.1552,10.3919,0.1255,0.0469,9.8057,-0.0299,-0.0159,-0.003
80930,48.490494,-2.681943,63.64,12.16,11.792,301.3,0 / 21,2383280,2019-08-12 17:12:23:722,0.0367,0.1552,10.3919,0.1255,0.0469,9.8057,-0.0299,-0.0159,-0.003
80931,48.490494,-2.681943,63.64,12.16,11.792,301.3,0 / 21,2383281,2019-08-12 17:12:23:723,0.0367,0.1552,10.3919,0.1255,0.0469,9.8057,-0.0299,-0.0159,-0.003
80932,48.490494,-2.681943,63.64,12.16,11.792,301.3,0 / 21,2383281,2019-08-12 17:12:23:723,0.0367,0.1552,10.3919,0.1255,0.0469,9.8057,-0.0299,-0.0159,-0.003
80933,48.490494,-2.681943,63.64,12.16,11.792,301.3,0 / 21,2383281,2019-08-12 17:12:23:723,0.0367,0.1552,10.3919,0.1255,0.0469,9.8057,-0.0299,-0.0159,-0.003
80934,48.490494,-2.681943,63.64,12.16,11.792,301.3,0 / 21,2383282,2019-08-12 17:12:23:724,0.0367,0.1552,10.3919,0.1255,0.0469,9.8057,-0.0299,-0.0159,-0.003
80935,48.490494,-2.681943,63.64,12.16,11.792,301.3,0 / 21,2383282,2019-08-12 17:12:23:724,0.0367,0.1552,10.3919,0.1255,0.0469,9.8057,-0.0299,-0.0159,-0.003
80936,48.490494,-2.681943,63.64,12.16,11.792,301.3,0 / 21,2383283,2019-08-12 17:12:23:725,0.0367,0.1552,10.3919,0.1255,0.0469,9.8057,-0.0299,-0.0159,-0.003
80937,48.490494,-2.681943,63.64,12.16,11.792,301.3,0 / 21,2383283,2019-08-12 17:12:23:725,0.0367,0.1552,10.3919,0.1255,0.0469,9.8057,-0.0299,-0.0159,-0.003
80938,48.490494,-2.681943,63.64,12.16,11.792,301.3,0 / 21,2383283,2019-08-12 17:12:23:725,0.0367,0.1552,10.3919,0.1255,0.0469,9.8057,-0.0299,-0.0159,-0.003
80939,48.490494,-2.681943,63.64,12.16,11.792,301.3,0 / 21,2383374,2019-08-12 17:12:23:816,0.0367,0.1552,10.3919,0.1255,0.0469,9.8057,-0.0299,-0.0159,-0.003
80940,48.490494,-2.681943,63.64,12.16,11.792,301.3,0 / 21,2383474,2019-08-12 17:12:23:916,0.0367,0.1552,10.3919,0.1255,0.0469,9.8057,-0.0299,-0.0159,-0.003
80941,48.490494,-2.681943,63.64,12.16,11.792,301.3,0 / 21,2383574,2019-08-12 17:12:24:016,0.0367,0.1552,10.3919,0.1255,0.0469,9.8057,-0.0299,-0.0159,-0.003
80942,48.490494,-2.681943,63.64,12.16,11.792,301.3,0 / 21,2383674,2019-08-12 17:12:24:116,0.0703,0.148,10.0567,0.2831,0.1327,9.8017,-0.0331,0.0214,-0.0009
80943,48.490494,-2.681943,63.64,12.16,11.792,301.3,0 / 21,2383995,2019-08-12 17:12:24:437,0.0703,0.148,10.0567,0.2585,0.118,9.8025,-0.0331,0.0214,-0.0009
80944,48.490494,-2.681943,63.64,12.16,11.792,301.3,0 / 21,2383995,2019-08-12 17:12:24:437,0.0703,0.148,10.0567,0.2585,0.118,9.8025,-0.0331,0.0214,-0.0009
80945,48.490494,-2.681943,63.64,12.16,11.792,301.3,0 / 21,2383996,2019-08-12 17:12:24:438,0.0703,0.148,10.0567,0.2585,0.118,9.8025,-0.0331,0.0214,-0.0009
80946,48.490494,-2.681943,63.64,12.16,11.792,301.3,0 / 21,2383996,2019-08-12 17:12:24:438,0.0703,0.148,10.0567,0.2585,0.118,9.8025,-0.0331,0.0214,-0.0009
80947,48.490494,-2.681943,63.64,12.16,11.792,301.3,0 / 21,2383997,2019-08-12 17:12:24:439,0.0703,0.148,10.0567,0.2585,0.118,9.8025,-0.0331,0.0214,-0.0009
80948,48.490494,-2.681943,63.64,12.16,11.792,301.3,Oct-21,2384010,2019-08-12 17:12:24:452,0.0703,0.148,10.0567,0.2585,0.118,9.8025,-0.0331,0.0214,-0.0009
80949,48.490494,-2.681943,63.64,12.16,11.792,301.3,Oct-21,2384110,2019-08-12 17:12:24:552,0.0703,0.148,10.0567,0.2585,0.118,9.8025,-0.0331,0.0214,-0.0009
80950,48.490494,-2.681943,63.64,12.16,11.792,301.3,0 / 21,2384458,2019-08-12 17:12:24:900,0.0703,0.148,10.0567,0.2585,0.118,9.8025,-0.0331,0.0214,-0.0009
80951,48.490494,-2.681943,63.64,12.16,11.792,301.3,0 / 21,2384459,2019-08-12 17:12:24:901,0.0703,0.148,10.0567,0.2585,0.118,9.8025,-0.0331,0.0214,-0.0009
80952,48.490494,-2.681943,63.64,12.16,11.792,301.3,0 / 21,2384459,2019-08-12 17:12:24:901,0.0703,0.148,10.0567,0.2585,0.118,9.8025,-0.0331,0.0214,-0.0009
80953,48.490494,-2.681943,63.64,12.16,11.792,301.3,0 / 21,2384460,2019-08-12 17:12:24:902,0.0703,0.148,10.0567,0.2585,0.118,9.8025,-0.0331,0.0214,-0.0009
80954,48.490494,-2.681943,63.64,12.16,11.792,301.3,0 / 21,2384460,2019-08-12 17:12:24:902,0.0703,0.148,10.0567,0.2585,0.118,9.8025,-0.0331,0.0214,-0.0009
80955,48.490494,-2.681943,63.64,12.16,11.792,301.3,0 / 21,2384460,2019-08-12 17:12:24:902,0.0703,0.148,10.0567,0.2585,0.118,9.8025,-0.0331,0.0214,-0.0009
80956,48.490494,-2.681943,63.64,12.16,11.792,301.3,0 / 21,2384460,2019-08-12 17:12:24:902,0.0703,0.148,10.0567,0.2585,0.118,9.8025,-0.0331,0.0214,-0.0009
80957,48.490494,-2.681943,63.64,12.16,11.792,301.3,0 / 21,2384461,2019-08-12 17:12:24:903,0.0703,0.148,10.0567,0.2585,0.118,9.8025,-0.0331,0.0214,-0.0009
80958,48.490494,-2.681943,63.64,12.16,11.792,301.3,0 / 21,2384472,2019-08-12 17:12:24:914,0.0703,0.148,10.0567,0.2585,0.118,9.8025,-0.0331,0.0214,-0.0009
80959,48.49106,-2.68287,88.22,10.25,11.792,307.2,0 / 21,2384572,2019-08-12 17:12:25:014,0.0703,0.148,10.0567,0.2585,0.118,9.8025,-0.0331,0.0214,-0.0009
80960,48.49106,-2.68287,88.22,10.25,11.792,307.2,0 / 21,2384672,2019-08-12 17:12:25:114,0.1349,0.3012,9.4354,0.4758,0.1718,9.7936,-0.0149,0.0097,0.0002
80961,48.49106,-2.68287,88.22,10.25,11.792,307.2,0 / 21,2384772,2019-08-12 17:12:25:214,0.1505,0.318,9.3947,0.246,0.1624,9.8022,-0.0331,0.2462,-0.0126
80962,48.49106,-2.68287,88.22,10.25,11.792,307.2,0 / 21,2384872,2019-08-12 17:12:25:314,-0.0399,0.288,9.2091,0.0483,0.1371,9.8056,-0.0117,0.0885,-0.0009
80963,48.49106,-2.68287,88.22,10.25,11.792,307.2,0 / 21,2384971,2019-08-12 17:12:25:413,0.3624,0.0007,9.4449,0.0483,0.1371,9.8056,-0.0117,0.0885,-0.0009
80964,48.49106,-2.68287,88.22,10.25,11.792,307.2,0 / 21,2385071,2019-08-12 17:12:25:513,0.3624,0.0007,9.4449,0.0483,0.1371,9.8056,-0.0117,0.0885,-0.0009
80965,48.49106,-2.68287,88.22,10.25,11.792,307.2,0 / 21,2385171,2019-08-12 17:12:25:613,-0.1883,-0.0364,9.6748,0.2128,0.1433,9.8033,-0.0064,0.0139,0.0012
80966,48.49106,-2.68287,88.22,10.25,11.792,307.2,0 / 21,2385477,2019-08-12 17:12:25:919,-0.1883,-0.0364,9.6748,0.2128,0.1433,9.8033,-0.0064,0.0139,0.0012
80967,48.49106,-2.68287,88.22,10.25,11.792,307.2,0 / 21,2385477,2019-08-12 17:12:25:919,-0.1883,-0.0364,9.6748,0.2128,0.1433,9.8033,-0.0064,0.0139,0.0012
80968,48.49106,-2.68287,88.22,10.25,11.792,307.2,0 / 21,2385478,2019-08-12 17:12:25:920,-0.1883,-0.0364,9.6748,0.2128,0.1433,9.8033,-0.0064,0.0139,0.0012
80969,48.49106,-2.68287,88.22,10.25,11.792,307.2,0 / 21,2385478,2019-08-12 17:12:25:920,-0.1883,-0.0364,9.6748,0.2128,0.1433,9.8033,-0.0064,0.0139,0.0012
80970,48.49106,-2.68287,88.22,10.25,11.792,307.2,0 / 21,2385479,2019-08-12 17:12:25:921,-0.1883,-0.0364,9.6748,0.2128,0.1433,9.8033,-0.0064,0.0139,0.0012
80971,48.49106,-2.68287,88.22,10.25,11.792,307.2,0 / 21,2385479,2019-08-12 17:12:25:921,-0.1883,-0.0364,9.6748,0.2128,0.1433,9.8033,-0.0064,0.0139,0.0012
80972,48.49106,-2.68287,88.22,10.25,11.792,307.2,0 / 21,2385480,2019-08-12 17:12:25:922,-0.1883,-0.0364,9.6748,0.2128,0.1433,9.8033,-0.0064,0.0139,0.0012
80973,48.49106,-2.68287,88.22,10.25,11.792,307.2,0 / 21,2385490,2019-08-12 17:12:25:932,-0.1883,-0.0364,9.6748,0.2128,0.1433,9.8033,-0.0064,0.0139,0.0012
80974,48.49106,-2.68287,88.22,10.25,11.792,307.2,0 / 21,2385590,2019-08-12 17:12:26:032,-0.1883,-0.0364,9.6748,0.2128,0.1433,9.8033,-0.0064,0.0139,0.0012
80975,48.49106,-2.68287,88.22,10.25,11.792,307.2,0 / 21,2385963,2019-08-12 17:12:26:405,-0.1883,-0.0364,9.6748,0.2128,0.1433,9.8033,-0.0064,0.0139,0.0012
80976,48.49106,-2.68287,88.22,10.25,11.792,307.2,0 / 21,2385964,2019-08-12 17:12:26:406,-0.1883,-0.0364,9.6748,0.2128,0.1433,9.8033,-0.0064,0.0139,0.0012
80977,48.49106,-2.68287,88.22,10.25,11.792,307.2,0 / 21,2385964,2019-08-12 17:12:26:406,-0.1883,-0.0364,9.6748,0.2128,0.1433,9.8033,-0.0064,0.0139,0.0012
80978,48.49106,-2.68287,88.22,10.25,11.792,307.2,0 / 21,2385965,2019-08-12 17:12:26:407,-0.1883,-0.0364,9.6748,0.2128,0.1433,9.8033,-0.0064,0.0139,0.0012
80979,48.49106,-2.68287,88.22,10.25,11.792,307.2,0 / 21,2385965,2019-08-12 17:12:26:407,-0.1883,-0.0364,9.6748,0.2128,0.1433,9.8033,-0.0064,0.0139,0.0012
80980,48.49106,-2.68287,88.22,10.25,11.792,307.2,0 / 21,2385966,2019-08-12 17:12:26:408,-0.1883,-0.0364,9.6748,0.2128,0.1433,9.8033,-0.0064,0.0139,0.0012
80981,48.49106,-2.68287,88.22,10.25,11.792,307.2,0 / 21,2385966,2019-08-12 17:12:26:408,-0.1883,-0.0364,9.6748,0.2128,0.1433,9.8033,-0.0064,0.0139,0.0012
80982,48.49106,-2.68287,88.22,10.25,11.792,307.2,0 / 21,2385966,2019-08-12 17:12:26:408,-0.1883,-0.0364,9.6748,0.2128,0.1433,9.8033,-0.0064,0.0139,0.0012
80983,48.49106,-2.68287,88.22,10.25,11.792,307.2,0 / 21,2385967,2019-08-12 17:12:26:409,-0.1883,-0.0364,9.6748,0.2128,0.1433,9.8033,-0.0064,0.0139,0.0012
80984,48.49106,-2.68287,88.22,10.25,11.792,307.2,0 / 21,2385967,2019-08-12 17:12:26:409,-0.1883,-0.0364,9.6748,0.2128,0.1433,9.8033,-0.0064,0.0139,0.0012
80985,48.49106,-2.68287,88.22,10.25,11.792,307.2,0 / 21,2385967,2019-08-12 17:12:26:409,-0.1883,-0.0364,9.6748,0.2128,0.1433,9.8033,-0.0064,0.0139,0.0012
80986,48.49106,-2.68287,88.22,10.25,11.792,307.2,0 / 21,2385968,2019-08-12 17:12:26:410,-0.1883,-0.0364,9.6748,0.2128,0.1433,9.8033,-0.0064,0.0139,0.0012
80987,48.49106,-2.68287,88.22,10.25,11.792,307.2,0 / 21,2385971,2019-08-12 17:12:26:413,-0.1883,-0.0364,9.6748,0.2128,0.1433,9.8033,-0.0064,0.0139,0.0012
80988,48.49106,-2.68287,88.22,10.25,11.792,307.2,0 / 21,2385972,2019-08-12 17:12:26:414,-0.1883,-0.0364,9.6748,0.2128,0.1433,9.8033,-0.0064,0.0139,0.0012
80989,48.49106,-2.68287,88.22,10.25,11.792,307.2,0 / 21,2385972,2019-08-12 17:12:26:414,-0.1883,-0.0364,9.6748,0.2128,0.1433,9.8033,-0.0064,0.0139,0.0012
80990,48.49106,-2.68287,88.22,10.25,11.792,307.2,0 / 21,2385973,2019-08-12 17:12:26:415,-0.1883,-0.0364,9.6748,0.2128,0.1433,9.8033,-0.0064,0.0139,0.0012
80991,48.49106,-2.68287,88.22,10.25,11.792,307.2,0 / 21,2385973,2019-08-12 17:12:26:415,-0.1883,-0.0364,9.6748,0.2128,0.1433,9.8033,-0.0064,0.0139,0.0012
80992,48.49106,-2.68287,88.22,10.25,11.792,307.2,0 / 21,2385974,2019-08-12 17:12:26:416,-0.1883,-0.0364,9.6748,0.2128,0.1433,9.8033,-0.0064,0.0139,0.0012
80993,48.49106,-2.68287,88.22,10.25,11.792,307.2,0 / 21,2385975,2019-08-12 17:12:26:417,-0.1883,-0.0364,9.6748,0.2128,0.1433,9.8033,-0.0064,0.0139,0.0012
80994,48.49106,-2.68287,88.22,10.25,11.792,307.2,0 / 21,2385976,2019-08-12 17:12:26:418,-0.1883,-0.0364,9.6748,0.2128,0.1433,9.8033,-0.0064,0.0139,0.0012
80995,48.49106,-2.68287,88.22,10.25,11.792,307.2,0 / 21,2385976,2019-08-12 17:12:26:418,-0.1883,-0.0364,9.6748,0.2128,0.1433,9.8033,-0.0064,0.0139,0.0012
80996,48.49106,-2.68287,88.22,10.25,11.792,307.2,0 / 21,2385977,2019-08-12 17:12:26:419,-0.1883,-0.0364,9.6748,0.2128,0.1433,9.8033,-0.0064,0.0139,0.0012
80997,48.49106,-2.68287,88.22,10.25,11.792,307.2,0 / 21,2385977,2019-08-12 17:12:26:419,-0.1883,-0.0364,9.6748,0.2128,0.1433,9.8033,-0.0064,0.0139,0.0012
80998,48.49106,-2.68287,88.22,10.25,11.792,307.2,0 / 21,2385978,2019-08-12 17:12:26:420,-0.1883,-0.0364,9.6748,0.2128,0.1433,9.8033,-0.0064,0.0139,0.0012
80999,48.49106,-2.68287,88.22,10.25,11.792,307.2,0 / 21,2385979,2019-08-12 17:12:26:421,-0.1883,-0.0364,9.6748,0.2128,0.1433,9.8033,-0.0064,0.0139,0.0012
81000,48.49106,-2.68287,88.22,10.25,11.792,307.2,0 / 21,2385981,2019-08-12 17:12:26:423,-0.1883,-0.0364,9.6748,0.2128,0.1433,9.8033,-0.0064,0.0139,0.0012
81001,48.49106,-2.68287,88.22,10.25,11.792,307.2,0 / 21,2385982,2019-08-12 17:12:26:424,-0.1883,-0.0364,9.6748,0.2128,0.1433,9.8033,-0.0064,0.0139,0.0012
81002,48.49106,-2.68287,88.22,10.25,11.792,307.2,0 / 21,2385984,2019-08-12 17:12:26:426,-0.1883,-0.0364,9.6748,0.2128,0.1433,9.8033,-0.0064,0.0139,0.0012
81003,48.49106,-2.68287,88.22,10.25,11.792,307.2,0 / 21,2385984,2019-08-12 17:12:26:426,-0.1883,-0.0364,9.6748,0.2128,0.1433,9.8033,-0.0064,0.0139,0.0012
81004,48.49106,-2.68287,88.22,10.25,11.792,307.2,0 / 21,2385985,2019-08-12 17:12:26:427,-0.1883,-0.0364,9.6748,0.2128,0.1433,9.8033,-0.0064,0.0139,0.0012
81005,48.49106,-2.68287,88.22,10.25,11.792,307.2,0 / 21,2385986,2019-08-12 17:12:26:428,-0.1883,-0.0364,9.6748,0.2128,0.1433,9.8033,-0.0064,0.0139,0.0012
81006,48.49106,-2.68287,88.22,10.25,11.792,307.2,0 / 21,2385986,2019-08-12 17:12:26:428,-0.1883,-0.0364,9.6748,0.2128,0.1433,9.8033,-0.0064,0.0139,0.0012
81007,48.49106,-2.68287,88.22,10.25,11.792,307.2,0 / 21,2385987,2019-08-12 17:12:26:429,-0.1883,-0.0364,9.6748,0.2128,0.1433,9.8033,-0.0064,0.0139,0.0012
81008,48.49106,-2.68287,88.22,10.25,11.792,307.2,0 / 21,2385987,2019-08-12 17:12:26:429,-0.1883,-0.0364,9.6748,0.2128,0.1433,9.8033,-0.0064,0.0139,0.0012
81009,48.49106,-2.68287,88.22,10.25,11.792,307.2,0 / 21,2385987,2019-08-12 17:12:26:429,-0.1883,-0.0364,9.6748,0.2128,0.1433,9.8033,-0.0064,0.0139,0.0012
81010,48.49106,-2.68287,88.22,10.25,11.792,307.2,0 / 21,2385988,2019-08-12 17:12:26:430,-0.1883,-0.0364,9.6748,0.2128,0.1433,9.8033,-0.0064,0.0139,0.0012
81011,48.49106,-2.68287,88.22,10.25,11.792,307.2,0 / 21,2385988,2019-08-12 17:12:26:430,-0.1883,-0.0364,9.6748,0.2128,0.1433,9.8033,-0.0064,0.0139,0.0012
81012,48.49106,-2.68287,88.22,10.25,11.792,307.2,0 / 21,2385988,2019-08-12 17:12:26:430,-0.1883,-0.0364,9.6748,0.2128,0.1433,9.8033,-0.0064,0.0139,0.0012
81013,48.49106,-2.68287,88.22,10.25,11.792,307.2,0 / 21,2385989,2019-08-12 17:12:26:431,-0.1883,-0.0364,9.6748,0.2128,0.1433,9.8033,-0.0064,0.0139,0.0012
81014,48.49106,-2.68287,88.22,10.25,11.792,307.2,0 / 21,2385989,2019-08-12 17:12:26:431,-0.1883,-0.0364,9.6748,0.2128,0.1433,9.8033,-0.0064,0.0139,0.0012
81015,48.49106,-2.68287,88.22,10.25,11.792,307.2,0 / 21,2385989,2019-08-12 17:12:26:431,-0.1883,-0.0364,9.6748,0.2128,0.1433,9.8033,-0.0064,0.0139,0.0012
81016,48.49106,-2.68287,88.22,10.25,11.792,307.2,0 / 21,2385990,2019-08-12 17:12:26:432,-0.1883,-0.0364,9.6748,0.2128,0.1433,9.8033,-0.0064,0.0139,0.0012
81017,48.49106,-2.68287,88.22,10.25,11.792,307.2,0 / 21,2385990,2019-08-12 17:12:26:432,-0.1883,-0.0364,9.6748,0.2128,0.1433,9.8033,-0.0064,0.0139,0.0012
81018,48.49106,-2.68287,88.22,10.25,11.792,307.2,0 / 21,2385990,2019-08-12 17:12:26:432,-0.1883,-0.0364,9.6748,0.2128,0.1433,9.8033,-0.0064,0.0139,0.0012
81019,48.49106,-2.68287,88.22,10.25,11.792,307.2,0 / 21,2385991,2019-08-12 17:12:26:433,-0.1883,-0.0364,9.6748,0.2128,0.1433,9.8033,-0.0064,0.0139,0.0012
81020,48.49106,-2.68287,88.22,10.25,11.792,307.2,0 / 21,2385991,2019-08-12 17:12:26:433,-0.1883,-0.0364,9.6748,0.2128,0.1433,9.8033,-0.0064,0.0139,0.0012
81021,48.49106,-2.68287,88.22,10.25,11.792,307.2,0 / 21,2385991,2019-08-12 17:12:26:433,-0.1883,-0.0364,9.6748,0.2128,0.1433,9.8033,-0.0064,0.0139,0.0012
81022,48.49106,-2.68287,88.22,10.25,11.792,307.2,0 / 21,2385992,2019-08-12 17:12:26:434,-0.1883,-0.0364,9.6748,0.2128,0.1433,9.8033,-0.0064,0.0139,0.0012
81023,48.49106,-2.68287,88.22,10.25,11.792,307.2,0 / 21,2385992,2019-08-12 17:12:26:434,-0.1883,-0.0364,9.6748,0.2128,0.1433,9.8033,-0.0064,0.0139,0.0012
81024,48.49106,-2.68287,88.22,10.25,11.792,307.2,0 / 21,2385992,2019-08-12 17:12:26:434,-0.1883,-0.0364,9.6748,0.2128,0.1433,9.8033,-0.0064,0.0139,0.0012
81025,48.49106,-2.68287,88.22,10.25,11.792,307.2,0 / 21,2385993,2019-08-12 17:12:26:435,-0.1883,-0.0364,9.6748,0.2128,0.1433,9.8033,-0.0064,0.0139,0.0012
81026,48.49106,-2.68287,88.22,10.25,11.792,307.2,0 / 21,2385993,2019-08-12 17:12:26:435,-0.1883,-0.0364,9.6748,0.2128,0.1433,9.8033,-0.0064,0.0139,0.0012
81027,48.49106,-2.68287,88.22,10.25,11.792,307.2,0 / 21,2385993,2019-08-12 17:12:26:435,-0.1883,-0.0364,9.6748,0.2128,0.1433,9.8033,-0.0064,0.0139,0.0012
81028,48.49106,-2.68287,88.22,10.25,11.792,307.2,0 / 21,2385994,2019-08-12 17:12:26:436,-0.1883,-0.0364,9.6748,0.2128,0.1433,9.8033,-0.0064,0.0139,0.0012
81029,48.49106,-2.68287,88.22,10.25,11.792,307.2,0 / 21,2386073,2019-08-12 17:12:26:515,-0.1883,-0.0364,9.6748,0.2128,0.1433,9.8033,-0.0064,0.0139,0.0012
81030,48.49106,-2.68287,88.22,10.25,11.792,307.2,0 / 21,2386174,2019-08-12 17:12:26:616,-0.1883,-0.0364,9.6748,0.2128,0.1433,9.8033,-0.0064,0.0139,0.0012
81031,48.49106,-2.68287,88.22,10.25,11.792,307.2,0 / 21,2386274,2019-08-12 17:12:26:716,-0.1883,-0.0364,9.6748,0.2128,0.1433,9.8033,-0.0064,0.0139,0.0012
81032,48.49106,-2.68287,88.22,10.25,11.792,307.2,0 / 21,2386373,2019-08-12 17:12:26:815,-0.1883,-0.0364,9.6748,0.2128,0.1433,9.8033,-0.0064,0.0139,0.0012
81033,48.49106,-2.68287,88.22,10.25,11.792,307.2,0 / 21,2386474,2019-08-12 17:12:26:916,-0.8515,-0.0974,9.9669,-0.1077,-0.0721,9.8058,0.0074,-0.002,-0.0147
81034,48.49106,-2.68287,88.22,10.25,11.792,307.2,0 / 21,2386573,2019-08-12 17:12:27:015,-0.8695,0.0857,9.7825,-0.147,-0.0558,9.8054,0.0181,-0.0063,-0.0126
81035,48.49106,-2.68287,88.22,10.25,11.792,307.2,0 / 21,2386673,2019-08-12 17:12:27:115,-0.8527,-0.0519,10.0291,-0.3084,-0.0277,9.8018,0.0096,-0.002,-0.0094
81036,48.49106,-2.68287,88.22,10.25,11.792,307.2,0 / 21,2386773,2019-08-12 17:12:27:215,-0.9928,0.0738,9.7299,-0.4989,0.0036,9.794,0.001,-0.002,-0.0137
81037,48.49106,-2.68287,88.22,10.25,11.792,307.2,0 / 21,2386873,2019-08-12 17:12:27:315,-1.1233,0.0199,9.8388,-0.5677,0.0089,9.7902,-0.0043,-0.001,-0.0116
81038,48.49106,-2.68287,88.22,10.25,11.792,307.2,Nov-21,2386973,2019-08-12 17:12:27:415,-1.3375,-0.04,9.8807,-0.6069,-0.0019,9.7879,0.001,0.0033,-0.019
81039,48.49106,-2.68287,88.22,10.25,11.792,307.2,Nov-21,2387073,2019-08-12 17:12:27:515,-1.4836,-0.2219,10.2039,-0.6295,-0.0093,9.7864,-0.0011,-0.0031,-0.0243
81040,48.49106,-2.68287,88.22,10.25,11.792,307.2,Nov-21,2387173,2019-08-12 17:12:27:615,-1.3483,-0.1226,10.1393,-0.8323,-0.0342,9.7712,0.0191,-0.0063,-0.0265
81041,48.49106,-2.68287,88.22,10.25,11.792,307.2,Nov-21,2387273,2019-08-12 17:12:27:715,-1.3208,-0.0914,9.4904,-0.9178,-0.0468,9.7635,0.0085,-0.002,-0.0233
81042,48.49106,-2.68287,88.22,10.25,11.792,307.2,Nov-21,2387373,2019-08-12 17:12:27:815,-0.7605,-0.0914,10.0255,-0.9504,-0.0701,9.7602,-0.0075,0.0001,-0.0307
81043,48.49106,-2.68287,88.22,10.25,11.792,307.2,Nov-21,2387474,2019-08-12 17:12:27:916,-0.7905,-0.1273,9.8807,-0.9461,-0.0745,9.7606,0.0,0.0022,-0.0318
81044,48.49106,-2.68287,88.22,10.25,11.792,307.2,Nov-21,2387574,2019-08-12 17:12:28:016,-0.9329,-0.0771,9.6748,-0.9385,-0.0845,9.7613,0.0032,-0.0063,-0.0329
81045,48.49106,-2.68287,88.22,10.25,11.792,307.2,Nov-21,2387674,2019-08-12 17:12:28:116,-1.8631,-0.1609,9.5192,-0.9567,-0.0818,9.7595,0.0117,0.0054,-0.0318
81046,48.49106,-2.68287,88.22,10.25,11.792,307.2,Nov-21,2387773,2019-08-12 17:12:28:215,-2.2366,-0.3057,9.4521,-1.0341,-0.1081,9.7514,-0.0213,0.015,-0.0424
81047,48.49106,-2.68287,88.22,10.25,11.792,307.2,Nov-21,2387875,2019-08-12 17:12:28:317,-2.4664,-0.1693,9.8591,-1.0951,-0.1354,9.7444,-0.0299,0.0235,-0.0456
81048,48.49146,-2.68402,75.89,9.96,17.152,303.7,0 / 21,2387974,2019-08-12 17:12:28:416,-2.5586,-0.3093,10.0172,-1.1715,-0.1553,9.7352,0.0021,0.0044,-0.0414
81049,48.49146,-2.68402,75.89,9.96,17.152,303.7,0 / 21,2388074,2019-08-12 17:12:28:516,-2.4736,-0.1884,9.8364,-1.2075,-0.1577,9.7307,0.0064,-0.0074,-0.0414
81050,48.49146,-2.68402,75.89,9.96,17.152,303.7,0 / 21,2388174,2019-08-12 17:12:28:616,-2.4484,-0.1178,10.1369,-1.2562,-0.1485,9.7247,-0.0032,-0.0106,-0.0424
81051,48.49146,-2.68402,75.89,9.96,17.152,303.7,0 / 21,2388274,2019-08-12 17:12:28:716,-2.5119,-0.2016,9.5946,-1.2736,-0.1533,9.7224,-0.0022,-0.0201,-0.0456
81052,48.49146,-2.68402,75.89,9.96,17.152,303.7,0 / 21,2388718,2019-08-12 17:12:29:160,-2.0283,-0.2231,9.4569,-1.2805,-0.1617,9.7213,-0.0054,-0.017,-0.0435
81053,48.49146,-2.68402,75.89,9.96,17.152,303.7,0 / 21,2388719,2019-08-12 17:12:29:161,-2.0283,-0.2231,9.4569,-1.2805,-0.1617,9.7213,-0.0054,-0.017,-0.0435
81054,48.49146,-2.68402,75.89,9.96,17.152,303.7,0 / 21,2388719,2019-08-12 17:12:29:161,-2.0283,-0.2231,9.4569,-1.2805,-0.1617,9.7213,-0.0054,-0.017,-0.0435
81055,48.49146,-2.68402,75.89,9.96,17.152,303.7,0 / 21,2388719,2019-08-12 17:12:29:161,-2.0283,-0.2231,9.4569,-1.2805,-0.1617,9.7213,-0.0054,-0.017,-0.0435
81056,48.49146,-2.68402,75.89,9.96,17.152,303.7,0 / 21,2388773,2019-08-12 17:12:29:215,-2.0283,-0.2231,9.4569,-1.2805,-0.1617,9.7213,-0.0054,-0.017,-0.0435
81057,48.49146,-2.68402,75.89,9.96,17.152,303.7,0 / 21,2388873,2019-08-12 17:12:29:315,-2.0283,-0.2231,9.4569,-1.2805,-0.1617,9.7213,-0.0054,-0.017,-0.0435
81058,48.49146,-2.68402,75.89,9.96,17.152,303.7,0 / 21,2388973,2019-08-12 17:12:29:415,-1.4967,-0.1716,9.4449,-1.4249,-0.2259,9.7,-0.032,-0.3056,-0.0446
81059,48.49146,-2.68402,75.89,9.96,17.152,303.7,0 / 21,2389073,2019-08-12 17:12:29:515,-0.1787,-0.2171,7.5871,-1.1476,-0.2434,9.7362,-0.0096,-0.3046,-0.0467
81060,48.49146,-2.68402,75.89,9.96,17.152,303.7,0 / 21,2389486,2019-08-12 17:12:29:928,1.3308,-0.4482,10.6612,-0.8028,-0.2458,9.7706,0.0181,-0.2087,-0.0435
81061,48.49146,-2.68402,75.89,9.96,17.152,303.7,0 / 21,2389487,2019-08-12 17:12:29:929,1.3308,-0.4482,10.6612,-0.8028,-0.2458,9.7706,0.0181,-0.2087,-0.0435
81062,48.49146,-2.68402,75.89,9.96,17.152,303.7,0 / 21,2389488,2019-08-12 17:12:29:930,1.3308,-0.4482,10.6612,-0.8028,-0.2458,9.7706,0.0181,-0.2087,-0.0435
81063,48.49146,-2.68402,75.89,9.96,17.152,303.7,0 / 21,2389488,2019-08-12 17:12:29:930,1.3308,-0.4482,10.6612,-0.8028,-0.2458,9.7706,0.0181,-0.2087,-0.0435
81064,48.49146,-2.68402,75.89,9.96,17.152,303.7,0 / 21,2389489,2019-08-12 17:12:29:931,1.3308,-0.4482,10.6612,-0.8028,-0.2458,9.7706,0.0181,-0.2087,-0.0435
81065,48.49146,-2.68402,75.89,9.96,17.152,303.7,0 / 21,2389489,2019-08-12 17:12:29:931,1.3308,-0.4482,10.6612,-0.8028,-0.2458,9.7706,0.0181,-0.2087,-0.0435
81066,48.49146,-2.68402,75.89,9.96,17.152,303.7,0 / 21,2389489,2019-08-12 17:12:29:931,1.3308,-0.4482,10.6612,-0.8028,-0.2458,9.7706,0.0181,-0.2087,-0.0435
81067,48.49146,-2.68402,75.89,9.96,17.152,303.7,0 / 21,2389490,2019-08-12 17:12:29:932,1.3308,-0.4482,10.6612,-0.8028,-0.2458,9.7706,0.0181,-0.2087,-0.0435
81068,48.49146,-2.68402,75.89,9.96,17.152,303.7,0 / 21,2389490,2019-08-12 17:12:29:932,1.3308,-0.4482,10.6612,-0.8028,-0.2458,9.7706,0.0181,-0.2087,-0.0435
81069,48.49146,-2.68402,75.89,9.96,17.152,303.7,0 / 21,2389490,2019-08-12 17:12:29:932,1.3308,-0.4482,10.6612,-0.8028,-0.2458,9.7706,0.0181,-0.2087,-0.0435
81070,48.49146,-2.68402,75.89,9.96,17.152,303.7,0 / 21,2389491,2019-08-12 17:12:29:933,1.3308,-0.4482,10.6612,-0.8028,-0.2458,9.7706,0.0181,-0.2087,-0.0435
81071,48.49146,-2.68402,75.89,9.96,17.152,303.7,0 / 21,2389491,2019-08-12 17:12:29:933,1.3308,-0.4482,10.6612,-0.8028,-0.2458,9.7706,0.0181,-0.2087,-0.0435
81072,48.49146,-2.68402,75.89,9.96,17.152,303.7,0 / 21,2389492,2019-08-12 17:12:29:934,1.3308,-0.4482,10.6612,-0.8028,-0.2458,9.7706,0.0181,-0.2087,-0.0435
81073,48.49146,-2.68402,75.89,9.96,17.152,303.7,0 / 21,2389493,2019-08-12 17:12:29:935,1.3308,-0.4482,10.6612,-0.8028,-0.2458,9.7706,0.0181,-0.2087,-0.0435
81074,48.49146,-2.68402,75.89,9.96,17.152,303.7,0 / 21,2389494,2019-08-12 17:12:29:936,1.3308,-0.4482,10.6612,-0.8028,-0.2458,9.7706,0.0181,-0.2087,-0.0435
81075,48.49146,-2.68402,75.89,9.96,17.152,303.7,0 / 21,2389494,2019-08-12 17:12:29:936,1.3308,-0.4482,10.6612,-0.8028,-0.2458,9.7706,0.0181,-0.2087,-0.0435
81076,48.49146,-2.68402,75.89,9.96,17.152,303.7,0 / 21,2389495,2019-08-12 17:12:29:937,1.3308,-0.4482,10.6612,-0.8028,-0.2458,9.7706,0.0181,-0.2087,-0.0435
81077,48.49146,-2.68402,75.89,9.96,17.152,303.7,0 / 21,2389496,2019-08-12 17:12:29:938,1.3308,-0.4482,10.6612,-0.8028,-0.2458,9.7706,0.0181,-0.2087,-0.0435
81078,48.49146,-2.68402,75.89,9.96,17.152,303.7,0 / 21,2389497,2019-08-12 17:12:29:939,1.3308,-0.4482,10.6612,-0.8028,-0.2458,9.7706,0.0181,-0.2087,-0.0435
81079,48.49146,-2.68402,75.89,9.96,17.152,303.7,0 / 21,2389498,2019-08-12 17:12:29:940,1.3308,-0.4482,10.6612,-0.8028,-0.2458,9.7706,0.0181,-0.2087,-0.0435
81080,48.49146,-2.68402,75.89,9.96,17.152,303.7,0 / 21,2389500,2019-08-12 17:12:29:942,1.3308,-0.4482,10.6612,-0.8028,-0.2458,9.7706,0.0181,-0.2087,-0.0435
81081,48.49146,-2.68402,75.89,9.96,17.152,303.7,0 / 21,2389501,2019-08-12 17:12:29:943,1.3308,-0.4482,10.6612,-0.8028,-0.2458,9.7706,0.0181,-0.2087,-0.0435
81082,48.49146,-2.68402,75.89,9.96,17.152,303.7,0 / 21,2389502,2019-08-12 17:12:29:944,1.3308,-0.4482,10.6612,-0.8028,-0.2458,9.7706,0.0181,-0.2087,-0.0435
81083,48.49146,-2.68402,75.89,9.96,17.152,303.7,0 / 21,2389503,2019-08-12 17:12:29:945,1.3308,-0.4482,10.6612,-0.8028,-0.2458,9.7706,0.0181,-0.2087,-0.0435
81084,48.49146,-2.68402,75.89,9.96,17.152,303.7,0 / 21,2389504,2019-08-12 17:12:29:946,1.3308,-0.4482,10.6612,-0.8028,-0.2458,9.7706,0.0181,-0.2087,-0.0435
81085,48.49146,-2.68402,75.89,9.96,17.152,303.7,0 / 21,2389504,2019-08-12 17:12:29:946,1.3308,-0.4482,10.6612,-0.8028,-0.2458,9.7706,0.0181,-0.2087,-0.0435
81086,48.49146,-2.68402,75.89,9.96,17.152,303.7,0 / 21,2389504,2019-08-12 17:12:29:946,1.3308,-0.4482,10.6612,-0.8028,-0.2458,9.7706,0.0181,-0.2087,-0.0435
81087,48.49146,-2.68402,75.89,9.96,17.152,303.7,0 / 21,2389505,2019-08-12 17:12:29:947,1.3308,-0.4482,10.6612,-0.8028,-0.2458,9.7706,0.0181,-0.2087,-0.0435
81088,48.49146,-2.68402,75.89,9.96,17.152,303.7,0 / 21,2389505,2019-08-12 17:12:29:947,1.3308,-0.4482,10.6612,-0.8028,-0.2458,9.7706,0.0181,-0.2087,-0.0435
81089,48.49146,-2.68402,75.89,9.96,17.152,303.7,0 / 21,2389506,2019-08-12 17:12:29:948,1.3308,-0.4482,10.6612,-0.8028,-0.2458,9.7706,0.0181,-0.2087,-0.0435
81090,48.49146,-2.68402,75.89,9.96,17.152,303.7,0 / 21,2389506,2019-08-12 17:12:29:948,1.3308,-0.4482,10.6612,-0.8028,-0.2458,9.7706,0.0181,-0.2087,-0.0435
81091,48.49146,-2.68402,75.89,9.96,17.152,303.7,0 / 21,2389506,2019-08-12 17:12:29:948,1.3308,-0.4482,10.6612,-0.8028,-0.2458,9.7706,0.0181,-0.2087,-0.0435
81092,48.49146,-2.68402,75.89,9.96,17.152,303.7,0 / 21,2389507,2019-08-12 17:12:29:949,1.3308,-0.4482,10.6612,-0.8028,-0.2458,9.7706,0.0181,-0.2087,-0.0435
81093,48.49146,-2.68402,75.89,9.96,17.152,303.7,0 / 21,2389507,2019-08-12 17:12:29:949,1.3308,-0.4482,10.6612,-0.8028,-0.2458,9.7706,0.0181,-0.2087,-0.0435
81094,48.49146,-2.68402,75.89,9.96,17.152,303.7,0 / 21,2389507,2019-08-12 17:12:29:949,1.3308,-0.4482,10.6612,-0.8028,-0.2458,9.7706,0.0181,-0.2087,-0.0435
81095,48.49146,-2.68402,75.89,9.96,17.152,303.7,0 / 21,2389509,2019-08-12 17:12:29:951,1.3308,-0.4482,10.6612,-0.8028,-0.2458,9.7706,0.0181,-0.2087,-0.0435
81096,48.49146,-2.68402,75.89,9.96,17.152,303.7,0 / 21,2389511,2019-08-12 17:12:29:953,1.3308,-0.4482,10.6612,-0.8028,-0.2458,9.7706,0.0181,-0.2087,-0.0435
81097,48.49146,-2.68402,75.89,9.96,17.152,303.7,0 / 21,2389512,2019-08-12 17:12:29:954,1.3308,-0.4482,10.6612,-0.8028,-0.2458,9.7706,0.0181,-0.2087,-0.0435
81098,48.49146,-2.68402,75.89,9.96,17.152,303.7,0 / 21,2389512,2019-08-12 17:12:29:954,1.3308,-0.4482,10.6612,-0.8028,-0.2458,9.7706,0.0181,-0.2087,-0.0435
81099,48.49146,-2.68402,75.89,9.96,17.152,303.7,0 / 21,2389513,2019-08-12 17:12:29:955,1.3308,-0.4482,10.6612,-0.8028,-0.2458,9.7706,0.0181,-0.2087,-0.0435
81100,48.49146,-2.68402,75.89,9.96,17.152,303.7,0 / 21,2389515,2019-08-12 17:12:29:957,1.3308,-0.4482,10.6612,-0.8028,-0.2458,9.7706,0.0181,-0.2087,-0.0435
81101,48.49146,-2.68402,75.89,9.96,17.152,303.7,0 / 21,2389516,2019-08-12 17:12:29:958,1.3308,-0.4482,10.6612,-0.8028,-0.2458,9.7706,0.0181,-0.2087,-0.0435
81102,48.49146,-2.68402,75.89,9.96,17.152,303.7,0 / 21,2389516,2019-08-12 17:12:29:958,1.3308,-0.4482,10.6612,-0.8028,-0.2458,9.7706,0.0181,-0.2087,-0.0435
81103,48.49146,-2.68402,75.89,9.96,17.152,303.7,0 / 21,2389517,2019-08-12 17:12:29:959,1.3308,-0.4482,10.6612,-0.8028,-0.2458,9.7706,0.0181,-0.2087,-0.0435
81104,48.49146,-2.68402,75.89,9.96,17.152,303.7,0 / 21,2389517,2019-08-12 17:12:29:959,1.3308,-0.4482,10.6612,-0.8028,-0.2458,9.7706,0.0181,-0.2087,-0.0435
81105,48.49146,-2.68402,75.89,9.96,17.152,303.7,0 / 21,2389517,2019-08-12 17:12:29:959,1.3308,-0.4482,10.6612,-0.8028,-0.2458,9.7706,0.0181,-0.2087,-0.0435
81106,48.49146,-2.68402,75.89,9.96,17.152,303.7,0 / 21,2389518,2019-08-12 17:12:29:960,1.3308,-0.4482,10.6612,-0.8028,-0.2458,9.7706,0.0181,-0.2087,-0.0435
81107,48.49146,-2.68402,75.89,9.96,17.152,303.7,0 / 21,2389518,2019-08-12 17:12:29:960,1.3308,-0.4482,10.6612,-0.8028,-0.2458,9.7706,0.0181,-0.2087,-0.0435
81108,48.49146,-2.68402,75.89,9.96,17.152,303.7,0 / 21,2389518,2019-08-12 17:12:29:960,1.3308,-0.4482,10.6612,-0.8028,-0.2458,9.7706,0.0181,-0.2087,-0.0435
81109,48.49146,-2.68402,75.89,9.96,17.152,303.7,0 / 21,2389519,2019-08-12 17:12:29:961,1.3308,-0.4482,10.6612,-0.8028,-0.2458,9.7706,0.0181,-0.2087,-0.0435
81110,48.49146,-2.68402,75.89,9.96,17.152,303.7,0 / 21,2389519,2019-08-12 17:12:29:961,1.3308,-0.4482,10.6612,-0.8028,-0.2458,9.7706,0.0181,-0.2087,-0.0435
81111,48.49146,-2.68402,75.89,9.96,17.152,303.7,0 / 21,2389519,2019-08-12 17:12:29:961,1.3308,-0.4482,10.6612,-0.8028,-0.2458,9.7706,0.0181,-0.2087,-0.0435
81112,48.49146,-2.68402,75.89,9.96,17.152,303.7,0 / 21,2389520,2019-08-12 17:12:29:962,1.3308,-0.4482,10.6612,-0.8028,-0.2458,9.7706,0.0181,-0.2087,-0.0435
81113,48.49146,-2.68402,75.89,9.96,17.152,303.7,0 / 21,2389520,2019-08-12 17:12:29:962,1.3308,-0.4482,10.6612,-0.8028,-0.2458,9.7706,0.0181,-0.2087,-0.0435
81114,48.49146,-2.68402,75.89,9.96,17.152,303.7,0 / 21,2389520,2019-08-12 17:12:29:962,1.3308,-0.4482,10.6612,-0.8028,-0.2458,9.7706,0.0181,-0.2087,-0.0435
81115,48.49146,-2.68402,75.89,9.96,17.152,303.7,0 / 21,2389521,2019-08-12 17:12:29:963,1.3308,-0.4482,10.6612,-0.8028,-0.2458,9.7706,0.0181,-0.2087,-0.0435
81116,48.49146,-2.68402,75.89,9.96,17.152,303.7,0 / 21,2389521,2019-08-12 17:12:29:963,1.3308,-0.4482,10.6612,-0.8028,-0.2458,9.7706,0.0181,-0.2087,-0.0435
81117,48.49146,-2.68402,75.89,9.96,17.152,303.7,0 / 21,2389522,2019-08-12 17:12:29:964,1.3308,-0.4482,10.6612,-0.8028,-0.2458,9.7706,0.0181,-0.2087,-0.0435
81118,48.49146,-2.68402,75.89,9.96,17.152,303.7,0 / 21,2389522,2019-08-12 17:12:29:964,1.3308,-0.4482,10.6612,-0.8028,-0.2458,9.7706,0.0181,-0.2087,-0.0435
81119,48.49146,-2.68402,75.89,9.96,17.152,303.7,0 / 21,2389609,2019-08-12 17:12:30:051,1.3308,-0.4482,10.6612,-0.8028,-0.2458,9.7706,0.0181,-0.2087,-0.0435
81120,48.49146,-2.68402,75.89,9.96,17.152,303.7,0 / 21,2389956,2019-08-12 17:12:30:398,1.3308,-0.4482,10.6612,-0.8028,-0.2458,9.7706,0.0181,-0.2087,-0.0435
81121,48.49146,-2.68402,75.89,9.96,17.152,303.7,0 / 21,2389956,2019-08-12 17:12:30:398,1.3308,-0.4482,10.6612,-0.8028,-0.2458,9.7706,0.0181,-0.2087,-0.0435
81122,48.49146,-2.68402,75.89,9.96,17.152,303.7,0 / 21,2389957,2019-08-12 17:12:30:399,1.3308,-0.4482,10.6612,-0.8028,-0.2458,9.7706,0.0181,-0.2087,-0.0435
81123,48.49146,-2.68402,75.89,9.96,17.152,303.7,0 / 21,2389957,2019-08-12 17:12:30:399,1.3308,-0.4482,10.6612,-0.8028,-0.2458,9.7706,0.0181,-0.2087,-0.0435
81124,48.49146,-2.68402,75.89,9.96,17.152,303.7,0 / 21,2389958,2019-08-12 17:12:30:400,1.3308,-0.4482,10.6612,-0.8028,-0.2458,9.7706,0.0181,-0.2087,-0.0435
81125,48.49146,-2.68402,75.89,9.96,17.152,303.7,0 / 21,2389958,2019-08-12 17:12:30:400,1.3308,-0.4482,10.6612,-0.8028,-0.2458,9.7706,0.0181,-0.2087,-0.0435
81126,48.49146,-2.68402,75.89,9.96,17.152,303.7,0 / 21,2389958,2019-08-12 17:12:30:400,1.3308,-0.4482,10.6612,-0.8028,-0.2458,9.7706,0.0181,-0.2087,-0.0435
81127,48.49146,-2.68402,75.89,9.96,17.152,303.7,0 / 21,2389960,2019-08-12 17:12:30:402,1.3308,-0.4482,10.6612,-0.8028,-0.2458,9.7706,0.0181,-0.2087,-0.0435
81128,48.49146,-2.68402,75.89,9.96,17.152,303.7,Dec-21,2389972,2019-08-12 17:12:30:414,1.3308,-0.4482,10.6612,-0.8028,-0.2458,9.7706,0.0181,-0.2087,-0.0435
81129,48.49146,-2.68402,75.89,9.96,17.152,303.7,Dec-21,2390072,2019-08-12 17:12:30:514,1.3308,-0.4482,10.6612,-0.8028,-0.2458,9.7706,0.0181,-0.2087,-0.0435
81130,48.49146,-2.68402,75.89,9.96,17.152,303.7,Dec-21,2390417,2019-08-12 17:12:30:859,1.3308,-0.4482,10.6612,-0.8028,-0.2458,9.7706,0.0181,-0.2087,-0.0435
81131,48.49146,-2.68402,75.89,9.96,17.152,303.7,Dec-21,2390418,2019-08-12 17:12:30:860,1.3308,-0.4482,10.6612,-0.8028,-0.2458,9.7706,0.0181,-0.2087,-0.0435
81132,48.49146,-2.68402,75.89,9.96,17.152,303.7,Dec-21,2390419,2019-08-12 17:12:30:861,1.3308,-0.4482,10.6612,-0.8028,-0.2458,9.7706,0.0181,-0.2087,-0.0435
81133,48.49146,-2.68402,75.89,9.96,17.152,303.7,Dec-21,2390419,2019-08-12 17:12:30:861,1.3308,-0.4482,10.6612,-0.8028,-0.2458,9.7706,0.0181,-0.2087,-0.0435
81134,48.49146,-2.68402,75.89,9.96,17.152,303.7,Dec-21,2390420,2019-08-12 17:12:30:862,1.3308,-0.4482,10.6612,-0.8028,-0.2458,9.7706,0.0181,-0.2087,-0.0435
81135,48.49146,-2.68402,75.89,9.96,17.152,303.7,Dec-21,2390420,2019-08-12 17:12:30:862,1.3308,-0.4482,10.6612,-0.8028,-0.2458,9.7706,0.0181,-0.2087,-0.0435
81136,48.49146,-2.68402,75.89,9.96,17.152,303.7,Dec-21,2390423,2019-08-12 17:12:30:865,1.3308,-0.4482,10.6612,-0.8028,-0.2458,9.7706,0.0181,-0.2087,-0.0435
81137,48.49146,-2.68402,75.89,9.96,17.152,303.7,Dec-21,2390424,2019-08-12 17:12:30:866,1.3308,-0.4482,10.6612,-0.8028,-0.2458,9.7706,0.0181,-0.2087,-0.0435
81138,48.49146,-2.68402,75.89,9.96,17.152,303.7,Dec-21,2390424,2019-08-12 17:12:30:866,1.3308,-0.4482,10.6612,-0.8028,-0.2458,9.7706,0.0181,-0.2087,-0.0435
81139,48.49146,-2.68402,75.89,9.96,17.152,303.7,Dec-21,2390424,2019-08-12 17:12:30:866,1.3308,-0.4482,10.6612,-0.8028,-0.2458,9.7706,0.0181,-0.2087,-0.0435
81140,48.49146,-2.68402,75.89,9.96,17.152,303.7,Dec-21,2390425,2019-08-12 17:12:30:867,1.3308,-0.4482,10.6612,-0.8028,-0.2458,9.7706,0.0181,-0.2087,-0.0435
81141,48.49146,-2.68402,75.89,9.96,17.152,303.7,Dec-21,2390425,2019-08-12 17:12:30:867,1.3308,-0.4482,10.6612,-0.8028,-0.2458,9.7706,0.0181,-0.2087,-0.0435
81142,48.49146,-2.68402,75.89,9.96,17.152,303.7,Dec-21,2390426,2019-08-12 17:12:30:868,1.3308,-0.4482,10.6612,-0.8028,-0.2458,9.7706,0.0181,-0.2087,-0.0435
81143,48.49146,-2.68402,75.89,9.96,17.152,303.7,Dec-21,2390426,2019-08-12 17:12:30:868,1.3308,-0.4482,10.6612,-0.8028,-0.2458,9.7706,0.0181,-0.2087,-0.0435
81144,48.49146,-2.68402,75.89,9.96,17.152,303.7,Dec-21,2390427,2019-08-12 17:12:30:869,1.3308,-0.4482,10.6612,-0.8028,-0.2458,9.7706,0.0181,-0.2087,-0.0435
81145,48.49146,-2.68402,75.89,9.96,17.152,303.7,Dec-21,2390428,2019-08-12 17:12:30:870,1.3308,-0.4482,10.6612,-0.8028,-0.2458,9.7706,0.0181,-0.2087,-0.0435
81146,48.49146,-2.68402,75.89,9.96,17.152,303.7,Dec-21,2390430,2019-08-12 17:12:30:872,1.3308,-0.4482,10.6612,-0.8028,-0.2458,9.7706,0.0181,-0.2087,-0.0435
81147,48.49146,-2.68402,75.89,9.96,17.152,303.7,Dec-21,2390431,2019-08-12 17:12:30:873,1.3308,-0.4482,10.6612,-0.8028,-0.2458,9.7706,0.0181,-0.2087,-0.0435
81148,48.49146,-2.68402,75.89,9.96,17.152,303.7,Dec-21,2390431,2019-08-12 17:12:30:873,1.3308,-0.4482,10.6612,-0.8028,-0.2458,9.7706,0.0181,-0.2087,-0.0435
81149,48.49146,-2.68402,75.89,9.96,17.152,303.7,Dec-21,2390432,2019-08-12 17:12:30:874,1.3308,-0.4482,10.6612,-0.8028,-0.2458,9.7706,0.0181,-0.2087,-0.0435
81150,48.49146,-2.68402,75.89,9.96,17.152,303.7,Dec-21,2390433,2019-08-12 17:12:30:875,1.3308,-0.4482,10.6612,-0.8028,-0.2458,9.7706,0.0181,-0.2087,-0.0435
81151,48.49146,-2.68402,75.89,9.96,17.152,303.7,Dec-21,2390433,2019-08-12 17:12:30:875,1.3308,-0.4482,10.6612,-0.8028,-0.2458,9.7706,0.0181,-0.2087,-0.0435
81152,48.49146,-2.68402,75.89,9.96,17.152,303.7,Dec-21,2390434,2019-08-12 17:12:30:876,1.3308,-0.4482,10.6612,-0.8028,-0.2458,9.7706,0.0181,-0.2087,-0.0435
81153,48.49146,-2.68402,75.89,9.96,17.152,303.7,Dec-21,2390434,2019-08-12 17:12:30:876,1.3308,-0.4482,10.6612,-0.8028,-0.2458,9.7706,0.0181,-0.2087,-0.0435
81154,48.49146,-2.68402,75.89,9.96,17.152,303.7,Dec-21,2390435,2019-08-12 17:12:30:877,1.3308,-0.4482,10.6612,-0.8028,-0.2458,9.7706,0.0181,-0.2087,-0.0435
81155,48.49146,-2.68402,75.89,9.96,17.152,303.7,Dec-21,2390436,2019-08-12 17:12:30:878,1.3308,-0.4482,10.6612,-0.8028,-0.2458,9.7706,0.0181,-0.2087,-0.0435
81156,48.49146,-2.68402,75.89,9.96,17.152,303.7,Dec-21,2390436,2019-08-12 17:12:30:878,1.3308,-0.4482,10.6612,-0.8028,-0.2458,9.7706,0.0181,-0.2087,-0.0435
81157,48.49146,-2.68402,75.89,9.96,17.152,303.7,Dec-21,2390436,2019-08-12 17:12:30:878,1.3308,-0.4482,10.6612,-0.8028,-0.2458,9.7706,0.0181,-0.2087,-0.0435
81158,48.49146,-2.68402,75.89,9.96,17.152,303.7,Dec-21,2390437,2019-08-12 17:12:30:879,1.3308,-0.4482,10.6612,-0.8028,-0.2458,9.7706,0.0181,-0.2087,-0.0435
81159,48.49146,-2.68402,75.89,9.96,17.152,303.7,Dec-21,2390437,2019-08-12 17:12:30:879,1.3308,-0.4482,10.6612,-0.8028,-0.2458,9.7706,0.0181,-0.2087,-0.0435
81160,48.49146,-2.68402,75.89,9.96,17.152,303.7,Dec-21,2390437,2019-08-12 17:12:30:879,1.3308,-0.4482,10.6612,-0.8028,-0.2458,9.7706,0.0181,-0.2087,-0.0435
81161,48.49146,-2.68402,75.89,9.96,17.152,303.7,Dec-21,2390438,2019-08-12 17:12:30:880,1.3308,-0.4482,10.6612,-0.8028,-0.2458,9.7706,0.0181,-0.2087,-0.0435
81162,48.49146,-2.68402,75.89,9.96,17.152,303.7,Dec-21,2390438,2019-08-12 17:12:30:880,1.3308,-0.4482,10.6612,-0.8028,-0.2458,9.7706,0.0181,-0.2087,-0.0435
81163,48.49146,-2.68402,75.89,9.96,17.152,303.7,Dec-21,2390439,2019-08-12 17:12:30:881,1.3308,-0.4482,10.6612,-0.8028,-0.2458,9.7706,0.0181,-0.2087,-0.0435
81164,48.49146,-2.68402,75.89,9.96,17.152,303.7,Dec-21,2390440,2019-08-12 17:12:30:882,1.3308,-0.4482,10.6612,-0.8028,-0.2458,9.7706,0.0181,-0.2087,-0.0435
81165,48.49146,-2.68402,75.89,9.96,17.152,303.7,Dec-21,2390440,2019-08-12 17:12:30:882,1.3308,-0.4482,10.6612,-0.8028,-0.2458,9.7706,0.0181,-0.2087,-0.0435
81166,48.49146,-2.68402,75.89,9.96,17.152,303.7,Dec-21,2390441,2019-08-12 17:12:30:883,1.3308,-0.4482,10.6612,-0.8028,-0.2458,9.7706,0.0181,-0.2087,-0.0435
81167,48.49146,-2.68402,75.89,9.96,17.152,303.7,Dec-21,2390441,2019-08-12 17:12:30:883,1.3308,-0.4482,10.6612,-0.8028,-0.2458,9.7706,0.0181,-0.2087,-0.0435
81168,48.49146,-2.68402,75.89,9.96,17.152,303.7,Dec-21,2390442,2019-08-12 17:12:30:884,1.3308,-0.4482,10.6612,-0.8028,-0.2458,9.7706,0.0181,-0.2087,-0.0435
81169,48.49146,-2.68402,75.89,9.96,17.152,303.7,Dec-21,2390442,2019-08-12 17:12:30:884,1.3308,-0.4482,10.6612,-0.8028,-0.2458,9.7706,0.0181,-0.2087,-0.0435
81170,48.49146,-2.68402,75.89,9.96,17.152,303.7,Dec-21,2390443,2019-08-12 17:12:30:885,1.3308,-0.4482,10.6612,-0.8028,-0.2458,9.7706,0.0181,-0.2087,-0.0435
81171,48.49146,-2.68402,75.89,9.96,17.152,303.7,Dec-21,2390443,2019-08-12 17:12:30:885,1.3308,-0.4482,10.6612,-0.8028,-0.2458,9.7706,0.0181,-0.2087,-0.0435
81172,48.49146,-2.68402,75.89,9.96,17.152,303.7,Dec-21,2390443,2019-08-12 17:12:30:885,1.3308,-0.4482,10.6612,-0.8028,-0.2458,9.7706,0.0181,-0.2087,-0.0435
81173,48.49146,-2.68402,75.89,9.96,17.152,303.7,Dec-21,2390444,2019-08-12 17:12:30:886,1.3308,-0.4482,10.6612,-0.8028,-0.2458,9.7706,0.0181,-0.2087,-0.0435
81174,48.49146,-2.68402,75.89,9.96,17.152,303.7,Dec-21,2390444,2019-08-12 17:12:30:886,1.3308,-0.4482,10.6612,-0.8028,-0.2458,9.7706,0.0181,-0.2087,-0.0435
81175,48.49146,-2.68402,75.89,9.96,17.152,303.7,Dec-21,2390444,2019-08-12 17:12:30:886,1.3308,-0.4482,10.6612,-0.8028,-0.2458,9.7706,0.0181,-0.2087,-0.0435
81176,48.49146,-2.68402,75.89,9.96,17.152,303.7,Dec-21,2390445,2019-08-12 17:12:30:887,1.3308,-0.4482,10.6612,-0.8028,-0.2458,9.7706,0.0181,-0.2087,-0.0435
81177,48.49146,-2.68402,75.89,9.96,17.152,303.7,Dec-21,2390445,2019-08-12 17:12:30:887,1.3308,-0.4482,10.6612,-0.8028,-0.2458,9.7706,0.0181,-0.2087,-0.0435
81178,48.49146,-2.68402,75.89,9.96,17.152,303.7,Dec-21,2390445,2019-08-12 17:12:30:887,1.3308,-0.4482,10.6612,-0.8028,-0.2458,9.7706,0.0181,-0.2087,-0.0435
81179,48.49146,-2.68402,75.89,9.96,17.152,303.7,Dec-21,2390446,2019-08-12 17:12:30:888,1.3308,-0.4482,10.6612,-0.8028,-0.2458,9.7706,0.0181,-0.2087,-0.0435
81180,48.49146,-2.68402,75.89,9.96,17.152,303.7,Dec-21,2390446,2019-08-12 17:12:30:888,1.3308,-0.4482,10.6612,-0.8028,-0.2458,9.7706,0.0181,-0.2087,-0.0435
81181,48.49146,-2.68402,75.89,9.96,17.152,303.7,Dec-21,2390446,2019-08-12 17:12:30:888,1.3308,-0.4482,10.6612,-0.8028,-0.2458,9.7706,0.0181,-0.2087,-0.0435
81182,48.49146,-2.68402,75.89,9.96,17.152,303.7,Dec-21,2390447,2019-08-12 17:12:30:889,1.3308,-0.4482,10.6612,-0.8028,-0.2458,9.7706,0.0181,-0.2087,-0.0435
81183,48.49146,-2.68402,75.89,9.96,17.152,303.7,Dec-21,2390447,2019-08-12 17:12:30:889,1.3308,-0.4482,10.6612,-0.8028,-0.2458,9.7706,0.0181,-0.2087,-0.0435
81184,48.49146,-2.68402,75.89,9.96,17.152,303.7,Dec-21,2390448,2019-08-12 17:12:30:890,1.3308,-0.4482,10.6612,-0.8028,-0.2458,9.7706,0.0181,-0.2087,-0.0435
81185,48.49146,-2.68402,75.89,9.96,17.152,303.7,Dec-21,2390448,2019-08-12 17:12:30:890,1.3308,-0.4482,10.6612,-0.8028,-0.2458,9.7706,0.0181,-0.2087,-0.0435
81186,48.49146,-2.68402,75.89,9.96,17.152,303.7,Dec-21,2390448,2019-08-12 17:12:30:890,1.3308,-0.4482,10.6612,-0.8028,-0.2458,9.7706,0.0181,-0.2087,-0.0435
81187,48.49146,-2.68402,75.89,9.96,17.152,303.7,Dec-21,2390449,2019-08-12 17:12:30:891,1.3308,-0.4482,10.6612,-0.8028,-0.2458,9.7706,0.0181,-0.2087,-0.0435
81188,48.49146,-2.68402,75.89,9.96,17.152,303.7,Dec-21,2390449,2019-08-12 17:12:30:891,1.3308,-0.4482,10.6612,-0.8028,-0.2458,9.7706,0.0181,-0.2087,-0.0435
81189,48.49146,-2.68402,75.89,9.96,17.152,303.7,Dec-21,2390449,2019-08-12 17:12:30:891,1.3308,-0.4482,10.6612,-0.8028,-0.2458,9.7706,0.0181,-0.2087,-0.0435
81190,48.49146,-2.68402,75.89,9.96,17.152,303.7,Dec-21,2390450,2019-08-12 17:12:30:892,1.3308,-0.4482,10.6612,-0.8028,-0.2458,9.7706,0.0181,-0.2087,-0.0435
81191,48.49146,-2.68402,75.89,9.96,17.152,303.7,Dec-21,2390450,2019-08-12 17:12:30:892,1.3308,-0.4482,10.6612,-0.8028,-0.2458,9.7706,0.0181,-0.2087,-0.0435
81192,48.49146,-2.68402,75.89,9.96,17.152,303.7,Dec-21,2390450,2019-08-12 17:12:30:892,1.3308,-0.4482,10.6612,-0.8028,-0.2458,9.7706,0.0181,-0.2087,-0.0435
81193,48.49146,-2.68402,75.89,9.96,17.152,303.7,Dec-21,2390451,2019-08-12 17:12:30:893,1.3308,-0.4482,10.6612,-0.8028,-0.2458,9.7706,0.0181,-0.2087,-0.0435
81194,48.49146,-2.68402,75.89,9.96,17.152,303.7,Dec-21,2390451,2019-08-12 17:12:30:893,1.3308,-0.4482,10.6612,-0.8028,-0.2458,9.7706,0.0181,-0.2087,-0.0435
81195,48.49146,-2.68402,75.89,9.96,17.152,303.7,Dec-21,2390451,2019-08-12 17:12:30:893,1.3308,-0.4482,10.6612,-0.8028,-0.2458,9.7706,0.0181,-0.2087,-0.0435
81196,48.49146,-2.68402,75.89,9.96,17.152,303.7,Dec-21,2390452,2019-08-12 17:12:30:894,1.3308,-0.4482,10.6612,-0.8028,-0.2458,9.7706,0.0181,-0.2087,-0.0435
81197,48.49146,-2.68402,75.89,9.96,17.152,303.7,Dec-21,2390452,2019-08-12 17:12:30:894,1.3308,-0.4482,10.6612,-0.8028,-0.2458,9.7706,0.0181,-0.2087,-0.0435
81198,48.49146,-2.68402,75.89,9.96,17.152,303.7,Dec-21,2390453,2019-08-12 17:12:30:895,1.3308,-0.4482,10.6612,-0.8028,-0.2458,9.7706,0.0181,-0.2087,-0.0435
81199,48.49146,-2.68402,75.89,9.96,17.152,303.7,Dec-21,2390453,2019-08-12 17:12:30:895,1.3308,-0.4482,10.6612,-0.8028,-0.2458,9.7706,0.0181,-0.2087,-0.0435
81200,48.49146,-2.68402,75.89,9.96,17.152,303.7,Dec-21,2390455,2019-08-12 17:12:30:897,1.3308,-0.4482,10.6612,-0.8028,-0.2458,9.7706,0.0181,-0.2087,-0.0435
81201,48.49146,-2.68402,75.89,9.96,17.152,303.7,Dec-21,2390457,2019-08-12 17:12:30:899,1.3308,-0.4482,10.6612,-0.8028,-0.2458,9.7706,0.0181,-0.2087,-0.0435
81202,48.49146,-2.68402,75.89,9.96,17.152,303.7,Dec-21,2390458,2019-08-12 17:12:30:900,1.3308,-0.4482,10.6612,-0.8028,-0.2458,9.7706,0.0181,-0.2087,-0.0435
81203,48.49146,-2.68402,75.89,9.96,17.152,303.7,Dec-21,2390458,2019-08-12 17:12:30:900,1.3308,-0.4482,10.6612,-0.8028,-0.2458,9.7706,0.0181,-0.2087,-0.0435
81204,48.49146,-2.68402,75.89,9.96,17.152,303.7,Dec-21,2390459,2019-08-12 17:12:30:901,1.3308,-0.4482,10.6612,-0.8028,-0.2458,9.7706,0.0181,-0.2087,-0.0435
81205,48.49146,-2.68402,75.89,9.96,17.152,303.7,Dec-21,2390459,2019-08-12 17:12:30:901,1.3308,-0.4482,10.6612,-0.8028,-0.2458,9.7706,0.0181,-0.2087,-0.0435
81206,48.49146,-2.68402,75.89,9.96,17.152,303.7,Dec-21,2390460,2019-08-12 17:12:30:902,1.3308,-0.4482,10.6612,-0.8028,-0.2458,9.7706,0.0181,-0.2087,-0.0435
81207,48.49146,-2.68402,75.89,9.96,17.152,303.7,Dec-21,2390461,2019-08-12 17:12:30:903,1.3308,-0.4482,10.6612,-0.8028,-0.2458,9.7706,0.0181,-0.2087,-0.0435
81208,48.49146,-2.68402,75.89,9.96,17.152,303.7,Dec-21,2390461,2019-08-12 17:12:30:903,1.3308,-0.4482,10.6612,-0.8028,-0.2458,9.7706,0.0181,-0.2087,-0.0435
81209,48.49146,-2.68402,75.89,9.96,17.152,303.7,Dec-21,2390544,2019-08-12 17:12:30:986,1.3308,-0.4482,10.6612,-0.8028,-0.2458,9.7706,0.0181,-0.2087,-0.0435
81210,48.49146,-2.68402,75.89,9.96,17.152,303.7,Dec-21,2390858,2019-08-12 17:12:31:300,1.3308,-0.4482,10.6612,-0.8028,-0.2458,9.7706,0.0181,-0.2087,-0.0435
81211,48.49146,-2.68402,75.89,9.96,17.152,303.7,Dec-21,2390859,2019-08-12 17:12:31:301,1.3308,-0.4482,10.6612,-0.8028,-0.2458,9.7706,0.0181,-0.2087,-0.0435
81212,48.49146,-2.68402,75.89,9.96,17.152,303.7,Dec-21,2390859,2019-08-12 17:12:31:301,1.3308,-0.4482,10.6612,-0.8028,-0.2458,9.7706,0.0181,-0.2087,-0.0435
81213,48.49146,-2.68402,75.89,9.96,17.152,303.7,Dec-21,2390859,2019-08-12 17:12:31:301,1.3308,-0.4482,10.6612,-0.8028,-0.2458,9.7706,0.0181,-0.2087,-0.0435
81214,48.49146,-2.68402,75.89,9.96,17.152,303.7,Dec-21,2390860,2019-08-12 17:12:31:302,1.3308,-0.4482,10.6612,-0.8028,-0.2458,9.7706,0.0181,-0.2087,-0.0435
81215,48.49146,-2.68402,75.89,9.96,17.152,303.7,Dec-21,2390863,2019-08-12 17:12:31:305,1.3308,-0.4482,10.6612,-0.8028,-0.2458,9.7706,0.0181,-0.2087,-0.0435
81216,48.49146,-2.68402,75.89,9.96,17.152,303.7,Dec-21,2390864,2019-08-12 17:12:31:306,1.3308,-0.4482,10.6612,-0.8028,-0.2458,9.7706,0.0181,-0.2087,-0.0435
81217,48.49146,-2.68402,75.89,9.96,17.152,303.7,Dec-21,2390864,2019-08-12 17:12:31:306,1.3308,-0.4482,10.6612,-0.8028,-0.2458,9.7706,0.0181,-0.2087,-0.0435
81218,48.49146,-2.68402,75.89,9.96,17.152,303.7,Sep-21,2390883,2019-08-12 17:12:31:325,1.3308,-0.4482,10.6612,-0.8028,-0.2458,9.7706,0.0181,-0.2087,-0.0435
81219,48.49146,-2.68402,75.89,9.96,17.152,303.7,Sep-21,2390983,2019-08-12 17:12:31:425,1.3308,-0.4482,10.6612,-0.8028,-0.2458,9.7706,0.0181,-0.2087,-0.0435
81220,48.49146,-2.68402,75.89,9.96,17.152,303.7,0 / 21,2391345,2019-08-12 17:12:31:787,1.3308,-0.4482,10.6612,-0.8028,-0.2458,9.7706,0.0181,-0.2087,-0.0435
81221,48.49146,-2.68402,75.89,9.96,17.152,303.7,0 / 21,2391346,2019-08-12 17:12:31:788,1.3308,-0.4482,10.6612,-0.8028,-0.2458,9.7706,0.0181,-0.2087,-0.0435
81222,48.49146,-2.68402,75.89,9.96,17.152,303.7,0 / 21,2391346,2019-08-12 17:12:31:788,1.3308,-0.4482,10.6612,-0.8028,-0.2458,9.7706,0.0181,-0.2087,-0.0435
81223,48.49146,-2.68402,75.89,9.96,17.152,303.7,0 / 21,2391347,2019-08-12 17:12:31:789,1.3308,-0.4482,10.6612,-0.8028,-0.2458,9.7706,0.0181,-0.2087,-0.0435
81224,48.49146,-2.68402,75.89,9.96,17.152,303.7,0 / 21,2391347,2019-08-12 17:12:31:789,1.3308,-0.4482,10.6612,-0.8028,-0.2458,9.7706,0.0181,-0.2087,-0.0435
81225,48.49146,-2.68402,75.89,9.96,17.152,303.7,0 / 21,2391348,2019-08-12 17:12:31:790,1.3308,-0.4482,10.6612,-0.8028,-0.2458,9.7706,0.0181,-0.2087,-0.0435
81226,48.49146,-2.68402,75.89,9.96,17.152,303.7,0 / 21,2391348,2019-08-12 17:12:31:790,1.3308,-0.4482,10.6612,-0.8028,-0.2458,9.7706,0.0181,-0.2087,-0.0435
81227,48.49146,-2.68402,75.89,9.96,17.152,303.7,0 / 21,2391349,2019-08-12 17:12:31:791,1.3308,-0.4482,10.6612,-0.8028,-0.2458,9.7706,0.0181,-0.2087,-0.0435
81228,48.49146,-2.68402,75.89,9.96,17.152,303.7,0 / 21,2391350,2019-08-12 17:12:31:792,1.3308,-0.4482,10.6612,-0.8028,-0.2458,9.7706,0.0181,-0.2087,-0.0435
81229,48.492313,-2.685163,70.27,8.28,11.792,307.6,0 / 21,2391447,2019-08-12 17:12:31:889,1.3308,-0.4482,10.6612,-0.8028,-0.2458,9.7706,0.0181,-0.2087,-0.0435
81230,48.492313,-2.685163,70.27,8.28,11.792,307.6,0 / 21,2391797,2019-08-12 17:12:32:239,1.3308,-0.4482,10.6612,-0.8028,-0.2458,9.7706,0.0181,-0.2087,-0.0435
81231,48.492313,-2.685163,70.27,8.28,11.792,307.6,0 / 21,2391797,2019-08-12 17:12:32:239,1.3308,-0.4482,10.6612,-0.8028,-0.2458,9.7706,0.0181,-0.2087,-0.0435
81232,48.492313,-2.685163,70.27,8.28,11.792,307.6,0 / 21,2391798,2019-08-12 17:12:32:240,1.3308,-0.4482,10.6612,-0.8028,-0.2458,9.7706,0.0181,-0.2087,-0.0435
81233,48.492313,-2.685163,70.27,8.28,11.792,307.6,0 / 21,2391798,2019-08-12 17:12:32:240,1.3308,-0.4482,10.6612,-0.8028,-0.2458,9.7706,0.0181,-0.2087,-0.0435
81234,48.492313,-2.685163,70.27,8.28,11.792,307.6,0 / 21,2391799,2019-08-12 17:12:32:241,1.3308,-0.4482,10.6612,-0.8028,-0.2458,9.7706,0.0181,-0.2087,-0.0435
81235,48.492313,-2.685163,70.27,8.28,11.792,307.6,0 / 21,2391801,2019-08-12 17:12:32:243,1.3308,-0.4482,10.6612,-0.8028,-0.2458,9.7706,0.0181,-0.2087,-0.0435
81236,48.492313,-2.685163,70.27,8.28,11.792,307.6,0 / 21,2391803,2019-08-12 17:12:32:245,1.3308,-0.4482,10.6612,-0.8028,-0.2458,9.7706,0.0181,-0.2087,-0.0435
81237,48.492313,-2.685163,70.27,8.28,11.792,307.6,0 / 21,2391809,2019-08-12 17:12:32:251,1.3308,-0.4482,10.6612,-0.8028,-0.2458,9.7706,0.0181,-0.2087,-0.0435
