,GPS LATITUDE (degrees), GPS LONGITUDE (degrees), GPS ALTITUDE (m), GPS SPEED (Kmh), GPS ACCURACY (m), GPS ORIENTATION (Â°),GPS SATELLITES IN RANGE, TIME SINCE START (ms), DATE (YYYY-MO-DD HH-MI-SS_SSS), ACCELEROMETER X (m/s²) , ACCELEROMETER Y (m/s²), ACCELEROMETER Z (m/s²), GRAVITY X (m/s²), GRAVITY Y (m/s²), GRAVITY Z (m/s²), GYROSCOPE Yaw (rad/s), GYROSCOPE Pitch (rad/s), GYROSCOPE Roll (rad/s), MAGNETIC FIELD X (Î¼T), MAGNETIC FIELD Y (Î¼T), MAGNETIC FIELD Z (Î¼T), ORIENTATION (Yaw) (Â°), ORIENTATION (Pitch) (Â°), ORIENTATION (Roll ) (Â°)
24837,52.393032,-1.576941,157.81,14.26,3,277.34,28 / 28,2297310,2019-09-08 12:45:16:549,0.4146,-0.667,10.1728,-0.1303,-0.0159,9.8057,0.3393,-0.0214,-0.0327,14.69,-37.44,10.81,82.89,-78.52,-174.64
24838,52.393032,-1.576941,157.81,14.26,3,277.34,28 / 28,2297410,2019-09-08 12:45:16:649,1.31,0.7206,8.6633,-0.1131,-0.043,9.8059,-0.404,-0.0351,0.0243,14.63,-38.12,10.25,86.7,-78.69,-174.55
24839,52.393032,-1.576941,157.81,14.26,3,277.34,28 / 28,2297510,2019-09-08 12:45:16:749,3.4056,0.7209,9.25,0.1222,0.0322,9.8058,-0.4394,0.0311,-0.0009,14.38,-37.87,10.63,83.14,-78.66,-173.98
24840,52.393032,-1.576941,157.81,14.26,3,277.34,28 / 28,2297610,2019-09-08 12:45:16:849,-0.149,-0.691,11.1397,0.0756,0.0225,9.8063,0.2691,-0.0477,0.0089,14.94,-37.12,11.25,82.32,-79.29,-173.44
24841,52.393032,-1.576941,157.81,14.26,3,277.34,27 / 28,2297711,2019-09-08 12:45:16:950,-0.0213,-0.9055,10.7904,-0.0353,-0.0161,9.8065,0.2283,-0.0186,-0.1318,14.5,-37.37,11.13,82.34,-79.2,-173.63
24842,52.393032,-1.576941,157.81,14.26,3,277.34,27 / 28,2297810,2019-09-08 12:45:17:049,-0.8251,0.3043,10.7539,-0.0246,0.0011,9.8066,-0.2741,0.0753,-0.0534,14.38,-38.0,10.63,83.13,-78.93,-173.32
24843,52.393032,-1.576941,157.81,14.26,3,277.34,27 / 28,2297910,2019-09-08 12:45:17:149,1.8349,1.7054,8.9294,0.0045,0.008,9.8066,-0.2488,-0.1599,0.1398,13.81,-37.31,10.31,86.34,-78.98,-172.89
24844,52.393032,-1.576941,157.81,14.26,3,277.34,27 / 28,2298009,2019-09-08 12:45:17:248,1.6686,0.7064,8.8324,0.0084,0.0256,9.8065,0.2394,-0.1074,0.1507,14.56,-37.56,10.25,87.97,-79.12,-172.27
24845,52.393032,-1.576941,157.81,14.26,3,277.34,27 / 28,2298110,2019-09-08 12:45:17:349,1.5908,-1.5448,8.0113,0.0451,-0.0016,9.8065,0.227,0.0875,-0.1085,14.88,-37.31,10.44,87.52,-79.03,-172.24
24846,52.393032,-1.576941,157.81,14.26,3,277.34,27 / 28,2298210,2019-09-08 12:45:17:449,-0.1955,-0.1626,10.7305,0.0508,0.0175,9.8064,-0.0298,0.0147,-0.0092,14.94,-37.12,10.81,84.15,-79.29,-171.68
24847,52.393032,-1.576941,157.81,14.26,3,277.34,27 / 28,2298310,2019-09-08 12:45:17:549,-0.529,-0.0719,10.1724,-0.0556,-0.003,9.8065,0.0215,-0.0249,0.056,14.81,-37.31,10.44,87.34,-79.32,-171.76
24848,52.393032,-1.576941,157.81,14.26,3,277.34,27 / 28,2298410,2019-09-08 12:45:17:649,0.9555,-0.5621,9.4544,-0.0327,0.0061,9.8066,-0.0291,-0.0151,0.058,14.81,-37.81,11.06,85.83,-79.01,-171.3
24849,52.393032,-1.576941,157.81,14.26,3,277.34,27 / 28,2298510,2019-09-08 12:45:17:749,0.1254,-0.7449,10.1305,0.0261,0.0155,9.8065,0.0058,0.008,0.0201,14.5,-37.25,10.63,85.75,-79.09,-170.55
24850,52.393032,-1.576941,157.81,14.26,3,277.34,27 / 28,2298610,2019-09-08 12:45:17:849,-1.051,0.0085,9.4975,0.0189,0.0055,9.8065,-0.1687,-0.0407,-0.0092,14.5,-37.56,10.25,89.91,-79.04,-170.49
24851,52.393032,-1.576941,157.81,14.26,3,277.34,27 / 27,2298710,2019-09-08 12:45:17:949,0.152,0.1628,9.6385,0.0308,0.0135,9.8065,-0.119,0.0276,-0.0402,14.25,-37.37,10.19,88.97,-78.87,-170.54
24852,52.393032,-1.576941,157.81,14.26,3,277.34,27 / 27,2298810,2019-09-08 12:45:18:049,-1.2308,-1.622,10.3327,0.043,0.013,9.8065,0.1446,0.0956,-0.0648,14.38,-37.37,10.88,85.55,-79.05,-170.0
24853,52.393032,-1.576941,157.81,14.26,3,277.34,27 / 27,2298910,2019-09-08 12:45:18:149,-0.7213,-0.262,10.4295,-0.0536,-0.0152,9.8064,0.1875,-0.05,0.0996,15.5,-37.5,10.69,87.59,-78.87,-169.94
24854,52.393032,-1.576941,157.81,14.26,3,277.34,27 / 27,2299010,2019-09-08 12:45:18:249,-0.038,0.3169,10.0011,-0.022,-0.0164,9.8065,-0.1585,0.0354,-0.0156,14.94,-38.0,10.56,86.75,-79.15,-170.07
24855,52.393032,-1.576941,157.81,14.26,3,277.34,27 / 27,2299109,2019-09-08 12:45:18:348,2.3875,0.3851,9.8778,0.0379,0.0014,9.8065,-0.1641,-0.0485,0.0286,15.0,-37.81,10.31,89.78,-79.21,-170.23
24856,52.393032,-1.576941,157.81,14.26,3,277.34,27 / 27,2299210,2019-09-08 12:45:18:449,0.4812,-0.0046,10.0823,0.0636,0.0091,9.8063,0.2876,-0.0069,-0.0331,16.31,-37.75,10.5,86.21,-79.47,-170.64
24857,52.393032,-1.576941,157.81,14.26,3,277.34,27 / 27,2299310,2019-09-08 12:45:18:549,-1.3172,-0.4978,10.2753,-0.071,-0.0213,9.8063,0.2217,0.0012,-0.009,16.38,-37.62,11.19,86.64,-79.43,-170.29
24858,52.393032,-1.576941,157.81,14.26,3,277.34,27 / 27,2299410,2019-09-08 12:45:18:649,1.4024,1.2634,8.5813,-0.0654,-0.0035,9.8064,-0.2771,0.0102,0.14,16.13,-37.94,10.13,90.44,-79.07,-170.44
24859,52.393032,-1.576941,157.81,14.26,3,277.34,27 / 27,2299510,2019-09-08 12:45:18:749,3.7505,-0.7639,9.2713,0.1911,0.0523,9.8046,-0.4122,0.1229,0.0135,14.75,-37.0,10.75,86.12,-79.87,-168.45
24860,52.393032,-1.576941,157.81,14.26,3,277.34,27 / 27,2299610,2019-09-08 12:45:18:849,2.4855,-2.712,9.6277,0.2816,0.0508,9.8024,1.1238,-0.2633,0.2473,14.63,-37.56,11.06,86.73,-80.03,-168.07
24861,52.393032,-1.576941,157.81,14.26,3,277.34,27 / 27,2299710,2019-09-08 12:45:18:949,-3.4832,-0.7554,12.8957,-0.278,-0.0771,9.8024,1.287,-0.1198,0.025,15.31,-37.56,11.69,84.16,-79.84,-167.91
24862,52.393032,-1.576941,157.81,14.26,3,277.34,27 / 27,2299810,2019-09-08 12:45:19:049,-1.3095,-0.8106,11.1014,-0.1571,-0.0343,9.8053,-0.8835,0.0286,-0.066,15.06,-37.87,10.13,91.98,-78.6,-169.41
24863,52.393032,-1.576941,157.81,14.26,3,277.34,27 / 27,2299910,2019-09-08 12:45:19:149,0.7235,-0.7608,9.7204,0.011,-0.0146,9.8065,-0.4814,0.0179,-0.0633,14.56,-37.31,10.44,89.59,-79.13,-169.95
24864,52.393032,-1.576941,157.81,14.26,3,277.34,27 / 27,2300010,2019-09-08 12:45:19:249,3.1354,-0.6141,8.2688,-0.0375,-0.0281,9.8065,-0.0799,0.0326,-0.0786,15.19,-37.5,10.88,85.05,-79.14,-171.14
24865,52.393032,-1.576941,157.81,14.26,3,277.34,27 / 27,2300110,2019-09-08 12:45:19:349,2.1266,-0.26,9.7323,0.08,0.0297,9.8062,-0.0822,-0.0136,-0.0143,15.0,-36.69,11.06,83.93,-79.63,-171.13
24866,52.393032,-1.576941,157.81,14.26,3,277.34,27 / 27,2300210,2019-09-08 12:45:19:449,2.2124,-0.7238,10.6,0.1101,0.0189,9.806,0.625,-0.1133,0.0082,14.25,-37.5,10.81,82.72,-79.77,-171.07
24867,52.393032,-1.576941,157.81,14.26,3,277.34,27 / 27,2300310,2019-09-08 12:45:19:549,-3.0512,-1.1219,10.9851,-0.2233,-0.0395,9.804,0.8376,-0.1959,0.1486,14.44,-36.56,11.44,83.41,-79.85,-170.22
24868,52.393032,-1.576941,157.81,14.26,3,277.34,27 / 27,2300410,2019-09-08 12:45:19:649,-0.5239,-1.4406,9.3523,-0.2456,-0.0683,9.8032,-1.1858,0.0648,0.0418,14.06,-36.5,10.56,86.55,-78.28,-170.11
24869,52.393032,-1.576941,157.81,14.26,3,277.34,27 / 27,2300510,2019-09-08 12:45:19:749,1.5531,-0.9505,8.8048,0.1357,0.0179,9.8056,-0.9773,0.0356,0.0183,13.94,-36.87,9.13,95.17,-78.3,-169.26
24870,52.393032,-1.576941,157.81,14.26,3,277.34,27 / 27,2300610,2019-09-08 12:45:19:849,2.0051,-2.4761,7.3677,0.0104,0.0038,9.8066,0.4115,0.0148,-0.1329,13.5,-37.19,9.94,91.75,-78.67,-168.19
24871,52.393032,-1.576941,157.81,14.26,3,277.34,27 / 27,2300710,2019-09-08 12:45:19:949,-0.7926,0.6219,11.0244,0.116,0.0441,9.8059,0.0321,-0.1005,0.1317,13.63,-37.0,10.06,91.94,-79.21,-166.67
24872,52.393032,-1.576941,157.81,14.26,3,277.34,27 / 27,2300810,2019-09-08 12:45:20:049,-1.5744,1.2531,11.6777,0.1838,0.0285,9.8048,0.2837,0.0998,-0.0337,13.38,-37.06,10.0,90.61,-79.61,-166.25
24873,52.393032,-1.576941,157.81,14.26,3,277.34,27 / 27,2300910,2019-09-08 12:45:20:149,-1.5752,-0.5895,11.3275,-0.1463,-0.0555,9.8054,0.4033,0.0002,0.017,13.69,-37.31,10.94,88.61,-79.63,-165.6
24874,52.393032,-1.576941,157.81,14.26,3,277.34,27 / 27,2301010,2019-09-08 12:45:20:249,0.8424,2.7535,9.1443,-0.1055,-0.0189,9.806,-0.5342,-0.0722,0.1077,13.63,-37.62,10.44,92.94,-79.08,-166.67
24875,52.393032,-1.576941,157.81,14.26,3,277.34,27 / 27,2301110,2019-09-08 12:45:20:349,3.5965,0.0806,7.7748,0.0473,0.0177,9.8064,-0.5419,0.0448,-0.0216,13.88,-37.56,10.13,92.78,-79.43,-165.94
24876,52.393032,-1.576941,157.81,14.26,3,277.34,27 / 27,2301210,2019-09-08 12:45:20:449,3.6502,0.0651,7.5293,-0.0264,0.0002,9.8066,0.3691,-0.0345,0.0132,14.25,-37.0,9.94,92.82,-79.06,-166.11
24877,52.393032,-1.576941,157.81,14.26,3,277.34,27 / 27,2301310,2019-09-08 12:45:20:549,-0.9747,-0.2524,11.8456,0.0947,0.0218,9.8061,0.1535,-0.0096,-0.0129,15.13,-36.69,10.5,90.53,-78.84,-166.32
24878,52.393032,-1.576941,157.81,14.26,3,277.34,27 / 27,2301410,2019-09-08 12:45:20:649,-1.4335,-0.973,12.0171,0.1003,0.0324,9.8061,0.037,-0.0142,0.0369,15.0,-36.94,11.25,90.5,-78.65,-166.76
24879,52.393032,-1.576941,157.81,14.26,3,277.34,27 / 27,2301511,2019-09-08 12:45:20:750,-0.8115,-0.2885,12.0776,-0.126,-0.0317,9.8057,0.1579,-0.0118,-0.001,14.56,-36.69,10.88,91.14,-78.35,-166.79
24880,52.393032,-1.576941,157.81,14.26,3,277.34,27 / 27,2301610,2019-09-08 12:45:20:849,-0.4293,-0.3342,9.8145,-0.0997,-0.0117,9.8061,-0.1923,0.0268,0.0108,14.5,-36.81,10.63,91.53,-78.3,-166.49
24881,52.393032,-1.576941,157.81,14.26,3,277.34,29 / 29,2301710,2019-09-08 12:45:20:949,0.2319,0.4756,8.8195,0.0578,0.0321,9.8064,-0.0543,-0.0011,-0.0212,14.31,-37.37,10.44,94.83,-78.64,-165.04
24882,52.393032,-1.576941,157.81,14.26,3,277.34,29 / 29,2301810,2019-09-08 12:45:21:049,1.169,-0.3907,9.39,-0.0027,0.0067,9.8065,-0.1975,-0.0075,0.0255,13.94,-37.06,10.56,92.04,-79.25,-163.0
24883,52.393032,-1.576941,157.81,14.26,3,277.34,29 / 29,2301910,2019-09-08 12:45:21:149,2.0109,-0.3572,10.107,0.0543,0.0232,9.8065,0.0903,-0.0125,0.0146,13.31,-36.94,10.38,96.17,-79.2,-161.47
24884,52.393032,-1.576941,157.81,14.26,3,277.34,29 / 29,2302010,2019-09-08 12:45:21:249,0.7694,0.9209,10.5464,0.0061,-0.0052,9.8066,-0.001,-0.107,0.1038,14.25,-37.0,10.19,97.91,-78.89,-161.12
24885,52.393032,-1.576941,157.81,14.26,3,277.34,29 / 29,2302111,2019-09-08 12:45:21:350,1.1304,0.0973,10.1243,0.0166,0.0014,9.8066,0.2917,-0.0075,0.0063,14.19,-37.44,10.63,95.34,-78.36,-161.61
24886,52.393032,-1.576941,157.81,14.26,3,277.34,29 / 29,2302210,2019-09-08 12:45:21:449,1.2009,-0.3302,8.9445,0.0883,0.02,9.8061,0.329,0.0535,-0.0371,13.75,-37.37,11.06,94.82,-78.67,-161.42
24887,52.393032,-1.576941,157.81,14.26,3,277.34,29 / 29,2302310,2019-09-08 12:45:21:549,0.0427,-0.6436,9.7394,-0.0638,-0.018,9.8063,-0.2704,0.0117,0.034,14.38,-37.06,10.88,93.99,-79.07,-161.37
24888,52.393032,-1.576941,157.81,14.26,3,277.34,29 / 29,2302410,2019-09-08 12:45:21:649,1.3449,-0.6292,8.8008,-0.0596,-0.008,9.8064,-0.1693,0.0449,-0.0463,14.56,-36.69,9.94,98.06,-78.93,-161.52
24889,52.393032,-1.576941,157.81,14.26,3,277.34,29 / 29,2302510,2019-09-08 12:45:21:749,-1.247,0.3125,8.4337,0.0494,-0.0097,9.8065,0.1082,-0.0896,0.1156,13.81,-37.87,9.81,97.84,-78.9,-161.87
24890,52.393032,-1.576941,157.81,14.26,3,277.34,29 / 29,2302610,2019-09-08 12:45:21:849,1.2858,0.8436,9.5028,-0.0481,-0.0293,9.8065,-0.3523,-0.0309,0.1371,12.94,-37.0,9.63,95.84,-78.74,-163.0
24891,52.393032,-1.576941,157.81,14.26,3,277.34,29 / 29,2302710,2019-09-08 12:45:21:949,2.1897,0.5578,9.1964,0.0394,0.0204,9.8065,0.3681,0.1126,0.0005,12.13,-36.69,10.13,95.38,-78.8,-162.56
24892,52.393032,-1.576941,157.81,14.26,3,277.34,29 / 29,2302810,2019-09-08 12:45:22:049,-1.5746,-2.3718,11.9465,0.1286,0.0453,9.8056,0.4596,0.073,-0.0823,12.94,-36.62,11.0,93.37,-78.91,-161.48
24893,52.393032,-1.576941,157.81,14.26,3,277.34,29 / 29,2302910,2019-09-08 12:45:22:149,-2.1136,0.3505,11.4704,-0.1194,-0.0192,9.8058,-0.2139,0.0052,-0.0221,13.44,-36.94,10.69,93.27,-78.93,-161.54
24894,52.393032,-1.576941,157.81,14.26,3,277.34,29 / 29,2303010,2019-09-08 12:45:22:249,-0.1419,-1.1927,9.9669,-0.0951,-0.0305,9.8061,-0.1995,0.0591,-0.0193,13.56,-36.75,10.69,94.54,-78.42,-162.32
24895,52.393032,-1.576941,157.81,14.26,3,277.34,29 / 29,2303110,2019-09-08 12:45:22:349,1.174,-0.0574,8.5673,0.0786,0.0254,9.8062,0.0108,0.0565,-0.0132,13.63,-37.0,10.44,97.79,-78.57,-162.02
24896,52.393032,-1.576941,157.81,14.26,3,277.34,29 / 29,2303210,2019-09-08 12:45:22:449,1.3143,-1.0492,9.4774,0.0402,0.0119,9.8065,-0.009,0.0561,-0.0141,13.69,-36.56,10.13,97.82,-79.0,-160.96
24897,52.393032,-1.576941,157.81,14.26,3,277.34,29 / 29,2303310,2019-09-08 12:45:22:549,1.645,-1.4653,9.8761,-0.0032,-0.0089,9.8066,0.0799,-0.0424,0.1044,13.5,-37.69,10.13,98.26,-78.99,-161.2
24898,52.393032,-1.576941,157.81,14.26,3,277.34,29 / 29,2303410,2019-09-08 12:45:22:649,0.5607,-0.5389,10.2879,0.0089,0.0014,9.8066,0.0294,0.0665,0.0242,13.31,-37.69,10.69,94.47,-79.04,-160.72
24899,52.393032,-1.576941,157.81,14.26,3,277.34,29 / 29,2303510,2019-09-08 12:45:22:749,-2.1658,-1.6292,10.9256,-0.0601,-0.0074,9.8064,-0.125,-0.0107,0.007,13.19,-37.12,10.94,93.56,-79.05,-160.95
24900,52.393032,-1.576941,157.81,14.26,3,277.34,29 / 29,2303610,2019-09-08 12:45:22:849,-0.1046,0.034,9.2196,-0.0786,-0.0276,9.8062,-0.1927,0.0193,0.0501,13.63,-36.31,11.31,94.47,-78.58,-161.3
24901,52.3932,-1.578947,158.55,15.1,3,276.91,28 / 29,2303710,2019-09-08 12:45:22:949,2.8757,0.0173,8.5036,-0.0756,-0.028,9.8062,-0.3973,0.0211,0.0288,13.44,-36.87,10.19,97.75,-78.51,-161.54
24902,52.3932,-1.578947,158.55,15.1,3,276.91,28 / 29,2303809,2019-09-08 12:45:23:048,-1.2713,0.3747,10.5767,-0.025,-0.0042,9.8065,0.2998,-0.043,0.0251,13.81,-37.44,11.75,91.85,-78.96,-160.55
24903,52.3932,-1.578947,158.55,15.1,3,276.91,28 / 29,2303910,2019-09-08 12:45:23:149,0.7118,-0.8951,11.087,-0.0298,-0.0116,9.8066,-0.2085,0.0102,-0.0326,14.0,-37.25,11.75,91.71,-78.85,-160.94
24904,52.3932,-1.578947,158.55,15.1,3,276.91,28 / 29,2304010,2019-09-08 12:45:23:249,2.9774,-1.7463,8.3956,-0.0199,0.0252,9.8066,-0.4096,0.0084,0.0968,12.63,-37.31,10.88,94.73,-78.73,-160.49
24905,52.3932,-1.578947,158.55,15.1,3,276.91,28 / 29,2304110,2019-09-08 12:45:23:349,0.5863,-0.0634,7.8894,-0.0306,-0.0267,9.8065,0.278,0.0197,0.0623,13.13,-36.69,11.13,93.8,-78.61,-161.78
24906,52.3932,-1.578947,158.55,15.1,3,276.91,28 / 29,2304210,2019-09-08 12:45:23:449,3.0107,-1.227,7.7599,0.1266,0.0132,9.8058,-0.0293,0.0794,0.0281,13.88,-36.37,11.44,94.52,-78.18,-162.18
24907,52.3932,-1.578947,158.55,15.1,3,276.91,28 / 29,2304310,2019-09-08 12:45:23:549,-1.1687,-0.3934,10.7442,0.1477,0.0239,9.8055,0.182,-0.0038,-0.0021,14.25,-36.94,11.5,90.75,-79.01,-161.57
24908,52.3932,-1.578947,158.55,15.1,3,276.91,28 / 29,2304410,2019-09-08 12:45:23:649,-1.0726,-0.3602,10.5628,-0.0957,-0.0307,9.8061,0.2353,-0.0061,-0.0512,14.06,-36.5,11.31,93.05,-79.21,-161.36
24909,52.3932,-1.578947,158.55,15.1,3,276.91,28 / 29,2304510,2019-09-08 12:45:23:749,-0.7904,-1.2015,10.1874,-0.0967,-0.0175,9.8061,-0.3915,-0.0246,0.0112,14.19,-36.37,10.88,93.22,-78.81,-162.1
24910,52.3932,-1.578947,158.55,15.1,3,276.91,28 / 29,2304610,2019-09-08 12:45:23:849,2.2136,-1.1639,9.3375,0.1077,0.0466,9.8059,-0.517,0.0865,-0.0383,13.88,-36.62,10.94,94.05,-79.3,-160.78
24911,52.3932,-1.578947,158.55,15.1,3,276.91,28 / 28,2304710,2019-09-08 12:45:23:949,-0.0877,-1.2259,10.3694,0.0931,0.0224,9.8061,0.425,0.0072,-0.0397,14.44,-37.19,10.81,94.24,-79.09,-161.07
24912,52.3932,-1.578947,158.55,15.1,3,276.91,28 / 28,2304810,2019-09-08 12:45:24:049,0.7295,-1.2146,10.3592,-0.045,-0.0169,9.8065,0.314,0.0115,-0.103,14.56,-36.75,11.0,94.95,-78.81,-161.78
24913,52.3932,-1.578947,158.55,15.1,3,276.91,28 / 28,2304910,2019-09-08 12:45:24:149,-0.3408,-0.998,10.0635,0.0098,-0.0013,9.8066,-0.1451,0.0255,-0.0771,14.75,-36.81,11.25,95.0,-78.62,-162.14
24914,52.3932,-1.578947,158.55,15.1,3,276.91,28 / 28,2305010,2019-09-08 12:45:24:249,0.5694,-0.2805,9.5475,-0.0231,-0.0126,9.8066,-0.102,-0.0072,-0.0125,14.81,-37.5,11.94,91.75,-78.84,-161.87
24915,52.3932,-1.578947,158.55,15.1,3,276.91,28 / 28,2305111,2019-09-08 12:45:24:350,1.2158,-0.198,9.2055,-0.0117,-0.0075,9.8066,0.0228,0.0091,-0.0254,15.25,-37.31,11.94,91.14,-78.89,-162.39
24916,52.3932,-1.578947,158.55,15.1,3,276.91,28 / 28,2305211,2019-09-08 12:45:24:450,0.6828,-1.0756,9.5458,0.0103,0.006,9.8066,0.0834,-0.0154,0.023,15.44,-38.12,11.44,94.29,-79.06,-162.57
24917,52.3932,-1.578947,158.55,15.1,3,276.91,28 / 28,2305310,2019-09-08 12:45:24:549,0.3199,-0.7824,10.427,0.0086,0.0141,9.8065,0.0236,-0.0215,0.0753,14.63,-37.12,11.81,90.87,-79.03,-162.36
24918,52.3932,-1.578947,158.55,15.1,3,276.91,28 / 28,2305410,2019-09-08 12:45:24:649,-0.0262,-1.8007,10.4677,-0.0246,-0.0059,9.8066,-0.0788,0.0806,-0.0462,14.5,-37.94,11.0,94.44,-79.02,-162.49
24919,52.3932,-1.578947,158.55,15.1,3,276.91,28 / 28,2305510,2019-09-08 12:45:24:749,0.5865,-0.7493,10.6291,0.004,0.0082,9.8066,0.0707,0.0006,0.0361,14.13,-38.25,11.81,91.24,-78.82,-162.16
24920,52.3932,-1.578947,158.55,15.1,3,276.91,28 / 28,2305610,2019-09-08 12:45:24:849,-0.283,-1.1525,10.3787,-0.0222,-0.0034,9.8065,0.1282,0.0755,-0.0471,14.88,-38.5,11.88,92.52,-78.72,-161.98
24921,52.3932,-1.578947,158.55,15.1,3,276.91,29 / 29,2305710,2019-09-08 12:45:24:949,0.3948,-0.4624,9.9602,-0.0125,-0.0135,9.8066,-0.0104,0.0395,0.0286,14.25,-38.25,12.0,91.32,-78.71,-162.33
24922,52.3932,-1.578947,158.55,15.1,3,276.91,29 / 29,2305809,2019-09-08 12:45:25:048,1.1922,-0.1256,9.1884,0.0091,-0.0036,9.8065,-0.0517,-0.0086,0.0856,14.69,-37.44,12.13,91.14,-78.9,-162.38
24923,52.3932,-1.578947,158.55,15.1,3,276.91,29 / 29,2305910,2019-09-08 12:45:25:149,2.0965,-0.3785,9.4875,0.0194,-0.0049,9.8066,0.3004,0.0138,-0.0222,13.63,-37.56,12.13,89.66,-79.19,-162.91
24924,52.3932,-1.578947,158.55,15.1,3,276.91,29 / 29,2306010,2019-09-08 12:45:25:249,2.1553,-0.8118,10.1437,0.0127,-0.005,9.8066,0.288,0.0854,-0.0374,13.63,-37.25,11.75,88.5,-79.25,-163.32
24925,52.3932,-1.578947,158.55,15.1,3,276.91,29 / 29,2306110,2019-09-08 12:45:25:349,-0.8472,-1.9708,11.2141,0.0281,0.0077,9.8065,-0.1185,0.0324,-0.0528,13.38,-37.44,12.38,87.22,-79.26,-163.48
24926,52.3932,-1.578947,158.55,15.1,3,276.91,29 / 29,2306210,2019-09-08 12:45:25:449,-0.7568,-0.9197,10.3237,-0.1436,-0.0503,9.8054,0.1388,0.0012,0.0121,13.38,-37.31,11.88,87.81,-78.59,-164.48
24927,52.3932,-1.578947,158.55,15.1,3,276.91,29 / 29,2306310,2019-09-08 12:45:25:549,0.2445,-0.3258,9.1908,-0.1208,-0.0555,9.8057,-0.2758,0.0008,-0.026,13.88,-37.0,12.31,88.87,-78.76,-164.05
24928,52.3932,-1.578947,158.55,15.1,3,276.91,29 / 29,2306410,2019-09-08 12:45:25:649,1.7395,1.0891,9.5828,0.1278,0.037,9.8057,-0.3132,-0.0188,0.0067,14.88,-36.87,11.94,88.85,-78.97,-164.57
24929,52.3932,-1.578947,158.55,15.1,3,276.91,29 / 29,2306510,2019-09-08 12:45:25:749,0.5196,-1.2983,10.1653,0.0843,0.0157,9.8062,0.3301,0.0222,-0.0284,16.94,-36.62,11.94,89.73,-79.65,-164.02
24930,52.3932,-1.578947,158.55,15.1,3,276.91,29 / 29,2306610,2019-09-08 12:45:25:849,0.9277,-1.0309,10.6059,-0.0558,-0.0122,9.8064,0.2417,0.0778,-0.0462,17.0,-37.94,12.0,90.03,-79.49,-164.56
24931,52.3932,-1.578947,158.55,15.1,3,276.91,29 / 29,2306710,2019-09-08 12:45:25:949,3.4611,-1.1958,8.801,-0.0843,-0.0504,9.8061,-0.2406,0.1536,-0.147,16.13,-38.0,11.88,89.08,-79.01,-165.72
24932,52.3932,-1.578947,158.55,15.1,3,276.91,29 / 29,2306810,2019-09-08 12:45:26:049,-1.2058,-0.6122,9.1415,0.1159,0.0305,9.8058,-0.0668,0.0164,-0.014,15.25,-38.12,11.94,88.52,-79.57,-164.2
24933,52.3932,-1.578947,158.55,15.1,3,276.91,29 / 29,2306910,2019-09-08 12:45:26:149,-0.0924,-1.4676,9.7594,0.13,0.0615,9.8056,0.2721,-0.0122,-0.0021,14.63,-37.87,13.5,82.91,-79.7,-163.69
24934,52.3932,-1.578947,158.55,15.1,3,276.91,29 / 29,2307009,2019-09-08 12:45:26:248,-0.6081,-0.7555,10.3817,-0.0957,-0.0337,9.8061,0.184,0.0395,-0.0211,14.63,-37.62,13.44,86.11,-79.75,-163.25
24935,52.3932,-1.578947,158.55,15.1,3,276.91,29 / 29,2307110,2019-09-08 12:45:26:349,-0.0906,-0.4688,9.9891,-0.0405,-0.0386,9.8064,0.0213,-0.0008,-0.0381,14.25,-37.81,13.0,84.86,-79.35,-164.23
24936,52.3932,-1.578947,158.55,15.1,3,276.91,29 / 29,2307210,2019-09-08 12:45:26:449,-0.2775,-0.2306,10.1767,0.0034,-0.0022,9.8066,-0.1089,0.0218,-0.0251,14.81,-37.75,13.19,86.03,-79.34,-164.18
24937,52.3932,-1.578947,158.55,15.1,3,276.91,29 / 29,2307310,2019-09-08 12:45:26:549,0.0647,-1.448,10.2725,-0.0087,0.0006,9.8066,0.1229,0.103,-0.0559,14.63,-37.0,13.38,85.01,-79.31,-164.68
24938,52.3932,-1.578947,158.55,15.1,3,276.91,29 / 29,2307410,2019-09-08 12:45:26:649,2.192,-1.3863,10.3812,0.0011,-0.0137,9.8066,0.2747,0.1068,-0.0307,14.13,-37.81,13.69,80.72,-79.27,-165.45
24939,52.3932,-1.578947,158.55,15.1,3,276.91,29 / 29,2307510,2019-09-08 12:45:26:749,-0.2379,-2.8263,10.2061,0.032,0.0068,9.8065,-0.4834,-0.0089,0.158,13.56,-36.69,13.5,80.04,-79.37,-165.33
24940,52.3932,-1.578947,158.55,15.1,3,276.91,29 / 29,2307610,2019-09-08 12:45:26:849,1.1152,0.5631,7.4089,0.0027,-0.0004,9.8066,-0.4491,0.0566,0.0105,13.75,-37.44,13.06,82.27,-79.48,-165.85
24941,52.3932,-1.578947,158.55,15.1,3,276.91,27 / 27,2307711,2019-09-08 12:45:26:950,2.5755,-0.0251,8.0964,-0.0587,-0.0295,9.8064,0.1103,0.0526,-0.0063,13.63,-37.69,13.38,83.03,-79.32,-166.08
24942,52.3932,-1.578947,158.55,15.1,3,276.91,27 / 27,2307810,2019-09-08 12:45:27:049,1.5824,-0.3328,8.7482,0.0553,0.0338,9.8064,0.0645,0.0411,-0.0067,13.44,-37.81,13.69,78.72,-79.2,-166.18
24943,52.3932,-1.578947,158.55,15.1,3,276.91,27 / 27,2307910,2019-09-08 12:45:27:149,-0.4508,-1.1304,10.9565,0.0735,0.04,9.8062,0.1031,0.0797,0.0001,13.69,-37.75,13.63,80.59,-79.54,-165.01
24944,52.3932,-1.578947,158.55,15.1,3,276.91,27 / 27,2308010,2019-09-08 12:45:27:249,-0.3164,-0.6734,10.4943,-0.0804,-0.0246,9.8063,0.1431,0.0369,0.094,12.94,-37.87,13.13,83.41,-79.11,-164.98
24945,52.3932,-1.578947,158.55,15.1,3,276.91,27 / 27,2308110,2019-09-08 12:45:27:349,0.6151,-0.7707,9.4648,-0.0677,-0.017,9.8064,-0.1203,0.0538,0.0378,13.0,-38.19,13.38,84.08,-79.17,-164.18
24946,52.3932,-1.578947,158.55,15.1,3,276.91,27 / 27,2308210,2019-09-08 12:45:27:449,1.4628,0.5252,10.29,0.0569,0.0457,9.8063,-0.0697,-0.0222,0.0767,11.94,-37.25,13.63,79.79,-79.18,-163.17
24947,52.3932,-1.578947,158.55,15.1,3,276.91,27 / 27,2308310,2019-09-08 12:45:27:549,-0.2675,-0.4024,11.3715,0.0899,0.0547,9.806,0.0523,0.0439,0.0272,11.94,-37.31,13.94,80.62,-79.72,-161.17
24948,52.3932,-1.578947,158.55,15.1,3,276.91,27 / 27,2308410,2019-09-08 12:45:27:649,-0.9224,-1.7122,11.5057,-0.0813,-0.042,9.8062,0.1472,0.0506,0.0066,12.06,-36.62,13.63,81.38,-79.44,-161.06
24949,52.3932,-1.578947,158.55,15.1,3,276.91,27 / 27,2308510,2019-09-08 12:45:27:749,0.4092,0.8295,9.4074,-0.0772,-0.0296,9.8062,-0.2049,-0.0628,0.0287,12.25,-36.75,13.94,82.18,-78.8,-161.74
24950,52.3932,-1.578947,158.55,15.1,3,276.91,27 / 27,2308610,2019-09-08 12:45:27:849,1.6769,-0.1341,9.5052,0.0399,0.0329,9.8065,-0.1753,-0.0008,-0.0117,12.31,-36.81,13.06,85.67,-79.2,-160.55
24951,52.3932,-1.578947,158.55,15.1,3,276.91,27 / 27,2308710,2019-09-08 12:45:27:949,-0.1219,-0.0675,9.173,0.0388,0.0088,9.8065,0.0423,0.0399,-0.0435,12.19,-36.75,13.56,82.21,-79.3,-160.57
24952,52.3932,-1.578947,158.55,15.1,3,276.91,27 / 27,2308810,2019-09-08 12:45:28:049,-0.6954,-0.5285,10.265,-0.0201,-0.015,9.8065,0.1605,-0.019,0.0195,11.81,-36.87,13.63,82.67,-79.34,-160.05
24953,52.3932,-1.578947,158.55,15.1,3,276.91,27 / 27,2308910,2019-09-08 12:45:28:149,1.255,0.0006,10.2543,-0.0404,-0.0174,9.8065,-0.1048,-0.0125,0.0508,12.25,-36.81,12.81,85.64,-79.16,-160.69
24954,52.3932,-1.578947,158.55,15.1,3,276.91,27 / 27,2309010,2019-09-08 12:45:28:249,0.373,-0.2459,9.8269,0.0054,0.004,9.8065,-0.0085,-0.0048,0.0138,12.56,-37.12,13.63,84.18,-79.1,-160.57
24955,52.3932,-1.578947,158.55,15.1,3,276.91,27 / 27,2309110,2019-09-08 12:45:28:349,-0.0872,0.9055,10.9456,0.0477,0.034,9.8064,-0.0478,-0.1225,0.1087,12.69,-36.69,13.81,84.71,-79.21,-159.83
24956,52.3932,-1.578947,158.55,15.1,3,276.91,27 / 27,2309210,2019-09-08 12:45:28:449,-0.7149,-0.3861,11.0012,-0.0718,-0.0185,9.8063,0.0438,-0.0336,-0.0103,12.75,-37.62,13.19,87.98,-78.81,-161.19
24957,52.3932,-1.578947,158.55,15.1,3,276.91,27 / 27,2309310,2019-09-08 12:45:28:549,-0.9297,0.1089,9.3961,-0.0772,-0.0522,9.8061,-0.3228,0.0119,-0.1059,12.25,-37.5,13.81,82.42,-78.75,-161.63
24958,52.3932,-1.578947,158.55,15.1,3,276.91,27 / 27,2309410,2019-09-08 12:45:28:649,-0.2889,0.4542,9.1267,0.0939,0.0223,9.8061,-0.324,-0.0285,-0.1121,11.75,-37.0,13.25,85.66,-78.65,-161.89
24959,52.3932,-1.578947,158.55,15.1,3,276.91,27 / 27,2309510,2019-09-08 12:45:28:749,0.565,-0.2818,10.0807,0.053,0.0334,9.8064,0.1697,-0.0263,0.0206,11.56,-37.62,14.19,82.04,-79.14,-161.74
24960,52.3932,-1.578947,158.55,15.1,3,276.91,27 / 27,2309610,2019-09-08 12:45:28:849,0.6205,0.7101,10.8755,-0.0259,-0.0228,9.8066,0.0553,-0.0648,0.0285,11.44,-36.75,13.81,79.77,-79.08,-161.8
24961,52.3932,-1.578947,158.55,15.1,3,276.91,28 / 29,2309710,2019-09-08 12:45:28:949,-0.0917,0.3907,9.7928,-0.037,-0.0281,9.8065,-0.1171,0.026,-0.0189,11.44,-36.81,13.44,82.38,-78.9,-162.98
24962,52.3932,-1.578947,158.55,15.1,3,276.91,28 / 29,2309810,2019-09-08 12:45:29:049,1.1344,0.0426,9.0904,0.0598,0.0237,9.8064,-0.1719,0.0057,0.0511,11.5,-38.0,13.81,81.21,-79.21,-162.38
24963,52.3932,-1.578947,158.55,15.1,3,276.91,28 / 29,2309910,2019-09-08 12:45:29:149,-1.1838,0.5225,12.0651,0.1008,0.0567,9.8059,0.1025,-0.0402,0.1051,11.38,-37.25,14.06,78.78,-79.36,-162.08
24964,52.3932,-1.578947,158.55,15.1,3,276.91,28 / 29,2310010,2019-09-08 12:45:29:249,0.8133,0.5895,11.3122,-0.1012,-0.0569,9.8059,0.0959,-0.0215,-0.0354,11.88,-37.25,14.06,80.66,-79.22,-162.25
24965,52.3932,-1.578947,158.55,15.1,3,276.91,28 / 29,2310110,2019-09-08 12:45:29:349,0.4625,0.3581,9.8364,-0.1146,-0.0482,9.8058,-0.2623,-0.038,-0.0384,11.31,-37.44,13.31,82.84,-78.42,-163.74
24966,52.3932,-1.578947,158.55,15.1,3,276.91,28 / 29,2310210,2019-09-08 12:45:29:449,-1.2836,-0.4124,8.483,0.0236,0.0238,9.8066,-0.2854,0.0103,-0.0731,11.13,-38.0,13.56,80.51,-78.63,-162.86
24967,52.3932,-1.578947,158.55,15.1,3,276.91,28 / 29,2310310,2019-09-08 12:45:29:549,1.8102,0.8258,8.2872,0.0804,0.0254,9.8062,0.051,-0.0184,0.0163,11.06,-37.87,13.13,83.72,-78.6,-163.19
24968,52.3932,-1.578947,158.55,15.1,3,276.91,28 / 29,2310410,2019-09-08 12:45:29:649,3.7781,0.558,8.0629,0.0572,0.0224,9.8064,-0.0949,0.073,-0.0641,10.94,-38.5,14.44,79.23,-79.08,-162.97
24969,52.3932,-1.578947,158.55,15.1,3,276.91,28 / 29,2310510,2019-09-08 12:45:29:749,-2.3035,-1.7366,10.8911,-0.032,-0.014,9.8065,0.275,0.0498,0.0585,10.88,-37.62,14.69,75.34,-78.95,-163.85
24970,52.3932,-1.578947,158.55,15.1,3,276.91,28 / 29,2310610,2019-09-08 12:45:29:849,0.515,0.0323,10.909,-0.0147,-0.0149,9.8066,0.1988,0.0014,0.051,10.44,-37.75,14.38,77.0,-78.78,-164.02
24971,52.3932,-1.578947,158.55,15.1,3,276.91,25 / 26,2310711,2019-09-08 12:45:29:950,1.8049,-0.1358,10.3987,-0.0023,-0.0039,9.8066,-0.0974,-0.0407,0.092,10.81,-37.12,13.94,77.29,-78.89,-164.53
24972,52.3932,-1.578947,158.55,15.1,3,276.91,25 / 26,2310810,2019-09-08 12:45:30:049,3.0456,1.3095,9.8514,-0.0393,-0.0303,9.8064,-0.0776,-0.0746,0.0519,11.13,-37.56,14.5,74.84,-78.78,-164.69
24973,52.3932,-1.578947,158.55,15.1,3,276.91,25 / 26,2310909,2019-09-08 12:45:30:148,1.2232,0.3216,9.0038,0.0401,0.0158,9.8065,0.1462,-0.0321,0.0645,11.38,-37.81,13.69,78.03,-78.78,-164.79
24974,52.3932,-1.578947,158.55,15.1,3,276.91,25 / 26,2311010,2019-09-08 12:45:30:249,0.253,-0.315,9.78,0.0209,0.0233,9.8065,0.0208,0.0068,0.0003,10.88,-38.12,13.88,78.27,-78.86,-164.38
24975,52.3932,-1.578947,158.55,15.1,3,276.91,25 / 26,2311110,2019-09-08 12:45:30:349,0.6292,0.1889,10.0868,-0.016,-0.0073,9.8065,-0.023,-0.0125,0.0128,11.38,-38.81,14.06,79.52,-78.7,-164.31
24976,52.3932,-1.578947,158.55,15.1,3,276.91,25 / 26,2311210,2019-09-08 12:45:30:449,1.1908,-0.1704,10.2709,-0.0409,-0.0116,9.8065,-0.0413,0.0527,-0.0132,11.38,-38.69,14.44,80.04,-78.56,-164.18
24977,52.3932,-1.578947,158.55,15.1,3,276.91,25 / 26,2311310,2019-09-08 12:45:30:549,0.4553,0.806,9.3503,0.0202,0.0116,9.8066,0.0249,0.0275,-0.0543,11.81,-37.81,14.13,81.17,-78.5,-164.08
24978,52.3932,-1.578947,158.55,15.1,3,276.91,25 / 26,2311410,2019-09-08 12:45:30:649,-0.8334,0.2512,10.4039,0.0506,0.0129,9.8064,0.0391,-0.0848,0.0472,11.19,-39.06,14.75,76.06,-78.73,-164.35
24979,52.3932,-1.578947,158.55,15.1,3,276.91,25 / 26,2311510,2019-09-08 12:45:30:749,1.5394,-0.3693,10.2052,-0.0161,-0.0197,9.8066,-0.0227,-0.0284,-0.0158,11.25,-38.06,14.38,78.34,-78.79,-164.49
24980,52.3932,-1.578947,158.55,15.1,3,276.91,25 / 26,2311610,2019-09-08 12:45:30:849,0.7811,-0.2006,9.902,0.0121,-0.0054,9.8066,0.065,0.0193,-0.0272,11.06,-38.19,13.81,77.8,-78.7,-165.21
24981,52.3932,-1.578947,158.55,15.1,3,276.91,25 / 26,2311710,2019-09-08 12:45:30:949,-0.0208,0.1383,10.0846,-0.0101,0.0133,9.8065,-0.0051,0.0618,-0.1234,11.63,-38.44,14.0,79.05,-78.59,-165.85
24982,52.3932,-1.578947,158.55,15.1,3,276.91,25 / 26,2311810,2019-09-08 12:45:31:049,-0.5983,0.5858,10.5605,0.0148,-0.009,9.8066,0.0939,-0.0712,0.0501,11.5,-39.37,14.38,79.61,-78.63,-165.89
24983,52.3932,-1.578947,158.55,15.1,3,276.91,25 / 26,2311910,2019-09-08 12:45:31:149,-0.0578,-0.676,10.2901,-0.0253,-0.0232,9.8066,-0.0702,-0.1039,0.021,11.63,-38.31,14.56,74.85,-78.48,-166.97
24984,52.3932,-1.578947,158.55,15.1,3,276.91,25 / 26,2312010,2019-09-08 12:45:31:249,0.7036,-0.566,9.5965,-0.0143,-0.0182,9.8066,-0.104,0.0599,-0.1281,12.75,-38.25,14.88,76.08,-78.44,-167.43
24985,52.3932,-1.578947,158.55,15.1,3,276.91,25 / 26,2312110,2019-09-08 12:45:31:349,0.1297,-0.5936,10.2763,-0.0006,-0.0007,9.8066,0.0521,0.0101,-0.0168,12.81,-38.25,13.81,77.89,-78.48,-168.56
24986,52.3932,-1.578947,158.55,15.1,3,276.91,25 / 26,2312210,2019-09-08 12:45:31:449,0.4724,-0.7389,10.3414,-0.0113,-0.0106,9.8066,0.0272,0.0414,-0.0848,11.88,-39.75,14.75,74.37,-78.45,-168.76
24987,52.3932,-1.578947,158.55,15.1,3,276.91,25 / 26,2312310,2019-09-08 12:45:31:549,0.8553,-0.5991,10.2008,0.0063,-0.0033,9.8066,-0.0305,0.0042,-0.0111,11.13,-38.44,14.88,70.32,-78.52,-169.23
24988,52.3932,-1.578947,158.55,15.1,3,276.91,25 / 26,2312410,2019-09-08 12:45:31:649,0.4118,0.7164,10.0718,0.0076,-0.0003,9.8066,-0.0125,-0.0359,0.0432,11.81,-37.87,14.88,72.04,-78.49,-169.44
24989,52.3932,-1.578947,158.55,15.1,3,276.91,25 / 26,2312510,2019-09-08 12:45:31:749,0.088,0.4721,9.4529,-0.0027,0.0098,9.8066,-0.0313,-0.0151,-0.0582,11.75,-38.87,14.19,76.74,-78.38,-169.14
24990,52.3932,-1.578947,158.55,15.1,3,276.91,25 / 26,2312610,2019-09-08 12:45:31:849,-0.2944,-0.3528,9.591,0.0211,0.009,9.8065,-0.0622,0.0241,-0.0899,11.63,-38.5,14.5,72.58,-78.43,-169.09
24991,52.393246,-1.580919,159.62,14.87,3,267.99,27 / 27,2312710,2019-09-08 12:45:31:949,0.5483,0.7052,9.5014,0.039,0.0121,9.8065,-0.0125,-0.0349,0.014,11.88,-38.81,15.0,72.64,-78.58,-169.36
24992,52.393246,-1.580919,159.62,14.87,3,267.99,27 / 27,2312810,2019-09-08 12:45:32:049,0.3614,0.5652,10.4626,-0.022,-0.0208,9.8065,-0.0873,0.0305,-0.0377,11.69,-38.31,14.69,71.03,-78.74,-169.8
24993,52.393246,-1.580919,159.62,14.87,3,267.99,27 / 27,2312910,2019-09-08 12:45:32:149,0.8615,-0.4218,9.6674,-0.0251,-0.022,9.8065,-0.0586,-0.0297,0.0199,11.44,-38.25,15.13,68.31,-78.59,-170.81
24994,52.393246,-1.580919,159.62,14.87,3,267.99,27 / 27,2313010,2019-09-08 12:45:32:249,0.1181,0.2276,10.4457,0.0018,-0.0014,9.8065,0.0872,0.0408,-0.0309,11.63,-38.5,15.19,70.14,-78.59,-170.89
24995,52.393246,-1.580919,159.62,14.87,3,267.99,27 / 27,2313109,2019-09-08 12:45:32:348,-0.5247,-0.4896,11.2394,0.0082,0.0006,9.8065,0.1886,0.0601,-0.0166,12.0,-38.81,15.56,67.13,-78.57,-171.38
24996,52.393246,-1.580919,159.62,14.87,3,267.99,27 / 27,2313210,2019-09-08 12:45:32:449,1.9741,2.3126,9.5426,0.0252,0.0008,9.8066,-0.1613,-0.1053,0.1249,12.0,-37.69,15.06,69.73,-78.36,-171.73
24997,52.393246,-1.580919,159.62,14.87,3,267.99,27 / 27,2313310,2019-09-08 12:45:32:549,1.8732,1.2266,10.063,0.0118,0.0121,9.8066,-0.1777,0.0281,-0.0535,12.06,-37.87,14.75,70.58,-78.19,-171.36
24998,52.393246,-1.580919,159.62,14.87,3,267.99,27 / 27,2313410,2019-09-08 12:45:32:649,-0.799,0.1364,10.042,-0.0308,-0.0081,9.8065,0.1223,0.073,-0.121,12.38,-38.37,15.19,70.26,-78.27,-171.48
24999,52.393246,-1.580919,159.62,14.87,3,267.99,27 / 27,2313510,2019-09-08 12:45:32:749,-0.148,-0.495,11.0853,0.0166,-0.0123,9.8066,0.3985,-0.049,0.0079,12.69,-38.06,14.38,74.72,-78.28,-171.89
25000,52.393246,-1.580919,159.62,14.87,3,267.99,27 / 27,2313611,2019-09-08 12:45:32:850,0.3786,1.8263,8.7392,-0.0336,-0.0312,9.8065,-0.5149,-0.0045,0.02,13.06,-38.19,14.25,74.48,-78.31,-172.02
25001,52.393246,-1.580919,159.62,14.87,3,267.99,26 / 27,2313710,2019-09-08 12:45:32:949,0.2255,-0.5917,7.9891,-0.0594,-0.041,9.8064,-0.4037,0.015,-0.0492,13.19,-38.37,15.31,70.45,-77.89,-173.58
25002,52.393246,-1.580919,159.62,14.87,3,267.99,26 / 27,2313810,2019-09-08 12:45:33:049,-1.6636,-0.7361,10.4325,0.1126,0.0311,9.8059,0.5248,-0.0608,0.022,13.13,-37.87,15.5,65.2,-78.3,-174.56
25003,52.393246,-1.580919,159.62,14.87,3,267.99,26 / 27,2313910,2019-09-08 12:45:33:149,-0.7334,0.3074,11.2537,0.0431,0.0096,9.8065,0.4455,-0.0831,-0.0742,12.94,-37.62,15.31,68.42,-77.91,-175.27
25004,52.393246,-1.580919,159.62,14.87,3,267.99,26 / 27,2314010,2019-09-08 12:45:33:249,-2.2289,-3.2229,10.1591,-0.1095,-0.0947,9.8055,-0.8786,-0.147,0.1219,13.31,-37.12,15.0,67.04,-78.04,-175.58
25005,52.393246,-1.580919,159.62,14.87,3,267.99,26 / 27,2314110,2019-09-08 12:45:33:349,1.8434,3.6298,6.0042,-0.1584,-0.0893,9.8049,-1.2481,-0.0182,-0.1541,13.69,-37.75,14.56,70.27,-77.02,-176.85
25006,52.393246,-1.580919,159.62,14.87,3,267.99,26 / 27,2314210,2019-09-08 12:45:33:449,3.4807,1.0461,6.665,0.3263,0.1539,9.7999,0.8961,0.028,-0.1749,14.0,-38.0,14.25,73.62,-76.83,-177.27
25007,52.393246,-1.580919,159.62,14.87,3,267.99,26 / 27,2314310,2019-09-08 12:45:33:549,2.0607,0.8687,8.6799,0.2691,0.0966,9.8024,0.407,-0.0783,-0.0327,13.5,-37.56,14.63,67.08,-78.7,-176.21
25008,52.393246,-1.580919,159.62,14.87,3,267.99,26 / 27,2314410,2019-09-08 12:45:33:649,-1.8171,-1.0271,11.7553,-0.1569,-0.0893,9.805,-0.1173,0.0066,-0.0623,13.56,-37.81,14.81,69.16,-77.51,-176.8
25009,52.393246,-1.580919,159.62,14.87,3,267.99,26 / 27,2314510,2019-09-08 12:45:33:749,-0.955,-1.0729,10.2311,-0.1126,-0.0662,9.8058,0.1074,-0.002,-0.0432,13.44,-37.69,15.06,66.98,-77.61,-177.1
25010,52.393246,-1.580919,159.62,14.87,3,267.99,26 / 27,2314610,2019-09-08 12:45:33:849,0.4742,0.9302,9.4894,0.0614,0.0414,9.8063,-0.1767,-0.0147,-0.0445,13.75,-38.06,14.81,68.43,-77.56,-177.32
25011,52.393246,-1.580919,159.62,14.87,3,267.99,28 / 28,2314710,2019-09-08 12:45:33:949,-0.2179,0.0005,8.8428,0.0335,0.0138,9.8065,-0.1101,0.002,0.0083,13.94,-37.62,15.25,67.86,-77.93,-177.05
25012,52.393246,-1.580919,159.62,14.87,3,267.99,28 / 28,2314810,2019-09-08 12:45:34:049,1.579,0.6189,9.3259,0.0466,0.0308,9.8065,0.078,-0.0096,-0.0332,13.81,-37.44,15.75,64.16,-78.13,-176.66
25013,52.393246,-1.580919,159.62,14.87,3,267.99,28 / 28,2314909,2019-09-08 12:45:34:148,0.262,-0.1746,9.283,0.0886,0.0207,9.8062,-0.1742,-0.0378,0.0138,14.0,-37.56,14.69,67.14,-78.21,-177.13
25014,52.393246,-1.580919,159.62,14.87,3,267.99,28 / 28,2315010,2019-09-08 12:45:34:249,0.5128,1.3586,10.2603,-0.0285,-0.0085,9.8066,0.3465,0.1012,-0.0489,13.94,-37.44,15.0,66.79,-77.95,-177.35
25015,52.393246,-1.580919,159.62,14.87,3,267.99,28 / 28,2315110,2019-09-08 12:45:34:349,-1.3336,0.4001,10.0058,-0.0123,0.0055,9.8066,0.2932,-0.0165,-0.0004,13.75,-37.19,14.88,67.55,-77.69,-177.19
25016,52.393246,-1.580919,159.62,14.87,3,267.99,28 / 28,2315210,2019-09-08 12:45:34:449,0.8485,1.0071,9.4271,-0.0155,-0.0079,9.8066,-0.24,0.007,-0.0391,13.94,-37.87,14.75,68.32,-77.77,-176.99
25017,52.393246,-1.580919,159.62,14.87,3,267.99,28 / 28,2315310,2019-09-08 12:45:34:549,1.1315,1.1068,9.6148,-0.0295,-0.0151,9.8065,-0.2429,-0.0269,0.0065,13.56,-37.37,14.88,67.4,-77.78,-177.15
25018,52.393246,-1.580919,159.62,14.87,3,267.99,28 / 28,2315410,2019-09-08 12:45:34:649,0.1272,0.3897,10.1687,0.0503,0.0134,9.8064,0.1348,-0.0234,0.0329,13.69,-37.31,14.06,69.69,-78.09,-177.36
25019,52.393246,-1.580919,159.62,14.87,3,267.99,28 / 28,2315510,2019-09-08 12:45:34:749,-1.2324,0.1244,11.4094,0.0331,0.0219,9.8065,0.1998,-0.0473,0.0044,13.69,-37.5,15.5,64.05,-77.9,-177.16
25020,52.393246,-1.580919,159.62,14.87,3,267.99,28 / 28,2315614,2019-09-08 12:45:34:853,-3.9559,-3.7768,10.1533,-0.1344,-0.0937,9.8052,-1.0356,-0.0215,0.1616,13.38,-37.62,15.63,62.9,-77.9,-177.21
25021,52.393246,-1.580919,159.62,14.87,3,267.99,27 / 27,2315710,2019-09-08 12:45:34:949,-2.163,-3.9379,8.3435,-0.1985,-0.09,9.8042,-1.3704,0.2031,-0.2347,13.56,-37.5,14.44,73.17,-76.72,-177.18
25022,52.393246,-1.580919,159.62,14.87,3,267.99,27 / 27,2315810,2019-09-08 12:45:35:049,0.8252,2.2569,7.4779,0.3531,0.1902,9.7984,1.3288,-0.034,-0.1189,13.06,-37.5,15.25,68.3,-76.46,-177.71
25023,52.393246,-1.580919,159.62,14.87,3,267.99,27 / 27,2315909,2019-09-08 12:45:35:148,0.6288,1.2641,9.8142,0.3642,0.1483,9.7987,0.8302,-0.0246,-0.096,13.69,-37.75,14.5,66.91,-78.75,-176.26
25024,52.393246,-1.580919,159.62,14.87,3,267.99,27 / 27,2316010,2019-09-08 12:45:35:249,-0.0643,0.6522,11.3675,-0.1982,-0.1087,9.804,-0.2613,-0.0643,0.0732,13.69,-38.37,14.56,69.1,-77.32,-177.22
25025,52.393246,-1.580919,159.62,14.87,3,267.99,27 / 27,2316110,2019-09-08 12:45:35:349,0.3776,-4.2684,10.1697,-0.0818,-0.0478,9.8062,0.091,0.2522,-0.1061,13.81,-37.75,15.0,68.49,-77.64,-177.1
25026,52.393246,-1.580919,159.62,14.87,3,267.99,27 / 27,2316210,2019-09-08 12:45:35:449,-1.7041,1.2857,9.6589,-0.0006,0.0412,9.8065,-0.3897,0.0249,-0.0279,13.56,-36.81,14.88,67.37,-77.8,-177.15
25027,52.393246,-1.580919,159.62,14.87,3,267.99,27 / 27,2316310,2019-09-08 12:45:35:549,0.3397,-0.1915,9.5836,0.0135,-0.0111,9.8066,-0.3029,-0.1562,0.2185,14.25,-37.19,14.81,67.7,-77.93,-176.61
25028,52.393246,-1.580919,159.62,14.87,3,267.99,27 / 27,2316410,2019-09-08 12:45:35:649,0.7992,-1.2094,9.6835,0.025,0.0022,9.8066,0.1303,-0.0266,0.0028,14.13,-37.0,14.88,68.67,-77.84,-175.96
25029,52.393246,-1.580919,159.62,14.87,3,267.99,27 / 27,2316510,2019-09-08 12:45:35:749,-0.6076,0.0551,10.7569,0.0101,0.0,9.8066,0.1085,0.0051,-0.062,14.13,-37.19,14.44,71.54,-77.97,-175.99
25030,52.393246,-1.580919,159.62,14.87,3,267.99,27 / 27,2316610,2019-09-08 12:45:35:849,-0.2408,-0.778,13.049,-0.0816,-0.057,9.806,-0.4397,-0.093,0.0148,13.38,-38.12,14.06,70.66,-77.52,-177.12
25031,52.393246,-1.580919,159.62,14.87,3,267.99,26 / 27,2316710,2019-09-08 12:45:35:949,3.6601,1.643,7.7661,-0.1887,-0.1105,9.8042,-0.3909,0.0179,0.1155,14.0,-37.69,14.94,68.61,-77.19,-177.92
25032,52.393246,-1.580919,159.62,14.87,3,267.99,26 / 27,2316810,2019-09-08 12:45:36:049,4.8965,0.6554,5.7356,0.2085,0.089,9.804,0.1685,0.0168,0.0173,14.19,-37.81,14.44,70.67,-77.3,-178.81
25033,52.393246,-1.580919,159.62,14.87,3,267.99,26 / 27,2316909,2019-09-08 12:45:36:148,1.0737,-0.0202,9.7182,0.1503,0.0404,9.8053,-0.2499,-0.0671,0.0578,14.06,-37.25,15.19,64.63,-78.34,-178.44
25034,52.393246,-1.580919,159.62,14.87,3,267.99,26 / 27,2317010,2019-09-08 12:45:36:249,-0.117,-1.1034,10.7794,0.0021,0.0039,9.8066,0.37,0.0034,-0.0787,14.31,-37.75,15.0,65.85,-78.03,-178.55
25035,52.393246,-1.580919,159.62,14.87,3,267.99,26 / 27,2317110,2019-09-08 12:45:36:349,0.0134,0.9091,10.8316,0.036,0.0081,9.8066,0.371,0.0075,0.015,13.81,-37.62,15.75,62.36,-78.13,-178.68
25036,52.393246,-1.580919,159.62,14.87,3,267.99,26 / 27,2317210,2019-09-08 12:45:36:449,0.9717,0.7182,8.7191,-0.0782,-0.0372,9.8062,-0.3855,0.0116,0.0294,14.13,-38.12,14.69,66.24,-77.68,-178.93
25037,52.393246,-1.580919,159.62,14.87,3,267.99,26 / 27,2317310,2019-09-08 12:45:36:549,1.4865,1.5845,9.0474,-0.0677,-0.0408,9.8063,-0.2922,-0.0874,0.1794,14.06,-37.5,14.25,68.29,-77.83,-179.08
25038,52.393246,-1.580919,159.62,14.87,3,267.99,26 / 27,2317410,2019-09-08 12:45:36:649,1.6109,0.6215,8.8845,0.0633,0.0185,9.8064,0.3155,0.0801,-0.0133,14.06,-37.69,14.63,66.47,-77.91,-178.28
25039,52.393246,-1.580919,159.62,14.87,3,267.99,26 / 27,2317510,2019-09-08 12:45:36:749,1.5313,-2.0824,9.1275,0.0684,0.0447,9.8063,0.3386,-0.082,0.0874,13.75,-37.44,14.94,64.58,-78.34,-178.48
25040,52.393246,-1.580919,159.62,14.87,3,267.99,26 / 27,2317610,2019-09-08 12:45:36:849,0.3056,0.1867,10.2209,-0.0575,-0.0387,9.8064,-0.1962,0.0172,-0.0326,13.88,-37.75,14.69,66.33,-78.25,-177.74
25041,52.393246,-1.580919,159.62,14.87,3,267.99,27 / 27,2317710,2019-09-08 12:45:36:949,-0.2961,-0.6638,10.2939,-0.0599,-0.0221,9.8064,-0.0853,0.0133,-0.0402,13.75,-37.25,14.69,66.34,-77.78,-178.05
25042,52.393246,-1.580919,159.62,14.87,3,267.99,27 / 27,2317810,2019-09-08 12:45:37:049,0.5676,-0.0025,9.958,0.0171,0.0012,9.8066,-0.0167,-0.0069,0.0192,13.31,-37.25,14.31,68.1,-77.78,-178.06
25043,52.393246,-1.580919,159.62,14.87,3,267.99,27 / 27,2317910,2019-09-08 12:45:37:149,0.8927,0.764,9.1484,0.0117,0.006,9.8066,-0.0168,-0.035,0.0226,13.06,-37.94,14.69,64.81,-77.95,-178.21
25044,52.393246,-1.580919,159.62,14.87,3,267.99,27 / 27,2318010,2019-09-08 12:45:37:249,1.2853,-1.2214,10.4327,0.0068,-0.0094,9.8066,-0.0764,-0.0596,0.0805,13.06,-37.44,14.75,64.23,-78.01,-177.97
25045,52.393246,-1.580919,159.62,14.87,3,267.99,27 / 27,2318110,2019-09-08 12:45:37:349,2.3877,-0.1196,9.9142,-0.0602,-0.0412,9.8064,-0.2002,0.1283,-0.0394,13.5,-37.75,14.63,66.5,-77.84,-178.39
25046,52.393246,-1.580919,159.62,14.87,3,267.99,27 / 27,2318210,2019-09-08 12:45:37:449,0.7267,1.2722,8.82,0.0799,0.0441,9.8062,0.4157,0.0679,0.0487,13.63,-37.94,15.13,65.89,-78.19,-178.22
25047,52.393246,-1.580919,159.62,14.87,3,267.99,27 / 27,2318310,2019-09-08 12:45:37:549,0.6593,-0.2416,9.4869,0.1039,0.0468,9.8059,0.3369,0.0284,0.0235,13.94,-37.56,14.81,65.87,-78.18,-178.26
25048,52.393246,-1.580919,159.62,14.87,3,267.99,27 / 27,2318410,2019-09-08 12:45:37:649,0.5821,0.1323,9.997,-0.082,-0.0375,9.8062,-0.2324,-0.0053,0.0119,13.0,-37.94,15.19,64.4,-78.17,-178.12
25049,52.393246,-1.580919,159.62,14.87,3,267.99,27 / 27,2318510,2019-09-08 12:45:37:749,-0.5312,0.8717,10.2011,-0.0615,-0.018,9.8063,0.048,-0.1068,0.0239,13.25,-37.44,15.31,64.75,-77.87,-177.82
25050,52.393246,-1.580919,159.62,14.87,3,267.99,27 / 27,2318611,2019-09-08 12:45:37:850,5.7442,-0.8493,10.133,0.0463,-0.0181,9.8065,0.1836,-0.0982,0.1005,12.44,-37.06,14.88,61.02,-78.27,-178.53
25051,52.393246,-1.580919,159.62,14.87,3,267.99,26 / 27,2318710,2019-09-08 12:45:37:949,-0.2762,1.2663,9.3808,-0.0093,-0.0131,9.8065,0.0807,-0.0278,0.0113,12.38,-37.5,14.13,65.36,-78.09,-178.24
25052,52.393246,-1.580919,159.62,14.87,3,267.99,26 / 27,2318810,2019-09-08 12:45:38:049,-0.2868,0.6904,9.1201,-0.0307,0.0089,9.8065,-0.3345,0.1206,-0.061,11.75,-38.06,14.13,65.88,-78.03,-178.59
25053,52.393246,-1.580919,159.62,14.87,3,267.99,26 / 27,2318910,2019-09-08 12:45:38:149,1.8062,-0.4301,8.8616,-0.048,-0.0209,9.8065,-0.4245,0.0807,-0.0384,12.06,-37.81,14.63,63.62,-77.79,-178.01
25054,52.393246,-1.580919,159.62,14.87,3,267.99,26 / 27,2319010,2019-09-08 12:45:38:249,-0.4899,1.6768,10.4859,0.0741,0.0246,9.8063,0.3635,-0.1024,0.0875,11.69,-37.19,14.81,63.2,-77.74,-177.83
25055,52.393246,-1.580919,159.62,14.87,3,267.99,26 / 27,2319110,2019-09-08 12:45:38:349,-0.0476,-0.6275,11.1321,0.0653,0.0453,9.8063,0.3336,0.0412,-0.0838,11.69,-36.69,15.06,61.48,-78.24,-178.22
25056,52.393246,-1.580919,159.62,14.87,3,267.99,26 / 27,2319210,2019-09-08 12:45:38:449,-0.1666,-0.7453,10.8212,-0.0955,-0.0616,9.8059,-0.3473,-0.0655,0.0059,11.75,-35.81,14.0,64.17,-77.79,-179.19
25057,52.393246,-1.580919,159.62,14.87,3,267.99,26 / 27,2319310,2019-09-08 12:45:38:549,2.6063,-0.2408,8.2208,-0.0754,-0.063,9.8061,-0.3978,-0.0225,-0.0117,12.06,-37.25,13.31,67.9,-77.85,-179.84
25058,52.393246,-1.580919,159.62,14.87,3,267.99,26 / 27,2319410,2019-09-08 12:45:38:649,2.8467,1.487,8.898,0.1007,0.0513,9.8059,0.3109,0.0093,-0.0323,12.81,-38.37,13.63,66.69,-77.83,-179.78
25059,52.393246,-1.580919,159.62,14.87,3,267.99,26 / 27,2319510,2019-09-08 12:45:38:749,3.9594,1.646,8.438,0.1573,0.0668,9.8051,0.1937,0.0786,0.0713,12.81,-38.0,15.06,60.98,-78.67,-179.92
25060,52.393246,-1.580919,159.62,14.87,3,267.99,26 / 27,2319610,2019-09-08 12:45:38:849,-4.1841,-1.7637,12.4915,-0.1688,-0.0814,9.8048,0.2264,0.0463,-0.017,13.13,-37.69,14.63,61.81,-78.72,-179.15
25061,52.393246,-1.580919,159.62,14.87,3,267.99,27 / 28,2319710,2019-09-08 12:45:38:949,0.3067,0.3814,10.5323,-0.1189,-0.0376,9.8058,0.7112,0.003,0.0225,13.75,-37.56,15.13,65.89,-77.93,-178.73
25062,52.393246,-1.580919,159.62,14.87,3,267.99,27 / 28,2319810,2019-09-08 12:45:39:049,1.4995,1.0495,9.4752,-0.0969,-0.0586,9.8059,-0.8049,-0.0066,0.0716,13.69,-37.69,14.88,66.89,-77.67,-178.39
25063,52.393246,-1.580919,159.62,14.87,3,267.99,27 / 28,2319910,2019-09-08 12:45:39:149,2.5923,1.2323,8.1616,-0.1099,-0.0624,9.8058,-0.6924,-0.0105,0.0437,13.5,-37.25,15.06,66.31,-77.65,-178.31
25064,52.393246,-1.580919,159.62,14.87,3,267.99,27 / 28,2320010,2019-09-08 12:45:39:249,0.97,-0.1827,9.4811,0.1455,0.0514,9.8053,0.3899,-0.0147,-0.0212,13.75,-36.56,14.38,69.87,-77.68,-178.02
25065,52.393246,-1.580919,159.62,14.87,3,267.99,27 / 28,2320110,2019-09-08 12:45:39:349,-0.0404,0.5511,10.2236,0.1083,0.053,9.8059,0.2431,-0.0576,-0.0107,13.31,-36.06,14.25,65.53,-78.59,-177.96
25066,52.393246,-1.580919,159.62,14.87,3,267.99,27 / 28,2320211,2019-09-08 12:45:39:450,-0.2533,-0.3253,10.3875,-0.068,-0.039,9.8062,-0.027,-0.0261,-0.0043,13.81,-37.0,14.63,64.57,-78.56,-178.08
25067,52.393246,-1.580919,159.62,14.87,3,267.99,27 / 28,2320310,2019-09-08 12:45:39:549,0.4724,1.2148,9.7659,-0.0323,-0.0201,9.8065,0.2589,-0.0002,-0.0542,13.31,-36.5,15.81,59.63,-78.2,-178.24
25068,52.393246,-1.580919,159.62,14.87,3,267.99,27 / 28,2320410,2019-09-08 12:45:39:649,2.5056,1.2299,8.4993,0.0151,0.0313,9.8066,-0.226,0.0687,-0.02,13.94,-36.31,14.56,64.93,-78.38,-177.55
25069,52.393246,-1.580919,159.62,14.87,3,267.99,27 / 28,2320510,2019-09-08 12:45:39:749,2.571,1.377,8.3421,-0.018,-0.0139,9.8065,-0.5017,-0.0063,0.0647,14.13,-36.0,13.94,68.73,-78.05,-177.64
25070,52.393246,-1.580919,159.62,14.87,3,267.99,27 / 28,2320610,2019-09-08 12:45:39:849,2.9249,0.5669,8.6351,0.0613,0.0268,9.8064,0.3648,-0.0614,0.0223,13.38,-36.62,13.56,68.55,-77.93,-177.36
25071,52.393246,-1.580919,159.62,14.87,3,267.99,25 / 25,2320710,2019-09-08 12:45:39:949,0.413,-0.7436,11.1894,0.0755,0.0328,9.8063,0.2937,0.0131,-0.0538,13.75,-35.69,14.06,69.52,-77.91,-177.23
25072,52.393246,-1.580919,159.62,14.87,3,267.99,25 / 25,2320810,2019-09-08 12:45:40:049,-0.5258,-0.3726,10.5775,-0.0685,-0.0442,9.8063,-0.2642,-0.0331,0.0201,14.19,-36.56,14.0,69.35,-77.95,-177.93
25073,52.393246,-1.580919,159.62,14.87,3,267.99,25 / 25,2320910,2019-09-08 12:45:40:149,1.1709,0.5796,8.9037,-0.0519,-0.0404,9.8063,-0.1589,0.0323,-0.0004,14.56,-36.44,14.44,69.18,-77.99,-178.59
25074,52.393246,-1.580919,159.62,14.87,3,267.99,25 / 25,2321010,2019-09-08 12:45:40:249,0.4714,0.981,9.3689,0.036,0.0278,9.8065,0.0687,0.0594,-0.073,14.06,-36.19,13.63,67.31,-78.1,-178.76
25075,52.393246,-1.580919,159.62,14.87,3,267.99,25 / 25,2321110,2019-09-08 12:45:40:349,0.3612,0.2222,10.2788,0.0703,0.0373,9.8063,0.3854,-0.058,0.0041,13.69,-36.75,13.81,67.08,-78.61,-178.55
25076,52.393246,-1.580919,159.62,14.87,3,267.99,25 / 25,2321210,2019-09-08 12:45:40:449,1.1019,-0.1225,9.3853,-0.1096,-0.0455,9.8058,-0.3977,-0.0153,0.0599,13.88,-35.81,13.44,68.91,-78.68,-179.14
25077,52.393246,-1.580919,159.62,14.87,3,267.99,25 / 25,2321310,2019-09-08 12:45:40:549,3.11,-0.5056,7.7493,-0.1197,-0.0523,9.8057,-0.4147,0.0701,-0.0935,13.5,-36.31,13.63,67.65,-77.87,-178.91
25078,52.393246,-1.580919,159.62,14.87,3,267.99,25 / 25,2321410,2019-09-08 12:45:40:649,2.7524,1.3739,8.1896,0.1322,0.0586,9.8055,0.2272,-0.01,-0.0417,14.06,-36.44,13.63,65.24,-78.78,-179.24
25079,52.393246,-1.580919,159.62,14.87,3,267.99,25 / 25,2321510,2019-09-08 12:45:40:749,0.2777,-0.3679,11.0551,0.0913,0.0219,9.8062,0.1702,-0.0356,-0.0085,14.25,-35.87,13.56,65.05,-78.67,-179.6
25080,52.393246,-1.580919,159.62,14.87,3,267.99,25 / 25,2321610,2019-09-08 12:45:40:849,0.1759,-0.0378,11.0902,-0.0581,-0.0332,9.8064,-0.0019,0.0247,-0.044,13.56,-36.25,14.06,65.47,-78.5,-179.56
25081,52.39318,-1.58294,160.83,14.64,3,267.57,26 / 26,2321711,2019-09-08 12:45:40:950,0.9598,0.1065,10.4861,-0.0486,-0.0215,9.8065,0.0137,-0.0509,0.0596,13.88,-35.87,14.38,65.71,-78.23,-179.87
25082,52.39318,-1.58294,160.83,14.64,3,267.57,26 / 26,2321810,2019-09-08 12:45:41:049,1.5433,0.9897,9.2478,0.0439,0.0308,9.8064,0.02,-0.0139,0.0317,14.0,-35.81,13.75,66.91,-78.04,-179.22
25083,52.39318,-1.58294,160.83,14.64,3,267.57,26 / 26,2321909,2019-09-08 12:45:41:148,0.9114,0.0872,10.8869,0.0341,0.0325,9.8065,-0.0752,-0.0119,-0.0214,12.88,-35.69,14.25,65.96,-78.08,-178.6
25084,52.39318,-1.58294,160.83,14.64,3,267.57,26 / 26,2322010,2019-09-08 12:45:41:249,0.1352,-0.4682,10.7498,-0.0805,-0.0308,9.8062,-0.1867,0.0211,0.0107,12.94,-35.06,14.5,61.93,-78.45,-177.93
25085,52.39318,-1.58294,160.83,14.64,3,267.57,26 / 26,2322110,2019-09-08 12:45:41:349,-0.1315,-3.4101,8.6795,-0.0566,-0.0249,9.8064,-0.0915,0.0917,0.0005,14.63,-35.62,13.19,73.79,-78.13,-177.05
25086,52.39318,-1.58294,160.83,14.64,3,267.57,26 / 26,2322210,2019-09-08 12:45:41:449,2.0498,1.5693,9.6074,0.0454,0.0404,9.8064,0.0576,0.0735,-0.0815,14.19,-35.62,12.88,72.83,-78.18,-176.73
25087,52.39318,-1.58294,160.83,14.64,3,267.57,26 / 26,2322310,2019-09-08 12:45:41:549,1.2871,0.7207,9.8638,0.0325,0.0118,9.8065,0.0856,-0.0456,0.0812,13.44,-35.69,13.63,67.83,-78.47,-176.24
25088,52.39318,-1.58294,160.83,14.64,3,267.57,26 / 26,2322410,2019-09-08 12:45:41:649,0.2286,0.3308,10.0127,-0.0372,-0.0185,9.8065,-0.0019,-0.0676,0.0665,13.19,-35.44,13.75,67.81,-78.29,-176.01
25089,52.39318,-1.58294,160.83,14.64,3,267.57,26 / 26,2322510,2019-09-08 12:45:41:749,0.3074,0.6936,9.9809,-0.0321,-0.0278,9.8065,-0.0393,-0.0896,0.0674,13.31,-36.06,12.56,71.99,-78.3,-176.01
25090,52.39318,-1.58294,160.83,14.64,3,267.57,26 / 26,2322610,2019-09-08 12:45:41:849,-0.7473,-0.1393,10.1063,-0.0197,-0.0149,9.8066,-0.1757,-0.0119,0.0001,13.31,-36.87,14.5,66.13,-78.39,-175.66
25091,52.39318,-1.58294,160.83,14.64,3,267.57,27 / 28,2322710,2019-09-08 12:45:41:949,0.8034,0.6399,9.2511,0.0218,0.0031,9.8066,-0.0065,-0.0778,0.0611,13.56,-36.62,13.88,70.6,-78.41,-175.91
25092,52.39318,-1.58294,160.83,14.64,3,267.57,27 / 28,2322809,2019-09-08 12:45:42:048,1.3168,-0.2306,9.4499,0.0154,0.0071,9.8066,-0.072,0.011,-0.0346,13.5,-36.87,13.88,70.23,-78.56,-175.93
25093,52.39318,-1.58294,160.83,14.64,3,267.57,27 / 28,2322910,2019-09-08 12:45:42:149,0.437,0.2398,9.5939,0.0185,0.0174,9.8066,0.059,0.0338,0.0338,13.75,-37.37,14.13,70.13,-78.66,-175.83
25094,52.39318,-1.58294,160.83,14.64,3,267.57,27 / 28,2323010,2019-09-08 12:45:42:249,-0.8217,-0.7331,11.1663,0.0383,0.0212,9.8065,0.2728,0.1103,-0.0049,13.75,-37.06,14.38,69.87,-78.98,-175.41
25095,52.39318,-1.58294,160.83,14.64,3,267.57,27 / 28,2323110,2019-09-08 12:45:42:349,-0.8322,-0.0847,10.8233,-0.0871,-0.0164,9.8062,-0.1325,0.128,-0.0574,13.25,-36.75,13.63,70.27,-78.44,-174.83
25096,52.39318,-1.58294,160.83,14.64,3,267.57,27 / 28,2323210,2019-09-08 12:45:42:449,-2.1321,1.502,11.37,-0.0845,-0.05,9.8061,-0.0091,-0.0781,0.1456,13.25,-36.56,14.31,70.48,-78.16,-175.23
25097,52.39318,-1.58294,160.83,14.64,3,267.57,27 / 28,2323310,2019-09-08 12:45:42:549,0.8305,0.4437,9.1341,0.0334,0.015,9.8065,-0.0338,-0.0009,0.0446,13.5,-36.56,14.19,72.22,-78.14,-175.05
25098,52.39318,-1.58294,160.83,14.64,3,267.57,27 / 28,2323410,2019-09-08 12:45:42:649,1.1584,0.5019,9.0713,0.0289,0.0125,9.8065,-0.1034,0.0019,0.0188,13.19,-37.62,14.31,71.12,-78.33,-174.95
25099,52.39318,-1.58294,160.83,14.64,3,267.57,27 / 28,2323510,2019-09-08 12:45:42:749,0.8687,-0.2154,9.675,-0.0031,-0.0024,9.8066,0.1049,-0.0208,0.0401,13.13,-36.75,14.63,66.99,-78.36,-174.98
25100,52.39318,-1.58294,160.83,14.64,3,267.57,27 / 28,2323610,2019-09-08 12:45:42:849,0.8309,-0.4272,10.0717,-0.0054,-0.0019,9.8066,0.1569,0.0361,-0.0173,13.06,-37.44,14.13,70.26,-78.4,-174.91
25101,52.39318,-1.58294,160.83,14.64,3,267.57,26 / 26,2323710,2019-09-08 12:45:42:949,2.6144,1.0927,7.8289,0.0571,0.0443,9.8063,0.0374,0.0666,0.0007,13.25,-37.44,14.0,69.76,-78.23,-175.71
25102,52.39318,-1.58294,160.83,14.64,3,267.57,26 / 26,2323810,2019-09-08 12:45:43:049,1.0867,0.0595,8.1278,0.0946,0.0616,9.8059,0.133,-0.0179,0.081,13.25,-35.69,13.88,69.24,-78.7,-174.58
25103,52.39318,-1.58294,160.83,14.64,3,267.57,26 / 26,2323910,2019-09-08 12:45:43:149,-0.9821,-0.9866,10.9187,-0.0334,0.0071,9.8065,0.2026,-0.0588,-0.0548,13.31,-36.44,13.25,72.9,-78.93,-173.85
25104,52.39318,-1.58294,160.83,14.64,3,267.57,26 / 26,2324010,2019-09-08 12:45:43:249,-0.22,-0.8093,11.0177,-0.004,0.0058,9.8066,0.2393,-0.0299,-0.0677,13.5,-37.19,13.44,76.37,-78.93,-172.59
25105,52.39318,-1.58294,160.83,14.64,3,267.57,26 / 26,2324110,2019-09-08 12:45:43:349,-0.1081,0.4781,10.3774,-0.0325,-0.0081,9.8065,-0.2153,0.0116,-0.037,13.06,-37.12,13.38,75.86,-78.64,-172.46
25106,52.39318,-1.58294,160.83,14.64,3,267.57,26 / 26,2324210,2019-09-08 12:45:43:449,0.3515,0.0222,9.8334,-0.0278,-0.0166,9.8065,-0.2314,-0.0572,0.0499,12.75,-37.5,13.81,72.53,-78.45,-172.82
25107,52.39318,-1.58294,160.83,14.64,3,267.57,26 / 26,2324310,2019-09-08 12:45:43:549,0.5789,-0.3926,10.2732,0.0149,0.0026,9.8066,0.2035,-0.0235,0.0412,12.13,-37.94,14.44,71.54,-78.44,-172.93
25108,52.39318,-1.58294,160.83,14.64,3,267.57,26 / 26,2324410,2019-09-08 12:45:43:649,-0.8385,-0.9171,10.3493,0.0067,0.0153,9.8065,0.1943,0.0208,-0.0414,12.63,-36.69,13.88,72.73,-78.55,-172.43
25109,52.39318,-1.58294,160.83,14.64,3,267.57,26 / 26,2324510,2019-09-08 12:45:43:749,1.6872,2.5713,8.2967,-0.0369,-0.0006,9.8065,-0.4678,0.0357,0.0518,13.5,-35.75,13.44,75.97,-78.77,-172.67
25110,52.39318,-1.58294,160.83,14.64,3,267.57,26 / 26,2324610,2019-09-08 12:45:43:849,3.043,-0.0132,7.0523,-0.0834,-0.0147,9.8062,-0.6089,0.0742,-0.1274,14.38,-37.12,13.06,77.48,-78.49,-172.5
25111,52.39318,-1.58294,160.83,14.64,3,267.57,26 / 27,2324710,2019-09-08 12:45:43:949,3.5671,-0.0145,8.1891,0.1696,0.0792,9.8048,0.6338,0.0824,-0.0426,14.56,-38.5,14.25,76.36,-78.14,-173.08
25112,52.39318,-1.58294,160.83,14.64,3,267.57,26 / 27,2324809,2019-09-08 12:45:44:048,0.9242,0.8033,10.0801,0.1591,0.0663,9.8051,0.3227,-0.0342,0.0473,13.69,-37.69,14.75,71.08,-79.1,-171.95
25113,52.39318,-1.58294,160.83,14.64,3,267.57,26 / 27,2324910,2019-09-08 12:45:44:149,-1.0116,-0.786,10.5181,-0.1017,-0.053,9.806,-0.1824,0.0365,0.0421,12.81,-38.06,14.06,73.64,-78.45,-172.47
25114,52.39318,-1.58294,160.83,14.64,3,267.57,26 / 27,2325010,2019-09-08 12:45:44:249,0.6447,0.7028,10.0176,-0.0724,-0.0375,9.8063,-0.0895,-0.0098,0.0375,12.94,-37.5,14.25,72.67,-78.7,-172.16
25115,52.39318,-1.58294,160.83,14.64,3,267.57,26 / 27,2325110,2019-09-08 12:45:44:349,1.1856,-0.007,9.7854,0.0429,0.0335,9.8064,-0.0213,-0.0417,0.0315,13.13,-37.06,14.81,69.4,-78.82,-172.0
25116,52.39318,-1.58294,160.83,14.64,3,267.57,26 / 27,2325210,2019-09-08 12:45:44:449,0.7861,-0.5527,10.3528,0.0204,0.0305,9.8066,-0.0082,0.027,-0.0323,12.63,-36.19,15.06,69.81,-78.97,-170.79
25117,52.39318,-1.58294,160.83,14.64,3,267.57,26 / 27,2325310,2019-09-08 12:45:44:549,1.1128,-0.6395,10.6444,0.0036,0.011,9.8065,0.3889,-0.0194,-0.0738,12.19,-36.19,14.38,71.65,-78.77,-170.82
25118,52.39318,-1.58294,160.83,14.64,3,267.57,26 / 27,2325410,2019-09-08 12:45:44:649,0.3492,0.4665,10.9894,0.0422,0.02,9.8065,0.1882,-0.0196,-0.0113,11.31,-36.69,14.63,67.43,-78.91,-170.24
25119,52.39318,-1.58294,160.83,14.64,3,267.57,26 / 27,2325510,2019-09-08 12:45:44:749,-0.8708,0.0476,10.2399,-0.1145,-0.0621,9.8057,-0.4686,0.0162,-0.0249,13.25,-36.12,14.13,73.69,-78.57,-170.91
25120,52.39318,-1.58294,160.83,14.64,3,267.57,26 / 27,2325610,2019-09-08 12:45:44:849,1.9862,-0.3947,8.7082,-0.0883,-0.0498,9.806,-0.3012,0.0384,-0.0552,13.5,-36.31,13.56,74.55,-78.75,-171.12
25121,52.39318,-1.58294,160.83,14.64,3,267.57,28 / 28,2325710,2019-09-08 12:45:44:949,2.032,0.8639,8.8774,0.0953,0.0489,9.806,0.1387,0.0174,-0.049,13.69,-36.87,14.44,74.6,-78.7,-171.77
25122,52.39318,-1.58294,160.83,14.64,3,267.57,28 / 28,2325810,2019-09-08 12:45:45:049,0.1481,-0.5449,10.28,0.0711,0.0483,9.8062,0.1044,0.0456,-0.0506,13.38,-36.94,14.31,73.2,-79.15,-170.74
25123,52.39318,-1.58294,160.83,14.64,3,267.57,28 / 28,2325910,2019-09-08 12:45:45:149,0.4892,-0.3649,10.6641,-0.0499,-0.0236,9.8064,-0.0852,-0.0019,0.054,13.38,-36.75,14.44,73.51,-78.93,-170.94
25124,52.39318,-1.58294,160.83,14.64,3,267.57,28 / 28,2326010,2019-09-08 12:45:45:249,1.3858,-0.6353,9.6534,-0.0357,-0.0162,9.8065,-0.1679,0.0737,-0.0684,13.31,-37.06,14.38,74.44,-78.57,-170.87
25125,52.39318,-1.58294,160.83,14.64,3,267.57,28 / 28,2326110,2019-09-08 12:45:45:349,-1.3339,-0.5508,9.9378,0.0214,0.0128,9.8065,0.1563,-0.0204,0.0147,12.69,-36.81,14.56,70.42,-78.67,-171.42
25126,52.39318,-1.58294,160.83,14.64,3,267.57,28 / 28,2326210,2019-09-08 12:45:45:449,-1.4875,-0.7421,10.5272,0.0227,0.0092,9.8065,0.3392,-0.034,0.0692,12.81,-36.06,14.44,72.64,-78.75,-171.48
25127,52.39318,-1.58294,160.83,14.64,3,267.57,28 / 28,2326310,2019-09-08 12:45:45:549,0.265,-0.518,9.8851,0.0045,0.0072,9.8066,-0.3851,0.0577,0.0223,12.94,-36.69,14.38,73.37,-78.87,-171.19
25128,52.39318,-1.58294,160.83,14.64,3,267.57,28 / 28,2326410,2019-09-08 12:45:45:649,3.7297,0.6772,8.3585,-0.0678,-0.0208,9.8063,-0.4481,0.1202,0.0205,12.63,-37.0,14.19,74.45,-78.65,-170.68
25129,52.39318,-1.58294,160.83,14.64,3,267.57,28 / 28,2326510,2019-09-08 12:45:45:749,2.0807,0.7758,9.4542,0.1001,0.069,9.8058,0.4619,-0.011,0.0091,12.75,-37.06,13.94,75.39,-78.46,-170.25
25130,52.39318,-1.58294,160.83,14.64,3,267.57,28 / 28,2326610,2019-09-08 12:45:45:849,-0.3875,-0.0063,10.4785,0.1092,0.0521,9.8059,0.2325,-0.0264,0.0025,12.81,-36.44,13.81,74.97,-79.08,-168.7
25131,52.39318,-1.58294,160.83,14.64,3,267.57,26 / 29,2326710,2019-09-08 12:45:45:949,-0.355,-1.2465,10.5566,-0.0677,-0.0375,9.8063,-0.1111,-0.012,0.0358,12.5,-36.75,14.31,76.68,-78.48,-169.04
25132,52.39318,-1.58294,160.83,14.64,3,267.57,26 / 29,2326810,2019-09-08 12:45:46:049,1.0389,-0.1336,9.022,-0.0621,-0.0315,9.8064,-0.061,0.0267,0.0409,12.31,-36.94,14.19,75.54,-78.43,-168.76
25133,52.39318,-1.58294,160.83,14.64,3,267.57,26 / 29,2326910,2019-09-08 12:45:46:149,0.594,0.1913,9.1523,0.0333,0.0262,9.8065,-0.0161,0.0056,0.0786,12.56,-36.31,14.25,76.5,-78.45,-168.61
25134,52.39318,-1.58294,160.83,14.64,3,267.57,26 / 29,2327010,2019-09-08 12:45:46:249,1.5774,-0.7736,7.5292,0.0231,0.0158,9.8066,-0.1704,0.048,0.0082,12.88,-37.0,14.25,77.53,-78.66,-167.86
25135,52.39318,-1.58294,160.83,14.64,3,267.57,26 / 29,2327110,2019-09-08 12:45:46:349,-0.1114,2.2583,9.6483,0.1141,0.0141,9.8059,0.3634,-0.167,0.097,12.88,-36.75,13.63,79.51,-78.38,-166.63
25136,52.39318,-1.58294,160.83,14.64,3,267.57,26 / 29,2327210,2019-09-08 12:45:46:449,0.5002,0.6258,10.4876,0.1083,0.0618,9.8058,0.2995,0.0085,-0.0638,13.5,-37.0,14.0,79.16,-79.11,-166.69
25137,52.39318,-1.58294,160.83,14.64,3,267.57,26 / 29,2327310,2019-09-08 12:45:46:549,-1.7875,1.1862,10.5149,-0.0954,-0.0338,9.8061,0.0534,0.1601,-0.1736,12.94,-36.69,13.88,78.18,-78.46,-167.68
25138,52.39318,-1.58294,160.83,14.64,3,267.57,26 / 29,2327410,2019-09-08 12:45:46:649,0.023,0.477,10.122,-0.0562,-0.042,9.8063,0.2074,-0.0796,0.0745,12.75,-36.37,14.5,73.47,-78.53,-168.38
25139,52.39318,-1.58294,160.83,14.64,3,267.57,26 / 29,2327510,2019-09-08 12:45:46:749,1.1712,0.6178,8.8345,0.01,-0.0039,9.8065,-0.1996,-0.0058,0.0422,12.56,-35.56,14.75,73.5,-78.63,-168.15
25140,52.39318,-1.58294,160.83,14.64,3,267.57,26 / 29,2327610,2019-09-08 12:45:46:849,0.7191,0.5975,8.8313,0.002,-0.0013,9.8066,-0.2523,-0.0004,0.0744,13.44,-34.81,15.44,72.49,-78.64,-168.46
25141,52.39318,-1.58294,160.83,14.64,3,267.57,27 / 27,2327711,2019-09-08 12:45:46:950,1.136,1.1227,9.9417,0.0125,0.0146,9.8066,0.2674,-0.0134,-0.0146,12.94,-34.25,15.0,72.36,-78.6,-168.06
25142,52.39318,-1.58294,160.83,14.64,3,267.57,27 / 27,2327809,2019-09-08 12:45:47:048,-0.0052,-0.145,10.5039,-0.0164,-0.0006,9.8066,0.1721,-0.0448,0.0168,13.13,-35.5,13.69,76.56,-78.56,-167.69
25143,52.39318,-1.58294,160.83,14.64,3,267.57,27 / 27,2327910,2019-09-08 12:45:47:149,-2.006,2.7997,12.2347,-0.1164,-0.0042,9.8059,-0.311,0.0639,-0.1859,12.88,-36.12,14.69,76.92,-78.1,-166.1
25144,52.39318,-1.58294,160.83,14.64,3,267.57,27 / 27,2328010,2019-09-08 12:45:47:249,-0.698,-2.1246,10.3234,-0.1819,-0.0859,9.8046,-0.4109,0.0688,-0.143,12.75,-34.94,14.44,78.81,-77.9,-166.96
25145,52.39318,-1.58294,160.83,14.64,3,267.57,27 / 27,2328110,2019-09-08 12:45:47:349,7.5697,-0.5662,5.4772,0.1776,0.0183,9.8049,-0.6623,-0.0736,0.0147,13.0,-35.62,13.44,83.81,-77.63,-166.6
