,GPS LATITUDE (degrees), GPS LONGITUDE (degrees), GPS ALTITUDE (m), GPS SPEED (Kmh), GPS ACCURACY (m), GPS ORIENTATION (Â°),GPS SATELLITES IN RANGE, TIME SINCE START (ms), DATE (YYYY-MO-DD HH-MI-SS_SSS), ACCELEROMETER X (m/s²) , ACCELEROMETER Y (m/s²), ACCELEROMETER Z (m/s²), GRAVITY X (m/s²), GRAVITY Y (m/s²), GRAVITY Z (m/s²), GYROSCOPE Yaw (rad/s), GYROSCOPE Pitch (rad/s), GYROSCOPE Roll (rad/s), MAGNETIC FIELD X (Î¼T), MAGNETIC FIELD Y (Î¼T), MAGNETIC FIELD Z (Î¼T), ORIENTATION (Yaw) (Â°), ORIENTATION (Pitch) (Â°), ORIENTATION (Roll ) (Â°)
9042,52.51067,-1.747915,458.06,101.7,9.677419,132.7,15 / 23,4521053,2019-09-28 14:47:18:742,0.345,-0.0456,9.6088,0.3347,0.1368,9.8,0.0217,-0.0085,-0.0122,-24.58,-12.03,12.3,154.37,-2.05,-0.92
9043,52.51067,-1.747915,458.06,101.7,9.677419,132.7,15 / 23,4521553,2019-09-28 14:47:19:242,0.2693,0.9541,9.0794,0.2755,0.1261,9.802,0.01,-0.0564,-0.0356,-24.95,-10.8,12.69,156.21,-1.64,-0.79
9044,52.510494,-1.747618,458.06,101.88,9.677419,133.8,16 / 23,4522053,2019-09-28 14:47:19:742,0.3001,0.013,9.6901,0.242,0.1326,9.8028,-0.0209,0.0214,-0.0143,-24.94,-11.42,12.15,156.21,-1.38,-0.69
9045,52.510494,-1.747618,458.06,101.88,9.677419,133.8,16 / 23,4522553,2019-09-28 14:47:20:242,0.2327,0.082,9.5656,0.1432,0.1835,9.8039,-0.0155,0.0054,-0.0048,-24.84,-11.34,12.43,156.0,-0.95,-1.03
9046,52.51031,-1.747327,458.06,101.81,9.677419,135.1,16 / 23,4523053,2019-09-28 14:47:20:742,-0.2441,0.0827,9.8022,0.0877,0.1298,9.8054,-0.006,-0.0596,-0.0122,-24.64,-11.06,13.06,156.02,-0.62,-0.81
9047,52.51031,-1.747327,458.06,101.81,9.677419,135.1,16 / 23,4523554,2019-09-28 14:47:21:243,0.2964,0.7391,9.9395,0.0383,0.111,9.8059,-0.0102,0.0054,0.0006,-24.95,-11.02,12.49,156.0,-0.23,-0.73
9048,52.510124,-1.747028,454.84,101.2,9.677419,136.0,16 / 23,4524054,2019-09-28 14:47:21:743,0.2435,-0.1047,8.9584,0.0229,0.1045,9.8061,0.0367,-0.0159,-0.0676,-24.91,-11.25,12.37,156.04,-0.13,-0.57
9049,52.510124,-1.747028,454.84,101.2,9.677419,136.0,16 / 23,4524553,2019-09-28 14:47:22:242,0.2266,0.0212,10.0377,0.0273,0.1194,9.8059,0.0154,0.0033,-0.0282,-25.44,-10.69,11.76,156.0,-0.16,-0.7
9050,52.509933,-1.746745,454.84,100.51,9.677419,136.9,16 / 23,4525054,2019-09-28 14:47:22:743,0.2412,0.1331,10.0976,0.0735,0.1252,9.8056,0.0217,0.0054,-0.0111,-25.15,-10.57,12.49,156.02,-0.35,-0.74
9051,52.509933,-1.746745,454.84,100.51,9.677419,136.9,16 / 23,4525554,2019-09-28 14:47:23:243,0.5337,0.4169,10.3923,0.1331,0.0975,9.8053,0.0345,0.0267,-0.0452,-25.1,-10.39,12.73,158.05,-0.69,-0.6
9052,52.509747,-1.746478,454.84,100.26,9.677419,138.0,16 / 23,4526054,2019-09-28 14:47:23:743,0.6603,0.0142,9.8526,0.1542,0.0797,9.8051,-0.0337,0.0033,0.0059,-26.02,-10.05,11.03,158.97,-0.88,-0.31
9053,52.509747,-1.746478,454.84,100.26,9.677419,138.0,16 / 23,4526554,2019-09-28 14:47:24:243,0.2732,0.0363,8.6133,0.2182,0.0451,9.8041,0.009,0.0331,-0.0239,-24.76,-10.71,13.13,156.37,-1.3,-0.29
9054,52.509556,-1.746207,451.61,99.61,9.677419,138.8,15 / 23,4527053,2019-09-28 14:47:24:742,-0.4136,0.4519,9.642,0.2599,0.0564,9.803,-0.0113,0.0054,-0.0346,-25.1,-10.39,12.73,158.37,-1.57,-0.23
9055,52.509556,-1.746207,451.61,99.61,9.677419,138.8,15 / 23,4527553,2019-09-28 14:47:25:242,0.0573,0.9653,9.0445,0.3168,0.1691,9.8001,0.0004,0.0352,0.0102,-24.82,-10.43,13.24,158.06,-1.77,-1.01
9056,52.50936,-1.745942,451.61,100.91,9.677419,139.7,15 / 23,4528054,2019-09-28 14:47:25:743,1.0132,0.3207,9.5863,0.3373,0.1819,9.7992,0.0654,0.0523,-0.0601,-24.99,-10.73,12.67,156.15,-1.97,-1.06
9057,52.50936,-1.745942,451.61,100.91,9.677419,139.7,15 / 23,4528554,2019-09-28 14:47:26:243,0.7834,-0.1131,9.9041,0.3779,0.1719,9.7979,0.0111,0.0374,-0.0229,-25.33,-9.93,12.64,158.13,-2.13,-0.97
9058,52.509163,-1.745686,451.61,101.16,9.677419,140.9,15 / 23,4529053,2019-09-28 14:47:26:742,0.0795,-0.4738,10.7631,0.3691,0.1554,9.7985,0.0036,0.0576,-0.0346,-25.41,-9.58,12.75,158.16,-2.16,-0.91
9059,52.509163,-1.745686,451.61,101.16,9.677419,140.9,15 / 23,4529554,2019-09-28 14:47:27:243,0.856,-0.5616,9.2405,0.3666,0.1516,9.7986,-0.0155,0.0022,-0.0186,-25.2,-9.11,13.48,160.75,-2.12,-1.06
9060,52.50896,-1.745431,451.61,101.52,9.677419,141.9,15 / 23,4530054,2019-09-28 14:47:27:743,0.0337,0.5641,8.9171,0.377,0.1968,9.7974,0.0154,0.048,-0.0271,-25.75,-9.03,12.47,160.74,-2.2,-1.13
9061,52.50896,-1.745431,451.61,101.52,9.677419,141.9,15 / 23,4530554,2019-09-28 14:47:28:243,-0.4962,1.126,9.1753,0.4252,0.1806,9.7958,-0.0273,-0.0212,-0.0261,-25.68,-9.53,12.24,160.76,-2.44,-1.14
9062,52.508755,-1.745185,451.61,102.13,9.677419,143.1,14 / 23,4531054,2019-09-28 14:47:28:743,0.7329,0.4172,10.596,0.3977,0.2122,9.7963,-0.0443,0.0214,0.0325,-25.72,-8.77,12.71,160.72,-2.25,-1.18
9063,52.508755,-1.745185,451.61,102.13,9.677419,143.1,14 / 23,4531554,2019-09-28 14:47:29:243,0.141,0.557,9.2902,0.4467,0.2023,9.7944,-0.0432,-0.033,0.0102,-25.42,-8.92,13.19,160.12,-2.62,-1.08
9064,52.50855,-1.744939,448.39,103.07,9.677419,144.2,14 / 23,4532054,2019-09-28 14:47:29:743,1.4378,0.1227,8.9155,0.4748,0.1147,9.7945,-0.039,0.0459,0.0315,-25.19,-8.57,14.29,160.32,-2.71,-0.68
9065,52.50855,-1.744939,448.39,103.07,9.677419,144.2,14 / 23,4532553,2019-09-28 14:47:30:242,0.5481,0.4318,7.9961,0.5319,0.1098,9.7916,0.0761,-0.0447,-0.0932,-25.94,-8.57,14.23,161.01,-2.97,-0.75
9066,52.508335,-1.744697,448.39,103.86,9.677419,145.1,14 / 23,4533053,2019-09-28 14:47:30:742,0.7918,0.2658,9.7453,0.5488,0.0899,9.7909,0.0207,0.0043,-0.0207,-25.56,-8.57,14.73,161.29,-3.29,-0.32
9067,52.508335,-1.744697,448.39,103.86,9.677419,145.1,14 / 23,4533554,2019-09-28 14:47:31:243,0.8401,-0.0461,10.1763,0.5818,0.1243,9.7886,0.01,0.0033,-0.0314,-25.94,-8.95,14.67,161.09,-3.35,-0.74
9068,52.50813,-1.744457,448.39,104.62,9.677419,146.1,14 / 23,4534053,2019-09-28 14:47:31:742,0.6846,0.4116,9.1223,0.5846,0.1291,9.7884,-0.0049,0.0139,-0.0378,-25.56,-9.32,14.29,161.09,-3.51,-0.75
9069,52.50813,-1.744457,448.39,104.62,9.677419,146.1,14 / 23,4534553,2019-09-28 14:47:32:242,0.1883,0.1486,8.77,0.5628,0.1656,9.7891,-0.0017,-0.017,-0.0388,-25.19,-8.57,14.29,160.27,-3.29,-0.97
9070,52.507904,-1.744224,448.39,105.73,9.677419,147.1,14 / 22,4535053,2019-09-28 14:47:32:742,0.7804,0.6013,8.5619,0.5478,0.2083,9.7891,0.0164,0.0981,0.0006,-26.31,-10.07,15.98,158.92,-3.37,-1.3
9071,52.507904,-1.744224,448.39,105.73,9.677419,147.1,14 / 22,4535554,2019-09-28 14:47:33:243,1.0321,0.2734,8.6353,0.5319,0.2205,9.7897,-0.0198,-0.0042,-0.0133,-27.0,-8.2,11.73,160.75,-3.05,-1.34
9072,52.50767,-1.743993,448.39,106.99,9.677419,147.7,15 / 23,4536054,2019-09-28 14:47:33:743,0.1235,0.5617,9.1106,0.4609,0.1846,9.7941,0.0122,0.0118,-0.0346,-25.94,-7.18,13.25,164.75,-2.69,-1.08
9073,52.50767,-1.743993,448.39,106.99,9.677419,147.7,15 / 23,4536553,2019-09-28 14:47:34:242,0.2966,0.0235,10.4751,0.4364,0.1889,9.7951,-0.0337,-0.0138,0.0208,-23.96,-8.09,16.13,161.42,-2.5,-1.05
9074,52.507446,-1.743766,448.39,106.31,12.903226,148.2,15 / 23,4537055,2019-09-28 14:47:34:744,-0.4281,1.2414,10.114,0.38,0.1464,9.7982,0.0249,-0.083,-0.0293,-27.06,-9.01,15.29,161.43,-2.21,-0.99
9075,52.507446,-1.743766,448.39,106.31,12.903226,148.2,15 / 23,4537554,2019-09-28 14:47:35:243,0.5401,-0.2933,10.6162,0.3532,0.2047,9.7981,-0.0337,-0.0425,-0.0261,-26.69,-7.51,14.98,163.27,-2.15,-1.07
9076,52.507214,-1.743546,448.39,107.32,9.677419,149.7,15 / 23,4538054,2019-09-28 14:47:35:743,0.4021,-0.7797,10.5217,0.3084,0.1961,9.7998,-0.0294,-0.0138,0.0229,-26.69,-7.51,14.04,163.24,-1.82,-1.07
9077,52.507214,-1.743546,448.39,107.32,9.677419,149.7,15 / 23,4538554,2019-09-28 14:47:36:243,-0.0161,-0.6633,10.3409,0.3079,0.2542,9.7985,-0.0209,0.0011,0.0038,-27.06,-6.76,13.23,165.01,-1.8,-1.49
9078,52.506977,-1.743339,445.16,108.43,9.677419,151.1,15 / 23,4539054,2019-09-28 14:47:36:743,-0.2457,0.2398,9.84,0.2594,0.3053,9.7985,-0.0496,-0.0266,0.0336,-26.31,-7.51,14.04,162.32,-1.46,-1.63
9079,52.506977,-1.743339,445.16,108.43,9.677419,151.1,15 / 23,4539553,2019-09-28 14:47:37:242,-0.0535,0.1043,10.3779,0.2298,0.3025,9.7993,0.0335,0.0619,-0.0143,-26.31,-6.76,14.1,164.24,-1.34,-1.77
9080,52.50672,-1.743117,445.16,108.76,9.677419,152.3,16 / 23,4540054,2019-09-28 14:47:37:743,-0.2379,-0.0643,9.0326,0.2301,0.2733,9.8001,-0.006,-0.0276,-0.0005,-25.94,-6.38,13.67,166.36,-1.34,-1.6
9081,52.50672,-1.743117,445.16,108.76,9.677419,152.3,16 / 23,4540554,2019-09-28 14:47:38:243,-0.4835,0.8747,10.6225,0.2113,0.3024,9.7997,0.0335,-0.001,-0.0367,-26.69,-6.76,14.1,164.77,-1.23,-1.77
9082,52.506477,-1.742926,445.16,109.08,9.677419,153.5,16 / 23,4541054,2019-09-28 14:47:38:743,-0.0576,0.3922,10.4574,0.2226,0.3466,9.798,-0.0187,0.0214,-0.0133,-26.31,-7.13,13.29,164.19,-1.3,-1.96
9083,52.506477,-1.742926,445.16,109.08,9.677419,153.5,16 / 23,4541554,2019-09-28 14:47:39:243,0.7233,0.7628,8.2489,0.196,0.3904,9.7969,0.0036,-0.0958,-0.0143,-26.69,-6.76,14.54,164.52,-1.25,-2.17
9084,52.506233,-1.74274,445.16,108.97,9.677419,154.7,16 / 23,4542054,2019-09-28 14:47:39:743,0.4137,0.0724,9.3365,0.1991,0.3026,9.8,0.0079,0.0544,-0.0218,-26.69,-6.01,14.1,166.6,-1.13,-2.05
9085,52.506233,-1.74274,445.16,108.97,9.677419,154.7,16 / 23,4542554,2019-09-28 14:47:40:243,1.5965,-0.414,8.5337,0.1735,0.3138,9.8001,-0.0262,-0.0287,0.0272,-26.31,-6.01,14.17,166.15,-1.13,-1.96
9086,52.505985,-1.742564,445.16,109.15,9.677419,156.0,16 / 23,4543054,2019-09-28 14:47:40:743,0.1278,-0.1645,10.0759,0.2238,0.2712,9.8003,0.042,0.0118,-0.0197,-26.69,-6.38,13.35,166.79,-1.24,-1.79
9087,52.505985,-1.742564,445.16,109.15,9.677419,156.0,16 / 23,4543554,2019-09-28 14:47:41:243,0.3363,-0.1397,9.921,0.2043,0.2645,9.801,0.0324,-0.0191,-0.0133,-26.69,-5.7,13.67,166.86,-1.21,-1.51
9088,52.505737,-1.742395,445.16,108.9,9.677419,157.0,16 / 23,4544053,2019-09-28 14:47:41:742,-0.7176,0.5213,9.9588,0.2258,0.232,9.8013,0.0026,0.0192,-0.0271,-27.0,-6.01,14.17,166.94,-1.36,-1.38
9089,52.505737,-1.742395,445.16,108.9,9.677419,157.0,16 / 23,4544554,2019-09-28 14:47:42:243,0.365,0.0585,8.0961,0.2378,0.1459,9.8027,-0.023,-0.0266,0.0038,-27.37,-6.01,14.17,167.12,-1.36,-1.01
9090,52.50548,-1.742225,445.16,109.48,9.677419,157.7,16 / 23,4545054,2019-09-28 14:47:42:743,-0.068,0.0627,9.8671,0.2435,0.035,9.8036,-0.0219,0.0363,0.0166,-27.37,-7.13,13.73,165.49,-1.47,-0.33
9091,52.50548,-1.742225,445.16,109.48,9.677419,157.7,16 / 23,4545554,2019-09-28 14:47:43:243,-0.5264,0.9988,9.4227,0.2304,-0.0497,9.8038,-0.0379,0.0139,0.0613,-27.0,-6.76,14.23,165.73,-1.33,0.2
9092,52.505222,-1.742063,441.94,109.37,9.677419,158.1,16 / 23,4546054,2019-09-28 14:47:43:743,0.6157,-1.1014,10.7082,0.2306,-0.0961,9.8035,-0.0198,-0.1011,0.0261,-27.0,-7.13,14.23,165.88,-1.42,0.51
9093,52.505222,-1.742063,441.94,109.37,9.677419,158.1,16 / 23,4546553,2019-09-28 14:47:44:242,0.0777,-0.2951,8.7472,0.2197,-0.0536,9.804,-0.007,-0.0266,-0.0048,-27.0,-6.76,13.79,165.75,-1.41,0.24
9094,52.504963,-1.741888,441.94,109.37,9.677419,158.0,16 / 23,4547053,2019-09-28 14:47:44:742,0.5181,-0.2655,8.8564,0.2197,-0.0234,9.8042,-0.0155,-0.0457,0.0283,-27.37,-7.13,14.23,165.69,-1.36,0.11
9095,52.504963,-1.741888,441.94,109.37,9.677419,158.0,16 / 23,4547554,2019-09-28 14:47:45:243,0.5964,-0.2885,9.8688,0.2135,0.0059,9.8043,0.0271,0.032,-0.0261,-27.0,-7.88,14.67,163.63,-1.21,-0.06
9096,52.50471,-1.741721,438.71,109.15,9.677419,157.9,16 / 23,4548054,2019-09-28 14:47:45:743,0.324,-0.4397,10.2617,0.1919,0.0219,9.8047,0.0026,-0.0308,-0.0218,-27.0,-7.51,14.6,163.6,-1.12,-0.13
9097,52.50471,-1.741721,438.71,109.15,9.677419,157.9,16 / 23,4548554,2019-09-28 14:47:46:243,-0.1948,0.3763,10.7344,0.1968,0.0459,9.8046,-0.0294,0.0139,0.0176,-26.69,-7.88,14.6,163.53,-1.15,-0.27
9098,52.50446,-1.741546,435.48,109.48,9.677419,157.8,16 / 23,4549054,2019-09-28 14:47:46:743,0.7473,0.3309,8.901,0.2145,0.0611,9.8041,0.0026,-0.0372,-0.0111,-27.0,-7.51,14.23,163.54,-1.41,-0.31
9099,52.50446,-1.741546,435.48,109.48,9.677419,157.8,16 / 23,4549556,2019-09-28 14:47:47:245,0.3052,0.2931,9.6496,0.1863,0.0659,9.8047,-0.0081,0.0022,0.0016,-27.37,-8.26,14.67,164.03,-1.24,-0.4
9100,52.504204,-1.741383,435.48,108.65,9.677419,158.1,16 / 23,4550054,2019-09-28 14:47:47:743,-0.0941,0.5324,8.7207,0.2301,0.0626,9.8038,0.0228,0.015,0.0091,-27.0,-7.88,13.79,163.47,-1.31,-0.44
9101,52.504204,-1.741383,435.48,108.65,9.677419,158.1,16 / 23,4550554,2019-09-28 14:47:48:243,-0.1104,0.5491,9.9649,0.2303,0.0905,9.8035,-0.0145,-0.05,0.0187,-27.0,-7.51,14.67,163.43,-1.35,-0.53
9102,52.50395,-1.741212,432.26,109.08,9.677419,157.9,16 / 23,4551054,2019-09-28 14:47:48:743,0.482,-0.4656,9.958,0.2447,0.0835,9.8032,0.0004,0.0374,0.0016,-27.37,-7.88,13.79,163.43,-1.39,-0.54
9103,52.50395,-1.741212,432.26,109.08,9.677419,157.9,16 / 23,4551554,2019-09-28 14:47:49:243,0.7429,-0.9677,9.3027,0.2574,0.044,9.8032,-0.0155,-0.0095,-0.0005,-27.37,-7.13,15.54,163.52,-1.41,-0.35
9104,52.5037,-1.741044,432.26,108.83,9.677419,158.1,16 / 23,4552054,2019-09-28 14:47:49:743,0.1102,-0.1077,10.4033,0.2526,-0.0682,9.8032,-0.0155,0.0203,0.0197,-27.37,-7.13,15.17,165.69,-1.49,0.07
9105,52.5037,-1.741044,432.26,108.83,9.677419,158.1,16 / 23,4552555,2019-09-28 14:47:50:244,-1.0576,-0.1424,9.321,0.2795,-0.2024,9.8006,-0.0091,-0.0223,0.0134,-27.0,-7.13,13.85,164.24,-1.64,1.1
9106,52.503445,-1.740879,432.26,108.97,9.677419,157.8,16 / 23,4553054,2019-09-28 14:47:50:743,-0.1568,-0.1371,9.2869,0.2751,-0.3318,9.7972,-0.0102,-0.0085,0.0368,-27.37,-8.57,14.23,162.62,-1.69,1.71
9107,52.503445,-1.740879,432.26,108.97,9.677419,157.8,16 / 23,4553554,2019-09-28 14:47:51:243,0.4709,-0.6759,9.8689,0.2905,-0.4184,9.7934,-0.023,-0.001,0.0347,-27.37,-7.51,14.67,164.96,-1.74,2.36
9108,52.503197,-1.740703,432.26,108.94,9.677419,157.0,16 / 23,4554053,2019-09-28 14:47:51:742,0.285,0.2114,9.4453,0.3007,-0.3853,9.7945,-0.0166,-0.0649,0.0016,-26.62,-7.88,14.29,164.87,-1.71,2.38
9109,52.503197,-1.740703,432.26,108.94,9.677419,157.0,16 / 23,4554556,2019-09-28 14:47:52:245,0.1141,0.7274,10.4342,0.2876,-0.2213,9.7999,-0.0443,-0.018,0.0144,-26.62,-7.82,13.85,164.5,-1.65,1.62
9110,52.502945,-1.740516,435.48,109.15,9.677419,156.2,16 / 23,4555054,2019-09-28 14:47:52:743,0.8056,-0.2617,10.2611,0.2748,-0.0011,9.8028,-0.0219,-0.0212,-0.0207,-26.69,-7.88,15.1,163.83,-1.6,0.21
9111,52.502945,-1.740516,435.48,109.15,9.677419,156.2,16 / 23,4555554,2019-09-28 14:47:53:243,-0.4632,0.491,10.7242,0.2782,0.1242,9.8019,-0.0209,-0.0532,-0.0111,-26.62,-8.2,15.1,163.47,-1.58,-0.51
9112,52.502693,-1.740335,435.48,109.12,9.677419,156.2,16 / 23,4556054,2019-09-28 14:47:53:743,-0.1115,1.3879,9.6186,0.2499,0.3279,9.798,0.0313,0.0192,-0.0942,-27.0,-8.26,14.17,163.14,-1.6,-1.22
9113,52.502693,-1.740335,435.48,109.12,9.677419,156.2,16 / 23,4556553,2019-09-28 14:47:54:242,0.1583,-0.4875,9.8588,0.2676,0.3616,9.7963,0.0388,0.0448,-0.0293,-27.37,-8.26,14.54,162.65,-1.6,-2.17
9114,52.502453,-1.740167,432.26,108.36,9.677419,156.7,16 / 23,4557054,2019-09-28 14:47:54:743,-0.321,0.4784,10.0658,0.2455,0.398,9.7955,0.0271,-0.0298,-0.0601,-27.44,-7.88,13.6,162.64,-1.44,-2.26
9115,52.502453,-1.740167,432.26,108.36,9.677419,156.7,16 / 23,4557553,2019-09-28 14:47:55:242,0.7785,-0.1822,9.9922,0.2526,0.4196,9.7944,-0.0145,0.0374,-0.0143,-27.37,-8.26,14.92,162.52,-1.49,-2.4
9116,52.5022,-1.739996,432.26,108.9,9.677419,157.3,16 / 23,4558053,2019-09-28 14:47:55:742,0.1202,0.5531,9.89,0.2336,0.3976,9.7958,-0.0603,0.031,0.0379,-27.06,-8.26,14.04,162.59,-1.37,-2.35
9117,52.5022,-1.739996,432.26,108.9,9.677419,157.3,16 / 23,4558553,2019-09-28 14:47:56:242,-0.415,0.6882,9.3001,0.2426,0.4329,9.7941,-0.0262,0.0331,0.0006,-26.69,-7.51,14.04,162.52,-1.37,-2.51
9118,52.501953,-1.739823,432.26,109.04,9.677419,157.7,16 / 23,4559053,2019-09-28 14:47:56:742,0.5905,-0.2668,9.2784,0.2478,0.3737,9.7964,0.0164,0.0395,-0.0165,-27.06,-7.88,14.04,162.66,-1.43,-2.2
9119,52.501953,-1.739823,432.26,109.04,9.677419,157.7,16 / 23,4559554,2019-09-28 14:47:57:243,0.794,0.7634,9.2122,0.2731,0.3313,9.7972,0.0271,0.065,-0.0303,-27.37,-7.51,14.92,162.76,-1.6,-1.94
9120,52.501698,-1.739657,429.03,108.9,9.677419,158.0,16 / 23,4560054,2019-09-28 14:47:57:743,0.5362,-0.4591,10.3264,0.2832,0.2648,9.799,0.0036,-0.0436,0.0166,-27.06,-7.88,14.98,162.88,-1.54,-1.67
9121,52.501698,-1.739657,429.03,108.9,9.677419,158.0,16 / 23,4560554,2019-09-28 14:47:58:243,-0.0732,0.2051,8.8155,0.2679,0.1911,9.8011,0.0271,-0.0127,-0.0601,-27.06,-7.13,14.1,165.09,-1.61,-1.19
9122,52.501446,-1.739493,432.26,108.9,9.677419,158.1,16 / 23,4561054,2019-09-28 14:47:58:743,0.592,-0.0487,9.7112,0.2683,0.0733,9.8027,0.0047,0.0991,0.0496,-27.06,-7.51,14.48,163.46,-1.63,-0.54
9123,52.501446,-1.739493,432.26,108.9,9.677419,158.1,16 / 23,4561553,2019-09-28 14:47:59:242,0.3838,0.1143,9.1931,0.277,0.0365,9.8027,0.0079,0.0224,-0.0165,-26.69,-7.51,14.54,163.59,-1.6,-0.28
9124,52.501186,-1.739326,429.03,108.94,9.677419,158.1,16 / 23,4562054,2019-09-28 14:47:59:743,0.5394,-0.3292,9.5937,0.2778,0.0809,9.8024,0.0036,0.0278,-0.0154,-27.37,-7.51,14.98,163.58,-1.71,-0.32
9125,52.501186,-1.739326,429.03,108.94,9.677419,158.1,16 / 23,4562554,2019-09-28 14:48:00:243,0.0425,0.0575,10.1451,0.284,0.158,9.8013,0.01,0.0033,-0.0239,-27.37,-7.51,13.73,163.31,-1.55,-0.84
9126,52.50094,-1.739167,429.03,109.19,9.677419,158.0,16 / 23,4563053,2019-09-28 14:48:00:742,0.7254,-0.0985,9.878,0.2795,0.0813,9.8023,0.0004,0.0203,0.0048,-27.37,-7.51,14.6,163.48,-1.64,-0.51
9127,52.50094,-1.739167,429.03,109.19,9.677419,158.0,16 / 23,4563554,2019-09-28 14:48:01:243,0.3423,0.2701,9.5119,0.2601,0.0756,9.8029,0.0143,0.0299,0.0293,-27.0,-7.51,14.17,163.49,-1.52,-0.44
9128,52.500687,-1.738999,429.03,109.01,9.677419,158.1,16 / 23,4564054,2019-09-28 14:48:01:743,-0.5994,0.872,9.8213,0.2796,0.0951,9.8022,0.0036,-0.0063,-0.0325,-27.0,-7.51,14.6,163.49,-1.61,-0.48
9129,52.500687,-1.738999,429.03,109.01,9.677419,158.1,16 / 23,4564554,2019-09-28 14:48:02:243,-0.189,0.4498,10.588,0.263,0.0776,9.8028,-0.0102,0.0416,-0.0079,-27.37,-7.51,14.17,163.5,-1.6,-0.46
9130,52.50043,-1.738832,429.03,109.22,9.677419,158.0,17 / 23,4565054,2019-09-28 14:48:02:743,0.6074,0.482,8.2471,0.2661,0.0817,9.8027,0.0494,-0.0266,-0.009,-27.37,-7.88,13.73,163.41,-1.73,-0.67
9131,52.50043,-1.738832,429.03,109.22,9.677419,158.0,17 / 23,4565554,2019-09-28 14:48:03:243,0.5282,-0.176,10.0052,0.2863,0.0556,9.8023,-0.0049,0.0022,0.0283,-27.0,-7.88,14.23,163.6,-1.83,-0.3
9132,52.500175,-1.738663,429.03,109.15,9.677419,158.0,17 / 23,4566054,2019-09-28 14:48:03:743,-0.2607,0.2527,9.0142,0.2618,-0.0088,9.8032,0.0175,-0.0702,0.0134,-27.0,-7.88,13.79,163.66,-1.62,-0.12
9133,52.500175,-1.738663,429.03,109.15,9.677419,158.0,17 / 23,4566554,2019-09-28 14:48:04:243,1.4371,-0.2627,8.1607,0.2703,-0.0631,9.8027,0.026,-0.1001,0.0027,-27.0,-8.26,13.79,163.89,-1.63,0.36
9134,52.49992,-1.738494,429.03,109.26,9.677419,157.9,17 / 23,4567054,2019-09-28 14:48:04:743,1.0617,0.6699,9.7942,0.2955,0.0014,9.8022,0.0068,0.0512,-0.0165,-27.0,-7.88,14.23,163.75,-1.61,0.07
9135,52.49992,-1.738494,429.03,109.26,9.677419,157.9,17 / 23,4567554,2019-09-28 14:48:05:243,0.4455,0.5332,9.6056,0.2787,0.1194,9.802,0.009,-0.0415,0.0006,-27.0,-7.88,13.79,163.39,-1.63,-0.7
9136,52.49967,-1.738324,429.03,109.4,9.677419,157.6,15 / 23,4568054,2019-09-28 14:48:05:743,0.7367,0.4594,10.4239,0.2788,0.1683,9.8012,-0.0091,0.0128,-0.0026,-27.0,-7.88,14.23,163.27,-1.58,-0.93
9137,52.49967,-1.738324,429.03,109.4,9.677419,157.6,15 / 23,4568555,2019-09-28 14:48:06:244,1.0315,0.3144,9.2901,0.271,0.172,9.8014,-0.0134,0.0906,-0.0026,-27.0,-7.88,13.42,163.25,-1.72,-1.05
9138,52.499416,-1.738157,429.03,109.26,9.677419,157.9,15 / 23,4569054,2019-09-28 14:48:06:743,-0.3111,-0.2484,10.9074,0.2636,0.1621,9.8018,-0.007,-0.0649,0.0208,-27.0,-8.26,13.42,163.24,-1.49,-1.02
9139,52.499416,-1.738157,429.03,109.26,9.677419,157.9,15 / 23,4569555,2019-09-28 14:48:07:244,1.0085,-0.942,8.9631,0.2826,0.0814,9.8022,0.0217,0.0224,-0.0538,-27.0,-7.88,13.42,163.43,-1.58,-0.6
9140,52.49916,-1.737983,429.03,109.26,9.677419,158.0,15 / 23,4570053,2019-09-28 14:48:07:742,0.657,0.092,9.8429,0.2778,0.06,9.8025,-0.006,0.0128,-0.0048,-27.0,-7.51,14.23,163.51,-1.58,-0.43
9141,52.49916,-1.737983,429.03,109.26,9.677419,158.0,15 / 23,4570554,2019-09-28 14:48:08:243,-0.6158,0.7804,8.9498,0.2789,0.1529,9.8015,-0.0091,0.0107,0.0208,-27.0,-7.51,13.42,163.37,-1.58,-0.73
9142,52.498905,-1.737812,429.03,109.33,9.677419,157.8,15 / 23,4571054,2019-09-28 14:48:08:743,0.3044,0.2592,10.0035,0.2782,0.1586,9.8014,0.0015,-0.0159,0.0315,-27.37,-8.2,14.67,163.25,-1.61,-0.96
9143,52.498905,-1.737812,429.03,109.33,9.677419,157.8,15 / 23,4571553,2019-09-28 14:48:09:242,-0.2346,0.5307,8.769,0.2755,0.1243,9.802,-0.0113,-0.0585,-0.0079,-27.0,-8.2,14.67,163.36,-1.61,-0.73
9144,52.49865,-1.737644,429.03,109.37,9.677419,158.0,15 / 23,4572053,2019-09-28 14:48:09:742,0.3291,0.0964,10.3595,0.2593,0.1084,9.8026,0.0271,-0.0372,-0.0143,-26.62,-7.88,15.1,161.49,-1.66,-0.69
9145,52.49865,-1.737644,429.03,109.37,9.677419,158.0,15 / 23,4572553,2019-09-28 14:48:10:242,0.2671,0.3896,9.0307,0.2812,0.1259,9.8018,0.009,0.0874,-0.0058,-27.37,-7.51,15.1,163.41,-1.63,-0.64
9146,52.49839,-1.737474,425.81,109.37,9.677419,157.9,15 / 23,4573054,2019-09-28 14:48:10:743,0.1147,0.0403,10.1046,0.2598,0.0884,9.8028,0.0324,-0.0702,-0.0037,-27.0,-8.2,14.29,163.38,-1.5,-0.68
9147,52.49839,-1.737474,425.81,109.37,9.677419,157.9,15 / 23,4573554,2019-09-28 14:48:11:243,0.6266,-0.6578,9.7357,0.2468,0.0929,9.8031,-0.0251,0.0107,0.0197,-27.0,-7.51,15.48,163.49,-1.41,-0.42
9148,52.498142,-1.737304,425.81,108.32,9.677419,157.4,16 / 23,4574054,2019-09-28 14:48:11:743,-0.398,1.1568,9.4943,0.2253,0.0997,9.8036,-0.0145,0.0214,0.0112,-27.0,-7.13,15.1,165.33,-1.26,-0.58
9149,52.498142,-1.737304,425.81,108.32,9.677419,157.4,16 / 23,4574555,2019-09-28 14:48:12:244,0.3486,0.1565,10.9651,0.2527,0.1211,9.8026,-0.0337,0.0437,0.0411,-27.0,-7.51,15.17,163.46,-1.33,-0.45
9150,52.497887,-1.737133,425.81,109.15,9.677419,158.0,16 / 23,4575054,2019-09-28 14:48:12:743,0.1183,0.5146,8.8437,0.2686,0.1193,9.8022,0.0164,-0.0159,-0.041,-27.0,-7.51,13.85,165.29,-1.44,-0.71
9151,52.497887,-1.737133,425.81,109.15,9.677419,158.0,16 / 23,4575554,2019-09-28 14:48:13:243,0.2081,-0.104,10.1863,0.2574,0.128,9.8024,-0.0123,-0.0127,0.0123,-27.37,-8.2,14.29,163.35,-1.5,-0.75
9152,52.497635,-1.736969,425.81,109.19,9.677419,158.1,16 / 23,4576054,2019-09-28 14:48:13:743,-0.5787,0.4739,9.2927,0.2669,0.0414,9.8029,0.0367,-0.0042,-0.0495,-27.0,-7.13,15.17,165.48,-1.72,-0.4
9153,52.497635,-1.736969,425.81,109.19,9.677419,158.1,16 / 23,4576553,2019-09-28 14:48:14:242,-0.3682,-0.5082,10.2602,0.2583,0.0157,9.8032,0.0132,-0.0223,-0.0026,-27.37,-7.88,14.23,163.66,-1.51,-0.09
9154,52.49739,-1.736804,425.81,109.08,9.677419,158.0,16 / 23,4577054,2019-09-28 14:48:14:743,0.2978,0.3409,10.4661,0.2576,0.1046,9.8027,0.0239,-0.0383,-0.0143,-27.06,-7.88,14.98,163.43,-1.51,-0.56
9155,52.49739,-1.736804,425.81,109.08,9.677419,158.0,16 / 23,4577554,2019-09-28 14:48:15:243,0.0214,0.124,9.4766,0.2616,0.1603,9.8019,0.0516,0.0427,-0.0239,-26.69,-7.51,15.35,163.25,-1.53,-0.94
9156,52.49714,-1.736636,422.58,109.76,9.677419,157.8,16 / 23,4578054,2019-09-28 14:48:15:743,0.7561,-0.0623,10.8801,0.2218,0.134,9.8032,0.0111,0.1247,0.0006,-27.06,-7.88,14.92,163.29,-1.39,-0.81
9157,52.49714,-1.736636,422.58,109.76,9.677419,157.8,16 / 23,4578553,2019-09-28 14:48:16:242,0.4353,-0.1192,10.1129,0.2643,0.0898,9.8027,0.0164,0.048,-0.0058,-27.06,-7.88,14.48,163.46,-1.58,-0.53
9158,52.496887,-1.736468,422.58,109.4,9.677419,157.9,16 / 23,4579054,2019-09-28 14:48:16:743,0.8337,-0.7794,9.738,0.2664,0.101,9.8025,-0.023,0.0661,-0.0037,-27.06,-7.88,13.6,163.45,-1.54,-0.54
9159,52.496887,-1.736468,422.58,109.4,9.677419,157.9,16 / 23,4579555,2019-09-28 14:48:17:244,0.0108,-0.1227,10.134,0.2885,0.0646,9.8022,0.0271,0.0512,-0.0314,-27.06,-7.51,14.92,163.55,-1.57,-0.35
9160,52.49664,-1.736298,422.58,109.15,9.677419,157.9,16 / 23,4580054,2019-09-28 14:48:17:743,0.0788,0.0568,10.5434,0.2453,0.045,9.8035,-0.0283,-0.0106,0.0261,-27.06,-7.51,14.48,163.6,-1.46,-0.21
9161,52.49664,-1.736298,422.58,109.15,9.677419,157.9,16 / 23,4580554,2019-09-28 14:48:18:243,0.7316,-0.2243,9.873,0.2665,0.0447,9.8029,0.0047,0.0555,0.0038,-27.06,-8.26,14.1,163.58,-1.56,-0.26
9162,52.496384,-1.736129,422.58,109.08,9.677419,157.8,16 / 23,4581054,2019-09-28 14:48:18:743,0.7151,0.0296,10.1066,0.2759,0.0492,9.8026,-0.0091,0.0001,-0.0058,-26.69,-7.51,14.1,163.59,-1.62,-0.26
9163,52.496128,-1.735961,422.58,109.08,9.677419,157.7,16 / 23,4581554,2019-09-28 14:48:19:243,0.5856,-0.2797,9.5427,0.2669,0.1046,9.8025,0.0068,-0.0287,-0.0111,-27.06,-7.88,13.23,163.42,-1.56,-0.61
9164,52.496128,-1.735961,422.58,109.08,9.677419,157.7,16 / 23,4582053,2019-09-28 14:48:19:742,0.5693,0.055,9.0624,0.2841,0.0898,9.8021,0.026,0.0256,-0.0101,-27.06,-7.88,13.6,163.44,-1.48,-0.54
9165,52.496128,-1.735961,422.58,109.08,9.677419,157.7,16 / 23,4582553,2019-09-28 14:48:20:242,0.4273,0.0786,9.14,0.2907,0.1037,9.8018,-0.04,-0.0319,0.0208,-27.06,-7.95,13.85,163.44,-1.7,-0.61
9166,52.495876,-1.735794,419.35,109.01,9.677419,157.8,16 / 23,4583054,2019-09-28 14:48:20:743,0.0715,0.0211,10.4073,0.2707,0.2056,9.8008,-0.023,-0.0148,-0.0175,-27.06,-8.26,14.35,163.15,-1.58,-1.2
9167,52.495876,-1.735794,419.35,109.01,9.677419,157.8,16 / 23,4583553,2019-09-28 14:48:21:242,0.9465,-0.1155,9.7309,0.29,0.2118,9.8001,0.0292,0.0011,-0.0026,-27.06,-7.95,13.85,163.14,-1.69,-1.24
9168,52.49562,-1.735622,419.35,109.51,9.677419,157.8,16 / 23,4584053,2019-09-28 14:48:21:742,0.4596,-0.6629,10.4932,0.2742,0.181,9.8011,-0.0166,0.0299,0.0304,-27.06,-7.57,14.29,163.19,-1.59,-1.12
9169,52.49536,-1.735459,419.35,109.12,9.677419,158.1,16 / 22,4584554,2019-09-28 14:48:22:243,0.5735,0.2694,9.2431,0.2632,0.1252,9.8023,0.026,0.0405,0.0134,-27.06,-7.2,13.48,165.27,-1.43,-0.79
9170,52.49536,-1.735459,419.35,109.12,9.677419,158.1,16 / 22,4585054,2019-09-28 14:48:22:743,0.4883,-0.2801,8.8889,0.2555,0.147,9.8022,-0.0081,0.0054,0.0208,-27.44,-8.26,13.1,163.31,-1.47,-0.86
9171,52.49536,-1.735459,419.35,109.12,9.677419,158.1,16 / 23,4585554,2019-09-28 14:48:23:243,0.4594,0.2346,9.5238,0.2507,0.1508,9.8023,-0.0241,-0.0106,0.0293,-27.06,-8.26,13.92,163.28,-1.41,-0.88
9172,52.49511,-1.735294,416.13,108.94,9.677419,158.1,16 / 23,4586054,2019-09-28 14:48:23:743,-0.1767,-0.057,10.7488,0.2428,0.0736,9.8034,-0.0262,0.0384,0.0197,-27.06,-7.57,13.98,163.48,-1.44,-0.44
9173,52.49511,-1.735294,416.13,108.94,9.677419,158.1,16 / 23,4586554,2019-09-28 14:48:24:243,-0.6215,0.228,10.369,0.2312,0.0013,9.8039,0.0409,-0.0042,-0.0122,-27.06,-8.63,12.73,161.7,-1.22,-0.09
9174,52.49485,-1.73513,416.13,109.12,9.677419,157.9,16 / 23,4587054,2019-09-28 14:48:24:743,0.1831,-0.4827,9.3887,0.2669,-0.0769,9.8027,-0.0006,0.0235,0.0304,-27.06,-7.51,13.98,163.88,-1.56,0.36
9175,52.49485,-1.73513,416.13,109.12,9.677419,157.9,16 / 23,4587554,2019-09-28 14:48:25:243,-0.2206,0.4104,10.6923,0.2508,0.0027,9.8034,0.043,0.0224,-0.0037,-27.06,-8.63,14.04,161.81,-1.41,0.08
9176,52.4946,-1.734962,419.35,107.82,9.677419,157.7,16 / 23,4588054,2019-09-28 14:48:25:743,-0.4767,-0.0058,9.3682,0.2745,-0.0738,9.8025,-0.023,-0.0276,0.007,-27.06,-7.88,14.1,163.92,-1.5,0.46
9177,52.4946,-1.734962,419.35,107.82,9.677419,157.7,16 / 23,4588553,2019-09-28 14:48:26:242,0.5572,-0.6463,9.1922,0.252,-0.0996,9.8029,-0.0092,-0.0479,0.0144,-27.37,-7.13,14.1,165.98,-1.62,0.67
9178,52.494343,-1.734783,419.35,108.54,9.677419,157.3,16 / 23,4589054,2019-09-28 14:48:26:743,0.4476,0.3318,10.6059,0.2706,-0.088,9.8025,0.0036,0.0065,0.008,-26.31,-7.88,14.1,163.33,-1.53,0.44
9179,52.494343,-1.734783,419.35,108.54,9.677419,157.3,16 / 23,4589554,2019-09-28 14:48:27:243,-0.1366,-0.027,10.2532,0.2445,-0.1634,9.8022,0.0271,0.0075,-0.0218,-27.37,-8.26,13.23,164.05,-1.45,0.85
9180,52.494087,-1.734601,419.35,108.94,9.677419,157.1,16 / 23,4590054,2019-09-28 14:48:27:743,0.6464,-0.3614,10.1755,0.2518,-0.198,9.8014,0.0441,-0.0298,-0.0431,-26.69,-8.26,13.67,164.17,-1.41,1.01
9181,52.494087,-1.734601,419.35,108.94,9.677419,157.1,16 / 23,4590553,2019-09-28 14:48:28:242,0.5601,0.212,9.7021,0.2799,-0.2227,9.8001,0.0622,-0.0042,-0.0026,-27.06,-7.88,13.67,164.3,-1.62,1.22
9182,52.49384,-1.734426,419.35,109.08,9.677419,156.5,16 / 23,4591054,2019-09-28 14:48:28:743,0.7633,0.2174,9.3252,0.2803,-0.2712,9.7989,0.0132,0.0299,-0.0048,-27.06,-8.26,13.67,164.46,-1.63,1.56
9183,52.49384,-1.734426,419.35,109.08,9.677419,156.5,16 / 23,4591554,2019-09-28 14:48:29:243,-0.7385,0.8391,10.8825,0.295,-0.2773,9.7983,-0.0656,-0.0617,0.0208,-26.69,-8.63,13.67,162.51,-1.5,1.53
9184,52.493587,-1.734241,419.35,108.83,9.677419,156.0,16 / 23,4592054,2019-09-28 14:48:29:743,-0.3857,0.678,9.7427,0.2632,-0.2916,9.7988,0.0345,-0.0074,-0.0016,-26.69,-7.88,14.6,164.58,-1.55,1.68
9185,52.493587,-1.734241,419.35,108.83,9.677419,156.0,16 / 23,4592554,2019-09-28 14:48:30:243,-0.2989,0.0757,8.5463,0.2571,-0.2976,9.7988,-0.0006,-0.0287,-0.0378,-26.69,-8.26,13.73,164.65,-1.64,1.94
9186,52.493343,-1.734058,419.35,108.94,9.677419,155.3,16 / 23,4593054,2019-09-28 14:48:30:743,0.1543,0.1675,9.4229,0.2705,-0.3074,9.7981,-0.0241,-0.0159,0.0208,-26.69,-8.63,13.73,162.6,-1.59,1.7
9187,52.493343,-1.734058,419.35,108.94,9.677419,155.3,16 / 23,4593554,2019-09-28 14:48:31:243,-0.305,0.4125,9.6053,0.3013,-0.3097,9.7971,-0.0038,0.0128,-0.009,-26.69,-8.57,13.73,164.67,-1.63,1.83
9188,52.493095,-1.733865,416.13,108.97,9.677419,154.7,16 / 23,4594053,2019-09-28 14:48:31:742,-0.1742,0.7036,10.1255,0.2832,-0.2386,9.7997,-0.0155,-0.0276,-0.0037,-26.69,-8.26,14.6,164.59,-1.59,1.68
9189,52.493095,-1.733865,416.13,108.97,9.677419,154.7,16 / 23,4594554,2019-09-28 14:48:32:243,-0.3924,0.2794,9.9982,0.275,-0.2004,9.8007,0.0335,-0.0212,-0.0261,-26.31,-8.63,14.17,161.69,-1.56,1.12
9190,52.49285,-1.733676,416.13,108.79,9.677419,154.2,16 / 23,4595054,2019-09-28 14:48:32:743,0.8665,-0.6941,10.123,0.2741,-0.1929,9.8009,-0.0092,-0.0138,0.0379,-26.31,-8.95,14.17,161.71,-1.6,1.13
9191,52.49285,-1.733676,416.13,108.79,9.677419,154.2,16 / 23,4595554,2019-09-28 14:48:33:243,-0.592,0.9492,9.08,0.3189,-0.1587,9.8002,-0.0049,-0.0234,0.0166,-26.31,-8.95,15.04,161.65,-1.83,0.84
9192,52.492607,-1.733481,416.13,109.08,9.677419,153.7,16 / 23,4596054,2019-09-28 14:48:33:743,0.6929,-0.6537,9.4487,0.2912,-0.1534,9.8011,-0.04,0.0214,-0.0005,-26.69,-8.26,15.85,164.23,-1.75,0.85
9193,52.492607,-1.733481,416.13,109.08,9.677419,153.7,16 / 23,4596556,2019-09-28 14:48:34:245,0.9178,-0.1991,8.8164,0.2652,-0.1215,9.8023,-0.0496,-0.0436,0.057,-26.31,-8.63,14.6,161.6,-1.6,0.81
9194,52.492367,-1.733278,416.13,109.62,9.677419,153.2,16 / 23,4597054,2019-09-28 14:48:34:743,-0.404,0.0873,9.1415,0.2566,-0.1675,9.8019,-0.0038,-0.0042,0.0411,-27.0,-8.57,15.42,162.3,-1.5,0.98
9195,52.492367,-1.733278,416.13,109.62,9.677419,153.2,16 / 23,4597553,2019-09-28 14:48:35:242,0.2249,0.2739,10.031,0.2486,-0.2245,9.8009,0.0154,0.0469,-0.0111,-26.31,-8.95,14.23,161.77,-1.45,1.31
9196,52.492123,-1.733077,416.13,109.15,9.677419,152.9,16 / 23,4598053,2019-09-28 14:48:35:742,0.1377,0.1657,9.1601,0.2536,-0.2609,9.7999,0.0228,-0.0298,-0.008,-25.94,-8.95,15.85,161.96,-1.53,1.53
9197,52.492123,-1.733077,416.13,109.15,9.677419,152.9,16 / 23,4598554,2019-09-28 14:48:36:243,0.7292,-0.933,10.3491,0.2657,-0.2815,9.799,-0.0166,-0.0074,-0.0111,-27.0,-6.38,15.92,166.49,-1.64,1.55
9198,52.491886,-1.732869,416.13,108.22,9.677419,151.4,16 / 23,4599054,2019-09-28 14:48:36:743,0.1184,0.1417,9.3974,0.25,-0.2629,9.7999,0.0271,-0.0148,0.0229,-25.94,-8.2,15.92,164.01,-1.57,1.51
9199,52.491886,-1.732869,416.13,108.22,9.677419,151.4,16 / 23,4599554,2019-09-28 14:48:37:243,1.1111,-0.6394,10.0722,0.2499,-0.2069,9.8013,-0.0102,-0.0617,-0.0058,-26.31,-9.32,14.23,161.8,-1.55,1.33
9200,52.491665,-1.732672,419.35,107.42,12.903226,151.6,16 / 23,4600054,2019-09-28 14:48:37:743,-0.4064,0.5413,8.5234,0.2623,-0.1798,9.8015,0.0335,-0.0308,-0.0058,-26.31,-8.95,14.23,161.68,-1.59,1.07
9201,52.491665,-1.732672,419.35,107.42,12.903226,151.6,16 / 23,4600554,2019-09-28 14:48:38:243,0.5886,-0.7124,9.6976,0.2657,-0.1602,9.8017,0.0058,-0.0553,-0.0058,-26.31,-9.32,13.42,161.56,-1.55,0.94
9202,52.49143,-1.732454,419.35,108.25,12.903226,151.1,16 / 23,4601053,2019-09-28 14:48:38:742,1.4476,-0.9771,8.8688,0.2743,-0.1836,9.8011,0.0249,0.0192,-0.0154,-25.94,-9.32,13.42,161.59,-1.7,0.95
9203,52.49143,-1.732454,419.35,108.25,12.903226,151.1,16 / 23,4601554,2019-09-28 14:48:39:243,0.6685,-0.7035,9.1796,0.2982,-0.192,9.8002,0.0164,-0.0138,0.0283,-25.94,-9.32,13.42,161.61,-1.67,1.02
9204,52.491177,-1.732227,419.35,109.26,12.903226,150.7,15 / 23,4602054,2019-09-28 14:48:39:743,0.6394,-0.3897,10.4806,0.2759,-0.2132,9.8004,-0.0496,0.0587,0.089,-25.94,-9.7,14.29,159.78,-1.61,1.13
9205,52.491177,-1.732227,419.35,109.26,12.903226,150.7,15 / 23,4602553,2019-09-28 14:48:40:242,0.2794,0.3574,9.0241,0.3087,-0.2486,9.7986,0.0175,-0.0468,0.0027,-26.31,-9.7,13.85,159.96,-1.8,1.45
9206,52.490936,-1.732001,419.35,109.19,12.903226,150.1,15 / 23,4603053,2019-09-28 14:48:40:742,0.6206,-0.015,9.0526,0.3217,-0.2562,9.798,0.0271,0.015,-0.0016,-28.12,-9.32,11.79,160.59,-1.76,1.51
9207,52.490936,-1.732001,419.35,109.19,12.903226,150.1,15 / 23,4603553,2019-09-28 14:48:41:242,-0.2347,0.0979,10.129,0.3019,-0.2091,9.7998,0.0196,-0.0148,-0.0356,-25.19,-9.7,14.29,159.12,-1.76,1.22
9208,52.490704,-1.731771,419.35,109.15,12.903226,149.7,15 / 23,4604053,2019-09-28 14:48:41:742,0.1006,0.5422,8.6935,0.2596,-0.1881,9.8014,0.0143,0.0128,-0.0239,-26.31,-9.7,14.73,159.75,-1.56,1.09
9209,52.490704,-1.731771,419.35,109.15,12.903226,149.7,15 / 23,4604553,2019-09-28 14:48:42:242,0.4747,-0.1176,9.6773,0.2605,-0.1607,9.8019,0.0292,-0.1065,-0.0165,-25.94,-10.07,14.29,159.68,-1.46,0.89
9210,52.490467,-1.731538,419.35,109.04,12.903226,149.1,15 / 23,4605054,2019-09-28 14:48:42:743,-0.1535,0.4512,9.7241,0.1937,-0.1962,9.8028,0.0058,0.0405,0.0176,-25.56,-10.45,13.42,159.65,-1.13,1.15
9211,52.490467,-1.731538,419.35,109.04,12.903226,149.1,15 / 23,4605553,2019-09-28 14:48:43:242,0.4179,-0.3875,8.7174,0.1847,-0.2048,9.8028,0.0175,-0.0148,-0.0325,-26.31,-10.07,13.73,159.75,-1.21,1.22
9212,52.49023,-1.731297,419.35,109.22,12.903226,148.5,15 / 23,4606053,2019-09-28 14:48:43:742,0.3113,-0.2764,9.5463,0.1704,-0.1662,9.8038,0.0196,0.0022,0.0112,-26.31,-10.45,13.67,159.55,-1.04,0.85
9213,52.49023,-1.731297,419.35,109.22,12.903226,148.5,15 / 23,4606554,2019-09-28 14:48:44:243,0.1313,-0.1409,9.7911,0.1908,-0.1554,9.8036,-0.0049,-0.0031,-0.0037,-26.31,-10.82,14.1,157.7,-1.11,0.91
9214,52.490005,-1.731062,416.13,108.65,12.903226,148.0,15 / 23,4607054,2019-09-28 14:48:44:743,-0.0436,-0.1276,10.0356,0.1712,-0.2112,9.8029,0.0185,0.0746,-0.0037,-27.37,-10.82,14.1,158.5,-0.93,1.11
9215,52.490005,-1.731062,416.13,108.65,12.903226,148.0,15 / 23,4607554,2019-09-28 14:48:45:243,-0.135,0.0641,10.6621,0.1497,-0.1986,9.8035,0.0622,0.0246,-0.0048,-24.36,-13.79,10.78,150.32,-0.87,1.16
9216,52.489773,-1.730802,416.13,107.78,12.903226,147.6,15 / 23,4608053,2019-09-28 14:48:45:742,-0.1065,-0.3642,10.8977,0.1115,-0.1827,9.8043,0.0271,0.0597,-0.0133,-21.29,-17.23,12.24,141.55,-0.56,1.08
9217,52.489773,-1.730802,416.13,107.78,12.903226,147.6,15 / 23,4608554,2019-09-28 14:48:46:243,-0.4069,0.2858,9.2927,0.0726,-0.133,9.8055,-0.0305,-0.0074,0.0453,-26.6,-12.62,5.75,154.47,-0.41,0.78
9218,52.489548,-1.730557,412.9,107.14,9.677419,147.1,17 / 23,4609054,2019-09-28 14:48:46:743,0.3458,-0.2175,9.2989,0.0799,-0.1962,9.8044,-0.0166,0.0182,0.0368,-29.52,-5.22,-1.13,172.46,-0.41,1.09
9219,52.489548,-1.730557,412.9,107.14,9.677419,147.1,17 / 23,4609553,2019-09-28 14:48:47:242,-0.8642,0.3398,10.8191,0.1008,-0.1338,9.8052,0.059,-0.0447,-0.0111,-38.44,-9.7,11.6,155.1,-0.62,1.19
9220,52.489326,-1.73031,416.13,106.06,9.677419,146.6,17 / 23,4610053,2019-09-28 14:48:47:742,0.1952,-0.058,10.1011,0.1524,-0.1547,9.8042,0.0313,0.0118,-0.0325,-26.31,-10.82,14.98,157.73,-0.88,0.98
9221,52.489326,-1.73031,416.13,106.06,9.677419,146.6,17 / 23,4610554,2019-09-28 14:48:48:243,-0.1955,0.2977,9.5865,0.1262,-0.134,9.8049,0.026,0.0331,-0.025,-25.56,-11.2,13.67,157.57,-0.74,0.78
9222,52.489113,-1.73007,416.13,105.34,9.677419,146.1,17 / 22,4611053,2019-09-28 14:48:48:742,0.205,0.4836,9.4839,0.1334,-0.1266,9.8049,0.0068,-0.0308,-0.0388,-25.56,-11.2,14.17,157.57,-0.79,0.77
9223,52.489113,-1.73007,416.13,105.34,9.677419,146.1,17 / 22,4611554,2019-09-28 14:48:49:243,0.6006,-0.2232,9.5547,0.1392,-0.0848,9.8053,-0.023,-0.0447,0.0251,-25.19,-11.2,14.17,156.65,-0.81,0.5
9224,52.488895,-1.729824,416.13,104.76,9.677419,145.7,17 / 23,4612054,2019-09-28 14:48:49:743,-0.1017,-0.3045,9.0135,0.1316,-0.1594,9.8045,0.0079,0.0544,0.0272,-25.19,-11.2,14.6,156.89,-0.77,0.93
9225,52.488895,-1.729824,416.13,104.76,9.677419,145.7,17 / 23,4612554,2019-09-28 14:48:50:243,-0.1765,0.2581,9.7323,0.1326,-0.1139,9.8051,-0.0187,-0.017,0.0315,-25.56,-11.2,13.35,157.49,-0.77,0.67
9226,52.48868,-1.72958,419.35,104.08,9.677419,145.3,17 / 23,4613053,2019-09-28 14:48:50:742,-0.4096,-0.3571,9.5595,0.152,-0.2141,9.8031,0.0164,-0.0106,0.0016,-25.56,-11.2,14.23,157.68,-1.01,0.92
9227,52.48868,-1.72958,419.35,104.08,9.677419,145.3,17 / 23,4613553,2019-09-28 14:48:51:242,-0.4477,-0.3329,10.0982,0.1523,-0.1668,9.804,-0.0209,0.0107,0.0751,-24.81,-11.2,13.79,156.89,-0.89,0.97
9228,52.488495,-1.729366,422.58,103.39,9.677419,144.9,16 / 22,4614055,2019-09-28 14:48:51:744,-0.1676,0.3321,8.0333,0.1872,-0.1618,9.8035,0.0207,0.0065,-0.0229,-24.44,-11.51,14.23,154.22,-1.18,1.08
9229,52.488495,-1.729366,422.58,103.39,9.677419,144.9,16 / 22,4614554,2019-09-28 14:48:52:243,0.5526,-0.1689,8.7094,0.2182,-0.1672,9.8028,-0.0645,-0.0681,0.0208,-25.19,-12.26,15.48,155.13,-1.27,0.98
9230,52.48829,-1.729122,425.81,102.85,9.677419,144.4,17 / 23,4615054,2019-09-28 14:48:52:743,0.4867,0.3967,8.9094,0.2731,-0.1622,9.8015,-0.0017,0.0363,-0.0058,-25.19,-12.26,15.1,155.12,-1.55,0.73
9231,52.48829,-1.729122,425.81,102.85,9.677419,144.4,17 / 23,4615554,2019-09-28 14:48:53:243,0.2753,-0.363,9.9882,0.2925,-0.1671,9.8009,0.0452,-0.0191,0.0166,-25.56,-10.82,14.67,157.81,-1.6,0.86
9232,52.48808,-1.728881,425.81,101.56,9.677419,144.0,17 / 23,4616054,2019-09-28 14:48:53:743,0.59,-0.5815,9.1446,0.3317,-0.1666,9.7996,-0.0283,-0.033,0.0368,-25.56,-11.2,14.23,157.87,-1.94,0.97
9233,52.48808,-1.728881,425.81,101.56,9.677419,144.0,17 / 23,4616554,2019-09-28 14:48:54:243,0.7454,0.3493,8.7781,0.3215,-0.0477,9.8013,0.0207,0.0501,0.007,-25.19,-11.51,15.1,154.9,-1.94,0.22
9234,52.487877,-1.728632,425.81,102.35,9.677419,143.7,17 / 23,4617053,2019-09-28 14:48:54:742,0.0224,-0.0931,10.4511,0.325,-0.0241,9.8012,-0.0017,0.0118,-0.0048,-25.56,-11.51,15.1,155.73,-1.83,0.25
9235,52.487877,-1.728632,425.81,102.35,9.677419,143.7,17 / 23,4617553,2019-09-28 14:48:55:242,0.3941,0.1844,10.3137,0.2968,0.0036,9.8022,0.0047,-0.0447,-0.0356,-24.81,-11.13,14.29,156.58,-1.73,-0.02
9236,52.487675,-1.72839,429.03,102.1,9.677419,143.5,17 / 23,4618054,2019-09-28 14:48:55:743,0.4482,0.2132,9.3565,0.2836,0.0354,9.8025,-0.0241,-0.0447,0.007,-25.19,-11.13,14.29,156.55,-1.77,-0.11
9237,52.487675,-1.72839,429.03,102.1,9.677419,143.5,17 / 23,4618553,2019-09-28 14:48:56:242,0.4235,0.2192,10.2392,0.3264,0.1117,9.8006,0.0367,0.0512,-0.025,-25.19,-11.13,14.73,156.35,-1.92,-0.62
9238,52.487473,-1.728143,429.03,101.84,9.677419,143.5,16 / 23,4619054,2019-09-28 14:48:56:743,-0.9293,0.5774,9.8125,0.3069,0.0879,9.8015,-0.0251,0.0629,0.0432,-24.81,-11.51,14.67,154.47,-1.69,-0.57
9239,52.487473,-1.728143,429.03,101.84,9.677419,143.5,16 / 23,4619555,2019-09-28 14:48:57:244,-0.2515,0.5614,8.5247,0.2992,0.0969,9.8016,-0.0134,0.0224,0.0304,-25.19,-11.51,13.85,154.51,-1.8,-0.5
9240,52.487274,-1.727898,432.26,101.34,9.677419,143.4,16 / 23,4620054,2019-09-28 14:48:57:743,0.1781,0.1674,9.355,0.3106,0.1101,9.8011,-0.0305,0.0001,0.0208,-25.19,-10.82,13.85,156.31,-1.77,-0.63
9241,52.487274,-1.727898,432.26,101.34,9.677419,143.4,16 / 23,4620553,2019-09-28 14:48:58:242,-0.2959,0.3398,10.2644,0.3193,0.1626,9.8001,0.0004,0.0501,0.0251,-25.19,-11.13,13.85,156.18,-1.9,-0.96
9242,52.487072,-1.72765,432.26,101.63,9.677419,143.5,16 / 23,4621054,2019-09-28 14:48:58:743,-0.4496,-0.2721,9.0372,0.3393,0.0949,9.8003,-0.0432,-0.0436,0.0411,-24.81,-11.88,14.29,154.51,-1.98,-0.58
9243,52.487072,-1.72765,432.26,101.63,9.677419,143.5,16 / 23,4621553,2019-09-28 14:48:59:242,-0.1065,0.2082,9.64,0.3325,0.0495,9.8009,0.009,0.0288,-0.0005,-25.19,-10.76,14.73,156.46,-1.84,-0.35
9244,52.486877,-1.727402,435.48,101.09,9.677419,143.5,16 / 23,4622054,2019-09-28 14:48:59:743,0.4812,0.1289,9.2102,0.3202,0.0925,9.801,0.0175,0.0629,0.0059,-24.81,-11.13,14.73,156.41,-1.94,-0.49
9245,52.486877,-1.727402,435.48,101.09,9.677419,143.5,16 / 23,4622553,2019-09-28 14:49:00:242,0.8329,-0.406,9.69,0.3783,0.1049,9.7988,0.0345,-0.017,-0.0261,-25.19,-11.51,13.85,154.54,-2.21,-0.61
9246,52.48667,-1.727158,435.48,101.12,9.677419,143.4,16 / 23,4623053,2019-09-28 14:49:00:742,0.6029,0.2902,9.4639,0.37,0.1451,9.7986,-0.0091,0.0374,0.0261,-25.19,-11.51,14.29,154.42,-2.16,-0.85
9247,52.48667,-1.727158,435.48,101.12,9.677419,143.4,16 / 23,4623554,2019-09-28 14:49:01:243,-0.012,0.0065,9.5335,0.3886,0.1232,9.7982,0.0079,0.0395,-0.0026,-24.81,-11.51,13.48,154.49,-2.2,-0.7
9248,52.486473,-1.726913,435.48,100.08,9.677419,143.4,16 / 23,4624054,2019-09-28 14:49:01:743,-3.642,1.7316,9.0622,0.385,0.13,9.7982,0.0122,-0.1054,0.0858,-25.19,-11.51,14.35,154.48,-2.25,-0.76
9249,52.486473,-1.726913,435.48,100.08,9.677419,143.4,16 / 23,4624554,2019-09-28 14:49:02:243,-0.6835,0.0269,9.5126,0.3948,0.1232,9.7979,-0.0368,-0.0798,0.0379,-24.81,-11.51,14.35,154.48,-2.32,-0.8
9250,52.486267,-1.72666,435.48,101.23,9.677419,143.5,16 / 23,4625054,2019-09-28 14:49:02:743,0.43,0.0518,9.4616,0.3951,0.1152,9.798,0.0164,-0.0106,-0.0101,-25.19,-11.88,13.92,156.42,-2.47,-0.67
9251,52.486267,-1.72666,435.48,101.23,9.677419,143.5,16 / 23,4625554,2019-09-28 14:49:03:243,-0.0015,-0.3544,9.6574,0.3829,0.1232,9.7984,0.0185,-0.0255,-0.0197,-24.81,-11.51,15.6,154.56,-2.4,-0.71
9252,52.486073,-1.726427,435.48,101.2,9.677419,143.5,16 / 23,4626054,2019-09-28 14:49:03:743,1.1254,-1.0313,9.7921,0.3706,0.1008,9.7991,-0.006,-0.0085,-0.0165,-25.19,-11.13,14.29,154.54,-2.3,-0.63
9253,52.486073,-1.726427,435.48,101.2,9.677419,143.5,16 / 23,4626554,2019-09-28 14:49:04:243,0.3869,0.1798,9.9415,0.3645,0.1232,9.7991,0.0004,-0.0063,0.0038,-25.19,-11.2,13.79,156.33,-2.19,-0.75
9254,52.485863,-1.726176,438.71,102.89,9.677419,143.6,16 / 23,4627055,2019-09-28 14:49:04:744,-0.3202,-0.1916,9.1696,0.3732,0.1217,9.7988,-0.023,-0.0383,0.0229,-25.19,-11.2,14.54,156.39,-2.25,-0.67
9255,52.485863,-1.726176,438.71,102.89,9.677419,143.6,16 / 23,4627555,2019-09-28 14:49:05:244,0.3436,0.7034,10.2825,0.3428,0.1314,9.7998,0.0047,-0.0042,0.0197,-25.19,-11.57,14.54,154.41,-2.0,-0.81
9256,52.485657,-1.725931,438.71,100.91,9.677419,143.5,16 / 23,4628053,2019-09-28 14:49:05:742,0.6606,-0.328,9.5051,0.3445,0.1513,9.7994,-0.0283,0.0118,0.04,-25.19,-11.2,14.1,156.23,-2.09,-0.93
9257,52.485657,-1.725931,438.71,100.91,9.677419,143.5,16 / 23,4628554,2019-09-28 14:49:06:243,0.1277,0.206,9.5128,0.3455,0.1429,9.7995,0.0249,-0.0383,-0.0367,-24.81,-11.57,14.1,154.36,-1.99,-0.91
9258,52.48546,-1.725693,438.71,100.84,9.677419,143.6,16 / 23,4629054,2019-09-28 14:49:06:743,-0.2719,0.4356,10.202,0.3293,0.1233,9.8003,-0.0219,0.0448,0.0432,-24.81,-11.57,14.17,154.43,-1.92,-0.72
9259,52.48546,-1.725693,438.71,100.84,9.677419,143.6,16 / 23,4629553,2019-09-28 14:49:07:242,-0.2564,0.4302,9.4454,0.3053,0.1338,9.801,-0.0273,-0.0287,0.0272,-24.81,-11.57,14.6,154.35,-1.79,-0.84
9260,52.485252,-1.72544,438.71,102.1,9.677419,143.7,16 / 23,4630054,2019-09-28 14:49:07:743,1.5345,-0.5638,10.3115,0.3133,0.0566,9.8015,-0.0827,-0.0596,-0.0207,-25.19,-11.95,15.04,154.56,-1.75,-0.4
9261,52.485252,-1.72544,438.71,102.1,9.677419,143.7,16 / 23,4630554,2019-09-28 14:49:08:243,0.2177,-0.0912,9.8874,0.2958,0.0932,9.8017,0.0228,-0.0127,-0.0037,-25.56,-13.01,16.29,153.51,-1.76,-0.69
9262,52.485043,-1.725204,438.71,100.33,9.677419,143.7,17 / 23,4631055,2019-09-28 14:49:08:744,0.8068,0.1065,9.7206,0.3651,0.033,9.7998,0.0516,-0.0159,-0.041,-23.37,-24.45,1.1,133.8,-2.13,-0.19
9263,52.485043,-1.725204,438.71,100.33,9.677419,143.7,17 / 23,4631554,2019-09-28 14:49:09:243,1.2645,-0.5515,11.2155,0.3423,0.0688,9.8004,0.0068,-0.0756,-0.0293,-27.37,-11.57,15.1,156.24,-2.06,-0.43
9264,52.484844,-1.72496,438.71,100.73,9.677419,143.7,17 / 23,4632055,2019-09-28 14:49:09:744,0.4651,0.3011,10.0104,0.3502,0.0843,9.8,-0.007,0.0448,-0.0101,-24.81,-11.2,14.6,156.47,-2.04,-0.43
9265,52.484844,-1.72496,438.71,100.73,9.677419,143.7,17 / 23,4632553,2019-09-28 14:49:10:242,0.7365,0.0196,9.9758,0.3939,0.05,9.7986,0.009,0.032,-0.0165,-25.56,-11.51,13.79,155.54,-2.3,-0.29
9266,52.48465,-1.724722,438.71,99.76,9.677419,143.6,17 / 23,4633053,2019-09-28 14:49:10:742,0.5013,0.2639,9.9181,0.3655,0.0556,9.7997,0.009,0.0022,-0.0175,-25.19,-11.2,13.79,157.31,-2.23,-0.36
9267,52.48465,-1.724722,438.71,99.76,9.677419,143.6,17 / 23,4633554,2019-09-28 14:49:11:243,0.4076,0.2551,10.2779,0.3811,0.045,9.7991,-0.0411,-0.034,0.0347,-25.19,-11.51,13.85,154.69,-2.18,-0.28
9268,52.48444,-1.724479,438.71,100.87,9.677419,143.5,17 / 23,4634054,2019-09-28 14:49:11:743,0.4281,-0.7812,7.9437,0.3099,0.065,9.8015,0.0026,-0.0905,-0.0442,-25.19,-11.88,14.67,154.69,-1.98,-0.23
9269,52.48444,-1.724479,438.71,100.87,9.677419,143.5,17 / 23,4634554,2019-09-28 14:49:12:243,0.4056,0.3056,8.4641,0.3372,0.0125,9.8008,-0.0251,0.0192,0.0304,-24.81,-11.2,14.23,156.59,-2.1,-0.17
9270,52.484238,-1.724227,438.71,100.76,9.677419,143.4,17 / 23,4635054,2019-09-28 14:49:12:743,1.0996,0.4497,9.9358,0.3475,0.0519,9.8004,0.0164,-0.033,-0.0154,-24.81,-11.51,13.85,154.64,-2.03,-0.3
9271,52.484238,-1.724227,438.71,100.76,9.677419,143.4,17 / 23,4635554,2019-09-28 14:49:13:243,0.2125,-0.1416,10.3094,0.3429,0.0669,9.8004,0.0217,0.0139,-0.0325,-25.19,-11.51,13.85,154.62,-1.96,-0.34
9272,52.48403,-1.723979,438.71,100.62,9.677419,143.3,17 / 23,4636054,2019-09-28 14:49:13:743,0.5048,0.1753,8.9,0.3401,0.0307,9.8007,0.0132,0.0065,0.0187,-24.81,-11.13,14.73,154.64,-2.11,-0.35
9273,52.48403,-1.723979,438.71,100.62,9.677419,143.3,17 / 23,4636553,2019-09-28 14:49:14:242,-0.2551,-0.3749,9.6328,0.3824,0.0618,9.799,0.0249,-0.0202,-0.0271,-24.81,-11.51,14.29,154.64,-2.18,-0.38
9274,52.483833,-1.723729,438.71,100.62,9.677419,143.3,17 / 23,4637054,2019-09-28 14:49:14:743,0.7064,-0.0618,10.0642,0.3364,0.0568,9.8007,0.0068,-0.0287,-0.0133,-24.81,-11.13,14.29,156.49,-2.01,-0.33
9275,52.483833,-1.723729,438.71,100.62,9.677419,143.3,17 / 23,4637553,2019-09-28 14:49:15:242,-0.2682,0.2401,9.9471,0.3338,0.1017,9.8004,0.0047,0.0001,0.0144,-25.19,-11.51,14.29,156.41,-1.91,-0.49
9276,52.48363,-1.723491,438.71,100.3,9.677419,143.2,17 / 23,4638053,2019-09-28 14:49:15:742,0.2987,0.0338,9.3555,0.2968,0.0097,9.8022,0.0079,0.0427,-0.0239,-23.83,-11.2,14.38,155.72,-1.73,-0.06
9277,52.48363,-1.723491,438.71,100.3,9.677419,143.2,17 / 23,4638553,2019-09-28 14:49:16:242,-0.2316,0.7752,9.3918,0.2746,0.0483,9.8027,0.0782,-0.0042,-0.0474,-24.44,-11.13,15.17,155.52,-1.67,-0.46
9278,52.483433,-1.723247,441.94,99.83,9.677419,143.3,16 / 23,4639053,2019-09-28 14:49:16:742,0.6893,0.0791,9.4111,0.2662,0.0179,9.803,-0.0091,-0.0372,-0.0325,-24.81,-11.51,14.29,154.66,-1.54,-0.05
9279,52.483433,-1.723247,441.94,99.83,9.677419,143.3,16 / 23,4639554,2019-09-28 14:49:17:243,0.769,-0.7053,10.0702,0.2472,-0.0358,9.8035,-0.0241,-0.0021,0.0283,-24.44,-11.51,13.85,153.86,-1.44,0.21
9280,52.483223,-1.723001,441.94,99.94,9.677419,143.1,16 / 23,4640054,2019-09-28 14:49:17:743,0.6787,0.0672,9.4435,0.2566,0.0,9.8033,0.0239,0.0672,0.0102,-24.81,-11.51,14.42,154.66,-1.53,-0.03
9281,52.483223,-1.723001,441.94,99.94,9.677419,143.1,16 / 23,4640554,2019-09-28 14:49:18:243,0.8263,1.1778,9.1335,0.2549,-0.0652,9.8031,-0.0294,-0.1842,0.0389,-24.81,-11.51,13.92,154.85,-1.49,0.38
9282,52.48303,-1.722753,441.94,99.58,9.677419,142.9,16 / 23,4641053,2019-09-28 14:49:18:742,0.1717,0.1135,9.7818,0.2684,-0.1021,9.8024,-0.0145,-0.0212,0.0102,-24.81,-11.51,14.79,154.99,-1.56,0.57
9283,52.48303,-1.722753,441.94,99.58,9.677419,142.9,16 / 23,4641553,2019-09-28 14:49:19:242,0.7386,-0.5864,8.9774,0.2917,-0.1887,9.8005,0.0399,0.0523,0.0006,-24.44,-11.13,14.42,156.25,-1.71,1.04
9284,52.482826,-1.722505,441.94,99.18,9.677419,142.5,16 / 23,4642054,2019-09-28 14:49:19:743,0.9036,-0.9608,9.8883,0.3118,-0.2593,9.7983,-0.0273,-0.0607,0.0272,-24.81,-11.88,15.17,155.51,-1.81,1.5
9285,52.482826,-1.722505,441.94,99.18,9.677419,142.5,16 / 23,4642554,2019-09-28 14:49:20:243,0.2945,-0.1914,9.1643,0.3637,-0.32,9.7947,0.0335,0.064,-0.0058,-24.81,-11.88,14.79,155.76,-2.13,1.87
9286,52.48263,-1.722247,445.16,99.18,9.677419,141.7,16 / 23,4643053,2019-09-28 14:49:20:742,0.3944,-0.5934,10.6542,0.3575,-0.4905,9.7879,-0.0177,-0.0244,0.0474,-24.06,-11.13,15.17,157.34,-2.13,2.8
9287,52.48263,-1.722247,445.16,99.18,9.677419,141.7,16 / 23,4643554,2019-09-28 14:49:21:243,-0.4104,-0.8081,10.287,0.3262,-0.4961,9.7887,-0.0134,-0.001,0.0261,-24.06,-11.13,14.79,157.4,-1.97,2.98
9288,52.482445,-1.721984,445.16,99.18,9.677419,140.7,15 / 23,4644054,2019-09-28 14:49:21:743,-0.1706,-0.2477,9.4566,0.2965,-0.4448,9.7921,0.0175,0.0395,-0.008,-24.44,-11.88,14.79,155.25,-1.78,2.7
9289,52.482445,-1.721984,445.16,99.18,9.677419,140.7,15 / 23,4644553,2019-09-28 14:49:22:242,0.7089,-0.5045,9.3306,0.2865,-0.3845,9.7949,-0.0443,-0.001,0.0592,-24.06,-11.88,14.79,154.98,-1.6,2.27
9290,52.482258,-1.721728,445.16,98.86,9.677419,139.6,15 / 23,4645054,2019-09-28 14:49:22:743,0.4592,0.5101,11.7746,0.3364,-0.3178,9.7957,-0.0166,0.0256,0.0453,-24.44,-11.88,13.92,154.71,-1.69,1.87
9291,52.482258,-1.721728,445.16,98.86,9.677419,139.6,15 / 23,4645553,2019-09-28 14:49:23:242,0.7205,-0.4011,9.562,0.3001,-0.3039,9.7973,0.0079,0.0821,0.0293,-23.82,-12.32,13.79,154.68,-1.71,1.81
9292,52.482067,-1.721469,445.16,98.57,9.677419,139.1,15 / 23,4646054,2019-09-28 14:49:23:743,0.0307,-0.0981,9.3626,0.3335,-0.358,9.7944,-0.0273,-0.018,0.0368,-23.82,-11.95,15.04,154.84,-1.91,1.85
9293,52.482067,-1.721469,445.16,98.57,9.677419,139.1,15 / 23,4646554,2019-09-28 14:49:24:243,0.2912,0.0848,9.0882,0.3831,-0.3811,9.7918,0.0068,0.0235,0.0165,-23.44,-11.57,15.04,154.19,-2.24,2.23
9294,52.481888,-1.721196,448.39,98.42,9.677419,138.3,16 / 23,4647054,2019-09-28 14:49:24:743,0.571,-0.755,10.0422,0.4355,-0.4283,9.7876,-0.0486,-0.0852,0.0432,-23.82,-11.57,14.66,155.34,-2.5,2.56
9295,52.481888,-1.721196,448.39,98.42,9.677419,138.3,16 / 23,4647554,2019-09-28 14:49:25:243,0.5279,0.2875,8.9753,0.4476,-0.457,9.7858,0.0068,-0.0415,-0.0037,-23.44,-11.57,16.29,154.65,-2.62,2.67
9296,52.481705,-1.720917,448.39,98.93,9.677419,137.4,16 / 23,4648053,2019-09-28 14:49:25:742,1.3549,-1.5026,9.5647,0.4805,-0.5284,9.7806,-0.006,0.032,0.0336,-23.82,-11.95,14.54,154.66,-2.75,2.88
9297,52.481705,-1.720917,448.39,98.93,9.677419,137.4,16 / 23,4648554,2019-09-28 14:49:26:243,1.0466,-0.3431,9.0705,0.5243,-0.5078,9.7795,0.0122,0.0789,0.0347,-23.44,-11.95,16.6,155.1,-3.09,2.98
9298,52.48153,-1.72063,448.39,99.36,9.677419,136.4,16 / 23,4649055,2019-09-28 14:49:26:744,0.3255,0.0893,9.9885,0.5174,-0.5225,9.779,-0.0379,-0.0596,0.0442,-22.76,-11.84,15.55,155.12,-3.12,3.26
9299,52.48153,-1.72063,448.39,99.36,9.677419,136.4,16 / 23,4649554,2019-09-28 14:49:27:243,0.1803,-0.6108,10.2332,0.5105,-0.4187,9.7844,-0.0017,0.0033,0.0261,-23.44,-13.07,14.04,152.45,-3.01,2.49
9300,52.481346,-1.720355,448.39,99.79,9.677419,135.3,17 / 23,4650054,2019-09-28 14:49:27:743,-0.3579,-0.109,10.6876,0.4829,-0.4291,9.7854,-0.0273,0.0086,0.0219,-21.52,-13.62,15.86,149.75,-2.78,2.52
9301,52.481346,-1.720355,448.39,99.79,9.677419,135.3,17 / 23,4650554,2019-09-28 14:49:28:243,0.4789,-0.7488,9.8772,0.4263,-0.4146,9.7886,-0.0315,0.0182,0.0187,-22.78,-12.71,14.81,152.42,-2.49,2.43
9302,52.48117,-1.720069,451.61,99.83,9.677419,134.6,17 / 23,4651053,2019-09-28 14:49:28:742,1.1117,-0.8992,10.0909,0.3922,-0.3736,9.7917,0.0164,0.0331,0.04,-23.13,-13.45,14.41,152.1,-2.3,2.11
9303,52.48117,-1.720069,451.61,99.83,9.677419,134.6,17 / 23,4651553,2019-09-28 14:49:29:242,-0.2728,0.2563,10.0766,0.3452,-0.3862,9.793,-0.0422,-0.0276,0.0656,-22.49,-13.51,14.55,149.27,-2.06,2.25
9304,52.481,-1.71977,451.61,99.79,9.677419,133.6,17 / 23,4652053,2019-09-28 14:49:29:742,0.2587,-0.377,9.6804,0.3473,-0.3491,9.7943,0.0409,0.0746,0.0123,-22.48,-13.13,14.91,152.05,-1.98,1.96
9305,52.481,-1.71977,451.61,99.79,9.677419,133.6,17 / 23,4652554,2019-09-28 14:49:30:243,-0.3406,-0.2243,10.8001,0.2842,-0.296,9.7981,0.0068,0.0437,0.0134,-22.75,-13.45,14.91,151.96,-1.73,1.9
9306,52.48083,-1.719465,451.61,99.4,9.677419,132.7,17 / 23,4653053,2019-09-28 14:49:30:742,-0.0941,-1.1438,9.8748,0.1652,-0.376,9.798,-0.0603,0.0299,0.0464,-22.49,-13.51,14.55,151.86,-1.27,2.14
9307,52.48083,-1.719465,451.61,99.4,9.677419,132.7,17 / 23,4653554,2019-09-28 14:49:31:243,0.0068,-0.0541,10.604,0.0943,-0.3723,9.7991,0.0122,-0.001,0.0197,-22.38,-13.82,14.54,148.79,-0.55,2.18
9308,52.480663,-1.719169,454.84,98.78,9.677419,132.1,17 / 23,4654053,2019-09-28 14:49:31:742,-0.2937,-0.2914,8.844,-0.0149,-0.3118,9.8017,-0.0166,-0.0042,0.0091,-22.3,-13.63,14.73,148.46,-0.04,1.84
9309,52.480663,-1.719169,454.84,98.78,9.677419,132.1,17 / 23,4654554,2019-09-28 14:49:32:243,-0.0553,-0.3057,8.4922,-0.0855,-0.3251,9.8009,-0.0081,0.0437,0.0293,-22.3,-13.63,14.73,148.32,0.5,1.9
9310,52.480503,-1.718869,454.84,97.6,9.677419,131.5,17 / 23,4655054,2019-09-28 14:49:32:743,-0.8267,-0.1036,10.4827,-0.1838,-0.2999,9.8003,-0.0496,0.0011,0.0229,-22.5,-14.46,13.59,149.24,0.98,1.86
9311,52.480503,-1.718869,454.84,97.6,9.677419,131.5,17 / 23,4655554,2019-09-28 14:49:33:243,-1.5589,0.1193,10.6204,-0.1936,-0.233,9.802,0.0292,-0.0777,-0.0399,-22.39,-13.77,14.46,147.74,1.11,1.19
9312,52.480354,-1.718569,454.84,95.54,9.677419,130.4,17 / 23,4656054,2019-09-28 14:49:33:743,-0.499,-0.243,9.8209,-0.237,-0.2706,9.8001,0.0122,-0.0117,0.0027,-22.04,-14.79,13.98,145.99,1.38,1.58
9313,52.480354,-1.718569,454.84,95.54,9.677419,130.4,17 / 23,4656554,2019-09-28 14:49:34:243,-0.213,-0.6745,9.7032,-0.2435,-0.2336,9.8008,0.042,-0.0255,0.0059,-22.29,-14.25,14.14,145.88,1.62,1.52
9314,52.48021,-1.718274,454.84,93.64,9.677419,129.8,17 / 23,4657054,2019-09-28 14:49:34:743,0.1323,-0.0347,9.731,-0.2391,-0.2722,9.8,0.0217,-0.001,-0.0101,-21.72,-15.21,14.03,145.91,1.57,1.56
9315,52.48021,-1.718274,454.84,93.64,9.677419,129.8,17 / 23,4657554,2019-09-28 14:49:35:243,0.0376,-0.0046,9.5692,-0.2861,-0.2539,9.7992,0.0516,0.0608,-0.0175,-22.3,-14.44,13.94,147.66,1.71,1.41
9316,52.48006,-1.717977,451.61,91.87,9.677419,129.2,17 / 23,4658053,2019-09-28 14:49:35:742,-0.71,-0.1945,9.8211,-0.252,-0.2726,9.7996,-0.0081,-0.0202,0.0176,-21.68,-14.42,14.89,147.91,1.43,1.76
9317,52.48006,-1.717977,451.61,91.87,9.677419,129.2,17 / 23,4658554,2019-09-28 14:49:36:243,-0.2407,-0.9422,10.9035,-0.2086,-0.2338,9.8016,-0.0305,0.0299,0.0453,-21.42,-15.0,14.71,144.68,1.31,1.4
9318,52.47992,-1.717691,448.39,90.04,9.677419,128.5,17 / 23,4659053,2019-09-28 14:49:36:742,-0.5019,-0.4995,9.1912,-0.2009,-0.2301,9.8019,0.0217,-0.017,0.0229,-21.5,-14.55,15.03,144.73,1.06,1.31
9319,52.47992,-1.717691,448.39,90.04,9.677419,128.5,17 / 23,4659553,2019-09-28 14:49:37:242,-0.7913,-0.9637,10.5936,-0.1762,-0.2835,9.801,0.0132,0.0001,0.0059,-21.3,-14.95,14.93,146.1,1.14,1.67
9320,52.479782,-1.717402,448.39,88.85,9.677419,127.8,17 / 23,4660053,2019-09-28 14:49:37:742,0.0255,-0.3133,10.2728,-0.1706,-0.2979,9.8006,0.0111,0.0001,-0.0165,-20.99,-15.52,14.78,143.13,1.02,1.72
9321,52.479782,-1.717402,448.39,88.85,9.677419,127.8,17 / 23,4660554,2019-09-28 14:49:38:243,-0.6657,-0.5667,8.5448,-0.1587,-0.3739,9.7982,0.0015,0.032,0.0464,-21.13,-15.23,14.88,145.14,0.85,2.01
9322,52.47965,-1.717113,448.39,87.95,12.903226,127.2,17 / 23,4661054,2019-09-28 14:49:38:743,0.1723,-0.7208,10.7062,-0.1722,-0.3774,9.7979,0.0047,-0.0937,-0.0325,-21.08,-15.88,14.26,143.31,0.97,2.17
9323,52.47965,-1.717113,448.39,87.95,12.903226,127.2,17 / 23,4661554,2019-09-28 14:49:39:243,0.0846,-0.1677,9.4195,-0.1338,-0.3408,9.7998,0.0303,-0.017,-0.025,-20.97,-15.5,14.83,143.39,0.72,2.05
9324,52.47952,-1.716828,448.39,86.87,16.129032,126.3,17 / 23,4662054,2019-09-28 14:49:39:743,-0.5431,0.1571,10.5542,-0.1483,-0.3277,9.8001,0.0313,-0.0244,-0.008,-20.7,-15.5,15.2,145.09,0.87,1.92
9325,52.47952,-1.716828,448.39,86.87,16.129032,126.3,17 / 23,4662554,2019-09-28 14:49:40:243,0.3754,0.1029,9.5146,-0.1298,-0.2401,9.8029,-0.0123,-0.001,0.0187,-20.65,-15.94,14.81,143.15,0.72,1.53
9326,52.479416,-1.716555,448.39,84.06,19.35484,124.9,17 / 23,4663054,2019-09-28 14:49:40:743,0.1608,0.0367,10.1972,-0.1227,-0.2019,9.8038,0.0345,0.0374,-0.0133,-20.43,-16.47,14.54,141.66,0.7,1.25
9327,52.479317,-1.716286,451.61,81.4,16.129032,124.4,17 / 23,4663553,2019-09-28 14:49:41:242,-0.0339,-0.1834,9.8866,-0.1279,-0.2046,9.8037,-0.039,-0.0276,0.0293,-20.63,-15.93,14.86,143.02,0.74,1.26
9328,52.479317,-1.716286,451.61,81.4,16.129032,124.4,17 / 23,4664054,2019-09-28 14:49:41:743,-0.3396,-0.1144,9.7263,-0.0564,-0.1699,9.805,0.0004,0.0235,-0.0101,-20.65,-15.94,14.81,141.64,0.46,1.02
9329,52.47921,-1.716003,454.84,80.42,16.129032,123.5,17 / 23,4664554,2019-09-28 14:49:42:243,0.0396,-0.675,10.047,-0.047,-0.1504,9.8054,-0.0006,-0.0425,0.0251,-20.55,-16.17,14.7,142.96,0.37,0.85
9330,52.47921,-1.716003,454.84,80.42,16.129032,123.5,17 / 23,4665053,2019-09-28 14:49:42:742,-0.2935,0.5602,9.2339,0.037,-0.1604,9.8053,0.0409,0.0022,-0.0239,-20.34,-16.32,14.83,141.86,-0.22,0.94
9331,52.47921,-1.716003,454.84,80.42,16.129032,123.5,17 / 23,4665553,2019-09-28 14:49:43:242,-0.1674,-0.0189,9.0422,0.068,-0.1724,9.8049,-0.0134,0.0065,0.0261,-20.34,-16.32,14.83,141.99,-0.45,1.05
9332,52.4791,-1.715725,454.84,79.45,16.129032,123.0,17 / 23,4666055,2019-09-28 14:49:43:744,0.7765,-0.5928,10.8557,0.003,-0.2511,9.8034,-0.0091,0.0022,0.0272,-20.35,-15.93,15.24,141.95,0.18,1.44
9333,52.4791,-1.715725,454.84,79.45,16.129032,123.0,17 / 23,4666554,2019-09-28 14:49:44:243,-0.3967,-0.7811,10.1484,-0.1114,-0.2766,9.8021,0.026,-0.0021,-0.0165,-20.02,-16.33,15.24,141.85,0.65,1.62
9334,52.478996,-1.715461,454.84,77.98,12.903226,122.0,17 / 23,4667054,2019-09-28 14:49:44:743,-0.2984,-0.3342,10.1367,-0.279,-0.2317,9.7999,-0.0049,0.0416,0.0272,-19.89,-16.22,15.54,141.52,1.38,1.49
9335,52.478996,-1.715461,454.84,77.98,12.903226,122.0,17 / 23,4667553,2019-09-28 14:49:45:242,-0.6055,-0.073,10.888,-0.3855,-0.2035,9.797,-0.0262,0.031,0.0315,-19.7,-16.07,15.92,141.0,2.29,1.24
9336,52.478897,-1.715186,454.84,75.78,12.903226,121.3,17 / 23,4668054,2019-09-28 14:49:45:743,0.7494,-1.122,10.3581,-0.4354,-0.1886,9.7952,-0.0699,-0.0298,0.0411,-19.5,-16.23,16.01,140.92,2.35,1.11
9337,52.478897,-1.715186,454.84,75.78,12.903226,121.3,17 / 23,4668554,2019-09-28 14:49:46:243,0.152,-0.565,10.5525,-0.3973,-0.1414,9.7976,-0.0102,0.0512,0.0134,-19.86,-16.2,15.58,140.79,2.32,0.83
9338,52.47881,-1.714929,454.84,72.9,12.903226,120.7,16 / 22,4669054,2019-09-28 14:49:46:743,-0.7502,0.2692,9.1115,-0.2607,-0.077,9.8029,-0.0283,0.0224,0.0347,-19.86,-15.34,16.44,142.67,1.69,0.42
9339,52.47881,-1.714929,454.84,72.9,12.903226,120.7,16 / 22,4669554,2019-09-28 14:49:47:243,0.1787,0.6805,9.8292,-0.168,-0.0532,9.8051,0.0548,0.0054,-0.0175,-19.63,-14.38,17.55,142.77,1.29,0.3
9340,52.478718,-1.714682,454.84,69.59,12.903226,120.7,17 / 23,4670053,2019-09-28 14:49:47:742,0.304,0.3265,9.423,0.0907,-0.0507,9.8061,0.0047,0.0065,0.0293,-18.04,-15.99,17.86,138.69,-0.34,0.28
9341,52.478718,-1.714682,454.84,69.59,12.903226,120.7,17 / 23,4670554,2019-09-28 14:49:48:243,0.6006,-0.415,11.3675,0.2292,-0.0319,9.8039,-0.0017,0.0405,0.0187,-19.56,-16.03,16.13,141.86,-1.19,0.14
9342,52.47864,-1.714442,454.84,69.66,12.903226,120.3,16 / 23,4671053,2019-09-28 14:49:48:742,0.0861,0.1779,9.931,0.2522,-0.0157,9.8034,-0.0123,0.0065,0.0261,-19.42,-16.95,15.35,140.24,-1.47,0.16
9343,52.47864,-1.714442,454.84,69.66,12.903226,120.3,16 / 23,4671561,2019-09-28 14:49:49:250,0.309,-0.7351,9.1497,0.2533,-0.088,9.803,0.0324,0.0001,-0.009,-19.56,-16.68,15.46,138.95,-1.48,0.34
9344,52.478554,-1.714184,454.84,70.88,12.903226,119.5,16 / 23,4672053,2019-09-28 14:49:49:742,0.1571,0.0544,10.5621,0.2448,-0.085,9.8032,0.0004,0.0384,0.0336,-19.19,-16.71,15.89,138.99,-1.33,0.55
