,GPS LATITUDE (degrees),GPS LONGITUDE (degrees), GPS ALTITUDE (m),GPS SPEED (Kmh),GPS ACCURACY (m),GPS ORIENTATION (Â°), SATELLITES IN RANGE, TIME SINCE START (ms), DATE (YYYY-MO-DD HH-MI-SS_SSS),ACCELEROMETER X (m/s²) , ACCELEROMETER Y (m/s²), ACCELEROMETER Z (m/s²), GRAVITY X (m/s²), GRAVITY Y (m/s²), GRAVITY Z (m/s²), GYROSCOPE Yaw (rad/s), GYROSCOPE Pitch (rad/s), GYROSCOPE Roll (rad/s)
73917,46.419487,-0.557591,102.06,30.88,3.216,56.5,16 / 17,7391255,2019-08-09 22:17:19:993,0.5347,0.6813,10.093,-0.7767,0.0468,9.7757,-0.0025,0.0054,-0.0096
73918,46.419487,-0.557591,102.06,30.88,3.216,56.5,16 / 17,7391355,2019-08-09 22:17:20:093,-0.1872,-0.013,9.5759,-0.7603,0.0445,9.777,-0.0024,0.0126,-0.039
73919,46.419487,-0.557591,102.06,30.88,3.216,56.5,16 / 17,7391455,2019-08-09 22:17:20:193,1.6019,0.3323,9.9679,-0.7801,0.049,9.7755,0.0018,-0.0107,-0.0147
73920,46.419487,-0.557591,102.06,30.88,3.216,56.5,16 / 17,7391555,2019-08-09 22:17:20:293,-3.2691,0.5753,9.4005,-0.769,0.051,9.7763,0.0029,0.0137,-0.0264
73921,46.419487,-0.557591,102.06,30.88,3.216,56.5,17 / 18,7391655,2019-08-09 22:17:20:393,-3.4642,0.361,9.6022,-0.7716,0.0665,9.776,-0.0072,-0.0251,0.0
73922,46.419487,-0.557591,102.06,30.88,3.216,56.5,17 / 18,7391758,2019-08-09 22:17:20:496,-1.9098,0.5741,10.3947,-0.7698,0.068,9.7762,0.0132,0.0447,-0.0491
73923,46.419487,-0.557591,102.06,30.88,3.216,56.5,17 / 18,7391855,2019-08-09 22:17:20:593,-0.7127,0.4616,9.5088,-0.7828,0.0894,9.775,-0.0005,-0.03,-0.0093
73924,46.419487,-0.557591,102.06,30.88,3.216,56.5,17 / 18,7391955,2019-08-09 22:17:20:693,-2.2258,-0.1387,9.1012,-0.7771,0.0953,9.7753,0.0071,-0.0013,-0.0298
73925,46.419487,-0.557591,102.06,30.88,3.216,56.5,17 / 18,7392055,2019-08-09 22:17:20:793,0.1169,0.5059,9.9482,-0.7773,0.1004,9.7753,-0.0071,-0.0327,-0.0123
73926,46.419487,-0.557591,102.06,30.88,3.216,56.5,17 / 18,7392155,2019-08-09 22:17:20:893,-2.7023,0.0426,9.4771,-0.7793,0.1124,9.775,0.0034,-0.0032,-0.0082
73927,46.419487,-0.557591,102.06,30.88,3.216,56.5,17 / 18,7392255,2019-08-09 22:17:20:993,-1.7554,0.4604,10.5048,-0.7732,0.1135,9.7755,0.0017,0.0543,-0.0291
73928,46.419487,-0.557591,102.06,30.88,3.216,56.5,17 / 18,7392355,2019-08-09 22:17:21:093,-0.8803,-0.1196,10.1828,-0.7987,0.1073,9.7735,-0.0073,0.0355,0.0136
73929,46.419487,-0.557591,102.06,30.88,3.216,56.5,17 / 18,7392455,2019-08-09 22:17:21:193,-0.596,0.1737,9.1126,-0.7853,0.1078,9.7746,0.0218,0.019,0.0047
73930,46.419487,-0.557591,102.06,30.88,3.216,56.5,17 / 18,7392555,2019-08-09 22:17:21:293,-1.021,0.7507,10.0775,-0.8012,0.1192,9.7731,-0.0021,-0.0167,-0.0328
73931,46.419487,-0.557591,102.06,30.88,3.216,56.5,17 / 18,7392655,2019-08-09 22:17:21:393,-1.8936,0.0648,9.8518,-0.7519,0.1241,9.777,-0.0151,0.0277,-0.0275
73932,46.419487,-0.557591,102.06,30.88,3.216,56.5,17 / 18,7392755,2019-08-09 22:17:21:493,1.1212,0.3257,9.7507,-0.7558,0.1107,9.7769,-0.0101,-0.0206,0.0549
73933,46.419487,-0.557591,102.06,30.88,3.216,56.5,17 / 18,7392855,2019-08-09 22:17:21:593,0.549,-0.3046,9.7165,-0.7847,0.0873,9.7748,0.0099,0.0023,0.0201
73934,46.419487,-0.557591,102.06,30.88,3.216,56.5,17 / 18,7392955,2019-08-09 22:17:21:693,1.129,0.1162,9.3903,-0.7773,0.0923,9.7754,0.0137,0.0081,0.0163
73935,46.419487,-0.557591,102.06,30.88,3.216,56.5,17 / 18,7393055,2019-08-09 22:17:21:793,-1.6494,-0.1621,9.5603,-0.7527,0.1022,9.7772,0.0137,0.0081,0.0163
73936,46.419487,-0.557591,102.06,30.88,3.216,56.5,17 / 18,7393155,2019-08-09 22:17:21:893,-1.5668,-0.1495,10.108,-0.7811,0.0806,9.7752,-0.0156,0.0334,0.0073
73937,46.419487,-0.557591,102.06,30.88,3.216,56.5,17 / 18,7393255,2019-08-09 22:17:21:993,-2.2145,-0.3177,10.0469,-0.7476,0.0676,9.7779,0.0024,0.0222,-0.0218
73938,46.419487,-0.557591,102.06,30.88,3.216,56.5,17 / 18,7393355,2019-08-09 22:17:22:093,-0.5834,-0.4015,10.1265,-0.7586,0.0542,9.7771,0.0012,0.0029,0.0285
73939,46.419487,-0.557591,102.06,30.88,3.216,56.5,17 / 18,7393455,2019-08-09 22:17:22:193,-1.1413,-0.4111,9.9218,-0.7568,0.0394,9.7773,-0.0093,0.03,-0.0157
73940,46.419487,-0.557591,102.06,30.88,3.216,56.5,17 / 18,7393555,2019-08-09 22:17:22:293,-0.6798,-0.4751,9.4556,-0.7452,0.0292,9.7782,0.0098,0.0062,-0.0276
73941,46.42084,-0.5545,102.02,31.54,3.216,59.7,17 / 18,7393655,2019-08-09 22:17:22:393,-0.5834,0.1953,9.677,-0.7405,0.0297,9.7786,0.0061,0.0512,0.0066
73942,46.42084,-0.5545,102.02,31.54,3.216,59.7,17 / 18,7393755,2019-08-09 22:17:22:493,-1.847,-0.3225,8.9618,-0.7492,0.0214,9.778,0.0124,-0.004,0.0088
73943,46.42084,-0.5545,102.02,31.54,3.216,59.7,17 / 18,7393855,2019-08-09 22:17:22:593,-1.413,-0.2405,9.9937,-0.7591,0.0175,9.7772,0.0004,0.034,-0.0073
73944,46.42084,-0.5545,102.02,31.54,3.216,59.7,17 / 18,7393955,2019-08-09 22:17:22:693,0.1767,0.2826,9.9123,-0.7485,0.0127,9.778,-0.0056,-0.0128,0.0192
73945,46.42084,-0.5545,102.02,31.54,3.216,59.7,17 / 18,7394055,2019-08-09 22:17:22:793,0.3431,-0.1998,9.4933,-0.7641,0.0038,9.7768,0.0059,-0.0151,0.0105
73946,46.42084,-0.5545,102.02,31.54,3.216,59.7,17 / 18,7394155,2019-08-09 22:17:22:893,-1.2029,0.2078,10.4091,-0.7553,0.0085,9.7775,-0.0048,0.0137,-0.0109
73947,46.42084,-0.5545,102.02,31.54,3.216,59.7,17 / 18,7394255,2019-08-09 22:17:22:993,-0.1848,-0.0023,9.7046,-0.7392,0.005,9.7788,-0.0051,-0.0373,0.0196
73948,46.42084,-0.5545,102.02,31.54,3.216,59.7,17 / 18,7394355,2019-08-09 22:17:23:093,-0.5176,0.051,9.6519,-0.7373,0.0096,9.7789,0.0053,0.0367,-0.0313
73949,46.42084,-0.5545,102.02,31.54,3.216,59.7,17 / 18,7394455,2019-08-09 22:17:23:193,0.4197,0.3509,10.0858,-0.7238,0.0143,9.7799,-0.0139,0.025,-0.0005
73950,46.42084,-0.5545,102.02,31.54,3.216,59.7,17 / 18,7394555,2019-08-09 22:17:23:293,-2.2851,-0.2543,9.7034,-0.7302,-0.0032,9.7794,-0.0047,-0.027,-0.0059
73951,46.42084,-0.5545,102.02,31.54,3.216,59.7,17 / 18,7394655,2019-08-09 22:17:23:393,-2.096,-0.4835,9.0647,-0.7169,-0.001,9.7804,0.0061,-0.0041,0.0077
73952,46.42084,-0.5545,102.02,31.54,3.216,59.7,17 / 18,7394755,2019-08-09 22:17:23:493,-0.1243,0.1767,10.1104,-0.7268,-0.0019,9.7797,-0.0089,0.0244,-0.0127
73953,46.42084,-0.5545,102.02,31.54,3.216,59.7,17 / 18,7394855,2019-08-09 22:17:23:593,-1.9421,-0.1064,9.9584,-0.7201,-0.0099,9.7802,-0.0117,-0.0178,-0.0018
73954,46.42084,-0.5545,102.02,31.54,3.216,59.7,17 / 18,7394955,2019-08-09 22:17:23:693,-0.9192,-0.0615,9.3101,-0.7138,0.0051,9.7806,0.0209,0.0058,-0.0076
73955,46.42084,-0.5545,102.02,31.54,3.216,59.7,17 / 18,7395054,2019-08-09 22:17:23:792,0.7897,-0.1304,9.683,-0.7101,0.0151,9.7809,0.0033,-0.0116,-0.027
73956,46.42084,-0.5545,102.02,31.54,3.216,59.7,17 / 18,7395155,2019-08-09 22:17:23:893,-0.8905,0.3,9.6675,-0.7002,0.015,9.7816,-0.0003,-0.0339,-0.0033
73957,46.42084,-0.5545,102.02,31.54,3.216,59.7,17 / 18,7395255,2019-08-09 22:17:23:993,-0.5002,-0.11,9.592,-0.7068,0.0203,9.7811,0.004,0.0741,-0.0432
73958,46.42084,-0.5545,102.02,31.54,3.216,59.7,17 / 18,7395355,2019-08-09 22:17:24:093,-0.3404,0.3102,10.3061,-0.7294,0.0282,9.7794,-0.0137,-0.0202,0.0036
73959,46.42084,-0.5545,102.02,31.54,3.216,59.7,17 / 18,7395455,2019-08-09 22:17:24:193,-1.9002,-0.3901,9.2658,-0.6843,0.0329,9.7827,0.0037,0.0089,-0.0193
73960,46.42084,-0.5545,102.02,31.54,3.216,59.7,17 / 18,7395554,2019-08-09 22:17:24:292,-0.3739,0.2665,9.8985,-0.7045,0.0311,9.7813,-0.0003,-0.0027,-0.0184
73961,46.42084,-0.5545,102.02,31.54,3.216,59.7,18 / 19,7395654,2019-08-09 22:17:24:392,0.5951,0.0636,9.6399,-0.6834,0.0312,9.7828,0.0037,-0.0018,0.0184
73962,46.42084,-0.5545,102.02,31.54,3.216,59.7,18 / 19,7395754,2019-08-09 22:17:24:492,-1.4866,-0.2489,9.9015,-0.6945,0.0266,9.782,-0.0033,-0.0169,0.0154
73963,46.42084,-0.5545,102.02,31.54,3.216,59.7,18 / 19,7395855,2019-08-09 22:17:24:593,-1.9607,-0.5913,9.3335,-0.6943,0.0062,9.782,-0.0078,0.0058,0.0086
73964,46.42084,-0.5545,102.02,31.54,3.216,59.7,18 / 19,7395954,2019-08-09 22:17:24:692,0.6759,-0.0741,9.8069,-0.6813,0.003,9.783,0.0024,-0.0059,0.0009
73965,46.42084,-0.5545,102.02,31.54,3.216,59.7,18 / 19,7396054,2019-08-09 22:17:24:792,0.5371,-0.3883,10.1188,-0.672,-0.0015,9.7836,-0.0008,0.0285,0.0159
73966,46.42084,-0.5545,102.02,31.54,3.216,59.7,18 / 19,7396154,2019-08-09 22:17:24:892,0.3042,-0.2603,9.9745,-0.6635,-0.0125,9.7842,0.0012,0.0233,0.0073
73967,46.42084,-0.5545,102.02,31.54,3.216,59.7,18 / 19,7396255,2019-08-09 22:17:24:993,-0.1944,-0.3596,9.2413,-0.6436,-0.0156,9.7855,0.0099,-0.0356,0.0014
73968,46.42084,-0.5545,102.02,31.54,3.216,59.7,18 / 19,7396355,2019-08-09 22:17:25:093,0.1624,0.1785,10.3552,-0.6639,-0.0164,9.7841,-0.0161,-0.0139,0.0282
73969,46.42084,-0.5545,102.02,31.54,3.216,59.7,18 / 19,7396455,2019-08-09 22:17:25:193,-1.173,-0.5458,9.3754,-0.6545,-0.0389,9.7847,0.0181,-0.0065,-0.0197
73970,46.42084,-0.5545,102.02,31.54,3.216,59.7,18 / 19,7396555,2019-08-09 22:17:25:293,1.2398,0.3257,9.7518,-0.6477,-0.0348,9.7852,0.0049,0.0233,0.0007
73971,46.42084,-0.5545,102.02,31.54,3.216,59.7,18 / 19,7396655,2019-08-09 22:17:25:393,1.2314,-0.2531,9.1653,-0.6247,-0.0367,9.7867,-0.0085,-0.0666,0.0108
73972,46.42084,-0.5545,102.02,31.54,3.216,59.7,18 / 19,7396755,2019-08-09 22:17:25:493,1.0931,0.1671,9.3083,-0.6576,-0.0401,9.7845,-0.0009,0.0756,-0.0103
73973,46.42084,-0.5545,102.02,31.54,3.216,59.7,18 / 19,7396855,2019-08-09 22:17:25:593,-2.266,0.0223,10.0822,-0.6514,-0.0409,9.7849,-0.0031,0.0214,-0.0023
73974,46.42084,-0.5545,102.02,31.54,3.216,59.7,18 / 19,7396955,2019-08-09 22:17:25:693,-2.3402,-0.1573,9.862,-0.6507,-0.0348,9.785,0.0008,-0.0393,-0.0086
73975,46.42084,-0.5545,102.02,31.54,3.216,59.7,18 / 19,7397055,2019-08-09 22:17:25:793,0.5682,0.1186,9.4352,-0.6361,-0.0293,9.786,0.0128,-0.0182,-0.018
73976,46.42084,-0.5545,102.02,31.54,3.216,59.7,18 / 19,7397155,2019-08-09 22:17:25:893,-2.1594,0.3317,10.3043,-0.6607,-0.0181,9.7844,-0.0018,0.0337,-0.0121
73977,46.42084,-0.5545,102.02,31.54,3.216,59.7,18 / 19,7397254,2019-08-09 22:17:25:992,-1.4825,-0.1358,9.5962,-0.6446,-0.0136,9.7854,0.009,-0.0021,-0.0022
73978,46.42084,-0.5545,102.02,31.54,3.216,59.7,18 / 19,7397355,2019-08-09 22:17:26:093,-1.1449,-0.1765,9.1407,-0.6406,-0.0111,9.7857,-0.0039,0.0495,-0.0591
73979,46.42084,-0.5545,102.02,31.54,3.216,59.7,18 / 19,7397455,2019-08-09 22:17:26:193,0.4078,0.5681,10.3833,-0.6384,0.0026,9.7858,-0.0115,-0.0128,-0.0103
73980,46.42084,-0.5545,102.02,31.54,3.216,59.7,18 / 19,7397555,2019-08-09 22:17:26:293,0.9459,0.1001,9.938,-0.6294,0.0055,9.7864,0.0077,0.0072,0.0145
73981,46.42084,-0.5545,102.02,31.54,3.216,59.7,17 / 18,7397655,2019-08-09 22:17:26:393,0.6161,0.3898,9.953,-0.6457,0.0101,9.7854,0.0011,0.0193,-0.0028
73982,46.42084,-0.5545,102.02,31.54,3.216,59.7,17 / 18,7397755,2019-08-09 22:17:26:493,-2.1259,0.3156,9.5058,-0.6393,0.0166,9.7858,0.0094,-0.0593,-0.017
73983,46.42084,-0.5545,102.02,31.54,3.216,59.7,17 / 18,7397855,2019-08-09 22:17:26:593,-1.8248,0.6855,10.0846,-0.6224,0.0436,9.7868,0.0044,-0.0423,-0.0039
73984,46.42084,-0.5545,102.02,31.54,3.216,59.7,17 / 18,7397955,2019-08-09 22:17:26:693,-0.9378,0.5891,9.2419,-0.6322,0.0508,9.7861,0.013,-0.0133,-0.0173
73985,46.42084,-0.5545,102.02,31.54,3.216,59.7,17 / 18,7398055,2019-08-09 22:17:26:793,-0.2422,0.197,9.9236,-0.6367,0.0684,9.7857,-0.0015,0.0352,-0.0675
73986,46.42084,-0.5545,102.02,31.54,3.216,59.7,17 / 18,7398155,2019-08-09 22:17:26:893,0.7627,0.2743,9.7794,-0.6208,0.0823,9.7866,-0.0132,0.047,-0.0476
73987,46.42084,-0.5545,102.02,31.54,3.216,59.7,17 / 18,7398255,2019-08-09 22:17:26:993,-0.0543,0.2156,9.1503,-0.611,0.0884,9.7872,0.0128,-0.0604,0.0079
73988,46.42084,-0.5545,102.02,31.54,3.216,59.7,17 / 18,7398355,2019-08-09 22:17:27:093,-1.92,0.5071,9.9344,-0.6212,0.1009,9.7864,0.0103,0.0232,-0.018
73989,46.42084,-0.5545,102.02,31.54,3.216,59.7,17 / 18,7398455,2019-08-09 22:17:27:193,-2.1085,0.0899,9.8327,-0.6128,0.1049,9.7869,-0.0178,0.0285,-0.0314
73990,46.42084,-0.5545,102.02,31.54,3.216,59.7,17 / 18,7398555,2019-08-09 22:17:27:293,-0.0782,0.0552,9.537,-0.6298,0.0977,9.7859,-0.0044,-0.0103,-0.006
73991,46.42084,-0.5545,102.02,31.54,3.216,59.7,17 / 18,7398655,2019-08-09 22:17:27:393,-0.4296,0.2856,9.5908,-0.6324,0.0917,9.7858,-0.0119,-0.0382,-0.0219
73992,46.42084,-0.5545,102.02,31.54,3.216,59.7,17 / 18,7398756,2019-08-09 22:17:27:494,-1.5273,-0.1992,9.4077,-0.618,0.0999,9.7866,-0.0052,0.0068,-0.0105
73993,46.42084,-0.5545,102.02,31.54,3.216,59.7,17 / 18,7398855,2019-08-09 22:17:27:593,-2.9489,0.637,9.8536,-0.6492,0.1107,9.7845,0.0098,0.0176,-0.0267
73994,46.42084,-0.5545,102.02,31.54,3.216,59.7,17 / 18,7398955,2019-08-09 22:17:27:693,1.2146,0.3473,9.7453,-0.6359,0.1212,9.7853,-0.0092,0.0236,-0.0376
73995,46.42084,-0.5545,102.02,31.54,3.216,59.7,17 / 18,7399055,2019-08-09 22:17:27:793,-0.763,0.0971,9.1413,-0.6284,0.125,9.7857,0.0102,0.0432,-0.0411
73996,46.42084,-0.5545,102.02,31.54,3.216,59.7,17 / 18,7399155,2019-08-09 22:17:27:893,-2.1816,0.1773,9.9236,-0.6431,0.1433,9.7845,0.0042,-0.0237,-0.0054
73997,46.42084,-0.5545,102.02,31.54,3.216,59.7,17 / 18,7399255,2019-08-09 22:17:27:993,-1.9792,-0.0214,9.437,-0.6325,0.1399,9.7852,-0.0095,-0.0396,0.0028
73998,46.42084,-0.5545,102.02,31.54,3.216,59.7,17 / 18,7399355,2019-08-09 22:17:28:093,0.0528,0.2138,9.7411,-0.6373,0.1275,9.7851,-0.0063,-0.0056,0.024
73999,46.42084,-0.5545,102.02,31.54,3.216,59.7,17 / 18,7399454,2019-08-09 22:17:28:192,-2.0002,-0.1663,9.7327,-0.6488,0.1205,9.7844,-0.016,0.0052,0.0027
74000,46.42084,-0.5545,102.02,31.54,3.216,59.7,17 / 18,7399555,2019-08-09 22:17:28:293,-0.5457,-0.359,8.8085,-0.6393,0.093,9.7853,-0.018,0.0007,0.0099
74001,46.42084,-0.5545,102.02,31.54,3.216,59.7,15 / 16,7399655,2019-08-09 22:17:28:393,-0.9258,0.042,10.3103,-0.6435,0.0762,9.7852,-0.0164,-0.0145,0.0164
74002,46.42084,-0.5545,102.02,31.54,3.216,59.7,15 / 16,7399756,2019-08-09 22:17:28:494,-0.3997,-0.5871,9.9583,-0.6549,0.0486,9.7846,-0.0114,0.0153,0.0131
74003,46.42084,-0.5545,102.02,31.54,3.216,59.7,15 / 16,7399855,2019-08-09 22:17:28:593,-0.2345,-0.6948,10.1104,-0.6384,0.0331,9.7858,-0.0022,0.0316,0.043
74004,46.42084,-0.5545,102.02,31.54,3.216,59.7,15 / 16,7399955,2019-08-09 22:17:28:693,0.239,-0.3207,9.1772,-0.6516,0.0204,9.785,0.0003,-0.0342,-0.0119
74005,46.42084,-0.5545,102.02,31.54,3.216,59.7,15 / 16,7400055,2019-08-09 22:17:28:793,0.9614,-0.1028,9.537,-0.6543,0.0167,9.7848,0.0036,0.0146,-0.0033
74006,46.42084,-0.5545,102.02,31.54,3.216,59.7,15 / 16,7400155,2019-08-09 22:17:28:893,-0.9084,-0.1579,9.9374,-0.6476,-0.0018,9.7852,-0.0027,0.0231,-0.0181
74007,46.42084,-0.5545,102.02,31.54,3.216,59.7,15 / 16,7400255,2019-08-09 22:17:28:993,-1.4441,-0.4093,9.3029,-0.6698,-0.0052,9.7837,-0.0038,-0.0008,0.0072
74008,46.42084,-0.5545,102.02,31.54,3.216,59.7,15 / 16,7400355,2019-08-09 22:17:29:093,-0.8624,0.0115,9.1593,-0.6557,-0.02,9.7847,-0.0004,0.0308,0.0224
74009,46.42084,-0.5545,102.02,31.54,3.216,59.7,15 / 16,7400455,2019-08-09 22:17:29:193,-0.8522,-0.0651,9.2126,-0.6942,-0.0314,9.782,-0.0124,0.016,0.0104
74010,46.42084,-0.5545,102.02,31.54,3.216,59.7,15 / 16,7400555,2019-08-09 22:17:29:293,-0.356,-0.0526,9.3975,-0.6783,-0.0376,9.7831,-0.0051,-0.0253,-0.011
74011,46.42084,-0.5545,102.02,31.54,3.216,59.7,16 / 17,7400655,2019-08-09 22:17:29:393,-0.3242,-0.1298,9.701,-0.6764,-0.0422,9.7832,0.0126,-0.0193,0.033
74012,46.42084,-0.5545,102.02,31.54,3.216,59.7,16 / 17,7400755,2019-08-09 22:17:29:493,-0.4577,-0.3614,10.0541,-0.6796,-0.0384,9.783,0.009,-0.0406,0.004
74013,46.42084,-0.5545,102.02,31.54,3.216,59.7,16 / 17,7400855,2019-08-09 22:17:29:593,-0.2638,-0.0729,10.2433,-0.6918,-0.039,9.7821,-0.0112,-0.0759,-0.0124
74014,46.42084,-0.5545,102.02,31.54,3.216,59.7,16 / 17,7400955,2019-08-09 22:17:29:693,-0.7456,-0.1501,9.0509,-0.6791,-0.0399,9.783,0.0049,0.0326,0.0118
74015,46.42084,-0.5545,102.02,31.54,3.216,59.7,16 / 17,7401055,2019-08-09 22:17:29:793,0.2809,0.045,9.7884,-0.6734,-0.0412,9.7834,-0.0007,-0.0105,-0.0244
74016,46.42084,-0.5545,102.02,31.54,3.216,59.7,16 / 17,7401155,2019-08-09 22:17:29:893,0.9962,-0.2315,9.9015,-0.6831,-0.0509,9.7827,-0.0096,-0.006,0.0193
74017,46.42084,-0.5545,102.02,31.54,3.216,59.7,16 / 17,7401255,2019-08-09 22:17:29:993,-1.9182,-0.3153,9.4873,-0.6778,-0.0548,9.783,0.0004,-0.0146,0.0004
74018,46.42084,-0.5545,102.02,31.54,3.216,59.7,16 / 17,7401355,2019-08-09 22:17:30:093,-1.0946,0.3233,10.5186,-0.6918,-0.0432,9.7821,-0.0009,0.0025,-0.0078
74019,46.42084,-0.5545,102.02,31.54,3.216,59.7,16 / 17,7401455,2019-08-09 22:17:30:193,0.245,0.1234,9.5058,-0.6716,-0.0449,9.7835,-0.0015,-0.0266,-0.0355
74020,46.42084,-0.5545,102.02,31.54,3.216,59.7,16 / 17,7401555,2019-08-09 22:17:30:293,-2.8106,-0.4674,9.4406,-0.6801,-0.0551,9.7829,-0.0019,0.027,0.0027
74021,46.42084,-0.5545,102.02,31.54,3.216,59.7,18 / 19,7401654,2019-08-09 22:17:30:392,-0.5768,-0.2477,9.7518,-0.6766,-0.0574,9.7831,-0.0123,-0.0254,0.0031
74022,46.42084,-0.5545,102.02,31.54,3.216,59.7,18 / 19,7401755,2019-08-09 22:17:30:493,-0.523,-0.5595,9.2132,-0.6529,-0.0776,9.7846,-0.0154,0.0258,-0.0059
74023,46.42084,-0.5545,102.02,31.54,3.216,59.7,18 / 19,7401855,2019-08-09 22:17:30:593,0.2414,-0.4081,10.2977,-0.6884,-0.0904,9.782,-0.0124,-0.015,0.0023
74024,46.42084,-0.5545,102.02,31.54,3.216,59.7,18 / 19,7401954,2019-08-09 22:17:30:692,-0.5822,-0.4374,10.6174,-0.6914,-0.1172,9.7815,-0.0173,-0.0178,-0.0035
74025,46.42084,-0.5545,102.02,31.54,3.216,59.7,18 / 19,7402055,2019-08-09 22:17:30:793,-1.8781,-1.3047,9.7674,-0.6785,-0.1262,9.7823,0.018,0.0099,0.0425
74026,46.42084,-0.5545,102.02,31.54,3.216,59.7,18 / 19,7402155,2019-08-09 22:17:30:893,-0.3111,-0.3117,9.4149,-0.6786,-0.1202,9.7824,0.0175,-0.01,-0.018
74027,46.42084,-0.5545,102.02,31.54,3.216,59.7,18 / 19,7402255,2019-08-09 22:17:30:993,0.1079,-0.0963,9.7465,-0.6773,-0.1162,9.7825,0.0058,0.0213,0.0071
74028,46.42084,-0.5545,102.02,31.54,3.216,59.7,18 / 19,7402355,2019-08-09 22:17:31:093,0.4443,-0.5284,9.7662,-0.6849,-0.12,9.782,0.0051,0.0106,-0.0056
74029,46.42084,-0.5545,102.02,31.54,3.216,59.7,18 / 19,7402455,2019-08-09 22:17:31:193,-1.1137,-0.2812,9.7572,-0.687,-0.1218,9.7818,0.0044,-0.0225,-0.0095
74030,46.42084,-0.5545,102.02,31.54,3.216,59.7,18 / 19,7402555,2019-08-09 22:17:31:293,-0.8827,-0.2932,9.4286,-0.698,-0.1187,9.7811,-0.0019,0.0305,-0.0137
74031,46.422096,-0.551274,105.71,31.44,3.216,61.6,18 / 19,7402655,2019-08-09 22:17:31:393,0.9351,-0.2004,9.7058,-0.6855,-0.1158,9.782,0.0119,-0.0398,0.0066
74032,46.422096,-0.551274,105.71,31.44,3.216,61.6,18 / 19,7402754,2019-08-09 22:17:31:492,-2.9597,0.1324,9.9865,-0.7075,-0.1144,9.7804,-0.0003,0.0372,-0.0191
74033,46.422096,-0.551274,105.71,31.44,3.216,61.6,18 / 19,7402855,2019-08-09 22:17:31:593,-0.2806,-0.2249,9.9171,-0.6999,-0.1109,9.781,0.0036,0.0154,0.0058
74034,46.422096,-0.551274,105.71,31.44,3.216,61.6,18 / 19,7402955,2019-08-09 22:17:31:693,0.5359,0.2545,9.774,-0.7006,-0.1086,9.781,-0.0124,-0.0023,-0.0235
74035,46.422096,-0.551274,105.71,31.44,3.216,61.6,18 / 19,7403055,2019-08-09 22:17:31:793,-0.8037,-0.1549,9.5992,-0.6895,-0.1129,9.7817,-0.003,-0.028,0.0169
74036,46.422096,-0.551274,105.71,31.44,3.216,61.6,18 / 19,7403155,2019-08-09 22:17:31:893,0.0271,-0.1968,10.0188,-0.6923,-0.117,9.7815,-0.0032,-0.0059,-0.0259
74037,46.422096,-0.551274,105.71,31.44,3.216,61.6,18 / 19,7403255,2019-08-09 22:17:31:993,-0.0076,0.6196,10.1565,-0.7091,-0.1176,9.7803,-0.0077,0.0403,0.0039
74038,46.422096,-0.551274,105.71,31.44,3.216,61.6,18 / 19,7403355,2019-08-09 22:17:32:093,0.0319,-0.0609,9.27,-0.6944,-0.1119,9.7814,-0.0142,-0.051,-0.0144
74039,46.422096,-0.551274,105.71,31.44,3.216,61.6,18 / 19,7403455,2019-08-09 22:17:32:193,-0.508,-0.3057,9.2664,-0.7033,-0.1176,9.7807,0.0053,0.0341,-0.0381
74040,46.422096,-0.551274,105.71,31.44,3.216,61.6,18 / 19,7403555,2019-08-09 22:17:32:293,-0.268,-0.0603,10.0314,-0.7034,-0.11,9.7808,0.0004,0.029,0.0044
74041,46.422096,-0.551274,105.71,31.44,3.216,61.6,17 / 18,7403655,2019-08-09 22:17:32:393,-0.5463,-0.283,9.5962,-0.7009,-0.1087,9.781,-0.0028,-0.0045,-0.0051
74042,46.422096,-0.551274,105.71,31.44,3.216,61.6,17 / 18,7403755,2019-08-09 22:17:32:493,-1.0808,-0.21,9.0438,-0.6981,-0.1145,9.7811,0.0134,-0.0317,0.0132
74043,46.422096,-0.551274,105.71,31.44,3.216,61.6,17 / 18,7403855,2019-08-09 22:17:32:593,-0.274,0.4712,10.3773,-0.7148,-0.0996,9.7801,-0.0038,-0.0399,0.0217
74044,46.422096,-0.551274,105.71,31.44,3.216,61.6,17 / 18,7403955,2019-08-09 22:17:32:693,-1.2969,-0.2363,9.9272,-0.6879,-0.0966,9.782,0.0031,0.0145,-0.0117
74045,46.422096,-0.551274,105.71,31.44,3.216,61.6,17 / 18,7404055,2019-08-09 22:17:32:793,-0.1196,0.1611,9.6597,-0.7169,-0.0925,9.78,0.0108,-0.0298,0.0096
74046,46.422096,-0.551274,105.71,31.44,3.216,61.6,17 / 18,7404154,2019-08-09 22:17:32:892,-1.6285,-0.0412,9.7429,-0.7214,-0.0921,9.7796,-0.0017,0.0284,-0.015
74047,46.422096,-0.551274,105.71,31.44,3.216,61.6,17 / 18,7404254,2019-08-09 22:17:32:992,-2.4401,-0.2447,9.2455,-0.7086,-0.092,9.7806,0.0026,-0.044,0.0029
74048,46.422096,-0.551274,105.71,31.44,3.216,61.6,17 / 18,7404355,2019-08-09 22:17:33:093,1.1745,0.2006,9.8913,-0.7135,-0.0854,9.7803,0.0067,0.04,-0.0129
74049,46.422096,-0.551274,105.71,31.44,3.216,61.6,17 / 18,7404455,2019-08-09 22:17:33:193,0.4407,0.1815,10.0481,-0.714,-0.0842,9.7803,-0.0066,0.0258,-0.0143
74050,46.422096,-0.551274,105.71,31.44,3.216,61.6,17 / 18,7404555,2019-08-09 22:17:33:293,0.5993,0.1216,10.1768,-0.7074,-0.0819,9.7808,-0.0081,-0.0023,0.0031
74051,46.422096,-0.551274,105.71,31.44,3.216,61.6,18 / 19,7404655,2019-08-09 22:17:33:393,-1.5064,-0.3171,8.9079,-0.7151,-0.0865,9.7802,0.0017,-0.0046,0.0024
74052,46.422096,-0.551274,105.71,31.44,3.216,61.6,18 / 19,7404755,2019-08-09 22:17:33:493,-1.3442,0.0348,9.7824,-0.7058,-0.0811,9.7809,-0.0017,0.0521,-0.0186
74053,46.422096,-0.551274,105.71,31.44,3.216,61.6,18 / 19,7404856,2019-08-09 22:17:33:594,-1.6327,-0.3243,9.5064,-0.7217,-0.083,9.7797,0.0012,-0.0056,0.0042
74054,46.422096,-0.551274,105.71,31.44,3.216,61.6,18 / 19,7404955,2019-08-09 22:17:33:693,-0.76,-0.2567,9.534,-0.7156,-0.0843,9.7801,0.0116,-0.0077,-0.0078
74055,46.422096,-0.551274,105.71,31.44,3.216,61.6,18 / 19,7405055,2019-08-09 22:17:33:793,-0.5619,0.3676,10.1481,-0.7295,-0.0749,9.7792,-0.0024,-0.0037,0.004
74056,46.422096,-0.551274,105.71,31.44,3.216,61.6,18 / 19,7405155,2019-08-09 22:17:33:893,-0.669,-0.1537,10.4528,-0.7316,-0.0754,9.779,-0.0024,0.0354,-0.0055
74057,46.422096,-0.551274,105.71,31.44,3.216,61.6,18 / 19,7405255,2019-08-09 22:17:33:993,-2.7095,-0.1932,9.5058,-0.7363,-0.0707,9.7787,0.0108,0.0061,-0.0061
74058,46.422096,-0.551274,105.71,31.44,3.216,61.6,18 / 19,7405355,2019-08-09 22:17:34:093,-2.5365,0.0947,9.3891,-0.7259,-0.0636,9.7795,0.002,0.0249,-0.0273
74059,46.422096,-0.551274,105.71,31.44,3.216,61.6,18 / 19,7405455,2019-08-09 22:17:34:193,-0.9006,-0.0549,9.5352,-0.7168,-0.0687,9.7802,-0.0117,0.0527,0.0037
74060,46.422096,-0.551274,105.71,31.44,3.216,61.6,18 / 19,7405555,2019-08-09 22:17:34:293,0.3006,-0.0711,9.6788,-0.7002,-0.0788,9.7813,-0.0039,-0.0621,0.0202
74061,46.422096,-0.551274,105.71,31.44,3.216,61.6,17 / 19,7405654,2019-08-09 22:17:34:392,0.0307,0.1552,10.3025,-0.7248,-0.0799,9.7795,-0.0028,-0.0072,0.0165
74062,46.422096,-0.551274,105.71,31.44,3.216,61.6,17 / 19,7405755,2019-08-09 22:17:34:493,1.132,-0.4775,8.9145,-0.718,-0.0848,9.78,-0.0046,-0.0582,0.007
74063,46.422096,-0.551274,105.71,31.44,3.216,61.6,17 / 19,7405855,2019-08-09 22:17:34:593,-0.4224,-0.5655,7.4313,-0.7285,-0.0951,9.7791,-0.0148,-0.1128,-0.0222
74064,46.422096,-0.551274,105.71,31.44,3.216,61.6,17 / 19,7405955,2019-08-09 22:17:34:693,-1.2951,0.5622,10.9053,-0.7351,-0.1181,9.7783,-0.0354,0.1003,0.0132
74065,46.422096,-0.551274,105.71,31.44,3.216,61.6,17 / 19,7406055,2019-08-09 22:17:34:793,-1.3532,-0.608,10.7706,-0.6739,-0.143,9.7824,-0.0071,0.0327,0.0279
74066,46.422096,-0.551274,105.71,31.44,3.216,61.6,17 / 19,7406155,2019-08-09 22:17:34:893,-1.9224,-0.5326,10.4683,-0.7567,-0.1494,9.7763,0.0367,0.0089,-0.0053
74067,46.422096,-0.551274,105.71,31.44,3.216,61.6,17 / 19,7406255,2019-08-09 22:17:34:993,-0.1028,-0.432,10.5306,-0.7673,-0.1253,9.7758,0.0367,0.0089,-0.0053
74068,46.422096,-0.551274,105.71,31.44,3.216,61.6,17 / 19,7406355,2019-08-09 22:17:35:093,0.0014,-0.3273,8.7577,-0.7225,-0.079,9.7797,0.0422,-0.0284,0.0039
74069,46.422096,-0.551274,105.71,31.44,3.216,61.6,17 / 19,7406455,2019-08-09 22:17:35:193,1.0847,0.2886,9.5891,-0.7004,-0.0623,9.7814,-0.0008,0.0249,-0.0066
74070,46.422096,-0.551274,105.71,31.44,3.216,61.6,17 / 19,7406555,2019-08-09 22:17:35:293,-2.0594,0.0785,9.3658,-0.7107,-0.0699,9.7806,-0.0151,-0.0104,-0.011
74071,46.422096,-0.551274,105.71,31.44,3.216,61.6,17 / 19,7406655,2019-08-09 22:17:35:393,-0.9222,-0.0957,9.9889,-0.7261,-0.086,9.7794,-0.012,0.0471,0.0161
74072,46.422096,-0.551274,105.71,31.44,3.216,61.6,17 / 19,7406755,2019-08-09 22:17:35:493,-1.267,-0.0957,9.5627,-0.7281,-0.0954,9.7791,-0.0028,-0.0442,-0.0017
74073,46.422096,-0.551274,105.71,31.44,3.216,61.6,17 / 19,7406855,2019-08-09 22:17:35:593,-0.3195,-0.459,9.1629,-0.7112,-0.0936,9.7804,0.0035,0.0021,-0.0259
74074,46.422096,-0.551274,105.71,31.44,3.216,61.6,17 / 19,7406955,2019-08-09 22:17:35:693,-1.0952,-0.0957,9.4556,-0.6971,-0.0959,9.7814,-0.0023,0.0106,-0.0109
74075,46.422096,-0.551274,105.71,31.44,3.216,61.6,17 / 19,7407055,2019-08-09 22:17:35:793,-1.4896,0.145,9.9093,-0.7278,-0.0994,9.7791,-0.0184,0.0182,-0.0116
74076,46.422096,-0.551274,105.71,31.44,3.216,61.6,17 / 19,7407155,2019-08-09 22:17:35:893,-0.0687,0.042,9.9889,-0.7261,-0.1121,9.7791,0.0007,0.0394,-0.0263
74077,46.422096,-0.551274,105.71,31.44,3.216,61.6,17 / 19,7407255,2019-08-09 22:17:35:993,-1.2472,-0.4859,9.5962,-0.7237,-0.1043,9.7794,0.0108,-0.0226,0.0136
74078,46.422096,-0.551274,105.71,31.44,3.216,61.6,17 / 19,7407355,2019-08-09 22:17:36:093,-1.2993,0.0151,10.4174,-0.7311,-0.1081,9.7788,-0.0087,-0.0198,0.0148
74079,46.422096,-0.551274,105.71,31.44,3.216,61.6,17 / 19,7407455,2019-08-09 22:17:36:193,-2.254,-0.6487,9.1036,-0.7174,-0.1142,9.7797,0.0058,-0.03,0.0253
74080,46.422096,-0.551274,105.71,31.44,3.216,61.6,17 / 19,7407555,2019-08-09 22:17:36:293,0.4437,-0.3955,9.6303,-0.726,-0.122,9.779,0.011,0.0338,-0.0148
74081,46.422096,-0.551274,105.71,31.44,3.216,61.6,15 / 17,7407655,2019-08-09 22:17:36:393,-0.0998,-0.2303,10.1774,-0.73,-0.121,9.7787,0.0009,-0.0717,0.0099
74082,46.422096,-0.551274,105.71,31.44,3.216,61.6,15 / 17,7407755,2019-08-09 22:17:36:493,-2.0493,-0.1711,9.7261,-0.703,-0.119,9.7807,0.0114,0.0379,-0.0056
74083,46.422096,-0.551274,105.71,31.44,3.216,61.6,15 / 17,7407855,2019-08-09 22:17:36:593,0.494,-0.0484,10.0212,-0.7159,-0.116,9.7798,0.003,-0.0047,-0.0223
74084,46.422096,-0.551274,105.71,31.44,3.216,61.6,15 / 17,7407955,2019-08-09 22:17:36:693,-0.0992,0.0211,10.3187,-0.7189,-0.1163,9.7796,-0.0009,0.0303,-0.0204
74085,46.422096,-0.551274,105.71,31.44,3.216,61.6,15 / 17,7408055,2019-08-09 22:17:36:793,0.0935,-0.2189,9.3107,-0.7124,-0.1188,9.78,0.0047,-0.0175,-0.0012
74086,46.422096,-0.551274,105.71,31.44,3.216,61.6,15 / 17,7408155,2019-08-09 22:17:36:893,-1.4394,0.0965,9.7016,-0.7113,-0.1093,9.7802,-0.0058,-0.0267,-0.0037
74087,46.422096,-0.551274,105.71,31.44,3.216,61.6,15 / 17,7408254,2019-08-09 22:17:36:992,-1.5279,-0.0567,9.9021,-0.6884,-0.1179,9.7817,-0.0069,0.0267,0.016
74088,46.422096,-0.551274,105.71,31.44,3.216,61.6,15 / 17,7408355,2019-08-09 22:17:37:093,-1.4902,-0.4422,9.8704,-0.6922,-0.1154,9.7815,0.0013,0.0732,-0.0295
74089,46.422096,-0.551274,105.71,31.44,3.216,61.6,15 / 17,7408455,2019-08-09 22:17:37:193,0.828,0.476,10.2289,-0.6876,-0.1192,9.7818,0.0054,-0.0374,0.0366
74090,46.422096,-0.551274,105.71,31.44,3.216,61.6,15 / 17,7408555,2019-08-09 22:17:37:293,0.0971,0.1091,9.8734,-0.6776,-0.1119,9.7826,0.0107,-0.0226,0.0072
74091,46.422096,-0.551274,105.71,31.44,3.216,61.6,17 / 18,7408656,2019-08-09 22:17:37:394,0.2893,0.2084,10.0511,-0.666,-0.1063,9.7834,0.0154,0.002,-0.0266
74092,46.422096,-0.551274,105.71,31.44,3.216,61.6,17 / 18,7408754,2019-08-09 22:17:37:492,-0.7337,-0.025,9.9542,-0.6549,-0.0927,9.7843,0.0034,0.0093,0.0054
74093,46.422096,-0.551274,105.71,31.44,3.216,61.6,17 / 18,7408855,2019-08-09 22:17:37:593,-0.9438,0.0821,9.877,-0.6826,-0.0878,9.7825,0.0049,-0.0335,-0.0233
74094,46.422096,-0.551274,105.71,31.44,3.216,61.6,17 / 18,7408955,2019-08-09 22:17:37:693,-1.3358,0.3718,9.7728,-0.6635,-0.0792,9.7839,-0.0065,-0.0109,-0.0401
74095,46.422096,-0.551274,105.71,31.44,3.216,61.6,17 / 18,7409055,2019-08-09 22:17:37:793,-0.116,-0.2998,10.6042,-0.6929,-0.0749,9.7819,-0.0037,0.0349,0.0114
74096,46.422096,-0.551274,105.71,31.44,3.216,61.6,17 / 18,7409155,2019-08-09 22:17:37:893,-0.8175,-0.3141,9.4951,-0.6678,-0.0753,9.7836,0.0189,-0.022,-0.0098
74097,46.422096,-0.551274,105.71,31.44,3.216,61.6,17 / 18,7409254,2019-08-09 22:17:37:992,-1.6225,-0.0029,9.9021,-0.6744,-0.0609,9.7832,0.0007,-0.0201,-0.0058
74098,46.422096,-0.551274,105.71,31.44,3.216,61.6,17 / 18,7409355,2019-08-09 22:17:38:093,1.1464,0.0462,9.8476,-0.6833,-0.0552,9.7827,-0.0042,-0.0075,0.0047
74099,46.422096,-0.551274,105.71,31.44,3.216,61.6,17 / 18,7409455,2019-08-09 22:17:38:193,-0.2536,0.2324,9.6764,-0.6556,-0.0539,9.7846,0.0115,-0.0012,-0.0351
74100,46.422096,-0.551274,105.71,31.44,3.216,61.6,17 / 18,7409555,2019-08-09 22:17:38:293,-1.2724,0.4053,9.9583,-0.6649,-0.0382,9.784,-0.0017,-0.0099,-0.0359
74101,46.422096,-0.551274,105.71,31.44,3.216,61.6,16 / 18,7409655,2019-08-09 22:17:38:393,-0.6211,-0.0161,9.6627,-0.6492,-0.0338,9.7851,-0.0056,-0.0268,0.023
74102,46.422096,-0.551274,105.71,31.44,3.216,61.6,16 / 18,7409755,2019-08-09 22:17:38:493,-0.3416,-0.1483,10.0565,-0.6616,-0.0384,9.7842,0.003,-0.0132,-0.0326
74103,46.422096,-0.551274,105.71,31.44,3.216,61.6,16 / 18,7409855,2019-08-09 22:17:38:593,-0.2249,0.5825,10.1595,-0.6826,-0.0303,9.7828,0.0028,-0.0614,0.0084
74104,46.422096,-0.551274,105.71,31.44,3.216,61.6,16 / 18,7409954,2019-08-09 22:17:38:692,-1.9248,-0.3955,8.9294,-0.653,-0.0219,9.7849,0.0047,0.0484,-0.0255
74105,46.422096,-0.551274,105.71,31.44,3.216,61.6,16 / 18,7410054,2019-08-09 22:17:38:792,-1.4735,0.1312,9.604,-0.6566,-0.0119,9.7846,0.0157,0.0057,0.0025
74106,46.422096,-0.551274,105.71,31.44,3.216,61.6,16 / 18,7410155,2019-08-09 22:17:38:893,-1.0862,0.3575,9.9308,-0.6622,-0.0014,9.7843,-0.0106,0.0242,-0.0357
74107,46.422096,-0.551274,105.71,31.44,3.216,61.6,16 / 18,7410255,2019-08-09 22:17:38:993,0.5466,0.0666,9.7985,-0.6806,0.0011,9.783,0.0044,0.0213,-0.0077
74108,46.422096,-0.551274,105.71,31.44,3.216,61.6,16 / 18,7410355,2019-08-09 22:17:39:093,0.0678,-0.128,8.7924,-0.6545,0.0046,9.7848,0.0122,-0.0273,-0.0025
74109,46.422096,-0.551274,105.71,31.44,3.216,61.6,16 / 18,7410455,2019-08-09 22:17:39:193,-0.7193,0.0672,9.6232,-0.6428,0.0256,9.7855,-0.0027,-0.0042,0.0145
74110,46.422096,-0.551274,105.71,31.44,3.216,61.6,16 / 18,7410555,2019-08-09 22:17:39:293,-0.5924,0.1384,9.9434,-0.6724,0.0213,9.7835,0.0008,-0.0283,-0.0037
74111,46.422096,-0.551274,105.71,31.44,3.216,61.6,15 / 18,7410655,2019-08-09 22:17:39:393,0.1474,0.1252,9.5885,-0.6505,0.0299,9.785,0.005,-0.0509,-0.0039
74112,46.422096,-0.551274,105.71,31.44,3.216,61.6,15 / 18,7410755,2019-08-09 22:17:39:493,-0.5864,0.054,9.0905,-0.6882,0.0379,9.7824,0.01,0.0366,-0.0141
74113,46.422096,-0.551274,105.71,31.44,3.216,61.6,15 / 18,7410855,2019-08-09 22:17:39:593,0.3497,0.8543,10.2121,-0.6675,0.0503,9.7838,-0.0077,-0.0282,-0.0009
74114,46.422096,-0.551274,105.71,31.44,3.216,61.6,15 / 18,7410955,2019-08-09 22:17:39:693,-0.4488,-0.2106,9.7201,-0.6807,0.0387,9.7829,-0.0199,-0.0151,0.0122
74115,46.422096,-0.551274,105.71,31.44,3.216,61.6,15 / 18,7411055,2019-08-09 22:17:39:793,-1.0084,0.2719,10.0942,-0.6773,0.0425,9.7831,0.0097,-0.0063,-0.0157
74116,46.422096,-0.551274,105.71,31.44,3.216,61.6,15 / 18,7411155,2019-08-09 22:17:39:893,-1.3107,0.0732,10.2002,-0.6931,0.0439,9.782,-0.0087,-0.0133,0.0335
74117,46.422096,-0.551274,105.71,31.44,3.216,61.6,15 / 18,7411254,2019-08-09 22:17:39:992,-0.4937,0.063,9.6513,-0.6757,0.033,9.7833,-0.0206,-0.0129,-0.0201
74118,46.422096,-0.551274,105.71,31.44,3.216,61.6,15 / 18,7411355,2019-08-09 22:17:40:093,-0.9013,0.3102,9.6555,-0.6814,0.0335,9.7829,-0.0005,0.0077,-0.0313
74119,46.422096,-0.551274,105.71,31.44,3.216,61.6,15 / 18,7411455,2019-08-09 22:17:40:193,-0.5726,0.5101,10.3097,-0.6918,0.0338,9.7822,-0.0071,-0.0115,0.0367
74120,46.422096,-0.551274,105.71,31.44,3.216,61.6,15 / 18,7411555,2019-08-09 22:17:40:293,-1.0563,-0.8409,9.1497,-0.6659,0.0347,9.784,-0.0005,-0.0087,-0.035
74121,46.42326,-0.547973,106.66,31.72,3.216,63.9,17 / 19,7411655,2019-08-09 22:17:40:393,-1.2089,-0.2411,9.294,-0.6725,0.0258,9.7835,-0.0051,0.0113,-0.0078
74122,46.42326,-0.547973,106.66,31.72,3.216,63.9,17 / 19,7411755,2019-08-09 22:17:40:493,0.057,-0.1795,9.6351,-0.7059,0.0252,9.7812,-0.0029,-0.0161,0.0092
74123,46.42326,-0.547973,106.66,31.72,3.216,63.9,17 / 19,7411855,2019-08-09 22:17:40:593,-0.6989,-0.3357,9.3778,-0.6773,0.0326,9.7832,0.0216,0.0133,-0.0275
74124,46.42326,-0.547973,106.66,31.72,3.216,63.9,17 / 19,7411955,2019-08-09 22:17:40:693,-1.7931,0.4424,10.0966,-0.6972,0.0389,9.7818,0.0021,0.0098,-0.0097
74125,46.42326,-0.547973,106.66,31.72,3.216,63.9,17 / 19,7412054,2019-08-09 22:17:40:792,-2.3821,-0.2603,9.5693,-0.6976,0.0341,9.7817,-0.0048,0.0142,-0.0248
74126,46.42326,-0.547973,106.66,31.72,3.216,63.9,17 / 19,7412154,2019-08-09 22:17:40:892,-0.9449,0.5005,9.6339,-0.6968,0.0307,9.7818,0.0021,-0.0019,0.0108
74127,46.42326,-0.547973,106.66,31.72,3.216,63.9,17 / 19,7412255,2019-08-09 22:17:40:993,-1.2789,0.1539,9.7195,-0.7009,0.0341,9.7815,-0.0033,-0.0282,0.0208
74128,46.42326,-0.547973,106.66,31.72,3.216,63.9,17 / 19,7412355,2019-08-09 22:17:41:093,-0.5685,0.3341,10.0266,-0.7046,0.0286,9.7813,-0.0026,0.0193,-0.0305
74129,46.42326,-0.547973,106.66,31.72,3.216,63.9,17 / 19,7412455,2019-08-09 22:17:41:193,-1.7949,0.2228,10.014,-0.7113,0.0334,9.7808,-0.0102,-0.0095,-0.0243
74130,46.42326,-0.547973,106.66,31.72,3.216,63.9,17 / 19,7412555,2019-08-09 22:17:41:293,-2.2372,0.133,9.5166,-0.7121,0.0327,9.7807,-0.0001,0.0027,-0.0196
74131,46.42326,-0.547973,106.66,31.72,3.216,63.9,17 / 19,7412656,2019-08-09 22:17:41:394,-1.1149,0.2695,9.7536,-0.7012,0.0395,9.7815,0.01,0.014,-0.041
74132,46.42326,-0.547973,106.66,31.72,3.216,63.9,17 / 19,7412755,2019-08-09 22:17:41:493,-0.195,0.0396,9.8877,-0.708,0.0541,9.7809,0.0037,-0.0051,0.0135
74133,46.42326,-0.547973,106.66,31.72,3.216,63.9,17 / 19,7412855,2019-08-09 22:17:41:593,-1.0874,0.0145,9.461,-0.711,0.0531,9.7807,0.0089,-0.0175,-0.0139
74134,46.42326,-0.547973,106.66,31.72,3.216,63.9,17 / 19,7412955,2019-08-09 22:17:41:693,-0.918,0.3287,10.1415,-0.7028,0.067,9.7812,-0.0014,0.0197,-0.0129
74135,46.42326,-0.547973,106.66,31.72,3.216,63.9,17 / 19,7413055,2019-08-09 22:17:41:793,-0.5421,0.0971,9.9176,-0.7187,0.0698,9.78,-0.0041,-0.014,-0.0082
74136,46.42326,-0.547973,106.66,31.72,3.216,63.9,17 / 19,7413154,2019-08-09 22:17:41:892,-2.5245,0.2324,9.9805,-0.7287,0.0754,9.7793,0.0157,-0.0002,-0.0142
74137,46.42326,-0.547973,106.66,31.72,3.216,63.9,17 / 19,7413254,2019-08-09 22:17:41:992,-1.4142,0.4544,9.7961,-0.7223,0.088,9.7796,-0.0146,0.0216,-0.0208
74138,46.42326,-0.547973,106.66,31.72,3.216,63.9,17 / 19,7413355,2019-08-09 22:17:42:093,1.4971,-0.1765,9.2982,-0.7058,0.08,9.7809,-0.0015,0.0142,-0.0164
74139,46.42326,-0.547973,106.66,31.72,3.216,63.9,17 / 19,7413455,2019-08-09 22:17:42:193,1.3661,0.0564,9.6423,-0.7118,0.0801,9.7805,0.004,0.0036,-0.0087
74140,46.42326,-0.547973,106.66,31.72,3.216,63.9,17 / 19,7413554,2019-08-09 22:17:42:292,-0.4763,0.0905,10.2445,-0.7284,0.0675,9.7793,-0.0322,0.0117,0.0021
74141,46.42326,-0.547973,106.66,31.72,3.216,63.9,13 / 16,7413655,2019-08-09 22:17:42:393,-1.1197,-0.1142,9.3113,-0.7249,0.0487,9.7797,0.0006,0.0222,-0.0297
74142,46.42326,-0.547973,106.66,31.72,3.216,63.9,13 / 16,7413754,2019-08-09 22:17:42:492,-1.0617,0.2258,10.0122,-0.7357,0.0419,9.7789,-0.0038,-0.0167,-0.0105
74143,46.42326,-0.547973,106.66,31.72,3.216,63.9,13 / 16,7413855,2019-08-09 22:17:42:593,-1.753,0.0307,9.2928,-0.7235,0.0429,9.7798,-0.0023,-0.0209,0.0049
74144,46.42326,-0.547973,106.66,31.72,3.216,63.9,13 / 16,7413955,2019-08-09 22:17:42:693,-1.4944,0.5292,9.7225,-0.7115,0.043,9.7807,0.0068,-0.0069,-0.0345
74145,46.42326,-0.547973,106.66,31.72,3.216,63.9,13 / 16,7414055,2019-08-09 22:17:42:793,-1.8404,-0.1489,10.2229,-0.7454,0.0515,9.7781,0.008,0.0282,0.0179
74146,46.42326,-0.547973,106.66,31.72,3.216,63.9,13 / 16,7414155,2019-08-09 22:17:42:893,-0.9533,0.0522,9.3837,-0.7239,0.0382,9.7798,-0.0072,-0.0141,-0.007
74147,46.42326,-0.547973,106.66,31.72,3.216,63.9,13 / 16,7414255,2019-08-09 22:17:42:993,-0.0334,0.0247,9.8219,-0.7352,0.0382,9.779,-0.014,0.0083,-0.0105
74148,46.42326,-0.547973,106.66,31.72,3.216,63.9,13 / 16,7414358,2019-08-09 22:17:43:096,-1.0724,-0.1142,10.3324,-0.7479,0.0238,9.7781,-0.0084,0.0121,0.0132
74149,46.42326,-0.547973,106.66,31.72,3.216,63.9,13 / 16,7414455,2019-08-09 22:17:43:193,-0.022,-0.122,9.5807,-0.7323,0.0177,9.7793,0.016,-0.0101,-0.0095
74150,46.42326,-0.547973,106.66,31.72,3.216,63.9,13 / 16,7414555,2019-08-09 22:17:43:293,0.4132,0.151,9.8668,-0.7297,0.026,9.7794,-0.004,-0.0027,0.0089
74151,46.42326,-0.547973,106.66,31.72,3.216,63.9,15 / 18,7414655,2019-08-09 22:17:43:393,-0.9767,0.2599,9.446,-0.7336,0.0272,9.7791,-0.004,-0.0027,0.0089
74152,46.42326,-0.547973,106.66,31.72,3.216,63.9,15 / 18,7414755,2019-08-09 22:17:43:493,-0.7109,0.2072,9.3742,-0.7121,0.0062,9.7808,-0.0083,-0.0218,-0.0372
74153,46.42326,-0.547973,106.66,31.72,3.216,63.9,15 / 18,7414855,2019-08-09 22:17:43:593,-0.8324,0.367,9.7638,-0.7353,0.0026,9.779,-0.0274,-0.0098,-0.0226
74154,46.42326,-0.547973,106.66,31.72,3.216,63.9,15 / 18,7414955,2019-08-09 22:17:43:693,0.8651,-0.7589,9.34,-0.7073,-0.019,9.7811,-0.0014,-0.0211,-0.0134
74155,46.42326,-0.547973,106.66,31.72,3.216,63.9,15 / 18,7415055,2019-08-09 22:17:43:793,0.8687,-0.3889,10.1373,-0.7125,-0.0252,9.7807,0.0071,0.0544,0.0089
74156,46.42326,-0.547973,106.66,31.72,3.216,63.9,15 / 18,7415155,2019-08-09 22:17:43:893,0.3473,-0.6511,10.2056,-0.72,-0.0351,9.7801,-0.0113,0.0133,0.0126
74157,46.42326,-0.547973,106.66,31.72,3.216,63.9,15 / 18,7415255,2019-08-09 22:17:43:993,-1.0862,-0.447,9.7752,-0.7242,-0.048,9.7798,0.0113,-0.0001,0.0297
74158,46.42326,-0.547973,106.66,31.72,3.216,63.9,15 / 18,7415356,2019-08-09 22:17:44:094,-0.8204,0.0827,10.169,-0.7385,-0.0459,9.7787,0.0022,-0.0027,0.0113
74159,46.42326,-0.547973,106.66,31.72,3.216,63.9,15 / 18,7415455,2019-08-09 22:17:44:193,0.0205,0.461,10.3079,-0.7021,-0.0457,9.7814,-0.0053,0.044,-0.0386
74160,46.42326,-0.547973,106.66,31.72,3.216,63.9,15 / 18,7415556,2019-08-09 22:17:44:294,-0.8241,-0.1304,9.686,-0.7243,-0.0592,9.7797,-0.0119,0.0009,0.0008
74161,46.42326,-0.547973,106.66,31.72,3.216,63.9,16 / 19,7415655,2019-08-09 22:17:44:393,1.2715,-0.3608,9.7662,-0.6985,-0.062,9.7815,0.0048,0.0154,0.0067
74162,46.42326,-0.547973,106.66,31.72,3.216,63.9,16 / 19,7415755,2019-08-09 22:17:44:493,0.6023,0.1432,10.1355,-0.7178,-0.05,9.7802,0.0058,0.0406,0.0005
74163,46.42326,-0.547973,106.66,31.72,3.216,63.9,16 / 19,7415855,2019-08-09 22:17:44:593,-2.4132,0.0642,9.5813,-0.7129,-0.0523,9.7806,-0.0034,-0.0478,0.0027
74164,46.42326,-0.547973,106.66,31.72,3.216,63.9,16 / 19,7415954,2019-08-09 22:17:44:692,-1.1856,-0.1232,9.5418,-0.7405,-0.0589,9.7785,0.0006,-0.0522,0.0195
74165,46.42326,-0.547973,106.66,31.72,3.216,63.9,16 / 19,7416055,2019-08-09 22:17:44:793,-0.6116,0.0025,10.2229,-0.7321,-0.058,9.7791,-0.0097,0.0414,-0.0286
74166,46.42326,-0.547973,106.66,31.72,3.216,63.9,16 / 19,7416155,2019-08-09 22:17:44:893,-0.0411,0.4203,9.7255,-0.7468,-0.0631,9.778,-0.0049,-0.0613,0.066
74167,46.42326,-0.547973,106.66,31.72,3.216,63.9,16 / 19,7416255,2019-08-09 22:17:44:993,-0.3775,-0.1387,9.5705,-0.7063,-0.071,9.7809,-0.0065,-0.0054,-0.0367
74168,46.42326,-0.547973,106.66,31.72,3.216,63.9,16 / 19,7416355,2019-08-09 22:17:45:093,0.0672,0.0678,9.6387,-0.6923,-0.0675,9.7819,0.003,-0.0144,-0.0135
74169,46.42326,-0.547973,106.66,31.72,3.216,63.9,16 / 19,7416455,2019-08-09 22:17:45:193,-0.7109,-0.0011,9.9787,-0.6765,-0.072,9.783,-0.0143,-0.0059,0.0122
74170,46.42326,-0.547973,106.66,31.72,3.216,63.9,16 / 19,7416555,2019-08-09 22:17:45:293,-1.2646,-0.4847,9.1689,-0.6723,-0.0737,9.7833,0.004,-0.0269,-0.0009
74171,46.42326,-0.547973,106.66,31.72,3.216,63.9,16 / 18,7416655,2019-08-09 22:17:45:393,-2.345,0.0253,10.2451,-0.6799,-0.0712,9.7828,-0.0072,0.0081,-0.0205
74172,46.42326,-0.547973,106.66,31.72,3.216,63.9,16 / 18,7416755,2019-08-09 22:17:45:493,1.5773,0.0773,10.3564,-0.6806,-0.0785,9.7827,-0.0197,0.0048,0.0099
74173,46.42326,-0.547973,106.66,31.72,3.216,63.9,16 / 18,7416855,2019-08-09 22:17:45:593,0.4796,-0.2387,9.7554,-0.6644,-0.0923,9.7837,0.0219,-0.0168,0.0134
74174,46.42326,-0.547973,106.66,31.72,3.216,63.9,16 / 18,7416955,2019-08-09 22:17:45:693,-0.6271,-0.3632,10.2672,-0.6535,-0.0856,9.7845,0.0153,0.0454,-0.0166
74175,46.42326,-0.547973,106.66,31.72,3.216,63.9,16 / 18,7417055,2019-08-09 22:17:45:793,-0.1028,0.2084,9.2748,-0.659,-0.0671,9.7843,0.0099,0.0133,0.0111
74176,46.42326,-0.547973,106.66,31.72,3.216,63.9,16 / 18,7417155,2019-08-09 22:17:45:893,0.6652,-0.0945,9.689,-0.6364,-0.0639,9.7858,-0.0045,-0.0114,-0.0149
74177,46.42326,-0.547973,106.66,31.72,3.216,63.9,16 / 18,7417255,2019-08-09 22:17:45:993,0.3509,-0.1585,9.8752,-0.6486,-0.0712,9.7849,-0.0096,0.0061,0.0046
74178,46.42326,-0.547973,106.66,31.72,3.216,63.9,16 / 18,7417355,2019-08-09 22:17:46:093,-1.1395,-0.0556,10.3247,-0.6685,-0.0813,9.7835,-0.0104,0.0353,-0.0112
74179,46.42326,-0.547973,106.66,31.72,3.216,63.9,16 / 18,7417454,2019-08-09 22:17:46:192,-1.4292,-0.11,9.8626,-0.6627,-0.0832,9.7839,0.0059,-0.0175,0.0161
74180,46.42326,-0.547973,106.66,31.72,3.216,63.9,16 / 18,7417555,2019-08-09 22:17:46:293,-1.7476,-0.3243,9.5058,-0.6536,-0.0779,9.7845,0.0203,0.0115,-0.0293
74181,46.42326,-0.547973,106.66,31.72,3.216,63.9,16 / 19,7417655,2019-08-09 22:17:46:393,-0.7361,0.321,9.6986,-0.6425,-0.0502,9.7855,-0.0092,0.0113,-0.0343
74182,46.42326,-0.547973,106.66,31.72,3.216,63.9,16 / 19,7417755,2019-08-09 22:17:46:493,-1.2155,-0.107,10.0793,-0.6388,-0.0537,9.7857,-0.0092,0.0113,-0.0343
74183,46.42326,-0.547973,106.66,31.72,3.216,63.9,16 / 19,7417855,2019-08-09 22:17:46:593,-1.4747,-0.2184,10.1936,-0.6369,-0.0422,9.7859,0.0123,0.0477,0.0039
74184,46.42326,-0.547973,106.66,31.72,3.216,63.9,16 / 19,7417955,2019-08-09 22:17:46:693,-1.5854,-0.1794,10.527,-0.6135,-0.0443,9.7873,0.009,0.0311,0.0084
74185,46.42326,-0.547973,106.66,31.72,3.216,63.9,16 / 19,7418055,2019-08-09 22:17:46:793,0.6233,0.3407,10.1804,-0.6316,-0.0404,9.7862,-0.0124,-0.0433,-0.0177
74186,46.42326,-0.547973,106.66,31.72,3.216,63.9,16 / 19,7418155,2019-08-09 22:17:46:893,-1.3232,-0.2273,9.7429,-0.6002,-0.0526,9.7881,0.0063,0.0242,0.0104
74187,46.42326,-0.547973,106.66,31.72,3.216,63.9,16 / 19,7418255,2019-08-09 22:17:46:993,-1.4807,-0.122,9.4837,-0.5822,-0.0381,9.7893,0.0121,0.0249,-0.015
74188,46.42326,-0.547973,106.66,31.72,3.216,63.9,16 / 19,7418355,2019-08-09 22:17:47:093,0.5179,0.6753,9.9829,-0.584,-0.0362,9.7892,-0.0233,-0.0241,-0.0284
74189,46.42326,-0.547973,106.66,31.72,3.216,63.9,16 / 19,7418455,2019-08-09 22:17:47:193,-0.0591,0.3287,9.5543,-0.5681,-0.059,9.79,-0.0126,0.0453,0.0045
74190,46.42326,-0.547973,106.66,31.72,3.216,63.9,16 / 19,7418555,2019-08-09 22:17:47:293,-0.8713,-0.1956,8.9253,-0.5909,-0.0589,9.7887,0.006,-0.0579,-0.0047
74191,46.42326,-0.547973,106.66,31.72,3.216,63.9,15 / 18,7418655,2019-08-09 22:17:47:393,-0.016,0.309,10.1625,-0.5606,-0.041,9.7905,0.004,-0.0458,0.0073
74192,46.42326,-0.547973,106.66,31.72,3.216,63.9,15 / 18,7418755,2019-08-09 22:17:47:493,-0.0112,-0.0819,9.6914,-0.5926,-0.0385,9.7887,-0.0041,-0.0122,0.0047
74193,46.42326,-0.547973,106.66,31.72,3.216,63.9,15 / 18,7418855,2019-08-09 22:17:47:593,-0.4643,0.1665,9.4382,-0.5511,-0.0489,9.791,-0.0056,-0.0347,-0.0226
74194,46.42326,-0.547973,106.66,31.72,3.216,63.9,15 / 18,7418955,2019-08-09 22:17:47:693,-0.4272,0.0809,10.3815,-0.5759,-0.05,9.7896,-0.0101,0.0388,0.0067
74195,46.42326,-0.547973,106.66,31.72,3.216,63.9,15 / 18,7419055,2019-08-09 22:17:47:793,-0.9677,-0.5236,9.9506,-0.5614,-0.0656,9.7903,-0.0002,0.006,0.004
74196,46.42326,-0.547973,106.66,31.72,3.216,63.9,15 / 18,7419155,2019-08-09 22:17:47:893,0.6251,-0.0113,10.6138,-0.5488,-0.0649,9.7911,0.0078,-0.0239,-0.0195
74197,46.42326,-0.547973,106.66,31.72,3.216,63.9,15 / 18,7419255,2019-08-09 22:17:47:993,-1.8733,0.291,9.4651,-0.5619,-0.0611,9.7904,-0.0049,0.0698,0.0244
74198,46.42326,-0.547973,106.66,31.72,3.216,63.9,15 / 18,7419355,2019-08-09 22:17:48:093,-0.0292,-0.1322,9.1713,-0.5452,-0.07,9.7912,-0.003,-0.092,-0.0245
74199,46.42326,-0.547973,106.66,31.72,3.216,63.9,15 / 18,7419456,2019-08-09 22:17:48:194,-0.186,0.1085,9.4753,-0.5641,-0.0599,9.7902,0.006,-0.0296,-0.0164
74200,46.42326,-0.547973,106.66,31.72,3.216,63.9,15 / 18,7419555,2019-08-09 22:17:48:293,-0.502,0.1252,10.1248,-0.5641,-0.0588,9.7902,-0.004,0.0136,-0.0132
74201,46.42326,-0.547973,106.66,31.72,3.216,63.9,14 / 18,7419655,2019-08-09 22:17:48:393,-1.0545,-0.2932,9.4274,-0.5599,-0.0714,9.7904,-0.0237,-0.0308,0.0321
74202,46.42326,-0.547973,106.66,31.72,3.216,63.9,14 / 18,7419755,2019-08-09 22:17:48:493,-0.1453,0.0229,10.0428,-0.5647,-0.0906,9.79,0.0058,0.0239,-0.0089
74203,46.42326,-0.547973,106.66,31.72,3.216,63.9,14 / 18,7419854,2019-08-09 22:17:48:592,-1.0635,-0.0621,9.9649,-0.5552,-0.0869,9.7905,-0.0007,0.0184,-0.0161
74204,46.42326,-0.547973,106.66,31.72,3.216,63.9,14 / 18,7419955,2019-08-09 22:17:48:693,0.0965,-0.0083,9.8572,-0.5637,-0.0939,9.79,0.0026,0.0095,0.0013
74205,46.42326,-0.547973,106.66,31.72,3.216,63.9,14 / 18,7420055,2019-08-09 22:17:48:793,-1.0701,-0.6822,9.9871,-0.5461,-0.0906,9.791,-0.0009,-0.0104,-0.0144
74206,46.42326,-0.547973,106.66,31.72,3.216,63.9,14 / 18,7420155,2019-08-09 22:17:48:893,-0.2075,0.1899,9.2096,-0.5464,-0.079,9.7911,0.0273,0.0452,0.0159
74207,46.42326,-0.547973,106.66,31.72,3.216,63.9,14 / 18,7420254,2019-08-09 22:17:48:992,-1.0784,0.0109,9.7088,-0.5736,-0.0774,9.7896,-0.0096,-0.0146,-0.0208
74208,46.42326,-0.547973,106.66,31.72,3.216,63.9,14 / 18,7420355,2019-08-09 22:17:49:093,1.0374,-0.113,9.2353,-0.5405,-0.0845,9.7914,-0.0041,0.0063,-0.0019
74209,46.42326,-0.547973,106.66,31.72,3.216,63.9,14 / 18,7420454,2019-08-09 22:17:49:192,-1.4711,0.0426,10.5144,-0.5703,-0.086,9.7897,0.0003,0.0206,-0.0224
74210,46.42326,-0.547973,106.66,31.72,3.216,63.9,14 / 18,7420554,2019-08-09 22:17:49:292,0.1432,-0.1364,9.519,-0.5565,-0.0815,9.7905,0.0074,-0.0524,-0.0061
74211,46.42433,-0.5446,107.98,30.84,3.216,66.3,16 / 18,7420655,2019-08-09 22:17:49:393,0.1313,0.5616,10.2684,-0.5673,-0.0744,9.7899,0.0024,-0.0332,0.006
74212,46.42433,-0.5446,107.98,30.84,3.216,66.3,16 / 18,7420755,2019-08-09 22:17:49:493,-0.2261,0.1707,9.4927,-0.5561,-0.0708,9.7906,-0.0005,0.0147,-0.0117
74213,46.42433,-0.5446,107.98,30.84,3.216,66.3,16 / 18,7420855,2019-08-09 22:17:49:593,-0.2273,0.1953,9.5651,-0.5545,-0.0671,9.7907,-0.0024,-0.011,-0.0302
74214,46.42433,-0.5446,107.98,30.84,3.216,66.3,16 / 18,7420955,2019-08-09 22:17:49:693,-0.2788,0.0342,9.7148,-0.5551,-0.0573,9.7908,0.0055,0.0,-0.0051
74215,46.42433,-0.5446,107.98,30.84,3.216,66.3,16 / 18,7421054,2019-08-09 22:17:49:792,-1.8967,0.0911,9.7656,-0.5661,-0.0523,9.7902,0.0067,0.0152,-0.0173
74216,46.42433,-0.5446,107.98,30.84,3.216,66.3,16 / 18,7421155,2019-08-09 22:17:49:893,-1.3538,0.0013,10.3624,-0.5605,-0.052,9.7905,-0.0047,0.0341,-0.0094
74217,46.42433,-0.5446,107.98,30.84,3.216,66.3,16 / 18,7421254,2019-08-09 22:17:49:992,-0.4835,-0.274,10.5671,-0.5601,-0.0522,9.7905,0.0022,0.023,-0.0071
74218,46.42433,-0.5446,107.98,30.84,3.216,66.3,16 / 18,7421355,2019-08-09 22:17:50:093,-0.6517,-0.4697,8.9911,-0.5863,-0.0423,9.789,0.0039,-0.0116,-0.0302
74219,46.42433,-0.5446,107.98,30.84,3.216,66.3,16 / 18,7421455,2019-08-09 22:17:50:193,-0.5152,-0.1896,9.1677,-0.541,-0.0338,9.7917,-0.001,0.0195,-0.0051
74220,46.42433,-0.5446,107.98,30.84,3.216,66.3,16 / 18,7421555,2019-08-09 22:17:50:293,-1.2059,0.0755,9.4095,-0.5456,-0.036,9.7914,-0.0019,0.0362,-0.0135
74221,46.42433,-0.5446,107.98,30.84,3.216,66.3,17 / 19,7421655,2019-08-09 22:17:50:393,-1.4148,-0.0538,9.7698,-0.5512,-0.038,9.7911,-0.0067,-0.0165,0.0052
74222,46.42433,-0.5446,107.98,30.84,3.216,66.3,17 / 19,7421755,2019-08-09 22:17:50:493,0.6448,-0.0789,10.0876,-0.5583,-0.0463,9.7906,-0.0101,0.0086,0.0004
74223,46.42433,-0.5446,107.98,30.84,3.216,66.3,17 / 19,7421855,2019-08-09 22:17:50:593,1.3774,-0.0148,9.6878,-0.5615,-0.0446,9.7905,0.0062,-0.0378,-0.0105
74224,46.42433,-0.5446,107.98,30.84,3.216,66.3,17 / 19,7421954,2019-08-09 22:17:50:692,0.637,-0.0532,9.5448,-0.56,-0.0464,9.7905,-0.0093,-0.0141,-0.0022
74225,46.42433,-0.5446,107.98,30.84,3.216,66.3,17 / 19,7422054,2019-08-09 22:17:50:792,-2.1857,-0.2441,9.8997,-0.5641,-0.0507,9.7903,-0.0078,-0.0042,-0.0144
74226,46.42433,-0.5446,107.98,30.84,3.216,66.3,17 / 19,7422155,2019-08-09 22:17:50:893,-1.3855,0.1557,9.9398,-0.5572,-0.0524,9.7907,0.004,0.0365,-0.0423
74227,46.42433,-0.5446,107.98,30.84,3.216,66.3,17 / 19,7422255,2019-08-09 22:17:50:993,-0.7678,-0.1136,9.3999,-0.5452,-0.0437,9.7914,0.003,0.0278,0.0095
74228,46.42433,-0.5446,107.98,30.84,3.216,66.3,17 / 19,7422355,2019-08-09 22:17:51:093,-0.1046,0.0791,9.6603,-0.5447,-0.0495,9.7914,-0.0056,0.0028,-0.0132
74229,46.42433,-0.5446,107.98,30.84,3.216,66.3,17 / 19,7422455,2019-08-09 22:17:51:193,-0.08,-0.0747,9.4891,-0.5473,-0.0542,9.7912,-0.0109,-0.0133,-0.0146
74230,46.42433,-0.5446,107.98,30.84,3.216,66.3,17 / 19,7422555,2019-08-09 22:17:51:293,1.035,-0.1292,9.8775,-0.5516,-0.0495,9.791,0.0125,-0.0259,0.0022
74231,46.42433,-0.5446,107.98,30.84,3.216,66.3,17 / 19,7422655,2019-08-09 22:17:51:393,-2.5167,0.3742,10.0164,-0.5706,-0.0581,9.7899,-0.0173,0.0395,-0.0337
74232,46.42433,-0.5446,107.98,30.84,3.216,66.3,17 / 19,7422755,2019-08-09 22:17:51:493,-1.2161,-0.3177,9.9416,-0.5444,-0.065,9.7913,0.0034,0.0251,-0.0023
74233,46.42433,-0.5446,107.98,30.84,3.216,66.3,17 / 19,7422855,2019-08-09 22:17:51:593,-0.4745,0.124,10.676,-0.5465,-0.0636,9.7912,0.0103,0.0458,-0.0048
74234,46.42433,-0.5446,107.98,30.84,3.216,66.3,17 / 19,7422955,2019-08-09 22:17:51:693,-0.9988,-0.4332,9.2191,-0.5588,-0.0497,9.7906,0.0046,-0.0373,-0.0089
74235,46.42433,-0.5446,107.98,30.84,3.216,66.3,17 / 19,7423055,2019-08-09 22:17:51:793,-1.513,-0.0077,8.8714,-0.5485,-0.0443,9.7912,0.0093,0.014,-0.0067
74236,46.42433,-0.5446,107.98,30.84,3.216,66.3,17 / 19,7423155,2019-08-09 22:17:51:893,-1.5591,0.054,9.5082,-0.5686,-0.0368,9.7901,-0.0058,-0.0173,-0.0179
74237,46.42433,-0.5446,107.98,30.84,3.216,66.3,17 / 19,7423255,2019-08-09 22:17:51:993,-0.0537,0.0444,9.5304,-0.5667,-0.0453,9.7902,0.0004,0.0135,0.0004
74238,46.42433,-0.5446,107.98,30.84,3.216,66.3,17 / 19,7423355,2019-08-09 22:17:52:093,-0.6744,0.2934,10.0517,-0.5651,-0.042,9.7903,-0.0072,0.0095,-0.0249
74239,46.42433,-0.5446,107.98,30.84,3.216,66.3,17 / 19,7423455,2019-08-09 22:17:52:193,-0.3051,-0.0903,9.5968,-0.5864,-0.0557,9.7889,-0.017,-0.0412,0.0047
74240,46.42433,-0.5446,107.98,30.84,3.216,66.3,17 / 19,7423555,2019-08-09 22:17:52:293,-1.2598,-0.5488,9.7536,-0.5618,-0.0593,9.7904,0.0045,0.032,-0.0074
74241,46.42433,-0.5446,107.98,30.84,3.216,66.3,16 / 18,7423655,2019-08-09 22:17:52:393,0.1235,0.212,10.4539,-0.5901,-0.0476,9.7888,0.0057,0.0055,0.0075
74242,46.42433,-0.5446,107.98,30.84,3.216,66.3,16 / 18,7423755,2019-08-09 22:17:52:493,-0.2003,-0.3967,10.1978,-0.5623,-0.0521,9.7904,0.0008,-0.0557,-0.0033
74243,46.42433,-0.5446,107.98,30.84,3.216,66.3,16 / 18,7423855,2019-08-09 22:17:52:593,-0.4033,-0.1573,8.8696,-0.5722,-0.0463,9.7898,0.0071,0.0346,-0.0172
74244,46.42433,-0.5446,107.98,30.84,3.216,66.3,16 / 18,7423955,2019-08-09 22:17:52:693,0.0882,0.285,9.7195,-0.5773,-0.0397,9.7896,-0.0003,-0.015,-0.0054
74245,46.42433,-0.5446,107.98,30.84,3.216,66.3,16 / 18,7424055,2019-08-09 22:17:52:793,-1.7913,-0.052,9.4292,-0.5695,-0.046,9.79,-0.0047,-0.0256,0.0146
74246,46.42433,-0.5446,107.98,30.84,3.216,66.3,16 / 18,7424155,2019-08-09 22:17:52:893,-0.6397,0.1695,9.5789,-0.5936,-0.0499,9.7885,-0.0015,0.0037,-0.0145
74247,46.42433,-0.5446,107.98,30.84,3.216,66.3,16 / 18,7424255,2019-08-09 22:17:52:993,-0.0495,0.1384,9.6076,-0.591,-0.0444,9.7887,-0.0008,-0.0555,0.0054
74248,46.42433,-0.5446,107.98,30.84,3.216,66.3,16 / 18,7424355,2019-08-09 22:17:53:093,-0.2854,-0.3195,9.185,-0.599,-0.0495,9.7882,0.0004,-0.0177,0.0163
74249,46.42433,-0.5446,107.98,30.84,3.216,66.3,16 / 18,7424455,2019-08-09 22:17:53:193,-1.3023,0.0109,9.7812,-0.5993,-0.0471,9.7882,0.0081,-0.006,-0.0414
74250,46.42433,-0.5446,107.98,30.84,3.216,66.3,16 / 18,7424555,2019-08-09 22:17:53:293,-0.8324,-0.0837,9.8351,-0.6118,-0.0351,9.7875,0.008,-0.0262,-0.0044
74251,46.42433,-0.5446,107.98,30.84,3.216,66.3,17 / 19,7424655,2019-08-09 22:17:53:393,-0.8211,-0.0059,9.3341,-0.6017,-0.0272,9.7881,-0.0041,-0.0175,-0.0217
74252,46.42433,-0.5446,107.98,30.84,3.216,66.3,17 / 19,7424755,2019-08-09 22:17:53:493,-1.3597,0.0031,9.4011,-0.6149,-0.0243,9.7873,-0.0045,-0.0053,0.0018
74253,46.42433,-0.5446,107.98,30.84,3.216,66.3,17 / 19,7424855,2019-08-09 22:17:53:593,0.1175,-0.0801,9.4975,-0.6172,-0.0216,9.7872,-0.003,0.0408,-0.0273
74254,46.42433,-0.5446,107.98,30.84,3.216,66.3,17 / 19,7424955,2019-08-09 22:17:53:693,-0.1752,-0.0556,10.0541,-0.6351,-0.0243,9.786,-0.0029,-0.0186,0.0116
74255,46.42433,-0.5446,107.98,30.84,3.216,66.3,17 / 19,7425055,2019-08-09 22:17:53:793,-0.0214,-0.5164,9.0731,-0.6313,-0.0366,9.7862,0.0032,-0.0346,0.0263
74256,46.42433,-0.5446,107.98,30.84,3.216,66.3,17 / 19,7425155,2019-08-09 22:17:53:893,-1.7009,0.148,9.9961,-0.65,-0.0356,9.785,0.0098,0.0045,-0.0412
74257,46.42433,-0.5446,107.98,30.84,3.216,66.3,17 / 19,7425255,2019-08-09 22:17:53:993,-0.6026,0.4095,10.0733,-0.6463,-0.02,9.7853,-0.0041,-0.0423,-0.0115
74258,46.42433,-0.5446,107.98,30.84,3.216,66.3,17 / 19,7425355,2019-08-09 22:17:54:093,0.3365,0.3676,9.6525,-0.6295,-0.0147,9.7864,-0.0068,-0.0336,-0.0128
74259,46.42433,-0.5446,107.98,30.84,3.216,66.3,17 / 19,7425455,2019-08-09 22:17:54:193,-0.775,-0.216,9.5573,-0.6368,-0.0192,9.7859,-0.0033,0.0255,-0.005
74260,46.42433,-0.5446,107.98,30.84,3.216,66.3,17 / 19,7425555,2019-08-09 22:17:54:293,-0.766,0.2354,9.5783,-0.632,-0.0191,9.7862,0.0026,-0.0349,-0.0124
74261,46.42433,-0.5446,107.98,30.84,3.216,66.3,17 / 19,7425655,2019-08-09 22:17:54:393,-0.6134,0.3563,9.6693,-0.6446,-0.0154,9.7854,-0.0015,-0.0023,-0.0348
74262,46.42433,-0.5446,107.98,30.84,3.216,66.3,17 / 19,7425755,2019-08-09 22:17:54:493,-0.7049,0.0438,9.9853,-0.6635,-0.0153,9.7842,-0.0045,0.0195,-0.0025
74263,46.42433,-0.5446,107.98,30.84,3.216,66.3,17 / 19,7425855,2019-08-09 22:17:54:593,0.0923,0.0965,9.5741,-0.6638,-0.0264,9.7841,-0.0051,0.0015,-0.0251
74264,46.42433,-0.5446,107.98,30.84,3.216,66.3,17 / 19,7425955,2019-08-09 22:17:54:693,-0.0328,-0.0406,10.1876,-0.6617,-0.0283,9.7843,-0.0181,0.0395,0.0242
74265,46.42433,-0.5446,107.98,30.84,3.216,66.3,17 / 19,7426055,2019-08-09 22:17:54:793,-1.3196,-0.6212,9.3275,-0.6791,-0.0339,9.7831,-0.0082,-0.0634,0.014
74266,46.42433,-0.5446,107.98,30.84,3.216,66.3,17 / 19,7426155,2019-08-09 22:17:54:893,0.5299,0.3185,10.0739,-0.673,-0.0474,9.7834,0.0039,0.027,-0.0046
74267,46.42433,-0.5446,107.98,30.84,3.216,66.3,17 / 19,7426255,2019-08-09 22:17:54:993,0.9363,-0.4721,9.8991,-0.6925,-0.0433,9.7821,0.0053,-0.042,0.0302
74268,46.42433,-0.5446,107.98,30.84,3.216,66.3,17 / 19,7426355,2019-08-09 22:17:55:093,-2.6113,-0.4213,8.6739,-0.6656,-0.0594,9.7839,0.0206,0.011,-0.0041
74269,46.42433,-0.5446,107.98,30.84,3.216,66.3,17 / 19,7426455,2019-08-09 22:17:55:193,-1.2017,0.2366,9.4173,-0.6718,-0.0504,9.7835,0.0028,-0.0215,-0.0192
74270,46.42433,-0.5446,107.98,30.84,3.216,66.3,17 / 19,7426555,2019-08-09 22:17:55:293,-0.5864,-0.1286,9.8668,-0.6698,-0.0575,9.7836,-0.0084,0.0364,-0.006
74271,46.42433,-0.5446,107.98,30.84,3.216,66.3,17 / 19,7426655,2019-08-09 22:17:55:393,-1.0096,-0.2938,10.3049,-0.7064,-0.0589,9.781,-0.0004,0.0069,-0.0186
74272,46.42433,-0.5446,107.98,30.84,3.216,66.3,17 / 19,7426755,2019-08-09 22:17:55:493,-0.8432,-0.1052,9.774,-0.6996,-0.0604,9.7815,0.0015,0.0013,-0.0226
74273,46.42433,-0.5446,107.98,30.84,3.216,66.3,17 / 19,7426854,2019-08-09 22:17:55:592,-0.4667,0.0408,9.7363,-0.7057,-0.0576,9.7811,-0.0021,0.0066,0.0041
74274,46.42433,-0.5446,107.98,30.84,3.216,66.3,17 / 19,7426955,2019-08-09 22:17:55:693,-0.2722,-0.1052,10.0948,-0.7115,-0.0682,9.7806,-0.0102,-0.0152,-0.0136
74275,46.42433,-0.5446,107.98,30.84,3.216,66.3,17 / 19,7427054,2019-08-09 22:17:55:792,-0.1327,0.8118,10.6766,-0.6967,-0.0649,9.7817,-0.0032,0.0286,-0.0136
74276,46.42433,-0.5446,107.98,30.84,3.216,66.3,17 / 19,7427155,2019-08-09 22:17:55:893,-0.095,0.1581,9.6842,-0.7088,-0.0824,9.7807,0.0044,0.0094,-0.0321
74277,46.42433,-0.5446,107.98,30.84,3.216,66.3,17 / 19,7427255,2019-08-09 22:17:55:993,-1.0066,-0.1172,8.8786,-0.695,-0.0743,9.7817,0.014,-0.045,0.0067
74278,46.42433,-0.5446,107.98,30.84,3.216,66.3,17 / 19,7427355,2019-08-09 22:17:56:093,-0.5822,-0.1615,9.5765,-0.6876,-0.0711,9.7823,-0.0074,-0.0589,0.0124
74279,46.42433,-0.5446,107.98,30.84,3.216,66.3,17 / 19,7427455,2019-08-09 22:17:56:193,-1.6638,-0.347,9.3496,-0.7092,-0.0775,9.7807,0.0157,-0.0255,0.0267
74280,46.42433,-0.5446,107.98,30.84,3.216,66.3,17 / 19,7427555,2019-08-09 22:17:56:293,-0.2871,0.112,9.2904,-0.6792,-0.063,9.7829,0.0144,-0.013,-0.0214
74281,46.42433,-0.5446,107.98,30.84,3.216,66.3,16 / 18,7427655,2019-08-09 22:17:56:393,-0.8103,0.5262,10.5276,-0.6945,-0.0551,9.7819,-0.0105,0.0094,0.0115
74282,46.42433,-0.5446,107.98,30.84,3.216,66.3,16 / 18,7427755,2019-08-09 22:17:56:493,-0.4942,-0.1663,9.4945,-0.7058,-0.0626,9.781,0.0089,-0.0211,0.0056
74283,46.42433,-0.5446,107.98,30.84,3.216,66.3,16 / 18,7427855,2019-08-09 22:17:56:593,-0.3506,-0.0352,9.5878,-0.7006,-0.0556,9.7814,0.0094,0.0031,-0.0101
74284,46.42433,-0.5446,107.98,30.84,3.216,66.3,16 / 18,7427955,2019-08-09 22:17:56:693,-0.5469,-0.0609,9.8997,-0.7001,-0.044,9.7815,-0.0028,-0.0046,-0.0272
74285,46.42433,-0.5446,107.98,30.84,3.216,66.3,16 / 18,7428055,2019-08-09 22:17:56:793,-1.2131,-0.0113,9.935,-0.6991,-0.0443,9.7816,-0.0057,0.0168,-0.0014
74286,46.42433,-0.5446,107.98,30.84,3.216,66.3,16 / 18,7428155,2019-08-09 22:17:56:893,-1.422,0.0402,9.6411,-0.6988,-0.0497,9.7816,0.0054,0.0145,0.001
74287,46.42433,-0.5446,107.98,30.84,3.216,66.3,16 / 18,7428255,2019-08-09 22:17:56:993,-0.9246,0.3377,9.668,-0.6991,-0.0459,9.7816,0.0035,0.0015,-0.0323
74288,46.42433,-0.5446,107.98,30.84,3.216,66.3,16 / 18,7428355,2019-08-09 22:17:57:093,-0.602,0.2054,9.7967,-0.7053,-0.0416,9.7812,-0.0079,-0.0163,0.0085
74289,46.42433,-0.5446,107.98,30.84,3.216,66.3,16 / 18,7428455,2019-08-09 22:17:57:193,-1.595,-0.347,9.5238,-0.6991,-0.0425,9.7816,0.0027,0.0058,-0.0099
74290,46.42433,-0.5446,107.98,30.84,3.216,66.3,16 / 18,7428555,2019-08-09 22:17:57:293,-0.2614,-0.0765,9.6333,-0.6957,-0.0456,9.7818,-0.0143,-0.0284,-0.0175
74291,46.42433,-0.5446,107.98,30.84,3.216,66.3,16 / 18,7428655,2019-08-09 22:17:57:393,0.9908,-0.3255,9.5448,-0.7087,-0.0471,9.7809,-0.0094,-0.005,0.0271
74292,46.42433,-0.5446,107.98,30.84,3.216,66.3,16 / 18,7428755,2019-08-09 22:17:57:493,-1.7267,0.1031,9.8404,-0.7113,-0.0626,9.7806,-0.0108,0.0063,0.0017
74293,46.42433,-0.5446,107.98,30.84,3.216,66.3,16 / 18,7428855,2019-08-09 22:17:57:593,-1.513,-0.4296,9.2221,-0.7044,-0.0703,9.7811,-0.0119,-0.0255,0.0154
74294,46.42433,-0.5446,107.98,30.84,3.216,66.3,16 / 18,7428955,2019-08-09 22:17:57:693,-0.9414,-0.4997,9.4795,-0.7008,-0.0819,9.7812,0.0005,-0.0273,0.0275
74295,46.42433,-0.5446,107.98,30.84,3.216,66.3,16 / 18,7429055,2019-08-09 22:17:57:793,-0.772,-0.7217,9.2569,-0.7143,-0.0948,9.7801,0.0014,0.0137,-0.0077
74296,46.42433,-0.5446,107.98,30.84,3.216,66.3,16 / 18,7429155,2019-08-09 22:17:57:893,-0.8989,-0.5679,10.0248,-0.7041,-0.0959,9.7809,0.0144,-0.0453,0.0267
74297,46.42433,-0.5446,107.98,30.84,3.216,66.3,16 / 18,7429255,2019-08-09 22:17:57:993,-0.9252,-0.1058,10.4803,-0.7443,-0.0974,9.7779,-0.0057,-0.0367,0.0258
74298,46.42433,-0.5446,107.98,30.84,3.216,66.3,16 / 18,7429354,2019-08-09 22:17:58:092,0.0379,-0.2465,9.4963,-0.7177,-0.0984,9.7799,0.0014,-0.0129,-0.0156
74299,46.42433,-0.5446,107.98,30.84,3.216,66.3,16 / 18,7429455,2019-08-09 22:17:58:193,-1.182,-0.2423,9.0288,-0.6957,-0.0971,9.7815,0.0146,-0.011,0.0166
74300,46.42433,-0.5446,107.98,30.84,3.216,66.3,16 / 18,7429555,2019-08-09 22:17:58:293,-1.5184,-0.2417,9.7046,-0.7057,-0.0924,9.7808,0.0104,-0.0155,-0.0039
