,GPS LATITUDE (degrees),GPS LONGITUDE (degrees), GPS ALTITUDE (m),GPS SPEED (Kmh),GPS ACCURACY (m),GPS ORIENTATION (Â°), SATELLITES IN RANGE, TIME SINCE START (ms), DATE (YYYY-MO-DD HH-MI-SS_SSS),ACCELEROMETER X (m/s²) , ACCELEROMETER Y (m/s²), ACCELEROMETER Z (m/s²), GRAVITY X (m/s²), GRAVITY Y (m/s²), GRAVITY Z (m/s²), GYROSCOPE Yaw (rad/s), GYROSCOPE Pitch (rad/s), GYROSCOPE Roll (rad/s)
25457,46.285904,-0.394737,76.26,33.86,11.792,214.9,0 / 17,2545646,2019-08-18 23:02:15:179,-0.3185,0.4055,9.2226,-0.4999,0.2796,9.7899,0.0113,-0.0062,0.0107
25458,46.285904,-0.394737,76.26,33.86,11.792,214.9,0 / 17,2545745,2019-08-18 23:02:15:278,-0.2192,0.5252,10.142,-0.4739,0.2716,9.7914,0.0007,-0.0094,0.0149
25459,46.285904,-0.394737,76.26,33.86,11.792,214.9,0 / 17,2545846,2019-08-18 23:02:15:379,-0.3365,0.5419,9.9714,-0.4674,0.2786,9.7915,0.0049,-0.003,0.0139
25460,46.285904,-0.394737,76.26,33.86,11.792,214.9,0 / 17,2545946,2019-08-18 23:02:15:479,-0.1456,0.1218,10.5466,-0.4654,0.2802,9.7916,0.0007,0.0055,0.0107
25461,46.285904,-0.394737,76.26,33.86,11.792,214.9,0 / 17,2546046,2019-08-18 23:02:15:579,-0.3263,-0.1973,9.5386,-0.4677,0.2621,9.792,-0.0068,0.0066,0.0011
25462,46.285904,-0.394737,76.26,33.86,11.792,214.9,0 / 17,2546146,2019-08-18 23:02:15:679,-0.537,-0.1009,9.8888,-0.4623,0.2417,9.7928,-0.0025,-0.0041,-0.0011
25463,46.285904,-0.394737,76.26,33.86,11.792,214.9,0 / 17,2546245,2019-08-18 23:02:15:778,-0.5621,-0.0351,9.9091,-0.4555,0.2334,9.7933,-0.0057,-0.0105,-0.0011
25464,46.285904,-0.394737,76.26,33.86,11.792,214.9,0 / 17,2546346,2019-08-18 23:02:15:879,-0.4694,-0.0452,9.6583,-0.4307,0.1962,9.7952,0.0007,-0.0041,-0.0032
25465,46.285904,-0.394737,76.26,33.86,11.792,214.9,0 / 17,2546446,2019-08-18 23:02:15:979,-0.0923,-0.3295,9.7158,-0.396,0.1075,9.7981,0.0018,-0.0041,-0.0011
25466,46.285904,-0.394737,76.26,33.86,11.792,214.9,0 / 17,2546546,2019-08-18 23:02:16:079,-0.1438,-0.1847,9.9624,-0.3718,0.0256,9.7996,0.0071,0.0034,-0.0032
25467,46.285904,-0.394737,76.26,33.86,11.792,214.9,0 / 17,2546646,2019-08-18 23:02:16:179,-0.0677,0.0242,9.723,-0.3656,-0.0129,9.7998,0.0007,0.0108,-0.0011
25468,46.285904,-0.394737,76.26,33.86,11.792,214.9,0 / 17,2546745,2019-08-18 23:02:16:278,-0.209,-0.3224,10.3951,-0.3684,-0.0214,9.7997,-0.0014,-0.0019,-0.0032
25469,46.285904,-0.394737,76.26,33.86,11.792,214.9,0 / 17,2546846,2019-08-18 23:02:16:379,-0.4077,-0.4702,10.2928,-0.3654,-0.025,9.7998,0.0007,-0.0019,-0.0011
25470,46.285904,-0.394737,76.26,33.86,11.792,214.9,0 / 17,2546945,2019-08-18 23:02:16:478,-0.54,-0.2733,9.5889,-0.366,-0.0358,9.7998,-0.0078,-0.0019,-0.0032
25471,46.285904,-0.394737,76.26,33.86,11.792,214.9,0 / 17,2547046,2019-08-18 23:02:16:579,-0.7633,-0.1518,9.3471,-0.3741,-0.0448,9.7994,-0.0025,0.0076,0.0011
25472,46.285904,-0.394737,76.26,33.86,11.792,214.9,0 / 17,2547146,2019-08-18 23:02:16:679,-0.4347,0.0224,9.4022,-0.4013,-0.0544,9.7983,0.0071,0.0087,0.0011
25473,46.285904,-0.394737,76.26,33.86,11.792,214.9,0 / 17,2547246,2019-08-18 23:02:16:779,-0.3814,-0.3188,9.7738,-0.435,-0.0772,9.7967,0.0081,-0.003,0.0022
25474,46.285904,-0.394737,76.26,33.86,11.792,214.9,0 / 17,2547346,2019-08-18 23:02:16:879,-0.3281,0.205,9.9582,-0.4646,-0.0572,9.7955,0.006,-0.0051,0.0064
25475,46.285904,-0.394737,76.26,33.86,11.792,214.9,0 / 17,2547445,2019-08-18 23:02:16:978,-0.3461,0.2529,10.127,-0.477,-0.0314,9.795,0.0018,0.0045,0.0096
25476,46.285904,-0.394737,76.26,33.86,11.792,214.9,0 / 17,2547545,2019-08-18 23:02:17:078,-0.6711,0.1445,9.9355,-0.4897,-0.0239,9.7944,-0.0014,0.0055,0.0139
25477,46.285904,-0.394737,76.26,33.86,11.792,214.9,0 / 17,2547646,2019-08-18 23:02:17:179,-0.6825,0.3522,9.8774,-0.5032,0.0354,9.7937,-0.0025,-0.0051,0.0117
25478,46.285904,-0.394737,76.26,33.86,11.792,214.9,0 / 17,2547745,2019-08-18 23:02:17:278,-0.7938,-0.0093,9.6452,-0.4938,0.0414,9.7941,-0.0068,-0.0073,0.0128
25479,46.285904,-0.394737,76.26,33.86,11.792,214.9,0 / 17,2547845,2019-08-18 23:02:17:378,-0.8519,0.345,9.5476,-0.4876,0.0659,9.7943,0.0028,-0.0073,0.0117
25480,46.285904,-0.394737,76.26,33.86,11.792,214.9,0 / 17,2547946,2019-08-18 23:02:17:479,-0.394,0.0206,9.6805,-0.4915,0.0787,9.794,0.0039,0.0066,0.0107
25481,46.285904,-0.394737,76.26,33.86,11.792,214.9,0 / 17,2548045,2019-08-18 23:02:17:578,-0.4472,0.0799,9.0664,-0.4912,0.0814,9.794,-0.0014,0.0023,0.0096
25482,46.285904,-0.394737,76.26,33.86,11.792,214.9,0 / 17,2548146,2019-08-18 23:02:17:679,-0.0169,0.4306,9.7314,-0.4908,0.089,9.794,-0.0078,0.0002,0.0139
25483,46.285904,-0.394737,76.26,33.86,11.792,214.9,0 / 17,2548246,2019-08-18 23:02:17:779,-0.3335,0.3313,10.3844,-0.4819,0.0951,9.7943,-0.0025,-0.0062,0.0107
25484,46.285904,-0.394737,76.26,33.86,11.792,214.9,0 / 17,2548346,2019-08-18 23:02:17:879,-0.3772,0.1523,10.0899,-0.4487,0.1328,9.7955,-0.0004,-0.0009,0.0117
25485,46.285904,-0.394737,76.26,33.86,11.792,214.9,0 / 17,2548446,2019-08-18 23:02:17:979,-0.689,0.3552,9.8912,-0.4168,0.1723,9.7963,-0.0068,-0.0009,0.0107
25486,46.285904,-0.394737,76.26,33.86,11.792,214.9,0 / 17,2548545,2019-08-18 23:02:18:078,-0.3952,0.1631,9.978,-0.3866,0.1982,9.797,0.0007,-0.0062,0.0128
25487,46.285904,-0.394737,76.26,33.86,11.792,214.9,0 / 17,2548645,2019-08-18 23:02:18:178,-0.5017,0.3785,9.7242,-0.3742,0.1962,9.7975,-0.0121,0.0013,0.0128
25488,46.285904,-0.394737,76.26,33.86,11.792,214.9,0 / 17,2548745,2019-08-18 23:02:18:278,-0.3347,0.2217,9.1699,-0.3717,0.1971,9.7976,-0.0046,0.0002,0.0128
25489,46.285904,-0.394737,76.26,33.86,11.792,214.9,0 / 17,2548846,2019-08-18 23:02:18:379,-0.0438,0.1984,9.811,-0.3439,0.2112,9.7983,-0.0036,-0.0019,0.0128
25490,46.285904,-0.394737,76.26,33.86,11.792,214.9,0 / 17,2548945,2019-08-18 23:02:18:478,-0.0282,0.4138,10.3173,-0.3283,0.2222,9.7986,-0.0004,-0.0041,0.0117
25491,46.285904,-0.394737,76.26,33.86,11.792,214.9,0 / 17,2549045,2019-08-18 23:02:18:578,-0.0408,0.2403,9.7882,-0.3175,0.2361,9.7987,-0.0036,-0.0009,0.0107
25492,46.285904,-0.394737,76.26,33.86,11.792,214.9,0 / 17,2549146,2019-08-18 23:02:18:679,-0.3862,0.2648,9.8642,-0.2862,0.2394,9.7996,-0.0078,-0.0041,0.0096
25493,46.285904,-0.394737,76.26,33.86,11.792,214.9,0 / 17,2549245,2019-08-18 23:02:18:778,-0.4784,0.1702,9.8433,-0.2748,0.2335,9.8,-0.0057,0.0013,0.0117
25494,46.285904,-0.394737,76.26,33.86,11.792,214.9,0 / 17,2549346,2019-08-18 23:02:18:879,-0.3215,0.0404,9.4967,-0.2674,0.2324,9.8002,0.0092,-0.0062,0.0096
25495,46.285904,-0.394737,76.26,33.86,11.792,214.9,0 / 17,2549445,2019-08-18 23:02:18:978,-0.0827,0.5282,9.5278,-0.2615,0.2101,9.8009,0.0039,0.0066,0.0117
25496,46.285904,-0.394737,76.26,33.86,11.792,214.9,0 / 17,2549545,2019-08-18 23:02:19:078,0.0909,0.1445,10.1904,-0.2665,0.2167,9.8006,0.0039,0.0098,0.0139
25497,46.285904,-0.394737,76.26,33.86,11.792,214.9,0 / 17,2549646,2019-08-18 23:02:19:179,-0.0468,0.5731,10.115,-0.269,0.2208,9.8005,0.0007,0.0034,0.0117
25498,46.285904,-0.394737,76.26,33.86,11.792,214.9,0 / 17,2549746,2019-08-18 23:02:19:279,-0.1683,0.0122,9.8271,-0.2593,0.229,9.8005,0.0103,-0.0083,0.0085
25499,46.285904,-0.394737,76.26,33.86,11.792,214.9,0 / 17,2549845,2019-08-18 23:02:19:378,-0.2725,0.4881,9.319,-0.2565,0.2325,9.8005,-0.0036,0.0108,0.0085
25500,46.285904,-0.394737,76.26,33.86,11.792,214.9,0 / 17,2549945,2019-08-18 23:02:19:478,-0.4341,0.0823,9.8313,-0.2523,0.2371,9.8005,0.0018,-0.0051,0.0107
25501,46.285904,-0.394737,76.26,33.86,11.792,214.9,0 / 17,2550046,2019-08-18 23:02:19:579,-0.5562,0.336,9.6428,-0.246,0.2404,9.8006,0.0071,-0.0041,0.0107
25502,46.285904,-0.394737,76.26,33.86,11.792,214.9,0 / 17,2550145,2019-08-18 23:02:19:678,-0.0983,0.3989,9.7266,-0.2373,0.219,9.8013,0.0071,0.0045,0.0117
25503,46.285904,-0.394737,76.26,33.86,11.792,214.9,0 / 17,2550246,2019-08-18 23:02:19:779,-0.0283,0.1571,9.5841,-0.2447,0.2178,9.8012,-0.0036,0.0108,0.0085
25504,46.285904,-0.394737,76.26,33.86,11.792,214.9,0 / 17,2550345,2019-08-18 23:02:19:878,-0.197,0.1469,9.7912,-0.242,0.2107,9.8014,-0.0046,-0.0009,0.0085
25505,46.285904,-0.394737,76.26,33.86,11.792,214.9,0 / 17,2550445,2019-08-18 23:02:19:978,-0.4113,0.1355,9.9756,-0.2454,0.2155,9.8012,0.0018,0.0013,0.0117
25506,46.285904,-0.394737,76.26,33.86,11.792,214.9,0 / 17,2550545,2019-08-18 23:02:20:078,-0.64,0.1523,9.5859,-0.2487,0.2159,9.8011,0.0049,0.0002,0.0107
25507,46.285904,-0.394737,76.26,33.86,11.792,214.9,0 / 17,2550645,2019-08-18 23:02:20:178,-0.6268,0.1804,9.9217,-0.2618,0.2216,9.8007,0.0049,0.0002,0.0096
25508,46.285904,-0.394737,76.26,33.86,11.792,214.9,0 / 17,2550745,2019-08-18 23:02:20:278,-0.4526,0.1349,9.4249,-0.314,0.2114,9.7993,-0.0068,0.0055,0.0107
25509,46.285904,-0.394737,76.26,33.86,11.792,214.9,0 / 17,2550846,2019-08-18 23:02:20:379,-0.2365,0.0912,9.6853,-0.3296,0.2125,9.7988,0.0039,0.0108,0.0096
25510,46.285904,-0.394737,76.26,33.86,11.792,214.9,0 / 17,2550946,2019-08-18 23:02:20:479,-0.5077,0.2199,9.5979,-0.3664,0.2066,9.7976,-0.0025,0.0098,0.0107
25511,46.285904,-0.394737,76.26,33.86,11.792,214.9,0 / 17,2551045,2019-08-18 23:02:20:578,-0.5639,-0.0016,9.5446,-0.4199,0.2183,9.7952,0.0071,0.0108,0.0117
25512,46.285904,-0.394737,76.26,33.86,11.792,214.9,0 / 17,2551145,2019-08-18 23:02:20:678,-0.8483,0.1379,9.623,-0.4404,0.2229,9.7942,0.0103,0.0098,0.0107
25513,46.285904,-0.394737,76.26,33.86,11.792,214.9,0 / 17,2551245,2019-08-18 23:02:20:778,-0.7363,0.3283,9.5434,-0.4573,0.2196,9.7935,0.0156,-0.0083,0.0117
25514,46.285904,-0.394737,76.26,33.86,11.792,214.9,0 / 17,2551346,2019-08-18 23:02:20:879,-0.4347,0.369,10.2377,-0.4456,0.2227,9.794,-0.0014,-0.019,0.0117
25515,46.285904,-0.394737,76.26,33.86,11.792,214.9,Dec-17,2551445,2019-08-18 23:02:20:978,-0.3221,0.6114,10.5053,-0.4231,0.2279,9.7949,-0.0004,-0.0243,0.0107
25516,46.285904,-0.394737,76.26,33.86,11.792,214.9,Dec-17,2551545,2019-08-18 23:02:21:078,-0.066,0.2331,10.4484,-0.4146,0.2241,9.7953,-0.0089,-0.0009,0.0085
25517,46.285904,-0.394737,76.26,33.86,11.792,214.9,Dec-17,2551646,2019-08-18 23:02:21:179,-0.364,0.3067,9.0388,-0.415,0.2247,9.7953,-0.0004,0.0045,0.0107
25518,46.285904,-0.394737,76.26,33.86,11.792,214.9,Dec-17,2551745,2019-08-18 23:02:21:278,-0.358,0.2475,9.3285,-0.4129,0.2267,9.7953,0.0007,-0.0009,0.0117
25519,46.285904,-0.394737,76.26,33.86,11.792,214.9,Dec-17,2551846,2019-08-18 23:02:21:379,-0.5376,0.4246,9.799,-0.4031,0.2383,9.7955,0.0103,-0.0009,0.0149
25520,46.285904,-0.394737,76.26,33.86,11.792,214.9,Dec-17,2551945,2019-08-18 23:02:21:478,-0.2282,0.351,9.6116,-0.3984,0.2545,9.7953,0.0167,-0.003,0.0128
25521,46.285904,-0.394737,76.26,33.86,11.792,214.9,Dec-17,2552046,2019-08-18 23:02:21:579,-0.1761,0.1236,9.8942,-0.3967,0.2699,9.7949,0.0103,0.0066,0.0128
25522,46.285904,-0.394737,76.26,33.86,11.792,214.9,Dec-17,2552145,2019-08-18 23:02:21:678,-0.1479,0.4845,9.9666,-0.3897,0.2897,9.7946,-0.0078,0.0045,0.0117
25523,46.285904,-0.394737,76.26,33.86,11.792,214.9,Dec-17,2552246,2019-08-18 23:02:21:779,-0.3389,0.5378,10.1318,-0.3769,0.3117,9.7944,0.0018,0.0002,0.0107
25524,46.285904,-0.394737,76.26,33.86,11.792,214.9,Dec-17,2552345,2019-08-18 23:02:21:878,-0.5939,0.1882,9.6464,-0.3687,0.3172,9.7946,0.0049,-0.003,0.0096
25525,46.283512,-0.396829,82.73,35.58,9.648001,209.0,0 / 17,2552446,2019-08-18 23:02:21:979,-0.4035,0.4216,9.2495,-0.3734,0.311,9.7946,0.0071,0.0045,0.0117
25526,46.283512,-0.396829,82.73,35.58,9.648001,209.0,0 / 17,2552546,2019-08-18 23:02:22:079,-0.3084,0.3295,9.9049,-0.3778,0.3176,9.7942,0.0071,0.0045,0.0117
25527,46.283512,-0.396829,82.73,35.58,9.648001,209.0,0 / 17,2552645,2019-08-18 23:02:22:178,-0.1994,0.3929,9.6134,-0.3767,0.3228,9.7941,0.0049,0.0045,0.0096
25528,46.283512,-0.396829,82.73,35.58,9.648001,209.0,0 / 17,2552746,2019-08-18 23:02:22:279,-0.0642,0.0817,10.1252,-0.3725,0.3297,9.794,-0.0004,-0.0041,0.0096
25529,46.283512,-0.396829,82.73,35.58,9.648001,209.0,0 / 17,2552845,2019-08-18 23:02:22:378,-0.5286,0.1487,9.5183,-0.3728,0.3292,9.794,0.0018,0.0023,0.0117
25530,46.283512,-0.396829,82.73,35.58,9.648001,209.0,0 / 17,2552946,2019-08-18 23:02:22:479,-0.5424,0.342,9.1286,-0.3818,0.3395,9.7933,0.0135,0.0055,0.016
25531,46.283512,-0.396829,82.73,35.58,9.648001,209.0,0 / 17,2553046,2019-08-18 23:02:22:579,-0.5658,0.5934,9.5674,-0.3801,0.3665,9.7924,0.0113,-0.0073,0.0245
25532,46.283512,-0.396829,82.73,35.58,9.648001,209.0,0 / 17,2553145,2019-08-18 23:02:22:678,-0.3976,0.9603,9.9462,-0.3788,0.3854,9.7918,0.0103,0.0023,0.0245
25533,46.283512,-0.396829,82.73,35.58,9.648001,209.0,0 / 17,2553245,2019-08-18 23:02:22:778,-0.2796,0.8071,9.8535,-0.3854,0.4131,9.7904,0.0018,0.0066,0.0245
25534,46.283512,-0.396829,82.73,35.58,9.648001,209.0,0 / 17,2553345,2019-08-18 23:02:22:878,-0.2539,0.6323,9.7056,-0.4071,0.4922,9.7858,-0.0014,0.0034,0.0256
25535,46.283512,-0.396829,82.73,35.58,9.648001,209.0,0 / 17,2553445,2019-08-18 23:02:22:978,-0.8746,1.0531,9.8205,-0.4264,0.5837,9.78,-0.0057,0.0013,0.0235
25536,46.283512,-0.396829,82.73,35.58,9.648001,209.0,0 / 17,2553545,2019-08-18 23:02:23:078,-0.859,0.5527,8.8844,-0.4696,0.6176,9.7759,0.0028,0.0023,0.0203
25537,46.283512,-0.396829,82.73,35.58,9.648001,209.0,0 / 17,2553645,2019-08-18 23:02:23:178,-0.3952,0.7257,10.0594,-0.4764,0.6161,9.7757,-0.0014,-0.0147,0.0139
25538,46.283512,-0.396829,82.73,35.58,9.648001,209.0,0 / 17,2553746,2019-08-18 23:02:23:279,-0.3143,0.5557,9.7679,-0.4722,0.5925,9.7773,-0.0132,-0.0019,0.0043
25539,46.283512,-0.396829,82.73,35.58,9.648001,209.0,0 / 17,2553846,2019-08-18 23:02:23:379,-0.2324,0.2229,10.1773,-0.4745,0.5736,9.7784,-0.0078,0.0034,0.0043
25540,46.283512,-0.396829,82.73,35.58,9.648001,209.0,0 / 17,2553946,2019-08-18 23:02:23:479,-0.5167,0.1134,9.5853,-0.4787,0.5528,9.7793,-0.0153,0.0066,0.0064
25541,46.283512,-0.396829,82.73,35.58,9.648001,209.0,0 / 17,2554046,2019-08-18 23:02:23:579,-0.7956,0.0104,9.6505,-0.4776,0.5236,9.781,-0.0068,-0.0083,0.0053
25542,46.283512,-0.396829,82.73,35.58,9.648001,209.0,0 / 17,2554145,2019-08-18 23:02:23:678,-0.7812,0.181,9.2902,-0.4919,0.4459,9.7841,0.0039,-0.0009,0.0064
25543,46.283512,-0.396829,82.73,35.58,9.648001,209.0,0 / 17,2554245,2019-08-18 23:02:23:778,-0.376,-0.0734,9.6859,-0.5077,0.4249,9.7843,0.0049,0.0076,0.0053
25544,46.283512,-0.396829,82.73,35.58,9.648001,209.0,0 / 17,2554345,2019-08-18 23:02:23:878,-0.1827,0.3001,9.6583,-0.5099,0.3592,9.7868,0.0092,0.0108,0.0053
25545,46.283512,-0.396829,82.73,35.58,9.648001,209.0,0 / 17,2554446,2019-08-18 23:02:23:979,-0.3664,-0.1362,10.1617,-0.5133,0.3545,9.7868,0.0049,0.0013,0.0053
25546,46.283512,-0.396829,82.73,35.58,9.648001,209.0,0 / 17,2554545,2019-08-18 23:02:24:078,-0.8614,0.0344,9.3818,-0.5128,0.3491,9.787,0.0007,-0.003,0.0032
25547,46.283512,-0.396829,82.73,35.58,9.648001,209.0,0 / 17,2554645,2019-08-18 23:02:24:178,-0.941,-0.1141,9.6021,-0.5144,0.3357,9.7874,0.0039,0.0002,-0.0011
25548,46.283512,-0.396829,82.73,35.58,9.648001,209.0,0 / 17,2554745,2019-08-18 23:02:24:278,-0.5143,-0.0249,9.4099,-0.5195,0.3189,9.7877,0.006,0.0023,-0.0032
25549,46.283512,-0.396829,82.73,35.58,9.648001,209.0,0 / 17,2554845,2019-08-18 23:02:24:378,-0.2372,-0.0644,9.8385,-0.5199,0.2535,9.7896,0.0039,0.0002,-0.0042
25550,46.283512,-0.396829,82.73,35.58,9.648001,209.0,0 / 17,2554945,2019-08-18 23:02:24:478,-0.0881,-0.3481,10.3365,-0.5026,0.143,9.7927,0.0028,0.0002,-0.0042
25551,46.283512,-0.396829,82.73,35.58,9.648001,209.0,0 / 17,2555045,2019-08-18 23:02:24:578,-0.4335,-0.3224,9.3932,-0.496,0.0657,9.7939,-0.0046,0.0045,-0.0042
25552,46.283512,-0.396829,82.73,35.58,9.648001,209.0,0 / 17,2555145,2019-08-18 23:02:24:678,-0.5735,-0.217,9.0346,-0.4895,0.0084,9.7944,-0.0014,0.0098,-0.0021
25553,46.283512,-0.396829,82.73,35.58,9.648001,209.0,0 / 17,2555245,2019-08-18 23:02:24:778,-0.4598,-0.0955,9.6003,-0.4804,-0.0326,9.7948,-0.0025,-0.0115,-0.0021
25554,46.283512,-0.396829,82.73,35.58,9.648001,209.0,0 / 17,2555345,2019-08-18 23:02:24:878,-0.3443,-0.0195,9.5895,-0.4733,-0.0369,9.7952,0.0081,0.0055,-0.0011
25555,46.283512,-0.396829,82.73,35.58,9.648001,209.0,0 / 17,2555445,2019-08-18 23:02:24:978,-0.0785,0.1164,9.5644,-0.4799,-0.0275,9.7949,0.0177,0.0119,0.0022
25556,46.283512,-0.396829,82.73,35.58,9.648001,209.0,0 / 17,2555546,2019-08-18 23:02:25:079,-0.2653,-0.0464,9.0849,-0.4953,0.0117,9.7941,0.038,0.0215,0.0085
25557,46.283512,-0.396829,82.73,35.58,9.648001,209.0,0 / 17,2555645,2019-08-18 23:02:25:178,-0.5915,0.2439,9.4093,-0.5021,0.041,9.7937,0.0358,0.0087,0.0075
25558,46.283512,-0.396829,82.73,35.58,9.648001,209.0,0 / 17,2555746,2019-08-18 23:02:25:279,-0.8776,0.0715,9.8648,-0.4936,0.0746,9.7939,0.0092,-0.0115,0.0043
25559,46.283512,-0.396829,82.73,35.58,9.648001,209.0,0 / 17,2555846,2019-08-18 23:02:25:379,-0.6214,0.3103,10.6442,-0.4886,0.0811,9.7941,-0.0025,-0.0105,0.0011
25560,46.283512,-0.396829,82.73,35.58,9.648001,209.0,0 / 17,2555945,2019-08-18 23:02:25:478,-0.4819,0.0619,10.6843,-0.4897,0.0828,9.7941,-0.0004,0.0055,0.0032
25561,46.283512,-0.396829,82.73,35.58,9.648001,209.0,0 / 17,2556046,2019-08-18 23:02:25:579,-0.2802,0.1355,9.7074,-0.4977,0.0834,9.7937,-0.0036,0.0087,0.0043
25562,46.283512,-0.396829,82.73,35.58,9.648001,209.0,0 / 17,2556146,2019-08-18 23:02:25:679,-0.0947,0.1816,9.5219,-0.5029,0.0877,9.7934,0.0007,-0.0009,0.0043
25563,46.283512,-0.396829,82.73,35.58,9.648001,209.0,0 / 17,2556245,2019-08-18 23:02:25:778,-0.8351,0.3851,9.611,-0.4994,0.1012,9.7934,0.0103,-0.0062,0.0064
25564,46.283512,-0.396829,82.73,35.58,9.648001,209.0,0 / 17,2556346,2019-08-18 23:02:25:879,-0.7094,0.0691,9.2848,-0.5039,0.1462,9.7926,0.0337,0.0098,0.0064
25565,46.283512,-0.396829,82.73,35.58,9.648001,209.0,0 / 17,2556446,2019-08-18 23:02:25:979,-0.4305,0.2086,10.045,-0.5025,0.1738,9.7922,0.0294,-0.0062,0.0085
25566,46.283512,-0.396829,82.73,35.58,9.648001,209.0,0 / 17,2556545,2019-08-18 23:02:26:078,-0.7154,0.2983,9.5739,-0.4974,0.1932,9.7921,0.0103,0.0023,0.0032
25567,46.283512,-0.396829,82.73,35.58,9.648001,209.0,0 / 17,2556645,2019-08-18 23:02:26:178,-0.4017,0.1218,9.7278,-0.4937,0.2036,9.7921,0.0103,-0.0041,0.0032
25568,46.283512,-0.396829,82.73,35.58,9.648001,209.0,0 / 17,2556745,2019-08-18 23:02:26:278,-0.3365,0.257,9.4339,-0.4776,0.2376,9.7921,0.0145,0.0098,0.0043
25569,46.283512,-0.396829,82.73,35.58,9.648001,209.0,0 / 17,2556846,2019-08-18 23:02:26:379,-0.2395,0.4546,9.8253,-0.4799,0.2495,9.7917,0.0135,0.0045,0.0043
25570,46.283512,-0.396829,82.73,35.58,9.648001,209.0,0 / 17,2556946,2019-08-18 23:02:26:479,-0.4293,0.2546,9.4039,-0.4821,0.2674,9.7911,0.0177,0.0045,0.0053
25571,46.283512,-0.396829,82.73,35.58,9.648001,209.0,0 / 17,2557046,2019-08-18 23:02:26:579,-0.6035,0.2792,9.2633,-0.4854,0.2902,9.7903,0.0199,0.0023,0.0043
25572,46.283512,-0.396829,82.73,35.58,9.648001,209.0,0 / 17,2557145,2019-08-18 23:02:26:678,-0.5741,0.3313,10.0402,-0.4843,0.3066,9.7899,0.0124,-0.0019,0.0022
25573,46.283512,-0.396829,82.73,35.58,9.648001,209.0,0 / 17,2557246,2019-08-18 23:02:26:779,-0.3658,0.5198,10.0755,-0.4782,0.3128,9.79,0.0081,-0.0083,0.0022
25574,46.283512,-0.396829,82.73,35.58,9.648001,209.0,0 / 17,2557345,2019-08-18 23:02:26:878,-0.118,0.588,10.5095,-0.459,0.3193,9.7907,0.0049,-0.0147,0.0032
25575,46.283512,-0.396829,82.73,35.58,9.648001,209.0,0 / 17,2557446,2019-08-18 23:02:26:979,-0.3431,0.1307,10.2724,-0.454,0.3292,9.7906,0.0177,-0.003,0.0032
25576,46.283512,-0.396829,82.73,35.58,9.648001,209.0,0 / 17,2557545,2019-08-18 23:02:27:078,-0.8219,0.2181,9.7463,-0.4578,0.3412,9.79,0.006,0.0055,0.0022
25577,46.283512,-0.396829,82.73,35.58,9.648001,209.0,0 / 17,2557646,2019-08-18 23:02:27:179,-1.1266,0.4593,9.2202,-0.4822,0.3517,9.7885,0.0071,0.0151,0.0032
25578,46.283512,-0.396829,82.73,35.58,9.648001,209.0,0 / 17,2557746,2019-08-18 23:02:27:279,-1.1308,0.5072,9.304,-0.5033,0.3596,9.7871,0.0135,0.014,0.0022
25579,46.283512,-0.396829,82.73,35.58,9.648001,209.0,0 / 17,2557845,2019-08-18 23:02:27:378,-0.8459,0.4989,10.3299,-0.5217,0.3703,9.7858,0.0092,-0.0073,0.0043
25580,46.283512,-0.396829,82.73,35.58,9.648001,209.0,0 / 17,2557946,2019-08-18 23:02:27:479,-0.5406,0.184,9.9642,-0.5295,0.3799,9.785,0.0167,-0.0083,0.0053
25581,46.283512,-0.396829,82.73,35.58,9.648001,209.0,0 / 17,2558046,2019-08-18 23:02:27:579,-0.6424,0.339,10.1707,-0.575,0.3936,9.7819,0.0156,0.0013,0.0053
25582,46.283512,-0.396829,82.73,35.58,9.648001,209.0,0 / 17,2558145,2019-08-18 23:02:27:678,-1.2385,0.2379,9.4363,-0.6642,0.4128,9.7754,0.0305,0.0098,0.0043
25583,46.283512,-0.396829,82.73,35.58,9.648001,209.0,0 / 17,2558245,2019-08-18 23:02:27:778,-1.2786,0.4378,9.4788,-0.6828,0.4357,9.7731,0.0081,-0.003,0.0053
25584,46.283512,-0.396829,82.73,35.58,9.648001,209.0,0 / 17,2558345,2019-08-18 23:02:27:878,-1.0548,0.6575,9.6356,-0.6861,0.4336,9.773,-0.0078,-0.0062,0.0032
25585,46.283512,-0.396829,82.73,35.58,9.648001,209.0,0 / 17,2558445,2019-08-18 23:02:27:978,-0.695,0.3881,10.3443,-0.7031,0.4301,9.772,-0.0014,-0.0009,0.0022
25586,46.283512,-0.396829,82.73,35.58,9.648001,209.0,0 / 17,2558545,2019-08-18 23:02:28:078,-1.1685,0.3618,9.6296,-0.717,0.4294,9.771,-0.0046,0.0013,0.0043
25587,46.283512,-0.396829,82.73,35.58,9.648001,209.0,0 / 17,2558646,2019-08-18 23:02:28:179,-0.8896,0.2792,9.6122,-0.7269,0.4157,9.7708,-0.0206,0.0002,0.0043
25588,46.283512,-0.396829,82.73,35.58,9.648001,209.0,0 / 17,2558745,2019-08-18 23:02:28:278,-1.1655,0.4821,10.1252,-0.7346,0.3908,9.7713,-0.027,-0.0073,0.0022
25589,46.283512,-0.396829,82.73,35.58,9.648001,209.0,0 / 17,2558846,2019-08-18 23:02:28:379,-1.3684,0.418,9.2759,-0.7782,0.3875,9.768,-0.0164,-0.0115,0.0032
25590,46.283512,-0.396829,82.73,35.58,9.648001,209.0,0 / 17,2558945,2019-08-18 23:02:28:478,-0.9746,0.3893,9.7367,-0.7945,0.3911,9.7666,0.0007,-0.0073,0.0053
25591,46.283512,-0.396829,82.73,35.58,9.648001,209.0,0 / 17,2559045,2019-08-18 23:02:28:578,-0.9578,0.4779,9.5201,-0.8019,0.3969,9.7658,0.0071,0.0098,0.0075
25592,46.283512,-0.396829,82.73,35.58,9.648001,209.0,0 / 17,2559145,2019-08-18 23:02:28:678,-0.7776,0.3468,9.6302,-0.8124,0.4002,9.7647,-0.0057,0.0098,0.0085
25593,46.283512,-0.396829,82.73,35.58,9.648001,209.0,0 / 17,2559245,2019-08-18 23:02:28:778,-0.8555,0.442,9.5111,-0.8189,0.394,9.7645,-0.0153,0.0055,0.0075
25594,46.283512,-0.396829,82.73,35.58,9.648001,209.0,0 / 17,2559346,2019-08-18 23:02:28:879,-0.9003,0.4863,9.7769,-0.8219,0.3987,9.764,0.0071,-0.0062,0.0053
25595,46.283512,-0.396829,82.73,35.58,9.648001,209.0,0 / 17,2559445,2019-08-18 23:02:28:978,-1.0177,0.5802,8.9628,-0.8264,0.4184,9.7628,0.0156,0.013,0.0064
25596,46.283512,-0.396829,82.73,35.58,9.648001,209.0,0 / 17,2559545,2019-08-18 23:02:29:078,-0.6094,0.6174,9.5326,-0.8287,0.4307,9.7621,0.0103,0.0023,0.0064
25597,46.283512,-0.396829,82.73,35.58,9.648001,209.0,0 / 17,2559645,2019-08-18 23:02:29:178,-0.6478,0.4588,10.0588,-0.8274,0.4399,9.7618,0.0103,0.0013,0.0064
25598,46.283512,-0.396829,82.73,35.58,9.648001,209.0,0 / 17,2559745,2019-08-18 23:02:29:278,-0.443,0.6545,10.0863,-0.8169,0.4477,9.7623,0.0039,-0.0083,0.0064
25599,46.283512,-0.396829,82.73,35.58,9.648001,209.0,0 / 17,2559845,2019-08-18 23:02:29:378,-0.2545,0.3708,9.7894,-0.7697,0.4479,9.7661,0.0092,-0.0083,0.0064
25600,46.283512,-0.396829,82.73,35.58,9.648001,209.0,0 / 17,2559945,2019-08-18 23:02:29:478,-0.725,0.3672,9.6063,-0.7559,0.4545,9.7669,0.0049,-0.0051,0.0075
25601,46.283512,-0.396829,82.73,35.58,9.648001,209.0,0 / 17,2560046,2019-08-18 23:02:29:579,-0.8542,0.5354,9.7451,-0.7231,0.483,9.768,0.0103,-0.0062,0.0075
25602,46.283512,-0.396829,82.73,35.58,9.648001,209.0,0 / 17,2560145,2019-08-18 23:02:29:678,-0.7549,0.5204,9.3848,-0.7044,0.5112,9.7679,0.0113,-0.003,0.0064
25603,46.283512,-0.396829,82.73,35.58,9.648001,209.0,0 / 17,2560245,2019-08-18 23:02:29:778,-0.4209,0.5192,9.5159,-0.6757,0.5154,9.7698,0.0049,0.0034,0.0043
25604,46.283512,-0.396829,82.73,35.58,9.648001,209.0,0 / 17,2560346,2019-08-18 23:02:29:879,-0.5406,0.7496,10.0899,-0.6673,0.5125,9.7705,-0.0132,-0.0137,0.0053
25605,46.283512,-0.396829,82.73,35.58,9.648001,209.0,14 / 17,2560445,2019-08-18 23:02:29:978,-0.5999,0.5228,10.0276,-0.6768,0.512,9.7699,0.0081,0.0087,0.0053
25606,46.283512,-0.396829,82.73,35.58,9.648001,209.0,14 / 17,2560546,2019-08-18 23:02:30:079,-0.8153,0.3516,10.0229,-0.6859,0.5145,9.7691,0.006,0.0013,0.0064
25607,46.283512,-0.396829,82.73,35.58,9.648001,209.0,14 / 17,2560645,2019-08-18 23:02:30:178,-1.2457,0.4073,9.535,-0.7038,0.5143,9.7678,-0.0025,0.0087,0.0043
25608,46.283512,-0.396829,82.73,35.58,9.648001,209.0,14 / 17,2560746,2019-08-18 23:02:30:279,-1.3678,0.4145,9.7056,-0.7148,0.5118,9.7672,-0.0046,0.0013,0.0043
25609,46.283512,-0.396829,82.73,35.58,9.648001,209.0,14 / 17,2560846,2019-08-18 23:02:30:379,-1.3373,0.6335,9.2256,-0.747,0.5193,9.7644,-0.01,0.0013,0.0043
25610,46.283512,-0.396829,82.73,35.58,9.648001,209.0,14 / 17,2560946,2019-08-18 23:02:30:479,-0.7615,0.5443,9.6769,-0.7603,0.5204,9.7633,0.0007,-0.0041,0.0064
25611,46.283512,-0.396829,82.73,35.58,9.648001,209.0,14 / 17,2561046,2019-08-18 23:02:30:579,-0.6471,0.603,9.9588,-0.7663,0.5212,9.7628,0.0007,0.0055,0.0053
25612,46.283512,-0.396829,82.73,35.58,9.648001,209.0,14 / 17,2561146,2019-08-18 23:02:30:679,-0.3473,0.5725,10.0857,-0.7722,0.5233,9.7622,0.0028,0.0066,0.0043
25613,46.283512,-0.396829,82.73,35.58,9.648001,209.0,14 / 17,2561246,2019-08-18 23:02:30:779,-0.7752,0.2223,10.1479,-0.7832,0.5182,9.7616,0.006,-0.0041,0.0053
25614,46.283512,-0.396829,82.73,35.58,9.648001,209.0,14 / 17,2561346,2019-08-18 23:02:30:879,-0.9787,0.5348,10.112,-0.7959,0.5163,9.7607,-0.0014,-0.0051,0.0053
25615,46.283512,-0.396829,82.73,35.58,9.648001,209.0,14 / 17,2561445,2019-08-18 23:02:30:978,-1.0033,0.3606,9.556,-0.8043,0.5208,9.7597,0.0103,-0.0073,0.0064
25616,46.283512,-0.396829,82.73,35.58,9.648001,209.0,14 / 17,2561546,2019-08-18 23:02:31:079,-0.8507,0.8484,9.8193,-0.7951,0.5277,9.7601,0.0039,-0.0041,0.0075
25617,46.283512,-0.396829,82.73,35.58,9.648001,209.0,14 / 17,2561646,2019-08-18 23:02:31:179,-0.6023,0.4671,9.9738,-0.7864,0.5284,9.7608,-0.0014,-0.0051,0.0064
25618,46.283512,-0.396829,82.73,35.58,9.648001,209.0,14 / 17,2561745,2019-08-18 23:02:31:278,-0.3814,0.767,9.9019,-0.7576,0.536,9.7626,-0.0089,-0.0041,0.0053
25619,46.283512,-0.396829,82.73,35.58,9.648001,209.0,14 / 17,2561846,2019-08-18 23:02:31:379,-0.3,0.6766,10.2042,-0.7051,0.5503,9.7658,-0.0068,-0.0041,0.0043
25620,46.283512,-0.396829,82.73,35.58,9.648001,209.0,14 / 17,2561946,2019-08-18 23:02:31:479,-0.5119,0.4468,9.6805,-0.6886,0.5471,9.7671,-0.0068,0.0013,0.0075
25621,46.283512,-0.396829,82.73,35.58,9.648001,209.0,14 / 17,2562046,2019-08-18 23:02:31:579,-0.6334,0.4809,9.6218,-0.6901,0.5457,9.7671,-0.0036,0.0076,0.0085
25622,46.283512,-0.396829,82.73,35.58,9.648001,209.0,14 / 17,2562146,2019-08-18 23:02:31:679,-0.8842,0.4749,9.146,-0.6811,0.5617,9.7668,0.0081,0.0098,0.0085
25623,46.283512,-0.396829,82.73,35.58,9.648001,209.0,14 / 17,2562245,2019-08-18 23:02:31:778,-0.8728,0.5683,9.5901,-0.6786,0.5736,9.7663,0.0145,0.0013,0.0085
25624,46.283512,-0.396829,82.73,35.58,9.648001,209.0,14 / 17,2562346,2019-08-18 23:02:31:879,-0.9375,0.6102,9.6984,-0.6773,0.5778,9.7662,0.0028,-0.0051,0.0085
25625,46.283512,-0.396829,82.73,35.58,9.648001,209.0,14 / 17,2562445,2019-08-18 23:02:31:978,-0.5861,0.5755,9.9067,-0.6758,0.5743,9.7665,-0.0078,0.0013,0.0064
25626,46.283512,-0.396829,82.73,35.58,9.648001,209.0,14 / 17,2562546,2019-08-18 23:02:32:079,-0.716,0.5312,9.9768,-0.6875,0.5732,9.7657,0.0007,0.0066,0.0053
25627,46.283512,-0.396829,82.73,35.58,9.648001,209.0,14 / 17,2562646,2019-08-18 23:02:32:179,-0.4993,0.3606,9.4818,-0.6895,0.5724,9.7656,0.0039,-0.003,0.0064
25628,46.283512,-0.396829,82.73,35.58,9.648001,209.0,14 / 17,2562746,2019-08-18 23:02:32:279,-0.4766,0.3349,9.9546,-0.6941,0.5568,9.7662,-0.0004,-0.003,0.0043
25629,46.283512,-0.396829,82.73,35.58,9.648001,209.0,14 / 17,2562846,2019-08-18 23:02:32:379,-0.5711,0.5132,9.8229,-0.6969,0.5509,9.7663,0.0071,0.0034,0.0075
25630,46.283512,-0.396829,82.73,35.58,9.648001,209.0,14 / 17,2562946,2019-08-18 23:02:32:479,-0.8189,0.5641,9.5572,-0.6943,0.5626,9.7658,0.006,0.0034,0.0096
25631,46.283512,-0.396829,82.73,35.58,9.648001,209.0,14 / 17,2563046,2019-08-18 23:02:32:579,-0.8495,0.6958,9.7176,-0.6747,0.5833,9.766,0.0081,0.0023,0.0096
25632,46.283512,-0.396829,82.73,35.58,9.648001,209.0,14 / 17,2563146,2019-08-18 23:02:32:679,-0.5873,0.7101,9.5602,-0.6152,0.6163,9.7679,0.0049,-0.0105,0.0085
25633,46.283512,-0.396829,82.73,35.58,9.648001,209.0,14 / 17,2563246,2019-08-18 23:02:32:779,-0.4311,0.6826,10.1114,-0.5816,0.6363,9.7687,0.0018,-0.0222,0.0064
25634,46.283512,-0.396829,82.73,35.58,9.648001,209.0,14 / 17,2563346,2019-08-18 23:02:32:879,-0.1617,0.7083,10.0282,-0.551,0.6296,9.7709,-0.0078,-0.0147,0.0053
25635,46.283512,-0.396829,82.73,35.58,9.648001,209.0,14 / 17,2563446,2019-08-18 23:02:32:979,0.0675,0.7455,9.957,-0.5364,0.6229,9.7721,-0.0121,-0.0051,0.0043
25636,46.283512,-0.396829,82.73,35.58,9.648001,209.0,14 / 17,2563545,2019-08-18 23:02:33:078,0.0232,0.5503,9.6446,-0.5336,0.6023,9.7736,-0.0174,0.0076,0.0075
25637,46.283512,-0.396829,82.73,35.58,9.648001,209.0,14 / 17,2563645,2019-08-18 23:02:33:178,0.0657,0.6886,9.1939,-0.5299,0.597,9.7741,-0.01,0.0055,0.0075
25638,46.283512,-0.396829,82.73,35.58,9.648001,209.0,14 / 17,2563745,2019-08-18 23:02:33:278,-0.6334,0.4881,9.2142,-0.5247,0.5941,9.7746,-0.0036,0.0023,0.0075
25639,46.283512,-0.396829,82.73,35.58,9.648001,209.0,14 / 17,2563845,2019-08-18 23:02:33:378,-0.5442,0.5383,9.3267,-0.5196,0.59,9.7751,-0.0036,0.0076,0.0053
25640,46.283512,-0.396829,82.73,35.58,9.648001,209.0,14 / 17,2563946,2019-08-18 23:02:33:479,-0.3748,0.454,9.3944,-0.5065,0.584,9.7761,-0.0025,-0.0009,0.0
25641,46.283512,-0.396829,82.73,35.58,9.648001,209.0,14 / 17,2564046,2019-08-18 23:02:33:579,-0.1767,0.3067,10.0348,-0.4902,0.5736,9.7776,-0.0089,-0.0062,-0.0032
25642,46.283512,-0.396829,82.73,35.58,9.648001,209.0,14 / 17,2564146,2019-08-18 23:02:33:679,-0.2946,0.1996,10.2258,-0.4802,0.5503,9.7794,-0.0121,0.0023,-0.0096
25643,46.283512,-0.396829,82.73,35.58,9.648001,209.0,14 / 17,2564246,2019-08-18 23:02:33:779,-0.4317,0.2612,9.9187,-0.4767,0.5249,9.781,-0.0142,0.0013,-0.0128
25644,46.283512,-0.396829,82.73,35.58,9.648001,209.0,14 / 17,2564346,2019-08-18 23:02:33:879,-0.2802,-0.0141,9.6009,-0.4839,0.4854,9.7827,-0.01,0.0034,-0.0096
25645,46.283512,-0.396829,82.73,35.58,9.648001,209.0,14 / 17,2564445,2019-08-18 23:02:33:978,-0.3449,-0.2631,9.8996,-0.4856,0.4688,9.7834,0.0081,0.0034,-0.0085
25646,46.283512,-0.396829,82.73,35.58,9.648001,209.0,14 / 17,2564546,2019-08-18 23:02:34:079,-0.8058,0.0428,9.8176,-0.5054,0.4038,9.7853,0.0039,0.0023,-0.0074
25647,46.283512,-0.396829,82.73,35.58,9.648001,209.0,14 / 17,2564645,2019-08-18 23:02:34:178,-0.7393,-0.1237,9.4883,-0.5288,0.2954,9.7879,0.0018,-0.0009,-0.0096
25648,46.283512,-0.396829,82.73,35.58,9.648001,209.0,14 / 17,2564746,2019-08-18 23:02:34:279,-0.5729,0.2014,9.4872,-0.5249,0.2193,9.7901,0.0028,-0.0041,-0.0074
25649,46.283512,-0.396829,82.73,35.58,9.648001,209.0,14 / 17,2564846,2019-08-18 23:02:34:379,-0.4167,0.0422,9.9809,-0.5339,0.1762,9.7905,-0.0004,-0.0009,-0.0074
25650,46.283512,-0.396829,82.73,35.58,9.648001,209.0,14 / 17,2564945,2019-08-18 23:02:34:478,-0.2647,-0.1159,9.8211,-0.5367,0.1194,9.7912,0.0049,0.0034,-0.0074
25651,46.283512,-0.396829,82.73,35.58,9.648001,209.0,14 / 17,2565045,2019-08-18 23:02:34:578,-0.4592,0.2295,9.9983,-0.5349,0.1031,9.7915,-0.0004,-0.0009,-0.0064
25652,46.283512,-0.396829,82.73,35.58,9.648001,209.0,14 / 17,2565145,2019-08-18 23:02:34:678,-0.4101,-0.0369,10.0929,-0.501,0.0787,9.7935,-0.0025,-0.0094,-0.0074
25653,46.283512,-0.396829,82.73,35.58,9.648001,209.0,14 / 17,2565245,2019-08-18 23:02:34:778,-0.6112,0.1224,9.8954,-0.4856,0.0797,9.7943,0.0007,-0.0137,-0.0064
25654,46.283512,-0.396829,82.73,35.58,9.648001,209.0,14 / 17,2565346,2019-08-18 23:02:34:879,-0.5412,0.2965,10.0468,-0.4739,0.0717,9.7949,-0.0068,-0.0009,-0.0064
25655,46.283512,-0.396829,82.73,35.58,9.648001,209.0,14 / 17,2565446,2019-08-18 23:02:34:979,-0.3443,0.1678,9.5632,-0.4717,0.0704,9.795,-0.0036,0.0066,-0.0053
25656,46.283512,-0.396829,82.73,35.58,9.648001,209.0,14 / 17,2565545,2019-08-18 23:02:35:078,-0.1144,0.1661,9.7577,-0.4655,0.0702,9.7953,-0.0014,0.0023,-0.0053
25657,46.283512,-0.396829,82.73,35.58,9.648001,209.0,14 / 17,2565645,2019-08-18 23:02:35:178,0.0352,0.2403,9.8176,-0.4056,0.0708,9.798,0.0039,-0.003,-0.0064
25658,46.283512,-0.396829,82.73,35.58,9.648001,209.0,14 / 17,2565746,2019-08-18 23:02:35:279,-0.0247,-0.2236,9.7218,-0.36,0.0639,9.7998,0.0039,-0.0041,-0.0074
25659,46.283512,-0.396829,82.73,35.58,9.648001,209.0,14 / 17,2565846,2019-08-18 23:02:35:379,-0.2413,0.0679,9.9133,-0.3299,0.0663,9.8009,-0.0068,-0.0073,-0.0074
25660,46.283512,-0.396829,82.73,35.58,9.648001,209.0,14 / 17,2565946,2019-08-18 23:02:35:479,-0.3868,0.2403,9.6547,-0.2947,0.0749,9.8019,-0.0036,0.0002,-0.0064
25661,46.283512,-0.396829,82.73,35.58,9.648001,209.0,14 / 17,2566045,2019-08-18 23:02:35:578,-0.4269,0.3283,9.5614,-0.2738,0.0853,9.8025,0.0007,0.0119,-0.0064
25662,46.283512,-0.396829,82.73,35.58,9.648001,209.0,14 / 17,2566146,2019-08-18 23:02:35:679,-0.2958,0.0332,10.1186,-0.2436,0.085,9.8033,0.006,-0.0009,-0.0064
25663,46.283512,-0.396829,82.73,35.58,9.648001,209.0,14 / 17,2566246,2019-08-18 23:02:35:779,0.1208,-0.0171,9.565,-0.2006,0.0897,9.8042,0.0018,-0.0041,-0.0042
25664,46.283512,-0.396829,82.73,35.58,9.648001,209.0,14 / 17,2566346,2019-08-18 23:02:35:879,0.2178,0.1786,9.6955,-0.1812,0.1072,9.8044,0.0071,0.0034,-0.0032
25665,46.283512,-0.396829,82.73,35.58,9.648001,209.0,14 / 17,2566445,2019-08-18 23:02:35:978,-0.2449,0.1714,9.4381,-0.1788,0.133,9.8041,0.0124,0.0013,-0.0021
25666,46.283512,-0.396829,82.73,35.58,9.648001,209.0,14 / 17,2566545,2019-08-18 23:02:36:078,-0.2737,-0.1201,10.0007,-0.1723,0.1384,9.8042,0.0135,-0.0041,-0.0021
25667,46.283512,-0.396829,82.73,35.58,9.648001,209.0,14 / 17,2566645,2019-08-18 23:02:36:178,-0.5131,0.3492,9.5057,-0.1703,0.1453,9.8041,0.0028,-0.0019,-0.0042
25668,46.283512,-0.396829,82.73,35.58,9.648001,209.0,14 / 17,2566745,2019-08-18 23:02:36:278,-0.1115,0.2738,9.5201,-0.1662,0.1585,9.804,-0.0014,0.013,-0.0042
25669,46.283512,-0.396829,82.73,35.58,9.648001,209.0,14 / 17,2566845,2019-08-18 23:02:36:378,-0.0181,0.1553,9.0664,-0.1862,0.1599,9.8036,0.0028,0.0226,-0.0053
25670,46.283512,-0.396829,82.73,35.58,9.648001,209.0,14 / 17,2566946,2019-08-18 23:02:36:479,0.1507,0.0631,8.815,-0.198,0.1643,9.8033,0.0049,0.0162,-0.0042
25671,46.283512,-0.396829,82.73,35.58,9.648001,209.0,14 / 17,2567046,2019-08-18 23:02:36:579,-0.115,0.1421,9.5937,-0.2062,0.171,9.803,0.0018,0.0013,-0.0053
25672,46.283512,-0.396829,82.73,35.58,9.648001,209.0,14 / 17,2567146,2019-08-18 23:02:36:679,-0.6095,0.2157,9.875,-0.2066,0.1716,9.803,-0.0004,-0.0041,-0.0053
25673,46.283512,-0.396829,82.73,35.58,9.648001,209.0,14 / 17,2567246,2019-08-18 23:02:36:779,-0.4927,0.2026,10.2,-0.2069,0.1726,9.8029,0.0007,-0.0019,-0.0053
25674,46.283512,-0.396829,82.73,35.58,9.648001,209.0,14 / 17,2567346,2019-08-18 23:02:36:879,-0.5969,0.111,10.2533,-0.2103,0.1806,9.8027,0.0049,-0.0083,-0.0021
25675,46.283512,-0.396829,82.73,35.58,9.648001,209.0,14 / 17,2567446,2019-08-18 23:02:36:979,0.0179,-0.0237,9.8199,-0.2036,0.1829,9.8028,-0.0025,-0.0041,-0.0053
25676,46.283512,-0.396829,82.73,35.58,9.648001,209.0,14 / 17,2567546,2019-08-18 23:02:37:079,0.1591,0.2708,9.9839,-0.203,0.1836,9.8028,0.0018,0.0013,-0.0042
25677,46.283512,-0.396829,82.73,35.58,9.648001,209.0,14 / 17,2567646,2019-08-18 23:02:37:179,-0.1246,0.0475,9.553,-0.1968,0.1919,9.8028,0.0049,-0.0105,-0.0053
25678,46.283512,-0.396829,82.73,35.58,9.648001,209.0,14 / 17,2567745,2019-08-18 23:02:37:278,-0.3575,0.3073,9.9953,-0.194,0.1923,9.8028,0.0028,-0.0009,-0.0042
25679,46.283512,-0.396829,82.73,35.58,9.648001,209.0,14 / 17,2567845,2019-08-18 23:02:37:378,-0.6364,0.2145,10.7501,-0.2108,0.2127,9.8021,0.0667,0.0322,-0.0032
25680,46.283512,-0.396829,82.73,35.58,9.648001,209.0,14 / 17,2567946,2019-08-18 23:02:37:479,-0.9195,-0.1841,4.5862,-0.2269,0.2433,9.801,0.038,0.0236,-0.0011
25681,46.283512,-0.396829,82.73,35.58,9.648001,209.0,14 / 17,2568046,2019-08-18 23:02:37:579,-0.7166,0.6754,10.8542,-0.2266,0.2163,9.8016,0.0103,-0.0105,-0.0128
25682,46.283512,-0.396829,82.73,35.58,9.648001,209.0,14 / 17,2568145,2019-08-18 23:02:37:678,-1.5336,0.272,8.3068,-0.2167,0.233,9.8015,0.0337,-0.019,-0.017
25683,46.283512,-0.396829,82.73,35.58,9.648001,209.0,14 / 17,2568246,2019-08-18 23:02:37:779,-0.0504,-0.1386,11.4695,-0.1586,0.2261,9.8028,-0.0068,-0.0552,-0.0106
25684,46.283512,-0.396829,82.73,35.58,9.648001,209.0,14 / 17,2568345,2019-08-18 23:02:37:878,-0.2485,0.339,9.5679,-0.1506,0.2116,9.8032,-0.0185,0.0045,-0.0096
25685,46.283512,-0.396829,82.73,35.58,9.648001,209.0,14 / 17,2568446,2019-08-18 23:02:37:979,-0.1958,0.0302,8.0458,-0.1883,0.2051,9.8027,-0.0014,0.0407,-0.0011
25686,46.283512,-0.396829,82.73,35.58,9.648001,209.0,14 / 17,2568546,2019-08-18 23:02:38:079,0.0089,0.3546,7.722,-0.2032,0.2058,9.8024,0.0007,0.013,-0.0053
25687,46.283512,-0.396829,82.73,35.58,9.648001,209.0,14 / 17,2568645,2019-08-18 23:02:38:178,-0.1534,0.2139,9.9349,-0.1974,0.2097,9.8024,0.0071,-0.0073,-0.0042
25688,46.283512,-0.396829,82.73,35.58,9.648001,209.0,14 / 17,2568745,2019-08-18 23:02:38:278,-0.2371,0.1798,10.7489,-0.1986,0.2132,9.8023,0.0049,0.0013,-0.0053
25689,46.283512,-0.396829,82.73,35.58,9.648001,209.0,14 / 17,2568845,2019-08-18 23:02:38:378,-0.4706,0.4043,10.9201,-0.2207,0.1939,9.8022,-0.0174,0.0183,-0.0096
25690,46.283512,-0.396829,82.73,35.58,9.648001,209.0,14 / 17,2568945,2019-08-18 23:02:38:478,-0.795,-0.1248,9.4644,-0.2356,0.1919,9.8019,0.0081,0.0108,-0.0085
25691,46.283512,-0.396829,82.73,35.58,9.648001,209.0,14 / 17,2569046,2019-08-18 23:02:38:579,-0.2365,-0.0889,9.2364,-0.2288,0.1913,9.8021,-0.0014,-0.0073,-0.0085
25692,46.283512,-0.396829,82.73,35.58,9.648001,209.0,14 / 17,2569145,2019-08-18 23:02:38:678,-0.1432,-0.0177,7.749,-0.2188,0.1896,9.8024,0.0092,-0.0147,-0.0096
25693,46.283512,-0.396829,82.73,35.58,9.648001,209.0,14 / 17,2569246,2019-08-18 23:02:38:779,0.96,0.3887,6.908,-0.2183,0.1899,9.8024,-0.0068,-0.0019,-0.0042
25694,46.283512,-0.396829,82.73,35.58,9.648001,209.0,14 / 17,2569345,2019-08-18 23:02:38:878,0.6673,0.2181,11.123,-0.2172,0.1882,9.8024,-0.0046,-0.0126,-0.0074
25695,46.2786,-0.400305,92.31,35.88,8.576,206.3,13 / 17,2569445,2019-08-18 23:02:38:978,-0.9189,0.0086,10.3796,-0.2288,0.1957,9.802,0.0103,0.0066,-0.0106
25696,46.2786,-0.400305,92.31,35.88,8.576,206.3,13 / 17,2569546,2019-08-18 23:02:39:079,0.0789,0.3007,9.5703,-0.2291,0.2081,9.8018,0.0199,0.0034,-0.0096
25697,46.2786,-0.400305,92.31,35.88,8.576,206.3,13 / 17,2569646,2019-08-18 23:02:39:179,-0.0073,0.2493,10.2228,-0.2224,0.2099,9.8019,0.0071,-0.0169,-0.0096
25698,46.2786,-0.400305,92.31,35.88,8.576,206.3,13 / 17,2569746,2019-08-18 23:02:39:279,-0.1132,0.0236,10.7842,-0.2086,0.2039,9.8023,-0.0025,-0.0264,-0.0106
25699,46.2786,-0.400305,92.31,35.88,8.576,206.3,13 / 17,2569846,2019-08-18 23:02:39:379,-1.1966,0.0415,10.4293,-0.2169,0.1884,9.8024,-0.0121,-0.003,-0.0096
25700,46.2786,-0.400305,92.31,35.88,8.576,206.3,13 / 17,2569946,2019-08-18 23:02:39:479,-1.2499,0.2971,10.0695,-0.2511,0.1794,9.8018,0.0028,0.0055,-0.0053
25701,46.2786,-0.400305,92.31,35.88,8.576,206.3,13 / 17,2570045,2019-08-18 23:02:39:578,-1.0428,0.041,8.8036,-0.2854,0.182,9.8008,0.0113,0.0258,-0.0053
25702,46.2786,-0.400305,92.31,35.88,8.576,206.3,13 / 17,2570150,2019-08-18 23:02:39:683,-0.2755,0.2133,9.7379,-0.3202,0.1735,9.7999,-0.0121,0.0066,-0.0053
25703,46.2786,-0.400305,92.31,35.88,8.576,206.3,13 / 17,2570245,2019-08-18 23:02:39:778,-0.4909,0.1008,9.2046,-0.3471,0.1646,9.7991,-0.01,0.014,-0.0053
25704,46.2786,-0.400305,92.31,35.88,8.576,206.3,13 / 17,2570346,2019-08-18 23:02:39:879,-0.8555,0.0553,9.0502,-0.375,0.1598,9.7982,-0.0036,0.013,-0.0053
25705,46.2786,-0.400305,92.31,35.88,8.576,206.3,13 / 17,2570446,2019-08-18 23:02:39:979,-1.1817,0.3402,8.9886,-0.4625,0.1843,9.794,0.0113,0.0076,-0.0021
25706,46.2786,-0.400305,92.31,35.88,8.576,206.3,13 / 17,2570545,2019-08-18 23:02:40:078,-1.1278,0.2355,9.8523,-0.4906,0.1904,9.7925,0.0049,0.0034,0.0
25707,46.2786,-0.400305,92.31,35.88,8.576,206.3,13 / 17,2570645,2019-08-18 23:02:40:178,-0.9333,0.3983,10.1803,-0.502,0.1994,9.7918,0.0081,-0.0019,0.0032
25708,46.2786,-0.400305,92.31,35.88,8.576,206.3,13 / 17,2570746,2019-08-18 23:02:40:279,-0.7166,0.1056,10.3024,-0.5101,0.2084,9.7912,-0.011,-0.0083,0.0043
25709,46.2786,-0.400305,92.31,35.88,8.576,206.3,13 / 17,2570846,2019-08-18 23:02:40:379,-0.8004,0.4468,9.6823,-0.5218,0.2089,9.7905,-0.0089,0.0045,0.0032
25710,46.2786,-0.400305,92.31,35.88,8.576,206.3,13 / 17,2570946,2019-08-18 23:02:40:479,-0.9225,0.6581,9.5817,-0.5354,0.2228,9.7895,0.0081,0.0045,0.0075
25711,46.2786,-0.400305,92.31,35.88,8.576,206.3,13 / 17,2571045,2019-08-18 23:02:40:578,-0.8794,0.5964,9.5422,-0.546,0.2453,9.7884,0.0018,-0.0051,0.0075
25712,46.2786,-0.400305,92.31,35.88,8.576,206.3,13 / 17,2571146,2019-08-18 23:02:40:679,-0.3802,0.3971,9.6859,-0.5514,0.2758,9.7873,-0.0057,-0.0062,-0.0011
25713,46.2786,-0.400305,92.31,35.88,8.576,206.3,13 / 17,2571245,2019-08-18 23:02:40:778,-0.2599,0.3217,9.6931,-0.552,0.2908,9.7868,-0.011,-0.0051,-0.0064
25714,46.2786,-0.400305,92.31,35.88,8.576,206.3,13 / 17,2571346,2019-08-18 23:02:40:879,-0.3042,0.2576,10.1336,-0.5495,0.2748,9.7874,-0.0153,-0.003,-0.0074
25715,46.2786,-0.400305,92.31,35.88,8.576,206.3,13 / 17,2571446,2019-08-18 23:02:40:979,-0.938,0.19,9.9331,-0.5533,0.2653,9.7874,-0.0004,0.0034,-0.0085
25716,46.2786,-0.400305,92.31,35.88,8.576,206.3,13 / 17,2571546,2019-08-18 23:02:41:079,-0.9572,0.2337,9.8469,-0.5593,0.2531,9.7874,-0.0036,-0.0019,-0.0096
25717,46.2786,-0.400305,92.31,35.88,8.576,206.3,13 / 17,2571646,2019-08-18 23:02:41:179,-0.856,0.1284,9.4668,-0.5634,0.2412,9.7875,-0.0046,0.0013,-0.0085
25718,46.2786,-0.400305,92.31,35.88,8.576,206.3,13 / 17,2571745,2019-08-18 23:02:41:278,-0.2755,-0.0446,9.6368,-0.5895,0.1881,9.7871,-0.0036,0.0055,-0.0064
25719,46.2786,-0.400305,92.31,35.88,8.576,206.3,13 / 17,2571845,2019-08-18 23:02:41:378,-0.3389,0.105,10.0007,-0.6144,0.1625,9.786,0.0049,0.0013,-0.0064
25720,46.2786,-0.400305,92.31,35.88,8.576,206.3,13 / 17,2571946,2019-08-18 23:02:41:479,-0.5729,-0.0129,9.3854,-0.6486,0.1304,9.7843,-0.011,0.0034,-0.0085
25721,46.2786,-0.400305,92.31,35.88,8.576,206.3,13 / 17,2572046,2019-08-18 23:02:41:579,-0.8806,0.0344,9.0161,-0.6698,0.1191,9.783,-0.0185,0.0066,-0.0074
25722,46.2786,-0.400305,92.31,35.88,8.576,206.3,13 / 17,2572145,2019-08-18 23:02:41:678,-1.0404,0.3019,9.55,-0.6918,0.1383,9.7812,0.0092,0.0151,-0.0042
25723,46.2786,-0.400305,92.31,35.88,8.576,206.3,13 / 17,2572246,2019-08-18 23:02:41:779,-0.5855,-0.0596,9.4931,-0.6924,0.1415,9.7812,0.0092,0.0002,-0.0021
25724,46.2786,-0.400305,92.31,35.88,8.576,206.3,13 / 17,2572346,2019-08-18 23:02:41:879,-0.1719,0.1146,10.2192,-0.6756,0.1492,9.7822,0.0124,-0.0158,-0.0011
25725,46.2786,-0.400305,92.31,35.88,8.576,206.3,13 / 17,2572446,2019-08-18 23:02:41:979,-0.3174,0.0769,10.3006,-0.6602,0.1697,9.7829,0.0348,-0.0137,0.0
25726,46.2786,-0.400305,92.31,35.88,8.576,206.3,13 / 17,2572545,2019-08-18 23:02:42:078,-0.5933,-0.0387,10.0486,-0.6432,0.195,9.7836,0.0209,-0.0105,-0.0021
25727,46.2786,-0.400305,92.31,35.88,8.576,206.3,13 / 17,2572646,2019-08-18 23:02:42:179,-0.6184,0.2983,9.7649,-0.6381,0.2082,9.7837,0.0081,0.0013,-0.0053
25728,46.2786,-0.400305,92.31,35.88,8.576,206.3,13 / 17,2572745,2019-08-18 23:02:42:278,-0.8369,0.506,9.1867,-0.6472,0.2148,9.7829,-0.0014,0.0151,-0.0064
25729,46.2786,-0.400305,92.31,35.88,8.576,206.3,13 / 17,2572846,2019-08-18 23:02:42:379,-0.2587,0.4354,9.0694,-0.6483,0.2146,9.7828,-0.0025,0.0045,-0.0053
25730,46.2786,-0.400305,92.31,35.88,8.576,206.3,13 / 17,2572946,2019-08-18 23:02:42:479,-0.443,0.0775,9.8026,-0.6435,0.2172,9.7831,0.0028,-0.003,-0.0053
25731,46.2786,-0.400305,92.31,35.88,8.576,206.3,13 / 17,2573046,2019-08-18 23:02:42:579,-0.4221,0.1026,10.1048,-0.6388,0.2205,9.7833,0.0049,-0.0062,-0.0042
25732,46.2786,-0.400305,92.31,35.88,8.576,206.3,13 / 17,2573146,2019-08-18 23:02:42:679,-0.8764,0.2361,10.8542,-0.6333,0.2114,9.7839,-0.0078,-0.0105,-0.0064
25733,46.2786,-0.400305,92.31,35.88,8.576,206.3,13 / 17,2573246,2019-08-18 23:02:42:779,-0.8285,0.1529,10.218,-0.6228,0.1997,9.7848,-0.0132,-0.0147,-0.0085
25734,46.2786,-0.400305,92.31,35.88,8.576,206.3,13 / 17,2573345,2019-08-18 23:02:42:878,-0.88,0.3025,9.8924,-0.6194,0.1802,9.7854,-0.0089,-0.0041,-0.0085
25735,46.2786,-0.400305,92.31,35.88,8.576,206.3,13 / 17,2573445,2019-08-18 23:02:42:978,-0.4634,-0.071,9.3471,-0.6171,0.1749,9.7857,-0.0014,-0.0019,-0.0074
25736,46.2786,-0.400305,92.31,35.88,8.576,206.3,13 / 17,2573545,2019-08-18 23:02:43:078,-0.37,0.0679,9.3788,-0.6145,0.17,9.7859,-0.0014,-0.003,-0.0053
25737,46.2786,-0.400305,92.31,35.88,8.576,206.3,13 / 17,2573645,2019-08-18 23:02:43:178,-0.4796,0.0853,9.0999,-0.6209,0.1536,9.7858,-0.0057,0.014,-0.0064
25738,46.2786,-0.400305,92.31,35.88,8.576,206.3,13 / 17,2573745,2019-08-18 23:02:43:278,-0.7232,0.0218,9.5488,-0.625,0.1394,9.7857,-0.0036,0.0066,-0.0064
25739,46.2786,-0.400305,92.31,35.88,8.576,206.3,13 / 17,2573846,2019-08-18 23:02:43:379,-0.777,0.2121,9.9073,-0.6213,0.1476,9.7858,-0.0068,-0.0019,-0.0074
25740,46.2786,-0.400305,92.31,35.88,8.576,206.3,13 / 17,2573946,2019-08-18 23:02:43:479,-0.5921,0.5144,10.2946,-0.6171,0.143,9.7862,-0.0004,-0.003,-0.0064
25741,46.2786,-0.400305,92.31,35.88,8.576,206.3,13 / 17,2574046,2019-08-18 23:02:43:579,-0.6454,-0.0405,10.0115,-0.6161,0.1356,9.7863,-0.011,0.0023,-0.0085
25742,46.2786,-0.400305,92.31,35.88,8.576,206.3,13 / 17,2574145,2019-08-18 23:02:43:678,-0.3754,-0.0464,10.0779,-0.5981,0.1077,9.7878,-0.0078,-0.0083,-0.0096
25743,46.2786,-0.400305,92.31,35.88,8.576,206.3,13 / 17,2574245,2019-08-18 23:02:43:778,-0.7681,-0.1536,9.884,-0.5923,0.1068,9.7882,0.0103,0.0023,-0.0074
25744,46.2786,-0.400305,92.31,35.88,8.576,206.3,13 / 17,2574345,2019-08-18 23:02:43:878,-0.9075,0.0415,9.7757,-0.6065,0.1111,9.7872,0.0092,0.0119,-0.0074
25745,46.2786,-0.400305,92.31,35.88,8.576,206.3,13 / 17,2574445,2019-08-18 23:02:43:978,-1.1583,0.2313,9.1915,-0.634,0.1115,9.7855,0.0007,0.014,-0.0085
25746,46.2786,-0.400305,92.31,35.88,8.576,206.3,13 / 17,2574545,2019-08-18 23:02:44:078,-1.0398,0.0098,9.872,-0.649,0.1044,9.7846,-0.0057,0.0055,-0.0096
25747,46.2786,-0.400305,92.31,35.88,8.576,206.3,13 / 17,2574645,2019-08-18 23:02:44:178,-0.8872,-0.0482,9.7164,-0.6538,0.0981,9.7843,-0.0004,-0.0051,-0.0096
25748,46.2786,-0.400305,92.31,35.88,8.576,206.3,13 / 17,2574745,2019-08-18 23:02:44:278,-0.713,-0.2619,9.8983,-0.6565,0.0908,9.7842,-0.0036,-0.0115,-0.0085
25749,46.2786,-0.400305,92.31,35.88,8.576,206.3,13 / 17,2574846,2019-08-18 23:02:44:379,-0.7699,-0.0536,9.5715,-0.7057,0.0592,9.781,-0.0057,0.0002,-0.0117
25750,46.2786,-0.400305,92.31,35.88,8.576,206.3,13 / 17,2574945,2019-08-18 23:02:44:478,-0.9745,0.0134,9.3435,-0.7348,0.0475,9.779,-0.0004,0.0076,-0.0106
25751,46.2786,-0.400305,92.31,35.88,8.576,206.3,13 / 17,2575045,2019-08-18 23:02:44:578,-1.132,-0.0877,9.6601,-0.7519,0.0437,9.7777,0.0028,0.0066,-0.0096
25752,46.2786,-0.400305,92.31,35.88,8.576,206.3,13 / 17,2575145,2019-08-18 23:02:44:678,-1.0907,0.0027,9.5913,-0.7913,0.0327,9.7746,0.0071,0.0023,-0.0106
25753,46.2786,-0.400305,92.31,35.88,8.576,206.3,13 / 17,2575245,2019-08-18 23:02:44:778,-1.0374,0.0194,9.9115,-0.8051,0.0175,9.7735,-0.0014,-0.0041,-0.0096
25754,46.2786,-0.400305,92.31,35.88,8.576,206.3,13 / 17,2575346,2019-08-18 23:02:44:879,-0.7124,-0.1997,10.1336,-0.7996,0.0061,9.774,-0.01,-0.0083,-0.0106
25755,46.2786,-0.400305,92.31,35.88,8.576,206.3,13 / 17,2575445,2019-08-18 23:02:44:978,-0.1641,-0.1608,9.9049,-0.7833,-0.0101,9.7753,-0.0036,-0.0073,-0.0117
25756,46.2786,-0.400305,92.31,35.88,8.576,206.3,13 / 17,2575546,2019-08-18 23:02:45:079,-0.4784,-0.0967,9.7373,-0.784,-0.0249,9.7752,-0.0004,0.0013,-0.0085
25757,46.2786,-0.400305,92.31,35.88,8.576,206.3,13 / 17,2575646,2019-08-18 23:02:45:179,-1.0051,-0.1003,9.4321,-0.7995,-0.0249,9.774,0.0039,0.0119,-0.0074
25758,46.2786,-0.400305,92.31,35.88,8.576,206.3,13 / 17,2575745,2019-08-18 23:02:45:278,-1.1134,0.1786,9.4315,-0.8053,-0.0222,9.7735,0.0049,0.0013,-0.0064
25759,46.2786,-0.400305,92.31,35.88,8.576,206.3,13 / 17,2575845,2019-08-18 23:02:45:378,-1.1433,0.2355,9.8062,-0.8366,0.0055,9.7709,0.0049,-0.0019,-0.0053
25760,46.2786,-0.400305,92.31,35.88,8.576,206.3,13 / 17,2575945,2019-08-18 23:02:45:478,-0.9333,0.0446,9.4141,-0.847,0.0199,9.77,-0.0025,0.0013,-0.0032
25761,46.2786,-0.400305,92.31,35.88,8.576,206.3,13 / 17,2576045,2019-08-18 23:02:45:578,-0.6166,0.2199,9.9839,-0.8645,0.0601,9.7683,-0.0004,0.0034,-0.0032
25762,46.2786,-0.400305,92.31,35.88,8.576,206.3,13 / 17,2576145,2019-08-18 23:02:45:678,-0.5717,0.0248,9.7188,-0.8823,0.0848,9.7665,0.0039,0.0055,-0.0011
25763,46.2786,-0.400305,92.31,35.88,8.576,206.3,13 / 17,2576245,2019-08-18 23:02:45:778,-0.6442,0.1152,9.8792,-0.8929,0.1228,9.7651,0.0007,-0.0019,-0.0021
25764,46.2786,-0.400305,92.31,35.88,8.576,206.3,13 / 17,2576345,2019-08-18 23:02:45:878,-0.8524,0.0188,9.6817,-0.8912,0.1541,9.7649,0.0007,-0.0041,-0.0011
25765,46.2786,-0.400305,92.31,35.88,8.576,206.3,13 / 17,2576445,2019-08-18 23:02:45:978,-0.8261,0.1188,9.7792,-0.8775,0.1699,9.7658,0.0028,-0.0073,-0.0021
25766,46.2786,-0.400305,92.31,35.88,8.576,206.3,13 / 17,2576545,2019-08-18 23:02:46:078,-1.0763,0.4318,9.6631,-0.8736,0.1794,9.766,-0.0036,-0.0094,-0.0011
25767,46.2786,-0.400305,92.31,35.88,8.576,206.3,13 / 17,2576646,2019-08-18 23:02:46:179,-1.0368,0.436,9.8948,-0.8706,0.1881,9.7661,0.0071,0.0034,0.0
25768,46.2786,-0.400305,92.31,35.88,8.576,206.3,13 / 17,2576746,2019-08-18 23:02:46:279,-0.9213,0.348,9.9576,-0.857,0.1949,9.7672,0.006,-0.0019,-0.0021
25769,46.2786,-0.400305,92.31,35.88,8.576,206.3,13 / 17,2576845,2019-08-18 23:02:46:378,-0.3987,0.0894,10.0276,-0.8506,0.1964,9.7677,0.0007,-0.0009,-0.0021
25770,46.2786,-0.400305,92.31,35.88,8.576,206.3,13 / 17,2576945,2019-08-18 23:02:46:478,-0.3012,0.0793,9.6583,-0.8256,0.2108,9.7696,0.0028,-0.0062,-0.0042
25771,46.2786,-0.400305,92.31,35.88,8.576,206.3,13 / 17,2577046,2019-08-18 23:02:46:579,-0.3455,0.0912,9.9055,-0.8093,0.2201,9.7707,-0.0014,-0.003,-0.0021
25772,46.2786,-0.400305,92.31,35.88,8.576,206.3,13 / 17,2577145,2019-08-18 23:02:46:678,-0.6483,0.1816,9.4237,-0.8001,0.2319,9.7712,-0.0014,0.0013,-0.0011
25773,46.2786,-0.400305,92.31,35.88,8.576,206.3,13 / 17,2577245,2019-08-18 23:02:46:778,-1.0775,0.2469,9.9911,-0.7926,0.2255,9.772,0.0007,0.0002,-0.0032
25774,46.2786,-0.400305,92.31,35.88,8.576,206.3,13 / 17,2577345,2019-08-18 23:02:46:878,-1.0589,0.3618,9.6146,-0.7829,0.2244,9.7728,-0.0025,-0.0009,-0.0021
25775,46.2786,-0.400305,92.31,35.88,8.576,206.3,13 / 17,2577445,2019-08-18 23:02:46:978,-0.9285,0.3929,9.6122,-0.7648,0.2539,9.7735,-0.0036,-0.0009,-0.0053
25776,46.2786,-0.400305,92.31,35.88,8.576,206.3,13 / 17,2577546,2019-08-18 23:02:47:079,-0.7094,0.187,9.7858,-0.7497,0.2272,9.7753,-0.0046,-0.0062,-0.0053
25777,46.2786,-0.400305,92.31,35.88,8.576,206.3,13 / 17,2577645,2019-08-18 23:02:47:178,-0.6035,0.1774,10.0695,-0.7422,0.2242,9.776,-0.0025,-0.003,-0.0042
25778,46.2786,-0.400305,92.31,35.88,8.576,206.3,13 / 17,2577745,2019-08-18 23:02:47:278,-0.4125,-0.0668,9.7978,-0.7175,0.2106,9.7781,0.0039,-0.0083,-0.0053
25779,46.2786,-0.400305,92.31,35.88,8.576,206.3,13 / 17,2577845,2019-08-18 23:02:47:378,0.3153,0.0948,10.1342,-0.6738,0.1835,9.7818,-0.0004,-0.0041,-0.0064
25780,46.2786,-0.400305,92.31,35.88,8.576,206.3,13 / 17,2577945,2019-08-18 23:02:47:478,-0.1444,0.181,9.5548,-0.6143,0.1806,9.7857,0.0028,-0.003,-0.0053
25781,46.2786,-0.400305,92.31,35.88,8.576,206.3,13 / 17,2578046,2019-08-18 23:02:47:579,-0.2485,0.1152,9.8044,-0.5597,0.1765,9.7891,0.006,-0.0062,-0.0042
25782,46.2786,-0.400305,92.31,35.88,8.576,206.3,13 / 17,2578145,2019-08-18 23:02:47:678,-0.6082,0.2062,10.1605,-0.4883,0.1618,9.7932,0.006,-0.0094,-0.0032
25783,46.2786,-0.400305,92.31,35.88,8.576,206.3,13 / 17,2578245,2019-08-18 23:02:47:778,-0.4305,0.1092,9.9869,-0.4288,0.1788,9.7956,0.0039,-0.0062,-0.0032
25784,46.2786,-0.400305,92.31,35.88,8.576,206.3,13 / 17,2578345,2019-08-18 23:02:47:878,-0.4981,0.3474,9.6769,-0.3819,0.1919,9.7973,-0.0014,-0.0019,-0.0042
25785,46.276066,-0.402221,85.46,34.87,8.576,208.6,Nov-17,2578446,2019-08-18 23:02:47:979,-0.1408,0.3097,9.6685,-0.3149,0.1913,9.7997,-0.0089,0.0013,-0.0064
25786,46.276066,-0.402221,85.46,34.87,8.576,208.6,Nov-17,2578546,2019-08-18 23:02:48:079,-0.0755,0.1331,9.5105,-0.2927,0.1896,9.8004,-0.0046,0.0066,-0.0074
25787,46.276066,-0.402221,85.46,34.87,8.576,208.6,Nov-17,2578646,2019-08-18 23:02:48:179,0.0717,0.1032,9.547,-0.2878,0.1862,9.8007,-0.0025,0.0013,-0.0074
25788,46.276066,-0.402221,85.46,34.87,8.576,208.6,Nov-17,2578746,2019-08-18 23:02:48:279,0.0975,0.0428,9.9486,-0.2352,0.1747,9.8023,0.0007,-0.0083,-0.0042
25789,46.276066,-0.402221,85.46,34.87,8.576,208.6,Nov-17,2578846,2019-08-18 23:02:48:379,-0.0025,0.172,9.9085,-0.2224,0.176,9.8025,0.0028,-0.0105,-0.0042
25790,46.276066,-0.402221,85.46,34.87,8.576,208.6,Nov-17,2578945,2019-08-18 23:02:48:478,-0.1312,0.096,9.7631,-0.2043,0.1671,9.8031,-0.0014,0.0002,-0.0064
25791,46.276066,-0.402221,85.46,34.87,8.576,208.6,Nov-17,2579045,2019-08-18 23:02:48:578,-0.5598,0.193,9.7439,-0.2031,0.1586,9.8033,0.0007,0.0087,-0.0074
25792,46.276066,-0.402221,85.46,34.87,8.576,208.6,Nov-17,2579146,2019-08-18 23:02:48:679,-0.7142,0.1559,9.696,-0.2286,0.1548,9.8028,-0.0036,0.014,-0.0085
25793,46.276066,-0.402221,85.46,34.87,8.576,208.6,Nov-17,2579245,2019-08-18 23:02:48:778,-0.5669,0.0996,9.6859,-0.2404,0.1486,9.8026,-0.0014,0.0013,-0.0106
25794,46.276066,-0.402221,85.46,34.87,8.576,208.6,Nov-17,2579345,2019-08-18 23:02:48:878,-0.546,-0.1111,10.036,-0.285,0.1157,9.8018,0.0039,-0.0019,-0.0128
25795,46.276066,-0.402221,85.46,34.87,8.576,208.6,Nov-17,2579445,2019-08-18 23:02:48:978,-0.5251,-0.4032,10.1521,-0.3496,0.0688,9.8002,0.006,0.0045,-0.0149
25796,46.276066,-0.402221,85.46,34.87,8.576,208.6,Nov-17,2579545,2019-08-18 23:02:49:078,-0.5645,-0.287,9.7876,-0.3889,0.0288,9.7989,-0.0046,-0.0019,-0.0138
25797,46.276066,-0.402221,85.46,34.87,8.576,208.6,Nov-17,2579645,2019-08-18 23:02:49:178,-0.6501,-0.3421,9.8295,-0.4001,0.02,9.7985,-0.0014,0.0013,-0.0149
25798,46.276066,-0.402221,85.46,34.87,8.576,208.6,Nov-17,2579746,2019-08-18 23:02:49:279,-0.7896,-0.2122,9.5799,-0.4734,-0.0261,9.7952,0.0007,0.0023,-0.0149
25799,46.276066,-0.402221,85.46,34.87,8.576,208.6,Nov-17,2579846,2019-08-18 23:02:49:379,-0.9506,-0.0416,9.8259,-0.5295,-0.0656,9.7921,-0.0004,-0.0019,-0.016
25800,46.276066,-0.402221,85.46,34.87,8.576,208.6,Nov-17,2579945,2019-08-18 23:02:49:478,-1.0578,-0.0668,9.6392,-0.5874,-0.0895,9.7886,-0.0014,0.0013,-0.0138
25801,46.276066,-0.402221,85.46,34.87,8.576,208.6,Nov-17,2580045,2019-08-18 23:02:49:578,-0.6908,-0.0267,9.8229,-0.6129,-0.1183,9.7868,-0.0004,0.0002,-0.0138
25802,46.276066,-0.402221,85.46,34.87,8.576,208.6,Nov-17,2580145,2019-08-18 23:02:49:678,-0.5753,-0.3445,9.9977,-0.632,-0.1594,9.785,-0.0068,0.0013,-0.0149
25803,46.276066,-0.402221,85.46,34.87,8.576,208.6,Nov-17,2580246,2019-08-18 23:02:49:779,-0.4413,-0.3721,9.8972,-0.6352,-0.1719,9.7846,-0.0004,-0.0062,-0.0149
25804,46.276066,-0.402221,85.46,34.87,8.576,208.6,Nov-17,2580345,2019-08-18 23:02:49:878,-0.4173,-0.2039,9.7469,-0.6348,-0.1896,9.7842,0.0028,-0.0051,-0.0128
25805,46.276066,-0.402221,85.46,34.87,8.576,208.6,Nov-17,2580445,2019-08-18 23:02:49:978,-0.4185,-0.241,9.8139,-0.6471,-0.1944,9.7833,0.0081,0.0055,-0.0117
25806,46.276066,-0.402221,85.46,34.87,8.576,208.6,Nov-17,2580545,2019-08-18 23:02:50:078,-0.7627,-0.1027,9.9935,-0.6627,-0.1828,9.7825,0.0113,0.0013,-0.0117
25807,46.276066,-0.402221,85.46,34.87,8.576,208.6,Nov-17,2580645,2019-08-18 23:02:50:178,-0.9375,-0.1326,9.5177,-0.6736,-0.1746,9.7819,0.0145,0.0045,-0.0128
25808,46.276066,-0.402221,85.46,34.87,8.576,208.6,Nov-17,2580745,2019-08-18 23:02:50:278,-0.8668,0.2008,9.8014,-0.679,-0.138,9.7821,-0.0078,0.0013,-0.0117
25809,46.276066,-0.402221,85.46,34.87,8.576,208.6,Nov-17,2580845,2019-08-18 23:02:50:378,-0.9506,0.1493,10.0097,-0.6912,-0.1159,9.7816,-0.0132,-0.003,-0.0096
25810,46.276066,-0.402221,85.46,34.87,8.576,208.6,Nov-17,2580945,2019-08-18 23:02:50:478,-0.7968,0.3408,9.9803,-0.688,-0.1031,9.7819,0.0018,-0.0126,-0.0042
25811,46.276066,-0.402221,85.46,34.87,8.576,208.6,Nov-17,2581046,2019-08-18 23:02:50:579,-0.7788,0.041,10.1623,-0.6844,-0.0915,9.7823,0.006,-0.0051,-0.0032
25812,46.276066,-0.402221,85.46,34.87,8.576,208.6,Nov-17,2581145,2019-08-18 23:02:50:678,-0.4724,0.0697,9.7559,-0.6948,-0.0189,9.782,0.0039,0.0055,-0.0021
25813,46.276066,-0.402221,85.46,34.87,8.576,208.6,Nov-17,2581246,2019-08-18 23:02:50:779,-0.4424,-0.0662,9.8181,-0.7133,0.0243,9.7806,0.0113,0.0119,-0.0032
25814,46.276066,-0.402221,85.46,34.87,8.576,208.6,Nov-17,2581346,2019-08-18 23:02:50:879,-0.5807,-0.1524,9.544,-0.7306,0.0567,9.7792,0.0103,-0.0051,-0.0053
25815,46.276066,-0.402221,85.46,34.87,8.576,208.6,Nov-17,2581445,2019-08-18 23:02:50:978,-0.7052,0.3151,10.1952,-0.7265,0.0698,9.7795,0.0007,-0.0115,-0.0053
25816,46.276066,-0.402221,85.46,34.87,8.576,208.6,Nov-17,2581546,2019-08-18 23:02:51:079,-1.0254,0.1319,9.9037,-0.7263,0.0839,9.7794,0.0049,-0.0009,-0.0042
25817,46.276066,-0.402221,85.46,34.87,8.576,208.6,Nov-17,2581645,2019-08-18 23:02:51:178,-0.9195,0.372,9.6972,-0.7312,0.1197,9.7786,-0.0014,0.0013,-0.0032
25818,46.276066,-0.402221,85.46,34.87,8.576,208.6,Nov-17,2581746,2019-08-18 23:02:51:279,-0.8836,0.184,9.6206,-0.735,0.1343,9.7781,-0.0078,0.0002,-0.0042
25819,46.276066,-0.402221,85.46,34.87,8.576,208.6,Nov-17,2581846,2019-08-18 23:02:51:379,-0.7232,0.451,9.9845,-0.7242,0.1552,9.7786,-0.0057,-0.003,-0.0053
25820,46.276066,-0.402221,85.46,34.87,8.576,208.6,Nov-17,2581945,2019-08-18 23:02:51:478,-0.7423,0.1517,10.2784,-0.7192,0.1572,9.779,0.0007,0.0013,-0.0053
25821,46.276066,-0.402221,85.46,34.87,8.576,208.6,Nov-17,2582046,2019-08-18 23:02:51:579,-0.5143,0.2906,9.8104,-0.7043,0.1638,9.78,-0.0046,-0.003,-0.0053
25822,46.276066,-0.402221,85.46,34.87,8.576,208.6,Nov-17,2582146,2019-08-18 23:02:51:679,-0.5005,0.0194,9.6266,-0.6792,0.1619,9.7818,0.0018,-0.003,-0.0053
25823,46.276066,-0.402221,85.46,34.87,8.576,208.6,Nov-17,2582245,2019-08-18 23:02:51:778,-0.379,0.0452,9.7613,-0.6487,0.1681,9.7837,-0.0025,0.0002,-0.0032
25824,46.276066,-0.402221,85.46,34.87,8.576,208.6,Nov-17,2582346,2019-08-18 23:02:51:879,-0.4347,0.1266,9.5614,-0.6328,0.1793,9.7846,0.0028,0.0023,-0.0011
25825,46.276066,-0.402221,85.46,34.87,8.576,208.6,Nov-17,2582446,2019-08-18 23:02:51:979,-0.446,0.2373,9.4004,-0.6028,0.1903,9.7863,0.0039,-0.0019,-0.0042
25826,46.276066,-0.402221,85.46,34.87,8.576,208.6,Nov-17,2582545,2019-08-18 23:02:52:078,-0.5448,0.1685,9.7768,-0.536,0.1992,9.79,0.0007,-0.0126,-0.0042
25827,46.276066,-0.402221,85.46,34.87,8.576,208.6,Nov-17,2582646,2019-08-18 23:02:52:179,-0.4191,0.4306,9.5943,-0.495,0.2081,9.7919,0.0007,-0.0073,-0.0064
25828,46.276066,-0.402221,85.46,34.87,8.576,208.6,Nov-17,2582746,2019-08-18 23:02:52:279,-0.5382,0.3187,9.9145,-0.4434,0.2175,9.7942,-0.0046,-0.0019,-0.0053
25829,46.276066,-0.402221,85.46,34.87,8.576,208.6,Nov-17,2582846,2019-08-18 23:02:52:379,-0.3407,0.448,10.2365,-0.3862,0.2182,9.7966,0.0028,-0.0019,-0.0042
25830,46.276066,-0.402221,85.46,34.87,8.576,208.6,Nov-17,2582946,2019-08-18 23:02:52:479,-0.2407,0.5114,9.7074,-0.3484,0.2292,9.7978,0.0039,-0.0019,-0.0032
25831,46.276066,-0.402221,85.46,34.87,8.576,208.6,Nov-17,2583046,2019-08-18 23:02:52:579,0.0675,0.1331,9.9893,-0.2861,0.229,9.7998,0.0039,-0.0105,-0.0032
25832,46.276066,-0.402221,85.46,34.87,8.576,208.6,Nov-17,2583145,2019-08-18 23:02:52:678,0.0328,0.2169,10.1479,-0.2739,0.2277,9.8002,0.0007,-0.0073,-0.0032
25833,46.276066,-0.402221,85.46,34.87,8.576,208.6,Nov-17,2583245,2019-08-18 23:02:52:778,0.1238,0.2235,9.7553,-0.2692,0.2318,9.8002,0.0028,0.0034,-0.0053
25834,46.276066,-0.402221,85.46,34.87,8.576,208.6,Nov-17,2583345,2019-08-18 23:02:52:878,0.1316,0.0625,9.8415,-0.2631,0.2356,9.8003,0.0007,0.0002,-0.0042
25835,46.276066,-0.402221,85.46,34.87,8.576,208.6,Nov-17,2583445,2019-08-18 23:02:52:978,-0.2156,0.3887,9.8301,-0.2295,0.2394,9.801,-0.0068,-0.0126,-0.0032
25836,46.276066,-0.402221,85.46,34.87,8.576,208.6,Nov-17,2583545,2019-08-18 23:02:53:078,-0.1276,0.4318,9.7319,-0.2237,0.2396,9.8012,-0.0004,0.0013,-0.0021
