,GPS LATITUDE (degrees),GPS LONGITUDE (degrees), GPS ALTITUDE (m),GPS SPEED (Kmh),GPS ACCURACY (m),GPS ORIENTATION (Â°), SATELLITES IN RANGE, TIME SINCE START (ms), DATE (YYYY-MO-DD HH-MI-SS_SSS),ACCELEROMETER X (m/s²) , ACCELEROMETER Y (m/s²), ACCELEROMETER Z (m/s²), GRAVITY X (m/s²), GRAVITY Y (m/s²), GRAVITY Z (m/s²), GYROSCOPE Yaw (rad/s), GYROSCOPE Pitch (rad/s), GYROSCOPE Roll (rad/s)
33482,45.873928,-0.333021,97.26,17.16,4.288,64.9,14 / 17,3348211,2019-08-09 23:31:05:438,0.6735,-1.2245,9.6914,0.6335,-1.1715,9.7158,-0.0181,-0.0145,0.0102
33483,45.873928,-0.333021,97.26,17.16,4.288,64.9,14 / 17,3348310,2019-08-09 23:31:05:537,0.282,-1.2981,9.4502,0.6231,-1.1838,9.715,-0.009,0.0078,0.0445
33484,45.873928,-0.333021,97.26,17.16,4.288,64.9,14 / 17,3348410,2019-08-09 23:31:05:637,0.6669,-1.4262,9.9123,0.6164,-1.1978,9.7137,0.0051,-0.0028,0.0248
33485,45.873928,-0.333021,97.26,17.16,4.288,64.9,14 / 17,3348510,2019-08-09 23:31:05:737,-0.0382,-1.8853,9.9171,0.6106,-1.2359,9.7093,0.0191,-0.0118,0.0231
33486,45.873928,-0.333021,97.26,17.16,4.288,64.9,14 / 17,3348610,2019-08-09 23:31:05:837,0.6825,-2.746,9.6758,0.5999,-1.2638,9.7064,0.0186,-0.007,-0.0151
33487,45.873928,-0.333021,97.26,17.16,4.288,64.9,14 / 17,3348710,2019-08-09 23:31:05:937,0.7477,-1.9727,10.0014,0.595,-1.3069,9.7009,0.0445,-0.0073,-0.0131
33488,45.873928,-0.333021,97.26,17.16,4.288,64.9,14 / 17,3348810,2019-08-09 23:31:06:037,0.0863,-1.8583,9.2281,0.5929,-1.313,9.7003,0.0296,0.0086,0.0039
33489,45.873928,-0.333021,97.26,17.16,4.288,64.9,14 / 17,3348911,2019-08-09 23:31:06:138,0.3736,-1.9661,9.3041,0.5973,-1.3467,9.6954,-0.0362,0.0124,0.0448
33490,45.873928,-0.333021,97.26,17.16,4.288,64.9,14 / 17,3349011,2019-08-09 23:31:06:238,0.4209,-1.6447,9.6351,0.5886,-1.3559,9.6946,-0.0245,-0.0008,0.0554
33491,45.873928,-0.333021,97.26,17.16,4.288,64.9,14 / 17,3349110,2019-08-09 23:31:06:337,0.2994,-1.6728,10.0296,0.5754,-1.3803,9.692,-0.048,-0.004,0.0472
33492,45.873928,-0.333021,97.26,17.16,4.288,64.9,14 / 17,3349210,2019-08-09 23:31:06:437,-0.0657,-1.3693,9.0929,0.5675,-1.3652,9.6946,0.0273,0.0003,0.0155
33493,45.873928,-0.333021,97.26,17.16,4.288,64.9,14 / 17,3349310,2019-08-09 23:31:06:537,0.3251,-1.255,9.6489,0.5575,-1.3933,9.6911,0.0097,0.0018,0.0264
33494,45.873928,-0.333021,97.26,17.16,4.288,64.9,14 / 17,3349410,2019-08-09 23:31:06:637,0.2527,-2.2043,9.7507,0.5627,-1.3906,9.6912,0.0,0.0026,0.0083
33495,45.873928,-0.333021,97.26,17.16,4.288,64.9,14 / 17,3349510,2019-08-09 23:31:06:737,0.5071,-1.5567,9.8991,0.5601,-1.4095,9.6886,0.0203,0.0079,0.0231
33496,45.873928,-0.333021,97.26,17.16,4.288,64.9,14 / 17,3349611,2019-08-09 23:31:06:838,0.2952,-1.4435,9.267,0.5586,-1.423,9.6868,-0.0231,0.0153,0.0248
33497,45.873928,-0.333021,97.26,17.16,4.288,64.9,14 / 17,3349711,2019-08-09 23:31:06:938,0.6837,-1.7733,9.5483,0.5871,-1.4244,9.6849,-0.0241,0.0233,0.0419
33498,45.873928,-0.333021,97.26,17.16,4.288,64.9,14 / 17,3349810,2019-08-09 23:31:07:037,0.7028,-1.3095,9.6363,0.5911,-1.4334,9.6833,-0.0502,0.0059,0.0253
33499,45.873928,-0.333021,97.26,17.16,4.288,64.9,14 / 17,3349911,2019-08-09 23:31:07:138,0.6418,-1.2251,9.3359,0.597,-1.4434,9.6815,0.025,-0.0017,-0.0222
33500,45.873928,-0.333021,97.26,17.16,4.288,64.9,14 / 17,3350010,2019-08-09 23:31:07:237,0.4574,-1.4711,9.0635,0.6045,-1.4215,9.6842,0.0501,-0.0062,-0.0062
33501,45.873928,-0.333021,97.26,17.16,4.288,64.9,14 / 17,3350110,2019-08-09 23:31:07:337,0.4191,-1.1233,9.5023,0.5928,-1.4464,9.6813,-0.0385,-0.0196,0.018
33502,45.873928,-0.333021,97.26,17.16,4.288,64.9,14 / 17,3350210,2019-08-09 23:31:07:437,0.452,-1.5453,9.8757,0.5798,-1.4628,9.6796,0.0345,-0.0125,0.0107
33503,45.873928,-0.333021,97.26,17.16,4.288,64.9,14 / 17,3350310,2019-08-09 23:31:07:537,0.4814,-1.8949,9.9368,0.5743,-1.4834,9.6768,-0.0085,-0.0054,0.0302
33504,45.873928,-0.333021,97.26,17.16,4.288,64.9,14 / 17,3350410,2019-08-09 23:31:07:637,0.0678,-1.1981,9.7548,0.5721,-1.4921,9.6756,-0.0296,0.0219,0.0446
33505,45.873928,-0.333021,97.26,17.16,4.288,64.9,14 / 17,3350511,2019-08-09 23:31:07:738,0.6322,-1.4016,9.6603,0.582,-1.5138,9.6716,0.0599,-0.0008,-0.0184
33506,45.874542,-0.330974,88.03,22.62,3.216,63.9,15 / 18,3350611,2019-08-09 23:31:07:838,0.0815,-2.2025,9.2437,0.5951,-1.477,9.6765,0.0811,0.0086,-0.0674
33507,45.874542,-0.330974,88.03,22.62,3.216,63.9,15 / 18,3350711,2019-08-09 23:31:07:938,0.625,-2.072,9.6752,0.6185,-1.5336,9.6662,0.0396,0.0314,-0.0355
33508,45.874542,-0.330974,88.03,22.62,3.216,63.9,15 / 18,3350810,2019-08-09 23:31:08:037,0.7645,-2.8495,9.692,0.6443,-1.5579,9.6607,-0.0218,0.0449,-0.0022
33509,45.874542,-0.330974,88.03,22.62,3.216,63.9,15 / 18,3350911,2019-08-09 23:31:08:138,0.9662,-2.2097,9.8632,0.7088,-1.5813,9.6523,0.0011,0.0412,-0.0206
33510,45.874542,-0.330974,88.03,22.62,3.216,63.9,15 / 18,3351010,2019-08-09 23:31:08:237,0.7357,-3.0956,9.3191,0.7348,-1.6094,9.6457,-0.0284,0.0532,0.0034
33511,45.874542,-0.330974,88.03,22.62,3.216,63.9,15 / 18,3351110,2019-08-09 23:31:08:337,1.278,-2.7723,9.1204,0.8092,-1.6119,9.6394,-0.0105,0.0455,-0.0185
33512,45.874542,-0.330974,88.03,22.62,3.216,63.9,15 / 18,3351210,2019-08-09 23:31:08:437,1.36,-1.9194,9.3957,0.843,-1.614,9.6361,-0.0108,0.0272,-0.0319
33513,45.874542,-0.330974,88.03,22.62,3.216,63.9,15 / 18,3351310,2019-08-09 23:31:08:537,0.9823,-2.8699,8.8995,0.8884,-1.6123,9.6323,-0.0104,0.0296,-0.0269
33514,45.874542,-0.330974,88.03,22.62,3.216,63.9,15 / 18,3351411,2019-08-09 23:31:08:638,1.0877,-2.1289,9.3694,0.9168,-1.6374,9.6254,-0.0099,0.0298,-0.0056
33515,45.874542,-0.330974,88.03,22.62,3.216,63.9,15 / 18,3351511,2019-08-09 23:31:08:738,1.7371,-2.6155,9.71,0.9343,-1.6513,9.6214,-0.0322,0.0266,0.0178
33516,45.874542,-0.330974,88.03,22.62,3.216,63.9,13 / 16,3351610,2019-08-09 23:31:08:837,1.211,-1.8571,9.7375,0.9686,-1.6843,9.6122,0.045,0.0138,-0.0149
33517,45.874542,-0.330974,88.03,22.62,3.216,63.9,13 / 16,3351711,2019-08-09 23:31:08:938,1.2164,-2.3779,9.5771,0.9823,-1.6915,9.6096,0.0296,0.0111,0.0049
33518,45.874542,-0.330974,88.03,22.62,3.216,63.9,13 / 16,3351811,2019-08-09 23:31:09:038,1.299,-1.1293,9.7501,0.988,-1.7407,9.6002,0.0074,-0.0066,-0.0217
33519,45.874542,-0.330974,88.03,22.62,3.216,63.9,13 / 16,3351911,2019-08-09 23:31:09:138,1.2924,-2.3013,9.6453,1.0026,-1.7311,9.6004,0.0305,0.0093,-0.0159
33520,45.874542,-0.330974,88.03,22.62,3.216,63.9,13 / 16,3352011,2019-08-09 23:31:09:238,1.6701,-3.3248,9.8117,1.0108,-1.7623,9.5939,-0.0329,0.0191,0.038
33521,45.874542,-0.330974,88.03,22.62,3.216,63.9,13 / 16,3352110,2019-08-09 23:31:09:337,0.5861,-1.5555,8.8223,1.0277,-1.7717,9.5904,0.0732,0.0076,-0.0422
33522,45.874542,-0.330974,88.03,22.62,3.216,63.9,13 / 16,3352210,2019-08-09 23:31:09:437,0.6005,-2.327,9.455,1.0464,-1.7997,9.5831,-0.0293,0.0238,0.0263
33523,45.874542,-0.330974,88.03,22.62,3.216,63.9,13 / 16,3352311,2019-08-09 23:31:09:538,0.1779,-3.3188,9.4388,1.0535,-1.8198,9.5786,0.0123,0.0044,-0.0657
33524,45.874542,-0.330974,88.03,22.62,3.216,63.9,13 / 16,3352411,2019-08-09 23:31:09:638,2.0645,-2.0415,9.5184,1.0751,-1.8456,9.5712,-0.0012,0.0163,0.0308
33525,45.874542,-0.330974,88.03,22.62,3.216,63.9,13 / 16,3352510,2019-08-09 23:31:09:737,1.4007,-2.6233,9.3335,1.0781,-1.8514,9.5698,-0.0265,0.0128,0.0058
33526,45.874542,-0.330974,88.03,22.62,3.216,63.9,13 / 16,3352610,2019-08-09 23:31:09:837,0.9805,-2.1923,9.0462,1.0988,-1.8481,9.5681,-0.0391,0.0029,-0.0031
33527,45.874542,-0.330974,88.03,22.62,3.216,63.9,13 / 16,3352710,2019-08-09 23:31:09:937,1.1936,-2.1678,8.7583,1.0986,-1.8333,9.5709,-0.0235,-0.0068,0.0085
33528,45.874542,-0.330974,88.03,22.62,3.216,63.9,13 / 16,3352810,2019-08-09 23:31:10:037,1.1332,-2.1139,8.9737,1.0853,-1.8212,9.5747,0.0167,-0.0188,0.005
33529,45.874542,-0.330974,88.03,22.62,3.216,63.9,13 / 16,3352911,2019-08-09 23:31:10:138,1.0625,-0.5726,9.6968,1.0729,-1.8144,9.5774,-0.0163,-0.0245,0.0054
33530,45.874542,-0.330974,88.03,22.62,3.216,63.9,13 / 16,3353011,2019-08-09 23:31:10:238,0.4442,-0.6828,9.6704,1.0479,-1.7703,9.5884,-0.0043,-0.0071,-0.0168
33531,45.874542,-0.330974,88.03,22.62,3.216,63.9,13 / 16,3353110,2019-08-09 23:31:10:337,0.8644,0.81,9.8416,1.0566,-1.7502,9.5912,-0.0208,0.0051,0.0176
33532,45.874542,-0.330974,88.03,22.62,3.216,63.9,13 / 16,3353210,2019-08-09 23:31:10:437,0.8291,-0.8288,10.1487,1.0624,-1.7022,9.5992,-0.0001,0.0112,0.0069
33533,45.874542,-0.330974,88.03,22.62,3.216,63.9,13 / 16,3353311,2019-08-09 23:31:10:538,0.9375,0.0343,10.2229,1.0689,-1.6919,9.6003,0.0274,0.0186,0.0105
33534,45.874542,-0.330974,88.03,22.62,3.216,63.9,13 / 16,3353411,2019-08-09 23:31:10:638,0.9303,-0.7492,9.4657,1.093,-1.6563,9.6038,-0.0016,0.0267,-0.0068
33535,45.874542,-0.330974,88.03,22.62,3.216,63.9,13 / 16,3353511,2019-08-09 23:31:10:738,1.3271,-1.9092,9.8859,1.1092,-1.6312,9.6062,0.0058,0.0008,-0.01
33536,45.874542,-0.330974,88.03,22.62,3.216,63.9,15 / 18,3353610,2019-08-09 23:31:10:837,1.2337,-0.9192,9.273,1.1183,-1.5907,9.612,-0.0058,0.0062,-0.0096
33537,45.874542,-0.330974,88.03,22.62,3.216,63.9,15 / 18,3353710,2019-08-09 23:31:10:937,1.4253,-0.3661,9.3891,1.1248,-1.5689,9.6148,-0.0058,0.0062,-0.0096
33538,45.874542,-0.330974,88.03,22.62,3.216,63.9,15 / 18,3353810,2019-08-09 23:31:11:037,1.2403,0.0253,9.9524,1.1443,-1.5478,9.6159,0.0077,0.0042,-0.0022
33539,45.874542,-0.330974,88.03,22.62,3.216,63.9,15 / 18,3353910,2019-08-09 23:31:11:137,1.3517,-0.4607,9.7435,1.1504,-1.5313,9.6178,0.0042,0.0004,-0.0082
33540,45.874542,-0.330974,88.03,22.62,3.216,63.9,15 / 18,3354010,2019-08-09 23:31:11:237,1.0177,-0.4877,8.9127,1.172,-1.5587,9.6108,-0.0097,0.0051,-0.0251
33541,45.874542,-0.330974,88.03,22.62,3.216,63.9,15 / 18,3354111,2019-08-09 23:31:11:338,0.8231,-3.0435,8.7188,1.1983,-1.4904,9.6184,0.0248,0.0103,-0.0472
33542,45.874542,-0.330974,88.03,22.62,3.216,63.9,15 / 18,3354211,2019-08-09 23:31:11:438,1.8969,-1.3508,9.349,1.2164,-1.5426,9.6079,0.0463,-0.0053,-0.0513
33543,45.874542,-0.330974,88.03,22.62,3.216,63.9,15 / 18,3354310,2019-08-09 23:31:11:537,2.1172,-2.2396,9.9027,1.2181,-1.5757,9.6023,-0.0157,0.0017,0.008
33544,45.874542,-0.330974,88.03,22.62,3.216,63.9,15 / 18,3354410,2019-08-09 23:31:11:637,1.5737,-1.4304,9.4346,1.2317,-1.5844,9.5991,-0.0159,0.0115,-0.0133
33545,45.874542,-0.330974,88.03,22.62,3.216,63.9,15 / 18,3354510,2019-08-09 23:31:11:737,2.4009,-3.1745,10.0661,1.2492,-1.5497,9.6025,0.0228,0.0066,-0.0618
33546,45.874542,-0.330974,88.03,22.62,3.216,63.9,13 / 17,3354610,2019-08-09 23:31:11:837,0.6184,0.0917,8.6008,1.2589,-1.5788,9.5965,0.094,-0.0105,-0.0812
33547,45.874542,-0.330974,88.03,22.62,3.216,63.9,13 / 17,3354710,2019-08-09 23:31:11:937,1.2164,-2.0128,8.9827,1.2821,-1.5579,9.5968,-0.0483,0.008,-0.0054
33548,45.874542,-0.330974,88.03,22.62,3.216,63.9,13 / 17,3354810,2019-08-09 23:31:12:037,1.4073,-2.2654,9.0635,1.2806,-1.5802,9.5934,-0.0144,-0.0053,-0.0129
33549,45.874542,-0.330974,88.03,22.62,3.216,63.9,13 / 17,3354910,2019-08-09 23:31:12:137,1.4474,-1.2646,9.4975,1.2867,-1.5687,9.5945,-0.009,0.0024,-0.0037
33550,45.874542,-0.330974,88.03,22.62,3.216,63.9,13 / 17,3355011,2019-08-09 23:31:12:238,1.5917,-1.4615,9.3442,1.29,-1.5583,9.5957,-0.0188,0.003,-0.0173
33551,45.874542,-0.330974,88.03,22.62,3.216,63.9,13 / 17,3355110,2019-08-09 23:31:12:337,1.7419,-1.8913,10.0631,1.3019,-1.5604,9.5938,0.0192,-0.0108,-0.0257
33552,45.874542,-0.330974,88.03,22.62,3.216,63.9,13 / 17,3355210,2019-08-09 23:31:12:437,1.4642,-1.8021,9.8859,1.2987,-1.581,9.5908,0.0362,-0.0176,-0.0199
33553,45.874542,-0.330974,88.03,22.62,3.216,63.9,13 / 17,3355310,2019-08-09 23:31:12:537,1.6593,-1.6279,10.0332,1.2808,-1.6132,9.5879,0.0159,-0.024,-0.0135
33554,45.874542,-0.330974,88.03,22.62,3.216,63.9,13 / 17,3355411,2019-08-09 23:31:12:638,1.2361,-2.151,9.5567,1.2687,-1.6319,9.5863,-0.0071,-0.0181,0.0126
33555,45.874542,-0.330974,88.03,22.62,3.216,63.9,13 / 17,3355511,2019-08-09 23:31:12:738,1.1619,-1.8601,9.379,1.2489,-1.6148,9.5918,-0.0297,-0.0126,-0.0087
33556,45.874542,-0.330974,88.03,22.62,3.216,63.9,Dec-15,3355611,2019-08-09 23:31:12:838,1.2756,-1.1748,9.5274,1.2481,-1.615,9.5919,-0.0027,-0.0162,-0.0132
33557,45.874542,-0.330974,88.03,22.62,3.216,63.9,Dec-15,3355710,2019-08-09 23:31:12:937,1.3115,-1.5579,9.3891,1.2334,-1.5942,9.5973,0.0204,0.0024,-0.0107
33558,45.874542,-0.330974,88.03,22.62,3.216,63.9,Dec-15,3355811,2019-08-09 23:31:13:038,1.5677,-1.8021,9.8865,1.232,-1.6114,9.5946,-0.0175,0.0121,0.011
33559,45.874542,-0.330974,88.03,22.62,3.216,63.9,Dec-15,3355911,2019-08-09 23:31:13:138,1.4714,-2.06,10.0134,1.2464,-1.6235,9.5907,-0.0422,0.0251,0.0345
33560,45.874542,-0.330974,88.03,22.62,3.216,63.9,Dec-15,3356011,2019-08-09 23:31:13:238,1.3349,-0.8629,9.4346,1.2599,-1.6052,9.592,0.0066,0.0278,-0.0318
33561,45.874542,-0.330974,88.03,22.62,3.216,63.9,Dec-15,3356110,2019-08-09 23:31:13:337,1.7964,-1.0228,9.0773,1.3035,-1.5822,9.59,-0.0237,0.0205,0.0012
33562,45.874542,-0.330974,88.03,22.62,3.216,63.9,Dec-15,3356210,2019-08-09 23:31:13:437,1.767,-0.2937,9.2281,1.3167,-1.5659,9.5909,0.0311,-0.0011,0.0034
33563,45.874542,-0.330974,88.03,22.62,3.216,63.9,Dec-15,3356310,2019-08-09 23:31:13:537,1.7335,-1.7985,9.8937,1.3152,-1.5664,9.591,0.0027,-0.0166,-0.0077
33564,45.874542,-0.330974,88.03,22.62,3.216,63.9,Dec-15,3356410,2019-08-09 23:31:13:637,1.3062,-1.7344,9.689,1.3108,-1.5528,9.5938,0.0045,-0.0108,0.0036
33565,45.874542,-0.330974,88.03,22.62,3.216,63.9,Dec-15,3356510,2019-08-09 23:31:13:737,1.8496,-0.7492,9.8207,1.3083,-1.5451,9.5954,-0.0029,-0.0023,-0.0333
33566,45.874542,-0.330974,88.03,22.62,3.216,63.9,13 / 16,3356611,2019-08-09 23:31:13:838,1.6593,-0.3452,9.7884,1.3099,-1.5286,9.5978,0.0019,-0.0105,-0.0132
33567,45.874542,-0.330974,88.03,22.62,3.216,63.9,13 / 16,3356711,2019-08-09 23:31:13:938,1.2493,-1.1664,9.3197,1.3091,-1.5059,9.6015,0.0357,0.005,-0.0282
33568,45.874542,-0.330974,88.03,22.62,3.216,63.9,13 / 16,3356811,2019-08-09 23:31:14:038,1.4923,-1.003,10.0248,1.3115,-1.5056,9.6012,0.0294,-0.013,-0.0166
33569,45.874542,-0.330974,88.03,22.62,3.216,63.9,13 / 16,3356910,2019-08-09 23:31:14:137,1.4684,-0.8677,10.0667,1.3042,-1.5068,9.602,0.0082,-0.0082,-0.0133
33570,45.874542,-0.330974,88.03,22.62,3.216,63.9,13 / 16,3357010,2019-08-09 23:31:14:237,1.8197,-0.0573,9.8692,1.3048,-1.4985,9.6032,-0.02,-0.0057,-0.0121
33571,45.874542,-0.330974,88.03,22.62,3.216,63.9,13 / 16,3357110,2019-08-09 23:31:14:337,1.4127,-0.0956,9.1563,1.3091,-1.4491,9.6102,-0.0361,0.0068,0.0012
33572,45.874542,-0.330974,88.03,22.62,3.216,63.9,13 / 16,3357210,2019-08-09 23:31:14:437,1.606,-1.1682,9.7656,1.3183,-1.4265,9.6124,0.0114,0.0125,-0.0194
33573,45.874542,-0.330974,88.03,22.62,3.216,63.9,13 / 16,3357310,2019-08-09 23:31:14:537,1.6042,-0.2698,9.9428,1.3267,-1.384,9.6174,-0.0124,0.0046,-0.0062
33574,45.874542,-0.330974,88.03,22.62,3.216,63.9,13 / 16,3357411,2019-08-09 23:31:14:638,1.5893,-1.018,9.3736,1.3313,-1.3597,9.6202,-0.0417,0.0128,-0.0158
33575,45.874542,-0.330974,88.03,22.62,3.216,63.9,13 / 16,3357510,2019-08-09 23:31:14:737,1.3433,-0.3189,8.784,1.359,-1.2968,9.6251,-0.0671,0.0219,-0.0057
33576,45.874542,-0.330974,88.03,22.62,3.216,63.9,13 / 16,3357610,2019-08-09 23:31:14:837,1.612,-0.6965,9.1533,1.3736,-1.2693,9.6267,0.0458,0.0164,-0.0281
33577,45.874542,-0.330974,88.03,22.62,3.216,63.9,13 / 16,3357711,2019-08-09 23:31:14:938,1.5582,-0.3691,9.7991,1.3896,-1.2539,9.6264,0.0253,-0.0067,-0.0274
33578,45.874542,-0.330974,88.03,22.62,3.216,63.9,13 / 16,3357811,2019-08-09 23:31:15:038,1.3522,-0.5338,9.7177,1.3887,-1.2422,9.628,0.0099,-0.004,-0.0058
33579,45.874542,-0.330974,88.03,22.62,3.216,63.9,13 / 16,3357911,2019-08-09 23:31:15:138,2.0669,-0.1088,10.1182,1.3946,-1.2254,9.6293,-0.0113,0.0007,0.0082
33580,45.874542,-0.330974,88.03,22.62,3.216,63.9,13 / 16,3358010,2019-08-09 23:31:15:237,1.6425,-0.6397,9.54,1.3905,-1.2146,9.6313,-0.0143,-0.0085,-0.0117
33581,45.874542,-0.330974,88.03,22.62,3.216,63.9,13 / 16,3358110,2019-08-09 23:31:15:337,1.7138,-0.4069,10.2331,1.3939,-1.1851,9.6345,0.022,0.0014,-0.009
33582,45.874542,-0.330974,88.03,22.62,3.216,63.9,13 / 16,3358210,2019-08-09 23:31:15:437,1.3947,-0.1585,10.0715,1.394,-1.1793,9.6352,0.0116,-0.0095,-0.0144
33583,45.874542,-0.330974,88.03,22.62,3.216,63.9,13 / 16,3358311,2019-08-09 23:31:15:538,1.4289,-0.3775,9.5956,1.3902,-1.1708,9.6368,0.0072,0.0011,-0.0116
33584,45.874542,-0.330974,88.03,22.62,3.216,63.9,13 / 16,3358411,2019-08-09 23:31:15:638,1.4857,-0.6223,9.7028,1.3954,-1.1411,9.6395,-0.0084,0.0164,-0.0031
33585,45.874542,-0.330974,88.03,22.62,3.216,63.9,13 / 16,3358510,2019-08-09 23:31:15:737,1.2206,-0.8809,9.4448,1.4041,-1.1246,9.6402,0.0052,0.0119,-0.0247
33586,45.874542,-0.330974,88.03,22.62,3.216,63.9,14 / 17,3358610,2019-08-09 23:31:15:837,1.4726,-0.0394,10.2014,1.4126,-1.1139,9.6402,0.0198,-0.0044,-0.0125
33587,45.874542,-0.330974,88.03,22.62,3.216,63.9,14 / 17,3358710,2019-08-09 23:31:15:937,1.3475,0.169,8.9492,1.3993,-1.1006,9.6437,-0.0239,-0.0067,0.0061
33588,45.874542,-0.330974,88.03,22.62,3.216,63.9,14 / 17,3358810,2019-08-09 23:31:16:037,1.7988,-2.7502,10.7197,1.3837,-1.0502,9.6516,0.0425,-0.0281,0.0057
33589,45.874542,-0.330974,88.03,22.62,3.216,63.9,14 / 17,3358910,2019-08-09 23:31:16:137,0.956,0.0193,10.0912,1.3568,-1.0788,9.6522,-0.0157,-0.0043,0.0313
33590,45.874542,-0.330974,88.03,22.62,3.216,63.9,14 / 17,3359011,2019-08-09 23:31:16:238,1.0679,-0.1261,9.5256,1.3378,-1.062,9.6567,-0.0701,-0.0125,0.0371
33591,45.874542,-0.330974,88.03,22.62,3.216,63.9,14 / 17,3359110,2019-08-09 23:31:16:337,1.0392,-0.7061,9.4987,1.3256,-1.0152,9.6635,0.0043,-0.0012,-0.0054
33592,45.874542,-0.330974,88.03,22.62,3.216,63.9,14 / 17,3359210,2019-08-09 23:31:16:437,1.0961,0.549,9.7961,1.3184,-0.99,9.6671,0.0073,-0.0113,-0.0263
33593,45.874542,-0.330974,88.03,22.62,3.216,63.9,14 / 17,3359310,2019-08-09 23:31:16:537,0.9171,1.1853,9.9153,1.313,-0.9754,9.6693,0.001,-0.0096,0.0036
33594,45.874542,-0.330974,88.03,22.62,3.216,63.9,14 / 17,3359410,2019-08-09 23:31:16:637,0.716,-1.009,9.4526,1.2997,-0.9553,9.6731,-0.0012,-0.0047,-0.0158
33595,45.874542,-0.330974,88.03,22.62,3.216,63.9,14 / 17,3359510,2019-08-09 23:31:16:737,1.3726,-0.6714,9.6465,1.2893,-0.9569,9.6743,-0.0029,-0.0115,0.0054
33596,45.875477,-0.328172,85.34,27.73,5.36,67.0,13 / 15,3359611,2019-08-09 23:31:16:838,1.038,-0.1878,10.0128,1.2487,-0.9598,9.6794,0.0125,-0.0437,0.0137
33597,45.875477,-0.328172,85.34,27.73,5.36,67.0,13 / 15,3359710,2019-08-09 23:31:16:937,0.6753,-0.3111,10.3546,1.2155,-0.9641,9.6832,0.0504,-0.0259,0.0163
33598,45.875477,-0.328172,85.34,27.73,5.36,67.0,13 / 15,3359810,2019-08-09 23:31:17:037,0.8082,-1.1772,10.0679,1.1877,-0.9801,9.685,0.0379,0.0023,0.0091
33599,45.875477,-0.328172,85.34,27.73,5.36,67.0,13 / 15,3359910,2019-08-09 23:31:17:137,0.6789,-1.5064,9.9955,1.1838,-0.9733,9.6862,0.0102,0.0143,-0.019
33600,45.875477,-0.328172,85.34,27.73,5.36,67.0,13 / 15,3360010,2019-08-09 23:31:17:237,0.6609,-0.6403,10.1535,1.2009,-0.9693,9.6845,-0.0108,0.0308,0.0071
33601,45.875477,-0.328172,85.34,27.73,5.36,67.0,13 / 15,3360111,2019-08-09 23:31:17:338,0.9518,-1.2682,9.027,1.2076,-0.9284,9.6876,-0.0519,-0.0067,0.0064
33602,45.875477,-0.328172,85.34,27.73,5.36,67.0,13 / 15,3360211,2019-08-09 23:31:17:438,0.7399,-1.7644,9.4975,1.1934,-0.8831,9.6936,0.0062,-0.015,0.0281
33603,45.875477,-0.328172,85.34,27.73,5.36,67.0,13 / 15,3360310,2019-08-09 23:31:17:537,1.2655,0.0181,8.5631,1.1673,-0.8268,9.7018,-0.0781,-0.0395,-0.0095
33604,45.875477,-0.328172,85.34,27.73,5.36,67.0,13 / 15,3360411,2019-08-09 23:31:17:638,0.7746,0.087,9.5675,1.1097,-0.8289,9.7083,0.0163,-0.0493,0.0075
33605,45.875477,-0.328172,85.34,27.73,5.36,67.0,13 / 15,3360511,2019-08-09 23:31:17:738,0.4748,-0.2057,10.1068,1.0768,-0.8263,9.7123,0.033,-0.0154,0.0153
33606,45.875477,-0.328172,85.34,27.73,5.36,67.0,15 / 18,3360610,2019-08-09 23:31:17:837,1.3277,-0.2111,10.2265,1.046,-0.8496,9.7136,0.0236,-0.007,-0.0102
33607,45.875477,-0.328172,85.34,27.73,5.36,67.0,15 / 18,3360710,2019-08-09 23:31:17:937,1.4504,-0.5355,10.345,1.0198,-0.8572,9.7157,0.0459,-0.018,0.0061
33608,45.875477,-0.328172,85.34,27.73,5.36,67.0,15 / 18,3360810,2019-08-09 23:31:18:037,1.0195,0.0894,9.1204,0.9997,-0.8334,9.7199,0.0114,0.0152,0.0446
33609,45.875477,-0.328172,85.34,27.73,5.36,67.0,15 / 18,3360910,2019-08-09 23:31:18:137,0.3844,-0.9414,9.9895,1.0001,-0.8403,9.7193,-0.0558,-0.0104,-0.037
33610,45.875477,-0.328172,85.34,27.73,5.36,67.0,15 / 18,3361010,2019-08-09 23:31:18:237,0.786,0.1259,9.5633,0.9868,-0.7923,9.7246,-0.0248,-0.0246,0.0021
33611,45.875477,-0.328172,85.34,27.73,5.36,67.0,15 / 18,3361111,2019-08-09 23:31:18:338,0.704,-0.0531,10.512,0.9685,-0.8017,9.7257,0.0636,-0.0276,0.0229
33612,45.875477,-0.328172,85.34,27.73,5.36,67.0,15 / 18,3361211,2019-08-09 23:31:18:438,0.7166,-1.0988,9.7489,0.9456,-0.8316,9.7255,0.0252,0.0156,0.0376
33613,45.875477,-0.328172,85.34,27.73,5.36,67.0,15 / 18,3361310,2019-08-09 23:31:18:537,0.8369,-0.42,9.1581,0.9509,-0.8189,9.726,-0.026,0.0136,-0.0541
33614,45.875477,-0.328172,85.34,27.73,5.36,67.0,15 / 18,3361410,2019-08-09 23:31:18:637,1.451,-0.2764,9.6884,0.9663,-0.827,9.7238,0.0005,-0.0189,-0.0333
33615,45.875477,-0.328172,85.34,27.73,5.36,67.0,15 / 18,3361510,2019-08-09 23:31:18:737,0.7669,-1.188,9.8428,0.9523,-0.8174,9.726,-0.0045,-0.0254,0.0135
33616,45.875477,-0.328172,85.34,27.73,5.36,67.0,14 / 17,3361610,2019-08-09 23:31:18:837,1.0919,-0.0028,10.1828,0.9226,-0.8329,9.7276,0.0125,-0.0486,-0.0026
33617,45.875477,-0.328172,85.34,27.73,5.36,67.0,14 / 17,3361710,2019-08-09 23:31:18:937,0.8788,-1.5184,9.8273,0.8712,-0.8668,9.7293,0.0204,-0.0241,0.0014
33618,45.875477,-0.328172,85.34,27.73,5.36,67.0,14 / 17,3361810,2019-08-09 23:31:19:037,0.613,-0.8234,10.2253,0.851,-0.8733,9.7305,-0.0145,-0.0153,-0.0153
33619,45.875477,-0.328172,85.34,27.73,5.36,67.0,14 / 17,3361910,2019-08-09 23:31:19:137,0.8549,-0.7714,9.3712,0.8334,-0.8525,9.7339,-0.0257,-0.0108,0.0023
33620,45.875477,-0.328172,85.34,27.73,5.36,67.0,14 / 17,3362010,2019-08-09 23:31:19:237,0.7968,-1.1874,9.1982,0.8252,-0.8444,9.7353,-0.0258,-0.0181,0.003
33621,45.875477,-0.328172,85.34,27.73,5.36,67.0,14 / 17,3362111,2019-08-09 23:31:19:338,0.9506,-0.4829,9.3975,0.8024,-0.8242,9.739,-0.0031,-0.017,-0.0152
33622,45.875477,-0.328172,85.34,27.73,5.36,67.0,14 / 17,3362211,2019-08-09 23:31:19:438,1.1332,-0.4871,9.8273,0.7948,-0.8165,9.7402,0.0169,-0.0325,-0.0111
33623,45.875477,-0.328172,85.34,27.73,5.36,67.0,14 / 17,3362311,2019-08-09 23:31:19:538,0.6059,-0.1189,9.4185,0.758,-0.8223,9.7427,-0.0171,-0.0216,0.0217
33624,45.875477,-0.328172,85.34,27.73,5.36,67.0,14 / 17,3362411,2019-08-09 23:31:19:638,0.7728,-2.0457,9.2018,0.7453,-0.8005,9.7455,-0.0203,-0.0208,0.0001
33625,45.875477,-0.328172,85.34,27.73,5.36,67.0,14 / 17,3362510,2019-08-09 23:31:19:737,0.5717,-0.0788,9.8907,0.7245,-0.8048,9.7467,0.0202,-0.0054,0.006
33626,45.875477,-0.328172,85.34,27.73,5.36,67.0,Dec-16,3362610,2019-08-09 23:31:19:837,0.4012,-0.4907,9.9093,0.7145,-0.832,9.7451,0.0156,-0.0019,0.0219
33627,45.875477,-0.328172,85.34,27.73,5.36,67.0,Dec-16,3362710,2019-08-09 23:31:19:937,0.7214,-1.401,10.4581,0.715,-0.8523,9.7433,-0.0531,0.0028,0.0208
33628,45.875477,-0.328172,85.34,27.73,5.36,67.0,Dec-16,3362810,2019-08-09 23:31:20:037,-0.0035,-1.252,9.8171,0.7183,-0.8617,9.7423,0.042,0.0273,0.0269
33629,45.875477,-0.328172,85.34,27.73,5.36,67.0,Dec-16,3362910,2019-08-09 23:31:20:137,1.0835,-1.1556,9.4095,0.7297,-0.8478,9.7427,-0.0273,-0.0028,-0.0393
33630,45.875477,-0.328172,85.34,27.73,5.36,67.0,Dec-16,3363011,2019-08-09 23:31:20:238,0.3497,-0.4009,10.5383,0.7207,-0.8587,9.7424,0.05,-0.0129,0.0479
33631,45.875477,-0.328172,85.34,27.73,5.36,67.0,Dec-16,3363110,2019-08-09 23:31:20:337,0.4592,-1.5004,10.4019,0.6885,-0.8792,9.7429,0.0448,-0.0153,-0.0129
33632,45.875477,-0.328172,85.34,27.73,5.36,67.0,Dec-16,3363210,2019-08-09 23:31:20:437,0.1516,-0.2895,9.4711,0.6793,-0.8842,9.7431,-0.0054,0.0058,-0.0146
33633,45.875477,-0.328172,85.34,27.73,5.36,67.0,Dec-16,3363310,2019-08-09 23:31:20:537,0.4359,-0.8498,9.3442,0.6797,-0.8596,9.7452,-0.0445,0.0091,0.0175
33634,45.875477,-0.328172,85.34,27.73,5.36,67.0,Dec-16,3363410,2019-08-09 23:31:20:637,0.4987,-0.2566,9.3831,0.6765,-0.8597,9.7454,0.0005,-0.0065,0.0075
33635,45.875477,-0.328172,85.34,27.73,5.36,67.0,Dec-16,3363511,2019-08-09 23:31:20:738,0.8483,-0.8498,10.4743,0.6497,-0.8547,9.7477,0.0666,-0.023,-0.0188
33636,45.875477,-0.328172,85.34,27.73,5.36,67.0,15 / 18,3363611,2019-08-09 23:31:20:838,0.1492,0.1995,9.4382,0.6393,-0.8209,9.7513,-0.0476,-0.0163,0.0336
33637,45.875477,-0.328172,85.34,27.73,5.36,67.0,15 / 18,3363711,2019-08-09 23:31:20:938,0.2479,-1.1874,8.8624,0.632,-0.8571,9.7487,0.0463,0.0189,-0.0224
33638,45.875477,-0.328172,85.34,27.73,5.36,67.0,15 / 18,3363810,2019-08-09 23:31:21:037,0.531,-2.3462,8.4883,0.645,-0.8774,9.746,-0.0867,0.0044,0.0096
33639,45.875477,-0.328172,85.34,27.73,5.36,67.0,15 / 18,3363910,2019-08-09 23:31:21:137,0.9955,-0.7857,9.7405,0.642,-0.8543,9.7482,-0.0262,-0.0182,0.0016
33640,45.875477,-0.328172,85.34,27.73,5.36,67.0,15 / 18,3364011,2019-08-09 23:31:21:238,0.1821,-1.3214,9.7046,0.6389,-0.8427,9.7495,0.0454,-0.0077,-0.0018
33641,45.875477,-0.328172,85.34,27.73,5.36,67.0,15 / 18,3364110,2019-08-09 23:31:21:337,0.0666,-1.7189,9.7914,0.6288,-0.8658,9.7481,-0.0076,-0.0026,-0.0123
33642,45.875477,-0.328172,85.34,27.73,5.36,67.0,15 / 18,3364210,2019-08-09 23:31:21:437,0.3563,-0.4895,9.8099,0.6283,-0.8704,9.7477,0.0142,0.0119,0.0111
33643,45.875477,-0.328172,85.34,27.73,5.36,67.0,15 / 18,3364310,2019-08-09 23:31:21:537,0.9225,-0.0286,9.7997,0.6375,-0.8749,9.7467,-0.0207,0.0124,0.0258
33644,45.875477,-0.328172,85.34,27.73,5.36,67.0,15 / 18,3364410,2019-08-09 23:31:21:637,1.029,-1.2287,9.7243,0.6417,-0.8662,9.7472,0.0096,0.0017,-0.0237
33645,45.875477,-0.328172,85.34,27.73,5.36,67.0,15 / 18,3364511,2019-08-09 23:31:21:738,0.9787,-2.2115,10.0954,0.6386,-0.8744,9.7467,0.0231,-0.0167,-0.0145
33646,45.875477,-0.328172,85.34,27.73,5.36,67.0,15 / 18,3364611,2019-08-09 23:31:21:838,0.4083,0.075,10.1523,0.632,-0.8702,9.7475,0.008,-0.0183,0.0128
33647,45.875477,-0.328172,85.34,27.73,5.36,67.0,15 / 18,3364710,2019-08-09 23:31:21:937,0.5885,-1.6937,9.4274,0.6232,-0.867,9.7483,-0.0304,0.0105,-0.0014
33648,45.875477,-0.328172,85.34,27.73,5.36,67.0,15 / 18,3364810,2019-08-09 23:31:22:037,0.4963,-1.0036,9.4891,0.6292,-0.8532,9.7492,-0.021,0.009,0.0199
33649,45.875477,-0.328172,85.34,27.73,5.36,67.0,15 / 18,3364910,2019-08-09 23:31:22:137,0.3395,0.1139,9.6304,0.6335,-0.8206,9.7517,-0.0104,-0.0018,-0.0058
33650,45.875477,-0.328172,85.34,27.73,5.36,67.0,15 / 18,3365011,2019-08-09 23:31:22:238,0.4586,-0.0142,9.8674,0.6277,-0.7981,9.7539,0.0,-0.0128,0.0158
33651,45.875477,-0.328172,85.34,27.73,5.36,67.0,15 / 18,3365111,2019-08-09 23:31:22:338,0.066,-0.0639,10.5976,0.6108,-0.8222,9.753,0.0313,-0.0004,0.0261
33652,45.875477,-0.328172,85.34,27.73,5.36,67.0,15 / 18,3365211,2019-08-09 23:31:22:438,0.6184,-0.3255,10.591,0.6058,-0.8517,9.7508,0.0539,0.0008,-0.0113
33653,45.875477,-0.328172,85.34,27.73,5.36,67.0,15 / 18,3365310,2019-08-09 23:31:22:537,0.473,0.2282,9.3748,0.6081,-0.8298,9.7525,0.0014,0.0029,0.0134
33654,45.875477,-0.328172,85.34,27.73,5.36,67.0,15 / 18,3365410,2019-08-09 23:31:22:637,0.2659,-1.8488,8.9067,0.5963,-0.8055,9.7553,-0.065,-0.0139,0.0282
33655,45.875477,-0.328172,85.34,27.73,5.36,67.0,15 / 18,3365510,2019-08-09 23:31:22:737,0.7423,-1.1969,9.2227,0.5867,-0.7935,9.7569,-0.0235,-0.0235,-0.0215
33656,45.875477,-0.328172,85.34,27.73,5.36,67.0,Dec-17,3365610,2019-08-09 23:31:22:837,0.959,0.3186,9.8871,0.5565,-0.7924,9.7587,0.0314,-0.0212,0.0191
33657,45.875477,-0.328172,85.34,27.73,5.36,67.0,Dec-17,3365710,2019-08-09 23:31:22:937,0.3126,-1.899,10.0056,0.5464,-0.8238,9.7567,0.0168,-0.0189,-0.0111
33658,45.875477,-0.328172,85.34,27.73,5.36,67.0,Dec-17,3365810,2019-08-09 23:31:23:037,0.6861,-1.8248,9.7854,0.5413,-0.8293,9.7565,-0.027,0.0078,0.0015
33659,45.875477,-0.328172,85.34,27.73,5.36,67.0,Dec-17,3365910,2019-08-09 23:31:23:137,0.5681,0.0241,9.5298,0.5464,-0.8277,9.7564,-0.0179,0.0141,-0.0029
33660,45.875477,-0.328172,85.34,27.73,5.36,67.0,Dec-17,3366011,2019-08-09 23:31:23:238,0.9213,-0.247,10.0619,0.5639,-0.8452,9.7539,-0.0043,0.002,-0.0122
33661,45.875477,-0.328172,85.34,27.73,5.36,67.0,Dec-17,3366111,2019-08-09 23:31:23:338,0.5508,-0.9755,9.8159,0.5706,-0.8462,9.7534,0.0051,0.0083,0.0091
33662,45.875477,-0.328172,85.34,27.73,5.36,67.0,Dec-17,3366210,2019-08-09 23:31:23:437,0.4023,-1.4376,9.6292,0.5808,-0.8621,9.7514,-0.0113,0.011,0.0204
33663,45.875477,-0.328172,85.34,27.73,5.36,67.0,Dec-17,3366310,2019-08-09 23:31:23:537,0.6717,-1.2328,8.8582,0.5906,-0.8594,9.751,-0.0363,0.0178,0.0182
33664,45.875477,-0.328172,85.34,27.73,5.36,67.0,Dec-17,3366410,2019-08-09 23:31:23:637,0.7028,-0.6361,8.8259,0.6063,-0.8096,9.7543,-0.0549,0.0078,0.0073
33665,45.875477,-0.328172,85.34,27.73,5.36,67.0,Dec-17,3366511,2019-08-09 23:31:23:738,0.4736,-0.8653,9.4502,0.6101,-0.7916,9.7556,-0.0154,0.0003,0.0073
33666,45.875477,-0.328172,85.34,27.73,5.36,67.0,Dec-16,3366611,2019-08-09 23:31:23:838,0.3395,-0.4039,10.1218,0.5915,-0.8086,9.7553,0.0139,-0.0162,0.0173
33667,45.875477,-0.328172,85.34,27.73,5.36,67.0,Dec-16,3366710,2019-08-09 23:31:23:937,0.5759,-0.7576,10.2744,0.5805,-0.8357,9.7537,0.0436,-0.0106,-0.0018
33668,45.875477,-0.328172,85.34,27.73,5.36,67.0,Dec-16,3366810,2019-08-09 23:31:24:037,0.619,-1.4711,10.1972,0.5839,-0.8681,9.7507,0.0034,0.0023,0.002
33669,45.875477,-0.328172,85.34,27.73,5.36,67.0,Dec-16,3366910,2019-08-09 23:31:24:137,0.282,-0.6726,9.7908,0.58,-0.8778,9.75,-0.0116,0.0074,0.0223
33670,45.875477,-0.328172,85.34,27.73,5.36,67.0,Dec-16,3367010,2019-08-09 23:31:24:237,0.7417,-1.3035,9.7333,0.5786,-0.8825,9.7497,0.0295,-0.0151,0.0083
33671,45.875477,-0.328172,85.34,27.73,5.36,67.0,Dec-16,3367110,2019-08-09 23:31:24:337,0.5957,-0.5122,10.1086,0.5718,-0.8874,9.7497,0.0164,-0.0189,0.0005
33672,45.875477,-0.328172,85.34,27.73,5.36,67.0,Dec-16,3367210,2019-08-09 23:31:24:437,0.1486,-1.4819,9.2437,0.5514,-0.8841,9.7511,0.0119,0.005,0.0091
33673,45.875477,-0.328172,85.34,27.73,5.36,67.0,Dec-16,3367311,2019-08-09 23:31:24:538,0.3293,-0.7726,9.5891,0.552,-0.8903,9.7505,0.0062,0.0057,-0.0038
33674,45.875477,-0.328172,85.34,27.73,5.36,67.0,Dec-16,3367411,2019-08-09 23:31:24:638,0.7321,-1.0766,10.2247,0.5524,-0.8924,9.7503,-0.0033,-0.0045,0.0141
33675,45.875477,-0.328172,85.34,27.73,5.36,67.0,Dec-16,3367511,2019-08-09 23:31:24:738,0.0145,-1.413,9.4071,0.5459,-0.8998,9.75,-0.0129,0.0028,0.029
33676,45.875477,-0.328172,85.34,27.73,5.36,67.0,13 / 17,3367610,2019-08-09 23:31:24:837,0.3622,-1.0084,9.592,0.5531,-0.8964,9.7499,-0.0431,0.0155,0.0152
33677,45.875477,-0.328172,85.34,27.73,5.36,67.0,13 / 17,3367710,2019-08-09 23:31:24:937,0.6944,-0.7241,9.5962,0.5623,-0.8873,9.7502,0.0064,0.0062,-0.0107
33678,45.875477,-0.328172,85.34,27.73,5.36,67.0,13 / 17,3367810,2019-08-09 23:31:25:037,0.5436,-0.4422,9.4945,0.5658,-0.8635,9.7522,-0.0145,0.0001,0.0002
33679,45.875477,-0.328172,85.34,27.73,5.36,67.0,13 / 17,3367910,2019-08-09 23:31:25:137,0.4921,-1.012,9.2431,0.5683,-0.8488,9.7533,-0.0052,0.0014,0.0014
33680,45.875477,-0.328172,85.34,27.73,5.36,67.0,13 / 17,3368010,2019-08-09 23:31:25:237,0.6082,0.5059,9.4777,0.5723,-0.8534,9.7527,0.0207,-0.0017,-0.0018
33681,45.875477,-0.328172,85.34,27.73,5.36,67.0,13 / 17,3368110,2019-08-09 23:31:25:337,0.3281,-1.24,9.9554,0.5592,-0.8478,9.7539,0.0046,-0.0296,0.0033
33682,45.875477,-0.328172,85.34,27.73,5.36,67.0,13 / 17,3368210,2019-08-09 23:31:25:437,0.0672,-1.0754,10.0368,0.5476,-0.8655,9.753,0.029,-0.0005,0.0252
33683,45.875477,-0.328172,85.34,27.73,5.36,67.0,13 / 17,3368310,2019-08-09 23:31:25:537,0.7423,-0.259,9.5376,0.5375,-0.8518,9.7548,-0.014,-0.0037,-0.0219
33684,45.875477,-0.328172,85.34,27.73,5.36,67.0,13 / 17,3368411,2019-08-09 23:31:25:638,0.8704,-0.5565,9.8518,0.5431,-0.8602,9.7537,-0.0004,-0.0078,-0.0132
33685,45.875477,-0.328172,85.34,27.73,5.36,67.0,13 / 17,3368511,2019-08-09 23:31:25:738,0.3736,-0.751,9.3233,0.5398,-0.8281,9.7567,0.0,0.0132,0.0027
33686,45.876335,-0.325259,88.22,27.0,5.36,65.8,14 / 18,3368611,2019-08-09 23:31:25:838,0.7591,-1.0264,10.251,0.5466,-0.8314,9.756,0.0212,0.0016,-0.0222
33687,45.876335,-0.325259,88.22,27.0,5.36,65.8,14 / 18,3368710,2019-08-09 23:31:25:937,0.6286,1.0488,9.9266,0.5474,-0.8454,9.7548,-0.0324,-0.0116,0.0097
33688,45.876335,-0.325259,88.22,27.0,5.36,65.8,14 / 18,3368810,2019-08-09 23:31:26:037,0.6483,-0.6553,9.8015,0.5415,-0.8312,9.7563,0.0093,-0.0047,-0.0153
33689,45.876335,-0.325259,88.22,27.0,5.36,65.8,14 / 18,3368910,2019-08-09 23:31:26:137,0.7309,-1.2412,10.0757,0.5404,-0.8391,9.7557,0.0294,-0.0053,0.0043
33690,45.876335,-0.325259,88.22,27.0,5.36,65.8,14 / 18,3369010,2019-08-09 23:31:26:237,0.4365,2.0819,9.3412,0.5366,-0.8317,9.7566,-0.0581,-0.0098,-0.0066
33691,45.876335,-0.325259,88.22,27.0,5.36,65.8,14 / 18,3369111,2019-08-09 23:31:26:338,0.7531,-1.8757,10.0092,0.5372,-0.8389,9.7559,-0.0369,-0.0085,0.0063
33692,45.876335,-0.325259,88.22,27.0,5.36,65.8,14 / 18,3369211,2019-08-09 23:31:26:438,0.5167,0.0008,10.2858,0.534,-0.8373,9.7562,0.0497,-0.0097,0.0071
33693,45.876335,-0.325259,88.22,27.0,5.36,65.8,14 / 18,3369311,2019-08-09 23:31:26:538,0.6202,-0.5822,9.622,0.5329,-0.8391,9.7561,0.0186,0.0137,0.0046
33694,45.876335,-0.325259,88.22,27.0,5.36,65.8,14 / 18,3369410,2019-08-09 23:31:26:637,0.4975,-1.1203,9.7662,0.5371,-0.8325,9.7565,-0.0076,-0.0062,0.0228
33695,45.876335,-0.325259,88.22,27.0,5.36,65.8,14 / 18,3369510,2019-08-09 23:31:26:737,0.3688,-0.6349,9.5262,0.532,-0.8131,9.7584,-0.0096,-0.0045,0.0083
33696,45.876335,-0.325259,88.22,27.0,5.36,65.8,14 / 18,3369611,2019-08-09 23:31:26:838,0.616,-0.6523,9.5352,0.5303,-0.803,9.7593,-0.0103,-0.0049,-0.0091
33697,45.876335,-0.325259,88.22,27.0,5.36,65.8,14 / 18,3369711,2019-08-09 23:31:26:938,0.3269,-0.0908,9.8506,0.5255,-0.8026,9.7596,-0.004,-0.0044,0.0114
33698,45.876335,-0.325259,88.22,27.0,5.36,65.8,14 / 18,3369810,2019-08-09 23:31:27:037,0.0336,-0.183,9.4747,0.522,-0.797,9.7603,0.0187,0.0156,0.0401
33699,45.876335,-0.325259,88.22,27.0,5.36,65.8,14 / 18,3369910,2019-08-09 23:31:27:137,1.0679,1.2176,10.7484,0.5264,-0.8389,9.7565,0.0396,0.0014,-0.0311
33700,45.876335,-0.325259,88.22,27.0,5.36,65.8,14 / 18,3370010,2019-08-09 23:31:27:237,0.5125,-1.4854,9.8524,0.5327,-0.8081,9.7588,0.0019,0.0238,0.0179
33701,45.876335,-0.325259,88.22,27.0,5.36,65.8,14 / 18,3370112,2019-08-09 23:31:27:339,0.5179,0.1055,9.0348,0.5506,-0.7892,9.7593,-0.0217,0.0089,-0.0092
33702,45.876335,-0.325259,88.22,27.0,5.36,65.8,14 / 18,3370210,2019-08-09 23:31:27:437,0.4939,-0.1656,9.0761,0.5523,-0.7683,9.7609,-0.0104,-0.0103,0.0053
33703,45.876335,-0.325259,88.22,27.0,5.36,65.8,14 / 18,3370310,2019-08-09 23:31:27:537,0.4161,-0.748,9.212,0.5386,-0.7289,9.7647,0.0277,-0.0129,0.0032
33704,45.876335,-0.325259,88.22,27.0,5.36,65.8,14 / 18,3370411,2019-08-09 23:31:27:638,0.5502,-0.0974,9.9637,0.5359,-0.7497,9.7633,-0.008,-0.0146,0.0064
33705,45.876335,-0.325259,88.22,27.0,5.36,65.8,14 / 18,3370511,2019-08-09 23:31:27:738,0.0336,-0.681,10.6144,0.5274,-0.7891,9.7606,0.0197,0.0193,-0.0098
33706,45.876335,-0.325259,88.22,27.0,5.36,65.8,15 / 18,3370610,2019-08-09 23:31:27:837,0.789,-0.5954,10.7311,0.5393,-0.8121,9.7581,0.0633,0.0143,-0.017
33707,45.876335,-0.325259,88.22,27.0,5.36,65.8,15 / 18,3370710,2019-08-09 23:31:27:937,1.2236,-0.4218,10.5814,0.5546,-0.8461,9.7543,-0.0318,0.0098,0.0319
33708,45.876335,-0.325259,88.22,27.0,5.36,65.8,15 / 18,3370810,2019-08-09 23:31:28:037,0.1785,-0.8193,9.1192,0.5646,-0.8128,9.7566,0.0055,0.0098,-0.0261
33709,45.876335,-0.325259,88.22,27.0,5.36,65.8,15 / 18,3370911,2019-08-09 23:31:28:138,0.3772,-0.5912,9.1288,0.5757,-0.7941,9.7575,-0.0351,-0.004,-0.0204
33710,45.876335,-0.325259,88.22,27.0,5.36,65.8,15 / 18,3371012,2019-08-09 23:31:28:239,0.7663,-0.9677,9.5849,0.5831,-0.7748,9.7586,-0.0058,0.0017,0.0041
33711,45.876335,-0.325259,88.22,27.0,5.36,65.8,15 / 18,3371111,2019-08-09 23:31:28:338,0.8788,0.2127,9.8841,0.5747,-0.7768,9.7589,0.0289,-0.0177,-0.0079
33712,45.876335,-0.325259,88.22,27.0,5.36,65.8,15 / 18,3371210,2019-08-09 23:31:28:437,0.5843,-1.2592,9.616,0.5696,-0.7849,9.7586,-0.0055,-0.0075,-0.0012
33713,45.876335,-0.325259,88.22,27.0,5.36,65.8,15 / 18,3371310,2019-08-09 23:31:28:537,0.5897,-0.2417,9.285,0.5771,-0.779,9.7586,-0.0304,0.0122,0.008
33714,45.876335,-0.325259,88.22,27.0,5.36,65.8,15 / 18,3371411,2019-08-09 23:31:28:638,0.9434,-0.8755,9.0414,0.5879,-0.7692,9.7587,-0.016,0.008,-0.0388
33715,45.876335,-0.325259,88.22,27.0,5.36,65.8,15 / 18,3371510,2019-08-09 23:31:28:737,1.2732,-0.0322,9.8123,0.5962,-0.7578,9.7591,-0.0089,-0.0298,-0.0227
33716,45.876335,-0.325259,88.22,27.0,5.36,65.8,15 / 18,3371610,2019-08-09 23:31:28:837,0.5161,0.4443,9.7135,0.5764,-0.7221,9.763,0.0287,-0.0198,-0.0467
33717,45.876335,-0.325259,88.22,27.0,5.36,65.8,15 / 18,3371710,2019-08-09 23:31:28:937,1.3481,-1.6908,9.3831,0.5678,-0.7376,9.7624,-0.0026,0.0008,0.0456
33718,45.876335,-0.325259,88.22,27.0,5.36,65.8,15 / 18,3371810,2019-08-09 23:31:29:037,0.8333,0.4581,8.9492,0.5756,-0.6947,9.7651,-0.0462,0.0035,-0.0349
33719,45.876335,-0.325259,88.22,27.0,5.36,65.8,15 / 18,3371911,2019-08-09 23:31:29:138,1.2589,0.3922,10.205,0.5959,-0.718,9.7622,0.0468,0.0319,0.0147
33720,45.876335,-0.325259,88.22,27.0,5.36,65.8,15 / 18,3372010,2019-08-09 23:31:29:237,0.8507,-1.0156,10.0326,0.6314,-0.6936,9.7617,0.0041,0.0168,-0.0193
33721,45.876335,-0.325259,88.22,27.0,5.36,65.8,15 / 18,3372111,2019-08-09 23:31:29:338,0.3132,-0.004,9.3975,0.6508,-0.6891,9.7607,0.0,0.0347,-0.0006
33722,45.876335,-0.325259,88.22,27.0,5.36,65.8,15 / 18,3372211,2019-08-09 23:31:29:438,1.029,-0.5068,10.0894,0.6849,-0.6779,9.7592,0.0363,0.0086,-0.03
33723,45.876335,-0.325259,88.22,27.0,5.36,65.8,15 / 18,3372311,2019-08-09 23:31:29:538,1.0721,-0.3165,10.2008,0.6985,-0.6927,9.7572,0.0109,0.0087,0.0162
33724,45.876335,-0.325259,88.22,27.0,5.36,65.8,15 / 18,3372410,2019-08-09 23:31:29:637,0.8393,-0.359,10.1421,0.695,-0.7162,9.7557,-0.0281,-0.0138,0.0131
33725,45.876335,-0.325259,88.22,27.0,5.36,65.8,15 / 18,3372510,2019-08-09 23:31:29:737,0.61,-0.6732,9.3831,0.6842,-0.7272,9.7557,-0.034,-0.0091,0.0027
33726,45.876335,-0.325259,88.22,27.0,5.36,65.8,14 / 17,3372610,2019-08-09 23:31:29:837,0.7836,-1.2574,9.0001,0.6727,-0.6929,9.759,-0.0019,-0.0163,-0.0103
33727,45.876335,-0.325259,88.22,27.0,5.36,65.8,14 / 17,3372711,2019-08-09 23:31:29:938,-0.2537,-0.9061,8.7505,0.6692,-0.6682,9.7609,-0.083,0.0033,0.0595
33728,45.876335,-0.325259,88.22,27.0,5.36,65.8,14 / 17,3372810,2019-08-09 23:31:30:037,1.023,0.8052,10.178,0.6714,-0.6742,9.7604,0.0383,0.002,-0.0146
33729,45.876335,-0.325259,88.22,27.0,5.36,65.8,14 / 17,3372911,2019-08-09 23:31:30:138,1.0308,-1.5734,10.5545,0.6672,-0.7111,9.7581,-0.014,-0.0104,0.0135
33730,45.876335,-0.325259,88.22,27.0,5.36,65.8,14 / 17,3373010,2019-08-09 23:31:30:237,0.6891,-0.4739,9.6393,0.6806,-0.6978,9.7581,-0.0446,0.0237,0.0282
33731,45.876335,-0.325259,88.22,27.0,5.36,65.8,14 / 17,3373110,2019-08-09 23:31:30:337,0.6561,-0.9569,9.2275,0.6859,-0.7081,9.757,-0.0373,0.0117,0.005
33732,45.876335,-0.325259,88.22,27.0,5.36,65.8,14 / 17,3373211,2019-08-09 23:31:30:438,1.026,-0.3506,9.2993,0.7095,-0.6782,9.7574,-0.0004,0.0169,0.0173
33733,45.876335,-0.325259,88.22,27.0,5.36,65.8,14 / 17,3373311,2019-08-09 23:31:30:538,0.9111,-0.2506,9.6543,0.7156,-0.6669,9.7577,0.025,0.0101,-0.009
33734,45.876335,-0.325259,88.22,27.0,5.36,65.8,14 / 17,3373411,2019-08-09 23:31:30:638,1.1086,-0.6128,10.0397,0.7288,-0.6887,9.7553,0.0147,-0.0052,-0.0074
33735,45.876335,-0.325259,88.22,27.0,5.36,65.8,14 / 17,3373510,2019-08-09 23:31:30:737,0.6418,-0.5643,9.6238,0.7231,-0.6986,9.755,0.0023,-0.0122,0.0028
33736,45.876335,-0.325259,88.22,27.0,5.36,65.8,13 / 15,3373611,2019-08-09 23:31:30:838,0.5466,-1.5172,9.1342,0.7162,-0.686,9.7564,-0.004,-0.0037,-0.0126
33737,45.876335,-0.325259,88.22,27.0,5.36,65.8,13 / 15,3373711,2019-08-09 23:31:30:938,0.7046,-1.0551,9.2736,0.7137,-0.6826,9.7568,-0.0368,-0.0061,0.0034
33738,45.876335,-0.325259,88.22,27.0,5.36,65.8,13 / 15,3373811,2019-08-09 23:31:31:038,0.8285,-0.0848,10.0044,0.7048,-0.6658,9.7586,0.0105,-0.0092,-0.0106
33739,45.876335,-0.325259,88.22,27.0,5.36,65.8,13 / 15,3373910,2019-08-09 23:31:31:137,0.6358,-0.5188,9.9212,0.7024,-0.6695,9.7585,0.0324,-0.008,-0.0032
33740,45.876335,-0.325259,88.22,27.0,5.36,65.8,13 / 15,3374010,2019-08-09 23:31:31:237,0.7268,-0.7822,10.2486,0.6864,-0.7158,9.7564,0.0306,-0.0092,-0.0094
33741,45.876335,-0.325259,88.22,27.0,5.36,65.8,13 / 15,3374111,2019-08-09 23:31:31:338,0.5903,-0.52,9.783,0.687,-0.7203,9.756,-0.0031,-0.0017,0.0013
33742,45.876335,-0.325259,88.22,27.0,5.36,65.8,13 / 15,3374210,2019-08-09 23:31:31:437,0.3898,-0.997,9.5579,0.692,-0.7231,9.7554,0.0089,0.016,-0.0117
33743,45.876335,-0.325259,88.22,27.0,5.36,65.8,13 / 15,3374310,2019-08-09 23:31:31:537,1.0889,-0.8324,10.257,0.7001,-0.7392,9.7537,0.0051,0.0008,-0.0127
33744,45.876335,-0.325259,88.22,27.0,5.36,65.8,13 / 15,3374411,2019-08-09 23:31:31:638,0.4377,-1.2508,9.4669,0.6993,-0.7253,9.7548,-0.0056,0.0095,0.0146
33745,45.876335,-0.325259,88.22,27.0,5.36,65.8,13 / 15,3374510,2019-08-09 23:31:31:737,0.6274,-0.1483,9.106,0.7019,-0.7065,9.7559,-0.0293,0.0156,-0.0037
33746,45.876335,-0.325259,88.22,27.0,5.36,65.8,14 / 17,3374610,2019-08-09 23:31:31:837,0.862,-0.9132,9.4873,0.7194,-0.6952,9.7555,-0.0196,0.0044,0.0174
33747,45.876335,-0.325259,88.22,27.0,5.36,65.8,14 / 17,3374711,2019-08-09 23:31:31:938,0.6507,-1.2849,9.212,0.7186,-0.6715,9.7572,-0.0104,0.0123,0.0181
33748,45.876335,-0.325259,88.22,27.0,5.36,65.8,14 / 17,3374811,2019-08-09 23:31:32:038,0.7381,-0.1471,9.0438,0.725,-0.6642,9.7572,0.0105,0.0028,0.0032
33749,45.876335,-0.325259,88.22,27.0,5.36,65.8,14 / 17,3374912,2019-08-09 23:31:32:139,0.8141,-0.5906,9.7351,0.7144,-0.6552,9.7586,-0.0108,-0.0213,-0.008
33750,45.876335,-0.325259,88.22,27.0,5.36,65.8,14 / 17,3375010,2019-08-09 23:31:32:237,0.4281,-0.7241,9.4005,0.7025,-0.655,9.7595,-0.0069,-0.0097,0.0018
33751,45.876335,-0.325259,88.22,27.0,5.36,65.8,14 / 17,3375110,2019-08-09 23:31:32:337,0.6442,0.1402,9.7686,0.6853,-0.6549,9.7607,0.0065,-0.0064,-0.0034
33752,45.876335,-0.325259,88.22,27.0,5.36,65.8,14 / 17,3375212,2019-08-09 23:31:32:439,0.5729,-0.3243,10.5563,0.6754,-0.6553,9.7614,0.0347,-0.0175,0.0159
33753,45.876335,-0.325259,88.22,27.0,5.36,65.8,14 / 17,3375311,2019-08-09 23:31:32:538,0.4622,0.6179,10.0787,0.6509,-0.6882,9.7608,-0.014,0.0103,0.0422
33754,45.876335,-0.325259,88.22,27.0,5.36,65.8,14 / 17,3375410,2019-08-09 23:31:32:637,-0.0137,-1.2742,9.3017,0.6602,-0.6741,9.7612,-0.0018,0.0112,-0.0511
33755,45.876335,-0.325259,88.22,27.0,5.36,65.8,14 / 17,3375510,2019-08-09 23:31:32:737,1.0494,0.4198,9.8919,0.6697,-0.6704,9.7608,-0.0053,-0.0199,-0.0238
33756,45.876335,-0.325259,88.22,27.0,5.36,65.8,13 / 15,3375610,2019-08-09 23:31:32:837,0.7645,0.962,9.6477,0.6631,-0.6841,9.7603,-0.015,-0.0171,0.0195
33757,45.876335,-0.325259,88.22,27.0,5.36,65.8,13 / 15,3375710,2019-08-09 23:31:32:937,0.1306,-2.075,9.9063,0.641,-0.6787,9.7621,-0.0295,-0.0087,-0.0123
33758,45.876335,-0.325259,88.22,27.0,5.36,65.8,13 / 15,3375810,2019-08-09 23:31:33:037,0.5275,-1.5058,9.461,0.6406,-0.667,9.7629,-0.0033,0.0075,0.0105
33759,45.876335,-0.325259,88.22,27.0,5.36,65.8,13 / 15,3375910,2019-08-09 23:31:33:137,0.6801,-0.93,9.7423,0.644,-0.6518,9.7637,-0.0174,0.0015,-0.0112
33760,45.876335,-0.325259,88.22,27.0,5.36,65.8,13 / 15,3376011,2019-08-09 23:31:33:238,0.8154,-0.9761,9.8692,0.6453,-0.6329,9.7649,0.0045,-0.0039,-0.0137
33761,45.876335,-0.325259,88.22,27.0,5.36,65.8,13 / 15,3376111,2019-08-09 23:31:33:338,0.2659,0.1031,9.379,0.6439,-0.6269,9.7654,-0.007,0.009,0.0102
33762,45.876335,-0.325259,88.22,27.0,5.36,65.8,13 / 15,3376211,2019-08-09 23:31:33:438,0.6633,-0.4266,10.3947,0.6447,-0.6432,9.7643,-0.0062,0.0017,0.0091
33763,45.876335,-0.325259,88.22,27.0,5.36,65.8,13 / 15,3376310,2019-08-09 23:31:33:537,0.6304,-0.7696,9.5699,0.6514,-0.6536,9.7631,-0.0018,0.0096,0.0061
33764,45.876335,-0.325259,88.22,27.0,5.36,65.8,13 / 15,3376410,2019-08-09 23:31:33:637,0.9931,0.1797,9.9386,0.6602,-0.6612,9.762,0.0222,0.0166,-0.0045
33765,45.876335,-0.325259,88.22,27.0,5.36,65.8,13 / 15,3376510,2019-08-09 23:31:33:737,0.4975,-0.5026,9.3035,0.6577,-0.6412,9.7635,-0.0279,-0.0163,0.0132
33766,45.876335,-0.325259,88.22,27.0,5.36,65.8,16 / 18,3376611,2019-08-09 23:31:33:838,0.7417,0.7932,9.8051,0.6543,-0.648,9.7633,-0.0207,0.0011,0.019
33767,45.876335,-0.325259,88.22,27.0,5.36,65.8,16 / 18,3376711,2019-08-09 23:31:33:938,0.9123,-1.0437,9.5627,0.6594,-0.6264,9.7644,0.0011,-0.0076,-0.0238
33768,45.876335,-0.325259,88.22,27.0,5.36,65.8,16 / 18,3376811,2019-08-09 23:31:34:038,0.968,-0.6552,9.6675,0.6645,-0.6067,9.7653,0.0289,0.004,-0.0346
33769,45.876335,-0.325259,88.22,27.0,5.36,65.8,16 / 18,3376911,2019-08-09 23:31:34:138,0.9704,-0.9108,9.8303,0.6796,-0.6111,9.764,0.007,0.009,-0.007
33770,45.876335,-0.325259,88.22,27.0,5.36,65.8,16 / 18,3377011,2019-08-09 23:31:34:238,0.7381,-0.1902,9.7387,0.6921,-0.6085,9.7633,0.0089,0.0199,-0.0145
33771,45.876335,-0.325259,88.22,27.0,5.36,65.8,16 / 18,3377110,2019-08-09 23:31:34:337,0.8435,-0.52,9.7501,0.7177,-0.6054,9.7616,0.0055,0.0028,-0.0259
33772,45.876335,-0.325259,88.22,27.0,5.36,65.8,16 / 18,3377210,2019-08-09 23:31:34:437,0.9075,-0.1249,9.546,0.7228,-0.6014,9.7615,-0.0312,-0.0062,-0.0018
33773,45.876335,-0.325259,88.22,27.0,5.36,65.8,16 / 18,3377311,2019-08-09 23:31:34:538,0.7746,-0.2955,9.0384,0.7295,-0.5912,9.7616,0.0415,0.0024,-0.0166
33774,45.876335,-0.325259,88.22,27.0,5.36,65.8,16 / 18,3377411,2019-08-09 23:31:34:638,0.8165,0.0151,9.7393,0.7349,-0.5852,9.7616,-0.0108,0.0007,-0.0061
33775,45.876335,-0.325259,88.22,27.0,5.36,65.8,16 / 18,3377511,2019-08-09 23:31:34:738,0.9398,0.825,9.7135,0.7321,-0.5839,9.7618,-0.0042,-0.004,-0.009
33776,45.877216,-0.32252,89.9,24.66,4.288,65.2,15 / 17,3377611,2019-08-09 23:31:34:838,0.7435,-2.0481,10.0601,0.7374,-0.618,9.7593,0.0318,0.0051,-0.0201
33777,45.877216,-0.32252,89.9,24.66,4.288,65.2,15 / 17,3377711,2019-08-09 23:31:34:938,0.5466,-1.9104,9.3945,0.7407,-0.6047,9.7599,0.0219,0.0022,-0.0099
33778,45.877216,-0.32252,89.9,24.66,4.288,65.2,15 / 17,3377810,2019-08-09 23:31:35:037,0.871,-1.0557,9.8297,0.7455,-0.5914,9.7604,-0.0072,-0.0083,-0.0229
33779,45.877216,-0.32252,89.9,24.66,4.288,65.2,15 / 17,3377910,2019-08-09 23:31:35:137,0.7465,0.09,9.9883,0.7409,-0.5773,9.7616,0.0155,-0.0103,0.0021
33780,45.877216,-0.32252,89.9,24.66,4.288,65.2,15 / 17,3378011,2019-08-09 23:31:35:238,0.5705,-0.3428,9.6722,0.736,-0.5778,9.7619,-0.0113,-0.0083,0.0132
33781,45.877216,-0.32252,89.9,24.66,4.288,65.2,15 / 17,3378111,2019-08-09 23:31:35:338,0.291,-0.2273,9.7447,0.7292,-0.5922,9.7616,-0.0067,0.004,0.0269
33782,45.877216,-0.32252,89.9,24.66,4.288,65.2,15 / 17,3378210,2019-08-09 23:31:35:437,0.6202,-1.3532,9.4741,0.7348,-0.5765,9.7621,-0.0131,0.0122,-0.0117
33783,45.877216,-0.32252,89.9,24.66,4.288,65.2,15 / 17,3378310,2019-08-09 23:31:35:537,0.7812,-1.5435,10.1008,0.7371,-0.5898,9.7611,-0.0308,-0.0095,0.0112
33784,45.877216,-0.32252,89.9,24.66,4.288,65.2,15 / 17,3378410,2019-08-09 23:31:35:637,0.4598,-1.3203,9.2592,0.7282,-0.5668,9.7631,-0.0194,0.0115,0.0082
33785,45.877216,-0.32252,89.9,24.66,4.288,65.2,15 / 17,3378511,2019-08-09 23:31:35:738,0.8177,0.4144,9.2329,0.7328,-0.559,9.7632,0.0194,0.0086,-0.0082
33786,45.877216,-0.32252,89.9,24.66,4.288,65.2,16 / 18,3378610,2019-08-09 23:31:35:837,0.7687,0.0151,9.7243,0.7359,-0.55,9.7635,-0.004,-0.0065,0.0106
33787,45.877216,-0.32252,89.9,24.66,4.288,65.2,16 / 18,3378710,2019-08-09 23:31:35:937,0.6029,-0.1381,9.7291,0.7317,-0.5572,9.7634,0.0126,0.0033,0.0063
33788,45.877216,-0.32252,89.9,24.66,4.288,65.2,16 / 18,3378810,2019-08-09 23:31:36:037,0.7729,-0.2273,9.7961,0.7339,-0.5711,9.7625,0.0445,-0.0026,-0.0095
33789,45.877216,-0.32252,89.9,24.66,4.288,65.2,16 / 18,3378910,2019-08-09 23:31:36:137,0.7585,-0.438,9.9817,0.7311,-0.5818,9.762,0.0028,-0.0123,0.0
33790,45.877216,-0.32252,89.9,24.66,4.288,65.2,16 / 18,3379011,2019-08-09 23:31:36:238,0.394,0.3018,9.0252,0.7169,-0.5854,9.7629,-0.0059,-0.0018,0.01
33791,45.877216,-0.32252,89.9,24.66,4.288,65.2,16 / 18,3379110,2019-08-09 23:31:36:337,1.0195,-1.7841,9.176,0.718,-0.5884,9.7626,-0.0208,0.0098,-0.0183
33792,45.877216,-0.32252,89.9,24.66,4.288,65.2,16 / 18,3379210,2019-08-09 23:31:36:437,1.3038,-1.5585,9.4777,0.7338,-0.5736,9.7623,-0.0586,0.0,-0.0102
33793,45.877216,-0.32252,89.9,24.66,4.288,65.2,16 / 18,3379310,2019-08-09 23:31:36:537,1.6898,-1.519,9.3478,0.7528,-0.5771,9.7607,0.0226,0.0178,-0.0132
33794,45.877216,-0.32252,89.9,24.66,4.288,65.2,16 / 18,3379410,2019-08-09 23:31:36:637,1.3259,-1.7141,9.7518,0.7795,-0.5822,9.7583,0.0027,0.0053,-0.0443
33795,45.877216,-0.32252,89.9,24.66,4.288,65.2,16 / 18,3379511,2019-08-09 23:31:36:738,1.12,-0.3464,9.692,0.7949,-0.5706,9.7577,-0.009,0.0137,-0.0002
33796,45.877216,-0.32252,89.9,24.66,4.288,65.2,14 / 16,3379610,2019-08-09 23:31:36:837,1.3558,-1.501,9.8632,0.8125,-0.5984,9.7546,0.0202,0.0095,-0.0215
33797,45.877216,-0.32252,89.9,24.66,4.288,65.2,14 / 16,3379710,2019-08-09 23:31:36:937,1.536,-0.4595,10.0817,0.823,-0.6053,9.7533,0.0164,-0.016,-0.0396
33798,45.877216,-0.32252,89.9,24.66,4.288,65.2,14 / 16,3379810,2019-08-09 23:31:37:037,0.6717,0.8746,9.2413,0.8161,-0.6005,9.7542,-0.0186,-0.0091,0.02
33799,45.877216,-0.32252,89.9,24.66,4.288,65.2,14 / 16,3379910,2019-08-09 23:31:37:137,0.6573,0.8782,8.951,0.8107,-0.6014,9.7546,-0.044,-0.0068,-0.018
33800,45.877216,-0.32252,89.9,24.66,4.288,65.2,14 / 16,3380011,2019-08-09 23:31:37:238,0.7064,-0.0609,8.7038,0.8092,-0.5491,9.7578,-0.03,-0.0026,-0.0154
33801,45.877216,-0.32252,89.9,24.66,4.288,65.2,14 / 16,3380110,2019-08-09 23:31:37:337,0.5316,-1.0766,9.4544,0.8074,-0.5414,9.7584,-0.0427,0.0135,0.02
33802,45.877216,-0.32252,89.9,24.66,4.288,65.2,14 / 16,3380211,2019-08-09 23:31:37:438,0.7429,0.0468,9.8674,0.8174,-0.5276,9.7583,-0.0124,0.0002,0.02
33803,45.877216,-0.32252,89.9,24.66,4.288,65.2,14 / 16,3380311,2019-08-09 23:31:37:538,1.2912,-0.7253,9.5286,0.8133,-0.5165,9.7592,0.0347,-0.0119,-0.0253
33804,45.877216,-0.32252,89.9,24.66,4.288,65.2,14 / 16,3380411,2019-08-09 23:31:37:638,0.9147,-0.8013,9.5089,0.8096,-0.5266,9.759,0.0626,-0.0003,-0.0141
33805,45.877216,-0.32252,89.9,24.66,4.288,65.2,14 / 16,3380511,2019-08-09 23:31:37:738,0.7597,-0.8785,9.6878,0.8085,-0.5651,9.7569,-0.0288,-0.0097,0.0017
33806,45.877216,-0.32252,89.9,24.66,4.288,65.2,15 / 18,3380610,2019-08-09 23:31:37:837,1.0799,0.1055,10.2343,0.8042,-0.5604,9.7575,-0.0088,0.0003,0.0031
33807,45.877216,-0.32252,89.9,24.66,4.288,65.2,15 / 18,3380710,2019-08-09 23:31:37:937,1.1272,0.1941,10.038,0.804,-0.5657,9.7572,0.0139,-0.0018,-0.0267
33808,45.877216,-0.32252,89.9,24.66,4.288,65.2,15 / 18,3380810,2019-08-09 23:31:38:037,0.9171,-1.0287,9.7985,0.8077,-0.5533,9.7577,-0.0031,0.0033,-0.0152
33809,45.877216,-0.32252,89.9,24.66,4.288,65.2,15 / 18,3380910,2019-08-09 23:31:38:137,0.8094,-0.6786,9.6465,0.813,-0.5573,9.757,-0.004,0.0103,-0.0015
33810,45.877216,-0.32252,89.9,24.66,4.288,65.2,15 / 18,3381011,2019-08-09 23:31:38:238,0.707,-0.3308,9.6794,0.817,-0.5458,9.7573,-0.0455,0.0001,0.0161
33811,45.877216,-0.32252,89.9,24.66,4.288,65.2,15 / 18,3381111,2019-08-09 23:31:38:338,0.8321,-1.2299,9.2574,0.8186,-0.5587,9.7564,-0.0008,0.0038,-0.0216
33812,45.877216,-0.32252,89.9,24.66,4.288,65.2,15 / 18,3381210,2019-08-09 23:31:38:437,1.0051,0.242,9.6112,0.8288,-0.5335,9.757,-0.0097,0.0012,-0.0019
33813,45.877216,-0.32252,89.9,24.66,4.288,65.2,15 / 18,3381310,2019-08-09 23:31:38:537,0.7435,-0.0483,9.5406,0.8284,-0.525,9.7575,-0.0258,-0.0024,-0.0018
33814,45.877216,-0.32252,89.9,24.66,4.288,65.2,15 / 18,3381410,2019-08-09 23:31:38:637,0.61,-0.836,9.5041,0.8256,-0.5758,9.7549,-0.039,0.0026,0.0214
33815,45.877216,-0.32252,89.9,24.66,4.288,65.2,15 / 18,3381511,2019-08-09 23:31:38:738,0.9805,-0.6858,9.7327,0.8277,-0.5695,9.755,0.0264,-0.0008,-0.0199
33816,45.877216,-0.32252,89.9,24.66,4.288,65.2,14 / 17,3381611,2019-08-09 23:31:38:838,1.4708,-0.4972,9.932,0.8324,-0.5635,9.755,0.0134,-0.0114,-0.0339
33817,45.877216,-0.32252,89.9,24.66,4.288,65.2,14 / 17,3381710,2019-08-09 23:31:38:937,1.287,-0.3219,9.4843,0.8299,-0.5456,9.7562,-0.0217,-0.0056,-0.0181
33818,45.877216,-0.32252,89.9,24.66,4.288,65.2,14 / 17,3381810,2019-08-09 23:31:39:037,0.4676,-1.0359,9.0414,0.8326,-0.5258,9.7571,-0.0085,-0.0023,-0.03
33819,45.877216,-0.32252,89.9,24.66,4.288,65.2,14 / 17,3381910,2019-08-09 23:31:39:137,0.6837,-0.0747,9.2323,0.8268,-0.527,9.7575,0.0126,-0.0111,-0.0288
33820,45.877216,-0.32252,89.9,24.66,4.288,65.2,14 / 17,3382011,2019-08-09 23:31:39:238,0.8118,-0.438,9.3424,0.8232,-0.5678,9.7555,-0.0003,0.0051,-0.0021
33821,45.877216,-0.32252,89.9,24.66,4.288,65.2,14 / 17,3382110,2019-08-09 23:31:39:337,0.9638,-0.8743,9.6537,0.8359,-0.561,9.7548,-0.0244,0.0106,-0.0093
33822,45.877216,-0.32252,89.9,24.66,4.288,65.2,14 / 17,3382210,2019-08-09 23:31:39:437,1.1864,-0.5008,10.2032,0.8407,-0.5632,9.7543,0.0347,0.0075,-0.0305
33823,45.877216,-0.32252,89.9,24.66,4.288,65.2,14 / 17,3382311,2019-08-09 23:31:39:538,1.0985,-0.4081,10.1553,0.8674,-0.5724,9.7514,0.0409,0.0217,-0.0312
33824,45.877216,-0.32252,89.9,24.66,4.288,65.2,14 / 17,3382411,2019-08-09 23:31:39:638,1.533,-1.7027,10.439,0.8732,-0.6278,9.7475,-0.0132,0.0078,-0.011
33825,45.877216,-0.32252,89.9,24.66,4.288,65.2,14 / 17,3382511,2019-08-09 23:31:39:738,1.8562,-0.2542,10.2953,0.9034,-0.6505,9.7433,-0.026,0.0127,0.0005
33826,45.877216,-0.32252,89.9,24.66,4.288,65.2,15 / 18,3382610,2019-08-09 23:31:39:837,1.5145,-0.0435,9.9727,0.9168,-0.6192,9.744,-0.0723,0.0226,0.0014
33827,45.877216,-0.32252,89.9,24.66,4.288,65.2,15 / 18,3382710,2019-08-09 23:31:39:937,1.372,-1.7416,9.0803,0.9476,-0.6422,9.7396,0.0537,0.0024,-0.0686
33828,45.877216,-0.32252,89.9,24.66,4.288,65.2,15 / 18,3382810,2019-08-09 23:31:40:037,1.2044,-0.7612,8.9474,0.9642,-0.614,9.7398,-0.0753,0.0106,0.0018
33829,45.877216,-0.32252,89.9,24.66,4.288,65.2,15 / 18,3382910,2019-08-09 23:31:40:137,1.5851,-0.007,9.7201,0.9771,-0.6446,9.7365,-0.0377,-0.0095,-0.0236
33830,45.877216,-0.32252,89.9,24.66,4.288,65.2,15 / 18,3383011,2019-08-09 23:31:40:238,1.1565,-1.8194,10.0152,0.9752,-0.6799,9.7343,0.0514,-0.0079,-0.0149
33831,45.877216,-0.32252,89.9,24.66,4.288,65.2,15 / 18,3383110,2019-08-09 23:31:40:337,1.4821,-1.6871,10.2277,0.9767,-0.6964,9.733,0.0288,0.0074,-0.0438
33832,45.877216,-0.32252,89.9,24.66,4.288,65.2,15 / 18,3383210,2019-08-09 23:31:40:437,1.8616,-0.9599,10.1385,0.9932,-0.6555,9.7342,0.0514,-0.0212,-0.1016
33833,45.877216,-0.32252,89.9,24.66,4.288,65.2,15 / 18,3383310,2019-08-09 23:31:40:537,0.7459,0.3252,9.2838,0.984,-0.6654,9.7344,0.0224,-0.0169,-0.0566
33834,45.877216,-0.32252,89.9,24.66,4.288,65.2,15 / 18,3383410,2019-08-09 23:31:40:637,0.8273,0.4658,9.2305,0.9923,-0.6751,9.7329,-0.0405,0.0088,-0.0304
33835,45.877216,-0.32252,89.9,24.66,4.288,65.2,15 / 18,3383511,2019-08-09 23:31:40:738,1.038,0.6466,9.677,1.0076,-0.6629,9.7322,0.0056,-0.005,-0.0576
33836,45.877216,-0.32252,89.9,24.66,4.288,65.2,14 / 17,3383611,2019-08-09 23:31:40:838,0.7172,-0.5715,9.267,1.0075,-0.7072,9.7291,-0.0179,0.0074,0.0155
33837,45.877216,-0.32252,89.9,24.66,4.288,65.2,14 / 17,3383710,2019-08-09 23:31:40:937,2.04,-1.7237,9.8775,1.024,-0.7007,9.7278,-0.0447,0.0132,0.0156
33838,45.877216,-0.32252,89.9,24.66,4.288,65.2,14 / 17,3383810,2019-08-09 23:31:41:037,1.4959,-1.6746,9.6046,1.027,-0.6911,9.7282,0.0114,-0.0034,-0.049
33839,45.877216,-0.32252,89.9,24.66,4.288,65.2,14 / 17,3383911,2019-08-09 23:31:41:138,1.1326,-1.2149,9.616,1.0369,-0.6985,9.7266,-0.0171,-0.001,-0.0073
33840,45.877216,-0.32252,89.9,24.66,4.288,65.2,14 / 17,3384011,2019-08-09 23:31:41:238,1.3804,0.3318,9.8746,1.0378,-0.6972,9.7266,0.0374,-0.0025,-0.0437
33841,45.877216,-0.32252,89.9,24.66,4.288,65.2,14 / 17,3384111,2019-08-09 23:31:41:338,1.4791,-0.2411,9.689,1.0527,-0.7066,9.7243,0.0288,0.0105,-0.0499
33842,45.877216,-0.32252,89.9,24.66,4.288,65.2,14 / 17,3384210,2019-08-09 23:31:41:437,1.6773,-0.7863,10.2415,1.0679,-0.7232,9.7215,0.0151,0.0004,-0.0419
33843,45.877216,-0.32252,89.9,24.66,4.288,65.2,14 / 17,3384310,2019-08-09 23:31:41:537,1.4103,-0.7893,9.6345,1.0778,-0.7345,9.7195,-0.0102,0.0039,-0.0118
33844,45.877216,-0.32252,89.9,24.66,4.288,65.2,14 / 17,3384410,2019-08-09 23:31:41:637,1.4863,-0.8761,9.5292,1.0869,-0.7403,9.7181,0.0055,0.0128,-0.0389
33845,45.877216,-0.32252,89.9,24.66,4.288,65.2,14 / 17,3384510,2019-08-09 23:31:41:737,1.7826,-0.0968,10.254,1.097,-0.7353,9.7173,0.0201,-0.008,-0.0483
33846,45.877216,-0.32252,89.9,24.66,4.288,65.2,13 / 16,3384611,2019-08-09 23:31:41:838,1.059,-1.2394,9.0378,1.0989,-0.7364,9.717,-0.0261,-0.0084,-0.0008
33847,45.877216,-0.32252,89.9,24.66,4.288,65.2,13 / 16,3384711,2019-08-09 23:31:41:938,1.3433,-1.1574,9.1569,1.097,-0.7383,9.7171,-0.0257,0.0051,-0.0381
33848,45.877216,-0.32252,89.9,24.66,4.288,65.2,13 / 16,3384811,2019-08-09 23:31:42:038,1.4654,-0.6834,9.7716,1.1043,-0.739,9.7162,0.0029,-0.0212,-0.0209
33849,45.877216,-0.32252,89.9,24.66,4.288,65.2,13 / 16,3384911,2019-08-09 23:31:42:138,1.1882,-0.4057,9.3029,1.093,-0.7366,9.7177,-0.045,-0.0145,-0.0102
33850,45.877216,-0.32252,89.9,24.66,4.288,65.2,13 / 16,3385011,2019-08-09 23:31:42:238,1.2702,-2.5682,10.0326,1.073,-0.7665,9.7176,-0.084,-0.0047,0.0633
33851,45.877216,-0.32252,89.9,24.66,4.288,65.2,13 / 16,3385111,2019-08-09 23:31:42:338,0.8489,-1.2813,9.7285,1.0608,-0.7271,9.722,0.0967,-0.0104,-0.0655
33852,45.877216,-0.32252,89.9,24.66,4.288,65.2,13 / 16,3385211,2019-08-09 23:31:42:438,1.1811,-0.696,9.4981,1.0611,-0.7374,9.7211,0.0237,0.0091,-0.0172
33853,45.877216,-0.32252,89.9,24.66,4.288,65.2,13 / 16,3385311,2019-08-09 23:31:42:538,1.2026,-0.5577,9.8919,1.0679,-0.7331,9.7207,-0.0108,0.0032,-0.0329
33854,45.877216,-0.32252,89.9,24.66,4.288,65.2,13 / 16,3385410,2019-08-09 23:31:42:637,1.0039,-1.2586,9.5968,1.0753,-0.7389,9.7195,0.0141,0.0093,-0.0136
33855,45.877216,-0.32252,89.9,24.66,4.288,65.2,13 / 16,3385510,2019-08-09 23:31:42:737,1.0997,-0.1046,9.2868,1.0802,-0.7562,9.7176,-0.0196,0.0088,-0.0249
33856,45.877216,-0.32252,89.9,24.66,4.288,65.2,15 / 18,3385610,2019-08-09 23:31:42:837,0.8363,-0.9773,9.5896,1.0939,-0.7532,9.7163,-0.0051,0.0124,-0.002
33857,45.877216,-0.32252,89.9,24.66,4.288,65.2,15 / 18,3385710,2019-08-09 23:31:42:937,1.0219,-0.6786,9.8638,1.0929,-0.756,9.7162,-0.0083,0.0057,-0.0258
33858,45.877216,-0.32252,89.9,24.66,4.288,65.2,15 / 18,3385810,2019-08-09 23:31:43:037,1.214,-1.5184,9.7201,1.1075,-0.7544,9.7147,0.0328,0.0091,-0.0113
33859,45.877216,-0.32252,89.9,24.66,4.288,65.2,15 / 18,3385910,2019-08-09 23:31:43:137,0.9895,-0.8899,9.6693,1.1045,-0.7781,9.7131,-0.0065,-0.0058,-0.0315
33860,45.877216,-0.32252,89.9,24.66,4.288,65.2,15 / 18,3386010,2019-08-09 23:31:43:237,0.7705,-0.9743,9.1126,1.1083,-0.7494,9.715,-0.0273,0.0097,-0.0134
33861,45.877216,-0.32252,89.9,24.66,4.288,65.2,15 / 18,3386111,2019-08-09 23:31:43:338,1.5294,-1.0317,9.6016,1.1143,-0.7534,9.714,0.0005,0.0076,-0.0449
33862,45.877216,-0.32252,89.9,24.66,4.288,65.2,15 / 18,3386210,2019-08-09 23:31:43:437,1.3612,-0.7678,9.7141,1.116,-0.7415,9.7147,0.0013,-0.0053,-0.0345
33863,45.877216,-0.32252,89.9,24.66,4.288,65.2,15 / 18,3386310,2019-08-09 23:31:43:537,1.2966,-1.0563,9.6705,1.1151,-0.7367,9.7152,0.0119,-0.0062,-0.0263
33864,45.877216,-0.32252,89.9,24.66,4.288,65.2,15 / 18,3386410,2019-08-09 23:31:43:637,1.1212,-0.4565,9.698,1.1084,-0.7537,9.7146,0.0068,-0.006,-0.0245
33865,45.877216,-0.32252,89.9,24.66,4.288,65.2,15 / 18,3386510,2019-08-09 23:31:43:737,1.4588,-0.7061,9.874,1.1064,-0.7706,9.7135,-0.0238,-0.0022,-0.0172
33866,45.87788,-0.320002,89.33,22.69,5.36,74.8,16 / 18,3386611,2019-08-09 23:31:43:838,1.3481,-0.4865,9.3047,1.1074,-0.762,9.7141,-0.0352,0.0144,0.0099
33867,45.87788,-0.320002,89.33,22.69,5.36,74.8,16 / 18,3386710,2019-08-09 23:31:43:937,0.5047,-1.4896,8.8642,1.1175,-0.7499,9.7139,0.0392,0.0088,-0.0808
33868,45.87788,-0.320002,89.33,22.69,5.36,74.8,16 / 18,3386811,2019-08-09 23:31:44:038,0.233,-1.0018,8.5069,1.1207,-0.7216,9.7156,0.0391,-0.0157,-0.0844
33869,45.87788,-0.320002,89.33,22.69,5.36,74.8,16 / 18,3386911,2019-08-09 23:31:44:138,0.9572,0.5448,9.4568,1.1162,-0.7563,9.7135,-0.0135,0.011,0.0065
