,GPS LATITUDE (degrees), GPS LONGITUDE (degrees), GPS ALTITUDE (m), GPS SPEED (Kmh), GPS ACCURACY (m), GPS ORIENTATION (Â°),GPS SATELLITES IN RANGE, TIME SINCE START (ms), DATE (YYYY-MO-DD HH-MI-SS_SSS), ACCELEROMETER X (m/s²) , ACCELEROMETER Y (m/s²), ACCELEROMETER Z (m/s²), GRAVITY X (m/s²), GRAVITY Y (m/s²), GRAVITY Z (m/s²), GYROSCOPE Yaw (rad/s), GYROSCOPE Pitch (rad/s), GYROSCOPE Roll (rad/s), MAGNETIC FIELD X (Î¼T), MAGNETIC FIELD Y (Î¼T), MAGNETIC FIELD Z (Î¼T), ORIENTATION (Yaw) (Â°), ORIENTATION (Pitch) (Â°), ORIENTATION (Roll ) (Â°)
6533,52.398605,-1.589717,165.32,6.44,4,349.26,24 / 27,466910,2019-09-08 12:14:46:149,0.1804,0.9668,10.6004,-0.0071,-0.0049,9.8066,0.2152,-0.0194,0.1033,-14.69,-39.81,2.69,258.21,-77.52,-168.9
6534,52.398605,-1.589717,165.32,6.44,4,349.26,24 / 27,467010,2019-09-08 12:14:46:249,0.0582,1.0665,9.9555,0.0572,0.0374,9.8064,-0.1346,-0.0114,0.002,-14.5,-39.69,2.44,252.44,-77.45,-169.28
6535,52.398605,-1.589717,165.32,6.44,4,349.26,24 / 27,467110,2019-09-08 12:14:46:349,-0.3793,1.1069,8.5534,0.0602,0.0325,9.8064,-0.3145,0.0732,-0.0813,-14.31,-38.69,3.13,254.69,-76.89,-170.16
6536,52.398605,-1.589717,165.32,6.44,4,349.26,24 / 27,467210,2019-09-08 12:14:46:449,0.8749,0.5917,10.8764,-0.0385,-0.0179,9.8065,0.2021,-0.0416,-0.0553,-15.0,-38.56,3.56,260.58,-77.24,-170.48
6537,52.398605,-1.589717,165.32,6.44,4,349.26,24 / 27,467310,2019-09-08 12:14:46:549,0.9657,1.3042,9.9064,-0.0672,-0.0069,9.8063,0.1651,-0.0054,-0.1573,-14.81,-38.06,4.0,261.65,-77.43,-170.81
6538,52.398605,-1.589717,165.32,6.44,4,349.26,24 / 27,467410,2019-09-08 12:14:46:649,0.6897,-0.9117,10.9718,0.0271,0.0156,9.8065,-0.138,0.0025,-0.0658,-15.75,-38.19,3.0,258.69,-77.5,-171.72
6539,52.398605,-1.589717,165.32,6.44,4,349.26,24 / 27,467510,2019-09-08 12:14:46:749,-0.0828,1.2794,10.2107,0.0078,-0.0026,9.8065,0.1375,-0.0012,-0.0131,-14.87,-38.25,3.0,256.96,-77.55,-172.4
6540,52.398605,-1.589717,165.32,6.44,4,349.26,24 / 27,467610,2019-09-08 12:14:46:849,-0.8591,0.7889,9.4003,0.0331,0.0077,9.8065,-0.2521,0.0105,-0.0059,-15.44,-38.56,3.5,259.66,-77.5,-172.32
6541,52.398605,-1.589717,165.32,6.44,4,349.26,26 / 26,467710,2019-09-08 12:14:46:949,-0.7908,-0.0152,9.2339,0.0695,0.0173,9.8064,-0.2404,-0.0134,0.0173,-15.62,-38.87,2.88,256.45,-77.02,-172.09
6542,52.398605,-1.589717,165.32,6.44,4,349.26,26 / 26,467810,2019-09-08 12:14:47:049,2.1896,-0.3088,11.3315,0.0279,-0.0348,9.8065,0.37,0.0028,0.0191,-16.25,-38.19,3.31,257.99,-76.77,-170.53
6543,52.398605,-1.589717,165.32,6.44,4,349.26,26 / 26,467910,2019-09-08 12:14:47:149,0.876,1.6736,10.4866,0.0323,-0.015,9.8065,0.1656,0.0791,-0.1746,-15.69,-39.0,3.31,256.97,-76.52,-170.04
6544,52.398605,-1.589717,165.32,6.44,4,349.26,26 / 26,468010,2019-09-08 12:14:47:249,-0.604,-1.0216,9.9606,-0.0138,-0.0104,9.8066,-0.0655,0.0153,-0.0387,-16.12,-39.62,2.44,252.9,-76.55,-170.24
6545,52.398605,-1.589717,165.32,6.44,4,349.26,26 / 26,468110,2019-09-08 12:14:47:349,-2.1359,1.034,8.7388,-0.0211,-0.0092,9.8065,-0.1288,0.0641,-0.0134,-15.31,-38.87,2.69,255.64,-76.72,-170.47
6546,52.398605,-1.589717,165.32,6.44,4,349.26,26 / 26,468210,2019-09-08 12:14:47:449,-1.3498,-1.5535,8.9632,-0.07,-0.0299,9.8063,0.0527,-0.1145,0.0087,-15.37,-39.31,2.25,252.74,-76.61,-169.54
6547,52.398605,-1.589717,165.32,6.44,4,349.26,26 / 26,468310,2019-09-08 12:14:47:549,-1.995,-1.5959,9.9008,-0.0783,-0.0455,9.8062,0.0241,0.0199,-0.0209,-16.56,-39.06,1.69,257.89,-77.23,-168.83
6548,52.398605,-1.589717,165.32,6.44,4,349.26,26 / 26,468410,2019-09-08 12:14:47:649,1.396,-0.5134,11.2532,0.1031,0.0633,9.8058,-0.1617,0.0302,-0.0665,-15.69,-39.0,2.06,254.54,-76.74,-169.73
6549,52.398605,-1.589717,165.32,6.44,4,349.26,26 / 26,468510,2019-09-08 12:14:47:749,1.1414,-0.3035,9.885,0.0889,0.0508,9.8061,0.0147,-0.0484,0.0749,-15.62,-39.31,2.06,254.31,-76.92,-170.52
6550,52.398605,-1.589717,165.32,6.44,4,349.26,26 / 26,468610,2019-09-08 12:14:47:849,-0.8455,0.2956,9.2626,-0.0282,-0.0234,9.8065,-0.0458,-0.0182,0.0106,-15.94,-38.94,1.81,254.41,-76.99,-170.6
6551,52.398605,-1.589717,165.32,6.44,4,349.26,25 / 25,468710,2019-09-08 12:14:47:949,0.661,-0.022,9.8631,-0.0097,-0.0112,9.8065,-0.1639,-0.1025,-0.0083,-15.62,-39.06,2.19,254.98,-76.99,-169.92
6552,52.398605,-1.589717,165.32,6.44,4,349.26,25 / 25,468809,2019-09-08 12:14:48:048,0.4601,0.6469,8.8451,-0.0019,0.0085,9.8066,-0.0883,-0.0236,-0.0968,-15.62,-39.31,1.5,254.9,-77.02,-170.09
6553,52.398605,-1.589717,165.32,6.44,4,349.26,25 / 25,468910,2019-09-08 12:14:48:149,-0.7045,1.6834,10.8691,0.0388,-0.0037,9.8065,-0.0739,0.0588,-0.2351,-15.62,-39.0,2.56,258.21,-77.0,-169.98
6554,52.398605,-1.589717,165.32,6.44,4,349.26,25 / 25,469010,2019-09-08 12:14:48:249,-0.0814,-1.2613,9.4866,0.0036,0.0125,9.8066,-0.0834,0.0049,0.1039,-15.31,-39.0,1.25,249.78,-77.25,-171.18
6555,52.398605,-1.589717,165.32,6.44,4,349.26,25 / 25,469110,2019-09-08 12:14:48:349,-0.8165,-1.0497,9.4275,0.017,0.0101,9.8066,-0.0993,-0.048,0.0537,-14.37,-38.69,1.25,247.6,-77.2,-171.45
6556,52.398605,-1.589717,165.32,6.44,4,349.26,25 / 25,469210,2019-09-08 12:14:48:449,-1.2892,0.951,8.6422,-0.0398,-0.0231,9.8065,0.1673,-0.0531,0.0791,-15.0,-39.62,0.81,248.61,-77.12,-171.33
6557,52.398605,-1.589717,165.32,6.44,4,349.26,25 / 25,469310,2019-09-08 12:14:48:549,0.2178,0.793,9.4713,-0.0388,-0.0149,9.8065,-0.0118,-0.0505,-0.049,-14.31,-38.25,1.06,248.97,-77.3,-171.0
6558,52.398605,-1.589717,165.32,6.44,4,349.26,25 / 25,469410,2019-09-08 12:14:48:649,-1.3777,-0.2129,10.2158,-0.0035,-0.0037,9.8066,0.0674,-0.0422,0.0072,-13.44,-37.62,1.44,246.48,-77.25,-171.43
6559,52.398605,-1.589717,165.32,6.44,4,349.26,25 / 25,469510,2019-09-08 12:14:48:749,0.275,0.7596,9.4541,-0.0105,-0.0083,9.8066,0.0915,0.059,-0.0492,-13.19,-37.44,1.69,251.11,-77.28,-171.26
6560,52.398605,-1.589717,165.32,6.44,4,349.26,25 / 25,469610,2019-09-08 12:14:48:849,-1.3559,0.4768,9.6796,-0.0112,-0.0009,9.8066,0.1536,0.0089,-0.0455,-13.5,-36.75,2.5,254.4,-77.18,-171.64
6561,52.398605,-1.589717,165.32,6.44,4,349.26,28 / 28,469710,2019-09-08 12:14:48:949,0.1129,-0.1154,10.4996,-0.0175,-0.0043,9.8066,0.1224,-0.0203,0.0348,-13.81,-37.56,3.94,258.43,-77.05,-171.85
6562,52.398605,-1.589717,165.32,6.44,4,349.26,28 / 28,469810,2019-09-08 12:14:49:049,0.4929,0.905,10.1064,0.0424,0.0211,9.8065,-0.1295,-0.0144,0.1035,-14.81,-37.06,3.75,260.65,-76.98,-171.62
6563,52.398605,-1.589717,165.32,6.44,4,349.26,28 / 28,469909,2019-09-08 12:14:49:148,2.6485,0.5637,10.3421,0.0243,-0.0007,9.8066,-0.0887,0.0711,0.075,-16.06,-36.94,3.5,261.17,-76.8,-171.81
6564,52.398605,-1.589717,165.32,6.44,4,349.26,28 / 28,470010,2019-09-08 12:14:49:249,-0.4124,-0.2521,10.3686,-0.0162,-0.008,9.8066,0.0617,-0.0506,-0.0028,-16.62,-37.75,3.19,258.53,-76.83,-171.5
6565,52.398605,-1.589717,165.32,6.44,4,349.26,28 / 28,470110,2019-09-08 12:14:49:349,0.4725,0.0151,10.2975,-0.0221,-0.0117,9.8065,0.1411,-0.0369,-0.0478,-15.94,-38.12,2.31,254.72,-77.01,-171.22
6566,52.398605,-1.589717,165.32,6.44,4,349.26,28 / 28,470210,2019-09-08 12:14:49:449,0.0895,-0.1749,9.8444,0.032,0.0239,9.8065,-0.3131,0.0395,-0.0218,-16.0,-38.31,2.38,253.89,-76.8,-171.66
6567,52.398605,-1.589717,165.32,6.44,4,349.26,28 / 28,470310,2019-09-08 12:14:49:549,-0.3682,-1.1392,9.5208,0.0241,0.007,9.8065,-0.1804,0.0357,0.0153,-16.44,-39.12,1.75,253.16,-76.88,-171.82
6568,52.398605,-1.589717,165.32,6.44,4,349.26,28 / 28,470410,2019-09-08 12:14:49:649,-0.5429,1.6046,9.8828,-0.039,-0.0314,9.8064,0.2936,0.0188,0.0512,-16.25,-38.44,1.44,250.09,-76.72,-172.36
6569,52.398605,-1.589717,165.32,6.44,4,349.26,28 / 28,470510,2019-09-08 12:14:49:749,0.9545,0.0912,10.8364,-0.0547,-0.0199,9.8064,0.3113,-0.0425,0.0614,-15.75,-38.06,2.19,254.38,-77.01,-171.65
6570,52.398605,-1.589717,165.32,6.44,4,349.26,28 / 28,470610,2019-09-08 12:14:49:849,-1.9049,1.2166,9.6771,0.0469,0.0132,9.8065,-0.258,0.077,-0.1135,-15.87,-38.44,1.31,250.65,-76.72,-171.67
6571,52.398605,-1.589717,165.32,6.44,4,349.26,24 / 26,470711,2019-09-08 12:14:49:950,-1.7224,-0.4689,9.2193,0.0243,0.0379,9.8065,-0.2759,-0.0355,0.119,-16.44,-38.37,1.88,253.25,-76.75,-172.3
6572,52.398605,-1.589717,165.32,6.44,4,349.26,24 / 26,470810,2019-09-08 12:14:50:049,-0.9003,-0.3998,9.398,-0.0339,-0.015,9.8066,0.2297,0.0121,-0.0039,-16.44,-38.31,2.0,253.78,-76.82,-171.83
6573,52.398605,-1.589717,165.32,6.44,4,349.26,24 / 26,470909,2019-09-08 12:14:50:148,0.039,-0.7847,10.2918,-0.0423,-0.0182,9.8065,0.2798,0.0609,0.0578,-15.87,-37.75,1.38,251.08,-77.03,-171.96
6574,52.398605,-1.589717,165.32,6.44,4,349.26,24 / 26,471010,2019-09-08 12:14:50:249,-1.7137,0.0597,9.4047,0.0415,0.0172,9.8065,-0.2362,0.0114,0.0018,-15.06,-37.62,2.44,252.59,-77.08,-172.18
6575,52.398605,-1.589717,165.32,6.44,4,349.26,24 / 26,471110,2019-09-08 12:14:50:349,-2.3941,0.6616,9.3808,0.0176,-0.0065,9.8066,-0.2214,0.0328,-0.1215,-14.75,-38.19,2.69,255.88,-76.91,-171.8
6576,52.398605,-1.589717,165.32,6.44,4,349.26,24 / 26,471210,2019-09-08 12:14:50:449,-1.2811,0.8069,10.9075,0.0248,0.0103,9.8066,0.0571,-0.0323,-0.0853,-14.19,-37.87,2.19,250.36,-76.83,-172.09
6577,52.398605,-1.589717,165.32,6.44,4,349.26,24 / 26,471310,2019-09-08 12:14:50:549,0.03,1.0386,10.7947,0.0011,0.0056,9.8066,0.1668,0.0038,0.0018,-14.37,-39.06,3.13,253.31,-76.93,-172.02
6578,52.398605,-1.589717,165.32,6.44,4,349.26,24 / 26,471410,2019-09-08 12:14:50:649,-0.3279,0.6712,10.2255,0.0353,0.0146,9.8065,-0.3163,-0.0235,0.1013,-14.25,-38.69,2.13,250.15,-77.09,-172.11
6579,52.398605,-1.589717,165.32,6.44,4,349.26,24 / 26,471510,2019-09-08 12:14:50:749,-0.2811,0.3004,9.4042,0.0165,-0.0147,9.8066,-0.0964,-0.036,-0.0811,-14.56,-38.12,2.25,253.09,-77.0,-171.32
6580,52.398605,-1.589717,165.32,6.44,4,349.26,24 / 26,471610,2019-09-08 12:14:50:849,0.0736,-0.6923,10.8709,-0.0031,0.0098,9.8066,-0.0088,-0.0767,-0.0569,-14.62,-38.69,2.38,252.66,-76.95,-170.69
6581,52.398605,-1.589717,165.32,6.44,4,349.26,24 / 25,471710,2019-09-08 12:14:50:949,-0.9161,2.1661,8.6802,0.0216,0.0054,9.8066,-0.1251,-0.0986,0.1156,-14.81,-39.25,2.06,252.2,-76.89,-171.1
6582,52.398605,-1.589717,165.32,6.44,4,349.26,24 / 25,471810,2019-09-08 12:14:51:049,-1.2731,0.3667,9.264,-0.05,-0.0257,9.8064,-0.1072,-0.0519,-0.1276,-14.94,-38.75,2.81,254.45,-76.82,-172.22
6583,52.398605,-1.589717,165.32,6.44,4,349.26,24 / 25,471910,2019-09-08 12:14:51:149,1.219,1.6739,10.337,-0.0001,-0.0248,9.8066,-0.1921,0.0045,-0.0509,-15.37,-39.31,2.81,255.28,-76.89,-171.43
6584,52.398605,-1.589717,165.32,6.44,4,349.26,24 / 25,472010,2019-09-08 12:14:51:249,-0.8308,0.9239,9.2927,0.0393,0.0105,9.8065,-0.1004,-0.0044,-0.1212,-15.56,-38.69,2.06,254.1,-76.96,-170.91
6585,52.398605,-1.589717,165.32,6.44,4,349.26,24 / 25,472110,2019-09-08 12:14:51:349,0.7416,1.9564,9.5946,0.059,0.0388,9.8064,-0.4298,-0.1699,0.0374,-15.31,-39.0,2.0,251.89,-76.71,-170.92
6586,52.398605,-1.589717,165.32,6.44,4,349.26,24 / 25,472210,2019-09-08 12:14:51:449,-1.5178,3.6848,8.1243,-0.069,-0.0627,9.8061,-0.5125,0.0156,-0.0884,-14.87,-39.44,2.81,257.26,-77.29,-170.3
6587,52.398605,-1.589717,165.32,6.44,4,349.26,24 / 25,472311,2019-09-08 12:14:51:550,-1.48,-0.8667,8.9759,-0.0415,-0.0009,9.8065,0.2832,-0.0069,-0.0233,-15.44,-39.12,2.0,253.01,-77.09,-170.7
6588,52.398605,-1.589717,165.32,6.44,4,349.26,24 / 25,472410,2019-09-08 12:14:51:649,-1.118,1.2038,9.0376,-0.0274,-0.009,9.8065,0.0133,0.0858,-0.0283,-15.62,-39.5,2.06,254.69,-77.02,-170.37
6589,52.398605,-1.589717,165.32,6.44,4,349.26,24 / 25,472510,2019-09-08 12:14:51:749,-0.7818,1.8021,8.3937,-0.0182,0.0108,9.8066,0.0085,0.1501,-0.2423,-14.62,-39.94,2.0,252.34,-77.05,-170.39
6590,52.398605,-1.589717,165.32,6.44,4,349.26,24 / 25,472610,2019-09-08 12:14:51:849,-2.3797,-0.6506,9.6494,-0.0497,0.0038,9.8065,-0.0467,-0.0689,-0.1154,-15.06,-39.19,3.0,256.19,-76.96,-170.54
6591,52.398605,-1.589717,165.32,6.44,4,349.26,25 / 26,472710,2019-09-08 12:14:51:949,-2.1977,0.0139,9.9314,-0.0686,-0.0464,9.8062,0.176,-0.1236,-0.0116,-15.44,-40.06,2.0,253.11,-77.34,-170.34
6592,52.398605,-1.589717,165.32,6.44,4,349.26,25 / 26,472810,2019-09-08 12:14:52:049,-0.5611,0.6255,9.3934,0.0627,0.027,9.8064,0.0406,0.0002,-0.1739,-16.06,-39.06,2.0,254.6,-77.05,-170.54
6593,52.398605,-1.589717,165.32,6.44,4,349.26,25 / 26,472910,2019-09-08 12:14:52:149,-0.9546,0.4721,8.9939,0.0615,0.0269,9.8064,-0.2005,-0.0905,0.0696,-15.87,-39.56,2.25,253.8,-77.02,-170.5
6594,52.398605,-1.589717,165.32,6.44,4,349.26,25 / 26,473010,2019-09-08 12:14:52:249,0.7991,-1.04,9.7158,-0.0334,-0.0308,9.8065,-0.1065,0.0004,0.0455,-16.12,-39.75,2.13,253.55,-76.95,-170.6
6595,52.398605,-1.589717,165.32,6.44,4,349.26,25 / 26,473110,2019-09-08 12:14:52:349,0.074,3.5439,10.3699,-0.0401,-0.0015,9.8066,-0.0245,0.1494,-0.2334,-15.37,-40.06,2.44,252.26,-77.18,-170.89
6596,52.398605,-1.589717,165.32,6.44,4,349.26,25 / 26,473210,2019-09-08 12:14:52:449,-0.6916,0.1525,10.687,0.0595,0.0311,9.8064,0.03,-0.0913,-0.0225,-15.5,-40.19,2.69,255.91,-77.18,-170.57
6597,52.398605,-1.589717,165.32,6.44,4,349.26,25 / 26,473310,2019-09-08 12:14:52:549,-1.4917,-0.1006,9.7465,0.0705,0.0212,9.8063,-0.0908,0.0452,0.0018,-16.25,-40.12,2.5,256.07,-76.74,-170.79
6598,52.398605,-1.589717,165.32,6.44,4,349.26,25 / 26,473410,2019-09-08 12:14:52:649,2.3904,5.0672,10.131,-0.0386,0.0274,9.8065,0.276,0.0136,0.0516,-15.69,-39.69,3.44,256.02,-76.95,-171.46
6599,52.398605,-1.589717,165.32,6.44,4,349.26,25 / 26,473510,2019-09-08 12:14:52:749,4.1062,-3.7383,11.0687,0.0866,0.0591,9.8061,-0.9784,-0.1329,0.1768,-15.81,-39.06,3.81,258.09,-76.64,-172.99
6600,52.398605,-1.589717,165.32,6.44,4,349.26,25 / 26,473610,2019-09-08 12:14:52:849,-0.197,1.322,9.0145,-0.0476,-0.0111,9.8065,-0.6535,0.0832,-0.0402,-14.94,-38.75,4.13,258.4,-76.62,-171.06
6601,52.398605,-1.589717,165.32,6.44,4,349.26,24 / 24,473710,2019-09-08 12:14:52:949,-3.2659,-1.137,8.4616,0.0278,0.01,9.8065,0.4538,-0.113,0.0344,-15.25,-38.81,3.13,255.34,-76.71,-170.8
6602,52.398605,-1.589717,165.32,6.44,4,349.26,24 / 24,473810,2019-09-08 12:14:53:049,3.4165,5.0417,9.536,-0.0032,0.0191,9.8065,0.5254,0.1737,-0.2797,-14.56,-39.25,4.13,258.23,-76.71,-171.54
6603,52.398605,-1.589717,165.32,6.44,4,349.26,24 / 24,473910,2019-09-08 12:14:53:149,0.5388,1.3781,11.0811,0.03,0.0128,9.8065,-0.4507,0.2021,0.3199,-14.12,-39.12,2.94,253.22,-76.65,-171.18
6604,52.398605,-1.589717,165.32,6.44,4,349.26,24 / 24,474010,2019-09-08 12:14:53:249,-1.7924,-5.104,8.6474,0.0373,0.037,9.8064,-0.1444,0.1001,0.2407,-15.12,-38.75,2.0,252.57,-76.86,-170.54
6605,52.398605,-1.589717,165.32,6.44,4,349.26,24 / 24,474110,2019-09-08 12:14:53:349,-4.2664,-3.4878,9.6685,0.0481,0.0365,9.8064,0.465,0.0662,0.1626,-15.25,-39.5,0.81,249.81,-76.86,-170.01
6606,52.398605,-1.589717,165.32,6.44,4,349.26,24 / 24,474210,2019-09-08 12:14:53:449,-3.1508,2.7005,8.9176,-0.0946,0.02,9.8061,0.4734,0.1881,-0.3118,-14.31,-39.37,1.56,249.83,-76.79,-171.51
6607,52.398605,-1.589717,165.32,6.44,4,349.26,24 / 24,474310,2019-09-08 12:14:53:549,2.5729,3.5398,11.2704,-0.1053,-0.0383,9.8059,0.0108,0.0497,-0.1108,-15.0,-39.12,2.19,250.78,-77.1,-173.53
6608,52.398605,-1.589717,165.32,6.44,4,349.26,24 / 24,474410,2019-09-08 12:14:53:649,1.6832,0.1421,10.0402,0.2504,0.0853,9.8031,0.3959,-0.1374,0.0262,-15.56,-39.81,2.63,254.97,-77.12,-173.22
6609,52.398605,-1.589717,165.32,6.44,4,349.26,24 / 24,474510,2019-09-08 12:14:53:749,-0.7748,-5.3176,9.5547,0.1391,0.0784,9.8053,-0.1152,0.1929,-0.2695,-15.81,-39.44,2.19,248.95,-75.57,-173.47
6610,52.398605,-1.589717,165.32,6.44,4,349.26,24 / 24,474610,2019-09-08 12:14:53:849,0.0943,0.3979,10.0224,-0.1822,-0.0594,9.8047,-0.2386,0.0807,-0.1469,-14.69,-39.19,2.81,253.43,-76.72,-173.18
6611,52.398605,-1.589717,165.32,6.44,4,349.26,26 / 26,474710,2019-09-08 12:14:53:949,0.2677,-0.0135,11.6707,-0.1167,-0.058,9.8057,0.135,-0.0059,0.0933,-14.75,-39.31,2.0,250.66,-76.99,-173.33
6612,52.398605,-1.589717,165.32,6.44,4,349.26,26 / 26,474810,2019-09-08 12:14:54:049,-1.1319,-0.014,10.9452,0.1058,0.0488,9.8059,0.2643,0.1016,-0.0234,-14.5,-39.0,2.13,249.1,-77.1,-173.49
6613,52.398605,-1.589717,165.32,6.44,4,349.26,26 / 26,474909,2019-09-08 12:14:54:148,1.2967,0.1891,10.5788,0.0884,0.0449,9.8061,-0.146,0.0601,0.0282,-15.5,-38.5,2.63,253.03,-76.33,-173.55
6614,52.398605,-1.589717,165.32,6.44,4,349.26,26 / 26,475009,2019-09-08 12:14:54:248,-1.102,-0.6533,8.1702,-0.0824,-0.0278,9.8062,-0.2164,0.0059,-0.0017,-14.75,-38.56,2.63,252.06,-76.16,-173.17
6615,52.398605,-1.589717,165.32,6.44,4,349.26,26 / 26,475109,2019-09-08 12:14:54:348,-1.1697,-0.274,8.8622,-0.0917,-0.0446,9.8061,0.3441,-0.0288,-0.0328,-15.0,-39.37,1.88,250.15,-76.68,-173.06
6616,52.398605,-1.589717,165.32,6.44,4,349.26,26 / 26,475210,2019-09-08 12:14:54:449,-0.5281,-0.3805,10.7597,0.042,0.0216,9.8065,0.2771,0.0144,-0.0167,-14.44,-38.44,1.94,248.59,-76.46,-173.22
6617,52.398605,-1.589717,165.32,6.44,4,349.26,26 / 26,475310,2019-09-08 12:14:54:549,-2.6098,0.8451,7.7587,0.0111,0.0255,9.8066,-0.4416,0.0179,-0.0329,-14.5,-39.25,1.69,248.08,-76.74,-173.69
6618,52.398605,-1.589717,165.32,6.44,4,349.26,26 / 26,475410,2019-09-08 12:14:54:649,-2.7014,-0.2532,8.016,-0.0913,-0.0487,9.806,-0.5163,0.0868,-0.0194,-14.56,-38.56,0.69,247.23,-76.64,-172.69
6619,52.398605,-1.589717,165.32,6.44,4,349.26,26 / 26,475510,2019-09-08 12:14:54:749,-2.7175,-1.6903,8.4973,-0.063,-0.0044,9.8064,0.5812,-0.0151,-0.0838,-15.31,-38.69,1.75,251.38,-77.21,-173.08
6620,52.398605,-1.589717,165.32,6.44,4,349.26,26 / 26,475610,2019-09-08 12:14:54:849,0.5876,0.8808,11.0984,-0.0119,-0.0003,9.8066,0.2667,-0.0744,0.0191,-14.81,-38.94,1.75,250.83,-77.02,-173.19
6621,52.398605,-1.589717,165.32,6.44,4,349.26,25 / 27,475710,2019-09-08 12:14:54:949,-0.0782,1.1422,10.0345,-0.0333,-0.0177,9.8065,-0.032,0.0109,-0.0527,-15.0,-38.69,1.25,247.31,-77.02,-173.69
6622,52.39913,-1.589862,165.96,6.19,3,349.56,25 / 27,475810,2019-09-08 12:14:55:049,-1.405,-0.1567,8.3643,0.0996,0.0282,9.806,-0.1021,0.0046,-0.0342,-14.62,-38.81,1.44,246.22,-76.41,-173.38
6623,52.39913,-1.589862,165.96,6.19,3,349.56,25 / 27,475910,2019-09-08 12:14:55:149,-2.3186,-2.3037,9.3523,-0.0277,-0.0186,9.8065,-0.119,0.0071,-0.036,-14.5,-39.94,1.25,244.78,-76.77,-172.79
6624,52.39913,-1.589862,165.96,6.19,3,349.56,25 / 27,476010,2019-09-08 12:14:55:249,-1.4227,0.0551,8.9452,-0.0167,-0.0029,9.8066,-0.2501,-0.0123,-0.0705,-13.06,-38.81,1.25,243.51,-76.86,-173.07
6625,52.39913,-1.589862,165.96,6.19,3,349.56,25 / 27,476111,2019-09-08 12:14:55:350,-0.5834,-0.6708,9.9681,-0.0651,-0.0225,9.8064,0.1339,-0.0569,0.1008,-13.25,-38.87,1.88,246.81,-76.91,-173.36
6626,52.39913,-1.589862,165.96,6.19,3,349.56,25 / 27,476210,2019-09-08 12:14:55:449,-1.1472,0.5005,9.8214,-0.0261,-0.0227,9.8065,0.0673,0.0764,-0.036,-13.25,-39.69,2.19,246.94,-77.26,-173.27
6627,52.39913,-1.589862,165.96,6.19,3,349.56,25 / 27,476310,2019-09-08 12:14:55:549,0.9324,0.0494,9.6485,0.0092,-0.0065,9.8066,-0.1302,0.0361,-0.0182,-12.94,-38.81,3.06,251.06,-77.17,-173.47
6628,52.39913,-1.589862,165.96,6.19,3,349.56,25 / 27,476410,2019-09-08 12:14:55:649,-1.0759,-1.0489,9.3486,-0.0062,-0.0126,9.8066,-0.0336,-0.0512,0.0414,-14.06,-38.81,3.31,252.99,-77.12,-173.04
6629,52.39913,-1.589862,165.96,6.19,3,349.56,25 / 27,476510,2019-09-08 12:14:55:749,-0.6507,-0.6633,10.1141,0.0324,0.0043,9.8065,-0.1366,-0.0322,0.0106,-14.31,-38.87,3.31,253.09,-76.97,-172.42
6630,52.39913,-1.589862,165.96,6.19,3,349.56,25 / 27,476610,2019-09-08 12:14:55:849,-0.8801,-0.9103,9.9084,0.0225,0.0039,9.8066,-0.1096,-0.0594,-0.0084,-13.5,-38.87,3.06,251.85,-77.08,-172.13
6631,52.39913,-1.589862,165.96,6.19,3,349.56,25 / 25,476710,2019-09-08 12:14:55:949,-2.1167,-1.9019,10.4726,-0.0039,-0.0096,9.8066,0.1337,-0.0339,0.0074,-14.37,-38.87,2.25,250.62,-77.19,-171.81
6632,52.39913,-1.589862,165.96,6.19,3,349.56,25 / 25,476810,2019-09-08 12:14:56:049,-0.4475,0.694,9.8732,-0.0092,-0.0027,9.8066,0.0268,-0.0417,0.0124,-14.81,-38.94,2.06,252.78,-77.31,-171.63
6633,52.39913,-1.589862,165.96,6.19,3,349.56,25 / 25,476910,2019-09-08 12:14:56:149,0.4375,-0.705,10.243,0.0062,-0.0032,9.8065,0.0519,-0.0639,0.0896,-14.69,-39.62,1.94,251.98,-77.33,-171.71
6634,52.39913,-1.589862,165.96,6.19,3,349.56,25 / 25,477010,2019-09-08 12:14:56:249,-0.4429,0.014,10.0478,-0.0121,-0.0115,9.8066,0.194,-0.0134,0.0104,-14.94,-38.69,1.81,253.33,-77.43,-171.33
6635,52.39913,-1.589862,165.96,6.19,3,349.56,25 / 25,477110,2019-09-08 12:14:56:349,-1.4545,-1.1878,9.3482,0.006,-0.0056,9.8066,0.0495,-0.0898,0.1317,-14.94,-39.0,2.69,256.45,-77.36,-171.46
6636,52.39913,-1.589862,165.96,6.19,3,349.56,25 / 25,477210,2019-09-08 12:14:56:449,-0.5073,-1.5104,9.7374,-0.0145,0.0044,9.8066,-0.0212,-0.0898,0.1192,-15.19,-38.31,2.44,253.81,-77.37,-171.52
6637,52.39913,-1.589862,165.96,6.19,3,349.56,25 / 25,477310,2019-09-08 12:14:56:549,-0.9894,-0.5299,10.9587,0.0133,0.0097,9.8066,0.0767,-0.0914,0.1656,-15.69,-38.62,3.06,258.04,-77.48,-171.54
6638,52.39913,-1.589862,165.96,6.19,3,349.56,25 / 25,477410,2019-09-08 12:14:56:649,-2.133,-1.0691,10.0187,0.0258,-0.0072,9.8065,0.0216,-0.1336,0.039,-16.12,-38.0,3.19,258.74,-77.4,-171.4
6639,52.39913,-1.589862,165.96,6.19,3,349.56,25 / 25,477510,2019-09-08 12:14:56:749,-0.1209,-1.7,9.3956,-0.0118,0.0205,9.8065,-0.0626,-0.2196,0.1059,-16.75,-38.25,2.81,260.42,-77.41,-170.85
6640,52.39913,-1.589862,165.96,6.19,3,349.56,25 / 25,477610,2019-09-08 12:14:56:849,-1.1713,0.2455,9.5206,0.0007,-0.0199,9.8066,-0.0281,0.073,-0.0935,-17.94,-37.69,2.13,258.71,-77.56,-170.93
6641,52.39913,-1.589862,165.96,6.19,3,349.56,25 / 26,477711,2019-09-08 12:14:56:950,-0.0012,-1.5793,9.9358,0.0154,-0.0283,9.8065,-0.0651,-0.0274,-0.049,-18.94,-37.37,2.19,260.2,-77.69,-171.43
6642,52.39913,-1.589862,165.96,6.19,3,349.56,25 / 26,477810,2019-09-08 12:14:57:049,-1.6301,-1.0229,9.3626,-0.0026,-0.0053,9.8066,-0.087,-0.1024,0.0279,-18.81,-37.75,1.75,260.28,-77.7,-170.66
6643,52.39913,-1.589862,165.96,6.19,3,349.56,25 / 26,477910,2019-09-08 12:14:57:149,-0.1482,-1.5447,10.365,-0.0203,-0.0055,9.8065,0.1081,-0.1404,0.1673,-19.5,-38.31,1.06,257.41,-77.74,-170.85
6644,52.39913,-1.589862,165.96,6.19,3,349.56,25 / 26,478010,2019-09-08 12:14:57:249,0.3894,-1.7495,10.8328,-0.0221,-0.0081,9.8066,0.1276,-0.1072,0.1751,-19.56,-38.5,0.38,256.1,-77.94,-171.03
6645,52.39913,-1.589862,165.96,6.19,3,349.56,25 / 26,478110,2019-09-08 12:14:57:349,-0.3843,-0.44,10.519,0.0441,0.0188,9.8065,-0.0916,-0.2018,0.153,-19.25,-37.87,0.75,257.11,-77.71,-171.13
6646,52.39913,-1.589862,165.96,6.19,3,349.56,25 / 26,478210,2019-09-08 12:14:57:449,-0.6103,-1.5734,9.472,0.0431,0.0015,9.8065,-0.0704,-0.2019,0.0327,-19.87,-38.5,1.5,261.16,-77.67,-170.66
6647,52.39913,-1.589862,165.96,6.19,3,349.56,25 / 26,478310,2019-09-08 12:14:57:549,-0.3431,-1.0079,9.5537,-0.0495,-0.0174,9.8065,-0.0069,-0.2343,0.0596,-19.56,-38.31,0.75,258.51,-77.65,-170.61
6648,52.39913,-1.589862,165.96,6.19,3,349.56,25 / 26,478410,2019-09-08 12:14:57:649,0.8148,-0.9006,9.9199,-0.0443,-0.0139,9.8065,-0.0472,-0.1853,0.0247,-19.81,-38.25,1.0,258.88,-77.9,-170.72
6649,52.39913,-1.589862,165.96,6.19,3,349.56,25 / 26,478511,2019-09-08 12:14:57:750,-0.6753,-0.9367,10.4772,0.0203,0.0025,9.8066,0.1461,-0.1917,-0.0908,-20.06,-39.12,1.19,257.8,-77.78,-171.02
6650,52.39913,-1.589862,165.96,6.19,3,349.56,25 / 26,478610,2019-09-08 12:14:57:849,0.3255,-0.3014,10.774,-0.0096,0.0076,9.8066,0.1769,-0.2101,0.0112,-20.69,-38.81,1.13,258.31,-77.76,-171.51
6651,52.39913,-1.589862,165.96,6.19,3,349.56,26 / 27,478710,2019-09-08 12:14:57:949,-1.4615,-0.4244,9.4352,0.0557,0.0125,9.8064,-0.3996,-0.1102,-0.038,-20.62,-38.62,1.38,257.78,-77.54,-171.65
6652,52.39913,-1.589862,165.96,6.19,3,349.56,26 / 27,478810,2019-09-08 12:14:58:049,-0.3792,-0.9839,8.6828,0.0532,0.0147,9.8064,-0.3049,-0.1951,-0.0091,-21.25,-38.25,2.0,260.8,-77.55,-171.75
6653,52.39913,-1.589862,165.96,6.19,3,349.56,26 / 27,478910,2019-09-08 12:14:58:149,-2.2747,-1.3821,9.6459,-0.0673,-0.0234,9.8064,0.3849,-0.1603,0.1061,-22.06,-38.62,1.69,260.82,-77.57,-172.01
6654,52.39913,-1.589862,165.96,6.19,3,349.56,26 / 27,479010,2019-09-08 12:14:58:249,1.0542,0.769,10.5603,-0.0687,-0.0212,9.8064,0.2991,-0.2609,0.1065,-22.75,-37.87,0.88,260.73,-78.0,-171.72
6655,52.39913,-1.589862,165.96,6.19,3,349.56,26 / 27,479111,2019-09-08 12:14:58:350,0.6455,-0.2435,10.3048,0.0645,0.0192,9.8063,-0.2413,-0.2765,0.0798,-22.87,-37.81,1.5,263.3,-78.03,-171.54
6656,52.39913,-1.589862,165.96,6.19,3,349.56,26 / 27,479210,2019-09-08 12:14:58:449,0.8134,0.7494,9.4583,0.0615,0.008,9.8064,-0.0956,-0.0845,-0.0426,-23.62,-38.0,1.38,261.04,-77.59,-171.46
6657,52.39913,-1.589862,165.96,6.19,3,349.56,26 / 27,479310,2019-09-08 12:14:58:549,-0.3274,-2.3753,9.4766,-0.0251,-0.0199,9.8065,-0.0899,-0.1108,0.0164,-24.12,-38.44,1.0,261.73,-77.8,-171.07
6658,52.39913,-1.589862,165.96,6.19,3,349.56,26 / 27,479410,2019-09-08 12:14:58:649,1.1469,-1.2762,10.119,-0.0426,-0.0116,9.8065,-0.1219,-0.208,0.1536,-24.0,-38.06,1.19,261.45,-77.88,-171.5
6659,52.39913,-1.589862,165.96,6.19,3,349.56,26 / 27,479510,2019-09-08 12:14:58:749,0.2525,-0.344,11.0202,0.0116,0.0271,9.8066,0.2152,-0.2488,0.1896,-24.87,-38.31,1.25,262.27,-77.77,-171.16
6660,52.39913,-1.589862,165.96,6.19,3,349.56,26 / 27,479610,2019-09-08 12:14:58:849,2.4701,0.6071,10.8207,-0.0025,-0.0053,9.8065,0.3023,-0.1889,0.0486,-24.87,-39.19,1.44,261.02,-77.74,-171.94
6661,52.39913,-1.589862,165.96,6.19,3,349.56,25 / 26,479710,2019-09-08 12:14:58:949,0.0241,-0.7244,9.1209,0.0085,0.0067,9.8066,-0.2153,-0.2742,0.0152,-25.06,-38.31,1.38,261.54,-77.66,-171.77
6662,52.39913,-1.589862,165.96,6.19,3,349.56,25 / 26,479810,2019-09-08 12:14:59:049,-1.2994,-2.2147,8.8763,0.0459,0.0094,9.8065,-0.3368,-0.3313,0.0307,-25.0,-38.44,1.94,263.71,-77.53,-171.57
6663,52.39913,-1.589862,165.96,6.19,3,349.56,25 / 26,479910,2019-09-08 12:14:59:149,0.0892,-2.7943,9.4375,-0.0594,-0.0255,9.8064,0.1814,-0.3012,-0.0242,-26.37,-38.94,2.06,265.53,-78.01,-170.5
6664,52.39913,-1.589862,165.96,6.19,3,349.56,25 / 26,480010,2019-09-08 12:14:59:249,1.7892,-2.9537,10.5746,-0.0586,-0.0251,9.8064,0.1851,-0.2072,-0.107,-26.62,-38.81,1.81,266.05,-78.08,-170.61
6665,52.39913,-1.589862,165.96,6.19,3,349.56,25 / 26,480110,2019-09-08 12:14:59:349,1.5144,-1.2351,10.1665,0.0498,0.0145,9.8064,-0.2499,-0.305,0.0026,-26.19,-38.37,1.69,265.87,-78.34,-171.18
6666,52.39913,-1.589862,165.96,6.19,3,349.56,25 / 26,480210,2019-09-08 12:14:59:449,-0.9007,-0.9313,9.7183,0.0289,0.0341,9.8065,-0.2146,-0.254,-0.0588,-26.06,-38.56,2.19,264.21,-78.27,-172.31
6667,52.39913,-1.589862,165.96,6.19,3,349.56,25 / 26,480309,2019-09-08 12:14:59:548,-0.1186,-1.0754,10.3618,-0.0218,-0.0051,9.8066,0.0133,-0.3182,0.0978,-27.0,-38.56,1.88,264.27,-78.43,-173.03
6668,52.39913,-1.589862,165.96,6.19,3,349.56,25 / 26,480411,2019-09-08 12:14:59:650,-0.8955,-1.3638,10.1883,-0.0411,-0.0089,9.8065,0.0895,-0.3142,0.2169,-26.69,-38.37,2.56,267.95,-78.68,-172.18
6669,52.39913,-1.589862,165.96,6.19,3,349.56,25 / 26,480510,2019-09-08 12:14:59:749,-0.0406,-1.0536,10.0954,-0.0032,0.0134,9.8066,0.1019,-0.2799,0.1821,-28.5,-38.37,2.63,268.98,-78.63,-171.41
6670,52.39913,-1.589862,165.96,6.19,3,349.56,25 / 26,480610,2019-09-08 12:14:59:849,-1.7861,-2.6327,9.771,0.0169,0.0045,9.8066,0.1187,-0.1952,0.0797,-28.81,-38.69,2.63,268.27,-78.57,-171.99
6671,52.39913,-1.589862,165.96,6.19,3,349.56,24 / 25,480710,2019-09-08 12:14:59:949,-1.1761,0.213,8.9267,-0.0198,0.0142,9.8066,-0.1093,-0.2567,0.0595,-28.5,-38.37,2.5,267.33,-78.57,-173.03
6672,52.39913,-1.589862,165.96,6.19,3,349.56,24 / 25,480810,2019-09-08 12:15:00:049,-3.2989,0.1351,7.8631,-0.0093,0.0084,9.8066,-0.2624,-0.2399,-0.0178,-28.87,-38.5,3.13,267.03,-78.6,-173.73
6673,52.39913,-1.589862,165.96,6.19,3,349.56,24 / 25,480910,2019-09-08 12:15:00:149,-0.4413,-1.5901,10.4746,-0.0544,-0.0071,9.8064,0.2922,-0.2387,-0.0193,-30.06,-38.5,3.13,266.93,-78.56,-174.1
6674,52.39913,-1.589862,165.96,6.19,3,349.56,24 / 25,481010,2019-09-08 12:15:00:249,1.6708,1.0318,9.8082,-0.0613,-0.014,9.8064,0.2621,-0.1334,-0.1285,-29.5,-38.31,2.94,267.1,-78.9,-174.07
6675,52.39913,-1.589862,165.96,6.19,3,349.56,24 / 25,481110,2019-09-08 12:15:00:349,0.757,-1.7173,10.1774,0.0475,-0.0062,9.8065,-0.1261,-0.1677,0.0393,-29.87,-38.44,4.19,268.14,-78.6,-174.84
6676,52.39913,-1.589862,165.96,6.19,3,349.56,24 / 25,481209,2019-09-08 12:15:00:448,-1.403,-0.8117,9.8007,0.0329,0.006,9.8065,-0.0592,-0.2302,0.074,-30.19,-38.19,3.94,268.04,-78.66,-175.03
6677,52.39913,-1.589862,165.96,6.19,3,349.56,24 / 25,481309,2019-09-08 12:15:00:548,-1.0457,-1.2418,9.8919,-0.0142,0.0055,9.8066,0.0323,-0.2322,0.1141,-31.19,-37.94,3.56,267.83,-78.66,-175.46
6678,52.39913,-1.589862,165.96,6.19,3,349.56,24 / 25,481410,2019-09-08 12:15:00:649,0.6766,-1.4714,8.9826,-0.0045,-0.0041,9.8066,-0.0101,-0.1887,0.1249,-30.62,-38.12,4.69,269.6,-78.71,-175.59
6679,52.39913,-1.589862,165.96,6.19,3,349.56,24 / 25,481510,2019-09-08 12:15:00:749,0.4541,-1.4074,10.096,-0.0228,-0.0084,9.8066,0.1706,-0.3087,0.0061,-31.44,-38.06,4.88,269.67,-78.66,-175.45
6680,52.39913,-1.589862,165.96,6.19,3,349.56,24 / 25,481610,2019-09-08 12:15:00:849,-0.726,-1.8216,9.2495,-0.0295,-0.0025,9.8066,0.0986,-0.3389,-0.0739,-31.37,-38.19,4.81,270.34,-78.83,-174.99
6681,52.39913,-1.589862,165.96,6.19,3,349.56,24 / 25,481710,2019-09-08 12:15:00:949,-1.1818,-0.7408,10.6884,0.0215,-0.0079,9.8066,0.104,-0.1696,0.035,-31.44,-37.5,5.56,271.34,-78.8,-176.17
6682,52.39913,-1.589862,165.96,6.19,3,349.56,24 / 25,481809,2019-09-08 12:15:01:048,0.5244,-2.1389,10.1831,0.0068,-0.0278,9.8066,-0.2917,-0.2629,-0.0199,-31.69,-37.87,6.38,271.66,-78.95,-175.75
6683,52.39913,-1.589862,165.96,6.19,3,349.56,24 / 25,481910,2019-09-08 12:15:01:149,-1.6515,-0.2292,9.4757,0.0073,-0.0012,9.8065,-0.2913,-0.2584,0.0291,-31.81,-37.75,5.56,272.82,-78.99,-174.63
6684,52.39913,-1.589862,165.96,6.19,3,349.56,24 / 25,482010,2019-09-08 12:15:01:249,0.3294,-2.083,10.6921,-0.0078,0.0235,9.8066,0.1765,-0.2782,0.0283,-33.06,-37.06,6.06,273.32,-79.07,-174.65
6685,52.39913,-1.589862,165.96,6.19,3,349.56,24 / 25,482110,2019-09-08 12:15:01:349,0.2334,0.5036,10.8881,0.0185,-0.014,9.8065,0.1401,-0.1556,-0.0601,-32.56,-37.62,6.94,274.62,-78.99,-174.66
6686,52.39913,-1.589862,165.96,6.19,3,349.56,24 / 25,482210,2019-09-08 12:15:01:449,-2.496,-2.0684,9.1994,-0.0193,-0.0032,9.8066,-0.114,-0.2118,0.1059,-32.94,-37.81,6.69,273.85,-78.95,-175.37
6687,52.39913,-1.589862,165.96,6.19,3,349.56,24 / 25,482310,2019-09-08 12:15:01:549,-2.2491,-0.5417,9.0345,-0.0411,-0.0161,9.8065,-0.1294,-0.1492,0.0509,-33.31,-36.75,6.94,274.83,-79.07,-174.88
6688,52.39913,-1.589862,165.96,6.19,3,349.56,24 / 25,482410,2019-09-08 12:15:01:649,0.454,-1.1375,10.1844,0.0303,-0.0045,9.8065,0.1852,-0.2413,0.0569,-33.12,-36.31,7.63,276.97,-79.02,-174.74
6689,52.39913,-1.589862,165.96,6.19,3,349.56,24 / 25,482510,2019-09-08 12:15:01:749,0.5112,-2.1902,9.9223,0.0263,0.0026,9.8065,0.1895,-0.1675,-0.0798,-33.56,-37.12,7.94,276.21,-78.81,-174.9
6690,52.39913,-1.589862,165.96,6.19,3,349.56,24 / 25,482610,2019-09-08 12:15:01:849,-1.2891,-1.8388,9.2907,-0.0045,0.0162,9.8066,-0.1921,-0.2826,0.037,-33.81,-37.5,7.88,275.09,-78.87,-176.07
6691,52.39913,-1.589862,165.96,6.19,3,349.56,26 / 26,482709,2019-09-08 12:15:01:948,-1.9421,-0.1884,8.6318,-0.0127,0.0049,9.8066,-0.1589,-0.1989,-0.0733,-34.06,-37.25,8.63,276.18,-78.94,-176.73
6692,52.39913,-1.589862,165.96,6.19,3,349.56,26 / 26,482810,2019-09-08 12:15:02:049,-1.4296,-1.2594,9.0888,-0.0156,0.001,9.8066,0.179,-0.2081,-0.0233,-34.06,-37.56,9.25,275.49,-78.91,-177.08
6693,52.39913,-1.589862,165.96,6.19,3,349.56,26 / 26,482910,2019-09-08 12:15:02:149,-0.4057,-2.8261,10.2562,-0.0012,0.0245,9.8066,0.0834,-0.3339,0.1779,-34.25,-37.62,9.0,274.83,-78.95,-177.77
6694,52.39913,-1.589862,165.96,6.19,3,349.56,26 / 26,483010,2019-09-08 12:15:02:249,-1.3324,-0.8277,9.7976,-0.0126,0.0144,9.8066,0.0277,-0.2645,-0.0333,-34.19,-37.12,10.0,277.06,-78.96,-177.54
6695,52.39913,-1.589862,165.96,6.19,3,349.56,26 / 26,483110,2019-09-08 12:15:02:349,-0.0846,-1.6913,10.8696,-0.0228,-0.0019,9.8066,0.1987,-0.2607,-0.1965,-34.5,-37.31,10.0,276.83,-79.11,-177.93
6696,52.39913,-1.589862,165.96,6.19,3,349.56,26 / 26,483210,2019-09-08 12:15:02:449,-1.586,-0.8162,10.738,0.0417,0.0111,9.8065,-0.1528,-0.2867,0.0112,-34.5,-37.62,9.94,274.81,-78.94,-179.44
6697,52.39913,-1.589862,165.96,6.19,3,349.56,26 / 26,483310,2019-09-08 12:15:02:549,-0.7142,-1.0712,9.3622,0.0342,0.0071,9.8065,-0.1689,-0.2253,0.039,-34.69,-36.75,9.81,274.54,-78.96,-179.93
6698,52.39913,-1.589862,165.96,6.19,3,349.56,26 / 26,483410,2019-09-08 12:15:02:649,-2.6032,-0.969,9.8862,-0.0289,0.0023,9.8065,0.0878,-0.2967,0.012,-34.81,-37.12,11.19,275.77,-78.99,179.69
6699,52.39913,-1.589862,165.96,6.19,3,349.56,26 / 26,483510,2019-09-08 12:15:02:749,-0.6342,-1.711,10.3229,-0.0279,0.0094,9.8065,0.1228,-0.3144,-0.0655,-35.44,-36.69,11.44,275.6,-79.14,179.35
6700,52.39913,-1.589862,165.96,6.19,3,349.56,26 / 26,483610,2019-09-08 12:15:02:849,-0.5825,-0.6437,10.2623,0.0228,0.0159,9.8066,-0.0514,-0.1981,-0.0242,-34.81,-37.44,12.31,276.81,-79.08,179.05
6701,52.39913,-1.589862,165.96,6.19,3,349.56,25 / 27,483710,2019-09-08 12:15:02:949,-1.0341,-0.7548,9.5101,0.0136,0.0071,9.8066,-0.0898,-0.2336,-0.0056,-35.25,-36.69,11.81,275.87,-78.99,178.21
6702,52.39913,-1.589862,165.96,6.19,3,349.56,25 / 27,483809,2019-09-08 12:15:03:048,-1.0292,-0.5302,9.5309,-0.0317,0.0089,9.8065,0.0648,-0.1899,-0.0395,-35.31,-36.44,12.94,277.43,-79.21,177.68
6703,52.39913,-1.589862,165.96,6.19,3,349.56,25 / 27,483910,2019-09-08 12:15:03:149,-1.5779,-0.9384,10.1394,-0.0185,0.0051,9.8066,-0.0274,-0.255,0.0334,-35.62,-36.5,12.56,276.93,-79.26,177.4
6704,52.39913,-1.589862,165.96,6.19,3,349.56,25 / 27,484010,2019-09-08 12:15:03:249,-0.2347,0.1245,9.7878,0.0182,-0.0013,9.8066,-0.0496,-0.1518,-0.1031,-35.0,-37.25,12.75,277.28,-79.4,177.63
6705,52.39913,-1.589862,165.96,6.19,3,349.56,25 / 27,484110,2019-09-08 12:15:03:349,0.5191,-1.6098,9.6729,-0.005,0.0069,9.8066,0.1015,-0.2781,-0.0574,-35.62,-36.19,13.0,276.73,-79.44,177.01
6706,52.39913,-1.589862,165.96,6.19,3,349.56,25 / 27,484210,2019-09-08 12:15:03:449,-2.877,-0.3644,9.4245,-0.0212,0.0051,9.8066,0.0254,-0.1653,0.0249,-36.0,-36.94,13.44,275.91,-79.52,176.4
6707,52.39913,-1.589862,165.96,6.19,3,349.56,25 / 27,484310,2019-09-08 12:15:03:549,-1.0043,-1.2973,9.9836,-0.0272,0.0065,9.8066,0.0787,-0.2036,0.1092,-35.44,-36.56,13.94,277.57,-79.67,176.11
6708,52.39913,-1.589862,165.96,6.19,3,349.56,25 / 27,484410,2019-09-08 12:15:03:649,-1.6602,-1.0711,9.3917,0.0193,-0.0184,9.8065,-0.0871,-0.2008,0.132,-36.12,-36.56,13.81,277.77,-79.42,176.86
6709,52.39913,-1.589862,165.96,6.19,3,349.56,25 / 27,484510,2019-09-08 12:15:03:749,-2.0442,-0.9144,9.1595,0.0503,-0.0128,9.8065,-0.2758,-0.1928,-0.0179,-35.56,-36.0,14.44,278.74,-79.43,177.53
6710,52.39913,-1.589862,165.96,6.19,3,349.56,25 / 27,484610,2019-09-08 12:15:03:849,-0.7907,-0.6702,11.0808,-0.0397,0.0123,9.8065,0.1993,-0.1811,-0.0404,-36.0,-36.31,15.0,280.09,-79.45,177.38
6711,52.399475,-1.589584,167.56,4.84,3,82.92,25 / 26,484711,2019-09-08 12:15:03:950,-1.7841,0.6742,9.3396,-0.063,0.024,9.8064,0.314,-0.12,0.0024,-36.06,-36.44,14.75,279.13,-79.31,176.58
6712,52.399475,-1.589584,167.56,4.84,3,82.92,25 / 26,484810,2019-09-08 12:15:04:049,0.251,0.9286,10.1282,0.0504,-0.005,9.8065,-0.1771,-0.0999,0.0729,-35.56,-36.62,15.44,277.92,-79.55,175.4
6713,52.399475,-1.589584,167.56,4.84,3,82.92,25 / 26,484913,2019-09-08 12:15:04:152,-0.3188,1.8639,8.9154,0.0513,-0.0017,9.8064,-0.1215,0.0434,-0.0315,-36.19,-36.37,15.0,277.9,-79.24,175.42
6714,52.399475,-1.589584,167.56,4.84,3,82.92,25 / 26,485010,2019-09-08 12:15:04:249,-0.7337,-0.6439,9.1007,-0.0179,-0.0027,9.8065,-0.1104,-0.0437,0.1493,-36.06,-36.75,15.31,277.49,-79.33,175.21
6715,52.399475,-1.589584,167.56,4.84,3,82.92,25 / 26,485109,2019-09-08 12:15:04:348,-1.6796,1.9588,9.7522,0.0081,-0.0193,9.8066,-0.2817,0.0734,-0.0558,-35.94,-36.5,15.25,278.61,-79.33,176.03
6716,52.399475,-1.589584,167.56,4.84,3,82.92,25 / 26,485210,2019-09-08 12:15:04:449,-1.9481,0.2769,9.2877,-0.0447,0.0019,9.8065,0.0416,-0.0369,0.0109,-35.5,-36.12,15.69,280.56,-79.57,175.9
6717,52.399475,-1.589584,167.56,4.84,3,82.92,25 / 26,485310,2019-09-08 12:15:04:549,-0.3231,0.7828,10.3175,-0.0387,0.0018,9.8065,-0.05,0.0262,-0.0311,-36.44,-35.87,15.63,280.54,-79.56,176.27
6718,52.399475,-1.589584,167.56,4.84,3,82.92,25 / 26,485412,2019-09-08 12:15:04:651,-0.5616,-0.6338,9.7878,0.0441,-0.0053,9.8065,0.0514,-0.0803,0.033,-36.37,-36.37,15.0,279.09,-79.58,176.26
6719,52.399475,-1.589584,167.56,4.84,3,82.92,25 / 26,485510,2019-09-08 12:15:04:749,-0.0162,1.7584,9.2441,0.0256,-0.0229,9.8065,-0.0587,-0.0734,0.1418,-36.44,-36.75,15.31,279.03,-79.43,176.63
6720,52.399475,-1.589584,167.56,4.84,3,82.92,25 / 26,485610,2019-09-08 12:15:04:849,-0.2536,1.0425,10.0197,-0.004,-0.0127,9.8066,0.0016,0.0331,0.0026,-35.87,-36.0,15.19,279.47,-79.44,176.78
6721,52.399475,-1.589584,167.56,4.84,3,82.92,26 / 27,485710,2019-09-08 12:15:04:949,-0.1427,-0.1872,9.7924,-0.0073,-0.0022,9.8066,-0.0714,0.0499,0.0102,-36.06,-36.37,15.31,280.28,-79.46,177.56
6722,52.399475,-1.589584,167.56,4.84,3,82.92,26 / 27,485810,2019-09-08 12:15:05:049,0.151,-0.2506,9.8391,0.0093,-0.0039,9.8066,-0.041,0.0111,0.0524,-36.62,-36.19,15.38,280.29,-79.41,177.94
6723,52.399475,-1.589584,167.56,4.84,3,82.92,26 / 27,485910,2019-09-08 12:15:05:149,-0.185,-0.6372,9.9397,-0.0093,0.0011,9.8066,0.085,-0.0595,0.0596,-36.0,-36.94,15.63,281.64,-79.47,177.71
6724,52.399475,-1.589584,167.56,4.84,3,82.92,26 / 27,486010,2019-09-08 12:15:05:249,-0.4561,0.4768,9.4371,-0.0041,-0.0062,9.8066,0.081,0.0055,0.0118,-35.62,-36.25,15.19,280.45,-79.43,177.75
6725,52.399475,-1.589584,167.56,4.84,3,82.92,26 / 27,486110,2019-09-08 12:15:05:349,1.635,-0.2729,10.2048,-0.026,0.0066,9.8066,-0.1171,0.0129,-0.0153,-36.0,-36.19,15.63,282.31,-79.53,178.03
6726,52.399475,-1.589584,167.56,4.84,3,82.92,26 / 27,486210,2019-09-08 12:15:05:449,-1.1428,0.1551,8.9377,0.018,-0.0173,9.8066,-0.1031,-0.0387,0.0123,-36.0,-36.87,14.5,280.66,-79.41,178.26
6727,52.399475,-1.589584,167.56,4.84,3,82.92,26 / 27,486310,2019-09-08 12:15:05:549,-1.7233,0.3318,9.6099,0.0228,-0.0099,9.8065,0.1061,-0.0377,0.0258,-36.37,-36.44,14.06,280.02,-79.28,178.94
6728,52.399475,-1.589584,167.56,4.84,3,82.92,26 / 27,486410,2019-09-08 12:15:05:649,0.5953,-0.6013,9.7234,-0.0053,-0.0124,9.8066,0.1148,0.0016,0.0552,-35.56,-36.25,15.44,282.75,-79.38,-179.95
6729,52.399475,-1.589584,167.56,4.84,3,82.92,26 / 27,486510,2019-09-08 12:15:05:749,1.412,-0.5866,9.5946,0.0121,0.0006,9.8066,-0.0312,0.0307,0.0155,-37.0,-36.31,15.56,283.99,-79.36,-179.8
6730,52.399475,-1.589584,167.56,4.84,3,82.92,26 / 27,486612,2019-09-08 12:15:05:851,-1.1273,-0.0987,8.8912,-0.0108,0.0089,9.8066,-0.1189,-0.0582,0.0034,-36.56,-36.87,14.63,281.6,-79.45,179.45
6731,52.399475,-1.589584,167.56,4.84,3,82.92,25 / 26,486710,2019-09-08 12:15:05:949,0.5271,0.4464,9.4674,-0.0173,-0.0049,9.8066,0.0741,-0.0365,0.0102,-36.12,-36.12,14.56,282.23,-79.54,179.39
6732,52.399475,-1.589584,167.56,4.84,3,82.92,25 / 26,486810,2019-09-08 12:15:06:049,0.7923,-0.1291,10.1057,-0.0205,-0.0117,9.8065,0.0337,-0.0258,-0.0349,-36.0,-35.94,14.5,282.23,-79.52,179.41
6733,52.399475,-1.589584,167.56,4.84,3,82.92,25 / 26,486910,2019-09-08 12:15:06:149,-0.7317,-1.1332,10.2843,-0.0243,0.0047,9.8066,-0.0622,-0.0003,-0.0722,-36.81,-36.12,14.88,283.02,-79.66,-179.63
6734,52.399475,-1.589584,167.56,4.84,3,82.92,25 / 26,487009,2019-09-08 12:15:06:248,-0.1381,0.2442,10.6719,0.0276,0.0014,9.8065,0.0449,0.0279,-0.0338,-37.5,-36.5,14.25,281.61,-79.51,-179.43
6735,52.399475,-1.589584,167.56,4.84,3,82.92,25 / 26,487110,2019-09-08 12:15:06:349,-1.0515,0.7614,9.2857,0.0314,0.0021,9.8065,-0.1595,0.0133,-0.0233,-37.25,-36.37,14.75,282.79,-79.48,-179.67
6736,52.399475,-1.589584,167.56,4.84,3,82.92,25 / 26,487210,2019-09-08 12:15:06:449,-1.684,0.2347,9.611,-0.0428,0.0089,9.8065,-0.1865,0.0058,0.1248,-37.87,-35.56,14.38,280.68,-79.43,-179.99
6737,52.399475,-1.589584,167.56,4.84,3,82.92,25 / 26,487310,2019-09-08 12:15:06:549,-0.3252,0.2984,9.6684,-0.0442,0.0038,9.8065,0.0665,0.0584,0.0089,-37.81,-35.37,15.81,283.92,-79.73,179.88
6738,52.399475,-1.589584,167.56,4.84,3,82.92,25 / 26,487410,2019-09-08 12:15:06:649,-0.1614,-0.5327,9.4728,0.0176,-0.0207,9.8066,0.0039,-0.0116,0.068,-37.44,-35.81,16.25,284.69,-79.73,-179.47
6739,52.399475,-1.589584,167.56,4.84,3,82.92,25 / 26,487510,2019-09-08 12:15:06:749,0.0754,-1.3613,9.6183,0.0162,0.0019,9.8066,-0.0381,-0.0223,0.0345,-37.5,-35.0,15.63,285.02,-79.57,-179.25
6740,52.399475,-1.589584,167.56,4.84,3,82.92,25 / 26,487610,2019-09-08 12:15:06:849,-1.2523,1.0696,9.9436,-0.0313,0.0189,9.8065,-0.0652,0.02,-0.021,-36.19,-34.44,15.88,286.28,-79.68,-178.77
6741,52.399475,-1.589584,167.56,4.84,3,82.92,27 / 27,487710,2019-09-08 12:15:06:949,-1.4598,0.7811,9.7063,-0.0497,0.0134,9.8064,0.0841,-0.1476,0.0431,-36.5,-35.25,16.63,287.46,-79.8,-178.89
6742,52.399475,-1.589584,167.56,4.84,3,82.92,27 / 27,487810,2019-09-08 12:15:07:049,0.6988,0.7734,10.8429,0.0988,-0.0504,9.806,0.1507,-0.0317,-0.0402,-36.31,-35.0,16.56,286.59,-79.91,-179.83
6743,52.399475,-1.589584,167.56,4.84,3,82.92,27 / 27,487910,2019-09-08 12:15:07:149,0.3846,-1.2657,9.0198,0.0374,0.0034,9.8065,-0.1983,-0.0247,-0.1074,-35.62,-35.5,15.69,285.35,-79.5,-179.24
6744,52.399475,-1.589584,167.56,4.84,3,82.92,27 / 27,488010,2019-09-08 12:15:07:249,-0.5345,0.2555,9.4524,-0.0385,0.0001,9.8065,-0.0645,0.0121,-0.0641,-36.19,-35.75,16.44,285.21,-79.43,-179.04
6745,52.399475,-1.589584,167.56,4.84,3,82.92,27 / 27,488110,2019-09-08 12:15:07:349,0.8531,-1.6945,10.4407,-0.0223,0.0064,9.8066,0.1485,-0.0217,0.0746,-36.25,-35.94,15.31,284.19,-79.57,-178.73
6746,52.399475,-1.589584,167.56,4.84,3,82.92,27 / 27,488210,2019-09-08 12:15:07:449,-2.8281,-1.5003,11.0765,0.0235,-0.0011,9.8065,0.1356,-0.0459,0.0507,-36.25,-35.87,16.19,285.35,-79.47,-178.94
6747,52.399475,-1.589584,167.56,4.84,3,82.92,27 / 27,488310,2019-09-08 12:15:07:549,-1.6876,0.0958,9.5437,-0.0361,0.0016,9.8065,-0.0701,0.0009,-0.1831,-35.12,-35.37,15.25,284.3,-79.73,-179.39
6748,52.399475,-1.589584,167.56,4.84,3,82.92,27 / 27,488410,2019-09-08 12:15:07:649,-0.3498,0.2098,9.7466,0.0481,-0.0174,9.8064,0.0179,-0.1317,0.0177,-35.75,-35.62,15.31,283.63,-79.85,-179.55
6749,52.399475,-1.589584,167.56,4.84,3,82.92,27 / 27,488510,2019-09-08 12:15:07:749,-0.4266,-0.7713,9.4483,0.03,-0.0214,9.8065,-0.178,-0.0536,0.0393,-35.94,-35.69,14.88,283.85,-79.63,-179.12
6750,52.399475,-1.589584,167.56,4.84,3,82.92,27 / 27,488610,2019-09-08 12:15:07:849,-1.655,0.1433,9.9103,-0.0054,0.0007,9.8066,0.0177,-0.0193,0.0237,-36.44,-35.25,15.0,284.37,-79.7,-178.94
6751,52.399475,-1.589584,167.56,4.84,3,82.92,27 / 28,488710,2019-09-08 12:15:07:949,0.8329,0.0031,9.6629,-0.0067,0.0132,9.8066,0.0565,0.0418,-0.0437,-36.19,-35.37,15.75,285.22,-79.77,-179.62
6752,52.399475,-1.589584,167.56,4.84,3,82.92,27 / 28,488810,2019-09-08 12:15:08:049,-1.3328,1.818,9.7214,0.0059,0.0037,9.8066,0.0196,0.0332,0.0136,-36.06,-35.81,16.0,284.1,-79.75,179.56
6753,52.399475,-1.589584,167.56,4.84,3,82.92,27 / 28,488910,2019-09-08 12:15:08:149,-1.4012,0.5844,10.28,0.0078,0.0013,9.8066,0.0824,0.0453,0.0092,-36.0,-35.5,15.88,284.48,-79.7,179.73
6754,52.399475,-1.589584,167.56,4.84,3,82.92,27 / 28,489010,2019-09-08 12:15:08:249,-1.0565,0.3382,10.2173,0.0029,-0.0201,9.8066,0.0291,-0.0293,0.1764,-35.56,-34.94,16.25,285.25,-79.81,-179.63
6755,52.399475,-1.589584,167.56,4.84,3,82.92,27 / 28,489110,2019-09-08 12:15:08:349,-0.6788,1.4551,10.0505,0.0039,-0.0001,9.8066,0.1273,-0.036,-0.0047,-34.56,-34.5,16.63,287.9,-79.8,-179.15
6756,52.399475,-1.589584,167.56,4.84,3,82.92,27 / 28,489210,2019-09-08 12:15:08:449,0.0422,0.4638,9.6119,0.0064,0.0038,9.8066,0.0061,-0.0487,-0.0416,-35.19,-34.56,15.88,285.16,-79.86,179.84
6757,52.399475,-1.589584,167.56,4.84,3,82.92,27 / 28,489310,2019-09-08 12:15:08:549,-1.7569,0.4818,9.8152,-0.0244,0.0003,9.8065,0.1261,-0.0239,-0.038,-34.56,-34.62,15.13,283.53,-79.88,179.71
6758,52.399475,-1.589584,167.56,4.84,3,82.92,27 / 28,489410,2019-09-08 12:15:08:649,0.0093,1.5663,9.7152,-0.0332,-0.0206,9.8065,0.0685,0.0211,0.0391,-33.94,-34.19,14.81,284.18,-79.97,179.6
6759,52.399475,-1.589584,167.56,4.84,3,82.92,27 / 28,489510,2019-09-08 12:15:08:749,1.116,0.3407,10.3731,0.0155,0.0355,9.8065,-0.1922,-0.1359,0.1152,-35.25,-34.44,15.44,282.18,-79.85,178.15
6760,52.399475,-1.589584,167.56,4.84,3,82.92,27 / 28,489609,2019-09-08 12:15:08:848,-1.1257,-2.4328,10.372,-0.0351,-0.0047,9.8065,-0.2095,0.2057,-0.1002,-35.56,-35.0,15.06,282.44,-79.71,179.17
6761,52.399475,-1.589584,167.56,4.84,3,82.92,24 / 28,489710,2019-09-08 12:15:08:949,-0.4974,0.8685,9.9147,-0.0209,0.0118,9.8066,0.1934,0.0115,-0.0058,-35.37,-35.5,15.19,283.55,-79.83,179.78
6762,52.399475,-1.589584,167.56,4.84,3,82.92,24 / 28,489810,2019-09-08 12:15:09:049,0.3885,0.105,10.1835,0.0328,-0.0101,9.8065,0.1016,-0.0135,0.0688,-34.81,-34.37,14.0,282.91,-79.92,-179.71
6763,52.399475,-1.589584,167.56,4.84,3,82.92,24 / 28,489910,2019-09-08 12:15:09:149,-0.4221,1.0872,7.8179,0.0659,0.02,9.8064,-0.0696,0.1292,-0.309,-35.25,-35.31,13.94,281.35,-79.6,179.35
6764,52.399475,-1.589584,167.56,4.84,3,82.92,24 / 28,490010,2019-09-08 12:15:09:249,-0.4622,2.5821,10.1561,-0.0241,0.0457,9.8065,0.0135,0.0586,-0.1985,-35.19,-35.62,14.0,277.71,-79.98,175.65
6765,52.399475,-1.589584,167.56,4.84,3,82.92,24 / 28,490110,2019-09-08 12:15:09:349,-1.6213,2.5764,10.3977,-0.0253,-0.0003,9.8065,0.0551,0.0322,0.0858,-35.56,-35.19,13.56,277.71,-80.04,175.65
6766,52.399475,-1.589584,167.56,4.84,3,82.92,24 / 28,490210,2019-09-08 12:15:09:449,-1.1924,0.0296,9.3129,0.0174,-0.0422,9.8065,0.0331,-0.0276,0.114,-36.56,-34.81,13.38,278.95,-80.1,178.57
6767,52.399475,-1.589584,167.56,4.84,3,82.92,24 / 28,490310,2019-09-08 12:15:09:549,-0.1211,-0.9761,9.2731,0.0157,-0.0375,9.8065,-0.0747,0.0011,0.0435,-38.37,-35.12,15.06,284.96,-79.88,-177.87
6768,52.399475,-1.589584,167.56,4.84,3,82.92,24 / 28,490410,2019-09-08 12:15:09:649,-1.7437,-0.5216,9.4172,-0.0206,0.0202,9.8065,-0.0761,-0.018,-0.0428,-38.37,-35.69,15.44,286.1,-79.86,-176.5
6769,52.399475,-1.589584,167.56,4.84,3,82.92,24 / 28,490510,2019-09-08 12:15:09:749,0.6514,1.4436,10.2712,0.0085,0.047,9.8064,0.1036,0.1217,-0.11,-37.25,-36.25,15.44,283.05,-79.79,-179.72
6770,52.399475,-1.589584,167.56,4.84,3,82.92,24 / 28,490610,2019-09-08 12:15:09:849,1.0883,1.7925,10.8575,0.0625,0.0108,9.8064,0.2791,0.0414,-0.0429,-36.69,-35.25,15.88,281.19,-79.35,177.21
6771,52.399475,-1.589584,167.56,4.84,3,82.92,24 / 28,490710,2019-09-08 12:15:09:949,-0.5355,-0.1882,11.0349,0.0427,-0.025,9.8064,-0.1654,-0.0417,0.0927,-36.87,-36.5,16.81,283.31,-79.61,177.92
6772,52.399475,-1.589584,167.56,4.84,3,82.92,28 / 29,490810,2019-09-08 12:15:10:049,-1.2064,0.6309,9.2995,-0.0783,-0.0147,9.8062,0.0746,0.0556,0.0295,-36.69,-36.5,16.88,285.26,-79.73,179.7
6773,52.399475,-1.589584,167.56,4.84,3,82.92,28 / 29,490910,2019-09-08 12:15:10:149,-0.3962,0.1618,9.5602,-0.055,-0.0145,9.8064,0.1317,0.0286,-0.0042,-36.62,-36.06,16.44,287.19,-80.13,-177.43
6774,52.399475,-1.589584,167.56,4.84,3,82.92,28 / 29,491010,2019-09-08 12:15:10:249,-0.0646,-0.2205,10.028,0.0472,-0.0122,9.8065,-0.0731,-0.0295,-0.0137,-36.75,-35.62,16.25,287.58,-80.07,-176.99
6775,52.399475,-1.589584,167.56,4.84,3,82.92,28 / 29,491110,2019-09-08 12:15:10:349,-0.3725,0.6497,9.8053,0.0348,0.0144,9.8065,-0.0742,-0.0485,0.1054,-36.19,-35.25,16.19,286.86,-79.76,-178.02
6776,52.399475,-1.589584,167.56,4.84,3,82.92,28 / 29,491210,2019-09-08 12:15:10:449,-0.7549,0.7922,9.3481,-0.0275,0.0245,9.8066,0.053,-0.0387,0.0486,-36.06,-36.37,15.94,285.8,-79.94,-178.97
6777,52.399475,-1.589584,167.56,4.84,3,82.92,28 / 29,491310,2019-09-08 12:15:10:549,-0.8316,0.8452,9.6836,-0.031,0.0031,9.8065,0.0682,-0.0121,-0.0767,-35.81,-35.69,15.5,285.71,-79.99,-179.1
6778,52.399475,-1.589584,167.56,4.84,3,82.92,28 / 29,491410,2019-09-08 12:15:10:649,-0.7068,0.0603,9.5725,0.0209,-0.0052,9.8066,-0.0189,-0.0536,0.0489,-35.81,-36.37,15.94,285.49,-80.1,-179.42
6779,52.399475,-1.589584,167.56,4.84,3,82.92,28 / 29,491510,2019-09-08 12:15:10:749,-0.2747,-1.5991,8.7478,0.0188,-0.0174,9.8065,0.0294,-0.0951,0.065,-36.0,-37.0,16.5,287.16,-79.98,-178.85
6780,52.399475,-1.589584,167.56,4.84,3,82.92,28 / 29,491610,2019-09-08 12:15:10:849,-1.0078,0.6016,9.7246,-0.0272,-0.0113,9.8065,0.1597,-0.0138,0.0596,-36.5,-36.25,16.06,286.29,-79.91,-178.46
6781,52.399475,-1.589584,167.56,4.84,3,82.92,27 / 29,491711,2019-09-08 12:15:10:950,-0.4966,0.3478,10.0222,0.0064,-0.0065,9.8066,0.0249,0.01,0.0033,-36.19,-36.0,15.69,287.93,-80.03,-177.0
6782,52.399475,-1.589584,167.56,4.84,3,82.92,27 / 29,491810,2019-09-08 12:15:11:049,-0.9672,-0.1069,10.2161,0.0125,-0.0124,9.8066,-0.1303,0.036,-0.0668,-35.94,-36.56,15.81,287.8,-80.18,-177.03
6783,52.399475,-1.589584,167.56,4.84,3,82.92,27 / 29,491910,2019-09-08 12:15:11:149,-1.3941,0.514,10.2682,0.0132,0.0009,9.8066,-0.1499,-0.0125,-0.0291,-36.06,-35.56,16.0,287.85,-80.11,-177.15
6784,52.399475,-1.589584,167.56,4.84,3,82.92,27 / 29,492010,2019-09-08 12:15:11:249,-0.5346,0.9136,10.2712,-0.0194,0.0126,9.8066,0.0107,-0.0134,-0.0319,-35.75,-35.94,15.38,285.5,-80.05,-177.92
6785,52.399475,-1.589584,167.56,4.84,3,82.92,27 / 29,492110,2019-09-08 12:15:11:349,-0.5042,0.2358,10.4495,-0.0282,0.0039,9.8066,-0.0351,-0.0202,0.0152,-36.37,-35.75,16.0,287.09,-80.22,-177.98
6786,52.399475,-1.589584,167.56,4.84,3,82.92,27 / 29,492210,2019-09-08 12:15:11:449,0.2737,0.2768,10.6017,0.0457,-0.0272,9.8064,-0.1364,0.0059,0.0144,-36.06,-35.75,15.75,287.29,-80.09,-177.67
6787,52.399475,-1.589584,167.56,4.84,3,82.92,27 / 29,492310,2019-09-08 12:15:11:549,-0.9517,0.3703,9.58,0.0449,-0.0157,9.8065,-0.0399,-0.0274,0.0017,-35.75,-35.19,15.5,288.18,-80.16,-177.13
6788,52.399475,-1.589584,167.56,4.84,3,82.92,27 / 29,492410,2019-09-08 12:15:11:649,-0.6665,-0.0429,9.6361,-0.0137,0.0,9.8065,-0.0491,-0.036,0.0668,-36.12,-35.69,16.94,289.73,-80.18,-176.82
6789,52.399475,-1.589584,167.56,4.84,3,82.92,27 / 29,492510,2019-09-08 12:15:11:749,-1.6744,-0.1102,9.729,-0.0057,-0.001,9.8066,-0.0859,-0.0262,0.0241,-36.75,-34.87,15.88,288.54,-80.23,-176.45
6790,52.399475,-1.589584,167.56,4.84,3,82.92,27 / 29,492610,2019-09-08 12:15:11:849,0.373,0.3034,10.5965,-0.0001,0.0069,9.8066,0.0957,-0.0419,-0.0224,-36.19,-35.19,16.44,288.71,-80.24,-176.68
6791,52.399475,-1.589584,167.56,4.84,3,82.92,25 / 26,492710,2019-09-08 12:15:11:949,1.4701,1.2519,10.2827,-0.0356,0.0069,9.8065,0.2093,0.0552,-0.1028,-35.62,-34.56,16.81,290.25,-80.35,-176.72
6792,52.399475,-1.589584,167.56,4.84,3,82.92,25 / 26,492810,2019-09-08 12:15:12:049,1.3762,-0.2288,10.1821,0.0374,-0.0235,9.8065,-0.1528,0.0089,0.021,-35.69,-34.62,16.75,289.16,-80.03,-177.46
6793,52.399475,-1.589584,167.56,4.84,3,82.92,25 / 26,492910,2019-09-08 12:15:12:149,-0.6196,-0.0004,9.6386,0.0398,-0.0156,9.8066,-0.1716,0.0023,0.0033,-35.19,-35.25,17.63,291.19,-79.98,-177.32
6794,52.399475,-1.589584,167.56,4.84,3,82.92,25 / 26,493010,2019-09-08 12:15:12:249,0.8992,-0.5708,9.6607,-0.0296,0.0081,9.8065,0.1461,-0.0292,-0.0174,-34.56,-34.56,17.19,289.89,-79.91,-177.09
6795,52.399475,-1.589584,167.56,4.84,3,82.92,25 / 26,493110,2019-09-08 12:15:12:349,1.3379,-0.6164,10.1689,-0.0236,0.0084,9.8065,0.1187,-0.0389,-0.0175,-33.12,-33.56,17.25,291.36,-79.98,-176.95
6796,52.399475,-1.589584,167.56,4.84,3,82.92,25 / 26,493210,2019-09-08 12:15:12:449,1.6018,-0.7639,10.0888,0.0436,-0.0054,9.8065,-0.0926,-0.0234,0.0029,-32.87,-33.75,16.88,290.95,-79.91,-177.27
6797,52.399475,-1.589584,167.56,4.84,3,82.92,25 / 26,493310,2019-09-08 12:15:12:549,0.9747,-0.3678,9.5593,0.0186,0.0003,9.8066,-0.1029,-0.0121,-0.0276,-33.25,-33.94,16.0,288.41,-79.64,-177.93
6798,52.399475,-1.589584,167.56,4.84,3,82.92,25 / 26,493410,2019-09-08 12:15:12:649,0.8986,0.5642,10.0359,-0.0248,0.0125,9.8065,0.0916,-0.0335,0.0137,-32.69,-34.12,15.0,286.52,-79.77,-178.35
6799,52.399475,-1.589584,167.56,4.84,3,82.92,25 / 26,493510,2019-09-08 12:15:12:749,0.6512,-0.1479,10.1939,-0.0188,0.0057,9.8066,0.1399,0.0154,0.0393,-33.69,-33.56,14.06,284.7,-79.83,-178.23
6800,52.399475,-1.589584,167.56,4.84,3,82.92,25 / 26,493610,2019-09-08 12:15:12:849,1.2771,-0.9709,9.8422,0.0126,0.0005,9.8065,-0.0722,0.0161,0.0084,-33.75,-34.81,14.19,284.85,-79.82,-177.8
6801,52.399475,-1.589584,167.56,4.84,3,82.92,26 / 26,493710,2019-09-08 12:15:12:949,0.715,-0.5794,9.7622,0.0124,0.0112,9.8066,-0.0771,0.0028,0.055,-35.37,-34.44,13.94,283.77,-79.76,-178.72
6802,52.399513,-1.588975,169.41,5.38,3,86.42,26 / 26,493810,2019-09-08 12:15:13:049,-0.1041,-0.2788,9.7076,-0.026,0.0036,9.8065,0.054,0.0205,-0.036,-35.06,-35.25,14.06,283.44,-79.94,-178.95
6803,52.399513,-1.588975,169.41,5.38,3,86.42,26 / 26,493910,2019-09-08 12:15:13:149,0.3563,-0.3521,9.7606,-0.0249,0.0098,9.8066,0.0358,-0.0514,0.0151,-35.37,-34.44,13.94,283.47,-79.99,-179.22
6804,52.399513,-1.588975,169.41,5.38,3,86.42,26 / 26,494010,2019-09-08 12:15:13:249,0.0475,0.4118,9.6617,-0.0107,0.0032,9.8066,-0.0198,-0.0365,-0.0271,-36.75,-34.37,14.0,283.03,-80.02,-179.04
6805,52.399513,-1.588975,169.41,5.38,3,86.42,26 / 26,494110,2019-09-08 12:15:13:349,-0.8147,0.0706,10.5746,-0.0259,0.013,9.8065,0.0961,-0.0486,0.0006,-38.06,-34.25,14.13,282.8,-80.19,-179.11
6806,52.399513,-1.588975,169.41,5.38,3,86.42,26 / 26,494210,2019-09-08 12:15:13:449,1.561,-0.225,10.0831,0.0402,-0.0104,9.8065,-0.1125,0.0002,0.0044,-37.37,-34.31,14.63,284.3,-80.28,-179.45
6807,52.399513,-1.588975,169.41,5.38,3,86.42,26 / 26,494310,2019-09-08 12:15:13:549,0.4863,-0.6336,10.0272,0.0254,-0.0023,9.8065,-0.053,-0.0515,0.0416,-37.06,-33.75,14.56,284.21,-80.1,-179.37
6808,52.399513,-1.588975,169.41,5.38,3,86.42,26 / 26,494410,2019-09-08 12:15:13:649,-0.3178,-0.0433,10.08,-0.0245,0.0141,9.8066,0.0488,-0.0454,0.0445,-38.0,-33.87,15.25,283.89,-80.25,-179.48
6809,52.399513,-1.588975,169.41,5.38,3,86.42,26 / 26,494510,2019-09-08 12:15:13:749,0.7918,-1.3051,9.5936,-0.0097,0.0085,9.8066,0.0568,-0.0447,-0.005,-36.5,-34.12,15.69,285.87,-80.14,-179.58
6810,52.399513,-1.588975,169.41,5.38,3,86.42,26 / 26,494610,2019-09-08 12:15:13:849,1.6721,0.8427,10.7135,0.0717,-0.0204,9.8064,-0.1444,-0.0457,0.1112,-36.44,-33.69,15.19,283.61,-80.27,179.53
6811,52.399513,-1.588975,169.41,5.38,3,86.42,25 / 27,494710,2019-09-08 12:15:13:949,-0.0547,-0.5745,8.5938,0.0884,-0.0152,9.8062,-0.2076,-0.0564,-0.0196,-36.94,-34.12,15.13,284.01,-80.38,-179.83
6812,52.399513,-1.588975,169.41,5.38,3,86.42,25 / 27,494810,2019-09-08 12:15:14:049,-1.2816,-0.4761,9.1038,-0.0647,0.0441,9.8062,0.0115,-0.041,-0.0868,-36.44,-35.62,14.0,280.58,-80.38,178.41
6813,52.399513,-1.588975,169.41,5.38,3,86.42,25 / 27,494910,2019-09-08 12:15:14:149,-0.2373,1.1914,10.1503,-0.0452,0.0238,9.8064,-0.0389,0.0097,0.021,-37.06,-34.25,14.56,280.93,-80.35,177.19
6814,52.399513,-1.588975,169.41,5.38,3,86.42,25 / 27,495010,2019-09-08 12:15:14:249,0.1032,-2.0807,10.8882,0.0435,-0.0291,9.8065,0.1396,-0.0534,0.0396,-37.81,-34.37,13.75,279.61,-80.46,177.51
6815,52.399513,-1.588975,169.41,5.38,3,86.42,25 / 27,495110,2019-09-08 12:15:14:349,1.1638,0.3864,9.4852,-0.0229,-0.0033,9.8066,0.2037,-0.0141,0.0135,-38.94,-34.56,14.44,279.84,-80.23,178.47
6816,52.399513,-1.588975,169.41,5.38,3,86.42,25 / 27,495214,2019-09-08 12:15:14:453,0.9151,-0.0073,9.4498,0.0209,0.0121,9.8065,-0.0815,0.0185,-0.0318,-39.06,-34.94,15.0,281.44,-80.08,178.82
6817,52.399513,-1.588975,169.41,5.38,3,86.42,25 / 27,495310,2019-09-08 12:15:14:549,2.0918,1.2927,9.5529,0.0123,0.0192,9.8066,-0.1013,0.0366,-0.0068,-39.12,-35.0,15.94,280.9,-79.94,177.07
6818,52.399513,-1.588975,169.41,5.38,3,86.42,25 / 27,495410,2019-09-08 12:15:14:649,1.2024,0.3575,10.3539,-0.01,0.0051,9.8066,0.0117,0.0018,0.1175,-38.19,-35.56,17.0,281.91,-80.14,176.44
6819,52.399513,-1.588975,169.41,5.38,3,86.42,25 / 27,495510,2019-09-08 12:15:14:749,0.8144,1.0885,9.8978,-0.0065,-0.0109,9.8066,-0.0158,0.076,0.0056,-38.25,-35.44,16.63,283.0,-80.29,177.14
6820,52.399513,-1.588975,169.41,5.38,3,86.42,25 / 27,495610,2019-09-08 12:15:14:849,-0.624,0.7957,9.333,-0.0325,-0.0038,9.8066,0.0615,-0.0178,-0.0184,-37.44,-35.69,17.31,283.71,-80.3,177.66
6821,52.399513,-1.588975,169.41,5.38,3,86.42,26 / 27,495710,2019-09-08 12:15:14:949,-0.1717,-0.0043,9.7476,-0.0203,0.0084,9.8066,-0.017,-0.0644,-0.0378,-37.06,-35.75,16.81,284.38,-80.38,178.25
6822,52.399513,-1.588975,169.41,5.38,3,86.42,26 / 27,495810,2019-09-08 12:15:15:049,0.4422,-0.6846,10.2626,0.0336,-0.0008,9.8065,-0.0814,-0.0611,0.0179,-36.31,-35.19,17.0,284.68,-80.1,178.14
6823,52.399513,-1.588975,169.41,5.38,3,86.42,26 / 27,495910,2019-09-08 12:15:15:149,-0.1625,1.3577,10.2247,0.0171,-0.0069,9.8065,-0.0271,0.063,-0.06,-35.94,-35.37,16.88,284.54,-80.18,177.93
6824,52.399513,-1.588975,169.41,5.38,3,86.42,26 / 27,496010,2019-09-08 12:15:15:249,-1.0259,0.8879,9.6882,-0.0114,-0.0116,9.8066,-0.0286,0.0169,0.0125,-35.69,-35.69,16.44,282.32,-80.23,177.37
6825,52.399513,-1.588975,169.41,5.38,3,86.42,26 / 27,496110,2019-09-08 12:15:15:349,0.2458,0.276,10.1245,-0.0176,0.0122,9.8066,0.0218,-0.019,0.0046,-35.19,-35.12,16.19,283.56,-80.31,177.85
6826,52.399513,-1.588975,169.41,5.38,3,86.42,26 / 27,496209,2019-09-08 12:15:15:448,-0.0337,0.5293,9.7451,0.0041,0.0056,9.8066,0.0101,-0.0488,0.0081,-35.31,-35.75,16.31,283.31,-80.27,177.9
6827,52.399513,-1.588975,169.41,5.38,3,86.42,26 / 27,496310,2019-09-08 12:15:15:549,-0.41,0.1391,9.6154,-0.0026,0.0064,9.8066,0.0176,-0.0045,0.0037,-35.31,-35.44,16.06,283.06,-80.23,177.44
6828,52.399513,-1.588975,169.41,5.38,3,86.42,26 / 27,496410,2019-09-08 12:15:15:649,-0.5642,0.8995,8.9709,0.002,-0.007,9.8066,-0.1086,-0.0272,-0.0094,-34.75,-35.44,15.44,281.63,-80.24,177.5
6829,52.399513,-1.588975,169.41,5.38,3,86.42,26 / 27,496510,2019-09-08 12:15:15:749,-1.6605,1.2618,9.4532,0.0043,0.0053,9.8066,-0.1492,-0.0206,-0.0639,-35.87,-35.94,15.94,282.47,-80.21,177.53
6830,52.399513,-1.588975,169.41,5.38,3,86.42,26 / 27,496610,2019-09-08 12:15:15:849,1.0882,-0.0109,9.7309,-0.0329,0.0096,9.8065,0.1237,-0.0013,0.009,-36.56,-35.75,15.38,280.27,-80.27,177.1
6831,52.399513,-1.588975,169.41,5.38,3,86.42,26 / 27,496710,2019-09-08 12:15:15:949,-0.7014,3.1977,7.8612,-0.0524,0.0095,9.8064,-0.1566,0.0361,-0.0027,-36.0,-35.69,16.0,282.37,-80.63,177.03
6832,52.399513,-1.588975,169.41,5.38,3,86.42,26 / 27,496810,2019-09-08 12:15:16:049,0.0247,1.8184,8.3337,-0.0597,0.0615,9.8062,0.2822,-0.2383,-0.0751,-36.25,-35.37,15.5,285.14,-80.49,179.63
6833,52.399513,-1.588975,169.41,5.38,3,86.42,26 / 27,496910,2019-09-08 12:15:16:149,1.8689,-0.2947,10.5777,-0.0837,0.0405,9.8061,0.3258,-0.1207,-0.119,-37.12,-35.56,15.69,282.83,-80.89,177.62
6834,52.399513,-1.588975,169.41,5.38,3,86.42,26 / 27,497010,2019-09-08 12:15:16:249,-1.6067,-0.5236,10.2752,0.0958,-0.0007,9.8061,-0.295,-0.1033,-0.0077,-36.37,-35.56,15.56,281.45,-80.34,176.41
6835,52.399513,-1.588975,169.41,5.38,3,86.42,26 / 27,497110,2019-09-08 12:15:16:349,-0.2989,1.4884,8.7548,0.0781,-0.0194,9.8063,-0.2814,0.0961,-0.0901,-37.12,-35.94,15.25,279.41,-80.26,176.25
6836,52.399513,-1.588975,169.41,5.38,3,86.42,26 / 27,497210,2019-09-08 12:15:16:449,-3.9322,4.2896,8.4279,-0.1469,0.0411,9.8054,-0.0514,-0.1889,-0.2906,-37.62,-36.5,15.13,280.17,-79.84,177.73
6837,52.399513,-1.588975,169.41,5.38,3,86.42,26 / 27,497310,2019-09-08 12:15:16:549,-1.1749,0.2174,8.6428,-0.0601,0.0227,9.8064,-0.2548,-0.1341,-0.2533,-36.94,-35.25,15.94,282.5,-80.41,177.52
6838,52.399513,-1.588975,169.41,5.38,3,86.42,26 / 27,497410,2019-09-08 12:15:16:649,-0.6931,0.8649,9.6658,0.0076,0.025,9.8065,0.0832,-0.1401,-0.1076,-37.25,-35.69,16.38,281.74,-80.37,177.05
6839,52.399513,-1.588975,169.41,5.38,3,86.42,26 / 27,497510,2019-09-08 12:15:16:749,-0.5944,0.8057,9.5885,-0.0041,0.0177,9.8065,0.0772,-0.0705,-0.0408,-36.94,-36.25,16.56,281.65,-80.4,175.55
6840,52.399513,-1.588975,169.41,5.38,3,86.42,26 / 27,497610,2019-09-08 12:15:16:849,0.3909,0.2653,9.4957,0.0037,0.0052,9.8066,-0.1246,-0.0563,0.0844,-36.94,-35.81,15.63,279.74,-80.39,175.06
6841,52.399513,-1.588975,169.41,5.38,3,86.42,29 / 30,497710,2019-09-08 12:15:16:949,-1.2617,-0.5542,9.7106,0.0137,-0.0105,9.8066,-0.0953,-0.0371,0.0358,-37.69,-35.56,16.19,279.95,-80.34,175.67
6842,52.399513,-1.588975,169.41,5.38,3,86.42,29 / 30,497810,2019-09-08 12:15:17:049,0.2259,-0.231,10.6347,0.0148,-0.0032,9.8066,0.0894,0.0306,0.0461,-38.75,-35.25,16.31,279.49,-80.41,175.27
