,GPS LATITUDE (degrees), GPS LONGITUDE (degrees), GPS ALTITUDE (m), GPS SPEED (Kmh), GPS ACCURACY (m), GPS ORIENTATION (Â°),GPS SATELLITES IN RANGE, TIME SINCE START (ms), DATE (YYYY-MO-DD HH-MI-SS_SSS), ACCELEROMETER X (m/s²) , ACCELEROMETER Y (m/s²), ACCELEROMETER Z (m/s²), GRAVITY X (m/s²), GRAVITY Y (m/s²), GRAVITY Z (m/s²), GYROSCOPE Yaw (rad/s), GYROSCOPE Pitch (rad/s), GYROSCOPE Roll (rad/s), MAGNETIC FIELD X (Î¼T), MAGNETIC FIELD Y (Î¼T), MAGNETIC FIELD Z (Î¼T), ORIENTATION (Yaw) (Â°), ORIENTATION (Pitch) (Â°), ORIENTATION (Roll ) (Â°)
1835,52.332752,-1.559704,123,30.49,19.0,218.8,Apr-22,917599,2020-03-21 10:38:12:247,-0.7127,1.3577,10.7522,0.0113,0.0233,9.8066,0.0036,0.0553,-0.0362,-3.0,20.06,-56.47,11.81,-12.62,21.68
1836,52.332752,-1.559704,123,30.49,19.0,218.8,Jun-22,918099,2020-03-21 10:38:12:747,0.1164,-0.0461,11.1,-0.0014,0.0133,9.8066,-0.006,0.0127,0.0213,-5.03,19.06,-56.67,20.49,-12.79,21.43
1837,52.332752,-1.559704,123,30.49,19.0,218.8,Jun-22,918598,2020-03-21 10:38:13:246,-0.0103,0.1027,9.271,0.0015,0.0208,9.8066,-0.0113,0.0073,0.0128,-3.83,19.49,-56.62,13.11,-13.22,20.62
1838,52.332752,-1.559704,123,30.49,19.0,218.8,Jul-22,919098,2020-03-21 10:38:13:746,0.2015,-0.2135,9.5253,0.001,0.0024,9.8067,-0.0017,-0.0065,0.0096,-3.48,19.96,-56.47,3.78,-13.38,20.34
1839,52.332752,-1.559704,123,30.49,19.0,218.8,Jul-22,919598,2020-03-21 10:38:14:246,0.0526,-0.0711,9.3037,0.0021,-0.0009,9.8067,-0.0017,0.0233,0.0138,-3.23,20.2,-56.4,1.75,-13.52,19.98
1840,52.332752,-1.559704,123,30.49,19.0,218.8,Aug-22,920099,2020-03-21 10:38:14:747,-0.4912,-0.1485,10.1505,-0.0027,-0.0011,9.8066,0.0207,-0.0331,0.0181,-3.48,20.2,-56.39,1.11,-13.61,19.86
1841,52.332752,-1.559704,123,30.49,19.0,218.8,Aug-22,920599,2020-03-21 10:38:15:247,0.0766,0.2475,8.6637,-0.0002,-0.0007,9.8067,0.0079,0.0297,0.0128,-3.72,20.41,-56.3,0.4,-13.7,19.72
1842,52.32977,-1.563355,123,28.45,41.0,214.5,Sep-22,921099,2020-03-21 10:38:15:747,0.1202,0.2968,9.935,-0.0025,-0.004,9.8067,0.0036,-0.0129,-0.0149,-3.48,20.2,-56.39,3.16,-13.48,20.24
1843,52.32977,-1.563355,123,28.45,41.0,214.5,Sep-22,921599,2020-03-21 10:38:16:247,-0.4336,-0.121,10.4421,-0.0026,0.0009,9.8066,-0.0081,-0.0236,0.0075,-3.69,20.24,-56.36,6.97,-13.27,20.8
1844,52.32977,-1.563355,123,28.45,41.0,214.5,Sep-22,922099,2020-03-21 10:38:16:747,-0.1818,-0.2744,9.8763,0.0006,-0.0044,9.8066,0.0089,-0.0118,0.0106,-3.48,21.13,-56.05,1.69,-13.36,20.86
1845,52.32977,-1.563355,123,28.45,41.0,214.5,Sep-22,922598,2020-03-21 10:38:17:246,0.2303,-0.0317,9.0579,-0.0008,-0.0029,9.8066,0.0143,0.0031,0.0085,-2.52,20.7,-56.26,1.97,-13.46,20.92
1846,52.32977,-1.563355,123,28.45,41.0,214.5,Feb-22,923098,2020-03-21 10:38:17:746,0.1039,0.1357,9.6594,0.0039,0.0013,9.8066,-0.0092,0.0393,0.0149,-3.23,20.42,-56.33,7.99,-13.34,21.11
1847,52.32977,-1.563355,123,28.45,41.0,214.5,Feb-22,923599,2020-03-21 10:38:18:247,0.2893,-0.4185,9.2389,0.0058,0.0031,9.8066,-0.0102,0.0478,0.0043,-2.96,20.25,-56.4,6.76,-13.44,20.9
1848,52.32977,-1.563355,123,28.45,41.0,214.5,Apr-22,924099,2020-03-21 10:38:18:747,-0.4486,-0.6222,9.9256,0.0065,-0.0015,9.8066,0.0004,0.0041,0.0426,-2.73,20.65,-56.27,2.96,-13.44,21.1
1849,52.32977,-1.563355,123,28.45,41.0,214.5,Apr-22,924598,2020-03-21 10:38:19:246,-0.1197,0.4119,9.9406,-0.0062,0.0007,9.8066,-0.007,0.0191,0.0106,-2.98,20.64,-56.26,2.86,-13.44,21.08
1850,52.32977,-1.563355,123,28.45,41.0,214.5,May-22,925099,2020-03-21 10:38:19:747,0.0811,0.1243,10.0939,-0.011,-0.0093,9.8066,-0.0038,-0.0108,-0.0298,-3.22,20.82,-56.18,5.56,-13.3,21.57
1851,52.32977,-1.563355,123,28.45,41.0,214.5,May-22,925599,2020-03-21 10:38:20:247,-0.0815,-0.2433,9.34,-0.0005,-0.0012,9.8067,-0.0028,0.0073,-0.0064,-3.44,20.46,-56.3,13.12,-13.02,22.0
1852,52.32977,-1.563355,123,28.45,41.0,214.5,May-22,926098,2020-03-21 10:38:20:746,0.0416,-0.3337,8.8876,0.0064,-0.0013,9.8066,0.0132,0.0031,0.0181,-2.96,20.25,-56.4,13.33,-12.95,22.03
1853,52.32977,-1.563355,123,28.45,41.0,214.5,May-22,926598,2020-03-21 10:38:21:246,-0.5406,-0.558,9.8066,-0.0002,-0.0061,9.8066,0.0217,-0.0204,0.0128,-3.21,20.56,-56.28,8.05,-13.09,21.99
1854,52.32977,-1.563355,123,28.45,41.0,214.5,May-22,927098,2020-03-21 10:38:21:746,0.1267,0.0924,10.0669,0.0012,0.0015,9.8067,-0.0017,0.0159,0.0053,-2.96,20.96,-56.14,7.88,-13.04,21.96
1855,52.32977,-1.563355,123,28.45,41.0,214.5,May-22,927599,2020-03-21 10:38:22:247,-0.1107,0.4572,10.1939,-0.0033,0.0064,9.8066,-0.0145,-0.015,0.0042,-2.98,20.66,-56.25,7.34,-13.1,21.87
1856,52.32977,-1.563355,123,28.45,41.0,214.5,May-22,928099,2020-03-21 10:38:22:747,-0.0354,-0.0317,9.9357,0.0056,-0.0015,9.8066,0.0121,0.0041,0.0224,-2.73,21.14,-56.08,6.93,-13.16,21.8
1857,52.32977,-1.563355,123,28.45,41.0,214.5,May-22,928599,2020-03-21 10:38:23:247,-0.1759,0.0006,9.7036,0.0,0.0052,9.8066,-0.0017,-0.0086,0.0021,-2.96,20.75,-56.22,5.35,-13.29,21.53
1858,52.32977,-1.563355,123,28.45,41.0,214.5,May-22,929099,2020-03-21 10:38:23:747,-0.034,-0.4185,10.1168,-0.0025,0.0055,9.8066,0.0122,-0.0299,0.0181,-2.73,21.36,-56.0,4.88,-13.42,21.45
1859,52.32977,-1.563355,123,28.45,41.0,214.5,May-22,929599,2020-03-21 10:38:24:247,-0.4631,-0.6239,10.0486,-0.0055,0.001,9.8066,-0.0113,-0.0161,0.0224,-2.96,20.96,-56.14,3.89,-13.49,21.28
1860,52.32977,-1.563355,123,28.45,41.0,214.5,May-22,930098,2020-03-21 10:38:24:746,0.0389,0.1018,9.7568,0.0029,-0.0044,9.8066,0.0122,0.018,-0.0021,-2.44,20.8,-56.23,2.94,-13.69,21.16
1861,52.32977,-1.563355,123,28.45,41.0,214.5,May-22,930599,2020-03-21 10:38:25:247,0.2002,-0.158,9.3966,0.0016,0.0008,9.8067,-0.0113,-0.0065,0.0181,-2.48,20.85,-56.21,4.87,-13.46,21.53
1862,52.32977,-1.563355,123,28.45,41.0,214.5,May-22,931098,2020-03-21 10:38:25:746,-0.2551,-0.0537,9.7904,0.0004,-0.0052,9.8066,0.0207,-0.0065,0.0138,-2.47,20.75,-56.24,4.83,-13.43,21.52
1863,52.32977,-1.563355,123,28.45,41.0,214.5,May-22,931599,2020-03-21 10:38:26:247,-0.4554,-0.5338,10.5322,-0.008,0.0033,9.8066,-0.0187,-0.0353,0.0181,-2.71,20.79,-56.22,5.9,-13.42,21.64
1864,52.32977,-1.563355,123,28.45,41.0,214.5,Jun-22,932099,2020-03-21 10:38:26:747,-0.1464,0.1622,10.2476,0.002,-0.0043,9.8067,0.0249,0.0585,-0.0117,-2.74,21.16,-56.08,5.84,-13.46,21.63
1865,52.32977,-1.563355,123,28.45,41.0,214.5,Jun-22,932599,2020-03-21 10:38:27:247,0.2444,0.3234,10.481,0.0013,0.0006,9.8067,-0.0006,0.0532,-0.0149,-2.74,20.94,-56.16,6.65,-13.5,21.79
1866,52.326885,-1.565989,113,29.97,13.0,209.1,Sep-22,933099,2020-03-21 10:38:27:747,0.2924,-0.2184,9.8584,0.0024,0.0008,9.8067,0.01,-0.0076,0.0096,-2.27,21.07,-56.13,7.23,-13.36,22.0
1867,52.326885,-1.565989,113,29.97,13.0,209.1,Sep-22,933599,2020-03-21 10:38:28:247,0.391,-0.1061,10.593,-0.0049,0.0002,9.8067,0.0249,-0.0491,-0.0075,-2.49,20.45,-56.35,9.87,-13.61,21.67
1868,52.326885,-1.565989,113,29.97,13.0,209.1,Sep-22,934099,2020-03-21 10:38:28:747,0.198,0.4184,9.668,0.0014,0.0009,9.8067,0.0015,-0.0129,0.0011,-2.46,20.27,-56.42,9.73,-13.74,21.66
1869,52.326885,-1.565989,113,29.97,13.0,209.1,Sep-22,934599,2020-03-21 10:38:29:247,-0.1633,-0.2297,9.476,-0.0038,-0.0024,9.8067,0.009,-0.0182,0.016,-2.7,20.89,-56.18,5.48,-13.78,21.6
1870,52.326885,-1.565989,113,29.97,13.0,209.1,Sep-22,935098,2020-03-21 10:38:29:746,-0.6028,-0.2797,10.3661,-0.0053,0.0005,9.8066,-0.0092,-0.0459,0.0458,-2.48,21.07,-56.13,5.65,-13.71,21.71
1871,52.326885,-1.565989,113,29.97,13.0,209.1,Sep-22,935599,2020-03-21 10:38:30:247,0.1816,0.1777,9.3354,-0.0027,-0.0042,9.8066,0.0249,-0.0235,-0.0075,-2.48,21.38,-56.01,6.48,-13.62,21.88
1872,52.326885,-1.565989,113,29.97,13.0,209.1,Sep-22,936098,2020-03-21 10:38:30:746,0.0881,-0.2879,9.2172,0.0028,-0.0006,9.8067,0.0058,-0.0054,0.0256,-2.25,20.89,-56.2,7.14,-13.68,22.02
1873,52.326885,-1.565989,113,29.97,13.0,209.1,Sep-22,936599,2020-03-21 10:38:31:247,0.1989,-0.0282,9.5973,0.0042,0.0005,9.8066,0.0026,0.0052,0.0213,-2.46,21.19,-56.08,6.69,-13.63,21.92
1874,52.326885,-1.565989,113,29.97,13.0,209.1,Sep-22,937098,2020-03-21 10:38:31:746,-0.046,-0.1409,10.6391,0.0039,0.0021,9.8066,-0.0006,0.0212,0.001,-2.27,21.29,-56.05,5.19,-13.79,21.63
1875,52.326885,-1.565989,113,29.97,13.0,209.1,Sep-22,937598,2020-03-21 10:38:32:246,0.1142,0.1364,10.1369,0.0061,0.0055,9.8066,-0.0145,0.0255,0.0213,-2.26,21.72,-55.89,358.95,-14.0,21.23
1876,52.326885,-1.565989,113,29.97,13.0,209.1,Sep-22,938098,2020-03-21 10:38:32:746,-0.0559,-0.1865,9.1647,0.0,-0.0047,9.8066,0.0068,-0.0044,0.0011,-2.25,21.42,-56.0,3.38,-13.99,21.26
1877,52.326885,-1.565989,113,29.97,13.0,209.1,Sep-22,938599,2020-03-21 10:38:33:247,-0.1449,-0.1249,9.6697,-0.005,-0.0044,9.8066,0.0111,-0.0086,0.0117,-2.02,21.5,-55.98,359.14,-14.03,21.27
1878,52.326885,-1.565989,113,29.97,13.0,209.1,Apr-22,939099,2020-03-21 10:38:33:747,0.0009,-0.0255,9.6385,-0.0007,-0.0112,9.8066,0.0196,-0.0044,-0.0085,-2.26,21.5,-55.97,0.02,-13.99,21.45
1879,52.326885,-1.565989,113,29.97,13.0,209.1,Apr-22,939599,2020-03-21 10:38:34:247,0.0136,-0.2326,10.1715,0.002,0.0029,9.8066,-0.0166,0.0159,0.0181,-2.02,21.5,-55.98,1.06,-13.95,21.67
1880,52.326885,-1.565989,113,29.97,13.0,209.1,Jun-22,940099,2020-03-21 10:38:34:747,-0.1211,0.0349,9.9985,-0.0014,-0.0053,9.8066,-0.0177,-0.0044,0.0,-1.78,21.6,-55.95,2.72,-13.82,22.01
1881,52.326885,-1.565989,113,29.97,13.0,209.1,Jun-22,940599,2020-03-21 10:38:35:247,0.0971,-0.1985,9.6887,-0.0122,-0.0075,9.8066,0.0089,-0.0736,0.0053,-1.76,21.42,-56.02,8.26,-13.71,22.26
1882,52.326885,-1.565989,113,29.97,13.0,209.1,Jun-22,941098,2020-03-21 10:38:35:746,0.2134,-0.1968,8.8672,-0.0061,-0.0067,9.8066,0.0132,-0.0331,0.0064,-1.53,21.61,-55.95,5.99,-13.47,22.65
1883,52.326885,-1.565989,113,29.97,13.0,209.1,Jun-22,941599,2020-03-21 10:38:36:247,-0.2857,0.1558,9.1442,-0.0068,-0.0016,9.8066,-0.0017,-0.0289,0.0106,-1.29,22.22,-55.72,6.04,-13.33,22.75
1884,52.326885,-1.565989,113,29.97,13.0,209.1,Jun-22,942099,2020-03-21 10:38:36:747,-0.3295,-0.0349,9.4201,0.0002,0.0023,9.8066,-0.0092,-0.0033,0.0149,-1.07,21.64,-55.95,5.51,-13.35,22.63
1885,52.326885,-1.565989,113,29.97,13.0,209.1,Jun-22,942599,2020-03-21 10:38:37:247,-0.0085,0.4886,9.295,0.0072,-0.001,9.8066,0.009,0.0446,0.0032,-1.8,21.89,-55.84,3.66,-13.35,22.18
1886,52.326885,-1.565989,113,29.97,13.0,209.1,Jun-22,943098,2020-03-21 10:38:37:746,0.0907,0.0957,10.3848,0.0015,0.0047,9.8066,0.0058,0.0031,-0.0043,-1.29,22.09,-55.77,1.59,-13.51,21.79
1887,52.326885,-1.565989,113,29.97,13.0,209.1,Jun-22,943599,2020-03-21 10:38:38:247,-0.2479,0.0024,10.1564,-0.0051,0.0002,9.8066,0.0047,-0.0214,0.0138,-1.29,22.31,-55.68,0.98,-13.62,21.66
1888,52.326885,-1.565989,113,29.97,13.0,209.1,Jun-22,944098,2020-03-21 10:38:38:746,0.1362,-0.1413,10.2885,0.0074,0.0007,9.8066,-0.0086,0.0319,0.0032,-1.28,21.81,-55.88,359.89,-13.68,21.42
1889,52.326885,-1.565989,113,29.97,13.0,209.1,Jun-22,944598,2020-03-21 10:38:39:246,-0.3455,0.7194,9.8431,0.0058,0.0109,9.8066,-0.0182,0.034,-0.0075,-1.28,21.8,-55.89,357.91,-13.77,20.98
1890,52.326885,-1.565989,113,29.97,13.0,209.1,Jun-22,945099,2020-03-21 10:38:39:747,0.3054,0.4684,10.1578,0.0012,0.0008,9.8067,0.0021,-0.0353,0.0181,-0.78,21.8,-55.89,355.73,-13.98,20.48
1891,52.326885,-1.565989,113,29.97,13.0,209.1,Jun-22,945598,2020-03-21 10:38:40:246,0.2284,0.5289,9.9731,-0.0061,0.0102,9.8066,-0.0043,-0.0427,0.016,-0.09,21.45,-56.03,357.74,-14.18,20.0
1892,52.326885,-1.565989,113,29.97,13.0,209.1,Jul-22,946098,2020-03-21 10:38:40:746,0.0582,-0.253,9.3978,-0.0005,0.0012,9.8067,0.0021,-0.0129,0.0138,0.18,21.84,-55.89,353.74,-14.09,19.92
1893,52.326885,-1.565989,113,29.97,13.0,209.1,Jul-22,946599,2020-03-21 10:38:41:247,0.0385,-0.0433,9.9708,0.003,-0.0021,9.8067,-0.0011,0.0287,0.0085,-0.09,21.75,-55.92,352.92,-14.13,19.71
1894,52.32347,-1.568824,101,30.76,9.0,199.8,Jul-22,947098,2020-03-21 10:38:41:746,-0.5438,-0.3612,9.7506,-0.0027,-0.0043,9.8066,0.0074,-0.0076,0.033,0.18,21.84,-55.89,352.9,-13.87,19.74
1895,52.32347,-1.568824,101,30.76,9.0,199.8,Jul-22,947598,2020-03-21 10:38:42:246,0.0475,-0.3334,10.1878,0.0,-0.0059,9.8066,0.0106,0.0042,0.0074,0.45,21.82,-55.89,352.48,-13.8,19.64
1896,52.32347,-1.568824,101,30.76,9.0,199.8,Jul-22,948099,2020-03-21 10:38:42:747,0.1674,0.2166,9.3355,0.0003,-0.0006,9.8067,0.001,0.002,0.0085,0.45,21.73,-55.93,352.59,-13.69,19.68
1897,52.32347,-1.568824,101,30.76,9.0,199.8,Jul-22,948598,2020-03-21 10:38:43:246,-0.1221,-0.1388,10.035,-0.0003,0.0044,9.8066,0.0117,-0.0161,0.0074,0.18,21.52,-56.01,351.4,-13.67,19.4
1898,52.32347,-1.568824,101,30.76,9.0,199.8,Jul-22,949099,2020-03-21 10:38:43:747,0.1581,0.011,9.8545,-0.0029,0.0032,9.8066,0.0063,-0.0235,0.0074,0.7,21.75,-55.91,350.63,-13.67,19.06
1899,52.32347,-1.568824,101,30.76,9.0,199.8,Jul-22,949599,2020-03-21 10:38:44:247,-0.2103,0.2607,9.6056,0.0035,0.0031,9.8066,-0.0065,0.0191,0.0309,1.24,21.94,-55.83,349.71,-13.66,18.83
1900,52.32347,-1.568824,101,30.76,9.0,199.8,Jul-22,950099,2020-03-21 10:38:44:747,0.0807,0.032,9.8365,-0.0059,-0.0059,9.8066,0.0159,-0.0299,0.0032,1.23,21.62,-55.96,348.55,-13.58,18.54
1901,52.32347,-1.568824,101,30.76,9.0,199.8,Jul-22,950598,2020-03-21 10:38:45:246,0.1636,-0.134,9.5112,-0.001,0.0015,9.8067,-0.0001,-0.0033,0.0245,1.23,22.31,-55.69,348.8,-13.46,18.62
1902,52.32347,-1.568824,101,30.76,9.0,199.8,Jul-22,951099,2020-03-21 10:38:45:747,-0.7397,-0.5012,9.2471,-0.0067,-0.0063,9.8066,0.0212,-0.0278,0.0362,1.51,22.27,-55.69,349.55,-13.26,18.68
1903,52.32347,-1.568824,101,30.76,9.0,199.8,Jul-22,951598,2020-03-21 10:38:46:246,0.0751,0.4113,9.6495,-0.0023,0.0047,9.8066,-0.0203,0.0372,0.0128,1.5,21.95,-55.82,350.02,-13.19,18.82
1904,52.32347,-1.568824,101,30.76,9.0,199.8,Jul-22,952099,2020-03-21 10:38:46:747,-0.0927,-0.1675,9.8422,-0.0005,-0.0028,9.8067,0.0095,0.002,0.0234,0.97,22.41,-55.65,349.1,-13.04,18.78
1905,52.32347,-1.568824,101,30.76,9.0,199.8,Jul-22,952599,2020-03-21 10:38:47:247,-0.0283,0.3141,9.4163,-0.003,0.0019,9.8067,-0.0011,-0.0108,0.0,1.23,21.53,-55.99,349.35,-12.91,18.87
1906,52.32347,-1.568824,101,30.76,9.0,199.8,Jul-22,953098,2020-03-21 10:38:47:746,-0.2192,-0.1766,9.5323,0.0019,0.0037,9.8066,0.0063,-0.0065,0.0256,1.45,22.32,-55.68,348.66,-12.92,18.7
1907,52.32347,-1.568824,101,30.76,9.0,199.8,Jul-22,953599,2020-03-21 10:38:48:247,-0.1352,0.3103,9.794,0.0037,0.0038,9.8066,-0.0011,0.0265,0.0117,1.72,21.95,-55.81,347.88,-13.13,18.26
1908,52.32347,-1.568824,101,30.76,9.0,199.8,0 / 22,954098,2020-03-21 10:38:48:746,0.0076,-0.3623,8.6627,0.0063,-0.0017,9.8066,0.0362,-0.0353,0.0362,1.73,22.62,-55.54,345.68,-13.12,18.54
1909,52.32347,-1.568824,101,30.76,9.0,199.8,0 / 22,954599,2020-03-21 10:38:49:247,-0.1667,-0.1446,10.0873,-0.0076,-0.0069,9.8066,0.0351,-0.014,0.0,1.97,22.31,-55.66,347.81,-13.17,18.23
1910,52.32347,-1.568824,101,30.76,9.0,199.8,May-22,955098,2020-03-21 10:38:49:746,0.0642,0.0883,10.7483,-0.0035,0.0062,9.8066,-0.0139,-0.0331,0.0213,1.45,22.65,-55.54,343.89,-13.24,18.28
1911,52.32347,-1.568824,101,30.76,9.0,199.8,May-22,955598,2020-03-21 10:38:50:246,0.1038,0.3336,9.3329,-0.0025,0.0031,9.8066,-0.0107,0.0042,0.016,1.71,22.77,-55.49,343.9,-13.18,18.39
1912,52.32347,-1.568824,101,30.76,9.0,199.8,Jul-22,956099,2020-03-21 10:38:50:747,0.2215,-0.1422,9.344,-0.0026,0.0003,9.8067,-0.016,0.002,0.0266,1.99,22.98,-55.39,344.58,-13.31,18.55
1913,52.32347,-1.568824,101,30.76,9.0,199.8,Jul-22,956599,2020-03-21 10:38:51:247,-0.2653,0.1379,7.9731,0.0086,-0.0262,9.8066,0.0447,0.001,-0.0064,1.73,23.09,-55.35,345.23,-13.53,18.67
1914,52.32347,-1.568824,101,30.76,9.0,199.8,Jul-22,957099,2020-03-21 10:38:51:747,0.4312,0.6244,8.2828,0.0087,0.0004,9.8066,0.0095,-0.0033,0.0096,2.76,22.25,-55.66,351.03,-13.3,18.93
1915,52.32347,-1.568824,101,30.76,9.0,199.8,Jul-22,957599,2020-03-21 10:38:52:247,0.0853,-0.404,10.7042,-0.0047,-0.0068,9.8066,0.0191,-0.0022,0.0288,3.02,22.14,-55.68,351.63,-13.23,19.11
1916,52.320625,-1.569828,105,30.04,31.0,189.1,Jul-22,958098,2020-03-21 10:38:52:746,0.0477,-0.106,10.2971,-0.0116,0.0041,9.8066,-0.0086,-0.048,0.0,2.75,21.9,-55.79,352.1,-13.34,19.23
1917,52.320625,-1.569828,105,30.04,31.0,189.1,Jul-22,958598,2020-03-21 10:38:53:246,0.044,0.4598,9.5929,0.001,0.0046,9.8066,-0.0182,-0.0203,0.0042,3.03,22.5,-55.54,348.76,-13.3,19.16
1918,52.320625,-1.569828,105,30.04,31.0,189.1,Jul-22,959099,2020-03-21 10:38:53:747,0.0325,-0.303,10.127,0.0031,0.007,9.8066,-0.0096,-0.015,0.0213,3.03,22.5,-55.54,348.26,-13.52,18.98
1919,52.320625,-1.569828,105,30.04,31.0,189.1,0 / 22,959599,2020-03-21 10:38:54:247,0.4735,0.2205,9.7409,-0.0041,-0.0031,9.8066,0.0255,-0.014,0.0064,3.04,23.04,-55.32,346.25,-13.74,18.69
1920,52.320625,-1.569828,105,30.04,31.0,189.1,0 / 22,960098,2020-03-21 10:38:54:746,0.1183,0.64,9.8761,-0.0034,0.0057,9.8066,0.0031,-0.0054,0.0096,3.32,22.78,-55.41,345.81,-13.89,18.52
1921,52.320625,-1.569828,105,30.04,31.0,189.1,0 / 22,960599,2020-03-21 10:38:55:247,-0.1018,-0.4294,9.2928,0.0036,-0.004,9.8066,0.0138,-0.0278,0.0405,3.33,23.38,-55.16,346.12,-13.82,18.63
1922,52.320625,-1.569828,105,30.04,31.0,189.1,Jul-22,961098,2020-03-21 10:38:55:746,0.1505,-0.261,9.4648,0.0067,-0.0023,9.8066,0.0074,-0.0108,0.0287,3.63,23.47,-55.1,346.89,-13.95,18.61
1923,52.320625,-1.569828,105,30.04,31.0,189.1,Jul-22,961599,2020-03-21 10:38:56:247,-0.0402,-0.0379,9.4181,0.0019,-0.0064,9.8066,0.0106,0.001,0.0149,3.33,23.12,-55.27,346.01,-13.98,18.55
1924,52.320625,-1.569828,105,30.04,31.0,189.1,Jul-22,962099,2020-03-21 10:38:56:747,0.0737,-0.1507,9.8557,0.0076,-0.0004,9.8066,0.0021,0.0095,0.0245,3.32,23.6,-55.06,343.47,-13.91,18.67
1925,52.320625,-1.569828,105,30.04,31.0,189.1,Jul-22,962599,2020-03-21 10:38:57:247,-0.348,-0.502,9.8217,-0.0136,-0.0148,9.8066,-0.0096,-0.0406,0.0405,3.6,23.59,-55.05,345.87,-13.75,19.22
1926,52.320625,-1.569828,105,30.04,31.0,189.1,Jul-22,963098,2020-03-21 10:38:57:746,-0.2678,-0.5845,9.0537,0.0021,-0.0125,9.8066,0.0106,-0.0108,0.0373,3.6,23.59,-55.05,347.53,-13.65,19.77
1927,52.320625,-1.569828,105,30.04,31.0,189.1,Jul-22,963599,2020-03-21 10:38:58:247,-0.0707,0.5708,9.8934,0.0011,0.0045,9.8066,-0.0011,0.0116,-0.0053,3.6,23.59,-55.05,346.89,-13.86,19.52
1928,52.320625,-1.569828,105,30.04,31.0,189.1,Jul-22,964098,2020-03-21 10:38:58:746,0.2482,0.0705,9.5717,0.0066,0.0007,9.8066,-0.0001,-0.0118,0.016,4.2,24.04,-54.81,346.87,-13.94,19.5
1929,52.320625,-1.569828,105,30.04,31.0,189.1,Jul-22,964599,2020-03-21 10:38:59:247,0.0116,-0.1687,9.4544,0.0006,0.0043,9.8066,-0.0001,-0.0395,0.0245,3.62,23.71,-55.0,346.32,-14.04,19.29
1930,52.320625,-1.569828,105,30.04,31.0,189.1,Jul-22,965099,2020-03-21 10:38:59:747,-0.5507,0.061,9.6889,-0.0063,-0.005,9.8066,0.0042,-0.0108,0.0053,3.57,23.38,-55.14,348.86,-14.06,19.22
1931,52.320625,-1.569828,105,30.04,31.0,189.1,Jul-22,965599,2020-03-21 10:39:00:247,0.0263,-0.0585,8.8504,-0.0049,-0.004,9.8066,0.0042,-0.0321,-0.0053,3.59,23.24,-55.2,349.44,-13.97,19.42
1932,52.320625,-1.569828,105,30.04,31.0,189.1,Jul-22,966099,2020-03-21 10:39:00:747,-0.1014,-0.4602,9.6657,-0.0071,-0.0079,9.8066,-0.0075,-0.0299,-0.0011,3.31,23.5,-55.11,350.65,-13.7,20.0
1933,52.320625,-1.569828,105,30.04,31.0,189.1,Jul-22,966599,2020-03-21 10:39:01:247,-0.5127,-0.3519,9.9764,-0.0079,-0.0026,9.8066,-0.0192,-0.0065,-0.0021,3.04,23.61,-55.08,349.63,-13.47,20.62
1934,52.320625,-1.569828,105,30.04,31.0,189.1,Jul-22,967098,2020-03-21 10:39:01:746,-0.0603,0.1446,9.3866,-0.0067,-0.0069,9.8066,-0.0214,0.0297,-0.0043,3.04,23.61,-55.08,351.42,-13.35,21.16
1935,52.320625,-1.569828,105,30.04,31.0,189.1,Jul-22,967599,2020-03-21 10:39:02:247,0.2318,0.0635,9.5976,-0.0097,-0.007,9.8066,-0.0118,-0.0022,-0.0021,3.04,23.37,-55.18,355.23,-13.3,21.36
1936,52.320625,-1.569828,105,30.04,31.0,189.1,Jul-22,968099,2020-03-21 10:39:02:747,-0.0974,-0.1677,9.233,0.0059,0.0029,9.8066,-0.0416,0.0297,0.0202,3.04,23.37,-55.18,356.61,-13.06,21.76
1937,52.320625,-1.569828,105,30.04,31.0,189.1,Jul-22,968598,2020-03-21 10:39:03:246,-0.1195,0.1296,9.6119,-0.0036,-0.01,9.8066,0.0117,-0.0054,-0.0149,2.53,23.12,-55.31,357.92,-12.86,22.13
1938,52.320625,-1.569828,105,30.04,31.0,189.1,Jul-22,969099,2020-03-21 10:39:03:747,0.3072,-0.2929,9.3694,-0.002,-0.0009,9.8066,-0.0096,-0.0022,-0.0032,2.75,23.0,-55.35,359.74,-12.65,22.63
1939,52.320625,-1.569828,105,30.04,31.0,189.1,Jul-22,969598,2020-03-21 10:39:04:246,0.1546,0.0084,9.9397,-0.0036,-0.0044,9.8066,-0.0064,0.0148,-0.0053,2.51,22.4,-55.6,5.99,-12.47,23.04
1940,52.320625,-1.569828,105,30.04,31.0,189.1,Jul-22,970098,2020-03-21 10:39:04:746,-0.5381,-0.332,9.9527,0.0028,0.0014,9.8067,-0.0341,0.0542,0.0032,2.8,23.0,-55.35,2.35,-12.21,23.31
1941,52.320625,-1.569828,105,30.04,31.0,189.1,Jul-22,970598,2020-03-21 10:39:05:246,0.2493,0.4812,11.4818,-0.0055,0.0018,9.8066,-0.0469,0.001,-0.0277,-1.95,24.06,-54.93,1.63,-12.11,23.86
1942,52.320625,-1.569828,105,30.04,31.0,189.1,Jul-22,971098,2020-03-21 10:39:05:746,-0.1054,-0.4464,9.3468,-0.0031,-0.0084,9.8066,0.001,-0.0193,-0.0139,4.42,23.13,-55.19,5.52,-12.1,24.22
1943,52.320625,-1.569828,105,30.04,31.0,189.1,Jul-22,971599,2020-03-21 10:39:06:247,-0.1845,-0.1846,9.9666,-0.0029,0.0041,9.8066,-0.0203,0.0074,-0.0021,3.61,22.25,-55.6,10.98,-12.14,24.51
1944,52.320625,-1.569828,105,30.04,31.0,189.1,Sep-22,972099,2020-03-21 10:39:06:747,-0.2524,-0.4321,9.3591,0.0075,-0.009,9.8066,-0.0086,0.067,-0.0085,2.56,22.24,-55.67,11.9,-11.9,24.52
1945,52.320625,-1.569828,105,30.04,31.0,189.1,Sep-22,972599,2020-03-21 10:39:07:247,-0.0179,-0.1737,9.8351,0.0036,-0.0038,9.8066,0.0095,0.0361,-0.0192,2.24,21.94,-55.8,12.69,-12.01,24.55
1946,52.31653,-1.569795,103,31.31,21.0,181.0,Sep-22,973098,2020-03-21 10:39:07:746,-0.5287,0.3784,11.5119,-0.0043,-0.0079,9.8066,-0.0171,0.0574,-0.0458,2.25,22.29,-55.66,14.67,-11.57,24.94
1947,52.31653,-1.569795,103,31.31,21.0,181.0,Sep-22,973599,2020-03-21 10:39:08:247,-0.036,0.4866,9.9369,0.0035,0.0016,9.8066,0.0,0.0201,-0.0224,1.95,21.64,-55.93,14.46,-11.76,24.94
1948,52.31653,-1.569795,103,31.31,21.0,181.0,Sep-22,974098,2020-03-21 10:39:08:746,0.3011,0.1928,9.6121,0.0018,0.0097,9.8066,0.0042,-0.014,0.0074,1.96,21.73,-55.89,13.63,-11.85,24.75
1949,52.31653,-1.569795,103,31.31,21.0,181.0,Sep-22,974599,2020-03-21 10:39:09:247,0.0645,-0.0263,9.0953,0.0088,-0.0013,9.8066,-0.0043,0.0414,0.0053,1.39,21.4,-56.04,16.7,-12.02,24.41
1950,52.31653,-1.569795,103,31.31,21.0,181.0,Sep-22,975098,2020-03-21 10:39:09:746,0.0535,-0.5562,9.6914,0.0055,0.0013,9.8066,0.0159,0.001,0.0053,1.68,21.51,-55.99,10.5,-12.21,24.04
1951,52.31653,-1.569795,103,31.31,21.0,181.0,Sep-22,975599,2020-03-21 10:39:10:247,0.226,0.5006,9.4917,0.0033,0.0108,9.8066,-0.0277,0.0532,0.0074,1.69,21.6,-55.95,10.47,-12.3,24.04
1952,52.31653,-1.569795,103,31.31,21.0,181.0,Sep-22,976098,2020-03-21 10:39:10:746,-0.0479,0.4319,10.5845,-0.0107,0.007,9.8066,-0.0128,0.002,-0.0405,1.39,21.15,-56.13,14.39,-12.49,23.97
1953,52.31653,-1.569795,103,31.31,21.0,181.0,Sep-22,976599,2020-03-21 10:39:11:247,-0.1316,0.2299,10.1669,-0.004,0.0062,9.8066,-0.0352,-0.0054,-0.0149,1.39,21.4,-56.04,15.0,-12.52,24.13
1954,52.31653,-1.569795,103,31.31,21.0,181.0,Sep-22,977099,2020-03-21 10:39:11:747,0.0889,-0.3273,9.0045,-0.0042,-0.0028,9.8066,-0.0022,-0.0225,-0.0096,1.11,21.26,-56.09,15.57,-12.48,24.26
1955,52.31653,-1.569795,103,31.31,21.0,181.0,Sep-22,977599,2020-03-21 10:39:12:247,0.0128,-0.4371,9.1104,0.005,-0.0045,9.8066,-0.0331,0.0127,-0.0064,1.1,21.31,-56.08,18.02,-12.3,24.82
1956,52.31653,-1.569795,103,31.31,21.0,181.0,Sep-22,978098,2020-03-21 10:39:12:746,0.2486,-0.0152,9.3658,0.0006,0.0022,9.8066,-0.0054,0.0138,-0.0128,0.82,20.56,-56.36,16.53,-12.48,24.5
1957,52.31653,-1.569795,103,31.31,21.0,181.0,Sep-22,978599,2020-03-21 10:39:13:247,0.4182,0.2437,9.6256,0.0067,0.0147,9.8066,-0.0341,0.0265,0.0106,0.83,20.67,-56.32,15.12,-12.71,24.21
1958,52.31653,-1.569795,103,31.31,21.0,181.0,0 / 22,979099,2020-03-21 10:39:13:747,-0.0347,0.5914,10.5797,-0.0035,-0.0021,9.8066,0.001,0.0052,-0.0352,0.83,21.03,-56.19,12.24,-12.88,23.53
1959,52.31653,-1.569795,103,31.31,21.0,181.0,0 / 22,979598,2020-03-21 10:39:14:246,-0.2953,-0.5234,10.1734,0.0,-0.0046,9.8067,0.0202,-0.0246,-0.0011,0.54,20.32,-56.45,16.7,-12.98,23.79
1960,52.31653,-1.569795,103,31.31,21.0,181.0,Dec-22,980099,2020-03-21 10:39:14:747,-0.0237,-0.1496,9.3579,-0.0021,0.0048,9.8066,-0.015,-0.0022,-0.0011,0.55,21.03,-56.19,13.12,-13.13,23.8
1961,52.31653,-1.569795,103,31.31,21.0,181.0,Dec-22,980599,2020-03-21 10:39:15:247,0.077,0.2678,9.8087,0.004,0.0027,9.8066,-0.0235,0.0372,-0.016,0.55,20.21,-56.49,16.86,-13.05,23.85
1962,52.31653,-1.569795,103,31.31,21.0,181.0,13 / 22,981098,2020-03-21 10:39:15:746,-0.0243,0.0023,10.385,-0.0135,0.0,9.8066,-0.0032,-0.0129,-0.016,0.26,20.21,-56.49,18.23,-13.04,23.9
1963,52.31653,-1.569795,103,31.31,21.0,181.0,13 / 22,981599,2020-03-21 10:39:16:247,0.3425,0.0803,9.2391,0.0087,-0.0022,9.8066,0.0064,0.002,-0.0149,0.26,20.46,-56.4,17.35,-13.3,23.76
1964,52.31653,-1.569795,103,31.31,21.0,181.0,13 / 22,982099,2020-03-21 10:39:16:747,-0.2006,0.0499,10.1538,-0.0072,0.0044,9.8066,0.0074,-0.0384,-0.0298,-0.03,20.46,-56.4,16.03,-13.48,23.48
1965,52.31653,-1.569795,103,31.31,21.0,181.0,13 / 22,982598,2020-03-21 10:39:17:246,-0.1416,-0.0068,9.4408,0.0065,-0.0006,9.8066,-0.0032,0.034,-0.0011,-0.03,20.12,-56.53,17.29,-13.36,23.45
1966,52.31653,-1.569795,103,31.31,21.0,181.0,13 / 22,983099,2020-03-21 10:39:17:747,-0.0445,0.0951,9.2141,-0.0003,-0.0015,9.8067,0.0042,-0.0086,-0.0107,0.26,20.48,-56.4,16.2,-13.29,23.48
1967,52.31653,-1.569795,103,31.31,21.0,181.0,13 / 22,983598,2020-03-21 10:39:18:246,0.0132,0.0378,9.8069,-0.0058,0.002,9.8066,-0.0054,-0.0044,-0.0096,-0.03,19.97,-56.58,17.64,-13.35,23.54
1968,52.31653,-1.569795,103,31.31,21.0,181.0,13 / 22,984098,2020-03-21 10:39:18:746,0.1406,-0.1331,9.1921,-0.0004,0.0021,9.8067,-0.0011,0.0042,0.0042,-0.03,19.62,-56.7,16.59,-13.5,23.31
1969,52.31653,-1.569795,103,31.31,21.0,181.0,13 / 22,984599,2020-03-21 10:39:19:247,0.4016,0.28,9.4238,0.0095,0.0119,9.8066,-0.0224,0.0372,0.0042,-0.03,19.62,-56.7,14.31,-13.7,22.79
1970,52.31653,-1.569795,103,31.31,21.0,181.0,13 / 22,985099,2020-03-21 10:39:19:747,0.0979,-0.0099,9.7465,-0.0002,-0.0029,9.8066,0.0298,-0.0118,-0.0096,-0.03,19.78,-56.65,11.71,-14.03,22.21
1971,52.31653,-1.569795,103,31.31,21.0,181.0,13 / 22,985598,2020-03-21 10:39:20:246,0.1691,0.1839,9.1109,0.005,0.0038,9.8066,0.0447,-0.0523,-0.0064,0.26,19.87,-56.61,8.31,-14.24,21.39
1972,52.31653,-1.569795,103,31.31,21.0,181.0,13 / 22,986099,2020-03-21 10:39:20:747,0.0034,0.2519,9.6978,0.0001,0.0086,9.8066,-0.0171,-0.0129,-0.0011,-0.31,19.53,-56.73,6.77,-14.37,21.02
1973,52.31653,-1.569795,103,31.31,21.0,181.0,13 / 22,986598,2020-03-21 10:39:21:246,0.1877,0.0915,9.4442,-0.0024,0.0016,9.8066,-0.0075,0.0148,-0.0096,0.26,20.08,-56.54,6.29,-14.46,20.91
1974,52.31653,-1.569795,103,31.31,21.0,181.0,13 / 22,987099,2020-03-21 10:39:21:747,-0.2607,-0.2091,10.4269,0.0079,-0.0063,9.8066,-0.0139,0.0606,-0.0032,-0.03,19.87,-56.61,5.99,-14.39,20.83
1975,52.31653,-1.569795,103,31.31,21.0,181.0,13 / 22,987598,2020-03-21 10:39:22:246,0.0583,0.1582,8.9515,0.0054,-0.0069,9.8066,-0.0011,0.0052,0.0064,0.26,20.06,-56.55,6.66,-14.18,20.97
1976,52.31653,-1.569795,103,31.31,21.0,181.0,Sep-22,988099,2020-03-21 10:39:22:747,-0.22,-0.0788,9.666,0.0015,-0.0082,9.8066,-0.0032,0.0202,-0.0107,-0.03,19.51,-56.74,6.99,-14.07,21.04
1977,52.31653,-1.569795,103,31.31,21.0,181.0,Sep-22,988598,2020-03-21 10:39:23:246,0.0509,-0.2391,9.812,-0.0013,-0.004,9.8066,-0.0022,0.0031,-0.0011,0.59,18.8,-56.97,10.23,-14.07,21.11
1978,52.312267,-1.571073,95,30.1,8.0,196.0,Nov-22,989099,2020-03-21 10:39:23:747,0.1042,0.4828,10.2018,-0.0052,0.0068,9.8066,0.0053,-0.0608,-0.0256,0.9,18.42,-57.1,13.53,-14.04,21.09
1979,52.312267,-1.571073,95,30.1,8.0,196.0,Nov-22,989598,2020-03-21 10:39:24:246,-0.0588,0.0539,9.3563,0.0044,0.012,9.8066,-0.0256,0.001,0.017,0.9,18.51,-57.07,10.52,-13.89,21.16
1980,52.312267,-1.571073,95,30.1,8.0,196.0,Nov-22,990099,2020-03-21 10:39:24:747,-0.2532,-0.0758,9.8331,-0.0087,-0.005,9.8066,0.0266,-0.0011,-0.0117,0.64,18.13,-57.19,11.67,-14.07,20.59
1981,52.312267,-1.571073,95,30.1,8.0,196.0,Nov-22,990598,2020-03-21 10:39:25:246,0.0888,0.7534,9.3165,-0.0061,-0.0027,9.8066,0.0223,-0.0161,-0.0437,0.64,17.85,-57.28,11.07,-14.19,20.45
1982,52.312267,-1.571073,95,30.1,8.0,196.0,Nov-22,991099,2020-03-21 10:39:25:747,0.0647,0.0272,9.4731,-0.0111,0.0036,9.8066,-0.0224,-0.0075,0.0149,0.63,17.56,-57.37,11.68,-13.97,20.57
1983,52.312267,-1.571073,95,30.1,8.0,196.0,Nov-22,991599,2020-03-21 10:39:26:247,0.0809,-0.4715,10.5137,0.0008,-0.006,9.8066,-0.0213,0.0479,-0.0192,0.95,18.13,-57.19,12.67,-13.75,20.79
1984,52.312267,-1.571073,95,30.1,8.0,196.0,Nov-22,992098,2020-03-21 10:39:26:746,0.168,0.5903,9.361,-0.0071,0.0017,9.8066,-0.0288,0.0148,-0.0277,0.64,17.85,-57.28,13.2,-13.66,20.92
1985,52.312267,-1.571073,95,30.1,8.0,196.0,Nov-22,992598,2020-03-21 10:39:27:246,0.2524,-0.2768,10.9001,0.0494,0.0719,9.8063,-0.0778,0.213,0.0064,0.34,18.13,-57.2,13.55,-13.58,20.76
1986,52.312267,-1.571073,95,30.1,8.0,196.0,Nov-22,993099,2020-03-21 10:39:27:747,-0.089,0.0319,9.967,-0.0009,-0.0078,9.8066,-0.0043,0.0052,0.0064,0.65,18.51,-57.07,7.54,-13.73,20.36
1987,52.312267,-1.571073,95,30.1,8.0,196.0,Nov-22,993598,2020-03-21 10:39:28:246,0.0582,-0.3863,9.9095,0.0029,0.0095,9.8066,-0.0011,-0.0193,-0.0043,0.91,17.95,-57.25,8.32,-13.98,19.68
1988,52.312267,-1.571073,95,30.1,8.0,196.0,Nov-22,994099,2020-03-21 10:39:28:747,0.1863,0.2018,9.5101,0.0011,-0.0235,9.8066,0.0021,0.001,-0.0128,1.52,18.5,-57.06,8.2,-13.41,20.62
1989,52.312267,-1.571073,95,30.1,8.0,196.0,Nov-22,994598,2020-03-21 10:39:29:246,0.0194,-0.9174,8.2325,0.0119,-0.0078,9.8066,0.0522,-0.0171,0.0309,0.91,18.61,-57.03,9.39,-13.17,20.75
1990,52.312267,-1.571073,95,30.1,8.0,196.0,Nov-22,995099,2020-03-21 10:39:29:747,-0.3689,0.1934,10.5099,0.0021,-0.0105,9.8066,0.0138,0.0606,-0.0288,1.21,18.23,-57.15,13.17,-13.04,20.77
1991,52.312267,-1.571073,95,30.1,8.0,196.0,Nov-22,995599,2020-03-21 10:39:30:247,0.2671,-0.0481,10.2819,-0.0067,0.0033,9.8066,-0.0075,-0.0139,0.0181,0.59,18.04,-57.22,14.1,-12.91,20.97
1992,52.312267,-1.571073,95,30.1,8.0,196.0,Nov-22,996099,2020-03-21 10:39:30:747,0.5589,0.6519,8.6638,-0.004,0.0001,9.8066,0.0053,-0.0171,-0.0181,0.9,18.24,-57.15,13.65,-13.12,20.91
1993,52.312267,-1.571073,95,30.1,8.0,196.0,Nov-22,996599,2020-03-21 10:39:31:247,0.0573,0.2541,9.3857,-0.0051,0.002,9.8066,0.0106,0.002,-0.0107,0.9,18.14,-57.18,13.85,-12.9,20.91
1994,52.312267,-1.571073,95,30.1,8.0,196.0,Dec-22,997098,2020-03-21 10:39:31:746,-0.0514,0.143,9.9525,0.0056,-0.0033,9.8066,0.0095,0.0234,-0.0043,0.9,17.58,-57.36,11.78,-12.93,20.39
1995,52.312267,-1.571073,95,30.1,8.0,196.0,Dec-22,997598,2020-03-21 10:39:32:246,0.5678,0.316,9.8361,0.01,0.0056,9.8066,-0.0032,0.001,0.0085,0.6,17.96,-57.24,12.34,-12.84,20.51
1996,52.312267,-1.571073,95,30.1,8.0,196.0,Dec-22,998099,2020-03-21 10:39:32:747,0.2103,0.0852,10.3087,-0.0028,-0.0021,9.8067,0.0095,0.0074,-0.0171,0.9,17.77,-57.3,11.26,-13.02,20.28
1997,52.312267,-1.571073,95,30.1,8.0,196.0,Dec-22,998599,2020-03-21 10:39:33:247,0.0698,-0.1846,9.9473,0.0041,0.0039,9.8066,-0.0245,-0.0022,0.0032,0.9,18.16,-57.18,10.89,-13.03,20.19
1998,52.312267,-1.571073,95,30.1,8.0,196.0,Dec-22,999098,2020-03-21 10:39:33:746,-0.0569,-0.4017,9.344,0.0074,-0.0027,9.8066,0.0,-0.0118,0.0106,0.9,17.88,-57.27,11.49,-12.78,20.29
1999,52.312267,-1.571073,95,30.1,8.0,196.0,Dec-22,999599,2020-03-21 10:39:34:247,0.2126,0.0823,9.727,0.008,-0.0045,9.8066,0.0149,-0.0086,-0.0224,0.9,17.59,-57.36,11.67,-12.8,20.34
2000,52.312267,-1.571073,95,30.1,8.0,196.0,Dec-22,1000099,2020-03-21 10:39:34:747,-0.2601,0.0408,9.6907,-0.0086,-0.0086,9.8066,0.0106,-0.0427,0.001,0.6,17.6,-57.36,12.54,-12.58,20.51
2001,52.312267,-1.571073,95,30.1,8.0,196.0,Dec-22,1000598,2020-03-21 10:39:35:246,-0.7,0.0628,9.766,-0.0025,0.0164,9.8066,-0.0064,-0.0075,0.0032,0.6,17.6,-57.36,12.6,-12.64,20.53
2002,52.312267,-1.571073,95,30.1,8.0,196.0,Dec-22,1001099,2020-03-21 10:39:35:747,-0.4324,-0.2372,9.0675,0.0033,-0.0246,9.8066,0.0266,0.0074,-0.0224,0.91,17.68,-57.33,12.18,-12.59,20.42
2003,52.312267,-1.571073,95,30.1,8.0,196.0,Dec-22,1001599,2020-03-21 10:39:36:247,0.0701,0.2635,10.2003,0.0038,0.012,9.8066,-0.0096,0.0223,0.0021,0.6,17.31,-57.44,15.67,-12.63,20.38
2004,52.312267,-1.571073,95,30.1,8.0,196.0,Dec-22,1002098,2020-03-21 10:39:36:746,-0.1777,-0.3852,9.4711,-0.0094,-0.0186,9.8066,0.0096,-0.0395,-0.0181,0.59,17.51,-57.39,13.75,-12.53,20.79
2005,52.312267,-1.571073,95,30.1,8.0,196.0,Dec-22,1002599,2020-03-21 10:39:37:247,0.3369,0.0401,9.0973,0.0033,0.0001,9.8067,-0.0181,0.0372,-0.0128,0.6,17.5,-57.39,17.93,-12.02,21.68
2006,52.312267,-1.571073,95,30.1,8.0,196.0,Dec-22,1003098,2020-03-21 10:39:37:746,-0.1514,-0.4361,9.7074,-0.0004,-0.0019,9.8066,-0.0043,-0.0235,-0.016,0.6,18.17,-57.18,20.67,-11.82,22.3
2007,52.312267,-1.571073,95,30.1,8.0,196.0,Dec-22,1003599,2020-03-21 10:39:38:247,0.1385,0.2852,9.435,0.0168,0.0419,9.8065,-0.0213,0.0074,0.0245,0.29,18.46,-57.09,17.9,-12.41,21.49
2008,52.312267,-1.571073,95,30.1,8.0,196.0,May-22,1004099,2020-03-21 10:39:38:747,-0.6238,-0.7672,11.8542,-0.0184,0.0201,9.8066,-0.0405,-0.0235,0.0181,-2.47,18.83,-56.91,10.0,-13.03,20.38
2009,52.312267,-1.571073,95,30.1,8.0,196.0,May-22,1004598,2020-03-21 10:39:39:246,-0.2723,0.1149,9.9851,-0.0029,0.014,9.8066,-0.0128,-0.0075,-0.0011,0.27,18.29,-57.14,7.26,-13.44,19.22
2010,52.312267,-1.571073,95,30.1,8.0,196.0,Sep-22,1005099,2020-03-21 10:39:39:747,-0.3827,-0.4114,9.394,-0.0206,-0.024,9.8066,0.0468,-0.0427,-0.0011,3.87,17.93,-57.13,6.05,-13.46,19.33
2011,52.312267,-1.571073,95,30.1,8.0,196.0,Sep-22,1005599,2020-03-21 10:39:40:247,-0.2321,-0.4025,8.9355,0.0034,-0.0037,9.8066,-0.0011,0.0223,-0.0032,0.59,17.89,-57.27,8.59,-13.27,19.65
2012,52.307953,-1.573532,95,29.91,14.0,201.0,Oct-22,1006099,2020-03-21 10:39:40:747,0.3794,0.1841,10.0975,0.0033,-0.0088,9.8066,-0.0139,0.0404,-0.0086,0.6,17.98,-57.24,11.2,-13.14,20.29
2013,52.307953,-1.573532,95,29.91,14.0,201.0,Oct-22,1006598,2020-03-21 10:39:41:246,-0.3308,-0.6028,9.8206,-0.0055,-0.0201,9.8066,0.0223,0.0042,-0.0341,-0.02,17.28,-57.46,17.84,-12.95,20.73
2014,52.307953,-1.573532,95,29.91,14.0,201.0,Oct-22,1007098,2020-03-21 10:39:41:746,-0.1275,-0.1322,8.6531,0.0029,0.0014,9.8067,0.0298,-0.0991,0.0394,-0.29,18.77,-56.99,11.02,-12.95,20.93
2015,52.307953,-1.573532,95,29.91,14.0,201.0,Oct-22,1007599,2020-03-21 10:39:42:247,0.1656,0.0932,8.0389,0.0026,-0.0086,9.8066,0.0309,-0.0171,-0.0086,-0.02,16.2,-57.77,21.53,-13.07,20.52
2016,52.307953,-1.573532,95,29.91,14.0,201.0,Oct-22,1008099,2020-03-21 10:39:42:747,-0.1841,-0.0172,7.5644,0.0104,0.0156,9.8066,0.0234,0.0063,-0.0576,-4.33,16.27,-57.59,30.58,-13.2,20.94
2017,52.307953,-1.573532,95,29.91,14.0,201.0,Oct-22,1008599,2020-03-21 10:39:43:247,-0.3704,-0.1535,9.9578,0.0009,-0.0003,9.8067,-0.0213,0.0383,-0.0075,1.22,17.69,-57.32,16.3,-12.93,21.54
2018,52.307953,-1.573532,95,29.91,14.0,201.0,Oct-22,1009099,2020-03-21 10:39:43:747,0.0664,-0.0246,9.5363,0.0045,-0.0113,9.8066,0.0149,0.0276,-0.0394,-0.28,17.46,-57.4,21.56,-12.92,21.65
2019,52.307953,-1.573532,95,29.91,14.0,201.0,Oct-22,1009599,2020-03-21 10:39:44:247,-0.0196,-0.0706,8.624,0.0012,-0.0082,9.8066,0.0266,-0.0363,-0.0171,-0.33,17.51,-57.39,20.69,-12.7,22.27
2020,52.307953,-1.573532,95,29.91,14.0,201.0,Oct-22,1010099,2020-03-21 10:39:44:747,-0.0525,-0.0599,10.3455,0.0017,0.0087,9.8066,-0.0395,0.0031,0.0106,-0.28,17.51,-57.39,23.74,-12.45,22.94
2021,52.307953,-1.573532,95,29.91,14.0,201.0,Oct-22,1010599,2020-03-21 10:39:45:247,0.0591,-1.0031,9.2357,-0.0009,-0.015,9.8066,0.001,-0.0214,-0.0224,-0.28,17.46,-57.4,29.46,-12.25,23.44
2022,52.307953,-1.573532,95,29.91,14.0,201.0,Oct-22,1011099,2020-03-21 10:39:45:747,-0.127,0.1877,8.6819,-0.0019,-0.0167,9.8066,-0.0043,0.0138,-0.0288,-0.9,17.56,-57.37,31.16,-11.9,24.07
2023,52.307953,-1.573532,95,29.91,14.0,201.0,Oct-22,1011599,2020-03-21 10:39:46:247,-0.0859,2.1366,8.2839,-0.0026,-0.0207,9.8066,-0.032,0.0074,-0.0437,-0.91,17.28,-57.45,37.03,-11.65,24.57
2024,52.307953,-1.573532,95,29.91,14.0,201.0,May-22,1012098,2020-03-21 10:39:46:746,0.1687,0.9915,10.1691,-0.0038,0.0102,9.8066,0.0074,0.0021,-0.065,-1.22,16.7,-57.62,36.48,-11.84,24.29
2025,52.307953,-1.573532,95,29.91,14.0,201.0,May-22,1012599,2020-03-21 10:39:47:247,-0.0736,-0.2569,9.6395,-0.0016,0.005,9.8066,0.0064,0.0202,-0.0064,-1.21,16.8,-57.59,38.37,-11.64,24.68
2026,52.307953,-1.573532,95,29.91,14.0,201.0,Jun-22,1013099,2020-03-21 10:39:47:747,0.1386,0.6084,9.2131,0.0031,-0.0004,9.8067,-0.0096,0.0372,-0.0203,-0.81,15.44,-57.97,41.39,-12.03,24.1
2027,52.307953,-1.573532,95,29.91,14.0,201.0,Jun-22,1013599,2020-03-21 10:39:48:247,-0.1743,0.5022,8.6928,0.0035,-0.0051,9.8066,-0.0032,0.0234,-0.0096,-0.48,15.46,-57.97,41.51,-11.71,24.68
2028,52.307953,-1.573532,95,29.91,14.0,201.0,Jun-22,1014098,2020-03-21 10:39:48:746,0.0763,-0.0325,9.3894,-0.0102,-0.0007,9.8066,-0.0341,0.0234,-0.0043,-0.48,15.23,-58.03,44.01,-11.3,25.22
2029,52.307953,-1.573532,95,29.91,14.0,201.0,0 / 22,1014598,2020-03-21 10:39:49:246,0.1471,0.0377,9.3366,-0.0011,0.0,9.8066,-0.0395,-0.0203,-0.0139,-0.14,15.14,-58.06,44.76,-11.07,25.28
2030,52.307953,-1.573532,95,29.91,14.0,201.0,0 / 22,1015099,2020-03-21 10:39:49:747,0.5487,-0.1704,10.7499,0.0017,0.0029,9.8066,-0.0181,0.0287,-0.016,-1.14,15.05,-58.07,49.8,-10.77,25.88
2031,52.307953,-1.573532,95,29.91,14.0,201.0,0 / 22,1015599,2020-03-21 10:39:50:247,-0.3298,0.4488,9.6609,-0.0017,-0.009,9.8066,-0.032,-0.0161,-0.0458,-1.81,15.14,-58.03,53.32,-10.53,25.84
2032,52.305508,-1.575185,87,29.91,15.0,203.7,Jun-22,1016098,2020-03-21 10:39:50:746,-0.082,0.0856,9.2938,0.0032,0.0002,9.8067,-0.016,-0.0097,-0.0341,-1.49,14.59,-58.18,52.32,-10.32,26.38
2033,52.305508,-1.575185,87,29.91,15.0,203.7,Jun-22,1016599,2020-03-21 10:39:51:247,-0.0927,-0.4997,9.0142,0.0084,-0.0045,9.8066,0.0074,0.0063,-0.0054,-1.81,14.11,-58.29,55.96,-10.42,25.85
2034,52.305508,-1.575185,87,29.91,15.0,203.7,Jul-22,1017098,2020-03-21 10:39:51:746,0.0826,-0.1836,10.2276,-0.0093,0.0142,9.8066,-0.016,0.0415,-0.0086,-2.14,14.1,-58.28,53.52,-10.74,25.24
2035,52.305508,-1.575185,87,29.91,15.0,203.7,Jul-22,1017598,2020-03-21 10:39:52:246,-0.1597,-0.1765,9.5998,-0.0002,0.0073,9.8066,-0.0192,0.0234,-0.0022,-1.84,14.36,-58.23,50.97,-10.96,24.5
2036,52.305508,-1.575185,87,29.91,15.0,203.7,Aug-22,1018098,2020-03-21 10:39:52:746,0.0437,-0.1051,9.7263,0.0005,-0.0015,9.8067,0.0287,0.0244,-0.0032,-2.47,13.77,-58.35,47.86,-11.41,23.87
2037,52.305508,-1.575185,87,29.91,15.0,203.7,Aug-22,1018599,2020-03-21 10:39:53:247,-0.3516,0.0738,9.3189,-0.0016,0.0108,9.8066,-0.0075,0.0212,-0.0011,-2.12,14.08,-58.29,46.28,-11.49,23.41
2038,52.305508,-1.575185,87,29.91,15.0,203.7,Nov-22,1019099,2020-03-21 10:39:53:747,-0.1627,0.9541,10.7355,-0.0051,0.0068,9.8066,0.0,0.0106,-0.0789,-2.48,14.12,-58.26,42.38,-11.91,22.55
2039,52.305508,-1.575185,87,29.91,15.0,203.7,Nov-22,1019598,2020-03-21 10:39:54:246,-0.1356,0.4392,9.0957,-0.0065,0.0134,9.8066,-0.0235,-0.0086,0.001,-2.77,13.86,-58.31,44.35,-11.97,22.33
2040,52.305508,-1.575185,87,29.91,15.0,203.7,Dec-22,1020099,2020-03-21 10:39:54:747,0.2335,-0.4847,9.7408,0.0118,-0.0269,9.8066,0.033,0.0127,-0.0267,-3.1,13.52,-58.37,43.36,-12.05,22.11
2041,52.305508,-1.575185,87,29.91,15.0,203.7,Dec-22,1020599,2020-03-21 10:39:55:247,0.4979,0.1738,9.9193,0.007,-0.0084,9.8066,0.0085,-0.015,-0.0213,-2.78,13.93,-58.29,46.51,-11.72,22.75
2042,52.305508,-1.575185,87,29.91,15.0,203.7,Dec-22,1021099,2020-03-21 10:39:55:747,0.3246,-0.1173,9.3979,0.0005,0.0001,9.8067,0.0149,-0.0438,0.0138,-2.79,14.33,-58.2,50.75,-11.21,23.58
2043,52.305508,-1.575185,87,29.91,15.0,203.7,Dec-22,1021599,2020-03-21 10:39:56:247,0.1552,0.0145,9.1904,-0.0027,0.0027,9.8067,0.0021,-0.0395,-0.0032,-2.59,12.26,-58.68,54.58,-11.4,23.24
2044,52.305508,-1.575185,87,29.91,15.0,203.7,Dec-22,1022098,2020-03-21 10:39:56:746,0.0636,0.0235,9.3815,0.0057,-0.0105,9.8066,0.001,0.0021,-0.0458,-2.2,12.54,-58.63,48.97,-11.44,23.19
2045,52.305508,-1.575185,87,29.91,15.0,203.7,Dec-22,1022598,2020-03-21 10:39:57:246,-0.0347,-0.0281,9.5813,0.006,-0.006,9.8066,-0.0032,0.0191,-0.0171,-2.91,12.1,-58.69,56.04,-11.19,23.57
2046,52.305508,-1.575185,87,29.91,15.0,203.7,Dec-22,1023099,2020-03-21 10:39:57:747,-0.0833,0.4427,9.7433,-0.002,0.0065,9.8066,-0.0277,-0.0043,0.001,-2.92,11.81,-58.75,56.78,-11.08,23.74
2047,52.305508,-1.575185,87,29.91,15.0,203.7,Dec-22,1023598,2020-03-21 10:39:58:246,-0.0732,-0.3783,11.5093,-0.0033,0.0027,9.8066,-0.0256,0.0138,-0.0086,-2.55,12.46,-58.64,57.28,-10.91,23.72
2048,52.305508,-1.575185,87,29.91,15.0,203.7,Dec-22,1024099,2020-03-21 10:39:58:747,0.2119,-0.2662,9.3581,0.0034,-0.0106,9.8066,0.0117,-0.0022,-0.0224,-3.26,11.74,-58.75,57.38,-10.97,23.85
2049,52.305508,-1.575185,87,29.91,15.0,203.7,Dec-22,1024598,2020-03-21 10:39:59:246,0.0349,-0.1101,9.5547,-0.0122,0.007,9.8066,-0.0469,0.0457,-0.0139,-3.32,12.27,-58.64,59.23,-10.8,24.46
2050,52.303535,-1.577705,98,30.85,6.0,221.4,13 / 22,1025099,2020-03-21 10:39:59:747,-0.0274,0.3907,9.6685,0.0066,-0.0011,9.8067,0.0085,0.0148,-0.0245,-3.65,11.47,-58.78,62.81,-10.98,24.04
2051,52.303535,-1.577705,98,30.85,6.0,221.4,13 / 22,1025598,2020-03-21 10:40:00:246,0.1872,-0.0179,8.641,-0.0027,0.0052,9.8066,0.0149,-0.0235,-0.0075,-4.34,11.53,-58.72,60.48,-11.01,23.87
2052,52.303535,-1.577705,98,30.85,6.0,221.4,13 / 22,1026098,2020-03-21 10:40:00:746,-0.7064,-0.0355,9.17,-0.0098,0.0069,9.8066,-0.0373,0.0116,-0.0075,-3.68,12.62,-58.54,57.15,-11.21,23.66
2053,52.303535,-1.577705,98,30.85,6.0,221.4,13 / 22,1026598,2020-03-21 10:40:01:246,0.1238,0.4978,11.1744,0.0018,0.0135,9.8066,0.0223,0.0734,-0.0671,-3.33,11.98,-58.7,52.46,-11.56,22.59
2054,52.303535,-1.577705,98,30.85,6.0,221.4,13 / 22,1027099,2020-03-21 10:40:01:747,0.155,-0.0168,10.4911,-0.0158,0.0322,9.8066,-0.0075,0.0042,0.0213,-4.06,11.61,-58.72,51.17,-12.13,21.65
2055,52.303535,-1.577705,98,30.85,6.0,221.4,13 / 22,1027599,2020-03-21 10:40:02:247,-0.3017,0.9721,9.4718,-0.0073,0.0179,9.8066,-0.0384,0.0159,0.001,-3.67,11.55,-58.76,47.79,-12.48,20.91
2056,52.303535,-1.577705,98,30.85,6.0,221.4,13 / 22,1028099,2020-03-21 10:40:02:747,0.1918,0.0297,8.5334,-0.0029,0.0097,9.8066,0.0064,-0.0235,0.0106,-3.7,11.26,-58.82,47.29,-12.76,20.09
2057,52.303535,-1.577705,98,30.85,6.0,221.4,13 / 22,1028599,2020-03-21 10:40:03:247,0.0147,-0.4898,9.9183,0.0114,-0.0143,9.8066,0.0095,0.0404,-0.0267,-3.99,11.4,-58.77,46.89,-12.8,20.0
2058,52.303535,-1.577705,98,30.85,6.0,221.4,13 / 22,1029098,2020-03-21 10:40:03:746,-0.0638,0.1929,10.228,-0.0018,-0.007,9.8066,-0.0011,-0.0022,-0.0362,-4.01,11.46,-58.76,48.67,-12.52,20.29
2059,52.303535,-1.577705,98,30.85,6.0,221.4,13 / 22,1029599,2020-03-21 10:40:04:247,0.2364,-0.7773,10.2042,0.0037,-0.015,9.8066,-0.0011,-0.0011,-0.0277,-4.34,11.89,-58.65,51.51,-12.1,21.74
2060,52.303535,-1.577705,98,30.85,6.0,221.4,13 / 22,1030099,2020-03-21 10:40:04:747,0.1724,-0.3104,9.6109,-0.0033,-0.0272,9.8066,-0.0139,-0.0129,-0.0362,-4.41,12.84,-58.44,54.09,-11.44,22.91
2061,52.303535,-1.577705,98,30.85,6.0,221.4,13 / 22,1030598,2020-03-21 10:40:05:246,-0.4066,-0.1688,10.3141,0.0083,-0.0076,9.8066,-0.0171,-0.015,-0.0139,-2.2,11.48,-58.85,57.56,-10.86,24.25
2062,52.303535,-1.577705,98,30.85,6.0,221.4,13 / 22,1031099,2020-03-21 10:40:05:747,0.5311,-0.5322,9.9935,0.0135,-0.0198,9.8066,0.0138,-0.0065,-0.0458,-4.34,11.89,-58.65,63.79,-10.48,24.62
2063,52.303535,-1.577705,98,30.85,6.0,221.4,13 / 22,1031599,2020-03-21 10:40:06:247,-0.1682,-0.0525,8.8418,0.0016,-0.0079,9.8066,0.0138,0.0319,-0.0149,-5.1,11.61,-58.64,67.23,-10.47,24.62
2064,52.303535,-1.577705,98,30.85,6.0,221.4,13 / 22,1032098,2020-03-21 10:40:06:746,-0.2827,0.6839,9.1583,0.0018,0.005,9.8066,0.0117,0.0031,-0.0224,-5.06,11.88,-58.59,67.66,-10.32,24.56
2065,52.303535,-1.577705,98,30.85,6.0,221.4,13 / 22,1032599,2020-03-21 10:40:07:247,0.0925,1.1979,8.5582,0.0113,0.0052,9.8066,0.0287,0.0116,-0.0117,-5.43,11.52,-58.63,66.59,-10.46,24.22
2066,52.303535,-1.577705,98,30.85,6.0,221.4,13 / 22,1033098,2020-03-21 10:40:07:746,-0.7577,0.5002,10.6601,-0.0121,0.0036,9.8066,0.0351,-0.0683,-0.0235,-4.86,9.61,-56.3,66.95,-10.95,23.52
2067,52.303535,-1.577705,98,30.85,6.0,221.4,13 / 22,1033599,2020-03-21 10:40:08:247,0.1167,-0.0699,11.8481,-0.0065,0.0179,9.8066,-0.0597,-0.0086,-0.0533,-5.24,9.61,-55.92,66.5,-10.93,23.2
2068,52.303535,-1.577705,98,30.85,6.0,221.4,0 / 22,1034099,2020-03-21 10:40:08:747,-0.3171,0.1548,10.1253,-0.0084,-0.0051,9.8066,-0.0043,-0.0491,-0.0043,-5.24,9.99,-55.49,65.96,-11.06,23.15
2069,52.303535,-1.577705,98,30.85,6.0,221.4,0 / 22,1034599,2020-03-21 10:40:09:247,-0.2458,0.0762,9.8741,-0.0055,0.0006,9.8067,-0.032,0.0266,-0.0171,-5.61,9.99,-55.92,69.04,-11.2,23.08
2070,52.303535,-1.577705,98,30.85,6.0,221.4,Sep-22,1035099,2020-03-21 10:40:09:747,-0.3683,-0.0974,9.5457,-0.0122,-0.009,9.8066,-0.0086,-0.0256,-0.0267,-5.99,9.24,-55.49,69.76,-11.37,22.79
2071,52.303535,-1.577705,98,30.85,6.0,221.4,Sep-22,1035598,2020-03-21 10:40:10:246,-0.6858,0.2902,9.4998,-0.0069,0.0065,9.8066,0.0021,-0.0256,0.0277,-5.99,9.61,-55.49,67.17,-11.48,22.56
2072,52.301582,-1.58136,98,30.5,10.0,230.9,Oct-22,1036098,2020-03-21 10:40:10:746,0.3186,-0.36,9.677,0.0064,-0.0002,9.8066,0.0127,0.0191,-0.016,-5.99,9.61,-55.49,66.18,-11.58,22.24
2073,52.301582,-1.58136,98,30.5,10.0,230.9,Oct-22,1036599,2020-03-21 10:40:11:247,0.0168,-0.0417,9.1237,0.0144,0.0,9.8066,0.0223,0.0074,-0.0149,-5.99,9.24,-55.92,68.25,-11.48,22.19
2074,52.301582,-1.58136,98,30.5,10.0,230.9,Oct-22,1037098,2020-03-21 10:40:11:746,0.0671,0.0316,9.3349,0.011,0.0089,9.8066,-0.0043,0.0266,-0.0213,-5.99,8.86,-55.92,69.61,-11.3,22.64
2075,52.301582,-1.58136,98,30.5,10.0,230.9,Oct-22,1037598,2020-03-21 10:40:12:246,0.0875,-0.3173,9.613,0.0135,-0.0103,9.8066,0.0341,-0.0288,-0.0064,-6.36,8.86,-55.92,70.04,-11.27,22.84
2076,52.301582,-1.58136,98,30.5,10.0,230.9,Oct-22,1038098,2020-03-21 10:40:12:746,-0.7677,0.6402,10.3442,-0.0041,0.0139,9.8066,-0.0022,-0.0363,-0.016,-7.05,8.86,-55.05,74.57,-11.22,23.07
2077,52.301582,-1.58136,98,30.5,10.0,230.9,Oct-22,1038599,2020-03-21 10:40:13:247,-0.0196,-0.0687,9.2395,-0.0062,-0.0023,9.8066,-0.0224,0.0116,0.0021,-7.05,8.86,-55.86,73.74,-11.3,22.88
2078,52.301582,-1.58136,98,30.5,10.0,230.9,Oct-22,1039098,2020-03-21 10:40:13:746,-0.0068,-0.1058,10.5283,-0.0185,-0.0094,9.8066,-0.0192,-0.0288,0.0064,-6.36,9.61,-55.05,68.65,-11.26,22.9
2079,52.301582,-1.58136,98,30.5,10.0,230.9,Oct-22,1039599,2020-03-21 10:40:14:247,-0.6151,0.3707,9.7593,-0.0016,0.001,9.8067,0.0085,-0.0352,-0.0213,-5.99,9.61,-55.49,68.36,-11.21,22.62
2080,52.301582,-1.58136,98,30.5,10.0,230.9,Oct-22,1040098,2020-03-21 10:40:14:746,0.0051,0.14,9.4249,0.0002,0.0044,9.8067,0.0127,0.0244,-0.0149,-6.68,9.24,-55.49,74.69,-11.11,22.85
2081,52.301582,-1.58136,98,30.5,10.0,230.9,Oct-22,1040599,2020-03-21 10:40:15:247,0.0225,-0.004,10.5399,0.0068,0.0071,9.8066,0.0074,0.0574,-0.0054,-7.05,9.61,-55.86,73.84,-10.94,22.94
2082,52.301582,-1.58136,98,30.5,10.0,230.9,Oct-22,1041098,2020-03-21 10:40:15:746,0.5993,-0.0647,9.2763,0.0061,0.0065,9.8066,-0.0043,0.0287,-0.0203,-6.68,9.24,-55.05,75.14,-10.97,22.74
2083,52.301582,-1.58136,98,30.5,10.0,230.9,Oct-22,1041599,2020-03-21 10:40:16:247,-0.4447,0.4625,9.4914,-0.0002,0.0065,9.8066,-0.0128,-0.0214,-0.0107,-8.18,8.86,-55.86,79.18,-10.96,23.05
2084,52.301582,-1.58136,98,30.5,10.0,230.9,0 / 22,1042099,2020-03-21 10:40:16:747,-0.3416,0.1643,10.5531,-0.0152,0.0118,9.8066,-0.0245,0.0074,0.0255,-7.8,9.24,-55.49,79.23,-11.02,22.92
2085,52.301582,-1.58136,98,30.5,10.0,230.9,0 / 22,1042598,2020-03-21 10:40:17:246,0.0279,0.6066,8.9963,0.0176,-0.0071,9.8066,0.0064,0.0063,-0.0149,-7.8,9.61,-55.49,78.06,-11.04,22.99
2086,52.301582,-1.58136,98,30.5,10.0,230.9,Jul-22,1043099,2020-03-21 10:40:17:747,-0.8247,0.6244,9.2325,-0.0184,0.0072,9.8066,-0.016,0.0308,-0.0235,-8.18,8.86,-55.86,77.23,-11.31,22.51
2087,52.301582,-1.58136,98,30.5,10.0,230.9,Jul-22,1043598,2020-03-21 10:40:18:246,0.3913,0.0529,10.1379,-0.0069,0.003,9.8066,-0.015,-0.0118,0.0,-7.8,8.49,-55.49,78.56,-11.32,22.38
2088,52.301582,-1.58136,98,30.5,10.0,230.9,Jul-22,1044099,2020-03-21 10:40:18:747,-0.2176,-0.1747,9.8336,-0.0016,-0.0077,9.8066,0.0,0.0425,-0.0245,-7.8,8.49,-55.42,78.69,-11.29,22.36
2089,52.301582,-1.58136,98,30.5,10.0,230.9,Jul-22,1044598,2020-03-21 10:40:19:246,-0.144,0.2397,9.671,0.0076,-0.0007,9.8066,0.0074,0.0425,-0.0362,-8.55,8.86,-55.42,81.72,-11.35,22.53
2090,52.301582,-1.58136,98,30.5,10.0,230.9,Jul-22,1045099,2020-03-21 10:40:19:747,-0.2425,-0.149,7.0706,-0.0013,0.0056,9.8067,0.0053,-0.0001,0.0053,-8.18,8.86,-55.49,77.74,-11.26,22.43
2091,52.301582,-1.58136,98,30.5,10.0,230.9,Jul-22,1045598,2020-03-21 10:40:20:246,0.0587,0.0651,9.874,0.0013,0.0105,9.8066,0.0053,0.0053,0.0042,-8.18,9.24,-55.05,78.44,-11.14,22.63
2092,52.301582,-1.58136,98,30.5,10.0,230.9,Jul-22,1046099,2020-03-21 10:40:20:747,-0.0539,-0.1906,10.1176,0.0011,0.0016,9.8066,0.0404,-0.0299,0.0,-7.8,8.49,-55.05,79.0,-11.2,22.34
2093,52.301582,-1.58136,98,30.5,10.0,230.9,Jul-22,1046598,2020-03-21 10:40:21:246,-0.1846,0.1212,9.223,-0.0071,-0.005,9.8066,-0.0309,0.0447,-0.016,-8.5,6.5,-50.89,81.9,-11.24,22.54
2094,52.301582,-1.58136,98,30.5,10.0,230.9,Jul-22,1047099,2020-03-21 10:40:21:747,0.0623,0.2502,9.3463,0.002,-0.0043,9.8066,-0.0011,-0.0065,-0.0277,-7.75,6.88,-51.71,81.14,-11.25,22.23
2095,52.301582,-1.58136,98,30.5,10.0,230.9,Jul-22,1047598,2020-03-21 10:40:22:246,0.1989,0.3557,9.7353,-0.0022,-0.0014,9.8067,-0.0075,-0.0171,0.0191,-8.12,7.25,-50.89,81.93,-11.19,22.31
2096,52.301582,-1.58136,98,30.5,10.0,230.9,Jul-22,1048099,2020-03-21 10:40:22:747,0.7327,-0.1697,10.598,0.0134,-0.0034,9.8066,0.0,0.0095,-0.0224,-7.75,7.25,-50.96,83.08,-10.96,22.71
2097,52.301582,-1.58136,98,30.5,10.0,230.9,Jul-22,1048598,2020-03-21 10:40:23:246,-0.8407,1.3397,9.1974,0.0136,-0.0022,9.8066,0.0724,-0.0576,-0.0267,-8.5,7.63,-50.96,81.23,-11.19,22.61
2098,52.301582,-1.58136,98,30.5,10.0,230.9,Jul-22,1049099,2020-03-21 10:40:23:747,-0.3118,-0.2039,9.877,-0.0034,-0.0045,9.8066,-0.0043,0.0234,-0.0608,-8.12,7.63,-50.96,82.14,-11.07,23.14
2099,52.301582,-1.58136,98,30.5,10.0,230.9,Jul-22,1049599,2020-03-21 10:40:24:247,0.504,-0.3368,8.3022,-0.0071,-0.0027,9.8066,-0.0554,0.0425,0.0085,-8.44,8.0,-52.21,82.38,-10.92,23.46
2100,52.301582,-1.58136,98,30.5,10.0,230.9,0 / 22,1050099,2020-03-21 10:40:24:747,-0.2398,-0.5447,10.143,0.0026,-0.0064,9.8066,0.0234,-0.0097,-0.0384,-8.12,7.63,-52.64,82.5,-10.79,23.62
2101,52.301582,-1.58136,98,30.5,10.0,230.9,0 / 22,1050598,2020-03-21 10:40:25:246,-1.2624,1.372,10.054,-0.0199,0.0007,9.8066,-0.0448,0.0351,-0.0128,-8.44,8.0,-52.27,82.44,-10.91,23.5
2102,52.301582,-1.58136,98,30.5,10.0,230.9,Feb-22,1051099,2020-03-21 10:40:25:747,0.2839,0.2805,11.6211,-0.0014,-0.0014,9.8067,0.0042,-0.0331,-0.0256,-8.81,8.31,-51.46,86.78,-11.05,23.62
2103,52.301582,-1.58136,98,30.5,10.0,230.9,Feb-22,1051599,2020-03-21 10:40:26:247,-0.1233,-0.2953,9.0852,0.003,-0.0143,9.8066,0.0436,-0.0523,-0.0341,-8.12,8.69,-51.46,80.44,-11.31,23.49
2104,52.301582,-1.58136,98,30.5,10.0,230.9,Mar-22,1052098,2020-03-21 10:40:26:746,0.3865,-0.3612,10.4046,-0.0101,0.006,9.8066,-0.016,0.0127,-0.0096,-8.81,8.38,-52.64,83.64,-11.47,23.12
2105,52.301582,-1.58136,98,30.5,10.0,230.9,Mar-22,1052598,2020-03-21 10:40:27:246,0.051,-0.8644,9.4781,-0.0016,0.0001,9.8067,0.0234,-0.0065,0.0,-8.81,8.69,-51.46,84.74,-11.33,23.13
2106,52.301582,-1.58136,98,30.5,10.0,230.9,Apr-22,1053099,2020-03-21 10:40:27:747,-0.156,-0.0415,9.3402,-0.0015,0.0161,9.8066,-0.0032,-0.0011,0.0234,-8.44,9.06,-51.83,79.04,-11.4,22.93
2107,52.301582,-1.58136,98,30.5,10.0,230.9,Apr-22,1053598,2020-03-21 10:40:28:246,-0.0211,0.2105,10.3119,-0.0035,0.0069,9.8066,0.0,0.0095,-0.0032,-8.81,9.44,-51.83,83.42,-11.44,22.88
2108,52.301582,-1.58136,98,30.5,10.0,230.9,Jun-22,1054099,2020-03-21 10:40:28:747,0.0635,0.0753,9.9633,-0.0009,-0.002,9.8066,0.001,0.0063,-0.0352,-8.81,9.06,-51.83,83.69,-11.41,23.12
2109,52.301582,-1.58136,98,30.5,10.0,230.9,Jun-22,1054598,2020-03-21 10:40:29:246,-0.143,-0.0693,10.5941,-0.0262,0.0063,9.8066,0.0117,-0.0448,-0.0022,-9.19,8.69,-51.39,81.95,-11.85,22.46
2110,52.301582,-1.58136,98,30.5,10.0,230.9,Aug-22,1055099,2020-03-21 10:40:29:747,-0.3108,0.3317,10.5935,-0.0245,0.004,9.8066,0.0042,-0.0363,-0.0096,-9.19,9.06,-51.39,80.06,-12.17,22.0
2111,52.301582,-1.58136,98,30.5,10.0,230.9,Aug-22,1055599,2020-03-21 10:40:30:247,-0.3247,0.4538,8.7301,-0.0094,0.0082,9.8066,-0.0139,0.0031,-0.016,-8.81,8.69,-51.83,77.48,-12.45,21.42
2112,52.29865,-1.589045,102,30.97,45.0,243.3,Sep-22,1056099,2020-03-21 10:40:30:747,-0.1803,-0.2159,9.3642,-0.0024,-0.0074,9.8066,-0.0203,-0.0107,-0.0107,-8.81,8.69,-51.83,76.96,-12.55,21.38
2113,52.29865,-1.589045,102,30.97,45.0,243.3,Sep-22,1056598,2020-03-21 10:40:31:246,-0.348,-0.0406,11.0116,0.0074,-0.0009,9.8066,0.0213,0.0937,0.0085,-9.19,8.69,-52.21,78.5,-12.33,21.82
2114,52.29865,-1.589045,102,30.97,45.0,243.3,Sep-22,1057099,2020-03-21 10:40:31:747,-0.0291,0.4777,8.4086,0.0004,0.0021,9.8067,0.017,0.0351,0.016,-9.19,9.06,-51.39,78.53,-12.5,21.96
2115,52.29865,-1.589045,102,30.97,45.0,243.3,Sep-22,1057599,2020-03-21 10:40:32:247,0.0221,-0.1041,9.0479,0.0022,0.0056,9.8066,-0.0086,0.0404,0.0021,-9.19,8.75,-51.83,76.72,-12.76,21.97
2116,52.29865,-1.589045,102,30.97,45.0,243.3,0 / 22,1058099,2020-03-21 10:40:32:747,0.508,-0.0174,10.1609,0.0091,-0.0006,9.8066,0.0255,-0.0736,0.0287,-8.81,8.38,-52.21,78.05,-12.73,21.78
2117,52.29865,-1.589045,102,30.97,45.0,243.3,0 / 22,1058598,2020-03-21 10:40:33:246,0.6369,-0.5946,9.7037,0.0069,0.0002,9.8066,0.0085,-0.0054,0.0128,-9.19,8.75,-52.21,78.59,-12.46,22.4
2118,52.29865,-1.589045,102,30.97,45.0,243.3,May-22,1059099,2020-03-21 10:40:33:747,0.1358,-0.5383,9.6346,0.0108,-0.022,9.8066,0.0159,-0.0214,0.0032,-8.5,9.06,-51.39,75.96,-12.21,22.76
2119,52.29865,-1.589045,102,30.97,45.0,243.3,May-22,1059599,2020-03-21 10:40:34:247,-0.0564,0.3175,10.3441,-0.0187,0.0114,9.8066,-0.0086,0.0116,0.0053,-8.81,8.38,-52.21,80.56,-12.33,22.7
2120,52.29865,-1.589045,102,30.97,45.0,243.3,May-22,1060098,2020-03-21 10:40:34:746,-0.3461,0.1653,9.7558,-0.0026,-0.0021,9.8066,0.0021,0.0244,0.0032,-8.81,8.75,-51.33,79.27,-12.47,22.52
2121,52.29865,-1.589045,102,30.97,45.0,243.3,May-22,1060599,2020-03-21 10:40:35:247,-0.31,0.4948,10.8436,-0.0033,-0.0025,9.8066,-0.0022,0.0159,-0.0096,-9.19,9.06,-51.77,78.16,-12.54,22.36
2122,52.29865,-1.589045,102,30.97,45.0,243.3,May-22,1061098,2020-03-21 10:40:35:746,-0.2223,0.15,9.572,-0.0061,0.0106,9.8066,-0.0032,-0.0065,-0.0064,-8.5,8.75,-52.21,72.89,-12.67,22.26
2123,52.29865,-1.589045,102,30.97,45.0,243.3,May-22,1061599,2020-03-21 10:40:36:247,0.3888,-0.3618,9.2263,-0.0136,0.012,9.8066,-0.0256,0.0053,0.0106,-8.81,8.75,-51.33,77.85,-12.71,22.21
2124,52.29865,-1.589045,102,30.97,45.0,243.3,May-22,1062098,2020-03-21 10:40:36:746,0.4187,-0.5183,10.1117,0.006,-0.0026,9.8066,0.0074,0.0042,0.0053,-8.5,9.06,-51.33,74.76,-12.4,22.46
2125,52.29865,-1.589045,102,30.97,45.0,243.3,May-22,1062599,2020-03-21 10:40:37:247,-0.2206,-0.0737,9.2165,0.0017,-0.0024,9.8067,0.0095,0.0266,0.033,-8.81,9.06,-51.77,78.36,-12.51,22.4
2126,52.29865,-1.589045,102,30.97,45.0,243.3,May-22,1063098,2020-03-21 10:40:37:746,-0.4512,0.6179,9.4081,-0.0004,0.0006,9.8066,0.0053,0.0298,-0.0054,-8.12,9.13,-51.77,75.71,-12.25,23.06
2127,52.29865,-1.589045,102,30.97,45.0,243.3,May-22,1063599,2020-03-21 10:40:38:247,-0.0405,0.1613,9.561,-0.0022,0.0029,9.8067,0.001,0.0138,-0.0043,-8.81,9.81,-51.77,78.44,-12.39,23.19
2128,52.29865,-1.589045,102,30.97,45.0,243.3,May-22,1064099,2020-03-21 10:40:38:747,-0.2517,-0.4172,10.2607,-0.0086,0.0012,9.8066,-0.0331,0.0148,-0.0085,-8.5,9.13,-51.33,74.76,-12.54,22.91
2129,52.29865,-1.589045,102,30.97,45.0,243.3,May-22,1064598,2020-03-21 10:40:39:246,0.5996,-0.9219,10.1122,0.0064,-0.0156,9.8066,-0.0022,0.0361,-0.0384,-8.81,9.44,-51.77,78.46,-12.59,22.82
2130,52.29865,-1.589045,102,30.97,45.0,243.3,May-22,1065099,2020-03-21 10:40:39:747,0.5951,-0.1897,7.7695,0.001,-0.0052,9.8066,-0.0235,0.0628,-0.0245,-8.81,9.13,-51.33,78.17,-12.77,22.73
2131,52.29865,-1.589045,102,30.97,45.0,243.3,May-22,1065598,2020-03-21 10:40:40:246,-0.295,0.2569,8.6491,0.0175,-0.0126,9.8066,0.0021,0.0021,0.0106,-8.81,9.13,-51.33,79.71,-12.51,23.14
2132,52.29865,-1.589045,102,30.97,45.0,243.3,May-22,1066098,2020-03-21 10:40:40:746,-0.1346,0.2417,10.4948,0.001,0.0055,9.8066,0.0372,-0.0214,-0.0298,-8.5,9.13,-52.14,73.49,-12.68,22.71
2133,52.29865,-1.589045,102,30.97,45.0,243.3,May-22,1066599,2020-03-21 10:40:41:247,-0.1685,-0.115,9.6757,0.0003,0.0047,9.8067,0.0095,0.034,-0.0043,-8.81,9.44,-51.77,78.08,-12.72,22.97
2134,52.29865,-1.589045,102,30.97,45.0,243.3,May-22,1067099,2020-03-21 10:40:41:747,-0.1234,0.0259,9.5543,0.0122,-0.0015,9.8066,0.0149,-0.0065,0.0042,-8.5,8.75,-51.33,72.88,-12.92,22.69
2135,52.29865,-1.589045,102,30.97,45.0,243.3,May-22,1067599,2020-03-21 10:40:42:247,0.288,-0.0114,9.446,0.0112,0.0148,9.8066,0.001,0.0809,-0.0362,-8.5,8.75,-51.33,73.28,-12.8,22.6
2136,52.29865,-1.589045,102,30.97,45.0,243.3,Aug-22,1068098,2020-03-21 10:40:42:746,-0.0605,0.557,9.3232,0.0074,-0.0018,9.8066,0.0117,0.0106,0.0021,-8.5,9.44,-51.71,72.31,-12.91,22.52
2137,52.29865,-1.589045,102,30.97,45.0,243.3,Aug-22,1068599,2020-03-21 10:40:43:247,-0.3666,-0.1074,9.3027,-0.001,0.0,9.8067,0.0074,0.0138,0.0181,-8.81,8.75,-51.33,77.79,-12.88,22.8
2138,52.297367,-1.594235,106,30.77,19.0,244.9,Aug-22,1069098,2020-03-21 10:40:43:746,-1.4043,0.9504,8.1263,-0.022,-0.0173,9.8066,-0.0373,0.164,-0.1939,-8.81,9.13,-51.77,77.07,-12.87,22.63
2139,52.297367,-1.594235,106,30.77,19.0,244.9,Aug-22,1069599,2020-03-21 10:40:44:247,0.3272,-0.5457,10.3188,-0.0015,-0.0082,9.8066,-0.0096,-0.0193,0.0287,-8.81,9.13,-50.89,77.6,-12.89,22.69
2140,52.297367,-1.594235,106,30.77,19.0,244.9,Aug-22,1070098,2020-03-21 10:40:44:746,-0.1178,-0.6353,10.6159,-0.0035,-0.0143,9.8066,0.0266,-0.0054,-0.0256,-8.12,9.13,-50.89,73.39,-12.77,22.61
2141,52.297367,-1.594235,106,30.77,19.0,244.9,Aug-22,1070599,2020-03-21 10:40:45:247,-0.0718,-0.185,9.8959,0.0009,-0.009,9.8066,-0.0139,-0.0224,-0.0107,-8.12,9.81,-50.08,74.13,-12.54,23.32
2142,52.297367,-1.594235,106,30.77,19.0,244.9,Aug-22,1071099,2020-03-21 10:40:45:747,0.0498,1.3034,7.4075,0.0121,0.0058,9.8066,0.0532,-0.0214,0.0064,-2.95,14.39,-58.17,44.82,-12.49,22.97
2143,52.297367,-1.594235,106,30.77,19.0,244.9,Aug-22,1071598,2020-03-21 10:40:46:246,0.2968,-0.3753,10.8852,-0.0197,0.0114,9.8066,-0.0512,0.0361,0.017,-8.12,8.75,-50.89,74.11,-12.69,22.87
2144,52.297367,-1.594235,106,30.77,19.0,244.9,Aug-22,1072098,2020-03-21 10:40:46:746,-0.023,-0.052,10.3935,-0.0029,-0.0013,9.8067,-0.0107,0.0095,-0.0011,-7.75,9.44,-51.33,75.44,-12.48,23.27
2145,52.297367,-1.594235,106,30.77,19.0,244.9,Aug-22,1072599,2020-03-21 10:40:47:247,-0.0646,-0.0621,11.0028,-0.0276,-0.0003,9.8066,-0.0341,-0.0054,0.0074,-8.12,9.44,-50.89,74.62,-12.7,23.29
2146,52.297367,-1.594235,106,30.77,19.0,244.9,Aug-22,1073099,2020-03-21 10:40:47:747,-0.2952,0.2884,10.7969,-0.0159,-0.0049,9.8066,-0.0086,-0.0352,-0.0149,-7.75,9.44,-50.89,73.7,-12.84,23.04
2147,52.297367,-1.594235,106,30.77,19.0,244.9,Aug-22,1073599,2020-03-21 10:40:48:247,0.0068,0.2144,9.7501,-0.0148,0.0063,9.8066,-0.0107,-0.0278,0.0053,-8.12,9.44,-50.89,72.33,-13.05,22.69
2148,52.297367,-1.594235,106,30.77,19.0,244.9,Aug-22,1074099,2020-03-21 10:40:48:747,0.3814,-0.4598,9.6766,-0.0029,-0.0095,9.8066,-0.0256,0.0159,0.0064,-7.75,9.81,-51.33,71.66,-12.89,22.96
2149,52.297367,-1.594235,106,30.77,19.0,244.9,Aug-22,1074599,2020-03-21 10:40:49:247,0.2002,0.0338,8.9482,0.0033,-0.0043,9.8066,0.0,0.0468,-0.0267,-8.12,9.44,-51.33,73.34,-12.89,22.91
2150,52.297367,-1.594235,106,30.77,19.0,244.9,0 / 22,1075099,2020-03-21 10:40:49:747,0.1642,0.0332,9.0594,0.001,-0.0011,9.8067,-0.0203,0.0351,0.0074,-8.12,9.13,-51.33,73.79,-12.82,23.05
2151,52.297367,-1.594235,106,30.77,19.0,244.9,0 / 22,1075598,2020-03-21 10:40:50:246,0.5514,-0.292,9.463,0.0042,0.0001,9.8067,0.0021,0.0127,0.0085,-8.12,9.13,-50.89,74.25,-12.77,23.22
2152,52.297367,-1.594235,106,30.77,19.0,244.9,Jul-22,1076099,2020-03-21 10:40:50:747,0.3084,-0.3947,9.676,0.0011,-0.0135,9.8066,-0.0086,-0.0193,-0.0267,-8.5,9.44,-51.33,73.28,-12.92,22.95
2153,52.297367,-1.594235,106,30.77,19.0,244.9,Jul-22,1076599,2020-03-21 10:40:51:247,-0.4623,0.2248,8.6562,0.0045,-0.0015,9.8067,-0.0075,-0.0075,0.017,-8.12,9.44,-52.52,73.28,-12.67,22.79
2154,52.297367,-1.594235,106,30.77,19.0,244.9,Jul-22,1077099,2020-03-21 10:40:51:747,0.5071,-0.2729,8.646,0.0043,-0.0003,9.8067,0.0181,-0.0288,0.0319,-8.12,9.44,-51.71,72.61,-12.91,22.75
