,GPS LATITUDE (degrees),GPS LONGITUDE (degrees), GPS ALTITUDE (m),GPS SPEED (Kmh),GPS ACCURACY (m),GPS ORIENTATION (Â°), SATELLITES IN RANGE, TIME SINCE START (ms), DATE (YYYY-MO-DD HH-MI-SS_SSS),ACCELEROMETER X (m/s²) , ACCELEROMETER Y (m/s²), ACCELEROMETER Z (m/s²), GRAVITY X (m/s²), GRAVITY Y (m/s²), GRAVITY Z (m/s²), GYROSCOPE Yaw (rad/s), GYROSCOPE Pitch (rad/s), GYROSCOPE Roll (rad/s)
56761,46.178062,-0.50326,108.33,25.17,7.504,34.3,13 / 19,2794123,2019-08-12 11:11:16:613,-0.1734,-0.2614,9.9867,0.0014,-0.2077,9.8045,0.0028,-0.0104,-0.0028
56762,46.178062,-0.50326,108.33,25.17,7.504,34.3,13 / 19,2794123,2019-08-12 11:11:16:613,-0.1734,-0.2614,9.9867,0.0014,-0.2077,9.8045,0.0028,-0.0104,-0.0028
56763,46.178062,-0.50326,108.33,25.17,7.504,34.3,13 / 19,2794124,2019-08-12 11:11:16:614,-0.1734,-0.2614,9.9867,0.0014,-0.2077,9.8045,0.0028,-0.0104,-0.0028
56764,46.178062,-0.50326,108.33,25.17,7.504,34.3,13 / 19,2794124,2019-08-12 11:11:16:614,-0.1734,-0.2614,9.9867,0.0014,-0.2077,9.8045,0.0028,-0.0104,-0.0028
56765,46.178062,-0.50326,108.33,25.17,7.504,34.3,13 / 19,2794124,2019-08-12 11:11:16:614,-0.1734,-0.2614,9.9867,0.0014,-0.2077,9.8045,0.0028,-0.0104,-0.0028
56766,46.178062,-0.50326,108.33,25.17,7.504,34.3,13 / 19,2794129,2019-08-12 11:11:16:619,-0.1734,-0.2614,9.9867,0.0014,-0.2077,9.8045,0.0028,-0.0104,-0.0028
56767,46.178062,-0.50326,108.33,25.17,7.504,34.3,13 / 19,2794229,2019-08-12 11:11:16:719,-0.1734,-0.2614,9.9867,0.0014,-0.2077,9.8045,0.0028,-0.0104,-0.0028
56768,46.178062,-0.50326,108.33,25.17,7.504,34.3,13 / 19,2794329,2019-08-12 11:11:16:819,-0.1453,-0.2242,9.1529,0.0014,-0.2077,9.8045,0.0028,-0.0104,-0.0028
56769,46.178062,-0.50326,108.33,25.17,7.504,34.3,13 / 19,2794429,2019-08-12 11:11:16:919,-0.3069,-0.162,10.1261,-0.1612,-0.0975,9.8048,-0.0036,-0.0018,-0.0028
56770,46.178062,-0.50326,108.33,25.17,7.504,34.3,13 / 19,2794529,2019-08-12 11:11:17:019,-0.6319,0.011,10.4152,-0.2243,-0.0856,9.8037,-0.0014,0.0035,-0.0007
56771,46.178062,-0.50326,108.33,25.17,7.504,34.3,13 / 19,2794629,2019-08-12 11:11:17:119,-0.6474,-0.0668,9.9807,-0.2796,-0.0683,9.8024,0.0007,0.0067,0.0004
56772,46.178062,-0.50326,108.33,25.17,7.504,34.3,13 / 19,2794729,2019-08-12 11:11:17:219,-0.563,-0.0806,10.0387,-0.3203,-0.0543,9.8013,-0.0025,0.0003,0.0004
56773,46.178062,-0.50326,108.33,25.17,7.504,34.3,13 / 19,2794829,2019-08-12 11:11:17:319,-0.1692,0.0649,9.5318,-0.3283,-0.041,9.8011,0.0007,-0.005,0.0004
56774,46.178062,-0.50326,108.33,25.17,7.504,34.3,13 / 19,2794929,2019-08-12 11:11:17:419,-0.4362,-0.0135,9.8526,-0.341,-0.0221,9.8007,0.0007,-0.0018,0.0015
56775,46.178062,-0.50326,108.33,25.17,7.504,34.3,13 / 19,2795029,2019-08-12 11:11:17:519,-0.411,-0.0363,10.0453,-0.3374,-0.0045,9.8008,0.0007,-0.0135,-0.0007
56776,46.178062,-0.50326,108.33,25.17,7.504,34.3,13 / 19,2795129,2019-08-12 11:11:17:619,-0.0423,0.2462,9.3396,-0.3162,-0.0121,9.8015,-0.0046,0.0003,-0.0007
56777,46.178062,-0.50326,108.33,25.17,7.504,34.3,13 / 19,2795229,2019-08-12 11:11:17:719,-0.1135,-0.1452,10.5726,-0.3022,-0.0053,9.802,0.0071,-0.005,0.0004
56778,46.178062,-0.50326,108.33,25.17,7.504,34.3,13 / 19,2795329,2019-08-12 11:11:17:819,-0.1363,0.0104,9.758,-0.2907,-0.0064,9.8023,-0.0025,-0.0008,0.0025
56779,46.178062,-0.50326,108.33,25.17,7.504,34.3,13 / 19,2795429,2019-08-12 11:11:17:919,-0.1297,-0.0381,9.5826,-0.2891,-0.0062,9.8024,0.0018,0.0035,0.0025
56780,46.178062,-0.50326,108.33,25.17,7.504,34.3,13 / 19,2795529,2019-08-12 11:11:18:019,0.4048,0.0361,9.9077,-0.274,0.0012,9.8028,0.0039,-0.0029,0.0015
56781,46.178062,-0.50326,108.33,25.17,7.504,34.3,13 / 19,2795629,2019-08-12 11:11:18:119,-0.1459,0.1451,9.0104,-0.2593,0.0025,9.8032,-0.0025,-0.0082,0.0004
56782,46.178062,-0.50326,108.33,25.17,7.504,34.3,13 / 19,2795729,2019-08-12 11:11:18:219,-0.0459,0.0643,9.4749,-0.247,0.0034,9.8035,-0.0025,0.0014,0.0015
56783,46.178062,-0.50326,108.33,25.17,7.504,34.3,13 / 19,2795829,2019-08-12 11:11:18:319,-0.0483,0.0038,9.518,-0.2399,-0.0005,9.8037,-0.0068,0.0024,0.0015
56784,46.178062,-0.50326,108.33,25.17,7.504,34.3,13 / 19,2795929,2019-08-12 11:11:18:419,0.3605,-0.1434,10.2991,-0.2,0.0079,9.8046,0.0018,0.0003,0.0025
56785,46.178062,-0.50326,108.33,25.17,7.504,34.3,13 / 19,2796029,2019-08-12 11:11:18:519,0.2013,0.078,10.4511,-0.1631,0.0156,9.8053,0.0039,-0.005,0.0025
56786,46.178062,-0.50326,108.33,25.17,7.504,34.3,13 / 19,2796129,2019-08-12 11:11:18:619,0.0702,-0.1806,10.3416,-0.1412,0.0187,9.8056,-0.0014,-0.0061,0.0015
56787,46.178062,-0.50326,108.33,25.17,7.504,34.3,13 / 19,2796229,2019-08-12 11:11:18:719,0.2456,-0.0435,9.5312,-0.1251,0.0162,9.8058,-0.0014,-0.0061,0.0015
56788,46.178062,-0.50326,108.33,25.17,7.504,34.3,13 / 19,2796329,2019-08-12 11:11:18:819,0.2953,-0.1159,10.1991,-0.1037,0.0118,9.8061,-0.0036,-0.0029,0.0004
56789,46.178062,-0.50326,108.33,25.17,7.504,34.3,13 / 19,2796429,2019-08-12 11:11:18:919,0.2767,0.0301,9.6347,-0.0926,0.0099,9.8062,-0.0057,-0.0008,0.0004
56790,46.178062,-0.50326,108.33,25.17,7.504,34.3,13 / 19,2796529,2019-08-12 11:11:19:019,0.1337,0.0254,9.6545,-0.0804,0.004,9.8063,-0.0046,0.0046,0.0025
56791,46.178062,-0.50326,108.33,25.17,7.504,34.3,13 / 19,2796629,2019-08-12 11:11:19:119,0.3066,0.1517,9.3761,-0.0373,0.0085,9.8066,-0.0057,0.0024,0.0036
56792,46.178062,-0.50326,108.33,25.17,7.504,34.3,13 / 19,2796729,2019-08-12 11:11:19:219,0.3324,-0.0854,10.4134,0.0582,0.0142,9.8065,-0.0004,0.0035,0.0025
56793,46.178062,-0.50326,108.33,25.17,7.504,34.3,13 / 19,2796829,2019-08-12 11:11:19:319,0.3174,0.0116,9.9077,0.1,0.0175,9.8061,-0.0025,-0.0029,0.0025
56794,46.178062,-0.50326,108.33,25.17,7.504,34.3,13 / 19,2796929,2019-08-12 11:11:19:419,0.4623,-0.1369,10.7211,0.1679,0.0299,9.8052,0.0007,-0.0072,0.0004
56795,46.178062,-0.50326,108.33,25.17,7.504,34.3,13 / 19,2797029,2019-08-12 11:11:19:519,0.3665,-0.2242,9.7407,0.1955,0.021,9.8047,0.006,-0.0061,-0.0007
56796,46.178062,-0.50326,108.33,25.17,7.504,34.3,13 / 19,2797129,2019-08-12 11:11:19:619,0.3312,0.0098,9.8526,0.2049,0.0085,9.8045,-0.0057,0.0078,0.0004
56797,46.178062,-0.50326,108.33,25.17,7.504,34.3,13 / 19,2797229,2019-08-12 11:11:19:719,0.1115,-0.0555,9.7131,0.2105,-0.0026,9.8044,0.0007,0.0035,0.0004
56798,46.178062,-0.50326,108.33,25.17,7.504,34.3,13 / 19,2797329,2019-08-12 11:11:19:819,0.1187,-0.2153,9.9322,0.1944,-0.01,9.8047,0.0039,-0.0018,0.0004
56799,46.178062,-0.50326,108.33,25.17,7.504,34.3,13 / 19,2797429,2019-08-12 11:11:19:919,0.0547,-0.0207,9.9232,0.1911,-0.0106,9.8048,-0.0014,-0.0029,0.0004
56800,46.178062,-0.50326,108.33,25.17,7.504,34.3,13 / 19,2797529,2019-08-12 11:11:20:019,0.0888,-0.0124,10.1201,0.1768,-0.0123,9.805,-0.0036,0.0099,0.0015
56801,46.178062,-0.50326,108.33,25.17,7.504,34.3,13 / 19,2797629,2019-08-12 11:11:20:119,-0.0447,-0.0908,10.0507,0.1641,-0.0182,9.8053,-0.0046,0.0014,0.0004
56802,46.178062,-0.50326,108.33,25.17,7.504,34.3,13 / 19,2797729,2019-08-12 11:11:20:219,-0.0603,-0.0549,9.4043,0.134,-0.023,9.8057,-0.0025,-0.0008,-0.0028
56803,46.178062,-0.50326,108.33,25.17,7.504,34.3,13 / 19,2797829,2019-08-12 11:11:20:319,-0.1854,-0.1093,9.5102,0.0825,-0.0404,9.8062,-0.0025,0.0035,-0.0049
56804,46.178062,-0.50326,108.33,25.17,7.504,34.3,13 / 19,2797929,2019-08-12 11:11:20:419,-0.0322,-0.1213,10.599,0.0048,-0.0673,9.8064,0.0007,0.0088,-0.0049
56805,46.178062,-0.50326,108.33,25.17,7.504,34.3,13 / 19,2798029,2019-08-12 11:11:20:519,-0.3314,-0.4774,9.4426,-0.0414,-0.0775,9.8063,-0.0014,0.0088,-0.0049
56806,46.178062,-0.50326,108.33,25.17,7.504,34.3,13 / 19,2798129,2019-08-12 11:11:20:619,-0.3937,-0.065,9.5384,-0.1,-0.0925,9.8057,0.006,-0.005,-0.006
56807,46.178062,-0.50326,108.33,25.17,7.504,34.3,13 / 19,2798230,2019-08-12 11:11:20:720,-0.1584,-0.1734,9.9172,-0.1253,-0.1118,9.8052,-0.0046,-0.004,-0.006
56808,46.178062,-0.50326,108.33,25.17,7.504,34.3,13 / 19,2798329,2019-08-12 11:11:20:819,-0.2273,-0.1632,10.28,-0.1475,-0.1245,9.8048,-0.0014,-0.0061,-0.0038
56809,46.178062,-0.50326,108.33,25.17,7.504,34.3,13 / 19,2798429,2019-08-12 11:11:20:919,-0.3524,-0.1716,10.0675,-0.1452,-0.1254,9.8048,-0.0014,-0.0093,-0.006
56810,46.178062,-0.50326,108.33,25.17,7.504,34.3,13 / 19,2798529,2019-08-12 11:11:21:019,-0.2859,-0.3523,10.2321,-0.1531,-0.1342,9.8045,-0.0057,0.0067,-0.0038
56811,46.178062,-0.50326,108.33,25.17,7.504,34.3,13 / 19,2798629,2019-08-12 11:11:21:119,-0.3356,-0.0411,9.1846,-0.162,-0.1351,9.8044,-0.0014,0.0056,-0.006
56812,46.178062,-0.50326,108.33,25.17,7.504,34.3,13 / 19,2798784,2019-08-12 11:11:21:274,-0.3177,-0.1405,9.5862,-0.1799,-0.1388,9.804,-0.011,0.0078,-0.0038
56813,46.178062,-0.50326,108.33,25.17,7.504,34.3,13 / 19,2798829,2019-08-12 11:11:21:319,-0.3177,-0.1405,9.5862,-0.1799,-0.1388,9.804,-0.011,0.0078,-0.0038
56814,46.178062,-0.50326,108.33,25.17,7.504,34.3,13 / 19,2798929,2019-08-12 11:11:21:419,-0.3177,-0.1405,9.5862,-0.1799,-0.1388,9.804,-0.011,0.0078,-0.0038
56815,46.18129,-0.499678,115.03,27.47,6.432,38.3,Dec-19,2799029,2019-08-12 11:11:21:519,-0.2907,-0.2572,9.9561,-0.244,-0.1515,9.8024,-0.0099,0.0088,-0.0049
56816,46.18129,-0.499678,115.03,27.47,6.432,38.3,Dec-19,2799129,2019-08-12 11:11:21:619,-0.1441,-0.0141,9.9532,-0.2316,-0.1553,9.8027,-0.0036,-0.0072,-0.0049
56817,46.18129,-0.499678,115.03,27.47,6.432,38.3,Dec-19,2799229,2019-08-12 11:11:21:719,-0.0806,-0.1225,9.8041,-0.207,-0.1602,9.8032,-0.0142,-0.0072,-0.006
56818,46.18129,-0.499678,115.03,27.47,6.432,38.3,Dec-19,2799329,2019-08-12 11:11:21:819,-0.0172,0.0062,10.0052,-0.1929,-0.1678,9.8033,-0.0057,0.0056,-0.0049
56819,46.18129,-0.499678,115.03,27.47,6.432,38.3,Dec-19,2799429,2019-08-12 11:11:21:919,0.1385,-0.3805,9.8406,-0.1652,-0.1726,9.8037,0.0028,-0.0018,-0.0049
56820,46.18129,-0.499678,115.03,27.47,6.432,38.3,Dec-19,2799529,2019-08-12 11:11:22:019,-0.1237,-0.074,9.6539,-0.1129,-0.1912,9.8041,0.006,0.0024,-0.006
56821,46.18129,-0.499678,115.03,27.47,6.432,38.3,Dec-19,2799629,2019-08-12 11:11:22:119,0.0295,-0.247,9.0218,-0.0527,-0.1979,9.8045,0.0082,-0.005,-0.0038
56822,46.18129,-0.499678,115.03,27.47,6.432,38.3,Dec-19,2799729,2019-08-12 11:11:22:219,0.1031,-0.0878,9.8406,-0.0351,-0.1974,9.8046,0.0124,0.0003,-0.0038
56823,46.18129,-0.499678,115.03,27.47,6.432,38.3,Dec-19,2799829,2019-08-12 11:11:22:319,0.0924,-0.1327,9.8358,-0.0235,-0.1763,9.805,0.0135,-0.0093,0.0015
56824,46.18129,-0.499678,115.03,27.47,6.432,38.3,Dec-19,2799929,2019-08-12 11:11:22:419,0.1594,-0.0154,10.1178,-0.0105,-0.1642,9.8053,0.0082,-0.0093,0.0015
56825,46.18129,-0.499678,115.03,27.47,6.432,38.3,Dec-19,2800029,2019-08-12 11:11:22:519,0.1307,0.0816,9.6132,-0.0072,-0.1566,9.8054,0.0039,0.0067,0.0025
56826,46.18129,-0.499678,115.03,27.47,6.432,38.3,Dec-19,2800129,2019-08-12 11:11:22:619,0.1738,0.0822,10.2261,-0.0064,-0.1462,9.8056,-0.0014,0.0056,0.0015
56827,46.18129,-0.499678,115.03,27.47,6.432,38.3,Dec-19,2800229,2019-08-12 11:11:22:719,0.0475,-0.0369,9.2307,0.0269,-0.1107,9.806,0.005,0.0024,-0.0007
56828,46.18129,-0.499678,115.03,27.47,6.432,38.3,Dec-19,2800331,2019-08-12 11:11:22:821,0.2276,-0.01,9.3791,0.0369,-0.0985,9.8061,0.0007,0.0014,-0.0017
56829,46.18129,-0.499678,115.03,27.47,6.432,38.3,Dec-19,2800429,2019-08-12 11:11:22:919,-0.0274,0.008,9.9777,0.0335,-0.0936,9.8061,0.0039,0.0078,0.0004
56830,46.18129,-0.499678,115.03,27.47,6.432,38.3,Dec-19,2800529,2019-08-12 11:11:23:019,0.008,0.1265,9.5671,0.0317,-0.0911,9.8062,-0.0036,0.0003,0.0004
56831,46.18129,-0.499678,115.03,27.47,6.432,38.3,Dec-19,2800629,2019-08-12 11:11:23:119,0.0792,-0.2955,10.0058,0.0356,-0.0642,9.8064,-0.0078,-0.0104,0.0025
56832,46.18129,-0.499678,115.03,27.47,6.432,38.3,Dec-19,2800729,2019-08-12 11:11:23:219,0.1558,0.3043,9.6144,0.0384,-0.0611,9.8064,-0.0014,0.0035,0.0057
56833,46.18129,-0.499678,115.03,27.47,6.432,38.3,Dec-19,2800829,2019-08-12 11:11:23:319,0.1786,-0.0261,10.3183,0.037,-0.0464,9.8065,0.0071,-0.0008,0.0079
56834,46.18129,-0.499678,115.03,27.47,6.432,38.3,Dec-19,2800929,2019-08-12 11:11:23:419,0.1786,0.2432,9.9753,0.0412,-0.0403,9.8065,0.005,-0.0029,0.0057
56835,46.18129,-0.499678,115.03,27.47,6.432,38.3,Dec-19,2801029,2019-08-12 11:11:23:519,0.0391,-0.001,9.8215,0.044,-0.034,9.8065,-0.0046,0.0024,0.0036
56836,46.18129,-0.499678,115.03,27.47,6.432,38.3,Dec-19,2801130,2019-08-12 11:11:23:620,0.166,0.2899,9.4025,0.0431,-0.0335,9.8065,-0.0036,0.0056,0.0036
56837,46.18129,-0.499678,115.03,27.47,6.432,38.3,Dec-19,2801231,2019-08-12 11:11:23:721,0.1618,0.2869,9.6916,0.087,0.0165,9.8063,0.0007,-0.0093,0.0047
56838,46.18129,-0.499678,115.03,27.47,6.432,38.3,Dec-19,2801330,2019-08-12 11:11:23:820,0.166,0.1145,9.8215,0.0923,0.0253,9.8062,-0.0014,0.0056,0.0047
56839,46.18129,-0.499678,115.03,27.47,6.432,38.3,Dec-19,2801429,2019-08-12 11:11:23:919,-0.0267,-0.0836,10.1501,0.0938,0.0417,9.8061,0.0018,-0.0018,0.0057
56840,46.18129,-0.499678,115.03,27.47,6.432,38.3,Dec-19,2801529,2019-08-12 11:11:24:019,-0.0088,0.108,9.9705,0.0969,0.0531,9.806,0.0039,0.0003,0.0036
56841,46.18129,-0.499678,115.03,27.47,6.432,38.3,Dec-19,2801629,2019-08-12 11:11:24:119,0.1929,-0.0866,10.1183,0.0824,0.0524,9.8062,-0.0036,0.0024,0.0047
56842,46.18129,-0.499678,115.03,27.47,6.432,38.3,Dec-19,2801728,2019-08-12 11:11:24:218,-0.0824,0.1349,10.2135,0.078,0.0544,9.8062,-0.0014,-0.0082,0.0036
56843,46.18129,-0.499678,115.03,27.47,6.432,38.3,Dec-19,2801829,2019-08-12 11:11:24:319,-0.2871,0.3019,9.6359,0.0638,0.0539,9.8063,-0.0036,0.0046,0.0025
56844,46.18129,-0.499678,115.03,27.47,6.432,38.3,Dec-19,2801930,2019-08-12 11:11:24:420,-0.2099,0.0008,9.8687,0.0483,0.0473,9.8064,-0.0068,0.0099,0.0025
56845,46.18129,-0.499678,115.03,27.47,6.432,38.3,Dec-19,2802031,2019-08-12 11:11:24:521,-0.2668,0.0032,9.7514,0.0363,0.0437,9.8065,-0.0025,-0.0072,0.0025
56846,46.18129,-0.499678,115.03,27.47,6.432,38.3,Dec-19,2802130,2019-08-12 11:11:24:620,-0.2321,-0.0034,9.8137,0.0303,0.0346,9.8065,-0.0132,0.0003,0.0015
56847,46.18129,-0.499678,115.03,27.47,6.432,38.3,Dec-19,2802231,2019-08-12 11:11:24:721,-0.0459,0.0266,10.0878,-0.0207,0.0298,9.8066,0.0028,0.0163,0.0004
56848,46.18129,-0.499678,115.03,27.47,6.432,38.3,Dec-19,2802329,2019-08-12 11:11:24:819,-0.2835,-0.1608,10.5715,-0.0743,0.0133,9.8064,0.0082,0.0024,-0.0007
56849,46.18129,-0.499678,115.03,27.47,6.432,38.3,Dec-19,2802429,2019-08-12 11:11:24:919,-0.2919,0.1116,9.3881,-0.1276,-0.0011,9.8058,0.0071,-0.005,-0.0007
56850,46.18129,-0.499678,115.03,27.47,6.432,38.3,Dec-19,2802530,2019-08-12 11:11:25:020,-0.1423,-0.2494,9.7658,-0.1393,-0.0148,9.8057,0.005,-0.0072,-0.0017
56851,46.18129,-0.499678,115.03,27.47,6.432,38.3,Dec-19,2802629,2019-08-12 11:11:25:119,-0.1022,0.0547,10.0369,-0.1527,-0.0375,9.8054,0.0018,0.0024,-0.0017
56852,46.18129,-0.499678,115.03,27.47,6.432,38.3,Dec-19,2802729,2019-08-12 11:11:25:219,-0.2051,-0.1213,9.8023,-0.1577,-0.0438,9.8053,0.0082,-0.004,-0.0028
56853,46.18129,-0.499678,115.03,27.47,6.432,38.3,Dec-19,2802829,2019-08-12 11:11:25:319,-0.0525,0.0876,9.8658,-0.1467,-0.0534,9.8054,-0.0014,0.0067,-0.0017
56854,46.18129,-0.499678,115.03,27.47,6.432,38.3,Dec-19,2802929,2019-08-12 11:11:25:419,-0.0411,-0.2314,9.2923,-0.1453,-0.0546,9.8054,0.0018,0.0099,-0.0028
56855,46.18129,-0.499678,115.03,27.47,6.432,38.3,Dec-19,2803029,2019-08-12 11:11:25:519,0.0325,-0.0243,10.3727,-0.1322,-0.0645,9.8055,0.0007,-0.0157,-0.0038
56856,46.18129,-0.499678,115.03,27.47,6.432,38.3,Dec-19,2803214,2019-08-12 11:11:25:704,-0.1171,-0.1566,10.3153,-0.1206,-0.0752,9.8056,-0.0036,0.0003,-0.0017
56857,46.18129,-0.499678,115.03,27.47,6.432,38.3,Dec-19,2803315,2019-08-12 11:11:25:805,0.0199,-0.0495,9.6347,-0.1157,-0.0736,9.8057,0.0018,-0.0018,-0.0017
56858,46.18129,-0.499678,115.03,27.47,6.432,38.3,Dec-19,2803415,2019-08-12 11:11:25:905,0.1301,-0.0076,9.6724,-0.1071,-0.0726,9.8058,-0.0004,0.0035,-0.0017
56859,46.18129,-0.499678,115.03,27.47,6.432,38.3,Dec-19,2803514,2019-08-12 11:11:26:004,0.072,-0.1764,10.3632,-0.0758,-0.0713,9.8061,0.0028,0.0046,-0.0007
56860,46.18129,-0.499678,115.03,27.47,6.432,38.3,Dec-19,2803614,2019-08-12 11:11:26:104,0.0505,-0.2805,9.7879,-0.0415,-0.0719,9.8063,0.0039,-0.004,-0.0017
56861,46.18129,-0.499678,115.03,27.47,6.432,38.3,Dec-19,2803714,2019-08-12 11:11:26:204,-0.0214,-0.1261,9.9029,-0.035,-0.0759,9.8063,0.0028,0.0003,-0.0028
56862,46.18129,-0.499678,115.03,27.47,6.432,38.3,Dec-19,2803814,2019-08-12 11:11:26:304,-0.1129,-0.095,9.7065,-0.0281,-0.0741,9.8063,0.006,-0.0018,-0.0038
56863,46.18129,-0.499678,115.03,27.47,6.432,38.3,Dec-19,2803914,2019-08-12 11:11:26:404,0.1271,0.0313,9.5443,-0.0201,-0.0723,9.8064,-0.0004,0.0014,-0.0017
56864,46.18129,-0.499678,115.03,27.47,6.432,38.3,Dec-19,2804015,2019-08-12 11:11:26:505,-0.1554,-0.2925,10.1459,-0.0323,-0.086,9.8062,0.0028,0.0046,-0.0028
56865,46.18129,-0.499678,115.03,27.47,6.432,38.3,Dec-19,2804116,2019-08-12 11:11:26:606,0.0373,0.0912,10.5014,-0.031,-0.0878,9.8062,0.005,0.0014,-0.0038
56866,46.18129,-0.499678,115.03,27.47,6.432,38.3,Dec-19,2804214,2019-08-12 11:11:26:704,-0.0836,-0.2913,9.6934,-0.0324,-0.0894,9.8062,-0.0014,0.0014,-0.0038
56867,46.18129,-0.499678,115.03,27.47,6.432,38.3,Dec-19,2804316,2019-08-12 11:11:26:806,0.0068,0.1421,9.2445,-0.0312,-0.0888,9.8062,0.0018,0.0003,-0.0028
56868,46.18129,-0.499678,115.03,27.47,6.432,38.3,Dec-19,2804414,2019-08-12 11:11:26:904,-0.0597,-0.229,10.1213,-0.032,-0.0837,9.8062,-0.0014,-0.0018,-0.0028
56869,46.18129,-0.499678,115.03,27.47,6.432,38.3,Dec-19,2804515,2019-08-12 11:11:27:005,-0.0579,-0.1051,9.3618,-0.039,-0.0908,9.8062,-0.0036,-0.0018,-0.0017
56870,46.18129,-0.499678,115.03,27.47,6.432,38.3,Dec-19,2804614,2019-08-12 11:11:27:104,-0.0914,0.014,10.2626,-0.0412,-0.0746,9.8063,0.0028,-0.0072,-0.0007
56871,46.18129,-0.499678,115.03,27.47,6.432,38.3,Dec-19,2804714,2019-08-12 11:11:27:204,0.0966,0.0349,9.2307,-0.0392,-0.0689,9.8063,0.0071,0.0014,0.0004
56872,46.18129,-0.499678,115.03,27.47,6.432,38.3,Dec-19,2805055,2019-08-12 11:11:27:545,0.0966,0.0349,9.2307,-0.0392,-0.0689,9.8063,0.0071,0.0014,0.0004
56873,46.18129,-0.499678,115.03,27.47,6.432,38.3,Dec-19,2805055,2019-08-12 11:11:27:545,0.0966,0.0349,9.2307,-0.0392,-0.0689,9.8063,0.0071,0.0014,0.0004
56874,46.18129,-0.499678,115.03,27.47,6.432,38.3,Dec-19,2805056,2019-08-12 11:11:27:546,0.0966,0.0349,9.2307,-0.0392,-0.0689,9.8063,0.0071,0.0014,0.0004
56875,46.18129,-0.499678,115.03,27.47,6.432,38.3,Dec-19,2805056,2019-08-12 11:11:27:546,0.0966,0.0349,9.2307,-0.0392,-0.0689,9.8063,0.0071,0.0014,0.0004
56876,46.18129,-0.499678,115.03,27.47,6.432,38.3,Dec-19,2805057,2019-08-12 11:11:27:547,0.0966,0.0349,9.2307,-0.0392,-0.0689,9.8063,0.0071,0.0014,0.0004
56877,46.18129,-0.499678,115.03,27.47,6.432,38.3,Dec-19,2805057,2019-08-12 11:11:27:547,0.0966,0.0349,9.2307,-0.0392,-0.0689,9.8063,0.0071,0.0014,0.0004
56878,46.18129,-0.499678,115.03,27.47,6.432,38.3,Dec-19,2805057,2019-08-12 11:11:27:547,0.0966,0.0349,9.2307,-0.0392,-0.0689,9.8063,0.0071,0.0014,0.0004
56879,46.18129,-0.499678,115.03,27.47,6.432,38.3,Dec-19,2805058,2019-08-12 11:11:27:548,0.0966,0.0349,9.2307,-0.0392,-0.0689,9.8063,0.0071,0.0014,0.0004
56880,46.18129,-0.499678,115.03,27.47,6.432,38.3,Dec-19,2805058,2019-08-12 11:11:27:548,0.0966,0.0349,9.2307,-0.0392,-0.0689,9.8063,0.0071,0.0014,0.0004
56881,46.18129,-0.499678,115.03,27.47,6.432,38.3,Dec-19,2805058,2019-08-12 11:11:27:548,0.0966,0.0349,9.2307,-0.0392,-0.0689,9.8063,0.0071,0.0014,0.0004
56882,46.18129,-0.499678,115.03,27.47,6.432,38.3,Dec-19,2805059,2019-08-12 11:11:27:549,0.0966,0.0349,9.2307,-0.0392,-0.0689,9.8063,0.0071,0.0014,0.0004
56883,46.18129,-0.499678,115.03,27.47,6.432,38.3,Dec-19,2805060,2019-08-12 11:11:27:550,0.0966,0.0349,9.2307,-0.0392,-0.0689,9.8063,0.0071,0.0014,0.0004
56884,46.18129,-0.499678,115.03,27.47,6.432,38.3,Dec-19,2805060,2019-08-12 11:11:27:550,0.0966,0.0349,9.2307,-0.0392,-0.0689,9.8063,0.0071,0.0014,0.0004
56885,46.18129,-0.499678,115.03,27.47,6.432,38.3,Dec-19,2805060,2019-08-12 11:11:27:550,0.0966,0.0349,9.2307,-0.0392,-0.0689,9.8063,0.0071,0.0014,0.0004
56886,46.18129,-0.499678,115.03,27.47,6.432,38.3,Dec-19,2805061,2019-08-12 11:11:27:551,0.0966,0.0349,9.2307,-0.0392,-0.0689,9.8063,0.0071,0.0014,0.0004
56887,46.18129,-0.499678,115.03,27.47,6.432,38.3,Dec-19,2805062,2019-08-12 11:11:27:552,0.0966,0.0349,9.2307,-0.0392,-0.0689,9.8063,0.0071,0.0014,0.0004
56888,46.18129,-0.499678,115.03,27.47,6.432,38.3,Dec-19,2805062,2019-08-12 11:11:27:552,0.0966,0.0349,9.2307,-0.0392,-0.0689,9.8063,0.0071,0.0014,0.0004
56889,46.18129,-0.499678,115.03,27.47,6.432,38.3,Dec-19,2805063,2019-08-12 11:11:27:553,0.0966,0.0349,9.2307,-0.0392,-0.0689,9.8063,0.0071,0.0014,0.0004
56890,46.18129,-0.499678,115.03,27.47,6.432,38.3,Dec-19,2805063,2019-08-12 11:11:27:553,0.0966,0.0349,9.2307,-0.0392,-0.0689,9.8063,0.0071,0.0014,0.0004
56891,46.18129,-0.499678,115.03,27.47,6.432,38.3,Dec-19,2805064,2019-08-12 11:11:27:554,0.0966,0.0349,9.2307,-0.0392,-0.0689,9.8063,0.0071,0.0014,0.0004
56892,46.18129,-0.499678,115.03,27.47,6.432,38.3,Dec-19,2805065,2019-08-12 11:11:27:555,0.0966,0.0349,9.2307,-0.0392,-0.0689,9.8063,0.0071,0.0014,0.0004
56893,46.18129,-0.499678,115.03,27.47,6.432,38.3,Dec-19,2805066,2019-08-12 11:11:27:556,0.0966,0.0349,9.2307,-0.0392,-0.0689,9.8063,0.0071,0.0014,0.0004
56894,46.18129,-0.499678,115.03,27.47,6.432,38.3,Dec-19,2805068,2019-08-12 11:11:27:558,0.0966,0.0349,9.2307,-0.0392,-0.0689,9.8063,0.0071,0.0014,0.0004
56895,46.18129,-0.499678,115.03,27.47,6.432,38.3,Dec-19,2805128,2019-08-12 11:11:27:618,0.0966,0.0349,9.2307,-0.0392,-0.0689,9.8063,0.0071,0.0014,0.0004
56896,46.18129,-0.499678,115.03,27.47,6.432,38.3,Dec-19,2805228,2019-08-12 11:11:27:718,0.0966,0.0349,9.2307,-0.0392,-0.0689,9.8063,0.0071,0.0014,0.0004
56897,46.18129,-0.499678,115.03,27.47,6.432,38.3,Dec-19,2805328,2019-08-12 11:11:27:818,0.0032,0.0876,9.5443,-0.0161,0.0167,9.8066,-0.0004,0.0056,0.0015
56898,46.18129,-0.499678,115.03,27.47,6.432,38.3,Dec-19,2805428,2019-08-12 11:11:27:918,0.0032,0.0876,9.5443,-0.0161,0.0167,9.8066,-0.0004,0.0056,0.0015
56899,46.18129,-0.499678,115.03,27.47,6.432,38.3,Dec-19,2805528,2019-08-12 11:11:28:018,0.008,-0.2129,10.28,-0.0071,-0.0235,9.8066,0.005,-0.0104,-0.0017
56900,46.18129,-0.499678,115.03,27.47,6.432,38.3,Dec-19,2805628,2019-08-12 11:11:28:118,0.0505,-0.238,9.9532,0.0089,-0.0718,9.8064,-0.0025,0.0035,-0.006
56901,46.18129,-0.499678,115.03,27.47,6.432,38.3,Dec-19,2805749,2019-08-12 11:11:28:239,0.1522,-0.0944,9.4791,0.0124,-0.1061,9.8061,-0.0014,-0.0029,-0.006
56902,46.18129,-0.499678,115.03,27.47,6.432,38.3,Dec-19,2805828,2019-08-12 11:11:28:318,0.1522,-0.0944,9.4791,0.0124,-0.1061,9.8061,-0.0014,-0.0029,-0.006
56903,46.18129,-0.499678,115.03,27.47,6.432,38.3,Dec-19,2805927,2019-08-12 11:11:28:417,0.1522,-0.0944,9.4791,0.0124,-0.1061,9.8061,-0.0014,-0.0029,-0.006
56904,46.18129,-0.499678,115.03,27.47,6.432,38.3,Nov-19,2806028,2019-08-12 11:11:28:518,-0.104,-0.1632,9.3103,0.0256,-0.1293,9.8058,-0.0025,0.0024,-0.006
56905,46.18129,-0.499678,115.03,27.47,6.432,38.3,Nov-19,2806129,2019-08-12 11:11:28:619,0.1121,-0.0878,9.7119,0.0332,-0.1411,9.8056,0.0018,-0.004,-0.0038
56906,46.18129,-0.499678,115.03,27.47,6.432,38.3,Nov-19,2806228,2019-08-12 11:11:28:718,0.1899,0.0565,9.8436,0.0396,-0.1422,9.8055,-0.0078,-0.0082,-0.0017
56907,46.18129,-0.499678,115.03,27.47,6.432,38.3,Nov-19,2806329,2019-08-12 11:11:28:819,0.072,-0.0213,9.7293,0.0377,-0.1392,9.8056,0.0028,0.0067,0.0004
56908,46.18129,-0.499678,115.03,27.47,6.432,38.3,Nov-19,2806429,2019-08-12 11:11:28:919,-0.0363,-0.1668,10.3392,0.0442,-0.1193,9.8058,0.0018,0.0078,0.0004
56909,46.18129,-0.499678,115.03,27.47,6.432,38.3,Nov-19,2806528,2019-08-12 11:11:29:018,-0.1728,-0.2272,9.4671,0.0529,-0.0958,9.806,0.0028,0.0024,0.0004
56910,46.18129,-0.499678,115.03,27.47,6.432,38.3,Nov-19,2806629,2019-08-12 11:11:29:119,0.1546,0.0547,10.0328,0.0554,-0.0885,9.8061,0.005,-0.0018,0.0015
56911,46.18129,-0.499678,115.03,27.47,6.432,38.3,Nov-19,2806978,2019-08-12 11:11:29:468,0.0918,0.1313,9.746,0.0565,-0.0889,9.8061,-0.0046,-0.0008,0.0025
56912,46.18129,-0.499678,115.03,27.47,6.432,38.3,Nov-19,2806979,2019-08-12 11:11:29:469,0.0918,0.1313,9.746,0.0565,-0.0889,9.8061,-0.0046,-0.0008,0.0025
56913,46.18129,-0.499678,115.03,27.47,6.432,38.3,Nov-19,2806980,2019-08-12 11:11:29:470,0.0918,0.1313,9.746,0.0565,-0.0889,9.8061,-0.0046,-0.0008,0.0025
56914,46.18129,-0.499678,115.03,27.47,6.432,38.3,0 / 20,2806980,2019-08-12 11:11:29:470,0.0918,0.1313,9.746,0.0565,-0.0889,9.8061,-0.0046,-0.0008,0.0025
56915,46.183315,-0.497411,114.21,29.0,6.432,39.2,0 / 20,2807044,2019-08-12 11:11:29:534,0.0918,0.1313,9.746,0.0565,-0.0889,9.8061,-0.0046,-0.0008,0.0025
56916,46.183315,-0.497411,114.21,29.0,6.432,39.2,0 / 20,2807144,2019-08-12 11:11:29:634,0.0918,0.1313,9.746,0.0565,-0.0889,9.8061,-0.0046,-0.0008,0.0025
56917,46.183315,-0.497411,114.21,29.0,6.432,39.2,0 / 20,2807243,2019-08-12 11:11:29:733,-0.01,-0.238,9.5856,0.1263,-0.0194,9.8058,0.006,0.0046,-0.0028
56918,46.183315,-0.497411,114.21,29.0,6.432,39.2,0 / 20,2807343,2019-08-12 11:11:29:833,-0.1064,0.0176,9.5066,0.1203,-0.0177,9.8059,0.006,0.0056,-0.0038
56919,46.183315,-0.497411,114.21,29.0,6.432,39.2,0 / 20,2807444,2019-08-12 11:11:29:934,-0.2775,-0.0537,9.7245,0.0692,-0.0186,9.8064,-0.0057,-0.0018,-0.0017
56920,46.183315,-0.497411,114.21,29.0,6.432,39.2,0 / 20,2807544,2019-08-12 11:11:30:034,-0.3578,-0.2302,9.9095,0.0194,-0.0179,9.8066,-0.0036,-0.0018,-0.0028
56921,46.183315,-0.497411,114.21,29.0,6.432,39.2,0 / 20,2807644,2019-08-12 11:11:30:134,-0.3596,-0.0686,9.6251,-0.0437,-0.0421,9.8065,-0.0004,0.0035,-0.0028
56922,46.183315,-0.497411,114.21,29.0,6.432,39.2,0 / 20,2807744,2019-08-12 11:11:30:234,-0.3099,0.0846,9.6425,-0.0672,-0.0459,9.8063,-0.0099,0.0078,-0.0017
56923,46.183315,-0.497411,114.21,29.0,6.432,39.2,0 / 20,2807844,2019-08-12 11:11:30:334,-0.0567,-0.062,9.0829,-0.0837,-0.0467,9.8062,0.0039,0.0024,-0.0007
56924,46.183315,-0.497411,114.21,29.0,6.432,39.2,0 / 20,2807944,2019-08-12 11:11:30:434,-0.0274,0.1391,9.597,-0.1165,-0.0331,9.8059,0.005,0.0046,0.0004
56925,46.183315,-0.497411,114.21,29.0,6.432,39.2,0 / 20,2808044,2019-08-12 11:11:30:534,-0.1926,-0.0632,10.3356,-0.1344,-0.0042,9.8057,0.006,0.0003,0.0047
56926,46.183315,-0.497411,114.21,29.0,6.432,39.2,0 / 20,2808144,2019-08-12 11:11:30:634,-0.3003,-0.0291,10.1172,-0.1499,0.0126,9.8055,0.0092,-0.0018,0.0057
56927,46.183315,-0.497411,114.21,29.0,6.432,39.2,0 / 20,2808244,2019-08-12 11:11:30:734,-0.2626,0.3965,9.7161,-0.1653,0.0477,9.8051,-0.0036,0.0024,0.0068
56928,46.183315,-0.497411,114.21,29.0,6.432,39.2,0 / 20,2808344,2019-08-12 11:11:30:834,-0.2327,0.1217,10.1453,-0.1852,0.116,9.8042,-0.0036,0.0035,0.0079
56929,46.183315,-0.497411,114.21,29.0,6.432,39.2,0 / 20,2808444,2019-08-12 11:11:30:934,-0.2327,0.2893,9.3019,-0.1957,0.1338,9.8038,-0.0132,0.0003,0.0079
56930,46.183315,-0.497411,114.21,29.0,6.432,39.2,0 / 20,2808544,2019-08-12 11:11:31:034,-0.2536,0.436,9.0224,-0.2048,0.1759,9.8029,-0.0057,0.0014,0.0079
56931,46.183315,-0.497411,114.21,29.0,6.432,39.2,0 / 20,2808644,2019-08-12 11:11:31:134,-0.2704,-0.0525,10.575,-0.2135,0.1928,9.8024,-0.0004,0.0014,0.0079
56932,46.183315,-0.497411,114.21,29.0,6.432,39.2,0 / 20,2808744,2019-08-12 11:11:31:234,-0.265,0.2564,10.2063,-0.2121,0.1916,9.8025,-0.0014,-0.0029,0.0068
56933,46.183315,-0.497411,114.21,29.0,6.432,39.2,0 / 20,2808844,2019-08-12 11:11:31:334,-0.2769,0.1828,9.8604,-0.2119,0.1893,9.8025,-0.0036,-0.0008,0.0068
56934,46.183315,-0.497411,114.21,29.0,6.432,39.2,0 / 20,2808944,2019-08-12 11:11:31:434,-0.1932,0.099,10.034,-0.2141,0.1956,9.8024,0.0071,0.0014,0.0079
56935,46.183315,-0.497411,114.21,29.0,6.432,39.2,0 / 20,2809044,2019-08-12 11:11:31:534,-0.0399,0.3168,9.4127,-0.2019,0.1949,9.8026,0.0007,0.0024,0.0068
56936,46.183315,-0.497411,114.21,29.0,6.432,39.2,0 / 20,2809144,2019-08-12 11:11:31:634,-0.2291,0.2534,9.4731,-0.1912,0.2051,9.8026,-0.0057,0.0014,0.0068
56937,46.183315,-0.497411,114.21,29.0,6.432,39.2,0 / 20,2809244,2019-08-12 11:11:31:734,0.099,-0.0614,9.9597,-0.1816,0.2099,9.8027,-0.0014,0.0003,0.0068
56938,46.183315,-0.497411,114.21,29.0,6.432,39.2,0 / 20,2809343,2019-08-12 11:11:31:833,-0.071,0.4354,9.5342,-0.1655,0.2046,9.8031,-0.0046,-0.0008,0.0068
56939,46.183315,-0.497411,114.21,29.0,6.432,39.2,0 / 20,2809444,2019-08-12 11:11:31:934,-0.08,0.0074,9.9047,-0.14,0.2025,9.8036,-0.0078,-0.0061,0.0057
56940,46.183315,-0.497411,114.21,29.0,6.432,39.2,0 / 20,2809545,2019-08-12 11:11:32:035,-0.0405,-0.089,9.6252,-0.1265,0.1995,9.8038,-0.0014,0.0046,0.0057
56941,46.183315,-0.497411,114.21,29.0,6.432,39.2,0 / 20,2809644,2019-08-12 11:11:32:134,-0.0453,0.4114,9.2498,-0.1233,0.1959,9.8039,-0.0046,-0.0018,0.0057
56942,46.183315,-0.497411,114.21,29.0,6.432,39.2,0 / 20,2809744,2019-08-12 11:11:32:234,-0.0591,-0.0297,9.5042,-0.1084,0.193,9.8042,-0.0004,-0.0072,0.0036
56943,46.183315,-0.497411,114.21,29.0,6.432,39.2,0 / 20,2809844,2019-08-12 11:11:32:334,-0.159,-0.0279,9.6808,-0.1051,0.189,9.8043,-0.0036,0.0035,0.0025
56944,46.183315,-0.497411,114.21,29.0,6.432,39.2,0 / 20,2809943,2019-08-12 11:11:32:433,-0.1764,0.1768,10.3847,-0.0993,0.1822,9.8045,0.0028,-0.0061,0.0004
56945,46.183315,-0.497411,114.21,29.0,6.432,39.2,0 / 20,2810043,2019-08-12 11:11:32:533,0.09,-0.247,9.4785,-0.0892,0.1792,9.8046,0.0007,0.0014,-0.0007
56946,46.183315,-0.497411,114.21,29.0,6.432,39.2,0 / 20,2810144,2019-08-12 11:11:32:634,-0.0675,-0.0872,9.5288,-0.0812,0.1673,9.8049,-0.0014,-0.0008,-0.0007
56947,46.183315,-0.497411,114.21,29.0,6.432,39.2,0 / 20,2810244,2019-08-12 11:11:32:734,0.1008,0.2384,9.3241,-0.0815,0.1598,9.805,-0.0004,0.0099,-0.0007
56948,46.183315,-0.497411,114.21,29.0,6.432,39.2,0 / 20,2810344,2019-08-12 11:11:32:834,-0.1088,0.0194,10.0435,-0.074,0.1528,9.8052,0.0018,-0.0114,-0.0007
56949,46.183315,-0.497411,114.21,29.0,6.432,39.2,0 / 20,2810445,2019-08-12 11:11:32:935,-0.028,-0.1704,9.5904,-0.0653,0.1489,9.8053,0.0039,-0.005,-0.0017
56950,46.183315,-0.497411,114.21,29.0,6.432,39.2,0 / 20,2810544,2019-08-12 11:11:33:034,0.0966,-0.0662,9.8526,-0.0705,0.1378,9.8054,-0.0057,0.0099,-0.0017
56951,46.183315,-0.497411,114.21,29.0,6.432,39.2,0 / 20,2810644,2019-08-12 11:11:33:134,-0.1064,-0.2422,9.943,-0.0769,0.1289,9.8055,-0.0046,0.0067,-0.0028
56952,46.183315,-0.497411,114.21,29.0,6.432,39.2,0 / 20,2810744,2019-08-12 11:11:33:234,-0.007,-0.2626,10.1614,-0.0788,0.0719,9.8061,-0.0004,-0.005,-0.0028
56953,46.183315,-0.497411,114.21,29.0,6.432,39.2,0 / 20,2810844,2019-08-12 11:11:33:334,-0.1016,-0.0758,9.7496,-0.0864,0.0353,9.8062,-0.0036,-0.0029,-0.0028
56954,46.183315,-0.497411,114.21,29.0,6.432,39.2,0 / 20,2810944,2019-08-12 11:11:33:434,-0.1423,-0.238,9.6437,-0.1141,-0.0146,9.806,0.005,0.0046,-0.0049
56955,46.183315,-0.497411,114.21,29.0,6.432,39.2,0 / 20,2811043,2019-08-12 11:11:33:533,-0.1554,-0.1506,9.4989,-0.1325,-0.0437,9.8057,-0.0046,0.0067,-0.006
56956,46.183315,-0.497411,114.21,29.0,6.432,39.2,0 / 20,2811144,2019-08-12 11:11:33:634,-0.0268,-0.3074,10.4655,-0.1529,-0.0993,9.805,-0.0014,0.0035,-0.0081
56957,46.183315,-0.497411,114.21,29.0,6.432,39.2,0 / 20,2811244,2019-08-12 11:11:33:734,-0.2889,-0.4726,10.3554,-0.1742,-0.1294,9.8043,0.0007,0.0046,-0.0092
56958,46.183315,-0.497411,114.21,29.0,6.432,39.2,0 / 20,2811344,2019-08-12 11:11:33:834,-0.2626,-0.2985,9.8526,-0.176,-0.1377,9.8041,-0.0014,-0.0018,-0.0092
56959,46.183315,-0.497411,114.21,29.0,6.432,39.2,0 / 20,2811444,2019-08-12 11:11:33:934,-0.3003,-0.1327,9.8574,-0.175,-0.1375,9.8041,0.005,-0.0072,-0.0092
56960,46.183315,-0.497411,114.21,29.0,6.432,39.2,0 / 20,2811544,2019-08-12 11:11:34:034,-0.2135,-0.2829,9.7706,-0.1748,-0.1435,9.804,-0.0014,0.0056,-0.006
56961,46.183315,-0.497411,114.21,29.0,6.432,39.2,0 / 20,2811644,2019-08-12 11:11:34:134,-0.2339,-0.1734,9.4611,-0.1819,-0.1416,9.8039,0.005,0.0056,-0.0028
56962,46.183315,-0.497411,114.21,29.0,6.432,39.2,0 / 20,2812031,2019-08-12 11:11:34:521,-0.241,-0.0537,9.597,-0.1809,-0.1338,9.8041,0.0103,-0.0072,0.0025
56963,46.183315,-0.497411,114.21,29.0,6.432,39.2,0 / 20,2812031,2019-08-12 11:11:34:521,-0.241,-0.0537,9.597,-0.1809,-0.1338,9.8041,0.0103,-0.0072,0.0025
56964,46.183315,-0.497411,114.21,29.0,6.432,39.2,0 / 20,2812032,2019-08-12 11:11:34:522,-0.241,-0.0537,9.597,-0.1809,-0.1338,9.8041,0.0103,-0.0072,0.0025
56965,46.183315,-0.497411,114.21,29.0,6.432,39.2,0 / 20,2812044,2019-08-12 11:11:34:534,-0.241,-0.0537,9.597,-0.1809,-0.1338,9.8041,0.0103,-0.0072,0.0025
56966,46.183315,-0.497411,114.21,29.0,6.432,39.2,0 / 20,2812144,2019-08-12 11:11:34:634,-0.241,-0.0537,9.597,-0.1809,-0.1338,9.8041,0.0103,-0.0072,0.0025
56967,46.183315,-0.497411,114.21,29.0,6.432,39.2,0 / 20,2812244,2019-08-12 11:11:34:734,-0.2386,0.1169,10.0016,-0.1755,-0.0636,9.8049,0.0071,-0.0061,0.0036
56968,46.183315,-0.497411,114.21,29.0,6.432,39.2,0 / 20,2812343,2019-08-12 11:11:34:833,-0.11,0.1528,9.4498,-0.1788,-0.0517,9.8049,-0.0089,0.0109,-0.0007
56969,46.183315,-0.497411,114.21,29.0,6.432,39.2,0 / 20,2812444,2019-08-12 11:11:34:934,-0.0669,-0.0154,9.4845,-0.1617,-0.0313,9.8053,-0.0057,-0.004,-0.0007
56970,46.183315,-0.497411,114.21,29.0,6.432,39.2,0 / 20,2812543,2019-08-12 11:11:35:033,-0.0854,-0.2643,10.2231,-0.1466,-0.0353,9.8055,-0.0046,-0.004,-0.0028
56971,46.183315,-0.497411,114.21,29.0,6.432,39.2,0 / 20,2812643,2019-08-12 11:11:35:133,-0.1728,-0.0997,9.9939,-0.1196,-0.0581,9.8057,-0.0004,-0.004,-0.0007
56972,46.183315,-0.497411,114.21,29.0,6.432,39.2,0 / 20,2812743,2019-08-12 11:11:35:233,-0.1016,0.0643,9.7125,-0.1166,-0.0495,9.8058,-0.0046,0.0024,-0.0007
56973,46.183315,-0.497411,114.21,29.0,6.432,39.2,0 / 20,2812844,2019-08-12 11:11:35:334,-0.0465,-0.0902,10.1986,-0.1185,-0.0347,9.8059,0.0071,-0.004,-0.0017
56974,46.183315,-0.497411,114.21,29.0,6.432,39.2,0 / 20,2812944,2019-08-12 11:11:35:434,-0.3027,0.0206,9.8125,-0.1258,-0.0256,9.8058,-0.0046,0.0067,0.0004
56975,46.183315,-0.497411,114.21,29.0,6.432,39.2,0 / 20,2813044,2019-08-12 11:11:35:534,0.0074,0.4491,9.7065,-0.1245,-0.0149,9.8058,0.0018,0.0024,0.0036
56976,46.183315,-0.497411,114.21,29.0,6.432,39.2,0 / 20,2813144,2019-08-12 11:11:35:634,-0.107,-0.0596,9.3959,-0.1276,0.0156,9.8058,0.0028,-0.0008,0.0036
56977,46.183315,-0.497411,114.21,29.0,6.432,39.2,0 / 20,2813244,2019-08-12 11:11:35:734,-0.3159,-0.1991,9.5677,-0.1253,0.0435,9.8058,-0.0004,0.0035,0.0047
56978,46.183315,-0.497411,114.21,29.0,6.432,39.2,0 / 20,2813344,2019-08-12 11:11:35:834,-0.0932,0.2223,10.1429,-0.1224,0.0588,9.8057,-0.0099,-0.005,0.0047
56979,46.183315,-0.497411,114.21,29.0,6.432,39.2,0 / 20,2813444,2019-08-12 11:11:35:934,0.0948,0.1427,9.6198,-0.1142,0.0724,9.8057,0.0039,-0.004,0.0036
56980,46.183315,-0.497411,114.21,29.0,6.432,39.2,0 / 20,2813544,2019-08-12 11:11:36:034,-0.1758,-0.0686,10.1333,-0.1167,0.0698,9.8057,-0.011,0.0046,0.0025
56981,46.183315,-0.497411,114.21,29.0,6.432,39.2,0 / 20,2813644,2019-08-12 11:11:36:134,-0.08,0.2355,9.9226,-0.1147,0.0663,9.8058,-0.0025,0.0003,0.0025
56982,46.183315,-0.497411,114.21,29.0,6.432,39.2,0 / 20,2813744,2019-08-12 11:11:36:234,-0.1596,0.3133,9.2618,-0.1194,0.0624,9.8057,-0.0057,0.0099,0.0025
56983,46.183315,-0.497411,114.21,29.0,6.432,39.2,0 / 20,2813844,2019-08-12 11:11:36:334,0.0547,-0.1069,9.6772,-0.1162,0.0614,9.8058,0.0007,-0.0082,0.0004
56984,46.183315,-0.497411,114.21,29.0,6.432,39.2,0 / 20,2813944,2019-08-12 11:11:36:434,0.072,-0.2003,9.8466,-0.1023,0.0565,9.806,0.0007,-0.0018,0.0004
56985,46.183315,-0.497411,114.21,29.0,6.432,39.2,0 / 20,2814044,2019-08-12 11:11:36:534,-0.1902,-0.0363,10.0088,-0.0896,0.0347,9.8062,0.0028,-0.0029,0.0004
56986,46.183315,-0.497411,114.21,29.0,6.432,39.2,0 / 20,2814144,2019-08-12 11:11:36:634,-0.1902,0.0451,9.9663,-0.093,0.0403,9.8061,-0.0068,0.0099,0.0015
56987,46.183315,-0.497411,114.21,29.0,6.432,39.2,0 / 20,2814244,2019-08-12 11:11:36:734,-0.1507,0.0008,9.8137,-0.1045,0.035,9.806,-0.0014,0.0078,0.0025
56988,46.183315,-0.497411,114.21,29.0,6.432,39.2,0 / 20,2814344,2019-08-12 11:11:36:834,-0.1584,0.0972,9.1116,-0.1068,0.0313,9.806,-0.0004,0.0024,0.0015
56989,46.183315,-0.497411,114.21,29.0,6.432,39.2,0 / 20,2814444,2019-08-12 11:11:36:934,0.0427,0.2007,9.8191,-0.0992,0.0266,9.8061,-0.0036,-0.0093,-0.0007
56990,46.183315,-0.497411,114.21,29.0,6.432,39.2,0 / 20,2814544,2019-08-12 11:11:37:034,-0.0938,-0.0794,9.5408,-0.0916,0.0183,9.8062,-0.0025,-0.005,0.0004
56991,46.183315,-0.497411,114.21,29.0,6.432,39.2,0 / 20,2814644,2019-08-12 11:11:37:134,0.0187,-0.1644,10.2069,-0.0835,0.0055,9.8063,0.0007,0.0078,0.0015
56992,46.183315,-0.497411,114.21,29.0,6.432,39.2,0 / 20,2814744,2019-08-12 11:11:37:234,-0.0166,0.0074,10.1519,-0.0831,-0.0034,9.8063,0.0039,0.0035,0.0015
56993,46.183315,-0.497411,114.21,29.0,6.432,39.2,0 / 20,2814844,2019-08-12 11:11:37:334,-0.0956,0.0559,10.0729,-0.0766,-0.0027,9.8064,0.0018,-0.0018,0.0004
56994,46.183315,-0.497411,114.21,29.0,6.432,39.2,13 / 19,2814944,2019-08-12 11:11:37:434,-0.1944,-0.1039,9.9244,-0.0733,0.0008,9.8064,0.0007,-0.0018,0.0015
56995,46.183315,-0.497411,114.21,29.0,6.432,39.2,13 / 19,2815045,2019-08-12 11:11:37:535,0.014,0.1864,9.8771,-0.0807,0.0025,9.8063,0.0018,0.0099,0.0015
56996,46.183315,-0.497411,114.21,29.0,6.432,39.2,13 / 19,2815143,2019-08-12 11:11:37:633,-0.1441,0.1433,9.3498,-0.0815,0.0057,9.8063,-0.0004,0.0003,0.0015
56997,46.183315,-0.497411,114.21,29.0,6.432,39.2,13 / 19,2815244,2019-08-12 11:11:37:734,-0.1279,0.0732,9.1481,-0.0826,0.0144,9.8063,-0.0004,-0.004,-0.0007
56998,46.183315,-0.497411,114.21,29.0,6.432,39.2,13 / 19,2815344,2019-08-12 11:11:37:834,-0.0357,-0.1452,9.8562,-0.0862,0.0013,9.8063,-0.0025,0.0035,-0.0007
56999,46.183315,-0.497411,114.21,29.0,6.432,39.2,13 / 19,2815444,2019-08-12 11:11:37:934,-0.4122,-0.0734,10.3476,-0.0911,0.0014,9.8062,-0.0014,-0.0029,-0.0017
57000,46.183315,-0.497411,114.21,29.0,6.432,39.2,13 / 19,2815544,2019-08-12 11:11:38:034,0.0942,-0.162,10.3721,-0.0897,-0.0015,9.8062,-0.0057,0.0003,-0.0017
57001,46.183315,-0.497411,114.21,29.0,6.432,39.2,13 / 19,2815644,2019-08-12 11:11:38:134,-0.0417,-0.1213,9.6892,-0.0896,-0.0077,9.8062,-0.0068,0.0035,-0.0028
57002,46.183315,-0.497411,114.21,29.0,6.432,39.2,13 / 19,2815744,2019-08-12 11:11:38:234,-0.2674,-0.0932,10.2494,-0.0883,-0.0158,9.8062,-0.0057,-0.0072,-0.0007
57003,46.183315,-0.497411,114.21,29.0,6.432,39.2,13 / 19,2815845,2019-08-12 11:11:38:335,-0.1824,0.0876,9.8239,-0.0958,-0.0306,9.8061,0.0018,0.0035,-0.0007
57004,46.183315,-0.497411,114.21,29.0,6.432,39.2,13 / 19,2815944,2019-08-12 11:11:38:434,-0.2135,0.1672,9.5042,-0.1007,-0.0272,9.8061,0.0039,0.0046,-0.0007
57005,46.183315,-0.497411,114.21,29.0,6.432,39.2,13 / 19,2816044,2019-08-12 11:11:38:534,-0.0028,-0.1261,9.2169,-0.1229,-0.0359,9.8058,0.0007,0.0056,-0.0017
57006,46.183315,-0.497411,114.21,29.0,6.432,39.2,13 / 19,2816144,2019-08-12 11:11:38:634,0.0684,-0.183,10.18,-0.1322,-0.0526,9.8056,0.0018,-0.0029,-0.0017
57007,46.183315,-0.497411,114.21,29.0,6.432,39.2,13 / 19,2816249,2019-08-12 11:11:38:739,-0.1752,-0.2608,9.7724,-0.1262,-0.0506,9.8057,0.0018,-0.005,-0.0028
57008,46.183315,-0.497411,114.21,29.0,6.432,39.2,13 / 19,2816344,2019-08-12 11:11:38:834,-0.2189,-0.1895,9.8801,-0.1281,-0.0533,9.8057,-0.0014,0.0035,-0.0028
57009,46.183315,-0.497411,114.21,29.0,6.432,39.2,13 / 19,2816444,2019-08-12 11:11:38:934,-0.3003,-0.2039,10.0322,-0.1314,-0.0622,9.8056,-0.0036,0.0003,-0.0028
57010,46.183315,-0.497411,114.21,29.0,6.432,39.2,13 / 19,2816544,2019-08-12 11:11:39:034,-0.0202,0.1361,10.2776,-0.1327,-0.063,9.8055,-0.0099,0.0046,-0.0017
57011,46.183315,-0.497411,114.21,29.0,6.432,39.2,13 / 19,2816902,2019-08-12 11:11:39:392,-0.0202,0.1361,10.2776,-0.1327,-0.063,9.8055,-0.0099,0.0046,-0.0017
57012,46.183315,-0.497411,114.21,29.0,6.432,39.2,13 / 19,2816902,2019-08-12 11:11:39:392,-0.0202,0.1361,10.2776,-0.1327,-0.063,9.8055,-0.0099,0.0046,-0.0017
57013,46.183315,-0.497411,114.21,29.0,6.432,39.2,13 / 19,2816903,2019-08-12 11:11:39:393,-0.0202,0.1361,10.2776,-0.1327,-0.063,9.8055,-0.0099,0.0046,-0.0017
57014,46.183315,-0.497411,114.21,29.0,6.432,39.2,13 / 19,2816903,2019-08-12 11:11:39:393,-0.0202,0.1361,10.2776,-0.1327,-0.063,9.8055,-0.0099,0.0046,-0.0017
57015,46.183315,-0.497411,114.21,29.0,6.432,39.2,13 / 19,2816904,2019-08-12 11:11:39:394,-0.0202,0.1361,10.2776,-0.1327,-0.063,9.8055,-0.0099,0.0046,-0.0017
57016,46.183315,-0.497411,114.21,29.0,6.432,39.2,13 / 19,2816904,2019-08-12 11:11:39:394,-0.0202,0.1361,10.2776,-0.1327,-0.063,9.8055,-0.0099,0.0046,-0.0017
57017,46.183315,-0.497411,114.21,29.0,6.432,39.2,13 / 19,2816905,2019-08-12 11:11:39:395,-0.0202,0.1361,10.2776,-0.1327,-0.063,9.8055,-0.0099,0.0046,-0.0017
57018,46.183315,-0.497411,114.21,29.0,6.432,39.2,13 / 19,2816905,2019-08-12 11:11:39:395,-0.0202,0.1361,10.2776,-0.1327,-0.063,9.8055,-0.0099,0.0046,-0.0017
57019,46.183315,-0.497411,114.21,29.0,6.432,39.2,13 / 19,2816906,2019-08-12 11:11:39:396,-0.0202,0.1361,10.2776,-0.1327,-0.063,9.8055,-0.0099,0.0046,-0.0017
57020,46.183315,-0.497411,114.21,29.0,6.432,39.2,13 / 19,2816907,2019-08-12 11:11:39:397,-0.0202,0.1361,10.2776,-0.1327,-0.063,9.8055,-0.0099,0.0046,-0.0017
57021,46.183315,-0.497411,114.21,29.0,6.432,39.2,13 / 19,2816907,2019-08-12 11:11:39:397,-0.0202,0.1361,10.2776,-0.1327,-0.063,9.8055,-0.0099,0.0046,-0.0017
57022,46.183315,-0.497411,114.21,29.0,6.432,39.2,13 / 19,2816907,2019-08-12 11:11:39:397,-0.0202,0.1361,10.2776,-0.1327,-0.063,9.8055,-0.0099,0.0046,-0.0017
57023,46.183315,-0.497411,114.21,29.0,6.432,39.2,13 / 19,2816908,2019-08-12 11:11:39:398,-0.0202,0.1361,10.2776,-0.1327,-0.063,9.8055,-0.0099,0.0046,-0.0017
57024,46.183315,-0.497411,114.21,29.0,6.432,39.2,13 / 19,2816908,2019-08-12 11:11:39:398,-0.0202,0.1361,10.2776,-0.1327,-0.063,9.8055,-0.0099,0.0046,-0.0017
57025,46.183315,-0.497411,114.21,29.0,6.432,39.2,13 / 19,2816908,2019-08-12 11:11:39:398,-0.0202,0.1361,10.2776,-0.1327,-0.063,9.8055,-0.0099,0.0046,-0.0017
57026,46.183315,-0.497411,114.21,29.0,6.432,39.2,13 / 19,2816910,2019-08-12 11:11:39:400,-0.0202,0.1361,10.2776,-0.1327,-0.063,9.8055,-0.0099,0.0046,-0.0017
57027,46.183315,-0.497411,114.21,29.0,6.432,39.2,13 / 19,2816911,2019-08-12 11:11:39:401,-0.0202,0.1361,10.2776,-0.1327,-0.063,9.8055,-0.0099,0.0046,-0.0017
57028,46.183315,-0.497411,114.21,29.0,6.432,39.2,13 / 19,2816911,2019-08-12 11:11:39:401,-0.0202,0.1361,10.2776,-0.1327,-0.063,9.8055,-0.0099,0.0046,-0.0017
57029,46.183315,-0.497411,114.21,29.0,6.432,39.2,13 / 19,2816995,2019-08-12 11:11:39:485,-0.0202,0.1361,10.2776,-0.1327,-0.063,9.8055,-0.0099,0.0046,-0.0017
57030,46.183315,-0.497411,114.21,29.0,6.432,39.2,13 / 19,2817095,2019-08-12 11:11:39:585,-0.0202,0.1361,10.2776,-0.1327,-0.063,9.8055,-0.0099,0.0046,-0.0017
57031,46.183315,-0.497411,114.21,29.0,6.432,39.2,13 / 19,2817195,2019-08-12 11:11:39:685,-0.3524,0.0978,9.196,-0.3158,-0.0556,9.8014,-0.0014,0.0003,-0.0007
57032,46.183315,-0.497411,114.21,29.0,6.432,39.2,13 / 19,2817295,2019-08-12 11:11:39:785,-0.5271,0.0427,9.4982,-0.3485,-0.0485,9.8003,0.0071,0.0067,0.0015
57033,46.183315,-0.497411,114.21,29.0,6.432,39.2,13 / 19,2817395,2019-08-12 11:11:39:885,-0.5667,-0.2404,9.6515,-0.3658,-0.0422,9.7997,0.0092,-0.0029,0.0004
57034,46.183315,-0.497411,114.21,29.0,6.432,39.2,13 / 19,2817495,2019-08-12 11:11:39:985,-0.5379,-0.3368,9.7251,-0.3673,-0.0404,9.7997,-0.0014,-0.0061,-0.0017
57035,46.183315,-0.497411,114.21,29.0,6.432,39.2,13 / 19,2817596,2019-08-12 11:11:40:086,-0.5008,-0.0387,10.2476,-0.3666,-0.043,9.7997,-0.0057,0.0014,-0.0017
57036,46.183315,-0.497411,114.21,29.0,6.432,39.2,13 / 19,2817695,2019-08-12 11:11:40:185,-0.5283,0.0439,9.8837,-0.3796,-0.038,9.7992,0.0092,0.0014,-0.0028
57037,46.183315,-0.497411,114.21,29.0,6.432,39.2,13 / 19,2817795,2019-08-12 11:11:40:285,-0.3117,-0.0926,10.0543,-0.3867,-0.0317,9.799,-0.0046,-0.0018,-0.0007
57038,46.183315,-0.497411,114.21,29.0,6.432,39.2,13 / 19,2817895,2019-08-12 11:11:40:385,-0.1429,0.0553,10.0292,-0.3814,-0.0201,9.7992,-0.0036,0.0024,0.0025
57039,46.183315,-0.497411,114.21,29.0,6.432,39.2,13 / 19,2817995,2019-08-12 11:11:40:485,-0.2039,-0.1069,9.3857,-0.3715,-0.0297,9.7996,-0.0004,0.0024,0.0025
57040,46.183315,-0.497411,114.21,29.0,6.432,39.2,13 / 19,2818094,2019-08-12 11:11:40:584,-0.2255,0.4186,9.5066,-0.3483,-0.0179,9.8004,-0.0014,-0.005,0.0036
57041,46.183315,-0.497411,114.21,29.0,6.432,39.2,13 / 19,2818195,2019-08-12 11:11:40:685,-0.4224,0.1624,10.2865,-0.3293,-0.0044,9.8011,0.0018,-0.0146,0.0015
57042,46.183315,-0.497411,114.21,29.0,6.432,39.2,13 / 19,2818295,2019-08-12 11:11:40:785,-0.2883,-0.1776,9.9579,-0.2894,0.0112,9.8024,-0.0014,0.0014,0.0004
57043,46.183315,-0.497411,114.21,29.0,6.432,39.2,13 / 19,2818395,2019-08-12 11:11:40:885,-0.2775,-0.0447,10.0022,-0.2757,0.0112,9.8028,0.0007,0.0024,0.0004
57044,46.183315,-0.497411,114.21,29.0,6.432,39.2,13 / 19,2818495,2019-08-12 11:11:40:985,-0.3542,-0.0489,9.8502,-0.2716,0.0056,9.8029,-0.0036,0.0152,0.0015
57045,46.183315,-0.497411,114.21,29.0,6.432,39.2,13 / 19,2818595,2019-08-12 11:11:41:085,-0.0142,0.011,10.268,-0.2798,0.0047,9.8027,-0.0025,0.0024,0.0015
57046,46.183315,-0.497411,114.21,29.0,6.432,39.2,13 / 19,2818694,2019-08-12 11:11:41:184,-0.0944,-0.0166,9.6018,-0.2807,0.0042,9.8026,-0.0004,0.0056,-0.0007
57047,46.183315,-0.497411,114.21,29.0,6.432,39.2,13 / 19,2818794,2019-08-12 11:11:41:284,-0.1165,0.0296,9.6407,-0.2715,-0.0047,9.8029,-0.0046,-0.0018,-0.0017
57048,46.183315,-0.497411,114.21,29.0,6.432,39.2,13 / 19,2818894,2019-08-12 11:11:41:384,-0.0465,0.1636,9.7736,-0.2642,-0.006,9.8031,0.0018,-0.0072,-0.0017
57049,46.183315,-0.497411,114.21,29.0,6.432,39.2,13 / 19,2818994,2019-08-12 11:11:41:484,-0.2153,0.0888,9.5677,-0.2567,-0.01,9.8033,-0.0036,-0.0018,-0.0017
57050,46.183315,-0.497411,114.21,29.0,6.432,39.2,13 / 19,2819094,2019-08-12 11:11:41:584,-0.3805,-0.0956,9.6114,-0.2545,-0.0339,9.8033,0.0007,0.0056,-0.0038
57051,46.183315,-0.497411,114.21,29.0,6.432,39.2,13 / 19,2819195,2019-08-12 11:11:41:685,-0.317,-0.4182,9.5096,-0.2659,-0.0688,9.8028,0.0007,-0.0018,-0.0038
57052,46.183315,-0.497411,114.21,29.0,6.432,39.2,13 / 19,2819295,2019-08-12 11:11:41:785,-0.274,0.1193,9.9077,-0.264,-0.0764,9.8028,-0.0014,0.0014,-0.0028
57053,46.183315,-0.497411,114.21,29.0,6.432,39.2,13 / 19,2819395,2019-08-12 11:11:41:885,-0.6492,-0.2057,10.3045,-0.2783,-0.0779,9.8024,0.0028,0.0067,-0.0017
57054,46.183315,-0.497411,114.21,29.0,6.432,39.2,13 / 19,2819495,2019-08-12 11:11:41:985,-0.4643,-0.1093,9.7089,-0.291,-0.0744,9.8021,0.0039,0.0078,-0.0007
57055,46.183315,-0.497411,114.21,29.0,6.432,39.2,13 / 19,2819595,2019-08-12 11:11:42:085,-0.3248,0.0457,9.855,-0.3596,-0.05,9.7999,0.0039,-0.0018,0.0004
57056,46.183315,-0.497411,114.21,29.0,6.432,39.2,13 / 19,2819694,2019-08-12 11:11:42:184,-0.3841,0.2827,9.4576,-0.3892,-0.042,9.7988,-0.0025,-0.004,0.0004
57057,46.183315,-0.497411,114.21,29.0,6.432,39.2,13 / 19,2819795,2019-08-12 11:11:42:285,-0.4787,0.2043,9.4755,-0.4325,-0.0032,9.7971,0.0007,-0.0029,0.0025
57058,46.183315,-0.497411,114.21,29.0,6.432,39.2,13 / 19,2819895,2019-08-12 11:11:42:385,-0.5996,0.0667,9.4186,-0.4479,0.0194,9.7964,0.005,0.0046,0.0036
57059,46.183315,-0.497411,114.21,29.0,6.432,39.2,13 / 19,2819994,2019-08-12 11:11:42:484,-0.7833,0.0607,9.4186,-0.4793,0.0365,9.7949,0.0018,-0.0008,0.0036
57060,46.183315,-0.497411,114.21,29.0,6.432,39.2,13 / 19,2820095,2019-08-12 11:11:42:585,-0.7528,-0.0961,9.354,-0.4942,0.046,9.7941,-0.0004,-0.0018,0.0025
57061,46.183315,-0.497411,114.21,29.0,6.432,39.2,13 / 19,2820194,2019-08-12 11:11:42:684,-0.5158,-0.1231,9.9915,-0.4951,0.0604,9.794,0.005,0.0067,0.0004
57062,46.183315,-0.497411,114.21,29.0,6.432,39.2,13 / 19,2820295,2019-08-12 11:11:42:785,-0.4374,-0.1626,10.3667,-0.4894,0.06,9.7942,0.0018,-0.0114,-0.0028
57063,46.183315,-0.497411,114.21,29.0,6.432,39.2,13 / 19,2820395,2019-08-12 11:11:42:885,-0.4416,0.0164,9.8017,-0.4795,0.0482,9.7948,-0.0099,-0.0008,-0.0028
57064,46.183315,-0.497411,114.21,29.0,6.432,39.2,13 / 19,2820494,2019-08-12 11:11:42:984,0.066,0.2025,9.6874,-0.48,0.0367,9.7948,-0.0121,0.0088,-0.0028
57065,46.183315,-0.497411,114.21,29.0,6.432,39.2,13 / 19,2820595,2019-08-12 11:11:43:085,-0.5421,-0.0237,9.9011,-0.4686,0.0298,9.7954,0.0039,-0.0072,-0.0038
57066,46.183315,-0.497411,114.21,29.0,6.432,39.2,13 / 19,2820695,2019-08-12 11:11:43:185,-0.1471,-0.2224,9.1912,-0.4537,0.0218,9.7961,-0.0036,-0.005,-0.006
57067,46.183315,-0.497411,114.21,29.0,6.432,39.2,13 / 19,2820795,2019-08-12 11:11:43:285,-0.8653,-0.1099,9.0086,-0.4487,0.0141,9.7964,0.005,0.0078,-0.007
57068,46.183315,-0.497411,114.21,29.0,6.432,39.2,13 / 19,2820895,2019-08-12 11:11:43:385,-0.7223,-0.2548,9.8269,-0.4587,0.01,9.7959,0.0007,0.0088,-0.006
57069,46.183315,-0.497411,114.21,29.0,6.432,39.2,13 / 19,2820995,2019-08-12 11:11:43:485,-0.7504,-0.1614,9.7089,-0.4706,0.0028,9.7954,-0.0004,0.0046,-0.0049
57070,46.183315,-0.497411,114.21,29.0,6.432,39.2,13 / 19,2821095,2019-08-12 11:11:43:585,-0.3332,-0.1434,10.3757,-0.478,-0.0291,9.795,0.0018,0.0024,-0.0028
57071,46.183315,-0.497411,114.21,29.0,6.432,39.2,13 / 19,2821194,2019-08-12 11:11:43:684,-0.3877,-0.2452,9.3863,-0.5004,-0.041,9.7938,0.0007,0.0067,-0.0017
57072,46.183315,-0.497411,114.21,29.0,6.432,39.2,13 / 19,2821295,2019-08-12 11:11:43:785,-0.3763,0.1157,9.8358,-0.5084,-0.0394,9.7934,0.005,-0.0072,-0.0017
57073,46.183315,-0.497411,114.21,29.0,6.432,39.2,13 / 19,2821396,2019-08-12 11:11:43:886,-0.5206,0.1804,9.828,-0.5215,-0.0142,9.7928,0.0018,0.0056,0.0025
57074,46.183315,-0.497411,114.21,29.0,6.432,39.2,13 / 19,2821822,2019-08-12 11:11:44:312,-0.7588,0.2432,9.339,-0.5306,0.0097,9.7923,-0.0014,0.0067,0.0036
57075,46.183315,-0.497411,114.21,29.0,6.432,39.2,14 / 19,2821823,2019-08-12 11:11:44:313,-0.7588,0.2432,9.339,-0.5306,0.0097,9.7923,-0.0014,0.0067,0.0036
57076,46.183315,-0.497411,114.21,29.0,6.432,39.2,14 / 19,2821824,2019-08-12 11:11:44:314,-0.7588,0.2432,9.339,-0.5306,0.0097,9.7923,-0.0014,0.0067,0.0036
57077,46.183315,-0.497411,114.21,29.0,6.432,39.2,14 / 19,2821824,2019-08-12 11:11:44:314,-0.7588,0.2432,9.339,-0.5306,0.0097,9.7923,-0.0014,0.0067,0.0036
57078,46.183315,-0.497411,114.21,29.0,6.432,39.2,14 / 19,2821824,2019-08-12 11:11:44:314,-0.7588,0.2432,9.339,-0.5306,0.0097,9.7923,-0.0014,0.0067,0.0036
57079,46.183315,-0.497411,114.21,29.0,6.432,39.2,14 / 19,2821826,2019-08-12 11:11:44:316,-0.7588,0.2432,9.339,-0.5306,0.0097,9.7923,-0.0014,0.0067,0.0036
57080,46.183315,-0.497411,114.21,29.0,6.432,39.2,14 / 19,2821826,2019-08-12 11:11:44:316,-0.7588,0.2432,9.339,-0.5306,0.0097,9.7923,-0.0014,0.0067,0.0036
57081,46.183315,-0.497411,114.21,29.0,6.432,39.2,14 / 19,2821833,2019-08-12 11:11:44:323,-0.7588,0.2432,9.339,-0.5306,0.0097,9.7923,-0.0014,0.0067,0.0036
57082,46.183315,-0.497411,114.21,29.0,6.432,39.2,14 / 19,2821834,2019-08-12 11:11:44:324,-0.7588,0.2432,9.339,-0.5306,0.0097,9.7923,-0.0014,0.0067,0.0036
57083,46.183315,-0.497411,114.21,29.0,6.432,39.2,14 / 19,2821835,2019-08-12 11:11:44:325,-0.7588,0.2432,9.339,-0.5306,0.0097,9.7923,-0.0014,0.0067,0.0036
57084,46.183315,-0.497411,114.21,29.0,6.432,39.2,14 / 19,2821835,2019-08-12 11:11:44:325,-0.7588,0.2432,9.339,-0.5306,0.0097,9.7923,-0.0014,0.0067,0.0036
57085,46.186905,-0.493389,117.93,29.94,6.432,38.0,14 / 19,2821874,2019-08-12 11:11:44:364,-0.7588,0.2432,9.339,-0.5306,0.0097,9.7923,-0.0014,0.0067,0.0036
57086,46.186905,-0.493389,117.93,29.94,6.432,38.0,14 / 19,2821974,2019-08-12 11:11:44:464,-0.7588,0.2432,9.339,-0.5306,0.0097,9.7923,-0.0014,0.0067,0.0036
57087,46.186905,-0.493389,117.93,29.94,6.432,38.0,14 / 19,2822286,2019-08-12 11:11:44:776,-0.7588,0.2432,9.339,-0.5306,0.0097,9.7923,-0.0014,0.0067,0.0036
57088,46.186905,-0.493389,117.93,29.94,6.432,38.0,14 / 19,2822287,2019-08-12 11:11:44:777,-0.7588,0.2432,9.339,-0.5306,0.0097,9.7923,-0.0014,0.0067,0.0036
57089,46.186905,-0.493389,117.93,29.94,6.432,38.0,14 / 19,2822288,2019-08-12 11:11:44:778,-0.7588,0.2432,9.339,-0.5306,0.0097,9.7923,-0.0014,0.0067,0.0036
57090,46.186905,-0.493389,117.93,29.94,6.432,38.0,14 / 19,2822288,2019-08-12 11:11:44:778,-0.7588,0.2432,9.339,-0.5306,0.0097,9.7923,-0.0014,0.0067,0.0036
57091,46.186905,-0.493389,117.93,29.94,6.432,38.0,14 / 19,2822288,2019-08-12 11:11:44:778,-0.7588,0.2432,9.339,-0.5306,0.0097,9.7923,-0.0014,0.0067,0.0036
57092,46.186905,-0.493389,117.93,29.94,6.432,38.0,14 / 19,2822290,2019-08-12 11:11:44:780,-0.7588,0.2432,9.339,-0.5306,0.0097,9.7923,-0.0014,0.0067,0.0036
57093,46.186905,-0.493389,117.93,29.94,6.432,38.0,14 / 19,2822291,2019-08-12 11:11:44:781,-0.7588,0.2432,9.339,-0.5306,0.0097,9.7923,-0.0014,0.0067,0.0036
57094,46.186905,-0.493389,117.93,29.94,6.432,38.0,14 / 19,2822291,2019-08-12 11:11:44:781,-0.7588,0.2432,9.339,-0.5306,0.0097,9.7923,-0.0014,0.0067,0.0036
57095,46.186905,-0.493389,117.93,29.94,6.432,38.0,14 / 19,2822291,2019-08-12 11:11:44:781,-0.7588,0.2432,9.339,-0.5306,0.0097,9.7923,-0.0014,0.0067,0.0036
57096,46.186905,-0.493389,117.93,29.94,6.432,38.0,14 / 19,2822292,2019-08-12 11:11:44:782,-0.7588,0.2432,9.339,-0.5306,0.0097,9.7923,-0.0014,0.0067,0.0036
57097,46.186905,-0.493389,117.93,29.94,6.432,38.0,14 / 19,2822293,2019-08-12 11:11:44:783,-0.7588,0.2432,9.339,-0.5306,0.0097,9.7923,-0.0014,0.0067,0.0036
57098,46.186905,-0.493389,117.93,29.94,6.432,38.0,14 / 19,2822293,2019-08-12 11:11:44:783,-0.7588,0.2432,9.339,-0.5306,0.0097,9.7923,-0.0014,0.0067,0.0036
57099,46.186905,-0.493389,117.93,29.94,6.432,38.0,14 / 19,2822302,2019-08-12 11:11:44:792,-0.7588,0.2432,9.339,-0.5306,0.0097,9.7923,-0.0014,0.0067,0.0036
57100,46.186905,-0.493389,117.93,29.94,6.432,38.0,14 / 19,2822309,2019-08-12 11:11:44:799,-0.7588,0.2432,9.339,-0.5306,0.0097,9.7923,-0.0014,0.0067,0.0036
57101,46.186905,-0.493389,117.93,29.94,6.432,38.0,14 / 19,2822310,2019-08-12 11:11:44:800,-0.7588,0.2432,9.339,-0.5306,0.0097,9.7923,-0.0014,0.0067,0.0036
57102,46.186905,-0.493389,117.93,29.94,6.432,38.0,14 / 19,2822311,2019-08-12 11:11:44:801,-0.7588,0.2432,9.339,-0.5306,0.0097,9.7923,-0.0014,0.0067,0.0036
57103,46.186905,-0.493389,117.93,29.94,6.432,38.0,14 / 19,2822313,2019-08-12 11:11:44:803,-0.7588,0.2432,9.339,-0.5306,0.0097,9.7923,-0.0014,0.0067,0.0036
57104,46.186905,-0.493389,117.93,29.94,6.432,38.0,14 / 19,2822313,2019-08-12 11:11:44:803,-0.7588,0.2432,9.339,-0.5306,0.0097,9.7923,-0.0014,0.0067,0.0036
57105,46.186905,-0.493389,117.93,29.94,6.432,38.0,14 / 19,2822314,2019-08-12 11:11:44:804,-0.7588,0.2432,9.339,-0.5306,0.0097,9.7923,-0.0014,0.0067,0.0036
57106,46.186905,-0.493389,117.93,29.94,6.432,38.0,14 / 19,2822314,2019-08-12 11:11:44:804,-0.7588,0.2432,9.339,-0.5306,0.0097,9.7923,-0.0014,0.0067,0.0036
57107,46.186905,-0.493389,117.93,29.94,6.432,38.0,14 / 19,2822315,2019-08-12 11:11:44:805,-0.7588,0.2432,9.339,-0.5306,0.0097,9.7923,-0.0014,0.0067,0.0036
57108,46.186905,-0.493389,117.93,29.94,6.432,38.0,14 / 19,2822315,2019-08-12 11:11:44:805,-0.7588,0.2432,9.339,-0.5306,0.0097,9.7923,-0.0014,0.0067,0.0036
57109,46.186905,-0.493389,117.93,29.94,6.432,38.0,14 / 19,2822315,2019-08-12 11:11:44:805,-0.7588,0.2432,9.339,-0.5306,0.0097,9.7923,-0.0014,0.0067,0.0036
57110,46.186905,-0.493389,117.93,29.94,6.432,38.0,14 / 19,2822316,2019-08-12 11:11:44:806,-0.7588,0.2432,9.339,-0.5306,0.0097,9.7923,-0.0014,0.0067,0.0036
57111,46.186905,-0.493389,117.93,29.94,6.432,38.0,14 / 19,2822316,2019-08-12 11:11:44:806,-0.7588,0.2432,9.339,-0.5306,0.0097,9.7923,-0.0014,0.0067,0.0036
57112,46.186905,-0.493389,117.93,29.94,6.432,38.0,14 / 19,2822317,2019-08-12 11:11:44:807,-0.7588,0.2432,9.339,-0.5306,0.0097,9.7923,-0.0014,0.0067,0.0036
57113,46.186905,-0.493389,117.93,29.94,6.432,38.0,14 / 19,2822317,2019-08-12 11:11:44:807,-0.7588,0.2432,9.339,-0.5306,0.0097,9.7923,-0.0014,0.0067,0.0036
57114,46.186905,-0.493389,117.93,29.94,6.432,38.0,14 / 19,2822318,2019-08-12 11:11:44:808,-0.7588,0.2432,9.339,-0.5306,0.0097,9.7923,-0.0014,0.0067,0.0036
57115,46.186905,-0.493389,117.93,29.94,6.432,38.0,14 / 19,2822318,2019-08-12 11:11:44:808,-0.7588,0.2432,9.339,-0.5306,0.0097,9.7923,-0.0014,0.0067,0.0036
57116,46.186905,-0.493389,117.93,29.94,6.432,38.0,14 / 19,2822318,2019-08-12 11:11:44:808,-0.7588,0.2432,9.339,-0.5306,0.0097,9.7923,-0.0014,0.0067,0.0036
57117,46.186905,-0.493389,117.93,29.94,6.432,38.0,14 / 19,2822319,2019-08-12 11:11:44:809,-0.7588,0.2432,9.339,-0.5306,0.0097,9.7923,-0.0014,0.0067,0.0036
57118,46.186905,-0.493389,117.93,29.94,6.432,38.0,14 / 19,2822320,2019-08-12 11:11:44:810,-0.7588,0.2432,9.339,-0.5306,0.0097,9.7923,-0.0014,0.0067,0.0036
57119,46.186905,-0.493389,117.93,29.94,6.432,38.0,14 / 19,2822320,2019-08-12 11:11:44:810,-0.7588,0.2432,9.339,-0.5306,0.0097,9.7923,-0.0014,0.0067,0.0036
57120,46.186905,-0.493389,117.93,29.94,6.432,38.0,14 / 19,2822320,2019-08-12 11:11:44:810,-0.7588,0.2432,9.339,-0.5306,0.0097,9.7923,-0.0014,0.0067,0.0036
57121,46.186905,-0.493389,117.93,29.94,6.432,38.0,14 / 19,2822321,2019-08-12 11:11:44:811,-0.7588,0.2432,9.339,-0.5306,0.0097,9.7923,-0.0014,0.0067,0.0036
57122,46.186905,-0.493389,117.93,29.94,6.432,38.0,14 / 19,2822321,2019-08-12 11:11:44:811,-0.7588,0.2432,9.339,-0.5306,0.0097,9.7923,-0.0014,0.0067,0.0036
57123,46.186905,-0.493389,117.93,29.94,6.432,38.0,14 / 19,2822321,2019-08-12 11:11:44:811,-0.7588,0.2432,9.339,-0.5306,0.0097,9.7923,-0.0014,0.0067,0.0036
57124,46.186905,-0.493389,117.93,29.94,6.432,38.0,14 / 19,2822322,2019-08-12 11:11:44:812,-0.7588,0.2432,9.339,-0.5306,0.0097,9.7923,-0.0014,0.0067,0.0036
57125,46.186905,-0.493389,117.93,29.94,6.432,38.0,14 / 19,2822322,2019-08-12 11:11:44:812,-0.7588,0.2432,9.339,-0.5306,0.0097,9.7923,-0.0014,0.0067,0.0036
57126,46.186905,-0.493389,117.93,29.94,6.432,38.0,14 / 19,2822323,2019-08-12 11:11:44:813,-0.7588,0.2432,9.339,-0.5306,0.0097,9.7923,-0.0014,0.0067,0.0036
57127,46.186905,-0.493389,117.93,29.94,6.432,38.0,14 / 19,2822323,2019-08-12 11:11:44:813,-0.7588,0.2432,9.339,-0.5306,0.0097,9.7923,-0.0014,0.0067,0.0036
57128,46.186905,-0.493389,117.93,29.94,6.432,38.0,14 / 19,2822324,2019-08-12 11:11:44:814,-0.7588,0.2432,9.339,-0.5306,0.0097,9.7923,-0.0014,0.0067,0.0036
57129,46.186905,-0.493389,117.93,29.94,6.432,38.0,14 / 19,2822324,2019-08-12 11:11:44:814,-0.7588,0.2432,9.339,-0.5306,0.0097,9.7923,-0.0014,0.0067,0.0036
57130,46.186905,-0.493389,117.93,29.94,6.432,38.0,14 / 19,2822324,2019-08-12 11:11:44:814,-0.7588,0.2432,9.339,-0.5306,0.0097,9.7923,-0.0014,0.0067,0.0036
57131,46.186905,-0.493389,117.93,29.94,6.432,38.0,14 / 19,2822325,2019-08-12 11:11:44:815,-0.7588,0.2432,9.339,-0.5306,0.0097,9.7923,-0.0014,0.0067,0.0036
57132,46.186905,-0.493389,117.93,29.94,6.432,38.0,14 / 19,2822325,2019-08-12 11:11:44:815,-0.7588,0.2432,9.339,-0.5306,0.0097,9.7923,-0.0014,0.0067,0.0036
57133,46.186905,-0.493389,117.93,29.94,6.432,38.0,14 / 19,2822326,2019-08-12 11:11:44:816,-0.7588,0.2432,9.339,-0.5306,0.0097,9.7923,-0.0014,0.0067,0.0036
57134,46.186905,-0.493389,117.93,29.94,6.432,38.0,14 / 19,2822326,2019-08-12 11:11:44:816,-0.7588,0.2432,9.339,-0.5306,0.0097,9.7923,-0.0014,0.0067,0.0036
57135,46.186905,-0.493389,117.93,29.94,6.432,38.0,14 / 19,2822326,2019-08-12 11:11:44:816,-0.7588,0.2432,9.339,-0.5306,0.0097,9.7923,-0.0014,0.0067,0.0036
57136,46.186905,-0.493389,117.93,29.94,6.432,38.0,14 / 19,2822327,2019-08-12 11:11:44:817,-0.7588,0.2432,9.339,-0.5306,0.0097,9.7923,-0.0014,0.0067,0.0036
57137,46.186905,-0.493389,117.93,29.94,6.432,38.0,14 / 19,2822327,2019-08-12 11:11:44:817,-0.7588,0.2432,9.339,-0.5306,0.0097,9.7923,-0.0014,0.0067,0.0036
57138,46.186905,-0.493389,117.93,29.94,6.432,38.0,14 / 19,2822328,2019-08-12 11:11:44:818,-0.7588,0.2432,9.339,-0.5306,0.0097,9.7923,-0.0014,0.0067,0.0036
57139,46.186905,-0.493389,117.93,29.94,6.432,38.0,14 / 19,2822328,2019-08-12 11:11:44:818,-0.7588,0.2432,9.339,-0.5306,0.0097,9.7923,-0.0014,0.0067,0.0036
57140,46.186905,-0.493389,117.93,29.94,6.432,38.0,14 / 19,2822328,2019-08-12 11:11:44:818,-0.7588,0.2432,9.339,-0.5306,0.0097,9.7923,-0.0014,0.0067,0.0036
57141,46.186905,-0.493389,117.93,29.94,6.432,38.0,14 / 19,2822329,2019-08-12 11:11:44:819,-0.7588,0.2432,9.339,-0.5306,0.0097,9.7923,-0.0014,0.0067,0.0036
57142,46.186905,-0.493389,117.93,29.94,6.432,38.0,14 / 19,2822329,2019-08-12 11:11:44:819,-0.7588,0.2432,9.339,-0.5306,0.0097,9.7923,-0.0014,0.0067,0.0036
57143,46.186905,-0.493389,117.93,29.94,6.432,38.0,14 / 19,2822330,2019-08-12 11:11:44:820,-0.7588,0.2432,9.339,-0.5306,0.0097,9.7923,-0.0014,0.0067,0.0036
57144,46.186905,-0.493389,117.93,29.94,6.432,38.0,14 / 19,2822330,2019-08-12 11:11:44:820,-0.7588,0.2432,9.339,-0.5306,0.0097,9.7923,-0.0014,0.0067,0.0036
