,GPS LATITUDE (degrees),GPS LONGITUDE (degrees), GPS ALTITUDE (m),GPS SPEED (Kmh),GPS ACCURACY (m),GPS ORIENTATION (Â°), SATELLITES IN RANGE, TIME SINCE START (ms), DATE (YYYY-MO-DD HH-MI-SS_SSS),ACCELEROMETER X (m/s²) , ACCELEROMETER Y (m/s²), ACCELEROMETER Z (m/s²), GRAVITY X (m/s²), GRAVITY Y (m/s²), GRAVITY Z (m/s²), GYROSCOPE Yaw (rad/s), GYROSCOPE Pitch (rad/s), GYROSCOPE Roll (rad/s)
7166,47.258465,-1.554963,52.97,15.63,8.576,305.5,Nov-23,191522,2019-08-12 16:35:51:964,0.3456,-0.5595,10.5714,-0.1393,-0.5247,9.7916,-0.0108,0.0791,-0.0511
7167,47.258465,-1.554963,52.97,15.63,8.576,305.5,Nov-23,191523,2019-08-12 16:35:51:965,0.3456,-0.5595,10.5714,-0.1393,-0.5247,9.7916,-0.0108,0.0791,-0.0511
7168,47.258465,-1.554963,52.97,15.63,8.576,305.5,Nov-23,191523,2019-08-12 16:35:51:965,0.3456,-0.5595,10.5714,-0.1393,-0.5247,9.7916,-0.0108,0.0791,-0.0511
7169,47.258465,-1.554963,52.97,15.63,8.576,305.5,Nov-23,191524,2019-08-12 16:35:51:966,0.3456,-0.5595,10.5714,-0.1393,-0.5247,9.7916,-0.0108,0.0791,-0.0511
7170,47.259335,-1.5563,61.56,16.16,9.648001,330.9,Nov-23,191549,2019-08-12 16:35:51:991,0.3456,-0.5595,10.5714,-0.1393,-0.5247,9.7916,-0.0108,0.0791,-0.0511
7171,47.259335,-1.5563,61.56,16.16,9.648001,330.9,Nov-23,191649,2019-08-12 16:35:52:091,0.3456,-0.5595,10.5714,-0.1393,-0.5247,9.7916,-0.0108,0.0791,-0.0511
7172,47.259335,-1.5563,61.56,16.16,9.648001,330.9,Nov-23,191989,2019-08-12 16:35:52:431,0.3456,-0.5595,10.5714,-0.1393,-0.5247,9.7916,-0.0108,0.0791,-0.0511
7173,47.259335,-1.5563,61.56,16.16,9.648001,330.9,Nov-23,191989,2019-08-12 16:35:52:431,0.3456,-0.5595,10.5714,-0.1393,-0.5247,9.7916,-0.0108,0.0791,-0.0511
7174,47.259335,-1.5563,61.56,16.16,9.648001,330.9,Nov-23,191990,2019-08-12 16:35:52:432,0.3456,-0.5595,10.5714,-0.1393,-0.5247,9.7916,-0.0108,0.0791,-0.0511
7175,47.259335,-1.5563,61.56,16.16,9.648001,330.9,Nov-23,191990,2019-08-12 16:35:52:432,0.3456,-0.5595,10.5714,-0.1393,-0.5247,9.7916,-0.0108,0.0791,-0.0511
7176,47.259335,-1.5563,61.56,16.16,9.648001,330.9,Nov-23,191991,2019-08-12 16:35:52:433,0.3456,-0.5595,10.5714,-0.1393,-0.5247,9.7916,-0.0108,0.0791,-0.0511
7177,47.259335,-1.5563,61.56,16.16,9.648001,330.9,Nov-23,191991,2019-08-12 16:35:52:433,0.3456,-0.5595,10.5714,-0.1393,-0.5247,9.7916,-0.0108,0.0791,-0.0511
7178,47.259335,-1.5563,61.56,16.16,9.648001,330.9,Nov-23,191991,2019-08-12 16:35:52:433,0.3456,-0.5595,10.5714,-0.1393,-0.5247,9.7916,-0.0108,0.0791,-0.0511
7179,47.259335,-1.5563,61.56,16.16,9.648001,330.9,Nov-23,191992,2019-08-12 16:35:52:434,0.3456,-0.5595,10.5714,-0.1393,-0.5247,9.7916,-0.0108,0.0791,-0.0511
7180,47.259335,-1.5563,61.56,16.16,9.648001,330.9,Nov-23,191992,2019-08-12 16:35:52:434,0.3456,-0.5595,10.5714,-0.1393,-0.5247,9.7916,-0.0108,0.0791,-0.0511
7181,47.259335,-1.5563,61.56,16.16,9.648001,330.9,Nov-23,191993,2019-08-12 16:35:52:435,0.3456,-0.5595,10.5714,-0.1393,-0.5247,9.7916,-0.0108,0.0791,-0.0511
7182,47.259335,-1.5563,61.56,16.16,9.648001,330.9,Nov-23,191993,2019-08-12 16:35:52:435,0.3456,-0.5595,10.5714,-0.1393,-0.5247,9.7916,-0.0108,0.0791,-0.0511
7183,47.259335,-1.5563,61.56,16.16,9.648001,330.9,Nov-23,191993,2019-08-12 16:35:52:435,0.3456,-0.5595,10.5714,-0.1393,-0.5247,9.7916,-0.0108,0.0791,-0.0511
7184,47.259335,-1.5563,61.56,16.16,9.648001,330.9,Nov-23,191994,2019-08-12 16:35:52:436,0.3456,-0.5595,10.5714,-0.1393,-0.5247,9.7916,-0.0108,0.0791,-0.0511
7185,47.259335,-1.5563,61.56,16.16,9.648001,330.9,Nov-23,191994,2019-08-12 16:35:52:436,0.3456,-0.5595,10.5714,-0.1393,-0.5247,9.7916,-0.0108,0.0791,-0.0511
7186,47.259335,-1.5563,61.56,16.16,9.648001,330.9,Nov-23,191994,2019-08-12 16:35:52:436,0.3456,-0.5595,10.5714,-0.1393,-0.5247,9.7916,-0.0108,0.0791,-0.0511
7187,47.259335,-1.5563,61.56,16.16,9.648001,330.9,Nov-23,191996,2019-08-12 16:35:52:438,0.3456,-0.5595,10.5714,-0.1393,-0.5247,9.7916,-0.0108,0.0791,-0.0511
7188,47.259335,-1.5563,61.56,16.16,9.648001,330.9,Nov-23,191996,2019-08-12 16:35:52:438,0.3456,-0.5595,10.5714,-0.1393,-0.5247,9.7916,-0.0108,0.0791,-0.0511
7189,47.259335,-1.5563,61.56,16.16,9.648001,330.9,Nov-23,191996,2019-08-12 16:35:52:438,0.3456,-0.5595,10.5714,-0.1393,-0.5247,9.7916,-0.0108,0.0791,-0.0511
7190,47.259335,-1.5563,61.56,16.16,9.648001,330.9,Nov-23,191997,2019-08-12 16:35:52:439,0.3456,-0.5595,10.5714,-0.1393,-0.5247,9.7916,-0.0108,0.0791,-0.0511
7191,47.259335,-1.5563,61.56,16.16,9.648001,330.9,Nov-23,191998,2019-08-12 16:35:52:440,0.3456,-0.5595,10.5714,-0.1393,-0.5247,9.7916,-0.0108,0.0791,-0.0511
7192,47.259335,-1.5563,61.56,16.16,9.648001,330.9,Nov-23,191999,2019-08-12 16:35:52:441,0.3456,-0.5595,10.5714,-0.1393,-0.5247,9.7916,-0.0108,0.0791,-0.0511
7193,47.259335,-1.5563,61.56,16.16,9.648001,330.9,Nov-23,191999,2019-08-12 16:35:52:441,0.3456,-0.5595,10.5714,-0.1393,-0.5247,9.7916,-0.0108,0.0791,-0.0511
7194,47.259335,-1.5563,61.56,16.16,9.648001,330.9,Nov-23,192000,2019-08-12 16:35:52:442,0.3456,-0.5595,10.5714,-0.1393,-0.5247,9.7916,-0.0108,0.0791,-0.0511
7195,47.259335,-1.5563,61.56,16.16,9.648001,330.9,Nov-23,192001,2019-08-12 16:35:52:443,0.3456,-0.5595,10.5714,-0.1393,-0.5247,9.7916,-0.0108,0.0791,-0.0511
7196,47.259335,-1.5563,61.56,16.16,9.648001,330.9,Nov-23,192002,2019-08-12 16:35:52:444,0.3456,-0.5595,10.5714,-0.1393,-0.5247,9.7916,-0.0108,0.0791,-0.0511
7197,47.259335,-1.5563,61.56,16.16,9.648001,330.9,Nov-23,192003,2019-08-12 16:35:52:445,0.3456,-0.5595,10.5714,-0.1393,-0.5247,9.7916,-0.0108,0.0791,-0.0511
7198,47.259335,-1.5563,61.56,16.16,9.648001,330.9,Nov-23,192003,2019-08-12 16:35:52:445,0.3456,-0.5595,10.5714,-0.1393,-0.5247,9.7916,-0.0108,0.0791,-0.0511
7199,47.259335,-1.5563,61.56,16.16,9.648001,330.9,Nov-23,192004,2019-08-12 16:35:52:446,0.3456,-0.5595,10.5714,-0.1393,-0.5247,9.7916,-0.0108,0.0791,-0.0511
7200,47.259335,-1.5563,61.56,16.16,9.648001,330.9,Nov-23,192007,2019-08-12 16:35:52:449,0.3456,-0.5595,10.5714,-0.1393,-0.5247,9.7916,-0.0108,0.0791,-0.0511
7201,47.259335,-1.5563,61.56,16.16,9.648001,330.9,Nov-23,192008,2019-08-12 16:35:52:450,0.3456,-0.5595,10.5714,-0.1393,-0.5247,9.7916,-0.0108,0.0791,-0.0511
7202,47.259335,-1.5563,61.56,16.16,9.648001,330.9,Nov-23,192008,2019-08-12 16:35:52:450,0.3456,-0.5595,10.5714,-0.1393,-0.5247,9.7916,-0.0108,0.0791,-0.0511
7203,47.259335,-1.5563,61.56,16.16,9.648001,330.9,Nov-23,192009,2019-08-12 16:35:52:451,0.3456,-0.5595,10.5714,-0.1393,-0.5247,9.7916,-0.0108,0.0791,-0.0511
7204,47.259335,-1.5563,61.56,16.16,9.648001,330.9,Nov-23,192009,2019-08-12 16:35:52:451,0.3456,-0.5595,10.5714,-0.1393,-0.5247,9.7916,-0.0108,0.0791,-0.0511
7205,47.259335,-1.5563,61.56,16.16,9.648001,330.9,Nov-23,192009,2019-08-12 16:35:52:451,0.3456,-0.5595,10.5714,-0.1393,-0.5247,9.7916,-0.0108,0.0791,-0.0511
7206,47.259335,-1.5563,61.56,16.16,9.648001,330.9,Nov-23,192010,2019-08-12 16:35:52:452,0.3456,-0.5595,10.5714,-0.1393,-0.5247,9.7916,-0.0108,0.0791,-0.0511
7207,47.259335,-1.5563,61.56,16.16,9.648001,330.9,Nov-23,192011,2019-08-12 16:35:52:453,0.3456,-0.5595,10.5714,-0.1393,-0.5247,9.7916,-0.0108,0.0791,-0.0511
7208,47.259335,-1.5563,61.56,16.16,9.648001,330.9,Nov-23,192011,2019-08-12 16:35:52:453,0.3456,-0.5595,10.5714,-0.1393,-0.5247,9.7916,-0.0108,0.0791,-0.0511
7209,47.259335,-1.5563,61.56,16.16,9.648001,330.9,Nov-23,192012,2019-08-12 16:35:52:454,0.3456,-0.5595,10.5714,-0.1393,-0.5247,9.7916,-0.0108,0.0791,-0.0511
7210,47.259335,-1.5563,61.56,16.16,9.648001,330.9,Nov-23,192012,2019-08-12 16:35:52:454,0.3456,-0.5595,10.5714,-0.1393,-0.5247,9.7916,-0.0108,0.0791,-0.0511
7211,47.259335,-1.5563,61.56,16.16,9.648001,330.9,Nov-23,192013,2019-08-12 16:35:52:455,0.3456,-0.5595,10.5714,-0.1393,-0.5247,9.7916,-0.0108,0.0791,-0.0511
7212,47.259335,-1.5563,61.56,16.16,9.648001,330.9,Nov-23,192013,2019-08-12 16:35:52:455,0.3456,-0.5595,10.5714,-0.1393,-0.5247,9.7916,-0.0108,0.0791,-0.0511
7213,47.259335,-1.5563,61.56,16.16,9.648001,330.9,Nov-23,192014,2019-08-12 16:35:52:456,0.3456,-0.5595,10.5714,-0.1393,-0.5247,9.7916,-0.0108,0.0791,-0.0511
7214,47.259335,-1.5563,61.56,16.16,9.648001,330.9,Nov-23,192014,2019-08-12 16:35:52:456,0.3456,-0.5595,10.5714,-0.1393,-0.5247,9.7916,-0.0108,0.0791,-0.0511
7215,47.259335,-1.5563,61.56,16.16,9.648001,330.9,Nov-23,192015,2019-08-12 16:35:52:457,0.3456,-0.5595,10.5714,-0.1393,-0.5247,9.7916,-0.0108,0.0791,-0.0511
7216,47.259335,-1.5563,61.56,16.16,9.648001,330.9,Nov-23,192015,2019-08-12 16:35:52:457,0.3456,-0.5595,10.5714,-0.1393,-0.5247,9.7916,-0.0108,0.0791,-0.0511
7217,47.259335,-1.5563,61.56,16.16,9.648001,330.9,Nov-23,192015,2019-08-12 16:35:52:457,0.3456,-0.5595,10.5714,-0.1393,-0.5247,9.7916,-0.0108,0.0791,-0.0511
7218,47.259335,-1.5563,61.56,16.16,9.648001,330.9,Nov-23,192016,2019-08-12 16:35:52:458,0.3456,-0.5595,10.5714,-0.1393,-0.5247,9.7916,-0.0108,0.0791,-0.0511
7219,47.259335,-1.5563,61.56,16.16,9.648001,330.9,Nov-23,192016,2019-08-12 16:35:52:458,0.3456,-0.5595,10.5714,-0.1393,-0.5247,9.7916,-0.0108,0.0791,-0.0511
7220,47.259335,-1.5563,61.56,16.16,9.648001,330.9,Nov-23,192016,2019-08-12 16:35:52:458,0.3456,-0.5595,10.5714,-0.1393,-0.5247,9.7916,-0.0108,0.0791,-0.0511
7221,47.259335,-1.5563,61.56,16.16,9.648001,330.9,Nov-23,192017,2019-08-12 16:35:52:459,0.3456,-0.5595,10.5714,-0.1393,-0.5247,9.7916,-0.0108,0.0791,-0.0511
7222,47.259335,-1.5563,61.56,16.16,9.648001,330.9,Nov-23,192017,2019-08-12 16:35:52:459,0.3456,-0.5595,10.5714,-0.1393,-0.5247,9.7916,-0.0108,0.0791,-0.0511
7223,47.259335,-1.5563,61.56,16.16,9.648001,330.9,Nov-23,192017,2019-08-12 16:35:52:459,0.3456,-0.5595,10.5714,-0.1393,-0.5247,9.7916,-0.0108,0.0791,-0.0511
7224,47.259335,-1.5563,61.56,16.16,9.648001,330.9,Nov-23,192018,2019-08-12 16:35:52:460,0.3456,-0.5595,10.5714,-0.1393,-0.5247,9.7916,-0.0108,0.0791,-0.0511
7225,47.259335,-1.5563,61.56,16.16,9.648001,330.9,Nov-23,192018,2019-08-12 16:35:52:460,0.3456,-0.5595,10.5714,-0.1393,-0.5247,9.7916,-0.0108,0.0791,-0.0511
7226,47.259335,-1.5563,61.56,16.16,9.648001,330.9,Nov-23,192018,2019-08-12 16:35:52:460,0.3456,-0.5595,10.5714,-0.1393,-0.5247,9.7916,-0.0108,0.0791,-0.0511
7227,47.259335,-1.5563,61.56,16.16,9.648001,330.9,Nov-23,192019,2019-08-12 16:35:52:461,0.3456,-0.5595,10.5714,-0.1393,-0.5247,9.7916,-0.0108,0.0791,-0.0511
7228,47.259335,-1.5563,61.56,16.16,9.648001,330.9,Nov-23,192019,2019-08-12 16:35:52:461,0.3456,-0.5595,10.5714,-0.1393,-0.5247,9.7916,-0.0108,0.0791,-0.0511
7229,47.259335,-1.5563,61.56,16.16,9.648001,330.9,Nov-23,192019,2019-08-12 16:35:52:461,0.3456,-0.5595,10.5714,-0.1393,-0.5247,9.7916,-0.0108,0.0791,-0.0511
7230,47.259335,-1.5563,61.56,16.16,9.648001,330.9,Nov-23,192020,2019-08-12 16:35:52:462,0.3456,-0.5595,10.5714,-0.1393,-0.5247,9.7916,-0.0108,0.0791,-0.0511
7231,47.259335,-1.5563,61.56,16.16,9.648001,330.9,Nov-23,192020,2019-08-12 16:35:52:462,0.3456,-0.5595,10.5714,-0.1393,-0.5247,9.7916,-0.0108,0.0791,-0.0511
7232,47.259335,-1.5563,61.56,16.16,9.648001,330.9,Nov-23,192049,2019-08-12 16:35:52:491,0.3456,-0.5595,10.5714,-0.1393,-0.5247,9.7916,-0.0108,0.0791,-0.0511
7233,47.259335,-1.5563,61.56,16.16,9.648001,330.9,Nov-23,192149,2019-08-12 16:35:52:591,0.3456,-0.5595,10.5714,-0.1393,-0.5247,9.7916,-0.0108,0.0791,-0.0511
7234,47.259335,-1.5563,61.56,16.16,9.648001,330.9,Nov-23,192249,2019-08-12 16:35:52:691,-0.3092,-0.5571,9.5838,-0.1442,-0.5394,9.7907,-0.0023,0.0556,-0.0511
7235,47.259335,-1.5563,61.56,16.16,9.648001,330.9,Nov-23,192349,2019-08-12 16:35:52:791,-0.3834,-0.4613,9.4964,-0.1657,-0.533,9.7908,-0.0023,0.0098,-0.0511
7236,47.259335,-1.5563,61.56,16.16,9.648001,330.9,Nov-23,192450,2019-08-12 16:35:52:892,-0.0291,-0.617,9.5647,-0.168,-0.5327,9.7907,-0.0097,-0.0051,-0.0521
7237,47.259335,-1.5563,61.56,16.16,9.648001,330.9,Nov-23,192847,2019-08-12 16:35:53:289,-0.0842,-0.4877,9.6892,-0.1669,-0.526,9.7911,-0.0044,0.0013,-0.0489
7238,47.259335,-1.5563,61.56,16.16,9.648001,330.9,Nov-23,192848,2019-08-12 16:35:53:290,-0.0842,-0.4877,9.6892,-0.1669,-0.526,9.7911,-0.0044,0.0013,-0.0489
7239,47.259335,-1.5563,61.56,16.16,9.648001,330.9,Nov-23,192848,2019-08-12 16:35:53:290,-0.0842,-0.4877,9.6892,-0.1669,-0.526,9.7911,-0.0044,0.0013,-0.0489
7240,47.259335,-1.5563,61.56,16.16,9.648001,330.9,Nov-23,192848,2019-08-12 16:35:53:290,-0.0842,-0.4877,9.6892,-0.1669,-0.526,9.7911,-0.0044,0.0013,-0.0489
7241,47.259335,-1.5563,61.56,16.16,9.648001,330.9,Nov-23,192849,2019-08-12 16:35:53:291,-0.0842,-0.4877,9.6892,-0.1669,-0.526,9.7911,-0.0044,0.0013,-0.0489
7242,47.259335,-1.5563,61.56,16.16,9.648001,330.9,Nov-23,192849,2019-08-12 16:35:53:291,-0.0842,-0.4877,9.6892,-0.1669,-0.526,9.7911,-0.0044,0.0013,-0.0489
7243,47.259335,-1.5563,61.56,16.16,9.648001,330.9,Nov-23,192849,2019-08-12 16:35:53:291,-0.0842,-0.4877,9.6892,-0.1669,-0.526,9.7911,-0.0044,0.0013,-0.0489
7244,47.259335,-1.5563,61.56,16.16,9.648001,330.9,Nov-23,192850,2019-08-12 16:35:53:292,-0.0842,-0.4877,9.6892,-0.1669,-0.526,9.7911,-0.0044,0.0013,-0.0489
7245,47.259335,-1.5563,61.56,16.16,9.648001,330.9,Nov-23,192850,2019-08-12 16:35:53:292,-0.0842,-0.4877,9.6892,-0.1669,-0.526,9.7911,-0.0044,0.0013,-0.0489
7246,47.259335,-1.5563,61.56,16.16,9.648001,330.9,Nov-23,192850,2019-08-12 16:35:53:292,-0.0842,-0.4877,9.6892,-0.1669,-0.526,9.7911,-0.0044,0.0013,-0.0489
7247,47.259335,-1.5563,61.56,16.16,9.648001,330.9,Nov-23,192852,2019-08-12 16:35:53:294,-0.0842,-0.4877,9.6892,-0.1669,-0.526,9.7911,-0.0044,0.0013,-0.0489
7248,47.259335,-1.5563,61.56,16.16,9.648001,330.9,Nov-23,192852,2019-08-12 16:35:53:294,-0.0842,-0.4877,9.6892,-0.1669,-0.526,9.7911,-0.0044,0.0013,-0.0489
7249,47.259335,-1.5563,61.56,16.16,9.648001,330.9,Nov-23,192853,2019-08-12 16:35:53:295,-0.0842,-0.4877,9.6892,-0.1669,-0.526,9.7911,-0.0044,0.0013,-0.0489
7250,47.259335,-1.5563,61.56,16.16,9.648001,330.9,Nov-23,192875,2019-08-12 16:35:53:317,-0.0842,-0.4877,9.6892,-0.1669,-0.526,9.7911,-0.0044,0.0013,-0.0489
7251,47.259335,-1.5563,61.56,16.16,9.648001,330.9,Nov-23,192976,2019-08-12 16:35:53:418,-0.0842,-0.4877,9.6892,-0.1669,-0.526,9.7911,-0.0044,0.0013,-0.0489
7252,47.259335,-1.5563,61.56,16.16,9.648001,330.9,Nov-23,193300,2019-08-12 16:35:53:742,-0.0842,-0.4877,9.6892,-0.1669,-0.526,9.7911,-0.0044,0.0013,-0.0489
7253,47.259335,-1.5563,61.56,16.16,9.648001,330.9,Nov-23,193301,2019-08-12 16:35:53:743,-0.0842,-0.4877,9.6892,-0.1669,-0.526,9.7911,-0.0044,0.0013,-0.0489
7254,47.259335,-1.5563,61.56,16.16,9.648001,330.9,Nov-23,193302,2019-08-12 16:35:53:744,-0.0842,-0.4877,9.6892,-0.1669,-0.526,9.7911,-0.0044,0.0013,-0.0489
7255,47.259335,-1.5563,61.56,16.16,9.648001,330.9,Nov-23,193302,2019-08-12 16:35:53:744,-0.0842,-0.4877,9.6892,-0.1669,-0.526,9.7911,-0.0044,0.0013,-0.0489
7256,47.259335,-1.5563,61.56,16.16,9.648001,330.9,Nov-23,193303,2019-08-12 16:35:53:745,-0.0842,-0.4877,9.6892,-0.1669,-0.526,9.7911,-0.0044,0.0013,-0.0489
7257,47.259335,-1.5563,61.56,16.16,9.648001,330.9,Nov-23,193303,2019-08-12 16:35:53:745,-0.0842,-0.4877,9.6892,-0.1669,-0.526,9.7911,-0.0044,0.0013,-0.0489
7258,47.259335,-1.5563,61.56,16.16,9.648001,330.9,Nov-23,193303,2019-08-12 16:35:53:745,-0.0842,-0.4877,9.6892,-0.1669,-0.526,9.7911,-0.0044,0.0013,-0.0489
7259,47.259335,-1.5563,61.56,16.16,9.648001,330.9,Nov-23,193305,2019-08-12 16:35:53:747,-0.0842,-0.4877,9.6892,-0.1669,-0.526,9.7911,-0.0044,0.0013,-0.0489
7260,47.259335,-1.5563,61.56,16.16,9.648001,330.9,Nov-23,193325,2019-08-12 16:35:53:767,-0.0842,-0.4877,9.6892,-0.1669,-0.526,9.7911,-0.0044,0.0013,-0.0489
7261,47.259335,-1.5563,61.56,16.16,9.648001,330.9,Nov-23,193425,2019-08-12 16:35:53:867,-0.0842,-0.4877,9.6892,-0.1669,-0.526,9.7911,-0.0044,0.0013,-0.0489
7262,47.259335,-1.5563,61.56,16.16,9.648001,330.9,0 / 23,193762,2019-08-12 16:35:54:204,-0.0842,-0.4877,9.6892,-0.1669,-0.526,9.7911,-0.0044,0.0013,-0.0489
7263,47.259335,-1.5563,61.56,16.16,9.648001,330.9,0 / 23,193763,2019-08-12 16:35:54:205,-0.0842,-0.4877,9.6892,-0.1669,-0.526,9.7911,-0.0044,0.0013,-0.0489
7264,47.259335,-1.5563,61.56,16.16,9.648001,330.9,0 / 23,193763,2019-08-12 16:35:54:205,-0.0842,-0.4877,9.6892,-0.1669,-0.526,9.7911,-0.0044,0.0013,-0.0489
7265,47.259335,-1.5563,61.56,16.16,9.648001,330.9,0 / 23,193764,2019-08-12 16:35:54:206,-0.0842,-0.4877,9.6892,-0.1669,-0.526,9.7911,-0.0044,0.0013,-0.0489
7266,47.259335,-1.5563,61.56,16.16,9.648001,330.9,0 / 23,193764,2019-08-12 16:35:54:206,-0.0842,-0.4877,9.6892,-0.1669,-0.526,9.7911,-0.0044,0.0013,-0.0489
7267,47.259335,-1.5563,61.56,16.16,9.648001,330.9,0 / 23,193765,2019-08-12 16:35:54:207,-0.0842,-0.4877,9.6892,-0.1669,-0.526,9.7911,-0.0044,0.0013,-0.0489
7268,47.259335,-1.5563,61.56,16.16,9.648001,330.9,0 / 23,193765,2019-08-12 16:35:54:207,-0.0842,-0.4877,9.6892,-0.1669,-0.526,9.7911,-0.0044,0.0013,-0.0489
7269,47.259335,-1.5563,61.56,16.16,9.648001,330.9,0 / 23,193766,2019-08-12 16:35:54:208,-0.0842,-0.4877,9.6892,-0.1669,-0.526,9.7911,-0.0044,0.0013,-0.0489
7270,47.26089,-1.556924,49.5,16.68,13.936001,359.0,0 / 23,193784,2019-08-12 16:35:54:226,-0.0842,-0.4877,9.6892,-0.1669,-0.526,9.7911,-0.0044,0.0013,-0.0489
7271,47.26089,-1.556924,49.5,16.68,13.936001,359.0,0 / 23,193884,2019-08-12 16:35:54:326,-0.0842,-0.4877,9.6892,-0.1669,-0.526,9.7911,-0.0044,0.0013,-0.0489
7272,47.26089,-1.556924,49.5,16.68,13.936001,359.0,0 / 23,194214,2019-08-12 16:35:54:656,-0.0842,-0.4877,9.6892,-0.1669,-0.526,9.7911,-0.0044,0.0013,-0.0489
7273,47.26089,-1.556924,49.5,16.68,13.936001,359.0,0 / 23,194214,2019-08-12 16:35:54:656,-0.0842,-0.4877,9.6892,-0.1669,-0.526,9.7911,-0.0044,0.0013,-0.0489
7274,47.26089,-1.556924,49.5,16.68,13.936001,359.0,0 / 23,194215,2019-08-12 16:35:54:657,-0.0842,-0.4877,9.6892,-0.1669,-0.526,9.7911,-0.0044,0.0013,-0.0489
7275,47.26089,-1.556924,49.5,16.68,13.936001,359.0,0 / 23,194215,2019-08-12 16:35:54:657,-0.0842,-0.4877,9.6892,-0.1669,-0.526,9.7911,-0.0044,0.0013,-0.0489
7276,47.26089,-1.556924,49.5,16.68,13.936001,359.0,0 / 23,194215,2019-08-12 16:35:54:657,-0.0842,-0.4877,9.6892,-0.1669,-0.526,9.7911,-0.0044,0.0013,-0.0489
7277,47.26089,-1.556924,49.5,16.68,13.936001,359.0,0 / 23,194216,2019-08-12 16:35:54:658,-0.0842,-0.4877,9.6892,-0.1669,-0.526,9.7911,-0.0044,0.0013,-0.0489
7278,47.26089,-1.556924,49.5,16.68,13.936001,359.0,0 / 23,194216,2019-08-12 16:35:54:658,-0.0842,-0.4877,9.6892,-0.1669,-0.526,9.7911,-0.0044,0.0013,-0.0489
7279,47.26089,-1.556924,49.5,16.68,13.936001,359.0,0 / 23,194216,2019-08-12 16:35:54:658,-0.0842,-0.4877,9.6892,-0.1669,-0.526,9.7911,-0.0044,0.0013,-0.0489
7280,47.26089,-1.556924,49.5,16.68,13.936001,359.0,0 / 23,194217,2019-08-12 16:35:54:659,-0.0842,-0.4877,9.6892,-0.1669,-0.526,9.7911,-0.0044,0.0013,-0.0489
7281,47.26089,-1.556924,49.5,16.68,13.936001,359.0,0 / 23,194217,2019-08-12 16:35:54:659,-0.0842,-0.4877,9.6892,-0.1669,-0.526,9.7911,-0.0044,0.0013,-0.0489
7282,47.26089,-1.556924,49.5,16.68,13.936001,359.0,0 / 23,194217,2019-08-12 16:35:54:659,-0.0842,-0.4877,9.6892,-0.1669,-0.526,9.7911,-0.0044,0.0013,-0.0489
7283,47.26089,-1.556924,49.5,16.68,13.936001,359.0,0 / 23,194218,2019-08-12 16:35:54:660,-0.0842,-0.4877,9.6892,-0.1669,-0.526,9.7911,-0.0044,0.0013,-0.0489
7284,47.26089,-1.556924,49.5,16.68,13.936001,359.0,0 / 23,194218,2019-08-12 16:35:54:660,-0.0842,-0.4877,9.6892,-0.1669,-0.526,9.7911,-0.0044,0.0013,-0.0489
7285,47.26089,-1.556924,49.5,16.68,13.936001,359.0,0 / 23,194218,2019-08-12 16:35:54:660,-0.0842,-0.4877,9.6892,-0.1669,-0.526,9.7911,-0.0044,0.0013,-0.0489
7286,47.26089,-1.556924,49.5,16.68,13.936001,359.0,0 / 23,194219,2019-08-12 16:35:54:661,-0.0842,-0.4877,9.6892,-0.1669,-0.526,9.7911,-0.0044,0.0013,-0.0489
7287,47.26089,-1.556924,49.5,16.68,13.936001,359.0,0 / 23,194219,2019-08-12 16:35:54:661,-0.0842,-0.4877,9.6892,-0.1669,-0.526,9.7911,-0.0044,0.0013,-0.0489
7288,47.26089,-1.556924,49.5,16.68,13.936001,359.0,0 / 23,194219,2019-08-12 16:35:54:661,-0.0842,-0.4877,9.6892,-0.1669,-0.526,9.7911,-0.0044,0.0013,-0.0489
7289,47.26089,-1.556924,49.5,16.68,13.936001,359.0,0 / 23,194220,2019-08-12 16:35:54:662,-0.0842,-0.4877,9.6892,-0.1669,-0.526,9.7911,-0.0044,0.0013,-0.0489
7290,47.26089,-1.556924,49.5,16.68,13.936001,359.0,0 / 23,194220,2019-08-12 16:35:54:662,-0.0842,-0.4877,9.6892,-0.1669,-0.526,9.7911,-0.0044,0.0013,-0.0489
7291,47.26089,-1.556924,49.5,16.68,13.936001,359.0,0 / 23,194220,2019-08-12 16:35:54:662,-0.0842,-0.4877,9.6892,-0.1669,-0.526,9.7911,-0.0044,0.0013,-0.0489
7292,47.26089,-1.556924,49.5,16.68,13.936001,359.0,0 / 23,194221,2019-08-12 16:35:54:663,-0.0842,-0.4877,9.6892,-0.1669,-0.526,9.7911,-0.0044,0.0013,-0.0489
7293,47.26089,-1.556924,49.5,16.68,13.936001,359.0,0 / 23,194221,2019-08-12 16:35:54:663,-0.0842,-0.4877,9.6892,-0.1669,-0.526,9.7911,-0.0044,0.0013,-0.0489
7294,47.26089,-1.556924,49.5,16.68,13.936001,359.0,0 / 23,194221,2019-08-12 16:35:54:663,-0.0842,-0.4877,9.6892,-0.1669,-0.526,9.7911,-0.0044,0.0013,-0.0489
7295,47.26089,-1.556924,49.5,16.68,13.936001,359.0,0 / 23,194225,2019-08-12 16:35:54:667,-0.0842,-0.4877,9.6892,-0.1669,-0.526,9.7911,-0.0044,0.0013,-0.0489
7296,47.26089,-1.556924,49.5,16.68,13.936001,359.0,0 / 23,194226,2019-08-12 16:35:54:668,-0.0842,-0.4877,9.6892,-0.1669,-0.526,9.7911,-0.0044,0.0013,-0.0489
7297,47.26089,-1.556924,49.5,16.68,13.936001,359.0,0 / 23,194227,2019-08-12 16:35:54:669,-0.0842,-0.4877,9.6892,-0.1669,-0.526,9.7911,-0.0044,0.0013,-0.0489
7298,47.26089,-1.556924,49.5,16.68,13.936001,359.0,0 / 23,194227,2019-08-12 16:35:54:669,-0.0842,-0.4877,9.6892,-0.1669,-0.526,9.7911,-0.0044,0.0013,-0.0489
7299,47.26089,-1.556924,49.5,16.68,13.936001,359.0,0 / 23,194229,2019-08-12 16:35:54:671,-0.0842,-0.4877,9.6892,-0.1669,-0.526,9.7911,-0.0044,0.0013,-0.0489
7300,47.26089,-1.556924,49.5,16.68,13.936001,359.0,0 / 23,194231,2019-08-12 16:35:54:673,-0.0842,-0.4877,9.6892,-0.1669,-0.526,9.7911,-0.0044,0.0013,-0.0489
7301,47.26089,-1.556924,49.5,16.68,13.936001,359.0,0 / 23,194232,2019-08-12 16:35:54:674,-0.0842,-0.4877,9.6892,-0.1669,-0.526,9.7911,-0.0044,0.0013,-0.0489
7302,47.26089,-1.556924,49.5,16.68,13.936001,359.0,0 / 23,194233,2019-08-12 16:35:54:675,-0.0842,-0.4877,9.6892,-0.1669,-0.526,9.7911,-0.0044,0.0013,-0.0489
7303,47.26089,-1.556924,49.5,16.68,13.936001,359.0,0 / 23,194233,2019-08-12 16:35:54:675,-0.0842,-0.4877,9.6892,-0.1669,-0.526,9.7911,-0.0044,0.0013,-0.0489
7304,47.26089,-1.556924,49.5,16.68,13.936001,359.0,0 / 23,194233,2019-08-12 16:35:54:675,-0.0842,-0.4877,9.6892,-0.1669,-0.526,9.7911,-0.0044,0.0013,-0.0489
7305,47.26089,-1.556924,49.5,16.68,13.936001,359.0,0 / 23,194234,2019-08-12 16:35:54:676,-0.0842,-0.4877,9.6892,-0.1669,-0.526,9.7911,-0.0044,0.0013,-0.0489
7306,47.26089,-1.556924,49.5,16.68,13.936001,359.0,0 / 23,194234,2019-08-12 16:35:54:676,-0.0842,-0.4877,9.6892,-0.1669,-0.526,9.7911,-0.0044,0.0013,-0.0489
7307,47.26089,-1.556924,49.5,16.68,13.936001,359.0,0 / 23,194235,2019-08-12 16:35:54:677,-0.0842,-0.4877,9.6892,-0.1669,-0.526,9.7911,-0.0044,0.0013,-0.0489
7308,47.26089,-1.556924,49.5,16.68,13.936001,359.0,0 / 23,194235,2019-08-12 16:35:54:677,-0.0842,-0.4877,9.6892,-0.1669,-0.526,9.7911,-0.0044,0.0013,-0.0489
7309,47.26089,-1.556924,49.5,16.68,13.936001,359.0,0 / 23,194236,2019-08-12 16:35:54:678,-0.0842,-0.4877,9.6892,-0.1669,-0.526,9.7911,-0.0044,0.0013,-0.0489
7310,47.26089,-1.556924,49.5,16.68,13.936001,359.0,0 / 23,194236,2019-08-12 16:35:54:678,-0.0842,-0.4877,9.6892,-0.1669,-0.526,9.7911,-0.0044,0.0013,-0.0489
7311,47.26089,-1.556924,49.5,16.68,13.936001,359.0,0 / 23,194236,2019-08-12 16:35:54:678,-0.0842,-0.4877,9.6892,-0.1669,-0.526,9.7911,-0.0044,0.0013,-0.0489
7312,47.26089,-1.556924,49.5,16.68,13.936001,359.0,0 / 23,194335,2019-08-12 16:35:54:777,-0.0842,-0.4877,9.6892,-0.1669,-0.526,9.7911,-0.0044,0.0013,-0.0489
7313,47.26089,-1.556924,49.5,16.68,13.936001,359.0,0 / 23,194674,2019-08-12 16:35:55:116,-0.0842,-0.4877,9.6892,-0.1669,-0.526,9.7911,-0.0044,0.0013,-0.0489
7314,47.26089,-1.556924,49.5,16.68,13.936001,359.0,0 / 23,194675,2019-08-12 16:35:55:117,-0.0842,-0.4877,9.6892,-0.1669,-0.526,9.7911,-0.0044,0.0013,-0.0489
7315,47.26089,-1.556924,49.5,16.68,13.936001,359.0,0 / 23,194676,2019-08-12 16:35:55:118,-0.0842,-0.4877,9.6892,-0.1669,-0.526,9.7911,-0.0044,0.0013,-0.0489
7316,47.26089,-1.556924,49.5,16.68,13.936001,359.0,0 / 23,194676,2019-08-12 16:35:55:118,-0.0842,-0.4877,9.6892,-0.1669,-0.526,9.7911,-0.0044,0.0013,-0.0489
7317,47.26089,-1.556924,49.5,16.68,13.936001,359.0,0 / 23,194677,2019-08-12 16:35:55:119,-0.0842,-0.4877,9.6892,-0.1669,-0.526,9.7911,-0.0044,0.0013,-0.0489
7318,47.26089,-1.556924,49.5,16.68,13.936001,359.0,0 / 23,194677,2019-08-12 16:35:55:119,-0.0842,-0.4877,9.6892,-0.1669,-0.526,9.7911,-0.0044,0.0013,-0.0489
7319,47.26089,-1.556924,49.5,16.68,13.936001,359.0,0 / 23,194677,2019-08-12 16:35:55:119,-0.0842,-0.4877,9.6892,-0.1669,-0.526,9.7911,-0.0044,0.0013,-0.0489
7320,47.26089,-1.556924,49.5,16.68,13.936001,359.0,0 / 23,194678,2019-08-12 16:35:55:120,-0.0842,-0.4877,9.6892,-0.1669,-0.526,9.7911,-0.0044,0.0013,-0.0489
7321,47.26089,-1.556924,49.5,16.68,13.936001,359.0,0 / 23,194678,2019-08-12 16:35:55:120,-0.0842,-0.4877,9.6892,-0.1669,-0.526,9.7911,-0.0044,0.0013,-0.0489
7322,47.26089,-1.556924,49.5,16.68,13.936001,359.0,0 / 23,194679,2019-08-12 16:35:55:121,-0.0842,-0.4877,9.6892,-0.1669,-0.526,9.7911,-0.0044,0.0013,-0.0489
7323,47.26089,-1.556924,49.5,16.68,13.936001,359.0,0 / 23,194680,2019-08-12 16:35:55:122,-0.0842,-0.4877,9.6892,-0.1669,-0.526,9.7911,-0.0044,0.0013,-0.0489
7324,47.26089,-1.556924,49.5,16.68,13.936001,359.0,0 / 23,194680,2019-08-12 16:35:55:122,-0.0842,-0.4877,9.6892,-0.1669,-0.526,9.7911,-0.0044,0.0013,-0.0489
7325,47.26089,-1.556924,49.5,16.68,13.936001,359.0,0 / 23,194680,2019-08-12 16:35:55:122,-0.0842,-0.4877,9.6892,-0.1669,-0.526,9.7911,-0.0044,0.0013,-0.0489
7326,47.26089,-1.556924,49.5,16.68,13.936001,359.0,0 / 23,194681,2019-08-12 16:35:55:123,-0.0842,-0.4877,9.6892,-0.1669,-0.526,9.7911,-0.0044,0.0013,-0.0489
7327,47.26089,-1.556924,49.5,16.68,13.936001,359.0,0 / 23,194681,2019-08-12 16:35:55:123,-0.0842,-0.4877,9.6892,-0.1669,-0.526,9.7911,-0.0044,0.0013,-0.0489
7328,47.26089,-1.556924,49.5,16.68,13.936001,359.0,0 / 23,194682,2019-08-12 16:35:55:124,-0.0842,-0.4877,9.6892,-0.1669,-0.526,9.7911,-0.0044,0.0013,-0.0489
7329,47.26089,-1.556924,49.5,16.68,13.936001,359.0,0 / 23,194683,2019-08-12 16:35:55:125,-0.0842,-0.4877,9.6892,-0.1669,-0.526,9.7911,-0.0044,0.0013,-0.0489
7330,47.26089,-1.556924,49.5,16.68,13.936001,359.0,0 / 23,194683,2019-08-12 16:35:55:125,-0.0842,-0.4877,9.6892,-0.1669,-0.526,9.7911,-0.0044,0.0013,-0.0489
7331,47.26089,-1.556924,49.5,16.68,13.936001,359.0,0 / 23,194684,2019-08-12 16:35:55:126,-0.0842,-0.4877,9.6892,-0.1669,-0.526,9.7911,-0.0044,0.0013,-0.0489
7332,47.26089,-1.556924,49.5,16.68,13.936001,359.0,0 / 23,194685,2019-08-12 16:35:55:127,-0.0842,-0.4877,9.6892,-0.1669,-0.526,9.7911,-0.0044,0.0013,-0.0489
7333,47.26089,-1.556924,49.5,16.68,13.936001,359.0,0 / 23,194686,2019-08-12 16:35:55:128,-0.0842,-0.4877,9.6892,-0.1669,-0.526,9.7911,-0.0044,0.0013,-0.0489
7334,47.26089,-1.556924,49.5,16.68,13.936001,359.0,0 / 23,194686,2019-08-12 16:35:55:128,-0.0842,-0.4877,9.6892,-0.1669,-0.526,9.7911,-0.0044,0.0013,-0.0489
7335,47.26089,-1.556924,49.5,16.68,13.936001,359.0,0 / 23,194687,2019-08-12 16:35:55:129,-0.0842,-0.4877,9.6892,-0.1669,-0.526,9.7911,-0.0044,0.0013,-0.0489
7336,47.26089,-1.556924,49.5,16.68,13.936001,359.0,0 / 23,194688,2019-08-12 16:35:55:130,-0.0842,-0.4877,9.6892,-0.1669,-0.526,9.7911,-0.0044,0.0013,-0.0489
7337,47.26089,-1.556924,49.5,16.68,13.936001,359.0,0 / 23,194688,2019-08-12 16:35:55:130,-0.0842,-0.4877,9.6892,-0.1669,-0.526,9.7911,-0.0044,0.0013,-0.0489
7338,47.26089,-1.556924,49.5,16.68,13.936001,359.0,0 / 23,194689,2019-08-12 16:35:55:131,-0.0842,-0.4877,9.6892,-0.1669,-0.526,9.7911,-0.0044,0.0013,-0.0489
7339,47.26089,-1.556924,49.5,16.68,13.936001,359.0,0 / 23,194690,2019-08-12 16:35:55:132,-0.0842,-0.4877,9.6892,-0.1669,-0.526,9.7911,-0.0044,0.0013,-0.0489
7340,47.26089,-1.556924,49.5,16.68,13.936001,359.0,0 / 23,194701,2019-08-12 16:35:55:143,-0.0842,-0.4877,9.6892,-0.1669,-0.526,9.7911,-0.0044,0.0013,-0.0489
7341,47.26089,-1.556924,49.5,16.68,13.936001,359.0,0 / 23,194801,2019-08-12 16:35:55:243,-0.0842,-0.4877,9.6892,-0.1669,-0.526,9.7911,-0.0044,0.0013,-0.0489
7342,47.26089,-1.556924,49.5,16.68,13.936001,359.0,0 / 23,194901,2019-08-12 16:35:55:343,-0.0842,-0.4877,9.6892,-0.1669,-0.526,9.7911,-0.0044,0.0013,-0.0489
7343,47.26089,-1.556924,49.5,16.68,13.936001,359.0,0 / 23,195001,2019-08-12 16:35:55:443,-0.0842,-0.4877,9.6892,-0.1669,-0.526,9.7911,-0.0044,0.0013,-0.0489
7344,47.26089,-1.556924,49.5,16.68,13.936001,359.0,0 / 23,195101,2019-08-12 16:35:55:543,-0.0159,0.0247,9.4749,0.1033,0.4208,9.7971,-0.0012,0.0066,-0.0489
7345,47.26089,-1.556924,49.5,16.68,13.936001,359.0,0 / 23,195201,2019-08-12 16:35:55:643,-0.3834,0.6029,9.6628,0.1323,0.4284,9.7964,-0.0023,0.0034,0.0576
7346,47.26089,-1.556924,49.5,16.68,13.936001,359.0,0 / 23,195301,2019-08-12 16:35:55:743,-0.1129,0.4784,8.8775,0.0865,0.4258,9.797,-0.0044,0.0386,0.0597
7347,47.26089,-1.556924,49.5,16.68,13.936001,359.0,0 / 23,195401,2019-08-12 16:35:55:843,-0.1404,0.4149,8.2634,0.0629,0.4259,9.7972,-0.0065,0.0226,0.0597
7348,47.26089,-1.556924,49.5,16.68,13.936001,359.0,0 / 23,195501,2019-08-12 16:35:55:943,-0.1261,0.4161,9.5132,0.0504,0.4281,9.7972,0.0073,-0.0008,0.0608
7349,47.26089,-1.556924,49.5,16.68,13.936001,359.0,0 / 23,195601,2019-08-12 16:35:56:043,-0.1692,0.5741,9.6628,0.0573,0.4243,9.7973,-0.0097,-0.0147,0.0597
7350,47.26089,-1.556924,49.5,16.68,13.936001,359.0,Dec-23,195702,2019-08-12 16:35:56:144,0.0858,0.4568,10.6061,0.0601,0.4097,9.7979,-0.0204,0.0098,0.0587
7351,47.26089,-1.556924,49.5,16.68,13.936001,359.0,Dec-23,195802,2019-08-12 16:35:56:244,-0.1979,0.4365,9.761,0.0526,0.4032,9.7982,-0.0033,0.0056,0.0565
7352,47.26089,-1.556924,49.5,16.68,13.936001,359.0,Dec-23,195902,2019-08-12 16:35:56:344,-0.0219,0.2545,9.9274,0.0391,0.4029,9.7983,0.0009,0.0045,0.0544
7353,47.26089,-1.556924,49.5,16.68,13.936001,359.0,Dec-23,196002,2019-08-12 16:35:56:444,-0.2709,0.3192,8.6944,0.0253,0.3975,9.7986,0.0031,-0.004,0.0533
7354,47.26089,-1.556924,49.5,16.68,13.936001,359.0,Dec-23,196101,2019-08-12 16:35:56:543,0.1158,0.4401,10.7366,0.0631,0.4063,9.798,0.0158,-0.0381,0.0512
7355,47.26089,-1.556924,49.5,16.68,13.936001,359.0,Dec-23,196201,2019-08-12 16:35:56:643,-0.2362,0.5514,10.0722,0.0825,0.4031,9.798,-0.0076,-0.0243,0.0491
7356,47.26089,-1.556924,49.5,16.68,13.936001,359.0,Dec-23,196301,2019-08-12 16:35:56:743,0.081,0.221,9.7825,0.0767,0.3927,9.7985,-0.0044,0.0194,0.0501
7357,47.26089,-1.556924,49.5,16.68,13.936001,359.0,Dec-23,196401,2019-08-12 16:35:56:843,0.0559,0.4987,9.597,0.0612,0.3845,9.7989,-0.0065,0.0194,0.0491
7358,47.26089,-1.556924,49.5,16.68,13.936001,359.0,Dec-23,196501,2019-08-12 16:35:56:943,-0.1428,0.2892,9.6784,0.053,0.3825,9.799,0.0063,-0.003,0.0501
7359,47.26089,-1.556924,49.5,16.68,13.936001,359.0,Dec-23,196603,2019-08-12 16:35:57:045,-0.2482,0.2533,9.3276,0.0467,0.3849,9.799,0.0041,0.0077,0.0523
7360,47.262184,-1.557207,46.81,16.69,11.792,340.8,0 / 23,196701,2019-08-12 16:35:57:143,0.2043,0.4149,9.9513,0.0436,0.3904,9.7988,0.0116,-0.0083,0.0533
7361,47.262184,-1.557207,46.81,16.69,11.792,340.8,0 / 23,196801,2019-08-12 16:35:57:243,-0.1297,0.5203,9.7777,0.0628,0.3896,9.7987,-0.0033,-0.0275,0.0523
7362,47.262184,-1.557207,46.81,16.69,11.792,340.8,0 / 23,196901,2019-08-12 16:35:57:343,-0.0854,0.3563,9.9657,0.0825,0.3781,9.799,-0.0161,-0.0104,0.0523
7363,47.262184,-1.557207,46.81,16.69,11.792,340.8,0 / 23,197002,2019-08-12 16:35:57:444,0.239,0.4053,10.2817,0.0781,0.3816,9.7989,0.0116,0.0023,0.0523
7364,47.262184,-1.557207,46.81,16.69,11.792,340.8,0 / 23,197101,2019-08-12 16:35:57:543,0.2582,0.5801,10.3224,0.0757,0.3835,9.7989,0.0084,0.0023,0.0512
7365,47.262184,-1.557207,46.81,16.69,11.792,340.8,0 / 23,197201,2019-08-12 16:35:57:643,0.2582,0.5801,10.3224,0.0757,0.3835,9.7989,0.0084,0.0023,0.0512
7366,47.262184,-1.557207,46.81,16.69,11.792,340.8,0 / 23,197301,2019-08-12 16:35:57:743,-0.2709,0.1504,9.5084,0.0672,0.3995,9.7983,0.0041,0.0077,0.0533
7367,47.262184,-1.557207,46.81,16.69,11.792,340.8,0 / 23,197402,2019-08-12 16:35:57:844,-0.0052,0.4125,10.3308,0.0544,0.3932,9.7986,-0.0108,0.0151,0.0523
7368,47.262184,-1.557207,46.81,16.69,11.792,340.8,0 / 23,197501,2019-08-12 16:35:57:943,0.1181,0.5071,9.9382,0.0585,0.3931,9.7986,-0.0044,-0.0136,0.0512
7369,47.262184,-1.557207,46.81,16.69,11.792,340.8,0 / 23,197837,2019-08-12 16:35:58:279,0.1624,0.458,10.8192,0.0585,0.3931,9.7986,-0.0044,-0.0136,0.0512
7370,47.262184,-1.557207,46.81,16.69,11.792,340.8,0 / 23,197838,2019-08-12 16:35:58:280,0.1624,0.458,10.8192,0.0585,0.3931,9.7986,-0.0044,-0.0136,0.0512
7371,47.262184,-1.557207,46.81,16.69,11.792,340.8,0 / 23,197838,2019-08-12 16:35:58:280,0.1624,0.458,10.8192,0.0585,0.3931,9.7986,-0.0044,-0.0136,0.0512
7372,47.262184,-1.557207,46.81,16.69,11.792,340.8,0 / 23,197839,2019-08-12 16:35:58:281,0.1624,0.458,10.8192,0.0585,0.3931,9.7986,-0.0044,-0.0136,0.0512
7373,47.262184,-1.557207,46.81,16.69,11.792,340.8,0 / 23,197839,2019-08-12 16:35:58:281,0.1624,0.458,10.8192,0.0585,0.3931,9.7986,-0.0044,-0.0136,0.0512
7374,47.262184,-1.557207,46.81,16.69,11.792,340.8,0 / 23,197841,2019-08-12 16:35:58:283,0.1624,0.458,10.8192,0.0585,0.3931,9.7986,-0.0044,-0.0136,0.0512
7375,47.262184,-1.557207,46.81,16.69,11.792,340.8,0 / 23,197842,2019-08-12 16:35:58:284,0.1624,0.458,10.8192,0.0585,0.3931,9.7986,-0.0044,-0.0136,0.0512
7376,47.262184,-1.557207,46.81,16.69,11.792,340.8,0 / 23,197842,2019-08-12 16:35:58:284,0.1624,0.458,10.8192,0.0585,0.3931,9.7986,-0.0044,-0.0136,0.0512
7377,47.262184,-1.557207,46.81,16.69,11.792,340.8,0 / 23,197843,2019-08-12 16:35:58:285,0.1624,0.458,10.8192,0.0585,0.3931,9.7986,-0.0044,-0.0136,0.0512
7378,47.262184,-1.557207,46.81,16.69,11.792,340.8,0 / 23,197843,2019-08-12 16:35:58:285,0.1624,0.458,10.8192,0.0585,0.3931,9.7986,-0.0044,-0.0136,0.0512
7379,47.262184,-1.557207,46.81,16.69,11.792,340.8,0 / 23,197843,2019-08-12 16:35:58:285,0.1624,0.458,10.8192,0.0585,0.3931,9.7986,-0.0044,-0.0136,0.0512
7380,47.262184,-1.557207,46.81,16.69,11.792,340.8,0 / 23,197843,2019-08-12 16:35:58:285,0.1624,0.458,10.8192,0.0585,0.3931,9.7986,-0.0044,-0.0136,0.0512
7381,47.262184,-1.557207,46.81,16.69,11.792,340.8,0 / 23,197844,2019-08-12 16:35:58:286,0.1624,0.458,10.8192,0.0585,0.3931,9.7986,-0.0044,-0.0136,0.0512
7382,47.262184,-1.557207,46.81,16.69,11.792,340.8,0 / 23,197845,2019-08-12 16:35:58:287,0.1624,0.458,10.8192,0.0585,0.3931,9.7986,-0.0044,-0.0136,0.0512
7383,47.262184,-1.557207,46.81,16.69,11.792,340.8,0 / 23,197845,2019-08-12 16:35:58:287,0.1624,0.458,10.8192,0.0585,0.3931,9.7986,-0.0044,-0.0136,0.0512
7384,47.262184,-1.557207,46.81,16.69,11.792,340.8,0 / 23,197846,2019-08-12 16:35:58:288,0.1624,0.458,10.8192,0.0585,0.3931,9.7986,-0.0044,-0.0136,0.0512
7385,47.262184,-1.557207,46.81,16.69,11.792,340.8,0 / 23,197846,2019-08-12 16:35:58:288,0.1624,0.458,10.8192,0.0585,0.3931,9.7986,-0.0044,-0.0136,0.0512
7386,47.262184,-1.557207,46.81,16.69,11.792,340.8,0 / 23,197846,2019-08-12 16:35:58:288,0.1624,0.458,10.8192,0.0585,0.3931,9.7986,-0.0044,-0.0136,0.0512
7387,47.262184,-1.557207,46.81,16.69,11.792,340.8,0 / 23,197847,2019-08-12 16:35:58:289,0.1624,0.458,10.8192,0.0585,0.3931,9.7986,-0.0044,-0.0136,0.0512
7388,47.262184,-1.557207,46.81,16.69,11.792,340.8,0 / 23,197848,2019-08-12 16:35:58:290,0.1624,0.458,10.8192,0.0585,0.3931,9.7986,-0.0044,-0.0136,0.0512
7389,47.262184,-1.557207,46.81,16.69,11.792,340.8,0 / 23,197849,2019-08-12 16:35:58:291,0.1624,0.458,10.8192,0.0585,0.3931,9.7986,-0.0044,-0.0136,0.0512
7390,47.262184,-1.557207,46.81,16.69,11.792,340.8,0 / 23,197850,2019-08-12 16:35:58:292,0.1624,0.458,10.8192,0.0585,0.3931,9.7986,-0.0044,-0.0136,0.0512
7391,47.262184,-1.557207,46.81,16.69,11.792,340.8,0 / 23,197850,2019-08-12 16:35:58:292,0.1624,0.458,10.8192,0.0585,0.3931,9.7986,-0.0044,-0.0136,0.0512
7392,47.262184,-1.557207,46.81,16.69,11.792,340.8,0 / 23,197851,2019-08-12 16:35:58:293,0.1624,0.458,10.8192,0.0585,0.3931,9.7986,-0.0044,-0.0136,0.0512
7393,47.262184,-1.557207,46.81,16.69,11.792,340.8,0 / 23,197852,2019-08-12 16:35:58:294,0.1624,0.458,10.8192,0.0585,0.3931,9.7986,-0.0044,-0.0136,0.0512
7394,47.262184,-1.557207,46.81,16.69,11.792,340.8,0 / 23,197852,2019-08-12 16:35:58:294,0.1624,0.458,10.8192,0.0585,0.3931,9.7986,-0.0044,-0.0136,0.0512
7395,47.262184,-1.557207,46.81,16.69,11.792,340.8,0 / 23,197853,2019-08-12 16:35:58:295,0.1624,0.458,10.8192,0.0585,0.3931,9.7986,-0.0044,-0.0136,0.0512
7396,47.262184,-1.557207,46.81,16.69,11.792,340.8,0 / 23,197854,2019-08-12 16:35:58:296,0.1624,0.458,10.8192,0.0585,0.3931,9.7986,-0.0044,-0.0136,0.0512
7397,47.262184,-1.557207,46.81,16.69,11.792,340.8,0 / 23,197854,2019-08-12 16:35:58:296,0.1624,0.458,10.8192,0.0585,0.3931,9.7986,-0.0044,-0.0136,0.0512
7398,47.262184,-1.557207,46.81,16.69,11.792,340.8,0 / 23,197855,2019-08-12 16:35:58:297,0.1624,0.458,10.8192,0.0585,0.3931,9.7986,-0.0044,-0.0136,0.0512
7399,47.262184,-1.557207,46.81,16.69,11.792,340.8,0 / 23,197856,2019-08-12 16:35:58:298,0.1624,0.458,10.8192,0.0585,0.3931,9.7986,-0.0044,-0.0136,0.0512
7400,47.262184,-1.557207,46.81,16.69,11.792,340.8,0 / 23,197858,2019-08-12 16:35:58:300,0.1624,0.458,10.8192,0.0585,0.3931,9.7986,-0.0044,-0.0136,0.0512
7401,47.262184,-1.557207,46.81,16.69,11.792,340.8,0 / 23,197859,2019-08-12 16:35:58:301,0.1624,0.458,10.8192,0.0585,0.3931,9.7986,-0.0044,-0.0136,0.0512
7402,47.262184,-1.557207,46.81,16.69,11.792,340.8,0 / 23,197860,2019-08-12 16:35:58:302,0.1624,0.458,10.8192,0.0585,0.3931,9.7986,-0.0044,-0.0136,0.0512
7403,47.262184,-1.557207,46.81,16.69,11.792,340.8,0 / 23,197861,2019-08-12 16:35:58:303,0.1624,0.458,10.8192,0.0585,0.3931,9.7986,-0.0044,-0.0136,0.0512
7404,47.262184,-1.557207,46.81,16.69,11.792,340.8,0 / 23,197861,2019-08-12 16:35:58:303,0.1624,0.458,10.8192,0.0585,0.3931,9.7986,-0.0044,-0.0136,0.0512
7405,47.262184,-1.557207,46.81,16.69,11.792,340.8,0 / 23,197862,2019-08-12 16:35:58:304,0.1624,0.458,10.8192,0.0585,0.3931,9.7986,-0.0044,-0.0136,0.0512
7406,47.262184,-1.557207,46.81,16.69,11.792,340.8,0 / 23,197863,2019-08-12 16:35:58:305,0.1624,0.458,10.8192,0.0585,0.3931,9.7986,-0.0044,-0.0136,0.0512
7407,47.262184,-1.557207,46.81,16.69,11.792,340.8,0 / 23,197863,2019-08-12 16:35:58:305,0.1624,0.458,10.8192,0.0585,0.3931,9.7986,-0.0044,-0.0136,0.0512
7408,47.262184,-1.557207,46.81,16.69,11.792,340.8,0 / 23,197864,2019-08-12 16:35:58:306,0.1624,0.458,10.8192,0.0585,0.3931,9.7986,-0.0044,-0.0136,0.0512
7409,47.262184,-1.557207,46.81,16.69,11.792,340.8,0 / 23,197864,2019-08-12 16:35:58:306,0.1624,0.458,10.8192,0.0585,0.3931,9.7986,-0.0044,-0.0136,0.0512
7410,47.262184,-1.557207,46.81,16.69,11.792,340.8,0 / 23,197864,2019-08-12 16:35:58:306,0.1624,0.458,10.8192,0.0585,0.3931,9.7986,-0.0044,-0.0136,0.0512
7411,47.262184,-1.557207,46.81,16.69,11.792,340.8,0 / 23,197865,2019-08-12 16:35:58:307,0.1624,0.458,10.8192,0.0585,0.3931,9.7986,-0.0044,-0.0136,0.0512
7412,47.262184,-1.557207,46.81,16.69,11.792,340.8,0 / 23,197865,2019-08-12 16:35:58:307,0.1624,0.458,10.8192,0.0585,0.3931,9.7986,-0.0044,-0.0136,0.0512
7413,47.262184,-1.557207,46.81,16.69,11.792,340.8,0 / 23,197866,2019-08-12 16:35:58:308,0.1624,0.458,10.8192,0.0585,0.3931,9.7986,-0.0044,-0.0136,0.0512
7414,47.262184,-1.557207,46.81,16.69,11.792,340.8,0 / 23,197866,2019-08-12 16:35:58:308,0.1624,0.458,10.8192,0.0585,0.3931,9.7986,-0.0044,-0.0136,0.0512
7415,47.262184,-1.557207,46.81,16.69,11.792,340.8,0 / 23,197866,2019-08-12 16:35:58:308,0.1624,0.458,10.8192,0.0585,0.3931,9.7986,-0.0044,-0.0136,0.0512
7416,47.262184,-1.557207,46.81,16.69,11.792,340.8,0 / 23,197867,2019-08-12 16:35:58:309,0.1624,0.458,10.8192,0.0585,0.3931,9.7986,-0.0044,-0.0136,0.0512
7417,47.262184,-1.557207,46.81,16.69,11.792,340.8,0 / 23,197867,2019-08-12 16:35:58:309,0.1624,0.458,10.8192,0.0585,0.3931,9.7986,-0.0044,-0.0136,0.0512
7418,47.262184,-1.557207,46.81,16.69,11.792,340.8,0 / 23,197867,2019-08-12 16:35:58:309,0.1624,0.458,10.8192,0.0585,0.3931,9.7986,-0.0044,-0.0136,0.0512
7419,47.262184,-1.557207,46.81,16.69,11.792,340.8,0 / 23,197868,2019-08-12 16:35:58:310,0.1624,0.458,10.8192,0.0585,0.3931,9.7986,-0.0044,-0.0136,0.0512
7420,47.262184,-1.557207,46.81,16.69,11.792,340.8,0 / 23,197868,2019-08-12 16:35:58:310,0.1624,0.458,10.8192,0.0585,0.3931,9.7986,-0.0044,-0.0136,0.0512
7421,47.262184,-1.557207,46.81,16.69,11.792,340.8,0 / 23,197869,2019-08-12 16:35:58:311,0.1624,0.458,10.8192,0.0585,0.3931,9.7986,-0.0044,-0.0136,0.0512
7422,47.262184,-1.557207,46.81,16.69,11.792,340.8,0 / 23,197869,2019-08-12 16:35:58:311,0.1624,0.458,10.8192,0.0585,0.3931,9.7986,-0.0044,-0.0136,0.0512
7423,47.262184,-1.557207,46.81,16.69,11.792,340.8,0 / 23,197869,2019-08-12 16:35:58:311,0.1624,0.458,10.8192,0.0585,0.3931,9.7986,-0.0044,-0.0136,0.0512
7424,47.262184,-1.557207,46.81,16.69,11.792,340.8,0 / 23,197869,2019-08-12 16:35:58:311,0.1624,0.458,10.8192,0.0585,0.3931,9.7986,-0.0044,-0.0136,0.0512
7425,47.262184,-1.557207,46.81,16.69,11.792,340.8,0 / 23,197870,2019-08-12 16:35:58:312,0.1624,0.458,10.8192,0.0585,0.3931,9.7986,-0.0044,-0.0136,0.0512
7426,47.262184,-1.557207,46.81,16.69,11.792,340.8,0 / 23,197870,2019-08-12 16:35:58:312,0.1624,0.458,10.8192,0.0585,0.3931,9.7986,-0.0044,-0.0136,0.0512
7427,47.262184,-1.557207,46.81,16.69,11.792,340.8,0 / 23,197870,2019-08-12 16:35:58:312,0.1624,0.458,10.8192,0.0585,0.3931,9.7986,-0.0044,-0.0136,0.0512
7428,47.262184,-1.557207,46.81,16.69,11.792,340.8,0 / 23,197871,2019-08-12 16:35:58:313,0.1624,0.458,10.8192,0.0585,0.3931,9.7986,-0.0044,-0.0136,0.0512
7429,47.262184,-1.557207,46.81,16.69,11.792,340.8,0 / 23,197871,2019-08-12 16:35:58:313,0.1624,0.458,10.8192,0.0585,0.3931,9.7986,-0.0044,-0.0136,0.0512
7430,47.262184,-1.557207,46.81,16.69,11.792,340.8,0 / 23,197871,2019-08-12 16:35:58:313,0.1624,0.458,10.8192,0.0585,0.3931,9.7986,-0.0044,-0.0136,0.0512
7431,47.262184,-1.557207,46.81,16.69,11.792,340.8,0 / 23,197966,2019-08-12 16:35:58:408,0.1624,0.458,10.8192,0.0585,0.3931,9.7986,-0.0044,-0.0136,0.0512
7432,47.262184,-1.557207,46.81,16.69,11.792,340.8,Sep-23,198298,2019-08-12 16:35:58:740,0.1624,0.458,10.8192,0.0585,0.3931,9.7986,-0.0044,-0.0136,0.0512
7433,47.262184,-1.557207,46.81,16.69,11.792,340.8,Sep-23,198299,2019-08-12 16:35:58:741,0.1624,0.458,10.8192,0.0585,0.3931,9.7986,-0.0044,-0.0136,0.0512
7434,47.262184,-1.557207,46.81,16.69,11.792,340.8,Sep-23,198300,2019-08-12 16:35:58:742,0.1624,0.458,10.8192,0.0585,0.3931,9.7986,-0.0044,-0.0136,0.0512
7435,47.262184,-1.557207,46.81,16.69,11.792,340.8,Sep-23,198300,2019-08-12 16:35:58:742,0.1624,0.458,10.8192,0.0585,0.3931,9.7986,-0.0044,-0.0136,0.0512
7436,47.262184,-1.557207,46.81,16.69,11.792,340.8,Sep-23,198301,2019-08-12 16:35:58:743,0.1624,0.458,10.8192,0.0585,0.3931,9.7986,-0.0044,-0.0136,0.0512
7437,47.262184,-1.557207,46.81,16.69,11.792,340.8,Sep-23,198302,2019-08-12 16:35:58:744,0.1624,0.458,10.8192,0.0585,0.3931,9.7986,-0.0044,-0.0136,0.0512
7438,47.262184,-1.557207,46.81,16.69,11.792,340.8,Sep-23,198302,2019-08-12 16:35:58:744,0.1624,0.458,10.8192,0.0585,0.3931,9.7986,-0.0044,-0.0136,0.0512
7439,47.262184,-1.557207,46.81,16.69,11.792,340.8,Sep-23,198303,2019-08-12 16:35:58:745,0.1624,0.458,10.8192,0.0585,0.3931,9.7986,-0.0044,-0.0136,0.0512
7440,47.262184,-1.557207,46.81,16.69,11.792,340.8,Sep-23,198322,2019-08-12 16:35:58:764,0.1624,0.458,10.8192,0.0585,0.3931,9.7986,-0.0044,-0.0136,0.0512
7441,47.262184,-1.557207,46.81,16.69,11.792,340.8,Sep-23,198422,2019-08-12 16:35:58:864,0.1624,0.458,10.8192,0.0585,0.3931,9.7986,-0.0044,-0.0136,0.0512
7442,47.262184,-1.557207,46.81,16.69,11.792,340.8,Sep-23,198762,2019-08-12 16:35:59:204,0.1624,0.458,10.8192,0.0585,0.3931,9.7986,-0.0044,-0.0136,0.0512
7443,47.262184,-1.557207,46.81,16.69,11.792,340.8,Sep-23,198763,2019-08-12 16:35:59:205,0.1624,0.458,10.8192,0.0585,0.3931,9.7986,-0.0044,-0.0136,0.0512
7444,47.262184,-1.557207,46.81,16.69,11.792,340.8,Sep-23,198764,2019-08-12 16:35:59:206,0.1624,0.458,10.8192,0.0585,0.3931,9.7986,-0.0044,-0.0136,0.0512
7445,47.262184,-1.557207,46.81,16.69,11.792,340.8,Sep-23,198764,2019-08-12 16:35:59:206,0.1624,0.458,10.8192,0.0585,0.3931,9.7986,-0.0044,-0.0136,0.0512
7446,47.262184,-1.557207,46.81,16.69,11.792,340.8,Sep-23,198765,2019-08-12 16:35:59:207,0.1624,0.458,10.8192,0.0585,0.3931,9.7986,-0.0044,-0.0136,0.0512
7447,47.262184,-1.557207,46.81,16.69,11.792,340.8,Sep-23,198765,2019-08-12 16:35:59:207,0.1624,0.458,10.8192,0.0585,0.3931,9.7986,-0.0044,-0.0136,0.0512
7448,47.262184,-1.557207,46.81,16.69,11.792,340.8,Sep-23,198765,2019-08-12 16:35:59:207,0.1624,0.458,10.8192,0.0585,0.3931,9.7986,-0.0044,-0.0136,0.0512
7449,47.262184,-1.557207,46.81,16.69,11.792,340.8,Sep-23,198766,2019-08-12 16:35:59:208,0.1624,0.458,10.8192,0.0585,0.3931,9.7986,-0.0044,-0.0136,0.0512
7450,47.262184,-1.557207,46.81,16.69,11.792,340.8,Sep-23,198766,2019-08-12 16:35:59:208,0.1624,0.458,10.8192,0.0585,0.3931,9.7986,-0.0044,-0.0136,0.0512
7451,47.262184,-1.557207,46.81,16.69,11.792,340.8,Sep-23,198766,2019-08-12 16:35:59:208,0.1624,0.458,10.8192,0.0585,0.3931,9.7986,-0.0044,-0.0136,0.0512
7452,47.262184,-1.557207,46.81,16.69,11.792,340.8,Sep-23,198767,2019-08-12 16:35:59:209,0.1624,0.458,10.8192,0.0585,0.3931,9.7986,-0.0044,-0.0136,0.0512
7453,47.262184,-1.557207,46.81,16.69,11.792,340.8,Sep-23,198767,2019-08-12 16:35:59:209,0.1624,0.458,10.8192,0.0585,0.3931,9.7986,-0.0044,-0.0136,0.0512
7454,47.262184,-1.557207,46.81,16.69,11.792,340.8,Sep-23,198767,2019-08-12 16:35:59:209,0.1624,0.458,10.8192,0.0585,0.3931,9.7986,-0.0044,-0.0136,0.0512
7455,47.262184,-1.557207,46.81,16.69,11.792,340.8,Sep-23,198768,2019-08-12 16:35:59:210,0.1624,0.458,10.8192,0.0585,0.3931,9.7986,-0.0044,-0.0136,0.0512
7456,47.262184,-1.557207,46.81,16.69,11.792,340.8,Sep-23,198768,2019-08-12 16:35:59:210,0.1624,0.458,10.8192,0.0585,0.3931,9.7986,-0.0044,-0.0136,0.0512
7457,47.262184,-1.557207,46.81,16.69,11.792,340.8,Sep-23,198775,2019-08-12 16:35:59:217,0.1624,0.458,10.8192,0.0585,0.3931,9.7986,-0.0044,-0.0136,0.0512
7458,47.262184,-1.557207,46.81,16.69,11.792,340.8,Sep-23,198776,2019-08-12 16:35:59:218,0.1624,0.458,10.8192,0.0585,0.3931,9.7986,-0.0044,-0.0136,0.0512
7459,47.262184,-1.557207,46.81,16.69,11.792,340.8,Sep-23,198776,2019-08-12 16:35:59:218,0.1624,0.458,10.8192,0.0585,0.3931,9.7986,-0.0044,-0.0136,0.0512
7460,47.262184,-1.557207,46.81,16.69,11.792,340.8,Sep-23,198777,2019-08-12 16:35:59:219,0.1624,0.458,10.8192,0.0585,0.3931,9.7986,-0.0044,-0.0136,0.0512
7461,47.262184,-1.557207,46.81,16.69,11.792,340.8,Sep-23,198777,2019-08-12 16:35:59:219,0.1624,0.458,10.8192,0.0585,0.3931,9.7986,-0.0044,-0.0136,0.0512
7462,47.262184,-1.557207,46.81,16.69,11.792,340.8,Sep-23,198777,2019-08-12 16:35:59:219,0.1624,0.458,10.8192,0.0585,0.3931,9.7986,-0.0044,-0.0136,0.0512
7463,47.262184,-1.557207,46.81,16.69,11.792,340.8,Sep-23,198778,2019-08-12 16:35:59:220,0.1624,0.458,10.8192,0.0585,0.3931,9.7986,-0.0044,-0.0136,0.0512
7464,47.262184,-1.557207,46.81,16.69,11.792,340.8,Sep-23,198778,2019-08-12 16:35:59:220,0.1624,0.458,10.8192,0.0585,0.3931,9.7986,-0.0044,-0.0136,0.0512
7465,47.262184,-1.557207,46.81,16.69,11.792,340.8,Sep-23,198779,2019-08-12 16:35:59:221,0.1624,0.458,10.8192,0.0585,0.3931,9.7986,-0.0044,-0.0136,0.0512
7466,47.262184,-1.557207,46.81,16.69,11.792,340.8,Sep-23,198779,2019-08-12 16:35:59:221,0.1624,0.458,10.8192,0.0585,0.3931,9.7986,-0.0044,-0.0136,0.0512
7467,47.262184,-1.557207,46.81,16.69,11.792,340.8,Sep-23,198779,2019-08-12 16:35:59:221,0.1624,0.458,10.8192,0.0585,0.3931,9.7986,-0.0044,-0.0136,0.0512
7468,47.262184,-1.557207,46.81,16.69,11.792,340.8,Sep-23,198780,2019-08-12 16:35:59:222,0.1624,0.458,10.8192,0.0585,0.3931,9.7986,-0.0044,-0.0136,0.0512
7469,47.262184,-1.557207,46.81,16.69,11.792,340.8,Sep-23,198780,2019-08-12 16:35:59:222,0.1624,0.458,10.8192,0.0585,0.3931,9.7986,-0.0044,-0.0136,0.0512
7470,47.262184,-1.557207,46.81,16.69,11.792,340.8,Sep-23,198780,2019-08-12 16:35:59:222,0.1624,0.458,10.8192,0.0585,0.3931,9.7986,-0.0044,-0.0136,0.0512
7471,47.262184,-1.557207,46.81,16.69,11.792,340.8,Sep-23,198780,2019-08-12 16:35:59:222,0.1624,0.458,10.8192,0.0585,0.3931,9.7986,-0.0044,-0.0136,0.0512
7472,47.262184,-1.557207,46.81,16.69,11.792,340.8,Sep-23,198781,2019-08-12 16:35:59:223,0.1624,0.458,10.8192,0.0585,0.3931,9.7986,-0.0044,-0.0136,0.0512
7473,47.262184,-1.557207,46.81,16.69,11.792,340.8,Sep-23,198781,2019-08-12 16:35:59:223,0.1624,0.458,10.8192,0.0585,0.3931,9.7986,-0.0044,-0.0136,0.0512
7474,47.262184,-1.557207,46.81,16.69,11.792,340.8,Sep-23,198782,2019-08-12 16:35:59:224,0.1624,0.458,10.8192,0.0585,0.3931,9.7986,-0.0044,-0.0136,0.0512
7475,47.262184,-1.557207,46.81,16.69,11.792,340.8,Sep-23,198783,2019-08-12 16:35:59:225,0.1624,0.458,10.8192,0.0585,0.3931,9.7986,-0.0044,-0.0136,0.0512
7476,47.262184,-1.557207,46.81,16.69,11.792,340.8,Sep-23,198784,2019-08-12 16:35:59:226,0.1624,0.458,10.8192,0.0585,0.3931,9.7986,-0.0044,-0.0136,0.0512
7477,47.262184,-1.557207,46.81,16.69,11.792,340.8,Sep-23,198784,2019-08-12 16:35:59:226,0.1624,0.458,10.8192,0.0585,0.3931,9.7986,-0.0044,-0.0136,0.0512
7478,47.262184,-1.557207,46.81,16.69,11.792,340.8,Sep-23,198784,2019-08-12 16:35:59:226,0.1624,0.458,10.8192,0.0585,0.3931,9.7986,-0.0044,-0.0136,0.0512
7479,47.262184,-1.557207,46.81,16.69,11.792,340.8,Sep-23,198785,2019-08-12 16:35:59:227,0.1624,0.458,10.8192,0.0585,0.3931,9.7986,-0.0044,-0.0136,0.0512
7480,47.262184,-1.557207,46.81,16.69,11.792,340.8,Sep-23,198786,2019-08-12 16:35:59:228,0.1624,0.458,10.8192,0.0585,0.3931,9.7986,-0.0044,-0.0136,0.0512
7481,47.262184,-1.557207,46.81,16.69,11.792,340.8,Sep-23,198786,2019-08-12 16:35:59:228,0.1624,0.458,10.8192,0.0585,0.3931,9.7986,-0.0044,-0.0136,0.0512
7482,47.262184,-1.557207,46.81,16.69,11.792,340.8,Sep-23,198787,2019-08-12 16:35:59:229,0.1624,0.458,10.8192,0.0585,0.3931,9.7986,-0.0044,-0.0136,0.0512
7483,47.262184,-1.557207,46.81,16.69,11.792,340.8,Sep-23,198788,2019-08-12 16:35:59:230,0.1624,0.458,10.8192,0.0585,0.3931,9.7986,-0.0044,-0.0136,0.0512
7484,47.262184,-1.557207,46.81,16.69,11.792,340.8,Sep-23,198789,2019-08-12 16:35:59:231,0.1624,0.458,10.8192,0.0585,0.3931,9.7986,-0.0044,-0.0136,0.0512
7485,47.262184,-1.557207,46.81,16.69,11.792,340.8,Sep-23,198789,2019-08-12 16:35:59:231,0.1624,0.458,10.8192,0.0585,0.3931,9.7986,-0.0044,-0.0136,0.0512
7486,47.262184,-1.557207,46.81,16.69,11.792,340.8,Sep-23,198790,2019-08-12 16:35:59:232,0.1624,0.458,10.8192,0.0585,0.3931,9.7986,-0.0044,-0.0136,0.0512
7487,47.262184,-1.557207,46.81,16.69,11.792,340.8,Sep-23,198790,2019-08-12 16:35:59:232,0.1624,0.458,10.8192,0.0585,0.3931,9.7986,-0.0044,-0.0136,0.0512
7488,47.262184,-1.557207,46.81,16.69,11.792,340.8,Sep-23,198790,2019-08-12 16:35:59:232,0.1624,0.458,10.8192,0.0585,0.3931,9.7986,-0.0044,-0.0136,0.0512
7489,47.262184,-1.557207,46.81,16.69,11.792,340.8,Sep-23,198791,2019-08-12 16:35:59:233,0.1624,0.458,10.8192,0.0585,0.3931,9.7986,-0.0044,-0.0136,0.0512
7490,47.262184,-1.557207,46.81,16.69,11.792,340.8,Sep-23,198791,2019-08-12 16:35:59:233,0.1624,0.458,10.8192,0.0585,0.3931,9.7986,-0.0044,-0.0136,0.0512
7491,47.262184,-1.557207,46.81,16.69,11.792,340.8,Sep-23,198791,2019-08-12 16:35:59:233,0.1624,0.458,10.8192,0.0585,0.3931,9.7986,-0.0044,-0.0136,0.0512
7492,47.262184,-1.557207,46.81,16.69,11.792,340.8,Sep-23,198792,2019-08-12 16:35:59:234,0.1624,0.458,10.8192,0.0585,0.3931,9.7986,-0.0044,-0.0136,0.0512
7493,47.262184,-1.557207,46.81,16.69,11.792,340.8,Sep-23,198792,2019-08-12 16:35:59:234,0.1624,0.458,10.8192,0.0585,0.3931,9.7986,-0.0044,-0.0136,0.0512
7494,47.262184,-1.557207,46.81,16.69,11.792,340.8,Sep-23,198793,2019-08-12 16:35:59:235,0.1624,0.458,10.8192,0.0585,0.3931,9.7986,-0.0044,-0.0136,0.0512
7495,47.262184,-1.557207,46.81,16.69,11.792,340.8,Sep-23,198793,2019-08-12 16:35:59:235,0.1624,0.458,10.8192,0.0585,0.3931,9.7986,-0.0044,-0.0136,0.0512
7496,47.262184,-1.557207,46.81,16.69,11.792,340.8,Sep-23,198793,2019-08-12 16:35:59:235,0.1624,0.458,10.8192,0.0585,0.3931,9.7986,-0.0044,-0.0136,0.0512
7497,47.262184,-1.557207,46.81,16.69,11.792,340.8,Sep-23,198794,2019-08-12 16:35:59:236,0.1624,0.458,10.8192,0.0585,0.3931,9.7986,-0.0044,-0.0136,0.0512
7498,47.262184,-1.557207,46.81,16.69,11.792,340.8,Sep-23,198794,2019-08-12 16:35:59:236,0.1624,0.458,10.8192,0.0585,0.3931,9.7986,-0.0044,-0.0136,0.0512
7499,47.262184,-1.557207,46.81,16.69,11.792,340.8,Sep-23,198794,2019-08-12 16:35:59:236,0.1624,0.458,10.8192,0.0585,0.3931,9.7986,-0.0044,-0.0136,0.0512
7500,47.262184,-1.557207,46.81,16.69,11.792,340.8,Sep-23,198796,2019-08-12 16:35:59:238,0.1624,0.458,10.8192,0.0585,0.3931,9.7986,-0.0044,-0.0136,0.0512
7501,47.262184,-1.557207,46.81,16.69,11.792,340.8,Sep-23,198797,2019-08-12 16:35:59:239,0.1624,0.458,10.8192,0.0585,0.3931,9.7986,-0.0044,-0.0136,0.0512
7502,47.262184,-1.557207,46.81,16.69,11.792,340.8,Sep-23,198798,2019-08-12 16:35:59:240,0.1624,0.458,10.8192,0.0585,0.3931,9.7986,-0.0044,-0.0136,0.0512
7503,47.262184,-1.557207,46.81,16.69,11.792,340.8,Sep-23,198798,2019-08-12 16:35:59:240,0.1624,0.458,10.8192,0.0585,0.3931,9.7986,-0.0044,-0.0136,0.0512
7504,47.262184,-1.557207,46.81,16.69,11.792,340.8,Sep-23,198798,2019-08-12 16:35:59:240,0.1624,0.458,10.8192,0.0585,0.3931,9.7986,-0.0044,-0.0136,0.0512
7505,47.262184,-1.557207,46.81,16.69,11.792,340.8,Sep-23,198799,2019-08-12 16:35:59:241,0.1624,0.458,10.8192,0.0585,0.3931,9.7986,-0.0044,-0.0136,0.0512
7506,47.262184,-1.557207,46.81,16.69,11.792,340.8,Sep-23,198799,2019-08-12 16:35:59:241,0.1624,0.458,10.8192,0.0585,0.3931,9.7986,-0.0044,-0.0136,0.0512
7507,47.262184,-1.557207,46.81,16.69,11.792,340.8,Sep-23,198800,2019-08-12 16:35:59:242,0.1624,0.458,10.8192,0.0585,0.3931,9.7986,-0.0044,-0.0136,0.0512
7508,47.262184,-1.557207,46.81,16.69,11.792,340.8,Sep-23,198800,2019-08-12 16:35:59:242,0.1624,0.458,10.8192,0.0585,0.3931,9.7986,-0.0044,-0.0136,0.0512
7509,47.262184,-1.557207,46.81,16.69,11.792,340.8,Sep-23,198800,2019-08-12 16:35:59:242,0.1624,0.458,10.8192,0.0585,0.3931,9.7986,-0.0044,-0.0136,0.0512
7510,47.262184,-1.557207,46.81,16.69,11.792,340.8,Sep-23,198801,2019-08-12 16:35:59:243,0.1624,0.458,10.8192,0.0585,0.3931,9.7986,-0.0044,-0.0136,0.0512
7511,47.262184,-1.557207,46.81,16.69,11.792,340.8,Sep-23,198801,2019-08-12 16:35:59:243,0.1624,0.458,10.8192,0.0585,0.3931,9.7986,-0.0044,-0.0136,0.0512
7512,47.262184,-1.557207,46.81,16.69,11.792,340.8,Sep-23,198802,2019-08-12 16:35:59:244,0.1624,0.458,10.8192,0.0585,0.3931,9.7986,-0.0044,-0.0136,0.0512
7513,47.262184,-1.557207,46.81,16.69,11.792,340.8,Sep-23,198802,2019-08-12 16:35:59:244,0.1624,0.458,10.8192,0.0585,0.3931,9.7986,-0.0044,-0.0136,0.0512
7514,47.262184,-1.557207,46.81,16.69,11.792,340.8,Sep-23,198802,2019-08-12 16:35:59:244,0.1624,0.458,10.8192,0.0585,0.3931,9.7986,-0.0044,-0.0136,0.0512
7515,47.262184,-1.557207,46.81,16.69,11.792,340.8,Sep-23,198803,2019-08-12 16:35:59:245,0.1624,0.458,10.8192,0.0585,0.3931,9.7986,-0.0044,-0.0136,0.0512
7516,47.262184,-1.557207,46.81,16.69,11.792,340.8,Sep-23,198803,2019-08-12 16:35:59:245,0.1624,0.458,10.8192,0.0585,0.3931,9.7986,-0.0044,-0.0136,0.0512
7517,47.262184,-1.557207,46.81,16.69,11.792,340.8,Sep-23,198803,2019-08-12 16:35:59:245,0.1624,0.458,10.8192,0.0585,0.3931,9.7986,-0.0044,-0.0136,0.0512
7518,47.262184,-1.557207,46.81,16.69,11.792,340.8,Sep-23,198804,2019-08-12 16:35:59:246,0.1624,0.458,10.8192,0.0585,0.3931,9.7986,-0.0044,-0.0136,0.0512
7519,47.262184,-1.557207,46.81,16.69,11.792,340.8,Sep-23,198804,2019-08-12 16:35:59:246,0.1624,0.458,10.8192,0.0585,0.3931,9.7986,-0.0044,-0.0136,0.0512
7520,47.262184,-1.557207,46.81,16.69,11.792,340.8,Sep-23,198804,2019-08-12 16:35:59:246,0.1624,0.458,10.8192,0.0585,0.3931,9.7986,-0.0044,-0.0136,0.0512
7521,47.262184,-1.557207,46.81,16.69,11.792,340.8,Sep-23,198896,2019-08-12 16:35:59:338,0.1624,0.458,10.8192,0.0585,0.3931,9.7986,-0.0044,-0.0136,0.0512
7522,47.262184,-1.557207,46.81,16.69,11.792,340.8,Sep-23,199224,2019-08-12 16:35:59:666,0.1624,0.458,10.8192,0.0585,0.3931,9.7986,-0.0044,-0.0136,0.0512
7523,47.262184,-1.557207,46.81,16.69,11.792,340.8,Sep-23,199224,2019-08-12 16:35:59:666,0.1624,0.458,10.8192,0.0585,0.3931,9.7986,-0.0044,-0.0136,0.0512
7524,47.262184,-1.557207,46.81,16.69,11.792,340.8,Sep-23,199225,2019-08-12 16:35:59:667,0.1624,0.458,10.8192,0.0585,0.3931,9.7986,-0.0044,-0.0136,0.0512
7525,47.262184,-1.557207,46.81,16.69,11.792,340.8,Sep-23,199225,2019-08-12 16:35:59:667,0.1624,0.458,10.8192,0.0585,0.3931,9.7986,-0.0044,-0.0136,0.0512
7526,47.262184,-1.557207,46.81,16.69,11.792,340.8,Sep-23,199226,2019-08-12 16:35:59:668,0.1624,0.458,10.8192,0.0585,0.3931,9.7986,-0.0044,-0.0136,0.0512
7527,47.262184,-1.557207,46.81,16.69,11.792,340.8,Sep-23,199226,2019-08-12 16:35:59:668,0.1624,0.458,10.8192,0.0585,0.3931,9.7986,-0.0044,-0.0136,0.0512
7528,47.262184,-1.557207,46.81,16.69,11.792,340.8,Sep-23,199227,2019-08-12 16:35:59:669,0.1624,0.458,10.8192,0.0585,0.3931,9.7986,-0.0044,-0.0136,0.0512
7529,47.262184,-1.557207,46.81,16.69,11.792,340.8,Sep-23,199227,2019-08-12 16:35:59:669,0.1624,0.458,10.8192,0.0585,0.3931,9.7986,-0.0044,-0.0136,0.0512
7530,47.264423,-1.558847,44.57,16.07,9.648001,334.6,Sep-23,199244,2019-08-12 16:35:59:686,0.1624,0.458,10.8192,0.0585,0.3931,9.7986,-0.0044,-0.0136,0.0512
7531,47.264423,-1.558847,44.57,16.07,9.648001,334.6,Sep-23,199344,2019-08-12 16:35:59:786,0.1624,0.458,10.8192,0.0585,0.3931,9.7986,-0.0044,-0.0136,0.0512
7532,47.264423,-1.558847,44.57,16.07,9.648001,334.6,Sep-23,199678,2019-08-12 16:36:00:120,0.1624,0.458,10.8192,0.0585,0.3931,9.7986,-0.0044,-0.0136,0.0512
7533,47.264423,-1.558847,44.57,16.07,9.648001,334.6,Sep-23,199678,2019-08-12 16:36:00:120,0.1624,0.458,10.8192,0.0585,0.3931,9.7986,-0.0044,-0.0136,0.0512
7534,47.264423,-1.558847,44.57,16.07,9.648001,334.6,Sep-23,199679,2019-08-12 16:36:00:121,0.1624,0.458,10.8192,0.0585,0.3931,9.7986,-0.0044,-0.0136,0.0512
7535,47.264423,-1.558847,44.57,16.07,9.648001,334.6,Sep-23,199679,2019-08-12 16:36:00:121,0.1624,0.458,10.8192,0.0585,0.3931,9.7986,-0.0044,-0.0136,0.0512
7536,47.264423,-1.558847,44.57,16.07,9.648001,334.6,Sep-23,199680,2019-08-12 16:36:00:122,0.1624,0.458,10.8192,0.0585,0.3931,9.7986,-0.0044,-0.0136,0.0512
7537,47.264423,-1.558847,44.57,16.07,9.648001,334.6,Sep-23,199680,2019-08-12 16:36:00:122,0.1624,0.458,10.8192,0.0585,0.3931,9.7986,-0.0044,-0.0136,0.0512
7538,47.264423,-1.558847,44.57,16.07,9.648001,334.6,Sep-23,199681,2019-08-12 16:36:00:123,0.1624,0.458,10.8192,0.0585,0.3931,9.7986,-0.0044,-0.0136,0.0512
7539,47.264423,-1.558847,44.57,16.07,9.648001,334.6,Sep-23,199681,2019-08-12 16:36:00:123,0.1624,0.458,10.8192,0.0585,0.3931,9.7986,-0.0044,-0.0136,0.0512
7540,47.264423,-1.558847,44.57,16.07,9.648001,334.6,Sep-23,199681,2019-08-12 16:36:00:123,0.1624,0.458,10.8192,0.0585,0.3931,9.7986,-0.0044,-0.0136,0.0512
7541,47.264423,-1.558847,44.57,16.07,9.648001,334.6,Sep-23,199682,2019-08-12 16:36:00:124,0.1624,0.458,10.8192,0.0585,0.3931,9.7986,-0.0044,-0.0136,0.0512
7542,47.264423,-1.558847,44.57,16.07,9.648001,334.6,Sep-23,199686,2019-08-12 16:36:00:128,0.1624,0.458,10.8192,0.0585,0.3931,9.7986,-0.0044,-0.0136,0.0512
7543,47.264423,-1.558847,44.57,16.07,9.648001,334.6,Sep-23,199687,2019-08-12 16:36:00:129,0.1624,0.458,10.8192,0.0585,0.3931,9.7986,-0.0044,-0.0136,0.0512
7544,47.264423,-1.558847,44.57,16.07,9.648001,334.6,Sep-23,199690,2019-08-12 16:36:00:132,0.1624,0.458,10.8192,0.0585,0.3931,9.7986,-0.0044,-0.0136,0.0512
7545,47.264423,-1.558847,44.57,16.07,9.648001,334.6,Sep-23,199691,2019-08-12 16:36:00:133,0.1624,0.458,10.8192,0.0585,0.3931,9.7986,-0.0044,-0.0136,0.0512
7546,47.264423,-1.558847,44.57,16.07,9.648001,334.6,Sep-23,199692,2019-08-12 16:36:00:134,0.1624,0.458,10.8192,0.0585,0.3931,9.7986,-0.0044,-0.0136,0.0512
7547,47.264423,-1.558847,44.57,16.07,9.648001,334.6,Sep-23,199692,2019-08-12 16:36:00:134,0.1624,0.458,10.8192,0.0585,0.3931,9.7986,-0.0044,-0.0136,0.0512
7548,47.264423,-1.558847,44.57,16.07,9.648001,334.6,Sep-23,199693,2019-08-12 16:36:00:135,0.1624,0.458,10.8192,0.0585,0.3931,9.7986,-0.0044,-0.0136,0.0512
7549,47.264423,-1.558847,44.57,16.07,9.648001,334.6,Sep-23,199693,2019-08-12 16:36:00:135,0.1624,0.458,10.8192,0.0585,0.3931,9.7986,-0.0044,-0.0136,0.0512
