,GPS LATITUDE (degrees), GPS LONGITUDE (degrees), GPS ALTITUDE (m), GPS SPEED (Kmh), GPS ACCURACY (m), GPS ORIENTATION (Â°),GPS SATELLITES IN RANGE, TIME SINCE START (ms), DATE (YYYY-MO-DD HH-MI-SS_SSS), ACCELEROMETER X (m/s²) , ACCELEROMETER Y (m/s²), ACCELEROMETER Z (m/s²), GRAVITY X (m/s²), GRAVITY Y (m/s²), GRAVITY Z (m/s²), GYROSCOPE Yaw (rad/s), GYROSCOPE Pitch (rad/s), GYROSCOPE Roll (rad/s), MAGNETIC FIELD X (Î¼T), MAGNETIC FIELD Y (Î¼T), MAGNETIC FIELD Z (Î¼T), ORIENTATION (Yaw) (Â°), ORIENTATION (Pitch) (Â°), ORIENTATION (Roll ) (Â°)
20440,52.42487,-1.443671,132.13,0.0,6,340.42,20 / 20,2520408,2019-09-04 20:48:32:521,-0.0265,0.1129,9.8946,-0.001,-0.0002,9.8065,0.0007,0.0022,-0.0093,0.88,-29.0,-16.19,336.46,-84.9,-16.19
20441,52.42487,-1.443671,132.13,0.0,6,340.42,20 / 20,2520508,2019-09-04 20:48:32:621,-0.0399,-0.0434,9.7569,-0.0001,-0.0011,9.8066,-0.0037,0.0023,0.0007,0.94,-29.0,-16.37,336.76,-84.89,-15.94
20442,52.42487,-1.443671,132.13,0.0,6,340.42,20 / 20,2520608,2019-09-04 20:48:32:721,-0.0073,0.0767,9.9675,0.0001,-0.0007,9.8066,0.0022,-0.0094,-0.0024,1.0,-29.44,-15.75,336.71,-84.89,-15.97
20443,52.42487,-1.443671,132.13,0.0,6,340.42,20 / 20,2520708,2019-09-04 20:48:32:821,0.0205,-0.0559,9.779,0.001,-0.0005,9.8066,-0.0006,0.0006,0.006,0.94,-29.25,-16.12,336.45,-84.89,-16.2
20444,52.42487,-1.443671,132.13,0.0,6,340.42,20 / 20,2520807,2019-09-04 20:48:32:920,-0.0096,-0.0462,9.8311,0.0013,-0.0012,9.8066,-0.0066,0.0023,0.0056,0.75,-29.87,-16.06,336.05,-84.87,-16.4
20445,52.42487,-1.443671,132.13,0.0,6,340.42,20 / 20,2520907,2019-09-04 20:48:33:020,0.0687,-0.0532,9.9307,0.0014,0.0007,9.8066,-0.0023,0.0064,0.0035,0.19,-29.56,-16.12,340.03,-84.85,-16.6
20446,52.42487,-1.443671,132.13,0.0,6,340.42,20 / 20,2521007,2019-09-04 20:48:33:120,-0.0278,-0.1275,9.773,0.0012,-0.0009,9.8066,-0.0003,0.0008,0.003,0.38,-29.06,-16.81,340.1,-84.84,-16.83
20447,52.42487,-1.443671,132.13,0.0,6,340.42,20 / 20,2521107,2019-09-04 20:48:33:220,0.0452,-0.0251,9.9479,0.0023,0.0004,9.8066,0.0027,-0.0069,-0.0002,0.63,-29.31,-16.44,335.2,-84.82,-17.2
20448,52.42487,-1.443671,132.13,0.0,6,340.42,20 / 20,2521208,2019-09-04 20:48:33:321,0.0237,-0.1907,9.795,0.0006,0.0005,9.8066,-0.0013,0.0008,-0.0007,0.13,-29.81,-16.56,339.42,-84.82,-17.29
20449,52.42487,-1.443671,132.13,0.0,6,340.42,20 / 20,2521307,2019-09-04 20:48:33:420,-0.058,-0.2053,9.8348,-0.0001,0.0005,9.8066,0.0032,0.0019,0.0024,0.13,-28.75,-16.12,339.29,-84.83,-17.32
20450,52.42487,-1.443671,132.13,0.0,6,340.42,20 / 20,2521407,2019-09-04 20:48:33:520,0.0936,-0.1305,9.9531,-0.0006,0.0003,9.8066,-0.0022,0.0006,-0.0027,0.25,-29.31,-16.75,339.49,-84.84,-17.34
20451,52.42487,-1.443671,132.13,0.0,6,340.42,20 / 20,2521508,2019-09-04 20:48:33:621,-0.0273,-0.2165,9.816,-0.0017,-0.001,9.8066,0.0028,0.0012,-0.0031,0.19,-29.0,-16.25,339.41,-84.85,-17.23
20452,52.42487,-1.443671,132.13,0.0,6,340.42,20 / 20,2521608,2019-09-04 20:48:33:721,0.014,0.0117,9.8606,-0.0015,0.0018,9.8066,0.0036,0.0059,-0.0021,1.0,-29.44,-16.56,336.01,-84.87,-16.99
20453,52.42487,-1.443671,132.13,0.0,6,340.42,20 / 20,2521707,2019-09-04 20:48:33:820,-0.0051,-0.223,9.7534,0.0009,-0.001,9.8065,-0.0019,0.0023,0.001,0.56,-29.5,-16.37,335.56,-84.87,-16.94
20454,52.42487,-1.443671,132.13,0.0,6,340.42,20 / 20,2521808,2019-09-04 20:48:33:921,0.0435,0.1033,10.0043,0.0003,0.0013,9.8066,0.0062,-0.0072,0.0053,0.94,-29.44,-16.69,335.96,-84.86,-17.02
20455,52.42487,-1.443671,132.13,0.0,6,340.42,20 / 20,2521908,2019-09-04 20:48:34:021,-0.0666,-0.1542,9.6883,-0.0014,0.0019,9.8066,-0.0026,0.0048,0.0024,1.0,-29.5,-16.25,335.43,-84.9,-17.07
20456,52.42487,-1.443671,132.13,0.0,6,340.42,20 / 20,2522008,2019-09-04 20:48:34:121,0.059,0.0122,9.912,0.0012,-0.0003,9.8066,-0.0024,0.0022,0.001,0.38,-29.94,-16.06,339.46,-84.89,-17.11
20457,52.42487,-1.443671,132.13,0.0,6,340.42,20 / 20,2522108,2019-09-04 20:48:34:221,0.016,-0.0684,9.9904,-0.0012,0.0006,9.8066,0.0014,0.0037,-0.0083,0.94,-29.44,-15.87,335.41,-84.88,-17.08
20458,52.42487,-1.443671,132.13,0.0,6,340.42,20 / 20,2522207,2019-09-04 20:48:34:320,0.0943,-0.1803,9.7886,-0.001,0.0005,9.8066,0.0015,0.0013,-0.0057,1.25,-30.06,-16.56,335.98,-84.9,-16.91
20459,52.42487,-1.443671,132.13,0.0,6,340.42,20 / 20,2522308,2019-09-04 20:48:34:421,0.0273,-0.0591,9.8875,-0.0016,-0.0014,9.8066,0.0038,-0.01,-0.0065,1.13,-29.25,-16.62,336.37,-84.91,-16.71
20460,52.42487,-1.443671,132.13,0.0,6,340.42,20 / 22,2522408,2019-09-04 20:48:34:521,-0.0496,-0.0682,9.9215,-0.0024,0.0005,9.8066,0.0011,-0.0024,-0.0053,1.13,-29.31,-16.37,336.34,-84.91,-16.31
20461,52.42487,-1.443671,132.13,0.0,6,340.42,20 / 22,2522507,2019-09-04 20:48:34:620,-0.0352,-0.096,9.7353,-0.0003,0.0005,9.8066,0.0045,-0.0103,-0.0031,0.88,-29.5,-16.5,336.41,-84.93,-16.27
20462,52.42487,-1.443671,132.13,0.0,6,340.42,20 / 22,2522608,2019-09-04 20:48:34:721,0.0004,-0.0505,9.8675,-0.0009,-0.0001,9.8066,0.0046,-0.0016,-0.0061,0.94,-29.19,-16.87,337.07,-84.95,-16.13
20463,52.42487,-1.443671,132.13,0.0,6,340.42,20 / 22,2522712,2019-09-04 20:48:34:825,0.0011,-0.1202,9.7815,0.0007,0.0002,9.8066,0.003,-0.0023,-0.0034,0.81,-29.44,-16.56,337.28,-84.97,-15.97
20464,52.42487,-1.443671,132.13,0.0,6,340.42,20 / 22,2522808,2019-09-04 20:48:34:921,0.0405,0.0358,9.9364,-0.0006,0.0014,9.8066,0.0017,-0.0013,0.0008,1.25,-29.44,-16.81,337.28,-84.97,-15.97
20465,52.42487,-1.443671,132.13,0.0,6,340.42,20 / 22,2522907,2019-09-04 20:48:35:020,0.007,-0.217,9.7283,-0.0001,-0.0001,9.8066,-0.0024,0.0041,0.0021,1.19,-29.87,-16.19,336.71,-84.99,-15.92
20466,52.42487,-1.443671,132.13,0.0,6,340.42,20 / 22,2523008,2019-09-04 20:48:35:121,-0.0004,-0.0115,9.8749,0.0011,0.0004,9.8066,0.0021,-0.0046,0.0005,1.0,-29.37,-16.75,337.33,-84.98,-15.93
20467,52.42487,-1.443671,132.13,0.0,6,340.42,20 / 22,2523108,2019-09-04 20:48:35:221,0.0851,-0.0584,9.8122,-0.0001,0.0011,9.8066,0.0023,-0.007,-0.0008,1.25,-28.56,-16.62,337.16,-84.99,-16.09
20468,52.42487,-1.443671,132.13,0.0,6,340.42,20 / 22,2523208,2019-09-04 20:48:35:321,0.0851,-0.0584,9.8122,-0.0001,0.0011,9.8066,0.0023,-0.007,-0.0008,1.25,-28.56,-16.62,337.16,-84.99,-16.09
20469,52.42487,-1.443671,132.13,0.0,6,340.42,20 / 21,2523307,2019-09-04 20:48:35:420,0.0377,0.0158,9.8901,-0.0001,-0.0004,9.8066,0.0032,0.0019,-0.0007,1.13,-29.31,-16.62,337.27,-84.99,-15.99
20470,52.42487,-1.443671,132.13,0.0,6,340.42,20 / 21,2523408,2019-09-04 20:48:35:521,0.0239,-0.2515,9.7412,0.0008,0.0014,9.8066,0.0055,-0.0011,-0.0025,1.0,-29.0,-17.0,337.17,-85.0,-16.09
20471,52.42487,-1.443671,132.13,0.0,6,340.42,20 / 21,2523508,2019-09-04 20:48:35:621,0.0206,-0.2144,9.9247,-0.0004,-0.0016,9.8066,0.0023,-0.0124,0.0011,1.44,-28.94,-16.31,336.61,-85.01,-16.15
20472,52.42487,-1.443671,132.13,0.0,6,340.42,20 / 21,2523607,2019-09-04 20:48:35:720,0.1405,-0.2297,9.8022,0.0,-0.0009,9.8066,0.0038,0.0026,0.0,1.38,-29.0,-17.25,337.12,-85.01,-16.13
20473,52.42487,-1.443671,132.13,0.0,6,340.42,20 / 21,2523708,2019-09-04 20:48:35:821,-0.0168,-0.3287,9.8968,0.0011,0.0015,9.8066,-0.0016,0.0036,0.0022,1.13,-28.5,-17.37,337.17,-85.01,-16.21
20474,52.42487,-1.443671,132.13,0.0,6,340.42,20 / 21,2523808,2019-09-04 20:48:35:921,0.0875,-0.2158,9.8869,0.0014,0.0019,9.8066,0.0035,0.008,0.0003,0.44,-28.69,-16.62,340.83,-84.99,-16.3
20475,52.42487,-1.443671,132.13,0.0,6,340.42,20 / 21,2523907,2019-09-04 20:48:36:020,0.085,-0.4209,9.8021,0.0004,0.0004,9.8066,-0.0023,-0.0033,0.0049,1.56,-29.62,-16.75,332.71,-85.0,-16.47
20476,52.42487,-1.443671,132.13,0.0,6,340.42,20 / 21,2524008,2019-09-04 20:48:36:121,0.0809,-0.2724,9.9296,0.0022,0.001,9.8066,0.0015,0.0009,-0.0025,0.63,-28.37,-16.25,336.12,-84.98,-16.67
20477,52.42487,-1.443671,132.13,0.0,6,340.42,20 / 21,2524107,2019-09-04 20:48:36:220,0.122,-0.2419,9.7944,0.0004,-0.0007,9.8066,0.0043,-0.0197,-0.0012,1.38,-29.06,-16.31,335.89,-84.97,-16.74
20478,52.42487,-1.443671,132.13,0.0,6,340.42,20 / 21,2524207,2019-09-04 20:48:36:320,0.0369,-0.4021,9.8442,0.0012,-0.0018,9.8066,0.0013,0.0021,-0.0052,0.88,-29.31,-16.69,336.46,-84.96,-16.66
20479,52.42487,-1.443671,132.13,0.0,6,340.42,20 / 21,2524308,2019-09-04 20:48:36:421,0.0466,-0.1968,9.9757,-0.0001,0.001,9.8066,-0.0009,0.0144,-0.0034,0.88,-28.87,-16.81,336.46,-84.97,-16.67
20480,52.42487,-1.443671,132.13,0.0,6,340.42,20 / 21,2524408,2019-09-04 20:48:36:521,0.1379,-0.2233,9.8828,0.0,-0.0008,9.8065,0.0006,-0.0051,-0.0017,0.81,-28.5,-16.25,336.21,-84.96,-16.59
20481,52.42487,-1.443671,132.13,0.0,6,340.42,20 / 21,2524507,2019-09-04 20:48:36:620,0.0403,-0.4005,9.7801,0.0003,-0.0004,9.8066,-0.0005,-0.0006,-0.0058,0.63,-29.06,-16.62,336.57,-84.95,-16.57
20482,52.42487,-1.443671,132.13,0.0,6,340.42,20 / 21,2524607,2019-09-04 20:48:36:720,-0.0135,-0.3157,9.8723,-0.0002,-0.0026,9.8066,0.0028,0.0119,-0.0048,0.75,-28.94,-16.31,336.33,-84.92,-16.33
20483,52.42487,-1.443671,132.13,0.0,6,340.42,20 / 21,2524707,2019-09-04 20:48:36:820,0.0405,-0.0433,10.0147,0.0024,-0.0005,9.8066,0.0023,0.0006,-0.0017,0.75,-28.56,-16.5,336.2,-84.92,-16.43
20484,52.42487,-1.443671,132.13,0.0,6,340.42,20 / 21,2524808,2019-09-04 20:48:36:921,0.0667,0.161,9.7736,-0.0009,0.0014,9.8066,0.0079,-0.0214,0.0,0.5,-29.12,-16.75,336.65,-84.92,-16.47
20485,52.42487,-1.443671,132.13,0.0,6,340.42,20 / 21,2524907,2019-09-04 20:48:37:020,-0.1232,0.1202,9.8298,-0.0015,0.0017,9.8066,0.0014,0.0002,0.0021,0.81,-28.75,-16.31,336.17,-84.95,-16.48
20486,52.42487,-1.443671,132.13,0.0,6,340.42,20 / 21,2525008,2019-09-04 20:48:37:121,0.0364,0.0128,9.8561,0.001,-0.0005,9.8065,-0.0036,-0.0023,0.0009,0.81,-29.25,-16.19,336.16,-84.95,-16.49
20487,52.42487,-1.443671,132.13,0.0,6,340.42,20 / 21,2525107,2019-09-04 20:48:37:220,0.1168,-0.0263,9.8803,0.0002,-0.002,9.8066,-0.0054,-0.0093,-0.0031,1.13,-28.69,-16.12,336.21,-84.93,-16.43
20488,52.42487,-1.443671,132.13,0.0,6,340.42,20 / 21,2525208,2019-09-04 20:48:37:321,0.0039,0.0323,9.8081,0.0003,0.0008,9.8066,0.0017,-0.0043,0.0001,0.44,-28.56,-17.06,340.59,-84.94,-16.47
20489,52.42487,-1.443671,132.13,0.0,6,340.42,20 / 21,2525308,2019-09-04 20:48:37:421,-0.121,-0.0295,9.836,0.0001,0.0008,9.8066,-0.0003,0.0045,-0.0007,1.0,-29.31,-16.56,336.68,-84.95,-16.46
20490,52.42487,-1.443671,132.13,0.0,6,340.42,22 / 22,2525408,2019-09-04 20:48:37:521,-0.0604,-0.0919,9.864,0.0001,-0.0003,9.8065,-0.0005,0.0049,-0.0024,0.88,-29.12,-16.69,336.8,-84.95,-16.37
20491,52.42487,-1.443671,132.13,0.0,6,340.42,22 / 22,2525507,2019-09-04 20:48:37:620,0.1709,0.0262,9.9137,0.0009,0.001,9.8066,-0.0068,0.01,-0.0004,0.81,-28.69,-16.69,336.74,-84.95,-16.41
20492,52.42487,-1.443671,132.13,0.0,6,340.42,22 / 22,2525608,2019-09-04 20:48:37:721,0.1535,0.1393,9.8407,-0.0009,0.0002,9.8066,-0.0026,0.0221,-0.007,1.0,-28.87,-16.12,336.34,-84.94,-16.33
20493,52.42487,-1.443671,132.13,0.0,6,340.42,22 / 22,2525707,2019-09-04 20:48:37:820,-0.0312,-0.0671,9.8296,-0.0008,-0.0002,9.8066,0.0021,-0.0076,-0.003,0.94,-28.87,-16.87,337.12,-84.94,-16.09
20494,52.42487,-1.443671,132.13,0.0,6,340.42,22 / 22,2525808,2019-09-04 20:48:37:921,-0.1355,-0.1196,9.8177,0.0006,0.0004,9.8066,0.0038,-0.0038,0.0024,0.63,-28.87,-16.87,337.14,-84.94,-16.06
20495,52.42487,-1.443671,132.13,0.0,6,340.42,22 / 22,2525908,2019-09-04 20:48:38:021,-0.1002,-0.0745,9.8567,-0.001,-0.0007,9.8066,-0.0006,-0.0017,-0.0003,0.38,-29.25,-16.12,340.88,-84.94,-16.05
20496,52.42487,-1.443671,132.13,0.0,6,340.42,22 / 22,2526008,2019-09-04 20:48:38:121,0.1187,0.0817,9.9477,-0.0001,0.0002,9.8066,-0.0024,-0.0155,-0.0025,0.81,-28.69,-16.25,336.69,-84.94,-16.03
20497,52.42487,-1.443671,132.13,0.0,6,340.42,22 / 22,2526107,2019-09-04 20:48:38:220,0.1422,0.079,9.8527,0.0021,0.0012,9.8066,0.0009,0.0002,-0.0008,0.56,-28.75,-16.56,337.0,-84.94,-16.19
20498,52.42487,-1.443671,132.13,0.0,6,340.42,22 / 22,2526208,2019-09-04 20:48:38:321,0.1457,0.1147,9.8461,0.0,0.0006,9.8066,0.0022,-0.0096,0.0005,0.88,-29.19,-16.69,336.99,-84.93,-16.19
20499,52.42487,-1.443671,132.13,0.0,6,340.42,22 / 22,2526307,2019-09-04 20:48:38:420,-0.1147,-0.0781,9.7506,-0.0003,-0.0007,9.8066,-0.0006,0.0008,-0.001,1.25,-29.25,-16.69,336.98,-84.93,-16.2
20500,52.42487,-1.443671,132.13,0.0,6,340.42,22 / 22,2526407,2019-09-04 20:48:38:520,-0.0406,-0.0261,9.8727,0.0003,-0.0002,9.8066,0.0014,-0.0011,-0.0024,0.88,-29.5,-16.37,336.54,-84.93,-16.15
20501,52.42487,-1.443671,132.13,0.0,6,340.42,22 / 22,2526508,2019-09-04 20:48:38:621,-0.0123,-0.0036,9.8506,-0.0001,0.0001,9.8066,0.0004,0.0013,-0.0048,1.19,-29.37,-16.19,336.58,-84.94,-16.13
20502,52.42487,-1.443671,132.13,0.0,6,340.42,22 / 22,2526607,2019-09-04 20:48:38:720,0.1638,0.0742,9.8437,-0.0002,0.0001,9.8066,0.0009,-0.0012,0.0,1.06,-28.69,-16.25,336.56,-84.93,-16.14
20503,52.42487,-1.443671,132.13,0.0,6,340.42,22 / 22,2526707,2019-09-04 20:48:38:820,-0.0003,-0.0264,9.8162,0.0003,-0.0005,9.8066,0.0021,-0.0017,-0.0005,0.81,-28.94,-16.69,337.11,-84.93,-16.09
20504,52.42487,-1.443671,132.13,0.0,6,340.42,22 / 22,2526808,2019-09-04 20:48:38:921,-0.0515,-0.0553,9.8248,0.0003,0.0002,9.8065,-0.0009,0.0155,0.0016,0.75,-28.75,-16.75,337.06,-84.94,-16.14
20505,52.42487,-1.443671,132.13,0.0,6,340.42,22 / 22,2526908,2019-09-04 20:48:39:021,-0.0648,-0.0682,9.8341,0.0,0.0001,9.8066,-0.001,0.0,-0.0019,0.63,-28.75,-16.94,336.93,-84.94,-16.25
20506,52.42487,-1.443671,132.13,0.0,6,340.42,22 / 22,2527008,2019-09-04 20:48:39:121,0.1309,0.0579,9.8697,-0.0004,-0.0002,9.8066,-0.0013,0.0003,-0.0014,1.0,-29.37,-16.31,336.46,-84.93,-16.22
20507,52.42487,-1.443671,132.13,0.0,6,340.42,22 / 22,2527108,2019-09-04 20:48:39:221,0.1611,0.1019,9.8416,-0.0005,-0.0017,9.8066,-0.0012,0.0041,-0.0005,0.94,-28.44,-16.19,336.71,-84.93,-16.13
20508,52.42487,-1.443671,132.13,0.0,6,340.42,22 / 22,2527207,2019-09-04 20:48:39:320,-0.0268,-0.0608,9.8342,0.0001,-0.0011,9.8066,-0.0014,0.0042,0.0003,0.69,-28.62,-16.69,337.04,-84.93,-16.14
20509,52.42487,-1.443671,132.13,0.0,6,340.42,22 / 22,2527307,2019-09-04 20:48:39:420,-0.0513,-0.0301,9.8405,0.0003,-0.0005,9.8066,-0.0032,0.0039,0.0023,0.25,-28.62,-16.5,340.77,-84.92,-16.13
20510,52.42487,-1.443671,132.13,0.0,6,340.42,20 / 22,2527408,2019-09-04 20:48:39:521,0.0699,0.0651,9.8825,-0.001,-0.0003,9.8066,-0.0026,0.0042,-0.0013,0.69,-29.44,-16.94,337.14,-84.91,-16.04
20511,52.42487,-1.443671,132.13,0.0,6,340.42,20 / 22,2527507,2019-09-04 20:48:39:620,0.1047,0.024,9.8557,0.0002,-0.0011,9.8066,0.0017,-0.0052,-0.0005,1.06,-28.75,-16.37,336.68,-84.9,-16.01
20512,52.42487,-1.443671,132.13,0.0,6,340.42,20 / 22,2527607,2019-09-04 20:48:39:720,-0.1278,-0.0765,9.8556,-0.0015,0.0002,9.8066,-0.0021,-0.0031,0.001,0.38,-28.56,-16.5,341.01,-84.92,-15.93
20513,52.42487,-1.443671,132.13,0.0,6,340.42,20 / 22,2527708,2019-09-04 20:48:39:821,-0.075,-0.0402,9.8623,0.0003,-0.0007,9.8065,-0.0004,0.0042,-0.0008,0.88,-28.94,-16.56,337.39,-84.9,-15.83
20514,52.42487,-1.443671,132.13,0.0,6,340.42,20 / 22,2527808,2019-09-04 20:48:39:921,0.1343,0.0531,9.8283,-0.0004,-0.0009,9.8066,-0.0005,-0.0023,0.0002,0.56,-29.06,-16.81,337.37,-84.9,-15.84
20515,52.42487,-1.443671,132.13,0.0,6,340.42,20 / 22,2527908,2019-09-04 20:48:40:021,0.0252,-0.0026,9.8686,0.0004,0.0015,9.8066,0.0026,-0.0056,0.0007,0.69,-29.25,-16.25,336.88,-84.9,-15.84
20516,52.42487,-1.443671,132.13,0.0,6,340.42,20 / 22,2528007,2019-09-04 20:48:40:120,-0.0885,-0.0707,9.8417,0.0003,-0.0002,9.8066,-0.0017,0.0027,0.0002,1.19,-29.12,-16.81,337.15,-84.9,-16.03
20517,52.42487,-1.443671,132.13,0.0,6,340.42,20 / 22,2528107,2019-09-04 20:48:40:220,-0.0401,-0.0736,9.8822,-0.0006,-0.0003,9.8066,-0.002,0.0263,0.0016,0.31,-28.94,-16.31,340.99,-84.9,-15.93
20518,52.42487,-1.443671,132.13,0.0,6,340.42,20 / 22,2528208,2019-09-04 20:48:40:321,0.1738,0.0862,9.896,0.0004,0.0002,9.8066,-0.0015,0.0057,0.0031,0.44,-29.0,-16.75,341.09,-84.88,-16.01
20519,52.42487,-1.443671,132.13,0.0,6,340.42,20 / 22,2528308,2019-09-04 20:48:40:421,0.0102,0.0094,9.8275,-0.0001,-0.0015,9.8066,-0.0006,0.0022,0.0002,0.63,-29.19,-16.75,337.14,-84.87,-16.02
20520,52.42487,-1.443671,132.13,0.0,6,340.42,21 / 21,2528408,2019-09-04 20:48:40:521,-0.0477,-0.0558,9.8322,-0.0003,-0.0009,9.8066,0.0,-0.0032,0.0022,0.63,-29.0,-16.31,336.65,-84.87,-16.01
20521,52.42487,-1.443671,132.13,0.0,6,340.42,21 / 21,2528508,2019-09-04 20:48:40:621,-0.0881,-0.0337,9.8394,-0.0005,-0.0007,9.8066,-0.0017,0.001,0.0007,0.25,-29.31,-16.75,341.17,-84.86,-15.93
20522,52.42487,-1.443671,132.13,0.0,6,340.42,21 / 21,2528607,2019-09-04 20:48:40:720,0.1386,0.1069,9.9006,0.0,-0.0007,9.8066,-0.0003,-0.0002,0.0013,0.88,-28.87,-16.87,337.19,-84.86,-15.97
20523,52.42487,-1.443671,132.13,0.0,6,340.42,21 / 21,2528708,2019-09-04 20:48:40:821,0.1497,0.0691,9.8646,0.0008,-0.0007,9.8066,0.0008,-0.0019,0.0008,1.06,-29.0,-17.19,337.11,-84.85,-16.03
20524,52.42487,-1.443671,132.13,0.0,6,340.42,21 / 21,2528807,2019-09-04 20:48:40:920,0.0103,-0.0032,9.8098,0.0,0.0001,9.8066,-0.0002,0.002,0.0013,0.88,-29.37,-16.94,337.28,-84.86,-15.89
20525,52.42487,-1.443671,132.13,0.0,6,340.42,21 / 21,2528908,2019-09-04 20:48:41:021,-0.0005,-0.0118,9.7943,-0.0003,-0.0004,9.8066,-0.0024,0.0068,0.0006,0.88,-29.44,-16.81,337.27,-84.85,-15.89
20526,52.42487,-1.443671,132.13,0.0,6,340.42,21 / 21,2529008,2019-09-04 20:48:41:121,-0.1187,-0.0975,9.831,0.0006,0.001,9.8066,-0.0015,-0.0017,0.0026,1.13,-28.12,-16.75,337.55,-84.84,-15.77
20527,52.42487,-1.443671,132.13,0.0,6,340.42,21 / 21,2529108,2019-09-04 20:48:41:221,0.137,0.0569,9.9023,-0.0009,-0.0005,9.8066,-0.0005,-0.0001,-0.0021,0.5,-28.62,-17.12,337.35,-84.84,-15.82
20528,52.42487,-1.443671,132.13,0.0,6,340.42,21 / 21,2529208,2019-09-04 20:48:41:321,0.1216,0.0773,9.8392,0.0002,-0.0014,9.8066,0.0001,0.0022,-0.0014,0.94,-29.0,-17.06,337.41,-84.83,-15.76
20529,52.42487,-1.443671,132.13,0.0,6,340.42,21 / 21,2529307,2019-09-04 20:48:41:420,0.1238,0.0886,9.8334,0.0002,-0.0003,9.8066,0.0089,-0.0109,-0.0016,0.88,-28.94,-16.44,336.93,-84.83,-15.74
20530,52.42487,-1.443671,132.13,0.0,6,340.42,20 / 21,2529407,2019-09-04 20:48:41:520,0.1347,0.0521,9.8256,0.0003,-0.0002,9.8066,-0.0042,0.0039,-0.0039,0.44,-29.31,-17.12,341.3,-84.84,-15.81
20531,52.42487,-1.443671,132.13,0.0,6,340.42,20 / 21,2529508,2019-09-04 20:48:41:621,-0.0334,-0.0866,9.8343,0.0002,-0.0006,9.8066,0.0016,-0.0001,-0.0015,0.5,-29.0,-16.37,336.9,-84.83,-15.77
20532,52.42487,-1.443671,132.13,0.0,6,340.42,20 / 21,2529608,2019-09-04 20:48:41:721,-0.093,-0.0844,9.8523,0.0,-0.0001,9.8066,0.0,0.0051,-0.0005,0.94,-29.0,-16.12,336.92,-84.83,-15.75
20533,52.42487,-1.443671,132.13,0.0,6,340.42,20 / 21,2529708,2019-09-04 20:48:41:821,0.1054,0.0599,9.8544,0.0004,0.0006,9.8066,-0.0013,0.002,0.0011,1.25,-29.0,-16.25,336.95,-84.82,-15.72
20534,52.42487,-1.443671,132.13,0.0,6,340.42,20 / 21,2529807,2019-09-04 20:48:41:920,-0.0309,-0.0206,9.8259,-0.0005,0.0001,9.8066,0.0004,-0.0085,0.0018,1.06,-28.44,-16.5,336.99,-84.83,-15.82
20535,52.42487,-1.443671,132.13,0.0,6,340.42,20 / 21,2529907,2019-09-04 20:48:42:020,-0.058,-0.0793,9.8353,0.001,-0.0005,9.8066,-0.0006,-0.0014,-0.0006,0.56,-28.69,-16.5,336.76,-84.82,-15.89
20536,52.42487,-1.443671,132.13,0.0,6,340.42,20 / 21,2530010,2019-09-04 20:48:42:123,0.0561,0.0437,9.8962,-0.0007,-0.0022,9.8066,0.0013,-0.0001,-0.0021,0.81,-28.94,-16.94,337.14,-84.82,-15.98
20537,52.42487,-1.443671,132.13,0.0,6,340.42,20 / 21,2530107,2019-09-04 20:48:42:220,0.1199,0.0318,9.8227,0.0009,0.0001,9.8066,-0.0027,-0.0001,0.0028,1.06,-29.12,-16.5,336.7,-84.81,-15.92
20538,52.42487,-1.443671,132.13,0.0,6,340.42,20 / 21,2530208,2019-09-04 20:48:42:321,0.009,-0.0162,9.8231,0.0006,-0.0012,9.8066,-0.0001,0.0006,0.0005,0.56,-28.87,-16.56,337.14,-84.79,-15.96
20539,52.42487,-1.443671,132.13,0.0,6,340.42,20 / 21,2530308,2019-09-04 20:48:42:421,-0.0542,-0.024,9.8487,0.0001,-0.0004,9.8066,-0.0017,-0.0002,0.0034,0.88,-28.5,-16.81,337.28,-84.79,-15.96
20540,52.42487,-1.443671,132.13,0.0,6,340.42,21 / 22,2530408,2019-09-04 20:48:42:521,0.1273,0.0593,9.8465,0.0001,-0.0013,9.8066,-0.0015,0.0019,0.0006,1.06,-29.19,-16.75,337.02,-84.78,-16.06
20541,52.42487,-1.443671,132.13,0.0,6,340.42,21 / 22,2530507,2019-09-04 20:48:42:620,0.1174,0.0562,9.8418,-0.0001,-0.0002,9.8066,-0.0033,0.005,0.0035,0.81,-28.75,-16.81,337.04,-84.77,-16.03
20542,52.42487,-1.443671,132.13,0.0,6,340.42,21 / 22,2530608,2019-09-04 20:48:42:721,-0.0668,-0.075,9.8555,0.0001,-0.0003,9.8066,-0.0001,0.0068,0.0022,0.75,-28.25,-16.75,337.25,-84.76,-15.96
20543,52.42487,-1.443671,132.13,0.0,6,340.42,21 / 22,2530708,2019-09-04 20:48:42:821,0.0493,0.0646,9.8409,0.0008,-0.001,9.8066,-0.0005,-0.0026,0.0,1.06,-28.56,-17.44,337.09,-84.75,-15.98
20544,52.42487,-1.443671,132.13,0.0,6,340.42,21 / 22,2530808,2019-09-04 20:48:42:921,0.1341,0.0683,9.8077,0.0,0.0001,9.8066,0.0036,-0.0054,0.0028,0.94,-29.06,-17.0,337.01,-84.76,-16.05
20545,52.42487,-1.443671,132.13,0.0,6,340.42,21 / 22,2530907,2019-09-04 20:48:43:020,-0.0252,-0.0551,9.8465,0.0009,0.0008,9.8066,-0.0003,-0.0031,0.0001,1.44,-28.75,-16.56,336.85,-84.76,-16.19
20546,52.42487,-1.443671,132.13,0.0,6,340.42,21 / 22,2531007,2019-09-04 20:48:43:120,0.0404,0.0357,9.8451,0.0001,0.0002,9.8066,0.0001,0.0035,-0.0008,0.5,-29.06,-17.31,336.76,-84.76,-16.27
20547,52.42487,-1.443671,132.13,0.0,6,340.42,21 / 22,2531108,2019-09-04 20:48:43:221,0.1185,0.0698,9.8211,0.0007,-0.0004,9.8066,0.0038,-0.0003,0.0002,1.13,-28.12,-16.87,336.95,-84.75,-16.22
20548,52.42487,-1.443671,132.13,0.0,6,340.42,21 / 22,2531208,2019-09-04 20:48:43:321,-0.026,-0.0429,9.8503,0.0009,0.0001,9.8066,-0.0017,0.002,-0.0015,1.69,-28.19,-17.0,333.07,-84.76,-16.24
20549,52.42487,-1.443671,132.13,0.0,6,340.42,21 / 22,2531308,2019-09-04 20:48:43:421,0.047,0.0321,9.8525,0.0002,-0.001,9.8066,-0.0031,0.0035,0.0002,1.81,-27.81,-16.81,333.04,-84.75,-16.26
20550,52.42487,-1.443671,132.13,0.0,6,340.42,19 / 20,2531407,2019-09-04 20:48:43:520,0.097,0.1153,9.8128,0.0002,0.0004,9.8066,0.0006,-0.0027,-0.0005,2.31,-27.62,-15.31,331.44,-84.74,-16.21
20551,52.42487,-1.443671,132.13,0.0,6,340.42,19 / 20,2531507,2019-09-04 20:48:43:620,-0.0424,-0.0672,9.8274,0.0,-0.0003,9.8066,-0.0026,0.0027,0.0013,1.44,-27.31,-15.44,336.06,-84.74,-16.2
20552,52.42487,-1.443671,132.13,0.0,6,340.42,19 / 20,2531608,2019-09-04 20:48:43:721,0.0427,0.0466,9.8241,-0.0008,0.0003,9.8066,-0.0003,0.002,0.002,-0.19,-27.75,-15.31,340.43,-84.74,-16.21
20553,52.42487,-1.443671,132.13,0.0,6,340.42,19 / 20,2531707,2019-09-04 20:48:43:820,0.1014,0.0824,9.8426,-0.0003,0.0,9.8066,-0.0002,-0.0007,-0.0017,0.0,-27.69,-15.94,340.72,-84.74,-16.17
20554,52.42487,-1.443671,132.13,0.0,6,340.42,19 / 20,2531808,2019-09-04 20:48:43:921,-0.0345,-0.0338,9.7982,-0.0009,0.0,9.8066,-0.004,0.0024,-0.0026,-0.75,-27.75,-17.56,344.78,-84.74,-16.2
20555,52.42487,-1.443671,132.13,0.0,6,340.42,19 / 20,2531908,2019-09-04 20:48:44:021,0.0553,0.0399,9.8613,-0.0015,-0.0009,9.8066,-0.0042,0.0002,0.0017,-0.19,-28.31,-16.81,341.14,-84.74,-15.99
20556,52.42487,-1.443671,132.13,0.0,6,340.42,19 / 20,2532007,2019-09-04 20:48:44:120,0.035,-0.001,9.8102,-0.0001,0.0005,9.8066,-0.0004,-0.0011,-0.0016,0.94,-28.75,-16.87,337.18,-84.73,-15.88
20557,52.42487,-1.443671,132.13,0.0,6,340.42,19 / 20,2532107,2019-09-04 20:48:44:220,-0.0493,-0.0092,9.822,0.0002,-0.0013,9.8066,0.0036,-0.0024,0.0011,0.81,-28.87,-16.87,337.25,-84.72,-15.82
20558,52.42487,-1.443671,132.13,0.0,6,340.42,19 / 20,2532208,2019-09-04 20:48:44:321,0.035,0.0476,9.8651,0.0015,0.0003,9.8066,0.0025,0.0005,-0.0016,0.31,-28.5,-16.75,341.32,-84.72,-15.83
20559,52.42487,-1.443671,132.13,0.0,6,340.42,19 / 20,2532308,2019-09-04 20:48:44:421,0.0591,0.0292,9.8044,0.0005,0.0,9.8066,-0.0011,0.0045,0.0016,0.44,-28.5,-16.62,341.15,-84.72,-15.97
20560,52.42487,-1.443671,132.13,0.0,6,340.42,19 / 20,2532407,2019-09-04 20:48:44:520,-0.0263,-0.0068,9.8327,-0.001,-0.0005,9.8066,0.0018,0.0008,-0.0002,0.94,-28.94,-16.69,337.15,-84.72,-15.9
20561,52.42487,-1.443671,132.13,0.0,6,340.42,19 / 20,2532508,2019-09-04 20:48:44:621,-0.0802,-0.0195,9.8571,-0.0005,0.0005,9.8066,0.0008,0.0,0.0001,1.13,-28.87,-16.81,337.18,-84.72,-15.88
20562,52.42487,-1.443671,132.13,0.0,6,340.42,19 / 20,2532607,2019-09-04 20:48:44:720,0.1313,0.0847,9.8532,0.001,0.0005,9.8066,0.0017,-0.0016,-0.0008,0.63,-29.12,-16.5,336.65,-84.72,-15.9
20563,52.42487,-1.443671,132.13,0.0,6,340.42,19 / 20,2532708,2019-09-04 20:48:44:821,0.086,0.0373,9.8327,0.0005,0.0007,9.8066,0.0021,-0.0093,0.0019,0.5,-28.44,-16.75,337.14,-84.73,-16.04
20564,52.42487,-1.443671,132.13,0.0,6,340.42,19 / 20,2532808,2019-09-04 20:48:44:921,-0.1051,-0.0786,9.8458,-0.001,-0.0003,9.8066,-0.0005,0.0019,-0.0039,0.56,-29.12,-16.37,336.42,-84.73,-16.1
20565,52.42487,-1.443671,132.13,0.0,6,340.42,19 / 20,2532908,2019-09-04 20:48:45:021,-0.0191,0.0263,9.8679,0.0013,-0.0007,9.8066,0.0013,0.0009,0.0009,0.69,-28.56,-16.31,336.49,-84.72,-16.04
20566,52.42487,-1.443671,132.13,0.0,6,340.42,19 / 20,2533007,2019-09-04 20:48:45:120,0.0804,0.0564,9.8134,0.0002,-0.0007,9.8066,0.0019,0.0,0.002,0.81,-28.94,-16.94,336.88,-84.72,-16.13
20567,52.42487,-1.443671,132.13,0.0,6,340.42,19 / 20,2533108,2019-09-04 20:48:45:221,-0.1027,-0.0613,9.8857,0.0002,0.0011,9.8066,0.0011,0.0029,0.0003,0.5,-28.87,-17.12,336.8,-84.73,-16.21
20568,52.42487,-1.443671,132.13,0.0,6,340.42,19 / 20,2533208,2019-09-04 20:48:45:321,-0.0315,-0.0011,9.9043,0.0,-0.0005,9.8066,0.0002,0.0196,0.0021,1.06,-28.81,-16.56,336.75,-84.73,-16.25
20569,52.42487,-1.443671,132.13,0.0,6,340.42,19 / 20,2533310,2019-09-04 20:48:45:423,0.0926,0.0513,9.8214,-0.0001,-0.0006,9.8066,-0.0002,-0.0007,0.0012,0.94,-28.62,-17.06,336.76,-84.73,-16.24
20570,52.42487,-1.443671,132.13,0.0,6,340.42,19 / 21,2533408,2019-09-04 20:48:45:521,-0.0972,-0.0758,9.8792,0.0003,-0.0006,9.8066,-0.0015,0.0041,-0.0012,0.81,-28.75,-16.12,336.19,-84.73,-16.3
20571,52.42487,-1.443671,132.13,0.0,6,340.42,19 / 21,2533507,2019-09-04 20:48:45:620,-0.0008,0.0554,9.901,0.001,0.0004,9.8066,0.0008,0.0023,0.0004,1.06,-28.69,-16.81,336.63,-84.72,-16.35
20572,52.42487,-1.443671,132.13,0.0,6,340.42,19 / 21,2533608,2019-09-04 20:48:45:721,0.0613,0.0457,9.789,0.0008,0.0005,9.8066,0.0019,0.0021,-0.0023,0.69,-29.19,-17.06,336.49,-84.72,-16.47
20573,52.42487,-1.443671,132.13,0.0,6,340.42,19 / 21,2533707,2019-09-04 20:48:45:820,-0.0866,-0.0423,9.866,-0.0003,-0.0007,9.8066,0.0,0.0002,0.0037,1.25,-29.0,-16.69,336.59,-84.72,-16.38
20574,52.42487,-1.443671,132.13,0.0,6,340.42,19 / 21,2533808,2019-09-04 20:48:45:921,0.025,0.0511,9.91,-0.0017,-0.0012,9.8066,-0.0009,-0.0018,-0.002,0.56,-29.12,-16.31,336.03,-84.73,-16.42
20575,52.42487,-1.443671,132.13,0.0,6,340.42,19 / 21,2533908,2019-09-04 20:48:46:021,-0.0024,0.0076,9.7968,0.0004,0.0,9.8066,-0.0039,-0.0001,-0.0023,0.81,-29.06,-16.62,336.37,-84.73,-16.58
20576,52.42487,-1.443671,132.13,0.0,6,340.42,19 / 21,2534008,2019-09-04 20:48:46:121,-0.0716,-0.0165,9.8404,-0.0008,0.0005,9.8066,0.0,0.0014,-0.0042,0.81,-29.12,-16.56,336.39,-84.73,-16.56
20577,52.42487,-1.443671,132.13,0.0,6,340.42,19 / 21,2534107,2019-09-04 20:48:46:220,0.0707,0.0244,9.83,0.0005,0.0002,9.8066,-0.0025,0.005,-0.0001,0.94,-28.75,-16.44,335.92,-84.74,-16.53
20578,52.42487,-1.443671,132.13,0.0,6,340.42,19 / 21,2534208,2019-09-04 20:48:46:321,-0.0149,-0.0372,9.8563,0.0,-0.001,9.8066,-0.0005,-0.0008,0.0005,0.63,-29.06,-16.56,336.5,-84.73,-16.47
20579,52.42487,-1.443671,132.13,0.0,6,340.42,19 / 21,2534308,2019-09-04 20:48:46:421,-0.0362,0.0012,9.8614,-0.0003,0.0006,9.8066,-0.0006,0.0023,-0.0013,1.13,-28.75,-16.44,336.03,-84.74,-16.44
20580,52.42487,-1.443671,132.13,0.0,6,340.42,19 / 20,2534408,2019-09-04 20:48:46:521,0.064,0.1017,9.8752,0.0001,0.0006,9.8066,-0.0022,0.005,-0.0035,1.0,-29.12,-16.44,335.97,-84.75,-16.49
20581,52.42487,-1.443671,132.13,0.0,6,340.42,19 / 20,2534507,2019-09-04 20:48:46:620,-0.0289,-0.0294,9.8222,0.0003,0.0,9.8066,0.0016,-0.0083,-0.0021,0.75,-29.19,-16.56,336.53,-84.75,-16.45
20582,52.42487,-1.443671,132.13,0.0,6,340.42,19 / 20,2534608,2019-09-04 20:48:46:721,-0.0365,-0.016,9.8757,-0.0005,0.0,9.8066,-0.0009,-0.0048,0.0012,0.75,-28.62,-16.94,336.52,-84.75,-16.46
20583,52.42487,-1.443671,132.13,0.0,6,340.42,19 / 20,2534708,2019-09-04 20:48:46:821,0.0733,0.099,9.8852,-0.0001,-0.0002,9.8066,0.0001,-0.0029,0.0003,1.0,-28.62,-16.69,336.54,-84.75,-16.45
20584,52.42487,-1.443671,132.13,0.0,6,340.42,19 / 20,2534808,2019-09-04 20:48:46:921,-0.0133,-0.0077,9.785,-0.0002,0.0004,9.8066,-0.0001,0.0027,0.0,0.31,-29.19,-16.94,340.47,-84.75,-16.46
20585,52.42487,-1.443671,132.13,0.0,6,340.42,19 / 20,2534907,2019-09-04 20:48:47:020,-0.046,-0.0092,9.8631,-0.0002,-0.0001,9.8066,0.0032,-0.0012,0.0019,0.81,-28.94,-16.44,336.07,-84.76,-16.41
20586,52.42487,-1.443671,132.13,0.0,6,340.42,19 / 20,2535008,2019-09-04 20:48:47:121,0.063,0.0953,9.9114,-0.0002,0.0004,9.8066,-0.0007,-0.002,-0.002,1.06,-29.31,-16.31,336.03,-84.76,-16.45
20587,52.42487,-1.443671,132.13,0.0,6,340.42,19 / 20,2535108,2019-09-04 20:48:47:221,0.0291,0.0107,9.7801,0.0009,0.0009,9.8066,-0.0032,0.0006,-0.0023,0.63,-28.87,-16.37,335.89,-84.76,-16.57
20588,52.42487,-1.443671,132.13,0.0,6,340.42,19 / 20,2535208,2019-09-04 20:48:47:321,-0.0802,-0.0797,9.8641,0.0008,-0.0001,9.8066,0.0018,-0.0035,0.0016,1.0,-29.19,-16.75,336.54,-84.76,-16.45
20589,52.42487,-1.443671,132.13,0.0,6,340.42,19 / 20,2535308,2019-09-04 20:48:47:421,0.0989,0.0816,9.9005,-0.0002,0.0003,9.8066,0.0,0.0068,0.001,0.69,-28.56,-17.19,336.4,-84.76,-16.57
20590,52.42487,-1.443671,132.13,0.0,6,340.42,19 / 20,2535408,2019-09-04 20:48:47:521,0.0264,0.0204,9.8104,-0.0008,0.0002,9.8066,-0.0006,0.0015,-0.0046,1.44,-28.75,-16.37,335.96,-84.76,-16.51
20591,52.42487,-1.443671,132.13,0.0,6,340.42,19 / 20,2535507,2019-09-04 20:48:47:620,-0.0881,-0.0535,9.871,0.0009,0.0,9.8066,-0.0012,-0.0053,-0.0021,0.81,-29.44,-17.12,336.47,-84.76,-16.51
20592,52.42487,-1.443671,132.13,0.0,6,340.42,19 / 20,2535608,2019-09-04 20:48:47:721,0.059,0.0701,9.8507,-0.0005,-0.0002,9.8066,0.0012,0.0027,-0.0027,0.94,-28.94,-16.69,336.49,-84.75,-16.49
20593,52.42487,-1.443671,132.13,0.0,6,340.42,19 / 20,2535707,2019-09-04 20:48:47:820,0.0399,0.005,9.8276,0.001,-0.0001,9.8066,0.0014,0.0002,-0.0005,0.69,-29.12,-16.81,336.47,-84.76,-16.51
20594,52.42487,-1.443671,132.13,0.0,6,340.42,19 / 20,2535807,2019-09-04 20:48:47:920,-0.0951,-0.0815,9.8912,0.0,0.0004,9.8066,-0.0018,0.0016,-0.0021,0.94,-28.31,-16.44,336.06,-84.76,-16.56
20595,52.42487,-1.443671,132.13,0.0,6,340.42,19 / 20,2535907,2019-09-04 20:48:48:020,0.0102,0.0498,9.9146,-0.0005,0.0017,9.8066,-0.0007,-0.0026,0.0009,0.63,-28.25,-17.0,336.51,-84.75,-16.59
20596,52.42487,-1.443671,132.13,0.0,6,340.42,19 / 20,2536007,2019-09-04 20:48:48:120,0.0733,0.0678,9.8115,0.0003,0.0009,9.8066,0.0035,-0.0079,0.0017,0.69,-28.69,-16.56,336.31,-84.77,-16.66
20597,52.42487,-1.443671,132.13,0.0,6,340.42,19 / 20,2536108,2019-09-04 20:48:48:221,-0.1087,-0.0797,9.8827,-0.0004,0.0,9.8066,-0.0017,0.0015,-0.0023,0.44,-28.94,-16.5,339.99,-84.78,-16.69
20598,52.42487,-1.443671,132.13,0.0,6,340.42,19 / 20,2536208,2019-09-04 20:48:48:321,-0.065,-0.0341,9.8765,0.0009,0.0004,9.8066,0.0029,0.0025,-0.0001,0.75,-29.0,-16.87,336.23,-84.77,-16.73
20599,52.42487,-1.443671,132.13,0.0,6,340.42,19 / 21,2536308,2019-09-04 20:48:48:421,0.1227,0.1143,9.8195,0.0,0.0005,9.8066,-0.001,0.0019,-0.0028,1.31,-29.19,-16.56,336.27,-84.77,-16.69
20600,52.42487,-1.443671,132.13,0.0,6,340.42,19 / 21,2536408,2019-09-04 20:48:48:521,-0.0504,-0.0414,9.8432,-0.0009,-0.0002,9.8066,-0.0001,0.0031,-0.0019,0.94,-28.62,-16.56,336.45,-84.78,-16.54
20601,52.42487,-1.443671,132.13,0.0,6,340.42,19 / 21,2536507,2019-09-04 20:48:48:620,-0.1168,-0.0884,9.8262,-0.0001,0.0004,9.8066,-0.0004,0.0023,-0.0052,0.5,-28.81,-16.19,335.89,-84.77,-16.58
20602,52.42487,-1.443671,132.13,0.0,6,340.42,19 / 21,2536608,2019-09-04 20:48:48:721,0.0499,0.0481,9.9042,0.0008,0.0004,9.8066,-0.0023,0.0025,0.0018,0.44,-28.87,-16.56,340.36,-84.77,-16.57
20603,52.42487,-1.443671,132.13,0.0,6,340.42,19 / 21,2536708,2019-09-04 20:48:48:821,0.0371,0.0459,9.8089,0.0003,0.0009,9.8066,0.0014,-0.0065,-0.0007,0.88,-29.25,-16.5,335.72,-84.77,-16.72
20604,52.42487,-1.443671,132.13,0.0,6,340.42,19 / 21,2536808,2019-09-04 20:48:48:921,-0.0043,-0.0818,9.8162,0.0009,-0.0007,9.8066,0.0013,-0.0021,0.0021,0.63,-28.75,-16.37,335.7,-84.77,-16.74
20605,52.42487,-1.443671,132.13,0.0,6,340.42,19 / 21,2536908,2019-09-04 20:48:49:021,-0.034,0.0358,9.8993,-0.0009,0.0013,9.8066,-0.0008,0.0032,-0.0031,0.81,-29.06,-16.75,336.11,-84.76,-16.83
20606,52.42487,-1.443671,132.13,0.0,6,340.42,19 / 21,2537008,2019-09-04 20:48:49:121,0.0182,0.0978,9.8156,-0.0005,0.0005,9.8066,0.0001,-0.0037,-0.0017,0.5,-29.0,-16.5,335.72,-84.78,-16.73
20607,52.42487,-1.443671,132.13,0.0,6,340.42,19 / 21,2537107,2019-09-04 20:48:49:220,-0.0357,-0.0976,9.7837,0.0018,0.0009,9.8066,0.0004,-0.0014,0.0035,0.5,-28.69,-16.75,336.26,-84.78,-16.7
20608,52.42487,-1.443671,132.13,0.0,6,340.42,19 / 21,2537207,2019-09-04 20:48:49:320,-0.003,0.0102,9.8857,0.0008,0.0005,9.8066,-0.0006,0.0056,0.0029,0.88,-28.94,-16.25,335.45,-84.77,-16.95
20609,52.42487,-1.443671,132.13,0.0,6,340.42,19 / 21,2537308,2019-09-04 20:48:49:421,0.0849,0.1054,9.8643,-0.0003,0.0012,9.8066,-0.0008,-0.0004,0.0001,1.0,-29.06,-16.62,335.84,-84.78,-17.07
20610,52.42487,-1.443671,132.13,0.0,6,340.42,20 / 22,2537407,2019-09-04 20:48:49:520,0.0206,0.0239,9.8897,-0.001,0.0,9.8066,0.0008,-0.0008,0.0019,0.94,-29.19,-16.25,335.37,-84.78,-17.03
20611,52.42487,-1.443671,132.13,0.0,6,340.42,20 / 22,2537508,2019-09-04 20:48:49:621,0.0108,0.0868,9.8273,-0.0001,-0.0001,9.8066,-0.0022,0.0038,-0.0004,1.0,-28.75,-16.56,335.85,-84.78,-17.06
20612,52.42487,-1.443671,132.13,0.0,6,340.42,20 / 22,2537607,2019-09-04 20:48:49:720,-0.0504,-0.023,9.7955,0.0016,0.0013,9.8066,-0.0006,0.0,0.0016,0.56,-28.87,-16.0,335.19,-84.78,-17.18
20613,52.42487,-1.443671,132.13,0.0,6,340.42,20 / 22,2537707,2019-09-04 20:48:49:820,0.0083,0.0069,9.921,0.0009,0.0003,9.8066,0.0002,0.0062,-0.0064,0.56,-29.0,-16.25,335.1,-84.78,-17.25
20614,52.42487,-1.443671,132.13,0.0,6,340.42,20 / 22,2537808,2019-09-04 20:48:49:921,0.0393,0.0586,9.8687,0.0002,-0.0004,9.8066,0.0036,-0.002,0.0026,0.75,-28.81,-16.5,335.12,-84.78,-17.24
20615,52.42487,-1.443671,132.13,0.0,6,340.42,20 / 22,2537908,2019-09-04 20:48:50:021,-0.0493,-0.0125,9.7826,-0.0007,0.0005,9.8066,-0.0019,0.0079,-0.004,0.81,-29.94,-16.69,335.48,-84.78,-17.25
20616,52.42487,-1.443671,132.13,0.0,6,340.42,20 / 22,2538008,2019-09-04 20:48:50:121,-0.0697,0.0911,9.9072,0.0005,-0.0001,9.8066,0.0012,0.0004,0.0005,1.5,-28.81,-16.69,331.83,-84.78,-17.18
20617,52.42487,-1.443671,132.13,0.0,6,340.42,20 / 22,2538107,2019-09-04 20:48:50:220,-0.0391,0.132,9.7461,0.0012,0.0019,9.8066,-0.0029,0.0111,0.0056,0.81,-29.06,-16.37,335.07,-84.79,-17.29
20618,52.42487,-1.443671,132.13,0.0,6,340.42,20 / 22,2538208,2019-09-04 20:48:50:321,-0.0676,0.22,9.7963,0.0008,0.0014,9.8066,0.0005,-0.0008,0.0008,1.25,-28.62,-16.81,335.24,-84.8,-17.59
20619,52.42487,-1.443671,132.13,0.0,6,340.42,20 / 22,2538307,2019-09-04 20:48:50:420,-0.0207,0.521,9.9313,-0.0016,0.0007,9.8066,0.0034,0.0017,-0.002,0.56,-29.06,-16.37,334.7,-84.82,-17.63
20620,52.42487,-1.443671,132.13,0.0,6,340.42,19 / 21,2538408,2019-09-04 20:48:50:521,-0.0424,0.3114,9.8121,-0.0002,0.0025,9.8066,0.0069,-0.0006,-0.0001,1.13,-28.69,-16.87,335.24,-84.84,-17.63
20621,52.42487,-1.443671,132.13,0.0,6,340.42,19 / 21,2538508,2019-09-04 20:48:50:621,-0.2147,0.4006,9.8179,-0.0016,0.0023,9.8066,0.0041,0.003,-0.0011,1.25,-28.94,-16.5,334.67,-84.88,-17.7
20622,52.42487,-1.443671,132.13,0.0,6,340.42,19 / 21,2538607,2019-09-04 20:48:50:720,-0.043,0.6605,9.8531,-0.0006,0.0025,9.8066,0.0029,0.0086,0.0004,0.69,-28.94,-16.06,334.66,-84.92,-17.75
20623,52.42487,-1.443671,132.13,0.0,6,340.42,19 / 21,2538707,2019-09-04 20:48:50:820,-0.1315,0.7637,9.9566,-0.0007,0.0022,9.8066,0.0086,0.0019,0.0015,1.19,-28.31,-16.81,335.13,-84.95,-17.93
20624,52.42487,-1.443671,132.13,0.0,6,340.42,19 / 21,2538807,2019-09-04 20:48:50:920,-0.1465,0.8869,9.7569,-0.0005,0.0034,9.8066,0.0055,0.0015,-0.0043,1.69,-28.94,-16.37,330.16,-85.0,-18.15
20625,52.42487,-1.443671,132.13,0.0,6,340.42,19 / 21,2538907,2019-09-04 20:48:51:020,-0.0663,1.263,10.1008,-0.0008,0.0067,9.8066,0.0238,0.0046,-0.0023,1.06,-29.06,-15.81,334.12,-85.1,-18.35
20626,52.42487,-1.443671,132.13,0.0,6,340.42,19 / 21,2539007,2019-09-04 20:48:51:120,-0.2288,1.6762,9.5296,-0.0017,0.0086,9.8066,0.0272,0.0088,0.0031,1.13,-29.44,-16.0,333.96,-85.2,-18.57
20627,52.42487,-1.443671,132.13,0.0,6,340.42,19 / 21,2539108,2019-09-04 20:48:51:221,-0.4575,2.2809,10.1307,-0.0042,0.0133,9.8066,0.0311,0.006,0.0008,1.38,-29.44,-15.81,333.54,-85.34,-19.05
20628,52.42487,-1.443671,132.13,0.0,6,340.42,19 / 21,2539208,2019-09-04 20:48:51:321,-0.502,2.3529,10.0946,0.0006,0.011,9.8065,0.0261,0.0054,0.0017,1.13,-29.81,-15.5,332.0,-85.54,-19.93
20629,52.42487,-1.443671,132.13,0.0,6,340.42,19 / 21,2539308,2019-09-04 20:48:51:421,-0.4766,2.4838,10.0512,-0.0022,0.0075,9.8066,0.0144,0.0028,-0.0025,0.88,-29.44,-15.0,331.74,-85.64,-20.39
20630,52.42487,-1.443671,132.13,0.0,6,340.42,19 / 20,2539407,2019-09-04 20:48:51:520,-0.2673,2.3395,9.194,-0.0002,0.0033,9.8066,0.0038,0.0015,0.0006,0.94,-29.75,-15.44,331.4,-85.72,-20.62
20631,52.42487,-1.443671,132.13,0.0,6,340.42,19 / 20,2539508,2019-09-04 20:48:51:621,-0.2273,2.5817,9.6236,-0.001,0.0032,9.8066,0.0018,0.0001,-0.0015,1.31,-29.87,-15.62,331.81,-85.76,-20.8
20632,52.42487,-1.443671,132.13,0.0,6,340.42,19 / 20,2539607,2019-09-04 20:48:51:720,-0.1118,1.8843,9.7207,-0.0034,0.0005,9.8066,0.002,0.0039,-0.0171,1.31,-29.87,-15.19,331.45,-85.8,-20.67
20633,52.42487,-1.443671,132.13,0.0,6,340.42,19 / 20,2539708,2019-09-04 20:48:51:821,-0.7032,2.3409,9.9498,-0.0112,0.0041,9.8066,0.0136,0.0079,-0.013,1.5,-29.69,-15.69,329.49,-85.87,-19.41
20634,52.42487,-1.443671,132.13,0.0,6,340.42,19 / 20,2539808,2019-09-04 20:48:51:921,-0.7032,2.3409,9.9498,-0.0112,0.0041,9.8066,0.0136,0.0079,-0.013,1.5,-29.69,-15.69,329.49,-85.87,-19.41
20635,52.42487,-1.443671,132.13,0.0,6,340.42,19 / 20,2539908,2019-09-04 20:48:52:021,-0.6541,2.5493,9.444,0.0015,0.005,9.8066,0.0142,0.0062,0.0094,1.0,-29.25,-15.44,332.74,-86.06,-19.91
20636,52.42487,-1.443671,132.13,0.0,6,340.42,19 / 20,2540007,2019-09-04 20:48:52:120,-0.5182,2.8191,10.592,0.0032,0.0013,9.8066,-0.0035,-0.0092,-0.0039,1.19,-29.06,-15.44,331.49,-86.1,-21.05
20637,52.42487,-1.443671,132.13,0.0,6,340.42,19 / 20,2540108,2019-09-04 20:48:52:221,-0.272,2.4932,10.01,0.0051,-0.0067,9.8066,-0.0244,-0.001,0.0104,1.38,-29.31,-14.94,331.35,-86.06,-21.13
20638,52.42487,-1.443671,132.13,0.0,6,340.42,19 / 20,2540208,2019-09-04 20:48:52:321,-0.6503,1.2809,9.8286,0.0047,-0.0069,9.8066,-0.0082,-0.009,0.0122,1.0,-30.25,-15.5,331.0,-85.94,-21.2
20639,52.42487,-1.443671,132.13,0.0,6,340.42,19 / 20,2540308,2019-09-04 20:48:52:421,-0.5215,2.0639,9.4335,0.0111,-0.0047,9.8066,-0.0028,0.0004,0.0311,1.38,-29.56,-15.75,330.78,-85.86,-21.8
20640,52.42487,-1.443671,132.13,0.0,6,340.42,21 / 21,2540408,2019-09-04 20:48:52:521,0.0084,1.8739,10.0256,0.0131,-0.0071,9.8065,-0.017,0.0008,0.0211,1.69,-29.94,-15.56,324.32,-85.68,-23.79
20641,52.42487,-1.443671,132.13,0.0,6,340.42,21 / 21,2540507,2019-09-04 20:48:52:620,0.1323,1.7077,9.9281,-0.0035,-0.0031,9.8066,-0.0223,0.0193,-0.014,1.25,-29.31,-15.56,328.02,-85.6,-24.11
20642,52.42487,-1.443671,132.13,0.0,6,340.42,21 / 21,2540607,2019-09-04 20:48:52:720,-0.5136,1.3691,10.5433,-0.0079,-0.0068,9.8065,-0.0199,0.0118,-0.0171,1.5,-29.12,-15.0,325.23,-85.56,-22.24
20643,52.42487,-1.443671,132.13,0.0,6,340.42,21 / 21,2540707,2019-09-04 20:48:52:820,-0.5859,1.3336,9.889,-0.0047,0.0008,9.8066,0.0129,0.0023,-0.0057,1.44,-29.37,-15.56,331.62,-85.55,-20.91
20644,52.42487,-1.443671,132.13,0.0,6,340.42,21 / 21,2540807,2019-09-04 20:48:52:920,-0.4917,0.6585,9.4877,-0.0011,0.0085,9.8066,0.015,0.0105,0.0035,1.44,-29.37,-15.31,330.86,-85.63,-21.14
20645,52.42487,-1.443671,132.13,0.0,6,340.42,21 / 21,2540908,2019-09-04 20:48:53:021,-0.4828,0.6691,9.727,0.0108,0.0048,9.8066,0.0033,0.0051,0.0328,1.94,-28.81,-16.0,325.93,-85.67,-22.5
20646,52.42487,-1.443671,132.13,0.0,6,340.42,21 / 21,2541008,2019-09-04 20:48:53:121,0.1998,0.5582,10.165,0.0094,0.0083,9.8066,0.0195,-0.0004,0.0191,1.25,-29.06,-15.81,326.7,-85.64,-25.3
20647,52.42487,-1.443671,132.13,0.0,6,340.42,21 / 21,2541108,2019-09-04 20:48:53:221,0.0251,0.5342,10.2894,-0.0098,0.0064,9.8066,0.0319,0.024,-0.035,1.56,-29.31,-15.44,320.91,-85.7,-26.22
20648,52.42487,-1.443671,132.13,0.0,6,340.42,21 / 21,2541208,2019-09-04 20:48:53:321,-0.6041,0.5216,10.0829,-0.02,0.0059,9.8066,0.016,0.038,-0.0429,1.63,-29.5,-15.31,323.48,-85.97,-24.25
20649,52.42487,-1.443671,132.13,0.0,6,340.42,20 / 20,2541311,2019-09-04 20:48:53:424,-0.7879,0.4239,9.4785,-0.0139,-0.0041,9.8066,-0.0112,0.0646,-0.0316,1.94,-28.75,-15.81,327.94,-86.11,-21.16
20650,52.42487,-1.443671,132.13,0.0,6,340.42,20 / 20,2541408,2019-09-04 20:48:53:521,-1.0576,0.2972,9.849,-0.0109,-0.0104,9.8066,-0.0171,0.083,-0.0176,2.0,-28.75,-14.81,330.0,-86.09,-18.59
20651,52.42487,-1.443671,132.13,0.0,6,340.42,20 / 20,2541507,2019-09-04 20:48:53:620,-1.1874,-0.1127,9.9187,0.0,-0.0003,9.8066,0.0073,0.0872,0.0122,1.44,-29.12,-15.25,335.82,-86.06,-17.2
20652,52.42487,-1.443671,132.13,0.0,6,340.42,20 / 20,2541608,2019-09-04 20:48:53:721,-0.8876,0.4242,9.9857,0.0026,0.0066,9.8066,0.0143,0.1163,0.0197,1.75,-29.81,-15.19,330.56,-86.09,-17.98
20653,52.42487,-1.443671,132.13,0.0,6,340.42,20 / 20,2541707,2019-09-04 20:48:53:820,-0.7686,0.286,10.1579,0.0011,0.0039,9.8066,0.0138,0.1318,0.0016,2.31,-28.94,-15.44,329.12,-86.12,-19.4
20654,52.42487,-1.443671,132.13,0.0,6,340.42,20 / 20,2541808,2019-09-04 20:48:53:921,-0.7318,0.1388,9.7539,-0.0128,0.0033,9.8066,0.0212,0.1667,-0.0299,2.69,-29.06,-14.75,325.94,-86.24,-18.7
20655,52.42487,-1.443671,132.13,0.0,6,340.42,20 / 20,2541908,2019-09-04 20:48:54:021,-1.5249,0.3473,9.4139,-0.0267,0.0016,9.8065,0.0106,0.1969,-0.0562,3.19,-29.56,-14.37,330.81,-86.48,-13.45
20656,52.42487,-1.443671,132.13,0.0,6,340.42,20 / 20,2542008,2019-09-04 20:48:54:121,-1.5825,-0.2083,10.2048,-0.0244,-0.0037,9.8065,0.0025,0.2136,-0.0438,3.19,-29.5,-14.56,337.44,-86.58,-8.73
20657,52.42487,-1.443671,132.13,0.0,6,340.42,20 / 20,2542107,2019-09-04 20:48:54:220,-1.5082,-0.6589,9.8625,-0.0149,-0.0026,9.8065,0.0037,0.2349,-0.0272,4.44,-29.25,-14.31,336.16,-86.62,-5.14
20658,52.42487,-1.443671,132.13,0.0,6,340.42,20 / 20,2542207,2019-09-04 20:48:54:320,-1.7598,-0.8432,9.8956,-0.0138,-0.0011,9.8066,0.0049,0.2718,-0.0096,4.56,-28.62,-13.31,335.35,-86.68,-0.7
20659,52.42487,-1.443671,132.13,0.0,6,340.42,20 / 21,2542308,2019-09-04 20:48:54:421,-1.8938,-1.1923,9.7394,-0.0214,-0.0064,9.8066,0.0059,0.3239,-0.0398,4.5,-29.0,-12.69,338.47,-86.72,2.04
20660,52.424946,-1.443715,130.65,4.81,6,330.42,20 / 21,2542407,2019-09-04 20:48:54:520,-1.8573,-1.3926,9.5657,-0.0302,-0.0079,9.8065,0.0204,0.3381,-0.035,6.06,-29.0,-12.62,341.86,-86.76,8.71
20661,52.424946,-1.443715,130.65,4.81,6,330.42,20 / 21,2542507,2019-09-04 20:48:54:620,-2.5322,-1.5146,9.5068,-0.0138,-0.0016,9.8066,0.0004,0.3965,0.0009,6.0,-29.0,-12.69,346.83,-86.82,13.09
20662,52.424946,-1.443715,130.65,4.81,6,330.42,20 / 21,2542608,2019-09-04 20:48:54:721,-2.0025,-1.6734,9.7906,0.0013,-0.0005,9.8066,-0.0163,0.4256,0.0192,7.13,-28.44,-11.87,343.06,-86.83,15.2
20663,52.424946,-1.443715,130.65,4.81,6,330.42,20 / 21,2542708,2019-09-04 20:48:54:821,-1.6233,-2.1474,10.0804,0.0065,-0.008,9.8066,-0.0452,0.4938,0.0331,8.19,-28.94,-11.44,336.11,-86.69,15.03
20664,52.424946,-1.443715,130.65,4.81,6,330.42,20 / 21,2542808,2019-09-04 20:48:54:921,-1.5423,-1.7654,9.9715,0.0034,-0.0098,9.8066,-0.0383,0.4826,0.0161,7.81,-29.31,-11.62,338.42,-86.56,14.69
20665,52.424946,-1.443715,130.65,4.81,6,330.42,20 / 21,2542908,2019-09-04 20:48:55:021,-1.8637,-2.4038,9.7878,0.003,-0.0133,9.8066,-0.0345,0.4983,0.028,8.81,-29.06,-10.56,333.05,-86.4,15.72
20666,52.424946,-1.443715,130.65,4.81,6,330.42,20 / 21,2543008,2019-09-04 20:48:55:121,-1.0258,-2.6429,9.7029,0.0095,-0.0081,9.8066,-0.0525,0.5104,0.0363,10.0,-28.87,-10.37,326.06,-86.2,15.47
20667,52.424946,-1.443715,130.65,4.81,6,330.42,20 / 21,2543108,2019-09-04 20:48:55:221,-1.4749,-2.5543,10.1027,0.0012,-0.0039,9.8066,-0.0223,0.5307,0.0326,10.13,-29.19,-9.94,325.25,-86.07,14.91
20668,52.424946,-1.443715,130.65,4.81,6,330.42,20 / 21,2543208,2019-09-04 20:48:55:321,-1.0802,-2.7458,9.9867,0.0017,-0.0037,9.8066,-0.0103,0.5491,0.0265,10.69,-28.62,-9.37,318.97,-86.0,15.12
20669,52.424946,-1.443715,130.65,4.81,6,330.42,20 / 21,2543307,2019-09-04 20:48:55:420,-0.8168,-3.1125,9.8853,-0.0078,-0.0005,9.8066,-0.0015,0.5564,0.0413,12.06,-28.69,-7.75,314.37,-86.04,16.46
20670,52.424946,-1.443715,130.65,4.81,6,330.42,19 / 20,2543408,2019-09-04 20:48:55:521,-0.696,-2.6733,9.8929,-0.0092,0.0045,9.8066,0.0113,0.564,0.0442,12.38,-28.75,-7.31,310.84,-86.13,16.77
20671,52.424946,-1.443715,130.65,4.81,6,330.42,19 / 20,2543507,2019-09-04 20:48:55:620,-0.9489,-2.8652,9.6226,-0.0076,-0.0067,9.8065,-0.0019,0.5746,0.0208,12.69,-29.44,-7.06,310.22,-86.23,17.65
20672,52.424946,-1.443715,130.65,4.81,6,330.42,19 / 20,2543607,2019-09-04 20:48:55:720,-0.461,-2.8979,9.8354,-0.0036,-0.0057,9.8066,-0.0134,0.5728,0.0173,13.38,-29.25,-5.69,308.56,-86.25,19.81
20673,52.424946,-1.443715,130.65,4.81,6,330.42,19 / 20,2543707,2019-09-04 20:48:55:820,-0.1051,-3.3204,10.3596,-0.0055,0.0013,9.8066,0.0039,0.5867,0.0538,13.75,-29.5,-4.87,304.24,-86.23,20.74
20674,52.424946,-1.443715,130.65,4.81,6,330.42,19 / 20,2543808,2019-09-04 20:48:55:921,-0.2825,-3.0129,9.96,-0.0115,0.0125,9.8066,0.0238,0.5834,0.0617,14.44,-29.12,-4.31,299.66,-86.43,19.95
20675,52.424946,-1.443715,130.65,4.81,6,330.42,19 / 20,2543908,2019-09-04 20:48:56:021,-0.4305,-3.0884,9.4869,-0.0035,-0.0117,9.8065,-0.0128,0.6178,0.0239,13.38,-29.69,-2.87,297.94,-86.54,21.88
20676,52.424946,-1.443715,130.65,4.81,6,330.42,19 / 20,2544008,2019-09-04 20:48:56:121,0.2462,-3.4463,9.549,-0.0014,-0.0016,9.8066,-0.0165,0.6051,0.0345,14.31,-29.87,-1.81,293.71,-86.55,22.34
20677,52.424946,-1.443715,130.65,4.81,6,330.42,19 / 20,2544108,2019-09-04 20:48:56:221,0.2445,-3.8147,9.8692,-0.0024,0.0156,9.8066,-0.0154,0.5917,0.0977,14.19,-29.69,-1.62,293.18,-86.57,21.8
20678,52.424946,-1.443715,130.65,4.81,6,330.42,19 / 20,2544207,2019-09-04 20:48:56:320,0.6596,-3.5119,10.38,-0.0016,0.0208,9.8066,-0.0121,0.6109,0.084,14.31,-30.5,0.31,279.19,-86.69,16.23
20679,52.424946,-1.443715,130.65,4.81,6,330.42,19 / 20,2544308,2019-09-04 20:48:56:421,0.5806,-2.3689,9.9096,-0.0061,0.0046,9.8066,0.0146,0.6098,0.0315,14.13,-31.25,0.81,271.74,-86.77,13.0
20680,52.424946,-1.443715,130.65,4.81,6,330.42,19 / 19,2544407,2019-09-04 20:48:56:520,0.6758,-3.1871,9.4958,-0.0092,-0.0131,9.8065,0.0135,0.632,0.0106,14.38,-30.87,1.88,269.84,-86.92,14.74
20681,52.424946,-1.443715,130.65,4.81,6,330.42,19 / 19,2544508,2019-09-04 20:48:56:621,0.9296,-2.9508,9.5107,-0.0006,-0.0116,9.8066,-0.0036,0.6114,-0.0042,14.56,-31.25,3.69,267.47,-87.0,18.39
20682,52.424946,-1.443715,130.65,4.81,6,330.42,19 / 19,2544608,2019-09-04 20:48:56:721,1.4714,-3.3433,9.826,-0.0006,-0.0035,9.8066,-0.0093,0.601,0.0409,14.75,-31.69,4.81,265.79,-87.01,20.26
20683,52.424946,-1.443715,130.65,4.81,6,330.42,19 / 19,2544708,2019-09-04 20:48:56:821,1.3621,-2.8644,9.6805,-0.0143,0.0118,9.8066,0.021,0.5827,0.0731,14.5,-31.37,5.44,264.52,-87.13,18.57
20684,52.424946,-1.443715,130.65,4.81,6,330.42,19 / 19,2544807,2019-09-04 20:48:56:920,1.0473,-3.0546,9.6195,-0.0143,0.0117,9.8066,0.0075,0.5893,0.0712,14.44,-31.06,7.81,248.82,-87.35,13.3
20685,52.424946,-1.443715,130.65,4.81,6,330.42,19 / 19,2544908,2019-09-04 20:48:57:021,0.72,-2.5521,9.6485,-0.0015,0.0027,9.8066,-0.0101,0.5726,0.0204,13.19,-31.5,8.31,243.45,-87.41,9.75
20686,52.424946,-1.443715,130.65,4.81,6,330.42,19 / 19,2545008,2019-09-04 20:48:57:121,1.3866,-2.8628,10.1293,0.0097,0.0044,9.8066,-0.0319,0.5609,0.0245,13.38,-31.25,8.88,240.66,-87.34,9.88
20687,52.424946,-1.443715,130.65,4.81,6,330.42,19 / 19,2545107,2019-09-04 20:48:57:220,1.3285,-2.3702,9.7119,0.0015,0.0082,9.8065,-0.0157,0.5056,0.0439,13.06,-30.81,10.56,234.05,-87.22,8.36
20688,52.424946,-1.443715,130.65,4.81,6,330.42,19 / 19,2545207,2019-09-04 20:48:57:320,1.2009,-2.212,10.4151,-0.0101,0.0112,9.8066,0.0029,0.4705,0.0522,12.88,-31.69,10.94,231.04,-87.22,5.31
20689,52.424946,-1.443715,130.65,4.81,6,330.42,19 / 19,2545307,2019-09-04 20:48:57:420,0.7207,-1.8217,9.5803,-0.0226,-0.003,9.8066,0.0247,0.435,0.0689,12.0,-31.56,11.56,223.41,-87.31,1.86
20690,52.424946,-1.443715,130.65,4.81,6,330.42,21 / 22,2545407,2019-09-04 20:48:57:520,1.0838,-1.8686,9.801,-0.0236,-0.0024,9.8065,0.0294,0.4036,0.0661,12.19,-31.12,12.81,215.6,-87.59,-4.67
20691,52.424946,-1.443715,130.65,4.81,6,330.42,21 / 22,2545508,2019-09-04 20:48:57:621,0.6727,-2.1711,9.7867,-0.0091,-0.0019,9.8066,0.0133,0.3585,0.0186,11.0,-32.12,13.31,209.11,-87.71,-9.05
20692,52.424946,-1.443715,130.65,4.81,6,330.42,21 / 22,2545608,2019-09-04 20:48:57:721,1.4044,-1.9006,9.672,-0.0017,-0.0001,9.8066,-0.0177,0.3402,0.0289,9.75,-31.31,13.5,203.21,-87.77,-10.76
20693,52.424946,-1.443715,130.65,4.81,6,330.42,21 / 22,2545708,2019-09-04 20:48:57:821,0.9809,-1.4669,9.6425,0.0007,0.014,9.8066,-0.0328,0.2837,0.0431,10.0,-31.12,13.44,202.37,-87.58,-13.48
20694,52.424946,-1.443715,130.65,4.81,6,330.42,21 / 22,2545808,2019-09-04 20:48:57:921,0.4681,-1.5433,10.0255,-0.0051,0.0153,9.8066,-0.0197,0.2494,0.0497,9.5,-31.5,14.06,198.03,-87.43,-16.09
20695,52.424946,-1.443715,130.65,4.81,6,330.42,21 / 22,2545908,2019-09-04 20:48:58:021,-0.0608,-1.196,10.3335,-0.016,0.0143,9.8066,-0.0051,0.1936,0.061,8.75,-31.0,14.56,190.24,-87.28,-19.88
20696,52.424946,-1.443715,130.65,4.81,6,330.42,21 / 22,2546008,2019-09-04 20:48:58:121,-0.5102,-0.7771,9.5002,-0.0162,0.0051,9.8066,0.0048,0.1693,0.0439,8.94,-31.56,14.75,184.48,-87.15,-26.08
20697,52.424946,-1.443715,130.65,4.81,6,330.42,21 / 22,2546108,2019-09-04 20:48:58:221,-0.4312,-0.9344,9.7535,-0.0076,-0.0028,9.8066,0.0138,0.1045,0.0138,7.31,-31.31,15.56,174.92,-87.13,-29.16
20698,52.424946,-1.443715,130.65,4.81,6,330.42,21 / 22,2546208,2019-09-04 20:48:58:321,-0.6045,-0.8529,9.9821,-0.007,-0.0054,9.8066,0.0147,0.0734,0.0079,7.94,-31.44,15.63,175.34,-87.2,-31.62
20699,52.424946,-1.443715,130.65,4.81,6,330.42,21 / 22,2546307,2019-09-04 20:48:58:420,-0.4273,-1.1926,9.6346,-0.0043,-0.008,9.8066,0.0054,0.0542,0.0031,7.75,-31.37,15.63,173.81,-87.31,-33.26
20700,52.424946,-1.443715,130.65,4.81,6,330.42,20 / 21,2546408,2019-09-04 20:48:58:521,-0.6315,-1.0123,9.9819,-0.0044,-0.0014,9.8066,0.0072,0.0333,0.0192,7.81,-32.06,16.13,172.91,-87.33,-34.24
20701,52.424946,-1.443715,130.65,4.81,6,330.42,20 / 21,2546507,2019-09-04 20:48:58:620,-0.9923,-0.9037,10.0909,-0.0052,0.0033,9.8066,-0.0103,0.0003,0.0181,8.06,-32.37,15.31,172.79,-87.3,-35.91
20702,52.424946,-1.443715,130.65,4.81,6,330.42,20 / 21,2546608,2019-09-04 20:48:58:721,-1.0349,-0.8939,10.0322,-0.0039,0.0066,9.8066,-0.0078,-0.0216,0.0231,8.13,-32.0,15.81,169.95,-87.21,-37.47
20703,52.424946,-1.443715,130.65,4.81,6,330.42,20 / 21,2546707,2019-09-04 20:48:58:820,-1.2127,-0.4946,9.5727,-0.0075,0.0054,9.8066,-0.0204,-0.0219,0.0168,8.19,-32.69,15.81,168.92,-87.15,-38.64
20704,52.424946,-1.443715,130.65,4.81,6,330.42,20 / 21,2546808,2019-09-04 20:48:58:921,-1.1291,-0.8024,9.9036,0.0013,0.0013,9.8066,-0.0137,-0.0345,-0.0104,7.31,-32.19,15.38,166.9,-87.07,-39.39
20705,52.424946,-1.443715,130.65,4.81,6,330.42,20 / 21,2546908,2019-09-04 20:48:59:021,-0.6325,-0.5868,10.0475,-0.0014,0.0029,9.8066,-0.012,-0.0237,0.0178,9.0,-31.81,15.25,172.83,-87.04,-38.8
20706,52.424946,-1.443715,130.65,4.81,6,330.42,20 / 21,2547007,2019-09-04 20:48:59:120,-0.8952,-0.3042,10.2466,0.0004,-0.0036,9.8066,0.0024,-0.0266,-0.009,7.56,-32.06,15.5,168.52,-87.05,-39.09
20707,52.424946,-1.443715,130.65,4.81,6,330.42,20 / 21,2547108,2019-09-04 20:48:59:221,-0.8394,-0.2899,10.7466,-0.0006,-0.0146,9.8065,0.0285,-0.0323,-0.018,8.63,-32.69,15.0,172.31,-87.14,-39.37
20708,52.424946,-1.443715,130.65,4.81,6,330.42,20 / 21,2547208,2019-09-04 20:48:59:321,-0.3654,-0.3626,9.8024,-0.0006,-0.0118,9.8066,0.0154,-0.0073,-0.0104,8.19,-32.94,15.13,168.62,-87.38,-40.44
20709,52.424946,-1.443715,130.65,4.81,6,330.42,20 / 21,2547308,2019-09-04 20:48:59:421,-0.736,-0.8264,10.0237,0.0,-0.002,9.8066,-0.0151,-0.0278,-0.0035,9.0,-33.06,14.94,170.57,-87.47,-41.16
20710,52.424946,-1.443715,130.65,4.81,6,330.42,20 / 20,2547407,2019-09-04 20:48:59:520,-0.3662,0.0018,10.0473,0.0075,0.0011,9.8066,-0.0138,-0.023,-0.0119,8.56,-32.87,15.25,172.07,-87.49,-39.54
20711,52.424946,-1.443715,130.65,4.81,6,330.42,20 / 20,2547508,2019-09-04 20:48:59:621,-0.1428,-0.3483,10.5183,-0.0005,-0.0096,9.8066,0.0184,-0.0305,-0.0012,9.06,-32.37,14.81,173.03,-87.58,-38.47
20712,52.424946,-1.443715,130.65,4.81,6,330.42,20 / 20,2547608,2019-09-04 20:48:59:721,-0.2585,-0.8471,10.4454,-0.0102,-0.0111,9.8066,0.028,-0.021,0.0158,8.69,-33.0,14.88,170.44,-87.68,-41.24
20713,52.424946,-1.443715,130.65,4.81,6,330.42,20 / 20,2547707,2019-09-04 20:48:59:820,-0.8817,-0.6735,9.7562,-0.0083,-0.0074,9.8066,0.0208,-0.0269,0.012,9.63,-32.81,14.75,168.83,-87.76,-45.64
20714,52.424946,-1.443715,130.65,4.81,6,330.42,20 / 20,2547807,2019-09-04 20:48:59:920,-0.4884,-0.8084,9.7464,0.0043,-0.0026,9.8066,-0.0146,-0.0214,-0.0009,9.38,-33.69,14.19,165.9,-87.82,-47.91
20715,52.424946,-1.443715,130.65,4.81,6,330.42,20 / 20,2547908,2019-09-04 20:49:00:021,-0.6981,-0.096,9.4325,0.0007,0.0047,9.8066,-0.0106,-0.0224,0.0175,10.5,-33.94,14.38,171.05,-87.82,-47.75
20716,52.424946,-1.443715,130.65,4.81,6,330.42,20 / 20,2548007,2019-09-04 20:49:00:120,-0.7563,-0.396,9.7485,-0.0024,0.0037,9.8066,-0.0094,-0.0186,0.0014,9.81,-34.12,14.31,168.31,-87.73,-48.13
20717,52.424946,-1.443715,130.65,4.81,6,330.42,20 / 20,2548108,2019-09-04 20:49:00:221,-0.7228,-0.1753,9.8708,-0.0088,0.0,9.8066,-0.001,-0.0193,0.0091,10.0,-34.69,14.88,165.14,-87.74,-49.67
20718,52.424946,-1.443715,130.65,4.81,6,330.42,20 / 20,2548208,2019-09-04 20:49:00:321,-0.3812,-0.2519,9.958,0.0043,-0.0093,9.8066,0.0098,-0.0032,-0.0201,8.81,-34.37,15.0,162.54,-87.81,-49.68
20719,52.424946,-1.443715,130.65,4.81,6,330.42,20 / 20,2548307,2019-09-04 20:49:00:420,-0.0998,-0.5827,9.814,-0.0035,-0.0078,9.8066,0.0235,-0.0194,0.0074,9.56,-33.81,15.19,164.43,-87.95,-50.29
20720,52.424946,-1.443715,130.65,4.81,6,330.42,20 / 21,2548407,2019-09-04 20:49:00:520,-0.4898,-0.1377,10.1931,0.0006,-0.0098,9.8065,0.0102,-0.0294,-0.0301,8.69,-33.37,15.31,159.04,-88.07,-53.22
20721,52.424946,-1.443715,130.65,4.81,6,330.42,20 / 21,2548508,2019-09-04 20:49:00:621,-0.4334,-0.4662,9.9102,0.0068,-0.0093,9.8066,0.0023,-0.009,-0.0167,8.81,-34.44,15.06,159.4,-88.24,-52.75
20722,52.424946,-1.443715,130.65,4.81,6,330.42,20 / 21,2548609,2019-09-04 20:49:00:722,-0.376,-0.5653,9.7261,0.0073,-0.001,9.8066,-0.0158,-0.0081,-0.0261,8.63,-33.56,15.88,160.28,-88.37,-50.09
20723,52.424946,-1.443715,130.65,4.81,6,330.42,20 / 21,2548708,2019-09-04 20:49:00:821,-0.5402,-0.3854,10.1328,0.0176,-0.0033,9.8066,-0.0182,0.0014,-0.0344,9.19,-33.44,15.56,167.35,-88.49,-42.6
20724,52.424946,-1.443715,130.65,4.81,6,330.42,20 / 21,2548808,2019-09-04 20:49:00:921,-0.1416,-0.4618,9.2069,0.0055,-0.0022,9.8066,-0.0144,0.0048,-0.0046,9.06,-32.62,16.06,171.38,-88.55,-38.36
20725,52.424946,-1.443715,130.65,4.81,6,330.42,20 / 21,2548907,2019-09-04 20:49:01:020,-0.3398,-0.3816,10.2248,0.0086,0.0019,9.8066,-0.0274,0.008,-0.0121,8.75,-32.94,15.69,173.32,-88.52,-36.35
20726,52.424946,-1.443715,130.65,4.81,6,330.42,20 / 21,2549008,2019-09-04 20:49:01:121,0.0672,-0.103,9.5351,0.0046,0.0019,9.8066,-0.0048,-0.0066,0.0085,9.38,-32.19,15.0,179.51,-88.49,-31.48
20727,52.424946,-1.443715,130.65,4.81,6,330.42,20 / 21,2549107,2019-09-04 20:49:01:220,0.0301,-0.3211,10.2944,0.0008,-0.0055,9.8066,0.0106,-0.0091,-0.0047,8.75,-32.31,15.13,179.57,-88.49,-31.42
20728,52.424946,-1.443715,130.65,4.81,6,330.42,20 / 21,2549207,2019-09-04 20:49:01:320,-0.4906,-0.1827,9.68,-0.0076,-0.0046,9.8066,0.01,-0.0024,0.002,9.31,-32.5,15.25,177.37,-88.59,-33.71
20729,52.424946,-1.443715,130.65,4.81,6,330.42,20 / 21,2549308,2019-09-04 20:49:01:421,-0.2563,-0.3341,9.7191,-0.0008,-0.0027,9.8066,-0.001,0.007,0.0058,9.56,-32.5,15.25,178.17,-88.66,-35.6
20730,52.424946,-1.443715,130.65,4.81,6,330.42,19 / 20,2549407,2019-09-04 20:49:01:520,0.0151,0.138,10.0033,-0.0009,-0.0006,9.8066,-0.009,0.0159,0.0033,8.63,-32.69,15.25,174.35,-88.69,-36.86
20731,52.424946,-1.443715,130.65,4.81,6,330.42,19 / 20,2549508,2019-09-04 20:49:01:621,0.2236,-0.0033,10.1735,0.002,-0.0071,9.8066,0.0017,0.0122,0.0018,9.38,-32.56,14.81,174.4,-88.75,-36.79
20732,52.424946,-1.443715,130.65,4.81,6,330.42,19 / 20,2549607,2019-09-04 20:49:01:720,0.1969,0.0573,9.3709,-0.0006,-0.0007,9.8066,-0.0107,0.01,0.0081,8.56,-32.31,14.94,174.09,-88.82,-37.1
20733,52.424946,-1.443715,130.65,4.81,6,330.42,19 / 20,2549707,2019-09-04 20:49:01:820,0.3619,0.6278,9.861,0.0051,-0.0014,9.8066,-0.008,0.0189,-0.0105,9.25,-32.44,14.75,174.99,-88.81,-36.16
20734,52.424946,-1.443715,130.65,4.81,6,330.42,19 / 20,2549807,2019-09-04 20:49:01:920,0.5927,0.2452,9.6409,0.002,-0.0052,9.8066,-0.0015,0.0101,0.0025,9.19,-32.5,14.63,176.62,-88.85,-34.47
20735,52.424946,-1.443715,130.65,4.81,6,330.42,19 / 20,2549908,2019-09-04 20:49:02:021,-0.4053,-0.3193,9.6196,-0.0051,-0.0044,9.8066,0.003,0.0158,0.0134,9.06,-32.94,14.25,174.63,-88.87,-38.31
20736,52.424946,-1.443715,130.65,4.81,6,330.42,19 / 20,2550007,2019-09-04 20:49:02:120,-0.2459,-0.0519,9.7846,-0.0135,0.0018,9.8066,-0.0052,0.0064,0.0306,9.63,-33.37,14.88,167.85,-88.87,-46.28
20737,52.424946,-1.443715,130.65,4.81,6,330.42,19 / 20,2550108,2019-09-04 20:49:02:221,0.0928,0.3401,10.0357,-0.0026,-0.0011,9.8066,0.0008,0.0028,0.0115,8.56,-33.06,14.75,162.28,-88.82,-49.36
20738,52.424946,-1.443715,130.65,4.81,6,330.42,19 / 20,2550208,2019-09-04 20:49:02:321,0.0743,0.4861,10.2556,-0.0069,-0.0001,9.8066,0.0066,0.0027,0.0172,9.31,-33.25,14.88,158.38,-88.81,-53.41
20739,52.424946,-1.443715,130.65,4.81,6,330.42,19 / 20,2550308,2019-09-04 20:49:02:421,-0.2698,0.0543,9.4943,-0.0063,-0.0115,9.8066,0.0203,-0.0001,-0.0029,9.13,-32.69,15.63,148.97,-88.86,-61.43
20740,52.424946,-1.443715,130.65,4.81,6,330.42,20 / 21,2550407,2019-09-04 20:49:02:520,-0.0784,0.4076,9.5781,-0.005,-0.0035,9.8066,-0.0119,0.0099,-0.001,8.56,-32.62,14.88,146.08,-88.89,-66.04
20741,52.424946,-1.443715,130.65,4.81,6,330.42,20 / 21,2550507,2019-09-04 20:49:02:620,-0.0013,0.4789,9.987,0.0067,0.0105,9.8066,-0.0212,-0.003,-0.0097,9.38,-32.81,14.94,150.09,-88.89,-61.92
20742,52.424946,-1.443715,130.65,4.81,6,330.42,20 / 21,2550608,2019-09-04 20:49:02:721,0.0142,0.8121,9.8037,0.0092,0.0004,9.8066,-0.0056,-0.0037,-0.0077,8.88,-32.12,15.19,157.86,-88.88,-53.87
20743,52.424946,-1.443715,130.65,4.81,6,330.42,20 / 21,2550708,2019-09-04 20:49:02:821,-0.0023,0.0717,9.8072,-0.001,-0.0128,9.8066,0.0218,0.0006,-0.0147,9.0,-32.69,14.63,156.43,-88.97,-55.3
20744,52.424946,-1.443715,130.65,4.81,6,330.42,20 / 21,2550807,2019-09-04 20:49:02:920,0.2981,0.1719,10.2001,-0.0074,-0.0116,9.8066,0.0271,-0.0036,0.0136,9.25,-31.94,14.94,147.15,-89.14,-64.66
20745,52.424946,-1.443715,130.65,4.81,6,330.42,20 / 21,2550908,2019-09-04 20:49:03:021,-0.3087,0.3914,10.0741,-0.0029,-0.0033,9.8066,0.0047,-0.0018,-0.0019,8.81,-32.25,14.94,138.35,-89.17,-73.62
20746,52.424946,-1.443715,130.65,4.81,6,330.42,20 / 21,2551007,2019-09-04 20:49:03:120,-0.081,-0.1055,9.5281,0.0026,-0.0017,9.8066,-0.011,-0.0015,0.0075,9.0,-32.44,15.5,136.28,-89.22,-74.01
20747,52.424946,-1.443715,130.65,4.81,6,330.42,20 / 21,2551107,2019-09-04 20:49:03:220,0.2567,0.4414,9.2685,0.0026,0.0041,9.8066,-0.018,0.0045,0.0152,8.5,-32.44,15.81,139.45,-89.2,-70.81
20748,52.424946,-1.443715,130.65,4.81,6,330.42,20 / 21,2551208,2019-09-04 20:49:03:321,-0.2148,0.3728,10.0509,0.0032,0.0073,9.8066,-0.0219,-0.0024,0.002,8.56,-32.37,15.38,147.22,-89.14,-64.6
20749,52.424946,-1.443715,130.65,4.81,6,330.42,20 / 21,2551307,2019-09-04 20:49:03:420,-0.0333,0.2463,9.9031,0.0022,-0.0032,9.8066,0.008,-0.0079,-0.0039,9.06,-33.12,15.63,148.39,-89.14,-61.78
20750,52.424644,-1.444496,128.52,11.48,6,225.25,21 / 21,2551407,2019-09-04 20:49:03:520,0.2196,0.5381,9.7343,-0.0016,-0.0072,9.8066,0.0184,-0.0046,0.0029,8.88,-31.94,15.69,144.76,-89.22,-65.37
20751,52.424644,-1.444496,128.52,11.48,6,225.25,21 / 21,2551508,2019-09-04 20:49:03:621,-0.0357,0.5706,10.4061,-0.0039,-0.0097,9.8066,0.0208,-0.0091,-0.004,9.38,-32.06,15.19,137.51,-89.26,-74.36
