,GPS LATITUDE (degrees), GPS LONGITUDE (degrees), GPS ALTITUDE (m), GPS SPEED (Kmh), GPS ACCURACY (m), GPS ORIENTATION (Â°),GPS SATELLITES IN RANGE, TIME SINCE START (ms), DATE (YYYY-MO-DD HH-MI-SS_SSS), ACCELEROMETER X (m/s²) , ACCELEROMETER Y (m/s²), ACCELEROMETER Z (m/s²), GRAVITY X (m/s²), GRAVITY Y (m/s²), GRAVITY Z (m/s²), GYROSCOPE Yaw (rad/s), GYROSCOPE Pitch (rad/s), GYROSCOPE Roll (rad/s), MAGNETIC FIELD X (Î¼T), MAGNETIC FIELD Y (Î¼T), MAGNETIC FIELD Z (Î¼T), ORIENTATION (Yaw) (Â°), ORIENTATION (Pitch) (Â°), ORIENTATION (Roll ) (Â°)
35942,52.95316,-1.275528,158.21,6.66,6,199.81,22 / 23,5066814,2019-11-06 17:30:47:276,-0.1179,-0.2216,9.9123,-0.0011,0.0074,9.8066,0.0158,-0.0031,-0.0192,-6.31,-34.37,28.31,171.72,-83.8,2.8
35943,52.95316,-1.275528,158.21,6.66,6,199.81,22 / 22,5066913,2019-11-06 17:30:47:375,-0.1505,-0.3598,9.7785,-0.0047,0.0018,9.8066,0.0014,0.0062,-0.0249,-5.25,-34.69,27.69,173.65,-83.79,2.97
35944,52.95316,-1.275528,158.21,6.66,6,199.81,22 / 22,5067014,2019-11-06 17:30:47:476,-0.1852,-0.783,9.7726,0.0075,0.0015,9.8066,-0.0068,-0.0278,0.035,-4.69,-34.94,27.56,173.57,-83.78,2.88
35945,52.95316,-1.275528,158.21,6.66,6,199.81,22 / 22,5067114,2019-11-06 17:30:47:576,0.0126,-0.7255,9.8971,-0.0037,-0.0017,9.8066,-0.0178,0.0269,-0.0217,-4.19,-34.69,27.31,174.5,-83.77,2.19
35946,52.95316,-1.275528,158.21,6.66,6,199.81,22 / 22,5067213,2019-11-06 17:30:47:675,-0.1001,-0.5725,9.6954,0.008,-0.0004,9.8066,-0.0083,-0.0228,0.0243,-3.37,-35.0,27.13,176.67,-83.73,2.56
35947,52.95316,-1.275528,158.21,6.66,6,199.81,22 / 22,5067313,2019-11-06 17:30:47:775,0.0149,-0.8415,9.6455,0.004,0.0025,9.8066,-0.0079,0.005,0.0178,-3.81,-35.19,26.5,174.55,-83.72,2.25
35948,52.95316,-1.275528,158.21,6.66,6,199.81,22 / 22,5067413,2019-11-06 17:30:47:875,-0.2056,-0.9276,9.9155,0.0024,0.0029,9.8066,0.0134,-0.0268,-0.0066,-2.87,-35.0,26.94,176.59,-83.69,2.47
35949,52.95316,-1.275528,158.21,6.66,6,199.81,22 / 22,5067514,2019-11-06 17:30:47:976,-0.0358,-0.7596,9.8334,-0.0006,0.0059,9.8066,0.0011,0.0071,-0.0126,-3.37,-35.19,27.56,176.89,-83.69,2.6
35950,52.95316,-1.275528,158.21,6.66,6,199.81,22 / 22,5067614,2019-11-06 17:30:48:076,-0.297,-0.4731,9.9496,0.0068,0.0039,9.8066,-0.0042,-0.0233,0.0246,-2.5,-34.69,27.88,178.83,-83.62,2.76
35951,52.95316,-1.275528,158.21,6.66,6,199.81,22 / 22,5067714,2019-11-06 17:30:48:176,0.1199,-0.6505,9.7156,0.0005,0.0023,9.8066,-0.0212,0.0194,0.0101,-2.31,-34.75,28.25,178.67,-83.57,2.57
35952,52.95316,-1.275528,158.21,6.66,6,199.81,22 / 22,5067814,2019-11-06 17:30:48:276,-0.3057,-0.6591,9.9616,-0.001,0.0081,9.8066,-0.001,-0.0112,0.0134,-2.5,-34.31,29.19,178.62,-83.5,2.39
35953,52.95316,-1.275528,158.21,6.66,6,199.81,21 / 22,5067914,2019-11-06 17:30:48:376,0.0185,-0.9303,9.8497,-0.0037,0.0001,9.8066,0.0089,0.0169,-0.0056,-2.12,-34.56,29.31,178.42,-83.46,2.16
35954,52.95316,-1.275528,158.21,6.66,6,199.81,21 / 22,5068013,2019-11-06 17:30:48:475,-0.1704,-0.6193,9.76,0.0025,-0.0012,9.8066,-0.005,0.0066,0.0219,-2.37,-34.37,29.5,178.27,-83.48,1.87
35955,52.95316,-1.275528,158.21,6.66,6,199.81,21 / 22,5068113,2019-11-06 17:30:48:575,0.0665,-0.8307,9.7758,-0.0031,-0.0048,9.8066,0.0039,0.0307,-0.0042,-2.0,-35.44,30.19,178.02,-83.47,1.59
35956,52.95316,-1.275528,158.21,6.66,6,199.81,21 / 22,5068214,2019-11-06 17:30:48:676,-0.206,-0.7731,9.8982,-0.0003,-0.0031,9.8066,-0.0029,0.0019,-0.0024,-2.37,-34.87,30.56,177.92,-83.54,1.36
35957,52.95316,-1.275528,158.21,6.66,6,199.81,21 / 22,5068314,2019-11-06 17:30:48:776,-0.2933,-0.4557,9.7842,-0.0038,0.0022,9.8066,-0.0132,0.0367,-0.0198,-3.5,-35.25,30.19,175.96,-83.52,1.17
35958,52.95316,-1.275528,158.21,6.66,6,199.81,21 / 22,5068413,2019-11-06 17:30:48:875,-0.5793,-0.5658,9.9177,0.0049,0.005,9.8066,-0.0044,0.0058,0.0151,-3.81,-35.94,30.13,174.42,-83.48,1.3
35959,52.95316,-1.275528,158.21,6.66,6,199.81,21 / 22,5068514,2019-11-06 17:30:48:976,-0.0243,-0.9141,9.9662,-0.0075,-0.002,9.8066,-0.0141,0.0524,-0.0489,-3.5,-36.5,30.0,176.16,-83.46,1.37
35960,52.95316,-1.275528,158.21,6.66,6,199.81,21 / 22,5068614,2019-11-06 17:30:49:076,0.1213,-0.5653,9.662,0.0084,-0.0002,9.8066,-0.0083,-0.0035,0.0285,-3.62,-36.37,29.5,174.69,-83.44,1.6
35961,52.95316,-1.275528,158.21,6.66,6,199.81,21 / 22,5068713,2019-11-06 17:30:49:175,0.3234,-0.8796,9.8263,-0.0041,-0.001,9.8066,-0.009,0.068,-0.0147,-3.81,-36.56,29.63,174.52,-83.43,1.38
35962,52.95316,-1.275528,158.21,6.66,6,199.81,21 / 22,5068814,2019-11-06 17:30:49:276,-0.143,-0.9178,9.8543,0.002,-0.0005,9.8066,0.0076,-0.0051,-0.0003,-3.81,-36.25,30.0,174.56,-83.43,1.45
35963,52.95316,-1.275528,158.21,6.66,6,199.81,22 / 22,5068914,2019-11-06 17:30:49:376,-0.2937,-1.0958,9.8063,-0.0034,-0.0034,9.8066,-0.0001,0.0498,-0.0007,-4.19,-36.94,30.13,174.35,-83.46,1.19
35964,52.95316,-1.275528,158.21,6.66,6,199.81,22 / 22,5069014,2019-11-06 17:30:49:476,-0.3333,-1.2253,9.9341,-0.0037,-0.0027,9.8066,0.0264,-0.0005,-0.0279,-4.06,-36.62,30.38,174.26,-83.51,1.1
35965,52.95316,-1.275528,158.21,6.66,6,199.81,22 / 22,5069113,2019-11-06 17:30:49:575,0.219,-1.4817,9.8125,-0.0064,0.0013,9.8066,-0.0109,0.0587,-0.0413,-3.87,-36.69,30.19,174.51,-83.51,1.38
35966,52.95316,-1.275528,158.21,6.66,6,199.81,22 / 22,5069214,2019-11-06 17:30:49:676,0.2733,-1.0534,9.696,0.0061,-0.0041,9.8066,-0.0072,0.0181,0.0109,-3.75,-36.44,30.25,174.47,-83.52,1.36
35967,52.95316,-1.275528,158.21,6.66,6,199.81,22 / 22,5069314,2019-11-06 17:30:49:776,0.1676,-0.9965,9.6545,-0.0069,-0.0004,9.8065,-0.0191,0.0506,-0.0275,-3.0,-36.25,29.94,176.05,-83.5,1.25
35968,52.95316,-1.275528,158.21,6.66,6,199.81,22 / 22,5069413,2019-11-06 17:30:49:875,0.2764,-1.6468,9.6972,-0.0033,0.0034,9.8066,0.006,0.0207,-0.006,-3.37,-36.75,29.88,175.79,-83.46,0.94
35969,52.95316,-1.275528,158.21,6.66,6,199.81,22 / 22,5069514,2019-11-06 17:30:49:976,-0.4004,-1.0021,9.941,-0.0066,0.0016,9.8066,-0.0034,0.0371,-0.009,-2.69,-37.06,30.56,175.51,-83.43,0.46
35970,52.95316,-1.275528,158.21,6.66,6,199.81,22 / 22,5069614,2019-11-06 17:30:50:076,0.102,-1.266,9.6845,-0.0064,-0.0027,9.8066,-0.0028,0.0384,-0.0204,-3.19,-37.12,29.88,175.31,-83.44,0.4
35971,52.95316,-1.275528,158.21,6.66,6,199.81,22 / 22,5069714,2019-11-06 17:30:50:176,-0.3343,-0.8752,9.8752,-0.004,-0.0007,9.8066,-0.0098,0.0117,-0.0204,-3.44,-36.69,29.88,175.39,-83.45,0.48
35972,52.95316,-1.275528,158.21,6.66,6,199.81,22 / 22,5069813,2019-11-06 17:30:50:275,0.1372,-1.2412,9.7199,-0.0013,-0.0023,9.8065,-0.0084,0.0238,-0.0014,-3.5,-36.69,29.63,175.31,-83.43,0.39
35973,52.95316,-1.275528,158.21,6.66,6,199.81,21 / 21,5069914,2019-11-06 17:30:50:376,0.0405,-1.1364,9.8188,-0.0016,0.0008,9.8066,-0.0066,-0.0085,-0.0201,-4.0,-37.06,28.56,173.4,-83.45,0.34
35974,52.95316,-1.275528,158.21,6.66,6,199.81,21 / 21,5070013,2019-11-06 17:30:50:475,-0.1279,-0.8139,9.9438,-0.0012,0.0038,9.8066,-0.0111,0.0098,0.0006,-3.31,-36.5,29.44,175.16,-83.39,0.41
35975,52.95316,-1.275528,158.21,6.66,6,199.81,21 / 21,5070113,2019-11-06 17:30:50:575,-0.1826,-0.9936,9.9125,-0.0012,-0.0017,9.8065,0.0074,0.0149,-0.007,-3.37,-36.37,29.13,175.13,-83.39,0.38
35976,52.95316,-1.275528,158.21,6.66,6,199.81,21 / 21,5070213,2019-11-06 17:30:50:675,0.0042,-1.5135,9.4868,-0.002,-0.0035,9.8066,0.0034,0.0132,-0.0061,-3.06,-36.44,29.13,175.1,-83.44,0.35
35977,52.95316,-1.275528,158.21,6.66,6,199.81,21 / 21,5070313,2019-11-06 17:30:50:775,-0.1482,-0.8904,9.7831,0.0,-0.0005,9.8066,-0.0029,-0.0127,0.0169,-2.81,-36.69,28.81,175.05,-83.49,0.28
35978,52.95316,-1.275528,158.21,6.66,6,199.81,21 / 21,5070413,2019-11-06 17:30:50:875,-0.063,-1.2172,9.741,-0.0051,-0.0014,9.8066,0.0059,0.0064,-0.0106,-2.69,-36.75,29.06,174.68,-83.5,-0.14
35979,52.95316,-1.275528,158.21,6.66,6,199.81,21 / 21,5070513,2019-11-06 17:30:50:975,-0.009,-0.8688,9.7205,-0.0011,0.0006,9.8066,-0.0073,-0.0049,-0.0128,-3.44,-36.37,29.19,174.67,-83.54,-0.13
35980,52.95316,-1.275528,158.21,6.66,6,199.81,21 / 21,5070613,2019-11-06 17:30:51:075,-0.2158,-1.2058,9.9035,0.0025,0.0054,9.8066,-0.0024,-0.0219,0.0071,-3.62,-37.06,29.38,173.04,-83.53,-0.05
35981,52.95316,-1.275528,158.21,6.66,6,199.81,21 / 21,5070713,2019-11-06 17:30:51:175,0.0775,-0.7637,9.7844,0.0047,0.0011,9.8065,-0.0143,-0.0277,0.0034,-4.0,-36.81,28.63,173.05,-83.53,-0.04
35982,52.95316,-1.275528,158.21,6.66,6,199.81,21 / 21,5070813,2019-11-06 17:30:51:275,0.0232,-0.902,9.8281,0.0008,0.0019,9.8066,-0.0031,-0.0095,0.0077,-4.06,-37.12,28.38,172.97,-83.5,0.11
35983,52.95316,-1.275528,158.21,6.66,6,199.81,21 / 22,5070913,2019-11-06 17:30:51:375,0.1524,-0.9496,9.8184,0.0013,0.0053,9.8066,-0.0034,-0.0183,0.0071,-4.12,-36.87,28.75,173.12,-83.47,0.03
35984,52.95316,-1.275528,158.21,6.66,6,199.81,21 / 22,5071013,2019-11-06 17:30:51:475,-0.2056,-1.0033,10.0342,-0.0002,0.0023,9.8066,0.0308,-0.0084,-0.0016,-4.56,-37.19,29.0,171.28,-83.47,-0.12
35985,52.95316,-1.275528,158.21,6.66,6,199.81,21 / 22,5071113,2019-11-06 17:30:51:575,-0.0388,-0.9088,9.7955,0.0009,0.0,9.8066,0.0004,-0.0119,-0.0186,-3.87,-36.56,29.25,173.01,-83.51,-0.09
35986,52.95316,-1.275528,158.21,6.66,6,199.81,21 / 22,5071214,2019-11-06 17:30:51:676,0.041,-1.4019,9.866,0.006,0.0008,9.8066,-0.0229,-0.0139,0.0308,-3.94,-36.87,29.88,173.5,-83.49,0.24
35987,52.95316,-1.275528,158.21,6.66,6,199.81,21 / 22,5071313,2019-11-06 17:30:51:775,0.1268,-0.8589,9.7462,0.0068,-0.0025,9.8065,0.007,-0.0017,0.0193,-3.37,-37.31,29.13,174.82,-83.53,0.02
35988,52.95316,-1.275528,158.21,6.66,6,199.81,21 / 22,5071413,2019-11-06 17:30:51:875,0.0625,-1.7561,9.9282,0.0023,0.0006,9.8066,0.0195,-0.0278,-0.004,-3.69,-37.44,28.94,173.37,-83.6,0.33
35989,52.95316,-1.275528,158.21,6.66,6,199.81,21 / 22,5071513,2019-11-06 17:30:51:975,0.4034,-1.2244,9.7819,-0.0058,0.001,9.8066,0.0012,0.0267,-0.0167,-3.44,-37.31,29.06,174.92,-83.61,0.14
35990,52.95316,-1.275528,158.21,6.66,6,199.81,21 / 22,5071613,2019-11-06 17:30:52:075,-0.4386,-1.8799,9.6129,0.0071,0.0042,9.8066,-0.0169,-0.0473,0.044,-3.87,-37.0,29.25,173.14,-83.6,0.07
35991,52.95316,-1.275528,158.21,6.66,6,199.81,21 / 22,5071713,2019-11-06 17:30:52:175,0.0038,-1.6552,9.793,0.0026,-0.0021,9.8066,-0.0028,0.0212,0.0164,-3.62,-36.69,28.75,172.77,-83.62,-0.34
35992,52.95316,-1.275528,158.21,6.66,6,199.81,21 / 22,5071813,2019-11-06 17:30:52:275,-0.2853,-2.3239,9.5927,0.0002,-0.0046,9.8066,0.0358,-0.032,-0.0205,-4.31,-36.62,29.13,172.7,-83.71,-0.42
35993,52.95316,-1.275528,158.21,6.66,6,199.81,21 / 22,5071914,2019-11-06 17:30:52:376,0.7026,-2.8628,9.7017,-0.0022,-0.0043,9.8066,0.0255,0.041,-0.0401,-4.5,-37.31,29.13,172.89,-83.85,-0.17
35994,52.95316,-1.275528,158.21,6.66,6,199.81,21 / 22,5072014,2019-11-06 17:30:52:476,0.2206,-2.6392,9.3633,0.0057,-0.0144,9.8066,0.0057,-0.0076,0.0113,-4.12,-36.44,29.81,173.41,-84.01,0.22
35995,52.95316,-1.275528,158.21,6.66,6,199.81,21 / 22,5072114,2019-11-06 17:30:52:576,-0.0564,-2.6934,9.6586,-0.0044,-0.0043,9.8066,-0.0099,0.0441,-0.0253,-3.94,-36.69,29.25,173.1,-84.05,0.08
35996,52.95316,-1.275528,158.21,6.66,6,199.81,21 / 22,5072213,2019-11-06 17:30:52:675,0.0535,-1.6216,9.9346,0.0003,0.0002,9.8066,-0.0266,0.0199,0.0068,-3.12,-36.44,30.0,174.89,-84.07,0.0
35997,52.95316,-1.275528,158.21,6.66,6,199.81,21 / 22,5072314,2019-11-06 17:30:52:776,-0.1454,-2.2885,9.6857,0.0015,-0.0002,9.8066,0.0041,0.0151,-0.0111,-2.69,-36.56,29.44,174.77,-84.02,0.01
35998,52.95316,-1.275528,158.21,6.66,6,199.81,21 / 22,5072414,2019-11-06 17:30:52:876,0.4003,-2.059,9.6117,0.0011,-0.0102,9.8066,0.0173,0.0378,-0.0181,-3.37,-37.12,29.81,175.36,-84.12,0.51
35999,52.95316,-1.275528,158.21,6.66,6,199.81,21 / 22,5072513,2019-11-06 17:30:52:975,-0.2043,-0.5805,9.9026,-0.005,-0.01,9.8066,-0.027,0.0298,-0.0016,-3.87,-36.44,29.69,173.32,-84.33,0.16
36000,52.95316,-1.275528,158.21,6.66,6,199.81,21 / 22,5072613,2019-11-06 17:30:53:075,0.3737,-2.2528,9.6321,-0.0016,-0.0003,9.8066,-0.0016,0.0427,-0.0095,-3.81,-36.0,29.56,173.32,-84.32,0.17
36001,52.95316,-1.275528,158.21,6.66,6,199.81,21 / 22,5072714,2019-11-06 17:30:53:176,-0.2824,-1.3375,9.7162,-0.0051,-0.0016,9.8066,0.0,0.0253,-0.0079,-3.0,-36.62,30.13,175.08,-84.29,0.22
36002,52.95316,-1.275528,158.21,6.66,6,199.81,21 / 22,5072813,2019-11-06 17:30:53:275,-0.2268,-0.4047,9.8511,-0.0011,-0.0041,9.8066,-0.036,0.0242,-0.0188,-2.87,-36.87,29.19,174.81,-84.33,0.09
36003,52.95298,-1.275636,157.58,1.86,6,199.35,23 / 23,5072913,2019-11-06 17:30:53:375,0.0197,-0.8368,10.0172,0.0031,-0.0062,9.8066,0.0287,0.0103,-0.0173,-3.0,-36.62,29.13,175.14,-84.28,0.46
36004,52.95298,-1.275636,157.58,1.86,6,199.35,23 / 23,5073014,2019-11-06 17:30:53:476,0.0909,-0.4378,9.8785,0.0073,-0.001,9.8066,-0.0089,-0.0369,0.0073,-3.06,-36.69,29.06,175.63,-84.35,1.01
36005,52.95298,-1.275636,157.58,1.86,6,199.35,23 / 23,5073114,2019-11-06 17:30:53:576,0.5904,-0.9663,9.7568,-0.0051,0.0006,9.8066,-0.019,0.0262,0.0005,-3.5,-36.44,29.25,175.38,-84.3,0.75
36006,52.95298,-1.275636,157.58,1.86,6,199.35,23 / 23,5073213,2019-11-06 17:30:53:675,0.3508,-1.3156,9.6733,-0.0044,-0.0005,9.8066,-0.0096,-0.0723,0.0243,-3.12,-37.06,29.13,175.31,-84.27,0.64
36007,52.95298,-1.275636,157.58,1.86,6,199.35,23 / 23,5073313,2019-11-06 17:30:53:775,-0.397,-0.9644,10.0271,-0.0116,0.0026,9.8066,-0.0265,-0.034,0.0338,-3.94,-36.44,29.31,173.09,-84.18,0.12
36008,52.95298,-1.275636,157.58,1.86,6,199.35,23 / 23,5073413,2019-11-06 17:30:53:875,0.0682,-1.1081,9.8051,0.0023,-0.0168,9.8065,-0.0009,-0.0193,0.0066,-3.12,-36.75,28.94,174.46,-84.28,-0.31
36009,52.95298,-1.275636,157.58,1.86,6,199.35,23 / 23,5073513,2019-11-06 17:30:53:975,-0.2478,-1.4535,9.8442,0.0015,-0.0122,9.8066,0.0049,-0.0233,0.0083,-3.87,-37.06,28.94,172.61,-84.3,-0.42
36010,52.95298,-1.275636,157.58,1.86,6,199.35,23 / 23,5073613,2019-11-06 17:30:54:075,0.1189,-1.1058,9.7575,-0.0025,-0.0084,9.8066,0.0087,0.0084,0.003,-3.56,-36.31,28.88,172.51,-84.38,-0.5
36011,52.95298,-1.275636,157.58,1.86,6,199.35,23 / 23,5073713,2019-11-06 17:30:54:175,0.0906,-1.2875,9.7745,0.0013,0.001,9.8066,-0.0109,-0.0032,-0.0021,-4.19,-36.87,29.56,172.94,-84.47,-0.26
36012,52.95298,-1.275636,157.58,1.86,6,199.35,23 / 23,5073813,2019-11-06 17:30:54:275,0.0918,-0.6854,9.8381,-0.0022,-0.012,9.8066,-0.0139,0.0215,0.0031,-3.56,-36.87,28.94,172.84,-84.59,-0.12
36013,52.95298,-1.275636,157.58,1.86,6,199.35,22 / 22,5073916,2019-11-06 17:30:54:378,-0.0898,-0.1355,9.9284,0.002,-0.002,9.8066,-0.017,-0.0272,0.0038,-3.62,-36.44,29.06,172.9,-84.6,-0.04
36014,52.95298,-1.275636,157.58,1.86,6,199.35,22 / 22,5074013,2019-11-06 17:30:54:475,0.1094,-0.2872,10.0445,-0.0044,-0.0068,9.8066,0.0059,0.0107,0.0017,-4.0,-36.87,29.38,172.91,-84.63,-0.04
36015,52.95298,-1.275636,157.58,1.86,6,199.35,22 / 22,5074114,2019-11-06 17:30:54:576,-0.1145,-0.9063,9.8691,0.0008,-0.0061,9.8066,-0.0173,-0.0203,0.0042,-4.06,-37.19,29.0,173.03,-84.7,0.1
36016,52.95298,-1.275636,157.58,1.86,6,199.35,22 / 22,5074214,2019-11-06 17:30:54:676,0.0263,0.1121,9.8507,-0.0067,-0.0152,9.8066,0.0237,0.0091,0.0245,-3.75,-36.62,28.69,172.47,-84.87,-0.49
36017,52.95298,-1.275636,157.58,1.86,6,199.35,22 / 22,5074313,2019-11-06 17:30:54:775,-0.1723,-0.6018,9.668,0.0022,-0.004,9.8066,0.0062,0.0091,-0.0339,-3.56,-36.75,29.25,172.71,-84.89,-0.22
36018,52.95298,-1.275636,157.58,1.86,6,199.35,22 / 22,5074414,2019-11-06 17:30:54:876,0.1094,-0.5949,9.8636,-0.0066,-0.0005,9.8065,0.0183,0.053,-0.0326,-3.44,-36.44,29.38,173.42,-84.94,-1.36
36019,52.95298,-1.275636,157.58,1.86,6,199.35,22 / 22,5074515,2019-11-06 17:30:54:977,0.0798,-1.1772,9.6619,-0.0002,-0.0078,9.8066,0.0006,0.0434,0.0091,-3.81,-37.37,29.19,171.86,-85.04,-1.15
36020,52.95298,-1.275636,157.58,1.86,6,199.35,22 / 22,5074613,2019-11-06 17:30:55:075,0.4125,-0.7219,9.4556,0.0041,-0.0036,9.8066,-0.0379,0.0382,-0.032,-4.37,-36.87,28.88,171.97,-85.2,-1.0
36021,52.95298,-1.275636,157.58,1.86,6,199.35,22 / 22,5074713,2019-11-06 17:30:55:175,0.1438,-1.15,10.062,-0.0001,-0.0057,9.8066,0.03,0.0379,0.0038,-4.25,-36.87,29.31,171.95,-85.31,-1.0
36022,52.95298,-1.275636,157.58,1.86,6,199.35,22 / 22,5074813,2019-11-06 17:30:55:275,-0.2973,-0.5427,9.7451,0.0114,-0.0004,9.8066,0.0255,0.0354,-0.0563,-4.31,-36.69,29.38,172.5,-85.35,-0.39
36023,52.95298,-1.275636,157.58,1.86,6,199.35,22 / 22,5074913,2019-11-06 17:30:55:375,-0.1379,-0.8142,9.8895,0.0011,-0.0026,9.8066,-0.0194,0.0324,0.0477,-4.06,-36.69,29.88,171.84,-85.41,-1.34
36024,52.95298,-1.275636,157.58,1.86,6,199.35,22 / 22,5075013,2019-11-06 17:30:55:475,-0.3108,-1.2309,9.9425,-0.0001,0.001,9.8066,-0.028,0.0017,0.0533,-3.94,-36.75,29.19,172.03,-85.45,-0.89
36025,52.95298,-1.275636,157.58,1.86,6,199.35,22 / 22,5075114,2019-11-06 17:30:55:576,0.1039,-0.826,9.764,-0.0018,0.0003,9.8066,0.0058,0.0256,-0.0318,-4.25,-36.81,29.25,171.76,-85.55,-1.17
36026,52.95298,-1.275636,157.58,1.86,6,199.35,22 / 22,5075214,2019-11-06 17:30:55:676,-0.2063,-0.9922,10.0827,0.0046,-0.006,9.8066,0.0419,-0.0048,-0.0024,-4.12,-37.0,29.44,171.49,-85.57,-1.45
36027,52.95298,-1.275636,157.58,1.86,6,199.35,22 / 22,5075314,2019-11-06 17:30:55:776,-0.0943,-0.1726,9.671,0.0038,-0.0101,9.8066,0.0019,0.0054,-0.0075,-4.0,-36.94,28.81,171.66,-85.62,-1.26
36028,52.95298,-1.275636,157.58,1.86,6,199.35,22 / 22,5075413,2019-11-06 17:30:55:875,0.191,-1.3849,9.905,-0.0068,-0.0034,9.8066,-0.016,0.0039,0.0096,-3.69,-37.31,29.75,171.45,-85.76,-1.71
36029,52.95298,-1.275636,157.58,1.86,6,199.35,22 / 22,5075513,2019-11-06 17:30:55:975,0.1676,-0.6965,9.7587,0.0022,-0.0077,9.8066,0.0038,0.0113,-0.0177,-4.94,-37.37,28.63,170.45,-85.87,-0.61
36030,52.95298,-1.275636,157.58,1.86,6,199.35,22 / 22,5075613,2019-11-06 17:30:56:075,0.1763,-0.337,10.0288,0.0033,-0.0063,9.8066,-0.0095,-0.005,-0.0228,-4.62,-37.0,29.06,170.19,-85.89,-0.88
36031,52.95298,-1.275636,157.58,1.86,6,199.35,22 / 22,5075713,2019-11-06 17:30:56:175,-0.2935,-0.5717,9.8159,-0.0094,-0.0043,9.8066,-0.0031,-0.0205,0.0437,-4.56,-37.25,28.88,170.23,-85.96,-0.82
36032,52.95298,-1.275636,157.58,1.86,6,199.35,22 / 22,5075814,2019-11-06 17:30:56:276,-0.0374,-0.3135,9.8391,-0.0006,-0.0014,9.8066,-0.0024,0.0108,0.0073,-3.94,-36.75,28.81,171.59,-86.07,-1.26
36033,52.95298,-1.275636,157.58,1.86,6,199.35,23 / 23,5075914,2019-11-06 17:30:56:376,-0.376,-0.2519,9.9066,0.0038,-0.0035,9.8066,0.0065,-0.0087,0.001,-4.75,-37.12,28.31,168.52,-86.03,-2.36
36034,52.95298,-1.275636,157.58,1.86,6,199.35,23 / 23,5076014,2019-11-06 17:30:56:476,-0.1765,-0.1402,10.184,-0.0006,-0.0081,9.8066,-0.003,0.0275,0.0055,-5.0,-36.75,29.0,169.27,-86.09,-1.84
36035,52.95298,-1.275636,157.58,1.86,6,199.35,23 / 23,5076113,2019-11-06 17:30:56:575,0.3537,-0.8082,9.4802,0.0082,-0.006,9.8066,-0.0172,0.0252,-0.0243,-5.75,-37.62,29.31,167.55,-86.09,-1.81
36036,52.95298,-1.275636,157.58,1.86,6,199.35,23 / 23,5076213,2019-11-06 17:30:56:675,-0.1287,-0.3183,10.0383,-0.0034,0.0016,9.8066,-0.0522,0.0277,-0.004,-4.75,-36.81,29.25,169.17,-86.11,-1.95
36037,52.95298,-1.275636,157.58,1.86,6,199.35,23 / 23,5076313,2019-11-06 17:30:56:775,0.5038,-1.0151,9.9631,-0.0069,0.0024,9.8066,0.0002,0.0295,0.0034,-4.31,-36.94,29.13,171.34,-86.17,-1.51
36038,52.95298,-1.275636,157.58,1.86,6,199.35,23 / 23,5076414,2019-11-06 17:30:56:876,-0.4542,-0.2656,9.7338,0.0033,-0.0038,9.8065,0.0134,0.0109,-0.0279,-4.5,-37.5,29.63,170.47,-86.2,-2.68
36039,52.95298,-1.275636,157.58,1.86,6,199.35,23 / 23,5076513,2019-11-06 17:30:56:975,-0.23,-0.6143,10.0227,0.0011,-0.0082,9.8066,0.0386,0.0027,0.0016,-4.0,-37.06,28.94,169.4,-86.26,-3.59
36040,52.95298,-1.275636,157.58,1.86,6,199.35,23 / 23,5076614,2019-11-06 17:30:57:076,0.2649,-0.82,9.8772,-0.0002,0.0013,9.8066,-0.0031,-0.0093,-0.0191,-4.5,-37.0,29.25,169.31,-86.22,-3.7
36041,52.95298,-1.275636,157.58,1.86,6,199.35,23 / 23,5076717,2019-11-06 17:30:57:179,-0.1409,-0.6224,9.8364,-0.0012,-0.0015,9.8066,-0.0096,0.0112,0.017,-4.06,-37.5,29.13,169.64,-86.3,-3.33
36042,52.95298,-1.275636,157.58,1.86,6,199.35,23 / 23,5076813,2019-11-06 17:30:57:275,0.2198,-0.5647,9.7809,0.0063,-0.0017,9.8066,-0.008,-0.0033,-0.0085,-4.31,-37.06,29.0,170.59,-86.32,-2.3
36043,52.95298,-1.275636,157.58,1.86,6,199.35,21 / 22,5076917,2019-11-06 17:30:57:379,0.0092,-0.6305,9.9252,-0.0046,0.0061,9.8066,0.0019,0.0128,0.022,-4.37,-37.0,29.19,169.62,-86.36,-3.34
36044,52.95298,-1.275636,157.58,1.86,6,199.35,21 / 22,5077013,2019-11-06 17:30:57:475,-0.21,-0.5576,10.0818,0.0054,-0.0012,9.8066,0.0223,0.0379,-0.0127,-4.12,-37.0,29.06,170.21,-86.35,-2.7
36045,52.95298,-1.275636,157.58,1.86,6,199.35,21 / 22,5077114,2019-11-06 17:30:57:576,0.4003,-0.6029,9.6125,0.0094,-0.003,9.8066,-0.0156,0.0375,-0.0273,-4.56,-37.19,29.13,167.58,-86.34,-3.6
36046,52.95298,-1.275636,157.58,1.86,6,199.35,21 / 22,5077214,2019-11-06 17:30:57:676,-0.2816,-0.1309,9.7494,0.0007,-0.0084,9.8066,-0.0106,0.0084,0.0031,-4.87,-37.62,29.19,167.44,-86.41,-3.76
36047,52.95298,-1.275636,157.58,1.86,6,199.35,21 / 22,5077313,2019-11-06 17:30:57:775,0.3468,-0.4573,9.8853,0.0014,0.0007,9.8066,-0.0178,0.0307,-0.0357,-3.94,-37.06,29.38,169.87,-86.45,-3.05
36048,52.95298,-1.275636,157.58,1.86,6,199.35,21 / 22,5077413,2019-11-06 17:30:57:875,-0.388,-0.1417,9.988,0.0063,0.0001,9.8066,0.0104,-0.009,0.0022,-4.06,-36.62,29.31,169.54,-86.5,-3.39
36049,52.95298,-1.275636,157.58,1.86,6,199.35,21 / 22,5077513,2019-11-06 17:30:57:975,0.0259,-0.5107,9.9641,-0.0026,-0.0055,9.8066,0.022,0.0348,-0.0192,-4.69,-36.94,28.56,167.92,-86.54,-3.18
36050,52.95298,-1.275636,157.58,1.86,6,199.35,21 / 22,5077613,2019-11-06 17:30:58:075,-0.3649,-0.0197,10.005,0.0065,-0.0026,9.8066,-0.0111,0.0058,-0.012,-4.69,-37.06,29.19,167.39,-86.54,-3.75
36051,52.95298,-1.275636,157.58,1.86,6,199.35,21 / 22,5077714,2019-11-06 17:30:58:176,0.2162,-0.5292,9.8069,0.0021,-0.0037,9.8066,0.0014,0.0137,-0.0175,-4.5,-37.19,29.5,169.07,-86.54,-4.12
36052,52.95298,-1.275636,157.58,1.86,6,199.35,21 / 22,5077814,2019-11-06 17:30:58:276,-0.277,0.0546,9.66,0.0044,0.002,9.8066,0.0325,0.0063,-0.0083,-4.31,-37.25,29.0,168.89,-86.55,-4.07
36053,52.95298,-1.275636,157.58,1.86,6,199.35,22 / 22,5077913,2019-11-06 17:30:58:375,-0.055,-0.4181,9.9369,0.0039,0.0002,9.8066,-0.0196,0.0229,-0.016,-4.5,-37.37,29.31,168.08,-86.57,-4.94
36054,52.95298,-1.275636,157.58,1.86,6,199.35,22 / 22,5078013,2019-11-06 17:30:58:475,-0.1829,-0.0424,9.9092,0.0029,-0.0021,9.8066,-0.0138,0.0162,0.0279,-4.75,-36.25,28.94,166.52,-86.64,-4.64
36055,52.95298,-1.275636,157.58,1.86,6,199.35,22 / 22,5078114,2019-11-06 17:30:58:576,0.0973,-0.4053,9.9066,0.006,-0.0068,9.8066,0.0118,0.0084,-0.0471,-4.62,-36.94,29.31,166.16,-86.66,-5.04
36056,52.95298,-1.275636,157.58,1.86,6,199.35,22 / 22,5078214,2019-11-06 17:30:58:676,0.2076,-0.2327,9.7066,0.0021,-0.0102,9.8065,0.004,0.008,-0.0147,-4.62,-36.62,29.31,166.21,-86.77,-4.96
36057,52.95298,-1.275636,157.58,1.86,6,199.35,22 / 22,5078314,2019-11-06 17:30:58:776,-0.0246,-0.4518,9.715,-0.0024,0.0002,9.8066,-0.0357,-0.005,0.0115,-3.94,-37.12,29.44,167.76,-86.82,-5.22
36058,52.95298,-1.275636,157.58,1.86,6,199.35,22 / 22,5078414,2019-11-06 17:30:58:876,-0.1415,-0.5832,10.001,-0.0009,0.0003,9.8066,-0.0026,0.0398,-0.0104,-4.37,-37.12,29.5,167.4,-86.86,-5.82
36059,52.95298,-1.275636,157.58,1.86,6,199.35,22 / 22,5078513,2019-11-06 17:30:58:975,-0.0422,-0.1515,9.9428,0.0,-0.0008,9.8066,0.0047,0.039,-0.0162,-4.75,-37.19,29.44,165.63,-86.96,-5.51
36060,52.95298,-1.275636,157.58,1.86,6,199.35,22 / 22,5078613,2019-11-06 17:30:59:075,-0.1399,-0.0262,9.8823,0.0049,-0.0089,9.8066,0.001,0.0079,-0.0282,-4.0,-36.69,29.25,166.59,-87.01,-6.41
36061,52.95298,-1.275636,157.58,1.86,6,199.35,22 / 22,5078714,2019-11-06 17:30:59:176,0.2203,-0.6866,9.846,0.0009,-0.0089,9.8066,0.0054,0.0143,-0.0069,-5.0,-36.5,29.38,164.51,-87.05,-6.65
36062,52.95298,-1.275636,157.58,1.86,6,199.35,22 / 22,5078814,2019-11-06 17:30:59:276,0.0934,-0.6059,9.6435,0.001,-0.0001,9.8066,0.0091,-0.0091,-0.0296,-4.0,-36.87,29.63,165.72,-87.18,-7.52
36063,52.95298,-1.275636,157.58,1.86,6,199.35,22 / 22,5078914,2019-11-06 17:30:59:376,-0.2735,0.641,9.9765,-0.0077,-0.002,9.8066,0.0038,0.0249,0.0328,-4.5,-36.5,29.25,165.0,-87.25,-8.0
36064,52.95298,-1.275636,157.58,1.86,6,199.35,22 / 22,5079014,2019-11-06 17:30:59:476,0.1158,-0.6877,9.8842,0.0077,0.0016,9.8066,-0.0072,-0.0426,0.0093,-5.12,-37.12,29.06,163.6,-87.3,-7.56
36065,52.95298,-1.275636,157.58,1.86,6,199.35,22 / 22,5079114,2019-11-06 17:30:59:576,0.0182,-0.0337,9.8529,0.0028,-0.0041,9.8066,0.0019,-0.0106,-0.0132,-4.44,-36.25,29.0,164.26,-87.36,-8.75
36066,52.95298,-1.275636,157.58,1.86,6,199.35,22 / 22,5079213,2019-11-06 17:30:59:675,-0.1401,-0.276,9.761,-0.0022,-0.0036,9.8065,0.0155,-0.0508,0.0442,-4.31,-35.75,29.38,164.4,-87.38,-8.6
36067,52.95298,-1.275636,157.58,1.86,6,199.35,22 / 22,5079314,2019-11-06 17:30:59:776,-0.3259,-0.3429,9.7186,-0.0061,-0.0005,9.8066,-0.0098,-0.0008,-0.0298,-4.37,-36.31,29.56,165.2,-87.44,-7.97
36068,52.95298,-1.275636,157.58,1.86,6,199.35,22 / 22,5079414,2019-11-06 17:30:59:876,-0.0194,-0.3284,9.8052,0.0014,-0.0013,9.8066,0.0071,-0.0576,0.0198,-4.94,-36.37,29.56,162.88,-87.46,-8.52
36069,52.95298,-1.275636,157.58,1.86,6,199.35,22 / 22,5079514,2019-11-06 17:30:59:976,-0.0821,-0.0955,9.7618,-0.0085,-0.0072,9.8066,0.0077,-0.0315,0.0053,-4.94,-36.44,29.06,163.55,-87.45,-7.54
36070,52.95298,-1.275636,157.58,1.86,6,199.35,22 / 22,5079614,2019-11-06 17:31:00:076,0.3466,0.3781,9.9969,-0.0034,-0.0074,9.8066,-0.0224,-0.071,0.009,-4.69,-35.94,28.81,161.56,-87.5,-9.61
36071,52.95298,-1.275636,157.58,1.86,6,199.35,22 / 22,5079713,2019-11-06 17:31:00:175,-0.0676,-0.3551,9.9399,-0.018,0.0,9.8065,-0.008,-0.0849,0.0657,-3.69,-36.31,29.19,164.8,-87.49,-8.14
36072,52.95298,-1.275636,157.58,1.86,6,199.35,22 / 22,5079814,2019-11-06 17:31:00:276,0.3898,0.2202,9.6876,-0.0019,-0.0018,9.8066,0.009,-0.0144,-0.0013,-4.5,-36.19,29.81,164.13,-87.49,-9.08
36073,52.95298,-1.275636,157.58,1.86,6,199.35,22 / 22,5079915,2019-11-06 17:31:00:377,-0.3862,0.1214,10.0807,0.0028,-0.0012,9.8066,0.0086,-0.0714,0.0298,-4.12,-36.56,29.44,163.95,-87.44,-9.07
36074,52.95298,-1.275636,157.58,1.86,6,199.35,22 / 22,5080013,2019-11-06 17:31:00:475,0.3588,0.6681,9.9848,-0.0082,-0.0025,9.8066,-0.0185,0.005,0.0179,-5.06,-36.87,29.81,163.54,-87.44,-7.86
36075,52.95298,-1.275636,157.58,1.86,6,199.35,22 / 22,5080113,2019-11-06 17:31:00:575,-0.4233,-0.3667,9.605,-0.0032,0.0074,9.8066,-0.0367,-0.0745,0.027,-4.75,-36.12,29.69,163.82,-87.43,-7.55
36076,52.95298,-1.275636,157.58,1.86,6,199.35,22 / 22,5080214,2019-11-06 17:31:00:676,-0.0119,0.2259,9.9058,-0.0135,-0.0018,9.8066,-0.006,0.0404,-0.0014,-4.25,-36.25,29.88,164.52,-87.44,-8.68
36077,52.95298,-1.275636,157.58,1.86,6,199.35,22 / 22,5080313,2019-11-06 17:31:00:775,-0.6561,0.1493,9.994,0.0018,-0.0021,9.8066,0.0202,-0.0281,0.0013,-4.44,-35.81,29.94,164.64,-87.45,-8.55
36078,52.95298,-1.275636,157.58,1.86,6,199.35,22 / 22,5080414,2019-11-06 17:31:00:876,-0.0105,0.922,9.8256,-0.0035,-0.0053,9.8066,-0.0124,0.0619,-0.0482,-4.94,-36.62,29.5,162.12,-87.51,-9.34
36079,52.95298,-1.275636,157.58,1.86,6,199.35,22 / 22,5080514,2019-11-06 17:31:00:976,0.2664,0.719,9.81,0.0026,-0.0025,9.8066,-0.0101,0.016,0.0027,-4.69,-36.06,29.38,163.02,-87.5,-8.08
36080,52.95298,-1.275636,157.58,1.86,6,199.35,22 / 22,5080614,2019-11-06 17:31:01:076,0.3898,1.7237,9.8043,0.0013,0.008,9.8066,-0.024,0.0542,-0.0597,-4.0,-36.44,29.25,165.15,-87.46,-7.79
36081,52.95298,-1.275636,157.58,1.86,6,199.35,22 / 22,5080714,2019-11-06 17:31:01:176,-0.193,1.525,10.0025,0.0029,0.0109,9.8065,-0.0147,0.0101,0.0149,-4.62,-36.37,29.31,163.91,-87.41,-7.17
36082,52.95298,-1.275636,157.58,1.86,6,199.35,22 / 22,5080814,2019-11-06 17:31:01:276,-0.9243,1.8588,10.0287,-0.0039,0.01,9.8066,-0.0187,0.0823,-0.0354,-4.69,-36.12,29.44,163.18,-87.33,-7.97
36083,52.95298,-1.275636,157.58,1.86,6,199.35,21 / 22,5080914,2019-11-06 17:31:01:376,-0.6806,1.8606,10.1273,0.0091,0.0027,9.8066,0.0052,0.0461,-0.021,-3.94,-36.69,29.56,163.99,-87.27,-9.32
36084,52.95298,-1.275636,157.58,1.86,6,199.35,21 / 22,5081014,2019-11-06 17:31:01:476,-0.38,2.207,10.1712,0.0035,-0.0033,9.8066,-0.0104,0.0756,-0.0309,-4.75,-36.06,29.44,162.29,-87.26,-8.93
36085,52.95298,-1.275636,157.58,1.86,6,199.35,21 / 22,5081113,2019-11-06 17:31:01:575,0.3525,1.6804,9.7474,0.0065,0.0055,9.8066,-0.0329,0.0511,-0.0322,-5.12,-36.0,29.88,162.26,-87.24,-9.26
36086,52.95298,-1.275636,157.58,1.86,6,199.35,21 / 22,5081214,2019-11-06 17:31:01:676,-0.6786,1.7648,10.0986,0.0048,0.0042,9.8066,-0.0006,0.0344,-0.0106,-5.06,-36.06,29.38,162.1,-87.24,-9.13
36087,52.95298,-1.275636,157.58,1.86,6,199.35,21 / 22,5081314,2019-11-06 17:31:01:776,0.0789,1.6257,9.8696,0.0063,0.0003,9.8066,0.0122,0.0642,-0.0425,-4.75,-35.69,30.0,162.82,-87.23,-8.66
36088,52.95298,-1.275636,157.58,1.86,6,199.35,21 / 22,5081414,2019-11-06 17:31:01:876,-0.7086,1.1853,9.9479,0.0074,-0.0046,9.8066,-0.0026,0.0201,-0.0152,-4.62,-36.31,30.25,162.16,-87.25,-9.35
36089,52.95298,-1.275636,157.58,1.86,6,199.35,21 / 22,5081514,2019-11-06 17:31:01:976,0.3063,0.6884,9.8917,0.0051,-0.0011,9.8066,0.0089,0.0659,-0.0325,-4.5,-36.12,29.81,162.89,-87.27,-10.46
36090,52.95298,-1.275636,157.58,1.86,6,199.35,21 / 22,5081613,2019-11-06 17:31:02:075,0.1035,0.5883,9.8525,0.0043,0.0029,9.8066,-0.0048,0.0064,0.0008,-4.31,-35.87,30.13,162.87,-87.27,-10.47
36091,52.95298,-1.275636,157.58,1.86,6,199.35,21 / 22,5081713,2019-11-06 17:31:02:175,0.2038,0.6995,9.8928,0.0007,0.0021,9.8066,-0.0007,0.038,-0.0254,-4.81,-35.56,29.81,160.27,-87.25,-11.34
36092,52.95298,-1.275636,157.58,1.86,6,199.35,21 / 22,5081813,2019-11-06 17:31:02:275,-0.42,0.5463,9.9391,0.0049,-0.0016,9.8066,0.0204,-0.0077,0.007,-4.19,-35.75,29.94,162.05,-87.26,-11.34
36093,52.952713,-1.275811,156.92,0.0,4,199.39,21 / 21,5081914,2019-11-06 17:31:02:376,-0.2647,0.2069,9.8525,-0.0006,-0.0005,9.8066,-0.0059,0.0274,-0.0115,-4.12,-36.44,29.5,161.33,-87.3,-12.09
36094,52.952713,-1.275811,156.92,0.0,4,199.39,21 / 21,5082014,2019-11-06 17:31:02:476,-0.1058,0.1311,9.8911,0.0032,0.002,9.8066,-0.0032,0.0151,-0.0005,-4.69,-35.37,29.81,159.73,-87.29,-11.87
36095,52.952713,-1.275811,156.92,0.0,4,199.39,21 / 21,5082113,2019-11-06 17:31:02:575,0.0155,0.4905,9.9023,0.0005,0.004,9.8066,-0.0066,0.0301,-0.0059,-5.19,-35.06,29.44,159.21,-87.28,-12.13
36096,52.952713,-1.275811,156.92,0.0,4,199.39,21 / 21,5082214,2019-11-06 17:31:02:676,-0.219,0.1028,9.9709,0.0002,0.0018,9.8066,-0.0188,0.0295,0.002,-4.5,-35.12,30.25,161.48,-87.27,-11.91
36097,52.952713,-1.275811,156.92,0.0,4,199.39,21 / 21,5082314,2019-11-06 17:31:02:776,-0.0664,-0.0134,9.8314,0.0038,0.0029,9.8066,-0.0129,0.0263,-0.0145,-4.87,-35.25,30.69,159.99,-87.25,-11.87
36098,52.952713,-1.275811,156.92,0.0,4,199.39,21 / 21,5082414,2019-11-06 17:31:02:876,-0.2213,0.1767,9.8046,0.0005,-0.0023,9.8066,0.0035,0.0297,0.0135,-4.56,-35.94,30.19,159.52,-87.31,-12.11
36099,52.952713,-1.275811,156.92,0.0,4,199.39,21 / 21,5082514,2019-11-06 17:31:02:976,0.1482,-0.1081,10.1224,0.0013,-0.0015,9.8066,0.0401,0.0333,-0.0309,-4.44,-35.31,30.19,161.52,-87.33,-11.84
36100,52.952713,-1.275811,156.92,0.0,4,199.39,21 / 21,5082614,2019-11-06 17:31:03:076,-0.0758,-0.0134,9.9725,0.0099,-0.0019,9.8066,0.0336,0.0026,-0.0397,-3.87,-35.69,30.5,162.15,-87.32,-11.42
36101,52.952713,-1.275811,156.92,0.0,4,199.39,21 / 21,5082714,2019-11-06 17:31:03:176,0.3574,-0.062,9.634,0.005,0.002,9.8066,-0.0227,0.0402,-0.0188,-4.12,-35.37,29.56,161.12,-87.3,-12.28
36102,52.952713,-1.275811,156.92,0.0,4,199.39,21 / 21,5082814,2019-11-06 17:31:03:276,-0.2335,0.1827,10.0034,0.0016,0.0063,9.8066,-0.0181,0.029,0.0083,-3.75,-35.5,30.25,161.56,-87.26,-11.82
36103,52.952713,-1.275811,156.92,0.0,4,199.39,21 / 21,5082914,2019-11-06 17:31:03:376,0.1002,0.1428,9.8811,0.003,0.0026,9.8066,-0.0097,0.0557,-0.021,-4.06,-35.31,30.5,161.7,-87.26,-11.89
36104,52.952713,-1.275811,156.92,0.0,4,199.39,21 / 21,5083014,2019-11-06 17:31:03:476,-0.2039,0.1595,9.8844,0.0045,0.0013,9.8066,0.0135,0.0087,-0.0066,-4.12,-35.75,30.0,161.24,-87.27,-12.19
36105,52.952713,-1.275811,156.92,0.0,4,199.39,21 / 21,5083113,2019-11-06 17:31:03:575,0.4656,0.0213,9.716,0.0023,0.0031,9.8066,-0.0186,0.034,-0.032,-3.19,-35.94,30.13,162.88,-87.24,-12.37
36106,52.952713,-1.275811,156.92,0.0,4,199.39,21 / 21,5083213,2019-11-06 17:31:03:675,-0.2328,0.035,9.9405,0.0034,0.0032,9.8066,-0.011,0.0001,-0.0083,-3.75,-35.81,30.19,161.08,-87.2,-12.39
36107,52.952713,-1.275811,156.92,0.0,4,199.39,21 / 21,5083314,2019-11-06 17:31:03:776,0.2922,0.026,9.8907,-0.0009,0.0021,9.8066,-0.0081,0.0402,-0.0142,-3.56,-35.75,29.81,160.92,-87.19,-12.56
36108,52.952713,-1.275811,156.92,0.0,4,199.39,21 / 21,5083414,2019-11-06 17:31:03:876,-0.3197,0.3118,9.873,0.0055,-0.0008,9.8066,-0.0023,0.024,0.003,-3.44,-36.37,29.94,162.78,-87.17,-12.49
36109,52.952713,-1.275811,156.92,0.0,4,199.39,21 / 21,5083514,2019-11-06 17:31:03:976,-0.097,0.0156,9.8744,0.0015,-0.0014,9.8066,0.0004,0.0483,0.0042,-4.06,-36.12,30.56,161.06,-87.17,-12.62
36110,52.952713,-1.275811,156.92,0.0,4,199.39,21 / 21,5083614,2019-11-06 17:31:04:076,-0.3935,0.1856,9.8889,-0.0001,0.0007,9.8066,-0.0064,0.0056,0.0417,-4.37,-35.81,29.56,160.99,-87.19,-12.48
36111,52.952713,-1.275811,156.92,0.0,4,199.39,21 / 21,5083714,2019-11-06 17:31:04:176,0.1049,0.3244,9.9242,-0.0023,-0.0003,9.8066,0.0161,0.0191,-0.0162,-4.5,-36.31,30.38,161.28,-87.15,-12.19
36112,52.952713,-1.275811,156.92,0.0,4,199.39,21 / 21,5083814,2019-11-06 17:31:04:276,-0.1929,1.2483,9.8179,-0.0012,0.0048,9.8066,-0.0131,0.0039,-0.0007,-5.31,-36.25,29.56,159.16,-87.08,-12.58
36113,52.952713,-1.275811,156.92,0.0,4,199.39,23 / 23,5083914,2019-11-06 17:31:04:376,-0.1742,1.9305,9.908,-0.0057,0.0083,9.8066,-0.0106,0.0032,0.0193,-4.75,-36.25,29.63,159.64,-86.99,-12.11
36114,52.952713,-1.275811,156.92,0.0,4,199.39,23 / 23,5084014,2019-11-06 17:31:04:476,-0.1365,1.7399,10.0583,-0.001,0.0078,9.8066,0.0033,-0.0231,0.004,-4.44,-35.75,29.63,161.89,-86.83,-11.66
36115,52.952713,-1.275811,156.92,0.0,4,199.39,23 / 23,5084114,2019-11-06 17:31:04:576,-0.3413,1.9233,10.0293,-0.001,0.0012,9.8066,0.0069,-0.0243,-0.0037,-4.69,-36.37,29.63,160.16,-86.77,-11.65
36116,52.952713,-1.275811,156.92,0.0,4,199.39,23 / 23,5084213,2019-11-06 17:31:04:675,-0.1528,0.1376,10.1995,-0.0011,-0.0011,9.8066,0.0012,-0.0094,0.0057,-4.75,-35.56,29.19,159.88,-86.77,-11.67
36117,52.952713,-1.275811,156.92,0.0,4,199.39,23 / 23,5084314,2019-11-06 17:31:04:776,0.2652,-0.9393,9.8537,-0.0005,-0.0064,9.8066,0.0176,-0.0042,-0.0064,-4.62,-36.25,29.88,160.3,-86.79,-11.49
36118,52.952713,-1.275811,156.92,0.0,4,199.39,23 / 23,5084413,2019-11-06 17:31:04:875,0.3067,-0.8264,9.633,-0.0009,-0.0082,9.8066,0.0122,-0.0219,0.0238,-5.06,-35.62,29.5,159.26,-86.92,-12.54
36119,52.952713,-1.275811,156.92,0.0,4,199.39,23 / 23,5084513,2019-11-06 17:31:04:975,0.1216,-0.0083,9.6343,-0.0056,-0.0013,9.8066,0.0075,0.0094,0.0109,-5.31,-36.06,29.06,158.73,-86.99,-12.8
36120,52.952713,-1.275811,156.92,0.0,4,199.39,23 / 23,5084614,2019-11-06 17:31:05:076,0.146,-0.3448,10.115,0.0019,0.0023,9.8066,0.0056,-0.0034,-0.0095,-4.94,-36.0,29.38,158.79,-86.97,-12.74
36121,52.952713,-1.275811,156.92,0.0,4,199.39,23 / 23,5084714,2019-11-06 17:31:05:176,-0.0856,-0.4204,10.0448,-0.0022,0.0009,9.8066,0.0062,-0.028,0.0112,-5.12,-36.12,29.81,159.26,-86.95,-12.52
36122,52.952713,-1.275811,156.92,0.0,4,199.39,23 / 23,5084814,2019-11-06 17:31:05:276,0.0395,-0.0138,9.6725,-0.0045,0.0023,9.8066,-0.0098,-0.0293,0.0078,-4.94,-35.81,29.06,159.19,-86.92,-12.34
36123,52.952713,-1.275811,156.92,0.0,4,199.39,22 / 23,5084914,2019-11-06 17:31:05:376,-0.0682,-0.5643,9.9522,-0.0034,0.0002,9.8066,0.0016,-0.0298,0.005,-4.81,-36.37,29.25,159.4,-86.9,-12.12
36124,52.952713,-1.275811,156.92,0.0,4,199.39,22 / 23,5085014,2019-11-06 17:31:05:476,0.1568,-0.156,9.8045,-0.0027,0.0017,9.8066,0.0019,0.003,0.0128,-5.19,-36.12,29.5,159.38,-86.87,-12.43
36125,52.952713,-1.275811,156.92,0.0,4,199.39,22 / 23,5085113,2019-11-06 17:31:05:575,-0.1164,0.0095,9.8524,-0.0013,0.0014,9.8066,0.0007,-0.0025,0.0061,-4.69,-36.0,28.75,159.14,-86.83,-12.43
36126,52.952713,-1.275811,156.92,0.0,4,199.39,22 / 23,5085214,2019-11-06 17:31:05:676,0.2129,-0.4673,9.8981,-0.0013,0.0015,9.8066,-0.0029,0.003,0.0079,-4.56,-35.62,29.63,159.6,-86.79,-12.23
36127,52.952713,-1.275811,156.92,0.0,4,199.39,22 / 23,5085314,2019-11-06 17:31:05:776,-0.1688,-0.2683,9.8398,-0.0026,0.0039,9.8066,0.0079,0.0183,0.0013,-5.0,-36.62,29.19,159.47,-86.78,-12.14
36128,52.952713,-1.275811,156.92,0.0,4,199.39,22 / 23,5085413,2019-11-06 17:31:05:875,0.1004,-0.3937,9.8431,-0.0044,0.001,9.8066,0.0087,0.0239,-0.0122,-4.44,-35.94,30.13,161.27,-86.73,-12.35
36129,52.952713,-1.275811,156.92,0.0,4,199.39,22 / 23,5085514,2019-11-06 17:31:05:976,-0.0272,-0.537,9.862,0.0004,-0.0004,9.8066,-0.0024,-0.0145,0.0033,-4.81,-36.5,29.19,159.37,-86.74,-12.22
36130,52.952713,-1.275811,156.92,0.0,4,199.39,22 / 23,5085614,2019-11-06 17:31:06:076,0.0758,-0.3822,9.8231,-0.0012,0.0005,9.8066,-0.0014,-0.0089,-0.0082,-4.69,-36.62,29.13,159.33,-86.72,-12.31
36131,52.952713,-1.275811,156.92,0.0,4,199.39,22 / 23,5085714,2019-11-06 17:31:06:176,0.0819,-0.4082,9.8226,0.0002,0.0017,9.8066,-0.002,0.0004,0.0036,-4.44,-36.0,29.5,161.39,-86.71,-12.24
36132,52.952713,-1.275811,156.92,0.0,4,199.39,22 / 23,5085814,2019-11-06 17:31:06:276,0.0761,-0.2282,9.7728,-0.002,0.0018,9.8066,0.0047,0.0212,-0.006,-4.5,-36.69,29.38,161.32,-86.68,-12.14
36133,52.952713,-1.275811,156.92,0.0,4,199.39,22 / 23,5085914,2019-11-06 17:31:06:376,0.0216,-0.3211,9.8951,0.0003,0.0,9.8066,-0.0045,0.0083,0.006,-4.37,-36.37,29.06,161.32,-86.66,-12.11
36134,52.952713,-1.275811,156.92,0.0,4,199.39,22 / 23,5086013,2019-11-06 17:31:06:475,0.1228,-0.3211,9.8444,-0.0022,0.0041,9.8066,0.0095,0.0125,-0.0057,-4.19,-36.31,28.44,161.07,-86.61,-12.17
36135,52.952713,-1.275811,156.92,0.0,4,199.39,22 / 23,5086113,2019-11-06 17:31:06:575,0.0739,-0.396,9.9189,0.0011,0.001,9.8066,-0.0046,-0.0257,-0.0071,-4.25,-36.81,28.94,161.63,-86.59,-11.85
36136,52.952713,-1.275811,156.92,0.0,4,199.39,22 / 23,5086214,2019-11-06 17:31:06:676,0.09,-0.4038,9.8315,-0.0003,0.0027,9.8066,0.0052,-0.0199,0.0002,-4.44,-36.12,28.81,161.68,-86.56,-11.77
36137,52.952713,-1.275811,156.92,0.0,4,199.39,22 / 23,5086314,2019-11-06 17:31:06:776,0.0431,-0.3703,9.8725,-0.0003,0.0038,9.8066,-0.0086,0.0047,-0.0019,-4.87,-36.31,28.81,159.72,-86.56,-11.92
36138,52.952713,-1.275811,156.92,0.0,4,199.39,22 / 23,5086414,2019-11-06 17:31:06:876,0.0317,-0.3413,9.8686,-0.0003,0.003,9.8066,0.0016,0.0068,0.0072,-5.0,-36.5,29.13,159.99,-86.51,-11.65
36139,52.952713,-1.275811,156.92,0.0,4,199.39,22 / 23,5086514,2019-11-06 17:31:06:976,0.0498,-0.4016,9.8667,0.0009,0.0027,9.8066,0.0022,0.0143,0.0109,-4.81,-36.75,28.69,159.85,-86.5,-11.85
36140,52.952713,-1.275811,156.92,0.0,4,199.39,22 / 23,5086614,2019-11-06 17:31:07:076,0.042,-0.5002,9.8644,-0.0017,0.0016,9.8066,0.0109,0.0059,-0.0042,-5.06,-36.31,29.13,159.85,-86.47,-11.82
36141,52.952713,-1.275811,156.92,0.0,4,199.39,22 / 23,5086714,2019-11-06 17:31:07:176,0.1406,-0.2935,9.8092,0.0004,0.003,9.8066,0.0089,-0.0041,0.001,-5.44,-36.06,28.56,160.06,-86.43,-11.6
36142,52.952713,-1.275811,156.92,0.0,4,199.39,22 / 23,5086814,2019-11-06 17:31:07:276,-0.0196,-0.4322,9.806,0.0005,-0.0003,9.8066,-0.0012,-0.025,-0.0087,-4.81,-36.62,29.63,160.35,-86.43,-11.61
36143,52.952713,-1.275811,156.92,0.0,4,199.39,22 / 22,5086916,2019-11-06 17:31:07:378,0.1938,-0.4909,9.8302,-0.0008,0.0019,9.8066,-0.0087,-0.0017,0.0059,-4.94,-36.12,29.0,160.15,-86.42,-11.52
36144,52.952713,-1.275811,156.92,0.0,4,199.39,22 / 22,5087014,2019-11-06 17:31:07:476,0.0881,-0.2171,9.8587,-0.0013,0.0017,9.8066,-0.0045,-0.0108,-0.0135,-4.75,-36.81,29.81,160.28,-86.38,-11.71
36145,52.952713,-1.275811,156.92,0.0,4,199.39,22 / 22,5087114,2019-11-06 17:31:07:576,0.1593,-0.4228,9.8646,-0.0032,0.0014,9.8066,-0.0038,0.0224,-0.011,-5.06,-36.44,30.5,160.61,-86.37,-11.57
36146,52.952713,-1.275811,156.92,0.0,4,199.39,22 / 22,5087213,2019-11-06 17:31:07:675,0.1416,-0.59,9.8005,0.0005,0.0019,9.8066,-0.0006,0.0257,0.0051,-4.69,-36.12,29.5,160.57,-86.35,-11.37
36147,52.952713,-1.275811,156.92,0.0,4,199.39,22 / 22,5087313,2019-11-06 17:31:07:775,-0.0989,-0.1958,9.9004,-0.0025,0.0005,9.8066,0.0044,0.0245,-0.0125,-4.19,-36.44,30.63,162.6,-86.34,-11.28
36148,52.952713,-1.275811,156.92,0.0,4,199.39,22 / 22,5087414,2019-11-06 17:31:07:876,-0.0885,-0.4446,9.8698,0.0004,0.0015,9.8066,0.0008,0.0004,-0.0016,-4.37,-36.56,30.69,162.63,-86.31,-11.29
36149,52.952713,-1.275811,156.92,0.0,4,199.39,22 / 22,5087514,2019-11-06 17:31:07:976,0.0961,-0.511,9.8351,-0.0013,0.0003,9.8066,-0.0117,-0.0001,-0.0079,-4.5,-37.12,30.31,162.5,-86.31,-11.23
36150,52.952713,-1.275811,156.92,0.0,4,199.39,22 / 22,5087613,2019-11-06 17:31:08:075,0.1044,-0.1339,9.8577,-0.0014,0.0032,9.8066,0.0031,-0.0067,-0.0124,-4.31,-36.19,30.56,162.65,-86.28,-11.24
36151,52.952713,-1.275811,156.92,0.0,4,199.39,22 / 22,5087714,2019-11-06 17:31:08:176,0.0469,-0.4591,9.8566,-0.0016,0.0024,9.8065,0.0064,0.0191,-0.0051,-4.0,-37.12,29.94,162.44,-86.26,-11.31
36152,52.952713,-1.275811,156.92,0.0,4,199.39,22 / 22,5087813,2019-11-06 17:31:08:275,0.0267,-0.5135,9.835,-0.0002,0.0013,9.8066,0.0031,0.0083,0.0052,-3.69,-37.31,30.31,162.55,-86.26,-11.19
36153,52.952713,-1.275811,156.92,0.0,4,199.39,22 / 23,5087914,2019-11-06 17:31:08:376,0.0578,-0.2164,9.8625,0.0009,0.0013,9.8066,0.0045,-0.0001,-0.0004,-4.0,-37.06,30.44,162.55,-86.25,-11.19
36154,52.952713,-1.275811,156.92,0.0,4,199.39,22 / 23,5088013,2019-11-06 17:31:08:475,0.0787,-0.3766,9.8138,0.0003,-0.0007,9.8066,-0.0003,-0.0077,-0.0017,-4.0,-37.25,30.31,162.67,-86.24,-11.07
36155,52.952713,-1.275811,156.92,0.0,4,199.39,22 / 23,5088114,2019-11-06 17:31:08:576,0.0608,-0.301,9.8977,-0.0012,0.001,9.8066,-0.0047,-0.0002,-0.0117,-3.69,-36.94,31.06,162.77,-86.24,-11.16
36156,52.952713,-1.275811,156.92,0.0,4,199.39,22 / 23,5088214,2019-11-06 17:31:08:676,0.0255,-0.5353,9.8699,0.0007,0.0003,9.8066,-0.0018,0.0115,0.0004,-3.25,-36.5,30.5,164.61,-86.22,-10.99
36157,52.952713,-1.275811,156.92,0.0,4,199.39,22 / 23,5088314,2019-11-06 17:31:08:776,0.0326,-0.4199,9.8958,0.0016,-0.0007,9.8066,-0.0097,0.0323,0.0078,-3.69,-37.06,30.81,163.02,-86.23,-10.89
36158,52.952713,-1.275811,156.92,0.0,4,199.39,22 / 23,5088413,2019-11-06 17:31:08:875,0.007,-0.3744,9.9271,-0.0016,0.0018,9.8066,0.0166,-0.004,-0.0047,-3.12,-37.19,31.13,164.68,-86.21,-10.95
36159,52.952713,-1.275811,156.92,0.0,4,199.39,22 / 23,5088514,2019-11-06 17:31:08:976,0.1277,-0.5634,9.8319,0.0018,0.0004,9.8066,-0.0048,-0.0191,0.0054,-3.0,-37.81,31.19,164.67,-86.21,-10.99
36160,52.952713,-1.275811,156.92,0.0,4,199.39,22 / 23,5088614,2019-11-06 17:31:09:076,-0.021,-0.3123,9.8386,0.0015,0.0007,9.8066,-0.0005,-0.0222,0.0,-2.81,-37.19,31.63,164.91,-86.22,-10.84
36161,52.952713,-1.275811,156.92,0.0,4,199.39,22 / 23,5088714,2019-11-06 17:31:09:176,0.0708,-0.2817,9.8976,0.0014,0.0017,9.8066,-0.0128,0.0231,0.0053,-1.56,-37.5,31.5,166.52,-86.21,-10.9
36162,52.952713,-1.275811,156.92,0.0,4,199.39,22 / 23,5088814,2019-11-06 17:31:09:276,0.0529,-0.6191,9.8636,-0.0001,0.0018,9.8066,0.0103,0.0128,-0.0023,-1.62,-37.75,31.44,166.58,-86.19,-10.78
36163,52.952713,-1.275811,156.92,0.0,4,199.39,21 / 22,5088914,2019-11-06 17:31:09:376,-0.0724,-0.3312,9.8028,-0.0017,0.0005,9.8066,0.0055,0.0083,-0.0139,-1.5,-38.69,31.69,168.21,-86.19,-10.93
36164,52.952713,-1.275811,156.92,0.0,4,199.39,21 / 22,5089013,2019-11-06 17:31:09:475,0.0027,-0.4656,9.8524,0.0001,-0.0013,9.8066,-0.0045,-0.0097,0.0017,-1.0,-38.31,32.06,168.26,-86.2,-10.84
36165,52.952713,-1.275811,156.92,0.0,4,199.39,21 / 22,5089113,2019-11-06 17:31:09:575,-0.0343,-0.5381,9.89,0.0004,-0.0032,9.8066,-0.0192,0.0056,-0.0059,-0.25,-38.56,31.5,169.73,-86.2,-11.07
36166,52.952713,-1.275811,156.92,0.0,4,199.39,21 / 22,5089213,2019-11-06 17:31:09:675,-0.0074,-0.3386,9.7497,0.0017,-0.0014,9.8066,-0.004,-0.0013,0.0102,0.5,-39.62,32.0,171.65,-86.23,-10.81
36167,52.952713,-1.275811,156.92,0.0,4,199.39,21 / 22,5089313,2019-11-06 17:31:09:775,0.0156,-0.4218,9.8195,0.0015,-0.0028,9.8065,-0.0036,0.0295,0.0139,1.0,-39.44,31.81,171.43,-86.24,-11.03
36168,52.952713,-1.275811,156.92,0.0,4,199.39,21 / 22,5089414,2019-11-06 17:31:09:876,-0.0523,-0.515,9.8771,-0.0007,0.001,9.8066,0.0102,0.0059,0.0031,2.0,-41.0,31.81,173.07,-86.26,-11.07
36169,52.952713,-1.275811,156.92,0.0,4,199.39,21 / 22,5089514,2019-11-06 17:31:09:976,-0.033,-0.3366,9.7946,-0.0002,-0.0012,9.8066,0.0034,0.0069,-0.0009,2.5,-40.12,31.31,174.73,-86.28,-11.23
36170,52.952713,-1.275811,156.92,0.0,4,199.39,21 / 22,5089614,2019-11-06 17:31:10:076,-0.0079,-0.427,9.8785,-0.0013,0.0001,9.8066,0.0154,-0.018,-0.0115,3.06,-41.25,30.69,174.53,-86.3,-11.45
36171,52.952713,-1.275811,156.92,0.0,4,199.39,21 / 22,5089714,2019-11-06 17:31:10:176,-0.03,-0.4971,9.7994,0.0002,-0.0015,9.8066,-0.008,-0.0169,0.0015,3.63,-41.69,30.44,176.48,-86.34,-11.42
36172,52.952713,-1.275811,156.92,0.0,4,199.39,21 / 22,5089814,2019-11-06 17:31:10:276,-0.1201,-0.3692,9.9018,-0.0003,-0.0004,9.8066,0.0018,-0.0068,0.0034,3.69,-42.37,30.56,176.1,-86.37,-11.57
36173,52.952713,-1.275811,156.92,0.0,4,199.39,21 / 22,5089916,2019-11-06 17:31:10:378,-0.0713,-0.4222,9.8477,0.0005,-0.0012,9.8066,-0.0029,0.0087,0.0016,4.5,-43.44,30.25,177.9,-86.41,-11.74
36174,52.952713,-1.275811,156.92,0.0,4,199.39,21 / 22,5090013,2019-11-06 17:31:10:475,-0.0422,-0.4777,9.8277,-0.0005,-0.0019,9.8065,0.0079,0.0161,0.0027,5.75,-43.69,29.75,179.48,-86.43,-11.87
36175,52.952713,-1.275811,156.92,0.0,4,199.39,21 / 22,5090114,2019-11-06 17:31:10:576,-0.1237,-0.3191,9.8743,-0.0013,-0.0009,9.8066,-0.001,0.0087,-0.0082,6.38,-44.06,29.25,179.83,-86.44,-11.87
36176,52.952713,-1.275811,156.92,0.0,4,199.39,21 / 22,5090214,2019-11-06 17:31:10:676,-0.0505,-0.4206,9.8733,-0.0004,-0.0029,9.8066,-0.0003,-0.0063,-0.0004,7.81,-43.69,28.69,183.2,-86.48,-11.94
36177,52.952713,-1.275811,156.92,0.0,4,199.39,21 / 22,5090314,2019-11-06 17:31:10:776,-0.1571,-0.4533,9.8196,0.0013,-0.0051,9.8066,-0.0229,-0.0037,0.0083,8.38,-43.62,27.06,183.92,-86.5,-12.21
36178,52.952713,-1.275811,156.92,0.0,4,199.39,21 / 22,5090416,2019-11-06 17:31:10:878,-0.1479,-0.248,9.8229,-0.0015,0.0004,9.8066,0.0016,-0.0064,-0.0016,9.75,-43.5,25.81,188.12,-86.53,-12.18
36179,52.952713,-1.275811,156.92,0.0,4,199.39,21 / 22,5090514,2019-11-06 17:31:10:976,-0.2019,-0.3629,9.8777,0.0014,0.0003,9.8066,0.0018,0.0152,0.0098,9.0,-43.37,22.56,188.3,-86.56,-12.22
36180,52.952713,-1.275811,156.92,0.0,4,199.39,21 / 22,5090613,2019-11-06 17:31:11:075,-0.2162,-0.4881,9.8681,-0.0011,-0.0002,9.8066,0.0109,0.0129,0.0025,8.38,-43.25,19.31,189.39,-86.57,-12.29
36181,52.952713,-1.275811,156.92,0.0,4,199.39,21 / 22,5090713,2019-11-06 17:31:11:175,0.0032,-0.2358,9.7862,0.0014,-0.0006,9.8066,0.0074,-0.0071,0.0018,6.44,-42.44,17.63,185.37,-86.59,-12.37
36182,52.952713,-1.275811,156.92,0.0,4,199.39,21 / 22,5090813,2019-11-06 17:31:11:275,-0.0172,-0.4202,9.8645,0.0004,-0.0019,9.8066,-0.0006,-0.0091,0.0005,3.44,-43.0,15.06,179.16,-86.61,-12.29
36183,52.952713,-1.275811,156.92,0.0,4,199.39,21 / 22,5090913,2019-11-06 17:31:11:375,0.0722,-0.5594,9.7975,0.0033,-0.0028,9.8066,-0.0191,-0.0238,0.0126,1.06,-41.94,14.44,172.74,-86.63,-12.61
36184,52.952713,-1.275811,156.92,0.0,4,199.39,21 / 22,5091014,2019-11-06 17:31:11:476,-0.1329,-0.382,9.854,0.0017,-0.0008,9.8066,0.0029,-0.0138,0.0058,-2.0,-41.31,12.81,162.0,-86.65,-12.45
36185,52.952713,-1.275811,156.92,0.0,4,199.39,21 / 22,5091114,2019-11-06 17:31:11:576,0.2421,-0.3642,9.854,0.0027,-0.0016,9.8066,-0.0002,0.0167,0.0064,-5.0,-40.69,14.31,152.15,-86.69,-12.41
36186,52.952713,-1.275811,156.92,0.0,4,199.39,21 / 22,5091213,2019-11-06 17:31:11:675,0.0262,-0.4079,9.8299,0.0037,0.0006,9.8066,-0.0017,-0.0056,0.0192,-7.94,-40.44,14.81,143.96,-86.7,-12.49
36187,52.952713,-1.275811,156.92,0.0,4,199.39,21 / 22,5091313,2019-11-06 17:31:11:775,0.2467,-0.2361,9.8903,0.0026,-0.0016,9.8066,-0.0136,-0.007,0.0015,-9.69,-39.37,15.94,139.49,-86.71,-12.87
36188,52.952713,-1.275811,156.92,0.0,4,199.39,21 / 22,5091414,2019-11-06 17:31:11:876,0.1537,-0.3306,9.878,0.001,0.0005,9.8066,0.018,-0.0275,-0.0044,-12.81,-38.06,18.06,135.17,-86.74,-12.88
36189,52.952713,-1.275811,156.92,0.0,4,199.39,21 / 22,5091514,2019-11-06 17:31:11:976,0.2606,-0.1982,9.8123,0.0004,-0.0019,9.8066,-0.01,0.0026,-0.007,-14.31,-37.69,19.63,135.45,-86.78,-13.04
36190,52.952713,-1.275811,156.92,0.0,4,199.39,21 / 22,5091614,2019-11-06 17:31:12:076,0.1214,-0.3055,9.85,0.0043,0.0005,9.8066,-0.0061,-0.0069,0.0204,-16.06,-37.12,21.06,132.93,-86.82,-12.99
36191,52.952713,-1.275811,156.92,0.0,4,199.39,21 / 22,5091714,2019-11-06 17:31:12:176,0.205,-0.2256,9.8424,0.0027,-0.0026,9.8066,-0.0106,0.0271,0.0073,-17.37,-35.87,24.75,134.91,-86.84,-13.49
36192,52.952713,-1.275811,156.92,0.0,4,199.39,21 / 22,5091814,2019-11-06 17:31:12:276,-0.1401,-0.239,9.7957,0.0013,0.0011,9.8066,0.0153,-0.0093,0.0051,-18.0,-35.87,26.06,134.23,-86.84,-13.61
36193,52.952713,-1.275811,156.92,0.0,4,199.39,21 / 21,5091914,2019-11-06 17:31:12:376,0.3489,-0.3296,9.8112,-0.0001,-0.0014,9.8066,-0.0014,0.0099,-0.0134,-17.87,-35.19,28.13,135.8,-86.88,-13.71
36194,52.952713,-1.275811,156.92,0.0,4,199.39,21 / 21,5092014,2019-11-06 17:31:12:476,0.2328,-0.2732,9.8442,0.0031,-0.0025,9.8066,0.0046,-0.0266,0.0025,-18.12,-35.19,30.56,137.94,-86.92,-13.89
36195,52.952713,-1.275811,156.92,0.0,4,199.39,21 / 21,5092113,2019-11-06 17:31:12:575,0.1093,-0.0881,9.7622,0.0015,-0.0038,9.8066,-0.0149,-0.0046,-0.0051,-16.75,-34.37,32.56,140.43,-86.93,-14.06
36196,52.952713,-1.275811,156.92,0.0,4,199.39,21 / 21,5092214,2019-11-06 17:31:12:676,0.1223,-0.3452,9.8674,0.0021,-0.0016,9.8066,-0.0044,0.0016,0.003,-15.75,-33.62,34.38,142.13,-86.98,-14.31
36197,52.952713,-1.275811,156.92,0.0,4,199.39,21 / 21,5092314,2019-11-06 17:31:12:776,0.0404,-0.3702,9.8646,-0.0007,-0.0029,9.8066,-0.0119,0.0318,-0.0069,-12.87,-33.44,36.81,147.21,-87.03,-14.75
36198,52.952713,-1.275811,156.92,0.0,4,199.39,21 / 21,5092413,2019-11-06 17:31:12:875,0.034,-0.2479,9.8237,0.0014,-0.0029,9.8066,0.0078,0.0266,0.0055,-11.06,-32.56,36.75,149.99,-87.05,-14.68
36199,52.952713,-1.275811,156.92,0.0,4,199.39,21 / 21,5092513,2019-11-06 17:31:12:975,-0.0415,-0.331,9.8812,-0.0014,-0.0039,9.8066,-0.0022,0.0316,-0.0013,-9.19,-33.0,36.56,152.46,-87.08,-15.01
36200,52.952713,-1.275811,156.92,0.0,4,199.39,21 / 21,5092614,2019-11-06 17:31:13:076,0.1754,-0.4433,9.9238,-0.0017,0.0002,9.8066,0.0185,0.0169,-0.0159,-6.75,-32.69,35.63,154.79,-87.1,-15.29
36201,52.952713,-1.275811,156.92,0.0,4,199.39,21 / 21,5092714,2019-11-06 17:31:13:176,0.0765,-0.3088,9.8489,-0.0008,-0.0027,9.8066,-0.005,-0.0086,-0.0124,-6.06,-33.06,35.19,156.01,-87.14,-15.32
36202,52.952713,-1.275811,156.92,0.0,4,199.39,21 / 21,5092814,2019-11-06 17:31:13:276,-0.0064,-0.1847,9.8556,0.0016,-0.0026,9.8066,0.0013,-0.0117,0.0008,-4.31,-32.81,34.0,158.91,-87.17,-15.34
36203,52.952713,-1.275811,156.92,0.0,4,199.39,21 / 21,5092914,2019-11-06 17:31:13:376,0.0826,-0.416,9.8465,0.0015,-0.0031,9.8066,-0.012,-0.0001,0.0031,-4.06,-34.37,32.38,158.24,-87.21,-15.7
36204,52.952713,-1.275811,156.92,0.0,4,199.39,21 / 21,5093013,2019-11-06 17:31:13:475,0.0614,-0.3795,9.8697,0.0002,-0.0004,9.8066,0.0106,0.0048,-0.0015,-3.75,-34.31,31.31,158.03,-87.23,-15.72
36205,52.952713,-1.275811,156.92,0.0,4,199.39,21 / 21,5093113,2019-11-06 17:31:13:575,-0.0006,-0.1059,9.8252,0.0015,-0.0006,9.8066,0.0097,0.0124,0.0098,-3.62,-34.94,30.25,157.71,-87.27,-15.87
36206,52.952713,-1.275811,156.92,0.0,4,199.39,21 / 21,5093213,2019-11-06 17:31:13:675,-0.0153,-0.2783,9.8558,-0.0011,-0.0012,9.8066,0.005,0.0154,-0.0016,-4.25,-35.25,29.56,157.59,-87.3,-15.98
36207,52.952713,-1.275811,156.92,0.0,4,199.39,21 / 21,5093314,2019-11-06 17:31:13:776,0.0079,-0.4527,9.9021,0.0039,-0.0012,9.8066,0.0087,-0.003,0.0118,-4.0,-35.69,29.63,157.41,-87.32,-16.2
36208,52.952713,-1.275811,156.92,0.0,4,199.39,21 / 21,5093414,2019-11-06 17:31:13:876,-0.0065,-0.0308,9.7928,-0.0011,-0.0024,9.8066,-0.0007,-0.0189,-0.0061,-4.06,-36.0,29.5,157.25,-87.36,-16.35
36209,52.952713,-1.275811,156.92,0.0,4,199.39,21 / 21,5093513,2019-11-06 17:31:13:975,0.058,-0.4481,9.8536,0.0003,-0.0044,9.8066,-0.0102,-0.0219,0.0042,-4.5,-36.37,29.13,156.73,-87.39,-16.66
36210,52.952713,-1.275811,156.92,0.0,4,199.39,21 / 21,5093614,2019-11-06 17:31:14:076,0.0472,-0.327,9.8773,-0.0007,0.0007,9.8066,-0.011,-0.0008,-0.0004,-4.25,-36.25,29.25,156.54,-87.41,-16.86
36211,52.952713,-1.275811,156.92,0.0,4,199.39,21 / 21,5093714,2019-11-06 17:31:14:176,0.0845,-0.2804,9.8121,0.0015,-0.0032,9.8066,-0.0039,0.0101,0.009,-4.56,-37.0,29.38,154.69,-87.43,-16.88
36212,52.952713,-1.275811,156.92,0.0,4,199.39,21 / 21,5093814,2019-11-06 17:31:14:276,0.0179,-0.1365,9.8289,0.0001,-0.002,9.8066,0.0015,0.0222,-0.001,-4.69,-36.62,28.88,154.29,-87.44,-17.3
36213,52.952713,-1.275811,156.92,0.0,4,199.39,22 / 22,5093915,2019-11-06 17:31:14:377,0.1199,-0.3034,9.9617,0.0008,-0.0001,9.8066,0.0093,0.0212,-0.0072,-4.94,-36.87,28.44,153.89,-87.46,-17.42
36214,52.952713,-1.275811,156.92,0.0,4,199.39,22 / 22,5094014,2019-11-06 17:31:14:476,-0.0255,-0.1927,9.8078,-0.0019,0.0031,9.8066,-0.0046,0.0093,0.0108,-5.0,-37.0,28.81,154.04,-87.48,-17.54
36215,52.952713,-1.275811,156.92,0.0,4,199.39,22 / 22,5094114,2019-11-06 17:31:14:576,0.0078,-0.1784,9.8177,0.0009,-0.0032,9.8066,0.0026,-0.0006,-0.003,-4.87,-36.69,28.63,153.95,-87.49,-17.63
36216,52.952713,-1.275811,156.92,0.0,4,199.39,22 / 22,5094214,2019-11-06 17:31:14:676,0.0802,-0.2006,9.9167,0.0016,-0.0018,9.8066,0.0139,-0.0092,-0.0198,-4.81,-36.94,29.13,153.75,-87.51,-17.83
36217,52.952713,-1.275811,156.92,0.0,4,199.39,22 / 22,5094313,2019-11-06 17:31:14:775,0.0624,-0.2696,9.8822,0.0023,-0.0031,9.8066,0.0087,-0.0167,-0.0141,-5.19,-37.5,29.56,153.92,-87.53,-17.92
36218,52.952713,-1.275811,156.92,0.0,4,199.39,22 / 22,5094413,2019-11-06 17:31:14:875,-0.0668,0.0287,9.7292,-0.0022,-0.0004,9.8066,-0.0229,0.0007,0.0081,-5.31,-36.75,28.88,153.27,-87.54,-18.31
36219,52.952713,-1.275811,156.92,0.0,4,199.39,22 / 22,5094513,2019-11-06 17:31:14:975,-0.0491,-0.0644,9.8226,-0.0005,-0.0011,9.8066,-0.0071,0.0021,0.006,-4.75,-37.25,29.19,153.23,-87.56,-18.34
36220,52.952713,-1.275811,156.92,0.0,4,199.39,22 / 22,5094613,2019-11-06 17:31:15:075,0.1944,-0.3676,9.9132,0.0009,-0.0031,9.8066,0.0058,0.0229,-0.0065,-4.81,-36.94,28.81,153.19,-87.56,-18.39
36221,52.952713,-1.275811,156.92,0.0,4,199.39,22 / 22,5094713,2019-11-06 17:31:15:175,-0.0732,0.1086,9.7436,0.0019,-0.0015,9.8066,0.0197,0.0145,-0.0068,-4.94,-36.62,29.25,153.05,-87.58,-18.53
36222,52.952713,-1.275811,156.92,0.0,4,199.39,22 / 22,5094813,2019-11-06 17:31:15:275,0.0184,0.1106,9.7875,-0.0015,-0.0022,9.8066,-0.008,0.0128,0.0067,-4.81,-37.37,29.31,153.07,-87.58,-18.51
36223,52.952713,-1.275811,156.92,0.0,4,199.39,22 / 23,5094913,2019-11-06 17:31:15:375,0.1189,-0.2494,9.9184,-0.0005,0.0009,9.8066,-0.0018,-0.0124,0.001,-4.69,-36.87,29.63,152.91,-87.6,-18.94
36224,52.952713,-1.275811,156.92,0.0,4,199.39,22 / 23,5095014,2019-11-06 17:31:15:476,-0.0227,-0.108,9.7941,-0.002,0.0009,9.8066,-0.0081,0.0069,-0.0022,-4.94,-36.44,28.75,152.28,-87.61,-19.28
36225,52.952713,-1.275811,156.92,0.0,4,199.39,22 / 23,5095114,2019-11-06 17:31:15:576,0.0923,0.1268,9.839,0.0004,-0.0007,9.8066,-0.006,-0.007,-0.0183,-4.62,-37.12,29.13,152.51,-87.63,-19.06
36226,52.952713,-1.275811,156.92,0.0,4,199.39,22 / 23,5095214,2019-11-06 17:31:15:676,0.1384,-0.151,9.845,0.0035,-0.0021,9.8066,-0.0136,-0.0031,0.0109,-4.62,-37.44,29.44,152.27,-87.62,-19.32
36227,52.952713,-1.275811,156.92,0.0,4,199.39,22 / 23,5095313,2019-11-06 17:31:15:775,-0.0376,0.0148,9.8675,-0.0003,-0.0009,9.8066,0.0084,-0.0013,0.0026,-4.94,-37.62,29.25,152.2,-87.65,-19.41
36228,52.952713,-1.275811,156.92,0.0,4,199.39,22 / 23,5095413,2019-11-06 17:31:15:875,0.0402,-0.1638,9.8253,0.0002,0.0009,9.8066,0.002,-0.0226,-0.0077,-4.37,-36.75,29.25,153.6,-87.67,-19.84
36229,52.952713,-1.275811,156.92,0.0,4,199.39,22 / 23,5095514,2019-11-06 17:31:15:976,0.1343,-0.2113,9.878,0.0014,-0.0005,9.8066,-0.0124,-0.009,0.0053,-4.12,-37.12,29.13,153.79,-87.68,-19.63
36230,52.952713,-1.275811,156.92,0.0,4,199.39,22 / 23,5095614,2019-11-06 17:31:16:076,-0.0555,-0.0084,9.8344,0.0022,-0.0011,9.8066,-0.0152,-0.0036,0.0105,-4.37,-37.19,28.69,153.39,-87.69,-20.05
36231,52.952713,-1.275811,156.92,0.0,4,199.39,22 / 23,5095714,2019-11-06 17:31:16:176,-0.022,-0.2391,9.8182,-0.0008,0.0003,9.8066,-0.0053,0.004,0.0065,-4.62,-37.25,28.94,151.74,-87.7,-19.82
36232,52.952713,-1.275811,156.92,0.0,4,199.39,22 / 23,5095815,2019-11-06 17:31:16:277,0.0306,-0.126,9.807,0.0043,-0.0019,9.8066,0.0012,-0.0022,0.0186,-5.0,-36.94,28.75,151.82,-87.72,-19.73
36233,52.952713,-1.275811,156.92,0.0,4,199.39,21 / 22,5095914,2019-11-06 17:31:16:376,-0.0671,-0.1061,9.8084,0.0016,-0.0001,9.8066,0.0102,-0.0123,-0.0003,-4.81,-36.81,29.13,151.46,-87.73,-20.11
36234,52.952713,-1.275811,156.92,0.0,4,199.39,21 / 22,5096014,2019-11-06 17:31:16:476,0.1684,-0.0371,9.9379,0.0013,-0.0034,9.8066,-0.0102,-0.02,0.0008,-4.12,-37.12,29.38,153.15,-87.74,-20.27
36235,52.952713,-1.275811,156.92,0.0,4,199.39,21 / 22,5096114,2019-11-06 17:31:16:576,-0.2852,-0.5648,9.9134,0.0017,0.0033,9.8066,0.0398,-0.0494,0.0069,-4.94,-37.06,28.81,150.84,-87.76,-20.73
36236,52.952713,-1.275811,156.92,0.0,4,199.39,21 / 22,5096214,2019-11-06 17:31:16:676,0.1749,-0.4555,9.7295,0.003,-0.0052,9.8066,0.0183,-0.0462,-0.012,-5.12,-36.69,29.06,149.77,-87.84,-21.8
36237,52.952713,-1.275811,156.92,0.0,4,199.39,21 / 22,5096314,2019-11-06 17:31:16:776,-0.2212,-0.7542,9.8872,0.004,-0.0041,9.8066,0.0172,-0.0601,0.0069,-4.87,-37.5,29.06,149.3,-87.94,-22.22
36238,52.952713,-1.275811,156.92,0.0,4,199.39,21 / 22,5096413,2019-11-06 17:31:16:875,0.4171,-0.6871,9.7739,0.0072,-0.0017,9.8066,0.0042,-0.0091,0.026,-4.69,-36.56,29.25,148.98,-88.03,-22.5
36239,52.952713,-1.275811,156.92,0.0,4,199.39,21 / 22,5096513,2019-11-06 17:31:16:975,-0.0598,-0.7021,9.8628,0.0007,-0.0004,9.8066,0.0097,-0.0177,0.0052,-4.25,-36.62,29.31,149.99,-88.05,-23.38
36240,52.952713,-1.275811,156.92,0.0,4,199.39,21 / 22,5096613,2019-11-06 17:31:17:075,0.4418,-0.7756,9.7162,0.0035,-0.0003,9.8066,0.009,-0.0186,0.0145,-4.62,-37.44,29.38,147.41,-88.08,-24.1
36241,52.952713,-1.275811,156.92,0.0,4,199.39,21 / 22,5096713,2019-11-06 17:31:17:175,-0.136,-0.8136,9.8373,0.004,0.0001,9.8066,0.0015,-0.039,0.0129,-4.19,-37.0,29.69,149.38,-88.12,-24.18
36242,52.952713,-1.275811,156.92,0.0,4,199.39,21 / 22,5096813,2019-11-06 17:31:17:275,0.3517,-0.8004,9.7672,0.0037,-0.0022,9.8066,-0.0057,-0.0183,0.0035,-4.94,-36.5,29.13,147.14,-88.14,-24.3
36243,52.952713,-1.275811,156.92,0.0,4,199.39,22 / 22,5096913,2019-11-06 17:31:17:375,-0.3752,-1.0528,9.8837,0.0087,0.0013,9.8065,0.0082,-0.0596,0.0391,-4.5,-37.0,29.88,149.73,-88.16,-23.8
36244,52.952713,-1.275811,156.92,0.0,4,199.39,22 / 22,5097014,2019-11-06 17:31:17:476,0.3045,-0.7446,9.7744,0.0036,-0.0003,9.8066,-0.0086,-0.0039,0.0013,-4.37,-36.69,29.44,148.32,-88.17,-25.03
36245,52.952713,-1.275811,156.92,0.0,4,199.39,22 / 22,5097114,2019-11-06 17:31:17:576,-0.0821,-0.7911,9.8284,0.0075,0.0016,9.8066,-0.0072,0.0004,0.0107,-4.37,-36.87,29.69,149.12,-88.19,-24.41
36246,52.952713,-1.275811,156.92,0.0,4,199.39,22 / 22,5097213,2019-11-06 17:31:17:675,0.4432,-0.6962,9.6799,0.0028,-0.0028,9.8066,0.0044,0.0608,-0.0438,-4.5,-36.5,29.44,148.09,-88.19,-25.21
36247,52.952713,-1.275811,156.92,0.0,4,199.39,22 / 22,5097314,2019-11-06 17:31:17:776,-0.2743,-1.2248,9.9576,0.0102,0.0016,9.8066,0.0138,-0.0082,-0.0038,-4.56,-36.31,30.5,147.1,-88.24,-24.82
36248,52.952713,-1.275811,156.92,0.0,4,199.39,22 / 22,5097414,2019-11-06 17:31:17:876,-0.026,-0.7369,9.7327,-0.0031,0.0003,9.8066,-0.0207,0.0552,-0.0195,-4.5,-36.31,29.06,147.62,-88.24,-25.67
36249,52.952713,-1.275811,156.92,0.0,4,199.39,22 / 22,5097514,2019-11-06 17:31:17:976,-0.5894,-0.645,9.8816,0.0095,0.002,9.8066,-0.009,-0.0299,0.0231,-4.62,-36.69,29.31,147.01,-88.28,-24.37
36250,52.952713,-1.275811,156.92,0.0,4,199.39,22 / 22,5097613,2019-11-06 17:31:18:075,0.4711,-0.6117,9.8245,0.0001,-0.0037,9.8066,0.006,0.0548,-0.0357,-4.19,-36.94,30.0,148.77,-88.28,-24.71
36251,52.952713,-1.275811,156.92,0.0,4,199.39,22 / 22,5097713,2019-11-06 17:31:18:175,0.0824,-0.4842,9.6208,0.0126,0.0007,9.8066,0.0202,-0.0346,0.0015,-4.37,-36.94,29.75,149.87,-88.33,-23.55
36252,52.952713,-1.275811,156.92,0.0,4,199.39,22 / 22,5097813,2019-11-06 17:31:18:275,0.6422,-0.4073,9.756,-0.0027,-0.0054,9.8066,0.0005,0.0549,-0.0194,-4.31,-36.5,30.19,149.13,-88.33,-24.29
36253,52.952713,-1.275811,156.92,0.0,4,199.39,22 / 22,5097914,2019-11-06 17:31:18:376,-0.2082,-1.116,9.7766,0.0069,0.002,9.8066,-0.0078,-0.0636,0.0433,-3.81,-36.12,29.81,149.02,-88.36,-24.38
