,GPS LATITUDE (degrees),GPS LONGITUDE (degrees), GPS ALTITUDE (m),GPS SPEED (Kmh),GPS ACCURACY (m),GPS ORIENTATION (Â°), SATELLITES IN RANGE, TIME SINCE START (ms), DATE (YYYY-MO-DD HH-MI-SS_SSS),ACCELEROMETER X (m/s²) , ACCELEROMETER Y (m/s²), ACCELEROMETER Z (m/s²), GRAVITY X (m/s²), GRAVITY Y (m/s²), GRAVITY Z (m/s²), GYROSCOPE Yaw (rad/s), GYROSCOPE Pitch (rad/s), GYROSCOPE Roll (rad/s)
36046,46.888542,-1.294378,105.1,35.13,11.792,153.2,0 / 18,3604614,2019-08-18 21:51:13:726,2.609,-0.976,9.8313,2.3297,-0.9599,9.4774,0.0094,0.0032,-0.0017
36047,46.888542,-1.294378,105.1,35.13,11.792,153.2,0 / 18,3604714,2019-08-18 21:51:13:826,2.2786,-0.9886,9.5003,2.3309,-0.9633,9.4768,-0.0076,0.0054,0.0036
36048,46.888542,-1.294378,105.1,35.13,11.792,153.2,0 / 18,3604815,2019-08-18 21:51:13:927,2.1678,-0.9784,9.702,2.326,-0.9672,9.4776,-0.0045,0.0054,0.0015
36049,46.888542,-1.294378,105.1,35.13,11.792,153.2,0 / 18,3604914,2019-08-18 21:51:14:026,2.0523,-1.0035,9.5709,2.3229,-0.9676,9.4783,-0.0002,-0.0021,0.0004
36050,46.888542,-1.294378,105.1,35.13,11.792,153.2,0 / 18,3605014,2019-08-18 21:51:14:126,2.2636,-0.8641,9.641,2.3104,-0.9611,9.482,0.0009,-0.001,0.0015
36051,46.888542,-1.294378,105.1,35.13,11.792,153.2,0 / 18,3605114,2019-08-18 21:51:14:226,2.4402,-0.8335,9.2393,2.3075,-0.9689,9.482,-0.0023,0.0054,0.0026
36052,46.888542,-1.294378,105.1,35.13,11.792,153.2,0 / 18,3605214,2019-08-18 21:51:14:326,2.6251,-1.1645,9.2818,2.3086,-0.9659,9.482,0.0009,0.0022,0.0004
36053,46.888542,-1.294378,105.1,35.13,11.792,153.2,0 / 18,3605314,2019-08-18 21:51:14:426,2.515,-0.8647,9.4602,2.3168,-0.9594,9.4806,0.003,-0.0096,-0.0017
36054,46.888542,-1.294378,105.1,35.13,11.792,153.2,0 / 18,3605414,2019-08-18 21:51:14:526,2.2133,-0.8982,9.1861,2.3143,-0.9601,9.4812,0.003,0.0086,0.0036
36055,46.888542,-1.294378,105.1,35.13,11.792,153.2,0 / 18,3605514,2019-08-18 21:51:14:626,2.0008,-0.9401,9.1136,2.3048,-0.9561,9.4839,0.0083,0.0043,0.0015
36056,46.888542,-1.294378,105.1,35.13,11.792,153.2,0 / 18,3605616,2019-08-18 21:51:14:728,1.9506,-0.7354,9.2807,2.3058,-0.9544,9.4838,0.0009,-0.0042,0.0015
36057,46.888542,-1.294378,105.1,35.13,11.792,153.2,0 / 18,3605715,2019-08-18 21:51:14:827,2.263,-1.0448,9.6535,2.306,-0.9482,9.4844,0.0009,-0.0053,0.0004
36058,46.888542,-1.294378,105.1,35.13,11.792,153.2,0 / 18,3605815,2019-08-18 21:51:14:927,2.5246,-0.8844,10.0947,2.3087,-0.9446,9.4841,0.0009,-0.0021,0.0004
36059,46.888542,-1.294378,105.1,35.13,11.792,153.2,0 / 18,3605914,2019-08-18 21:51:15:026,2.5383,-1.0095,9.5679,2.3068,-0.9447,9.4845,-0.0034,0.0054,0.0015
36060,46.888542,-1.294378,105.1,35.13,11.792,153.2,0 / 18,3606015,2019-08-18 21:51:15:127,2.5473,-0.961,9.3154,2.3173,-0.9655,9.4799,-0.0045,-0.0063,0.0015
36061,46.888542,-1.294378,105.1,35.13,11.792,153.2,0 / 18,3606115,2019-08-18 21:51:15:227,2.4324,-0.8174,9.0706,2.3263,-0.9662,9.4776,0.0083,0.0128,0.0036
36062,46.888542,-1.294378,105.1,35.13,11.792,153.2,0 / 18,3606215,2019-08-18 21:51:15:327,2.1301,-1.0544,9.1412,2.3178,-0.9562,9.4807,0.0137,0.0086,0.0026
36063,46.888542,-1.294378,105.1,35.13,11.792,153.2,0 / 18,3606314,2019-08-18 21:51:15:426,1.9542,-0.8054,9.6003,2.3187,-0.9465,9.4815,0.0051,-0.0053,0.0036
36064,46.888542,-1.294378,105.1,35.13,11.792,153.2,0 / 18,3606414,2019-08-18 21:51:15:526,2.0116,-0.9185,9.5009,2.3223,-0.9411,9.4811,0.0041,-0.0053,0.0015
36065,46.888542,-1.294378,105.1,35.13,11.792,153.2,0 / 18,3606515,2019-08-18 21:51:15:627,2.3917,-0.8485,9.7493,2.3128,-0.9302,9.4845,0.0051,0.0054,0.0047
36066,46.888542,-1.294378,105.1,35.13,11.792,153.2,0 / 18,3606615,2019-08-18 21:51:15:727,2.515,-0.8856,9.6829,2.313,-0.9246,9.485,0.0083,-0.0032,-0.0006
36067,46.888542,-1.294378,105.1,35.13,11.792,153.2,0 / 18,3606715,2019-08-18 21:51:15:827,2.6718,-1.0113,9.4824,2.3043,-0.94,9.4856,-0.0023,0.0043,0.0015
36068,46.888542,-1.294378,105.1,35.13,11.792,153.2,0 / 18,3606814,2019-08-18 21:51:15:926,2.3534,-0.9407,9.0083,2.2946,-0.9481,9.4872,0.0019,0.0139,-0.0017
36069,46.888542,-1.294378,105.1,35.13,11.792,153.2,0 / 18,3606915,2019-08-18 21:51:16:027,2.1427,-0.988,9.1472,2.2899,-0.9612,9.487,-0.0023,-0.001,-0.0006
36070,46.888542,-1.294378,105.1,35.13,11.792,153.2,0 / 18,3607014,2019-08-18 21:51:16:126,2.1128,-1.0706,9.6416,2.2931,-0.9639,9.4859,-0.0002,-0.0053,-0.0028
36071,46.888542,-1.294378,105.1,35.13,11.792,153.2,0 / 18,3607114,2019-08-18 21:51:16:226,1.9673,-1.0011,9.1579,2.3029,-0.9862,9.4813,0.0009,0.0043,-0.0028
36072,46.888542,-1.294378,105.1,35.13,11.792,153.2,0 / 18,3607214,2019-08-18 21:51:16:326,2.3953,-1.2238,9.4716,2.3207,-1.0169,9.4737,0.0009,-0.0021,-0.0049
36073,46.888542,-1.294378,105.1,35.13,11.792,153.2,Dec-18,3607315,2019-08-18 21:51:16:427,2.6036,-1.0568,9.3752,2.3408,-1.0289,9.4674,-0.0002,0.0022,-0.0028
36074,46.888542,-1.294378,105.1,35.13,11.792,153.2,Dec-18,3607414,2019-08-18 21:51:16:526,2.5892,-1.2166,9.2872,2.3543,-1.042,9.4627,0.0126,0.0128,-0.006
36075,46.888542,-1.294378,105.1,35.13,11.792,153.2,Dec-18,3607514,2019-08-18 21:51:16:626,2.8077,-1.2968,9.5422,2.3843,-1.0586,9.4533,-0.0002,-0.0042,-0.0017
36076,46.888542,-1.294378,105.1,35.13,11.792,153.2,Dec-18,3607614,2019-08-18 21:51:16:726,2.3971,-0.8742,9.4255,2.4235,-1.0563,9.4436,-0.0023,-0.0042,-0.0028
36077,46.888542,-1.294378,105.1,35.13,11.792,153.2,Dec-18,3607715,2019-08-18 21:51:16:827,2.3259,-1.1071,9.4297,2.4441,-1.0471,9.4393,-0.0045,0.0043,-0.0028
36078,46.888542,-1.294378,105.1,35.13,11.792,153.2,Dec-18,3607814,2019-08-18 21:51:16:926,2.1122,-0.9532,9.2627,2.4392,-1.0502,9.4402,-0.0045,0.0032,-0.0017
36079,46.888542,-1.294378,105.1,35.13,11.792,153.2,Dec-18,3607914,2019-08-18 21:51:17:026,2.2074,-1.064,9.5326,2.437,-1.0512,9.4407,0.0041,0.0022,-0.0038
36080,46.888542,-1.294378,105.1,35.13,11.792,153.2,Dec-18,3608014,2019-08-18 21:51:17:126,2.2822,-1.0017,9.6523,2.4247,-1.0534,9.4436,0.0019,0.0,-0.0017
36081,46.888542,-1.294378,105.1,35.13,11.792,153.2,Dec-18,3608114,2019-08-18 21:51:17:226,2.6281,-1.0622,9.8283,2.3963,-1.0641,9.4497,0.0041,0.0054,-0.0017
36082,46.888542,-1.294378,105.1,35.13,11.792,153.2,Dec-18,3608214,2019-08-18 21:51:17:326,2.5599,-1.1849,9.0107,2.3828,-1.0691,9.4525,-0.0013,0.0011,-0.0038
36083,46.888542,-1.294378,105.1,35.13,11.792,153.2,0 / 18,3608315,2019-08-18 21:51:17:427,2.6006,-1.1537,9.2112,2.3737,-1.072,9.4545,-0.0098,0.0054,-0.0006
36084,46.888542,-1.294378,105.1,35.13,11.792,153.2,0 / 18,3608414,2019-08-18 21:51:17:526,2.2834,-1.0257,9.401,2.3596,-1.0767,9.4575,0.0009,0.0054,-0.0017
36085,46.888542,-1.294378,105.1,35.13,11.792,153.2,0 / 18,3608514,2019-08-18 21:51:17:626,2.1505,-0.9658,9.2136,2.3678,-1.0796,9.4551,0.003,-0.0053,0.0004
36086,46.888542,-1.294378,105.1,35.13,11.792,153.2,0 / 18,3608614,2019-08-18 21:51:17:726,2.2433,-0.9766,9.2932,2.3698,-1.0711,9.4555,-0.0002,0.0011,0.0047
36087,46.888542,-1.294378,105.1,35.13,11.792,153.2,0 / 18,3608714,2019-08-18 21:51:17:826,2.4192,-0.7593,9.7296,2.3691,-1.0505,9.458,0.0115,-0.001,0.0015
36088,46.888542,-1.294378,105.1,35.13,11.792,153.2,0 / 18,3608814,2019-08-18 21:51:17:926,2.6551,-0.7815,9.7403,2.3786,-1.0397,9.4568,-0.0045,-0.0063,0.0058
36089,46.888542,-1.294378,105.1,35.13,11.792,153.2,0 / 18,3608914,2019-08-18 21:51:18:026,2.691,-0.818,9.5171,2.3775,-1.0311,9.458,0.003,0.0064,0.0058
36090,46.888542,-1.294378,105.1,35.13,11.792,153.2,0 / 18,3609014,2019-08-18 21:51:18:126,2.4671,-0.7288,9.3537,2.3699,-1.0152,9.4617,0.003,0.0064,0.0047
36091,46.888542,-1.294378,105.1,35.13,11.792,153.2,0 / 18,3609115,2019-08-18 21:51:18:227,2.26,-0.8264,9.2501,2.3663,-1.0019,9.464,0.0083,0.0054,0.0036
36092,46.888542,-1.294378,105.1,35.13,11.792,153.2,0 / 18,3609215,2019-08-18 21:51:18:327,2.178,-0.721,9.1915,2.3653,-0.9629,9.4683,0.0062,0.0011,0.0036
36093,46.88568,-1.292403,122.17,35.15,15.008,153.4,0 / 18,3609314,2019-08-18 21:51:18:426,2.0158,-0.7671,9.1987,2.3479,-0.9124,9.4776,0.003,0.0043,0.0058
36094,46.88568,-1.292403,122.17,35.15,15.008,153.4,0 / 18,3609414,2019-08-18 21:51:18:526,2.3067,-0.7306,9.8493,2.3384,-0.8747,9.4835,0.0019,0.0,0.0058
36095,46.88568,-1.292403,122.17,35.15,15.008,153.4,0 / 18,3609514,2019-08-18 21:51:18:626,2.1948,-0.5636,9.6194,2.336,-0.8489,9.4865,-0.0002,-0.0053,0.0058
36096,46.88568,-1.292403,122.17,35.15,15.008,153.4,0 / 18,3609615,2019-08-18 21:51:18:727,2.6551,-0.8892,9.723,2.3201,-0.829,9.4921,-0.0013,0.0086,0.0068
36097,46.88568,-1.292403,122.17,35.15,15.008,153.4,0 / 18,3609714,2019-08-18 21:51:18:826,2.5312,-0.8676,9.0915,2.3172,-0.8107,9.4944,0.0051,0.0107,0.0026
36098,46.88568,-1.292403,122.17,35.15,15.008,153.4,0 / 18,3609814,2019-08-18 21:51:18:926,2.5605,-0.9473,9.5338,2.3309,-0.8288,9.4895,0.0105,-0.0127,-0.0017
36099,46.88568,-1.292403,122.17,35.15,15.008,153.4,0 / 18,3609914,2019-08-18 21:51:19:026,2.196,-0.9766,9.3872,2.3426,-0.827,9.4868,-0.0013,-0.0127,0.0015
36100,46.88568,-1.292403,122.17,35.15,15.008,153.4,0 / 18,3610014,2019-08-18 21:51:19:126,2.0439,-0.7671,9.2459,2.3374,-0.8303,9.4877,-0.0002,0.0096,0.0047
36101,46.88568,-1.292403,122.17,35.15,15.008,153.4,0 / 18,3610115,2019-08-18 21:51:19:227,2.1601,-0.8629,9.3812,2.3322,-0.8347,9.4887,-0.0023,0.0064,0.0058
36102,46.88568,-1.292403,122.17,35.15,15.008,153.4,0 / 18,3610215,2019-08-18 21:51:19:327,2.5479,-0.8066,9.6075,2.34,-0.8401,9.4863,-0.0045,0.0011,0.0058
36103,46.88568,-1.292403,122.17,35.15,15.008,153.4,0 / 18,3610316,2019-08-18 21:51:19:428,2.767,-0.8479,9.7697,2.3648,-0.8375,9.4803,0.0041,-0.0138,-0.0006
36104,46.88568,-1.292403,122.17,35.15,15.008,153.4,0 / 18,3610415,2019-08-18 21:51:19:527,2.7676,-0.9335,9.5817,2.3776,-0.8446,9.4765,-0.0076,0.0,0.0036
36105,46.88568,-1.292403,122.17,35.15,15.008,153.4,0 / 18,3610515,2019-08-18 21:51:19:627,2.506,-0.8066,9.2274,2.3742,-0.8447,9.4773,0.0041,0.0096,0.0015
36106,46.88568,-1.292403,122.17,35.15,15.008,153.4,0 / 18,3610616,2019-08-18 21:51:19:728,2.3031,-0.9688,9.0538,2.3621,-0.8449,9.4804,0.0073,0.0139,0.0004
36107,46.88568,-1.292403,122.17,35.15,15.008,153.4,0 / 18,3610716,2019-08-18 21:51:19:828,2.1092,-0.8862,9.2974,2.3663,-0.848,9.479,0.0115,0.0,-0.0038
36108,46.88568,-1.292403,122.17,35.15,15.008,153.4,0 / 18,3610814,2019-08-18 21:51:19:926,2.3929,-0.9149,9.5769,2.3918,-0.8853,9.4692,-0.0034,-0.0042,0.0004
36109,46.88568,-1.292403,122.17,35.15,15.008,153.4,0 / 18,3610914,2019-08-18 21:51:20:026,2.6293,-1.0957,10.0193,2.3981,-0.8887,9.4673,-0.0002,-0.0063,-0.0017
36110,46.88568,-1.292403,122.17,35.15,15.008,153.4,0 / 18,3611014,2019-08-18 21:51:20:126,2.8083,-1.1717,9.3992,2.4053,-0.8977,9.4646,-0.0066,0.0043,0.0026
36111,46.88568,-1.292403,122.17,35.15,15.008,153.4,0 / 18,3611114,2019-08-18 21:51:20:226,2.7604,-1.0538,9.2262,2.4009,-0.9012,9.4654,0.003,0.0118,0.0004
36112,46.88568,-1.292403,122.17,35.15,15.008,153.4,0 / 18,3611215,2019-08-18 21:51:20:327,2.6377,-0.979,9.2741,2.3947,-0.8994,9.4672,0.0062,0.0086,0.0004
36113,46.88568,-1.292403,122.17,35.15,15.008,153.4,0 / 18,3611314,2019-08-18 21:51:20:426,2.2355,-1.0316,9.7433,2.4064,-0.9052,9.4636,0.0062,-0.0063,-0.0028
36114,46.88568,-1.292403,122.17,35.15,15.008,153.4,0 / 18,3611415,2019-08-18 21:51:20:527,2.2091,-1.0358,9.4626,2.4166,-0.9089,9.4607,0.0009,-0.0032,-0.0017
36115,46.88568,-1.292403,122.17,35.15,15.008,153.4,0 / 18,3611515,2019-08-18 21:51:20:627,2.4456,-1.0406,9.9145,2.4166,-0.9165,9.46,-0.0002,0.0011,-0.0038
36116,46.88568,-1.292403,122.17,35.15,15.008,153.4,0 / 18,3611614,2019-08-18 21:51:20:726,2.6162,-0.8437,9.4339,2.4208,-0.9279,9.4578,-0.0087,0.0032,0.0015
36117,46.88568,-1.292403,122.17,35.15,15.008,153.4,0 / 18,3611714,2019-08-18 21:51:20:826,2.7484,-1.1484,9.4315,2.4238,-0.9368,9.4561,0.0009,0.0075,-0.0006
36118,46.88568,-1.292403,122.17,35.15,15.008,153.4,0 / 18,3611815,2019-08-18 21:51:20:927,2.6293,-1.0029,9.462,2.4255,-0.9409,9.4553,0.0041,0.0,-0.0017
36119,46.88568,-1.292403,122.17,35.15,15.008,153.4,0 / 18,3611915,2019-08-18 21:51:21:027,2.2373,-0.9341,9.5273,2.4223,-0.9599,9.4542,0.0041,0.0054,-0.0006
36120,46.88568,-1.292403,122.17,35.15,15.008,153.4,0 / 18,3612015,2019-08-18 21:51:21:127,2.084,-0.9485,9.6326,2.4126,-0.9514,9.4575,-0.0013,-0.0096,-0.0017
36121,46.88568,-1.292403,122.17,35.15,15.008,153.4,0 / 18,3612114,2019-08-18 21:51:21:226,2.2361,-0.8892,9.7697,2.4111,-0.9564,9.4574,-0.0034,-0.0063,-0.0017
36122,46.88568,-1.292403,122.17,35.15,15.008,153.4,0 / 18,3612215,2019-08-18 21:51:21:327,2.3157,-1.0586,9.6015,2.4029,-0.9651,9.4586,-0.0066,0.0054,0.0026
36123,46.88568,-1.292403,122.17,35.15,15.008,153.4,0 / 18,3612315,2019-08-18 21:51:21:427,2.436,-1.0694,9.5799,2.3952,-0.9676,9.4603,-0.0002,0.0064,-0.0006
36124,46.88568,-1.292403,122.17,35.15,15.008,153.4,0 / 18,3612414,2019-08-18 21:51:21:526,2.4581,-1.1729,8.991,2.3822,-0.9672,9.4636,0.0062,0.0064,-0.0038
36125,46.88568,-1.292403,122.17,35.15,15.008,153.4,0 / 18,3612515,2019-08-18 21:51:21:627,2.4294,-1.0334,9.2274,2.3825,-0.964,9.4639,0.0009,-0.0032,-0.0049
36126,46.88568,-1.292403,122.17,35.15,15.008,153.4,0 / 18,3612615,2019-08-18 21:51:21:727,2.2337,-0.8868,9.4303,2.3799,-0.9695,9.464,-0.0023,0.0022,-0.0028
36127,46.88568,-1.292403,122.17,35.15,15.008,153.4,0 / 18,3612714,2019-08-18 21:51:21:826,2.093,-1.0801,9.3998,2.3628,-0.9919,9.4659,-0.013,0.0086,0.0015
36128,46.88568,-1.292403,122.17,35.15,15.008,153.4,0 / 18,3612814,2019-08-18 21:51:21:926,2.1816,-0.9509,9.7667,2.3515,-0.9981,9.4681,-0.0034,0.0107,-0.0017
36129,46.88568,-1.292403,122.17,35.15,15.008,153.4,0 / 18,3612914,2019-08-18 21:51:22:026,2.3259,-1.0394,9.981,2.3543,-0.9985,9.4673,0.003,-0.0085,-0.0038
36130,46.88568,-1.292403,122.17,35.15,15.008,153.4,0 / 18,3613016,2019-08-18 21:51:22:128,2.4701,-1.128,9.453,2.3549,-1.0031,9.4667,0.0009,0.0064,-0.0006
36131,46.88568,-1.292403,122.17,35.15,15.008,153.4,0 / 18,3613114,2019-08-18 21:51:22:226,2.506,-1.1789,9.1891,2.3496,-0.9991,9.4684,-0.0002,-0.001,-0.0006
36132,46.88568,-1.292403,122.17,35.15,15.008,153.4,0 / 18,3613214,2019-08-18 21:51:22:326,2.3959,-0.8665,9.134,2.3482,-1.0017,9.4685,0.0019,-0.001,0.0004
36133,46.88568,-1.292403,122.17,35.15,15.008,153.4,0 / 18,3613314,2019-08-18 21:51:22:426,2.2732,-0.8539,9.7828,2.3356,-0.9971,9.4721,-0.0013,-0.001,0.0015
36134,46.88568,-1.292403,122.17,35.15,15.008,153.4,0 / 18,3613414,2019-08-18 21:51:22:526,1.9464,-0.97,9.4602,2.3071,-0.9859,9.4803,0.0019,0.0118,0.0026
36135,46.88568,-1.292403,122.17,35.15,15.008,153.4,0 / 18,3613514,2019-08-18 21:51:22:626,1.9404,-0.8389,9.3908,2.284,-0.9889,9.4856,0.0041,0.0118,0.0026
36136,46.88568,-1.292403,122.17,35.15,15.008,153.4,0 / 18,3613615,2019-08-18 21:51:22:727,2.3013,-1.1538,9.7134,2.2804,-0.9771,9.4877,0.0158,-0.001,-0.0028
36137,46.88568,-1.292403,122.17,35.15,15.008,153.4,0 / 18,3613714,2019-08-18 21:51:22:826,2.5318,-1.1472,9.9959,2.2782,-0.9524,9.4907,0.0169,-0.0074,-0.0038
36138,46.88568,-1.292403,122.17,35.15,15.008,153.4,0 / 18,3613814,2019-08-18 21:51:22:926,2.6347,-1.1232,10.2868,2.2943,-0.96,9.486,-0.0183,-0.0276,0.0026
36139,46.88568,-1.292403,122.17,35.15,15.008,153.4,0 / 18,3613915,2019-08-18 21:51:23:027,2.114,-0.654,9.2717,2.2922,-0.999,9.4825,-0.0332,0.0096,0.009
36140,46.88568,-1.292403,122.17,35.15,15.008,153.4,0 / 18,3614014,2019-08-18 21:51:23:126,1.926,-0.8455,8.733,2.2763,-1.0043,9.4858,-0.0034,0.0203,0.0058
36141,46.88568,-1.292403,122.17,35.15,15.008,153.4,0 / 18,3614114,2019-08-18 21:51:23:226,1.9105,-1.0352,8.8455,2.261,-0.9861,9.4914,0.0211,0.0022,0.0004
36142,46.88568,-1.292403,122.17,35.15,15.008,153.4,0 / 18,3614214,2019-08-18 21:51:23:326,2.0619,-0.8623,9.4231,2.269,-0.9723,9.4909,0.0147,-0.0127,-0.0006
36143,46.88568,-1.292403,122.17,35.15,15.008,153.4,0 / 18,3614315,2019-08-18 21:51:23:427,2.4785,-0.9987,10.358,2.2858,-0.9644,9.4876,-0.0034,-0.0159,0.0015
36144,46.88568,-1.292403,122.17,35.15,15.008,153.4,0 / 18,3614415,2019-08-18 21:51:23:527,2.6227,-1.0933,9.9887,2.2895,-0.9713,9.486,-0.014,0.0022,0.0047
36145,46.88568,-1.292403,122.17,35.15,15.008,153.4,0 / 18,3614514,2019-08-18 21:51:23:626,2.497,-1.0472,9.1879,2.2725,-0.9747,9.4898,0.003,0.0224,0.0036
36146,46.88568,-1.292403,122.17,35.15,15.008,153.4,0 / 18,3614614,2019-08-18 21:51:23:726,2.2002,-1.0143,8.7587,2.2642,-0.9681,9.4925,0.0051,0.0086,0.0026
36147,46.88568,-1.292403,122.17,35.15,15.008,153.4,0 / 18,3614715,2019-08-18 21:51:23:827,2.2475,-1.0293,9.3519,2.2818,-0.9659,9.4885,0.003,-0.017,-0.0006
36148,46.88568,-1.292403,122.17,35.15,15.008,153.4,0 / 18,3614816,2019-08-18 21:51:23:928,2.2265,-0.8377,9.4608,2.2902,-0.9627,9.4868,0.0019,-0.0063,-0.0017
36149,46.88568,-1.292403,122.17,35.15,15.008,153.4,0 / 18,3614914,2019-08-18 21:51:24:026,2.3277,-0.6983,9.6751,2.2944,-0.9562,9.4864,0.0041,0.015,-0.0006
36150,46.88568,-1.292403,122.17,35.15,15.008,153.4,0 / 18,3615015,2019-08-18 21:51:24:127,2.2103,-1.0017,9.1394,2.3076,-0.9542,9.4834,0.0105,0.0054,-0.0038
36151,46.88568,-1.292403,122.17,35.15,15.008,153.4,0 / 18,3615114,2019-08-18 21:51:24:226,2.7287,-1.2483,9.5805,2.3333,-0.9777,9.4747,-0.0076,-0.0138,-0.0006
36152,46.88568,-1.292403,122.17,35.15,15.008,153.4,0 / 18,3615214,2019-08-18 21:51:24:326,2.6652,-1.0233,9.4913,2.339,-0.9884,9.4722,-0.0066,-0.001,-0.0006
36153,46.88568,-1.292403,122.17,35.15,15.008,153.4,0 / 18,3615314,2019-08-18 21:51:24:426,2.2552,-0.9915,9.1208,2.3296,-0.991,9.4742,0.0041,0.0182,0.0015
36154,46.88568,-1.292403,122.17,35.15,15.008,153.4,0 / 18,3615414,2019-08-18 21:51:24:526,2.1954,-1.0831,9.1891,2.3297,-0.989,9.4744,0.0062,-0.0053,-0.0006
36155,46.88568,-1.292403,122.17,35.15,15.008,153.4,0 / 18,3615515,2019-08-18 21:51:24:627,2.1451,-0.794,9.2783,2.3382,-0.981,9.4732,0.0083,0.0043,-0.0006
36156,46.88568,-1.292403,122.17,35.15,15.008,153.4,0 / 18,3615615,2019-08-18 21:51:24:727,2.5024,-0.9479,10.0408,2.3415,-0.9777,9.4727,-0.0002,-0.0063,-0.0006
36157,46.88568,-1.292403,122.17,35.15,15.008,153.4,0 / 18,3615714,2019-08-18 21:51:24:826,2.6808,-0.8293,9.9863,2.3487,-0.9803,9.4706,-0.0076,-0.0074,0.0036
36158,46.88568,-1.292403,122.17,35.15,15.008,153.4,0 / 18,3615814,2019-08-18 21:51:24:926,2.8819,-1.2591,9.5554,2.35,-0.9741,9.4709,0.0094,0.0075,0.0015
36159,46.88568,-1.292403,122.17,35.15,15.008,153.4,0 / 18,3615914,2019-08-18 21:51:25:026,2.3977,-1.1442,8.885,2.3654,-0.9656,9.468,0.003,0.015,0.0047
36160,46.88568,-1.292403,122.17,35.15,15.008,153.4,0 / 18,3616014,2019-08-18 21:51:25:126,2.1768,-0.873,9.0053,2.3565,-0.9696,9.4698,-0.0066,0.0107,0.0068
36161,46.88568,-1.292403,122.17,35.15,15.008,153.4,0 / 18,3616114,2019-08-18 21:51:25:226,2.1421,-0.9562,9.8403,2.372,-0.9687,9.466,-0.0002,-0.0213,0.0004
36162,46.88568,-1.292403,122.17,35.15,15.008,153.4,0 / 18,3616215,2019-08-18 21:51:25:327,2.017,-0.493,9.0472,2.3639,-0.9795,9.4669,-0.0151,0.0192,0.0111
36163,46.88568,-1.292403,122.17,35.15,15.008,153.4,Nov-18,3616314,2019-08-18 21:51:25:426,2.2307,-0.7144,8.5067,2.3394,-0.9713,9.4739,0.0179,0.0395,0.0036
36164,46.88568,-1.292403,122.17,35.15,15.008,153.4,Nov-18,3616414,2019-08-18 21:51:25:526,2.518,-1.225,9.3549,2.3303,-0.924,9.4808,0.0382,-0.0096,-0.007
36165,46.88568,-1.292403,122.17,35.15,15.008,153.4,Nov-18,3616514,2019-08-18 21:51:25:626,2.5545,-0.9993,10.0438,2.3486,-0.9149,9.4772,0.0073,-0.0234,-0.0038
36166,46.88568,-1.292403,122.17,35.15,15.008,153.4,Nov-18,3616614,2019-08-18 21:51:25:726,2.7796,-1.0227,10.458,2.3671,-0.9243,9.4717,-0.0204,-0.0202,0.0004
36167,46.88568,-1.292403,122.17,35.15,15.008,153.4,Nov-18,3616714,2019-08-18 21:51:25:826,2.527,-1.0436,9.8696,2.3784,-0.9367,9.4677,-0.0045,0.0011,-0.0006
36168,46.88568,-1.292403,122.17,35.15,15.008,153.4,Nov-18,3616814,2019-08-18 21:51:25:926,1.9518,-0.8976,8.821,2.3675,-0.9468,9.4694,-0.0076,0.0128,0.0047
36169,46.88568,-1.292403,122.17,35.15,15.008,153.4,Nov-18,3616914,2019-08-18 21:51:26:026,1.9691,-0.8156,8.4756,2.3612,-0.953,9.4703,-0.0023,0.0086,0.0015
36170,46.88568,-1.292403,122.17,35.15,15.008,153.4,Nov-18,3617014,2019-08-18 21:51:26:126,2.3833,-0.9987,9.067,2.3558,-0.9526,9.4717,0.0019,0.0043,0.0004
36171,46.88568,-1.292403,122.17,35.15,15.008,153.4,Nov-18,3617114,2019-08-18 21:51:26:226,2.676,-1.2465,9.6278,2.3549,-0.949,9.4723,0.0051,-0.001,-0.0028
36172,46.88568,-1.292403,122.17,35.15,15.008,153.4,Nov-18,3617215,2019-08-18 21:51:26:327,2.6192,-0.9371,9.8924,2.3546,-0.9501,9.4722,0.0062,0.0022,-0.0017
36173,46.88568,-1.292403,122.17,35.15,15.008,153.4,0 / 18,3617314,2019-08-18 21:51:26:426,2.3121,-1.0568,9.571,2.3508,-0.9488,9.4733,0.0062,0.0022,-0.0006
36174,46.88568,-1.292403,122.17,35.15,15.008,153.4,0 / 18,3617414,2019-08-18 21:51:26:526,2.1619,-0.9568,9.5883,2.3457,-0.9594,9.4735,-0.0066,0.0064,0.0004
36175,46.88568,-1.292403,122.17,35.15,15.008,153.4,0 / 18,3617515,2019-08-18 21:51:26:627,1.8578,-0.9012,9.3178,2.3339,-0.9644,9.4759,-0.0023,0.0096,-0.0006
36176,46.88568,-1.292403,122.17,35.15,15.008,153.4,0 / 18,3617614,2019-08-18 21:51:26:726,2.1655,-1.058,9.4722,2.3293,-0.9738,9.4761,-0.0076,-0.0021,-0.0006
36177,46.88568,-1.292403,122.17,35.15,15.008,153.4,0 / 18,3617714,2019-08-18 21:51:26:826,2.5126,-1.1214,9.6087,2.3067,-0.9978,9.4791,0.0009,-0.001,-0.0038
36178,46.88568,-1.292403,122.17,35.15,15.008,153.4,0 / 18,3617814,2019-08-18 21:51:26:926,2.5168,-1.2723,9.6739,2.3115,-1.0234,9.4752,0.0009,-0.0042,-0.0028
36179,46.88568,-1.292403,122.17,35.15,15.008,153.4,0 / 18,3617917,2019-08-18 21:51:27:029,2.2259,-1.2358,9.4381,2.305,-1.0416,9.4748,-0.0002,0.0032,-0.0006
36180,46.88568,-1.292403,122.17,35.15,15.008,153.4,0 / 18,3618014,2019-08-18 21:51:27:126,2.1074,-1.116,9.6362,2.2879,-1.0729,9.4755,-0.0045,-0.001,0.0004
36181,46.88568,-1.292403,122.17,35.15,15.008,153.4,0 / 18,3618114,2019-08-18 21:51:27:226,2.0589,-1.1304,9.3369,2.2688,-1.0789,9.4794,-0.0034,0.0096,-0.0006
36182,46.88568,-1.292403,122.17,35.15,15.008,153.4,0 / 18,3618214,2019-08-18 21:51:27:326,2.1463,-1.0041,9.4327,2.265,-1.0823,9.4799,0.0041,0.0054,-0.0028
36183,46.88313,-1.290505,118.8,35.66,18.224,153.7,0 / 18,3618314,2019-08-18 21:51:27:426,2.3109,-1.1095,9.3411,2.2634,-1.08,9.4806,0.0051,0.0011,-0.0028
36184,46.88313,-1.290505,118.8,35.66,18.224,153.7,0 / 18,3618415,2019-08-18 21:51:27:527,2.6108,-1.2675,9.5123,2.283,-1.0688,9.4771,0.0051,-0.0149,-0.006
36185,46.88313,-1.290505,118.8,35.66,18.224,153.7,0 / 18,3618515,2019-08-18 21:51:27:627,2.6084,-1.1585,9.5314,2.2899,-1.0705,9.4753,-0.0045,0.0,-0.0006
36186,46.88313,-1.290505,118.8,35.66,18.224,153.7,0 / 18,3618614,2019-08-18 21:51:27:726,2.2271,-0.7779,9.3429,2.2858,-1.0779,9.4754,-0.0087,0.0064,0.0015
36187,46.88313,-1.290505,118.8,35.66,18.224,153.7,0 / 18,3618715,2019-08-18 21:51:27:827,2.184,-1.0041,8.9018,2.2831,-1.0815,9.4757,-0.0034,0.0096,0.0004
36188,46.88313,-1.290505,118.8,35.66,18.224,153.7,0 / 18,3618814,2019-08-18 21:51:27:926,2.1702,-0.8748,9.3692,2.2888,-1.076,9.4749,0.0105,-0.0096,-0.0017
36189,46.88313,-1.290505,118.8,35.66,18.224,153.7,0 / 18,3618914,2019-08-18 21:51:28:026,2.4731,-0.9574,9.8176,2.3036,-1.0598,9.4731,0.0211,-0.0127,-0.0049
36190,46.88313,-1.290505,118.8,35.66,18.224,153.7,0 / 18,3619014,2019-08-18 21:51:28:126,2.6221,-1.0149,9.629,2.3078,-1.0479,9.4734,-0.0002,0.0086,0.0036
36191,46.88313,-1.290505,118.8,35.66,18.224,153.7,0 / 18,3619115,2019-08-18 21:51:28:227,2.6754,-0.961,9.0149,2.3034,-1.0412,9.4753,0.0062,0.015,0.0047
36192,46.88313,-1.290505,118.8,35.66,18.224,153.7,0 / 18,3619215,2019-08-18 21:51:28:327,2.4019,-0.7868,8.8509,2.3031,-1.0221,9.4774,0.0062,0.0011,0.0015
36193,46.88313,-1.290505,118.8,35.66,18.224,153.7,0 / 18,3619314,2019-08-18 21:51:28:426,2.3336,-0.6875,9.565,2.3359,-0.9812,9.4737,0.0094,0.0011,0.0004
36194,46.88313,-1.290505,118.8,35.66,18.224,153.7,0 / 18,3619415,2019-08-18 21:51:28:527,2.2283,-0.8796,9.3818,2.3614,-0.9533,9.4702,0.0073,-0.0032,-0.0006
36195,46.88313,-1.290505,118.8,35.66,18.224,153.7,0 / 18,3619515,2019-08-18 21:51:28:627,2.3725,-0.7671,9.7164,2.3828,-0.9333,9.4669,0.0051,-0.0021,-0.0006
36196,46.88313,-1.290505,118.8,35.66,18.224,153.7,0 / 18,3619615,2019-08-18 21:51:28:727,2.7287,-1.0688,9.9768,2.3901,-0.9304,9.4653,-0.0023,-0.0053,0.0015
36197,46.88313,-1.290505,118.8,35.66,18.224,153.7,0 / 18,3619715,2019-08-18 21:51:28:827,2.6766,-1.0574,9.6039,2.4182,-0.9199,9.4592,-0.0055,-0.0042,0.0026
36198,46.88313,-1.290505,118.8,35.66,18.224,153.7,0 / 18,3619815,2019-08-18 21:51:28:927,2.7227,-0.7916,9.0538,2.4261,-0.9235,9.4568,-0.0087,0.0096,0.0058
36199,46.88313,-1.290505,118.8,35.66,18.224,153.7,0 / 18,3619914,2019-08-18 21:51:29:026,2.4689,-0.7431,9.14,2.4245,-0.9172,9.4579,0.0073,0.0043,0.0026
36200,46.88313,-1.290505,118.8,35.66,18.224,153.7,0 / 18,3620015,2019-08-18 21:51:29:127,2.2887,-0.6845,9.4931,2.423,-0.9129,9.4587,0.0115,0.0054,0.0015
36201,46.88313,-1.290505,118.8,35.66,18.224,153.7,0 / 18,3620114,2019-08-18 21:51:29:226,2.272,-0.8479,9.7828,2.4135,-0.8979,9.4625,-0.0002,0.0022,0.0015
36202,46.88313,-1.290505,118.8,35.66,18.224,153.7,0 / 18,3620214,2019-08-18 21:51:29:326,2.4216,-0.9509,9.4429,2.4069,-0.9009,9.4639,-0.0045,0.0107,0.0026
36203,46.88313,-1.290505,118.8,35.66,18.224,153.7,0 / 18,3620314,2019-08-18 21:51:29:426,2.6251,-1.2519,9.5925,2.4021,-0.9003,9.4652,0.0019,0.0,-0.0006
36204,46.88313,-1.290505,118.8,35.66,18.224,153.7,0 / 18,3620415,2019-08-18 21:51:29:527,2.4486,-0.9951,9.1687,2.4032,-0.8993,9.465,0.003,-0.0032,0.0004
36205,46.88313,-1.290505,118.8,35.66,18.224,153.7,0 / 18,3620514,2019-08-18 21:51:29:626,2.2618,-0.8084,9.2794,2.396,-0.9046,9.4663,0.0041,-0.0032,-0.0017
36206,46.88313,-1.290505,118.8,35.66,18.224,153.7,0 / 18,3620615,2019-08-18 21:51:29:727,2.4204,-1.0137,9.7487,2.389,-0.9171,9.4669,0.0009,-0.001,-0.0006
36207,46.88313,-1.290505,118.8,35.66,18.224,153.7,0 / 18,3620715,2019-08-18 21:51:29:827,2.2056,-0.8192,9.8529,2.3775,-0.9243,9.4691,0.0041,0.0022,-0.0017
36208,46.88313,-1.290505,118.8,35.66,18.224,153.7,0 / 18,3620814,2019-08-18 21:51:29:926,2.3701,-1.0765,9.5781,2.37,-0.941,9.4693,-0.0002,0.0075,-0.0017
36209,46.88313,-1.290505,118.8,35.66,18.224,153.7,0 / 18,3620915,2019-08-18 21:51:30:027,2.415,-1.1178,9.4393,2.3724,-0.9528,9.4675,-0.0045,0.0064,-0.0028
36210,46.88313,-1.290505,118.8,35.66,18.224,153.7,0 / 18,3621014,2019-08-18 21:51:30:126,2.5449,-1.0789,9.201,2.3986,-0.9986,9.4562,-0.0045,-0.0085,-0.006
36211,46.88313,-1.290505,118.8,35.66,18.224,153.7,0 / 18,3621116,2019-08-18 21:51:30:228,2.4737,-1.1705,9.128,2.4231,-1.0356,9.446,-0.0023,-0.0032,-0.0038
36212,46.88313,-1.290505,118.8,35.66,18.224,153.7,0 / 18,3621214,2019-08-18 21:51:30:326,2.524,-0.9622,9.556,2.4435,-1.0529,9.4388,-0.0066,-0.001,-0.0028
36213,46.88313,-1.290505,118.8,35.66,18.224,153.7,0 / 18,3621314,2019-08-18 21:51:30:426,2.4222,-0.9987,9.2136,2.4745,-1.0577,9.4302,-0.0076,0.0054,-0.0017
36214,46.88313,-1.290505,118.8,35.66,18.224,153.7,0 / 18,3621414,2019-08-18 21:51:30:526,2.6491,-1.1514,9.6069,2.4864,-1.0612,9.4267,-0.0055,0.0022,-0.0038
36215,46.88313,-1.290505,118.8,35.66,18.224,153.7,0 / 18,3621514,2019-08-18 21:51:30:626,2.5826,-1.1466,9.3884,2.5107,-1.0657,9.4197,-0.0076,0.0086,-0.0017
36216,46.88313,-1.290505,118.8,35.66,18.224,153.7,0 / 18,3621615,2019-08-18 21:51:30:727,2.7664,-1.4638,9.1418,2.534,-1.0869,9.411,0.0051,0.0,-0.006
36217,46.88313,-1.290505,118.8,35.66,18.224,153.7,0 / 18,3621714,2019-08-18 21:51:30:826,2.664,-1.0682,8.9951,2.5643,-1.1043,9.4008,0.0019,0.0022,-0.0049
36218,46.88313,-1.290505,118.8,35.66,18.224,153.7,0 / 18,3621814,2019-08-18 21:51:30:926,2.6347,-1.037,9.456,2.5747,-1.1081,9.3975,0.0083,0.0,-0.006
36219,46.88313,-1.290505,118.8,35.66,18.224,153.7,0 / 18,3621914,2019-08-18 21:51:31:026,2.3785,-0.8599,9.4919,2.5791,-1.0975,9.3976,0.0073,0.0086,-0.007
36220,46.88313,-1.290505,118.8,35.66,18.224,153.7,0 / 18,3622014,2019-08-18 21:51:31:126,2.6054,-1.0753,9.8523,2.5848,-1.107,9.3949,-0.0055,-0.001,-0.006
36221,46.88313,-1.290505,118.8,35.66,18.224,153.7,0 / 18,3622114,2019-08-18 21:51:31:226,2.7191,-1.2669,9.4453,2.5802,-1.1239,9.3941,-0.0066,0.0043,-0.007
36222,46.88313,-1.290505,118.8,35.66,18.224,153.7,0 / 18,3622215,2019-08-18 21:51:31:327,2.7526,-1.2711,9.3842,2.5724,-1.1403,9.3943,-0.0034,-0.0032,-0.0102
36223,46.88313,-1.290505,118.8,35.66,18.224,153.7,0 / 18,3622314,2019-08-18 21:51:31:426,2.5084,-1.0293,9.3201,2.5629,-1.1815,9.3918,-0.0098,0.0011,-0.006
36224,46.88313,-1.290505,118.8,35.66,18.224,153.7,0 / 18,3622415,2019-08-18 21:51:31:527,2.2708,-1.1095,9.2016,2.5511,-1.1962,9.3932,-0.0066,0.0075,-0.0081
36225,46.88313,-1.290505,118.8,35.66,18.224,153.7,0 / 18,3622516,2019-08-18 21:51:31:628,2.3576,-1.1849,9.116,2.5445,-1.1992,9.3946,-0.0045,0.0064,-0.0102
36226,46.88313,-1.290505,118.8,35.66,18.224,153.7,0 / 18,3622614,2019-08-18 21:51:31:726,2.6407,-1.4435,9.5955,2.5306,-1.2256,9.3949,-0.0076,0.0064,-0.0113
36227,46.88313,-1.290505,118.8,35.66,18.224,153.7,0 / 18,3622714,2019-08-18 21:51:31:826,2.782,-1.6033,9.6907,2.5319,-1.2371,9.3931,-0.0023,-0.001,-0.0155
36228,46.88313,-1.290505,118.8,35.66,18.224,153.7,0 / 18,3622814,2019-08-18 21:51:31:926,2.6898,-1.6895,9.2136,2.5336,-1.2456,9.3915,-0.0055,0.0011,-0.0134
36229,46.88313,-1.290505,118.8,35.66,18.224,153.7,0 / 18,3622914,2019-08-18 21:51:32:026,2.4695,-1.3034,9.5937,2.5485,-1.3008,9.3799,-0.0055,-0.0042,-0.0134
36230,46.88313,-1.290505,118.8,35.66,18.224,153.7,0 / 18,3623014,2019-08-18 21:51:32:126,2.5461,-1.3381,9.392,2.5542,-1.3311,9.3741,-0.0076,0.0011,-0.0102
36231,46.88313,-1.290505,118.8,35.66,18.224,153.7,0 / 18,3623114,2019-08-18 21:51:32:226,2.9118,-1.4542,10.1503,2.5493,-1.3412,9.374,-0.0098,0.015,-0.0038
36232,46.88313,-1.290505,118.8,35.66,18.224,153.7,0 / 18,3623214,2019-08-18 21:51:32:326,2.4641,-1.5087,9.1472,2.545,-1.3406,9.3753,0.003,0.0118,-0.007
36233,46.88313,-1.290505,118.8,35.66,18.224,153.7,0 / 18,3623314,2019-08-18 21:51:32:426,2.7496,-1.2411,9.3273,2.546,-1.3224,9.3776,0.0115,-0.0074,-0.0102
36234,46.88313,-1.290505,118.8,35.66,18.224,153.7,0 / 18,3623415,2019-08-18 21:51:32:527,2.5,-1.216,9.3974,2.5516,-1.3165,9.3769,-0.0002,-0.0021,-0.006
36235,46.88313,-1.290505,118.8,35.66,18.224,153.7,0 / 18,3623514,2019-08-18 21:51:32:626,2.5557,-1.3692,9.9139,2.5479,-1.3151,9.3781,-0.0066,0.0022,-0.0038
36236,46.88313,-1.290505,118.8,35.66,18.224,153.7,0 / 18,3623614,2019-08-18 21:51:32:726,2.3576,-1.0436,9.5434,2.5342,-1.3139,9.382,-0.0087,0.0086,-0.0017
36237,46.88313,-1.290505,118.8,35.66,18.224,153.7,0 / 18,3623714,2019-08-18 21:51:32:826,2.5838,-1.292,9.7158,2.5272,-1.2956,9.3864,0.003,-0.0032,-0.0081
36238,46.88313,-1.290505,118.8,35.66,18.224,153.7,0 / 18,3623814,2019-08-18 21:51:32:926,2.5844,-1.407,9.9073,2.532,-1.2841,9.3867,-0.0119,-0.0096,-0.006
36239,46.88313,-1.290505,118.8,35.66,18.224,153.7,0 / 18,3623915,2019-08-18 21:51:33:027,2.3229,-1.0741,8.6264,2.5204,-1.2861,9.3896,-0.0055,0.0235,-0.0038
36240,46.88313,-1.290505,118.8,35.66,18.224,153.7,0 / 18,3624014,2019-08-18 21:51:33:126,2.2959,-1.2537,8.393,2.5002,-1.2791,9.3959,0.0115,0.0267,-0.0092
36241,46.88313,-1.290505,118.8,35.66,18.224,153.7,0 / 18,3624114,2019-08-18 21:51:33:226,2.2876,-1.2854,9.8229,2.4931,-1.2673,9.3994,0.0051,-0.0085,-0.0124
36242,46.88313,-1.290505,118.8,35.66,18.224,153.7,0 / 18,3624214,2019-08-18 21:51:33:326,2.6886,-1.4734,9.7984,2.5003,-1.2749,9.3965,-0.0108,-0.0042,-0.0092
36243,46.88313,-1.290505,118.8,35.66,18.224,153.7,0 / 18,3624314,2019-08-18 21:51:33:426,2.5719,-1.632,9.6344,2.5015,-1.2802,9.3954,-0.0013,-0.0032,-0.0113
36244,46.88313,-1.290505,118.8,35.66,18.224,153.7,0 / 18,3624415,2019-08-18 21:51:33:527,2.4767,-1.5291,9.6446,2.5054,-1.2863,9.3936,0.0137,0.0032,-0.0134
36245,46.88313,-1.290505,118.8,35.66,18.224,153.7,0 / 18,3624514,2019-08-18 21:51:33:626,2.5048,-1.2645,9.3255,2.5078,-1.2837,9.3933,0.0062,0.0,-0.0134
36246,46.88313,-1.290505,118.8,35.66,18.224,153.7,0 / 18,3624614,2019-08-18 21:51:33:726,2.4354,-1.2878,9.0376,2.5111,-1.2882,9.3918,-0.0066,0.0032,-0.0102
36247,46.88313,-1.290505,118.8,35.66,18.224,153.7,0 / 18,3624714,2019-08-18 21:51:33:826,2.576,-1.4345,9.128,2.5134,-1.2958,9.3901,-0.0066,0.0022,-0.0124
36248,46.88313,-1.290505,118.8,35.66,18.224,153.7,0 / 18,3624814,2019-08-18 21:51:33:926,2.5354,-1.3549,8.8192,2.5234,-1.3124,9.3851,-0.0023,0.0128,-0.007
36249,46.88313,-1.290505,118.8,35.66,18.224,153.7,0 / 18,3624914,2019-08-18 21:51:34:026,2.6257,-1.4087,9.2298,2.5396,-1.3251,9.379,0.0041,0.0086,-0.0081
36250,46.88313,-1.290505,118.8,35.66,18.224,153.7,0 / 18,3625014,2019-08-18 21:51:34:126,2.618,-1.1837,9.6595,2.5475,-1.3237,9.377,-0.0055,-0.0053,-0.006
36251,46.88313,-1.290505,118.8,35.66,18.224,153.7,0 / 18,3625114,2019-08-18 21:51:34:226,2.4539,-1.3453,9.7451,2.5507,-1.3237,9.3761,-0.0045,-0.0032,-0.0092
36252,46.88313,-1.290505,118.8,35.66,18.224,153.7,0 / 18,3625214,2019-08-18 21:51:34:326,2.7305,-1.3405,10.1934,2.5523,-1.3225,9.3759,-0.0034,0.0,-0.0102
36253,46.88313,-1.290505,118.8,35.66,18.224,153.7,Oct-18,3625315,2019-08-18 21:51:34:427,2.5719,-1.4734,9.3896,2.5444,-1.3338,9.3764,-0.0151,0.0075,-0.007
36254,46.88313,-1.290505,118.8,35.66,18.224,153.7,Oct-18,3625414,2019-08-18 21:51:34:526,2.3708,-1.2705,8.5025,2.5344,-1.3442,9.3776,-0.0098,0.0107,-0.0081
36255,46.88313,-1.290505,118.8,35.66,18.224,153.7,Oct-18,3625514,2019-08-18 21:51:34:626,2.5593,-1.2058,9.1286,2.5311,-1.3394,9.3792,0.0062,0.0022,-0.0145
36256,46.88313,-1.290505,118.8,35.66,18.224,153.7,Oct-18,3625614,2019-08-18 21:51:34:726,2.5713,-1.708,10.1725,2.536,-1.3476,9.3767,-0.0108,-0.0053,-0.0113
36257,46.88313,-1.290505,118.8,35.66,18.224,153.7,Oct-18,3625715,2019-08-18 21:51:34:827,2.3965,-1.6715,9.471,2.5341,-1.3518,9.3766,-0.0023,0.0043,-0.0124
36258,46.88313,-1.290505,118.8,35.66,18.224,153.7,Oct-18,3625814,2019-08-18 21:51:34:926,2.506,-1.5314,9.2681,2.5268,-1.3927,9.3726,-0.0013,0.0054,-0.0145
36259,46.88313,-1.290505,118.8,35.66,18.224,153.7,Oct-18,3625914,2019-08-18 21:51:35:026,2.5425,-1.6392,8.8293,2.523,-1.394,9.3735,0.0009,0.0075,-0.0124
36260,46.88313,-1.290505,118.8,35.66,18.224,153.7,Oct-18,3626015,2019-08-18 21:51:35:127,2.5731,-1.3447,9.6104,2.5288,-1.4071,9.3699,-0.0023,-0.001,-0.0113
36261,46.88313,-1.290505,118.8,35.66,18.224,153.7,Oct-18,3626114,2019-08-18 21:51:35:226,2.6646,-1.4052,9.3968,2.5253,-1.403,9.3715,0.0051,0.0107,-0.0124
36262,46.88313,-1.290505,118.8,35.66,18.224,153.7,Oct-18,3626214,2019-08-18 21:51:35:326,2.6108,-1.465,9.7918,2.5384,-1.416,9.366,-0.0045,-0.0053,-0.0102
36263,46.88313,-1.290505,118.8,35.66,18.224,153.7,0 / 18,3626314,2019-08-18 21:51:35:426,2.6371,-1.4967,9.0622,2.54,-1.4172,9.3654,-0.0045,0.0075,-0.0092
36264,46.88313,-1.290505,118.8,35.66,18.224,153.7,0 / 18,3626415,2019-08-18 21:51:35:527,2.4893,-1.307,8.7605,2.5397,-1.4086,9.3668,0.0094,0.0011,-0.0102
36265,46.88313,-1.290505,118.8,35.66,18.224,153.7,0 / 18,3626515,2019-08-18 21:51:35:627,2.7293,-1.2579,10.0618,2.5405,-1.4011,9.3677,0.0051,0.0011,-0.0092
36266,46.88313,-1.290505,118.8,35.66,18.224,153.7,0 / 18,3626615,2019-08-18 21:51:35:727,2.2385,-1.526,10.0205,2.539,-1.3852,9.3704,0.0105,-0.0042,-0.0134
36267,46.88313,-1.290505,118.8,35.66,18.224,153.7,0 / 18,3626715,2019-08-18 21:51:35:827,2.588,-1.5374,10.2413,2.5347,-1.381,9.3722,-0.0013,0.0043,-0.0081
36268,46.88313,-1.290505,118.8,35.66,18.224,153.7,0 / 18,3626815,2019-08-18 21:51:35:927,2.1223,-1.3914,9.0209,2.5183,-1.3806,9.3767,-0.0045,0.0064,-0.0028
36269,46.88313,-1.290505,118.8,35.66,18.224,153.7,0 / 18,3626915,2019-08-18 21:51:36:027,2.029,-1.2585,8.8443,2.4957,-1.3781,9.3831,-0.0013,0.0182,0.0004
36270,46.88313,-1.290505,118.8,35.66,18.224,153.7,0 / 18,3627014,2019-08-18 21:51:36:126,1.9685,-0.9634,9.2238,2.4624,-1.3683,9.3933,0.0019,0.0096,-0.0028
36271,46.88313,-1.290505,118.8,35.66,18.224,153.7,0 / 18,3627115,2019-08-18 21:51:36:227,1.8775,-1.3267,9.3178,2.4376,-1.3686,9.3998,-0.0076,0.0096,0.0015
36272,46.88313,-1.290505,118.8,35.66,18.224,153.7,0 / 18,3627214,2019-08-18 21:51:36:326,2.0595,-1.4327,9.714,2.4105,-1.3644,9.4074,-0.0002,-0.0053,-0.0038
36273,46.88313,-1.290505,118.8,35.66,18.224,153.7,0 / 18,3627314,2019-08-18 21:51:36:426,2.0613,-1.3381,9.5572,2.4002,-1.3607,9.4105,0.0009,-0.0053,-0.0028
36274,46.88313,-1.290505,118.8,35.66,18.224,153.7,0 / 18,3627416,2019-08-18 21:51:36:528,1.8261,-1.3758,9.2926,2.3726,-1.3502,9.419,0.0073,0.0043,-0.006
36275,46.88313,-1.290505,118.8,35.66,18.224,153.7,0 / 18,3627515,2019-08-18 21:51:36:627,1.771,-1.0388,9.146,2.2793,-1.3424,9.4432,-0.0045,0.0022,-0.0038
36276,46.88313,-1.290505,118.8,35.66,18.224,153.7,0 / 18,3627614,2019-08-18 21:51:36:726,1.5843,-1.2112,9.8942,2.1447,-1.3138,9.4786,0.0062,-0.0053,-0.007
36277,46.88313,-1.290505,118.8,35.66,18.224,153.7,0 / 18,3627716,2019-08-18 21:51:36:828,2.2391,-1.5308,10.0294,2.1192,-1.3183,9.4837,-0.0045,-0.0074,-0.0028
36278,46.88313,-1.290505,118.8,35.66,18.224,153.7,0 / 18,3627816,2019-08-18 21:51:36:928,1.783,-1.3914,9.3267,2.1065,-1.3188,9.4865,-0.0034,0.0064,-0.0006
36279,46.88313,-1.290505,118.8,35.66,18.224,153.7,0 / 18,3627915,2019-08-18 21:51:37:027,2.3121,-1.4692,9.1675,2.1032,-1.3189,9.4872,-0.0023,0.0032,-0.0038
36280,46.88313,-1.290505,118.8,35.66,18.224,153.7,0 / 18,3628015,2019-08-18 21:51:37:127,1.7716,-1.0771,8.7204,2.0876,-1.3149,9.4912,0.0051,0.0139,-0.0049
36281,46.88313,-1.290505,118.8,35.66,18.224,153.7,0 / 18,3628115,2019-08-18 21:51:37:227,2.354,-1.1669,9.7457,2.0834,-1.3052,9.4935,0.0041,-0.0032,-0.007
36282,46.88313,-1.290505,118.8,35.66,18.224,153.7,0 / 18,3628215,2019-08-18 21:51:37:327,2.2002,-1.4441,10.2234,2.0816,-1.2992,9.4947,0.0073,0.0011,-0.007
36283,46.88313,-1.290505,118.8,35.66,18.224,153.7,0 / 18,3628315,2019-08-18 21:51:37:427,2.1247,-1.4225,9.9097,2.0802,-1.2905,9.4962,0.0094,0.0022,-0.0081
36284,46.88313,-1.290505,118.8,35.66,18.224,153.7,0 / 18,3628415,2019-08-18 21:51:37:527,2.0601,-1.3567,9.5685,2.0836,-1.2798,9.4969,0.0041,-0.001,-0.0081
36285,46.88313,-1.290505,118.8,35.66,18.224,153.7,0 / 18,3628515,2019-08-18 21:51:37:627,2.3336,-1.1017,9.4722,2.116,-1.2846,9.4891,-0.0087,-0.0053,-0.0092
36286,46.88313,-1.290505,118.8,35.66,18.224,153.7,0 / 18,3628615,2019-08-18 21:51:37:727,2.1631,-1.0945,9.0329,2.1381,-1.3016,9.4818,-0.0108,-0.0032,-0.0113
36287,46.88313,-1.290505,118.8,35.66,18.224,153.7,0 / 18,3628715,2019-08-18 21:51:37:827,2.1846,-1.228,9.3992,2.1482,-1.3117,9.4781,-0.0045,0.0022,-0.0124
36288,46.88313,-1.290505,118.8,35.66,18.224,153.7,0 / 18,3628814,2019-08-18 21:51:37:926,2.3336,-1.4716,9.6907,2.1526,-1.3193,9.4761,-0.0013,0.0075,-0.0124
36289,46.88313,-1.290505,118.8,35.66,18.224,153.7,0 / 18,3628915,2019-08-18 21:51:38:027,2.2457,-1.7098,8.906,2.154,-1.3262,9.4748,-0.0034,0.0075,-0.0134
36290,46.88313,-1.290505,118.8,35.66,18.224,153.7,0 / 18,3629014,2019-08-18 21:51:38:126,2.1547,-1.6128,8.6073,2.1577,-1.3367,9.4725,-0.0023,0.0075,-0.0155
36291,46.88313,-1.290505,118.8,35.66,18.224,153.7,0 / 18,3629115,2019-08-18 21:51:38:227,2.676,-1.5913,9.0801,2.1741,-1.3494,9.4669,-0.0055,-0.0032,-0.0166
36292,46.88313,-1.290505,118.8,35.66,18.224,153.7,0 / 18,3629214,2019-08-18 21:51:38:326,2.5419,-1.5153,9.6398,2.1874,-1.358,9.4626,-0.0055,-0.0042,-0.0145
36293,46.88313,-1.290505,118.8,35.66,18.224,153.7,0 / 18,3629315,2019-08-18 21:51:38:427,2.5341,-1.4261,9.7068,2.2116,-1.3607,9.4566,0.0083,-0.0042,-0.0166
36294,46.88313,-1.290505,118.8,35.66,18.224,153.7,0 / 18,3629415,2019-08-18 21:51:38:527,2.4851,-1.4967,9.535,2.2243,-1.3632,9.4533,-0.0013,-0.001,-0.0124
36295,46.88313,-1.290505,118.8,35.66,18.224,153.7,0 / 18,3629514,2019-08-18 21:51:38:626,2.4785,-1.4949,9.638,2.231,-1.3655,9.4514,-0.0055,0.0064,-0.0092
36296,46.88313,-1.290505,118.8,35.66,18.224,153.7,0 / 18,3629614,2019-08-18 21:51:38:726,2.445,-1.3417,9.1268,2.239,-1.3694,9.4489,0.0009,0.0107,-0.0081
36297,46.88313,-1.290505,118.8,35.66,18.224,153.7,0 / 18,3629715,2019-08-18 21:51:38:827,2.5252,-1.1418,9.1765,2.2968,-1.358,9.4367,0.0062,0.0032,-0.006
36298,46.88313,-1.290505,118.8,35.66,18.224,153.7,0 / 18,3629815,2019-08-18 21:51:38:927,2.6976,-1.0945,9.7649,2.3256,-1.3538,9.4302,-0.0023,-0.0042,-0.007
36299,46.88313,-1.290505,118.8,35.66,18.224,153.7,0 / 18,3629915,2019-08-18 21:51:39:027,2.339,-1.204,9.8517,2.3236,-1.3425,9.4323,0.0041,0.0043,-0.006
36300,46.88313,-1.290505,118.8,35.66,18.224,153.7,0 / 18,3630015,2019-08-18 21:51:39:127,2.1631,-1.3507,9.5255,2.3268,-1.3408,9.4318,-0.0076,-0.001,-0.0038
36301,46.88313,-1.290505,118.8,35.66,18.224,153.7,0 / 18,3630114,2019-08-18 21:51:39:226,2.0445,-1.1573,9.1885,2.3195,-1.3341,9.4345,0.0051,0.0086,-0.006
36302,46.88313,-1.290505,118.8,35.66,18.224,153.7,0 / 18,3630216,2019-08-18 21:51:39:328,2.26,-1.2759,9.207,2.3114,-1.329,9.4372,0.0019,0.0075,-0.0049
36303,46.88313,-1.290505,118.8,35.66,18.224,153.7,0 / 18,3630314,2019-08-18 21:51:39:426,2.3079,-1.1316,9.702,2.303,-1.3157,9.4412,0.003,-0.0021,-0.006
36304,46.88313,-1.290505,118.8,35.66,18.224,153.7,0 / 18,3630414,2019-08-18 21:51:39:526,2.2127,-1.301,9.9468,2.2974,-1.3095,9.4434,-0.0013,-0.0042,-0.007
36305,46.88313,-1.290505,118.8,35.66,18.224,153.7,0 / 18,3630514,2019-08-18 21:51:39:626,2.1319,-1.2777,9.1855,2.2955,-1.3078,9.4441,-0.0023,0.0043,-0.007
36306,46.88313,-1.290505,118.8,35.66,18.224,153.7,0 / 18,3630614,2019-08-18 21:51:39:726,2.0996,-1.283,9.4824,2.2844,-1.3121,9.4462,-0.0076,0.0075,-0.0049
36307,46.88313,-1.290505,118.8,35.66,18.224,153.7,0 / 18,3630714,2019-08-18 21:51:39:826,1.9697,-1.3758,9.0694,2.2643,-1.3088,9.4515,0.0062,0.0128,-0.007
36308,46.88313,-1.290505,118.8,35.66,18.224,153.7,0 / 18,3630815,2019-08-18 21:51:39:927,2.1954,-1.3148,9.0795,2.2609,-1.3069,9.4525,0.0009,0.0,-0.0092
36309,46.88313,-1.290505,118.8,35.66,18.224,153.7,0 / 18,3630914,2019-08-18 21:51:40:026,2.582,-1.1478,9.6889,2.2701,-1.2966,9.4518,0.0094,-0.0074,-0.0113
36310,46.88313,-1.290505,118.8,35.66,18.224,153.7,0 / 18,3631016,2019-08-18 21:51:40:128,2.5264,-1.2992,9.9588,2.2805,-1.2917,9.4499,-0.0002,-0.0138,-0.0092
36311,46.88313,-1.290505,118.8,35.66,18.224,153.7,0 / 18,3631116,2019-08-18 21:51:40:228,2.4043,-1.3172,9.3656,2.2871,-1.3013,9.447,-0.0087,0.0064,-0.006
36312,46.88313,-1.290505,118.8,35.66,18.224,153.7,0 / 18,3631215,2019-08-18 21:51:40:327,2.1122,-1.2052,8.9251,2.2879,-1.3097,9.4457,-0.0194,0.0022,-0.0038
36313,46.88313,-1.290505,118.8,35.66,18.224,153.7,0 / 18,3631315,2019-08-18 21:51:40:427,2.2498,-1.3806,9.0334,2.2869,-1.3163,9.445,-0.0013,0.0075,-0.0092
36314,46.88313,-1.290505,118.8,35.66,18.224,153.7,0 / 18,3631415,2019-08-18 21:51:40:527,2.4659,-1.3986,9.7427,2.2984,-1.3145,9.4424,0.003,-0.0032,-0.0092
36315,46.88313,-1.290505,118.8,35.66,18.224,153.7,0 / 18,3631514,2019-08-18 21:51:40:626,2.503,-1.0718,9.286,2.3295,-1.3224,9.4337,-0.0066,0.0022,-0.0049
36316,46.88313,-1.290505,118.8,35.66,18.224,153.7,0 / 18,3631615,2019-08-18 21:51:40:727,2.7694,-1.1759,9.5614,2.3349,-1.325,9.432,-0.0066,-0.0021,-0.006
36317,46.88313,-1.290505,118.8,35.66,18.224,153.7,0 / 18,3631715,2019-08-18 21:51:40:827,2.4312,-1.5883,9.2687,2.3439,-1.3174,9.4309,-0.0013,0.015,-0.006
36318,46.88313,-1.290505,118.8,35.66,18.224,153.7,0 / 18,3631814,2019-08-18 21:51:40:926,2.1487,-1.3303,9.3022,2.3323,-1.3166,9.4338,-0.0013,0.016,-0.0038
36319,46.88313,-1.290505,118.8,35.66,18.224,153.7,0 / 18,3631914,2019-08-18 21:51:41:026,2.0697,-1.3968,8.8808,2.3191,-1.3207,9.4365,-0.0076,0.0086,-0.0038
36320,46.88313,-1.290505,118.8,35.66,18.224,153.7,0 / 18,3632016,2019-08-18 21:51:41:128,2.1385,-1.2753,9.2046,2.3033,-1.3179,9.4408,0.0041,0.0032,-0.0092
36321,46.88313,-1.290505,118.8,35.66,18.224,153.7,0 / 18,3632115,2019-08-18 21:51:41:227,2.4091,-1.3824,10.0414,2.2992,-1.3047,9.4436,0.0062,-0.0085,-0.0124
36322,46.88313,-1.290505,118.8,35.66,18.224,153.7,0 / 18,3632215,2019-08-18 21:51:41:327,2.2331,-1.4207,9.8642,2.2887,-1.301,9.4467,0.0019,0.0086,-0.0102
36323,46.88313,-1.290505,118.8,35.66,18.224,153.7,0 / 18,3632314,2019-08-18 21:51:41:426,2.1349,-1.4333,9.5428,2.2837,-1.3077,9.447,-0.0055,0.0032,-0.0092
36324,46.88313,-1.290505,118.8,35.66,18.224,153.7,0 / 18,3632415,2019-08-18 21:51:41:527,1.9416,-1.4471,8.8694,2.2752,-1.3176,9.4476,-0.0098,0.0,-0.0081
36325,46.88313,-1.290505,118.8,35.66,18.224,153.7,0 / 18,3632514,2019-08-18 21:51:41:626,2.0984,-1.3674,9.1065,2.2522,-1.3474,9.4489,-0.0076,-0.001,-0.0092
36326,46.88313,-1.290505,118.8,35.66,18.224,153.7,0 / 18,3632615,2019-08-18 21:51:41:727,2.1182,-1.3076,8.9562,2.2461,-1.3532,9.4496,-0.0023,0.0075,-0.0081
36327,46.88313,-1.290505,118.8,35.66,18.224,153.7,0 / 18,3632715,2019-08-18 21:51:41:827,2.1912,-1.1885,9.6176,2.2419,-1.3494,9.4511,0.0041,-0.0021,-0.0113
36328,46.88313,-1.290505,118.8,35.66,18.224,153.7,0 / 18,3632814,2019-08-18 21:51:41:926,2.3456,-1.6799,10.0468,2.2391,-1.3547,9.451,-0.0066,-0.0021,-0.0113
36329,46.88313,-1.290505,118.8,35.66,18.224,153.7,0 / 18,3632914,2019-08-18 21:51:42:026,2.1349,-1.7086,9.6697,2.2375,-1.3605,9.4505,-0.0045,0.0011,-0.0124
36330,46.88313,-1.290505,118.8,35.66,18.224,153.7,0 / 18,3633014,2019-08-18 21:51:42:126,1.8213,-1.4052,9.0442,2.2185,-1.3674,9.454,0.003,0.015,-0.0081
36331,46.88313,-1.290505,118.8,35.66,18.224,153.7,0 / 18,3633115,2019-08-18 21:51:42:227,1.9176,-1.5111,9.116,2.2115,-1.365,9.456,0.0105,0.0,-0.0134
36332,46.88313,-1.290505,118.8,35.66,18.224,153.7,0 / 18,3633214,2019-08-18 21:51:42:326,2.3079,-1.3154,9.3094,2.2173,-1.3609,9.4553,0.0041,-0.0117,-0.0134
36333,46.88313,-1.290505,118.8,35.66,18.224,153.7,0 / 18,3633314,2019-08-18 21:51:42:426,2.354,-1.1939,9.8523,2.2243,-1.3689,9.4525,-0.0108,-0.0021,-0.0102
36334,46.88313,-1.290505,118.8,35.66,18.224,153.7,0 / 18,3633414,2019-08-18 21:51:42:526,2.3085,-1.4429,9.4584,2.2192,-1.3788,9.4522,-0.0076,0.015,-0.0113
36335,46.88313,-1.290505,118.8,35.66,18.224,153.7,0 / 18,3633514,2019-08-18 21:51:42:626,2.0912,-1.5296,8.8299,2.2097,-1.3845,9.4536,-0.0055,0.015,-0.0092
36336,46.88313,-1.290505,118.8,35.66,18.224,153.7,0 / 18,3633615,2019-08-18 21:51:42:727,2.2427,-1.5326,9.1017,2.2101,-1.3887,9.4529,0.003,0.0011,-0.0092
36337,46.88313,-1.290505,118.8,35.66,18.224,153.7,0 / 18,3633715,2019-08-18 21:51:42:827,2.2097,-1.6206,9.5733,2.2282,-1.4077,9.4458,0.0083,-0.0053,-0.0113
36338,46.88313,-1.290505,118.8,35.66,18.224,153.7,0 / 18,3633814,2019-08-18 21:51:42:926,2.1882,-1.3914,9.2776,2.2354,-1.4041,9.4447,0.003,-0.0021,-0.0092
36339,46.88313,-1.290505,118.8,35.66,18.224,153.7,0 / 18,3633915,2019-08-18 21:51:43:027,2.2618,-1.3495,9.2441,2.2339,-1.3881,9.4474,0.0019,0.0075,-0.0102
36340,46.88313,-1.290505,118.8,35.66,18.224,153.7,0 / 18,3634015,2019-08-18 21:51:43:127,2.1978,-0.8766,9.7793,2.2197,-1.3729,9.453,-0.0045,0.0064,-0.006
36341,46.88313,-1.290505,118.8,35.66,18.224,153.7,0 / 18,3634115,2019-08-18 21:51:43:227,2.199,-1.3034,9.7727,2.2009,-1.3634,9.4587,0.0073,0.0086,-0.0092
36342,46.88313,-1.290505,118.8,35.66,18.224,153.7,0 / 18,3634214,2019-08-18 21:51:43:326,2.2026,-1.4764,9.8229,2.1665,-1.354,9.468,-0.0013,0.0011,-0.0081
36343,46.88313,-1.290505,118.8,35.66,18.224,153.7,Dec-18,3634315,2019-08-18 21:51:43:427,1.6423,-1.3297,9.0526,2.1562,-1.3686,9.4683,0.0041,0.0,-0.007
36344,46.88313,-1.290505,118.8,35.66,18.224,153.7,Dec-18,3634414,2019-08-18 21:51:43:526,1.9937,-1.5099,9.4315,2.1327,-1.3748,9.4727,-0.0013,0.0011,-0.007
36345,46.88313,-1.290505,118.8,35.66,18.224,153.7,Dec-18,3634514,2019-08-18 21:51:43:626,1.944,-1.3998,8.8461,2.124,-1.3694,9.4754,0.003,0.0075,-0.007
36346,46.88313,-1.290505,118.8,35.66,18.224,153.7,Dec-18,3634614,2019-08-18 21:51:43:726,2.3528,-1.1855,9.2094,2.1303,-1.3595,9.4754,0.0009,-0.0042,-0.0081
36347,46.88313,-1.290505,118.8,35.66,18.224,153.7,Dec-18,3634714,2019-08-18 21:51:43:826,2.3265,-1.1023,9.653,2.1347,-1.3561,9.4749,0.0019,0.0,-0.0081
36348,46.88313,-1.290505,118.8,35.66,18.224,153.7,Dec-18,3634814,2019-08-18 21:51:43:926,2.4366,-1.2992,10.1108,2.1348,-1.3468,9.4763,0.0019,0.0,-0.0081
36349,46.88313,-1.290505,118.8,35.66,18.224,153.7,Dec-18,3634915,2019-08-18 21:51:44:027,2.1074,-1.5548,9.6781,2.1618,-1.3382,9.4713,0.0019,-0.0053,-0.0092
36350,46.88313,-1.290505,118.8,35.66,18.224,153.7,Dec-18,3635015,2019-08-18 21:51:44:127,2.1481,-1.4219,9.2435,2.1923,-1.3336,9.465,-0.0066,0.0064,-0.0049
36351,46.88313,-1.290505,118.8,35.66,18.224,153.7,Dec-18,3635114,2019-08-18 21:51:44:226,2.181,-1.5255,8.9496,2.1994,-1.331,9.4637,-0.0087,0.0043,-0.0028
36352,46.88313,-1.290505,118.8,35.66,18.224,153.7,Dec-18,3635216,2019-08-18 21:51:44:328,2.2056,-1.4285,9.316,2.1982,-1.3356,9.4633,-0.0066,0.0043,-0.0017
36353,46.88313,-1.290505,118.8,35.66,18.224,153.7,0 / 18,3635314,2019-08-18 21:51:44:426,2.1259,-1.1717,9.0191,2.2063,-1.3332,9.4618,0.0019,-0.0063,-0.0049
36354,46.88313,-1.290505,118.8,35.66,18.224,153.7,0 / 18,3635414,2019-08-18 21:51:44:526,2.676,-1.0173,9.5171,2.2201,-1.3188,9.4606,0.0062,-0.0085,-0.007
36355,46.88313,-1.290505,118.8,35.66,18.224,153.7,0 / 18,3635515,2019-08-18 21:51:44:627,2.6658,-1.1532,9.9546,2.232,-1.3115,9.4588,0.0041,-0.0074,-0.007
36356,46.88313,-1.290505,118.8,35.66,18.224,153.7,0 / 18,3635614,2019-08-18 21:51:44:726,2.4917,-1.0963,9.6936,2.2267,-1.3076,9.4606,-0.0023,0.0182,-0.0028
36357,46.88313,-1.290505,118.8,35.66,18.224,153.7,0 / 18,3635715,2019-08-18 21:51:44:827,2.1212,-1.2304,9.6392,2.2243,-1.3031,9.4618,0.0009,0.0064,-0.006
36358,46.88313,-1.290505,118.8,35.66,18.224,153.7,0 / 18,3635815,2019-08-18 21:51:44:927,2.3683,-1.4057,9.1113,2.2528,-1.2861,9.4573,0.0019,0.0043,-0.006
36359,46.88313,-1.290505,118.8,35.66,18.224,153.7,0 / 18,3635914,2019-08-18 21:51:45:026,2.3761,-1.4901,9.3968,2.287,-1.2713,9.4511,0.0009,-0.0096,-0.0092
36360,46.88313,-1.290505,118.8,35.66,18.224,153.7,0 / 18,3636014,2019-08-18 21:51:45:126,2.5557,-1.4165,9.1711,2.2929,-1.2704,9.4498,0.0009,0.0032,-0.006
36361,46.88313,-1.290505,118.8,35.66,18.224,153.7,0 / 18,3636114,2019-08-18 21:51:45:226,2.5605,-1.3208,9.729,2.3024,-1.2686,9.4477,-0.0002,-0.0074,-0.0081
36362,46.88313,-1.290505,118.8,35.66,18.224,153.7,0 / 18,3636214,2019-08-18 21:51:45:326,2.6221,-1.2687,9.5177,2.3269,-1.2755,9.4408,-0.0076,0.0054,-0.007
36363,46.877632,-1.287074,118.16,35.58,24.656,159.5,0 / 18,3636314,2019-08-18 21:51:45:426,2.7437,-1.5284,9.8367,2.3267,-1.2793,9.4404,-0.0045,0.0043,-0.0113
36364,46.877632,-1.287074,118.16,35.58,24.656,159.5,0 / 18,3636414,2019-08-18 21:51:45:526,2.2672,-1.4034,9.1101,2.3294,-1.2869,9.4387,-0.0066,0.0128,-0.0102
36365,46.877632,-1.287074,118.16,35.58,24.656,159.5,0 / 18,3636515,2019-08-18 21:51:45:627,2.2965,-1.6356,9.4632,2.3258,-1.2984,9.438,-0.0087,0.0064,-0.0113
36366,46.877632,-1.287074,118.16,35.58,24.656,159.5,0 / 18,3636615,2019-08-18 21:51:45:727,2.3684,-1.6362,9.3154,2.3329,-1.3044,9.4354,-0.0023,-0.0053,-0.0134
36367,46.877632,-1.287074,118.16,35.58,24.656,159.5,0 / 18,3636714,2019-08-18 21:51:45:826,2.5024,-1.4644,9.0891,2.343,-1.3152,9.4314,-0.0066,0.0032,-0.0092
36368,46.877632,-1.287074,118.16,35.58,24.656,159.5,0 / 18,3636815,2019-08-18 21:51:45:927,2.8017,-1.4399,9.9211,2.3468,-1.3198,9.4298,-0.0013,0.0011,-0.0124
36369,46.877632,-1.287074,118.16,35.58,24.656,159.5,0 / 18,3636915,2019-08-18 21:51:46:027,2.5665,-1.4034,9.8768,2.3589,-1.3317,9.4251,-0.0002,-0.001,-0.0134
36370,46.877632,-1.287074,118.16,35.58,24.656,159.5,0 / 18,3637015,2019-08-18 21:51:46:127,2.5653,-1.3752,9.7164,2.3912,-1.3687,9.4116,-0.0023,0.0032,-0.0113
36371,46.877632,-1.287074,118.16,35.58,24.656,159.5,0 / 18,3637115,2019-08-18 21:51:46:227,2.2738,-1.5201,8.9945,2.3953,-1.3871,9.4079,-0.0023,0.0096,-0.0092
36372,46.877632,-1.287074,118.16,35.58,24.656,159.5,0 / 18,3637216,2019-08-18 21:51:46:328,2.278,-1.4602,9.3285,2.3991,-1.3892,9.4066,-0.0002,-0.0042,-0.0124
36373,46.877632,-1.287074,118.16,35.58,24.656,159.5,0 / 18,3637315,2019-08-18 21:51:46:427,2.2002,-1.4339,9.0885,2.4175,-1.3952,9.401,0.0062,-0.001,-0.0124
36374,46.877632,-1.287074,118.16,35.58,24.656,159.5,0 / 18,3637414,2019-08-18 21:51:46:526,2.5856,-1.5392,9.1322,2.414,-1.3997,9.4013,0.0062,0.0118,-0.0113
36375,46.877632,-1.287074,118.16,35.58,24.656,159.5,0 / 18,3637515,2019-08-18 21:51:46:627,2.5216,-1.1681,8.6671,2.4198,-1.4024,9.3994,0.0073,0.0096,-0.0124
36376,46.877632,-1.287074,118.16,35.58,24.656,159.5,0 / 18,3637614,2019-08-18 21:51:46:726,2.8909,-1.1693,10.0588,2.4215,-1.3954,9.4,0.003,0.0043,-0.0124
36377,46.877632,-1.287074,118.16,35.58,24.656,159.5,0 / 18,3637714,2019-08-18 21:51:46:826,2.5198,-1.4716,9.5554,2.4254,-1.3831,9.4008,0.0126,0.0,-0.0134
36378,46.877632,-1.287074,118.16,35.58,24.656,159.5,0 / 18,3637815,2019-08-18 21:51:46:927,2.7724,-1.4542,10.0139,2.4209,-1.3674,9.4042,0.0201,0.0118,-0.0124
36379,46.877632,-1.287074,118.16,35.58,24.656,159.5,0 / 18,3637914,2019-08-18 21:51:47:026,1.7004,-1.62,9.1597,2.4388,-1.3624,9.4003,-0.0258,-0.0255,-0.007
36380,46.877632,-1.287074,118.16,35.58,24.656,159.5,0 / 18,3638015,2019-08-18 21:51:47:127,2.3546,-1.5225,9.2124,2.4496,-1.3977,9.3923,-0.0545,-0.0138,-0.0017
36381,46.877632,-1.287074,118.16,35.58,24.656,159.5,0 / 18,3638114,2019-08-18 21:51:47:226,2.2941,-1.1011,8.6007,2.4408,-1.4173,9.3917,-0.0279,0.0224,0.0015
36382,46.877632,-1.287074,118.16,35.58,24.656,159.5,0 / 18,3638214,2019-08-18 21:51:47:326,2.1918,-1.1974,7.8944,2.393,-1.3915,9.4078,0.0435,0.0331,-0.0166
36383,46.877632,-1.287074,118.16,35.58,24.656,159.5,0 / 18,3638315,2019-08-18 21:51:47:427,2.7275,-1.4327,9.3746,2.4057,-1.3583,9.4095,0.0126,-0.0127,-0.0134
36384,46.877632,-1.287074,118.16,35.58,24.656,159.5,0 / 18,3638415,2019-08-18 21:51:47:527,2.8209,-1.4333,10.2401,2.4227,-1.3636,9.4043,-0.014,-0.0213,-0.0092
36385,46.877632,-1.287074,118.16,35.58,24.656,159.5,0 / 18,3638515,2019-08-18 21:51:47:627,2.6557,-1.4542,10.719,2.4223,-1.3744,9.4029,-0.014,0.0118,-0.0038
36386,46.877632,-1.287074,118.16,35.58,24.656,159.5,0 / 18,3638614,2019-08-18 21:51:47:726,1.844,-1.3698,9.1041,2.4227,-1.3776,9.4023,-0.0087,-0.0021,-0.006
36387,46.877632,-1.287074,118.16,35.58,24.656,159.5,0 / 18,3638714,2019-08-18 21:51:47:826,2.193,-1.4973,8.9437,2.4203,-1.3876,9.4014,-0.0172,0.0118,-0.0017
36388,46.877632,-1.287074,118.16,35.58,24.656,159.5,0 / 18,3638814,2019-08-18 21:51:47:926,1.9967,-1.0113,8.0303,2.4102,-1.3788,9.4053,0.0137,0.016,-0.0092
36389,46.877632,-1.287074,118.16,35.58,24.656,159.5,0 / 18,3638914,2019-08-18 21:51:48:026,2.7538,-1.1986,9.5314,2.4225,-1.346,9.4069,0.0179,-0.0096,-0.0124
36390,46.877632,-1.287074,118.16,35.58,24.656,159.5,0 / 18,3639016,2019-08-18 21:51:48:128,2.7712,-1.1597,9.8924,2.4226,-1.3394,9.4078,-0.0002,0.0054,-0.007
36391,46.877632,-1.287074,118.16,35.58,24.656,159.5,0 / 18,3639115,2019-08-18 21:51:48:227,2.576,-1.2519,9.6523,2.4058,-1.3321,9.4132,0.0019,0.0246,-0.007
36392,46.877632,-1.287074,118.16,35.58,24.656,159.5,0 / 18,3639216,2019-08-18 21:51:48:328,2.1044,-1.2824,9.4836,2.3988,-1.3311,9.4151,-0.0034,0.0075,-0.007
36393,46.877632,-1.287074,118.16,35.58,24.656,159.5,0 / 18,3639314,2019-08-18 21:51:48:426,2.187,-1.48,9.7757,2.4066,-1.3197,9.4147,0.0147,-0.0063,-0.0145
36394,46.877632,-1.287074,118.16,35.58,24.656,159.5,0 / 18,3639415,2019-08-18 21:51:48:527,2.2989,-1.489,9.5045,2.4109,-1.3056,9.4156,0.0179,-0.0053,-0.0134
36395,46.877632,-1.287074,118.16,35.58,24.656,159.5,0 / 18,3639514,2019-08-18 21:51:48:626,2.4946,-1.3004,9.5548,2.4142,-1.2927,9.4165,0.0073,-0.0032,-0.0113
36396,46.877632,-1.287074,118.16,35.58,24.656,159.5,0 / 18,3639616,2019-08-18 21:51:48:728,2.9268,-1.1442,10.2802,2.4349,-1.2942,9.411,-0.0066,-0.0223,-0.0102
36397,46.877632,-1.287074,118.16,35.58,24.656,159.5,0 / 18,3639714,2019-08-18 21:51:48:826,2.6491,-1.2818,9.1951,2.4311,-1.294,9.412,-0.0023,0.015,-0.0081
36398,46.877632,-1.287074,118.16,35.58,24.656,159.5,0 / 18,3639814,2019-08-18 21:51:48:926,2.603,-1.31,9.3387,2.426,-1.2914,9.4137,0.0019,0.0086,-0.0092
36399,46.877632,-1.287074,118.16,35.58,24.656,159.5,0 / 18,3639915,2019-08-18 21:51:49:027,2.3438,-1.3932,9.4219,2.4408,-1.2973,9.409,-0.0076,-0.0149,-0.0092
36400,46.877632,-1.287074,118.16,35.58,24.656,159.5,0 / 18,3640015,2019-08-18 21:51:49:127,2.3211,-1.2944,9.3058,2.4511,-1.3022,9.4057,-0.013,-0.0074,-0.0081
36401,46.877632,-1.287074,118.16,35.58,24.656,159.5,0 / 18,3640116,2019-08-18 21:51:49:228,2.4707,-1.2202,9.116,2.4599,-1.3074,9.4027,-0.013,0.0096,-0.0038
36402,46.877632,-1.287074,118.16,35.58,24.656,159.5,0 / 18,3640214,2019-08-18 21:51:49:326,2.4222,-0.9862,8.6606,2.449,-1.3084,9.4054,-0.0023,0.0246,-0.0028
36403,46.877632,-1.287074,118.16,35.58,24.656,159.5,0 / 18,3640315,2019-08-18 21:51:49:427,2.521,-0.7677,8.8515,2.4409,-1.3102,9.4072,-0.0087,0.0118,-0.0017
36404,46.877632,-1.287074,118.16,35.58,24.656,159.5,0 / 18,3640414,2019-08-18 21:51:49:526,2.5306,-1.2627,9.0281,2.4431,-1.3139,9.4061,-0.0055,0.0032,-0.006
36405,46.877632,-1.287074,118.16,35.58,24.656,159.5,0 / 18,3640515,2019-08-18 21:51:49:627,2.4019,-1.2052,9.702,2.4561,-1.2766,9.4079,0.019,-0.0021,-0.0092
36406,46.877632,-1.287074,118.16,35.58,24.656,159.5,0 / 18,3640615,2019-08-18 21:51:49:727,2.3588,-1.5117,9.8451,2.4624,-1.2589,9.4086,0.0179,-0.0063,-0.006
36407,46.877632,-1.287074,118.16,35.58,24.656,159.5,0 / 18,3640714,2019-08-18 21:51:49:826,2.4833,-1.1687,9.5464,2.4669,-1.2477,9.4089,-0.0023,0.0054,-0.0006
36408,46.877632,-1.287074,118.16,35.58,24.656,159.5,0 / 18,3640814,2019-08-18 21:51:49:926,2.4713,-0.9664,9.21,2.4516,-1.2373,9.4143,0.0041,0.016,-0.0006
36409,46.877632,-1.287074,118.16,35.58,24.656,159.5,0 / 18,3640916,2019-08-18 21:51:50:028,2.6479,-1.125,9.1819,2.4446,-1.2237,9.4179,0.0083,0.0064,-0.0017
36410,46.877632,-1.287074,118.16,35.58,24.656,159.5,0 / 18,3641014,2019-08-18 21:51:50:126,2.4701,-0.9287,9.5823,2.4484,-1.2056,9.4192,0.0083,-0.0074,-0.0038
36411,46.877632,-1.287074,118.16,35.58,24.656,159.5,0 / 18,3641115,2019-08-18 21:51:50:227,2.3821,-1.3094,9.9145,2.4482,-1.1718,9.4236,0.003,-0.0063,-0.0038
36412,46.877632,-1.287074,118.16,35.58,24.656,159.5,0 / 18,3641215,2019-08-18 21:51:50:327,2.33,-0.9257,10.0294,2.4551,-1.1642,9.4227,0.0009,-0.0106,-0.0038
36413,46.877632,-1.287074,118.16,35.58,24.656,159.5,0 / 18,3641315,2019-08-18 21:51:50:427,2.1307,-1.155,9.2136,2.4479,-1.1545,9.4258,-0.0119,0.0096,0.0026
36414,46.877632,-1.287074,118.16,35.58,24.656,159.5,0 / 18,3641414,2019-08-18 21:51:50:526,2.2959,-1.1226,9.0023,2.4403,-1.1439,9.429,-0.0034,0.0032,-0.0038
36415,46.877632,-1.287074,118.16,35.58,24.656,159.5,0 / 18,3641515,2019-08-18 21:51:50:627,2.5713,-1.0676,9.0742,2.4369,-1.1445,9.4298,-0.0066,0.0064,-0.0038
36416,46.877632,-1.287074,118.16,35.58,24.656,159.5,0 / 18,3641615,2019-08-18 21:51:50:727,2.6377,-1.3177,9.6931,2.4384,-1.1621,9.4273,-0.0002,-0.0042,-0.0124
36417,46.877632,-1.287074,118.16,35.58,24.656,159.5,0 / 18,3641716,2019-08-18 21:51:50:828,2.5383,-1.5045,9.8828,2.4416,-1.1637,9.4263,0.0019,-0.0053,-0.0155
36418,46.877632,-1.287074,118.16,35.58,24.656,159.5,0 / 18,3641815,2019-08-18 21:51:50:927,2.2648,-1.48,9.8702,2.4468,-1.1703,9.4241,-0.0002,-0.0074,-0.0155
36419,46.877632,-1.287074,118.16,35.58,24.656,159.5,0 / 18,3641914,2019-08-18 21:51:51:026,2.2941,-1.6709,9.0514,2.4399,-1.1881,9.4237,-0.0066,0.015,-0.0102
36420,46.877632,-1.287074,118.16,35.58,24.656,159.5,0 / 18,3642015,2019-08-18 21:51:51:127,2.5378,-1.4309,8.8623,2.4296,-1.1951,9.4255,0.0051,0.0064,-0.0134
36421,46.877632,-1.287074,118.16,35.58,24.656,159.5,0 / 18,3642114,2019-08-18 21:51:51:226,2.7191,-1.4536,9.0472,2.422,-1.1973,9.4271,0.0062,0.015,-0.0113
36422,46.877632,-1.287074,118.16,35.58,24.656,159.5,0 / 18,3642214,2019-08-18 21:51:51:326,2.6581,-1.2609,9.3722,2.4283,-1.1957,9.4257,0.0041,-0.0074,-0.0155
36423,46.877632,-1.287074,118.16,35.58,24.656,159.5,0 / 18,3642315,2019-08-18 21:51:51:427,2.8484,-1.4859,9.8199,2.4436,-1.2011,9.4211,-0.0055,-0.0149,-0.0134
36424,46.877632,-1.287074,118.16,35.58,24.656,159.5,0 / 18,3642414,2019-08-18 21:51:51:526,2.3378,-1.4704,10.0067,2.4443,-1.2096,9.4198,0.0051,0.0064,-0.0081
36425,46.877632,-1.287074,118.16,35.58,24.656,159.5,0 / 18,3642514,2019-08-18 21:51:51:626,2.0942,-1.1591,9.5446,2.436,-1.2263,9.4198,0.0051,0.0096,-0.0049
36426,46.877632,-1.287074,118.16,35.58,24.656,159.5,0 / 18,3642614,2019-08-18 21:51:51:726,2.2181,-1.1927,9.0131,2.4125,-1.2469,9.4231,-0.0087,0.0192,-0.0006
36427,46.877632,-1.287074,118.16,35.58,24.656,159.5,0 / 18,3642716,2019-08-18 21:51:51:828,2.4773,-1.2776,9.1005,2.4085,-1.2465,9.4242,-0.0002,0.0,-0.007
36428,46.877632,-1.287074,118.16,35.58,24.656,159.5,0 / 18,3642815,2019-08-18 21:51:51:927,2.6934,-1.0023,9.6739,2.4175,-1.243,9.4224,-0.0034,-0.0149,-0.0081
