,GPS LATITUDE (degrees), GPS LONGITUDE (degrees), GPS ALTITUDE (m), GPS SPEED (Kmh), GPS ACCURACY (m), GPS ORIENTATION (Â°),GPS SATELLITES IN RANGE, TIME SINCE START (ms), DATE (YYYY-MO-DD HH-MI-SS_SSS), ACCELEROMETER X (m/s²) , ACCELEROMETER Y (m/s²), ACCELEROMETER Z (m/s²), GRAVITY X (m/s²), GRAVITY Y (m/s²), GRAVITY Z (m/s²), GYROSCOPE Yaw (rad/s), GYROSCOPE Pitch (rad/s), GYROSCOPE Roll (rad/s), MAGNETIC FIELD X (Î¼T), MAGNETIC FIELD Y (Î¼T), MAGNETIC FIELD Z (Î¼T), ORIENTATION (Yaw) (Â°), ORIENTATION (Pitch) (Â°), ORIENTATION (Roll ) (Â°)
4758,51.581585,-0.585223,120,32.67,17,131.3,Jul-19,2378167,2019-02-27 10:55:29:687,0.2384,-0.0795,10.7417,0.016,-0.0014,9.8066,-0.041,0.0255,0.0069,-7.09,-37.06,-46.65,104.58,2.39,-2.76
4759,51.581585,-0.585223,120,32.67,17,131.3,Jul-19,2378666,2019-02-27 10:55:30:186,0.2793,-0.1032,9.674,0.045,0.0456,9.8064,-0.0026,0.0095,0.0112,-5.69,-24.09,-47.74,110.91,2.67,-2.74
4760,51.581585,-0.585223,120,32.67,17,131.3,Jul-19,2379166,2019-02-27 10:55:30:686,0.2417,0.7372,9.5677,0.0233,0.0234,9.8066,0.007,-0.0118,0.0037,-6.07,-25.53,-48.55,108.9,2.52,-2.4
4761,51.581585,-0.585223,120,32.67,17,131.3,Jul-19,2379666,2019-02-27 10:55:31:186,-0.0119,0.3983,8.7131,0.0427,0.1558,9.8053,0.0666,0.017,0.008,-6.38,-24.41,-47.74,106.78,1.09,-1.24
4762,51.581585,-0.585223,120,32.67,17,131.3,Jul-19,2380166,2019-02-27 10:55:31:686,0.6241,1.1488,8.9317,0.1911,0.2513,9.8016,0.0101,-0.0437,0.0218,-7.5,-26.97,-44.43,106.4,0.0,0.25
4763,51.581585,-0.585223,120,32.67,17,131.3,Jul-19,2380666,2019-02-27 10:55:32:186,-0.1338,0.7455,9.2696,0.0714,0.2059,9.8042,-0.0069,-0.081,0.0101,-6.07,-23.34,-46.05,100.06,-2.12,1.67
4764,51.581585,-0.585223,120,32.67,17,131.3,Jul-19,2381166,2019-02-27 10:55:32:686,0.1389,0.8921,8.8485,0.0785,0.1843,9.8046,0.0762,0.05,-0.0016,-6.38,-23.34,-48.12,97.87,-3.1,2.31
4765,51.581585,-0.585223,120,32.67,17,131.3,Jul-19,2381667,2019-02-27 10:55:33:187,-0.1495,0.5391,9.781,-0.0495,0.109,9.8059,-0.0367,-0.032,0.008,-5.69,-23.34,-48.05,95.41,-4.41,2.34
4766,51.581585,-0.585223,120,32.67,17,131.3,Jul-19,2382167,2019-02-27 10:55:33:687,-0.5248,-0.5224,9.2249,-0.0941,0.0541,9.8061,0.0101,0.0095,-0.0048,-6.38,-22.59,-49.3,94.41,-4.86,1.77
4767,51.581585,-0.585223,120,32.67,17,131.3,Jul-19,2382666,2019-02-27 10:55:34:186,-0.6933,0.0481,9.4992,-0.1611,0.0414,9.8052,-0.0421,-0.0469,-0.0123,-6.07,-22.59,-47.3,94.16,-5.22,1.25
4768,51.581585,-0.585223,120,32.67,17,131.3,Jul-19,2383167,2019-02-27 10:55:34:687,-0.6534,-0.0513,11.5191,-0.189,0.011,9.8048,-0.0026,0.0053,-0.0282,-6.75,-22.59,-49.3,95.43,-5.61,-0.37
4769,51.581585,-0.585223,120,32.67,17,131.3,Jul-19,2383667,2019-02-27 10:55:35:187,-0.435,0.2175,9.3822,-0.1603,0.0208,9.8053,-0.0527,-0.0491,-0.0272,-6.38,-22.59,-48.43,92.83,-5.78,-1.47
4770,51.581585,-0.585223,120,32.67,17,131.3,Jul-19,2384166,2019-02-27 10:55:35:686,-0.5848,-0.3213,10.8396,-0.1374,-0.0162,9.8057,0.041,0.0841,-0.0261,-7.13,-22.97,-48.49,95.06,-6.05,-3.71
4771,51.581585,-0.585223,120,32.67,17,131.3,Jul-19,2384667,2019-02-27 10:55:36:187,-0.1873,-0.3235,9.8151,-0.1462,-0.0098,9.8056,-0.0005,0.0117,-0.0186,-7.13,-22.97,-48.49,95.12,-6.06,-4.57
4772,51.581585,-0.585223,120,32.67,17,131.3,Jul-19,2385166,2019-02-27 10:55:36:686,0.4055,-0.3406,10.9677,0.0915,-0.0872,9.8058,-0.0154,-0.0363,-0.0016,4.92,-19.18,-56.64,54.62,-5.43,-4.2
4773,51.581585,-0.585223,120,32.67,17,131.3,Jul-19,2385666,2019-02-27 10:55:37:186,-0.7212,-2.4882,11.8398,-0.1068,-0.4128,9.7974,0.0879,0.1065,-0.0272,-10.07,-22.59,-49.68,109.77,-3.1,-3.31
4774,51.581585,-0.585223,120,32.67,17,131.3,Jul-19,2386167,2019-02-27 10:55:37:687,0.3791,-0.0466,9.4688,0.0812,-0.1286,9.8055,-0.0026,-0.0501,-0.0048,-8.63,-22.22,-46.3,110.37,-1.84,-2.26
4775,51.581585,-0.585223,120,32.67,17,131.3,Jul-19,2386666,2019-02-27 10:55:38:186,0.2555,-0.4006,10.4336,0.1026,-0.0848,9.8057,0.0496,0.0564,-0.0091,-2.38,-27.72,-49.24,92.31,-1.08,-1.87
4776,51.581585,-0.585223,120,32.67,17,131.3,Jul-19,2387167,2019-02-27 10:55:38:687,-0.166,-0.0468,9.5987,-0.0013,-0.0517,9.8065,0.0251,-0.0128,-0.0101,-7.5,-20.78,-47.68,111.4,-0.27,-1.39
4777,51.581585,-0.585223,120,32.67,17,131.3,0 / 19,2387666,2019-02-27 10:55:39:186,-0.0574,-0.4425,9.2234,0.0372,-0.0199,9.8066,0.0272,0.0031,-0.0144,-7.5,-21.53,-47.37,110.9,0.06,-1.11
4778,51.581585,-0.585223,120,32.67,17,131.3,0 / 19,2388166,2019-02-27 10:55:39:686,0.2169,-0.0914,10.6117,0.0396,-0.0647,9.8064,0.0432,0.0756,-0.0091,-7.13,-21.16,-48.68,110.54,0.68,-0.88
4779,51.581585,-0.585223,120,32.67,17,131.3,Apr-19,2388666,2019-02-27 10:55:40:186,-0.1943,-0.0541,8.5795,0.0356,-0.0142,9.8066,0.0219,-0.0405,-0.0155,-6.75,-21.16,-47.18,110.35,0.67,-0.77
4780,51.581585,-0.585223,120,32.67,17,131.3,Apr-19,2389166,2019-02-27 10:55:40:686,-0.0928,-0.8536,10.0739,0.0151,-0.0122,9.8066,-0.0026,0.0916,0.0027,-7.5,-21.91,-48.99,112.19,0.92,-0.54
4781,51.581585,-0.585223,120,32.67,17,131.3,Sep-19,2389666,2019-02-27 10:55:41:186,0.0007,0.7491,9.6991,0.0165,0.0061,9.8066,-0.0144,-0.0906,-0.0005,-6.44,-21.22,-47.8,108.16,0.89,-0.5
4782,51.581585,-0.585223,120,32.67,17,131.3,Sep-19,2390166,2019-02-27 10:55:41:686,-0.3985,-1.0721,10.4115,-0.0631,-0.0477,9.8063,0.0091,-0.0565,-0.0101,-7.13,-20.47,-47.05,111.45,0.89,-0.4
4783,51.581585,-0.585223,120,32.67,17,131.3,Sep-19,2390666,2019-02-27 10:55:42:186,-0.49,0.0959,9.9689,-0.0495,-0.0089,9.8065,0.0357,-0.0043,-0.041,-7.5,-21.59,-47.99,112.71,0.96,-1.14
4784,51.581585,-0.585223,120,32.67,17,131.3,Sep-19,2391166,2019-02-27 10:55:42:686,0.1074,0.0669,10.3722,-0.0474,0.0059,9.8065,-0.0282,0.0149,0.0101,-7.13,-20.91,-48.87,111.67,1.02,-1.36
4785,51.581585,-0.585223,120,32.67,17,131.3,Oct-19,2391667,2019-02-27 10:55:43:187,0.1368,0.1878,8.8519,-0.0053,0.0172,9.8066,-0.0026,-0.0246,-0.0208,-7.88,-21.59,-49.37,112.81,0.78,-1.59
4786,51.581585,-0.585223,120,32.67,17,131.3,Oct-19,2392167,2019-02-27 10:55:43:687,-0.0105,0.2136,9.0967,-0.0063,0.0033,9.8066,-0.0058,0.0117,-0.0144,-8.63,-21.97,-48.99,115.08,0.74,-1.64
4787,51.581585,-0.585223,120,32.67,17,131.3,Nov-19,2392666,2019-02-27 10:55:44:186,0.2822,0.1855,9.7339,-0.005,0.008,9.8066,-0.0399,-0.0427,-0.0091,-7.5,-20.53,-47.3,113.52,0.65,-1.67
4788,51.581585,-0.585223,120,32.67,17,131.3,Nov-19,2393166,2019-02-27 10:55:44:686,0.1049,-0.262,9.8732,0.0236,-0.0093,9.8066,-0.009,-0.0469,-0.0165,-7.88,-19.78,-47.8,115.05,0.83,-1.64
4789,51.581585,-0.585223,120,32.67,17,131.3,Nov-19,2393666,2019-02-27 10:55:45:186,0.5348,-0.5036,9.2857,0.077,-0.1873,9.8046,0.0006,-0.0746,-0.0218,-8.25,-20.16,-48.68,117.79,2.12,-1.57
4790,51.581585,-0.585223,120,32.67,17,131.3,Nov-19,2394166,2019-02-27 10:55:45:686,1.1771,-1.2629,10.1738,0.065,-0.093,9.806,-0.0239,0.1768,-0.0069,-9.0,-21.28,-47.87,119.97,2.8,-1.53
4791,51.581585,-0.585223,120,32.67,17,131.3,Nov-19,2394666,2019-02-27 10:55:46:186,-0.3425,-0.3462,11.6445,0.0492,-0.0678,9.8063,0.056,0.0447,-0.024,-7.88,-20.22,-48.8,120.9,3.82,-1.35
4792,51.581585,-0.585223,120,32.67,17,131.3,Nov-19,2395166,2019-02-27 10:55:46:686,-0.272,-0.0419,9.4793,0.0522,-0.0945,9.8061,0.0347,-0.0555,-0.0133,-8.63,-20.97,-48.87,122.88,4.45,-1.37
4793,51.581585,-0.585223,120,32.67,17,131.3,Nov-19,2395666,2019-02-27 10:55:47:186,-0.6956,0.2373,10.3056,-0.047,-0.0244,9.8065,-0.0133,-0.1162,-0.0133,-9.0,-20.22,-48.93,125.32,4.84,-1.67
4794,51.581585,-0.585223,120,32.67,17,131.3,Nov-19,2396166,2019-02-27 10:55:47:686,-0.3116,-0.5245,8.8798,-0.0275,-0.0718,9.8064,-0.0484,-0.0938,-0.0272,-9.0,-20.22,-49.8,126.49,5.09,-2.05
4795,51.581585,-0.585223,120,32.67,17,131.3,Nov-19,2396666,2019-02-27 10:55:48:186,-0.1836,-0.5474,10.2641,-0.0394,-0.0457,9.8065,0.0112,-0.0139,-0.0229,-9.0,-21.34,-49.05,126.22,5.02,-3.21
4796,51.581585,-0.585223,120,32.67,17,131.3,Nov-19,2397166,2019-02-27 10:55:48:686,-0.0925,-0.544,9.275,-0.0525,-0.0102,9.8065,-0.025,-0.0363,-0.0197,-9.75,-19.84,-48.99,129.98,4.88,-3.5
4797,51.581585,-0.585223,120,32.67,17,131.3,Nov-19,2397666,2019-02-27 10:55:49:186,-0.0271,0.5229,9.693,0.0554,0.0444,9.8064,-0.0634,-0.0118,-0.0144,-10.13,-20.59,-48.18,127.86,4.71,-3.52
4798,51.581585,-0.585223,120,32.67,17,131.3,Nov-19,2398166,2019-02-27 10:55:49:686,0.0022,0.5453,10.0121,-0.0337,0.0928,9.8062,-0.0005,-0.0022,-0.0154,-9.38,-20.59,-49.37,125.09,4.39,-3.19
4799,51.581585,-0.585223,120,32.67,17,131.3,Nov-19,2398666,2019-02-27 10:55:50:186,0.347,0.329,8.9693,0.0385,0.1196,9.8058,-0.0058,-0.031,-0.0037,-10.44,-19.47,-48.87,127.46,3.42,-2.44
4800,51.581585,-0.585223,120,32.67,17,131.3,Nov-19,2399167,2019-02-27 10:55:50:687,0.1647,0.7006,9.6015,-0.0855,0.165,9.8049,-0.0239,0.0681,0.0101,-16.44,-8.78,-23.51,154.76,3.31,-1.92
4801,51.581585,-0.585223,120,32.67,17,131.3,Nov-19,2399666,2019-02-27 10:55:51:186,0.0431,0.5171,9.6128,0.0841,0.2042,9.8042,0.007,0.0042,-0.0091,-10.82,-19.84,-50.43,124.83,2.45,-1.26
4802,51.581585,-0.585223,120,32.67,17,131.3,Nov-19,2400166,2019-02-27 10:55:51:686,-0.0086,0.3296,8.6279,-0.0184,0.1468,9.8055,-0.0058,-0.0832,0.0122,-11.57,-19.47,-48.74,124.44,1.33,0.18
4803,51.581585,-0.585223,120,32.67,17,131.3,Nov-19,2400667,2019-02-27 10:55:52:187,0.2245,0.4077,8.8747,0.0632,0.006,9.8064,-0.0357,-0.0693,0.0048,-11.19,-20.53,-48.3,118.1,0.56,0.57
4804,51.581585,-0.585223,120,32.67,17,131.3,Nov-19,2401166,2019-02-27 10:55:52:686,-0.3835,-0.5542,8.4095,-0.0058,0.0643,9.8064,0.0208,0.0148,0.0005,-13.0,-19.03,-51.49,123.85,0.56,1.26
4805,51.581585,-0.585223,120,32.67,17,131.3,Nov-19,2401666,2019-02-27 10:55:53:186,-0.1041,-0.0707,10.6735,-0.0442,0.0325,9.8065,-0.0303,-0.0043,0.0048,-11.57,-20.91,-47.8,119.08,0.25,1.15
4806,51.581585,-0.585223,120,32.67,17,131.3,Nov-19,2402166,2019-02-27 10:55:53:686,0.0738,-0.2055,10.4968,-0.0098,-0.0094,9.8066,0.0027,0.0372,-0.0048,-10.44,-21.28,-48.18,115.06,0.26,1.01
4807,51.581585,-0.585223,120,32.67,17,131.3,Nov-19,2402667,2019-02-27 10:55:54:187,0.4659,-0.2338,8.6258,0.0224,-0.0051,9.8066,0.0144,0.0212,0.0037,-10.07,-22.34,-49.3,114.3,0.51,1.3
4808,51.581585,-0.585223,120,32.67,17,131.3,Nov-19,2403166,2019-02-27 10:55:54:686,-0.4776,1.3933,10.7266,0.0122,0.0257,9.8066,-0.057,-0.2035,0.0442,-9.69,-22.72,-47.62,113.19,0.48,1.53
4809,51.581585,-0.585223,120,32.67,17,131.3,Nov-19,2403666,2019-02-27 10:55:55:186,-0.1133,-0.4667,9.4009,-0.0705,-0.0236,9.8064,-0.0026,0.033,0.0101,-9.38,-21.59,-48.8,112.42,0.85,1.81
4810,51.581585,-0.585223,120,32.67,17,131.3,Nov-19,2404167,2019-02-27 10:55:55:687,-0.1317,-0.2024,10.364,-0.0419,-0.0333,9.8065,-0.0026,0.0479,0.0059,-11.19,-22.72,-47.93,116.13,0.87,1.07
4811,51.581585,-0.585223,120,32.67,17,131.3,Nov-19,2404666,2019-02-27 10:55:56:186,0.2383,0.0057,9.1823,0.1216,0.0387,9.8058,-0.057,-0.211,0.0186,-10.07,-23.09,-49.18,114.66,0.85,0.43
4812,51.581585,-0.585223,120,32.67,17,131.3,Nov-19,2405166,2019-02-27 10:55:56:686,-0.172,0.1114,11.2844,-0.0307,-0.0368,9.8065,0.0187,0.1427,0.0144,-9.69,-23.03,-48.68,114.64,1.07,0.91
4813,51.581585,-0.585223,120,32.67,17,131.3,Nov-19,2405666,2019-02-27 10:55:57:186,0.2079,-0.1292,10.2908,0.0698,0.0475,9.8063,-0.009,-0.0416,0.0261,-9.69,-23.03,-48.68,114.14,0.94,1.28
4814,51.581585,-0.585223,120,32.67,17,131.3,Nov-19,2406166,2019-02-27 10:55:57:686,-0.0268,-0.4332,9.0058,0.0334,0.0174,9.8066,0.0006,0.017,0.0197,-9.69,-23.78,-49.49,112.63,0.84,1.99
4815,51.581585,-0.585223,120,32.67,17,131.3,Nov-19,2406667,2019-02-27 10:55:58:187,0.0319,0.2385,9.5561,0.0701,0.018,9.8064,-0.0218,-0.0235,0.0208,-9.69,-22.66,-48.62,113.24,0.9,2.4
4816,51.581585,-0.585223,120,32.67,17,131.3,Nov-19,2407167,2019-02-27 10:55:58:687,0.2195,-0.1373,8.7594,0.0801,-0.1051,9.8058,-0.0037,-0.0352,0.0229,-9.38,-23.41,-48.18,112.38,1.78,2.88
4817,51.581585,-0.585223,120,32.67,17,131.3,Nov-19,2407667,2019-02-27 10:55:59:187,-0.0833,0.0833,11.251,0.0402,-0.0886,9.8062,0.0101,0.0234,0.0293,-7.88,-23.03,-48.99,112.43,3.1,3.07
4818,51.581585,-0.585223,120,32.67,17,131.3,Nov-19,2408166,2019-02-27 10:55:59:686,0.2455,0.1295,9.3902,0.0762,-0.0287,9.8063,-0.0207,-0.0246,0.0304,-9.0,-23.41,-48.12,115.13,3.69,3.1
4819,51.581585,-0.585223,120,32.67,17,131.3,Nov-19,2408667,2019-02-27 10:56:00:187,-0.263,0.0933,10.481,-0.0274,-0.0564,9.8065,0.0123,0.001,0.0261,-8.25,-21.59,-48.99,115.05,4.26,3.14
4820,51.581585,-0.585223,120,32.67,17,131.3,Nov-19,2409167,2019-02-27 10:56:00:687,-0.7683,0.0885,10.3564,-0.0381,-0.0306,9.8065,0.008,0.0585,0.0176,-7.13,-21.53,-45.68,113.05,4.44,3.2
4821,51.581585,-0.585223,120,32.67,17,131.3,Nov-19,2409666,2019-02-27 10:56:01:186,-0.3361,-0.3122,10.4498,0.0317,-0.0577,9.8064,0.0453,0.0521,0.0229,-7.88,-23.78,-48.49,114.34,4.9,2.95
4822,51.581585,-0.585223,120,32.67,17,131.3,Nov-19,2410167,2019-02-27 10:56:01:687,0.0888,0.4408,10.7091,0.0056,-0.0156,9.8066,-0.0218,-0.0309,0.0144,-8.25,-24.09,-47.68,114.24,4.72,2.73
4823,51.581585,-0.585223,120,32.67,17,131.3,Nov-19,2410667,2019-02-27 10:56:02:187,0.4149,-0.0996,9.5968,-0.037,-0.0009,9.8066,-0.0101,-0.0107,0.0208,-7.5,-23.78,-48.05,114.41,4.73,2.52
4824,51.581585,-0.585223,120,32.67,17,131.3,Nov-19,2411167,2019-02-27 10:56:02:687,-0.3708,-0.3172,10.6223,-0.0058,-0.0182,9.8066,-0.0346,-0.0736,0.0325,-7.88,-24.09,-48.49,114.49,4.65,2.25
4825,51.581585,-0.585223,120,32.67,17,131.3,Nov-19,2411666,2019-02-27 10:56:03:186,0.0679,0.5754,10.0852,0.0281,-0.0032,9.8066,-0.0175,0.0244,0.025,-6.44,-22.66,-47.18,111.28,4.55,2.15
4826,51.581585,-0.585223,120,32.67,17,131.3,Nov-19,2412166,2019-02-27 10:56:03:686,0.2571,-0.8275,9.9847,0.0378,-0.0051,9.8066,-0.0133,0.0436,0.0463,-5.32,-24.47,-48.05,108.71,4.63,2.3
4827,51.581585,-0.585223,120,32.67,17,131.3,Nov-19,2412666,2019-02-27 10:56:04:186,0.1653,-0.144,8.7612,0.0862,-0.0005,9.8063,0.008,0.0649,0.0325,-6.75,-25.22,-47.55,111.26,4.49,2.83
4828,51.581585,-0.585223,120,32.67,17,131.3,Nov-19,2413166,2019-02-27 10:56:04:686,-0.0136,0.4034,10.264,0.1142,0.0259,9.8059,-0.0058,-0.0064,0.0336,-6.38,-24.47,-48.43,109.83,4.59,3.51
4829,51.581585,-0.585223,120,32.67,17,131.3,Nov-19,2413666,2019-02-27 10:56:05:186,-0.1165,-0.0298,10.1415,0.0277,-0.0181,9.8066,0.007,-0.0459,0.0357,-6.07,-25.59,-47.55,108.48,4.59,3.62
4830,51.581585,-0.585223,120,32.67,17,131.3,Nov-19,2414166,2019-02-27 10:56:05:686,-0.4985,0.1201,11.0782,0.0037,0.0181,9.8066,-0.0101,0.0234,0.0378,-4.94,-26.28,-46.74,106.42,4.5,3.68
4831,51.581585,-0.585223,120,32.67,17,131.3,Nov-19,2414667,2019-02-27 10:56:06:187,-0.214,-0.0558,11.5535,-0.0089,-0.0057,9.8066,-0.0367,-0.015,0.0421,-6.38,-27.41,-45.05,107.04,4.27,3.88
4832,51.581585,-0.585223,120,32.67,17,131.3,Nov-19,2415166,2019-02-27 10:56:06:686,0.3139,-0.0854,9.8888,0.0214,0.0358,9.8066,0.0304,-0.0427,0.0293,-5.32,-26.66,-45.05,105.34,4.29,3.8
4833,51.581585,-0.585223,120,32.67,17,131.3,Nov-19,2415667,2019-02-27 10:56:07:187,-1.2307,0.1541,11.3159,-0.0546,-0.0321,9.8064,-0.0069,-0.0182,0.0421,-4.85,-27.62,-43.53,104.74,4.21,3.62
4834,51.581585,-0.585223,120,32.67,17,131.3,Nov-19,2416166,2019-02-27 10:56:07:686,-0.1409,0.0975,10.2903,-0.0643,-0.0075,9.8064,0.0304,-0.0491,0.0218,-4.48,-27.25,-43.15,103.21,4.14,3.62
4835,51.581585,-0.585223,120,32.67,17,131.3,Nov-19,2416666,2019-02-27 10:56:08:186,-0.4532,0.0929,10.4724,-0.0406,0.0002,9.8066,-0.0921,0.0063,0.0229,-3.79,-27.69,-43.72,102.98,4.03,3.01
4836,51.581585,-0.585223,120,32.67,17,131.3,Nov-19,2417166,2019-02-27 10:56:08:686,-0.2558,0.7148,9.6143,-0.1039,-0.0452,9.806,0.0155,0.0298,0.0059,-4.1,-27.69,-43.34,103.13,4.02,2.27
4837,51.581585,-0.585223,120,32.67,17,131.3,Nov-19,2417667,2019-02-27 10:56:09:187,-0.3132,0.2715,10.4587,-0.1456,0.0246,9.8055,0.0155,-0.0885,0.0059,-4.85,-28.06,-43.53,105.35,3.77,0.83
4838,51.581585,-0.585223,120,32.67,17,131.3,Nov-19,2418167,2019-02-27 10:56:09:687,-0.7232,-0.6089,9.3846,-0.0521,0.0777,9.8062,0.0027,0.066,0.008,-4.16,-27.69,-43.59,102.95,3.2,0.05
4839,51.581585,-0.585223,120,32.67,17,131.3,Nov-19,2418666,2019-02-27 10:56:10:186,-0.512,-0.313,8.5874,-0.0348,-0.0923,9.8062,0.0453,0.0756,0.0037,-5.23,-26.62,-45.78,104.49,2.32,-0.52
4840,51.581585,-0.585223,120,32.67,17,131.3,Nov-19,2419167,2019-02-27 10:56:10:687,0.5047,0.3587,9.8615,-0.0648,-0.1164,9.8057,0.0368,-0.0118,0.0059,-4.85,-27.75,-45.4,105.01,2.88,-1.06
4841,51.581585,-0.585223,120,32.67,17,131.3,Nov-19,2419666,2019-02-27 10:56:11:186,0.2678,0.3571,9.6729,0.0078,0.1135,9.806,-0.0314,-0.0459,0.0048,-4.16,-27.0,-45.4,103.45,2.79,-1.29
4842,51.581585,-0.585223,120,32.67,17,131.3,Nov-19,2420167,2019-02-27 10:56:11:687,-0.2655,0.194,9.6458,-0.0391,0.0961,9.8061,-0.008,0.0106,0.008,-4.16,-27.75,-44.22,100.88,1.55,-1.17
4843,51.581585,-0.585223,120,32.67,17,131.3,Nov-19,2420666,2019-02-27 10:56:12:186,-0.0165,0.1768,8.9871,0.012,0.0472,9.8065,0.0155,0.0862,0.0059,-4.16,-27.37,-44.97,99.35,0.38,-1.13
4844,51.581585,-0.585223,120,32.67,17,131.3,Nov-19,2421167,2019-02-27 10:56:12:687,0.1242,0.5654,11.1427,0.0363,0.0425,9.8065,0.0538,-0.032,0.0123,-6.35,-24.81,-47.09,103.68,-0.08,-0.75
4845,51.581585,-0.585223,120,32.67,17,131.3,Nov-19,2421667,2019-02-27 10:56:13:187,0.2996,0.1519,9.3845,0.0101,0.0159,9.8066,0.0283,0.0042,0.0197,-6.35,-25.12,-47.4,103.81,0.07,-0.41
4846,51.581585,-0.585223,120,32.67,17,131.3,Nov-19,2422166,2019-02-27 10:56:13:686,0.5884,0.6573,11.8112,0.0481,-0.0006,9.8065,-0.0218,-0.1087,0.024,-8.54,-24.06,-45.34,110.73,0.08,-0.06
4847,51.581585,-0.585223,120,32.67,17,131.3,Nov-19,2422667,2019-02-27 10:56:14:187,0.1272,-0.8587,10.7873,0.0687,-0.0489,9.8063,-0.0431,-0.0554,0.0197,-7.79,-21.12,-39.84,110.62,-0.01,0.35
4848,51.581585,-0.585223,120,32.67,17,131.3,Nov-19,2423166,2019-02-27 10:56:14:686,-0.4274,-0.7576,10.1782,0.005,-0.0301,9.8066,-0.041,0.0404,0.0261,1.4,-23.31,-46.84,89.23,0.84,0.89
4849,51.581585,-0.585223,120,32.67,17,131.3,Nov-19,2423667,2019-02-27 10:56:15:187,-0.2944,-0.3673,8.9981,-0.0213,-0.0738,9.8064,0.007,0.0724,0.0165,9.09,-15.19,-54.78,63.17,1.01,0.92
4850,51.581585,-0.585223,120,32.67,17,131.3,Nov-19,2424166,2019-02-27 10:56:15:686,-0.0853,0.4824,9.4436,0.1059,-0.1542,9.8049,0.0485,-0.015,0.0112,-3.41,-25.12,-47.65,101.04,2.52,1.25
4851,51.581585,-0.585223,120,32.67,17,131.3,Nov-19,2424666,2019-02-27 10:56:16:186,0.1594,0.4471,8.9657,0.0115,0.0072,9.8066,0.0357,0.0202,0.0154,-2.66,-25.87,-47.22,100.49,2.49,1.32
4852,51.581585,-0.585223,120,32.67,17,131.3,Nov-19,2425166,2019-02-27 10:56:16:686,0.5678,0.3465,8.4173,0.0791,0.0024,9.8063,0.0038,-0.0544,0.0091,-2.29,-26.19,-47.59,99.04,2.85,1.58
4853,51.581585,-0.585223,120,32.67,17,131.3,Nov-19,2425666,2019-02-27 10:56:17:186,-0.3358,0.1725,9.4441,-0.0264,-0.0696,9.8064,0.0528,-0.0192,0.0112,-1.91,-25.81,-46.78,99.64,3.22,1.37
4854,51.581585,-0.585223,120,32.67,17,131.3,Nov-19,2426166,2019-02-27 10:56:17:686,-0.0633,-0.1021,9.425,-0.0411,-0.0097,9.8066,0.0197,0.0575,0.0133,-2.66,-28.37,-45.9,101.31,3.52,1.14
4855,51.581585,-0.585223,120,32.67,17,131.3,Nov-19,2426666,2019-02-27 10:56:18:186,0.0575,0.4992,10.0155,0.0139,0.045,9.8065,0.0751,0.0553,0.0165,-1.91,-26.56,-46.22,100.5,4.0,1.11
4856,51.581585,-0.585223,120,32.67,17,131.3,Nov-19,2427166,2019-02-27 10:56:18:686,-0.4792,-0.1655,10.011,-0.0007,0.0544,9.8065,-0.0005,0.0372,0.024,-1.54,-26.94,-46.22,99.56,3.44,1.28
4857,51.581585,-0.585223,120,32.67,17,131.3,Nov-19,2427666,2019-02-27 10:56:19:186,0.2282,-0.1321,9.3567,-0.0046,0.0206,9.8066,-0.0761,-0.0853,0.0218,-1.91,-26.19,-45.78,99.36,3.11,1.35
4858,51.581585,-0.585223,120,32.67,17,131.3,Nov-19,2428166,2019-02-27 10:56:19:686,0.3137,0.6144,10.4937,-0.0629,0.0006,9.8064,-0.057,-0.0395,0.008,-1.16,-27.31,-45.78,96.85,2.94,0.98
4859,51.581585,-0.585223,120,32.67,17,131.3,Nov-19,2428666,2019-02-27 10:56:20:186,-0.0197,0.4074,8.9001,-0.0732,-0.0228,9.8064,0.0549,0.0191,-0.0016,-0.85,-28.0,-45.78,96.31,2.66,0.3
4860,51.581585,-0.585223,120,32.67,17,131.3,Nov-19,2429166,2019-02-27 10:56:20:686,-0.4077,0.2285,9.2342,-0.068,0.0348,9.8064,0.024,0.0149,-0.0037,-3.79,-28.37,-44.53,102.44,2.74,-0.14
4861,51.581585,-0.585223,120,32.67,17,131.3,Nov-19,2429666,2019-02-27 10:56:21:186,-0.1572,-0.2774,9.6742,-0.0208,0.0393,9.8065,-0.0623,-0.0022,0.0027,-3.04,-27.62,-48.22,99.0,1.58,-0.77
4862,51.581585,-0.585223,120,32.67,17,131.3,Nov-19,2430166,2019-02-27 10:56:21:686,0.6728,-0.1404,7.8299,-0.0576,0.0172,9.8065,-0.0293,0.0351,0.0186,-1.91,-28.0,-48.22,96.53,1.33,-0.85
4863,51.581585,-0.585223,120,32.67,17,131.3,Nov-19,2430666,2019-02-27 10:56:22:186,0.5125,0.1476,8.7869,-0.0207,0.0386,9.8066,-0.009,-0.0256,0.0059,-0.85,-27.62,-48.15,93.85,0.96,-1.27
4864,51.581585,-0.585223,120,32.67,17,131.3,Nov-19,2431166,2019-02-27 10:56:22:686,-0.665,-0.2355,9.7128,-0.0243,0.0044,9.8066,0.0261,0.0159,0.0005,-1.91,-29.12,-46.53,95.36,0.73,-1.46
4865,51.581585,-0.585223,120,32.67,17,131.3,Nov-19,2431667,2019-02-27 10:56:23:187,-0.138,-0.6002,9.8221,0.0518,-0.0049,9.8065,0.0133,0.0223,-0.008,-2.29,-27.62,-47.72,95.61,0.76,-1.31
4866,51.581585,-0.585223,120,32.67,17,131.3,Nov-19,2432166,2019-02-27 10:56:23:686,0.6373,-0.214,9.6381,0.0242,-0.1671,9.8052,-0.0069,-0.0725,0.0176,-2.66,-28.37,-46.47,97.54,0.67,-1.48
4867,51.581585,-0.585223,120,32.67,17,131.3,Nov-19,2432666,2019-02-27 10:56:24:186,0.7397,0.8348,11.2136,0.1403,-0.079,9.8053,0.0229,0.0255,0.0101,4.72,-29.52,-42.84,83.62,2.25,-0.74
4868,51.581585,-0.585223,120,32.67,17,131.3,Nov-19,2433167,2019-02-27 10:56:24:687,-0.0345,-0.7659,8.6242,0.0166,-0.0929,9.8062,0.0144,0.0127,0.0112,-1.47,-28.09,-41.96,95.6,2.31,-0.55
4869,51.581585,-0.585223,120,32.67,17,131.3,Nov-19,2433667,2019-02-27 10:56:25:187,0.0053,0.0699,10.5115,-0.0181,-0.0391,9.8066,-0.0229,0.0106,0.025,-1.47,-28.09,-43.59,97.0,3.08,-0.64
4870,51.581585,-0.585223,120,32.67,17,131.3,Nov-19,2434166,2019-02-27 10:56:25:686,-0.4918,-0.9487,9.2996,0.0155,-0.0471,9.8065,0.0741,0.0724,-0.0091,-0.41,-27.34,-44.84,95.73,3.4,-0.38
4871,51.581585,-0.585223,120,32.67,17,131.3,Nov-19,2434666,2019-02-27 10:56:26:186,0.0925,-0.1527,11.3084,-0.0299,-0.0414,9.8065,-0.0527,0.0244,0.0186,-0.03,-27.71,-44.02,95.41,3.41,-0.31
4872,51.581585,-0.585223,120,32.67,17,131.3,Nov-19,2435167,2019-02-27 10:56:26:687,0.17,0.6846,9.8999,0.0171,-0.0694,9.8064,-0.0271,-0.0491,0.0069,-0.03,-28.09,-43.59,95.81,3.64,-0.51
4873,51.581585,-0.585223,120,32.67,17,131.3,Nov-19,2435666,2019-02-27 10:56:27:186,0.0614,-0.1976,10.3035,0.0475,0.0247,9.8065,-0.0346,0.0095,0.0186,0.34,-26.96,-42.34,96.25,3.99,-0.34
4874,51.581585,-0.585223,120,32.67,17,131.3,Nov-19,2436166,2019-02-27 10:56:27:686,0.1864,0.6731,9.7861,-0.0552,-0.0117,9.8065,-0.0506,-0.0555,0.024,0.34,-27.71,-42.27,95.8,3.87,-0.04
4875,51.581585,-0.585223,120,32.67,17,131.3,Nov-19,2436666,2019-02-27 10:56:28:186,0.4581,0.5606,10.3419,0.0823,0.0481,9.8062,-0.0666,-0.0576,0.0101,0.72,-27.71,-43.09,93.77,3.82,0.27
4876,51.581585,-0.585223,120,32.67,17,131.3,Nov-19,2437166,2019-02-27 10:56:28:686,0.0017,0.4838,9.8911,-0.0892,-0.0495,9.8061,-0.0037,0.017,0.0218,-0.03,-28.09,-44.34,96.43,4.07,-0.27
4877,51.581585,-0.585223,120,32.67,17,131.3,Nov-19,2437667,2019-02-27 10:56:29:187,0.0806,0.0793,9.7288,-0.0097,-0.0394,9.8066,-0.0357,-0.0139,0.0261,0.34,-26.96,-44.34,96.47,3.94,-0.33
4878,51.581585,-0.585223,120,32.67,17,131.3,Nov-19,2438166,2019-02-27 10:56:29:686,0.1072,0.4275,10.1633,0.0021,0.0494,9.8065,0.0283,0.0063,0.0197,0.72,-27.34,-45.59,94.15,3.65,-0.28
4879,51.581585,-0.585223,120,32.67,17,131.3,Nov-19,2438667,2019-02-27 10:56:30:187,0.5988,0.2691,9.3131,0.085,0.0063,9.8063,-0.0516,-0.0469,0.024,1.09,-27.71,-45.59,94.31,3.87,-0.01
4880,51.581585,-0.585223,120,32.67,17,131.3,Nov-19,2439167,2019-02-27 10:56:30:687,0.2373,0.3298,11.5639,0.1442,0.0458,9.8055,0.0346,0.0266,0.0304,2.53,-26.21,-47.21,90.45,3.93,0.72
4881,51.581585,-0.585223,120,32.67,17,131.3,Nov-19,2439667,2019-02-27 10:56:31:187,0.5499,0.1911,8.8558,0.1405,0.0162,9.8056,-0.0421,-0.0384,0.0314,2.53,-26.96,-47.21,89.94,3.67,1.56
4882,51.581585,-0.585223,120,32.67,17,131.3,Nov-19,2440166,2019-02-27 10:56:31:686,0.2468,0.0931,10.2021,0.0418,0.0012,9.8066,-0.0293,-0.0001,0.0325,2.53,-26.21,-46.77,89.74,3.58,2.33
4883,51.581585,-0.585223,120,32.67,17,131.3,Nov-19,2440667,2019-02-27 10:56:32:187,-0.0091,-0.0164,9.9918,-0.0042,0.0176,9.8066,0.0006,0.0617,0.0293,2.53,-26.59,-46.77,89.72,3.58,2.57
4884,51.581585,-0.585223,120,32.67,17,131.3,Nov-19,2441167,2019-02-27 10:56:32:687,0.2233,0.4943,9.3738,0.0768,-0.0132,9.8063,-0.0005,-0.0459,0.0176,3.66,-25.84,-47.65,87.76,3.55,3.0
4885,51.581585,-0.585223,120,32.67,17,131.3,Nov-19,2441666,2019-02-27 10:56:33:186,-0.6408,-0.4908,9.6321,-0.0441,-0.0081,9.8065,0.0623,0.0617,0.0144,3.28,-26.59,-46.77,89.76,3.6,2.74
4886,51.581585,-0.585223,120,32.67,17,131.3,Nov-19,2442167,2019-02-27 10:56:33:687,-0.2155,-0.917,9.8809,-0.0797,-0.2089,9.8041,0.0197,-0.048,0.0272,3.66,-25.46,-46.34,89.1,4.56,2.59
4887,51.581585,-0.585223,120,32.67,17,131.3,Nov-19,2442666,2019-02-27 10:56:34:186,-0.047,-1.3317,10.5568,-0.0285,-0.229,9.8039,0.0144,0.0159,0.0208,4.34,-25.46,-46.71,92.34,6.41,2.95
4888,51.581585,-0.585223,120,32.67,17,131.3,Nov-19,2443166,2019-02-27 10:56:34:686,0.0649,-0.9423,9.7471,-0.0287,-0.243,9.8036,-0.0229,-0.0096,0.0229,4.72,-25.46,-46.77,94.98,9.14,2.44
4889,51.581585,-0.585223,120,32.67,17,131.3,Nov-19,2443667,2019-02-27 10:56:35:187,-0.0898,-0.562,9.2987,-0.0822,-0.0871,9.8059,-0.0463,-0.0096,0.0016,4.03,-25.09,-47.52,99.34,10.28,2.39
4890,51.581585,-0.585223,120,32.67,17,131.3,Nov-19,2444166,2019-02-27 10:56:35:686,-0.2839,-0.2773,9.4988,-0.0473,-0.179,9.8049,0.0485,-0.0342,0.0059,4.34,-25.09,-46.77,101.85,11.69,1.36
4891,51.581585,-0.585223,120,32.67,17,131.3,Nov-19,2444666,2019-02-27 10:56:36:186,-0.6958,0.5537,9.7894,-0.1973,0.048,9.8045,0.0261,0.0511,-0.0154,4.72,-25.84,-47.15,99.83,11.92,1.3
4892,51.581585,-0.585223,120,32.67,17,131.3,Nov-19,2445167,2019-02-27 10:56:36:687,-0.9194,0.2946,9.8336,-0.1696,0.0437,9.8051,0.0197,-0.0128,-0.0442,4.03,-25.46,-47.09,102.08,11.44,0.19
4893,51.581585,-0.585223,120,32.67,17,131.3,Nov-19,2445667,2019-02-27 10:56:37:187,-2.0656,-0.2076,9.6201,-0.4633,0.2692,9.792,0.0219,0.0202,-0.0879,2.53,-25.09,-45.84,103.17,10.3,-2.18
4894,51.581585,-0.585223,120,32.67,17,131.3,Nov-19,2446167,2019-02-27 10:56:37:687,-1.0873,0.4555,9.5967,-0.8409,0.4065,9.7621,0.056,0.0287,-0.0911,2.53,-24.71,-46.27,98.09,6.83,-6.46
4895,51.581585,-0.585223,120,32.67,17,131.3,Nov-19,2446667,2019-02-27 10:56:38:187,-0.4395,0.5183,9.7059,-0.1529,0.1924,9.8036,0.0251,-0.0384,-0.0815,2.16,-24.77,-45.9,95.72,4.45,-8.27
4896,51.581585,-0.585223,120,32.67,17,131.3,Nov-19,2447166,2019-02-27 10:56:38:686,-0.2672,-0.3124,9.3756,-0.113,0.0744,9.8057,-0.0058,0.0149,-0.0847,1.09,-24.02,-46.4,97.08,3.65,-8.37
4897,51.581585,-0.585223,120,32.67,17,131.3,Nov-19,2447666,2019-02-27 10:56:39:186,-0.4866,-0.4059,10.3451,-0.0553,0.0345,9.8064,0.0975,0.0575,-0.0879,0.34,-22.96,-46.46,99.16,2.88,-9.26
4898,51.581585,-0.585223,120,32.67,17,131.3,Nov-19,2448166,2019-02-27 10:56:39:686,0.6562,-0.0196,10.8236,0.0891,0.0491,9.8061,0.0187,0.0319,-0.0794,-0.03,-22.59,-46.96,97.6,2.43,-8.47
4899,51.581585,-0.585223,120,32.67,17,131.3,Nov-19,2448666,2019-02-27 10:56:40:186,0.2267,-0.8386,8.7275,0.0459,0.0754,9.8063,0.0315,0.0671,-0.0868,-1.47,-21.52,-49.21,99.76,1.83,-7.57
4900,51.581585,-0.585223,120,32.67,17,131.3,Nov-19,2449166,2019-02-27 10:56:40:686,0.5247,-0.611,10.6489,0.0391,0.04,9.8065,-0.008,0.0479,-0.0655,-2.22,-21.52,-48.84,102.38,1.59,-7.29
4901,51.581585,-0.585223,120,32.67,17,131.3,Nov-19,2449666,2019-02-27 10:56:41:186,0.0581,-0.5649,9.1569,-0.0089,-0.0065,9.8066,-0.0005,-0.0736,-0.0751,-2.97,-21.52,-48.46,104.97,1.43,-7.07
4902,51.581585,-0.585223,120,32.67,17,131.3,Nov-19,2450166,2019-02-27 10:56:41:686,0.1194,-0.2035,9.3396,-0.0391,0.1486,9.8054,0.0187,0.0671,-0.0762,-3.72,-21.52,-48.46,107.83,1.3,-7.02
4903,51.581585,-0.585223,120,32.67,17,131.3,Nov-19,2450667,2019-02-27 10:56:42:187,0.1307,0.0768,10.2102,-0.0323,0.1571,9.8053,0.0208,0.0798,-0.0858,-5.42,-21.17,-49.28,106.61,-0.6,-6.88
4904,51.581585,-0.585223,120,32.67,17,131.3,Nov-19,2451166,2019-02-27 10:56:42:686,-0.5923,-0.2093,9.2969,-0.1372,0.1589,9.8044,0.0389,0.0287,-0.0889,-5.42,-20.79,-49.28,103.57,-1.53,-6.8
4905,51.581585,-0.585223,120,32.67,17,131.3,Nov-19,2451666,2019-02-27 10:56:43:186,0.003,0.3028,11.5867,-0.0128,0.1256,9.8058,-0.0037,0.067,-0.0911,-6.92,-20.04,-48.78,104.93,-3.75,-7.25
4906,51.581585,-0.585223,120,32.67,17,131.3,Nov-19,2452167,2019-02-27 10:56:43:687,0.2216,-1.3184,9.2573,-0.0324,-0.1887,9.8048,-0.0058,-0.0895,-0.0911,-7.61,-20.79,-48.78,111.28,-2.73,-7.72
4907,51.581585,-0.585223,120,32.67,17,131.3,Nov-19,2452666,2019-02-27 10:56:44:186,0.633,0.2468,11.233,0.1371,-0.0683,9.8055,0.0038,0.0585,-0.0794,-8.36,-19.29,-49.6,120.53,-0.73,-7.35
4908,51.581585,-0.585223,120,32.67,17,131.3,Nov-19,2453167,2019-02-27 10:56:44:687,0.4166,-0.726,9.9357,0.1097,-0.0862,9.8057,0.0208,-0.0491,-0.0698,-8.95,-19.33,-50.37,125.38,0.03,-7.06
4909,51.581585,-0.585223,120,32.67,17,131.3,Nov-19,2453666,2019-02-27 10:56:45:186,0.8956,-0.241,10.5533,0.0849,-0.0749,9.806,-0.0697,0.0287,-0.0708,-9.7,-18.95,-50.31,129.56,1.04,-6.47
4910,51.581585,-0.585223,120,32.67,17,131.3,Nov-19,2454166,2019-02-27 10:56:45:686,-0.5226,0.4107,10.0756,-0.0561,-0.0236,9.8065,0.0251,0.0223,-0.0826,-10.76,-17.89,-49.94,134.77,0.94,-6.81
4911,51.581585,-0.585223,120,32.67,17,131.3,Nov-19,2454667,2019-02-27 10:56:46:187,-0.2117,-0.7109,8.0732,-0.1091,0.007,9.806,0.0538,-0.0363,-0.0889,-11.88,-18.58,-49.87,133.34,-0.31,-7.39
4912,51.581585,-0.585223,120,32.67,17,131.3,Nov-19,2455166,2019-02-27 10:56:46:686,-0.4017,0.1285,10.5036,-0.1104,0.0326,9.806,-0.0112,-0.0555,-0.0847,-12.63,-18.58,-49.0,133.54,-1.02,-7.18
4913,51.581585,-0.585223,120,32.67,17,131.3,Nov-19,2455666,2019-02-27 10:56:47:186,-0.4096,0.3133,9.8591,-0.1426,0.0687,9.8054,0.0272,0.0489,-0.0889,-12.63,-17.51,-49.81,135.61,-1.6,-7.52
4914,51.581585,-0.585223,120,32.67,17,131.3,Nov-19,2456166,2019-02-27 10:56:47:686,0.1481,-0.2532,8.7774,-0.0793,0.0206,9.8063,-0.0261,-0.0192,-0.0783,-14.27,-18.23,-49.77,135.19,-2.85,-7.49
4915,51.581585,-0.585223,120,32.67,17,131.3,Nov-19,2456666,2019-02-27 10:56:48:186,-0.0224,-0.2663,9.4948,-0.0828,-0.0317,9.8062,0.0006,0.0085,-0.0698,-13.9,-17.92,-49.33,134.58,-3.26,-7.74
4916,51.581585,-0.585223,120,32.67,17,131.3,Nov-19,2457166,2019-02-27 10:56:48:686,-0.2163,-0.5122,10.1179,-0.0915,-0.0583,9.806,-0.0335,-0.0853,-0.0602,-14.27,-17.92,-49.4,134.61,-3.58,-8.08
4917,51.581585,-0.585223,120,32.67,17,131.3,Nov-19,2457667,2019-02-27 10:56:49:187,0.6166,0.5227,9.9343,0.0077,-0.0349,9.8066,-0.0484,0.034,-0.0559,-14.65,-17.54,-48.9,137.78,-3.41,-8.19
4918,51.581585,-0.585223,120,32.67,17,131.3,Nov-19,2458166,2019-02-27 10:56:49:686,0.4838,0.1654,10.6234,0.1066,0.0206,9.806,-0.0804,-0.0608,-0.0197,-12.09,-14.61,-50.08,139.72,-2.64,-7.72
4919,51.581585,-0.585223,120,32.67,17,131.3,Nov-19,2458666,2019-02-27 10:56:50:186,0.8219,1.4252,9.6227,0.1921,0.1615,9.8034,-0.0282,-0.0001,-0.0059,-13.21,-14.61,-50.08,138.94,-2.39,-6.27
4920,51.581585,-0.585223,120,32.67,17,131.3,Nov-19,2459166,2019-02-27 10:56:50:686,0.7507,-0.0639,10.6637,0.1606,0.103,9.8048,-0.0357,-0.0714,-0.0101,-12.09,-14.92,-49.27,132.92,-1.66,-4.24
4921,51.581585,-0.585223,120,32.67,17,131.3,Nov-19,2459666,2019-02-27 10:56:51:186,0.2768,0.6996,8.4163,0.1797,0.1154,9.8043,-0.0474,0.0021,0.0059,-15.4,-15.67,-45.15,135.71,-1.72,-3.42
4922,51.581585,-0.585223,120,32.67,17,131.3,Nov-19,2460166,2019-02-27 10:56:51:686,0.3233,0.5892,10.1046,0.0902,0.0145,9.8062,-0.0239,0.0724,0.0155,-15.4,-19.73,-45.08,127.19,-1.43,-2.21
4923,51.581585,-0.585223,120,32.67,17,131.3,Nov-19,2460666,2019-02-27 10:56:52:186,0.9336,-0.8511,10.1331,0.2957,-0.0402,9.8021,-0.0261,-0.0203,0.0144,-16.09,-18.61,-48.83,130.13,-0.58,-0.71
4924,51.581585,-0.585223,120,32.67,17,131.3,Nov-19,2461167,2019-02-27 10:56:52:687,0.5956,-0.6534,10.9323,0.163,-0.065,9.8051,-0.0367,-0.0544,0.0378,-15.4,-18.98,-48.4,128.82,0.71,0.46
4925,51.581585,-0.585223,120,32.67,17,131.3,Nov-19,2461666,2019-02-27 10:56:53:186,-0.5973,1.3555,11.6602,0.087,0.1494,9.8051,-0.0367,-0.0523,0.0304,-15.4,-18.61,-47.96,128.74,1.96,2.04
4926,51.581585,-0.585223,120,32.67,17,131.3,Nov-19,2462166,2019-02-27 10:56:53:686,-0.1251,0.5172,8.7369,0.0602,0.0419,9.8064,0.0442,0.0671,0.0208,-14.65,-18.98,-48.83,127.18,1.59,2.98
4927,51.581585,-0.585223,120,32.67,17,131.3,Nov-19,2462666,2019-02-27 10:56:54:186,-0.2658,-0.7204,10.5158,0.0225,-0.058,9.8065,0.0165,0.0457,0.0357,-15.02,-18.98,-48.77,127.01,1.88,3.52
4928,51.581585,-0.585223,120,32.67,17,131.3,Nov-19,2463167,2019-02-27 10:56:54:687,-0.1936,-0.6123,10.3215,0.074,-0.0888,9.806,0.0165,-0.081,0.0293,-14.65,-19.73,-49.65,126.57,2.54,3.6
4929,51.581585,-0.585223,120,32.67,17,131.3,Nov-19,2463667,2019-02-27 10:56:55:187,-0.56,0.5924,9.8087,-0.0217,0.0237,9.8066,-0.0122,-0.0043,0.0133,-14.27,-19.73,-48.33,125.57,3.03,3.62
4930,51.581585,-0.585223,120,32.67,17,131.3,Nov-19,2464166,2019-02-27 10:56:55:686,-0.3356,-0.3431,9.7693,-0.0131,-0.0762,9.8063,0.0315,0.1193,0.0101,-14.65,-20.04,-49.58,128.04,3.27,3.13
4931,51.581585,-0.585223,120,32.67,17,131.3,Nov-19,2464666,2019-02-27 10:56:56:186,-0.5255,-0.5839,11.3252,-0.0178,-0.0098,9.8066,-0.041,-0.1279,0.0261,-14.65,-20.42,-47.96,128.83,3.55,2.68
4932,51.581585,-0.585223,120,32.67,17,131.3,Nov-19,2465167,2019-02-27 10:56:56:687,-0.2602,0.2449,10.5706,-0.0278,-0.0201,9.8066,-0.0453,-0.0363,0.024,-13.9,-20.04,-49.58,126.87,3.0,2.4
4933,51.581585,-0.585223,120,32.67,17,131.3,Nov-19,2465666,2019-02-27 10:56:57:186,-0.5545,0.6434,9.2459,-0.0463,0.0021,9.8065,0.0006,0.0031,0.0186,-14.27,-21.54,-47.9,124.59,2.83,1.99
4934,51.581585,-0.585223,120,32.67,17,131.3,Nov-19,2466167,2019-02-27 10:56:57:687,-0.3664,-1.0298,10.8427,-0.0374,-0.0299,9.8065,-0.0122,0.0447,0.0186,-13.9,-20.79,-48.77,125.83,2.84,1.97
4935,51.581585,-0.585223,120,32.67,17,131.3,Nov-19,2466666,2019-02-27 10:56:58:186,-0.1499,-0.198,9.9597,-0.0241,-0.0056,9.8066,-0.0154,-0.048,0.0208,-13.9,-20.04,-49.96,127.52,2.79,1.55
4936,51.581585,-0.585223,120,32.67,17,131.3,Nov-19,2467166,2019-02-27 10:56:58:686,-0.0116,0.4623,8.5359,-0.0201,-0.0145,9.8066,0.0048,0.0106,0.0123,-13.9,-21.54,-49.52,125.55,2.86,1.18
4937,51.581585,-0.585223,120,32.67,17,131.3,Nov-19,2467666,2019-02-27 10:56:59:186,0.0183,-0.0231,8.9688,0.0207,0.0207,9.8066,-0.0112,-0.1002,0.0197,-13.15,-20.79,-48.71,124.93,2.84,1.21
4938,51.581585,-0.585223,120,32.67,17,131.3,Nov-19,2468167,2019-02-27 10:56:59:687,-0.6614,1.0703,9.6509,-0.1076,0.1356,9.8051,-0.0495,-0.081,0.0272,-13.52,-20.42,-48.65,126.53,1.83,1.15
4939,51.581585,-0.585223,120,32.67,17,131.3,Nov-19,2468666,2019-02-27 10:57:00:186,0.2711,0.8269,9.578,-0.0986,0.2099,9.8039,-0.0314,0.0394,0.025,-13.15,-21.17,-49.08,122.25,0.89,0.94
4940,51.581585,-0.585223,120,32.67,17,131.3,Nov-19,2469167,2019-02-27 10:57:00:687,0.1647,0.3851,9.8635,-0.0739,0.1161,9.8057,0.0261,0.0713,0.0282,-13.15,-21.54,-47.9,117.56,-1.26,1.09
4941,51.581585,-0.585223,120,32.67,17,131.3,Nov-19,2469666,2019-02-27 10:57:01:186,-0.4775,0.6835,9.8343,-0.1173,0.3071,9.8011,-0.009,0.0766,0.025,-13.52,-20.79,-49.08,114.91,-4.06,2.03
4942,51.581585,-0.585223,120,32.67,17,131.3,Nov-19,2470167,2019-02-27 10:57:01:687,-0.1987,0.44,9.0241,-0.104,0.2247,9.8035,0.0634,-0.0001,0.0186,-13.15,-21.54,-47.02,109.78,-5.51,2.03
4943,51.581585,-0.585223,120,32.67,17,131.3,Nov-19,2470667,2019-02-27 10:57:02:187,-0.348,0.8081,9.3788,-0.0771,0.1581,9.8051,0.0283,-0.0544,0.0218,-9.52,-21.54,-47.02,101.7,-6.19,2.53
4944,51.581585,-0.585223,120,32.67,17,131.3,Nov-19,2471166,2019-02-27 10:57:02:686,-0.0878,-0.6305,10.1415,-0.0329,0.0224,9.8066,-0.0634,-0.0384,0.0186,-14.27,-21.54,-47.83,107.13,-7.94,2.26
4945,51.581585,-0.585223,120,32.67,17,131.3,Nov-19,2471667,2019-02-27 10:57:03:187,0.0077,0.1984,9.6283,-0.0077,0.0781,9.8063,-0.0399,-0.0097,0.0208,-13.15,-22.61,-47.83,104.09,-8.12,2.12
4946,51.581585,-0.585223,120,32.67,17,131.3,Nov-19,2472166,2019-02-27 10:57:03:686,0.4572,0.0496,8.8817,0.0237,0.015,9.8066,-0.0484,-0.0373,0.0336,-12.84,-22.23,-48.21,103.68,-8.58,2.37
4947,51.581585,-0.585223,120,32.67,17,131.3,Nov-19,2472666,2019-02-27 10:57:04:186,-0.0699,-0.576,9.5531,-0.0251,-0.0086,9.8066,0.0602,0.0351,0.0155,-12.46,-22.23,-47.83,101.29,-8.64,2.53
4948,51.581585,-0.585223,120,32.67,17,131.3,Nov-19,2473166,2019-02-27 10:57:04:686,0.5732,-0.0816,9.9482,0.0484,-0.0089,9.8065,-0.0527,-0.0235,0.0346,-13.52,-21.17,-46.58,106.81,-8.61,2.44
4949,51.581585,-0.585223,120,32.67,17,131.3,Nov-19,2473667,2019-02-27 10:57:05:187,0.34,0.3286,8.7712,0.0593,-0.0261,9.8064,-0.0218,-0.13,0.0453,-12.46,-22.23,-47.4,101.9,-8.48,2.7
4950,51.581585,-0.585223,120,32.67,17,131.3,Nov-19,2474166,2019-02-27 10:57:05:686,0.1541,-0.7676,8.9768,0.0759,-0.126,9.8055,0.0496,0.0234,0.0293,-11.71,-22.98,-47.77,102.81,-7.46,3.32
4951,51.581585,-0.585223,120,32.67,17,131.3,Nov-19,2474666,2019-02-27 10:57:06:186,0.5918,-2.0037,9.9555,0.2128,-0.4822,9.7925,0.0272,-0.0001,0.0293,-11.34,-22.23,-48.65,106.11,-4.43,3.91
4952,51.581585,-0.585223,120,32.67,17,131.3,Nov-19,2475166,2019-02-27 10:57:06:686,0.3694,-0.8397,10.8604,0.1178,-0.2721,9.8022,-0.0367,0.0681,0.0357,-10.96,-22.61,-48.21,112.33,-0.17,4.19
4953,51.581585,-0.585223,120,32.67,17,131.3,Nov-19,2475667,2019-02-27 10:57:07:187,0.4233,-0.945,9.8719,0.118,-0.1045,9.8054,-0.0005,0.0042,0.0336,-10.59,-22.23,-49.08,115.74,1.4,3.8
4954,51.581585,-0.585223,120,32.67,17,131.3,Nov-19,2476167,2019-02-27 10:57:07:687,0.4192,-0.2419,9.4064,0.1061,-0.1192,9.8054,-0.0452,-0.129,0.0304,-10.21,-22.23,-47.77,116.04,3.15,4.4
4955,51.581585,-0.585223,120,32.67,17,131.3,Nov-19,2476666,2019-02-27 10:57:08:186,0.0912,-0.8804,9.2498,0.0437,-0.1066,9.806,-0.0421,-0.1236,0.0431,-11.34,-22.98,-47.9,117.89,3.77,4.23
4956,51.581585,-0.585223,120,32.67,17,131.3,Nov-19,2477166,2019-02-27 10:57:08:686,-0.621,0.2839,10.6843,-0.0485,-0.0786,9.8062,-0.0048,-0.0075,0.0176,-10.77,-22.32,-48.27,120.55,4.72,3.7
4957,51.581585,-0.585223,120,32.67,17,131.3,Nov-19,2477666,2019-02-27 10:57:09:186,-0.5037,0.3805,10.1856,-0.0922,0.0805,9.8059,-0.0112,0.0447,0.0208,-10.77,-22.69,-47.52,119.15,4.48,3.82
4958,51.581585,-0.585223,120,32.67,17,131.3,Nov-19,2478166,2019-02-27 10:57:09:686,-0.1491,0.4659,9.4452,-0.0637,0.1195,9.8057,0.0421,0.0212,0.0357,-10.46,-23.07,-48.83,115.65,3.01,3.55
4959,51.581585,-0.585223,120,32.67,17,131.3,Nov-19,2478666,2019-02-27 10:57:10:186,0.4469,-0.356,8.8279,0.0978,-0.0502,9.806,-0.0026,0.0074,0.0165,-10.46,-23.07,-49.33,116.39,3.63,3.76
4960,51.581585,-0.585223,120,32.67,17,131.3,Nov-19,2479166,2019-02-27 10:57:10:686,-0.1239,1.5661,9.9463,-0.0006,-0.0737,9.8064,0.0006,0.0447,0.0208,-10.83,-22.38,-49.46,120.16,4.53,3.93
4961,51.581585,-0.585223,120,32.67,17,131.3,Nov-19,2479666,2019-02-27 10:57:11:186,-0.4674,-0.235,8.989,-0.0185,-0.0426,9.8065,0.0219,-0.0405,0.0197,-10.46,-23.07,-48.65,117.92,4.69,3.71
4962,51.581585,-0.585223,120,32.67,17,131.3,Nov-19,2480166,2019-02-27 10:57:11:686,-0.1594,-0.2122,8.8786,-0.0894,-0.0795,9.8059,-0.0612,0.034,0.0186,-9.71,-23.82,-48.21,117.7,4.85,3.03
4963,51.581585,-0.585223,120,32.67,17,131.3,Nov-19,2480666,2019-02-27 10:57:12:186,-0.4054,0.8486,10.7751,0.0372,0.0041,9.8066,0.0581,-0.032,0.0176,-10.08,-23.07,-49.46,118.65,4.93,3.24
4964,51.581585,-0.585223,120,32.67,17,131.3,Nov-19,2481166,2019-02-27 10:57:12:686,-0.6564,-0.5114,10.0196,-0.107,-0.0479,9.806,0.0325,-0.0938,0.0144,-10.46,-21.63,-49.02,120.16,4.87,2.55
4965,51.581585,-0.585223,120,32.67,17,131.3,Nov-19,2481666,2019-02-27 10:57:13:186,-0.2919,-0.0276,9.9334,-0.0336,-0.0278,9.8066,-0.0186,0.0191,0.0037,-7.52,-22.32,-51.46,117.03,4.91,2.3
4966,51.581585,-0.585223,120,32.67,17,131.3,Nov-19,2482166,2019-02-27 10:57:13:686,-0.7477,0.2445,10.337,-0.0955,-0.0073,9.8062,0.008,0.0724,-0.0027,-8.21,-21.94,-45.21,117.14,4.67,0.83
4967,51.581585,-0.585223,120,32.67,17,131.3,Nov-19,2482666,2019-02-27 10:57:14:186,-0.8097,-0.4044,9.5812,-0.1613,-0.1145,9.8047,0.0165,-0.0182,-0.024,-10.77,-21.63,-47.27,124.49,4.84,-0.32
4968,51.581585,-0.585223,120,32.67,17,131.3,Nov-19,2483166,2019-02-27 10:57:14:686,-1.007,-0.5937,7.6691,-0.2396,-0.1352,9.8028,0.0016,0.1704,-0.0389,-11.89,-20.88,-44.33,130.19,4.45,-3.46
4969,51.581585,-0.585223,120,32.67,17,131.3,Nov-19,2483666,2019-02-27 10:57:15:186,-1.0807,-0.4372,11.1659,-0.3217,-0.082,9.801,-0.0453,0.0362,-0.074,-8.96,-20.13,-43.96,125.1,2.76,-5.22
4970,51.581585,-0.585223,120,32.67,17,131.3,Nov-19,2484167,2019-02-27 10:57:15:687,-1.488,-0.5908,9.0344,-0.4603,-0.1928,9.7939,-0.0325,-0.0597,-0.0911,-13.02,-22.69,-47.21,133.51,1.08,-9.78
4971,51.581585,-0.585223,120,32.67,17,131.3,Nov-19,2484666,2019-02-27 10:57:16:186,-0.5452,-1.0611,10.2123,-0.2829,-0.1769,9.801,-0.0186,-0.0256,-0.1039,-13.02,-22.32,-47.58,139.52,0.23,-12.3
4972,51.581585,-0.585223,120,32.67,17,131.3,Nov-19,2485166,2019-02-27 10:57:16:686,-0.6147,-0.405,10.2574,-0.3154,-0.1993,9.7996,-0.025,-0.0512,-0.106,-13.39,-22.32,-48.83,143.58,-0.36,-14.16
4973,51.581585,-0.585223,120,32.67,17,131.3,Nov-19,2485666,2019-02-27 10:57:17:186,-0.4848,-0.0139,10.3627,-0.1625,-0.115,9.8046,-0.0058,-0.0001,-0.1124,-14.08,-21.19,-48.4,155.24,-1.62,-17.3
4974,51.581585,-0.585223,120,32.67,17,131.3,Nov-19,2486167,2019-02-27 10:57:17:687,0.4774,-0.9232,10.5859,-0.0982,-0.1672,9.8047,0.0346,-0.0533,-0.1134,-14.83,-21.57,-49.21,160.71,-2.42,-19.42
4975,51.581585,-0.585223,120,32.67,17,131.3,Nov-19,2486666,2019-02-27 10:57:18:186,0.098,0.3302,10.7226,-0.0265,-0.0738,9.8063,0.0389,0.0266,-0.1103,-16.1,-20.14,-49.39,172.49,-2.37,-20.23
4976,51.581585,-0.585223,120,32.67,17,131.3,Nov-19,2487166,2019-02-27 10:57:18:686,0.5249,0.5313,10.9556,-0.046,-0.0609,9.8064,-0.008,-0.0469,-0.1092,-16.79,-20.14,-49.39,174.28,-2.59,-20.62
4977,51.581585,-0.585223,120,32.67,17,131.3,Nov-19,2487667,2019-02-27 10:57:19:187,0.1898,0.4428,11.3082,-0.0184,0.057,9.8065,0.0751,0.083,-0.1145,-17.54,-17.58,-47.33,180.17,-2.47,-21.01
4978,51.581585,-0.585223,120,32.67,17,131.3,Nov-19,2488167,2019-02-27 10:57:19:687,0.5064,0.7028,11.5247,0.0361,-0.0386,9.8065,0.0133,0.0532,-0.1113,-17.91,-18.26,-46.89,178.76,-2.43,-20.57
4979,51.581585,-0.585223,120,32.67,17,131.3,Nov-19,2488667,2019-02-27 10:57:20:187,0.6853,0.3918,10.3529,-0.0046,0.0788,9.8063,-0.0676,-0.0065,-0.1166,-18.79,-14.64,-48.95,189.84,-2.19,-20.33
4980,51.581585,-0.585223,120,32.67,17,131.3,0 / 19,2489167,2019-02-27 10:57:20:687,0.664,0.2907,9.7144,0.0212,0.1034,9.8061,0.0176,-0.0906,-0.0953,-18.79,-15.39,-47.77,188.84,-2.22,-20.37
4981,51.581585,-0.585223,120,32.67,17,131.3,0 / 19,2489666,2019-02-27 10:57:21:186,1.161,0.6837,8.5839,0.0448,0.1704,9.8051,0.0208,-0.0629,-0.1092,-18.79,-12.45,-48.95,194.3,-1.54,-18.87
4982,51.581585,-0.585223,120,32.67,17,131.3,Jan-19,2490166,2019-02-27 10:57:21:686,0.6021,0.4778,9.6663,0.0652,0.1353,9.8055,-0.0325,-0.0501,-0.0847,-19.48,-12.83,-48.14,188.42,-0.25,-18.36
4983,51.581585,-0.585223,120,32.67,17,131.3,Jan-19,2490667,2019-02-27 10:57:22:187,0.4136,0.78,9.5897,0.0848,0.164,9.8049,-0.0751,-0.0555,-0.09,-20.17,-12.07,-48.7,187.32,0.93,-16.8
4984,51.55595,-0.527407,92,26.92,18,162.8,May-19,2491167,2019-02-27 10:57:22:687,0.0193,0.4161,10.5944,0.0243,0.0966,9.8061,-0.0463,0.0106,-0.0815,-20.92,-10.94,-48.27,187.67,1.95,-16.46
4985,51.55595,-0.527407,92,26.92,18,162.8,May-19,2491667,2019-02-27 10:57:23:187,-1.1659,0.3914,9.8222,-0.3316,0.1304,9.8002,0.0027,0.0639,-0.0975,-21.29,-10.57,-47.02,184.01,0.33,-14.95
4986,51.55595,-0.527407,92,26.92,18,162.8,May-19,2492166,2019-02-27 10:57:23:686,-1.0235,0.0606,9.9667,-0.0808,-0.1025,9.8058,-0.1326,-0.0459,-0.0783,-20.17,-7.63,-46.95,193.76,-0.18,-15.51
4987,51.55595,-0.527407,92,26.92,18,162.8,May-19,2492666,2019-02-27 10:57:24:186,-0.5743,1.9065,8.9171,-0.0741,0.4576,9.7957,0.0059,-0.0469,0.0016,-22.42,-10.19,-46.95,187.11,-0.98,-15.16
4988,51.55595,-0.527407,92,26.92,18,162.8,0 / 19,2493166,2019-02-27 10:57:24:686,-0.2272,2.4199,10.6237,0.0478,0.608,9.7877,-0.0208,-0.0299,0.0091,-20.54,-10.19,-46.52,172.71,-0.77,-8.9
4989,51.55595,-0.527407,92,26.92,18,162.8,0 / 19,2493666,2019-02-27 10:57:25:186,-0.0636,1.449,9.7356,0.1554,0.4974,9.7928,0.0826,-0.0331,0.0069,-21.67,-9.07,-46.52,169.89,-0.85,-6.29
4990,51.55595,-0.527407,92,26.92,18,162.8,0 / 19,2494167,2019-02-27 10:57:25:687,-0.2313,1.5212,10.0826,0.0218,0.2836,9.8025,-0.025,-0.0544,0.0059,-20.92,-10.94,-46.52,154.64,-0.74,-1.63
4991,51.55595,-0.527407,92,26.92,18,162.8,0 / 19,2494666,2019-02-27 10:57:26:186,-0.2538,1.0462,9.7202,-0.0247,0.4201,9.7976,-0.2487,-0.0065,0.0282,-20.92,-8.75,-46.95,155.43,-0.4,0.55
4992,51.55595,-0.527407,92,26.92,18,162.8,0 / 19,2495166,2019-02-27 10:57:26:686,-0.5299,0.0356,8.5767,-0.0159,0.0214,9.8066,0.0538,-0.0374,0.0538,-21.29,-10.94,-46.89,145.93,-1.7,2.78
4993,51.55595,-0.527407,92,26.92,18,162.8,0 / 19,2495666,2019-02-27 10:57:27:186,0.3674,-0.2078,9.0885,0.1953,-0.0209,9.8047,-0.0239,0.1001,0.0282,-19.1,-10.57,-47.33,139.55,-1.51,5.14
4994,51.55595,-0.527407,92,26.92,18,162.8,0 / 19,2496167,2019-02-27 10:57:27:687,-0.0281,-0.3021,9.1757,0.1657,-0.0864,9.8049,0.0059,-0.0395,0.0314,-20.54,-12.0,-47.02,141.16,0.94,6.83
4995,51.55595,-0.527407,92,26.92,18,162.8,0 / 19,2496666,2019-02-27 10:57:28:186,0.1088,-0.8602,8.8132,0.1587,-0.1007,9.8048,0.0496,0.1587,0.0453,-19.1,-13.88,-46.58,136.29,2.01,7.05
4996,51.55595,-0.527407,92,26.92,18,162.8,0 / 19,2497166,2019-02-27 10:57:28:686,-0.4675,-0.2714,8.9115,-0.0091,-0.0326,9.8066,-0.0122,-0.0363,0.0442,-19.79,-13.13,-47.45,140.71,3.78,7.16
4997,51.55595,-0.527407,92,26.92,18,162.8,0 / 19,2497667,2019-02-27 10:57:29:187,-0.8957,-0.8196,11.0719,0.0624,-0.0836,9.8061,0.0176,0.05,0.0314,-20.17,-13.13,-47.89,141.34,4.37,7.01
4998,51.55595,-0.527407,92,26.92,18,162.8,0 / 19,2498166,2019-02-27 10:57:29:686,-0.6814,-0.1325,10.2038,-0.0041,0.0287,9.8066,-0.0271,-0.0469,0.0346,-19.1,-13.5,-46.58,138.97,4.37,6.8
4999,51.55595,-0.527407,92,26.92,18,162.8,0 / 19,2498667,2019-02-27 10:57:30:187,-0.7125,-0.2911,10.1623,-0.0138,0.0289,9.8066,0.0208,0.066,0.041,-19.1,-13.13,-47.89,140.12,4.2,6.87
5000,51.55595,-0.527407,92,26.92,18,162.8,0 / 19,2499167,2019-02-27 10:57:30:687,-0.0612,-0.361,9.0817,0.0431,0.0002,9.8066,0.0187,-0.0949,0.0581,-18.73,-12.38,-45.77,141.87,4.53,7.12
5001,51.55595,-0.527407,92,26.92,18,162.8,0 / 19,2499667,2019-02-27 10:57:31:187,-0.6193,0.0828,9.7706,-0.0865,-0.0231,9.8062,-0.0314,0.0159,0.0517,-18.73,-13.5,-47.45,138.31,4.56,7.53
5002,51.55595,-0.527407,92,26.92,18,162.8,0 / 19,2500166,2019-02-27 10:57:31:686,-0.3215,0.1587,8.6638,-0.0509,0.0302,9.8065,0.04,-0.0011,0.0368,-19.79,-16.07,-48.2,136.7,3.93,7.03
5003,51.55595,-0.527407,92,26.92,18,162.8,0 / 19,2500666,2019-02-27 10:57:32:186,-0.5985,-0.6575,10.3088,-0.1148,0.0152,9.806,-0.0346,0.0117,0.0378,-19.1,-14.94,-47.77,136.4,3.52,6.99
5004,51.55595,-0.527407,92,26.92,18,162.8,0 / 19,2501166,2019-02-27 10:57:32:686,-0.8913,-0.2723,8.9229,-0.1481,-0.0224,9.8055,-0.0154,0.1033,0.04,-18.73,-16.44,-47.02,135.21,2.43,5.9
5005,51.55595,-0.527407,92,26.92,18,162.8,0 / 19,2501667,2019-02-27 10:57:33:187,-0.1938,0.1178,9.9312,-0.0219,-0.0175,9.8066,0.0219,-0.0576,0.0325,-19.48,-16.44,-47.77,134.9,1.67,5.36
5006,51.55595,-0.527407,92,26.92,18,162.8,Feb-19,2502166,2019-02-27 10:57:33:686,-0.4234,0.3804,8.8238,-0.1158,0.0381,9.8059,-0.0176,-0.0043,0.04,-19.1,-17.13,-45.64,133.85,1.65,5.2
5007,51.55595,-0.527407,92,26.92,18,162.8,Feb-19,2502666,2019-02-27 10:57:34:186,-0.381,0.4268,9.8132,-0.0674,0.1292,9.8056,-0.0016,0.0138,0.0293,-17.98,-16.44,-46.89,133.99,1.26,4.55
5008,51.55595,-0.527407,92,26.92,18,162.8,May-19,2503166,2019-02-27 10:57:34:686,-0.6129,-0.9816,8.9462,-0.1818,0.0043,9.805,-0.0389,0.033,0.0165,-18.73,-16.75,-47.27,132.84,0.44,4.79
5009,51.55595,-0.527407,92,26.92,18,162.8,May-19,2503667,2019-02-27 10:57:35:187,-0.7487,-0.2366,9.3845,-0.1687,-0.2113,9.8029,0.0325,0.0074,0.0091,-18.35,-17.5,-47.33,131.98,0.02,2.48
5010,51.55595,-0.527407,92,26.92,18,162.8,May-19,2504166,2019-02-27 10:57:35:686,-0.4451,-0.3667,9.1647,-0.0162,-0.0628,9.8064,-0.0133,-0.0203,0.0293,-17.6,-16.82,-46.89,134.08,0.13,2.09
5011,51.55595,-0.527407,92,26.92,18,162.8,May-19,2504666,2019-02-27 10:57:36:186,0.4176,-0.148,8.438,0.0185,-0.035,9.8066,0.0251,0.0127,0.024,-17.71,-17.52,-45.51,133.6,0.55,1.7
5012,51.55595,-0.527407,92,26.92,18,162.8,May-19,2505167,2019-02-27 10:57:36:687,0.5667,0.5684,7.9866,-0.0121,0.0172,9.8066,0.0634,0.1171,0.0186,-17.71,-17.15,-45.51,135.66,0.67,1.39
5013,51.55595,-0.527407,92,26.92,18,162.8,May-19,2505666,2019-02-27 10:57:37:186,-0.5926,-0.3681,10.0989,-0.0363,-0.0627,9.8064,0.0091,0.0031,0.0272,-18.08,-17.52,-45.14,134.58,0.65,1.0
5014,51.55595,-0.527407,92,26.92,18,162.8,Aug-19,2506169,2019-02-27 10:57:37:689,0.1965,0.5406,9.8075,0.0009,0.0503,9.8065,0.0346,0.0063,0.0293,-18.46,-17.9,-46.76,134.8,1.01,1.16
5015,51.55595,-0.527407,92,26.92,18,162.8,Aug-19,2506666,2019-02-27 10:57:38:186,0.4437,0.3942,10.4373,0.0072,-0.0028,9.8066,0.0016,-0.0725,0.0304,-17.02,-18.27,-42.64,132.78,0.84,1.39
5016,51.55595,-0.527407,92,26.92,18,162.8,Aug-19,2507166,2019-02-27 10:57:38:686,0.5395,-0.5754,8.4073,-0.0035,0.0028,9.8067,0.041,0.0916,0.0229,-17.02,-17.52,-43.83,132.78,0.89,1.44
5017,51.55595,-0.527407,92,26.92,18,162.8,0 / 19,2507666,2019-02-27 10:57:39:186,0.1058,0.1005,10.9084,0.0061,0.0301,9.8066,-0.0431,-0.0533,0.0229,-16.64,-18.27,-44.26,132.98,1.0,1.39
5018,51.55595,-0.527407,92,26.92,18,162.8,0 / 19,2508167,2019-02-27 10:57:39:687,-0.161,0.1361,10.5379,-0.0833,-0.0393,9.8062,-0.0176,0.033,0.0112,-16.64,-18.58,-44.64,131.22,0.9,1.53
5019,51.55595,-0.527407,92,26.92,18,162.8,Jan-19,2508667,2019-02-27 10:57:40:187,-0.8749,0.4745,9.9158,-0.1882,0.0915,9.8044,0.0261,0.0873,0.0027,-16.64,-20.08,-44.26,129.59,-0.06,0.66
5020,51.55595,-0.527407,92,26.92,18,162.8,Jan-19,2509166,2019-02-27 10:57:40:686,-1.1165,0.3662,9.9868,-0.1928,0.0808,9.8044,0.008,-0.0139,-0.0005,-18.46,-19.33,-44.2,131.81,-1.17,0.15
5021,51.55595,-0.527407,92,26.92,18,162.8,Jan-19,2509666,2019-02-27 10:57:41:186,-0.8244,-0.2856,9.686,-0.0883,0.0777,9.8059,-0.0591,-0.0246,0.0133,-17.71,-18.58,-44.2,130.15,-3.21,-0.83
5022,51.55595,-0.527407,92,26.92,18,162.8,Jan-19,2510167,2019-02-27 10:57:41:687,-0.7224,-0.1484,9.5968,-0.1759,0.1339,9.8042,0.008,0.0127,0.0069,-17.71,-19.33,-43.83,128.6,-4.47,-1.11
5023,51.55595,-0.527407,92,26.92,18,162.8,Jan-19,2510666,2019-02-27 10:57:42:186,0.5011,-0.0851,10.2479,-0.0256,0.0205,9.8066,0.0346,-0.0352,0.0069,-17.02,-18.96,-45.08,126.02,-4.77,-1.12
5024,51.55595,-0.527407,92,26.92,18,162.8,Jan-19,2511166,2019-02-27 10:57:42:686,0.5447,0.1878,9.8637,0.0599,0.0626,9.8063,0.0155,-0.0246,0.0325,-16.64,-17.9,-44.58,126.57,-5.04,-0.67
5025,51.55595,-0.527407,92,26.92,18,162.8,Jan-19,2511666,2019-02-27 10:57:43:186,0.3025,-0.0699,11.0977,0.0717,-0.0015,9.8064,0.0645,-0.0139,0.025,-17.33,-18.21,-46.26,125.95,-4.81,0.05
5026,51.55595,-0.527407,92,26.92,18,162.8,Jan-19,2512166,2019-02-27 10:57:43:686,0.716,0.0601,8.9484,0.0995,0.0273,9.8061,0.0357,-0.0395,0.025,-16.64,-18.58,-45.83,123.83,-4.49,1.2
5027,51.55595,-0.527407,92,26.92,18,162.8,Jan-19,2512667,2019-02-27 10:57:44:187,0.2613,0.085,9.4114,0.0301,-0.0081,9.8066,0.0048,0.017,0.0293,-16.27,-19.33,-44.95,121.77,-4.3,1.77
5028,51.55595,-0.527407,92,26.92,18,162.8,Jan-19,2513168,2019-02-27 10:57:44:688,0.2633,-0.0491,9.8964,0.0728,0.003,9.8064,-0.024,-0.0224,0.0272,-15.52,-17.9,-45.45,122.96,-4.01,2.37
5029,51.55595,-0.527407,92,26.92,18,162.8,Jan-19,2513666,2019-02-27 10:57:45:186,0.4473,-1.0193,10.444,0.0622,-0.0472,9.8063,0.0006,-0.0491,0.0325,-15.14,-18.21,-45.83,120.71,-3.8,2.73
5030,51.55595,-0.527407,92,26.92,18,162.8,Jan-19,2514166,2019-02-27 10:57:45:686,0.8427,-0.927,8.5921,0.2469,-0.3737,9.7964,-0.0058,-0.0778,0.0314,-15.14,-20.08,-46.64,122.62,-0.76,3.06
5031,51.55595,-0.527407,92,26.92,18,162.8,Jan-19,2514667,2019-02-27 10:57:46:187,0.5947,-0.5851,10.266,0.1043,-0.202,9.804,0.04,-0.0267,0.0218,-15.89,-19.33,-44.58,127.67,0.56,2.94
5032,51.55595,-0.527407,92,26.92,18,162.8,Jan-19,2515166,2019-02-27 10:57:46:686,0.0304,0.2454,8.9556,0.0705,-0.1127,9.8058,-0.0303,-0.081,0.0155,-15.54,-19.45,-44.89,130.08,2.48,2.9
5033,51.55595,-0.527407,92,26.92,18,162.8,Jan-19,2515666,2019-02-27 10:57:47:186,0.1152,-0.0703,9.1886,0.0173,-0.1903,9.8048,0.0346,0.0756,0.0144,-15.54,-19.08,-44.51,131.84,3.39,2.26
5034,51.55595,-0.527407,92,26.92,18,162.8,Jan-19,2516167,2019-02-27 10:57:47:687,-0.4002,-0.7014,10.3534,-0.0059,-0.1038,9.8061,-0.0506,-0.0565,0.025,-15.16,-19.45,-45.39,131.76,4.07,1.65
5035,51.55595,-0.527407,92,26.92,18,162.8,Jan-19,2516670,2019-02-27 10:57:48:190,-0.1447,-0.2864,10.1,-0.011,0.0017,9.8066,0.0421,0.0244,0.0165,-15.54,-18.33,-45.39,134.82,3.9,1.42
5036,51.55595,-0.527407,92,26.92,18,162.8,Jan-19,2517166,2019-02-27 10:57:48:686,-0.191,0.2753,9.7782,-0.03,-0.0075,9.8066,-0.008,0.0362,0.0133,-14.79,-18.39,-45.01,133.35,3.76,1.22
5037,51.55595,-0.527407,92,26.92,18,162.8,Jan-19,2517666,2019-02-27 10:57:49:186,0.2797,0.2021,9.6435,0.0309,0.062,9.8064,0.0165,0.0639,0.0144,-15.16,-17.64,-44.64,133.32,3.79,1.27
5038,51.55595,-0.527407,92,26.92,18,162.8,Jan-19,2518166,2019-02-27 10:57:49:686,0.1706,0.8483,9.3184,0.0156,0.0074,9.8066,0.0155,0.0596,0.024,-13.35,-18.39,-44.64,129.25,3.68,1.75
5039,51.55595,-0.527407,92,26.92,18,162.8,Jan-19,2518666,2019-02-27 10:57:50:186,0.0341,0.2755,10.734,0.0009,0.0117,9.8066,0.0719,0.0702,0.0155,-13.35,-20.58,-44.58,125.63,3.95,1.73
5040,51.55595,-0.527407,92,26.92,18,162.8,Jan-19,2519166,2019-02-27 10:57:50:686,-0.2374,-0.2674,10.0864,-0.0455,0.0303,9.8065,-0.008,-0.1172,0.024,-12.97,-21.26,-43.33,125.1,3.59,1.66
5041,51.55595,-0.527407,92,26.92,18,162.8,Jan-19,2519666,2019-02-27 10:57:51:186,-0.0945,0.3931,11.2329,-0.0615,-0.0168,9.8064,-0.0016,0.0436,0.0133,-14.79,-21.26,-42.95,128.61,3.75,1.62
5042,51.55595,-0.527407,92,26.92,18,162.8,Jan-19,2520167,2019-02-27 10:57:51:687,-0.3182,0.3431,10.708,-0.0014,0.0654,9.8064,-0.0293,-0.0022,0.0101,-14.47,-20.58,-43.33,127.37,3.61,1.08
5043,51.55595,-0.527407,92,26.92,18,162.8,Jan-19,2520666,2019-02-27 10:57:52:186,0.034,0.222,9.9389,-0.0302,-0.0201,9.8066,-0.0037,-0.0863,0.0261,-14.47,-20.58,-42.89,126.78,3.3,1.3
5044,51.55595,-0.527407,92,26.92,18,162.8,Jan-19,2521166,2019-02-27 10:57:52:686,0.1691,0.2016,8.9127,-0.019,0.0168,9.8066,0.0645,0.0149,0.0144,-14.1,-20.2,-44.51,128.19,3.27,1.28
5045,51.55595,-0.527407,92,26.92,18,162.8,Feb-19,2521667,2019-02-27 10:57:53:187,0.0765,-0.2713,9.8822,0.0153,0.0247,9.8066,-0.0442,-0.0086,0.0261,-14.1,-20.58,-44.51,126.67,3.21,1.44
5046,51.55595,-0.527407,92,26.92,18,162.8,Feb-19,2522166,2019-02-27 10:57:53:686,-0.0833,-0.5232,9.6128,-0.0362,-0.0096,9.8066,-0.0527,0.0383,0.0208,-13.35,-19.83,-44.58,125.72,3.1,1.78
5047,51.55595,-0.527407,92,26.92,18,162.8,Feb-19,2522666,2019-02-27 10:57:54:186,-0.3372,-0.1708,10.2402,-0.0222,-0.0022,9.8066,-0.0378,0.0106,0.0282,-14.1,-20.2,-44.95,127.6,2.96,1.46
5048,51.55595,-0.527407,92,26.92,18,162.8,Feb-19,2523166,2019-02-27 10:57:54:686,-0.4615,0.411,10.8925,-0.0457,0.0269,9.8065,-0.0218,0.1139,0.0144,-13.72,-20.2,-45.39,127.55,2.88,1.41
5049,51.55595,-0.527407,92,26.92,18,162.8,Feb-19,2523666,2019-02-27 10:57:55:186,-0.5285,0.5213,9.9785,-0.1033,-0.0577,9.8059,0.0357,0.0734,-0.0005,-12.97,-20.58,-45.51,124.91,2.51,0.61
5050,51.55595,-0.527407,92,26.92,18,162.8,Feb-19,2524166,2019-02-27 10:57:55:686,-0.0439,-0.0681,9.3218,0.0031,-0.0007,9.8067,-0.0186,0.0127,0.0165,-13.35,-21.64,-44.2,123.42,2.41,0.61
5051,51.55595,-0.527407,92,26.92,18,162.8,Feb-19,2524667,2019-02-27 10:57:56:187,0.1984,-0.0241,10.742,0.0546,0.0088,9.8065,-0.0048,-0.0416,0.0378,-14.1,-20.95,-44.7,126.38,2.15,0.35
5052,51.55595,-0.527407,92,26.92,18,162.8,Feb-19,2525166,2019-02-27 10:57:56:686,-0.3482,-0.2641,9.4804,0.0311,0.0562,9.8064,-0.0218,0.018,0.0272,-12.6,-21.33,-45.51,124.57,2.3,0.64
5053,51.55595,-0.527407,92,26.92,18,162.8,Feb-19,2525666,2019-02-27 10:57:57:186,0.0905,-0.5005,10.0136,-0.0187,0.0636,9.8064,-0.024,-0.064,0.0357,-12.97,-21.64,-46.26,122.18,1.76,1.09
5054,51.55595,-0.527407,92,26.92,18,162.8,Feb-19,2526166,2019-02-27 10:57:57:686,-0.4639,0.1129,9.2819,-0.0317,0.0109,9.8066,-0.0293,0.0234,0.0144,-13.35,-21.33,-45.08,123.22,1.61,0.97
5055,51.55595,-0.527407,92,26.92,18,162.8,Feb-19,2526666,2019-02-27 10:57:58:186,-0.1756,0.0876,9.5082,-0.0387,-0.0017,9.8066,0.0144,0.0564,0.0155,-13.67,-20.37,-42.58,125.57,1.18,1.06
5056,51.55595,-0.527407,92,26.92,18,162.8,Feb-19,2527166,2019-02-27 10:57:58:686,0.0424,-0.3698,9.624,0.0252,0.0383,9.8065,-0.0229,-0.0448,0.0304,-12.92,-21.06,-42.14,122.11,1.08,1.31
5057,51.55595,-0.527407,92,26.92,18,162.8,Jul-19,2527666,2019-02-27 10:57:59:186,0.2272,-1.1105,9.1816,0.0005,-0.017,9.8066,-0.025,-0.0874,0.0464,-13.29,-20.75,-43.45,121.66,0.81,1.41
5058,51.55595,-0.527407,92,26.92,18,162.8,Jul-19,2528166,2019-02-27 10:57:59:686,-0.017,-0.6684,9.342,0.0006,0.0183,9.8066,-0.0474,-0.0693,0.0165,-12.54,-21.81,-42.58,120.52,0.81,1.42
5059,51.55595,-0.527407,92,26.92,18,162.8,Oct-19,2528667,2019-02-27 10:58:00:187,0.0741,-0.0963,10.1101,0.0139,-0.0443,9.8065,0.0016,-0.0267,0.0197,-13.29,-21.43,-43.39,121.25,0.51,1.4
5060,51.55595,-0.527407,92,26.92,18,162.8,Oct-19,2529166,2019-02-27 10:58:00:686,-0.0008,-1.0026,10.6834,-0.0244,-0.0647,9.8064,-0.0335,-0.1183,0.025,-13.29,-21.81,-43.77,120.32,0.49,1.14
5061,51.55595,-0.527407,92,26.92,18,162.8,Oct-19,2529666,2019-02-27 10:58:01:186,-0.2536,0.1339,8.9557,0.0243,0.0328,9.8066,-0.0271,0.0276,0.0187,-12.92,-21.43,-43.77,122.1,0.75,0.82
5062,51.55595,-0.527407,92,26.92,18,162.8,Oct-19,2530166,2019-02-27 10:58:01:686,-0.4804,-0.28,11.5419,-0.0084,-0.0343,9.8066,-0.058,-0.0139,0.0304,-12.54,-21.43,-43.77,121.82,0.68,1.03
5063,51.55595,-0.527407,92,26.92,18,162.8,Oct-19,2530666,2019-02-27 10:58:02:186,0.0601,-0.3985,8.6538,-0.0196,0.0199,9.8066,0.0251,0.0564,0.0155,-12.23,-22.56,-43.77,118.08,0.83,0.88
5064,51.55595,-0.527407,92,26.92,18,162.8,Oct-19,2531166,2019-02-27 10:58:02:686,0.3279,-1.4343,10.5902,0.0159,-0.0479,9.8065,-0.009,-0.1343,0.04,-12.54,-22.56,-43.77,120.2,0.96,0.78
5065,51.55595,-0.527407,92,26.92,18,162.8,Oct-19,2531666,2019-02-27 10:58:03:186,-0.2612,-0.0027,10.3872,-0.0097,0.0526,9.8065,-0.0154,0.033,0.0176,-11.48,-21.81,-43.33,116.9,0.67,0.88
5066,51.55595,-0.527407,92,26.92,18,162.8,Oct-19,2532166,2019-02-27 10:58:03:686,-0.2113,0.973,8.0058,0.032,0.0211,9.8066,0.0282,0.0841,0.0208,-12.54,-22.18,-44.58,120.45,0.61,1.18
5067,51.55595,-0.527407,92,26.92,18,162.8,Oct-19,2532666,2019-02-27 10:58:04:186,0.0507,-0.1623,10.0925,-0.0053,0.0036,9.8067,-0.0005,-0.015,0.0101,-12.54,-22.18,-43.33,120.57,0.68,1.15
5068,51.55595,-0.527407,92,26.92,18,162.8,Oct-19,2533166,2019-02-27 10:58:04:686,-0.4069,-0.48,10.3086,-0.0595,-0.0438,9.8064,-0.0154,0.0053,0.0282,-11.11,-22.56,-42.52,116.09,0.7,0.7
5069,51.55595,-0.527407,92,26.92,18,162.8,Oct-19,2533667,2019-02-27 10:58:05:187,-0.1762,-0.2662,9.8338,-0.0192,-0.0276,9.8066,0.0187,-0.0501,0.0368,-11.11,-22.5,-43.7,116.67,0.55,0.96
5070,51.55595,-0.527407,92,26.92,18,162.8,Oct-19,2534167,2019-02-27 10:58:05:687,0.0474,0.8328,9.9694,0.0396,0.0218,9.8065,0.0314,0.0958,0.0101,-11.48,-21.81,-43.33,116.73,0.64,1.06
5071,51.55595,-0.527407,92,26.92,18,162.8,Oct-19,2534666,2019-02-27 10:58:06:186,0.0452,0.9675,9.9958,-0.0424,0.0065,9.8066,-0.0154,0.0969,0.0187,-11.11,-21.81,-43.7,116.93,0.76,1.03
5072,51.55595,-0.527407,92,26.92,18,162.8,Oct-19,2535167,2019-02-27 10:58:06:687,0.549,-0.9787,8.2929,0.0374,-0.0442,9.8065,0.0336,-0.0491,0.024,-11.11,-21.81,-42.89,117.29,0.94,0.91
5073,51.55595,-0.527407,92,26.92,18,162.8,Oct-19,2535666,2019-02-27 10:58:07:186,0.3416,-0.268,8.5446,-0.001,-0.0181,9.8066,0.09,0.0788,0.0261,-10.36,-22.56,-43.7,113.82,0.79,1.31
5074,51.55595,-0.527407,92,26.92,18,162.8,Oct-19,2536166,2019-02-27 10:58:07:686,0.5657,0.5144,9.5554,0.061,0.0469,9.8063,0.0261,0.0244,0.0165,-10.36,-21.81,-43.7,114.47,0.8,1.7
5075,51.55595,-0.527407,92,26.92,18,162.8,Oct-19,2536666,2019-02-27 10:58:08:186,-0.3245,0.2488,10.5069,0.0016,-0.0009,9.8067,-0.0548,-0.048,0.0314,-9.29,-22.87,-42.45,111.66,0.77,1.46
5076,51.55595,-0.527407,92,26.92,18,162.8,Oct-19,2537166,2019-02-27 10:58:08:686,-0.3719,0.1649,10.0781,-0.0274,0.0123,9.8066,-0.009,0.05,0.0293,-11.11,-24.37,-42.83,114.9,0.73,1.16
5077,51.55595,-0.527407,92,26.92,18,162.8,Oct-19,2537666,2019-02-27 10:58:09:186,-0.0278,-0.7027,10.5214,-0.0213,-0.0209,9.8066,-0.0293,-0.0927,0.024,-10.73,-24.37,-42.45,115.08,0.79,1.0
