,GPS LATITUDE (degrees), GPS LONGITUDE (degrees), GPS ALTITUDE (m), GPS SPEED (Kmh), GPS ACCURACY (m), GPS ORIENTATION (Â°),GPS SATELLITES IN RANGE, TIME SINCE START (ms), DATE (YYYY-MO-DD HH-MI-SS_SSS), ACCELEROMETER X (m/s²) , ACCELEROMETER Y (m/s²), ACCELEROMETER Z (m/s²), GRAVITY X (m/s²), GRAVITY Y (m/s²), GRAVITY Z (m/s²), GYROSCOPE Yaw (rad/s), GYROSCOPE Pitch (rad/s), GYROSCOPE Roll (rad/s), MAGNETIC FIELD X (Î¼T), MAGNETIC FIELD Y (Î¼T), MAGNETIC FIELD Z (Î¼T), ORIENTATION (Yaw) (Â°), ORIENTATION (Pitch) (Â°), ORIENTATION (Roll ) (Â°)
53782,51.42849,-2.841758,50,4.45,9,205.4,13 / 20,5378223,2019-08-16 14:18:52:003,0.0347,-0.1033,9.5266,-0.0089,-0.0068,9.8066,0.0021,-0.0186,-0.0016,-18.34,5.01,-23.21,193.11,5.85,0.7
53783,51.42849,-2.841758,50,4.45,9,205.4,13 / 20,5378323,2019-08-16 14:18:52:103,-0.2223,-0.2849,9.34,0.0012,-0.0136,9.8066,-0.0096,0.0037,0.0059,-18.76,4.09,-23.05,189.96,5.79,0.67
53784,51.42849,-2.841758,50,4.45,9,205.4,13 / 20,5378422,2019-08-16 14:18:52:202,-0.2142,-0.1868,9.7202,0.0029,-0.0061,9.8066,0.0128,0.0112,-0.0037,-18.54,3.43,-23.33,187.41,5.79,0.59
53785,51.42849,-2.841758,50,4.45,9,205.4,13 / 20,5378523,2019-08-16 14:18:52:303,0.1742,0.119,10.0618,0.0096,0.0035,9.8066,0.0128,0.0112,-0.0037,-18.41,4.9,-23.17,193.29,5.8,0.54
53786,51.42849,-2.841758,50,4.45,9,205.4,13 / 20,5378623,2019-08-16 14:18:52:403,0.3405,0.0697,10.1285,0.0325,0.0124,9.8066,0.0053,-0.0027,0.0005,-18.41,4.9,-23.17,193.29,5.8,0.54
53787,51.42849,-2.841758,50,4.45,9,205.4,13 / 20,5378723,2019-08-16 14:18:52:503,0.2855,-0.0356,9.7266,0.0234,0.0073,9.8066,-0.0128,-0.0144,-0.0027,-19.27,4.99,-22.44,192.71,6.0,0.57
53788,51.42844,-2.841784,50,4.95,9,205.2,13 / 20,5378823,2019-08-16 14:18:52:603,0.1979,-0.4058,9.7913,0.0495,-0.0048,9.8065,-0.016,0.0069,0.0069,-19.28,4.49,-22.54,190.09,6.27,0.48
53789,51.42844,-2.841784,50,4.95,9,205.2,13 / 20,5378924,2019-08-16 14:18:52:704,0.3693,-0.2719,10.0291,0.0112,-0.0107,9.8066,0.0298,-0.0293,0.0069,-19.28,4.49,-22.54,190.09,6.27,0.48
53790,51.42844,-2.841784,50,4.95,9,205.2,13 / 20,5379023,2019-08-16 14:18:52:803,0.7348,-0.0118,10.1465,0.0089,-0.0026,9.8066,-0.0096,0.0027,0.0101,-18.94,5.4,-22.63,192.72,6.33,0.41
53791,51.42844,-2.841784,50,4.95,9,205.2,13 / 20,5379123,2019-08-16 14:18:52:903,0.4204,-0.1292,9.7775,0.0313,0.0013,9.8066,-0.0021,0.008,-0.0027,-18.1,4.94,-23.41,193.31,6.51,0.37
53792,51.42844,-2.841784,50,4.95,9,205.2,13 / 20,5379224,2019-08-16 14:18:53:004,0.3116,0.1225,9.5897,0.014,0.0116,9.8066,-0.0032,0.0442,-0.0027,-18.19,3.96,-23.53,193.31,6.51,0.37
53793,51.42844,-2.841784,50,4.95,9,205.2,13 / 20,5379323,2019-08-16 14:18:53:103,0.7013,0.3766,9.4982,0.0168,0.0216,9.8066,-0.0032,0.0442,-0.0027,-18.19,3.96,-23.53,193.31,6.51,0.37
53794,51.42844,-2.841784,50,4.95,9,205.2,13 / 20,5379423,2019-08-16 14:18:53:203,0.7015,0.0138,9.4583,0.0226,0.001,9.8066,-0.0032,0.0229,0.0027,-18.15,4.46,-23.47,190.45,6.73,0.51
53795,51.42844,-2.841784,50,4.95,9,205.2,13 / 20,5379524,2019-08-16 14:18:53:304,-0.0388,-0.0272,9.7787,0.0179,-0.0092,9.8066,0.0085,-0.0027,0.0048,-18.15,4.46,-23.47,190.44,6.86,0.5
53796,51.42844,-2.841784,50,4.95,9,205.2,13 / 20,5379623,2019-08-16 14:18:53:403,0.4051,-0.0603,10.0611,0.0288,-0.0139,9.8066,-0.0234,0.0037,-0.0048,-19.02,4.55,-22.75,190.44,6.86,0.5
53797,51.42844,-2.841784,50,4.95,9,205.2,13 / 20,5379723,2019-08-16 14:18:53:503,0.5521,0.0786,9.9137,0.0278,-0.0243,9.8066,-0.0117,0.0421,-0.0037,-19.02,4.55,-22.75,190.44,6.86,0.5
53798,51.42841,-2.841817,50,5.17,9,205.4,13 / 20,5379823,2019-08-16 14:18:53:603,-0.1516,-0.0686,9.8492,-0.0106,-0.0015,9.8066,0.0075,0.0187,0.0005,-19.27,4.61,-22.53,192.67,6.99,0.33
53799,51.42841,-2.841817,50,5.17,9,205.4,13 / 20,5379923,2019-08-16 14:18:53:703,0.1326,-0.0897,9.6251,-0.0213,0.0007,9.8066,-0.0064,0.0112,0.0027,-19.23,4.98,-22.48,192.75,6.87,0.36
53800,51.42841,-2.841817,50,5.17,9,205.4,13 / 20,5380022,2019-08-16 14:18:53:802,-0.1635,-0.0796,9.9255,-0.0097,-0.0026,9.8066,0.0021,0.0314,-0.0016,-19.23,4.98,-22.48,192.75,6.87,0.36
53801,51.42841,-2.841817,50,5.17,9,205.4,13 / 20,5380123,2019-08-16 14:18:53:903,-0.1258,-0.1878,9.873,-0.0219,-0.004,9.8066,0.0021,0.0314,-0.0016,-19.02,4.55,-22.75,192.68,6.81,0.35
53802,51.42841,-2.841817,50,5.17,9,205.4,13 / 20,5380222,2019-08-16 14:18:54:002,-0.0992,-0.2062,9.5394,-0.0511,-0.0139,9.8065,-0.0085,0.0069,0.0005,-18.76,4.09,-23.05,190.19,6.5,0.34
53803,51.42841,-2.841817,50,5.17,9,205.4,13 / 20,5380323,2019-08-16 14:18:54:103,-0.5618,-0.1143,9.7657,-0.0247,-0.0069,9.8066,0.0053,-0.008,0.0005,-18.78,3.98,-23.05,190.23,6.35,0.33
53804,51.42841,-2.841817,50,5.17,9,205.4,13 / 20,5380423,2019-08-16 14:18:54:203,-0.1402,-0.0491,9.8614,-0.0331,-0.0024,9.8066,0.0075,0.0293,-0.0016,-18.78,3.98,-23.05,190.23,6.35,0.33
53805,51.42841,-2.841817,50,5.17,9,205.4,13 / 20,5380523,2019-08-16 14:18:54:303,-0.4407,0.1061,9.8302,-0.0263,-0.0008,9.8066,0.0149,0.0187,-0.0027,-19.04,4.43,-22.76,190.25,5.93,0.38
53806,51.42841,-2.841817,50,5.17,9,205.4,13 / 20,5380623,2019-08-16 14:18:54:403,-0.2652,0.2362,9.9364,-0.0138,-0.0017,9.8066,-0.0202,-0.0144,0.008,-18.91,5.54,-22.62,195.38,5.77,0.4
53807,51.42841,-2.841817,50,5.17,9,205.4,13 / 20,5380723,2019-08-16 14:18:54:503,0.0417,-0.0222,9.8113,-0.02,-0.0121,9.8066,0.0362,0.0123,-0.0016,-18.91,5.54,-22.62,195.38,5.77,0.4
53808,51.428368,-2.841854,50,5.31,9,205.6,13 / 20,5380823,2019-08-16 14:18:54:603,-0.1039,-0.3998,9.7894,-0.0181,0.0002,9.8066,0.0362,0.0123,-0.0016,-19.31,4.61,-22.49,192.98,5.64,0.37
53809,51.428368,-2.841854,50,5.31,9,205.6,13 / 20,5380923,2019-08-16 14:18:54:703,-0.275,0.0712,10.1286,-0.0282,0.0071,9.8066,0.0096,-0.024,-0.0005,-18.97,5.04,-22.69,192.86,5.49,0.44
53810,51.428368,-2.841854,50,5.31,9,205.6,13 / 20,5381023,2019-08-16 14:18:54:803,0.2736,0.476,10.8295,-0.0092,0.0034,9.8066,-0.0074,-0.0346,0.0005,-18.97,5.04,-22.69,192.86,5.49,0.44
53811,51.428368,-2.841854,50,5.31,9,205.6,13 / 20,5381123,2019-08-16 14:18:54:903,-0.0413,-0.0798,9.784,-0.017,0.0038,9.8066,0.0117,0.0474,-0.0016,-19.02,4.55,-22.75,192.84,5.44,0.47
53812,51.428368,-2.841854,50,5.31,9,205.6,13 / 20,5381223,2019-08-16 14:18:55:003,-0.2728,0.204,9.5411,-0.0454,-0.0022,9.8065,-0.049,0.0336,0.0059,-18.47,4.03,-23.3,192.84,5.44,0.47
53813,51.428368,-2.841854,50,5.31,9,205.6,13 / 20,5381323,2019-08-16 14:18:55:103,-0.4049,-0.4281,9.7432,-0.0062,-0.0112,9.8066,0.0053,-0.0208,-0.0037,-19.07,4.04,-22.8,190.34,5.04,0.44
53814,51.428368,-2.841854,50,5.31,9,205.6,13 / 20,5381423,2019-08-16 14:18:55:203,-0.0689,-0.2689,9.859,0.005,0.0068,9.8066,0.0192,-0.0208,0.0027,-19.86,4.75,-21.97,192.53,4.99,0.38
53815,51.428368,-2.841854,50,5.31,9,205.6,13 / 20,5381523,2019-08-16 14:18:55:303,-0.3231,-0.3719,9.3011,-0.0055,0.0101,9.8066,0.0298,-0.0357,-0.0101,-19.86,4.75,-21.97,192.53,4.99,0.38
53816,51.428368,-2.841854,50,5.31,9,205.6,13 / 20,5381623,2019-08-16 14:18:55:403,0.1806,0.5562,9.9971,0.0049,0.0194,9.8066,0.0298,-0.0357,-0.0101,-19.13,6.12,-22.28,195.62,4.97,0.45
53817,51.428368,-2.841854,50,5.31,9,205.6,13 / 20,5381723,2019-08-16 14:18:55:503,0.4318,0.3096,9.9912,0.026,0.0207,9.8066,0.0096,0.0272,-0.0037,-19.76,5.4,-21.92,192.36,5.15,0.52
53818,51.428314,-2.841888,50,5.97,9,205.4,13 / 20,5381823,2019-08-16 14:18:55:603,0.1786,-0.2952,9.3723,0.0014,-0.0022,9.8067,-0.0383,0.0229,0.0133,-19.81,5.27,-21.91,192.36,5.15,0.52
53819,51.428314,-2.841888,50,5.97,9,205.4,13 / 20,5381924,2019-08-16 14:18:55:704,0.3431,0.0982,9.5279,-0.0084,-0.0038,9.8066,0.0085,0.0133,-0.008,-19.14,5.76,-22.37,195.53,5.1,0.51
53820,51.428314,-2.841888,50,5.97,9,205.4,13 / 20,5382023,2019-08-16 14:18:55:803,-0.0184,-0.1343,10.138,-0.0088,-0.0106,9.8066,0.0203,-0.0016,-0.0016,-19.14,5.76,-22.37,195.53,5.1,0.51
53821,51.428314,-2.841888,50,5.97,9,205.4,13 / 20,5382123,2019-08-16 14:18:55:903,-0.0463,0.039,9.9261,-0.0198,-0.0029,9.8066,-0.0149,-0.0048,-0.0005,-18.71,4.6,-23.0,192.89,4.98,0.53
53822,51.428314,-2.841888,50,5.97,9,205.4,13 / 20,5382223,2019-08-16 14:18:56:003,0.0248,0.0664,9.4805,-0.0037,0.0126,9.8066,0.0085,0.0133,-0.0048,-18.71,4.6,-23.0,192.89,4.98,0.53
53823,51.428314,-2.841888,50,5.97,9,205.4,13 / 20,5382323,2019-08-16 14:18:56:103,-0.0626,-0.3154,9.6021,0.014,0.0031,9.8066,0.0149,-0.0517,-0.008,-18.35,4.63,-23.28,193.42,4.98,0.6
53824,51.428314,-2.841888,50,5.97,9,205.4,13 / 20,5382423,2019-08-16 14:18:56:203,-0.1194,0.057,9.4124,0.0327,0.0075,9.8066,-0.0224,-0.0186,0.0027,-18.67,4.58,-23.03,192.76,5.17,0.6
53825,51.428314,-2.841888,50,5.97,9,205.4,13 / 20,5382522,2019-08-16 14:18:56:302,-0.0455,0.043,10.0433,0.0113,-0.0057,9.8066,-0.0224,-0.0186,0.0027,-18.69,4.19,-23.09,190.18,5.23,0.56
53826,51.428314,-2.841888,50,5.97,9,205.4,13 / 20,5382623,2019-08-16 14:18:56:403,0.1177,-0.105,10.1081,-0.0128,-0.0031,9.8066,0.0096,0.0538,0.0005,-18.69,4.19,-23.09,190.18,5.23,0.56
53827,51.428314,-2.841888,50,5.97,9,205.4,13 / 20,5382723,2019-08-16 14:18:56:503,0.1522,-0.2519,9.9359,0.0062,-0.0056,9.8066,-0.0245,0.0048,0.0037,-18.94,4.53,-22.82,192.82,5.15,0.55
53828,51.42826,-2.841927,49,6.4,9,205.5,13 / 20,5382823,2019-08-16 14:18:56:603,-0.062,0.0994,9.236,-0.0021,-0.0097,9.8066,0.0384,0.0048,-0.008,-19.53,4.54,-22.32,192.82,5.15,0.55
53829,51.42826,-2.841927,49,6.4,9,205.5,13 / 20,5382923,2019-08-16 14:18:56:703,0.1181,0.2293,9.5593,-0.0125,0.0033,9.8066,-0.001,-0.0005,-0.0016,-19.47,5.18,-22.23,192.96,5.13,0.5
53830,51.42826,-2.841927,49,6.4,9,205.5,13 / 20,5383023,2019-08-16 14:18:56:803,0.2752,-0.1311,9.7891,-0.0097,0.0054,9.8066,-0.0234,-0.0176,0.0101,-18.98,4.54,-22.78,192.85,5.08,0.54
53831,51.42826,-2.841927,49,6.4,9,205.5,13 / 20,5383122,2019-08-16 14:18:56:902,0.2638,0.0868,9.7306,0.0156,0.0008,9.8066,-0.0128,-0.0112,0.0027,-18.98,4.54,-22.78,192.85,5.08,0.54
53832,51.42826,-2.841927,49,6.4,9,205.5,13 / 20,5383223,2019-08-16 14:18:57:003,-0.1246,0.052,9.5651,-0.0021,0.0056,9.8067,-0.0096,0.0485,0.0027,-18.35,4.11,-23.37,190.72,5.17,0.53
53833,51.42826,-2.841927,49,6.4,9,205.5,13 / 20,5383323,2019-08-16 14:18:57:103,0.2034,0.0858,9.9542,0.003,0.0065,9.8067,0.0011,0.0304,0.0069,-19.01,3.62,-22.92,190.19,5.2,0.56
53834,51.42826,-2.841927,49,6.4,9,205.5,13 / 20,5383423,2019-08-16 14:18:57:203,0.4663,0.1931,10.3441,0.0144,0.0072,9.8066,0.0011,0.0304,0.0069,-19.01,3.62,-22.92,190.19,5.2,0.56
53835,51.42826,-2.841927,49,6.4,9,205.5,13 / 20,5383523,2019-08-16 14:18:57:303,-0.1902,-0.1032,9.3423,0.0013,0.0046,9.8066,0.0128,-0.0229,-0.0037,-18.39,3.6,-23.42,190.59,5.36,0.62
53836,51.42826,-2.841927,49,6.4,9,205.5,13 / 20,5383623,2019-08-16 14:18:57:403,0.0069,0.1913,9.5717,-0.0203,0.0013,9.8066,-0.0074,0.041,0.0005,-18.81,5.66,-22.68,195.24,5.37,0.64
53837,51.42826,-2.841927,49,6.4,9,205.5,13 / 20,5383722,2019-08-16 14:18:57:502,-0.059,-0.2714,9.4754,-0.0188,-0.0051,9.8066,0.0021,0.0261,-0.0016,-18.81,5.66,-22.68,195.24,5.37,0.64
53838,51.428204,-2.84197,50,6.94,9,205.5,13 / 20,5383823,2019-08-16 14:18:57:603,0.3633,0.1323,10.0985,0.0299,0.0057,9.8066,0.0107,-0.0623,0.0005,-19.16,5.23,-22.49,192.79,5.26,0.64
53839,51.428204,-2.84197,50,6.94,9,205.5,13 / 20,5383923,2019-08-16 14:18:57:703,0.2452,0.0162,9.8636,0.032,0.0003,9.8066,0.0,0.0144,0.0048,-18.52,5.57,-22.93,192.79,5.26,0.64
53840,51.428204,-2.84197,50,6.94,9,205.5,13 / 20,5384023,2019-08-16 14:18:57:803,-0.0378,-0.1118,9.7798,0.0257,-0.0043,9.8066,-0.0128,-0.0016,-0.0069,-18.83,5.51,-22.69,195.29,5.4,0.58
53841,51.428204,-2.84197,50,6.94,9,205.5,13 / 20,5384122,2019-08-16 14:18:57:902,-0.0796,0.1369,10.3528,0.0105,0.0081,9.8066,-0.0128,-0.0016,-0.0069,-18.83,5.51,-22.69,195.29,5.4,0.58
53842,51.428204,-2.84197,50,6.94,9,205.5,13 / 20,5384223,2019-08-16 14:18:58:003,0.1907,0.1275,9.6517,0.0341,0.0045,9.8066,-0.001,-0.0378,-0.0101,-17.69,4.6,-23.79,193.24,5.6,0.56
53843,51.428204,-2.84197,50,6.94,9,205.5,13 / 20,5384323,2019-08-16 14:18:58:103,0.8467,-0.0651,10.7161,0.0089,-0.0241,9.8066,-0.0128,0.0581,0.0027,-18.11,4.06,-23.57,190.7,5.62,0.41
53844,51.428204,-2.84197,50,6.94,9,205.5,13 / 20,5384423,2019-08-16 14:18:58:203,0.7209,-0.4651,9.2705,-0.006,-0.0058,9.8066,0.0416,0.0496,-0.0027,-18.38,4.51,-23.27,190.7,5.62,0.41
53845,51.428204,-2.84197,50,6.94,9,205.5,13 / 20,5384523,2019-08-16 14:18:58:303,0.4571,-0.4468,9.1512,-0.011,0.0072,9.8066,-0.0373,-0.0378,0.0059,-18.38,4.51,-23.27,190.7,5.62,0.41
53846,51.428204,-2.84197,50,6.94,9,205.5,13 / 20,5384623,2019-08-16 14:18:58:403,0.269,-0.3164,9.8786,0.0057,0.0129,9.8066,0.0107,0.008,-0.0037,-18.67,4.58,-23.03,192.83,5.56,0.46
53847,51.428204,-2.84197,50,6.94,9,205.5,13 / 20,5384723,2019-08-16 14:18:58:503,0.2303,0.0577,9.905,0.0034,0.0104,9.8066,0.0128,-0.0144,-0.0037,-19.0,4.42,-22.79,190.15,5.61,0.53
53848,51.42814,-2.842014,50,7.37,9,205.4,13 / 20,5384823,2019-08-16 14:18:58:603,-0.3496,-0.36,9.3448,0.0079,0.0032,9.8066,-0.0149,-0.0112,0.0101,-19.66,5.61,-21.95,190.15,5.61,0.53
53849,51.42814,-2.842014,50,7.37,9,205.4,13 / 20,5384923,2019-08-16 14:18:58:703,0.6586,0.4723,9.8787,0.0565,0.0195,9.8065,0.0085,-0.0208,0.0027,-18.86,5.15,-22.75,192.62,5.96,0.58
53850,51.42814,-2.842014,50,7.37,9,205.4,13 / 20,5385023,2019-08-16 14:18:58:803,0.1989,-0.1883,10.0768,0.0291,-0.0078,9.8066,0.0085,-0.0208,0.0027,-18.58,5.08,-23.0,192.62,5.96,0.58
53851,51.42814,-2.842014,50,7.37,9,205.4,13 / 20,5385123,2019-08-16 14:18:58:903,0.1368,0.1307,9.7769,0.0474,-0.004,9.8065,-0.0138,-0.0058,0.0101,-18.02,4.16,-23.62,190.48,6.22,0.5
53852,51.42814,-2.842014,50,7.37,9,205.4,13 / 20,5385223,2019-08-16 14:18:59:003,0.2697,0.1017,10.1095,0.0163,0.0142,9.8066,0.0021,-0.025,-0.0027,-18.02,4.16,-23.62,190.48,6.22,0.5
53853,51.42814,-2.842014,50,7.37,9,205.4,13 / 20,5385323,2019-08-16 14:18:59:103,0.0975,-0.099,9.5496,0.0323,0.0184,9.8066,-0.0042,0.0219,0.0091,-17.12,3.66,-24.36,190.87,6.43,0.57
53854,51.42814,-2.842014,50,7.37,9,205.4,13 / 20,5385423,2019-08-16 14:18:59:203,-0.0939,0.2543,10.5354,-0.0132,-0.0007,9.8066,0.0362,0.0261,0.0048,-17.11,3.76,-24.36,190.81,6.42,0.62
53855,51.42814,-2.842014,50,7.37,9,205.4,13 / 20,5385523,2019-08-16 14:18:59:303,0.0158,-0.0465,10.3615,-0.0143,0.0153,9.8066,0.0096,-0.0026,0.0027,-17.11,3.76,-24.36,190.81,6.42,0.62
53856,51.42814,-2.842014,50,7.37,9,205.4,13 / 20,5385622,2019-08-16 14:18:59:402,0.4493,-0.118,9.7908,-0.0026,0.0128,9.8066,-0.0096,0.0346,0.0101,-16.78,4.22,-24.51,190.61,6.36,0.72
53857,51.42814,-2.842014,50,7.37,9,205.4,13 / 20,5385723,2019-08-16 14:18:59:503,0.4427,-0.0957,10.0512,-0.0051,0.0082,9.8066,0.0107,0.0027,0.0048,-16.17,5.1,-24.75,194.02,6.34,0.78
53858,51.428078,-2.842064,50,7.71,9,205.3,13 / 20,5385824,2019-08-16 14:18:59:604,0.4135,0.004,9.9124,0.0092,0.0031,9.8066,0.0107,0.0027,0.0048,-16.17,5.1,-24.75,194.02,6.34,0.78
53859,51.428078,-2.842064,50,7.71,9,205.3,13 / 20,5385923,2019-08-16 14:18:59:703,-0.1081,-0.1184,9.7785,0.0156,0.0145,9.8066,0.0224,-0.0133,-0.008,-15.99,4.91,-24.91,194.0,6.39,0.78
53860,51.428078,-2.842064,50,7.71,9,205.3,13 / 20,5386023,2019-08-16 14:18:59:803,0.176,0.1722,9.5524,0.0373,0.023,9.8066,-0.0085,-0.009,0.0037,-15.31,4.23,-25.45,194.0,6.39,0.78
53861,51.428078,-2.842064,50,7.71,9,205.3,13 / 20,5386123,2019-08-16 14:18:59:903,0.0881,-0.1156,9.4824,0.0463,0.031,9.8065,0.0139,0.0091,-0.0027,-16.41,4.03,-24.79,190.86,6.7,0.89
53862,51.428078,-2.842064,50,7.71,9,205.3,13 / 20,5386223,2019-08-16 14:19:00:003,0.1353,0.0232,9.5219,-0.007,0.0042,9.8066,-0.0362,0.0282,0.0037,-16.41,4.03,-24.79,190.86,6.7,0.89
53863,51.428078,-2.842064,50,7.71,9,205.3,13 / 20,5386323,2019-08-16 14:19:00:103,0.4108,-0.0198,9.831,0.0075,-0.0027,9.8066,0.0011,-0.0208,0.0101,-17.86,3.59,-23.84,189.91,6.66,0.92
53864,51.428078,-2.842064,50,7.71,9,205.3,13 / 20,5386423,2019-08-16 14:19:00:203,0.0863,0.3671,9.4671,0.0007,-0.0061,9.8066,0.0256,0.0059,-0.0027,-18.65,3.06,-23.3,186.98,6.7,0.9
53865,51.428078,-2.842064,50,7.71,9,205.3,13 / 20,5386523,2019-08-16 14:19:00:303,0.4845,-0.0788,9.9805,0.0024,-0.0064,9.8066,-0.0149,-0.0133,0.0133,-18.78,4.07,-23.04,186.98,6.7,0.9
53866,51.428078,-2.842064,50,7.71,9,205.3,13 / 20,5386623,2019-08-16 14:19:00:403,0.5889,0.1349,9.6492,0.0144,-0.0011,9.8066,-0.0149,-0.0133,0.0133,-19.27,4.53,-22.54,192.18,6.71,0.86
53867,51.428078,-2.842064,50,7.71,9,205.3,13 / 20,5386723,2019-08-16 14:19:00:503,0.6871,-0.0104,9.3162,0.0276,0.0017,9.8066,-0.0032,0.0133,-0.0112,-19.27,4.53,-22.54,192.18,6.71,0.86
53868,51.42801,-2.842106,50,7.95,10,205.1,13 / 20,5386823,2019-08-16 14:19:00:603,0.6119,-0.1357,9.8777,0.0123,0.0016,9.8066,-0.0064,0.0282,0.0123,-19.76,4.76,-22.06,191.75,6.87,0.84
53869,51.42801,-2.842106,50,7.95,10,205.1,13 / 20,5386923,2019-08-16 14:19:00:703,0.5295,0.0624,10.1049,0.0132,-0.003,9.8066,-0.0021,-0.008,0.0155,-19.57,4.24,-22.33,189.31,6.95,0.8
53870,51.42801,-2.842106,50,7.95,10,205.1,13 / 20,5387023,2019-08-16 14:19:00:803,0.6152,-0.1361,10.0948,-0.0025,-0.0006,9.8067,0.0,-0.0176,0.0176,-19.57,4.24,-22.33,189.31,6.95,0.8
53871,51.42801,-2.842106,50,7.95,10,205.1,13 / 20,5387123,2019-08-16 14:19:00:903,0.9671,-0.2796,9.4074,0.0098,0.0026,9.8066,0.0192,0.0368,0.008,-19.25,4.76,-22.51,192.19,6.93,0.8
53872,51.42801,-2.842106,50,7.95,10,205.1,13 / 20,5387223,2019-08-16 14:19:01:003,0.8604,-0.1103,9.4826,0.0052,0.0067,9.8066,-0.0234,-0.0389,0.0112,-18.76,4.37,-23.0,189.6,6.97,0.84
53873,51.42801,-2.842106,50,7.95,10,205.1,13 / 20,5387323,2019-08-16 14:19:01:103,0.1252,-0.2791,9.5491,0.0096,-0.0114,9.8066,0.016,-0.0325,0.0037,-18.76,4.37,-23.0,189.6,6.97,0.84
53874,51.42801,-2.842106,50,7.95,10,205.1,13 / 20,5387423,2019-08-16 14:19:01:203,0.0184,0.2384,9.7271,-0.0096,-0.0172,9.8066,0.0235,-0.0463,0.0069,-19.34,3.89,-22.6,189.67,7.01,0.76
53875,51.42801,-2.842106,50,7.95,10,205.1,13 / 20,5387523,2019-08-16 14:19:01:303,-0.4891,-0.2134,9.6995,-0.0149,-0.0222,9.8066,0.0235,-0.0463,0.0069,-19.07,3.53,-22.89,189.81,6.9,0.65
53876,51.42801,-2.842106,50,7.95,10,205.1,13 / 20,5387622,2019-08-16 14:19:01:402,-0.4378,-0.216,9.2401,-0.0006,-0.0116,9.8066,-0.0202,-0.0016,-0.0016,-19.07,3.53,-22.89,189.81,6.9,0.65
53877,51.42801,-2.842106,50,7.95,10,205.1,13 / 20,5387724,2019-08-16 14:19:01:504,-0.4129,0.143,9.9552,-0.0186,-0.0103,9.8066,-0.033,0.0123,0.0027,-19.27,4.99,-22.44,192.52,6.89,0.58
53878,51.427948,-2.842163,49,8.21,9,205.0,13 / 20,5387823,2019-08-16 14:19:01:603,-0.3304,-0.1105,9.18,-0.0335,-0.0141,9.8066,-0.001,-0.0026,0.0005,-19.33,4.38,-22.52,189.95,6.68,0.54
53879,51.427948,-2.842163,49,8.21,9,205.0,13 / 20,5387923,2019-08-16 14:19:01:703,-0.1619,0.2176,10.0809,-0.0198,-0.0081,9.8066,-0.0224,0.0485,0.0059,-20.09,4.46,-21.83,189.95,6.68,0.54
53880,51.427948,-2.842163,49,8.21,9,205.0,13 / 20,5388022,2019-08-16 14:19:01:802,-0.0976,0.0258,10.0204,-0.0552,-0.0268,9.8065,-0.0085,0.0389,0.0123,-20.09,4.46,-21.83,189.95,6.68,0.54
53881,51.427948,-2.842163,49,8.21,9,205.0,13 / 20,5388123,2019-08-16 14:19:01:903,-0.6087,-0.2503,9.0529,-0.0747,-0.0276,9.8063,0.0298,-0.0069,0.008,-18.72,4.85,-22.94,192.69,6.22,0.46
53882,51.427948,-2.842163,49,8.21,9,205.0,13 / 20,5388223,2019-08-16 14:19:02:003,-0.3386,-0.153,9.5726,-0.0019,-0.0032,9.8066,0.0213,-0.073,0.0005,-19.1,3.84,-22.81,192.69,6.22,0.46
53883,51.427948,-2.842163,49,8.21,9,205.0,13 / 20,5388323,2019-08-16 14:19:02:103,0.3431,0.3999,10.3426,-0.0004,-0.0019,9.8066,0.0213,-0.073,0.0005,-19.1,3.84,-22.81,192.69,6.22,0.46
53884,51.427948,-2.842163,49,8.21,9,205.0,13 / 20,5388423,2019-08-16 14:19:02:203,0.4675,-0.0704,9.9575,0.0081,0.0001,9.8066,-0.0309,0.0261,0.0155,-19.03,4.04,-22.84,190.13,6.22,0.45
53885,51.427948,-2.842163,49,8.21,9,205.0,13 / 20,5388523,2019-08-16 14:19:02:303,0.3231,0.263,10.2855,0.0199,0.0039,9.8066,0.033,-0.0026,0.008,-18.84,3.4,-23.1,187.52,6.27,0.44
53886,51.427948,-2.842163,49,8.21,9,205.0,13 / 20,5388623,2019-08-16 14:19:02:403,0.1371,0.3595,10.1443,0.0245,0.0057,9.8066,-0.0053,0.0346,0.0027,-18.72,4.85,-22.94,187.52,6.27,0.44
53887,51.427948,-2.842163,49,8.21,9,205.0,13 / 20,5388723,2019-08-16 14:19:02:503,-0.3289,-0.2644,9.7842,0.0291,0.0044,9.8066,-0.016,0.0368,0.008,-19.38,3.9,-22.57,190.1,6.44,0.44
53888,51.427876,-2.842214,49,8.65,9,204.6,13 / 20,5388822,2019-08-16 14:19:02:602,0.068,0.2023,9.7577,0.0188,0.0105,9.8066,-0.0106,-0.0389,0.0016,-19.38,3.9,-22.57,190.1,6.44,0.44
53889,51.427876,-2.842214,49,8.65,9,204.6,13 / 20,5388923,2019-08-16 14:19:02:703,0.6168,0.3785,9.8215,0.0163,-0.0042,9.8066,0.0075,-0.0602,-0.0027,-19.04,4.43,-22.76,190.03,6.56,0.48
53890,51.427876,-2.842214,49,8.65,9,204.6,13 / 20,5389023,2019-08-16 14:19:02:803,0.3491,-0.0112,9.0191,0.034,-0.0057,9.8066,-0.0117,0.0485,0.0186,-19.32,4.5,-22.5,190.07,6.75,0.42
53891,51.427876,-2.842214,49,8.65,9,204.6,13 / 20,5389122,2019-08-16 14:19:02:902,0.1192,0.0271,9.4519,0.0245,0.0146,9.8066,-0.0117,0.0485,0.0186,-19.32,4.5,-22.5,190.07,6.75,0.42
53892,51.427876,-2.842214,49,8.65,9,204.6,13 / 20,5389224,2019-08-16 14:19:03:004,0.0881,0.1704,10.3869,0.0231,0.0137,9.8066,0.0043,-0.0197,0.0123,-18.57,3.52,-23.29,189.99,6.9,0.48
53893,51.427876,-2.842214,49,8.65,9,204.6,13 / 20,5389323,2019-08-16 14:19:03:103,0.8319,0.1098,9.8926,0.0374,0.0262,9.8065,0.0352,-0.0112,0.0059,-18.54,3.93,-23.25,189.99,6.9,0.48
53894,51.427876,-2.842214,49,8.65,9,204.6,13 / 20,5389423,2019-08-16 14:19:03:203,-0.1445,-0.0326,9.7261,0.0119,0.0026,9.8066,-0.016,-0.0133,-0.0005,-18.54,3.43,-23.33,187.25,7.14,0.59
53895,51.427876,-2.842214,49,8.65,9,204.6,13 / 20,5389524,2019-08-16 14:19:03:304,0.2093,0.0197,9.0313,-0.0058,-0.0053,9.8066,0.0085,0.0059,0.0016,-18.27,3.87,-23.48,190.33,7.11,0.56
53896,51.427876,-2.842214,49,8.65,9,204.6,13 / 20,5389623,2019-08-16 14:19:03:403,-0.1408,0.123,10.2676,-0.0144,-0.0029,9.8066,0.0085,-0.0314,-0.0005,-18.81,3.88,-23.05,190.33,7.11,0.56
53897,51.427876,-2.842214,49,8.65,9,204.6,13 / 20,5389723,2019-08-16 14:19:03:503,-0.2211,0.0826,9.7506,-0.0036,-0.0028,9.8067,-0.0245,0.0091,0.0027,-18.81,3.88,-23.05,190.33,7.11,0.56
53898,51.427807,-2.842267,49,8.83,9,204.4,13 / 20,5389823,2019-08-16 14:19:03:603,-0.0617,-0.0612,9.6232,-0.0101,-0.0116,9.8066,-0.0245,0.0091,0.0027,-19.57,4.55,-22.28,192.03,7.04,0.51
53899,51.427807,-2.842267,49,8.83,9,204.4,13 / 20,5389923,2019-08-16 14:19:03:703,-0.1,-0.0626,9.5286,-0.0244,-0.011,9.8066,0.0171,0.0272,-0.008,-19.07,4.04,-22.8,189.94,6.94,0.51
53900,51.427807,-2.842267,49,8.83,9,204.4,13 / 20,5390023,2019-08-16 14:19:03:803,-0.3695,-0.3525,9.3164,-0.0304,-0.0087,9.8066,0.0075,-0.0314,-0.0144,-18.96,5.27,-22.65,189.94,6.94,0.51
53901,51.427807,-2.842267,49,8.83,9,204.4,13 / 20,5390123,2019-08-16 14:19:03:903,-0.423,-0.2739,9.6987,-0.0326,-0.0134,9.8066,-0.0074,0.0187,-0.0069,-18.96,5.27,-22.65,189.94,6.94,0.51
53902,51.427807,-2.842267,49,8.83,9,204.4,13 / 20,5390225,2019-08-16 14:19:04:005,0.0717,0.2385,10.116,-0.0233,-0.0132,9.8066,-0.0266,0.0368,0.0133,-18.5,3.92,-23.29,190.02,6.74,0.47
53903,51.427807,-2.842267,49,8.83,9,204.4,13 / 20,5390323,2019-08-16 14:19:04:103,-0.0156,0.209,10.2695,-0.0454,-0.01,9.8065,0.0181,-0.0463,-0.0005,-19.4,3.58,-22.6,190.08,6.47,0.46
53904,51.427807,-2.842267,49,8.83,9,204.4,13 / 20,5390423,2019-08-16 14:19:04:203,-0.1325,-0.0466,9.7834,-0.0079,0.0091,9.8066,-0.0085,0.0602,-0.0005,-19.4,3.58,-22.6,190.08,6.47,0.46
53905,51.427807,-2.842267,49,8.83,9,204.4,13 / 20,5390523,2019-08-16 14:19:04:303,-0.2517,0.0917,10.0338,0.0157,0.0018,9.8066,-0.0085,0.0602,-0.0005,-18.43,4.52,-23.24,193.18,6.43,0.52
53906,51.427807,-2.842267,49,8.83,9,204.4,13 / 20,5390623,2019-08-16 14:19:04:403,0.1744,0.155,10.4091,0.0165,-0.01,9.8066,-0.0298,-0.0058,-0.0059,-19.1,3.62,-22.85,190.09,6.51,0.44
53907,51.427807,-2.842267,49,8.83,9,204.4,13 / 20,5390723,2019-08-16 14:19:04:503,-0.144,0.3118,10.0915,-0.0138,-0.0046,9.8066,0.0075,-0.0389,-0.0059,-19.1,3.62,-22.85,190.09,6.51,0.44
53908,51.427727,-2.842321,50,9.14,10,204.4,13 / 20,5390823,2019-08-16 14:19:04:603,-0.2765,0.2179,9.4677,0.0058,-0.0108,9.8066,0.0107,0.0304,-0.0069,-19.26,5.12,-22.43,192.76,6.43,0.43
53909,51.427727,-2.842321,50,9.14,10,204.4,13 / 20,5390923,2019-08-16 14:19:04:703,-0.1712,-0.0633,9.356,-0.0047,-0.0125,9.8066,-0.0149,-0.0186,0.0016,-19.61,4.56,-22.24,192.76,6.43,0.43
53910,51.427727,-2.842321,50,9.14,10,204.4,13 / 20,5391023,2019-08-16 14:19:04:803,-0.1286,-0.3042,9.5427,-0.0169,-0.0084,9.8066,-0.001,0.0304,0.0037,-19.33,4.38,-22.52,190.18,6.39,0.37
53911,51.427727,-2.842321,50,9.14,10,204.4,13 / 20,5391123,2019-08-16 14:19:04:903,0.09,0.3535,10.0204,-0.0327,-0.0184,9.8066,0.0256,-0.025,-0.0027,-19.33,4.38,-22.52,190.18,6.39,0.37
53912,51.427727,-2.842321,50,9.14,10,204.4,13 / 20,5391223,2019-08-16 14:19:05:003,0.0643,0.2466,9.469,-0.0057,0.0041,9.8066,-0.0213,-0.0389,0.008,-19.04,4.43,-22.76,190.3,6.18,0.29
53913,51.427727,-2.842321,50,9.14,10,204.4,13 / 20,5391323,2019-08-16 14:19:05:103,0.0511,-0.0954,9.0832,-0.0165,0.0059,9.8066,-0.0213,-0.0389,0.008,-18.82,3.57,-23.09,190.3,6.18,0.29
53914,51.427727,-2.842321,50,9.14,10,204.4,13 / 20,5391423,2019-08-16 14:19:05:203,0.0153,-0.138,9.6103,-0.0284,-0.0005,9.8066,0.0096,0.0421,-0.0037,-18.79,3.66,-23.1,190.3,6.02,0.32
53915,51.427727,-2.842321,50,9.14,10,204.4,13 / 20,5391523,2019-08-16 14:19:05:303,0.0559,0.0912,10.4292,-0.0001,-0.0093,9.8066,-0.0106,-0.024,0.0016,-18.79,3.66,-23.1,190.3,6.02,0.32
53916,51.427727,-2.842321,50,9.14,10,204.4,13 / 20,5391624,2019-08-16 14:19:05:404,0.0703,0.1997,9.5455,-0.0031,-0.0056,9.8066,-0.0042,0.0123,-0.0059,-18.46,4.41,-23.23,190.85,6.01,0.27
53917,51.427727,-2.842321,50,9.14,10,204.4,13 / 20,5391723,2019-08-16 14:19:05:503,-0.0851,-0.0203,9.2124,-0.0052,-0.0106,9.8066,0.0213,0.0357,-0.0005,-19.02,4.55,-22.75,193.0,5.97,0.21
53918,51.427654,-2.842384,49,9.63,10,204.7,13 / 20,5391823,2019-08-16 14:19:05:603,-0.0561,-0.1437,9.6148,-0.0069,0.0058,9.8066,-0.0074,0.0059,0.0016,-19.32,4.5,-22.5,190.38,5.94,0.25
53919,51.427654,-2.842384,49,9.63,10,204.7,13 / 20,5391923,2019-08-16 14:19:05:703,-0.3215,0.0005,9.4402,-0.0152,0.0028,9.8066,0.0405,0.0101,-0.0112,-19.32,4.5,-22.5,190.38,5.94,0.25
53920,51.427654,-2.842384,49,9.63,10,204.7,13 / 20,5392023,2019-08-16 14:19:05:803,0.2808,0.4438,9.6099,0.004,0.006,9.8066,0.0405,0.0101,-0.0112,-18.99,4.92,-22.7,192.95,5.85,0.29
53921,51.427654,-2.842384,49,9.63,10,204.7,13 / 20,5392124,2019-08-16 14:19:05:904,0.1365,0.203,9.9921,0.0023,-0.0141,9.8066,-0.0245,-0.0474,0.0027,-19.89,4.53,-21.99,192.42,5.88,0.32
53922,51.427654,-2.842384,49,9.63,10,204.7,13 / 20,5392223,2019-08-16 14:19:06:003,0.0212,-0.4459,9.5179,0.0019,-0.0084,9.8066,-0.0245,0.0197,-0.0069,-18.45,4.91,-23.14,192.42,5.88,0.32
53923,51.427654,-2.842384,49,9.63,10,204.7,13 / 20,5392323,2019-08-16 14:19:06:103,-0.0257,-0.3961,9.7045,0.0061,-0.0098,9.8066,0.0149,0.025,-0.0133,-18.45,4.91,-23.14,192.42,5.88,0.32
53924,51.427654,-2.842384,49,9.63,10,204.7,13 / 20,5392423,2019-08-16 14:19:06:203,-0.4372,0.1292,10.078,-0.0032,-0.0111,9.8066,-0.0234,-0.0218,0.0048,-18.58,3.11,-23.35,187.76,5.91,0.25
53925,51.427654,-2.842384,49,9.63,10,204.7,13 / 20,5392523,2019-08-16 14:19:06:303,0.7014,-0.0163,10.2023,-0.0077,-0.0195,9.8066,-0.016,0.0453,-0.008,-18.22,4.05,-23.49,191.02,5.85,0.14
53926,51.427654,-2.842384,49,9.63,10,204.7,13 / 20,5392623,2019-08-16 14:19:06:403,-0.0023,-0.2075,9.9247,-0.0018,-0.0011,9.8067,0.0107,-0.0293,-0.0112,-18.22,4.05,-23.49,191.02,5.85,0.14
53927,51.427654,-2.842384,49,9.63,10,204.7,13 / 20,5392724,2019-08-16 14:19:06:504,-0.5465,-0.0698,9.9514,0.006,-0.0023,9.8066,0.0064,-0.0346,-0.0048,-18.26,3.56,-23.54,190.96,5.83,0.14
53928,51.427567,-2.842439,49,10.06,9,205.0,13 / 20,5392823,2019-08-16 14:19:06:603,0.2774,0.0332,9.7063,0.0002,0.0026,9.8067,0.0064,-0.0346,-0.0048,-18.18,4.47,-23.44,190.96,5.83,0.14
53929,51.427567,-2.842439,49,10.06,9,205.0,13 / 20,5392923,2019-08-16 14:19:06:703,0.4799,0.1762,10.3619,0.0,-0.0024,9.8067,-0.017,0.0293,-0.0016,-18.74,4.48,-23.0,190.5,5.84,0.15
53930,51.427567,-2.842439,49,10.06,9,205.0,13 / 20,5393024,2019-08-16 14:19:06:804,-0.1585,0.0522,9.8532,0.018,-0.0127,9.8066,0.0075,-0.0303,-0.0165,-18.74,4.48,-23.0,190.5,5.84,0.15
53931,51.427567,-2.842439,49,10.06,9,205.0,13 / 20,5393123,2019-08-16 14:19:06:903,0.6601,0.1166,9.8677,0.0003,0.0013,9.8067,0.0149,-0.0634,-0.0112,-19.02,4.55,-22.75,193.16,5.93,0.06
53932,51.427567,-2.842439,49,10.06,9,205.0,13 / 20,5393222,2019-08-16 14:19:07:002,0.0722,0.0463,9.9044,-0.0025,0.0112,9.8066,-0.0351,0.0442,0.0037,-19.06,4.56,-22.71,193.15,5.93,0.07
53933,51.427567,-2.842439,49,10.06,9,205.0,13 / 20,5393322,2019-08-16 14:19:07:102,-0.0153,-0.0051,8.827,0.0095,0.0091,9.8066,0.0309,0.057,-0.0027,-18.54,4.43,-23.17,190.52,6.0,0.11
53934,51.427567,-2.842439,49,10.06,9,205.0,13 / 20,5393423,2019-08-16 14:19:07:203,-0.0115,0.1973,10.1087,-0.0165,0.0079,9.8066,-0.0053,0.0197,-0.0101,-18.54,4.43,-23.17,190.52,6.0,0.11
53935,51.427567,-2.842439,49,10.06,9,205.0,13 / 20,5393523,2019-08-16 14:19:07:303,0.2195,0.0743,10.3992,-0.0039,-0.0095,9.8066,-0.0053,0.0197,-0.0101,-18.23,3.97,-23.49,190.97,5.91,0.17
53936,51.427567,-2.842439,49,10.06,9,205.0,13 / 20,5393623,2019-08-16 14:19:07:403,-0.515,-0.2529,10.1861,-0.0088,-0.0258,9.8066,0.0085,0.0165,-0.0091,-18.5,3.61,-23.34,190.63,5.83,0.03
53937,51.427567,-2.842439,49,10.06,9,205.0,13 / 20,5393723,2019-08-16 14:19:07:503,0.2949,-0.2439,8.8014,0.0114,-0.003,9.8066,0.0043,0.0378,-0.0101,-17.67,3.96,-23.92,191.11,5.89,0.0
53938,51.427483,-2.842498,49,10.42,9,205.2,13 / 20,5393823,2019-08-16 14:19:07:603,-0.2222,0.0826,8.6958,0.006,0.0055,9.8066,0.0032,-0.0271,-0.0133,-17.67,3.96,-23.92,191.11,5.89,0.0
53939,51.427483,-2.842498,49,10.42,9,205.2,13 / 20,5393923,2019-08-16 14:19:07:703,0.3398,0.1581,9.3008,0.0145,-0.002,9.8066,0.0,0.0602,-0.008,-18.73,4.98,-22.9,193.13,5.97,0.08
53940,51.427483,-2.842498,49,10.42,9,205.2,13 / 20,5394023,2019-08-16 14:19:07:803,0.5668,0.3849,10.0002,0.0166,0.0105,9.8066,0.0011,-0.0602,-0.0218,-19.31,5.0,-22.41,193.21,6.05,0.05
53941,51.427483,-2.842498,49,10.42,9,205.2,13 / 20,5394123,2019-08-16 14:19:07:903,0.1795,0.1439,9.4421,0.0364,0.0062,9.8066,-0.0234,-0.0058,-0.0005,-18.73,4.98,-22.9,193.12,6.27,0.04
53942,51.427483,-2.842498,49,10.42,9,205.2,13 / 20,5394223,2019-08-16 14:19:08:003,-0.1592,-0.5229,9.7059,-0.0191,-0.0045,9.8066,0.0,0.0634,0.0048,-19.08,4.44,-22.72,193.12,6.27,0.04
53943,51.427483,-2.842498,49,10.42,9,205.2,13 / 20,5394324,2019-08-16 14:19:08:104,-0.0443,0.1571,10.0065,-0.0404,-0.0037,9.8066,0.0,0.0634,0.0048,-19.08,4.44,-22.72,193.12,6.27,0.04
53944,51.427483,-2.842498,49,10.42,9,205.2,13 / 20,5394423,2019-08-16 14:19:08:203,-0.47,0.127,9.4241,-0.0154,0.0013,9.8066,0.0128,0.0165,0.0048,-18.45,4.91,-23.14,193.75,6.03,0.07
53945,51.427483,-2.842498,49,10.42,9,205.2,13 / 20,5394523,2019-08-16 14:19:08:303,-0.1024,0.2707,10.8104,-0.022,0.0183,9.8066,0.0224,-0.0548,-0.0016,-18.45,4.91,-23.14,193.75,6.03,0.07
53946,51.427483,-2.842498,49,10.42,9,205.2,13 / 20,5394622,2019-08-16 14:19:08:402,0.165,0.7025,10.1179,0.0156,0.0217,9.8066,-0.0394,0.0261,-0.0037,-18.47,4.53,-23.2,193.63,5.93,0.2
53947,51.427483,-2.842498,49,10.42,9,205.2,13 / 20,5394723,2019-08-16 14:19:08:503,-0.0213,-0.3469,8.5293,0.0612,0.0309,9.8064,-0.0096,-0.0335,0.0027,-18.79,3.66,-23.1,190.27,6.32,0.29
53948,51.427383,-2.842564,50,10.94,9,205.3,13 / 20,5394823,2019-08-16 14:19:08:603,0.48,0.6197,10.0665,0.0449,0.0097,9.8065,0.0405,-0.0165,-0.0229,-18.79,3.66,-23.1,190.27,6.32,0.29
53949,51.427383,-2.842564,50,10.94,9,205.3,13 / 20,5394923,2019-08-16 14:19:08:703,0.464,0.5502,10.1366,0.0678,-0.007,9.8064,-0.0426,-0.0314,-0.0037,-18.57,4.02,-23.21,190.12,6.95,0.34
53950,51.427383,-2.842564,50,10.94,9,205.3,13 / 20,5395024,2019-08-16 14:19:08:804,0.1695,-0.0065,9.8217,0.1237,-0.0163,9.8059,0.0032,0.0006,0.0037,-18.08,5.44,-23.31,190.12,6.95,0.34
53951,51.427383,-2.842564,50,10.94,9,205.3,13 / 20,5395123,2019-08-16 14:19:08:903,0.6853,0.1771,11.5456,0.0242,0.0046,9.8066,0.0032,0.0006,0.0037,-18.22,4.48,-23.41,190.71,7.64,0.12
53952,51.427383,-2.842564,50,10.94,9,205.3,13 / 20,5395223,2019-08-16 14:19:09:003,0.3909,-0.2777,9.5041,-0.0106,0.0137,9.8066,0.0064,0.0219,0.0165,-18.79,4.18,-23.01,190.15,7.59,0.21
53953,51.427383,-2.842564,50,10.94,9,205.3,13 / 20,5395323,2019-08-16 14:19:09:103,0.1244,0.1127,9.6968,-0.0261,-0.007,9.8066,0.0075,0.0549,0.0197,-18.79,4.18,-23.01,190.15,7.59,0.21
53954,51.427383,-2.842564,50,10.94,9,205.3,13 / 20,5395424,2019-08-16 14:19:09:204,-0.233,0.0181,10.5724,-0.0361,0.0242,9.8066,0.0267,-0.0016,0.0155,-19.32,4.5,-22.5,190.19,7.44,0.2
53955,51.427383,-2.842564,50,10.94,9,205.3,13 / 20,5395523,2019-08-16 14:19:09:303,-0.4196,0.4343,10.0338,-0.0449,0.0463,9.8064,0.0341,-0.0133,-0.0154,-19.08,4.44,-22.72,190.19,7.44,0.2
53956,51.427383,-2.842564,50,10.94,9,205.3,13 / 20,5395623,2019-08-16 14:19:09:403,0.4758,0.0418,9.511,-0.025,0.0657,9.8064,-0.0202,-0.0378,-0.0144,-18.49,4.92,-23.11,192.88,7.36,0.6
53957,51.427383,-2.842564,50,10.94,9,205.3,13 / 20,5395724,2019-08-16 14:19:09:504,0.1511,-0.2903,9.3112,0.0311,0.021,9.8066,-0.0373,-0.0058,-0.0037,-17.9,4.52,-23.64,192.64,7.57,0.68
53958,51.427296,-2.842633,50,11.02,9,205.2,13 / 20,5395823,2019-08-16 14:19:09:603,-0.0482,-0.2468,9.7027,0.0977,-0.0081,9.8062,-0.0373,-0.0058,-0.0037,-17.9,4.52,-23.64,192.64,7.57,0.68
53959,51.427296,-2.842633,50,11.02,9,205.2,13 / 20,5395923,2019-08-16 14:19:09:703,-0.0131,-0.1714,9.5014,0.0063,-0.0227,9.8066,-0.0149,-0.0314,-0.0069,-18.22,4.48,-23.41,190.21,8.11,0.51
53960,51.427296,-2.842633,50,11.02,9,205.2,13 / 20,5396023,2019-08-16 14:19:09:803,0.2284,0.024,9.6814,-0.0409,0.0016,9.8066,-0.0138,0.0187,0.0208,-17.95,4.41,-23.63,190.27,8.13,0.37
53961,51.427296,-2.842633,50,11.02,9,205.2,13 / 20,5396123,2019-08-16 14:19:09:903,-0.0047,-0.3201,9.6432,-0.115,0.0172,9.806,0.0512,0.0368,0.0037,-18.95,5.55,-22.58,194.78,7.48,0.59
53962,51.427296,-2.842633,50,11.02,9,205.2,13 / 20,5396223,2019-08-16 14:19:10:003,-0.4933,-0.1405,10.7281,-0.0329,0.0111,9.8066,0.0032,0.0037,-0.0069,-18.95,5.55,-22.58,194.78,7.48,0.59
53963,51.427296,-2.842633,50,11.02,9,205.2,13 / 20,5396323,2019-08-16 14:19:10:103,-0.1655,-0.1677,8.6071,-0.0132,-0.0045,9.8066,-0.0181,0.0261,0.0037,-19.27,4.99,-22.44,192.32,7.31,0.71
53964,51.427296,-2.842633,50,11.02,9,205.2,13 / 20,5396423,2019-08-16 14:19:10:203,0.5313,0.2067,9.8874,-0.021,-0.0178,9.8066,0.0,0.0293,0.0112,-19.31,5.0,-22.41,192.42,7.17,0.63
53965,51.427296,-2.842633,50,11.02,9,205.2,13 / 20,5396523,2019-08-16 14:19:10:303,0.3137,-0.0054,9.1963,0.0278,0.0122,9.8066,-0.0032,-0.0431,0.0016,-18.57,4.32,-23.16,192.42,7.17,0.63
53966,51.427296,-2.842633,50,11.02,9,205.2,13 / 20,5396623,2019-08-16 14:19:10:403,0.0174,0.2392,9.378,0.0754,0.0342,9.8063,-0.0032,-0.0431,0.0016,-18.57,4.32,-23.16,192.42,7.17,0.63
53967,51.427296,-2.842633,50,11.02,9,205.2,13 / 20,5396724,2019-08-16 14:19:10:504,-0.1657,-0.0179,9.5348,0.0544,0.0364,9.8064,0.0203,-0.0229,-0.0037,-18.18,4.97,-23.34,192.69,7.64,0.73
53968,51.427204,-2.842697,50,11.15,9,205.0,13 / 20,5396824,2019-08-16 14:19:10:604,0.047,0.5058,10.1872,0.0139,0.0098,9.8066,-0.0213,0.0069,0.0144,-18.26,4.06,-23.45,189.85,8.0,0.87
53969,51.427204,-2.842697,50,11.15,9,205.0,13 / 20,5396923,2019-08-16 14:19:10:703,-0.2251,0.0253,9.9061,0.0209,0.0049,9.8066,-0.0213,0.0133,0.0037,-17.63,4.45,-23.86,189.85,8.0,0.87
53970,51.427204,-2.842697,50,11.15,9,205.0,13 / 20,5397023,2019-08-16 14:19:10:803,-0.0037,0.0661,10.1887,-0.0087,-0.0095,9.8066,-0.0096,0.0048,0.0005,-17.98,4.0,-23.68,189.71,8.13,0.88
53971,51.427204,-2.842697,50,11.15,9,205.0,13 / 20,5397123,2019-08-16 14:19:10:903,-0.0919,0.2059,9.9787,-0.0217,-0.016,9.8066,-0.001,0.056,0.008,-17.98,4.0,-23.68,189.71,8.13,0.88
53972,51.427204,-2.842697,50,11.15,9,205.0,13 / 20,5397223,2019-08-16 14:19:11:003,0.1691,-0.04,9.8049,0.0001,0.0046,9.8066,-0.0298,0.0272,0.0059,-18.47,4.53,-23.2,192.54,7.98,0.81
53973,51.427204,-2.842697,50,11.15,9,205.0,13 / 20,5397323,2019-08-16 14:19:11:103,-0.0322,0.141,9.7986,0.0057,-0.0036,9.8066,0.0085,0.0155,-0.0059,-19.07,4.94,-22.63,192.01,8.01,0.78
53974,51.427204,-2.842697,50,11.15,9,205.0,13 / 20,5397424,2019-08-16 14:19:11:204,0.2849,-0.0427,9.511,0.0281,0.0109,9.8066,0.0085,0.0155,-0.0059,-19.3,5.13,-22.39,192.01,8.01,0.78
53975,51.427204,-2.842697,50,11.15,9,205.0,13 / 20,5397523,2019-08-16 14:19:11:303,0.2375,-0.1016,9.9965,0.0383,0.0079,9.8066,-0.0191,-0.0261,-0.0037,-19.3,5.13,-22.39,192.01,8.01,0.78
53976,51.427204,-2.842697,50,11.15,9,205.0,13 / 20,5397623,2019-08-16 14:19:11:403,-0.086,-0.0145,9.7986,-0.0083,0.0046,9.8066,0.0085,0.0197,0.0101,-18.49,4.92,-23.11,192.55,8.26,0.74
53977,51.427204,-2.842697,50,11.15,9,205.0,13 / 20,5397723,2019-08-16 14:19:11:503,-0.3286,-0.3204,9.8029,-0.0173,0.0134,9.8066,0.0362,0.0133,0.0037,-18.54,4.13,-23.22,189.48,8.22,0.77
53978,51.427113,-2.84277,51,11.32,9,204.7,13 / 20,5397823,2019-08-16 14:19:11:603,-0.1541,-0.2183,10.1883,-0.0526,0.0262,9.8065,0.0054,0.0314,-0.0027,-18.54,4.13,-23.22,189.48,8.22,0.77
53979,51.427113,-2.84277,51,11.32,9,204.7,13 / 20,5397923,2019-08-16 14:19:11:703,-0.1321,-0.1794,10.0831,-0.0359,0.0036,9.8066,0.0149,0.0059,0.0016,-18.82,4.07,-23.01,189.31,7.94,0.98
53980,51.427113,-2.84277,51,11.32,9,204.7,13 / 20,5398024,2019-08-16 14:19:11:804,-0.1911,0.2102,9.8653,-0.051,0.0204,9.8065,-0.0202,-0.0346,-0.0016,-18.81,4.58,-22.92,189.31,7.94,0.98
53981,51.427113,-2.84277,51,11.32,9,204.7,13 / 20,5398123,2019-08-16 14:19:11:903,-0.3256,-0.0094,9.4381,-0.0128,0.0064,9.8066,-0.0202,-0.0346,-0.0016,-19.06,4.56,-22.71,191.71,7.66,1.14
53982,51.427113,-2.84277,51,11.32,9,204.7,13 / 20,5398224,2019-08-16 14:19:12:004,-0.3002,-0.2999,9.6989,-0.013,0.0008,9.8066,-0.0138,-0.0421,-0.008,-18.18,4.97,-23.34,191.71,7.66,1.14
53983,51.427113,-2.84277,51,11.32,9,204.7,13 / 20,5398323,2019-08-16 14:19:12:103,-0.1921,0.3322,10.3633,0.0085,0.0023,9.8066,-0.001,-0.0655,-0.0048,-19.01,5.05,-22.65,191.69,7.72,1.15
53984,51.427113,-2.84277,51,11.32,9,204.7,13 / 20,5398423,2019-08-16 14:19:12:203,-0.1073,-0.2527,9.2304,0.026,-0.0142,9.8066,-0.0032,-0.0048,-0.0059,-19.01,5.05,-22.65,191.69,7.72,1.15
53985,51.427113,-2.84277,51,11.32,9,204.7,13 / 20,5398523,2019-08-16 14:19:12:303,-0.1393,0.0041,9.8896,-0.0214,-0.0249,9.8066,0.0096,0.0517,-0.0101,-19.06,4.56,-22.71,191.69,7.72,1.15
53986,51.427113,-2.84277,51,11.32,9,204.7,13 / 20,5398623,2019-08-16 14:19:12:403,-0.1081,-0.0731,10.7834,-0.0353,0.0041,9.8066,0.0192,0.0069,0.0005,-18.83,4.47,-22.92,189.31,7.56,1.03
53987,51.427113,-2.84277,51,11.32,9,204.7,13 / 20,5398723,2019-08-16 14:19:12:503,0.4004,0.1325,10.6163,-0.0553,0.0127,9.8065,0.0054,0.0996,0.0155,-18.83,4.47,-22.92,189.31,7.56,1.03
53988,51.427032,-2.842838,50,11.49,9,204.4,13 / 20,5398823,2019-08-16 14:19:12:603,-0.0195,-0.1917,9.4628,-0.0273,0.0102,9.8066,-0.0234,0.0091,0.0112,-18.22,4.84,-23.34,192.31,7.26,1.16
53989,51.427032,-2.842838,50,11.49,9,204.4,13 / 20,5398923,2019-08-16 14:19:12:703,-0.3913,0.0304,9.9221,-0.0139,0.0021,9.8066,-0.0234,0.0091,0.0112,-18.86,4.08,-22.97,189.15,7.11,1.25
53990,51.427032,-2.842838,50,11.49,9,204.4,13 / 20,5399024,2019-08-16 14:19:12:804,-0.3466,-0.2635,10.1879,-0.0063,-0.0012,9.8066,-0.0128,0.0005,-0.0027,-18.57,4.02,-23.21,189.16,7.08,1.25
53991,51.427032,-2.842838,50,11.49,9,204.4,13 / 20,5399124,2019-08-16 14:19:12:904,0.1461,-0.3802,9.2259,0.0394,-0.0086,9.8066,-0.0149,-0.074,-0.0154,-18.57,4.02,-23.21,189.16,7.08,1.25
53992,51.427032,-2.842838,50,11.49,9,204.4,13 / 20,5399223,2019-08-16 14:19:13:003,0.1905,0.4916,10.3981,0.0348,-0.0032,9.8066,-0.0053,-0.0634,-0.0037,-18.57,4.02,-23.21,189.22,7.3,1.16
53993,51.427032,-2.842838,50,11.49,9,204.4,13 / 20,5399323,2019-08-16 14:19:13:103,-0.1844,-0.477,9.2999,0.0362,-0.0146,9.8066,0.0085,-0.0037,0.0027,-18.22,4.84,-23.34,192.39,7.49,1.04
53994,51.427032,-2.842838,50,11.49,9,204.4,13 / 20,5399423,2019-08-16 14:19:13:203,0.0623,0.1722,10.2458,-0.0119,0.0184,9.8066,0.0522,0.0059,-0.0027,-18.22,4.84,-23.34,192.39,7.49,1.04
53995,51.427032,-2.842838,50,11.49,9,204.4,13 / 20,5399523,2019-08-16 14:19:13:303,-0.4268,-0.024,8.7951,-0.0336,0.0219,9.8066,0.0267,-0.0559,0.008,-19.07,4.94,-22.63,191.7,7.33,1.21
53996,51.427032,-2.842838,50,11.49,9,204.4,13 / 20,5399624,2019-08-16 14:19:13:404,-0.0162,0.385,10.0081,-0.0211,0.0022,9.8066,0.0267,-0.0559,0.008,-19.02,5.42,-22.56,191.65,7.31,1.27
53997,51.427032,-2.842838,50,11.49,9,204.4,13 / 20,5399722,2019-08-16 14:19:13:502,0.2666,-0.1453,9.8317,-0.0347,0.0071,9.8066,0.0064,0.0176,-0.008,-19.02,5.42,-22.56,191.65,7.31,1.27
53998,51.426937,-2.842912,50,11.76,9,204.3,13 / 20,5399823,2019-08-16 14:19:13:603,0.2008,-0.0845,9.3016,0.0002,0.001,9.8067,0.0128,0.0229,0.0069,-19.08,4.44,-22.72,189.05,7.12,1.35
53999,51.426937,-2.842912,50,11.76,9,204.3,13 / 20,5399923,2019-08-16 14:19:13:703,-0.2605,-0.2996,10.0758,0.0042,-0.0243,9.8066,0.0054,-0.024,-0.0282,-18.51,4.54,-23.17,191.59,7.12,1.36
54000,51.426937,-2.842912,50,11.76,9,204.3,13 / 20,5400023,2019-08-16 14:19:13:803,-0.5682,0.0696,10.1742,-0.0067,-0.0452,9.8065,-0.0277,0.0144,0.0005,-18.54,4.13,-23.22,189.32,7.03,1.1
54001,51.426937,-2.842912,50,11.76,9,204.3,13 / 20,5400123,2019-08-16 14:19:13:903,-1.0357,-0.1321,8.7353,-0.0243,-0.0019,9.8066,0.0288,0.0144,-0.0048,-18.81,4.58,-22.92,191.88,6.89,1.11
54002,51.426937,-2.842912,50,11.76,9,204.3,13 / 20,5400223,2019-08-16 14:19:14:003,-0.5153,-0.13,9.1045,-0.0111,0.0072,9.8066,-0.016,-0.0154,-0.0016,-18.81,4.58,-22.92,191.88,6.89,1.11
54003,51.426937,-2.842912,50,11.76,9,204.3,13 / 20,5400323,2019-08-16 14:19:14:103,0.0123,0.1411,9.6849,-0.0386,-0.0117,9.8066,0.0458,0.0272,-0.0016,-19.07,4.94,-22.63,191.95,6.66,1.09
54004,51.426937,-2.842912,50,11.76,9,204.3,13 / 20,5400423,2019-08-16 14:19:14:203,-0.0203,-0.4,10.0699,-0.0166,0.0043,9.8066,-0.0437,-0.0293,0.0059,-19.6,5.07,-22.14,191.51,6.57,1.14
54005,51.426937,-2.842912,50,11.76,9,204.3,13 / 20,5400524,2019-08-16 14:19:14:304,0.5818,-0.2066,10.5696,0.0174,-0.0237,9.8066,-0.0096,0.0772,-0.0122,-19.6,5.07,-22.14,191.51,6.57,1.14
54006,51.426937,-2.842912,50,11.76,9,204.3,13 / 20,5400623,2019-08-16 14:19:14:403,0.1938,0.1212,10.31,-0.0074,-0.0148,9.8066,-0.0096,0.0772,-0.0122,-19.64,4.66,-22.19,191.65,6.64,0.98
54007,51.426937,-2.842912,50,11.76,9,204.3,13 / 20,5400723,2019-08-16 14:19:14:503,-0.3872,-0.1161,9.8776,-0.0237,-0.015,9.8066,-0.0255,0.0421,-0.0016,-19.01,5.05,-22.65,192.16,6.58,0.91
54008,51.42684,-2.842989,50,12.05,9,204.5,13 / 20,5400822,2019-08-16 14:19:14:602,-0.7958,-0.4316,8.9273,-0.0293,-0.0341,9.8065,-0.0223,-0.0325,-0.0016,-19.01,5.05,-22.65,192.16,6.58,0.91
54009,51.42684,-2.842989,50,12.05,9,204.5,13 / 20,5400923,2019-08-16 14:19:14:703,-0.0657,0.4157,10.9883,-0.0208,-0.0264,9.8066,0.0,-0.0687,-0.0144,-19.07,4.94,-22.63,192.36,6.37,0.75
54010,51.42684,-2.842989,50,12.05,9,204.5,13 / 20,5401024,2019-08-16 14:19:14:804,-0.215,-0.3844,9.6215,-0.0377,-0.0449,9.8065,-0.0202,0.0549,-0.0112,-18.61,3.53,-23.26,192.36,6.37,0.75
54011,51.42684,-2.842989,50,12.05,9,204.5,13 / 20,5401123,2019-08-16 14:19:14:903,-0.701,-0.5697,9.7548,0.0099,-0.0191,9.8066,-0.033,0.0464,0.0133,-19.18,3.12,-22.85,187.44,6.1,0.54
54012,51.42684,-2.842989,50,12.05,9,204.5,13 / 20,5401223,2019-08-16 14:19:15:003,0.1154,-0.2999,9.8295,-0.0047,-0.0469,9.8065,-0.0202,-0.009,0.0101,-18.54,4.13,-23.22,187.44,6.1,0.54
54013,51.42684,-2.842989,50,12.05,9,204.5,13 / 20,5401323,2019-08-16 14:19:15:103,0.4617,0.3086,11.2514,0.0061,-0.0327,9.8066,-0.0213,0.0975,-0.0048,-18.81,4.58,-22.92,192.84,6.11,0.34
54014,51.42684,-2.842989,50,12.05,9,204.5,13 / 20,5401423,2019-08-16 14:19:15:203,-0.4693,-0.3916,8.8755,-0.0122,0.0026,9.8066,-0.0213,0.0975,-0.0048,-18.81,4.58,-22.92,192.84,6.11,0.34
54015,51.42684,-2.842989,50,12.05,9,204.5,13 / 20,5401523,2019-08-16 14:19:15:303,-0.1665,-0.2247,9.3077,-0.0064,-0.0204,9.8066,-0.0554,0.0709,0.0144,-18.77,4.99,-22.87,192.96,6.04,0.23
54016,51.42684,-2.842989,50,12.05,9,204.5,13 / 20,5401623,2019-08-16 14:19:15:403,0.3428,0.5384,10.8733,-0.0071,-0.0089,9.8066,0.0,0.0772,0.0005,-19.04,4.76,-22.69,193.02,6.08,0.17
54017,51.42684,-2.842989,50,12.05,9,204.5,13 / 20,5401723,2019-08-16 14:19:15:503,-0.2622,0.2175,9.6053,-0.0196,-0.0073,9.8066,0.0128,-0.009,-0.0144,-19.83,5.65,-21.79,193.02,6.08,0.17
54018,51.42674,-2.84307,49,12.5,9,204.8,13 / 20,5401823,2019-08-16 14:19:15:603,0.0881,0.1685,9.2565,-0.0349,0.0082,9.8066,0.0128,-0.0101,0.0069,-19.24,5.63,-22.32,195.58,5.89,0.26
54019,51.42674,-2.84307,49,12.5,9,204.8,13 / 20,5401923,2019-08-16 14:19:15:703,0.1061,-0.1367,9.3361,-0.0034,0.0103,9.8066,-0.0032,0.0251,0.0005,-19.24,5.63,-22.32,195.58,5.89,0.26
54020,51.42674,-2.84307,49,12.5,9,204.8,13 / 20,5402023,2019-08-16 14:19:15:803,-0.2032,-0.0469,8.5575,0.0136,0.0037,9.8066,0.0,-0.0218,-0.0069,-18.97,5.04,-22.69,192.9,5.89,0.33
54021,51.42674,-2.84307,49,12.5,9,204.8,13 / 20,5402123,2019-08-16 14:19:15:903,0.4619,0.5784,10.8407,0.0359,0.0154,9.8066,-0.0074,0.0293,-0.0016,-19.69,4.15,-22.25,192.9,5.89,0.33
54022,51.42674,-2.84307,49,12.5,9,204.8,13 / 20,5402223,2019-08-16 14:19:16:003,0.4763,-0.0953,10.0234,0.0398,0.0111,9.8066,-0.0074,0.0293,-0.0016,-18.47,4.53,-23.2,193.44,6.13,0.34
54023,51.42674,-2.84307,49,12.5,9,204.8,13 / 20,5402324,2019-08-16 14:19:16:104,0.065,-0.5693,9.5412,0.0438,0.0011,9.8066,0.0043,-0.0847,-0.0016,-18.22,4.84,-23.34,193.44,6.13,0.34
54024,51.42674,-2.84307,49,12.5,9,204.8,13 / 20,5402423,2019-08-16 14:19:16:203,0.4553,0.3896,10.7011,0.0704,0.0188,9.8064,0.0288,-0.0346,-0.0005,-18.22,4.84,-23.34,193.44,6.13,0.34
54025,51.42674,-2.84307,49,12.5,9,204.8,13 / 20,5402522,2019-08-16 14:19:16:302,0.3364,0.0718,10.1752,0.0634,0.0308,9.8064,0.0267,0.0133,0.0037,-19.45,5.9,-22.07,195.27,6.53,0.43
54026,51.42674,-2.84307,49,12.5,9,204.8,13 / 20,5402623,2019-08-16 14:19:16:403,0.7912,0.2418,10.1736,0.0168,0.02,9.8066,0.0054,0.008,0.0048,-19.28,4.87,-22.46,192.65,6.45,0.53
54027,51.42674,-2.84307,49,12.5,9,204.8,13 / 20,5402723,2019-08-16 14:19:16:503,-0.065,-0.481,8.8481,0.0171,0.0116,9.8066,-0.0245,-0.0538,0.0069,-19.28,4.87,-22.46,192.65,6.45,0.53
54028,51.42664,-2.843152,49,12.85,9,204.9,13 / 20,5402823,2019-08-16 14:19:16:603,-0.1174,0.0561,9.8837,0.0161,-0.0014,9.8066,0.0011,0.0655,0.0027,-19.86,4.5,-22.03,192.05,6.56,0.58
54029,51.42664,-2.843152,49,12.85,9,204.9,13 / 20,5402923,2019-08-16 14:19:16:703,0.0989,0.3328,10.1026,0.0305,-0.0034,9.8066,-0.0128,0.0432,-0.008,-19.52,4.93,-22.24,192.06,6.65,0.55
54030,51.42664,-2.843152,49,12.85,9,204.9,13 / 20,5403023,2019-08-16 14:19:16:803,0.317,-0.64,8.7321,0.0315,-0.0178,9.8066,-0.0128,0.0432,-0.008,-18.95,4.91,-22.73,192.62,6.81,0.41
54031,51.42664,-2.843152,49,12.85,9,204.9,13 / 20,5403123,2019-08-16 14:19:16:903,0.6265,-0.0955,10.0956,0.0362,0.0095,9.8066,0.0085,0.0037,-0.009,-18.95,4.91,-22.73,192.62,6.81,0.41
54032,51.42664,-2.843152,49,12.85,9,204.9,13 / 20,5403223,2019-08-16 14:19:17:003,0.2284,0.307,9.7917,0.0159,0.0154,9.8066,0.0405,-0.0325,-0.0059,-19.0,4.42,-22.79,190.03,7.03,0.42
54033,51.42664,-2.843152,49,12.85,9,204.9,13 / 20,5403323,2019-08-16 14:19:17:103,0.0539,0.0445,10.2098,-0.0146,0.0079,9.8066,0.0117,0.0229,0.0059,-19.33,3.99,-22.59,189.93,7.13,0.49
54034,51.42664,-2.843152,49,12.85,9,204.9,13 / 20,5403423,2019-08-16 14:19:17:203,0.0562,0.1534,10.1084,-0.0228,0.0082,9.8066,0.0022,-0.025,0.0059,-19.81,4.4,-22.1,189.53,7.01,0.56
54035,51.42664,-2.843152,49,12.85,9,204.9,13 / 20,5403523,2019-08-16 14:19:17:303,-0.063,0.0424,9.9446,0.0277,0.0207,9.8066,0.0,0.0314,-0.0112,-19.81,4.4,-22.1,189.53,7.01,0.56
54036,51.42664,-2.843152,49,12.85,9,204.9,13 / 20,5403623,2019-08-16 14:19:17:403,0.0667,0.0578,9.6492,0.0143,-0.0082,9.8066,-0.0181,-0.0314,-0.0069,-20.56,4.95,-21.28,191.46,7.19,0.65
54037,51.42664,-2.843152,49,12.85,9,204.9,13 / 20,5403723,2019-08-16 14:19:17:503,-0.3799,-0.1385,10.0157,0.018,0.0024,9.8066,0.0011,-0.0101,-0.0048,-20.76,5.65,-20.91,193.83,7.26,0.59
54038,51.42653,-2.843221,49,13.06,9,205.0,13 / 20,5403824,2019-08-16 14:19:17:604,0.388,0.1871,10.0347,0.0509,0.0155,9.8065,0.0022,0.0783,0.0112,-21.05,5.73,-20.59,193.76,7.57,0.61
54039,51.42653,-2.843221,49,13.06,9,205.0,13 / 20,5403923,2019-08-16 14:19:17:703,0.1886,0.2569,10.1434,-0.0046,0.009,9.8066,-0.0202,0.0655,0.0091,-21.13,5.87,-20.47,193.76,7.57,0.61
54040,51.42653,-2.843221,49,13.06,9,205.0,13 / 20,5404023,2019-08-16 14:19:17:803,0.3236,0.4007,10.8442,-0.0085,0.0213,9.8066,-0.0202,0.0655,0.0091,-20.99,4.88,-20.87,191.33,7.55,0.74
54041,51.42653,-2.843221,49,13.06,9,205.0,13 / 20,5404124,2019-08-16 14:19:17:904,-0.0614,0.1523,8.9146,0.0048,0.0124,9.8066,0.016,0.0389,-0.008,-20.99,4.88,-20.87,191.33,7.55,0.74
54042,51.42653,-2.843221,49,13.06,9,205.0,13 / 20,5404223,2019-08-16 14:19:18:003,0.1185,-0.1461,9.8412,-0.0193,0.0145,9.8066,0.0203,0.0293,-0.0037,-20.8,4.8,-21.08,191.26,7.46,0.85
54043,51.42653,-2.843221,49,13.06,9,205.0,13 / 20,5404323,2019-08-16 14:19:18:103,0.0779,-0.1985,10.0096,-0.0103,-0.0008,9.8066,-0.0192,-0.0517,0.0048,-19.5,4.42,-22.36,189.2,7.4,0.85
54044,51.42653,-2.843221,49,13.06,9,205.0,13 / 20,5404424,2019-08-16 14:19:18:204,-0.0929,0.1457,9.9241,0.0116,-0.0033,9.8066,0.0213,-0.0112,-0.0005,-19.5,4.42,-22.36,189.2,7.4,0.85
54045,51.42653,-2.843221,49,13.06,9,205.0,13 / 20,5404523,2019-08-16 14:19:18:303,0.2917,0.2826,9.8641,0.0256,0.0155,9.8066,0.0192,0.0378,-0.0048,-16.95,4.89,-24.26,193.07,7.49,0.86
54046,51.42653,-2.843221,49,13.06,9,205.0,13 / 20,5404623,2019-08-16 14:19:18:403,0.0785,-0.1132,9.3925,0.0705,0.0171,9.8064,-0.0021,0.008,-0.0027,-17.64,5.53,-23.63,194.93,7.91,0.86
54047,51.42653,-2.843221,49,13.06,9,205.0,13 / 20,5404723,2019-08-16 14:19:18:503,-0.2015,0.3527,8.8732,0.0315,0.0149,9.8066,0.0054,-0.0495,0.0027,-17.64,5.53,-23.63,194.93,7.91,0.86
54048,51.42642,-2.843304,49,13.19,9,205.2,13 / 20,5404823,2019-08-16 14:19:18:603,0.306,0.187,9.4325,0.045,0.0017,9.8065,0.0054,-0.0495,0.0027,-16.36,2.51,-25.02,187.67,8.11,0.9
54049,51.42642,-2.843304,49,13.19,9,205.2,13 / 20,5404923,2019-08-16 14:19:18:703,0.8037,0.1937,9.4252,0.0944,0.0015,9.8062,-0.0053,-0.0506,-0.0027,-13.78,3.24,-26.45,187.67,8.11,0.9
54050,51.42642,-2.843304,49,13.19,9,205.2,13 / 20,5405023,2019-08-16 14:19:18:803,0.4149,-0.3127,9.2485,0.1253,-0.0078,9.8058,-0.0319,-0.0389,0.0027,-13.78,3.24,-26.45,187.67,8.11,0.9
54051,51.42642,-2.843304,49,13.19,9,205.2,13 / 20,5405123,2019-08-16 14:19:18:903,0.2793,0.1596,9.6395,0.0335,0.003,9.8066,0.0011,-0.0144,-0.0005,-10.56,1.74,-28.03,186.14,8.83,0.75
54052,51.42642,-2.843304,49,13.19,9,205.2,13 / 20,5405223,2019-08-16 14:19:19:003,0.4816,0.4463,10.0319,0.0841,0.0085,9.8063,-0.0415,0.0016,0.0027,-9.3,2.68,-28.4,191.1,9.33,0.75
54053,51.42642,-2.843304,49,13.19,9,205.2,13 / 20,5405324,2019-08-16 14:19:19:104,0.1585,-0.0157,8.6548,0.0358,-0.0096,9.8066,-0.0192,0.0197,0.0048,-9.3,2.68,-28.4,191.1,9.33,0.75
54054,51.42642,-2.843304,49,13.19,9,205.2,13 / 20,5405424,2019-08-16 14:19:19:204,0.3687,0.1246,9.5511,0.0562,-0.0103,9.8065,-0.001,-0.0005,-0.0016,-8.34,2.65,-28.69,191.89,9.64,0.63
54055,51.42642,-2.843304,49,13.19,9,205.2,13 / 20,5405523,2019-08-16 14:19:19:303,0.4022,0.0272,9.7753,0.0263,-0.0051,9.8066,0.0192,-0.0058,0.0069,-13.3,4.49,-26.51,192.11,9.78,0.56
54056,51.42642,-2.843304,49,13.19,9,205.2,13 / 20,5405623,2019-08-16 14:19:19:403,0.2669,0.3141,9.9704,0.0606,0.0493,9.8063,0.0192,-0.0058,0.0069,-17.73,5.55,-23.56,192.11,9.78,0.56
54057,51.42642,-2.843304,49,13.19,9,205.2,13 / 20,5405724,2019-08-16 14:19:19:504,0.2811,-0.1266,9.6122,0.0011,0.0121,9.8066,-0.0032,0.0133,0.0091,-20.05,5.8,-21.54,193.59,10.19,0.77
54058,51.42631,-2.843386,50,13.04,9,205.0,13 / 20,5405823,2019-08-16 14:19:19:603,0.3815,0.2719,10.3681,-0.0036,0.0282,9.8066,0.0064,0.0304,0.0133,-20.05,5.8,-21.54,193.59,10.19,0.77
54059,51.42631,-2.843386,50,13.04,9,205.0,13 / 20,5405925,2019-08-16 14:19:19:705,-0.1575,0.0959,10.0594,0.0079,0.0212,9.8066,0.0075,-0.0112,0.0069,-20.93,6.31,-20.55,193.04,10.21,0.94
54060,51.42631,-2.843386,50,13.04,9,205.0,13 / 20,5406024,2019-08-16 14:19:19:804,-0.1202,-0.2095,9.1909,0.0094,0.001,9.8066,-0.0138,-0.0186,0.0027,-20.87,5.72,-20.78,192.94,10.28,1.05
54061,51.42631,-2.843386,50,13.04,9,205.0,13 / 20,5406123,2019-08-16 14:19:19:903,0.4012,-0.1137,9.814,0.022,-0.0026,9.8066,-0.0447,0.0336,0.0048,-20.15,5.9,-21.43,192.94,10.28,1.05
54062,51.42631,-2.843386,50,13.04,9,205.0,13 / 20,5406224,2019-08-16 14:19:20:004,-0.1757,-0.0879,9.7276,0.0386,-0.007,9.8066,0.0043,0.0016,0.0016,-19.8,4.66,-22.05,191.06,10.49,0.96
54063,51.42631,-2.843386,50,13.04,9,205.0,13 / 20,5406323,2019-08-16 14:19:20:103,0.3673,0.129,9.7776,0.0357,0.0044,9.8066,0.0043,0.0016,0.0016,-19.8,4.66,-22.05,191.06,10.49,0.96
54064,51.42631,-2.843386,50,13.04,9,205.0,13 / 20,5406423,2019-08-16 14:19:20:203,0.1239,0.1586,9.575,0.0176,0.0024,9.8066,-0.0053,0.0144,0.0208,-19.57,4.35,-22.32,188.7,10.7,0.95
54065,51.42631,-2.843386,50,13.04,9,205.0,13 / 20,5406523,2019-08-16 14:19:20:303,-0.4207,0.0074,9.3466,-0.0622,-0.0048,9.8065,0.0107,0.0389,0.0112,-19.3,4.28,-22.57,188.89,10.69,1.02
54066,51.42631,-2.843386,50,13.04,9,205.0,13 / 20,5406624,2019-08-16 14:19:20:404,-0.0541,0.1201,10.6865,-0.1109,-0.0054,9.806,-0.001,-0.0272,0.0059,-19.04,4.43,-22.76,188.9,10.04,1.09
54067,51.42631,-2.843386,50,13.04,9,205.0,13 / 20,5406723,2019-08-16 14:19:20:503,-0.6755,-0.4787,9.9894,-0.0174,0.0068,9.8066,0.0288,-0.009,-0.0037,-19.04,4.43,-22.76,188.9,10.04,1.09
54068,51.426205,-2.843461,50,12.78,9,204.5,15 / 20,5406823,2019-08-16 14:19:20:603,-0.2895,-0.0074,11.6223,-0.0061,-0.011,9.8066,-0.0138,-0.122,0.0016,-19.46,5.64,-22.12,188.9,10.04,1.09
54069,51.426205,-2.843461,50,12.78,9,204.5,15 / 20,5406923,2019-08-16 14:19:20:703,0.1804,-0.5364,9.163,0.0073,-0.0134,9.8066,-0.0277,-0.0261,-0.0027,-19.8,4.89,-22.0,191.07,10.0,1.03
54070,51.426205,-2.843461,50,12.78,9,204.5,15 / 20,5407023,2019-08-16 14:19:20:803,-0.7085,-0.1071,8.0346,0.023,-0.0218,9.8066,-0.0277,-0.0261,-0.0027,-19.8,4.89,-22.0,191.07,10.0,1.03
54071,51.426205,-2.843461,50,12.78,9,204.5,15 / 20,5407123,2019-08-16 14:19:20:903,-0.2578,0.76,11.6652,-0.0373,-0.0098,9.8066,0.0032,-0.123,-0.0101,-19.56,4.94,-22.2,191.19,10.11,0.88
54072,51.426205,-2.843461,50,12.78,9,204.5,15 / 20,5407223,2019-08-16 14:19:21:003,-0.5469,0.1604,10.7045,-0.041,-0.0038,9.8066,-0.0437,-0.0485,-0.024,-19.04,4.43,-22.76,189.11,9.87,0.91
54073,51.426205,-2.843461,50,12.78,9,204.5,15 / 20,5407324,2019-08-16 14:19:21:104,-0.0431,0.2012,10.7152,-0.0509,-0.0121,9.8065,0.016,0.0091,-0.0016,-19.04,4.43,-22.76,189.11,9.87,0.91
54074,51.426205,-2.843461,50,12.78,9,204.5,15 / 20,5407423,2019-08-16 14:19:21:203,-0.1602,0.2358,9.6248,-0.0467,-0.0136,9.8065,0.0096,-0.0527,-0.0112,-18.78,3.98,-23.05,189.18,9.56,0.88
54075,51.426205,-2.843461,50,12.78,9,204.5,15 / 20,5407523,2019-08-16 14:19:21:303,-0.9697,-0.3797,9.1321,-0.0292,-0.0133,9.8066,-0.0032,0.0485,0.0037,-19.33,4.38,-22.52,189.31,9.21,0.8
54076,51.426205,-2.843461,50,12.78,9,204.5,15 / 20,5407623,2019-08-16 14:19:21:403,-0.0655,0.1614,9.9174,-0.0375,-0.0152,9.8066,0.0149,0.0218,-0.0005,-19.33,4.38,-22.52,189.31,9.21,0.8
54077,51.426205,-2.843461,50,12.78,9,204.5,15 / 20,5407722,2019-08-16 14:19:21:502,0.2086,-0.1685,8.97,0.0446,0.0275,9.8065,-0.0181,-0.0112,0.0048,-18.8,4.38,-22.96,189.4,8.98,0.74
54078,51.426105,-2.843536,50,12.69,9,204.4,15 / 20,5407823,2019-08-16 14:19:21:603,0.2928,-0.1108,9.9374,0.0865,0.0301,9.8062,0.0064,0.0346,-0.009,-18.99,4.92,-22.7,191.69,9.5,0.84
54079,51.426105,-2.843536,50,12.69,9,204.4,15 / 20,5407923,2019-08-16 14:19:21:703,-0.3118,0.0354,9.7476,-0.0111,-0.015,9.8066,0.0064,0.0346,-0.009,-18.99,4.92,-22.7,191.69,9.5,0.84
54080,51.426105,-2.843536,50,12.69,9,204.4,15 / 20,5408023,2019-08-16 14:19:21:803,-0.4651,-0.5019,9.6022,-0.0439,-0.0249,9.8065,0.0064,0.0538,-0.0133,-18.97,5.04,-22.69,191.77,9.42,0.76
54081,51.426105,-2.843536,50,12.69,9,204.4,15 / 20,5408123,2019-08-16 14:19:21:903,0.2187,-0.1699,10.2289,-0.0731,-0.0471,9.8063,0.0011,-0.0282,-0.0048,-19.52,5.05,-22.22,191.77,9.42,0.76
54082,51.426105,-2.843536,50,12.69,9,204.4,15 / 20,5408223,2019-08-16 14:19:22:003,-0.7172,-0.2465,9.6507,-0.1152,-0.0606,9.8058,0.0171,0.0346,-0.0133,-19.28,4.87,-22.46,192.22,8.69,0.55
54083,51.426105,-2.843536,50,12.69,9,204.4,15 / 20,5408323,2019-08-16 14:19:22:103,-0.7789,-0.3468,9.8375,-0.0412,0.0063,9.8066,-0.0085,-0.009,-0.0048,-19.08,4.44,-22.72,192.22,8.69,0.55
54084,51.426105,-2.843536,50,12.69,9,204.4,15 / 20,5408423,2019-08-16 14:19:22:203,-0.0276,-0.2882,9.6424,0.0177,-0.0024,9.8066,-0.016,-0.0208,-0.0005,-19.1,3.62,-22.85,189.54,8.35,0.69
54085,51.426105,-2.843536,50,12.69,9,204.4,15 / 20,5408523,2019-08-16 14:19:22:303,0.0458,-0.0378,9.7653,0.0443,0.01,9.8065,0.0139,-0.0048,-0.0005,-18.78,3.98,-23.05,189.54,8.35,0.69
54086,51.426105,-2.843536,50,12.69,9,204.4,15 / 20,5408623,2019-08-16 14:19:22:403,-0.2618,-0.3387,9.7864,0.0387,0.0131,9.8066,0.0139,-0.0048,-0.0005,-18.78,3.98,-23.05,189.54,8.35,0.69
54087,51.426105,-2.843536,50,12.69,9,204.4,15 / 20,5408723,2019-08-16 14:19:22:503,-0.3292,0.058,9.9371,-0.0151,0.0048,9.8066,-0.0191,0.0453,0.0101,-17.91,4.4,-23.66,189.8,8.59,0.73
54088,51.425995,-2.843615,50,12.79,9,204.6,15 / 20,5408822,2019-08-16 14:19:22:602,-0.1298,0.2675,9.8087,-0.023,0.0007,9.8066,0.0277,-0.0112,-0.0058,-17.91,4.4,-23.66,189.8,8.59,0.73
54089,51.425995,-2.843615,50,12.79,9,204.6,15 / 20,5408923,2019-08-16 14:19:22:703,-0.3911,-0.1578,9.3727,-0.0058,-0.0054,9.8066,-0.0032,-0.0208,0.0037,-18.63,5.46,-22.87,191.95,8.45,0.76
54090,51.425995,-2.843615,50,12.79,9,204.6,15 / 20,5409023,2019-08-16 14:19:22:803,-0.4358,0.0343,9.6154,-0.0239,-0.0062,9.8066,-0.0085,0.0059,0.0037,-19.08,4.44,-22.72,189.49,8.31,0.75
54091,51.425995,-2.843615,50,12.79,9,204.6,15 / 20,5409123,2019-08-16 14:19:22:903,0.2411,-0.2538,9.7952,-0.0124,0.0006,9.8066,0.0128,-0.0101,-0.0101,-19.56,4.94,-22.2,189.49,8.31,0.75
54092,51.425995,-2.843615,50,12.79,9,204.6,15 / 20,5409223,2019-08-16 14:19:23:003,0.1728,0.3112,9.9616,-0.0096,-0.0012,9.8066,0.0117,-0.0442,-0.0069,-18.74,4.48,-23.0,189.49,8.25,0.75
54093,51.425995,-2.843615,50,12.79,9,204.6,15 / 20,5409323,2019-08-16 14:19:23:103,-0.0458,-0.1611,9.0814,0.0418,0.0083,9.8066,0.0117,-0.0442,-0.0069,-18.74,4.48,-23.0,189.49,8.25,0.75
54094,51.425995,-2.843615,50,12.79,9,204.6,15 / 20,5409423,2019-08-16 14:19:23:203,-0.3152,-0.3719,10.2341,-0.0195,-0.009,9.8066,-0.0128,0.0357,-0.0005,-18.32,5.51,-23.11,195.02,8.5,0.76
54095,51.425995,-2.843615,50,12.79,9,204.6,15 / 20,5409523,2019-08-16 14:19:23:303,0.1037,0.2985,9.8338,-0.0103,0.0082,9.8066,-0.0138,0.0336,0.0005,-18.23,3.47,-23.58,187.19,8.38,0.74
54096,51.425995,-2.843615,50,12.79,9,204.6,15 / 20,5409623,2019-08-16 14:19:23:403,-0.2649,0.1605,10.2254,-0.0268,0.0121,9.8066,0.0011,0.0208,0.0016,-18.47,4.03,-23.3,189.85,8.23,0.83
54097,51.425995,-2.843615,50,12.79,9,204.6,15 / 20,5409723,2019-08-16 14:19:23:503,0.4756,0.062,9.8223,-0.0418,-0.0007,9.8066,0.0032,0.0634,0.008,-18.54,3.93,-23.25,189.85,8.23,0.83
54098,51.425888,-2.843688,50,12.99,9,204.5,15 / 20,5409823,2019-08-16 14:19:23:603,-0.5302,-0.0915,9.9066,-0.0651,-0.0108,9.8064,-0.0287,0.0219,0.0027,-18.54,3.93,-23.25,189.85,8.23,0.83
54099,51.425888,-2.843688,50,12.99,9,204.5,15 / 20,5409923,2019-08-16 14:19:23:703,-0.1831,0.287,9.9775,-0.0105,-0.0145,9.8066,-0.0085,-0.0154,-0.0069,-18.98,5.41,-22.6,191.99,7.85,0.83
54100,51.425888,-2.843688,50,12.99,9,204.5,15 / 20,5410023,2019-08-16 14:19:23:803,0.0902,-0.3924,9.3715,-0.0062,-0.0277,9.8066,-0.0287,0.0155,-0.0027,-18.97,5.04,-22.69,191.99,7.85,0.83
54101,51.425888,-2.843688,50,12.99,9,204.5,15 / 20,5410123,2019-08-16 14:19:23:903,0.4186,0.147,9.8015,0.0196,-0.031,9.8066,-0.0287,0.0155,-0.0027,-19.9,4.63,-21.96,191.76,7.92,0.63
54102,51.425888,-2.843688,50,12.99,9,204.5,15 / 20,5410223,2019-08-16 14:19:24:003,0.3645,0.1053,10.6357,0.02,-0.012,9.8066,-0.0085,-0.0474,0.0016,-18.74,4.48,-23.0,191.76,7.92,0.63
54103,51.425888,-2.843688,50,12.99,9,204.5,15 / 20,5410324,2019-08-16 14:19:24:104,0.0895,-0.299,9.4826,0.0409,0.0006,9.8066,0.0245,-0.0559,0.0059,-18.5,4.42,-23.2,190.12,8.16,0.59
54104,51.425888,-2.843688,50,12.99,9,204.5,15 / 20,5410423,2019-08-16 14:19:24:203,-0.3666,-0.0884,9.1925,-0.0218,0.0124,9.8066,-0.0074,0.0346,0.0197,-18.5,4.42,-23.2,190.12,8.16,0.59
54105,51.425888,-2.843688,50,12.99,9,204.5,15 / 20,5410523,2019-08-16 14:19:24:303,0.7238,0.2138,10.297,-0.0039,0.0129,9.8066,-0.0128,0.041,0.0091,-18.18,4.47,-23.44,190.04,8.04,0.68
