,GPS LATITUDE (degrees), GPS LONGITUDE (degrees), GPS ALTITUDE (m), GPS SPEED (Kmh), GPS ACCURACY (m), GPS ORIENTATION (Â°),GPS SATELLITES IN RANGE, TIME SINCE START (ms), DATE (YYYY-MO-DD HH-MI-SS_SSS), ACCELEROMETER X (m/s²) , ACCELEROMETER Y (m/s²), ACCELEROMETER Z (m/s²), GRAVITY X (m/s²), GRAVITY Y (m/s²), GRAVITY Z (m/s²), GYROSCOPE Yaw (rad/s), GYROSCOPE Pitch (rad/s), GYROSCOPE Roll (rad/s), MAGNETIC FIELD X (Î¼T), MAGNETIC FIELD Y (Î¼T), MAGNETIC FIELD Z (Î¼T), ORIENTATION (Yaw) (Â°), ORIENTATION (Pitch) (Â°), ORIENTATION (Roll ) (Â°)
6908,51.732853,-2.345818,68,24.51,10,202.9,15 / 24,690823,2019-08-16 13:00:44:603,-0.128,0.0203,9.7778,-0.0101,0.0038,9.8066,-0.0415,-0.0256,0.0,-16.04,8.67,-38.39,204.13,6.2,0.05
6909,51.732853,-2.345818,68,24.51,10,202.9,15 / 24,690923,2019-08-16 13:00:44:703,-0.0146,0.1878,9.6149,0.0084,-0.0142,9.8066,0.0032,0.0032,-0.0064,-15.29,8.67,-38.39,205.39,6.21,-0.04
6910,51.732853,-2.345818,68,24.51,10,202.9,15 / 24,691023,2019-08-16 13:00:44:803,-0.5183,0.138,9.997,-0.0006,0.002,9.8066,-0.0288,0.0011,0.0192,-15.67,8.67,-38.77,205.39,6.21,-0.04
6911,51.732853,-2.345818,68,24.51,10,202.9,15 / 24,691122,2019-08-16 13:00:44:902,-0.5553,-0.0209,9.793,-0.034,0.0054,9.8066,0.0362,0.0405,-0.0128,-15.67,8.67,-38.77,205.39,6.21,-0.04
6912,51.732853,-2.345818,68,24.51,10,202.9,15 / 24,691223,2019-08-16 13:00:45:003,-0.1943,0.2018,9.3058,-0.0812,-0.0082,9.8063,0.0362,0.0405,-0.0128,-15.67,8.29,-38.33,201.87,5.76,0.12
6913,51.732853,-2.345818,68,24.51,10,202.9,15 / 24,691323,2019-08-16 13:00:45:103,-0.2587,0.1706,9.1677,0.0148,0.0084,9.8066,0.0224,-0.0064,-0.0117,-16.04,8.67,-39.21,204.18,5.68,0.17
6914,51.732853,-2.345818,68,24.51,10,202.9,15 / 24,691423,2019-08-16 13:00:45:203,0.3297,0.2827,9.4606,0.0153,0.0082,9.8066,-0.0426,-0.0874,0.0138,-15.35,8.29,-38.39,202.8,5.78,0.18
6915,51.732853,-2.345818,68,24.51,10,202.9,15 / 24,691523,2019-08-16 13:00:45:303,0.3167,0.0421,10.0372,0.0011,0.0146,9.8066,0.0458,0.0447,-0.0011,-16.04,8.67,-38.33,202.8,5.78,0.18
6916,51.732853,-2.345818,68,24.51,10,202.9,15 / 24,691623,2019-08-16 13:00:45:403,0.3615,-0.1989,9.9371,-0.0184,0.0113,9.8066,0.0149,0.0575,0.0011,-16.04,8.67,-38.33,202.8,5.78,0.18
6917,51.732853,-2.345818,68,24.51,10,202.9,15 / 24,691723,2019-08-16 13:00:45:503,0.2126,0.0703,10.6406,0.0026,-0.0019,9.8067,-0.0394,-0.0671,-0.0021,-15.67,8.67,-37.96,204.1,5.71,0.28
6918,51.732643,-2.345962,67,24.71,10,202.6,15 / 24,691823,2019-08-16 13:00:45:603,0.3478,-0.2392,9.7236,0.0234,-0.0224,9.8066,0.0107,-0.0202,-0.0096,-15.67,7.92,-39.64,201.67,5.78,0.1
6919,51.732643,-2.345962,67,24.71,10,202.6,15 / 24,691923,2019-08-16 13:00:45:703,0.4625,-0.0653,10.815,0.0129,-0.0208,9.8066,0.0341,-0.0288,0.0096,-15.67,8.67,-38.77,201.67,5.78,0.1
6920,51.732643,-2.345962,67,24.71,10,202.6,15 / 24,692023,2019-08-16 13:00:45:803,0.4901,-0.486,9.5327,0.0045,-0.0315,9.8066,0.0341,-0.0288,0.0096,-15.67,8.67,-38.77,201.67,5.78,0.1
6921,51.732643,-2.345962,67,24.71,10,202.6,15 / 24,692123,2019-08-16 13:00:45:903,0.7068,-0.0578,10.6575,-0.0135,0.0175,9.8066,0.0075,-0.049,-0.0053,-15.67,8.67,-38.33,204.66,5.73,-0.08
6922,51.732643,-2.345962,67,24.71,10,202.6,15 / 24,692223,2019-08-16 13:00:46:003,0.432,-0.1499,9.3764,0.0053,0.0041,9.8066,0.0479,-0.0043,-0.0149,-15.67,8.67,-38.77,204.36,5.62,0.09
6923,51.732643,-2.345962,67,24.71,10,202.6,15 / 24,692323,2019-08-16 13:00:46:103,0.1546,-0.1237,9.2651,-0.0051,-0.0017,9.8066,-0.0011,-0.0298,0.0064,-15.67,8.67,-38.77,204.36,5.62,0.09
6924,51.732643,-2.345962,67,24.71,10,202.6,15 / 24,692423,2019-08-16 13:00:46:203,0.4562,0.0257,9.1288,0.0084,0.0109,9.8066,-0.0075,-0.0256,0.0011,-15.29,8.29,-39.21,202.97,5.59,0.09
6925,51.732643,-2.345962,67,24.71,10,202.6,15 / 24,692523,2019-08-16 13:00:46:303,0.1326,-0.1867,10.1504,0.0276,0.0188,9.8066,0.0256,-0.0075,-0.0085,-14.98,8.67,-39.21,202.97,5.59,0.09
6926,51.732643,-2.345962,67,24.71,10,202.6,15 / 24,692623,2019-08-16 13:00:46:403,0.0344,0.281,9.475,0.0462,0.0303,9.8065,-0.0266,-0.0213,0.0043,-15.29,9.04,-39.58,205.04,5.9,0.15
6927,51.732643,-2.345962,67,24.71,10,202.6,15 / 24,692723,2019-08-16 13:00:46:503,0.0784,0.1956,9.5565,0.0034,-0.0032,9.8066,-0.0266,-0.0213,0.0043,-15.67,9.04,-39.21,205.04,5.9,0.15
6928,51.73243,-2.346109,66,24.91,10,202.6,14 / 24,692822,2019-08-16 13:00:46:602,-0.0827,-0.0467,9.7695,-0.0116,-0.0101,9.8066,-0.016,0.0256,0.0096,-15.67,9.04,-39.21,205.04,5.9,0.15
6929,51.73243,-2.346109,66,24.91,10,202.6,14 / 24,692923,2019-08-16 13:00:46:703,-0.1552,-0.0271,9.6646,-0.0115,0.0043,9.8066,0.0202,0.0192,-0.0011,-15.67,8.67,-39.58,204.05,5.82,0.13
6930,51.73243,-2.346109,66,24.91,10,202.6,14 / 24,693023,2019-08-16 13:00:46:803,-0.1144,0.3114,9.6579,-0.0002,-0.0018,9.8067,-0.0501,-0.032,0.0043,-15.67,8.67,-38.33,204.05,5.82,0.13
6931,51.73243,-2.346109,66,24.91,10,202.6,14 / 24,693124,2019-08-16 13:00:46:904,-0.4383,0.0378,9.7246,-0.0039,-0.0235,9.8066,0.016,0.0682,0.0085,-15.67,8.29,-38.77,201.96,5.74,0.01
6932,51.73243,-2.346109,66,24.91,10,202.6,14 / 24,693223,2019-08-16 13:00:47:003,-0.3696,0.2751,10.4267,-0.0217,-0.0357,9.8066,-0.0288,0.0043,0.0138,-15.67,8.29,-38.77,201.96,5.74,0.01
6933,51.73243,-2.346109,66,24.91,10,202.6,14 / 24,693324,2019-08-16 13:00:47:104,-0.0989,0.0751,10.2598,0.0096,0.0171,9.8066,0.0075,-0.0277,-0.0053,-15.67,8.67,-38.33,204.89,5.55,-0.14
6934,51.73243,-2.346109,66,24.91,10,202.6,14 / 24,693423,2019-08-16 13:00:47:203,0.1385,0.1297,9.6508,0.0093,0.033,9.8066,0.0075,-0.0277,-0.0053,-15.67,8.29,-38.33,204.89,5.55,-0.14
6935,51.73243,-2.346109,66,24.91,10,202.6,14 / 24,693523,2019-08-16 13:00:47:303,-0.0713,0.155,9.0446,0.0161,0.0523,9.8065,0.0266,-0.0202,-0.0075,-15.67,8.29,-38.33,201.9,5.76,0.1
6936,51.73243,-2.346109,66,24.91,10,202.6,14 / 24,693623,2019-08-16 13:00:47:403,-0.228,0.175,9.2699,0.0167,0.0102,9.8066,0.0053,-0.0075,0.0192,-15.67,8.29,-38.33,201.9,5.76,0.1
6937,51.73243,-2.346109,66,24.91,10,202.6,14 / 24,693723,2019-08-16 13:00:47:503,-0.033,0.1102,9.4588,0.0125,0.0157,9.8066,-0.0224,-0.0181,-0.0032,-15.67,9.04,-37.89,204.25,5.87,0.12
6938,51.73222,-2.346254,65,24.99,10,202.8,14 / 24,693823,2019-08-16 13:00:47:603,0.0715,-0.0555,10.4404,0.012,0.0195,9.8066,0.0288,0.0064,-0.0064,-15.29,8.67,-38.33,204.25,5.87,0.12
6939,51.73222,-2.346254,65,24.99,10,202.8,14 / 24,693923,2019-08-16 13:00:47:703,0.0465,-0.3484,9.9702,-0.0095,0.019,9.8066,-0.0181,0.0234,0.0117,-15.67,7.92,-38.77,201.48,5.87,0.24
6940,51.73222,-2.346254,65,24.99,10,202.8,14 / 24,694023,2019-08-16 13:00:47:803,0.4768,0.2657,10.3036,-0.0209,0.0183,9.8066,-0.0085,0.0703,0.0021,-15.67,7.92,-38.77,201.48,5.87,0.24
6941,51.73222,-2.346254,65,24.99,10,202.8,14 / 24,694124,2019-08-16 13:00:47:904,0.1494,-0.1958,8.6628,0.0068,-0.0001,9.8066,-0.0043,0.0309,-0.0011,-16.04,9.04,-38.33,203.87,5.79,0.39
6942,51.73222,-2.346254,65,24.99,10,202.8,14 / 24,694223,2019-08-16 13:00:48:003,0.4282,-0.1833,10.3281,-0.0018,-0.0118,9.8066,-0.0043,0.0309,-0.0011,-15.67,9.04,-37.89,203.87,5.83,0.37
6943,51.73222,-2.346254,65,24.99,10,202.8,14 / 24,694323,2019-08-16 13:00:48:103,0.16,-0.539,10.1078,0.0014,0.0061,9.8066,-0.0298,-0.033,0.0053,-16.04,8.67,-38.77,203.87,5.79,0.31
6944,51.73222,-2.346254,65,24.99,10,202.8,14 / 24,694423,2019-08-16 13:00:48:203,-0.0349,0.0065,10.2125,0.0052,0.0157,9.8066,0.0107,0.0202,0.0085,-15.67,8.67,-38.33,203.87,5.79,0.31
6945,51.73222,-2.346254,65,24.99,10,202.8,14 / 24,694524,2019-08-16 13:00:48:304,0.0692,0.5528,9.9849,0.0017,0.0037,9.8067,0.0032,0.0106,-0.0011,-15.67,9.04,-37.89,203.95,5.81,0.33
6946,51.73222,-2.346254,65,24.99,10,202.8,14 / 24,694623,2019-08-16 13:00:48:403,-0.2503,0.0043,10.0753,-0.0037,-0.0138,9.8066,-0.0565,0.049,0.0085,-15.67,9.04,-37.89,203.95,5.81,0.33
6947,51.73222,-2.346254,65,24.99,10,202.8,14 / 24,694723,2019-08-16 13:00:48:503,0.0059,0.0315,9.6771,0.0182,0.0022,9.8066,-0.0341,-0.0032,0.0053,-16.04,8.29,-37.89,201.63,5.76,0.26
6948,51.732014,-2.346378,65,24.89,11,202.3,14 / 24,694823,2019-08-16 13:00:48:603,-0.0039,-0.2359,9.4259,0.0388,0.0037,9.8066,0.0096,0.0522,0.0085,-16.04,8.67,-38.33,201.63,5.76,0.26
6949,51.732014,-2.346378,65,24.89,11,202.3,14 / 24,694923,2019-08-16 13:00:48:703,0.2092,0.2654,9.8756,0.0587,0.0138,9.8065,0.0053,0.049,-0.0011,-15.29,9.04,-38.77,204.91,6.1,0.21
6950,51.732014,-2.346378,65,24.89,11,202.3,14 / 24,695023,2019-08-16 13:00:48:803,-0.5152,-0.0433,9.5167,-0.0039,0.001,9.8067,-0.0107,0.0277,0.0053,-15.67,8.67,-38.77,204.91,6.1,0.21
6951,51.732014,-2.346378,65,24.89,11,202.3,14 / 24,695124,2019-08-16 13:00:48:904,-0.6187,0.1633,10.1349,-0.0222,0.0003,9.8066,-0.0107,0.0277,0.0053,-16.04,9.04,-38.71,203.81,5.99,0.27
6952,51.732014,-2.346378,65,24.89,11,202.3,14 / 24,695223,2019-08-16 13:00:49:003,-0.4903,0.1465,9.9762,-0.0339,0.0085,9.8066,0.0277,0.0394,-0.0053,-16.04,9.04,-38.71,203.81,5.99,0.27
6953,51.732014,-2.346378,65,24.89,11,202.3,14 / 24,695323,2019-08-16 13:00:49:103,-0.4092,0.0281,9.6542,-0.0181,-0.0089,9.8066,-0.0373,-0.0064,0.0224,-16.04,9.04,-39.21,203.71,5.83,0.39
6954,51.732014,-2.346378,65,24.89,11,202.3,14 / 24,695423,2019-08-16 13:00:49:203,-0.275,0.6865,9.4651,0.0038,0.0041,9.8066,-0.0415,0.066,0.0075,-15.67,8.67,-38.77,203.8,5.71,0.39
6955,51.732014,-2.346378,65,24.89,11,202.3,14 / 24,695524,2019-08-16 13:00:49:304,-0.4521,0.1038,9.2868,0.0177,0.0063,9.8066,0.0405,-0.0021,0.0,-15.29,7.92,-39.21,202.29,5.82,0.38
6956,51.732014,-2.346378,65,24.89,11,202.3,14 / 24,695623,2019-08-16 13:00:49:403,0.1688,0.2154,8.926,0.0203,0.0115,9.8066,-0.0128,0.0085,0.0075,-15.29,7.92,-39.21,202.29,5.82,0.38
6957,51.732014,-2.346378,65,24.89,11,202.3,14 / 24,695723,2019-08-16 13:00:49:503,0.0567,0.1111,9.9348,0.0263,0.0182,9.8066,0.0128,0.0043,0.0,-15.29,7.98,-39.58,202.29,5.82,0.38
6958,51.7318,-2.346483,66,24.79,12,201.5,14 / 24,695823,2019-08-16 13:00:49:603,0.171,0.0632,10.2951,0.0206,0.0211,9.8066,0.0,0.0266,0.0117,-16.04,8.29,-40.02,200.94,5.98,0.45
6959,51.7318,-2.346483,66,24.79,12,201.5,14 / 24,695923,2019-08-16 13:00:49:703,0.0552,-0.2804,10.2823,-0.0176,-0.0122,9.8066,0.0,0.0266,0.0117,-15.67,8.29,-39.58,200.94,5.98,0.45
6960,51.7318,-2.346483,66,24.79,12,201.5,14 / 24,696023,2019-08-16 13:00:49:803,-0.0282,-0.2173,10.0127,-0.0324,-0.008,9.8066,-0.0213,-0.033,0.0085,-15.67,8.29,-39.58,200.94,5.98,0.45
6961,51.7318,-2.346483,66,24.79,12,201.5,14 / 24,696123,2019-08-16 13:00:49:903,0.07,0.5641,11.1086,0.0004,0.035,9.8066,0.017,0.0202,0.0011,-16.04,9.04,-38.27,203.73,5.78,0.47
6962,51.7318,-2.346483,66,24.79,12,201.5,14 / 24,696223,2019-08-16 13:00:50:003,-0.0284,-0.4888,9.8674,0.0032,0.0412,9.8066,0.0703,-0.0469,-0.0096,-16.04,9.04,-38.33,203.73,5.78,0.47
6963,51.7318,-2.346483,66,24.79,12,201.5,14 / 24,696323,2019-08-16 13:00:50:103,0.7257,-0.4665,10.2476,-0.0016,-0.0012,9.8067,-0.0383,-0.049,0.0011,-16.04,9.04,-37.89,203.31,5.9,0.69
6964,51.7318,-2.346483,66,24.79,12,201.5,14 / 24,696423,2019-08-16 13:00:50:203,0.3974,-0.2999,10.5201,-0.009,-0.0027,9.8066,-0.0234,-0.0117,0.0107,-16.04,9.04,-37.89,203.31,5.9,0.69
6965,51.7318,-2.346483,66,24.79,12,201.5,14 / 24,696523,2019-08-16 13:00:50:303,0.0832,-0.3427,10.0768,-0.0103,-0.0077,9.8066,0.0139,0.0245,0.0011,-16.42,9.42,-38.33,203.33,5.84,0.69
6966,51.7318,-2.346483,66,24.79,12,201.5,14 / 24,696623,2019-08-16 13:00:50:403,0.2284,-0.34,9.9101,-0.0174,-0.0048,9.8066,-0.0011,-0.0671,0.0075,-15.67,8.67,-38.33,203.38,5.74,0.71
6967,51.7318,-2.346483,66,24.79,12,201.5,14 / 24,696722,2019-08-16 13:00:50:502,-0.113,-0.429,9.7819,-0.0051,-0.003,9.8067,0.0213,-0.0021,-0.0021,-15.67,8.67,-38.33,203.38,5.74,0.71
6968,51.731617,-2.346603,66,24.41,12,201.9,14 / 24,696823,2019-08-16 13:00:50:603,-0.3111,-0.2614,9.8936,0.008,0.0091,9.8066,0.0213,-0.0021,-0.0021,-16.04,8.67,-38.77,203.15,5.8,0.74
6969,51.731617,-2.346603,66,24.41,12,201.9,14 / 24,696923,2019-08-16 13:00:50:703,-0.3279,-0.1295,10.2926,-0.0004,0.0009,9.8067,0.0266,0.0085,0.0,-15.67,9.04,-39.14,203.14,5.8,0.75
6970,51.731617,-2.346603,66,24.41,12,201.9,14 / 24,697023,2019-08-16 13:00:50:803,0.1666,0.1267,9.8157,0.0006,-0.0117,9.8066,-0.0362,-0.0053,0.016,-15.67,9.04,-39.14,203.14,5.8,0.75
6971,51.731617,-2.346603,66,24.41,12,201.9,14 / 24,697123,2019-08-16 13:00:50:903,-0.1148,0.2434,9.4734,0.0071,-0.0158,9.8066,-0.0096,0.0394,0.0011,-16.04,9.04,-37.89,203.49,5.83,0.6
6972,51.731617,-2.346603,66,24.41,12,201.9,14 / 24,697223,2019-08-16 13:00:51:003,-0.1705,0.0316,9.0568,0.0124,-0.0215,9.8066,0.0021,0.0032,0.0,-15.29,8.67,-37.89,203.49,5.83,0.6
6973,51.731617,-2.346603,66,24.41,12,201.9,14 / 24,697323,2019-08-16 13:00:51:103,-0.2616,-0.027,9.7964,0.0067,-0.011,9.8066,0.0181,-0.0064,0.0011,-16.04,8.67,-38.33,203.72,5.84,0.46
6974,51.731617,-2.346603,66,24.41,12,201.9,14 / 24,697423,2019-08-16 13:00:51:203,-0.0106,0.175,9.2044,0.0092,0.0079,9.8066,0.0266,-0.0021,-0.0085,-16.04,8.67,-39.14,203.51,5.91,0.48
6975,51.731617,-2.346603,66,24.41,12,201.9,14 / 24,697523,2019-08-16 13:00:51:303,-0.3113,0.0478,9.3043,-0.0032,-0.0105,9.8066,-0.017,-0.0021,0.0043,-16.04,8.67,-39.14,203.51,5.91,0.48
6976,51.731617,-2.346603,66,24.41,12,201.9,14 / 24,697622,2019-08-16 13:00:51:402,-0.2561,0.156,10.0564,-0.0078,-0.0199,9.8066,-0.017,-0.0021,0.0043,-16.04,8.67,-37.46,203.88,5.87,0.43
6977,51.731617,-2.346603,66,24.41,12,201.9,14 / 24,697723,2019-08-16 13:00:51:503,-0.3709,-0.1538,9.8247,0.0058,-0.0097,9.8066,-0.0202,-0.0341,-0.0085,-15.67,8.67,-37.89,203.95,5.78,0.34
6978,51.731384,-2.346762,67,25.19,11,202.3,14 / 24,697822,2019-08-16 13:00:51:602,-0.395,0.2461,10.4619,0.0069,-0.0136,9.8066,0.0458,0.0352,-0.017,-15.29,8.67,-38.33,205.22,5.79,0.25
6979,51.731384,-2.346762,67,25.19,11,202.3,14 / 24,697923,2019-08-16 13:00:51:703,-0.5187,0.2801,9.7823,-0.0097,0.0021,9.8066,0.0362,0.0085,0.0021,-15.29,8.67,-38.33,205.22,5.79,0.25
6980,51.731384,-2.346762,67,25.19,11,202.3,14 / 24,698023,2019-08-16 13:00:51:803,-0.1714,0.3007,9.9227,-0.0099,-0.0177,9.8066,-0.066,-0.0277,-0.0064,-16.04,8.29,-37.46,205.22,5.79,0.25
6981,51.731384,-2.346762,67,25.19,11,202.3,14 / 24,698123,2019-08-16 13:00:51:903,-0.2049,-0.481,10.2646,0.0249,-0.0192,9.8066,0.0384,0.0011,-0.016,-16.04,8.67,-38.27,204.27,5.69,0.18
6982,51.731384,-2.346762,67,25.19,11,202.3,14 / 24,698222,2019-08-16 13:00:52:002,0.571,-0.1978,9.4834,0.0413,-0.0286,9.8065,-0.0011,-0.0064,0.0011,-16.04,8.67,-38.71,204.47,5.84,-0.07
6983,51.731384,-2.346762,67,25.19,11,202.3,14 / 24,698326,2019-08-16 13:00:52:106,0.226,0.0462,10.1651,0.0001,0.0106,9.8066,0.0149,-0.0213,0.0011,-16.42,9.04,-37.46,204.58,5.83,0.0
6984,51.731384,-2.346762,67,25.19,11,202.3,14 / 24,698423,2019-08-16 13:00:52:203,-0.1039,-0.1286,10.6488,0.022,0.0176,9.8066,0.0107,-0.0043,-0.0213,-16.42,9.04,-37.46,204.58,5.83,0.0
6985,51.731384,-2.346762,67,25.19,11,202.3,14 / 24,698523,2019-08-16 13:00:52:303,0.0912,-0.298,9.7444,0.0092,0.0035,9.8066,-0.0373,0.065,-0.0011,-15.29,8.67,-38.27,205.42,5.99,0.04
6986,51.731384,-2.346762,67,25.19,11,202.3,14 / 24,698623,2019-08-16 13:00:52:403,0.2284,0.1907,10.8889,-0.0258,-0.0285,9.8066,-0.0373,0.065,-0.0011,-15.29,8.67,-37.46,205.51,6.05,0.03
6987,51.731384,-2.346762,67,25.19,11,202.3,14 / 24,698723,2019-08-16 13:00:52:503,0.0954,-0.5881,9.5776,-0.0371,-0.0418,9.8065,-0.0117,-0.0096,0.0043,-16.42,9.04,-38.27,204.68,5.75,-0.09
6988,51.731194,-2.346879,68,24.81,12,202.2,14 / 24,698823,2019-08-16 13:00:52:603,0.0937,-0.3069,9.4595,-0.0084,0.003,9.8066,0.0139,0.0224,-0.0096,-16.42,9.04,-38.27,204.68,5.75,-0.09
6989,51.731194,-2.346879,68,24.81,12,202.2,14 / 24,698923,2019-08-16 13:00:52:703,-0.3007,-0.1093,9.8776,0.0005,0.0102,9.8066,0.033,-0.016,-0.0011,-16.42,8.29,-38.71,202.1,5.71,-0.06
6990,51.731194,-2.346879,68,24.81,12,202.2,14 / 24,699024,2019-08-16 13:00:52:804,-0.0873,0.2225,9.2609,-0.0084,0.0139,9.8066,-0.0341,-0.0181,0.017,-16.42,9.04,-38.33,202.1,5.71,-0.06
6991,51.731194,-2.346879,68,24.81,12,202.2,14 / 24,699123,2019-08-16 13:00:52:903,-0.3089,0.1365,9.0187,-0.0046,0.0089,9.8066,0.0021,0.0117,-0.0138,-16.04,9.04,-37.89,204.55,5.71,0.0
6992,51.731194,-2.346879,68,24.81,12,202.2,14 / 24,699223,2019-08-16 13:00:53:003,-0.4976,0.1187,10.0524,0.0382,0.0059,9.8066,-0.0277,-0.0021,-0.0032,-15.67,9.42,-38.27,204.5,5.93,-0.06
6993,51.731194,-2.346879,68,24.81,12,202.2,14 / 24,699324,2019-08-16 13:00:53:104,0.0829,0.2824,9.9035,0.0331,-0.0128,9.8066,-0.0117,0.0064,-0.0192,-15.67,9.42,-38.27,204.5,5.93,-0.06
6994,51.731194,-2.346879,68,24.81,12,202.2,14 / 24,699423,2019-08-16 13:00:53:203,0.6939,0.0233,9.8342,-0.0243,-0.008,9.8066,-0.0117,0.0064,-0.0192,-15.67,9.04,-37.89,204.64,6.07,-0.21
6995,51.731194,-2.346879,68,24.81,12,202.2,14 / 24,699523,2019-08-16 13:00:53:303,0.0579,-0.2046,10.2531,-0.0308,-0.007,9.8066,0.0149,0.0192,-0.0043,-16.04,9.42,-37.89,204.64,6.07,-0.21
6996,51.731194,-2.346879,68,24.81,12,202.2,14 / 24,699623,2019-08-16 13:00:53:403,0.1773,-0.2841,10.0085,-0.0345,0.001,9.8066,-0.0501,0.0202,0.0128,-15.67,8.67,-37.89,204.62,5.89,-0.12
6997,51.731194,-2.346879,68,24.81,12,202.2,14 / 24,699723,2019-08-16 13:00:53:503,0.0615,0.2509,10.8665,-0.0171,-0.0153,9.8066,-0.0213,0.0639,0.0213,-15.67,8.67,-37.89,204.62,5.89,-0.12
6998,51.731014,-2.347001,68,24.45,11,202.6,14 / 24,699823,2019-08-16 13:00:53:603,0.6393,-0.0189,9.4734,-0.0139,-0.0141,9.8066,0.0256,0.0415,-0.0043,-16.42,9.04,-39.21,204.66,5.78,-0.16
6999,51.731014,-2.347001,68,24.45,11,202.6,14 / 24,699923,2019-08-16 13:00:53:703,0.1542,0.1531,10.3833,0.0239,0.03,9.8066,-0.0213,-0.0788,0.0107,-16.04,9.04,-39.14,204.66,5.78,-0.16
7000,51.731014,-2.347001,68,24.45,11,202.6,14 / 24,700025,2019-08-16 13:00:53:805,0.2463,0.2923,8.9856,0.0613,0.0523,9.8063,-0.033,-0.0032,-0.0085,-16.04,9.04,-39.14,204.66,5.78,-0.16
7001,51.731014,-2.347001,68,24.45,11,202.6,14 / 24,700123,2019-08-16 13:00:53:903,0.3127,-0.249,10.7909,0.0205,-0.0028,9.8066,0.0256,0.0298,0.0032,-15.67,8.67,-38.71,204.13,6.23,-0.03
7002,51.731014,-2.347001,68,24.45,11,202.6,14 / 24,700223,2019-08-16 13:00:54:003,0.3894,-0.47,11.2205,0.0103,-0.0194,9.8066,-0.0426,-0.0202,0.0138,-15.67,8.67,-38.71,204.13,6.23,-0.03
7003,51.731014,-2.347001,68,24.45,11,202.6,14 / 24,700323,2019-08-16 13:00:54:103,0.1961,-0.525,10.4044,-0.0331,-0.0101,9.8066,-0.0426,-0.0202,0.0138,-15.67,8.29,-38.27,202.03,6.24,-0.16
7004,51.731014,-2.347001,68,24.45,11,202.6,14 / 24,700424,2019-08-16 13:00:54:204,-0.4895,-0.3688,9.609,-0.0667,-0.014,9.8064,0.0245,0.066,0.0011,-15.67,8.29,-38.27,202.03,6.24,-0.16
7005,51.731014,-2.347001,68,24.45,11,202.6,14 / 24,700523,2019-08-16 13:00:54:303,-0.3023,0.3805,9.3783,-0.0166,0.0055,9.8066,0.0565,-0.0352,-0.016,-15.67,8.35,-38.71,202.06,5.85,-0.09
7006,51.731014,-2.347001,68,24.45,11,202.6,14 / 24,700623,2019-08-16 13:00:54:403,-0.5093,0.0879,9.117,0.0144,0.0183,9.8066,-0.0383,-0.0543,0.0213,-16.04,9.04,-38.27,204.55,5.77,-0.02
7007,51.731014,-2.347001,68,24.45,11,202.6,14 / 24,700723,2019-08-16 13:00:54:503,-0.1617,0.6568,9.183,0.0304,0.0298,9.8066,0.0213,-0.0043,-0.0053,-16.42,9.04,-38.27,204.25,6.01,0.06
7008,51.7308,-2.347113,68,24.71,11,201.5,14 / 24,700825,2019-08-16 13:00:54:605,-0.574,0.1808,8.8538,0.0279,0.0165,9.8066,-0.0298,0.0181,0.0032,-15.67,9.04,-37.83,204.25,6.01,0.06
7009,51.7308,-2.347113,68,24.71,11,201.5,14 / 24,700923,2019-08-16 13:00:54:703,-0.3159,0.2231,10.2651,0.0525,0.0183,9.8065,-0.016,-0.0075,0.0,-15.67,9.04,-37.83,204.25,6.01,0.06
7010,51.7308,-2.347113,68,24.71,11,201.5,14 / 24,701023,2019-08-16 13:00:54:803,-0.3235,-0.186,10.2831,0.0689,0.0218,9.8064,0.0298,0.0618,0.0053,-15.67,8.67,-38.27,204.05,6.43,0.01
7011,51.7308,-2.347113,68,24.71,11,201.5,14 / 24,701123,2019-08-16 13:00:54:903,-0.1816,0.0234,9.8268,-0.013,0.0002,9.8066,-0.0075,-0.0107,0.0149,-15.67,9.04,-37.39,204.16,6.36,0.04
7012,51.7308,-2.347113,68,24.71,11,201.5,14 / 24,701223,2019-08-16 13:00:55:003,-0.3484,-0.1354,10.6135,-0.0583,-0.0002,9.8065,-0.0075,-0.0107,0.0149,-15.67,8.67,-37.46,204.16,6.36,0.04
7013,51.7308,-2.347113,68,24.71,11,201.5,14 / 24,701324,2019-08-16 13:00:55:104,0.0483,0.1309,10.017,-0.0651,-0.0007,9.8064,-0.0032,0.0245,0.0032,-15.67,8.67,-37.46,204.16,6.36,0.04
7014,51.7308,-2.347113,68,24.71,11,201.5,14 / 24,701423,2019-08-16 13:00:55:203,0.2814,-0.3562,9.1914,0.0095,-0.0027,9.8066,-0.0011,-0.0352,0.0064,-15.67,8.29,-38.27,201.58,6.01,0.2
7015,51.7308,-2.347113,68,24.71,11,201.5,14 / 24,701523,2019-08-16 13:00:55:303,0.276,0.2199,10.8375,0.0194,0.0109,9.8066,0.0053,-0.0788,0.0149,-16.42,8.29,-37.89,201.58,6.01,0.2
7016,51.7308,-2.347113,68,24.71,11,201.5,14 / 24,701623,2019-08-16 13:00:55:403,-0.142,-0.3585,10.3887,0.0207,0.0241,9.8066,0.0437,-0.0043,0.0011,-16.42,8.29,-37.89,201.58,6.01,0.2
7017,51.7308,-2.347113,68,24.71,11,201.5,14 / 24,701723,2019-08-16 13:00:55:503,0.3582,-0.1342,9.7802,-0.0053,0.0036,9.8066,-0.0202,-0.0192,0.0043,-15.29,8.29,-37.46,202.47,6.17,0.28
7018,51.73059,-2.347288,68,24.95,12,203.2,14 / 24,701823,2019-08-16 13:00:55:603,-0.0434,-0.2781,10.4939,-0.0151,0.0041,9.8066,0.016,0.0106,0.0096,-16.04,8.67,-37.89,202.47,6.17,0.28
7019,51.73059,-2.347288,68,24.95,12,203.2,14 / 24,701923,2019-08-16 13:00:55:703,-0.091,-0.1496,10.2604,-0.0382,-0.0018,9.8066,0.016,0.0106,0.0096,-16.04,8.67,-38.27,203.8,5.96,0.36
7020,51.73059,-2.347288,68,24.95,12,203.2,14 / 24,702023,2019-08-16 13:00:55:803,-0.1844,0.3247,10.3237,-0.0092,0.0367,9.8066,0.0522,-0.0181,-0.0021,-16.42,8.29,-37.02,201.08,6.0,0.58
7021,51.73059,-2.347288,68,24.95,12,203.2,14 / 24,702123,2019-08-16 13:00:55:903,-0.2634,0.1947,10.0721,-0.0092,0.02,9.8066,-0.0288,-0.0298,0.0053,-16.42,8.29,-37.02,201.08,6.0,0.58
7022,51.73059,-2.347288,68,24.95,12,203.2,14 / 24,702223,2019-08-16 13:00:56:003,0.0453,0.0015,9.5462,0.0184,-0.0118,9.8066,0.0021,0.0426,-0.0149,-16.04,8.67,-38.71,203.13,6.0,0.67
7023,51.73059,-2.347288,68,24.95,12,203.2,14 / 24,702324,2019-08-16 13:00:56:104,0.0385,-0.6099,9.1557,0.0328,-0.0245,9.8066,0.0021,0.0426,-0.0149,-16.04,8.35,-39.08,203.13,6.0,0.67
7024,51.73059,-2.347288,68,24.95,12,203.2,14 / 24,702423,2019-08-16 13:00:56:203,0.0588,0.1387,11.0471,0.0164,-0.0053,9.8066,-0.017,0.0277,-0.0043,-16.04,8.29,-39.58,200.83,6.12,0.46
7025,51.73059,-2.347288,68,24.95,12,203.2,14 / 24,702523,2019-08-16 13:00:56:303,-0.259,-0.0345,9.5043,0.0033,-0.0127,9.8066,0.0107,-0.0107,-0.0053,-16.04,8.29,-39.58,200.97,6.11,0.38
7026,51.73059,-2.347288,68,24.95,12,203.2,14 / 24,702623,2019-08-16 13:00:56:403,-0.0969,-0.6454,8.0661,-0.0043,-0.0441,9.8065,-0.0298,-0.0842,0.0064,-16.04,8.29,-39.58,200.97,6.11,0.38
7027,51.73059,-2.347288,68,24.95,12,203.2,14 / 24,702722,2019-08-16 13:00:56:502,0.1597,0.7355,9.9872,-0.0029,-0.0201,9.8066,0.0277,-0.0202,0.0075,-16.04,7.98,-39.52,201.19,6.05,0.28
7028,51.73059,-2.347288,68,24.95,12,203.2,14 / 24,702823,2019-08-16 13:00:56:603,0.0243,0.6015,9.6616,0.002,0.031,9.8066,0.0032,-0.0447,0.016,-16.04,8.67,-39.14,203.42,6.13,0.45
7029,51.730404,-2.347446,67,24.81,12,204.1,14 / 24,702923,2019-08-16 13:00:56:703,0.7081,-0.163,10.3741,0.0153,0.002,9.8066,0.0032,-0.0447,0.016,-16.04,8.67,-39.14,203.42,6.13,0.45
7030,51.730404,-2.347446,67,24.81,12,204.1,14 / 24,703023,2019-08-16 13:00:56:803,0.5248,-0.5822,9.5795,0.0082,0.0064,9.8066,0.0597,0.0501,-0.0117,-16.04,8.29,-39.58,200.84,6.21,0.42
7031,51.730404,-2.347446,67,24.81,12,204.1,14 / 24,703122,2019-08-16 13:00:56:902,0.5091,-0.4862,9.3434,0.0117,0.0126,9.8066,-0.0447,-0.0565,0.0117,-16.04,8.67,-39.14,203.27,6.3,0.47
7032,51.730404,-2.347446,67,24.81,12,204.1,14 / 24,703224,2019-08-16 13:00:57:004,0.198,-0.028,9.8933,-0.0154,0.0025,9.8066,0.0298,0.016,-0.0096,-15.67,8.67,-38.27,203.27,6.3,0.47
7033,51.730404,-2.347446,67,24.81,12,204.1,14 / 24,703323,2019-08-16 13:00:57:103,-0.3355,-0.0774,9.6423,-0.0434,0.0053,9.8066,0.0234,0.0043,0.0085,-15.67,8.67,-38.27,203.27,6.3,0.47
7034,51.730404,-2.347446,67,24.81,12,204.1,14 / 24,703423,2019-08-16 13:00:57:203,-0.1735,0.2498,9.7498,-0.0462,0.0048,9.8065,-0.0075,-0.0053,-0.0011,-16.04,8.67,-37.89,203.34,6.07,0.6
7035,51.730404,-2.347446,67,24.81,12,204.1,14 / 24,703523,2019-08-16 13:00:57:303,-0.2161,-0.3706,8.4655,0.0216,-0.0079,9.8066,-0.0213,0.0373,0.0043,-16.04,8.67,-37.89,203.34,6.07,0.6
7036,51.730404,-2.347446,67,24.81,12,204.1,14 / 24,703623,2019-08-16 13:00:57:403,-0.5711,0.1251,9.848,0.0299,-0.0086,9.8066,-0.0213,0.0373,0.0043,-16.04,8.67,-37.89,203.34,6.07,0.6
7037,51.730404,-2.347446,67,24.81,12,204.1,14 / 24,703723,2019-08-16 13:00:57:503,-0.1821,0.3938,10.1993,0.0529,-0.0277,9.8065,-0.0149,-0.0181,-0.0043,-16.04,8.67,-37.89,203.44,6.21,0.48
7038,51.73017,-2.347578,67,25.38,13,202.2,14 / 24,703823,2019-08-16 13:00:57:603,-0.1776,0.1469,9.399,0.0278,-0.0111,9.8066,-0.0277,-0.0554,0.0213,-15.67,9.04,-37.89,203.73,6.43,0.21
7039,51.73017,-2.347578,67,25.38,13,202.2,14 / 24,703923,2019-08-16 13:00:57:703,-0.2754,-0.0059,9.2594,0.0222,-0.0166,9.8066,0.0394,0.0522,-0.0053,-15.67,9.04,-37.89,203.73,6.43,0.21
7040,51.73017,-2.347578,67,25.38,13,202.2,14 / 24,704022,2019-08-16 13:00:57:802,-0.3211,0.2814,10.7739,-0.0164,-0.0221,9.8066,-0.0149,-0.0224,-0.0138,-15.67,8.67,-37.89,203.9,6.51,0.07
7041,51.73017,-2.347578,67,25.38,13,202.2,14 / 24,704123,2019-08-16 13:00:57:903,0.1043,0.037,10.0978,-0.0031,-0.0404,9.8066,-0.0298,0.0511,-0.0064,-15.67,9.04,-37.46,203.9,6.51,0.07
7042,51.73017,-2.347578,67,25.38,13,202.2,14 / 24,704223,2019-08-16 13:00:58:003,0.0476,-0.5783,9.4343,0.0137,-0.0047,9.8066,-0.0213,0.0266,0.0107,-16.04,9.42,-37.89,204.31,6.39,-0.14
7043,51.73017,-2.347578,67,25.38,13,202.2,14 / 24,704323,2019-08-16 13:00:58:103,0.0833,-0.4948,10.473,0.0069,-0.0092,9.8066,-0.0138,-0.0117,-0.0021,-15.67,9.42,-37.02,204.31,6.39,-0.14
7044,51.73017,-2.347578,67,25.38,13,202.2,14 / 24,704424,2019-08-16 13:00:58:204,0.3115,-0.0735,10.1151,0.0002,0.0062,9.8066,-0.0138,-0.0117,-0.0021,-16.42,8.67,-38.33,204.25,6.41,-0.11
7045,51.73017,-2.347578,67,25.38,13,202.2,14 / 24,704523,2019-08-16 13:00:58:303,0.087,-0.1347,9.5234,0.0239,0.0066,9.8066,0.0224,-0.0149,-0.0224,-16.42,8.67,-38.33,204.25,6.41,-0.11
7046,51.73017,-2.347578,67,25.38,13,202.2,14 / 24,704623,2019-08-16 13:00:58:403,0.1019,-0.53,9.2022,0.0226,0.006,9.8066,-0.0117,-0.0234,0.0011,-15.29,8.67,-37.96,205.29,6.55,-0.13
7047,51.73017,-2.347578,67,25.38,13,202.2,14 / 24,704724,2019-08-16 13:00:58:504,0.0593,0.0632,10.2414,0.0154,-0.0218,9.8066,0.0277,-0.0011,-0.0373,-15.67,8.67,-38.33,204.2,6.55,-0.14
7048,51.729958,-2.347767,68,25.85,13,203.7,14 / 24,704822,2019-08-16 13:00:58:602,-0.2565,0.0609,9.4395,0.0463,-0.0334,9.8065,-0.016,-0.0352,-0.0192,-15.67,8.67,-38.33,204.2,6.55,-0.14
7049,51.729958,-2.347767,68,25.85,13,203.7,14 / 24,704923,2019-08-16 13:00:58:703,-0.1888,0.0749,9.1734,-0.0044,-0.0364,9.8066,-0.0192,0.0043,0.0128,-15.67,8.67,-38.39,204.55,6.71,-0.43
7050,51.729958,-2.347767,68,25.85,13,203.7,14 / 24,705023,2019-08-16 13:00:58:803,-0.6405,-0.1491,9.6639,-0.0233,-0.05,9.8065,0.0607,0.0639,0.0064,-15.67,9.79,-37.96,207.33,6.47,-0.64
7051,51.729958,-2.347767,68,25.85,13,203.7,14 / 24,705123,2019-08-16 13:00:58:903,-0.1454,0.6532,10.5222,-0.0095,-0.005,9.8066,-0.032,0.0234,0.0043,-15.67,9.79,-37.96,207.33,6.47,-0.64
7052,51.729958,-2.347767,68,25.85,13,203.7,14 / 24,705224,2019-08-16 13:00:59:004,0.0466,0.5525,9.1715,0.0114,0.0146,9.8066,-0.032,0.0234,0.0043,-15.35,9.42,-38.39,206.22,6.4,-0.64
7053,51.729958,-2.347767,68,25.85,13,203.7,14 / 24,705323,2019-08-16 13:00:59:103,0.0546,0.0175,9.8603,-0.0046,0.0198,9.8066,-0.0458,-0.0064,0.0053,-15.35,9.04,-38.02,206.22,6.4,-0.64
7054,51.729958,-2.347767,68,25.85,13,203.7,14 / 24,705424,2019-08-16 13:00:59:204,0.4132,0.0739,10.3924,-0.0064,0.0109,9.8066,0.0149,0.065,-0.0202,-15.67,8.67,-38.02,204.98,6.4,-0.57
7055,51.729958,-2.347767,68,25.85,13,203.7,14 / 24,705523,2019-08-16 13:00:59:303,0.4332,0.0053,9.8806,0.0184,0.0042,9.8066,-0.0107,-0.0224,-0.0085,-15.35,8.67,-38.02,204.98,6.4,-0.57
7056,51.729958,-2.347767,68,25.85,13,203.7,14 / 24,705623,2019-08-16 13:00:59:403,0.2581,-0.2691,9.9059,0.0357,-0.0126,9.8066,-0.016,-0.0362,-0.0096,-15.35,8.67,-38.02,204.98,6.4,-0.57
7057,51.729958,-2.347767,68,25.85,13,203.7,14 / 24,705723,2019-08-16 13:00:59:503,0.407,-0.4225,9.1929,-0.0041,-0.0007,9.8066,0.0447,0.0149,-0.0011,-15.67,8.67,-38.02,205.11,6.56,-0.72
7058,51.729713,-2.347935,69,26.84,13,203.1,14 / 24,705823,2019-08-16 13:00:59:603,0.0281,0.0784,9.9132,-0.0128,0.0042,9.8066,-0.0352,-0.0511,0.0011,-15.67,8.67,-38.02,205.11,6.56,-0.72
7059,51.729713,-2.347935,69,26.84,13,203.1,14 / 24,705923,2019-08-16 13:00:59:703,-0.243,-0.2882,9.8512,0.004,0.0007,9.8066,0.0298,0.0149,0.0128,-16.42,8.67,-38.83,204.97,6.5,-0.67
7060,51.729713,-2.347935,69,26.84,13,203.1,14 / 24,706023,2019-08-16 13:00:59:803,-0.6301,0.3898,9.3975,-0.0096,-0.0027,9.8066,0.0352,0.0309,-0.0032,-16.04,8.29,-38.02,204.97,6.5,-0.67
7061,51.729713,-2.347935,69,26.84,13,203.1,14 / 24,706123,2019-08-16 13:00:59:903,-0.0491,0.4542,10.1638,-0.0412,-0.0018,9.8066,0.0352,0.0309,-0.0032,-16.04,8.29,-37.58,202.68,6.28,-0.57
7062,51.729713,-2.347935,69,26.84,13,203.1,14 / 24,706223,2019-08-16 13:01:00:003,-0.0125,0.2881,9.4551,-0.0104,0.0185,9.8066,0.0043,-0.0202,0.0181,-16.79,8.29,-38.89,201.44,6.26,-0.45
7063,51.729713,-2.347935,69,26.84,13,203.1,14 / 24,706323,2019-08-16 13:01:00:103,-0.6483,-0.0209,9.0408,0.0097,0.0081,9.8066,0.0021,-0.0469,-0.0362,-16.79,8.29,-38.89,201.44,6.26,-0.45
7064,51.729713,-2.347935,69,26.84,13,203.1,14 / 24,706423,2019-08-16 13:01:00:203,-0.6307,0.1604,10.1762,0.0133,0.0021,9.8066,0.0192,0.0202,-0.0011,-15.67,9.04,-38.02,204.86,6.34,-0.47
7065,51.729713,-2.347935,69,26.84,13,203.1,14 / 24,706523,2019-08-16 13:01:00:303,-0.7371,0.6314,10.4688,0.0022,0.0177,9.8066,-0.0149,0.0309,0.0224,-15.67,9.04,-38.02,204.75,6.32,-0.39
7066,51.729713,-2.347935,69,26.84,13,203.1,14 / 24,706623,2019-08-16 13:01:00:403,-0.3567,-0.0021,8.6273,-0.0162,0.0124,9.8066,0.0394,0.0671,-0.0181,-15.67,9.04,-38.02,204.75,6.32,-0.39
7067,51.729713,-2.347935,69,26.84,13,203.1,14 / 24,706723,2019-08-16 13:01:00:503,0.4373,-0.0016,9.5871,0.0025,-0.0005,9.8067,-0.0266,-0.0394,0.0,-15.67,8.67,-38.39,204.62,6.27,-0.28
7068,51.729473,-2.34811,68,27.39,14,203.5,14 / 24,706823,2019-08-16 13:01:00:603,0.2507,-0.1812,9.7708,0.001,-0.0119,9.8066,-0.0266,-0.0394,0.0,-15.67,8.67,-38.89,204.64,6.25,-0.35
7069,51.729473,-2.34811,68,27.39,14,203.5,14 / 24,706923,2019-08-16 13:01:00:703,0.0923,-0.0852,9.9258,-0.0004,-0.0039,9.8067,0.033,-0.0075,-0.0064,-16.04,8.67,-38.83,204.68,6.23,-0.37
7070,51.729473,-2.34811,68,27.39,14,203.5,14 / 24,707023,2019-08-16 13:01:00:803,0.1452,0.4837,9.8737,-0.0016,-0.0063,9.8066,-0.016,0.0277,0.0053,-16.04,8.67,-38.83,204.68,6.23,-0.37
7071,51.729473,-2.34811,68,27.39,14,203.5,14 / 24,707123,2019-08-16 13:01:00:903,0.2319,-0.1664,9.6198,0.0007,-0.0039,9.8067,-0.016,-0.0213,0.0032,-16.04,9.04,-38.02,204.82,6.23,-0.39
7072,51.729473,-2.34811,68,27.39,14,203.5,14 / 24,707224,2019-08-16 13:01:01:004,0.3344,-0.3504,10.3078,0.0064,0.0223,9.8066,0.0298,0.0128,0.0043,-16.04,9.04,-38.46,204.6,6.32,-0.29
7073,51.729473,-2.34811,68,27.39,14,203.5,14 / 24,707323,2019-08-16 13:01:01:103,0.4182,0.0478,10.2899,-0.0171,-0.0106,9.8066,0.0053,-0.0352,0.0213,-16.04,9.04,-38.46,204.6,6.32,-0.29
7074,51.729473,-2.34811,68,27.39,14,203.5,14 / 24,707423,2019-08-16 13:01:01:203,-0.0503,-0.2742,9.3192,-0.0113,0.0235,9.8066,-0.0021,-0.016,-0.0021,-15.67,9.04,-38.02,204.7,6.2,-0.3
7075,51.729473,-2.34811,68,27.39,14,203.5,14 / 24,707523,2019-08-16 13:01:01:303,-0.3502,0.0771,10.4915,-0.0152,0.0022,9.8066,-0.0021,-0.016,-0.0021,-16.04,9.04,-38.46,204.46,6.2,-0.15
7076,51.729473,-2.34811,68,27.39,14,203.5,14 / 24,707623,2019-08-16 13:01:01:403,-0.4017,0.0189,8.7949,-0.0437,0.0008,9.8066,0.0128,0.033,0.0064,-16.04,9.42,-38.02,204.46,6.2,-0.15
7077,51.729473,-2.34811,68,27.39,14,203.5,14 / 24,707724,2019-08-16 13:01:01:504,0.022,0.6714,9.4532,0.0121,0.0043,9.8066,-0.0415,0.0575,0.0064,-15.35,9.04,-38.02,205.56,5.97,-0.04
7078,51.729248,-2.348319,68,27.65,14,205.6,14 / 24,707823,2019-08-16 13:01:01:603,-0.5255,0.2195,9.6994,0.0407,0.0129,9.8066,0.0202,0.0096,0.0,-15.35,9.04,-38.02,205.56,5.97,-0.04
7079,51.729248,-2.348319,68,27.65,14,205.6,14 / 24,707923,2019-08-16 13:01:01:703,0.1493,-0.0837,9.4015,0.0111,-0.0084,9.8066,-0.0373,-0.0085,0.0021,-15.35,9.04,-38.83,205.32,6.21,-0.07
7080,51.729248,-2.348319,68,27.65,14,205.6,14 / 24,708023,2019-08-16 13:01:01:803,-0.1354,0.3756,9.4055,0.0079,-0.001,9.8066,0.0426,0.0533,-0.0138,-16.04,9.04,-38.83,204.23,6.25,-0.1
7081,51.729248,-2.348319,68,27.65,14,205.6,14 / 24,708123,2019-08-16 13:01:01:903,0.3265,0.1729,10.1038,-0.0099,0.0034,9.8066,-0.016,-0.0533,0.0053,-16.04,9.04,-38.83,204.23,6.25,-0.1
7082,51.729248,-2.348319,68,27.65,14,205.6,14 / 24,708223,2019-08-16 13:01:02:003,0.3493,-0.1637,10.326,-0.0049,0.0,9.8067,-0.016,-0.0533,0.0053,-16.04,9.42,-37.96,204.3,6.21,-0.06
7083,51.729248,-2.348319,68,27.65,14,205.6,14 / 24,708323,2019-08-16 13:01:02:103,0.2093,-0.2567,10.0794,0.001,0.001,9.8067,-0.0043,0.0394,-0.0085,-16.04,9.42,-38.39,204.29,6.22,-0.05
7084,51.729248,-2.348319,68,27.65,14,205.6,14 / 24,708423,2019-08-16 13:01:02:203,-0.0454,-0.031,10.1022,0.0004,-0.005,9.8066,-0.0011,0.0277,0.0011,-15.67,9.04,-37.96,204.29,6.22,-0.05
7085,51.729248,-2.348319,68,27.65,14,205.6,14 / 24,708523,2019-08-16 13:01:02:303,0.1782,0.088,10.9429,0.005,0.0014,9.8066,-0.0096,-0.0586,0.0075,-16.04,9.04,-38.39,204.28,6.25,-0.06
7086,51.729248,-2.348319,68,27.65,14,205.6,14 / 24,708623,2019-08-16 13:01:02:403,0.1006,-0.7086,9.6441,0.0281,0.0184,9.8066,0.0202,0.0021,-0.0202,-16.04,9.04,-38.39,204.28,6.25,-0.06
7087,51.729248,-2.348319,68,27.65,14,205.6,14 / 24,708724,2019-08-16 13:01:02:504,0.2448,-0.4427,9.788,-0.0056,-0.0022,9.8067,0.0107,-0.0373,-0.0075,-15.67,9.04,-38.39,204.06,6.52,-0.04
7088,51.72899,-2.348448,68,28.19,14,202.9,13 / 24,708823,2019-08-16 13:01:02:603,0.1776,0.4124,10.727,0.0013,0.0214,9.8066,-0.0266,-0.0021,0.0149,-16.04,9.04,-37.96,204.08,6.48,-0.03
7089,51.72899,-2.348448,68,28.19,14,202.9,13 / 24,708923,2019-08-16 13:01:02:703,-0.8673,0.0501,9.9322,-0.0166,0.0201,9.8066,0.0202,0.0511,-0.0202,-16.04,9.04,-37.96,204.08,6.48,-0.03
7090,51.72899,-2.348448,68,28.19,14,202.9,13 / 24,709023,2019-08-16 13:01:02:803,-0.5507,-0.0578,9.3804,-0.0062,-0.0171,9.8066,0.0202,0.0511,-0.0202,-15.67,9.42,-37.52,203.88,6.44,0.11
7091,51.72899,-2.348448,68,28.19,14,202.9,13 / 24,709123,2019-08-16 13:01:02:903,-0.225,0.5285,9.7998,-0.0079,-0.0252,9.8066,-0.0501,-0.0362,-0.0053,-16.04,9.79,-37.96,206.46,6.34,0.0
7092,51.72899,-2.348448,68,28.19,14,202.9,13 / 24,709222,2019-08-16 13:01:03:002,-0.4493,-0.1058,8.9746,0.0079,-0.0018,9.8066,0.0,-0.0543,-0.0107,-16.04,9.79,-37.96,206.46,6.34,0.0
7093,51.72899,-2.348448,68,28.19,14,202.9,13 / 24,709323,2019-08-16 13:01:03:103,-0.2,0.2603,9.7092,0.0221,-0.003,9.8066,0.0373,-0.0202,-0.0128,-15.67,9.42,-37.58,204.17,6.45,-0.08
7094,51.72899,-2.348448,68,28.19,14,202.9,13 / 24,709423,2019-08-16 13:01:03:203,0.504,0.1187,9.932,-0.0093,-0.006,9.8066,-0.0234,0.0426,0.0085,-15.67,9.79,-37.52,206.56,6.38,-0.09
7095,51.72899,-2.348448,68,28.19,14,202.9,13 / 24,709523,2019-08-16 13:01:03:303,0.4901,-0.1307,9.6742,0.0008,0.0038,9.8067,0.0458,0.049,-0.0149,-15.67,9.79,-37.52,206.56,6.38,-0.09
7096,51.72899,-2.348448,68,28.19,14,202.9,13 / 24,709623,2019-08-16 13:01:03:403,0.7846,-0.0968,9.6524,-0.0157,0.0151,9.8066,-0.0053,0.0,0.0234,-15.67,9.79,-37.96,206.41,6.47,-0.03
7097,51.72899,-2.348448,68,28.19,14,202.9,13 / 24,709723,2019-08-16 13:01:03:503,-0.0349,-0.0051,10.0081,-0.0368,0.04,9.8065,0.0075,0.0053,-0.0043,-15.67,9.79,-37.96,206.41,6.47,-0.03
7098,51.728836,-2.348528,67,25.87,13,203.0,13 / 24,709823,2019-08-16 13:01:03:603,0.5097,0.0921,10.6315,-0.0055,0.0213,9.8066,0.0075,0.0053,-0.0043,-16.04,10.17,-37.52,206.0,6.38,0.27
7099,51.728836,-2.348528,67,25.87,13,203.0,13 / 24,709923,2019-08-16 13:01:03:703,0.2318,-0.1647,9.8789,-0.0176,0.0296,9.8066,0.0575,-0.0075,-0.0213,-15.67,9.79,-37.08,206.0,6.38,0.27
7100,51.728836,-2.348528,67,25.87,13,203.0,13 / 24,710023,2019-08-16 13:01:03:803,0.6405,0.0972,10.456,-0.0106,0.0125,9.8066,-0.0245,-0.032,0.0107,-16.04,9.79,-36.71,205.84,6.36,0.47
7101,51.728836,-2.348528,67,25.87,13,203.0,13 / 24,710123,2019-08-16 13:01:03:903,0.1808,-0.6291,9.0082,-0.0251,0.0346,9.8066,0.032,0.0842,0.0096,-16.04,9.79,-37.14,205.84,6.36,0.47
7102,51.728836,-2.348528,67,25.87,13,203.0,13 / 24,710223,2019-08-16 13:01:04:003,0.3844,0.3226,9.3754,-0.0414,0.0544,9.8064,0.016,-0.033,-0.0075,-16.04,10.17,-37.58,205.14,6.28,0.87
7103,51.728836,-2.348528,67,25.87,13,203.0,13 / 24,710323,2019-08-16 13:01:04:103,-0.2997,0.0542,9.2536,0.0035,0.0062,9.8067,-0.016,-0.0107,0.0107,-16.04,10.17,-37.58,205.14,6.28,0.87
7104,51.728836,-2.348528,67,25.87,13,203.0,13 / 24,710423,2019-08-16 13:01:04:203,-0.4353,0.5126,9.5836,0.0164,-0.0008,9.8066,0.0767,0.033,-0.0138,-16.04,9.79,-37.96,205.08,6.32,0.89
7105,51.728836,-2.348528,67,25.87,13,203.0,13 / 24,710523,2019-08-16 13:01:04:303,-0.4357,0.1643,9.5573,0.0112,0.0081,9.8066,-0.0181,0.0096,0.0032,-15.67,9.79,-37.96,205.0,6.4,0.91
7106,51.728836,-2.348528,67,25.87,13,203.0,13 / 24,710623,2019-08-16 13:01:04:403,-0.6724,0.2551,9.9418,-0.0112,0.0134,9.8066,-0.0181,0.0096,0.0032,-16.04,10.17,-36.71,205.02,6.37,1.01
7107,51.728836,-2.348528,67,25.87,13,203.0,13 / 24,710723,2019-08-16 13:01:04:503,-0.4634,-0.2736,9.3117,-0.0238,-0.009,9.8066,-0.0266,0.066,0.0011,-16.04,10.17,-36.71,205.02,6.37,1.01
7108,51.728634,-2.348663,68,25.49,12,203.7,13 / 24,710823,2019-08-16 13:01:04:603,0.4099,0.3057,10.0004,0.0134,-0.0127,9.8066,0.0064,0.0298,-0.0149,-16.04,9.79,-37.08,205.15,6.18,1.01
7109,51.728634,-2.348663,68,25.49,12,203.7,13 / 24,710923,2019-08-16 13:01:04:703,0.4933,-0.0664,9.0462,0.0107,0.0011,9.8066,-0.0096,-0.0245,0.0011,-15.67,9.79,-37.14,205.28,6.22,0.91
7110,51.728634,-2.348663,68,25.49,12,203.7,13 / 24,711023,2019-08-16 13:01:04:803,0.7075,0.094,10.2333,0.0133,0.0124,9.8066,0.0032,0.0394,-0.0128,-15.67,9.79,-37.14,205.28,6.22,0.91
7111,51.728634,-2.348663,68,25.49,12,203.7,13 / 24,711122,2019-08-16 13:01:04:902,0.5511,-0.4707,9.945,-0.0236,0.0007,9.8066,0.0586,0.0405,-0.0266,-16.42,10.54,-36.27,207.62,6.32,0.94
7112,51.728634,-2.348663,68,25.49,12,203.7,13 / 24,711222,2019-08-16 13:01:05:002,0.4726,-0.708,9.6339,-0.0378,0.0098,9.8066,-0.0479,-0.0192,0.0011,-16.79,11.6,-35.83,208.55,6.15,1.1
7113,51.728634,-2.348663,68,25.49,12,203.7,13 / 24,711323,2019-08-16 13:01:05:103,0.3535,-0.3354,9.5987,-0.0119,0.0104,9.8066,0.016,0.0309,-0.0085,-16.79,11.6,-35.83,208.55,6.15,1.1
7114,51.728634,-2.348663,68,25.49,12,203.7,13 / 24,711423,2019-08-16 13:01:05:203,0.1005,-0.0584,9.4342,0.0134,0.0238,9.8066,0.0128,-0.0213,-0.016,-15.35,11.98,-35.02,208.55,6.15,1.1
7115,51.728634,-2.348663,68,25.49,12,203.7,13 / 24,711523,2019-08-16 13:01:05:303,-0.5443,0.044,9.485,0.0462,0.0014,9.8065,0.0128,-0.0213,-0.016,-14.6,11.6,-36.27,211.02,6.39,0.97
7116,51.728634,-2.348663,68,25.49,12,203.7,13 / 24,711623,2019-08-16 13:01:05:403,-0.7763,0.3514,11.3974,0.0019,-0.0114,9.8066,-0.0437,0.033,0.0085,-14.6,11.6,-36.27,211.02,6.39,0.97
7117,51.728634,-2.348663,68,25.49,12,203.7,13 / 24,711722,2019-08-16 13:01:05:502,-0.7271,0.0057,9.8755,-0.0151,0.0098,9.8066,0.0362,0.0714,0.0021,-13.85,11.23,-36.27,210.18,6.37,0.91
7118,51.72844,-2.348781,69,24.99,13,204.1,13 / 24,711823,2019-08-16 13:01:05:603,-0.1415,0.2842,10.4717,-0.0095,-0.0199,9.8066,-0.0447,-0.0064,-0.0096,-13.85,10.48,-37.14,207.57,6.11,1.03
7119,51.72844,-2.348781,69,24.99,13,204.1,13 / 24,711923,2019-08-16 13:01:05:703,0.2139,0.1152,10.1793,0.0224,-0.032,9.8066,0.0149,-0.0064,-0.0245,-14.6,10.48,-36.71,206.52,6.01,0.95
7120,51.72844,-2.348781,69,24.99,13,204.1,13 / 24,712023,2019-08-16 13:01:05:803,0.6148,0.0302,9.5291,0.0529,-0.0515,9.8064,0.0256,-0.0682,-0.0384,-14.98,10.54,-36.64,206.52,6.01,0.95
7121,51.72844,-2.348781,69,24.99,13,204.1,13 / 24,712123,2019-08-16 13:01:05:903,0.4697,-0.0396,9.3495,0.0731,-0.066,9.8062,-0.0021,-0.0341,-0.0245,-14.6,10.17,-36.27,207.36,6.22,0.41
7122,51.72844,-2.348781,69,24.99,13,204.1,13 / 24,712223,2019-08-16 13:01:06:003,0.1248,-0.2911,10.0507,0.0241,-0.0041,9.8066,-0.0021,-0.0341,-0.0245,-14.6,10.17,-36.27,207.36,6.22,0.41
7123,51.72844,-2.348781,69,24.99,13,204.1,13 / 24,712323,2019-08-16 13:01:06:103,0.715,-0.4101,9.7957,0.0234,-0.0045,9.8066,0.0202,0.0309,-0.0202,-14.98,10.17,-36.27,207.41,6.33,0.33
7124,51.72844,-2.348781,69,24.99,13,204.1,13 / 24,712423,2019-08-16 13:01:06:203,0.4308,-0.5152,9.7737,0.0531,-0.007,9.8065,-0.0085,-0.0565,-0.0107,-14.98,10.17,-36.71,207.35,6.59,0.15
7125,51.72844,-2.348781,69,24.99,13,204.1,13 / 24,712523,2019-08-16 13:01:06:303,0.1787,-0.2412,9.7452,-0.0098,0.0068,9.8066,0.0309,0.017,-0.0149,-15.29,10.17,-36.64,207.28,6.56,0.21
7126,51.72844,-2.348781,69,24.99,13,204.1,13 / 24,712623,2019-08-16 13:01:06:403,-0.1477,-0.3241,9.841,-0.0298,0.0044,9.8066,0.0224,-0.016,-0.0309,-15.29,10.17,-36.64,207.28,6.56,0.21
7127,51.72844,-2.348781,69,24.99,13,204.1,13 / 24,712723,2019-08-16 13:01:06:503,-0.2317,-0.2632,10.9325,-0.0392,0.0057,9.8066,-0.0543,-0.0607,-0.0096,-15.35,10.48,-37.08,207.21,6.37,0.34
7128,51.728226,-2.348953,69,25.35,12,205.1,13 / 24,712823,2019-08-16 13:01:06:603,-0.3685,0.118,8.5893,0.0013,-0.0128,9.8066,0.016,0.0117,-0.0149,-15.29,9.79,-37.08,207.34,6.34,0.27
7129,51.728226,-2.348953,69,25.35,12,205.1,13 / 24,712923,2019-08-16 13:01:06:703,-0.2557,0.2599,9.6737,0.0284,-0.0146,9.8066,0.016,-0.0128,-0.0107,-15.29,10.54,-37.52,207.34,6.34,0.27
7130,51.728226,-2.348953,69,25.35,12,205.1,13 / 24,713023,2019-08-16 13:01:06:803,-0.5206,-0.0667,9.7774,0.0311,-0.0099,9.8066,0.016,-0.0128,-0.0107,-15.67,10.17,-38.39,206.14,6.47,0.14
7131,51.728226,-2.348953,69,25.35,12,205.1,13 / 24,713123,2019-08-16 13:01:06:903,-0.1385,-0.1056,10.2959,0.0079,0.0109,9.8066,0.0064,-0.0234,-0.0064,-15.67,10.17,-38.39,206.14,6.47,0.14
7132,51.728226,-2.348953,69,25.35,12,205.1,13 / 24,713224,2019-08-16 13:01:07:004,0.4303,0.0896,10.5611,-0.0023,-0.0078,9.8066,0.0085,0.0533,-0.0245,-15.29,10.54,-37.96,209.5,6.54,0.18
7133,51.728226,-2.348953,69,25.35,12,205.1,13 / 24,713323,2019-08-16 13:01:07:103,-0.2076,-0.5944,9.1786,-0.0325,-0.0071,9.8066,-0.0096,0.1044,-0.0075,-15.67,10.48,-38.39,206.11,6.51,0.14
7134,51.728226,-2.348953,69,25.35,12,205.1,13 / 24,713423,2019-08-16 13:01:07:203,0.3523,0.3388,9.8907,-0.041,0.0075,9.8066,-0.0053,0.0298,0.0085,-15.67,10.85,-37.52,206.11,6.51,0.14
7135,51.728226,-2.348953,69,25.35,12,205.1,13 / 24,713523,2019-08-16 13:01:07:303,0.2802,-0.1089,8.9705,-0.032,0.0217,9.8066,-0.0021,-0.0139,-0.0266,-15.67,10.85,-37.52,206.11,6.51,0.14
7136,51.728226,-2.348953,69,25.35,12,205.1,13 / 24,713623,2019-08-16 13:01:07:403,0.057,-0.1697,9.5621,0.0153,0.0008,9.8066,-0.1076,-0.0043,0.0021,-16.04,10.85,-38.33,208.14,6.4,0.34
7137,51.728226,-2.348953,69,25.35,12,205.1,13 / 24,713723,2019-08-16 13:01:07:503,-0.2044,-0.2382,9.8633,0.0127,-0.0142,9.8066,0.0277,0.0543,-0.0149,-14.98,10.85,-37.96,209.36,6.48,0.3
7138,51.72801,-2.349112,69,25.47,12,205.3,13 / 24,713823,2019-08-16 13:01:07:603,-0.3225,0.1473,9.7144,-0.0005,0.014,9.8066,0.0277,0.0543,-0.0149,-15.29,10.54,-37.52,209.7,6.4,0.12
7139,51.72801,-2.349112,69,25.47,12,205.3,13 / 24,713923,2019-08-16 13:01:07:703,-0.1359,0.1502,9.5558,-0.0077,0.0128,9.8066,-0.0192,-0.0224,-0.0043,-15.29,10.54,-37.52,209.7,6.4,0.12
7140,51.72801,-2.349112,69,25.47,12,205.3,13 / 24,714023,2019-08-16 13:01:07:803,0.2102,0.1806,9.7639,-0.0037,0.0021,9.8066,0.0298,0.0298,-0.0096,-15.29,10.85,-38.33,209.57,6.4,0.21
7141,51.72801,-2.349112,69,25.47,12,205.3,13 / 24,714123,2019-08-16 13:01:07:903,0.3013,0.0859,9.7256,0.0065,-0.0025,9.8066,-0.0202,0.0383,-0.0075,-14.98,10.85,-37.96,209.57,6.4,0.21
7142,51.72801,-2.349112,69,25.47,12,205.3,13 / 24,714223,2019-08-16 13:01:08:003,-0.0064,-0.081,10.1571,0.0074,-0.009,9.8066,-0.0362,-0.016,-0.016,-14.98,10.85,-38.33,209.59,6.43,0.17
7143,51.72801,-2.349112,69,25.47,12,205.3,13 / 24,714323,2019-08-16 13:01:08:103,-0.0989,0.0569,10.2477,0.0008,-0.004,9.8067,0.0234,0.0266,-0.0011,-14.6,11.23,-37.52,209.64,6.42,0.15
7144,51.72801,-2.349112,69,25.47,12,205.3,13 / 24,714423,2019-08-16 13:01:08:203,0.4541,0.2181,10.1908,-0.0035,0.0147,9.8066,0.0266,-0.0703,-0.0149,-14.6,11.23,-37.52,209.64,6.42,0.15
7145,51.72801,-2.349112,69,25.47,12,205.3,13 / 24,714523,2019-08-16 13:01:08:303,0.0512,-0.2785,9.764,-0.0013,0.0275,9.8066,-0.0096,0.0043,-0.0128,-14.98,11.23,-37.89,209.36,6.49,0.3
7146,51.72801,-2.349112,69,25.47,12,205.3,13 / 24,714623,2019-08-16 13:01:08:403,0.1345,0.4085,10.4391,-0.0056,0.0103,9.8066,-0.0096,0.0043,-0.0128,-14.98,11.6,-37.89,211.47,6.49,0.37
7147,51.72801,-2.349112,69,25.47,12,205.3,13 / 24,714723,2019-08-16 13:01:08:503,-0.1362,-0.1617,9.7847,-0.0048,-0.0149,9.8066,-0.0234,0.0767,-0.0032,-15.29,11.23,-37.89,209.4,6.42,0.31
7148,51.72781,-2.349268,69,25.53,12,205.3,13 / 24,714823,2019-08-16 13:01:08:603,-0.4482,0.276,9.7218,0.029,0.0133,9.8066,-0.0181,-0.032,-0.0011,-15.29,11.23,-37.89,209.4,6.42,0.31
7149,51.72781,-2.349268,69,25.53,12,205.3,13 / 24,714923,2019-08-16 13:01:08:703,-0.6337,0.104,8.779,-0.0063,0.0312,9.8066,0.0288,0.0032,0.0107,-14.6,11.98,-37.52,211.48,6.61,0.29
7150,51.72781,-2.349268,69,25.53,12,205.3,13 / 24,715023,2019-08-16 13:01:08:803,-0.6175,0.7239,9.8284,-0.0316,0.0589,9.8064,0.098,0.0064,-0.0096,-14.6,11.23,-37.46,211.48,6.61,0.29
7151,51.72781,-2.349268,69,25.53,12,205.3,13 / 24,715123,2019-08-16 13:01:08:903,-1.1183,0.7523,9.7227,-0.0206,0.0993,9.8061,-0.065,-0.0554,0.0149,-14.98,11.98,-38.33,210.49,6.81,0.85
7152,51.72781,-2.349268,69,25.53,12,205.3,13 / 24,715223,2019-08-16 13:01:09:003,-0.3395,1.0182,10.334,0.0233,0.0329,9.8066,0.0362,0.0415,-0.0096,-14.98,11.98,-38.33,210.49,6.81,0.85
7153,51.72781,-2.349268,69,25.53,12,205.3,13 / 24,715323,2019-08-16 13:01:09:103,0.0934,0.266,10.1587,0.014,0.0506,9.8065,-0.0288,-0.0085,0.0064,-14.98,11.6,-39.21,210.49,6.81,0.85
7154,51.72781,-2.349268,69,25.53,12,205.3,13 / 24,715422,2019-08-16 13:01:09:202,0.1532,-0.0503,10.5085,-0.0219,0.0665,9.8064,-0.0288,-0.0085,0.0064,-14.6,11.23,-38.77,207.36,6.9,1.25
7155,51.72781,-2.349268,69,25.53,12,205.3,13 / 24,715523,2019-08-16 13:01:09:303,0.322,-0.1525,9.98,-0.0245,0.0191,9.8066,0.0245,0.0202,-0.0128,-14.98,11.6,-38.33,209.62,6.82,1.42
7156,51.72781,-2.349268,69,25.53,12,205.3,13 / 24,715623,2019-08-16 13:01:09:403,0.2357,-0.329,9.0661,0.0142,-0.0082,9.8066,-0.0149,-0.0639,-0.0437,-14.98,11.6,-38.33,209.62,6.82,1.42
7157,51.72781,-2.349268,69,25.53,12,205.3,13 / 24,715723,2019-08-16 13:01:09:503,0.3295,-0.4864,8.8186,0.0226,-0.0454,9.8065,-0.0554,-0.0565,-0.0202,-14.6,11.6,-38.33,210.01,6.94,1.1
7158,51.72763,-2.349422,69,25.05,12,206.5,14 / 24,715822,2019-08-16 13:01:09:602,0.5827,-0.6787,9.6129,0.0267,-0.0611,9.8064,0.0309,0.0234,-0.0085,-14.6,11.6,-37.96,210.01,6.94,1.1
7159,51.72763,-2.349422,69,25.05,12,206.5,14 / 24,715922,2019-08-16 13:01:09:702,-0.3715,-0.3624,9.241,0.0218,0.0102,9.8066,0.0053,-0.0714,-0.0138,-14.98,11.23,-37.89,208.4,6.9,0.71
7160,51.72763,-2.349422,69,25.05,12,206.5,14 / 24,716022,2019-08-16 13:01:09:802,0.0721,0.319,9.418,0.0271,0.0062,9.8066,-0.0138,0.0373,0.0011,-14.6,11.23,-37.89,208.4,6.9,0.71
7161,51.72763,-2.349422,69,25.05,12,206.5,14 / 24,716123,2019-08-16 13:01:09:903,-0.6206,0.1486,9.1146,0.0097,-0.0031,9.8066,-0.0138,0.0373,0.0011,-14.6,11.98,-37.46,210.83,6.94,0.67
7162,51.72763,-2.349422,69,25.05,12,206.5,14 / 24,716223,2019-08-16 13:01:10:003,-0.3527,0.4912,10.566,-0.0262,0.009,9.8066,-0.0107,0.0117,-0.0011,-14.6,11.98,-37.46,210.83,6.94,0.67
7163,51.72763,-2.349422,69,25.05,12,206.5,14 / 24,716322,2019-08-16 13:01:10:102,0.27,0.0571,10.1957,-0.0145,0.0082,9.8066,-0.0522,-0.0149,-0.0032,-14.6,11.98,-37.52,210.55,6.84,0.79
7164,51.72763,-2.349422,69,25.05,12,206.5,14 / 24,716423,2019-08-16 13:01:10:203,0.4929,-0.0894,10.631,-0.029,0.0105,9.8066,0.0543,0.0202,-0.0266,-14.23,11.98,-38.33,210.55,6.84,0.79
7165,51.72763,-2.349422,69,25.05,12,206.5,14 / 24,716523,2019-08-16 13:01:10:303,0.5927,-0.4272,10.0221,-0.0599,-0.0016,9.8065,-0.0629,-0.0298,0.0043,-14.98,11.6,-37.46,210.73,6.53,0.96
7166,51.72763,-2.349422,69,25.05,12,206.5,14 / 24,716623,2019-08-16 13:01:10:403,0.621,-0.4222,9.8009,-0.0011,-0.0159,9.8066,0.0011,0.0021,-0.0192,-14.6,11.6,-37.89,210.73,6.53,0.96
7167,51.72763,-2.349422,69,25.05,12,206.5,14 / 24,716723,2019-08-16 13:01:10:503,-0.0273,-0.786,8.8403,0.0517,-0.0605,9.8063,0.0352,-0.0842,-0.0373,-14.6,11.6,-37.89,210.73,6.53,0.96
7168,51.72744,-2.349577,70,24.99,12,207.0,14 / 24,716823,2019-08-16 13:01:10:603,0.5238,0.0681,10.6688,0.0303,-0.0029,9.8066,-0.0437,-0.065,0.0128,-14.23,12.35,-37.96,212.53,6.61,0.5
7169,51.72744,-2.349577,70,24.99,12,207.0,14 / 24,716923,2019-08-16 13:01:10:703,0.0086,-0.1185,9.9191,0.0354,-0.0041,9.8066,-0.0437,-0.065,0.0128,-14.23,11.6,-38.33,212.58,6.77,0.37
7170,51.72744,-2.349577,70,24.99,12,207.0,14 / 24,717023,2019-08-16 13:01:10:803,-0.5437,-0.2896,10.5887,-0.0106,0.0052,9.8066,0.0703,0.0575,-0.0181,-14.23,11.6,-38.39,212.58,6.77,0.37
7171,51.72744,-2.349577,70,24.99,12,207.0,14 / 24,717123,2019-08-16 13:01:10:903,-0.1104,-0.4367,9.2153,-0.0328,-0.0104,9.8066,0.0032,-0.017,-0.0138,-14.23,11.6,-38.39,212.58,6.77,0.37
7172,51.72744,-2.349577,70,24.99,12,207.0,14 / 24,717223,2019-08-16 13:01:11:003,-0.1055,0.0817,9.5655,-0.0124,0.0204,9.8066,0.0011,-0.0234,-0.0043,-14.6,12.73,-37.96,213.44,6.58,0.42
7173,51.72744,-2.349577,70,24.99,12,207.0,14 / 24,717323,2019-08-16 13:01:11:103,-0.4333,0.1,9.3685,-0.0407,0.0353,9.8065,0.0607,0.0181,-0.0107,-14.98,11.98,-38.33,210.93,6.49,0.73
7174,51.72744,-2.349577,70,24.99,12,207.0,14 / 24,717422,2019-08-16 13:01:11:202,-0.0261,0.2287,9.6316,-0.0112,0.0129,9.8066,-0.017,-0.016,0.0043,-14.98,11.98,-38.33,210.93,6.49,0.73
7175,51.72744,-2.349577,70,24.99,12,207.0,14 / 24,717523,2019-08-16 13:01:11:303,0.1035,0.1816,9.9495,0.0096,0.0089,9.8066,-0.0043,-0.0064,-0.0288,-14.23,12.35,-38.33,212.16,6.47,0.83
7176,51.72744,-2.349577,70,24.99,12,207.0,14 / 24,717623,2019-08-16 13:01:11:403,0.4286,-0.1054,10.4346,0.0341,-0.0157,9.8066,-0.0533,-0.0362,-0.0256,-14.23,11.98,-37.89,212.16,6.64,0.73
7177,51.72744,-2.349577,70,24.99,12,207.0,14 / 24,717723,2019-08-16 13:01:11:503,0.4131,-0.4302,9.8694,0.0412,-0.0373,9.8065,-0.0138,-0.0032,-0.0277,-14.23,11.98,-37.89,212.16,6.64,0.73
7178,51.727245,-2.34977,70,25.28,13,208.6,14 / 24,717823,2019-08-16 13:01:11:603,0.4681,0.2675,10.4093,-0.016,-0.0159,9.8066,-0.0138,-0.0032,-0.0277,-14.23,11.98,-38.33,212.56,6.73,0.41
7179,51.727245,-2.34977,70,25.28,13,208.6,14 / 24,717923,2019-08-16 13:01:11:703,0.3504,-0.3447,9.7006,-0.0095,0.013,9.8066,0.016,-0.0298,-0.0149,-14.6,12.35,-39.21,211.19,6.6,0.38
7180,51.727245,-2.34977,70,25.28,13,208.6,14 / 24,718023,2019-08-16 13:01:11:803,0.0076,0.097,10.2657,-0.0275,-0.0121,9.8066,0.0234,-0.0085,-0.0341,-14.23,12.73,-38.39,211.19,6.6,0.38
7181,51.727245,-2.34977,70,25.28,13,208.6,14 / 24,718123,2019-08-16 13:01:11:903,-0.0417,-0.5651,9.3303,-0.0202,-0.0112,9.8066,-0.0224,0.032,-0.0021,-14.23,12.73,-38.39,211.19,6.6,0.38
7182,51.727245,-2.34977,70,25.28,13,208.6,14 / 24,718223,2019-08-16 13:01:12:003,0.481,0.0837,10.1829,0.0185,0.0076,9.8066,0.0373,0.0,-0.0256,-14.98,11.98,-37.89,211.46,6.46,0.39
7183,51.727245,-2.34977,70,25.28,13,208.6,14 / 24,718323,2019-08-16 13:01:12:103,0.1599,0.1382,10.2188,0.0132,0.0365,9.8066,-0.0138,-0.033,0.0011,-14.23,12.35,-37.46,212.93,6.58,0.37
7184,51.727245,-2.34977,70,25.28,13,208.6,14 / 24,718423,2019-08-16 13:01:12:203,-0.2206,-0.3163,10.2265,0.0141,0.0567,9.8065,-0.0234,0.0628,-0.016,-13.85,11.98,-37.46,212.37,6.83,0.6
7185,51.727245,-2.34977,70,25.28,13,208.6,14 / 24,718523,2019-08-16 13:01:12:303,0.0406,0.1298,9.9199,-0.0098,-0.0271,9.8066,-0.0021,0.0437,-0.0266,-13.85,12.35,-37.89,212.37,6.83,0.6
7186,51.727245,-2.34977,70,25.28,13,208.6,14 / 24,718623,2019-08-16 13:01:12:403,-0.428,-0.3141,9.2787,0.0015,-0.0403,9.8066,-0.0277,0.0032,0.0085,-13.85,11.6,-37.89,212.59,6.71,0.4
7187,51.727245,-2.34977,70,25.28,13,208.6,14 / 24,718723,2019-08-16 13:01:12:503,0.0725,-0.1306,9.3281,-0.0072,-0.0037,9.8066,-0.0277,0.0032,0.0085,-13.48,11.23,-39.58,212.59,6.71,0.4
7188,51.726982,-2.349988,69,26.74,12,209.0,14 / 23,718823,2019-08-16 13:01:12:603,-0.0903,0.2197,10.3063,-0.0113,-0.0012,9.8066,0.0053,0.1087,-0.0149,-13.48,11.23,-39.58,212.59,6.71,0.4
7189,51.726982,-2.349988,69,26.74,12,209.0,14 / 23,718923,2019-08-16 13:01:12:703,-0.0252,0.0324,9.1644,0.0183,0.0054,9.8066,-0.0085,0.0096,-0.0234,-14.98,11.98,-39.14,211.08,6.65,0.43
7190,51.726982,-2.349988,69,26.74,12,209.0,14 / 23,719023,2019-08-16 13:01:12:803,-0.3207,-0.108,9.565,0.0272,0.0135,9.8066,-0.0128,0.0192,-0.0128,-13.85,12.35,-39.14,212.37,6.76,0.4
7191,51.726982,-2.349988,69,26.74,12,209.0,14 / 23,719123,2019-08-16 13:01:12:903,0.3052,0.2332,10.7809,0.0482,0.009,9.8065,0.0075,-0.0565,-0.0362,-13.85,11.98,-38.33,212.47,7.03,0.29
7192,51.726982,-2.349988,69,26.74,12,209.0,14 / 23,719223,2019-08-16 13:01:13:003,0.7468,-0.2487,9.8266,0.0172,-0.0153,9.8066,0.0,-0.0181,-0.0405,-13.85,11.98,-38.33,212.47,7.03,0.29
7193,51.726982,-2.349988,69,26.74,12,209.0,14 / 23,719323,2019-08-16 13:01:13:103,0.3787,-0.1689,10.7062,0.0089,-0.0115,9.8066,0.0341,-0.0043,-0.033,-13.48,11.6,-38.33,214.08,7.06,0.16
7194,51.726982,-2.349988,69,26.74,12,209.0,14 / 23,719423,2019-08-16 13:01:13:203,0.2666,0.016,9.9934,0.0138,-0.0076,9.8066,0.0341,-0.0043,-0.033,-13.85,11.98,-39.58,212.37,7.1,0.08
7195,51.726982,-2.349988,69,26.74,12,209.0,14 / 23,719523,2019-08-16 13:01:13:303,-0.1409,0.1149,10.1453,-0.0257,0.0001,9.8066,0.0139,0.0245,-0.0234,-14.23,12.35,-38.71,212.37,7.1,0.08
7196,51.726982,-2.349988,69,26.74,12,209.0,14 / 23,719623,2019-08-16 13:01:13:403,0.3452,-0.4863,8.8877,-0.0115,0.0133,9.8066,-0.0341,0.0032,-0.0138,-14.23,12.35,-38.71,212.37,7.1,0.08
7197,51.726982,-2.349988,69,26.74,12,209.0,14 / 23,719723,2019-08-16 13:01:13:503,-0.39,0.0873,9.2603,0.0277,0.002,9.8066,0.0202,0.016,-0.0064,-14.23,13.1,-38.71,214.53,7.09,0.18
7198,51.726795,-2.350156,69,26.23,12,209.8,14 / 24,719823,2019-08-16 13:01:13:603,-0.5239,0.116,9.3798,0.0515,0.0252,9.8065,-0.0437,-0.0426,-0.0096,-13.85,13.1,-37.89,214.53,7.09,0.18
7199,51.726795,-2.350156,69,26.23,12,209.8,14 / 24,719923,2019-08-16 13:01:13:703,-0.2987,0.399,10.1495,-0.0002,0.0069,9.8066,0.0277,0.0618,-0.0362,-14.6,12.35,-37.02,211.22,7.42,0.13
7200,51.726795,-2.350156,69,26.23,12,209.8,14 / 24,720023,2019-08-16 13:01:13:803,0.2944,0.292,9.9002,0.0056,0.0073,9.8066,-0.0362,-0.0373,-0.0181,-13.48,12.73,-37.46,216.08,7.47,0.15
7201,51.726795,-2.350156,69,26.23,12,209.8,14 / 24,720124,2019-08-16 13:01:13:904,0.3221,0.2199,9.7549,0.0164,0.0129,9.8066,0.0202,0.0352,-0.0394,-13.48,12.73,-37.46,216.08,7.47,0.15
7202,51.726795,-2.350156,69,26.23,12,209.8,14 / 24,720224,2019-08-16 13:01:14:004,0.0227,0.4909,10.2943,-0.0044,-0.0214,9.8066,-0.0479,0.016,-0.0128,-13.48,12.73,-37.46,215.96,7.59,0.16
7203,51.726795,-2.350156,69,26.23,12,209.8,14 / 24,720323,2019-08-16 13:01:14:103,-0.2596,-0.3185,10.2341,-0.0203,-0.0458,9.8065,-0.0479,0.016,-0.0128,-13.85,12.35,-37.89,212.62,7.34,0.01
7204,51.726795,-2.350156,69,26.23,12,209.8,14 / 24,720423,2019-08-16 13:01:14:203,0.435,0.4233,9.9159,-0.0074,0.0068,9.8066,0.0671,-0.033,-0.0021,-13.85,12.35,-37.89,212.62,7.34,0.01
7205,51.726795,-2.350156,69,26.23,12,209.8,14 / 24,720523,2019-08-16 13:01:14:303,0.522,0.2959,9.555,0.0172,0.034,9.8066,0.0192,-0.081,-0.0107,-14.23,12.73,-38.27,214.56,7.42,0.08
7206,51.726795,-2.350156,69,26.23,12,209.8,14 / 24,720623,2019-08-16 13:01:14:403,-0.3163,0.5163,9.9888,0.0006,0.0431,9.8066,0.0128,-0.0298,0.0021,-13.85,12.73,-38.27,214.24,7.61,0.19
7207,51.726795,-2.350156,69,26.23,12,209.8,14 / 24,720723,2019-08-16 13:01:14:503,-0.0306,0.0951,9.6382,0.0015,0.0574,9.8065,-0.0256,-0.016,-0.0213,-13.85,12.35,-37.89,211.54,7.81,0.47
7208,51.7266,-2.350345,70,25.75,11,211.3,14 / 24,720824,2019-08-16 13:01:14:604,-0.1616,0.1635,9.4609,-0.0027,0.007,9.8066,-0.0128,0.0597,0.0,-13.85,12.35,-37.89,211.54,7.81,0.47
7209,51.7266,-2.350345,70,25.75,11,211.3,14 / 24,720923,2019-08-16 13:01:14:703,-0.1342,0.5836,9.4287,0.0003,0.0287,9.8066,-0.0032,0.0224,-0.0107,-13.48,12.73,-38.71,214.81,7.82,0.51
7210,51.7266,-2.350345,70,25.75,11,211.3,14 / 24,721023,2019-08-16 13:01:14:803,-0.1704,-0.0398,8.7565,-0.0157,0.0381,9.8066,-0.0298,0.0266,0.0043,-13.85,13.48,-38.33,213.22,7.87,0.75
7211,51.7266,-2.350345,70,25.75,11,211.3,14 / 24,721123,2019-08-16 13:01:14:903,0.0015,0.3759,9.3422,-0.0001,0.0033,9.8066,0.0192,0.0533,0.0064,-13.85,13.48,-38.33,213.22,7.87,0.75
7212,51.7266,-2.350345,70,25.75,11,211.3,14 / 24,721223,2019-08-16 13:01:15:003,-0.0028,-0.2184,8.972,0.0268,0.0151,9.8066,0.0192,0.0533,0.0064,-13.48,12.73,-37.89,214.6,7.88,0.76
7213,51.7266,-2.350345,70,25.75,11,211.3,14 / 24,721323,2019-08-16 13:01:15:103,0.3915,0.1675,9.8329,0.0689,0.0269,9.8064,0.0,-0.0714,-0.016,-13.48,13.1,-37.89,214.6,7.88,0.76
7214,51.7266,-2.350345,70,25.75,11,211.3,14 / 24,721423,2019-08-16 13:01:15:203,0.172,0.0672,9.8865,0.0793,0.0277,9.8063,0.0107,0.0778,-0.0288,-13.48,12.73,-38.27,214.36,8.35,0.63
7215,51.7266,-2.350345,70,25.75,11,211.3,14 / 24,721523,2019-08-16 13:01:15:303,0.4239,0.2316,10.0872,-0.0098,-0.0309,9.8066,-0.0021,0.017,-0.0096,-13.48,12.73,-38.27,214.36,8.35,0.63
7216,51.7266,-2.350345,70,25.75,11,211.3,14 / 24,721623,2019-08-16 13:01:15:403,-0.1725,-0.2866,10.3805,-0.0303,-0.0539,9.8065,-0.0043,-0.017,-0.017,-13.48,13.1,-38.71,214.67,8.03,0.47
7217,51.7266,-2.350345,70,25.75,11,211.3,14 / 24,721723,2019-08-16 13:01:15:503,-0.4221,-0.2228,9.7272,-0.0146,0.0267,9.8066,0.0234,-0.0479,-0.0053,-13.48,12.73,-38.33,214.67,8.03,0.47
7218,51.72639,-2.350557,70,25.88,11,211.8,14 / 24,721823,2019-08-16 13:01:15:603,0.0937,0.1187,9.6957,-0.0078,0.0029,9.8066,0.0011,0.0288,0.0021,-13.48,12.73,-38.71,214.38,8.05,0.65
7219,51.72639,-2.350557,70,25.88,11,211.8,14 / 24,721924,2019-08-16 13:01:15:704,0.4515,0.3652,9.4011,-0.0199,0.01,9.8066,-0.0256,0.017,0.0117,-13.48,13.1,-37.46,214.81,8.02,0.69
7220,51.72639,-2.350557,70,25.88,11,211.8,14 / 24,722023,2019-08-16 13:01:15:803,-0.098,0.162,8.6257,-0.0145,0.0342,9.8066,-0.0256,0.017,0.0117,-13.48,13.1,-37.46,214.81,8.02,0.69
7221,51.72639,-2.350557,70,25.88,11,211.8,14 / 24,722123,2019-08-16 13:01:15:903,-0.2531,0.2343,9.4472,0.0217,0.0312,9.8066,-0.016,0.0447,-0.0277,-13.48,13.85,-37.89,216.31,8.06,0.9
7222,51.72639,-2.350557,70,25.88,11,211.8,14 / 24,722223,2019-08-16 13:01:16:003,-0.1285,0.0326,10.0168,0.0263,0.0098,9.8066,-0.033,-0.0085,-0.0021,-13.1,13.48,-37.46,214.38,8.22,0.86
7223,51.72639,-2.350557,70,25.88,11,211.8,14 / 24,722323,2019-08-16 13:01:16:103,-0.4666,-0.453,10.3605,-0.0191,-0.0055,9.8066,-0.0426,0.0256,0.0,-13.48,13.1,-37.89,214.38,8.22,0.86
7224,51.72639,-2.350557,70,25.88,11,211.8,14 / 24,722423,2019-08-16 13:01:16:203,-0.7322,0.1441,10.18,-0.036,-0.0259,9.8066,-0.0064,0.0288,0.0107,-13.48,13.1,-37.89,214.38,8.22,0.86
7225,51.72639,-2.350557,70,25.88,11,211.8,14 / 24,722523,2019-08-16 13:01:16:303,-0.4928,-0.2877,8.9333,-0.0287,-0.0461,9.8065,0.0,-0.0543,-0.0202,-13.85,13.1,-37.89,213.19,7.93,0.73
7226,51.72639,-2.350557,70,25.88,11,211.8,14 / 24,722623,2019-08-16 13:01:16:403,-0.0401,0.1297,10.7973,-0.0129,-0.0167,9.8066,0.0202,0.0234,-0.0053,-13.1,13.1,-38.77,214.54,7.81,0.69
7227,51.72639,-2.350557,70,25.88,11,211.8,14 / 24,722723,2019-08-16 13:01:16:503,0.1343,-0.4244,9.893,0.0193,-0.0136,9.8066,-0.0117,0.0,-0.0096,-13.1,13.1,-38.77,214.54,7.81,0.69
7228,51.7262,-2.35074,69,25.37,10,212.8,14 / 24,722823,2019-08-16 13:01:16:603,0.2078,-0.2276,9.9266,0.0102,0.0128,9.8066,-0.0117,0.0,-0.0096,-13.48,12.73,-39.14,214.69,7.89,0.54
7229,51.7262,-2.35074,69,25.37,10,212.8,14 / 24,722923,2019-08-16 13:01:16:703,0.0924,0.4319,10.7681,0.0232,0.0172,9.8066,-0.0064,0.0075,-0.0298,-13.85,13.1,-38.33,213.34,8.06,0.55
7230,51.7262,-2.35074,69,25.37,10,212.8,14 / 24,723024,2019-08-16 13:01:16:804,0.3065,-0.3596,10.1395,-0.0062,-0.0191,9.8066,-0.0245,0.098,0.0107,-13.85,13.1,-38.33,213.34,8.06,0.55
7231,51.7262,-2.35074,69,25.37,10,212.8,14 / 24,723123,2019-08-16 13:01:16:903,0.4392,-0.1509,9.6696,-0.0141,0.0342,9.8066,-0.0426,0.0426,0.0107,-13.1,13.1,-38.27,214.94,7.97,0.47
