,GPS LATITUDE (degrees), GPS LONGITUDE (degrees), GPS ALTITUDE (m), GPS SPEED (Kmh), GPS ACCURACY (m), GPS ORIENTATION (Â°),GPS SATELLITES IN RANGE, TIME SINCE START (ms), DATE (YYYY-MO-DD HH-MI-SS_SSS), ACCELEROMETER X (m/s²) , ACCELEROMETER Y (m/s²), ACCELEROMETER Z (m/s²), GRAVITY X (m/s²), GRAVITY Y (m/s²), GRAVITY Z (m/s²), GYROSCOPE Yaw (rad/s), GYROSCOPE Pitch (rad/s), GYROSCOPE Roll (rad/s), MAGNETIC FIELD X (Î¼T), MAGNETIC FIELD Y (Î¼T), MAGNETIC FIELD Z (Î¼T), ORIENTATION (Yaw) (Â°), ORIENTATION (Pitch) (Â°), ORIENTATION (Roll ) (Â°)
52388,52.02561,-0.724709,124.62,22.13,3,274.98,20 / 20,5238811,2020-01-08 11:43:05:485,-0.885,2.6891,8.0809,-0.0334,0.0942,9.8061,-0.1157,0.0276,0.0245,5.5,-34.19,15.56,72.2,-80.88,-146.24
52389,52.02561,-0.724709,124.62,22.13,3,274.98,20 / 20,5238911,2020-01-08 11:43:05:585,3.7249,-3.0719,10.7115,0.0378,0.0177,9.8065,-0.0672,-0.5424,0.1027,4.81,-34.31,15.25,69.79,-81.01,-147.46
52390,52.02561,-0.724709,124.62,22.13,3,274.98,20 / 20,5239010,2020-01-08 11:43:05:684,2.1464,-1.1496,8.6792,-0.0631,0.0204,9.8064,-0.0843,-0.171,0.3623,5.06,-34.37,14.81,68.67,-81.05,-148.35
52391,52.02561,-0.724709,124.62,22.13,3,274.98,20 / 20,5239111,2020-01-08 11:43:05:785,4.1033,-2.0861,9.0882,0.0627,-0.0052,9.8064,0.1547,-0.312,0.2518,5.25,-34.75,15.19,68.8,-80.92,-149.1
52392,52.02561,-0.724709,124.62,22.13,3,274.98,20 / 20,5239211,2020-01-08 11:43:05:885,-0.8484,1.4395,11.4394,-0.0088,-0.0198,9.8066,0.0089,-0.2842,0.1585,5.0,-34.94,15.13,70.03,-80.74,-148.44
52393,52.025673,-0.727612,126.74,20.77,3,266.28,19 / 20,5239311,2020-01-08 11:43:05:985,3.1775,1.2789,8.4974,0.0181,-0.0054,9.8066,-0.0609,-0.0744,0.1654,4.44,-34.75,15.13,67.76,-80.6,-147.62
52394,52.025673,-0.727612,126.74,20.77,3,266.28,19 / 20,5239410,2020-01-08 11:43:06:084,-0.5597,1.7352,10.5858,0.0291,0.0169,9.8065,0.04,-0.2687,0.1076,5.56,-34.69,15.31,75.62,-80.65,-146.57
52395,52.025673,-0.727612,126.74,20.77,3,266.28,19 / 20,5239511,2020-01-08 11:43:06:185,2.4452,0.07,9.5435,0.0215,-0.008,9.8065,-0.2176,-0.0894,-0.0048,4.75,-35.25,14.69,71.59,-80.9,-146.7
52396,52.025673,-0.727612,126.74,20.77,3,266.28,19 / 20,5239611,2020-01-08 11:43:06:285,1.1845,-0.0711,10.2632,0.0734,0.0139,9.8063,0.1143,-0.2186,0.1704,5.31,-34.44,14.94,70.4,-81.37,-146.13
52397,52.025673,-0.727612,126.74,20.77,3,266.28,19 / 20,5239711,2020-01-08 11:43:06:385,3.3604,0.5003,8.7432,0.0377,-0.0063,9.8065,-0.0368,0.0523,-0.064,4.31,-34.81,15.19,67.46,-81.31,-146.24
52398,52.025673,-0.727612,126.74,20.77,3,266.28,19 / 20,5239811,2020-01-08 11:43:06:485,0.0328,1.0046,12.5304,0.0226,-0.0082,9.8065,0.0946,-0.1367,0.114,4.81,-34.12,15.44,66.94,-81.61,-148.65
52399,52.025673,-0.727612,126.74,20.77,3,266.28,19 / 20,5239911,2020-01-08 11:43:06:585,0.8464,4.9254,3.416,0.0243,-0.0081,9.8066,-0.4121,0.1383,0.3267,5.5,-33.81,16.13,68.85,-81.66,-147.67
52400,52.025673,-0.727612,126.74,20.77,3,266.28,19 / 20,5240011,2020-01-08 11:43:06:685,4.6376,-1.4876,10.7369,0.0046,0.1516,9.8054,0.1929,0.4012,-0.13,5.06,-34.12,15.75,68.0,-81.73,-145.41
52401,52.025673,-0.727612,126.74,20.77,3,266.28,19 / 20,5240110,2020-01-08 11:43:06:784,-0.8907,-0.1048,13.0543,-0.0359,-0.1286,9.8057,-0.3729,-0.3732,0.2854,5.63,-34.25,15.5,71.74,-81.68,-145.03
52402,52.025673,-0.727612,126.74,20.77,3,266.28,19 / 20,5240211,2020-01-08 11:43:06:885,-1.2132,4.4651,8.3833,-0.0489,-0.0632,9.8063,-0.3404,-0.0145,0.17,5.0,-34.0,15.31,69.2,-81.45,-147.01
52403,52.025673,-0.727612,126.74,20.77,3,266.28,19 / 20,5240311,2020-01-08 11:43:06:985,5.0954,-2.5611,9.7156,0.0746,-0.0331,9.8063,0.2601,-0.4979,0.3778,5.56,-33.44,15.75,68.56,-81.78,-147.23
52404,52.025673,-0.727612,126.74,20.77,3,266.28,19 / 20,5240410,2020-01-08 11:43:07:084,1.6168,1.3739,7.8323,-0.034,-0.0615,9.8063,-0.008,-0.4966,0.1422,5.81,-34.31,16.25,69.97,-81.46,-147.07
52405,52.025673,-0.727612,126.74,20.77,3,266.28,19 / 20,5240511,2020-01-08 11:43:07:185,7.9128,-6.699,9.3224,0.0715,0.0227,9.8063,0.1216,-0.3511,-0.0765,5.56,-33.44,15.75,68.55,-81.86,-147.08
52406,52.025673,-0.727612,126.74,20.77,3,266.28,19 / 20,5240611,2020-01-08 11:43:07:285,-6.6143,9.2562,9.5091,0.1188,-0.1022,9.8054,-0.1557,-1.1753,0.8494,5.56,-33.69,15.94,66.64,-81.96,-149.05
52407,52.025673,-0.727612,126.74,20.77,3,266.28,19 / 20,5240711,2020-01-08 11:43:07:385,2.0688,-0.4303,10.5446,0.0357,-0.0204,9.8065,0.0833,0.6303,-0.2254,5.69,-32.94,15.94,69.93,-81.7,-146.15
52408,52.025673,-0.727612,126.74,20.77,3,266.28,19 / 20,5240811,2020-01-08 11:43:07:485,-6.2082,11.8982,8.9972,0.0416,-0.1363,9.8055,-0.3232,-0.6784,0.2643,5.56,-33.56,16.0,66.72,-81.73,-149.42
52409,52.025673,-0.727612,126.74,20.77,3,266.28,19 / 20,5240910,2020-01-08 11:43:07:584,1.4888,0.0189,12.2445,-0.1525,0.07,9.8051,0.2878,1.6252,-1.2059,5.94,-33.25,16.06,71.26,-81.44,-145.45
52410,52.025673,-0.727612,126.74,20.77,3,266.28,19 / 20,5241010,2020-01-08 11:43:07:684,12.5348,-9.0124,9.5961,0.0148,-0.0273,9.8066,-0.2845,-1.6954,1.1339,5.13,-33.19,15.69,61.99,-81.83,-150.02
52411,52.025673,-0.727612,126.74,20.77,3,266.28,19 / 20,5241111,2020-01-08 11:43:07:785,3.8713,-0.3269,9.9705,-0.164,0.1354,9.8043,-0.0586,-0.9142,0.6891,4.75,-33.62,15.0,63.57,-82.12,-150.51
52412,52.025673,-0.727612,126.74,20.77,3,266.28,19 / 19,5241211,2020-01-08 11:43:07:885,8.5793,-3.1702,7.6259,-0.0891,-0.001,9.8062,-0.1843,-0.8274,0.6313,5.0,-34.44,15.06,70.38,-81.85,-145.07
52413,52.025673,-0.727612,126.74,20.77,3,266.28,19 / 19,5241311,2020-01-08 11:43:07:985,-3.3408,6.0326,8.6298,-0.0578,0.0846,9.8061,-0.1042,-0.8714,0.5602,4.75,-34.06,15.44,72.35,-81.92,-143.15
52414,52.025673,-0.727612,126.74,20.77,3,266.28,19 / 19,5241410,2020-01-08 11:43:08:084,7.1953,-2.672,10.8685,-0.065,0.0625,9.8061,-0.0636,-0.1098,-0.0455,5.0,-34.06,15.31,70.56,-81.99,-144.62
52415,52.025673,-0.727612,126.74,20.77,3,266.28,19 / 19,5241511,2020-01-08 11:43:08:185,-0.9977,5.5744,9.434,-0.0329,0.0014,9.8065,-0.1231,-0.5364,0.4557,4.94,-34.62,15.81,65.11,-82.27,-147.32
52416,52.025673,-0.727612,126.74,20.77,3,266.28,19 / 19,5241611,2020-01-08 11:43:08:285,5.0478,0.8161,7.9823,-0.0338,0.0588,9.8064,0.1781,-0.1935,0.1232,5.0,-34.31,15.69,65.66,-82.33,-146.27
52417,52.025673,-0.727612,126.74,20.77,3,266.28,19 / 19,5241711,2020-01-08 11:43:08:385,-0.417,3.6656,10.5712,-0.0391,0.0,9.8065,0.147,-0.5116,0.332,4.88,-34.37,16.0,67.02,-82.23,-145.27
52418,52.025673,-0.727612,126.74,20.77,3,266.28,19 / 19,5241811,2020-01-08 11:43:08:485,3.0231,0.7525,9.9801,-0.0778,-0.0103,9.8062,-0.135,0.1551,0.1281,5.06,-34.69,15.56,67.64,-82.26,-145.09
52419,52.025673,-0.727612,126.74,20.77,3,266.28,19 / 19,5241911,2020-01-08 11:43:08:585,0.6405,1.4938,11.6142,0.011,0.0484,9.8064,-0.0469,-0.1691,0.0924,4.69,-34.37,16.31,66.9,-82.39,-145.05
52420,52.025673,-0.727612,126.74,20.77,3,266.28,19 / 19,5242011,2020-01-08 11:43:08:685,2.6674,0.8494,10.1405,-0.0207,0.0052,9.8066,-0.1361,-0.0565,0.1361,4.81,-34.25,16.56,66.67,-82.37,-143.53
52421,52.025673,-0.727612,126.74,20.77,3,266.28,19 / 19,5242110,2020-01-08 11:43:08:784,0.8805,1.7173,8.4491,0.0076,0.0352,9.8066,-0.0893,-0.2541,0.0791,4.88,-34.94,15.81,67.98,-82.29,-144.72
52422,52.025673,-0.727612,126.74,20.77,3,266.28,19 / 19,5242211,2020-01-08 11:43:08:885,1.3641,2.3023,10.0564,-0.0126,0.0421,9.8065,-0.0019,0.3375,-0.1141,4.75,-34.69,15.88,70.2,-82.44,-142.41
52423,52.025673,-0.727612,126.74,20.77,3,266.28,19 / 19,5242310,2020-01-08 11:43:08:984,3.5175,0.1641,9.6577,0.0207,-0.023,9.8066,-0.018,-0.0425,-0.0512,4.56,-34.69,15.81,68.51,-82.6,-143.61
52424,52.025673,-0.727612,126.74,20.77,3,266.28,19 / 19,5242411,2020-01-08 11:43:09:085,0.2103,2.4087,10.9021,-0.0225,0.0064,9.8066,-0.0853,0.297,-0.0855,4.75,-34.25,15.94,69.82,-82.38,-142.42
52425,52.025673,-0.727612,126.74,20.77,3,266.28,19 / 19,5242511,2020-01-08 11:43:09:185,3.6708,0.212,8.97,0.019,0.0299,9.8065,-0.1089,0.5455,-0.1887,4.69,-34.94,16.69,68.63,-82.44,-142.04
52426,52.025673,-0.727612,126.74,20.77,3,266.28,19 / 19,5242611,2020-01-08 11:43:09:285,2.1797,1.8633,10.0964,0.076,0.0109,9.8063,-0.0593,0.0615,-0.3576,4.38,-34.81,16.5,66.03,-82.68,-140.98
52427,52.025673,-0.727612,126.74,20.77,3,266.28,19 / 19,5242711,2020-01-08 11:43:09:385,0.5958,3.1219,9.5998,0.0221,-0.0349,9.8065,0.058,-0.0204,0.1886,4.81,-34.44,16.13,72.35,-82.59,-139.69
52428,52.025673,-0.727612,126.74,20.77,3,266.28,19 / 19,5242811,2020-01-08 11:43:09:485,2.6276,2.6888,11.3996,-0.0297,0.0205,9.8066,0.2142,0.1324,0.1533,4.06,-35.25,16.56,68.17,-82.82,-138.76
52429,52.025673,-0.727612,126.74,20.77,3,266.28,19 / 19,5242911,2020-01-08 11:43:09:585,5.6048,-0.471,10.8506,0.0088,-0.0938,9.8061,0.1886,0.3203,-0.3482,4.06,-34.12,17.13,63.67,-82.83,-142.4
52430,52.025673,-0.727612,126.74,20.77,3,266.28,19 / 19,5243011,2020-01-08 11:43:09:685,0.5402,3.4598,8.3286,0.0274,-0.0448,9.8065,0.1198,0.2143,-0.1099,4.31,-34.44,16.63,65.3,-82.8,-141.01
52431,52.025673,-0.727612,126.74,20.77,3,266.28,19 / 19,5243111,2020-01-08 11:43:09:785,1.0666,3.006,8.2914,0.0218,-0.0184,9.8065,-0.001,0.1398,-0.1601,4.56,-34.5,17.0,71.14,-82.8,-138.64
52432,52.025673,-0.727612,126.74,20.77,3,266.28,19 / 20,5243211,2020-01-08 11:43:09:885,2.6055,1.6064,10.0746,0.0203,0.0515,9.8065,0.1952,0.1593,-0.2531,4.5,-34.56,16.38,75.06,-82.99,-136.74
52433,52.025673,-0.727612,126.74,20.77,3,266.28,19 / 20,5243310,2020-01-08 11:43:09:984,3.0836,0.8937,8.3547,0.0021,-0.0334,9.8066,-0.0063,0.1699,0.0419,4.5,-34.37,16.5,71.0,-83.28,-137.85
52434,52.025673,-0.727612,126.74,20.77,3,266.28,19 / 20,5243411,2020-01-08 11:43:10:085,0.3163,2.6095,11.3554,0.041,0.0205,9.8065,0.1547,0.0552,0.0431,4.56,-34.37,17.25,68.58,-83.53,-139.61
52435,52.025673,-0.727612,126.74,20.77,3,266.28,19 / 20,5243511,2020-01-08 11:43:10:185,5.7244,3.0289,7.0102,-0.0606,-0.0378,9.8064,-0.1101,0.4096,-0.2808,4.88,-34.56,17.38,67.16,-83.31,-141.69
52436,52.025673,-0.727612,126.74,20.77,3,266.28,19 / 20,5243611,2020-01-08 11:43:10:285,2.0663,1.6161,11.3336,-0.0144,0.0758,9.8063,0.2819,0.2425,-0.129,5.56,-34.44,18.69,67.08,-83.57,-140.76
52437,52.025673,-0.727612,126.74,20.77,3,266.28,19 / 20,5243711,2020-01-08 11:43:10:385,3.522,-0.2653,8.4341,-0.0442,-0.006,9.8065,-0.0732,0.3019,-0.1411,3.88,-34.25,18.44,61.01,-83.37,-142.47
52438,52.025673,-0.727612,126.74,20.77,3,266.28,19 / 20,5243811,2020-01-08 11:43:10:485,0.564,2.6555,8.3554,-0.0243,0.0547,9.8064,0.229,0.5108,-0.128,4.5,-34.44,17.81,63.8,-83.39,-142.77
52439,52.025673,-0.727612,126.74,20.77,3,266.28,19 / 20,5243911,2020-01-08 11:43:10:585,2.6845,3.3014,8.1496,-0.0503,0.0345,9.8064,0.0187,0.4792,-0.4018,4.56,-35.37,18.63,67.49,-83.38,-138.39
52440,52.025673,-0.727612,126.74,20.77,3,266.28,19 / 20,5244010,2020-01-08 11:43:10:684,0.6837,2.8721,7.6923,0.0269,-0.0309,9.8065,0.0423,0.1403,-0.2477,4.88,-34.62,19.25,66.51,-83.69,-138.76
52441,52.025673,-0.727612,126.74,20.77,3,266.28,19 / 20,5244111,2020-01-08 11:43:10:785,3.1789,1.224,11.3154,-0.006,0.0196,9.8065,0.1516,0.2168,0.0967,5.0,-34.56,18.5,65.76,-83.74,-139.37
52442,52.025673,-0.727612,126.74,20.77,3,266.28,19 / 20,5244210,2020-01-08 11:43:10:884,2.5636,5.8744,8.2601,0.001,-0.0429,9.8065,0.3162,0.0282,0.2534,5.13,-33.62,19.5,60.54,-83.74,-142.7
52443,52.025673,-0.727612,126.74,20.77,3,266.28,19 / 19,5244311,2020-01-08 11:43:10:985,4.9057,-0.8544,10.5606,0.0189,-0.0629,9.8064,0.4,0.2544,-0.4636,4.25,-34.25,20.44,56.66,-83.64,-143.72
52444,52.025673,-0.727612,126.74,20.77,3,266.28,19 / 19,5244410,2020-01-08 11:43:11:084,5.5166,-0.2145,6.7128,0.0805,-0.0697,9.806,-0.3952,-0.1132,0.3549,4.25,-33.81,20.25,51.38,-83.68,-148.37
52445,52.025673,-0.727612,126.74,20.77,3,266.28,19 / 19,5244511,2020-01-08 11:43:11:185,9.2967,-1.1468,9.5342,0.0855,0.0147,9.8063,0.0834,0.9841,-0.2968,5.06,-34.62,20.19,58.67,-84.35,-143.72
52446,52.025673,-0.727612,126.74,20.77,3,266.28,19 / 19,5244611,2020-01-08 11:43:11:285,-0.2823,4.3479,9.4806,0.0923,-0.0192,9.8061,0.0479,0.5748,-0.2136,4.5,-33.81,20.75,58.53,-84.6,-142.27
52447,52.025673,-0.727612,126.74,20.77,3,266.28,19 / 19,5244710,2020-01-08 11:43:11:384,3.0513,0.9935,9.3988,0.0692,-0.0479,9.8063,0.1784,0.8255,-0.5219,4.25,-33.81,20.88,55.92,-84.59,-142.13
52448,52.025673,-0.727612,126.74,20.77,3,266.28,19 / 19,5244811,2020-01-08 11:43:11:485,-0.2717,1.2582,9.8111,0.0505,-0.0502,9.8064,0.0156,0.2865,-0.0106,3.88,-33.75,21.88,54.95,-84.31,-142.6
52449,52.025673,-0.727612,126.74,20.77,3,266.28,19 / 19,5244910,2020-01-08 11:43:11:584,6.2113,-1.5534,9.2553,-0.0147,0.0136,9.8066,0.0379,0.7443,-0.2455,3.06,-33.62,22.13,53.98,-84.11,-141.25
52450,52.025673,-0.727612,126.74,20.77,3,266.28,19 / 19,5245011,2020-01-08 11:43:11:685,3.286,0.2223,9.2295,0.0658,0.0171,9.8063,-0.0161,0.0033,0.0749,3.31,-33.81,22.19,57.0,-84.34,-138.19
52451,52.025673,-0.727612,126.74,20.77,3,266.28,19 / 19,5245111,2020-01-08 11:43:11:785,0.7032,0.8472,10.2687,-0.0012,0.0278,9.8065,-0.1227,0.2634,-0.0671,3.25,-33.75,23.13,58.98,-84.45,-135.56
52452,52.025673,-0.727612,126.74,20.77,3,266.28,19 / 20,5245211,2020-01-08 11:43:11:885,1.9409,0.5727,10.4261,0.0193,0.0233,9.8065,0.1214,0.2675,-0.0559,3.13,-33.44,23.13,60.04,-84.75,-133.99
52453,52.025673,-0.727612,126.74,20.77,3,266.28,19 / 20,5245311,2020-01-08 11:43:11:985,3.455,-1.1272,10.5516,0.0249,-0.0593,9.8064,0.1418,0.277,-0.1986,3.31,-33.87,23.06,58.98,-84.87,-135.02
52454,52.025673,-0.727612,126.74,20.77,3,266.28,19 / 20,5245411,2020-01-08 11:43:12:085,3.0903,1.834,6.9311,0.0431,-0.0335,9.8065,0.2211,0.0162,0.1808,2.81,-33.44,23.94,52.61,-85.12,-139.93
52455,52.025673,-0.727612,126.74,20.77,3,266.28,19 / 20,5245511,2020-01-08 11:43:12:185,7.4969,-1.65,10.2388,-0.0263,-0.0366,9.8065,0.2702,0.5957,-0.3184,3.25,-33.87,23.94,53.71,-85.43,-138.7
52456,52.025673,-0.727612,126.74,20.77,3,266.28,19 / 20,5245610,2020-01-08 11:43:12:284,-0.9004,3.6285,8.826,0.0857,-0.0513,9.8061,-0.0422,-0.1452,0.0852,3.06,-34.06,23.88,51.67,-85.43,-140.6
52457,52.025673,-0.727612,126.74,20.77,3,266.28,19 / 20,5245710,2020-01-08 11:43:12:384,2.2387,0.7172,11.9506,-0.0175,0.0197,9.8066,0.2078,0.3023,0.0411,2.38,-33.31,24.56,54.02,-85.18,-135.79
52458,52.025673,-0.727612,126.74,20.77,3,266.28,19 / 20,5245810,2020-01-08 11:43:12:484,4.0807,0.1955,8.7697,0.0832,-0.0177,9.8062,-0.0283,-0.1447,0.3201,2.06,-33.56,25.31,53.7,-84.94,-136.53
52459,52.025673,-0.727612,126.74,20.77,3,266.28,19 / 20,5245911,2020-01-08 11:43:12:585,2.1868,0.2204,9.6982,-0.009,0.02,9.8066,0.1633,0.0751,-0.0863,2.5,-33.62,25.94,52.69,-85.04,-139.13
52460,52.025673,-0.727612,126.74,20.77,3,266.28,19 / 20,5246011,2020-01-08 11:43:12:685,3.1825,-0.5918,10.0558,0.018,-0.0099,9.8066,-0.2038,0.0855,0.0229,2.38,-33.87,25.81,49.38,-85.06,-140.03
52461,52.025673,-0.727612,126.74,20.77,3,266.28,19 / 20,5246111,2020-01-08 11:43:12:785,2.4324,-0.4581,11.0397,-0.0072,-0.0047,9.8065,0.0345,0.1518,0.0269,1.44,-33.0,25.56,45.86,-85.44,-140.59
52462,52.025673,-0.727612,126.74,20.77,3,266.28,19 / 20,5246211,2020-01-08 11:43:12:885,1.2915,0.9799,10.3202,0.0246,0.0007,9.8066,-0.0043,0.4038,-0.0601,2.0,-33.31,26.88,43.99,-85.55,-144.1
52463,52.025673,-0.727612,126.74,20.77,3,266.28,19 / 20,5246310,2020-01-08 11:43:12:984,4.0205,-0.269,10.2545,0.0307,-0.0169,9.8065,0.0353,0.4201,-0.2463,2.0,-33.06,27.25,37.89,-85.6,-149.73
52464,52.025673,-0.727612,126.74,20.77,3,266.28,19 / 20,5246411,2020-01-08 11:43:13:085,1.4252,-0.7752,9.1475,0.0363,-0.0294,9.8064,0.0989,0.3987,-0.2419,1.69,-33.19,28.0,35.06,-85.41,-152.21
52465,52.025673,-0.727612,126.74,20.77,3,266.28,19 / 20,5246511,2020-01-08 11:43:13:185,0.7742,1.1259,9.3255,0.0551,-0.0059,9.8064,-0.0101,0.2472,-0.1019,1.5,-33.0,28.06,30.57,-85.47,-156.31
52466,52.025673,-0.727612,126.74,20.77,3,266.28,19 / 20,5246611,2020-01-08 11:43:13:285,1.8687,0.6135,9.2621,0.0276,0.0446,9.8065,0.1048,0.4825,-0.2253,1.38,-33.0,28.06,29.8,-85.96,-154.67
52467,52.025673,-0.727612,126.74,20.77,3,266.28,19 / 20,5246710,2020-01-08 11:43:13:384,4.3615,-0.2627,10.5524,0.0346,-0.0111,9.8065,0.042,0.3655,-0.1906,1.56,-33.12,28.31,29.1,-86.2,-157.21
52468,52.025673,-0.727612,126.74,20.77,3,266.28,19 / 20,5246810,2020-01-08 11:43:13:484,2.7262,1.3226,9.9038,0.0269,-0.003,9.8065,0.0735,0.352,-0.2211,1.0,-33.06,28.25,25.1,-86.48,-158.75
52469,52.025673,-0.727612,126.74,20.77,3,266.28,19 / 20,5246911,2020-01-08 11:43:13:585,3.1118,-0.621,11.3481,0.0574,-0.0415,9.8063,0.1957,0.3315,-0.1771,1.44,-33.06,28.94,22.3,-86.62,-161.16
52470,52.025673,-0.727612,126.74,20.77,3,266.28,19 / 20,5247011,2020-01-08 11:43:13:685,0.2336,0.1655,9.0774,0.0336,-0.0645,9.8063,0.0012,0.1346,-0.0009,0.56,-32.37,29.06,11.42,-86.19,-171.41
52471,52.025673,-0.727612,126.74,20.77,3,266.28,19 / 20,5247111,2020-01-08 11:43:13:785,1.5071,-1.6644,10.671,-0.0017,0.0041,9.8066,0.1508,0.2813,-0.1492,0.81,-32.87,29.38,12.64,-86.16,-170.32
52472,52.025673,-0.727612,126.74,20.77,3,266.28,19 / 20,5247211,2020-01-08 11:43:13:885,-2.9002,0.5688,8.8395,0.0441,-0.0025,9.8065,-0.234,-0.0792,0.0639,0.75,-32.5,29.44,11.5,-86.36,-171.3
52473,52.025673,-0.727612,126.74,20.77,3,266.28,18 / 20,5247311,2020-01-08 11:43:13:985,-1.143,2.0671,9.8199,-0.011,0.0456,9.8065,-0.0027,0.2639,-0.0988,1.06,-33.19,28.63,13.11,-86.86,-169.7
52474,52.025673,-0.727612,126.74,20.77,3,266.28,18 / 20,5247410,2020-01-08 11:43:14:084,-4.4381,2.5023,9.1191,0.0415,-0.0311,9.8064,-0.0654,-0.2919,0.2292,1.19,-33.25,28.81,10.79,-87.15,-171.81
52475,52.025673,-0.727612,126.74,20.77,3,266.28,18 / 20,5247510,2020-01-08 11:43:14:184,3.0721,-0.9727,11.3541,-0.011,-0.0121,9.8066,0.182,0.2441,-0.2081,1.44,-32.81,28.69,11.16,-87.13,-171.46
52476,52.025673,-0.727612,126.74,20.77,3,266.28,18 / 20,5247611,2020-01-08 11:43:14:285,-6.024,2.2148,8.8843,0.0764,-0.0589,9.8061,-0.1938,-0.4865,0.2912,1.56,-33.06,29.19,6.54,-86.79,-177.83
52477,52.025673,-0.727612,126.74,20.77,3,266.28,18 / 20,5247711,2020-01-08 11:43:14:385,0.7688,0.4342,11.0291,-0.048,0.0587,9.8063,-0.0635,-0.0696,-0.0499,1.63,-33.06,29.38,7.15,-86.65,-177.28
52478,52.025673,-0.727612,126.74,20.77,3,266.28,18 / 20,5247811,2020-01-08 11:43:14:485,-5.7262,1.2762,9.9682,0.0153,0.0065,9.8066,-0.1025,-0.3533,0.1457,1.31,-32.56,28.88,11.26,-86.8,-171.44
52479,52.025673,-0.727612,126.74,20.77,3,266.28,18 / 20,5247911,2020-01-08 11:43:14:585,-1.6137,-0.1226,9.3514,-0.0148,0.0023,9.8065,-0.0574,-0.0276,-0.0623,1.31,-32.69,28.38,14.48,-86.72,-168.56
52480,52.025673,-0.727612,126.74,20.77,3,266.28,18 / 20,5248011,2020-01-08 11:43:14:685,-2.644,1.5025,8.4115,0.0252,-0.0002,9.8065,0.0979,-0.4228,0.1389,2.0,-32.81,28.19,16.19,-86.84,-168.96
52481,52.025673,-0.727612,126.74,20.77,3,266.28,18 / 20,5248111,2020-01-08 11:43:14:785,-3.6639,0.8623,10.718,-0.0054,-0.0125,9.8066,0.1159,-0.2557,-0.0734,2.38,-32.56,27.25,20.06,-86.88,-165.51
52482,52.025673,-0.727612,126.74,20.77,3,266.28,18 / 21,5248211,2020-01-08 11:43:14:885,-6.6481,2.456,9.3977,0.0102,-0.0374,9.8065,-0.0084,-0.6186,0.1876,3.0,-33.44,27.06,23.78,-86.83,-164.15
52483,52.025345,-0.729326,127.92,9.09,4,227.35,18 / 21,5248311,2020-01-08 11:43:14:985,-1.8362,0.6259,9.7444,-0.0428,-0.0101,9.8065,0.0521,-0.3878,0.0276,3.5,-33.31,25.81,26.4,-86.86,-164.13
52484,52.025345,-0.729326,127.92,9.09,4,227.35,18 / 21,5248411,2020-01-08 11:43:15:085,-2.9332,1.5763,9.2613,-0.0082,-0.0254,9.8066,0.1064,-0.5763,0.1168,3.63,-32.5,25.13,28.99,-86.58,-162.24
52485,52.025345,-0.729326,127.92,9.09,4,227.35,18 / 21,5248511,2020-01-08 11:43:15:185,-4.1498,0.4962,11.3711,-0.0056,-0.0268,9.8065,0.1322,-0.4224,0.0006,3.81,-32.81,24.56,31.72,-86.4,-159.88
52486,52.025345,-0.729326,127.92,9.09,4,227.35,18 / 21,5248611,2020-01-08 11:43:15:285,-5.8752,3.1155,8.5394,0.01,-0.044,9.8065,-0.116,-0.4156,0.0805,3.94,-32.44,24.31,32.13,-86.36,-159.93
52487,52.025345,-0.729326,127.92,9.09,4,227.35,18 / 21,5248710,2020-01-08 11:43:15:384,-2.7419,0.8383,9.6015,0.0061,0.0462,9.8065,-0.0625,-0.3401,-0.0856,3.88,-33.25,23.06,35.54,-86.43,-157.31
52488,52.025345,-0.729326,127.92,9.09,4,227.35,18 / 21,5248811,2020-01-08 11:43:15:485,-6.1554,2.1897,11.5424,0.0146,0.0215,9.8065,-0.1279,-0.4306,-0.0209,4.94,-33.56,22.38,44.77,-86.66,-151.63
52489,52.025345,-0.729326,127.92,9.09,4,227.35,18 / 21,5248911,2020-01-08 11:43:15:585,-3.9237,1.9023,8.6549,0.024,-0.0158,9.8065,-0.0701,-0.2664,-0.1195,4.94,-33.37,21.69,47.06,-86.59,-149.45
52490,52.025345,-0.729326,127.92,9.09,4,227.35,18 / 21,5249010,2020-01-08 11:43:15:684,-7.52,4.0379,9.0546,0.0331,-0.0268,9.8065,0.1494,-0.3815,-0.0823,5.13,-33.25,19.88,44.85,-86.51,-153.18
52491,52.025345,-0.729326,127.92,9.09,4,227.35,18 / 21,5249111,2020-01-08 11:43:15:785,-3.2061,0.1868,10.9867,0.0043,-0.032,9.8065,0.1775,-0.2462,-0.1857,5.75,-34.31,19.06,53.4,-86.34,-149.21
52492,52.025345,-0.729326,127.92,9.09,4,227.35,18 / 21,5249212,2020-01-08 11:43:15:886,-2.2948,1.2365,9.6619,0.0194,-0.0547,9.8064,-0.0372,-0.2894,-0.0382,5.56,-34.0,17.69,52.67,-86.3,-151.1
52493,52.025345,-0.729326,127.92,9.09,4,227.35,19 / 20,5249311,2020-01-08 11:43:15:985,-3.162,2.796,9.7481,0.058,0.001,9.8064,-0.0876,-0.2004,-0.2925,5.25,-33.75,16.31,54.13,-86.62,-148.85
52494,52.025345,-0.729326,127.92,9.09,4,227.35,19 / 20,5249411,2020-01-08 11:43:16:085,-5.7987,3.9398,10.5258,0.0217,0.0131,9.8066,0.0872,-0.5038,-0.0792,6.19,-33.62,15.44,64.7,-86.45,-143.92
52495,52.025345,-0.729326,127.92,9.09,4,227.35,19 / 20,5249511,2020-01-08 11:43:16:185,-3.0265,1.5187,10.3258,-0.01,-0.0326,9.8065,0.0346,-0.3058,-0.0111,5.38,-34.0,14.56,58.37,-86.16,-147.17
52496,52.025345,-0.729326,127.92,9.09,4,227.35,19 / 20,5249611,2020-01-08 11:43:16:285,-3.5976,1.0785,9.585,0.0411,-0.0569,9.8063,-0.014,-0.709,0.1716,6.0,-34.12,14.19,55.68,-86.08,-154.83
52497,52.025345,-0.729326,127.92,9.09,4,227.35,19 / 20,5249710,2020-01-08 11:43:16:384,-1.6868,0.8054,11.1142,-0.0162,0.0156,9.8066,0.0283,-0.3253,-0.064,5.88,-33.69,12.56,60.61,-85.91,-152.73
52498,52.025345,-0.729326,127.92,9.09,4,227.35,19 / 20,5249811,2020-01-08 11:43:16:485,-6.8063,4.2381,11.272,0.016,-0.0192,9.8065,-0.0844,-0.821,0.261,5.0,-34.94,11.5,61.15,-85.75,-151.62
52499,52.025345,-0.729326,127.92,9.09,4,227.35,19 / 20,5249910,2020-01-08 11:43:16:584,-2.03,-0.0497,8.6427,-0.0102,0.0274,9.8066,-0.1437,-0.2457,-0.1521,5.63,-34.12,10.44,69.76,-85.56,-153.52
52500,52.025345,-0.729326,127.92,9.09,4,227.35,19 / 20,5250011,2020-01-08 11:43:16:685,-4.2427,3.0589,10.7614,0.0379,-0.0054,9.8065,0.059,-0.7633,0.2207,5.5,-34.69,9.88,70.44,-85.53,-153.34
52501,52.025345,-0.729326,127.92,9.09,4,227.35,19 / 20,5250111,2020-01-08 11:43:16:785,-1.9617,2.175,10.1994,-0.058,-0.0126,9.8064,0.0489,-0.352,-0.0363,5.06,-34.94,8.88,71.15,-85.3,-153.28
52502,52.025345,-0.729326,127.92,9.09,4,227.35,18 / 20,5250212,2020-01-08 11:43:16:886,-0.9857,1.8413,8.8217,0.0251,-0.0178,9.8065,0.124,-0.672,0.0786,4.81,-34.5,7.81,76.34,-85.15,-152.99
52503,52.025345,-0.729326,127.92,9.09,4,227.35,18 / 20,5250311,2020-01-08 11:43:16:985,-3.5286,2.3705,10.7615,-0.0308,-0.0167,9.8065,0.1312,-0.5671,0.0245,4.31,-34.69,7.44,76.73,-85.36,-153.1
52504,52.025345,-0.729326,127.92,9.09,4,227.35,18 / 20,5250410,2020-01-08 11:43:17:084,-3.1399,0.4206,10.3603,-0.0392,-0.0223,9.8065,-0.0496,-0.4122,-0.0085,4.56,-34.5,6.81,81.02,-85.14,-153.94
52505,52.025345,-0.729326,127.92,9.09,4,227.35,18 / 20,5250511,2020-01-08 11:43:17:185,-1.9633,1.0224,10.2918,-0.0147,-0.0087,9.8066,0.0919,-0.4238,0.0819,3.69,-34.25,6.13,79.93,-85.32,-156.14
52506,52.025345,-0.729326,127.92,9.09,4,227.35,18 / 20,5250611,2020-01-08 11:43:17:285,1.1645,-1.5443,9.525,-0.0352,-0.032,9.8065,0.1203,-0.3709,0.0171,4.25,-34.19,6.44,76.78,-85.01,-160.56
52507,52.025345,-0.729326,127.92,9.09,4,227.35,18 / 20,5250712,2020-01-08 11:43:17:386,-1.7965,1.2919,10.1866,-0.0466,0.0025,9.8065,0.178,-0.3885,0.1804,4.25,-34.06,6.38,77.17,-84.42,-163.25
52508,52.025345,-0.729326,127.92,9.09,4,227.35,18 / 20,5250811,2020-01-08 11:43:17:485,-0.2692,-0.1643,11.0353,-0.035,0.0064,9.8065,-0.175,-0.014,-0.1263,4.19,-34.81,5.69,78.02,-84.2,-164.57
52509,52.025345,-0.729326,127.92,9.09,4,227.35,18 / 20,5250911,2020-01-08 11:43:17:585,-1.2613,1.0026,10.0368,0.0551,0.0267,9.8064,-0.2046,-0.2596,0.2361,3.94,-34.69,6.31,76.55,-84.53,-164.09
52510,52.025345,-0.729326,127.92,9.09,4,227.35,18 / 20,5251010,2020-01-08 11:43:17:684,2.1743,-3.8406,11.2351,0.0043,0.082,9.8063,-0.0541,0.0912,0.0773,3.81,-35.19,5.31,88.46,-84.56,-161.55
52511,52.025345,-0.729326,127.92,9.09,4,227.35,18 / 20,5251111,2020-01-08 11:43:17:785,0.004,-0.1461,9.1369,0.0023,0.0396,9.8065,-0.24,-0.1569,0.2218,3.81,-35.44,5.63,83.16,-84.44,-158.54
52512,52.025345,-0.729326,127.92,9.09,4,227.35,18 / 20,5251211,2020-01-08 11:43:17:885,-0.4402,-1.7292,10.5529,0.0228,0.0696,9.8064,0.0997,0.1379,-0.051,3.25,-34.31,6.06,78.6,-84.4,-157.14
52513,52.025345,-0.729326,127.92,9.09,4,227.35,20 / 21,5251312,2020-01-08 11:43:17:986,0.2224,1.1929,8.7687,-0.0384,0.0233,9.8065,-0.12,-0.2036,0.2676,3.75,-34.87,5.94,85.5,-84.19,-157.72
52514,52.025345,-0.729326,127.92,9.09,4,227.35,20 / 21,5251411,2020-01-08 11:43:18:085,0.5084,-4.4595,11.1529,0.0339,0.0713,9.8063,0.1834,0.099,-0.0079,3.38,-34.44,6.75,76.34,-83.93,-154.41
52515,52.025345,-0.729326,127.92,9.09,4,227.35,20 / 21,5251510,2020-01-08 11:43:18:184,-0.2332,-3.4112,9.9045,-0.0073,0.0,9.8066,-0.1583,0.0638,0.0243,4.25,-35.19,7.06,80.78,-83.86,-156.48
52516,52.025345,-0.729326,127.92,9.09,4,227.35,20 / 21,5251611,2020-01-08 11:43:18:285,1.3075,-2.4614,10.419,0.0327,0.0291,9.8065,0.0352,0.097,0.0766,3.88,-34.75,6.56,81.61,-84.07,-154.67
52517,52.025345,-0.729326,127.92,9.09,4,227.35,20 / 21,5251711,2020-01-08 11:43:18:385,0.1097,-0.6967,7.5721,0.0283,-0.0073,9.8066,-0.099,-0.0326,0.2133,4.38,-34.87,7.19,83.66,-84.3,-151.63
52518,52.025345,-0.729326,127.92,9.09,4,227.35,20 / 21,5251811,2020-01-08 11:43:18:485,0.5997,-3.0791,12.2253,0.0323,0.0517,9.8064,0.1079,0.0438,0.0517,3.25,-35.69,7.19,83.66,-84.27,-147.67
52519,52.025345,-0.729326,127.92,9.09,4,227.35,20 / 21,5251911,2020-01-08 11:43:18:585,1.5563,-0.1957,7.3258,-0.0305,-0.033,9.8065,-0.2914,0.1142,0.0941,3.88,-34.31,7.63,83.28,-84.07,-146.4
52520,52.025345,-0.729326,127.92,9.09,4,227.35,20 / 21,5252011,2020-01-08 11:43:18:685,0.2668,-1.4632,8.4619,-0.0122,0.0212,9.8066,-0.1782,0.0848,0.0056,3.75,-35.25,7.25,92.38,-84.11,-143.93
52521,52.025345,-0.729326,127.92,9.09,4,227.35,20 / 21,5252111,2020-01-08 11:43:18:785,0.1854,-1.3378,10.656,-0.0276,-0.0028,9.8065,-0.0859,0.3605,-0.0651,3.94,-34.69,7.81,88.14,-84.22,-141.77
52522,52.025345,-0.729326,127.92,9.09,4,227.35,20 / 21,5252210,2020-01-08 11:43:18:884,0.1584,-1.9986,8.6346,-0.0355,-0.0095,9.8065,-0.1207,0.3282,-0.063,3.69,-35.31,7.19,97.26,-84.03,-139.2
52523,52.025345,-0.729326,127.92,9.09,4,227.35,21 / 21,5252311,2020-01-08 11:43:18:985,-0.6174,-0.9356,10.7619,-0.0177,0.0598,9.8064,0.1495,0.3971,-0.1202,3.81,-35.94,7.81,97.58,-83.9,-134.18
52524,52.025345,-0.729326,127.92,9.09,4,227.35,21 / 21,5252411,2020-01-08 11:43:19:085,1.9617,-2.342,8.7771,-0.0682,0.0448,9.8063,-0.0218,0.6089,-0.3259,2.81,-35.5,7.75,93.64,-83.67,-133.85
52525,52.025345,-0.729326,127.92,9.09,4,227.35,21 / 21,5252510,2020-01-08 11:43:19:184,-1.7405,0.8178,8.942,-0.0103,0.0293,9.8065,-0.0238,-0.2145,0.0441,3.44,-35.06,8.25,93.3,-83.73,-133.93
52526,52.025345,-0.729326,127.92,9.09,4,227.35,21 / 21,5252611,2020-01-08 11:43:19:285,0.0144,-3.8363,10.0139,-0.0407,0.0331,9.8065,-0.1752,0.2554,-0.4166,3.56,-35.56,8.31,101.32,-83.59,-131.5
52527,52.025345,-0.729326,127.92,9.09,4,227.35,21 / 21,5252711,2020-01-08 11:43:19:385,-1.8846,0.7317,11.7208,0.0807,-0.043,9.8062,0.2308,-0.0908,-0.0775,3.38,-35.06,8.75,87.8,-84.21,-132.59
52528,52.025345,-0.729326,127.92,9.09,4,227.35,21 / 21,5252810,2020-01-08 11:43:19:484,1.363,-2.3408,11.0347,0.0196,-0.083,9.8062,-0.0447,0.0419,-0.1038,2.5,-34.81,7.94,97.23,-83.76,-129.67
52529,52.025345,-0.729326,127.92,9.09,4,227.35,21 / 21,5252911,2020-01-08 11:43:19:585,-1.0062,-2.0245,12.0988,-0.0299,0.007,9.8066,0.3987,0.3647,0.0121,3.0,-34.44,8.75,88.14,-83.7,-133.62
52530,52.025345,-0.729326,127.92,9.09,4,227.35,21 / 21,5253010,2020-01-08 11:43:19:684,2.2905,-5.1745,10.4265,-0.0405,-0.0931,9.806,0.166,0.4233,-0.443,3.75,-34.75,9.5,87.79,-83.68,-135.1
52531,52.025345,-0.729326,127.92,9.09,4,227.35,21 / 21,5253111,2020-01-08 11:43:19:785,-1.4471,3.6484,7.9714,0.0217,-0.0814,9.8062,0.1404,0.1651,-0.2886,3.56,-35.62,8.31,96.16,-83.42,-137.87
52532,52.025345,-0.729326,127.92,9.09,4,227.35,21 / 21,5253211,2020-01-08 11:43:19:885,1.0102,-2.5624,10.8739,-0.0223,-0.0117,9.8066,0.221,0.4218,-0.0715,3.69,-34.75,8.5,94.12,-83.26,-134.57
52533,52.025345,-0.729326,127.92,9.09,4,227.35,21 / 21,5253311,2020-01-08 11:43:19:985,-1.7947,0.437,10.7827,0.0073,-0.0547,9.8065,-0.0639,0.1773,-0.1025,3.38,-35.12,8.69,88.77,-83.13,-136.04
52534,52.025345,-0.729326,127.92,9.09,4,227.35,21 / 21,5253410,2020-01-08 11:43:20:084,1.3158,-0.7176,8.9488,0.047,-0.0223,9.8065,-0.1098,0.084,-0.0898,3.69,-35.06,9.06,95.18,-82.75,-135.49
52535,52.025345,-0.729326,127.92,9.09,4,227.35,21 / 21,5253511,2020-01-08 11:43:20:185,0.6127,-1.1445,9.2604,-0.0041,0.0304,9.8065,-0.0296,0.1133,0.1132,3.94,-35.44,9.5,89.36,-82.98,-136.04
52536,52.025345,-0.729326,127.92,9.09,4,227.35,21 / 21,5253610,2020-01-08 11:43:20:284,0.8432,-1.507,9.0545,0.0177,-0.0006,9.8066,-0.0814,0.0405,-0.1225,3.88,-35.25,9.56,88.32,-83.21,-136.23
52537,52.025345,-0.729326,127.92,9.09,4,227.35,21 / 21,5253711,2020-01-08 11:43:20:385,0.3958,-1.4436,9.7292,-0.0161,0.0024,9.8066,-0.0556,0.0871,-0.0389,3.63,-35.25,9.31,93.51,-83.34,-134.9
52538,52.025345,-0.729326,127.92,9.09,4,227.35,21 / 21,5253811,2020-01-08 11:43:20:485,0.8563,-0.2553,8.0147,0.0145,-0.0111,9.8066,-0.142,-0.1558,0.0929,3.69,-35.69,9.13,94.28,-83.31,-134.95
52539,52.025345,-0.729326,127.92,9.09,4,227.35,21 / 21,5253911,2020-01-08 11:43:20:585,1.3978,-1.2713,10.1328,-0.0076,-0.0405,9.8065,-0.1041,-0.0498,0.0755,3.81,-35.44,9.5,90.79,-83.29,-133.49
52540,52.025345,-0.729326,127.92,9.09,4,227.35,21 / 21,5254011,2020-01-08 11:43:20:685,0.0848,3.6716,8.6862,0.0064,-0.0705,9.8064,-0.2251,-0.2847,0.2514,3.44,-35.56,10.19,85.08,-83.26,-135.6
52541,52.025345,-0.729326,127.92,9.09,4,227.35,21 / 21,5254111,2020-01-08 11:43:20:785,1.6999,-2.7153,10.4884,-0.0023,-0.0592,9.8064,-0.0879,0.0785,0.0651,3.94,-35.75,9.63,91.09,-83.18,-134.26
52542,52.025345,-0.729326,127.92,9.09,4,227.35,21 / 22,5254211,2020-01-08 11:43:20:885,1.6103,0.005,8.4152,0.0007,-0.0279,9.8065,-0.1736,-0.1396,0.0654,3.44,-35.5,10.06,83.61,-83.16,-136.7
52543,52.025345,-0.729326,127.92,9.09,4,227.35,21 / 22,5254311,2020-01-08 11:43:20:985,-0.5001,0.8048,11.2724,-0.0559,-0.0089,9.8064,-0.0897,0.2958,-0.2321,4.0,-34.75,9.31,93.12,-83.23,-135.72
52544,52.025345,-0.729326,127.92,9.09,4,227.35,21 / 22,5254411,2020-01-08 11:43:21:085,-2.2026,2.4134,9.8856,0.0106,-0.0502,9.8064,-0.1683,-0.0898,0.1538,3.63,-35.62,9.06,92.69,-83.1,-137.46
52545,52.025345,-0.729326,127.92,9.09,4,227.35,21 / 22,5254511,2020-01-08 11:43:21:185,0.1864,-1.6479,10.9919,-0.0478,0.0209,9.8064,-0.0438,0.4965,-0.2888,3.94,-34.81,9.44,95.01,-82.82,-135.41
52546,52.025345,-0.729326,127.92,9.09,4,227.35,21 / 22,5254611,2020-01-08 11:43:21:285,-0.5123,2.4769,8.7658,-0.0081,-0.0304,9.8066,-0.0155,0.1184,0.0171,3.5,-35.56,9.38,94.58,-82.92,-136.27
52547,52.025345,-0.729326,127.92,9.09,4,227.35,21 / 22,5254711,2020-01-08 11:43:21:385,1.5356,-3.0867,11.0556,-0.0375,0.0733,9.8063,0.1948,0.3632,-0.356,3.38,-35.0,9.63,89.68,-82.47,-133.34
52548,52.025345,-0.729326,127.92,9.09,4,227.35,21 / 22,5254810,2020-01-08 11:43:21:484,0.8708,-1.5561,10.2915,-0.008,-0.0096,9.8066,0.0769,0.2505,-0.0319,3.38,-35.62,9.5,88.82,-82.55,-134.69
52549,52.025345,-0.729326,127.92,9.09,4,227.35,21 / 22,5254911,2020-01-08 11:43:21:585,-1.3962,3.5555,8.0328,0.0086,0.0672,9.8063,0.1821,0.3715,-0.2008,4.19,-35.12,9.56,94.57,-82.45,-132.63
52550,52.025345,-0.729326,127.92,9.09,4,227.35,21 / 22,5255010,2020-01-08 11:43:21:684,1.7025,-2.0738,9.8224,-0.0189,0.0607,9.8064,0.1689,0.5191,-0.4761,3.38,-35.31,9.63,88.86,-82.49,-134.05
52551,52.025345,-0.729326,127.92,9.09,4,227.35,21 / 22,5255110,2020-01-08 11:43:21:784,0.306,2.6667,8.5371,-0.0139,0.0324,9.8065,-0.1071,0.2127,-0.0876,3.56,-35.06,9.56,91.83,-82.66,-134.67
52552,52.025345,-0.729326,127.92,9.09,4,227.35,21 / 22,5255211,2020-01-08 11:43:21:885,4.0148,-4.4673,9.3349,-0.0176,0.0837,9.8062,0.1163,0.5538,-0.4604,3.81,-35.37,9.5,93.1,-82.7,-133.22
52553,52.025345,-0.729326,127.92,9.09,4,227.35,21 / 21,5255311,2020-01-08 11:43:21:985,-0.7078,1.017,10.6158,-0.0414,0.0048,9.8065,-0.1243,-0.0089,-0.0683,3.44,-35.44,9.19,91.47,-82.77,-134.86
52554,52.025345,-0.729326,127.92,9.09,4,227.35,21 / 21,5255410,2020-01-08 11:43:22:084,-0.0215,0.8817,9.3765,-0.032,0.0198,9.8065,-0.1567,0.1348,-0.0553,4.13,-34.94,9.0,95.33,-82.87,-134.85
52555,52.025345,-0.729326,127.92,9.09,4,227.35,21 / 21,5255510,2020-01-08 11:43:22:184,-0.9639,2.3175,10.2848,0.0311,-0.0474,9.8064,-0.0386,-0.4784,0.2913,3.56,-35.06,8.44,101.62,-82.99,-132.97
52556,52.025345,-0.729326,127.92,9.09,4,227.35,21 / 21,5255611,2020-01-08 11:43:22:285,2.8171,-2.0719,8.8663,-0.0238,-0.0537,9.8064,-0.1575,-0.1876,0.1995,3.44,-34.75,8.19,95.32,-82.96,-135.45
52557,52.025345,-0.729326,127.92,9.09,4,227.35,21 / 21,5255711,2020-01-08 11:43:22:385,2.5035,-2.5389,9.7974,0.0682,-0.0533,9.8062,0.0458,-0.5926,0.2805,3.5,-34.69,9.0,91.82,-83.29,-136.82
52558,52.025345,-0.729326,127.92,9.09,4,227.35,21 / 21,5255810,2020-01-08 11:43:22:484,-2.0944,4.391,10.6954,0.0156,-0.0432,9.8065,0.0308,-0.3506,0.3172,3.94,-35.12,9.06,91.87,-83.07,-137.64
52559,52.025345,-0.729326,127.92,9.09,4,227.35,21 / 21,5255911,2020-01-08 11:43:22:585,-0.2668,2.0991,10.045,0.0658,-0.0758,9.8061,-0.0097,-0.4133,0.4213,3.44,-35.0,8.44,95.28,-82.64,-137.02
52560,52.025345,-0.729326,127.92,9.09,4,227.35,21 / 21,5256010,2020-01-08 11:43:22:684,-0.4511,-1.2997,10.9579,-0.008,-0.0054,9.8066,0.0165,-0.2833,0.0912,4.06,-34.81,8.19,96.22,-82.8,-139.74
52561,52.025345,-0.729326,127.92,9.09,4,227.35,21 / 21,5256111,2020-01-08 11:43:22:785,0.5859,-3.7391,11.0512,0.0036,-0.0205,9.8066,-0.0259,-0.1889,-0.0227,4.44,-35.75,8.31,97.23,-82.66,-140.2
52562,52.025345,-0.729326,127.92,9.09,4,227.35,21 / 21,5256211,2020-01-08 11:43:22:885,-0.928,0.3203,9.0581,-0.0291,-0.0938,9.8061,-0.2838,-0.3378,0.334,3.81,-37.12,8.06,95.76,-82.66,-142.79
52563,52.025345,-0.729326,127.92,9.09,4,227.35,20 / 21,5256310,2020-01-08 11:43:22:984,0.3054,0.8842,8.9955,0.0142,0.0515,9.8065,0.2597,0.0665,-0.305,4.31,-37.0,9.69,88.85,-82.8,-138.67
52564,52.025345,-0.729326,127.92,9.09,4,227.35,20 / 21,5256411,2020-01-08 11:43:23:085,-0.8356,4.654,6.942,0.032,-0.1046,9.806,-0.1942,-0.3585,0.353,4.56,-36.75,11.13,84.6,-82.92,-142.14
52565,52.025345,-0.729326,127.92,9.09,4,227.35,20 / 21,5256511,2020-01-08 11:43:23:185,3.3367,-1.9057,10.4373,0.0236,0.0466,9.8064,0.1971,0.259,-0.3023,3.63,-35.5,10.44,86.79,-83.17,-137.91
52566,52.025345,-0.729326,127.92,9.09,4,227.35,20 / 21,5256611,2020-01-08 11:43:23:285,-0.9013,0.9328,9.2681,0.0438,-0.0443,9.8064,-0.0347,-0.1789,0.1906,2.81,-35.31,9.75,79.47,-83.33,-139.96
52567,52.025345,-0.729326,127.92,9.09,4,227.35,20 / 21,5256710,2020-01-08 11:43:23:384,2.0847,-2.1662,10.3516,-0.0206,0.0317,9.8065,0.0972,0.1951,-0.2085,2.38,-36.19,9.56,76.05,-83.23,-139.34
52568,52.025345,-0.729326,127.92,9.09,4,227.35,20 / 21,5256812,2020-01-08 11:43:23:486,0.1912,0.9566,8.8118,0.0197,0.0006,9.8065,-0.1308,-0.1032,0.1355,3.13,-36.25,10.25,84.52,-83.18,-136.45
52569,52.025345,-0.729326,127.92,9.09,4,227.35,20 / 21,5256911,2020-01-08 11:43:23:585,-1.307,0.2802,10.2598,-0.0048,0.0488,9.8065,-0.1222,0.3319,-0.218,3.13,-37.12,10.5,84.07,-83.07,-134.34
52570,52.025345,-0.729326,127.92,9.09,4,227.35,20 / 21,5257011,2020-01-08 11:43:23:685,0.0551,1.7825,9.4711,0.0291,0.0162,9.8065,-0.0582,0.1397,0.018,3.38,-36.81,10.88,84.56,-83.03,-134.01
52571,52.025345,-0.729326,127.92,9.09,4,227.35,20 / 21,5257111,2020-01-08 11:43:23:785,1.611,0.6131,8.8215,0.0244,0.0082,9.8066,-0.1306,0.2806,-0.2477,2.94,-35.87,11.88,81.72,-83.19,-132.5
52572,52.025345,-0.729326,127.92,9.09,4,227.35,20 / 21,5257211,2020-01-08 11:43:23:885,3.6797,-0.1368,8.6533,0.0462,0.019,9.8065,-0.0221,0.0302,0.0461,3.94,-35.06,11.63,87.12,-83.39,-130.01
52573,52.025505,-0.730702,128.65,12.76,4,281.46,21 / 21,5257316,2020-01-08 11:43:23:990,2.2704,2.001,8.3322,0.0563,0.0085,9.8064,-0.2606,-0.0306,-0.0247,3.88,-34.69,10.88,93.42,-83.17,-127.47
52574,52.025505,-0.730702,128.65,12.76,4,281.46,21 / 21,5257410,2020-01-08 11:43:24:084,2.6405,1.2595,8.8432,-0.0317,0.0852,9.8062,-0.0856,-0.2388,0.4071,3.88,-34.5,11.19,92.45,-83.19,-127.78
52575,52.025505,-0.730702,128.65,12.76,4,281.46,21 / 21,5257511,2020-01-08 11:43:24:185,0.8792,3.1113,10.9451,-0.0419,0.0745,9.8063,-0.0463,0.0384,0.0026,3.13,-34.87,10.31,98.58,-82.7,-123.18
52576,52.025505,-0.730702,128.65,12.76,4,281.46,21 / 21,5257611,2020-01-08 11:43:24:285,1.9197,-3.0653,12.2539,-0.0044,0.0076,9.8065,-0.3348,-0.1146,0.1969,3.13,-34.81,10.13,97.64,-82.4,-125.33
52577,52.025505,-0.730702,128.65,12.76,4,281.46,21 / 21,5257711,2020-01-08 11:43:24:385,2.1549,-2.8145,12.5041,-0.0237,0.0578,9.8064,0.3506,0.3513,-0.3729,3.5,-35.06,10.56,95.51,-82.26,-128.28
52578,52.025505,-0.730702,128.65,12.76,4,281.46,21 / 21,5257812,2020-01-08 11:43:24:486,3.1786,-1.4955,10.3734,-0.0017,-0.0167,9.8066,0.1183,0.3388,-0.1026,3.75,-34.81,10.94,96.11,-82.25,-127.69
52579,52.025505,-0.730702,128.65,12.76,4,281.46,21 / 21,5257910,2020-01-08 11:43:24:584,0.7406,4.8322,6.8765,0.04,0.1368,9.8056,0.2526,0.406,-0.3053,3.63,-35.31,10.0,99.64,-82.26,-127.88
52580,52.025505,-0.730702,128.65,12.76,4,281.46,21 / 21,5258011,2020-01-08 11:43:24:685,5.0972,-3.8364,9.6247,0.0287,0.1176,9.8058,0.2482,0.2384,-0.344,3.75,-35.06,10.25,104.59,-82.56,-121.32
52581,52.025505,-0.730702,128.65,12.76,4,281.46,21 / 21,5258110,2020-01-08 11:43:24:784,2.8351,4.945,7.7109,-0.0225,0.0331,9.8065,-0.1538,0.1297,-0.1278,3.06,-35.94,9.81,102.05,-82.54,-120.73
52582,52.025505,-0.730702,128.65,12.76,4,281.46,20 / 21,5258211,2020-01-08 11:43:24:885,3.6789,-4.5209,10.829,0.016,0.0294,9.8065,0.2556,0.6184,-0.1779,4.38,-35.12,10.13,104.67,-82.73,-120.66
52583,52.025505,-0.730702,128.65,12.76,4,281.46,20 / 21,5258310,2020-01-08 11:43:24:984,-0.8245,1.5371,9.6191,-0.0181,0.0179,9.8066,-0.1043,0.247,-0.0925,3.69,-35.37,10.06,102.91,-82.62,-123.0
52584,52.025505,-0.730702,128.65,12.76,4,281.46,20 / 21,5258410,2020-01-08 11:43:25:084,3.8302,-0.5278,8.7176,-0.0544,0.112,9.8058,0.1307,0.1785,0.4987,3.5,-35.0,10.25,102.72,-82.76,-122.74
52585,52.025505,-0.730702,128.65,12.76,4,281.46,20 / 21,5258510,2020-01-08 11:43:25:184,1.4293,3.3025,10.1549,0.0087,-0.0491,9.8065,0.0205,-0.1195,-0.4849,3.69,-34.87,10.19,102.08,-82.87,-123.03
52586,52.025505,-0.730702,128.65,12.76,4,281.46,20 / 21,5258611,2020-01-08 11:43:25:285,3.1184,0.5262,9.0934,-0.0182,-0.0136,9.8065,-0.0631,0.0485,-0.4755,3.31,-35.69,9.81,100.47,-82.46,-122.79
52587,52.025505,-0.730702,128.65,12.76,4,281.46,20 / 21,5258712,2020-01-08 11:43:25:386,-0.4969,2.6856,11.0616,-0.0607,0.06,9.8062,0.0386,0.0051,0.6071,4.31,-35.62,9.75,106.65,-82.12,-121.27
52588,52.025505,-0.730702,128.65,12.76,4,281.46,20 / 21,5258812,2020-01-08 11:43:25:486,3.3852,0.8763,9.8496,-0.0195,0.0051,9.8065,0.0542,-0.0861,0.3405,3.56,-35.5,11.13,100.05,-82.56,-122.46
52589,52.025505,-0.730702,128.65,12.76,4,281.46,20 / 21,5258911,2020-01-08 11:43:25:585,2.5043,1.0392,8.9083,0.0294,0.0006,9.8066,-0.1269,-0.0835,-0.1466,4.25,-35.56,10.38,104.92,-82.45,-122.07
52590,52.025505,-0.730702,128.65,12.76,4,281.46,20 / 21,5259011,2020-01-08 11:43:25:685,2.2302,1.2926,8.6972,0.0042,0.0257,9.8066,0.2092,0.0887,0.0221,3.31,-35.0,10.88,96.91,-82.25,-122.77
52591,52.025505,-0.730702,128.65,12.76,4,281.46,20 / 21,5259111,2020-01-08 11:43:25:785,3.3274,-0.4026,8.8914,-0.0214,-0.0279,9.8066,0.0434,0.1981,-0.1784,4.13,-35.44,11.25,97.64,-82.46,-125.37
52592,52.025505,-0.730702,128.65,12.76,4,281.46,20 / 21,5259211,2020-01-08 11:43:25:885,1.4257,2.7949,11.1411,0.0646,0.004,9.8064,0.177,-0.0362,-0.1031,3.06,-35.19,11.56,90.21,-82.57,-125.49
52593,52.025505,-0.730702,128.65,12.76,4,281.46,21 / 21,5259310,2020-01-08 11:43:25:984,4.141,0.5081,9.8926,-0.0283,-0.0297,9.8065,0.1143,0.1832,-0.0581,4.63,-35.25,11.38,102.43,-82.61,-123.43
52594,52.025505,-0.730702,128.65,12.76,4,281.46,21 / 21,5259410,2020-01-08 11:43:26:084,2.2882,2.4706,9.8995,0.0014,-0.0239,9.8065,0.172,-0.0955,0.0809,4.31,-35.0,11.19,97.84,-82.69,-124.41
52595,52.025505,-0.730702,128.65,12.76,4,281.46,21 / 21,5259511,2020-01-08 11:43:26:185,1.416,1.6345,11.9933,-0.0232,-0.038,9.8065,0.2382,-0.092,-0.0681,4.19,-35.44,11.81,95.35,-82.7,-123.72
52596,52.025505,-0.730702,128.65,12.76,4,281.46,21 / 21,5259610,2020-01-08 11:43:26:284,2.0983,2.3758,10.0329,-0.0485,-0.0418,9.8064,-0.1878,0.2936,-0.0682,3.38,-34.94,10.88,93.12,-82.55,-125.73
52597,52.025505,-0.730702,128.65,12.76,4,281.46,21 / 21,5259711,2020-01-08 11:43:26:385,2.9527,2.2078,10.6047,0.0566,0.0347,9.8064,-0.097,0.1796,-0.0638,4.38,-35.69,11.44,98.33,-83.0,-123.54
52598,52.025505,-0.730702,128.65,12.76,4,281.46,21 / 21,5259811,2020-01-08 11:43:26:485,1.7068,3.4027,10.9657,0.0337,0.029,9.8065,-0.1047,0.2385,-0.0851,4.13,-35.44,11.38,98.34,-82.93,-123.11
52599,52.025505,-0.730702,128.65,12.76,4,281.46,21 / 21,5259911,2020-01-08 11:43:26:585,4.2694,2.3725,9.0156,0.0297,0.0091,9.8066,-0.0603,0.1877,-0.1256,3.5,-35.5,11.56,95.62,-82.96,-122.66
52600,52.025505,-0.730702,128.65,12.76,4,281.46,21 / 21,5260011,2020-01-08 11:43:26:685,2.1344,2.5668,10.0787,0.0201,0.0032,9.8066,-0.0201,0.0969,-0.0068,5.13,-35.81,12.06,100.15,-83.06,-121.76
52601,52.025505,-0.730702,128.65,12.76,4,281.46,21 / 21,5260111,2020-01-08 11:43:26:785,3.5085,2.8882,9.1818,0.0104,0.006,9.8066,-0.0877,0.1532,-0.0653,4.0,-35.62,11.75,97.1,-83.06,-121.4
52602,52.025505,-0.730702,128.65,12.76,4,281.46,21 / 21,5260211,2020-01-08 11:43:26:885,3.6786,3.6424,9.5022,0.0326,0.0097,9.8065,0.0622,0.0428,-0.0441,3.88,-36.0,11.88,97.0,-83.24,-120.96
52603,52.025505,-0.730702,128.65,12.76,4,281.46,21 / 21,5260310,2020-01-08 11:43:26:984,2.6913,2.4298,10.5008,-0.0141,-0.0196,9.8066,0.0206,0.0704,0.0304,5.0,-36.12,11.5,100.95,-83.23,-120.43
52604,52.025505,-0.730702,128.65,12.76,4,281.46,21 / 21,5260412,2020-01-08 11:43:27:086,2.1637,3.2589,9.7391,-0.0074,-0.0074,9.8066,0.0779,0.0939,-0.0268,4.88,-35.25,12.06,99.73,-83.23,-121.18
52605,52.025505,-0.730702,128.65,12.76,4,281.46,21 / 21,5260510,2020-01-08 11:43:27:184,3.2496,2.9023,10.3334,0.015,-0.0121,9.8066,0.0383,0.0848,-0.1025,4.13,-34.44,11.38,98.16,-83.4,-121.19
52606,52.025505,-0.730702,128.65,12.76,4,281.46,21 / 21,5260610,2020-01-08 11:43:27:284,3.1962,2.7522,9.3115,-0.0002,-0.0128,9.8065,0.0065,0.0283,-0.0021,5.0,-34.87,12.13,98.94,-83.44,-121.43
52607,52.025505,-0.730702,128.65,12.76,4,281.46,21 / 21,5260711,2020-01-08 11:43:27:385,3.2316,3.2636,10.1376,-0.0101,-0.005,9.8066,0.0447,0.0151,-0.0171,4.94,-35.5,12.31,98.01,-83.6,-121.95
52608,52.025505,-0.730702,128.65,12.76,4,281.46,21 / 21,5260811,2020-01-08 11:43:27:485,3.7047,3.2856,9.6136,-0.0053,-0.0139,9.8066,-0.0127,0.0252,-0.0008,4.63,-35.62,11.63,97.77,-83.58,-122.79
52609,52.025505,-0.730702,128.65,12.76,4,281.46,21 / 21,5260910,2020-01-08 11:43:27:584,2.8588,3.5421,9.8492,0.0032,0.006,9.8066,0.0268,-0.0134,0.0263,4.75,-35.44,12.0,97.45,-83.7,-122.27
52610,52.025505,-0.730702,128.65,12.76,4,281.46,21 / 21,5261011,2020-01-08 11:43:27:685,3.2795,3.1565,9.8337,0.0017,0.0046,9.8066,-0.0305,0.0053,-0.0144,3.88,-35.69,11.88,94.5,-83.77,-121.96
52611,52.025505,-0.730702,128.65,12.76,4,281.46,21 / 21,5261111,2020-01-08 11:43:27:785,2.3513,3.5036,9.7665,0.0056,0.0092,9.8066,-0.0098,-0.0174,0.0345,4.38,-35.56,12.13,94.0,-83.85,-122.23
52612,52.025505,-0.730702,128.65,12.76,4,281.46,21 / 21,5261211,2020-01-08 11:43:27:885,2.2834,2.5027,9.9619,0.0049,-0.0059,9.8066,-0.0183,0.0408,-0.0343,4.81,-35.37,12.88,93.97,-83.97,-122.4
52613,52.025505,-0.730702,128.65,12.76,4,281.46,21 / 21,5261310,2020-01-08 11:43:27:984,1.7351,1.8688,9.8026,0.0108,-0.0048,9.8066,-0.0088,0.0314,-0.0039,4.56,-34.81,13.06,93.22,-84.05,-122.94
52614,52.025505,-0.730702,128.65,12.76,4,281.46,21 / 21,5261411,2020-01-08 11:43:28:085,1.3506,1.0673,10.0645,0.0042,0.001,9.8066,0.007,0.0312,-0.0249,4.06,-35.0,12.81,88.78,-84.19,-123.51
52615,52.025505,-0.730702,128.65,12.76,4,281.46,21 / 21,5261510,2020-01-08 11:43:28:184,1.2384,0.5547,9.9101,0.0088,-0.001,9.8066,0.0032,0.0218,-0.0145,4.63,-34.31,12.94,91.65,-84.25,-123.59
52616,52.025505,-0.730702,128.65,12.76,4,281.46,21 / 21,5261610,2020-01-08 11:43:28:284,0.6011,0.4465,9.7868,0.0065,-0.0041,9.8066,0.0185,0.0568,-0.0342,4.63,-35.19,12.44,94.62,-84.36,-123.35
52617,52.025505,-0.730702,128.65,12.76,4,281.46,21 / 21,5261711,2020-01-08 11:43:28:385,0.7159,-0.1644,9.9262,0.0107,-0.0067,9.8066,0.0245,0.0712,-0.0395,5.44,-35.69,12.25,95.0,-84.45,-123.14
52618,52.025505,-0.730702,128.65,12.76,4,281.46,21 / 21,5261811,2020-01-08 11:43:28:485,0.5904,0.8605,9.7742,0.0116,-0.0024,9.8065,0.0106,0.0524,-0.0276,4.94,-35.69,13.0,92.7,-84.55,-122.59
52619,52.025505,-0.730702,128.65,12.76,4,281.46,21 / 21,5261911,2020-01-08 11:43:28:585,0.8493,0.3874,10.0144,0.0111,-0.0035,9.8066,-0.0084,0.0372,-0.0284,5.31,-35.37,13.38,92.71,-84.62,-121.99
52620,52.025505,-0.730702,128.65,12.76,4,281.46,21 / 21,5262010,2020-01-08 11:43:28:684,0.7645,0.2826,9.8124,0.0082,0.004,9.8066,-0.0002,0.0014,-0.0032,4.69,-34.69,12.75,92.64,-84.75,-121.73
52621,52.025505,-0.730702,128.65,12.76,4,281.46,21 / 21,5262111,2020-01-08 11:43:28:785,0.1997,-0.1718,9.7835,0.0023,0.003,9.8065,-0.0031,0.0305,-0.028,5.13,-34.87,13.13,92.61,-84.81,-121.6
52622,52.025505,-0.730702,128.65,12.76,4,281.46,20 / 21,5262210,2020-01-08 11:43:28:884,0.2114,-0.3959,9.8433,0.0089,0.0034,9.8066,0.0207,0.0302,0.0006,5.75,-34.75,13.31,96.17,-84.91,-121.07
52623,52.025505,-0.730702,128.65,12.76,4,281.46,20 / 21,5262310,2020-01-08 11:43:28:984,-0.0921,-0.4547,9.8383,0.0066,0.0052,9.8066,0.001,0.0327,-0.0168,5.13,-35.12,13.0,93.06,-84.98,-120.71
52624,52.025505,-0.730702,128.65,12.76,4,281.46,20 / 21,5262411,2020-01-08 11:43:29:085,-0.196,-0.7831,9.9639,0.0071,0.0036,9.8066,-0.0012,0.0153,-0.0073,5.19,-35.19,13.38,93.54,-85.12,-119.84
52625,52.025505,-0.730702,128.65,12.76,4,281.46,20 / 21,5262511,2020-01-08 11:43:29:185,-0.1718,-0.8414,9.8932,0.0098,-0.0012,9.8066,0.0036,0.0085,0.0312,5.13,-34.87,13.44,93.77,-85.25,-119.28
52626,52.025505,-0.730702,128.65,12.76,4,281.46,20 / 21,5262611,2020-01-08 11:43:29:285,-0.0389,-0.6431,9.7168,0.0022,0.0052,9.8066,-0.0066,0.0094,-0.0288,4.94,-35.19,12.75,94.42,-85.29,-118.51
52627,52.025505,-0.730702,128.65,12.76,4,281.46,20 / 21,5262711,2020-01-08 11:43:29:385,-0.0801,-0.9779,9.8429,0.0075,0.0018,9.8065,-0.0151,0.0057,0.0143,4.19,-35.19,13.19,91.35,-85.4,-117.69
52628,52.025505,-0.730702,128.65,12.76,4,281.46,20 / 21,5262811,2020-01-08 11:43:29:485,-0.1564,-1.152,9.7785,0.0045,0.0084,9.8066,-0.0048,0.0302,-0.0384,4.63,-34.31,12.81,95.81,-85.51,-116.21
52629,52.025505,-0.730702,128.65,12.76,4,281.46,20 / 21,5262911,2020-01-08 11:43:29:585,-0.5294,-1.0278,9.7401,0.0069,0.0101,9.8066,-0.0001,0.0295,-0.0142,4.56,-34.62,13.13,96.67,-85.63,-115.34
52630,52.025505,-0.730702,128.65,12.76,4,281.46,20 / 21,5263011,2020-01-08 11:43:29:685,0.0396,-1.1227,9.9405,0.0032,0.0069,9.8066,-0.0027,0.0718,-0.0482,4.38,-34.44,12.38,96.49,-85.75,-113.38
52631,52.025505,-0.730702,128.65,12.76,4,281.46,20 / 21,5263111,2020-01-08 11:43:29:785,-0.4917,-0.879,9.9907,0.0032,0.0116,9.8066,0.0225,0.0003,-0.0303,4.19,-33.94,12.94,95.96,-85.88,-111.44
52632,52.025505,-0.730702,128.65,12.76,4,281.46,20 / 21,5263211,2020-01-08 11:43:29:885,-0.1124,-1.2138,9.8583,0.0062,0.0054,9.8066,-0.0291,0.0457,-0.0228,4.5,-34.81,13.69,98.17,-85.99,-110.87
52633,52.025505,-0.730702,128.65,12.76,4,281.46,21 / 21,5263311,2020-01-08 11:43:29:985,-0.2559,-1.7436,9.6628,0.0126,0.0056,9.8066,-0.0139,0.0255,-0.0161,4.19,-35.19,13.06,97.21,-86.16,-109.73
52634,52.025505,-0.730702,128.65,12.76,4,281.46,21 / 21,5263410,2020-01-08 11:43:30:084,-0.0982,-1.7047,9.6842,0.0067,0.0064,9.8065,-0.0187,0.0528,-0.0367,4.31,-34.44,13.31,97.54,-86.23,-108.95
52635,52.025505,-0.730702,128.65,12.76,4,281.46,21 / 21,5263511,2020-01-08 11:43:30:185,-0.0434,-1.2546,9.6708,0.0052,0.0005,9.8066,0.0198,0.0713,-0.0096,4.5,-34.69,12.94,101.35,-86.35,-108.71
52636,52.025505,-0.730702,128.65,12.76,4,281.46,21 / 21,5263610,2020-01-08 11:43:30:284,-1.0138,-2.7002,10.0322,-0.0026,-0.0031,9.8066,0.0031,0.0184,0.0129,4.19,-34.25,12.75,96.45,-86.38,-109.68
52637,52.025505,-0.730702,128.65,12.76,4,281.46,21 / 21,5263711,2020-01-08 11:43:30:385,-0.9596,-1.9904,9.7155,-0.0018,0.001,9.8066,0.0204,0.0461,0.0199,4.88,-34.19,13.25,100.45,-86.4,-109.26
52638,52.025505,-0.730702,128.65,12.76,4,281.46,21 / 21,5263811,2020-01-08 11:43:30:485,-1.2594,-3.3063,9.5604,-0.0001,-0.0124,9.8066,0.0464,0.0559,-0.0499,5.5,-34.25,13.75,99.57,-86.43,-111.5
52639,52.025505,-0.730702,128.65,12.76,4,281.46,21 / 21,5263911,2020-01-08 11:43:30:585,-1.215,-3.322,9.8231,-0.0014,-0.0118,9.8066,0.0379,0.0516,0.0293,4.38,-34.31,13.63,89.88,-86.42,-114.46
52640,52.025505,-0.730702,128.65,12.76,4,281.46,21 / 21,5264011,2020-01-08 11:43:30:685,-1.0399,-2.7643,9.8137,0.0009,-0.0061,9.8066,-0.0019,0.0761,-0.014,5.44,-34.56,13.88,91.06,-86.44,-117.01
52641,52.025505,-0.730702,128.65,12.76,4,281.46,21 / 21,5264111,2020-01-08 11:43:30:785,-1.3525,-3.2784,9.7527,0.0143,-0.0011,9.8066,-0.0001,0.0792,-0.0291,4.13,-35.44,13.81,86.88,-86.55,-117.39
52642,52.025505,-0.730702,128.65,12.76,4,281.46,21 / 21,5264211,2020-01-08 11:43:30:885,-1.2832,-3.9523,9.7787,0.0061,0.0046,9.8066,-0.004,0.1425,-0.0302,4.69,-34.81,14.06,89.96,-86.63,-117.66
52643,52.025505,-0.730702,128.65,12.76,4,281.46,20 / 21,5264310,2020-01-08 11:43:30:984,-0.1752,-3.1353,9.2791,0.0253,-0.0003,9.8066,-0.0521,0.1098,-0.0623,4.31,-33.94,14.75,83.22,-86.89,-118.5
52644,52.025505,-0.730702,128.65,12.76,4,281.46,20 / 21,5264411,2020-01-08 11:43:31:085,-0.4754,-3.5065,9.7427,0.0124,0.0152,9.8066,-0.0057,0.1368,-0.0581,4.94,-34.25,14.06,89.3,-87.0,-117.22
52645,52.025505,-0.730702,128.65,12.76,4,281.46,20 / 21,5264511,2020-01-08 11:43:31:185,-0.7618,-2.2338,9.2772,0.0145,0.0028,9.8066,-0.0672,0.0749,-0.0049,5.38,-34.19,14.56,87.39,-87.21,-117.06
52646,52.025505,-0.730702,128.65,12.76,4,281.46,20 / 21,5264611,2020-01-08 11:43:31:285,-0.5281,-3.5565,10.3397,0.0175,0.0154,9.8066,0.0252,0.0907,-0.0642,5.63,-33.06,14.06,92.78,-87.49,-115.87
52647,52.025505,-0.730702,128.65,12.76,4,281.46,20 / 21,5264711,2020-01-08 11:43:31:385,-0.2791,-2.404,9.3924,0.0023,0.0101,9.8066,-0.0517,0.1251,0.0395,5.44,-33.62,14.63,84.44,-87.73,-118.86
52648,52.025505,-0.730702,128.65,12.76,4,281.46,20 / 21,5264811,2020-01-08 11:43:31:485,0.1353,-2.5767,9.6178,0.0093,0.0001,9.8066,0.0014,0.064,0.0199,5.13,-34.12,15.06,83.54,-87.91,-119.37
52649,52.025505,-0.730702,128.65,12.76,4,281.46,20 / 21,5264911,2020-01-08 11:43:31:585,-0.9838,-2.9896,9.7091,-0.0019,-0.0006,9.8066,0.0289,0.1776,0.0349,5.94,-34.12,15.38,86.9,-87.9,-119.32
52650,52.025505,-0.730702,128.65,12.76,4,281.46,20 / 21,5265011,2020-01-08 11:43:31:685,-1.0671,-2.1697,10.0264,0.0091,-0.007,9.8066,0.0356,0.0998,0.01,5.44,-34.06,15.5,80.11,-88.02,-121.2
52651,52.025505,-0.730702,128.65,12.76,4,281.46,20 / 21,5265111,2020-01-08 11:43:31:785,-0.0441,-2.8713,9.5916,-0.0022,-0.0062,9.8065,0.0209,0.1592,-0.0175,5.0,-34.69,16.0,82.37,-87.99,-119.16
52652,52.025505,-0.730702,128.65,12.76,4,281.46,20 / 21,5265211,2020-01-08 11:43:31:885,-0.7008,-2.7856,9.8345,-0.0016,0.0061,9.8066,0.0319,0.0725,0.1317,5.25,-33.37,16.31,82.45,-87.97,-118.86
52653,52.025505,-0.730702,128.65,12.76,4,281.46,21 / 21,5265311,2020-01-08 11:43:31:985,-1.0724,-2.9493,9.8516,0.001,-0.0087,9.8066,0.0237,0.1358,-0.1028,5.63,-33.87,16.0,84.56,-88.05,-119.87
52654,52.025505,-0.730702,128.65,12.76,4,281.46,21 / 21,5265411,2020-01-08 11:43:32:085,-1.1023,-1.0061,9.321,0.0239,-0.0228,9.8066,-0.0087,0.0299,0.0276,5.31,-33.94,16.56,76.03,-88.19,-123.75
52655,52.025505,-0.730702,128.65,12.76,4,281.46,21 / 21,5265510,2020-01-08 11:43:32:184,-0.4676,-3.4551,9.8981,-0.0267,-0.0078,9.8066,0.1016,0.0602,-0.0052,5.38,-33.69,16.81,73.27,-88.41,-126.05
52656,52.025505,-0.730702,128.65,12.76,4,281.46,21 / 21,5265611,2020-01-08 11:43:32:285,-0.7501,-2.3273,9.4715,-0.0149,-0.0169,9.8066,-0.0018,-0.1487,0.079,5.63,-34.5,17.0,78.08,-88.11,-124.85
52657,52.025505,-0.730702,128.65,12.76,4,281.46,21 / 21,5265711,2020-01-08 11:43:32:385,-1.704,-2.4855,8.9172,-0.0132,0.0211,9.8066,-0.0325,0.0512,0.0527,5.31,-34.12,17.06,83.05,-87.86,-117.43
52658,52.025505,-0.730702,128.65,12.76,4,281.46,21 / 21,5265811,2020-01-08 11:43:32:485,-3.3082,-1.8216,10.065,0.0249,0.0013,9.8066,-0.0366,-0.1235,-0.0068,5.56,-34.5,17.38,86.42,-87.84,-117.09
52659,52.025505,-0.730702,128.65,12.76,4,281.46,21 / 21,5265910,2020-01-08 11:43:32:584,-1.4969,-1.5919,9.4878,-0.0082,-0.0089,9.8066,-0.041,-0.0596,-0.1157,5.5,-34.06,17.19,81.67,-88.01,-121.48
52660,52.025505,-0.730702,128.65,12.76,4,281.46,21 / 21,5266011,2020-01-08 11:43:32:685,-0.9434,-2.3746,9.3956,0.0161,0.0004,9.8066,0.0685,-0.2109,-0.0092,5.81,-33.75,16.56,74.22,-88.29,-128.33
52661,52.025505,-0.730702,128.65,12.76,4,281.46,21 / 21,5266111,2020-01-08 11:43:32:785,-1.3809,-1.3111,9.4539,-0.0058,-0.0039,9.8066,0.0287,-0.2426,0.0888,5.88,-33.62,16.19,74.75,-88.36,-128.97
52662,52.02555,-0.731408,128.83,7.29,3,262.62,20 / 21,5266211,2020-01-08 11:43:32:885,-0.2343,-1.885,8.8364,0.0074,0.0243,9.8065,-0.004,-0.2426,-0.0153,4.94,-33.5,16.38,78.81,-88.31,-121.81
52663,52.02555,-0.731408,128.83,7.29,3,262.62,20 / 21,5266311,2020-01-08 11:43:32:985,-2.1369,-0.7756,10.3538,0.044,0.0038,9.8065,0.0193,-0.2191,0.1603,5.13,-33.87,16.13,79.48,-88.36,-121.15
52664,52.02555,-0.731408,128.83,7.29,3,262.62,20 / 21,5266411,2020-01-08 11:43:33:085,-3.6872,2.043,9.1349,-0.0036,0.045,9.8065,0.0876,0.0836,-0.2147,5.81,-33.69,15.38,87.53,-88.29,-117.86
52665,52.02555,-0.731408,128.83,7.29,3,262.62,20 / 21,5266511,2020-01-08 11:43:33:185,-2.2903,1.1131,9.5885,-0.0212,0.0227,9.8066,0.0199,0.0368,-0.2206,5.38,-34.06,14.44,93.75,-88.42,-109.5
52666,52.02555,-0.731408,128.83,7.29,3,262.62,20 / 21,5266611,2020-01-08 11:43:33:285,-3.4552,0.6692,9.6586,-0.0213,0.0299,9.8065,0.1198,0.0945,-0.1167,6.56,-34.44,14.38,102.17,-88.57,-107.44
52667,52.02555,-0.731408,128.83,7.29,3,262.62,20 / 21,5266710,2020-01-08 11:43:33:384,0.0124,-2.1066,10.674,-0.0292,-0.001,9.8065,0.0176,0.1152,-0.2954,6.13,-34.12,13.94,89.82,-88.59,-116.52
52668,52.02555,-0.731408,128.83,7.29,3,262.62,20 / 21,5266811,2020-01-08 11:43:33:485,-3.6876,4.1403,8.2264,-0.015,0.0937,9.8061,0.2779,0.0723,-0.2175,6.88,-33.94,13.06,76.08,-88.92,-134.65
52669,52.02555,-0.731408,128.83,7.29,3,262.62,20 / 21,5266910,2020-01-08 11:43:33:584,0.8938,-2.9818,11.7114,-0.0732,0.0789,9.806,-0.1033,-0.5445,0.3421,6.25,-33.25,13.19,92.43,-88.63,-115.5
52670,52.02555,-0.731408,128.83,7.29,3,262.62,20 / 21,5267010,2020-01-08 11:43:33:684,-5.7554,2.8001,9.4823,-0.0476,0.0422,9.8064,-0.1386,-0.8277,0.289,6.38,-33.56,12.69,83.42,-88.42,-125.08
52671,52.02555,-0.731408,128.83,7.29,3,262.62,20 / 21,5267111,2020-01-08 11:43:33:785,1.1488,-2.3606,10.2536,-0.0802,0.0284,9.8063,-0.0929,-0.484,-0.0141,6.13,-34.12,12.31,90.28,-87.67,-122.22
52672,52.02555,-0.731408,128.83,7.29,3,262.62,20 / 21,5267210,2020-01-08 11:43:33:884,-5.7114,3.3653,9.7502,-0.0445,0.0353,9.8065,0.0221,-0.8752,0.512,5.25,-34.75,12.56,83.71,-87.33,-124.02
52673,52.02555,-0.731408,128.83,7.29,3,262.62,20 / 21,5267311,2020-01-08 11:43:33:985,-2.523,0.7935,10.855,-0.064,0.0301,9.8064,0.0384,-0.2702,0.0337,5.0,-34.5,11.44,86.64,-87.26,-125.55
52674,52.02555,-0.731408,128.83,7.29,3,262.62,20 / 21,5267411,2020-01-08 11:43:34:085,-4.6306,3.3643,10.001,0.0119,-0.0301,9.8066,-0.0277,-0.6532,0.0192,4.5,-34.56,10.13,89.63,-87.14,-125.94
52675,52.02555,-0.731408,128.83,7.29,3,262.62,20 / 21,5267510,2020-01-08 11:43:34:184,-4.6511,3.5809,9.6339,-0.06,0.0079,9.8064,-0.0016,-0.3737,0.0377,5.0,-34.0,9.38,98.45,-86.69,-121.49
52676,52.02555,-0.731408,128.83,7.29,3,262.62,20 / 21,5267611,2020-01-08 11:43:34:285,-2.6029,4.3399,10.8757,-0.0128,0.0013,9.8065,0.019,-0.5699,-0.0127,4.13,-34.87,7.69,98.56,-86.52,-121.59
52677,52.02555,-0.731408,128.83,7.29,3,262.62,20 / 21,5267711,2020-01-08 11:43:34:385,-3.2176,3.554,10.9522,-0.0137,-0.0091,9.8065,0.0624,-0.5345,-0.062,3.56,-34.19,6.88,102.3,-86.21,-123.26
52678,52.02555,-0.731408,128.83,7.29,3,262.62,20 / 21,5267811,2020-01-08 11:43:34:485,-2.1681,2.7886,10.2039,-0.0149,-0.0274,9.8066,-0.0259,-0.4102,-0.0294,3.5,-35.25,6.63,98.67,-85.96,-128.69
52679,52.02555,-0.731408,128.83,7.29,3,262.62,20 / 21,5267911,2020-01-08 11:43:34:585,-3.3031,6.1232,9.7988,0.0141,-0.0362,9.8065,-0.0128,-0.6852,0.1222,3.19,-34.75,4.81,101.72,-85.89,-134.19
52680,52.02555,-0.731408,128.83,7.29,3,262.62,20 / 21,5268011,2020-01-08 11:43:34:685,-0.8119,2.2151,9.6796,-0.0026,0.0088,9.8066,-0.0868,-0.4023,-0.1432,2.63,-35.62,4.81,103.28,-85.73,-134.28
52681,52.02555,-0.731408,128.83,7.29,3,262.62,20 / 21,5268111,2020-01-08 11:43:34:785,0.3045,2.228,10.935,0.0089,-0.0029,9.8066,-0.0776,-0.8746,0.2422,1.94,-35.69,3.0,121.16,-85.69,-132.54
52682,52.02555,-0.731408,128.83,7.29,3,262.62,20 / 21,5268211,2020-01-08 11:43:34:885,-2.0164,7.5424,9.7154,-0.0349,0.0714,9.8063,-0.1007,-0.7277,0.1676,1.06,-35.12,2.69,114.98,-85.66,-132.98
52683,52.02555,-0.731408,128.83,7.29,3,262.62,20 / 21,5268310,2020-01-08 11:43:34:984,0.273,0.5247,10.6701,0.001,0.0384,9.8065,0.0176,-0.9717,0.2044,0.94,-36.25,2.31,139.2,-85.09,-131.66
52684,52.02555,-0.731408,128.83,7.29,3,262.62,20 / 21,5268411,2020-01-08 11:43:35:085,4.6864,2.975,8.9765,0.0014,0.046,9.8065,-0.0838,-0.9742,0.3293,-0.44,-35.12,0.56,165.06,-84.59,-136.53
52685,52.02555,-0.731408,128.83,7.29,3,262.62,20 / 21,5268511,2020-01-08 11:43:35:185,0.6468,1.7115,11.1344,0.0353,0.0147,9.8066,0.05,-0.4819,-0.007,-0.06,-34.87,0.75,165.18,-84.67,-138.56
52686,52.02555,-0.731408,128.83,7.29,3,262.62,20 / 21,5268611,2020-01-08 11:43:35:285,3.9256,-0.2906,8.6077,-0.0116,0.004,9.8065,-0.1559,-0.5719,0.1001,-1.0,-35.25,-0.75,202.22,-84.68,-142.57
52687,52.02555,-0.731408,128.83,7.29,3,262.62,20 / 21,5268711,2020-01-08 11:43:35:385,0.9836,-0.0487,10.1457,0.0326,-0.0116,9.8066,-0.0336,-0.5254,0.0269,-2.19,-36.37,-0.75,217.32,-84.67,-141.09
52688,52.02555,-0.731408,128.83,7.29,3,262.62,20 / 21,5268811,2020-01-08 11:43:35:485,5.1765,-1.8866,10.3739,0.0184,-0.0131,9.8066,-0.0681,-0.7148,0.2715,-3.06,-35.81,-0.44,236.0,-84.46,-139.6
52689,52.02555,-0.731408,128.83,7.29,3,262.62,20 / 21,5268911,2020-01-08 11:43:35:585,2.9697,-1.3475,11.2919,0.055,-0.0047,9.8064,-0.1046,-0.3973,0.1939,-3.75,-35.75,-1.37,243.82,-84.15,-138.99
52690,52.02555,-0.731408,128.83,7.29,3,262.62,20 / 21,5269011,2020-01-08 11:43:35:685,2.7373,-3.7133,9.532,0.0325,-0.0039,9.8065,-0.0783,-0.4741,0.0043,-6.0,-35.69,-1.06,261.33,-83.74,-139.38
52691,52.02555,-0.731408,128.83,7.29,3,262.62,20 / 21,5269111,2020-01-08 11:43:35:785,4.9173,-1.3607,10.3308,0.0055,0.0079,9.8066,0.0708,-0.7548,0.1347,-4.94,-36.19,-1.81,243.17,-83.21,-139.98
52692,52.02555,-0.731408,128.83,7.29,3,262.62,20 / 21,5269210,2020-01-08 11:43:35:884,4.677,-4.2903,10.065,0.0558,0.0103,9.8065,-0.0153,-0.765,0.2129,-7.31,-35.31,-1.81,256.52,-82.81,-141.5
52693,52.02555,-0.731408,128.83,7.29,3,262.62,20 / 21,5269311,2020-01-08 11:43:35:985,2.4246,-3.1382,9.722,0.0205,0.0001,9.8066,0.0061,-0.6306,0.0361,-8.37,-35.31,-2.12,260.44,-82.4,-141.67
52694,52.02555,-0.731408,128.83,7.29,3,262.62,20 / 21,5269411,2020-01-08 11:43:36:085,1.8818,-2.1527,10.0987,-0.0018,0.013,9.8066,-0.0524,-0.721,0.1379,-9.19,-35.75,-2.44,264.08,-82.33,-141.91
52695,52.02555,-0.731408,128.83,7.29,3,262.62,20 / 21,5269511,2020-01-08 11:43:36:185,2.217,-3.1152,10.742,0.0052,-0.0111,9.8065,0.0178,-0.4786,0.036,-10.56,-35.25,-3.0,267.59,-82.28,-142.6
52696,52.02555,-0.731408,128.83,7.29,3,262.62,20 / 21,5269611,2020-01-08 11:43:36:285,1.2214,-3.9012,9.7208,0.0128,0.019,9.8066,-0.1192,-0.6751,0.1727,-12.06,-35.75,-2.31,274.67,-82.07,-141.57
52697,52.02555,-0.731408,128.83,7.29,3,262.62,20 / 21,5269711,2020-01-08 11:43:36:385,2.012,-3.9952,9.6363,0.0098,0.0035,9.8066,-0.0416,-0.6622,0.0406,-12.94,-36.06,-2.87,271.66,-81.78,-142.4
