,GPS LATITUDE (degrees), GPS LONGITUDE (degrees), GPS ALTITUDE (m), GPS SPEED (Kmh), GPS ACCURACY (m), GPS ORIENTATION (Â°),GPS SATELLITES IN RANGE, TIME SINCE START (ms), DATE (YYYY-MO-DD HH-MI-SS_SSS), ACCELEROMETER X (m/s²) , ACCELEROMETER Y (m/s²), ACCELEROMETER Z (m/s²), GRAVITY X (m/s²), GRAVITY Y (m/s²), GRAVITY Z (m/s²), GYROSCOPE Yaw (rad/s), GYROSCOPE Pitch (rad/s), GYROSCOPE Roll (rad/s), MAGNETIC FIELD X (Î¼T), MAGNETIC FIELD Y (Î¼T), MAGNETIC FIELD Z (Î¼T), ORIENTATION (Yaw) (Â°), ORIENTATION (Pitch) (Â°), ORIENTATION (Roll ) (Â°)
30187,52.40354,-1.564981,168.5,0.0,3,61.24,27 / 27,2832310,2019-09-08 12:54:11:549,0.5175,-0.1411,9.9737,0.0064,0.0102,9.8066,-0.0117,-0.0144,0.0241,-24.44,-34.12,-0.56,290.28,-86.39,-152.49
30188,52.40354,-1.564981,168.5,0.0,3,61.24,27 / 27,2832410,2019-09-08 12:54:11:649,0.8691,-0.0312,9.8538,0.0118,0.0025,9.8066,-0.0112,-0.0083,0.0105,-24.19,-34.62,-0.81,288.32,-86.39,-154.26
30189,52.40354,-1.564981,168.5,0.0,3,61.24,27 / 27,2832510,2019-09-08 12:54:11:749,0.7948,-0.055,9.8202,-0.0084,-0.0009,9.8066,0.0306,0.0103,0.0059,-25.0,-34.94,-0.56,288.27,-86.4,-154.61
30190,52.40354,-1.564981,168.5,0.0,3,61.24,27 / 27,2832610,2019-09-08 12:54:11:849,0.4893,-0.1314,10.0682,-0.0067,0.0008,9.8066,0.0354,-0.0162,0.0358,-25.19,-35.12,-0.56,288.78,-86.44,-154.17
30191,52.40354,-1.564981,168.5,0.0,3,61.24,29 / 29,2832710,2019-09-08 12:54:11:949,0.4005,0.205,10.0706,0.0029,-0.001,9.8066,-0.0028,-0.0265,0.0249,-25.0,-34.37,-0.75,289.11,-86.39,-153.92
30192,52.40354,-1.564981,168.5,0.0,3,61.24,29 / 29,2832810,2019-09-08 12:54:12:049,0.7017,0.0197,9.4729,0.0066,-0.0038,9.8066,0.0084,-0.0047,0.0253,-25.06,-34.94,-0.44,291.82,-86.35,-153.39
30193,52.40354,-1.564981,168.5,0.0,3,61.24,29 / 29,2832910,2019-09-08 12:54:12:149,0.813,-0.3106,9.5876,-0.0037,-0.003,9.8066,0.0022,-0.0267,0.0257,-25.25,-34.56,-0.56,289.8,-86.23,-152.89
30194,52.40354,-1.564981,168.5,0.0,3,61.24,29 / 29,2833010,2019-09-08 12:54:12:249,1.0947,-0.1932,9.7514,-0.0026,-0.0015,9.8066,0.0024,-0.0082,0.0021,-24.5,-34.81,-0.69,289.86,-86.2,-152.5
30195,52.40354,-1.564981,168.5,0.0,3,61.24,29 / 29,2833110,2019-09-08 12:54:12:349,1.0169,-0.4185,9.9867,0.01,0.0038,9.8066,-0.0043,-0.0087,-0.0366,-24.44,-34.44,-0.75,289.7,-86.18,-152.78
30196,52.40354,-1.564981,168.5,0.0,3,61.24,29 / 29,2833210,2019-09-08 12:54:12:449,0.7212,0.4897,9.7613,0.0154,0.002,9.8066,-0.0017,0.0099,-0.0349,-24.37,-34.5,-1.19,288.1,-86.13,-154.26
30197,52.40354,-1.564981,168.5,0.0,3,61.24,29 / 29,2833310,2019-09-08 12:54:12:549,0.4987,0.0085,9.5689,-0.015,-0.0019,9.8066,0.0475,0.0035,-0.0013,-24.31,-34.31,-0.31,290.28,-86.2,-154.61
30198,52.40354,-1.564981,168.5,0.0,3,61.24,29 / 29,2833410,2019-09-08 12:54:12:649,0.9081,-0.027,10.0354,-0.0142,-0.0019,9.8066,0.0428,-0.011,0.0041,-24.19,-34.75,-0.12,289.76,-86.16,-154.92
30199,52.40354,-1.564981,168.5,0.0,3,61.24,29 / 29,2833510,2019-09-08 12:54:12:749,1.0881,-0.1104,10.1492,0.0205,0.0003,9.8066,-0.0428,-0.0062,-0.0187,-24.06,-34.25,-0.5,289.57,-86.11,-155.18
30200,52.40354,-1.564981,168.5,0.0,3,61.24,29 / 29,2833610,2019-09-08 12:54:12:849,0.0989,0.0209,9.5715,0.0179,-0.0006,9.8066,-0.0739,-0.0123,0.0144,-24.44,-35.06,-0.56,286.77,-86.0,-155.21
30201,52.40354,-1.564981,168.5,0.0,3,61.24,26 / 28,2833710,2019-09-08 12:54:12:949,0.2556,-0.0542,9.4827,-0.0281,-0.0015,9.8065,0.0334,-0.0105,0.0065,-24.69,-34.62,-0.12,290.25,-86.03,-154.48
30202,52.40354,-1.564981,168.5,0.0,3,61.24,26 / 28,2833810,2019-09-08 12:54:13:049,1.0378,-0.2429,9.8239,-0.0212,-0.0015,9.8065,0.0438,-0.0115,-0.005,-24.81,-34.5,-0.81,289.33,-86.2,-153.45
30203,52.40354,-1.564981,168.5,0.0,3,61.24,26 / 28,2833910,2019-09-08 12:54:13:149,0.6118,-0.1645,9.9328,0.0186,0.0069,9.8066,-0.0218,0.008,-0.0428,-24.75,-35.0,-0.5,289.37,-86.08,-155.39
30204,52.40354,-1.564981,168.5,0.0,3,61.24,26 / 28,2834010,2019-09-08 12:54:13:249,0.0957,0.2995,9.8271,0.0229,0.0109,9.8066,-0.0101,-0.019,-0.0029,-24.69,-34.94,-0.87,285.36,-85.99,-156.88
30205,52.40354,-1.564981,168.5,0.0,3,61.24,26 / 28,2834110,2019-09-08 12:54:13:349,0.7526,0.1557,9.7942,-0.005,0.0002,9.8066,0.0472,0.0005,0.0333,-25.06,-34.94,-0.25,286.43,-85.89,-157.99
30206,52.40354,-1.564981,168.5,0.0,3,61.24,26 / 28,2834210,2019-09-08 12:54:13:449,0.5588,-0.0492,9.8692,-0.0059,-0.0041,9.8066,0.0277,-0.0044,0.0047,-24.44,-34.56,-0.37,286.43,-85.84,-157.69
30207,52.40354,-1.564981,168.5,0.0,3,61.24,26 / 28,2834310,2019-09-08 12:54:13:549,0.4656,0.1212,10.0913,0.0072,-0.0015,9.8066,-0.0226,-0.0022,-0.0116,-24.81,-34.69,-0.37,286.83,-85.77,-157.45
30208,52.40354,-1.564981,168.5,0.0,3,61.24,26 / 28,2834410,2019-09-08 12:54:13:649,0.6952,0.0282,9.7169,0.0018,0.0018,9.8066,-0.0077,-0.0106,-0.0029,-24.44,-35.0,-0.62,284.09,-85.74,-157.44
30209,52.40354,-1.564981,168.5,0.0,3,61.24,26 / 28,2834510,2019-09-08 12:54:13:749,0.4148,-0.2571,9.7958,0.0079,-0.0019,9.8066,-0.0069,0.0188,-0.0051,-24.44,-35.31,-0.87,284.05,-85.71,-157.44
30210,52.40354,-1.564981,168.5,0.0,3,61.24,26 / 28,2834610,2019-09-08 12:54:13:849,0.5034,-0.1168,9.8084,0.0083,0.0035,9.8066,-0.0267,-0.0072,-0.0038,-24.62,-35.06,-0.25,286.22,-85.66,-157.89
30211,52.40354,-1.564981,168.5,0.0,3,61.24,29 / 29,2834710,2019-09-08 12:54:13:949,0.8923,-0.0863,10.0058,-0.0073,0.0,9.8066,0.0433,0.0035,0.012,-24.25,-35.0,0.31,285.4,-85.65,-158.41
30212,52.40354,-1.564981,168.5,0.0,3,61.24,29 / 29,2834809,2019-09-08 12:54:14:048,0.8428,-0.2299,9.7722,-0.0083,-0.0008,9.8066,0.0356,-0.0188,0.0265,-24.37,-35.25,-0.37,285.31,-85.68,-158.55
30213,52.40354,-1.564981,168.5,0.0,3,61.24,29 / 29,2834910,2019-09-08 12:54:14:149,0.607,-0.0768,9.7398,0.0118,0.0022,9.8066,-0.0079,0.0055,0.003,-24.87,-34.87,-0.81,283.18,-85.66,-158.55
30214,52.40354,-1.564981,168.5,0.0,3,61.24,29 / 29,2835010,2019-09-08 12:54:14:249,0.8698,0.0204,9.8699,0.0059,0.0016,9.8066,-0.0006,-0.0063,-0.0108,-24.69,-34.81,-0.87,282.46,-85.55,-159.12
30215,52.40354,-1.564981,168.5,0.0,3,61.24,29 / 29,2835110,2019-09-08 12:54:14:349,0.7698,-0.3367,9.7628,-0.0007,0.006,9.8066,-0.0204,-0.0081,-0.0012,-24.94,-35.19,-0.44,283.74,-85.54,-160.14
30216,52.40354,-1.564981,168.5,0.0,3,61.24,29 / 29,2835210,2019-09-08 12:54:14:449,0.5873,-0.1149,9.7511,0.0002,0.0066,9.8066,0.0041,-0.0076,0.0071,-24.75,-35.37,0.0,282.73,-85.57,-161.16
30217,52.40354,-1.564981,168.5,0.0,3,61.24,29 / 29,2835310,2019-09-08 12:54:14:549,0.4797,0.0701,10.1467,0.001,0.0013,9.8066,0.0499,-0.0054,0.0069,-24.31,-34.75,-0.44,281.66,-85.55,-161.92
30218,52.40354,-1.564981,168.5,0.0,3,61.24,29 / 29,2835410,2019-09-08 12:54:14:649,1.0911,0.0532,9.9621,-0.0084,-0.0015,9.8066,0.0558,-0.0152,-0.0081,-24.44,-34.5,-0.19,281.37,-85.47,-162.28
30219,52.40354,-1.564981,168.5,0.0,3,61.24,29 / 29,2835510,2019-09-08 12:54:14:749,0.8127,-0.2012,10.0132,0.0164,-0.0038,9.8066,-0.0719,-0.0056,-0.0131,-24.44,-34.56,-0.44,281.27,-85.42,-162.11
30220,52.40354,-1.564981,168.5,0.0,3,61.24,29 / 29,2835610,2019-09-08 12:54:14:849,0.0959,-0.068,9.7731,0.0117,0.0018,9.8065,-0.0675,-0.0323,0.0218,-23.87,-34.5,-0.37,281.58,-85.32,-161.86
30221,52.40354,-1.564981,168.5,0.0,3,61.24,29 / 29,2835710,2019-09-08 12:54:14:949,1.3175,0.0065,9.8287,-0.0061,-0.0006,9.8066,0.0238,-0.0399,-0.0176,-24.0,-35.25,-0.31,281.5,-85.36,-161.8
30222,52.40354,-1.564981,168.5,0.0,3,61.24,28 / 28,2835811,2019-09-08 12:54:15:050,1.2555,0.3061,9.8851,-0.003,-0.0013,9.8066,0.0531,-0.007,-0.0337,-24.5,-35.12,0.0,281.26,-85.31,-161.97
30223,52.40354,-1.564981,168.5,0.0,3,61.24,28 / 28,2835909,2019-09-08 12:54:15:148,2.4452,0.2807,9.7475,0.0156,-0.0002,9.8066,0.0241,0.0025,-0.0016,-24.44,-34.87,-0.37,280.26,-85.2,-162.79
30224,52.40354,-1.564981,168.5,0.0,3,61.24,28 / 28,2836010,2019-09-08 12:54:15:249,2.1221,0.2057,9.6665,0.0153,0.0028,9.8066,0.0234,0.0023,-0.0017,-24.62,-35.0,0.0,279.53,-84.95,-163.43
30225,52.40354,-1.564981,168.5,0.0,3,61.24,28 / 28,2836110,2019-09-08 12:54:15:349,2.6924,0.0894,9.8875,0.0181,0.0012,9.8066,0.019,-0.0163,0.0076,-24.5,-34.87,0.19,278.3,-84.78,-164.09
30226,52.40354,-1.564981,168.5,0.0,3,61.24,28 / 28,2836210,2019-09-08 12:54:15:449,2.9414,-0.2685,9.6178,0.0156,0.0035,9.8066,0.0391,-0.0224,0.0051,-24.75,-34.87,0.19,277.67,-84.59,-164.75
30227,52.40354,-1.564981,168.5,0.0,3,61.24,28 / 28,2836310,2019-09-08 12:54:15:549,2.2739,0.4882,9.7225,0.0029,0.0022,9.8066,-0.0163,-0.0522,-0.004,-24.0,-34.94,0.56,279.4,-84.51,-165.01
30228,52.40354,-1.564981,168.5,0.0,3,61.24,28 / 28,2836410,2019-09-08 12:54:15:649,2.027,-0.5396,9.5831,0.0069,0.0076,9.8066,-0.0158,-0.04,-0.022,-23.87,-34.81,0.06,276.67,-84.49,-165.27
30229,52.40354,-1.564981,168.5,0.0,3,61.24,28 / 28,2836510,2019-09-08 12:54:15:749,1.4034,-0.4354,10.0511,-0.0169,-0.0012,9.8066,0.0204,-0.0477,0.008,-23.94,-34.37,0.63,278.23,-84.4,-166.22
30230,52.40354,-1.564981,168.5,0.0,3,61.24,28 / 28,2836610,2019-09-08 12:54:15:849,1.5116,0.1532,9.9344,-0.0269,-0.0024,9.8065,0.0282,-0.0006,-0.038,-23.81,-35.56,0.19,275.76,-84.57,-166.06
30231,52.403595,-1.564812,168.54,3.25,3,60.5,28 / 28,2836711,2019-09-08 12:54:15:950,1.9891,-0.0101,10.1535,0.0282,0.0028,9.8065,-0.0245,-0.0024,0.0008,-24.94,-34.94,0.5,278.07,-84.65,-166.73
30232,52.403595,-1.564812,168.54,3.25,3,60.5,28 / 28,2836810,2019-09-08 12:54:16:049,2.0949,0.0122,9.352,0.0194,-0.0009,9.8066,-0.0522,-0.032,-0.0076,-24.19,-34.5,0.19,274.87,-84.4,-167.15
30233,52.403595,-1.564812,168.54,3.25,3,60.5,28 / 28,2836910,2019-09-08 12:54:16:149,1.7164,0.1485,9.498,-0.0183,-0.0052,9.8066,0.0696,-0.0231,0.0362,-23.81,-34.44,0.44,274.58,-84.34,-167.35
30234,52.403595,-1.564812,168.54,3.25,3,60.5,28 / 28,2837010,2019-09-08 12:54:16:249,1.4885,-0.1515,10.0752,-0.01,-0.0043,9.8066,0.0059,0.0118,-0.0003,-24.06,-34.81,0.13,274.99,-84.37,-166.75
30235,52.403595,-1.564812,168.54,3.25,3,60.5,28 / 28,2837110,2019-09-08 12:54:16:349,1.7652,0.2793,9.8851,0.0115,0.0013,9.8066,-0.0183,-0.0133,0.0056,-24.44,-34.62,0.0,274.61,-84.3,-167.02
30236,52.403595,-1.564812,168.54,3.25,3,60.5,28 / 28,2837210,2019-09-08 12:54:16:449,1.5724,-0.129,9.9662,0.0054,0.0074,9.8065,0.0216,-0.0353,0.0151,-24.37,-35.06,0.0,274.42,-84.3,-167.21
30237,52.403595,-1.564812,168.54,3.25,3,60.5,28 / 28,2837310,2019-09-08 12:54:16:549,2.0121,-0.0372,9.9434,-0.0044,0.0012,9.8066,0.0259,-0.0095,0.0412,-23.62,-34.81,0.75,276.57,-84.24,-167.39
30238,52.403595,-1.564812,168.54,3.25,3,60.5,28 / 28,2837410,2019-09-08 12:54:16:649,1.228,-0.0837,9.6908,-0.0067,-0.0053,9.8066,0.0099,-0.0017,0.0124,-24.06,-35.06,0.69,277.04,-84.25,-166.94
30239,52.403595,-1.564812,168.54,3.25,3,60.5,28 / 28,2837510,2019-09-08 12:54:16:749,1.7053,0.3827,9.8558,0.0133,-0.0015,9.8066,-0.0293,-0.0249,-0.0028,-23.94,-34.56,0.75,277.03,-84.26,-166.97
30240,52.403595,-1.564812,168.54,3.25,3,60.5,28 / 28,2837610,2019-09-08 12:54:16:849,2.0639,-0.547,9.7774,0.0172,0.0052,9.8066,-0.0269,-0.0284,-0.0175,-24.31,-34.75,0.56,276.9,-84.14,-166.92
30241,52.403595,-1.564812,168.54,3.25,3,60.5,29 / 29,2837712,2019-09-08 12:54:16:951,1.5302,-0.1881,9.6737,-0.0045,-0.0031,9.8066,0.0057,0.0096,-0.0411,-24.69,-34.81,1.31,276.78,-84.15,-167.3
30242,52.403595,-1.564812,168.54,3.25,3,60.5,29 / 29,2837810,2019-09-08 12:54:17:049,1.762,-0.1574,9.8605,-0.0075,0.0063,9.8066,0.0455,-0.0538,0.0528,-24.19,-34.81,0.75,275.49,-84.15,-168.32
30243,52.403595,-1.564812,168.54,3.25,3,60.5,29 / 29,2837910,2019-09-08 12:54:17:149,1.7604,0.0325,9.8692,0.0052,-0.0037,9.8066,-0.0027,-0.0428,0.0218,-24.44,-34.87,0.25,273.63,-84.05,-167.63
30244,52.403595,-1.564812,168.54,3.25,3,60.5,29 / 29,2838010,2019-09-08 12:54:17:249,0.889,-0.1265,9.7054,0.0091,-0.0049,9.8066,-0.0167,-0.0039,-0.0207,-25.0,-34.81,0.69,277.0,-83.95,-166.8
30245,52.403595,-1.564812,168.54,3.25,3,60.5,29 / 29,2838110,2019-09-08 12:54:17:349,0.8529,-0.1583,9.7693,-0.0133,-0.0069,9.8066,0.0455,-0.0309,-0.0127,-24.37,-34.75,0.06,274.43,-83.98,-166.72
30246,52.403595,-1.564812,168.54,3.25,3,60.5,29 / 29,2838210,2019-09-08 12:54:17:449,1.0589,-0.2299,10.1523,-0.0131,0.0009,9.8066,0.0423,-0.0296,-0.0008,-23.94,-34.56,0.25,275.08,-84.14,-166.32
30247,52.403595,-1.564812,168.54,3.25,3,60.5,29 / 29,2838310,2019-09-08 12:54:17:549,1.0981,0.0901,9.7472,0.0057,0.0024,9.8066,-0.0099,-0.0268,0.0329,-24.44,-34.5,0.69,277.16,-84.12,-166.87
30248,52.403595,-1.564812,168.54,3.25,3,60.5,29 / 29,2838410,2019-09-08 12:54:17:649,1.0157,-0.0519,10.003,-0.0058,0.0076,9.8065,0.0165,-0.0427,0.0051,-24.25,-35.37,0.0,273.87,-84.12,-167.49
30249,52.403595,-1.564812,168.54,3.25,3,60.5,29 / 29,2838510,2019-09-08 12:54:17:749,0.8368,0.3087,10.0851,0.0091,0.0006,9.8066,-0.0027,-0.0281,0.005,-24.5,-34.5,0.31,273.17,-84.14,-168.47
30250,52.403595,-1.564812,168.54,3.25,3,60.5,29 / 29,2838610,2019-09-08 12:54:17:849,0.6323,0.1186,10.0472,0.0121,-0.0066,9.8066,-0.021,-0.0132,-0.0038,-24.56,-34.62,0.06,273.99,-84.12,-167.72
30251,52.403595,-1.564812,168.54,3.25,3,60.5,27 / 28,2838712,2019-09-08 12:54:17:951,0.0665,-0.2674,9.9022,-0.0024,-0.0034,9.8066,0.0258,-0.0219,-0.0116,-24.87,-34.94,0.38,274.24,-84.13,-167.48
30252,52.403595,-1.564812,168.54,3.25,3,60.5,27 / 28,2838811,2019-09-08 12:54:18:050,0.4096,-0.3867,9.7638,0.0094,-0.0049,9.8066,0.0271,-0.0469,-0.0119,-24.25,-35.0,0.81,276.74,-84.06,-166.96
30253,52.403595,-1.564812,168.54,3.25,3,60.5,27 / 28,2838910,2019-09-08 12:54:18:149,0.2808,-0.1579,9.8579,0.0007,0.0055,9.8066,-0.0116,-0.0354,-0.0344,-24.12,-34.37,0.5,276.26,-84.0,-167.59
30254,52.403595,-1.564812,168.54,3.25,3,60.5,27 / 28,2839010,2019-09-08 12:54:18:249,0.399,0.0823,10.0107,0.0011,0.0024,9.8066,0.0172,-0.023,-0.0114,-23.87,-34.62,0.69,275.41,-83.95,-168.1
30255,52.403595,-1.564812,168.54,3.25,3,60.5,27 / 28,2839110,2019-09-08 12:54:18:349,0.6989,0.0957,9.7477,0.004,0.0061,9.8065,-0.0045,-0.0144,0.0066,-24.31,-34.75,0.63,275.02,-83.85,-168.33
30256,52.403595,-1.564812,168.54,3.25,3,60.5,27 / 28,2839210,2019-09-08 12:54:18:449,1.4887,-0.3036,9.1195,-0.0023,-0.0001,9.8066,0.0635,-0.0746,0.0558,-23.56,-34.75,0.44,272.38,-83.88,-168.61
30257,52.403595,-1.564812,168.54,3.25,3,60.5,27 / 28,2839310,2019-09-08 12:54:18:549,0.0973,0.3672,9.6824,-0.0186,0.0012,9.8066,-0.0325,-0.0512,0.0361,-23.69,-34.75,0.38,273.04,-83.8,-167.83
30258,52.403595,-1.564812,168.54,3.25,3,60.5,27 / 28,2839410,2019-09-08 12:54:18:649,0.528,0.1355,10.1495,-0.0135,-0.0013,9.8066,-0.017,-0.0198,-0.039,-24.19,-35.37,0.06,273.24,-83.89,-167.78
30259,52.403595,-1.564812,168.54,3.25,3,60.5,27 / 28,2839510,2019-09-08 12:54:18:749,0.7745,0.0973,10.5108,0.018,0.0032,9.8066,-0.019,-0.0675,0.0236,-24.12,-34.87,0.44,272.4,-83.78,-168.44
30260,52.403595,-1.564812,168.54,3.25,3,60.5,27 / 28,2839610,2019-09-08 12:54:18:849,-0.6093,-0.572,9.9333,0.0014,-0.0019,9.8066,-0.0457,-0.0422,0.0121,-23.31,-34.87,0.25,272.38,-83.78,-168.07
30261,52.403595,-1.564812,168.54,3.25,3,60.5,27 / 27,2839710,2019-09-08 12:54:18:949,-0.2389,0.0766,9.9666,0.014,-0.0036,9.8066,0.0134,-0.0432,0.0491,-24.31,-35.06,0.5,275.16,-83.67,-167.92
30262,52.403595,-1.564812,168.54,3.25,3,60.5,27 / 27,2839810,2019-09-08 12:54:19:049,0.3115,-0.2067,9.9139,0.0045,-0.0076,9.8066,0.0352,-0.0158,0.0013,-24.0,-35.0,0.88,275.51,-83.42,-167.2
30263,52.403595,-1.564812,168.54,3.25,3,60.5,27 / 27,2839910,2019-09-08 12:54:19:149,1.043,-0.1434,9.9064,0.0175,0.002,9.8066,-0.0472,-0.02,0.0074,-23.56,-34.87,1.63,277.53,-83.3,-167.43
30264,52.403595,-1.564812,168.54,3.25,3,60.5,27 / 27,2840010,2019-09-08 12:54:19:249,0.6416,-0.0507,9.9017,0.0084,-0.0007,9.8066,-0.0647,-0.028,-0.013,-24.5,-34.81,0.63,274.81,-83.2,-167.58
30265,52.403595,-1.564812,168.54,3.25,3,60.5,27 / 27,2840110,2019-09-08 12:54:19:349,0.9162,0.1074,10.2625,0.0067,-0.007,9.8066,0.0321,-0.0252,0.0209,-24.5,-35.12,1.25,275.11,-83.18,-167.24
30266,52.403595,-1.564812,168.54,3.25,3,60.5,27 / 27,2840210,2019-09-08 12:54:19:449,0.557,0.0547,9.7678,0.0041,-0.0102,9.8066,0.0042,-0.0244,0.0318,-24.37,-35.12,1.5,278.54,-83.13,-166.2
30267,52.403595,-1.564812,168.54,3.25,3,60.5,27 / 27,2840310,2019-09-08 12:54:19:549,0.8766,-0.2366,9.7353,-0.0137,-0.0007,9.8066,-0.053,-0.036,-0.0091,-24.25,-34.94,1.5,279.52,-83.07,-165.15
30268,52.403595,-1.564812,168.54,3.25,3,60.5,27 / 27,2840410,2019-09-08 12:54:19:649,0.672,0.0631,9.8312,-0.0016,0.0064,9.8066,-0.0842,-0.0072,-0.0477,-24.69,-34.81,1.38,277.15,-83.16,-165.51
30269,52.403595,-1.564812,168.54,3.25,3,60.5,27 / 27,2840510,2019-09-08 12:54:19:749,0.7311,0.513,9.6466,0.0147,0.0095,9.8066,0.0246,-0.0157,0.0006,-24.06,-34.75,1.19,275.88,-83.19,-166.49
30270,52.403595,-1.564812,168.54,3.25,3,60.5,27 / 27,2840610,2019-09-08 12:54:19:849,0.7301,-0.1456,9.9942,0.0101,-0.0047,9.8066,0.0038,-0.0425,0.0265,-24.19,-34.81,1.13,275.66,-83.07,-166.53
30271,52.403595,-1.564812,168.54,3.25,3,60.5,27 / 27,2840710,2019-09-08 12:54:19:949,0.3765,0.1387,9.5183,-0.0055,0.0021,9.8066,-0.0104,0.0013,0.0061,-25.19,-34.69,0.88,276.23,-83.09,-166.31
30272,52.403595,-1.564812,168.54,3.25,3,60.5,27 / 27,2840809,2019-09-08 12:54:20:048,0.7495,-0.5805,9.805,0.0027,-0.0045,9.8066,0.0255,-0.0348,0.038,-24.5,-34.37,1.06,276.43,-83.06,-166.06
30273,52.403595,-1.564812,168.54,3.25,3,60.5,27 / 27,2840910,2019-09-08 12:54:20:149,1.1366,-0.0362,9.8599,0.0154,0.0033,9.8066,-0.0201,-0.042,0.0065,-24.37,-34.75,1.25,276.15,-83.02,-165.98
30274,52.403595,-1.564812,168.54,3.25,3,60.5,27 / 27,2841010,2019-09-08 12:54:20:249,0.5255,-0.4899,10.0288,0.0123,0.0077,9.8066,-0.0283,-0.0426,-0.0177,-24.37,-34.62,0.88,275.67,-82.91,-166.28
30275,52.403595,-1.564812,168.54,3.25,3,60.5,27 / 27,2841110,2019-09-08 12:54:20:349,0.8219,0.1234,9.571,-0.0214,0.0077,9.8066,0.1158,-0.0231,-0.0131,-24.44,-34.75,0.56,274.46,-82.99,-167.61
30276,52.403595,-1.564812,168.54,3.25,3,60.5,27 / 27,2841210,2019-09-08 12:54:20:449,0.9713,0.6857,10.4164,-0.0187,-0.0047,9.8066,0.1115,-0.0133,-0.0073,-24.19,-34.69,0.31,271.64,-82.93,-167.93
30277,52.403595,-1.564812,168.54,3.25,3,60.5,27 / 27,2841310,2019-09-08 12:54:20:549,1.4055,-0.1297,9.8442,0.0387,-0.0026,9.8066,-0.0955,-0.0147,0.0014,-24.44,-35.25,0.75,274.0,-82.94,-167.99
30278,52.403595,-1.564812,168.54,3.25,3,60.5,27 / 27,2841410,2019-09-08 12:54:20:649,0.0856,-0.2753,9.5577,0.0172,-0.0001,9.8065,-0.0945,-0.0245,0.0276,-24.31,-35.0,0.88,274.23,-82.74,-167.45
30279,52.403595,-1.564812,168.54,3.25,3,60.5,27 / 27,2841510,2019-09-08 12:54:20:749,0.1963,-0.6823,10.3351,-0.014,-0.0006,9.8066,0.0663,-0.0412,0.0187,-24.12,-34.81,1.0,274.29,-82.71,-167.34
30280,52.403595,-1.564812,168.54,3.25,3,60.5,27 / 27,2841610,2019-09-08 12:54:20:849,1.2296,0.8193,10.0709,-0.0311,-0.0041,9.8065,0.1011,0.0316,-0.035,-23.81,-34.69,0.88,274.46,-82.86,-167.41
30281,52.403595,-1.564812,168.54,3.25,3,60.5,27 / 27,2841710,2019-09-08 12:54:20:949,1.5981,0.0259,10.0654,0.039,0.0015,9.8065,-0.1199,-0.0085,0.0324,-24.06,-34.75,0.69,274.36,-82.91,-167.58
30282,52.403595,-1.564812,168.54,3.25,3,60.5,27 / 27,2841811,2019-09-08 12:54:21:050,0.5807,-0.5304,9.7018,0.0336,-0.0038,9.8066,-0.0705,-0.0276,0.0224,-24.12,-34.75,0.81,274.38,-82.73,-167.3
30283,52.403595,-1.564812,168.54,3.25,3,60.5,27 / 27,2841909,2019-09-08 12:54:21:148,1.0553,0.2172,9.3768,-0.0206,0.0056,9.8066,-0.0399,-0.0249,-0.0258,-24.37,-34.56,1.06,274.49,-82.75,-167.2
30284,52.403595,-1.564812,168.54,3.25,3,60.5,27 / 27,2842010,2019-09-08 12:54:21:249,0.6182,0.0774,9.907,0.0126,-0.0045,9.8066,-0.0563,0.022,-0.0691,-24.44,-34.81,1.56,276.95,-82.83,-167.31
30285,52.403595,-1.564812,168.54,3.25,3,60.5,27 / 27,2842110,2019-09-08 12:54:21:349,0.6702,-0.0987,9.992,-0.0252,0.0042,9.8066,0.0896,-0.0176,-0.0054,-24.69,-34.75,0.69,273.94,-83.04,-168.52
30286,52.403595,-1.564812,168.54,3.25,3,60.5,27 / 27,2842210,2019-09-08 12:54:21:449,0.9048,0.1805,9.5857,-0.0148,0.0072,9.8066,0.0571,-0.0088,-0.0025,-23.44,-34.69,0.75,272.14,-82.93,-169.48
30287,52.403595,-1.564812,168.54,3.25,3,60.5,27 / 27,2842310,2019-09-08 12:54:21:549,0.7716,0.7447,9.5699,-0.0016,0.0086,9.8066,0.0598,-0.0705,0.0291,-24.06,-35.0,0.31,269.31,-82.78,-170.05
30288,52.403595,-1.564812,168.54,3.25,3,60.5,27 / 27,2842410,2019-09-08 12:54:21:649,0.1785,1.8893,9.2701,-0.0253,0.0107,9.8066,0.0624,0.0798,-0.0926,-24.12,-34.69,0.94,270.82,-82.78,-170.92
30289,52.403595,-1.564812,168.54,3.25,3,60.5,27 / 27,2842510,2019-09-08 12:54:21:749,0.962,-3.0075,10.6608,-0.0082,-0.0123,9.8066,0.0661,0.0228,-0.0107,-23.25,-35.12,1.38,269.17,-82.57,-171.9
30290,52.403595,-1.564812,168.54,3.25,3,60.5,27 / 27,2842610,2019-09-08 12:54:21:849,0.5959,0.6151,9.6847,-0.0163,-0.0207,9.8066,0.089,0.0024,-0.0496,-23.94,-35.25,0.81,269.56,-82.59,-171.9
30291,52.403595,-1.564812,168.54,3.25,3,60.5,29 / 29,2842711,2019-09-08 12:54:21:950,1.0785,-0.8787,9.6403,0.0398,0.0146,9.8065,-0.0465,-0.0376,0.0473,-24.31,-35.0,1.38,269.01,-82.53,-172.37
30292,52.403595,-1.564812,168.54,3.25,3,60.5,29 / 29,2842810,2019-09-08 12:54:22:049,-0.2415,3.5331,9.6553,0.0552,-0.0134,9.8064,-0.0498,0.2209,-0.1454,-24.06,-35.06,1.0,268.26,-82.17,-172.59
30293,52.403595,-1.564812,168.54,3.25,3,60.5,29 / 29,2842910,2019-09-08 12:54:22:149,0.9139,-2.1713,9.3991,-0.0485,-0.0243,9.8065,-0.0969,0.0914,-0.0854,-24.37,-34.69,0.38,265.16,-82.17,-173.36
30294,52.403595,-1.564812,168.54,3.25,3,60.5,29 / 29,2843010,2019-09-08 12:54:22:249,0.1567,-0.4761,10.1098,-0.0392,-0.0017,9.8065,-0.0748,-0.0126,0.0703,-24.31,-35.0,1.06,268.01,-82.6,-173.49
30295,52.403595,-1.564812,168.54,3.25,3,60.5,29 / 29,2843110,2019-09-08 12:54:22:349,1.8453,0.0989,10.1003,0.0207,0.0055,9.8066,0.1035,0.0016,-0.016,-24.56,-35.06,0.88,267.83,-82.46,-173.82
30296,52.403595,-1.564812,168.54,3.25,3,60.5,29 / 29,2843210,2019-09-08 12:54:22:449,1.2762,0.2522,10.2467,0.018,0.0036,9.8066,0.1229,-0.0226,-0.0013,-23.87,-34.81,0.69,267.08,-82.43,-174.19
30297,52.403595,-1.564812,168.54,3.25,3,60.5,29 / 29,2843310,2019-09-08 12:54:22:549,-0.6493,0.1626,9.076,0.0023,0.0021,9.8066,-0.1544,-0.022,-0.0109,-24.81,-35.31,0.81,267.5,-82.46,-174.15
30298,52.403595,-1.564812,168.54,3.25,3,60.5,29 / 29,2843410,2019-09-08 12:54:22:649,-0.103,-0.6755,9.3174,0.0149,0.0042,9.8066,-0.2118,-0.0667,0.0557,-23.81,-34.62,1.5,269.48,-82.43,-174.16
30299,52.403595,-1.564812,168.54,3.25,3,60.5,29 / 29,2843510,2019-09-08 12:54:22:749,-0.0754,-0.165,9.659,-0.0326,-0.0061,9.8065,0.2731,-0.033,-0.0035,-23.69,-35.31,0.81,267.81,-82.35,-173.32
30300,52.403595,-1.564812,168.54,3.25,3,60.5,29 / 29,2843610,2019-09-08 12:54:22:849,1.574,-0.9336,9.9324,-0.0368,-0.017,9.8065,0.2467,-0.021,-0.0133,-24.12,-34.75,0.69,268.82,-82.57,-172.62
30301,52.403595,-1.564812,168.54,3.25,3,60.5,27 / 28,2843710,2019-09-08 12:54:22:949,0.6566,0.0998,10.0518,0.0199,0.0012,9.8066,-0.1557,-0.0035,-0.0507,-24.37,-36.0,-0.75,263.8,-82.39,-172.39
30302,52.403595,-1.564812,168.54,3.25,3,60.5,27 / 28,2843810,2019-09-08 12:54:23:049,0.1685,0.2596,10.0248,0.0109,0.0183,9.8066,-0.0713,-0.0591,0.0032,-25.0,-36.87,-0.06,265.58,-82.45,-173.17
30303,52.403595,-1.564812,168.54,3.25,3,60.5,27 / 28,2843910,2019-09-08 12:54:23:149,-0.6672,-0.0782,9.5609,0.0069,-0.0101,9.8066,-0.0211,-0.0385,0.018,-25.19,-37.37,0.69,268.26,-82.45,-172.74
30304,52.403595,-1.564812,168.54,3.25,3,60.5,27 / 28,2844010,2019-09-08 12:54:23:249,-0.0714,-0.5041,9.6522,-0.0019,0.0116,9.8065,-0.0746,-0.0275,0.0325,-26.06,-37.56,1.38,268.37,-82.32,-172.5
30305,52.403595,-1.564812,168.54,3.25,3,60.5,27 / 28,2844110,2019-09-08 12:54:23:349,0.7152,-0.0775,9.6794,0.0062,0.0069,9.8066,0.024,-0.0246,-0.0016,-24.94,-36.5,2.75,273.04,-82.29,-172.62
30306,52.403595,-1.564812,168.54,3.25,3,60.5,27 / 28,2844210,2019-09-08 12:54:23:449,-0.3627,-0.0247,9.5771,0.0197,-0.0006,9.8066,0.0082,0.0028,-0.0121,-24.62,-36.12,2.56,272.5,-82.3,-173.18
30307,52.403595,-1.564812,168.54,3.25,3,60.5,27 / 28,2844310,2019-09-08 12:54:23:549,-0.157,-0.4044,9.6951,-0.0248,-0.0088,9.8066,-0.0363,-0.0117,0.0015,-24.44,-35.0,2.88,273.29,-82.49,-172.82
30308,52.403595,-1.564812,168.54,3.25,3,60.5,27 / 28,2844410,2019-09-08 12:54:23:649,-1.1133,-0.6448,9.8564,-0.0296,-0.0089,9.8065,-0.0087,-0.0297,0.0425,-24.81,-35.12,2.25,271.55,-82.49,-172.42
30309,52.403595,-1.564812,168.54,3.25,3,60.5,27 / 28,2844510,2019-09-08 12:54:23:749,1.1948,0.8204,9.0682,0.053,0.0035,9.8065,-0.0884,-0.0161,-0.0094,-24.25,-35.19,1.81,271.59,-82.4,-171.98
30310,52.403595,-1.564812,168.54,3.25,3,60.5,27 / 28,2844610,2019-09-08 12:54:23:849,1.991,-1.7301,11.4285,0.0673,-0.0288,9.8063,0.1623,-0.0628,0.1339,-25.06,-35.5,1.88,273.09,-82.09,-170.29
30311,52.403595,-1.564812,168.54,3.25,3,60.5,26 / 27,2844711,2019-09-08 12:54:23:950,0.1856,0.539,9.9147,-0.028,0.0082,9.8065,-0.0382,-0.0393,0.0831,-24.81,-34.75,2.63,275.99,-82.17,-169.84
30312,52.403595,-1.564812,168.54,3.25,3,60.5,26 / 27,2844810,2019-09-08 12:54:24:049,-0.0842,0.1356,9.5544,-0.0101,-0.0103,9.8066,-0.1139,0.0024,0.016,-25.44,-34.44,1.56,274.1,-82.19,-169.75
30313,52.403595,-1.564812,168.54,3.25,3,60.5,26 / 27,2844910,2019-09-08 12:54:24:149,0.5062,0.0847,10.5113,0.056,-0.0097,9.8064,0.0064,0.0398,-0.0307,-24.56,-34.25,2.38,274.42,-81.64,-168.65
30314,52.403595,-1.564812,168.54,3.25,3,60.5,26 / 27,2845010,2019-09-08 12:54:24:249,0.4796,-0.4507,10.6566,0.0415,0.0129,9.8065,-0.046,-0.0696,-0.0022,-24.37,-34.37,1.69,274.15,-81.66,-168.66
30315,52.403595,-1.564812,168.54,3.25,3,60.5,26 / 27,2845110,2019-09-08 12:54:24:349,-1.1814,0.6421,9.3912,-0.0465,-0.0038,9.8065,-0.1095,-0.0253,-0.0134,-24.25,-34.31,1.31,271.78,-81.74,-168.74
30316,52.403595,-1.564812,168.54,3.25,3,60.5,26 / 27,2845210,2019-09-08 12:54:24:449,-0.9043,-1.0495,10.0247,-0.031,-0.0142,9.8065,-0.0547,-0.0681,0.0425,-24.81,-35.12,1.69,275.65,-82.07,-167.72
30317,52.403595,-1.564812,168.54,3.25,3,60.5,26 / 27,2845310,2019-09-08 12:54:24:549,1.1096,0.2375,9.8058,0.0392,0.009,9.8065,-0.0582,-0.0368,-0.0192,-23.81,-35.0,2.63,278.37,-82.09,-167.21
30318,52.403595,-1.564812,168.54,3.25,3,60.5,26 / 27,2845410,2019-09-08 12:54:24:649,0.162,-0.443,9.4332,0.0297,0.0124,9.8065,-0.102,-0.0521,-0.0061,-24.37,-35.31,1.88,274.7,-81.83,-168.02
30319,52.403595,-1.564812,168.54,3.25,3,60.5,26 / 27,2845510,2019-09-08 12:54:24:749,-0.5667,0.2797,9.9656,-0.0292,-0.011,9.8066,0.1432,-0.012,0.0023,-23.87,-34.56,2.31,275.32,-81.91,-167.52
30320,52.403595,-1.564812,168.54,3.25,3,60.5,26 / 27,2845610,2019-09-08 12:54:24:849,1.4494,-0.5805,10.3792,-0.0145,0.0088,9.8066,0.0403,-0.0639,-0.013,-24.31,-35.0,2.06,274.54,-81.81,-168.14
30321,52.40381,-1.56404,168.73,8.92,3,67.77,26 / 27,2845710,2019-09-08 12:54:24:949,0.7094,-0.0259,10.1179,0.0246,0.0058,9.8065,0.0198,-0.0139,0.005,-24.0,-34.94,2.38,273.61,-81.78,-169.01
30322,52.40381,-1.56404,168.73,8.92,3,67.77,26 / 27,2845810,2019-09-08 12:54:25:049,0.9146,0.0466,9.4982,0.0169,-0.0001,9.8065,-0.0313,-0.0406,0.0435,-24.37,-35.0,2.38,273.02,-81.54,-169.24
30323,52.40381,-1.56404,168.73,8.92,3,67.77,26 / 27,2845910,2019-09-08 12:54:25:149,0.8008,-0.4061,10.0316,-0.0316,0.0001,9.8065,-0.0513,-0.0371,-0.014,-23.94,-35.06,2.75,276.03,-81.67,-168.87
30324,52.40381,-1.56404,168.73,8.92,3,67.77,26 / 27,2846010,2019-09-08 12:54:25:249,1.6381,0.1356,10.4181,-0.0509,-0.0049,9.8065,0.0616,-0.0575,0.0324,-24.75,-35.25,2.69,276.07,-81.77,-169.18
30325,52.40381,-1.56404,168.73,8.92,3,67.77,26 / 27,2846110,2019-09-08 12:54:25:349,0.8062,0.3546,10.5772,0.0415,0.0043,9.8065,0.0508,-0.0161,-0.0449,-24.25,-34.81,3.06,276.8,-81.86,-168.4
30326,52.40381,-1.56404,168.73,8.92,3,67.77,26 / 27,2846210,2019-09-08 12:54:25:449,-0.2847,-0.9637,8.9808,0.0492,-0.0017,9.8064,-0.3568,-0.0311,0.0554,-24.81,-35.19,2.06,274.54,-81.67,-168.24
30327,52.40381,-1.56404,168.73,8.92,3,67.77,26 / 27,2846310,2019-09-08 12:54:25:549,-1.3161,-0.7736,8.8456,-0.0726,-0.0194,9.8063,-0.4223,-0.0141,0.0712,-24.31,-34.56,2.81,277.39,-81.73,-167.63
30328,52.40381,-1.56404,168.73,8.92,3,67.77,26 / 27,2846410,2019-09-08 12:54:25:649,0.2539,-0.7925,7.1202,-0.0459,-0.0038,9.8065,-0.0214,0.0314,0.0058,-24.56,-34.94,2.25,276.49,-81.93,-166.68
30329,52.40381,-1.56404,168.73,8.92,3,67.77,26 / 27,2846510,2019-09-08 12:54:25:749,0.4014,-0.6408,9.9323,-0.1349,0.0113,9.8057,-0.2886,0.0275,-0.0349,-24.56,-34.37,2.94,279.61,-82.37,-166.89
30330,52.40381,-1.56404,168.73,8.92,3,67.77,26 / 27,2846610,2019-09-08 12:54:25:849,1.1341,-0.3028,11.1811,-0.1173,-0.0211,9.8059,0.3532,-0.0628,-0.0179,-24.37,-34.62,2.06,275.74,-82.3,-167.7
30331,52.40381,-1.56404,168.73,8.92,3,67.77,27 / 28,2846710,2019-09-08 12:54:25:949,2.1701,-1.4341,10.9666,0.1179,0.0114,9.8059,0.5089,-0.1193,0.0686,-24.12,-34.75,2.88,277.41,-82.28,-168.44
30332,52.40381,-1.56404,168.73,8.92,3,67.77,27 / 28,2846810,2019-09-08 12:54:26:049,0.8804,-0.5912,10.1665,0.0685,0.0166,9.8063,-0.131,-0.0676,0.0278,-25.0,-35.56,2.0,271.33,-81.56,-170.93
30333,52.40381,-1.56404,168.73,8.92,3,67.77,27 / 28,2846910,2019-09-08 12:54:26:149,0.4228,0.1167,9.5252,0.0306,0.0085,9.8066,-0.0479,-0.0344,-0.004,-24.0,-34.62,2.5,272.56,-81.52,-172.08
30334,52.40381,-1.56404,168.73,8.92,3,67.77,27 / 28,2847010,2019-09-08 12:54:26:249,0.5864,0.4077,9.0906,0.013,0.0036,9.8066,0.0379,-0.0493,0.0522,-24.94,-35.12,2.63,271.96,-81.38,-172.71
30335,52.40381,-1.56404,168.73,8.92,3,67.77,27 / 28,2847110,2019-09-08 12:54:26:349,0.5004,-0.1627,9.1303,-0.0474,-0.006,9.8064,-0.0549,-0.024,0.0433,-24.69,-34.81,2.06,270.77,-81.74,-172.11
30336,52.40381,-1.56404,168.73,8.92,3,67.77,27 / 28,2847210,2019-09-08 12:54:26:449,0.151,-0.3434,9.7848,-0.0174,0.0041,9.8066,-0.0526,0.0025,-0.016,-25.0,-35.12,2.38,270.82,-81.87,-172.25
30337,52.40381,-1.56404,168.73,8.92,3,67.77,27 / 28,2847310,2019-09-08 12:54:26:549,0.569,0.4109,9.7806,-0.0104,-0.0017,9.8066,-0.0391,0.0246,0.0038,-24.87,-34.87,2.63,273.46,-81.95,-172.03
30338,52.40381,-1.56404,168.73,8.92,3,67.77,27 / 28,2847410,2019-09-08 12:54:26:649,-0.0265,0.2249,9.3506,0.0361,-0.0111,9.8065,-0.2053,0.0183,-0.002,-24.56,-35.44,2.75,273.98,-81.75,-171.22
30339,52.40381,-1.56404,168.73,8.92,3,67.77,27 / 28,2847510,2019-09-08 12:54:26:749,-0.3524,-0.4952,9.6401,-0.0548,-0.015,9.8064,-0.1492,-0.0427,0.0652,-24.62,-35.0,2.06,271.62,-81.58,-171.02
30340,52.40381,-1.56404,168.73,8.92,3,67.77,27 / 28,2847610,2019-09-08 12:54:26:849,0.6579,-0.3418,9.6855,0.0038,-0.0124,9.8066,0.0277,-0.0664,-0.0077,-24.19,-34.62,2.81,274.66,-81.63,-170.16
30341,52.40381,-1.56404,168.73,8.92,3,67.77,27 / 28,2847710,2019-09-08 12:54:26:949,0.9304,0.1182,10.5828,-0.0268,-0.0135,9.8066,0.124,0.0042,0.0064,-24.81,-34.0,3.06,276.47,-81.79,-169.14
30342,52.40381,-1.56404,168.73,8.92,3,67.77,27 / 28,2847810,2019-09-08 12:54:27:049,0.7167,-0.6717,11.3554,-0.0353,-0.0089,9.8065,0.046,-0.0208,0.0802,-24.56,-34.25,3.0,277.26,-81.87,-168.48
30343,52.40381,-1.56404,168.73,8.92,3,67.77,27 / 28,2847910,2019-09-08 12:54:27:149,2.0555,-0.2527,9.7337,0.0494,0.0007,9.8065,0.0806,0.0019,0.0693,-25.31,-33.87,2.88,277.75,-81.9,-168.04
30344,52.40381,-1.56404,168.73,8.92,3,67.77,27 / 28,2848010,2019-09-08 12:54:27:249,0.3462,-0.876,9.3628,0.0426,0.0096,9.8065,0.0469,-0.0317,0.048,-25.44,-34.19,2.38,274.68,-81.6,-168.33
30345,52.40381,-1.56404,168.73,8.92,3,67.77,27 / 28,2848110,2019-09-08 12:54:27:349,0.0211,0.0757,9.978,-0.0383,0.0062,9.8065,0.0933,0.0215,-0.0176,-25.06,-33.87,3.0,277.54,-81.63,-167.87
30346,52.40381,-1.56404,168.73,8.92,3,67.77,27 / 28,2848210,2019-09-08 12:54:27:449,0.2979,-0.2574,10.7272,-0.0274,0.0027,9.8065,-0.0123,-0.0134,-0.0448,-25.37,-34.56,2.06,275.14,-81.94,-168.03
30347,52.40381,-1.56404,168.73,8.92,3,67.77,27 / 28,2848310,2019-09-08 12:54:27:549,-1.0543,0.0972,9.1809,0.0417,0.0067,9.8065,-0.0186,-0.059,0.0312,-25.06,-34.62,2.19,274.05,-81.66,-168.71
30348,52.40381,-1.56404,168.73,8.92,3,67.77,27 / 28,2848410,2019-09-08 12:54:27:649,-1.4222,-0.3469,8.6014,0.0557,0.0172,9.8064,0.0021,0.0064,0.0254,-25.31,-34.19,2.19,273.17,-81.51,-169.71
30349,52.40381,-1.56404,168.73,8.92,3,67.77,27 / 28,2848510,2019-09-08 12:54:27:749,0.4918,-0.5471,9.0348,-0.0507,0.0048,9.8065,-0.0276,0.004,-0.009,-24.94,-35.19,1.88,272.09,-81.36,-170.23
30350,52.40381,-1.56404,168.73,8.92,3,67.77,27 / 28,2848610,2019-09-08 12:54:27:849,-0.414,-0.212,10.6134,-0.0054,0.0063,9.8066,0.0333,0.017,-0.082,-24.87,-35.19,3.06,273.42,-81.55,-171.49
30351,52.40381,-1.56404,168.73,8.92,3,67.77,26 / 26,2848710,2019-09-08 12:54:27:949,0.6897,-0.6936,10.7734,0.019,0.0063,9.8066,0.1689,-0.0796,0.0119,-25.06,-34.94,2.88,272.84,-81.61,-172.16
30352,52.40381,-1.56404,168.73,8.92,3,67.77,26 / 26,2848811,2019-09-08 12:54:28:050,0.8062,0.4224,10.279,0.0012,-0.0028,9.8066,-0.1046,-0.0807,0.0666,-24.69,-34.62,2.88,272.12,-81.56,-172.81
30353,52.40381,-1.56404,168.73,8.92,3,67.77,26 / 26,2848910,2019-09-08 12:54:28:149,0.5749,-0.2469,9.7018,-0.0101,-0.006,9.8066,-0.0191,0.0977,-0.0779,-24.69,-34.44,2.75,273.35,-81.54,-171.89
30354,52.40381,-1.56404,168.73,8.92,3,67.77,26 / 26,2849010,2019-09-08 12:54:28:249,-0.8745,0.614,10.1498,0.0102,-0.0021,9.8066,-0.0722,-0.0245,0.0133,-25.25,-35.12,2.63,274.11,-81.57,-170.83
30355,52.40381,-1.56404,168.73,8.92,3,67.77,26 / 26,2849110,2019-09-08 12:54:28:349,0.441,-1.2515,9.6697,0.0091,-0.0191,9.8066,0.006,-0.1249,0.1052,-24.69,-34.56,3.0,273.82,-81.7,-171.32
30356,52.40381,-1.56404,168.73,8.92,3,67.77,26 / 26,2849210,2019-09-08 12:54:28:449,1.3251,-1.1705,9.6271,0.0229,0.0045,9.8065,0.0199,0.0503,-0.0851,-25.44,-34.44,2.81,274.49,-81.54,-170.75
30357,52.40381,-1.56404,168.73,8.92,3,67.77,26 / 26,2849310,2019-09-08 12:54:28:549,1.4031,-1.8688,9.7684,-0.0239,-0.0077,9.8066,0.0715,-0.1145,0.0767,-24.87,-34.62,3.0,274.68,-81.35,-169.94
30358,52.40381,-1.56404,168.73,8.92,3,67.77,26 / 26,2849410,2019-09-08 12:54:28:649,-1.2745,-0.2431,9.1032,0.0097,-0.0129,9.8065,0.0898,-0.0068,0.1071,-25.19,-34.62,3.44,275.21,-81.42,-169.52
30359,52.40381,-1.56404,168.73,8.92,3,67.77,26 / 26,2849510,2019-09-08 12:54:28:749,0.1493,-0.0919,10.9384,-0.0396,-0.0085,9.8065,0.0853,0.0646,-0.0439,-25.87,-34.75,3.19,277.74,-81.49,-167.32
30360,52.40381,-1.56404,168.73,8.92,3,67.77,26 / 26,2849610,2019-09-08 12:54:28:849,2.5855,-0.4726,10.5681,-0.0842,0.0089,9.8062,0.1024,0.0153,0.03,-25.25,-34.06,3.13,278.71,-81.67,-166.76
30361,52.40381,-1.56404,168.73,8.92,3,67.77,28 / 29,2849710,2019-09-08 12:54:28:949,2.3664,-1.454,11.3928,0.0967,0.0048,9.8061,0.0785,-0.0653,0.0975,-26.25,-34.0,3.25,280.05,-81.67,-165.64
30362,52.40381,-1.56404,168.73,8.92,3,67.77,28 / 29,2849810,2019-09-08 12:54:29:049,-0.9092,0.0163,9.2827,0.1006,0.0065,9.8061,-0.089,0.0125,-0.0152,-25.56,-34.56,3.25,277.66,-81.2,-166.99
30363,52.40381,-1.56404,168.73,8.92,3,67.77,28 / 29,2849910,2019-09-08 12:54:29:149,-0.7186,-1.2065,9.897,-0.0322,-0.0134,9.8065,-0.0248,-0.1035,0.0395,-25.12,-34.12,3.0,277.1,-81.31,-167.84
30364,52.40381,-1.56404,168.73,8.92,3,67.77,28 / 29,2850010,2019-09-08 12:54:29:249,0.4775,-0.7114,10.1784,-0.0563,0.009,9.8065,0.0963,0.0158,-0.0543,-25.06,-34.69,3.5,278.6,-81.48,-168.57
30365,52.40381,-1.56404,168.73,8.92,3,67.77,28 / 29,2850110,2019-09-08 12:54:29:349,-2.4745,-1.5116,9.5729,0.0641,0.0085,9.8064,-0.0223,-0.0725,0.0176,-25.12,-34.25,3.75,277.63,-81.18,-169.45
30366,52.40381,-1.56404,168.73,8.92,3,67.77,28 / 29,2850210,2019-09-08 12:54:29:449,-1.0849,-0.7339,9.6923,-0.0124,-0.0119,9.8066,0.4558,-0.1444,0.0954,-25.37,-34.5,3.25,276.11,-81.45,-169.01
30367,52.40381,-1.56404,168.73,8.92,3,67.77,28 / 29,2850310,2019-09-08 12:54:29:549,-1.8142,0.0434,11.1571,0.0413,0.0017,9.8065,0.3496,-0.0379,0.0105,-25.44,-34.69,3.06,276.73,-81.53,-168.18
30368,52.40381,-1.56404,168.73,8.92,3,67.77,28 / 29,2850410,2019-09-08 12:54:29:649,-0.6803,0.5507,9.1967,0.0643,0.0105,9.8064,-0.4316,0.0501,-0.0039,-25.31,-34.69,3.69,278.22,-81.19,-168.53
30369,52.40381,-1.56404,168.73,8.92,3,67.77,28 / 29,2850510,2019-09-08 12:54:29:749,-2.1921,-0.4531,9.2989,-0.0464,-0.009,9.8064,-0.5168,-0.0023,0.0213,-25.81,-34.19,3.44,277.31,-81.13,-167.59
30370,52.40381,-1.56404,168.73,8.92,3,67.77,28 / 29,2850611,2019-09-08 12:54:29:850,-2.4837,-0.0367,8.4798,-0.0513,-0.0047,9.8065,0.3422,-0.0616,0.0368,-25.81,-33.94,4.0,280.51,-81.32,-166.93
30371,52.40381,-1.56404,168.73,8.92,3,67.77,27 / 28,2850710,2019-09-08 12:54:29:949,-0.7417,-1.5372,9.4128,0.0423,-0.0067,9.8065,0.3531,0.0623,-0.0577,-25.44,-34.75,3.56,279.62,-80.89,-166.72
30372,52.40381,-1.56404,168.73,8.92,3,67.77,27 / 28,2850810,2019-09-08 12:54:30:049,1.3897,0.4987,10.6647,0.0071,-0.0046,9.8066,-0.1597,0.0195,0.0696,-26.06,-34.31,3.38,278.94,-80.96,-165.75
30373,52.40381,-1.56404,168.73,8.92,3,67.77,27 / 28,2850910,2019-09-08 12:54:30:149,1.504,-1.4625,10.814,0.0334,-0.0098,9.8065,-0.0549,-0.0325,0.171,-25.62,-34.75,3.94,280.88,-81.02,-165.83
30374,52.40381,-1.56404,168.73,8.92,3,67.77,27 / 28,2851011,2019-09-08 12:54:30:250,0.1742,-1.4321,9.4476,0.0661,0.0141,9.8064,0.0711,-0.0153,0.0679,-25.75,-34.62,3.44,277.59,-80.75,-166.43
30375,52.40381,-1.56404,168.73,8.92,3,67.77,27 / 28,2851110,2019-09-08 12:54:30:349,0.1852,0.3791,9.4984,-0.0614,0.0104,9.8064,-0.0015,0.0718,-0.0363,-25.5,-35.12,3.44,276.7,-80.78,-167.12
30376,52.40381,-1.56404,168.73,8.92,3,67.77,27 / 28,2851210,2019-09-08 12:54:30:449,0.3398,1.2605,10.0697,-0.0654,-0.0038,9.8064,0.0849,-0.0136,0.0634,-25.25,-34.25,3.63,279.59,-81.21,-167.58
30377,52.40381,-1.56404,168.73,8.92,3,67.77,27 / 28,2851310,2019-09-08 12:54:30:549,0.4377,0.4733,9.6167,0.0509,0.0143,9.8065,0.1515,-0.0482,0.0392,-25.12,-34.56,3.5,277.17,-80.98,-169.26
30378,52.40381,-1.56404,168.73,8.92,3,67.77,27 / 28,2851410,2019-09-08 12:54:30:649,-0.4228,-0.5178,9.2186,0.0789,0.0117,9.8063,-0.2237,-0.0485,0.0361,-24.69,-34.69,3.81,276.58,-80.94,-169.78
30379,52.40381,-1.56404,168.73,8.92,3,67.77,27 / 28,2851510,2019-09-08 12:54:30:749,-0.7407,0.8222,8.8758,-0.0822,0.0009,9.8063,-0.2109,0.0359,-0.0432,-25.19,-34.5,3.81,276.73,-81.01,-170.11
30380,52.40381,-1.56404,168.73,8.92,3,67.77,27 / 28,2851610,2019-09-08 12:54:30:849,1.0679,-0.5399,10.1909,-0.0598,0.0044,9.8064,0.1158,-0.031,-0.0185,-25.69,-33.87,3.75,277.69,-81.4,-169.8
30381,52.40381,-1.56404,168.73,8.92,3,67.77,29 / 29,2851710,2019-09-08 12:54:30:949,0.9543,0.0077,10.4448,0.026,0.0052,9.8065,0.024,-0.0001,-0.0087,-25.56,-34.0,3.94,277.37,-81.33,-170.03
30382,52.40381,-1.56404,168.73,8.92,3,67.77,29 / 29,2851810,2019-09-08 12:54:31:049,0.4672,-0.4787,10.1984,0.0074,0.0125,9.8066,0.0868,-0.0368,0.0634,-25.25,-34.56,3.81,276.08,-81.27,-170.76
30383,52.40381,-1.56404,168.73,8.92,3,67.77,29 / 29,2851910,2019-09-08 12:54:31:149,0.7362,0.0499,9.4874,-0.0076,0.002,9.8066,-0.1209,-0.0268,-0.0198,-25.0,-34.31,3.88,276.02,-81.29,-171.2
30384,52.40381,-1.56404,168.73,8.92,3,67.77,29 / 29,2852013,2019-09-08 12:54:31:252,0.9027,0.747,9.7335,-0.0151,0.0009,9.8066,-0.0524,-0.02,0.0163,-25.0,-35.0,3.38,273.5,-81.32,-171.07
30385,52.40381,-1.56404,168.73,8.92,3,67.77,29 / 29,2852110,2019-09-08 12:54:31:349,1.056,0.2339,9.4265,0.0074,-0.0009,9.8066,-0.0893,-0.0353,-0.0476,-25.25,-34.19,3.44,273.75,-81.37,-171.26
30386,52.40381,-1.56404,168.73,8.92,3,67.77,29 / 29,2852210,2019-09-08 12:54:31:449,-0.2615,-0.5348,9.8029,-0.0393,0.006,9.8065,0.0686,-0.0884,-0.0226,-24.62,-35.44,2.94,273.78,-81.55,-171.13
30387,52.40381,-1.56404,168.73,8.92,3,67.77,29 / 29,2852310,2019-09-08 12:54:31:549,0.7663,0.6536,9.1677,0.057,0.0076,9.8064,-0.1695,-0.0198,-0.0504,-25.31,-36.0,3.63,274.3,-81.27,-172.17
30388,52.40381,-1.56404,168.73,8.92,3,67.77,29 / 29,2852410,2019-09-08 12:54:31:649,-0.05,-0.0375,9.5617,0.0813,0.003,9.8063,-0.2379,-0.0237,-0.0052,-25.19,-34.62,3.5,274.71,-81.2,-172.01
30389,52.40381,-1.56404,168.73,8.92,3,67.77,29 / 29,2852510,2019-09-08 12:54:31:749,-1.3338,-0.0145,9.2979,-0.072,-0.0085,9.8063,0.3826,-0.0212,0.0324,-25.06,-34.94,3.0,272.07,-81.18,-172.3
30390,52.40381,-1.56404,168.73,8.92,3,67.77,29 / 29,2852610,2019-09-08 12:54:31:849,-0.1583,2.1682,9.7019,-0.0691,-0.009,9.8064,0.4012,0.0666,0.0502,-24.81,-35.12,3.56,275.19,-81.45,-171.89
30391,52.40381,-1.56404,168.73,8.92,3,67.77,28 / 29,2852710,2019-09-08 12:54:31:949,-2.0128,-0.5701,9.7155,-0.0109,0.007,9.8066,-0.0508,-0.0835,0.1821,-25.06,-35.0,4.25,274.75,-81.3,-172.11
30392,52.40381,-1.56404,168.73,8.92,3,67.77,28 / 29,2852810,2019-09-08 12:54:32:049,0.7122,-0.7747,8.7579,-0.0292,-0.0021,9.8066,-0.0552,-0.015,0.0414,-25.19,-34.81,3.19,272.48,-81.48,-172.33
30393,52.40381,-1.56404,168.73,8.92,3,67.77,28 / 29,2852910,2019-09-08 12:54:32:149,0.2413,-0.8818,10.5198,-0.0245,0.0127,9.8066,0.2296,-0.1189,-0.057,-25.12,-34.87,3.81,275.11,-81.4,-171.9
30394,52.40381,-1.56404,168.73,8.92,3,67.77,28 / 29,2853010,2019-09-08 12:54:32:249,2.683,-0.6589,10.5982,-0.0089,0.0064,9.8066,0.3585,-0.0378,-0.0113,-24.81,-34.75,3.75,274.18,-81.55,-173.04
30395,52.40381,-1.56404,168.73,8.92,3,67.77,28 / 29,2853110,2019-09-08 12:54:32:349,0.3651,-0.7219,10.6514,0.0476,0.0051,9.8065,-0.1357,0.0314,0.0259,-24.87,-34.5,3.5,273.01,-81.62,-174.65
30396,52.40381,-1.56404,168.73,8.92,3,67.77,28 / 29,2853210,2019-09-08 12:54:32:449,-0.8173,-0.1009,9.3069,0.0757,0.0028,9.8063,-0.2161,0.0485,0.0087,-24.56,-34.69,3.0,268.81,-81.25,-175.69
30397,52.40381,-1.56404,168.73,8.92,3,67.77,28 / 29,2853310,2019-09-08 12:54:32:549,-0.6213,-0.2066,11.1778,-0.0062,-0.016,9.8066,0.235,0.0203,-0.0665,-24.5,-34.75,3.56,271.24,-81.44,-175.7
30398,52.40381,-1.56404,168.73,8.92,3,67.77,28 / 29,2853410,2019-09-08 12:54:32:649,0.7539,1.1403,10.0271,-0.0143,-0.006,9.8066,0.305,-0.0708,-0.0302,-24.0,-34.94,3.69,271.04,-81.41,-175.87
30399,52.40381,-1.56404,168.73,8.92,3,67.77,28 / 29,2853510,2019-09-08 12:54:32:749,-2.0202,-0.5256,8.5442,-0.001,0.0024,9.8066,-0.232,-0.0659,-0.0602,-24.44,-34.94,4.0,272.11,-81.31,-174.64
30400,52.40381,-1.56404,168.73,8.92,3,67.77,28 / 29,2853611,2019-09-08 12:54:32:850,-1.1458,0.4744,8.839,0.0015,-0.0005,9.8066,-0.3366,-0.0292,0.0014,-24.69,-35.25,3.06,269.75,-81.39,-174.94
30401,52.40381,-1.56404,168.73,8.92,3,67.77,27 / 27,2853709,2019-09-08 12:54:32:948,-0.4264,-1.1705,9.9081,-0.0418,-0.0089,9.8065,0.3097,-0.0543,0.0752,-24.5,-34.62,3.88,273.1,-81.69,-174.22
30402,52.40381,-1.56404,168.73,8.92,3,67.77,27 / 27,2853810,2019-09-08 12:54:33:049,1.3241,0.1251,9.9665,-0.0488,-0.0026,9.8065,0.2227,0.0294,0.0512,-23.87,-34.87,3.25,270.61,-81.66,-174.26
30403,52.40381,-1.56404,168.73,8.92,3,67.77,27 / 27,2853910,2019-09-08 12:54:33:149,-2.4553,-2.296,10.3913,-0.012,-0.0051,9.8066,0.0118,-0.1701,0.1197,-24.75,-35.69,3.38,270.99,-81.45,-173.43
30404,52.40381,-1.56404,168.73,8.92,3,67.77,27 / 27,2854010,2019-09-08 12:54:33:249,-0.952,0.6563,9.0361,-0.0627,-0.0064,9.8063,0.0304,0.0206,-0.0409,-24.69,-35.0,3.63,274.67,-81.53,-172.53
30405,52.40381,-1.56404,168.73,8.92,3,67.77,27 / 27,2854110,2019-09-08 12:54:33:349,0.3464,2.2505,10.7025,0.0343,-0.0044,9.8065,0.1815,-0.1394,0.0984,-25.12,-34.37,4.06,275.41,-81.45,-172.02
30406,52.40381,-1.56404,168.73,8.92,3,67.77,27 / 27,2854209,2019-09-08 12:54:33:448,-0.844,-3.0458,8.1329,0.0524,0.0508,9.8063,0.2894,-0.1909,0.0165,-24.81,-35.12,4.5,277.25,-81.16,-171.75
30407,52.40381,-1.56404,168.73,8.92,3,67.77,27 / 27,2854310,2019-09-08 12:54:33:549,-0.7308,2.0816,8.1116,-0.0826,-0.0193,9.8062,-0.3934,-0.0843,0.0212,-24.75,-35.19,3.38,273.32,-81.55,-171.59
30408,52.40381,-1.56404,168.73,8.92,3,67.77,27 / 27,2854410,2019-09-08 12:54:33:649,-1.5304,-1.7701,8.0233,0.009,0.0323,9.8065,-0.5155,-0.1508,0.0742,-24.56,-34.62,3.31,272.75,-81.32,-171.83
30409,52.40381,-1.56404,168.73,8.92,3,67.77,27 / 27,2854509,2019-09-08 12:54:33:748,-1.3712,-1.049,7.4601,-0.0639,-0.0037,9.8063,0.5443,0.0074,-0.0292,-24.62,-34.37,3.13,272.67,-81.31,-172.25
30410,52.40381,-1.56404,168.73,8.92,3,67.77,27 / 27,2854610,2019-09-08 12:54:33:849,1.4714,0.0069,11.0384,-0.0519,-0.0224,9.8064,0.4085,0.0132,-0.148,-24.19,-34.62,3.5,275.73,-81.72,-171.65
30411,52.404083,-1.562619,168.45,12.47,3,75.88,28 / 28,2854709,2019-09-08 12:54:33:948,-1.4403,-1.3358,11.3776,-0.0499,0.0195,9.8065,0.3443,-0.0926,-0.0203,-24.62,-34.56,3.81,274.55,-81.85,-173.1
30412,52.404083,-1.562619,168.45,12.47,3,75.88,28 / 28,2854810,2019-09-08 12:54:34:049,0.0413,-1.8527,10.6739,0.0618,-0.0017,9.8064,0.2191,-0.1877,0.1086,-24.94,-34.37,4.5,274.88,-81.61,-175.07
30413,52.404083,-1.562619,168.45,12.47,3,75.88,28 / 28,2854909,2019-09-08 12:54:34:148,-0.2653,0.7504,10.2582,0.1159,-0.0185,9.8059,-0.1914,-0.1275,0.0444,-24.69,-34.69,4.63,272.75,-80.83,-175.74
30414,52.404083,-1.562619,168.45,12.47,3,75.88,28 / 28,2855010,2019-09-08 12:54:34:249,1.6139,2.6812,9.1979,0.0006,-0.0282,9.8065,-0.0724,-0.0357,-0.036,-24.75,-35.06,4.38,270.74,-80.82,-175.43
30415,52.404083,-1.562619,168.45,12.47,3,75.88,28 / 28,2855110,2019-09-08 12:54:34:349,-0.3117,0.6537,9.5,0.0456,0.0041,9.8065,-0.1962,-0.1062,-0.0397,-24.75,-34.62,4.69,272.61,-80.78,-175.81
30416,52.404083,-1.562619,168.45,12.47,3,75.88,28 / 28,2855210,2019-09-08 12:54:34:449,-0.0927,-0.3467,9.2316,-0.0429,-0.0057,9.8065,-0.0967,0.0039,-0.0304,-25.0,-34.19,5.06,273.42,-80.76,-175.34
30417,52.404083,-1.562619,168.45,12.47,3,75.88,28 / 28,2855310,2019-09-08 12:54:34:549,1.5071,-1.4435,10.7131,-0.0272,-0.0014,9.8066,0.1637,-0.0417,0.0377,-24.94,-34.62,5.63,276.01,-80.99,-175.01
30418,52.404083,-1.562619,168.45,12.47,3,75.88,28 / 28,2855410,2019-09-08 12:54:34:649,0.3093,1.2337,9.8622,0.0242,0.0188,9.8065,0.0796,-0.0048,-0.0597,-24.69,-34.87,4.44,271.17,-81.05,-175.33
30419,52.404083,-1.562619,168.45,12.47,3,75.88,28 / 28,2855510,2019-09-08 12:54:34:749,-0.3446,-1.7099,10.26,0.0075,0.0104,9.8066,-0.0424,0.0202,-0.0376,-24.94,-34.31,5.25,272.78,-80.95,-176.24
30420,52.404083,-1.562619,168.45,12.47,3,75.88,28 / 28,2855610,2019-09-08 12:54:34:849,-0.5877,0.3584,10.0341,0.0001,0.0143,9.8066,-0.0706,0.0519,-0.0422,-24.62,-34.75,5.0,272.11,-80.92,-176.51
30421,52.404083,-1.562619,168.45,12.47,3,75.88,28 / 28,2855710,2019-09-08 12:54:34:949,0.0581,-0.4915,9.5602,-0.0197,0.0134,9.8065,0.0719,0.0001,-0.0531,-24.62,-34.69,5.56,273.14,-80.91,-177.76
30422,52.404083,-1.562619,168.45,12.47,3,75.88,28 / 28,2855810,2019-09-08 12:54:35:049,-0.343,-0.0054,10.5133,0.0125,0.0028,9.8065,0.0341,-0.0389,0.0013,-25.0,-34.5,5.31,271.8,-80.72,-176.91
30423,52.404083,-1.562619,168.45,12.47,3,75.88,28 / 28,2855910,2019-09-08 12:54:35:149,0.0286,0.1435,10.5677,0.0206,-0.0101,9.8066,-0.0239,0.0219,-0.0194,-24.75,-34.31,5.38,272.09,-80.56,-176.39
30424,52.404083,-1.562619,168.45,12.47,3,75.88,28 / 28,2856009,2019-09-08 12:54:35:248,-0.8143,-0.6834,10.0918,0.0103,-0.0224,9.8066,-0.0628,-0.0671,0.1245,-25.06,-34.31,5.81,275.65,-80.42,-174.94
30425,52.404083,-1.562619,168.45,12.47,3,75.88,28 / 28,2856110,2019-09-08 12:54:35:349,-0.2793,-0.4001,9.426,-0.014,-0.0228,9.8066,0.0863,-0.0719,0.033,-25.75,-34.69,5.38,274.36,-80.41,-173.59
30426,52.404083,-1.562619,168.45,12.47,3,75.88,28 / 28,2856210,2019-09-08 12:54:35:449,1.2675,-0.6771,9.6187,0.0183,-0.0175,9.8065,0.0836,-0.1029,0.0504,-25.94,-33.56,5.25,276.26,-80.48,-172.18
30427,52.404083,-1.562619,168.45,12.47,3,75.88,28 / 28,2856310,2019-09-08 12:54:35:549,-1.0468,-0.7523,10.0581,0.0119,-0.0168,9.8066,-0.1428,-0.0597,0.0035,-25.69,-34.75,5.56,279.54,-80.53,-170.88
30428,52.404083,-1.562619,168.45,12.47,3,75.88,28 / 28,2856410,2019-09-08 12:54:35:649,-0.6898,-1.2246,9.5386,-0.0304,0.0003,9.8066,-0.1345,-0.1125,0.0162,-25.94,-34.19,5.31,277.92,-80.69,-170.83
30429,52.404083,-1.562619,168.45,12.47,3,75.88,28 / 28,2856510,2019-09-08 12:54:35:749,-1.1526,-0.2918,10.7181,-0.0224,0.0003,9.8065,0.2281,-0.0603,-0.0817,-25.81,-33.69,4.69,277.79,-80.89,-171.23
30430,52.404083,-1.562619,168.45,12.47,3,75.88,28 / 28,2856610,2019-09-08 12:54:35:849,2.1269,-1.14,10.7803,0.0702,-0.0005,9.8063,0.4115,-0.0963,-0.0034,-25.37,-34.69,5.13,275.79,-80.43,-172.13
30431,52.404083,-1.562619,168.45,12.47,3,75.88,27 / 27,2856710,2019-09-08 12:54:35:949,-0.7017,-0.2506,9.502,0.0666,-0.0023,9.8063,-0.2872,-0.0327,0.0429,-26.06,-33.87,5.63,278.05,-80.38,-172.49
30432,52.404083,-1.562619,168.45,12.47,3,75.88,27 / 27,2856809,2019-09-08 12:54:36:048,-0.5531,-0.8582,9.5174,-0.0597,0.0014,9.8064,-0.1171,-0.0047,0.0398,-25.94,-34.5,5.0,276.05,-80.47,-172.37
30433,52.404083,-1.562619,168.45,12.47,3,75.88,27 / 27,2856910,2019-09-08 12:54:36:149,1.4741,-1.0734,9.8388,-0.0307,-0.0064,9.8066,0.0781,-0.0435,0.0543,-25.75,-34.31,5.31,276.73,-80.89,-172.27
30434,52.404083,-1.562619,168.45,12.47,3,75.88,27 / 27,2857010,2019-09-08 12:54:36:249,0.2988,-0.4421,9.6613,0.0199,0.0082,9.8065,0.1058,-0.036,-0.0058,-25.12,-34.44,5.75,278.33,-80.87,-172.92
30435,52.404083,-1.562619,168.45,12.47,3,75.88,27 / 27,2857110,2019-09-08 12:54:36:349,-0.3453,0.6553,9.8411,0.0231,0.0086,9.8065,-0.0758,-0.0722,0.0353,-25.31,-34.62,4.81,275.2,-80.93,-173.43
30436,52.404083,-1.562619,168.45,12.47,3,75.88,27 / 27,2857210,2019-09-08 12:54:36:449,-0.7657,-0.1229,9.9755,-0.0265,-0.0013,9.8066,-0.0386,-0.0553,0.0087,-25.0,-34.81,5.44,274.26,-80.9,-174.32
30437,52.404083,-1.562619,168.45,12.47,3,75.88,27 / 27,2857310,2019-09-08 12:54:36:549,-0.9131,-0.0584,10.1511,-0.0259,-0.0064,9.8065,0.1195,-0.0499,0.04,-25.19,-33.81,6.56,279.62,-81.02,-174.13
30438,52.404083,-1.562619,168.45,12.47,3,75.88,27 / 27,2857410,2019-09-08 12:54:36:649,-0.1061,-0.0601,9.7311,0.0128,0.006,9.8066,0.0434,-0.0497,0.031,-25.69,-33.81,6.38,277.73,-80.97,-173.59
30439,52.404083,-1.562619,168.45,12.47,3,75.88,27 / 27,2857510,2019-09-08 12:54:36:749,-0.5985,-0.2523,9.4455,0.0128,-0.0116,9.8065,0.0001,-0.0389,-0.0157,-25.44,-34.5,5.56,278.17,-80.94,-173.17
30440,52.404083,-1.562619,168.45,12.47,3,75.88,27 / 27,2857610,2019-09-08 12:54:36:849,-0.3015,-0.4069,9.9895,-0.0215,-0.0026,9.8066,-0.0506,-0.0284,0.0376,-25.06,-34.12,5.06,276.56,-81.19,-172.83
30441,52.404083,-1.562619,168.45,12.47,3,75.88,27 / 28,2857710,2019-09-08 12:54:36:949,0.2472,-0.6079,9.9219,-0.018,0.0164,9.8066,-0.084,-0.0078,-0.042,-25.44,-34.12,5.69,278.47,-81.29,-173.38
30442,52.404083,-1.562619,168.45,12.47,3,75.88,27 / 28,2857810,2019-09-08 12:54:37:049,-2.3955,-0.7034,9.7183,0.0139,0.0064,9.8066,-0.0536,-0.0019,-0.006,-25.25,-34.62,5.75,277.94,-81.33,-173.6
30443,52.404083,-1.562619,168.45,12.47,3,75.88,27 / 28,2857911,2019-09-08 12:54:37:150,-0.8308,0.0838,9.4065,0.0258,-0.0098,9.8066,0.0904,-0.0017,0.0531,-25.56,-34.5,5.5,277.88,-81.14,-173.67
30444,52.404083,-1.562619,168.45,12.47,3,75.88,27 / 28,2858010,2019-09-08 12:54:37:249,0.4199,-0.6008,9.5899,-0.0013,-0.0023,9.8066,0.0619,-0.121,0.0666,-26.19,-34.31,6.13,277.71,-81.08,-173.76
30445,52.404083,-1.562619,168.45,12.47,3,75.88,27 / 28,2858110,2019-09-08 12:54:37:349,-1.2377,-0.5682,9.8224,-0.0238,-0.0161,9.8066,-0.0896,-0.0317,0.0054,-25.31,-34.19,6.5,281.1,-81.22,-172.97
30446,52.404083,-1.562619,168.45,12.47,3,75.88,27 / 28,2858210,2019-09-08 12:54:37:449,-0.6477,-0.7941,9.9394,0.0151,0.0059,9.8065,-0.0328,-0.0769,-0.0351,-25.31,-34.37,6.0,278.98,-81.44,-173.08
30447,52.404083,-1.562619,168.45,12.47,3,75.88,27 / 28,2858310,2019-09-08 12:54:37:549,-0.7029,-0.8866,9.6997,0.0387,-0.0007,9.8065,-0.1248,-0.0198,-0.0179,-25.44,-34.5,6.44,278.82,-81.54,-173.39
30448,52.404083,-1.562619,168.45,12.47,3,75.88,27 / 28,2858410,2019-09-08 12:54:37:649,-0.359,-0.6103,10.0122,-0.0395,0.003,9.8065,-0.0693,-0.0514,0.0207,-25.12,-34.0,5.75,278.96,-81.51,-173.2
30449,52.404083,-1.562619,168.45,12.47,3,75.88,27 / 28,2858510,2019-09-08 12:54:37:749,1.1553,-1.1481,10.3561,-0.0374,-0.0027,9.8065,0.0757,-0.0451,-0.0412,-25.69,-34.12,6.19,279.07,-81.59,-173.11
30450,52.404083,-1.562619,168.45,12.47,3,75.88,27 / 28,2858610,2019-09-08 12:54:37:849,0.6459,-1.5934,10.561,0.0358,-0.0061,9.8066,0.065,-0.0902,0.0194,-26.06,-34.06,6.88,280.68,-81.53,-173.63
30451,52.404083,-1.562619,168.45,12.47,3,75.88,29 / 29,2858711,2019-09-08 12:54:37:950,-0.1592,-1.2034,10.0208,0.03,0.0012,9.8066,-0.0553,-0.0474,0.0105,-25.87,-33.94,6.31,278.1,-81.44,-173.86
30452,52.404083,-1.562619,168.45,12.47,3,75.88,29 / 29,2858810,2019-09-08 12:54:38:049,-0.1584,0.0991,10.0494,-0.0138,0.001,9.8066,-0.0212,-0.086,0.0342,-25.19,-34.12,6.19,278.24,-81.57,-173.99
30453,52.404083,-1.562619,168.45,12.47,3,75.88,29 / 29,2858910,2019-09-08 12:54:38:149,0.9932,-0.4845,9.8582,-0.0073,0.0015,9.8066,0.0139,-0.1205,0.0064,-25.56,-34.5,7.44,279.89,-81.47,-174.32
30454,52.404083,-1.562619,168.45,12.47,3,75.88,29 / 29,2859010,2019-09-08 12:54:38:249,0.6524,-0.8973,9.8721,0.0087,-0.0096,9.8066,0.0003,-0.0671,0.0176,-25.87,-34.19,7.38,279.81,-81.38,-174.28
30455,52.404083,-1.562619,168.45,12.47,3,75.88,29 / 29,2859110,2019-09-08 12:54:38:349,-0.1623,-1.0572,9.6646,0.0128,0.0084,9.8066,-0.0329,-0.1108,0.0354,-25.56,-34.0,6.94,280.16,-81.39,-173.95
30456,52.404083,-1.562619,168.45,12.47,3,75.88,29 / 29,2859210,2019-09-08 12:54:38:449,-0.92,-0.7131,9.2617,-0.0245,0.0035,9.8066,-0.0394,-0.0687,0.0184,-26.12,-34.25,7.13,280.35,-81.38,-173.76
30457,52.404083,-1.562619,168.45,12.47,3,75.88,29 / 29,2859310,2019-09-08 12:54:38:549,-0.794,-1.2229,10.2538,-0.0289,0.005,9.8066,0.1146,-0.079,0.0184,-26.12,-33.87,7.81,282.6,-81.52,-173.89
30458,52.404083,-1.562619,168.45,12.47,3,75.88,29 / 29,2859410,2019-09-08 12:54:38:649,0.1757,-1.01,9.8553,0.0432,0.0059,9.8065,0.1182,-0.0826,-0.0147,-25.31,-34.0,7.19,279.07,-81.4,-175.2
30459,52.404083,-1.562619,168.45,12.47,3,75.88,29 / 29,2859510,2019-09-08 12:54:38:749,-1.7548,-0.5842,9.9379,0.0533,-0.0028,9.8065,-0.0091,-0.0957,0.0076,-25.56,-34.12,7.25,278.58,-81.45,-175.58
30460,52.404083,-1.562619,168.45,12.47,3,75.88,29 / 29,2859610,2019-09-08 12:54:38:849,-0.4412,-1.0168,9.9394,-0.0193,0.0026,9.8066,0.0204,-0.0672,0.0032,-25.31,-34.37,7.63,279.74,-81.4,-176.76
30461,52.404083,-1.562619,168.45,12.47,3,75.88,28 / 28,2859710,2019-09-08 12:54:38:949,-0.5584,-1.3014,10.2623,-0.0023,-0.0061,9.8066,0.0429,-0.1363,0.0866,-25.31,-33.94,8.69,281.93,-81.32,-176.73
30462,52.404083,-1.562619,168.45,12.47,3,75.88,28 / 28,2859810,2019-09-08 12:54:39:049,0.2394,-0.4078,9.5126,0.0208,-0.0061,9.8066,0.0513,-0.0746,0.0104,-25.25,-33.94,8.13,280.11,-81.33,-176.31
30463,52.404083,-1.562619,168.45,12.47,3,75.88,28 / 28,2859910,2019-09-08 12:54:39:149,-0.8451,-1.1405,9.6767,0.0363,-0.0029,9.8066,-0.0322,-0.0718,-0.0134,-25.69,-34.75,8.19,279.79,-81.27,-175.97
30464,52.404083,-1.562619,168.45,12.47,3,75.88,28 / 28,2860010,2019-09-08 12:54:39:249,-1.6176,-0.7756,8.7076,-0.0602,0.0052,9.8064,0.0618,-0.1067,0.0404,-25.12,-33.87,8.19,280.97,-81.73,-176.02
30465,52.404083,-1.562619,168.45,12.47,3,75.88,28 / 28,2860110,2019-09-08 12:54:39:349,2.9769,-2.4195,10.4267,-0.0863,0.0032,9.8062,0.0911,-0.0911,0.1399,-25.5,-33.81,8.13,281.36,-81.85,-175.8
30466,52.404083,-1.562619,168.45,12.47,3,75.88,28 / 28,2860210,2019-09-08 12:54:39:449,-0.9423,-0.8946,10.7284,0.0572,-0.0136,9.8064,0.0121,-0.0927,0.0778,-25.69,-33.87,8.44,280.85,-81.99,-176.2
30467,52.404083,-1.562619,168.45,12.47,3,75.88,28 / 28,2860309,2019-09-08 12:54:39:548,-1.2553,-0.2475,10.1383,0.0355,-0.0008,9.8065,-0.0062,-0.0837,0.0648,-25.25,-33.69,8.81,282.58,-81.78,-176.7
30468,52.404083,-1.562619,168.45,12.47,3,75.88,28 / 28,2860410,2019-09-08 12:54:39:649,-0.5023,-0.4734,9.6349,-0.0374,0.0016,9.8065,-0.1095,-0.0157,0.0038,-25.25,-34.06,8.38,280.44,-81.77,-176.58
30469,52.404083,-1.562619,168.45,12.47,3,75.88,28 / 28,2860510,2019-09-08 12:54:39:749,0.8767,-0.9666,9.6183,-0.0292,0.0037,9.8065,0.0639,-0.0546,-0.0004,-25.19,-34.31,8.0,280.99,-81.86,-176.18
30470,52.404083,-1.562619,168.45,12.47,3,75.88,28 / 28,2860610,2019-09-08 12:54:39:849,0.41,-1.4505,10.0122,-0.0036,-0.0018,9.8066,-0.0383,-0.1166,0.0978,-25.5,-34.56,8.75,283.33,-81.81,-175.71
30471,52.404083,-1.562619,168.45,12.47,3,75.88,28 / 28,2860710,2019-09-08 12:54:39:949,-0.3094,-2.0648,10.5678,-0.0012,-0.0087,9.8066,0.2166,-0.095,0.0521,-26.06,-34.37,9.5,285.77,-81.86,-175.45
30472,52.404083,-1.562619,168.45,12.47,3,75.88,28 / 28,2860810,2019-09-08 12:54:40:049,0.6211,-0.113,11.0051,0.0587,-0.0141,9.8064,0.2482,-0.0357,0.0211,-25.81,-34.0,9.19,282.73,-81.89,-176.35
30473,52.404083,-1.562619,168.45,12.47,3,75.88,28 / 28,2860910,2019-09-08 12:54:40:149,-0.095,-1.9483,11.3207,0.0599,-0.0055,9.8064,-0.1288,0.0182,-0.0803,-26.06,-34.0,10.25,283.67,-81.33,-176.8
30474,52.404083,-1.562619,168.45,12.47,3,75.88,28 / 28,2861010,2019-09-08 12:54:40:249,0.4784,0.0639,10.8844,0.025,0.0138,9.8065,-0.0411,-0.0477,-0.0352,-25.25,-34.37,10.25,282.53,-81.29,-178.26
30475,52.404083,-1.562619,168.45,12.47,3,75.88,28 / 28,2861112,2019-09-08 12:54:40:351,-0.5015,0.0488,8.8468,0.0602,-0.0195,9.8064,-0.1337,-0.0265,-0.0028,-25.62,-33.69,9.75,280.92,-80.97,-179.01
30476,52.404083,-1.562619,168.45,12.47,3,75.88,28 / 28,2861210,2019-09-08 12:54:40:449,0.2217,-0.7782,9.1294,-0.0523,0.0165,9.8064,-0.0704,-0.0883,0.0143,-25.19,-33.37,9.5,281.68,-81.42,-179.57
30477,52.404083,-1.562619,168.45,12.47,3,75.88,28 / 28,2861310,2019-09-08 12:54:40:549,0.1366,-0.16,9.8473,-0.0401,0.0101,9.8065,0.0543,-0.0606,0.0048,-24.69,-34.19,8.94,278.99,-81.53,-179.87
30478,52.404083,-1.562619,168.45,12.47,3,75.88,28 / 28,2861410,2019-09-08 12:54:40:649,1.4846,-0.7695,10.2641,0.0342,-0.0139,9.8065,0.1426,-0.0551,-0.0016,-24.87,-34.19,9.69,281.18,-81.63,-180.0
30479,52.404083,-1.562619,168.45,12.47,3,75.88,28 / 28,2861510,2019-09-08 12:54:40:749,0.6303,0.4502,9.1573,0.058,-0.009,9.8064,-0.1403,-0.0276,0.0285,-25.25,-34.06,10.13,281.05,-81.16,-179.51
30480,52.404083,-1.562619,168.45,12.47,3,75.88,28 / 28,2861610,2019-09-08 12:54:40:849,-0.863,-1.818,9.0302,-0.0847,-0.0005,9.8062,-0.1214,-0.1353,0.1122,-25.31,-34.62,9.5,281.07,-80.95,-178.87
30481,52.404083,-1.562619,168.45,12.47,3,75.88,28 / 28,2861710,2019-09-08 12:54:40:949,0.7789,-2.1836,11.4223,-0.0881,0.015,9.8062,0.1601,-0.1211,0.0877,-24.94,-34.0,10.31,282.51,-81.56,-178.63
30482,52.404083,-1.562619,168.45,12.47,3,75.88,28 / 28,2861810,2019-09-08 12:54:41:049,1.0951,-0.2608,10.1706,0.0582,0.0016,9.8064,0.1462,0.0071,-0.0557,-25.06,-34.44,10.25,281.71,-81.18,-178.9
30483,52.404083,-1.562619,168.45,12.47,3,75.88,28 / 28,2861910,2019-09-08 12:54:41:149,0.3759,-0.9253,10.8623,0.0301,-0.0058,9.8065,-0.0339,-0.0262,-0.0634,-25.25,-33.69,10.38,281.31,-81.15,-179.26
30484,52.404083,-1.562619,168.45,12.47,3,75.88,28 / 28,2862010,2019-09-08 12:54:41:249,0.3533,0.1384,9.5017,0.0125,-0.001,9.8066,-0.0113,-0.0582,-0.0222,-25.19,-33.62,10.06,280.72,-81.13,-179.8
30485,52.404083,-1.562619,168.45,12.47,3,75.88,28 / 28,2862110,2019-09-08 12:54:41:349,0.1918,0.0486,9.0497,0.0255,-0.01,9.8065,-0.1592,0.014,0.0016,-24.81,-34.44,9.88,280.66,-81.01,-179.69
30486,52.404083,-1.562619,168.45,12.47,3,75.88,28 / 28,2862210,2019-09-08 12:54:41:449,-0.9462,-0.3073,9.4417,-0.059,0.0065,9.8065,-0.1732,-0.0223,0.0234,-24.37,-34.75,9.81,281.27,-80.94,-179.05
30487,52.404083,-1.562619,168.45,12.47,3,75.88,28 / 28,2862310,2019-09-08 12:54:41:549,0.5907,-0.2411,9.5112,-0.024,-0.0099,9.8066,0.0451,-0.0468,0.0701,-25.5,-34.62,10.81,284.06,-81.16,-178.38
30488,52.404083,-1.562619,168.45,12.47,3,75.88,28 / 28,2862410,2019-09-08 12:54:41:649,0.6241,-1.1772,10.3005,-0.0017,-0.0124,9.8065,0.1215,-0.0871,0.0918,-24.81,-34.31,10.81,284.77,-81.23,-178.11
30489,52.404083,-1.562619,168.45,12.47,3,75.88,28 / 28,2862510,2019-09-08 12:54:41:749,-1.1251,0.5437,9.7579,-0.0112,0.0054,9.8066,0.1495,-0.0628,-0.0315,-24.81,-34.5,10.69,284.72,-81.39,-178.37
30490,52.404083,-1.562619,168.45,12.47,3,75.88,28 / 28,2862610,2019-09-08 12:54:41:849,0.672,0.5807,10.4147,0.0336,-0.01,9.8065,0.1598,0.0084,-0.0681,-24.94,-34.5,10.25,282.44,-81.51,-178.62
30491,52.404083,-1.562619,168.45,12.47,3,75.88,27 / 28,2862710,2019-09-08 12:54:41:949,-1.0136,0.0739,10.7679,0.0147,-0.0066,9.8066,-0.0985,0.021,-0.0045,-24.87,-33.75,10.38,283.06,-81.48,-178.0
30492,52.404083,-1.562619,168.45,12.47,3,75.88,27 / 28,2862811,2019-09-08 12:54:42:050,0.3441,-0.54,10.2203,0.0121,-0.0054,9.8066,-0.0236,0.0078,0.0317,-25.5,-34.44,10.31,284.08,-81.65,-177.23
30493,52.404083,-1.562619,168.45,12.47,3,75.88,27 / 28,2862909,2019-09-08 12:54:42:148,-0.7567,-0.9849,9.9344,0.0179,-0.007,9.8066,-0.0018,-0.0225,0.0936,-25.56,-33.81,9.69,283.66,-81.53,-177.06
30494,52.404083,-1.562619,168.45,12.47,3,75.88,27 / 28,2863010,2019-09-08 12:54:42:249,1.5004,0.2836,9.6865,0.0015,-0.0001,9.8066,0.1347,0.0328,-0.0193,-25.87,-33.81,10.38,284.99,-81.37,-175.58
30495,52.404083,-1.562619,168.45,12.47,3,75.88,27 / 28,2863110,2019-09-08 12:54:42:349,-0.6052,-0.6585,9.6929,0.0126,-0.0257,9.8066,-0.019,0.0138,-0.0166,-25.37,-34.19,10.19,287.21,-81.28,-173.75
30496,52.404083,-1.562619,168.45,12.47,3,75.88,27 / 28,2863210,2019-09-08 12:54:42:449,-0.4158,-0.4661,9.7745,-0.0239,-0.0065,9.8066,-0.0342,-0.074,0.0757,-25.12,-33.56,10.44,287.37,-81.42,-173.78
