,GPS LATITUDE (degrees),GPS LONGITUDE (degrees), GPS ALTITUDE (m),GPS SPEED (Kmh),GPS ACCURACY (m),GPS ORIENTATION (Â°), SATELLITES IN RANGE, TIME SINCE START (ms), DATE (YYYY-MO-DD HH-MI-SS_SSS),ACCELEROMETER X (m/s²) , ACCELEROMETER Y (m/s²), ACCELEROMETER Z (m/s²), GRAVITY X (m/s²), GRAVITY Y (m/s²), GRAVITY Z (m/s²), GYROSCOPE Yaw (rad/s), GYROSCOPE Pitch (rad/s), GYROSCOPE Roll (rad/s)
85039,47.151417,-1.698899,53.22,28.88,4.288,192.4,15 / 21,8505098,2019-08-18 17:35:27:635,-0.5219,-0.9649,9.8398,-1.0402,0.1269,9.7505,0.016,0.0247,-0.0183
85040,47.151417,-1.698899,53.22,28.88,4.288,192.4,15 / 21,8505197,2019-08-18 17:35:27:734,-0.3549,-1.2366,10.5605,-1.044,0.1227,9.7502,0.0228,-0.0031,-0.0199
85041,47.151417,-1.698899,53.22,28.88,4.288,192.4,15 / 21,8505297,2019-08-18 17:35:27:834,-0.5799,-0.5064,10.7137,-0.9909,0.1011,9.7559,-0.0042,-0.0467,-0.024
85042,47.151417,-1.698899,53.22,28.88,4.288,192.4,15 / 21,8505397,2019-08-18 17:35:27:934,-0.2938,-1.0624,10.1852,-0.9568,0.08,9.7595,-0.021,-0.0294,-0.0217
85043,47.151417,-1.698899,53.22,28.88,4.288,192.4,15 / 21,8505497,2019-08-18 17:35:28:034,-0.4273,-0.5884,9.1359,-0.931,0.0159,9.7623,-0.0217,0.0191,-0.0146
85044,47.151417,-1.698899,53.22,28.88,4.288,192.4,15 / 21,8505597,2019-08-18 17:35:28:134,-0.3986,-0.8559,9.5184,-0.9378,-0.0041,9.7617,0.0027,0.0041,-0.0118
85045,47.151417,-1.698899,53.22,28.88,4.288,192.4,15 / 21,8505697,2019-08-18 17:35:28:234,-0.547,-0.8727,9.9344,-0.9276,-0.0292,9.7626,0.0068,-0.0151,-0.014
85046,47.151417,-1.698899,53.22,28.88,4.288,192.4,15 / 21,8505797,2019-08-18 17:35:28:334,-0.5907,-0.6895,9.9966,-0.9063,-0.0367,9.7646,-0.0037,-0.0165,-0.0144
85047,47.151417,-1.698899,53.22,28.88,4.288,192.4,15 / 21,8505897,2019-08-18 17:35:28:434,-0.477,-0.896,10.1008,-0.878,-0.064,9.7671,-0.0079,-0.001,-0.0132
85048,47.151417,-1.698899,53.22,28.88,4.288,192.4,15 / 21,8505997,2019-08-18 17:35:28:534,-0.6069,-0.7679,9.6435,-0.8777,-0.0855,9.7669,-0.011,0.0165,-0.0145
85049,47.151417,-1.698899,53.22,28.88,4.288,192.4,14 / 18,8506097,2019-08-18 17:35:28:634,-0.6572,-0.7482,9.1323,-0.8868,-0.1176,9.7658,-0.0128,0.0141,-0.0145
85050,47.14909,-1.699156,51.47,28.97,5.36,180.7,14 / 18,8506197,2019-08-18 17:35:28:734,-0.5722,-0.9218,9.7327,-0.8919,-0.1377,9.765,-0.0043,0.0097,-0.0142
85051,47.14909,-1.699156,51.47,28.97,5.36,180.7,14 / 18,8506297,2019-08-18 17:35:28:834,-0.5452,-0.8356,10.1618,-0.8869,-0.1634,9.7651,0.0004,-0.0007,-0.0146
85052,47.14909,-1.699156,51.47,28.97,5.36,180.7,14 / 18,8506397,2019-08-18 17:35:28:934,-0.7625,-0.7637,10.2786,-0.8727,-0.1728,9.7662,0.001,-0.019,-0.0154
85053,47.14909,-1.699156,51.47,28.97,5.36,180.7,14 / 18,8506497,2019-08-18 17:35:29:034,-0.6799,-0.6746,9.8703,-0.844,-0.1936,9.7683,0.0035,-0.0082,-0.0163
85054,47.14909,-1.699156,51.47,28.97,5.36,180.7,14 / 18,8506597,2019-08-18 17:35:29:134,-0.4692,-1.0762,9.6483,-0.8382,-0.2029,9.7687,-0.0015,0.0105,-0.0159
85055,47.14909,-1.699156,51.47,28.97,5.36,180.7,14 / 18,8506697,2019-08-18 17:35:29:234,-0.5602,-0.9996,10.2588,-0.8464,-0.2326,9.7673,-0.0001,0.0174,-0.0185
85056,47.14909,-1.699156,51.47,28.97,5.36,180.7,14 / 18,8506797,2019-08-18 17:35:29:334,-0.8188,-1.0528,9.5268,-0.8504,-0.2424,9.7667,0.0081,0.0028,-0.021
85057,47.14909,-1.699156,51.47,28.97,5.36,180.7,14 / 18,8506897,2019-08-18 17:35:29:434,-0.4746,-0.8541,9.9152,-0.8364,-0.2642,9.7673,0.0005,0.0034,-0.0236
85058,47.14909,-1.699156,51.47,28.97,5.36,180.7,14 / 18,8506997,2019-08-18 17:35:29:534,-0.6715,-1.4144,9.6166,-0.8408,-0.2802,9.7665,-0.0002,0.0147,-0.0245
85059,47.14909,-1.699156,51.47,28.97,5.36,180.7,17 / 20,8507097,2019-08-18 17:35:29:634,-0.2902,-1.1977,9.6908,-0.8466,-0.3064,9.7652,0.005,0.0159,-0.0222
85060,47.14909,-1.699156,51.47,28.97,5.36,180.7,17 / 20,8507197,2019-08-18 17:35:29:734,-0.4985,-1.4323,9.5483,-0.8502,-0.3168,9.7646,-0.0005,0.0005,-0.0241
85061,47.14909,-1.699156,51.47,28.97,5.36,180.7,17 / 20,8507297,2019-08-18 17:35:29:834,-0.7002,-1.0283,9.2155,-0.8423,-0.3478,9.7642,-0.005,0.0062,-0.0221
85062,47.14909,-1.699156,51.47,28.97,5.36,180.7,17 / 20,8507396,2019-08-18 17:35:29:933,-0.4495,-1.3054,9.0928,-0.8468,-0.3629,9.7633,0.0044,0.0181,-0.0212
85063,47.14909,-1.699156,51.47,28.97,5.36,180.7,17 / 20,8507497,2019-08-18 17:35:30:034,-0.6649,-1.1043,9.5387,-0.8568,-0.3653,9.7623,0.0307,0.0182,-0.0188
85064,47.14909,-1.699156,51.47,28.97,5.36,180.7,17 / 20,8507597,2019-08-18 17:35:30:134,-0.6542,-1.1618,10.3875,-0.8704,-0.3447,9.7619,0.0444,0.0182,-0.0207
85065,47.14909,-1.699156,51.47,28.97,5.36,180.7,17 / 20,8507697,2019-08-18 17:35:30:234,-0.4363,-1.0798,10.582,-0.8649,-0.3345,9.7627,0.0281,-0.0194,-0.0237
85066,47.14909,-1.699156,51.47,28.97,5.36,180.7,17 / 20,8507797,2019-08-18 17:35:30:334,-0.7709,-0.4172,10.178,-0.8275,-0.3248,9.7663,0.021,-0.0143,-0.0255
85067,47.14909,-1.699156,51.47,28.97,5.36,180.7,17 / 20,8507897,2019-08-18 17:35:30:434,-0.6488,-0.8254,10.0188,-0.8226,-0.3249,9.7667,0.0137,-0.0035,-0.0264
85068,47.14909,-1.699156,51.47,28.97,5.36,180.7,17 / 20,8507997,2019-08-18 17:35:30:534,-0.453,-1.2294,9.7021,-0.8176,-0.345,9.7664,0.0023,0.0014,-0.031
85069,47.14909,-1.699156,51.47,28.97,5.36,180.7,17 / 20,8508097,2019-08-18 17:35:30:634,-0.2376,-1.1654,9.7177,-0.8103,-0.3595,9.7665,0.0089,-0.0027,-0.0387
85070,47.14909,-1.699156,51.47,28.97,5.36,180.7,17 / 20,8508197,2019-08-18 17:35:30:734,-0.2896,-1.4485,9.6633,-0.7877,-0.3793,9.7676,0.0053,-0.0049,-0.0472
85071,47.14909,-1.699156,51.47,28.97,5.36,180.7,17 / 20,8508297,2019-08-18 17:35:30:834,-0.1657,-1.2121,10.1181,-0.7725,-0.398,9.7681,0.0078,0.0025,-0.0468
85072,47.14909,-1.699156,51.47,28.97,5.36,180.7,17 / 20,8508397,2019-08-18 17:35:30:934,-0.2501,-1.4473,10.1313,-0.7426,-0.4313,9.769,0.0021,-0.0126,-0.0486
85073,47.14909,-1.699156,51.47,28.97,5.36,180.7,17 / 20,8508497,2019-08-18 17:35:31:034,-0.213,-1.2516,9.5932,-0.7268,-0.4472,9.7695,0.001,0.0006,-0.047
85074,47.14909,-1.699156,51.47,28.97,5.36,180.7,17 / 20,8508597,2019-08-18 17:35:31:134,-0.3148,-1.5712,9.6561,-0.7223,-0.4803,9.7682,0.0112,0.0198,-0.0415
85075,47.14909,-1.699156,51.47,28.97,5.36,180.7,17 / 20,8508697,2019-08-18 17:35:31:234,-0.5775,-1.2617,9.4316,-0.727,-0.4879,9.7675,0.0162,0.024,-0.0408
85076,47.14909,-1.699156,51.47,28.97,5.36,180.7,17 / 20,8508797,2019-08-18 17:35:31:334,-0.5129,-0.9457,10.1996,-0.7287,-0.5046,9.7665,0.004,0.0016,-0.0398
85077,47.14909,-1.699156,51.47,28.97,5.36,180.7,17 / 20,8508897,2019-08-18 17:35:31:434,-0.5201,-1.3545,10.2139,-0.7188,-0.5148,9.7667,0.0126,-0.009,-0.0344
85078,47.14909,-1.699156,51.47,28.97,5.36,180.7,17 / 20,8508997,2019-08-18 17:35:31:534,-0.4303,-0.9601,10.3486,-0.6923,-0.526,9.768,0.0099,-0.0014,-0.0309
85079,47.14909,-1.699156,51.47,28.97,5.36,180.7,17 / 21,8509096,2019-08-18 17:35:31:633,-0.6548,-1.1019,9.7889,-0.6858,-0.5343,9.768,-0.0087,0.0085,-0.026
85080,47.14909,-1.699156,51.47,28.97,5.36,180.7,17 / 21,8509197,2019-08-18 17:35:31:734,-0.4411,-0.9343,10.5712,-0.6885,-0.5628,9.7662,-0.0069,0.0015,-0.0287
85081,47.14909,-1.699156,51.47,28.97,5.36,180.7,17 / 21,8509297,2019-08-18 17:35:31:834,-0.5452,-1.1366,9.9164,-0.6836,-0.5697,9.7662,0.0097,-0.0033,-0.0303
85082,47.14909,-1.699156,51.47,28.97,5.36,180.7,17 / 21,8509397,2019-08-18 17:35:31:934,-0.4459,-1.0582,9.6435,-0.6653,-0.5823,9.7667,0.0065,0.0021,-0.0299
85083,47.14909,-1.699156,51.47,28.97,5.36,180.7,17 / 21,8509497,2019-08-18 17:35:32:034,-0.717,-1.3575,9.8662,-0.6686,-0.5901,9.766,0.0048,0.0018,-0.0304
85084,47.14909,-1.699156,51.47,28.97,5.36,180.7,17 / 21,8509597,2019-08-18 17:35:32:134,-0.811,-1.0624,9.9589,-0.662,-0.6015,9.7658,0.0058,-0.0018,-0.0301
85085,47.14909,-1.699156,51.47,28.97,5.36,180.7,17 / 21,8509697,2019-08-18 17:35:32:234,-0.541,-1.1977,9.7411,-0.6615,-0.6092,9.7653,0.0097,-0.0004,-0.0289
85086,47.14909,-1.699156,51.47,28.97,5.36,180.7,17 / 21,8509798,2019-08-18 17:35:32:335,-0.7601,-0.841,9.5142,-0.656,-0.6154,9.7653,0.0113,0.0038,-0.0285
85087,47.14909,-1.699156,51.47,28.97,5.36,180.7,17 / 21,8509897,2019-08-18 17:35:32:434,-0.6015,-1.0768,9.4747,-0.6576,-0.6207,9.7649,0.0039,0.0124,-0.0298
85088,47.14909,-1.699156,51.47,28.97,5.36,180.7,17 / 21,8509997,2019-08-18 17:35:32:534,-0.4052,-0.8362,10.2025,-0.661,-0.632,9.7639,0.0054,-0.0092,-0.0309
85089,47.14909,-1.699156,51.47,28.97,5.36,180.7,17 / 21,8510097,2019-08-18 17:35:32:634,-0.48,-0.9379,10.1098,-0.6499,-0.6373,9.7643,0.0096,-0.0053,-0.0307
85090,47.14909,-1.699156,51.47,28.97,5.36,180.7,17 / 21,8510197,2019-08-18 17:35:32:734,-0.3986,-1.2881,9.8973,-0.6401,-0.6497,9.7641,0.0021,0.0061,-0.0298
85091,47.14909,-1.699156,51.47,28.97,5.36,180.7,17 / 21,8510297,2019-08-18 17:35:32:834,-0.5069,-0.9307,9.9829,-0.641,-0.6527,9.7639,0.0006,0.0045,-0.0307
85092,47.14909,-1.699156,51.47,28.97,5.36,180.7,17 / 21,8510397,2019-08-18 17:35:32:934,-0.3609,-1.1133,9.8709,-0.6374,-0.6649,9.7633,-0.007,-0.0068,-0.0318
85093,47.14909,-1.699156,51.47,28.97,5.36,180.7,17 / 21,8510497,2019-08-18 17:35:33:034,-0.4692,-1.1744,9.9853,-0.6248,-0.6838,9.7628,-0.0006,-0.0027,-0.0327
85094,47.14909,-1.699156,51.47,28.97,5.36,180.7,17 / 21,8510597,2019-08-18 17:35:33:134,-0.48,-1.2707,10.2277,-0.6194,-0.6918,9.7626,0.0041,-0.007,-0.0322
85095,47.14909,-1.699156,51.47,28.97,5.36,180.7,17 / 21,8510698,2019-08-18 17:35:33:235,-0.2525,-0.905,10.1026,-0.5991,-0.6998,9.7633,0.0117,-0.0083,-0.0321
85096,47.14909,-1.699156,51.47,28.97,5.36,180.7,17 / 21,8510798,2019-08-18 17:35:33:335,-0.5362,-1.1133,9.8045,-0.5872,-0.7016,9.7639,0.009,0.0105,-0.029
85097,47.14909,-1.699156,51.47,28.97,5.36,180.7,17 / 21,8510897,2019-08-18 17:35:33:434,-0.5392,-1.2749,9.9619,-0.5871,-0.7071,9.7635,0.003,0.006,-0.0307
85098,47.14909,-1.699156,51.47,28.97,5.36,180.7,17 / 21,8510997,2019-08-18 17:35:33:534,-0.574,-1.2127,10.0272,-0.5872,-0.7088,9.7634,0.0117,0.0103,-0.0309
85099,47.14909,-1.699156,51.47,28.97,5.36,180.7,17 / 21,8511098,2019-08-18 17:35:33:635,-0.219,-1.0816,9.9278,-0.5861,-0.7072,9.7635,0.0038,-0.0031,-0.0358
85100,47.14909,-1.699156,51.47,28.97,5.36,180.7,15 / 19,8511196,2019-08-18 17:35:33:733,-0.3477,-1.163,10.1092,-0.5801,-0.7107,9.7637,0.0035,-0.0031,-0.0374
85101,47.14909,-1.699156,51.47,28.97,5.36,180.7,15 / 19,8511299,2019-08-18 17:35:33:836,-0.3842,-1.4024,10.257,-0.5642,-0.7224,9.7637,0.0034,-0.0068,-0.0383
85102,47.14909,-1.699156,51.47,28.97,5.36,180.7,15 / 19,8511398,2019-08-18 17:35:33:935,-0.2328,-1.1863,10.0972,-0.5531,-0.7288,9.7639,0.0026,-0.0159,-0.0389
85103,47.14909,-1.699156,51.47,28.97,5.36,180.7,15 / 19,8511498,2019-08-18 17:35:34:035,-0.222,-1.084,9.6938,-0.5291,-0.7456,9.7639,0.0009,0.0119,-0.0381
85104,47.14909,-1.699156,51.47,28.97,5.36,180.7,15 / 19,8511597,2019-08-18 17:35:34:134,-0.3262,-1.239,9.8165,-0.531,-0.7537,9.7632,0.0099,0.0102,-0.0389
85105,47.14909,-1.699156,51.47,28.97,5.36,180.7,15 / 19,8511697,2019-08-18 17:35:34:234,-0.3046,-1.1396,9.8302,-0.5296,-0.7501,9.7636,0.0092,-0.0068,-0.0378
85106,47.14909,-1.699156,51.47,28.97,5.36,180.7,15 / 19,8511797,2019-08-18 17:35:34:334,-0.1849,-1.2899,10.2205,-0.5128,-0.7573,9.7639,-0.0002,-0.0134,-0.0397
85107,47.14909,-1.699156,51.47,28.97,5.36,180.7,15 / 19,8511897,2019-08-18 17:35:34:434,-0.2495,-1.1253,9.7596,-0.4975,-0.772,9.7636,0.0022,0.0104,-0.0376
85108,47.14909,-1.699156,51.47,28.97,5.36,180.7,15 / 19,8511997,2019-08-18 17:35:34:534,-0.322,-1.2581,9.692,-0.4983,-0.7792,9.7629,-0.0024,0.0038,-0.0376
85109,47.14909,-1.699156,51.47,28.97,5.36,180.7,17 / 21,8512097,2019-08-18 17:35:34:634,-0.4243,-1.0505,10.1032,-0.48,-0.8016,9.762,-0.0054,-0.0131,-0.0406
85110,47.14909,-1.699156,51.47,28.97,5.36,180.7,17 / 21,8512197,2019-08-18 17:35:34:734,-0.2765,-1.2761,9.4561,-0.4679,-0.8116,9.7618,-0.0058,-0.0048,-0.0414
85111,47.14909,-1.699156,51.47,28.97,5.36,180.7,17 / 21,8512298,2019-08-18 17:35:34:835,-0.243,-1.3054,9.8709,-0.4578,-0.837,9.7601,-0.0009,-0.0008,-0.0398
85112,47.14909,-1.699156,51.47,28.97,5.36,180.7,17 / 21,8512397,2019-08-18 17:35:34:934,-0.2017,-1.2091,9.9715,-0.4569,-0.84,9.7599,0.0075,0.0065,-0.0408
85113,47.14909,-1.699156,51.47,28.97,5.36,180.7,17 / 21,8512497,2019-08-18 17:35:35:034,-0.3268,-1.4323,9.5429,-0.451,-0.8561,9.7588,-0.0047,0.0059,-0.04
85114,47.14909,-1.699156,51.47,28.97,5.36,180.7,17 / 21,8512597,2019-08-18 17:35:35:134,-0.5602,-1.4754,9.5004,-0.4566,-0.8651,9.7577,0.0001,0.0125,-0.041
85115,47.14909,-1.699156,51.47,28.97,5.36,180.7,17 / 21,8512697,2019-08-18 17:35:35:234,-0.5327,-1.385,9.914,-0.4734,-0.8804,9.7556,0.0148,0.019,-0.0388
85116,47.14909,-1.699156,51.47,28.97,5.36,180.7,17 / 21,8512797,2019-08-18 17:35:35:334,-0.3573,-1.2264,9.8769,-0.4749,-0.8805,9.7555,0.0136,-0.0009,-0.0366
85117,47.14909,-1.699156,51.47,28.97,5.36,180.7,17 / 21,8512897,2019-08-18 17:35:35:434,-0.7026,-1.3982,10.0679,-0.4736,-0.884,9.7552,0.006,0.0027,-0.0353
85118,47.14909,-1.699156,51.47,28.97,5.36,180.7,17 / 21,8512997,2019-08-18 17:35:35:534,-0.6063,-1.1277,9.8871,-0.472,-0.8878,9.755,0.0064,-0.014,-0.0347
85119,47.14909,-1.699156,51.47,28.97,5.36,180.7,15 / 20,8513097,2019-08-18 17:35:35:634,-0.6733,-1.5616,10.2444,-0.4666,-0.8941,9.7547,0.0059,0.01,-0.0324
85120,47.14909,-1.699156,51.47,28.97,5.36,180.7,15 / 20,8513197,2019-08-18 17:35:35:734,-0.6254,-1.3186,9.2868,-0.4712,-0.8984,9.754,-0.0016,-0.0075,-0.0346
85121,47.14909,-1.699156,51.47,28.97,5.36,180.7,15 / 20,8513297,2019-08-18 17:35:35:834,-0.8972,-1.1899,9.5998,-0.4708,-0.9114,9.7528,-0.005,0.0044,-0.0331
85122,47.14909,-1.699156,51.47,28.97,5.36,180.7,15 / 20,8513397,2019-08-18 17:35:35:934,-0.9367,-1.4126,9.8823,-0.4773,-0.9225,9.7515,0.0141,0.0048,-0.0303
85123,47.14909,-1.699156,51.47,28.97,5.36,180.7,15 / 20,8513497,2019-08-18 17:35:36:034,-0.6775,-1.1953,9.8703,-0.4843,-0.917,9.7517,0.0072,0.0014,-0.0289
85124,47.14909,-1.699156,51.47,28.97,5.36,180.7,15 / 20,8513597,2019-08-18 17:35:36:134,-0.5452,-0.9637,9.7554,-0.4832,-0.9202,9.7514,0.0065,-0.0038,-0.0285
85125,47.14909,-1.699156,51.47,28.97,5.36,180.7,15 / 20,8513697,2019-08-18 17:35:36:234,-0.6853,-1.2396,9.4825,-0.4903,-0.9212,9.751,0.0017,0.0009,-0.0295
85126,47.14909,-1.699156,51.47,28.97,5.36,180.7,15 / 20,8513797,2019-08-18 17:35:36:334,-0.8092,-1.1169,9.7991,-0.4924,-0.9229,9.7507,0.0058,0.0018,-0.0296
85127,47.14909,-1.699156,51.47,28.97,5.36,180.7,15 / 20,8513897,2019-08-18 17:35:36:434,-0.635,-1.1744,9.8476,-0.493,-0.9254,9.7504,0.0033,-0.0006,-0.0282
85128,47.14909,-1.699156,51.47,28.97,5.36,180.7,15 / 20,8513997,2019-08-18 17:35:36:534,-0.9038,-0.9224,10.2001,-0.498,-0.9259,9.7501,0.0085,0.0072,-0.0272
85129,47.14909,-1.699156,51.47,28.97,5.36,180.7,15 / 22,8514097,2019-08-18 17:35:36:634,-0.574,-1.0463,9.3388,-0.4994,-0.9278,9.7499,0.0004,0.0012,-0.027
85130,47.14909,-1.699156,51.47,28.97,5.36,180.7,15 / 22,8514197,2019-08-18 17:35:36:734,-0.7433,-1.1582,9.5058,-0.5022,-0.9327,9.7493,-0.0029,0.0046,-0.0264
85131,47.14909,-1.699156,51.47,28.97,5.36,180.7,15 / 22,8514297,2019-08-18 17:35:36:834,-0.8475,-1.1085,10.0822,-0.5072,-0.9453,9.7478,-0.0112,-0.009,-0.0294
85132,47.14909,-1.699156,51.47,28.97,5.36,180.7,15 / 22,8514398,2019-08-18 17:35:36:935,-0.8882,-1.4072,10.1654,-0.5084,-0.9639,9.7459,0.0074,0.0005,-0.0306
85133,47.14909,-1.699156,51.47,28.97,5.36,180.7,15 / 22,8514497,2019-08-18 17:35:37:034,-0.8469,-1.0535,10.0643,-0.5117,-0.9644,9.7457,0.0141,-0.0175,-0.0307
85134,47.14909,-1.699156,51.47,28.97,5.36,180.7,15 / 22,8514597,2019-08-18 17:35:37:134,-0.7966,-1.166,10.0709,-0.4928,-0.9592,9.7472,0.0054,-0.0315,-0.0318
85135,47.14909,-1.699156,51.47,28.97,5.36,180.7,15 / 22,8514697,2019-08-18 17:35:37:234,-0.577,-1.3084,9.6543,-0.4783,-0.9616,9.7477,-0.0055,-0.0159,-0.0316
85136,47.14909,-1.699156,51.47,28.97,5.36,180.7,15 / 22,8514797,2019-08-18 17:35:37:334,-0.8966,-0.8787,9.1287,-0.4877,-0.9925,9.7441,-0.0178,0.0259,-0.0337
85137,47.14909,-1.699156,51.47,28.97,5.36,180.7,15 / 22,8514897,2019-08-18 17:35:37:434,-1.0007,-1.2252,8.8139,-0.5049,-1.0106,9.7414,-0.0145,0.0257,-0.0311
85138,47.14909,-1.699156,51.47,28.97,5.36,180.7,15 / 22,8514997,2019-08-18 17:35:37:534,-0.8014,-1.2947,9.9093,-0.5402,-1.0354,9.7369,0.0024,-0.005,-0.0329
85139,47.14909,-1.699156,51.47,28.97,5.36,180.7,15 / 22,8515097,2019-08-18 17:35:37:634,-0.9229,-1.5143,10.5246,-0.5402,-1.038,9.7366,0.0125,-0.0145,-0.0312
85140,47.14683,-1.699675,49.77,27.68,5.36,197.7,15 / 22,8515197,2019-08-18 17:35:37:734,-1.47,-1.5006,10.7269,-0.53,-1.0288,9.7381,0.0249,-0.0172,-0.0258
85141,47.14683,-1.699675,49.77,27.68,5.36,197.7,15 / 22,8515300,2019-08-18 17:35:37:837,-1.1552,-1.2558,10.1469,-0.5274,-1.0161,9.7396,0.0185,-0.0181,-0.0231
85142,47.14683,-1.699675,49.77,27.68,5.36,197.7,15 / 22,8515397,2019-08-18 17:35:37:934,-1.4628,-1.321,9.9266,-0.5353,-1.0046,9.7404,0.0144,-0.0018,-0.0215
85143,47.14683,-1.699675,49.77,27.68,5.36,197.7,15 / 22,8515497,2019-08-18 17:35:38:034,-1.0235,-1.1079,9.8015,-0.5479,-1.0011,9.74,0.004,0.0045,-0.0221
85144,47.14683,-1.699675,49.77,27.68,5.36,197.7,15 / 22,8515597,2019-08-18 17:35:38:134,-1.0312,-1.2336,9.2287,-0.5753,-1.0046,9.7381,0.0026,0.0046,-0.0229
85145,47.14683,-1.699675,49.77,27.68,5.36,197.7,15 / 22,8515697,2019-08-18 17:35:38:234,-1.2437,-1.3689,9.2694,-0.5834,-1.0098,9.7371,-0.0051,-0.0018,-0.0298
85146,47.14683,-1.699675,49.77,27.68,5.36,197.7,15 / 22,8515797,2019-08-18 17:35:38:334,-0.574,-1.3455,9.4107,-0.5955,-1.0323,9.734,-0.0074,0.0051,-0.0352
85147,47.14683,-1.699675,49.77,27.68,5.36,197.7,15 / 22,8515897,2019-08-18 17:35:38:434,-0.6763,-1.421,9.8261,-0.6006,-1.0396,9.7329,0.0153,-0.0005,-0.0411
85148,47.14683,-1.699675,49.77,27.68,5.36,197.7,15 / 22,8515997,2019-08-18 17:35:38:534,-0.5823,-1.3707,10.2007,-0.5909,-1.0357,9.7339,0.0166,-0.0072,-0.0424
85149,47.14683,-1.699675,49.77,27.68,5.36,197.7,14 / 21,8516097,2019-08-18 17:35:38:634,-0.6595,-1.3671,9.6842,-0.5821,-1.0342,9.7346,0.002,-0.0082,-0.0428
85150,47.14683,-1.699675,49.77,27.68,5.36,197.7,14 / 21,8516197,2019-08-18 17:35:38:734,-0.5997,-1.5054,9.692,-0.5713,-1.0484,9.7337,-0.0009,0.0032,-0.0423
85151,47.14683,-1.699675,49.77,27.68,5.36,197.7,14 / 21,8516297,2019-08-18 17:35:38:834,-0.4944,-1.3707,9.3706,-0.5731,-1.0575,9.7326,-0.0011,0.0108,-0.0444
85152,47.14683,-1.699675,49.77,27.68,5.36,197.7,14 / 21,8516397,2019-08-18 17:35:38:934,-0.7463,-1.4269,10.2295,-0.5798,-1.0745,9.7303,0.0011,0.0046,-0.0451
85153,47.14683,-1.699675,49.77,27.68,5.36,197.7,14 / 21,8516497,2019-08-18 17:35:39:034,-0.7469,-1.5592,9.8344,-0.5688,-1.0796,9.7304,0.0026,-0.0138,-0.0449
85154,47.14683,-1.699675,49.77,27.68,5.36,197.7,14 / 21,8516597,2019-08-18 17:35:39:134,-0.5704,-1.5347,9.9272,-0.5526,-1.0943,9.7297,0.0018,-0.0059,-0.0424
85155,47.14683,-1.699675,49.77,27.68,5.36,197.7,14 / 21,8516697,2019-08-18 17:35:39:234,-0.7044,-1.3599,9.8201,-0.5535,-1.0988,9.7292,0.0129,0.0152,-0.0399
85156,47.14683,-1.699675,49.77,27.68,5.36,197.7,14 / 21,8516797,2019-08-18 17:35:39:334,-0.8098,-1.5826,9.9907,-0.5704,-1.0972,9.7284,0.0143,0.0003,-0.0393
85157,47.14683,-1.699675,49.77,27.68,5.36,197.7,14 / 21,8516897,2019-08-18 17:35:39:434,-0.7362,-1.4144,9.5076,-0.5679,-1.0962,9.7286,0.0159,-0.0024,-0.0407
85158,47.14683,-1.699675,49.77,27.68,5.36,197.7,14 / 21,8516997,2019-08-18 17:35:39:534,-0.8571,-1.6125,10.202,-0.5705,-1.0961,9.7285,0.0117,0.0021,-0.0408
85159,47.14683,-1.699675,49.77,27.68,5.36,197.7,14 / 21,8517097,2019-08-18 17:35:39:634,-0.9888,-1.494,9.8799,-0.5779,-1.0999,9.7276,0.0073,-0.0065,-0.043
85160,47.14683,-1.699675,49.77,27.68,5.36,197.7,14 / 21,8517197,2019-08-18 17:35:39:734,-0.7428,-1.6245,9.619,-0.5771,-1.1033,9.7273,0.0009,0.0066,-0.0442
85161,47.14683,-1.699675,49.77,27.68,5.36,197.7,14 / 21,8517297,2019-08-18 17:35:39:834,-1.2,-1.5568,10.6233,-0.5857,-1.1196,9.7249,0.005,0.0013,-0.0422
85162,47.14683,-1.699675,49.77,27.68,5.36,197.7,14 / 21,8517397,2019-08-18 17:35:39:934,-0.8786,-1.6418,10.5126,-0.5739,-1.1228,9.7252,0.0208,-0.0441,-0.0444
85163,47.14683,-1.699675,49.77,27.68,5.36,197.7,14 / 21,8517497,2019-08-18 17:35:40:034,-0.3435,-1.2324,9.3586,-0.5339,-1.1166,9.7282,0.0055,-0.0171,-0.0425
85164,47.14683,-1.699675,49.77,27.68,5.36,197.7,14 / 21,8517597,2019-08-18 17:35:40:134,-0.4632,-1.3461,9.0934,-0.5379,-1.1275,9.7268,-0.0035,0.0304,-0.0376
85165,47.14683,-1.699675,49.77,27.68,5.36,197.7,14 / 21,8517697,2019-08-18 17:35:40:234,-0.6099,-1.2611,9.6411,-0.5665,-1.1361,9.7241,0.0025,0.0063,-0.0417
85166,47.14683,-1.699675,49.77,27.68,5.36,197.7,14 / 21,8517797,2019-08-18 17:35:40:334,-0.459,-1.2109,9.5836,-0.5674,-1.14,9.7236,0.0032,-0.0005,-0.0414
85167,47.14683,-1.699675,49.77,27.68,5.36,197.7,14 / 21,8517897,2019-08-18 17:35:40:434,-0.3537,-1.0876,10.1014,-0.5582,-1.1412,9.724,0.003,0.0084,-0.0391
85168,47.14683,-1.699675,49.77,27.68,5.36,197.7,14 / 21,8517997,2019-08-18 17:35:40:534,-0.7032,-1.4138,10.3552,-0.5611,-1.1423,9.7237,-0.0071,0.0105,-0.0355
85169,47.14683,-1.699675,49.77,27.68,5.36,197.7,14 / 21,8518097,2019-08-18 17:35:40:634,-0.9055,-1.5155,10.2582,-0.5719,-1.1482,9.7224,0.0128,0.0062,-0.035
85170,47.14683,-1.699675,49.77,27.68,5.36,197.7,14 / 21,8518197,2019-08-18 17:35:40:734,-0.6009,-1.3342,10.09,-0.5687,-1.1424,9.7233,0.0234,-0.0156,-0.0333
85171,47.14683,-1.699675,49.77,27.68,5.36,197.7,14 / 21,8518297,2019-08-18 17:35:40:834,-0.6883,-1.2091,9.9212,-0.5471,-1.1113,9.7281,0.0048,-0.0125,-0.0329
85172,47.14683,-1.699675,49.77,27.68,5.36,197.7,14 / 21,8518397,2019-08-18 17:35:40:934,-0.6063,-1.0463,9.2389,-0.5406,-1.1109,9.7285,-0.0023,0.0021,-0.034
85173,47.14683,-1.699675,49.77,27.68,5.36,197.7,14 / 21,8518497,2019-08-18 17:35:41:034,-0.7541,-1.2767,8.8947,-0.5504,-1.115,9.7275,0.0036,0.0025,-0.0353
85174,47.14683,-1.699675,49.77,27.68,5.36,197.7,14 / 21,8518597,2019-08-18 17:35:41:134,-0.6117,-1.0936,10.0978,-0.5498,-1.1129,9.7278,0.0018,-0.0011,-0.0356
85175,47.14683,-1.699675,49.77,27.68,5.36,197.7,14 / 21,8518697,2019-08-18 17:35:41:234,-0.5476,-0.8511,9.7231,-0.5397,-1.1124,9.7284,-0.0014,-0.012,-0.0364
85176,47.14683,-1.699675,49.77,27.68,5.36,197.7,14 / 21,8518797,2019-08-18 17:35:41:334,-0.5392,-1.1642,9.8195,-0.5271,-1.1136,9.7289,0.0061,0.0005,-0.033
85177,47.14683,-1.699675,49.77,27.68,5.36,197.7,14 / 21,8518897,2019-08-18 17:35:41:434,-0.2759,-0.929,9.5782,-0.5203,-1.1067,9.7301,0.0024,-0.0104,-0.0342
85178,47.14683,-1.699675,49.77,27.68,5.36,197.7,14 / 21,8518997,2019-08-18 17:35:41:534,-0.4465,-1.1205,9.5627,-0.5082,-1.106,9.7308,-0.0037,0.0112,-0.0332
85179,47.14683,-1.699675,49.77,27.68,5.36,197.7,13 / 21,8519097,2019-08-18 17:35:41:634,-0.5476,-0.8511,9.3885,-0.5133,-1.1068,9.7305,0.0018,0.0153,-0.0325
85180,47.14683,-1.699675,49.77,27.68,5.36,197.7,13 / 21,8519197,2019-08-18 17:35:41:734,-0.3196,-1.0205,9.8099,-0.521,-1.1007,9.7307,0.0068,-0.0004,-0.0346
85181,47.14683,-1.699675,49.77,27.68,5.36,197.7,13 / 21,8519297,2019-08-18 17:35:41:834,-0.4459,-1.0594,10.1014,-0.5085,-1.0861,9.733,0.0127,-0.0089,-0.0342
85182,47.14683,-1.699675,49.77,27.68,5.36,197.7,13 / 21,8519398,2019-08-18 17:35:41:935,-0.389,-0.9834,9.8279,-0.4949,-1.0866,9.7337,-0.0013,-0.0101,-0.0351
85183,47.14683,-1.699675,49.77,27.68,5.36,197.7,13 / 21,8519497,2019-08-18 17:35:42:034,-0.1861,-1.0361,9.5908,-0.4819,-1.0878,9.7342,-0.0033,0.0049,-0.0341
85184,47.14683,-1.699675,49.77,27.68,5.36,197.7,13 / 21,8519597,2019-08-18 17:35:42:134,-0.459,-1.0175,9.6974,-0.4881,-1.0898,9.7337,0.0012,0.0133,-0.0332
85185,47.14683,-1.699675,49.77,27.68,5.36,197.7,13 / 21,8519697,2019-08-18 17:35:42:234,-0.2501,-0.7661,9.6423,-0.4874,-1.0822,9.7346,0.0004,-0.0172,-0.0333
85186,47.14683,-1.699675,49.77,27.68,5.36,197.7,13 / 21,8519797,2019-08-18 17:35:42:334,-0.313,-0.8236,9.668,-0.4736,-1.0807,9.7354,0.001,-0.0141,-0.0321
85187,47.14683,-1.699675,49.77,27.68,5.36,197.7,13 / 21,8519897,2019-08-18 17:35:42:434,-0.5781,-1.0618,10.1313,-0.4506,-1.0787,9.7367,-0.0021,0.0021,-0.0328
85188,47.14683,-1.699675,49.77,27.68,5.36,197.7,13 / 21,8519997,2019-08-18 17:35:42:534,-0.4309,-1.1606,10.0194,-0.4516,-1.0802,9.7365,-0.0094,-0.0013,-0.0317
85189,47.14683,-1.699675,49.77,27.68,5.36,197.7,13 / 21,8520097,2019-08-18 17:35:42:634,-0.5584,-0.9044,9.9577,-0.4461,-1.087,9.736,0.0022,0.0108,-0.0315
85190,47.14683,-1.699675,49.77,27.68,5.36,197.7,13 / 21,8520197,2019-08-18 17:35:42:734,-0.5596,-1.0433,9.9919,-0.4557,-1.0841,9.7359,-0.0002,0.0069,-0.0313
85191,47.14683,-1.699675,49.77,27.68,5.36,197.7,13 / 21,8520297,2019-08-18 17:35:42:834,-0.5213,-0.9296,9.8392,-0.445,-1.0859,9.7362,-0.001,-0.0055,-0.033
85192,47.14683,-1.699675,49.77,27.68,5.36,197.7,13 / 21,8520397,2019-08-18 17:35:42:934,-0.5338,-1.1049,9.8183,-0.4438,-1.0875,9.7361,0.0001,0.0073,-0.0322
85193,47.14683,-1.699675,49.77,27.68,5.36,197.7,13 / 21,8520497,2019-08-18 17:35:43:034,-0.7254,-1.23,10.1618,-0.449,-1.085,9.7361,0.0115,-0.0036,-0.0298
85194,47.14683,-1.699675,49.77,27.68,5.36,197.7,13 / 21,8520597,2019-08-18 17:35:43:134,-0.7344,-0.9188,9.3736,-0.4461,-1.0723,9.7376,0.0063,-0.0092,-0.0294
85195,47.14683,-1.699675,49.77,27.68,5.36,197.7,13 / 21,8520697,2019-08-18 17:35:43:234,-0.7631,-1.1019,9.5489,-0.4466,-1.0704,9.7378,0.0026,0.0069,-0.028
85196,47.14683,-1.699675,49.77,27.68,5.36,197.7,13 / 21,8520797,2019-08-18 17:35:43:334,-0.6147,-0.9373,9.4801,-0.4627,-1.0622,9.738,0.0077,0.0148,-0.0258
85197,47.14683,-1.699675,49.77,27.68,5.36,197.7,13 / 21,8520897,2019-08-18 17:35:43:434,-0.6224,-1.0798,9.9176,-0.4732,-1.0578,9.7379,0.0113,-0.0008,-0.0265
85198,47.14683,-1.699675,49.77,27.68,5.36,197.7,13 / 21,8520997,2019-08-18 17:35:43:534,-0.6829,-1.1881,9.9571,-0.4729,-1.043,9.7396,0.0107,-0.0137,-0.0268
85199,47.14683,-1.699675,49.77,27.68,5.36,197.7,14 / 22,8521097,2019-08-18 17:35:43:634,-0.6631,-0.9876,9.8129,-0.4716,-1.0358,9.7404,0.0054,0.0077,-0.0282
85200,47.14683,-1.699675,49.77,27.68,5.36,197.7,14 / 22,8521197,2019-08-18 17:35:43:734,-0.7852,-1.0325,9.7435,-0.4858,-1.0329,9.74,0.0008,0.0157,-0.0274
85201,47.14683,-1.699675,49.77,27.68,5.36,197.7,14 / 22,8521297,2019-08-18 17:35:43:834,-0.8325,-1.1696,9.8494,-0.4999,-1.0334,9.7392,-0.0025,0.0084,-0.0275
85202,47.14683,-1.699675,49.77,27.68,5.36,197.7,14 / 22,8521397,2019-08-18 17:35:43:934,-0.9133,-1.0959,9.8446,-0.5103,-1.035,9.7385,-0.0012,-0.0099,-0.0268
85203,47.14683,-1.699675,49.77,27.68,5.36,197.7,14 / 22,8521497,2019-08-18 17:35:44:034,-0.8271,-1.2013,9.9212,-0.5076,-1.0371,9.7384,0.0042,-0.0024,-0.0268
85204,47.14683,-1.699675,49.77,27.68,5.36,197.7,14 / 22,8521597,2019-08-18 17:35:44:134,-0.6901,-1.1342,10.3647,-0.5149,-1.0333,9.7385,0.0064,-0.0077,-0.028
85205,47.14683,-1.699675,49.77,27.68,5.36,197.7,14 / 22,8521697,2019-08-18 17:35:44:234,-0.7888,-0.8595,10.1511,-0.5108,-1.0288,9.7391,0.0071,-0.018,-0.0289
85206,47.14683,-1.699675,49.77,27.68,5.36,197.7,14 / 22,8521797,2019-08-18 17:35:44:334,-0.6165,-1.0139,10.2989,-0.4912,-1.0213,9.741,0.0013,-0.0089,-0.0266
85207,47.14683,-1.699675,49.77,27.68,5.36,197.7,14 / 22,8521897,2019-08-18 17:35:44:434,-0.6757,-0.9774,9.537,-0.4882,-1.0204,9.7412,-0.006,-0.0049,-0.0276
85208,47.14683,-1.699675,49.77,27.68,5.36,197.7,14 / 22,8521997,2019-08-18 17:35:44:534,-0.7128,-1.0738,9.7075,-0.4998,-1.0258,9.74,-0.0021,0.0141,-0.0274
85209,47.14683,-1.699675,49.77,27.68,5.36,197.7,13 / 21,8522097,2019-08-18 17:35:44:634,-0.823,-0.8565,9.8727,-0.5064,-1.0266,9.7396,0.0013,-0.0104,-0.0279
85210,47.14683,-1.699675,49.77,27.68,5.36,197.7,13 / 21,8522197,2019-08-18 17:35:44:734,-0.4459,-1.1929,9.9595,-0.4985,-1.021,9.7406,0.0086,-0.0106,-0.026
85211,47.14683,-1.699675,49.77,27.68,5.36,197.7,13 / 21,8522298,2019-08-18 17:35:44:835,-0.4908,-0.9553,9.5034,-0.4931,-1.0158,9.7414,0.0081,0.0057,-0.0253
85212,47.14683,-1.699675,49.77,27.68,5.36,197.7,13 / 21,8522397,2019-08-18 17:35:44:934,-0.6254,-1.1019,9.923,-0.499,-1.0086,9.7419,0.0026,0.0145,-0.0262
85213,47.14683,-1.699675,49.77,27.68,5.36,197.7,13 / 21,8522497,2019-08-18 17:35:45:034,-0.6254,-0.817,10.3079,-0.5119,-1.0012,9.742,0.0103,-0.0049,-0.0268
85214,47.14683,-1.699675,49.77,27.68,5.36,197.7,13 / 21,8522597,2019-08-18 17:35:45:134,-0.3836,-1.0325,10.2738,-0.4989,-0.9859,9.7442,0.0126,-0.0139,-0.0294
85215,47.14683,-1.699675,49.77,27.68,5.36,197.7,13 / 21,8522697,2019-08-18 17:35:45:234,-0.6176,-0.8541,10.1038,-0.4906,-0.9781,9.7454,0.0084,0.0,-0.028
85216,47.14683,-1.699675,49.77,27.68,5.36,197.7,13 / 21,8522797,2019-08-18 17:35:45:334,-0.6105,-0.7853,10.2103,-0.4885,-0.9637,9.747,0.0121,0.0059,-0.0257
85217,47.14683,-1.699675,49.77,27.68,5.36,197.7,13 / 21,8522897,2019-08-18 17:35:45:434,-0.635,-0.6608,9.8733,-0.4849,-0.9565,9.7478,0.0071,-0.0108,-0.0262
85218,47.14683,-1.699675,49.77,27.68,5.36,197.7,13 / 21,8522997,2019-08-18 17:35:45:534,-0.538,-0.7602,9.92,-0.4777,-0.9464,9.7492,0.0033,0.0095,-0.0283
85219,47.14683,-1.699675,49.77,27.68,5.36,197.7,13 / 22,8523097,2019-08-18 17:35:45:634,-0.5231,-1.0445,10.1223,-0.4818,-0.9429,9.7493,0.0083,0.0109,-0.0309
85220,47.14683,-1.699675,49.77,27.68,5.36,197.7,13 / 22,8523197,2019-08-18 17:35:45:734,-0.2956,-0.966,10.0709,-0.4732,-0.9369,9.7503,0.0033,-0.012,-0.0384
85221,47.14683,-1.699675,49.77,27.68,5.36,197.7,13 / 22,8523297,2019-08-18 17:35:45:834,-0.3016,-1.1091,9.8213,-0.462,-0.9377,9.7508,-0.0071,-0.0192,-0.0389
85222,47.14683,-1.699675,49.77,27.68,5.36,197.7,13 / 22,8523397,2019-08-18 17:35:45:934,-0.389,-1.1875,9.8195,-0.4477,-0.9474,9.7505,-0.0046,0.0092,-0.0398
85223,47.14683,-1.699675,49.77,27.68,5.36,197.7,13 / 22,8523497,2019-08-18 17:35:46:034,-0.48,-1.1313,9.926,-0.4511,-0.9583,9.7493,-0.0017,0.0053,-0.0392
85224,47.14683,-1.699675,49.77,27.68,5.36,197.7,13 / 22,8523598,2019-08-18 17:35:46:135,-0.4866,-1.151,9.7087,-0.4497,-0.9622,9.749,0.009,0.0,-0.0344
85225,47.14683,-1.699675,49.77,27.68,5.36,197.7,13 / 22,8523697,2019-08-18 17:35:46:234,-0.4674,-1.0116,9.935,-0.4459,-0.9597,9.7494,0.0064,0.0079,-0.0322
85226,47.14683,-1.699675,49.77,27.68,5.36,197.7,13 / 22,8523797,2019-08-18 17:35:46:334,-0.4938,-0.9906,9.8817,-0.4488,-0.9584,9.7494,0.0055,-0.0141,-0.0336
85227,47.14683,-1.699675,49.77,27.68,5.36,197.7,13 / 22,8523897,2019-08-18 17:35:46:434,-0.5901,-1.0768,10.026,-0.4366,-0.9553,9.7502,0.0038,-0.0067,-0.0334
85228,47.14683,-1.699675,49.77,27.68,5.36,197.7,13 / 22,8523997,2019-08-18 17:35:46:534,-0.4255,-0.9547,9.5932,-0.4367,-0.9563,9.7501,-0.0009,0.0046,-0.034
85229,47.144985,-1.701035,48.57,24.42,5.36,212.9,13 / 22,8524099,2019-08-18 17:35:46:636,-0.4177,-1.1247,9.8039,-0.4432,-0.9633,9.7492,0.0008,0.0135,-0.0334
85230,47.144985,-1.701035,48.57,24.42,5.36,212.9,13 / 22,8524197,2019-08-18 17:35:46:734,-0.8026,-1.1007,9.8584,-0.4513,-0.9655,9.7486,0.0073,0.002,-0.0333
85231,47.144985,-1.701035,48.57,24.42,5.36,212.9,13 / 22,8524297,2019-08-18 17:35:46:834,-0.5895,-1.0373,9.8063,-0.4411,-0.9549,9.7501,0.0082,-0.0232,-0.0326
85232,47.144985,-1.701035,48.57,24.42,5.36,212.9,13 / 22,8524397,2019-08-18 17:35:46:934,-0.468,-0.9188,9.686,-0.4249,-0.9506,9.7512,0.0051,-0.0038,-0.0327
85233,47.144985,-1.701035,48.57,24.42,5.36,212.9,13 / 22,8524499,2019-08-18 17:35:47:036,-0.3896,-0.823,9.932,-0.4238,-0.9438,9.7519,0.0119,0.0073,-0.0302
85234,47.144985,-1.701035,48.57,24.42,5.36,212.9,13 / 22,8524597,2019-08-18 17:35:47:134,-0.553,-0.9373,10.0775,-0.4265,-0.9357,9.7526,0.0152,-0.0098,-0.0317
85235,47.144985,-1.701035,48.57,24.42,5.36,212.9,13 / 22,8524697,2019-08-18 17:35:47:234,-0.4501,-1.0738,9.7099,-0.4062,-0.9163,9.7553,0.0074,-0.0272,-0.0335
85236,47.144985,-1.701035,48.57,24.42,5.36,212.9,13 / 22,8524797,2019-08-18 17:35:47:334,-0.4944,-0.7344,9.9494,-0.3869,-0.9098,9.7567,0.0074,-0.012,-0.0302
85237,47.144985,-1.701035,48.57,24.42,5.36,212.9,13 / 22,8524897,2019-08-18 17:35:47:434,-0.4022,-0.8176,9.7267,-0.3801,-0.9093,9.757,-0.0052,0.0204,-0.0258
85238,47.144985,-1.701035,48.57,24.42,5.36,212.9,13 / 22,8524997,2019-08-18 17:35:47:534,-0.4931,-0.9122,9.7698,-0.3988,-0.912,9.756,0.0002,0.0168,-0.0245
85239,47.144985,-1.701035,48.57,24.42,5.36,212.9,13 / 22,8525097,2019-08-18 17:35:47:634,-0.2507,-0.6752,9.8793,-0.4064,-0.9042,9.7564,0.0044,-0.0013,-0.0265
85240,47.144985,-1.701035,48.57,24.42,5.36,212.9,13 / 22,8525197,2019-08-18 17:35:47:734,-0.4171,-0.6476,10.1199,-0.4053,-0.9,9.7569,0.0071,0.0008,-0.0266
85241,47.144985,-1.701035,48.57,24.42,5.36,212.9,13 / 22,8525297,2019-08-18 17:35:47:834,-0.3692,-0.8182,10.2133,-0.3961,-0.8844,9.7587,0.0067,-0.0173,-0.0264
85242,47.144985,-1.701035,48.57,24.42,5.36,212.9,13 / 22,8525397,2019-08-18 17:35:47:934,-0.5698,-0.6105,10.1535,-0.3853,-0.8788,9.7596,0.0026,-0.0005,-0.027
85243,47.144985,-1.701035,48.57,24.42,5.36,212.9,13 / 22,8525498,2019-08-18 17:35:48:035,-0.4028,-0.7368,9.7758,-0.3784,-0.8736,9.7603,0.0013,0.0034,-0.0258
85244,47.144985,-1.701035,48.57,24.42,5.36,212.9,13 / 22,8525597,2019-08-18 17:35:48:134,-0.4261,-0.7667,9.8249,-0.3816,-0.8697,9.7605,0.0069,0.0056,-0.0253
85245,47.144985,-1.701035,48.57,24.42,5.36,212.9,13 / 22,8525698,2019-08-18 17:35:48:235,-0.4632,-0.8134,9.9206,-0.3824,-0.8621,9.7612,-0.0018,-0.0129,-0.028
85246,47.144985,-1.701035,48.57,24.42,5.36,212.9,13 / 22,8525799,2019-08-18 17:35:48:336,-0.6697,-0.6177,9.7548,-0.377,-0.8647,9.7612,-0.005,-0.0119,-0.0279
85247,47.144985,-1.701035,48.57,24.42,5.36,212.9,13 / 22,8525897,2019-08-18 17:35:48:434,-0.6781,-0.8242,9.5208,-0.3877,-0.8741,9.7599,-0.0072,0.0164,-0.025
85248,47.144985,-1.701035,48.57,24.42,5.36,212.9,13 / 22,8525997,2019-08-18 17:35:48:534,-0.5733,-0.9846,9.5681,-0.399,-0.8782,9.7591,0.01,-0.0013,-0.0249
85249,47.144985,-1.701035,48.57,24.42,5.36,212.9,Dec-19,8526097,2019-08-18 17:35:48:634,-0.5913,-1.0062,9.8147,-0.403,-0.8632,9.7603,0.0154,0.0039,-0.0246
85250,47.144985,-1.701035,48.57,24.42,5.36,212.9,Dec-19,8526197,2019-08-18 17:35:48:734,-0.6362,-0.7955,10.1714,-0.409,-0.8545,9.7608,0.0117,-0.0069,-0.025
85251,47.144985,-1.701035,48.57,24.42,5.36,212.9,Dec-19,8526297,2019-08-18 17:35:48:834,-0.7757,-0.9032,10.3869,-0.3959,-0.84,9.7626,0.0031,-0.0082,-0.0249
85252,47.144985,-1.701035,48.57,24.42,5.36,212.9,Dec-19,8526397,2019-08-18 17:35:48:934,-0.6835,-0.6668,9.8249,-0.3936,-0.8392,9.7628,-0.0064,0.0027,-0.0242
85253,47.144985,-1.701035,48.57,24.42,5.36,212.9,Dec-19,8526497,2019-08-18 17:35:49:034,-0.4866,-0.762,10.0816,-0.3959,-0.8451,9.7621,-0.0017,-0.0135,-0.0253
85254,47.144985,-1.701035,48.57,24.42,5.36,212.9,Dec-19,8526597,2019-08-18 17:35:49:134,-0.5177,-0.8619,9.7279,-0.3892,-0.8456,9.7624,-0.0026,-0.005,-0.0249
85255,47.144985,-1.701035,48.57,24.42,5.36,212.9,Dec-19,8526697,2019-08-18 17:35:49:234,-0.4441,-0.6351,9.7632,-0.3891,-0.8473,9.7622,0.0103,0.0061,-0.0217
85256,47.144985,-1.701035,48.57,24.42,5.36,212.9,Dec-19,8526797,2019-08-18 17:35:49:334,-0.3471,-0.7278,9.7123,-0.3962,-0.8337,9.7631,0.0176,0.0063,-0.0214
85257,47.144985,-1.701035,48.57,24.42,5.36,212.9,Dec-19,8526897,2019-08-18 17:35:49:434,-0.4117,-0.6225,9.7135,-0.3931,-0.8202,9.7644,0.0122,-0.0197,-0.0226
85258,47.144985,-1.701035,48.57,24.42,5.36,212.9,Dec-19,8526997,2019-08-18 17:35:49:534,-0.377,-0.5405,10.0349,-0.3742,-0.8004,9.7668,0.0035,-0.0082,-0.0233
85259,47.144985,-1.701035,48.57,24.42,5.36,212.9,14 / 21,8527097,2019-08-18 17:35:49:634,-0.3094,-0.6991,9.5214,-0.3734,-0.7983,9.767,-0.0056,0.007,-0.024
85260,47.144985,-1.701035,48.57,24.42,5.36,212.9,14 / 21,8527197,2019-08-18 17:35:49:734,-0.4028,-0.5004,9.8326,-0.3777,-0.7997,9.7667,-0.0028,0.0023,-0.0232
85261,47.144985,-1.701035,48.57,24.42,5.36,212.9,14 / 21,8527298,2019-08-18 17:35:49:835,-0.3746,-0.6345,9.7219,-0.3767,-0.7951,9.7671,0.0034,0.0009,-0.0213
85262,47.144985,-1.701035,48.57,24.42,5.36,212.9,14 / 21,8527397,2019-08-18 17:35:49:934,-0.7188,-0.6201,9.9966,-0.38,-0.785,9.7678,0.0079,-0.0036,-0.0223
85263,47.144985,-1.701035,48.57,24.42,5.36,212.9,14 / 21,8527497,2019-08-18 17:35:50:034,-0.7529,-0.6985,10.0062,-0.3793,-0.7821,9.7681,0.0035,-0.004,-0.0242
85264,47.144985,-1.701035,48.57,24.42,5.36,212.9,14 / 21,8527597,2019-08-18 17:35:50:134,-0.7134,-0.6147,10.0792,-0.3857,-0.7791,9.768,-0.0005,0.0036,-0.022
85265,47.144985,-1.701035,48.57,24.42,5.36,212.9,14 / 21,8527697,2019-08-18 17:35:50:234,-0.5285,-0.8158,10.4467,-0.3897,-0.7788,9.7679,0.0073,-0.0113,-0.0221
85266,47.144985,-1.701035,48.57,24.42,5.36,212.9,14 / 21,8527797,2019-08-18 17:35:50:334,-0.705,-0.741,9.9703,-0.3783,-0.7709,9.769,-0.0008,-0.0126,-0.0228
85267,47.144985,-1.701035,48.57,24.42,5.36,212.9,14 / 21,8527897,2019-08-18 17:35:50:434,-0.7014,-0.7171,9.8003,-0.3732,-0.7725,9.7691,0.0008,0.0014,-0.0231
85268,47.144985,-1.701035,48.57,24.42,5.36,212.9,14 / 21,8527997,2019-08-18 17:35:50:534,-0.799,-0.8649,9.8416,-0.3864,-0.7726,9.7685,0.0011,0.0029,-0.0217
85269,47.144985,-1.701035,48.57,24.42,5.36,212.9,15 / 22,8528096,2019-08-18 17:35:50:633,-0.6817,-1.0163,9.9045,-0.3897,-0.7752,9.7682,0.0029,0.0098,-0.0232
85270,47.144985,-1.701035,48.57,24.42,5.36,212.9,15 / 22,8528197,2019-08-18 17:35:50:734,-0.735,-0.9176,9.6668,-0.4019,-0.7743,9.7678,0.0017,-0.0051,-0.0249
85271,47.144985,-1.701035,48.57,24.42,5.36,212.9,15 / 22,8528297,2019-08-18 17:35:50:834,-0.4357,-0.8045,10.1672,-0.3985,-0.7716,9.7681,0.0027,-0.0077,-0.0235
85272,47.144985,-1.701035,48.57,24.42,5.36,212.9,15 / 22,8528397,2019-08-18 17:35:50:934,-0.5518,-0.7673,9.8709,-0.3967,-0.7704,9.7683,0.0022,-0.0019,-0.0229
85273,47.144985,-1.701035,48.57,24.42,5.36,212.9,15 / 22,8528497,2019-08-18 17:35:51:034,-0.4973,-0.7829,10.3145,-0.3964,-0.7686,9.7684,0.0023,-0.0041,-0.0231
85274,47.144985,-1.701035,48.57,24.42,5.36,212.9,15 / 22,8528597,2019-08-18 17:35:51:134,-0.7194,-0.8308,9.4813,-0.396,-0.7666,9.7686,0.0017,0.003,-0.0221
85275,47.144985,-1.701035,48.57,24.42,5.36,212.9,15 / 22,8528697,2019-08-18 17:35:51:234,-0.6189,-0.8404,10.1523,-0.4027,-0.7644,9.7685,0.0027,0.0095,-0.0232
85276,47.144985,-1.701035,48.57,24.42,5.36,212.9,15 / 22,8528797,2019-08-18 17:35:51:334,-0.4788,-0.6913,9.8291,-0.4065,-0.7536,9.7692,0.0146,-0.0003,-0.0236
85277,47.144985,-1.701035,48.57,24.42,5.36,212.9,15 / 22,8528897,2019-08-18 17:35:51:434,-0.471,-0.817,9.8781,-0.4054,-0.7476,9.7697,0.0064,-0.0059,-0.0252
85278,47.144985,-1.701035,48.57,24.42,5.36,212.9,15 / 22,8528997,2019-08-18 17:35:51:534,-0.4183,-0.7614,9.868,-0.3966,-0.7376,9.7708,0.0088,0.0041,-0.0229
85279,47.144985,-1.701035,48.57,24.42,5.36,212.9,14 / 21,8529097,2019-08-18 17:35:51:634,-0.2442,-0.4609,9.8266,-0.3991,-0.7372,9.7708,-0.0036,0.006,-0.0245
85280,47.144985,-1.701035,48.57,24.42,5.36,212.9,14 / 21,8529197,2019-08-18 17:35:51:734,-0.2388,-0.5782,9.419,-0.4061,-0.7415,9.7701,-0.0044,0.011,-0.0272
85281,47.144985,-1.701035,48.57,24.42,5.36,212.9,14 / 21,8529297,2019-08-18 17:35:51:834,-0.3609,-0.647,10.1247,-0.4085,-0.7409,9.7701,0.0072,0.0018,-0.0279
85282,47.144985,-1.701035,48.57,24.42,5.36,212.9,14 / 21,8529397,2019-08-18 17:35:51:934,-0.237,-0.823,9.932,-0.4079,-0.7358,9.7705,0.0085,-0.0152,-0.0316
85283,47.144985,-1.701035,48.57,24.42,5.36,212.9,14 / 21,8529497,2019-08-18 17:35:52:034,-0.2555,-0.7949,9.5052,-0.3957,-0.732,9.7713,0.0037,-0.0187,-0.0343
85284,47.144985,-1.701035,48.57,24.42,5.36,212.9,14 / 21,8529597,2019-08-18 17:35:52:134,-0.1149,-0.9194,9.4556,-0.3789,-0.7361,9.7716,0.0059,0.0208,-0.0368
85285,47.144985,-1.701035,48.57,24.42,5.36,212.9,14 / 21,8529697,2019-08-18 17:35:52:234,-0.143,-0.9236,9.8566,-0.3862,-0.7361,9.7714,0.0067,0.0065,-0.0376
85286,47.144985,-1.701035,48.57,24.42,5.36,212.9,14 / 21,8529797,2019-08-18 17:35:52:334,-0.1933,-0.8769,9.9559,-0.3813,-0.7317,9.7719,0.0088,0.0,-0.036
85287,47.144985,-1.701035,48.57,24.42,5.36,212.9,14 / 21,8529897,2019-08-18 17:35:52:434,-0.2059,-0.7973,9.7602,-0.3714,-0.7287,9.7725,0.0043,-0.0035,-0.0367
85288,47.144985,-1.701035,48.57,24.42,5.36,212.9,14 / 21,8529997,2019-08-18 17:35:52:534,-0.2023,-0.8404,10.3582,-0.3646,-0.7296,9.7727,-0.0194,-0.0167,-0.0403
85289,47.144985,-1.701035,48.57,24.42,5.36,212.9,15 / 21,8530097,2019-08-18 17:35:52:634,-0.3064,-0.8882,9.9942,-0.3418,-0.7581,9.7713,-0.0119,0.0046,-0.0396
85290,47.144985,-1.701035,48.57,24.42,5.36,212.9,15 / 21,8530197,2019-08-18 17:35:52:734,-0.459,-1.0971,9.8195,-0.3475,-0.7708,9.7701,-0.0118,0.0172,-0.0409
85291,47.144985,-1.701035,48.57,24.42,5.36,212.9,15 / 21,8530297,2019-08-18 17:35:52:834,-0.4566,-1.1031,9.8602,-0.3765,-0.7932,9.7673,0.0006,0.0241,-0.0389
85292,47.144985,-1.701035,48.57,24.42,5.36,212.9,15 / 21,8530397,2019-08-18 17:35:52:934,-0.4088,-1.087,9.6381,-0.3886,-0.7966,9.7665,0.015,-0.0079,-0.0353
85293,47.144985,-1.701035,48.57,24.42,5.36,212.9,15 / 21,8530498,2019-08-18 17:35:53:035,-0.4369,-1.0355,10.0122,-0.3805,-0.7905,9.7673,0.0084,-0.007,-0.0337
85294,47.144985,-1.701035,48.57,24.42,5.36,212.9,15 / 21,8530597,2019-08-18 17:35:53:134,-0.7517,-1.0941,10.2169,-0.3853,-0.7893,9.7672,0.0122,0.0126,-0.0328
85295,47.144985,-1.701035,48.57,24.42,5.36,212.9,15 / 21,8530698,2019-08-18 17:35:53:235,-0.5446,-1.2151,9.6956,-0.3929,-0.7868,9.7671,-0.0001,-0.0037,-0.0338
85296,47.144985,-1.701035,48.57,24.42,5.36,212.9,15 / 21,8530797,2019-08-18 17:35:53:334,-0.5835,-1.0092,9.1539,-0.3921,-0.7882,9.7671,-0.0133,0.0122,-0.0335
85297,47.144985,-1.701035,48.57,24.42,5.36,212.9,15 / 21,8530897,2019-08-18 17:35:53:434,-0.7415,-0.8978,9.6184,-0.4098,-0.8107,9.7645,-0.0069,0.0106,-0.0344
85298,47.144985,-1.701035,48.57,24.42,5.36,212.9,15 / 21,8530997,2019-08-18 17:35:53:534,-0.6284,-1.0235,9.4328,-0.4122,-0.8184,9.7637,0.0022,-0.0007,-0.0337
85299,47.144985,-1.701035,48.57,24.42,5.36,212.9,15 / 21,8531097,2019-08-18 17:35:53:634,-0.5871,-0.838,10.0457,-0.4121,-0.8221,9.7634,0.0008,-0.0061,-0.0335
85300,47.144985,-1.701035,48.57,24.42,5.36,212.9,15 / 21,8531197,2019-08-18 17:35:53:734,-0.1017,-1.0493,10.0828,-0.4125,-0.8192,9.7637,0.01,0.0029,-0.0323
85301,47.144985,-1.701035,48.57,24.42,5.36,212.9,15 / 21,8531297,2019-08-18 17:35:53:834,-0.4931,-1.09,9.7812,-0.4118,-0.8211,9.7635,0.0021,-0.0059,-0.0321
85302,47.144985,-1.701035,48.57,24.42,5.36,212.9,15 / 21,8531397,2019-08-18 17:35:53:934,-0.6464,-0.8793,9.6381,-0.4088,-0.8222,9.7636,-0.0008,0.0061,-0.0307
85303,47.144985,-1.701035,48.57,24.42,5.36,212.9,15 / 21,8531497,2019-08-18 17:35:54:034,-0.4351,-0.8302,9.9919,-0.4212,-0.8269,9.7626,0.005,0.0146,-0.0322
85304,47.144985,-1.701035,48.57,24.42,5.36,212.9,15 / 21,8531597,2019-08-18 17:35:54:134,-0.4536,-1.0535,10.1972,-0.4281,-0.8264,9.7624,0.011,0.0134,-0.0345
85305,47.144985,-1.701035,48.57,24.42,5.36,212.9,15 / 21,8531697,2019-08-18 17:35:54:234,-0.5063,-0.6267,10.087,-0.4242,-0.8156,9.7635,0.0119,-0.0149,-0.0336
85306,47.144985,-1.701035,48.57,24.42,5.36,212.9,15 / 21,8531797,2019-08-18 17:35:54:334,-0.4926,-0.8757,10.2349,-0.4134,-0.8147,9.764,-0.0044,-0.0153,-0.0331
85307,47.144985,-1.701035,48.57,24.42,5.36,212.9,15 / 21,8531897,2019-08-18 17:35:54:434,0.0569,-0.6626,9.9482,-0.4022,-0.8162,9.7643,0.0037,0.0043,-0.033
85308,47.144985,-1.701035,48.57,24.42,5.36,212.9,15 / 21,8531997,2019-08-18 17:35:54:534,-0.3944,-0.6273,9.6734,-0.4036,-0.8185,9.7641,-0.0057,0.0091,-0.0331
85309,47.144985,-1.701035,48.57,24.42,5.36,212.9,14 / 21,8532097,2019-08-18 17:35:54:634,-0.2346,-0.8841,9.8249,-0.4093,-0.8273,9.7631,0.0002,0.0082,-0.0377
85310,47.144985,-1.701035,48.57,24.42,5.36,212.9,14 / 21,8532197,2019-08-18 17:35:54:734,-0.4064,-0.996,9.7375,-0.4102,-0.8296,9.7629,0.0017,0.0005,-0.0366
85311,47.144985,-1.701035,48.57,24.42,5.36,212.9,14 / 21,8532297,2019-08-18 17:35:54:834,-0.2382,-1.0552,9.8506,-0.4044,-0.8295,9.7631,0.0065,-0.0012,-0.0366
85312,47.144985,-1.701035,48.57,24.42,5.36,212.9,14 / 21,8532397,2019-08-18 17:35:54:934,-0.2998,-1.1785,10.078,-0.4058,-0.8271,9.7633,0.0088,0.0087,-0.0367
85313,47.144985,-1.701035,48.57,24.42,5.36,212.9,14 / 21,8532497,2019-08-18 17:35:55:034,-0.4566,-0.9421,9.841,-0.4094,-0.8319,9.7627,0.0023,0.0019,-0.0374
85314,47.144985,-1.701035,48.57,24.42,5.36,212.9,14 / 21,8532597,2019-08-18 17:35:55:134,-0.4716,-1.2025,9.6962,-0.4088,-0.8358,9.7624,0.0007,-0.0002,-0.0364
85315,47.144985,-1.701035,48.57,24.42,5.36,212.9,14 / 21,8532697,2019-08-18 17:35:55:234,-0.3956,-0.9307,10.09,-0.4147,-0.8451,9.7614,0.0006,0.0037,-0.038
85316,47.144985,-1.701035,48.57,24.42,5.36,212.9,14 / 21,8532798,2019-08-18 17:35:55:335,-0.4961,-1.2013,9.8961,-0.4124,-0.8464,9.7613,0.0047,0.0038,-0.0354
85317,47.144985,-1.701035,48.57,24.42,5.36,212.9,14 / 21,8532897,2019-08-18 17:35:55:434,-0.3651,-1.0989,9.5699,-0.4224,-0.8454,9.761,0.0111,0.0109,-0.0342
85318,47.144985,-1.701035,48.57,24.42,5.36,212.9,14 / 21,8532997,2019-08-18 17:35:55:534,-0.6727,-1.0487,9.4885,-0.4241,-0.8449,9.761,0.0033,0.0043,-0.0327
85319,47.144985,-1.701035,48.57,24.42,5.36,212.9,13 / 19,8533097,2019-08-18 17:35:55:634,-0.6356,-0.8122,9.753,-0.4299,-0.8451,9.7607,0.0049,-0.0002,-0.0332
85320,47.14361,-1.702865,49.99,22.2,5.36,230.4,13 / 19,8533197,2019-08-18 17:35:55:734,-0.6524,-1.0618,9.6453,-0.4315,-0.8455,9.7606,-0.0019,-0.0021,-0.0341
85321,47.14361,-1.702865,49.99,22.2,5.36,230.4,13 / 19,8533296,2019-08-18 17:35:55:833,-0.5285,-0.92,9.5471,-0.4261,-0.8475,9.7607,-0.0028,-0.004,-0.0339
85322,47.14361,-1.702865,49.99,22.2,5.36,230.4,13 / 19,8533398,2019-08-18 17:35:55:935,-0.401,-0.7979,10.09,-0.4244,-0.85,9.7605,0.0016,-0.0051,-0.0324
85323,47.14361,-1.702865,49.99,22.2,5.36,230.4,13 / 19,8533497,2019-08-18 17:35:56:034,-0.6147,-0.8613,10.0403,-0.4219,-0.8492,9.7607,0.0017,-0.0077,-0.032
85324,47.14361,-1.702865,49.99,22.2,5.36,230.4,13 / 19,8533598,2019-08-18 17:35:56:135,-0.3208,-0.8362,10.0996,-0.4155,-0.8471,9.7612,0.0018,0.0037,-0.0297
85325,47.14361,-1.702865,49.99,22.2,5.36,230.4,13 / 19,8533697,2019-08-18 17:35:56:234,-0.6147,-0.8404,9.8249,-0.4189,-0.8488,9.7609,-0.0008,0.0005,-0.0296
85326,47.14361,-1.702865,49.99,22.2,5.36,230.4,13 / 19,8533797,2019-08-18 17:35:56:334,-0.4333,-0.6303,10.0834,-0.4206,-0.8438,9.7612,0.0064,-0.0025,-0.0293
85327,47.14361,-1.702865,49.99,22.2,5.36,230.4,13 / 19,8533897,2019-08-18 17:35:56:434,-0.3435,-0.9254,9.6351,-0.4169,-0.8397,9.7617,0.0008,-0.0018,-0.0284
85328,47.14361,-1.702865,49.99,22.2,5.36,230.4,13 / 19,8533997,2019-08-18 17:35:56:534,-0.3567,-0.5788,9.9452,-0.4119,-0.839,9.762,-0.0041,0.0,-0.0285
85329,47.14361,-1.702865,49.99,22.2,5.36,230.4,15 / 21,8534097,2019-08-18 17:35:56:634,-0.5087,-0.6626,9.677,-0.4064,-0.8382,9.7623,0.0009,-0.0037,-0.0276
85330,47.14361,-1.702865,49.99,22.2,5.36,230.4,15 / 21,8534197,2019-08-18 17:35:56:734,-0.2765,-0.6057,10.0014,-0.3982,-0.8297,9.7634,0.0029,-0.0045,-0.024
85331,47.14361,-1.702865,49.99,22.2,5.36,230.4,15 / 21,8534297,2019-08-18 17:35:56:834,-0.5602,-0.7566,9.8745,-0.399,-0.8245,9.7638,0.0032,0.0102,-0.0199
85332,47.14361,-1.702865,49.99,22.2,5.36,230.4,15 / 21,8534397,2019-08-18 17:35:56:934,-0.474,-0.6039,10.3073,-0.4046,-0.8127,9.7645,0.0024,0.0003,-0.0177
85333,47.14361,-1.702865,49.99,22.2,5.36,230.4,15 / 21,8534497,2019-08-18 17:35:57:034,-0.3369,-0.5225,9.7369,-0.4028,-0.8057,9.7652,0.0069,0.0008,-0.0188
85334,47.14361,-1.702865,49.99,22.2,5.36,230.4,15 / 21,8534597,2019-08-18 17:35:57:134,-0.319,-0.3005,9.9565,-0.4038,-0.7906,9.7664,0.0008,0.0021,-0.0176
85335,47.14361,-1.702865,49.99,22.2,5.36,230.4,15 / 21,8534697,2019-08-18 17:35:57:234,-0.304,-0.6249,10.0858,-0.404,-0.7882,9.7666,0.0033,0.0105,-0.0182
85336,47.14361,-1.702865,49.99,22.2,5.36,230.4,15 / 21,8534797,2019-08-18 17:35:57:334,-0.4734,-0.1042,9.446,-0.4098,-0.7728,9.7676,0.0046,0.0023,-0.0187
85337,47.14361,-1.702865,49.99,22.2,5.36,230.4,15 / 21,8534899,2019-08-18 17:35:57:436,-0.4153,-0.5614,9.941,-0.4113,-0.7672,9.7679,0.0002,0.0027,-0.0178
85338,47.14361,-1.702865,49.99,22.2,5.36,230.4,15 / 21,8534997,2019-08-18 17:35:57:534,-0.2819,-0.6201,10.1331,-0.4123,-0.7532,9.769,0.0022,-0.0023,-0.0183
85339,47.14361,-1.702865,49.99,22.2,5.36,230.4,14 / 21,8535097,2019-08-18 17:35:57:634,-0.4159,-0.5034,9.6836,-0.4072,-0.7492,9.7695,0.0017,-0.0093,-0.0186
85340,47.14361,-1.702865,49.99,22.2,5.36,230.4,14 / 21,8535197,2019-08-18 17:35:57:734,-0.3866,-0.401,10.1181,-0.3947,-0.7352,9.7711,0.0008,-0.002,-0.0203
85341,47.14361,-1.702865,49.99,22.2,5.36,230.4,14 / 21,8535298,2019-08-18 17:35:57:835,-0.3399,-0.4399,9.5998,-0.3945,-0.729,9.7716,-0.0002,0.0017,-0.0188
85342,47.14361,-1.702865,49.99,22.2,5.36,230.4,14 / 21,8535397,2019-08-18 17:35:57:934,-0.0526,-0.5758,9.9248,-0.3917,-0.7216,9.7722,0.0049,0.0056,-0.0192
85343,47.14361,-1.702865,49.99,22.2,5.36,230.4,14 / 21,8535496,2019-08-18 17:35:58:033,-0.4973,-0.3298,10.0625,-0.3905,-0.7144,9.7728,-0.0025,-0.0064,-0.0206
85344,47.14361,-1.702865,49.99,22.2,5.36,230.4,14 / 21,8535597,2019-08-18 17:35:58:134,-0.3214,-0.6452,10.1152,-0.3755,-0.7029,9.7742,0.0016,-0.0097,-0.021
85345,47.14361,-1.702865,49.99,22.2,5.36,230.4,14 / 21,8535697,2019-08-18 17:35:58:234,-0.1723,-0.5471,9.8075,-0.3654,-0.6982,9.7749,0.0008,-0.0037,-0.0213
85346,47.14361,-1.702865,49.99,22.2,5.36,230.4,14 / 21,8535797,2019-08-18 17:35:58:334,-0.2795,-0.2652,10.1481,-0.3554,-0.6923,9.7757,-0.002,-0.0011,-0.0225
85347,47.14361,-1.702865,49.99,22.2,5.36,230.4,14 / 21,8535897,2019-08-18 17:35:58:434,-0.0969,-0.3316,9.9787,-0.3578,-0.6893,9.7758,-0.0009,0.0091,-0.0214
85348,47.14361,-1.702865,49.99,22.2,5.36,230.4,14 / 21,8535997,2019-08-18 17:35:58:534,-0.1239,-0.4627,9.8889,-0.3513,-0.6793,9.7768,0.004,-0.0037,-0.0226
85349,47.14361,-1.702865,49.99,22.2,5.36,230.4,14 / 21,8536096,2019-08-18 17:35:58:633,-0.1957,-0.5453,9.8045,-0.3464,-0.6722,9.7775,0.0124,-0.0017,-0.0235
85350,47.14361,-1.702865,49.99,22.2,5.36,230.4,14 / 21,8536197,2019-08-18 17:35:58:734,-0.2591,-0.3639,10.1391,-0.3439,-0.6605,9.7783,-0.0012,0.0001,-0.0235
85351,47.14361,-1.702865,49.99,22.2,5.36,230.4,14 / 21,8536298,2019-08-18 17:35:58:835,-0.2262,-0.6572,9.6166,-0.3416,-0.6598,9.7785,0.0002,-0.004,-0.0262
85352,47.14361,-1.702865,49.99,22.2,5.36,230.4,14 / 21,8536397,2019-08-18 17:35:58:934,-0.2358,-0.5866,9.8727,-0.3412,-0.6579,9.7786,0.001,0.0093,-0.0267
85353,47.14361,-1.702865,49.99,22.2,5.36,230.4,14 / 21,8536497,2019-08-18 17:35:59:034,-0.2208,-0.8362,9.6196,-0.3447,-0.6557,9.7786,-0.0001,0.0083,-0.0271
85354,47.14361,-1.702865,49.99,22.2,5.36,230.4,14 / 21,8536597,2019-08-18 17:35:59:134,-0.3142,-0.5237,9.8458,-0.3483,-0.6558,9.7785,0.0046,-0.0027,-0.0288
85355,47.14361,-1.702865,49.99,22.2,5.36,230.4,14 / 21,8536697,2019-08-18 17:35:59:234,-0.4309,-0.7057,10.2109,-0.3409,-0.6492,9.7792,0.0071,-0.012,-0.0276
85356,47.14361,-1.702865,49.99,22.2,5.36,230.4,14 / 21,8536798,2019-08-18 17:35:59:335,-0.4028,-0.5453,10.0852,-0.3309,-0.6455,9.7798,0.0068,-0.0155,-0.0276
85357,47.14361,-1.702865,49.99,22.2,5.36,230.4,14 / 21,8536897,2019-08-18 17:35:59:434,-0.3782,-0.5465,9.662,-0.3161,-0.6412,9.7806,0.0003,0.0032,-0.0276
85358,47.14361,-1.702865,49.99,22.2,5.36,230.4,14 / 21,8536997,2019-08-18 17:35:59:534,-0.3561,-0.7362,9.6854,-0.3198,-0.6434,9.7803,-0.0086,-0.0021,-0.0271
85359,47.14361,-1.702865,49.99,22.2,5.36,230.4,15 / 22,8537097,2019-08-18 17:35:59:634,-0.307,-0.6542,9.6405,-0.3203,-0.652,9.7797,-0.0011,0.0057,-0.0253
85360,47.14361,-1.702865,49.99,22.2,5.36,230.4,15 / 22,8537197,2019-08-18 17:35:59:734,-0.5207,-0.4387,9.3813,-0.3221,-0.6558,9.7794,0.0029,0.0073,-0.0257
85361,47.14361,-1.702865,49.99,22.2,5.36,230.4,15 / 22,8537297,2019-08-18 17:35:59:834,-0.4117,-0.6135,9.8452,-0.3304,-0.656,9.7791,-0.0038,-0.0049,-0.0258
85362,47.14361,-1.702865,49.99,22.2,5.36,230.4,15 / 22,8537397,2019-08-18 17:35:59:934,-0.4046,-0.6584,10.0356,-0.329,-0.6581,9.779,0.0066,-0.0009,-0.0261
85363,47.14361,-1.702865,49.99,22.2,5.36,230.4,15 / 22,8537497,2019-08-18 17:36:00:034,-0.2669,-0.829,10.1169,-0.3318,-0.6526,9.7793,0.0065,0.0072,-0.0254
85364,47.14361,-1.702865,49.99,22.2,5.36,230.4,15 / 22,8537597,2019-08-18 17:36:00:134,-0.3902,-0.8368,10.0481,-0.3318,-0.6495,9.7795,0.0019,-0.0134,-0.0251
85365,47.14361,-1.702865,49.99,22.2,5.36,230.4,15 / 22,8537697,2019-08-18 17:36:00:234,-0.404,-0.7206,9.4316,-0.3239,-0.6464,9.78,0.0053,-0.0031,-0.0245
85366,47.14361,-1.702865,49.99,22.2,5.36,230.4,15 / 22,8537797,2019-08-18 17:36:00:334,-0.5015,-0.6063,9.6345,-0.3314,-0.6434,9.7799,0.0035,0.0084,-0.0249
85367,47.14361,-1.702865,49.99,22.2,5.36,230.4,15 / 22,8537897,2019-08-18 17:36:00:434,-0.4949,-0.7069,9.9577,-0.3348,-0.6438,9.7798,0.0048,-0.0014,-0.0265
85368,47.14361,-1.702865,49.99,22.2,5.36,230.4,15 / 22,8537997,2019-08-18 17:36:00:534,-0.7009,-0.7536,9.8721,-0.3352,-0.6427,9.7798,0.0028,-0.0031,-0.0267
85369,47.14361,-1.702865,49.99,22.2,5.36,230.4,15 / 22,8538097,2019-08-18 17:36:00:634,-0.6853,-0.9894,9.8422,-0.346,-0.6498,9.779,-0.0005,0.0089,-0.0262
85370,47.14361,-1.702865,49.99,22.2,5.36,230.4,15 / 22,8538197,2019-08-18 17:36:00:734,-0.623,-0.6991,9.4621,-0.3545,-0.653,9.7785,0.005,0.0135,-0.0278
85371,47.14361,-1.702865,49.99,22.2,5.36,230.4,15 / 22,8538297,2019-08-18 17:36:00:834,-0.3142,-0.7781,9.6052,-0.3877,-0.6548,9.7771,0.0111,0.0232,-0.0268
85372,47.14361,-1.702865,49.99,22.2,5.36,230.4,15 / 22,8538397,2019-08-18 17:36:00:934,-0.8098,-0.8673,9.9434,-0.3967,-0.6532,9.7768,0.0137,-0.0195,-0.0286
85373,47.14361,-1.702865,49.99,22.2,5.36,230.4,15 / 22,8538497,2019-08-18 17:36:01:034,-0.7475,-0.9876,9.8596,-0.3826,-0.6466,9.7778,0.0075,-0.015,-0.028
85374,47.14361,-1.702865,49.99,22.2,5.36,230.4,15 / 22,8538597,2019-08-18 17:36:01:134,-0.6021,-0.747,9.7704,-0.382,-0.6472,9.7778,-0.001,-0.0034,-0.0277
85375,47.14361,-1.702865,49.99,22.2,5.36,230.4,15 / 22,8538697,2019-08-18 17:36:01:234,-0.6877,-0.6686,10.011,-0.3881,-0.6577,9.7769,-0.0009,0.0087,-0.0288
85376,47.14361,-1.702865,49.99,22.2,5.36,230.4,15 / 22,8538797,2019-08-18 17:36:01:334,-0.5207,-0.5794,9.9003,-0.3938,-0.6624,9.7763,-0.0022,0.0027,-0.0284
85377,47.14361,-1.702865,49.99,22.2,5.36,230.4,15 / 22,8538897,2019-08-18 17:36:01:434,-0.4237,-0.6716,9.8177,-0.3964,-0.6705,9.7757,-0.0013,0.0003,-0.0278
85378,47.14361,-1.702865,49.99,22.2,5.36,230.4,15 / 22,8538997,2019-08-18 17:36:01:534,-0.4704,-0.6632,9.8865,-0.407,-0.6775,9.7747,0.0017,0.0016,-0.0258
85379,47.14361,-1.702865,49.99,22.2,5.36,230.4,Dec-20,8539097,2019-08-18 17:36:01:634,-0.5327,-0.7218,9.9877,-0.4081,-0.6775,9.7747,0.0026,-0.0013,-0.0258
85380,47.14361,-1.702865,49.99,22.2,5.36,230.4,Dec-20,8539197,2019-08-18 17:36:01:734,-0.4501,-0.6859,9.9344,-0.4025,-0.6725,9.7753,0.0055,-0.0001,-0.0253
85381,47.14361,-1.702865,49.99,22.2,5.36,230.4,Dec-20,8539297,2019-08-18 17:36:01:834,-0.4267,-0.6375,9.9577,-0.4071,-0.6652,9.7756,0.0043,0.0079,-0.0253
85382,47.14361,-1.702865,49.99,22.2,5.36,230.4,Dec-20,8539397,2019-08-18 17:36:01:934,-0.5015,-0.4938,10.0858,-0.411,-0.6589,9.7759,0.0094,0.0105,-0.0254
85383,47.14361,-1.702865,49.99,22.2,5.36,230.4,Dec-20,8539497,2019-08-18 17:36:02:034,-0.401,-0.6165,10.0481,-0.3915,-0.641,9.7778,0.0061,-0.0135,-0.0257
85384,47.14361,-1.702865,49.99,22.2,5.36,230.4,Dec-20,8539597,2019-08-18 17:36:02:134,-0.3411,-0.6075,9.9284,-0.3809,-0.6372,9.7785,0.0097,-0.0072,-0.0251
85385,47.14361,-1.702865,49.99,22.2,5.36,230.4,Dec-20,8539697,2019-08-18 17:36:02:234,-0.0969,-0.6835,9.7728,-0.381,-0.6258,9.7792,-0.0014,0.0057,-0.0263
85386,47.14361,-1.702865,49.99,22.2,5.36,230.4,Dec-20,8539797,2019-08-18 17:36:02:334,-0.1999,-0.7655,10.008,-0.3832,-0.6278,9.779,-0.002,-0.0041,-0.0303
85387,47.14361,-1.702865,49.99,22.2,5.36,230.4,Dec-20,8539897,2019-08-18 17:36:02:434,-0.6919,-0.8649,9.944,-0.3774,-0.633,9.7789,-0.0026,0.0063,-0.0353
85388,47.14361,-1.702865,49.99,22.2,5.36,230.4,Dec-20,8539997,2019-08-18 17:36:02:534,-0.6236,-0.9571,9.9924,-0.3884,-0.6434,9.7778,-0.0018,0.0136,-0.0377
85389,47.14361,-1.702865,49.99,22.2,5.36,230.4,14 / 21,8540097,2019-08-18 17:36:02:634,-0.4842,-1.1486,9.9254,-0.3964,-0.6525,9.7769,-0.0013,0.004,-0.0376
85390,47.14361,-1.702865,49.99,22.2,5.36,230.4,14 / 21,8540197,2019-08-18 17:36:02:734,-0.4824,-1.0606,9.7596,-0.3993,-0.6614,9.7762,0.0023,0.0063,-0.0363
85391,47.14361,-1.702865,49.99,22.2,5.36,230.4,14 / 21,8540298,2019-08-18 17:36:02:835,-0.5081,-0.8158,10.0379,-0.4046,-0.6696,9.7754,-0.0005,0.0,-0.0379
85392,47.14361,-1.702865,49.99,22.2,5.36,230.4,14 / 21,8540397,2019-08-18 17:36:02:934,-0.5775,-1.1636,9.8674,-0.4044,-0.6794,9.7747,-0.0026,-0.0029,-0.0373
85393,47.14361,-1.702865,49.99,22.2,5.36,230.4,14 / 21,8540498,2019-08-18 17:36:03:035,-0.7966,-1.227,9.6549,-0.4063,-0.685,9.7743,0.0042,0.0076,-0.0377
85394,47.14361,-1.702865,49.99,22.2,5.36,230.4,14 / 21,8540597,2019-08-18 17:36:03:134,-0.8654,-1.0804,10.2133,-0.4166,-0.6927,9.7733,0.0076,-0.0011,-0.0387
85395,47.14361,-1.702865,49.99,22.2,5.36,230.4,14 / 21,8540697,2019-08-18 17:36:03:234,-0.5584,-1.1384,10.3582,-0.4096,-0.695,9.7734,0.0058,-0.0126,-0.0383
85396,47.14361,-1.702865,49.99,22.2,5.36,230.4,14 / 21,8540797,2019-08-18 17:36:03:334,-0.4489,-0.9559,10.0487,-0.3991,-0.6998,9.7735,0.0063,-0.0071,-0.0371
85397,47.14361,-1.702865,49.99,22.2,5.36,230.4,14 / 21,8540897,2019-08-18 17:36:03:434,-0.4896,-0.9236,9.8512,-0.4049,-0.7049,9.7729,0.0015,0.0082,-0.0385
85398,47.14361,-1.702865,49.99,22.2,5.36,230.4,14 / 21,8540997,2019-08-18 17:36:03:534,-0.4602,-1.0989,10.1325,-0.4124,-0.7135,9.772,0.0045,0.0059,-0.0392
85399,47.14361,-1.702865,49.99,22.2,5.36,230.4,15 / 22,8541097,2019-08-18 17:36:03:634,-0.6326,-1.2288,9.7297,-0.4138,-0.7169,9.7717,0.0042,0.0051,-0.0377
85400,47.14361,-1.702865,49.99,22.2,5.36,230.4,15 / 22,8541197,2019-08-18 17:36:03:734,-0.5416,-1.0499,9.4579,-0.4251,-0.7294,9.7702,-0.0006,0.0137,-0.0346
85401,47.14361,-1.702865,49.99,22.2,5.36,230.4,15 / 22,8541297,2019-08-18 17:36:03:834,-0.8008,-1.066,9.7614,-0.4394,-0.7355,9.7692,0.0003,0.0114,-0.0311
85402,47.14361,-1.702865,49.99,22.2,5.36,230.4,15 / 22,8541397,2019-08-18 17:36:03:934,-0.7457,-0.972,10.2462,-0.4513,-0.7438,9.768,0.0018,-0.0033,-0.0292
85403,47.14361,-1.702865,49.99,22.2,5.36,230.4,15 / 22,8541497,2019-08-18 17:36:04:034,-0.7846,-0.7643,9.7919,-0.4592,-0.7396,9.7679,0.0026,-0.0039,-0.0249
85404,47.14361,-1.702865,49.99,22.2,5.36,230.4,15 / 22,8541597,2019-08-18 17:36:04:134,-0.8643,-0.747,9.9272,-0.4634,-0.7365,9.768,0.0027,-0.004,-0.0238
85405,47.14361,-1.702865,49.99,22.2,5.36,230.4,15 / 22,8541697,2019-08-18 17:36:04:234,-0.72,-0.9667,10.2971,-0.4661,-0.7357,9.7679,-0.0011,0.0014,-0.026
85406,47.14361,-1.702865,49.99,22.2,5.36,230.4,15 / 22,8541797,2019-08-18 17:36:04:334,-0.8212,-0.9242,9.3538,-0.4744,-0.7294,9.768,0.0062,-0.0022,-0.0247
85407,47.14361,-1.702865,49.99,22.2,5.36,230.4,15 / 22,8541897,2019-08-18 17:36:04:434,-0.5835,-0.7027,9.4633,-0.4735,-0.7296,9.768,0.0066,0.0042,-0.0259
85408,47.14361,-1.702865,49.99,22.2,5.36,230.4,15 / 22,8541997,2019-08-18 17:36:04:534,-0.7888,-0.8038,10.2576,-0.4764,-0.722,9.7684,0.0087,-0.0041,-0.0249
85409,47.14361,-1.702865,49.99,22.2,5.36,230.4,Dec-18,8542097,2019-08-18 17:36:04:634,-0.6799,-0.7901,9.8482,-0.4715,-0.7161,9.7691,0.007,-0.0104,-0.023
85410,47.14261,-1.705044,53.22,21.45,5.36,244.0,Dec-18,8542197,2019-08-18 17:36:04:734,-0.8583,-0.8224,9.8853,-0.4644,-0.7101,9.7699,0.0049,-0.0013,-0.0233
85411,47.14261,-1.705044,53.22,21.45,5.36,244.0,Dec-18,8542297,2019-08-18 17:36:04:834,-0.5488,-0.6967,10.0014,-0.4638,-0.7089,9.77,0.0067,-0.0007,-0.0238
85412,47.14261,-1.705044,53.22,21.45,5.36,244.0,Dec-18,8542397,2019-08-18 17:36:04:934,-0.7044,-0.513,10.2845,-0.4637,-0.699,9.7707,0.0059,-0.005,-0.0239
85413,47.14261,-1.705044,53.22,21.45,5.36,244.0,Dec-18,8542498,2019-08-18 17:36:05:035,-0.6296,-0.6494,9.6477,-0.4626,-0.6983,9.7708,-0.0009,-0.0099,-0.0223
85414,47.14261,-1.705044,53.22,21.45,5.36,244.0,Dec-18,8542597,2019-08-18 17:36:05:134,-0.7068,-0.5902,9.8542,-0.4761,-0.7014,9.7699,-0.0072,0.0085,-0.0198
85415,47.14261,-1.705044,53.22,21.45,5.36,244.0,Dec-18,8542698,2019-08-18 17:36:05:235,-0.7469,-0.7775,9.2993,-0.4808,-0.7074,9.7693,-0.0023,-0.0006,-0.0208
85416,47.14261,-1.705044,53.22,21.45,5.36,244.0,Dec-18,8542797,2019-08-18 17:36:05:334,-0.8271,-0.5968,9.5411,-0.4927,-0.7093,9.7686,-0.0021,0.0157,-0.0194
85417,47.14261,-1.705044,53.22,21.45,5.36,244.0,Dec-18,8542897,2019-08-18 17:36:05:434,-0.6117,-0.8721,9.3556,-0.5086,-0.7112,9.7676,-0.003,0.0117,-0.02
85418,47.14261,-1.705044,53.22,21.45,5.36,244.0,Dec-18,8542997,2019-08-18 17:36:05:534,-0.6781,-0.6309,10.0595,-0.5175,-0.7129,9.767,0.0038,0.0015,-0.0213
85419,47.14261,-1.705044,53.22,21.45,5.36,244.0,15 / 20,8543097,2019-08-18 17:36:05:634,-1.0875,-0.7877,9.9284,-0.5299,-0.7081,9.7667,0.0073,-0.0015,-0.0212
