,GPS LATITUDE (degrees),GPS LONGITUDE (degrees), GPS ALTITUDE (m),GPS SPEED (Kmh),GPS ACCURACY (m),GPS ORIENTATION (Â°), SATELLITES IN RANGE, TIME SINCE START (ms), DATE (YYYY-MO-DD HH-MI-SS_SSS),ACCELEROMETER X (m/s²) , ACCELEROMETER Y (m/s²), ACCELEROMETER Z (m/s²), GRAVITY X (m/s²), GRAVITY Y (m/s²), GRAVITY Z (m/s²), GYROSCOPE Yaw (rad/s), GYROSCOPE Pitch (rad/s), GYROSCOPE Roll (rad/s)
32976,47.16162,-1.513113,59.8,0.0,30.0,183.2,16 / 21,3297610,2019-08-09 21:09:06:348,-0.414,0.1174,9.75,-0.4288,0.1184,9.7966,0.0004,-0.0006,-0.0005
32977,47.16162,-1.513113,59.8,0.0,30.0,183.2,16 / 21,3297710,2019-08-09 21:09:06:448,-0.4332,0.1234,9.7477,-0.4286,0.1184,9.7966,-0.0004,-0.0003,-0.0004
32978,47.16162,-1.513113,59.8,0.0,30.0,183.2,16 / 21,3297810,2019-08-09 21:09:06:548,-0.42,0.1258,9.7536,-0.4295,0.1184,9.7965,-0.0003,0.0004,0.0003
32979,47.16162,-1.513113,59.8,0.0,30.0,183.2,16 / 21,3297910,2019-08-09 21:09:06:648,-0.4308,0.1258,9.7429,-0.4297,0.1185,9.7965,-0.0002,0.0003,-0.0001
32980,47.16162,-1.513113,59.8,0.0,30.0,183.2,16 / 21,3298011,2019-08-09 21:09:06:749,-0.4236,0.1318,9.7489,-0.4294,0.1191,9.7965,0.0003,0.0001,-0.0003
32981,47.16162,-1.513113,59.8,0.0,30.0,183.2,16 / 21,3298112,2019-08-09 21:09:06:850,-0.432,0.1258,9.7405,-0.4291,0.1195,9.7965,0.0001,-0.0003,-0.0004
32982,47.16162,-1.513113,59.8,0.0,30.0,183.2,16 / 21,3298210,2019-08-09 21:09:06:948,-0.426,0.1246,9.7536,-0.4288,0.1198,9.7965,0.0001,0.0003,0.0002
32983,47.16162,-1.513113,59.8,0.0,30.0,183.2,16 / 21,3298310,2019-08-09 21:09:07:048,-0.432,0.1258,9.7429,-0.4288,0.1199,9.7965,0.0002,0.0006,0.0006
32984,47.16162,-1.513113,59.8,0.0,30.0,183.2,16 / 21,3298411,2019-08-09 21:09:07:149,-0.4296,0.1198,9.7548,-0.4293,0.1221,9.7965,0.0001,0.0,0.0005
32985,47.16162,-1.513113,59.8,0.0,30.0,183.2,16 / 21,3298511,2019-08-09 21:09:07:249,-0.432,0.121,9.7524,-0.4304,0.1226,9.7964,-0.0005,0.0005,-0.0007
32986,47.16162,-1.513113,59.8,0.0,30.0,183.2,16 / 21,3298610,2019-08-09 21:09:07:348,-0.4296,0.1306,9.75,-0.4298,0.1219,9.7965,0.0004,0.0001,0.0002
32987,47.16162,-1.513113,59.8,0.0,30.0,183.2,16 / 21,3298710,2019-08-09 21:09:07:448,-0.4176,0.115,9.7489,-0.43,0.1229,9.7964,0.0,-0.0004,-0.0003
32988,47.16162,-1.513113,59.8,0.0,30.0,183.2,16 / 21,3298810,2019-08-09 21:09:07:548,-0.4045,0.1258,9.7465,-0.4292,0.1241,9.7965,-0.0002,0.0002,-0.0011
32989,47.16162,-1.513113,59.8,0.0,30.0,183.2,16 / 21,3298910,2019-08-09 21:09:07:648,-0.4284,0.1246,9.7596,-0.428,0.124,9.7965,0.0003,0.0,0.0003
32990,47.16162,-1.513113,59.8,0.0,30.0,183.2,16 / 21,3299010,2019-08-09 21:09:07:748,-0.4212,0.1174,9.7584,-0.4281,0.1232,9.7965,0.0006,0.0004,-0.0004
32991,47.16162,-1.513113,59.8,0.0,30.0,183.2,16 / 21,3299112,2019-08-09 21:09:07:850,-0.4284,0.1354,9.7405,-0.4273,0.123,9.7966,0.0002,-0.0006,0.0004
32992,47.16162,-1.513113,59.8,0.0,30.0,183.2,16 / 21,3299212,2019-08-09 21:09:07:950,-0.4236,0.1198,9.756,-0.4266,0.124,9.7966,-0.0005,-0.0002,0.0004
32993,47.16162,-1.513113,59.8,0.0,30.0,183.2,16 / 21,3299311,2019-08-09 21:09:08:049,-0.4272,0.1246,9.7429,-0.4261,0.1233,9.7966,-0.0007,-0.0002,0.0001
32994,47.16162,-1.513113,59.8,0.0,30.0,183.2,16 / 21,3299411,2019-08-09 21:09:08:149,-0.4248,0.1091,9.7453,-0.4262,0.1225,9.7966,-0.0002,-0.0001,0.0005
32995,47.16162,-1.513113,59.8,0.0,30.0,183.2,16 / 21,3299512,2019-08-09 21:09:08:250,-0.4284,0.1222,9.7477,-0.4266,0.1215,9.7966,-0.0001,0.0,0.0002
32996,47.16162,-1.513113,59.8,0.0,30.0,183.2,14 / 18,3299611,2019-08-09 21:09:08:349,-0.4308,0.1246,9.7345,-0.4262,0.1215,9.7966,-0.0002,0.0003,-0.0002
32997,47.16162,-1.513113,59.8,0.0,30.0,183.2,14 / 18,3299710,2019-08-09 21:09:08:448,-0.4332,0.1186,9.7524,-0.4267,0.1213,9.7966,-0.0006,-0.0001,0.0005
32998,47.16162,-1.513113,59.8,0.0,30.0,183.2,14 / 18,3299810,2019-08-09 21:09:08:548,-0.4368,0.1246,9.7357,-0.4279,0.121,9.7966,-0.0002,0.0,0.0001
32999,47.16162,-1.513113,59.8,0.0,30.0,183.2,14 / 18,3299911,2019-08-09 21:09:08:649,-0.426,0.1138,9.7536,-0.4283,0.1216,9.7965,-0.0001,-0.0003,-0.0001
33000,47.16162,-1.513113,59.8,0.0,30.0,183.2,14 / 18,3300010,2019-08-09 21:09:08:748,-0.4272,0.1222,9.7405,-0.428,0.1218,9.7966,-0.0002,0.0,0.0002
33001,47.16162,-1.513113,59.8,0.0,30.0,183.2,14 / 18,3300110,2019-08-09 21:09:08:848,-0.4236,0.1282,9.75,-0.4275,0.1209,9.7966,-0.0002,0.0004,0.0005
33002,47.16162,-1.513113,59.8,0.0,30.0,183.2,14 / 18,3300210,2019-08-09 21:09:08:948,-0.4248,0.1258,9.7345,-0.4277,0.1216,9.7966,-0.0001,-0.0004,0.0002
33003,47.16162,-1.513113,59.8,0.0,30.0,183.2,14 / 18,3300310,2019-08-09 21:09:09:048,-0.4404,0.121,9.7405,-0.4282,0.1219,9.7965,0.0001,0.0001,-0.0003
33004,47.16162,-1.513113,59.8,0.0,30.0,183.2,14 / 18,3300410,2019-08-09 21:09:09:148,-0.4081,0.1234,9.7369,-0.4285,0.1205,9.7965,0.0002,-0.0001,0.0002
33005,47.16162,-1.513113,59.8,0.0,30.0,183.2,14 / 18,3300510,2019-08-09 21:09:09:248,-0.444,0.1162,9.7429,-0.4269,0.1206,9.7966,0.0002,0.0006,0.0002
33006,47.16162,-1.513113,59.8,0.0,30.0,183.2,17 / 21,3300614,2019-08-09 21:09:09:352,-0.4356,0.1102,9.7513,-0.4283,0.1205,9.7966,0.0002,-0.0005,-0.0001
33007,47.16162,-1.513113,59.8,0.0,30.0,183.2,17 / 21,3300710,2019-08-09 21:09:09:448,-0.4224,0.1115,9.7513,-0.4278,0.1201,9.7966,0.0002,0.0005,-0.0004
33008,47.16162,-1.513113,59.8,0.0,30.0,183.2,17 / 21,3300811,2019-08-09 21:09:09:549,-0.42,0.1174,9.7417,-0.4281,0.1204,9.7966,0.0002,-0.0005,-0.0004
33009,47.16162,-1.513113,59.8,0.0,30.0,183.2,17 / 21,3300911,2019-08-09 21:09:09:649,-0.4296,0.145,9.7596,-0.4267,0.1212,9.7966,0.0002,0.0006,0.0002
33010,47.16162,-1.513113,59.8,0.0,30.0,183.2,17 / 21,3301011,2019-08-09 21:09:09:749,-0.42,0.1174,9.7381,-0.4275,0.1228,9.7966,-0.0001,0.0003,-0.0001
33011,47.16162,-1.513113,59.8,0.0,30.0,183.2,17 / 21,3301111,2019-08-09 21:09:09:849,-0.414,0.1138,9.7477,-0.4269,0.1219,9.7966,-0.0003,-0.0007,0.0003
33012,47.16162,-1.513113,59.8,0.0,30.0,183.2,17 / 21,3301211,2019-08-09 21:09:09:949,-0.4212,0.1186,9.7441,-0.4267,0.1219,9.7966,0.0,-0.0005,-0.0002
33013,47.16162,-1.513113,59.8,0.0,30.0,183.2,17 / 21,3301310,2019-08-09 21:09:10:048,-0.4308,0.1318,9.7381,-0.4255,0.1226,9.7967,0.0001,-0.0004,0.0009
33014,47.16162,-1.513113,59.8,0.0,30.0,183.2,17 / 21,3301410,2019-08-09 21:09:10:148,-0.4487,0.1174,9.7381,-0.4257,0.1226,9.7966,0.0003,-0.0002,0.0001
33015,47.16162,-1.513113,59.8,0.0,30.0,183.2,17 / 21,3301510,2019-08-09 21:09:10:248,-0.426,0.1186,9.7513,-0.427,0.1226,9.7966,0.0001,-0.0003,0.0002
33016,47.16162,-1.513113,59.8,0.0,30.0,183.2,14 / 20,3301610,2019-08-09 21:09:10:348,-0.4308,0.1258,9.7548,-0.4284,0.1228,9.7965,0.0002,0.0003,0.0
33017,47.16162,-1.513113,59.8,0.0,30.0,183.2,14 / 20,3301710,2019-08-09 21:09:10:448,-0.4164,0.121,9.7465,-0.4288,0.1227,9.7965,0.0003,-0.0001,0.0002
33018,47.16162,-1.513113,59.8,0.0,30.0,183.2,14 / 20,3301810,2019-08-09 21:09:10:548,-0.4344,0.1079,9.7453,-0.4284,0.123,9.7965,-0.0004,-0.0004,0.0
33019,47.16162,-1.513113,59.8,0.0,30.0,183.2,14 / 20,3301910,2019-08-09 21:09:10:648,-0.414,0.1198,9.7357,-0.4279,0.1215,9.7966,0.0,0.0004,-0.0004
33020,47.16162,-1.513113,59.8,0.0,30.0,183.2,14 / 20,3302010,2019-08-09 21:09:10:748,-0.4152,0.1126,9.7309,-0.4286,0.1214,9.7965,0.0,0.0001,0.0008
33021,47.16162,-1.513113,59.8,0.0,30.0,183.2,14 / 20,3302110,2019-08-09 21:09:10:848,-0.4272,0.121,9.7524,-0.4285,0.12,9.7965,0.0005,0.0003,-0.0003
33022,47.16162,-1.513113,59.8,0.0,30.0,183.2,14 / 20,3302210,2019-08-09 21:09:10:948,-0.4284,0.1222,9.7477,-0.4287,0.1194,9.7965,-0.0002,-0.0005,0.0006
33023,47.16162,-1.513113,59.8,0.0,30.0,183.2,14 / 20,3302310,2019-08-09 21:09:11:048,-0.4236,0.1174,9.7453,-0.4283,0.1195,9.7966,0.0002,-0.0002,-0.0001
33024,47.16162,-1.513113,59.8,0.0,30.0,183.2,14 / 20,3302410,2019-08-09 21:09:11:148,-0.4236,0.1258,9.7381,-0.4278,0.1191,9.7966,-0.0009,0.0004,0.0008
33025,47.16162,-1.513113,59.8,0.0,30.0,183.2,14 / 20,3302510,2019-08-09 21:09:11:248,-0.4428,0.1115,9.7524,-0.4282,0.1195,9.7966,0.0,0.0001,0.0001
33026,47.16162,-1.513113,59.8,0.0,30.0,183.2,16 / 22,3302610,2019-08-09 21:09:11:348,-0.4332,0.1138,9.7393,-0.4282,0.1184,9.7966,-0.0002,0.0,-0.0009
33027,47.16162,-1.513113,59.8,0.0,30.0,183.2,16 / 22,3302710,2019-08-09 21:09:11:448,-0.4344,0.1294,9.7441,-0.4274,0.1181,9.7966,-0.0002,-0.0002,-0.0003
33028,47.16162,-1.513113,59.8,0.0,30.0,183.2,16 / 22,3302810,2019-08-09 21:09:11:548,-0.4284,0.1091,9.7489,-0.4282,0.1182,9.7966,0.0001,-0.0001,0.0003
33029,47.16162,-1.513113,59.8,0.0,30.0,183.2,16 / 22,3302911,2019-08-09 21:09:11:649,-0.426,0.1318,9.7405,-0.4285,0.1173,9.7966,0.0005,-0.0004,0.0004
33030,47.16162,-1.513113,59.8,0.0,30.0,183.2,16 / 22,3303011,2019-08-09 21:09:11:749,-0.4308,0.1186,9.7584,-0.4276,0.1181,9.7966,0.0002,0.0003,0.0005
33031,47.16162,-1.513113,59.8,0.0,30.0,183.2,16 / 22,3303110,2019-08-09 21:09:11:848,-0.4308,0.1318,9.7513,-0.4278,0.119,9.7966,0.0002,0.0003,0.0005
33032,47.16162,-1.513113,59.8,0.0,30.0,183.2,16 / 22,3303210,2019-08-09 21:09:11:948,-0.4272,0.1138,9.7453,-0.427,0.1198,9.7966,0.0006,-0.0002,0.0004
33033,47.16162,-1.513113,59.8,0.0,30.0,183.2,16 / 22,3303310,2019-08-09 21:09:12:048,-0.4104,0.1174,9.768,-0.4263,0.1202,9.7966,-0.0007,0.0,-0.0007
33034,47.16162,-1.513113,59.8,0.0,30.0,183.2,16 / 22,3303412,2019-08-09 21:09:12:150,-0.4487,0.1234,9.7333,-0.4259,0.1197,9.7967,-0.0002,0.0,-0.0002
33035,47.16162,-1.513113,59.8,0.0,30.0,183.2,16 / 22,3303511,2019-08-09 21:09:12:249,-0.4272,0.1067,9.7524,-0.4263,0.1195,9.7967,0.0003,0.0008,0.0002
33036,47.16162,-1.513113,59.8,0.0,30.0,183.2,16 / 22,3303610,2019-08-09 21:09:12:348,-0.4308,0.1067,9.7513,-0.4259,0.1201,9.7967,0.0,-0.0001,0.0
33037,47.16162,-1.513113,59.8,0.0,30.0,183.2,16 / 22,3303710,2019-08-09 21:09:12:448,-0.4128,0.1306,9.7381,-0.4255,0.1193,9.7967,0.0002,0.0002,-0.0009
33038,47.16162,-1.513113,59.8,0.0,30.0,183.2,16 / 22,3303810,2019-08-09 21:09:12:548,-0.4296,0.1186,9.75,-0.4272,0.1201,9.7966,0.0001,-0.0011,-0.0003
33039,47.16162,-1.513113,59.8,0.0,30.0,183.2,16 / 22,3303910,2019-08-09 21:09:12:648,-0.426,0.121,9.7381,-0.4263,0.1193,9.7967,-0.0001,-0.0001,0.0002
33040,47.16162,-1.513113,59.8,0.0,30.0,183.2,16 / 22,3304010,2019-08-09 21:09:12:748,-0.4188,0.1126,9.7357,-0.4259,0.1195,9.7967,0.0,-0.0001,0.0002
33041,47.16162,-1.513113,59.8,0.0,30.0,183.2,16 / 22,3304112,2019-08-09 21:09:12:850,-0.4332,0.1138,9.7584,-0.4262,0.12,9.7966,-0.0005,0.0002,-0.0001
33042,47.16162,-1.513113,59.8,0.0,30.0,183.2,16 / 22,3304211,2019-08-09 21:09:12:949,-0.4344,0.1102,9.7393,-0.4269,0.1215,9.7966,0.0007,-0.0001,0.0004
33043,47.16162,-1.513113,59.8,0.0,30.0,183.2,16 / 22,3304311,2019-08-09 21:09:13:049,-0.4296,0.1318,9.7596,-0.4281,0.1213,9.7965,-0.0003,0.0004,0.0003
33044,47.16162,-1.513113,59.8,0.0,30.0,183.2,16 / 22,3304410,2019-08-09 21:09:13:148,-0.432,0.1102,9.7417,-0.4267,0.121,9.7966,-0.0004,-0.0001,0.0001
33045,47.16162,-1.513113,59.8,0.0,30.0,183.2,16 / 22,3304511,2019-08-09 21:09:13:249,-0.4188,0.1234,9.7381,-0.4276,0.12,9.7966,-0.0001,-0.0005,-0.0004
33046,47.16162,-1.513113,59.8,0.0,30.0,183.2,16 / 22,3304610,2019-08-09 21:09:13:348,-0.4068,0.1222,9.7524,-0.4268,0.1224,9.7966,0.0002,0.0001,0.0002
33047,47.16162,-1.513113,59.8,0.0,30.0,183.2,16 / 22,3304710,2019-08-09 21:09:13:448,-0.4152,0.115,9.7441,-0.4272,0.1229,9.7966,0.0003,0.0003,0.0006
33048,47.16162,-1.513113,59.8,0.0,30.0,183.2,16 / 22,3304810,2019-08-09 21:09:13:548,-0.4224,0.1234,9.7429,-0.4277,0.1223,9.7966,-0.0004,0.0,0.0005
33049,47.16162,-1.513113,59.8,0.0,30.0,183.2,16 / 22,3304910,2019-08-09 21:09:13:648,-0.4344,0.1246,9.7524,-0.4274,0.1218,9.7966,0.0,0.0001,-0.0006
33050,47.16162,-1.513113,59.8,0.0,30.0,183.2,16 / 22,3305010,2019-08-09 21:09:13:748,-0.4176,0.1342,9.7465,-0.4267,0.1222,9.7966,0.0001,0.0,0.0007
33051,47.16162,-1.513113,59.8,0.0,30.0,183.2,16 / 22,3305111,2019-08-09 21:09:13:849,-0.4356,0.1198,9.7417,-0.4277,0.122,9.7966,0.0002,0.0001,-0.0001
33052,47.16162,-1.513113,59.8,0.0,30.0,183.2,16 / 22,3305211,2019-08-09 21:09:13:949,-0.4212,0.1162,9.7453,-0.4281,0.122,9.7965,0.0,-0.0005,0.0002
33053,47.16162,-1.513113,59.8,0.0,30.0,183.2,16 / 22,3305310,2019-08-09 21:09:14:048,-0.42,0.1186,9.75,-0.4274,0.1217,9.7966,0.0003,-0.0002,0.0002
33054,47.16162,-1.513113,59.8,0.0,30.0,183.2,16 / 22,3305411,2019-08-09 21:09:14:149,-0.4272,0.1174,9.756,-0.428,0.1209,9.7966,0.0001,0.0002,-0.0004
33055,47.16162,-1.513113,59.8,0.0,30.0,183.2,16 / 22,3305511,2019-08-09 21:09:14:249,-0.4248,0.1366,9.7548,-0.4293,0.1213,9.7965,-0.0005,-0.0001,0.0001
33056,47.16162,-1.513113,59.8,0.0,30.0,183.2,15 / 22,3305610,2019-08-09 21:09:14:348,-0.42,0.1174,9.7465,-0.428,0.1202,9.7966,-0.0001,0.0001,0.0
33057,47.16162,-1.513113,59.8,0.0,30.0,183.2,15 / 22,3305710,2019-08-09 21:09:14:448,-0.4296,0.1282,9.7429,-0.4279,0.1212,9.7966,0.0005,0.0002,0.0
33058,47.16162,-1.513113,59.8,0.0,30.0,183.2,15 / 22,3305810,2019-08-09 21:09:14:548,-0.4248,0.1258,9.7429,-0.4271,0.1231,9.7966,-0.0003,-0.0003,-0.0002
33059,47.16162,-1.513113,59.8,0.0,30.0,183.2,15 / 22,3305910,2019-08-09 21:09:14:648,-0.4272,0.1258,9.7489,-0.4274,0.1232,9.7966,0.0,-0.0004,0.0003
33060,47.16162,-1.513113,59.8,0.0,30.0,183.2,15 / 22,3306010,2019-08-09 21:09:14:748,-0.4308,0.1198,9.7453,-0.4277,0.124,9.7965,-0.0003,-0.0002,0.0005
33061,47.16162,-1.513113,59.8,0.0,30.0,183.2,15 / 22,3306110,2019-08-09 21:09:14:848,-0.414,0.1354,9.7405,-0.4272,0.1242,9.7966,-0.0004,0.0,0.0009
33062,47.16162,-1.513113,59.8,0.0,30.0,183.2,15 / 22,3306210,2019-08-09 21:09:14:948,-0.4188,0.1246,9.7429,-0.4265,0.1235,9.7966,0.0,-0.0002,-0.0003
33063,47.16162,-1.513113,59.8,0.0,30.0,183.2,15 / 22,3306311,2019-08-09 21:09:15:049,-0.4296,0.1234,9.7441,-0.4262,0.1227,9.7966,-0.0002,-0.0002,0.0003
33064,47.16162,-1.513113,59.8,0.0,30.0,183.2,15 / 22,3306411,2019-08-09 21:09:15:149,-0.4284,0.1091,9.7524,-0.4264,0.1232,9.7966,0.0002,-0.0006,0.0004
33065,47.16162,-1.513113,59.8,0.0,30.0,183.2,15 / 22,3306511,2019-08-09 21:09:15:249,-0.3997,0.1378,9.7524,-0.426,0.1238,9.7966,0.0004,-0.0002,-0.0007
33066,47.16162,-1.513113,59.8,0.0,30.0,183.2,15 / 22,3306611,2019-08-09 21:09:15:349,-0.4284,0.1115,9.7441,-0.4265,0.1246,9.7966,-0.0007,-0.0004,0.0
33067,47.16162,-1.513113,59.8,0.0,30.0,183.2,15 / 22,3306710,2019-08-09 21:09:15:448,-0.4116,0.1234,9.7417,-0.4248,0.1232,9.7967,-0.0002,-0.0002,0.0005
33068,47.16162,-1.513113,59.8,0.0,30.0,183.2,15 / 22,3306810,2019-08-09 21:09:15:548,-0.4057,0.121,9.75,-0.4248,0.1231,9.7967,0.0002,0.0004,-0.0003
33069,47.16162,-1.513113,59.8,0.0,30.0,183.2,15 / 22,3306910,2019-08-09 21:09:15:648,-0.4236,0.1162,9.7536,-0.4243,0.1243,9.7967,-0.0002,0.0,0.0008
33070,47.16162,-1.513113,59.8,0.0,30.0,183.2,15 / 22,3307010,2019-08-09 21:09:15:748,-0.4164,0.121,9.7453,-0.4245,0.1244,9.7967,0.0001,0.0002,0.0007
33071,47.16162,-1.513113,59.8,0.0,30.0,183.2,15 / 22,3307113,2019-08-09 21:09:15:851,-0.42,0.1234,9.7429,-0.4238,0.1243,9.7967,-0.0001,0.0003,0.0005
33072,47.16162,-1.513113,59.8,0.0,30.0,183.2,15 / 22,3307211,2019-08-09 21:09:15:949,-0.4152,0.1246,9.7489,-0.4236,0.1241,9.7967,0.0001,0.0,-0.0006
33073,47.16162,-1.513113,59.8,0.0,30.0,183.2,15 / 22,3307311,2019-08-09 21:09:16:049,-0.4224,0.1174,9.75,-0.4229,0.1254,9.7967,0.0002,-0.0004,-0.0002
33074,47.16162,-1.513113,59.8,0.0,30.0,183.2,15 / 22,3307411,2019-08-09 21:09:16:149,-0.4164,0.1246,9.7524,-0.4226,0.1248,9.7967,0.0003,0.0002,-0.0002
33075,47.16162,-1.513113,59.8,0.0,30.0,183.2,15 / 22,3307511,2019-08-09 21:09:16:249,-0.4128,0.1222,9.7321,-0.4213,0.1254,9.7968,0.0002,0.0003,-0.0001
33076,47.16162,-1.513113,59.8,0.0,30.0,183.2,15 / 22,3307611,2019-08-09 21:09:16:349,-0.4188,0.1246,9.7524,-0.4214,0.1245,9.7968,0.0,0.0002,-0.0002
33077,47.16162,-1.513113,59.8,0.0,30.0,183.2,15 / 22,3307711,2019-08-09 21:09:16:449,-0.4009,0.1294,9.7453,-0.4221,0.1246,9.7968,0.0001,-0.0002,0.0002
33078,47.16162,-1.513113,59.8,0.0,30.0,183.2,15 / 22,3307810,2019-08-09 21:09:16:548,-0.4009,0.1162,9.7417,-0.4209,0.1248,9.7968,0.0002,-0.0004,0.0002
33079,47.16162,-1.513113,59.8,0.0,30.0,183.2,15 / 22,3307910,2019-08-09 21:09:16:648,-0.4057,0.1198,9.7453,-0.4202,0.1252,9.7968,0.0006,-0.0001,0.0011
33080,47.16162,-1.513113,59.8,0.0,30.0,183.2,15 / 22,3308010,2019-08-09 21:09:16:748,-0.4068,0.1162,9.7405,-0.4197,0.1243,9.7969,0.0,-0.0005,0.0007
33081,47.16162,-1.513113,59.8,0.0,30.0,183.2,15 / 22,3308112,2019-08-09 21:09:16:850,-0.4164,0.133,9.7477,-0.4203,0.125,9.7968,0.0,0.0004,0.0003
33082,47.16162,-1.513113,59.8,0.0,30.0,183.2,15 / 22,3308210,2019-08-09 21:09:16:948,-0.4092,0.1282,9.7489,-0.4207,0.1244,9.7968,0.0006,-0.0011,-0.0001
33083,47.16162,-1.513113,59.8,0.0,30.0,183.2,15 / 22,3308310,2019-08-09 21:09:17:048,-0.4332,0.1126,9.7393,-0.4205,0.1244,9.7968,0.0003,-0.0002,-0.0004
33084,47.16162,-1.513113,59.8,0.0,30.0,183.2,15 / 22,3308410,2019-08-09 21:09:17:148,-0.4176,0.1366,9.7513,-0.4209,0.124,9.7968,-0.0001,0.0005,-0.0001
33085,47.16162,-1.513113,59.8,0.0,30.0,183.2,15 / 22,3308512,2019-08-09 21:09:17:250,-0.426,0.1222,9.7393,-0.4208,0.1234,9.7968,-0.0006,-0.0006,0.0
33086,47.16162,-1.513113,59.8,0.0,30.0,183.2,15 / 22,3308610,2019-08-09 21:09:17:348,-0.426,0.1294,9.7453,-0.421,0.1231,9.7968,0.0001,-0.0007,-0.0003
33087,47.16162,-1.513113,59.8,0.0,30.0,183.2,15 / 22,3308711,2019-08-09 21:09:17:449,-0.4248,0.1138,9.7596,-0.4212,0.1228,9.7968,-0.0001,-0.0004,-0.0005
33088,47.16162,-1.513113,59.8,0.0,30.0,183.2,15 / 22,3308811,2019-08-09 21:09:17:549,-0.4236,0.1246,9.7321,-0.4211,0.1237,9.7968,-0.0001,-0.0005,-0.0002
33089,47.16162,-1.513113,59.8,0.0,30.0,183.2,15 / 22,3308910,2019-08-09 21:09:17:648,-0.4224,0.1174,9.7321,-0.4196,0.1235,9.7969,-0.0001,0.0001,-0.0003
33090,47.16162,-1.513113,59.8,0.0,30.0,183.2,15 / 22,3309011,2019-08-09 21:09:17:749,-0.432,0.1234,9.7596,-0.42,0.124,9.7969,-0.0002,-0.0002,0.0008
33091,47.16162,-1.513113,59.8,0.0,30.0,183.2,15 / 22,3309111,2019-08-09 21:09:17:849,-0.4224,0.1378,9.7477,-0.4204,0.125,9.7968,0.0002,-0.0001,0.0003
33092,47.16162,-1.513113,59.8,0.0,30.0,183.2,15 / 22,3309211,2019-08-09 21:09:17:949,-0.4188,0.1198,9.7489,-0.4203,0.1253,9.7968,-0.0002,0.0009,0.0005
33093,47.16162,-1.513113,59.8,0.0,30.0,183.2,15 / 22,3309311,2019-08-09 21:09:18:049,-0.4272,0.1246,9.7429,-0.4212,0.1248,9.7968,0.0,-0.0006,-0.0004
33094,47.16162,-1.513113,59.8,0.0,30.0,183.2,15 / 22,3309411,2019-08-09 21:09:18:149,-0.4128,0.1282,9.7393,-0.4214,0.1252,9.7968,0.0007,0.0,-0.0005
33095,47.16162,-1.513113,59.8,0.0,30.0,183.2,15 / 22,3309510,2019-08-09 21:09:18:248,-0.4081,0.1258,9.7453,-0.4221,0.1233,9.7968,-0.0004,-0.0003,-0.0002
33096,47.16162,-1.513113,59.8,0.0,30.0,183.2,15 / 22,3309611,2019-08-09 21:09:18:349,-0.4152,0.1079,9.7453,-0.4223,0.1234,9.7968,0.0001,-0.0008,0.0001
33097,47.16162,-1.513113,59.8,0.0,30.0,183.2,15 / 22,3309710,2019-08-09 21:09:18:448,-0.4296,0.1162,9.7524,-0.4234,0.1225,9.7967,-0.0004,0.0009,0.0
33098,47.16162,-1.513113,59.8,0.0,30.0,183.2,15 / 22,3309810,2019-08-09 21:09:18:548,-0.42,0.121,9.7429,-0.4226,0.1227,9.7968,0.0003,-0.0004,-0.0001
33099,47.16162,-1.513113,59.8,0.0,30.0,183.2,15 / 22,3309910,2019-08-09 21:09:18:648,-0.4033,0.115,9.7548,-0.4209,0.1225,9.7968,-0.0002,-0.0002,0.0003
33100,47.16162,-1.513113,59.8,0.0,30.0,183.2,15 / 22,3310011,2019-08-09 21:09:18:749,-0.4164,0.1198,9.7453,-0.4219,0.1224,9.7968,0.0003,0.0002,-0.0004
33101,47.16162,-1.513113,59.8,0.0,30.0,183.2,15 / 22,3310110,2019-08-09 21:09:18:848,-0.4188,0.1234,9.7393,-0.4225,0.1234,9.7968,-0.0001,0.0006,0.0001
33102,47.16162,-1.513113,59.8,0.0,30.0,183.2,15 / 22,3310211,2019-08-09 21:09:18:949,-0.4164,0.127,9.7477,-0.4218,0.1229,9.7968,-0.0004,-0.0001,-0.0003
33103,47.16162,-1.513113,59.8,0.0,30.0,183.2,15 / 22,3310311,2019-08-09 21:09:19:049,-0.42,0.1234,9.7465,-0.4218,0.1221,9.7968,0.0001,-0.0002,-0.0002
33104,47.16162,-1.513113,59.8,0.0,30.0,183.2,15 / 22,3310411,2019-08-09 21:09:19:149,-0.4176,0.1174,9.7453,-0.4211,0.1229,9.7968,-0.0001,0.0008,0.0001
33105,47.16162,-1.513113,59.8,0.0,30.0,183.2,15 / 22,3310512,2019-08-09 21:09:19:250,-0.4248,0.1234,9.7381,-0.4216,0.1223,9.7968,-0.0001,-0.0001,-0.0004
33106,47.16162,-1.513113,59.8,0.0,30.0,183.2,15 / 22,3310610,2019-08-09 21:09:19:348,-0.4272,0.1366,9.7465,-0.4209,0.1237,9.7968,0.0004,0.0003,0.0005
33107,47.16162,-1.513113,59.8,0.0,30.0,183.2,15 / 22,3310710,2019-08-09 21:09:19:448,-0.4224,0.115,9.7273,-0.421,0.1238,9.7968,0.0,-0.0006,0.0005
33108,47.16162,-1.513113,59.8,0.0,30.0,183.2,15 / 22,3310810,2019-08-09 21:09:19:548,-0.4332,0.1258,9.7477,-0.4224,0.1223,9.7968,-0.0005,0.0007,-0.0004
33109,47.16162,-1.513113,59.8,0.0,30.0,183.2,15 / 22,3310910,2019-08-09 21:09:19:648,-0.4152,0.1162,9.7489,-0.4225,0.1226,9.7968,0.0001,0.0002,-0.0004
33110,47.16162,-1.513113,59.8,0.0,30.0,183.2,15 / 22,3311010,2019-08-09 21:09:19:748,-0.4248,0.1258,9.7477,-0.4236,0.1238,9.7967,-0.0002,0.0,0.0006
33111,47.16162,-1.513113,59.8,0.0,30.0,183.2,15 / 22,3311110,2019-08-09 21:09:19:848,-0.4224,0.1102,9.7429,-0.4238,0.1236,9.7967,-0.0003,-0.0005,-0.0007
33112,47.16162,-1.513113,59.8,0.0,30.0,183.2,15 / 22,3311212,2019-08-09 21:09:19:950,-0.4212,0.1186,9.7524,-0.4224,0.1234,9.7968,0.0002,0.0004,0.0003
33113,47.16162,-1.513113,59.8,0.0,30.0,183.2,15 / 22,3311310,2019-08-09 21:09:20:048,-0.4248,0.127,9.7584,-0.4226,0.1228,9.7968,-0.0003,-0.0002,0.0003
33114,47.16162,-1.513113,59.8,0.0,30.0,183.2,15 / 22,3311410,2019-08-09 21:09:20:148,-0.426,0.1162,9.7453,-0.4229,0.1214,9.7968,-0.0002,0.0002,-0.0005
33115,47.16162,-1.513113,59.8,0.0,30.0,183.2,15 / 22,3311511,2019-08-09 21:09:20:249,-0.4212,0.1354,9.7441,-0.4223,0.1213,9.7968,-0.0003,0.0005,-0.0003
33116,47.16162,-1.513113,59.8,0.0,30.0,183.2,15 / 22,3311610,2019-08-09 21:09:20:348,-0.4284,0.1138,9.7429,-0.4218,0.121,9.7968,-0.0003,0.0004,0.0
33117,47.16162,-1.513113,59.8,0.0,30.0,183.2,15 / 22,3311711,2019-08-09 21:09:20:449,-0.42,0.127,9.7477,-0.4227,0.1212,9.7968,0.0002,0.0001,-0.0004
33118,47.16162,-1.513113,59.8,0.0,30.0,183.2,15 / 22,3311812,2019-08-09 21:09:20:550,-0.4212,0.1318,9.7477,-0.4241,0.1211,9.7967,0.0007,-0.0001,-0.0001
33119,47.16162,-1.513113,59.8,0.0,30.0,183.2,15 / 22,3311910,2019-08-09 21:09:20:648,-0.4272,0.1102,9.7417,-0.4229,0.121,9.7968,0.0005,0.0003,0.0001
33120,47.16162,-1.513113,59.8,0.0,30.0,183.2,15 / 22,3312010,2019-08-09 21:09:20:748,-0.4248,0.127,9.7381,-0.4233,0.122,9.7967,0.0002,-0.0003,-0.0007
33121,47.16162,-1.513113,59.8,0.0,30.0,183.2,15 / 22,3312110,2019-08-09 21:09:20:848,-0.426,0.1174,9.7297,-0.423,0.122,9.7968,0.0001,0.0004,-0.0003
33122,47.16162,-1.513113,59.8,0.0,30.0,183.2,15 / 22,3312210,2019-08-09 21:09:20:948,-0.4081,0.1258,9.7524,-0.4236,0.121,9.7967,0.0002,0.0001,0.0004
33123,47.16162,-1.513113,59.8,0.0,30.0,183.2,15 / 22,3312310,2019-08-09 21:09:21:048,-0.4236,0.1222,9.7489,-0.423,0.1218,9.7968,-0.0003,-0.0003,-0.0003
33124,47.16162,-1.513113,59.8,0.0,30.0,183.2,15 / 22,3312410,2019-08-09 21:09:21:148,-0.4344,0.1198,9.7477,-0.4242,0.1209,9.7967,0.0003,-0.0005,0.0001
33125,47.16162,-1.513113,59.8,0.0,30.0,183.2,15 / 22,3312510,2019-08-09 21:09:21:248,-0.4404,0.1282,9.7453,-0.4244,0.1215,9.7967,-0.0002,0.0004,-0.0001
33126,47.16162,-1.513113,59.8,0.0,30.0,183.2,15 / 22,3312610,2019-08-09 21:09:21:348,-0.4128,0.1174,9.7429,-0.4242,0.1213,9.7967,0.0001,0.0005,0.0005
33127,47.16162,-1.513113,59.8,0.0,30.0,183.2,15 / 22,3312710,2019-08-09 21:09:21:448,-0.4464,0.1115,9.7429,-0.4245,0.1205,9.7967,-0.0002,-0.0003,-0.0003
33128,47.16162,-1.513113,59.8,0.0,30.0,183.2,15 / 22,3312810,2019-08-09 21:09:21:548,-0.4104,0.1246,9.7441,-0.4258,0.1195,9.7967,0.0004,-0.0002,0.0006
33129,47.16162,-1.513113,59.8,0.0,30.0,183.2,15 / 22,3312911,2019-08-09 21:09:21:649,-0.4487,0.115,9.7465,-0.426,0.1196,9.7967,-0.0001,0.0004,-0.0005
33130,47.16162,-1.513113,59.8,0.0,30.0,183.2,15 / 22,3313011,2019-08-09 21:09:21:749,-0.4212,0.1186,9.7513,-0.4269,0.1191,9.7966,-0.0002,0.0002,-0.0001
33131,47.16162,-1.513113,59.8,0.0,30.0,183.2,15 / 22,3313111,2019-08-09 21:09:21:849,-0.4212,0.1198,9.7381,-0.4278,0.1193,9.7966,0.0006,-0.0006,0.0001
33132,47.16162,-1.513113,59.8,0.0,30.0,183.2,15 / 22,3313211,2019-08-09 21:09:21:949,-0.4212,0.127,9.7477,-0.4276,0.1207,9.7966,0.0,-0.0002,0.0
33133,47.16162,-1.513113,59.8,0.0,30.0,183.2,15 / 22,3313310,2019-08-09 21:09:22:048,-0.4272,0.1402,9.7441,-0.4276,0.12,9.7966,0.0,0.0003,-0.0001
33134,47.16162,-1.513113,59.8,0.0,30.0,183.2,15 / 22,3313410,2019-08-09 21:09:22:148,-0.438,0.1198,9.7321,-0.4277,0.1212,9.7966,0.0007,-0.0003,0.0001
33135,47.16162,-1.513113,59.8,0.0,30.0,183.2,15 / 22,3313510,2019-08-09 21:09:22:248,-0.4212,0.1246,9.7477,-0.428,0.1221,9.7965,0.0001,0.0003,0.0004
33136,47.16162,-1.513113,59.8,0.0,30.0,183.2,15 / 22,3313610,2019-08-09 21:09:22:348,-0.4116,0.1222,9.7393,-0.4281,0.1223,9.7965,0.0005,0.0005,-0.0006
33137,47.16162,-1.513113,59.8,0.0,30.0,183.2,15 / 22,3313710,2019-08-09 21:09:22:448,-0.4344,0.1234,9.7489,-0.4284,0.1214,9.7965,0.0,-0.0004,-0.0004
33138,47.16162,-1.513113,59.8,0.0,30.0,183.2,15 / 22,3313810,2019-08-09 21:09:22:548,-0.4332,0.1198,9.7489,-0.4293,0.1217,9.7965,0.0004,-0.0005,-0.0003
33139,47.16162,-1.513113,59.8,0.0,30.0,183.2,15 / 22,3313911,2019-08-09 21:09:22:649,-0.4464,0.1282,9.7369,-0.4296,0.1231,9.7965,-0.0003,-0.0001,0.0002
33140,47.16162,-1.513113,59.8,0.0,30.0,183.2,15 / 22,3314011,2019-08-09 21:09:22:749,-0.4296,0.1294,9.7441,-0.4301,0.123,9.7964,0.0003,0.0,0.0003
33141,47.16162,-1.513113,59.8,0.0,30.0,183.2,15 / 22,3314111,2019-08-09 21:09:22:849,-0.4152,0.1258,9.7405,-0.4295,0.1222,9.7965,-0.0004,-0.0002,0.0002
33142,47.16162,-1.513113,59.8,0.0,30.0,183.2,15 / 22,3314212,2019-08-09 21:09:22:950,-0.4452,0.1306,9.7369,-0.4287,0.1229,9.7965,-0.0002,-0.0003,-0.0001
33143,47.16162,-1.513113,59.8,0.0,30.0,183.2,15 / 22,3314310,2019-08-09 21:09:23:048,-0.42,0.1282,9.7405,-0.4289,0.1228,9.7965,-0.0002,0.0,0.0
33144,47.16162,-1.513113,59.8,0.0,30.0,183.2,15 / 22,3314410,2019-08-09 21:09:23:148,-0.4212,0.1138,9.7381,-0.4292,0.1227,9.7965,0.0,-0.0006,-0.0004
33145,47.16162,-1.513113,59.8,0.0,30.0,183.2,15 / 22,3314512,2019-08-09 21:09:23:250,-0.4452,0.1282,9.7453,-0.4288,0.1221,9.7965,-0.0002,0.0002,0.0
33146,47.16162,-1.513113,59.8,0.0,30.0,183.2,15 / 22,3314610,2019-08-09 21:09:23:348,-0.438,0.1282,9.7572,-0.4285,0.1213,9.7965,0.0001,-0.0005,0.001
33147,47.16162,-1.513113,59.8,0.0,30.0,183.2,15 / 22,3314710,2019-08-09 21:09:23:448,-0.438,0.1222,9.7489,-0.4293,0.1229,9.7965,0.0003,0.0006,0.0006
33148,47.16162,-1.513113,59.8,0.0,30.0,183.2,15 / 22,3314810,2019-08-09 21:09:23:548,-0.4224,0.1043,9.7465,-0.43,0.1229,9.7964,-0.0003,-0.0002,0.0002
33149,47.16162,-1.513113,59.8,0.0,30.0,183.2,15 / 22,3314910,2019-08-09 21:09:23:648,-0.426,0.1186,9.7548,-0.4283,0.1212,9.7965,-0.0002,-0.0003,0.0009
33150,47.16162,-1.513113,59.8,0.0,30.0,183.2,15 / 22,3315010,2019-08-09 21:09:23:748,-0.4224,0.1186,9.7345,-0.4271,0.1216,9.7966,0.0002,-0.0011,0.0005
33151,47.16162,-1.513113,59.8,0.0,30.0,183.2,15 / 22,3315110,2019-08-09 21:09:23:848,-0.4248,0.1258,9.7393,-0.4256,0.1211,9.7967,0.0,-0.0001,-0.0001
33152,47.16162,-1.513113,59.8,0.0,30.0,183.2,15 / 22,3315210,2019-08-09 21:09:23:948,-0.4176,0.1246,9.7441,-0.4263,0.1217,9.7966,0.0001,-0.0005,0.0001
33153,47.16162,-1.513113,59.8,0.0,30.0,183.2,15 / 22,3315310,2019-08-09 21:09:24:048,-0.4176,0.1186,9.7417,-0.4277,0.1217,9.7966,0.0,-0.0005,0.0001
33154,47.16162,-1.513113,59.8,0.0,30.0,183.2,15 / 22,3315411,2019-08-09 21:09:24:149,-0.4248,0.1162,9.7513,-0.4273,0.1219,9.7966,0.0003,0.0001,0.0001
33155,47.16162,-1.513113,59.8,0.0,30.0,183.2,15 / 22,3315510,2019-08-09 21:09:24:248,-0.4116,0.1222,9.7477,-0.4279,0.122,9.7965,0.0005,0.0006,0.0004
33156,47.16162,-1.513113,59.8,0.0,30.0,183.2,16 / 22,3315610,2019-08-09 21:09:24:348,-0.4272,0.1318,9.7536,-0.4274,0.1225,9.7966,0.0003,0.0,-0.0002
33157,47.16162,-1.513113,59.8,0.0,30.0,183.2,16 / 22,3315711,2019-08-09 21:09:24:449,-0.4188,0.1234,9.7309,-0.4266,0.1236,9.7966,-0.0002,0.0004,0.0002
33158,47.16162,-1.513113,59.8,0.0,30.0,183.2,16 / 22,3315811,2019-08-09 21:09:24:549,-0.4308,0.121,9.7548,-0.4267,0.123,9.7966,-0.0002,0.0,-0.0005
33159,47.16162,-1.513113,59.8,0.0,30.0,183.2,16 / 22,3315910,2019-08-09 21:09:24:648,-0.4416,0.1186,9.7441,-0.4269,0.123,9.7966,0.0005,0.0003,-0.0004
33160,47.16162,-1.513113,59.8,0.0,30.0,183.2,16 / 22,3316011,2019-08-09 21:09:24:749,-0.42,0.1342,9.7548,-0.4277,0.1236,9.7965,-0.0001,-0.0001,-0.0005
33161,47.16162,-1.513113,59.8,0.0,30.0,183.2,16 / 22,3316111,2019-08-09 21:09:24:849,-0.4224,0.1222,9.7548,-0.4275,0.1235,9.7965,0.0002,-0.0001,-0.0004
33162,47.16162,-1.513113,59.8,0.0,30.0,183.2,16 / 22,3316211,2019-08-09 21:09:24:949,-0.414,0.1234,9.7417,-0.4281,0.1239,9.7965,0.0002,-0.0004,0.0
33163,47.16162,-1.513113,59.8,0.0,30.0,183.2,16 / 22,3316312,2019-08-09 21:09:25:050,-0.4236,0.1234,9.7429,-0.4282,0.1227,9.7965,0.0001,0.0005,0.0002
33164,47.16162,-1.513113,59.8,0.0,30.0,183.2,16 / 22,3316411,2019-08-09 21:09:25:149,-0.4248,0.1186,9.7465,-0.4284,0.1227,9.7965,-0.0004,0.0,-0.0007
33165,47.16162,-1.513113,59.8,0.0,30.0,183.2,16 / 22,3316511,2019-08-09 21:09:25:249,-0.42,0.1318,9.7381,-0.4293,0.1233,9.7965,0.0007,0.0006,0.0002
33166,47.16162,-1.513113,59.8,0.0,30.0,183.2,16 / 22,3316611,2019-08-09 21:09:25:349,-0.4344,0.1246,9.7381,-0.4289,0.1238,9.7965,-0.0003,-0.0002,-0.0004
33167,47.16162,-1.513113,59.8,0.0,30.0,183.2,16 / 22,3316711,2019-08-09 21:09:25:449,-0.4248,0.1222,9.7477,-0.4289,0.1237,9.7965,0.0003,-0.0004,-0.0003
33168,47.16162,-1.513113,59.8,0.0,30.0,183.2,16 / 22,3316811,2019-08-09 21:09:25:549,-0.4092,0.1198,9.7417,-0.4296,0.1236,9.7965,-0.0004,0.0,-0.0003
33169,47.16162,-1.513113,59.8,0.0,30.0,183.2,16 / 22,3316911,2019-08-09 21:09:25:649,-0.4272,0.127,9.75,-0.4291,0.1235,9.7965,-0.0003,0.0004,-0.0001
33170,47.16162,-1.513113,59.8,0.0,30.0,183.2,16 / 22,3317010,2019-08-09 21:09:25:748,-0.4104,0.1162,9.7572,-0.4279,0.1228,9.7965,0.0003,0.0,-0.0001
33171,47.16162,-1.513113,59.8,0.0,30.0,183.2,16 / 22,3317111,2019-08-09 21:09:25:849,-0.4104,0.1162,9.756,-0.4264,0.1225,9.7966,0.0006,0.0005,0.0006
33172,47.16162,-1.513113,59.8,0.0,30.0,183.2,16 / 22,3317211,2019-08-09 21:09:25:949,-0.4272,0.1342,9.7477,-0.4273,0.1233,9.7966,0.0006,0.0,-0.0001
33173,47.16162,-1.513113,59.8,0.0,30.0,183.2,16 / 22,3317310,2019-08-09 21:09:26:048,-0.4356,0.1055,9.7429,-0.4276,0.1233,9.7965,0.0003,-0.0002,0.0001
33174,47.16162,-1.513113,59.8,0.0,30.0,183.2,16 / 22,3317410,2019-08-09 21:09:26:148,-0.4332,0.133,9.7584,-0.4278,0.1238,9.7965,-0.0003,0.0007,-0.0004
33175,47.16162,-1.513113,59.8,0.0,30.0,183.2,16 / 22,3317511,2019-08-09 21:09:26:249,-0.4248,0.1282,9.7441,-0.4273,0.1225,9.7966,-0.0001,0.0004,0.0011
33176,47.16162,-1.513113,59.8,0.0,30.0,183.2,16 / 22,3317611,2019-08-09 21:09:26:349,-0.42,0.1246,9.7584,-0.4278,0.1226,9.7965,0.0002,0.0006,-0.0006
33177,47.16162,-1.513113,59.8,0.0,30.0,183.2,16 / 22,3317711,2019-08-09 21:09:26:449,-0.4164,0.1126,9.7369,-0.4266,0.1225,9.7966,-0.0002,-0.0005,-0.0004
33178,47.16162,-1.513113,59.8,0.0,30.0,183.2,16 / 22,3317811,2019-08-09 21:09:26:549,-0.4452,0.1234,9.7357,-0.4268,0.1225,9.7966,0.0,-0.0004,-0.0001
33179,47.16162,-1.513113,59.8,0.0,30.0,183.2,16 / 22,3317911,2019-08-09 21:09:26:649,-0.4212,0.115,9.7417,-0.4284,0.123,9.7965,-0.0001,0.0006,0.0006
33180,47.16162,-1.513113,59.8,0.0,30.0,183.2,16 / 22,3318010,2019-08-09 21:09:26:748,-0.4272,0.1234,9.7477,-0.428,0.1219,9.7965,0.0006,-0.0002,0.0005
33181,47.16162,-1.513113,59.8,0.0,30.0,183.2,16 / 22,3318110,2019-08-09 21:09:26:848,-0.4272,0.1258,9.7465,-0.4279,0.1216,9.7966,0.0002,0.0005,0.0002
33182,47.16162,-1.513113,59.8,0.0,30.0,183.2,16 / 22,3318210,2019-08-09 21:09:26:948,-0.4272,0.1234,9.7429,-0.4281,0.1233,9.7965,0.0004,0.0006,-0.0005
33183,47.16162,-1.513113,59.8,0.0,30.0,183.2,16 / 22,3318312,2019-08-09 21:09:27:050,-0.426,0.1294,9.7405,-0.4279,0.1231,9.7965,0.0005,-0.0004,0.0003
33184,47.16162,-1.513113,59.8,0.0,30.0,183.2,16 / 22,3318410,2019-08-09 21:09:27:148,-0.4116,0.1378,9.7465,-0.4273,0.1233,9.7966,-0.0003,0.0006,-0.0004
33185,47.16162,-1.513113,59.8,0.0,30.0,183.2,16 / 22,3318511,2019-08-09 21:09:27:249,-0.438,0.1198,9.7548,-0.4267,0.1237,9.7966,0.0001,0.0005,0.0002
33186,47.16162,-1.513113,59.8,0.0,30.0,183.2,16 / 22,3318610,2019-08-09 21:09:27:348,-0.4188,0.115,9.7453,-0.4264,0.123,9.7966,-0.0004,0.0003,0.0005
33187,47.16162,-1.513113,59.8,0.0,30.0,183.2,16 / 22,3318710,2019-08-09 21:09:27:448,-0.4236,0.1162,9.7393,-0.4261,0.1229,9.7966,0.0,-0.0003,-0.0001
33188,47.16162,-1.513113,59.8,0.0,30.0,183.2,16 / 22,3318810,2019-08-09 21:09:27:548,-0.4368,0.1186,9.7489,-0.4263,0.1226,9.7966,0.0003,0.0003,0.0005
33189,47.16162,-1.513113,59.8,0.0,30.0,183.2,16 / 22,3318910,2019-08-09 21:09:27:648,-0.42,0.1138,9.7489,-0.4263,0.1237,9.7966,0.0002,-0.0003,0.0005
33190,47.16162,-1.513113,59.8,0.0,30.0,183.2,16 / 22,3319010,2019-08-09 21:09:27:748,-0.4164,0.1246,9.7584,-0.4263,0.1244,9.7966,-0.0004,0.0002,0.0004
33191,47.16162,-1.513113,59.8,0.0,30.0,183.2,16 / 22,3319110,2019-08-09 21:09:27:848,-0.4344,0.1246,9.7441,-0.4265,0.1239,9.7966,-0.0007,0.0003,-0.0007
33192,47.16162,-1.513113,59.8,0.0,30.0,183.2,16 / 22,3319210,2019-08-09 21:09:27:948,-0.4164,0.139,9.7453,-0.4254,0.124,9.7966,-0.0001,0.0003,-0.0001
33193,47.16162,-1.513113,59.8,0.0,30.0,183.2,16 / 22,3319311,2019-08-09 21:09:28:049,-0.4236,0.1138,9.7453,-0.425,0.1235,9.7967,-0.0002,-0.0001,0.0
33194,47.16162,-1.513113,59.8,0.0,30.0,183.2,16 / 22,3319411,2019-08-09 21:09:28:149,-0.4164,0.1246,9.7477,-0.4248,0.1227,9.7967,-0.0002,-0.0003,0.0005
33195,47.16162,-1.513113,59.8,0.0,30.0,183.2,16 / 22,3319510,2019-08-09 21:09:28:248,-0.4033,0.1282,9.7536,-0.4245,0.1227,9.7967,0.0002,0.0004,0.0
33196,47.16162,-1.513113,59.8,0.0,30.0,183.2,16 / 22,3319610,2019-08-09 21:09:28:348,-0.4104,0.1174,9.7369,-0.422,0.1239,9.7968,0.0004,-0.0006,0.0009
33197,47.16162,-1.513113,59.8,0.0,30.0,183.2,16 / 22,3319710,2019-08-09 21:09:28:448,-0.4248,0.1234,9.7536,-0.4219,0.1229,9.7968,0.0004,0.0003,-0.0002
33198,47.16162,-1.513113,59.8,0.0,30.0,183.2,16 / 22,3319810,2019-08-09 21:09:28:548,-0.426,0.1222,9.7513,-0.4216,0.1231,9.7968,-0.0001,-0.0007,0.0002
33199,47.16162,-1.513113,59.8,0.0,30.0,183.2,16 / 22,3319911,2019-08-09 21:09:28:649,-0.4104,0.121,9.7381,-0.4221,0.1237,9.7968,-0.0002,0.0006,-0.0003
33200,47.16162,-1.513113,59.8,0.0,30.0,183.2,16 / 22,3320011,2019-08-09 21:09:28:749,-0.414,0.1174,9.7441,-0.4223,0.1234,9.7968,0.0004,0.0006,0.0005
33201,47.16162,-1.513113,59.8,0.0,30.0,183.2,16 / 22,3320111,2019-08-09 21:09:28:849,-0.4236,0.133,9.7441,-0.4222,0.1226,9.7968,-0.0004,0.0002,0.0
33202,47.16162,-1.513113,59.8,0.0,30.0,183.2,16 / 22,3320211,2019-08-09 21:09:28:949,-0.4176,0.1198,9.7453,-0.4225,0.1233,9.7968,0.0003,0.0002,-0.0002
33203,47.16162,-1.513113,59.8,0.0,30.0,183.2,16 / 22,3320312,2019-08-09 21:09:29:050,-0.4104,0.133,9.7465,-0.422,0.1234,9.7968,0.0001,-0.0006,0.0004
33204,47.16162,-1.513113,59.8,0.0,30.0,183.2,16 / 22,3320410,2019-08-09 21:09:29:148,-0.4236,0.121,9.756,-0.4218,0.1239,9.7968,0.0009,0.0003,0.0
33205,47.16162,-1.513113,59.8,0.0,30.0,183.2,16 / 22,3320510,2019-08-09 21:09:29:248,-0.4104,0.1126,9.7477,-0.422,0.1233,9.7968,-0.0004,-0.0004,0.001
33206,47.16162,-1.513113,59.8,0.0,30.0,183.2,16 / 22,3320610,2019-08-09 21:09:29:348,-0.4092,0.1222,9.7536,-0.4205,0.1232,9.7969,-0.0001,0.0,0.0007
33207,47.16162,-1.513113,59.8,0.0,30.0,183.2,16 / 22,3320710,2019-08-09 21:09:29:448,-0.4116,0.115,9.7536,-0.4196,0.1231,9.7969,-0.0002,0.0004,-0.0003
33208,47.16162,-1.513113,59.8,0.0,30.0,183.2,16 / 22,3320810,2019-08-09 21:09:29:548,-0.4284,0.1138,9.7465,-0.4198,0.1229,9.7969,-0.0007,-0.0003,0.0
33209,47.16162,-1.513113,59.8,0.0,30.0,183.2,16 / 22,3320910,2019-08-09 21:09:29:648,-0.4045,0.1366,9.7441,-0.4194,0.1231,9.7969,0.0005,-0.0004,0.0001
33210,47.16162,-1.513113,59.8,0.0,30.0,183.2,16 / 22,3321010,2019-08-09 21:09:29:748,-0.4164,0.1198,9.7513,-0.4187,0.1213,9.797,-0.0003,0.0003,0.0
33211,47.16162,-1.513113,59.8,0.0,30.0,183.2,16 / 22,3321110,2019-08-09 21:09:29:848,-0.4081,0.1102,9.756,-0.4191,0.1211,9.7969,0.0007,0.0001,-0.0001
33212,47.16162,-1.513113,59.8,0.0,30.0,183.2,16 / 22,3321211,2019-08-09 21:09:29:949,-0.3961,0.1031,9.7477,-0.4183,0.1196,9.797,-0.0003,-0.0004,-0.0008
33213,47.16162,-1.513113,59.8,0.0,30.0,183.2,16 / 22,3321311,2019-08-09 21:09:30:049,-0.4033,0.1126,9.7477,-0.4184,0.1188,9.797,0.0004,0.0004,0.0
33214,47.16162,-1.513113,59.8,0.0,30.0,183.2,16 / 22,3321411,2019-08-09 21:09:30:149,-0.414,0.1067,9.7357,-0.4184,0.1194,9.797,0.0,-0.0003,0.0001
33215,47.16162,-1.513113,59.8,0.0,30.0,183.2,16 / 22,3321510,2019-08-09 21:09:30:248,-0.4116,0.1174,9.7477,-0.4186,0.1187,9.797,-0.0004,-0.0005,0.0005
33216,47.16162,-1.513113,59.8,0.0,30.0,183.2,17 / 22,3321611,2019-08-09 21:09:30:349,-0.432,0.1126,9.7393,-0.4186,0.1194,9.797,0.0001,-0.0002,-0.0001
33217,47.16162,-1.513113,59.8,0.0,30.0,183.2,17 / 22,3321710,2019-08-09 21:09:30:448,-0.426,0.121,9.7417,-0.4195,0.1187,9.797,0.0002,-0.0005,0.0004
33218,47.16162,-1.513113,59.8,0.0,30.0,183.2,17 / 22,3321810,2019-08-09 21:09:30:548,-0.4104,0.1162,9.7381,-0.4213,0.1189,9.7969,0.0002,-0.0001,0.0004
33219,47.16162,-1.513113,59.8,0.0,30.0,183.2,17 / 22,3321910,2019-08-09 21:09:30:648,-0.4128,0.1186,9.7524,-0.4209,0.1187,9.7969,-0.0007,-0.0002,0.0004
33220,47.16162,-1.513113,59.8,0.0,30.0,183.2,17 / 22,3322010,2019-08-09 21:09:30:748,-0.4236,0.1091,9.7417,-0.4208,0.1188,9.7969,0.0005,0.0002,-0.0005
33221,47.16162,-1.513113,59.8,0.0,30.0,183.2,17 / 22,3322110,2019-08-09 21:09:30:848,-0.4152,0.1162,9.7465,-0.4225,0.1196,9.7968,0.0005,0.0001,0.0003
33222,47.16162,-1.513113,59.8,0.0,30.0,183.2,17 / 22,3322210,2019-08-09 21:09:30:948,-0.4248,0.1138,9.7524,-0.422,0.1199,9.7968,0.0003,-0.0008,0.0001
33223,47.16162,-1.513113,59.8,0.0,30.0,183.2,17 / 22,3322310,2019-08-09 21:09:31:048,-0.4045,0.1067,9.7441,-0.4223,0.1192,9.7968,-0.0002,0.0005,0.0005
33224,47.16162,-1.513113,59.8,0.0,30.0,183.2,17 / 22,3322410,2019-08-09 21:09:31:148,-0.4272,0.1258,9.7453,-0.4221,0.1189,9.7968,-0.0001,-0.0002,0.0006
33225,47.16162,-1.513113,59.8,0.0,30.0,183.2,17 / 22,3322510,2019-08-09 21:09:31:248,-0.4284,0.1091,9.7393,-0.4232,0.1176,9.7968,0.0,0.0,0.0006
33226,47.16162,-1.513113,59.8,0.0,30.0,183.2,17 / 22,3322610,2019-08-09 21:09:31:348,-0.4296,0.1234,9.7536,-0.4238,0.1176,9.7968,0.0005,0.0002,0.0
33227,47.16162,-1.513113,59.8,0.0,30.0,183.2,17 / 22,3322710,2019-08-09 21:09:31:448,-0.4152,0.1246,9.7465,-0.4243,0.1186,9.7967,0.0002,0.0004,-0.0004
33228,47.16162,-1.513113,59.8,0.0,30.0,183.2,17 / 22,3322810,2019-08-09 21:09:31:548,-0.4212,0.1222,9.7429,-0.4242,0.1188,9.7968,0.0002,0.0002,0.0002
33229,47.16162,-1.513113,59.8,0.0,30.0,183.2,17 / 22,3322910,2019-08-09 21:09:31:648,-0.4176,0.1162,9.75,-0.4241,0.1184,9.7968,0.0007,0.0,-0.001
33230,47.16162,-1.513113,59.8,0.0,30.0,183.2,17 / 22,3323010,2019-08-09 21:09:31:748,-0.4116,0.1138,9.7441,-0.4245,0.1192,9.7967,0.0004,-0.0005,-0.0006
33231,47.16162,-1.513113,59.8,0.0,30.0,183.2,17 / 22,3323111,2019-08-09 21:09:31:849,-0.4224,0.1222,9.7357,-0.4239,0.1186,9.7968,0.0002,-0.0001,0.0001
33232,47.16162,-1.513113,59.8,0.0,30.0,183.2,17 / 22,3323211,2019-08-09 21:09:31:949,-0.4176,0.1067,9.7429,-0.4238,0.1191,9.7968,0.0001,-0.0004,0.0004
33233,47.16162,-1.513113,59.8,0.0,30.0,183.2,17 / 22,3323310,2019-08-09 21:09:32:048,-0.3997,0.1294,9.7441,-0.4229,0.1182,9.7968,-0.0007,-0.0002,-0.0004
33234,47.16162,-1.513113,59.8,0.0,30.0,183.2,17 / 22,3323410,2019-08-09 21:09:32:148,-0.4272,0.115,9.7489,-0.4222,0.1191,9.7968,0.0002,0.0003,-0.0004
33235,47.16162,-1.513113,59.8,0.0,30.0,183.2,17 / 22,3323510,2019-08-09 21:09:32:248,-0.4104,0.1138,9.75,-0.4216,0.1198,9.7969,0.0007,0.0004,0.0001
33236,47.16162,-1.513113,59.8,0.0,30.0,183.2,17 / 22,3323610,2019-08-09 21:09:32:348,-0.4152,0.1198,9.7513,-0.4214,0.1195,9.7969,0.0004,-0.0009,-0.0007
33237,47.16162,-1.513113,59.8,0.0,30.0,183.2,17 / 22,3323710,2019-08-09 21:09:32:448,-0.4356,0.1198,9.7441,-0.4219,0.1203,9.7968,-0.0001,0.0009,-0.0005
33238,47.16162,-1.513113,59.8,0.0,30.0,183.2,17 / 22,3323810,2019-08-09 21:09:32:548,-0.42,0.1318,9.7524,-0.4218,0.1189,9.7969,0.0002,-0.0005,0.0
33239,47.16162,-1.513113,59.8,0.0,30.0,183.2,17 / 22,3323910,2019-08-09 21:09:32:648,-0.4188,0.1162,9.7381,-0.4218,0.12,9.7968,-0.0001,-0.0001,0.0001
33240,47.16162,-1.513113,59.8,0.0,30.0,183.2,17 / 22,3324012,2019-08-09 21:09:32:750,-0.4344,0.133,9.7477,-0.4225,0.1206,9.7968,0.0,-0.0001,0.0004
33241,47.16162,-1.513113,59.8,0.0,30.0,183.2,17 / 22,3324111,2019-08-09 21:09:32:849,-0.4272,0.1174,9.756,-0.4232,0.1202,9.7968,-0.0002,0.0009,-0.0005
33242,47.16162,-1.513113,59.8,0.0,30.0,183.2,17 / 22,3324210,2019-08-09 21:09:32:948,-0.4248,0.1282,9.7453,-0.4236,0.1206,9.7968,-0.0006,0.0002,0.0002
33243,47.16162,-1.513113,59.8,0.0,30.0,183.2,17 / 22,3324310,2019-08-09 21:09:33:048,-0.414,0.121,9.7441,-0.4227,0.1211,9.7968,-0.0001,0.0,0.0
33244,47.16162,-1.513113,59.8,0.0,30.0,183.2,17 / 22,3324410,2019-08-09 21:09:33:148,-0.4248,0.1234,9.7381,-0.4235,0.1208,9.7968,-0.0002,-0.0005,0.0006
33245,47.16162,-1.513113,59.8,0.0,30.0,183.2,17 / 22,3324510,2019-08-09 21:09:33:248,-0.4188,0.127,9.7453,-0.423,0.1217,9.7968,0.0002,0.0004,0.0007
33246,47.16162,-1.513113,59.8,0.0,30.0,183.2,17 / 22,3324610,2019-08-09 21:09:33:348,-0.4236,0.1234,9.7608,-0.4232,0.1227,9.7967,-0.0004,0.0004,0.0003
33247,47.16162,-1.513113,59.8,0.0,30.0,183.2,17 / 22,3324710,2019-08-09 21:09:33:448,-0.4188,0.1282,9.7465,-0.4227,0.1222,9.7968,0.0,0.0004,-0.0001
33248,47.16162,-1.513113,59.8,0.0,30.0,183.2,17 / 22,3324810,2019-08-09 21:09:33:548,-0.4272,0.121,9.7429,-0.423,0.1228,9.7968,0.0,0.0002,0.0001
33249,47.16162,-1.513113,59.8,0.0,30.0,183.2,17 / 22,3324910,2019-08-09 21:09:33:648,-0.4284,0.1115,9.7489,-0.4237,0.1217,9.7967,-0.0001,-0.0005,0.0001
33250,47.16162,-1.513113,59.8,0.0,30.0,183.2,17 / 22,3325010,2019-08-09 21:09:33:748,-0.4344,0.1079,9.7477,-0.4225,0.1217,9.7968,-0.0001,-0.0003,0.0003
33251,47.16162,-1.513113,59.8,0.0,30.0,183.2,17 / 22,3325111,2019-08-09 21:09:33:849,-0.414,0.1246,9.7465,-0.4234,0.1204,9.7968,0.0002,0.0003,-0.0001
33252,47.16162,-1.513113,59.8,0.0,30.0,183.2,17 / 22,3325210,2019-08-09 21:09:33:948,-0.4296,0.1067,9.7393,-0.4231,0.1194,9.7968,-0.0004,-0.0005,-0.0003
33253,47.16162,-1.513113,59.8,0.0,30.0,183.2,17 / 22,3325311,2019-08-09 21:09:34:049,-0.426,0.127,9.7465,-0.4227,0.12,9.7968,0.0002,0.0003,0.0001
33254,47.16162,-1.513113,59.8,0.0,30.0,183.2,17 / 22,3325410,2019-08-09 21:09:34:148,-0.4176,0.115,9.7369,-0.4224,0.1192,9.7968,-0.0003,0.0004,-0.0004
33255,47.16162,-1.513113,59.8,0.0,30.0,183.2,17 / 22,3325510,2019-08-09 21:09:34:248,-0.414,0.1186,9.7513,-0.4223,0.1184,9.7968,-0.0005,-0.0002,0.0007
33256,47.16162,-1.513113,59.8,0.0,30.0,183.2,17 / 22,3325610,2019-08-09 21:09:34:348,-0.4164,0.1258,9.7524,-0.4216,0.118,9.7969,-0.0004,0.0002,0.0007
33257,47.16162,-1.513113,59.8,0.0,30.0,183.2,17 / 22,3325710,2019-08-09 21:09:34:448,-0.42,0.1342,9.7357,-0.4218,0.1187,9.7969,-0.0003,0.0005,0.0004
33258,47.16162,-1.513113,59.8,0.0,30.0,183.2,17 / 22,3325810,2019-08-09 21:09:34:548,-0.3997,0.1198,9.7477,-0.4227,0.1186,9.7968,0.0001,-0.0005,0.0003
33259,47.16162,-1.513113,59.8,0.0,30.0,183.2,17 / 22,3325910,2019-08-09 21:09:34:648,-0.4224,0.1354,9.7369,-0.4209,0.1195,9.7969,-0.0001,-0.0007,-0.0004
33260,47.16162,-1.513113,59.8,0.0,30.0,183.2,17 / 22,3326010,2019-08-09 21:09:34:748,-0.4236,0.133,9.75,-0.4196,0.1199,9.7969,-0.0005,0.0,0.0005
33261,47.16162,-1.513113,59.8,0.0,30.0,183.2,17 / 22,3326111,2019-08-09 21:09:34:849,-0.4212,0.1126,9.7453,-0.4195,0.1206,9.7969,0.0006,0.0003,-0.0001
33262,47.16162,-1.513113,59.8,0.0,30.0,183.2,17 / 22,3326211,2019-08-09 21:09:34:949,-0.4236,0.1115,9.7513,-0.4204,0.1195,9.7969,-0.0004,0.0002,0.0001
33263,47.16162,-1.513113,59.8,0.0,30.0,183.2,17 / 22,3326311,2019-08-09 21:09:35:049,-0.4236,0.127,9.7524,-0.4199,0.1201,9.7969,0.0009,0.0004,0.0006
33264,47.16162,-1.513113,59.8,0.0,30.0,183.2,17 / 22,3326410,2019-08-09 21:09:35:148,-0.4284,0.1091,9.7513,-0.4214,0.1208,9.7968,-0.0001,0.0001,0.0003
33265,47.16162,-1.513113,59.8,0.0,30.0,183.2,17 / 22,3326510,2019-08-09 21:09:35:248,-0.4068,0.1162,9.7417,-0.422,0.1207,9.7968,0.0001,0.0002,-0.0001
33266,47.16162,-1.513113,59.8,0.0,30.0,183.2,17 / 22,3326611,2019-08-09 21:09:35:349,-0.4236,0.1162,9.7584,-0.4222,0.1205,9.7968,0.0,0.0001,0.0
33267,47.16162,-1.513113,59.8,0.0,30.0,183.2,17 / 22,3326711,2019-08-09 21:09:35:449,-0.4236,0.1138,9.7489,-0.4212,0.1203,9.7969,-0.0002,-0.0005,0.0
33268,47.16162,-1.513113,59.8,0.0,30.0,183.2,17 / 22,3326810,2019-08-09 21:09:35:548,-0.4188,0.1115,9.7417,-0.4206,0.1191,9.7969,0.0003,-0.0004,0.0
33269,47.16162,-1.513113,59.8,0.0,30.0,183.2,17 / 22,3326911,2019-08-09 21:09:35:649,-0.4164,0.1222,9.7524,-0.4212,0.1185,9.7969,-0.0003,-0.0001,0.0001
33270,47.16162,-1.513113,59.8,0.0,30.0,183.2,17 / 22,3327010,2019-08-09 21:09:35:748,-0.4128,0.1091,9.7465,-0.4216,0.1193,9.7969,0.0002,0.0004,-0.0003
33271,47.16162,-1.513113,59.8,0.0,30.0,183.2,17 / 22,3327110,2019-08-09 21:09:35:848,-0.4188,0.1198,9.7524,-0.4219,0.119,9.7968,0.0002,-0.0003,-0.0003
33272,47.16162,-1.513113,59.8,0.0,30.0,183.2,17 / 22,3327210,2019-08-09 21:09:35:948,-0.4284,0.1162,9.7453,-0.4232,0.1183,9.7968,0.0002,-0.0002,0.0002
33273,47.16162,-1.513113,59.8,0.0,30.0,183.2,17 / 22,3327311,2019-08-09 21:09:36:049,-0.42,0.1198,9.7441,-0.4233,0.1181,9.7968,-0.0002,0.0003,-0.0005
33274,47.16162,-1.513113,59.8,0.0,30.0,183.2,17 / 22,3327411,2019-08-09 21:09:36:149,-0.4224,0.1091,9.7465,-0.4234,0.118,9.7968,0.0,0.0004,-0.0008
33275,47.16162,-1.513113,59.8,0.0,30.0,183.2,17 / 22,3327510,2019-08-09 21:09:36:248,-0.4224,0.1079,9.7513,-0.4229,0.1177,9.7968,0.0003,-0.0002,0.0002
33276,47.16162,-1.513113,59.8,0.0,30.0,183.2,17 / 22,3327610,2019-08-09 21:09:36:348,-0.432,0.1162,9.7441,-0.4223,0.1172,9.7969,0.0001,0.0003,-0.0002
33277,47.16162,-1.513113,59.8,0.0,30.0,183.2,17 / 22,3327710,2019-08-09 21:09:36:448,-0.4236,0.1043,9.7441,-0.4221,0.118,9.7969,-0.0001,-0.0001,0.0003
33278,47.16162,-1.513113,59.8,0.0,30.0,183.2,17 / 22,3327810,2019-08-09 21:09:36:548,-0.426,0.1222,9.7393,-0.4232,0.1174,9.7968,-0.0002,-0.0003,-0.0005
33279,47.16162,-1.513113,59.8,0.0,30.0,183.2,17 / 22,3327911,2019-08-09 21:09:36:649,-0.414,0.1102,9.7465,-0.4228,0.1174,9.7968,0.0,-0.0003,0.0006
33280,47.16162,-1.513113,59.8,0.0,30.0,183.2,17 / 22,3328011,2019-08-09 21:09:36:749,-0.4236,0.121,9.7548,-0.4233,0.117,9.7968,-0.0006,-0.0001,0.0004
33281,47.16162,-1.513113,59.8,0.0,30.0,183.2,17 / 22,3328110,2019-08-09 21:09:36:848,-0.4128,0.121,9.7405,-0.4237,0.1169,9.7968,0.0001,0.0,-0.0001
33282,47.16162,-1.513113,59.8,0.0,30.0,183.2,17 / 22,3328210,2019-08-09 21:09:36:948,-0.438,0.1055,9.7393,-0.4235,0.1175,9.7968,0.0,0.0001,-0.0005
33283,47.16162,-1.513113,59.8,0.0,30.0,183.2,17 / 22,3328312,2019-08-09 21:09:37:050,-0.4308,0.1258,9.7369,-0.4244,0.1174,9.7968,-0.0001,-0.0002,-0.0004
33284,47.16162,-1.513113,59.8,0.0,30.0,183.2,17 / 22,3328411,2019-08-09 21:09:37:149,-0.414,0.1294,9.7453,-0.4236,0.1181,9.7968,0.0001,-0.0003,-0.0002
33285,47.16162,-1.513113,59.8,0.0,30.0,183.2,17 / 22,3328510,2019-08-09 21:09:37:248,-0.444,0.1115,9.7357,-0.4222,0.1179,9.7968,-0.0004,-0.0003,0.0001
33286,47.16162,-1.513113,59.8,0.0,30.0,183.2,17 / 22,3328611,2019-08-09 21:09:37:349,-0.4284,0.1246,9.7393,-0.4232,0.118,9.7968,0.0001,0.0003,0.0005
33287,47.16162,-1.513113,59.8,0.0,30.0,183.2,17 / 22,3328710,2019-08-09 21:09:37:448,-0.4248,0.1174,9.75,-0.4242,0.1179,9.7968,-0.0002,0.0004,0.0001
33288,47.16162,-1.513113,59.8,0.0,30.0,183.2,17 / 22,3328810,2019-08-09 21:09:37:548,-0.414,0.1162,9.7513,-0.4239,0.118,9.7968,0.0001,0.0,0.0001
33289,47.16162,-1.513113,59.8,0.0,30.0,183.2,17 / 22,3328910,2019-08-09 21:09:37:648,-0.4308,0.1234,9.7465,-0.4241,0.1174,9.7968,0.0005,0.0006,-0.0006
33290,47.16162,-1.513113,59.8,0.0,30.0,183.2,17 / 22,3329010,2019-08-09 21:09:37:748,-0.4057,0.1126,9.7417,-0.4239,0.1183,9.7968,-0.0004,0.0,0.0004
33291,47.16162,-1.513113,59.8,0.0,30.0,183.2,17 / 22,3329111,2019-08-09 21:09:37:849,-0.426,0.1198,9.7357,-0.423,0.1171,9.7968,-0.0002,-0.0003,-0.0007
33292,47.16162,-1.513113,59.8,0.0,30.0,183.2,17 / 22,3329211,2019-08-09 21:09:37:949,-0.4356,0.1198,9.7465,-0.4231,0.1169,9.7968,-0.0002,-0.0009,-0.0002
33293,47.16162,-1.513113,59.8,0.0,30.0,183.2,17 / 22,3329311,2019-08-09 21:09:38:049,-0.42,0.1234,9.7441,-0.4233,0.1167,9.7968,0.0005,0.0,0.0003
33294,47.16162,-1.513113,59.8,0.0,30.0,183.2,17 / 22,3329412,2019-08-09 21:09:38:150,-0.4332,0.1198,9.7369,-0.4238,0.117,9.7968,0.0004,-0.0009,-0.0001
33295,47.16162,-1.513113,59.8,0.0,30.0,183.2,17 / 22,3329510,2019-08-09 21:09:38:248,-0.438,0.1198,9.7608,-0.4227,0.1176,9.7968,0.0,-0.0004,0.0005
33296,47.16162,-1.513113,59.8,0.0,30.0,183.2,17 / 22,3329610,2019-08-09 21:09:38:348,-0.4356,0.1174,9.7429,-0.4234,0.1175,9.7968,-0.0001,0.0004,0.001
33297,47.16162,-1.513113,59.8,0.0,30.0,183.2,17 / 22,3329710,2019-08-09 21:09:38:448,-0.4308,0.1174,9.7465,-0.4245,0.117,9.7968,-0.0004,0.0002,0.0004
33298,47.16162,-1.513113,59.8,0.0,30.0,183.2,17 / 22,3329811,2019-08-09 21:09:38:549,-0.4212,0.1234,9.7524,-0.4252,0.1171,9.7967,-0.0006,-0.0005,0.0004
33299,47.16162,-1.513113,59.8,0.0,30.0,183.2,17 / 22,3329911,2019-08-09 21:09:38:649,-0.4152,0.1162,9.7357,-0.4243,0.1168,9.7968,-0.0004,0.0,0.0002
33300,47.16162,-1.513113,59.8,0.0,30.0,183.2,17 / 22,3330012,2019-08-09 21:09:38:750,-0.4248,0.115,9.7369,-0.4235,0.1168,9.7968,0.0001,0.0004,0.0
33301,47.16162,-1.513113,59.8,0.0,30.0,183.2,17 / 22,3330110,2019-08-09 21:09:38:848,-0.4272,0.1079,9.7524,-0.4233,0.1161,9.7968,0.0,0.0004,0.0002
33302,47.16162,-1.513113,59.8,0.0,30.0,183.2,17 / 22,3330210,2019-08-09 21:09:38:948,-0.432,0.1162,9.75,-0.4236,0.1161,9.7968,0.0003,0.0006,0.0001
33303,47.16162,-1.513113,59.8,0.0,30.0,183.2,17 / 22,3330311,2019-08-09 21:09:39:049,-0.4224,0.1198,9.75,-0.4235,0.1169,9.7968,-0.0004,0.0001,-0.0002
33304,47.16162,-1.513113,59.8,0.0,30.0,183.2,17 / 22,3330411,2019-08-09 21:09:39:149,-0.426,0.1186,9.7393,-0.424,0.117,9.7968,0.0002,0.0,-0.0005
33305,47.16162,-1.513113,59.8,0.0,30.0,183.2,17 / 22,3330510,2019-08-09 21:09:39:248,-0.4116,0.1222,9.7489,-0.4252,0.1176,9.7967,0.0001,0.0005,-0.0004
33306,47.16162,-1.513113,59.8,0.0,30.0,183.2,17 / 22,3330610,2019-08-09 21:09:39:348,-0.4368,0.1186,9.7489,-0.4252,0.118,9.7967,0.0002,0.0011,0.0004
33307,47.16162,-1.513113,59.8,0.0,30.0,183.2,17 / 22,3330711,2019-08-09 21:09:39:449,-0.4021,0.1115,9.7405,-0.4252,0.1175,9.7967,-0.0002,-0.0004,-0.0001
33308,47.16162,-1.513113,59.8,0.0,30.0,183.2,17 / 22,3330810,2019-08-09 21:09:39:548,-0.4152,0.1222,9.7465,-0.4243,0.117,9.7968,-0.0002,0.0004,0.0001
33309,47.16162,-1.513113,59.8,0.0,30.0,183.2,17 / 22,3330910,2019-08-09 21:09:39:648,-0.4284,0.0995,9.7596,-0.4233,0.1165,9.7968,-0.0008,0.0002,-0.0001
33310,47.16162,-1.513113,59.8,0.0,30.0,183.2,17 / 22,3331010,2019-08-09 21:09:39:748,-0.4284,0.1162,9.7489,-0.4239,0.1163,9.7968,0.0001,0.0004,0.0
33311,47.16162,-1.513113,59.8,0.0,30.0,183.2,17 / 22,3331112,2019-08-09 21:09:39:850,-0.4176,0.1138,9.7548,-0.4235,0.1163,9.7968,-0.0003,0.0008,-0.0005
33312,47.16162,-1.513113,59.8,0.0,30.0,183.2,17 / 22,3331210,2019-08-09 21:09:39:948,-0.414,0.127,9.7513,-0.4243,0.1162,9.7968,-0.0001,0.0001,-0.0005
33313,47.16162,-1.513113,59.8,0.0,30.0,183.2,17 / 22,3331310,2019-08-09 21:09:40:048,-0.4272,0.1186,9.7524,-0.425,0.1159,9.7968,0.0001,0.0003,0.0008
33314,47.16162,-1.513113,59.8,0.0,30.0,183.2,17 / 22,3331412,2019-08-09 21:09:40:150,-0.4164,0.1258,9.7453,-0.4251,0.1163,9.7967,0.0001,0.0002,-0.0007
33315,47.16162,-1.513113,59.8,0.0,30.0,183.2,17 / 22,3331510,2019-08-09 21:09:40:248,-0.4332,0.115,9.7465,-0.4252,0.1158,9.7967,0.0007,0.0004,-0.001
33316,47.16162,-1.513113,59.8,0.0,30.0,183.2,17 / 22,3331610,2019-08-09 21:09:40:348,-0.4212,0.1186,9.7513,-0.4252,0.1164,9.7967,0.0001,0.0004,-0.0003
33317,47.16162,-1.513113,59.8,0.0,30.0,183.2,17 / 22,3331710,2019-08-09 21:09:40:448,-0.4104,0.1174,9.7584,-0.4241,0.1167,9.7968,0.0,0.0002,-0.0003
33318,47.16162,-1.513113,59.8,0.0,30.0,183.2,17 / 22,3331810,2019-08-09 21:09:40:548,-0.4104,0.1091,9.7524,-0.4246,0.1173,9.7968,-0.0005,-0.0001,0.0001
33319,47.16162,-1.513113,59.8,0.0,30.0,183.2,17 / 22,3331910,2019-08-09 21:09:40:648,-0.4224,0.121,9.7345,-0.4241,0.116,9.7968,-0.0007,0.0001,-0.0008
33320,47.16162,-1.513113,59.8,0.0,30.0,183.2,17 / 22,3332010,2019-08-09 21:09:40:748,-0.426,0.1019,9.7441,-0.4245,0.1148,9.7968,-0.0004,0.0001,0.0005
33321,47.16162,-1.513113,59.8,0.0,30.0,183.2,17 / 22,3332110,2019-08-09 21:09:40:848,-0.4045,0.121,9.7345,-0.4247,0.1154,9.7968,-0.0001,0.0,0.0002
33322,47.16162,-1.513113,59.8,0.0,30.0,183.2,17 / 22,3332211,2019-08-09 21:09:40:949,-0.4212,0.127,9.7417,-0.4255,0.1158,9.7967,-0.0004,0.0,-0.0006
33323,47.16162,-1.513113,59.8,0.0,30.0,183.2,17 / 22,3332311,2019-08-09 21:09:41:049,-0.4068,0.1019,9.7465,-0.4252,0.1155,9.7967,0.0001,0.0001,-0.0001
33324,47.16162,-1.513113,59.8,0.0,30.0,183.2,17 / 22,3332412,2019-08-09 21:09:41:150,-0.4116,0.1115,9.7333,-0.4244,0.1168,9.7968,-0.0004,-0.0001,0.0001
33325,47.16162,-1.513113,59.8,0.0,30.0,183.2,17 / 22,3332511,2019-08-09 21:09:41:249,-0.4128,0.1031,9.7393,-0.4238,0.1167,9.7968,-0.0004,0.0001,-0.0003
33326,47.16162,-1.513113,59.8,0.0,30.0,183.2,17 / 22,3332611,2019-08-09 21:09:41:349,-0.432,0.1186,9.7441,-0.4234,0.1163,9.7968,0.0005,0.0003,-0.0005
33327,47.16162,-1.513113,59.8,0.0,30.0,183.2,17 / 22,3332711,2019-08-09 21:09:41:449,-0.4296,0.1126,9.7536,-0.4238,0.1166,9.7968,0.0003,-0.0005,0.0004
33328,47.16162,-1.513113,59.8,0.0,30.0,183.2,17 / 22,3332810,2019-08-09 21:09:41:548,-0.4116,0.1198,9.7405,-0.4237,0.1174,9.7968,-0.0002,-0.0005,-0.0013
33329,47.16162,-1.513113,59.8,0.0,30.0,183.2,17 / 22,3332911,2019-08-09 21:09:41:649,-0.4344,0.115,9.7548,-0.4234,0.1189,9.7968,0.0,0.0001,0.0002
33330,47.16162,-1.513113,59.8,0.0,30.0,183.2,17 / 22,3333011,2019-08-09 21:09:41:749,-0.4128,0.1102,9.756,-0.4237,0.1184,9.7968,0.0001,-0.0005,-0.0005
33331,47.16162,-1.513113,59.8,0.0,30.0,183.2,17 / 22,3333112,2019-08-09 21:09:41:850,-0.4356,0.1138,9.7489,-0.424,0.1178,9.7968,-0.0004,-0.0002,-0.0004
33332,47.16162,-1.513113,59.8,0.0,30.0,183.2,17 / 22,3333211,2019-08-09 21:09:41:949,-0.4212,0.1234,9.7477,-0.424,0.1164,9.7968,-0.0001,-0.0003,0.0
33333,47.16162,-1.513113,59.8,0.0,30.0,183.2,17 / 22,3333311,2019-08-09 21:09:42:049,-0.4104,0.1162,9.7548,-0.4248,0.1164,9.7968,0.0,0.0007,0.0004
33334,47.16162,-1.513113,59.8,0.0,30.0,183.2,17 / 22,3333411,2019-08-09 21:09:42:149,-0.4176,0.1186,9.7477,-0.4245,0.1171,9.7968,0.0001,-0.0004,0.0009
33335,47.16162,-1.513113,59.8,0.0,30.0,183.2,17 / 22,3333511,2019-08-09 21:09:42:249,-0.4045,0.1246,9.7453,-0.4244,0.1172,9.7968,-0.0008,0.0001,0.0005
33336,47.16162,-1.513113,59.8,0.0,30.0,183.2,16 / 22,3333610,2019-08-09 21:09:42:348,-0.4272,0.1162,9.7441,-0.4228,0.1184,9.7968,0.0,0.0004,0.0004
33337,47.16162,-1.513113,59.8,0.0,30.0,183.2,16 / 22,3333710,2019-08-09 21:09:42:448,-0.426,0.1258,9.7441,-0.423,0.1183,9.7968,-0.0004,-0.0006,0.0004
33338,47.16162,-1.513113,59.8,0.0,30.0,183.2,16 / 22,3333810,2019-08-09 21:09:42:548,-0.4081,0.1138,9.7453,-0.4238,0.1192,9.7968,-0.0002,0.0002,-0.0002
33339,47.16162,-1.513113,59.8,0.0,30.0,183.2,16 / 22,3333911,2019-08-09 21:09:42:649,-0.426,0.1198,9.7441,-0.4236,0.1194,9.7968,0.0004,0.0004,-0.0001
33340,47.16162,-1.513113,59.8,0.0,30.0,183.2,16 / 22,3334010,2019-08-09 21:09:42:748,-0.4188,0.127,9.7273,-0.4223,0.1197,9.7968,-0.0001,-0.0002,-0.0007
33341,47.16162,-1.513113,59.8,0.0,30.0,183.2,16 / 22,3334111,2019-08-09 21:09:42:849,-0.4188,0.1126,9.7453,-0.4224,0.119,9.7968,0.0006,-0.0002,-0.0003
33342,47.16162,-1.513113,59.8,0.0,30.0,183.2,16 / 22,3334210,2019-08-09 21:09:42:948,-0.4248,0.1162,9.7369,-0.4236,0.1194,9.7968,0.0,0.0002,0.0001
33343,47.16162,-1.513113,59.8,0.0,30.0,183.2,16 / 22,3334310,2019-08-09 21:09:43:048,-0.3961,0.1186,9.7441,-0.4234,0.1193,9.7968,0.0,-0.0005,-0.0002
33344,47.16162,-1.513113,59.8,0.0,30.0,183.2,16 / 22,3334412,2019-08-09 21:09:43:150,-0.432,0.1162,9.7417,-0.4217,0.1196,9.7968,-0.0003,-0.0002,0.0008
33345,47.16162,-1.513113,59.8,0.0,30.0,183.2,16 / 22,3334510,2019-08-09 21:09:43:248,-0.4272,0.1091,9.7477,-0.4233,0.1193,9.7968,-0.0003,0.0007,0.0003
33346,47.16162,-1.513113,59.8,0.0,30.0,183.2,16 / 22,3334610,2019-08-09 21:09:43:348,-0.4128,0.1234,9.7441,-0.424,0.1191,9.7968,-0.0006,-0.0005,0.0
33347,47.16162,-1.513113,59.8,0.0,30.0,183.2,16 / 22,3334710,2019-08-09 21:09:43:448,-0.4128,0.121,9.7453,-0.4234,0.1195,9.7968,-0.0003,0.0,0.0004
33348,47.16162,-1.513113,59.8,0.0,30.0,183.2,16 / 22,3334810,2019-08-09 21:09:43:548,-0.4236,0.1174,9.7417,-0.4234,0.1202,9.7968,-0.0001,-0.0005,0.0002
33349,47.16162,-1.513113,59.8,0.0,30.0,183.2,16 / 22,3334910,2019-08-09 21:09:43:648,-0.4176,0.1354,9.7417,-0.4233,0.1202,9.7968,0.0002,0.0002,0.0004
33350,47.16162,-1.513113,59.8,0.0,30.0,183.2,16 / 22,3335011,2019-08-09 21:09:43:749,-0.4188,0.1174,9.7489,-0.4228,0.1201,9.7968,0.0005,-0.0012,-0.0005
33351,47.16162,-1.513113,59.8,0.0,30.0,183.2,16 / 22,3335110,2019-08-09 21:09:43:848,-0.4188,0.121,9.7489,-0.4225,0.1205,9.7968,0.0002,0.0003,0.0003
33352,47.16162,-1.513113,59.8,0.0,30.0,183.2,16 / 22,3335211,2019-08-09 21:09:43:949,-0.426,0.1198,9.7477,-0.4244,0.1212,9.7967,0.0002,0.0006,-0.0005
33353,47.16162,-1.513113,59.8,0.0,30.0,183.2,16 / 22,3335311,2019-08-09 21:09:44:049,-0.4152,0.1222,9.7357,-0.4236,0.1207,9.7968,0.0001,0.0001,0.0002
33354,47.16162,-1.513113,59.8,0.0,30.0,183.2,16 / 22,3335411,2019-08-09 21:09:44:149,-0.4224,0.1126,9.75,-0.4229,0.1208,9.7968,0.0,0.0003,-0.0005
33355,47.16162,-1.513113,59.8,0.0,30.0,183.2,16 / 22,3335510,2019-08-09 21:09:44:248,-0.4104,0.1067,9.7584,-0.4226,0.1203,9.7968,-0.0003,0.0001,0.0001
33356,47.16162,-1.513113,59.8,0.0,30.0,183.2,17 / 22,3335610,2019-08-09 21:09:44:348,-0.4212,0.1126,9.7513,-0.4227,0.1208,9.7968,-0.0002,0.0,0.0
33357,47.16162,-1.513113,59.8,0.0,30.0,183.2,17 / 22,3335710,2019-08-09 21:09:44:448,-0.4296,0.121,9.7429,-0.4225,0.1214,9.7968,-0.0007,0.0,0.0001
33358,47.16162,-1.513113,59.8,0.0,30.0,183.2,17 / 22,3335810,2019-08-09 21:09:44:548,-0.4152,0.1198,9.7668,-0.4229,0.1198,9.7968,-0.0004,0.0002,-0.0002
33359,47.16162,-1.513113,59.8,0.0,30.0,183.2,17 / 22,3335910,2019-08-09 21:09:44:648,-0.4212,0.1222,9.7405,-0.4217,0.1196,9.7969,-0.0004,-0.0003,0.0003
33360,47.16162,-1.513113,59.8,0.0,30.0,183.2,17 / 22,3336010,2019-08-09 21:09:44:748,-0.4224,0.1186,9.7441,-0.4225,0.12,9.7968,-0.0007,0.0003,-0.0001
33361,47.16162,-1.513113,59.8,0.0,30.0,183.2,17 / 22,3336110,2019-08-09 21:09:44:848,-0.4164,0.1282,9.7477,-0.4223,0.1209,9.7968,-0.0006,0.0002,0.0008
33362,47.16162,-1.513113,59.8,0.0,30.0,183.2,17 / 22,3336210,2019-08-09 21:09:44:948,-0.4392,0.1246,9.7393,-0.4224,0.12,9.7968,-0.0004,0.0004,-0.0005
33363,47.16162,-1.513113,59.8,0.0,30.0,183.2,17 / 22,3336310,2019-08-09 21:09:45:048,-0.4176,0.1162,9.7596,-0.423,0.1197,9.7968,-0.0004,0.0004,-0.0003
33364,47.16162,-1.513113,59.8,0.0,30.0,183.2,17 / 22,3336410,2019-08-09 21:09:45:148,-0.426,0.1198,9.7405,-0.4224,0.1198,9.7968,0.0001,-0.0002,-0.0002
33365,47.16162,-1.513113,59.8,0.0,30.0,183.2,17 / 22,3336511,2019-08-09 21:09:45:249,-0.4128,0.1174,9.7489,-0.422,0.1195,9.7968,0.0005,0.0,0.0003
33366,47.16162,-1.513113,59.8,0.0,30.0,183.2,17 / 22,3336610,2019-08-09 21:09:45:348,-0.414,0.1174,9.7465,-0.4226,0.1197,9.7968,0.0003,0.0004,0.0003
33367,47.16162,-1.513113,59.8,0.0,30.0,183.2,17 / 22,3336710,2019-08-09 21:09:45:448,-0.4224,0.1222,9.7465,-0.4232,0.1189,9.7968,-0.0004,-0.0002,-0.0008
33368,47.16162,-1.513113,59.8,0.0,30.0,183.2,17 / 22,3336810,2019-08-09 21:09:45:548,-0.426,0.1031,9.7584,-0.4237,0.1183,9.7968,-0.0005,0.0004,-0.0002
33369,47.16162,-1.513113,59.8,0.0,30.0,183.2,17 / 22,3336910,2019-08-09 21:09:45:648,-0.4236,0.1222,9.7357,-0.424,0.1175,9.7968,-0.0003,0.0,-0.0006
33370,47.16162,-1.513113,59.8,0.0,30.0,183.2,17 / 22,3337010,2019-08-09 21:09:45:748,-0.42,0.1102,9.7441,-0.4232,0.1176,9.7968,-0.0003,0.0,-0.0006
33371,47.16162,-1.513113,59.8,0.0,30.0,183.2,17 / 22,3337111,2019-08-09 21:09:45:849,-0.4128,0.1091,9.7524,-0.4231,0.1187,9.7968,-0.0003,0.0003,-0.0005
33372,47.16162,-1.513113,59.8,0.0,30.0,183.2,17 / 22,3337211,2019-08-09 21:09:45:949,-0.4284,0.1258,9.7417,-0.4224,0.1188,9.7968,0.0002,-0.0001,-0.0004
33373,47.16162,-1.513113,59.8,0.0,30.0,183.2,17 / 22,3337311,2019-08-09 21:09:46:049,-0.4308,0.121,9.7429,-0.4223,0.119,9.7968,-0.0003,0.0002,0.0007
