,GPS LATITUDE (degrees),GPS LONGITUDE (degrees), GPS ALTITUDE (m),GPS SPEED (Kmh),GPS ACCURACY (m),GPS ORIENTATION (Â°), SATELLITES IN RANGE, TIME SINCE START (ms), DATE (YYYY-MO-DD HH-MI-SS_SSS),ACCELEROMETER X (m/s²) , ACCELEROMETER Y (m/s²), ACCELEROMETER Z (m/s²), GRAVITY X (m/s²), GRAVITY Y (m/s²), GRAVITY Z (m/s²), GYROSCOPE Yaw (rad/s), GYROSCOPE Pitch (rad/s), GYROSCOPE Roll (rad/s)
35717,48.078957,-1.694373,90.01,20.34,3.216,116.5,17 / 22,3572443,2019-08-18 16:13:14:980,-1.6262,1.4054,9.9577,-0.9257,0.6294,9.7426,-0.0328,0.008,0.1153
35718,48.078957,-1.694373,90.01,20.34,3.216,116.5,17 / 22,3572544,2019-08-18 16:13:15:081,-1.479,1.4994,9.179,-0.9282,0.6273,9.7424,-0.0423,-0.03,0.1171
35719,48.078957,-1.694373,90.01,20.34,3.216,116.5,17 / 22,3572643,2019-08-18 16:13:15:180,-1.5831,1.4383,9.1036,-0.9038,0.6181,9.7453,-0.033,-0.0269,0.1142
35720,48.078957,-1.694373,90.01,20.34,3.216,116.5,17 / 22,3572743,2019-08-18 16:13:15:280,-1.2342,1.2211,9.5615,-0.909,0.6139,9.7451,-0.0228,0.0254,0.1089
35721,48.078957,-1.694373,90.01,20.34,3.216,116.5,17 / 22,3572844,2019-08-18 16:13:15:381,-1.3497,1.4042,9.8045,-0.9381,0.6366,9.7409,0.0197,-0.0077,0.1152
35722,48.078957,-1.694373,90.01,20.34,3.216,116.5,17 / 22,3572943,2019-08-18 16:13:15:480,-1.4658,1.2306,10.6155,-0.9351,0.6626,9.7395,0.0234,-0.0103,0.1086
35723,48.078957,-1.694373,90.01,20.34,3.216,116.5,17 / 22,3573044,2019-08-18 16:13:15:581,-1.3024,1.2252,11.0722,-0.915,0.7055,9.7383,-0.0046,-0.0218,0.0984
35724,48.078957,-1.694373,90.01,20.34,3.216,116.5,17 / 22,3573143,2019-08-18 16:13:15:680,-1.3305,1.1043,11.0692,-0.9068,0.7156,9.7384,-0.0183,-0.0223,0.0958
35725,48.078957,-1.694373,90.01,20.34,3.216,116.5,17 / 22,3573243,2019-08-18 16:13:15:780,-1.3251,1.1373,10.2211,-0.8826,0.7207,9.7402,-0.0004,-0.0084,0.0986
35726,48.078957,-1.694373,90.01,20.34,3.216,116.5,17 / 22,3573343,2019-08-18 16:13:15:880,-1.2306,0.7889,9.6273,-0.8783,0.7342,9.7396,0.0032,-0.0051,0.0999
35727,48.078957,-1.694373,90.01,20.34,3.216,116.5,17 / 22,3573443,2019-08-18 16:13:15:980,-1.1941,1.0636,9.6728,-0.875,0.754,9.7384,-0.0101,-0.0118,0.1
35728,48.078957,-1.694373,90.01,20.34,3.216,116.5,17 / 22,3573543,2019-08-18 16:13:16:080,-1.3814,1.318,10.1098,-0.8664,0.7583,9.7388,-0.0174,-0.0164,0.0968
35729,48.078957,-1.694373,90.01,20.34,3.216,116.5,17 / 22,3573643,2019-08-18 16:13:16:180,-1.3652,1.1492,9.9942,-0.8596,0.7609,9.7392,-0.0153,-0.0128,0.0955
35730,48.078957,-1.694373,90.01,20.34,3.216,116.5,17 / 22,3573743,2019-08-18 16:13:16:280,-1.2401,1.2055,9.7674,-0.8538,0.7645,9.7395,-0.0067,-0.0104,0.095
35731,48.078957,-1.694373,90.01,20.34,3.216,116.5,17 / 22,3573843,2019-08-18 16:13:16:380,-1.1276,0.7045,9.6752,-0.845,0.7746,9.7394,-0.0063,-0.0071,0.0945
35732,48.078957,-1.694373,90.01,20.34,3.216,116.5,17 / 22,3573943,2019-08-18 16:13:16:480,-1.3832,1.0092,9.8937,-0.8436,0.7822,9.7389,0.0031,-0.0044,0.0932
35733,48.078957,-1.694373,90.01,20.34,3.216,116.5,17 / 22,3574044,2019-08-18 16:13:16:581,-1.2994,0.8212,10.1152,-0.8282,0.7901,9.7396,-0.0116,-0.0129,0.085
35734,48.078957,-1.694373,90.01,20.34,3.216,116.5,17 / 22,3574143,2019-08-18 16:13:16:680,-1.1306,0.9074,9.5232,-0.8198,0.7864,9.7406,-0.0173,-0.0121,0.0824
35735,48.078957,-1.694373,90.01,20.34,3.216,116.5,17 / 22,3574243,2019-08-18 16:13:16:780,-1.1294,1.0517,10.1163,-0.8143,0.7753,9.742,-0.0152,-0.0054,0.0791
35736,48.078957,-1.694373,90.01,20.34,3.216,116.5,17 / 22,3574343,2019-08-18 16:13:16:880,-1.2647,0.7183,9.7608,-0.8109,0.7707,9.7426,-0.0082,-0.0015,0.0784
35737,48.078957,-1.694373,90.01,20.34,3.216,116.5,17 / 22,3574443,2019-08-18 16:13:16:980,-1.06,0.7458,9.3544,-0.8085,0.7712,9.7428,-0.0054,-0.0054,0.0767
35738,48.078957,-1.694373,90.01,20.34,3.216,116.5,17 / 22,3574543,2019-08-18 16:13:17:080,-1.1647,0.7937,9.8901,-0.8106,0.7746,9.7423,-0.0058,-0.0126,0.0725
35739,48.078957,-1.694373,90.01,20.34,3.216,116.5,17 / 22,3574643,2019-08-18 16:13:17:180,-1.0187,0.6955,9.8835,-0.8008,0.7806,9.7427,-0.0008,-0.0106,0.0684
35740,48.078957,-1.694373,90.01,20.34,3.216,116.5,17 / 22,3574744,2019-08-18 16:13:17:281,-1.3473,0.516,9.616,-0.7889,0.7794,9.7437,-0.0033,-0.0199,0.0695
35741,48.078957,-1.694373,90.01,20.34,3.216,116.5,17 / 22,3574843,2019-08-18 16:13:17:380,-0.9923,0.5932,9.9769,-0.7673,0.7727,9.746,-0.0149,-0.007,0.0669
35742,48.078957,-1.694373,90.01,20.34,3.216,116.5,17 / 22,3574943,2019-08-18 16:13:17:480,-0.9816,0.5543,9.6543,-0.7687,0.7658,9.7464,-0.0143,-0.001,0.0659
35743,48.078957,-1.694373,90.01,20.34,3.216,116.5,17 / 22,3575043,2019-08-18 16:13:17:580,-0.9014,0.8936,9.8302,-0.7597,0.751,9.7483,-0.0127,-0.0128,0.0685
35744,48.078957,-1.694373,90.01,20.34,3.216,116.5,17 / 22,3575143,2019-08-18 16:13:17:680,-0.9337,0.8464,10.0547,-0.7557,0.749,9.7488,-0.0071,0.0001,0.0675
35745,48.078957,-1.694373,90.01,20.34,3.216,116.5,17 / 22,3575244,2019-08-18 16:13:17:781,-0.9678,0.5926,9.4962,-0.7632,0.7409,9.7488,-0.0041,0.0046,0.0695
35746,48.078957,-1.694373,90.01,20.34,3.216,116.5,17 / 22,3575343,2019-08-18 16:13:17:880,-1.1162,0.7045,10.0553,-0.7657,0.7427,9.7485,-0.0073,0.0025,0.0688
35747,48.078957,-1.694373,90.01,20.34,3.216,116.5,17 / 22,3575443,2019-08-18 16:13:17:980,-1.0247,0.7069,10.2079,-0.7648,0.7412,9.7486,0.0115,0.0178,0.0673
35748,48.078957,-1.694373,90.01,20.34,3.216,116.5,17 / 22,3575543,2019-08-18 16:13:18:080,-0.875,0.5082,9.2526,-0.7935,0.7585,9.745,0.0136,0.0179,0.0668
35749,48.078957,-1.694373,90.01,20.34,3.216,116.5,17 / 22,3575643,2019-08-18 16:13:18:180,-1.1127,0.4501,10.187,-0.7988,0.7675,9.7439,-0.0001,-0.0175,0.0526
35750,48.078957,-1.694373,90.01,20.34,3.216,116.5,17 / 22,3575744,2019-08-18 16:13:18:281,-1.1121,0.495,10.4886,-0.7813,0.7622,9.7457,-0.0022,-0.0144,0.0443
35751,48.078957,-1.694373,90.01,20.34,3.216,116.5,17 / 22,3575844,2019-08-18 16:13:18:381,-0.9145,0.2999,10.0595,-0.7728,0.7577,9.7467,0.0072,-0.0031,0.0405
35752,48.078957,-1.694373,90.01,20.34,3.216,116.5,17 / 22,3575943,2019-08-18 16:13:18:480,-0.6727,0.3352,9.7878,-0.7704,0.7511,9.7474,-0.0015,-0.0082,0.0413
35753,48.078957,-1.694373,90.01,20.34,3.216,116.5,17 / 22,3576043,2019-08-18 16:13:18:580,-0.8242,0.231,10.0744,-0.7653,0.7442,9.7484,-0.0024,-0.0137,0.041
35754,48.078957,-1.694373,90.01,20.34,3.216,116.5,15 / 20,3576143,2019-08-18 16:13:18:680,-0.9145,0.173,9.6471,-0.7475,0.7349,9.7505,0.0106,-0.0097,0.0397
35755,48.078957,-1.694373,90.01,20.34,3.216,116.5,15 / 20,3576243,2019-08-18 16:13:18:780,-0.8289,0.2604,9.9021,-0.7453,0.7369,9.7505,0.0129,0.0042,0.039
35756,48.078957,-1.694373,90.01,20.34,3.216,116.5,15 / 20,3576343,2019-08-18 16:13:18:880,-0.7858,0.234,9.9296,-0.7512,0.7383,9.7499,0.0071,0.0052,0.0387
35757,48.078957,-1.694373,90.01,20.34,3.216,116.5,15 / 20,3576443,2019-08-18 16:13:18:980,-0.784,0.4794,10.1092,-0.7513,0.7362,9.7501,0.0045,0.0058,0.0385
35758,48.078957,-1.694373,90.01,20.34,3.216,116.5,15 / 20,3576543,2019-08-18 16:13:19:080,-0.6302,0.2825,10.2289,-0.7677,0.7403,9.7485,0.0121,0.0091,0.0366
35759,48.078957,-1.694373,90.01,20.34,3.216,116.5,15 / 20,3576643,2019-08-18 16:13:19:180,-0.726,0.2472,9.7788,-0.7671,0.7396,9.7486,0.0126,0.0042,0.0312
35760,48.078957,-1.694373,90.01,20.34,3.216,116.5,15 / 20,3576743,2019-08-18 16:13:19:280,-0.4333,0.0694,9.6459,-0.77,0.7339,9.7488,0.009,0.0173,0.0177
35761,48.078957,-1.694373,90.01,20.34,3.216,116.5,15 / 20,3576843,2019-08-18 16:13:19:380,-0.4572,-0.0886,9.9739,-0.775,0.7299,9.7487,0.0103,-0.0089,0.0119
35762,48.078957,-1.694373,90.01,20.34,3.216,116.5,15 / 20,3576944,2019-08-18 16:13:19:481,-0.6685,-0.1281,9.8189,-0.7641,0.7139,9.7507,0.0094,-0.0032,0.0106
35763,48.078957,-1.694373,90.01,20.34,3.216,116.5,15 / 20,3577043,2019-08-18 16:13:19:580,-0.5698,-0.1963,10.1271,-0.7533,0.6997,9.7526,0.0009,-0.0076,0.0097
35764,48.078957,-1.694373,90.01,20.34,3.216,116.5,16 / 22,3577144,2019-08-18 16:13:19:681,-0.705,-0.0982,9.7285,-0.7388,0.6779,9.7553,0.007,-0.0045,0.0097
35765,48.078957,-1.694373,90.01,20.34,3.216,116.5,16 / 22,3577243,2019-08-18 16:13:19:780,-0.3854,-0.2394,10.0056,-0.7321,0.6676,9.7565,0.0103,-0.0017,0.0081
35766,48.078957,-1.694373,90.01,20.34,3.216,116.5,16 / 22,3577343,2019-08-18 16:13:19:880,-0.6715,-0.2346,10.1193,-0.7122,0.6328,9.7603,-0.0101,-0.0053,0.0044
35767,48.078957,-1.694373,90.01,20.34,3.216,116.5,16 / 22,3577443,2019-08-18 16:13:19:980,-0.3064,-0.7661,10.005,-0.7077,0.6155,9.7617,0.0034,-0.0094,0.0044
35768,48.078957,-1.694373,90.01,20.34,3.216,116.5,16 / 22,3577543,2019-08-18 16:13:20:080,-0.6434,-0.1383,9.8901,-0.6859,0.5913,9.7647,0.0078,-0.0058,0.0071
35769,48.078957,-1.694373,90.01,20.34,3.216,116.5,16 / 22,3577643,2019-08-18 16:13:20:180,-0.3118,-0.1832,9.9386,-0.6783,0.5887,9.7654,0.0125,0.0015,0.0061
35770,48.078957,-1.694373,90.01,20.34,3.216,116.5,16 / 22,3577744,2019-08-18 16:13:20:281,-0.4399,-0.2945,9.6034,-0.6842,0.5807,9.7655,0.0143,0.0248,0.006
35771,48.078957,-1.694373,90.01,20.34,3.216,116.5,16 / 22,3577844,2019-08-18 16:13:20:381,-0.295,-0.094,9.1126,-0.6955,0.5777,9.7649,0.0108,0.0265,0.0069
35772,48.078957,-1.694373,90.01,20.34,3.216,116.5,16 / 22,3577943,2019-08-18 16:13:20:480,-0.5536,-0.0892,9.2305,-0.7109,0.5838,9.7634,0.0223,0.0332,0.0119
35773,48.078957,-1.694373,90.01,20.34,3.216,116.5,16 / 22,3578044,2019-08-18 16:13:20:581,-0.6063,0.2173,9.9152,-0.7239,0.5894,9.7621,0.0131,0.0163,0.0152
35774,48.078957,-1.694373,90.01,20.34,3.216,116.5,16 / 23,3578143,2019-08-18 16:13:20:680,-0.547,0.0006,9.4939,-0.7171,0.5862,9.7628,-0.0078,-0.0271,0.0152
35775,48.078957,-1.694373,90.01,20.34,3.216,116.5,16 / 23,3578243,2019-08-18 16:13:20:780,-0.9373,0.2735,9.5968,-0.6967,0.5708,9.7652,-0.0156,-0.0132,0.0129
35776,48.078957,-1.694373,90.01,20.34,3.216,116.5,16 / 23,3578343,2019-08-18 16:13:20:880,-0.7164,-0.1598,9.7111,-0.6775,0.5507,9.7677,-0.01,-0.0162,0.0165
35777,48.078957,-1.694373,90.01,20.34,3.216,116.5,16 / 23,3578444,2019-08-18 16:13:20:981,-0.6159,0.1215,10.5635,-0.6565,0.5347,9.77,-0.006,-0.0237,0.0172
35778,48.078957,-1.694373,90.01,20.34,3.216,116.5,16 / 23,3578543,2019-08-18 16:13:21:080,-0.5213,0.2676,10.0858,-0.6407,0.5235,9.7717,0.0015,-0.0032,0.0166
35779,48.078957,-1.694373,90.01,20.34,3.216,116.5,16 / 23,3578643,2019-08-18 16:13:21:180,-0.5321,0.0796,10.1972,-0.6359,0.5127,9.7726,-0.014,-0.0149,0.0148
35780,48.078957,-1.694373,90.01,20.34,3.216,116.5,16 / 23,3578744,2019-08-18 16:13:21:281,-0.626,0.0724,9.8979,-0.6244,0.4982,9.7741,-0.002,0.0037,0.0088
35781,48.078957,-1.694373,90.01,20.34,3.216,116.5,16 / 23,3578843,2019-08-18 16:13:21:380,-0.7194,-0.1245,10.5329,-0.6249,0.4761,9.7751,0.0042,-0.0041,0.0105
35782,48.078957,-1.694373,90.01,20.34,3.216,116.5,16 / 23,3578944,2019-08-18 16:13:21:481,-0.4525,-0.3466,10.7227,-0.6259,0.4768,9.775,0.0168,-0.0141,0.0106
35783,48.078957,-1.694373,90.01,20.34,3.216,116.5,16 / 23,3579043,2019-08-18 16:13:21:580,-0.7643,-0.264,10.5042,-0.6092,0.4755,9.7762,0.0061,-0.0217,0.009
35784,48.078907,-1.691763,80.08,24.37,4.288,81.2,17 / 24,3579143,2019-08-18 16:13:21:680,-1.142,-0.0844,10.6179,-0.5861,0.4543,9.7786,-0.0147,-0.0365,0.0041
35785,48.078907,-1.691763,80.08,24.37,4.288,81.2,17 / 24,3579243,2019-08-18 16:13:21:780,-0.711,-0.4615,9.8847,-0.5603,0.4215,9.7816,-0.0168,-0.0221,0.0048
35786,48.078907,-1.691763,80.08,24.37,4.288,81.2,17 / 24,3579344,2019-08-18 16:13:21:881,-0.9361,-0.3843,9.6615,-0.5504,0.394,9.7833,-0.0134,-0.0099,0.0053
35787,48.078907,-1.691763,80.08,24.37,4.288,81.2,17 / 24,3579443,2019-08-18 16:13:21:980,-0.6667,-0.1431,10.2636,-0.5384,0.3658,9.785,-0.0051,-0.0177,0.0051
35788,48.078907,-1.691763,80.08,24.37,4.288,81.2,17 / 24,3579543,2019-08-18 16:13:22:080,-0.6901,-0.3478,10.5778,-0.5164,0.3493,9.7868,-0.0092,-0.0223,0.0049
35789,48.078907,-1.691763,80.08,24.37,4.288,81.2,17 / 24,3579643,2019-08-18 16:13:22:180,0.0138,-0.097,9.6633,-0.4969,0.3171,9.7889,-0.0088,0.0009,0.0035
35790,48.078907,-1.691763,80.08,24.37,4.288,81.2,17 / 24,3579743,2019-08-18 16:13:22:280,-0.2124,-0.1742,8.7523,-0.5,0.3052,9.7891,0.0011,0.0235,0.0043
35791,48.078907,-1.691763,80.08,24.37,4.288,81.2,17 / 24,3579844,2019-08-18 16:13:22:381,-0.7619,-0.2328,8.8552,-0.5351,0.3017,9.7874,0.0106,0.0272,0.0065
35792,48.078907,-1.691763,80.08,24.37,4.288,81.2,17 / 24,3579943,2019-08-18 16:13:22:480,-0.4878,-0.0036,10.1852,-0.5433,0.3014,9.7869,0.0097,-0.0338,0.001
35793,48.078907,-1.691763,80.08,24.37,4.288,81.2,17 / 24,3580044,2019-08-18 16:13:22:581,-0.4973,-0.1311,11.0112,-0.5014,0.2991,9.7893,-0.0038,-0.0553,-0.005
35794,48.078907,-1.691763,80.08,24.37,4.288,81.2,15 / 22,3580143,2019-08-18 16:13:22:680,-0.7607,-0.1796,11.8085,-0.4648,0.2862,9.7914,-0.0138,-0.0605,-0.0104
35795,48.078907,-1.691763,80.08,24.37,4.288,81.2,15 / 22,3580244,2019-08-18 16:13:22:781,0.0036,-0.4573,9.5489,-0.4101,0.2611,9.7946,0.0125,-0.0235,-0.0133
35796,48.078907,-1.691763,80.08,24.37,4.288,81.2,15 / 22,3580343,2019-08-18 16:13:22:880,0.0144,-0.674,9.1108,-0.3986,0.2536,9.7953,-0.0085,-0.0023,-0.0117
35797,48.078907,-1.691763,80.08,24.37,4.288,81.2,15 / 22,3580443,2019-08-18 16:13:22:980,0.1168,-0.6105,8.7175,-0.4408,0.2165,9.7943,0.0043,0.0769,-0.0135
35798,48.078907,-1.691763,80.08,24.37,4.288,81.2,15 / 22,3580543,2019-08-18 16:13:23:080,-0.5788,-0.3873,10.5802,-0.4486,0.215,9.794,0.0091,-0.0398,-0.019
35799,48.078907,-1.691763,80.08,24.37,4.288,81.2,15 / 22,3580643,2019-08-18 16:13:23:180,-0.4926,-0.5992,10.7203,-0.4082,0.199,9.7961,0.0085,-0.0324,-0.0202
35800,48.078907,-1.691763,80.08,24.37,4.288,81.2,15 / 22,3580743,2019-08-18 16:13:23:280,-0.1101,-1.3168,11.2111,-0.3944,0.1888,9.7969,0.0077,-0.0144,-0.0153
35801,48.078907,-1.691763,80.08,24.37,4.288,81.2,15 / 22,3580844,2019-08-18 16:13:23:381,-0.6661,-0.5656,9.6417,-0.4146,0.1813,9.7962,0.0177,0.0282,-0.0082
35802,48.078907,-1.691763,80.08,24.37,4.288,81.2,15 / 22,3580943,2019-08-18 16:13:23:480,-0.5021,-0.3017,9.5956,-0.4261,0.1823,9.7957,0.0158,0.0162,-0.0062
35803,48.078907,-1.691763,80.08,24.37,4.288,81.2,15 / 22,3581044,2019-08-18 16:13:23:581,-0.6296,-0.4154,9.1024,-0.4224,0.1826,9.7958,0.0099,-0.0125,-0.0042
35804,48.078907,-1.691763,80.08,24.37,4.288,81.2,16 / 23,3581143,2019-08-18 16:13:23:680,-0.6673,-0.4094,9.583,-0.4209,0.1802,9.796,0.0014,-0.0062,-0.0031
35805,48.078907,-1.691763,80.08,24.37,4.288,81.2,16 / 23,3581243,2019-08-18 16:13:23:780,-0.6763,0.0204,9.7446,-0.4294,0.1645,9.7959,-0.0046,0.0023,0.0042
35806,48.078907,-1.691763,80.08,24.37,4.288,81.2,16 / 23,3581343,2019-08-18 16:13:23:880,-0.896,-0.6213,10.8939,-0.4332,0.1577,9.7958,-0.0079,-0.0065,0.0051
35807,48.078907,-1.691763,80.08,24.37,4.288,81.2,16 / 23,3581444,2019-08-18 16:13:23:981,-0.4249,0.3681,9.865,-0.4278,0.1246,9.7965,-0.0312,0.002,0.0065
35808,48.078907,-1.691763,80.08,24.37,4.288,81.2,16 / 23,3581543,2019-08-18 16:13:24:080,-0.6033,0.0796,8.6744,-0.4391,0.1021,9.7963,-0.0417,0.0115,0.0072
35809,48.078907,-1.691763,80.08,24.37,4.288,81.2,16 / 23,3581644,2019-08-18 16:13:24:181,-0.5728,0.1209,9.8937,-0.4553,0.0737,9.7958,0.0034,-0.0175,0.0112
35810,48.078907,-1.691763,80.08,24.37,4.288,81.2,16 / 23,3581743,2019-08-18 16:13:24:280,-0.7086,0.0257,9.6285,-0.4515,0.0771,9.7959,0.0117,-0.0273,0.0115
35811,48.078907,-1.691763,80.08,24.37,4.288,81.2,16 / 23,3581843,2019-08-18 16:13:24:380,-0.8846,0.0676,10.0062,-0.4341,0.0833,9.7967,0.0001,-0.0402,0.0065
35812,48.078907,-1.691763,80.08,24.37,4.288,81.2,16 / 23,3581943,2019-08-18 16:13:24:480,-1.0402,-0.8948,10.3354,-0.3755,0.074,9.7992,0.0096,-0.0563,0.0082
35813,48.078907,-1.691763,80.08,24.37,4.288,81.2,16 / 23,3582043,2019-08-18 16:13:24:580,-1.0468,-0.149,9.6992,-0.3704,0.0745,9.7994,0.0016,0.0159,0.0086
35814,48.078907,-1.691763,80.08,24.37,4.288,81.2,16 / 24,3582143,2019-08-18 16:13:24:680,-0.8355,-0.4304,9.4131,-0.3966,0.0661,9.7984,0.0004,-0.002,0.0063
35815,48.078907,-1.691763,80.08,24.37,4.288,81.2,16 / 24,3582243,2019-08-18 16:13:24:780,-0.9121,-0.5231,9.434,-0.4054,0.064,9.7981,0.0004,-0.002,0.0063
35816,48.078907,-1.691763,80.08,24.37,4.288,81.2,16 / 24,3582344,2019-08-18 16:13:24:881,-0.5386,-0.3418,10.032,-0.4123,0.0571,9.7978,0.0039,-0.0069,0.0043
35817,48.078907,-1.691763,80.08,24.37,4.288,81.2,16 / 24,3582443,2019-08-18 16:13:24:980,-1.0223,-0.6093,9.8386,-0.4184,0.0568,9.7976,-0.0146,-0.0245,-0.003
35818,48.078907,-1.691763,80.08,24.37,4.288,81.2,16 / 24,3582543,2019-08-18 16:13:25:080,-0.96,-0.3909,10.1582,-0.4001,0.0162,9.7985,-0.0188,-0.0107,-0.0048
35819,48.078907,-1.691763,80.08,24.37,4.288,81.2,16 / 24,3582643,2019-08-18 16:13:25:180,-0.9403,-0.4585,9.9152,-0.4057,-0.0019,9.7983,0.0155,0.0052,-0.0049
35820,48.078907,-1.691763,80.08,24.37,4.288,81.2,16 / 24,3582743,2019-08-18 16:13:25:280,-1.0444,-0.6003,9.5381,-0.4233,-0.0042,9.7975,-0.0089,-0.0182,-0.0024
35821,48.078907,-1.691763,80.08,24.37,4.288,81.2,16 / 24,3582843,2019-08-18 16:13:25:380,-1.1366,-0.4154,9.4957,-0.4201,-0.0189,9.7976,-0.0177,-0.0104,-0.0071
35822,48.078907,-1.691763,80.08,24.37,4.288,81.2,16 / 24,3582943,2019-08-18 16:13:25:480,-1.312,-0.4519,10.096,-0.4274,-0.0509,9.7972,-0.0069,-0.004,-0.0053
35823,48.078907,-1.691763,80.08,24.37,4.288,81.2,16 / 24,3583043,2019-08-18 16:13:25:580,-0.7697,-0.4375,9.9763,-0.4369,-0.0642,9.7967,-0.0002,-0.002,-0.004
35824,48.078907,-1.691763,80.08,24.37,4.288,81.2,14 / 23,3583143,2019-08-18 16:13:25:680,-1.0462,-0.6225,10.1774,-0.4582,-0.0868,9.7956,-0.0061,-0.002,-0.0027
35825,48.078907,-1.691763,80.08,24.37,4.288,81.2,14 / 23,3583243,2019-08-18 16:13:25:780,-1.1653,-0.5938,9.7865,-0.4624,-0.1001,9.7952,-0.0092,-0.0202,-0.0026
35826,48.078907,-1.691763,80.08,24.37,4.288,81.2,14 / 23,3583345,2019-08-18 16:13:25:882,-1.2671,-0.7997,10.0798,-0.4662,-0.1297,9.7947,-0.0134,-0.0117,-0.0045
35827,48.078907,-1.691763,80.08,24.37,4.288,81.2,14 / 23,3583443,2019-08-18 16:13:25:980,-1.1156,-0.9882,9.361,-0.4741,-0.1457,9.7941,-0.0147,-0.0042,-0.004
35828,48.078907,-1.691763,80.08,24.37,4.288,81.2,14 / 23,3583543,2019-08-18 16:13:26:080,-1.2156,-0.9463,9.44,-0.4897,-0.1809,9.7927,-0.002,-0.004,-0.005
35829,48.078907,-1.691763,80.08,24.37,4.288,81.2,14 / 23,3583643,2019-08-18 16:13:26:180,-1.3934,-0.6889,10.0074,-0.5035,-0.1855,9.792,0.0291,0.0038,-0.0017
35830,48.078907,-1.691763,80.08,24.37,4.288,81.2,14 / 23,3583744,2019-08-18 16:13:26:281,-1.522,-0.7901,10.4551,-0.5287,-0.1741,9.7908,0.0244,-0.0247,-0.0025
35831,48.078907,-1.691763,80.08,24.37,4.288,81.2,14 / 23,3583843,2019-08-18 16:13:26:380,-1.2635,-0.999,10.5108,-0.5195,-0.1755,9.7913,0.0043,-0.0402,-0.0045
35832,48.078907,-1.691763,80.08,24.37,4.288,81.2,14 / 23,3583943,2019-08-18 16:13:26:480,-1.7226,-0.8775,9.0695,-0.5118,-0.2379,9.7904,-0.0522,-0.0245,-0.0076
35833,48.078907,-1.691763,80.08,24.37,4.288,81.2,14 / 23,3584043,2019-08-18 16:13:26:580,-1.4975,-0.8517,8.702,-0.5278,-0.2837,9.7883,-0.0532,0.016,-0.0057
35834,48.078907,-1.691763,80.08,24.37,4.288,81.2,13 / 23,3584143,2019-08-18 16:13:26:680,-1.3844,-1.169,9.5603,-0.6324,-0.2924,9.7819,0.0284,0.028,0.0078
35835,48.078907,-1.691763,80.08,24.37,4.288,81.2,13 / 23,3584243,2019-08-18 16:13:26:780,-1.4724,-0.6817,10.3947,-0.6536,-0.2643,9.7813,0.031,-0.0075,0.0032
35836,48.078907,-1.691763,80.08,24.37,4.288,81.2,13 / 23,3584343,2019-08-18 16:13:26:880,-1.6406,-0.5728,10.1588,-0.6719,-0.2675,9.7799,-0.0084,-0.0116,0.0012
35837,48.078907,-1.691763,80.08,24.37,4.288,81.2,13 / 23,3584443,2019-08-18 16:13:26:980,-2.0901,-0.3286,9.6094,-0.696,-0.2951,9.7775,-0.0125,0.0069,0.0032
35838,48.078907,-1.691763,80.08,24.37,4.288,81.2,13 / 23,3584544,2019-08-18 16:13:27:081,-1.7842,-1.1492,9.9308,-0.7367,-0.3157,9.7738,0.001,-0.0111,-0.001
35839,48.078907,-1.691763,80.08,24.37,4.288,81.2,13 / 23,3584643,2019-08-18 16:13:27:180,-1.8291,-0.8242,9.9122,-0.7462,-0.3282,9.7727,-0.0007,-0.0203,0.0015
35840,48.078907,-1.691763,80.08,24.37,4.288,81.2,13 / 23,3584743,2019-08-18 16:13:27:280,-1.6178,-0.7207,10.5395,-0.7572,-0.339,9.7715,-0.0115,-0.0172,0.0008
35841,48.078907,-1.691763,80.08,24.37,4.288,81.2,13 / 23,3584843,2019-08-18 16:13:27:380,-2.0757,-0.7171,9.8117,-0.7692,-0.3595,9.7698,-0.013,-0.0067,0.0006
35842,48.078907,-1.691763,80.08,24.37,4.288,81.2,13 / 23,3584943,2019-08-18 16:13:27:480,-1.7327,-1.2109,9.2634,-0.8134,-0.4014,9.7646,-0.0195,0.013,0.0018
35843,48.078907,-1.691763,80.08,24.37,4.288,81.2,13 / 23,3585043,2019-08-18 16:13:27:580,-2.0135,-0.8356,8.8349,-0.8341,-0.423,9.7619,-0.0196,0.0065,0.0
35844,48.078907,-1.691763,80.08,24.37,4.288,81.2,14 / 22,3585143,2019-08-18 16:13:27:680,-1.7705,-0.9355,9.9745,-0.883,-0.4469,9.7566,0.0131,0.0115,0.0019
35845,48.078907,-1.691763,80.08,24.37,4.288,81.2,14 / 22,3585243,2019-08-18 16:13:27:780,-1.8387,-0.975,10.1074,-0.8962,-0.4532,9.7551,-0.0011,-0.0166,-0.0023
35846,48.078907,-1.691763,80.08,24.37,4.288,81.2,14 / 22,3585343,2019-08-18 16:13:27:880,-1.792,-0.9236,10.2019,-0.9066,-0.4719,9.7532,-0.0037,-0.0111,-0.0048
35847,48.078907,-1.691763,80.08,24.37,4.288,81.2,14 / 22,3585443,2019-08-18 16:13:27:980,-1.5664,-0.9738,9.8518,-0.91,-0.4846,9.7523,-0.0034,0.0009,0.0003
35848,48.078907,-1.691763,80.08,24.37,4.288,81.2,14 / 22,3585543,2019-08-18 16:13:28:080,-1.2366,-0.5393,9.7854,-0.9311,-0.4814,9.7505,0.0124,0.0069,0.0033
35849,48.078907,-1.691763,80.08,24.37,4.288,81.2,14 / 22,3585643,2019-08-18 16:13:28:180,-1.1162,-0.6009,9.7189,-0.933,-0.4746,9.7506,0.0132,-0.0148,0.0039
35850,48.078907,-1.691763,80.08,24.37,4.288,81.2,14 / 22,3585744,2019-08-18 16:13:28:281,-1.0241,-0.6219,9.8296,-0.9187,-0.4585,9.7528,0.0082,-0.0115,0.002
35851,48.078907,-1.691763,80.08,24.37,4.288,81.2,14 / 22,3585843,2019-08-18 16:13:28:380,-1.3473,-0.5776,9.7141,-0.9168,-0.4529,9.7532,0.0088,-0.0034,0.0019
35852,48.078907,-1.691763,80.08,24.37,4.288,81.2,14 / 22,3585944,2019-08-18 16:13:28:481,-1.0318,-0.7332,9.5531,-0.9193,-0.4518,9.753,-0.008,-0.0003,0.0024
35853,48.078907,-1.691763,80.08,24.37,4.288,81.2,14 / 22,3586043,2019-08-18 16:13:28:580,-1.303,-0.3633,9.8297,-0.9281,-0.4519,9.7522,-0.0012,0.0087,0.0011
35854,48.078907,-1.691763,80.08,24.37,4.288,81.2,16 / 24,3586143,2019-08-18 16:13:28:680,-0.8469,-0.3148,9.9847,-0.9193,-0.4603,9.7526,-0.0104,-0.0242,0.0003
35855,48.078907,-1.691763,80.08,24.37,4.288,81.2,16 / 24,3586243,2019-08-18 16:13:28:780,-1.1216,-0.2574,10.0703,-0.8977,-0.4692,9.7542,-0.0176,-0.0201,-0.0009
35856,48.078907,-1.691763,80.08,24.37,4.288,81.2,16 / 24,3586343,2019-08-18 16:13:28:880,-0.9881,-0.5297,9.5795,-0.8906,-0.478,9.7544,-0.0161,-0.0085,0.0007
35857,48.078907,-1.691763,80.08,24.37,4.288,81.2,16 / 24,3586443,2019-08-18 16:13:28:980,-1.3802,-0.1963,9.0455,-0.887,-0.5022,9.7535,-0.0156,-0.0001,0.0005
35858,48.078907,-1.691763,80.08,24.37,4.288,81.2,16 / 24,3586543,2019-08-18 16:13:29:080,-1.1085,-0.5794,9.8249,-0.8929,-0.5084,9.7527,0.0005,-0.0042,0.0017
35859,48.078907,-1.691763,80.08,24.37,4.288,81.2,16 / 24,3586643,2019-08-18 16:13:29:180,-1.0953,-0.3789,9.7309,-0.9011,-0.5099,9.7518,0.0034,-0.0049,0.0019
35860,48.078907,-1.691763,80.08,24.37,4.288,81.2,16 / 24,3586743,2019-08-18 16:13:29:280,-1.048,-0.7266,10.0457,-0.8993,-0.5101,9.752,-0.0095,-0.0007,0.0012
35861,48.078907,-1.691763,80.08,24.37,4.288,81.2,16 / 24,3586844,2019-08-18 16:13:29:381,-1.2419,-0.5154,9.674,-0.906,-0.5193,9.7509,-0.0101,0.0073,0.0023
35862,48.078907,-1.691763,80.08,24.37,4.288,81.2,16 / 24,3586943,2019-08-18 16:13:29:480,-1.215,-0.2717,9.4561,-0.9119,-0.5283,9.7499,-0.0178,0.0156,0.0022
35863,48.078907,-1.691763,80.08,24.37,4.288,81.2,16 / 24,3587043,2019-08-18 16:13:29:580,-0.8463,-0.6506,10.1666,-0.932,-0.5492,9.7468,-0.0182,-0.0022,-0.0001
35864,48.078907,-1.691763,80.08,24.37,4.288,81.2,16 / 24,3587143,2019-08-18 16:13:29:680,-0.6578,-0.2951,9.7309,-0.9319,-0.5555,9.7465,0.0052,-0.0228,0.0016
35865,48.078907,-1.691763,80.08,24.37,4.288,81.2,16 / 24,3587243,2019-08-18 16:13:29:780,-0.8152,-0.5794,10.1942,-0.9075,-0.545,9.7494,-0.0006,-0.0259,0.0011
35866,48.078907,-1.691763,80.08,24.37,4.288,81.2,16 / 24,3587343,2019-08-18 16:13:29:880,-0.7092,-0.2681,9.9613,-0.8926,-0.5432,9.7508,-0.0046,-0.0111,0.0007
35867,48.078907,-1.691763,80.08,24.37,4.288,81.2,16 / 24,3587443,2019-08-18 16:13:29:980,-1.0606,-0.2167,10.002,-0.8852,-0.5469,9.7513,-0.0067,0.0017,0.0029
35868,48.078907,-1.691763,80.08,24.37,4.288,81.2,16 / 24,3587544,2019-08-18 16:13:30:081,-0.6733,-0.3531,10.2732,-0.8943,-0.5429,9.7507,-0.0047,-0.0019,0.002
35869,48.078907,-1.691763,80.08,24.37,4.288,81.2,16 / 24,3587643,2019-08-18 16:13:30:180,-0.7469,-0.3627,9.5148,-0.8903,-0.5356,9.7515,0.0012,-0.0179,-0.0003
35870,48.078907,-1.691763,80.08,24.37,4.288,81.2,16 / 24,3587743,2019-08-18 16:13:30:280,-0.6829,-0.2448,10.175,-0.8739,-0.5308,9.7532,-0.0038,0.0017,0.0011
35871,48.078907,-1.691763,80.08,24.37,4.288,81.2,16 / 24,3587843,2019-08-18 16:13:30:380,-0.486,-0.0383,9.6615,-0.8707,-0.5328,9.7534,0.0044,0.0092,0.0028
35872,48.078907,-1.691763,80.08,24.37,4.288,81.2,16 / 24,3587943,2019-08-18 16:13:30:480,-0.6027,-0.3112,9.9254,-0.8726,-0.5253,9.7536,0.0061,0.0188,-0.0008
35873,48.078907,-1.691763,80.08,24.37,4.288,81.2,16 / 24,3588043,2019-08-18 16:13:30:580,-0.7104,-0.1185,10.2217,-0.8811,-0.5059,9.7539,0.0194,-0.0007,0.0029
35874,48.079216,-1.688919,82.33,21.41,3.216,81.5,15 / 23,3588144,2019-08-18 16:13:30:681,-0.8403,-0.1299,10.2265,-0.8792,-0.4891,9.7549,0.0129,-0.0106,0.0016
35875,48.079216,-1.688919,82.33,21.41,3.216,81.5,15 / 23,3588244,2019-08-18 16:13:30:781,-0.5686,-0.0772,9.6656,-0.8482,-0.4784,9.7582,-0.0085,-0.0163,-0.0008
35876,48.079216,-1.688919,82.33,21.41,3.216,81.5,15 / 23,3588343,2019-08-18 16:13:30:880,-0.6518,-0.3663,10.0888,-0.8375,-0.4784,9.7591,-0.0195,-0.0178,-0.0028
35877,48.079216,-1.688919,82.33,21.41,3.216,81.5,15 / 23,3588443,2019-08-18 16:13:30:980,-0.8122,-0.2442,9.4885,-0.8177,-0.4915,9.7601,-0.0088,0.0018,0.0002
35878,48.079216,-1.688919,82.33,21.41,3.216,81.5,15 / 23,3588544,2019-08-18 16:13:31:081,-0.6769,-0.2221,9.8087,-0.8166,-0.4929,9.7602,-0.0014,0.0035,0.0004
35879,48.079216,-1.688919,82.33,21.41,3.216,81.5,15 / 23,3588644,2019-08-18 16:13:31:181,-0.4872,-0.1071,10.327,-0.808,-0.4851,9.7613,0.0052,0.0053,0.0019
35880,48.079216,-1.688919,82.33,21.41,3.216,81.5,15 / 23,3588743,2019-08-18 16:13:31:280,-0.5327,-0.2622,9.9661,-0.8064,-0.4782,9.7617,0.001,-0.0034,0.0018
35881,48.079216,-1.688919,82.33,21.41,3.216,81.5,15 / 23,3588843,2019-08-18 16:13:31:380,-0.7398,-0.0221,10.09,-0.7865,-0.4564,9.7644,0.0028,-0.0222,0.0011
35882,48.079216,-1.688919,82.33,21.41,3.216,81.5,15 / 23,3588943,2019-08-18 16:13:31:480,-0.6105,-0.1766,9.8398,-0.7635,-0.4528,9.7664,-0.008,-0.0148,0.0005
35883,48.079216,-1.688919,82.33,21.41,3.216,81.5,15 / 23,3589043,2019-08-18 16:13:31:580,-0.5823,-0.2436,10.1864,-0.7387,-0.4596,9.768,-0.0416,-0.0312,-0.0015
35884,48.079216,-1.688919,82.33,21.41,3.216,81.5,15 / 24,3589144,2019-08-18 16:13:31:681,-0.5135,0.0736,9.9464,-0.7219,-0.4776,9.7684,-0.03,-0.0045,-0.0003
35885,48.079216,-1.688919,82.33,21.41,3.216,81.5,15 / 24,3589244,2019-08-18 16:13:31:781,-0.6278,-0.2717,9.3556,-0.7169,-0.4961,9.7678,-0.0196,0.0007,0.0005
35886,48.079216,-1.688919,82.33,21.41,3.216,81.5,15 / 24,3589343,2019-08-18 16:13:31:880,-0.6512,0.1891,9.4885,-0.709,-0.5006,9.7682,-0.0107,-0.0049,0.0029
35887,48.079216,-1.688919,82.33,21.41,3.216,81.5,15 / 24,3589443,2019-08-18 16:13:31:980,-0.6224,-0.0078,9.6112,-0.6976,-0.5054,9.7687,-0.0055,-0.0027,0.0023
35888,48.079216,-1.688919,82.33,21.41,3.216,81.5,15 / 24,3589543,2019-08-18 16:13:32:080,-0.5967,-0.1173,9.8751,-0.6952,-0.4958,9.7694,-0.002,-0.0032,0.0047
35889,48.079216,-1.688919,82.33,21.41,3.216,81.5,15 / 24,3589643,2019-08-18 16:13:32:180,-0.4704,0.0341,10.0338,-0.6858,-0.4836,9.7707,0.0044,-0.0059,0.0048
35890,48.079216,-1.688919,82.33,21.41,3.216,81.5,15 / 24,3589743,2019-08-18 16:13:32:280,-0.8002,-0.2658,9.6549,-0.6798,-0.4821,9.7712,-0.0061,0.001,0.0042
35891,48.079216,-1.688919,82.33,21.41,3.216,81.5,15 / 24,3589843,2019-08-18 16:13:32:380,-0.7062,-0.0449,9.8027,-0.6756,-0.4833,9.7714,-0.0094,0.0002,0.0033
35892,48.079216,-1.688919,82.33,21.41,3.216,81.5,15 / 24,3589943,2019-08-18 16:13:32:480,-0.629,-0.1467,9.6962,-0.6755,-0.4837,9.7714,-0.0151,0.0041,0.0041
35893,48.079216,-1.688919,82.33,21.41,3.216,81.5,15 / 24,3590043,2019-08-18 16:13:32:580,-0.6183,-0.0766,9.5459,-0.6767,-0.4887,9.7711,-0.0045,0.0057,0.0048
35894,48.079216,-1.688919,82.33,21.41,3.216,81.5,15 / 24,3590143,2019-08-18 16:13:32:680,-0.5781,-0.3831,10.0876,-0.6773,-0.4859,9.7712,-0.0003,0.0011,0.0045
35895,48.079216,-1.688919,82.33,21.41,3.216,81.5,15 / 24,3590243,2019-08-18 16:13:32:780,-0.5775,-0.2173,9.7482,-0.6711,-0.4695,9.7724,0.0102,-0.0108,0.0024
35896,48.079216,-1.688919,82.33,21.41,3.216,81.5,15 / 24,3590343,2019-08-18 16:13:32:880,-0.5446,-0.2885,10.1134,-0.6628,-0.4607,9.7734,0.0089,-0.0083,0.0026
35897,48.079216,-1.688919,82.33,21.41,3.216,81.5,15 / 24,3590443,2019-08-18 16:13:32:980,-0.6069,-0.1418,9.6692,-0.651,-0.4464,9.7748,-0.007,-0.0047,0.0022
35898,48.079216,-1.688919,82.33,21.41,3.216,81.5,15 / 24,3590543,2019-08-18 16:13:33:080,-0.5404,-0.0197,10.2253,-0.6477,-0.4468,9.775,-0.0025,0.0045,0.0022
35899,48.079216,-1.688919,82.33,21.41,3.216,81.5,15 / 24,3590644,2019-08-18 16:13:33:181,-0.474,-0.255,9.6531,-0.6409,-0.4443,9.7756,-0.011,-0.0094,0.0013
35900,48.079216,-1.688919,82.33,21.41,3.216,81.5,15 / 24,3590743,2019-08-18 16:13:33:280,-0.5775,-0.313,9.4244,-0.6378,-0.4519,9.7754,-0.0204,0.0048,0.0004
35901,48.079216,-1.688919,82.33,21.41,3.216,81.5,15 / 24,3590843,2019-08-18 16:13:33:380,-0.4872,-0.3394,9.7806,-0.635,-0.4645,9.775,-0.0083,-0.0091,0.0012
35902,48.079216,-1.688919,82.33,21.41,3.216,81.5,15 / 24,3590943,2019-08-18 16:13:33:480,-0.4225,-0.4345,9.7925,-0.629,-0.4609,9.7756,-0.0061,-0.0102,0.0006
35903,48.079216,-1.688919,82.33,21.41,3.216,81.5,15 / 24,3591044,2019-08-18 16:13:33:581,-0.5722,-0.3454,10.4144,-0.6186,-0.4561,9.7765,0.0015,0.0005,0.0017
35904,48.079216,-1.688919,82.33,21.41,3.216,81.5,14 / 24,3591144,2019-08-18 16:13:33:681,-0.5787,-0.343,9.841,-0.6162,-0.4474,9.777,0.0094,-0.0028,0.0003
35905,48.079216,-1.688919,82.33,21.41,3.216,81.5,14 / 24,3591244,2019-08-18 16:13:33:781,-0.459,-0.3328,10.2187,-0.6052,-0.438,9.7782,0.0073,-0.014,0.0012
35906,48.079216,-1.688919,82.33,21.41,3.216,81.5,14 / 24,3591344,2019-08-18 16:13:33:881,-0.462,-0.1939,9.51,-0.6007,-0.4118,9.7796,0.0038,0.0035,0.0035
35907,48.079216,-1.688919,82.33,21.41,3.216,81.5,14 / 24,3591443,2019-08-18 16:13:33:980,-0.3944,0.1598,9.8781,-0.5998,-0.4065,9.7798,0.0041,0.0017,0.0018
35908,48.079216,-1.688919,82.33,21.41,3.216,81.5,14 / 24,3591543,2019-08-18 16:13:34:080,-0.5871,-0.2023,9.786,-0.6026,-0.3959,9.7801,-0.0102,0.0056,-0.0004
35909,48.079216,-1.688919,82.33,21.41,3.216,81.5,14 / 24,3591643,2019-08-18 16:13:34:180,-0.5285,-0.3298,9.3376,-0.6038,-0.3972,9.78,-0.0095,0.0172,0.0004
35910,48.079216,-1.688919,82.33,21.41,3.216,81.5,14 / 24,3591743,2019-08-18 16:13:34:280,-0.459,-0.0796,9.5154,-0.6273,-0.3965,9.7785,-0.0059,-0.001,0.0042
35911,48.079216,-1.688919,82.33,21.41,3.216,81.5,14 / 24,3591844,2019-08-18 16:13:34:381,-0.4471,-0.1682,9.5549,-0.624,-0.3956,9.7788,-0.0131,-0.0038,0.0015
35912,48.079216,-1.688919,82.33,21.41,3.216,81.5,14 / 24,3591943,2019-08-18 16:13:34:480,-0.5656,-0.1006,9.7477,-0.6125,-0.4143,9.7787,-0.0301,-0.0271,-0.0009
35913,48.079216,-1.688919,82.33,21.41,3.216,81.5,14 / 24,3592043,2019-08-18 16:13:34:580,-0.4782,-0.2238,10.1259,-0.5909,-0.4262,9.7795,0.0052,-0.009,0.0028
35914,48.079216,-1.688919,82.33,21.41,3.216,81.5,13 / 24,3592143,2019-08-18 16:13:34:680,-0.5596,-0.2119,10.1966,-0.5726,-0.414,9.7812,0.0123,-0.002,0.0046
35915,48.079216,-1.688919,82.33,21.41,3.216,81.5,13 / 24,3592243,2019-08-18 16:13:34:780,-0.6428,-0.0341,10.1965,-0.5674,-0.4013,9.782,0.0088,0.0019,0.0036
35916,48.079216,-1.688919,82.33,21.41,3.216,81.5,13 / 24,3592344,2019-08-18 16:13:34:881,-0.6009,-0.2699,10.1313,-0.5676,-0.3815,9.7828,0.0043,-0.0111,0.0043
35917,48.079216,-1.688919,82.33,21.41,3.216,81.5,13 / 24,3592444,2019-08-18 16:13:34:981,-0.4824,-0.1221,9.7812,-0.5587,-0.3703,9.7837,-0.0104,-0.0115,0.001
35918,48.079216,-1.688919,82.33,21.41,3.216,81.5,13 / 24,3592543,2019-08-18 16:13:35:080,-0.4363,-0.1981,9.4837,-0.5508,-0.3664,9.7843,-0.0205,-0.0071,0.0011
35919,48.079216,-1.688919,82.33,21.41,3.216,81.5,13 / 24,3592644,2019-08-18 16:13:35:181,-0.453,-0.0228,9.92,-0.5436,-0.3795,9.7842,-0.0155,-0.0027,-0.0001
35920,48.079216,-1.688919,82.33,21.41,3.216,81.5,13 / 24,3592743,2019-08-18 16:13:35:280,-0.325,-0.1173,9.5705,-0.5366,-0.3889,9.7842,-0.0011,0.0045,0.0011
35921,48.079216,-1.688919,82.33,21.41,3.216,81.5,13 / 24,3592843,2019-08-18 16:13:35:380,-0.4153,0.0551,10.3151,-0.5454,-0.3773,9.7842,0.0207,-0.0011,0.0051
35922,48.079216,-1.688919,82.33,21.41,3.216,81.5,13 / 24,3592943,2019-08-18 16:13:35:480,-0.5913,0.1479,9.8171,-0.5319,-0.3459,9.7861,0.0203,-0.017,0.0039
35923,48.079216,-1.688919,82.33,21.41,3.216,81.5,13 / 24,3593043,2019-08-18 16:13:35:580,-0.5728,0.155,9.7464,-0.5219,-0.3375,9.7869,-0.0109,0.0012,0.0009
35924,48.079216,-1.688919,82.33,21.41,3.216,81.5,13 / 24,3593143,2019-08-18 16:13:35:680,-0.4405,-0.155,9.8111,-0.522,-0.3456,9.7866,-0.0155,0.0015,0.0006
35925,48.079216,-1.688919,82.33,21.41,3.216,81.5,13 / 24,3593243,2019-08-18 16:13:35:780,-0.4752,-0.1544,9.6447,-0.5218,-0.3517,9.7864,-0.0119,-0.002,0.0027
35926,48.079216,-1.688919,82.33,21.41,3.216,81.5,13 / 24,3593343,2019-08-18 16:13:35:880,-0.4519,0.088,9.4969,-0.523,-0.3545,9.7863,-0.0092,0.0123,0.0011
35927,48.079216,-1.688919,82.33,21.41,3.216,81.5,13 / 24,3593443,2019-08-18 16:13:35:980,-0.55,0.237,9.598,-0.5299,-0.3549,9.7859,-0.006,0.0006,0.0017
35928,48.079216,-1.688919,82.33,21.41,3.216,81.5,13 / 24,3593544,2019-08-18 16:13:36:081,-0.483,-0.1095,10.184,-0.5212,-0.3465,9.7867,0.0079,-0.0199,-0.0011
35929,48.079216,-1.688919,82.33,21.41,3.216,81.5,13 / 24,3593643,2019-08-18 16:13:36:180,-0.3112,-0.073,10.2588,-0.5103,-0.3396,9.7875,0.0041,-0.0193,0.0
35930,48.079216,-1.688919,82.33,21.41,3.216,81.5,13 / 24,3593743,2019-08-18 16:13:36:280,-0.5811,0.264,10.3588,-0.4829,-0.3278,9.7893,-0.0004,-0.013,0.0006
35931,48.079216,-1.688919,82.33,21.41,3.216,81.5,13 / 24,3593843,2019-08-18 16:13:36:380,-0.4064,0.1095,9.9661,-0.4687,-0.3261,9.79,-0.0108,-0.0075,0.0017
35932,48.079216,-1.688919,82.33,21.41,3.216,81.5,13 / 24,3593944,2019-08-18 16:13:36:481,-0.468,-0.1197,9.7728,-0.4665,-0.3325,9.7899,-0.011,0.0036,0.0002
35933,48.079216,-1.688919,82.33,21.41,3.216,81.5,13 / 24,3594043,2019-08-18 16:13:36:580,-0.4201,-0.1257,9.8602,-0.4681,-0.3353,9.7897,-0.0114,0.0061,0.0011
35934,48.079216,-1.688919,82.33,21.41,3.216,81.5,Dec-24,3594143,2019-08-18 16:13:36:680,-0.4124,-0.155,9.7117,-0.4685,-0.3376,9.7896,-0.008,0.0029,-0.0003
35935,48.079216,-1.688919,82.33,21.41,3.216,81.5,Dec-24,3594243,2019-08-18 16:13:36:780,-0.3256,-0.3035,9.9523,-0.4677,-0.3387,9.7896,-0.0012,-0.0089,-0.0057
35936,48.079216,-1.688919,82.33,21.41,3.216,81.5,Dec-24,3594343,2019-08-18 16:13:36:880,-0.5249,0.0305,9.8213,-0.452,-0.3351,9.7905,0.0016,-0.0133,-0.0057
35937,48.079216,-1.688919,82.33,21.41,3.216,81.5,Dec-24,3594443,2019-08-18 16:13:36:980,-0.3315,-0.0718,9.7895,-0.4479,-0.3298,9.7909,0.0014,-0.0027,-0.0061
35938,48.079216,-1.688919,82.33,21.41,3.216,81.5,Dec-24,3594543,2019-08-18 16:13:37:080,-0.2998,-0.0784,9.6489,-0.4504,-0.3373,9.7905,-0.0084,0.0175,-0.0049
35939,48.079216,-1.688919,82.33,21.41,3.216,81.5,Dec-24,3594643,2019-08-18 16:13:37:180,-0.4106,-0.2753,9.9745,-0.4572,-0.3389,9.7901,-0.0021,0.0115,-0.006
35940,48.079216,-1.688919,82.33,21.41,3.216,81.5,Dec-24,3594744,2019-08-18 16:13:37:281,-0.5979,-0.3232,10.4078,-0.4379,-0.3294,9.7913,-0.0038,-0.023,-0.0071
35941,48.079216,-1.688919,82.33,21.41,3.216,81.5,Dec-24,3594843,2019-08-18 16:13:37:380,-0.811,-0.3118,9.7339,-0.426,-0.3265,9.7919,-0.0171,-0.0306,-0.0073
35942,48.079216,-1.688919,82.33,21.41,3.216,81.5,Dec-24,3594943,2019-08-18 16:13:37:480,-0.7392,0.1407,9.4669,-0.3962,-0.3375,9.7928,-0.0032,-0.0026,-0.0081
35943,48.079216,-1.688919,82.33,21.41,3.216,81.5,Dec-24,3595043,2019-08-18 16:13:37:580,0.0144,-0.331,9.3921,-0.3929,-0.3485,9.7926,-0.0192,0.0088,-0.0098
35944,48.079216,-1.688919,82.33,21.41,3.216,81.5,Dec-24,3595143,2019-08-18 16:13:37:680,-0.2088,-0.2011,9.0258,-0.3997,-0.36,9.7919,-0.0077,0.0049,-0.0069
35945,48.079216,-1.688919,82.33,21.41,3.216,81.5,Dec-24,3595243,2019-08-18 16:13:37:780,-0.1867,-0.4435,9.832,-0.3883,-0.363,9.7922,-0.006,-0.0083,-0.0083
35946,48.079216,-1.688919,82.33,21.41,3.216,81.5,Dec-24,3595343,2019-08-18 16:13:37:880,-0.3477,-0.2861,10.2486,-0.3785,-0.3671,9.7925,-0.0124,-0.013,-0.0089
35947,48.079216,-1.688919,82.33,21.41,3.216,81.5,Dec-24,3595443,2019-08-18 16:13:37:980,-0.1885,-0.0964,9.9859,-0.352,-0.3828,9.7929,-0.0063,-0.0034,-0.0072
35948,48.079216,-1.688919,82.33,21.41,3.216,81.5,Dec-24,3595544,2019-08-18 16:13:38:081,0.018,-0.6931,9.3233,-0.35,-0.3854,9.7928,0.0218,0.0464,-0.0035
35949,48.079216,-1.688919,82.33,21.41,3.216,81.5,Dec-24,3595643,2019-08-18 16:13:38:180,-0.6452,0.2622,10.2486,-0.3777,-0.3749,9.7922,0.013,0.0378,-0.0026
35950,48.079216,-1.688919,82.33,21.41,3.216,81.5,Dec-24,3595743,2019-08-18 16:13:38:280,-0.1861,-0.0168,10.9956,-0.3939,-0.3684,9.7918,0.0247,-0.0312,-0.0027
35951,48.079216,-1.688919,82.33,21.41,3.216,81.5,Dec-24,3595844,2019-08-18 16:13:38:381,-0.1813,-0.3166,10.348,-0.3598,-0.3258,9.7946,0.0099,-0.0318,-0.0071
35952,48.079216,-1.688919,82.33,21.41,3.216,81.5,Dec-24,3595943,2019-08-18 16:13:38:480,-0.2118,-0.2274,10.2726,-0.3481,-0.3175,9.7953,0.0039,-0.0025,-0.0042
35953,48.079216,-1.688919,82.33,21.41,3.216,81.5,Dec-24,3596043,2019-08-18 16:13:38:580,-0.5356,0.1048,9.7949,-0.3442,-0.3069,9.7958,-0.005,0.0086,-0.0038
35954,48.079216,-1.688919,82.33,21.41,3.216,81.5,13 / 24,3596143,2019-08-18 16:13:38:680,-0.4453,-0.316,10.093,-0.3474,-0.3119,9.7955,-0.0031,-0.0101,-0.0036
35955,48.079216,-1.688919,82.33,21.41,3.216,81.5,13 / 24,3596243,2019-08-18 16:13:38:780,-0.3429,-0.1544,10.1086,-0.3342,-0.3101,9.796,-0.0034,-0.0202,-0.0035
35956,48.079216,-1.688919,82.33,21.41,3.216,81.5,13 / 24,3596343,2019-08-18 16:13:38:880,-0.3495,-0.3298,9.856,-0.3219,-0.3105,9.7964,-0.0142,-0.0004,-0.0015
35957,48.079216,-1.688919,82.33,21.41,3.216,81.5,13 / 24,3596444,2019-08-18 16:13:38:981,-0.2017,0.0204,9.8817,-0.3212,-0.3233,9.7961,-0.0136,0.0064,-0.0024
35958,48.079216,-1.688919,82.33,21.41,3.216,81.5,13 / 24,3596543,2019-08-18 16:13:39:080,-0.4435,-0.2867,9.8512,-0.3257,-0.3274,9.7958,-0.0076,0.0074,-0.0021
35959,48.079216,-1.688919,82.33,21.41,3.216,81.5,13 / 24,3596644,2019-08-18 16:13:39:181,-0.4201,-0.0365,9.2484,-0.3287,-0.3303,9.7956,-0.0075,-0.0018,-0.0006
35960,48.079216,-1.688919,82.33,21.41,3.216,81.5,13 / 24,3596744,2019-08-18 16:13:39:281,-0.0885,-0.34,9.5058,-0.3269,-0.3233,9.7959,0.0011,0.0063,0.0003
35961,48.079216,-1.688919,82.33,21.41,3.216,81.5,13 / 24,3596844,2019-08-18 16:13:39:381,-0.4022,0.1431,9.9458,-0.3339,-0.313,9.796,0.0059,0.0027,0.0023
35962,48.079216,-1.688919,82.33,21.41,3.216,81.5,13 / 24,3596943,2019-08-18 16:13:39:480,-0.2663,-0.1191,9.5711,-0.3398,-0.303,9.7961,-0.0001,-0.0107,0.0033
35963,48.079216,-1.688919,82.33,21.41,3.216,81.5,13 / 24,3597043,2019-08-18 16:13:39:580,-0.4327,-0.0359,9.9512,-0.3291,-0.2928,9.7968,-0.0088,-0.0122,0.0022
35964,48.079487,-1.686272,84.75,22.92,3.216,81.7,13 / 24,3597143,2019-08-18 16:13:39:680,-0.2902,0.1748,10.2786,-0.3209,-0.2964,9.7969,-0.0158,-0.0126,0.0042
35965,48.079487,-1.686272,84.75,22.92,3.216,81.7,13 / 24,3597243,2019-08-18 16:13:39:780,-0.4716,0.2628,10.0697,-0.3101,-0.3033,9.7971,-0.0169,-0.0121,0.0073
35966,48.079487,-1.686272,84.75,22.92,3.216,81.7,13 / 24,3597343,2019-08-18 16:13:39:880,-0.5979,-0.1484,9.525,-0.3112,-0.3115,9.7968,-0.0142,0.0111,0.0034
35967,48.079487,-1.686272,84.75,22.92,3.216,81.7,13 / 24,3597443,2019-08-18 16:13:39:980,-0.5339,0.234,9.5513,-0.3256,-0.315,9.7962,-0.0107,0.0085,0.0047
35968,48.079487,-1.686272,84.75,22.92,3.216,81.7,13 / 24,3597544,2019-08-18 16:13:40:081,-0.4273,-0.0251,9.7219,-0.332,-0.3164,9.7959,-0.0044,0.0027,0.0061
35969,48.079487,-1.686272,84.75,22.92,3.216,81.7,13 / 24,3597643,2019-08-18 16:13:40:180,-0.5458,-0.1065,10.0008,-0.3397,-0.3122,9.7958,-0.0004,-0.0079,0.0065
35970,48.079487,-1.686272,84.75,22.92,3.216,81.7,13 / 24,3597743,2019-08-18 16:13:40:280,-0.486,-0.2777,9.9547,-0.3361,-0.3047,9.7962,-0.0069,-0.0239,0.0033
35971,48.079487,-1.686272,84.75,22.92,3.216,81.7,13 / 24,3597844,2019-08-18 16:13:40:381,-0.6344,-0.1604,9.911,-0.3259,-0.3032,9.7965,-0.0005,-0.0014,0.0033
35972,48.079487,-1.686272,84.75,22.92,3.216,81.7,13 / 24,3597943,2019-08-18 16:13:40:480,-0.8343,-0.0706,9.7213,-0.3323,-0.3045,9.7963,-0.0093,0.0024,0.0033
35973,48.079487,-1.686272,84.75,22.92,3.216,81.7,13 / 24,3598043,2019-08-18 16:13:40:580,-1.0779,-0.349,9.6441,-0.3445,-0.3142,9.7956,-0.0131,-0.0055,0.0019
35974,48.079487,-1.686272,84.75,22.92,3.216,81.7,13 / 24,3598143,2019-08-18 16:13:40:680,-0.401,-0.1885,9.3478,-0.3499,-0.319,9.7952,-0.0114,0.0038,-0.0018
35975,48.079487,-1.686272,84.75,22.92,3.216,81.7,13 / 24,3598243,2019-08-18 16:13:40:780,-0.7026,-0.3603,9.4137,-0.3715,-0.3352,9.7939,-0.0104,0.011,-0.0029
35976,48.079487,-1.686272,84.75,22.92,3.216,81.7,13 / 24,3598343,2019-08-18 16:13:40:880,-0.7721,-0.3394,9.6968,-0.3724,-0.3437,9.7935,-0.0002,-0.0023,-0.0038
35977,48.079487,-1.686272,84.75,22.92,3.216,81.7,13 / 24,3598443,2019-08-18 16:13:40:980,-0.8583,-0.064,11.1004,-0.3765,-0.3399,9.7935,0.0044,-0.007,-0.0018
35978,48.079487,-1.686272,84.75,22.92,3.216,81.7,13 / 24,3598543,2019-08-18 16:13:41:080,-0.571,-0.3322,11.1147,-0.3586,-0.3494,9.7939,-0.0233,-0.0329,-0.0056
35979,48.079487,-1.686272,84.75,22.92,3.216,81.7,13 / 24,3598643,2019-08-18 16:13:41:180,-0.14,-0.665,10.0338,-0.3375,-0.3715,9.7938,-0.016,-0.008,-0.0055
35980,48.079487,-1.686272,84.75,22.92,3.216,81.7,13 / 24,3598744,2019-08-18 16:13:41:281,-0.1268,0.161,9.3412,-0.3197,-0.4105,9.7928,0.0087,-0.0162,-0.0004
35981,48.079487,-1.686272,84.75,22.92,3.216,81.7,13 / 24,3598843,2019-08-18 16:13:41:380,-0.3447,-0.1957,10.3689,-0.3378,-0.3883,9.7931,0.031,0.0405,-0.0002
35982,48.079487,-1.686272,84.75,22.92,3.216,81.7,13 / 24,3598943,2019-08-18 16:13:41:480,-0.5698,-0.0036,9.8548,-0.3917,-0.3293,9.7933,0.0196,0.0019,0.0015
35983,48.079487,-1.686272,84.75,22.92,3.216,81.7,13 / 24,3599043,2019-08-18 16:13:41:580,-0.4225,-0.3208,10.0733,-0.3866,-0.3251,9.7936,-0.0051,-0.0141,-0.0056
35984,48.079487,-1.686272,84.75,22.92,3.216,81.7,13 / 24,3599143,2019-08-18 16:13:41:680,-0.6811,0.2706,9.947,-0.3672,-0.3296,9.7942,-0.0148,-0.0108,-0.0054
35985,48.079487,-1.686272,84.75,22.92,3.216,81.7,13 / 24,3599243,2019-08-18 16:13:41:780,-0.7924,-0.3406,9.841,-0.3659,-0.3391,9.794,-0.0047,0.0069,-0.0033
35986,48.079487,-1.686272,84.75,22.92,3.216,81.7,13 / 24,3599343,2019-08-18 16:13:41:880,-0.6602,0.0114,9.525,-0.3797,-0.3451,9.7932,-0.001,0.006,-0.0036
35987,48.079487,-1.686272,84.75,22.92,3.216,81.7,13 / 24,3599443,2019-08-18 16:13:41:980,-0.9055,-0.5183,9.9332,-0.384,-0.3471,9.793,-0.0004,0.0053,-0.002
35988,48.079487,-1.686272,84.75,22.92,3.216,81.7,13 / 24,3599543,2019-08-18 16:13:42:080,-0.82,-0.2143,10.0194,-0.409,-0.354,9.7917,-0.0035,0.0067,-0.0036
35989,48.079487,-1.686272,84.75,22.92,3.216,81.7,13 / 24,3599643,2019-08-18 16:13:42:180,-0.7739,-0.6991,10.2486,-0.4131,-0.356,9.7915,0.0007,-0.0146,-0.0022
35990,48.079487,-1.686272,84.75,22.92,3.216,81.7,13 / 24,3599743,2019-08-18 16:13:42:280,-0.8523,-0.4543,10.1654,-0.404,-0.3577,9.7918,0.0012,-0.0157,-0.0062
35991,48.079487,-1.686272,84.75,22.92,3.216,81.7,13 / 24,3599843,2019-08-18 16:13:42:380,-1.0211,-0.3352,9.8973,-0.4039,-0.3594,9.7917,-0.0082,-0.0067,-0.0024
35992,48.079487,-1.686272,84.75,22.92,3.216,81.7,13 / 24,3599944,2019-08-18 16:13:42:481,-0.7541,-0.1173,9.5286,-0.4131,-0.3706,9.7909,-0.0161,0.0082,-0.0021
35993,48.079487,-1.686272,84.75,22.92,3.216,81.7,13 / 24,3600043,2019-08-18 16:13:42:580,-0.6709,-0.4202,9.6429,-0.4235,-0.3847,9.7899,-0.0074,0.0069,-0.0025
35994,48.079487,-1.686272,84.75,22.92,3.216,81.7,13 / 24,3600144,2019-08-18 16:13:42:681,-0.7212,-0.2125,9.5765,-0.4438,-0.3986,9.7885,-0.0118,0.0056,-0.0036
35995,48.079487,-1.686272,84.75,22.92,3.216,81.7,13 / 24,3600244,2019-08-18 16:13:42:781,-1.0755,-0.3777,10.0188,-0.4428,-0.4032,9.7883,0.0003,-0.0171,-0.0021
35996,48.079487,-1.686272,84.75,22.92,3.216,81.7,13 / 24,3600343,2019-08-18 16:13:42:880,-0.6117,-0.3477,10.2432,-0.4425,-0.3954,9.7887,0.0039,-0.0059,-0.004
35997,48.079487,-1.686272,84.75,22.92,3.216,81.7,13 / 24,3600443,2019-08-18 16:13:42:980,-0.802,-0.5046,9.7752,-0.4439,-0.394,9.7887,-0.0005,0.0034,-0.0041
35998,48.079487,-1.686272,84.75,22.92,3.216,81.7,13 / 24,3600543,2019-08-18 16:13:43:080,-0.5422,-0.0329,9.8799,-0.4626,-0.3952,9.7878,0.0001,0.0008,0.0003
35999,48.079487,-1.686272,84.75,22.92,3.216,81.7,13 / 24,3600643,2019-08-18 16:13:43:180,-0.5644,-0.48,9.8338,-0.4676,-0.3901,9.7877,0.012,-0.0037,0.0014
36000,48.079487,-1.686272,84.75,22.92,3.216,81.7,13 / 24,3600743,2019-08-18 16:13:43:280,-0.4016,-0.4399,9.9242,-0.4654,-0.382,9.7881,-0.0054,0.0037,-0.0012
36001,48.079487,-1.686272,84.75,22.92,3.216,81.7,13 / 24,3600843,2019-08-18 16:13:43:380,-0.8702,-0.1311,9.613,-0.473,-0.3865,9.7876,-0.0084,0.0004,0.0032
36002,48.079487,-1.686272,84.75,22.92,3.216,81.7,13 / 24,3600943,2019-08-18 16:13:43:480,-0.7176,-0.0778,9.9512,-0.4802,-0.3916,9.7871,-0.0141,-0.0059,0.0022
36003,48.079487,-1.686272,84.75,22.92,3.216,81.7,13 / 24,3601043,2019-08-18 16:13:43:580,-0.5788,-0.1287,9.0749,-0.4739,-0.3965,9.7872,-0.0101,-0.0139,0.0025
36004,48.079487,-1.686272,84.75,22.92,3.216,81.7,13 / 24,3601143,2019-08-18 16:13:43:680,-0.7158,-0.4645,9.7488,-0.4678,-0.3868,9.7878,0.007,-0.0213,0.0029
36005,48.079487,-1.686272,84.75,22.92,3.216,81.7,13 / 24,3601243,2019-08-18 16:13:43:780,-1.403,0.2197,10.3324,-0.4471,-0.3797,9.7891,0.0007,-0.0338,0.0006
36006,48.079487,-1.686272,84.75,22.92,3.216,81.7,13 / 24,3601344,2019-08-18 16:13:43:881,-0.6326,-0.1568,9.8308,-0.4405,-0.3769,9.7895,-0.0152,0.0005,0.0024
36007,48.079487,-1.686272,84.75,22.92,3.216,81.7,13 / 24,3601444,2019-08-18 16:13:43:981,-0.4752,-0.3663,8.9923,-0.4507,-0.3899,9.7885,-0.0211,0.0188,0.0036
36008,48.079487,-1.686272,84.75,22.92,3.216,81.7,13 / 24,3601544,2019-08-18 16:13:44:081,-0.5189,-0.0269,8.948,-0.477,-0.4009,9.7868,-0.0141,0.0135,0.0029
36009,48.079487,-1.686272,84.75,22.92,3.216,81.7,13 / 24,3601644,2019-08-18 16:13:44:181,-0.647,0.1155,9.8452,-0.4771,-0.4003,9.7869,-0.0052,-0.0017,0.0033
36010,48.079487,-1.686272,84.75,22.92,3.216,81.7,13 / 24,3601743,2019-08-18 16:13:44:280,-0.4028,-0.1724,10.2325,-0.4604,-0.3819,9.7884,0.0031,-0.0175,0.0
36011,48.079487,-1.686272,84.75,22.92,3.216,81.7,13 / 24,3601843,2019-08-18 16:13:44:380,-0.2424,-0.0575,10.3228,-0.4578,-0.3788,9.7886,0.0033,-0.0057,0.0025
36012,48.079487,-1.686272,84.75,22.92,3.216,81.7,13 / 24,3601943,2019-08-18 16:13:44:480,-0.5985,-0.2346,9.4813,-0.4621,-0.3739,9.7886,-0.0043,0.0069,0.0015
36013,48.079487,-1.686272,84.75,22.92,3.216,81.7,13 / 24,3602043,2019-08-18 16:13:44:580,-0.5356,0.0317,9.4268,-0.4772,-0.3689,9.7881,-0.0003,-0.007,0.002
36014,48.079487,-1.686272,84.75,22.92,3.216,81.7,13 / 24,3602143,2019-08-18 16:13:44:680,-0.5638,0.0126,9.5459,-0.4697,-0.3646,9.7886,-0.0032,-0.0104,0.0042
36015,48.079487,-1.686272,84.75,22.92,3.216,81.7,13 / 24,3602243,2019-08-18 16:13:44:780,-0.4141,-0.0646,9.7584,-0.4587,-0.3609,9.7893,-0.0095,-0.0147,0.002
36016,48.079487,-1.686272,84.75,22.92,3.216,81.7,13 / 24,3602343,2019-08-18 16:13:44:880,-0.5458,-0.264,9.8213,-0.4496,-0.3618,9.7897,-0.0111,-0.0025,0.0015
36017,48.079487,-1.686272,84.75,22.92,3.216,81.7,13 / 24,3602444,2019-08-18 16:13:44:981,-0.3752,0.2221,9.8231,-0.4508,-0.3615,9.7896,-0.0035,0.0037,0.0025
36018,48.079487,-1.686272,84.75,22.92,3.216,81.7,13 / 24,3602543,2019-08-18 16:13:45:080,-0.5799,-0.2753,9.783,-0.4524,-0.3576,9.7897,-0.0007,0.0041,0.0024
36019,48.079487,-1.686272,84.75,22.92,3.216,81.7,13 / 24,3602644,2019-08-18 16:13:45:181,-0.5662,0.2951,10.029,-0.4509,-0.3558,9.7898,-0.004,-0.0062,0.0017
36020,48.079487,-1.686272,84.75,22.92,3.216,81.7,13 / 24,3602743,2019-08-18 16:13:45:280,-0.6548,-0.1796,9.5711,-0.4485,-0.3529,9.79,-0.0049,-0.0076,0.0025
36021,48.079487,-1.686272,84.75,22.92,3.216,81.7,13 / 24,3602843,2019-08-18 16:13:45:380,-0.3286,-0.2526,9.9128,-0.4555,-0.3551,9.7896,-0.0078,0.0043,0.0024
36022,48.079487,-1.686272,84.75,22.92,3.216,81.7,13 / 24,3602944,2019-08-18 16:13:45:481,-0.9528,-0.0952,10.0721,-0.4621,-0.3522,9.7894,0.0076,-0.0026,0.001
36023,48.079487,-1.686272,84.75,22.92,3.216,81.7,13 / 24,3603043,2019-08-18 16:13:45:580,-0.5775,-0.1784,10.2289,-0.4557,-0.3362,9.7903,-0.0024,-0.0197,0.0011
36024,48.079487,-1.686272,84.75,22.92,3.216,81.7,13 / 23,3603143,2019-08-18 16:13:45:680,-0.623,-0.4154,9.9236,-0.4514,-0.3317,9.7906,-0.0035,-0.0023,0.0009
36025,48.079487,-1.686272,84.75,22.92,3.216,81.7,13 / 23,3603243,2019-08-18 16:13:45:780,-0.5075,-0.0646,10.16,-0.4477,-0.3373,9.7906,-0.0119,-0.0052,-0.0005
36026,48.079487,-1.686272,84.75,22.92,3.216,81.7,13 / 23,3603344,2019-08-18 16:13:45:881,-0.9415,-0.1682,10.2474,-0.4534,-0.3365,9.7904,-0.0004,0.0002,-0.0001
36027,48.079487,-1.686272,84.75,22.92,3.216,81.7,13 / 23,3603444,2019-08-18 16:13:45:981,-0.6715,-0.2975,9.9924,-0.4441,-0.335,9.7909,-0.0025,-0.0269,0.0011
36028,48.079487,-1.686272,84.75,22.92,3.216,81.7,13 / 23,3603543,2019-08-18 16:13:46:080,-0.5596,-0.24,9.8769,-0.4272,-0.3356,9.7916,-0.0168,-0.0147,-0.0016
36029,48.079487,-1.686272,84.75,22.92,3.216,81.7,13 / 23,3603643,2019-08-18 16:13:46:180,-0.7176,-0.2376,9.8799,-0.4256,-0.3567,9.7909,-0.0209,-0.0029,0.0017
36030,48.079487,-1.686272,84.75,22.92,3.216,81.7,13 / 23,3603743,2019-08-18 16:13:46:280,-0.6206,0.1245,9.7734,-0.4234,-0.3659,9.7907,-0.0229,-0.0167,-0.0004
36031,48.079487,-1.686272,84.75,22.92,3.216,81.7,13 / 23,3603843,2019-08-18 16:13:46:380,-0.8469,-0.234,9.5543,-0.4147,-0.3926,9.79,-0.027,-0.0004,0.0019
36032,48.079487,-1.686272,84.75,22.92,3.216,81.7,13 / 23,3603943,2019-08-18 16:13:46:480,-0.3651,-0.3711,9.7393,-0.4189,-0.404,9.7894,-0.0161,-0.0012,0.0012
36033,48.079487,-1.686272,84.75,22.92,3.216,81.7,13 / 23,3604043,2019-08-18 16:13:46:580,-0.6075,-0.3394,9.7321,-0.4163,-0.4024,9.7895,0.0049,-0.0077,0.0033
36034,48.079487,-1.686272,84.75,22.92,3.216,81.7,13 / 23,3604143,2019-08-18 16:13:46:680,-0.7451,-0.0946,10.2893,-0.4156,-0.3962,9.7898,0.003,0.0026,0.0051
36035,48.079487,-1.686272,84.75,22.92,3.216,81.7,13 / 23,3604243,2019-08-18 16:13:46:780,-0.79,-0.2448,10.2007,-0.4313,-0.3898,9.7894,-0.005,0.0083,0.002
36036,48.079487,-1.686272,84.75,22.92,3.216,81.7,13 / 23,3604343,2019-08-18 16:13:46:880,-0.6745,-0.3394,9.7422,-0.4441,-0.3905,9.7888,-0.0078,0.0081,0.0024
36037,48.079487,-1.686272,84.75,22.92,3.216,81.7,13 / 23,3604443,2019-08-18 16:13:46:980,-0.8445,-0.4357,9.3466,-0.463,-0.3951,9.7877,-0.006,0.0001,0.0013
36038,48.079487,-1.686272,84.75,22.92,3.216,81.7,13 / 23,3604544,2019-08-18 16:13:47:081,-0.6865,-0.4357,9.1653,-0.4704,-0.3957,9.7874,-0.006,0.0124,0.0007
36039,48.079487,-1.686272,84.75,22.92,3.216,81.7,13 / 23,3604643,2019-08-18 16:13:47:180,-0.7948,-0.4052,9.5292,-0.5132,-0.4036,9.7849,-0.0062,0.0204,0.003
36040,48.079487,-1.686272,84.75,22.92,3.216,81.7,13 / 23,3604743,2019-08-18 16:13:47:280,-0.9259,-0.0856,9.9559,-0.5202,-0.4023,9.7846,-0.0058,-0.0127,-0.0009
36041,48.079487,-1.686272,84.75,22.92,3.216,81.7,13 / 23,3604844,2019-08-18 16:13:47:381,-0.9415,-0.3094,10.4264,-0.5104,-0.4058,9.785,-0.0035,-0.0175,-0.0028
36042,48.079487,-1.686272,84.75,22.92,3.216,81.7,13 / 23,3604943,2019-08-18 16:13:47:480,-0.9313,-0.51,10.6945,-0.4945,-0.4044,9.7858,0.0013,-0.0284,-0.0027
36043,48.079487,-1.686272,84.75,22.92,3.216,81.7,13 / 23,3605043,2019-08-18 16:13:47:580,-0.6566,-0.2849,9.8644,-0.48,-0.4044,9.7865,-0.0034,-0.0124,-0.0024
36044,48.079487,-1.686272,84.75,22.92,3.216,81.7,16 / 23,3605143,2019-08-18 16:13:47:680,-0.7523,-0.3753,9.7979,-0.4838,-0.4118,9.786,-0.0132,0.0012,-0.0018
36045,48.079487,-1.686272,84.75,22.92,3.216,81.7,16 / 23,3605243,2019-08-18 16:13:47:780,-0.5398,-0.1903,9.2939,-0.4869,-0.4214,9.7855,-0.0082,0.0047,-0.0003
36046,48.079487,-1.686272,84.75,22.92,3.216,81.7,16 / 23,3605343,2019-08-18 16:13:47:880,-0.5195,-0.1454,9.4741,-0.4941,-0.4219,9.7851,0.0096,0.0054,-0.0017
36047,48.079487,-1.686272,84.75,22.92,3.216,81.7,16 / 23,3605443,2019-08-18 16:13:47:980,-0.5422,-0.2855,10.0535,-0.4986,-0.4141,9.7852,0.01,-0.0019,-0.0012
36048,48.079487,-1.686272,84.75,22.92,3.216,81.7,16 / 23,3605543,2019-08-18 16:13:48:080,-0.6386,-0.1837,10.087,-0.4876,-0.3936,9.7866,0.0021,-0.02,0.0005
36049,48.079487,-1.686272,84.75,22.92,3.216,81.7,16 / 23,3605643,2019-08-18 16:13:48:180,-0.6787,-0.1712,9.9906,-0.4753,-0.3892,9.7874,-0.0079,-0.0034,0.0012
36050,48.079487,-1.686272,84.75,22.92,3.216,81.7,16 / 23,3605743,2019-08-18 16:13:48:280,-0.5817,-0.4507,10.0206,-0.4683,-0.3894,9.7877,-0.0043,-0.0097,0.0028
36051,48.079487,-1.686272,84.75,22.92,3.216,81.7,16 / 23,3605844,2019-08-18 16:13:48:381,-0.5907,0.1042,9.9613,-0.4635,-0.3836,9.7882,-0.0023,-0.013,0.0029
36052,48.079487,-1.686272,84.75,22.92,3.216,81.7,16 / 23,3605943,2019-08-18 16:13:48:480,-0.5398,-0.0916,9.6351,-0.4492,-0.3837,9.7888,-0.0131,-0.0103,0.002
36053,48.079487,-1.686272,84.75,22.92,3.216,81.7,16 / 23,3606043,2019-08-18 16:13:48:580,-0.3531,-0.0742,9.9559,-0.4468,-0.3867,9.7888,-0.011,-0.0017,0.002
36054,48.07976,-1.683517,85.28,23.05,3.216,81.6,16 / 23,3606143,2019-08-18 16:13:48:680,-0.5506,-0.1885,9.6944,-0.4574,-0.3934,9.7881,-0.012,0.0072,0.002
36055,48.07976,-1.683517,85.28,23.05,3.216,81.6,16 / 23,3606243,2019-08-18 16:13:48:780,-0.5446,0.1251,9.7907,-0.4637,-0.3917,9.7878,0.0028,0.0002,0.0029
36056,48.07976,-1.683517,85.28,23.05,3.216,81.6,16 / 23,3606343,2019-08-18 16:13:48:880,-0.3118,-0.3986,9.8476,-0.4646,-0.3772,9.7884,0.0034,0.002,0.0042
36057,48.07976,-1.683517,85.28,23.05,3.216,81.6,16 / 23,3606443,2019-08-18 16:13:48:980,-0.453,-0.1891,10.0942,-0.4623,-0.3708,9.7887,0.0052,0.0008,0.002
36058,48.07976,-1.683517,85.28,23.05,3.216,81.6,16 / 23,3606544,2019-08-18 16:13:49:081,-0.6931,-0.0132,10.3001,-0.457,-0.3567,9.7895,0.0007,-0.0113,0.0015
36059,48.07976,-1.683517,85.28,23.05,3.216,81.6,16 / 23,3606643,2019-08-18 16:13:49:180,-0.456,-0.0078,10.2756,-0.4479,-0.3555,9.79,-0.0049,-0.0157,0.0011
36060,48.07976,-1.683517,85.28,23.05,3.216,81.6,16 / 23,3606743,2019-08-18 16:13:49:280,-0.5452,-0.2227,9.762,-0.4348,-0.3642,9.7902,-0.0143,-0.012,-0.002
36061,48.07976,-1.683517,85.28,23.05,3.216,81.6,16 / 23,3606843,2019-08-18 16:13:49:380,-0.5332,-0.1017,10.1044,-0.432,-0.3683,9.7902,-0.0206,-0.008,-0.001
36062,48.07976,-1.683517,85.28,23.05,3.216,81.6,16 / 23,3606944,2019-08-18 16:13:49:481,-0.3537,-0.1862,9.7051,-0.4253,-0.38,9.7901,-0.0078,-0.0044,0.0013
36063,48.07976,-1.683517,85.28,23.05,3.216,81.6,16 / 23,3607043,2019-08-18 16:13:49:580,-0.6697,-0.018,9.6561,-0.4224,-0.3855,9.79,-0.0088,-0.0053,-0.0014
36064,48.07976,-1.683517,85.28,23.05,3.216,81.6,16 / 23,3607143,2019-08-18 16:13:49:680,-0.5147,-0.0473,9.9727,-0.4244,-0.3898,9.7897,-0.0123,0.0026,-0.0008
36065,48.07976,-1.683517,85.28,23.05,3.216,81.6,16 / 23,3607243,2019-08-18 16:13:49:780,-0.4626,-0.1616,10.0547,-0.4289,-0.3955,9.7893,-0.0029,0.004,-0.005
36066,48.07976,-1.683517,85.28,23.05,3.216,81.6,16 / 23,3607344,2019-08-18 16:13:49:881,-0.2681,-0.0186,9.5854,-0.4276,-0.4009,9.7891,-0.0107,-0.0142,-0.0078
36067,48.07976,-1.683517,85.28,23.05,3.216,81.6,16 / 23,3607443,2019-08-18 16:13:49:980,-0.5434,-0.3202,9.4951,-0.4189,-0.4082,9.7892,-0.02,-0.0161,-0.0094
36068,48.07976,-1.683517,85.28,23.05,3.216,81.6,16 / 23,3607543,2019-08-18 16:13:50:080,-0.2094,-0.6566,9.6082,-0.389,-0.4229,9.7898,-0.0109,-0.0259,-0.0138
36069,48.07976,-1.683517,85.28,23.05,3.216,81.6,16 / 23,3607643,2019-08-18 16:13:50:180,-0.4093,-0.4531,9.6004,-0.3737,-0.4334,9.7899,-0.0148,-0.0134,-0.0166
36070,48.07976,-1.683517,85.28,23.05,3.216,81.6,16 / 23,3607743,2019-08-18 16:13:50:280,-0.4088,-0.2107,9.58,-0.3537,-0.4731,9.7888,-0.019,-0.0005,-0.0228
36071,48.07976,-1.683517,85.28,23.05,3.216,81.6,16 / 23,3607844,2019-08-18 16:13:50:381,-0.1801,-0.726,10.0745,-0.3544,-0.487,9.7881,-0.0138,-0.008,-0.0206
36072,48.07976,-1.683517,85.28,23.05,3.216,81.6,16 / 23,3607943,2019-08-18 16:13:50:480,-0.1065,-0.7021,10.0433,-0.3395,-0.4966,9.7882,0.0125,-0.0078,-0.015
36073,48.07976,-1.683517,85.28,23.05,3.216,81.6,16 / 23,3608043,2019-08-18 16:13:50:580,-0.3914,-0.2287,9.4813,-0.3287,-0.4932,9.7887,0.0021,-0.0004,-0.0022
36074,48.07976,-1.683517,85.28,23.05,3.216,81.6,16 / 23,3608143,2019-08-18 16:13:50:680,-0.0377,-0.4262,9.6992,-0.329,-0.4842,9.7892,0.0027,0.0047,-0.0007
36075,48.07976,-1.683517,85.28,23.05,3.216,81.6,16 / 23,3608243,2019-08-18 16:13:50:780,-0.3669,-0.2675,9.9296,-0.3293,-0.4746,9.7896,0.0087,-0.003,0.0011
36076,48.07976,-1.683517,85.28,23.05,3.216,81.6,16 / 23,3608343,2019-08-18 16:13:50:880,-0.5045,-0.3107,9.6471,-0.3313,-0.4592,9.7903,0.008,0.0039,0.002
36077,48.07976,-1.683517,85.28,23.05,3.216,81.6,16 / 23,3608443,2019-08-18 16:13:50:980,-0.4171,-0.0587,9.4496,-0.3372,-0.4618,9.79,-0.0233,0.0095,-0.0007
36078,48.07976,-1.683517,85.28,23.05,3.216,81.6,16 / 23,3608544,2019-08-18 16:13:51:081,-0.3914,-0.2256,9.7776,-0.3585,-0.4741,9.7886,-0.0147,0.0053,-0.0007
36079,48.07976,-1.683517,85.28,23.05,3.216,81.6,16 / 23,3608643,2019-08-18 16:13:51:180,-0.8265,-0.0473,9.5741,-0.3607,-0.4812,9.7882,-0.0057,0.0021,-0.0009
36080,48.07976,-1.683517,85.28,23.05,3.216,81.6,16 / 23,3608743,2019-08-18 16:13:51:280,-0.5805,-0.2891,10.2684,-0.382,-0.4752,9.7877,0.0052,-0.0007,-0.001
36081,48.07976,-1.683517,85.28,23.05,3.216,81.6,16 / 23,3608843,2019-08-18 16:13:51:380,-0.6643,-0.2706,9.9607,-0.3841,-0.4699,9.7878,0.0125,-0.002,-0.0001
36082,48.07976,-1.683517,85.28,23.05,3.216,81.6,16 / 23,3608943,2019-08-18 16:13:51:480,-0.7002,-0.4088,10.1684,-0.3964,-0.4579,9.7879,-0.0026,-0.0061,-0.0008
36083,48.07976,-1.683517,85.28,23.05,3.216,81.6,16 / 23,3609044,2019-08-18 16:13:51:581,-0.7625,-0.404,9.9793,-0.3968,-0.4595,9.7878,-0.0083,-0.011,0.0006
36084,48.07976,-1.683517,85.28,23.05,3.216,81.6,16 / 23,3609143,2019-08-18 16:13:51:680,-0.6829,-0.4651,9.5986,-0.3915,-0.4674,9.7877,-0.0143,-0.0046,-0.0033
36085,48.07976,-1.683517,85.28,23.05,3.216,81.6,16 / 23,3609246,2019-08-18 16:13:51:783,-0.5321,-0.2753,9.4304,-0.3945,-0.4884,9.7865,-0.0146,0.002,-0.0016
36086,48.07976,-1.683517,85.28,23.05,3.216,81.6,16 / 23,3609343,2019-08-18 16:13:51:880,-0.8451,-0.6141,9.662,-0.403,-0.4944,9.7859,0.0143,0.0176,0.0017
36087,48.07976,-1.683517,85.28,23.05,3.216,81.6,16 / 23,3609443,2019-08-18 16:13:51:980,-0.8026,-0.589,10.0475,-0.4302,-0.476,9.7856,0.0267,-0.0054,-0.0015
36088,48.07976,-1.683517,85.28,23.05,3.216,81.6,16 / 23,3609544,2019-08-18 16:13:52:081,-1.0067,-0.7171,10.1726,-0.43,-0.467,9.7861,0.0239,-0.008,-0.0057
36089,48.07976,-1.683517,85.28,23.05,3.216,81.6,16 / 23,3609643,2019-08-18 16:13:52:180,-0.5057,-0.3364,9.932,-0.4327,-0.4545,9.7865,-0.0036,-0.0114,-0.0081
36090,48.07976,-1.683517,85.28,23.05,3.216,81.6,16 / 23,3609743,2019-08-18 16:13:52:280,-0.7936,-0.5327,9.534,-0.4311,-0.4624,9.7863,-0.0169,-0.007,-0.0107
36091,48.07976,-1.683517,85.28,23.05,3.216,81.6,16 / 23,3609843,2019-08-18 16:13:52:380,-0.7182,-0.6524,9.8733,-0.4323,-0.4851,9.7851,-0.0153,-0.006,-0.012
36092,48.07976,-1.683517,85.28,23.05,3.216,81.6,16 / 23,3609943,2019-08-18 16:13:52:480,-0.8607,-0.6207,9.6722,-0.4336,-0.4991,9.7843,-0.0069,-0.009,-0.0098
36093,48.07976,-1.683517,85.28,23.05,3.216,81.6,16 / 23,3610044,2019-08-18 16:13:52:581,-0.7397,-0.313,9.75,-0.436,-0.5122,9.7836,-0.0187,-0.0069,-0.0101
36094,48.07976,-1.683517,85.28,23.05,3.216,81.6,16 / 23,3610143,2019-08-18 16:13:52:680,-0.547,-0.8404,9.9739,-0.4327,-0.53,9.7828,-0.0097,-0.0071,-0.0098
36095,48.07976,-1.683517,85.28,23.05,3.216,81.6,16 / 23,3610243,2019-08-18 16:13:52:780,-0.6105,-0.6686,9.8434,-0.426,-0.5468,9.7821,-0.0113,-0.0125,-0.0097
36096,48.07976,-1.683517,85.28,23.05,3.216,81.6,16 / 23,3610344,2019-08-18 16:13:52:881,-0.7284,-0.5884,9.8368,-0.4305,-0.5514,9.7817,-0.0064,-0.0013,-0.0093
36097,48.07976,-1.683517,85.28,23.05,3.216,81.6,16 / 23,3610443,2019-08-18 16:13:52:980,-0.5345,-0.5094,9.7417,-0.4435,-0.5558,9.7808,-0.0025,0.0036,-0.0083
