,GPS LATITUDE (degrees), GPS LONGITUDE (degrees), GPS ALTITUDE (m), GPS SPEED (Kmh), GPS ACCURACY (m), GPS ORIENTATION (Â°),GPS SATELLITES IN RANGE, TIME SINCE START (ms), DATE (YYYY-MO-DD HH-MI-SS_SSS), ACCELEROMETER X (m/s²) , ACCELEROMETER Y (m/s²), ACCELEROMETER Z (m/s²), GRAVITY X (m/s²), GRAVITY Y (m/s²), GRAVITY Z (m/s²), GYROSCOPE Yaw (rad/s), GYROSCOPE Pitch (rad/s), GYROSCOPE Roll (rad/s), MAGNETIC FIELD X (Î¼T), MAGNETIC FIELD Y (Î¼T), MAGNETIC FIELD Z (Î¼T), ORIENTATION (Yaw) (Â°), ORIENTATION (Pitch) (Â°), ORIENTATION (Roll ) (Â°)
66361,52.405037,-1.508614,149.8,8.31,3.0,7.0,19 / 21,2214775,2019-09-07 11:04:07:929,-1.4071,1.9648,12.158,0.0019,-0.0039,9.8066,0.2095,0.0266,0.0072,-26.56,-27.81,-5.94,280.39,-81.81,-148.74
66362,52.405037,-1.508614,149.8,8.31,3.0,7.0,19 / 21,2214875,2019-09-07 11:04:08:029,0.8844,0.4693,8.6141,0.0927,-0.0021,9.8062,0.1682,-0.0839,0.0,-27.37,-28.06,-5.06,279.14,-80.82,-150.9
66363,52.405037,-1.508614,149.8,8.31,3.0,7.0,19 / 21,2214975,2019-09-07 11:04:08:129,1.6477,0.2149,6.9797,0.0235,0.0026,9.8066,-0.0218,-0.017,0.0023,-27.12,-28.62,-4.62,276.41,-79.8,-152.12
66364,52.405037,-1.508614,149.8,8.31,3.0,7.0,19 / 21,2215075,2019-09-07 11:04:08:229,1.4318,1.091,8.7291,-0.1059,-0.0428,9.8059,-0.3795,0.0431,0.032,-27.06,-29.06,-5.56,276.37,-80.17,-150.61
66365,52.405037,-1.508614,149.8,8.31,3.0,7.0,19 / 21,2215175,2019-09-07 11:04:08:329,-1.869,-0.7345,9.9085,-0.1335,-0.0711,9.8055,-0.34,-0.0013,0.0282,-27.0,-28.44,-7.37,286.68,-82.18,-141.05
66366,52.405037,-1.508614,149.8,8.31,3.0,7.0,21 / 21,2215275,2019-09-07 11:04:08:429,-2.357,-0.5642,10.7989,-0.0268,-0.0088,9.8066,0.0301,0.0084,-0.0056,-27.56,-27.5,-8.06,294.77,-83.08,-133.26
66367,52.405037,-1.508614,149.8,8.31,3.0,7.0,21 / 21,2215375,2019-09-07 11:04:08:529,-0.7564,0.1362,9.587,0.0541,0.0184,9.8065,0.1836,-0.0016,0.0243,-27.25,-28.94,-7.94,290.56,-82.75,-135.75
66368,52.405037,-1.508614,149.8,8.31,3.0,7.0,21 / 21,2215476,2019-09-07 11:04:08:630,0.7236,0.5312,9.9971,0.0711,0.0179,9.8063,0.1459,-0.0195,0.0112,-27.44,-28.81,-7.0,287.6,-82.0,-139.71
66369,52.405037,-1.508614,149.8,8.31,3.0,7.0,21 / 21,2215576,2019-09-07 11:04:08:730,0.8802,0.0024,10.2195,0.0295,-0.0022,9.8065,-0.0214,-0.0338,-0.0161,-28.12,-29.75,-6.62,284.2,-81.23,-142.67
66370,52.405037,-1.508614,149.8,8.31,3.0,7.0,21 / 21,2215676,2019-09-07 11:04:08:830,0.2259,0.4726,9.6237,-0.0275,-0.0115,9.8066,-0.0761,0.0138,0.0188,-28.56,-29.5,-6.56,286.0,-81.36,-142.1
66371,52.405037,-1.508614,149.8,8.31,3.0,7.0,21 / 21,2215776,2019-09-07 11:04:08:930,-0.7525,-0.1605,9.5631,-0.0278,-0.0024,9.8065,-0.0258,0.0358,0.0015,-28.87,-29.5,-5.87,290.44,-81.76,-140.05
66372,52.405037,-1.508614,149.8,8.31,3.0,7.0,21 / 21,2215876,2019-09-07 11:04:09:030,-0.1111,0.306,10.1048,0.0055,0.0003,9.8066,0.021,0.0023,0.0154,-28.5,-28.81,-5.62,289.73,-81.85,-140.15
66373,52.405037,-1.508614,149.8,8.31,3.0,7.0,21 / 21,2215976,2019-09-07 11:04:09:130,0.0734,0.1333,9.7263,0.0186,-0.0006,9.8066,0.0442,0.0115,0.0126,-27.94,-28.25,-5.12,291.38,-81.68,-140.59
66374,52.405037,-1.508614,149.8,8.31,3.0,7.0,21 / 21,2216076,2019-09-07 11:04:09:230,0.658,-0.1048,10.3381,0.0102,0.0062,9.8066,0.033,0.0313,0.0089,-27.06,-29.12,-4.69,289.46,-81.52,-141.32
66375,52.405037,-1.508614,149.8,8.31,3.0,7.0,21 / 21,2216176,2019-09-07 11:04:09:330,0.547,0.1744,10.5608,-0.0008,0.0078,9.8066,0.0034,0.0299,0.0,-27.19,-28.0,-5.25,288.65,-81.46,-142.33
66376,52.405037,-1.508614,149.8,8.31,3.0,7.0,18 / 23,2216276,2019-09-07 11:04:09:430,0.1745,0.3683,10.2432,-0.0032,0.0085,9.8066,-0.0105,0.0039,-0.0185,-27.56,-28.56,-4.62,288.64,-81.5,-142.75
66377,52.405037,-1.508614,149.8,8.31,3.0,7.0,18 / 23,2216376,2019-09-07 11:04:09:530,-0.3837,0.5214,9.536,0.0043,0.009,9.8066,0.0218,0.0214,-0.0095,-26.5,-28.31,-4.56,286.63,-81.56,-143.67
66378,52.405037,-1.508614,149.8,8.31,3.0,7.0,18 / 23,2216476,2019-09-07 11:04:09:630,0.3227,0.6282,9.4983,0.0063,0.0058,9.8066,0.0255,0.0511,0.0209,-26.87,-28.5,-5.25,286.54,-81.47,-144.38
66379,52.405037,-1.508614,149.8,8.31,3.0,7.0,18 / 23,2216575,2019-09-07 11:04:09:729,0.4197,0.6177,10.0484,0.0017,0.0051,9.8066,0.0246,0.0464,0.0032,-26.12,-28.56,-5.19,285.08,-81.45,-144.73
66380,52.405037,-1.508614,149.8,8.31,3.0,7.0,18 / 23,2216676,2019-09-07 11:04:09:830,0.0394,-0.542,9.8798,-0.0078,0.0101,9.8065,-0.0224,0.0222,-0.0252,-26.19,-28.56,-5.19,284.72,-81.43,-145.06
66381,52.405037,-1.508614,149.8,8.31,3.0,7.0,18 / 23,2216775,2019-09-07 11:04:09:929,0.1781,0.2073,9.8016,-0.0153,0.0114,9.8066,-0.0453,-0.0081,-0.0754,-26.62,-28.25,-5.69,283.09,-81.68,-145.96
66382,52.405037,-1.508614,149.8,8.31,3.0,7.0,18 / 23,2216875,2019-09-07 11:04:10:029,-0.2019,1.9488,9.3944,-0.0144,0.0093,9.8066,-0.0278,0.0423,0.0001,-26.0,-28.44,-5.81,281.35,-81.96,-147.19
66383,52.405037,-1.508614,149.8,8.31,3.0,7.0,18 / 23,2216976,2019-09-07 11:04:10:130,-0.5934,1.0142,9.6473,-0.0015,-0.0153,9.8066,-0.0233,0.0143,0.013,-26.06,-28.25,-5.44,284.11,-82.13,-146.73
66384,52.405037,-1.508614,149.8,8.31,3.0,7.0,18 / 23,2217075,2019-09-07 11:04:10:229,0.4467,-0.0648,10.0951,0.0069,-0.0023,9.8066,0.0279,0.0493,0.0265,-26.31,-28.31,-6.12,282.34,-82.08,-146.35
66385,52.405037,-1.508614,149.8,8.31,3.0,7.0,18 / 23,2217175,2019-09-07 11:04:10:329,-0.0005,1.4755,8.716,0.0041,0.0098,9.8066,0.0574,0.116,0.0605,-25.87,-28.37,-6.19,281.81,-82.0,-146.78
66386,52.405037,-1.508614,149.8,8.31,3.0,7.0,19 / 22,2217275,2019-09-07 11:04:10:429,0.471,1.1318,9.1392,0.0207,-0.0079,9.8065,-0.0109,-0.0446,-0.0813,-25.75,-29.06,-5.81,281.71,-81.96,-146.54
66387,52.405037,-1.508614,149.8,8.31,3.0,7.0,19 / 22,2217376,2019-09-07 11:04:10:530,0.4301,-0.0793,10.0616,0.0023,-0.0024,9.8066,-0.0368,-0.0435,-0.0478,-26.25,-28.0,-5.75,281.74,-81.78,-146.62
66388,52.405037,-1.508614,149.8,8.31,3.0,7.0,19 / 22,2217475,2019-09-07 11:04:10:629,-0.4708,0.2116,9.1296,-0.0003,0.0087,9.8066,0.024,0.0318,-0.0152,-26.06,-28.56,-5.25,283.57,-81.79,-146.58
66389,52.405037,-1.508614,149.8,8.31,3.0,7.0,19 / 22,2217575,2019-09-07 11:04:10:729,0.4448,0.2652,9.6786,0.0045,0.0038,9.8066,0.0126,0.0312,0.0075,-25.56,-28.37,-5.5,282.91,-81.76,-147.5
66390,52.405037,-1.508614,149.8,8.31,3.0,7.0,19 / 22,2217676,2019-09-07 11:04:10:830,0.6252,-0.0435,9.718,-0.0175,-0.0007,9.8066,-0.0497,0.0219,-0.0252,-25.87,-28.81,-5.81,280.92,-81.88,-147.22
66391,52.405037,-1.508614,149.8,8.31,3.0,7.0,19 / 22,2217776,2019-09-07 11:04:10:930,-0.1391,0.4459,9.4969,-0.0258,-0.0005,9.8066,-0.0637,0.0309,-0.0146,-25.0,-28.81,-5.12,283.02,-82.15,-146.76
66392,52.405037,-1.508614,149.8,8.31,3.0,7.0,19 / 22,2217876,2019-09-07 11:04:11:030,0.0113,-0.0327,9.8096,-0.0161,-0.0091,9.8066,-0.0422,0.0122,-0.0096,-25.31,-28.37,-5.75,282.4,-82.42,-145.86
66393,52.405037,-1.508614,149.8,8.31,3.0,7.0,19 / 22,2217975,2019-09-07 11:04:11:129,0.0132,0.3831,10.2644,-0.0014,0.0088,9.8066,0.0237,0.029,-0.0157,-25.12,-28.44,-6.5,282.86,-82.6,-145.62
66394,52.405037,-1.508614,149.8,8.31,3.0,7.0,19 / 22,2218076,2019-09-07 11:04:11:230,0.3946,0.2654,10.7076,0.0224,0.0057,9.8065,0.0568,0.0237,0.0036,-25.37,-28.37,-5.87,281.86,-82.5,-146.48
66395,52.405037,-1.508614,149.8,8.31,3.0,7.0,19 / 22,2218177,2019-09-07 11:04:11:331,0.3566,-0.0573,10.4529,0.0198,0.0083,9.8065,0.0576,0.0531,0.0161,-25.25,-28.5,-6.31,280.0,-82.2,-147.96
66396,52.405037,-1.508614,149.8,8.31,3.0,7.0,21 / 23,2218275,2019-09-07 11:04:11:429,0.4613,0.2692,10.3364,0.0078,0.0055,9.8066,0.0226,0.028,0.0167,-25.44,-27.94,-5.44,280.61,-81.98,-149.24
66397,52.405037,-1.508614,149.8,8.31,3.0,7.0,21 / 23,2218376,2019-09-07 11:04:11:530,0.1952,0.1709,10.1572,0.0057,-0.0037,9.8066,0.0081,0.0047,-0.0088,-25.37,-28.75,-5.56,278.21,-81.89,-149.06
66398,52.405037,-1.508614,149.8,8.31,3.0,7.0,21 / 23,2218475,2019-09-07 11:04:11:629,0.3416,-0.1073,9.6731,-0.0117,-0.0081,9.8066,-0.0501,-0.0231,-0.0137,-25.44,-28.25,-5.75,278.75,-81.86,-148.81
66399,52.405037,-1.508614,149.8,8.31,3.0,7.0,21 / 23,2218575,2019-09-07 11:04:11:729,0.2213,-0.1179,9.9885,-0.0148,-0.0058,9.8065,-0.0505,-0.0143,-0.0078,-25.44,-28.5,-5.87,280.09,-82.07,-147.72
66400,52.405037,-1.508614,149.8,8.31,3.0,7.0,21 / 23,2218675,2019-09-07 11:04:11:829,0.3141,-0.2489,10.1366,-0.0019,-0.0059,9.8066,-0.019,-0.0004,0.0029,-25.12,-28.69,-6.62,278.53,-82.19,-147.04
66401,52.405037,-1.508614,149.8,8.31,3.0,7.0,21 / 23,2218775,2019-09-07 11:04:11:929,0.4077,-0.174,10.1616,0.0023,0.0015,9.8066,0.0052,-0.0255,-0.023,-25.75,-29.0,-6.12,281.75,-82.21,-146.78
66402,52.405037,-1.508614,149.8,8.31,3.0,7.0,21 / 23,2218875,2019-09-07 11:04:12:029,0.891,0.3036,10.1967,0.0033,0.0106,9.8066,0.0176,-0.0184,-0.0091,-25.37,-29.31,-5.5,281.69,-82.14,-148.05
66403,52.405037,-1.508614,149.8,8.31,3.0,7.0,21 / 23,2218975,2019-09-07 11:04:12:129,0.6669,-0.5811,9.637,0.005,-0.0004,9.8066,-0.0148,-0.0466,-0.0155,-26.19,-29.31,-5.5,282.17,-82.07,-148.26
66404,52.405037,-1.508614,149.8,8.31,3.0,7.0,21 / 23,2219075,2019-09-07 11:04:12:229,0.2484,-0.2186,9.9488,-0.0073,-0.0034,9.8065,-0.0372,-0.033,0.0045,-25.37,-29.0,-5.37,281.61,-82.14,-148.13
66405,52.405037,-1.508614,149.8,8.31,3.0,7.0,21 / 23,2219175,2019-09-07 11:04:12:329,0.1965,-0.67,10.1128,-0.0067,0.0007,9.8066,0.0043,-0.0018,0.016,-26.25,-28.56,-5.31,282.9,-82.3,-147.8
66406,52.405037,-1.508614,149.8,8.31,3.0,7.0,18 / 25,2219275,2019-09-07 11:04:12:429,0.7643,0.0623,8.0829,0.0072,0.0163,9.8065,0.0253,-0.0222,-0.0215,-26.0,-28.5,-5.06,282.47,-82.32,-148.53
66407,52.405037,-1.508614,149.8,8.31,3.0,7.0,18 / 25,2219376,2019-09-07 11:04:12:530,2.5291,0.5304,6.3689,-0.0131,0.0053,9.8066,-0.0863,-0.0525,-0.0404,-26.31,-28.56,-5.62,278.52,-82.4,-150.17
66408,52.405037,-1.508614,149.8,8.31,3.0,7.0,18 / 25,2219475,2019-09-07 11:04:12:629,0.38,-0.0401,9.2324,-0.09,-0.0229,9.8062,-0.2394,0.006,0.0121,-25.81,-28.62,-6.75,281.58,-83.53,-146.41
66409,52.405037,-1.508614,149.8,8.31,3.0,7.0,18 / 25,2219576,2019-09-07 11:04:12:730,-0.7376,-0.0604,11.3355,-0.0738,-0.0318,9.8062,-0.1739,-0.0099,0.0198,-26.12,-27.81,-7.31,288.67,-84.35,-140.59
66410,52.405037,-1.508614,149.8,8.31,3.0,7.0,18 / 25,2219675,2019-09-07 11:04:12:829,-1.6783,-0.2548,11.2713,0.0427,0.0236,9.8065,0.2589,-0.0053,0.0053,-26.25,-27.94,-7.44,292.32,-84.67,-137.38
66411,52.405037,-1.508614,149.8,8.31,3.0,7.0,18 / 25,2219775,2019-09-07 11:04:12:929,1.0448,0.4636,10.6576,0.132,0.0511,9.8056,0.3548,-0.032,-0.0007,-25.25,-27.81,-5.44,283.17,-83.33,-148.26
66412,52.405037,-1.508614,149.8,8.31,3.0,7.0,18 / 25,2219876,2019-09-07 11:04:13:030,2.1513,0.7444,10.5659,0.0718,0.0174,9.8063,0.1061,-0.0214,0.0427,-24.81,-28.06,-5.5,276.29,-82.04,-153.57
66413,52.405037,-1.508614,149.8,8.31,3.0,7.0,18 / 25,2219976,2019-09-07 11:04:13:130,1.0167,-0.3932,9.4423,-0.0121,-0.0118,9.8066,-0.1111,-0.043,-0.0045,-24.94,-27.75,-4.06,277.32,-81.5,-154.08
66414,52.405037,-1.508614,149.8,8.31,3.0,7.0,18 / 25,2220076,2019-09-07 11:04:13:230,0.1027,-0.1254,9.4244,-0.0527,-0.0127,9.8064,-0.1188,0.0121,0.0148,-24.75,-28.5,-5.25,278.63,-82.33,-151.59
66415,52.405037,-1.508614,149.8,8.31,3.0,7.0,18 / 25,2220176,2019-09-07 11:04:13:330,-0.203,-0.1469,8.9015,-0.0276,-0.0126,9.8065,-0.0442,-0.0137,0.0078,-24.75,-27.87,-4.75,280.77,-82.72,-149.92
66416,52.40568,-1.508548,149.33,8.72,4.0,3.68,20 / 25,2220276,2019-09-07 11:04:13:430,0.078,-0.6412,10.2227,-0.0013,-0.0044,9.8066,0.0123,-0.0314,0.0007,-25.62,-28.06,-4.75,282.29,-82.77,-149.2
66417,52.40568,-1.508548,149.33,8.72,4.0,3.68,20 / 25,2220375,2019-09-07 11:04:13:529,0.2061,-0.116,10.2577,0.0221,0.009,9.8066,0.0556,-0.0276,-0.0096,-25.56,-28.06,-4.75,281.03,-82.58,-150.23
66418,52.40568,-1.508548,149.33,8.72,4.0,3.68,20 / 25,2220475,2019-09-07 11:04:13:629,0.2979,0.0384,10.1236,0.0177,0.0034,9.8066,0.0197,-0.0435,-0.0129,-26.19,-28.37,-5.0,279.16,-82.26,-151.72
66419,52.40568,-1.508548,149.33,8.72,4.0,3.68,20 / 25,2220576,2019-09-07 11:04:13:730,0.3762,0.1447,9.6973,0.0004,0.0036,9.8066,-0.0003,0.0107,0.0051,-26.06,-28.06,-4.87,278.84,-82.17,-151.94
66420,52.40568,-1.508548,149.33,8.72,4.0,3.68,20 / 25,2220675,2019-09-07 11:04:13:829,0.449,0.0271,10.0631,-0.006,0.0039,9.8066,-0.0156,0.0059,-0.0144,-26.31,-28.12,-4.81,278.55,-82.23,-152.28
66421,52.40568,-1.508548,149.33,8.72,4.0,3.68,20 / 25,2220775,2019-09-07 11:04:13:929,0.1869,0.1862,9.9106,-0.0003,0.0009,9.8066,0.0071,0.0199,0.0133,-25.69,-28.06,-5.25,278.29,-82.31,-152.63
66422,52.40568,-1.508548,149.33,8.72,4.0,3.68,20 / 25,2220875,2019-09-07 11:04:14:029,0.1459,0.0862,9.9439,-0.0013,-0.0009,9.8066,0.0143,0.0094,0.0112,-26.12,-28.37,-5.44,278.35,-82.31,-152.57
66423,52.40568,-1.508548,149.33,8.72,4.0,3.68,20 / 25,2220975,2019-09-07 11:04:14:129,0.653,0.198,9.8455,0.007,0.0038,9.8066,0.0158,0.0041,0.0015,-25.19,-27.81,-4.87,277.45,-82.25,-152.66
66424,52.40568,-1.508548,149.33,8.72,4.0,3.68,20 / 25,2221075,2019-09-07 11:04:14:229,-0.144,-0.0915,9.687,0.0027,0.0009,9.8066,-0.0105,-0.0106,-0.0083,-25.37,-28.37,-5.0,276.92,-82.17,-153.08
66425,52.40568,-1.508548,149.33,8.72,4.0,3.68,20 / 25,2221175,2019-09-07 11:04:14:329,-0.6856,0.8125,8.7808,-0.0089,-0.0046,9.8066,-0.049,0.0136,0.0468,-24.81,-27.56,-5.25,277.09,-82.21,-152.96
66426,52.40568,-1.508548,149.33,8.72,4.0,3.68,19 / 22,2221277,2019-09-07 11:04:14:431,-0.5066,-0.5067,9.5525,-0.0043,-0.0089,9.8065,-0.0403,-0.0398,-0.051,-25.44,-27.12,-5.5,278.77,-82.37,-151.79
66427,52.40568,-1.508548,149.33,8.72,4.0,3.68,19 / 22,2221375,2019-09-07 11:04:14:529,0.0906,-0.0941,9.8513,0.0007,0.0007,9.8066,0.028,0.0546,0.0431,-24.69,-26.5,-5.94,276.55,-82.47,-152.26
66428,52.40568,-1.508548,149.33,8.72,4.0,3.68,19 / 22,2221476,2019-09-07 11:04:14:630,1.8249,-0.887,9.6978,0.0228,-0.0044,9.8066,0.0079,-0.0815,-0.0568,-25.25,-27.25,-5.62,276.31,-82.27,-151.99
66429,52.40568,-1.508548,149.33,8.72,4.0,3.68,19 / 22,2221575,2019-09-07 11:04:14:729,0.0875,-0.0117,9.7501,-0.0059,-0.0008,9.8066,-0.0221,0.0178,0.0075,-24.75,-26.81,-6.0,275.66,-82.24,-152.6
66430,52.40568,-1.508548,149.33,8.72,4.0,3.68,19 / 22,2221675,2019-09-07 11:04:14:829,-0.4523,0.1343,10.8139,-0.011,-0.0061,9.8066,-0.0284,0.0116,0.0259,-25.5,-27.75,-6.0,276.24,-82.37,-151.87
66431,52.40568,-1.508548,149.33,8.72,4.0,3.68,19 / 22,2221775,2019-09-07 11:04:14:929,-0.4094,-0.5337,9.5184,0.0021,-0.0087,9.8066,0.0134,-0.0121,0.0015,-24.56,-27.37,-6.62,275.54,-82.45,-150.89
66432,52.40568,-1.508548,149.33,8.72,4.0,3.68,19 / 22,2221875,2019-09-07 11:04:15:029,-0.2167,-0.4594,9.8484,0.0084,0.0047,9.8066,0.0396,0.0037,-0.0001,-25.56,-27.19,-5.62,278.53,-82.33,-150.66
66433,52.40568,-1.508548,149.33,8.72,4.0,3.68,19 / 22,2221975,2019-09-07 11:04:15:129,0.3384,-0.0621,9.5946,0.0136,0.0096,9.8065,0.0331,0.0261,0.0021,-25.44,-28.5,-5.94,275.56,-82.12,-152.26
66434,52.40568,-1.508548,149.33,8.72,4.0,3.68,19 / 22,2222076,2019-09-07 11:04:15:230,-0.5284,-0.3617,10.1796,0.0008,0.0011,9.8066,-0.0116,0.0036,-0.0055,-25.69,-28.75,-5.94,275.68,-82.08,-152.62
66435,52.40568,-1.508548,149.33,8.72,4.0,3.68,19 / 22,2222175,2019-09-07 11:04:15:329,-0.4651,-0.4019,10.0414,-0.0087,-0.002,9.8066,-0.0322,0.0095,-0.0121,-25.25,-28.5,-5.56,275.43,-82.13,-152.41
66436,52.40568,-1.508548,149.33,8.72,4.0,3.68,19 / 24,2222276,2019-09-07 11:04:15:430,-0.7073,-0.194,9.8469,-0.0143,0.0099,9.8066,-0.0167,0.0265,-0.0207,-25.69,-28.62,-5.44,278.06,-82.36,-152.62
66437,52.40568,-1.508548,149.33,8.72,4.0,3.68,19 / 24,2222376,2019-09-07 11:04:15:530,-0.6926,-0.3859,10.2924,-0.0021,0.0076,9.8066,0.0053,-0.0054,-0.0224,-25.69,-28.62,-5.56,275.25,-82.47,-153.48
66438,52.40568,-1.508548,149.33,8.72,4.0,3.68,19 / 24,2222475,2019-09-07 11:04:15:629,-1.2057,-0.0635,9.5663,0.0047,0.0034,9.8066,0.0143,-0.0034,0.0068,-25.87,-27.81,-5.62,274.8,-82.44,-154.19
66439,52.40568,-1.508548,149.33,8.72,4.0,3.68,19 / 24,2222576,2019-09-07 11:04:15:730,-0.9019,0.1334,9.9547,0.0182,-0.0116,9.8066,0.0213,-0.0089,0.0169,-25.81,-27.75,-5.81,275.02,-82.2,-153.71
66440,52.40568,-1.508548,149.33,8.72,4.0,3.68,19 / 24,2222675,2019-09-07 11:04:15:829,-0.7702,-0.5564,9.7643,0.0158,-0.0149,9.8065,0.0224,-0.003,0.0367,-26.06,-27.87,-5.25,277.65,-82.02,-152.93
66441,52.40568,-1.508548,149.33,8.72,4.0,3.68,19 / 24,2222775,2019-09-07 11:04:15:929,-0.5447,0.1412,9.5783,0.0087,-0.0135,9.8066,0.0018,0.0077,0.0427,-25.81,-28.37,-5.06,278.13,-81.83,-152.26
66442,52.40568,-1.508548,149.33,8.72,4.0,3.68,19 / 24,2222875,2019-09-07 11:04:16:029,-0.6275,-0.5608,9.3136,-0.0049,-0.0068,9.8065,-0.0338,0.0082,-0.0014,-25.87,-29.06,-5.81,276.94,-81.77,-151.02
66443,52.40568,-1.508548,149.33,8.72,4.0,3.68,19 / 24,2222975,2019-09-07 11:04:16:129,-1.1311,-0.4954,9.8363,-0.0281,-0.0072,9.8065,-0.0642,0.0139,0.0039,-25.56,-28.12,-6.0,278.11,-81.99,-150.41
66444,52.40568,-1.508548,149.33,8.72,4.0,3.68,19 / 24,2223075,2019-09-07 11:04:16:229,-1.1766,-0.012,10.3365,-0.0161,0.0011,9.8066,-0.027,-0.0042,-0.0264,-25.56,-28.19,-6.19,279.54,-82.37,-149.42
66445,52.40568,-1.508548,149.33,8.72,4.0,3.68,19 / 24,2223175,2019-09-07 11:04:16:329,-0.3784,-0.2757,10.2433,0.0121,0.0096,9.8066,0.0512,-0.0306,-0.0413,-25.19,-28.69,-7.12,275.61,-82.4,-150.16
66446,52.40568,-1.508548,149.33,8.72,4.0,3.68,24 / 25,2223276,2019-09-07 11:04:16:430,-0.3226,0.4453,9.9671,0.0189,0.0126,9.8066,0.0514,0.0071,0.0145,-25.56,-28.62,-6.37,276.77,-82.2,-151.68
66447,52.40568,-1.508548,149.33,8.72,4.0,3.68,24 / 25,2223375,2019-09-07 11:04:16:529,0.1397,-0.0019,9.5168,0.0065,-0.0002,9.8066,0.008,0.0007,0.0011,-25.69,-29.31,-5.56,275.96,-82.02,-152.27
66448,52.40568,-1.508548,149.33,8.72,4.0,3.68,24 / 25,2223475,2019-09-07 11:04:16:629,-0.1616,-0.2073,9.9934,-0.0086,-0.0018,9.8066,-0.0262,0.0026,-0.0157,-24.62,-28.44,-6.06,275.54,-82.05,-152.21
66449,52.40568,-1.508548,149.33,8.72,4.0,3.68,24 / 25,2223575,2019-09-07 11:04:16:729,-0.5314,-0.1427,9.997,-0.0082,-0.0055,9.8066,-0.0342,-0.0186,-0.0139,-25.44,-29.06,-6.12,275.42,-82.19,-152.17
66450,52.40568,-1.508548,149.33,8.72,4.0,3.68,24 / 25,2223675,2019-09-07 11:04:16:829,-0.7635,-0.1116,9.7051,-0.0033,-0.0016,9.8065,0.0179,0.0023,0.0048,-24.87,-29.25,-6.25,276.05,-82.26,-151.63
66451,52.40568,-1.508548,149.33,8.72,4.0,3.68,24 / 25,2223775,2019-09-07 11:04:16:929,-0.0356,0.2927,9.7873,0.0088,-0.0031,9.8066,0.0131,0.0014,0.0138,-25.62,-29.81,-6.81,274.42,-82.18,-151.69
66452,52.40568,-1.508548,149.33,8.72,4.0,3.68,24 / 25,2223875,2019-09-07 11:04:17:029,0.3332,0.0112,9.8959,0.0113,-0.0137,9.8065,0.0025,0.0313,0.0527,-25.25,-29.5,-5.94,276.58,-81.98,-150.78
66453,52.40568,-1.508548,149.33,8.72,4.0,3.68,24 / 25,2223975,2019-09-07 11:04:17:129,0.0105,0.2486,9.8579,-0.0029,-0.0143,9.8066,-0.0155,0.0268,0.0418,-25.81,-28.94,-6.19,278.4,-81.93,-149.75
66454,52.40568,-1.508548,149.33,8.72,4.0,3.68,24 / 25,2224075,2019-09-07 11:04:17:229,-0.2879,-0.2305,10.5255,-0.0067,-0.0173,9.8066,-0.0156,0.0152,0.0209,-26.0,-30.12,-6.56,278.31,-81.98,-147.6
66455,52.40568,-1.508548,149.33,8.72,4.0,3.68,24 / 25,2224175,2019-09-07 11:04:17:329,-0.2581,-0.3595,10.6628,0.0095,0.001,9.8066,0.0228,-0.0167,-0.0099,-26.31,-30.12,-6.62,278.86,-81.89,-146.97
66456,52.40568,-1.508548,149.33,8.72,4.0,3.68,23 / 25,2224275,2019-09-07 11:04:17:429,-0.8779,-0.3021,10.5994,0.0259,0.0167,9.8066,0.1046,0.0176,-0.0236,-26.37,-30.0,-5.62,279.43,-81.64,-148.1
66457,52.40568,-1.508548,149.33,8.72,4.0,3.68,23 / 25,2224376,2019-09-07 11:04:17:530,-0.4901,0.3662,10.4847,0.0434,0.0203,9.8065,0.1251,0.0464,0.0045,-25.31,-30.0,-5.37,277.84,-81.29,-150.47
66458,52.40568,-1.508548,149.33,8.72,4.0,3.68,23 / 25,2224475,2019-09-07 11:04:17:629,-1.5088,0.0128,11.9859,0.0424,0.0109,9.8065,0.1261,0.0196,0.01,-26.31,-30.44,-5.12,275.09,-80.63,-153.22
66459,52.40568,-1.508548,149.33,8.72,4.0,3.68,23 / 25,2224576,2019-09-07 11:04:17:730,1.5086,0.9871,8.6789,0.0386,0.0229,9.8064,0.0989,-0.0022,-0.0035,-25.37,-30.62,-5.06,271.82,-80.1,-154.59
66460,52.40568,-1.508548,149.33,8.72,4.0,3.68,23 / 25,2224675,2019-09-07 11:04:17:829,1.1653,0.7713,7.7409,0.0061,-0.0094,9.8066,-0.0551,0.0357,0.0291,-26.69,-30.69,-4.37,274.55,-79.67,-155.04
66461,52.40568,-1.508548,149.33,8.72,4.0,3.68,23 / 25,2224775,2019-09-07 11:04:17:929,1.1828,1.0547,9.5228,-0.0616,-0.033,9.8064,-0.2182,-0.0153,-0.0019,-26.0,-30.5,-4.87,273.72,-79.98,-153.81
66462,52.40568,-1.508548,149.33,8.72,4.0,3.68,23 / 25,2224875,2019-09-07 11:04:18:029,-0.5989,0.6152,10.5216,-0.0822,-0.0481,9.8061,-0.1974,0.0834,0.0677,-25.62,-30.12,-5.56,278.57,-81.28,-148.52
66463,52.40568,-1.508548,149.33,8.72,4.0,3.68,23 / 25,2224975,2019-09-07 11:04:18:129,-1.454,-0.4545,10.3415,-0.0325,-0.0167,9.8065,-0.0561,0.0352,0.0251,-25.94,-29.56,-6.62,282.84,-82.13,-143.34
66464,52.40568,-1.508548,149.33,8.72,4.0,3.68,23 / 25,2225075,2019-09-07 11:04:18:229,-0.4202,0.069,9.9831,0.0201,0.0108,9.8065,0.1251,-0.0109,-0.0365,-25.75,-29.75,-6.0,284.31,-82.04,-143.8
66465,52.40568,-1.508548,149.33,8.72,4.0,3.68,23 / 25,2225175,2019-09-07 11:04:18:329,0.5297,0.5617,9.6353,0.0489,0.0212,9.8064,0.1223,-0.0133,-0.0204,-25.69,-30.06,-5.94,281.14,-81.55,-146.32
66466,52.40568,-1.508548,149.33,8.72,4.0,3.68,21 / 23,2225275,2019-09-07 11:04:18:429,1.3022,0.362,10.0053,0.0235,0.0107,9.8066,0.0332,0.0212,0.0053,-25.31,-29.56,-5.62,276.81,-80.94,-148.96
66467,52.40568,-1.508548,149.33,8.72,4.0,3.68,21 / 23,2225375,2019-09-07 11:04:18:529,0.37,0.0889,9.5455,-0.0222,-0.0039,9.8066,-0.0359,0.087,0.0253,-25.62,-30.31,-5.37,279.67,-80.91,-149.03
66468,52.40568,-1.508548,149.33,8.72,4.0,3.68,21 / 23,2225476,2019-09-07 11:04:18:630,0.3829,-0.0942,10.4312,-0.0267,-0.0055,9.8065,-0.0563,0.0104,-0.0185,-25.12,-30.25,-5.62,278.22,-81.35,-148.07
66469,52.40568,-1.508548,149.33,8.72,4.0,3.68,21 / 23,2225576,2019-09-07 11:04:18:730,-0.7297,-0.1952,9.4694,0.0036,0.0019,9.8066,0.0031,-0.0235,-0.0465,-25.81,-30.12,-6.25,279.7,-81.6,-147.78
66470,52.40568,-1.508548,149.33,8.72,4.0,3.68,21 / 23,2225676,2019-09-07 11:04:18:830,0.2027,0.1046,9.5653,0.011,0.0057,9.8066,0.0357,0.0021,-0.0104,-25.94,-30.12,-5.56,278.86,-81.48,-148.47
66471,52.40568,-1.508548,149.33,8.72,4.0,3.68,21 / 23,2225776,2019-09-07 11:04:18:930,0.312,-0.1485,9.2859,0.007,0.0083,9.8066,0.0106,0.0067,-0.0286,-25.87,-29.62,-6.37,277.68,-81.26,-149.38
66472,52.40568,-1.508548,149.33,8.72,4.0,3.68,21 / 23,2225876,2019-09-07 11:04:19:030,-0.2801,0.1954,9.2933,-0.0067,0.0038,9.8066,-0.0334,0.0461,0.026,-25.25,-30.19,-6.69,274.38,-81.33,-149.81
66473,52.40568,-1.508548,149.33,8.72,4.0,3.68,21 / 23,2225975,2019-09-07 11:04:19:129,-0.154,-0.4594,9.9198,-0.0138,-0.0075,9.8066,-0.0386,0.0218,0.0023,-25.0,-30.37,-5.87,277.28,-81.47,-149.16
66474,52.40568,-1.508548,149.33,8.72,4.0,3.68,21 / 23,2226075,2019-09-07 11:04:19:229,-0.1883,-0.1421,10.1675,-0.0116,0.0069,9.8066,0.0121,0.0308,-0.0277,-24.75,-30.31,-6.12,277.76,-81.72,-148.98
66475,52.40568,-1.508548,149.33,8.72,4.0,3.68,21 / 23,2226175,2019-09-07 11:04:19:329,-0.5493,0.7884,9.7381,0.0158,0.0,9.8066,0.0439,0.0327,0.0265,-24.5,-30.37,-6.44,276.01,-81.75,-149.82
66476,52.40568,-1.508548,149.33,8.72,4.0,3.68,22 / 25,2226276,2019-09-07 11:04:19:430,1.2112,0.2481,8.4884,0.0092,0.0213,9.8065,0.0128,-0.0038,-0.0813,-25.0,-30.62,-6.75,273.06,-81.54,-151.05
66477,52.40568,-1.508548,149.33,8.72,4.0,3.68,22 / 25,2226375,2019-09-07 11:04:19:529,1.1078,0.9629,8.4288,-0.0462,-0.0057,9.8065,-0.129,0.0316,-0.029,-23.56,-30.06,-6.19,272.89,-81.67,-152.84
66478,52.40568,-1.508548,149.33,8.72,4.0,3.68,22 / 25,2226476,2019-09-07 11:04:19:630,-0.0092,0.5571,10.5351,-0.0688,-0.0399,9.8063,-0.1925,-0.0075,0.0158,-23.81,-29.56,-6.06,277.98,-82.65,-149.01
66479,52.40568,-1.508548,149.33,8.72,4.0,3.68,22 / 25,2226575,2019-09-07 11:04:19:729,-1.8412,-0.8707,12.4743,-0.0327,0.0047,9.8065,-0.0461,0.0199,-0.0375,-23.37,-28.62,-6.25,282.35,-83.25,-144.84
66480,52.40568,-1.508548,149.33,8.72,4.0,3.68,22 / 25,2226675,2019-09-07 11:04:19:829,-0.665,-0.1378,10.9322,0.0703,0.0352,9.8063,0.3392,-0.0047,-0.0081,-24.44,-28.81,-5.12,281.65,-83.04,-148.37
66481,52.40568,-1.508548,149.33,8.72,4.0,3.68,22 / 25,2226775,2019-09-07 11:04:19:929,1.4804,0.5292,9.7704,0.1052,0.0275,9.806,0.2636,-0.0119,0.0358,-25.44,-28.5,-3.31,277.82,-81.15,-155.37
66482,52.40568,-1.508548,149.33,8.72,4.0,3.68,22 / 25,2226875,2019-09-07 11:04:20:029,1.8861,-0.3094,10.4334,0.0405,-0.0019,9.8065,-0.0558,-0.0173,0.0204,-26.75,-28.25,-3.87,275.5,-80.45,-156.11
66483,52.40568,-1.508548,149.33,8.72,4.0,3.68,22 / 25,2226975,2019-09-07 11:04:20:129,0.6602,-0.563,9.7098,-0.0569,-0.0194,9.8064,-0.1558,0.0259,-0.0018,-27.0,-29.0,-5.0,274.64,-80.69,-154.87
66484,52.40568,-1.508548,149.33,8.72,4.0,3.68,22 / 25,2227075,2019-09-07 11:04:20:229,-0.1485,-0.5073,9.6314,-0.0589,-0.0111,9.8064,-0.0925,0.025,-0.0151,-26.44,-28.75,-5.94,275.3,-81.71,-152.58
66485,52.40568,-1.508548,149.33,8.72,4.0,3.68,22 / 25,2227175,2019-09-07 11:04:20:329,-0.5575,-0.0869,10.0187,-0.0148,0.0007,9.8066,-0.0312,-0.0108,-0.021,-25.69,-28.5,-7.0,274.65,-82.15,-152.02
66486,52.40568,-1.508548,149.33,8.72,4.0,3.68,21 / 22,2227275,2019-09-07 11:04:20:429,0.1551,0.274,10.919,0.0117,0.0086,9.8066,0.0753,-0.0141,-0.0036,-25.06,-29.0,-6.81,273.1,-82.19,-152.43
66487,52.40568,-1.508548,149.33,8.72,4.0,3.68,21 / 22,2227375,2019-09-07 11:04:20:529,0.3102,0.5653,10.4168,0.0301,0.0075,9.8065,0.09,0.04,0.0311,-24.87,-29.25,-5.94,273.06,-81.71,-153.96
66488,52.40568,-1.508548,149.33,8.72,4.0,3.68,21 / 22,2227476,2019-09-07 11:04:20:630,0.3381,-0.0097,9.8454,0.0161,0.0086,9.8066,0.0242,-0.0028,-0.0088,-24.62,-29.69,-5.5,273.78,-81.5,-154.76
66489,52.40568,-1.508548,149.33,8.72,4.0,3.68,21 / 22,2227576,2019-09-07 11:04:20:730,0.0056,-0.0504,10.2539,-0.0048,-0.0013,9.8066,-0.0206,-0.0136,-0.0077,-25.87,-29.06,-5.19,274.37,-81.47,-155.27
66490,52.40568,-1.508548,149.33,8.72,4.0,3.68,21 / 22,2227675,2019-09-07 11:04:20:829,0.202,0.0491,9.8115,-0.0024,0.0046,9.8066,-0.0032,-0.0056,-0.0186,-25.19,-28.75,-5.56,271.57,-81.53,-155.25
66491,52.40568,-1.508548,149.33,8.72,4.0,3.68,21 / 22,2227775,2019-09-07 11:04:20:929,0.1838,0.1159,9.7721,-0.0087,0.0083,9.8066,-0.0118,-0.0026,-0.0205,-25.94,-29.87,-6.31,271.73,-81.59,-155.69
66492,52.40568,-1.508548,149.33,8.72,4.0,3.68,21 / 22,2227876,2019-09-07 11:04:21:030,0.4064,-0.029,10.9652,-0.0024,0.0045,9.8066,-0.003,-0.0179,-0.0144,-25.19,-29.56,-6.12,270.35,-81.68,-156.33
66493,52.40568,-1.508548,149.33,8.72,4.0,3.68,21 / 22,2227975,2019-09-07 11:04:21:129,0.2276,-0.2164,9.893,0.0101,0.0071,9.8065,0.0256,-0.0474,-0.0392,-24.69,-29.0,-5.56,269.81,-81.6,-157.1
66494,52.40568,-1.508548,149.33,8.72,4.0,3.68,21 / 22,2228075,2019-09-07 11:04:21:229,0.2719,0.3323,9.7434,0.0123,0.0065,9.8066,0.0324,0.0126,0.0135,-24.25,-29.06,-4.87,270.31,-81.44,-157.66
66495,52.40568,-1.508548,149.33,8.72,4.0,3.68,21 / 22,2228178,2019-09-07 11:04:21:332,0.7163,0.4916,9.2494,-0.0012,0.0019,9.8066,-0.0068,-0.0052,0.005,-24.44,-28.87,-5.12,269.77,-81.37,-158.13
66496,52.40568,-1.508548,149.33,8.72,4.0,3.68,22 / 24,2228276,2019-09-07 11:04:21:430,0.3114,0.1451,9.5042,-0.0155,-0.0057,9.8066,-0.0447,-0.0283,-0.012,-25.19,-28.94,-5.06,271.07,-81.54,-157.87
66497,52.40568,-1.508548,149.33,8.72,4.0,3.68,22 / 24,2228375,2019-09-07 11:04:21:529,-0.0149,-0.2175,9.7542,-0.012,0.0003,9.8066,-0.0276,-0.0097,-0.0153,-25.0,-29.25,-5.56,269.67,-81.72,-157.39
66498,52.40568,-1.508548,149.33,8.72,4.0,3.68,22 / 24,2228475,2019-09-07 11:04:21:629,0.4453,-0.085,10.1313,-0.0062,-0.0013,9.8066,-0.0084,-0.0205,-0.0097,-24.69,-29.12,-6.0,269.87,-81.88,-157.37
66499,52.40568,-1.508548,149.33,8.72,4.0,3.68,22 / 24,2228575,2019-09-07 11:04:21:729,-0.144,0.096,10.4831,-0.0003,0.0087,9.8066,0.0283,0.0486,0.0207,-24.75,-29.56,-6.12,269.14,-81.9,-157.81
66500,52.40568,-1.508548,149.33,8.72,4.0,3.68,22 / 24,2228675,2019-09-07 11:04:21:829,-0.0091,-0.1736,9.7537,0.0002,0.0072,9.8066,0.0263,-0.0027,-0.018,-24.06,-29.5,-6.37,267.69,-81.91,-158.71
66501,52.40568,-1.508548,149.33,8.72,4.0,3.68,22 / 24,2228775,2019-09-07 11:04:21:929,-0.157,-0.2038,8.9034,0.0031,0.014,9.8065,-0.0069,-0.0905,-0.0812,-23.31,-29.31,-5.87,265.78,-81.85,-159.61
66502,52.40568,-1.508548,149.33,8.72,4.0,3.68,22 / 24,2228875,2019-09-07 11:04:22:029,0.1141,0.183,9.7796,-0.0006,0.0051,9.8065,-0.0108,0.01,0.0005,-23.06,-29.5,-6.37,264.53,-81.81,-160.84
66503,52.40568,-1.508548,149.33,8.72,4.0,3.68,22 / 24,2228975,2019-09-07 11:04:22:129,-0.0534,-0.0625,9.7111,-0.0116,0.0032,9.8066,-0.0126,0.0233,0.0042,-22.94,-29.75,-5.37,266.38,-81.91,-160.97
66504,52.40568,-1.508548,149.33,8.72,4.0,3.68,22 / 24,2229075,2019-09-07 11:04:22:229,-0.103,-0.0527,10.0219,-0.006,0.0029,9.8066,0.0232,0.0236,0.0162,-23.12,-30.19,-5.56,263.9,-82.09,-161.49
66505,52.40568,-1.508548,149.33,8.72,4.0,3.68,22 / 24,2229175,2019-09-07 11:04:22:329,0.2176,0.3534,10.3237,0.0127,0.0009,9.8066,0.0278,-0.0099,0.0155,-23.87,-29.37,-4.94,266.8,-81.94,-161.84
66506,52.40633,-1.508513,151.44,8.68,4.0,2.86,21 / 24,2229275,2019-09-07 11:04:22:429,0.4423,0.2127,9.7056,0.0085,-0.0015,9.8066,0.0066,-0.0283,-0.0087,-23.37,-29.81,-5.37,265.7,-81.84,-161.58
66507,52.40633,-1.508513,151.44,8.68,4.0,2.86,21 / 24,2229375,2019-09-07 11:04:22:529,0.5132,-0.3007,10.8626,-0.0025,0.0016,9.8066,-0.0061,-0.039,-0.0161,-23.69,-29.44,-5.31,267.09,-81.78,-161.34
66508,52.40633,-1.508513,151.44,8.68,4.0,2.86,21 / 24,2229475,2019-09-07 11:04:22:629,0.5176,-0.4228,9.4734,-0.007,0.0099,9.8066,-0.0237,-0.0164,-0.0436,-23.44,-29.44,-4.75,265.61,-81.84,-162.02
66509,52.40633,-1.508513,151.44,8.68,4.0,2.86,21 / 24,2229575,2019-09-07 11:04:22:729,-0.3906,-0.0053,9.3625,-0.0231,0.0091,9.8066,-0.0547,-0.0219,-0.0549,-23.37,-28.5,-4.87,264.88,-82.04,-163.38
66510,52.40633,-1.508513,151.44,8.68,4.0,2.86,21 / 24,2229675,2019-09-07 11:04:22:829,-0.7336,0.1347,10.173,-0.0248,-0.0022,9.8066,-0.0477,0.0047,0.0051,-24.31,-28.87,-5.06,265.39,-82.44,-163.88
66511,52.40633,-1.508513,151.44,8.68,4.0,2.86,21 / 24,2229775,2019-09-07 11:04:22:929,-0.1526,-0.1558,10.6631,0.0052,0.0052,9.8066,0.032,0.0034,-0.0118,-23.56,-28.94,-4.69,265.3,-82.65,-164.23
66512,52.40633,-1.508513,151.44,8.68,4.0,2.86,21 / 24,2229875,2019-09-07 11:04:23:029,-0.4065,0.2054,10.2309,0.0292,0.0142,9.8065,0.0911,-0.0108,0.0093,-24.37,-28.75,-5.25,263.96,-82.37,-165.26
66513,52.40633,-1.508513,151.44,8.68,4.0,2.86,21 / 24,2229976,2019-09-07 11:04:23:130,0.2519,0.0987,9.4677,0.028,0.0029,9.8066,0.056,-0.0079,0.027,-24.25,-28.69,-5.25,262.9,-81.99,-165.89
66514,52.40633,-1.508513,151.44,8.68,4.0,2.86,21 / 24,2230075,2019-09-07 11:04:23:229,0.3229,0.0539,9.3628,0.0072,-0.0048,9.8066,-0.029,-0.0148,0.008,-25.0,-29.12,-5.44,263.82,-81.65,-165.38
66515,52.40633,-1.508513,151.44,8.68,4.0,2.86,21 / 24,2230176,2019-09-07 11:04:23:330,-0.2107,-0.1644,10.0457,-0.0153,-0.0176,9.8065,-0.0485,0.0293,0.0397,-23.75,-29.19,-6.0,261.72,-81.78,-164.68
66516,52.40633,-1.508513,151.44,8.68,4.0,2.86,22 / 24,2230276,2019-09-07 11:04:23:430,-0.5649,-0.2808,10.485,-0.0185,-0.002,9.8065,-0.0174,0.0067,0.0055,-24.69,-29.37,-6.31,263.81,-82.11,-163.81
66517,52.40633,-1.508513,151.44,8.68,4.0,2.86,22 / 24,2230375,2019-09-07 11:04:23:529,-0.6069,-0.2166,10.2774,0.0077,0.0043,9.8066,0.0277,-0.0102,-0.0005,-23.5,-28.87,-5.94,262.08,-82.19,-163.84
66518,52.40633,-1.508513,151.44,8.68,4.0,2.86,22 / 24,2230475,2019-09-07 11:04:23:629,-0.5146,-0.1385,9.9285,0.0194,0.0024,9.8066,0.0391,-0.0074,0.003,-24.44,-29.12,-5.62,262.43,-81.94,-164.15
66519,52.40633,-1.508513,151.44,8.68,4.0,2.86,22 / 24,2230576,2019-09-07 11:04:23:730,-0.3603,0.182,9.6412,0.0073,-0.002,9.8066,0.0166,0.0091,0.0275,-24.0,-29.06,-5.19,264.22,-81.77,-164.27
66520,52.40633,-1.508513,151.44,8.68,4.0,2.86,22 / 24,2230675,2019-09-07 11:04:23:829,-0.5747,-0.1763,9.6879,-0.0065,-0.0096,9.8066,-0.0408,-0.0146,0.0197,-24.31,-28.87,-4.75,264.99,-81.78,-163.49
66521,52.40633,-1.508513,151.44,8.68,4.0,2.86,22 / 24,2230776,2019-09-07 11:04:23:930,-0.3283,-0.5927,9.2264,-0.0176,-0.0154,9.8066,-0.0635,-0.0143,0.0216,-23.81,-28.44,-5.0,267.14,-82.05,-161.95
66522,52.40633,-1.508513,151.44,8.68,4.0,2.86,22 / 24,2230875,2019-09-07 11:04:24:029,-0.7322,-0.2692,9.7049,-0.0163,-0.0051,9.8066,-0.0199,0.0,0.0158,-23.87,-28.81,-5.44,267.74,-82.25,-161.26
66523,52.40633,-1.508513,151.44,8.68,4.0,2.86,22 / 24,2230975,2019-09-07 11:04:24:129,-0.8571,-0.5574,10.2969,-0.0004,-0.0079,9.8066,0.0042,0.015,0.035,-24.37,-28.81,-5.44,268.3,-82.31,-160.76
66524,52.40633,-1.508513,151.44,8.68,4.0,2.86,22 / 24,2231075,2019-09-07 11:04:24:229,-0.2219,-0.6087,9.9265,0.0079,0.0001,9.8066,0.0447,-0.0111,0.0247,-24.12,-28.87,-5.62,266.54,-82.26,-160.31
66525,52.40633,-1.508513,151.44,8.68,4.0,2.86,22 / 24,2231175,2019-09-07 11:04:24:329,-0.181,-0.3144,9.5664,0.0173,-0.0058,9.8066,0.0351,-0.0274,0.0434,-23.87,-29.31,-5.37,268.46,-82.07,-160.31
66526,52.40633,-1.508513,151.44,8.68,4.0,2.86,22 / 24,2231275,2019-09-07 11:04:24:429,0.5796,-1.0222,9.6615,0.0106,-0.0113,9.8066,-0.0077,-0.0789,0.0017,-23.37,-28.75,-5.25,268.45,-81.81,-159.08
66527,52.40633,-1.508513,151.44,8.68,4.0,2.86,22 / 24,2231375,2019-09-07 11:04:24:529,-0.4792,-0.6747,10.1314,-0.0042,-0.0078,9.8066,-0.0122,-0.0405,0.0307,-25.0,-28.44,-4.75,271.19,-81.8,-158.38
66528,52.40633,-1.508513,151.44,8.68,4.0,2.86,22 / 24,2231476,2019-09-07 11:04:24:630,-0.8447,-0.8857,9.7466,-0.0093,-0.0079,9.8066,-0.0161,-0.08,0.0174,-24.75,-28.56,-4.56,271.66,-81.91,-157.71
66529,52.40633,-1.508513,151.44,8.68,4.0,2.86,22 / 24,2231576,2019-09-07 11:04:24:730,-0.0919,-1.0455,9.8583,0.0035,0.0056,9.8066,0.0054,-0.0924,-0.009,-26.12,-28.94,-4.69,272.74,-81.94,-157.44
66530,52.40633,-1.508513,151.44,8.68,4.0,2.86,22 / 24,2231676,2019-09-07 11:04:24:830,-0.1633,-1.6111,9.852,0.0087,0.0012,9.8065,0.0325,-0.0662,0.0248,-26.25,-28.37,-4.56,272.55,-81.83,-157.82
66531,52.40633,-1.508513,151.44,8.68,4.0,2.86,22 / 24,2231775,2019-09-07 11:04:24:929,-0.7408,-0.5849,9.8758,0.0118,0.0097,9.8065,0.0471,-0.0549,0.0286,-27.12,-28.75,-4.94,272.35,-81.7,-158.29
66532,52.40633,-1.508513,151.44,8.68,4.0,2.86,22 / 24,2231875,2019-09-07 11:04:25:029,-1.1516,-0.9423,11.6023,0.0071,0.0117,9.8066,0.034,-0.1705,-0.0228,-26.94,-29.5,-5.44,271.07,-81.53,-159.38
66533,52.40633,-1.508513,151.44,8.68,4.0,2.86,22 / 24,2231975,2019-09-07 11:04:25:129,-0.3958,-0.9323,10.8239,0.0602,-0.0112,9.8064,0.1413,-0.0866,0.1096,-27.19,-29.5,-5.0,270.6,-80.77,-159.02
66534,52.40633,-1.508513,151.44,8.68,4.0,2.86,22 / 24,2232075,2019-09-07 11:04:25:229,1.333,-1.2386,8.6998,0.0483,-0.0042,9.8064,0.0439,-0.094,0.0633,-27.44,-29.62,-4.44,271.72,-80.14,-158.82
66535,52.40633,-1.508513,151.44,8.68,4.0,2.86,22 / 24,2232179,2019-09-07 11:04:25:333,0.6356,-1.9495,8.5981,-0.0235,-0.0057,9.8066,-0.0626,-0.0994,0.0506,-27.44,-30.12,-4.25,271.84,-79.97,-158.5
66536,52.40633,-1.508513,151.44,8.68,4.0,2.86,20 / 23,2232276,2019-09-07 11:04:25:430,-0.0416,-0.5528,9.2645,-0.0753,-0.0176,9.8063,-0.267,-0.1725,-0.0116,-28.25,-30.44,-4.5,273.58,-80.32,-157.84
66537,52.40633,-1.508513,151.44,8.68,4.0,2.86,20 / 23,2232376,2019-09-07 11:04:25:530,-1.2415,-1.1991,10.5491,-0.0587,-0.0248,9.8064,-0.1815,-0.2005,-0.0332,-27.0,-29.87,-5.94,275.89,-82.06,-152.87
66538,52.40633,-1.508513,151.44,8.68,4.0,2.86,20 / 23,2232475,2019-09-07 11:04:25:629,-0.9135,-1.2918,10.4564,-0.0073,-0.0015,9.8066,0.0454,-0.1181,0.0037,-28.06,-29.62,-6.25,277.95,-82.27,-151.79
66539,52.40633,-1.508513,151.44,8.68,4.0,2.86,20 / 23,2232575,2019-09-07 11:04:25:729,-0.0293,-0.9702,9.4444,0.0384,0.0206,9.8065,0.1046,-0.1177,0.0018,-28.31,-29.75,-5.94,276.37,-82.02,-153.09
66540,52.40633,-1.508513,151.44,8.68,4.0,2.86,20 / 23,2232676,2019-09-07 11:04:25:830,0.3909,-0.7619,9.5039,0.0334,0.015,9.8065,0.0399,-0.1414,0.0042,-28.25,-30.19,-5.19,274.93,-81.42,-155.76
66541,52.40633,-1.508513,151.44,8.68,4.0,2.86,20 / 23,2232775,2019-09-07 11:04:25:929,0.0606,-0.854,9.9475,-0.0007,-0.0012,9.8066,-0.0159,-0.1347,0.0211,-29.12,-30.25,-5.19,274.64,-81.25,-156.53
66542,52.40633,-1.508513,151.44,8.68,4.0,2.86,20 / 23,2232876,2019-09-07 11:04:26:030,-0.0029,-1.4102,10.1022,-0.012,-0.0056,9.8066,-0.04,-0.14,0.0151,-28.56,-30.19,-5.19,275.35,-81.36,-155.94
66543,52.40633,-1.508513,151.44,8.68,4.0,2.86,20 / 23,2232975,2019-09-07 11:04:26:129,-0.2859,-1.4412,9.9778,-0.0069,0.0107,9.8066,-0.0128,-0.1442,-0.0127,-29.37,-30.06,-4.5,277.16,-81.54,-156.21
66544,52.40633,-1.508513,151.44,8.68,4.0,2.86,20 / 23,2233075,2019-09-07 11:04:26:229,0.0112,-0.8035,9.3588,0.0026,0.0158,9.8066,0.0024,-0.1563,-0.0233,-29.44,-29.62,-4.94,273.96,-81.54,-157.51
66545,52.40633,-1.508513,151.44,8.68,4.0,2.86,20 / 23,2233175,2019-09-07 11:04:26:329,-0.0404,-1.0446,9.6319,-0.0013,0.0018,9.8066,-0.0131,-0.1566,0.0071,-29.37,-30.37,-4.69,273.31,-81.52,-158.14
66546,52.40633,-1.508513,151.44,8.68,4.0,2.86,21 / 24,2233276,2019-09-07 11:04:26:430,0.0095,-0.9547,9.9675,-0.005,0.0041,9.8066,-0.0205,-0.137,-0.0096,-29.56,-29.81,-4.69,273.8,-81.57,-158.31
66547,52.40633,-1.508513,151.44,8.68,4.0,2.86,21 / 24,2233375,2019-09-07 11:04:26:529,-0.2718,-0.7853,9.6562,-0.0104,0.0099,9.8066,-0.023,-0.1029,-0.0148,-29.62,-29.87,-4.19,274.95,-81.71,-159.13
66548,52.40633,-1.508513,151.44,8.68,4.0,2.86,21 / 24,2233475,2019-09-07 11:04:26:629,-0.226,-0.4789,9.9304,-0.0068,0.0128,9.8065,-0.0075,-0.0861,-0.012,-29.44,-29.81,-4.25,273.57,-81.81,-160.08
66549,52.40633,-1.508513,151.44,8.68,4.0,2.86,21 / 24,2233576,2019-09-07 11:04:26:730,-0.3556,-0.3716,9.9296,-0.0019,0.0014,9.8066,-0.0022,-0.0769,0.0168,-29.62,-29.94,-4.31,273.5,-81.87,-160.75
66550,52.40633,-1.508513,151.44,8.68,4.0,2.86,21 / 24,2233675,2019-09-07 11:04:26:829,-0.4306,-0.6569,9.8541,-0.0004,0.0003,9.8066,-0.004,-0.0941,0.0057,-30.62,-30.25,-3.87,273.92,-81.89,-160.85
66551,52.40633,-1.508513,151.44,8.68,4.0,2.86,21 / 24,2233775,2019-09-07 11:04:26:929,-0.7582,-0.9841,9.8152,0.006,0.0018,9.8066,0.0079,-0.1051,-0.0121,-30.69,-29.87,-4.31,273.98,-81.86,-160.75
66552,52.40633,-1.508513,151.44,8.68,4.0,2.86,21 / 24,2233876,2019-09-07 11:04:27:030,-0.0797,-0.502,9.5993,0.0069,0.0028,9.8066,0.0001,-0.0839,-0.0021,-30.31,-29.56,-3.87,273.0,-81.73,-161.1
66553,52.40633,-1.508513,151.44,8.68,4.0,2.86,21 / 24,2233975,2019-09-07 11:04:27:129,-0.1867,-0.3982,10.0641,-0.0049,0.0053,9.8066,-0.0021,-0.0712,-0.0062,-30.75,-30.37,-3.87,273.2,-81.76,-161.44
66554,52.40633,-1.508513,151.44,8.68,4.0,2.86,21 / 24,2234075,2019-09-07 11:04:27:229,-0.2779,-0.2541,10.1897,-0.0015,0.0042,9.8066,0.0003,-0.0556,0.001,-31.19,-29.62,-3.94,272.79,-81.79,-161.88
66555,52.40633,-1.508513,151.44,8.68,4.0,2.86,21 / 24,2234175,2019-09-07 11:04:27:329,-0.4375,-0.2346,9.9711,-0.0018,0.0046,9.8066,-0.0026,-0.0691,-0.0112,-30.12,-29.81,-3.37,273.93,-81.82,-162.12
66556,52.40633,-1.508513,151.44,8.68,4.0,2.86,19 / 23,2234275,2019-09-07 11:04:27:429,0.2317,-0.2133,9.9985,0.0058,0.003,9.8066,0.0072,-0.0702,-0.0088,-30.5,-29.94,-3.62,271.68,-81.78,-162.47
66557,52.40633,-1.508513,151.44,8.68,4.0,2.86,19 / 23,2234375,2019-09-07 11:04:27:529,-0.1986,-0.2566,9.3796,-0.0001,0.0003,9.8066,-0.008,-0.0591,-0.0104,-30.56,-29.56,-2.81,273.77,-81.73,-162.63
66558,52.40633,-1.508513,151.44,8.68,4.0,2.86,19 / 23,2234476,2019-09-07 11:04:27:630,-0.0635,-0.2514,10.0034,-0.004,-0.0001,9.8066,-0.0066,-0.0483,-0.0014,-30.44,-30.06,-3.5,273.45,-81.77,-162.55
66559,52.40633,-1.508513,151.44,8.68,4.0,2.86,19 / 23,2234576,2019-09-07 11:04:27:730,-0.0726,-0.15,9.9317,0.0021,-0.0016,9.8066,-0.0006,-0.0522,0.0024,-31.0,-30.31,-3.25,273.82,-81.77,-162.62
66560,52.40633,-1.508513,151.44,8.68,4.0,2.86,19 / 23,2234676,2019-09-07 11:04:27:830,0.0238,-0.3347,9.3758,0.0037,-0.0043,9.8066,-0.0037,-0.0591,0.0024,-30.37,-30.06,-3.25,273.62,-81.72,-162.32
66561,52.40633,-1.508513,151.44,8.68,4.0,2.86,19 / 23,2234776,2019-09-07 11:04:27:930,-0.0414,-0.2016,10.1024,-0.0018,0.0037,9.8066,-0.0122,-0.0621,-0.0154,-30.94,-30.69,-3.25,273.7,-81.69,-162.39
66562,52.40633,-1.508513,151.44,8.68,4.0,2.86,19 / 23,2234876,2019-09-07 11:04:28:030,0.0754,-0.2582,10.1109,-0.004,-0.0021,9.8066,-0.0249,-0.0449,0.0086,-31.5,-30.25,-3.12,273.96,-81.74,-162.45
66563,52.40633,-1.508513,151.44,8.68,4.0,2.86,19 / 23,2234976,2019-09-07 11:04:28:130,-0.3783,-0.4921,9.7427,-0.0089,-0.0032,9.8066,-0.0201,-0.0529,0.004,-31.0,-29.94,-3.44,274.42,-81.84,-162.08
66564,52.40633,-1.508513,151.44,8.68,4.0,2.86,19 / 23,2235076,2019-09-07 11:04:28:230,-0.1661,0.1666,9.6799,-0.0044,0.0046,9.8066,0.0065,-0.0263,-0.0009,-31.31,-29.94,-3.25,274.5,-81.94,-162.11
66565,52.40633,-1.508513,151.44,8.68,4.0,2.86,19 / 23,2235176,2019-09-07 11:04:28:330,0.0749,0.0732,9.602,-0.002,-0.0011,9.8066,-0.0151,-0.0518,-0.0002,-30.5,-29.81,-3.37,273.71,-81.98,-162.5
66566,52.40633,-1.508513,151.44,8.68,4.0,2.86,20 / 23,2235275,2019-09-07 11:04:28:429,-0.4405,-0.0626,9.8,-0.0009,-0.001,9.8066,0.0025,-0.0312,0.0008,-31.31,-30.19,-2.69,274.4,-81.98,-162.25
66567,52.40633,-1.508513,151.44,8.68,4.0,2.86,20 / 23,2235375,2019-09-07 11:04:28:529,0.0849,-0.3444,9.8044,0.006,-0.0016,9.8066,0.019,-0.0413,-0.0003,-31.25,-30.5,-3.37,274.32,-81.98,-162.33
66568,52.40633,-1.508513,151.44,8.68,4.0,2.86,20 / 23,2235476,2019-09-07 11:04:28:630,-0.3315,-0.0952,9.9905,0.0034,0.0018,9.8066,0.0077,-0.0489,0.0047,-31.31,-30.19,-2.94,274.17,-81.89,-162.4
66569,52.40633,-1.508513,151.44,8.68,4.0,2.86,20 / 23,2235575,2019-09-07 11:04:28:729,0.0365,-0.061,10.2034,0.0032,-0.0015,9.8066,0.0032,-0.0517,0.0066,-31.25,-30.19,-3.12,274.26,-81.84,-162.26
66570,52.40633,-1.508513,151.44,8.68,4.0,2.86,20 / 23,2235675,2019-09-07 11:04:28:829,0.0252,-0.2578,10.2987,-0.0024,-0.0044,9.8066,-0.0176,-0.0401,0.0114,-32.0,-29.75,-3.56,273.16,-81.84,-162.03
66571,52.40633,-1.508513,151.44,8.68,4.0,2.86,20 / 23,2235775,2019-09-07 11:04:28:929,-0.3777,-0.26,9.6313,-0.0033,-0.0031,9.8066,-0.0146,-0.0517,-0.006,-31.12,-30.06,-2.81,275.11,-81.92,-161.49
66572,52.40633,-1.508513,151.44,8.68,4.0,2.86,20 / 23,2235875,2019-09-07 11:04:29:029,-0.2358,-0.1091,9.9229,0.0031,-0.0011,9.8066,0.0112,-0.0212,0.0162,-31.5,-29.31,-3.19,275.39,-81.91,-161.45
66573,52.40633,-1.508513,151.44,8.68,4.0,2.86,20 / 23,2235975,2019-09-07 11:04:29:129,-0.3636,-0.042,9.3489,0.0029,-0.0046,9.8066,0.0035,-0.0438,0.0149,-31.5,-30.06,-2.69,275.24,-81.85,-161.28
66574,52.40633,-1.508513,151.44,8.68,4.0,2.86,20 / 23,2236075,2019-09-07 11:04:29:229,-0.0744,-0.0556,10.0347,0.0019,-0.0057,9.8066,0.0028,-0.0264,0.018,-31.87,-30.0,-2.87,276.26,-81.79,-160.62
66575,52.40633,-1.508513,151.44,8.68,4.0,2.86,20 / 23,2236175,2019-09-07 11:04:29:329,-0.2994,-0.3798,9.9287,0.0015,-0.0043,9.8066,-0.0019,-0.0359,0.0002,-32.06,-30.12,-3.25,276.68,-81.77,-160.19
66576,52.40633,-1.508513,151.44,8.68,4.0,2.86,22 / 23,2236275,2019-09-07 11:04:29:429,-0.1255,0.1532,9.9148,0.0064,-0.0009,9.8066,0.0111,-0.0331,0.0195,-31.75,-29.81,-2.25,278.53,-81.7,-160.04
66577,52.40633,-1.508513,151.44,8.68,4.0,2.86,22 / 23,2236376,2019-09-07 11:04:29:530,-0.1626,-0.1419,9.4674,0.0029,-0.0033,9.8066,0.0076,-0.0368,0.0141,-32.06,-29.94,-2.25,278.77,-81.62,-159.74
66578,52.40633,-1.508513,151.44,8.68,4.0,2.86,22 / 23,2236475,2019-09-07 11:04:29:629,-0.2417,0.0146,9.4565,0.0015,-0.002,9.8065,0.0075,-0.0177,0.0363,-31.62,-29.69,-2.94,277.03,-81.6,-159.68
66579,52.40633,-1.508513,151.44,8.68,4.0,2.86,22 / 23,2236575,2019-09-07 11:04:29:729,0.0,-0.2866,9.9125,-0.0094,-0.0067,9.8066,-0.0344,-0.0325,0.0074,-32.25,-29.5,-2.25,279.49,-81.6,-159.27
66580,52.40633,-1.508513,151.44,8.68,4.0,2.86,22 / 23,2236675,2019-09-07 11:04:29:829,-0.6707,-0.1109,10.2151,-0.0146,-0.001,9.8066,-0.0234,-0.0425,-0.0175,-32.69,-30.62,-2.81,278.58,-81.81,-158.48
66581,52.40633,-1.508513,151.44,8.68,4.0,2.86,22 / 23,2236775,2019-09-07 11:04:29:929,-0.6757,0.2558,10.3304,-0.0009,-0.0038,9.8066,-0.0009,-0.023,0.02,-32.62,-29.75,-2.62,278.75,-81.91,-158.66
66582,52.40633,-1.508513,151.44,8.68,4.0,2.86,22 / 23,2236875,2019-09-07 11:04:30:029,-0.6694,-0.4224,9.2946,-0.0031,-0.0089,9.8066,-0.0057,-0.0219,0.0215,-32.06,-30.25,-2.37,281.03,-81.95,-157.83
66583,52.40633,-1.508513,151.44,8.68,4.0,2.86,22 / 23,2236975,2019-09-07 11:04:30:129,-0.7583,-0.657,9.8909,-0.0086,0.0079,9.8066,-0.0132,-0.0467,-0.017,-32.87,-30.31,-3.44,279.69,-82.07,-157.89
66584,52.40633,-1.508513,151.44,8.68,4.0,2.86,22 / 23,2237075,2019-09-07 11:04:30:229,-0.5797,-0.1341,9.71,-0.0016,0.0068,9.8066,-0.0126,-0.0616,-0.0106,-32.25,-29.37,-3.12,278.94,-82.12,-158.53
66585,52.40633,-1.508513,151.44,8.68,4.0,2.86,22 / 23,2237175,2019-09-07 11:04:30:329,-0.4416,-0.5966,9.6495,-0.008,-0.0026,9.8066,-0.03,-0.0694,0.0016,-32.56,-30.06,-2.62,279.02,-82.19,-158.65
66586,52.40633,-1.508513,151.44,8.68,4.0,2.86,20 / 21,2237275,2019-09-07 11:04:30:429,-0.5171,-0.7628,9.3868,-0.0135,-0.0027,9.8066,-0.0293,-0.0731,0.0194,-32.69,-30.06,-3.06,279.88,-82.37,-157.98
66587,52.40633,-1.508513,151.44,8.68,4.0,2.86,20 / 21,2237375,2019-09-07 11:04:30:529,-0.6241,-0.9065,9.8432,-0.0109,-0.0085,9.8066,-0.0358,-0.0966,0.0319,-33.69,-29.75,-2.87,281.55,-82.53,-156.83
66588,52.40633,-1.508513,151.44,8.68,4.0,2.86,20 / 21,2237476,2019-09-07 11:04:30:630,-0.7547,-1.3351,10.1014,-0.0144,-0.0127,9.8066,-0.035,-0.1291,0.0246,-33.31,-30.37,-2.75,282.52,-82.67,-155.66
66589,52.40633,-1.508513,151.44,8.68,4.0,2.86,20 / 21,2237575,2019-09-07 11:04:30:729,-0.6631,-1.0001,9.7563,-0.0013,-0.0019,9.8065,-0.0064,-0.1312,0.024,-33.56,-30.56,-2.62,283.47,-82.75,-154.93
66590,52.40633,-1.508513,151.44,8.68,4.0,2.86,20 / 21,2237675,2019-09-07 11:04:30:829,-0.4374,-1.0943,9.455,-0.0037,-0.0052,9.8066,-0.0233,-0.18,0.0394,-33.81,-29.87,-2.06,285.9,-82.77,-154.45
66591,52.40633,-1.508513,151.44,8.68,4.0,2.86,20 / 21,2237775,2019-09-07 11:04:30:929,-0.8358,-1.5149,9.9523,-0.0044,-0.0067,9.8066,-0.0208,-0.1997,0.0324,-34.06,-29.81,-1.94,286.94,-82.76,-153.43
66592,52.40633,-1.508513,151.44,8.68,4.0,2.86,20 / 21,2237875,2019-09-07 11:04:31:029,-0.6043,-1.2578,10.3592,-0.002,-0.006,9.8066,-0.0254,-0.2208,0.0342,-34.44,-30.19,-2.31,287.92,-82.78,-152.49
66593,52.40633,-1.508513,151.44,8.68,4.0,2.86,20 / 21,2237975,2019-09-07 11:04:31:129,-0.8464,-1.372,10.0116,-0.0004,-0.0066,9.8066,-0.0128,-0.2182,0.0334,-34.81,-29.37,-2.31,289.51,-82.8,-151.43
66594,52.40633,-1.508513,151.44,8.68,4.0,2.86,20 / 21,2238075,2019-09-07 11:04:31:229,-0.7049,-1.1568,9.4686,0.0054,0.0003,9.8066,0.0017,-0.2135,0.0336,-35.19,-29.5,-1.44,291.03,-82.77,-151.56
66595,52.40633,-1.508513,151.44,8.68,4.0,2.86,20 / 21,2238175,2019-09-07 11:04:31:329,-0.4466,-1.3917,9.2059,0.0012,-0.0026,9.8066,-0.0071,-0.2395,0.0424,-35.5,-29.56,-1.12,290.7,-82.7,-151.62
66596,52.40689,-1.508221,152.5,5.67,4.0,42.11,21 / 23,2238275,2019-09-07 11:04:31:429,-0.6721,-1.0755,9.4554,-0.0041,-0.0047,9.8066,-0.0312,-0.2566,0.0446,-35.62,-29.81,-0.94,291.46,-82.69,-151.09
66597,52.40689,-1.508221,152.5,5.67,4.0,42.11,21 / 23,2238376,2019-09-07 11:04:31:530,-1.0939,-1.3831,9.9834,-0.0165,-0.0169,9.8066,-0.0437,-0.2603,0.0509,-36.0,-29.37,-0.75,293.16,-82.75,-149.69
66598,52.40689,-1.508221,152.5,5.67,4.0,42.11,21 / 23,2238475,2019-09-07 11:04:31:629,-1.1658,-1.2822,10.289,-0.0121,-0.0044,9.8066,-0.0387,-0.2582,0.0275,-36.94,-29.69,-0.69,294.19,-82.83,-148.76
66599,52.40689,-1.508221,152.5,5.67,4.0,42.11,21 / 23,2238575,2019-09-07 11:04:31:729,-1.1129,-1.2121,10.1854,-0.0029,0.0024,9.8066,-0.008,-0.2516,0.0305,-36.5,-29.25,-0.19,296.52,-82.94,-148.19
66600,52.40689,-1.508221,152.5,5.67,4.0,42.11,21 / 23,2238675,2019-09-07 11:04:31:829,-0.8631,-0.9881,9.5924,0.0099,0.0064,9.8066,0.0094,-0.2774,0.0128,-36.31,-28.62,0.31,295.47,-82.86,-149.14
66601,52.40689,-1.508221,152.5,5.67,4.0,42.11,21 / 23,2238775,2019-09-07 11:04:31:929,-0.7595,-1.1214,9.614,0.0102,-0.0025,9.8066,0.0031,-0.2717,0.0302,-37.06,-28.81,1.0,296.7,-82.74,-149.55
66602,52.40689,-1.508221,152.5,5.67,4.0,42.11,21 / 23,2238875,2019-09-07 11:04:32:029,-0.1903,-1.1443,10.1944,0.0064,-0.0052,9.8065,-0.0071,-0.2865,0.0292,-37.62,-29.25,0.5,296.6,-82.68,-149.7
66603,52.40689,-1.508221,152.5,5.67,4.0,42.11,21 / 23,2238975,2019-09-07 11:04:32:129,-0.3145,-1.3488,10.0258,0.0087,-0.0019,9.8066,0.0058,-0.2824,0.0354,-37.62,-28.81,1.13,296.48,-82.53,-149.71
66604,52.40689,-1.508221,152.5,5.67,4.0,42.11,21 / 23,2239075,2019-09-07 11:04:32:229,-0.2683,-1.5466,9.9197,0.0066,0.0034,9.8066,-0.0008,-0.2732,0.0356,-38.5,-28.44,2.0,297.98,-82.41,-149.87
66605,52.40689,-1.508221,152.5,5.67,4.0,42.11,21 / 23,2239175,2019-09-07 11:04:32:329,-0.2744,-1.2529,9.6892,0.0042,0.0003,9.8066,-0.0117,-0.3008,0.029,-38.56,-28.12,2.44,297.46,-82.32,-150.36
66606,52.40689,-1.508221,152.5,5.67,4.0,42.11,21 / 23,2239276,2019-09-07 11:04:32:430,-0.1309,-1.3381,9.7931,0.0008,-0.0021,9.8066,-0.0199,-0.3076,0.0295,-38.44,-28.94,3.06,298.75,-82.27,-150.35
66607,52.40689,-1.508221,152.5,5.67,4.0,42.11,21 / 23,2239376,2019-09-07 11:04:32:530,-0.0804,-1.5167,9.9503,0.0008,-0.0013,9.8066,-0.011,-0.3046,0.0395,-39.06,-28.31,2.5,298.98,-82.24,-150.31
66608,52.40689,-1.508221,152.5,5.67,4.0,42.11,21 / 23,2239476,2019-09-07 11:04:32:630,-0.7544,-1.4106,9.9946,0.0023,0.0033,9.8066,-0.0163,-0.323,0.0204,-39.06,-28.12,3.38,298.82,-82.21,-150.45
66609,52.40689,-1.508221,152.5,5.67,4.0,42.11,21 / 23,2239575,2019-09-07 11:04:32:729,-0.6061,-1.3895,9.9986,-0.002,0.0024,9.8066,-0.0287,-0.3331,0.0172,-39.37,-28.56,4.38,300.01,-82.24,-150.62
66610,52.40689,-1.508221,152.5,5.67,4.0,42.11,21 / 23,2239675,2019-09-07 11:04:32:829,-0.6208,-1.1929,10.1962,-0.0024,0.0029,9.8066,-0.0172,-0.3156,0.0323,-39.5,-27.87,4.69,301.6,-82.28,-150.76
66611,52.40689,-1.508221,152.5,5.67,4.0,42.11,21 / 23,2239775,2019-09-07 11:04:32:929,-0.5066,-0.9948,9.9583,0.0021,-0.0021,9.8066,-0.0084,-0.3068,0.0519,-39.81,-28.0,5.0,301.52,-82.27,-150.77
66612,52.40689,-1.508221,152.5,5.67,4.0,42.11,21 / 23,2239875,2019-09-07 11:04:33:029,-0.0002,-1.1851,9.7889,0.0034,-0.0049,9.8066,-0.0124,-0.3168,0.0396,-39.87,-28.19,5.94,303.22,-82.2,-150.53
66613,52.40689,-1.508221,152.5,5.67,4.0,42.11,21 / 23,2239975,2019-09-07 11:04:33:129,0.1749,-1.3795,9.9201,0.006,-0.0019,9.8066,-0.0114,-0.3342,0.0093,-40.25,-27.87,6.63,304.72,-82.14,-150.48
66614,52.40689,-1.508221,152.5,5.67,4.0,42.11,21 / 23,2240075,2019-09-07 11:04:33:229,-0.0971,-1.2097,9.6724,0.0021,0.001,9.8066,-0.0211,-0.3012,0.0396,-39.87,-27.25,6.56,304.44,-82.08,-150.86
66615,52.40689,-1.508221,152.5,5.67,4.0,42.11,21 / 23,2240175,2019-09-07 11:04:33:329,-0.3035,-1.1772,9.992,0.0004,0.0029,9.8066,-0.0159,-0.3092,0.0232,-39.62,-27.31,7.81,305.99,-82.08,-150.8
66616,52.40689,-1.508221,152.5,5.67,4.0,42.11,22 / 24,2240276,2019-09-07 11:04:33:430,-0.2101,-1.1223,10.0468,0.0009,0.0032,9.8066,-0.0206,-0.3149,0.0209,-40.19,-27.56,8.0,305.5,-82.1,-151.12
66617,52.40689,-1.508221,152.5,5.67,4.0,42.11,22 / 24,2240375,2019-09-07 11:04:33:529,-0.264,-0.4818,10.1524,0.0018,-0.0019,9.8066,0.0006,-0.2924,0.0483,-39.62,-28.06,8.44,305.35,-82.11,-151.26
66618,52.40689,-1.508221,152.5,5.67,4.0,42.11,22 / 24,2240475,2019-09-07 11:04:33:629,-0.3622,-0.4781,9.8989,0.0118,-0.0024,9.8066,0.026,-0.2616,0.0314,-39.12,-27.0,9.81,308.45,-81.98,-151.43
66619,52.40689,-1.508221,152.5,5.67,4.0,42.11,22 / 24,2240576,2019-09-07 11:04:33:730,0.2878,-0.5621,9.5617,0.0232,-0.0103,9.8065,0.0554,-0.2447,0.0629,-40.31,-27.87,9.06,305.78,-81.77,-152.03
66620,52.40689,-1.508221,152.5,5.67,4.0,42.11,22 / 24,2240675,2019-09-07 11:04:33:829,0.0784,-1.4217,9.5463,0.0218,-0.0145,9.8066,0.0327,-0.2565,0.0447,-40.25,-27.56,10.5,307.98,-81.31,-152.43
66621,52.40689,-1.508221,152.5,5.67,4.0,42.11,22 / 24,2240776,2019-09-07 11:04:33:930,0.1714,-0.7804,9.3809,0.0105,-0.0026,9.8066,-0.0083,-0.2572,0.0285,-39.87,-27.62,11.69,308.35,-81.05,-153.28
66622,52.40689,-1.508221,152.5,5.67,4.0,42.11,22 / 24,2240876,2019-09-07 11:04:34:030,-0.084,-0.9346,9.7001,-0.0047,-0.0049,9.8066,-0.051,-0.2461,0.0242,-40.37,-27.94,11.88,308.75,-81.03,-152.89
66623,52.40689,-1.508221,152.5,5.67,4.0,42.11,22 / 24,2240976,2019-09-07 11:04:34:130,-0.0388,-0.6774,10.0394,-0.0139,0.013,9.8066,-0.0557,-0.2072,0.014,-40.94,-27.62,12.5,310.07,-81.19,-152.78
66624,52.40689,-1.508221,152.5,5.67,4.0,42.11,22 / 24,2241076,2019-09-07 11:04:34:230,0.1163,-0.0714,9.7604,-0.0144,0.0028,9.8066,-0.0586,-0.1992,0.0321,-40.31,-27.25,13.06,311.12,-81.48,-152.43
66625,52.40689,-1.508221,152.5,5.67,4.0,42.11,22 / 24,2241176,2019-09-07 11:04:34:330,-0.1207,-0.4429,9.8546,-0.0132,-0.0006,9.8066,-0.0363,-0.1796,0.0227,-40.56,-27.0,13.5,313.32,-81.6,-151.4
66626,52.40689,-1.508221,152.5,5.67,4.0,42.11,20 / 22,2241276,2019-09-07 11:04:34:430,0.3139,-0.1948,8.8195,-0.0025,0.0021,9.8066,-0.0153,-0.1412,0.0262,-41.12,-26.87,13.13,312.68,-81.68,-150.76
66627,52.40689,-1.508221,152.5,5.67,4.0,42.11,20 / 22,2241375,2019-09-07 11:04:34:529,0.2773,-0.2794,9.881,-0.0018,0.0061,9.8066,-0.0142,-0.1355,-0.0016,-40.69,-26.12,13.38,312.98,-81.74,-150.65
66628,52.40689,-1.508221,152.5,5.67,4.0,42.11,20 / 22,2241475,2019-09-07 11:04:34:629,-0.0336,0.0653,9.9681,-0.0038,0.0031,9.8066,-0.033,-0.1191,-0.0004,-40.5,-26.56,13.88,314.14,-81.85,-151.13
66629,52.40689,-1.508221,152.5,5.67,4.0,42.11,20 / 22,2241575,2019-09-07 11:04:34:729,-0.0707,0.1888,10.3972,0.0022,0.0029,9.8066,-0.0193,-0.1092,-0.021,-40.37,-26.62,13.19,312.74,-81.9,-151.14
66630,52.40689,-1.508221,152.5,5.67,4.0,42.11,20 / 22,2241675,2019-09-07 11:04:34:829,0.1049,0.3693,9.7677,0.0111,0.0004,9.8066,0.0221,-0.07,-0.0039,-40.69,-26.5,13.5,313.2,-81.9,-151.82
66631,52.40689,-1.508221,152.5,5.67,4.0,42.11,20 / 22,2241775,2019-09-07 11:04:34:929,0.4829,0.0986,9.7646,0.0185,-0.0072,9.8066,0.0301,-0.0645,-0.0058,-40.56,-26.5,13.88,312.01,-81.68,-152.81
66632,52.40689,-1.508221,152.5,5.67,4.0,42.11,20 / 22,2241875,2019-09-07 11:04:35:029,0.5799,0.3678,9.4713,0.0158,-0.0029,9.8066,0.0247,-0.0486,-0.0263,-40.56,-27.06,14.13,310.99,-81.54,-153.56
66633,52.40689,-1.508221,152.5,5.67,4.0,42.11,20 / 22,2241975,2019-09-07 11:04:35:129,0.5553,0.1743,9.7871,0.0054,-0.0035,9.8066,-0.01,-0.0291,0.0007,-40.56,-26.87,14.0,310.2,-81.36,-154.21
66634,52.40689,-1.508221,152.5,5.67,4.0,42.11,20 / 22,2242075,2019-09-07 11:04:35:229,0.5605,0.1672,10.1143,-0.0118,-0.0017,9.8066,-0.0247,0.0002,0.0167,-40.06,-26.81,14.69,312.79,-81.44,-153.46
66635,52.40689,-1.508221,152.5,5.67,4.0,42.11,20 / 22,2242175,2019-09-07 11:04:35:329,0.2811,0.2865,10.1885,-0.0065,0.0034,9.8066,-0.0204,-0.0071,-0.0139,-40.75,-27.19,14.69,312.84,-81.51,-153.08
66636,52.40689,-1.508221,152.5,5.67,4.0,42.11,22 / 24,2242276,2019-09-07 11:04:35:430,0.6246,0.8782,9.316,0.0022,0.0035,9.8066,0.0103,0.0284,-0.0083,-41.25,-26.87,14.56,312.46,-81.57,-153.47
66637,52.40689,-1.508221,152.5,5.67,4.0,42.11,22 / 24,2242375,2019-09-07 11:04:35:529,0.2112,0.2851,9.3583,-0.0017,-0.0069,9.8066,-0.0111,0.0036,-0.0017,-40.5,-26.69,14.63,312.9,-81.54,-153.41
66638,52.40689,-1.508221,152.5,5.67,4.0,42.11,22 / 24,2242475,2019-09-07 11:04:35:629,0.593,0.445,9.6347,-0.0002,0.0004,9.8066,-0.0191,-0.0114,-0.0269,-40.75,-27.44,13.5,311.27,-81.56,-153.3
66639,52.40689,-1.508221,152.5,5.67,4.0,42.11,22 / 24,2242575,2019-09-07 11:04:35:729,0.5579,0.397,10.385,-0.0012,-0.0101,9.8066,0.0001,0.0193,0.0316,-41.12,-26.62,14.13,311.58,-81.56,-153.01
66640,52.40689,-1.508221,152.5,5.67,4.0,42.11,22 / 24,2242676,2019-09-07 11:04:35:830,0.3617,0.0215,9.4083,-0.0017,-0.0063,9.8066,-0.0116,-0.0003,-0.0204,-40.37,-27.06,14.13,312.83,-81.5,-152.16
66641,52.40689,-1.508221,152.5,5.67,4.0,42.11,22 / 24,2242775,2019-09-07 11:04:35:929,0.0994,-0.0919,9.7356,0.003,0.0121,9.8066,-0.0103,-0.0015,-0.0499,-41.75,-27.19,14.13,311.84,-81.54,-152.43
66642,52.40689,-1.508221,152.5,5.67,4.0,42.11,22 / 24,2242876,2019-09-07 11:04:36:030,0.3185,0.8681,10.3144,0.0093,0.004,9.8066,0.0094,-0.0149,-0.032,-41.31,-27.06,14.0,311.1,-81.58,-153.48
66643,52.40689,-1.508221,152.5,5.67,4.0,42.11,22 / 24,2242975,2019-09-07 11:04:36:129,0.3512,0.5392,10.0042,0.004,-0.0038,9.8066,0.0093,0.0102,0.015,-41.12,-27.25,14.63,311.87,-81.48,-153.97
66644,52.40689,-1.508221,152.5,5.67,4.0,42.11,22 / 24,2243076,2019-09-07 11:04:36:230,-0.0023,-0.0064,9.7773,0.0078,-0.0032,9.8066,0.0267,0.0238,-0.0118,-42.31,-27.69,14.06,309.91,-81.36,-154.0
66645,52.40689,-1.508221,152.5,5.67,4.0,42.11,22 / 24,2243175,2019-09-07 11:04:36:329,0.4657,0.2987,10.0502,0.0072,0.0017,9.8066,0.0104,0.0101,-0.0212,-42.5,-27.25,14.69,310.85,-81.29,-154.47
66646,52.40689,-1.508221,152.5,5.67,4.0,42.11,22 / 23,2243277,2019-09-07 11:04:36:431,0.7444,0.5346,10.1612,-0.0005,0.0023,9.8066,-0.0144,0.0053,-0.025,-42.25,-27.44,14.81,310.48,-81.26,-154.8
66647,52.40689,-1.508221,152.5,5.67,4.0,42.11,22 / 23,2243376,2019-09-07 11:04:36:530,0.1963,0.8379,9.8969,0.001,0.0033,9.8066,0.0074,0.0176,-0.0073,-42.25,-27.5,14.88,310.22,-81.31,-155.07
66648,52.40689,-1.508221,152.5,5.67,4.0,42.11,22 / 23,2243476,2019-09-07 11:04:36:630,0.431,0.3036,9.8544,0.0035,-0.0038,9.8065,0.0084,0.0181,-0.005,-42.81,-27.19,14.69,309.75,-81.25,-155.15
66649,52.40689,-1.508221,152.5,5.67,4.0,42.11,22 / 23,2243575,2019-09-07 11:04:36:729,0.4595,0.4272,9.4786,0.0027,0.0022,9.8066,0.0085,0.0259,-0.0165,-42.44,-27.06,14.38,308.54,-81.21,-155.35
66650,52.40689,-1.508221,152.5,5.67,4.0,42.11,22 / 23,2243675,2019-09-07 11:04:36:829,0.1572,0.7795,10.1152,-0.0041,0.0009,9.8066,-0.0092,0.0422,0.0157,-42.25,-26.75,14.19,308.38,-81.23,-155.52
66651,52.40689,-1.508221,152.5,5.67,4.0,42.11,22 / 23,2243775,2019-09-07 11:04:36:929,0.3477,0.5141,9.7458,-0.0047,-0.0003,9.8066,-0.023,0.0084,-0.023,-42.5,-27.75,13.25,307.23,-81.27,-155.19
66652,52.40689,-1.508221,152.5,5.67,4.0,42.11,22 / 23,2243875,2019-09-07 11:04:37:029,0.4045,0.6331,9.796,0.0005,0.0004,9.8066,-0.0115,0.003,-0.0245,-42.81,-27.37,13.31,307.04,-81.32,-155.28
66653,52.40689,-1.508221,152.5,5.67,4.0,42.11,22 / 23,2243976,2019-09-07 11:04:37:130,0.3727,0.7348,10.0875,-0.0001,0.0001,9.8066,-0.0072,0.0149,-0.0004,-41.94,-27.87,13.44,307.11,-81.34,-155.35
66654,52.40689,-1.508221,152.5,5.67,4.0,42.11,22 / 23,2244075,2019-09-07 11:04:37:229,0.0073,0.6242,9.9755,-0.0015,-0.0059,9.8066,-0.0076,-0.0034,0.0108,-42.0,-27.44,12.81,307.5,-81.34,-155.14
66655,52.40689,-1.508221,152.5,5.67,4.0,42.11,22 / 23,2244175,2019-09-07 11:04:37:329,0.1359,0.518,9.4566,0.0019,-0.0104,9.8065,0.0158,0.0038,0.021,-42.12,-27.69,12.88,308.2,-81.25,-154.28
66656,52.40689,-1.508221,152.5,5.67,4.0,42.11,22 / 23,2244275,2019-09-07 11:04:37:429,-0.3293,0.2085,9.6085,-0.0057,-0.0064,9.8066,-0.0156,-0.0148,-0.009,-41.81,-27.37,13.13,309.16,-81.17,-153.48
66657,52.40689,-1.508221,152.5,5.67,4.0,42.11,22 / 23,2244375,2019-09-07 11:04:37:529,0.2663,0.5404,10.4196,-0.0012,0.0076,9.8065,-0.0136,-0.0157,-0.0357,-42.25,-27.37,13.19,309.28,-81.25,-153.41
66658,52.40689,-1.508221,152.5,5.67,4.0,42.11,22 / 23,2244476,2019-09-07 11:04:37:630,-0.735,-0.1297,9.7703,-0.001,-0.0043,9.8066,0.0151,0.012,0.0124,-41.56,-27.94,13.19,309.21,-81.23,-153.31
66659,52.40689,-1.508221,152.5,5.67,4.0,42.11,22 / 23,2244575,2019-09-07 11:04:37:729,-0.63,1.1655,9.4246,0.0093,-0.0091,9.8066,0.0241,0.0056,0.0082,-41.87,-27.87,13.25,308.79,-81.22,-153.7
66660,52.40689,-1.508221,152.5,5.67,4.0,42.11,22 / 23,2244675,2019-09-07 11:04:37:829,0.8711,0.2254,9.9417,0.01,-0.0086,9.8066,-0.0187,-0.0683,-0.038,-41.56,-28.06,14.44,310.16,-80.98,-153.54
66661,52.40689,-1.508221,152.5,5.67,4.0,42.11,22 / 23,2244775,2019-09-07 11:04:37:929,0.3757,-0.0046,10.5667,-0.0045,0.0057,9.8066,-0.0228,0.0027,-0.0037,-41.62,-28.31,14.19,310.48,-80.86,-153.18
66662,52.40689,-1.508221,152.5,5.67,4.0,42.11,22 / 23,2244876,2019-09-07 11:04:38:030,0.2044,0.7925,10.6776,-0.0129,0.0048,9.8066,-0.0525,-0.0185,-0.0239,-41.94,-28.37,14.75,312.0,-81.05,-153.11
66663,52.40689,-1.508221,152.5,5.67,4.0,42.11,22 / 23,2244975,2019-09-07 11:04:38:129,-1.2019,0.972,9.7948,-0.0211,0.0138,9.8065,-0.0703,-0.0532,-0.0224,-42.69,-28.37,14.5,312.36,-81.42,-152.64
66664,52.40689,-1.508221,152.5,5.67,4.0,42.11,22 / 23,2245076,2019-09-07 11:04:38:230,-1.1579,0.9395,9.2077,-0.0082,0.0014,9.8065,0.0376,0.0394,0.0424,-42.81,-27.56,14.44,311.75,-81.47,-152.01
66665,52.40689,-1.508221,152.5,5.67,4.0,42.11,22 / 23,2245176,2019-09-07 11:04:38:330,1.3811,1.1425,10.3455,0.0172,0.0013,9.8066,0.0511,0.0468,0.0221,-42.44,-27.19,14.38,311.68,-81.4,-152.5
66666,52.40689,-1.508221,152.5,5.67,4.0,42.11,23 / 24,2245276,2019-09-07 11:04:38:430,-0.662,0.2677,8.9982,0.0119,-0.0075,9.8066,-0.007,-0.0633,-0.0395,-42.75,-27.06,13.63,310.11,-81.17,-153.54
66667,52.40689,-1.508221,152.5,5.67,4.0,42.11,23 / 24,2245375,2019-09-07 11:04:38:529,-0.7888,0.4346,9.1756,-0.0025,0.0027,9.8066,-0.0342,-0.0689,-0.0374,-42.69,-26.94,14.0,310.02,-81.07,-153.57
