,GPS LATITUDE (degrees), GPS LONGITUDE (degrees), GPS ALTITUDE (m), GPS SPEED (Kmh), GPS ACCURACY (m), GPS ORIENTATION (Â°),GPS SATELLITES IN RANGE, TIME SINCE START (ms), DATE (YYYY-MO-DD HH-MI-SS_SSS), ACCELEROMETER X (m/s²) , ACCELEROMETER Y (m/s²), ACCELEROMETER Z (m/s²), GRAVITY X (m/s²), GRAVITY Y (m/s²), GRAVITY Z (m/s²), GYROSCOPE Yaw (rad/s), GYROSCOPE Pitch (rad/s), GYROSCOPE Roll (rad/s), MAGNETIC FIELD X (Î¼T), MAGNETIC FIELD Y (Î¼T), MAGNETIC FIELD Z (Î¼T), ORIENTATION (Yaw) (Â°), ORIENTATION (Pitch) (Â°), ORIENTATION (Roll ) (Â°)
37797,53.408978,-1.396609,118.51,25.39,4,323.18,21 / 21,3779739,2019-11-08 11:00:17:350,2.8324,-0.7739,9.4866,0.0362,0.0035,9.8065,-0.002,-0.163,0.2531,-2.19,-47.0,32.63,32.02,-81.15,-151.5
37798,53.408978,-1.396609,118.51,25.39,4,323.18,21 / 21,3779839,2019-11-08 11:00:17:450,1.7455,0.1165,9.5203,0.0126,0.0182,9.8065,0.0596,-0.2008,0.0522,-2.94,-46.81,33.13,29.56,-81.1,-151.78
37799,53.408978,-1.396609,118.51,25.39,4,323.18,21 / 21,3779939,2019-11-08 11:00:17:550,0.3269,-0.2832,9.1598,-0.0118,-0.0017,9.8065,0.0566,-0.0716,0.0241,-2.75,-46.31,33.75,29.24,-81.21,-151.79
37800,53.408978,-1.396609,118.51,25.39,4,323.18,21 / 21,3780038,2019-11-08 11:00:17:649,1.8023,-0.4473,9.2557,0.0023,0.0025,9.8066,-0.0169,0.1203,-0.1362,-2.12,-46.56,33.19,31.77,-81.23,-151.64
37801,53.408978,-1.396609,118.51,25.39,4,323.18,21 / 21,3780139,2019-11-08 11:00:17:750,-0.7797,-0.7691,10.6354,-0.0249,-0.0161,9.8065,-0.0635,0.1514,-0.1427,-2.0,-46.19,32.75,30.3,-81.39,-152.57
37802,53.408978,-1.396609,118.51,25.39,4,323.18,21 / 21,3780239,2019-11-08 11:00:17:850,3.0449,-0.9744,9.3582,-0.0196,-0.0086,9.8066,0.0254,0.2772,-0.1552,-2.31,-46.94,33.69,30.79,-81.36,-152.24
37803,53.408978,-1.396609,118.51,25.39,4,323.18,21 / 21,3780339,2019-11-08 11:00:17:950,0.4389,-1.3357,10.9444,-0.0122,-0.0181,9.8066,-0.0026,0.132,-0.2073,-2.44,-46.5,33.5,29.48,-81.33,-153.21
37804,53.408978,-1.396609,118.51,25.39,4,323.18,21 / 21,3780439,2019-11-08 11:00:18:050,-1.5963,-0.5423,9.9774,-0.0068,-0.0231,9.8066,-0.0895,-0.0105,0.1786,-2.19,-46.06,33.38,29.95,-81.15,-153.03
37805,53.408978,-1.396609,118.51,25.39,4,323.18,21 / 21,3780539,2019-11-08 11:00:18:150,2.0249,0.0744,9.1477,0.0095,0.0194,9.8065,0.1046,-0.2471,0.0255,-2.31,-46.62,33.13,31.24,-81.07,-152.19
37806,53.408978,-1.396609,118.51,25.39,4,323.18,21 / 21,3780638,2019-11-08 11:00:18:249,-1.9252,-0.1938,10.1736,0.0208,0.0022,9.8066,0.0529,-0.252,0.1295,-2.37,-46.62,33.5,31.17,-81.1,-152.13
37807,53.408978,-1.396609,118.51,25.39,4,323.18,21 / 21,3780738,2019-11-08 11:00:18:349,1.8024,0.8924,9.3095,0.0297,0.023,9.8065,0.0303,-0.1772,0.071,-3.25,-46.5,33.13,30.16,-81.15,-151.12
37808,53.408978,-1.396609,118.51,25.39,4,323.18,21 / 21,3780838,2019-11-08 11:00:18:449,2.2421,0.3764,9.191,0.0276,0.0157,9.8065,-0.0259,-0.0109,-0.0779,-2.5,-46.75,33.19,31.24,-81.44,-151.89
37809,53.408978,-1.396609,118.51,25.39,4,323.18,21 / 21,3780938,2019-11-08 11:00:18:549,0.6703,0.0019,8.699,-0.0036,0.0025,9.8066,-0.0615,0.2443,-0.0801,-2.81,-46.5,33.0,29.32,-81.52,-151.52
37810,53.408978,-1.396609,118.51,25.39,4,323.18,21 / 21,3781038,2019-11-08 11:00:18:649,2.6353,-0.0225,10.1512,-0.0081,0.0232,9.8066,0.0069,0.2905,-0.2015,-1.87,-46.56,33.25,31.79,-81.58,-151.33
37811,53.408978,-1.396609,118.51,25.39,4,323.18,21 / 21,3781138,2019-11-08 11:00:18:749,-1.1697,0.148,10.3026,-0.0324,-0.0171,9.8066,-0.0098,0.1879,-0.0796,-1.62,-47.0,33.38,30.64,-81.62,-152.24
37812,53.408978,-1.396609,118.51,25.39,4,323.18,21 / 21,3781239,2019-11-08 11:00:18:850,0.0271,0.4067,9.6856,-0.0356,-0.0098,9.8066,-0.0112,0.1712,-0.0019,-3.0,-45.94,33.44,28.89,-81.51,-151.88
37813,53.408978,-1.396609,118.51,25.39,4,323.18,21 / 21,3781338,2019-11-08 11:00:18:949,-2.5792,0.1218,10.0973,-0.0211,-0.0124,9.8065,-0.0684,-0.1588,0.0624,-2.56,-46.62,33.13,29.62,-81.46,-151.45
37814,53.408978,-1.396609,118.51,25.39,4,323.18,21 / 21,3781439,2019-11-08 11:00:19:050,-0.3234,-0.5025,10.3149,-0.0347,-0.0045,9.8065,0.0132,-0.2281,0.2061,-2.62,-46.69,32.75,31.03,-81.34,-150.4
37815,53.408978,-1.396609,118.51,25.39,4,323.18,21 / 21,3781539,2019-11-08 11:00:19:150,3.0131,0.0115,9.2752,-0.025,-0.0265,9.8065,0.1446,-0.3799,0.1171,-2.81,-46.44,33.0,29.88,-81.38,-151.18
37816,53.408978,-1.396609,118.51,25.39,4,323.18,21 / 21,3781639,2019-11-08 11:00:19:250,-1.4104,-1.5745,10.3087,0.0145,-0.019,9.8065,0.0576,-0.3285,0.1129,-2.31,-46.5,33.81,31.05,-81.44,-151.83
37817,53.408978,-1.396609,118.51,25.39,4,323.18,21 / 21,3781738,2019-11-08 11:00:19:349,3.1434,-0.3372,8.7776,0.0372,0.0278,9.8065,0.0308,-0.0145,-0.0162,-2.56,-45.75,32.88,27.79,-81.27,-152.94
37818,53.408978,-1.396609,118.51,25.39,4,323.18,21 / 21,3781838,2019-11-08 11:00:19:449,1.1646,-1.0608,9.8654,0.036,0.0213,9.8065,-0.0449,0.1159,-0.1027,-2.5,-46.06,33.25,28.76,-81.55,-153.7
37819,53.408978,-1.396609,118.51,25.39,4,323.18,21 / 21,3781938,2019-11-08 11:00:19:549,3.2137,-0.2173,8.9055,-0.0054,0.0127,9.8066,-0.0588,0.4028,-0.2695,-2.25,-45.62,33.31,29.09,-81.52,-153.45
37820,53.408978,-1.396609,118.51,25.39,4,323.18,21 / 21,3782038,2019-11-08 11:00:19:649,-1.2232,-1.038,10.6932,0.0466,0.0344,9.8064,-0.1024,0.3811,-0.2712,-2.19,-46.5,33.0,30.16,-81.47,-152.62
37821,53.408978,-1.396609,118.51,25.39,4,323.18,21 / 21,3782138,2019-11-08 11:00:19:749,-3.1795,0.5058,10.4843,0.0397,0.0175,9.8065,-0.0267,0.285,-0.1306,-2.44,-46.69,32.88,29.02,-81.81,-153.41
37822,53.408978,-1.396609,118.51,25.39,4,323.18,21 / 21,3782238,2019-11-08 11:00:19:849,3.5918,-0.0882,8.9137,-0.0016,-0.0081,9.8065,0.0218,0.1494,-0.1062,-2.56,-46.37,33.75,27.46,-81.67,-152.92
37823,53.408978,-1.396609,118.51,25.39,4,323.18,21 / 21,3782338,2019-11-08 11:00:19:949,-3.8686,0.6642,10.5272,0.0239,0.0308,9.8065,-0.0262,-0.2034,0.2167,-2.12,-46.44,33.75,29.97,-81.76,-152.48
37824,53.408978,-1.396609,118.51,25.39,4,323.18,21 / 21,3782438,2019-11-08 11:00:20:049,1.7821,0.1892,9.2873,-0.0418,-0.025,9.8065,0.0194,-0.3874,0.2054,-2.25,-46.5,32.81,30.07,-81.43,-152.72
37825,53.408978,-1.396609,118.51,25.39,4,323.18,21 / 21,3782538,2019-11-08 11:00:20:149,3.8369,-0.8991,9.6046,0.0193,-0.0175,9.8065,0.0234,-0.3199,0.2485,-2.12,-46.44,33.81,29.57,-81.47,-153.03
37826,53.408978,-1.396609,118.51,25.39,4,323.18,21 / 21,3782639,2019-11-08 11:00:20:250,-2.4553,-0.0054,9.1974,-0.0325,0.0049,9.8066,-0.0351,-0.2159,0.1751,-2.31,-46.0,33.06,27.97,-81.53,-154.35
37827,53.408978,-1.396609,118.51,25.39,4,323.18,21 / 21,3782739,2019-11-08 11:00:20:350,0.3132,-0.6682,9.953,0.0511,0.031,9.8064,0.0393,-0.1409,0.119,-2.62,-46.75,33.44,29.08,-81.41,-151.93
37828,53.408978,-1.396609,118.51,25.39,4,323.18,21 / 21,3782838,2019-11-08 11:00:20:449,-2.9011,0.9949,10.0279,-0.004,-0.0086,9.8065,0.0547,0.0907,0.0066,-1.56,-47.06,33.44,29.78,-81.55,-153.0
37829,53.408978,-1.396609,118.51,25.39,4,323.18,21 / 21,3782938,2019-11-08 11:00:20:549,2.9116,0.0885,9.374,0.0626,0.0279,9.8064,-0.0829,0.3268,-0.2386,-2.37,-46.44,33.56,31.01,-81.57,-151.77
37830,53.408978,-1.396609,118.51,25.39,4,323.18,21 / 21,3783038,2019-11-08 11:00:20:649,-3.4559,0.8894,10.4921,0.0278,0.0113,9.8065,-0.0128,0.4805,-0.1799,-2.37,-46.56,33.88,30.09,-81.82,-152.46
37831,53.408978,-1.396609,118.51,25.39,4,323.18,21 / 21,3783138,2019-11-08 11:00:20:749,2.4119,0.0066,9.4862,0.0266,0.0054,9.8066,-0.0459,0.4433,-0.3064,-2.87,-47.0,33.25,29.23,-81.7,-151.58
37832,53.408978,-1.396609,118.51,25.39,4,323.18,21 / 21,3783238,2019-11-08 11:00:20:849,3.2015,0.0391,9.7066,0.0532,0.026,9.8064,-0.099,0.3636,-0.1989,-2.06,-46.94,33.75,32.05,-81.59,-151.03
37833,53.408978,-1.396609,118.51,25.39,4,323.18,21 / 21,3783338,2019-11-08 11:00:20:949,2.4938,0.4947,9.1471,-0.0089,-0.0065,9.8066,0.0487,0.1038,-0.1239,-2.12,-45.81,33.31,30.32,-81.96,-152.11
37834,53.408978,-1.396609,118.51,25.39,4,323.18,21 / 21,3783438,2019-11-08 11:00:21:049,2.3566,-0.5741,9.4732,0.0399,0.0224,9.8064,-0.0335,-0.0351,-0.0537,-2.37,-46.19,32.81,29.64,-82.2,-152.49
37835,53.408978,-1.396609,118.51,25.39,4,323.18,22 / 22,3783538,2019-11-08 11:00:21:149,-3.0852,1.7171,10.4349,0.0543,0.0217,9.8064,0.0356,-0.3139,0.2167,-1.69,-46.0,33.19,28.17,-82.28,-153.65
37836,53.408978,-1.396609,118.51,25.39,4,323.18,22 / 22,3783638,2019-11-08 11:00:21:249,2.5752,0.5318,10.363,-0.0123,-0.0057,9.8065,0.0668,-0.3973,0.221,-1.81,-46.62,33.25,28.88,-82.12,-153.3
37837,53.408978,-1.396609,118.51,25.39,4,323.18,22 / 22,3783739,2019-11-08 11:00:21:350,-2.8846,0.9413,10.8354,-0.0456,-0.011,9.8065,0.0314,-0.3314,0.2598,-2.31,-46.75,33.13,27.83,-82.0,-154.25
37838,53.408978,-1.396609,118.51,25.39,4,323.18,22 / 22,3783839,2019-11-08 11:00:21:450,-0.0949,1.3595,9.2964,-0.0398,-0.0041,9.8065,0.0067,-0.2603,0.1445,-2.19,-46.69,32.94,29.85,-81.94,-152.63
37839,53.408978,-1.396609,118.51,25.39,4,323.18,22 / 22,3783939,2019-11-08 11:00:21:550,-3.4363,0.3299,11.1217,-0.0184,-0.0159,9.8066,-0.0195,-0.1134,0.1079,-2.44,-46.12,33.25,29.44,-82.0,-152.8
37840,53.408978,-1.396609,118.51,25.39,4,323.18,22 / 22,3784039,2019-11-08 11:00:21:650,-1.1524,0.6643,9.9078,-0.0259,-0.0242,9.8065,0.0603,0.1966,-0.2232,-3.06,-46.12,33.5,27.73,-81.88,-152.55
37841,53.408978,-1.396609,118.51,25.39,4,323.18,22 / 22,3784139,2019-11-08 11:00:21:750,4.4129,0.3755,9.2193,0.0322,0.0022,9.8065,-0.0691,0.3191,-0.234,-2.31,-46.06,33.13,29.35,-81.73,-153.08
37842,53.408978,-1.396609,118.51,25.39,4,323.18,22 / 22,3784239,2019-11-08 11:00:21:850,-0.8045,0.1696,9.2099,-0.0217,-0.0231,9.8066,-0.0188,0.4818,-0.1921,-2.06,-46.25,32.44,28.18,-81.79,-154.05
37843,53.408978,-1.396609,118.51,25.39,4,323.18,22 / 22,3784339,2019-11-08 11:00:21:950,4.2921,1.8077,8.2066,-0.0452,-0.0095,9.8065,-0.0627,0.3946,-0.2836,-3.0,-46.81,33.44,28.34,-81.6,-152.39
37844,53.408978,-1.396609,118.51,25.39,4,323.18,22 / 22,3784438,2019-11-08 11:00:22:049,0.5635,0.3934,9.935,0.025,0.0241,9.8065,-0.042,0.1166,0.0294,-2.56,-46.56,33.25,27.98,-81.87,-152.48
37845,53.408978,-1.396609,118.51,25.39,4,323.18,22 / 23,3784538,2019-11-08 11:00:22:149,3.7127,1.0305,8.9507,0.0113,0.0009,9.8066,-0.0587,-0.0308,0.0334,-2.44,-45.94,33.81,30.69,-81.78,-151.87
37846,53.408978,-1.396609,118.51,25.39,4,323.18,22 / 23,3784639,2019-11-08 11:00:22:250,0.6224,0.4488,10.5665,0.042,0.0081,9.8065,0.0012,-0.246,0.2078,-2.62,-46.25,32.94,29.27,-81.73,-151.41
37847,53.408978,-1.396609,118.51,25.39,4,323.18,22 / 23,3784739,2019-11-08 11:00:22:350,-3.2962,-0.0847,11.2441,-0.0217,-0.0446,9.8064,0.1067,-0.3566,0.2749,-2.37,-46.44,33.25,29.24,-81.88,-153.06
37848,53.408978,-1.396609,118.51,25.39,4,323.18,22 / 23,3784838,2019-11-08 11:00:22:449,0.7316,-0.6498,10.3312,0.0126,0.0129,9.8066,0.0821,-0.4535,0.2575,-2.81,-46.5,33.13,27.44,-81.63,-152.97
37849,53.408978,-1.396609,118.51,25.39,4,323.18,22 / 23,3784938,2019-11-08 11:00:22:549,-4.161,-0.8979,11.0783,-0.0469,-0.0287,9.8065,0.0857,-0.3153,0.1542,-2.25,-45.87,32.75,29.63,-81.68,-152.9
37850,53.408978,-1.396609,118.51,25.39,4,323.18,22 / 23,3785038,2019-11-08 11:00:22:649,0.7118,0.3336,8.9538,-0.0285,0.0002,9.8065,-0.0443,0.0045,-0.049,-2.5,-46.37,33.13,30.75,-81.63,-152.01
37851,53.408978,-1.396609,118.51,25.39,4,323.18,22 / 23,3785139,2019-11-08 11:00:22:750,-4.4199,-0.2461,10.903,0.0168,0.0081,9.8065,-0.0471,0.1829,-0.1121,-2.5,-46.19,32.75,29.44,-81.86,-152.91
37852,53.408978,-1.396609,118.51,25.39,4,323.18,22 / 23,3785239,2019-11-08 11:00:22:850,0.8207,0.6007,10.0616,-0.0452,-0.0274,9.8065,-0.0697,0.469,-0.3481,-2.69,-46.44,33.5,26.26,-81.92,-153.74
37853,53.408978,-1.396609,118.51,25.39,4,323.18,22 / 23,3785340,2019-11-08 11:00:22:951,2.6206,0.7026,9.6647,0.0141,0.0074,9.8066,-0.1129,0.5534,-0.2929,-2.37,-46.19,33.06,28.64,-81.71,-153.67
37854,53.408978,-1.396609,118.51,25.39,4,323.18,22 / 23,3785439,2019-11-08 11:00:23:050,-5.3838,1.3073,11.1128,-0.0311,-0.0154,9.8065,-0.0474,0.3674,-0.2075,-2.37,-45.94,33.75,30.12,-81.61,-152.47
37855,53.408978,-1.396609,118.51,25.39,4,323.18,23 / 23,3785539,2019-11-08 11:00:23:150,3.1702,-0.517,10.0843,0.0524,0.0212,9.8064,0.0559,0.0418,-0.1196,-2.19,-46.25,33.25,30.19,-81.44,-152.62
37856,53.408978,-1.396609,118.51,25.39,4,323.18,23 / 23,3785638,2019-11-08 11:00:23:249,-3.2359,-0.2412,10.9517,0.0536,0.0174,9.8064,0.093,-0.3724,0.2349,-2.31,-46.44,33.38,29.77,-81.44,-152.96
37857,53.408978,-1.396609,118.51,25.39,4,323.18,23 / 23,3785738,2019-11-08 11:00:23:349,-1.1587,-0.8401,9.0693,0.0088,0.0333,9.8065,0.0793,-0.4056,0.204,-2.44,-47.0,32.13,28.83,-81.51,-153.86
37858,53.408978,-1.396609,118.51,25.39,4,323.18,23 / 23,3785838,2019-11-08 11:00:23:449,-3.4555,-0.3505,10.1394,0.0449,0.0265,9.8064,0.0312,-0.4799,0.3509,-2.75,-46.44,32.94,26.84,-81.87,-153.29
37859,53.408978,-1.396609,118.51,25.39,4,323.18,23 / 23,3785938,2019-11-08 11:00:23:549,-3.2886,-1.2198,11.0084,-0.0203,-0.0444,9.8064,0.0531,-0.329,0.212,-2.87,-47.12,33.0,28.68,-81.88,-151.9
37860,53.408978,-1.396609,118.51,25.39,4,323.18,23 / 23,3786038,2019-11-08 11:00:23:649,3.48,0.8596,9.0309,0.0077,-0.0074,9.8066,-0.0126,0.1665,-0.1368,-2.69,-46.44,32.94,26.66,-81.71,-153.55
37861,53.408978,-1.396609,118.51,25.39,4,323.18,23 / 23,3786138,2019-11-08 11:00:23:749,-2.4436,0.3949,10.4823,-0.0308,-0.0267,9.8065,-0.0083,0.3898,-0.2099,-2.75,-46.12,33.06,24.44,-81.73,-155.34
37862,53.408978,-1.396609,118.51,25.39,4,323.18,23 / 23,3786239,2019-11-08 11:00:23:850,2.4516,0.4548,8.8361,-0.0445,-0.0156,9.8064,-0.128,0.3921,-0.2264,-2.44,-46.44,32.81,25.78,-81.61,-156.07
37863,53.408978,-1.396609,118.51,25.39,4,323.18,23 / 23,3786339,2019-11-08 11:00:23:950,2.9691,1.0082,8.9494,-0.0073,0.0001,9.8066,-0.1642,0.3453,-0.139,-2.62,-46.44,33.13,26.0,-81.53,-154.21
37864,53.408978,-1.396609,118.51,25.39,4,323.18,23 / 23,3786439,2019-11-08 11:00:24:050,1.1906,0.6543,9.6691,-0.0344,-0.0159,9.8065,0.0099,0.0176,-0.0178,-2.5,-46.56,32.63,30.15,-81.42,-152.79
37865,53.408978,-1.396609,118.51,25.39,4,323.18,23 / 23,3786539,2019-11-08 11:00:24:150,3.9723,0.7857,9.2842,-0.0519,-0.0287,9.8064,0.0333,-0.1724,0.084,-2.31,-47.06,32.69,30.02,-81.33,-152.97
37866,53.408978,-1.396609,118.51,25.39,4,323.18,23 / 23,3786639,2019-11-08 11:00:24:250,-1.0609,0.3845,10.5406,0.0228,0.0081,9.8065,0.0668,-0.4454,0.2331,-2.06,-47.06,33.5,28.5,-81.49,-154.0
37867,53.408978,-1.396609,118.51,25.39,4,323.18,23 / 23,3786738,2019-11-08 11:00:24:349,4.106,-0.1281,9.2209,0.0263,0.0183,9.8065,0.0725,-0.45,0.2347,-1.87,-46.81,34.38,28.82,-81.38,-153.83
37868,53.408978,-1.396609,118.51,25.39,4,323.18,23 / 23,3786838,2019-11-08 11:00:24:449,-0.2309,0.3461,9.369,0.0546,0.0201,9.8065,-0.0664,-0.2012,0.1408,-2.56,-46.0,34.06,27.54,-81.37,-153.06
37869,53.408978,-1.396609,118.51,25.39,4,323.18,23 / 23,3786938,2019-11-08 11:00:24:549,-3.6869,-0.4454,10.8448,-0.0297,-0.0095,9.8065,-0.0103,0.2517,-0.1087,-2.19,-45.69,33.38,27.84,-81.6,-154.4
37870,53.408978,-1.396609,118.51,25.39,4,323.18,23 / 23,3787038,2019-11-08 11:00:24:649,1.3889,1.1565,8.9775,-0.0008,0.0029,9.8066,-0.1129,0.3758,-0.2157,-2.19,-45.87,33.5,29.09,-81.5,-153.39
37871,53.408978,-1.396609,118.51,25.39,4,323.18,23 / 23,3787139,2019-11-08 11:00:24:750,-3.3186,-0.1443,10.6034,-0.0377,-0.03,9.8064,-0.1277,0.4747,-0.2626,-2.87,-45.56,33.06,26.83,-81.58,-153.5
37872,53.408978,-1.396609,118.51,25.39,4,323.18,23 / 23,3787239,2019-11-08 11:00:24:850,-0.5835,-0.7858,10.7805,-0.0359,-0.0249,9.8064,0.0096,0.2217,-0.1664,-2.75,-45.87,33.13,26.98,-81.27,-153.59
37873,53.408978,-1.396609,118.51,25.39,4,323.18,23 / 23,3787339,2019-11-08 11:00:24:950,-1.6936,0.3013,10.3167,0.0078,-0.0075,9.8066,0.0082,-0.137,0.13,-2.37,-45.62,33.56,28.19,-81.39,-154.21
37874,53.408978,-1.396609,118.51,25.39,4,323.18,23 / 23,3787439,2019-11-08 11:00:25:050,-1.8971,-0.548,11.0471,-0.0305,0.0003,9.8065,0.1084,-0.3061,0.2028,-2.44,-45.25,33.25,27.35,-81.37,-154.84
37875,53.408978,-1.396609,118.51,25.39,4,323.18,23 / 23,3787539,2019-11-08 11:00:25:150,3.0506,0.1483,9.0663,0.0359,0.0211,9.8065,0.0311,-0.431,0.1973,-2.87,-45.62,33.81,25.79,-81.25,-154.56
37876,53.408978,-1.396609,118.51,25.39,4,323.18,23 / 23,3787639,2019-11-08 11:00:25:250,-2.9569,-1.4507,10.6048,0.0367,0.0326,9.8065,0.0156,-0.2283,0.1694,-2.62,-45.31,33.25,24.66,-81.49,-155.2
37877,53.408978,-1.396609,118.51,25.39,4,323.18,23 / 23,3787738,2019-11-08 11:00:25:349,1.1616,-0.4082,9.4979,0.0098,0.0094,9.8066,-0.0955,0.1596,-0.1199,-2.62,-45.31,33.69,24.87,-81.4,-155.1
37878,53.408978,-1.396609,118.51,25.39,4,323.18,23 / 23,3787838,2019-11-08 11:00:25:449,3.2711,1.1839,8.1882,0.0448,0.0296,9.8065,-0.1273,0.3151,-0.1689,-2.69,-45.19,33.25,23.9,-81.63,-155.73
37879,53.408978,-1.396609,118.51,25.39,4,323.18,23 / 23,3787938,2019-11-08 11:00:25:549,-0.1932,-0.1949,10.1453,-0.0336,-0.017,9.8065,-0.0255,0.3773,-0.2377,-2.0,-45.69,33.38,25.75,-81.55,-156.13
37880,53.408978,-1.396609,118.51,25.39,4,323.18,23 / 23,3788038,2019-11-08 11:00:25:649,3.5081,-0.1095,9.6025,-0.005,-0.0267,9.8066,-0.0154,0.2768,-0.1783,-2.12,-45.06,33.63,25.57,-81.44,-156.19
37881,53.408978,-1.396609,118.51,25.39,4,323.18,23 / 23,3788138,2019-11-08 11:00:25:749,0.9234,-0.0534,10.1737,-0.0335,-0.0212,9.8065,0.0623,-0.0585,0.0912,-2.69,-45.5,33.5,23.1,-81.18,-156.66
37882,53.408978,-1.396609,118.51,25.39,4,323.18,23 / 23,3788238,2019-11-08 11:00:25:849,2.5357,0.1509,9.1075,-0.0457,-0.022,9.8065,0.061,-0.3277,0.1389,-2.12,-45.44,32.81,27.09,-80.95,-155.35
37883,53.408978,-1.396609,118.51,25.39,4,323.18,23 / 23,3788339,2019-11-08 11:00:25:950,1.6182,0.5591,8.9597,0.0285,0.0271,9.8065,0.0958,-0.381,0.2669,-2.75,-45.62,33.38,26.12,-81.02,-154.45
37884,53.408978,-1.396609,118.51,25.39,4,323.18,23 / 23,3788438,2019-11-08 11:00:26:049,-2.6828,-0.7617,10.9319,-0.0209,-0.0067,9.8066,0.1208,-0.3422,0.1676,-3.06,-45.75,32.94,25.94,-81.14,-154.51
37885,53.410656,-1.39868,117.19,25.69,4,322.74,22 / 23,3788538,2019-11-08 11:00:26:149,-1.7625,0.5973,10.0889,0.0475,0.032,9.8065,0.0132,-0.1214,-0.0091,-2.87,-45.94,33.19,26.91,-81.14,-153.74
37886,53.410656,-1.39868,117.19,25.69,4,322.74,22 / 23,3788639,2019-11-08 11:00:26:250,-0.2312,-0.0812,10.6394,0.0306,0.0168,9.8065,-0.0149,0.1944,-0.0172,-3.12,-46.0,32.88,27.47,-81.07,-153.34
37887,53.410656,-1.39868,117.19,25.69,4,322.74,22 / 23,3788739,2019-11-08 11:00:26:350,3.9875,0.7401,9.1241,0.0002,-0.0066,9.8066,-0.1192,0.4552,-0.37,-3.25,-46.56,33.25,26.88,-81.21,-153.83
37888,53.410656,-1.39868,117.19,25.69,4,322.74,22 / 23,3788838,2019-11-08 11:00:26:449,0.7013,0.3417,9.9774,0.0505,0.0227,9.8065,-0.1439,0.4569,-0.2654,-3.06,-46.81,33.88,26.72,-81.21,-153.95
37889,53.410656,-1.39868,117.19,25.69,4,322.74,22 / 23,3788938,2019-11-08 11:00:26:549,-4.6273,-0.34,11.2576,-0.0392,-0.035,9.8065,-0.0487,0.184,-0.1461,-3.94,-47.25,34.19,22.93,-81.29,-155.25
37890,53.410656,-1.39868,117.19,25.69,4,322.74,22 / 23,3789038,2019-11-08 11:00:26:649,3.9967,0.4636,8.713,-0.0025,0.0008,9.8066,-0.0527,-0.1226,-0.0028,-3.37,-48.31,33.88,24.67,-81.27,-155.67
37891,53.410656,-1.39868,117.19,25.69,4,322.74,22 / 23,3789138,2019-11-08 11:00:26:749,-2.9832,0.4811,10.1872,-0.0484,-0.0156,9.8065,0.1431,-0.4337,0.3195,-3.69,-47.56,33.0,20.95,-81.43,-156.78
37892,53.410656,-1.39868,117.19,25.69,4,322.74,22 / 23,3789238,2019-11-08 11:00:26:849,-2.025,0.2505,9.7693,-0.0467,-0.0297,9.8064,0.0977,-0.4615,0.2142,-3.25,-47.31,32.75,23.45,-81.56,-156.34
37893,53.410656,-1.39868,117.19,25.69,4,322.74,22 / 23,3789338,2019-11-08 11:00:26:949,-1.451,-0.0198,10.4978,0.012,0.0226,9.8066,0.0523,-0.2208,0.2247,-3.44,-46.5,33.69,26.15,-81.18,-154.31
37894,53.410656,-1.39868,117.19,25.69,4,322.74,22 / 23,3789438,2019-11-08 11:00:27:049,-3.1044,-1.0958,10.7491,-0.0117,-0.0162,9.8066,0.0143,0.0009,0.0411,-2.44,-46.31,33.38,28.08,-81.15,-154.54
37895,53.410656,-1.39868,117.19,25.69,4,322.74,22 / 23,3789538,2019-11-08 11:00:27:149,1.5929,0.0892,9.4754,-0.032,-0.0302,9.8065,-0.0301,0.2949,-0.2149,-3.12,-46.12,33.88,26.98,-81.02,-153.75
37896,53.410656,-1.39868,117.19,25.69,4,322.74,22 / 23,3789639,2019-11-08 11:00:27:250,-4.9263,0.5093,11.0505,0.0412,0.0196,9.8065,-0.037,0.4659,-0.2323,-2.5,-46.19,33.06,27.26,-81.23,-155.13
37897,53.410656,-1.39868,117.19,25.69,4,322.74,22 / 23,3789739,2019-11-08 11:00:27:350,0.4455,-1.2208,10.4441,0.0183,-0.0108,9.8065,-0.0757,0.4447,-0.2981,-2.62,-45.75,33.88,25.59,-81.15,-154.78
37898,53.410656,-1.39868,117.19,25.69,4,322.74,22 / 23,3789838,2019-11-08 11:00:27:449,4.1418,0.4352,7.1688,0.0507,0.0513,9.8063,-0.0429,0.2273,-0.1842,-2.75,-46.0,33.25,26.06,-80.98,-154.52
37899,53.410656,-1.39868,117.19,25.69,4,322.74,22 / 23,3789939,2019-11-08 11:00:27:550,-2.7886,0.9457,9.2485,0.0381,0.0607,9.8063,-0.0279,-0.3697,0.2093,-2.56,-45.69,32.88,24.9,-81.39,-155.18
37900,53.410656,-1.39868,117.19,25.69,4,322.74,22 / 23,3790038,2019-11-08 11:00:27:649,4.3475,-0.092,9.6841,-0.0548,0.0152,9.8064,-0.0091,-0.4951,0.3621,-2.87,-45.87,33.0,26.66,-81.27,-153.85
37901,53.410656,-1.39868,117.19,25.69,4,322.74,22 / 23,3790140,2019-11-08 11:00:27:751,-0.5848,0.2634,9.3619,0.0546,0.0086,9.8064,0.0026,-0.4949,0.3314,-3.12,-45.56,32.75,23.33,-81.45,-156.41
37902,53.410656,-1.39868,117.19,25.69,4,322.74,22 / 23,3790238,2019-11-08 11:00:27:849,4.7193,0.8127,8.4032,-0.044,-0.0519,9.8063,0.0581,-0.2283,0.0543,-2.94,-45.87,32.94,25.82,-81.15,-154.6
37903,53.410656,-1.39868,117.19,25.69,4,322.74,22 / 23,3790338,2019-11-08 11:00:27:949,1.5315,0.1836,9.6847,-0.0499,-0.0346,9.8065,-0.0469,0.1221,0.0141,-2.44,-45.69,33.06,27.78,-81.24,-154.7
37904,53.410656,-1.39868,117.19,25.69,4,322.74,22 / 23,3790438,2019-11-08 11:00:28:049,-4.1982,1.1081,10.5246,-0.0076,-0.0262,9.8066,0.0061,0.4593,-0.3726,-2.5,-45.87,33.06,26.71,-81.43,-155.44
37905,53.410656,-1.39868,117.19,25.69,4,322.74,22 / 23,3790538,2019-11-08 11:00:28:149,2.2876,2.1377,9.1075,0.0715,0.0337,9.8063,-0.095,0.5281,-0.4057,-2.19,-45.69,32.81,28.49,-81.25,-154.13
37906,53.410656,-1.39868,117.19,25.69,4,322.74,22 / 23,3790639,2019-11-08 11:00:28:250,-3.3823,0.5221,11.3262,0.0223,0.0238,9.8066,-0.0386,0.3633,-0.1608,-2.69,-45.25,32.81,24.15,-81.53,-155.59
37907,53.410656,-1.39868,117.19,25.69,4,322.74,22 / 23,3790739,2019-11-08 11:00:28:350,2.0786,1.2951,9.4385,0.0249,0.0109,9.8065,0.0197,0.1151,-0.0714,-2.37,-45.81,32.75,25.84,-81.45,-156.13
37908,53.410656,-1.39868,117.19,25.69,4,322.74,22 / 23,3790839,2019-11-08 11:00:28:450,3.5237,0.7061,9.7883,0.0386,0.0275,9.8065,0.077,-0.2553,0.1282,-2.37,-46.37,32.75,26.04,-81.3,-156.07
37909,53.410656,-1.39868,117.19,25.69,4,322.74,22 / 23,3790939,2019-11-08 11:00:28:550,-0.66,-0.044,9.9454,-0.0248,-0.0313,9.8065,0.138,-0.4116,0.1722,-2.87,-46.62,32.81,22.03,-81.53,-157.49
37910,53.410656,-1.39868,117.19,25.69,4,322.74,22 / 23,3791038,2019-11-08 11:00:28:649,3.8773,-0.3206,8.4236,-0.0223,-0.0018,9.8065,0.0493,-0.2455,0.1985,-2.62,-46.06,33.06,21.98,-81.36,-157.53
37911,53.410656,-1.39868,117.19,25.69,4,322.74,22 / 23,3791138,2019-11-08 11:00:28:749,1.3828,0.25,9.1425,-0.0241,-0.0039,9.8065,-0.0024,-0.0414,0.0193,-2.56,-46.12,32.75,22.06,-81.49,-157.39
37912,53.410656,-1.39868,117.19,25.69,4,322.74,22 / 23,3791238,2019-11-08 11:00:28:849,2.4239,0.3867,8.3927,-0.0283,-0.0303,9.8065,-0.0824,0.3512,-0.1524,-3.06,-46.06,32.5,22.93,-81.44,-156.73
37913,53.410656,-1.39868,117.19,25.69,4,322.74,22 / 23,3791338,2019-11-08 11:00:28:949,3.4381,0.6313,8.8382,0.0456,0.0237,9.8065,-0.1098,0.4396,-0.258,-2.44,-46.0,32.63,24.47,-81.56,-157.15
37914,53.410656,-1.39868,117.19,25.69,4,322.74,22 / 23,3791438,2019-11-08 11:00:29:049,-0.6194,-0.6682,10.6801,0.0082,-0.006,9.8066,-0.0927,0.1517,-0.0404,-2.19,-45.94,33.19,23.01,-81.71,-158.24
37915,53.410656,-1.39868,117.19,25.69,4,322.74,23 / 23,3791538,2019-11-08 11:00:29:149,2.9393,-0.0889,9.9997,0.0222,0.0027,9.8066,-0.0059,-0.0222,0.0357,-2.0,-46.25,33.19,24.1,-81.67,-157.39
37916,53.410656,-1.39868,117.19,25.69,4,322.74,23 / 23,3791639,2019-11-08 11:00:29:250,-0.6934,-0.0455,10.0915,-0.0097,-0.0189,9.8065,0.1048,-0.2301,0.0731,-2.37,-46.12,33.38,23.25,-81.62,-158.11
37917,53.410656,-1.39868,117.19,25.69,4,322.74,23 / 23,3791739,2019-11-08 11:00:29:350,-2.1169,-1.2977,10.4959,-0.0072,0.0022,9.8066,0.1015,-0.3332,0.1825,-2.69,-46.19,33.0,19.79,-81.65,-159.13
37918,53.410656,-1.39868,117.19,25.69,4,322.74,23 / 23,3791839,2019-11-08 11:00:29:450,1.0339,-1.4632,9.1974,0.0035,0.0357,9.8066,0.0865,-0.3073,0.142,-1.81,-46.06,33.38,23.58,-81.83,-157.72
37919,53.410656,-1.39868,117.19,25.69,4,322.74,23 / 23,3791939,2019-11-08 11:00:29:550,-1.8794,1.3762,10.9562,-0.0376,-0.0162,9.8065,0.0204,0.0472,0.0891,-2.56,-46.06,32.5,23.43,-81.94,-156.03
37920,53.410656,-1.39868,117.19,25.69,4,322.74,23 / 23,3792039,2019-11-08 11:00:29:650,0.4565,-0.1968,9.9056,-0.0306,-0.0011,9.8065,-0.0356,0.1177,-0.1454,-2.62,-46.12,32.75,26.06,-81.77,-154.0
37921,53.410656,-1.39868,117.19,25.69,4,322.74,23 / 23,3792139,2019-11-08 11:00:29:750,-2.2089,0.7843,10.8405,-0.0214,-0.0065,9.8065,-0.1129,0.3365,-0.0634,-2.06,-45.94,33.38,27.11,-81.74,-154.9
37922,53.410656,-1.39868,117.19,25.69,4,322.74,23 / 23,3792239,2019-11-08 11:00:29:850,0.0427,-1.4397,10.1963,-0.0385,-0.0236,9.8064,-0.0912,0.2531,-0.1608,-2.81,-46.56,32.81,25.4,-81.74,-154.66
37923,53.410656,-1.39868,117.19,25.69,4,322.74,23 / 23,3792338,2019-11-08 11:00:29:949,3.3131,0.9924,9.6109,0.0337,-0.0092,9.8066,-0.1752,0.3443,-0.0753,-2.69,-45.75,33.25,26.54,-81.55,-153.76
37924,53.410656,-1.39868,117.19,25.69,4,322.74,23 / 23,3792438,2019-11-08 11:00:30:049,0.3505,0.9583,9.1568,0.0072,0.0048,9.8066,0.1483,-0.1038,-0.0524,-2.25,-45.87,32.69,27.82,-81.57,-154.45
37925,53.410656,-1.39868,117.19,25.69,4,322.74,23 / 23,3792540,2019-11-08 11:00:30:151,4.3779,-0.4185,8.655,0.039,0.029,9.8065,0.1171,-0.3032,0.1473,-2.19,-46.0,32.75,27.01,-81.37,-155.24
37926,53.410656,-1.39868,117.19,25.69,4,322.74,23 / 23,3792639,2019-11-08 11:00:30:250,-2.8749,-0.8443,10.5446,0.0387,0.0353,9.8064,0.0787,-0.4164,0.2072,-2.37,-45.81,33.38,27.82,-81.29,-154.65
37927,53.410656,-1.39868,117.19,25.69,4,322.74,23 / 23,3792738,2019-11-08 11:00:30:349,-1.3938,0.3998,10.7085,-0.0263,-0.0048,9.8066,0.0232,-0.3925,0.1637,-2.5,-46.44,32.94,27.01,-81.47,-155.17
37928,53.410656,-1.39868,117.19,25.69,4,322.74,23 / 23,3792839,2019-11-08 11:00:30:450,3.0786,0.144,7.9623,0.0264,0.016,9.8066,-0.016,-0.005,0.0912,-2.69,-45.44,33.19,25.62,-81.56,-154.38
37929,53.410656,-1.39868,117.19,25.69,4,322.74,23 / 23,3792938,2019-11-08 11:00:30:549,-3.0308,-0.3277,9.4265,-0.0445,-0.0102,9.8065,0.016,0.1884,-0.1214,-2.81,-46.12,33.13,27.29,-81.69,-153.05
37930,53.410656,-1.39868,117.19,25.69,4,322.74,23 / 23,3793038,2019-11-08 11:00:30:649,3.1135,0.1166,8.9696,-0.0298,0.005,9.8065,-0.048,0.3956,-0.2347,-3.19,-45.94,33.13,27.96,-81.71,-152.5
37931,53.410656,-1.39868,117.19,25.69,4,322.74,23 / 23,3793138,2019-11-08 11:00:30:749,0.7413,1.0699,9.1479,-0.0315,-0.011,9.8065,-0.0632,0.3784,-0.1572,-2.81,-45.81,33.19,27.77,-81.73,-152.63
37932,53.410656,-1.39868,117.19,25.69,4,322.74,23 / 23,3793238,2019-11-08 11:00:30:849,1.9976,1.1177,8.3212,-0.0525,-0.056,9.8063,-0.1469,0.1723,-0.1207,-3.0,-45.62,33.25,27.5,-81.71,-152.86
37933,53.410656,-1.39868,117.19,25.69,4,322.74,23 / 23,3793339,2019-11-08 11:00:30:950,2.0226,1.4107,9.963,0.0377,0.0059,9.8065,-0.1103,0.0167,0.0753,-2.56,-46.06,33.13,29.37,-81.42,-151.55
37934,53.410656,-1.39868,117.19,25.69,4,322.74,23 / 23,3793439,2019-11-08 11:00:31:050,-3.4469,-0.3347,10.1339,0.0025,0.0038,9.8066,0.0012,-0.3756,0.1815,-2.87,-45.75,32.81,28.48,-81.6,-152.15
37935,53.410656,-1.39868,117.19,25.69,4,322.74,23 / 23,3793539,2019-11-08 11:00:31:150,3.0872,0.7046,8.1478,0.0768,0.0119,9.8062,-0.1267,-0.3966,0.2477,-3.12,-46.31,32.88,28.42,-81.79,-152.06
37936,53.410656,-1.39868,117.19,25.69,4,322.74,23 / 23,3793638,2019-11-08 11:00:31:249,-3.0992,-0.6443,11.6846,0.0473,0.0677,9.8063,0.1985,-0.378,0.1102,-2.06,-46.06,32.94,27.31,-82.29,-154.36
37937,53.410656,-1.39868,117.19,25.69,4,322.74,23 / 23,3793739,2019-11-08 11:00:31:350,4.0645,-0.975,10.1577,-0.0374,0.0264,9.8065,0.0048,0.1215,-0.106,-2.69,-46.19,32.5,22.53,-82.07,-156.68
37938,53.410656,-1.39868,117.19,25.69,4,322.74,23 / 23,3793839,2019-11-08 11:00:31:450,4.1345,0.3109,9.1891,0.0392,0.0179,9.8065,-0.0061,0.4738,-0.1743,-2.5,-46.06,33.06,28.66,-82.12,-153.36
37939,53.410656,-1.39868,117.19,25.69,4,322.74,23 / 23,3793938,2019-11-08 11:00:31:549,-2.5487,-0.2814,9.8432,-0.0827,-0.0253,9.8062,-0.0808,0.441,-0.3539,-2.81,-46.31,33.56,25.19,-82.48,-154.27
37940,53.410656,-1.39868,117.19,25.69,4,322.74,23 / 23,3794038,2019-11-08 11:00:31:649,3.6147,0.6976,8.9563,-0.0311,-0.0104,9.8065,-0.0416,0.2493,-0.115,-2.81,-46.12,32.38,28.88,-82.43,-151.21
37941,53.410656,-1.39868,117.19,25.69,4,322.74,23 / 23,3794138,2019-11-08 11:00:31:749,-0.1851,-1.2335,9.6865,-0.0065,-0.0205,9.8066,0.0317,-0.0968,0.011,-2.31,-45.37,33.44,30.74,-82.43,-151.28
37942,53.410656,-1.39868,117.19,25.69,4,322.74,23 / 23,3794238,2019-11-08 11:00:31:849,-2.6795,0.1577,10.221,-0.0383,-0.0024,9.8066,0.0234,-0.2757,0.0717,-2.81,-45.25,33.13,27.97,-82.24,-152.0
37943,53.410656,-1.39868,117.19,25.69,4,322.74,23 / 23,3794338,2019-11-08 11:00:31:949,0.2825,-0.2049,10.1861,0.0348,0.0353,9.8065,0.2258,-0.3002,0.256,-2.75,-45.81,32.75,27.57,-81.96,-152.64
37944,53.410656,-1.39868,117.19,25.69,4,322.74,23 / 23,3794438,2019-11-08 11:00:32:049,-2.0575,0.6279,9.9919,-0.0102,-0.0188,9.8065,0.1236,-0.2935,0.064,-1.87,-45.87,33.31,28.51,-82.06,-153.53
37945,53.410656,-1.39868,117.19,25.69,4,322.74,23 / 23,3794539,2019-11-08 11:00:32:150,1.1798,-1.3471,9.4999,0.0475,0.016,9.8064,-0.0742,-0.021,0.1658,-2.25,-46.25,32.88,31.06,-82.03,-151.44
37946,53.410656,-1.39868,117.19,25.69,4,322.74,23 / 23,3794639,2019-11-08 11:00:32:250,-2.0624,0.1218,10.2345,0.0212,0.0402,9.8065,-0.0864,0.1366,-0.035,-2.5,-45.75,33.0,31.35,-82.41,-150.91
37947,53.410656,-1.39868,117.19,25.69,4,322.74,23 / 23,3794738,2019-11-08 11:00:32:349,2.4897,0.4075,9.3328,0.0373,0.0101,9.8065,-0.0552,0.3096,-0.1812,-2.62,-45.56,33.44,28.93,-82.45,-151.16
37948,53.410656,-1.39868,117.19,25.69,4,322.74,23 / 23,3794839,2019-11-08 11:00:32:450,2.5651,0.5453,9.0944,0.0101,0.005,9.8066,-0.0549,0.368,-0.059,-2.44,-45.87,33.38,31.53,-82.42,-150.75
37949,53.410656,-1.39868,117.19,25.69,4,322.74,23 / 23,3794939,2019-11-08 11:00:32:550,-2.2797,0.5964,10.4946,-0.0485,-0.0181,9.8064,-0.049,0.1132,-0.2087,-2.19,-45.62,32.94,30.45,-82.55,-151.55
37950,53.410656,-1.39868,117.19,25.69,4,322.74,23 / 23,3795039,2019-11-08 11:00:32:650,2.4997,0.5803,9.7731,-0.007,-0.0045,9.8066,-0.0243,0.0368,-0.0007,-2.87,-45.81,32.81,30.04,-82.5,-150.19
37951,53.410656,-1.39868,117.19,25.69,4,322.74,23 / 23,3795138,2019-11-08 11:00:32:749,-0.7005,0.6106,10.2403,-0.0233,-0.0016,9.8065,0.0822,-0.197,0.0674,-2.5,-45.62,32.25,31.17,-82.51,-151.04
37952,53.410656,-1.39868,117.19,25.69,4,322.74,23 / 23,3795238,2019-11-08 11:00:32:849,-1.203,1.5671,9.501,-0.0027,-0.0063,9.8066,0.0162,-0.2254,0.002,-2.56,-45.44,32.44,29.19,-82.53,-150.77
37953,53.410656,-1.39868,117.19,25.69,4,322.74,23 / 23,3795338,2019-11-08 11:00:32:949,-0.3645,0.8277,9.6613,0.0254,0.0265,9.8065,-0.0038,-0.048,0.1992,-2.12,-45.37,32.75,32.37,-82.47,-149.88
37954,53.410656,-1.39868,117.19,25.69,4,322.74,23 / 23,3795438,2019-11-08 11:00:33:049,-0.3617,1.3793,10.183,0.0017,-0.0034,9.8065,0.0631,-0.0267,-0.0436,-2.94,-45.25,32.06,28.55,-82.69,-151.18
37955,53.410656,-1.39868,117.19,25.69,4,322.74,23 / 23,3795538,2019-11-08 11:00:33:149,0.6819,-2.6499,10.2796,0.0333,0.0118,9.8065,-0.0877,0.2118,-0.0876,-3.12,-45.19,32.63,30.34,-82.58,-149.77
37956,53.410656,-1.39868,117.19,25.69,4,322.74,23 / 23,3795638,2019-11-08 11:00:33:249,0.6835,-1.7438,9.9062,0.0026,0.0378,9.8065,-0.0886,0.2753,0.0134,-2.62,-45.81,32.56,30.75,-82.79,-149.38
37957,53.410656,-1.39868,117.19,25.69,4,322.74,23 / 23,3795739,2019-11-08 11:00:33:350,-0.9219,-0.816,9.9965,-0.0286,-0.0057,9.8066,0.1303,-0.0562,-0.104,-2.44,-45.87,32.06,31.25,-82.78,-150.75
37958,53.410656,-1.39868,117.19,25.69,4,322.74,23 / 23,3795839,2019-11-08 11:00:33:450,-0.5931,1.4317,11.4867,-0.015,-0.0148,9.8065,0.0829,-0.1967,0.0478,-2.56,-45.44,32.75,30.88,-82.57,-149.33
37959,53.410656,-1.39868,117.19,25.69,4,322.74,23 / 23,3795939,2019-11-08 11:00:33:550,-1.9034,-0.9732,12.752,-0.061,-0.0259,9.8064,0.2436,-0.2017,0.1107,-3.06,-45.56,32.63,26.72,-82.6,-152.9
37960,53.410656,-1.39868,117.19,25.69,4,322.74,23 / 23,3796039,2019-11-08 11:00:33:650,1.7537,1.359,7.7577,0.0069,-0.1196,9.8059,0.3889,-0.5086,-0.0986,-3.25,-45.5,32.31,29.15,-82.72,-150.66
37961,53.410656,-1.39868,117.19,25.69,4,322.74,23 / 23,3796138,2019-11-08 11:00:33:749,1.4664,-0.9828,10.7688,-0.0756,0.0039,9.8063,0.0454,-0.1071,0.096,-2.69,-45.37,32.0,29.82,-82.16,-150.52
37962,53.410656,-1.39868,117.19,25.69,4,322.74,23 / 23,3796240,2019-11-08 11:00:33:851,-2.2963,0.4915,9.8732,-0.0183,0.013,9.8066,-0.0895,0.0085,0.0436,-3.06,-45.37,32.38,28.77,-82.03,-151.48
37963,53.410656,-1.39868,117.19,25.69,4,322.74,23 / 23,3796339,2019-11-08 11:00:33:950,2.1885,-0.2115,9.3118,0.0005,-0.0358,9.8065,-0.1619,0.2968,-0.0711,-2.75,-45.5,32.13,27.81,-82.12,-152.21
37964,53.410656,-1.39868,117.19,25.69,4,322.74,23 / 23,3796438,2019-11-08 11:00:34:049,-0.7317,-0.0196,9.8268,-0.0154,0.0216,9.8066,-0.1216,0.4012,-0.0691,-3.37,-45.69,31.81,28.75,-82.04,-151.61
37965,53.410656,-1.39868,117.19,25.69,4,322.74,23 / 23,3796538,2019-11-08 11:00:34:149,-2.2548,0.5674,10.2602,-0.0566,0.0083,9.8064,0.0408,0.0832,-0.1703,-2.94,-45.56,31.75,30.0,-82.04,-150.59
37966,53.410656,-1.39868,117.19,25.69,4,322.74,23 / 23,3796639,2019-11-08 11:00:34:250,2.6885,0.2528,9.1866,-0.0223,-0.0193,9.8066,0.0559,-0.0157,0.0028,-3.44,-46.19,31.88,29.05,-82.03,-151.37
37967,53.410656,-1.39868,117.19,25.69,4,322.74,23 / 23,3796739,2019-11-08 11:00:34:350,-1.7247,0.0107,9.684,-0.0079,0.0134,9.8066,0.1052,-0.3202,0.163,-3.81,-45.62,31.38,26.77,-82.04,-151.38
37968,53.410656,-1.39868,117.19,25.69,4,322.74,23 / 23,3796839,2019-11-08 11:00:34:450,1.6661,-0.2027,10.3774,0.0077,-0.0021,9.8066,-0.0409,-0.2214,0.1354,-3.87,-45.94,30.31,28.54,-82.11,-149.83
37969,53.410656,-1.39868,117.19,25.69,4,322.74,23 / 23,3796938,2019-11-08 11:00:34:549,0.4762,0.4968,9.4179,0.026,0.0291,9.8065,0.0787,-0.1771,0.1405,-4.94,-46.56,29.25,27.37,-82.27,-148.74
37970,53.410656,-1.39868,117.19,25.69,4,322.74,23 / 23,3797039,2019-11-08 11:00:34:650,1.0783,-0.1017,9.8476,0.0194,0.0132,9.8065,0.0709,0.0723,-0.0727,-4.62,-46.44,27.81,25.98,-82.17,-149.66
37971,53.410656,-1.39868,117.19,25.69,4,322.74,23 / 23,3797139,2019-11-08 11:00:34:750,2.592,2.5391,8.9361,0.01,-0.0007,9.8066,-0.1089,0.3882,-0.2008,-5.5,-48.12,25.5,25.89,-82.15,-149.65
37972,53.410656,-1.39868,117.19,25.69,4,322.74,23 / 23,3797238,2019-11-08 11:00:34:849,-1.2299,-0.7864,10.2389,-0.0278,-0.0417,9.8065,-0.0309,0.2906,-0.1492,-6.81,-51.62,22.5,21.97,-82.35,-147.48
37973,53.410656,-1.39868,117.19,25.69,4,322.74,23 / 23,3797338,2019-11-08 11:00:34:949,1.5631,4.062,7.7344,-0.0206,-0.0442,9.8064,-0.055,0.1887,-0.1257,-8.81,-64.25,17.81,10.41,-82.4,-147.47
37974,53.410656,-1.39868,117.19,25.69,4,322.74,23 / 23,3797439,2019-11-08 11:00:35:050,1.6731,-1.139,11.2375,0.0258,-0.069,9.8063,-0.1486,-0.3743,0.3068,-8.25,-72.62,43.13,31.18,-82.46,-145.03
37975,53.412334,-1.40071,116.2,25.42,4,324.27,23 / 23,3797539,2019-11-08 11:00:35:150,-4.9026,1.3225,9.1972,-0.0371,0.0255,9.8065,-0.0874,-0.4808,0.3827,-3.5,-61.06,44.56,38.51,-82.21,-144.51
37976,53.412334,-1.40071,116.2,25.42,4,324.27,23 / 23,3797638,2019-11-08 11:00:35:249,3.0359,0.1787,7.7358,-0.0539,-0.0266,9.8064,0.0911,-0.2632,0.1875,-1.44,-58.94,38.56,40.7,-81.85,-146.19
37977,53.412334,-1.40071,116.2,25.42,4,324.27,23 / 23,3797738,2019-11-08 11:00:35:349,-3.1197,-0.6521,10.4575,0.0367,0.0357,9.8065,0.0484,-0.3924,0.0724,-2.44,-61.31,31.81,38.01,-81.87,-148.27
37978,53.412334,-1.40071,116.2,25.42,4,324.27,23 / 23,3797838,2019-11-08 11:00:35:449,-0.2539,0.8692,12.202,0.0817,-0.0556,9.8061,-0.1857,0.1649,0.0391,-6.06,-68.87,39.88,31.02,-81.79,-147.94
37979,53.412334,-1.40071,116.2,25.42,4,324.27,23 / 23,3797938,2019-11-08 11:00:35:549,-3.1389,2.72,12.632,0.049,0.044,9.8063,-0.0985,0.3171,-0.167,-4.12,-61.62,44.19,27.34,-81.74,-153.03
37980,53.412334,-1.40071,116.2,25.42,4,324.27,23 / 23,3798038,2019-11-08 11:00:35:649,-0.1819,-0.033,9.4087,-0.0148,0.0095,9.8066,0.0262,0.3358,-0.3453,-2.37,-56.87,41.0,26.13,-81.16,-156.76
37981,53.412334,-1.40071,116.2,25.42,4,324.27,23 / 23,3798138,2019-11-08 11:00:35:749,4.4324,0.6763,9.1611,0.0555,-0.0034,9.8064,-0.0373,0.4348,-0.3039,-3.12,-56.25,37.63,22.38,-81.28,-158.21
37982,53.412334,-1.40071,116.2,25.42,4,324.27,23 / 23,3798238,2019-11-08 11:00:35:849,-1.0745,-0.3089,9.8949,-0.0426,-0.0219,9.8065,-0.0333,0.2496,-0.0946,-4.0,-55.69,38.56,19.97,-81.33,-158.61
37983,53.412334,-1.40071,116.2,25.42,4,324.27,23 / 23,3798338,2019-11-08 11:00:35:949,2.4571,-0.223,8.0516,-0.0371,-0.0033,9.8065,-0.0137,-0.0044,-0.0116,-3.5,-53.0,37.63,22.13,-81.31,-158.13
37984,53.412334,-1.40071,116.2,25.42,4,324.27,23 / 23,3798438,2019-11-08 11:00:36:049,1.6419,-0.2638,8.3493,-0.017,0.0222,9.8066,-0.1163,-0.0601,0.1881,-3.25,-52.12,32.19,25.68,-81.33,-155.3
37985,53.412334,-1.40071,116.2,25.42,4,324.27,23 / 23,3798539,2019-11-08 11:00:36:150,3.6618,1.6001,11.0495,-0.0371,0.0322,9.8064,-0.118,0.0114,0.1016,-5.25,-59.12,25.5,22.88,-81.46,-153.87
37986,53.412334,-1.40071,116.2,25.42,4,324.27,23 / 23,3798639,2019-11-08 11:00:36:250,2.5014,-2.0971,8.9381,0.0114,-0.0066,9.8066,-0.1535,-0.6186,0.2982,-6.56,-66.87,36.38,20.54,-81.54,-154.08
37987,53.412334,-1.40071,116.2,25.42,4,324.27,23 / 23,3798739,2019-11-08 11:00:36:350,-3.622,1.3347,13.939,-0.0253,-0.0176,9.8065,-0.0025,-0.2464,0.3038,-4.25,-56.75,46.56,23.45,-81.11,-156.21
37988,53.412334,-1.40071,116.2,25.42,4,324.27,23 / 23,3798839,2019-11-08 11:00:36:450,3.8782,-0.6326,10.5277,0.0288,0.0207,9.8065,0.0234,0.2221,-0.2519,0.25,-47.75,45.63,26.59,-80.77,-158.01
37989,53.412334,-1.40071,116.2,25.42,4,324.27,23 / 23,3798939,2019-11-08 11:00:36:550,-1.8633,1.2633,8.6438,0.0738,-0.0296,9.8062,0.0684,0.3671,-0.3525,2.0,-43.62,37.88,28.13,-80.94,-160.12
37990,53.412334,-1.40071,116.2,25.42,4,324.27,23 / 23,3799039,2019-11-08 11:00:36:650,-1.6849,-0.0725,11.4058,0.015,-0.0266,9.8065,-0.0787,0.3231,-0.1685,0.69,-42.87,32.06,29.1,-81.06,-158.83
37991,53.412334,-1.40071,116.2,25.42,4,324.27,23 / 23,3799139,2019-11-08 11:00:36:750,0.4349,0.4296,9.8273,0.013,0.0137,9.8065,-0.1142,0.1183,-0.0771,-2.62,-43.06,30.94,19.09,-81.13,-159.59
37992,53.412334,-1.40071,116.2,25.42,4,324.27,23 / 23,3799239,2019-11-08 11:00:36:850,-2.5829,0.9914,9.3913,-0.0494,0.0093,9.8065,0.0324,0.012,0.0324,-2.62,-44.56,31.63,18.34,-81.07,-160.44
37993,53.412334,-1.40071,116.2,25.42,4,324.27,23 / 23,3799339,2019-11-08 11:00:36:950,1.4815,-0.1954,10.364,0.0107,-0.0199,9.8066,0.1241,-0.0853,-0.0397,-2.62,-43.62,31.75,20.08,-81.15,-158.93
37994,53.412334,-1.40071,116.2,25.42,4,324.27,23 / 23,3799438,2019-11-08 11:00:37:049,-0.5583,-0.5626,10.8379,-0.0125,-0.0106,9.8066,0.0275,-0.0436,0.0905,-2.56,-44.37,32.06,19.98,-81.11,-159.04
37995,53.412334,-1.40071,116.2,25.42,4,324.27,23 / 23,3799538,2019-11-08 11:00:37:149,-0.2577,1.0386,9.1874,-0.0096,-0.0066,9.8066,0.0519,-0.0132,0.0509,-2.62,-45.25,31.69,20.73,-81.03,-158.58
37996,53.412334,-1.40071,116.2,25.42,4,324.27,23 / 23,3799638,2019-11-08 11:00:37:249,-0.399,-0.4808,9.7813,-0.0156,0.0198,9.8066,-0.0854,0.0337,0.0051,-2.75,-45.56,32.63,23.02,-81.14,-156.83
37997,53.412334,-1.40071,116.2,25.42,4,324.27,23 / 23,3799738,2019-11-08 11:00:37:349,2.2778,0.3463,9.4522,-0.0076,0.0184,9.8066,-0.0657,0.0279,0.1001,-2.69,-44.62,32.5,23.13,-81.18,-156.63
37998,53.412334,-1.40071,116.2,25.42,4,324.27,23 / 23,3799839,2019-11-08 11:00:37:450,-1.2176,0.5811,10.0043,-0.0143,-0.0333,9.8066,0.0925,-0.2186,-0.0031,-3.06,-45.0,32.25,22.93,-81.28,-156.71
37999,53.412334,-1.40071,116.2,25.42,4,324.27,23 / 23,3799939,2019-11-08 11:00:37:550,0.5912,-0.0114,9.6815,-0.0218,0.0054,9.8066,0.0024,-0.1088,0.0532,-2.56,-45.19,32.75,23.68,-81.0,-156.29
38000,53.412334,-1.40071,116.2,25.42,4,324.27,23 / 23,3800038,2019-11-08 11:00:37:649,-0.0467,-0.007,9.9921,-0.0144,-0.0112,9.8066,0.0648,-0.1586,0.0836,-3.37,-45.87,33.13,23.23,-81.08,-156.71
38001,53.412334,-1.40071,116.2,25.42,4,324.27,23 / 23,3800138,2019-11-08 11:00:37:749,2.0079,-0.683,10.4106,-0.0217,-0.0019,9.8066,0.0531,-0.1541,0.0228,-3.12,-45.31,33.25,24.41,-81.02,-155.7
38002,53.412334,-1.40071,116.2,25.42,4,324.27,23 / 23,3800238,2019-11-08 11:00:37:849,-0.5699,1.8429,9.0737,0.0072,0.0243,9.8066,-0.1249,-0.0223,0.0415,-2.81,-45.5,32.88,24.02,-80.96,-156.04
38003,53.412334,-1.40071,116.2,25.42,4,324.27,23 / 23,3800339,2019-11-08 11:00:37:950,-1.6193,1.0074,10.5309,-0.0088,-0.017,9.8065,0.0404,0.3075,-0.1532,-3.06,-45.62,32.94,22.4,-81.16,-157.31
38004,53.412334,-1.40071,116.2,25.42,4,324.27,23 / 23,3800439,2019-11-08 11:00:38:050,1.6913,2.2324,8.7234,0.0485,0.0275,9.8064,-0.17,0.241,-0.2988,-3.19,-46.19,33.06,23.34,-80.95,-156.69
38005,53.412334,-1.40071,116.2,25.42,4,324.27,23 / 23,3800540,2019-11-08 11:00:38:151,-2.8952,1.8015,8.5698,0.0113,0.0073,9.8066,0.1298,0.3448,-0.171,-2.87,-45.94,32.75,22.11,-81.04,-157.62
38006,53.412334,-1.40071,116.2,25.42,4,324.27,23 / 23,3800638,2019-11-08 11:00:38:249,-0.3831,-0.1114,11.0475,0.051,0.0243,9.8064,0.0327,0.1515,-0.2519,-3.06,-46.06,33.38,23.38,-81.12,-156.56
38007,53.412334,-1.40071,116.2,25.42,4,324.27,23 / 23,3800739,2019-11-08 11:00:38:350,-0.9051,0.9,10.7248,0.0288,0.04,9.8065,0.0252,-0.2916,0.2149,-2.31,-45.62,32.88,23.51,-81.33,-158.07
38008,53.412334,-1.40071,116.2,25.42,4,324.27,23 / 23,3800839,2019-11-08 11:00:38:450,-2.6174,0.8913,9.6779,-0.0392,-0.0009,9.8065,0.0123,-0.3227,0.2731,-2.87,-45.94,32.94,19.58,-81.34,-159.46
38009,53.412334,-1.40071,116.2,25.42,4,324.27,23 / 23,3800939,2019-11-08 11:00:38:550,1.4683,-0.1163,10.3393,-0.0134,-0.0031,9.8066,-0.0792,-0.1913,0.0925,-3.25,-45.94,32.44,21.15,-81.37,-158.17
38010,53.412334,-1.40071,116.2,25.42,4,324.27,23 / 23,3801039,2019-11-08 11:00:38:650,-3.0231,-0.1462,10.8054,-0.047,-0.0131,9.8064,-0.0226,-0.0062,0.0689,-2.81,-45.69,32.81,23.06,-81.31,-156.7
38011,53.412334,-1.40071,116.2,25.42,4,324.27,23 / 23,3801142,2019-11-08 11:00:38:753,-0.3922,-0.2615,10.4717,-0.0309,-0.0056,9.8066,-0.0147,0.2052,-0.1858,-3.12,-45.44,32.75,25.4,-81.16,-154.82
38012,53.412334,-1.40071,116.2,25.42,4,324.27,23 / 23,3801238,2019-11-08 11:00:38:849,2.9394,2.166,8.3278,0.0342,0.0141,9.8065,-0.1336,0.3108,-0.2427,-3.12,-45.69,32.88,24.45,-81.07,-155.75
38013,53.412334,-1.40071,116.2,25.42,4,324.27,23 / 23,3801338,2019-11-08 11:00:38:949,-1.0813,-0.6866,10.4189,0.0126,-0.0038,9.8066,0.0817,0.1275,-0.0535,-3.44,-45.94,33.06,22.43,-81.25,-157.24
38014,53.412334,-1.40071,116.2,25.42,4,324.27,23 / 23,3801438,2019-11-08 11:00:39:049,2.0072,0.957,9.4799,0.0272,0.0158,9.8065,-0.0612,0.0171,-0.0353,-2.94,-45.81,32.81,21.6,-81.31,-157.87
38015,53.412334,-1.40071,116.2,25.42,4,324.27,23 / 23,3801538,2019-11-08 11:00:39:149,1.8253,1.6888,8.5243,0.0288,0.0052,9.8065,0.0642,-0.16,0.1244,-3.06,-45.25,32.56,20.34,-81.58,-158.63
38016,53.412334,-1.40071,116.2,25.42,4,324.27,23 / 23,3801638,2019-11-08 11:00:39:249,-0.231,1.0217,10.433,-0.0095,-0.0163,9.8066,0.0479,-0.2148,0.0653,-2.81,-46.0,32.69,20.69,-81.57,-158.45
38017,53.412334,-1.40071,116.2,25.42,4,324.27,23 / 23,3801738,2019-11-08 11:00:39:349,1.2251,1.1627,9.9413,-0.0008,-0.0246,9.8066,0.1064,0.0526,-0.0131,-3.0,-46.31,33.25,20.35,-81.53,-158.74
38018,53.412334,-1.40071,116.2,25.42,4,324.27,23 / 23,3801838,2019-11-08 11:00:39:449,1.4478,0.7331,10.1164,-0.0056,-0.0009,9.8066,0.0475,0.1067,-0.0824,-3.44,-45.5,32.88,20.01,-81.29,-159.05
38019,53.412334,-1.40071,116.2,25.42,4,324.27,23 / 23,3801938,2019-11-08 11:00:39:549,-0.9503,0.6863,8.8944,-0.0171,-0.0128,9.8066,-0.0952,0.0269,0.053,-3.81,-46.25,32.81,18.85,-81.18,-158.38
38020,53.412334,-1.40071,116.2,25.42,4,324.27,23 / 23,3802038,2019-11-08 11:00:39:649,2.0209,-0.3749,9.4897,0.0244,-0.0074,9.8066,0.0121,-0.0022,0.1363,-3.69,-46.12,33.56,20.6,-81.38,-156.97
38021,53.412334,-1.40071,116.2,25.42,4,324.27,23 / 23,3802139,2019-11-08 11:00:39:750,0.783,1.1855,9.9498,0.025,0.0053,9.8065,0.0508,-0.2083,0.065,-3.75,-45.44,33.19,19.36,-81.33,-157.82
38022,53.412334,-1.40071,116.2,25.42,4,324.27,23 / 23,3802238,2019-11-08 11:00:39:849,3.3662,0.2868,9.5429,0.0183,-0.0244,9.8066,0.0103,-0.2217,0.2293,-2.87,-45.87,33.31,20.29,-81.26,-158.94
38023,53.412334,-1.40071,116.2,25.42,4,324.27,23 / 23,3802338,2019-11-08 11:00:39:949,2.0657,0.1642,10.1396,0.0157,0.014,9.8065,0.0546,-0.1366,-0.0037,-2.62,-46.31,33.69,20.58,-81.14,-158.79
38024,53.412334,-1.40071,116.2,25.42,4,324.27,23 / 23,3802439,2019-11-08 11:00:40:050,-2.7361,-0.0559,10.5552,-0.0516,0.0004,9.8064,-0.038,-0.0554,0.0022,-2.5,-46.25,33.31,21.99,-81.34,-159.27
38025,53.412334,-1.40071,116.2,25.42,4,324.27,23 / 23,3802539,2019-11-08 11:00:40:150,0.7684,-0.1051,8.8289,-0.0145,-0.0029,9.8065,-0.1797,0.3443,0.01,-2.81,-45.94,33.69,22.88,-81.44,-156.79
38026,53.412334,-1.40071,116.2,25.42,4,324.27,23 / 23,3802638,2019-11-08 11:00:40:249,1.6916,1.0697,9.312,-0.0117,-0.0067,9.8066,-0.0955,0.2916,-0.1855,-2.25,-45.81,33.44,27.04,-81.41,-155.19
38027,53.412334,-1.40071,116.2,25.42,4,324.27,23 / 23,3802738,2019-11-08 11:00:40:349,-0.496,0.0524,10.3503,-0.0131,-0.0042,9.8066,0.0435,0.0447,0.007,-2.81,-45.69,32.88,24.78,-81.35,-155.31
38028,53.412334,-1.40071,116.2,25.42,4,324.27,23 / 23,3802838,2019-11-08 11:00:40:449,1.4402,-0.3882,9.6105,0.0331,0.0035,9.8066,0.0326,-0.0159,0.0171,-2.87,-45.81,33.31,24.37,-81.25,-155.7
38029,53.412334,-1.40071,116.2,25.42,4,324.27,23 / 23,3802939,2019-11-08 11:00:40:550,1.6497,0.1699,8.9641,0.0121,0.0164,9.8066,-0.0189,-0.0539,0.0475,-2.62,-46.12,33.25,22.77,-81.34,-156.92
38030,53.412334,-1.40071,116.2,25.42,4,324.27,23 / 23,3803038,2019-11-08 11:00:40:649,-0.6385,0.4816,10.6149,0.0033,-0.0093,9.8066,0.0565,0.043,0.039,-2.5,-46.0,32.19,25.28,-81.4,-156.66
38031,53.412334,-1.40071,116.2,25.42,4,324.27,23 / 23,3803139,2019-11-08 11:00:40:750,0.9098,-0.0768,9.5365,-0.0165,-0.0176,9.8066,-0.0414,0.1073,-0.1166,-2.69,-46.56,32.0,23.05,-81.26,-156.83
38032,53.412334,-1.40071,116.2,25.42,4,324.27,23 / 23,3803239,2019-11-08 11:00:40:850,1.0123,0.4599,9.0861,0.0025,0.0166,9.8066,0.0361,0.0448,-0.0226,-3.0,-45.87,31.5,22.61,-81.29,-157.06
38033,53.412334,-1.40071,116.2,25.42,4,324.27,23 / 23,3803338,2019-11-08 11:00:40:949,-0.6866,0.491,9.4811,0.0083,-0.0115,9.8065,-0.0278,-0.1745,0.0965,-3.12,-46.37,31.88,22.43,-81.35,-157.16
38034,53.412334,-1.40071,116.2,25.42,4,324.27,23 / 23,3803438,2019-11-08 11:00:41:049,2.4816,1.1722,9.0326,0.0338,0.0069,9.8066,0.0938,-0.2788,0.1747,-2.56,-45.81,31.81,22.71,-81.43,-156.89
38035,53.412334,-1.40071,116.2,25.42,4,324.27,23 / 23,3803540,2019-11-08 11:00:41:151,-1.1387,0.343,10.4196,0.0143,0.023,9.8066,0.089,-0.2262,0.0802,-2.94,-46.31,32.44,21.86,-81.49,-157.53
38036,53.412334,-1.40071,116.2,25.42,4,324.27,23 / 23,3803638,2019-11-08 11:00:41:249,-0.4335,0.1322,10.2685,-0.0258,0.0049,9.8066,-0.0093,-0.0153,-0.0333,-3.31,-45.5,32.25,22.97,-81.42,-156.59
38037,53.412334,-1.40071,116.2,25.42,4,324.27,23 / 23,3803738,2019-11-08 11:00:41:349,2.2134,1.3952,8.5383,0.0126,0.0236,9.8066,-0.1371,0.2719,-0.0775,-2.94,-45.56,31.56,23.03,-81.3,-156.71
38038,53.412334,-1.40071,116.2,25.42,4,324.27,23 / 23,3803838,2019-11-08 11:00:41:449,-1.5144,-0.1633,10.459,0.0082,-0.001,9.8066,0.0087,0.1092,-0.1037,-3.62,-46.12,31.31,20.76,-81.37,-156.6
38039,53.412334,-1.40071,116.2,25.42,4,324.27,23 / 23,3803938,2019-11-08 11:00:41:549,0.2382,0.8304,9.734,0.0054,0.0027,9.8066,-0.0504,0.0352,0.0072,-3.94,-46.0,30.75,21.07,-81.38,-156.35
38040,53.412334,-1.40071,116.2,25.42,4,324.27,23 / 23,3804038,2019-11-08 11:00:41:649,2.2909,-0.836,9.1681,0.0261,0.003,9.8066,0.048,-0.1953,0.1,-3.87,-46.25,30.81,21.17,-81.33,-156.3
38041,53.412334,-1.40071,116.2,25.42,4,324.27,23 / 23,3804139,2019-11-08 11:00:41:750,-1.4618,0.0409,10.1906,-0.0113,-0.0125,9.8066,0.0208,-0.2413,0.0475,-4.12,-46.19,29.69,20.32,-81.47,-156.79
38042,53.412334,-1.40071,116.2,25.42,4,324.27,23 / 23,3804238,2019-11-08 11:00:41:849,1.0136,-0.062,10.9637,-0.017,-0.0165,9.8066,-0.071,0.0472,0.0586,-4.5,-46.56,28.5,20.18,-81.4,-156.93
38043,53.412334,-1.40071,116.2,25.42,4,324.27,23 / 23,3804338,2019-11-08 11:00:41:949,-0.2064,0.605,9.4604,-0.004,0.0052,9.8066,-0.0919,0.0875,0.0801,-4.5,-46.69,28.13,19.15,-81.41,-157.59
38044,53.412334,-1.40071,116.2,25.42,4,324.27,23 / 23,3804438,2019-11-08 11:00:42:049,-1.1545,-0.4098,9.6331,0.0339,-0.0069,9.8065,0.0607,-0.0645,-0.1612,-5.87,-46.69,26.38,12.6,-81.46,-157.82
38045,53.412334,-1.40071,116.2,25.42,4,324.27,23 / 23,3804539,2019-11-08 11:00:42:150,-0.0641,0.73,10.6615,0.0036,0.0117,9.8066,0.0558,-0.0631,0.0183,-6.44,-47.5,25.94,11.7,-81.58,-158.43
38046,53.412334,-1.40071,116.2,25.42,4,324.27,23 / 23,3804638,2019-11-08 11:00:42:249,1.9488,1.2293,10.3722,0.0162,0.0119,9.8066,0.0786,-0.2342,0.066,-7.44,-48.75,24.31,6.79,-81.54,-158.97
38047,53.412334,-1.40071,116.2,25.42,4,324.27,23 / 23,3804738,2019-11-08 11:00:42:349,0.0815,-0.1639,9.9094,-0.0323,-0.0191,9.8065,0.0123,-0.1009,0.0065,-9.0,-50.69,21.88,355.85,-81.46,-160.53
38048,53.412334,-1.40071,116.2,25.42,4,324.27,23 / 23,3804838,2019-11-08 11:00:42:449,1.2643,0.5332,8.796,-0.0305,-0.0105,9.8065,-0.0814,0.1872,0.0941,-9.69,-52.56,19.0,349.07,-81.4,-159.04
38049,53.412334,-1.40071,116.2,25.42,4,324.27,23 / 23,3804940,2019-11-08 11:00:42:551,-0.4923,-1.9768,10.0263,-0.0197,0.0004,9.8066,-0.1514,0.2396,-0.1612,-10.0,-54.69,16.25,342.59,-81.52,-157.83
38050,53.412334,-1.40071,116.2,25.42,4,324.27,23 / 23,3805039,2019-11-08 11:00:42:650,0.8654,-3.0909,8.8527,-0.0007,-0.0382,9.8065,0.217,0.1923,-0.2482,-11.0,-85.94,7.56,266.34,-81.82,-154.67
38051,53.412334,-1.40071,116.2,25.42,4,324.27,23 / 23,3805138,2019-11-08 11:00:42:749,-3.7663,5.8604,9.0084,0.0411,-0.0477,9.8064,-0.0044,-0.0357,-0.059,-8.87,-94.5,29.69,13.21,-81.93,-155.74
38052,53.412334,-1.40071,116.2,25.42,4,324.27,23 / 23,3805238,2019-11-08 11:00:42:849,-3.8721,0.7761,10.4457,0.1049,-0.0858,9.8057,0.0074,-0.1438,0.2956,-7.06,-88.37,42.81,18.98,-81.65,-157.44
38053,53.412334,-1.40071,116.2,25.42,4,324.27,23 / 23,3805338,2019-11-08 11:00:42:949,0.163,-0.1202,12.6274,0.0234,-0.0296,9.8065,0.1073,-0.2598,0.0484,-3.5,-84.31,45.13,20.87,-81.6,-161.09
38054,53.412334,-1.40071,116.2,25.42,4,324.27,23 / 23,3805438,2019-11-08 11:00:43:049,1.1942,-0.3094,10.1832,-0.0161,0.02,9.8066,0.097,0.0843,-0.0154,-2.75,-81.31,48.94,19.93,-81.73,-161.41
38055,53.412334,-1.40071,116.2,25.42,4,324.27,23 / 23,3805539,2019-11-08 11:00:43:150,0.1909,-0.3968,9.7369,-0.0089,0.0108,9.8066,0.0212,0.0824,0.0316,-0.94,-76.75,49.31,23.47,-81.65,-160.81
38056,53.412334,-1.40071,116.2,25.42,4,324.27,23 / 23,3805638,2019-11-08 11:00:43:249,-0.2893,-0.3725,9.2264,-0.0149,0.0053,9.8066,-0.0902,-0.1486,0.0119,0.25,-71.25,46.63,26.43,-81.64,-159.44
38057,53.412334,-1.40071,116.2,25.42,4,324.27,23 / 23,3805739,2019-11-08 11:00:43:350,-2.9731,-1.2723,9.9508,-0.0302,-0.003,9.8066,-0.1152,-0.26,0.1132,1.0,-67.62,42.13,29.17,-81.77,-158.95
38058,53.412334,-1.40071,116.2,25.42,4,324.27,23 / 23,3805839,2019-11-08 11:00:43:450,0.0591,0.3188,9.1818,0.0236,-0.0233,9.8066,-0.0671,0.0041,0.1023,1.94,-67.56,40.75,32.17,-81.8,-158.14
38059,53.412334,-1.40071,116.2,25.42,4,324.27,23 / 23,3805939,2019-11-08 11:00:43:550,-1.7463,-0.0275,10.8684,-0.0263,-0.0258,9.8065,-0.102,0.1598,-0.0897,3.81,-68.62,40.19,36.93,-81.83,-157.52
38060,53.412334,-1.40071,116.2,25.42,4,324.27,23 / 23,3806038,2019-11-08 11:00:43:649,-0.3999,-0.6919,10.022,-0.0231,-0.0023,9.8065,-0.0649,0.2271,-0.1179,4.0,-69.19,38.69,37.88,-81.76,-157.21
38061,53.412334,-1.40071,116.2,25.42,4,324.27,23 / 23,3806138,2019-11-08 11:00:43:749,-0.9006,-1.2991,11.5621,-0.0097,0.0028,9.8066,-0.0849,0.258,-0.0517,4.38,-68.12,36.69,38.98,-81.85,-156.89
38062,53.412334,-1.40071,116.2,25.42,4,324.27,23 / 23,3806239,2019-11-08 11:00:43:850,-1.4378,0.6164,9.6007,-0.0275,-0.0161,9.8066,-0.0498,-0.0566,0.0898,4.06,-68.31,34.94,41.15,-81.73,-156.24
38063,53.412334,-1.40071,116.2,25.42,4,324.27,23 / 23,3806339,2019-11-08 11:00:43:950,0.5635,-1.3184,10.0999,0.0141,-0.0085,9.8066,-0.0227,-0.1754,0.142,4.88,-68.0,33.56,45.69,-81.67,-154.88
38064,53.412334,-1.40071,116.2,25.42,4,324.27,23 / 23,3806439,2019-11-08 11:00:44:050,-1.4003,0.5625,9.5144,0.0244,0.0063,9.8065,-0.0764,-0.1365,0.1311,5.56,-69.75,31.5,51.07,-81.61,-154.07
38065,53.41397,-1.402697,115.33,24.65,4,323.41,23 / 23,3806539,2019-11-08 11:00:44:150,-1.2992,0.0944,9.8782,-0.0107,-0.0121,9.8066,-0.0132,-0.0101,0.0236,6.0,-71.44,29.75,52.98,-81.78,-154.09
38066,53.41397,-1.402697,115.33,24.65,4,323.41,23 / 23,3806639,2019-11-08 11:00:44:250,0.7184,-0.913,10.5421,-0.0159,0.0082,9.8066,0.0619,0.1441,-0.1493,6.88,-74.81,32.0,53.18,-81.68,-154.93
38067,53.41397,-1.402697,115.33,24.65,4,323.41,23 / 23,3806738,2019-11-08 11:00:44:349,-2.273,-0.1577,11.0341,-0.0241,-0.0084,9.8065,0.0545,0.1814,-0.0726,5.0,-73.37,35.19,46.8,-81.47,-154.63
38068,53.41397,-1.402697,115.33,24.65,4,323.41,23 / 23,3806838,2019-11-08 11:00:44:449,-1.6894,0.944,9.8024,-0.0294,0.0025,9.8065,-0.051,-0.1095,0.0751,4.63,-70.44,33.13,49.99,-81.29,-153.13
38069,53.41397,-1.402697,115.33,24.65,4,323.41,23 / 23,3806939,2019-11-08 11:00:44:550,0.093,-0.6067,10.3346,0.0274,-0.0071,9.8065,-0.0042,-0.238,0.1258,6.38,-68.87,33.0,51.73,-81.37,-153.02
38070,53.41397,-1.402697,115.33,24.65,4,323.41,23 / 23,3807039,2019-11-08 11:00:44:650,-2.3894,-0.7452,11.2297,0.0403,-0.0012,9.8065,0.0285,-0.1536,0.1588,7.63,-68.19,33.75,54.42,-81.36,-152.99
38071,53.41397,-1.402697,115.33,24.65,4,323.41,23 / 23,3807139,2019-11-08 11:00:44:750,-1.9934,0.3513,10.4185,0.0051,0.0099,9.8066,0.0373,0.063,0.014,2.56,-69.87,37.94,40.91,-81.47,-154.24
38072,53.41397,-1.402697,115.33,24.65,4,323.41,23 / 23,3807239,2019-11-08 11:00:44:850,1.9116,-0.6571,9.7351,-0.0096,-0.0069,9.8066,-0.018,0.1985,-0.2033,0.25,-69.31,38.69,34.88,-81.33,-154.24
38073,53.41397,-1.402697,115.33,24.65,4,323.41,23 / 23,3807339,2019-11-08 11:00:44:950,-2.744,0.1971,10.7172,0.0108,0.0054,9.8066,-0.0483,0.1321,0.0213,-1.06,-68.94,36.75,34.49,-81.29,-153.51
38074,53.41397,-1.402697,115.33,24.65,4,323.41,23 / 23,3807438,2019-11-08 11:00:45:049,0.4516,-1.1139,9.9903,-0.0265,-0.0119,9.8066,-0.0024,-0.0001,-0.048,0.38,-73.62,34.13,38.43,-81.14,-153.99
38075,53.41397,-1.402697,115.33,24.65,4,323.41,23 / 23,3807539,2019-11-08 11:00:45:150,1.9736,-0.7846,9.7512,0.005,-0.0173,9.8066,0.0251,-0.133,-0.0397,2.0,-76.69,35.13,40.48,-81.15,-155.86
38076,53.41397,-1.402697,115.33,24.65,4,323.41,23 / 23,3807638,2019-11-08 11:00:45:249,-0.8994,0.4104,9.9009,0.0076,0.0052,9.8066,0.0414,-0.1985,0.1364,1.19,-77.75,38.75,35.54,-81.21,-156.53
38077,53.41397,-1.402697,115.33,24.65,4,323.41,23 / 23,3807738,2019-11-08 11:00:45:349,0.7965,-0.4474,9.1059,0.0111,0.0287,9.8066,0.0004,0.0759,-0.1216,2.25,-75.81,39.13,36.37,-81.26,-157.03
38078,53.41397,-1.402697,115.33,24.65,4,323.41,23 / 23,3807838,2019-11-08 11:00:45:449,2.4407,-1.4998,8.5675,0.0329,-0.0018,9.8066,-0.0607,0.2305,-0.1654,4.63,-76.37,37.38,42.19,-81.54,-157.48
38079,53.41397,-1.402697,115.33,24.65,4,323.41,23 / 23,3807938,2019-11-08 11:00:45:549,-0.9918,0.267,9.2957,-0.0246,-0.0134,9.8066,-0.1215,0.2177,-0.0629,6.88,-75.31,36.38,47.22,-81.66,-156.74
38080,53.41397,-1.402697,115.33,24.65,4,323.41,23 / 23,3808038,2019-11-08 11:00:45:649,2.8175,-0.975,9.9182,-0.0168,0.0151,9.8066,-0.0359,0.0624,-0.077,6.88,-76.56,34.69,47.29,-81.6,-157.79
38081,53.41397,-1.402697,115.33,24.65,4,323.41,23 / 23,3808138,2019-11-08 11:00:45:749,1.3568,-0.7235,9.7877,0.0032,-0.0029,9.8066,0.0044,-0.1901,0.1127,7.94,-78.12,36.0,48.87,-81.71,-157.32
38082,53.41397,-1.402697,115.33,24.65,4,323.41,23 / 23,3808238,2019-11-08 11:00:45:849,1.2321,-2.0029,10.3416,-0.0363,0.0129,9.8065,0.0358,-0.2967,0.2024,6.94,-78.87,35.81,48.23,-81.66,-156.62
38083,53.41397,-1.402697,115.33,24.65,4,323.41,23 / 23,3808338,2019-11-08 11:00:45:949,2.6903,-0.0532,9.1495,0.0234,0.0278,9.8066,0.1888,-0.2867,0.0708,4.5,-79.37,36.06,43.22,-81.65,-157.54
38084,53.41397,-1.402697,115.33,24.65,4,323.41,23 / 23,3808438,2019-11-08 11:00:46:049,-0.7502,0.1853,9.875,-0.0044,-0.0231,9.8065,0.1419,-0.0259,0.0641,4.06,-76.5,37.38,41.05,-81.67,-156.67
38085,53.41397,-1.402697,115.33,24.65,4,323.41,23 / 23,3808538,2019-11-08 11:00:46:149,-2.6312,0.452,9.1892,-0.0184,0.0181,9.8066,-0.0775,0.2605,-0.1621,4.31,-75.12,34.63,44.16,-81.73,-155.04
38086,53.41397,-1.402697,115.33,24.65,4,323.41,23 / 23,3808638,2019-11-08 11:00:46:249,-1.8582,0.5049,9.5948,0.046,0.0072,9.8065,-0.1059,0.3477,-0.2274,4.38,-77.06,30.88,49.88,-81.7,-153.66
38087,53.41397,-1.402697,115.33,24.65,4,323.41,23 / 23,3808739,2019-11-08 11:00:46:350,-1.0805,0.6971,10.096,-0.0163,-0.0097,9.8065,-0.0719,0.1689,-0.0181,5.44,-83.87,31.94,52.92,-81.92,-153.26
38088,53.41397,-1.402697,115.33,24.65,4,323.41,23 / 23,3808839,2019-11-08 11:00:46:450,1.2449,-1.0122,10.1938,-0.0061,-0.0103,9.8066,0.0272,0.06,-0.0217,7.13,-84.25,37.19,51.59,-81.72,-154.09
38089,53.41397,-1.402697,115.33,24.65,4,323.41,23 / 23,3808939,2019-11-08 11:00:46:550,0.0842,0.2294,10.0097,-0.0121,-0.0085,9.8066,0.1139,-0.1593,0.055,7.44,-79.37,38.75,48.63,-81.7,-154.4
38090,53.41397,-1.402697,115.33,24.65,4,323.41,23 / 23,3809039,2019-11-08 11:00:46:650,0.7232,0.0188,9.9082,-0.025,-0.0209,9.8065,0.0974,-0.1713,0.1043,7.69,-78.0,40.38,49.36,-81.61,-154.54
38091,53.41397,-1.402697,115.33,24.65,4,323.41,23 / 23,3809138,2019-11-08 11:00:46:749,1.2508,-1.3854,10.3796,0.0147,-0.0252,9.8066,0.0243,0.0262,-0.1431,8.44,-71.19,44.25,44.93,-81.63,-155.12
38092,53.41397,-1.402697,115.33,24.65,4,323.41,23 / 23,3809238,2019-11-08 11:00:46:849,-0.9232,0.0172,8.7751,0.0051,0.0166,9.8066,-0.0507,0.0682,-0.0397,6.94,-65.75,44.13,42.6,-81.52,-155.29
38093,53.41397,-1.402697,115.33,24.65,4,323.41,23 / 23,3809338,2019-11-08 11:00:46:949,0.5577,0.3064,8.8766,0.0032,0.0072,9.8066,-0.0664,0.091,-0.0626,2.56,-64.25,41.25,37.65,-81.59,-154.86
38094,53.41397,-1.402697,115.33,24.65,4,323.41,23 / 23,3809438,2019-11-08 11:00:47:049,0.4522,-0.2637,9.7217,-0.0019,0.004,9.8066,0.0129,0.0445,-0.002,0.13,-64.87,39.75,33.69,-81.59,-154.2
38095,53.41397,-1.402697,115.33,24.65,4,323.41,22 / 23,3809538,2019-11-08 11:00:47:149,-2.0559,-0.3987,11.243,-0.0205,-0.0121,9.8066,0.0754,-0.0682,0.0999,-2.19,-63.94,36.25,29.21,-81.59,-155.17
38096,53.41397,-1.402697,115.33,24.65,4,323.41,22 / 23,3809639,2019-11-08 11:00:47:250,0.8685,-0.6414,9.7649,0.0157,0.0296,9.8065,0.131,-0.1607,-0.0123,-2.56,-71.25,32.44,28.68,-81.32,-155.48
38097,53.41397,-1.402697,115.33,24.65,4,323.41,22 / 23,3809739,2019-11-08 11:00:47:350,-1.7419,0.5394,9.7229,0.0294,-0.0082,9.8066,-0.0253,-0.1535,0.07,0.38,-77.56,35.94,34.06,-81.48,-156.63
38098,53.41397,-1.402697,115.33,24.65,4,323.41,22 / 23,3809838,2019-11-08 11:00:47:449,-0.3711,-0.4583,10.5655,0.0,-0.0169,9.8066,-0.0848,-0.1333,0.1113,0.19,-77.87,40.69,32.97,-81.6,-156.04
38099,53.41397,-1.402697,115.33,24.65,4,323.41,22 / 23,3809938,2019-11-08 11:00:47:549,2.6769,-0.9713,9.4506,0.0305,0.0095,9.8065,0.0384,-0.0122,-0.0797,0.19,-76.12,42.0,32.37,-81.52,-156.15
38100,53.41397,-1.402697,115.33,24.65,4,323.41,22 / 23,3810039,2019-11-08 11:00:47:650,-0.76,-0.8353,10.6036,-0.0223,-0.0282,9.8065,-0.0648,0.3155,-0.2074,1.44,-73.69,41.81,31.31,-81.62,-158.01
38101,53.41397,-1.402697,115.33,24.65,4,323.41,22 / 23,3810139,2019-11-08 11:00:47:750,3.1293,-1.1534,8.748,-0.0125,-0.0074,9.8066,-0.072,0.3357,-0.2665,2.56,-71.25,39.63,34.61,-81.52,-158.53
38102,53.41397,-1.402697,115.33,24.65,4,323.41,22 / 23,3810238,2019-11-08 11:00:47:849,0.0096,0.3119,8.3423,-0.0267,0.0114,9.8066,-0.1264,0.2218,-0.0884,1.38,-70.81,38.5,30.17,-81.76,-159.11
38103,53.41397,-1.402697,115.33,24.65,4,323.41,22 / 23,3810338,2019-11-08 11:00:47:949,2.7934,0.4397,8.5906,-0.0227,-0.0228,9.8066,-0.1347,0.1542,-0.0345,1.25,-70.31,37.63,31.26,-82.01,-158.15
38104,53.41397,-1.402697,115.33,24.65,4,323.41,22 / 23,3810438,2019-11-08 11:00:48:049,0.8657,-0.0256,10.1924,0.0199,-0.0088,9.8066,-0.0159,-0.1945,0.0939,-0.25,-68.44,40.38,27.91,-81.99,-158.7
38105,53.41397,-1.402697,115.33,24.65,4,323.41,22 / 22,3810538,2019-11-08 11:00:48:149,-3.3593,0.4663,11.6698,-0.0103,-0.0014,9.8066,0.0271,-0.3823,0.2761,-1.19,-67.44,40.44,24.94,-82.0,-159.49
