,GPS LATITUDE (degrees),GPS LONGITUDE (degrees), GPS ALTITUDE (m),GPS SPEED (Kmh),GPS ACCURACY (m),GPS ORIENTATION (Â°), SATELLITES IN RANGE, TIME SINCE START (ms), DATE (YYYY-MO-DD HH-MI-SS_SSS),ACCELEROMETER X (m/s²) , ACCELEROMETER Y (m/s²), ACCELEROMETER Z (m/s²), GRAVITY X (m/s²), GRAVITY Y (m/s²), GRAVITY Z (m/s²), GYROSCOPE Yaw (rad/s), GYROSCOPE Pitch (rad/s), GYROSCOPE Roll (rad/s)
10439,47.356316,-2.051768,52.06,26.61,3.216,56.5,17 / 21,1043911,2019-08-09 20:31:32:649,0.5029,-0.283,9.5286,-0.2538,-0.1245,9.8026,0.0003,0.0019,0.0211
10440,47.356316,-2.051768,52.06,26.61,3.216,56.5,17 / 21,1044011,2019-08-09 20:31:32:749,-0.028,-0.4308,9.6088,-0.2402,-0.1313,9.8028,0.0063,0.0018,0.0062
10441,47.356316,-2.051768,52.06,26.61,3.216,56.5,17 / 21,1044110,2019-08-09 20:31:32:848,-0.3141,-0.3213,9.7088,-0.2313,-0.1311,9.803,0.0063,0.0018,0.0062
10442,47.356316,-2.051768,52.06,26.61,3.216,56.5,17 / 21,1044210,2019-08-09 20:31:32:948,-0.2375,-0.4847,9.6734,-0.2226,-0.1284,9.8033,0.0052,-0.006,0.0299
10443,47.356316,-2.051768,52.06,26.61,3.216,56.5,17 / 21,1044311,2019-08-09 20:31:33:049,-0.259,-0.3991,9.4538,-0.2117,-0.1318,9.8035,0.011,-0.0012,0.0016
10444,47.356316,-2.051768,52.06,26.61,3.216,56.5,17 / 21,1044411,2019-08-09 20:31:33:149,0.0852,0.1168,9.346,-0.1872,-0.1211,9.8041,0.0078,-0.037,0.0037
10445,47.356316,-2.051768,52.06,26.61,3.216,56.5,17 / 21,1044510,2019-08-09 20:31:33:248,0.057,0.0025,9.6722,-0.1898,-0.1208,9.8041,0.0078,-0.017,0.0029
10446,47.356316,-2.051768,52.06,26.61,3.216,56.5,17 / 22,1044610,2019-08-09 20:31:33:348,-0.6181,0.0091,9.4083,-0.1655,-0.1124,9.8046,-0.0008,0.0123,0.005
10447,47.356316,-2.051768,52.06,26.61,3.216,56.5,17 / 22,1044711,2019-08-09 20:31:33:449,0.1175,0.1342,9.4155,-0.1736,-0.1116,9.8045,-0.0043,-0.0008,-0.0214
10448,47.356316,-2.051768,52.06,26.61,3.216,56.5,17 / 22,1044811,2019-08-09 20:31:33:549,0.3371,0.0821,10.0164,-0.1964,-0.1123,9.804,-0.0045,0.0129,0.0049
10449,47.356316,-2.051768,52.06,26.61,3.216,56.5,17 / 22,1044910,2019-08-09 20:31:33:648,0.7244,0.1635,9.2664,-0.2053,-0.1106,9.8039,0.0081,-0.0345,-0.0145
10450,47.356316,-2.051768,52.06,26.61,3.216,56.5,17 / 22,1045010,2019-08-09 20:31:33:748,-0.8971,0.2928,10.2056,-0.2222,-0.1023,9.8036,-0.009,-0.0155,0.0116
10451,47.356316,-2.051768,52.06,26.61,3.216,56.5,17 / 22,1045110,2019-08-09 20:31:33:848,-1.0617,0.0708,9.5136,-0.2133,-0.1051,9.8038,-0.0079,-0.0202,-0.018
10452,47.356316,-2.051768,52.06,26.61,3.216,56.5,17 / 22,1045210,2019-08-09 20:31:33:948,-1.2747,0.2072,9.6297,-0.2154,-0.0987,9.8038,0.0028,0.0127,-0.0038
10453,47.356316,-2.051768,52.06,26.61,3.216,56.5,17 / 22,1045310,2019-08-09 20:31:34:048,0.2988,0.0486,9.7345,-0.212,-0.0961,9.8039,-0.0072,-0.0219,-0.0064
10454,47.356316,-2.051768,52.06,26.61,3.216,56.5,17 / 22,1045410,2019-08-09 20:31:34:148,0.3898,-0.1549,9.8823,-0.2116,-0.1107,9.8037,-0.0056,-0.0101,0.0122
10455,47.356316,-2.051768,52.06,26.61,3.216,56.5,17 / 22,1045511,2019-08-09 20:31:34:249,0.1079,-0.2184,9.4699,-0.1962,-0.116,9.804,0.006,-0.0033,0.0031
10456,47.356316,-2.051768,52.06,26.61,3.216,56.5,17 / 22,1045611,2019-08-09 20:31:34:349,-1.5244,-0.0514,9.6705,-0.2152,-0.113,9.8036,-0.0078,0.0131,-0.0127
10457,47.356316,-2.051768,52.06,26.61,3.216,56.5,17 / 22,1045711,2019-08-09 20:31:34:449,-1.2682,-0.265,9.8955,-0.2253,-0.1223,9.8033,-0.0192,0.0037,0.012
10458,47.356316,-2.051768,52.06,26.61,3.216,56.5,17 / 22,1045810,2019-08-09 20:31:34:548,-1.1425,-0.1747,9.5789,-0.2341,-0.1266,9.803,0.005,0.001,0.0034
10459,47.356316,-2.051768,52.06,26.61,3.216,56.5,17 / 22,1045910,2019-08-09 20:31:34:648,1.1362,-0.0496,9.5938,-0.2332,-0.1252,9.8031,0.006,0.0106,-0.0053
10460,47.356316,-2.051768,52.06,26.61,3.216,56.5,17 / 22,1046011,2019-08-09 20:31:34:749,0.3018,-0.1118,10.1732,-0.2416,-0.1206,9.8029,-0.0021,-0.0009,-0.0038
10461,47.356316,-2.051768,52.06,26.61,3.216,56.5,17 / 22,1046111,2019-08-09 20:31:34:849,0.5311,-0.2321,9.4436,-0.247,-0.1206,9.8028,0.016,-0.016,-0.0047
10462,47.356316,-2.051768,52.06,26.61,3.216,56.5,17 / 22,1046211,2019-08-09 20:31:34:949,-1.4046,-0.0945,9.8476,-0.2647,-0.1082,9.8025,-0.0024,0.0072,0.0119
10463,47.356316,-2.051768,52.06,26.61,3.216,56.5,17 / 22,1046311,2019-08-09 20:31:35:049,-1.3262,-0.2746,10.0056,-0.2737,-0.1109,9.8022,-0.0008,-0.022,0.0055
10464,47.356316,-2.051768,52.06,26.61,3.216,56.5,17 / 22,1046410,2019-08-09 20:31:35:148,-0.7576,-0.2178,9.4639,-0.2615,-0.1098,9.8025,0.0065,-0.004,0.0065
10465,47.356316,-2.051768,52.06,26.61,3.216,56.5,17 / 22,1046510,2019-08-09 20:31:35:248,0.1414,-0.113,9.6286,-0.2766,-0.1077,9.8022,0.0052,0.0092,-0.0041
10466,47.356316,-2.051768,52.06,26.61,3.216,56.5,15 / 20,1046610,2019-08-09 20:31:35:348,0.7657,0.0151,10.0541,-0.2964,-0.1082,9.8016,-0.0038,-0.0255,0.009
10467,47.356316,-2.051768,52.06,26.61,3.216,56.5,15 / 20,1046710,2019-08-09 20:31:35:448,0.2378,-0.2202,9.6148,-0.2886,-0.113,9.8018,0.0046,0.0116,0.0076
10468,47.356316,-2.051768,52.06,26.61,3.216,56.5,15 / 20,1046810,2019-08-09 20:31:35:548,0.5454,0.0959,9.5477,-0.283,-0.0998,9.8021,0.0133,0.0002,-0.0169
10469,47.356316,-2.051768,52.06,26.61,3.216,56.5,15 / 20,1046911,2019-08-09 20:31:35:649,-1.0305,0.1815,10.035,-0.2986,-0.0943,9.8017,-0.0085,-0.006,-0.0028
10470,47.356316,-2.051768,52.06,26.61,3.216,56.5,15 / 20,1047010,2019-08-09 20:31:35:748,-1.337,-0.1783,9.5693,-0.2938,-0.0971,9.8018,0.0094,-0.0055,0.005
10471,47.356316,-2.051768,52.06,26.61,3.216,56.5,15 / 20,1047111,2019-08-09 20:31:35:849,-0.985,0.1899,10.3241,-0.3092,-0.0928,9.8013,-0.0007,-0.0333,0.0228
10472,47.356316,-2.051768,52.06,26.61,3.216,56.5,15 / 20,1047210,2019-08-09 20:31:35:948,-0.4589,-0.4093,9.5148,-0.3226,-0.092,9.8009,-0.0046,-0.0032,-0.0177
10473,47.356316,-2.051768,52.06,26.61,3.216,56.5,15 / 20,1047311,2019-08-09 20:31:36:049,-0.5098,-0.1453,9.3604,-0.3088,-0.0934,9.8013,0.009,-0.0091,0.0113
10474,47.356316,-2.051768,52.06,26.61,3.216,56.5,15 / 20,1047411,2019-08-09 20:31:36:149,-0.8306,0.0265,10.1098,-0.3282,-0.0924,9.8007,-0.0138,-0.0022,0.0024
10475,47.356316,-2.051768,52.06,26.61,3.216,56.5,15 / 20,1047511,2019-08-09 20:31:36:249,-0.6217,-0.0759,9.947,-0.3386,-0.1038,9.8003,-0.0081,0.0135,0.0039
10476,47.356316,-2.051768,52.06,26.61,3.216,56.5,13 / 19,1047610,2019-08-09 20:31:36:348,-1.3915,-0.125,9.7692,-0.3395,-0.1046,9.8002,0.0015,0.0074,0.0036
10477,47.356316,-2.051768,52.06,26.61,3.216,56.5,13 / 19,1047710,2019-08-09 20:31:36:448,-0.5505,-0.4308,10.1212,-0.3488,-0.1062,9.7999,0.0097,-0.0091,0.0125
10478,47.356316,-2.051768,52.06,26.61,3.216,56.5,13 / 19,1047811,2019-08-09 20:31:36:549,0.0887,0.1803,9.6028,-0.342,-0.1047,9.8001,0.0027,0.0259,0.0028
10479,47.356316,-2.051768,52.06,26.61,3.216,56.5,13 / 19,1047911,2019-08-09 20:31:36:649,-0.1303,0.4616,9.9147,-0.3513,-0.0994,9.7999,0.0027,0.0158,0.0212
10480,47.356316,-2.051768,52.06,26.61,3.216,56.5,13 / 19,1048011,2019-08-09 20:31:36:749,-0.7887,-0.0567,9.5274,-0.3608,-0.0952,9.7995,0.0088,0.0033,-0.0153
10481,47.356316,-2.051768,52.06,26.61,3.216,56.5,13 / 19,1048110,2019-08-09 20:31:36:848,-1.1904,-0.1435,9.4191,-0.367,-0.0789,9.7995,0.0102,0.0092,-0.0013
10482,47.356316,-2.051768,52.06,26.61,3.216,56.5,13 / 19,1048210,2019-08-09 20:31:36:948,-0.8797,-0.0968,9.6088,-0.3716,-0.0789,9.7993,-0.0122,-0.0066,-0.0081
10483,47.356316,-2.051768,52.06,26.61,3.216,56.5,13 / 19,1048310,2019-08-09 20:31:37:048,-0.0711,-0.1872,9.4753,-0.3714,-0.085,9.7992,0.0003,0.0169,-0.0071
10484,47.356316,-2.051768,52.06,26.61,3.216,56.5,13 / 19,1048410,2019-08-09 20:31:37:148,-0.1201,0.124,9.7034,-0.3661,-0.0828,9.7995,-0.0074,-0.0104,-0.0065
10485,47.356316,-2.051768,52.06,26.61,3.216,56.5,13 / 19,1048510,2019-08-09 20:31:37:248,0.8603,0.2144,9.2503,-0.339,-0.0933,9.8003,-0.0108,0.0103,-0.0241
10486,47.356316,-2.051768,52.06,26.61,3.216,56.5,16 / 21,1048610,2019-08-09 20:31:37:348,-1.4274,-0.0615,9.0001,-0.3594,-0.0948,9.7996,-0.0091,-0.0355,-0.0059
10487,47.356316,-2.051768,52.06,26.61,3.216,56.5,16 / 21,1048711,2019-08-09 20:31:37:449,-0.3698,0.0989,10.0685,-0.339,-0.1017,9.8003,-0.0066,0.0251,-0.0199
10488,47.356316,-2.051768,52.06,26.61,3.216,56.5,16 / 21,1048811,2019-08-09 20:31:37:549,-0.441,0.1222,9.9368,-0.3306,-0.1018,9.8005,-0.0025,-0.0138,-0.0206
10489,47.356316,-2.051768,52.06,26.61,3.216,56.5,16 / 21,1048910,2019-08-09 20:31:37:648,-0.9162,-0.0627,9.3047,-0.3142,-0.095,9.8012,0.0096,-0.0111,-0.0031
10490,47.356316,-2.051768,52.06,26.61,3.216,56.5,16 / 21,1049010,2019-08-09 20:31:37:748,0.8214,0.4808,9.7477,-0.3166,-0.086,9.8012,0.0051,-0.006,-0.0397
10491,47.356316,-2.051768,52.06,26.61,3.216,56.5,16 / 21,1049110,2019-08-09 20:31:37:848,0.9447,0.3132,10.0445,-0.3128,-0.0776,9.8014,-0.0023,-0.0001,-0.0218
10492,47.356316,-2.051768,52.06,26.61,3.216,56.5,16 / 21,1049210,2019-08-09 20:31:37:948,1.2649,0.2491,9.6866,-0.3178,-0.0732,9.8012,0.0001,0.0354,-0.0193
10493,47.356316,-2.051768,52.06,26.61,3.216,56.5,16 / 21,1049310,2019-08-09 20:31:38:048,-2.1714,0.2515,9.6812,-0.3256,-0.0684,9.801,-0.0013,-0.0318,-0.0103
10494,47.356316,-2.051768,52.06,26.61,3.216,56.5,16 / 21,1049410,2019-08-09 20:31:38:148,-3.6899,0.3676,10.0541,-0.3497,-0.0656,9.8002,-0.0087,0.0023,-0.0045
10495,47.356316,-2.051768,52.06,26.61,3.216,56.5,16 / 21,1049510,2019-08-09 20:31:38:248,-2.4162,-0.0771,9.2772,-0.3529,-0.0652,9.8001,0.0003,0.004,-0.0145
10496,47.357437,-2.049244,54.69,24.34,3.216,57.6,15 / 21,1049610,2019-08-09 20:31:38:348,0.6257,0.0187,9.6214,-0.3533,-0.0613,9.8001,0.0056,-0.0027,-0.018
10497,47.357437,-2.049244,54.69,24.34,3.216,57.6,15 / 21,1049710,2019-08-09 20:31:38:448,0.4203,0.2114,9.9727,-0.3569,-0.0579,9.8,-0.0106,-0.0035,-0.0052
10498,47.357437,-2.049244,54.69,24.34,3.216,57.6,15 / 21,1049810,2019-08-09 20:31:38:548,0.4563,0.0456,9.6687,-0.3603,-0.0623,9.7998,-0.0032,-0.0229,-0.0121
10499,47.357437,-2.049244,54.69,24.34,3.216,57.6,15 / 21,1049911,2019-08-09 20:31:38:649,-1.5537,0.0564,9.3335,-0.374,-0.0554,9.7994,-0.0055,0.0091,-0.0246
10500,47.357437,-2.049244,54.69,24.34,3.216,57.6,15 / 21,1050011,2019-08-09 20:31:38:749,-2.0475,0.2018,10.0583,-0.3745,-0.0527,9.7994,-0.013,0.0063,-0.0112
10501,47.357437,-2.049244,54.69,24.34,3.216,57.6,15 / 21,1050111,2019-08-09 20:31:38:849,-1.3591,0.0324,9.0929,-0.3665,-0.0623,9.7996,0.0024,-0.0091,-0.0293
10502,47.357437,-2.049244,54.69,24.34,3.216,57.6,15 / 21,1050211,2019-08-09 20:31:38:949,0.3886,-0.0292,9.6603,-0.3866,-0.0558,9.7989,0.0124,-0.012,-0.0081
10503,47.357437,-2.049244,54.69,24.34,3.216,57.6,15 / 21,1050310,2019-08-09 20:31:39:048,0.0211,0.1043,10.1912,-0.3928,-0.0488,9.7987,-0.0097,-0.0149,-0.0234
10504,47.357437,-2.049244,54.69,24.34,3.216,57.6,15 / 21,1050410,2019-08-09 20:31:39:148,-0.4889,0.0636,9.8303,-0.3956,-0.0511,9.7985,-0.0085,0.0277,-0.0078
10505,47.357437,-2.049244,54.69,24.34,3.216,57.6,15 / 21,1050511,2019-08-09 20:31:39:249,-0.7857,-0.1878,9.349,-0.3818,-0.0497,9.7991,0.0091,0.005,-0.0208
10506,47.357437,-2.049244,54.69,24.34,3.216,57.6,Dec-18,1050610,2019-08-09 20:31:39:348,-1.0132,0.1611,9.607,-0.3985,-0.0389,9.7985,0.0092,-0.0016,-0.0162
10507,47.357437,-2.049244,54.69,24.34,3.216,57.6,Dec-18,1050710,2019-08-09 20:31:39:448,-0.9779,-0.0394,9.8129,-0.4186,-0.0381,9.7976,-0.006,0.0004,0.004
10508,47.357437,-2.049244,54.69,24.34,3.216,57.6,Dec-18,1050811,2019-08-09 20:31:39:549,-0.3284,0.1839,10.0733,-0.4338,-0.0361,9.797,0.0019,0.031,-0.0166
10509,47.357437,-2.049244,54.69,24.34,3.216,57.6,Dec-18,1050911,2019-08-09 20:31:39:649,-0.7073,0.3054,10.178,-0.4411,-0.0298,9.7967,0.0076,0.0196,-0.0139
10510,47.357437,-2.049244,54.69,24.34,3.216,57.6,Dec-18,1051010,2019-08-09 20:31:39:748,-1.4531,0.2377,9.6812,-0.4468,-0.0094,9.7965,0.0141,0.0168,-0.027
10511,47.357437,-2.049244,54.69,24.34,3.216,57.6,Dec-18,1051111,2019-08-09 20:31:39:849,-0.2698,0.3,9.7902,-0.4623,0.0012,9.7957,0.0139,0.0137,-0.0252
10512,47.357437,-2.049244,54.69,24.34,3.216,57.6,Dec-18,1051211,2019-08-09 20:31:39:949,-1.4388,-0.0382,9.7746,-0.4723,0.0212,9.7952,0.0003,-0.0269,-0.0176
10513,47.357437,-2.049244,54.69,24.34,3.216,57.6,Dec-18,1051310,2019-08-09 20:31:40:048,-0.4314,0.066,9.537,-0.4624,0.0219,9.7957,0.014,0.0055,-0.0049
10514,47.357437,-2.049244,54.69,24.34,3.216,57.6,Dec-18,1051411,2019-08-09 20:31:40:149,-1.2514,0.6986,9.3544,-0.4526,0.0461,9.7961,-0.0047,0.055,-0.0172
10515,47.357437,-2.049244,54.69,24.34,3.216,57.6,Dec-18,1051510,2019-08-09 20:31:40:248,0.2737,0.5963,9.6752,-0.4721,0.0489,9.7952,-0.0193,-0.039,-0.0289
10516,47.357437,-2.049244,54.69,24.34,3.216,57.6,16 / 21,1051610,2019-08-09 20:31:40:348,-0.4368,0.4544,9.0755,-0.4604,0.0479,9.7957,0.0076,0.0164,-0.0408
10517,47.357437,-2.049244,54.69,24.34,3.216,57.6,16 / 21,1051710,2019-08-09 20:31:40:448,0.148,0.5783,10.0667,-0.4871,0.0595,9.7944,-0.0009,-0.0158,-0.0271
10518,47.357437,-2.049244,54.69,24.34,3.216,57.6,16 / 21,1051810,2019-08-09 20:31:40:548,-0.004,0.1138,9.9416,-0.4872,0.0541,9.7944,-0.0076,-0.0499,-0.0082
10519,47.357437,-2.049244,54.69,24.34,3.216,57.6,16 / 21,1051910,2019-08-09 20:31:40:648,-0.4667,0.1354,9.7507,-0.4896,0.0545,9.7943,0.0139,-0.0219,-0.0311
10520,47.357437,-2.049244,54.69,24.34,3.216,57.6,16 / 21,1052010,2019-08-09 20:31:40:748,-1.2023,0.7818,9.783,-0.527,0.0742,9.7922,-0.004,0.0447,-0.0261
10521,47.357437,-2.049244,54.69,24.34,3.216,57.6,16 / 21,1052110,2019-08-09 20:31:40:848,-0.997,0.4891,10.1349,-0.5119,0.0727,9.793,-0.0151,0.005,-0.0266
10522,47.357437,-2.049244,54.69,24.34,3.216,57.6,16 / 21,1052210,2019-08-09 20:31:40:948,-0.9354,0.1953,9.2993,-0.5286,0.0732,9.7921,0.0084,-0.0162,-0.0244
10523,47.357437,-2.049244,54.69,24.34,3.216,57.6,16 / 21,1052310,2019-08-09 20:31:41:048,-0.7833,0.2581,9.9099,-0.5518,0.0832,9.7908,0.0138,0.0181,-0.0253
10524,47.357437,-2.049244,54.69,24.34,3.216,57.6,16 / 21,1052410,2019-08-09 20:31:41:148,-0.4829,0.3652,10.0757,-0.5611,0.0969,9.7901,-0.0026,-0.0146,-0.0246
10525,47.357437,-2.049244,54.69,24.34,3.216,57.6,16 / 21,1052511,2019-08-09 20:31:41:249,-0.5703,0.1953,9.367,-0.5572,0.1014,9.7903,0.0114,-0.0263,-0.0226
10526,47.357437,-2.049244,54.69,24.34,3.216,57.6,17 / 22,1052610,2019-08-09 20:31:41:348,-0.3925,0.6466,10.2151,-0.5617,0.1189,9.7898,-0.0029,-0.0024,-0.0163
10527,47.357437,-2.049244,54.69,24.34,3.216,57.6,17 / 22,1052710,2019-08-09 20:31:41:448,-0.2267,0.3227,9.3191,-0.5582,0.1248,9.79,-0.0031,-0.047,-0.013
10528,47.357437,-2.049244,54.69,24.34,3.216,57.6,17 / 22,1052811,2019-08-09 20:31:41:549,-0.2165,0.5418,9.3718,-0.5468,0.1295,9.7905,0.0051,0.0072,-0.0278
10529,47.357437,-2.049244,54.69,24.34,3.216,57.6,17 / 22,1052911,2019-08-09 20:31:41:649,-0.0148,0.455,9.7872,-0.5531,0.1345,9.7901,-0.011,-0.0154,-0.0168
10530,47.357437,-2.049244,54.69,24.34,3.216,57.6,17 / 22,1053010,2019-08-09 20:31:41:748,-1.4208,-0.0298,9.2251,-0.5332,0.128,9.7913,0.0029,0.0083,-0.0321
10531,47.357437,-2.049244,54.69,24.34,3.216,57.6,17 / 22,1053111,2019-08-09 20:31:41:849,-0.8881,0.3042,10.0134,-0.5447,0.1283,9.7907,0.004,0.0208,-0.0137
10532,47.357437,-2.049244,54.69,24.34,3.216,57.6,17 / 22,1053211,2019-08-09 20:31:41:949,-1.4938,0.1935,10.0308,-0.5621,0.1304,9.7897,-0.0055,-0.0023,-0.0108
10533,47.357437,-2.049244,54.69,24.34,3.216,57.6,17 / 22,1053310,2019-08-09 20:31:42:048,0.1414,0.0247,9.103,-0.5721,0.1274,9.7891,0.0083,-0.0224,-0.0081
10534,47.357437,-2.049244,54.69,24.34,3.216,57.6,17 / 22,1053410,2019-08-09 20:31:42:148,-1.2251,0.3461,9.6465,-0.5708,0.1498,9.7889,0.0138,-0.0017,-0.0289
10535,47.357437,-2.049244,54.69,24.34,3.216,57.6,17 / 22,1053510,2019-08-09 20:31:42:248,-1.735,0.5233,10.0619,-0.5782,0.1574,9.7883,-0.0006,0.0377,-0.0254
10536,47.357437,-2.049244,54.69,24.34,3.216,57.6,17 / 22,1053610,2019-08-09 20:31:42:348,-2.0146,0.3389,9.5017,-0.567,0.1692,9.7888,0.0173,0.0168,-0.043
10537,47.357437,-2.049244,54.69,24.34,3.216,57.6,17 / 22,1053710,2019-08-09 20:31:42:448,0.2378,0.3269,9.4933,-0.5764,0.1826,9.788,0.0182,-0.001,-0.0153
10538,47.357437,-2.049244,54.69,24.34,3.216,57.6,17 / 22,1053810,2019-08-09 20:31:42:548,0.9387,0.221,9.8548,-0.5752,0.1905,9.7879,-0.0054,-0.0141,0.0061
10539,47.357437,-2.049244,54.69,24.34,3.216,57.6,17 / 22,1053910,2019-08-09 20:31:42:648,0.5682,0.3012,9.5795,-0.5936,0.1872,9.7869,0.0029,-0.0314,-0.0223
10540,47.357437,-2.049244,54.69,24.34,3.216,57.6,17 / 22,1054011,2019-08-09 20:31:42:749,-2.0912,0.3108,9.7171,-0.5965,0.1903,9.7866,0.0059,0.0299,-0.0044
10541,47.357437,-2.049244,54.69,24.34,3.216,57.6,17 / 22,1054110,2019-08-09 20:31:42:848,-2.0816,0.3766,9.8386,-0.6069,0.1978,9.7859,0.0004,0.0048,-0.0253
10542,47.357437,-2.049244,54.69,24.34,3.216,57.6,17 / 22,1054210,2019-08-09 20:31:42:948,-1.8799,0.3413,9.7345,-0.6209,0.1957,9.785,-0.0042,0.0215,-0.0186
10543,47.357437,-2.049244,54.69,24.34,3.216,57.6,17 / 22,1054311,2019-08-09 20:31:43:049,0.6735,0.0181,9.3688,-0.6105,0.1984,9.7856,0.005,-0.0332,-0.0031
10544,47.357437,-2.049244,54.69,24.34,3.216,57.6,17 / 22,1054410,2019-08-09 20:31:43:148,0.57,0.4281,9.4849,-0.6245,0.2025,9.7847,0.0092,-0.0119,-0.0198
10545,47.357437,-2.049244,54.69,24.34,3.216,57.6,17 / 22,1054511,2019-08-09 20:31:43:249,0.8776,0.1976,9.4472,-0.6137,0.2149,9.7851,0.0042,-0.0267,-0.0054
10546,47.357437,-2.049244,54.69,24.34,3.216,57.6,16 / 21,1054610,2019-08-09 20:31:43:348,-2.0481,0.4365,9.3795,-0.5968,0.2169,9.7861,0.006,0.0263,-0.0229
10547,47.357437,-2.049244,54.69,24.34,3.216,57.6,16 / 21,1054711,2019-08-09 20:31:43:449,-1.7165,0.6106,9.5854,-0.6011,0.2305,9.7855,0.0051,0.0142,-0.0098
10548,47.357437,-2.049244,54.69,24.34,3.216,57.6,16 / 21,1054810,2019-08-09 20:31:43:548,-1.6051,0.6807,9.6896,-0.6004,0.2396,9.7853,0.0002,-0.0073,-0.046
10549,47.357437,-2.049244,54.69,24.34,3.216,57.6,16 / 21,1054910,2019-08-09 20:31:43:648,0.2815,0.2707,9.8291,-0.6094,0.2423,9.7847,-0.0083,0.0356,-0.0407
10550,47.357437,-2.049244,54.69,24.34,3.216,57.6,16 / 21,1055010,2019-08-09 20:31:43:748,0.415,0.0666,9.3502,-0.6221,0.2413,9.7839,0.0007,-0.0353,0.0029
10551,47.357437,-2.049244,54.69,24.34,3.216,57.6,16 / 21,1055111,2019-08-09 20:31:43:849,-0.602,0.5412,9.6208,-0.616,0.2507,9.7841,0.0146,-0.011,-0.0271
10552,47.357437,-2.049244,54.69,24.34,3.216,57.6,16 / 21,1055210,2019-08-09 20:31:43:948,-0.948,0.6555,9.4256,-0.6009,0.2609,9.7847,0.0002,-0.0171,-0.0247
10553,47.357437,-2.049244,54.69,24.34,3.216,57.6,16 / 21,1055310,2019-08-09 20:31:44:048,-1.4322,0.5041,9.4406,-0.5881,0.266,9.7854,0.0004,-0.024,-0.043
10554,47.357437,-2.049244,54.69,24.34,3.216,57.6,16 / 21,1055410,2019-08-09 20:31:44:148,-0.9282,0.5328,9.2383,-0.5904,0.2738,9.785,-0.0017,0.0469,-0.0514
10555,47.357437,-2.049244,54.69,24.34,3.216,57.6,16 / 21,1055511,2019-08-09 20:31:44:249,0.3551,0.7669,10.439,-0.584,0.2775,9.7853,-0.0108,-0.0367,-0.0117
10556,47.357437,-2.049244,54.69,24.34,3.216,57.6,15 / 20,1055610,2019-08-09 20:31:44:348,-0.4733,0.2761,10.418,-0.6108,0.272,9.7838,-0.008,0.0544,-0.0193
10557,47.357437,-2.049244,54.69,24.34,3.216,57.6,15 / 20,1055710,2019-08-09 20:31:44:448,-0.0962,0.2048,9.5699,-0.6096,0.2753,9.7838,0.0119,-0.0015,0.0013
10558,47.357437,-2.049244,54.69,24.34,3.216,57.6,15 / 20,1055811,2019-08-09 20:31:44:549,-0.6708,0.3251,9.8087,-0.6145,0.2792,9.7834,0.0082,0.0099,-0.03
10559,47.357437,-2.049244,54.69,24.34,3.216,57.6,15 / 20,1055910,2019-08-09 20:31:44:648,-0.022,0.4957,10.3462,-0.6264,0.2782,9.7827,-0.0058,0.022,-0.0189
10560,47.357437,-2.049244,54.69,24.34,3.216,57.6,15 / 20,1056010,2019-08-09 20:31:44:748,-0.0489,0.0366,9.6633,-0.6032,0.2725,9.7843,0.0004,0.0321,0.0014
10561,47.357437,-2.049244,54.69,24.34,3.216,57.6,15 / 20,1056111,2019-08-09 20:31:44:849,-0.5607,0.3419,9.7788,-0.6213,0.2739,9.7831,0.0035,-0.0248,-0.0294
10562,47.357437,-2.049244,54.69,24.34,3.216,57.6,15 / 20,1056211,2019-08-09 20:31:44:949,-1.4926,0.2767,9.0354,-0.602,0.2774,9.7842,0.0077,-0.0092,-0.0247
10563,47.357437,-2.049244,54.69,24.34,3.216,57.6,15 / 20,1056311,2019-08-09 20:31:45:049,-1.6997,0.4023,9.2539,-0.582,0.2932,9.785,0.006,-0.0087,-0.0379
10564,47.357437,-2.049244,54.69,24.34,3.216,57.6,15 / 20,1056411,2019-08-09 20:31:45:149,0.8178,0.8776,9.7141,-0.5793,0.2999,9.7849,-0.0038,0.014,-0.0184
10565,47.357437,-2.049244,54.69,24.34,3.216,57.6,15 / 20,1056510,2019-08-09 20:31:45:248,1.1757,0.7555,10.0206,-0.5676,0.3011,9.7856,0.0016,0.0293,-0.0079
10566,47.357437,-2.049244,54.69,24.34,3.216,57.6,16 / 22,1056610,2019-08-09 20:31:45:348,0.8633,0.719,10.2822,-0.5931,0.3038,9.784,0.0048,0.0306,-0.0442
10567,47.357437,-2.049244,54.69,24.34,3.216,57.6,16 / 22,1056711,2019-08-09 20:31:45:449,-0.1974,0.7148,9.9757,-0.5918,0.3297,9.7832,0.0202,0.0372,-0.0547
10568,47.357437,-2.049244,54.69,24.34,3.216,57.6,16 / 22,1056810,2019-08-09 20:31:45:548,-1.2939,0.7836,10.0936,-0.6017,0.3455,9.7821,0.0157,0.0151,-0.0285
10569,47.357437,-2.049244,54.69,24.34,3.216,57.6,16 / 22,1056910,2019-08-09 20:31:45:648,-0.684,0.6292,9.8967,-0.606,0.3671,9.781,0.0097,0.0227,-0.0225
10570,47.357437,-2.049244,54.69,24.34,3.216,57.6,16 / 22,1057011,2019-08-09 20:31:45:749,-1.1137,0.7202,9.7872,-0.6012,0.374,9.7811,0.0195,-0.0104,-0.0199
10571,47.357437,-2.049244,54.69,24.34,3.216,57.6,16 / 22,1057110,2019-08-09 20:31:45:848,0.5849,0.959,9.4717,-0.6084,0.405,9.7794,0.0042,0.0326,-0.062
10572,47.357437,-2.049244,54.69,24.34,3.216,57.6,16 / 22,1057211,2019-08-09 20:31:45:949,-0.168,0.6693,9.5693,-0.602,0.413,9.7794,-0.0021,-0.0431,-0.0169
10573,47.357437,-2.049244,54.69,24.34,3.216,57.6,16 / 22,1057311,2019-08-09 20:31:46:049,-0.1543,0.4772,9.1521,-0.5825,0.4096,9.7808,-0.0054,-0.05,-0.0125
10574,47.357437,-2.049244,54.69,24.34,3.216,57.6,16 / 22,1057411,2019-08-09 20:31:46:149,-0.4206,0.5574,9.7046,-0.6023,0.4059,9.7797,-0.0076,0.0035,-0.0323
10575,47.357437,-2.049244,54.69,24.34,3.216,57.6,16 / 22,1057510,2019-08-09 20:31:46:248,-0.3536,0.467,9.9093,-0.5947,0.397,9.7805,-0.0177,0.0015,-0.0238
10576,47.357437,-2.049244,54.69,24.34,3.216,57.6,14 / 20,1057610,2019-08-09 20:31:46:348,-0.1405,0.3628,8.5374,-0.577,0.3821,9.7822,0.0006,0.0031,-0.0522
10577,47.357437,-2.049244,54.69,24.34,3.216,57.6,14 / 20,1057710,2019-08-09 20:31:46:448,-0.5996,0.364,10.0332,-0.5926,0.3811,9.7813,0.0084,-0.026,-0.0142
10578,47.357437,-2.049244,54.69,24.34,3.216,57.6,14 / 20,1057810,2019-08-09 20:31:46:548,-0.7229,0.382,10.6952,-0.6068,0.386,9.7802,-0.0014,-0.0019,-0.021
10579,47.357437,-2.049244,54.69,24.34,3.216,57.6,14 / 20,1057910,2019-08-09 20:31:46:648,-2.1504,0.5418,10.4982,-0.6039,0.3841,9.7805,0.0032,0.0578,-0.0366
10580,47.357437,-2.049244,54.69,24.34,3.216,57.6,14 / 20,1058010,2019-08-09 20:31:46:748,1.0476,0.3664,9.4197,-0.6218,0.3977,9.7788,0.0143,0.0148,-0.0377
10581,47.357437,-2.049244,54.69,24.34,3.216,57.6,14 / 20,1058111,2019-08-09 20:31:46:849,0.558,0.6561,9.5675,-0.6183,0.4078,9.7786,0.0151,-0.0271,-0.0333
10582,47.357437,-2.049244,54.69,24.34,3.216,57.6,14 / 20,1058211,2019-08-09 20:31:46:949,0.6634,0.4077,9.5466,-0.5942,0.423,9.7795,0.0029,-0.0128,-0.0027
10583,47.357437,-2.049244,54.69,24.34,3.216,57.6,14 / 20,1058311,2019-08-09 20:31:47:049,-1.1149,0.8189,9.8135,-0.5944,0.4254,9.7794,-0.0011,0.0125,-0.0581
10584,47.357437,-2.049244,54.69,24.34,3.216,57.6,14 / 20,1058411,2019-08-09 20:31:47:149,-1.4932,0.3676,9.4789,-0.6044,0.4337,9.7784,0.0074,-0.0445,-0.0106
10585,47.357437,-2.049244,54.69,24.34,3.216,57.6,14 / 20,1058511,2019-08-09 20:31:47:249,-1.5148,0.6346,10.032,-0.6145,0.4368,9.7776,-0.0067,-0.0196,-0.0125
10586,47.358376,-2.046642,52.88,24.7,3.216,68.5,17 / 21,1058611,2019-08-09 20:31:47:349,0.4892,0.7956,9.7261,-0.6099,0.4367,9.7779,-0.0053,0.0005,-0.0343
10587,47.358376,-2.046642,52.88,24.7,3.216,68.5,17 / 21,1058710,2019-08-09 20:31:47:448,0.5844,0.9249,9.9189,-0.6107,0.4352,9.7779,-0.0122,0.0112,-0.0435
10588,47.358376,-2.046642,52.88,24.7,3.216,68.5,17 / 21,1058811,2019-08-09 20:31:47:549,-0.1722,0.6525,9.5956,-0.5953,0.4294,9.7791,0.0012,-0.0196,-0.04
10589,47.358376,-2.046642,52.88,24.7,3.216,68.5,17 / 21,1058910,2019-08-09 20:31:47:648,-1.0162,0.7938,10.3157,-0.6271,0.4324,9.777,-0.0024,0.0366,-0.0441
10590,47.358376,-2.046642,52.88,24.7,3.216,68.5,17 / 21,1059011,2019-08-09 20:31:47:749,-0.9689,0.4532,9.4424,-0.6049,0.4304,9.7785,0.0005,-0.0259,-0.0304
10591,47.358376,-2.046642,52.88,24.7,3.216,68.5,17 / 21,1059110,2019-08-09 20:31:47:848,-1.0287,0.6735,9.689,-0.6321,0.4351,9.7766,0.0023,-0.0255,-0.0277
10592,47.358376,-2.046642,52.88,24.7,3.216,68.5,17 / 21,1059210,2019-08-09 20:31:47:948,-0.341,0.7531,10.1002,-0.6164,0.4416,9.7773,-0.003,0.0046,-0.0322
10593,47.358376,-2.046642,52.88,24.7,3.216,68.5,17 / 21,1059310,2019-08-09 20:31:48:048,-0.3847,0.7363,9.4406,-0.6082,0.4473,9.7775,0.0056,0.0072,-0.0538
10594,47.358376,-2.046642,52.88,24.7,3.216,68.5,17 / 21,1059410,2019-08-09 20:31:48:148,0.4209,0.4766,9.692,-0.603,0.4537,9.7776,0.0053,-0.0025,-0.0121
10595,47.358376,-2.046642,52.88,24.7,3.216,68.5,17 / 21,1059510,2019-08-09 20:31:48:248,-1.1568,0.5927,9.3586,-0.6017,0.4527,9.7777,0.0029,0.0069,-0.0424
10596,47.358376,-2.046642,52.88,24.7,3.216,68.5,16 / 20,1059610,2019-08-09 20:31:48:348,-0.9875,0.8339,10.0002,-0.6109,0.4559,9.777,-0.0027,-0.003,-0.0122
10597,47.358376,-2.046642,52.88,24.7,3.216,68.5,16 / 20,1059711,2019-08-09 20:31:48:449,-1.0282,0.458,9.844,-0.6309,0.4518,9.7759,-0.0043,0.0077,-0.0347
10598,47.358376,-2.046642,52.88,24.7,3.216,68.5,16 / 20,1059811,2019-08-09 20:31:48:549,-0.0136,0.4353,9.8704,-0.6456,0.4566,9.7747,0.0008,-0.024,-0.0374
10599,47.358376,-2.046642,52.88,24.7,3.216,68.5,16 / 20,1059910,2019-08-09 20:31:48:648,-0.2746,0.3928,9.6836,-0.6277,0.462,9.7756,0.0042,0.0117,-0.029
10600,47.358376,-2.046642,52.88,24.7,3.216,68.5,16 / 20,1060010,2019-08-09 20:31:48:748,-0.8983,0.8255,10.2564,-0.6315,0.46,9.7755,-0.0126,0.0229,-0.0471
10601,47.358376,-2.046642,52.88,24.7,3.216,68.5,16 / 20,1060110,2019-08-09 20:31:48:848,-0.0735,0.5227,10.4085,-0.6426,0.4538,9.775,-0.0117,-0.0082,-0.0112
10602,47.358376,-2.046642,52.88,24.7,3.216,68.5,16 / 20,1060210,2019-08-09 20:31:48:948,0.0678,0.2575,9.3903,-0.6401,0.448,9.7755,0.0101,-0.0068,-0.0328
10603,47.358376,-2.046642,52.88,24.7,3.216,68.5,16 / 20,1060311,2019-08-09 20:31:49:049,-0.0711,1.0219,10.3336,-0.6485,0.4518,9.7748,-0.0028,0.016,-0.0506
10604,47.358376,-2.046642,52.88,24.7,3.216,68.5,16 / 20,1060411,2019-08-09 20:31:49:149,-0.4942,0.2808,9.7944,-0.6415,0.4381,9.7758,-0.0076,0.0036,-0.0325
10605,47.358376,-2.046642,52.88,24.7,3.216,68.5,16 / 20,1060510,2019-08-09 20:31:49:248,-0.2357,0.6789,9.3694,-0.625,0.4382,9.7769,-0.0003,-0.0078,-0.0429
10606,47.358376,-2.046642,52.88,24.7,3.216,68.5,17 / 21,1060611,2019-08-09 20:31:49:349,-0.9683,0.5903,9.6238,-0.6387,0.4365,9.7761,-0.0033,-0.0177,-0.032
10607,47.358376,-2.046642,52.88,24.7,3.216,68.5,17 / 21,1060710,2019-08-09 20:31:49:448,-1.1987,0.5149,9.5819,-0.6278,0.4409,9.7766,0.0078,-0.0195,-0.0574
10608,47.358376,-2.046642,52.88,24.7,3.216,68.5,17 / 21,1060810,2019-08-09 20:31:49:548,-1.3627,0.5442,9.8548,-0.628,0.444,9.7764,0.0053,0.0222,-0.007
10609,47.358376,-2.046642,52.88,24.7,3.216,68.5,17 / 21,1060911,2019-08-09 20:31:49:649,-1.4765,0.4562,9.6794,-0.6416,0.4481,9.7754,-0.0036,0.0054,-0.0391
10610,47.358376,-2.046642,52.88,24.7,3.216,68.5,17 / 21,1061010,2019-08-09 20:31:49:748,-1.0778,0.3329,9.7914,-0.658,0.448,9.7743,0.0023,0.0108,-0.023
10611,47.358376,-2.046642,52.88,24.7,3.216,68.5,17 / 21,1061110,2019-08-09 20:31:49:848,-1.7081,0.1085,9.546,-0.6731,0.4476,9.7733,-0.0005,0.0065,0.0002
10612,47.358376,-2.046642,52.88,24.7,3.216,68.5,17 / 21,1061211,2019-08-09 20:31:49:949,0.9237,0.5873,9.8105,-0.679,0.4433,9.7731,0.002,0.0078,-0.0302
10613,47.358376,-2.046642,52.88,24.7,3.216,68.5,17 / 21,1061311,2019-08-09 20:31:50:049,0.7041,0.5454,9.7303,-0.675,0.4511,9.773,0.0075,-0.0283,-0.0035
10614,47.358376,-2.046642,52.88,24.7,3.216,68.5,17 / 21,1061410,2019-08-09 20:31:50:148,0.4335,0.8542,10.1511,-0.6751,0.4541,9.7728,-0.011,-0.0532,-0.011
10615,47.358376,-2.046642,52.88,24.7,3.216,68.5,17 / 21,1061510,2019-08-09 20:31:50:248,-1.5698,0.0618,9.2598,-0.6786,0.4442,9.7731,0.0006,0.0271,-0.0052
10616,47.358376,-2.046642,52.88,24.7,3.216,68.5,18 / 22,1061610,2019-08-09 20:31:50:348,-2.0325,0.0779,9.7507,-0.687,0.4382,9.7727,0.0048,0.0022,-0.0331
10617,47.358376,-2.046642,52.88,24.7,3.216,68.5,18 / 22,1061710,2019-08-09 20:31:50:448,-2.8394,0.446,10.3845,-0.6984,0.4434,9.7717,0.0023,0.0783,-0.0231
10618,47.358376,-2.046642,52.88,24.7,3.216,68.5,18 / 22,1061810,2019-08-09 20:31:50:548,1.7342,0.1528,9.5567,-0.6934,0.4449,9.772,0.0036,-0.0575,-0.0043
10619,47.358376,-2.046642,52.88,24.7,3.216,68.5,18 / 22,1061910,2019-08-09 20:31:50:648,1.0357,-0.104,9.3347,-0.692,0.44,9.7723,0.009,0.0,0.0005
10620,47.358376,-2.046642,52.88,24.7,3.216,68.5,18 / 22,1062010,2019-08-09 20:31:50:748,0.4203,0.6082,10.0427,-0.7083,0.4393,9.7712,-0.0147,-0.0003,-0.0356
10621,47.358376,-2.046642,52.88,24.7,3.216,68.5,18 / 22,1062110,2019-08-09 20:31:50:848,-1.2694,0.1641,10.1068,-0.7098,0.4248,9.7717,-0.0191,0.015,0.0066
10622,47.358376,-2.046642,52.88,24.7,3.216,68.5,18 / 22,1062210,2019-08-09 20:31:50:948,-1.4579,-0.4674,9.2431,-0.7172,0.4035,9.7721,0.0121,-0.0074,-0.0123
10623,47.358376,-2.046642,52.88,24.7,3.216,68.5,18 / 22,1062311,2019-08-09 20:31:51:049,-1.0868,-0.2381,8.9588,-0.7003,0.406,9.7732,0.0188,-0.0268,-0.0048
10624,47.358376,-2.046642,52.88,24.7,3.216,68.5,18 / 22,1062411,2019-08-09 20:31:51:149,-0.7905,0.3245,10.4964,-0.7177,0.4047,9.772,0.0034,0.0325,-0.0485
10625,47.358376,-2.046642,52.88,24.7,3.216,68.5,18 / 22,1062510,2019-08-09 20:31:51:248,0.0804,0.397,11.019,-0.7555,0.4004,9.7693,-0.0009,0.0869,-0.0302
10626,47.358376,-2.046642,52.88,24.7,3.216,68.5,15 / 19,1062610,2019-08-09 20:31:51:348,-2.7909,0.9632,10.4689,-0.7004,0.4058,9.7732,0.0098,0.1042,-0.0709
10627,47.358376,-2.046642,52.88,24.7,3.216,68.5,15 / 19,1062710,2019-08-09 20:31:51:448,-0.5104,-0.4997,8.6864,-0.6883,0.4167,9.7736,0.0083,0.1071,-0.0591
10628,47.358376,-2.046642,52.88,24.7,3.216,68.5,15 / 19,1062810,2019-08-09 20:31:51:548,-0.244,0.0001,10.0757,-0.7417,0.4219,9.7695,-0.0032,-0.0495,0.0207
10629,47.358376,-2.046642,52.88,24.7,3.216,68.5,15 / 19,1062910,2019-08-09 20:31:51:648,-0.247,-0.0316,10.09,-0.7453,0.3966,9.7702,-0.01,-0.0446,0.0073
10630,47.358376,-2.046642,52.88,24.7,3.216,68.5,15 / 19,1063010,2019-08-09 20:31:51:748,-2.2294,-0.1172,9.4442,-0.7318,0.3854,9.7717,0.0034,0.0535,-0.0107
10631,47.358376,-2.046642,52.88,24.7,3.216,68.5,15 / 19,1063110,2019-08-09 20:31:51:848,-2.3438,0.2581,9.5466,-0.7333,0.3819,9.7717,-0.0007,0.0131,-0.039
10632,47.358376,-2.046642,52.88,24.7,3.216,68.5,15 / 19,1063211,2019-08-09 20:31:51:949,-1.5381,0.288,9.6549,-0.7408,0.3809,9.7712,0.0005,-0.0043,-0.0139
10633,47.358376,-2.046642,52.88,24.7,3.216,68.5,15 / 19,1063310,2019-08-09 20:31:52:048,0.2893,0.3347,10.0829,-0.7308,0.3755,9.7722,0.0029,-0.044,-0.0021
10634,47.358376,-2.046642,52.88,24.7,3.216,68.5,15 / 19,1063410,2019-08-09 20:31:52:148,0.1133,0.5915,9.7872,-0.7294,0.374,9.7723,-0.0013,0.0453,-0.0441
10635,47.358376,-2.046642,52.88,24.7,3.216,68.5,15 / 19,1063510,2019-08-09 20:31:52:248,0.163,0.6657,10.3791,-0.7389,0.3734,9.7716,-0.0034,0.0547,-0.0397
10636,47.358376,-2.046642,52.88,24.7,3.216,68.5,17 / 21,1063610,2019-08-09 20:31:52:348,-1.1449,0.3018,9.9422,-0.73,0.3701,9.7724,-0.0116,0.0072,-0.0315
10637,47.358376,-2.046642,52.88,24.7,3.216,68.5,17 / 21,1063710,2019-08-09 20:31:52:448,-0.1345,0.3407,9.212,-0.7318,0.3595,9.7727,0.0034,0.0313,-0.0347
10638,47.358376,-2.046642,52.88,24.7,3.216,68.5,17 / 21,1063810,2019-08-09 20:31:52:548,-0.2297,0.4897,9.8482,-0.7447,0.3672,9.7714,0.0066,0.0342,-0.0424
10639,47.358376,-2.046642,52.88,24.7,3.216,68.5,17 / 21,1063910,2019-08-09 20:31:52:648,-0.1112,0.5921,10.4982,-0.7529,0.3706,9.7707,-0.0076,-0.0246,-0.0047
10640,47.358376,-2.046642,52.88,24.7,3.216,68.5,17 / 21,1064010,2019-08-09 20:31:52:748,-1.0252,0.4281,9.6645,-0.7529,0.373,9.7706,0.0134,0.0085,-0.0205
10641,47.358376,-2.046642,52.88,24.7,3.216,68.5,17 / 21,1064110,2019-08-09 20:31:52:848,-2.1492,0.8136,10.0781,-0.7606,0.38,9.7697,-0.0038,0.0332,-0.0457
10642,47.358376,-2.046642,52.88,24.7,3.216,68.5,17 / 21,1064211,2019-08-09 20:31:52:949,-0.3296,0.3503,10.1595,-0.7778,0.3762,9.7685,-0.0065,0.0109,-0.0072
10643,47.358376,-2.046642,52.88,24.7,3.216,68.5,17 / 21,1064310,2019-08-09 20:31:53:048,-0.994,-0.0178,9.2299,-0.7615,0.3742,9.7699,0.018,0.0075,-0.0273
10644,47.358376,-2.046642,52.88,24.7,3.216,68.5,17 / 21,1064411,2019-08-09 20:31:53:149,-1.0982,0.9692,10.2145,-0.7953,0.3875,9.7667,-0.0077,-0.0213,-0.0098
10645,47.358376,-2.046642,52.88,24.7,3.216,68.5,17 / 21,1064510,2019-08-09 20:31:53:248,-1.0341,0.9818,9.8943,-0.7718,0.3903,9.7684,0.0173,-0.0076,-0.0247
10646,47.358376,-2.046642,52.88,24.7,3.216,68.5,15 / 19,1064610,2019-08-09 20:31:53:348,-0.3242,0.531,9.3245,-0.7755,0.4064,9.7675,0.0042,-0.0148,-0.0378
10647,47.358376,-2.046642,52.88,24.7,3.216,68.5,15 / 19,1064710,2019-08-09 20:31:53:448,0.1025,1.2858,10.1553,-0.7861,0.4153,9.7663,-0.0017,0.0188,-0.0551
10648,47.358376,-2.046642,52.88,24.7,3.216,68.5,15 / 19,1064810,2019-08-09 20:31:53:548,-0.1273,0.3976,9.349,-0.7813,0.405,9.7671,-0.0114,-0.0126,-0.0337
10649,47.358376,-2.046642,52.88,24.7,3.216,68.5,15 / 19,1064910,2019-08-09 20:31:53:648,-1.2724,0.7992,9.8051,-0.7704,0.4079,9.7678,0.0015,0.0153,-0.0393
10650,47.358376,-2.046642,52.88,24.7,3.216,68.5,15 / 19,1065010,2019-08-09 20:31:53:748,-0.326,0.7148,10.1511,-0.7936,0.398,9.7664,-0.0177,0.0006,-0.0442
10651,47.358376,-2.046642,52.88,24.7,3.216,68.5,15 / 19,1065110,2019-08-09 20:31:53:848,-0.4954,0.5646,9.4837,-0.7829,0.3942,9.7674,0.0002,0.0143,-0.0261
10652,47.358376,-2.046642,52.88,24.7,3.216,68.5,15 / 19,1065210,2019-08-09 20:31:53:948,-1.7267,0.552,9.5238,-0.7735,0.3922,9.7682,0.0025,-0.0236,-0.022
10653,47.358376,-2.046642,52.88,24.7,3.216,68.5,15 / 19,1065310,2019-08-09 20:31:54:048,-1.4005,0.5771,10.1487,-0.7734,0.394,9.7682,-0.0048,0.0066,-0.0357
10654,47.358376,-2.046642,52.88,24.7,3.216,68.5,15 / 19,1065410,2019-08-09 20:31:54:148,-1.2825,0.215,9.5394,-0.7768,0.3928,9.7679,0.0,-0.0191,-0.0129
10655,47.358376,-2.046642,52.88,24.7,3.216,68.5,15 / 19,1065510,2019-08-09 20:31:54:248,0.5071,0.7884,9.771,-0.7762,0.3948,9.7679,0.0069,0.0062,-0.0501
10656,47.358376,-2.046642,52.88,24.7,3.216,68.5,18 / 22,1065611,2019-08-09 20:31:54:349,-0.3757,0.8112,9.8901,-0.7845,0.4063,9.7668,0.0076,-0.0135,-0.0358
10657,47.358376,-2.046642,52.88,24.7,3.216,68.5,18 / 22,1065711,2019-08-09 20:31:54:449,0.6083,0.9716,9.8692,-0.7867,0.4112,9.7664,-0.023,-0.0004,-0.0407
10658,47.358376,-2.046642,52.88,24.7,3.216,68.5,18 / 22,1065810,2019-08-09 20:31:54:548,-0.8276,0.2294,9.3442,-0.7773,0.3963,9.7678,-0.0081,-0.0078,-0.0251
10659,47.358376,-2.046642,52.88,24.7,3.216,68.5,18 / 22,1065911,2019-08-09 20:31:54:649,-2.0882,0.6777,9.9931,-0.7676,0.3955,9.7686,-0.019,0.0489,-0.0332
10660,47.358376,-2.046642,52.88,24.7,3.216,68.5,18 / 22,1066010,2019-08-09 20:31:54:748,-1.1658,0.3012,10.3037,-0.7999,0.3707,9.7669,-0.0108,0.0389,-0.0105
10661,47.358376,-2.046642,52.88,24.7,3.216,68.5,18 / 22,1066110,2019-08-09 20:31:54:848,-0.3793,0.1773,9.8111,-0.7826,0.3669,9.7685,0.0139,0.0194,-0.0379
10662,47.358376,-2.046642,52.88,24.7,3.216,68.5,18 / 22,1066210,2019-08-09 20:31:54:948,-1.4298,0.537,9.5472,-0.8145,0.3997,9.7646,0.0349,0.051,-0.0453
10663,47.358376,-2.046642,52.88,24.7,3.216,68.5,18 / 22,1066310,2019-08-09 20:31:55:048,-1.7907,0.8034,9.5771,-0.8008,0.4229,9.7647,0.0335,-0.0147,-0.0416
10664,47.358376,-2.046642,52.88,24.7,3.216,68.5,18 / 22,1066411,2019-08-09 20:31:55:149,-0.1064,0.4778,9.9829,-0.7921,0.468,9.7634,0.0255,-0.0083,-0.043
10665,47.358376,-2.046642,52.88,24.7,3.216,68.5,18 / 22,1066511,2019-08-09 20:31:55:249,0.8681,0.467,9.1958,-0.7848,0.4866,9.7631,0.0296,-0.0341,-0.014
10666,47.358376,-2.046642,52.88,24.7,3.216,68.5,15 / 19,1066610,2019-08-09 20:31:55:348,1.1925,0.5634,9.5621,-0.7665,0.5156,9.763,0.0022,0.0217,-0.0161
10667,47.358376,-2.046642,52.88,24.7,3.216,68.5,15 / 19,1066710,2019-08-09 20:31:55:448,-2.2013,1.1631,10.3085,-0.7863,0.5091,9.7618,-0.0165,0.0245,-0.0332
10668,47.358376,-2.046642,52.88,24.7,3.216,68.5,15 / 19,1066810,2019-08-09 20:31:55:548,-1.8434,0.9051,10.4444,-0.8046,0.4965,9.761,-0.0067,0.0386,-0.0093
10669,47.358376,-2.046642,52.88,24.7,3.216,68.5,15 / 19,1066910,2019-08-09 20:31:55:648,-1.6812,0.9781,10.3426,-0.8323,0.4936,9.7588,0.0096,-0.1122,0.0096
10670,47.358376,-2.046642,52.88,24.7,3.216,68.5,15 / 19,1067010,2019-08-09 20:31:55:748,-0.1752,-0.0747,8.4159,-0.8019,0.5052,9.7607,0.0124,0.0214,-0.0611
10671,47.358376,-2.046642,52.88,24.7,3.216,68.5,15 / 19,1067111,2019-08-09 20:31:55:849,-0.4679,0.6334,9.3616,-0.7743,0.5199,9.7622,0.0204,-0.036,-0.0189
10672,47.358376,-2.046642,52.88,24.7,3.216,68.5,15 / 19,1067211,2019-08-09 20:31:55:949,-1.2867,0.6633,9.6489,-0.7722,0.5226,9.7622,-0.0029,0.0186,-0.0246
10673,47.358376,-2.046642,52.88,24.7,3.216,68.5,15 / 19,1067310,2019-08-09 20:31:56:048,-0.2871,0.7507,10.1283,-0.797,0.5183,9.7605,-0.0082,0.0172,-0.0255
10674,47.358376,-2.046642,52.88,24.7,3.216,68.5,15 / 19,1067410,2019-08-09 20:31:56:148,-0.4266,0.6196,10.445,-0.8023,0.4981,9.7611,-0.0154,0.0417,-0.0181
10675,47.358376,-2.046642,52.88,24.7,3.216,68.5,15 / 19,1067511,2019-08-09 20:31:56:249,-0.7582,0.3371,10.345,-0.8116,0.4853,9.7609,-0.0181,0.0107,-0.028
10676,47.358856,-2.043797,54.32,25.06,3.216,81.8,16 / 19,1067611,2019-08-09 20:31:56:349,-0.942,0.1964,9.6758,-0.8086,0.4661,9.7621,0.0137,0.0039,-0.021
10677,47.358856,-2.043797,54.32,25.06,3.216,81.8,16 / 19,1067711,2019-08-09 20:31:56:449,-1.3083,0.1306,9.7237,-0.8112,0.4741,9.7615,0.0133,0.031,-0.0569
10678,47.358856,-2.043797,54.32,25.06,3.216,81.8,16 / 19,1067811,2019-08-09 20:31:56:549,-0.8378,0.1192,9.5442,-0.8326,0.4789,9.7595,0.0062,0.0105,-0.0271
10679,47.358856,-2.043797,54.32,25.06,3.216,81.8,16 / 19,1067910,2019-08-09 20:31:56:648,-1.0551,0.4981,9.7596,-0.8166,0.4804,9.7608,0.0187,-0.0215,-0.0052
10680,47.358856,-2.043797,54.32,25.06,3.216,81.8,16 / 19,1068011,2019-08-09 20:31:56:749,-0.7151,0.6855,9.9907,-0.817,0.4891,9.7603,0.0095,0.0303,-0.0397
10681,47.358856,-2.043797,54.32,25.06,3.216,81.8,16 / 19,1068110,2019-08-09 20:31:56:848,-1.1054,0.5215,9.9452,-0.8324,0.4922,9.7589,-0.0019,-0.0039,-0.022
10682,47.358856,-2.043797,54.32,25.06,3.216,81.8,16 / 19,1068211,2019-08-09 20:31:56:949,-0.9025,0.1294,9.3131,-0.8145,0.4976,9.7601,0.0292,0.0223,-0.0439
10683,47.358856,-2.043797,54.32,25.06,3.216,81.8,16 / 19,1068310,2019-08-09 20:31:57:048,-0.2488,0.801,10.4623,-0.8357,0.5269,9.7568,0.0174,-0.0147,-0.0098
10684,47.358856,-2.043797,54.32,25.06,3.216,81.8,16 / 19,1068411,2019-08-09 20:31:57:149,0.5023,0.5807,9.7183,-0.8106,0.5325,9.7586,0.0218,-0.0496,-0.0088
10685,47.358856,-2.043797,54.32,25.06,3.216,81.8,16 / 19,1068511,2019-08-09 20:31:57:249,-0.3572,0.5897,10.4324,-0.8387,0.5491,9.7553,0.0026,0.0609,-0.0548
10686,47.358856,-2.043797,54.32,25.06,3.216,81.8,16 / 20,1068611,2019-08-09 20:31:57:349,-0.9414,0.6783,9.789,-0.8113,0.5521,9.7574,-0.0059,-0.0118,-0.0177
10687,47.358856,-2.043797,54.32,25.06,3.216,81.8,16 / 20,1068710,2019-08-09 20:31:57:448,-1.003,0.5382,9.4544,-0.824,0.5436,9.7568,0.0047,-0.0203,-0.032
10688,47.358856,-2.043797,54.32,25.06,3.216,81.8,16 / 20,1068811,2019-08-09 20:31:57:549,0.4808,0.8866,10.0421,-0.808,0.5518,9.7577,-0.0031,-0.0131,-0.034
10689,47.358856,-2.043797,54.32,25.06,3.216,81.8,16 / 20,1068910,2019-08-09 20:31:57:648,-1.7763,0.4454,9.5208,-0.8069,0.5492,9.758,-0.0038,-0.0222,-0.0187
10690,47.358856,-2.043797,54.32,25.06,3.216,81.8,16 / 20,1069010,2019-08-09 20:31:57:748,-1.6483,0.4652,9.5465,-0.798,0.5516,9.7586,0.0167,-0.0159,-0.0205
10691,47.358856,-2.043797,54.32,25.06,3.216,81.8,16 / 20,1069110,2019-08-09 20:31:57:848,-1.1856,0.6047,10.166,-0.8165,0.5626,9.7564,-0.0027,-0.0037,0.0044
10692,47.358856,-2.043797,54.32,25.06,3.216,81.8,16 / 20,1069210,2019-08-09 20:31:57:948,-0.4745,0.2413,9.5094,-0.8009,0.5584,9.7579,0.011,-0.0022,-0.0202
10693,47.358856,-2.043797,54.32,25.06,3.216,81.8,16 / 20,1069310,2019-08-09 20:31:58:048,-0.7558,0.3994,9.5585,-0.8055,0.5641,9.7572,0.0146,0.0102,-0.0157
10694,47.358856,-2.043797,54.32,25.06,3.216,81.8,16 / 20,1069410,2019-08-09 20:31:58:148,-1.1317,0.5478,10.0625,-0.81,0.5658,9.7568,-0.0091,0.0161,-0.0248
10695,47.358856,-2.043797,54.32,25.06,3.216,81.8,16 / 20,1069510,2019-08-09 20:31:58:248,-0.1878,0.5358,9.5896,-0.7943,0.5534,9.7588,-0.0048,-0.0133,0.0052
10696,47.358856,-2.043797,54.32,25.06,3.216,81.8,17 / 21,1069610,2019-08-09 20:31:58:348,0.0606,0.5801,9.115,-0.7775,0.5434,9.7607,-0.0015,-0.0327,-0.0356
10697,47.358856,-2.043797,54.32,25.06,3.216,81.8,17 / 21,1069710,2019-08-09 20:31:58:448,0.4694,0.4239,9.6471,-0.7616,0.5352,9.7624,-0.0162,0.0023,-0.0031
10698,47.358856,-2.043797,54.32,25.06,3.216,81.8,17 / 21,1069811,2019-08-09 20:31:58:549,-2.2995,0.3156,9.8434,-0.7588,0.5202,9.7634,-0.0118,-0.0234,-0.0011
10699,47.358856,-2.043797,54.32,25.06,3.216,81.8,17 / 21,1069910,2019-08-09 20:31:58:648,-1.0814,0.3766,10.348,-0.7817,0.5137,9.7619,0.0108,0.0171,-0.0134
10700,47.358856,-2.043797,54.32,25.06,3.216,81.8,17 / 21,1070010,2019-08-09 20:31:58:748,-1.583,0.0887,9.6567,-0.7889,0.5152,9.7613,0.0243,-0.0008,-0.0125
10701,47.358856,-2.043797,54.32,25.06,3.216,81.8,17 / 21,1070110,2019-08-09 20:31:58:848,0.725,0.3407,9.8865,-0.7959,0.5301,9.7599,0.0136,0.0341,-0.0485
10702,47.358856,-2.043797,54.32,25.06,3.216,81.8,17 / 21,1070210,2019-08-09 20:31:58:948,0.3958,0.4694,9.8728,-0.7928,0.5389,9.7597,0.0102,-0.0323,0.0038
10703,47.358856,-2.043797,54.32,25.06,3.216,81.8,17 / 21,1070311,2019-08-09 20:31:59:049,-0.3638,0.4706,9.8913,-0.7811,0.5357,9.7608,0.0071,0.0236,-0.0272
10704,47.358856,-2.043797,54.32,25.06,3.216,81.8,17 / 21,1070411,2019-08-09 20:31:59:149,-1.3107,0.7387,10.2169,-0.8136,0.5342,9.7582,0.0012,-0.0038,-0.0248
10705,47.358856,-2.043797,54.32,25.06,3.216,81.8,17 / 21,1070511,2019-08-09 20:31:59:249,-0.8049,0.054,9.3305,-0.7809,0.5329,9.761,0.012,-0.0113,0.0
10706,47.358856,-2.043797,54.32,25.06,3.216,81.8,16 / 19,1070610,2019-08-09 20:31:59:348,-0.0064,0.7932,10.2074,-0.7972,0.5395,9.7593,-0.0116,0.0231,-0.0425
10707,47.358856,-2.043797,54.32,25.06,3.216,81.8,16 / 19,1070711,2019-08-09 20:31:59:449,-0.5727,0.4538,9.8584,-0.777,0.5308,9.7614,-0.0026,-0.0437,0.0158
10708,47.358856,-2.043797,54.32,25.06,3.216,81.8,16 / 19,1070811,2019-08-09 20:31:59:549,-1.5549,0.2054,9.2904,-0.7732,0.5298,9.7618,0.0146,0.0081,-0.0275
10709,47.358856,-2.043797,54.32,25.06,3.216,81.8,16 / 19,1070910,2019-08-09 20:31:59:648,-1.358,0.4167,9.1072,-0.7791,0.5315,9.7612,-0.0114,0.0272,-0.0481
10710,47.358856,-2.043797,54.32,25.06,3.216,81.8,16 / 19,1071010,2019-08-09 20:31:59:748,-0.4464,0.8022,10.1894,-0.7768,0.5299,9.7615,-0.0019,-0.0268,-0.0195
10711,47.358856,-2.043797,54.32,25.06,3.216,81.8,16 / 19,1071110,2019-08-09 20:31:59:848,-0.7355,0.6376,10.1289,-0.7543,0.5287,9.7633,-0.0056,0.0331,-0.0243
10712,47.358856,-2.043797,54.32,25.06,3.216,81.8,16 / 19,1071210,2019-08-09 20:31:59:948,-0.8438,0.5346,9.5873,-0.7582,0.5326,9.7628,0.0202,0.004,-0.0228
10713,47.358856,-2.043797,54.32,25.06,3.216,81.8,16 / 19,1071310,2019-08-09 20:32:00:048,-0.6277,0.8878,9.8015,-0.762,0.544,9.7619,0.006,0.0016,-0.0487
10714,47.358856,-2.043797,54.32,25.06,3.216,81.8,16 / 19,1071411,2019-08-09 20:32:00:149,-1.1329,0.23,9.531,-0.7419,0.5431,9.7635,-0.0061,0.0224,-0.0517
10715,47.358856,-2.043797,54.32,25.06,3.216,81.8,16 / 19,1071510,2019-08-09 20:32:00:248,-1.3208,0.0899,9.2521,-0.7596,0.5363,9.7625,0.0008,0.0329,-0.0415
10716,47.358856,-2.043797,54.32,25.06,3.216,81.8,18 / 22,1071611,2019-08-09 20:32:00:349,0.1265,0.6657,9.692,-0.7537,0.5406,9.7627,0.0164,0.0077,-0.02
10717,47.358856,-2.043797,54.32,25.06,3.216,81.8,18 / 22,1071711,2019-08-09 20:32:00:449,-0.3859,0.4772,9.8386,-0.7798,0.5411,9.7606,-0.0054,0.0032,-0.0223
10718,47.358856,-2.043797,54.32,25.06,3.216,81.8,18 / 22,1071810,2019-08-09 20:32:00:548,-1.0198,0.1037,9.258,-0.7753,0.5291,9.7616,-0.0026,-0.0319,-0.0015
10719,47.358856,-2.043797,54.32,25.06,3.216,81.8,18 / 22,1071910,2019-08-09 20:32:00:648,-0.3434,0.6496,9.4478,-0.7737,0.5254,9.7619,0.0018,0.0186,-0.0411
10720,47.358856,-2.043797,54.32,25.06,3.216,81.8,18 / 22,1072010,2019-08-09 20:32:00:748,-0.9114,0.9482,10.1427,-0.7976,0.5295,9.7598,-0.0098,0.0207,-0.0449
10721,47.358856,-2.043797,54.32,25.06,3.216,81.8,18 / 22,1072110,2019-08-09 20:32:00:848,-1.1167,0.3413,9.0378,-0.7883,0.5217,9.761,-0.0062,-0.0382,-0.0179
10722,47.358856,-2.043797,54.32,25.06,3.216,81.8,18 / 22,1072210,2019-08-09 20:32:00:948,0.1636,0.6154,9.5052,-0.782,0.5118,9.762,0.001,0.0067,-0.0389
10723,47.358856,-2.043797,54.32,25.06,3.216,81.8,18 / 22,1072311,2019-08-09 20:32:01:049,-0.4422,0.4999,9.8716,-0.7839,0.5089,9.762,-0.0037,-0.0169,-0.009
10724,47.358856,-2.043797,54.32,25.06,3.216,81.8,18 / 22,1072411,2019-08-09 20:32:01:149,-0.6864,0.3305,9.6423,-0.7719,0.5014,9.7634,-0.0055,0.0013,-0.0178
10725,47.358856,-2.043797,54.32,25.06,3.216,81.8,18 / 22,1072510,2019-08-09 20:32:01:248,-0.4003,0.9027,10.1092,-0.7708,0.4987,9.7636,-0.0011,0.0119,-0.0502
10726,47.358856,-2.043797,54.32,25.06,3.216,81.8,16 / 19,1072610,2019-08-09 20:32:01:348,-0.5044,0.3796,10.0775,-0.7739,0.4934,9.7636,-0.0101,0.0101,-0.0162
10727,47.358856,-2.043797,54.32,25.06,3.216,81.8,16 / 19,1072711,2019-08-09 20:32:01:449,-0.2704,0.2156,9.7961,-0.7825,0.4827,9.7635,0.002,0.0018,-0.0052
10728,47.358856,-2.043797,54.32,25.06,3.216,81.8,16 / 19,1072810,2019-08-09 20:32:01:548,0.048,-0.2112,9.2006,-0.783,0.4754,9.7638,0.0112,-0.0268,0.0215
10729,47.358856,-2.043797,54.32,25.06,3.216,81.8,16 / 19,1072911,2019-08-09 20:32:01:649,-1.5465,0.4173,9.7201,-0.774,0.4728,9.7646,0.0051,0.0088,-0.0449
10730,47.358856,-2.043797,54.32,25.06,3.216,81.8,16 / 19,1073010,2019-08-09 20:32:01:748,-0.8677,-0.0077,9.847,-0.7675,0.4728,9.7651,0.0041,-0.0043,-0.0193
10731,47.358856,-2.043797,54.32,25.06,3.216,81.8,16 / 19,1073110,2019-08-09 20:32:01:848,-1.5148,0.3796,9.6417,-0.7546,0.4709,9.7662,-0.0028,0.0056,-0.0109
10732,47.358856,-2.043797,54.32,25.06,3.216,81.8,16 / 19,1073210,2019-08-09 20:32:01:948,-0.5296,-0.0238,9.4795,-0.7229,0.4638,9.769,0.0059,-0.0424,-0.0003
10733,47.358856,-2.043797,54.32,25.06,3.216,81.8,16 / 19,1073310,2019-08-09 20:32:02:048,-0.8091,0.3323,10.0487,-0.7393,0.4603,9.7679,0.0035,0.0224,-0.017
10734,47.358856,-2.043797,54.32,25.06,3.216,81.8,16 / 19,1073411,2019-08-09 20:32:02:149,-0.9761,-0.2812,9.6058,-0.7296,0.4435,9.7694,-0.0058,0.0108,0.0028
10735,47.358856,-2.043797,54.32,25.06,3.216,81.8,16 / 19,1073510,2019-08-09 20:32:02:248,-0.2039,0.1982,9.7267,-0.7243,0.4351,9.7702,0.0015,0.0204,-0.0211
10736,47.358856,-2.043797,54.32,25.06,3.216,81.8,16 / 21,1073611,2019-08-09 20:32:02:349,-0.2536,0.1342,9.6722,-0.724,0.4197,9.7709,-0.0016,-0.0255,-0.0061
10737,47.358856,-2.043797,54.32,25.06,3.216,81.8,16 / 21,1073711,2019-08-09 20:32:02:449,-0.4003,0.4233,9.9566,-0.7226,0.4223,9.7709,0.0088,0.0098,-0.0099
10738,47.358856,-2.043797,54.32,25.06,3.216,81.8,16 / 21,1073810,2019-08-09 20:32:02:548,-1.3095,-0.0274,9.4047,-0.7133,0.419,9.7717,-0.0017,0.0104,-0.0043
10739,47.358856,-2.043797,54.32,25.06,3.216,81.8,16 / 21,1073911,2019-08-09 20:32:02:649,-0.0268,0.5143,10.278,-0.7118,0.4156,9.772,-0.0147,0.0616,-0.0003
10740,47.358856,-2.043797,54.32,25.06,3.216,81.8,16 / 21,1074011,2019-08-09 20:32:02:749,-0.605,-0.292,9.2419,-0.7069,0.3888,9.7734,-0.0016,-0.0558,0.0112
10741,47.358856,-2.043797,54.32,25.06,3.216,81.8,16 / 21,1074110,2019-08-09 20:32:02:848,-0.8983,0.2024,9.607,-0.7225,0.3903,9.7722,0.0238,0.0319,-0.008
10742,47.358856,-2.043797,54.32,25.06,3.216,81.8,16 / 21,1074210,2019-08-09 20:32:02:948,-0.7361,0.0678,9.4514,-0.6924,0.3931,9.7743,0.0104,0.0133,0.0116
10743,47.358856,-2.043797,54.32,25.06,3.216,81.8,16 / 21,1074310,2019-08-09 20:32:03:048,-0.4775,0.2635,9.8309,-0.694,0.3933,9.7742,0.0034,-0.0096,-0.0198
10744,47.358856,-2.043797,54.32,25.06,3.216,81.8,16 / 21,1074410,2019-08-09 20:32:03:148,-0.1166,-0.0334,10.1254,-0.7002,0.3909,9.7738,0.0028,0.0149,-0.0042
10745,47.358856,-2.043797,54.32,25.06,3.216,81.8,16 / 21,1074511,2019-08-09 20:32:03:249,0.0624,-0.4979,9.1503,-0.6671,0.3836,9.7764,0.0252,-0.0415,0.0108
10746,47.358856,-2.043797,54.32,25.06,3.216,81.8,16 / 22,1074610,2019-08-09 20:32:03:348,-1.0491,0.0145,10.3552,-0.6908,0.3841,9.7747,-0.0118,0.0082,-0.0073
10747,47.358856,-2.043797,54.32,25.06,3.216,81.8,16 / 22,1074710,2019-08-09 20:32:03:448,-0.8935,0.0408,10.199,-0.6956,0.3734,9.7748,-0.01,0.0067,0.0056
10748,47.358856,-2.043797,54.32,25.06,3.216,81.8,16 / 22,1074810,2019-08-09 20:32:03:548,-0.0777,0.0384,9.361,-0.6912,0.3631,9.7755,-0.0007,-0.0082,0.0052
10749,47.358856,-2.043797,54.32,25.06,3.216,81.8,16 / 22,1074910,2019-08-09 20:32:03:648,-1.2514,0.0767,9.5466,-0.6699,0.3513,9.7774,0.0006,-0.0069,0.0034
10750,47.358856,-2.043797,54.32,25.06,3.216,81.8,16 / 22,1075010,2019-08-09 20:32:03:748,-0.2566,0.0103,10.2367,-0.6877,0.3387,9.7766,-0.0138,0.0111,0.001
10751,47.358856,-2.043797,54.32,25.06,3.216,81.8,16 / 22,1075110,2019-08-09 20:32:03:848,-0.2985,-0.2752,9.5017,-0.6647,0.3169,9.779,-0.0031,-0.0208,0.0179
10752,47.358856,-2.043797,54.32,25.06,3.216,81.8,16 / 22,1075210,2019-08-09 20:32:03:948,-0.2147,0.1414,9.6579,-0.6711,0.3047,9.7789,-0.0171,-0.0046,0.0054
10753,47.358856,-2.043797,54.32,25.06,3.216,81.8,16 / 22,1075310,2019-08-09 20:32:04:048,-1.0814,-0.1561,9.9111,-0.6569,0.2802,9.7806,-0.0129,-0.0115,0.0138
10754,47.358856,-2.043797,54.32,25.06,3.216,81.8,16 / 22,1075410,2019-08-09 20:32:04:148,-0.7313,-0.3494,9.1868,-0.6549,0.2681,9.7811,0.0128,-0.0176,0.0022
10755,47.358856,-2.043797,54.32,25.06,3.216,81.8,16 / 22,1075510,2019-08-09 20:32:04:248,-0.7115,0.042,9.6609,-0.6431,0.2666,9.7819,-0.0024,0.0168,-0.0139
10756,47.358856,-2.043797,54.32,25.06,3.216,81.8,15 / 19,1075610,2019-08-09 20:32:04:348,-0.0022,-0.031,9.877,-0.6277,0.2589,9.7831,-0.0049,-0.0271,0.0129
10757,47.358856,-2.043797,54.32,25.06,3.216,81.8,15 / 19,1075711,2019-08-09 20:32:04:449,-1.0808,-0.5559,9.0743,-0.6199,0.2483,9.7839,0.0002,-0.0286,0.0199
10758,47.358856,-2.043797,54.32,25.06,3.216,81.8,15 / 19,1075811,2019-08-09 20:32:04:549,-0.9569,-0.0992,10.2002,-0.6344,0.2493,9.7829,0.0235,0.0121,-0.0256
10759,47.358856,-2.043797,54.32,25.06,3.216,81.8,15 / 19,1075910,2019-08-09 20:32:04:648,-0.5936,0.4496,10.093,-0.651,0.2648,9.7814,0.0075,-0.0445,0.0273
10760,47.358856,-2.043797,54.32,25.06,3.216,81.8,15 / 19,1076010,2019-08-09 20:32:04:748,-0.8498,0.0815,9.2748,-0.6154,0.2639,9.7838,0.0133,0.0144,-0.0238
10761,47.358856,-2.043797,54.32,25.06,3.216,81.8,15 / 19,1076110,2019-08-09 20:32:04:848,-0.2237,0.4053,10.1978,-0.6294,0.2743,9.7826,-0.0021,0.0354,-0.0036
10762,47.358856,-2.043797,54.32,25.06,3.216,81.8,15 / 19,1076211,2019-08-09 20:32:04:949,-0.4224,-0.1178,9.6345,-0.6226,0.2717,9.7831,0.0019,-0.0497,0.021
10763,47.358856,-2.043797,54.32,25.06,3.216,81.8,15 / 19,1076310,2019-08-09 20:32:05:048,-0.8881,-0.025,9.3897,-0.5894,0.2697,9.7852,0.0042,-0.0081,-0.0289
10764,47.358856,-2.043797,54.32,25.06,3.216,81.8,15 / 19,1076410,2019-08-09 20:32:05:148,-0.5325,-0.2064,9.8464,-0.6118,0.2665,9.7839,-0.0097,0.0131,0.0109
10765,47.358856,-2.043797,54.32,25.06,3.216,81.8,15 / 19,1076510,2019-08-09 20:32:05:248,-0.5924,0.0498,9.7405,-0.6029,0.2516,9.7849,-0.006,0.0036,0.0044
10766,47.35895,-2.040876,57.17,24.08,3.216,89.8,17 / 22,1076610,2019-08-09 20:32:05:348,0.8783,0.0049,9.8303,-0.5865,0.2436,9.7861,-0.0108,0.0262,-0.0064
10767,47.35895,-2.040876,57.17,24.08,3.216,89.8,17 / 22,1076711,2019-08-09 20:32:05:449,-0.7013,-0.1902,9.51,-0.589,0.2267,9.7863,-0.0062,-0.0027,0.0174
10768,47.35895,-2.040876,57.17,24.08,3.216,89.8,17 / 22,1076811,2019-08-09 20:32:05:549,-0.4937,-0.2854,9.5178,-0.5902,0.2128,9.7866,-0.013,-0.0263,0.0122
10769,47.35895,-2.040876,57.17,24.08,3.216,89.8,17 / 22,1076910,2019-08-09 20:32:05:648,0.0606,0.3814,9.4077,-0.5763,0.1881,9.7879,-0.0129,0.0023,0.0011
10770,47.35895,-2.040876,57.17,24.08,3.216,89.8,17 / 22,1077010,2019-08-09 20:32:05:748,0.4604,0.1073,10.0362,-0.5716,0.1747,9.7884,-0.0047,-0.0161,0.0115
10771,47.35895,-2.040876,57.17,24.08,3.216,89.8,17 / 22,1077111,2019-08-09 20:32:05:849,-1.0407,0.0031,9.437,-0.5594,0.165,9.7893,0.0024,-0.0094,-0.0098
10772,47.35895,-2.040876,57.17,24.08,3.216,89.8,17 / 22,1077210,2019-08-09 20:32:05:948,0.1013,0.1749,9.2718,-0.5365,0.1695,9.7905,0.012,-0.0358,-0.0068
10773,47.35895,-2.040876,57.17,24.08,3.216,89.8,17 / 22,1077311,2019-08-09 20:32:06:049,-0.7181,0.3664,9.507,-0.5479,0.1604,9.79,-0.0146,-0.0005,-0.0145
10774,47.35895,-2.040876,57.17,24.08,3.216,89.8,17 / 22,1077410,2019-08-09 20:32:06:148,-0.9324,0.4113,9.4083,-0.5279,0.1576,9.7912,-0.0058,0.0278,-0.0454
10775,47.35895,-2.040876,57.17,24.08,3.216,89.8,17 / 22,1077510,2019-08-09 20:32:06:248,-1.3723,-0.0202,9.7704,-0.523,0.1481,9.7916,-0.0164,0.037,-0.0496
10776,47.35895,-2.040876,57.17,24.08,3.216,89.8,17 / 21,1077610,2019-08-09 20:32:06:348,-0.3757,-0.2812,9.7369,-0.5423,0.1413,9.7906,0.0068,-0.0163,0.0276
10777,47.35895,-2.040876,57.17,24.08,3.216,89.8,17 / 21,1077710,2019-08-09 20:32:06:448,-1.9763,0.0151,10.008,-0.5462,0.1446,9.7904,0.0069,0.0199,0.0057
10778,47.35895,-2.040876,57.17,24.08,3.216,89.8,17 / 21,1077811,2019-08-09 20:32:06:549,0.1827,0.6867,10.1864,-0.56,0.1417,9.7896,-0.0104,0.0066,-0.017
10779,47.35895,-2.040876,57.17,24.08,3.216,89.8,17 / 21,1077911,2019-08-09 20:32:06:649,-0.5768,0.6478,9.3766,-0.5285,0.1467,9.7913,0.0039,-0.0037,-0.0028
10780,47.35895,-2.040876,57.17,24.08,3.216,89.8,17 / 21,1078010,2019-08-09 20:32:06:748,-0.1214,0.2485,9.5615,-0.5141,0.1495,9.792,-0.0008,-0.0144,-0.023
10781,47.35895,-2.040876,57.17,24.08,3.216,89.8,17 / 21,1078110,2019-08-09 20:32:06:848,-0.8175,0.0163,9.519,-0.5459,0.1457,9.7904,-0.0068,-0.0051,0.0025
10782,47.35895,-2.040876,57.17,24.08,3.216,89.8,17 / 21,1078210,2019-08-09 20:32:06:948,-1.091,0.4149,9.7261,-0.5282,0.1457,9.7913,-0.0031,-0.0369,0.0026
10783,47.35895,-2.040876,57.17,24.08,3.216,89.8,17 / 21,1078310,2019-08-09 20:32:07:048,-1.252,0.0007,9.2383,-0.5079,0.1466,9.7924,0.0134,-0.0751,0.0087
10784,47.35895,-2.040876,57.17,24.08,3.216,89.8,17 / 21,1078411,2019-08-09 20:32:07:149,-0.9037,0.1665,9.264,-0.4994,0.1577,9.7927,0.0179,0.0308,-0.0437
10785,47.35895,-2.040876,57.17,24.08,3.216,89.8,17 / 21,1078511,2019-08-09 20:32:07:249,0.0995,0.4323,9.9632,-0.4993,0.17,9.7925,0.0023,0.0284,-0.0486
10786,47.35895,-2.040876,57.17,24.08,3.216,89.8,16 / 21,1078611,2019-08-09 20:32:07:349,-0.6618,0.306,9.6477,-0.5132,0.1852,9.7915,0.01,-0.0148,-0.0042
10787,47.35895,-2.040876,57.17,24.08,3.216,89.8,16 / 21,1078711,2019-08-09 20:32:07:449,-0.4787,0.9297,9.9643,-0.5402,0.1937,9.7898,0.0045,0.0384,-0.0503
10788,47.35895,-2.040876,57.17,24.08,3.216,89.8,16 / 21,1078811,2019-08-09 20:32:07:549,-0.4924,0.5993,9.4777,-0.5361,0.2149,9.7896,0.0106,0.0013,-0.0536
10789,47.35895,-2.040876,57.17,24.08,3.216,89.8,16 / 21,1078910,2019-08-09 20:32:07:648,-0.5936,1.4468,11.244,-0.5313,0.2329,9.7895,-0.0294,0.0587,-0.0378
10790,47.35895,-2.040876,57.17,24.08,3.216,89.8,16 / 21,1079010,2019-08-09 20:32:07:748,-1.1772,-0.213,8.7834,-0.555,0.2196,9.7885,-0.0082,-0.0874,-0.017
10791,47.35895,-2.040876,57.17,24.08,3.216,89.8,16 / 21,1079111,2019-08-09 20:32:07:849,0.248,0.7316,8.5218,-0.5371,0.2412,9.789,0.0018,-0.0163,-0.091
10792,47.35895,-2.040876,57.17,24.08,3.216,89.8,16 / 21,1079211,2019-08-09 20:32:07:949,-0.5667,0.9919,9.1497,-0.5107,0.2596,9.7899,0.0127,0.0346,-0.0222
10793,47.35895,-2.040876,57.17,24.08,3.216,89.8,16 / 21,1079311,2019-08-09 20:32:08:049,-1.1981,0.6244,9.9817,-0.5361,0.2761,9.7881,-0.0096,-0.0204,-0.0644
10794,47.35895,-2.040876,57.17,24.08,3.216,89.8,16 / 21,1079410,2019-08-09 20:32:08:148,-1.577,0.7327,9.6549,-0.5355,0.2826,9.7879,-0.0019,-0.0264,-0.0553
10795,47.35895,-2.040876,57.17,24.08,3.216,89.8,16 / 21,1079510,2019-08-09 20:32:08:248,-0.3566,0.8716,10.5826,-0.5495,0.2916,9.7869,-0.0121,0.0545,-0.0357
10796,47.35895,-2.040876,57.17,24.08,3.216,89.8,17 / 22,1079610,2019-08-09 20:32:08:348,-1.1395,0.203,8.9001,-0.5386,0.2939,9.7874,0.0164,0.0134,-0.0388
10797,47.35895,-2.040876,57.17,24.08,3.216,89.8,17 / 22,1079710,2019-08-09 20:32:08:448,0.3886,0.8417,9.8171,-0.5491,0.3037,9.7866,0.0132,0.009,-0.0333
10798,47.35895,-2.040876,57.17,24.08,3.216,89.8,17 / 22,1079810,2019-08-09 20:32:08:548,-0.2003,0.7818,9.5645,-0.5417,0.32,9.7864,-0.0008,-0.0128,-0.0397
10799,47.35895,-2.040876,57.17,24.08,3.216,89.8,17 / 22,1079910,2019-08-09 20:32:08:648,-1.4106,0.1917,10.0505,-0.5685,0.3351,9.7844,0.0204,0.0049,-0.0199
10800,47.35895,-2.040876,57.17,24.08,3.216,89.8,17 / 22,1080010,2019-08-09 20:32:08:748,-0.2345,0.5837,9.7602,-0.5661,0.3626,9.7836,0.004,-0.0204,-0.0678
10801,47.35895,-2.040876,57.17,24.08,3.216,89.8,17 / 22,1080110,2019-08-09 20:32:08:848,-0.1273,0.5472,9.932,-0.5715,0.366,9.7831,-0.0164,-0.0254,-0.0241
10802,47.35895,-2.040876,57.17,24.08,3.216,89.8,17 / 22,1080210,2019-08-09 20:32:08:948,-1.6069,0.3443,9.4538,-0.5638,0.3623,9.7837,0.0155,-0.0058,-0.033
10803,47.35895,-2.040876,57.17,24.08,3.216,89.8,17 / 22,1080310,2019-08-09 20:32:09:048,-1.1862,0.9261,10.0176,-0.5851,0.3824,9.7817,0.017,0.0319,-0.0468
10804,47.35895,-2.040876,57.17,24.08,3.216,89.8,17 / 22,1080411,2019-08-09 20:32:09:149,-1.8907,0.4532,9.935,-0.5773,0.3981,9.7815,0.0024,0.0028,-0.0115
10805,47.35895,-2.040876,57.17,24.08,3.216,89.8,17 / 22,1080510,2019-08-09 20:32:09:248,-1.2718,0.5191,9.1719,-0.5892,0.4035,9.7806,0.0203,-0.0522,-0.0243
10806,47.35895,-2.040876,57.17,24.08,3.216,89.8,17 / 21,1080610,2019-08-09 20:32:09:348,-0.3368,1.5605,10.0374,-0.5909,0.4348,9.7792,0.0025,0.048,-0.0804
10807,47.35895,-2.040876,57.17,24.08,3.216,89.8,17 / 21,1080710,2019-08-09 20:32:09:448,-0.663,0.701,9.5657,-0.5768,0.4403,9.7798,0.0011,-0.0098,-0.0581
10808,47.35895,-2.040876,57.17,24.08,3.216,89.8,17 / 21,1080810,2019-08-09 20:32:09:548,-0.0974,1.275,10.3211,-0.6065,0.4558,9.7773,-0.0017,-0.0353,-0.0157
10809,47.35895,-2.040876,57.17,24.08,3.216,89.8,17 / 21,1080911,2019-08-09 20:32:09:649,-1.2879,0.6029,9.294,-0.5863,0.4624,9.7782,0.004,-0.0064,-0.0598
10810,47.35895,-2.040876,57.17,24.08,3.216,89.8,17 / 21,1081011,2019-08-09 20:32:09:749,-1.9607,1.4426,10.0068,-0.5883,0.4757,9.7774,-0.0011,-0.0601,-0.0202
10811,47.35895,-2.040876,57.17,24.08,3.216,89.8,17 / 21,1081111,2019-08-09 20:32:09:849,-2.1498,1.0757,9.5813,-0.57,0.4925,9.7777,0.0011,0.0226,-0.0666
10812,47.35895,-2.040876,57.17,24.08,3.216,89.8,17 / 21,1081210,2019-08-09 20:32:09:948,0.5658,1.1068,9.8183,-0.5894,0.5,9.7761,-0.011,0.0234,-0.0434
10813,47.35895,-2.040876,57.17,24.08,3.216,89.8,17 / 21,1081311,2019-08-09 20:32:10:049,-0.1668,0.44,8.8253,-0.5774,0.5096,9.7764,0.0035,-0.0478,-0.0173
10814,47.35895,-2.040876,57.17,24.08,3.216,89.8,17 / 21,1081410,2019-08-09 20:32:10:148,-0.8468,0.4155,9.2509,-0.5876,0.5113,9.7757,0.002,-0.0256,-0.0237
10815,47.35895,-2.040876,57.17,24.08,3.216,89.8,17 / 21,1081512,2019-08-09 20:32:10:250,0.4838,1.1535,9.9512,-0.5799,0.5161,9.7759,-0.016,-0.0212,-0.0245
10816,47.35895,-2.040876,57.17,24.08,3.216,89.8,16 / 20,1081610,2019-08-09 20:32:10:348,0.0971,0.5568,9.2742,-0.5591,0.5142,9.7772,0.0087,-0.0358,-0.0266
10817,47.35895,-2.040876,57.17,24.08,3.216,89.8,16 / 20,1081712,2019-08-09 20:32:10:450,-1.3909,0.7088,10.2912,-0.5826,0.5174,9.7756,0.0005,0.038,-0.0312
10818,47.35895,-2.040876,57.17,24.08,3.216,89.8,16 / 20,1081811,2019-08-09 20:32:10:549,-0.5846,0.5041,10.172,-0.5675,0.5149,9.7767,-0.012,0.0269,-0.0244
10819,47.35895,-2.040876,57.17,24.08,3.216,89.8,16 / 20,1081910,2019-08-09 20:32:10:648,-1.3711,0.5819,9.8159,-0.5953,0.5021,9.7757,-0.0031,-0.0185,-0.0237
10820,47.35895,-2.040876,57.17,24.08,3.216,89.8,16 / 20,1082011,2019-08-09 20:32:10:749,-0.8737,0.3084,10.2002,-0.5924,0.5041,9.7758,0.0175,-0.0176,-0.042
10821,47.35895,-2.040876,57.17,24.08,3.216,89.8,16 / 20,1082111,2019-08-09 20:32:10:849,-0.924,0.6023,10.4683,-0.6052,0.5225,9.774,-0.0138,-0.0132,-0.0365
10822,47.35895,-2.040876,57.17,24.08,3.216,89.8,16 / 20,1082211,2019-08-09 20:32:10:949,0.5042,0.1713,9.613,-0.6029,0.5137,9.7746,-0.0099,0.0021,-0.011
10823,47.35895,-2.040876,57.17,24.08,3.216,89.8,16 / 20,1082311,2019-08-09 20:32:11:049,-0.7349,-0.0388,9.2982,-0.5987,0.496,9.7758,-0.0045,-0.0264,0.0068
