,GPS LATITUDE (degrees),GPS LONGITUDE (degrees), GPS ALTITUDE (m),GPS SPEED (Kmh),GPS ACCURACY (m),GPS ORIENTATION (Â°), SATELLITES IN RANGE, TIME SINCE START (ms), DATE (YYYY-MO-DD HH-MI-SS_SSS),ACCELEROMETER X (m/s²) , ACCELEROMETER Y (m/s²), ACCELEROMETER Z (m/s²), GRAVITY X (m/s²), GRAVITY Y (m/s²), GRAVITY Z (m/s²), GYROSCOPE Yaw (rad/s), GYROSCOPE Pitch (rad/s), GYROSCOPE Roll (rad/s)
66819,47.45131,-1.641506,80.66,30.91,4.288,183.9,14 / 20,6683097,2019-08-18 17:05:05:634,-1.0091,-0.1311,9.2802,-0.7154,0.0685,9.7803,-0.0128,0.0069,0.0069
66820,47.45131,-1.641506,80.66,30.91,4.288,183.9,14 / 20,6683197,2019-08-18 17:05:05:734,-1.0235,-0.2035,9.4873,-0.7262,0.049,9.7796,-0.0207,0.0042,0.0057
66821,47.45131,-1.641506,80.66,30.91,4.288,183.9,14 / 20,6683297,2019-08-18 17:05:05:834,-0.9534,-0.0473,9.4795,-0.7372,0.0312,9.7789,0.0021,-0.0015,0.0067
66822,47.45131,-1.641506,80.66,30.91,4.288,183.9,14 / 20,6683397,2019-08-18 17:05:05:934,-0.9229,-0.4687,9.4448,-0.7424,0.0266,9.7785,-0.0023,0.0023,0.0082
66823,47.45131,-1.641506,80.66,30.91,4.288,183.9,14 / 20,6683497,2019-08-18 17:05:06:034,-1.0965,-0.3896,9.2012,-0.7587,0.0097,9.7773,-0.0017,0.0023,0.008
66824,47.45131,-1.641506,80.66,30.91,4.288,183.9,14 / 20,6683597,2019-08-18 17:05:06:134,-1.4143,-0.2215,10.2331,-0.7671,0.0054,9.7766,0.0011,-0.0163,0.0088
66825,47.45131,-1.641506,80.66,30.91,4.288,183.9,14 / 20,6683697,2019-08-18 17:05:06:234,-0.8559,-0.176,10.0541,-0.7549,-0.0085,9.7776,-0.0119,-0.0205,0.0059
66826,47.45131,-1.641506,80.66,30.91,4.288,183.9,14 / 20,6683797,2019-08-18 17:05:06:334,-0.9397,-0.5207,9.6291,-0.7484,-0.0181,9.778,-0.0094,-0.0036,0.0052
66827,47.45131,-1.641506,80.66,30.91,4.288,183.9,14 / 20,6683897,2019-08-18 17:05:06:434,-1.3239,0.0575,9.4968,-0.757,-0.0267,9.7773,0.0074,0.0051,0.0073
66828,47.45131,-1.641506,80.66,30.91,4.288,183.9,14 / 20,6683997,2019-08-18 17:05:06:534,-0.9313,-0.2484,9.1467,-0.7628,-0.0281,9.7769,0.004,0.006,0.0071
66829,47.45131,-1.641506,80.66,30.91,4.288,183.9,16 / 22,6684097,2019-08-18 17:05:06:634,-0.6799,-0.4483,9.8231,-0.773,-0.0295,9.7761,0.002,-0.0041,0.0065
66830,47.45131,-1.641506,80.66,30.91,4.288,183.9,16 / 22,6684197,2019-08-18 17:05:06:734,-1.0947,-0.2735,9.37,-0.7792,-0.0361,9.7756,-0.0059,-0.0014,0.0058
66831,47.45131,-1.641506,80.66,30.91,4.288,183.9,16 / 22,6684297,2019-08-18 17:05:06:834,-1.145,-0.2496,9.9643,-0.786,-0.0445,9.775,0.0106,0.0064,0.0042
66832,47.45131,-1.641506,80.66,30.91,4.288,183.9,16 / 22,6684397,2019-08-18 17:05:06:934,-1.3335,-0.2556,10.0547,-0.7944,-0.0422,9.7743,0.0013,-0.0118,0.0031
66833,47.45131,-1.641506,80.66,30.91,4.288,183.9,16 / 22,6684497,2019-08-18 17:05:07:034,-1.7202,0.2765,10.0685,-0.7873,-0.057,9.7748,-0.0221,-0.0126,-0.0022
66834,47.45131,-1.641506,80.66,30.91,4.288,183.9,16 / 22,6684597,2019-08-18 17:05:07:134,-0.8637,-1.0373,8.8845,-0.7836,-0.0827,9.7749,-0.0233,0.0145,0.0029
66835,47.45131,-1.641506,80.66,30.91,4.288,183.9,16 / 22,6684697,2019-08-18 17:05:07:234,-0.9528,-0.6255,8.9007,-0.7993,-0.1003,9.7735,0.0193,0.0098,0.0089
66836,47.45131,-1.641506,80.66,30.91,4.288,183.9,16 / 22,6684797,2019-08-18 17:05:07:334,-1.1061,-0.3107,9.8943,-0.8311,-0.0918,9.7709,0.0124,-0.0036,0.0074
66837,47.45131,-1.641506,80.66,30.91,4.288,183.9,16 / 22,6684897,2019-08-18 17:05:07:434,-1.321,-0.1903,10.0002,-0.8279,-0.0906,9.7712,-0.0047,-0.0016,0.0054
66838,47.45131,-1.641506,80.66,30.91,4.288,183.9,16 / 22,6684997,2019-08-18 17:05:07:534,-1.1378,-0.7871,9.8542,-0.8375,-0.1016,9.7703,-0.0087,0.0084,0.0075
66839,47.45131,-1.641506,80.66,30.91,4.288,183.9,17 / 23,6685097,2019-08-18 17:05:07:634,-1.3952,-0.4112,9.847,-0.8431,-0.1116,9.7697,-0.0191,0.0055,0.0051
66840,47.45131,-1.641506,80.66,30.91,4.288,183.9,17 / 23,6685197,2019-08-18 17:05:07:734,-1.5496,-0.4549,9.7261,-0.8645,-0.1424,9.7674,-0.009,0.0185,0.0066
66841,47.45131,-1.641506,80.66,30.91,4.288,183.9,17 / 23,6685297,2019-08-18 17:05:07:834,-1.3072,-0.5662,8.7457,-0.8788,-0.149,9.7661,0.0126,0.0176,0.0115
66842,47.45131,-1.641506,80.66,30.91,4.288,183.9,17 / 23,6685397,2019-08-18 17:05:07:934,-1.4939,-0.2251,8.5972,-0.912,-0.1425,9.7631,0.0159,0.0187,0.0138
66843,47.45131,-1.641506,80.66,30.91,4.288,183.9,17 / 23,6685496,2019-08-18 17:05:08:033,-1.6142,-0.3585,10.0409,-0.9377,-0.1354,9.7608,0.0,0.0,0.012
66844,47.45131,-1.641506,80.66,30.91,4.288,183.9,17 / 23,6685597,2019-08-18 17:05:08:134,-1.3664,-0.1323,10.2211,-0.9425,-0.1404,9.7602,-0.0121,-0.0128,0.0096
66845,47.45131,-1.641506,80.66,30.91,4.288,183.9,17 / 23,6685697,2019-08-18 17:05:08:234,-1.2479,-0.2113,10.4264,-0.9432,-0.1568,9.7599,-0.0087,-0.0086,0.0087
66846,47.45131,-1.641506,80.66,30.91,4.288,183.9,17 / 23,6685797,2019-08-18 17:05:08:334,-1.1222,-0.2993,9.9906,-0.945,-0.1701,9.7595,-0.0048,-0.0034,0.0104
66847,47.45131,-1.641506,80.66,30.91,4.288,183.9,17 / 23,6685898,2019-08-18 17:05:08:435,-1.1797,-0.3711,7.958,-0.9605,-0.1587,9.7582,0.0024,0.004,0.0166
66848,47.45131,-1.641506,80.66,30.91,4.288,183.9,17 / 23,6685997,2019-08-18 17:05:08:534,-1.1671,0.152,10.6556,-0.9517,-0.1709,9.7589,0.0117,-0.0313,0.002
66849,47.45131,-1.641506,80.66,30.91,4.288,183.9,18 / 23,6686098,2019-08-18 17:05:08:635,-1.2443,-0.7416,10.3629,-0.9273,-0.1682,9.7613,0.0226,-0.0231,0.0031
66850,47.45131,-1.641506,80.66,30.91,4.288,183.9,18 / 23,6686197,2019-08-18 17:05:08:734,-1.1031,-0.5578,9.7991,-0.9169,-0.1541,9.7625,-0.0051,0.0054,-0.0029
66851,47.45131,-1.641506,80.66,30.91,4.288,183.9,18 / 23,6686297,2019-08-18 17:05:08:834,-0.7571,-0.6255,8.678,-0.9218,-0.1629,9.7619,-0.0133,0.0105,-0.0008
66852,47.45131,-1.641506,80.66,30.91,4.288,183.9,18 / 23,6686397,2019-08-18 17:05:08:934,-1.0247,-0.8062,9.6178,-0.9326,-0.1821,9.7605,-0.0023,-0.0221,-0.0015
66853,47.45131,-1.641506,80.66,30.91,4.288,183.9,18 / 23,6686497,2019-08-18 17:05:09:034,-0.5775,-0.65,9.7937,-0.9188,-0.1902,9.7617,-0.011,-0.0072,-0.0017
66854,47.45131,-1.641506,80.66,30.91,4.288,183.9,18 / 23,6686597,2019-08-18 17:05:09:134,-0.8391,-0.3843,10.1349,-0.9166,-0.2112,9.7614,0.004,0.0083,-0.0012
66855,47.45131,-1.641506,80.66,30.91,4.288,183.9,18 / 23,6686697,2019-08-18 17:05:09:234,-0.9115,-0.4214,9.9781,-0.9202,-0.2106,9.7611,0.0162,0.0084,0.001
66856,47.45131,-1.641506,80.66,30.91,4.288,183.9,18 / 23,6686797,2019-08-18 17:05:09:334,-1.0037,-0.2717,9.6381,-0.9353,-0.2002,9.7599,-0.0028,0.0105,0.0032
66857,47.45131,-1.641506,80.66,30.91,4.288,183.9,18 / 23,6686897,2019-08-18 17:05:09:434,-0.8918,-0.2657,9.9344,-0.9424,-0.2051,9.7591,0.0001,0.0102,0.0056
66858,47.45131,-1.641506,80.66,30.91,4.288,183.9,18 / 23,6686997,2019-08-18 17:05:09:534,-1.0031,-0.1431,9.8344,-0.9528,-0.2063,9.7581,-0.0038,0.0004,0.007
66859,47.45131,-1.641506,80.66,30.91,4.288,183.9,18 / 23,6687097,2019-08-18 17:05:09:634,-0.7529,-0.264,9.9865,-0.9476,-0.209,9.7585,0.0119,-0.0009,0.0092
66860,47.45131,-1.641506,80.66,30.91,4.288,183.9,18 / 23,6687197,2019-08-18 17:05:09:734,-0.7793,-0.313,10.0996,-0.9432,-0.1985,9.7592,0.0025,-0.0058,0.0115
66861,47.45131,-1.641506,80.66,30.91,4.288,183.9,18 / 23,6687297,2019-08-18 17:05:09:834,-1.4269,-0.1209,9.6806,-0.934,-0.2024,9.76,-0.0107,-0.0095,0.0075
66862,47.45131,-1.641506,80.66,30.91,4.288,183.9,18 / 23,6687397,2019-08-18 17:05:09:934,-0.9145,-0.1981,9.4155,-0.9403,-0.1995,9.7594,0.0036,0.0132,0.0106
66863,47.45131,-1.641506,80.66,30.91,4.288,183.9,18 / 23,6687497,2019-08-18 17:05:10:034,-1.045,-0.1335,9.686,-0.9508,-0.2014,9.7584,-0.0003,-0.0009,0.0121
66864,47.45131,-1.641506,80.66,30.91,4.288,183.9,18 / 23,6687597,2019-08-18 17:05:10:134,-0.8984,0.1514,10.114,-0.9504,-0.1894,9.7587,0.0072,-0.0108,0.0124
66865,47.45131,-1.641506,80.66,30.91,4.288,183.9,18 / 23,6687697,2019-08-18 17:05:10:234,-1.0869,-0.3112,10.4545,-0.9456,-0.1814,9.7593,-0.0018,-0.0186,0.011
66866,47.45131,-1.641506,80.66,30.91,4.288,183.9,18 / 23,6687797,2019-08-18 17:05:10:334,-0.9085,-0.0156,10.2809,-0.929,-0.1829,9.7608,-0.01,-0.0024,0.0101
66867,47.45131,-1.641506,80.66,30.91,4.288,183.9,18 / 23,6687897,2019-08-18 17:05:10:434,-1.0271,-0.179,9.8895,-0.9317,-0.1828,9.7606,-0.0014,0.0018,0.0128
66868,47.45131,-1.641506,80.66,30.91,4.288,183.9,18 / 23,6687997,2019-08-18 17:05:10:534,-0.8636,-0.2131,9.8865,-0.9309,-0.1792,9.7607,0.0156,0.015,0.0154
66869,47.45131,-1.641506,80.66,30.91,4.288,183.9,15 / 22,6688097,2019-08-18 17:05:10:634,-0.8595,0.2831,9.9871,-0.946,-0.1556,9.7597,0.0112,0.0104,0.0145
66870,47.448845,-1.641597,78.64,29.72,4.288,179.5,15 / 22,6688197,2019-08-18 17:05:10:734,-0.8283,0.0599,9.9859,-0.9469,-0.1459,9.7597,0.0034,-0.0049,0.0138
66871,47.448845,-1.641597,78.64,29.72,4.288,179.5,15 / 22,6688297,2019-08-18 17:05:10:834,-1.0755,0.0952,9.6824,-0.9408,-0.1342,9.7605,-0.0047,-0.004,0.0137
66872,47.448845,-1.641597,78.64,29.72,4.288,179.5,15 / 22,6688397,2019-08-18 17:05:10:934,-0.9397,-0.0682,9.8997,-0.9337,-0.1335,9.7612,-0.0064,-0.0031,0.0115
66873,47.448845,-1.641597,78.64,29.72,4.288,179.5,15 / 22,6688497,2019-08-18 17:05:11:034,-0.7368,0.2053,9.8404,-0.9299,-0.1313,9.7616,-0.0085,0.0065,0.0122
66874,47.448845,-1.641597,78.64,29.72,4.288,179.5,15 / 22,6688597,2019-08-18 17:05:11:134,-0.9534,0.0718,9.1186,-0.9314,-0.1306,9.7614,0.0053,0.0105,0.0128
66875,47.448845,-1.641597,78.64,29.72,4.288,179.5,15 / 22,6688697,2019-08-18 17:05:11:234,-0.7368,0.2921,9.2736,-0.9403,-0.1182,9.7608,0.004,0.007,0.0121
66876,47.448845,-1.641597,78.64,29.72,4.288,179.5,15 / 22,6688797,2019-08-18 17:05:11:334,-1.0013,0.076,10.0505,-0.9395,-0.1098,9.7609,0.0011,-0.0035,0.0119
66877,47.448845,-1.641597,78.64,29.72,4.288,179.5,15 / 22,6688897,2019-08-18 17:05:11:434,-0.6787,0.009,10.5814,-0.9221,-0.1043,9.7626,-0.0119,-0.0288,0.0078
66878,47.448845,-1.641597,78.64,29.72,4.288,179.5,15 / 22,6688997,2019-08-18 17:05:11:534,-0.8798,0.3023,9.8225,-0.8983,-0.1084,9.7648,-0.0052,-0.0121,0.0063
66879,47.448845,-1.641597,78.64,29.72,4.288,179.5,15 / 22,6689097,2019-08-18 17:05:11:634,-0.6667,0.2083,9.6327,-0.8852,-0.1086,9.766,0.0005,0.0182,0.0087
66880,47.448845,-1.641597,78.64,29.72,4.288,179.5,14 / 22,6689197,2019-08-18 17:05:11:734,-0.62,-0.2149,9.8267,-0.8938,-0.1059,9.7653,0.0073,0.0162,0.0083
66881,47.448845,-1.641597,78.64,29.72,4.288,179.5,14 / 22,6689297,2019-08-18 17:05:11:834,-0.4453,0.1598,9.6698,-0.8951,-0.0937,9.7653,0.005,-0.004,0.009
66882,47.448845,-1.641597,78.64,29.72,4.288,179.5,14 / 22,6689397,2019-08-18 17:05:11:934,-0.3968,-0.1305,9.1862,-0.8826,-0.0867,9.7665,-0.0078,0.0011,0.0077
66883,47.448845,-1.641597,78.64,29.72,4.288,179.5,14 / 22,6689497,2019-08-18 17:05:12:034,-0.866,0.1113,9.8572,-0.8761,-0.0917,9.767,-0.0101,-0.0009,0.0074
66884,47.448845,-1.641597,78.64,29.72,4.288,179.5,14 / 22,6689596,2019-08-18 17:05:12:133,-0.7404,0.0581,10.2151,-0.874,-0.097,9.7671,-0.0078,-0.0056,0.0081
66885,47.448845,-1.641597,78.64,29.72,4.288,179.5,14 / 22,6689697,2019-08-18 17:05:12:234,-0.5452,0.1461,10.3941,-0.8457,-0.0951,9.7697,-0.001,-0.0218,0.0069
66886,47.448845,-1.641597,78.64,29.72,4.288,179.5,14 / 22,6689797,2019-08-18 17:05:12:334,-0.4656,0.2783,9.2473,-0.8348,-0.0948,9.7706,-0.0207,-0.006,0.005
66887,47.448845,-1.641597,78.64,29.72,4.288,179.5,14 / 22,6689897,2019-08-18 17:05:12:434,-0.4662,0.0425,9.0647,-0.8354,-0.1212,9.7703,-0.0129,0.0158,0.0055
66888,47.448845,-1.641597,78.64,29.72,4.288,179.5,14 / 22,6689997,2019-08-18 17:05:12:534,-0.492,0.1269,10.3109,-0.8392,-0.122,9.7699,-0.0011,0.0085,0.0067
66889,47.448845,-1.641597,78.64,29.72,4.288,179.5,14 / 22,6690097,2019-08-18 17:05:12:634,-0.2262,-0.0281,10.026,-0.8247,-0.1103,9.7713,0.0156,-0.0117,0.0069
66890,47.448845,-1.641597,78.64,29.72,4.288,179.5,15 / 22,6690197,2019-08-18 17:05:12:734,-0.7583,0.0563,10.5174,-0.8181,-0.1024,9.7719,0.0097,-0.0102,0.0054
66891,47.448845,-1.641597,78.64,29.72,4.288,179.5,15 / 22,6690297,2019-08-18 17:05:12:834,-0.6242,-0.1113,9.7075,-0.7945,-0.0935,9.774,-0.0056,-0.0075,0.0065
66892,47.448845,-1.641597,78.64,29.72,4.288,179.5,15 / 22,6690397,2019-08-18 17:05:12:934,-0.4387,0.0096,10.0176,-0.7913,-0.1,9.7742,-0.0147,0.0028,0.0067
66893,47.448845,-1.641597,78.64,29.72,4.288,179.5,15 / 22,6690496,2019-08-18 17:05:13:033,-0.4237,-0.2723,9.8332,-0.7914,-0.1088,9.7741,-0.0079,0.0095,0.0065
66894,47.448845,-1.641597,78.64,29.72,4.288,179.5,15 / 22,6690597,2019-08-18 17:05:13:134,-0.5033,-0.0952,10.1062,-0.7954,-0.1052,9.7738,0.0148,-0.0055,0.0074
66895,47.448845,-1.641597,78.64,29.72,4.288,179.5,15 / 22,6690699,2019-08-18 17:05:13:236,-0.6314,0.2711,10.412,-0.7898,-0.0964,9.7743,0.0226,-0.0086,0.0077
66896,47.448845,-1.641597,78.64,29.72,4.288,179.5,15 / 22,6690797,2019-08-18 17:05:13:334,-0.4249,0.155,10.4886,-0.7691,-0.0651,9.7762,0.0017,-0.0119,0.0063
66897,47.448845,-1.641597,78.64,29.72,4.288,179.5,15 / 22,6690896,2019-08-18 17:05:13:433,-1.0342,-0.0413,9.1718,-0.7612,-0.06,9.7769,-0.0071,-0.0102,0.0042
66898,47.448845,-1.641597,78.64,29.72,4.288,179.5,15 / 22,6690997,2019-08-18 17:05:13:534,-0.5309,0.0802,9.2586,-0.7443,-0.0844,9.778,-0.0339,0.0033,0.0024
66899,47.448845,-1.641597,78.64,29.72,4.288,179.5,15 / 23,6691097,2019-08-18 17:05:13:634,-0.7595,-0.3023,9.9536,-0.7483,-0.0934,9.7776,-0.0128,0.0037,0.0023
66900,47.448845,-1.641597,78.64,29.72,4.288,179.5,15 / 23,6691197,2019-08-18 17:05:13:734,-0.5949,-0.2556,10.0182,-0.7445,-0.106,9.7778,0.0177,0.0043,0.0068
66901,47.448845,-1.641597,78.64,29.72,4.288,179.5,15 / 23,6691297,2019-08-18 17:05:13:834,-0.5764,-0.3555,9.5968,-0.7454,-0.0974,9.7778,0.0118,0.0113,0.0076
66902,47.448845,-1.641597,78.64,29.72,4.288,179.5,15 / 23,6691397,2019-08-18 17:05:13:934,-0.7709,-0.0826,9.9697,-0.7649,-0.0924,9.7763,0.0145,0.0252,0.0068
66903,47.448845,-1.641597,78.64,29.72,4.288,179.5,15 / 23,6691497,2019-08-18 17:05:14:034,-0.7302,-0.2005,9.5334,-0.7844,-0.0824,9.7749,0.0112,0.0276,0.0083
66904,47.448845,-1.641597,78.64,29.72,4.288,179.5,15 / 23,6691597,2019-08-18 17:05:14:134,-0.805,-0.0239,10.3366,-0.7958,-0.0789,9.774,-0.0148,-0.0266,0.0062
66905,47.448845,-1.641597,78.64,29.72,4.288,179.5,15 / 23,6691697,2019-08-18 17:05:14:234,-1.0678,0.0575,9.7979,-0.7779,-0.0941,9.7753,-0.0388,-0.041,0.0005
66906,47.448845,-1.641597,78.64,29.72,4.288,179.5,15 / 23,6691797,2019-08-18 17:05:14:334,-0.8433,-0.1006,9.5286,-0.7501,-0.1457,9.7768,-0.0218,0.0041,0.0058
66907,47.448845,-1.641597,78.64,29.72,4.288,179.5,15 / 23,6691897,2019-08-18 17:05:14:434,-0.7655,-0.4256,9.6656,-0.7648,-0.1412,9.7758,0.0237,0.0356,0.0116
66908,47.448845,-1.641597,78.64,29.72,4.288,179.5,15 / 23,6691997,2019-08-18 17:05:14:534,-0.8493,-0.2592,9.8368,-0.8132,-0.0884,9.7725,0.0401,0.0155,0.0161
66909,47.448845,-1.641597,78.64,29.72,4.288,179.5,15 / 23,6692097,2019-08-18 17:05:14:634,-1.1318,0.2436,10.7388,-0.808,-0.0757,9.773,-0.0162,-0.042,0.0067
66910,47.448845,-1.641597,78.64,29.72,4.288,179.5,15 / 23,6692197,2019-08-18 17:05:14:734,-0.8212,-0.2795,10.0092,-0.7627,-0.089,9.7765,-0.0177,-0.0276,0.0089
66911,47.448845,-1.641597,78.64,29.72,4.288,179.5,15 / 23,6692297,2019-08-18 17:05:14:834,-0.7392,-0.018,10.1553,-0.7554,-0.1042,9.777,-0.0241,-0.0081,0.011
66912,47.448845,-1.641597,78.64,29.72,4.288,179.5,15 / 23,6692397,2019-08-18 17:05:14:934,-0.5141,0.2885,9.5381,-0.7577,-0.1168,9.7766,0.0049,0.0062,0.0132
66913,47.448845,-1.641597,78.64,29.72,4.288,179.5,15 / 23,6692497,2019-08-18 17:05:15:034,-0.6159,0.2215,9.3005,-0.7642,-0.1066,9.7763,0.0049,0.0062,0.0132
66914,47.448845,-1.641597,78.64,29.72,4.288,179.5,15 / 23,6692597,2019-08-18 17:05:15:134,-0.7745,0.2753,9.5405,-0.7649,-0.1025,9.7762,-0.0082,-0.001,0.0131
66915,47.448845,-1.641597,78.64,29.72,4.288,179.5,15 / 23,6692697,2019-08-18 17:05:15:234,-0.6829,0.0168,10.0272,-0.7663,-0.1011,9.7761,-0.0066,0.0025,0.0119
66916,47.448845,-1.641597,78.64,29.72,4.288,179.5,15 / 23,6692797,2019-08-18 17:05:15:334,-0.538,0.2616,9.8709,-0.7769,-0.0726,9.7756,0.0093,0.0073,0.0154
66917,47.448845,-1.641597,78.64,29.72,4.288,179.5,15 / 23,6692897,2019-08-18 17:05:15:434,-0.6039,-0.0257,9.6824,-0.7793,-0.0654,9.7754,-0.0121,0.0049,0.0113
66918,47.448845,-1.641597,78.64,29.72,4.288,179.5,15 / 23,6692997,2019-08-18 17:05:15:534,-0.8457,-0.164,10.5258,-0.7725,-0.0722,9.7759,-0.0066,-0.0145,0.0114
66919,47.448845,-1.641597,78.64,29.72,4.288,179.5,15 / 23,6693097,2019-08-18 17:05:15:634,-0.8852,-0.1323,10.4456,-0.765,-0.0682,9.7765,0.0097,-0.015,0.0091
66920,47.448845,-1.641597,78.64,29.72,4.288,179.5,14 / 23,6693197,2019-08-18 17:05:15:734,-0.5147,-0.0305,10.0272,-0.7421,-0.0547,9.7784,-0.0002,-0.0019,0.009
66921,47.448845,-1.641597,78.64,29.72,4.288,179.5,14 / 23,6693297,2019-08-18 17:05:15:834,-0.3501,-0.0515,9.7429,-0.7417,-0.054,9.7784,-0.0044,0.0097,0.0107
66922,47.448845,-1.641597,78.64,29.72,4.288,179.5,14 / 23,6693397,2019-08-18 17:05:15:934,-1.6262,-0.0952,10.0906,-0.7334,-0.0431,9.7791,-0.0002,-0.0132,0.0114
66923,47.448845,-1.641597,78.64,29.72,4.288,179.5,14 / 23,6693498,2019-08-18 17:05:16:035,-0.5865,-0.4561,9.4975,-0.7212,-0.043,9.78,-0.0089,0.0086,0.0038
66924,47.448845,-1.641597,78.64,29.72,4.288,179.5,14 / 23,6693596,2019-08-18 17:05:16:133,-0.4842,-0.4621,9.1359,-0.7645,-0.0203,9.7768,0.0303,0.0253,0.0133
66925,47.448845,-1.641597,78.64,29.72,4.288,179.5,14 / 23,6693697,2019-08-18 17:05:16:234,-0.8882,-0.1879,10.4893,-0.7694,-0.0161,9.7764,-0.0076,0.0049,0.0101
66926,47.448845,-1.641597,78.64,29.72,4.288,179.5,14 / 23,6693797,2019-08-18 17:05:16:334,-0.6727,-0.4016,9.8985,-0.7394,-0.0185,9.7787,0.0071,-0.015,0.0061
66927,47.448845,-1.641597,78.64,29.72,4.288,179.5,14 / 23,6693897,2019-08-18 17:05:16:434,-0.5105,0.079,10.5503,-0.7411,-0.0024,9.7786,0.0041,-0.0033,0.0085
66928,47.448845,-1.641597,78.64,29.72,4.288,179.5,14 / 23,6693997,2019-08-18 17:05:16:534,-1.0378,0.0503,10.2636,-0.7352,0.0022,9.7791,-0.005,0.0082,0.0087
66929,47.448845,-1.641597,78.64,29.72,4.288,179.5,14 / 23,6694098,2019-08-18 17:05:16:635,-0.471,0.4028,9.6878,-0.7372,0.0032,9.7789,-0.001,0.0087,0.0089
66930,47.448845,-1.641597,78.64,29.72,4.288,179.5,13 / 23,6694197,2019-08-18 17:05:16:734,-0.4171,0.3615,9.5807,-0.7361,0.0088,9.779,0.0051,0.002,0.0092
66931,47.448845,-1.641597,78.64,29.72,4.288,179.5,13 / 23,6694296,2019-08-18 17:05:16:833,-0.4285,0.4298,9.6507,-0.7276,0.0189,9.7796,-0.0085,-0.0175,0.0085
66932,47.448845,-1.641597,78.64,29.72,4.288,179.5,13 / 23,6694396,2019-08-18 17:05:16:933,-0.6278,0.5004,9.6998,-0.7139,0.0162,9.7806,-0.0107,-0.0163,0.0087
66933,47.448845,-1.641597,78.64,29.72,4.288,179.5,13 / 23,6694497,2019-08-18 17:05:17:034,-0.5919,0.419,9.6453,-0.7022,0.0113,9.7815,0.0038,0.0096,0.0099
66934,47.448845,-1.641597,78.64,29.72,4.288,179.5,13 / 23,6694596,2019-08-18 17:05:17:133,-0.6751,0.1335,9.6501,-0.7051,0.0154,9.7813,0.0013,0.0112,0.0104
66935,47.448845,-1.641597,78.64,29.72,4.288,179.5,13 / 23,6694697,2019-08-18 17:05:17:234,-0.7092,0.0401,9.44,-0.7151,0.0179,9.7805,-0.0038,0.0047,0.0086
66936,47.448845,-1.641597,78.64,29.72,4.288,179.5,13 / 23,6694797,2019-08-18 17:05:17:334,-0.6129,-0.0096,9.7459,-0.7166,0.0173,9.7804,-0.0086,0.0023,0.0074
66937,47.448845,-1.641597,78.64,29.72,4.288,179.5,13 / 23,6694897,2019-08-18 17:05:17:434,-0.4997,-0.3585,10.2804,-0.7077,0.0143,9.7811,0.0023,-0.0067,0.0073
66938,47.448845,-1.641597,78.64,29.72,4.288,179.5,13 / 23,6694997,2019-08-18 17:05:17:534,-0.535,-0.1736,10.3474,-0.7004,0.0221,9.7816,0.0059,-0.0044,0.0081
66939,47.448845,-1.641597,78.64,29.72,4.288,179.5,13 / 23,6695097,2019-08-18 17:05:17:634,-0.3788,0.015,10.1732,-0.6929,0.0272,9.7821,0.0091,-0.0059,0.0058
66940,47.448845,-1.641597,78.64,29.72,4.288,179.5,Dec-23,6695197,2019-08-18 17:05:17:734,-0.1304,0.1317,10.0852,-0.6823,0.0353,9.7828,0.0067,0.0037,0.0053
66941,47.448845,-1.641597,78.64,29.72,4.288,179.5,Dec-23,6695297,2019-08-18 17:05:17:834,-0.8421,0.1377,9.498,-0.6873,0.0422,9.7824,0.0,0.0136,0.0065
66942,47.448845,-1.641597,78.64,29.72,4.288,179.5,Dec-23,6695397,2019-08-18 17:05:17:934,-0.629,-0.17,9.8686,-0.6891,0.0376,9.7823,-0.0124,0.0051,0.0071
66943,47.448845,-1.641597,78.64,29.72,4.288,179.5,Dec-23,6695497,2019-08-18 17:05:18:034,-0.6961,0.0329,9.4226,-0.6754,0.0214,9.7833,-0.0141,-0.0117,0.0056
66944,47.448845,-1.641597,78.64,29.72,4.288,179.5,Dec-23,6695597,2019-08-18 17:05:18:134,-0.5129,-0.2646,9.352,-0.669,0.0187,9.7838,0.0014,0.002,0.0092
66945,47.448845,-1.641597,78.64,29.72,4.288,179.5,Dec-23,6695697,2019-08-18 17:05:18:234,-0.6302,-0.2711,9.273,-0.6729,0.0224,9.7835,-0.0011,0.0121,0.0094
66946,47.448845,-1.641597,78.64,29.72,4.288,179.5,Dec-23,6695798,2019-08-18 17:05:18:335,-0.5297,0.0329,10.0541,-0.6809,0.0227,9.783,-0.011,-0.0082,0.0096
66947,47.448845,-1.641597,78.64,29.72,4.288,179.5,Dec-23,6695897,2019-08-18 17:05:18:434,-0.6799,0.2502,10.1876,-0.672,0.0108,9.7836,-0.0082,-0.0055,0.0081
66948,47.448845,-1.641597,78.64,29.72,4.288,179.5,Dec-23,6695997,2019-08-18 17:05:18:534,-0.6996,0.1658,10.4982,-0.6694,0.0078,9.7838,0.0082,0.0047,0.0096
66949,47.448845,-1.641597,78.64,29.72,4.288,179.5,14 / 23,6696097,2019-08-18 17:05:18:634,-0.3908,0.334,9.8009,-0.6815,0.0263,9.7829,0.009,0.0107,0.0128
66950,47.448845,-1.641597,78.64,29.72,4.288,179.5,14 / 23,6696197,2019-08-18 17:05:18:734,-0.6111,0.4633,10.178,-0.6883,0.0332,9.7824,0.0093,-0.0036,0.0131
66951,47.448845,-1.641597,78.64,29.72,4.288,179.5,14 / 23,6696297,2019-08-18 17:05:18:834,-0.7607,0.1981,10.0451,-0.6855,0.0467,9.7825,0.0032,-0.0063,0.01
66952,47.448845,-1.641597,78.64,29.72,4.288,179.5,14 / 23,6696397,2019-08-18 17:05:18:934,-0.4507,0.2316,9.7686,-0.6769,0.0469,9.7831,-0.0051,-0.0114,0.0107
66953,47.448845,-1.641597,78.64,29.72,4.288,179.5,14 / 23,6696497,2019-08-18 17:05:19:034,-0.8361,0.2496,9.3065,-0.676,0.0479,9.7832,0.0002,0.008,0.0116
66954,47.448845,-1.641597,78.64,29.72,4.288,179.5,14 / 23,6696597,2019-08-18 17:05:19:134,-0.5458,0.0641,9.3718,-0.6835,0.0521,9.7827,-0.0005,0.0083,0.0108
66955,47.448845,-1.641597,78.64,29.72,4.288,179.5,14 / 23,6696698,2019-08-18 17:05:19:235,-0.9385,0.0892,9.4735,-0.6715,0.0461,9.7835,-0.0076,-0.0199,0.0078
66956,47.448845,-1.641597,78.64,29.72,4.288,179.5,14 / 23,6696797,2019-08-18 17:05:19:334,-0.4267,0.076,9.3837,-0.6623,0.0453,9.7842,-0.012,0.0007,0.0017
66957,47.448845,-1.641597,78.64,29.72,4.288,179.5,14 / 23,6696897,2019-08-18 17:05:19:434,-0.7966,-0.2292,10.2265,-0.661,0.0353,9.7843,0.0025,0.0009,0.0023
66958,47.448845,-1.641597,78.64,29.72,4.288,179.5,14 / 23,6696997,2019-08-18 17:05:19:534,-0.2214,-0.4369,10.5826,-0.6543,0.0382,9.7847,0.0084,0.0002,0.0033
66959,47.446415,-1.641374,77.56,30.99,5.36,175.5,14 / 23,6697097,2019-08-18 17:05:19:634,-0.3962,-0.0922,9.7626,-0.6422,0.0402,9.7855,0.0006,-0.0023,0.0014
66960,47.446415,-1.641374,77.56,30.99,5.36,175.5,14 / 23,6697197,2019-08-18 17:05:19:734,-0.1651,-0.3962,10.3264,-0.6398,0.0394,9.7857,0.0001,0.0027,0.0
66961,47.446415,-1.641374,77.56,30.99,5.36,175.5,14 / 23,6697297,2019-08-18 17:05:19:834,-0.1556,-0.1095,9.7039,-0.6354,0.031,9.786,-0.0074,0.0027,0.002
66962,47.446415,-1.641374,77.56,30.99,5.36,175.5,14 / 23,6697398,2019-08-18 17:05:19:935,-0.4285,0.0072,10.357,-0.6349,0.0291,9.786,0.0062,0.0049,0.0011
66963,47.446415,-1.641374,77.56,30.99,5.36,175.5,14 / 23,6697497,2019-08-18 17:05:20:034,-0.3818,-0.1401,10.0146,-0.6284,0.0314,9.7864,0.0021,0.0007,0.0014
66964,47.446415,-1.641374,77.56,30.99,5.36,175.5,14 / 23,6697597,2019-08-18 17:05:20:134,-0.5081,0.2945,10.3097,-0.622,0.0276,9.7869,0.0,0.0004,0.0001
66965,47.446415,-1.641374,77.56,30.99,5.36,175.5,14 / 23,6697697,2019-08-18 17:05:20:234,-0.3345,-0.0718,10.2666,-0.6141,0.0262,9.7874,0.0025,-0.003,0.0035
66966,47.446415,-1.641374,77.56,30.99,5.36,175.5,14 / 23,6697797,2019-08-18 17:05:20:334,-0.5039,0.1904,10.0882,-0.6075,0.0312,9.7878,0.0053,0.004,0.0033
66967,47.446415,-1.641374,77.56,30.99,5.36,175.5,14 / 23,6697897,2019-08-18 17:05:20:434,-0.5315,0.0527,9.6638,-0.6073,0.0322,9.7878,-0.0012,-0.0068,0.0017
66968,47.446415,-1.641374,77.56,30.99,5.36,175.5,14 / 23,6697998,2019-08-18 17:05:20:535,-0.8565,-0.1436,9.6932,-0.5973,0.0255,9.7884,-0.0024,0.0026,0.0005
66969,47.446415,-1.641374,77.56,30.99,5.36,175.5,Dec-20,6698097,2019-08-18 17:05:20:634,-0.6105,-0.2532,9.2108,-0.603,0.0201,9.7881,-0.0107,0.0078,0.0011
66970,47.446415,-1.641374,77.56,30.99,5.36,175.5,Dec-20,6698197,2019-08-18 17:05:20:734,-0.9193,-0.1155,9.5501,-0.6245,-0.0011,9.7867,-0.0064,0.0129,0.001
66971,47.446415,-1.641374,77.56,30.99,5.36,175.5,Dec-20,6698297,2019-08-18 17:05:20:834,-0.8756,-0.6398,9.4592,-0.6297,-0.0052,9.7864,0.0055,0.003,0.0016
66972,47.446415,-1.641374,77.56,30.99,5.36,175.5,Dec-20,6698397,2019-08-18 17:05:20:934,-1.042,-0.2867,9.5435,-0.6444,-0.0126,9.7854,0.0127,0.0057,0.0013
66973,47.446415,-1.641374,77.56,30.99,5.36,175.5,Dec-20,6698497,2019-08-18 17:05:21:034,-1.0127,-0.3651,9.9152,-0.6508,-0.0064,9.785,0.0164,-0.0036,0.0029
66974,47.446415,-1.641374,77.56,30.99,5.36,175.5,Dec-20,6698597,2019-08-18 17:05:21:134,-0.7404,-0.4352,9.786,-0.6504,-0.0035,9.7851,0.0085,-0.0054,0.0013
66975,47.446415,-1.641374,77.56,30.99,5.36,175.5,Dec-20,6698697,2019-08-18 17:05:21:234,-0.8702,-0.4585,9.9182,-0.6517,-0.0108,9.785,-0.0062,-0.0012,0.0003
66976,47.446415,-1.641374,77.56,30.99,5.36,175.5,Dec-20,6698797,2019-08-18 17:05:21:334,-0.8828,-0.4579,9.3981,-0.662,-0.0473,9.7842,-0.0237,0.0012,-0.0025
66977,47.446415,-1.641374,77.56,30.99,5.36,175.5,Dec-20,6698897,2019-08-18 17:05:21:434,-0.9882,-0.5584,10.1577,-0.6685,-0.0609,9.7837,-0.0008,0.0108,-0.0001
66978,47.446415,-1.641374,77.56,30.99,5.36,175.5,Dec-20,6699000,2019-08-18 17:05:21:537,-0.8493,-0.6925,8.9689,-0.6943,-0.0642,9.7818,0.0155,0.0152,0.0025
66979,47.446415,-1.641374,77.56,30.99,5.36,175.5,16 / 23,6699097,2019-08-18 17:05:21:634,-0.7655,-0.2771,9.9015,-0.7122,-0.0639,9.7805,0.0103,0.0035,0.0024
66980,47.446415,-1.641374,77.56,30.99,5.36,175.5,16 / 23,6699196,2019-08-18 17:05:21:733,-0.899,-0.4124,10.5964,-0.7106,-0.0638,9.7807,-0.0028,-0.0166,-0.0022
66981,47.446415,-1.641374,77.56,30.99,5.36,175.5,16 / 23,6699297,2019-08-18 17:05:21:834,-1.3982,-0.504,9.9984,-0.7042,-0.0722,9.7811,-0.0051,-0.003,-0.0028
66982,47.446415,-1.641374,77.56,30.99,5.36,175.5,16 / 23,6699397,2019-08-18 17:05:21:934,-1.0672,-0.4848,9.695,-0.7221,-0.0889,9.7796,0.0033,0.0045,0.0014
66983,47.446415,-1.641374,77.56,30.99,5.36,175.5,16 / 23,6699497,2019-08-18 17:05:22:034,-0.9929,-0.1837,9.4011,-0.7282,-0.0896,9.7792,-0.0003,-0.0011,0.002
66984,47.446415,-1.641374,77.56,30.99,5.36,175.5,16 / 23,6699598,2019-08-18 17:05:22:135,-0.6889,-0.2502,9.2401,-0.7422,-0.0973,9.778,0.0022,0.0042,0.0087
66985,47.446415,-1.641374,77.56,30.99,5.36,175.5,16 / 23,6699697,2019-08-18 17:05:22:234,-1.3628,-0.1921,9.3849,-0.751,-0.095,9.7774,0.004,0.0105,0.0103
66986,47.446415,-1.641374,77.56,30.99,5.36,175.5,16 / 23,6699798,2019-08-18 17:05:22:335,-0.787,-0.1736,9.422,-0.7711,-0.0928,9.7758,0.0099,0.0115,0.0124
66987,47.446415,-1.641374,77.56,30.99,5.36,175.5,16 / 23,6699897,2019-08-18 17:05:22:434,-1.0803,-0.1203,9.5645,-0.7901,-0.0794,9.7744,0.0136,0.0028,0.0161
66988,47.446415,-1.641374,77.56,30.99,5.36,175.5,16 / 23,6699997,2019-08-18 17:05:22:534,-1.0205,0.2927,9.8416,-0.801,-0.0623,9.7737,0.0052,-0.0003,0.0173
66989,47.446415,-1.641374,77.56,30.99,5.36,175.5,Nov-20,6700097,2019-08-18 17:05:22:634,-1.1414,0.4848,9.5112,-0.8083,-0.0501,9.7732,0.0099,-0.0039,0.0187
66990,47.446415,-1.641374,77.56,30.99,5.36,175.5,Nov-20,6700197,2019-08-18 17:05:22:734,-1.0911,0.2604,10.2319,-0.8042,-0.0288,9.7736,0.0014,-0.013,0.0195
66991,47.446415,-1.641374,77.56,30.99,5.36,175.5,Nov-20,6700297,2019-08-18 17:05:22:834,-1.3126,0.1167,10.33,-0.795,-0.0285,9.7743,-0.009,-0.0256,0.0177
66992,47.446415,-1.641374,77.56,30.99,5.36,175.5,Nov-20,6700396,2019-08-18 17:05:22:933,-1.3257,0.1568,10.1271,-0.7609,-0.0424,9.777,-0.0201,-0.0268,0.015
66993,47.446415,-1.641374,77.56,30.99,5.36,175.5,Nov-20,6700498,2019-08-18 17:05:23:035,-1.0462,0.0545,8.9785,-0.7657,-0.0441,9.7766,-0.0248,0.0177,0.0249
66994,47.446415,-1.641374,77.56,30.99,5.36,175.5,Nov-20,6700597,2019-08-18 17:05:23:134,-0.954,0.5465,8.711,-0.7998,-0.0524,9.7738,-0.0077,0.034,0.0263
66995,47.446415,-1.641374,77.56,30.99,5.36,175.5,Nov-20,6700697,2019-08-18 17:05:23:234,-1.0079,0.5321,9.7285,-0.8242,-0.0315,9.7719,0.0417,0.01,0.0328
66996,47.446415,-1.641374,77.56,30.99,5.36,175.5,Nov-20,6700797,2019-08-18 17:05:23:334,-1.2318,0.6183,11.3793,-0.835,0.0094,9.771,0.0251,-0.0178,0.023
66997,47.446415,-1.641374,77.56,30.99,5.36,175.5,Nov-20,6700897,2019-08-18 17:05:23:434,-1.4089,0.6746,11.2291,-0.8035,0.0317,9.7736,-0.0092,-0.0439,0.0145
66998,47.446415,-1.641374,77.56,30.99,5.36,175.5,Nov-20,6700997,2019-08-18 17:05:23:534,-0.553,-0.4064,9.6692,-0.7831,0.0155,9.7753,-0.0511,-0.0223,0.0058
66999,47.446415,-1.641374,77.56,30.99,5.36,175.5,14 / 23,6701097,2019-08-18 17:05:23:634,-0.8631,0.258,8.9348,-0.7856,-0.0398,9.775,-0.0128,0.0305,0.017
67000,47.446415,-1.641374,77.56,30.99,5.36,175.5,14 / 23,6701197,2019-08-18 17:05:23:734,-0.5877,-0.0844,8.8528,-0.7989,-0.0388,9.774,0.0102,0.006,0.0196
67001,47.446415,-1.641374,77.56,30.99,5.36,175.5,14 / 23,6701297,2019-08-18 17:05:23:834,-1.0947,0.1143,10.0332,-0.8034,-0.0095,9.7737,0.0125,-0.0137,0.0168
67002,47.446415,-1.641374,77.56,30.99,5.36,175.5,14 / 23,6701397,2019-08-18 17:05:23:934,-1.0199,-0.1502,9.9697,-0.7936,-0.0032,9.7745,-0.0083,-0.0027,0.01
67003,47.446415,-1.641374,77.56,30.99,5.36,175.5,14 / 23,6701497,2019-08-18 17:05:24:034,-0.9295,-0.2885,10.0852,-0.7863,-0.016,9.7751,-0.0153,0.0043,0.0096
67004,47.446415,-1.641374,77.56,30.99,5.36,175.5,14 / 23,6701597,2019-08-18 17:05:24:134,-0.9361,-0.392,9.835,-0.7956,-0.018,9.7743,-0.0013,0.0127,0.0101
67005,47.446415,-1.641374,77.56,30.99,5.36,175.5,14 / 23,6701697,2019-08-18 17:05:24:234,-0.7463,-0.3484,10.1158,-0.7999,-0.0243,9.7739,-0.0087,-0.0081,0.0017
67006,47.446415,-1.641374,77.56,30.99,5.36,175.5,14 / 23,6701797,2019-08-18 17:05:24:334,-0.8804,-0.1604,9.9081,-0.7945,-0.0298,9.7744,-0.0047,-0.0095,-0.0029
67007,47.446415,-1.641374,77.56,30.99,5.36,175.5,14 / 23,6701897,2019-08-18 17:05:24:434,-0.471,-0.3142,9.6172,-0.7801,-0.0498,9.7754,-0.0144,-0.0031,-0.008
67008,47.446415,-1.641374,77.56,30.99,5.36,175.5,14 / 23,6701997,2019-08-18 17:05:24:534,-0.2029,-0.5896,9.4837,-0.7742,-0.0726,9.7758,-0.0116,-0.0027,-0.0114
67009,47.446415,-1.641374,77.56,30.99,5.36,175.5,15 / 20,6702098,2019-08-18 17:05:24:635,-0.5189,-0.5453,10.0445,-0.7624,-0.0985,9.7765,-0.0101,-0.009,-0.0113
67010,47.446415,-1.641374,77.56,30.99,5.36,175.5,15 / 20,6702197,2019-08-18 17:05:24:734,-0.4165,-0.4238,10.2654,-0.7445,-0.1178,9.7776,-0.0038,-0.0072,-0.0139
67011,47.446415,-1.641374,77.56,30.99,5.36,175.5,15 / 20,6702297,2019-08-18 17:05:24:834,-0.2567,-0.4836,9.7459,-0.7282,-0.1377,9.7786,-0.0092,-0.0026,-0.0152
67012,47.446415,-1.641374,77.56,30.99,5.36,175.5,15 / 20,6702396,2019-08-18 17:05:24:933,-0.3483,-0.4375,9.6136,-0.7182,-0.167,9.7789,-0.0197,-0.0074,-0.0184
67013,47.446415,-1.641374,77.56,30.99,5.36,175.5,15 / 20,6702497,2019-08-18 17:05:25:034,-0.1286,-0.8517,9.6214,-0.7087,-0.2074,9.7788,-0.011,0.0105,-0.0166
67014,47.446415,-1.641374,77.56,30.99,5.36,175.5,15 / 20,6702598,2019-08-18 17:05:25:135,-0.7068,-0.9128,9.6543,-0.7079,-0.2126,9.7788,0.0145,0.0059,-0.0135
67015,47.446415,-1.641374,77.56,30.99,5.36,175.5,15 / 20,6702697,2019-08-18 17:05:25:234,-0.7164,-1.1127,9.7435,-0.6934,-0.2193,9.7796,0.0096,-0.0059,-0.0094
67016,47.446415,-1.641374,77.56,30.99,5.36,175.5,15 / 20,6702797,2019-08-18 17:05:25:334,-0.4465,-0.8727,9.5992,-0.6883,-0.2211,9.78,0.0121,0.004,-0.0072
67017,47.446415,-1.641374,77.56,30.99,5.36,175.5,15 / 20,6702897,2019-08-18 17:05:25:434,-0.6703,-0.6153,9.865,-0.693,-0.2176,9.7797,0.0139,0.0091,-0.0017
67018,47.446415,-1.641374,77.56,30.99,5.36,175.5,15 / 20,6702997,2019-08-18 17:05:25:534,-0.6661,-0.7673,9.449,-0.6998,-0.2138,9.7793,0.0131,0.0112,0.0006
67019,47.446415,-1.641374,77.56,30.99,5.36,175.5,16 / 22,6703098,2019-08-18 17:05:25:635,-0.9462,-0.4136,9.8249,-0.7308,-0.2139,9.777,-0.0029,0.0227,0.0018
67020,47.446415,-1.641374,77.56,30.99,5.36,175.5,16 / 22,6703197,2019-08-18 17:05:25:734,-0.7972,-0.5489,10.0385,-0.7436,-0.2155,9.776,0.0058,0.0222,0.0007
67021,47.446415,-1.641374,77.56,30.99,5.36,175.5,16 / 22,6703297,2019-08-18 17:05:25:834,-0.7003,-0.0676,10.3713,-0.7652,-0.2213,9.7742,0.0,0.0009,0.0004
67022,47.446415,-1.641374,77.56,30.99,5.36,175.5,16 / 22,6703397,2019-08-18 17:05:25:934,-0.717,-0.3645,10.4312,-0.7671,-0.2286,9.7739,-0.008,-0.0152,0.002
67023,47.446415,-1.641374,77.56,30.99,5.36,175.5,16 / 22,6703497,2019-08-18 17:05:26:034,-1.2354,-0.1137,9.3873,-0.7616,-0.2426,9.774,-0.0101,0.0021,0.0021
67024,47.446415,-1.641374,77.56,30.99,5.36,175.5,16 / 22,6703597,2019-08-18 17:05:26:134,-1.0426,-0.3903,9.7746,-0.7673,-0.2539,9.7733,-0.0018,-0.0099,0.0038
67025,47.446415,-1.641374,77.56,30.99,5.36,175.5,16 / 22,6703697,2019-08-18 17:05:26:234,-1.2641,-0.4561,10.1744,-0.7653,-0.2549,9.7734,0.0087,-0.0106,0.0069
67026,47.446415,-1.641374,77.56,30.99,5.36,175.5,16 / 22,6703797,2019-08-18 17:05:26:334,-1.1917,-0.4202,9.841,-0.7606,-0.2515,9.7739,0.0081,-0.0044,0.0055
67027,47.446415,-1.641374,77.56,30.99,5.36,175.5,16 / 22,6703898,2019-08-18 17:05:26:435,-1.151,-0.3891,9.3364,-0.7661,-0.2467,9.7736,0.0048,0.003,0.0042
67028,47.446415,-1.641374,77.56,30.99,5.36,175.5,16 / 22,6703997,2019-08-18 17:05:26:534,-1.0827,-0.4465,9.2634,-0.7742,-0.2455,9.773,0.0071,0.0114,0.0044
67029,47.446415,-1.641374,77.56,30.99,5.36,175.5,16 / 23,6704097,2019-08-18 17:05:26:634,-0.905,-0.6279,9.947,-0.7813,-0.2456,9.7724,-0.0043,-0.0044,0.0042
67030,47.446415,-1.641374,77.56,30.99,5.36,175.5,16 / 23,6704197,2019-08-18 17:05:26:734,-0.9032,-0.3124,10.2845,-0.7777,-0.2514,9.7725,-0.0003,-0.0072,0.0005
67031,47.446415,-1.641374,77.56,30.99,5.36,175.5,16 / 23,6704297,2019-08-18 17:05:26:834,-0.7685,-0.559,9.4879,-0.7758,-0.2527,9.7726,0.004,0.0033,0.003
67032,47.446415,-1.641374,77.56,30.99,5.36,175.5,16 / 23,6704397,2019-08-18 17:05:26:934,-0.8044,-0.1562,10.2043,-0.7889,-0.2489,9.7717,-0.0006,0.012,0.005
67033,47.446415,-1.641374,77.56,30.99,5.36,175.5,16 / 23,6704497,2019-08-18 17:05:27:034,-0.7026,-0.2987,9.5046,-0.7963,-0.2515,9.771,-0.0149,-0.0068,0.0027
67034,47.446415,-1.641374,77.56,30.99,5.36,175.5,16 / 23,6704597,2019-08-18 17:05:27:134,-1.1294,-0.3071,10.1217,-0.7975,-0.2599,9.7707,0.004,0.0011,0.0015
67035,47.446415,-1.641374,77.56,30.99,5.36,175.5,16 / 23,6704697,2019-08-18 17:05:27:234,-1.0743,-0.507,9.856,-0.7992,-0.2553,9.7707,0.0077,-0.006,0.0041
67036,47.446415,-1.641374,77.56,30.99,5.36,175.5,16 / 23,6704797,2019-08-18 17:05:27:334,-0.9732,-0.088,9.3981,-0.781,-0.2504,9.7723,0.0058,-0.0029,0.0037
67037,47.446415,-1.641374,77.56,30.99,5.36,175.5,16 / 23,6704897,2019-08-18 17:05:27:434,-0.8888,-0.2376,9.522,-0.7832,-0.2484,9.7722,-0.0029,0.0031,0.0038
67038,47.446415,-1.641374,77.56,30.99,5.36,175.5,16 / 23,6704997,2019-08-18 17:05:27:534,-0.6775,-0.4244,9.923,-0.7912,-0.2564,9.7713,-0.0097,0.0036,0.0035
67039,47.446415,-1.641374,77.56,30.99,5.36,175.5,13 / 18,6705097,2019-08-18 17:05:27:634,-0.462,-0.3322,10.3019,-0.7846,-0.2615,9.7717,0.0004,-0.0099,0.0019
67040,47.446415,-1.641374,77.56,30.99,5.36,175.5,13 / 18,6705197,2019-08-18 17:05:27:734,-0.4836,0.1945,9.9751,-0.7676,-0.2585,9.7731,0.0056,-0.0051,0.0026
67041,47.446415,-1.641374,77.56,30.99,5.36,175.5,13 / 18,6705297,2019-08-18 17:05:27:834,-0.483,-0.3136,9.9853,-0.7641,-0.2552,9.7735,0.0076,-0.0022,0.0032
67042,47.446415,-1.641374,77.56,30.99,5.36,175.5,13 / 18,6705396,2019-08-18 17:05:27:933,-0.5009,-0.1119,10.2636,-0.7511,-0.2506,9.7746,-0.0091,-0.0084,0.0024
67043,47.446415,-1.641374,77.56,30.99,5.36,175.5,13 / 18,6705497,2019-08-18 17:05:28:034,-0.8014,-0.0724,9.4567,-0.7387,-0.256,9.7754,-0.0114,-0.0106,0.0007
67044,47.446415,-1.641374,77.56,30.99,5.36,175.5,13 / 18,6705597,2019-08-18 17:05:28:134,-0.6338,0.1215,9.8949,-0.7346,-0.2704,9.7754,-0.0111,0.0051,0.0001
67045,47.446415,-1.641374,77.56,30.99,5.36,175.5,13 / 18,6705697,2019-08-18 17:05:28:234,-0.4686,-0.4992,9.9577,-0.7431,-0.269,9.7748,0.0114,0.0197,0.0053
67046,47.446415,-1.641374,77.56,30.99,5.36,175.5,13 / 18,6705797,2019-08-18 17:05:28:334,-0.7445,-0.5997,10.2301,-0.7537,-0.2614,9.7741,0.0039,-0.0103,0.0031
67047,47.446415,-1.641374,77.56,30.99,5.36,175.5,13 / 18,6705897,2019-08-18 17:05:28:434,-0.6895,-0.1939,10.6628,-0.7512,-0.2556,9.7745,0.0186,-0.0021,0.0012
67048,47.446415,-1.641374,77.56,30.99,5.36,175.5,13 / 18,6705997,2019-08-18 17:05:28:534,-0.635,-0.3849,10.2426,-0.7414,-0.239,9.7757,-0.0001,-0.0011,0.0014
67049,47.446415,-1.641374,77.56,30.99,5.36,175.5,15 / 21,6706097,2019-08-18 17:05:28:634,-0.8349,-0.3005,10.2121,-0.7404,-0.2421,9.7757,-0.0096,0.0004,0.0011
67050,47.4439,-1.640994,80.93,30.34,6.432,173.0,15 / 21,6706197,2019-08-18 17:05:28:734,-0.7002,0.0928,9.4921,-0.7524,-0.2573,9.7744,-0.0152,0.0081,0.0006
67051,47.4439,-1.640994,80.93,30.34,6.432,173.0,15 / 21,6706297,2019-08-18 17:05:28:834,-0.8834,-0.2777,9.4651,-0.7506,-0.2687,9.7742,-0.0095,-0.0075,0.0014
67052,47.4439,-1.640994,80.93,30.34,6.432,173.0,15 / 21,6706397,2019-08-18 17:05:28:934,-0.9068,-0.4052,9.9523,-0.7576,-0.2673,9.7737,-0.0011,-0.0031,0.0059
67053,47.4439,-1.640994,80.93,30.34,6.432,173.0,15 / 21,6706497,2019-08-18 17:05:29:034,-0.9086,-0.2729,9.7099,-0.754,-0.2699,9.7739,-0.0096,-0.003,0.0059
67054,47.4439,-1.640994,80.93,30.34,6.432,173.0,15 / 21,6706598,2019-08-18 17:05:29:135,-0.9187,-0.1041,9.6249,-0.7583,-0.2714,9.7735,0.0027,-0.0029,0.0056
67055,47.4439,-1.640994,80.93,30.34,6.432,173.0,15 / 21,6706697,2019-08-18 17:05:29:234,-0.8074,-0.3442,9.941,-0.7551,-0.2682,9.7739,0.0116,-0.0002,0.0013
67056,47.4439,-1.640994,80.93,30.34,6.432,173.0,15 / 21,6706797,2019-08-18 17:05:29:334,-0.5596,-0.2574,9.6567,-0.7533,-0.2572,9.7743,-0.0007,0.0068,0.0005
67057,47.4439,-1.640994,80.93,30.34,6.432,173.0,15 / 21,6706897,2019-08-18 17:05:29:434,-0.5356,-0.6363,10.257,-0.7611,-0.2662,9.7734,-0.0102,0.0137,-0.0015
67058,47.4439,-1.640994,80.93,30.34,6.432,173.0,15 / 21,6706997,2019-08-18 17:05:29:534,-0.6805,-0.4914,9.7327,-0.7587,-0.2668,9.7736,0.0071,-0.0028,-0.0025
67059,47.4439,-1.640994,80.93,30.34,6.432,173.0,16 / 21,6707097,2019-08-18 17:05:29:634,-0.5476,-0.343,10.0026,-0.7554,-0.2676,9.7738,0.0034,0.001,-0.0015
67060,47.4439,-1.640994,80.93,30.34,6.432,173.0,16 / 21,6707197,2019-08-18 17:05:29:734,-0.6979,-0.1897,9.9242,-0.7543,-0.2707,9.7739,-0.0123,-0.0106,-0.0049
67061,47.4439,-1.640994,80.93,30.34,6.432,173.0,16 / 21,6707297,2019-08-18 17:05:29:834,-0.6949,-0.4172,9.5172,-0.7347,-0.2906,9.7748,0.0013,0.0046,-0.0078
67062,47.4439,-1.640994,80.93,30.34,6.432,173.0,16 / 21,6707397,2019-08-18 17:05:29:934,-0.4135,-0.4555,9.6369,-0.735,-0.2933,9.7747,-0.0033,0.0037,-0.0083
67063,47.4439,-1.640994,80.93,30.34,6.432,173.0,16 / 21,6707497,2019-08-18 17:05:30:034,-0.538,-0.8104,9.78,-0.7263,-0.3073,9.7749,-0.0016,-0.0147,-0.0091
67064,47.4439,-1.640994,80.93,30.34,6.432,173.0,16 / 21,6707597,2019-08-18 17:05:30:134,-0.7338,-0.4926,9.7153,-0.7183,-0.3105,9.7754,0.0049,-0.0094,-0.0086
67065,47.4439,-1.640994,80.93,30.34,6.432,173.0,16 / 21,6707697,2019-08-18 17:05:30:234,-0.6506,-0.7272,10.0481,-0.7102,-0.3162,9.7758,-0.0025,0.006,-0.0035
67066,47.4439,-1.640994,80.93,30.34,6.432,173.0,16 / 21,6707797,2019-08-18 17:05:30:334,-0.6823,-0.7518,9.938,-0.714,-0.3201,9.7754,0.003,0.0078,-0.0036
67067,47.4439,-1.640994,80.93,30.34,6.432,173.0,16 / 21,6707897,2019-08-18 17:05:30:434,-0.7858,-0.097,10.093,-0.7283,-0.3184,9.7744,-0.0001,0.0096,-0.0009
67068,47.4439,-1.640994,80.93,30.34,6.432,173.0,16 / 21,6707997,2019-08-18 17:05:30:534,-0.5267,-0.4112,10.032,-0.7334,-0.3237,9.7738,-0.0037,0.0046,-0.0027
67069,47.4439,-1.640994,80.93,30.34,6.432,173.0,16 / 21,6708097,2019-08-18 17:05:30:634,-0.562,-0.2915,9.8889,-0.7343,-0.3235,9.7738,0.0057,-0.0046,-0.0004
67070,47.4439,-1.640994,80.93,30.34,6.432,173.0,16 / 21,6708197,2019-08-18 17:05:30:734,-0.6422,-0.5465,9.9146,-0.7293,-0.3186,9.7743,0.0045,-0.008,-0.0004
67071,47.4439,-1.640994,80.93,30.34,6.432,173.0,16 / 21,6708297,2019-08-18 17:05:30:834,-0.8104,-0.3406,9.9116,-0.7169,-0.3195,9.7752,-0.006,-0.0076,0.0
67072,47.4439,-1.640994,80.93,30.34,6.432,173.0,16 / 21,6708397,2019-08-18 17:05:30:934,-0.8385,-0.4333,9.4633,-0.7141,-0.3225,9.7753,-0.006,-0.0074,0.0001
67073,47.4439,-1.640994,80.93,30.34,6.432,173.0,16 / 21,6708497,2019-08-18 17:05:31:034,-0.741,-0.571,9.5166,-0.7227,-0.3378,9.7742,-0.0097,0.0175,-0.0004
67074,47.4439,-1.640994,80.93,30.34,6.432,173.0,16 / 21,6708597,2019-08-18 17:05:31:134,-0.6566,-0.9385,9.6824,-0.7334,-0.3412,9.7732,-0.0069,0.0132,-0.0003
67075,47.4439,-1.640994,80.93,30.34,6.432,173.0,16 / 21,6708697,2019-08-18 17:05:31:234,-0.6308,-0.3723,9.8518,-0.7453,-0.3525,9.7719,-0.0078,0.0044,-0.0008
67076,47.4439,-1.640994,80.93,30.34,6.432,173.0,16 / 21,6708797,2019-08-18 17:05:31:334,-0.7643,-0.34,10.0954,-0.7433,-0.3527,9.7721,0.0112,-0.008,-0.0002
67077,47.4439,-1.640994,80.93,30.34,6.432,173.0,16 / 21,6708897,2019-08-18 17:05:31:434,-0.5937,-0.2556,10.8699,-0.7275,-0.3466,9.7735,0.0015,-0.0163,-0.0011
67078,47.4439,-1.640994,80.93,30.34,6.432,173.0,16 / 21,6708997,2019-08-18 17:05:31:534,-0.6416,-0.5321,9.8201,-0.7214,-0.3507,9.7738,-0.0027,0.0131,0.0004
67079,47.4439,-1.640994,80.93,30.34,6.432,173.0,18 / 23,6709097,2019-08-18 17:05:31:634,-0.5201,-0.3681,9.4879,-0.7454,-0.3517,9.772,-0.001,0.0019,0.0007
67080,47.4439,-1.640994,80.93,30.34,6.432,173.0,18 / 23,6709197,2019-08-18 17:05:31:734,-0.7074,-0.1101,9.4071,-0.743,-0.3566,9.772,-0.0069,-0.0043,-0.0015
67081,47.4439,-1.640994,80.93,30.34,6.432,173.0,18 / 23,6709297,2019-08-18 17:05:31:834,-0.9109,-0.4579,10.0062,-0.7412,-0.3621,9.7719,0.0068,0.0069,0.0003
67082,47.4439,-1.640994,80.93,30.34,6.432,173.0,18 / 23,6709397,2019-08-18 17:05:31:934,-0.7517,-0.5471,10.017,-0.7457,-0.3562,9.7718,0.0091,0.0014,0.0021
67083,47.4439,-1.640994,80.93,30.34,6.432,173.0,18 / 23,6709498,2019-08-18 17:05:32:035,-0.7146,-0.2586,10.2438,-0.7471,-0.3404,9.7722,0.0161,-0.0036,0.0014
67084,47.4439,-1.640994,80.93,30.34,6.432,173.0,18 / 23,6709598,2019-08-18 17:05:32:135,-0.7266,-0.4136,10.5467,-0.7399,-0.3383,9.7728,-0.0067,-0.0195,-0.0015
67085,47.4439,-1.640994,80.93,30.34,6.432,173.0,18 / 23,6709697,2019-08-18 17:05:32:234,-0.541,-0.3771,10.5623,-0.7147,-0.3584,9.774,-0.0176,-0.0056,-0.0047
67086,47.4439,-1.640994,80.93,30.34,6.432,173.0,18 / 23,6709797,2019-08-18 17:05:32:334,-0.3142,-0.1048,10.1301,-0.716,-0.3707,9.7734,-0.0195,0.0115,-0.0037
67087,47.4439,-1.640994,80.93,30.34,6.432,173.0,18 / 23,6709897,2019-08-18 17:05:32:434,-0.6625,-0.264,9.0731,-0.737,-0.3827,9.7714,0.0011,0.0143,-0.0008
67088,47.4439,-1.640994,80.93,30.34,6.432,173.0,18 / 23,6709997,2019-08-18 17:05:32:534,-0.7601,-0.6823,9.689,-0.7402,-0.3814,9.7712,0.0062,-0.0006,-0.0004
67089,47.4439,-1.640994,80.93,30.34,6.432,173.0,16 / 21,6710097,2019-08-18 17:05:32:634,-0.8792,-0.5471,9.6543,-0.7333,-0.375,9.772,0.0118,-0.0082,0.0003
67090,47.4439,-1.640994,80.93,30.34,6.432,173.0,16 / 21,6710197,2019-08-18 17:05:32:734,-0.5883,-0.5046,10.1199,-0.724,-0.3617,9.7732,0.009,-0.0034,0.0001
67091,47.4439,-1.640994,80.93,30.34,6.432,173.0,16 / 21,6710297,2019-08-18 17:05:32:834,-0.7428,-0.5154,9.8757,-0.7273,-0.3474,9.7735,0.0154,0.0071,-0.0008
67092,47.4439,-1.640994,80.93,30.34,6.432,173.0,16 / 21,6710397,2019-08-18 17:05:32:934,-0.5081,-0.2436,10.272,-0.7323,-0.3383,9.7734,0.0023,0.0003,-0.0006
67093,47.4439,-1.640994,80.93,30.34,6.432,173.0,16 / 21,6710497,2019-08-18 17:05:33:034,-0.5135,-0.1981,9.8865,-0.7311,-0.3394,9.7735,-0.0028,0.0018,-0.0001
67094,47.4439,-1.640994,80.93,30.34,6.432,173.0,16 / 21,6710597,2019-08-18 17:05:33:134,-1.0953,-0.2987,9.1365,-0.737,-0.3452,9.7728,-0.0114,-0.0035,-0.0024
67095,47.4439,-1.640994,80.93,30.34,6.432,173.0,16 / 21,6710697,2019-08-18 17:05:33:234,-0.7362,-0.3573,9.9003,-0.7345,-0.3511,9.7728,-0.0067,-0.0095,-0.001
67096,47.4439,-1.640994,80.93,30.34,6.432,173.0,16 / 21,6710797,2019-08-18 17:05:33:334,-0.9654,-0.3711,9.5537,-0.7134,-0.3654,9.7738,-0.022,-0.0156,0.0008
67097,47.4439,-1.640994,80.93,30.34,6.432,173.0,16 / 21,6710897,2019-08-18 17:05:33:434,-0.7481,-0.2747,9.8398,-0.7064,-0.3769,9.7739,-0.0126,0.0034,0.0016
67098,47.4439,-1.640994,80.93,30.34,6.432,173.0,16 / 21,6710997,2019-08-18 17:05:33:534,-0.9702,-0.753,10.4174,-0.7161,-0.375,9.7733,0.0009,0.0036,0.0051
67099,47.4439,-1.640994,80.93,30.34,6.432,173.0,18 / 23,6711096,2019-08-18 17:05:33:633,-0.5572,-0.6015,9.786,-0.7159,-0.3749,9.7733,0.0041,0.0053,0.0054
67100,47.4439,-1.640994,80.93,30.34,6.432,173.0,18 / 23,6711197,2019-08-18 17:05:33:734,-0.793,-0.3525,9.6142,-0.7322,-0.3744,9.7721,-0.0102,0.0026,0.0014
67101,47.4439,-1.640994,80.93,30.34,6.432,173.0,18 / 23,6711297,2019-08-18 17:05:33:834,-0.9391,0.015,9.9972,-0.7335,-0.3781,9.7719,-0.0105,-0.0108,-0.0004
67102,47.4439,-1.640994,80.93,30.34,6.432,173.0,18 / 23,6711397,2019-08-18 17:05:33:934,-0.9211,-0.3561,10.0744,-0.725,-0.3943,9.7719,0.0064,-0.0096,0.0028
67103,47.4439,-1.640994,80.93,30.34,6.432,173.0,18 / 23,6711497,2019-08-18 17:05:34:034,-1.042,-0.5979,10.0391,-0.722,-0.3862,9.7724,0.0099,-0.0077,0.0038
67104,47.4439,-1.640994,80.93,30.34,6.432,173.0,18 / 23,6711597,2019-08-18 17:05:34:134,-0.8469,-0.3118,9.6585,-0.7115,-0.3868,9.7732,-0.0162,-0.0097,0.0009
67105,47.4439,-1.640994,80.93,30.34,6.432,173.0,18 / 23,6711697,2019-08-18 17:05:34:234,-0.7613,-0.1024,9.6591,-0.71,-0.3964,9.7729,-0.0087,-0.0018,-0.0021
67106,47.4439,-1.640994,80.93,30.34,6.432,173.0,18 / 23,6711797,2019-08-18 17:05:34:334,-0.7236,-0.4992,9.4508,-0.7174,-0.4001,9.7722,0.0031,0.0127,0.001
67107,47.4439,-1.640994,80.93,30.34,6.432,173.0,18 / 23,6711897,2019-08-18 17:05:34:434,-0.4967,-0.2777,9.9571,-0.7303,-0.398,9.7713,0.0228,0.0252,0.0036
67108,47.4439,-1.640994,80.93,30.34,6.432,173.0,18 / 23,6711997,2019-08-18 17:05:34:534,-0.7637,-0.1855,10.2085,-0.7473,-0.3681,9.7712,0.0254,-0.0183,0.0014
67109,47.4439,-1.640994,80.93,30.34,6.432,173.0,15 / 22,6712097,2019-08-18 17:05:34:634,-0.6865,-0.0742,9.4502,-0.7379,-0.3586,9.7723,-0.0109,-0.0157,-0.0018
67110,47.4439,-1.640994,80.93,30.34,6.432,173.0,15 / 22,6712197,2019-08-18 17:05:34:734,-0.3555,-0.091,10.825,-0.7195,-0.3673,9.7733,-0.0065,-0.0095,-0.0006
67111,47.4439,-1.640994,80.93,30.34,6.432,173.0,15 / 22,6712297,2019-08-18 17:05:34:834,-0.7469,-0.5806,9.9188,-0.7157,-0.3639,9.7737,-0.0029,-0.0045,-0.0008
67112,47.4439,-1.640994,80.93,30.34,6.432,173.0,15 / 22,6712397,2019-08-18 17:05:34:934,-0.8134,-0.2131,9.3813,-0.7076,-0.3699,9.7741,-0.0069,-0.0026,-0.0018
67113,47.4439,-1.640994,80.93,30.34,6.432,173.0,15 / 22,6712497,2019-08-18 17:05:35:034,-0.6542,-0.6937,9.759,-0.7033,-0.3734,9.7743,-0.0026,0.0028,0.0003
67114,47.4439,-1.640994,80.93,30.34,6.432,173.0,15 / 22,6712597,2019-08-18 17:05:35:134,-0.6141,-0.3214,9.8452,-0.7006,-0.3745,9.7744,-0.0001,-0.0029,0.0004
67115,47.4439,-1.640994,80.93,30.34,6.432,173.0,15 / 22,6712697,2019-08-18 17:05:35:234,-0.453,-0.0407,9.9482,-0.6959,-0.3719,9.7749,0.0085,0.0028,0.0015
67116,47.4439,-1.640994,80.93,30.34,6.432,173.0,15 / 22,6712797,2019-08-18 17:05:35:334,-0.5614,-0.1712,9.5729,-0.7044,-0.357,9.7748,0.0046,0.0109,0.0014
67117,47.4439,-1.640994,80.93,30.34,6.432,173.0,15 / 22,6712897,2019-08-18 17:05:35:434,-0.8798,0.0676,9.5399,-0.7071,-0.354,9.7747,-0.0055,-0.0015,0.0014
67118,47.4439,-1.640994,80.93,30.34,6.432,173.0,15 / 22,6712997,2019-08-18 17:05:35:534,-0.8636,-0.0114,8.8229,-0.702,-0.3667,9.7746,-0.0042,0.0255,-0.0023
67119,47.4439,-1.640994,80.93,30.34,6.432,173.0,15 / 21,6713096,2019-08-18 17:05:35:633,-0.3531,-0.088,9.7967,-0.724,-0.3617,9.7732,0.0145,0.0366,0.0012
67120,47.4439,-1.640994,80.93,30.34,6.432,173.0,15 / 21,6713197,2019-08-18 17:05:35:734,-0.6482,-0.3083,10.4246,-0.7235,-0.3313,9.7743,0.0117,-0.0094,-0.0025
67121,47.4439,-1.640994,80.93,30.34,6.432,173.0,15 / 21,6713297,2019-08-18 17:05:35:834,-0.7146,-0.2909,11.156,-0.7035,-0.3358,9.7756,-0.0131,-0.0297,-0.0021
67122,47.4439,-1.640994,80.93,30.34,6.432,173.0,15 / 21,6713397,2019-08-18 17:05:35:934,-0.5793,-0.2478,10.6658,-0.6661,-0.3496,9.7778,-0.0131,-0.0183,-0.0002
67123,47.4439,-1.640994,80.93,30.34,6.432,173.0,15 / 21,6713497,2019-08-18 17:05:36:034,-0.4943,-0.1113,9.4472,-0.6613,-0.3508,9.778,-0.002,0.0061,0.0005
67124,47.4439,-1.640994,80.93,30.34,6.432,173.0,15 / 21,6713597,2019-08-18 17:05:36:134,-0.6075,0.0257,9.5022,-0.6622,-0.3526,9.7779,-0.0014,0.012,0.0014
67125,47.4439,-1.640994,80.93,30.34,6.432,173.0,15 / 21,6713697,2019-08-18 17:05:36:234,-0.6751,-0.3621,8.9689,-0.6698,-0.3453,9.7777,0.0079,0.015,0.0034
67126,47.4439,-1.640994,80.93,30.34,6.432,173.0,15 / 21,6713797,2019-08-18 17:05:36:334,-0.4189,-0.3885,9.9482,-0.6781,-0.3353,9.7774,0.0139,0.0035,0.0023
67127,47.4439,-1.640994,80.93,30.34,6.432,173.0,15 / 21,6713898,2019-08-18 17:05:36:435,-0.5781,-0.3136,10.2414,-0.6703,-0.3232,9.7784,0.0024,-0.0082,0.0013
67128,47.4439,-1.640994,80.93,30.34,6.432,173.0,15 / 21,6713997,2019-08-18 17:05:36:534,-0.4788,-0.2891,10.0703,-0.6609,-0.3256,9.7789,-0.0081,-0.011,-0.0006
67129,47.4439,-1.640994,80.93,30.34,6.432,173.0,13 / 20,6714097,2019-08-18 17:05:36:634,-0.2741,-0.5297,10.2504,-0.6561,-0.3241,9.7793,0.0041,-0.0012,-0.0022
67130,47.4439,-1.640994,80.93,30.34,6.432,173.0,13 / 20,6714197,2019-08-18 17:05:36:734,-0.474,-0.231,10.333,-0.6578,-0.3191,9.7794,-0.0078,-0.0005,-0.0022
67131,47.4439,-1.640994,80.93,30.34,6.432,173.0,13 / 20,6714297,2019-08-18 17:05:36:834,-0.3387,-0.0844,8.9079,-0.6399,-0.3222,9.7804,0.0043,-0.0024,-0.0004
67132,47.4439,-1.640994,80.93,30.34,6.432,173.0,13 / 20,6714397,2019-08-18 17:05:36:934,-0.1771,0.0347,10.4557,-0.6382,-0.3187,9.7807,0.015,-0.0007,0.0015
67133,47.4439,-1.640994,80.93,30.34,6.432,173.0,13 / 20,6714497,2019-08-18 17:05:37:034,-0.7463,-0.3346,9.7848,-0.6324,-0.2973,9.7817,0.0106,0.0118,0.0011
67134,47.4439,-1.640994,80.93,30.34,6.432,173.0,13 / 20,6714597,2019-08-18 17:05:37:134,-0.6619,-0.2011,9.5172,-0.6353,-0.2949,9.7816,0.0049,0.0108,-0.0005
67135,47.4439,-1.640994,80.93,30.34,6.432,173.0,13 / 20,6714697,2019-08-18 17:05:37:234,-0.5291,-0.3741,10.3845,-0.639,-0.2958,9.7813,-0.0048,-0.0009,-0.0014
67136,47.4439,-1.640994,80.93,30.34,6.432,173.0,13 / 20,6714797,2019-08-18 17:05:37:334,-0.7146,-0.4687,10.5497,-0.6326,-0.2955,9.7818,0.0026,-0.0083,0.0005
67137,47.4439,-1.640994,80.93,30.34,6.432,173.0,13 / 20,6714896,2019-08-18 17:05:37:433,-0.562,-0.0479,10.5318,-0.6219,-0.2852,9.7828,0.0078,-0.0077,0.0015
67138,47.4439,-1.640994,80.93,30.34,6.432,173.0,13 / 20,6714997,2019-08-18 17:05:37:534,-0.4949,0.1347,9.9643,-0.6152,-0.2786,9.7834,0.0039,0.0017,0.0
67139,47.4439,-1.640994,80.93,30.34,6.432,173.0,16 / 22,6715097,2019-08-18 17:05:37:634,-0.6907,0.2406,9.944,-0.6138,-0.2731,9.7836,0.0015,0.001,-0.0003
67140,47.441513,-1.640513,80.58,30.05,5.36,173.3,16 / 22,6715197,2019-08-18 17:05:37:734,-0.3926,-0.4046,9.7794,-0.6151,-0.2686,9.7837,0.0033,-0.0002,-0.0013
67141,47.441513,-1.640513,80.58,30.05,5.36,173.3,16 / 22,6715297,2019-08-18 17:05:37:834,-0.5554,-0.1844,9.8662,-0.6116,-0.2588,9.7841,0.0076,-0.0049,-0.0006
67142,47.441513,-1.640513,80.58,30.05,5.36,173.3,16 / 22,6715397,2019-08-18 17:05:37:934,-0.6553,-0.3065,9.9751,-0.6086,-0.2568,9.7844,0.005,0.0013,0.0001
67143,47.441513,-1.640513,80.58,30.05,5.36,173.3,16 / 22,6715497,2019-08-18 17:05:38:034,-0.5303,-0.3106,9.7836,-0.6068,-0.2447,9.7848,0.0043,0.0032,0.0007
67144,47.441513,-1.640513,80.58,30.05,5.36,173.3,16 / 22,6715597,2019-08-18 17:05:38:134,-0.4788,-0.5195,9.4705,-0.6098,-0.2449,9.7846,-0.0013,0.0033,-0.0005
67145,47.441513,-1.640513,80.58,30.05,5.36,173.3,16 / 22,6715697,2019-08-18 17:05:38:234,-0.6595,-0.4214,9.6339,-0.6161,-0.2448,9.7842,-0.0039,0.0158,-0.001
67146,47.441513,-1.640513,80.58,30.05,5.36,173.3,16 / 22,6715797,2019-08-18 17:05:38:334,-0.6506,-0.5722,9.6866,-0.6154,-0.2474,9.7842,-0.0041,-0.006,-0.0007
67147,47.441513,-1.640513,80.58,30.05,5.36,173.3,16 / 22,6715897,2019-08-18 17:05:38:434,-0.7032,-0.1359,9.6411,-0.6038,-0.2448,9.785,0.0003,-0.0123,-0.0023
67148,47.441513,-1.640513,80.58,30.05,5.36,173.3,16 / 22,6715997,2019-08-18 17:05:38:534,-0.6242,-0.3017,9.8656,-0.5995,-0.2444,9.7853,0.0003,0.0022,-0.0008
67149,47.441513,-1.640513,80.58,30.05,5.36,173.3,15 / 20,6716097,2019-08-18 17:05:38:634,-0.8643,-0.3771,9.8907,-0.608,-0.2454,9.7847,-0.0018,0.0033,0.0014
67150,47.441513,-1.640513,80.58,30.05,5.36,173.3,15 / 20,6716198,2019-08-18 17:05:38:735,-0.6476,-0.3208,9.9536,-0.6088,-0.2467,9.7846,-0.0043,0.0044,0.001
67151,47.441513,-1.640513,80.58,30.05,5.36,173.3,15 / 20,6716297,2019-08-18 17:05:38:834,-0.5195,-0.0682,9.9452,-0.6192,-0.2485,9.7839,0.0051,-0.0018,-0.0004
67152,47.441513,-1.640513,80.58,30.05,5.36,173.3,15 / 20,6716397,2019-08-18 17:05:38:934,-0.6853,-0.0832,10.1936,-0.6168,-0.2451,9.7842,-0.0026,-0.0165,-0.0046
67153,47.441513,-1.640513,80.58,30.05,5.36,173.3,15 / 20,6716497,2019-08-18 17:05:39:034,-0.6655,-0.2939,10.4061,-0.5988,-0.2484,9.7852,-0.0065,-0.0273,-0.0024
67154,47.441513,-1.640513,80.58,30.05,5.36,173.3,15 / 20,6716597,2019-08-18 17:05:39:134,-0.6326,0.1066,9.9117,-0.5834,-0.2558,9.7859,-0.0033,-0.0115,-0.0035
67155,47.441513,-1.640513,80.58,30.05,5.36,173.3,15 / 20,6716697,2019-08-18 17:05:39:234,-0.6967,-0.4429,9.7183,-0.5862,-0.2551,9.7858,0.0062,0.0099,0.0019
67156,47.441513,-1.640513,80.58,30.05,5.36,173.3,15 / 20,6716798,2019-08-18 17:05:39:335,-1.039,-0.3903,9.9446,-0.6012,-0.2499,9.785,-0.0013,0.0007,0.0011
67157,47.441513,-1.640513,80.58,30.05,5.36,173.3,15 / 20,6716897,2019-08-18 17:05:39:434,-0.9187,-0.5159,9.6243,-0.6024,-0.2607,9.7847,-0.0092,0.0074,-0.0005
67158,47.441513,-1.640513,80.58,30.05,5.36,173.3,15 / 20,6716997,2019-08-18 17:05:39:534,-0.5201,-0.2436,9.8602,-0.6057,-0.2679,9.7843,-0.0038,-0.0045,-0.0034
67159,47.441513,-1.640513,80.58,30.05,5.36,173.3,17 / 22,6717097,2019-08-18 17:05:39:634,-0.4417,-0.3723,9.8057,-0.6057,-0.2721,9.7841,-0.0035,-0.0071,-0.0021
67160,47.441513,-1.640513,80.58,30.05,5.36,173.3,17 / 22,6717197,2019-08-18 17:05:39:734,-0.8104,-0.392,10.5419,-0.5945,-0.284,9.7845,0.0034,-0.0091,-0.0029
67161,47.441513,-1.640513,80.58,30.05,5.36,173.3,17 / 22,6717297,2019-08-18 17:05:39:834,-0.8798,-0.0796,9.4801,-0.5921,-0.2834,9.7847,0.0032,0.0037,-0.0022
67162,47.441513,-1.640513,80.58,30.05,5.36,173.3,17 / 22,6717397,2019-08-18 17:05:39:934,-0.7302,-0.2783,9.5453,-0.6035,-0.289,9.7838,-0.01,0.0107,0.0012
67163,47.441513,-1.640513,80.58,30.05,5.36,173.3,17 / 22,6717497,2019-08-18 17:05:40:034,-0.9774,-0.6817,9.5657,-0.616,-0.2983,9.7827,-0.0155,0.0107,-0.0018
67164,47.441513,-1.640513,80.58,30.05,5.36,173.3,17 / 22,6717597,2019-08-18 17:05:40:134,-0.869,-0.4453,10.0014,-0.6296,-0.3104,9.7815,0.0128,0.006,-0.0005
67165,47.441513,-1.640513,80.58,30.05,5.36,173.3,17 / 22,6717698,2019-08-18 17:05:40:235,-1.0181,-0.4262,10.2672,-0.6359,-0.3021,9.7813,0.0163,-0.0017,0.0021
67166,47.441513,-1.640513,80.58,30.05,5.36,173.3,17 / 22,6717797,2019-08-18 17:05:40:334,-0.3908,-0.6033,10.0421,-0.6232,-0.2945,9.7824,0.0006,-0.0196,-0.004
67167,47.441513,-1.640513,80.58,30.05,5.36,173.3,17 / 22,6717897,2019-08-18 17:05:40:434,-0.6236,-0.2233,10.1618,-0.6186,-0.2978,9.7826,-0.0117,-0.0021,-0.0019
67168,47.441513,-1.640513,80.58,30.05,5.36,173.3,17 / 22,6717997,2019-08-18 17:05:40:534,-0.987,-0.31,9.9332,-0.6146,-0.3175,9.7822,-0.0023,-0.0027,-0.002
67169,47.441513,-1.640513,80.58,30.05,5.36,173.3,17 / 22,6718097,2019-08-18 17:05:40:634,-0.9343,-0.2233,9.4202,-0.6169,-0.3187,9.782,0.0049,0.0061,-0.0023
67170,47.441513,-1.640513,80.58,30.05,5.36,173.3,15 / 20,6718197,2019-08-18 17:05:40:734,-0.9971,-0.4064,9.5244,-0.6344,-0.3193,9.7809,0.0041,0.0087,-0.0005
67171,47.441513,-1.640513,80.58,30.05,5.36,173.3,15 / 20,6718297,2019-08-18 17:05:40:834,-0.8876,-0.4525,9.4831,-0.6378,-0.3142,9.7808,0.0088,-0.0037,0.0009
67172,47.441513,-1.640513,80.58,30.05,5.36,173.3,15 / 20,6718397,2019-08-18 17:05:40:934,-0.902,-0.6255,9.9236,-0.6406,-0.3102,9.7808,0.0035,-0.007,-0.0004
67173,47.441513,-1.640513,80.58,30.05,5.36,173.3,15 / 20,6718497,2019-08-18 17:05:41:034,-0.9121,-0.4106,9.9386,-0.6433,-0.3088,9.7807,0.0041,0.0052,-0.0028
67174,47.441513,-1.640513,80.58,30.05,5.36,173.3,15 / 20,6718597,2019-08-18 17:05:41:134,-0.8307,-0.5926,9.6842,-0.6571,-0.3112,9.7797,0.0059,0.0111,-0.0015
67175,47.441513,-1.640513,80.58,30.05,5.36,173.3,15 / 20,6718697,2019-08-18 17:05:41:234,-1.0139,-0.3819,9.8769,-0.6705,-0.3138,9.7787,0.0072,0.0125,-0.0018
67176,47.441513,-1.640513,80.58,30.05,5.36,173.3,15 / 20,6718797,2019-08-18 17:05:41:334,-0.8906,-0.5267,9.8434,-0.6853,-0.3095,9.7778,0.0083,-0.0183,-0.001
67177,47.441513,-1.640513,80.58,30.05,5.36,173.3,15 / 20,6718897,2019-08-18 17:05:41:434,-1.0755,-0.7165,9.7488,-0.6783,-0.3063,9.7784,0.0083,-0.0183,-0.001
67178,47.441513,-1.640513,80.58,30.05,5.36,173.3,15 / 20,6718997,2019-08-18 17:05:41:534,-1.2443,-0.2209,9.5268,-0.6834,-0.3249,9.7774,-0.0084,0.0119,-0.004
67179,47.441513,-1.640513,80.58,30.05,5.36,173.3,15 / 20,6719097,2019-08-18 17:05:41:634,-0.5704,-0.665,9.7602,-0.6947,-0.3328,9.7763,-0.0079,0.0069,-0.0038
67180,47.441513,-1.640513,80.58,30.05,5.36,173.3,16 / 22,6719197,2019-08-18 17:05:41:734,-0.4507,-0.504,9.7494,-0.715,-0.3409,9.7746,0.0099,0.0021,-0.0013
67181,47.441513,-1.640513,80.58,30.05,5.36,173.3,16 / 22,6719297,2019-08-18 17:05:41:834,-1.0761,-0.4812,9.9649,-0.7183,-0.338,9.7745,0.0106,-0.0028,-0.0008
67182,47.441513,-1.640513,80.58,30.05,5.36,173.3,16 / 22,6719397,2019-08-18 17:05:41:934,-1.1857,-0.6488,9.9194,-0.7219,-0.3391,9.7742,0.0101,-0.0034,0.0
67183,47.441513,-1.640513,80.58,30.05,5.36,173.3,16 / 22,6719497,2019-08-18 17:05:42:034,-1.13,-0.7332,9.8171,-0.7247,-0.3334,9.7742,0.0052,-0.006,0.0013
67184,47.441513,-1.640513,80.58,30.05,5.36,173.3,16 / 22,6719597,2019-08-18 17:05:42:134,-1.3186,-0.2173,9.3927,-0.7395,-0.3367,9.7729,0.0075,0.0157,0.0005
67185,47.441513,-1.640513,80.58,30.05,5.36,173.3,16 / 22,6719697,2019-08-18 17:05:42:234,-0.9211,-0.5507,9.6848,-0.7532,-0.3329,9.772,0.0056,0.0092,-0.0004
67186,47.441513,-1.640513,80.58,30.05,5.36,173.3,16 / 22,6719797,2019-08-18 17:05:42:334,-0.9193,-0.5638,10.078,-0.7614,-0.3455,9.7709,-0.012,-0.0057,0.0001
67187,47.441513,-1.640513,80.58,30.05,5.36,173.3,16 / 22,6719897,2019-08-18 17:05:42:434,-1.0516,-0.0784,9.2419,-0.7678,-0.3574,9.77,-0.0155,0.0021,0.001
67188,47.441513,-1.640513,80.58,30.05,5.36,173.3,16 / 22,6719997,2019-08-18 17:05:42:534,-1.1103,-0.6782,9.4699,-0.79,-0.3675,9.7679,0.0026,0.0141,0.0074
67189,47.441513,-1.640513,80.58,30.05,5.36,173.3,16 / 22,6720097,2019-08-18 17:05:42:634,-1.3329,-0.234,9.3741,-0.806,-0.3601,9.7668,0.0108,0.011,0.0085
67190,47.441513,-1.640513,80.58,30.05,5.36,173.3,16 / 22,6720198,2019-08-18 17:05:42:735,-1.1857,-0.2729,9.8063,-0.8159,-0.3525,9.7663,0.0017,0.0082,0.0079
67191,47.441513,-1.640513,80.58,30.05,5.36,173.3,16 / 22,6720297,2019-08-18 17:05:42:834,-0.3106,-0.3645,10.0631,-0.8307,-0.3425,9.7654,-0.0001,-0.0166,0.0053
67192,47.441513,-1.640513,80.58,30.05,5.36,173.3,16 / 22,6720397,2019-08-18 17:05:42:934,-1.1013,0.0545,10.4138,-0.8262,-0.3395,9.7659,0.0039,-0.0135,0.0046
67193,47.441513,-1.640513,80.58,30.05,5.36,173.3,16 / 22,6720497,2019-08-18 17:05:43:034,-1.2527,-0.5429,9.7542,-0.8139,-0.3297,9.7673,0.0056,-0.011,0.0044
67194,47.441513,-1.640513,80.58,30.05,5.36,173.3,16 / 22,6720597,2019-08-18 17:05:43:134,-0.7212,-0.1957,9.8949,-0.8143,-0.3263,9.7673,0.0016,-0.0007,0.0045
67195,47.441513,-1.640513,80.58,30.05,5.36,173.3,16 / 22,6720697,2019-08-18 17:05:43:234,-1.0863,-0.1275,9.2526,-0.8285,-0.3374,9.7658,-0.0002,0.0118,0.0077
67196,47.441513,-1.640513,80.58,30.05,5.36,173.3,16 / 22,6720797,2019-08-18 17:05:43:334,-0.8577,0.2442,10.3695,-0.8388,-0.3353,9.765,-0.0033,0.0016,0.0069
67197,47.441513,-1.640513,80.58,30.05,5.36,173.3,16 / 22,6720897,2019-08-18 17:05:43:434,-0.881,-0.1191,9.8578,-0.8377,-0.3302,9.7652,0.003,-0.0068,0.0079
67198,47.441513,-1.640513,80.58,30.05,5.36,173.3,16 / 22,6720997,2019-08-18 17:05:43:534,-0.7421,-0.1149,10.0284,-0.8393,-0.324,9.7653,0.004,0.0015,0.0073
67199,47.441513,-1.640513,80.58,30.05,5.36,173.3,16 / 21,6721097,2019-08-18 17:05:43:634,-0.9331,-0.0814,9.6656,-0.8403,-0.3175,9.7654,-0.0027,0.0076,0.0059
