,GPS LATITUDE (degrees),GPS LONGITUDE (degrees), GPS ALTITUDE (m),GPS SPEED (Kmh),GPS ACCURACY (m),GPS ORIENTATION (Â°), SATELLITES IN RANGE, TIME SINCE START (ms), DATE (YYYY-MO-DD HH-MI-SS_SSS),ACCELEROMETER X (m/s²) , ACCELEROMETER Y (m/s²), ACCELEROMETER Z (m/s²), GRAVITY X (m/s²), GRAVITY Y (m/s²), GRAVITY Z (m/s²), GYROSCOPE Yaw (rad/s), GYROSCOPE Pitch (rad/s), GYROSCOPE Roll (rad/s)
42425,45.80535,-0.140786,152.23,20.02,3.216,152.0,14 / 17,4242511,2019-08-09 23:45:59:738,0.701,-1.5998,9.6579,0.4995,-0.6435,9.7728,-0.064,-0.0316,-0.0307
42426,45.80535,-0.140786,152.23,20.02,3.216,152.0,14 / 17,4242611,2019-08-09 23:45:59:838,1.0284,0.0606,9.2718,0.4962,-0.6141,9.7748,-0.1065,-0.0217,0.0238
42427,45.80535,-0.140786,152.23,20.02,3.216,152.0,14 / 17,4242714,2019-08-09 23:45:59:941,-0.7086,-0.3991,8.9055,0.4782,-0.612,9.7758,0.0871,0.0223,-0.0059
42428,45.80535,-0.140786,152.23,20.02,3.216,152.0,14 / 17,4242811,2019-08-09 23:46:00:038,0.1408,0.1959,10.3863,0.4851,-0.6071,9.7758,-0.021,0.0049,-0.0204
42429,45.80535,-0.140786,152.23,20.02,3.216,152.0,14 / 17,4242910,2019-08-09 23:46:00:137,1.5911,-0.9342,10.0978,0.5105,-0.6673,9.7706,0.0072,-0.0048,-0.0814
42430,45.80535,-0.140786,152.23,20.02,3.216,152.0,14 / 17,4243010,2019-08-09 23:46:00:237,0.2958,-0.1884,9.9338,0.5193,-0.6842,9.769,0.0142,0.001,0.0337
42431,45.80535,-0.140786,152.23,20.02,3.216,152.0,14 / 17,4243110,2019-08-09 23:46:00:337,0.4065,-0.3739,9.1306,0.5183,-0.6751,9.7696,-0.0127,0.0081,0.0155
42432,45.80535,-0.140786,152.23,20.02,3.216,152.0,14 / 17,4243211,2019-08-09 23:46:00:438,1.0638,-0.171,9.3047,0.5369,-0.627,9.7719,0.0401,0.0199,-0.0062
42433,45.80535,-0.140786,152.23,20.02,3.216,152.0,14 / 17,4243310,2019-08-09 23:46:00:537,0.6298,-0.2476,9.9206,0.5614,-0.6552,9.7686,-0.0184,0.0177,0.0419
42434,45.80535,-0.140786,152.23,20.02,3.216,152.0,14 / 17,4243410,2019-08-09 23:46:00:637,0.3371,0.2504,10.0876,0.5882,-0.6444,9.7678,-0.0204,0.0079,-0.0449
42435,45.80535,-0.140786,152.23,20.02,3.216,152.0,14 / 17,4243510,2019-08-09 23:46:00:737,0.2485,-1.1215,9.6543,0.5935,-0.6346,9.7681,-0.0247,0.0108,-0.0093
42436,45.80535,-0.140786,152.23,20.02,3.216,152.0,14 / 17,4243610,2019-08-09 23:46:00:837,0.6843,0.2156,9.3436,0.6182,-0.6159,9.7677,0.043,0.0233,-0.0019
42437,45.80535,-0.140786,152.23,20.02,3.216,152.0,14 / 17,4243710,2019-08-09 23:46:00:937,0.9494,-1.6237,9.9506,0.6288,-0.6521,9.7647,0.0042,0.019,-0.0039
42438,45.80535,-0.140786,152.23,20.02,3.216,152.0,14 / 17,4243810,2019-08-09 23:46:01:037,0.713,-2.0798,9.7112,0.6467,-0.6628,9.7628,0.017,0.0027,-0.0084
42439,45.80535,-0.140786,152.23,20.02,3.216,152.0,14 / 17,4243910,2019-08-09 23:46:01:137,0.7357,0.6651,9.9715,0.654,-0.6751,9.7615,0.0158,-0.0014,-0.0127
42440,45.80535,-0.140786,152.23,20.02,3.216,152.0,14 / 17,4244010,2019-08-09 23:46:01:237,0.9285,-0.8851,10.187,0.6354,-0.7002,9.761,0.0487,-0.031,-0.0072
42441,45.80535,-0.140786,152.23,20.02,3.216,152.0,14 / 17,4244110,2019-08-09 23:46:01:337,0.8519,-1.237,9.9625,0.6214,-0.6828,9.7631,0.0454,-0.016,0.0105
42442,45.80535,-0.140786,152.23,20.02,3.216,152.0,14 / 17,4244211,2019-08-09 23:46:01:438,0.0384,-0.5661,9.2407,0.5992,-0.6852,9.7643,-0.0235,-0.015,0.0073
42443,45.80535,-0.140786,152.23,20.02,3.216,152.0,14 / 17,4244310,2019-08-09 23:46:01:537,0.3868,-1.3717,9.3161,0.5896,-0.6903,9.7645,0.0102,-0.0029,-0.0002
42444,45.80535,-0.140786,152.23,20.02,3.216,152.0,14 / 17,4244411,2019-08-09 23:46:01:638,0.3078,-0.3183,9.8051,0.5809,-0.6709,9.7664,-0.0113,-0.004,0.0118
42445,45.80535,-0.140786,152.23,20.02,3.216,152.0,14 / 17,4244511,2019-08-09 23:46:01:738,0.3108,-0.693,9.5274,0.5755,-0.6666,9.767,-0.0131,0.0019,0.0158
42446,45.80535,-0.140786,152.23,20.02,3.216,152.0,14 / 17,4244610,2019-08-09 23:46:01:837,0.4496,-0.4972,9.2257,0.5658,-0.6634,9.7678,-0.0299,-0.0026,0.0101
42447,45.80535,-0.140786,152.23,20.02,3.216,152.0,14 / 17,4244710,2019-08-09 23:46:01:937,0.8273,-0.0878,9.8488,0.5617,-0.6639,9.768,0.0204,-0.0264,-0.0089
42448,45.80535,-0.140786,152.23,20.02,3.216,152.0,14 / 17,4244810,2019-08-09 23:46:02:037,0.5454,-0.5786,10.0637,0.5232,-0.6721,9.7696,-0.0018,-0.0349,0.0036
42449,45.80535,-0.140786,152.23,20.02,3.216,152.0,14 / 17,4244910,2019-08-09 23:46:02:137,0.7172,-1.3717,9.6381,0.5038,-0.6735,9.7705,0.0133,-0.0352,0.0034
42450,45.80535,-0.140786,152.23,20.02,3.216,152.0,14 / 17,4245010,2019-08-09 23:46:02:237,0.5304,-0.7816,9.5753,0.4654,-0.6811,9.7719,0.0,-0.0175,-0.0127
42451,45.80535,-0.140786,152.23,20.02,3.216,152.0,14 / 17,4245110,2019-08-09 23:46:02:337,0.7004,-0.7355,9.8111,0.4563,-0.6823,9.7722,0.0044,-0.018,0.0046
42452,45.80535,-0.140786,152.23,20.02,3.216,152.0,14 / 17,4245211,2019-08-09 23:46:02:438,0.6537,-0.9617,9.9434,0.4389,-0.6836,9.7729,-0.0054,0.0003,0.0069
42453,45.80535,-0.140786,152.23,20.02,3.216,152.0,14 / 17,4245311,2019-08-09 23:46:02:538,0.5753,-1.0946,9.8596,0.4429,-0.6683,9.7738,0.0144,0.0092,-0.019
42454,45.80535,-0.140786,152.23,20.02,3.216,152.0,14 / 17,4245410,2019-08-09 23:46:02:637,0.6579,-0.0777,9.4771,0.4544,-0.6876,9.772,0.0707,0.0154,0.0012
42455,45.80535,-0.140786,152.23,20.02,3.216,152.0,14 / 17,4245510,2019-08-09 23:46:02:737,0.719,-1.9505,10.1487,0.4625,-0.6914,9.7713,-0.0113,0.0122,-0.0193
42456,45.80535,-0.140786,152.23,20.02,3.216,152.0,14 / 17,4245611,2019-08-09 23:46:02:838,0.6035,-0.8145,10.1996,0.4817,-0.6992,9.7698,0.0042,0.0179,0.002
42457,45.80535,-0.140786,152.23,20.02,3.216,152.0,14 / 17,4245710,2019-08-09 23:46:02:937,0.7357,-0.2285,9.8177,0.4933,-0.7028,9.769,-0.0454,0.0106,0.0327
42458,45.80535,-0.140786,152.23,20.02,3.216,152.0,14 / 17,4245810,2019-08-09 23:46:03:037,0.1689,-0.8372,9.3532,0.5043,-0.7096,9.7679,0.0391,0.0001,-0.0527
42459,45.80535,-0.140786,152.23,20.02,3.216,152.0,14 / 17,4245910,2019-08-09 23:46:03:137,-0.0202,-0.2476,10.2445,0.5078,-0.7091,9.7678,-0.0022,-0.0094,0.0354
42460,45.80535,-0.140786,152.23,20.02,3.216,152.0,14 / 17,4246010,2019-08-09 23:46:03:237,0.8375,-1.3388,10.3953,0.501,-0.7266,9.7669,0.0024,0.0137,0.0462
42461,45.80535,-0.140786,152.23,20.02,3.216,152.0,14 / 17,4246113,2019-08-09 23:46:03:340,0.6352,-0.6858,10.0397,0.5059,-0.7429,9.7654,0.0341,0.0221,-0.0241
42462,45.80535,-0.140786,152.23,20.02,3.216,152.0,14 / 17,4246210,2019-08-09 23:46:03:437,0.4951,-1.2281,10.33,0.5193,-0.7481,9.7643,0.0087,0.0014,0.0024
42463,45.80535,-0.140786,152.23,20.02,3.216,152.0,14 / 17,4246310,2019-08-09 23:46:03:537,0.5244,-0.5146,9.7285,0.5167,-0.7668,9.763,0.008,-0.0106,0.0078
42464,45.80535,-0.140786,152.23,20.02,3.216,152.0,14 / 17,4246412,2019-08-09 23:46:03:639,0.5089,-0.0082,9.8345,0.5093,-0.7612,9.7638,0.0123,0.0089,0.0178
42465,45.80535,-0.140786,152.23,20.02,3.216,152.0,14 / 17,4246515,2019-08-09 23:46:03:742,0.4125,-0.8863,10.2175,0.5087,-0.7681,9.7633,-0.0195,-0.0157,0.0184
42466,45.80535,-0.140786,152.23,20.02,3.216,152.0,14 / 17,4246610,2019-08-09 23:46:03:837,0.2174,-1.1114,9.4029,0.497,-0.7522,9.7651,-0.0104,-0.0119,0.0005
42467,45.80535,-0.140786,152.23,20.02,3.216,152.0,14 / 17,4246710,2019-08-09 23:46:03:937,0.3281,-0.2644,9.6992,0.476,-0.7576,9.7657,-0.0204,-0.0067,0.0116
42468,45.80535,-0.140786,152.23,20.02,3.216,152.0,14 / 17,4246810,2019-08-09 23:46:04:037,0.47,-1.2107,9.9577,0.4693,-0.7397,9.7674,0.0259,-0.0088,-0.0028
42469,45.80535,-0.140786,152.23,20.02,3.216,152.0,14 / 17,4246910,2019-08-09 23:46:04:137,0.3545,-0.1477,9.6639,0.4546,-0.7524,9.7672,-0.01,-0.0039,0.0063
42470,45.80535,-0.140786,152.23,20.02,3.216,152.0,14 / 17,4247010,2019-08-09 23:46:04:237,0.5029,-0.7612,9.5226,0.4504,-0.7141,9.7702,0.0175,-0.0023,-0.003
42471,45.80535,-0.140786,152.23,20.02,3.216,152.0,14 / 17,4247110,2019-08-09 23:46:04:337,0.7172,-0.5308,9.3011,0.4649,-0.7057,9.7702,0.0033,0.0147,-0.0145
42472,45.80535,-0.140786,152.23,20.02,3.216,152.0,14 / 17,4247210,2019-08-09 23:46:04:437,1.1918,-1.3125,9.7028,0.4762,-0.6909,9.7707,-0.0457,-0.016,-0.0005
42473,45.80535,-0.140786,152.23,20.02,3.216,152.0,14 / 17,4247311,2019-08-09 23:46:04:538,0.142,-0.42,9.1395,0.4673,-0.6605,9.7732,0.0291,-0.0224,-0.0308
42474,45.80535,-0.140786,152.23,20.02,3.216,152.0,14 / 17,4247410,2019-08-09 23:46:04:637,0.315,-0.6038,9.9021,0.4548,-0.6801,9.7725,0.0192,-0.0366,-0.0376
42475,45.80535,-0.140786,152.23,20.02,3.216,152.0,14 / 17,4247511,2019-08-09 23:46:04:738,0.3682,-1.6447,10.1403,0.42,-0.7005,9.7726,0.0377,-0.0269,0.0221
42476,45.80535,-0.140786,152.23,20.02,3.216,152.0,14 / 17,4247610,2019-08-09 23:46:04:837,0.8644,0.5227,10.7879,0.392,-0.7343,9.7713,0.0372,-0.0397,-0.0411
42477,45.80535,-0.140786,152.23,20.02,3.216,152.0,14 / 17,4247710,2019-08-09 23:46:04:937,0.4215,-0.7756,10.0745,0.3554,-0.7575,9.7709,0.006,-0.0439,0.0046
42478,45.80535,-0.140786,152.23,20.02,3.216,152.0,14 / 17,4247810,2019-08-09 23:46:05:037,0.1504,-0.4721,9.5424,0.3218,-0.7546,9.7723,-0.0225,-0.0309,0.0151
42479,45.80535,-0.140786,152.23,20.02,3.216,152.0,14 / 17,4247911,2019-08-09 23:46:05:138,0.5035,-1.0683,9.9153,0.2929,-0.7531,9.7733,0.007,-0.0214,-0.0204
42480,45.80535,-0.140786,152.23,20.02,3.216,152.0,14 / 17,4248010,2019-08-09 23:46:05:237,0.4538,-0.6588,9.6465,0.2883,-0.7335,9.7749,-0.0177,-0.0061,-0.027
42481,45.80535,-0.140786,152.23,20.02,3.216,152.0,14 / 17,4248111,2019-08-09 23:46:05:338,0.476,0.0223,9.4801,0.2899,-0.7123,9.7764,-0.0217,0.0078,-0.0169
42482,45.80535,-0.140786,152.23,20.02,3.216,152.0,14 / 17,4248211,2019-08-09 23:46:05:438,0.2527,-0.918,9.3778,0.2992,-0.698,9.7772,-0.0166,0.0074,-0.0115
42483,45.80535,-0.140786,152.23,20.02,3.216,152.0,14 / 17,4248310,2019-08-09 23:46:05:537,0.361,-0.851,9.856,0.3098,-0.6797,9.7782,0.0029,0.0024,-0.0119
42484,45.80535,-0.140786,152.23,20.02,3.216,152.0,14 / 17,4248410,2019-08-09 23:46:05:637,0.1947,-0.3248,9.3831,0.3171,-0.6969,9.7767,-0.0143,0.0137,0.0105
42485,45.80535,-0.140786,152.23,20.02,3.216,152.0,14 / 17,4248511,2019-08-09 23:46:05:738,0.0737,-0.5367,9.8692,0.3358,-0.6892,9.7766,-0.0179,0.0251,-0.0137
42486,45.80535,-0.140786,152.23,20.02,3.216,152.0,14 / 17,4248611,2019-08-09 23:46:05:838,0.3084,-2.1073,10.0086,0.3478,-0.6808,9.7768,-0.0006,0.0355,0.0239
42487,45.80535,-0.140786,152.23,20.02,3.216,152.0,14 / 17,4248710,2019-08-09 23:46:05:937,0.5358,-1.179,10.2193,0.3918,-0.6968,9.774,-0.0403,0.0281,0.0244
42488,45.80535,-0.140786,152.23,20.02,3.216,152.0,14 / 17,4248810,2019-08-09 23:46:06:037,-0.0178,-0.3566,9.5442,0.4086,-0.6744,9.7749,0.0211,0.0298,0.0001
42489,45.80535,-0.140786,152.23,20.02,3.216,152.0,14 / 17,4248910,2019-08-09 23:46:06:137,0.2461,-0.5218,9.6088,0.4394,-0.6732,9.7736,0.007,0.0167,0.0039
42490,45.80535,-0.140786,152.23,20.02,3.216,152.0,14 / 17,4249011,2019-08-09 23:46:06:238,0.2737,-0.3207,9.7423,0.4424,-0.6836,9.7728,0.0016,-0.006,0.0012
42491,45.80535,-0.140786,152.23,20.02,3.216,152.0,14 / 17,4249111,2019-08-09 23:46:06:338,0.1988,-0.1513,9.8578,0.4276,-0.6731,9.7742,-0.0101,-0.0133,0.0191
42492,45.80535,-0.140786,152.23,20.02,3.216,152.0,14 / 17,4249210,2019-08-09 23:46:06:437,-0.0915,-0.1136,9.923,0.4129,-0.6715,9.7749,0.0167,-0.0126,0.03
42493,45.80535,-0.140786,152.23,20.02,3.216,152.0,14 / 17,4249310,2019-08-09 23:46:06:537,-0.0089,-0.5858,9.7261,0.3812,-0.6606,9.7769,-0.0058,-0.0202,0.0247
42494,45.80535,-0.140786,152.23,20.02,3.216,152.0,14 / 17,4249411,2019-08-09 23:46:06:638,-0.049,-0.2901,9.7752,0.36,-0.6528,9.7783,0.0085,-0.0176,0.0131
42495,45.80535,-0.140786,152.23,20.02,3.216,152.0,14 / 17,4249511,2019-08-09 23:46:06:738,-0.3931,-0.505,9.5783,0.3089,-0.6317,9.7814,-0.0027,-0.0263,0.0258
42496,45.80535,-0.140786,152.23,20.02,3.216,152.0,14 / 17,4249610,2019-08-09 23:46:06:837,-0.438,-0.423,9.8572,0.2954,-0.6342,9.7817,0.0089,-0.0076,0.0149
42497,45.80535,-0.140786,152.23,20.02,3.216,152.0,14 / 17,4249710,2019-08-09 23:46:06:937,-0.1651,-1.1682,10.2091,0.2684,-0.642,9.7819,0.0165,-0.0067,0.0276
42498,45.80535,-0.140786,152.23,20.02,3.216,152.0,14 / 17,4249810,2019-08-09 23:46:07:037,-0.2728,-1.832,10.2678,0.2561,-0.6698,9.7804,-0.0091,-0.0066,0.0351
42499,45.80535,-0.140786,152.23,20.02,3.216,152.0,14 / 17,4249910,2019-08-09 23:46:07:137,-0.5069,-0.2823,9.7638,0.244,-0.6657,9.781,0.0231,0.0247,0.0353
42500,45.80535,-0.140786,152.23,20.02,3.216,152.0,14 / 17,4250010,2019-08-09 23:46:07:237,-0.1208,-0.4344,9.3215,0.2685,-0.6849,9.779,-0.0189,0.0404,0.0202
42501,45.80535,-0.140786,152.23,20.02,3.216,152.0,14 / 17,4250111,2019-08-09 23:46:07:338,-0.2932,-1.2275,9.4645,0.2945,-0.6766,9.7788,-0.018,0.053,0.0301
42502,45.80535,-0.140786,152.23,20.02,3.216,152.0,14 / 17,4250211,2019-08-09 23:46:07:438,0.048,-1.276,9.5148,0.3433,-0.6607,9.7783,-0.0365,0.0499,0.0355
42503,45.80535,-0.140786,152.23,20.02,3.216,152.0,14 / 17,4250310,2019-08-09 23:46:07:537,0.5448,-1.3783,9.5442,0.3771,-0.6424,9.7783,-0.0596,0.0335,0.0361
42504,45.80535,-0.140786,152.23,20.02,3.216,152.0,14 / 17,4250410,2019-08-09 23:46:07:637,-0.3842,-1.2556,10.3528,0.4333,-0.6702,9.7741,0.0483,0.0499,0.0021
42505,45.80535,-0.140786,152.23,20.02,3.216,152.0,14 / 17,4250511,2019-08-09 23:46:07:738,0.5023,-2.2695,10.4611,0.4577,-0.6456,9.7747,0.0021,0.0342,0.0013
42506,45.803936,-0.139723,150.18,19.35,3.216,151.1,14 / 17,4250610,2019-08-09 23:46:07:837,0.0426,0.5041,9.516,0.5073,-0.6841,9.7696,-0.0101,0.0274,0.0416
42507,45.803936,-0.139723,150.18,19.35,3.216,151.1,14 / 17,4250710,2019-08-09 23:46:07:937,0.3892,-1.7739,9.3981,0.519,-0.641,9.7719,-0.0093,0.0282,0.01
42508,45.803936,-0.139723,150.18,19.35,3.216,151.1,14 / 17,4250810,2019-08-09 23:46:08:037,0.4317,-0.6259,9.3257,0.5394,-0.6213,9.7721,-0.0254,0.0044,0.0187
42509,45.803936,-0.139723,150.18,19.35,3.216,151.1,14 / 17,4250911,2019-08-09 23:46:08:138,0.616,-0.848,10.0757,0.5364,-0.6199,9.7723,-0.01,-0.0221,0.014
42510,45.803936,-0.139723,150.18,19.35,3.216,151.1,14 / 17,4251010,2019-08-09 23:46:08:237,0.2725,-1.65,9.9655,0.5099,-0.6287,9.7732,0.033,-0.0221,0.0185
42511,45.803936,-0.139723,150.18,19.35,3.216,151.1,14 / 17,4251110,2019-08-09 23:46:08:337,0.2683,-0.4242,10.3612,0.4922,-0.6361,9.7736,0.0264,-0.0354,0.0108
42512,45.803936,-0.139723,150.18,19.35,3.216,151.1,14 / 17,4251210,2019-08-09 23:46:08:437,-0.3195,-0.2458,10.0242,0.4424,-0.6377,9.7759,-0.0226,-0.0161,0.017
42513,45.803936,-0.139723,150.18,19.35,3.216,151.1,14 / 17,4251311,2019-08-09 23:46:08:538,-0.1429,-0.8324,9.5603,0.4183,-0.6337,9.7772,0.0071,0.0006,0.0494
42514,45.803936,-0.139723,150.18,19.35,3.216,151.1,14 / 17,4251410,2019-08-09 23:46:08:637,-0.4476,-0.7929,9.9332,0.4057,-0.6211,9.7786,-0.0081,0.0083,0.0471
42515,45.803936,-0.139723,150.18,19.35,3.216,151.1,14 / 17,4251510,2019-08-09 23:46:08:737,-0.4165,-0.432,10.1068,0.4044,-0.5914,9.7804,0.0384,0.0226,0.0562
42516,45.803936,-0.139723,150.18,19.35,3.216,151.1,14 / 16,4251611,2019-08-09 23:46:08:838,-0.2411,0.5778,9.5376,0.421,-0.601,9.7792,0.0287,0.0361,0.0492
42517,45.803936,-0.139723,150.18,19.35,3.216,151.1,14 / 16,4251710,2019-08-09 23:46:08:937,-0.1806,-0.6918,10.0954,0.4332,-0.5938,9.7791,0.0262,0.0351,0.0433
42518,45.803936,-0.139723,150.18,19.35,3.216,151.1,14 / 16,4251810,2019-08-09 23:46:09:037,-0.4823,-0.247,9.6567,0.4674,-0.6187,9.7759,0.0137,0.0419,0.0399
42519,45.803936,-0.139723,150.18,19.35,3.216,151.1,14 / 16,4251910,2019-08-09 23:46:09:137,-0.5314,-0.3231,10.1313,0.4865,-0.6054,9.7759,0.0341,0.0546,0.0659
42520,45.803936,-0.139723,150.18,19.35,3.216,151.1,14 / 16,4252010,2019-08-09 23:46:09:237,-0.8163,-0.8665,9.8608,0.5227,-0.6224,9.7729,0.0255,0.0526,0.0789
42521,45.803936,-0.139723,150.18,19.35,3.216,151.1,14 / 16,4252110,2019-08-09 23:46:09:337,0.0845,-0.5409,9.3766,0.5374,-0.6189,9.7723,-0.0226,0.0485,0.0484
42522,45.803936,-0.139723,150.18,19.35,3.216,151.1,14 / 16,4252211,2019-08-09 23:46:09:438,-0.7241,-1.182,9.4125,0.5729,-0.6088,9.771,-0.0005,0.0347,0.0691
42523,45.803936,-0.139723,150.18,19.35,3.216,151.1,14 / 16,4252317,2019-08-09 23:46:09:544,-0.7116,-0.5822,9.8434,0.5719,-0.5932,9.772,0.0033,0.0032,0.0838
42524,45.803936,-0.139723,150.18,19.35,3.216,151.1,14 / 16,4252410,2019-08-09 23:46:09:637,-0.2674,0.0181,10.1038,0.5519,-0.6091,9.7721,0.0336,0.0062,0.0843
42525,45.803936,-0.139723,150.18,19.35,3.216,151.1,14 / 16,4252510,2019-08-09 23:46:09:737,0.0576,-0.7361,9.7638,0.536,-0.613,9.7728,0.0148,-0.0057,0.0567
42526,45.803936,-0.139723,150.18,19.35,3.216,151.1,13 / 16,4252610,2019-08-09 23:46:09:837,-0.6116,-1.9661,9.6058,0.507,-0.6229,9.7737,0.0219,-0.0011,0.0755
42527,45.803936,-0.139723,150.18,19.35,3.216,151.1,13 / 16,4252711,2019-08-09 23:46:09:938,-0.5667,-0.1998,9.5591,0.491,-0.61,9.7753,-0.0522,-0.0041,0.0898
42528,45.803936,-0.139723,150.18,19.35,3.216,151.1,13 / 16,4252810,2019-08-09 23:46:10:037,-0.8941,0.3467,9.4813,0.4585,-0.5947,9.7779,-0.0676,-0.0028,0.1239
42529,45.803936,-0.139723,150.18,19.35,3.216,151.1,13 / 16,4252910,2019-08-09 23:46:10:137,-0.3064,-0.5505,10.0284,0.4373,-0.6219,9.7771,-0.0125,0.0004,0.0985
42530,45.803936,-0.139723,150.18,19.35,3.216,151.1,13 / 16,4253010,2019-08-09 23:46:10:237,0.0181,-0.3201,9.7896,0.4063,-0.5987,9.7799,-0.0068,-0.0238,0.0636
42531,45.803936,-0.139723,150.18,19.35,3.216,151.1,13 / 16,4253110,2019-08-09 23:46:10:337,0.0923,0.7633,10.2828,0.3846,-0.617,9.7797,-0.007,-0.0175,0.0695
42532,45.803936,-0.139723,150.18,19.35,3.216,151.1,13 / 16,4253210,2019-08-09 23:46:10:437,-0.2507,-0.1824,10.1738,0.3444,-0.6211,9.7809,0.0016,-0.0081,0.0789
42533,45.803936,-0.139723,150.18,19.35,3.216,151.1,13 / 16,4253310,2019-08-09 23:46:10:537,-0.5146,-0.6912,9.6375,0.33,-0.6153,9.7818,0.0033,0.0056,0.0809
42534,45.803936,-0.139723,150.18,19.35,3.216,151.1,13 / 16,4253410,2019-08-09 23:46:10:637,-0.183,-0.0489,9.8021,0.3235,-0.6314,9.781,-0.0033,0.0058,0.0495
42535,45.803936,-0.139723,150.18,19.35,3.216,151.1,13 / 16,4253510,2019-08-09 23:46:10:737,0.5275,-0.6229,10.4575,0.3196,-0.6273,9.7813,0.0034,-0.0047,0.0296
42536,45.803936,-0.139723,150.18,19.35,3.216,151.1,13 / 16,4253610,2019-08-09 23:46:10:837,-0.933,-0.3404,10.2504,0.3246,-0.619,9.7817,0.0271,0.0165,0.094
42537,45.803936,-0.139723,150.18,19.35,3.216,151.1,13 / 16,4253710,2019-08-09 23:46:10:937,-1.0378,-1.4172,9.4586,0.3272,-0.6236,9.7813,0.0231,0.0319,0.0627
42538,45.803936,-0.139723,150.18,19.35,3.216,151.1,13 / 16,4253810,2019-08-09 23:46:11:037,-0.1639,-0.4919,9.8871,0.3319,-0.6336,9.7805,0.0124,-0.0062,0.0722
42539,45.803936,-0.139723,150.18,19.35,3.216,151.1,13 / 16,4253910,2019-08-09 23:46:11:137,-0.101,-0.4571,9.6716,0.3208,-0.6383,9.7806,-0.0039,0.0018,0.0762
42540,45.803936,-0.139723,150.18,19.35,3.216,151.1,13 / 16,4254011,2019-08-09 23:46:11:238,-0.3752,-0.2782,9.701,0.3137,-0.6309,9.7813,0.0079,0.0014,0.0697
42541,45.803936,-0.139723,150.18,19.35,3.216,151.1,13 / 16,4254111,2019-08-09 23:46:11:338,-0.2507,-1.4178,10.0014,0.3132,-0.6387,9.7808,0.0388,0.0151,0.0601
42542,45.803936,-0.139723,150.18,19.35,3.216,151.1,13 / 16,4254210,2019-08-09 23:46:11:437,-0.1633,-0.7486,9.7788,0.3146,-0.6282,9.7814,-0.008,0.0089,0.0679
42543,45.803936,-0.139723,150.18,19.35,3.216,151.1,13 / 16,4254310,2019-08-09 23:46:11:537,-0.304,0.3144,9.9033,0.3153,-0.6301,9.7813,0.0243,0.0109,0.0726
42544,45.803936,-0.139723,150.18,19.35,3.216,151.1,13 / 16,4254410,2019-08-09 23:46:11:637,-0.6104,-0.9234,9.507,0.3123,-0.6122,9.7825,0.0125,0.0159,0.0836
42545,45.803936,-0.139723,150.18,19.35,3.216,151.1,13 / 16,4254510,2019-08-09 23:46:11:737,-0.3022,-0.4009,9.7064,0.3111,-0.595,9.7836,0.0068,-0.0006,0.0788
42546,45.803936,-0.139723,150.18,19.35,3.216,151.1,14 / 16,4254610,2019-08-09 23:46:11:837,-0.377,-0.4518,9.7291,0.3047,-0.5968,9.7837,0.0137,0.0016,0.0699
42547,45.803936,-0.139723,150.18,19.35,3.216,151.1,14 / 16,4254711,2019-08-09 23:46:11:938,-0.4524,0.0403,9.7961,0.293,-0.5948,9.7842,0.013,0.0202,0.0927
42548,45.803936,-0.139723,150.18,19.35,3.216,151.1,14 / 16,4254811,2019-08-09 23:46:12:038,-0.2124,-0.1872,9.6423,0.2937,-0.6051,9.7836,0.0036,0.0244,0.0654
42549,45.803936,-0.139723,150.18,19.35,3.216,151.1,14 / 16,4254911,2019-08-09 23:46:12:138,-0.3554,-0.3302,9.5166,0.3148,-0.5983,9.7833,0.0156,0.0335,0.0741
42550,45.803936,-0.139723,150.18,19.35,3.216,151.1,14 / 16,4255010,2019-08-09 23:46:12:237,-0.0382,-0.4547,9.5346,0.3332,-0.5986,9.7827,-0.0235,0.0301,0.0679
42551,45.803936,-0.139723,150.18,19.35,3.216,151.1,14 / 16,4255110,2019-08-09 23:46:12:337,0.1055,0.2976,9.3843,0.3594,-0.5774,9.783,-0.0072,0.0248,0.0716
42552,45.803936,-0.139723,150.18,19.35,3.216,151.1,14 / 16,4255210,2019-08-09 23:46:12:437,0.03,-0.9647,9.2766,0.3776,-0.5613,9.7833,-0.0224,0.0264,0.0759
42553,45.803936,-0.139723,150.18,19.35,3.216,151.1,14 / 16,4255310,2019-08-09 23:46:12:537,0.4191,-0.8013,9.7279,0.406,-0.5387,9.7834,-0.005,0.0202,0.0738
42554,45.803936,-0.139723,150.18,19.35,3.216,151.1,14 / 16,4255410,2019-08-09 23:46:12:637,0.4903,0.2923,9.9673,0.4138,-0.5283,9.7837,-0.0122,0.0087,0.0967
42555,45.803936,-0.139723,150.18,19.35,3.216,151.1,14 / 16,4255510,2019-08-09 23:46:12:737,-0.1298,-1.7811,9.631,0.4144,-0.5203,9.7841,0.0145,-0.0098,0.0278
42556,45.803936,-0.139723,150.18,19.35,3.216,151.1,14 / 15,4255610,2019-08-09 23:46:12:837,-0.617,-0.8408,8.9169,0.419,-0.4971,9.7851,-0.0308,0.0215,0.1164
42557,45.803936,-0.139723,150.18,19.35,3.216,151.1,14 / 15,4255710,2019-08-09 23:46:12:937,0.1144,1.2056,8.9336,0.441,-0.4721,9.7854,-0.0597,0.0251,0.0746
42558,45.803936,-0.139723,150.18,19.35,3.216,151.1,14 / 15,4255811,2019-08-09 23:46:13:038,0.5035,-1.6488,9.0426,0.4521,-0.4531,9.7857,-0.0292,0.0199,0.0446
42559,45.803936,-0.139723,150.18,19.35,3.216,151.1,14 / 15,4255911,2019-08-09 23:46:13:138,0.3622,-0.0711,9.5495,0.4701,-0.4048,9.787,-0.0171,0.0024,0.0786
42560,45.803936,-0.139723,150.18,19.35,3.216,151.1,14 / 15,4256010,2019-08-09 23:46:13:237,0.1186,0.5532,9.4508,0.4685,-0.3967,9.7874,-0.0349,0.0065,0.0452
42561,45.803936,-0.139723,150.18,19.35,3.216,151.1,14 / 15,4256110,2019-08-09 23:46:13:337,0.8423,-1.1048,9.613,0.4783,-0.4111,9.7863,0.0483,-0.003,0.053
42562,45.803936,-0.139723,150.18,19.35,3.216,151.1,14 / 15,4256210,2019-08-09 23:46:13:437,0.4089,0.3964,9.8045,0.4779,-0.4094,9.7864,-0.0168,0.0201,0.0672
42563,45.803936,-0.139723,150.18,19.35,3.216,151.1,14 / 15,4256310,2019-08-09 23:46:13:537,0.8112,-0.8055,10.2187,0.4928,-0.4249,9.785,0.04,0.0038,0.0142
42564,45.803936,-0.139723,150.18,19.35,3.216,151.1,14 / 15,4256410,2019-08-09 23:46:13:637,-0.3315,-0.684,9.446,0.5046,-0.4038,9.7853,0.0486,-0.0157,-0.0243
42565,45.803936,-0.139723,150.18,19.35,3.216,151.1,14 / 15,4256511,2019-08-09 23:46:13:738,-0.0735,-0.5152,9.0581,0.4911,-0.4016,9.7861,0.0754,-0.0257,0.0329
42566,45.803936,-0.139723,150.18,19.35,3.216,151.1,14 / 16,4256611,2019-08-09 23:46:13:838,-0.1741,-2.0062,9.2682,0.4829,-0.4272,9.7854,-0.0795,-0.01,0.0985
42567,45.803936,-0.139723,150.18,19.35,3.216,151.1,14 / 16,4256710,2019-08-09 23:46:13:937,0.5478,0.1139,9.7273,0.4702,-0.394,9.7874,-0.0774,-0.0022,0.1121
42568,45.803936,-0.139723,150.18,19.35,3.216,151.1,14 / 16,4256810,2019-08-09 23:46:14:037,0.276,-1.3699,9.5472,0.4489,-0.4102,9.7878,0.0881,-0.0073,0.0217
42569,45.803936,-0.139723,150.18,19.35,3.216,151.1,14 / 16,4256910,2019-08-09 23:46:14:137,-0.2668,0.2827,9.5908,0.4484,-0.4406,9.7865,-0.0419,-0.0026,0.0949
42570,45.803936,-0.139723,150.18,19.35,3.216,151.1,14 / 16,4257011,2019-08-09 23:46:14:238,-0.1393,-0.4122,9.4238,0.444,-0.4361,9.7869,-0.0058,0.0111,0.102
42571,45.803936,-0.139723,150.18,19.35,3.216,151.1,14 / 16,4257111,2019-08-09 23:46:14:338,0.4999,-0.6612,10.1678,0.44,-0.4503,9.7864,0.0311,-0.0031,0.0462
42572,45.803936,-0.139723,150.18,19.35,3.216,151.1,14 / 16,4257210,2019-08-09 23:46:14:437,0.203,0.7238,10.2068,0.4316,-0.4583,9.7864,0.0591,-0.0162,0.0554
42573,45.803936,-0.139723,150.18,19.35,3.216,151.1,14 / 16,4257310,2019-08-09 23:46:14:537,0.0157,0.8387,9.3616,0.4158,-0.45,9.7875,0.0295,-0.0109,0.0526
42574,45.803936,-0.139723,150.18,19.35,3.216,151.1,14 / 16,4257410,2019-08-09 23:46:14:637,0.3503,-1.1311,9.9153,0.3974,-0.448,9.7883,-0.0213,-0.0062,0.0508
42575,45.803936,-0.139723,150.18,19.35,3.216,151.1,14 / 16,4257510,2019-08-09 23:46:14:737,0.0701,-0.1219,10.1649,0.3912,-0.4511,9.7885,-0.0152,-0.0027,0.0632
42576,45.803936,-0.139723,150.18,19.35,3.216,151.1,14 / 16,4257611,2019-08-09 23:46:14:838,0.0031,-0.3644,10.0326,0.3869,-0.4558,9.7884,0.0114,0.0034,0.0432
42577,45.803936,-0.139723,150.18,19.35,3.216,151.1,14 / 16,4257711,2019-08-09 23:46:14:938,0.3748,-0.4931,9.7231,0.3859,-0.4614,9.7882,0.0114,0.0034,0.0432
42578,45.803936,-0.139723,150.18,19.35,3.216,151.1,14 / 16,4257810,2019-08-09 23:46:15:037,1.1404,-0.1483,10.0062,0.404,-0.4859,9.7863,0.0096,-0.0009,0.0107
42579,45.803936,-0.139723,150.18,19.35,3.216,151.1,14 / 16,4257911,2019-08-09 23:46:15:138,0.8034,-0.1998,10.029,0.4127,-0.4888,9.7858,0.0377,0.0093,0.0264
42580,45.803936,-0.139723,150.18,19.35,3.216,151.1,14 / 16,4258010,2019-08-09 23:46:15:237,0.3299,-1.2245,9.5364,0.4309,-0.5034,9.7842,0.0379,0.0002,0.0472
42581,45.803936,-0.139723,150.18,19.35,3.216,151.1,14 / 16,4258110,2019-08-09 23:46:15:337,0.1174,-0.447,9.4095,0.4373,-0.5128,9.7835,-0.0282,0.007,0.0546
42582,45.803936,-0.139723,150.18,19.35,3.216,151.1,14 / 16,4258210,2019-08-09 23:46:15:437,0.5472,0.0499,9.5561,0.4526,-0.5007,9.7834,-0.0016,0.0208,0.0722
42583,45.803936,-0.139723,150.18,19.35,3.216,151.1,14 / 16,4258311,2019-08-09 23:46:15:538,-0.0573,-0.8671,9.7022,0.4704,-0.4995,9.7826,-0.0052,0.0203,0.03
42584,45.803936,-0.139723,150.18,19.35,3.216,151.1,14 / 16,4258411,2019-08-09 23:46:15:638,0.2796,-0.6517,9.9003,0.4936,-0.4966,9.7816,0.0073,0.0123,0.0436
42585,45.803936,-0.139723,150.18,19.35,3.216,151.1,14 / 16,4258510,2019-08-09 23:46:15:737,0.1372,-0.3141,9.431,0.5056,-0.5101,9.7803,-0.0148,0.0135,0.0766
42586,45.803936,-0.139723,150.18,19.35,3.216,151.1,14 / 16,4258610,2019-08-09 23:46:15:837,0.1617,-1.237,9.4221,0.5263,-0.5129,9.7791,0.0345,0.0097,0.0298
42587,45.803936,-0.139723,150.18,19.35,3.216,151.1,14 / 16,4258710,2019-08-09 23:46:15:937,0.1803,0.2204,10.0284,0.5318,-0.5206,9.7784,0.007,-0.0027,0.0985
42588,45.803936,-0.139723,150.18,19.35,3.216,151.1,14 / 16,4258810,2019-08-09 23:46:16:037,-0.0274,-0.1243,9.3526,0.5196,-0.5163,9.7793,0.0,0.0033,0.0871
42589,45.803936,-0.139723,150.18,19.35,3.216,151.1,14 / 16,4258911,2019-08-09 23:46:16:138,0.1444,-0.2794,9.7902,0.5176,-0.5321,9.7785,0.0182,0.0037,0.0661
42590,45.803936,-0.139723,150.18,19.35,3.216,151.1,14 / 16,4259010,2019-08-09 23:46:16:237,0.0109,-0.6211,9.9667,0.4881,-0.5145,9.781,-0.0313,-0.0268,0.0915
42591,45.803936,-0.139723,150.18,19.35,3.216,151.1,14 / 16,4259110,2019-08-09 23:46:16:337,-0.1423,-0.599,10.9256,0.4601,-0.5643,9.7796,-0.0447,-0.0489,0.0933
42592,45.803936,-0.139723,150.18,19.35,3.216,151.1,14 / 16,4259210,2019-08-09 23:46:16:437,-0.2812,-1.0928,9.2928,0.404,-0.578,9.7813,0.0756,-0.0154,0.0739
42593,45.803936,-0.139723,150.18,19.35,3.216,151.1,14 / 16,4259310,2019-08-09 23:46:16:537,0.9351,0.2001,10.1295,0.3809,-0.5875,9.7816,0.0164,-0.0447,0.0223
42594,45.803936,-0.139723,150.18,19.35,3.216,151.1,14 / 16,4259410,2019-08-09 23:46:16:637,0.2575,0.005,9.7345,0.3388,-0.5883,9.7831,0.0267,-0.0302,0.0486
42595,45.803936,-0.139723,150.18,19.35,3.216,151.1,14 / 16,4259511,2019-08-09 23:46:16:738,-0.5907,-0.766,9.1671,0.3224,-0.5574,9.7855,-0.0435,-0.0162,0.0985
42596,45.802856,-0.138247,144.69,18.49,3.216,120.7,15 / 17,4259610,2019-08-09 23:46:16:837,-0.028,0.0223,9.5974,0.2903,-0.5673,9.7859,-0.0757,-0.007,0.1185
42597,45.802856,-0.138247,144.69,18.49,3.216,120.7,15 / 17,4259710,2019-08-09 23:46:16:937,-0.3991,-1.0719,9.4562,0.2719,-0.5359,9.7882,0.0667,0.0025,0.0801
42598,45.802856,-0.138247,144.69,18.49,3.216,120.7,15 / 17,4259811,2019-08-09 23:46:17:038,-0.4859,-0.4332,9.7644,0.2709,-0.5292,9.7886,0.0368,0.0212,0.0932
42599,45.802856,-0.138247,144.69,18.49,3.216,120.7,15 / 17,4259910,2019-08-09 23:46:17:137,-0.0268,-1.5489,9.7034,0.2735,-0.5258,9.7887,0.006,0.0062,0.0608
42600,45.802856,-0.138247,144.69,18.49,3.216,120.7,15 / 17,4260010,2019-08-09 23:46:17:237,-0.119,-1.1107,9.8716,0.2757,-0.5337,9.7882,-0.0043,0.0022,0.1035
42601,45.802856,-0.138247,144.69,18.49,3.216,120.7,15 / 17,4260110,2019-08-09 23:46:17:337,0.2671,-0.1291,9.6926,0.2675,-0.5346,9.7884,0.0343,0.0001,0.0537
42602,45.802856,-0.138247,144.69,18.49,3.216,120.7,15 / 17,4260210,2019-08-09 23:46:17:437,0.2407,-1.2017,10.2546,0.2683,-0.5694,9.7864,0.0198,0.0044,0.0713
42603,45.802856,-0.138247,144.69,18.49,3.216,120.7,15 / 17,4260310,2019-08-09 23:46:17:537,0.2808,-1.5674,9.4735,0.2691,-0.5665,9.7866,-0.0183,-0.0098,0.0508
42604,45.802856,-0.138247,144.69,18.49,3.216,120.7,15 / 17,4260410,2019-08-09 23:46:17:637,0.3844,-0.5212,9.091,0.2652,-0.5673,9.7866,0.0148,-0.0098,0.0264
42605,45.802856,-0.138247,144.69,18.49,3.216,120.7,15 / 17,4260510,2019-08-09 23:46:17:737,0.8483,-1.015,10.3534,0.2632,-0.5785,9.786,-0.0149,-0.0184,0.0517
42606,45.802856,-0.138247,144.69,18.49,3.216,120.7,14 / 16,4260610,2019-08-09 23:46:17:837,0.2509,-1.0916,10.1505,0.2513,-0.5667,9.787,-0.0222,-0.0289,0.0304
42607,45.802856,-0.138247,144.69,18.49,3.216,120.7,14 / 16,4260710,2019-08-09 23:46:17:937,0.4155,-0.523,9.4478,0.2447,-0.5598,9.7876,0.0254,-0.0178,-0.0017
42608,45.802856,-0.138247,144.69,18.49,3.216,120.7,14 / 16,4260810,2019-08-09 23:46:18:037,1.1936,0.0804,10.348,0.24,-0.5796,9.7866,0.0254,-0.0178,-0.0017
42609,45.802856,-0.138247,144.69,18.49,3.216,120.7,14 / 16,4260910,2019-08-09 23:46:18:137,0.6771,0.7519,10.8388,0.2237,-0.5966,9.7859,0.0555,-0.0389,0.0316
42610,45.802856,-0.138247,144.69,18.49,3.216,120.7,14 / 16,4261011,2019-08-09 23:46:18:238,0.2096,-0.6505,9.8823,0.204,-0.5712,9.7879,0.028,-0.0264,0.0609
42611,45.802856,-0.138247,144.69,18.49,3.216,120.7,14 / 16,4261111,2019-08-09 23:46:18:338,1.2086,-0.274,9.2443,0.1794,-0.5843,9.7876,-0.0054,-0.0425,-0.0181
42612,45.802856,-0.138247,144.69,18.49,3.216,120.7,14 / 16,4261210,2019-08-09 23:46:18:437,0.7232,-0.45,9.4388,0.1691,-0.556,9.7894,-0.0027,-0.0256,0.0258
42613,45.802856,-0.138247,144.69,18.49,3.216,120.7,14 / 16,4261310,2019-08-09 23:46:18:537,1.199,-0.1399,10.448,0.1429,-0.5649,9.7893,-0.0419,-0.0537,0.0608
42614,45.802856,-0.138247,144.69,18.49,3.216,120.7,14 / 16,4261410,2019-08-09 23:46:18:637,0.4383,-0.4613,9.2814,0.1228,-0.5338,9.7913,0.054,-0.0559,-0.011
42615,45.802856,-0.138247,144.69,18.49,3.216,120.7,14 / 16,4261510,2019-08-09 23:46:18:737,0.528,0.0918,9.2712,0.0841,-0.5558,9.7905,0.0297,-0.0183,0.0222
42616,45.802856,-0.138247,144.69,18.49,3.216,120.7,14 / 15,4261611,2019-08-09 23:46:18:838,1.5151,0.4084,9.7189,0.0854,-0.525,9.7922,-0.0294,-0.0279,-0.0369
42617,45.802856,-0.138247,144.69,18.49,3.216,120.7,14 / 15,4261710,2019-08-09 23:46:18:937,0.6082,0.6023,9.4927,0.0757,-0.5061,9.7933,0.0059,-0.0186,0.002
42618,45.802856,-0.138247,144.69,18.49,3.216,120.7,14 / 15,4261810,2019-08-09 23:46:19:037,0.6029,0.0552,9.0875,0.0853,-0.5004,9.7935,-0.025,-0.003,-0.0077
42619,45.802856,-0.138247,144.69,18.49,3.216,120.7,14 / 15,4261910,2019-08-09 23:46:19:137,1.3403,-0.9731,9.8799,0.1046,-0.5231,9.7921,-0.0014,-0.026,-0.0364
42620,45.802856,-0.138247,144.69,18.49,3.216,120.7,14 / 15,4262010,2019-08-09 23:46:19:237,0.3491,-0.183,9.9991,0.1087,-0.5292,9.7918,0.022,-0.0148,0.0407
42621,45.802856,-0.138247,144.69,18.49,3.216,120.7,14 / 15,4262110,2019-08-09 23:46:19:337,0.6974,0.4299,9.4448,0.1113,-0.5232,9.7921,-0.0076,-0.0136,-0.0135
42622,45.802856,-0.138247,144.69,18.49,3.216,120.7,14 / 15,4262210,2019-08-09 23:46:19:437,1.0446,-1.4429,10.0996,0.1172,-0.5531,9.7903,0.0161,-0.0189,0.0191
42623,45.802856,-0.138247,144.69,18.49,3.216,120.7,14 / 15,4262310,2019-08-09 23:46:19:537,1.217,-0.1183,9.2186,0.1044,-0.5219,9.7922,-0.0358,-0.0301,0.0229
42624,45.802856,-0.138247,144.69,18.49,3.216,120.7,14 / 15,4262410,2019-08-09 23:46:19:637,0.9955,-0.7714,9.3634,0.0905,-0.5235,9.7922,-0.0005,-0.0373,0.0343
42625,45.802856,-0.138247,144.69,18.49,3.216,120.7,14 / 15,4262511,2019-08-09 23:46:19:738,0.6496,0.0373,10.029,0.0594,-0.5019,9.7936,-0.0165,-0.0553,-0.0392
42626,45.802856,-0.138247,144.69,18.49,3.216,120.7,13 / 15,4262611,2019-08-09 23:46:19:838,-0.2752,-1.0,10.2421,0.0484,-0.5194,9.7928,0.0427,-0.0436,0.0554
42627,45.802856,-0.138247,144.69,18.49,3.216,120.7,13 / 15,4262711,2019-08-09 23:46:19:938,1.1559,-1.5543,9.9254,0.0277,-0.5169,9.793,0.0391,-0.0339,-0.0059
42628,45.802856,-0.138247,144.69,18.49,3.216,120.7,13 / 15,4262811,2019-08-09 23:46:20:038,0.6879,0.9626,10.4378,0.0087,-0.5292,9.7924,0.0243,-0.0521,0.0109
42629,45.802856,-0.138247,144.69,18.49,3.216,120.7,13 / 15,4262911,2019-08-09 23:46:20:138,-0.049,-1.0659,10.4839,-0.0056,-0.5344,9.7921,0.0475,0.0014,-0.0407
42630,45.802856,-0.138247,144.69,18.49,3.216,120.7,13 / 15,4263011,2019-08-09 23:46:20:238,-0.0693,-0.8079,9.9805,0.0043,-0.565,9.7904,-0.0417,0.0226,0.0286
42631,45.802856,-0.138247,144.69,18.49,3.216,120.7,13 / 15,4263111,2019-08-09 23:46:20:338,0.8279,-1.3442,9.3347,0.0418,-0.5586,9.7906,-0.0504,0.0007,0.0
42632,45.802856,-0.138247,144.69,18.49,3.216,120.7,13 / 15,4263210,2019-08-09 23:46:20:437,1.2128,-0.4745,9.6112,0.046,-0.5367,9.7918,0.0149,-0.0111,0.0235
42633,45.802856,-0.138247,144.69,18.49,3.216,120.7,13 / 15,4263310,2019-08-09 23:46:20:537,0.71,-0.3219,9.6274,0.0468,-0.531,9.7922,0.0145,-0.016,0.0399
42634,45.802856,-0.138247,144.69,18.49,3.216,120.7,13 / 15,4263410,2019-08-09 23:46:20:637,-0.049,0.0516,9.68,0.04,-0.5373,9.7918,0.0141,-0.0135,-0.0104
42635,45.802856,-0.138247,144.69,18.49,3.216,120.7,13 / 15,4263510,2019-08-09 23:46:20:737,-0.013,0.1989,9.7566,0.0382,-0.5271,9.7924,0.0056,-0.005,0.049
42636,45.802856,-0.138247,144.69,18.49,3.216,120.7,15 / 17,4263611,2019-08-09 23:46:20:838,-0.0202,-0.9126,9.5322,0.0327,-0.5174,9.7929,0.0133,-0.0109,0.0486
42637,45.802856,-0.138247,144.69,18.49,3.216,120.7,15 / 17,4263710,2019-08-09 23:46:20:937,0.1204,-0.7648,10.2079,0.0301,-0.5282,9.7924,0.0582,-0.0008,0.0168
42638,45.802856,-0.138247,144.69,18.49,3.216,120.7,15 / 17,4263810,2019-08-09 23:46:21:037,0.7728,0.2282,9.7949,0.0278,-0.5172,9.793,-0.0558,-0.0275,0.0125
42639,45.802856,-0.138247,144.69,18.49,3.216,120.7,15 / 17,4263910,2019-08-09 23:46:21:137,0.3096,-1.3867,9.7082,0.0323,-0.5353,9.792,0.0354,0.0287,-0.0288
42640,45.802856,-0.138247,144.69,18.49,3.216,120.7,15 / 17,4264010,2019-08-09 23:46:21:237,0.1252,-0.0705,10.2983,0.0804,-0.5538,9.7907,-0.0064,0.0422,-0.0004
42641,45.802856,-0.138247,144.69,18.49,3.216,120.7,15 / 17,4264111,2019-08-09 23:46:21:338,0.1863,-1.1521,9.2359,0.1161,-0.5536,9.7903,-0.0067,0.0578,0.0114
42642,45.802856,-0.138247,144.69,18.49,3.216,120.7,15 / 17,4264211,2019-08-09 23:46:21:438,0.8704,0.1899,9.4071,0.1871,-0.5454,9.7897,-0.0176,0.0477,-0.008
42643,45.802856,-0.138247,144.69,18.49,3.216,120.7,15 / 17,4264311,2019-08-09 23:46:21:538,0.6525,0.4377,9.2581,0.221,-0.5568,9.7883,-0.0479,0.0151,0.0098
42644,45.802856,-0.138247,144.69,18.49,3.216,120.7,15 / 17,4264410,2019-08-09 23:46:21:637,0.6513,-1.0557,10.1864,0.2569,-0.5321,9.7888,0.0326,0.0137,0.0205
42645,45.802856,-0.138247,144.69,18.49,3.216,120.7,15 / 17,4264510,2019-08-09 23:46:21:737,0.8028,-0.0447,9.1581,0.2634,-0.541,9.7882,-0.0358,-0.0141,0.0122
42646,45.802856,-0.138247,144.69,18.49,3.216,120.7,Dec-13,4264610,2019-08-09 23:46:21:837,0.5203,-0.2812,9.5328,0.2622,-0.5099,9.7899,-0.025,-0.0199,-0.0035
42647,45.802856,-0.138247,144.69,18.49,3.216,120.7,Dec-13,4264710,2019-08-09 23:46:21:937,0.968,-0.3027,9.7746,0.252,-0.494,9.791,-0.0052,-0.0304,0.015
42648,45.802856,-0.138247,144.69,18.49,3.216,120.7,Dec-13,4264810,2019-08-09 23:46:22:037,0.6388,-0.6564,10.1577,0.2311,-0.5028,9.791,0.0177,-0.033,-0.0385
42649,45.802856,-0.138247,144.69,18.49,3.216,120.7,Dec-13,4264910,2019-08-09 23:46:22:137,-0.1334,-0.4787,9.4478,0.231,-0.5005,9.7911,-0.0151,-0.0114,0.0532
42650,45.802856,-0.138247,144.69,18.49,3.216,120.7,Dec-13,4265011,2019-08-09 23:46:22:238,0.9931,-1.3735,10.1631,0.2295,-0.5218,9.7901,-0.0563,0.0051,0.0259
42651,45.802856,-0.138247,144.69,18.49,3.216,120.7,Dec-13,4265111,2019-08-09 23:46:22:338,0.6059,0.8309,10.6772,0.2186,-0.5323,9.7898,0.0804,0.0029,0.0217
42652,45.802856,-0.138247,144.69,18.49,3.216,120.7,Dec-13,4265211,2019-08-09 23:46:22:438,0.6801,-0.1076,8.137,0.2583,-0.4881,9.7911,-0.0178,0.0176,-0.0116
42653,45.802856,-0.138247,144.69,18.49,3.216,120.7,Dec-13,4265310,2019-08-09 23:46:22:537,1.1374,0.2396,11.0621,0.2729,-0.5383,9.7881,0.0474,-0.0067,0.0068
42654,45.802856,-0.138247,144.69,18.49,3.216,120.7,Dec-13,4265410,2019-08-09 23:46:22:637,1.879,-0.329,10.6664,0.2769,-0.521,9.7889,0.0774,-0.0158,0.0208
42655,45.802856,-0.138247,144.69,18.49,3.216,120.7,Dec-13,4265510,2019-08-09 23:46:22:737,0.7076,-1.3837,10.5036,0.2719,-0.5103,9.7896,0.0035,-0.0273,-0.006
42656,45.802856,-0.138247,144.69,18.49,3.216,120.7,15 / 17,4265610,2019-08-09 23:46:22:837,0.7268,0.06,10.09,0.2606,-0.5474,9.7879,0.0291,-0.0082,0.0477
42657,45.802856,-0.138247,144.69,18.49,3.216,120.7,15 / 17,4265710,2019-08-09 23:46:22:937,0.9476,0.5395,9.8231,0.2562,-0.5339,9.7888,-0.0172,-0.0035,-0.0383
42658,45.802856,-0.138247,144.69,18.49,3.216,120.7,15 / 17,4265810,2019-08-09 23:46:23:037,0.8183,-0.915,10.6521,0.2813,-0.5774,9.7856,0.0505,0.0069,-0.0112
42659,45.802856,-0.138247,144.69,18.49,3.216,120.7,15 / 17,4265910,2019-08-09 23:46:23:137,0.5209,-0.1369,9.4801,0.2895,-0.5402,9.7875,-0.0553,0.0046,0.0218
42660,45.802856,-0.138247,144.69,18.49,3.216,120.7,15 / 17,4266010,2019-08-09 23:46:23:237,1.2355,-0.0178,10.5862,0.3146,-0.5818,9.7843,0.0326,0.0006,-0.0108
42661,45.802856,-0.138247,144.69,18.49,3.216,120.7,15 / 17,4266110,2019-08-09 23:46:23:337,0.9267,0.321,10.2965,0.3129,-0.602,9.7832,0.0056,-0.0061,0.0111
42662,45.802856,-0.138247,144.69,18.49,3.216,120.7,15 / 17,4266211,2019-08-09 23:46:23:438,0.9482,-0.748,9.1772,0.3119,-0.6328,9.7812,-0.0163,-0.0377,-0.0005
42663,45.802856,-0.138247,144.69,18.49,3.216,120.7,15 / 17,4266311,2019-08-09 23:46:23:538,0.789,-1.3382,10.0835,0.2977,-0.616,9.7828,0.033,-0.0378,-0.0016
42664,45.802856,-0.138247,144.69,18.49,3.216,120.7,15 / 17,4266411,2019-08-09 23:46:23:638,0.2892,0.0828,9.6292,0.2777,-0.6284,9.7826,0.0175,0.0,-0.0221
42665,45.802856,-0.138247,144.69,18.49,3.216,120.7,15 / 17,4266510,2019-08-09 23:46:23:737,0.8632,-1.3993,9.4951,0.278,-0.6227,9.7829,0.0206,0.0038,0.0083
42666,45.802856,-0.138247,144.69,18.49,3.216,120.7,14 / 16,4266610,2019-08-09 23:46:23:837,0.6675,-0.2453,10.4545,0.2929,-0.6418,9.7812,0.0023,0.011,-0.0027
42667,45.802856,-0.138247,144.69,18.49,3.216,120.7,14 / 16,4266710,2019-08-09 23:46:23:937,0.7627,-0.3332,10.4414,0.3116,-0.6692,9.7788,0.0527,0.0161,-0.0106
42668,45.802856,-0.138247,144.69,18.49,3.216,120.7,14 / 16,4266810,2019-08-09 23:46:24:037,0.6795,-0.4739,9.6567,0.3299,-0.6736,9.7779,0.006,0.023,-0.0109
42669,45.802856,-0.138247,144.69,18.49,3.216,120.7,14 / 16,4266910,2019-08-09 23:46:24:137,0.8878,0.2139,9.619,0.3735,-0.6897,9.7752,0.0143,0.0135,0.011
42670,45.802856,-0.138247,144.69,18.49,3.216,120.7,14 / 16,4267010,2019-08-09 23:46:24:237,0.8387,-0.1956,9.9883,0.381,-0.7124,9.7733,0.0503,0.0058,0.034
42671,45.802856,-0.138247,144.69,18.49,3.216,120.7,14 / 16,4267111,2019-08-09 23:46:24:338,0.9823,0.2216,10.2002,0.3809,-0.724,9.7725,-0.0031,-0.022,-0.0462
42672,45.802856,-0.138247,144.69,18.49,3.216,120.7,14 / 16,4267210,2019-08-09 23:46:24:437,0.0965,-0.4607,9.9069,0.3871,-0.7328,9.7716,0.0074,-0.0083,0.0471
42673,45.802856,-0.138247,144.69,18.49,3.216,120.7,14 / 16,4267310,2019-08-09 23:46:24:537,0.522,-1.0389,10.0858,0.3677,-0.7391,9.7718,-0.0056,-0.019,-0.005
42674,45.802856,-0.138247,144.69,18.49,3.216,120.7,14 / 16,4267410,2019-08-09 23:46:24:637,-0.0711,-1.2933,9.6244,0.358,-0.7673,9.77,0.0155,-0.0153,-0.0045
42675,45.802856,-0.138247,144.69,18.49,3.216,120.7,14 / 16,4267510,2019-08-09 23:46:24:737,0.9069,-0.1429,10.7682,0.3417,-0.7838,9.7693,0.0167,-0.0146,-0.0076
42676,45.802856,-0.138247,144.69,18.49,3.216,120.7,13 / 16,4267610,2019-08-09 23:46:24:837,0.3473,-0.9108,10.6138,0.3328,-0.8183,9.7668,0.0207,-0.0096,0.0062
42677,45.802856,-0.138247,144.69,18.49,3.216,120.7,13 / 16,4267710,2019-08-09 23:46:24:937,0.5693,-0.4505,10.1864,0.3268,-0.8422,9.765,0.0445,0.0042,0.0134
42678,45.802856,-0.138247,144.69,18.49,3.216,120.7,13 / 16,4267810,2019-08-09 23:46:25:037,0.7513,-0.9186,10.1104,0.333,-0.8721,9.7621,0.0336,0.0038,-0.0122
42679,45.802856,-0.138247,144.69,18.49,3.216,120.7,13 / 16,4267910,2019-08-09 23:46:25:137,0.5747,0.2551,10.2648,0.3393,-0.9021,9.7592,0.0561,-0.0219,-0.0086
42680,45.802856,-0.138247,144.69,18.49,3.216,120.7,13 / 16,4268010,2019-08-09 23:46:25:237,-0.1016,-1.0479,9.7716,0.3338,-0.9363,9.7561,-0.0236,-0.0069,0.0374
42681,45.802856,-0.138247,144.69,18.49,3.216,120.7,13 / 16,4268110,2019-08-09 23:46:25:337,0.1719,-1.1263,9.8764,0.3316,-0.9446,9.7554,-0.0218,-0.0012,0.0299
42682,45.802856,-0.138247,144.69,18.49,3.216,120.7,13 / 16,4268211,2019-08-09 23:46:25:438,0.9099,-1.0072,10.4797,0.3264,-0.9559,9.7545,0.0301,-0.0142,-0.019
42683,45.802856,-0.138247,144.69,18.49,3.216,120.7,13 / 16,4268311,2019-08-09 23:46:25:538,0.5939,0.7376,10.0463,0.3197,-0.9465,9.7556,-0.0567,-0.0033,-0.032
42684,45.802856,-0.138247,144.69,18.49,3.216,120.7,13 / 16,4268411,2019-08-09 23:46:25:638,0.2533,-0.1267,9.5819,0.3275,-0.9307,9.7569,-0.0435,-0.0018,-0.0091
42685,45.802856,-0.138247,144.69,18.49,3.216,120.7,13 / 16,4268510,2019-08-09 23:46:25:737,0.3269,0.145,9.5956,0.3393,-0.893,9.76,-0.0217,0.0146,0.0018
42686,45.802223,-0.136262,137.08,18.89,3.216,113.5,13 / 16,4268610,2019-08-09 23:46:25:837,0.7399,0.2522,10.7047,0.3469,-0.8759,9.7613,0.0442,0.0136,-0.0129
42687,45.802223,-0.136262,137.08,18.89,3.216,113.5,13 / 16,4268711,2019-08-09 23:46:25:938,0.7926,0.9231,10.6622,0.373,-0.846,9.763,0.0418,0.0166,-0.02
42688,45.802223,-0.136262,137.08,18.89,3.216,113.5,13 / 16,4268810,2019-08-09 23:46:26:037,0.8124,1.1961,10.278,0.3878,-0.8122,9.7653,0.0418,0.0133,-0.013
42689,45.802223,-0.136262,137.08,18.89,3.216,113.5,13 / 16,4268911,2019-08-09 23:46:26:138,0.9919,1.4487,10.5114,0.4135,-0.7888,9.7661,0.075,0.006,-0.0314
42690,45.802223,-0.136262,137.08,18.89,3.216,113.5,13 / 16,4269011,2019-08-09 23:46:26:238,0.868,2.3369,11.3434,0.427,-0.7448,9.769,0.0439,0.0069,-0.031
42691,45.802223,-0.136262,137.08,18.89,3.216,113.5,13 / 16,4269110,2019-08-09 23:46:26:337,0.3886,3.1797,10.4923,0.4536,-0.6691,9.7733,0.0161,0.0263,-0.0026
42692,45.802223,-0.136262,137.08,18.89,3.216,113.5,13 / 16,4269210,2019-08-09 23:46:26:437,0.6974,3.7375,9.9877,0.48,-0.6189,9.7753,0.0255,0.0143,-0.0306
42693,45.802223,-0.136262,137.08,18.89,3.216,113.5,13 / 16,4269310,2019-08-09 23:46:26:537,0.8818,4.1655,9.9518,0.5111,-0.5007,9.7805,-0.0356,0.0074,-0.0071
42694,45.802223,-0.136262,137.08,18.89,3.216,113.5,13 / 16,4269410,2019-08-09 23:46:26:637,0.5861,3.0408,10.3318,0.5276,-0.4718,9.7811,0.0359,0.0288,0.0091
42695,45.802223,-0.136262,137.08,18.89,3.216,113.5,13 / 16,4269510,2019-08-09 23:46:26:737,1.2313,1.9832,10.8981,0.5499,-0.3997,9.7831,0.0259,0.0004,0.0
42696,45.802223,-0.136262,137.08,18.89,3.216,113.5,13 / 16,4269611,2019-08-09 23:46:26:838,0.9063,1.5289,10.2193,0.551,-0.3787,9.7838,0.0411,0.008,-0.0168
42697,45.802223,-0.136262,137.08,18.89,3.216,113.5,13 / 16,4269711,2019-08-09 23:46:26:938,0.8195,1.8682,9.8261,0.5683,-0.3209,9.7849,0.0283,0.007,0.0009
42698,45.802223,-0.136262,137.08,18.89,3.216,113.5,13 / 16,4269810,2019-08-09 23:46:27:037,0.88,1.7234,10.0439,0.5753,-0.2861,9.7856,0.0091,-0.0051,-0.0219
42699,45.802223,-0.136262,137.08,18.89,3.216,113.5,13 / 16,4269910,2019-08-09 23:46:27:137,1.0524,1.0057,9.8722,0.5796,-0.2533,9.7862,0.0169,-0.0093,0.0234
42700,45.802223,-0.136262,137.08,18.89,3.216,113.5,13 / 16,4270010,2019-08-09 23:46:27:237,0.1593,1.7342,9.8273,0.5677,-0.1938,9.7883,0.0323,-0.0107,-0.0246
42701,45.802223,-0.136262,137.08,18.89,3.216,113.5,13 / 16,4270111,2019-08-09 23:46:27:338,0.6011,0.4257,9.4442,0.5676,-0.1935,9.7883,0.0153,-0.0203,0.0019
42702,45.802223,-0.136262,137.08,18.89,3.216,113.5,13 / 16,4270210,2019-08-09 23:46:27:437,0.3976,-0.4942,9.1701,0.5423,-0.1738,9.7901,-0.0264,-0.0235,0.0198
42703,45.802223,-0.136262,137.08,18.89,3.216,113.5,13 / 16,4270310,2019-08-09 23:46:27:537,0.8303,0.0337,9.5118,0.5204,-0.1794,9.7912,0.0079,-0.0463,0.0015
42704,45.802223,-0.136262,137.08,18.89,3.216,113.5,13 / 16,4270410,2019-08-09 23:46:27:637,0.3814,0.3084,9.8051,0.4406,-0.1764,9.7952,-0.0129,-0.0611,0.0447
42705,45.802223,-0.136262,137.08,18.89,3.216,113.5,13 / 16,4270511,2019-08-09 23:46:27:738,-0.3638,-0.8534,9.5466,0.4021,-0.1856,9.7966,-0.0317,-0.0217,0.0649
42706,45.802223,-0.136262,137.08,18.89,3.216,113.5,13 / 16,4270610,2019-08-09 23:46:27:837,0.8866,0.6807,10.0176,0.345,-0.2315,9.7978,0.0564,-0.0539,-0.0179
42707,45.802223,-0.136262,137.08,18.89,3.216,113.5,13 / 16,4270710,2019-08-09 23:46:27:937,0.0827,-0.1974,10.0727,0.3181,-0.2002,9.7994,0.031,-0.0257,-0.011
42708,45.802223,-0.136262,137.08,18.89,3.216,113.5,13 / 16,4270810,2019-08-09 23:46:28:037,1.0781,-0.6367,9.9757,0.2707,-0.2593,9.7995,0.0123,-0.0955,0.0035
42709,45.802223,-0.136262,137.08,18.89,3.216,113.5,13 / 16,4270910,2019-08-09 23:46:28:137,0.4095,-1.2724,10.0248,0.2261,-0.2669,9.8004,0.0123,-0.0955,0.0035
42710,45.802223,-0.136262,137.08,18.89,3.216,113.5,13 / 16,4271010,2019-08-09 23:46:28:237,0.4963,-0.9635,10.202,0.1256,-0.3657,9.799,0.0631,-0.0652,-0.0147
42711,45.802223,-0.136262,137.08,18.89,3.216,113.5,13 / 16,4271110,2019-08-09 23:46:28:337,0.3018,-2.8082,9.7656,0.0801,-0.3796,9.799,0.0186,-0.0602,-0.0285
42712,45.802223,-0.136262,137.08,18.89,3.216,113.5,13 / 16,4271211,2019-08-09 23:46:28:438,-0.7421,-0.4003,9.3855,0.0245,-0.4591,9.7959,-0.0041,-0.0205,-0.0136
42713,45.802223,-0.136262,137.08,18.89,3.216,113.5,13 / 16,4271311,2019-08-09 23:46:28:538,-0.7738,-0.2548,10.278,0.0215,-0.4903,9.7944,0.0448,0.0099,-0.0324
42714,45.802223,-0.136262,137.08,18.89,3.216,113.5,13 / 16,4271411,2019-08-09 23:46:28:638,-0.5787,-2.5736,9.4975,0.0202,-0.5323,9.7922,0.0406,-0.01,-0.0502
42715,45.802223,-0.136262,137.08,18.89,3.216,113.5,13 / 16,4271510,2019-08-09 23:46:28:737,0.2617,-2.1002,10.5012,0.024,-0.6059,9.7879,0.0241,0.0236,0.0574
42716,45.802223,-0.136262,137.08,18.89,3.216,113.5,10-Dec,4271610,2019-08-09 23:46:28:837,0.2354,-2.2618,9.5867,0.0388,-0.6201,9.787,-0.0383,0.0069,-0.0011
42717,45.802223,-0.136262,137.08,18.89,3.216,113.5,10-Dec,4271710,2019-08-09 23:46:28:937,-0.0148,-1.8464,10.0098,0.0449,-0.6374,9.7858,0.0351,0.0083,0.0148
42718,45.802223,-0.136262,137.08,18.89,3.216,113.5,10-Dec,4271810,2019-08-09 23:46:29:037,0.5957,-1.1808,10.1696,0.0673,-0.6649,9.7839,0.0237,0.0092,-0.0099
42719,45.802223,-0.136262,137.08,18.89,3.216,113.5,10-Dec,4271910,2019-08-09 23:46:29:137,0.0642,-1.5968,9.5406,0.0826,-0.6656,9.7837,-0.0045,0.0144,-0.0026
42720,45.802223,-0.136262,137.08,18.89,3.216,113.5,10-Dec,4272010,2019-08-09 23:46:29:237,0.1426,-2.7496,8.8355,0.0935,-0.6923,9.7817,-0.044,0.0,-0.0251
42721,45.802223,-0.136262,137.08,18.89,3.216,113.5,10-Dec,4272110,2019-08-09 23:46:29:337,0.7196,-2.154,9.7201,0.0994,-0.7285,9.779,-0.02,-0.0057,-0.0459
42722,45.802223,-0.136262,137.08,18.89,3.216,113.5,10-Dec,4272211,2019-08-09 23:46:29:438,0.1312,-1.1048,10.0876,0.1125,-0.7705,9.7757,0.0172,0.006,0.0012
42723,45.802223,-0.136262,137.08,18.89,3.216,113.5,10-Dec,4272311,2019-08-09 23:46:29:538,-0.0502,-2.2576,9.4789,0.1128,-0.7566,9.7768,-0.0064,0.0035,-0.0089
42724,45.802223,-0.136262,137.08,18.89,3.216,113.5,10-Dec,4272411,2019-08-09 23:46:29:638,0.2006,-2.6101,9.2784,0.128,-0.8111,9.7722,0.0442,0.0185,0.0087
42725,45.802223,-0.136262,137.08,18.89,3.216,113.5,10-Dec,4272511,2019-08-09 23:46:29:738,0.4945,-1.7931,9.7076,0.1352,-0.813,9.772,-0.0183,-0.0189,-0.0256
42726,45.802223,-0.136262,137.08,18.89,3.216,113.5,14 / 16,4272610,2019-08-09 23:46:29:837,-0.1483,-1.1287,9.7985,0.1167,-0.8178,9.7718,-0.0022,-0.0324,0.0098
42727,45.802223,-0.136262,137.08,18.89,3.216,113.5,14 / 16,4272710,2019-08-09 23:46:29:937,0.2731,-1.4172,9.443,0.1039,-0.8166,9.772,-0.026,-0.0153,-0.0088
42728,45.802223,-0.136262,137.08,18.89,3.216,113.5,14 / 16,4272811,2019-08-09 23:46:30:038,0.6106,-0.9659,9.03,0.0941,-0.8231,9.7716,0.0115,-0.033,-0.009
42729,45.802223,-0.136262,137.08,18.89,3.216,113.5,14 / 16,4272910,2019-08-09 23:46:30:137,0.3838,0.8549,9.5603,0.0817,-0.841,9.7702,-0.0272,-0.0403,-0.0254
42730,45.802223,-0.136262,137.08,18.89,3.216,113.5,14 / 16,4273010,2019-08-09 23:46:30:237,0.0396,-2.658,10.3648,0.0487,-0.8595,9.7688,0.0118,-0.0036,-0.013
42731,45.802223,-0.136262,137.08,18.89,3.216,113.5,14 / 16,4273110,2019-08-09 23:46:30:337,-0.1705,-1.8063,9.4604,0.0428,-0.851,9.7696,0.0241,0.0305,0.0243
42732,45.802223,-0.136262,137.08,18.89,3.216,113.5,14 / 16,4273210,2019-08-09 23:46:30:437,-0.4434,-1.9816,8.9462,0.0528,-0.8987,9.7652,-0.0105,0.0312,0.0676
42733,45.802223,-0.136262,137.08,18.89,3.216,113.5,14 / 16,4273315,2019-08-09 23:46:30:542,-0.6649,-0.9013,10.5623,0.0629,-0.9209,9.7631,0.0239,0.0174,-0.0532
42734,45.802223,-0.136262,137.08,18.89,3.216,113.5,14 / 16,4273411,2019-08-09 23:46:30:638,1.2421,-0.1998,9.7548,0.0996,-0.9548,9.7595,-0.0343,0.0216,-0.0562
42735,45.802223,-0.136262,137.08,18.89,3.216,113.5,14 / 16,4273511,2019-08-09 23:46:30:738,0.8279,0.0259,9.0839,0.1155,-0.9558,9.7593,-0.0501,-0.0118,-0.0681
42736,45.802223,-0.136262,137.08,18.89,3.216,113.5,15 / 17,4273610,2019-08-09 23:46:30:837,1.2038,-2.3055,10.5455,0.1475,-1.0011,9.7543,0.0303,0.0248,-0.0758
42737,45.802223,-0.136262,137.08,18.89,3.216,113.5,15 / 17,4273710,2019-08-09 23:46:30:937,0.1635,-2.2612,8.6757,0.1819,-1.0096,9.7528,-0.0699,0.0224,-0.0151
42738,45.802223,-0.136262,137.08,18.89,3.216,113.5,15 / 17,4273810,2019-08-09 23:46:31:037,0.3545,-1.3101,8.3183,0.1957,-1.0626,9.7469,-0.0575,-0.0129,-0.0091
42739,45.802223,-0.136262,137.08,18.89,3.216,113.5,15 / 17,4273910,2019-08-09 23:46:31:137,0.4059,-2.0571,9.4753,0.1901,-1.0314,9.7504,-0.0036,0.0159,0.0133
42740,45.802223,-0.136262,137.08,18.89,3.216,113.5,15 / 17,4274010,2019-08-09 23:46:31:237,0.1743,-1.0563,8.8229,0.2013,-1.0385,9.7494,-0.077,-0.0081,-0.0059
42741,45.802223,-0.136262,137.08,18.89,3.216,113.5,15 / 17,4274110,2019-08-09 23:46:31:337,0.8896,-0.0214,9.461,0.1888,-0.9851,9.7552,-0.026,-0.0031,0.0027
42742,45.802223,-0.136262,137.08,18.89,3.216,113.5,15 / 17,4274210,2019-08-09 23:46:31:437,-0.1369,-0.3015,10.1188,0.1924,-1.0055,9.7531,-0.0291,-0.0209,-0.0086
42743,45.802223,-0.136262,137.08,18.89,3.216,113.5,15 / 17,4274310,2019-08-09 23:46:31:537,0.5334,-1.6704,9.6513,0.1659,-0.9965,9.7545,0.0035,-0.0029,-0.0064
42744,45.802223,-0.136262,137.08,18.89,3.216,113.5,15 / 17,4274410,2019-08-09 23:46:31:637,-0.5134,-2.1486,9.0276,0.1641,-1.0282,9.7512,-0.0371,-0.0095,0.0342
42745,45.802223,-0.136262,137.08,18.89,3.216,113.5,15 / 17,4274510,2019-08-09 23:46:31:737,0.7752,-1.4843,9.6693,0.1548,-1.0414,9.75,-0.007,-0.0136,-0.0034
42746,45.802223,-0.136262,137.08,18.89,3.216,113.5,14 / 15,4274611,2019-08-09 23:46:31:838,0.0498,-1.7027,9.8374,0.152,-1.0445,9.7497,-0.0277,-0.042,0.0322
42747,45.802223,-0.136262,137.08,18.89,3.216,113.5,14 / 15,4274710,2019-08-09 23:46:31:937,0.2725,-0.3859,9.4891,0.1219,-1.0351,9.7511,-0.0234,-0.0026,-0.0458
42748,45.802223,-0.136262,137.08,18.89,3.216,113.5,14 / 15,4274810,2019-08-09 23:46:32:037,0.4921,-1.264,8.8528,0.1328,-1.032,9.7513,-0.0126,-0.0039,0.0714
42749,45.802223,-0.136262,137.08,18.89,3.216,113.5,14 / 15,4274910,2019-08-09 23:46:32:137,-0.0526,-1.6357,8.9067,0.0956,-1.0183,9.7532,0.015,-0.0493,-0.0453
42750,45.802223,-0.136262,137.08,18.89,3.216,113.5,14 / 15,4275011,2019-08-09 23:46:32:238,-0.268,-0.3506,9.9619,0.0761,-1.0152,9.7537,-0.0585,-0.0425,0.045
42751,45.802223,-0.136262,137.08,18.89,3.216,113.5,14 / 15,4275110,2019-08-09 23:46:32:337,-0.0669,-1.7033,10.2169,0.0414,-1.0504,9.7501,0.0882,-0.015,0.0072
42752,45.802223,-0.136262,137.08,18.89,3.216,113.5,14 / 15,4275211,2019-08-09 23:46:32:438,0.2174,-1.1239,10.1577,0.0316,-1.0985,9.7449,0.032,-0.0248,-0.0172
42753,45.802223,-0.136262,137.08,18.89,3.216,113.5,14 / 15,4275311,2019-08-09 23:46:32:538,0.0396,-3.0518,9.5094,0.0432,-1.1454,9.7394,0.0198,0.0271,0.007
42754,45.802223,-0.136262,137.08,18.89,3.216,113.5,14 / 15,4275410,2019-08-09 23:46:32:637,0.303,-1.8165,10.3139,0.0571,-1.154,9.7383,0.0308,0.0152,0.0091
42755,45.802223,-0.136262,137.08,18.89,3.216,113.5,14 / 15,4275510,2019-08-09 23:46:32:737,-0.4404,-1.4208,9.5304,0.0884,-1.1574,9.7377,-0.0509,0.028,0.0513
42756,45.802223,-0.136262,137.08,18.89,3.216,113.5,14 / 15,4275610,2019-08-09 23:46:32:837,-0.3752,-1.8398,9.6788,0.0969,-1.1903,9.7337,-0.0496,0.0267,0.01
42757,45.802223,-0.136262,137.08,18.89,3.216,113.5,14 / 15,4275710,2019-08-09 23:46:32:937,0.4353,-2.0828,9.7016,0.1308,-1.1909,9.7332,0.0249,0.0258,0.0106
42758,45.802223,-0.136262,137.08,18.89,3.216,113.5,14 / 15,4275810,2019-08-09 23:46:33:037,0.1863,-0.7827,10.0805,0.1339,-1.1901,9.7333,-0.0135,-0.0048,0.0051
42759,45.802223,-0.136262,137.08,18.89,3.216,113.5,14 / 15,4275910,2019-08-09 23:46:33:137,0.6412,-1.6758,10.0427,0.148,-1.1945,9.7325,0.0317,0.0133,-0.0231
42760,45.802223,-0.136262,137.08,18.89,3.216,113.5,14 / 15,4276010,2019-08-09 23:46:33:237,-0.1806,-2.5018,9.5047,0.1526,-1.1798,9.7342,-0.0017,0.0107,0.0264
42761,45.802223,-0.136262,137.08,18.89,3.216,113.5,14 / 15,4276111,2019-08-09 23:46:33:338,0.5873,-0.7211,8.8858,0.1696,-1.1937,9.7322,-0.0233,-0.0117,-0.0352
42762,45.802223,-0.136262,137.08,18.89,3.216,113.5,14 / 15,4276211,2019-08-09 23:46:33:438,0.6968,-1.2083,9.5986,0.1585,-1.1811,9.734,0.0165,-0.0247,0.0373
42763,45.802223,-0.136262,137.08,18.89,3.216,113.5,14 / 15,4276311,2019-08-09 23:46:33:538,0.2024,-1.6135,10.1343,0.1335,-1.2026,9.7317,0.021,-0.0151,0.0024
42764,45.802223,-0.136262,137.08,18.89,3.216,113.5,14 / 15,4276410,2019-08-09 23:46:33:637,0.695,-1.1012,9.7357,0.118,-1.2152,9.7304,0.0217,-0.0272,-0.0243
42765,45.802223,-0.136262,137.08,18.89,3.216,113.5,14 / 15,4276510,2019-08-09 23:46:33:737,0.403,-1.2873,9.3778,0.115,-1.2444,9.7267,0.0109,0.0082,-0.0218
42766,45.802223,-0.136262,137.08,18.89,3.216,113.5,Nov-13,4276610,2019-08-09 23:46:33:837,1.0278,-0.6271,10.1164,0.1203,-1.2573,9.725,0.0118,-0.0117,-0.0596
42767,45.802223,-0.136262,137.08,18.89,3.216,113.5,Nov-13,4276710,2019-08-09 23:46:33:937,0.2108,-2.3946,9.531,0.1215,-1.2643,9.7241,0.0091,-0.0121,-0.0254
42768,45.802223,-0.136262,137.08,18.89,3.216,113.5,Nov-13,4276810,2019-08-09 23:46:34:037,0.2443,-1.7943,9.5681,0.1137,-1.2562,9.7252,-0.0124,0.0029,-0.0039
42769,45.802223,-0.136262,137.08,18.89,3.216,113.5,Nov-13,4276910,2019-08-09 23:46:34:137,0.0444,-1.8978,9.6968,0.1184,-1.273,9.723,-0.0508,0.0294,-0.017
42770,45.802223,-0.136262,137.08,18.89,3.216,113.5,Nov-13,4277010,2019-08-09 23:46:34:237,0.7866,-1.17,8.7618,0.143,-1.2684,9.7232,0.0262,0.012,-0.0218
42771,45.802223,-0.136262,137.08,18.89,3.216,113.5,Nov-13,4277110,2019-08-09 23:46:34:337,0.1109,-1.8859,9.4113,0.1487,-1.2473,9.7259,0.0281,0.0169,0.005
42772,45.802223,-0.136262,137.08,18.89,3.216,113.5,Nov-13,4277210,2019-08-09 23:46:34:437,0.2419,-1.2867,9.9242,0.1541,-1.2312,9.7278,-0.0561,-0.025,-0.0358
42773,45.802223,-0.136262,137.08,18.89,3.216,113.5,Nov-13,4277310,2019-08-09 23:46:34:537,0.9225,-1.9876,9.2054,0.1435,-1.234,9.7276,-0.0099,-0.0172,-0.0073
42774,45.802223,-0.136262,137.08,18.89,3.216,113.5,Nov-13,4277411,2019-08-09 23:46:34:638,0.3347,-2.3617,9.4885,0.1361,-1.2716,9.7229,0.0177,-0.0183,-0.0417
42775,45.802223,-0.136262,137.08,18.89,3.216,113.5,Nov-13,4277511,2019-08-09 23:46:34:738,-0.0651,-2.3396,9.3927,0.1372,-1.3014,9.7189,-0.0216,0.0074,0.0101
42776,45.80177,-0.134772,142.11,13.7,3.216,113.6,14 / 16,4277610,2019-08-09 23:46:34:837,0.0809,-2.6688,9.8249,0.1538,-1.31,9.7175,-0.0182,0.0356,0.0116
42777,45.80177,-0.134772,142.11,13.7,3.216,113.6,14 / 16,4277710,2019-08-09 23:46:34:937,0.8519,-1.2795,8.9845,0.1708,-1.2979,9.7189,-0.0113,-0.0051,-0.0057
42778,45.80177,-0.134772,142.11,13.7,3.216,113.6,14 / 16,4277810,2019-08-09 23:46:35:037,-0.0035,-2.7322,9.7985,0.1804,-1.2873,9.7201,-0.0196,0.0153,-0.0143
42779,45.80177,-0.134772,142.11,13.7,3.216,113.6,14 / 16,4277911,2019-08-09 23:46:35:138,0.1976,-1.6219,10.5743,0.1822,-1.2538,9.7245,0.0148,-0.0099,-0.0068
42780,45.80177,-0.134772,142.11,13.7,3.216,113.6,14 / 16,4278010,2019-08-09 23:46:35:237,0.0037,-0.5415,10.0009,0.1874,-1.2908,9.7195,0.0568,0.0182,0.0088
42781,45.80177,-0.134772,142.11,13.7,3.216,113.6,14 / 16,4278110,2019-08-09 23:46:35:337,-0.93,-1.9475,9.4897,0.1881,-1.3315,9.714,-0.0058,0.0308,0.0382
42782,45.80177,-0.134772,142.11,13.7,3.216,113.6,14 / 16,4278210,2019-08-09 23:46:35:437,0.045,-2.33,9.1569,0.239,-1.3839,9.7056,-0.0243,0.037,0.0363
42783,45.80177,-0.134772,142.11,13.7,3.216,113.6,14 / 16,4278310,2019-08-09 23:46:35:537,0.3078,-1.8374,9.8291,0.252,-1.3581,9.7089,0.045,0.0136,-0.0059
42784,45.80177,-0.134772,142.11,13.7,3.216,113.6,14 / 16,4278411,2019-08-09 23:46:35:638,-0.0412,-0.9611,10.0487,0.2761,-1.3519,9.7091,0.0375,0.0264,0.0131
42785,45.80177,-0.134772,142.11,13.7,3.216,113.6,14 / 16,4278511,2019-08-09 23:46:35:738,0.1863,-1.2598,9.7997,0.2905,-1.3492,9.709,0.0051,0.0199,-0.0285
42786,45.80177,-0.134772,142.11,13.7,3.216,113.6,Dec-14,4278610,2019-08-09 23:46:35:837,0.2168,-1.6405,9.935,0.3201,-1.3739,9.7047,0.0378,0.0359,0.0512
42787,45.80177,-0.134772,142.11,13.7,3.216,113.6,Dec-14,4278710,2019-08-09 23:46:35:937,-0.1944,-2.4515,9.3065,0.3359,-1.3664,9.7052,0.0096,0.0286,-0.0172
42788,45.80177,-0.134772,142.11,13.7,3.216,113.6,Dec-14,4278810,2019-08-09 23:46:36:037,-0.3506,-2.8873,9.7094,0.3853,-1.3714,9.7026,-0.0047,0.0424,0.074
42789,45.80177,-0.134772,142.11,13.7,3.216,113.6,Dec-14,4278910,2019-08-09 23:46:36:137,1.0153,-0.2518,10.0559,0.3826,-1.375,9.7022,-0.0124,0.0044,-0.0645
42790,45.80177,-0.134772,142.11,13.7,3.216,113.6,Dec-14,4279010,2019-08-09 23:46:36:237,0.2581,-0.4356,9.3173,0.4217,-1.3682,9.7016,-0.0041,0.0203,0.0047
42791,45.80177,-0.134772,142.11,13.7,3.216,113.6,Dec-14,4279110,2019-08-09 23:46:36:337,-0.2746,-0.001,10.1768,0.4228,-1.3749,9.7006,0.0414,0.0188,0.0625
42792,45.80177,-0.134772,142.11,13.7,3.216,113.6,Dec-14,4279210,2019-08-09 23:46:36:437,0.7459,-2.2911,9.5256,0.4375,-1.3854,9.6984,0.0307,0.0262,0.0462
42793,45.80177,-0.134772,142.11,13.7,3.216,113.6,Dec-14,4279311,2019-08-09 23:46:36:538,0.4586,-1.8913,8.945,0.4493,-1.3978,9.6961,-0.0485,0.0161,-0.0015
42794,45.80177,-0.134772,142.11,13.7,3.216,113.6,Dec-14,4279410,2019-08-09 23:46:36:637,0.4688,-1.7715,9.6621,0.4513,-1.3835,9.6981,-0.0171,-0.0195,0.0279
42795,45.80177,-0.134772,142.11,13.7,3.216,113.6,Dec-14,4279510,2019-08-09 23:46:36:737,0.5011,-0.5954,10.0104,0.4423,-1.3777,9.6993,-0.017,-0.0297,-0.0154
42796,45.80177,-0.134772,142.11,13.7,3.216,113.6,14 / 16,4279610,2019-08-09 23:46:36:837,0.2318,-0.4637,10.3911,0.4077,-1.385,9.6998,0.0684,-0.0128,0.0043
42797,45.80177,-0.134772,142.11,13.7,3.216,113.6,14 / 16,4279711,2019-08-09 23:46:36:938,0.2042,0.1444,9.8458,0.4133,-1.4533,9.6896,0.0216,0.0236,-0.0081
42798,45.80177,-0.134772,142.11,13.7,3.216,113.6,14 / 16,4279811,2019-08-09 23:46:37:038,-0.4632,-3.1686,9.9302,0.4676,-1.4972,9.6804,-0.0199,0.0636,-0.043
42799,45.80177,-0.134772,142.11,13.7,3.216,113.6,14 / 16,4279911,2019-08-09 23:46:37:138,0.5436,-1.0754,8.927,0.5212,-1.4922,9.6784,-0.025,0.0569,-0.0004
42800,45.80177,-0.134772,142.11,13.7,3.216,113.6,14 / 16,4280011,2019-08-09 23:46:37:238,1.1715,-0.8306,9.4382,0.575,-1.4502,9.6818,-0.0447,0.0255,-0.0294
42801,45.80177,-0.134772,142.11,13.7,3.216,113.6,14 / 16,4280110,2019-08-09 23:46:37:337,0.6537,-1.6249,9.2299,0.5958,-1.4241,9.6844,-0.0323,0.0132,0.0334
42802,45.80177,-0.134772,142.11,13.7,3.216,113.6,14 / 16,4280211,2019-08-09 23:46:37:438,0.6735,-1.741,9.5214,0.6012,-1.42,9.6847,0.0244,0.0099,0.0109
42803,45.80177,-0.134772,142.11,13.7,3.216,113.6,14 / 16,4280310,2019-08-09 23:46:37:537,0.5017,-1.6351,9.5944,0.6204,-1.4389,9.6806,0.0062,0.0213,0.004
42804,45.80177,-0.134772,142.11,13.7,3.216,113.6,14 / 16,4280410,2019-08-09 23:46:37:637,0.5568,-1.495,9.7501,0.6393,-1.4458,9.6784,0.0223,0.0388,0.0172
42805,45.80177,-0.134772,142.11,13.7,3.216,113.6,14 / 16,4280510,2019-08-09 23:46:37:737,0.9159,-0.4793,9.6932,0.685,-1.4531,9.6742,-0.0055,0.031,-0.0092
