,GPS LATITUDE (degrees), GPS LONGITUDE (degrees), GPS ALTITUDE (m), GPS SPEED (Kmh), GPS ACCURACY (m), GPS ORIENTATION (Â°),GPS SATELLITES IN RANGE, TIME SINCE START (ms), DATE (YYYY-MO-DD HH-MI-SS_SSS), ACCELEROMETER X (m/s²) , ACCELEROMETER Y (m/s²), ACCELEROMETER Z (m/s²), GRAVITY X (m/s²), GRAVITY Y (m/s²), GRAVITY Z (m/s²), GYROSCOPE Yaw (rad/s), GYROSCOPE Pitch (rad/s), GYROSCOPE Roll (rad/s), MAGNETIC FIELD X (Î¼T), MAGNETIC FIELD Y (Î¼T), MAGNETIC FIELD Z (Î¼T), ORIENTATION (Yaw) (Â°), ORIENTATION (Pitch) (Â°), ORIENTATION (Roll ) (Â°)
32252,51.522488,-2.627922,99,0.0,10,240.2,14 / 22,3225223,2019-08-16 13:42:59:003,0.0416,0.0152,10.1051,-0.0005,0.0048,9.8066,0.0011,-0.0133,-0.0005,-8.2,28.23,-5.98,252.38,8.96,0.5
32253,51.522488,-2.627922,99,0.0,10,240.2,14 / 22,3225323,2019-08-16 13:42:59:103,-0.0317,-0.0103,9.664,-0.0011,-0.0002,9.8067,-0.0043,0.0357,0.0048,-7.06,28.65,-5.44,255.05,8.95,0.51
32254,51.522488,-2.627922,99,0.0,10,240.2,14 / 22,3225423,2019-08-16 13:42:59:203,-0.0959,0.2663,10.0978,-0.0007,0.0012,9.8067,-0.0032,-0.024,0.0037,-7.06,28.65,-5.44,255.05,8.95,0.51
32255,51.522488,-2.627922,99,0.0,10,240.2,14 / 22,3225523,2019-08-16 13:42:59:303,-0.0188,-0.1311,9.7774,0.0002,-0.0001,9.8066,0.0032,-0.0229,-0.0027,-7.04,28.53,-6.04,254.75,8.96,0.52
32256,51.522488,-2.627922,99,0.0,10,240.2,14 / 22,3225623,2019-08-16 13:42:59:403,-0.0847,-0.0783,9.7523,0.001,-0.0052,9.8066,0.0128,-0.0144,-0.0091,-7.47,28.43,-5.99,254.24,8.96,0.51
32257,51.522488,-2.627922,99,0.0,10,240.2,14 / 22,3225723,2019-08-16 13:42:59:503,-0.0274,-0.0009,9.8118,0.0009,-0.0026,9.8067,-0.0053,0.0325,0.0027,-7.47,28.43,-5.99,254.24,8.96,0.51
32258,51.522488,-2.627922,99,0.0,10,240.2,14 / 22,3225823,2019-08-16 13:42:59:603,-0.1333,0.0504,9.7837,0.0015,0.0016,9.8067,-0.0053,0.0325,0.0027,-7.71,28.72,-3.98,253.53,8.95,0.51
32259,51.522488,-2.627922,99,0.0,10,240.2,14 / 22,3225923,2019-08-16 13:42:59:703,0.0453,-0.1618,9.4105,0.0015,0.0003,9.8067,0.0,-0.0069,-0.0005,-7.09,28.75,-4.83,253.53,8.95,0.51
32260,51.522488,-2.627922,99,0.0,10,240.2,14 / 22,3226023,2019-08-16 13:42:59:803,-0.058,0.016,10.1902,0.0021,0.0038,9.8067,0.0096,-0.0251,-0.0027,-8.13,28.61,-3.89,253.53,8.97,0.5
32261,51.522488,-2.627922,99,0.0,10,240.2,14 / 22,3226123,2019-08-16 13:42:59:903,0.0317,-0.1929,9.4877,-0.0021,-0.0016,9.8066,0.0,0.0239,0.0005,-8.13,28.61,-3.89,253.53,8.97,0.5
32262,51.522488,-2.627922,99,0.0,10,240.2,14 / 22,3226223,2019-08-16 13:43:00:003,-0.0276,-0.0413,9.8051,0.0016,0.0038,9.8067,0.0021,0.0005,0.0005,-7.21,28.59,-5.55,254.75,8.96,0.51
32263,51.522488,-2.627922,99,0.0,10,240.2,14 / 22,3226323,2019-08-16 13:43:00:103,0.1383,-0.1927,9.7519,-0.0005,-0.0052,9.8066,0.0085,0.0133,-0.0037,-7.55,28.11,-7.28,252.08,8.98,0.51
32264,51.522488,-2.627922,99,0.0,10,240.2,14 / 22,3226422,2019-08-16 13:43:00:202,0.0648,-0.0433,9.5737,-0.0007,-0.0043,9.8066,-0.0075,0.0154,0.0027,-7.55,28.11,-7.28,252.08,8.98,0.51
32265,51.522488,-2.627922,99,0.0,10,240.2,14 / 22,3226523,2019-08-16 13:43:00:303,0.0893,-0.1677,9.7662,0.0007,-0.0025,9.8066,-0.0032,-0.0006,0.0027,-6.6,28.73,-5.58,254.76,8.96,0.5
32266,51.522488,-2.627922,99,0.0,10,240.2,14 / 22,3226623,2019-08-16 13:43:00:403,0.0007,0.0591,10.1793,-0.0012,-0.0038,9.8066,0.0032,-0.0336,-0.0027,-7.73,28.17,-6.83,252.09,8.93,0.5
32267,51.522488,-2.627922,99,0.0,10,240.2,14 / 22,3226723,2019-08-16 13:43:00:503,0.064,-0.0831,9.6719,0.0029,0.0068,9.8066,0.0032,-0.0336,-0.0027,-7.73,28.17,-6.83,252.08,8.98,0.5
32268,51.522484,-2.627916,100,0.0,10,240.2,14 / 22,3226823,2019-08-16 13:43:00:603,-0.0288,0.1571,9.9993,-0.0005,-0.0074,9.8066,-0.0096,0.0389,0.0037,-7.73,28.17,-6.83,252.08,8.98,0.5
32269,51.522484,-2.627916,100,0.0,10,240.2,14 / 22,3226923,2019-08-16 13:43:00:703,0.0247,-0.1039,9.8573,-0.0006,-0.0042,9.8067,-0.0053,0.009,-0.0027,-7.91,28.34,-5.87,252.38,8.95,0.49
32270,51.522484,-2.627916,100,0.0,10,240.2,14 / 22,3227024,2019-08-16 13:43:00:804,-0.0967,-0.153,9.5486,-0.0016,-0.0023,9.8066,-0.0021,0.0431,-0.0005,-7.03,28.51,-6.14,254.76,8.98,0.49
32271,51.522484,-2.627916,100,0.0,10,240.2,14 / 22,3227124,2019-08-16 13:43:00:904,-0.0433,0.155,10.1015,-0.0045,0.0035,9.8066,-0.0043,0.0165,0.0048,-8.1,28.5,-4.68,254.76,8.98,0.49
32272,51.522484,-2.627916,100,0.0,10,240.2,14 / 22,3227223,2019-08-16 13:43:01:003,0.0033,-0.0094,9.8668,-0.0023,0.002,9.8066,0.0011,-0.0165,-0.0016,-8.23,28.34,-5.38,252.67,8.99,0.5
32273,51.522484,-2.627916,100,0.0,10,240.2,14 / 22,3227323,2019-08-16 13:43:01:103,-0.1104,0.05,9.9562,0.0007,-0.0056,9.8067,0.0011,-0.0165,-0.0016,-8.23,28.34,-5.38,252.67,8.99,0.5
32274,51.522484,-2.627916,100,0.0,10,240.2,14 / 22,3227423,2019-08-16 13:43:01:203,0.0158,-0.039,9.9578,0.0008,-0.0059,9.8066,-0.0107,0.041,0.0059,-8.0,28.16,-6.54,252.67,8.99,0.5
32275,51.522484,-2.627916,100,0.0,10,240.2,14 / 22,3227525,2019-08-16 13:43:01:305,-0.012,0.2272,9.8731,0.0013,0.0037,9.8067,0.0021,-0.0325,0.0016,-7.1,28.15,-7.56,253.64,8.96,0.49
32276,51.522484,-2.627916,100,0.0,10,240.2,14 / 22,3227623,2019-08-16 13:43:01:403,0.0392,0.011,9.9896,0.0002,0.0005,9.8067,0.0064,-0.0219,-0.0037,-7.81,28.44,-5.52,253.64,8.96,0.49
32277,51.522484,-2.627916,100,0.0,10,240.2,14 / 22,3227723,2019-08-16 13:43:01:503,-0.0957,-0.0225,9.7812,-0.0005,0.0046,9.8067,-0.0011,0.0399,0.0016,-7.81,28.44,-5.52,253.64,8.96,0.49
32278,51.522484,-2.627916,100,0.0,10,240.2,14 / 22,3227823,2019-08-16 13:43:01:603,-0.0959,0.1781,10.1929,0.0,-0.0013,9.8066,-0.0043,-0.0123,0.0059,-7.77,28.32,-6.13,252.38,8.98,0.5
32279,51.522484,-2.627916,100,0.0,10,240.2,14 / 22,3227923,2019-08-16 13:43:01:703,-0.0682,-0.0927,9.7428,-0.0024,-0.0018,9.8067,-0.0032,0.0069,-0.0016,-8.43,27.76,-7.63,251.79,8.97,0.5
32280,51.522484,-2.627916,100,0.0,10,240.2,14 / 22,3228023,2019-08-16 13:43:01:803,-0.1927,0.0521,9.9199,-0.0001,-0.0035,9.8067,0.0043,0.0239,-0.0027,-8.59,28.12,-5.93,250.56,8.98,0.51
32281,51.522484,-2.627916,100,0.0,10,240.2,14 / 22,3228122,2019-08-16 13:43:01:902,-0.0893,0.0043,10.2234,0.0011,0.0005,9.8067,0.0043,0.0239,-0.0027,-8.23,28.34,-5.38,252.68,8.96,0.5
32282,51.522484,-2.627916,100,0.0,10,240.2,14 / 22,3228223,2019-08-16 13:43:02:003,-0.0676,-0.0579,9.7628,0.0012,0.0027,9.8067,0.0064,-0.0165,-0.0037,-8.23,28.34,-5.38,252.68,8.96,0.5
32283,51.522484,-2.627916,100,0.0,10,240.2,14 / 22,3228323,2019-08-16 13:43:02:103,-0.0201,-0.0364,9.5661,0.0006,0.0004,9.8067,-0.0043,0.0101,-0.0005,-8.23,28.34,-5.38,252.68,8.96,0.5
32284,51.522484,-2.627916,100,0.0,10,240.2,14 / 22,3228423,2019-08-16 13:43:02:203,-0.0181,0.1565,9.9485,-0.001,-0.0029,9.8067,0.0075,0.0271,-0.0027,-8.04,28.3,-5.86,252.38,8.96,0.5
32285,51.522484,-2.627916,100,0.0,10,240.2,14 / 22,3228523,2019-08-16 13:43:02:303,0.1203,-0.2003,9.6767,-0.001,0.0032,9.8067,0.0053,-0.041,0.0016,-8.07,28.41,-5.28,252.38,8.96,0.5
32286,51.522484,-2.627916,100,0.0,10,240.2,14 / 22,3228623,2019-08-16 13:43:02:403,0.112,-0.1714,9.422,-0.0014,-0.0004,9.8067,-0.0032,0.0016,-0.0016,-7.62,28.39,-6.01,252.38,8.96,0.5
32287,51.522484,-2.627916,100,0.0,10,240.2,14 / 22,3228723,2019-08-16 13:43:02:503,0.101,0.1376,10.0241,-0.0006,-0.001,9.8067,0.0011,0.0239,0.0027,-6.57,28.61,-6.19,252.38,8.96,0.5
32288,51.522484,-2.627916,100,0.0,10,240.2,13 / 21,3228823,2019-08-16 13:43:02:603,0.0224,0.0107,9.5893,-0.001,0.0009,9.8067,0.0128,-0.0176,-0.0048,-6.57,28.61,-6.19,252.38,8.96,0.5
32289,51.522484,-2.627916,100,0.0,10,240.2,13 / 21,3228923,2019-08-16 13:43:02:703,0.1592,0.1079,9.9893,-0.0002,-0.004,9.8067,0.0128,-0.0176,-0.0048,-8.43,28.41,-4.67,252.68,8.94,0.5
32290,51.522484,-2.627916,100,0.0,10,240.2,13 / 21,3229023,2019-08-16 13:43:02:803,0.2297,-0.1512,9.3899,0.0011,0.0012,9.8067,-0.0128,0.0303,0.0005,-8.36,28.16,-6.1,252.38,8.97,0.5
32291,51.522484,-2.627916,100,0.0,10,240.2,13 / 21,3229123,2019-08-16 13:43:02:903,-0.0307,0.1602,9.879,0.0008,-0.0029,9.8067,-0.0043,-0.0112,-0.0005,-8.36,28.16,-6.1,252.38,8.97,0.5
32292,51.522484,-2.627916,100,0.0,10,240.2,13 / 21,3229223,2019-08-16 13:43:03:003,0.0097,-0.0725,9.9138,0.0008,0.0039,9.8067,0.0064,0.0207,-0.0016,-8.11,28.53,-4.49,253.53,8.95,0.49
32293,51.522484,-2.627916,100,0.0,10,240.2,13 / 21,3229323,2019-08-16 13:43:03:103,-0.0938,0.1174,10.007,0.0002,-0.0039,9.8067,-0.0149,0.0389,0.0059,-8.27,28.47,-4.57,252.68,8.98,0.49
32294,51.522484,-2.627916,100,0.0,10,240.2,13 / 21,3229423,2019-08-16 13:43:03:203,0.0649,-0.2938,9.6145,-0.0016,-0.0003,9.8067,0.0043,-0.0389,-0.0037,-8.27,28.47,-4.57,252.68,8.98,0.49
32295,51.522484,-2.627916,100,0.0,10,240.2,13 / 21,3229523,2019-08-16 13:43:03:303,-0.0663,-0.0242,9.6808,0.0015,0.0027,9.8066,-0.0107,0.0463,0.0027,-8.29,28.56,-3.96,253.53,8.97,0.5
32296,51.522484,-2.627916,100,0.0,10,240.2,13 / 21,3229625,2019-08-16 13:43:03:405,0.0049,0.023,10.1469,0.0016,-0.0028,9.8067,-0.0085,0.0239,0.0059,-8.23,28.36,-5.28,252.68,8.96,0.49
32297,51.522484,-2.627916,100,0.0,10,240.2,13 / 21,3229723,2019-08-16 13:43:03:503,-0.1109,0.0406,9.8247,-0.0005,0.0028,9.8066,-0.0085,0.0239,0.0059,-7.84,28.57,-4.69,253.24,8.97,0.5
32298,51.522484,-2.627916,100,0.0,10,240.2,14 / 22,3229823,2019-08-16 13:43:03:603,0.0588,-0.1585,9.887,0.0009,-0.0033,9.8067,-0.0053,-0.008,0.0027,-7.84,28.57,-4.69,253.24,8.97,0.5
32299,51.522484,-2.627916,100,0.0,10,240.2,14 / 22,3229922,2019-08-16 13:43:03:702,0.0002,0.3439,9.914,0.002,0.0052,9.8066,0.0021,0.0261,-0.0016,-8.61,28.34,-4.76,250.85,8.96,0.5
32300,51.522484,-2.627916,100,0.0,10,240.2,14 / 22,3230023,2019-08-16 13:43:03:803,0.108,-0.0718,9.8195,0.0025,-0.0006,9.8067,-0.0085,0.0037,0.0005,-8.4,28.29,-5.39,250.85,8.96,0.5
32301,51.522484,-2.627916,100,0.0,10,240.2,14 / 22,3230123,2019-08-16 13:43:03:903,-0.0331,0.1885,9.9147,-0.0012,0.0022,9.8067,-0.0032,-0.0048,0.0048,-8.11,28.53,-4.49,253.53,8.96,0.48
32302,51.522484,-2.627916,100,0.0,10,240.2,14 / 22,3230223,2019-08-16 13:43:04:003,0.0965,0.053,9.7712,-0.0004,0.0064,9.8066,0.0032,0.0314,-0.0048,-7.95,28.59,-4.4,253.52,9.0,0.49
32303,51.522484,-2.627916,100,0.0,10,240.2,14 / 22,3230323,2019-08-16 13:43:04:103,-0.0231,0.1397,9.8346,-0.001,-0.0028,9.8067,0.0043,-0.0261,0.0027,-7.95,28.59,-4.4,253.52,9.0,0.49
32304,51.522484,-2.627916,100,0.0,10,240.2,14 / 22,3230423,2019-08-16 13:43:04:203,-0.0107,0.1429,10.1568,-0.0006,0.0026,9.8066,0.0043,-0.0261,0.0027,-7.86,28.85,-2.37,254.1,8.98,0.49
32305,51.522484,-2.627916,100,0.0,10,240.2,14 / 22,3230524,2019-08-16 13:43:04:304,0.0033,-0.0213,9.531,-0.0004,0.0004,9.8066,0.0,-0.0325,0.0027,-8.46,28.61,-3.1,253.81,8.98,0.5
32306,51.522484,-2.627916,100,0.0,10,240.2,14 / 22,3230623,2019-08-16 13:43:04:403,-0.0733,0.1251,9.9067,-0.0004,-0.0029,9.8066,-0.0096,0.0484,0.0037,-8.46,28.61,-3.1,253.81,8.98,0.5
32307,51.522484,-2.627916,100,0.0,10,240.2,14 / 22,3230723,2019-08-16 13:43:04:503,-0.0586,-0.095,9.5927,0.0007,0.0018,9.8067,0.0149,-0.0315,-0.0048,-8.44,28.55,-3.7,253.52,8.99,0.5
32308,51.522484,-2.627916,100,0.0,10,240.2,14 / 22,3230823,2019-08-16 13:43:04:603,-0.0714,0.0491,9.9319,0.0,0.0,9.8067,-0.0021,0.0378,0.0027,-8.3,28.57,-3.86,253.53,8.98,0.49
32309,51.522484,-2.627916,100,0.0,10,240.2,14 / 22,3230924,2019-08-16 13:43:04:704,0.1174,-0.2123,9.6709,0.0011,0.003,9.8067,-0.0128,0.0037,0.0069,-8.3,28.57,-3.86,253.53,8.98,0.49
32310,51.522484,-2.627916,100,0.0,10,240.2,14 / 22,3231024,2019-08-16 13:43:04:804,-0.1023,0.0732,10.0552,-0.0003,-0.0049,9.8066,0.0149,-0.0272,-0.0027,-7.41,28.83,-3.73,255.34,9.0,0.49
32311,51.522484,-2.627916,100,0.0,10,240.2,14 / 22,3231123,2019-08-16 13:43:04:903,-0.0499,-0.1342,9.5192,-0.0021,-0.0009,9.8067,0.0,0.0293,0.0048,-7.66,28.52,-5.31,253.24,8.99,0.5
32312,51.522484,-2.627916,100,0.0,10,240.2,14 / 22,3231223,2019-08-16 13:43:05:003,-0.0128,0.1086,9.9452,0.0007,-0.0007,9.8067,0.0,0.0293,0.0048,-7.66,28.52,-5.31,253.24,8.99,0.5
32313,51.522484,-2.627916,100,0.0,10,240.2,14 / 22,3231323,2019-08-16 13:43:05:103,0.0455,0.0983,9.7752,0.0003,-0.0044,9.8066,-0.017,0.0197,0.009,-7.85,28.8,-2.96,253.82,8.96,0.49
32314,51.522484,-2.627916,100,0.0,10,240.2,14 / 22,3231423,2019-08-16 13:43:05:203,0.0689,0.0734,10.1043,-0.0004,0.0029,9.8067,0.0128,0.0016,-0.0091,-7.45,28.97,-2.33,255.93,8.98,0.5
32315,51.522484,-2.627916,100,0.0,10,240.2,14 / 22,3231523,2019-08-16 13:43:05:303,-0.008,-0.0728,9.6031,0.0008,-0.0031,9.8067,0.0011,0.009,0.0016,-7.45,28.97,-2.33,255.93,8.98,0.5
32316,51.522484,-2.627916,100,0.0,10,240.2,14 / 22,3231623,2019-08-16 13:43:05:403,0.0996,-0.0089,10.0652,0.0002,0.0051,9.8066,-0.0096,-0.0272,0.0037,-8.13,28.63,-3.78,253.53,8.97,0.49
32317,51.522484,-2.627916,100,0.0,10,240.2,14 / 22,3231722,2019-08-16 13:43:05:502,0.111,-0.0373,9.6196,0.0008,-0.0011,9.8067,-0.0064,0.0346,0.0016,-8.13,28.63,-3.78,253.53,8.97,0.49
32318,51.522484,-2.627916,100,0.0,10,240.2,14 / 22,3231822,2019-08-16 13:43:05:602,-0.0489,0.1828,10.0318,-0.0003,0.0025,9.8066,0.0032,0.0229,0.0005,-8.11,28.53,-4.49,253.53,8.97,0.48
32319,51.522484,-2.627916,100,0.0,10,240.2,14 / 22,3231923,2019-08-16 13:43:05:703,0.0708,-0.139,9.8527,-0.0005,0.0015,9.8067,-0.0085,-0.0219,0.0048,-6.96,28.83,-4.53,255.05,8.98,0.49
32320,51.522484,-2.627916,100,0.0,10,240.2,14 / 22,3232023,2019-08-16 13:43:05:803,0.1015,-0.0214,9.8976,-0.0016,-0.0002,9.8067,-0.0085,-0.0219,0.0048,-7.14,28.95,-3.28,255.63,8.98,0.5
32321,51.522484,-2.627916,100,0.0,10,240.2,14 / 22,3232123,2019-08-16 13:43:05:903,-0.0087,-0.0333,9.5878,-0.0003,0.0027,9.8067,0.0149,-0.0261,-0.0069,-7.14,28.95,-3.28,255.63,8.98,0.5
32322,51.522484,-2.627916,100,0.0,10,240.2,14 / 22,3232223,2019-08-16 13:43:06:003,-0.0806,-0.0285,10.1167,-0.0007,-0.0043,9.8066,0.0043,-0.007,-0.0037,-8.46,28.51,-3.94,253.52,8.99,0.5
32323,51.522484,-2.627916,100,0.0,10,240.2,14 / 22,3232323,2019-08-16 13:43:06:103,0.0316,-0.1489,9.8877,-0.0006,-0.0012,9.8067,-0.0075,0.0495,-0.0016,-7.71,28.73,-3.88,253.53,8.97,0.5
32324,51.522484,-2.627916,100,0.0,10,240.2,14 / 22,3232423,2019-08-16 13:43:06:203,0.052,-0.1301,9.4163,0.0008,0.0026,9.8067,-0.0064,0.009,0.0005,-8.44,28.55,-3.7,253.52,8.98,0.5
32325,51.522484,-2.627916,100,0.0,10,240.2,14 / 22,3232523,2019-08-16 13:43:06:303,0.024,0.2759,9.978,0.0004,-0.0034,9.8067,-0.0011,-0.0176,0.0027,-8.44,28.55,-3.7,253.52,8.98,0.5
32326,51.522484,-2.627916,100,0.0,10,240.2,14 / 22,3232623,2019-08-16 13:43:06:403,0.0778,0.0005,9.7697,0.0003,0.004,9.8067,0.0106,-0.0378,-0.0016,-8.0,28.75,-3.12,253.82,8.97,0.49
32327,51.522484,-2.627916,100,0.0,10,240.2,14 / 22,3232723,2019-08-16 13:43:06:503,-0.0143,0.0688,9.9525,0.0002,-0.0008,9.8067,-0.0117,0.0346,0.0027,-8.62,28.56,-3.16,253.82,8.97,0.49
32328,51.522484,-2.627916,100,0.0,10,240.2,14 / 22,3232823,2019-08-16 13:43:06:603,-0.0359,-0.0525,9.7767,-0.0018,0.0018,9.8067,0.0032,-0.0347,-0.0005,-8.13,28.63,-3.78,253.53,8.97,0.48
32329,51.522484,-2.627916,100,0.0,10,240.2,14 / 22,3232923,2019-08-16 13:43:06:703,-0.0681,-0.0566,9.7475,-0.0011,0.0041,9.8066,0.0032,-0.0347,-0.0005,-8.6,28.49,-3.77,251.14,8.99,0.5
32330,51.522484,-2.627916,100,0.0,10,240.2,14 / 22,3233023,2019-08-16 13:43:06:803,-0.0018,0.1853,9.7709,-0.0014,-0.0055,9.8066,0.0096,-0.0048,-0.0059,-8.58,28.4,-4.46,251.14,8.99,0.5
32331,51.522484,-2.627916,100,0.0,10,240.2,14 / 22,3233123,2019-08-16 13:43:06:903,0.0279,-0.0373,9.9513,-0.0013,-0.0006,9.8067,-0.0117,0.0314,0.0037,-8.58,28.4,-4.46,251.14,8.99,0.5
32332,51.522484,-2.627916,100,0.0,10,240.2,14 / 22,3233223,2019-08-16 13:43:07:003,-0.0525,0.2508,9.9524,-0.0012,-0.0039,9.8066,0.0043,-0.0272,0.0005,-7.87,28.68,-3.96,253.53,8.96,0.49
32333,51.522484,-2.627916,100,0.0,10,240.2,14 / 22,3233323,2019-08-16 13:43:07:103,0.0169,-0.0247,9.998,0.0016,-0.0025,9.8067,0.0138,-0.0304,-0.0048,-8.79,28.5,-3.23,251.44,8.95,0.48
32334,51.522484,-2.627916,100,0.0,10,240.2,14 / 22,3233424,2019-08-16 13:43:07:204,-0.0484,-0.0552,9.7198,0.0014,0.0057,9.8066,-0.0107,0.0261,0.009,-8.16,28.71,-3.08,251.44,8.95,0.48
32335,51.522484,-2.627916,100,0.0,10,240.2,14 / 22,3233522,2019-08-16 13:43:07:302,0.0157,0.0591,9.7317,0.0,0.0037,9.8067,-0.0021,0.0026,0.0059,-8.16,28.71,-3.08,251.44,8.95,0.48
32336,51.522484,-2.627916,100,0.0,10,240.2,14 / 22,3233623,2019-08-16 13:43:07:403,0.001,0.2061,10.149,0.0004,0.0027,9.8067,0.0043,0.0218,-0.0037,-8.44,28.55,-3.7,253.53,8.97,0.49
32337,51.522484,-2.627916,100,0.0,10,240.2,14 / 22,3233723,2019-08-16 13:43:07:503,0.0052,0.0235,9.6664,-0.0015,-0.0031,9.8067,0.0043,0.0218,-0.0037,-8.17,28.77,-2.37,254.1,8.99,0.49
32338,51.522484,-2.627916,100,0.0,10,240.2,14 / 22,3233823,2019-08-16 13:43:07:603,-0.1272,0.1955,10.0838,-0.0022,0.0007,9.8067,-0.0107,0.0239,0.0037,-8.17,28.77,-2.37,254.1,8.99,0.49
32339,51.522484,-2.627916,100,0.0,10,240.2,14 / 22,3233923,2019-08-16 13:43:07:703,-0.0132,-0.0607,10.032,0.0008,-0.005,9.8066,-0.0043,0.0197,0.0048,-8.15,28.7,-3.18,253.81,8.99,0.5
32340,51.522484,-2.627916,100,0.0,10,240.2,14 / 22,3234023,2019-08-16 13:43:07:803,-0.0287,-0.1461,9.5644,-0.0002,-0.0059,9.8066,0.0138,-0.007,-0.0069,-8.32,28.65,-3.14,253.82,8.96,0.5
32341,51.522484,-2.627916,100,0.0,10,240.2,14 / 22,3234123,2019-08-16 13:43:07:903,-0.0087,0.098,9.9209,0.0017,0.0027,9.8066,-0.0075,0.0175,0.0005,-8.32,28.65,-3.14,253.82,8.96,0.5
32342,51.522484,-2.627916,100,0.0,10,240.2,14 / 22,3234224,2019-08-16 13:43:08:004,0.1115,-0.1486,9.5796,0.0002,-0.0049,9.8066,0.0,0.0335,0.0016,-8.74,28.33,-4.55,250.85,8.97,0.49
32343,51.522484,-2.627916,100,0.0,10,240.2,14 / 22,3234323,2019-08-16 13:43:08:103,-0.0125,0.0627,9.8346,-0.0014,-0.0005,9.8067,-0.0043,-0.0123,0.0048,-8.82,28.38,-4.1,251.14,8.97,0.5
32344,51.522484,-2.627916,100,0.0,10,240.2,14 / 22,3234423,2019-08-16 13:43:08:203,0.1692,-0.1207,9.4047,0.0015,-0.0041,9.8066,-0.0053,0.0058,-0.0016,-8.82,28.38,-4.1,251.14,8.97,0.5
32345,51.522484,-2.627916,100,0.0,10,240.2,14 / 22,3234523,2019-08-16 13:43:08:303,0.084,0.3089,9.9365,0.0013,0.0061,9.8066,0.0032,0.0474,-0.0037,-8.27,28.47,-4.57,252.68,8.95,0.48
32346,51.522484,-2.627916,100,0.0,10,240.2,14 / 22,3234623,2019-08-16 13:43:08:403,0.0054,-0.1026,9.6339,0.0017,0.0025,9.8066,0.0032,0.0474,-0.0037,-8.27,28.47,-4.57,252.68,8.96,0.48
32347,51.522484,-2.627916,100,0.0,10,240.2,14 / 22,3234723,2019-08-16 13:43:08:503,0.0128,0.1422,9.9395,-0.0011,0.001,9.8067,-0.0085,0.0133,0.008,-8.27,28.47,-4.57,252.68,8.96,0.48
32348,51.522484,-2.627916,100,0.0,10,240.2,13 / 22,3234823,2019-08-16 13:43:08:603,0.0944,-0.1292,9.7075,0.0012,0.0011,9.8067,-0.0032,-0.0123,-0.0037,-9.31,28.16,-4.52,250.85,8.97,0.48
32349,51.522484,-2.627916,100,0.0,10,240.2,13 / 22,3234923,2019-08-16 13:43:08:703,-0.0469,-0.033,9.6913,-0.001,-0.0054,9.8066,-0.0043,0.0346,0.0037,-8.77,28.43,-3.84,251.14,8.98,0.48
32350,51.522484,-2.627916,100,0.0,10,240.2,13 / 22,3235023,2019-08-16 13:43:08:803,-0.0907,0.1088,10.2148,-0.0018,-0.0015,9.8067,0.0128,-0.0155,-0.0048,-9.55,28.26,-3.17,249.64,8.97,0.49
32351,51.522484,-2.627916,100,0.0,10,240.2,13 / 22,3235122,2019-08-16 13:43:08:902,-0.0035,-0.019,9.5573,0.0028,0.0011,9.8067,-0.0107,0.0186,0.0027,-9.55,28.26,-3.17,249.64,8.97,0.49
32352,51.522484,-2.627916,100,0.0,10,240.2,13 / 22,3235223,2019-08-16 13:43:09:003,0.0563,-0.1705,9.89,0.0014,-0.0007,9.8067,-0.0043,-0.0112,0.0037,-9.16,28.32,-3.74,251.15,8.96,0.48
32353,51.522484,-2.627916,100,0.0,10,240.2,13 / 22,3235323,2019-08-16 13:43:09:103,0.0803,-0.1064,9.3453,0.001,0.0005,9.8067,-0.0043,-0.0112,0.0037,-9.34,28.25,-3.82,251.15,8.96,0.48
32354,51.522484,-2.627916,100,0.0,10,240.2,13 / 22,3235423,2019-08-16 13:43:09:203,0.0105,0.2774,10.0373,-0.0008,0.0035,9.8067,0.0181,-0.0336,-0.0069,-9.34,28.25,-3.82,251.15,8.96,0.48
32355,51.522484,-2.627916,100,0.0,10,240.2,13 / 22,3235523,2019-08-16 13:43:09:303,0.0721,0.1071,9.9285,0.0007,0.0055,9.8066,-0.0043,0.0026,-0.0005,-7.84,28.57,-4.69,253.24,8.98,0.49
32356,51.522484,-2.627916,100,0.0,10,240.2,13 / 22,3235623,2019-08-16 13:43:09:403,0.0114,0.1156,9.7366,-0.001,-0.0046,9.8066,-0.0032,0.0474,0.0005,-8.46,28.51,-3.94,253.52,9.01,0.49
32357,51.522484,-2.627916,100,0.0,10,240.2,13 / 22,3235723,2019-08-16 13:43:09:503,-0.0251,0.0378,10.139,-0.0014,-0.0041,9.8067,0.0075,-0.0325,-0.0037,-8.3,28.57,-3.86,253.52,9.01,0.49
32358,51.522484,-2.627916,100,0.0,10,240.2,Dec-22,3235822,2019-08-16 13:43:09:602,-0.0047,-0.1163,9.5318,-0.0012,-0.005,9.8066,-0.0085,0.0186,0.008,-8.74,28.33,-4.55,250.85,8.98,0.49
32359,51.522484,-2.627916,100,0.0,10,240.2,Dec-22,3235923,2019-08-16 13:43:09:703,-0.1466,0.2184,9.9949,0.0016,-0.0048,9.8067,-0.0043,0.0229,0.0048,-8.74,28.33,-4.55,250.85,8.98,0.49
32360,51.522484,-2.627916,100,0.0,10,240.2,Dec-22,3236023,2019-08-16 13:43:09:803,-0.078,-0.09,10.1286,0.0002,0.0027,9.8067,0.0053,-0.0293,-0.0016,-8.44,28.56,-3.6,253.53,8.96,0.47
32361,51.522484,-2.627916,100,0.0,10,240.2,Dec-22,3236122,2019-08-16 13:43:09:902,-0.0526,-0.0731,10.1032,0.0018,0.0049,9.8066,0.0,-0.0091,-0.0005,-9.36,28.33,-3.1,251.44,8.98,0.48
32362,51.522484,-2.627916,100,0.0,10,240.2,Dec-22,3236223,2019-08-16 13:43:10:003,-0.0665,-0.076,9.5658,0.0012,-0.0015,9.8067,0.0,-0.0091,-0.0005,-8.82,28.57,-2.4,251.44,8.98,0.48
32363,51.522484,-2.627916,100,0.0,10,240.2,Dec-22,3236323,2019-08-16 13:43:10:103,-0.0445,-0.0478,10.0062,0.001,0.0009,9.8067,0.0075,0.0207,-0.0027,-8.98,28.46,-3.08,251.43,8.99,0.49
32364,51.522484,-2.627916,100,0.0,10,240.2,Dec-22,3236423,2019-08-16 13:43:10:203,0.0985,-0.2671,9.4457,-0.0011,-0.0037,9.8067,-0.0139,0.0335,0.0048,-8.78,28.44,-3.74,251.14,9.0,0.49
32365,51.522484,-2.627916,100,0.0,10,240.2,Dec-22,3236524,2019-08-16 13:43:10:304,-0.024,-0.0481,9.7314,-0.001,-0.0004,9.8067,0.0011,0.0026,0.0016,-8.78,28.44,-3.74,251.14,9.0,0.49
32366,51.522484,-2.627916,100,0.0,10,240.2,Dec-22,3236623,2019-08-16 13:43:10:403,0.1033,0.0697,10.1235,0.001,-0.006,9.8066,0.0064,0.0058,-0.0027,-8.49,28.61,-3.1,253.81,9.0,0.49
32367,51.522484,-2.627916,100,0.0,10,240.2,Dec-22,3236723,2019-08-16 13:43:10:503,0.1149,0.0405,9.6005,-0.003,0.0069,9.8066,-0.0032,-0.0133,0.0037,-8.92,28.28,-4.54,250.86,8.96,0.48
32368,51.522484,-2.627916,100,0.0,10,240.2,Dec-22,3236823,2019-08-16 13:43:10:603,-0.0015,0.2109,9.9249,-0.0022,0.0048,9.8066,0.0021,-0.0272,0.0005,-8.92,28.28,-4.54,250.86,8.96,0.48
32369,51.522484,-2.627916,100,0.0,10,240.2,Dec-22,3236923,2019-08-16 13:43:10:703,-0.0645,-0.1196,9.7014,-0.0002,-0.0056,9.8066,0.0053,-0.0251,-0.0037,-8.95,28.36,-3.92,251.14,8.99,0.5
32370,51.522484,-2.627916,100,0.0,10,240.2,Dec-22,3237024,2019-08-16 13:43:10:804,-0.0554,0.166,10.1761,0.0007,-0.0032,9.8067,-0.0021,0.0314,-0.0037,-8.32,28.66,-3.04,253.82,8.97,0.49
32371,51.522484,-2.627916,100,0.0,10,240.2,Dec-22,3237123,2019-08-16 13:43:10:903,-0.0338,-0.0404,9.7535,0.0007,-0.0019,9.8066,-0.0021,0.0314,-0.0037,-8.32,28.66,-3.04,253.82,8.97,0.49
32372,51.522484,-2.627916,100,0.0,10,240.2,Dec-22,3237223,2019-08-16 13:43:11:003,-0.0333,-0.0038,10.085,0.0009,0.0006,9.8067,0.0,-0.0038,0.0027,-9.36,28.33,-3.1,253.82,8.97,0.49
32373,51.522484,-2.627916,100,0.0,10,240.2,Dec-22,3237322,2019-08-16 13:43:11:102,0.0125,-0.1233,9.4998,0.002,0.003,9.8066,0.0085,0.0112,-0.0037,-9.4,28.44,-1.66,251.73,8.99,0.48
32374,51.522484,-2.627916,100,0.0,10,240.2,Dec-22,3237423,2019-08-16 13:43:11:203,-0.1139,0.1051,9.9936,0.0007,-0.0056,9.8066,-0.0128,0.0442,0.0058,-9.4,28.44,-1.66,251.73,8.99,0.48
32375,51.522484,-2.627916,100,0.0,10,240.2,Dec-22,3237523,2019-08-16 13:43:11:303,-0.0874,-0.0291,10.1941,-0.0023,0.0036,9.8066,-0.0032,0.0122,0.0048,-10.5,28.05,-1.74,249.93,8.96,0.47
32376,51.522484,-2.627916,100,0.0,10,240.2,Dec-22,3237623,2019-08-16 13:43:11:403,0.0471,-0.2174,9.8678,-0.0021,-0.0003,9.8067,0.0117,-0.0208,-0.0059,-9.38,28.39,-2.39,251.73,8.98,0.49
32377,51.522484,-2.627916,100,0.0,10,240.2,Dec-22,3237723,2019-08-16 13:43:11:503,0.0164,0.0076,9.624,0.0002,0.0025,9.8067,-0.0085,0.0144,0.0048,-9.01,28.47,-2.89,251.73,8.98,0.49
32378,51.522484,-2.627916,100,0.0,10,240.2,Dec-22,3237823,2019-08-16 13:43:11:603,-0.0394,0.1162,10.0754,-0.0008,-0.0042,9.8067,-0.0085,0.0144,0.0048,-9.01,28.47,-2.89,251.73,8.98,0.49
32379,51.522484,-2.627916,100,0.0,10,240.2,Dec-22,3237923,2019-08-16 13:43:11:703,0.1245,-0.1079,9.4123,-0.0022,0.0039,9.8066,0.0,-0.0101,0.0027,-8.34,28.72,-2.41,254.11,8.95,0.48
32380,51.522484,-2.627916,100,0.0,10,240.2,Dec-22,3238023,2019-08-16 13:43:11:803,-0.0152,0.1988,9.8298,-0.0007,0.0054,9.8066,0.0075,-0.0283,-0.0027,-9.01,28.56,-1.71,254.11,8.95,0.48
32381,51.522484,-2.627916,100,0.0,10,240.2,Dec-22,3238123,2019-08-16 13:43:11:903,0.0687,-0.041,9.5487,-0.0007,-0.0042,9.8066,-0.0107,0.0165,0.0058,-9.0,28.51,-2.45,252.31,8.98,0.5
32382,51.522484,-2.627916,100,0.0,10,240.2,Dec-22,3238223,2019-08-16 13:43:12:003,-0.001,0.2616,9.9882,0.0001,0.0006,9.8067,0.0053,-0.0133,0.0016,-8.8,28.51,-3.12,252.03,8.98,0.5
32383,51.522484,-2.627916,100,0.0,10,240.2,Dec-22,3238323,2019-08-16 13:43:12:103,0.0454,-0.0068,9.9565,0.0007,-0.0037,9.8066,0.0106,0.0005,-0.0027,-9.2,28.46,-2.34,252.03,8.98,0.5
32384,51.522484,-2.627916,100,0.0,10,240.2,Dec-22,3238423,2019-08-16 13:43:12:203,0.0516,-0.0746,9.8948,0.0006,0.0035,9.8066,-0.0021,-0.0133,0.0048,-9.4,28.44,-1.66,251.73,8.97,0.5
32385,51.522484,-2.627916,100,0.0,10,240.2,Dec-22,3238522,2019-08-16 13:43:12:302,-0.044,0.0435,9.6415,0.0003,-0.0026,9.8066,-0.0021,-0.0133,0.0048,-9.4,28.44,-1.66,251.73,8.97,0.5
32386,51.522484,-2.627916,100,0.0,10,240.2,Dec-22,3238623,2019-08-16 13:43:12:403,-0.0417,0.1236,10.1026,-0.0005,0.0025,9.8066,-0.0053,0.0122,-0.0016,-8.65,28.63,-2.35,252.32,8.96,0.49
32387,51.522484,-2.627916,100,0.0,10,240.2,Dec-22,3238723,2019-08-16 13:43:12:503,0.0023,-0.1184,9.6521,0.0,0.0019,9.8066,0.0,0.0474,-0.0016,-8.66,28.68,-1.64,252.32,8.96,0.49
32388,51.522484,-2.627916,100,0.0,10,240.2,Dec-22,3238823,2019-08-16 13:43:12:603,-0.1653,0.1491,9.9679,-0.0006,-0.0014,9.8067,0.0096,-0.0432,-0.0048,-9.22,28.5,-1.63,252.31,8.97,0.5
32389,51.522484,-2.627916,100,0.0,10,240.2,Dec-22,3238923,2019-08-16 13:43:12:703,-0.0322,-0.0428,10.222,0.0,0.004,9.8067,-0.0117,0.0357,0.0048,-8.87,28.61,-1.57,252.31,8.99,0.5
32390,51.522484,-2.627916,100,0.0,10,240.2,Dec-22,3239022,2019-08-16 13:43:12:802,0.0015,-0.0741,9.4926,0.0021,-0.0037,9.8067,-0.0021,0.0218,0.0037,-8.87,28.61,-1.57,252.31,8.99,0.5
32391,51.522484,-2.627916,100,0.0,10,240.2,Dec-22,3239123,2019-08-16 13:43:12:903,-0.0684,-0.0916,9.5193,0.0021,-0.0032,9.8066,0.0064,-0.04,0.0005,-8.6,28.49,-3.77,252.31,8.99,0.5
32392,51.522484,-2.627916,100,0.0,10,240.2,Dec-22,3239223,2019-08-16 13:43:13:003,-0.0349,0.1396,10.0966,-0.0003,-0.0022,9.8067,-0.0085,0.025,0.0027,-8.34,28.72,-2.41,254.11,8.98,0.49
32393,51.522484,-2.627916,100,0.0,10,240.2,Dec-22,3239323,2019-08-16 13:43:13:103,0.0855,-0.1448,9.5569,-0.0015,0.0058,9.8066,-0.0085,0.025,0.0027,-7.74,28.81,-3.16,253.82,8.97,0.48
32394,51.522484,-2.627916,100,0.0,10,240.2,Dec-22,3239423,2019-08-16 13:43:13:203,0.0946,-0.1685,9.5098,-0.0001,-0.0006,9.8067,-0.0064,0.0474,0.0048,-7.74,28.81,-3.16,253.82,8.97,0.48
32395,51.522484,-2.627916,100,0.0,10,240.2,Dec-22,3239523,2019-08-16 13:43:13:303,0.1151,0.057,10.0532,-0.0016,-0.0008,9.8067,0.0128,-0.0272,-0.008,-8.17,28.77,-2.37,254.11,8.97,0.48
32396,51.522484,-2.627916,100,0.0,10,240.2,Dec-22,3239622,2019-08-16 13:43:13:402,0.1075,0.0623,9.6186,-0.0019,0.004,9.8067,-0.0021,0.0016,-0.0005,-8.02,28.82,-2.32,254.11,8.96,0.49
32397,51.522484,-2.627916,100,0.0,10,240.2,Dec-22,3239723,2019-08-16 13:43:13:503,-0.0325,0.2242,9.9352,-0.0009,0.0019,9.8067,-0.0053,0.0037,0.0037,-8.02,28.82,-2.32,254.1,8.97,0.5
32398,51.522484,-2.627916,100,0.0,10,240.2,Dec-22,3239823,2019-08-16 13:43:13:603,0.0557,-0.062,10.005,0.0,0.0015,9.8067,0.0032,0.0229,-0.0027,-8.2,28.84,-0.93,254.1,8.97,0.5
32399,51.522484,-2.627916,100,0.0,10,240.2,Dec-22,3239923,2019-08-16 13:43:13:703,-0.12,0.1388,9.9907,-0.0001,0.0048,9.8066,-0.0096,0.0133,0.0048,-8.17,28.77,-2.37,254.1,9.0,0.5
32400,51.522484,-2.627916,100,0.0,10,240.2,Dec-22,3240022,2019-08-16 13:43:13:802,-0.0135,0.0302,9.5397,0.0007,-0.0056,9.8066,0.0043,-0.0229,-0.0005,-8.17,28.77,-2.37,254.1,9.0,0.5
32401,51.522484,-2.627916,100,0.0,10,240.2,Dec-22,3240123,2019-08-16 13:43:13:903,-0.1072,0.081,10.0678,-0.0007,-0.0026,9.8067,0.0043,-0.0229,-0.0005,-8.17,28.77,-2.37,254.1,8.98,0.5
32402,51.522484,-2.627916,100,0.0,10,240.2,Dec-22,3240224,2019-08-16 13:43:14:004,0.0943,-0.1609,9.4068,-0.0013,-0.0016,9.8067,0.0064,0.0144,-0.0037,-8.44,28.55,-3.7,253.52,9.0,0.5
32403,51.522484,-2.627916,100,0.0,10,240.2,Dec-22,3240324,2019-08-16 13:43:14:104,-0.0497,0.0646,9.8675,-0.0011,0.0026,9.8067,-0.0021,-0.0027,0.0058,-7.56,28.78,-3.81,253.52,8.99,0.51
32404,51.522484,-2.627916,100,0.0,10,240.2,Dec-22,3240422,2019-08-16 13:43:14:202,-0.0302,-0.0628,10.2048,-0.0006,-0.0028,9.8067,0.0064,-0.0155,-0.0027,-7.56,28.78,-3.81,253.52,8.99,0.51
32405,51.522484,-2.627916,100,0.0,10,240.2,Dec-22,3240523,2019-08-16 13:43:14:303,0.068,-0.0612,9.3857,-0.0007,0.0033,9.8067,-0.0021,0.0442,-0.0016,-7.58,28.86,-3.09,253.81,8.97,0.5
32406,51.522484,-2.627916,100,0.0,10,240.2,Dec-22,3240624,2019-08-16 13:43:14:404,-0.0031,0.1573,9.9432,0.0003,0.0053,9.8067,-0.0139,0.0271,0.0069,-7.72,28.74,-3.78,253.52,9.0,0.51
32407,51.522484,-2.627916,100,0.0,10,240.2,Dec-22,3240723,2019-08-16 13:43:14:503,-0.0287,0.0938,9.8512,0.0032,-0.0019,9.8066,0.0053,-0.0389,-0.0016,-7.72,28.74,-3.78,253.52,9.0,0.51
32408,51.522484,-2.627916,100,0.0,10,240.2,Dec-22,3240823,2019-08-16 13:43:14:603,-0.0769,0.1311,10.3334,-0.0006,-0.001,9.8067,0.0085,0.0101,-0.0059,-8.3,28.58,-3.76,253.53,8.99,0.49
32409,51.522484,-2.627916,100,0.0,10,240.2,Dec-22,3240923,2019-08-16 13:43:14:703,-0.0359,-0.0466,9.5143,0.0002,0.0016,9.8067,0.0085,0.0101,-0.0059,-7.43,28.91,-3.03,255.63,9.0,0.49
32410,51.522484,-2.627916,100,0.0,10,240.2,Dec-22,3241023,2019-08-16 13:43:14:803,0.0351,0.0536,10.1484,0.0013,-0.0055,9.8066,-0.0149,0.0378,0.0027,-7.77,28.93,-1.69,255.63,9.0,0.49
32411,51.522484,-2.627916,100,0.0,10,240.2,Dec-22,3241123,2019-08-16 13:43:14:903,-0.0366,0.1125,9.7797,-0.0002,0.0026,9.8067,-0.0107,0.041,0.0058,-7.77,28.93,-1.69,255.63,9.0,0.49
32412,51.522484,-2.627916,100,0.0,10,240.2,Dec-22,3241223,2019-08-16 13:43:15:003,-0.2068,0.2986,10.1465,-0.0011,-0.005,9.8067,0.0075,-0.0283,0.0005,-8.03,28.86,-1.62,254.1,9.02,0.5
32413,51.522484,-2.627916,100,0.0,10,240.2,Dec-22,3241323,2019-08-16 13:43:15:103,-0.0458,-0.2622,9.8399,-0.0012,0.0012,9.8067,0.0021,-0.0325,0.0005,-7.61,28.97,-1.66,254.1,8.99,0.49
32414,51.522484,-2.627916,100,0.0,10,240.2,Dec-22,3241422,2019-08-16 13:43:15:202,-0.099,-0.189,9.6874,-0.0006,-0.0019,9.8067,-0.0011,0.042,0.0005,-7.61,28.97,-1.66,254.1,8.99,0.49
32415,51.522484,-2.627916,100,0.0,10,240.2,Dec-22,3241523,2019-08-16 13:43:15:303,0.0304,-0.1048,9.4804,-0.0004,0.002,9.8067,-0.0043,0.0037,0.0048,-7.56,28.79,-3.7,253.53,8.98,0.5
32416,51.522484,-2.627916,100,0.0,10,240.2,Dec-22,3241623,2019-08-16 13:43:15:403,-0.0104,0.0486,9.7591,0.0001,0.0059,9.8067,0.0011,-0.0102,0.0027,-7.14,28.97,-3.07,253.53,8.98,0.5
32417,51.522484,-2.627916,100,0.0,10,240.2,Dec-22,3241723,2019-08-16 13:43:15:503,0.1162,-0.2137,9.843,0.0,-0.0053,9.8066,0.0032,0.0218,-0.0037,-7.29,28.93,-3.13,255.63,9.01,0.5
32418,51.522484,-2.627916,100,0.0,10,240.2,Dec-22,3241823,2019-08-16 13:43:15:603,0.1638,-0.14,9.3845,-0.0011,-0.0016,9.8067,0.0032,0.0218,-0.0037,-7.12,28.89,-3.8,255.63,9.01,0.5
32419,51.522484,-2.627916,100,0.0,10,240.2,Dec-22,3241923,2019-08-16 13:43:15:703,-0.0071,0.2732,10.1649,-0.001,-0.0007,9.8067,0.0032,-0.024,0.0005,-7.87,28.69,-3.86,253.52,9.0,0.51
32420,51.522484,-2.627916,100,0.0,10,240.2,Dec-22,3242023,2019-08-16 13:43:15:803,0.0803,0.0212,9.8755,-0.0002,-0.0022,9.8066,-0.0032,-0.0016,-0.0005,-7.87,28.69,-3.86,253.52,9.0,0.51
32421,51.522484,-2.627916,100,0.0,10,240.2,Dec-22,3242123,2019-08-16 13:43:15:903,-0.0526,-0.0313,9.7816,0.0012,0.003,9.8066,0.0053,0.0143,-0.0037,-7.69,28.63,-4.6,253.23,8.99,0.51
32422,51.522484,-2.627916,100,0.0,10,240.2,Dec-22,3242223,2019-08-16 13:43:16:003,0.1535,-0.0806,9.5707,0.0008,-0.006,9.8066,0.0021,-0.0261,0.0037,-9.19,28.41,-2.94,251.43,9.01,0.51
32423,51.522484,-2.627916,100,0.0,10,240.2,Dec-22,3242323,2019-08-16 13:43:16:103,0.0003,0.0235,9.8513,0.0011,-0.0044,9.8066,0.0,-0.0112,0.0005,-9.19,28.41,-2.94,251.43,9.01,0.51
32424,51.522484,-2.627916,100,0.0,10,240.2,Dec-22,3242423,2019-08-16 13:43:16:203,0.0025,-0.1218,9.5003,-0.0003,-0.0011,9.8066,0.0085,0.0112,-0.0048,-8.8,28.52,-3.02,252.03,8.98,0.49
32425,51.522484,-2.627916,100,0.0,10,240.2,Dec-22,3242526,2019-08-16 13:43:16:306,-0.042,0.0333,9.8572,0.0003,0.0006,9.8067,-0.0064,0.0282,0.0037,-8.65,28.63,-2.35,252.32,8.99,0.49
32426,51.522484,-2.627916,100,0.0,10,240.2,Dec-22,3242623,2019-08-16 13:43:16:403,-0.0096,-0.084,9.5822,-0.0005,0.0052,9.8066,-0.0064,0.0282,0.0037,-8.65,28.63,-2.35,252.32,8.99,0.49
32427,51.522484,-2.627916,100,0.0,10,240.2,Dec-22,3242723,2019-08-16 13:43:16:503,-0.1649,0.2151,10.1283,0.0001,-0.0053,9.8066,0.0011,0.0112,-0.0005,-8.63,28.58,-2.96,252.03,9.02,0.5
32428,51.522484,-2.627916,100,0.0,10,240.2,Dec-22,3242823,2019-08-16 13:43:16:603,0.0102,-0.1626,9.4609,-0.0016,-0.008,9.8066,0.0075,-0.0027,-0.0037,-7.66,28.77,-3.66,253.53,8.97,0.5
32429,51.522484,-2.627916,100,0.0,10,240.2,Dec-22,3242923,2019-08-16 13:43:16:703,0.086,-0.0298,9.6179,0.0011,-0.0004,9.8067,-0.0064,-0.0006,0.0048,-7.66,28.77,-3.66,253.53,8.97,0.5
32430,51.522484,-2.627916,100,0.0,10,240.2,Dec-22,3243023,2019-08-16 13:43:16:803,0.0111,0.0669,9.8237,-0.0017,0.0042,9.8067,0.0043,-0.0197,0.0005,-7.4,28.9,-3.19,255.63,8.97,0.49
32431,51.522484,-2.627916,100,0.0,10,240.2,Dec-22,3243123,2019-08-16 13:43:16:903,-0.0062,0.0194,10.1424,-0.0013,0.0044,9.8066,0.0075,-0.0261,-0.0037,-7.4,28.9,-3.19,255.63,8.99,0.51
32432,51.522484,-2.627916,100,0.0,10,240.2,Dec-22,3243223,2019-08-16 13:43:17:003,-0.1581,0.3039,10.0924,-0.0006,0.0014,9.8067,-0.0096,0.0367,0.0058,-7.98,28.67,-3.81,253.52,9.0,0.51
32433,51.522484,-2.627916,100,0.0,10,240.2,Dec-22,3243322,2019-08-16 13:43:17:102,-0.0269,-0.0897,9.9972,0.0002,-0.0013,9.8066,0.0011,-0.0283,-0.0037,-7.98,28.67,-3.81,253.52,9.0,0.51
32434,51.522484,-2.627916,100,0.0,10,240.2,Dec-22,3243423,2019-08-16 13:43:17:203,-0.0936,0.1247,9.9345,0.0006,-0.0075,9.8066,0.0011,-0.0283,-0.0037,-7.98,28.67,-3.81,253.52,9.0,0.51
32435,51.522484,-2.627916,100,0.0,10,240.2,Dec-22,3243523,2019-08-16 13:43:17:303,-0.0462,-0.0457,10.0294,0.0014,0.001,9.8067,0.0064,0.0165,-0.0059,-7.7,28.9,-2.34,254.11,8.96,0.5
32436,51.522484,-2.627916,100,0.0,10,240.2,Dec-22,3243624,2019-08-16 13:43:17:404,-0.1168,0.0196,9.8289,0.0009,0.0034,9.8067,-0.0128,0.0484,0.0037,-7.7,28.9,-2.34,254.11,8.96,0.5
32437,51.522484,-2.627916,100,0.0,10,240.2,Dec-22,3243723,2019-08-16 13:43:17:503,-0.044,-0.0379,10.0469,0.0,0.0012,9.8067,-0.0011,0.0186,0.0027,-7.85,28.86,-2.39,254.1,8.98,0.5
32438,51.522484,-2.627916,100,0.0,10,240.2,Dec-22,3243823,2019-08-16 13:43:17:603,0.077,-0.2435,9.4418,-0.0018,0.0006,9.8066,0.0106,-0.0144,-0.0069,-8.28,28.79,-1.61,254.1,8.98,0.51
32439,51.522484,-2.627916,100,0.0,10,240.2,Dec-22,3243923,2019-08-16 13:43:17:703,0.0398,0.0018,9.7935,-0.0008,0.0021,9.8066,-0.0053,0.0271,0.0027,-8.74,28.61,-2.31,252.31,8.99,0.51
32440,51.522484,-2.627916,100,0.0,10,240.2,Dec-22,3244023,2019-08-16 13:43:17:803,0.0957,-0.066,9.5625,0.0008,-0.0061,9.8066,0.0021,-0.0027,-0.0005,-8.74,28.61,-2.31,252.31,8.99,0.51
32441,51.522484,-2.627916,100,0.0,10,240.2,Dec-22,3244123,2019-08-16 13:43:17:903,0.0444,0.1834,9.9854,0.0003,0.0016,9.8067,0.0085,0.0176,-0.0027,-7.82,28.72,-3.73,253.53,8.96,0.5
32442,51.522484,-2.627916,100,0.0,10,240.2,Dec-22,3244223,2019-08-16 13:43:18:003,0.151,-0.1644,9.4547,0.0001,0.0053,9.8067,0.0085,0.0176,-0.0027,-8.0,28.75,-3.07,253.53,8.96,0.5
32443,51.522484,-2.627916,100,0.0,10,240.2,Dec-22,3244323,2019-08-16 13:43:18:103,-0.0149,0.307,10.149,0.0002,0.0049,9.8067,-0.0128,0.0207,0.0059,-6.77,28.97,-3.85,255.34,8.98,0.51
32444,51.522484,-2.627916,100,0.0,10,240.2,Dec-22,3244423,2019-08-16 13:43:18:203,0.1533,0.1032,9.7069,0.0001,0.0008,9.8067,0.0,0.0154,0.0037,-7.23,28.87,-3.75,255.34,8.98,0.51
32445,51.522484,-2.627916,100,0.0,10,240.2,Dec-22,3244523,2019-08-16 13:43:18:303,-0.0344,-0.0039,9.8093,-0.0011,-0.0002,9.8067,0.0117,0.0122,-0.0048,-7.23,28.87,-3.75,255.34,8.98,0.51
32446,51.522484,-2.627916,100,0.0,10,240.2,Dec-22,3244622,2019-08-16 13:43:18:402,-0.0202,-0.0156,10.0849,-0.0008,0.0054,9.8066,0.0021,-0.0261,-0.0005,-7.27,29.06,-1.66,255.92,8.98,0.51
32447,51.522484,-2.627916,100,0.0,10,240.2,Dec-22,3244723,2019-08-16 13:43:18:503,0.0561,-0.1201,9.4901,-0.0005,-0.0049,9.8067,-0.0139,0.0271,0.0048,-7.87,28.9,-1.66,254.1,9.0,0.52
32448,51.522484,-2.627916,100,0.0,10,240.2,Dec-22,3244823,2019-08-16 13:43:18:603,0.0068,-0.0588,10.054,-0.0001,-0.006,9.8066,0.0,-0.0272,0.0005,-7.57,29.03,-0.18,254.68,8.97,0.52
32449,51.522484,-2.627916,100,0.0,10,240.2,Dec-22,3244923,2019-08-16 13:43:18:703,-0.0685,-0.0243,9.8594,0.0007,0.0008,9.8067,0.0,-0.0272,0.0005,-7.0,29.17,-0.18,254.68,8.97,0.52
32450,51.522484,-2.627916,100,0.0,10,240.2,Dec-22,3245024,2019-08-16 13:43:18:804,0.0393,-0.106,9.9684,0.0004,-0.0032,9.8067,0.0181,-0.0283,-0.0069,-7.0,29.17,-0.18,254.68,8.97,0.52
32451,51.522484,-2.627916,100,0.0,10,240.2,Dec-22,3245123,2019-08-16 13:43:18:903,-0.0191,-0.0115,9.654,0.0008,0.001,9.8067,-0.0117,0.0282,0.0048,-8.43,28.69,-2.37,254.1,8.98,0.51
32452,51.522484,-2.627916,100,0.0,10,240.2,Dec-22,3245224,2019-08-16 13:43:19:004,0.047,-0.2286,9.8547,-0.0004,-0.0046,9.8066,-0.0021,-0.008,0.0048,-8.25,28.68,-3.03,253.81,8.99,0.5
32453,51.522484,-2.627916,100,0.0,10,240.2,Dec-22,3245323,2019-08-16 13:43:19:103,0.0349,-0.1404,9.416,-0.0015,-0.0007,9.8067,0.0053,0.0186,-0.0027,-8.25,28.68,-3.03,253.81,8.99,0.5
32454,51.522484,-2.627916,100,0.0,10,240.2,Dec-22,3245423,2019-08-16 13:43:19:203,0.0144,-0.082,9.5432,0.0014,-0.0022,9.8067,0.0021,-0.0091,-0.0005,-7.79,28.61,-4.55,253.23,8.98,0.51
32455,51.522484,-2.627916,100,0.0,10,240.2,Dec-22,3245523,2019-08-16 13:43:19:303,-0.0452,0.1077,9.921,-0.0013,-0.0002,9.8067,0.0021,0.008,-0.0005,-8.14,28.6,-3.99,253.53,8.97,0.5
32456,51.522484,-2.627916,100,0.0,10,240.2,Dec-22,3245623,2019-08-16 13:43:19:403,0.0921,-0.0249,9.5358,-0.002,0.0026,9.8067,0.0021,0.008,-0.0005,-8.16,28.69,-3.24,253.53,8.97,0.5
32457,51.522484,-2.627916,100,0.0,10,240.2,Dec-22,3245724,2019-08-16 13:43:19:504,-0.0493,0.1045,10.0675,-0.0021,-0.002,9.8067,-0.0117,0.0378,0.0048,-8.31,28.54,-4.07,253.53,8.96,0.5
32458,51.522484,-2.627916,100,0.0,10,240.2,Dec-22,3245822,2019-08-16 13:43:19:602,0.0154,-0.0646,9.6382,0.0001,0.0004,9.8067,0.0117,-0.0144,-0.0091,-7.83,28.78,-3.21,253.53,8.96,0.5
32459,51.522484,-2.627916,100,0.0,10,240.2,Dec-22,3245924,2019-08-16 13:43:19:704,-0.0573,0.1212,9.831,0.0011,-0.0008,9.8067,0.0043,-0.0144,-0.0027,-7.97,28.66,-3.91,253.53,8.96,0.5
32460,51.522484,-2.627916,100,0.0,10,240.2,Dec-22,3246023,2019-08-16 13:43:19:803,0.0217,-0.0291,10.0527,-0.0005,-0.0001,9.8067,-0.0096,-0.0038,0.0059,-7.97,28.66,-3.91,253.53,8.96,0.5
32461,51.522484,-2.627916,100,0.0,10,240.2,Dec-22,3246123,2019-08-16 13:43:19:903,-0.0008,0.0233,10.1006,-0.0002,-0.0043,9.8067,0.0032,0.0197,-0.0016,-7.71,28.94,-1.72,254.1,9.0,0.5
32462,51.522484,-2.627916,100,0.0,10,240.2,Dec-22,3246224,2019-08-16 13:43:20:004,-0.0275,-0.0784,9.6246,-0.0018,-0.0001,9.8067,-0.0021,0.0239,0.0005,-7.71,28.94,-1.83,254.1,8.98,0.5
32463,51.522484,-2.627916,100,0.0,10,240.2,Dec-22,3246323,2019-08-16 13:43:20:103,-0.0554,0.1451,10.1453,-0.001,0.0046,9.8066,-0.0096,0.0165,0.0048,-8.28,28.78,-1.72,254.1,8.98,0.5
32464,51.522484,-2.627916,100,0.0,10,240.2,Dec-22,3246423,2019-08-16 13:43:20:203,-0.02,-0.042,9.7416,-0.0015,0.0018,9.8067,-0.0096,0.0165,0.0048,-7.85,28.85,-2.49,254.1,8.98,0.51
32465,51.522484,-2.627916,100,0.0,10,240.2,Dec-22,3246524,2019-08-16 13:43:20:304,-0.1682,0.0444,10.0546,-0.0005,0.0035,9.8066,0.0117,-0.0069,-0.0059,-7.85,28.85,-2.49,254.1,8.98,0.51
32466,51.522484,-2.627916,100,0.0,10,240.2,Dec-22,3246623,2019-08-16 13:43:20:403,-0.0929,-0.1061,10.2548,0.0016,-0.0034,9.8067,-0.0011,0.0229,-0.0016,-7.97,28.64,-4.01,253.52,9.0,0.52
32467,51.522484,-2.627916,100,0.0,10,240.2,Dec-22,3246723,2019-08-16 13:43:20:503,0.0041,-0.2621,9.2884,0.0001,-0.0085,9.8066,-0.0117,0.0474,0.0037,-7.55,28.83,-3.48,253.82,8.95,0.5
32468,51.522484,-2.627916,100,0.0,10,240.2,13 / 22,3246823,2019-08-16 13:43:20:603,-0.0843,-0.0503,10.17,-0.0006,0.0056,9.8067,0.0181,-0.0336,-0.008,-7.55,28.83,-3.48,253.82,8.95,0.5
32469,51.522484,-2.627916,100,0.0,10,240.2,13 / 22,3246923,2019-08-16 13:43:20:703,-0.0833,0.1193,9.9488,0.0017,0.0037,9.8067,0.0032,0.0005,-0.0005,-8.13,28.58,-4.1,253.53,8.98,0.5
32470,51.522484,-2.627916,100,0.0,10,240.2,13 / 22,3247023,2019-08-16 13:43:20:803,0.0816,-0.2844,9.6463,0.001,0.0026,9.8066,-0.0064,0.0527,0.0037,-7.55,28.83,-3.48,253.53,8.98,0.5
32471,51.522484,-2.627916,100,0.0,10,240.2,13 / 22,3247123,2019-08-16 13:43:20:903,0.0647,-0.1195,9.6191,0.0005,-0.0052,9.8067,-0.0064,0.0186,0.0037,-7.81,28.7,-3.93,253.52,8.99,0.5
32472,51.522484,-2.627916,100,0.0,10,240.2,13 / 22,3247223,2019-08-16 13:43:21:003,0.0624,0.0591,10.1269,-0.001,0.0001,9.8067,-0.0064,0.0186,0.0037,-7.81,28.7,-3.93,253.52,8.99,0.5
32473,51.522484,-2.627916,100,0.0,10,240.2,13 / 22,3247323,2019-08-16 13:43:21:103,-0.0004,0.0246,9.7329,-0.0004,-0.0001,9.8067,0.0043,-0.0282,0.0016,-8.58,28.55,-3.37,252.03,8.99,0.5
32474,51.522484,-2.627916,100,0.0,10,240.2,13 / 22,3247422,2019-08-16 13:43:21:202,0.1179,-0.101,10.0373,0.0011,0.0002,9.8066,-0.0181,0.0335,0.0059,-8.43,28.68,-2.58,253.81,8.99,0.51
32475,51.522484,-2.627916,100,0.0,10,240.2,13 / 22,3247523,2019-08-16 13:43:21:303,0.1723,-0.1272,9.4173,0.0004,-0.002,9.8067,0.016,-0.0197,-0.0069,-8.61,28.67,-2.0,253.81,8.99,0.51
32476,51.522484,-2.627916,100,0.0,10,240.2,13 / 22,3247623,2019-08-16 13:43:21:403,-0.0269,0.239,10.0135,-0.0002,0.002,9.8066,-0.0011,0.0303,0.0037,-8.61,28.67,-2.0,253.81,8.99,0.51
32477,51.522484,-2.627916,100,0.0,10,240.2,13 / 22,3247723,2019-08-16 13:43:21:503,-0.0537,-0.0886,9.758,-0.0008,-0.002,9.8066,-0.0128,-0.008,0.0069,-8.58,28.55,-3.37,252.03,9.0,0.51
32478,51.522484,-2.627916,100,0.0,10,240.2,13 / 22,3247823,2019-08-16 13:43:21:603,-0.0826,0.0329,9.9676,-0.0022,-0.0054,9.8066,0.0032,0.0144,-0.0016,-6.76,28.94,-4.06,252.03,9.0,0.51
32479,51.522484,-2.627916,100,0.0,10,240.2,13 / 22,3247922,2019-08-16 13:43:21:702,0.0328,-0.1478,9.4813,-0.0025,-0.0086,9.8066,0.0032,0.0144,-0.0016,-8.16,28.67,-3.35,253.81,8.95,0.51
32480,51.522484,-2.627916,100,0.0,10,240.2,13 / 22,3248023,2019-08-16 13:43:21:803,-0.0678,0.0686,9.9124,0.0003,0.0042,9.8066,0.0043,0.0208,-0.0005,-8.16,28.67,-3.35,253.81,8.95,0.51
32481,51.522484,-2.627916,100,0.0,10,240.2,13 / 22,3248122,2019-08-16 13:43:21:902,-0.0273,0.0167,10.1194,0.0015,0.0005,9.8067,-0.017,0.0133,0.0059,-7.71,28.79,-3.44,253.82,8.96,0.5
32482,51.522484,-2.627916,100,0.0,10,240.2,13 / 22,3248223,2019-08-16 13:43:22:003,-0.0672,-0.0548,9.7815,0.0017,0.0013,9.8066,0.0043,0.0133,-0.0048,-7.52,28.75,-4.12,253.53,8.97,0.49
32483,51.522484,-2.627916,100,0.0,10,240.2,13 / 22,3248324,2019-08-16 13:43:22:104,-0.0135,-0.2541,9.9033,-0.0005,0.0006,9.8067,0.0064,0.009,0.0005,-7.52,28.75,-4.12,253.53,8.97,0.49
32484,51.522484,-2.627916,100,0.0,10,240.2,13 / 22,3248423,2019-08-16 13:43:22:203,-0.0523,-0.0496,9.6104,-0.001,-0.0025,9.8067,-0.0021,-0.0336,0.0005,-7.52,28.75,-4.12,253.53,8.97,0.49
32485,51.522484,-2.627916,100,0.0,10,240.2,13 / 22,3248523,2019-08-16 13:43:22:303,0.1001,-0.1066,9.4851,0.0006,0.0015,9.8066,0.0085,-0.0048,-0.0069,-8.6,28.62,-2.63,252.03,8.95,0.49
32486,51.522484,-2.627916,100,0.0,10,240.2,13 / 22,3248623,2019-08-16 13:43:22:403,-0.0502,0.0701,9.6607,0.0007,0.0058,9.8066,-0.0011,0.0176,0.0005,-7.85,28.84,-2.59,252.03,8.95,0.49
32487,51.522484,-2.627916,100,0.0,10,240.2,13 / 22,3248723,2019-08-16 13:43:22:503,-0.0082,0.1129,10.2594,0.001,0.0038,9.8066,-0.0011,0.0176,0.0005,-8.44,28.73,-1.85,254.1,8.97,0.5
32488,51.522484,-2.627916,100,0.0,10,240.2,13 / 22,3248823,2019-08-16 13:43:22:603,-0.0423,0.0009,9.7433,-0.0008,0.0045,9.8067,-0.0043,-0.0261,0.0037,-8.44,28.73,-1.85,254.1,8.97,0.5
32489,51.522484,-2.627916,100,0.0,10,240.2,13 / 22,3248923,2019-08-16 13:43:22:703,0.0046,-0.017,10.0989,-0.0004,-0.0035,9.8066,0.017,-0.0304,-0.008,-8.62,28.68,-1.79,251.43,9.0,0.51
32490,51.522484,-2.627916,100,0.0,10,240.2,13 / 22,3249024,2019-08-16 13:43:22:804,0.0118,0.2336,9.9375,-0.0004,-0.005,9.8066,0.0011,-0.0101,-0.0016,-8.62,28.68,-1.79,251.43,9.0,0.51
32491,51.522484,-2.627916,100,0.0,10,240.2,13 / 22,3249123,2019-08-16 13:43:22:903,0.0856,0.0317,10.0824,0.0011,0.0061,9.8066,-0.0117,0.024,0.0048,-7.97,28.66,-3.91,253.53,8.97,0.5
32492,51.522484,-2.627916,100,0.0,10,240.2,13 / 22,3249223,2019-08-16 13:43:23:003,-0.1307,0.1426,10.1385,-0.0009,0.0012,9.8067,0.0096,-0.0314,-0.0027,-7.71,28.79,-3.44,253.81,8.97,0.51
32493,51.522484,-2.627916,100,0.0,10,240.2,13 / 22,3249323,2019-08-16 13:43:23:103,-0.0048,-0.1091,9.5589,0.0012,-0.0019,9.8066,0.0085,-0.0368,-0.0037,-7.71,28.79,-3.44,253.81,8.98,0.53
32494,51.522484,-2.627916,100,0.0,10,240.2,13 / 22,3249424,2019-08-16 13:43:23:204,-0.127,0.1266,9.8265,0.0011,-0.005,9.8066,-0.0149,0.0378,0.0048,-7.71,28.79,-3.44,253.81,8.98,0.53
32495,51.522484,-2.627916,100,0.0,10,240.2,13 / 22,3249524,2019-08-16 13:43:23:304,0.0327,-0.0273,9.5795,0.0005,0.0049,9.8067,-0.0021,-0.0037,-0.0027,-8.35,28.69,-2.65,253.81,8.96,0.51
32496,51.522484,-2.627916,100,0.0,10,240.2,13 / 22,3249623,2019-08-16 13:43:23:403,-0.1313,0.0994,9.873,0.0019,0.0006,9.8067,-0.0021,-0.0037,-0.0027,-7.85,28.85,-2.49,254.1,8.96,0.5
32497,51.522484,-2.627916,100,0.0,10,240.2,13 / 22,3249723,2019-08-16 13:43:23:503,-0.0312,-0.167,10.0606,-0.0006,-0.0006,9.8067,0.0021,-0.0357,-0.0016,-7.85,28.85,-2.49,254.1,8.96,0.5
32498,51.522484,-2.627916,100,0.0,10,240.2,Dec-22,3249823,2019-08-16 13:43:23:603,-0.0309,-0.1262,10.008,0.0018,0.0022,9.8067,0.0128,-0.008,-0.0069,-9.1,28.53,-1.78,252.31,8.96,0.5
32499,51.522484,-2.627916,100,0.0,10,240.2,Dec-22,3249923,2019-08-16 13:43:23:703,-0.0635,0.1772,9.8994,0.0025,0.0015,9.8067,-0.0032,0.0144,0.0037,-8.01,28.8,-2.54,253.82,8.97,0.49
32500,51.522484,-2.627916,100,0.0,10,240.2,Dec-22,3250023,2019-08-16 13:43:23:803,-0.0602,-0.0164,10.0149,-0.001,-0.003,9.8067,-0.0032,-0.0155,0.0027,-8.03,28.85,-1.8,253.82,8.97,0.49
32501,51.522484,-2.627916,100,0.0,10,240.2,Dec-22,3250123,2019-08-16 13:43:23:903,-0.0879,-0.0423,9.8606,-0.0014,0.0028,9.8067,-0.0021,0.0218,0.0005,-8.41,28.62,-3.2,253.81,8.98,0.51
32502,51.522484,-2.627916,100,0.0,10,240.2,Dec-22,3250222,2019-08-16 13:43:24:002,0.0152,-0.186,9.6503,0.0012,-0.0073,9.8066,-0.0064,0.0186,0.0048,-8.41,28.62,-3.2,253.81,8.98,0.51
32503,51.522484,-2.627916,100,0.0,10,240.2,Dec-22,3250323,2019-08-16 13:43:24:103,-0.1139,-0.0379,9.7471,0.0,0.004,9.8067,0.0011,-0.0187,-0.0016,-8.53,28.39,-4.61,250.86,8.95,0.49
32504,51.522484,-2.627916,100,0.0,10,240.2,Dec-22,3250422,2019-08-16 13:43:24:202,-0.1007,0.0633,9.8518,-0.0004,0.0028,9.8067,0.0075,0.0101,-0.0048,-7.53,28.76,-4.01,250.86,8.95,0.49
32505,51.522484,-2.627916,100,0.0,10,240.2,Dec-22,3250523,2019-08-16 13:43:24:303,-0.0565,-0.1665,10.0637,-0.0006,0.0051,9.8066,0.0075,0.0101,-0.0048,-8.31,28.54,-4.07,253.53,8.96,0.49
32506,51.522484,-2.627916,100,0.0,10,240.2,Dec-22,3250624,2019-08-16 13:43:24:404,-0.2035,0.1566,10.2134,0.0,0.003,9.8066,0.0,-0.008,0.0005,-7.37,28.81,-3.93,255.34,8.98,0.5
32507,51.522484,-2.627916,100,0.0,10,240.2,Dec-22,3250723,2019-08-16 13:43:24:503,-0.0997,-0.1063,10.1386,-0.0015,-0.0036,9.8066,0.0021,-0.0155,0.0005,-8.31,28.54,-4.07,253.53,8.95,0.5
32508,51.522484,-2.627916,100,0.0,10,240.2,Dec-22,3250823,2019-08-16 13:43:24:603,-0.0833,-0.2312,9.557,0.0015,0.0017,9.8067,0.0085,-0.0006,-0.0016,-8.31,28.54,-4.07,253.53,8.95,0.5
32509,51.522484,-2.627916,100,0.0,10,240.2,Dec-22,3250922,2019-08-16 13:43:24:702,-0.1329,-0.0417,9.8171,0.0002,0.0004,9.8067,-0.0064,-0.0059,0.0016,-8.39,28.55,-3.81,253.53,8.96,0.5
32510,51.522484,-2.627916,100,0.0,10,240.2,Dec-22,3251023,2019-08-16 13:43:24:803,-0.0789,-0.0622,9.7246,-0.0021,0.0003,9.8067,0.0075,-0.0208,-0.0005,-8.92,28.59,-1.74,253.53,8.96,0.5
32511,51.522484,-2.627916,100,0.0,10,240.2,Dec-22,3251124,2019-08-16 13:43:24:904,0.1358,-0.2058,9.5731,0.0019,-0.0065,9.8066,-0.0053,0.0485,0.0005,-8.29,28.82,-1.0,254.39,8.98,0.5
32512,51.522484,-2.627916,100,0.0,10,240.2,Dec-22,3251223,2019-08-16 13:43:25:003,0.0283,-0.0752,9.6275,0.0004,-0.0026,9.8066,-0.0107,0.0208,0.0048,-8.29,28.82,-1.0,254.39,8.98,0.5
32513,51.522484,-2.627916,100,0.0,10,240.2,Dec-22,3251323,2019-08-16 13:43:25:103,0.1593,0.0675,10.0726,0.0027,0.0014,9.8067,-0.0107,0.0208,0.0048,-8.01,28.8,-2.54,253.82,8.96,0.5
32514,51.522484,-2.627916,100,0.0,10,240.2,Dec-22,3251423,2019-08-16 13:43:25:203,0.1499,0.01,9.5929,0.0019,-0.0004,9.8067,0.0032,-0.0187,0.0016,-8.6,28.64,-2.42,253.82,8.96,0.5
32515,51.522484,-2.627916,100,0.0,10,240.2,Dec-22,3251523,2019-08-16 13:43:25:303,-0.0078,0.3224,10.0457,-0.0002,0.0051,9.8066,0.0011,0.0357,-0.0016,-7.53,28.76,-4.01,253.53,8.96,0.49
32516,51.522484,-2.627916,100,0.0,10,240.2,Dec-22,3251623,2019-08-16 13:43:25:403,0.0832,-0.1263,9.9093,0.0009,-0.0022,9.8066,-0.0139,0.0399,0.0048,-7.73,28.86,-2.66,253.82,8.95,0.48
32517,51.522484,-2.627916,100,0.0,10,240.2,Dec-22,3251723,2019-08-16 13:43:25:503,-0.0175,-0.2136,9.4876,-0.0022,0.0005,9.8067,0.0064,-0.0485,-0.0016,-7.73,28.86,-2.66,253.82,8.95,0.48
32518,51.522484,-2.627916,100,0.0,10,240.2,Dec-22,3251823,2019-08-16 13:43:25:603,-0.0795,0.1349,10.0483,-0.0001,0.0055,9.8066,-0.0139,0.0516,0.008,-7.55,28.85,-3.26,253.82,8.95,0.49
32519,51.522484,-2.627916,100,0.0,10,240.2,Dec-22,3251924,2019-08-16 13:43:25:704,-0.1108,0.01,10.0755,0.0002,0.004,9.8067,-0.0021,0.0154,0.0048,-7.4,28.9,-3.19,253.82,8.95,0.49
32520,51.522484,-2.627916,100,0.0,10,240.2,Dec-22,3252023,2019-08-16 13:43:25:803,0.0469,-0.1624,9.3446,0.0008,0.0025,9.8067,-0.0021,0.0154,0.0048,-8.14,28.6,-3.99,253.53,8.97,0.49
32521,51.522484,-2.627916,100,0.0,10,240.2,Dec-22,3252124,2019-08-16 13:43:25:904,-0.0653,0.0453,9.9231,0.0016,0.0043,9.8067,0.0085,-0.0283,-0.0016,-7.86,28.9,-1.76,254.1,8.99,0.49
32522,51.522484,-2.627916,100,0.0,10,240.2,Dec-22,3252223,2019-08-16 13:43:26:003,-0.0209,-0.0665,10.1106,-0.0016,-0.0058,9.8066,-0.0011,0.0325,0.0016,-8.03,28.85,-1.8,254.1,8.99,0.49
32523,51.522484,-2.627916,100,0.0,10,240.2,Dec-22,3252323,2019-08-16 13:43:26:103,-0.0338,0.026,9.5806,-0.0024,-0.0038,9.8067,-0.0085,0.0346,0.0059,-8.03,28.85,-1.8,254.1,8.99,0.49
32524,51.522484,-2.627916,100,0.0,10,240.2,Dec-22,3252423,2019-08-16 13:43:26:203,0.0064,0.1424,10.0168,0.0003,0.0,9.8067,0.0053,-0.0378,-0.0016,-9.09,28.49,-2.41,251.73,8.97,0.5
32525,51.522484,-2.627916,100,0.0,10,240.2,Dec-22,3252523,2019-08-16 13:43:26:303,0.1125,-0.1153,9.5955,-0.0003,-0.0014,9.8067,-0.016,0.0389,0.0058,-7.83,28.78,-3.21,253.82,8.96,0.5
32526,51.522484,-2.627916,100,0.0,10,240.2,Dec-22,3252623,2019-08-16 13:43:26:403,-0.0142,0.0406,9.7307,0.0006,0.0039,9.8066,0.0128,-0.0165,-0.0059,-7.37,28.81,-3.93,255.34,8.98,0.5
32527,51.522484,-2.627916,100,0.0,10,240.2,Dec-22,3252723,2019-08-16 13:43:26:503,-0.0348,0.1293,9.9398,0.0022,-0.0042,9.8066,0.0064,-0.008,-0.0027,-7.37,28.81,-3.93,255.34,8.98,0.5
32528,51.522484,-2.627916,100,0.0,10,240.2,Dec-22,3252824,2019-08-16 13:43:26:604,-0.0557,0.0334,10.1925,0.0022,-0.0059,9.8066,0.0064,-0.008,-0.0027,-8.14,28.6,-3.99,253.53,8.95,0.48
32529,51.522484,-2.627916,100,0.0,10,240.2,Dec-22,3252923,2019-08-16 13:43:26:703,-0.0152,0.1845,9.8648,0.0006,0.0043,9.8067,-0.0139,-0.0016,0.0058,-8.33,28.63,-3.31,253.82,8.98,0.48
32530,51.522484,-2.627916,100,0.0,10,240.2,Dec-22,3253024,2019-08-16 13:43:26:804,-0.0618,0.1072,10.2378,0.0001,-0.0031,9.8067,0.0117,-0.0187,-0.0048,-8.33,28.63,-3.31,253.82,8.98,0.48
32531,51.522484,-2.627916,100,0.0,10,240.2,Dec-22,3253122,2019-08-16 13:43:26:902,-0.0427,0.0424,9.7936,-0.0005,-0.0011,9.8066,0.0032,-0.0069,-0.0005,-8.31,28.54,-4.07,253.53,8.97,0.49
32532,51.522484,-2.627916,100,0.0,10,240.2,Dec-22,3253223,2019-08-16 13:43:27:003,0.0666,-0.091,10.0331,-0.0019,-0.008,9.8066,-0.0064,-0.0059,0.008,-8.31,28.54,-4.07,253.53,8.97,0.49
32533,51.522484,-2.627916,100,0.0,10,240.2,Dec-22,3253323,2019-08-16 13:43:27:103,-0.0391,0.0814,9.731,-0.0005,0.006,9.8066,0.0117,-0.0208,-0.0005,-8.33,28.62,-3.42,253.82,8.93,0.49
32534,51.522484,-2.627916,100,0.0,10,240.2,Dec-22,3253423,2019-08-16 13:43:27:203,-0.0018,-0.0928,9.8249,0.0007,-0.0006,9.8067,-0.0043,0.0293,0.0005,-8.76,28.51,-3.22,252.03,8.96,0.5
32535,51.522484,-2.627916,100,0.0,10,240.2,Dec-22,3253523,2019-08-16 13:43:27:303,-0.1272,-0.112,9.6823,0.0016,-0.0016,9.8066,-0.0043,0.0293,0.0005,-8.91,28.55,-2.36,252.32,8.95,0.49
32536,51.522484,-2.627916,100,0.0,10,240.2,Dec-22,3253623,2019-08-16 13:43:27:403,-0.0223,-0.05,9.7817,0.0008,0.0032,9.8067,-0.0011,-0.0421,0.0005,-8.91,28.55,-2.36,252.32,8.95,0.49
32537,51.522484,-2.627916,100,0.0,10,240.2,Dec-22,3253723,2019-08-16 13:43:27:503,-0.1476,0.0542,9.7593,-0.0007,-0.0049,9.8066,0.0128,-0.0006,-0.0048,-8.62,28.68,1.83,253.46,8.97,0.49
32538,51.522484,-2.627916,100,0.0,10,240.2,Dec-22,3253823,2019-08-16 13:43:27:603,0.0039,-0.1291,9.7567,-0.0032,-0.0045,9.8066,-0.0021,0.0112,-0.0005,-9.29,28.42,2.44,252.9,8.94,0.5
32539,51.522484,-2.627916,100,0.0,10,240.2,Dec-22,3253923,2019-08-16 13:43:27:703,0.0567,-0.0385,9.4416,0.0016,-0.0006,9.8067,0.0085,-0.0069,-0.0037,-9.68,28.38,-1.03,252.9,8.94,0.5
32540,51.522484,-2.627916,100,0.0,10,240.2,Dec-22,3254022,2019-08-16 13:43:27:802,-0.2566,-0.392,9.336,-0.0113,-0.0389,9.8066,-0.0192,-0.0314,0.0101,-9.68,28.38,-1.03,252.9,8.94,0.5
32541,51.522484,-2.627916,100,0.0,10,240.2,Dec-22,3254124,2019-08-16 13:43:27:904,0.0271,-0.005,9.1957,-0.0054,-0.0245,9.8066,-0.0149,-0.0101,0.0069,-8.2,28.84,-1.07,254.39,8.7,0.5
32542,51.522484,-2.627916,100,0.0,10,240.2,Dec-22,3254223,2019-08-16 13:43:28:003,-0.0707,-0.3111,9.4703,-0.0096,-0.0332,9.8066,0.0,0.0037,-0.0016,-8.18,28.76,-2.49,254.39,8.7,0.5
32543,51.522484,-2.627916,100,0.0,10,240.2,Dec-22,3254323,2019-08-16 13:43:28:103,-0.0742,-0.3041,9.3813,-0.0142,-0.0455,9.8065,0.0,0.0037,-0.0016,-8.81,28.66,-1.06,252.6,8.43,0.51
32544,51.522484,-2.627916,100,0.0,10,240.2,Dec-22,3254423,2019-08-16 13:43:28:203,0.0521,-0.3768,9.3114,-0.0027,-0.0108,9.8066,0.0106,-0.0123,0.0005,-8.81,28.66,-1.06,252.6,8.43,0.51
32545,51.522484,-2.627916,100,0.0,10,240.2,Dec-22,3254523,2019-08-16 13:43:28:303,-0.1287,-0.1169,9.7799,-0.0035,-0.0202,9.8066,-0.016,0.0133,0.0154,-8.01,28.81,-2.43,254.12,8.36,0.5
32546,51.522484,-2.627916,100,0.0,10,240.2,Dec-22,3254623,2019-08-16 13:43:28:403,-0.1029,0.0074,9.9726,-0.0104,-0.0428,9.8066,0.0021,-0.0091,0.0048,-8.43,28.69,-2.37,254.12,8.36,0.5
32547,51.522484,-2.627916,100,0.0,10,240.2,Dec-22,3254723,2019-08-16 13:43:28:503,-0.0042,-0.3138,9.5724,-0.0166,-0.0573,9.8065,0.0064,-0.0219,0.0005,-8.6,28.64,-2.42,252.34,8.01,0.5
32548,51.522484,-2.627916,100,0.0,10,240.2,Dec-22,3254822,2019-08-16 13:43:28:602,-0.0509,-0.3642,9.6296,-0.0047,-0.0206,9.8066,-0.0096,0.0058,0.008,-8.6,28.64,-2.42,252.34,8.01,0.5
32549,51.522484,-2.627916,100,0.0,10,240.2,Dec-22,3254923,2019-08-16 13:43:28:703,-0.0492,-0.1772,9.8678,-0.0048,-0.0132,9.8066,0.0011,0.0048,0.0005,-8.6,28.64,-2.42,252.35,7.8,0.5
32550,51.522484,-2.627916,100,0.0,10,240.2,Dec-22,3255024,2019-08-16 13:43:28:804,-0.1259,-0.0855,9.835,-0.0101,-0.0228,9.8066,0.0011,0.0048,0.0005,-8.6,28.64,-2.42,252.35,7.8,0.5
32551,51.522484,-2.627916,100,0.0,10,240.2,Dec-22,3255123,2019-08-16 13:43:28:903,0.0514,-0.0107,9.9441,-0.001,-0.0053,9.8066,-0.0128,-0.0091,0.0058,-9.09,28.49,-2.41,251.76,7.66,0.52
32552,51.522484,-2.627916,100,0.0,10,240.2,Dec-22,3255223,2019-08-16 13:43:29:003,0.1235,-0.0266,9.7906,-0.0027,-0.0206,9.8066,-0.0043,0.0048,0.0037,-8.25,28.68,-3.03,251.76,7.66,0.52
32553,51.522484,-2.627916,100,0.0,10,240.2,Dec-22,3255322,2019-08-16 13:43:29:102,0.0226,0.0525,10.0226,-0.0005,-0.0066,9.8066,-0.0021,0.0261,0.0005,-7.81,28.71,-3.83,253.67,7.54,0.49
32554,51.522484,-2.627916,100,0.0,10,240.2,Dec-22,3255423,2019-08-16 13:43:29:203,0.0153,-0.1112,9.7859,-0.0029,-0.0177,9.8066,0.0,-0.0016,0.0048,-7.73,28.87,-2.55,253.92,7.44,0.48
32555,51.522484,-2.627916,100,0.0,10,240.2,Dec-22,3255523,2019-08-16 13:43:29:303,-0.045,0.0804,10.0565,-0.0055,-0.0067,9.8066,-0.0053,0.0122,0.0005,-7.73,28.87,-2.55,253.92,7.44,0.48
32556,51.522484,-2.627916,100,0.0,10,240.2,Dec-22,3255623,2019-08-16 13:43:29:403,-0.0903,-0.0562,9.8934,-0.0038,-0.0105,9.8066,0.0053,0.0154,-0.0005,-7.55,28.85,-3.26,253.92,7.39,0.5
32557,51.522484,-2.627916,100,0.0,10,240.2,Dec-22,3255723,2019-08-16 13:43:29:503,0.0126,-0.1882,9.5752,-0.0008,-0.0071,9.8066,-0.0064,-0.0005,0.0058,-7.53,28.76,-4.01,253.69,7.32,0.5
32558,51.522484,-2.627916,100,0.0,10,240.2,13 / 22,3255823,2019-08-16 13:43:29:603,-0.0429,-0.1156,9.6853,-0.0035,-0.0095,9.8066,0.0,-0.0091,0.0069,-7.99,28.74,-3.17,253.93,7.27,0.51
32559,51.522484,-2.627916,100,0.0,10,240.2,13 / 22,3255923,2019-08-16 13:43:29:703,0.1335,0.0262,9.8852,-0.0061,-0.012,9.8066,0.0,-0.0091,0.0069,-7.83,28.79,-3.11,253.93,7.27,0.51
32560,51.522484,-2.627916,100,0.0,10,240.2,13 / 22,3256023,2019-08-16 13:43:29:803,0.0629,-0.1126,9.7445,-0.0079,-0.0188,9.8066,-0.0043,-0.0005,0.0048,-7.83,28.79,-3.11,253.93,7.27,0.51
32561,51.522484,-2.627916,100,0.0,10,240.2,13 / 22,3256123,2019-08-16 13:43:29:903,-0.1743,-0.0826,9.7734,-0.0015,0.0,9.8067,0.0138,-0.0016,-0.0016,-7.87,28.9,-1.66,254.17,7.15,0.52
32562,51.522484,-2.627916,100,0.0,10,240.2,13 / 22,3256222,2019-08-16 13:43:30:002,-0.041,0.2641,10.0693,-0.0049,-0.0005,9.8066,-0.0085,0.0442,0.0037,-7.26,29.01,-2.4,256.0,7.14,0.53
32563,51.522484,-2.627916,100,0.0,10,240.2,13 / 22,3256323,2019-08-16 13:43:30:103,0.1508,0.0058,9.5624,-0.0005,-0.0051,9.8066,0.0043,-0.041,-0.0016,-8.09,28.73,-2.98,253.93,7.11,0.53
32564,51.522484,-2.627916,100,0.0,10,240.2,13 / 22,3256423,2019-08-16 13:43:30:203,0.1085,0.0028,9.7955,0.0021,-0.0007,9.8067,-0.0107,0.0101,-0.0005,-8.09,28.73,-2.98,253.93,7.11,0.53
32565,51.522484,-2.627916,100,0.0,10,240.2,13 / 22,3256523,2019-08-16 13:43:30:303,0.1652,0.1791,9.7433,0.0047,-0.0034,9.8066,0.0032,0.024,-0.0027,-7.7,28.9,-2.34,254.17,7.1,0.49
32566,51.522484,-2.627916,100,0.0,10,240.2,13 / 22,3256623,2019-08-16 13:43:30:403,-0.0076,0.1131,9.8168,0.0057,0.0003,9.8066,0.0032,-0.0272,-0.0016,-7.35,28.71,-4.66,255.31,7.11,0.46
32567,51.522484,-2.627916,100,0.0,10,240.2,13 / 22,3256723,2019-08-16 13:43:30:503,0.0592,-0.0421,9.5499,-0.0013,0.0027,9.8067,0.0032,-0.0272,-0.0016,-7.35,28.71,-4.66,255.31,7.11,0.46
32568,51.522476,-2.627925,100,0.64,9,240.2,13 / 22,3256823,2019-08-16 13:43:30:603,0.0229,-0.0742,9.6534,0.0009,0.0027,9.8067,-0.0043,0.0271,0.0016,-7.4,28.9,-3.19,255.76,7.14,0.5
32569,51.522476,-2.627925,100,0.64,9,240.2,13 / 22,3256923,2019-08-16 13:43:30:703,0.052,-0.1892,10.1177,0.0047,-0.0029,9.8066,-0.0021,-0.0016,-0.0027,-7.37,28.81,-3.93,255.53,7.16,0.5
32570,51.522476,-2.627925,100,0.64,9,240.2,13 / 22,3257023,2019-08-16 13:43:30:803,-0.0812,0.3686,10.0699,0.0088,0.0103,9.8066,0.0021,0.0208,-0.0005,-7.37,28.81,-3.93,255.53,7.16,0.5
32571,51.522476,-2.627925,100,0.64,9,240.2,13 / 22,3257123,2019-08-16 13:43:30:903,-0.1039,0.1624,9.7963,0.0003,0.0025,9.8066,-0.0075,0.0442,0.0016,-7.84,28.8,-3.01,253.94,7.23,0.46
32572,51.522476,-2.627925,100,0.64,9,240.2,13 / 22,3257223,2019-08-16 13:43:31:003,0.0387,-0.0037,9.6825,0.0016,0.0041,9.8066,0.0075,-0.0389,0.0005,-8.01,28.81,-2.43,254.17,7.24,0.47
32573,51.522476,-2.627925,100,0.64,9,240.2,13 / 22,3257322,2019-08-16 13:43:31:102,0.1542,0.1042,9.7775,0.0067,0.0202,9.8066,0.0075,-0.0389,0.0005,-8.59,28.58,-3.05,254.17,7.24,0.47
32574,51.522476,-2.627925,100,0.64,9,240.2,13 / 22,3257423,2019-08-16 13:43:31:203,0.1725,0.1295,10.0091,0.0106,0.0291,9.8066,0.0021,0.0027,0.0037,-8.59,28.58,-3.05,254.17,7.24,0.47
32575,51.522476,-2.627925,100,0.64,9,240.2,13 / 22,3257523,2019-08-16 13:43:31:303,0.0329,-0.1771,9.4513,-0.0026,0.0077,9.8066,0.0021,0.0133,0.0037,-7.23,28.87,-3.75,255.51,7.42,0.45
32576,51.522476,-2.627925,100,0.64,9,240.2,13 / 22,3257623,2019-08-16 13:43:31:403,0.0148,0.3294,9.9337,-0.0009,0.0112,9.8066,0.0053,0.0495,0.0026,-8.0,28.75,-3.07,253.92,7.46,0.48
32577,51.522476,-2.627925,100,0.64,9,240.2,13 / 22,3257723,2019-08-16 13:43:31:503,-0.0277,0.0776,10.117,-0.0035,0.0211,9.8066,0.0106,-0.0453,-0.0037,-7.82,28.72,-3.73,253.66,7.57,0.53
