,GPS LATITUDE (degrees), GPS LONGITUDE (degrees), GPS ALTITUDE (m), GPS SPEED (Kmh), GPS ACCURACY (m), GPS ORIENTATION (Â°),GPS SATELLITES IN RANGE, TIME SINCE START (ms), DATE (YYYY-MO-DD HH-MI-SS_SSS), ACCELEROMETER X (m/s²) , ACCELEROMETER Y (m/s²), ACCELEROMETER Z (m/s²), GRAVITY X (m/s²), GRAVITY Y (m/s²), GRAVITY Z (m/s²), GYROSCOPE Yaw (rad/s), GYROSCOPE Pitch (rad/s), GYROSCOPE Roll (rad/s), MAGNETIC FIELD X (Î¼T), MAGNETIC FIELD Y (Î¼T), MAGNETIC FIELD Z (Î¼T), ORIENTATION (Yaw) (Â°), ORIENTATION (Pitch) (Â°), ORIENTATION (Roll ) (Â°)
7100,51.347607,-0.485731,57,28.3,15,165.8,Oct-20,3549167,2019-02-27 11:15:00:687,0.1001,0.1019,9.4933,0.0041,-0.0134,9.8066,-0.0005,-0.0127,-0.0112,-12.84,-10.12,-37.95,144.58,1.65,0.03
7101,51.347607,-0.485731,57,28.3,15,165.8,Oct-20,3549666,2019-02-27 11:15:01:186,-0.0518,-0.3012,8.9244,0.0218,0.0082,9.8066,-0.0133,-0.0138,-0.0069,-12.46,-10.43,-38.33,142.75,1.72,-0.02
7102,51.347607,-0.485731,57,28.3,15,165.8,Oct-20,3550166,2019-02-27 11:15:01:686,-0.1131,0.1176,9.5227,0.0233,-0.0127,9.8066,-0.0005,-0.0149,-0.0143,-12.46,-9.74,-38.39,142.81,1.95,0.12
7103,51.347607,-0.485731,57,28.3,15,165.8,Oct-20,3550666,2019-02-27 11:15:02:186,-0.2111,-0.0993,10.277,0.0007,-0.0191,9.8066,0.0027,0.0118,-0.0112,-12.46,-9.37,-38.39,145.91,2.02,0.03
7104,51.347607,-0.485731,57,28.3,15,165.8,Oct-20,3551166,2019-02-27 11:15:02:686,0.0649,0.1695,8.278,0.045,-0.0312,9.8065,-0.0176,-0.0585,-0.0048,-12.84,-9.74,-38.39,144.79,1.77,0.0
7105,51.347607,-0.485731,57,28.3,15,165.8,Oct-20,3551666,2019-02-27 11:15:03:186,0.3203,-0.0269,9.3111,-0.0099,0.0085,9.8066,0.0219,0.0224,-0.009,-13.52,-9.37,-38.33,149.56,2.02,0.01
7106,51.347607,-0.485731,57,28.3,15,165.8,Oct-20,3552167,2019-02-27 11:15:03:687,-0.1417,-0.0449,9.6578,-0.0009,-0.007,9.8066,0.0059,-0.0095,-0.0058,-12.46,-9.74,-37.95,142.84,1.93,0.09
7107,51.347607,-0.485731,57,28.3,15,165.8,Oct-20,3552667,2019-02-27 11:15:04:187,0.3469,-0.5875,8.4145,-0.0237,0.0265,9.8066,0.0165,-0.0053,-0.0058,-13.21,-9.74,-38.33,144.58,1.74,0.1
7108,51.347607,-0.485731,57,28.3,15,165.8,Oct-20,3553167,2019-02-27 11:15:04:687,-0.0783,0.1142,10.3871,-0.0379,0.0174,9.8066,-0.0112,0.0256,-0.0048,-12.84,-9.74,-38.33,144.36,1.5,0.05
7109,51.347607,-0.485731,57,28.3,15,165.8,Oct-20,3553667,2019-02-27 11:15:05:187,-0.1117,0.2349,10.3079,-0.0242,0.0369,9.8066,-0.0069,0.0288,-0.0037,-12.09,-10.43,-40.45,142.19,1.38,0.08
7110,51.347607,-0.485731,57,28.3,15,165.8,Oct-20,3554166,2019-02-27 11:15:05:686,-0.0968,0.0039,8.8162,-0.0385,0.0181,9.8066,-0.0165,-0.0372,-0.0016,-13.9,-9.74,-38.33,145.35,0.89,0.12
7111,51.347607,-0.485731,57,28.3,15,165.8,Oct-20,3554667,2019-02-27 11:15:06:187,-0.0687,-0.1708,9.8292,-0.0464,0.0157,9.8065,0.0048,0.0086,-0.008,-13.52,-10.12,-38.33,144.86,0.47,0.11
7112,51.347607,-0.485731,57,28.3,15,165.8,Oct-20,3555166,2019-02-27 11:15:06:686,-0.0118,-0.2429,10.313,-0.0306,0.0229,9.8066,-0.0005,0.0235,-0.009,-14.27,-9.74,-38.39,144.36,-0.02,0.04
7113,51.347607,-0.485731,57,28.3,15,165.8,Oct-20,3555666,2019-02-27 11:15:07:186,0.0277,0.2058,9.7209,-0.0086,0.0375,9.8066,-0.025,-0.0181,0.0027,-11.71,-9.74,-38.83,139.66,-0.32,0.01
7114,51.347607,-0.485731,57,28.3,15,165.8,Oct-20,3556167,2019-02-27 11:15:07:687,-0.1455,0.2372,10.4521,-0.0171,0.044,9.8065,0.0123,0.0267,0.0027,-13.52,-8.99,-37.95,146.36,-0.5,0.15
7115,51.347607,-0.485731,57,28.3,15,165.8,Oct-20,3556666,2019-02-27 11:15:08:186,0.2668,-0.217,9.3457,0.0107,-0.0046,9.8066,0.008,0.0267,0.008,-13.52,-9.37,-38.39,145.53,-0.75,0.41
7116,51.347607,-0.485731,57,28.3,15,165.8,Oct-20,3557166,2019-02-27 11:15:08:686,-0.0435,-0.2506,9.3597,-0.0335,-0.0431,9.8065,-0.0122,-0.0298,-0.0122,-13.52,-8.99,-38.77,145.33,-0.81,0.45
7117,51.347607,-0.485731,57,28.3,15,165.8,Oct-20,3557666,2019-02-27 11:15:09:186,-0.237,-0.1486,10.4118,-0.033,-0.0303,9.8065,-0.0101,-0.0372,-0.009,-13.61,-9.3,-39.58,146.36,-0.87,-0.13
7118,51.347607,-0.485731,57,28.3,15,165.8,Oct-20,3558167,2019-02-27 11:15:09:687,-0.1819,0.0123,9.8666,-0.0041,-0.0062,9.8066,-0.0122,0.0352,-0.0197,-13.61,-9.3,-39.58,146.75,-0.79,-0.26
7119,51.347607,-0.485731,57,28.3,15,165.8,Oct-20,3558666,2019-02-27 11:15:10:186,0.2125,-0.26,9.6361,0.0028,-0.007,9.8066,-0.0027,-0.066,-0.0037,-13.61,-9.3,-39.58,146.84,-0.79,-0.31
7120,51.347607,-0.485731,57,28.3,15,165.8,Oct-20,3559166,2019-02-27 11:15:10:686,-0.2876,0.1321,10.2644,-0.045,0.0181,9.8065,0.0048,0.0033,-0.0112,-13.98,-8.93,-39.96,146.67,-1.04,-0.39
7121,51.347607,-0.485731,57,28.3,15,165.8,Oct-20,3559666,2019-02-27 11:15:11:186,-0.5265,0.3707,11.0222,0.0086,0.0166,9.8066,0.0091,0.0246,-0.0133,-13.23,-8.93,-39.52,144.33,-1.05,-0.28
7122,51.347607,-0.485731,57,28.3,15,165.8,Oct-20,3560166,2019-02-27 11:15:11:686,0.2691,0.1444,10.0578,0.0545,0.0396,9.8064,0.0016,-0.0585,-0.0005,-13.61,-9.3,-39.15,146.15,-1.16,-0.21
7123,51.347607,-0.485731,57,28.3,15,165.8,Oct-20,3560667,2019-02-27 11:15:12:187,0.0515,-0.1888,9.5914,0.0195,0.0248,9.8066,0.0123,-0.0447,-0.0101,-13.61,-9.68,-39.52,142.39,-1.01,0.35
7124,51.347607,-0.485731,57,28.3,15,165.8,Oct-20,3561166,2019-02-27 11:15:12:686,-0.1189,-0.009,10.1697,0.0144,-0.0268,9.8066,0.0176,-0.0031,-0.0069,-13.98,-9.68,-39.52,142.53,-0.91,0.35
7125,51.347607,-0.485731,57,28.3,15,165.8,Oct-20,3561666,2019-02-27 11:15:13:186,0.3531,-0.0543,9.5033,0.0208,-0.0224,9.8066,-0.0027,-0.0063,-0.0165,-14.36,-10.05,-39.15,143.26,-0.52,0.27
7126,51.347607,-0.485731,57,28.3,15,165.8,Oct-20,3562166,2019-02-27 11:15:13:686,0.0021,-0.0466,8.7721,0.0116,-0.0526,9.8065,0.0005,-0.001,-0.0069,-15.11,-10.05,-39.08,145.85,-0.28,0.07
7127,51.347607,-0.485731,57,28.3,15,165.8,Oct-20,3562666,2019-02-27 11:15:14:186,-0.2721,-0.0496,10.545,0.0088,-0.0296,9.8066,-0.0048,-0.0511,-0.0176,-15.48,-8.55,-38.71,148.49,-0.24,0.14
7128,51.347607,-0.485731,57,28.3,15,165.8,Oct-20,3563166,2019-02-27 11:15:14:686,-0.0275,0.0148,9.7558,-0.0004,-0.0101,9.8066,0.0069,0.0427,-0.0186,-15.11,-7.43,-38.65,154.97,-0.08,-0.03
7129,51.347607,-0.485731,57,28.3,15,165.8,Oct-20,3563666,2019-02-27 11:15:15:186,-0.0596,-0.1178,10.6935,0.0148,-0.0246,9.8066,0.0037,0.0373,-0.0112,-14.36,-7.8,-39.52,150.38,-0.11,-0.12
7130,51.347607,-0.485731,57,28.3,15,165.8,Oct-20,3564167,2019-02-27 11:15:15:687,-0.4161,0.1933,10.0406,0.026,-0.0132,9.8066,-0.0304,-0.049,-0.008,-13.61,-6.36,-37.9,157.46,0.21,-0.2
7131,51.347607,-0.485731,57,28.3,15,165.8,Oct-20,3564666,2019-02-27 11:15:16:186,0.303,-0.1083,9.3126,0.0075,-0.0221,9.8066,0.0005,0.0341,-0.0016,-13.23,-7.43,-37.83,152.69,0.21,-0.32
7132,51.347607,-0.485731,57,28.3,15,165.8,Oct-20,3565166,2019-02-27 11:15:16:686,0.3868,-0.3239,8.8577,0.0308,0.0112,9.8066,-0.0186,-0.0617,-0.0026,-15.11,-7.8,-38.71,153.11,0.31,-0.42
7133,51.347607,-0.485731,57,28.3,15,165.8,Oct-20,3565666,2019-02-27 11:15:17:186,-0.5394,0.1735,10.2734,-0.0035,-0.0169,9.8066,-0.0069,-0.034,-0.0058,-14.73,-8.18,-39.08,153.18,0.47,-0.37
7134,51.347607,-0.485731,57,28.3,15,165.8,Oct-20,3566166,2019-02-27 11:15:17:686,0.3018,-0.0955,9.6957,-0.0037,-0.0036,9.8066,0.0059,0.0714,-0.0197,-15.11,-8.55,-39.08,150.0,0.48,-0.22
7135,51.347607,-0.485731,57,28.3,15,165.8,Oct-20,3566666,2019-02-27 11:15:18:186,-0.1146,-0.0442,9.5969,0.0008,-0.0168,9.8066,0.0069,-0.0255,-0.0144,-15.86,-8.93,-39.96,151.83,0.52,-0.34
7136,51.347607,-0.485731,57,28.3,15,165.8,Oct-20,3567167,2019-02-27 11:15:18:687,-0.4121,0.408,10.1797,0.0085,0.0028,9.8066,0.0037,0.0128,-0.0101,-16.55,-9.3,-39.96,153.24,0.49,-0.36
7137,51.347607,-0.485731,57,28.3,15,165.8,Oct-20,3567666,2019-02-27 11:15:19:186,-0.0259,-0.2661,9.4861,-0.0076,0.0053,9.8066,-0.0069,-0.0106,-0.0101,-15.86,-9.99,-38.65,149.14,0.53,-0.33
7138,51.347607,-0.485731,57,28.3,15,165.8,Oct-20,3568166,2019-02-27 11:15:19:686,-0.084,-0.1728,10.3465,-0.0295,-0.0694,9.8064,-0.0027,-0.0053,-0.0165,-15.48,-7.8,-39.08,154.04,0.54,-0.76
7139,51.347607,-0.485731,57,28.3,15,165.8,0 / 20,3568666,2019-02-27 11:15:20:186,-0.2498,0.2198,10.1037,-0.0204,0.0002,9.8066,0.0229,0.0203,-0.0122,-15.48,-7.8,-39.52,154.09,0.43,-0.81
7140,51.347607,-0.485731,57,28.3,15,165.8,0 / 20,3569166,2019-02-27 11:15:20:686,0.3105,-0.0173,10.0371,0.013,0.0201,9.8066,-0.0197,-0.0607,-0.0133,-15.86,-8.18,-39.08,155.14,0.38,-0.68
7141,51.347607,-0.485731,57,28.3,15,165.8,Jan-20,3569666,2019-02-27 11:15:21:186,-0.3619,0.3269,10.1106,0.021,0.0464,9.8065,0.0059,-0.033,0.0027,-16.17,-8.18,-39.52,155.05,0.29,-0.66
7142,51.347607,-0.485731,57,28.3,15,165.8,Jan-20,3570167,2019-02-27 11:15:21:687,-0.1731,0.4329,9.9935,0.009,0.0445,9.8065,0.0133,0.0416,-0.0112,-16.17,-7.8,-39.08,154.42,0.29,-0.36
7143,51.347607,-0.485731,57,28.3,15,165.8,Apr-20,3570667,2019-02-27 11:15:22:187,0.3634,0.1733,10.0497,0.0217,0.0209,9.8066,0.0048,0.0182,-0.0005,-15.86,-9.99,-40.77,147.97,0.17,0.12
7144,51.347607,-0.485731,57,28.3,15,165.8,Apr-20,3571166,2019-02-27 11:15:22:686,-0.3963,0.2809,9.8388,0.025,0.0409,9.8065,0.0069,-0.0234,-0.0037,-13.61,-8.55,-38.65,146.7,0.17,0.4
7145,51.347607,-0.485731,57,28.3,15,165.8,Jun-20,3571667,2019-02-27 11:15:23:187,-0.1797,0.1897,9.8039,0.0172,0.0181,9.8066,-0.0133,-0.0095,0.0091,-15.86,-8.18,-38.71,152.44,0.14,0.59
7146,51.347607,-0.485731,57,28.3,15,165.8,Jun-20,3572166,2019-02-27 11:15:23:686,0.3769,-0.646,9.352,-0.0135,-0.0107,9.8066,0.0154,0.0384,-0.0122,-16.17,-8.18,-39.08,152.58,0.1,0.5
7147,51.321823,-0.448839,55,21.27,19,111.0,Jun-20,3572666,2019-02-27 11:15:24:186,-0.1424,-0.1728,10.1185,-0.0163,-0.0297,9.8066,0.0101,0.0086,-0.0133,-15.86,-8.55,-38.21,150.49,0.27,0.24
7148,51.321823,-0.448839,55,21.27,19,111.0,Jun-20,3573166,2019-02-27 11:15:24:686,-0.5084,0.1042,9.9995,-0.0114,-0.0129,9.8066,0.0048,0.0118,-0.0154,-16.92,-8.18,-39.08,155.12,0.25,-0.06
7149,51.321823,-0.448839,55,21.27,19,111.0,Jun-20,3573666,2019-02-27 11:15:25:186,-0.0796,-0.0619,9.884,0.0014,-0.0143,9.8066,-0.0101,0.0555,-0.0122,-16.92,-8.55,-39.08,152.71,0.12,-0.27
7150,51.321823,-0.448839,55,21.27,19,111.0,Jun-20,3574166,2019-02-27 11:15:25:686,-0.0402,-0.1037,9.6924,-0.0361,-0.0479,9.8065,-0.0197,0.0086,-0.0144,-16.55,-8.18,-39.96,155.92,0.2,-0.49
7151,51.321823,-0.448839,55,21.27,19,111.0,Jun-20,3574667,2019-02-27 11:15:26:187,-0.6659,0.0855,10.1851,-0.0818,-0.1208,9.8056,0.0101,-0.0191,-0.0218,-17.67,-7.8,-39.52,158.59,0.05,-1.33
7152,51.321823,-0.448839,55,21.27,19,111.0,Jun-20,3575166,2019-02-27 11:15:26:686,-0.5781,-0.0037,11.169,-0.1111,-0.0243,9.806,0.0154,0.0586,-0.0303,-17.3,-7.8,-39.08,157.82,-0.2,-1.65
7153,51.321823,-0.448839,55,21.27,19,111.0,Jun-20,3575666,2019-02-27 11:15:27:186,-0.1271,-0.0178,8.9676,-0.1278,0.015,9.8058,0.0037,0.015,-0.0175,-18.05,-7.43,-38.65,162.08,-1.47,-2.21
7154,51.321823,-0.448839,55,21.27,19,111.0,Jun-20,3576167,2019-02-27 11:15:27:687,-0.1134,0.2545,9.9867,-0.1417,0.053,9.8055,0.0218,-0.0138,-0.0282,-17.67,-6.74,-39.52,161.42,-2.56,-2.23
7155,51.321823,-0.448839,55,21.27,19,111.0,Jun-20,3576666,2019-02-27 11:15:28:186,-0.3683,0.3004,10.2045,-0.0729,0.0418,9.8063,-0.0176,-0.0095,-0.0101,-17.67,-7.43,-38.21,159.97,-3.93,-2.12
7156,51.321823,-0.448839,55,21.27,19,111.0,Jun-20,3577167,2019-02-27 11:15:28:687,-0.1099,0.2434,9.875,-0.0681,0.0979,9.8059,-0.0282,-0.0703,-0.0016,-18.42,-6.36,-37.4,162.07,-4.54,-1.77
7157,51.321823,-0.448839,55,21.27,19,111.0,Jun-20,3577666,2019-02-27 11:15:29:186,0.3678,0.0313,9.7547,0.0134,0.0942,9.8062,-0.008,-0.0639,-0.0026,-17.67,-5.61,-38.33,158.97,-5.34,-0.71
7158,51.321823,-0.448839,55,21.27,19,111.0,Jun-20,3578166,2019-02-27 11:15:29:686,0.2849,0.3058,9.2124,0.0397,0.0764,9.8063,-0.008,-0.0511,0.0027,-17.67,-4.86,-40.52,159.68,-5.33,0.32
7159,51.321823,-0.448839,55,21.27,19,111.0,Apr-19,3578667,2019-02-27 11:15:30:187,0.2505,0.1781,9.6445,0.0554,0.0271,9.8065,-0.0346,-0.0021,0.0155,-18.05,-5.99,-41.33,155.3,-5.22,0.74
7160,51.321823,-0.448839,55,21.27,19,111.0,Apr-19,3579167,2019-02-27 11:15:30:687,0.0435,0.0882,10.4706,0.0354,0.0075,9.8066,0.0154,-0.0138,-0.0026,-18.8,-7.11,-40.52,153.2,-4.83,1.16
7161,51.321823,-0.448839,55,21.27,19,111.0,Aug-19,3579666,2019-02-27 11:15:31:186,0.2966,-0.2629,9.1477,0.0032,-0.0524,9.8065,0.0101,0.0299,0.0006,-18.8,-8.18,-39.65,150.27,-4.81,1.3
7162,51.321823,-0.448839,55,21.27,19,111.0,Aug-19,3580167,2019-02-27 11:15:31:687,-0.0363,-0.0094,9.9491,0.0125,0.0093,9.8066,-0.008,-0.0138,-0.0133,-19.48,-7.11,-39.27,153.98,-4.64,1.05
7163,51.321823,-0.448839,55,21.27,19,111.0,Aug-19,3580666,2019-02-27 11:15:32:186,0.1489,0.3673,9.7728,0.0327,-0.0264,9.8066,0.025,0.0331,-0.0058,-17.3,-7.49,-39.71,151.62,-4.09,0.9
7164,51.321823,-0.448839,55,21.27,19,111.0,Aug-19,3581166,2019-02-27 11:15:32:686,0.2169,-0.0576,8.7628,0.0218,-0.0536,9.8065,-0.0463,-0.0553,-0.0048,-18.42,-8.24,-40.15,151.01,-3.82,0.68
7165,51.321823,-0.448839,55,21.27,19,111.0,Aug-19,3581667,2019-02-27 11:15:33:187,0.1741,-0.0437,9.8848,0.0189,-0.0551,9.8065,-0.0016,-0.0106,-0.0133,-18.42,-7.49,-40.52,155.56,-3.08,0.24
7166,51.321823,-0.448839,55,21.27,19,111.0,Aug-19,3582166,2019-02-27 11:15:33:686,0.4221,-0.8245,9.3599,0.0302,-0.0425,9.8065,-0.0112,0.0033,-0.0016,-17.67,-8.24,-39.71,153.66,-2.63,-0.01
7167,51.321823,-0.448839,55,21.27,19,111.0,Aug-19,3582667,2019-02-27 11:15:34:187,0.2847,-0.3613,10.0497,0.0435,-0.076,9.8063,-0.0155,-0.0042,-0.0122,-19.21,-6.73,-40.92,158.28,-2.36,-0.16
7168,51.321823,-0.448839,55,21.27,19,111.0,Aug-19,3583166,2019-02-27 11:15:34:686,-0.3377,0.6534,10.2445,0.0314,-0.0353,9.8065,0.0122,0.0139,-0.0133,-18.52,-7.48,-40.55,159.66,-1.68,-0.57
7169,51.321823,-0.448839,55,21.27,19,111.0,Aug-19,3583667,2019-02-27 11:15:35:187,0.0926,0.3292,10.7677,0.0841,-0.048,9.8062,0.0059,-0.0021,0.0006,-19.21,-5.98,-40.92,163.1,-1.13,-0.66
7170,51.321823,-0.448839,55,21.27,19,111.0,Aug-19,3584166,2019-02-27 11:15:35:686,0.1735,-0.0964,10.5965,0.0481,0.0,9.8065,-0.0186,0.0427,-0.0069,-18.52,-6.36,-40.92,162.76,-0.88,-0.42
7171,51.321823,-0.448839,55,21.27,19,111.0,Aug-19,3584666,2019-02-27 11:15:36:186,-0.3382,-0.0197,10.0602,0.0281,0.0029,9.8066,-0.0304,-0.0287,-0.0165,-18.52,-8.23,-40.98,157.29,-0.46,-0.26
7172,51.321823,-0.448839,55,21.27,19,111.0,Aug-19,3585167,2019-02-27 11:15:36:687,-0.3851,0.5713,10.0688,0.0129,-0.011,9.8066,-0.0123,-0.0702,-0.008,-19.21,-6.73,-40.92,160.24,-0.43,-0.4
7173,51.321823,-0.448839,55,21.27,19,111.0,Aug-19,3585667,2019-02-27 11:15:37:187,0.203,-0.212,9.8497,0.0216,-0.0296,9.8066,0.009,-0.0117,-0.0037,-19.21,-6.73,-40.86,160.46,-0.33,-0.47
7174,51.321823,-0.448839,55,21.27,19,111.0,Aug-19,3586167,2019-02-27 11:15:37:687,0.4874,-0.2796,8.9589,-0.0097,0.0084,9.8066,-0.008,-0.0042,-0.0048,-18.52,-6.36,-40.86,163.56,-0.15,-0.6
7175,51.321823,-0.448839,55,21.27,19,111.0,Aug-19,3586666,2019-02-27 11:15:38:186,-0.0747,0.0022,9.6428,0.0169,-0.003,9.8066,-0.0123,0.0107,0.0016,-18.52,-5.98,-40.86,163.4,-0.23,-0.54
7176,51.321823,-0.448839,55,21.27,19,111.0,Aug-19,3587166,2019-02-27 11:15:38:686,0.1929,-0.0428,8.5682,-0.0056,-0.0181,9.8066,0.009,-0.0127,-0.0111,-18.15,-5.61,-41.3,162.79,-0.13,-0.64
7177,51.321823,-0.448839,55,21.27,19,111.0,Aug-19,3587666,2019-02-27 11:15:39:186,0.0352,-0.1446,10.1991,-0.0021,-0.0232,9.8066,-0.0101,-0.0148,-0.0111,-18.84,-6.73,-40.42,160.99,-0.16,-0.7
7178,51.321823,-0.448839,55,21.27,19,111.0,Aug-19,3588167,2019-02-27 11:15:39:687,0.3544,-0.3248,10.6641,-0.0226,0.0136,9.8066,0.0027,0.0618,-0.0037,-16.65,-9.3,-39.17,153.33,-0.28,-0.82
7179,51.321823,-0.448839,55,21.27,19,111.0,Aug-19,3588667,2019-02-27 11:15:40:187,-0.236,0.1795,9.1469,0.0053,0.0023,9.8066,-0.0091,-0.05,-0.0048,-18.15,-5.98,-40.05,162.89,-0.14,-0.7
7180,51.321823,-0.448839,55,21.27,19,111.0,Aug-19,3589166,2019-02-27 11:15:40:686,-0.301,0.3687,9.6109,-0.0178,0.0024,9.8066,0.0144,-0.0042,-0.0111,-18.15,-7.11,-39.61,159.99,-0.12,-0.68
7181,51.321823,-0.448839,55,21.27,19,111.0,Aug-19,3589667,2019-02-27 11:15:41:187,0.274,-0.3028,10.1607,-0.0363,-0.0006,9.8066,0.0069,-0.0138,-0.025,-17.77,-4.55,-39.67,165.85,-0.42,-0.77
7182,51.321823,-0.448839,55,21.27,19,111.0,Aug-19,3590166,2019-02-27 11:15:41:686,-0.056,0.2155,10.0487,0.0252,0.0142,9.8066,-0.0293,-0.0031,0.007,-18.15,-4.17,-40.86,169.36,-0.43,-0.94
7183,51.321823,-0.448839,55,21.27,19,111.0,Aug-19,3590667,2019-02-27 11:15:42:187,0.1561,0.2497,9.2787,0.0174,0.0076,9.8066,-0.0293,-0.0436,-0.0069,-19.96,-5.98,-40.42,164.63,-0.21,-0.78
7184,51.321823,-0.448839,55,21.27,19,111.0,Aug-19,3591167,2019-02-27 11:15:42:687,-0.2229,0.2406,9.7429,-0.007,0.0032,9.8066,-0.0133,-0.066,-0.0048,-18.15,-5.61,-40.86,162.62,-0.32,-0.61
7185,51.321823,-0.448839,55,21.27,19,111.0,Aug-19,3591667,2019-02-27 11:15:43:187,-0.086,-0.1294,11.0789,-0.0137,0.0132,9.8066,0.009,-0.0884,-0.0069,-13.34,-5.61,-49.23,156.63,-0.37,-0.6
7186,51.321823,-0.448839,55,21.27,19,111.0,Aug-19,3592167,2019-02-27 11:15:43:687,0.2234,-0.2022,7.9984,0.0527,0.0391,9.8064,0.008,0.0842,-0.0016,-18.52,-6.73,-40.86,160.16,-0.6,-0.42
7187,51.321823,-0.448839,55,21.27,19,111.0,Aug-19,3592666,2019-02-27 11:15:44:186,-0.3448,0.3656,9.4473,0.0627,0.1041,9.8059,0.0144,-0.0117,-0.0122,-20.34,-5.61,-41.23,162.5,-0.47,0.28
7188,51.321823,-0.448839,55,21.27,19,111.0,Aug-19,3593167,2019-02-27 11:15:44:687,0.1971,0.2086,9.2876,0.0455,0.0501,9.8064,0.008,0.0768,0.0102,-19.21,-8.17,-40.05,155.64,-0.23,0.76
7189,51.321823,-0.448839,55,21.27,19,111.0,Aug-19,3593667,2019-02-27 11:15:45:187,0.4039,0.1372,8.8035,0.0364,0.0959,9.8061,0.0027,0.0682,0.008,-17.4,-6.73,-39.98,154.7,-0.26,1.36
7190,51.321823,-0.448839,55,21.27,19,111.0,Aug-19,3594166,2019-02-27 11:15:45:686,0.2609,0.1062,10.9458,-0.0032,0.0049,9.8066,-0.0208,0.0405,0.0091,-19.21,-6.73,-39.61,156.69,-0.18,1.63
7191,51.321823,-0.448839,55,21.27,19,111.0,Aug-19,3594667,2019-02-27 11:15:46:187,0.1132,-0.0899,10.3645,0.049,-0.0488,9.8064,-0.0336,-0.0266,0.0102,-18.15,-8.17,-39.61,153.1,-0.11,1.57
7192,51.321823,-0.448839,55,21.27,19,111.0,Aug-19,3595167,2019-02-27 11:15:46:687,0.3627,0.0239,9.3055,-0.0223,-0.1148,9.806,-0.0357,-0.0244,-0.0111,-18.52,-8.17,-39.61,154.85,0.28,1.45
7193,51.321823,-0.448839,55,21.27,19,111.0,Aug-19,3595666,2019-02-27 11:15:47:186,0.3831,-0.2215,10.2662,0.11,-0.1821,9.8043,-0.0027,-0.0298,0.007,-19.21,-7.8,-39.98,158.09,1.46,0.07
7194,51.321823,-0.448839,55,21.27,19,111.0,Aug-19,3596166,2019-02-27 11:15:47:686,0.4541,-0.051,9.4124,0.0581,-0.0766,9.8062,0.0122,-0.0053,-0.0005,-18.84,-8.92,-39.17,156.45,1.95,-0.21
7195,51.321823,-0.448839,55,21.27,19,111.0,Aug-19,3596667,2019-02-27 11:15:48:187,-0.2228,-0.2967,9.4481,-0.0014,-0.0516,9.8065,0.0037,0.0714,0.0016,-19.21,-9.67,-40.42,154.73,2.28,-0.41
7196,51.321823,-0.448839,55,21.27,19,111.0,Aug-19,3597166,2019-02-27 11:15:48:686,-0.5563,0.3872,9.4063,-0.0219,-0.0272,9.8066,-0.0091,0.0342,-0.0016,-17.77,-8.17,-39.92,159.39,2.35,-0.88
7197,51.321823,-0.448839,55,21.27,19,111.0,Aug-19,3597667,2019-02-27 11:15:49:187,0.4207,-0.1021,10.9979,-0.0585,-0.0232,9.8065,-0.0101,0.0097,0.0016,-18.15,-8.17,-40.8,160.18,2.43,-1.24
7198,51.321823,-0.448839,55,21.27,19,111.0,Aug-19,3598167,2019-02-27 11:15:49:687,-0.1134,-0.1476,10.2941,-0.0234,0.0098,9.8066,-0.0059,0.0267,0.0027,-18.15,-7.8,-40.42,160.25,2.01,-1.48
7199,51.321823,-0.448839,55,21.27,19,111.0,Aug-19,3598666,2019-02-27 11:15:50:186,0.1006,-0.432,8.7862,-0.085,-0.0369,9.8062,-0.008,0.0576,-0.0058,-18.52,-8.55,-40.86,159.17,1.61,-1.85
7200,51.321823,-0.448839,55,21.27,19,111.0,Aug-19,3599167,2019-02-27 11:15:50:687,-0.6472,0.4445,10.5249,-0.0531,0.0046,9.8065,-0.0069,0.015,0.0059,-19.21,-8.92,-39.67,159.05,1.12,-2.03
7201,51.321823,-0.448839,55,21.27,19,111.0,Aug-19,3599666,2019-02-27 11:15:51:186,1.0279,-0.6576,8.3045,-0.0405,0.016,9.8066,-0.0016,-0.0681,0.0059,-18.9,-9.3,-40.17,158.82,0.57,-2.12
7202,51.321823,-0.448839,55,21.27,19,111.0,Aug-19,3600166,2019-02-27 11:15:51:686,0.0299,-0.31,10.0887,-0.0015,0.0152,9.8066,-0.0432,0.0097,0.008,-18.15,-8.61,-40.61,157.63,0.49,-2.01
7203,51.321823,-0.448839,55,21.27,19,111.0,Aug-19,3600666,2019-02-27 11:15:52:186,0.0076,0.07,8.1503,0.0402,-0.0032,9.8066,0.0037,0.0118,0.0016,-18.15,-9.3,-39.73,157.35,0.45,-1.93
7204,51.321823,-0.448839,55,21.27,19,111.0,Aug-19,3601166,2019-02-27 11:15:52:686,-0.0569,0.4246,10.3022,0.056,0.0136,9.8065,-0.024,-0.0979,0.0155,-18.9,-8.92,-40.61,158.76,0.94,-1.88
7205,51.321823,-0.448839,55,21.27,19,111.0,Aug-19,3601666,2019-02-27 11:15:53:186,-0.0564,0.2553,10.7171,0.029,0.03,9.8066,0.0144,0.031,0.0016,-18.52,-8.55,-40.55,158.6,1.22,-1.69
7206,51.321823,-0.448839,55,21.27,19,111.0,Aug-19,3602167,2019-02-27 11:15:53:687,0.1678,-0.1157,9.2941,0.049,-0.0077,9.8065,-0.0187,0.016,0.0059,-18.15,-8.17,-40.55,159.44,1.61,-1.14
7207,51.321823,-0.448839,55,21.27,19,111.0,Aug-19,3602666,2019-02-27 11:15:54:186,0.1851,-0.1034,10.2486,-0.0286,0.0017,9.8066,0.0048,-0.018,0.0059,-18.52,-8.55,-40.55,157.88,1.45,-1.19
7208,51.321823,-0.448839,55,21.27,19,111.0,Aug-19,3603166,2019-02-27 11:15:54:686,0.4601,-0.4335,8.8218,-0.0443,0.0074,9.8065,0.0101,-0.0053,0.0059,-18.15,-7.86,-40.55,159.52,1.42,-1.25
7209,51.321823,-0.448839,55,21.27,19,111.0,Aug-19,3603666,2019-02-27 11:15:55:186,0.1198,-0.2456,9.1619,0.0014,0.0171,9.8066,0.0101,0.0054,0.007,-18.15,-8.17,-40.55,159.42,1.16,-1.3
7210,51.321823,-0.448839,55,21.27,19,111.0,Aug-19,3604167,2019-02-27 11:15:55:687,0.3366,-0.6366,10.0338,-0.0272,0.0002,9.8066,-0.0176,-0.0724,0.008,-18.52,-9.67,-40.55,155.23,1.13,-1.2
7211,51.321823,-0.448839,55,21.27,19,111.0,Aug-19,3604667,2019-02-27 11:15:56:187,-0.2917,0.1033,9.8944,0.0474,-0.0404,9.8065,-0.04,-0.0053,0.007,-18.15,-7.86,-40.92,159.66,1.34,-1.36
7212,51.321823,-0.448839,55,21.27,19,111.0,Aug-19,3605166,2019-02-27 11:15:56:686,0.3474,-0.4121,8.7114,0.0403,0.0161,9.8066,-0.0229,0.0384,0.0102,-18.52,-8.55,-41.36,157.92,1.53,-1.19
7213,51.321823,-0.448839,55,21.27,19,111.0,Aug-19,3605666,2019-02-27 11:15:57:186,0.3438,-0.4498,10.194,0.012,0.0216,9.8066,-0.0208,-0.1214,0.0112,-17.77,-9.3,-40.48,157.01,1.89,-1.15
7214,51.321823,-0.448839,55,21.27,19,111.0,Aug-19,3606167,2019-02-27 11:15:57:687,-0.2367,0.3617,8.9708,0.0631,-0.0167,9.8064,-0.0091,0.0437,0.008,-17.77,-9.3,-40.05,156.95,2.28,-0.95
7215,51.321823,-0.448839,55,21.27,19,111.0,Aug-19,3606666,2019-02-27 11:15:58:186,0.2301,-0.0311,10.066,-0.0038,0.0142,9.8066,-0.0581,-0.1342,0.0187,-17.77,-8.92,-40.05,157.16,2.35,-1.05
7216,51.321823,-0.448839,55,21.27,19,111.0,Aug-19,3607166,2019-02-27 11:15:58:686,-0.3436,0.3611,9.6271,0.0162,-0.0187,9.8066,0.0122,0.0576,0.0102,-18.15,-8.55,-40.48,157.2,2.42,-1.04
7217,51.321823,-0.448839,55,21.27,19,111.0,Aug-19,3607666,2019-02-27 11:15:59:186,0.1206,0.0888,10.525,0.0065,0.0042,9.8066,-0.0325,-0.0745,0.0166,-17.77,-8.17,-40.05,159.73,2.39,-1.06
7218,51.321823,-0.448839,55,21.27,19,111.0,Aug-19,3608166,2019-02-27 11:15:59:686,-0.3834,0.5057,9.6718,-0.0003,0.0317,9.8066,0.0208,0.1066,0.0091,-17.02,-8.92,-40.92,156.35,2.41,-1.12
7219,51.321823,-0.448839,55,21.27,19,111.0,Aug-19,3608667,2019-02-27 11:16:00:187,0.174,-0.4165,10.0464,0.0132,0.0093,9.8066,-0.025,-0.1129,0.0187,-17.02,-8.92,-40.92,155.86,2.38,-0.87
7220,51.321823,-0.448839,55,21.27,19,111.0,Aug-19,3609166,2019-02-27 11:16:00:686,-0.5124,0.3744,10.4403,-0.0042,-0.0142,9.8066,-0.008,0.0331,0.0123,-17.02,-8.92,-40.48,155.72,2.34,-0.86
7221,51.321823,-0.448839,55,21.27,19,111.0,Aug-19,3609667,2019-02-27 11:16:01:187,0.3633,-0.7374,10.5459,0.003,0.0023,9.8066,-0.0197,-0.1054,0.0112,-17.02,-9.67,-40.86,153.44,2.36,-0.92
7222,51.321823,-0.448839,55,21.27,19,111.0,Aug-19,3610167,2019-02-27 11:16:01:687,-0.0954,0.1445,9.0865,-0.0053,-0.0138,9.8066,0.0112,0.0555,-0.0079,-16.65,-9.67,-40.86,153.29,2.42,-0.81
7223,51.321823,-0.448839,55,21.27,19,111.0,Aug-19,3610666,2019-02-27 11:16:02:186,-0.0592,-0.2318,9.5383,0.0025,-0.0153,9.8066,-0.008,-0.0745,0.0091,-17.02,-9.3,-40.48,155.86,2.43,-0.9
7224,51.321823,-0.448839,55,21.27,19,111.0,Aug-19,3611166,2019-02-27 11:16:02:686,0.1002,-0.011,8.7566,-0.0035,-0.0559,9.8065,0.0005,0.0555,-0.0048,-17.02,-9.3,-40.86,156.53,2.66,-1.11
7225,51.321823,-0.448839,55,21.27,19,111.0,Aug-19,3611667,2019-02-27 11:16:03:187,-0.1169,-0.1883,10.7599,-0.0314,0.0019,9.8066,0.0037,0.0139,0.008,-17.02,-9.67,-40.42,153.95,2.46,-1.22
7226,51.321823,-0.448839,55,21.27,19,111.0,Aug-19,3612167,2019-02-27 11:16:03:687,-0.3842,0.2041,9.5579,0.0165,0.0091,9.8066,-0.0176,0.032,0.0176,-16.65,-9.3,-41.23,156.47,2.36,-1.21
7227,51.321823,-0.448839,55,21.27,19,111.0,Aug-19,3612667,2019-02-27 11:16:04:187,0.1778,-0.3042,11.2755,-0.0165,-0.0209,9.8066,-0.0069,0.0224,0.007,-17.02,-9.67,-40.42,153.57,2.26,-1.1
7228,51.321823,-0.448839,55,21.27,19,111.0,Aug-19,3613167,2019-02-27 11:16:04:687,-0.2447,-0.0529,10.8785,-0.0234,0.0275,9.8066,0.009,0.0235,-0.0005,-17.02,-8.92,-40.42,156.35,2.23,-1.25
7229,51.321823,-0.448839,55,21.27,19,111.0,Aug-19,3613667,2019-02-27 11:16:05:187,-0.1358,0.0474,9.0199,-0.0193,-0.0276,9.8066,0.008,0.0533,0.0006,-17.02,-9.67,-40.42,153.8,2.01,-1.35
7230,51.321823,-0.448839,55,21.27,19,111.0,Aug-19,3614166,2019-02-27 11:16:05:686,0.5213,-0.3671,10.5595,-0.0473,0.0122,9.8065,0.0197,0.0821,-0.0026,-17.02,-8.92,-40.42,156.24,1.73,-1.41
7231,51.321823,-0.448839,55,21.27,19,111.0,Aug-19,3614666,2019-02-27 11:16:06:186,-0.2021,0.3913,8.618,0.0128,0.0052,9.8066,-0.0133,-0.0074,-0.0079,-17.02,-8.92,-39.61,156.39,1.51,-1.59
7232,51.321823,-0.448839,55,21.27,19,111.0,Aug-19,3615166,2019-02-27 11:16:06:686,-0.5902,0.3722,11.8442,0.0179,0.0134,9.8066,-0.0176,0.0278,0.0059,-18.15,-9.3,-41.23,157.38,1.63,-1.41
7233,51.321823,-0.448839,55,21.27,19,111.0,Aug-19,3615666,2019-02-27 11:16:07:186,0.5348,-0.4238,9.9619,-0.0023,0.0293,9.8066,0.0154,-0.0021,0.0059,-15.9,-8.92,-40.42,154.82,1.54,-1.39
7234,51.321823,-0.448839,55,21.27,19,111.0,Aug-19,3616166,2019-02-27 11:16:07:686,-0.7501,0.4165,11.7476,-0.0096,0.0275,9.8066,-0.0016,-0.1086,0.007,-17.4,-9.3,-40.86,155.88,1.52,-1.26
7235,51.321823,-0.448839,55,21.27,19,111.0,Aug-19,3616667,2019-02-27 11:16:08:187,-0.381,0.5764,9.2387,0.0101,0.0674,9.8064,-0.0016,-0.0404,0.0176,-17.4,-9.3,-40.86,155.06,1.42,-0.87
7236,51.321823,-0.448839,55,21.27,19,111.0,Aug-19,3617167,2019-02-27 11:16:08:687,0.1985,-0.0572,9.9115,-0.0125,0.0395,9.8066,0.0293,0.0555,0.0123,-16.65,-8.92,-40.42,154.93,1.44,-0.82
7237,51.321823,-0.448839,55,21.27,19,111.0,Aug-19,3617666,2019-02-27 11:16:09:186,0.377,-0.387,8.9027,0.0137,-0.0167,9.8066,0.008,0.0182,0.0197,-17.02,-9.3,-40.36,154.66,1.39,-0.7
7238,51.321823,-0.448839,55,21.27,19,111.0,Aug-19,3618167,2019-02-27 11:16:09:687,0.0793,-0.2733,9.4971,0.0102,0.0271,9.8066,-0.008,-0.0692,0.0134,-16.27,-8.92,-40.36,153.28,1.44,-0.63
7239,51.321823,-0.448839,55,21.27,19,111.0,Aug-19,3618666,2019-02-27 11:16:10:186,0.3785,-0.028,10.7253,0.0038,-0.0032,9.8066,-0.024,-0.0479,0.0176,-17.02,-9.3,-40.8,154.34,1.45,-0.47
7240,51.321823,-0.448839,55,21.27,19,111.0,Aug-19,3619166,2019-02-27 11:16:10:686,0.1447,-0.0475,8.8537,-0.0112,-0.0339,9.8066,-0.0048,0.0523,-0.0016,-16.65,-8.92,-39.98,154.14,1.44,-0.39
7241,51.321823,-0.448839,55,21.27,19,111.0,Aug-19,3619666,2019-02-27 11:16:11:186,-0.5106,0.0385,9.6973,-0.024,-0.0868,9.8062,-0.024,-0.0095,0.0091,-16.27,-10.05,-40.36,150.62,1.46,-0.6
7242,51.321823,-0.448839,55,21.27,19,111.0,Aug-19,3620168,2019-02-27 11:16:11:688,-0.2243,-0.001,10.2117,-0.0219,-0.0077,9.8066,-0.0165,-0.0543,-0.0058,-17.02,-10.05,-40.42,153.11,1.5,-1.21
7243,51.321823,-0.448839,55,21.27,19,111.0,Aug-19,3620666,2019-02-27 11:16:12:186,0.0987,-0.1915,10.7204,-0.031,0.0049,9.8066,-0.0197,-0.0585,-0.0069,-16.65,-9.67,-39.92,153.55,1.5,-1.46
7244,51.321823,-0.448839,55,21.27,19,111.0,Aug-19,3621167,2019-02-27 11:16:12:687,-0.2099,-0.2068,9.4352,-0.0095,-0.0395,9.8066,-0.0176,-0.0095,0.0016,-16.27,-8.55,-40.36,155.37,1.38,-1.74
7245,51.321823,-0.448839,55,21.27,19,111.0,Aug-19,3621666,2019-02-27 11:16:13:186,-0.39,0.1237,9.4544,-0.0328,-0.0136,9.8066,0.0154,0.0842,0.0027,-15.9,-10.05,-39.92,153.05,1.4,-1.95
7246,51.321823,-0.448839,55,21.27,19,111.0,Aug-19,3622167,2019-02-27 11:16:13:687,0.372,-0.5408,9.9804,-0.0224,0.0017,9.8066,-0.0282,-0.0607,0.0059,-16.65,-10.36,-40.36,154.53,1.26,-2.11
7247,51.321823,-0.448839,55,21.27,19,111.0,Aug-19,3622667,2019-02-27 11:16:14:187,0.0922,-0.1158,9.7214,-0.0335,-0.0319,9.8065,0.0261,0.0065,-0.0005,-15.59,-8.17,-39.92,159.3,1.02,-2.4
7248,51.321823,-0.448839,55,21.27,19,111.0,Aug-19,3623166,2019-02-27 11:16:14:686,-0.6679,0.3422,9.8222,-0.0394,0.0307,9.8065,0.008,0.0267,-0.0048,-16.65,-10.36,-39.92,154.45,0.74,-2.32
7249,51.321823,-0.448839,55,21.27,19,111.0,Aug-19,3623666,2019-02-27 11:16:15:186,-0.144,0.7668,9.5176,-0.034,0.037,9.8065,0.0016,0.0192,0.007,-17.02,-9.67,-39.55,153.86,0.36,-2.19
7250,51.321823,-0.448839,55,21.27,19,111.0,Aug-19,3624166,2019-02-27 11:16:15:686,0.3161,-0.2314,10.4993,-0.0053,0.0499,9.8065,-0.0048,-0.0607,-0.0048,-17.02,-9.3,-38.3,155.46,0.09,-1.82
7251,51.321823,-0.448839,55,21.27,19,111.0,Aug-19,3624667,2019-02-27 11:16:16:187,-0.3711,-0.0148,8.81,-0.0176,-0.0227,9.8066,-0.0272,0.0065,0.0166,-16.65,-8.55,-38.3,154.86,-0.06,-1.57
7252,51.321823,-0.448839,55,21.27,19,111.0,Aug-19,3625167,2019-02-27 11:16:16:687,-0.3302,0.1462,10.2067,-0.0241,0.0368,9.8066,0.0303,-0.0234,-0.0048,-16.27,-10.36,-38.3,151.09,-0.14,-1.82
7253,51.321823,-0.448839,55,21.27,19,111.0,Aug-19,3625666,2019-02-27 11:16:17:186,0.5782,-0.1628,9.8182,0.0226,-0.0156,9.8066,-0.0261,0.0661,0.0016,-16.65,-10.36,-39.11,152.18,-0.37,-1.7
7254,51.321823,-0.448839,55,21.27,19,111.0,Aug-19,3626166,2019-02-27 11:16:17:686,0.0322,-0.719,9.4426,0.0047,-0.0064,9.8066,0.0122,0.0512,-0.0037,-16.65,-9.3,-39.55,155.41,0.05,-1.72
7255,51.321823,-0.448839,55,21.27,19,111.0,Aug-19,3626666,2019-02-27 11:16:18:186,0.7488,-0.395,9.9538,0.0297,-0.0392,9.8065,0.0016,-0.0394,0.0144,-16.27,-9.67,-39.92,151.78,0.3,-1.86
7256,51.321823,-0.448839,55,21.27,19,111.0,Aug-19,3627166,2019-02-27 11:16:18:686,-0.0628,-0.4124,10.1873,0.0302,-0.0226,9.8066,0.0122,0.0938,0.0027,-16.27,-9.98,-39.55,151.85,0.53,-1.76
7257,51.321823,-0.448839,55,21.27,19,111.0,Aug-19,3627666,2019-02-27 11:16:19:186,0.2927,-0.1257,9.7625,0.0117,-0.0653,9.8064,0.0314,0.0139,0.0027,-17.4,-8.92,-39.48,156.84,0.98,-2.11
7258,51.321823,-0.448839,55,21.27,19,111.0,Aug-19,3628167,2019-02-27 11:16:19:687,0.1312,0.02,9.9931,0.0147,-0.0139,9.8066,-0.0133,0.0448,0.0048,-17.02,-8.92,-40.73,156.9,0.92,-2.04
7259,51.321823,-0.448839,55,21.27,19,111.0,Aug-19,3628666,2019-02-27 11:16:20:186,-0.3369,0.0111,9.1483,0.0041,-0.0011,9.8066,-0.008,0.0278,0.0027,-16.27,-8.92,-40.36,155.74,1.05,-2.08
7260,51.321823,-0.448839,55,21.27,19,111.0,Aug-19,3629166,2019-02-27 11:16:20:686,0.5958,-0.4234,10.3643,-0.0312,-0.0066,9.8066,-0.0165,-0.0553,0.0048,-16.27,-8.92,-40.36,155.83,0.9,-2.19
7261,51.321823,-0.448839,55,21.27,19,111.0,Aug-19,3629666,2019-02-27 11:16:21:186,-0.5148,0.2189,10.0311,0.0003,0.0035,9.8066,-0.04,0.0011,0.0048,-16.27,-9.3,-40.36,156.0,0.89,-2.28
7262,51.321823,-0.448839,55,21.27,19,111.0,Aug-19,3630167,2019-02-27 11:16:21:687,-0.1839,0.4018,10.6003,-0.0179,-0.01,9.8066,0.0176,-0.0585,-0.008,-17.4,-9.61,-39.48,154.46,0.81,-2.36
7263,51.321823,-0.448839,55,21.27,19,111.0,Aug-19,3630667,2019-02-27 11:16:22:187,0.0478,0.3231,9.7343,0.0133,-0.0105,9.8066,-0.0133,0.0682,0.008,-16.65,-9.67,-39.92,154.27,0.72,-2.23
7264,51.321823,-0.448839,55,21.27,19,111.0,Aug-19,3631166,2019-02-27 11:16:22:686,-0.4588,0.2381,10.0383,-0.0065,0.0137,9.8066,0.0186,-0.0021,0.0038,-17.02,-9.3,-39.92,157.1,0.82,-2.25
7265,51.321823,-0.448839,55,21.27,19,111.0,Aug-19,3631666,2019-02-27 11:16:23:186,0.0055,0.2249,9.7011,0.021,0.0551,9.8065,-0.0005,0.0714,0.0006,-17.4,-9.98,-40.36,153.57,0.73,-1.85
7266,51.321823,-0.448839,55,21.27,19,111.0,Aug-19,3632167,2019-02-27 11:16:23:687,0.1659,-0.3669,8.7301,-0.0142,-0.0202,9.8066,-0.0336,0.0033,-0.0058,-17.4,-8.55,-39.92,156.11,0.57,-1.84
7267,51.321823,-0.448839,55,21.27,19,111.0,Aug-19,3632667,2019-02-27 11:16:24:187,0.3023,0.4106,8.8052,-0.0436,0.0314,9.8065,-0.0155,-0.0884,0.0197,-15.9,-9.67,-40.36,151.85,0.24,-1.92
7268,51.321823,-0.448839,55,21.27,19,111.0,Aug-19,3633166,2019-02-27 11:16:24:686,-0.171,0.6343,10.8031,-0.0398,-0.0406,9.8065,-0.0176,0.0224,-0.0005,-17.4,-10.36,-39.92,153.03,0.06,-1.9
7269,51.321823,-0.448839,55,21.27,19,111.0,Aug-19,3633666,2019-02-27 11:16:25:186,-0.2786,0.2053,10.2471,-0.0023,-0.0079,9.8066,0.0293,-0.0511,-0.0037,-16.27,-9.98,-40.73,152.34,-0.03,-2.26
7270,51.321823,-0.448839,55,21.27,19,111.0,Aug-19,3634166,2019-02-27 11:16:25:686,-0.0689,0.3297,9.278,0.0389,-0.0035,9.8066,-0.0048,-0.0394,-0.0048,-17.02,-9.3,-39.92,156.06,-0.24,-2.18
7271,51.321823,-0.448839,55,21.27,19,111.0,Aug-19,3634666,2019-02-27 11:16:26:186,-0.573,0.2332,9.8184,0.018,0.0108,9.8066,0.0229,-0.0255,-0.0122,-17.02,-8.92,-40.36,156.11,-0.02,-2.11
7272,51.321823,-0.448839,55,21.27,19,111.0,Aug-19,3635167,2019-02-27 11:16:26:687,0.1913,0.4076,10.2466,0.0609,0.0257,9.8064,-0.0144,0.0267,-0.0048,-17.4,-9.3,-39.92,155.62,0.3,-1.71
7273,51.321823,-0.448839,55,21.27,19,111.0,Aug-19,3635667,2019-02-27 11:16:27:187,0.2129,-0.129,8.291,0.028,0.0115,9.8066,0.0559,0.0682,0.0016,-17.02,-9.61,-39.92,152.79,0.42,-1.58
7274,51.321823,-0.448839,55,21.27,19,111.0,Aug-19,3636166,2019-02-27 11:16:27:686,0.0825,-0.9668,10.3634,0.0186,-0.0203,9.8066,0.0559,0.0693,-0.0058,-17.02,-9.98,-40.3,152.54,0.47,-1.42
7275,51.321823,-0.448839,55,21.27,19,111.0,Aug-19,3636667,2019-02-27 11:16:28:187,-0.4594,-0.2665,10.3252,-0.0354,0.0161,9.8066,0.0612,0.0373,0.0016,-17.4,-9.61,-39.92,152.75,0.63,-1.45
7276,51.321823,-0.448839,55,21.27,19,111.0,Aug-19,3637166,2019-02-27 11:16:28:686,0.4255,-0.4637,9.837,-0.0037,-0.0619,9.8065,0.0144,0.0565,-0.0101,-17.02,-9.3,-39.92,155.23,0.4,-1.46
7277,51.321823,-0.448839,55,21.27,19,111.0,Aug-19,3637666,2019-02-27 11:16:29:186,0.0208,-0.4821,9.6541,-0.0265,0.0148,9.8066,0.0431,0.0693,-0.0111,-16.27,-9.98,-40.3,152.09,0.64,-1.84
7278,51.321823,-0.448839,55,21.27,19,111.0,Aug-19,3638166,2019-02-27 11:16:29:686,0.5412,-0.3535,10.0928,-0.0119,0.0064,9.8066,-0.0165,0.0224,0.0038,-16.27,-9.98,-40.36,152.01,0.56,-1.84
7279,51.321823,-0.448839,55,21.27,19,111.0,Aug-19,3638667,2019-02-27 11:16:30:187,-0.5105,-0.4066,10.4845,-0.0074,-0.0158,9.8066,-0.0048,-0.0575,-0.0016,-17.77,-9.3,-39.92,157.63,0.62,-2.02
7280,51.321823,-0.448839,55,21.27,19,111.0,Aug-19,3639166,2019-02-27 11:16:30:686,0.2882,-0.0414,10.6375,-0.0049,0.0197,9.8066,-0.0357,0.0576,-0.0175,-15.9,-9.3,-40.36,154.96,0.55,-1.92
7281,51.321823,-0.448839,55,21.27,19,111.0,Aug-19,3639666,2019-02-27 11:16:31:186,0.4623,-0.5693,7.8823,-0.0166,-0.0225,9.8066,-0.04,-0.0639,-0.0048,-17.4,-9.61,-40.73,154.42,0.65,-2.28
7282,51.321823,-0.448839,55,21.27,19,111.0,Aug-19,3640167,2019-02-27 11:16:31:687,0.5202,-0.2815,10.3008,0.0195,0.0103,9.8066,0.0005,0.015,0.0027,-16.65,-9.3,-40.36,157.2,0.66,-2.37
7283,51.321823,-0.448839,55,21.27,19,111.0,Aug-19,3640667,2019-02-27 11:16:32:187,-0.4378,0.3719,9.5478,-0.0445,0.0127,9.8065,0.009,-0.0404,-0.0058,-17.02,-9.98,-40.3,154.36,0.74,-2.27
7284,51.321823,-0.448839,55,21.27,19,111.0,Aug-19,3641167,2019-02-27 11:16:32:687,-0.2337,0.0359,10.2117,-0.0538,0.0161,9.8065,-0.0389,-0.0053,-0.0058,-16.65,-9.61,-40.73,154.0,0.18,-2.29
7285,51.321823,-0.448839,55,21.27,19,111.0,Aug-19,3641666,2019-02-27 11:16:33:186,-0.0504,0.4159,9.0731,-0.07,0.0774,9.8061,-0.0144,-0.0489,0.0112,-17.4,-9.3,-40.73,155.6,-0.71,-2.12
7286,51.321823,-0.448839,55,21.27,19,111.0,Aug-19,3642166,2019-02-27 11:16:33:686,-0.1969,-0.0337,8.7999,-0.0379,0.0474,9.8065,-0.0453,0.0065,0.0112,-16.65,-9.61,-40.73,152.22,-1.04,-2.01
7287,51.321823,-0.448839,55,21.27,19,111.0,Aug-19,3642666,2019-02-27 11:16:34:186,0.3427,-0.5431,9.4437,-0.0034,0.0282,9.8066,-0.04,-0.0617,0.0166,-17.77,-9.3,-40.73,155.39,-1.45,-1.72
7288,51.321823,-0.448839,55,21.27,19,111.0,Aug-19,3643166,2019-02-27 11:16:34:686,-0.3614,0.297,10.0162,0.0215,-0.0058,9.8066,-0.0155,-0.0596,0.0144,-17.02,-8.92,-40.3,153.63,-1.63,-1.63
7289,51.321823,-0.448839,55,21.27,19,111.0,Aug-19,3643666,2019-02-27 11:16:35:186,-0.0992,0.2122,9.8655,0.0339,-0.0087,9.8066,0.0218,0.1439,-0.0154,-17.4,-9.3,-40.3,153.7,-1.5,-1.6
7290,51.321823,-0.448839,55,21.27,19,111.0,Aug-19,3644167,2019-02-27 11:16:35:687,0.623,-0.4125,9.2406,0.0757,-0.0346,9.8063,0.0048,-0.0244,-0.0037,-17.4,-8.55,-40.3,154.22,-0.82,-1.52
7291,51.321823,-0.448839,55,21.27,19,111.0,Aug-19,3644666,2019-02-27 11:16:36:186,0.4636,-0.0501,10.184,0.0407,0.0041,9.8066,0.0005,0.0097,0.0144,-15.9,-7.8,-37.8,155.6,-0.65,-1.41
7292,51.321823,-0.448839,55,21.27,19,111.0,Aug-19,3645166,2019-02-27 11:16:36:686,0.1666,0.5179,8.6116,0.0231,-0.0252,9.8066,-0.024,-0.0244,0.007,-16.65,-9.3,-40.73,154.5,-0.26,-1.37
7293,51.321823,-0.448839,55,21.27,19,111.0,Aug-19,3645667,2019-02-27 11:16:37:187,-0.0237,-0.0356,10.2701,0.0401,-0.0213,9.8065,0.0602,0.1183,-0.0079,-17.02,-9.61,-40.3,152.09,-0.06,-1.46
7294,51.321823,-0.448839,55,21.27,19,111.0,Aug-19,3646166,2019-02-27 11:16:37:686,0.2558,-0.1828,9.8914,0.0395,0.0264,9.8065,0.0485,0.0363,0.0027,-17.4,-9.61,-39.86,152.35,0.2,-1.46
7295,51.321823,-0.448839,55,21.27,19,111.0,Aug-19,3646666,2019-02-27 11:16:38:186,0.1376,0.7121,11.0481,0.0618,0.0756,9.8062,-0.0506,-0.0425,0.0166,-16.65,-10.36,-39.48,150.91,0.38,-0.58
7296,51.321823,-0.448839,55,21.27,19,111.0,Aug-19,3647166,2019-02-27 11:16:38:686,-0.0562,0.1053,10.3662,0.1052,0.0672,9.8059,-0.0027,-0.0404,0.0155,-17.4,-9.98,-40.73,150.18,0.73,0.06
7297,51.321823,-0.448839,55,21.27,19,111.0,Aug-19,3647666,2019-02-27 11:16:39:186,-0.1263,-0.4427,10.6182,-0.0064,-0.0325,9.8066,0.0293,0.016,0.007,-16.65,-10.05,-40.86,150.76,0.84,-0.21
7298,51.321823,-0.448839,55,21.27,19,111.0,0 / 19,3648167,2019-02-27 11:16:39:687,-0.1171,-0.6125,9.9725,-0.002,-0.0424,9.8066,-0.0091,-0.0159,-0.0037,-16.27,-9.67,-40.05,149.79,0.95,-0.43
7299,51.321823,-0.448839,55,21.27,19,111.0,May-19,3648666,2019-02-27 11:16:40:186,-0.4873,0.6008,9.0537,0.0249,0.0033,9.8066,-0.0474,-0.0351,0.0144,-19.59,-8.17,-40.92,159.31,0.86,-0.3
7300,51.321823,-0.448839,55,21.27,19,111.0,May-19,3649166,2019-02-27 11:16:40:686,0.0708,0.1622,9.4287,0.0278,-0.0483,9.8065,0.0133,-0.0159,0.0198,-16.65,-10.05,-40.11,150.89,0.97,-0.23
7301,51.321823,-0.448839,55,21.27,19,111.0,May-19,3649667,2019-02-27 11:16:41:187,0.2304,-0.936,9.311,-0.0505,-0.0704,9.8063,0.0005,0.0267,-0.0026,-15.9,-10.05,-40.11,150.04,1.25,-0.39
7302,51.321823,-0.448839,55,21.27,19,111.0,Jun-19,3650167,2019-02-27 11:16:41:687,-0.2994,-0.0947,9.6754,-0.0226,-0.0549,9.8065,-0.0506,-0.0809,0.0102,-16.65,-8.92,-40.05,156.27,1.19,-1.66
7303,51.321823,-0.448839,55,21.27,19,111.0,Jun-19,3650667,2019-02-27 11:16:42:187,-0.3577,0.0029,9.4464,-0.0182,-0.0545,9.8065,0.0218,0.0512,-0.009,-15.59,-9.3,-38.8,155.6,1.22,-1.99
7304,51.321823,-0.448839,55,21.27,19,111.0,Jun-19,3651166,2019-02-27 11:16:42:686,-0.4012,0.3039,10.7305,-0.0185,-0.0371,9.8066,-0.0165,0.0256,0.0038,-15.9,-9.3,-39.67,155.97,1.14,-2.15
7305,51.321823,-0.448839,55,21.27,19,111.0,Jun-19,3651667,2019-02-27 11:16:43:187,0.3126,0.1707,9.0685,-0.0195,0.0191,9.8066,-0.0037,-0.0351,0.0006,-15.9,-11.11,-40.48,150.72,0.98,-2.34
7306,51.321823,-0.448839,55,21.27,19,111.0,Jun-19,3652166,2019-02-27 11:16:43:686,-0.1126,0.5902,8.8774,-0.0403,-0.0009,9.8066,0.0282,0.0075,-0.0047,-15.59,-10.05,-40.05,153.14,0.84,-2.28
7307,51.321823,-0.448839,55,21.27,19,111.0,Jun-19,3652667,2019-02-27 11:16:44:187,0.2586,-0.3417,10.2002,-0.0199,0.0412,9.8065,0.0144,0.08,-0.009,-16.65,-9.67,-39.98,154.0,0.42,-2.23
7308,51.321823,-0.448839,55,21.27,19,111.0,Jun-19,3653166,2019-02-27 11:16:44:686,-0.0905,0.1336,9.5755,-0.0194,0.0253,9.8066,-0.0101,-0.0053,0.0027,-16.27,-9.3,-40.05,155.14,0.25,-2.15
7309,51.321823,-0.448839,55,21.27,19,111.0,Jun-19,3653666,2019-02-27 11:16:45:186,-0.1938,0.2206,8.6471,-0.0276,0.0072,9.8066,-0.0155,-0.0862,-0.0016,-16.27,-9.67,-40.42,152.44,0.26,-2.22
7310,51.321823,-0.448839,55,21.27,19,111.0,Jun-19,3654166,2019-02-27 11:16:45:686,-0.0105,-0.4969,9.5051,-0.0202,-0.0229,9.8066,0.0069,-0.0553,-0.0047,-17.02,-8.92,-39.17,156.68,0.05,-2.43
7311,51.321823,-0.448839,55,21.27,19,111.0,Jun-19,3654666,2019-02-27 11:16:46:186,0.6107,-0.445,9.8482,0.0381,0.0831,9.8062,0.0346,0.0363,-0.0069,-17.02,-8.92,-39.61,157.27,0.28,-2.56
7312,51.321823,-0.448839,55,21.27,19,111.0,Jun-19,3655167,2019-02-27 11:16:46:687,0.0786,0.848,9.939,0.0316,0.0531,9.8065,-0.0496,-0.0393,0.0048,-16.27,-10.05,-40.55,151.54,0.33,-1.67
7313,51.321823,-0.448839,55,21.27,19,111.0,Sep-19,3655666,2019-02-27 11:16:47:186,-0.3109,0.7396,9.4064,0.018,0.0173,9.8066,-0.0549,0.0086,0.0027,-16.65,-9.67,-40.61,152.83,0.48,-1.53
7314,51.321823,-0.448839,55,21.27,19,111.0,Sep-19,3656167,2019-02-27 11:16:47:687,0.5478,-0.6319,8.0896,0.0456,-0.0132,9.8065,0.0442,0.0395,-0.0047,-16.65,-9.67,-40.61,152.99,0.75,-1.48
7315,51.321823,-0.448839,55,21.27,19,111.0,Sep-19,3656667,2019-02-27 11:16:48:187,0.0251,-0.3097,9.9633,0.0545,0.0152,9.8065,0.0293,0.0001,-0.0037,-16.27,-9.67,-40.98,151.33,1.1,-1.14
7316,51.321823,-0.448839,55,21.27,19,111.0,Sep-19,3657166,2019-02-27 11:16:48:686,-0.0297,0.6042,10.6718,-0.0037,0.0216,9.8066,-0.0474,0.0001,0.0176,-16.27,-10.05,-40.55,151.37,1.21,-1.11
7317,51.321823,-0.448839,55,21.27,19,111.0,Sep-19,3657667,2019-02-27 11:16:49:187,-0.2107,-0.1243,10.4123,0.0115,0.005,9.8066,0.008,0.0459,-0.0005,-16.65,-9.67,-40.17,152.41,1.13,-1.01
7318,51.321823,-0.448839,55,21.27,19,111.0,Sep-19,3658166,2019-02-27 11:16:49:686,-0.1215,-0.3113,10.037,-0.0226,-0.0074,9.8066,0.0208,0.0448,0.0016,-16.27,-9.67,-40.55,151.87,1.37,-1.28
7319,51.321823,-0.448839,55,21.27,19,111.0,Sep-19,3658667,2019-02-27 11:16:50:187,-0.087,0.2664,9.835,0.0054,-0.0116,9.8066,-0.0389,-0.0404,0.0155,-15.96,-9.3,-39.73,154.57,1.27,-1.38
7320,51.321823,-0.448839,55,21.27,19,111.0,Sep-19,3659166,2019-02-27 11:16:50:686,0.1436,0.3217,9.8885,0.0349,0.0049,9.8066,-0.0144,0.0629,0.0016,-15.59,-9.67,-40.55,151.68,1.29,-1.23
7321,51.321823,-0.448839,55,21.27,19,111.0,Sep-19,3659666,2019-02-27 11:16:51:186,0.379,-0.3095,9.2903,0.0106,0.0021,9.8066,0.0367,0.0139,0.007,-15.59,-9.67,-40.11,151.56,1.33,-1.19
7322,51.321823,-0.448839,55,21.27,19,111.0,Sep-19,3660166,2019-02-27 11:16:51:686,-0.2897,0.2867,11.6044,-0.0238,-0.0002,9.8066,0.0229,-0.067,0.0016,-14.46,-10.05,-39.67,148.43,1.33,-1.18
7323,51.321823,-0.448839,55,21.27,19,111.0,Sep-19,3660667,2019-02-27 11:16:52:187,-0.3571,0.19,10.9597,0.0144,-0.0212,9.8066,-0.0325,-0.0734,0.0048,-14.09,-10.8,-38.86,145.91,1.47,-1.24
7324,51.321823,-0.448839,55,21.27,19,111.0,Sep-19,3661166,2019-02-27 11:16:52:686,0.0922,-0.1304,10.2948,-0.0093,-0.0368,9.8066,-0.0006,0.0182,-0.0005,-13.34,-11.48,-37.98,144.2,1.23,-1.55
7325,51.321823,-0.448839,55,21.27,19,111.0,Sep-19,3661666,2019-02-27 11:16:53:186,-0.2971,0.5281,10.8092,0.0153,0.0304,9.8066,-0.0016,-0.0202,0.0059,-12.96,-14.8,-34.61,134.74,1.25,-1.8
7326,51.321823,-0.448839,55,21.27,19,111.0,Sep-19,3662167,2019-02-27 11:16:53:687,0.4083,-0.0671,9.1643,0.0085,0.0126,9.8066,-0.0091,-0.0521,0.0112,-14.09,-16.3,-33.36,134.27,1.18,-1.61
7327,51.321823,-0.448839,55,21.27,19,111.0,Sep-19,3662666,2019-02-27 11:16:54:186,0.1135,-0.2352,9.3222,0.0683,0.0473,9.8063,0.025,0.0033,0.007,-18.52,-21.42,-33.73,133.88,1.34,-0.7
7328,51.321823,-0.448839,55,21.27,19,111.0,Sep-19,3663167,2019-02-27 11:16:54:687,-0.3176,0.396,10.5103,0.0012,0.0153,9.8066,0.0037,0.0139,0.0112,-21.84,-20.67,-35.05,137.86,1.28,-0.63
7329,51.321823,-0.448839,55,21.27,19,111.0,Sep-19,3663666,2019-02-27 11:16:55:186,0.1081,-0.0382,9.7052,-0.0047,-0.0114,9.8066,0.0282,0.0395,0.0038,-25.15,-15.92,-35.48,148.58,1.18,-0.47
7330,51.321823,-0.448839,55,21.27,19,111.0,Sep-19,3664166,2019-02-27 11:16:55:686,0.3696,0.2109,8.0278,-0.005,-0.0009,9.8066,0.0069,0.0246,0.0144,-21.46,-4.17,-34.98,170.43,1.16,-0.56
7331,51.321823,-0.448839,55,21.27,19,111.0,Sep-19,3664667,2019-02-27 11:16:56:187,0.1638,-0.6053,10.8535,-0.0182,-0.0352,9.8066,0.0431,0.0672,-0.009,-17.77,-1.55,-33.73,174.45,0.93,-0.33
7332,51.321823,-0.448839,55,21.27,19,111.0,Sep-19,3665167,2019-02-27 11:16:56:687,0.2584,-0.0968,9.6603,-0.0198,-0.0114,9.8066,0.0037,0.0619,0.007,-12.65,-5.23,-31.23,160.82,0.73,-0.63
7333,51.321823,-0.448839,55,21.27,19,111.0,Sep-19,3665667,2019-02-27 11:16:57:187,-0.213,0.1971,9.8519,0.003,0.0102,9.8066,-0.008,-0.0607,0.007,-13.34,-6.73,-34.17,153.62,0.73,-0.57
7334,51.321823,-0.448839,55,21.27,19,111.0,Sep-19,3666167,2019-02-27 11:16:57:687,0.264,-0.1194,9.8489,0.0248,-0.0023,9.8066,-0.0197,0.0395,0.0112,-14.09,-8.55,-36.67,149.03,0.77,-0.46
7335,51.321823,-0.448839,55,21.27,19,111.0,Sep-19,3666666,2019-02-27 11:16:58:186,-0.2484,0.4213,10.3886,0.0449,0.0557,9.8064,0.0101,-0.017,0.0166,-14.84,-9.67,-39.17,147.41,0.97,0.01
7336,51.321823,-0.448839,55,21.27,19,111.0,Sep-19,3667167,2019-02-27 11:16:58:687,0.5038,0.3226,8.2917,0.0285,0.0124,9.8066,0.0197,0.0065,0.0219,-15.59,-9.3,-39.17,150.67,0.8,0.43
7337,51.321823,-0.448839,55,21.27,19,111.0,Sep-19,3667666,2019-02-27 11:16:59:186,0.1546,0.5041,9.7887,-0.0063,0.0757,9.8064,-0.024,-0.0138,0.0229,-15.21,-9.67,-39.61,146.35,0.91,0.58
7338,51.321823,-0.448839,55,21.27,19,111.0,Sep-19,3668166,2019-02-27 11:16:59:686,0.2202,-0.1149,8.6329,0.0062,0.0545,9.8065,-0.0165,-0.0617,0.0272,-14.84,-10.73,-39.61,142.38,0.67,1.32
7339,51.321823,-0.448839,55,21.27,19,111.0,Sep-19,3668666,2019-02-27 11:17:00:186,0.0691,0.1968,9.3075,0.0325,0.0555,9.8064,-0.0229,-0.0138,0.007,-13.34,-9.67,-40.48,140.23,0.63,1.69
7340,51.321823,-0.448839,55,21.27,19,111.0,Sep-19,3669167,2019-02-27 11:17:00:687,-0.259,0.0697,10.1768,-0.0164,-0.0428,9.8065,-0.0261,-0.0969,0.0166,-14.84,-10.05,-40.05,145.02,0.76,1.24
7341,51.321823,-0.448839,55,21.27,19,111.0,Sep-19,3669667,2019-02-27 11:17:01:187,-0.247,-0.0768,10.4634,0.0062,-0.035,9.8066,0.0005,0.0011,0.0112,-14.84,-10.42,-39.61,145.46,0.94,1.1
7342,51.321823,-0.448839,55,21.27,19,111.0,Sep-19,3670166,2019-02-27 11:17:01:686,0.2714,0.0724,8.1827,0.0011,-0.0271,9.8066,-0.0517,-0.0862,0.0251,-15.21,-9.67,-39.92,145.89,1.08,0.96
7343,51.321823,-0.448839,55,21.27,19,111.0,Sep-19,3670667,2019-02-27 11:17:02:187,0.1316,-0.1423,10.4919,0.029,-0.0242,9.8066,-0.0304,-0.0671,0.0272,-14.84,-10.73,-41.23,144.37,1.34,0.61
7344,51.321823,-0.448839,55,21.27,19,111.0,Sep-19,3671166,2019-02-27 11:17:02:686,0.0948,0.2617,9.2519,0.0333,0.0407,9.8065,0.0165,0.0299,0.0134,-14.84,-10.05,-40.8,147.09,1.56,0.59
7345,51.321823,-0.448839,55,21.27,19,111.0,Sep-19,3671667,2019-02-27 11:17:03:187,-0.1502,-0.2418,9.5733,-0.0088,0.0112,9.8066,0.0218,-0.0063,0.0208,-13.45,-9.62,-40.41,142.19,1.34,1.16
7346,51.321823,-0.448839,55,21.27,19,111.0,Sep-19,3672167,2019-02-27 11:17:03:687,0.439,-0.0456,7.9159,-0.0178,-0.0062,9.8066,-0.0197,0.0118,0.0208,-13.07,-10.31,-40.84,142.27,1.28,1.07
7347,51.321823,-0.448839,55,21.27,19,111.0,Sep-19,3672666,2019-02-27 11:17:04:186,-0.8242,-0.2175,11.099,-0.0164,-0.009,9.8066,0.0761,0.0022,0.007,-13.45,-9.62,-40.78,142.05,1.04,1.0
7348,51.321823,-0.448839,55,21.27,19,111.0,Sep-19,3673166,2019-02-27 11:17:04:686,-0.2415,0.2378,10.4798,-0.0266,0.0084,9.8066,-0.0144,-0.0319,0.0059,-11.26,-10.69,-43.72,134.64,0.82,1.0
7349,51.321823,-0.448839,55,21.27,19,111.0,Sep-19,3673666,2019-02-27 11:17:05:186,-0.0628,-0.2145,9.3653,-0.0029,-0.015,9.8066,0.041,0.0224,0.0027,-12.7,-9.94,-41.22,141.65,0.67,0.93
7350,51.321823,-0.448839,55,21.27,19,111.0,Sep-19,3674166,2019-02-27 11:17:05:686,0.3599,0.1578,9.6966,0.0066,0.0022,9.8066,-0.0133,0.0768,0.0144,-13.45,-10.31,-40.78,141.83,0.73,0.88
7351,51.321823,-0.448839,55,21.27,19,111.0,Sep-19,3674666,2019-02-27 11:17:06:186,-0.2839,0.0704,9.9458,-0.0179,-0.0237,9.8066,0.0197,-0.034,0.0123,-12.7,-10.69,-41.22,139.61,0.74,0.71
7352,51.321823,-0.448839,55,21.27,19,111.0,Sep-19,3675166,2019-02-27 11:17:06:686,0.2754,-0.2374,9.2743,-0.0305,-0.04,9.8065,-0.041,-0.0447,0.0176,-12.39,-9.25,-39.09,143.23,0.8,0.55
7353,51.321823,-0.448839,55,21.27,19,111.0,Sep-19,3675666,2019-02-27 11:17:07:186,-0.0722,-0.2331,9.4867,-0.018,-0.0215,9.8066,0.0154,-0.0287,0.0038,-13.45,-12.19,-40.84,138.37,0.8,0.09
7354,51.321823,-0.448839,55,21.27,19,111.0,Sep-19,3676167,2019-02-27 11:17:07:687,0.1896,-0.3631,8.9783,-0.0399,-0.0457,9.8065,-0.0251,0.0054,0.0112,-13.07,-10.31,-40.03,143.93,0.89,-0.11
7355,51.321823,-0.448839,55,21.27,19,111.0,Sep-19,3676666,2019-02-27 11:17:08:186,-0.2161,-0.5613,10.9044,-0.0105,-0.0446,9.8065,-0.0251,-0.0308,-0.0005,-12.01,-10.37,-39.28,143.07,0.97,-0.71
7356,51.321823,-0.448839,55,21.27,19,111.0,Sep-19,3677166,2019-02-27 11:17:08:686,0.1963,0.1025,8.8945,-0.0534,-0.1067,9.8059,-0.008,-0.0202,0.0016,-12.01,-11.12,-39.72,141.87,1.09,-1.4
7357,51.321823,-0.448839,55,21.27,19,111.0,Sep-19,3677667,2019-02-27 11:17:09:187,-0.1321,-0.1037,10.4316,-0.0189,-0.0152,9.8066,-0.0261,-0.0532,0.0048,-12.01,-11.12,-40.16,142.06,0.99,-1.57
7358,51.321823,-0.448839,55,21.27,19,111.0,Sep-19,3678167,2019-02-27 11:17:09:687,0.393,0.2482,8.9551,0.0214,0.0576,9.8065,0.0037,0.0608,0.0134,-13.45,-10.75,-40.16,143.55,0.85,-1.37
7359,51.321823,-0.448839,55,21.27,19,111.0,Sep-19,3678666,2019-02-27 11:17:10:186,-0.2652,0.8258,10.4144,0.0102,0.0441,9.8065,-0.04,-0.0436,0.0165,-13.45,-10.75,-40.16,142.3,0.48,-0.99
7360,51.321823,-0.448839,55,21.27,19,111.0,Sep-19,3679166,2019-02-27 11:17:10:686,-0.4292,0.905,10.875,-0.0062,0.0586,9.8065,-0.0389,-0.0607,0.0261,-13.07,-10.0,-39.78,143.6,0.14,-0.49
7361,51.321823,-0.448839,55,21.27,19,111.0,Sep-19,3679666,2019-02-27 11:17:11:186,-0.1387,0.0686,9.1186,-0.026,0.0173,9.8066,0.0644,0.0192,0.008,-12.7,-10.75,-40.16,140.11,-0.24,-0.39
7362,51.321823,-0.448839,55,21.27,19,111.0,Sep-19,3680167,2019-02-27 11:17:11:687,-0.2187,0.534,9.9826,-0.0154,0.0651,9.8064,-0.0325,0.0214,0.007,-12.39,-10.0,-40.16,140.32,-0.42,-0.41
7363,51.321823,-0.448839,55,21.27,19,111.0,Sep-19,3680667,2019-02-27 11:17:12:187,-0.0155,0.2648,9.7088,0.0067,0.0553,9.8065,0.0112,0.0256,0.0208,-12.39,-11.12,-40.53,134.54,-1.2,0.45
7364,51.321823,-0.448839,55,21.27,19,111.0,Sep-19,3681167,2019-02-27 11:17:12:687,-0.1257,0.5318,10.4823,-0.0513,0.057,9.8064,-0.0591,-0.0042,0.0208,-13.07,-11.44,-39.28,136.31,-1.43,0.72
7365,51.321823,-0.448839,55,21.27,19,111.0,Sep-19,3681666,2019-02-27 11:17:13:186,0.3433,0.498,9.2129,-0.017,0.0144,9.8066,-0.0943,-0.0404,0.0229,-12.01,-10.75,-39.66,132.63,-2.0,0.74
7366,51.321823,-0.448839,55,21.27,19,111.0,Sep-19,3682166,2019-02-27 11:17:13:686,-0.3334,0.396,10.4082,-0.0028,-0.024,9.8066,-0.0101,-0.0394,0.0261,-12.01,-11.44,-39.66,132.2,-2.2,0.77
7367,51.321823,-0.448839,55,21.27,19,111.0,Sep-19,3682666,2019-02-27 11:17:14:186,0.157,-0.8776,11.0901,0.0137,-0.0324,9.8066,0.0825,0.0437,0.0102,-12.01,-11.06,-39.22,132.69,-2.11,0.67
7368,51.321823,-0.448839,55,21.27,19,111.0,Sep-19,3683166,2019-02-27 11:17:14:686,0.3501,0.0062,8.7592,0.0295,-0.1302,9.8057,-0.0368,0.0416,0.0112,-11.64,-11.06,-39.22,135.04,-1.24,0.21
7369,51.321823,-0.448839,55,21.27,19,111.0,Sep-19,3683666,2019-02-27 11:17:15:186,-0.1184,-1.0837,9.356,-0.0183,-0.0856,9.8063,-0.0016,-0.0074,-0.0037,-11.64,-12.19,-40.09,133.72,-0.96,-0.22
7370,51.321823,-0.448839,55,21.27,19,111.0,Sep-19,3684167,2019-02-27 11:17:15:687,-0.381,-0.6893,10.4217,-0.0524,-0.0355,9.8064,0.0698,0.0373,-0.0101,-12.01,-12.56,-39.59,132.02,-0.93,-0.58
7371,51.321823,-0.448839,55,21.27,19,111.0,Sep-19,3684667,2019-02-27 11:17:16:187,-0.5617,0.3022,10.4267,-0.0151,-0.0479,9.8065,0.0058,-0.0223,-0.0048,-12.39,-11.44,-39.16,138.3,-0.84,-1.21
7372,51.321823,-0.448839,55,21.27,19,111.0,Sep-19,3685167,2019-02-27 11:17:16:687,0.2056,-0.4651,7.7922,-0.0407,-0.0413,9.8065,-0.04,-0.0394,-0.008,-11.64,-11.44,-38.72,139.3,-0.73,-1.63
7373,51.321823,-0.448839,55,21.27,19,111.0,Sep-19,3685666,2019-02-27 11:17:17:186,0.1667,-0.4232,9.6401,-0.0242,-0.0149,9.8066,0.0005,-0.0085,-0.008,-11.64,-11.06,-37.97,141.03,-0.58,-2.41
7374,51.321823,-0.448839,55,21.27,19,111.0,Sep-19,3686166,2019-02-27 11:17:17:686,0.0792,-0.3883,8.0806,-0.0526,-0.0336,9.8065,0.0389,0.0107,-0.0154,-12.01,-12.19,-37.97,138.62,-0.7,-2.76
7375,51.321823,-0.448839,55,21.27,19,111.0,Sep-19,3686667,2019-02-27 11:17:18:187,0.1309,-0.5157,9.8159,0.0159,-0.1276,9.8058,0.0506,0.0469,-0.0101,-11.64,-8.5,-36.22,153.56,-0.19,-3.31
7376,51.321823,-0.448839,55,21.27,19,111.0,Sep-19,3687166,2019-02-27 11:17:18:686,0.2661,-0.0008,8.803,0.046,-0.0471,9.8064,-0.0325,-0.0692,0.0027,-10.51,-12.19,-37.84,138.89,0.17,-3.44
7377,51.321823,-0.448839,55,21.27,19,111.0,Sep-19,3687666,2019-02-27 11:17:19:186,0.1553,1.0893,9.5262,0.0857,0.007,9.8063,-0.041,-0.0213,0.0038,-11.64,-12.56,-38.34,139.3,0.79,-3.31
7378,51.321823,-0.448839,55,21.27,19,111.0,Sep-19,3688167,2019-02-27 11:17:19:687,0.6392,-0.4764,9.902,0.1128,0.0199,9.806,0.0442,0.0491,-0.0048,-12.39,-11.81,-37.47,141.34,1.57,-2.44
7379,51.321823,-0.448839,55,21.27,19,111.0,Sep-19,3688667,2019-02-27 11:17:20:187,0.1587,-0.4807,10.1548,0.0854,-0.0124,9.8063,-0.0123,-0.066,-0.0005,-12.7,-11.44,-37.47,145.73,1.9,-2.0
7380,51.321823,-0.448839,55,21.27,19,111.0,Sep-19,3689167,2019-02-27 11:17:20:687,-0.7806,1.9712,8.9325,-0.0335,0.0708,9.8063,-0.1081,-0.1917,0.0144,-6.82,-6.69,-36.22,145.1,2.66,-1.51
7381,51.321823,-0.448839,55,21.27,19,111.0,Sep-19,3689666,2019-02-27 11:17:21:186,1.0699,-0.706,8.5824,0.0843,0.0137,9.8063,-0.0048,-0.0628,0.0347,-6.45,1.44,-39.16,192.57,3.01,-1.16
7382,51.321823,-0.448839,55,21.27,19,111.0,Sep-19,3690166,2019-02-27 11:17:21:686,0.3857,-0.1713,9.3906,-0.0189,0.0936,9.8062,0.0293,0.065,0.0229,-6.17,-2.5,-29.25,166.49,2.89,-0.41
7383,51.321823,-0.448839,55,21.27,19,111.0,Sep-19,3690667,2019-02-27 11:17:22:187,0.3307,0.4617,8.853,0.0827,0.075,9.806,-0.0666,-0.115,0.0442,-11.64,-21.0,-41.66,122.74,2.56,0.74
7384,51.321823,-0.448839,55,21.27,19,111.0,Sep-19,3691167,2019-02-27 11:17:22:687,-0.2572,-0.5452,11.3936,-0.0456,0.0275,9.8065,-0.0027,0.0001,0.007,-16.01,-15.87,-39.16,136.52,2.65,1.25
7385,51.321823,-0.448839,55,21.27,19,111.0,Sep-19,3691667,2019-02-27 11:17:23:187,0.0295,0.0545,9.9996,-0.0107,0.045,9.8065,-0.0357,-0.0021,0.0176,-13.45,-12.19,-38.28,138.16,2.11,1.33
7386,51.321823,-0.448839,55,21.27,19,111.0,Sep-19,3692166,2019-02-27 11:17:23:686,0.1446,-0.2695,11.0035,0.0035,-0.0652,9.8064,-0.0794,-0.0681,0.0283,-21.32,-13.13,-16.53,148.18,2.04,1.33
7387,51.321823,-0.448839,55,21.27,19,111.0,Sep-19,3692666,2019-02-27 11:17:24:186,0.0324,0.1491,8.3724,-0.0532,-0.0155,9.8065,-0.0442,-0.0234,0.0123,-12.01,-11.44,-38.72,138.42,1.82,1.09
7388,51.321823,-0.448839,55,21.27,19,111.0,Sep-19,3693166,2019-02-27 11:17:24:686,0.2329,0.2949,10.1333,0.0149,0.0023,9.8066,0.0186,-0.0308,0.008,-12.39,-12.56,-40.34,134.56,2.2,1.04
7389,51.321823,-0.448839,55,21.27,19,111.0,Sep-19,3693666,2019-02-27 11:17:25:186,-0.1357,0.1322,10.0271,-0.0402,-0.047,9.8065,-0.0932,-0.0777,0.0165,-5.01,-11.06,-38.28,118.55,2.13,1.16
7390,51.321823,-0.448839,55,21.27,19,111.0,Sep-19,3694166,2019-02-27 11:17:25:686,0.4078,-0.4509,9.7655,0.0266,0.0803,9.8063,-0.0016,0.1641,0.0155,-10.89,-11.06,-40.03,137.35,2.26,0.83
7391,51.321823,-0.448839,55,21.27,19,111.0,Sep-19,3694666,2019-02-27 11:17:26:186,-0.2599,0.9776,10.7796,0.0259,0.0371,9.8065,-0.0016,-0.0127,0.0144,-10.3,-12.84,-39.67,129.33,2.08,1.37
7392,51.321823,-0.448839,55,21.27,19,111.0,Sep-19,3695166,2019-02-27 11:17:26:686,-0.0143,0.4369,8.8586,0.0195,0.0202,9.8066,-0.0432,-0.0053,0.0219,-10.3,-12.09,-39.61,130.93,2.01,1.62
7393,51.321823,-0.448839,55,21.27,19,111.0,Sep-19,3695666,2019-02-27 11:17:27:186,-0.2055,-0.289,9.8193,-0.0223,-0.0219,9.8066,0.0133,-0.0468,0.0187,-10.67,-13.52,-39.23,129.41,1.86,1.34
7394,51.321823,-0.448839,55,21.27,19,111.0,Sep-19,3696166,2019-02-27 11:17:27:686,0.2902,-1.1387,8.7396,-0.0376,-0.0076,9.8066,0.0612,0.0799,0.0165,-10.3,-13.52,-38.36,127.08,1.76,1.14
7395,51.321823,-0.448839,55,21.27,19,111.0,Sep-19,3696667,2019-02-27 11:17:28:187,0.0516,-0.669,8.9868,0.0001,-0.011,9.8066,0.0165,0.0043,0.0155,-9.92,-12.84,-39.23,128.96,1.84,1.32
7396,51.321823,-0.448839,55,21.27,19,111.0,Sep-19,3697166,2019-02-27 11:17:28:686,-0.0691,-0.8115,9.3279,-0.0683,-0.0282,9.8064,0.0026,0.0469,0.007,-11.8,-12.77,-40.42,134.2,1.76,0.85
7397,51.321823,-0.448839,55,21.27,19,111.0,Sep-19,3697666,2019-02-27 11:17:29:186,-0.5812,-0.5385,9.0776,-0.1398,0.0117,9.8056,-0.0485,0.0469,0.0229,-9.55,-12.09,-39.17,132.01,1.6,0.44
7398,51.321823,-0.448839,55,21.27,19,111.0,Sep-19,3698167,2019-02-27 11:17:29:687,-0.6109,0.7743,10.1369,-0.1755,0.1158,9.8044,-0.0357,0.0448,0.008,-9.55,-13.15,-38.79,128.13,0.01,-0.37
7399,51.321823,-0.448839,55,21.27,19,111.0,Sep-19,3698667,2019-02-27 11:17:30:187,0.2616,0.6509,8.4911,-0.3038,0.2621,9.7984,-0.0314,0.0054,0.0123,-11.05,-11.71,-39.61,129.4,-2.29,-0.82
7400,51.321823,-0.448839,55,21.27,19,111.0,Sep-19,3699166,2019-02-27 11:17:30:686,0.2357,0.2198,9.231,-0.0606,0.121,9.8057,-0.0006,0.0384,0.0006,-9.55,-10.96,-39.61,125.58,-3.6,-0.83
7401,51.321823,-0.448839,55,21.27,19,111.0,Sep-19,3699666,2019-02-27 11:17:31:186,-0.179,-0.1178,10.8781,-0.0147,0.1321,9.8057,0.0357,0.0022,0.0048,-9.92,-10.21,-40.04,123.33,-5.08,-0.35
7402,51.321823,-0.448839,55,21.27,19,111.0,Sep-19,3700167,2019-02-27 11:17:31:687,0.0625,-0.2264,10.0821,0.0598,-0.0272,9.8064,0.0026,0.0203,0.0187,-10.3,-10.59,-38.79,120.58,-5.12,-0.05
7403,51.321823,-0.448839,55,21.27,19,111.0,Sep-19,3700666,2019-02-27 11:17:32:186,0.744,-0.9982,10.7049,0.1237,-0.0765,9.8056,-0.0059,-0.033,0.0144,-7.74,-10.96,-38.79,114.55,-4.08,0.61
7404,51.321823,-0.448839,55,21.27,19,111.0,Sep-19,3701167,2019-02-27 11:17:32:687,0.7867,-1.2693,9.6556,0.19,-0.1919,9.8029,0.0357,-0.0255,0.024,-7.74,-11.34,-38.79,118.3,-2.76,0.53
7405,51.321823,-0.448839,55,21.27,19,111.0,Sep-19,3701666,2019-02-27 11:17:33:186,0.5697,-0.6027,7.499,0.0126,0.0634,9.8064,-0.0155,0.0064,0.0272,-7.36,-13.15,-37.92,113.94,-1.12,1.68
7406,51.321823,-0.448839,55,21.27,19,111.0,Sep-19,3702166,2019-02-27 11:17:33:686,0.7127,0.51,9.3596,0.072,0.0107,9.8064,0.0122,0.0245,0.0283,-9.55,-13.15,-37.98,122.45,-1.43,1.9
7407,51.321823,-0.448839,55,21.27,19,111.0,Sep-19,3702666,2019-02-27 11:17:34:186,0.2579,0.0955,10.4874,0.023,0.1271,9.8058,-0.0016,0.0245,0.0283,-8.49,-13.52,-36.73,114.74,-1.28,2.49
7408,51.321823,-0.448839,55,21.27,19,111.0,Sep-19,3703166,2019-02-27 11:17:34:686,-0.3336,0.3074,10.3177,0.0257,0.065,9.8064,0.0016,0.0331,0.0336,-8.49,-13.15,-36.67,113.71,-2.19,3.21
7409,51.321823,-0.448839,55,21.27,19,111.0,Sep-19,3703666,2019-02-27 11:17:35:186,-0.3883,-0.4233,10.5759,-0.1015,0.0562,9.806,-0.0453,-0.0255,0.0315,-8.11,-12.77,-36.67,112.87,-2.65,3.09
7410,51.321823,-0.448839,55,21.27,19,111.0,Sep-19,3704166,2019-02-27 11:17:35:686,-0.4826,-0.4512,9.4745,-0.0434,-0.003,9.8066,-0.0165,-0.0735,0.0229,-6.61,-12.84,-35.86,108.96,-3.25,2.42
7411,51.321823,-0.448839,55,21.27,19,111.0,Sep-19,3704666,2019-02-27 11:17:36:186,-0.2643,-0.6797,9.926,-0.0555,0.0108,9.8065,-0.0304,0.0267,0.0133,4.39,-6.59,-52.67,54.54,-2.94,2.6
7412,51.321823,-0.448839,55,21.27,19,111.0,Sep-19,3705166,2019-02-27 11:17:36:686,-0.1101,0.0207,9.0929,0.0174,-0.0687,9.8064,-0.0421,0.048,0.0165,-5.92,-12.46,-51.36,104.1,-2.8,2.3
7413,51.321823,-0.448839,55,21.27,19,111.0,Sep-19,3705666,2019-02-27 11:17:37:186,-0.2584,0.314,8.3343,0.1629,-0.0174,9.8053,0.1198,-0.0042,0.0091,-7.36,-13.15,-39.17,111.34,-1.86,2.55
7414,51.321823,-0.448839,55,21.27,19,111.0,Sep-19,3706167,2019-02-27 11:17:37:687,0.4125,0.1742,9.5474,0.0593,-0.004,9.8065,0.0378,0.0352,0.0176,-6.61,-13.52,-38.73,111.36,-1.59,1.71
7415,51.321823,-0.448839,55,21.27,19,111.0,Sep-19,3706667,2019-02-27 11:17:38:187,-0.2217,0.7582,9.6294,0.0196,0.023,9.8066,0.0474,0.0597,0.007,-5.36,-13.74,-38.95,104.45,-1.51,2.19
7416,51.321823,-0.448839,55,21.27,19,111.0,Sep-19,3707167,2019-02-27 11:17:38:687,0.1551,0.9086,10.6398,0.0475,0.0049,9.8065,0.0474,0.0917,0.007,-6.8,-14.49,-38.89,112.33,-1.06,1.93
7417,51.321823,-0.448839,55,21.27,19,111.0,Sep-19,3707667,2019-02-27 11:17:39:187,0.7761,-0.2295,8.2456,0.0105,-0.0413,9.8066,-0.0314,-0.0181,0.0347,-6.8,-14.49,-38.89,112.27,-0.98,2.2
7418,51.321823,-0.448839,55,21.27,19,111.0,Sep-19,3708167,2019-02-27 11:17:39:687,0.6541,-0.219,8.1483,0.2147,-0.0093,9.8043,-0.0581,-0.0106,0.0347,-6.05,-11.93,-38.51,112.12,-0.31,3.35
7419,51.321823,-0.448839,55,21.27,19,111.0,Sep-19,3708666,2019-02-27 11:17:40:186,-0.0509,-0.8316,10.2689,0.0823,-0.0128,9.8063,-0.0229,0.0086,0.0272,-4.23,-11.56,-37.64,105.32,-0.06,3.76
