,GPS LATITUDE (degrees), GPS LONGITUDE (degrees), GPS ALTITUDE (m), GPS SPEED (Kmh), GPS ACCURACY (m), GPS ORIENTATION (Â°),GPS SATELLITES IN RANGE, TIME SINCE START (ms), DATE (YYYY-MO-DD HH-MI-SS_SSS), ACCELEROMETER X (m/s²) , ACCELEROMETER Y (m/s²), ACCELEROMETER Z (m/s²), GRAVITY X (m/s²), GRAVITY Y (m/s²), GRAVITY Z (m/s²), GYROSCOPE Yaw (rad/s), GYROSCOPE Pitch (rad/s), GYROSCOPE Roll (rad/s), MAGNETIC FIELD X (Î¼T), MAGNETIC FIELD Y (Î¼T), MAGNETIC FIELD Z (Î¼T), ORIENTATION (Yaw) (Â°), ORIENTATION (Pitch) (Â°), ORIENTATION (Roll ) (Â°)
34740,52.415577,-1.603145,181.4,7.3,3,10.96,26 / 26,3476921,2019-09-08 11:05:43:545,-0.9384,-0.9346,9.6639,-0.0437,-0.0104,9.8065,0.034,0.0101,-0.0437,-15.62,-31.5,-6.5,267.15,-82.87,-149.22
34741,52.415577,-1.603145,181.4,7.3,3,10.96,26 / 26,3477021,2019-09-08 11:05:43:645,-0.4939,-0.2736,10.4718,-0.0471,-0.0167,9.8065,0.1196,0.0016,-0.0188,-15.94,-32.44,-6.06,266.6,-83.1,-149.79
34742,52.415577,-1.603145,181.4,7.3,3,10.96,26 / 26,3477121,2019-09-08 11:05:43:745,-1.1072,0.7142,9.8525,0.0201,0.0407,9.8064,-0.1729,-0.0149,0.0117,-14.75,-32.62,-6.25,263.84,-83.3,-150.61
34743,52.415577,-1.603145,181.4,7.3,3,10.96,26 / 26,3477222,2019-09-08 11:05:43:846,-1.5896,-0.3155,8.7724,0.0234,0.0281,9.8066,-0.2177,0.0126,-0.0154,-14.94,-32.81,-6.69,258.96,-83.23,-152.68
34744,52.415577,-1.603145,181.4,7.3,3,10.96,26 / 26,3477321,2019-09-08 11:05:43:945,-0.8875,-1.062,9.7343,-0.0375,-0.0245,9.8065,0.1512,-0.0076,0.0143,-15.31,-32.0,-6.81,259.56,-83.29,-152.58
34745,52.415577,-1.603145,181.4,7.3,3,10.96,26 / 26,3477422,2019-09-08 11:05:44:046,-0.8123,-0.5559,10.4779,-0.0339,-0.0126,9.8065,0.125,0.0165,-0.0186,-14.81,-32.94,-6.62,259.91,-83.59,-152.39
34746,52.415577,-1.603145,181.4,7.3,3,10.96,26 / 26,3477522,2019-09-08 11:05:44:146,-0.5286,-0.0943,10.3913,0.0085,0.0201,9.8065,-0.0968,-0.001,-0.0221,-14.31,-32.81,-7.37,255.74,-83.56,-154.44
34747,52.415577,-1.603145,181.4,7.3,3,10.96,26 / 26,3477622,2019-09-08 11:05:44:246,-0.9314,-0.5928,9.638,0.0019,0.0232,9.8065,-0.0985,0.0093,-0.0528,-13.31,-33.06,-7.5,252.32,-83.66,-155.8
34748,52.415577,-1.603145,181.4,7.3,3,10.96,26 / 26,3477721,2019-09-08 11:05:44:345,-1.1582,-0.2411,9.6065,-0.0182,-0.0074,9.8065,0.0943,-0.0085,0.0075,-14.5,-32.62,-7.12,253.98,-83.77,-156.76
34749,52.415577,-1.603145,181.4,7.3,3,10.96,26 / 26,3477821,2019-09-08 11:05:44:445,-0.1805,-0.5666,10.2012,-0.0138,-0.0087,9.8066,0.1069,-0.0328,0.028,-13.94,-33.19,-6.87,253.91,-83.81,-156.93
34750,52.415577,-1.603145,181.4,7.3,3,10.96,27 / 27,3477922,2019-09-08 11:05:44:546,-0.5156,-0.1464,9.7641,0.0031,0.0102,9.8066,0.0175,-0.0029,-0.0028,-13.87,-32.87,-6.75,253.64,-83.84,-157.27
34751,52.415577,-1.603145,181.4,7.3,3,10.96,27 / 27,3478021,2019-09-08 11:05:44:645,-0.5823,-0.487,9.9597,-0.0063,-0.0056,9.8066,0.0321,-0.0276,0.0052,-13.44,-32.69,-7.25,251.03,-83.84,-157.59
34752,52.415577,-1.603145,181.4,7.3,3,10.96,27 / 27,3478121,2019-09-08 11:05:44:745,-0.9999,-0.4631,10.0682,-0.0151,-0.0018,9.8066,0.0171,-0.0043,-0.0325,-13.87,-33.25,-7.31,253.48,-83.95,-157.68
34753,52.415577,-1.603145,181.4,7.3,3,10.96,27 / 27,3478221,2019-09-08 11:05:44:845,-0.7726,-0.3834,10.1501,-0.0046,0.0098,9.8066,-0.0343,-0.0131,0.0034,-13.25,-34.12,-7.06,250.01,-84.04,-158.75
34754,52.415577,-1.603145,181.4,7.3,3,10.96,27 / 27,3478321,2019-09-08 11:05:44:945,-0.7704,-0.4987,9.8224,0.0016,0.0091,9.8066,-0.0126,0.0102,-0.0235,-13.5,-33.69,-6.81,249.58,-84.1,-159.33
34755,52.415577,-1.603145,181.4,7.3,3,10.96,27 / 27,3478422,2019-09-08 11:05:45:046,-0.8138,-0.2984,9.5699,-0.0048,-0.0012,9.8066,0.001,0.0006,0.0114,-13.31,-33.06,-7.12,249.64,-84.17,-159.81
34756,52.415577,-1.603145,181.4,7.3,3,10.96,27 / 27,3478522,2019-09-08 11:05:45:146,-0.8503,-0.4245,9.8792,-0.0013,-0.0006,9.8066,-0.0078,-0.0173,0.0287,-13.75,-33.56,-7.56,249.37,-84.28,-159.58
34757,52.415577,-1.603145,181.4,7.3,3,10.96,27 / 27,3478621,2019-09-08 11:05:45:245,-0.8282,-0.9217,10.111,-0.0084,-0.016,9.8066,0.0353,-0.0064,0.0058,-13.81,-33.31,-7.62,250.85,-84.36,-158.5
34758,52.415577,-1.603145,181.4,7.3,3,10.96,27 / 27,3478721,2019-09-08 11:05:45:345,-0.6137,-0.8921,9.9471,-0.0135,-0.0099,9.8065,0.0327,-0.0235,0.0153,-13.37,-33.0,-7.69,249.81,-84.52,-157.44
34759,52.415577,-1.603145,181.4,7.3,3,10.96,27 / 27,3478822,2019-09-08 11:05:45:446,-0.9159,-1.1307,10.0451,-0.0025,-0.0027,9.8066,-0.0273,-0.0124,-0.0113,-13.56,-32.81,-7.75,252.34,-84.58,-157.33
34760,52.415577,-1.603145,181.4,7.3,3,10.96,27 / 27,3478921,2019-09-08 11:05:45:545,-1.446,-1.0118,9.895,-0.0151,-0.0033,9.8065,-0.0247,-0.0101,-0.0023,-13.56,-32.31,-7.62,252.96,-84.72,-157.26
34761,52.415577,-1.603145,181.4,7.3,3,10.96,27 / 27,3479022,2019-09-08 11:05:45:646,-1.11,-1.1811,9.8024,-0.0061,-0.0073,9.8066,-0.0177,0.0066,-0.0065,-14.19,-33.25,-8.25,253.13,-84.89,-157.11
34762,52.415577,-1.603145,181.4,7.3,3,10.96,27 / 27,3479121,2019-09-08 11:05:45:745,-1.1948,-0.7947,9.6819,0.0003,-0.0082,9.8066,-0.0191,-0.0482,0.0231,-13.56,-32.94,-8.0,254.53,-84.98,-155.8
34763,52.415577,-1.603145,181.4,7.3,3,10.96,27 / 27,3479222,2019-09-08 11:05:45:846,-1.0732,-0.7817,9.634,0.0012,-0.0032,9.8066,-0.0764,-0.0358,-0.0082,-13.37,-33.25,-7.81,252.48,-84.91,-155.41
34764,52.415577,-1.603145,181.4,7.3,3,10.96,27 / 27,3479322,2019-09-08 11:05:45:946,-1.3178,-1.2464,9.87,-0.0038,-0.0077,9.8066,-0.0312,-0.022,-0.032,-13.69,-32.81,-7.75,254.75,-84.9,-155.42
34765,52.415577,-1.603145,181.4,7.3,3,10.96,27 / 27,3479422,2019-09-08 11:05:46:046,-1.4488,-0.9879,9.8112,-0.0113,-0.0047,9.8066,0.0068,-0.0282,-0.0204,-13.81,-32.56,-7.5,257.9,-84.98,-155.15
34766,52.415577,-1.603145,181.4,7.3,3,10.96,27 / 27,3479522,2019-09-08 11:05:46:146,-1.3219,-1.0243,9.8745,0.0031,0.0023,9.8066,-0.0016,-0.0298,-0.0079,-14.37,-33.25,-7.5,257.89,-85.02,-155.25
34767,52.415577,-1.603145,181.4,7.3,3,10.96,27 / 27,3479622,2019-09-08 11:05:46:246,-1.806,-1.0081,9.8256,-0.0026,-0.0056,9.8066,0.0313,-0.0564,0.0347,-13.94,-33.5,-7.0,258.4,-85.03,-154.74
34768,52.415577,-1.603145,181.4,7.3,3,10.96,27 / 27,3479721,2019-09-08 11:05:46:345,-1.4478,-1.4695,9.9806,-0.0012,-0.0009,9.8066,0.0158,-0.0303,0.0132,-13.94,-33.44,-8.44,255.72,-85.03,-154.66
34769,52.415577,-1.603145,181.4,7.3,3,10.96,27 / 27,3479821,2019-09-08 11:05:46:445,-1.4285,-1.1384,9.7845,-0.0001,0.0019,9.8066,-0.0108,-0.0287,-0.0003,-14.06,-34.12,-7.69,255.41,-85.06,-154.74
34770,52.415577,-1.603145,181.4,7.3,3,10.96,26 / 27,3479922,2019-09-08 11:05:46:546,-1.629,-1.0803,9.9628,0.0004,-0.003,9.8066,0.0107,-0.0445,0.0094,-14.19,-33.44,-7.75,255.86,-85.07,-154.58
34771,52.415577,-1.603145,181.4,7.3,3,10.96,26 / 27,3480021,2019-09-08 11:05:46:645,-1.5653,-1.3031,10.0697,-0.0011,-0.0039,9.8066,-0.0082,-0.0298,-0.0012,-14.0,-33.69,-7.31,258.97,-85.08,-153.93
34772,52.415577,-1.603145,181.4,7.3,3,10.96,26 / 27,3480121,2019-09-08 11:05:46:745,-1.3726,-0.9367,9.7571,-0.0071,-0.0024,9.8066,-0.0048,-0.0172,-0.0153,-14.56,-32.75,-7.25,261.96,-85.13,-153.36
34773,52.415577,-1.603145,181.4,7.3,3,10.96,26 / 27,3480221,2019-09-08 11:05:46:845,-1.2612,-1.0242,9.9723,-0.0046,-0.0036,9.8066,0.0087,-0.0507,-0.0077,-14.81,-32.37,-7.69,259.9,-85.17,-153.05
34774,52.415577,-1.603145,181.4,7.3,3,10.96,26 / 27,3480322,2019-09-08 11:05:46:946,-1.3414,-0.8588,9.9459,0.0002,-0.0005,9.8066,0.0026,-0.0378,0.0012,-14.62,-33.12,-7.12,262.49,-85.19,-152.95
34775,52.415577,-1.603145,181.4,7.3,3,10.96,26 / 27,3480422,2019-09-08 11:05:47:046,-1.1153,-0.7136,9.8891,-0.0064,-0.0008,9.8066,0.0208,-0.0139,0.0006,-14.69,-33.0,-7.37,262.72,-85.26,-152.84
34776,52.415577,-1.603145,181.4,7.3,3,10.96,26 / 27,3480522,2019-09-08 11:05:47:146,-0.9638,-0.4576,9.9962,-0.0001,-0.0002,9.8066,0.0249,-0.026,0.0047,-15.06,-33.12,-7.19,262.86,-85.31,-152.81
34777,52.415577,-1.603145,181.4,7.3,3,10.96,26 / 27,3480622,2019-09-08 11:05:47:246,-0.9135,-0.504,10.0405,0.0029,0.0002,9.8066,-0.0176,-0.0412,0.0125,-14.94,-34.0,-6.56,263.03,-85.34,-152.4
34778,52.415577,-1.603145,181.4,7.3,3,10.96,26 / 27,3480722,2019-09-08 11:05:47:346,-0.5175,-0.2847,9.8225,-0.0069,-0.0024,9.8066,-0.0163,-0.0244,0.002,-14.81,-34.19,-6.81,263.35,-85.39,-152.18
34779,52.415577,-1.603145,181.4,7.3,3,10.96,26 / 27,3480822,2019-09-08 11:05:47:446,-0.3339,-0.149,9.8834,-0.0051,-0.0004,9.8066,0.0357,-0.0402,-0.003,-14.56,-33.69,-6.44,265.98,-85.39,-152.47
34780,52.415577,-1.603145,181.4,7.3,3,10.96,27 / 27,3480922,2019-09-08 11:05:47:546,-0.039,0.0301,9.7509,-0.0026,-0.0008,9.8066,-0.0141,-0.0189,-0.0095,-15.06,-33.06,-6.81,263.19,-85.4,-152.66
34781,52.415577,-1.603145,181.4,7.3,3,10.96,27 / 27,3481022,2019-09-08 11:05:47:646,0.0788,0.1336,9.8856,-0.0017,-0.0021,9.8066,-0.0038,-0.0295,0.0061,-15.0,-33.19,-7.06,263.69,-85.46,-152.27
34782,52.415577,-1.603145,181.4,7.3,3,10.96,27 / 27,3481121,2019-09-08 11:05:47:745,0.0202,0.2079,9.838,-0.0008,0.0008,9.8066,0.0081,-0.0262,-0.0087,-14.44,-32.56,-6.75,262.22,-85.51,-151.8
34783,52.415577,-1.603145,181.4,7.3,3,10.96,27 / 27,3481222,2019-09-08 11:05:47:846,0.0167,-0.0099,9.9981,0.0008,-0.002,9.8065,-0.0083,-0.0294,-0.0036,-14.31,-32.44,-7.06,263.13,-85.57,-151.27
34784,52.415577,-1.603145,181.4,7.3,3,10.96,27 / 27,3481322,2019-09-08 11:05:47:946,-0.001,0.0644,9.8328,-0.0065,-0.0009,9.8066,0.0009,-0.0375,-0.0021,-14.0,-32.94,-7.62,260.41,-85.64,-151.03
34785,52.415577,-1.603145,181.4,7.3,3,10.96,27 / 27,3481422,2019-09-08 11:05:48:046,-0.2949,-0.0778,10.0491,-0.0059,0.0002,9.8066,-0.0012,-0.0217,-0.0047,-14.81,-33.0,-7.37,265.1,-85.7,-151.31
34786,52.415577,-1.603145,181.4,7.3,3,10.96,27 / 27,3481521,2019-09-08 11:05:48:145,-0.1017,0.1117,9.9344,-0.0059,0.0002,9.8066,-0.0255,-0.0191,-0.0182,-14.81,-33.0,-7.12,264.85,-85.79,-151.75
34787,52.415577,-1.603145,181.4,7.3,3,10.96,27 / 27,3481622,2019-09-08 11:05:48:246,-0.3303,-0.1672,9.9679,-0.0025,-0.0037,9.8066,0.0239,-0.0374,0.0155,-14.37,-32.69,-7.56,260.42,-85.86,-151.45
34788,52.415577,-1.603145,181.4,7.3,3,10.96,27 / 27,3481721,2019-09-08 11:05:48:345,-0.2507,-0.0073,9.9338,-0.002,0.0,9.8066,0.0156,-0.031,0.0065,-14.94,-32.75,-7.37,265.84,-85.9,-150.96
34789,52.415577,-1.603145,181.4,7.3,3,10.96,27 / 27,3481821,2019-09-08 11:05:48:445,0.0086,0.2377,9.9457,-0.002,-0.0034,9.8066,-0.0124,0.0048,0.0077,-14.69,-32.87,-7.44,266.49,-85.95,-150.4
34790,52.415577,-1.603145,181.4,7.3,3,10.96,26 / 26,3481921,2019-09-08 11:05:48:545,0.4579,0.2579,9.6978,-0.0014,-0.0022,9.8066,0.0236,-0.0322,0.0171,-14.62,-32.12,-7.44,267.54,-85.97,-149.62
34791,52.415577,-1.603145,181.4,7.3,3,10.96,26 / 26,3482021,2019-09-08 11:05:48:645,0.4956,0.2025,9.9472,0.0009,-0.0027,9.8066,-0.0014,-0.0141,-0.0004,-14.75,-32.62,-6.75,267.63,-85.95,-149.25
34792,52.415577,-1.603145,181.4,7.3,3,10.96,26 / 26,3482121,2019-09-08 11:05:48:745,0.7549,0.3538,9.7726,-0.0015,-0.0014,9.8066,-0.0168,-0.0134,0.0016,-15.12,-32.75,-6.81,268.09,-85.97,-148.83
34793,52.415577,-1.603145,181.4,7.3,3,10.96,26 / 26,3482221,2019-09-08 11:05:48:845,0.2491,0.3673,9.9475,-0.003,-0.0013,9.8066,0.0228,-0.0306,0.0051,-15.5,-32.94,-6.5,271.4,-85.98,-148.55
34794,52.415577,-1.603145,181.4,7.3,3,10.96,26 / 26,3482321,2019-09-08 11:05:48:945,0.4392,0.445,9.8324,0.0014,0.0006,9.8066,0.0283,-0.0239,-0.0019,-14.62,-32.94,-6.37,271.87,-86.06,-148.25
34795,52.415577,-1.603145,181.4,7.3,3,10.96,26 / 26,3482422,2019-09-08 11:05:49:046,-0.0261,0.3092,10.0046,0.0011,0.0005,9.8066,-0.0207,-0.0289,0.004,-15.31,-33.19,-6.5,272.26,-86.1,-147.92
34796,52.415577,-1.603145,181.4,7.3,3,10.96,26 / 26,3482521,2019-09-08 11:05:49:145,0.2675,0.2516,9.7888,-0.0061,-0.0042,9.8065,-0.0016,-0.0171,0.0054,-14.81,-33.12,-7.12,269.69,-86.14,-147.56
34797,52.415577,-1.603145,181.4,7.3,3,10.96,26 / 26,3482622,2019-09-08 11:05:49:246,0.2413,0.1033,9.8615,-0.0084,-0.0041,9.8066,-0.0019,-0.021,-0.0058,-15.37,-32.81,-6.81,270.49,-86.22,-146.92
34798,52.415577,-1.603145,181.4,7.3,3,10.96,26 / 26,3482721,2019-09-08 11:05:49:345,0.1533,0.0318,9.8943,0.0,-0.0009,9.8066,-0.0084,-0.0195,0.0023,-15.31,-32.5,-6.75,271.12,-86.25,-146.59
34799,52.415577,-1.603145,181.4,7.3,3,10.96,26 / 27,3482822,2019-09-08 11:05:49:446,0.1729,0.1618,9.8209,-0.0003,0.0005,9.8066,0.0139,-0.0371,0.0052,-15.37,-32.62,-6.62,271.25,-86.29,-146.29
34800,52.415577,-1.603145,181.4,7.3,3,10.96,26 / 27,3482921,2019-09-08 11:05:49:545,0.0508,0.1336,9.8342,-0.0027,-0.0001,9.8066,0.0109,-0.0186,0.0029,-15.31,-32.75,-6.5,274.39,-86.32,-146.27
34801,52.415577,-1.603145,181.4,7.3,3,10.96,26 / 27,3483021,2019-09-08 11:05:49:645,-0.0688,0.087,9.9278,-0.0027,-0.0007,9.8066,-0.0133,-0.0175,-0.0114,-15.25,-33.75,-6.69,271.31,-86.37,-146.19
34802,52.415577,-1.603145,181.4,7.3,3,10.96,26 / 27,3483122,2019-09-08 11:05:49:746,0.4431,0.4747,9.8291,0.0005,-0.0006,9.8066,0.0108,-0.0174,-0.0053,-15.87,-33.62,-6.56,273.5,-86.4,-145.84
34803,52.415577,-1.603145,181.4,7.3,3,10.96,26 / 27,3483221,2019-09-08 11:05:49:845,0.3961,0.4556,9.8351,0.0007,-0.0003,9.8066,0.0219,-0.0293,0.0189,-15.19,-33.06,-6.75,272.28,-86.41,-145.52
34804,52.415577,-1.603145,181.4,7.3,3,10.96,26 / 27,3483322,2019-09-08 11:05:49:946,0.5246,0.4994,9.8265,0.0009,-0.0006,9.8066,0.0238,-0.017,0.0075,-15.75,-33.12,-7.0,274.35,-86.4,-145.21
34805,52.415577,-1.603145,181.4,7.3,3,10.96,26 / 27,3483422,2019-09-08 11:05:50:046,1.0676,0.5661,9.7764,0.0012,-0.0006,9.8066,-0.0176,-0.0095,-0.0051,-15.5,-32.62,-6.69,272.78,-86.38,-144.97
34806,52.415577,-1.603145,181.4,7.3,3,10.96,26 / 27,3483522,2019-09-08 11:05:50:146,0.8217,0.4928,9.7609,-0.003,-0.0016,9.8066,-0.0065,-0.0176,0.0049,-15.31,-32.69,-6.56,272.89,-86.4,-144.88
34807,52.415577,-1.603145,181.4,7.3,3,10.96,26 / 27,3483621,2019-09-08 11:05:50:245,0.7569,0.3699,9.8449,-0.0032,-0.0036,9.8066,0.0212,-0.0308,0.0028,-15.25,-33.37,-6.5,276.3,-86.4,-144.54
34808,52.415577,-1.603145,181.4,7.3,3,10.96,26 / 27,3483721,2019-09-08 11:05:50:345,1.0726,0.6262,9.8201,0.0032,0.0009,9.8066,0.0173,-0.034,0.0071,-14.94,-32.87,-6.94,273.5,-86.41,-144.31
34809,52.415577,-1.603145,181.4,7.3,3,10.96,26 / 27,3483821,2019-09-08 11:05:50:445,1.2418,0.5158,9.7867,0.0038,0.0006,9.8066,-0.0054,-0.0353,0.0008,-15.5,-33.06,-6.25,276.79,-86.4,-144.07
34810,52.415577,-1.603145,181.4,7.3,3,10.96,24 / 26,3483921,2019-09-08 11:05:50:545,1.1271,0.6842,9.861,-0.0034,0.0004,9.8066,0.0047,-0.0368,-0.0117,-15.69,-32.87,-6.06,278.63,-86.39,-143.88
34811,52.415577,-1.603145,181.4,7.3,3,10.96,24 / 26,3484021,2019-09-08 11:05:50:645,1.5016,0.7303,9.8274,0.0013,-0.0023,9.8066,0.0073,-0.0459,-0.0044,-15.37,-33.25,-6.0,277.07,-86.38,-143.73
34812,52.415577,-1.603145,181.4,7.3,3,10.96,24 / 26,3484121,2019-09-08 11:05:50:745,1.449,0.6902,9.9022,0.0039,-0.0002,9.8066,0.0017,-0.0366,0.007,-15.56,-32.69,-6.44,278.5,-86.35,-143.93
34813,52.415577,-1.603145,181.4,7.3,3,10.96,24 / 26,3484221,2019-09-08 11:05:50:845,1.3227,0.5706,9.6204,0.0036,-0.0012,9.8066,0.0134,-0.0517,0.0187,-16.0,-33.0,-6.44,278.41,-86.28,-143.89
34814,52.415577,-1.603145,181.4,7.3,3,10.96,24 / 26,3484322,2019-09-08 11:05:50:946,2.1612,0.7536,9.7972,0.0066,-0.0007,9.8066,0.0205,-0.0709,0.0192,-16.31,-33.25,-5.81,278.7,-86.24,-143.51
34815,52.415577,-1.603145,181.4,7.3,3,10.96,24 / 26,3484422,2019-09-08 11:05:51:046,1.2065,0.1777,9.9575,0.0077,-0.0044,9.8066,0.0041,-0.0837,0.0208,-16.19,-32.87,-5.62,278.85,-86.12,-143.14
34816,52.415577,-1.603145,181.4,7.3,3,10.96,24 / 26,3484521,2019-09-08 11:05:51:145,2.5923,0.561,9.6035,0.0054,-0.0052,9.8066,0.001,-0.0989,0.0146,-16.31,-32.5,-5.25,282.38,-86.03,-142.8
34817,52.415577,-1.603145,181.4,7.3,3,10.96,24 / 26,3484621,2019-09-08 11:05:51:245,2.8394,0.8673,9.7023,0.0099,-0.0028,9.8066,0.043,-0.1278,0.0286,-16.25,-33.31,-5.0,281.93,-85.8,-142.56
34818,52.415577,-1.603145,181.4,7.3,3,10.96,24 / 26,3484721,2019-09-08 11:05:51:345,3.1189,0.6301,9.7848,0.0087,-0.0009,9.8066,0.0722,-0.1308,0.0125,-17.19,-33.37,-5.0,282.38,-85.65,-143.25
34819,52.415577,-1.603145,181.4,7.3,3,10.96,24 / 26,3484822,2019-09-08 11:05:51:446,2.8485,0.0119,9.9651,0.0164,0.0073,9.8066,0.0055,-0.1847,0.0248,-17.5,-33.0,-4.5,283.71,-85.45,-144.61
34820,52.4158,-1.603078,181.02,1.8,2,19.39,28 / 28,3484922,2019-09-08 11:05:51:546,2.3496,-0.0062,9.9138,0.0234,0.0009,9.8066,-0.0057,-0.2103,0.0219,-17.75,-32.75,-4.5,283.36,-85.31,-145.86
34821,52.4158,-1.603078,181.02,1.8,2,19.39,28 / 28,3485021,2019-09-08 11:05:51:645,2.4395,-0.1549,9.9988,0.0228,0.0031,9.8065,-0.0177,-0.2471,0.024,-18.44,-32.56,-3.75,281.91,-85.0,-146.7
34822,52.4158,-1.603078,181.02,1.8,2,19.39,28 / 28,3485122,2019-09-08 11:05:51:746,2.4686,-0.6065,9.7094,0.0165,-0.0027,9.8066,0.0932,-0.2919,0.034,-18.37,-32.25,-3.94,280.93,-84.72,-147.43
34823,52.4158,-1.603078,181.02,1.8,2,19.39,28 / 28,3485221,2019-09-08 11:05:51:845,2.3991,-0.2515,9.8771,0.011,0.0007,9.8066,0.0619,-0.3159,0.0357,-18.69,-32.25,-3.06,284.06,-84.52,-147.99
34824,52.4158,-1.603078,181.02,1.8,2,19.39,28 / 28,3485321,2019-09-08 11:05:51:945,1.82,-0.5373,10.2101,0.0247,-0.0037,9.8066,-0.0379,-0.3477,0.0596,-18.56,-32.56,-3.12,283.52,-84.38,-148.0
34825,52.4158,-1.603078,181.02,1.8,2,19.39,28 / 28,3485421,2019-09-08 11:05:52:045,1.5448,-1.3101,10.0061,0.019,0.0104,9.8066,-0.0386,-0.362,0.0357,-19.5,-32.75,-2.56,282.34,-84.13,-148.71
34826,52.4158,-1.603078,181.02,1.8,2,19.39,28 / 28,3485522,2019-09-08 11:05:52:146,1.5337,-0.8571,10.0667,0.008,0.0011,9.8066,0.126,-0.4042,0.0638,-20.5,-33.75,-1.75,283.79,-84.04,-150.55
34827,52.4158,-1.603078,181.02,1.8,2,19.39,28 / 28,3485621,2019-09-08 11:05:52:245,1.4232,-0.827,9.9862,0.0136,-0.0102,9.8066,0.1464,-0.4333,0.0675,-20.94,-33.75,-1.0,285.94,-83.63,-151.25
34828,52.4158,-1.603078,181.02,1.8,2,19.39,28 / 28,3485722,2019-09-08 11:05:52:346,2.0058,-1.6144,9.8381,0.044,-0.0062,9.8065,-0.0249,-0.4624,0.074,-21.19,-32.19,-0.62,284.9,-82.97,-151.82
34829,52.4158,-1.603078,181.02,1.8,2,19.39,28 / 28,3485822,2019-09-08 11:05:52:446,1.3763,-2.3591,9.8037,0.0171,0.0028,9.8066,-0.0842,-0.5046,0.0803,-21.31,-32.31,0.63,289.98,-82.76,-152.14
34830,52.4158,-1.603078,181.02,1.8,2,19.39,27 / 28,3485922,2019-09-08 11:05:52:546,1.2965,-1.2442,10.1458,0.0107,0.0037,9.8066,0.0264,-0.4873,-0.0067,-21.56,-32.62,1.69,292.31,-82.61,-152.41
34831,52.4158,-1.603078,181.02,1.8,2,19.39,27 / 28,3486021,2019-09-08 11:05:52:645,1.4359,-1.2677,9.6526,0.0221,0.0081,9.8065,0.0204,-0.5491,0.0653,-23.37,-32.62,1.25,288.16,-82.44,-153.77
34832,52.4158,-1.603078,181.02,1.8,2,19.39,27 / 28,3486121,2019-09-08 11:05:52:745,2.6497,-2.4995,10.2037,0.0223,-0.0105,9.8065,-0.0985,-0.5117,0.0555,-23.19,-32.37,2.69,293.15,-82.2,-154.09
34833,52.4158,-1.603078,181.02,1.8,2,19.39,27 / 28,3486222,2019-09-08 11:05:52:846,0.3907,-1.3728,9.6408,0.002,0.0137,9.8066,-0.0745,-0.5828,0.1132,-23.31,-32.56,3.13,292.0,-82.13,-154.76
34834,52.4158,-1.603078,181.02,1.8,2,19.39,27 / 28,3486321,2019-09-08 11:05:52:945,1.424,-1.5102,9.6416,-0.0212,-0.0148,9.8065,-0.0426,-0.584,0.1698,-24.06,-32.69,3.25,293.11,-82.27,-154.03
34835,52.4158,-1.603078,181.02,1.8,2,19.39,27 / 28,3486421,2019-09-08 11:05:53:045,1.0262,-1.6495,10.2751,-0.0116,-0.0384,9.8065,-0.0908,-0.5394,0.1208,-24.62,-32.31,4.25,300.54,-82.28,-149.85
34836,52.4158,-1.603078,181.02,1.8,2,19.39,27 / 28,3486521,2019-09-08 11:05:53:145,1.6609,-2.269,9.5093,-0.0186,-0.0333,9.8065,-0.0096,-0.6047,0.1433,-25.5,-31.94,4.31,303.97,-82.3,-146.75
34837,52.4158,-1.603078,181.02,1.8,2,19.39,27 / 28,3486622,2019-09-08 11:05:53:246,2.0707,-3.1301,9.6661,-0.0026,-0.0324,9.8065,-0.0376,-0.58,0.0768,-26.31,-31.06,5.88,313.09,-81.97,-142.78
34838,52.4158,-1.603078,181.02,1.8,2,19.39,27 / 28,3486722,2019-09-08 11:05:53:346,0.577,-2.2487,9.5901,-0.0074,-0.0105,9.8065,-0.0266,-0.6165,0.1546,-26.19,-30.94,7.0,316.24,-81.81,-141.99
34839,52.4158,-1.603078,181.02,1.8,2,19.39,27 / 27,3486822,2019-09-08 11:05:53:446,0.8728,-1.6882,9.7387,-0.0089,-0.016,9.8066,-0.0365,-0.5726,0.1156,-26.87,-31.25,7.63,319.68,-81.68,-140.58
34840,52.4158,-1.603078,181.02,1.8,2,19.39,27 / 27,3486921,2019-09-08 11:05:53:545,1.9742,-2.2789,9.5329,-0.0047,0.0017,9.8066,-0.0646,-0.5836,0.1503,-26.62,-30.06,7.88,321.2,-81.56,-139.36
34841,52.4158,-1.603078,181.02,1.8,2,19.39,27 / 27,3487021,2019-09-08 11:05:53:645,0.6631,-1.7304,9.4888,0.0077,-0.0124,9.8066,-0.0561,-0.5292,0.0895,-26.69,-29.75,9.56,325.84,-81.43,-139.17
34842,52.4158,-1.603078,181.02,1.8,2,19.39,27 / 27,3487121,2019-09-08 11:05:53:745,0.271,-1.0463,10.1324,0.0177,-0.0017,9.8066,-0.0379,-0.5229,0.0568,-27.44,-30.44,9.69,325.8,-81.29,-139.1
34843,52.4158,-1.603078,181.02,1.8,2,19.39,27 / 27,3487222,2019-09-08 11:05:53:846,0.8703,-0.0467,9.7378,0.0185,-0.0044,9.8066,-0.029,-0.3529,-0.0477,-27.25,-29.5,10.13,325.05,-81.21,-139.88
34844,52.4158,-1.603078,181.02,1.8,2,19.39,27 / 27,3487321,2019-09-08 11:05:53:945,1.6345,-0.7452,9.6399,-0.0055,0.0055,9.8066,-0.0823,-0.3152,0.0905,-27.5,-29.62,11.25,326.31,-81.25,-140.55
34845,52.4158,-1.603078,181.02,1.8,2,19.39,27 / 27,3487422,2019-09-08 11:05:54:046,0.6315,0.1392,9.2701,-0.0216,-0.0002,9.8066,-0.0274,-0.299,0.076,-27.62,-30.19,11.88,327.89,-81.3,-140.46
34846,52.4158,-1.603078,181.02,1.8,2,19.39,27 / 27,3487522,2019-09-08 11:05:54:146,2.3265,-1.3462,9.8012,0.0474,-0.0298,9.8064,-0.1015,-0.2789,0.0797,-27.81,-29.06,11.81,327.11,-80.98,-141.1
34847,52.4158,-1.603078,181.02,1.8,2,19.39,27 / 27,3487622,2019-09-08 11:05:54:246,1.8281,-0.982,9.3505,0.0371,-0.0282,9.8065,-0.081,-0.2154,-0.0151,-27.75,-29.75,12.75,329.5,-80.82,-140.55
34848,52.4158,-1.603078,181.02,1.8,2,19.39,27 / 27,3487721,2019-09-08 11:05:54:345,0.0445,-0.2365,9.2595,-0.0437,0.0195,9.8065,0.2021,-0.2292,0.0024,-28.12,-29.81,13.38,329.17,-80.74,-140.8
34849,52.4158,-1.603078,181.02,1.8,2,19.39,28 / 28,3487821,2019-09-08 11:05:54:445,1.9072,-1.5006,10.3552,-0.0551,0.0298,9.8064,0.2097,-0.1874,-0.0026,-26.87,-29.75,14.0,332.66,-80.96,-140.36
34850,52.4158,-1.603078,181.02,1.8,2,19.39,28 / 28,3487921,2019-09-08 11:05:54:545,1.8402,-0.9959,10.9223,0.0522,-0.018,9.8065,-0.1897,-0.1367,0.0625,-28.06,-29.44,14.25,331.24,-80.97,-141.0
34851,52.4158,-1.603078,181.02,1.8,2,19.39,28 / 28,3488021,2019-09-08 11:05:54:645,1.1325,-0.8164,10.6597,0.0668,-0.044,9.8062,-0.2124,-0.1806,0.0836,-28.06,-29.81,14.19,329.27,-80.6,-142.35
34852,52.4158,-1.603078,181.02,1.8,2,19.39,28 / 28,3488122,2019-09-08 11:05:54:746,0.0764,-1.8885,9.4597,-0.0588,0.0215,9.8064,0.2464,-0.2066,0.0821,-27.12,-29.12,14.69,334.26,-80.72,-140.72
34853,52.4158,-1.603078,181.02,1.8,2,19.39,28 / 28,3488221,2019-09-08 11:05:54:845,0.7487,-1.1654,10.0793,-0.0488,0.0197,9.8065,0.2302,-0.1504,0.0007,-27.94,-29.5,14.63,332.67,-80.56,-141.23
34854,52.4158,-1.603078,181.02,1.8,2,19.39,28 / 28,3488322,2019-09-08 11:05:54:946,0.8848,-0.9812,10.4152,0.0584,-0.0155,9.8064,-0.217,-0.146,0.0095,-27.56,-29.12,14.81,331.44,-80.5,-142.26
34855,52.4158,-1.603078,181.02,1.8,2,19.39,28 / 28,3488421,2019-09-08 11:05:55:045,-0.4628,-2.805,9.4872,0.026,-0.0092,9.8065,-0.1463,-0.3151,0.1046,-27.37,-28.81,15.56,332.46,-80.32,-143.73
34856,52.4158,-1.603078,181.02,1.8,2,19.39,28 / 28,3488521,2019-09-08 11:05:55:145,0.9867,-0.4386,10.1866,0.0068,0.0095,9.8066,0.0378,-0.2089,0.0759,-27.56,-29.62,15.69,331.87,-80.32,-143.3
34857,52.4158,-1.603078,181.02,1.8,2,19.39,28 / 28,3488621,2019-09-08 11:05:55:245,1.0504,-0.6607,9.8939,0.0124,-0.0037,9.8066,-0.0035,-0.1541,0.0269,-26.87,-29.19,15.19,330.1,-80.31,-144.07
34858,52.4158,-1.603078,181.02,1.8,2,19.39,28 / 28,3488721,2019-09-08 11:05:55:345,0.2356,-0.0828,10.0726,0.0114,0.0109,9.8066,-0.028,-0.1252,-0.0274,-27.69,-29.25,15.5,330.17,-80.28,-144.87
34859,52.4158,-1.603078,181.02,1.8,2,19.39,28 / 28,3488821,2019-09-08 11:05:55:445,0.3645,0.4021,8.891,0.0338,-0.0028,9.8066,-0.0717,-0.0324,-0.0446,-27.69,-29.25,16.69,329.43,-80.28,-147.1
34860,52.4158,-1.603078,181.02,1.8,2,19.39,28 / 28,3488921,2019-09-08 11:05:55:545,1.7551,-0.2354,9.511,-0.0092,0.0138,9.8066,-0.0066,-0.0885,0.0472,-27.06,-29.06,15.88,327.61,-80.26,-147.84
34861,52.4158,-1.603078,181.02,1.8,2,19.39,28 / 28,3489021,2019-09-08 11:05:55:645,0.0725,0.3737,9.7724,0.0145,-0.0021,9.8066,-0.0838,-0.0763,0.0455,-27.37,-29.5,15.56,327.27,-80.36,-148.19
34862,52.4158,-1.603078,181.02,1.8,2,19.39,28 / 28,3489122,2019-09-08 11:05:55:746,1.5973,-0.6959,10.5713,0.0049,0.0013,9.8066,0.1243,-0.0574,-0.0096,-27.62,-28.81,15.56,326.33,-80.37,-148.24
34863,52.4158,-1.603078,181.02,1.8,2,19.39,28 / 28,3489221,2019-09-08 11:05:55:845,1.7795,-1.3375,10.3564,0.0363,-0.0056,9.8065,0.0579,-0.1352,0.0189,-28.75,-29.62,15.75,324.01,-80.24,-149.28
34864,52.4158,-1.603078,181.02,1.8,2,19.39,28 / 28,3489322,2019-09-08 11:05:55:946,1.4965,-0.1004,9.5659,-0.0167,0.0148,9.8066,0.0522,-0.06,0.0097,-29.19,-29.44,16.44,323.61,-80.31,-149.85
34865,52.4158,-1.603078,181.02,1.8,2,19.39,28 / 28,3489421,2019-09-08 11:05:56:045,2.4613,-1.1508,9.3212,-0.0046,0.0053,9.8066,-0.044,-0.0398,-0.0192,-29.5,-29.5,17.69,326.56,-80.21,-150.3
34866,52.4158,-1.603078,181.02,1.8,2,19.39,28 / 28,3489521,2019-09-08 11:05:56:145,0.4599,0.8614,9.8934,0.0019,0.0075,9.8065,0.0014,-0.0937,0.0646,-28.31,-29.31,18.06,326.91,-80.27,-150.82
34867,52.4158,-1.603078,181.02,1.8,2,19.39,28 / 28,3489622,2019-09-08 11:05:56:246,-0.3999,0.3613,9.6516,-0.0162,0.0073,9.8066,0.0402,-0.0442,0.0317,-28.37,-29.62,18.38,326.83,-80.36,-150.78
34868,52.4158,-1.603078,181.02,1.8,2,19.39,28 / 28,3489722,2019-09-08 11:05:56:346,1.7527,-0.2814,9.683,0.0066,-0.0017,9.8066,-0.0269,-0.0526,0.113,-27.37,-29.44,18.13,327.72,-80.31,-150.98
34869,52.4158,-1.603078,181.02,1.8,2,19.39,28 / 28,3489821,2019-09-08 11:05:56:445,1.7299,-0.366,10.589,-0.0086,-0.0068,9.8066,0.102,-0.0224,0.0489,-26.56,-29.06,18.56,329.89,-80.21,-150.57
34870,52.4158,-1.603078,181.02,1.8,2,19.39,27 / 27,3489921,2019-09-08 11:05:56:545,-0.4837,0.2583,9.5032,-0.0192,0.0211,9.8066,0.0194,-0.0135,-0.0053,-27.0,-28.87,18.31,328.69,-80.28,-150.12
34871,52.4158,-1.603078,181.02,1.8,2,19.39,27 / 27,3490022,2019-09-08 11:05:56:646,0.6813,0.3007,10.4995,-0.0256,0.0127,9.8066,0.066,-0.014,0.0455,-26.56,-29.5,18.5,329.99,-80.3,-150.53
34872,52.4158,-1.603078,181.02,1.8,2,19.39,27 / 27,3490122,2019-09-08 11:05:56:746,0.8842,-0.4936,10.7484,0.0343,-0.0286,9.8065,-0.0653,-0.0742,0.0266,-27.25,-28.75,17.81,328.87,-80.24,-149.94
34873,52.4158,-1.603078,181.02,1.8,2,19.39,27 / 27,3490222,2019-09-08 11:05:56:846,1.3437,-1.3857,10.0503,0.0263,-0.0214,9.8065,-0.0473,0.0216,-0.0355,-26.0,-28.5,18.0,329.45,-79.94,-150.33
34874,52.4158,-1.603078,181.02,1.8,2,19.39,27 / 27,3490322,2019-09-08 11:05:56:946,-0.7723,0.3347,10.2057,-0.0345,0.0356,9.8065,0.1863,0.0636,-0.0829,-26.37,-29.25,17.88,328.38,-79.88,-151.04
34875,52.4158,-1.603078,181.02,1.8,2,19.39,27 / 27,3490422,2019-09-08 11:05:57:046,1.2355,-1.4736,10.1773,-0.0316,0.0213,9.8065,0.2126,-0.0241,0.0831,-26.5,-28.62,18.06,328.29,-80.22,-151.32
34876,52.4158,-1.603078,181.02,1.8,2,19.39,27 / 27,3490521,2019-09-08 11:05:57:145,0.3148,-0.1421,10.5675,0.0156,-0.0049,9.8066,-0.0659,-0.0521,0.0083,-26.69,-29.06,17.19,324.63,-80.15,-151.98
34877,52.4158,-1.603078,181.02,1.8,2,19.39,27 / 27,3490621,2019-09-08 11:05:57:245,-0.0121,0.8065,9.9447,0.0114,0.0031,9.8066,-0.0163,-0.0284,-0.069,-26.37,-28.19,17.38,324.94,-80.17,-152.74
34878,52.4158,-1.603078,181.02,1.8,2,19.39,27 / 27,3490721,2019-09-08 11:05:57:345,1.5009,-0.0593,9.5467,0.0361,-0.0037,9.8065,-0.0321,-0.0974,0.0234,-26.37,-29.0,18.19,326.33,-80.08,-152.92
34879,52.4158,-1.603078,181.02,1.8,2,19.39,28 / 28,3490822,2019-09-08 11:05:57:446,0.1782,0.5116,10.0044,0.0121,-0.0209,9.8066,-0.0131,0.0535,-0.0936,-26.19,-29.44,18.44,325.13,-79.92,-153.86
34880,52.4158,-1.603078,181.02,1.8,2,19.39,28 / 28,3490921,2019-09-08 11:05:57:545,1.9536,-0.1516,9.8024,0.0119,0.0035,9.8066,-0.1114,-0.133,0.1291,-26.56,-29.25,18.5,325.69,-79.92,-154.03
34881,52.4158,-1.603078,181.02,1.8,2,19.39,28 / 28,3491021,2019-09-08 11:05:57:645,0.4329,0.9574,9.8561,0.0186,-0.0205,9.8066,0.0011,0.0753,-0.0906,-26.31,-29.0,18.56,326.82,-79.88,-153.93
34882,52.4158,-1.603078,181.02,1.8,2,19.39,28 / 28,3491122,2019-09-08 11:05:57:746,1.3818,-0.6546,9.3059,-0.0272,0.0125,9.8066,0.2094,-0.0411,0.1118,-26.5,-29.5,18.63,326.37,-79.92,-154.35
34883,52.4158,-1.603078,181.02,1.8,2,19.39,28 / 28,3491221,2019-09-08 11:05:57:845,0.4868,-1.0505,10.5402,-0.0007,0.0006,9.8066,0.0408,-0.0593,0.1042,-26.5,-28.81,18.56,326.11,-79.71,-154.45
34884,52.4158,-1.603078,181.02,1.8,2,19.39,28 / 28,3491322,2019-09-08 11:05:57:946,0.3085,-1.6179,9.9957,0.0221,0.0063,9.8065,-0.0837,-0.0003,-0.0975,-26.0,-29.25,18.38,324.15,-79.74,-154.59
34885,52.4158,-1.603078,181.02,1.8,2,19.39,28 / 28,3491422,2019-09-08 11:05:58:046,0.855,1.2381,8.9559,0.0044,0.015,9.8065,-0.0915,-0.0938,0.0039,-25.87,-29.37,17.75,322.58,-79.88,-156.03
34886,52.4158,-1.603078,181.02,1.8,2,19.39,28 / 28,3491522,2019-09-08 11:05:58:146,-0.2444,0.4674,10.559,0.0176,0.0097,9.8066,-0.0564,0.0069,-0.0939,-26.06,-29.81,17.81,322.39,-80.07,-156.13
34887,52.4158,-1.603078,181.02,1.8,2,19.39,28 / 28,3491622,2019-09-08 11:05:58:246,-1.9952,-0.4523,10.1791,0.083,-0.0185,9.8062,-0.2078,-0.0676,0.0069,-25.94,-29.37,17.5,319.56,-79.94,-158.7
34888,52.4158,-1.603078,181.02,1.8,2,19.39,28 / 28,3491722,2019-09-08 11:05:58:346,0.1263,0.2384,9.0187,-0.0314,0.0313,9.8065,0.151,-0.0723,-0.0256,-26.87,-29.5,16.94,315.41,-80.23,-160.11
34889,52.4158,-1.603078,181.02,1.8,2,19.39,28 / 28,3491821,2019-09-08 11:05:58:445,2.684,-0.2894,10.4018,-0.0452,0.0327,9.8064,0.1073,0.0345,-0.0095,-26.69,-29.37,17.31,314.67,-80.2,-160.74
34890,52.4158,-1.603078,181.02,1.8,2,19.39,27 / 28,3491921,2019-09-08 11:05:58:545,1.333,-0.8024,9.9322,0.0519,-0.0459,9.8063,-0.1284,-0.0523,0.0814,-27.69,-28.81,17.94,315.32,-80.22,-160.98
34891,52.4158,-1.603078,181.02,1.8,2,19.39,27 / 28,3492022,2019-09-08 11:05:58:646,0.4648,-1.1998,10.4021,0.0354,-0.0235,9.8065,-0.0823,0.0181,0.0183,-27.62,-29.19,19.5,318.71,-79.87,-160.73
34892,52.4158,-1.603078,181.02,1.8,2,19.39,27 / 28,3492122,2019-09-08 11:05:58:746,0.7764,-0.7018,9.1831,-0.02,-0.005,9.8066,0.0532,-0.1224,0.1052,-26.75,-28.87,19.88,320.0,-79.94,-160.5
34893,52.4158,-1.603078,181.02,1.8,2,19.39,27 / 28,3492222,2019-09-08 11:05:58:846,1.3224,0.9536,9.6746,-0.0214,-0.0202,9.8065,0.0522,0.0263,-0.0742,-26.75,-29.37,20.0,322.48,-79.82,-158.25
34894,52.4158,-1.603078,181.02,1.8,2,19.39,27 / 28,3492321,2019-09-08 11:05:58:945,-0.0757,-0.3862,9.7098,-0.0086,-0.0033,9.8066,-0.0556,-0.0805,0.0523,-26.06,-28.94,19.81,324.54,-79.71,-157.3
34895,52.4158,-1.603078,181.02,1.8,2,19.39,27 / 28,3492421,2019-09-08 11:05:59:045,-1.1537,0.8455,9.6463,0.0011,-0.0056,9.8066,-0.0699,-0.0768,0.071,-26.44,-28.69,19.44,322.83,-79.46,-157.11
34896,52.4158,-1.603078,181.02,1.8,2,19.39,27 / 28,3492522,2019-09-08 11:05:59:146,-0.4048,-0.6329,10.3298,0.0043,-0.0198,9.8065,0.0742,-0.0689,0.079,-26.44,-28.94,20.5,326.8,-79.31,-156.59
34897,52.4158,-1.603078,181.02,1.8,2,19.39,27 / 28,3492622,2019-09-08 11:05:59:246,0.8765,0.6347,9.5112,0.0027,-0.0055,9.8065,0.0059,-0.0804,0.0244,-25.81,-28.5,19.63,325.52,-79.17,-156.33
34898,52.4158,-1.603078,181.02,1.8,2,19.39,27 / 28,3492721,2019-09-08 11:05:59:345,-0.2087,-0.1809,10.196,-0.0042,-0.0013,9.8066,0.081,-0.0651,-0.0253,-26.44,-28.44,20.06,326.0,-79.12,-155.89
34899,52.4158,-1.603078,181.02,1.8,2,19.39,27 / 28,3492821,2019-09-08 11:05:59:445,-0.8923,0.2231,10.1692,0.017,-0.0065,9.8066,-0.0223,-0.0971,0.0187,-26.44,-29.25,20.19,325.57,-79.03,-156.02
34900,52.4158,-1.603078,181.02,1.8,2,19.39,28 / 28,3492921,2019-09-08 11:05:59:545,-0.7521,0.09,10.3315,-0.0005,-0.0024,9.8066,-0.0714,-0.064,-0.0228,-26.69,-28.69,19.81,324.56,-79.0,-155.95
34901,52.4158,-1.603078,181.02,1.8,2,19.39,28 / 28,3493021,2019-09-08 11:05:59:645,0.3511,-0.2452,10.4923,-0.0119,0.013,9.8066,-0.1473,-0.0822,-0.0409,-26.06,-28.87,19.69,325.37,-79.01,-156.17
34902,52.4158,-1.603078,181.02,1.8,2,19.39,28 / 28,3493122,2019-09-08 11:05:59:746,-0.4392,0.7765,8.84,-0.0125,0.008,9.8065,0.0538,-0.1315,0.0794,-25.87,-28.69,19.5,325.51,-79.12,-156.13
34903,52.4158,-1.603078,181.02,1.8,2,19.39,28 / 28,3493222,2019-09-08 11:05:59:846,-0.8125,-0.583,9.4637,-0.0061,0.0042,9.8066,0.1626,-0.0704,0.0221,-26.12,-28.87,19.94,324.39,-79.15,-157.1
34904,52.4158,-1.603078,181.02,1.8,2,19.39,28 / 28,3493322,2019-09-08 11:05:59:946,-0.6351,-0.582,9.9276,-0.0014,0.0181,9.8065,-0.0858,0.008,-0.0876,-26.0,-28.62,20.56,325.38,-79.22,-157.76
34905,52.4158,-1.603078,181.02,1.8,2,19.39,28 / 28,3493421,2019-09-08 11:06:00:045,0.2737,0.2159,9.4407,0.0085,-0.009,9.8066,-0.0727,-0.0239,-0.0078,-26.0,-28.56,20.19,323.19,-79.24,-158.18
34906,52.4158,-1.603078,181.02,1.8,2,19.39,28 / 28,3493521,2019-09-08 11:06:00:145,0.1241,-0.0812,9.6373,-0.0007,-0.0109,9.8066,-0.0564,-0.0747,0.0715,-26.06,-28.87,20.63,325.42,-79.17,-157.69
34907,52.4158,-1.603078,181.02,1.8,2,19.39,28 / 28,3493622,2019-09-08 11:06:00:246,1.6218,0.2925,10.4006,-0.0016,-0.004,9.8065,-0.0001,-0.0503,0.0624,-25.94,-28.56,20.31,324.1,-79.12,-157.33
34908,52.4158,-1.603078,181.02,1.8,2,19.39,28 / 28,3493721,2019-09-08 11:06:00:345,-1.2365,1.2021,8.9015,-0.0126,-0.0186,9.8066,0.0317,-0.157,0.0705,-26.0,-28.75,20.31,325.54,-79.04,-156.05
34909,52.4158,-1.603078,181.02,1.8,2,19.39,28 / 28,3493821,2019-09-08 11:06:00:445,-4.6849,-0.5384,9.071,-0.0747,0.0095,9.8063,-0.3381,-0.1792,0.0983,-26.06,-28.62,20.5,328.84,-79.22,-154.8
34910,52.41571,-1.602182,180.04,10.92,3,114.16,28 / 28,3493922,2019-09-08 11:06:00:546,0.2821,3.3084,9.384,-0.0519,0.0232,9.8064,0.2599,-0.2562,0.2291,-25.94,-28.5,20.88,327.36,-78.65,-155.92
34911,52.41571,-1.602182,180.04,10.92,3,114.16,28 / 28,3494021,2019-09-08 11:06:00:645,-1.4886,1.285,10.6024,0.0153,-0.0229,9.8066,0.3795,-0.0944,0.0171,-26.56,-28.37,20.88,328.21,-78.71,-154.3
34912,52.41571,-1.602182,180.04,10.92,3,114.16,28 / 28,3494122,2019-09-08 11:06:00:746,0.3843,-0.3365,7.6588,-0.0219,-0.0064,9.8065,-0.1599,-0.0817,-0.122,-26.12,-28.25,21.25,329.21,-78.66,-154.36
34913,52.41571,-1.602182,180.04,10.92,3,114.16,28 / 28,3494221,2019-09-08 11:06:00:845,-1.3613,0.1229,8.3865,-0.0016,0.0162,9.8066,-0.1629,-0.1717,-0.0971,-26.25,-28.69,21.13,329.55,-78.72,-153.93
34914,52.41571,-1.602182,180.04,10.92,3,114.16,28 / 28,3494323,2019-09-08 11:06:00:947,1.4332,-2.3583,9.9717,0.0102,0.012,9.8066,0.182,-0.1737,-0.0341,-26.5,-28.5,20.63,328.91,-78.82,-154.69
34915,52.41571,-1.602182,180.04,10.92,3,114.16,28 / 28,3494422,2019-09-08 11:06:01:046,-0.2176,0.0016,10.1748,0.0029,0.0124,9.8066,0.0798,-0.1132,-0.1007,-25.75,-27.87,21.44,328.34,-78.92,-155.24
34916,52.41571,-1.602182,180.04,10.92,3,114.16,28 / 28,3494521,2019-09-08 11:06:01:145,-0.9876,-0.4632,10.411,0.0225,-0.0117,9.8065,-0.1575,-0.1298,-0.0755,-25.69,-28.62,21.19,327.94,-79.05,-155.47
34917,52.41571,-1.602182,180.04,10.92,3,114.16,28 / 28,3494621,2019-09-08 11:06:01:245,0.3394,-0.7542,9.8817,0.0204,0.0037,9.8066,-0.1214,-0.1079,-0.0197,-25.75,-28.62,22.0,328.41,-79.11,-156.51
34918,52.41571,-1.602182,180.04,10.92,3,114.16,28 / 28,3494721,2019-09-08 11:06:01:345,-1.44,0.1052,9.4299,-0.0139,0.0087,9.8065,-0.01,-0.0664,-0.0424,-25.5,-27.94,21.25,328.18,-79.14,-156.47
34919,52.41571,-1.602182,180.04,10.92,3,114.16,28 / 28,3494821,2019-09-08 11:06:01:445,0.473,0.1363,9.673,-0.0312,0.0209,9.8065,0.1641,-0.0295,-0.0343,-25.25,-28.5,21.44,328.38,-79.24,-156.36
34920,52.41571,-1.602182,180.04,10.92,3,114.16,28 / 28,3494921,2019-09-08 11:06:01:545,0.8032,-0.7792,10.4031,0.0275,-0.0293,9.8066,-0.1326,-0.0647,0.0389,-24.87,-28.69,22.0,329.31,-79.27,-156.83
34921,52.41571,-1.602182,180.04,10.92,3,114.16,28 / 28,3495022,2019-09-08 11:06:01:646,-1.7543,-0.1406,10.2307,0.0351,-0.0253,9.8065,-0.1946,-0.0573,0.0291,-25.12,-28.81,21.25,327.38,-78.97,-156.88
34922,52.41571,-1.602182,180.04,10.92,3,114.16,28 / 28,3495121,2019-09-08 11:06:01:745,-0.9806,0.4701,9.9285,-0.0067,-0.0068,9.8066,0.1121,-0.0161,-0.0778,-25.19,-28.37,21.13,327.5,-79.04,-157.0
34923,52.41571,-1.602182,180.04,10.92,3,114.16,28 / 28,3495222,2019-09-08 11:06:01:846,-0.2721,-0.6115,9.9648,-0.0068,0.0134,9.8065,0.1018,-0.0859,0.0436,-24.75,-28.37,21.81,329.23,-79.02,-156.93
34924,52.41571,-1.602182,180.04,10.92,3,114.16,28 / 28,3495321,2019-09-08 11:06:01:945,0.1983,-0.3772,10.2489,0.0293,-0.0175,9.8066,-0.0221,0.0167,0.018,-25.37,-28.75,21.69,328.54,-78.84,-157.25
34925,52.41571,-1.602182,180.04,10.92,3,114.16,28 / 28,3495422,2019-09-08 11:06:02:046,-0.7639,-1.0158,9.5665,0.0389,-0.018,9.8065,-0.1116,-0.0982,0.0975,-25.25,-28.31,22.06,327.6,-78.77,-158.19
34926,52.41571,-1.602182,180.04,10.92,3,114.16,28 / 28,3495522,2019-09-08 11:06:02:146,-0.613,0.5194,9.44,-0.025,0.0355,9.8065,0.1374,-0.0314,-0.0166,-25.44,-28.5,21.94,328.01,-78.67,-157.79
34927,52.41571,-1.602182,180.04,10.92,3,114.16,28 / 28,3495622,2019-09-08 11:06:02:246,0.2355,1.3289,9.722,-0.0223,0.0246,9.8065,0.1369,-0.0976,0.0646,-25.25,-28.37,21.75,327.78,-79.0,-158.16
34928,52.41571,-1.602182,180.04,10.92,3,114.16,28 / 28,3495721,2019-09-08 11:06:02:345,-0.2424,0.387,9.5355,0.0018,0.0036,9.8066,-0.0699,-0.0113,0.0401,-25.5,-28.5,21.81,328.0,-78.98,-157.96
34929,52.41571,-1.602182,180.04,10.92,3,114.16,28 / 28,3495823,2019-09-08 11:06:02:447,0.2373,-0.1973,9.2865,-0.0048,0.0121,9.8066,-0.0139,-0.0189,-0.0144,-25.75,-28.81,21.44,324.81,-78.99,-158.1
34930,52.41571,-1.602182,180.04,10.92,3,114.16,28 / 28,3495921,2019-09-08 11:06:02:545,-1.3738,0.3594,9.9745,-0.0185,0.0044,9.8066,0.1139,0.0028,-0.057,-26.19,-29.31,21.0,324.86,-79.13,-158.14
34931,52.41571,-1.602182,180.04,10.92,3,114.16,28 / 28,3496022,2019-09-08 11:06:02:646,0.1068,-0.0982,10.3856,-0.0059,0.0003,9.8066,0.0934,0.0104,-0.0273,-27.5,-27.94,21.0,323.84,-79.08,-158.26
34932,52.41571,-1.602182,180.04,10.92,3,114.16,28 / 28,3496121,2019-09-08 11:06:02:745,-0.7298,0.6975,9.2647,-0.0155,0.0079,9.8066,-0.0335,0.0074,0.0814,-28.31,-28.37,21.56,324.29,-79.01,-158.32
34933,52.41571,-1.602182,180.04,10.92,3,114.16,28 / 28,3496222,2019-09-08 11:06:02:846,-0.7111,-0.3146,9.8684,-0.0271,0.0042,9.8066,0.0352,-0.0237,0.1066,-27.62,-27.75,24.13,328.19,-79.03,-157.55
34934,52.41571,-1.602182,180.04,10.92,3,114.16,28 / 28,3496321,2019-09-08 11:06:02:945,-0.2187,0.7081,10.0197,0.0108,-0.0272,9.8066,-0.0356,-0.003,0.0427,-26.87,-27.44,24.38,330.2,-78.93,-156.87
34935,52.41571,-1.602182,180.04,10.92,3,114.16,28 / 28,3496421,2019-09-08 11:06:03:045,-1.0246,-0.126,10.4696,-0.0041,-0.0153,9.8065,0.0428,-0.0493,0.0564,-26.19,-28.37,24.5,333.51,-78.76,-156.04
34936,52.41571,-1.602182,180.04,10.92,3,114.16,28 / 28,3496521,2019-09-08 11:06:03:145,0.0287,0.9444,9.3394,0.0036,-0.0106,9.8066,-0.0455,-0.0546,0.0998,-25.31,-28.0,23.63,333.93,-78.63,-155.42
34937,52.41571,-1.602182,180.04,10.92,3,114.16,28 / 28,3496622,2019-09-08 11:06:03:246,-0.2525,0.2587,9.1396,-0.019,-0.006,9.8065,-0.0086,-0.0049,0.0389,-25.19,-27.75,22.81,333.21,-78.49,-154.67
34938,52.41571,-1.602182,180.04,10.92,3,114.16,28 / 28,3496721,2019-09-08 11:06:03:345,0.1099,0.3458,9.8963,0.0077,-0.0194,9.8066,-0.0393,-0.0677,-0.0036,-26.06,-28.44,22.69,332.67,-78.42,-154.06
34939,52.41571,-1.602182,180.04,10.92,3,114.16,28 / 28,3496822,2019-09-08 11:06:03:446,-0.2924,-0.1906,9.9484,0.0147,-0.0162,9.8066,-0.0093,-0.0284,-0.0358,-25.12,-27.69,22.94,334.53,-78.29,-153.48
34940,52.41571,-1.602182,180.04,10.92,3,114.16,27 / 27,3496922,2019-09-08 11:06:03:546,-0.6577,-0.2249,9.8669,-0.025,0.0235,9.8066,0.0519,-0.0541,0.0012,-25.69,-27.87,22.69,333.17,-78.3,-153.59
34941,52.41571,-1.602182,180.04,10.92,3,114.16,27 / 27,3497021,2019-09-08 11:06:03:645,0.0863,0.9992,11.137,-0.0379,0.0411,9.8064,0.0241,0.0337,0.0199,-25.31,-28.12,22.44,333.34,-78.62,-153.27
34942,52.41571,-1.602182,180.04,10.92,3,114.16,27 / 27,3497121,2019-09-08 11:06:03:745,0.8323,-2.4084,10.6902,0.0811,-0.0995,9.8058,-0.2097,0.1146,-0.1195,-25.25,-28.56,23.06,334.43,-78.74,-153.62
34943,52.41571,-1.602182,180.04,10.92,3,114.16,27 / 27,3497221,2019-09-08 11:06:03:845,0.6504,0.3646,10.0732,0.0609,-0.0648,9.8062,-0.2392,-0.0248,0.0488,-25.31,-28.37,23.13,333.91,-77.96,-153.85
34944,52.41571,-1.602182,180.04,10.92,3,114.16,27 / 27,3497322,2019-09-08 11:06:03:946,-1.1373,-1.1285,9.6126,-0.0602,0.0187,9.8064,0.2616,0.1035,0.0201,-26.12,-27.44,22.5,335.19,-78.23,-152.02
34945,52.41571,-1.602182,180.04,10.92,3,114.16,27 / 27,3497421,2019-09-08 11:06:04:045,1.2753,1.1853,9.8385,-0.07,0.0217,9.8063,0.2818,0.0167,0.0002,-25.44,-27.94,22.81,337.19,-78.14,-151.21
34946,52.41571,-1.602182,180.04,10.92,3,114.16,27 / 27,3497521,2019-09-08 11:06:04:145,-0.6816,2.0424,10.334,0.0279,-0.0391,9.8064,-0.1562,-0.0195,0.118,-26.0,-27.87,23.0,336.13,-77.9,-150.95
34947,52.41571,-1.602182,180.04,10.92,3,114.16,27 / 27,3497621,2019-09-08 11:06:04:245,0.0115,0.3379,9.4816,0.0256,-0.0417,9.8064,-0.1839,0.0848,0.0468,-25.69,-28.12,22.56,336.2,-77.49,-150.73
34948,52.41571,-1.602182,180.04,10.92,3,114.16,27 / 27,3497722,2019-09-08 11:06:04:346,0.1303,0.6046,9.6461,0.0163,-0.017,9.8066,0.1417,-0.0817,0.0553,-26.0,-27.56,23.06,336.68,-77.57,-150.37
34949,52.41571,-1.602182,180.04,10.92,3,114.16,27 / 27,3497823,2019-09-08 11:06:04:447,-0.9596,0.4784,9.5524,-0.0262,0.0178,9.8066,0.0634,-0.0139,-0.09,-26.0,-27.44,23.0,338.09,-77.59,-149.35
34950,52.41571,-1.602182,180.04,10.92,3,114.16,27 / 28,3497922,2019-09-08 11:06:04:546,-0.9239,1.6344,9.6743,0.031,-0.036,9.8065,-0.2414,0.006,-0.1357,-26.81,-27.87,22.94,336.23,-77.35,-149.67
34951,52.41571,-1.602182,180.04,10.92,3,114.16,27 / 28,3498021,2019-09-08 11:06:04:645,-0.7983,0.1267,9.3423,0.0245,-0.0145,9.8065,-0.1787,-0.1029,-0.0269,-26.12,-27.25,22.75,338.0,-77.45,-149.38
34952,52.41571,-1.602182,180.04,10.92,3,114.16,27 / 28,3498121,2019-09-08 11:06:04:745,-1.0744,0.9502,9.1481,-0.0355,0.0192,9.8065,0.1451,-0.0558,-0.0217,-26.5,-27.62,23.19,338.37,-77.37,-148.91
34953,52.41571,-1.602182,180.04,10.92,3,114.16,27 / 28,3498221,2019-09-08 11:06:04:845,-0.4639,-0.243,10.9235,-0.0395,0.0394,9.8064,0.1934,-0.091,0.0098,-26.37,-27.06,23.56,341.16,-77.61,-148.1
34954,52.41571,-1.602182,180.04,10.92,3,114.16,27 / 28,3498321,2019-09-08 11:06:04:945,-1.1388,1.8937,10.4503,0.043,-0.0241,9.8065,-0.0984,-0.0208,0.0469,-26.06,-27.87,23.56,341.01,-77.74,-148.16
34955,52.41571,-1.602182,180.04,10.92,3,114.16,27 / 28,3498422,2019-09-08 11:06:05:046,0.4154,-0.3442,9.3325,0.0411,-0.0201,9.8064,-0.2781,-0.0361,0.0906,-25.94,-27.37,22.63,337.67,-77.53,-149.68
34956,52.41571,-1.602182,180.04,10.92,3,114.16,27 / 28,3498521,2019-09-08 11:06:05:145,0.7283,0.9174,9.268,-0.0382,0.0282,9.8065,0.1751,0.0357,-0.0619,-25.69,-27.44,23.44,338.48,-77.91,-149.15
34957,52.41571,-1.602182,180.04,10.92,3,114.16,27 / 28,3498622,2019-09-08 11:06:05:246,-1.0986,1.0321,10.3862,-0.0212,0.0211,9.8065,0.0673,-0.0367,-0.0731,-25.56,-27.94,22.5,338.33,-77.92,-149.14
34958,52.41571,-1.602182,180.04,10.92,3,114.16,27 / 28,3498722,2019-09-08 11:06:05:346,-1.0906,1.2401,9.3497,-0.0169,0.0041,9.8066,-0.0519,-0.0106,-0.0407,-25.69,-27.69,23.44,338.27,-77.94,-149.2
34959,52.41571,-1.602182,180.04,10.92,3,114.16,27 / 28,3498822,2019-09-08 11:06:05:446,-0.8861,0.8435,9.5468,0.0075,-0.0095,9.8065,-0.0826,-0.073,-0.0144,-25.87,-27.75,23.06,338.17,-77.9,-149.26
34960,52.41571,-1.602182,180.04,10.92,3,114.16,27 / 28,3498922,2019-09-08 11:06:05:546,0.1085,0.9764,9.7359,-0.0226,0.0212,9.8066,0.1443,-0.0372,0.0677,-25.87,-27.5,23.44,338.35,-77.82,-149.23
34961,52.41571,-1.602182,180.04,10.92,3,114.16,27 / 28,3499021,2019-09-08 11:06:05:645,-0.2807,-0.8959,9.9288,-0.0242,0.0159,9.8065,0.2093,-0.051,0.1026,-25.69,-27.62,23.06,339.0,-77.9,-148.58
34962,52.41571,-1.602182,180.04,10.92,3,114.16,27 / 28,3499121,2019-09-08 11:06:05:745,0.2004,-0.554,9.7255,0.0086,-0.0207,9.8065,-0.0151,-0.0056,0.0943,-26.69,-27.5,23.0,337.86,-77.66,-148.58
34963,52.41571,-1.602182,180.04,10.92,3,114.16,27 / 28,3499221,2019-09-08 11:06:05:845,-1.2411,0.9826,10.0493,0.007,-0.0113,9.8066,0.0039,0.0138,0.055,-26.62,-27.06,23.38,338.18,-77.52,-148.26
34964,52.41571,-1.602182,180.04,10.92,3,114.16,27 / 28,3499322,2019-09-08 11:06:05:946,-1.0392,0.6697,9.7422,-0.0224,0.0117,9.8065,0.0567,-0.0003,-0.0335,-26.5,-27.19,23.88,341.18,-77.46,-148.04
34965,52.41571,-1.602182,180.04,10.92,3,114.16,27 / 28,3499422,2019-09-08 11:06:06:046,-1.6889,1.2992,9.7116,-0.03,0.0383,9.8065,0.1281,-0.0748,0.0383,-26.25,-27.25,23.38,340.11,-77.61,-147.69
34966,52.41571,-1.602182,180.04,10.92,3,114.16,27 / 28,3499522,2019-09-08 11:06:06:146,-1.1603,0.3299,10.433,0.0155,0.0019,9.8066,0.0162,0.0247,-0.0765,-26.06,-27.69,23.19,339.37,-77.46,-148.12
34967,52.41571,-1.602182,180.04,10.92,3,114.16,27 / 28,3499622,2019-09-08 11:06:06:246,1.1785,0.3787,8.8514,-0.0086,0.0173,9.8066,0.0652,-0.027,0.0092,-26.44,-27.31,23.19,338.49,-77.52,-149.0
34968,52.41571,-1.602182,180.04,10.92,3,114.16,27 / 28,3499722,2019-09-08 11:06:06:346,-0.6389,-3.2291,11.9087,0.0286,0.0123,9.8066,-0.3134,0.1704,-0.0603,-25.75,-27.69,23.06,337.38,-77.54,-149.78
34969,52.41571,-1.602182,180.04,10.92,3,114.16,27 / 28,3499822,2019-09-08 11:06:06:446,1.0555,-0.6235,7.1059,0.0687,-0.0388,9.8062,-0.3259,0.0775,0.0438,-25.87,-28.0,23.56,337.57,-77.83,-151.02
34970,52.41571,-1.602182,180.04,10.92,3,114.16,27 / 27,3499922,2019-09-08 11:06:06:546,0.5488,-1.5595,10.3626,-0.0289,-0.0077,9.8065,-0.5375,0.2585,-0.0596,-26.31,-27.44,22.81,337.59,-77.91,-149.88
34971,52.41571,-1.602182,180.04,10.92,3,114.16,27 / 27,3500021,2019-09-08 11:06:06:645,2.9168,0.4692,9.9191,0.031,-0.0106,9.8065,-0.4029,-0.1572,0.1563,-25.31,-27.69,22.44,338.4,-78.18,-148.88
34972,52.41571,-1.602182,180.04,10.92,3,114.16,27 / 27,3500122,2019-09-08 11:06:06:746,-2.6678,2.4295,11.0963,-0.0078,0.0376,9.8066,0.497,-0.1008,0.201,-26.19,-27.12,23.31,339.08,-78.19,-148.74
34973,52.41571,-1.602182,180.04,10.92,3,114.16,27 / 27,3500222,2019-09-08 11:06:06:846,0.8293,-2.2015,11.7632,0.0076,-0.0252,9.8065,0.4983,0.0377,0.106,-26.25,-27.31,23.25,338.24,-77.81,-149.31
34974,52.41571,-1.602182,180.04,10.92,3,114.16,27 / 27,3500321,2019-09-08 11:06:06:945,1.8826,1.7447,11.0308,0.0111,-0.0034,9.8066,-0.0549,-0.1653,-0.053,-26.0,-27.62,23.44,337.83,-77.85,-149.53
34975,52.41571,-1.602182,180.04,10.92,3,114.16,27 / 27,3500421,2019-09-08 11:06:07:045,-0.5778,2.9116,10.1127,0.0006,0.0055,9.8066,-0.1599,-0.0249,-0.2881,-26.06,-27.69,23.13,337.09,-77.85,-150.15
34976,52.41571,-1.602182,180.04,10.92,3,114.16,27 / 27,3500521,2019-09-08 11:06:07:145,0.8441,-1.4107,9.9377,0.0416,-0.0179,9.8064,-0.2777,0.0676,-0.1487,-25.81,-27.69,22.38,335.13,-78.21,-150.58
34977,52.41571,-1.602182,180.04,10.92,3,114.16,27 / 27,3500621,2019-09-08 11:06:07:245,0.2339,1.6083,8.9012,0.0235,0.02,9.8065,-0.2053,-0.0419,0.031,-25.75,-28.06,22.69,334.6,-78.36,-152.42
34978,52.41571,-1.602182,180.04,10.92,3,114.16,27 / 27,3500721,2019-09-08 11:06:07:345,-1.1529,-0.3946,8.9834,-0.008,0.0005,9.8066,-0.1521,-0.1245,0.0327,-25.44,-27.81,22.69,336.18,-78.46,-152.17
34979,52.41571,-1.602182,180.04,10.92,3,114.16,27 / 27,3500821,2019-09-08 11:06:07:445,-1.2267,0.0754,8.8769,-0.0053,0.0367,9.8065,-0.0064,-0.1118,0.028,-25.37,-28.62,22.13,334.2,-78.45,-152.32
34980,52.41571,-1.602182,180.04,10.92,3,114.16,28 / 28,3500922,2019-09-08 11:06:07:546,-0.1354,2.605,9.7216,-0.0217,0.0189,9.8065,0.4743,-0.0302,-0.0053,-25.75,-28.5,23.06,333.58,-78.8,-153.46
34981,52.41571,-1.602182,180.04,10.92,3,114.16,28 / 28,3501021,2019-09-08 11:06:07:645,0.5145,-0.7882,11.6983,-0.0344,0.0163,9.8065,0.5357,-0.0173,-0.0266,-25.69,-27.87,23.38,334.62,-78.8,-152.58
34982,52.41571,-1.602182,180.04,10.92,3,114.16,28 / 28,3501121,2019-09-08 11:06:07:745,2.3307,0.4187,8.1003,0.0248,-0.0092,9.8066,-0.4522,0.0073,0.0463,-25.5,-27.69,22.5,335.23,-78.5,-152.98
34983,52.41571,-1.602182,180.04,10.92,3,114.16,28 / 28,3501222,2019-09-08 11:06:07:846,-1.1031,3.9082,9.051,0.0037,-0.0691,9.8063,-0.3709,0.1658,-0.1753,-25.87,-28.12,22.75,335.78,-78.23,-151.38
34984,52.41571,-1.602182,180.04,10.92,3,114.16,28 / 28,3501321,2019-09-08 11:06:07:945,0.3622,1.6416,9.1232,-0.0459,0.0358,9.8065,0.2977,0.0442,0.0477,-25.56,-28.62,22.19,334.22,-78.26,-151.21
34985,52.41571,-1.602182,180.04,10.92,3,114.16,28 / 28,3501421,2019-09-08 11:06:08:045,2.3764,-0.7207,10.6633,-0.0242,0.0093,9.8065,0.1366,0.0353,0.0786,-25.56,-27.56,23.81,338.69,-78.29,-150.26
34986,52.41571,-1.602182,180.04,10.92,3,114.16,28 / 28,3501521,2019-09-08 11:06:08:145,-0.2493,1.3591,10.4506,0.0172,-0.0157,9.8066,-0.082,0.0182,0.0632,-25.62,-27.62,23.81,338.46,-78.26,-150.44
34987,52.41571,-1.602182,180.04,10.92,3,114.16,28 / 28,3501621,2019-09-08 11:06:08:245,-0.1627,0.5118,9.8199,0.0159,-0.0115,9.8065,-0.0967,-0.0581,0.0578,-25.12,-27.94,22.69,337.62,-78.08,-150.83
34988,52.41571,-1.602182,180.04,10.92,3,114.16,28 / 28,3501721,2019-09-08 11:06:08:345,-0.9168,-0.6556,12.0246,0.0349,-0.0221,9.8065,0.2564,0.1956,-0.2267,-24.81,-28.56,22.19,334.19,-77.72,-152.0
34989,52.41571,-1.602182,180.04,10.92,3,114.16,26 / 28,3501822,2019-09-08 11:06:08:446,3.631,1.1314,8.6655,0.0368,-0.0345,9.8065,0.034,0.1526,-0.0294,-24.87,-30.62,21.94,331.98,-77.71,-153.45
34990,52.41571,-1.602182,180.04,10.92,3,114.16,26 / 28,3501922,2019-09-08 11:06:08:546,-1.6998,-2.3999,11.6147,-0.0442,0.0457,9.8064,0.0075,0.117,-0.1946,-24.87,-30.06,23.81,336.69,-77.5,-152.38
34991,52.41571,-1.602182,180.04,10.92,3,114.16,26 / 28,3502022,2019-09-08 11:06:08:646,1.5388,2.636,8.4011,0.018,-0.0215,9.8065,-0.1176,0.0905,-0.1576,-25.12,-28.75,23.5,337.82,-78.08,-151.82
34992,52.41571,-1.602182,180.04,10.92,3,114.16,26 / 28,3502122,2019-09-08 11:06:08:746,0.0973,1.9759,8.3459,-0.05,0.0879,9.8061,0.0709,-0.0288,0.021,-25.06,-28.44,23.69,337.94,-78.05,-151.85
34993,52.41571,-1.602182,180.04,10.92,3,114.16,26 / 28,3502222,2019-09-08 11:06:08:846,-1.5727,0.6358,9.1307,0.0031,-0.0029,9.8065,-0.1863,0.1759,-0.1475,-25.62,-28.25,23.56,336.08,-78.31,-152.44
34994,52.41571,-1.602182,180.04,10.92,3,114.16,26 / 28,3502321,2019-09-08 11:06:08:945,1.438,2.6745,9.104,-0.0237,0.0639,9.8063,0.1266,-0.0166,-0.0324,-25.37,-27.81,23.63,335.93,-78.74,-153.79
34995,52.41571,-1.602182,180.04,10.92,3,114.16,26 / 28,3502421,2019-09-08 11:06:09:045,0.2693,3.0209,8.8024,-0.0334,0.0366,9.8064,-0.0067,0.0908,-0.0254,-25.19,-28.06,23.56,335.58,-78.6,-154.03
34996,52.41571,-1.602182,180.04,10.92,3,114.16,26 / 28,3502522,2019-09-08 11:06:09:146,0.9851,1.0724,9.6462,0.0218,0.0084,9.8066,-0.1371,-0.058,0.1279,-25.75,-27.81,23.44,332.47,-78.47,-154.26
34997,52.41571,-1.602182,180.04,10.92,3,114.16,26 / 28,3502622,2019-09-08 11:06:09:246,1.6001,1.5095,7.8154,-0.0126,0.0107,9.8066,-0.2877,0.138,-0.1036,-25.62,-28.44,22.44,330.8,-78.66,-154.41
34998,52.41571,-1.602182,180.04,10.92,3,114.16,26 / 28,3502721,2019-09-08 11:06:09:345,-1.4726,-0.2584,8.5001,-0.0247,0.0061,9.8066,-0.2471,-0.0808,0.032,-25.75,-28.94,22.56,334.02,-79.0,-153.04
34999,52.41571,-1.602182,180.04,10.92,3,114.16,26 / 28,3502821,2019-09-08 11:06:09:445,-0.6999,4.2913,9.4045,-0.0385,0.0301,9.8064,0.0755,0.0684,0.1015,-26.12,-28.5,22.13,335.66,-79.64,-150.72
35000,52.4152,-1.600792,179.06,13.12,2,123.18,27 / 27,3502922,2019-09-08 11:06:09:546,0.732,0.1565,10.0867,0.0882,-0.0306,9.8061,-0.2398,0.2372,-0.1213,-25.94,-28.12,22.94,337.62,-79.38,-150.28
35001,52.4152,-1.600792,179.06,13.12,2,123.18,27 / 27,3503021,2019-09-08 11:06:09:645,3.0029,1.0754,11.7807,0.0435,-0.0681,9.8062,0.1859,-0.3819,0.2713,-26.56,-28.06,23.5,336.1,-78.8,-151.62
35002,52.4152,-1.600792,179.06,13.12,2,123.18,27 / 27,3503121,2019-09-08 11:06:09:745,-1.9637,2.7896,7.6019,-0.075,0.0727,9.806,-0.3295,0.3494,-0.1516,-26.19,-28.0,23.13,337.58,-78.18,-149.86
35003,52.4152,-1.600792,179.06,13.12,2,123.18,27 / 27,3503221,2019-09-08 11:06:09:845,-1.6314,0.0202,10.0431,-0.112,0.0431,9.8058,0.0997,-0.0336,0.2502,-26.75,-27.69,23.31,339.75,-78.82,-147.28
35004,52.4152,-1.600792,179.06,13.12,2,123.18,27 / 27,3503322,2019-09-08 11:06:09:946,-1.9551,-1.4516,8.8002,-0.0023,-0.0113,9.8066,0.1163,0.0449,0.0105,-26.37,-27.25,22.81,343.36,-78.56,-145.29
35005,52.4152,-1.600792,179.06,13.12,2,123.18,27 / 27,3503422,2019-09-08 11:06:10:046,1.6584,0.3102,9.0882,0.0134,-0.0264,9.8065,0.1011,0.063,0.0273,-26.44,-26.75,22.81,343.67,-78.26,-144.95
35006,52.4152,-1.600792,179.06,13.12,2,123.18,27 / 27,3503522,2019-09-08 11:06:10:146,0.7088,-1.2599,11.2176,0.0339,-0.056,9.8064,-0.0602,-0.0106,0.0513,-26.81,-26.81,22.88,342.03,-78.04,-145.23
35007,52.4152,-1.600792,179.06,13.12,2,123.18,27 / 27,3503622,2019-09-08 11:06:10:246,-0.24,2.0615,10.0455,0.0058,0.0194,9.8065,0.1851,-0.0958,0.0152,-26.19,-26.37,23.44,342.48,-77.77,-145.9
35008,52.4152,-1.600792,179.06,13.12,2,123.18,27 / 27,3503721,2019-09-08 11:06:10:345,-0.1361,3.4166,11.0274,0.0012,0.0289,9.8065,0.2258,-0.2133,0.0377,-26.5,-25.5,23.63,342.96,-77.5,-146.8
35009,52.4152,-1.600792,179.06,13.12,2,123.18,27 / 27,3503821,2019-09-08 11:06:10:445,0.8233,-0.5285,10.0046,-0.017,-0.0004,9.8066,0.2041,-0.0607,-0.0235,-28.69,-25.06,23.38,338.63,-77.61,-146.3
35010,52.4152,-1.600792,179.06,13.12,2,123.18,27 / 27,3503921,2019-09-08 11:06:10:545,-1.396,0.2792,9.3107,-0.0013,0.0128,9.8066,-0.1106,-0.0879,-0.0768,-27.31,-25.75,22.31,339.87,-77.82,-145.77
35011,52.4152,-1.600792,179.06,13.12,2,123.18,27 / 27,3504022,2019-09-08 11:06:10:646,0.3465,1.5727,10.3867,-0.0124,-0.0173,9.8066,0.0377,0.0253,-0.0404,-26.62,-26.5,22.88,341.44,-77.79,-145.76
35012,52.4152,-1.600792,179.06,13.12,2,123.18,27 / 27,3504121,2019-09-08 11:06:10:745,-1.384,-0.1715,10.6037,-0.0156,-0.015,9.8065,0.1803,-0.0267,0.0875,-27.31,-26.56,23.81,343.07,-77.59,-145.51
35013,52.4152,-1.600792,179.06,13.12,2,123.18,27 / 27,3504221,2019-09-08 11:06:10:845,0.6999,-0.0496,9.9313,0.024,-0.0244,9.8065,-0.0074,0.007,0.0111,-27.75,-26.75,23.31,341.04,-77.44,-144.91
35014,52.4152,-1.600792,179.06,13.12,2,123.18,27 / 27,3504322,2019-09-08 11:06:10:946,-0.6484,-0.7314,10.959,-0.0338,0.0056,9.8065,0.0645,0.0779,-0.1151,-27.69,-26.62,23.31,341.71,-77.49,-144.38
35015,52.4152,-1.600792,179.06,13.12,2,123.18,27 / 27,3504422,2019-09-08 11:06:11:046,-0.2507,0.4546,10.4919,-0.0278,0.0196,9.8065,0.2106,-0.0335,-0.0188,-27.0,-26.94,23.38,343.7,-77.65,-143.75
35016,52.4152,-1.600792,179.06,13.12,2,123.18,27 / 27,3504522,2019-09-08 11:06:11:146,0.2598,0.2434,9.7893,-0.0061,0.0048,9.8065,-0.0996,0.0634,-0.0172,-27.25,-27.37,23.19,343.52,-77.6,-143.88
35017,52.4152,-1.600792,179.06,13.12,2,123.18,27 / 27,3504622,2019-09-08 11:06:11:246,-1.121,0.3433,9.9409,0.012,-0.0284,9.8065,-0.1339,0.0588,-0.0405,-27.06,-27.0,23.69,344.75,-77.43,-144.08
35018,52.4152,-1.600792,179.06,13.12,2,123.18,27 / 27,3504721,2019-09-08 11:06:11:345,-0.6099,-0.7741,8.6122,-0.0259,0.0305,9.8065,0.0863,0.0657,-0.0513,-26.69,-27.06,23.69,344.57,-77.44,-144.23
35019,52.4152,-1.600792,179.06,13.12,2,123.18,27 / 27,3504821,2019-09-08 11:06:11:445,0.181,0.7784,9.2117,-0.0024,0.0255,9.8066,0.0174,-0.0285,0.0465,-26.87,-26.19,23.69,344.05,-77.62,-144.8
35020,52.4152,-1.600792,179.06,13.12,2,123.18,28 / 28,3504921,2019-09-08 11:06:11:545,-0.1856,-0.2715,10.707,-0.006,0.0121,9.8066,-0.1118,-0.0355,0.0221,-26.62,-26.94,23.31,342.53,-77.63,-144.7
35021,52.4152,-1.600792,179.06,13.12,2,123.18,28 / 28,3505022,2019-09-08 11:06:11:646,-0.4185,0.4122,9.1814,0.0301,-0.0337,9.8065,-0.3345,0.2238,-0.275,-26.12,-27.06,23.25,342.95,-77.64,-145.37
35022,52.4152,-1.600792,179.06,13.12,2,123.18,28 / 28,3505122,2019-09-08 11:06:11:746,0.135,0.0345,9.125,-0.0363,0.0497,9.8064,0.2369,0.1473,-0.0004,-26.31,-26.94,23.94,343.32,-77.78,-146.37
35023,52.4152,-1.600792,179.06,13.12,2,123.18,28 / 28,3505221,2019-09-08 11:06:11:845,0.3373,-1.3916,9.3085,-0.0187,0.0433,9.8065,0.1519,-0.0376,0.2833,-26.0,-27.06,23.63,343.12,-78.24,-146.66
35024,52.4152,-1.600792,179.06,13.12,2,123.18,28 / 28,3505321,2019-09-08 11:06:11:945,-0.5534,1.0574,10.5274,0.0016,-0.007,9.8066,-0.0464,-0.0219,0.0231,-26.75,-27.56,23.5,342.71,-78.16,-145.86
35025,52.4152,-1.600792,179.06,13.12,2,123.18,28 / 28,3505421,2019-09-08 11:06:12:045,-0.1185,1.7349,9.4145,-0.021,0.0095,9.8065,0.1393,-0.1037,0.0253,-27.0,-27.12,23.56,344.01,-78.29,-144.91
35026,52.4152,-1.600792,179.06,13.12,2,123.18,28 / 28,3505521,2019-09-08 11:06:12:145,0.2991,-1.9589,11.2972,0.0309,-0.03,9.8065,0.0948,-0.0521,-0.0184,-26.87,-27.12,23.56,343.18,-78.01,-145.53
35027,52.4152,-1.600792,179.06,13.12,2,123.18,28 / 28,3505621,2019-09-08 11:06:12:245,-0.0044,-1.7429,11.5253,0.0381,-0.0182,9.8065,0.1852,-0.078,0.0663,-26.81,-27.25,23.63,342.63,-78.07,-146.0
35028,52.4152,-1.600792,179.06,13.12,2,123.18,28 / 28,3505722,2019-09-08 11:06:12:346,-1.2028,0.0658,10.9842,0.0004,0.013,9.8065,0.1602,-0.0624,0.0992,-26.62,-27.06,23.56,342.52,-78.27,-146.15
35029,52.4152,-1.600792,179.06,13.12,2,123.18,26 / 27,3505821,2019-09-08 11:06:12:445,0.3367,0.6687,9.9178,0.0065,-0.0051,9.8066,-0.0997,0.0172,-0.0515,-27.12,-26.87,24.0,342.87,-78.12,-145.82
35030,52.4152,-1.600792,179.06,13.12,2,123.18,26 / 27,3505921,2019-09-08 11:06:12:545,1.3529,-0.987,10.1566,0.0371,-0.0271,9.8065,-0.3093,0.0869,-0.0674,-26.5,-26.94,23.19,342.91,-78.21,-145.56
35031,52.4152,-1.600792,179.06,13.12,2,123.18,26 / 27,3506021,2019-09-08 11:06:12:645,0.6643,0.9947,9.7849,0.069,-0.0707,9.8061,-0.4661,0.0608,-0.0768,-26.56,-27.25,23.13,340.76,-77.87,-146.24
35032,52.4152,-1.600792,179.06,13.12,2,123.18,26 / 27,3506121,2019-09-08 11:06:12:745,0.8103,2.4641,9.7201,-0.0326,0.0441,9.8064,0.1564,0.0311,-0.1251,-26.44,-27.0,22.94,342.94,-78.18,-145.53
35033,52.4152,-1.600792,179.06,13.12,2,123.18,26 / 27,3506222,2019-09-08 11:06:12:846,0.6964,1.0258,9.9263,-0.0027,0.0237,9.8066,-0.0124,-0.0708,-0.0613,-26.19,-26.94,23.25,342.07,-78.14,-146.24
35034,52.4152,-1.600792,179.06,13.12,2,123.18,26 / 27,3506322,2019-09-08 11:06:12:946,0.0147,0.2417,9.1859,-0.0047,0.0275,9.8066,-0.0986,0.0072,-0.0047,-26.12,-26.87,22.88,341.19,-78.03,-146.94
35035,52.4152,-1.600792,179.06,13.12,2,123.18,26 / 27,3506422,2019-09-08 11:06:13:046,-0.2803,0.6662,9.8534,-0.0334,0.0453,9.8064,0.0101,-0.0403,-0.03,-26.37,-26.81,23.38,341.57,-78.36,-146.73
35036,52.4152,-1.600792,179.06,13.12,2,123.18,26 / 27,3506522,2019-09-08 11:06:13:146,0.7335,1.0035,9.5438,0.0579,-0.0338,9.8063,-0.1726,-0.1238,0.0344,-26.62,-27.44,23.31,340.32,-78.47,-146.8
35037,52.4152,-1.600792,179.06,13.12,2,123.18,26 / 27,3506622,2019-09-08 11:06:13:246,-0.9856,-0.1642,10.4668,0.0141,-0.0085,9.8066,0.0398,0.0041,-0.0175,-26.37,-27.25,23.5,342.16,-78.34,-147.49
35038,52.4152,-1.600792,179.06,13.12,2,123.18,26 / 27,3506722,2019-09-08 11:06:13:346,0.4421,0.5723,9.3444,-0.0114,0.0157,9.8066,0.0037,0.0825,-0.0537,-26.37,-27.69,23.63,341.48,-78.46,-147.99
35039,52.4152,-1.600792,179.06,13.12,2,123.18,25 / 26,3506821,2019-09-08 11:06:13:445,0.6324,-0.7595,8.7349,-0.0046,0.017,9.8066,0.0258,-0.0523,0.1301,-26.75,-27.19,23.13,338.27,-78.49,-148.52
35040,52.4152,-1.600792,179.06,13.12,2,123.18,25 / 26,3506921,2019-09-08 11:06:13:545,-1.0793,3.3669,9.8562,-0.031,0.0614,9.8064,0.225,-0.0407,0.0004,-26.44,-27.81,23.38,340.34,-78.15,-147.57
35041,52.4152,-1.600792,179.06,13.12,2,123.18,25 / 26,3507021,2019-09-08 11:06:13:645,1.4625,1.1961,9.0696,-0.0388,0.0217,9.8065,0.341,0.0544,-0.0865,-25.81,-27.56,22.94,341.58,-78.64,-146.7
35042,52.4152,-1.600792,179.06,13.12,2,123.18,25 / 26,3507121,2019-09-08 11:06:13:745,1.8757,0.7455,9.1775,0.0198,0.0034,9.8065,-0.2258,-0.0647,0.0342,-27.19,-27.75,23.06,340.8,-78.37,-146.25
35043,52.4152,-1.600792,179.06,13.12,2,123.18,25 / 26,3507221,2019-09-08 11:06:13:845,-1.4851,0.4346,10.3857,-0.0071,0.0069,9.8066,-0.0688,-0.1264,0.1263,-26.69,-27.19,23.19,340.96,-78.37,-146.23
35044,52.4152,-1.600792,179.06,13.12,2,123.18,25 / 26,3507321,2019-09-08 11:06:13:945,-0.2395,-0.1393,10.5247,0.0172,-0.013,9.8066,-0.2051,-0.0204,-0.0282,-26.31,-27.5,24.0,343.97,-78.19,-145.94
35045,52.4152,-1.600792,179.06,13.12,2,123.18,25 / 26,3507421,2019-09-08 11:06:14:045,-0.4633,1.3146,8.4775,0.0221,-0.0128,9.8066,-0.2041,0.0189,-0.0289,-26.62,-26.87,23.13,341.7,-78.3,-145.59
35046,52.4152,-1.600792,179.06,13.12,2,123.18,25 / 26,3507521,2019-09-08 11:06:14:145,-1.5545,1.4146,9.583,-0.0321,0.0088,9.8065,0.1625,0.0061,-0.0116,-26.44,-27.5,22.13,341.78,-78.32,-145.22
35047,52.4152,-1.600792,179.06,13.12,2,123.18,25 / 26,3507622,2019-09-08 11:06:14:246,0.2552,3.1012,9.625,-0.0278,0.042,9.8065,0.1723,-0.123,0.0952,-26.81,-26.81,23.88,344.81,-78.56,-144.31
35048,52.4152,-1.600792,179.06,13.12,2,123.18,25 / 26,3507722,2019-09-08 11:06:14:346,-0.315,-1.7215,11.0949,0.0488,-0.0485,9.8064,-0.1476,0.0027,0.0377,-27.06,-27.31,22.88,343.54,-78.44,-144.08
