,GPS LATITUDE (degrees), GPS LONGITUDE (degrees), GPS ALTITUDE (m), GPS SPEED (Kmh), GPS ACCURACY (m), GPS ORIENTATION (Â°),GPS SATELLITES IN RANGE, TIME SINCE START (ms), DATE (YYYY-MO-DD HH-MI-SS_SSS), ACCELEROMETER X (m/s²) , ACCELEROMETER Y (m/s²), ACCELEROMETER Z (m/s²), GRAVITY X (m/s²), GRAVITY Y (m/s²), GRAVITY Z (m/s²), GYROSCOPE Yaw (rad/s), GYROSCOPE Pitch (rad/s), GYROSCOPE Roll (rad/s), MAGNETIC FIELD X (Î¼T), MAGNETIC FIELD Y (Î¼T), MAGNETIC FIELD Z (Î¼T), ORIENTATION (Yaw) (Â°), ORIENTATION (Pitch) (Â°), ORIENTATION (Roll ) (Â°)
3109,51.068363,-4.012638,101,26.28,14.0,286.2,Sep-20,1554562,2020-03-21 14:54:51:874,-0.1043,-0.2986,10.4747,-0.0024,-0.0036,9.8067,-0.0565,-0.009,0.0106,-15.75,-12.97,-35.37,115.3,-13.25,6.32
3110,51.068363,-4.012638,101,26.28,14.0,286.2,Sep-20,1555062,2020-03-21 14:54:52:374,-0.3622,-0.1933,10.1813,-0.0013,-0.0008,9.8067,-0.033,-0.0271,0.0021,-15.75,-12.97,-37.06,113.56,-13.21,6.78
3111,51.068363,-4.012638,101,26.28,14.0,286.2,0 / 20,1555562,2020-03-21 14:54:52:874,-0.5186,-0.3084,10.0595,0.0023,-0.0004,9.8067,-0.0575,-0.0175,0.0117,-15.07,-12.6,-36.68,110.69,-13.26,6.76
3112,51.068363,-4.012638,101,26.28,14.0,286.2,Aug-20,1556062,2020-03-21 14:54:53:374,-0.3503,-0.6897,9.4294,0.0009,-0.0015,9.8066,-0.0075,-0.0154,0.0011,-15.75,-12.6,-36.68,113.59,-13.22,6.67
3113,51.068363,-4.012638,101,26.28,14.0,286.2,Aug-20,1556562,2020-03-21 14:54:53:874,-0.5467,-0.0879,9.6713,-0.0035,-0.0053,9.8066,-0.0053,-0.0132,0.0106,-15.44,-12.97,-36.25,111.51,-13.21,6.92
3114,51.068363,-4.012638,101,26.28,14.0,286.2,Sep-20,1557062,2020-03-21 14:54:54:374,0.5171,-0.094,9.6614,0.0025,-0.0033,9.8066,0.0234,-0.0015,0.0,-15.44,-12.6,-36.68,110.85,-13.22,6.6
3115,51.068363,-4.012638,101,26.28,14.0,286.2,Sep-20,1557562,2020-03-21 14:54:54:874,-0.418,0.1295,9.1305,-0.0057,-0.0046,9.8066,0.0288,-0.0047,-0.0085,-15.75,-12.6,-36.25,114.41,-13.23,6.57
3116,51.068363,-4.012638,101,26.28,14.0,286.2,Sep-20,1558062,2020-03-21 14:54:55:374,0.4377,0.5635,9.3819,0.0152,0.0071,9.8066,0.0629,0.023,-0.0139,-15.44,-12.6,-36.25,111.68,-13.19,6.66
3117,51.068363,-4.012638,101,26.28,14.0,286.2,Sep-20,1558562,2020-03-21 14:54:55:874,-0.083,0.3518,9.7217,-0.0049,-0.0083,9.8066,0.0256,-0.0154,-0.0053,-15.44,-12.97,-35.81,111.45,-13.27,6.8
3118,51.068363,-4.012638,101,26.28,14.0,286.2,Sep-20,1559062,2020-03-21 14:54:56:374,0.1671,0.5396,9.6127,0.0079,0.0037,9.8066,0.0501,0.0091,-0.0192,-16.13,-12.97,-37.12,113.28,-13.26,7.12
3119,51.068363,-4.012638,101,26.28,14.0,286.2,Sep-20,1559562,2020-03-21 14:54:56:874,-0.0751,0.009,10.6689,-0.0087,-0.0182,9.8066,0.0288,-0.0228,-0.0075,-15.07,-13.35,-36.68,110.96,-13.22,6.37
3120,51.068363,-4.012638,101,26.28,14.0,286.2,Sep-20,1560062,2020-03-21 14:54:57:374,0.0606,-0.3779,10.208,-0.0032,-0.0029,9.8067,-0.0586,-0.0175,0.0117,-15.75,-12.97,-36.25,114.5,-13.25,6.34
3121,51.068363,-4.012638,101,26.28,14.0,286.2,Sep-20,1560562,2020-03-21 14:54:57:874,-0.4706,0.1462,8.678,0.0089,0.02,9.8066,0.0298,0.0187,-0.0224,-15.44,-13.72,-36.25,110.89,-13.32,5.6
3122,51.068363,-4.012638,101,26.28,14.0,286.2,Sep-20,1561062,2020-03-21 14:54:58:374,-0.2329,-0.5316,9.3881,0.0034,0.0026,9.8067,0.0,-0.0164,0.0053,-15.75,-12.97,-36.68,113.49,-13.37,6.37
3123,51.068363,-4.012638,101,26.28,14.0,286.2,Sep-20,1561562,2020-03-21 14:54:58:874,-0.7059,-0.5237,9.5455,-0.0086,-0.0006,9.8066,-0.0415,-0.0079,0.0117,-15.75,-12.97,-36.68,113.53,-13.3,6.53
3124,51.068363,-4.012638,101,26.28,14.0,286.2,Sep-20,1562062,2020-03-21 14:54:59:374,0.3286,0.0761,9.1541,0.0061,0.0015,9.8066,0.0021,0.0123,0.0021,-15.44,-12.97,-35.81,111.55,-13.29,6.51
3125,51.068363,-4.012638,101,26.28,14.0,286.2,Sep-20,1562561,2020-03-21 14:54:59:873,-0.1817,-0.0866,9.554,-0.0088,-0.0059,9.8066,-0.0607,0.0017,0.0181,-15.44,-12.6,-36.25,111.39,-13.23,7.08
3126,51.068363,-4.012638,101,26.28,14.0,286.2,Sep-20,1563062,2020-03-21 14:55:00:374,0.0409,0.5458,9.5533,-0.0082,-0.005,9.8066,0.0447,0.007,-0.0053,-15.44,-12.97,-36.62,110.53,-13.25,7.15
3127,51.068363,-4.012638,101,26.28,14.0,286.2,Sep-20,1563562,2020-03-21 14:55:00:874,0.4907,0.4351,9.4456,-0.0012,-0.0039,9.8067,0.0469,-0.0036,-0.0085,-15.44,-12.6,-35.81,111.23,-13.35,6.96
3128,51.068363,-4.012638,101,26.28,14.0,286.2,Sep-20,1564062,2020-03-21 14:55:01:374,0.837,-0.2422,9.7424,0.0007,-0.0028,9.8066,0.0107,-0.0047,-0.0032,-15.44,-12.6,-36.25,111.43,-13.28,6.81
3129,51.068363,-4.012638,101,26.28,14.0,286.2,Sep-20,1564562,2020-03-21 14:55:01:874,0.4669,0.6254,9.5142,0.0001,0.0017,9.8067,0.0181,0.0113,-0.0032,-15.07,-13.35,-35.81,111.36,-13.32,6.8
3130,51.068363,-4.012638,101,26.28,14.0,286.2,Sep-20,1565062,2020-03-21 14:55:02:374,0.1621,0.3049,9.8664,0.0034,0.0008,9.8066,0.0373,-0.0281,-0.0096,-15.44,-12.6,-36.25,111.57,-13.27,6.56
3131,51.068363,-4.012638,101,26.28,14.0,286.2,Sep-20,1565562,2020-03-21 14:55:02:874,-0.3705,-0.445,9.5606,-0.0121,0.0007,9.8066,-0.0437,0.0049,0.0192,-15.44,-12.97,-36.62,110.79,-13.27,6.52
3132,51.068363,-4.012638,101,26.28,14.0,286.2,0 / 20,1566062,2020-03-21 14:55:03:374,-0.1143,-0.3761,9.4668,-0.0009,-0.0065,9.8066,-0.0138,-0.0175,0.0053,-15.75,-12.97,-36.62,113.84,-13.2,6.29
3133,51.068363,-4.012638,101,26.28,14.0,286.2,0 / 20,1566562,2020-03-21 14:55:03:874,-0.2041,0.2865,9.7402,0.0064,-0.004,9.8066,0.0096,-0.026,-0.0011,-15.75,-12.6,-36.25,114.15,-13.37,6.6
3134,51.068363,-4.012638,101,26.28,14.0,286.2,May-20,1567062,2020-03-21 14:55:04:374,-0.1447,0.2577,8.9181,0.0009,-0.002,9.8067,0.0256,-0.0058,-0.0096,-15.75,-12.97,-36.25,114.43,-13.25,6.46
3135,51.068363,-4.012638,101,26.28,14.0,286.2,May-20,1567562,2020-03-21 14:55:04:874,-0.6185,0.2682,9.3237,0.0081,0.0032,9.8066,0.0362,0.0049,-0.0085,-15.44,-12.6,-36.62,110.55,-13.3,6.9
3136,51.069603,-4.018182,102,26.1,15.0,288.3,Aug-20,1568062,2020-03-21 14:55:05:374,-0.4875,0.0253,8.9833,-0.0104,0.0038,9.8066,0.0085,0.0102,-0.0021,-15.44,-12.97,-36.62,110.66,-13.2,7.08
3137,51.069603,-4.018182,102,26.1,15.0,288.3,Aug-20,1568562,2020-03-21 14:55:05:874,0.9203,-0.3117,10.2104,0.0087,-0.0071,9.8066,-0.0426,0.0102,0.0096,-15.44,-12.6,-36.62,110.65,-13.11,7.49
3138,51.069603,-4.018182,102,26.1,15.0,288.3,Aug-20,1569061,2020-03-21 14:55:06:373,-0.0157,0.3736,10.3526,-0.006,-0.0013,9.8066,0.0245,0.0017,-0.0021,-15.44,-12.6,-36.25,111.51,-13.09,7.35
3139,51.069603,-4.018182,102,26.1,15.0,288.3,Aug-20,1569562,2020-03-21 14:55:06:874,0.2888,0.3208,10.1567,-0.0115,-0.0025,9.8066,0.0011,-0.0271,0.0043,-15.44,-12.22,-36.25,112.45,-13.02,7.88
3140,51.069603,-4.018182,102,26.1,15.0,288.3,Aug-20,1570061,2020-03-21 14:55:07:373,0.0601,1.1356,10.1202,-0.0025,0.0005,9.8067,0.0533,-0.0079,-0.0085,-15.75,-12.97,-37.5,113.37,-13.12,7.43
3141,51.069603,-4.018182,102,26.1,15.0,288.3,Aug-20,1570562,2020-03-21 14:55:07:874,0.7503,0.3725,9.4823,0.0087,-0.0033,9.8066,0.0565,0.0006,-0.016,-16.13,-12.97,-36.62,113.21,-13.29,7.12
3142,51.069603,-4.018182,102,26.1,15.0,288.3,Aug-20,1571062,2020-03-21 14:55:08:374,-0.1858,0.6206,8.5481,0.0261,0.006,9.8066,0.1055,-0.0004,-0.0362,-15.75,-12.97,-37.06,112.87,-13.33,7.66
3143,51.069603,-4.018182,102,26.1,15.0,288.3,Aug-20,1571561,2020-03-21 14:55:08:873,0.7207,-0.2826,9.8106,0.005,0.0003,9.8066,0.0384,-0.009,-0.0085,-15.44,-12.97,-36.25,111.08,-13.28,7.57
3144,51.069603,-4.018182,102,26.1,15.0,288.3,Aug-20,1572062,2020-03-21 14:55:09:374,0.0449,-0.5111,9.6061,-0.0038,-0.0065,9.8066,-0.0256,-0.0175,0.0032,-15.44,-12.6,-37.12,110.5,-13.22,7.35
3145,51.069603,-4.018182,102,26.1,15.0,288.3,Aug-20,1572562,2020-03-21 14:55:09:874,-0.2377,0.0042,9.8728,-0.0085,-0.0064,9.8066,-0.0043,0.0166,0.0064,-15.44,-13.35,-37.12,110.63,-13.23,7.02
3146,51.069603,-4.018182,102,26.1,15.0,288.3,Aug-20,1573062,2020-03-21 14:55:10:374,-0.9023,0.0022,9.8424,-0.0027,-0.0024,9.8067,-0.0447,-0.0015,0.0128,-15.44,-12.97,-37.12,110.66,-13.25,6.87
3147,51.069603,-4.018182,102,26.1,15.0,288.3,Aug-20,1573561,2020-03-21 14:55:10:873,0.2279,-0.4306,10.4865,0.0065,0.0,9.8066,0.0021,-0.0058,0.0032,-15.75,-12.97,-37.12,113.64,-13.17,6.76
3148,51.069603,-4.018182,102,26.1,15.0,288.3,Apr-20,1574061,2020-03-21 14:55:11:373,-0.4765,0.4973,9.9349,-0.0073,0.0026,9.8066,0.0117,0.0006,-0.0043,-15.75,-12.22,-36.68,114.65,-13.17,7.03
3149,51.069603,-4.018182,102,26.1,15.0,288.3,Apr-20,1574562,2020-03-21 14:55:11:874,0.2009,0.6763,9.0545,0.0013,0.0039,9.8066,0.0447,0.0134,-0.0107,-15.75,-12.22,-36.68,114.38,-13.2,7.39
3150,51.069603,-4.018182,102,26.1,15.0,288.3,Jun-20,1575062,2020-03-21 14:55:12:374,0.6147,0.3148,10.9152,0.0076,0.0035,9.8066,-0.0149,0.007,-0.0011,-15.75,-12.6,-36.68,113.46,-13.05,7.48
3151,51.069603,-4.018182,102,26.1,15.0,288.3,Jun-20,1575561,2020-03-21 14:55:12:873,0.2591,-0.2721,9.4764,-0.0004,0.0009,9.8067,0.0202,0.0028,-0.0096,-15.75,-12.97,-37.12,113.43,-13.11,7.33
3152,51.069603,-4.018182,102,26.1,15.0,288.3,Jun-20,1576062,2020-03-21 14:55:13:374,0.1571,-0.2316,10.3018,0.0038,-0.005,9.8066,-0.016,-0.0175,0.0032,-16.13,-12.22,-36.25,115.18,-13.14,7.59
3153,51.069603,-4.018182,102,26.1,15.0,288.3,Jun-20,1576562,2020-03-21 14:55:13:874,-0.5927,-0.509,8.5944,-0.0032,-0.0016,9.8066,-0.0341,-0.009,0.0032,-15.44,-13.35,-36.25,111.37,-13.27,6.99
3154,51.069603,-4.018182,102,26.1,15.0,288.3,Jun-20,1577062,2020-03-21 14:55:14:374,-0.2654,-0.218,9.5577,-0.0055,-0.0037,9.8066,-0.0288,0.0006,0.0106,-15.44,-12.97,-36.25,111.41,-13.21,7.13
3155,51.069603,-4.018182,102,26.1,15.0,288.3,Jun-20,1577562,2020-03-21 14:55:14:874,-0.4033,-0.013,9.7802,-0.001,0.0055,9.8066,-0.0192,0.0187,0.0064,-15.44,-12.6,-36.25,111.44,-13.22,7.01
3156,51.069603,-4.018182,102,26.1,15.0,288.3,Jun-20,1578062,2020-03-21 14:55:15:374,-0.3687,-0.6362,9.4417,-0.0047,-0.0009,9.8066,0.0128,0.0187,-0.0021,-15.75,-12.97,-36.68,113.55,-13.19,6.84
3157,51.069603,-4.018182,102,26.1,15.0,288.3,Jun-20,1578562,2020-03-21 14:55:15:874,-0.0578,0.2469,9.9521,0.0142,-0.0057,9.8066,0.0352,-0.0036,-0.0053,-15.44,-12.97,-35.81,111.1,-13.25,7.65
3158,51.069603,-4.018182,102,26.1,15.0,288.3,Jun-20,1579062,2020-03-21 14:55:16:374,0.4363,-0.0428,9.3796,0.0011,0.0028,9.8067,0.0288,0.0304,0.0053,-15.75,-13.35,-36.68,113.15,-13.18,7.62
3159,51.069603,-4.018182,102,26.1,15.0,288.3,Jun-20,1579562,2020-03-21 14:55:16:874,-0.7014,0.6955,8.6136,-0.0144,0.0208,9.8066,0.0064,0.0113,-0.0021,-15.75,-12.6,-36.25,113.79,-13.34,7.35
3160,51.069603,-4.018182,102,26.1,15.0,288.3,Jun-20,1580062,2020-03-21 14:55:17:374,0.4023,0.1321,9.7273,-0.016,-0.0023,9.8066,-0.032,-0.0111,0.0149,-15.75,-12.97,-36.25,113.99,-13.25,7.27
3161,51.069603,-4.018182,102,26.1,15.0,288.3,Jun-20,1580562,2020-03-21 14:55:17:874,1.1896,-0.2196,10.0074,0.017,-0.0024,9.8066,0.0703,0.007,-0.0171,-15.44,-13.72,-36.25,110.66,-13.26,6.37
3162,51.069603,-4.018182,102,26.1,15.0,288.3,Jun-20,1581062,2020-03-21 14:55:18:374,0.5451,0.3334,11.138,0.0048,-0.0092,9.8066,-0.0639,-0.0399,0.0117,-15.75,-12.22,-37.06,114.25,-13.26,7.42
3163,51.069603,-4.018182,102,26.1,15.0,288.3,Jun-20,1581562,2020-03-21 14:55:18:874,0.7864,-0.5396,10.8712,0.0278,-0.0121,9.8066,0.0565,-0.0399,-0.0245,-15.44,-13.35,-36.25,111.52,-13.16,7.09
3164,51.069603,-4.018182,102,26.1,15.0,288.3,0 / 20,1582062,2020-03-21 14:55:19:374,0.1004,-0.0864,8.7436,-0.0049,0.0001,9.8067,-0.033,-0.0143,0.0043,-15.75,-12.97,-36.25,113.72,-13.33,7.52
3165,51.069603,-4.018182,102,26.1,15.0,288.3,0 / 20,1582562,2020-03-21 14:55:19:874,0.2552,0.2671,8.952,0.0097,0.0051,9.8066,-0.0202,0.0017,0.0011,-15.44,-12.6,-36.25,111.35,-13.18,7.36
3166,51.069603,-4.018182,102,26.1,15.0,288.3,Mar-20,1583062,2020-03-21 14:55:20:374,0.4199,0.1509,9.5216,0.0073,0.0132,9.8066,0.0756,0.0209,-0.0139,-15.44,-13.35,-36.25,111.98,-13.11,6.35
3167,51.069603,-4.018182,102,26.1,15.0,288.3,Mar-20,1583562,2020-03-21 14:55:20:874,-1.0178,-0.0305,10.0157,-0.0136,-0.0044,9.8066,-0.0277,-0.0036,0.016,-15.07,-13.72,-35.81,110.79,-13.17,6.41
3168,51.069603,-4.018182,102,26.1,15.0,288.3,May-20,1584062,2020-03-21 14:55:21:374,0.6288,0.1805,9.5658,-0.0045,0.0053,9.8066,0.0277,0.0028,0.0053,-15.44,-13.35,-35.37,112.3,-13.29,6.62
3169,51.069603,-4.018182,102,26.1,15.0,288.3,May-20,1584562,2020-03-21 14:55:21:874,0.2892,0.3438,8.4987,0.0038,0.0115,9.8066,0.0234,0.0358,-0.0085,-15.07,-12.97,-36.68,111.21,-13.08,6.42
3170,51.070915,-4.024144,103,26.31,28.0,292.2,Aug-20,1585062,2020-03-21 14:55:22:374,0.2727,0.0222,9.644,0.0076,0.0046,9.8066,0.0416,-0.0047,-0.0139,-15.07,-13.35,-36.25,111.74,-13.1,6.86
3171,51.070915,-4.024144,103,26.31,28.0,292.2,Aug-20,1585562,2020-03-21 14:55:22:874,-0.3408,0.6995,9.3758,-0.0033,0.0054,9.8066,0.0703,-0.0218,-0.0202,-15.07,-12.97,-36.68,110.53,-13.28,7.04
3172,51.070915,-4.024144,103,26.31,28.0,292.2,Aug-20,1586062,2020-03-21 14:55:23:374,0.5322,-0.7099,9.4273,0.0049,0.0033,9.8066,-0.0213,0.0198,0.016,-15.44,-12.6,-36.25,111.18,-13.35,7.07
3173,51.070915,-4.024144,103,26.31,28.0,292.2,Aug-20,1586562,2020-03-21 14:55:23:874,0.1846,0.1523,9.5002,-0.0111,0.0008,9.8066,0.0384,0.0028,-0.0085,-15.44,-13.35,-35.81,111.2,-13.4,6.85
3174,51.070915,-4.024144,103,26.31,28.0,292.2,Aug-20,1587062,2020-03-21 14:55:24:374,0.1361,-0.4849,9.0577,0.0018,0.0158,9.8066,0.0021,0.0358,0.0096,-15.75,-12.97,-36.68,113.27,-13.31,6.98
3175,51.070915,-4.024144,103,26.31,28.0,292.2,Aug-20,1587562,2020-03-21 14:55:24:874,-0.3574,-0.721,9.6962,-0.0127,-0.0006,9.8066,-0.0916,0.0038,0.0138,-15.07,-13.35,-36.68,110.67,-13.21,7.01
3176,51.070915,-4.024144,103,26.31,28.0,292.2,Aug-20,1588062,2020-03-21 14:55:25:374,-0.5537,0.3268,9.8351,0.0117,0.0059,9.8066,0.0479,-0.0015,-0.0096,-15.44,-13.35,-36.68,110.4,-13.34,7.09
3177,51.070915,-4.024144,103,26.31,28.0,292.2,Aug-20,1588562,2020-03-21 14:55:25:874,0.0899,-0.1056,8.1556,-0.0052,-0.012,9.8066,-0.0043,-0.0186,0.0053,-15.44,-12.6,-36.25,111.28,-13.23,7.31
3178,51.070915,-4.024144,103,26.31,28.0,292.2,Aug-20,1589062,2020-03-21 14:55:26:374,-1.4362,-0.0724,10.2652,-0.0163,-0.002,9.8066,-0.1033,0.0006,0.0277,-15.07,-13.35,-36.25,111.25,-13.36,6.87
3179,51.070915,-4.024144,103,26.31,28.0,292.2,Aug-20,1589562,2020-03-21 14:55:26:874,-1.0241,0.463,10.1182,-0.0023,0.0003,9.8067,-0.0106,0.0177,0.0043,-15.75,-12.6,-36.68,113.38,-13.28,6.85
3180,51.070915,-4.024144,103,26.31,28.0,292.2,0 / 20,1590062,2020-03-21 14:55:27:374,0.1557,0.5071,9.8526,-0.0006,0.007,9.8066,0.0202,0.0113,-0.0032,-15.44,-13.35,-36.25,111.29,-13.37,6.76
3181,51.070915,-4.024144,103,26.31,28.0,292.2,0 / 20,1590562,2020-03-21 14:55:27:874,-0.113,0.5463,9.7334,-0.0033,-0.0009,9.8067,0.0426,-0.0207,-0.0117,-15.75,-12.97,-37.06,112.31,-13.79,7.1
3182,51.070915,-4.024144,103,26.31,28.0,292.2,Mar-20,1591061,2020-03-21 14:55:28:373,0.8242,0.5477,10.294,-0.0057,0.008,9.8066,0.049,0.0145,-0.0021,-15.44,-12.6,-36.25,109.88,-14.04,7.12
3183,51.070915,-4.024144,103,26.31,28.0,292.2,Mar-20,1591562,2020-03-21 14:55:28:874,-0.2831,0.6836,9.6319,-0.004,0.0026,9.8067,0.0224,0.0049,0.0,-15.75,-13.35,-35.81,111.92,-14.54,6.76
3184,51.070915,-4.024144,103,26.31,28.0,292.2,Jun-20,1592061,2020-03-21 14:55:29:373,0.0341,-0.2873,9.7146,0.0106,0.0027,9.8066,-0.0277,-0.0143,-0.0053,-15.44,-13.35,-36.25,109.02,-14.54,6.9
3185,51.070915,-4.024144,103,26.31,28.0,292.2,Jun-20,1592562,2020-03-21 14:55:29:874,0.171,-0.0482,9.9039,0.0016,0.0086,9.8066,0.0021,-0.0004,0.0,-15.75,-12.97,-36.25,111.41,-14.73,7.09
3186,51.070915,-4.024144,103,26.31,28.0,292.2,Jun-20,1593062,2020-03-21 14:55:30:374,-0.3181,0.3646,8.9408,-0.0146,-0.0013,9.8066,0.0181,-0.0026,0.0021,-15.75,-12.6,-36.25,111.19,-14.84,7.14
3187,51.070915,-4.024144,103,26.31,28.0,292.2,Jun-20,1593562,2020-03-21 14:55:30:874,0.0739,-0.582,9.3255,0.0004,0.0044,9.8067,-0.0032,-0.009,0.0064,-15.44,-12.6,-36.25,108.55,-14.89,6.36
3188,51.070915,-4.024144,103,26.31,28.0,292.2,Jun-20,1594062,2020-03-21 14:55:31:374,0.6998,0.3579,11.0757,0.0101,-0.0053,9.8066,0.0213,0.0134,0.0053,-15.44,-13.35,-37.06,107.91,-14.73,6.54
3189,51.070915,-4.024144,103,26.31,28.0,292.2,Jun-20,1594562,2020-03-21 14:55:31:874,-0.2219,-0.0187,10.5045,0.0032,-0.0167,9.8066,0.0309,-0.0494,-0.0096,-15.75,-12.97,-36.62,110.93,-14.81,5.91
3190,51.070915,-4.024144,103,26.31,28.0,292.2,Jun-20,1595062,2020-03-21 14:55:32:374,-0.4781,0.0756,8.3967,-0.0143,0.0015,9.8066,-0.0607,0.0198,0.0149,-15.44,-12.97,-36.62,107.81,-14.8,6.44
3191,51.070915,-4.024144,103,26.31,28.0,292.2,Jun-20,1595561,2020-03-21 14:55:32:873,0.513,-0.1279,9.3171,0.0036,0.0016,9.8066,0.0831,-0.0388,-0.0202,-15.44,-12.97,-37.06,107.66,-14.87,6.46
3192,51.070915,-4.024144,103,26.31,28.0,292.2,Jun-20,1596062,2020-03-21 14:55:33:374,0.0013,-0.2244,9.8452,-0.0177,-0.0071,9.8066,-0.0043,0.0038,0.016,-15.44,-12.97,-36.25,108.83,-14.78,6.19
3193,51.070915,-4.024144,103,26.31,28.0,292.2,Jun-20,1596562,2020-03-21 14:55:33:874,0.4482,0.564,10.242,-0.0114,0.0216,9.8066,0.0511,0.0091,0.016,-15.07,-12.97,-35.81,107.79,-15.26,6.45
3194,51.070915,-4.024144,103,26.31,28.0,292.2,Jun-20,1597061,2020-03-21 14:55:34:373,-0.3285,0.5747,10.2388,-0.0187,0.0158,9.8066,-0.0117,0.0038,0.033,-15.07,-12.22,-37.12,104.35,-16.87,5.95
3195,51.070915,-4.024144,103,26.31,28.0,292.2,Jun-20,1597562,2020-03-21 14:55:34:874,-0.4007,0.2209,10.5446,-0.0148,0.0167,9.8066,-0.032,0.0294,0.0383,-14.69,-12.97,-37.12,100.76,-18.22,5.24
3196,51.070915,-4.024144,103,26.31,28.0,292.2,Apr-20,1598062,2020-03-21 14:55:35:374,0.6713,0.0353,10.2044,-0.0142,0.0017,9.8066,0.0256,-0.0175,0.0309,-14.32,-12.6,-36.68,95.47,-19.07,4.62
3197,51.070915,-4.024144,103,26.31,28.0,292.2,Apr-20,1598561,2020-03-21 14:55:35:873,-0.0887,0.1614,9.2174,0.0073,0.013,9.8066,0.0277,-0.0143,0.0192,-14.32,-12.6,-36.25,94.79,-19.85,4.34
3198,51.070915,-4.024144,103,26.31,28.0,292.2,Jul-20,1599062,2020-03-21 14:55:36:374,-0.5467,-0.5181,9.3455,0.0027,-0.01,9.8066,0.0352,-0.0004,0.0298,-13.94,-12.22,-37.56,93.56,-19.41,4.53
3199,51.070915,-4.024144,103,26.31,28.0,292.2,Jul-20,1599562,2020-03-21 14:55:36:874,0.3176,-0.2892,9.7275,-0.0076,-0.014,9.8066,0.0373,-0.0122,0.0341,-13.57,-11.85,-37.56,98.13,-17.66,4.38
3200,51.071697,-4.029339,93,23.62,22.0,285.5,Jul-20,1600062,2020-03-21 14:55:37:374,0.3424,-1.267,10.395,0.0075,-0.0339,9.8066,-0.0181,-0.0058,0.0447,-13.19,-12.97,-36.68,97.31,-16.87,2.94
3201,51.071697,-4.029339,93,23.62,22.0,285.5,Jul-20,1600562,2020-03-21 14:55:37:874,0.198,-0.4701,8.6853,-0.008,-0.0043,9.8066,0.0085,0.0017,0.0447,-12.82,-12.97,-37.56,99.08,-15.77,2.67
3202,51.071697,-4.029339,93,23.62,22.0,285.5,Jul-20,1601062,2020-03-21 14:55:38:374,-0.0875,0.3362,9.8463,-0.0012,0.021,9.8066,0.0405,-0.0068,0.0202,-12.44,-12.6,-37.12,95.64,-16.1,3.21
3203,51.071697,-4.029339,93,23.62,22.0,285.5,Jul-20,1601562,2020-03-21 14:55:38:874,-0.0838,0.0597,9.6298,-0.0046,0.0192,9.8066,-0.0394,-0.0079,0.0351,-12.07,-12.97,-36.68,89.87,-18.4,3.37
3204,51.071697,-4.029339,93,23.62,22.0,285.5,Jul-20,1602062,2020-03-21 14:55:39:374,0.8187,0.4106,9.1633,0.0156,0.0188,9.8066,0.0501,0.0464,0.0213,-11.69,-12.97,-37.12,85.84,-20.05,3.58
3205,51.071697,-4.029339,93,23.62,22.0,285.5,Jul-20,1602562,2020-03-21 14:55:39:874,0.2084,0.2906,10.7232,-0.005,-0.0006,9.8067,-0.0234,-0.059,0.032,-11.69,-13.35,-37.56,81.81,-21.35,4.26
3206,51.071697,-4.029339,93,23.62,22.0,285.5,Jul-20,1603063,2020-03-21 14:55:40:375,-0.1038,0.3909,10.3484,0.014,0.0072,9.8066,-0.0767,-0.026,0.0383,-12.07,-13.72,-37.56,81.08,-22.07,4.69
3207,51.071697,-4.029339,93,23.62,22.0,285.5,Jul-20,1603562,2020-03-21 14:55:40:874,0.0553,0.3889,8.8088,0.0215,0.0536,9.8065,-0.0426,0.0262,0.0256,-11.38,-14.47,-37.12,76.3,-23.35,4.41
3208,51.071697,-4.029339,93,23.62,22.0,285.5,Jul-20,1604062,2020-03-21 14:55:41:374,1.2833,0.0799,9.0057,0.0229,0.0375,9.8066,0.0245,0.0166,-0.0021,-11.69,-14.1,-37.56,74.31,-25.46,5.21
3209,51.071697,-4.029339,93,23.62,22.0,285.5,Jul-20,1604562,2020-03-21 14:55:41:874,0.8467,0.2586,9.741,0.0447,0.0392,9.8065,-0.0288,0.0209,0.0043,-11.69,-14.47,-37.56,72.78,-26.81,6.38
3210,51.071697,-4.029339,93,23.62,22.0,285.5,Jul-20,1605062,2020-03-21 14:55:42:374,0.3486,0.4048,8.4968,0.0191,-0.022,9.8066,0.0362,-0.0249,-0.0213,-12.07,-14.47,-37.12,72.79,-28.1,7.61
3211,51.071697,-4.029339,93,23.62,22.0,285.5,Jul-20,1605562,2020-03-21 14:55:42:874,-0.3135,-0.9867,9.4598,-0.0062,-0.0352,9.8066,-0.0096,-0.0015,-0.0021,-11.69,-14.1,-37.56,73.53,-27.41,8.34
3212,51.071697,-4.029339,93,23.62,22.0,285.5,Apr-20,1606061,2020-03-21 14:55:43:373,-0.2369,-1.0618,9.8665,-0.0079,-0.0255,9.8066,0.0192,0.0049,-0.0011,-11.0,-14.47,-36.68,75.23,-25.62,8.23
3213,51.071697,-4.029339,93,23.62,22.0,285.5,Apr-20,1606562,2020-03-21 14:55:43:874,-0.4469,-0.8478,9.629,-0.0005,-0.0093,9.8066,-0.0245,0.0102,0.0138,-11.69,-14.47,-37.5,80.3,-24.14,7.94
3214,51.071697,-4.029339,93,23.62,22.0,285.5,May-20,1607062,2020-03-21 14:55:44:374,0.0472,-0.4616,10.3438,-0.028,-0.0194,9.8066,0.017,-0.0058,0.0415,-11.0,-14.47,-37.12,79.16,-23.02,7.19
3215,51.071697,-4.029339,93,23.62,22.0,285.5,May-20,1607562,2020-03-21 14:55:44:874,-1.5635,-1.2111,9.9272,-0.1038,-0.0304,9.8061,0.0298,0.0134,0.1662,-10.63,-15.16,-37.5,80.99,-21.29,3.96
3216,51.071697,-4.029339,93,23.62,22.0,285.5,Aug-20,1608061,2020-03-21 14:55:45:373,-2.0733,-0.0765,9.2951,-0.0712,0.0031,9.8064,0.0416,-0.0164,0.2855,-8.37,-15.74,-37.02,71.34,-19.41,-2.11
3217,51.071697,-4.029339,93,23.62,22.0,285.5,Aug-20,1608561,2020-03-21 14:55:45:873,-1.4041,1.2332,11.1051,-0.0776,0.0327,9.8063,0.0597,-0.0473,0.4847,-3.21,-15.94,-36.64,49.09,-17.0,-9.21
3218,51.071697,-4.029339,93,23.62,22.0,285.5,Aug-20,1609062,2020-03-21 14:55:46:374,-0.7212,1.0572,10.565,-0.0793,0.0307,9.8063,0.1236,-0.0494,0.3931,1.17,-15.57,-37.46,30.2,-14.21,-14.46
3219,51.071697,-4.029339,93,23.62,22.0,285.5,Aug-20,1609562,2020-03-21 14:55:46:874,-0.6052,0.5247,10.8322,-0.0399,0.0081,9.8066,0.0639,-0.0239,0.3952,4.81,-13.92,-36.67,15.38,-10.14,-15.99
3220,51.071697,-4.029339,93,23.62,22.0,285.5,Aug-20,1610062,2020-03-21 14:55:47:374,1.0947,-1.223,8.7043,-0.007,-0.0221,9.8066,0.1459,-0.0303,0.1992,7.22,-12.56,-37.27,12.31,-7.35,-15.54
3221,51.071697,-4.029339,93,23.62,22.0,285.5,Aug-20,1610561,2020-03-21 14:55:47:873,0.5716,-2.9409,9.0279,0.0233,-0.0646,9.8064,0.0213,0.0006,-0.0266,9.09,-10.0,-37.71,14.45,-6.26,-9.77
3222,51.071697,-4.029339,93,23.62,22.0,285.5,Aug-20,1611062,2020-03-21 14:55:48:374,1.9133,-2.9008,9.4471,0.0446,-0.0685,9.8063,-0.0746,0.0177,-0.1779,7.97,-10.38,-37.71,33.33,-7.29,-2.37
3223,51.071697,-4.029339,93,23.62,22.0,285.5,Aug-20,1611562,2020-03-21 14:55:48:874,2.9254,-1.5806,10.0122,0.0814,-0.0518,9.8062,-0.0426,0.0358,-0.277,6.47,-11.44,-37.27,55.35,-7.26,6.48
3224,51.071697,-4.029339,93,23.62,22.0,285.5,Aug-20,1612062,2020-03-21 14:55:49:374,1.765,-0.8052,10.005,0.0575,-0.0299,9.8064,-0.0565,0.0422,-0.278,3.9,-13.31,-37.27,70.97,-6.2,14.31
3225,51.071697,-4.029339,93,23.62,22.0,285.5,Aug-20,1612562,2020-03-21 14:55:49:874,-0.0495,-0.2294,9.7773,-0.0081,-0.0192,9.8066,-0.033,-0.009,-0.1396,1.42,-14.54,-36.77,81.98,-4.83,17.57
3226,51.071697,-4.029339,93,23.62,22.0,285.5,Aug-20,1613062,2020-03-21 14:55:50:374,-1.9751,0.651,9.9519,-0.0466,0.0088,9.8065,0.0075,-0.0335,0.033,1.74,-14.16,-36.77,79.42,-4.36,15.93
3227,51.071697,-4.029339,93,23.62,22.0,285.5,Aug-20,1613562,2020-03-21 14:55:50:874,-3.3079,1.0388,10.0853,-0.0724,0.0091,9.8064,-0.0021,-0.058,0.1822,2.11,-14.54,-36.77,76.96,-4.96,10.06
3228,51.071697,-4.029339,93,23.62,22.0,285.5,Jul-20,1614062,2020-03-21 14:55:51:374,-2.4938,0.8033,9.6464,-0.1033,0.0333,9.806,0.0224,-0.0207,0.1907,4.74,-13.41,-36.77,63.77,-4.19,3.86
3229,51.071697,-4.029339,93,23.62,22.0,285.5,Jul-20,1614562,2020-03-21 14:55:51:874,-1.1206,0.9504,9.9967,-0.0401,0.0404,9.8065,0.1332,-0.0196,0.1438,6.92,-11.91,-36.77,51.86,-3.51,-0.34
3230,51.071583,-4.032204,72,14.23,7.0,239.5,Oct-20,1615063,2020-03-21 14:55:52:375,0.0343,-0.1587,10.2362,-0.0098,0.0045,9.8066,0.017,-0.0122,0.0895,7.37,-11.6,-38.06,48.11,-3.26,-2.65
3231,51.071583,-4.032204,72,14.23,7.0,239.5,Oct-20,1615562,2020-03-21 14:55:52:874,1.1482,-0.618,9.8492,0.0177,-0.0137,9.8066,0.0416,-0.0026,0.0309,8.49,-10.91,-37.62,45.35,-3.03,-1.31
3232,51.071583,-4.032204,72,14.23,7.0,239.5,Oct-20,1616062,2020-03-21 14:55:53:374,0.7872,-0.3657,9.9658,0.0385,-0.015,9.8066,0.0,0.007,0.0202,8.87,-10.54,-37.62,44.93,-3.43,0.34
3233,51.071583,-4.032204,72,14.23,7.0,239.5,Oct-20,1616562,2020-03-21 14:55:53:874,0.9515,-0.0745,10.6989,0.0239,-0.0131,9.8066,0.0064,-0.0132,0.0011,9.24,-10.16,-36.74,43.65,-4.08,1.64
3234,51.071583,-4.032204,72,14.23,7.0,239.5,Oct-20,1617062,2020-03-21 14:55:54:374,1.3541,-0.064,9.9975,0.0247,0.0064,9.8066,0.0075,-0.01,-0.0021,8.87,-10.16,-37.62,42.49,-7.0,3.58
3235,51.071583,-4.032204,72,14.23,7.0,239.5,Oct-20,1617562,2020-03-21 14:55:54:874,0.2764,-0.0946,9.4268,0.0182,0.0069,9.8066,-0.0256,-0.0026,-0.0021,8.49,-10.16,-37.18,43.2,-9.67,4.85
3236,51.071583,-4.032204,72,14.23,7.0,239.5,Oct-20,1618062,2020-03-21 14:55:55:374,0.0561,0.1336,10.2206,0.0024,0.0001,9.8067,-0.0937,-0.0207,0.0266,8.49,-10.91,-37.18,43.63,-11.74,5.37
3237,51.071583,-4.032204,72,14.23,7.0,239.5,Oct-20,1618562,2020-03-21 14:55:55:874,-0.2995,-0.3102,8.8611,0.016,-0.0105,9.8066,0.0,-0.0026,-0.0032,8.87,-11.29,-36.74,42.71,-11.63,5.94
3238,51.071583,-4.032204,72,14.23,7.0,239.5,Oct-20,1619062,2020-03-21 14:55:56:374,0.1405,-0.2556,9.3433,-0.0057,-0.0014,9.8066,0.0224,-0.0068,-0.0011,8.87,-10.91,-37.18,43.15,-11.87,6.49
3239,51.071583,-4.032204,72,14.23,7.0,239.5,Oct-20,1619562,2020-03-21 14:55:56:874,-0.3627,0.3102,9.926,0.0008,0.0054,9.8066,0.0234,0.0049,-0.0011,9.62,-10.91,-37.18,41.05,-11.61,5.95
3240,51.071583,-4.032204,72,14.23,7.0,239.5,Oct-20,1620062,2020-03-21 14:55:57:374,0.4838,-0.2453,10.2941,0.0138,-0.0059,9.8066,0.0469,0.0155,0.0064,9.62,-11.29,-36.74,41.01,-11.61,5.93
3241,51.071583,-4.032204,72,14.23,7.0,239.5,Oct-20,1620562,2020-03-21 14:55:57:874,-0.058,0.0581,9.8173,-0.0057,0.0019,9.8067,0.0192,0.0059,0.016,9.24,-10.54,-37.62,42.21,-11.61,5.67
3242,51.071583,-4.032204,72,14.23,7.0,239.5,Oct-20,1621062,2020-03-21 14:55:58:374,-0.3327,-0.3825,9.247,0.0014,0.0052,9.8066,-0.0138,0.0177,0.0256,9.24,-10.16,-37.62,40.03,-11.54,5.51
3243,51.071583,-4.032204,72,14.23,7.0,239.5,Oct-20,1621562,2020-03-21 14:55:58:874,-0.1486,-0.0781,9.481,-0.0035,-0.0084,9.8066,0.0469,0.0081,0.0032,9.62,-10.91,-37.18,39.64,-11.55,4.84
3244,51.071583,-4.032204,72,14.23,7.0,239.5,0 / 20,1622062,2020-03-21 14:55:59:374,-0.0259,0.2974,10.2873,0.0002,-0.0088,9.8066,0.0085,-0.0036,0.0138,9.62,-10.16,-37.18,38.7,-11.43,5.58
3245,51.071583,-4.032204,72,14.23,7.0,239.5,0 / 20,1622562,2020-03-21 14:55:59:874,-0.4365,0.18,10.2139,-0.0093,-0.0005,9.8066,-0.0053,-0.0441,0.0128,9.24,-9.79,-37.18,41.26,-11.2,6.04
3246,51.071583,-4.032204,72,14.23,7.0,239.5,Jun-20,1623062,2020-03-21 14:56:00:374,-0.2102,-0.2236,9.7879,-0.0068,0.0048,9.8066,-0.0341,0.0081,0.0234,9.93,-9.41,-37.18,37.22,-11.0,5.75
3247,51.071583,-4.032204,72,14.23,7.0,239.5,Jun-20,1623563,2020-03-21 14:56:00:875,-0.5152,0.1949,9.3103,0.002,-0.0009,9.8067,-0.0181,0.0081,0.016,10.3,-9.04,-37.18,37.89,-10.54,5.9
3248,51.070683,-4.033717,63,16.58,16.0,221.5,Aug-20,1624062,2020-03-21 14:56:01:374,-0.0479,-0.7452,10.0538,-0.002,-0.0114,9.8066,0.0181,0.0145,0.0075,9.62,-9.79,-37.62,40.3,-10.07,5.82
3249,51.070683,-4.033717,63,16.58,16.0,221.5,Aug-20,1624562,2020-03-21 14:56:01:874,-0.1235,0.0421,9.6299,-0.0142,-0.0028,9.8066,0.0,-0.0164,0.0096,10.3,-9.41,-37.18,39.07,-9.52,6.0
3250,51.070683,-4.033717,63,16.58,16.0,221.5,Aug-20,1625061,2020-03-21 14:56:02:373,-0.2391,-0.1503,9.8388,-0.0105,-0.0107,9.8066,-0.0128,-0.0143,0.0085,10.68,-9.41,-37.62,38.21,-8.7,6.04
3251,51.070683,-4.033717,63,16.58,16.0,221.5,Aug-20,1625562,2020-03-21 14:56:02:874,-0.0816,-0.7909,9.9716,-0.0103,-0.0099,9.8066,0.0085,0.0017,0.0064,10.3,-9.04,-37.18,40.58,-8.41,6.22
3252,51.070683,-4.033717,63,16.58,16.0,221.5,Aug-20,1626062,2020-03-21 14:56:03:374,0.1126,-0.2316,9.5585,0.002,-0.0101,9.8066,0.0192,-0.0015,-0.0064,9.93,-9.41,-37.62,41.33,-7.81,6.29
3253,51.070683,-4.033717,63,16.58,16.0,221.5,Aug-20,1626561,2020-03-21 14:56:03:873,-0.079,0.1015,10.0138,-0.0005,0.001,9.8067,-0.033,-0.0058,0.0043,10.3,-8.29,-37.18,40.74,-7.46,7.13
3254,51.070683,-4.033717,63,16.58,16.0,221.5,Aug-20,1627062,2020-03-21 14:56:04:374,0.139,0.6754,9.8728,-0.0037,0.006,9.8067,-0.0117,0.0038,0.0032,10.3,-9.41,-37.62,43.19,-7.23,7.12
3255,51.070683,-4.033717,63,16.58,16.0,221.5,Aug-20,1627562,2020-03-21 14:56:04:874,0.2521,0.679,9.568,0.0,-0.0007,9.8067,0.016,-0.0217,-0.0085,9.93,-9.41,-37.18,43.3,-7.12,7.11
3256,51.070683,-4.033717,63,16.58,16.0,221.5,Aug-20,1628062,2020-03-21 14:56:05:374,-0.0868,0.114,9.6322,-0.001,0.0006,9.8067,-0.0064,-0.0164,-0.0053,9.93,-9.41,-38.06,43.71,-6.99,7.28
3257,51.070683,-4.033717,63,16.58,16.0,221.5,Aug-20,1628562,2020-03-21 14:56:05:874,0.126,0.2231,9.891,0.0013,-0.0003,9.8067,0.0192,0.0262,-0.0011,9.93,-9.04,-38.49,44.11,-6.99,7.57
3258,51.070683,-4.033717,63,16.58,16.0,221.5,Aug-20,1629062,2020-03-21 14:56:06:374,0.3686,-0.3517,10.0092,0.0067,-0.0023,9.8066,0.033,0.0102,-0.0064,9.99,-9.04,-37.62,44.65,-6.92,7.9
3259,51.070683,-4.033717,63,16.58,16.0,221.5,Aug-20,1629561,2020-03-21 14:56:06:873,0.0624,-0.239,9.4006,-0.0015,-0.0004,9.8066,0.0139,-0.0036,0.0,10.3,-9.79,-37.62,46.31,-6.9,7.64
3260,51.070683,-4.033717,63,16.58,16.0,221.5,0 / 20,1630062,2020-03-21 14:56:07:374,0.09,0.0551,10.0189,-0.0041,0.0027,9.8066,-0.0085,-0.01,0.0043,9.99,-9.41,-37.62,43.84,-7.04,7.42
3261,51.070683,-4.033717,63,16.58,16.0,221.5,0 / 20,1630562,2020-03-21 14:56:07:874,0.006,-0.2529,9.7404,0.0011,0.0069,9.8066,-0.0011,0.0091,0.0011,10.3,-9.41,-37.68,43.31,-7.13,7.12
3262,51.070683,-4.033717,63,16.58,16.0,221.5,May-20,1631063,2020-03-21 14:56:08:375,0.3717,0.0575,9.7366,0.0101,0.0093,9.8066,0.0043,-0.0122,-0.0075,10.3,-9.41,-37.18,43.01,-7.38,7.12
3263,51.070683,-4.033717,63,16.58,16.0,221.5,May-20,1631562,2020-03-21 14:56:08:874,-0.0015,0.18,9.6743,0.0068,-0.0047,9.8066,0.0032,-0.0015,-0.0085,9.99,-9.41,-37.24,42.2,-7.95,7.01
3264,51.070683,-4.033717,63,16.58,16.0,221.5,Jul-20,1632062,2020-03-21 14:56:09:374,0.4199,-0.4975,9.7742,0.0058,0.001,9.8066,0.0085,-0.0111,-0.0043,9.99,-9.79,-38.06,44.61,-8.3,7.6
3265,51.070683,-4.033717,63,16.58,16.0,221.5,Jul-20,1632562,2020-03-21 14:56:09:874,-0.112,0.2285,9.4481,0.0214,-0.0055,9.8066,0.0107,0.0081,-0.0075,9.99,-9.79,-37.18,43.72,-8.89,7.4
3266,51.070683,-4.033717,63,16.58,16.0,221.5,Jul-20,1633062,2020-03-21 14:56:10:374,-0.2743,0.3276,9.7575,0.0099,0.0024,9.8066,-0.0394,-0.0196,0.0021,9.62,-9.04,-37.62,42.05,-9.4,8.09
3267,51.070683,-4.033717,63,16.58,16.0,221.5,Jul-20,1633562,2020-03-21 14:56:10:874,0.1857,0.1355,9.569,0.0119,0.0018,9.8066,0.0224,0.0145,-0.0075,9.62,-9.04,-37.62,41.35,-9.86,7.93
3268,51.070683,-4.033717,63,16.58,16.0,221.5,Jul-20,1634062,2020-03-21 14:56:11:374,0.3984,-0.2118,9.4029,0.0089,0.0011,9.8066,0.0533,-0.0154,-0.016,9.62,-9.41,-37.18,41.16,-10.19,8.02
3269,51.070683,-4.033717,63,16.58,16.0,221.5,Jul-20,1634562,2020-03-21 14:56:11:874,-0.3301,0.4083,9.5512,0.0003,0.0104,9.8066,-0.032,0.0219,0.0096,10.3,-9.79,-38.06,42.56,-10.32,7.71
3270,51.070683,-4.033717,63,16.58,16.0,221.5,Jul-20,1635062,2020-03-21 14:56:12:374,-0.373,0.2813,9.6097,-0.0028,0.0176,9.8066,-0.065,0.0123,0.017,10.3,-9.79,-37.18,41.98,-10.56,7.4
3271,51.070683,-4.033717,63,16.58,16.0,221.5,Jul-20,1635562,2020-03-21 14:56:12:874,-0.1425,0.258,9.8221,0.0015,0.0035,9.8066,0.0288,-0.0217,-0.0021,9.62,-9.79,-37.18,41.2,-10.69,6.9
3272,51.070683,-4.033717,63,16.58,16.0,221.5,Jul-20,1636062,2020-03-21 14:56:13:374,-0.025,-0.5235,10.1678,0.0011,-0.0029,9.8067,0.016,0.0134,0.0064,9.99,-9.41,-37.18,39.13,-10.44,6.71
3273,51.070683,-4.033717,63,16.58,16.0,221.5,Jul-20,1636562,2020-03-21 14:56:13:874,-0.1272,0.0795,10.063,0.0006,-0.0003,9.8067,0.0053,0.0187,0.0032,9.99,-9.41,-37.62,38.74,-10.38,6.44
3274,51.070683,-4.033717,63,16.58,16.0,221.5,Jul-20,1637062,2020-03-21 14:56:14:374,0.3597,-0.424,9.7299,0.0011,-0.0005,9.8066,0.0256,0.0166,0.0043,9.99,-9.04,-37.18,39.43,-10.37,6.88
3275,51.070683,-4.033717,63,16.58,16.0,221.5,Jul-20,1637562,2020-03-21 14:56:14:874,0.0274,-0.1884,9.1678,0.0028,-0.0052,9.8066,0.032,-0.0068,-0.0032,10.3,-9.41,-37.62,39.48,-10.2,6.83
3276,51.070683,-4.033717,63,16.58,16.0,221.5,Jul-20,1638062,2020-03-21 14:56:15:374,-0.294,0.7597,9.3288,0.0005,0.0027,9.8066,-0.017,-0.0079,0.0064,9.99,-8.66,-36.81,39.61,-10.2,6.89
3277,51.070683,-4.033717,63,16.58,16.0,221.5,Jul-20,1638561,2020-03-21 14:56:15:873,-0.4968,0.3181,9.6388,-0.0067,0.0014,9.8066,-0.0309,-0.0175,0.0064,9.93,-9.41,-37.18,39.87,-9.98,6.91
3278,51.070683,-4.033717,63,16.58,16.0,221.5,Apr-20,1639061,2020-03-21 14:56:16:373,-0.0334,0.686,9.2822,0.0047,-0.0027,9.8066,-0.0234,0.0198,0.0085,9.93,-9.41,-37.18,39.78,-9.97,6.83
3279,51.070683,-4.033717,63,16.58,16.0,221.5,Apr-20,1639562,2020-03-21 14:56:16:874,-0.6331,0.1898,9.8308,-0.0031,-0.0053,9.8066,-0.0341,-0.0122,0.0053,10.3,-9.04,-37.18,40.03,-9.86,6.93
3280,51.070683,-4.033717,63,16.58,16.0,221.5,May-20,1640062,2020-03-21 14:56:17:374,-0.0154,-0.0736,9.6371,-0.0006,-0.0005,9.8067,-0.0202,-0.0026,0.0011,9.62,-8.66,-36.74,40.34,-9.74,7.07
3281,51.070683,-4.033717,63,16.58,16.0,221.5,May-20,1640563,2020-03-21 14:56:17:875,-0.2048,0.6168,9.4003,0.0025,0.0037,9.8067,-0.0309,-0.0058,0.0053,9.93,-9.41,-37.18,40.86,-9.61,7.35
3282,51.070683,-4.033717,63,16.58,16.0,221.5,Jun-20,1641061,2020-03-21 14:56:18:373,0.3162,-0.2285,10.318,0.0013,-0.0048,9.8066,0.0139,0.0187,-0.0021,9.62,-9.79,-37.18,42.73,-9.55,7.17
3283,51.070683,-4.033717,63,16.58,16.0,221.5,Jun-20,1641562,2020-03-21 14:56:18:874,0.0861,0.3624,9.6154,-0.002,0.0104,9.8066,-0.0053,-0.0015,0.0011,9.62,-9.41,-37.62,41.3,-9.44,7.56
3284,51.070683,-4.033717,63,16.58,16.0,221.5,Aug-20,1642062,2020-03-21 14:56:19:374,-0.2953,0.3904,9.8726,0.0042,0.002,9.8066,-0.0192,0.0187,0.0053,9.62,-9.79,-37.18,42.68,-9.56,7.14
3285,51.070683,-4.033717,63,16.58,16.0,221.5,Aug-20,1642562,2020-03-21 14:56:19:874,-0.2662,0.1127,9.356,0.0001,0.0026,9.8067,-0.0138,0.0091,-0.0011,9.93,-9.41,-37.62,40.54,-9.49,7.05
3286,51.070683,-4.033717,63,16.58,16.0,221.5,Aug-20,1643062,2020-03-21 14:56:20:374,0.3857,0.5544,9.4894,0.0085,-0.0066,9.8066,0.0565,-0.0175,-0.0139,9.62,-9.04,-37.18,41.11,-9.49,7.44
3287,51.070683,-4.033717,63,16.58,16.0,221.5,Aug-20,1643563,2020-03-21 14:56:20:875,0.0285,-0.1203,9.5182,0.0095,0.0008,9.8066,-0.0106,0.023,0.0032,9.93,-9.04,-37.18,41.25,-9.38,7.47
3288,51.070683,-4.033717,63,16.58,16.0,221.5,Aug-20,1644062,2020-03-21 14:56:21:374,-0.1907,0.0337,9.4854,0.0031,0.0074,9.8066,-0.0021,0.0091,0.0043,9.93,-9.41,-37.18,41.11,-9.31,7.3
3289,51.070683,-4.033717,63,16.58,16.0,221.5,Aug-20,1644562,2020-03-21 14:56:21:874,-0.2913,0.5394,9.5387,0.0017,0.0022,9.8067,-0.016,0.0155,0.0053,9.93,-9.41,-37.18,40.7,-9.47,7.13
3290,51.070683,-4.033717,63,16.58,16.0,221.5,Aug-20,1645062,2020-03-21 14:56:22:374,-0.2677,0.2656,10.0847,-0.0041,0.0058,9.8066,0.0405,-0.0015,-0.0032,9.62,-8.66,-38.06,40.52,-9.48,7.03
3291,51.070683,-4.033717,63,16.58,16.0,221.5,Aug-20,1645562,2020-03-21 14:56:22:874,0.0351,0.24,10.3608,-0.0059,0.0094,9.8066,-0.0224,0.0454,0.0181,9.93,-9.41,-37.18,40.12,-9.51,6.74
3292,51.06745,-4.037796,69,21.88,39.0,218.1,Aug-20,1646062,2020-03-21 14:56:23:374,-0.273,0.1973,9.9013,-0.0005,0.0024,9.8067,-0.0671,0.0283,0.016,9.62,-10.54,-37.18,43.86,-9.68,6.65
3293,51.06745,-4.037796,69,21.88,39.0,218.1,Aug-20,1646562,2020-03-21 14:56:23:874,-0.0145,0.0583,9.3397,-0.0027,0.0049,9.8066,-0.0128,0.0294,-0.0021,9.62,-10.16,-38.06,41.87,-9.57,6.58
3294,51.06745,-4.037796,69,21.88,39.0,218.1,Aug-20,1647062,2020-03-21 14:56:24:374,0.0945,0.0122,10.0476,0.0001,0.0005,9.8067,0.0032,0.0091,-0.0064,9.62,-10.16,-38.06,42.25,-9.46,6.79
3295,51.06745,-4.037796,69,21.88,39.0,218.1,Aug-20,1647562,2020-03-21 14:56:24:874,-0.1985,-0.4399,10.4439,-0.0049,-0.003,9.8066,-0.0597,-0.0058,0.0,9.62,-10.16,-37.18,42.16,-9.63,6.8
3296,51.06745,-4.037796,69,21.88,39.0,218.1,Jul-20,1648062,2020-03-21 14:56:25:374,-0.4168,-0.2781,8.9323,0.0044,-0.0075,9.8066,-0.0394,0.0145,-0.0181,9.93,-11.29,-37.18,43.99,-9.53,6.62
3297,51.06745,-4.037796,69,21.88,39.0,218.1,Jul-20,1648562,2020-03-21 14:56:25:874,0.3086,0.1316,9.3852,0.0007,0.0208,9.8066,-0.0266,0.0315,-0.0096,9.24,-11.6,-36.74,47.76,-9.54,6.69
3298,51.06745,-4.037796,69,21.88,39.0,218.1,Jul-20,1649062,2020-03-21 14:56:26:374,0.0528,0.0055,9.8883,-0.0004,-0.0029,9.8067,-0.0021,-0.0228,-0.0234,8.49,-13.1,-36.74,51.12,-9.65,6.52
3299,51.06745,-4.037796,69,21.88,39.0,218.1,Jul-20,1649562,2020-03-21 14:56:26:874,-0.2326,-0.0777,10.3475,-0.0249,-0.015,9.8066,-0.0256,-0.0345,-0.0192,8.87,-13.1,-37.18,49.09,-9.64,6.44
3300,51.06745,-4.037796,69,21.88,39.0,218.1,Jul-20,1650062,2020-03-21 14:56:27:374,0.4835,-0.193,9.5835,0.0001,0.0014,9.8067,0.0298,-0.0004,-0.0394,8.49,-13.47,-37.18,50.32,-9.88,6.05
3301,51.06745,-4.037796,69,21.88,39.0,218.1,Jul-20,1650561,2020-03-21 14:56:27:873,-0.0517,0.2068,8.5916,0.0231,0.0011,9.8066,-0.0138,0.0507,-0.0224,8.12,-14.22,-36.74,52.21,-9.88,6.28
3302,51.06745,-4.037796,69,21.88,39.0,218.1,Jul-20,1651062,2020-03-21 14:56:28:374,0.5702,-0.3227,9.2158,0.0201,-0.0085,9.8066,0.0948,-0.0271,-0.0511,6.62,-13.47,-36.74,53.32,-9.86,6.89
3303,51.06745,-4.037796,69,21.88,39.0,218.1,Jul-20,1651562,2020-03-21 14:56:28:874,0.0806,-0.5768,10.4589,0.005,-0.0054,9.8066,-0.0043,0.023,-0.0234,8.12,-13.47,-36.74,51.3,-9.88,6.93
3304,51.06745,-4.037796,69,21.88,39.0,218.1,Jul-20,1652062,2020-03-21 14:56:29:374,0.1377,-0.0149,9.4199,-0.0049,0.0061,9.8066,-0.0096,-0.0004,-0.0213,7.37,-13.1,-36.31,54.1,-9.96,7.59
3305,51.06745,-4.037796,69,21.88,39.0,218.1,Jul-20,1652562,2020-03-21 14:56:29:874,-0.2473,-0.2166,9.8992,0.0022,-0.0048,9.8066,-0.0426,-0.0058,-0.0181,7.37,-13.1,-36.74,54.26,-9.85,7.77
3306,51.06745,-4.037796,69,21.88,39.0,218.1,Jul-20,1653061,2020-03-21 14:56:30:373,0.0527,0.6741,9.9504,0.0026,-0.0007,9.8067,0.0362,-0.0143,-0.0501,6.99,-13.85,-36.74,55.67,-9.84,7.67
3307,51.06745,-4.037796,69,21.88,39.0,218.1,Jul-20,1653562,2020-03-21 14:56:30:874,-0.2015,0.7366,10.0337,-0.0152,0.0009,9.8066,-0.0554,-0.0356,-0.0202,6.62,-14.22,-36.74,55.53,-10.0,7.71
3308,51.06745,-4.037796,69,21.88,39.0,218.1,Jul-20,1654062,2020-03-21 14:56:31:374,-0.6245,0.2312,8.4022,0.0118,-0.0006,9.8066,-0.0437,0.0219,-0.032,5.87,-14.22,-35.43,57.89,-10.12,7.75
3309,51.06745,-4.037796,69,21.88,39.0,218.1,Jul-20,1654561,2020-03-21 14:56:31:873,0.7052,-0.4825,9.2734,0.0164,-0.0041,9.8066,0.0373,0.0283,-0.0543,6.24,-15.35,-36.31,58.92,-10.28,7.82
3310,51.06745,-4.037796,69,21.88,39.0,218.1,Jul-20,1655062,2020-03-21 14:56:32:374,0.2469,0.1184,10.0128,-0.0041,0.0002,9.8066,-0.0106,-0.0026,-0.0288,5.87,-14.97,-35.87,59.17,-10.51,8.4
3311,51.06745,-4.037796,69,21.88,39.0,218.1,Jul-20,1655562,2020-03-21 14:56:32:874,-0.4078,0.2159,9.5039,-0.0063,-0.0012,9.8066,-0.017,-0.0026,-0.0373,5.55,-14.97,-35.06,58.34,-11.06,7.94
3312,51.06745,-4.037796,69,21.88,39.0,218.1,Mar-20,1656062,2020-03-21 14:56:33:374,-0.2422,0.3788,9.1916,0.0028,0.0052,9.8066,-0.0628,0.0102,-0.0245,4.05,-15.66,-37.18,63.09,-11.54,8.39
3313,51.06745,-4.037796,69,21.88,39.0,218.1,Mar-20,1656562,2020-03-21 14:56:33:874,0.0721,0.561,8.1178,0.0024,0.0159,9.8066,0.0117,0.0454,-0.0309,4.43,-15.35,-36.31,61.88,-11.72,8.3
3314,51.06745,-4.037796,69,21.88,39.0,218.1,May-20,1657062,2020-03-21 14:56:34:374,-0.9253,0.3644,9.9644,0.002,0.0106,9.8066,-0.0106,0.0241,-0.016,3.68,-16.04,-36.74,61.06,-12.25,7.03
3315,51.06745,-4.037796,69,21.88,39.0,218.1,May-20,1657561,2020-03-21 14:56:34:873,-0.4102,0.2235,10.4629,-0.0013,-0.0008,9.8066,-0.033,-0.0058,-0.016,3.68,-16.04,-35.87,60.64,-12.78,6.94
3316,51.06745,-4.037796,69,21.88,39.0,218.1,May-20,1658062,2020-03-21 14:56:35:374,0.3618,0.8747,8.526,0.0129,0.012,9.8066,0.0362,0.0187,-0.0362,3.3,-15.66,-36.31,62.12,-13.16,6.71
3317,51.06745,-4.037796,69,21.88,39.0,218.1,May-20,1658562,2020-03-21 14:56:35:874,0.6284,-0.8697,9.6314,0.0066,0.0047,9.8066,0.0096,0.0198,-0.0384,2.55,-16.04,-35.87,61.53,-13.45,6.46
3318,51.0654,-4.040939,87,24.63,32.0,234.6,May-20,1659062,2020-03-21 14:56:36:374,-0.1304,-0.4832,10.2887,0.0043,0.0035,9.8066,-0.0181,-0.0164,-0.0256,2.55,-16.41,-36.31,61.44,-13.83,6.89
3319,51.0654,-4.040939,87,24.63,32.0,234.6,May-20,1659562,2020-03-21 14:56:36:874,0.2349,0.3878,9.2795,0.0108,-0.0005,9.8066,0.0298,0.0123,-0.0394,2.18,-16.41,-35.43,63.91,-13.98,6.99
3320,51.0654,-4.040939,87,24.63,32.0,234.6,May-20,1660062,2020-03-21 14:56:37:374,-0.3627,0.2702,9.8279,-0.0145,0.0148,9.8066,-0.0543,0.0091,-0.0139,2.25,-16.91,-35.78,64.03,-14.3,6.73
3321,51.0654,-4.040939,87,24.63,32.0,234.6,May-20,1660562,2020-03-21 14:56:37:874,-0.226,-0.5144,9.4401,0.0028,0.0031,9.8066,-0.0075,0.0209,-0.0256,1.88,-16.53,-35.78,64.22,-14.38,7.08
3322,51.0654,-4.040939,87,24.63,32.0,234.6,May-20,1661062,2020-03-21 14:56:38:374,-0.5223,-0.3282,9.7471,0.0033,-0.0012,9.8067,-0.0373,-0.009,-0.0234,1.19,-16.91,-35.78,66.24,-14.42,6.98
3323,51.0654,-4.040939,87,24.63,32.0,234.6,May-20,1661561,2020-03-21 14:56:38:873,-1.0102,0.6556,9.5985,-0.0022,0.0038,9.8066,-0.0628,0.0006,-0.016,0.81,-16.53,-35.34,66.67,-14.52,7.12
3324,51.0654,-4.040939,87,24.63,32.0,234.6,May-20,1662062,2020-03-21 14:56:39:374,2.2268,-1.7941,10.7948,0.0216,-0.0336,9.8066,0.0735,0.0304,-0.0522,0.81,-16.91,-36.22,65.95,-14.74,7.12
3325,51.0654,-4.040939,87,24.63,32.0,234.6,May-20,1662562,2020-03-21 14:56:39:874,0.5066,-0.2188,9.8978,0.0022,-0.0042,9.8067,0.0256,0.0028,-0.0416,0.44,-16.91,-35.41,68.98,-14.61,7.38
3326,51.0654,-4.040939,87,24.63,32.0,234.6,May-20,1663061,2020-03-21 14:56:40:373,0.0565,0.1412,9.3046,0.0029,-0.0003,9.8067,0.0053,0.0102,-0.032,-0.31,-16.91,-35.41,69.19,-14.69,7.8
3327,51.0654,-4.040939,87,24.63,32.0,234.6,May-20,1663562,2020-03-21 14:56:40:874,-0.2096,-0.1107,10.133,-0.0077,-0.0052,9.8066,-0.0021,-0.0186,-0.0362,-1.06,-16.91,-35.41,71.79,-14.43,7.78
3328,51.0654,-4.040939,87,24.63,32.0,234.6,Jun-20,1664062,2020-03-21 14:56:41:374,0.1091,-0.3926,9.5129,0.0026,0.0027,9.8067,-0.0011,-0.0068,-0.033,-1.06,-17.66,-35.84,72.05,-14.41,7.59
3329,51.0654,-4.040939,87,24.63,32.0,234.6,Jun-20,1664562,2020-03-21 14:56:41:874,-0.178,-0.3488,9.821,0.0024,0.0002,9.8066,-0.0192,0.0059,-0.0224,-1.44,-17.66,-34.97,72.29,-14.47,7.35
3330,51.0654,-4.040939,87,24.63,32.0,234.6,Jul-20,1665061,2020-03-21 14:56:42:373,0.3115,-0.0937,10.1412,-0.0129,-0.0024,9.8066,-0.017,-0.0015,-0.0192,-2.5,-17.28,-35.84,73.22,-14.48,7.26
3331,51.0654,-4.040939,87,24.63,32.0,234.6,Jul-20,1665562,2020-03-21 14:56:42:874,0.2865,-0.051,9.107,0.003,-0.0005,9.8067,0.0053,0.0113,-0.0309,-2.5,-17.28,-34.97,73.68,-14.49,7.18
3332,51.0654,-4.040939,87,24.63,32.0,234.6,Jul-20,1666062,2020-03-21 14:56:43:374,-0.2658,-0.0032,9.2334,-0.0039,0.0053,9.8066,-0.0032,0.0059,-0.0256,-2.5,-17.28,-35.41,73.59,-14.39,6.82
3333,51.0654,-4.040939,87,24.63,32.0,234.6,Jul-20,1666562,2020-03-21 14:56:43:874,-0.6514,-0.5454,9.7192,0.001,-0.0012,9.8066,-0.0522,0.0251,-0.0117,-3.25,-17.28,-35.84,75.16,-14.45,6.44
3334,51.0654,-4.040939,87,24.63,32.0,234.6,Jul-20,1667061,2020-03-21 14:56:44:373,-0.3688,-0.2027,10.5417,0.0016,-0.003,9.8066,-0.0554,0.0166,-0.0053,-3.25,-17.28,-35.41,75.61,-14.39,6.11
3335,51.0654,-4.040939,87,24.63,32.0,234.6,Jul-20,1667562,2020-03-21 14:56:44:874,0.7645,-0.0307,9.1354,0.0063,-0.0033,9.8066,0.0202,0.0102,-0.0266,-3.97,-17.42,-35.36,78.25,-14.44,6.41
3336,51.0654,-4.040939,87,24.63,32.0,234.6,Jul-20,1668062,2020-03-21 14:56:45:374,0.2622,0.5886,9.3395,-0.0028,0.0071,9.8066,0.0192,-0.0047,-0.0309,-3.97,-18.17,-35.8,78.57,-14.22,6.36
3337,51.0654,-4.040939,87,24.63,32.0,234.6,Jul-20,1668562,2020-03-21 14:56:45:874,0.6167,-0.1735,10.0028,0.0149,-0.0006,9.8066,0.0256,0.0017,-0.0394,-4.34,-17.42,-35.8,78.19,-14.2,6.7
3338,51.0654,-4.040939,87,24.63,32.0,234.6,Jul-20,1669062,2020-03-21 14:56:46:374,0.2646,-0.0617,9.602,0.0046,0.0,9.8066,-0.0064,0.0145,-0.0341,-4.72,-17.8,-34.92,82.17,-14.09,7.17
3339,51.0654,-4.040939,87,24.63,32.0,234.6,Jul-20,1669562,2020-03-21 14:56:46:874,0.471,-0.4336,10.1858,0.0016,-0.0042,9.8066,-0.0288,0.0145,-0.0256,-5.09,-17.8,-34.92,82.37,-14.01,7.37
3340,51.0654,-4.040939,87,24.63,32.0,234.6,Jul-20,1670062,2020-03-21 14:56:47:374,0.388,-0.8202,9.7706,0.0072,-0.0053,9.8066,-0.0341,0.0038,-0.032,-5.84,-18.17,-35.73,84.17,-14.05,7.32
3341,51.0654,-4.040939,87,24.63,32.0,234.6,Jul-20,1670561,2020-03-21 14:56:47:873,-0.4795,0.7919,9.5946,-0.0044,0.0048,9.8066,-0.0064,-0.01,-0.0373,-6.15,-18.17,-34.92,84.68,-14.15,7.54
3342,51.0654,-4.040939,87,24.63,32.0,234.6,Jan-20,1671062,2020-03-21 14:56:48:374,0.1302,-0.1539,9.2369,0.0029,0.0078,9.8066,-0.0128,0.0273,-0.0277,-6.53,-18.17,-34.48,87.42,-14.41,7.66
3343,51.0654,-4.040939,87,24.63,32.0,234.6,Jan-20,1671562,2020-03-21 14:56:48:874,-0.2132,-0.2398,9.7467,0.0147,-0.0067,9.8066,-0.0085,-0.0036,-0.032,-6.9,-18.92,-34.92,87.0,-14.36,7.36
3344,51.0654,-4.040939,87,24.63,32.0,234.6,Feb-20,1672062,2020-03-21 14:56:49:374,-0.3645,0.0472,9.7517,0.0002,0.0355,9.8066,-0.0586,0.0091,-0.017,-6.9,-18.55,-35.36,86.09,-15.03,7.48
3345,51.0654,-4.040939,87,24.63,32.0,234.6,Feb-20,1672561,2020-03-21 14:56:49:873,-0.0273,0.835,8.4466,0.0129,0.045,9.8065,0.0458,0.0304,-0.0341,-7.65,-18.17,-34.92,86.67,-16.04,7.12
3346,51.0654,-4.040939,87,24.63,32.0,234.6,May-20,1673062,2020-03-21 14:56:50:374,-0.5025,0.145,10.192,-0.0027,0.0272,9.8066,-0.0394,-0.0004,-0.0181,-8.03,-18.17,-34.48,84.7,-17.92,7.32
3347,51.0654,-4.040939,87,24.63,32.0,234.6,May-20,1673562,2020-03-21 14:56:50:874,-0.1994,0.1139,9.4208,0.0221,0.0179,9.8066,0.0,0.0017,-0.032,-8.4,-17.05,-34.05,82.31,-19.34,7.51
3348,51.0654,-4.040939,87,24.63,32.0,234.6,May-20,1674061,2020-03-21 14:56:51:373,-0.0983,-0.2294,9.494,-0.01,0.0,9.8066,-0.0256,-0.0367,-0.0213,-9.53,-17.8,-34.48,86.57,-20.09,7.78
3349,51.0654,-4.040939,87,24.63,32.0,234.6,May-20,1674562,2020-03-21 14:56:51:874,-0.4825,-1.1545,9.4918,-0.0119,-0.0495,9.8065,-0.016,-0.0271,-0.0202,-8.78,-17.05,-34.48,83.12,-20.57,7.85
3350,51.0654,-4.040939,87,24.63,32.0,234.6,Jun-20,1675062,2020-03-21 14:56:52:374,-0.1498,-0.3344,9.4536,0.0004,-0.0038,9.8067,0.0192,0.0187,-0.016,-9.53,-16.67,-34.92,87.79,-18.63,8.02
3351,51.0654,-4.040939,87,24.63,32.0,234.6,Jun-20,1675562,2020-03-21 14:56:52:874,-0.5547,0.8099,9.2744,-0.0044,0.0341,9.8066,0.0554,0.0177,-0.0149,-9.65,-17.14,-35.77,85.92,-19.28,7.94
3352,51.06383,-4.046339,92,27.16,48.0,249.8,Jul-20,1676062,2020-03-21 14:56:53:374,-0.1235,1.1221,10.3533,0.0026,0.0306,9.8066,0.0586,-0.0068,-0.0149,-10.03,-17.14,-36.15,84.4,-20.21,7.85
3353,51.06383,-4.046339,92,27.16,48.0,249.8,Jul-20,1676562,2020-03-21 14:56:53:874,-0.434,0.3363,9.6471,-0.0025,0.0092,9.8066,-0.0106,-0.0228,-0.0011,-9.65,-16.08,-34.46,83.36,-21.9,8.26
3354,51.06383,-4.046339,92,27.16,48.0,249.8,Jul-20,1677062,2020-03-21 14:56:54:374,0.1425,0.658,9.4849,0.0095,0.0081,9.8066,0.0511,-0.0154,-0.0181,-9.28,-15.71,-37.08,76.6,-23.02,8.6
3355,51.06383,-4.046339,92,27.16,48.0,249.8,Jul-20,1677562,2020-03-21 14:56:54:874,0.1999,-0.4868,10.062,0.0104,0.0094,9.8066,-0.0138,0.0059,-0.0192,-9.28,-15.33,-37.08,75.2,-23.68,9.17
3356,51.06383,-4.046339,92,27.16,48.0,249.8,Feb-20,1678062,2020-03-21 14:56:55:374,0.4026,0.3983,9.9199,0.002,0.0216,9.8066,0.0181,0.0251,-0.0096,-8.9,-15.33,-36.65,73.29,-25.25,9.8
3357,51.06383,-4.046339,92,27.16,48.0,249.8,Feb-20,1678562,2020-03-21 14:56:55:874,0.0019,0.2066,10.2352,-0.0057,0.0151,9.8066,-0.0138,-0.0015,-0.0011,-8.9,-15.33,-36.21,71.7,-26.82,9.54
3358,51.06383,-4.046339,92,27.16,48.0,249.8,Mar-20,1679062,2020-03-21 14:56:56:374,0.5696,-0.2461,10.2523,0.0047,0.0086,9.8066,-0.0011,-0.0047,-0.0021,-8.53,-15.71,-37.08,69.97,-28.01,9.42
3359,51.06383,-4.046339,92,27.16,48.0,249.8,Mar-20,1679562,2020-03-21 14:56:56:874,-0.4833,-0.8107,9.833,-0.0114,-0.0152,9.8066,-0.0064,-0.0164,-0.0096,-8.53,-15.71,-35.77,71.3,-27.6,9.21
3360,51.06383,-4.046339,92,27.16,48.0,249.8,Apr-20,1680061,2020-03-21 14:56:57:373,-1.0461,-0.1201,9.8475,-0.0072,-0.0118,9.8066,-0.0288,-0.01,0.0043,-8.53,-15.71,-35.77,73.11,-26.14,8.93
3361,51.06383,-4.046339,92,27.16,48.0,249.8,Apr-20,1680562,2020-03-21 14:56:57:874,-0.2362,-0.0088,9.6515,-0.0069,-0.0044,9.8066,-0.0043,-0.0186,-0.0011,-8.53,-14.96,-35.77,73.36,-25.17,8.6
3362,51.06383,-4.046339,92,27.16,48.0,249.8,May-20,1681062,2020-03-21 14:56:58:374,0.163,-0.5421,9.4981,-0.0029,0.0022,9.8067,0.0139,0.0049,0.0,-8.15,-15.71,-36.65,71.69,-24.69,8.45
3363,51.06383,-4.046339,92,27.16,48.0,249.8,May-20,1681561,2020-03-21 14:56:58:873,0.5714,-0.9115,10.361,-0.0029,-0.0023,9.8066,0.0139,0.0177,0.0085,-8.53,-15.71,-36.21,75.09,-24.38,8.16
3364,51.06383,-4.046339,92,27.16,48.0,249.8,May-20,1682062,2020-03-21 14:56:59:374,-1.0496,-0.3674,9.3261,-0.0118,-0.0255,9.8066,0.0075,-0.0281,0.0032,-8.15,-15.33,-36.65,74.47,-21.97,7.84
3365,51.06383,-4.046339,92,27.16,48.0,249.8,May-20,1682562,2020-03-21 14:56:59:874,-0.2253,-0.7747,9.5933,-0.006,-0.021,9.8066,0.0565,0.0059,-0.0043,-8.53,-16.08,-36.21,82.75,-19.34,7.61
3366,51.06383,-4.046339,92,27.16,48.0,249.8,May-20,1683062,2020-03-21 14:57:00:374,-1.1566,-0.1259,9.2197,-0.0174,-0.0274,9.8066,0.0341,-0.0004,0.0,-8.15,-16.46,-36.21,83.32,-17.3,7.21
3367,51.06383,-4.046339,92,27.16,48.0,249.8,May-20,1683561,2020-03-21 14:57:00:873,-0.6566,0.1071,9.3752,-0.0111,-0.0221,9.8066,-0.017,0.0091,0.0128,-7.78,-15.33,-36.21,84.58,-16.23,6.8
3368,51.06383,-4.046339,92,27.16,48.0,249.8,Jun-20,1684062,2020-03-21 14:57:01:374,0.1784,-0.1611,9.8157,-0.0074,-0.0062,9.8066,0.0021,-0.0143,0.0032,-8.15,-16.08,-36.65,85.64,-15.33,6.47
3369,51.06383,-4.046339,92,27.16,48.0,249.8,Jun-20,1684562,2020-03-21 14:57:01:874,-0.0249,0.538,9.7564,0.0071,0.0198,9.8066,0.0394,-0.0068,-0.0043,-7.78,-15.71,-37.08,84.53,-15.94,6.38
3370,51.06383,-4.046339,92,27.16,48.0,249.8,Aug-20,1685061,2020-03-21 14:57:02:373,0.6034,0.2438,9.8492,0.0151,0.0104,9.8066,-0.0128,-0.009,0.0085,-7.4,-15.71,-36.21,81.82,-16.47,6.72
3371,51.06383,-4.046339,92,27.16,48.0,249.8,Aug-20,1685562,2020-03-21 14:57:02:874,0.5121,1.6308,10.1069,0.0006,0.0653,9.8064,-0.0213,0.0187,0.0298,-8.15,-16.46,-36.65,79.98,-18.68,6.79
3372,51.06383,-4.046339,92,27.16,48.0,249.8,Aug-20,1686062,2020-03-21 14:57:03:374,-0.3862,0.5216,9.7503,-0.0116,0.0572,9.8065,0.016,0.0113,0.0607,-7.4,-16.46,-35.77,72.84,-21.33,5.4
3373,51.06383,-4.046339,92,27.16,48.0,249.8,Aug-20,1686561,2020-03-21 14:57:03:873,-0.2762,0.103,9.8786,-0.0107,0.0159,9.8066,0.0426,-0.042,0.0692,-7.03,-16.08,-35.77,69.18,-23.08,4.49
3374,51.064705,-4.048035,104,10.26,20.0,292.5,Aug-20,1687062,2020-03-21 14:57:04:374,0.2957,-0.8339,10.1125,-0.0095,-0.009,9.8066,0.0586,-0.0004,0.0948,-6.28,-16.77,-36.21,66.39,-23.58,3.7
3375,51.064705,-4.048035,104,10.26,20.0,292.5,Aug-20,1687562,2020-03-21 14:57:04:874,0.1954,-1.1828,10.1427,-0.0151,-0.0214,9.8066,0.0586,0.0059,0.1055,-5.22,-15.71,-36.65,66.63,-20.3,3.26
3376,51.064705,-4.048035,104,10.26,20.0,292.5,Aug-20,1688062,2020-03-21 14:57:05:374,-1.2918,-1.1817,9.3261,-0.0188,-0.0373,9.8066,0.0352,-0.0409,0.1097,-4.43,-15.64,-36.98,66.97,-18.33,2.85
3377,51.064705,-4.048035,104,10.26,20.0,292.5,Aug-20,1688562,2020-03-21 14:57:05:874,-0.9726,-1.715,9.7972,-0.0267,-0.0518,9.8065,0.0639,-0.0409,0.1182,-2.56,-14.89,-36.55,74.1,-11.89,1.75
3378,51.064705,-4.048035,104,10.26,20.0,292.5,Jun-20,1689062,2020-03-21 14:57:06:374,-0.7682,-0.3741,10.1713,-0.0305,-0.0384,9.8065,0.0629,-0.0644,0.1268,-1.49,-15.64,-36.98,74.69,-8.47,0.36
3379,51.064705,-4.048035,104,10.26,20.0,292.5,Jun-20,1689562,2020-03-21 14:57:06:874,0.8225,0.0265,9.8347,0.01,-0.0189,9.8066,0.0437,-0.0004,0.0618,0.76,-14.89,-37.36,73.62,-5.47,0.51
3380,51.064705,-4.048035,104,10.26,20.0,292.5,Oct-20,1690062,2020-03-21 14:57:07:374,2.2357,0.3273,9.9087,0.0325,-0.0028,9.8066,-0.1055,0.0336,-0.0788,1.13,-14.51,-37.8,78.54,-4.1,4.4
3381,51.064705,-4.048035,104,10.26,20.0,292.5,Oct-20,1690562,2020-03-21 14:57:07:874,2.1191,0.3996,9.3364,0.0346,0.0055,9.8066,-0.1204,0.0571,-0.2077,-0.37,-15.64,-37.36,82.19,-4.71,7.5
3382,51.064705,-4.048035,104,10.26,20.0,292.5,Oct-20,1691062,2020-03-21 14:57:08:374,1.2645,0.7816,9.6304,0.0303,0.0035,9.8066,-0.0618,0.0667,-0.2376,-2.93,-16.7,-36.55,90.49,-4.81,10.61
3383,51.064705,-4.048035,104,10.26,20.0,292.5,Oct-20,1691563,2020-03-21 14:57:08:875,1.6942,0.3663,10.0471,0.0288,0.0072,9.8066,-0.1012,0.0922,-0.2674,-7.74,-17.45,-40.42,100.85,-4.88,14.04
3384,51.064705,-4.048035,104,10.26,20.0,292.5,Oct-20,1692062,2020-03-21 14:57:09:374,0.7087,1.1763,10.1972,0.0162,0.0064,9.8066,-0.1087,0.0219,-0.2749,-8.8,-17.26,-34.9,104.29,-4.5,16.85
3385,51.064705,-4.048035,104,10.26,20.0,292.5,Oct-20,1692561,2020-03-21 14:57:09:873,-0.5476,0.3829,10.5222,0.0,-0.0031,9.8066,-0.033,-0.0175,-0.2205,-12.48,-17.26,-33.15,110.93,-4.21,17.78
3386,51.064705,-4.048035,104,10.26,20.0,292.5,Oct-20,1693062,2020-03-21 14:57:10:374,-1.4678,1.1423,10.1745,-0.0256,0.0141,9.8066,-0.0192,0.0102,-0.1012,-12.78,-17.68,-31.79,113.08,-3.83,16.75
3387,51.064705,-4.048035,104,10.26,20.0,292.5,Oct-20,1693563,2020-03-21 14:57:10:875,-0.4049,0.349,8.8628,-0.0206,0.0851,9.8063,0.017,0.0922,-0.0597,-14.28,-16.24,-32.23,114.23,-6.43,16.44
3388,51.064705,-4.048035,104,10.26,20.0,292.5,Oct-20,1694062,2020-03-21 14:57:11:374,-2.0316,-0.2461,9.5137,-0.0893,0.0314,9.8062,0.0533,0.0528,0.049,-13.9,-15.11,-32.23,113.68,-8.44,14.27
3389,51.064705,-4.048035,104,10.26,20.0,292.5,Oct-20,1694562,2020-03-21 14:57:11:874,-2.7358,-0.8246,9.8695,-0.1479,-0.0295,9.8055,0.0181,-0.0313,0.1641,-13.53,-15.49,-32.66,111.82,-10.68,10.05
3390,51.064705,-4.048035,104,10.26,20.0,292.5,Oct-20,1695062,2020-03-21 14:57:12:374,-2.6747,-1.0431,9.9151,-0.0521,-0.0281,9.8065,0.0416,-0.0516,0.1779,-11.65,-16.24,-32.23,107.38,-11.4,3.79
3391,51.064705,-4.048035,104,10.26,20.0,292.5,Oct-20,1695562,2020-03-21 14:57:12:874,-1.4539,0.0,9.7707,-0.0842,-0.023,9.8063,-0.0245,-0.0207,0.1875,-9.84,-17.3,-33.1,100.49,-11.72,-1.29
3392,51.064705,-4.048035,104,10.26,20.0,292.5,Oct-20,1696062,2020-03-21 14:57:13:374,1.1862,0.3576,10.3685,0.0293,-0.0204,9.8066,0.0394,-0.0548,0.0873,-8.71,-16.93,-32.66,97.0,-11.83,-2.91
3393,51.064705,-4.048035,104,10.26,20.0,292.5,Oct-20,1696563,2020-03-21 14:57:13:875,1.2741,-0.0271,9.6504,0.0148,0.002,9.8066,-0.0011,-0.009,0.0309,-7.87,-17.26,-31.49,94.86,-11.84,-1.74
3394,51.064705,-4.048035,104,10.26,20.0,292.5,Jul-20,1697062,2020-03-21 14:57:14:374,1.3586,-0.0633,9.4211,0.0261,0.0049,9.8066,0.0085,-0.0122,-0.0117,-7.87,-17.26,-31.49,94.76,-11.95,0.41
3395,51.064705,-4.048035,104,10.26,20.0,292.5,Jul-20,1697562,2020-03-21 14:57:14:874,1.2365,0.0572,9.9017,0.0159,0.0132,9.8066,0.0075,0.0017,-0.0032,-7.5,-17.26,-31.92,89.49,-12.91,2.41
3396,51.064705,-4.048035,104,10.26,20.0,292.5,Aug-20,1698062,2020-03-21 14:57:15:374,0.9548,-0.6428,10.11,0.013,-0.0192,9.8066,-0.0085,-0.0388,-0.0085,-8.25,-17.26,-31.49,92.75,-13.32,3.73
3397,51.064705,-4.048035,104,10.26,20.0,292.5,Aug-20,1698562,2020-03-21 14:57:15:874,0.4646,-0.0058,9.6607,0.0106,-0.002,9.8066,0.0181,-0.0164,-0.0085,-7.87,-17.26,-31.92,93.2,-12.71,4.69
3398,51.064426,-4.049728,100,12.41,26.0,271.4,Aug-20,1699062,2020-03-21 14:57:16:374,0.5044,-0.0177,9.1958,0.006,-0.0022,9.8066,-0.0032,0.0006,-0.0011,-8.25,-16.57,-32.3,94.04,-12.24,5.53
3399,51.064426,-4.049728,100,12.41,26.0,271.4,Aug-20,1699562,2020-03-21 14:57:16:874,0.5714,0.3547,9.8236,0.0035,0.0091,9.8066,-0.0202,0.0219,0.0075,-7.87,-16.2,-30.61,95.04,-12.14,6.05
3400,51.064426,-4.049728,100,12.41,26.0,271.4,Aug-20,1700061,2020-03-21 14:57:17:373,0.4416,0.1675,10.0313,-0.005,-0.0094,9.8066,-0.0479,-0.0505,0.0117,-8.62,-17.26,-31.92,95.96,-12.82,6.16
3401,51.064426,-4.049728,100,12.41,26.0,271.4,Aug-20,1700562,2020-03-21 14:57:17:874,0.1849,0.508,9.2851,0.0056,0.0027,9.8066,-0.016,0.0081,0.0021,-8.25,-17.32,-31.92,92.28,-13.42,5.98
3402,51.064426,-4.049728,100,12.41,26.0,271.4,Aug-20,1701062,2020-03-21 14:57:18:374,0.095,-0.0045,9.3899,0.014,0.0183,9.8066,-0.0085,0.023,0.0,-8.25,-16.95,-31.49,92.66,-13.68,6.52
3403,51.064426,-4.049728,100,12.41,26.0,271.4,Aug-20,1701562,2020-03-21 14:57:18:874,0.0271,0.046,9.1097,0.0033,0.0082,9.8066,0.0096,0.0187,-0.0053,-8.25,-16.95,-31.92,91.75,-13.9,7.01
3404,51.064426,-4.049728,100,12.41,26.0,271.4,Aug-20,1702062,2020-03-21 14:57:19:374,0.3402,0.2577,10.1891,0.0004,-0.007,9.8066,-0.0149,-0.0345,-0.0021,-7.87,-16.95,-31.92,91.75,-13.91,7.1
3405,51.064426,-4.049728,100,12.41,26.0,271.4,Aug-20,1702562,2020-03-21 14:57:19:874,0.2088,0.0639,9.8265,0.003,-0.0028,9.8067,0.0011,-0.0175,-0.0043,-7.87,-16.95,-31.49,92.14,-14.14,7.37
3406,51.064426,-4.049728,100,12.41,26.0,271.4,Aug-20,1703062,2020-03-21 14:57:20:374,0.6434,-0.6304,10.2092,0.0046,-0.0184,9.8066,0.0352,-0.0324,-0.0085,-7.87,-16.95,-31.92,91.65,-14.06,7.66
3407,51.064426,-4.049728,100,12.41,26.0,271.4,Aug-20,1703562,2020-03-21 14:57:20:874,0.582,0.2003,9.4035,0.0008,0.0004,9.8067,-0.0522,0.0219,0.0213,-8.62,-16.57,-32.36,94.54,-13.86,7.56
3408,51.064426,-4.049728,100,12.41,26.0,271.4,Aug-20,1704061,2020-03-21 14:57:21:373,0.0377,-0.6184,8.4744,-0.0009,0.0076,9.8066,0.0021,0.0251,0.0085,-7.87,-16.57,-31.49,93.24,-13.34,7.13
3409,51.064426,-4.049728,100,12.41,26.0,271.4,Aug-20,1704562,2020-03-21 14:57:21:874,-0.1533,-0.0955,10.0578,0.0074,-0.0142,9.8066,0.0128,-0.0132,-0.0011,-8.25,-15.82,-31.92,93.45,-12.83,7.25
3410,51.064426,-4.049728,100,12.41,26.0,271.4,Jun-20,1705062,2020-03-21 14:57:22:374,-0.1331,-0.0244,9.8188,-0.0008,0.0097,9.8066,-0.0106,0.0038,0.0032,-7.12,-17.32,-31.92,90.92,-12.71,7.5
3411,51.064426,-4.049728,100,12.41,26.0,271.4,Jun-20,1705562,2020-03-21 14:57:22:874,-0.1957,-0.3422,9.8357,-0.0116,0.0077,9.8066,-0.0298,0.0113,0.0117,-7.87,-16.57,-31.92,93.82,-12.5,7.05
3412,51.064426,-4.049728,100,12.41,26.0,271.4,Aug-20,1706062,2020-03-21 14:57:23:374,0.2939,-0.3058,10.1378,0.0141,-0.0058,9.8066,0.0117,0.0059,0.0011,-8.25,-16.57,-31.92,93.83,-12.51,7.34
3413,51.064426,-4.049728,100,12.41,26.0,271.4,Aug-20,1706562,2020-03-21 14:57:23:874,0.3117,-0.5951,10.1781,0.0035,-0.0153,9.8066,0.0192,-0.0207,-0.0032,-7.87,-16.2,-32.36,93.64,-12.7,7.2
3414,51.064426,-4.049728,100,12.41,26.0,271.4,Aug-20,1707062,2020-03-21 14:57:24:374,0.0396,-0.086,9.7864,0.0032,-0.0043,9.8067,0.0085,-0.0015,-0.0021,-7.87,-16.57,-31.49,94.38,-12.56,7.32
3415,51.064426,-4.049728,100,12.41,26.0,271.4,Aug-20,1707561,2020-03-21 14:57:24:873,0.4416,-0.5057,10.2109,-0.0027,-0.008,9.8066,0.0181,-0.0377,-0.0085,-7.5,-16.57,-31.49,91.71,-12.53,7.11
3416,51.06428,-4.051557,97,14.9,39.0,263.4,Aug-20,1708062,2020-03-21 14:57:25:374,0.1533,-0.0059,9.9563,0.003,-0.0018,9.8066,-0.0213,-0.0132,0.0053,-8.25,-16.57,-32.36,94.17,-12.28,7.25
3417,51.06428,-4.051557,97,14.9,39.0,263.4,Aug-20,1708562,2020-03-21 14:57:25:874,-0.4614,0.2997,9.9478,-0.0099,-0.012,9.8066,-0.0213,-0.0164,0.0053,-7.12,-16.2,-31.92,91.88,-12.03,7.3
3418,51.06428,-4.051557,97,14.9,39.0,263.4,Aug-20,1709062,2020-03-21 14:57:26:374,-0.1068,-0.1668,9.63,0.003,0.0019,9.8067,0.0021,0.0123,0.0011,-7.87,-16.57,-31.92,95.07,-11.66,7.29
3419,51.06428,-4.051557,97,14.9,39.0,263.4,Aug-20,1709562,2020-03-21 14:57:26:874,-0.3349,-0.6368,10.1057,-0.0066,-0.0063,9.8066,0.0224,-0.0207,-0.0011,-7.12,-16.57,-31.49,93.31,-11.37,6.78
3420,51.06428,-4.051557,97,14.9,39.0,263.4,Aug-20,1710062,2020-03-21 14:57:27:374,0.3474,-0.1648,10.3607,0.0011,-0.011,9.8066,-0.016,-0.0228,0.0043,-7.12,-16.57,-31.92,93.27,-11.01,6.63
3421,51.06428,-4.051557,97,14.9,39.0,263.4,Aug-20,1710562,2020-03-21 14:57:27:874,-0.5005,0.1205,9.3627,-0.0012,-0.0001,9.8066,0.0053,-0.0111,-0.0032,-7.5,-16.95,-31.05,94.1,-10.82,6.76
3422,51.06428,-4.051557,97,14.9,39.0,263.4,Aug-20,1711062,2020-03-21 14:57:28:374,-0.2023,0.0626,9.7688,0.0054,-0.0016,9.8066,0.0075,0.023,0.0,-7.12,-16.57,-31.49,94.49,-10.54,6.61
3423,51.06428,-4.051557,97,14.9,39.0,263.4,Aug-20,1711562,2020-03-21 14:57:28:874,0.0993,-0.3893,9.7156,0.0044,0.0009,9.8066,0.0213,0.0177,0.0021,-7.5,-16.2,-31.92,94.55,-10.26,6.7
3424,51.06428,-4.051557,97,14.9,39.0,263.4,Aug-20,1712062,2020-03-21 14:57:29:374,-0.2486,-0.3343,9.9129,-0.0247,-0.0055,9.8066,-0.0352,-0.0068,0.0149,-7.12,-16.2,-31.05,95.56,-9.95,6.81
3425,51.06428,-4.051557,97,14.9,39.0,263.4,Aug-20,1712561,2020-03-21 14:57:29:873,-0.4351,-0.6187,9.2486,0.0082,0.0129,9.8066,-0.0202,0.0326,0.0096,-8.25,-16.57,-31.05,98.15,-9.88,6.77
