,GPS LATITUDE (degrees),GPS LONGITUDE (degrees), GPS ALTITUDE (m),GPS SPEED (Kmh),GPS ACCURACY (m),GPS ORIENTATION (Â°), SATELLITES IN RANGE, TIME SINCE START (ms), DATE (YYYY-MO-DD HH-MI-SS_SSS),ACCELEROMETER X (m/s²) , ACCELEROMETER Y (m/s²), ACCELEROMETER Z (m/s²), GRAVITY X (m/s²), GRAVITY Y (m/s²), GRAVITY Z (m/s²), GYROSCOPE Yaw (rad/s), GYROSCOPE Pitch (rad/s), GYROSCOPE Roll (rad/s)
75280,48.480946,-2.634674,95.22,30.26,7.504,278.9,0 / 23,2240974,2019-08-12 17:10:01:416,-0.5367,0.306,9.7622,-0.462,0.2089,9.7935,-0.0038,0.0074,0.0023
75281,48.480946,-2.634674,95.22,30.26,7.504,278.9,0 / 23,2240975,2019-08-12 17:10:01:417,-0.5367,0.306,9.7622,-0.462,0.2089,9.7935,-0.0038,0.0074,0.0023
75282,48.480946,-2.634674,95.22,30.26,7.504,278.9,0 / 23,2240975,2019-08-12 17:10:01:417,-0.5367,0.306,9.7622,-0.462,0.2089,9.7935,-0.0038,0.0074,0.0023
75283,48.480946,-2.634674,95.22,30.26,7.504,278.9,15 / 23,2240975,2019-08-12 17:10:01:417,-0.5367,0.306,9.7622,-0.462,0.2089,9.7935,-0.0038,0.0074,0.0023
75284,48.480946,-2.634674,95.22,30.26,7.504,278.9,15 / 23,2240976,2019-08-12 17:10:01:418,-0.5367,0.306,9.7622,-0.462,0.2089,9.7935,-0.0038,0.0074,0.0023
75285,48.480946,-2.634674,95.22,30.26,7.504,278.9,15 / 23,2240976,2019-08-12 17:10:01:418,-0.5367,0.306,9.7622,-0.462,0.2089,9.7935,-0.0038,0.0074,0.0023
75286,48.480946,-2.634674,95.22,30.26,7.504,278.9,15 / 23,2240977,2019-08-12 17:10:01:419,-0.5367,0.306,9.7622,-0.462,0.2089,9.7935,-0.0038,0.0074,0.0023
75287,48.480946,-2.634674,95.22,30.26,7.504,278.9,15 / 23,2240977,2019-08-12 17:10:01:419,-0.5367,0.306,9.7622,-0.462,0.2089,9.7935,-0.0038,0.0074,0.0023
75288,48.480946,-2.634674,95.22,30.26,7.504,278.9,15 / 23,2240978,2019-08-12 17:10:01:420,-0.5367,0.306,9.7622,-0.462,0.2089,9.7935,-0.0038,0.0074,0.0023
75289,48.480946,-2.634674,95.22,30.26,7.504,278.9,15 / 23,2240978,2019-08-12 17:10:01:420,-0.5367,0.306,9.7622,-0.462,0.2089,9.7935,-0.0038,0.0074,0.0023
75290,48.480946,-2.634674,95.22,30.26,7.504,278.9,15 / 23,2240979,2019-08-12 17:10:01:421,-0.5367,0.306,9.7622,-0.462,0.2089,9.7935,-0.0038,0.0074,0.0023
75291,48.480946,-2.634674,95.22,30.26,7.504,278.9,15 / 23,2240979,2019-08-12 17:10:01:421,-0.5367,0.306,9.7622,-0.462,0.2089,9.7935,-0.0038,0.0074,0.0023
75292,48.480946,-2.634674,95.22,30.26,7.504,278.9,15 / 23,2240979,2019-08-12 17:10:01:421,-0.5367,0.306,9.7622,-0.462,0.2089,9.7935,-0.0038,0.0074,0.0023
75293,48.480946,-2.634674,95.22,30.26,7.504,278.9,15 / 23,2240980,2019-08-12 17:10:01:422,-0.5367,0.306,9.7622,-0.462,0.2089,9.7935,-0.0038,0.0074,0.0023
75294,48.480946,-2.634674,95.22,30.26,7.504,278.9,15 / 23,2240982,2019-08-12 17:10:01:424,-0.5367,0.306,9.7622,-0.462,0.2089,9.7935,-0.0038,0.0074,0.0023
75295,48.480946,-2.634674,95.22,30.26,7.504,278.9,15 / 23,2240983,2019-08-12 17:10:01:425,-0.5367,0.306,9.7622,-0.462,0.2089,9.7935,-0.0038,0.0074,0.0023
75296,48.480946,-2.634674,95.22,30.26,7.504,278.9,15 / 23,2240983,2019-08-12 17:10:01:425,-0.5367,0.306,9.7622,-0.462,0.2089,9.7935,-0.0038,0.0074,0.0023
75297,48.480946,-2.634674,95.22,30.26,7.504,278.9,15 / 23,2240985,2019-08-12 17:10:01:427,-0.5367,0.306,9.7622,-0.462,0.2089,9.7935,-0.0038,0.0074,0.0023
75298,48.480946,-2.634674,95.22,30.26,7.504,278.9,15 / 23,2240986,2019-08-12 17:10:01:428,-0.5367,0.306,9.7622,-0.462,0.2089,9.7935,-0.0038,0.0074,0.0023
75299,48.480946,-2.634674,95.22,30.26,7.504,278.9,15 / 23,2240987,2019-08-12 17:10:01:429,-0.5367,0.306,9.7622,-0.462,0.2089,9.7935,-0.0038,0.0074,0.0023
75300,48.480946,-2.634674,95.22,30.26,7.504,278.9,15 / 23,2240990,2019-08-12 17:10:01:432,-0.5367,0.306,9.7622,-0.462,0.2089,9.7935,-0.0038,0.0074,0.0023
75301,48.480946,-2.634674,95.22,30.26,7.504,278.9,15 / 23,2240991,2019-08-12 17:10:01:433,-0.5367,0.306,9.7622,-0.462,0.2089,9.7935,-0.0038,0.0074,0.0023
75302,48.480946,-2.634674,95.22,30.26,7.504,278.9,15 / 23,2240991,2019-08-12 17:10:01:433,-0.5367,0.306,9.7622,-0.462,0.2089,9.7935,-0.0038,0.0074,0.0023
75303,48.480946,-2.634674,95.22,30.26,7.504,278.9,15 / 23,2240992,2019-08-12 17:10:01:434,-0.5367,0.306,9.7622,-0.462,0.2089,9.7935,-0.0038,0.0074,0.0023
75304,48.480946,-2.634674,95.22,30.26,7.504,278.9,15 / 23,2240992,2019-08-12 17:10:01:434,-0.5367,0.306,9.7622,-0.462,0.2089,9.7935,-0.0038,0.0074,0.0023
75305,48.480946,-2.634674,95.22,30.26,7.504,278.9,15 / 23,2240993,2019-08-12 17:10:01:435,-0.5367,0.306,9.7622,-0.462,0.2089,9.7935,-0.0038,0.0074,0.0023
75306,48.480946,-2.634674,95.22,30.26,7.504,278.9,15 / 23,2240993,2019-08-12 17:10:01:435,-0.5367,0.306,9.7622,-0.462,0.2089,9.7935,-0.0038,0.0074,0.0023
75307,48.480946,-2.634674,95.22,30.26,7.504,278.9,15 / 23,2240993,2019-08-12 17:10:01:435,-0.5367,0.306,9.7622,-0.462,0.2089,9.7935,-0.0038,0.0074,0.0023
75308,48.480946,-2.634674,95.22,30.26,7.504,278.9,15 / 23,2240994,2019-08-12 17:10:01:436,-0.5367,0.306,9.7622,-0.462,0.2089,9.7935,-0.0038,0.0074,0.0023
75309,48.480946,-2.634674,95.22,30.26,7.504,278.9,15 / 23,2240994,2019-08-12 17:10:01:436,-0.5367,0.306,9.7622,-0.462,0.2089,9.7935,-0.0038,0.0074,0.0023
75310,48.480946,-2.634674,95.22,30.26,7.504,278.9,15 / 23,2240994,2019-08-12 17:10:01:436,-0.5367,0.306,9.7622,-0.462,0.2089,9.7935,-0.0038,0.0074,0.0023
75311,48.480946,-2.634674,95.22,30.26,7.504,278.9,15 / 23,2240995,2019-08-12 17:10:01:437,-0.5367,0.306,9.7622,-0.462,0.2089,9.7935,-0.0038,0.0074,0.0023
75312,48.480946,-2.634674,95.22,30.26,7.504,278.9,15 / 23,2240995,2019-08-12 17:10:01:437,-0.5367,0.306,9.7622,-0.462,0.2089,9.7935,-0.0038,0.0074,0.0023
75313,48.480946,-2.634674,95.22,30.26,7.504,278.9,15 / 23,2240995,2019-08-12 17:10:01:437,-0.5367,0.306,9.7622,-0.462,0.2089,9.7935,-0.0038,0.0074,0.0023
75314,48.480946,-2.634674,95.22,30.26,7.504,278.9,15 / 23,2240996,2019-08-12 17:10:01:438,-0.5367,0.306,9.7622,-0.462,0.2089,9.7935,-0.0038,0.0074,0.0023
75315,48.480946,-2.634674,95.22,30.26,7.504,278.9,15 / 23,2240996,2019-08-12 17:10:01:438,-0.5367,0.306,9.7622,-0.462,0.2089,9.7935,-0.0038,0.0074,0.0023
75316,48.480946,-2.634674,95.22,30.26,7.504,278.9,15 / 23,2240997,2019-08-12 17:10:01:439,-0.5367,0.306,9.7622,-0.462,0.2089,9.7935,-0.0038,0.0074,0.0023
75317,48.480946,-2.634674,95.22,30.26,7.504,278.9,15 / 23,2240997,2019-08-12 17:10:01:439,-0.5367,0.306,9.7622,-0.462,0.2089,9.7935,-0.0038,0.0074,0.0023
75318,48.480946,-2.634674,95.22,30.26,7.504,278.9,15 / 23,2240997,2019-08-12 17:10:01:439,-0.5367,0.306,9.7622,-0.462,0.2089,9.7935,-0.0038,0.0074,0.0023
75319,48.480946,-2.634674,95.22,30.26,7.504,278.9,15 / 23,2240998,2019-08-12 17:10:01:440,-0.5367,0.306,9.7622,-0.462,0.2089,9.7935,-0.0038,0.0074,0.0023
75320,48.480946,-2.634674,95.22,30.26,7.504,278.9,15 / 23,2240998,2019-08-12 17:10:01:440,-0.5367,0.306,9.7622,-0.462,0.2089,9.7935,-0.0038,0.0074,0.0023
75321,48.480946,-2.634674,95.22,30.26,7.504,278.9,15 / 23,2240999,2019-08-12 17:10:01:441,-0.5367,0.306,9.7622,-0.462,0.2089,9.7935,-0.0038,0.0074,0.0023
75322,48.480946,-2.634674,95.22,30.26,7.504,278.9,15 / 23,2240999,2019-08-12 17:10:01:441,-0.5367,0.306,9.7622,-0.462,0.2089,9.7935,-0.0038,0.0074,0.0023
75323,48.480946,-2.634674,95.22,30.26,7.504,278.9,15 / 23,2240999,2019-08-12 17:10:01:441,-0.5367,0.306,9.7622,-0.462,0.2089,9.7935,-0.0038,0.0074,0.0023
75324,48.480946,-2.634674,95.22,30.26,7.504,278.9,15 / 23,2241000,2019-08-12 17:10:01:442,-0.5367,0.306,9.7622,-0.462,0.2089,9.7935,-0.0038,0.0074,0.0023
75325,48.480946,-2.634674,95.22,30.26,7.504,278.9,15 / 23,2241000,2019-08-12 17:10:01:442,-0.5367,0.306,9.7622,-0.462,0.2089,9.7935,-0.0038,0.0074,0.0023
75326,48.480946,-2.634674,95.22,30.26,7.504,278.9,15 / 23,2241000,2019-08-12 17:10:01:442,-0.5367,0.306,9.7622,-0.462,0.2089,9.7935,-0.0038,0.0074,0.0023
75327,48.480946,-2.634674,95.22,30.26,7.504,278.9,15 / 23,2241001,2019-08-12 17:10:01:443,-0.5367,0.306,9.7622,-0.462,0.2089,9.7935,-0.0038,0.0074,0.0023
75328,48.480946,-2.634674,95.22,30.26,7.504,278.9,15 / 23,2241001,2019-08-12 17:10:01:443,-0.5367,0.306,9.7622,-0.462,0.2089,9.7935,-0.0038,0.0074,0.0023
75329,48.480946,-2.634674,95.22,30.26,7.504,278.9,15 / 23,2241001,2019-08-12 17:10:01:443,-0.5367,0.306,9.7622,-0.462,0.2089,9.7935,-0.0038,0.0074,0.0023
75330,48.480946,-2.634674,95.22,30.26,7.504,278.9,15 / 23,2241005,2019-08-12 17:10:01:447,-0.5367,0.306,9.7622,-0.462,0.2089,9.7935,-0.0038,0.0074,0.0023
75331,48.480946,-2.634674,95.22,30.26,7.504,278.9,15 / 23,2241006,2019-08-12 17:10:01:448,-0.5367,0.306,9.7622,-0.462,0.2089,9.7935,-0.0038,0.0074,0.0023
75332,48.480946,-2.634674,95.22,30.26,7.504,278.9,15 / 23,2241006,2019-08-12 17:10:01:448,-0.5367,0.306,9.7622,-0.462,0.2089,9.7935,-0.0038,0.0074,0.0023
75333,48.480946,-2.634674,95.22,30.26,7.504,278.9,15 / 23,2241006,2019-08-12 17:10:01:448,-0.5367,0.306,9.7622,-0.462,0.2089,9.7935,-0.0038,0.0074,0.0023
75334,48.480946,-2.634674,95.22,30.26,7.504,278.9,15 / 23,2241007,2019-08-12 17:10:01:449,-0.5367,0.306,9.7622,-0.462,0.2089,9.7935,-0.0038,0.0074,0.0023
75335,48.480946,-2.634674,95.22,30.26,7.504,278.9,15 / 23,2241007,2019-08-12 17:10:01:449,-0.5367,0.306,9.7622,-0.462,0.2089,9.7935,-0.0038,0.0074,0.0023
75336,48.480946,-2.634674,95.22,30.26,7.504,278.9,15 / 23,2241007,2019-08-12 17:10:01:449,-0.5367,0.306,9.7622,-0.462,0.2089,9.7935,-0.0038,0.0074,0.0023
75337,48.480946,-2.634674,95.22,30.26,7.504,278.9,15 / 23,2241008,2019-08-12 17:10:01:450,-0.5367,0.306,9.7622,-0.462,0.2089,9.7935,-0.0038,0.0074,0.0023
75338,48.480946,-2.634674,95.22,30.26,7.504,278.9,15 / 23,2241008,2019-08-12 17:10:01:450,-0.5367,0.306,9.7622,-0.462,0.2089,9.7935,-0.0038,0.0074,0.0023
75339,48.480946,-2.634674,95.22,30.26,7.504,278.9,15 / 23,2241008,2019-08-12 17:10:01:450,-0.5367,0.306,9.7622,-0.462,0.2089,9.7935,-0.0038,0.0074,0.0023
75340,48.480946,-2.634674,95.22,30.26,7.504,278.9,15 / 23,2241009,2019-08-12 17:10:01:451,-0.5367,0.306,9.7622,-0.462,0.2089,9.7935,-0.0038,0.0074,0.0023
75341,48.480946,-2.634674,95.22,30.26,7.504,278.9,15 / 23,2241009,2019-08-12 17:10:01:451,-0.5367,0.306,9.7622,-0.462,0.2089,9.7935,-0.0038,0.0074,0.0023
75342,48.480946,-2.634674,95.22,30.26,7.504,278.9,15 / 23,2241009,2019-08-12 17:10:01:451,-0.5367,0.306,9.7622,-0.462,0.2089,9.7935,-0.0038,0.0074,0.0023
75343,48.480946,-2.634674,95.22,30.26,7.504,278.9,15 / 23,2241010,2019-08-12 17:10:01:452,-0.5367,0.306,9.7622,-0.462,0.2089,9.7935,-0.0038,0.0074,0.0023
75344,48.480946,-2.634674,95.22,30.26,7.504,278.9,15 / 23,2241010,2019-08-12 17:10:01:452,-0.5367,0.306,9.7622,-0.462,0.2089,9.7935,-0.0038,0.0074,0.0023
75345,48.480946,-2.634674,95.22,30.26,7.504,278.9,15 / 23,2241010,2019-08-12 17:10:01:452,-0.5367,0.306,9.7622,-0.462,0.2089,9.7935,-0.0038,0.0074,0.0023
75346,48.480946,-2.634674,95.22,30.26,7.504,278.9,15 / 23,2241011,2019-08-12 17:10:01:453,-0.5367,0.306,9.7622,-0.462,0.2089,9.7935,-0.0038,0.0074,0.0023
75347,48.480946,-2.634674,95.22,30.26,7.504,278.9,15 / 23,2241011,2019-08-12 17:10:01:453,-0.5367,0.306,9.7622,-0.462,0.2089,9.7935,-0.0038,0.0074,0.0023
75348,48.480946,-2.634674,95.22,30.26,7.504,278.9,15 / 23,2241011,2019-08-12 17:10:01:453,-0.5367,0.306,9.7622,-0.462,0.2089,9.7935,-0.0038,0.0074,0.0023
75349,48.480946,-2.634674,95.22,30.26,7.504,278.9,15 / 23,2241012,2019-08-12 17:10:01:454,-0.5367,0.306,9.7622,-0.462,0.2089,9.7935,-0.0038,0.0074,0.0023
75350,48.480946,-2.634674,95.22,30.26,7.504,278.9,15 / 23,2241012,2019-08-12 17:10:01:454,-0.5367,0.306,9.7622,-0.462,0.2089,9.7935,-0.0038,0.0074,0.0023
75351,48.480946,-2.634674,95.22,30.26,7.504,278.9,15 / 23,2241012,2019-08-12 17:10:01:454,-0.5367,0.306,9.7622,-0.462,0.2089,9.7935,-0.0038,0.0074,0.0023
75352,48.480946,-2.634674,95.22,30.26,7.504,278.9,15 / 23,2241013,2019-08-12 17:10:01:455,-0.5367,0.306,9.7622,-0.462,0.2089,9.7935,-0.0038,0.0074,0.0023
75353,48.480946,-2.634674,95.22,30.26,7.504,278.9,15 / 23,2241013,2019-08-12 17:10:01:455,-0.5367,0.306,9.7622,-0.462,0.2089,9.7935,-0.0038,0.0074,0.0023
75354,48.480946,-2.634674,95.22,30.26,7.504,278.9,15 / 23,2241013,2019-08-12 17:10:01:455,-0.5367,0.306,9.7622,-0.462,0.2089,9.7935,-0.0038,0.0074,0.0023
75355,48.480946,-2.634674,95.22,30.26,7.504,278.9,15 / 23,2241014,2019-08-12 17:10:01:456,-0.5367,0.306,9.7622,-0.462,0.2089,9.7935,-0.0038,0.0074,0.0023
75356,48.480946,-2.634674,95.22,30.26,7.504,278.9,15 / 23,2241014,2019-08-12 17:10:01:456,-0.5367,0.306,9.7622,-0.462,0.2089,9.7935,-0.0038,0.0074,0.0023
75357,48.480946,-2.634674,95.22,30.26,7.504,278.9,15 / 23,2241014,2019-08-12 17:10:01:456,-0.5367,0.306,9.7622,-0.462,0.2089,9.7935,-0.0038,0.0074,0.0023
75358,48.480946,-2.634674,95.22,30.26,7.504,278.9,15 / 23,2241014,2019-08-12 17:10:01:456,-0.5367,0.306,9.7622,-0.462,0.2089,9.7935,-0.0038,0.0074,0.0023
75359,48.480946,-2.634674,95.22,30.26,7.504,278.9,15 / 23,2241095,2019-08-12 17:10:01:537,-0.5367,0.306,9.7622,-0.462,0.2089,9.7935,-0.0038,0.0074,0.0023
75360,48.480946,-2.634674,95.22,30.26,7.504,278.9,15 / 23,2241443,2019-08-12 17:10:01:885,-0.5367,0.306,9.7622,-0.462,0.2089,9.7935,-0.0038,0.0074,0.0023
75361,48.480946,-2.634674,95.22,30.26,7.504,278.9,15 / 23,2241444,2019-08-12 17:10:01:886,-0.5367,0.306,9.7622,-0.462,0.2089,9.7935,-0.0038,0.0074,0.0023
75362,48.480946,-2.634674,95.22,30.26,7.504,278.9,15 / 23,2241444,2019-08-12 17:10:01:886,-0.5367,0.306,9.7622,-0.462,0.2089,9.7935,-0.0038,0.0074,0.0023
75363,48.480946,-2.634674,95.22,30.26,7.504,278.9,15 / 23,2241445,2019-08-12 17:10:01:887,-0.5367,0.306,9.7622,-0.462,0.2089,9.7935,-0.0038,0.0074,0.0023
75364,48.480946,-2.634674,95.22,30.26,7.504,278.9,15 / 23,2241446,2019-08-12 17:10:01:888,-0.5367,0.306,9.7622,-0.462,0.2089,9.7935,-0.0038,0.0074,0.0023
75365,48.480946,-2.634674,95.22,30.26,7.504,278.9,15 / 23,2241447,2019-08-12 17:10:01:889,-0.5367,0.306,9.7622,-0.462,0.2089,9.7935,-0.0038,0.0074,0.0023
75366,48.480946,-2.634674,95.22,30.26,7.504,278.9,15 / 23,2241449,2019-08-12 17:10:01:891,-0.5367,0.306,9.7622,-0.462,0.2089,9.7935,-0.0038,0.0074,0.0023
75367,48.480946,-2.634674,95.22,30.26,7.504,278.9,15 / 23,2241449,2019-08-12 17:10:01:891,-0.5367,0.306,9.7622,-0.462,0.2089,9.7935,-0.0038,0.0074,0.0023
75368,48.480946,-2.634674,95.22,30.26,7.504,278.9,15 / 23,2241454,2019-08-12 17:10:01:896,-0.5367,0.306,9.7622,-0.462,0.2089,9.7935,-0.0038,0.0074,0.0023
75369,48.481304,-2.638288,84.77,29.82,5.36,275.7,0 / 23,2241554,2019-08-12 17:10:01:996,-0.5367,0.306,9.7622,-0.462,0.2089,9.7935,-0.0038,0.0074,0.0023
75370,48.481304,-2.638288,84.77,29.82,5.36,275.7,0 / 23,2241928,2019-08-12 17:10:02:370,-0.5367,0.306,9.7622,-0.462,0.2089,9.7935,-0.0038,0.0074,0.0023
75371,48.481304,-2.638288,84.77,29.82,5.36,275.7,0 / 23,2241929,2019-08-12 17:10:02:371,-0.5367,0.306,9.7622,-0.462,0.2089,9.7935,-0.0038,0.0074,0.0023
75372,48.481304,-2.638288,84.77,29.82,5.36,275.7,0 / 23,2241930,2019-08-12 17:10:02:372,-0.5367,0.306,9.7622,-0.462,0.2089,9.7935,-0.0038,0.0074,0.0023
75373,48.481304,-2.638288,84.77,29.82,5.36,275.7,0 / 23,2241930,2019-08-12 17:10:02:372,-0.5367,0.306,9.7622,-0.462,0.2089,9.7935,-0.0038,0.0074,0.0023
75374,48.481304,-2.638288,84.77,29.82,5.36,275.7,0 / 23,2241930,2019-08-12 17:10:02:372,-0.5367,0.306,9.7622,-0.462,0.2089,9.7935,-0.0038,0.0074,0.0023
75375,48.481304,-2.638288,84.77,29.82,5.36,275.7,0 / 23,2241931,2019-08-12 17:10:02:373,-0.5367,0.306,9.7622,-0.462,0.2089,9.7935,-0.0038,0.0074,0.0023
75376,48.481304,-2.638288,84.77,29.82,5.36,275.7,0 / 23,2241931,2019-08-12 17:10:02:373,-0.5367,0.306,9.7622,-0.462,0.2089,9.7935,-0.0038,0.0074,0.0023
75377,48.481304,-2.638288,84.77,29.82,5.36,275.7,0 / 23,2241931,2019-08-12 17:10:02:373,-0.5367,0.306,9.7622,-0.462,0.2089,9.7935,-0.0038,0.0074,0.0023
75378,48.481304,-2.638288,84.77,29.82,5.36,275.7,0 / 23,2241932,2019-08-12 17:10:02:374,-0.5367,0.306,9.7622,-0.462,0.2089,9.7935,-0.0038,0.0074,0.0023
75379,48.481304,-2.638288,84.77,29.82,5.36,275.7,0 / 23,2241933,2019-08-12 17:10:02:375,-0.5367,0.306,9.7622,-0.462,0.2089,9.7935,-0.0038,0.0074,0.0023
75380,48.481304,-2.638288,84.77,29.82,5.36,275.7,0 / 23,2241933,2019-08-12 17:10:02:375,-0.5367,0.306,9.7622,-0.462,0.2089,9.7935,-0.0038,0.0074,0.0023
75381,48.481304,-2.638288,84.77,29.82,5.36,275.7,0 / 23,2241933,2019-08-12 17:10:02:375,-0.5367,0.306,9.7622,-0.462,0.2089,9.7935,-0.0038,0.0074,0.0023
75382,48.481304,-2.638288,84.77,29.82,5.36,275.7,0 / 23,2241935,2019-08-12 17:10:02:377,-0.5367,0.306,9.7622,-0.462,0.2089,9.7935,-0.0038,0.0074,0.0023
75383,48.481304,-2.638288,84.77,29.82,5.36,275.7,0 / 23,2241936,2019-08-12 17:10:02:378,-0.5367,0.306,9.7622,-0.462,0.2089,9.7935,-0.0038,0.0074,0.0023
75384,48.481304,-2.638288,84.77,29.82,5.36,275.7,0 / 23,2241936,2019-08-12 17:10:02:378,-0.5367,0.306,9.7622,-0.462,0.2089,9.7935,-0.0038,0.0074,0.0023
75385,48.481304,-2.638288,84.77,29.82,5.36,275.7,0 / 23,2241937,2019-08-12 17:10:02:379,-0.5367,0.306,9.7622,-0.462,0.2089,9.7935,-0.0038,0.0074,0.0023
75386,48.481304,-2.638288,84.77,29.82,5.36,275.7,0 / 23,2241937,2019-08-12 17:10:02:379,-0.5367,0.306,9.7622,-0.462,0.2089,9.7935,-0.0038,0.0074,0.0023
75387,48.481304,-2.638288,84.77,29.82,5.36,275.7,0 / 23,2241945,2019-08-12 17:10:02:387,-0.5367,0.306,9.7622,-0.462,0.2089,9.7935,-0.0038,0.0074,0.0023
75388,48.481304,-2.638288,84.77,29.82,5.36,275.7,0 / 23,2241945,2019-08-12 17:10:02:387,-0.5367,0.306,9.7622,-0.462,0.2089,9.7935,-0.0038,0.0074,0.0023
75389,48.481304,-2.638288,84.77,29.82,5.36,275.7,0 / 23,2241946,2019-08-12 17:10:02:388,-0.5367,0.306,9.7622,-0.462,0.2089,9.7935,-0.0038,0.0074,0.0023
75390,48.481304,-2.638288,84.77,29.82,5.36,275.7,0 / 23,2241947,2019-08-12 17:10:02:389,-0.5367,0.306,9.7622,-0.462,0.2089,9.7935,-0.0038,0.0074,0.0023
75391,48.481304,-2.638288,84.77,29.82,5.36,275.7,0 / 23,2241947,2019-08-12 17:10:02:389,-0.5367,0.306,9.7622,-0.462,0.2089,9.7935,-0.0038,0.0074,0.0023
75392,48.481304,-2.638288,84.77,29.82,5.36,275.7,0 / 23,2241948,2019-08-12 17:10:02:390,-0.5367,0.306,9.7622,-0.462,0.2089,9.7935,-0.0038,0.0074,0.0023
75393,48.481304,-2.638288,84.77,29.82,5.36,275.7,0 / 23,2241949,2019-08-12 17:10:02:391,-0.5367,0.306,9.7622,-0.462,0.2089,9.7935,-0.0038,0.0074,0.0023
75394,48.481304,-2.638288,84.77,29.82,5.36,275.7,0 / 23,2241949,2019-08-12 17:10:02:391,-0.5367,0.306,9.7622,-0.462,0.2089,9.7935,-0.0038,0.0074,0.0023
75395,48.481304,-2.638288,84.77,29.82,5.36,275.7,0 / 23,2241950,2019-08-12 17:10:02:392,-0.5367,0.306,9.7622,-0.462,0.2089,9.7935,-0.0038,0.0074,0.0023
75396,48.481304,-2.638288,84.77,29.82,5.36,275.7,0 / 23,2241950,2019-08-12 17:10:02:392,-0.5367,0.306,9.7622,-0.462,0.2089,9.7935,-0.0038,0.0074,0.0023
75397,48.481304,-2.638288,84.77,29.82,5.36,275.7,0 / 23,2241950,2019-08-12 17:10:02:392,-0.5367,0.306,9.7622,-0.462,0.2089,9.7935,-0.0038,0.0074,0.0023
75398,48.481304,-2.638288,84.77,29.82,5.36,275.7,0 / 23,2241951,2019-08-12 17:10:02:393,-0.5367,0.306,9.7622,-0.462,0.2089,9.7935,-0.0038,0.0074,0.0023
75399,48.481304,-2.638288,84.77,29.82,5.36,275.7,0 / 23,2241951,2019-08-12 17:10:02:393,-0.5367,0.306,9.7622,-0.462,0.2089,9.7935,-0.0038,0.0074,0.0023
75400,48.481304,-2.638288,84.77,29.82,5.36,275.7,0 / 23,2241953,2019-08-12 17:10:02:395,-0.5367,0.306,9.7622,-0.462,0.2089,9.7935,-0.0038,0.0074,0.0023
75401,48.481304,-2.638288,84.77,29.82,5.36,275.7,0 / 23,2241954,2019-08-12 17:10:02:396,-0.5367,0.306,9.7622,-0.462,0.2089,9.7935,-0.0038,0.0074,0.0023
75402,48.481304,-2.638288,84.77,29.82,5.36,275.7,0 / 23,2242032,2019-08-12 17:10:02:474,-0.5367,0.306,9.7622,-0.462,0.2089,9.7935,-0.0038,0.0074,0.0023
75403,48.481304,-2.638288,84.77,29.82,5.36,275.7,0 / 23,2242396,2019-08-12 17:10:02:838,-0.5367,0.306,9.7622,-0.462,0.2089,9.7935,-0.0038,0.0074,0.0023
75404,48.481304,-2.638288,84.77,29.82,5.36,275.7,0 / 23,2242396,2019-08-12 17:10:02:838,-0.5367,0.306,9.7622,-0.462,0.2089,9.7935,-0.0038,0.0074,0.0023
75405,48.481304,-2.638288,84.77,29.82,5.36,275.7,0 / 23,2242397,2019-08-12 17:10:02:839,-0.5367,0.306,9.7622,-0.462,0.2089,9.7935,-0.0038,0.0074,0.0023
75406,48.481304,-2.638288,84.77,29.82,5.36,275.7,0 / 23,2242397,2019-08-12 17:10:02:839,-0.5367,0.306,9.7622,-0.462,0.2089,9.7935,-0.0038,0.0074,0.0023
75407,48.481304,-2.638288,84.77,29.82,5.36,275.7,0 / 23,2242398,2019-08-12 17:10:02:840,-0.5367,0.306,9.7622,-0.462,0.2089,9.7935,-0.0038,0.0074,0.0023
75408,48.481304,-2.638288,84.77,29.82,5.36,275.7,0 / 23,2242399,2019-08-12 17:10:02:841,-0.5367,0.306,9.7622,-0.462,0.2089,9.7935,-0.0038,0.0074,0.0023
75409,48.481304,-2.638288,84.77,29.82,5.36,275.7,0 / 23,2242399,2019-08-12 17:10:02:841,-0.5367,0.306,9.7622,-0.462,0.2089,9.7935,-0.0038,0.0074,0.0023
75410,48.481304,-2.638288,84.77,29.82,5.36,275.7,0 / 23,2242400,2019-08-12 17:10:02:842,-0.5367,0.306,9.7622,-0.462,0.2089,9.7935,-0.0038,0.0074,0.0023
75411,48.481304,-2.638288,84.77,29.82,5.36,275.7,15 / 23,2242400,2019-08-12 17:10:02:842,-0.5367,0.306,9.7622,-0.462,0.2089,9.7935,-0.0038,0.0074,0.0023
75412,48.481304,-2.638288,84.77,29.82,5.36,275.7,15 / 23,2242400,2019-08-12 17:10:02:842,-0.5367,0.306,9.7622,-0.462,0.2089,9.7935,-0.0038,0.0074,0.0023
75413,48.481304,-2.638288,84.77,29.82,5.36,275.7,15 / 23,2242401,2019-08-12 17:10:02:843,-0.5367,0.306,9.7622,-0.462,0.2089,9.7935,-0.0038,0.0074,0.0023
75414,48.481304,-2.638288,84.77,29.82,5.36,275.7,15 / 23,2242401,2019-08-12 17:10:02:843,-0.5367,0.306,9.7622,-0.462,0.2089,9.7935,-0.0038,0.0074,0.0023
75415,48.481304,-2.638288,84.77,29.82,5.36,275.7,15 / 23,2242405,2019-08-12 17:10:02:847,-0.5367,0.306,9.7622,-0.462,0.2089,9.7935,-0.0038,0.0074,0.0023
75416,48.481304,-2.638288,84.77,29.82,5.36,275.7,15 / 23,2242406,2019-08-12 17:10:02:848,-0.5367,0.306,9.7622,-0.462,0.2089,9.7935,-0.0038,0.0074,0.0023
75417,48.481304,-2.638288,84.77,29.82,5.36,275.7,15 / 23,2242406,2019-08-12 17:10:02:848,-0.5367,0.306,9.7622,-0.462,0.2089,9.7935,-0.0038,0.0074,0.0023
75418,48.481304,-2.638288,84.77,29.82,5.36,275.7,15 / 23,2242407,2019-08-12 17:10:02:849,-0.5367,0.306,9.7622,-0.462,0.2089,9.7935,-0.0038,0.0074,0.0023
75419,48.481304,-2.638288,84.77,29.82,5.36,275.7,15 / 23,2242408,2019-08-12 17:10:02:850,-0.5367,0.306,9.7622,-0.462,0.2089,9.7935,-0.0038,0.0074,0.0023
75420,48.481304,-2.638288,84.77,29.82,5.36,275.7,15 / 23,2242408,2019-08-12 17:10:02:850,-0.5367,0.306,9.7622,-0.462,0.2089,9.7935,-0.0038,0.0074,0.0023
75421,48.481304,-2.638288,84.77,29.82,5.36,275.7,15 / 23,2242409,2019-08-12 17:10:02:851,-0.5367,0.306,9.7622,-0.462,0.2089,9.7935,-0.0038,0.0074,0.0023
75422,48.481304,-2.638288,84.77,29.82,5.36,275.7,15 / 23,2242409,2019-08-12 17:10:02:851,-0.5367,0.306,9.7622,-0.462,0.2089,9.7935,-0.0038,0.0074,0.0023
75423,48.481304,-2.638288,84.77,29.82,5.36,275.7,15 / 23,2242410,2019-08-12 17:10:02:852,-0.5367,0.306,9.7622,-0.462,0.2089,9.7935,-0.0038,0.0074,0.0023
75424,48.481304,-2.638288,84.77,29.82,5.36,275.7,15 / 23,2242410,2019-08-12 17:10:02:852,-0.5367,0.306,9.7622,-0.462,0.2089,9.7935,-0.0038,0.0074,0.0023
75425,48.481304,-2.638288,84.77,29.82,5.36,275.7,15 / 23,2242414,2019-08-12 17:10:02:856,-0.5367,0.306,9.7622,-0.462,0.2089,9.7935,-0.0038,0.0074,0.0023
75426,48.481304,-2.638288,84.77,29.82,5.36,275.7,15 / 23,2242414,2019-08-12 17:10:02:856,-0.5367,0.306,9.7622,-0.462,0.2089,9.7935,-0.0038,0.0074,0.0023
75427,48.481304,-2.638288,84.77,29.82,5.36,275.7,15 / 23,2242415,2019-08-12 17:10:02:857,-0.5367,0.306,9.7622,-0.462,0.2089,9.7935,-0.0038,0.0074,0.0023
75428,48.481304,-2.638288,84.77,29.82,5.36,275.7,15 / 23,2242415,2019-08-12 17:10:02:857,-0.5367,0.306,9.7622,-0.462,0.2089,9.7935,-0.0038,0.0074,0.0023
75429,48.481304,-2.638288,84.77,29.82,5.36,275.7,15 / 23,2242416,2019-08-12 17:10:02:858,-0.5367,0.306,9.7622,-0.462,0.2089,9.7935,-0.0038,0.0074,0.0023
75430,48.481304,-2.638288,84.77,29.82,5.36,275.7,15 / 23,2242416,2019-08-12 17:10:02:858,-0.5367,0.306,9.7622,-0.462,0.2089,9.7935,-0.0038,0.0074,0.0023
75431,48.481304,-2.638288,84.77,29.82,5.36,275.7,15 / 23,2242416,2019-08-12 17:10:02:858,-0.5367,0.306,9.7622,-0.462,0.2089,9.7935,-0.0038,0.0074,0.0023
75432,48.481304,-2.638288,84.77,29.82,5.36,275.7,15 / 23,2242417,2019-08-12 17:10:02:859,-0.5367,0.306,9.7622,-0.462,0.2089,9.7935,-0.0038,0.0074,0.0023
75433,48.481304,-2.638288,84.77,29.82,5.36,275.7,15 / 23,2242417,2019-08-12 17:10:02:859,-0.5367,0.306,9.7622,-0.462,0.2089,9.7935,-0.0038,0.0074,0.0023
75434,48.481304,-2.638288,84.77,29.82,5.36,275.7,15 / 23,2242418,2019-08-12 17:10:02:860,-0.5367,0.306,9.7622,-0.462,0.2089,9.7935,-0.0038,0.0074,0.0023
75435,48.481304,-2.638288,84.77,29.82,5.36,275.7,15 / 23,2242418,2019-08-12 17:10:02:860,-0.5367,0.306,9.7622,-0.462,0.2089,9.7935,-0.0038,0.0074,0.0023
75436,48.481304,-2.638288,84.77,29.82,5.36,275.7,15 / 23,2242419,2019-08-12 17:10:02:861,-0.5367,0.306,9.7622,-0.462,0.2089,9.7935,-0.0038,0.0074,0.0023
75437,48.481304,-2.638288,84.77,29.82,5.36,275.7,15 / 23,2242419,2019-08-12 17:10:02:861,-0.5367,0.306,9.7622,-0.462,0.2089,9.7935,-0.0038,0.0074,0.0023
75438,48.481304,-2.638288,84.77,29.82,5.36,275.7,15 / 23,2242420,2019-08-12 17:10:02:862,-0.5367,0.306,9.7622,-0.462,0.2089,9.7935,-0.0038,0.0074,0.0023
75439,48.481304,-2.638288,84.77,29.82,5.36,275.7,15 / 23,2242420,2019-08-12 17:10:02:862,-0.5367,0.306,9.7622,-0.462,0.2089,9.7935,-0.0038,0.0074,0.0023
75440,48.481304,-2.638288,84.77,29.82,5.36,275.7,15 / 23,2242420,2019-08-12 17:10:02:862,-0.5367,0.306,9.7622,-0.462,0.2089,9.7935,-0.0038,0.0074,0.0023
75441,48.481304,-2.638288,84.77,29.82,5.36,275.7,15 / 23,2242421,2019-08-12 17:10:02:863,-0.5367,0.306,9.7622,-0.462,0.2089,9.7935,-0.0038,0.0074,0.0023
75442,48.481304,-2.638288,84.77,29.82,5.36,275.7,15 / 23,2242421,2019-08-12 17:10:02:863,-0.5367,0.306,9.7622,-0.462,0.2089,9.7935,-0.0038,0.0074,0.0023
75443,48.481304,-2.638288,84.77,29.82,5.36,275.7,15 / 23,2242423,2019-08-12 17:10:02:865,-0.5367,0.306,9.7622,-0.462,0.2089,9.7935,-0.0038,0.0074,0.0023
75444,48.481304,-2.638288,84.77,29.82,5.36,275.7,15 / 23,2242423,2019-08-12 17:10:02:865,-0.5367,0.306,9.7622,-0.462,0.2089,9.7935,-0.0038,0.0074,0.0023
75445,48.481304,-2.638288,84.77,29.82,5.36,275.7,15 / 23,2242424,2019-08-12 17:10:02:866,-0.5367,0.306,9.7622,-0.462,0.2089,9.7935,-0.0038,0.0074,0.0023
75446,48.481304,-2.638288,84.77,29.82,5.36,275.7,15 / 23,2242424,2019-08-12 17:10:02:866,-0.5367,0.306,9.7622,-0.462,0.2089,9.7935,-0.0038,0.0074,0.0023
75447,48.481304,-2.638288,84.77,29.82,5.36,275.7,15 / 23,2242424,2019-08-12 17:10:02:866,-0.5367,0.306,9.7622,-0.462,0.2089,9.7935,-0.0038,0.0074,0.0023
75448,48.481304,-2.638288,84.77,29.82,5.36,275.7,15 / 23,2242425,2019-08-12 17:10:02:867,-0.5367,0.306,9.7622,-0.462,0.2089,9.7935,-0.0038,0.0074,0.0023
75449,48.481304,-2.638288,84.77,29.82,5.36,275.7,15 / 23,2242518,2019-08-12 17:10:02:960,-0.5367,0.306,9.7622,-0.462,0.2089,9.7935,-0.0038,0.0074,0.0023
75450,48.481304,-2.638288,84.77,29.82,5.36,275.7,15 / 23,2242865,2019-08-12 17:10:03:307,-0.5367,0.306,9.7622,-0.462,0.2089,9.7935,-0.0038,0.0074,0.0023
75451,48.481304,-2.638288,84.77,29.82,5.36,275.7,15 / 23,2242866,2019-08-12 17:10:03:308,-0.5367,0.306,9.7622,-0.462,0.2089,9.7935,-0.0038,0.0074,0.0023
75452,48.481304,-2.638288,84.77,29.82,5.36,275.7,15 / 23,2242866,2019-08-12 17:10:03:308,-0.5367,0.306,9.7622,-0.462,0.2089,9.7935,-0.0038,0.0074,0.0023
75453,48.481304,-2.638288,84.77,29.82,5.36,275.7,15 / 23,2242867,2019-08-12 17:10:03:309,-0.5367,0.306,9.7622,-0.462,0.2089,9.7935,-0.0038,0.0074,0.0023
75454,48.481304,-2.638288,84.77,29.82,5.36,275.7,15 / 23,2242867,2019-08-12 17:10:03:309,-0.5367,0.306,9.7622,-0.462,0.2089,9.7935,-0.0038,0.0074,0.0023
75455,48.481304,-2.638288,84.77,29.82,5.36,275.7,15 / 23,2242867,2019-08-12 17:10:03:309,-0.5367,0.306,9.7622,-0.462,0.2089,9.7935,-0.0038,0.0074,0.0023
75456,48.481304,-2.638288,84.77,29.82,5.36,275.7,15 / 23,2242868,2019-08-12 17:10:03:310,-0.5367,0.306,9.7622,-0.462,0.2089,9.7935,-0.0038,0.0074,0.0023
75457,48.481304,-2.638288,84.77,29.82,5.36,275.7,15 / 23,2242868,2019-08-12 17:10:03:310,-0.5367,0.306,9.7622,-0.462,0.2089,9.7935,-0.0038,0.0074,0.0023
75458,48.481304,-2.638288,84.77,29.82,5.36,275.7,0 / 23,2242877,2019-08-12 17:10:03:319,-0.5367,0.306,9.7622,-0.462,0.2089,9.7935,-0.0038,0.0074,0.0023
75459,48.48138,-2.642009,88.56,28.88,8.576,269.6,0 / 23,2242977,2019-08-12 17:10:03:419,-0.5367,0.306,9.7622,-0.462,0.2089,9.7935,-0.0038,0.0074,0.0023
75460,48.48138,-2.642009,88.56,28.88,8.576,269.6,0 / 23,2243077,2019-08-12 17:10:03:519,-0.4589,0.5131,9.7909,-0.6558,0.5077,9.7715,-0.0038,0.0074,0.0023
75461,48.48138,-2.642009,88.56,28.88,8.576,269.6,0 / 23,2243177,2019-08-12 17:10:03:619,-0.8479,0.3108,9.9226,-0.6524,0.511,9.7716,-0.0038,-0.0128,0.0119
75462,48.48138,-2.642009,88.56,28.88,8.576,269.6,0 / 23,2243277,2019-08-12 17:10:03:719,-0.9545,0.4772,9.3384,-0.6663,0.5075,9.7708,-0.0048,0.0117,0.0087
75463,48.48138,-2.642009,88.56,28.88,8.576,269.6,0 / 23,2243377,2019-08-12 17:10:03:819,-0.7857,0.6089,10.1321,-0.6921,0.498,9.7695,-0.0027,0.0138,0.0119
75464,48.48138,-2.642009,88.56,28.88,8.576,269.6,0 / 23,2243477,2019-08-12 17:10:03:919,-0.7857,0.6089,10.1321,-0.7035,0.4971,9.7687,-0.0027,0.0213,0.0119
75465,48.48138,-2.642009,88.56,28.88,8.576,269.6,0 / 23,2243577,2019-08-12 17:10:04:019,-0.7857,0.6089,10.1321,-0.7035,0.4971,9.7687,-0.0027,0.0213,0.0119
75466,48.48138,-2.642009,88.56,28.88,8.576,269.6,0 / 23,2243677,2019-08-12 17:10:04:119,-0.8551,0.5526,9.7766,-0.7391,0.4937,9.7663,-0.0219,-0.033,0.0108
75467,48.48138,-2.642009,88.56,28.88,8.576,269.6,0 / 23,2244017,2019-08-12 17:10:04:459,-0.8551,0.5526,9.7766,-0.7391,0.4937,9.7663,-0.0219,-0.033,0.0108
75468,48.48138,-2.642009,88.56,28.88,8.576,269.6,0 / 23,2244017,2019-08-12 17:10:04:459,-0.8551,0.5526,9.7766,-0.7391,0.4937,9.7663,-0.0219,-0.033,0.0108
75469,48.48138,-2.642009,88.56,28.88,8.576,269.6,0 / 23,2244018,2019-08-12 17:10:04:460,-0.8551,0.5526,9.7766,-0.7391,0.4937,9.7663,-0.0219,-0.033,0.0108
75470,48.48138,-2.642009,88.56,28.88,8.576,269.6,0 / 23,2244018,2019-08-12 17:10:04:460,-0.8551,0.5526,9.7766,-0.7391,0.4937,9.7663,-0.0219,-0.033,0.0108
75471,48.48138,-2.642009,88.56,28.88,8.576,269.6,0 / 23,2244018,2019-08-12 17:10:04:460,-0.8551,0.5526,9.7766,-0.7391,0.4937,9.7663,-0.0219,-0.033,0.0108
75472,48.48138,-2.642009,88.56,28.88,8.576,269.6,0 / 23,2244019,2019-08-12 17:10:04:461,-0.8551,0.5526,9.7766,-0.7391,0.4937,9.7663,-0.0219,-0.033,0.0108
75473,48.48138,-2.642009,88.56,28.88,8.576,269.6,0 / 23,2244021,2019-08-12 17:10:04:463,-0.8551,0.5526,9.7766,-0.7391,0.4937,9.7663,-0.0219,-0.033,0.0108
75474,48.48138,-2.642009,88.56,28.88,8.576,269.6,0 / 23,2244021,2019-08-12 17:10:04:463,-0.8551,0.5526,9.7766,-0.7391,0.4937,9.7663,-0.0219,-0.033,0.0108
75475,48.48138,-2.642009,88.56,28.88,8.576,269.6,0 / 23,2244022,2019-08-12 17:10:04:464,-0.8551,0.5526,9.7766,-0.7391,0.4937,9.7663,-0.0219,-0.033,0.0108
75476,48.48138,-2.642009,88.56,28.88,8.576,269.6,0 / 23,2244022,2019-08-12 17:10:04:464,-0.8551,0.5526,9.7766,-0.7391,0.4937,9.7663,-0.0219,-0.033,0.0108
75477,48.48138,-2.642009,88.56,28.88,8.576,269.6,0 / 23,2244022,2019-08-12 17:10:04:464,-0.8551,0.5526,9.7766,-0.7391,0.4937,9.7663,-0.0219,-0.033,0.0108
75478,48.48138,-2.642009,88.56,28.88,8.576,269.6,0 / 23,2244023,2019-08-12 17:10:04:465,-0.8551,0.5526,9.7766,-0.7391,0.4937,9.7663,-0.0219,-0.033,0.0108
75479,48.48138,-2.642009,88.56,28.88,8.576,269.6,0 / 23,2244023,2019-08-12 17:10:04:465,-0.8551,0.5526,9.7766,-0.7391,0.4937,9.7663,-0.0219,-0.033,0.0108
75480,48.48138,-2.642009,88.56,28.88,8.576,269.6,0 / 23,2244024,2019-08-12 17:10:04:466,-0.8551,0.5526,9.7766,-0.7391,0.4937,9.7663,-0.0219,-0.033,0.0108
75481,48.48138,-2.642009,88.56,28.88,8.576,269.6,0 / 23,2244024,2019-08-12 17:10:04:466,-0.8551,0.5526,9.7766,-0.7391,0.4937,9.7663,-0.0219,-0.033,0.0108
75482,48.48138,-2.642009,88.56,28.88,8.576,269.6,0 / 23,2244024,2019-08-12 17:10:04:466,-0.8551,0.5526,9.7766,-0.7391,0.4937,9.7663,-0.0219,-0.033,0.0108
75483,48.48138,-2.642009,88.56,28.88,8.576,269.6,0 / 23,2244025,2019-08-12 17:10:04:467,-0.8551,0.5526,9.7766,-0.7391,0.4937,9.7663,-0.0219,-0.033,0.0108
75484,48.48138,-2.642009,88.56,28.88,8.576,269.6,0 / 23,2244034,2019-08-12 17:10:04:476,-0.8551,0.5526,9.7766,-0.7391,0.4937,9.7663,-0.0219,-0.033,0.0108
75485,48.48138,-2.642009,88.56,28.88,8.576,269.6,0 / 23,2244035,2019-08-12 17:10:04:477,-0.8551,0.5526,9.7766,-0.7391,0.4937,9.7663,-0.0219,-0.033,0.0108
75486,48.48138,-2.642009,88.56,28.88,8.576,269.6,0 / 23,2244036,2019-08-12 17:10:04:478,-0.8551,0.5526,9.7766,-0.7391,0.4937,9.7663,-0.0219,-0.033,0.0108
75487,48.48138,-2.642009,88.56,28.88,8.576,269.6,0 / 23,2244036,2019-08-12 17:10:04:478,-0.8551,0.5526,9.7766,-0.7391,0.4937,9.7663,-0.0219,-0.033,0.0108
75488,48.48138,-2.642009,88.56,28.88,8.576,269.6,0 / 23,2244036,2019-08-12 17:10:04:478,-0.8551,0.5526,9.7766,-0.7391,0.4937,9.7663,-0.0219,-0.033,0.0108
75489,48.48138,-2.642009,88.56,28.88,8.576,269.6,0 / 23,2244037,2019-08-12 17:10:04:479,-0.8551,0.5526,9.7766,-0.7391,0.4937,9.7663,-0.0219,-0.033,0.0108
75490,48.48138,-2.642009,88.56,28.88,8.576,269.6,0 / 23,2244037,2019-08-12 17:10:04:479,-0.8551,0.5526,9.7766,-0.7391,0.4937,9.7663,-0.0219,-0.033,0.0108
75491,48.48138,-2.642009,88.56,28.88,8.576,269.6,0 / 23,2244037,2019-08-12 17:10:04:479,-0.8551,0.5526,9.7766,-0.7391,0.4937,9.7663,-0.0219,-0.033,0.0108
75492,48.48138,-2.642009,88.56,28.88,8.576,269.6,0 / 23,2244038,2019-08-12 17:10:04:480,-0.8551,0.5526,9.7766,-0.7391,0.4937,9.7663,-0.0219,-0.033,0.0108
75493,48.48138,-2.642009,88.56,28.88,8.576,269.6,0 / 23,2244038,2019-08-12 17:10:04:480,-0.8551,0.5526,9.7766,-0.7391,0.4937,9.7663,-0.0219,-0.033,0.0108
75494,48.48138,-2.642009,88.56,28.88,8.576,269.6,0 / 23,2244039,2019-08-12 17:10:04:481,-0.8551,0.5526,9.7766,-0.7391,0.4937,9.7663,-0.0219,-0.033,0.0108
75495,48.48138,-2.642009,88.56,28.88,8.576,269.6,0 / 23,2244039,2019-08-12 17:10:04:481,-0.8551,0.5526,9.7766,-0.7391,0.4937,9.7663,-0.0219,-0.033,0.0108
75496,48.48138,-2.642009,88.56,28.88,8.576,269.6,0 / 23,2244040,2019-08-12 17:10:04:482,-0.8551,0.5526,9.7766,-0.7391,0.4937,9.7663,-0.0219,-0.033,0.0108
75497,48.48138,-2.642009,88.56,28.88,8.576,269.6,0 / 23,2244040,2019-08-12 17:10:04:482,-0.8551,0.5526,9.7766,-0.7391,0.4937,9.7663,-0.0219,-0.033,0.0108
75498,48.48138,-2.642009,88.56,28.88,8.576,269.6,0 / 23,2244040,2019-08-12 17:10:04:482,-0.8551,0.5526,9.7766,-0.7391,0.4937,9.7663,-0.0219,-0.033,0.0108
75499,48.48138,-2.642009,88.56,28.88,8.576,269.6,0 / 23,2244041,2019-08-12 17:10:04:483,-0.8551,0.5526,9.7766,-0.7391,0.4937,9.7663,-0.0219,-0.033,0.0108
75500,48.48138,-2.642009,88.56,28.88,8.576,269.6,0 / 23,2244043,2019-08-12 17:10:04:485,-0.8551,0.5526,9.7766,-0.7391,0.4937,9.7663,-0.0219,-0.033,0.0108
75501,48.48138,-2.642009,88.56,28.88,8.576,269.6,0 / 23,2244046,2019-08-12 17:10:04:488,-0.8551,0.5526,9.7766,-0.7391,0.4937,9.7663,-0.0219,-0.033,0.0108
75502,48.48138,-2.642009,88.56,28.88,8.576,269.6,0 / 23,2244046,2019-08-12 17:10:04:488,-0.8551,0.5526,9.7766,-0.7391,0.4937,9.7663,-0.0219,-0.033,0.0108
75503,48.48138,-2.642009,88.56,28.88,8.576,269.6,0 / 23,2244047,2019-08-12 17:10:04:489,-0.8551,0.5526,9.7766,-0.7391,0.4937,9.7663,-0.0219,-0.033,0.0108
75504,48.48138,-2.642009,88.56,28.88,8.576,269.6,0 / 23,2244047,2019-08-12 17:10:04:489,-0.8551,0.5526,9.7766,-0.7391,0.4937,9.7663,-0.0219,-0.033,0.0108
75505,48.48138,-2.642009,88.56,28.88,8.576,269.6,0 / 23,2244048,2019-08-12 17:10:04:490,-0.8551,0.5526,9.7766,-0.7391,0.4937,9.7663,-0.0219,-0.033,0.0108
75506,48.48138,-2.642009,88.56,28.88,8.576,269.6,0 / 23,2244048,2019-08-12 17:10:04:490,-0.8551,0.5526,9.7766,-0.7391,0.4937,9.7663,-0.0219,-0.033,0.0108
75507,48.48138,-2.642009,88.56,28.88,8.576,269.6,0 / 23,2244048,2019-08-12 17:10:04:490,-0.8551,0.5526,9.7766,-0.7391,0.4937,9.7663,-0.0219,-0.033,0.0108
75508,48.48138,-2.642009,88.56,28.88,8.576,269.6,0 / 23,2244049,2019-08-12 17:10:04:491,-0.8551,0.5526,9.7766,-0.7391,0.4937,9.7663,-0.0219,-0.033,0.0108
75509,48.48138,-2.642009,88.56,28.88,8.576,269.6,0 / 23,2244049,2019-08-12 17:10:04:491,-0.8551,0.5526,9.7766,-0.7391,0.4937,9.7663,-0.0219,-0.033,0.0108
75510,48.48138,-2.642009,88.56,28.88,8.576,269.6,0 / 23,2244050,2019-08-12 17:10:04:492,-0.8551,0.5526,9.7766,-0.7391,0.4937,9.7663,-0.0219,-0.033,0.0108
75511,48.48138,-2.642009,88.56,28.88,8.576,269.6,0 / 23,2244120,2019-08-12 17:10:04:562,-1.0921,0.6651,9.3875,-0.7391,0.4937,9.7663,0.0005,0.0032,0.0001
75512,48.48138,-2.642009,88.56,28.88,8.576,269.6,0 / 23,2244221,2019-08-12 17:10:04:663,-0.3427,0.306,10.0196,-0.7391,0.4937,9.7663,0.0005,-0.0043,0.0001
75513,48.48138,-2.642009,88.56,28.88,8.576,269.6,0 / 23,2244322,2019-08-12 17:10:04:764,-0.7378,0.3455,9.4677,-0.5796,0.4839,9.7775,-0.0006,-0.0117,0.0044
75514,48.48138,-2.642009,88.56,28.88,8.576,269.6,0 / 23,2244421,2019-08-12 17:10:04:863,-0.6001,0.4269,9.4761,-0.5667,0.4565,9.7796,-0.0134,-0.0043,0.0055
75515,48.48138,-2.642009,88.56,28.88,8.576,269.6,0 / 23,2244842,2019-08-12 17:10:05:284,-0.2494,0.3706,10.2793,-0.5545,0.45,9.7806,-0.0038,-0.0021,0.0087
75516,48.48138,-2.642009,88.56,28.88,8.576,269.6,0 / 23,2244843,2019-08-12 17:10:05:285,-0.2494,0.3706,10.2793,-0.5545,0.45,9.7806,-0.0038,-0.0021,0.0087
75517,48.48138,-2.642009,88.56,28.88,8.576,269.6,0 / 23,2244843,2019-08-12 17:10:05:285,-0.2494,0.3706,10.2793,-0.5545,0.45,9.7806,-0.0038,-0.0021,0.0087
75518,48.48138,-2.642009,88.56,28.88,8.576,269.6,0 / 23,2244844,2019-08-12 17:10:05:286,-0.2494,0.3706,10.2793,-0.5545,0.45,9.7806,-0.0038,-0.0021,0.0087
75519,48.48138,-2.642009,88.56,28.88,8.576,269.6,0 / 23,2244844,2019-08-12 17:10:05:286,-0.2494,0.3706,10.2793,-0.5545,0.45,9.7806,-0.0038,-0.0021,0.0087
75520,48.48138,-2.642009,88.56,28.88,8.576,269.6,0 / 23,2244844,2019-08-12 17:10:05:286,-0.2494,0.3706,10.2793,-0.5545,0.45,9.7806,-0.0038,-0.0021,0.0087
75521,48.48138,-2.642009,88.56,28.88,8.576,269.6,0 / 23,2244845,2019-08-12 17:10:05:287,-0.2494,0.3706,10.2793,-0.5545,0.45,9.7806,-0.0038,-0.0021,0.0087
75522,48.48138,-2.642009,88.56,28.88,8.576,269.6,0 / 23,2244846,2019-08-12 17:10:05:288,-0.2494,0.3706,10.2793,-0.5545,0.45,9.7806,-0.0038,-0.0021,0.0087
75523,48.48138,-2.642009,88.56,28.88,8.576,269.6,0 / 23,2244846,2019-08-12 17:10:05:288,-0.2494,0.3706,10.2793,-0.5545,0.45,9.7806,-0.0038,-0.0021,0.0087
75524,48.48138,-2.642009,88.56,28.88,8.576,269.6,0 / 23,2244846,2019-08-12 17:10:05:288,-0.2494,0.3706,10.2793,-0.5545,0.45,9.7806,-0.0038,-0.0021,0.0087
75525,48.48138,-2.642009,88.56,28.88,8.576,269.6,0 / 23,2244847,2019-08-12 17:10:05:289,-0.2494,0.3706,10.2793,-0.5545,0.45,9.7806,-0.0038,-0.0021,0.0087
75526,48.48138,-2.642009,88.56,28.88,8.576,269.6,0 / 23,2244847,2019-08-12 17:10:05:289,-0.2494,0.3706,10.2793,-0.5545,0.45,9.7806,-0.0038,-0.0021,0.0087
75527,48.48138,-2.642009,88.56,28.88,8.576,269.6,0 / 23,2244848,2019-08-12 17:10:05:290,-0.2494,0.3706,10.2793,-0.5545,0.45,9.7806,-0.0038,-0.0021,0.0087
75528,48.48138,-2.642009,88.56,28.88,8.576,269.6,0 / 23,2244848,2019-08-12 17:10:05:290,-0.2494,0.3706,10.2793,-0.5545,0.45,9.7806,-0.0038,-0.0021,0.0087
75529,48.48138,-2.642009,88.56,28.88,8.576,269.6,0 / 23,2244849,2019-08-12 17:10:05:291,-0.2494,0.3706,10.2793,-0.5545,0.45,9.7806,-0.0038,-0.0021,0.0087
75530,48.48138,-2.642009,88.56,28.88,8.576,269.6,0 / 23,2244852,2019-08-12 17:10:05:294,-0.2494,0.3706,10.2793,-0.5545,0.45,9.7806,-0.0038,-0.0021,0.0087
75531,48.48138,-2.642009,88.56,28.88,8.576,269.6,0 / 23,2244853,2019-08-12 17:10:05:295,-0.2494,0.3706,10.2793,-0.5545,0.45,9.7806,-0.0038,-0.0021,0.0087
75532,48.48138,-2.642009,88.56,28.88,8.576,269.6,0 / 23,2244853,2019-08-12 17:10:05:295,-0.2494,0.3706,10.2793,-0.5545,0.45,9.7806,-0.0038,-0.0021,0.0087
75533,48.48138,-2.642009,88.56,28.88,8.576,269.6,0 / 23,2244854,2019-08-12 17:10:05:296,-0.2494,0.3706,10.2793,-0.5545,0.45,9.7806,-0.0038,-0.0021,0.0087
75534,48.48138,-2.642009,88.56,28.88,8.576,269.6,0 / 23,2244854,2019-08-12 17:10:05:296,-0.2494,0.3706,10.2793,-0.5545,0.45,9.7806,-0.0038,-0.0021,0.0087
75535,48.48138,-2.642009,88.56,28.88,8.576,269.6,0 / 23,2244854,2019-08-12 17:10:05:296,-0.2494,0.3706,10.2793,-0.5545,0.45,9.7806,-0.0038,-0.0021,0.0087
75536,48.48138,-2.642009,88.56,28.88,8.576,269.6,0 / 23,2244855,2019-08-12 17:10:05:297,-0.2494,0.3706,10.2793,-0.5545,0.45,9.7806,-0.0038,-0.0021,0.0087
75537,48.48138,-2.642009,88.56,28.88,8.576,269.6,0 / 23,2244855,2019-08-12 17:10:05:297,-0.2494,0.3706,10.2793,-0.5545,0.45,9.7806,-0.0038,-0.0021,0.0087
75538,48.48138,-2.642009,88.56,28.88,8.576,269.6,0 / 23,2244856,2019-08-12 17:10:05:298,-0.2494,0.3706,10.2793,-0.5545,0.45,9.7806,-0.0038,-0.0021,0.0087
75539,48.48138,-2.642009,88.56,28.88,8.576,269.6,14 / 23,2244953,2019-08-12 17:10:05:395,-0.2494,0.3706,10.2793,-0.5545,0.45,9.7806,-0.0038,-0.0021,0.0087
75540,48.48138,-2.642009,88.56,28.88,8.576,269.6,0 / 23,2245303,2019-08-12 17:10:05:745,-0.2494,0.3706,10.2793,-0.5545,0.45,9.7806,-0.0038,-0.0021,0.0087
75541,48.48138,-2.642009,88.56,28.88,8.576,269.6,0 / 23,2245304,2019-08-12 17:10:05:746,-0.2494,0.3706,10.2793,-0.5545,0.45,9.7806,-0.0038,-0.0021,0.0087
75542,48.48138,-2.642009,88.56,28.88,8.576,269.6,0 / 23,2245304,2019-08-12 17:10:05:746,-0.2494,0.3706,10.2793,-0.5545,0.45,9.7806,-0.0038,-0.0021,0.0087
75543,48.48138,-2.642009,88.56,28.88,8.576,269.6,0 / 23,2245305,2019-08-12 17:10:05:747,-0.2494,0.3706,10.2793,-0.5545,0.45,9.7806,-0.0038,-0.0021,0.0087
75544,48.48138,-2.642009,88.56,28.88,8.576,269.6,0 / 23,2245305,2019-08-12 17:10:05:747,-0.2494,0.3706,10.2793,-0.5545,0.45,9.7806,-0.0038,-0.0021,0.0087
75545,48.48138,-2.642009,88.56,28.88,8.576,269.6,0 / 23,2245306,2019-08-12 17:10:05:748,-0.2494,0.3706,10.2793,-0.5545,0.45,9.7806,-0.0038,-0.0021,0.0087
75546,48.48138,-2.642009,88.56,28.88,8.576,269.6,0 / 23,2245306,2019-08-12 17:10:05:748,-0.2494,0.3706,10.2793,-0.5545,0.45,9.7806,-0.0038,-0.0021,0.0087
75547,48.48138,-2.642009,88.56,28.88,8.576,269.6,0 / 23,2245306,2019-08-12 17:10:05:748,-0.2494,0.3706,10.2793,-0.5545,0.45,9.7806,-0.0038,-0.0021,0.0087
75548,48.48138,-2.642009,88.56,28.88,8.576,269.6,0 / 23,2245312,2019-08-12 17:10:05:754,-0.2494,0.3706,10.2793,-0.5545,0.45,9.7806,-0.0038,-0.0021,0.0087
75549,48.481274,-2.645222,80.32,26.17,6.432,264.4,0 / 23,2245412,2019-08-12 17:10:05:854,-0.2494,0.3706,10.2793,-0.5545,0.45,9.7806,-0.0038,-0.0021,0.0087
75550,48.481274,-2.645222,80.32,26.17,6.432,264.4,0 / 23,2245779,2019-08-12 17:10:06:221,-0.2494,0.3706,10.2793,-0.5545,0.45,9.7806,-0.0038,-0.0021,0.0087
75551,48.481274,-2.645222,80.32,26.17,6.432,264.4,0 / 23,2245780,2019-08-12 17:10:06:222,-0.2494,0.3706,10.2793,-0.5545,0.45,9.7806,-0.0038,-0.0021,0.0087
75552,48.481274,-2.645222,80.32,26.17,6.432,264.4,0 / 23,2245781,2019-08-12 17:10:06:223,-0.2494,0.3706,10.2793,-0.5545,0.45,9.7806,-0.0038,-0.0021,0.0087
75553,48.481274,-2.645222,80.32,26.17,6.432,264.4,0 / 23,2245781,2019-08-12 17:10:06:223,-0.2494,0.3706,10.2793,-0.5545,0.45,9.7806,-0.0038,-0.0021,0.0087
75554,48.481274,-2.645222,80.32,26.17,6.432,264.4,0 / 23,2245784,2019-08-12 17:10:06:226,-0.2494,0.3706,10.2793,-0.5545,0.45,9.7806,-0.0038,-0.0021,0.0087
75555,48.481274,-2.645222,80.32,26.17,6.432,264.4,0 / 23,2245785,2019-08-12 17:10:06:227,-0.2494,0.3706,10.2793,-0.5545,0.45,9.7806,-0.0038,-0.0021,0.0087
75556,48.481274,-2.645222,80.32,26.17,6.432,264.4,0 / 23,2245786,2019-08-12 17:10:06:228,-0.2494,0.3706,10.2793,-0.5545,0.45,9.7806,-0.0038,-0.0021,0.0087
75557,48.481274,-2.645222,80.32,26.17,6.432,264.4,0 / 23,2245787,2019-08-12 17:10:06:229,-0.2494,0.3706,10.2793,-0.5545,0.45,9.7806,-0.0038,-0.0021,0.0087
75558,48.481274,-2.645222,80.32,26.17,6.432,264.4,0 / 23,2245787,2019-08-12 17:10:06:229,-0.2494,0.3706,10.2793,-0.5545,0.45,9.7806,-0.0038,-0.0021,0.0087
75559,48.481274,-2.645222,80.32,26.17,6.432,264.4,0 / 23,2245787,2019-08-12 17:10:06:229,-0.2494,0.3706,10.2793,-0.5545,0.45,9.7806,-0.0038,-0.0021,0.0087
75560,48.481274,-2.645222,80.32,26.17,6.432,264.4,0 / 23,2245788,2019-08-12 17:10:06:230,-0.2494,0.3706,10.2793,-0.5545,0.45,9.7806,-0.0038,-0.0021,0.0087
75561,48.481274,-2.645222,80.32,26.17,6.432,264.4,0 / 23,2245789,2019-08-12 17:10:06:231,-0.2494,0.3706,10.2793,-0.5545,0.45,9.7806,-0.0038,-0.0021,0.0087
75562,48.481274,-2.645222,80.32,26.17,6.432,264.4,0 / 23,2245856,2019-08-12 17:10:06:298,-0.2494,0.3706,10.2793,-0.5545,0.45,9.7806,-0.0038,-0.0021,0.0087
75563,48.481274,-2.645222,80.32,26.17,6.432,264.4,14 / 23,2246255,2019-08-12 17:10:06:697,-0.2494,0.3706,10.2793,-0.5545,0.45,9.7806,-0.0038,-0.0021,0.0087
75564,48.481274,-2.645222,80.32,26.17,6.432,264.4,14 / 23,2246257,2019-08-12 17:10:06:699,-0.2494,0.3706,10.2793,-0.5545,0.45,9.7806,-0.0038,-0.0021,0.0087
75565,48.481274,-2.645222,80.32,26.17,6.432,264.4,14 / 23,2246257,2019-08-12 17:10:06:699,-0.2494,0.3706,10.2793,-0.5545,0.45,9.7806,-0.0038,-0.0021,0.0087
75566,48.481274,-2.645222,80.32,26.17,6.432,264.4,14 / 23,2246258,2019-08-12 17:10:06:700,-0.2494,0.3706,10.2793,-0.5545,0.45,9.7806,-0.0038,-0.0021,0.0087
75567,48.481274,-2.645222,80.32,26.17,6.432,264.4,14 / 23,2246258,2019-08-12 17:10:06:700,-0.2494,0.3706,10.2793,-0.5545,0.45,9.7806,-0.0038,-0.0021,0.0087
75568,48.481274,-2.645222,80.32,26.17,6.432,264.4,14 / 23,2246259,2019-08-12 17:10:06:701,-0.2494,0.3706,10.2793,-0.5545,0.45,9.7806,-0.0038,-0.0021,0.0087
75569,48.481274,-2.645222,80.32,26.17,6.432,264.4,14 / 23,2246259,2019-08-12 17:10:06:701,-0.2494,0.3706,10.2793,-0.5545,0.45,9.7806,-0.0038,-0.0021,0.0087
75570,48.481274,-2.645222,80.32,26.17,6.432,264.4,14 / 23,2246260,2019-08-12 17:10:06:702,-0.2494,0.3706,10.2793,-0.5545,0.45,9.7806,-0.0038,-0.0021,0.0087
75571,48.481274,-2.645222,80.32,26.17,6.432,264.4,14 / 23,2246260,2019-08-12 17:10:06:702,-0.2494,0.3706,10.2793,-0.5545,0.45,9.7806,-0.0038,-0.0021,0.0087
75572,48.481274,-2.645222,80.32,26.17,6.432,264.4,14 / 23,2246260,2019-08-12 17:10:06:702,-0.2494,0.3706,10.2793,-0.5545,0.45,9.7806,-0.0038,-0.0021,0.0087
75573,48.481274,-2.645222,80.32,26.17,6.432,264.4,14 / 23,2246261,2019-08-12 17:10:06:703,-0.2494,0.3706,10.2793,-0.5545,0.45,9.7806,-0.0038,-0.0021,0.0087
75574,48.481274,-2.645222,80.32,26.17,6.432,264.4,14 / 23,2246261,2019-08-12 17:10:06:703,-0.2494,0.3706,10.2793,-0.5545,0.45,9.7806,-0.0038,-0.0021,0.0087
75575,48.481274,-2.645222,80.32,26.17,6.432,264.4,14 / 23,2246262,2019-08-12 17:10:06:704,-0.2494,0.3706,10.2793,-0.5545,0.45,9.7806,-0.0038,-0.0021,0.0087
75576,48.481274,-2.645222,80.32,26.17,6.432,264.4,14 / 23,2246262,2019-08-12 17:10:06:704,-0.2494,0.3706,10.2793,-0.5545,0.45,9.7806,-0.0038,-0.0021,0.0087
75577,48.481274,-2.645222,80.32,26.17,6.432,264.4,14 / 23,2246263,2019-08-12 17:10:06:705,-0.2494,0.3706,10.2793,-0.5545,0.45,9.7806,-0.0038,-0.0021,0.0087
75578,48.481274,-2.645222,80.32,26.17,6.432,264.4,14 / 23,2246263,2019-08-12 17:10:06:705,-0.2494,0.3706,10.2793,-0.5545,0.45,9.7806,-0.0038,-0.0021,0.0087
75579,48.481274,-2.645222,80.32,26.17,6.432,264.4,14 / 23,2246263,2019-08-12 17:10:06:705,-0.2494,0.3706,10.2793,-0.5545,0.45,9.7806,-0.0038,-0.0021,0.0087
75580,48.481274,-2.645222,80.32,26.17,6.432,264.4,14 / 23,2246264,2019-08-12 17:10:06:706,-0.2494,0.3706,10.2793,-0.5545,0.45,9.7806,-0.0038,-0.0021,0.0087
75581,48.481274,-2.645222,80.32,26.17,6.432,264.4,14 / 23,2246264,2019-08-12 17:10:06:706,-0.2494,0.3706,10.2793,-0.5545,0.45,9.7806,-0.0038,-0.0021,0.0087
75582,48.481274,-2.645222,80.32,26.17,6.432,264.4,14 / 23,2246265,2019-08-12 17:10:06:707,-0.2494,0.3706,10.2793,-0.5545,0.45,9.7806,-0.0038,-0.0021,0.0087
75583,48.481274,-2.645222,80.32,26.17,6.432,264.4,14 / 23,2246265,2019-08-12 17:10:06:707,-0.2494,0.3706,10.2793,-0.5545,0.45,9.7806,-0.0038,-0.0021,0.0087
75584,48.481274,-2.645222,80.32,26.17,6.432,264.4,14 / 23,2246266,2019-08-12 17:10:06:708,-0.2494,0.3706,10.2793,-0.5545,0.45,9.7806,-0.0038,-0.0021,0.0087
75585,48.481274,-2.645222,80.32,26.17,6.432,264.4,14 / 23,2246266,2019-08-12 17:10:06:708,-0.2494,0.3706,10.2793,-0.5545,0.45,9.7806,-0.0038,-0.0021,0.0087
75586,48.481274,-2.645222,80.32,26.17,6.432,264.4,14 / 23,2246268,2019-08-12 17:10:06:710,-0.2494,0.3706,10.2793,-0.5545,0.45,9.7806,-0.0038,-0.0021,0.0087
75587,48.481274,-2.645222,80.32,26.17,6.432,264.4,14 / 23,2246269,2019-08-12 17:10:06:711,-0.2494,0.3706,10.2793,-0.5545,0.45,9.7806,-0.0038,-0.0021,0.0087
75588,48.481274,-2.645222,80.32,26.17,6.432,264.4,14 / 23,2246270,2019-08-12 17:10:06:712,-0.2494,0.3706,10.2793,-0.5545,0.45,9.7806,-0.0038,-0.0021,0.0087
75589,48.481274,-2.645222,80.32,26.17,6.432,264.4,14 / 23,2246272,2019-08-12 17:10:06:714,-0.2494,0.3706,10.2793,-0.5545,0.45,9.7806,-0.0038,-0.0021,0.0087
75590,48.481274,-2.645222,80.32,26.17,6.432,264.4,14 / 23,2246272,2019-08-12 17:10:06:714,-0.2494,0.3706,10.2793,-0.5545,0.45,9.7806,-0.0038,-0.0021,0.0087
75591,48.481274,-2.645222,80.32,26.17,6.432,264.4,14 / 23,2246273,2019-08-12 17:10:06:715,-0.2494,0.3706,10.2793,-0.5545,0.45,9.7806,-0.0038,-0.0021,0.0087
75592,48.481274,-2.645222,80.32,26.17,6.432,264.4,14 / 23,2246273,2019-08-12 17:10:06:715,-0.2494,0.3706,10.2793,-0.5545,0.45,9.7806,-0.0038,-0.0021,0.0087
75593,48.481274,-2.645222,80.32,26.17,6.432,264.4,14 / 23,2246274,2019-08-12 17:10:06:716,-0.2494,0.3706,10.2793,-0.5545,0.45,9.7806,-0.0038,-0.0021,0.0087
75594,48.481274,-2.645222,80.32,26.17,6.432,264.4,14 / 23,2246274,2019-08-12 17:10:06:716,-0.2494,0.3706,10.2793,-0.5545,0.45,9.7806,-0.0038,-0.0021,0.0087
75595,48.481274,-2.645222,80.32,26.17,6.432,264.4,14 / 23,2246275,2019-08-12 17:10:06:717,-0.2494,0.3706,10.2793,-0.5545,0.45,9.7806,-0.0038,-0.0021,0.0087
75596,48.481274,-2.645222,80.32,26.17,6.432,264.4,14 / 23,2246275,2019-08-12 17:10:06:717,-0.2494,0.3706,10.2793,-0.5545,0.45,9.7806,-0.0038,-0.0021,0.0087
75597,48.481274,-2.645222,80.32,26.17,6.432,264.4,14 / 23,2246276,2019-08-12 17:10:06:718,-0.2494,0.3706,10.2793,-0.5545,0.45,9.7806,-0.0038,-0.0021,0.0087
75598,48.481274,-2.645222,80.32,26.17,6.432,264.4,14 / 23,2246276,2019-08-12 17:10:06:718,-0.2494,0.3706,10.2793,-0.5545,0.45,9.7806,-0.0038,-0.0021,0.0087
75599,48.481274,-2.645222,80.32,26.17,6.432,264.4,14 / 23,2246276,2019-08-12 17:10:06:718,-0.2494,0.3706,10.2793,-0.5545,0.45,9.7806,-0.0038,-0.0021,0.0087
75600,48.481274,-2.645222,80.32,26.17,6.432,264.4,14 / 23,2246279,2019-08-12 17:10:06:721,-0.2494,0.3706,10.2793,-0.5545,0.45,9.7806,-0.0038,-0.0021,0.0087
75601,48.481274,-2.645222,80.32,26.17,6.432,264.4,14 / 23,2246279,2019-08-12 17:10:06:721,-0.2494,0.3706,10.2793,-0.5545,0.45,9.7806,-0.0038,-0.0021,0.0087
75602,48.481274,-2.645222,80.32,26.17,6.432,264.4,14 / 23,2246280,2019-08-12 17:10:06:722,-0.2494,0.3706,10.2793,-0.5545,0.45,9.7806,-0.0038,-0.0021,0.0087
75603,48.481274,-2.645222,80.32,26.17,6.432,264.4,14 / 23,2246280,2019-08-12 17:10:06:722,-0.2494,0.3706,10.2793,-0.5545,0.45,9.7806,-0.0038,-0.0021,0.0087
75604,48.481274,-2.645222,80.32,26.17,6.432,264.4,14 / 23,2246281,2019-08-12 17:10:06:723,-0.2494,0.3706,10.2793,-0.5545,0.45,9.7806,-0.0038,-0.0021,0.0087
75605,48.481274,-2.645222,80.32,26.17,6.432,264.4,14 / 23,2246281,2019-08-12 17:10:06:723,-0.2494,0.3706,10.2793,-0.5545,0.45,9.7806,-0.0038,-0.0021,0.0087
75606,48.481274,-2.645222,80.32,26.17,6.432,264.4,14 / 23,2246285,2019-08-12 17:10:06:727,-0.2494,0.3706,10.2793,-0.5545,0.45,9.7806,-0.0038,-0.0021,0.0087
75607,48.481274,-2.645222,80.32,26.17,6.432,264.4,14 / 23,2246286,2019-08-12 17:10:06:728,-0.2494,0.3706,10.2793,-0.5545,0.45,9.7806,-0.0038,-0.0021,0.0087
75608,48.481274,-2.645222,80.32,26.17,6.432,264.4,14 / 23,2246286,2019-08-12 17:10:06:728,-0.2494,0.3706,10.2793,-0.5545,0.45,9.7806,-0.0038,-0.0021,0.0087
75609,48.481274,-2.645222,80.32,26.17,6.432,264.4,14 / 23,2246287,2019-08-12 17:10:06:729,-0.2494,0.3706,10.2793,-0.5545,0.45,9.7806,-0.0038,-0.0021,0.0087
75610,48.481274,-2.645222,80.32,26.17,6.432,264.4,14 / 23,2246287,2019-08-12 17:10:06:729,-0.2494,0.3706,10.2793,-0.5545,0.45,9.7806,-0.0038,-0.0021,0.0087
75611,48.481274,-2.645222,80.32,26.17,6.432,264.4,14 / 23,2246287,2019-08-12 17:10:06:729,-0.2494,0.3706,10.2793,-0.5545,0.45,9.7806,-0.0038,-0.0021,0.0087
75612,48.481274,-2.645222,80.32,26.17,6.432,264.4,14 / 23,2246288,2019-08-12 17:10:06:730,-0.2494,0.3706,10.2793,-0.5545,0.45,9.7806,-0.0038,-0.0021,0.0087
75613,48.481274,-2.645222,80.32,26.17,6.432,264.4,14 / 23,2246288,2019-08-12 17:10:06:730,-0.2494,0.3706,10.2793,-0.5545,0.45,9.7806,-0.0038,-0.0021,0.0087
75614,48.481274,-2.645222,80.32,26.17,6.432,264.4,14 / 23,2246288,2019-08-12 17:10:06:730,-0.2494,0.3706,10.2793,-0.5545,0.45,9.7806,-0.0038,-0.0021,0.0087
75615,48.481274,-2.645222,80.32,26.17,6.432,264.4,14 / 23,2246289,2019-08-12 17:10:06:731,-0.2494,0.3706,10.2793,-0.5545,0.45,9.7806,-0.0038,-0.0021,0.0087
75616,48.481274,-2.645222,80.32,26.17,6.432,264.4,14 / 23,2246289,2019-08-12 17:10:06:731,-0.2494,0.3706,10.2793,-0.5545,0.45,9.7806,-0.0038,-0.0021,0.0087
75617,48.481274,-2.645222,80.32,26.17,6.432,264.4,14 / 23,2246289,2019-08-12 17:10:06:731,-0.2494,0.3706,10.2793,-0.5545,0.45,9.7806,-0.0038,-0.0021,0.0087
75618,48.481274,-2.645222,80.32,26.17,6.432,264.4,14 / 23,2246290,2019-08-12 17:10:06:732,-0.2494,0.3706,10.2793,-0.5545,0.45,9.7806,-0.0038,-0.0021,0.0087
75619,48.481274,-2.645222,80.32,26.17,6.432,264.4,14 / 23,2246290,2019-08-12 17:10:06:732,-0.2494,0.3706,10.2793,-0.5545,0.45,9.7806,-0.0038,-0.0021,0.0087
75620,48.481274,-2.645222,80.32,26.17,6.432,264.4,14 / 23,2246290,2019-08-12 17:10:06:732,-0.2494,0.3706,10.2793,-0.5545,0.45,9.7806,-0.0038,-0.0021,0.0087
75621,48.481274,-2.645222,80.32,26.17,6.432,264.4,14 / 23,2246291,2019-08-12 17:10:06:733,-0.2494,0.3706,10.2793,-0.5545,0.45,9.7806,-0.0038,-0.0021,0.0087
75622,48.481274,-2.645222,80.32,26.17,6.432,264.4,14 / 23,2246291,2019-08-12 17:10:06:733,-0.2494,0.3706,10.2793,-0.5545,0.45,9.7806,-0.0038,-0.0021,0.0087
75623,48.481274,-2.645222,80.32,26.17,6.432,264.4,14 / 23,2246292,2019-08-12 17:10:06:734,-0.2494,0.3706,10.2793,-0.5545,0.45,9.7806,-0.0038,-0.0021,0.0087
75624,48.481274,-2.645222,80.32,26.17,6.432,264.4,14 / 23,2246292,2019-08-12 17:10:06:734,-0.2494,0.3706,10.2793,-0.5545,0.45,9.7806,-0.0038,-0.0021,0.0087
75625,48.481274,-2.645222,80.32,26.17,6.432,264.4,14 / 23,2246293,2019-08-12 17:10:06:735,-0.2494,0.3706,10.2793,-0.5545,0.45,9.7806,-0.0038,-0.0021,0.0087
75626,48.481274,-2.645222,80.32,26.17,6.432,264.4,14 / 23,2246293,2019-08-12 17:10:06:735,-0.2494,0.3706,10.2793,-0.5545,0.45,9.7806,-0.0038,-0.0021,0.0087
75627,48.481274,-2.645222,80.32,26.17,6.432,264.4,14 / 23,2246293,2019-08-12 17:10:06:735,-0.2494,0.3706,10.2793,-0.5545,0.45,9.7806,-0.0038,-0.0021,0.0087
75628,48.481274,-2.645222,80.32,26.17,6.432,264.4,14 / 23,2246294,2019-08-12 17:10:06:736,-0.2494,0.3706,10.2793,-0.5545,0.45,9.7806,-0.0038,-0.0021,0.0087
75629,48.481274,-2.645222,80.32,26.17,6.432,264.4,14 / 23,2246376,2019-08-12 17:10:06:818,-0.2494,0.3706,10.2793,-0.5545,0.45,9.7806,-0.0038,-0.0021,0.0087
75630,48.481274,-2.645222,80.32,26.17,6.432,264.4,0 / 23,2246723,2019-08-12 17:10:07:165,-0.2494,0.3706,10.2793,-0.5545,0.45,9.7806,-0.0038,-0.0021,0.0087
75631,48.481274,-2.645222,80.32,26.17,6.432,264.4,0 / 23,2246723,2019-08-12 17:10:07:165,-0.2494,0.3706,10.2793,-0.5545,0.45,9.7806,-0.0038,-0.0021,0.0087
75632,48.481274,-2.645222,80.32,26.17,6.432,264.4,0 / 23,2246724,2019-08-12 17:10:07:166,-0.2494,0.3706,10.2793,-0.5545,0.45,9.7806,-0.0038,-0.0021,0.0087
75633,48.481274,-2.645222,80.32,26.17,6.432,264.4,0 / 23,2246724,2019-08-12 17:10:07:166,-0.2494,0.3706,10.2793,-0.5545,0.45,9.7806,-0.0038,-0.0021,0.0087
75634,48.481274,-2.645222,80.32,26.17,6.432,264.4,0 / 23,2246724,2019-08-12 17:10:07:166,-0.2494,0.3706,10.2793,-0.5545,0.45,9.7806,-0.0038,-0.0021,0.0087
75635,48.481274,-2.645222,80.32,26.17,6.432,264.4,0 / 23,2246725,2019-08-12 17:10:07:167,-0.2494,0.3706,10.2793,-0.5545,0.45,9.7806,-0.0038,-0.0021,0.0087
75636,48.481274,-2.645222,80.32,26.17,6.432,264.4,0 / 23,2246725,2019-08-12 17:10:07:167,-0.2494,0.3706,10.2793,-0.5545,0.45,9.7806,-0.0038,-0.0021,0.0087
75637,48.481274,-2.645222,80.32,26.17,6.432,264.4,0 / 23,2246726,2019-08-12 17:10:07:168,-0.2494,0.3706,10.2793,-0.5545,0.45,9.7806,-0.0038,-0.0021,0.0087
75638,48.481274,-2.645222,80.32,26.17,6.432,264.4,0 / 23,2246734,2019-08-12 17:10:07:176,-0.2494,0.3706,10.2793,-0.5545,0.45,9.7806,-0.0038,-0.0021,0.0087
75639,48.480934,-2.648503,75.94,29.07,8.576,261.3,0 / 23,2246834,2019-08-12 17:10:07:276,-0.2494,0.3706,10.2793,-0.5545,0.45,9.7806,-0.0038,-0.0021,0.0087
75640,48.480934,-2.648503,75.94,29.07,8.576,261.3,0 / 23,2247203,2019-08-12 17:10:07:645,-0.2494,0.3706,10.2793,-0.5545,0.45,9.7806,-0.0038,-0.0021,0.0087
75641,48.480934,-2.648503,75.94,29.07,8.576,261.3,0 / 23,2247204,2019-08-12 17:10:07:646,-0.2494,0.3706,10.2793,-0.5545,0.45,9.7806,-0.0038,-0.0021,0.0087
75642,48.480934,-2.648503,75.94,29.07,8.576,261.3,0 / 23,2247205,2019-08-12 17:10:07:647,-0.2494,0.3706,10.2793,-0.5545,0.45,9.7806,-0.0038,-0.0021,0.0087
75643,48.480934,-2.648503,75.94,29.07,8.576,261.3,0 / 23,2247205,2019-08-12 17:10:07:647,-0.2494,0.3706,10.2793,-0.5545,0.45,9.7806,-0.0038,-0.0021,0.0087
75644,48.480934,-2.648503,75.94,29.07,8.576,261.3,0 / 23,2247206,2019-08-12 17:10:07:648,-0.2494,0.3706,10.2793,-0.5545,0.45,9.7806,-0.0038,-0.0021,0.0087
75645,48.480934,-2.648503,75.94,29.07,8.576,261.3,0 / 23,2247206,2019-08-12 17:10:07:648,-0.2494,0.3706,10.2793,-0.5545,0.45,9.7806,-0.0038,-0.0021,0.0087
75646,48.480934,-2.648503,75.94,29.07,8.576,261.3,0 / 23,2247207,2019-08-12 17:10:07:649,-0.2494,0.3706,10.2793,-0.5545,0.45,9.7806,-0.0038,-0.0021,0.0087
75647,48.480934,-2.648503,75.94,29.07,8.576,261.3,0 / 23,2247207,2019-08-12 17:10:07:649,-0.2494,0.3706,10.2793,-0.5545,0.45,9.7806,-0.0038,-0.0021,0.0087
75648,48.480934,-2.648503,75.94,29.07,8.576,261.3,0 / 23,2247207,2019-08-12 17:10:07:649,-0.2494,0.3706,10.2793,-0.5545,0.45,9.7806,-0.0038,-0.0021,0.0087
75649,48.480934,-2.648503,75.94,29.07,8.576,261.3,0 / 23,2247208,2019-08-12 17:10:07:650,-0.2494,0.3706,10.2793,-0.5545,0.45,9.7806,-0.0038,-0.0021,0.0087
75650,48.480934,-2.648503,75.94,29.07,8.576,261.3,0 / 23,2247212,2019-08-12 17:10:07:654,-0.2494,0.3706,10.2793,-0.5545,0.45,9.7806,-0.0038,-0.0021,0.0087
75651,48.480934,-2.648503,75.94,29.07,8.576,261.3,0 / 23,2247213,2019-08-12 17:10:07:655,-0.2494,0.3706,10.2793,-0.5545,0.45,9.7806,-0.0038,-0.0021,0.0087
75652,48.480934,-2.648503,75.94,29.07,8.576,261.3,0 / 23,2247213,2019-08-12 17:10:07:655,-0.2494,0.3706,10.2793,-0.5545,0.45,9.7806,-0.0038,-0.0021,0.0087
75653,48.480934,-2.648503,75.94,29.07,8.576,261.3,0 / 23,2247213,2019-08-12 17:10:07:655,-0.2494,0.3706,10.2793,-0.5545,0.45,9.7806,-0.0038,-0.0021,0.0087
75654,48.480934,-2.648503,75.94,29.07,8.576,261.3,0 / 23,2247214,2019-08-12 17:10:07:656,-0.2494,0.3706,10.2793,-0.5545,0.45,9.7806,-0.0038,-0.0021,0.0087
75655,48.480934,-2.648503,75.94,29.07,8.576,261.3,0 / 23,2247214,2019-08-12 17:10:07:656,-0.2494,0.3706,10.2793,-0.5545,0.45,9.7806,-0.0038,-0.0021,0.0087
75656,48.480934,-2.648503,75.94,29.07,8.576,261.3,0 / 23,2247215,2019-08-12 17:10:07:657,-0.2494,0.3706,10.2793,-0.5545,0.45,9.7806,-0.0038,-0.0021,0.0087
75657,48.480934,-2.648503,75.94,29.07,8.576,261.3,0 / 23,2247215,2019-08-12 17:10:07:657,-0.2494,0.3706,10.2793,-0.5545,0.45,9.7806,-0.0038,-0.0021,0.0087
75658,48.480934,-2.648503,75.94,29.07,8.576,261.3,0 / 23,2247216,2019-08-12 17:10:07:658,-0.2494,0.3706,10.2793,-0.5545,0.45,9.7806,-0.0038,-0.0021,0.0087
75659,48.480934,-2.648503,75.94,29.07,8.576,261.3,0 / 23,2247216,2019-08-12 17:10:07:658,-0.2494,0.3706,10.2793,-0.5545,0.45,9.7806,-0.0038,-0.0021,0.0087
75660,48.480934,-2.648503,75.94,29.07,8.576,261.3,0 / 23,2247216,2019-08-12 17:10:07:658,-0.2494,0.3706,10.2793,-0.5545,0.45,9.7806,-0.0038,-0.0021,0.0087
75661,48.480934,-2.648503,75.94,29.07,8.576,261.3,0 / 23,2247217,2019-08-12 17:10:07:659,-0.2494,0.3706,10.2793,-0.5545,0.45,9.7806,-0.0038,-0.0021,0.0087
75662,48.480934,-2.648503,75.94,29.07,8.576,261.3,0 / 23,2247217,2019-08-12 17:10:07:659,-0.2494,0.3706,10.2793,-0.5545,0.45,9.7806,-0.0038,-0.0021,0.0087
75663,48.480934,-2.648503,75.94,29.07,8.576,261.3,0 / 23,2247218,2019-08-12 17:10:07:660,-0.2494,0.3706,10.2793,-0.5545,0.45,9.7806,-0.0038,-0.0021,0.0087
75664,48.480934,-2.648503,75.94,29.07,8.576,261.3,0 / 23,2247218,2019-08-12 17:10:07:660,-0.2494,0.3706,10.2793,-0.5545,0.45,9.7806,-0.0038,-0.0021,0.0087
75665,48.480934,-2.648503,75.94,29.07,8.576,261.3,0 / 23,2247219,2019-08-12 17:10:07:661,-0.2494,0.3706,10.2793,-0.5545,0.45,9.7806,-0.0038,-0.0021,0.0087
