,GPS LATITUDE (degrees),GPS LONGITUDE (degrees), GPS ALTITUDE (m),GPS SPEED (Kmh),GPS ACCURACY (m),GPS ORIENTATION (Â°), SATELLITES IN RANGE, TIME SINCE START (ms), DATE (YYYY-MO-DD HH-MI-SS_SSS),ACCELEROMETER X (m/s²) , ACCELEROMETER Y (m/s²), ACCELEROMETER Z (m/s²), GRAVITY X (m/s²), GRAVITY Y (m/s²), GRAVITY Z (m/s²), GYROSCOPE Yaw (rad/s), GYROSCOPE Pitch (rad/s), GYROSCOPE Roll (rad/s)
27055,47.182762,-1.613289,54.24,18.0,3.216,156.9,18 / 23,2705510,2019-08-09 20:59:14:248,-0.6152,0.0965,9.8764,-0.8028,-0.14,9.7727,0.0005,0.0099,0.0565
27056,47.181538,-1.612061,54.02,18.32,3.216,135.4,17 / 21,2705610,2019-08-09 20:59:14:348,0.1229,0.1294,10.0637,-0.8128,-0.1349,9.772,0.0006,0.0018,0.0363
27057,47.181538,-1.612061,54.02,18.32,3.216,135.4,17 / 21,2705710,2019-08-09 20:59:14:448,-1.3807,-0.0065,9.5968,-0.8088,-0.1325,9.7723,-0.0127,0.004,0.0307
27058,47.181538,-1.612061,54.02,18.32,3.216,135.4,17 / 21,2705810,2019-08-09 20:59:14:548,-2.0241,0.6262,9.7135,-0.8328,-0.1262,9.7704,0.0038,0.0011,-0.0144
27059,47.181538,-1.612061,54.02,18.32,3.216,135.4,17 / 21,2705910,2019-08-09 20:59:14:648,-1.3681,0.2749,10.2696,-0.8251,-0.1093,9.7713,-0.0028,0.0179,-0.0088
27060,47.181538,-1.612061,54.02,18.32,3.216,135.4,17 / 21,2706010,2019-08-09 20:59:14:748,-0.9174,-0.0735,9.4448,-0.8225,-0.1008,9.7716,-0.0027,-0.0337,0.0641
27061,47.181538,-1.612061,54.02,18.32,3.216,135.4,17 / 21,2706110,2019-08-09 20:59:14:848,-1.586,0.5107,9.9248,-0.8479,-0.0989,9.7694,-0.0013,0.0056,0.0311
27062,47.181538,-1.612061,54.02,18.32,3.216,135.4,17 / 21,2706210,2019-08-09 20:59:14:948,-1.4046,0.2886,9.2401,-0.8283,-0.0926,9.7712,-0.0026,0.0364,0.0593
27063,47.181538,-1.612061,54.02,18.32,3.216,135.4,17 / 21,2706310,2019-08-09 20:59:15:048,-1.255,-0.3267,9.6339,-0.851,-0.0872,9.7693,-0.0057,-0.0247,-0.0227
27064,47.181538,-1.612061,54.02,18.32,3.216,135.4,17 / 21,2706411,2019-08-09 20:59:15:149,-0.6128,-0.1142,10.2702,-0.867,-0.0798,9.7679,-0.0095,0.0284,0.0025
27065,47.181538,-1.612061,54.02,18.32,3.216,135.4,17 / 21,2706511,2019-08-09 20:59:15:249,-0.4308,0.3048,9.692,-0.8877,-0.0771,9.7661,-0.0023,-0.0208,0.0175
27066,47.181538,-1.612061,54.02,18.32,3.216,135.4,18 / 23,2706610,2019-08-09 20:59:15:348,-2.406,-0.0861,9.5914,-0.9044,-0.0599,9.7647,0.0111,-0.0097,-0.0125
27067,47.181538,-1.612061,54.02,18.32,3.216,135.4,18 / 23,2706710,2019-08-09 20:59:15:448,-1.8362,0.3551,10.0033,-0.9163,-0.0463,9.7636,0.0163,-0.0028,0.0203
27068,47.181538,-1.612061,54.02,18.32,3.216,135.4,18 / 23,2706810,2019-08-09 20:59:15:548,-1.9308,-0.1364,9.7686,-0.9266,-0.0185,9.7628,0.0045,0.0031,0.0057
27069,47.181538,-1.612061,54.02,18.32,3.216,135.4,18 / 23,2706910,2019-08-09 20:59:15:648,-0.8558,0.777,9.9009,-0.9274,-0.0155,9.7627,0.0012,-0.0045,0.0382
27070,47.181538,-1.612061,54.02,18.32,3.216,135.4,18 / 23,2707010,2019-08-09 20:59:15:748,-1.5387,0.5819,10.1146,-0.958,-0.0029,9.7597,-0.0128,0.0279,0.0133
27071,47.181538,-1.612061,54.02,18.32,3.216,135.4,18 / 23,2707110,2019-08-09 20:59:15:848,-2.09,0.0384,10.2522,-0.9645,-0.0039,9.7591,-0.0071,-0.0065,0.0247
27072,47.181538,-1.612061,54.02,18.32,3.216,135.4,18 / 23,2707210,2019-08-09 20:59:15:948,-0.7977,-0.0657,9.6549,-0.9842,-0.004,9.7571,0.0045,-0.0081,0.013
27073,47.181538,-1.612061,54.02,18.32,3.216,135.4,18 / 23,2707310,2019-08-09 20:59:16:048,-0.945,0.2683,10.5455,-1.0251,0.0038,9.7529,0.0024,0.0399,0.0243
27074,47.181538,-1.612061,54.02,18.32,3.216,135.4,18 / 23,2707410,2019-08-09 20:59:16:148,-2.0906,-0.6607,9.5687,-1.0035,0.0077,9.7552,0.0107,-0.0052,0.071
27075,47.181538,-1.612061,54.02,18.32,3.216,135.4,18 / 23,2707510,2019-08-09 20:59:16:248,-0.5338,1.1697,10.685,-1.04,0.004,9.7514,-0.0144,0.0794,-0.0284
27076,47.181538,-1.612061,54.02,18.32,3.216,135.4,15 / 20,2707610,2019-08-09 20:59:16:348,-1.4884,0.3012,9.2395,-1.0337,0.0121,9.752,0.0002,0.0489,-0.0004
27077,47.181538,-1.612061,54.02,18.32,3.216,135.4,15 / 20,2707710,2019-08-09 20:59:16:448,-1.5585,0.0702,9.8267,-1.0178,0.0149,9.7537,-0.0134,-0.011,0.0594
27078,47.181538,-1.612061,54.02,18.32,3.216,135.4,15 / 20,2707810,2019-08-09 20:59:16:548,-0.2135,-0.1196,9.7141,-1.0065,0.0001,9.7549,-0.019,0.0167,0.0398
27079,47.181538,-1.612061,54.02,18.32,3.216,135.4,15 / 20,2707910,2019-08-09 20:59:16:648,-1.0461,0.2569,9.9003,-0.9995,-0.0094,9.7556,-0.0168,0.0078,0.0665
27080,47.181538,-1.612061,54.02,18.32,3.216,135.4,15 / 20,2708010,2019-08-09 20:59:16:748,-1.3179,0.0229,9.5675,-0.9977,-0.0281,9.7557,-0.0143,0.0028,0.0305
27081,47.181538,-1.612061,54.02,18.32,3.216,135.4,15 / 20,2708110,2019-08-09 20:59:16:848,-0.9264,-0.4027,9.7554,-1.0019,-0.0293,9.7553,-0.0074,-0.0264,0.0373
27082,47.181538,-1.612061,54.02,18.32,3.216,135.4,15 / 20,2708210,2019-08-09 20:59:16:948,-0.9886,-0.1848,10.1349,-1.0004,-0.0397,9.7554,-0.0065,0.0074,0.052
27083,47.181538,-1.612061,54.02,18.32,3.216,135.4,15 / 20,2708311,2019-08-09 20:59:17:049,-2.1762,0.118,9.5932,-0.9913,-0.0404,9.7563,-0.0186,0.0159,0.0255
27084,47.181538,-1.612061,54.02,18.32,3.216,135.4,15 / 20,2708411,2019-08-09 20:59:17:149,0.2204,-0.5039,9.6986,-0.9979,-0.046,9.7556,-0.0187,0.0269,0.0266
27085,47.181538,-1.612061,54.02,18.32,3.216,135.4,15 / 20,2708510,2019-08-09 20:59:17:248,-0.9653,-0.0442,9.6238,-1.0034,-0.0645,9.755,-0.0269,0.0346,0.0533
27086,47.181538,-1.612061,54.02,18.32,3.216,135.4,18 / 23,2708611,2019-08-09 20:59:17:349,-1.167,-0.1268,9.695,-1.0197,-0.0795,9.7532,-0.0197,0.0468,0.0435
27087,47.181538,-1.612061,54.02,18.32,3.216,135.4,18 / 23,2708711,2019-08-09 20:59:17:449,-0.8821,-0.5972,10.3324,-1.002,-0.0979,9.7548,-0.0025,-0.0433,0.0523
27088,47.181538,-1.612061,54.02,18.32,3.216,135.4,18 / 23,2708810,2019-08-09 20:59:17:548,0.4533,-0.3459,9.9721,-1.0019,-0.1026,9.7548,-0.0009,0.0278,0.0453
27089,47.181538,-1.612061,54.02,18.32,3.216,135.4,18 / 23,2708910,2019-08-09 20:59:17:648,1.0973,-0.6834,9.3867,-0.9667,-0.1169,9.7582,-0.0148,-0.0208,0.0793
27090,47.181538,-1.612061,54.02,18.32,3.216,135.4,18 / 23,2709011,2019-08-09 20:59:17:749,-0.7989,-0.3387,10.3271,-0.9773,-0.1296,9.757,-0.0098,0.0461,0.0431
27091,47.181538,-1.612061,54.02,18.32,3.216,135.4,18 / 23,2709111,2019-08-09 20:59:17:849,-2.0642,-1.3161,9.3424,-0.9643,-0.1414,9.7581,-0.0024,-0.0346,0.1068
27092,47.181538,-1.612061,54.02,18.32,3.216,135.4,18 / 23,2709210,2019-08-09 20:59:17:948,0.8788,-0.7235,9.8494,-0.9476,-0.1554,9.7595,0.0032,-0.021,0.08
27093,47.181538,-1.612061,54.02,18.32,3.216,135.4,18 / 23,2709311,2019-08-09 20:59:18:049,-2.0589,0.03,10.3259,-0.9506,-0.1564,9.7592,-0.0062,0.0344,0.0183
27094,47.181538,-1.612061,54.02,18.32,3.216,135.4,18 / 23,2709411,2019-08-09 20:59:18:149,-1.2592,-0.4464,10.3708,-0.9439,-0.1657,9.7597,-0.0239,0.0166,0.0656
27095,47.181538,-1.612061,54.02,18.32,3.216,135.4,18 / 23,2709511,2019-08-09 20:59:18:249,-0.4428,-1.273,9.3191,-0.9359,-0.199,9.7599,-0.0172,-0.0033,0.0543
27096,47.181538,-1.612061,54.02,18.32,3.216,135.4,18 / 23,2709610,2019-08-09 20:59:18:348,-1.4735,-0.2303,9.7351,-0.9448,-0.2247,9.7584,-0.0312,0.0047,0.0773
27097,47.181538,-1.612061,54.02,18.32,3.216,135.4,18 / 23,2709711,2019-08-09 20:59:18:449,-0.6271,-0.8031,9.4556,-0.9187,-0.2558,9.7602,-0.0226,-0.0333,0.081
27098,47.181538,-1.612061,54.02,18.32,3.216,135.4,18 / 23,2709811,2019-08-09 20:59:18:549,-0.5667,-0.7128,9.2137,-0.9219,-0.2701,9.7595,-0.0085,-0.0506,0.073
27099,47.181538,-1.612061,54.02,18.32,3.216,135.4,18 / 23,2709911,2019-08-09 20:59:18:649,-0.5242,-0.1992,9.7866,-0.9118,-0.2751,9.7603,-0.005,-0.0105,0.0446
27100,47.181538,-1.612061,54.02,18.32,3.216,135.4,18 / 23,2710011,2019-08-09 20:59:18:749,-1.9607,-0.2022,9.9147,-0.8959,-0.2736,9.7618,-0.012,0.0182,0.0272
27101,47.181538,-1.612061,54.02,18.32,3.216,135.4,18 / 23,2710110,2019-08-09 20:59:18:848,-1.9936,-0.0448,9.7064,-0.9303,-0.2896,9.7581,-0.0192,0.0274,0.0315
27102,47.181538,-1.612061,54.02,18.32,3.216,135.4,18 / 23,2710210,2019-08-09 20:59:18:948,-0.417,-0.7301,10.1876,-0.9506,-0.289,9.7562,-0.013,0.0266,0.034
27103,47.181538,-1.612061,54.02,18.32,3.216,135.4,18 / 23,2710310,2019-08-09 20:59:19:048,-0.4966,-0.8798,8.9594,-0.9337,-0.3202,9.7568,-0.0227,0.0025,0.0525
27104,47.181538,-1.612061,54.02,18.32,3.216,135.4,18 / 23,2710410,2019-08-09 20:59:19:148,-0.1662,-0.356,9.4711,-0.9464,-0.3337,9.7552,-0.0207,-0.0505,0.0515
27105,47.181538,-1.612061,54.02,18.32,3.216,135.4,18 / 23,2710510,2019-08-09 20:59:19:248,-0.9342,-0.4332,10.3923,-0.9097,-0.3779,9.757,-0.0473,-0.0504,0.0806
27106,47.181538,-1.612061,54.02,18.32,3.216,135.4,16 / 21,2710610,2019-08-09 20:59:19:348,-1.0665,-1.115,9.7249,-0.9,-0.4071,9.7568,-0.0326,0.0196,0.0778
27107,47.181538,-1.612061,54.02,18.32,3.216,135.4,16 / 21,2710710,2019-08-09 20:59:19:448,0.0995,-1.4639,9.3335,-0.8941,-0.4453,9.7556,-0.019,-0.0581,0.1214
27108,47.181538,-1.612061,54.02,18.32,3.216,135.4,16 / 21,2710810,2019-08-09 20:59:19:548,-1.1449,-0.295,9.3957,-0.887,-0.4693,9.7552,-0.0226,0.0299,0.0106
27109,47.181538,-1.612061,54.02,18.32,3.216,135.4,16 / 21,2710910,2019-08-09 20:59:19:648,-1.158,-0.4925,10.1313,-0.8706,-0.4854,9.7559,-0.0177,0.0361,0.0358
27110,47.181538,-1.612061,54.02,18.32,3.216,135.4,16 / 21,2711010,2019-08-09 20:59:19:748,1.2865,-0.7175,9.7417,-0.8668,-0.4996,9.7555,-0.0011,-0.0087,0.0882
27111,47.181538,-1.612061,54.02,18.32,3.216,135.4,16 / 21,2711110,2019-08-09 20:59:19:848,-1.3161,-1.012,9.2299,-0.8705,-0.507,9.7548,-0.0006,0.0253,0.0265
27112,47.181538,-1.612061,54.02,18.32,3.216,135.4,16 / 21,2711211,2019-08-09 20:59:19:949,-0.9025,-0.6553,9.3011,-0.8616,-0.5023,9.7558,0.0065,-0.0409,0.0589
27113,47.181538,-1.612061,54.02,18.32,3.216,135.4,16 / 21,2711311,2019-08-09 20:59:20:049,-1.1993,-0.547,10.0613,-0.8689,-0.5072,9.7549,-0.008,-0.0029,0.0627
27114,47.181538,-1.612061,54.02,18.32,3.216,135.4,16 / 21,2711410,2019-08-09 20:59:20:148,0.1474,-0.8594,10.196,-0.8686,-0.5102,9.7548,-0.0129,0.0185,0.0531
27115,47.181538,-1.612061,54.02,18.32,3.216,135.4,16 / 21,2711511,2019-08-09 20:59:20:249,-0.8091,-0.6906,10.0296,-0.8906,-0.5263,9.7519,-0.0202,0.0249,0.0525
27116,47.181538,-1.612061,54.02,18.32,3.216,135.4,18 / 22,2711611,2019-08-09 20:59:20:349,-0.608,-0.7589,9.8285,-0.8811,-0.5352,9.7523,-0.0217,0.0193,0.0753
27117,47.181538,-1.612061,54.02,18.32,3.216,135.4,18 / 22,2711711,2019-08-09 20:59:20:449,-1.0341,-0.4632,10.0404,-0.8767,-0.5477,9.752,-0.0298,0.0009,0.074
27118,47.181538,-1.612061,54.02,18.32,3.216,135.4,18 / 22,2711810,2019-08-09 20:59:20:548,-0.1782,-1.5477,9.2305,-0.8587,-0.5728,9.7522,-0.0091,0.0008,0.0829
27119,47.181538,-1.612061,54.02,18.32,3.216,135.4,18 / 22,2711911,2019-08-09 20:59:20:649,-0.1782,-1.3376,9.5944,-0.8743,-0.5921,9.7496,-0.0048,-0.0033,0.0674
27120,47.181538,-1.612061,54.02,18.32,3.216,135.4,18 / 22,2712011,2019-08-09 20:59:20:749,0.0846,-1.2078,8.8534,-0.8511,-0.6078,9.7507,-0.013,-0.0558,0.0805
27121,47.181538,-1.612061,54.02,18.32,3.216,135.4,18 / 22,2712111,2019-08-09 20:59:20:849,0.5167,-0.7271,9.5238,-0.8288,-0.6168,9.7521,-0.0177,0.0008,0.0541
27122,47.181538,-1.612061,54.02,18.32,3.216,135.4,18 / 22,2712210,2019-08-09 20:59:20:948,-0.7241,-1.091,9.683,-0.826,-0.6445,9.7505,-0.0186,-0.0019,0.0735
27123,47.181538,-1.612061,54.02,18.32,3.216,135.4,18 / 22,2712310,2019-08-09 20:59:21:048,-2.0122,-0.523,9.3407,-0.7989,-0.6479,9.7526,0.0224,-0.0369,0.044
27124,47.181538,-1.612061,54.02,18.32,3.216,135.4,18 / 22,2712411,2019-08-09 20:59:21:149,-1.5339,-1.0898,9.3754,-0.8172,-0.6135,9.7533,0.0425,-0.039,0.0669
27125,47.181538,-1.612061,54.02,18.32,3.216,135.4,18 / 22,2712511,2019-08-09 20:59:21:249,-1.3915,0.0331,10.5413,-0.798,-0.5958,9.756,-0.0067,-0.0414,0.0705
27126,47.181538,-1.612061,54.02,18.32,3.216,135.4,17 / 21,2712611,2019-08-09 20:59:21:349,-1.1987,0.1857,10.1792,-0.7963,-0.5918,9.7563,-0.0357,0.0413,0.0745
27127,47.181538,-1.612061,54.02,18.32,3.216,135.4,17 / 21,2712711,2019-08-09 20:59:21:449,-1.0503,-0.8911,9.4735,-0.824,-0.599,9.7536,-0.035,0.0034,0.0245
27128,47.181538,-1.612061,54.02,18.32,3.216,135.4,17 / 21,2712811,2019-08-09 20:59:21:549,-0.45,-0.933,9.3676,-0.82,-0.636,9.7516,-0.0339,-0.0145,0.0761
27129,47.181538,-1.612061,54.02,18.32,3.216,135.4,17 / 21,2712911,2019-08-09 20:59:21:649,-0.4494,-0.7265,8.954,-0.8244,-0.6544,9.75,-0.025,-0.0565,0.0542
27130,47.181538,-1.612061,54.02,18.32,3.216,135.4,17 / 21,2713010,2019-08-09 20:59:21:748,-0.2321,-0.942,9.9009,-0.7943,-0.6735,9.7512,-0.0007,-0.0395,0.044
27131,47.181538,-1.612061,54.02,18.32,3.216,135.4,17 / 21,2713111,2019-08-09 20:59:21:849,0.1552,-0.6918,10.0272,-0.7673,-0.6682,9.7537,0.0179,0.053,0.0324
27132,47.181538,-1.612061,54.02,18.32,3.216,135.4,17 / 21,2713210,2019-08-09 20:59:21:948,-1.6896,-1.1066,9.677,-0.7789,-0.6384,9.7548,0.0584,-0.0203,0.0621
27133,47.181538,-1.612061,54.02,18.32,3.216,135.4,17 / 21,2713311,2019-08-09 20:59:22:049,0.1672,-0.1902,9.4771,-0.7737,-0.5945,9.758,0.0649,0.0468,-0.001
27134,47.181538,-1.612061,54.02,18.32,3.216,135.4,17 / 21,2713410,2019-08-09 20:59:22:148,-0.3099,-0.1651,9.8835,-0.7929,-0.5009,9.7617,0.0416,0.0216,0.0185
27135,47.181538,-1.612061,54.02,18.32,3.216,135.4,17 / 21,2713510,2019-08-09 20:59:22:248,-1.0126,0.306,9.9703,-0.7826,-0.4711,9.764,0.0233,-0.0036,0.0138
27136,47.181538,-1.612061,54.02,18.32,3.216,135.4,16 / 21,2713610,2019-08-09 20:59:22:348,0.0355,-0.3046,9.3616,-0.7986,-0.432,9.7645,0.0102,0.0016,0.0252
27137,47.181538,-1.612061,54.02,18.32,3.216,135.4,16 / 21,2713710,2019-08-09 20:59:22:448,-0.4326,-0.4596,9.3137,-0.8066,-0.4194,9.7644,0.0144,-0.0209,0.0502
27138,47.181538,-1.612061,54.02,18.32,3.216,135.4,16 / 21,2713810,2019-08-09 20:59:22:548,-0.8354,-0.2255,9.1868,-0.7769,-0.4113,9.7672,-0.0158,-0.0392,0.0447
27139,47.181538,-1.612061,54.02,18.32,3.216,135.4,16 / 21,2713910,2019-08-09 20:59:22:648,-0.6666,-0.45,9.959,-0.7851,-0.4207,9.7661,-0.0242,-0.0011,0.0617
27140,47.181538,-1.612061,54.02,18.32,3.216,135.4,16 / 21,2714010,2019-08-09 20:59:22:748,-0.5888,-0.3967,9.8374,-0.7803,-0.4343,9.7659,0.0022,0.0022,0.0563
27141,47.181538,-1.612061,54.02,18.32,3.216,135.4,16 / 21,2714110,2019-08-09 20:59:22:848,-1.3167,-0.3662,9.4819,-0.7666,-0.428,9.7673,0.0066,-0.0075,0.0379
27142,47.181538,-1.612061,54.02,18.32,3.216,135.4,16 / 21,2714210,2019-08-09 20:59:22:948,-0.2021,-0.5679,9.3646,-0.7616,-0.4112,9.7684,0.0084,-0.022,0.0596
27143,47.181538,-1.612061,54.02,18.32,3.216,135.4,16 / 21,2714310,2019-08-09 20:59:23:048,-0.259,-0.0376,10.2475,-0.7566,-0.4134,9.7687,-0.0181,0.0094,0.0855
27144,47.181538,-1.612061,54.02,18.32,3.216,135.4,16 / 21,2714411,2019-08-09 20:59:23:149,-0.7402,-0.5158,9.5262,-0.754,-0.4257,9.7684,-0.0172,0.0016,0.0435
27145,47.181538,-1.612061,54.02,18.32,3.216,135.4,16 / 21,2714511,2019-08-09 20:59:23:249,-1.7374,-0.8851,9.4526,-0.7595,-0.4297,9.7678,0.0015,0.017,0.0604
27146,47.18068,-1.610287,61.16,17.52,3.216,112.5,17 / 22,2714610,2019-08-09 20:59:23:348,-1.5393,-0.4213,9.352,-0.7654,-0.4283,9.7674,-0.002,-0.01,0.039
27147,47.18068,-1.610287,61.16,17.52,3.216,112.5,17 / 22,2714710,2019-08-09 20:59:23:448,1.0674,-0.3423,10.2127,-0.7948,-0.4309,9.7649,-0.019,0.0211,0.0324
27148,47.18068,-1.610287,61.16,17.52,3.216,112.5,17 / 22,2714810,2019-08-09 20:59:23:548,0.2887,-0.4811,9.6363,-0.7641,-0.4383,9.767,-0.0025,-0.0032,0.0361
27149,47.18068,-1.610287,61.16,17.52,3.216,112.5,17 / 22,2714910,2019-08-09 20:59:23:648,0.2031,-0.201,9.5202,-0.7845,-0.4386,9.7654,-0.0063,0.0041,0.045
27150,47.18068,-1.610287,61.16,17.52,3.216,112.5,17 / 22,2715011,2019-08-09 20:59:23:749,-2.2312,-0.3064,9.7866,-0.7864,-0.4429,9.765,-0.014,-0.0165,0.0401
27151,47.18068,-1.610287,61.16,17.52,3.216,112.5,17 / 22,2715110,2019-08-09 20:59:23:848,-1.5944,-0.0999,10.0308,-0.7852,-0.4515,9.7647,-0.0223,0.0334,0.0344
27152,47.18068,-1.610287,61.16,17.52,3.216,112.5,17 / 22,2715210,2019-08-09 20:59:23:948,-0.6636,-0.3997,9.5663,-0.7917,-0.4579,9.7639,-0.0157,-0.0011,0.0321
27153,47.18068,-1.610287,61.16,17.52,3.216,112.5,17 / 22,2715310,2019-08-09 20:59:24:048,-1.3861,-0.6278,9.1904,-0.7749,-0.4699,9.7647,-0.0034,-0.0078,0.0249
27154,47.18068,-1.610287,61.16,17.52,3.216,112.5,17 / 22,2715410,2019-08-09 20:59:24:148,-0.3787,-0.1795,9.3646,-0.7884,-0.4699,9.7636,-0.0117,-0.0093,0.0353
27155,47.18068,-1.610287,61.16,17.52,3.216,112.5,17 / 22,2715510,2019-08-09 20:59:24:248,0.0846,-0.4835,9.9877,-0.7931,-0.478,9.7628,-0.0179,-0.0055,0.0397
27156,47.18068,-1.610287,61.16,17.52,3.216,112.5,16 / 21,2715612,2019-08-09 20:59:24:350,-1.4645,-0.1657,9.8692,-0.7989,-0.4843,9.762,-0.0136,0.0335,0.012
27157,47.18068,-1.610287,61.16,17.52,3.216,112.5,16 / 21,2715712,2019-08-09 20:59:24:450,-1.1754,-0.3692,9.4729,-0.8111,-0.4844,9.761,-0.0035,0.0006,0.0252
27158,47.18068,-1.610287,61.16,17.52,3.216,112.5,16 / 21,2715810,2019-08-09 20:59:24:548,-0.9779,0.0181,9.61,-0.8086,-0.4836,9.7613,-0.0282,-0.0477,0.0227
27159,47.18068,-1.610287,61.16,17.52,3.216,112.5,16 / 21,2715910,2019-08-09 20:59:24:648,-0.8199,0.0546,9.4209,-0.8007,-0.5051,9.7609,-0.0343,-0.0278,0.0384
27160,47.18068,-1.610287,61.16,17.52,3.216,112.5,16 / 21,2716011,2019-08-09 20:59:24:749,-0.8049,-0.4189,9.8452,-0.7808,-0.5164,9.7619,-0.0217,-0.0038,0.0441
27161,47.18068,-1.610287,61.16,17.52,3.216,112.5,16 / 21,2716111,2019-08-09 20:59:24:849,-0.8288,-0.0855,10.0463,-0.8068,-0.5367,9.7587,-0.0203,0.0279,0.0167
27162,47.18068,-1.610287,61.16,17.52,3.216,112.5,16 / 21,2716211,2019-08-09 20:59:24:949,0.0834,-0.5691,10.254,-0.787,-0.5485,9.7596,-0.0239,0.0262,0.0414
27163,47.18068,-1.610287,61.16,17.52,3.216,112.5,16 / 21,2716311,2019-08-09 20:59:25:049,-1.0132,-0.0448,9.7339,-0.808,-0.5707,9.7566,-0.0213,-0.0075,0.0013
27164,47.18068,-1.610287,61.16,17.52,3.216,112.5,16 / 21,2716411,2019-08-09 20:59:25:149,-0.7456,-0.6774,9.5017,-0.8277,-0.577,9.7546,-0.0121,-0.0203,0.0419
27165,47.18068,-1.610287,61.16,17.52,3.216,112.5,16 / 21,2716511,2019-08-09 20:59:25:249,-1.4962,-0.3189,9.6106,-0.8327,-0.5863,9.7536,-0.0198,0.0075,0.0126
27166,47.18068,-1.610287,61.16,17.52,3.216,112.5,18 / 23,2716610,2019-08-09 20:59:25:348,-0.8372,-0.0244,9.9554,-0.8566,-0.5943,9.7511,-0.0253,-0.0045,0.032
27167,47.18068,-1.610287,61.16,17.52,3.216,112.5,18 / 23,2716710,2019-08-09 20:59:25:448,-0.6726,-0.0376,10.2121,-0.8675,-0.6089,9.7492,-0.0256,0.0107,0.0237
27168,47.18068,-1.610287,61.16,17.52,3.216,112.5,18 / 23,2716810,2019-08-09 20:59:25:548,0.1079,-0.4512,9.4412,-0.8762,-0.6138,9.7481,0.0165,0.0092,0.0038
27169,47.18068,-1.610287,61.16,17.52,3.216,112.5,18 / 23,2716911,2019-08-09 20:59:25:649,-1.6231,-0.35,9.8416,-0.9061,-0.5857,9.7471,0.0234,-0.0124,0.0077
27170,47.18068,-1.610287,61.16,17.52,3.216,112.5,18 / 23,2717010,2019-08-09 20:59:25:748,-2.3186,0.2677,10.0721,-0.9059,-0.5585,9.7487,0.0216,0.046,-0.0128
27171,47.18068,-1.610287,61.16,17.52,3.216,112.5,18 / 23,2717110,2019-08-09 20:59:25:848,-2.1169,0.0324,9.5693,-0.9006,-0.5354,9.7505,-0.0101,-0.0128,0.0101
27172,47.18068,-1.610287,61.16,17.52,3.216,112.5,18 / 23,2717211,2019-08-09 20:59:25:949,-0.3877,-0.0154,9.9224,-0.8846,-0.5312,9.7522,-0.0051,0.0332,0.0057
27173,47.18068,-1.610287,61.16,17.52,3.216,112.5,18 / 23,2717311,2019-08-09 20:59:26:049,-1.4681,0.2072,9.4951,-0.8963,-0.5117,9.7522,-0.0032,0.0272,0.0
27174,47.18068,-1.610287,61.16,17.52,3.216,112.5,18 / 23,2717410,2019-08-09 20:59:26:148,-0.5715,0.3718,10.0691,-0.8785,-0.5052,9.7541,-0.0144,0.0315,-0.0116
27175,47.18068,-1.610287,61.16,17.52,3.216,112.5,18 / 23,2717510,2019-08-09 20:59:26:248,-0.2099,-0.0699,10.1056,-0.8893,-0.5043,9.7532,-0.0181,-0.0109,0.024
27176,47.18068,-1.610287,61.16,17.52,3.216,112.5,16 / 21,2717610,2019-08-09 20:59:26:348,-0.1333,-0.374,9.352,-0.8887,-0.5053,9.7532,0.003,0.041,0.0011
27177,47.18068,-1.610287,61.16,17.52,3.216,112.5,16 / 21,2717710,2019-08-09 20:59:26:448,-1.0635,-0.3824,9.1497,-0.8868,-0.4878,9.7543,0.0059,-0.0524,0.0297
27178,47.18068,-1.610287,61.16,17.52,3.216,112.5,16 / 21,2717810,2019-08-09 20:59:26:548,-0.8492,0.142,9.7788,-0.9104,-0.4825,9.7524,0.0015,0.0254,-0.0151
27179,47.18068,-1.610287,61.16,17.52,3.216,112.5,16 / 21,2717910,2019-08-09 20:59:26:648,-1.1514,0.2204,10.0086,-0.8996,-0.4773,9.7536,-0.0155,-0.0237,0.0018
27180,47.18068,-1.610287,61.16,17.52,3.216,112.5,16 / 21,2718011,2019-08-09 20:59:26:749,-0.2578,-0.2674,9.4328,-0.9142,-0.479,9.7522,-0.0027,-0.0065,0.0116
27181,47.18068,-1.610287,61.16,17.52,3.216,112.5,16 / 21,2718111,2019-08-09 20:59:26:849,-1.0712,0.0169,9.8943,-0.9131,-0.4694,9.7528,-0.0054,0.0172,0.0242
27182,47.18068,-1.610287,61.16,17.52,3.216,112.5,16 / 21,2718211,2019-08-09 20:59:26:949,-1.8673,-0.0358,9.7638,-0.922,-0.4656,9.7521,-0.0165,-0.049,-0.0077
27183,47.18068,-1.610287,61.16,17.52,3.216,112.5,16 / 21,2718310,2019-08-09 20:59:27:048,-1.5878,-0.2489,9.8817,-0.9181,-0.4845,9.7515,-0.0248,-0.0223,0.0179
27184,47.18068,-1.610287,61.16,17.52,3.216,112.5,16 / 21,2718410,2019-08-09 20:59:27:148,-1.4741,-0.3866,9.6297,-0.9148,-0.4882,9.7517,-0.0139,-0.0173,-0.0115
27185,47.18068,-1.610287,61.16,17.52,3.216,112.5,16 / 21,2718510,2019-08-09 20:59:27:248,-0.4889,-0.1046,9.7064,-0.9161,-0.4873,9.7516,-0.0195,-0.0583,0.0167
27186,47.18068,-1.610287,61.16,17.52,3.216,112.5,17 / 21,2718611,2019-08-09 20:59:27:349,-0.5026,-0.1741,9.8979,-0.8988,-0.5054,9.7523,-0.0138,0.0086,0.0091
27187,47.18068,-1.610287,61.16,17.52,3.216,112.5,17 / 21,2718711,2019-08-09 20:59:27:449,-0.5158,-0.3387,9.5825,-0.9035,-0.5088,9.7517,-0.0005,0.0201,0.0006
27188,47.18068,-1.610287,61.16,17.52,3.216,112.5,17 / 21,2718811,2019-08-09 20:59:27:549,-0.4266,-0.5625,9.355,-0.8899,-0.4923,9.7538,0.0262,-0.0168,0.0224
27189,47.18068,-1.610287,61.16,17.52,3.216,112.5,17 / 21,2718911,2019-08-09 20:59:27:649,-0.2662,-0.7169,9.0019,-0.9274,-0.4783,9.751,0.0075,-0.0805,0.0495
27190,47.18068,-1.610287,61.16,17.52,3.216,112.5,17 / 21,2719010,2019-08-09 20:59:27:748,-2.1337,-0.2914,8.9636,-0.8969,-0.4573,9.7548,0.0155,0.0393,-0.0397
27191,47.18068,-1.610287,61.16,17.52,3.216,112.5,17 / 21,2719111,2019-08-09 20:59:27:849,-1.6273,0.2258,9.0174,-0.862,-0.4365,9.7589,-0.0099,0.0134,-0.0069
27192,47.18068,-1.610287,61.16,17.52,3.216,112.5,17 / 21,2719210,2019-08-09 20:59:27:948,-0.4051,0.0115,9.6932,-0.8567,-0.4337,9.7595,-0.018,-0.001,0.002
27193,47.18068,-1.610287,61.16,17.52,3.216,112.5,17 / 21,2719312,2019-08-09 20:59:28:050,-0.3524,0.1222,10.3672,-0.8624,-0.4399,9.7588,-0.0211,0.0294,-0.0102
27194,47.18068,-1.610287,61.16,17.52,3.216,112.5,17 / 21,2719411,2019-08-09 20:59:28:149,-0.9689,-0.0597,10.1762,-0.8844,-0.444,9.7566,-0.0166,0.0081,0.0163
27195,47.18068,-1.610287,61.16,17.52,3.216,112.5,17 / 21,2719510,2019-08-09 20:59:28:248,-0.7414,-0.107,9.4227,-0.8617,-0.4448,9.7586,-0.004,-0.0082,0.0009
27196,47.18068,-1.610287,61.16,17.52,3.216,112.5,15 / 20,2719610,2019-08-09 20:59:28:348,-0.7283,0.0636,10.1134,-0.8667,-0.4359,9.7585,-0.012,-0.0186,0.0025
27197,47.18068,-1.610287,61.16,17.52,3.216,112.5,15 / 20,2719711,2019-08-09 20:59:28:449,-0.0441,-0.2094,10.3983,-0.8639,-0.4371,9.7587,-0.0051,0.0347,0.0121
27198,47.18068,-1.610287,61.16,17.52,3.216,112.5,15 / 20,2719811,2019-08-09 20:59:28:549,-0.2476,0.0755,10.1104,-0.9061,-0.422,9.7556,0.0157,-0.0131,-0.0029
27199,47.18068,-1.610287,61.16,17.52,3.216,112.5,15 / 20,2719911,2019-08-09 20:59:28:649,-1.2688,0.1402,9.9356,-0.8986,-0.4051,9.757,0.0062,-0.021,-0.0219
27200,47.18068,-1.610287,61.16,17.52,3.216,112.5,15 / 20,2720010,2019-08-09 20:59:28:748,0.3258,0.315,10.0104,-0.902,-0.374,9.7579,0.0053,-0.0107,0.027
27201,47.18068,-1.610287,61.16,17.52,3.216,112.5,15 / 20,2720110,2019-08-09 20:59:28:848,-0.7564,0.0708,9.8398,-0.8681,-0.3688,9.7612,0.0012,-0.0004,-0.0189
27202,47.18068,-1.610287,61.16,17.52,3.216,112.5,15 / 20,2720210,2019-08-09 20:59:28:948,-1.2843,-0.1016,9.3963,-0.8364,-0.3538,9.7645,-0.01,-0.014,0.014
27203,47.18068,-1.610287,61.16,17.52,3.216,112.5,15 / 20,2720311,2019-08-09 20:59:29:049,0.6227,-0.0687,9.212,-0.8173,-0.3519,9.7662,0.002,-0.0213,-0.0074
27204,47.18068,-1.610287,61.16,17.52,3.216,112.5,15 / 20,2720411,2019-08-09 20:59:29:149,-0.1836,-0.353,9.5992,-0.7899,-0.3377,9.7689,0.0072,-0.0018,0.0112
27205,47.18068,-1.610287,61.16,17.52,3.216,112.5,15 / 20,2720510,2019-08-09 20:59:29:248,-0.4601,0.4041,9.4532,-0.7686,-0.3252,9.7711,0.0005,0.0139,-0.0061
27206,47.18068,-1.610287,61.16,17.52,3.216,112.5,15 / 21,2720610,2019-08-09 20:59:29:348,0.2516,0.0157,9.2778,-0.7283,-0.3108,9.7746,0.0005,-0.0528,0.0041
27207,47.18068,-1.610287,61.16,17.52,3.216,112.5,15 / 21,2720710,2019-08-09 20:59:29:448,0.5862,0.2132,9.8416,-0.7411,-0.3079,9.7738,-0.0254,-0.001,-0.0039
27208,47.18068,-1.610287,61.16,17.52,3.216,112.5,15 / 21,2720810,2019-08-09 20:59:29:548,0.3258,-0.0502,9.6417,-0.7097,-0.3249,9.7755,-0.0273,-0.0128,0.0092
27209,47.18068,-1.610287,61.16,17.52,3.216,112.5,15 / 21,2720910,2019-08-09 20:59:29:648,0.1049,-0.186,10.0356,-0.7191,-0.3301,9.7747,-0.0141,0.0303,0.0107
27210,47.18068,-1.610287,61.16,17.52,3.216,112.5,15 / 21,2721010,2019-08-09 20:59:29:748,-0.52,0.0486,9.7842,-0.722,-0.3251,9.7746,0.0006,0.0172,-0.0099
27211,47.18068,-1.610287,61.16,17.52,3.216,112.5,15 / 21,2721110,2019-08-09 20:59:29:848,-0.4248,0.194,9.674,-0.6928,-0.3214,9.7769,-0.0031,0.0153,-0.0138
27212,47.18068,-1.610287,61.16,17.52,3.216,112.5,15 / 21,2721210,2019-08-09 20:59:29:948,-4.4279,0.0684,9.9913,-0.7117,-0.3213,9.7755,-0.0184,-0.0037,-0.006
27213,47.18068,-1.610287,61.16,17.52,3.216,112.5,15 / 21,2721310,2019-08-09 20:59:30:048,-3.1051,-0.1088,9.6866,-0.6981,-0.3269,9.7763,-0.0095,0.0453,-0.0017
27214,47.18068,-1.610287,61.16,17.52,3.216,112.5,15 / 21,2721410,2019-08-09 20:59:30:148,-2.6784,-0.3704,9.3065,-0.7086,-0.329,9.7755,-0.0096,-0.0016,-0.012
27215,47.18068,-1.610287,61.16,17.52,3.216,112.5,15 / 21,2721510,2019-08-09 20:59:30:248,-0.3584,0.0181,9.0875,-0.6905,-0.3312,9.7767,-0.0163,0.0049,-0.0058
27216,47.18068,-1.610287,61.16,17.52,3.216,112.5,16 / 22,2721610,2019-08-09 20:59:30:348,0.166,0.3868,8.6792,-0.6587,-0.3412,9.7786,-0.0138,0.0499,0.0074
27217,47.18068,-1.610287,61.16,17.52,3.216,112.5,16 / 22,2721710,2019-08-09 20:59:30:448,-0.7636,-0.2914,9.1216,-0.6703,-0.3545,9.7773,-0.0316,-0.0599,0.0061
27218,47.18068,-1.610287,61.16,17.52,3.216,112.5,16 / 22,2721810,2019-08-09 20:59:30:548,-1.3526,-0.295,9.2802,-0.6489,-0.3726,9.7781,-0.0153,0.0128,-0.013
27219,47.18068,-1.610287,61.16,17.52,3.216,112.5,16 / 22,2721910,2019-08-09 20:59:30:648,-1.164,0.215,9.847,-0.6663,-0.376,9.7768,-0.0245,-0.0164,-0.0194
27220,47.18068,-1.610287,61.16,17.52,3.216,112.5,16 / 22,2722010,2019-08-09 20:59:30:748,-1.9302,-0.55,9.7411,-0.673,-0.3993,9.7754,-0.0139,-0.0009,0.0107
27221,47.18068,-1.610287,61.16,17.52,3.216,112.5,16 / 22,2722111,2019-08-09 20:59:30:849,-0.9432,-0.1178,9.9069,-0.685,-0.4015,9.7745,-0.0088,0.0051,-0.0296
27222,47.18068,-1.610287,61.16,17.52,3.216,112.5,16 / 22,2722211,2019-08-09 20:59:30:949,-2.4006,-0.2908,9.9931,-0.6764,-0.4022,9.775,-0.0019,0.0158,0.0003
27223,47.18068,-1.610287,61.16,17.52,3.216,112.5,16 / 22,2722310,2019-08-09 20:59:31:048,-1.6943,0.3006,10.1403,-0.7184,-0.3997,9.7721,0.0062,0.0422,-0.0402
27224,47.18068,-1.610287,61.16,17.52,3.216,112.5,16 / 22,2722411,2019-08-09 20:59:31:149,-0.0567,-0.3488,9.859,-0.7204,-0.3925,9.7723,-0.0002,-0.043,0.0054
27225,47.18068,-1.610287,61.16,17.52,3.216,112.5,16 / 22,2722510,2019-08-09 20:59:31:248,-1.0192,-0.374,9.6944,-0.7474,-0.397,9.7701,-0.0274,-0.0116,0.0068
27226,47.18068,-1.610287,61.16,17.52,3.216,112.5,16 / 22,2722610,2019-08-09 20:59:31:348,-1.1287,-0.8073,9.2401,-0.764,-0.4151,9.768,-0.0022,-0.0192,0.0379
27227,47.18068,-1.610287,61.16,17.52,3.216,112.5,16 / 22,2722711,2019-08-09 20:59:31:449,-0.2261,-0.2656,10.4258,-0.7848,-0.4161,9.7663,-0.0058,0.0485,-0.0198
27228,47.18068,-1.610287,61.16,17.52,3.216,112.5,16 / 22,2722810,2019-08-09 20:59:31:548,-0.9306,-0.2118,9.6621,-0.7694,-0.4184,9.7675,-0.0141,0.0278,-0.0148
27229,47.18068,-1.610287,61.16,17.52,3.216,112.5,16 / 22,2722910,2019-08-09 20:59:31:648,0.5712,-0.4548,9.3323,-0.7756,-0.432,9.7664,-0.0031,-0.025,0.0091
27230,47.18068,-1.610287,61.16,17.52,3.216,112.5,16 / 22,2723010,2019-08-09 20:59:31:748,-2.2755,-0.3081,8.5404,-0.7666,-0.4383,9.7668,-0.0081,-0.0425,0.0123
27231,47.18068,-1.610287,61.16,17.52,3.216,112.5,16 / 22,2723111,2019-08-09 20:59:31:849,-1.085,-0.2309,9.85,-0.7617,-0.4414,9.7671,0.004,0.002,0.0065
27232,47.18068,-1.610287,61.16,17.52,3.216,112.5,16 / 22,2723211,2019-08-09 20:59:31:949,-0.6116,-0.9719,8.9743,-0.8147,-0.4335,9.7631,0.0168,-0.0249,0.0277
27233,47.18068,-1.610287,61.16,17.52,3.216,112.5,16 / 22,2723310,2019-08-09 20:59:32:048,-3.2015,-0.1298,9.9254,-0.8507,-0.4147,9.7609,0.0039,-0.0436,0.0297
27234,47.18068,-1.610287,61.16,17.52,3.216,112.5,16 / 22,2723411,2019-08-09 20:59:32:149,-3.4373,-0.6272,9.3191,-0.8327,-0.414,9.7625,0.0012,-0.0364,0.0079
27235,47.18068,-1.610287,61.16,17.52,3.216,112.5,16 / 22,2723511,2019-08-09 20:59:32:249,-1.7027,-0.2626,9.4388,-0.8499,-0.4213,9.7607,-0.0173,-0.0192,0.0024
27236,47.18023,-1.608247,62.71,18.87,3.216,108.1,16 / 21,2723613,2019-08-09 20:59:32:351,-0.0597,-0.8313,8.7726,-0.8816,-0.4282,9.7576,-0.004,-0.0315,0.0337
27237,47.18023,-1.608247,62.71,18.87,3.216,108.1,16 / 21,2723710,2019-08-09 20:59:32:448,-2.5742,-0.6888,9.5124,-0.8948,-0.4477,9.7555,-0.0051,0.0358,-0.0184
27238,47.18023,-1.608247,62.71,18.87,3.216,108.1,16 / 21,2723810,2019-08-09 20:59:32:548,-0.5727,-0.8857,9.7896,-0.9053,-0.4505,9.7544,-0.008,0.024,-0.0032
27239,47.18023,-1.608247,62.71,18.87,3.216,108.1,16 / 21,2723911,2019-08-09 20:59:32:649,-1.1281,-0.5781,9.7549,-0.9539,-0.4568,9.7495,0.0051,0.0193,0.0149
27240,47.18023,-1.608247,62.71,18.87,3.216,108.1,16 / 21,2724010,2019-08-09 20:59:32:748,-0.6259,-0.2986,10.1768,-0.9808,-0.4521,9.747,0.0127,0.0236,0.0038
27241,47.18023,-1.608247,62.71,18.87,3.216,108.1,16 / 21,2724110,2019-08-09 20:59:32:848,-1.079,-0.5577,9.5555,-1.0225,-0.4421,9.7432,0.0153,-0.0104,0.0061
27242,47.18023,-1.608247,62.71,18.87,3.216,108.1,16 / 21,2724211,2019-08-09 20:59:32:949,-2.3916,-0.3913,8.8037,-1.0334,-0.4259,9.7427,0.0301,-0.0743,-0.0145
27243,47.18023,-1.608247,62.71,18.87,3.216,108.1,16 / 21,2724311,2019-08-09 20:59:33:049,-1.1886,-0.025,9.528,-1.0204,-0.387,9.7457,0.0264,0.0204,-0.0081
27244,47.18023,-1.608247,62.71,18.87,3.216,108.1,16 / 21,2724411,2019-08-09 20:59:33:149,-2.5036,-0.04,10.1212,-1.0298,-0.3747,9.7452,-0.0001,0.013,-0.005
27245,47.18023,-1.608247,62.71,18.87,3.216,108.1,16 / 21,2724511,2019-08-09 20:59:33:249,-2.0762,-0.438,10.1271,-1.0937,-0.3661,9.7386,0.0071,0.0296,-0.0002
27246,47.18023,-1.608247,62.71,18.87,3.216,108.1,16 / 22,2724611,2019-08-09 20:59:33:349,-2.743,0.0905,10.3648,-1.1201,-0.3592,9.7358,-0.0044,0.0135,-0.0307
27247,47.18023,-1.608247,62.71,18.87,3.216,108.1,16 / 22,2724710,2019-08-09 20:59:33:448,-3.9401,-0.3806,10.175,-1.1828,-0.357,9.7285,-0.0191,-0.1015,-0.0489
27248,47.18023,-1.608247,62.71,18.87,3.216,108.1,16 / 22,2724810,2019-08-09 20:59:33:548,-2.3282,-0.8013,8.0448,-1.1042,-0.3594,9.7377,0.0065,0.0306,0.0552
27249,47.18023,-1.608247,62.71,18.87,3.216,108.1,16 / 22,2724910,2019-08-09 20:59:33:648,-0.6355,-0.8528,8.529,-1.077,-0.3707,9.7403,0.0189,-0.0062,0.0505
27250,47.18023,-1.608247,62.71,18.87,3.216,108.1,16 / 22,2725010,2019-08-09 20:59:33:748,-0.669,-0.4596,8.7463,-1.1318,-0.3828,9.7336,0.0018,-0.0381,-0.0089
27251,47.18023,-1.608247,62.71,18.87,3.216,108.1,16 / 22,2725111,2019-08-09 20:59:33:849,-2.333,-0.96,9.3407,-1.1383,-0.3579,9.7338,0.0158,0.0077,-0.0515
27252,47.18023,-1.608247,62.71,18.87,3.216,108.1,16 / 22,2725210,2019-08-09 20:59:33:948,-2.9597,-0.3363,9.7746,-1.1471,-0.3378,9.7335,0.0091,-0.0241,0.0065
27253,47.18023,-1.608247,62.71,18.87,3.216,108.1,16 / 22,2725310,2019-08-09 20:59:34:048,-3.5995,-0.863,8.2902,-1.1294,-0.3237,9.736,0.0252,-0.0735,-0.0096
27254,47.18023,-1.608247,62.71,18.87,3.216,108.1,16 / 22,2725410,2019-08-09 20:59:34:148,-0.9043,0.9177,11.0304,-1.2019,-0.3156,9.7276,-0.0044,0.0851,-0.038
27255,47.18023,-1.608247,62.71,18.87,3.216,108.1,16 / 22,2725510,2019-08-09 20:59:34:248,-0.2949,0.3239,10.3486,-1.159,-0.3062,9.7331,-0.0027,0.032,0.0104
27256,47.18023,-1.608247,62.71,18.87,3.216,108.1,17 / 21,2725610,2019-08-09 20:59:34:348,-0.6361,-0.3716,9.5585,-1.1824,-0.3144,9.73,0.0119,-0.0062,-0.0074
27257,47.18023,-1.608247,62.71,18.87,3.216,108.1,17 / 21,2725710,2019-08-09 20:59:34:448,-1.3807,-0.1609,9.2934,-1.2104,-0.3068,9.7268,0.0119,-0.0062,-0.0074
27258,47.18023,-1.608247,62.71,18.87,3.216,108.1,17 / 21,2725811,2019-08-09 20:59:34:549,-0.9491,-0.0861,9.8045,-1.1933,-0.2905,9.7294,-0.0035,-0.0136,-0.0095
27259,47.18023,-1.608247,62.71,18.87,3.216,108.1,17 / 21,2725910,2019-08-09 20:59:34:648,-1.0072,0.0073,10.0661,-1.2023,-0.2865,9.7284,0.0063,0.0029,-0.0025
27260,47.18023,-1.608247,62.71,18.87,3.216,108.1,17 / 21,2726011,2019-08-09 20:59:34:749,-0.3272,-0.3596,9.5974,-1.1747,-0.2672,9.7324,0.0123,-0.0071,0.0124
27261,47.18023,-1.608247,62.71,18.87,3.216,108.1,17 / 21,2726110,2019-08-09 20:59:34:848,-0.1866,-0.3411,9.4244,-1.1241,-0.2581,9.7386,0.0133,-0.017,0.0115
27262,47.18023,-1.608247,62.71,18.87,3.216,108.1,17 / 21,2726210,2019-08-09 20:59:34:948,0.5802,0.1204,9.7016,-1.0789,-0.2435,9.7441,-0.0013,0.0217,-0.0077
27263,47.18023,-1.608247,62.71,18.87,3.216,108.1,17 / 21,2726310,2019-08-09 20:59:35:048,-1.0695,0.0013,9.8518,-1.0713,-0.2375,9.7451,-0.002,-0.054,-0.0075
27264,47.18023,-1.608247,62.71,18.87,3.216,108.1,17 / 21,2726410,2019-08-09 20:59:35:148,-0.8851,0.1857,10.0164,-1.0721,-0.2341,9.7451,0.0219,-0.0548,0.0346
27265,47.18023,-1.608247,62.71,18.87,3.216,108.1,17 / 21,2726510,2019-08-09 20:59:35:248,-1.4136,0.1851,9.9655,-1.0628,-0.224,9.7463,-0.0143,0.0846,-0.0674
27266,47.18023,-1.608247,62.71,18.87,3.216,108.1,18 / 23,2726610,2019-08-09 20:59:35:348,1.8287,0.1043,9.4789,-1.0451,-0.2179,9.7484,-0.0091,0.0671,-0.0269
27267,47.18023,-1.608247,62.71,18.87,3.216,108.1,18 / 23,2726710,2019-08-09 20:59:35:448,0.7657,0.1162,8.4895,-1.0022,-0.2064,9.7531,-0.0002,-0.1529,-0.0239
27268,47.18023,-1.608247,62.71,18.87,3.216,108.1,18 / 23,2726810,2019-08-09 20:59:35:548,-2.6909,-0.2776,8.9612,-0.9481,-0.1855,9.759,0.0249,-0.0665,0.004
27269,47.18023,-1.608247,62.71,18.87,3.216,108.1,18 / 23,2726910,2019-08-09 20:59:35:648,0.0564,0.8782,10.8275,-1.0073,-0.1771,9.7532,-0.0043,0.0937,-0.0623
27270,47.18023,-1.608247,62.71,18.87,3.216,108.1,18 / 23,2727010,2019-08-09 20:59:35:748,-2.0271,0.4508,9.9129,-1.0399,-0.1636,9.75,-0.005,0.0472,-0.0521
27271,47.18023,-1.608247,62.71,18.87,3.216,108.1,18 / 23,2727110,2019-08-09 20:59:35:848,-3.056,-0.8109,9.3389,-1.1027,-0.1644,9.7431,0.006,0.0695,-0.0478
27272,47.18023,-1.608247,62.71,18.87,3.216,108.1,18 / 23,2727210,2019-08-09 20:59:35:948,-1.5537,1.0195,10.9543,-1.1097,-0.1492,9.7425,0.0029,-0.051,0.0067
27273,47.18023,-1.608247,62.71,18.87,3.216,108.1,18 / 23,2727310,2019-08-09 20:59:36:048,-3.1081,1.381,9.8315,-1.0548,-0.1501,9.7486,-0.0185,0.0484,-0.0697
27274,47.18023,-1.608247,62.71,18.87,3.216,108.1,18 / 23,2727410,2019-08-09 20:59:36:148,-2.2713,1.4073,9.6956,-1.0311,-0.18,9.7506,-0.0607,0.0263,-0.1083
27275,47.18023,-1.608247,62.71,18.87,3.216,108.1,18 / 23,2727510,2019-08-09 20:59:36:248,-0.9868,0.9716,10.4587,-0.9035,-0.2,9.7629,-0.0511,0.1075,-0.094
27276,47.18023,-1.608247,62.71,18.87,3.216,108.1,17 / 22,2727610,2019-08-09 20:59:36:348,-0.6271,-0.125,9.1683,-0.9321,-0.2303,9.7595,-0.0238,-0.0453,-0.007
27277,47.18023,-1.608247,62.71,18.87,3.216,108.1,17 / 22,2727710,2019-08-09 20:59:36:448,-2.646,0.1384,9.8692,-1.0166,-0.2296,9.7511,0.0034,-0.0273,-0.0321
27278,47.18023,-1.608247,62.71,18.87,3.216,108.1,17 / 22,2727810,2019-08-09 20:59:36:548,-2.6903,0.391,9.9105,-1.0291,-0.2087,9.7503,0.005,0.014,-0.0392
27279,47.18023,-1.608247,62.71,18.87,3.216,108.1,17 / 22,2727910,2019-08-09 20:59:36:648,-0.4392,0.3395,10.4623,-1.0513,-0.1989,9.7481,0.0014,-0.065,-0.0143
27280,47.18023,-1.608247,62.71,18.87,3.216,108.1,17 / 22,2728010,2019-08-09 20:59:36:748,-0.3165,0.2449,9.3736,-1.0127,-0.1889,9.7524,-0.0056,-0.0446,-0.0211
27281,47.18023,-1.608247,62.71,18.87,3.216,108.1,17 / 22,2728111,2019-08-09 20:59:36:849,-0.3668,-0.1094,9.4586,-0.9888,-0.1919,9.7548,-0.0069,-0.0014,-0.0003
27282,47.18023,-1.608247,62.71,18.87,3.216,108.1,17 / 22,2728210,2019-08-09 20:59:36:948,-0.6152,0.3808,9.279,-0.9943,-0.1956,9.7542,-0.009,0.0036,-0.003
27283,47.18023,-1.608247,62.71,18.87,3.216,108.1,17 / 22,2728310,2019-08-09 20:59:37:048,-1.0868,0.0989,9.6902,-0.9787,-0.1953,9.7557,-0.0009,0.0084,-0.0231
27284,47.18023,-1.608247,62.71,18.87,3.216,108.1,17 / 22,2728410,2019-08-09 20:59:37:148,-1.3843,0.2629,10.0601,-0.9823,-0.1823,9.7556,0.0119,0.0153,-0.0353
27285,47.18023,-1.608247,62.71,18.87,3.216,108.1,17 / 22,2728510,2019-08-09 20:59:37:248,-0.8055,-0.2136,9.8943,-0.975,-0.165,9.7567,0.0218,-0.0146,-0.0158
27286,47.18023,-1.608247,62.71,18.87,3.216,108.1,14 / 19,2728610,2019-08-09 20:59:37:348,-1.9386,0.0636,9.4867,-0.9607,-0.1461,9.7584,0.0253,0.0045,-0.0307
27287,47.18023,-1.608247,62.71,18.87,3.216,108.1,14 / 19,2728710,2019-08-09 20:59:37:448,-0.6966,-0.0861,9.1701,-0.9378,-0.1146,9.761,0.0078,0.0408,-0.039
27288,47.18023,-1.608247,62.71,18.87,3.216,108.1,14 / 19,2728810,2019-08-09 20:59:37:548,-1.0389,0.6723,10.2109,-0.9269,-0.0978,9.7623,-0.0055,-0.0235,0.002
27289,47.18023,-1.608247,62.71,18.87,3.216,108.1,14 / 19,2728910,2019-08-09 20:59:37:648,-1.0898,0.306,9.9009,-0.9169,-0.1036,9.7631,-0.0248,0.0162,-0.0271
27290,47.18023,-1.608247,62.71,18.87,3.216,108.1,14 / 19,2729011,2019-08-09 20:59:37:749,0.0947,-0.3518,9.8859,-0.9139,-0.115,9.7633,-0.0261,0.0319,0.0049
27291,47.18023,-1.608247,62.71,18.87,3.216,108.1,14 / 19,2729111,2019-08-09 20:59:37:849,-0.6971,-0.4171,9.3436,-0.8757,-0.149,9.7663,-0.0163,-0.0559,0.016
27292,47.18023,-1.608247,62.71,18.87,3.216,108.1,14 / 19,2729210,2019-08-09 20:59:37:948,-0.0717,-0.1717,9.932,-0.8989,-0.1612,9.764,-0.0212,0.0265,-0.0158
27293,47.18023,-1.608247,62.71,18.87,3.216,108.1,14 / 19,2729310,2019-08-09 20:59:38:048,-0.4194,0.2623,8.7732,-0.8776,-0.188,9.7655,-0.038,-0.0309,-0.034
27294,47.18023,-1.608247,62.71,18.87,3.216,108.1,14 / 19,2729410,2019-08-09 20:59:38:148,-1.3873,-0.468,9.6711,-0.8632,-0.207,9.7664,-0.0396,-0.025,0.0192
27295,47.18023,-1.608247,62.71,18.87,3.216,108.1,14 / 19,2729510,2019-08-09 20:59:38:248,-2.67,-0.6068,9.6705,-0.8495,-0.2571,9.7664,-0.0139,-0.0332,-0.0039
27296,47.18023,-1.608247,62.71,18.87,3.216,108.1,18 / 23,2729610,2019-08-09 20:59:38:348,-1.6919,-0.4817,10.0924,-0.8141,-0.2707,9.7691,-0.0179,0.0698,-0.0009
27297,47.18023,-1.608247,62.71,18.87,3.216,108.1,18 / 23,2729710,2019-08-09 20:59:38:448,-1.1084,-0.3213,10.2061,-0.8315,-0.2939,9.7669,-0.0088,0.0107,-0.0157
27298,47.18023,-1.608247,62.71,18.87,3.216,108.1,18 / 23,2729810,2019-08-09 20:59:38:548,0.6197,-0.2555,9.5495,-0.8148,-0.2992,9.7682,-0.0036,-0.0057,0.0124
27299,47.18023,-1.608247,62.71,18.87,3.216,108.1,18 / 23,2729910,2019-08-09 20:59:38:648,0.6304,-0.2806,9.7776,-0.7965,-0.3031,9.7695,-0.0088,0.0308,-0.009
27300,47.18023,-1.608247,62.71,18.87,3.216,108.1,18 / 23,2730010,2019-08-09 20:59:38:748,-1.6369,-0.3548,9.3305,-0.7686,-0.3162,9.7714,-0.0284,0.0116,0.0216
27301,47.18023,-1.608247,62.71,18.87,3.216,108.1,18 / 23,2730111,2019-08-09 20:59:38:849,0.5969,-0.599,9.7453,-0.7476,-0.3508,9.7718,-0.0045,0.0461,-0.0014
27302,47.18023,-1.608247,62.71,18.87,3.216,108.1,18 / 23,2730210,2019-08-09 20:59:38:948,-0.0118,-0.7451,10.6874,-0.7647,-0.355,9.7703,0.0047,0.0349,0.0025
27303,47.18023,-1.608247,62.71,18.87,3.216,108.1,18 / 23,2730310,2019-08-09 20:59:39:048,-0.9294,-0.4201,9.4879,-0.7468,-0.3302,9.7726,0.0297,0.0192,-0.0128
27304,47.18023,-1.608247,62.71,18.87,3.216,108.1,18 / 23,2730411,2019-08-09 20:59:39:149,1.0536,-0.4596,9.4885,-0.7314,-0.3145,9.7743,0.029,-0.0294,-0.0089
27305,47.18023,-1.608247,62.71,18.87,3.216,108.1,18 / 23,2730511,2019-08-09 20:59:39:249,0.9692,-0.3375,10.257,-0.7196,-0.2911,9.7759,0.0127,0.0207,0.0089
27306,47.18023,-1.608247,62.71,18.87,3.216,108.1,17 / 22,2730611,2019-08-09 20:59:39:349,0.0762,-0.3333,9.8554,-0.7239,-0.2835,9.7758,0.0172,0.0244,0.0041
27307,47.18023,-1.608247,62.71,18.87,3.216,108.1,17 / 22,2730711,2019-08-09 20:59:39:449,-0.3865,-0.4602,9.5501,-0.7075,-0.2672,9.7774,0.0115,-0.0214,0.0077
27308,47.18023,-1.608247,62.71,18.87,3.216,108.1,17 / 22,2730810,2019-08-09 20:59:39:548,-0.7726,-0.5224,9.6794,-0.693,-0.2656,9.7785,-0.0019,0.0186,-0.0119
27309,47.18023,-1.608247,62.71,18.87,3.216,108.1,17 / 22,2730910,2019-08-09 20:59:39:648,-0.9078,-0.4757,9.4951,-0.6665,-0.2664,9.7803,0.0036,-0.0233,0.0163
27310,47.18023,-1.608247,62.71,18.87,3.216,108.1,17 / 22,2731010,2019-08-09 20:59:39:748,0.0582,-0.1639,9.2018,-0.6495,-0.2607,9.7816,0.0087,-0.0228,-0.0082
27311,47.18023,-1.608247,62.71,18.87,3.216,108.1,17 / 22,2731111,2019-08-09 20:59:39:849,-0.7588,-0.3722,10.187,-0.6554,-0.2487,9.7816,0.0184,0.0416,-0.0135
27312,47.18023,-1.608247,62.71,18.87,3.216,108.1,17 / 22,2731211,2019-08-09 20:59:39:949,-0.6487,-0.4458,10.3271,-0.6707,-0.2322,9.7809,0.0408,0.0294,-0.0079
27313,47.18023,-1.608247,62.71,18.87,3.216,108.1,17 / 22,2731311,2019-08-09 20:59:40:049,-0.2171,-0.0645,10.0248,-0.7061,-0.1795,9.7796,0.0424,0.0,-0.0125
27314,47.18023,-1.608247,62.71,18.87,3.216,108.1,17 / 22,2731410,2019-08-09 20:59:40:148,-1.483,0.151,9.7991,-0.7113,-0.147,9.7797,0.0401,0.0036,-0.0116
27315,47.18023,-1.608247,62.71,18.87,3.216,108.1,17 / 22,2731511,2019-08-09 20:59:40:249,-0.7307,0.0869,9.5729,-0.6971,-0.0824,9.7815,0.0409,0.0082,-0.0167
27316,47.18023,-1.608247,62.71,18.87,3.216,108.1,15 / 20,2731611,2019-08-09 20:59:40:349,-0.0579,0.3934,9.9129,-0.7027,-0.0626,9.7812,0.0174,0.0235,-0.0184
27317,47.18023,-1.608247,62.71,18.87,3.216,108.1,15 / 20,2731711,2019-08-09 20:59:40:449,-1.765,0.2629,10.2498,-0.74,-0.0403,9.7786,0.0076,0.0316,-0.0053
27318,47.18023,-1.608247,62.71,18.87,3.216,108.1,15 / 20,2731811,2019-08-09 20:59:40:549,-0.3165,0.1438,9.7566,-0.7363,-0.0314,9.7789,0.011,0.0025,0.0
27319,47.18023,-1.608247,62.71,18.87,3.216,108.1,15 / 20,2731911,2019-08-09 20:59:40:649,-0.4595,0.197,10.3719,-0.7703,-0.01,9.7763,0.013,0.0488,-0.0202
27320,47.18023,-1.608247,62.71,18.87,3.216,108.1,15 / 20,2732011,2019-08-09 20:59:40:749,-1.2251,-0.2585,10.2289,-0.7822,-0.0042,9.7754,0.011,0.0063,0.0133
27321,47.18023,-1.608247,62.71,18.87,3.216,108.1,15 / 20,2732110,2019-08-09 20:59:40:848,-1.2724,0.3952,10.676,-0.8117,0.0065,9.773,-0.0021,0.0308,0.0001
27322,47.18023,-1.608247,62.71,18.87,3.216,108.1,15 / 20,2732210,2019-08-09 20:59:40:948,-2.4689,0.2545,8.8157,-0.8154,0.0005,9.7727,-0.028,-0.0852,-0.0182
27323,47.18023,-1.608247,62.71,18.87,3.216,108.1,15 / 20,2732310,2019-08-09 20:59:41:048,-8.3155,-0.1992,10.0583,-0.7405,-0.0142,9.7786,-0.0265,-0.021,-0.0287
27324,47.18023,-1.608247,62.71,18.87,3.216,108.1,15 / 20,2732411,2019-08-09 20:59:41:149,-8.37,-0.5224,8.1771,-0.6884,-0.0345,9.7824,-0.0049,-0.131,0.0354
27325,47.18023,-1.608247,62.71,18.87,3.216,108.1,15 / 20,2732510,2019-08-09 20:59:41:248,3.0641,0.1516,9.1216,-0.6526,-0.0496,9.7848,-0.001,-0.1164,0.0345
27326,47.17965,-1.605866,61.32,21.69,3.216,112.1,17 / 22,2732610,2019-08-09 20:59:41:348,-1.2442,-0.1519,8.9456,-0.5506,-0.06,9.791,-0.0204,0.0054,-0.0145
27327,47.17965,-1.605866,61.32,21.69,3.216,112.1,17 / 22,2732710,2019-08-09 20:59:41:448,-0.614,-0.0933,10.202,-0.5975,-0.0703,9.7882,-0.0127,0.0143,-0.0172
27328,47.17965,-1.605866,61.32,21.69,3.216,112.1,17 / 22,2732810,2019-08-09 20:59:41:548,-0.4835,-0.1908,10.579,-0.6234,-0.076,9.7865,0.0131,0.0108,-0.0076
27329,47.17965,-1.605866,61.32,21.69,3.216,112.1,17 / 22,2732910,2019-08-09 20:59:41:648,-1.261,-0.2154,9.7752,-0.6111,-0.0692,9.7873,0.0207,-0.0065,-0.007
27330,47.17965,-1.605866,61.32,21.69,3.216,112.1,17 / 22,2733010,2019-08-09 20:59:41:748,-0.8384,0.0857,9.446,-0.5977,-0.0432,9.7883,0.0144,0.01,-0.0025
27331,47.17965,-1.605866,61.32,21.69,3.216,112.1,17 / 22,2733111,2019-08-09 20:59:41:849,-0.5852,0.209,9.1437,-0.5877,-0.0346,9.789,0.0086,-0.0303,-0.0144
27332,47.17965,-1.605866,61.32,21.69,3.216,112.1,17 / 22,2733211,2019-08-09 20:59:41:949,0.0678,0.1587,9.3604,-0.5846,-0.0179,9.7892,-0.0048,-0.0296,0.0014
27333,47.17965,-1.605866,61.32,21.69,3.216,112.1,17 / 22,2733310,2019-08-09 20:59:42:048,0.0223,0.7537,10.7838,-0.5873,-0.0186,9.789,-0.0103,0.057,-0.0458
27334,47.17965,-1.605866,61.32,21.69,3.216,112.1,17 / 22,2733410,2019-08-09 20:59:42:148,-0.2279,0.5089,10.8173,-0.5888,-0.037,9.7889,-0.0274,0.0866,-0.0435
27335,47.17965,-1.605866,61.32,21.69,3.216,112.1,17 / 22,2733510,2019-08-09 20:59:42:248,1.5408,0.06,10.0056,-0.5813,-0.046,9.7893,-0.0163,-0.0026,-0.001
27336,47.17965,-1.605866,61.32,21.69,3.216,112.1,17 / 22,2733610,2019-08-09 20:59:42:348,-0.4176,-0.1046,9.0683,-0.5683,-0.0628,9.79,-0.0162,-0.0055,-0.0135
27337,47.17965,-1.605866,61.32,21.69,3.216,112.1,17 / 22,2733710,2019-08-09 20:59:42:448,-0.0657,0.148,9.0929,-0.5625,-0.0716,9.7902,-0.0101,-0.0155,-0.0067
27338,47.17965,-1.605866,61.32,21.69,3.216,112.1,17 / 22,2733810,2019-08-09 20:59:42:548,1.159,0.1144,9.5328,-0.5537,-0.0829,9.7907,-0.0032,0.025,-0.0285
27339,47.17965,-1.605866,61.32,21.69,3.216,112.1,17 / 22,2733910,2019-08-09 20:59:42:648,1.402,-0.6451,9.7668,-0.5288,-0.0847,9.792,0.0078,0.0324,-0.036
27340,47.17965,-1.605866,61.32,21.69,3.216,112.1,17 / 22,2734011,2019-08-09 20:59:42:749,1.2146,-0.2782,9.9548,-0.539,-0.0651,9.7916,0.0296,-0.0161,0.0134
27341,47.17965,-1.605866,61.32,21.69,3.216,112.1,17 / 22,2734110,2019-08-09 20:59:42:848,-1.4238,-0.1878,9.9601,-0.5499,-0.0516,9.7911,0.0257,0.0401,-0.0243
27342,47.17965,-1.605866,61.32,21.69,3.216,112.1,17 / 22,2734210,2019-08-09 20:59:42:948,-1.7195,0.704,9.6262,-0.5222,-0.0071,9.7927,0.0191,-0.0025,-0.0419
27343,47.17965,-1.605866,61.32,21.69,3.216,112.1,17 / 22,2734311,2019-08-09 20:59:43:049,0.7747,-0.7032,8.4937,-0.5465,-0.0054,9.7914,-0.0013,-0.1501,0.0349
27344,47.17965,-1.605866,61.32,21.69,3.216,112.1,17 / 22,2734411,2019-08-09 20:59:43:149,1.3463,1.6605,11.2985,-0.5812,-0.0199,9.7894,-0.0167,-0.1457,0.0466
27345,47.17965,-1.605866,61.32,21.69,3.216,112.1,17 / 22,2734511,2019-08-09 20:59:43:249,0.0612,0.7603,10.6646,-0.4935,-0.0447,9.7941,-0.0323,0.1443,-0.0152
27346,47.17965,-1.605866,61.32,21.69,3.216,112.1,16 / 20,2734610,2019-08-09 20:59:43:348,0.5586,0.0109,10.1684,-0.5513,-0.0705,9.7909,-0.0017,0.0509,-0.0262
27347,47.17965,-1.605866,61.32,21.69,3.216,112.1,16 / 20,2734711,2019-08-09 20:59:43:449,0.1277,0.3778,9.8859,-0.5414,-0.0752,9.7914,-0.0049,-0.0566,-0.0087
27348,47.17965,-1.605866,61.32,21.69,3.216,112.1,16 / 20,2734810,2019-08-09 20:59:43:548,-1.1395,0.3269,9.7088,-0.559,-0.0754,9.7904,-0.007,-0.0154,-0.0086
27349,47.17965,-1.605866,61.32,21.69,3.216,112.1,16 / 20,2734911,2019-08-09 20:59:43:649,-0.5595,-0.1148,9.3939,-0.546,-0.0746,9.7912,-0.0005,0.0067,-0.0167
27350,47.17965,-1.605866,61.32,21.69,3.216,112.1,16 / 20,2735010,2019-08-09 20:59:43:748,-0.8713,-0.201,10.351,-0.5868,-0.0773,9.7888,-0.0016,-0.0404,-0.0289
27351,47.17965,-1.605866,61.32,21.69,3.216,112.1,16 / 20,2735110,2019-08-09 20:59:43:848,-2.3019,0.3778,9.9542,-0.5729,-0.0682,9.7897,0.0065,0.0504,-0.0211
27352,47.17965,-1.605866,61.32,21.69,3.216,112.1,16 / 20,2735210,2019-08-09 20:59:43:948,-1.8883,-0.1806,9.0204,-0.5656,-0.0592,9.7901,0.0118,-0.0132,-0.0052
27353,47.17965,-1.605866,61.32,21.69,3.216,112.1,16 / 20,2735310,2019-08-09 20:59:44:048,2.2717,0.0097,8.7367,-0.5317,-0.0494,9.7921,0.011,-0.0303,-0.0255
27354,47.17965,-1.605866,61.32,21.69,3.216,112.1,16 / 20,2735410,2019-08-09 20:59:44:148,0.6945,-0.3943,8.5673,-0.5286,-0.0475,9.7923,0.0031,0.0186,-0.0241
27355,47.17965,-1.605866,61.32,21.69,3.216,112.1,16 / 20,2735510,2019-08-09 20:59:44:248,-2.8184,0.1168,9.5316,-0.5968,-0.0437,9.7884,0.0094,0.097,-0.0396
27356,47.17965,-1.605866,61.32,21.69,3.216,112.1,17 / 22,2735610,2019-08-09 20:59:44:348,-1.3358,0.0199,10.2582,-0.5612,-0.0196,9.7906,0.0178,-0.0472,0.0146
27357,47.17965,-1.605866,61.32,21.69,3.216,112.1,17 / 22,2735711,2019-08-09 20:59:44:449,-0.696,-0.1531,10.2421,-0.5939,-0.0175,9.7886,-0.0053,-0.0114,-0.0107
27358,47.17965,-1.605866,61.32,21.69,3.216,112.1,17 / 22,2735811,2019-08-09 20:59:44:549,-0.4069,0.0121,10.4162,-0.615,-0.0193,9.7873,-0.0049,0.0428,-0.0188
27359,47.17965,-1.605866,61.32,21.69,3.216,112.1,17 / 22,2735910,2019-08-09 20:59:44:648,-1.0192,0.3179,9.4101,-0.5998,-0.0254,9.7883,-0.0122,-0.0238,-0.0164
27360,47.17965,-1.605866,61.32,21.69,3.216,112.1,17 / 22,2736010,2019-08-09 20:59:44:748,-1.3885,0.1953,10.7861,-0.6426,-0.0401,9.7855,-0.0245,0.0515,-0.0195
27361,47.17965,-1.605866,61.32,21.69,3.216,112.1,17 / 22,2736110,2019-08-09 20:59:44:848,-1.6261,-0.5631,9.4951,-0.6295,-0.0925,9.786,-0.0097,0.0096,0.0144
27362,47.17965,-1.605866,61.32,21.69,3.216,112.1,17 / 22,2736210,2019-08-09 20:59:44:948,-0.019,-0.0597,9.0318,-0.6479,-0.0976,9.7847,0.0087,-0.0479,-0.0234
27363,47.17965,-1.605866,61.32,21.69,3.216,112.1,17 / 22,2736311,2019-08-09 20:59:45:049,-0.4727,0.1791,9.5082,-0.6341,-0.0774,9.7858,0.0166,-0.0149,0.0038
27364,47.17965,-1.605866,61.32,21.69,3.216,112.1,17 / 22,2736411,2019-08-09 20:59:45:149,-1.8865,0.1324,9.9135,-0.6303,-0.066,9.7862,0.0163,0.0181,-0.0189
27365,47.17965,-1.605866,61.32,21.69,3.216,112.1,17 / 22,2736510,2019-08-09 20:59:45:248,0.1564,0.0271,9.8285,-0.6614,-0.0405,9.7842,0.019,0.0297,-0.0154
27366,47.17965,-1.605866,61.32,21.69,3.216,112.1,18 / 22,2736610,2019-08-09 20:59:45:348,-2.0235,0.03,10.1541,-0.6478,-0.0287,9.7852,0.0368,-0.01,0.0192
27367,47.17965,-1.605866,61.32,21.69,3.216,112.1,18 / 22,2736710,2019-08-09 20:59:45:448,-1.4358,0.4311,9.2509,-0.6277,-0.0128,9.7865,0.0011,-0.0243,0.0203
27368,47.17965,-1.605866,61.32,21.69,3.216,112.1,18 / 22,2736810,2019-08-09 20:59:45:548,3.1725,-0.3117,8.6948,-0.6138,-0.0206,9.7874,-0.0233,-0.0963,-0.0024
27369,47.17965,-1.605866,61.32,21.69,3.216,112.1,18 / 22,2736910,2019-08-09 20:59:45:648,1.9341,0.7489,9.0085,-0.573,-0.0269,9.7899,-0.0236,0.0036,-0.012
27370,47.17965,-1.605866,61.32,21.69,3.216,112.1,18 / 22,2737011,2019-08-09 20:59:45:749,0.8172,0.2539,9.6357,-0.5988,-0.0428,9.7883,-0.022,-0.0078,0.0336
27371,47.17965,-1.605866,61.32,21.69,3.216,112.1,18 / 22,2737111,2019-08-09 20:59:45:849,-0.5176,-0.6092,10.4312,-0.6381,-0.0676,9.7856,0.0026,0.0724,-0.0062
27372,47.17965,-1.605866,61.32,21.69,3.216,112.1,18 / 22,2737211,2019-08-09 20:59:45:949,-1.5495,-0.3315,10.2361,-0.6569,-0.0587,9.7844,0.0395,0.0313,0.0507
27373,47.17965,-1.605866,61.32,21.69,3.216,112.1,18 / 22,2737310,2019-08-09 20:59:46:048,-1.006,-0.2172,10.1134,-0.6853,-0.0258,9.7826,0.012,-0.0095,-0.0734
27374,47.17965,-1.605866,61.32,21.69,3.216,112.1,18 / 22,2737411,2019-08-09 20:59:46:149,0.959,0.1803,10.1954,-0.6777,-0.0169,9.7832,0.0255,-0.0105,0.0076
27375,47.17965,-1.605866,61.32,21.69,3.216,112.1,18 / 22,2737510,2019-08-09 20:59:46:248,0.2534,0.1204,9.4663,-0.6927,-0.0201,9.7821,-0.0032,-0.0573,-0.0047
27376,47.17965,-1.605866,61.32,21.69,3.216,112.1,18 / 22,2737610,2019-08-09 20:59:46:348,0.6227,0.5257,8.5865,-0.7192,-0.0111,9.7802,0.0089,-0.081,-0.0635
27377,47.17965,-1.605866,61.32,21.69,3.216,112.1,18 / 22,2737710,2019-08-09 20:59:46:448,-1.9595,-1.1958,9.3993,-0.662,0.0086,9.7843,0.0175,0.0276,-0.0443
27378,47.17965,-1.605866,61.32,21.69,3.216,112.1,18 / 22,2737810,2019-08-09 20:59:46:548,-0.6475,-0.5284,9.4568,-0.694,0.0317,9.782,0.0129,-0.0752,-0.0066
27379,47.17965,-1.605866,61.32,21.69,3.216,112.1,18 / 22,2737910,2019-08-09 20:59:46:648,-0.5679,-0.517,9.8668,-0.663,0.0293,9.7842,-0.012,-0.0328,-0.0199
27380,47.17965,-1.605866,61.32,21.69,3.216,112.1,18 / 22,2738010,2019-08-09 20:59:46:748,-0.9408,0.4293,10.1224,-0.6652,0.0158,9.784,-0.0093,0.071,0.0122
27381,47.17965,-1.605866,61.32,21.69,3.216,112.1,18 / 22,2738110,2019-08-09 20:59:46:848,-1.7584,0.382,10.1756,-0.7242,0.0076,9.7799,-0.0108,0.078,0.0143
27382,47.17965,-1.605866,61.32,21.69,3.216,112.1,18 / 22,2738211,2019-08-09 20:59:46:949,-1.5489,0.2587,9.6531,-0.721,-0.0013,9.7801,-0.0081,-0.031,-0.0213
27383,47.17965,-1.605866,61.32,21.69,3.216,112.1,18 / 22,2738311,2019-08-09 20:59:47:049,-0.7738,-0.2327,9.5597,-0.7027,-0.01,9.7814,-0.0062,-0.0046,-0.0189
27384,47.17965,-1.605866,61.32,21.69,3.216,112.1,18 / 22,2738411,2019-08-09 20:59:47:149,-0.4655,0.1462,9.349,-0.6873,-0.0137,9.7825,-0.0117,-0.0546,-0.0103
27385,47.17965,-1.605866,61.32,21.69,3.216,112.1,18 / 22,2738510,2019-08-09 20:59:47:248,-0.3919,-0.3016,9.0426,-0.6494,-0.0225,9.7851,0.0043,-0.0455,0.0084
27386,47.17965,-1.605866,61.32,21.69,3.216,112.1,18 / 23,2738610,2019-08-09 20:59:47:348,0.3761,0.1186,9.525,-0.6378,-0.0159,9.7859,0.0159,-0.0064,-0.0028
27387,47.17965,-1.605866,61.32,21.69,3.216,112.1,18 / 23,2738710,2019-08-09 20:59:47:448,0.904,0.276,9.8728,-0.6232,0.0104,9.7868,0.0188,0.0007,0.0129
27388,47.17965,-1.605866,61.32,21.69,3.216,112.1,18 / 23,2738810,2019-08-09 20:59:47:548,-0.1219,-0.049,9.8542,-0.6217,0.0071,9.7869,-0.0044,-0.0011,0.0008
27389,47.17965,-1.605866,61.32,21.69,3.216,112.1,18 / 23,2738911,2019-08-09 20:59:47:649,0.6795,0.0468,9.4837,-0.6216,0.0065,9.7869,-0.0021,0.0285,-0.0217
27390,47.17965,-1.605866,61.32,21.69,3.216,112.1,18 / 23,2739011,2019-08-09 20:59:47:749,1.0572,0.4395,9.6357,-0.599,0.0056,9.7883,-0.0057,-0.0358,-0.0114
27391,47.17965,-1.605866,61.32,21.69,3.216,112.1,18 / 23,2739110,2019-08-09 20:59:47:848,0.5065,0.3233,9.8027,-0.5908,0.0034,9.7888,-0.0108,0.0054,-0.0396
27392,47.17965,-1.605866,61.32,21.69,3.216,112.1,18 / 23,2739211,2019-08-09 20:59:47:949,-0.2039,-0.2267,9.704,-0.5783,-0.002,9.7896,0.0058,-0.0168,0.0062
27393,47.17965,-1.605866,61.32,21.69,3.216,112.1,18 / 23,2739311,2019-08-09 20:59:48:049,0.4132,-0.0998,9.2952,-0.5749,0.0021,9.7898,0.006,-0.0276,-0.0195
27394,47.17965,-1.605866,61.32,21.69,3.216,112.1,18 / 23,2739411,2019-08-09 20:59:48:149,1.0632,-0.2788,9.9542,-0.5638,0.0081,9.7904,0.0144,-0.0139,-0.0147
27395,47.17965,-1.605866,61.32,21.69,3.216,112.1,18 / 23,2739511,2019-08-09 20:59:48:249,0.2055,-0.1423,9.4615,-0.5477,0.0143,9.7913,0.0272,0.0024,-0.0126
27396,47.17965,-1.605866,61.32,21.69,3.216,112.1,15 / 21,2739611,2019-08-09 20:59:48:349,-0.0675,0.4424,9.7417,-0.5331,0.0425,9.7921,-0.0046,0.018,-0.0356
27397,47.17965,-1.605866,61.32,21.69,3.216,112.1,15 / 21,2739710,2019-08-09 20:59:48:448,1.7892,0.2144,10.2301,-0.5348,0.048,9.7919,-0.009,0.0036,0.0027
27398,47.17965,-1.605866,61.32,21.69,3.216,112.1,15 / 21,2739810,2019-08-09 20:59:48:548,2.2322,0.0995,9.7608,-0.5249,0.0367,9.7925,0.012,-0.0286,-0.038
27399,47.17965,-1.605866,61.32,21.69,3.216,112.1,15 / 21,2739910,2019-08-09 20:59:48:648,-1.7458,0.1725,9.6321,-0.5255,0.0471,9.7924,0.0133,0.0219,-0.011
27400,47.17965,-1.605866,61.32,21.69,3.216,112.1,15 / 21,2740010,2019-08-09 20:59:48:748,-1.2227,0.0259,9.7794,-0.5208,0.0558,9.7927,0.0108,-0.0229,-0.0191
27401,47.17965,-1.605866,61.32,21.69,3.216,112.1,15 / 21,2740110,2019-08-09 20:59:48:848,-1.1479,-0.1962,9.288,-0.5295,0.0667,9.7921,0.0259,-0.01,-0.0026
27402,47.17965,-1.605866,61.32,21.69,3.216,112.1,15 / 21,2740211,2019-08-09 20:59:48:949,0.8274,0.4466,9.6621,-0.5222,0.0918,9.7923,0.0128,-0.0177,-0.0224
27403,47.17965,-1.605866,61.32,21.69,3.216,112.1,15 / 21,2740310,2019-08-09 20:59:49:048,0.8483,0.4502,10.1583,-0.5207,0.0976,9.7923,-0.0204,-0.0074,-0.0048
27404,47.17965,-1.605866,61.32,21.69,3.216,112.1,15 / 21,2740410,2019-08-09 20:59:49:148,-2.6137,-0.1513,9.7884,-0.5213,0.0761,9.7925,-0.0223,-0.0062,-0.0021
27405,47.17965,-1.605866,61.32,21.69,3.216,112.1,15 / 21,2740510,2019-08-09 20:59:49:248,-1.3011,0.1833,9.5531,-0.5319,0.0626,9.792,-0.0111,0.019,-0.0047
27406,47.17965,-1.605866,61.32,21.69,3.216,112.1,14 / 20,2740610,2019-08-09 20:59:49:348,-0.3698,0.2222,9.8464,-0.5321,0.0507,9.7921,-0.0111,-0.0041,-0.017
27407,47.17965,-1.605866,61.32,21.69,3.216,112.1,14 / 20,2740711,2019-08-09 20:59:49:449,0.4892,-0.0693,9.6028,-0.5273,0.0429,9.7924,-0.0007,-0.0037,-0.029
27408,47.17965,-1.605866,61.32,21.69,3.216,112.1,14 / 20,2740810,2019-08-09 20:59:49:548,-1.5309,-0.1316,9.686,-0.5331,0.0416,9.7921,0.0083,-0.0082,0.0076
27409,47.17965,-1.605866,61.32,21.69,3.216,112.1,14 / 20,2740910,2019-08-09 20:59:49:648,-1.0952,-0.0627,10.1092,-0.5515,0.0436,9.791,-0.0007,-0.0163,-0.0129
27410,47.17965,-1.605866,61.32,21.69,3.216,112.1,14 / 20,2741010,2019-08-09 20:59:49:748,-0.4655,0.1827,9.5591,-0.5607,0.0409,9.7905,-0.0035,-0.0268,-0.0004
27411,47.17965,-1.605866,61.32,21.69,3.216,112.1,14 / 20,2741110,2019-08-09 20:59:49:848,-1.0204,-0.2028,9.6794,-0.5632,0.0395,9.7904,-0.0029,0.0155,-0.0259
27412,47.17965,-1.605866,61.32,21.69,3.216,112.1,14 / 20,2741210,2019-08-09 20:59:49:948,-2.2073,0.0528,10.005,-0.5832,0.0362,9.7892,-0.0079,-0.0172,-0.0422
27413,47.17965,-1.605866,61.32,21.69,3.216,112.1,14 / 20,2741311,2019-08-09 20:59:50:049,-3.5864,0.2282,9.4813,-0.587,0.0343,9.789,-0.0112,0.0367,-0.0079
27414,47.17965,-1.605866,61.32,21.69,3.216,112.1,14 / 20,2741410,2019-08-09 20:59:50:148,2.2058,-0.0544,9.6489,-0.5856,0.022,9.7891,-0.0134,0.0187,-0.0515
27415,47.17965,-1.605866,61.32,21.69,3.216,112.1,14 / 20,2741510,2019-08-09 20:59:50:248,2.3567,-0.0585,9.865,-0.588,0.0176,9.789,-0.0107,0.023,0.0072
27416,47.1789,-1.603548,60.0,22.04,3.216,118.1,15 / 20,2741612,2019-08-09 20:59:50:350,0.1947,0.0833,9.8093,-0.5912,0.0066,9.7888,-0.012,0.0039,-0.028
27417,47.1789,-1.603548,60.0,22.04,3.216,118.1,15 / 20,2741710,2019-08-09 20:59:50:448,-0.7528,-0.0879,9.8764,-0.6021,0.0031,9.7882,0.0055,0.0108,0.012
27418,47.1789,-1.603548,60.0,22.04,3.216,118.1,15 / 20,2741811,2019-08-09 20:59:50:549,0.637,0.4107,9.7662,-0.6056,0.0127,9.7879,0.011,-0.0309,-0.0013
27419,47.1789,-1.603548,60.0,22.04,3.216,118.1,15 / 20,2741911,2019-08-09 20:59:50:649,0.3587,0.6693,9.6477,-0.6199,0.0222,9.787,-0.0004,-0.0354,-0.0134
27420,47.1789,-1.603548,60.0,22.04,3.216,118.1,15 / 20,2742010,2019-08-09 20:59:50:748,-2.2905,-0.5362,9.4711,-0.6106,0.0297,9.7876,0.0128,0.0002,-0.0371
27421,47.1789,-1.603548,60.0,22.04,3.216,118.1,15 / 20,2742111,2019-08-09 20:59:50:849,-1.4519,0.0666,9.6142,-0.6055,0.0431,9.7878,0.0131,-0.0005,-0.0061
27422,47.1789,-1.603548,60.0,22.04,3.216,118.1,15 / 20,2742210,2019-08-09 20:59:50:948,-0.7935,0.0552,9.8728,-0.6114,0.0402,9.7875,-0.0072,-0.024,0.0072
27423,47.1789,-1.603548,60.0,22.04,3.216,118.1,15 / 20,2742310,2019-08-09 20:59:51:048,-1.7314,0.0917,9.121,-0.6005,0.0364,9.7882,-0.0073,-0.0259,-0.0104
27424,47.1789,-1.603548,60.0,22.04,3.216,118.1,15 / 20,2742411,2019-08-09 20:59:51:149,-1.6327,-0.0945,9.4436,-0.6091,0.0526,9.7876,0.0225,-0.0055,-0.0249
27425,47.1789,-1.603548,60.0,22.04,3.216,118.1,15 / 20,2742511,2019-08-09 20:59:51:249,-1.3232,-0.0412,9.9176,-0.6126,0.0625,9.7873,0.0069,0.011,-0.0024
27426,47.1789,-1.603548,60.0,22.04,3.216,118.1,15 / 22,2742610,2019-08-09 20:59:51:348,-0.614,0.1665,10.0625,-0.6209,0.0659,9.7868,0.016,-0.0391,-0.0066
27427,47.1789,-1.603548,60.0,22.04,3.216,118.1,15 / 22,2742710,2019-08-09 20:59:51:448,-1.5621,-0.1765,9.6172,-0.6283,0.0811,9.7862,0.0304,0.0726,-0.0166
27428,47.1789,-1.603548,60.0,22.04,3.216,118.1,15 / 22,2742811,2019-08-09 20:59:51:549,-3.0034,-0.0538,10.1026,-0.6529,0.0986,9.7844,0.0102,-0.0063,-0.0358
27429,47.1789,-1.603548,60.0,22.04,3.216,118.1,15 / 22,2742910,2019-08-09 20:59:51:648,1.0021,0.692,9.9506,-0.6682,0.1152,9.7832,0.0086,0.0226,0.0026
27430,47.1789,-1.603548,60.0,22.04,3.216,118.1,15 / 22,2743010,2019-08-09 20:59:51:748,1.4097,0.4431,9.5286,-0.6717,0.1276,9.7828,0.0065,-0.0034,-0.035
27431,47.1789,-1.603548,60.0,22.04,3.216,118.1,15 / 22,2743110,2019-08-09 20:59:51:848,0.8848,0.476,10.0116,-0.6691,0.1323,9.7829,-0.0099,0.0522,-0.0329
27432,47.1789,-1.603548,60.0,22.04,3.216,118.1,15 / 22,2743210,2019-08-09 20:59:51:948,-0.8139,-0.186,10.0033,-0.6811,0.1281,9.7821,-0.0124,-0.0222,0.0183
27433,47.1789,-1.603548,60.0,22.04,3.216,118.1,15 / 22,2743311,2019-08-09 20:59:52:049,-0.8755,-0.274,9.5687,-0.6671,0.1079,9.7833,0.004,-0.0067,-0.0016
27434,47.1789,-1.603548,60.0,22.04,3.216,118.1,15 / 22,2743410,2019-08-09 20:59:52:148,-1.1538,0.0791,10.2971,-0.6867,0.1065,9.782,-0.0144,0.0028,0.0029
27435,47.1789,-1.603548,60.0,22.04,3.216,118.1,15 / 22,2743510,2019-08-09 20:59:52:248,-1.5704,-0.2261,9.5226,-0.6893,0.0828,9.782,-0.014,-0.0018,-0.0046
