,GPS LATITUDE (degrees),GPS LONGITUDE (degrees), GPS ALTITUDE (m),GPS SPEED (Kmh),GPS ACCURACY (m),GPS ORIENTATION (Â°), SATELLITES IN RANGE, TIME SINCE START (ms), DATE (YYYY-MO-DD HH-MI-SS_SSS),ACCELEROMETER X (m/s²) , ACCELEROMETER Y (m/s²), ACCELEROMETER Z (m/s²), GRAVITY X (m/s²), GRAVITY Y (m/s²), GRAVITY Z (m/s²), GYROSCOPE Yaw (rad/s), GYROSCOPE Pitch (rad/s), GYROSCOPE Roll (rad/s)
92561,47.126617,-1.901467,59.16,21.85,3.216,260.8,13 / 21,9257298,2019-08-18 17:47:59:835,0.0455,-0.9188,10.3498,-0.5879,-0.4273,9.7797,0.0077,-0.0032,-0.0338
92562,47.126617,-1.901467,59.16,21.85,3.216,260.8,13 / 21,9257397,2019-08-18 17:47:59:934,-0.1598,-0.9756,9.5687,-0.5714,-0.4324,9.7804,0.0076,-0.0052,-0.0378
92563,47.126617,-1.901467,59.16,21.85,3.216,260.8,13 / 21,9257498,2019-08-18 17:48:00:035,0.0096,-0.841,9.6501,-0.5522,-0.4437,9.781,-0.0014,0.0052,-0.037
92564,47.126617,-1.901467,59.16,21.85,3.216,260.8,13 / 21,9257597,2019-08-18 17:48:00:134,-0.3483,-0.9625,9.9948,-0.5491,-0.4539,9.7807,-0.0026,0.0069,-0.0373
92565,47.126617,-1.901467,59.16,21.85,3.216,260.8,13 / 21,9257696,2019-08-18 17:48:00:233,-0.0819,-0.8188,10.1942,-0.5385,-0.4624,9.7809,0.0139,0.0083,-0.0364
92566,47.126617,-1.901467,59.16,21.85,3.216,260.8,13 / 21,9257797,2019-08-18 17:48:00:334,-0.1921,-0.8362,10.1457,-0.5297,-0.4641,9.7813,0.0095,-0.0108,-0.0358
92567,47.126617,-1.901467,59.16,21.85,3.216,260.8,13 / 21,9257897,2019-08-18 17:48:00:434,-0.1328,-0.8176,9.7931,-0.5056,-0.4712,9.7823,0.0031,-0.0019,-0.0374
92568,47.126617,-1.901467,59.16,21.85,3.216,260.8,13 / 21,9257996,2019-08-18 17:48:00:533,-0.0867,-1.0265,9.6932,-0.5018,-0.4791,9.7821,0.0076,0.0137,-0.0394
92569,47.126617,-1.901467,59.16,21.85,3.216,260.8,13 / 18,9258097,2019-08-18 17:48:00:634,-0.1346,-0.7949,9.8308,-0.497,-0.4872,9.7819,0.0069,-0.0026,-0.0383
92570,47.126617,-1.901467,59.16,21.85,3.216,260.8,13 / 18,9258197,2019-08-18 17:48:00:734,-0.2459,-0.9367,10.0894,-0.4893,-0.4893,9.7822,0.0177,-0.0029,-0.0379
92571,47.126617,-1.901467,59.16,21.85,3.216,260.8,13 / 18,9258297,2019-08-18 17:48:00:834,-0.0592,-0.7793,9.862,-0.4845,-0.4844,9.7827,0.0124,0.0221,-0.0333
92572,47.126617,-1.901467,59.16,21.85,3.216,260.8,13 / 18,9258397,2019-08-18 17:48:00:934,-0.5267,-0.8996,9.8793,-0.4916,-0.4883,9.7821,0.0013,0.0129,-0.0332
92573,47.126617,-1.901467,59.16,21.85,3.216,260.8,13 / 18,9258497,2019-08-18 17:48:01:034,-0.7212,-0.8601,10.2157,-0.5138,-0.4991,9.7805,0.0131,0.0112,-0.0342
92574,47.126617,-1.901467,59.16,21.85,3.216,260.8,13 / 18,9258597,2019-08-18 17:48:01:134,-0.5225,-1.1941,9.8261,-0.5189,-0.5018,9.78,0.0076,-0.0053,-0.0336
92575,47.126617,-1.901467,59.16,21.85,3.216,260.8,13 / 18,9258697,2019-08-18 17:48:01:234,-0.8235,-1.0528,10.1996,-0.5166,-0.5073,9.7799,0.0108,-0.0013,-0.0304
92576,47.126617,-1.901467,59.16,21.85,3.216,260.8,13 / 18,9258797,2019-08-18 17:48:01:334,-0.6165,-1.063,9.9793,-0.5219,-0.5087,9.7795,0.0058,0.0068,-0.0275
92577,47.126617,-1.901467,59.16,21.85,3.216,260.8,13 / 18,9258897,2019-08-18 17:48:01:434,-0.8457,-0.7835,9.8566,-0.5229,-0.5161,9.7791,0.0017,-0.0067,-0.0218
92578,47.126617,-1.901467,59.16,21.85,3.216,260.8,13 / 18,9258997,2019-08-18 17:48:01:534,-0.796,-0.5668,9.8279,-0.5233,-0.5228,9.7787,0.0001,-0.0039,-0.0233
92579,47.126617,-1.901467,59.16,21.85,3.216,260.8,14 / 19,9259096,2019-08-18 17:48:01:633,-0.8804,-0.82,9.7482,-0.5253,-0.5271,9.7784,0.0023,-0.0008,-0.0231
92580,47.126617,-1.901467,59.16,21.85,3.216,260.8,14 / 19,9259197,2019-08-18 17:48:01:734,-0.8361,-0.8661,9.9769,-0.5259,-0.5399,9.7776,-0.001,-0.0078,-0.0226
92581,47.126617,-1.901467,59.16,21.85,3.216,260.8,14 / 19,9259297,2019-08-18 17:48:01:834,-0.6925,-0.7811,9.6285,-0.5307,-0.5463,9.777,0.0008,0.0015,-0.0226
92582,47.126617,-1.901467,59.16,21.85,3.216,260.8,14 / 19,9259397,2019-08-18 17:48:01:934,-0.7601,-0.893,8.9791,-0.535,-0.5565,9.7762,-0.0096,0.0087,-0.0234
92583,47.126617,-1.901467,59.16,21.85,3.216,260.8,14 / 19,9259497,2019-08-18 17:48:02:034,-0.6236,-0.4812,9.8219,-0.5564,-0.5661,9.7745,0.0059,0.0078,-0.0222
92584,47.126617,-1.901467,59.16,21.85,3.216,260.8,14 / 19,9259597,2019-08-18 17:48:02:134,-0.7685,-0.9349,9.862,-0.554,-0.5614,9.7749,0.0221,-0.0041,-0.0214
92585,47.126617,-1.901467,59.16,21.85,3.216,260.8,14 / 19,9259697,2019-08-18 17:48:02:234,-0.5638,-0.6327,9.8787,-0.5496,-0.5466,9.776,0.0146,-0.0036,-0.0222
92586,47.126617,-1.901467,59.16,21.85,3.216,260.8,14 / 19,9259797,2019-08-18 17:48:02:334,-0.6218,-0.6411,10.2295,-0.5545,-0.5453,9.7758,0.0049,0.0016,-0.0209
92587,47.126617,-1.901467,59.16,21.85,3.216,260.8,14 / 19,9259897,2019-08-18 17:48:02:434,-0.7266,-0.8332,9.6184,-0.5564,-0.5451,9.7757,0.0052,-0.0049,-0.0212
92588,47.126617,-1.901467,59.16,21.85,3.216,260.8,14 / 19,9259997,2019-08-18 17:48:02:534,-0.3932,-0.6398,9.4472,-0.5547,-0.5397,9.7761,-0.0001,-0.0052,-0.0214
92589,47.126617,-1.901467,59.16,21.85,3.216,260.8,16 / 20,9260097,2019-08-18 17:48:02:634,-0.5626,-0.7703,10.3234,-0.5503,-0.5424,9.7762,0.0099,0.0093,-0.0218
92590,47.126617,-1.901467,59.16,21.85,3.216,260.8,16 / 20,9260197,2019-08-18 17:48:02:734,-0.3124,-0.9804,9.3903,-0.5517,-0.5421,9.7761,0.0101,0.0044,-0.0269
92591,47.126617,-1.901467,59.16,21.85,3.216,260.8,16 / 20,9260297,2019-08-18 17:48:02:834,-0.7523,-0.4178,9.6429,-0.556,-0.5389,9.776,0.0163,-0.0094,-0.0334
92592,47.126617,-1.901467,59.16,21.85,3.216,260.8,16 / 20,9260397,2019-08-18 17:48:02:934,-0.3519,-0.7338,10.6383,-0.5389,-0.53,9.7775,0.0119,-0.0188,-0.0354
92593,47.126617,-1.901467,59.16,21.85,3.216,260.8,16 / 20,9260497,2019-08-18 17:48:03:034,-0.383,-1.06,9.8279,-0.5206,-0.5301,9.7785,0.0026,-0.004,-0.0373
92594,47.126617,-1.901467,59.16,21.85,3.216,260.8,16 / 20,9260597,2019-08-18 17:48:03:134,-0.3315,-0.5914,10.4228,-0.5012,-0.5424,9.7788,-0.0065,0.0009,-0.0378
92595,47.126617,-1.901467,59.16,21.85,3.216,260.8,16 / 20,9260697,2019-08-18 17:48:03:234,-0.2537,-1.0163,9.4969,-0.4968,-0.553,9.7784,-0.0055,-0.0057,-0.0372
92596,47.126617,-1.901467,59.16,21.85,3.216,260.8,16 / 20,9260797,2019-08-18 17:48:03:334,-0.2304,-0.8817,10.1331,-0.4875,-0.571,9.7779,-0.0026,-0.0031,-0.0403
92597,47.126617,-1.901467,59.16,21.85,3.216,260.8,16 / 20,9260897,2019-08-18 17:48:03:434,-0.3471,-1.0199,10.1846,-0.4754,-0.5777,9.7781,-0.0033,-0.0152,-0.0412
92598,47.126617,-1.901467,59.16,21.85,3.216,260.8,16 / 20,9260997,2019-08-18 17:48:03:534,-0.131,-0.8847,10.5389,-0.4479,-0.5914,9.7786,0.0026,-0.0168,-0.0403
92599,47.126617,-1.901467,59.16,21.85,3.216,260.8,17 / 21,9261097,2019-08-18 17:48:03:634,-0.4489,-1.3713,10.178,-0.4282,-0.6065,9.7785,0.0008,-0.0052,-0.0431
92600,47.126617,-1.901467,59.16,21.85,3.216,260.8,17 / 21,9261197,2019-08-18 17:48:03:734,-0.4764,-0.7739,9.1168,-0.416,-0.6192,9.7782,-0.001,0.0066,-0.0416
92601,47.126617,-1.901467,59.16,21.85,3.216,260.8,17 / 21,9261298,2019-08-18 17:48:03:835,-0.4064,-0.9325,9.7159,-0.4163,-0.6303,9.7775,-0.0014,0.0088,-0.0409
92602,47.126617,-1.901467,59.16,21.85,3.216,260.8,17 / 21,9261397,2019-08-18 17:48:03:934,-0.201,-0.9715,10.1642,-0.4091,-0.6462,9.7768,0.0009,-0.0022,-0.0417
92603,47.126617,-1.901467,59.16,21.85,3.216,260.8,17 / 21,9261497,2019-08-18 17:48:04:034,-0.2352,-0.8116,10.2558,-0.3996,-0.6555,9.7766,-0.0035,-0.0115,-0.0426
92604,47.126617,-1.901467,59.16,21.85,3.216,260.8,17 / 21,9261597,2019-08-18 17:48:04:134,-0.5823,-0.981,9.6573,-0.381,-0.6699,9.7763,-0.0024,-0.0054,-0.0407
92605,47.126617,-1.901467,59.16,21.85,3.216,260.8,17 / 21,9261697,2019-08-18 17:48:04:234,-0.4016,-1.0235,9.8716,-0.3773,-0.6767,9.776,-0.0032,0.003,-0.039
92606,47.126617,-1.901467,59.16,21.85,3.216,260.8,17 / 21,9261797,2019-08-18 17:48:04:334,-0.4806,-1.2594,9.6345,-0.385,-0.6951,9.7744,0.002,0.0037,-0.0374
92607,47.126617,-1.901467,59.16,21.85,3.216,260.8,17 / 21,9261897,2019-08-18 17:48:04:434,-0.5009,-1.0714,9.92,-0.3885,-0.6999,9.7739,0.0079,0.0016,-0.0362
92608,47.126617,-1.901467,59.16,21.85,3.216,260.8,17 / 21,9261997,2019-08-18 17:48:04:534,-0.5799,-0.9487,9.4232,-0.3963,-0.7016,9.7735,0.0053,0.005,-0.0335
92609,47.126617,-1.901467,59.16,21.85,3.216,260.8,17 / 18,9262097,2019-08-18 17:48:04:634,-0.4656,-0.8673,9.9356,-0.3998,-0.7038,9.7732,0.0044,-0.0075,-0.0324
92610,47.126507,-1.904093,58.25,22.04,3.216,273.0,17 / 18,9262197,2019-08-18 17:48:04:734,-0.6751,-1.2378,9.3765,-0.3994,-0.6999,9.7735,0.0062,0.0066,-0.029
92611,47.126507,-1.904093,58.25,22.04,3.216,273.0,17 / 18,9262297,2019-08-18 17:48:04:834,-0.5668,-0.756,9.756,-0.4076,-0.7029,9.7729,0.0008,0.0064,-0.0268
92612,47.126507,-1.904093,58.25,22.04,3.216,273.0,17 / 18,9262397,2019-08-18 17:48:04:934,-0.881,-0.7338,10.0002,-0.4143,-0.7052,9.7725,0.0031,-0.0022,-0.0252
92613,47.126507,-1.904093,58.25,22.04,3.216,273.0,17 / 18,9262497,2019-08-18 17:48:05:034,-0.5285,-0.6883,10.0936,-0.4141,-0.7062,9.7724,-0.0029,-0.0107,-0.023
92614,47.126507,-1.904093,58.25,22.04,3.216,273.0,17 / 18,9262597,2019-08-18 17:48:05:134,-0.8026,-0.9954,9.744,-0.4141,-0.713,9.7719,-0.0006,0.001,-0.0229
92615,47.126507,-1.904093,58.25,22.04,3.216,273.0,17 / 18,9262698,2019-08-18 17:48:05:235,-0.6404,-1.1163,9.9972,-0.4126,-0.7168,9.7717,-0.003,0.0045,-0.0229
92616,47.126507,-1.904093,58.25,22.04,3.216,273.0,17 / 18,9262797,2019-08-18 17:48:05:334,-0.5243,-0.8649,9.5597,-0.42,-0.7274,9.7706,-0.0095,0.0016,-0.0194
92617,47.126507,-1.904093,58.25,22.04,3.216,273.0,17 / 18,9262897,2019-08-18 17:48:05:434,-0.5345,-0.3477,9.8428,-0.4164,-0.7262,9.7709,0.0003,-0.0063,-0.0202
92618,47.126507,-1.904093,58.25,22.04,3.216,273.0,17 / 18,9262997,2019-08-18 17:48:05:534,-0.4489,-0.6273,10.503,-0.4132,-0.7268,9.7709,0.0091,-0.0145,-0.0187
92619,47.126507,-1.904093,58.25,22.04,3.216,273.0,19 / 20,9263097,2019-08-18 17:48:05:634,-0.4818,-0.3298,9.8326,-0.3891,-0.7124,9.773,0.0026,-0.02,-0.0174
92620,47.126507,-1.904093,58.25,22.04,3.216,273.0,19 / 20,9263197,2019-08-18 17:48:05:734,-0.5602,-0.5878,10.0338,-0.3773,-0.7101,9.7736,-0.016,-0.0133,-0.0177
92621,47.126507,-1.904093,58.25,22.04,3.216,273.0,19 / 20,9263297,2019-08-18 17:48:05:834,-0.3567,-0.6369,9.9727,-0.3692,-0.7185,9.7733,-0.0101,0.0028,-0.0161
92622,47.126507,-1.904093,58.25,22.04,3.216,273.0,19 / 20,9263397,2019-08-18 17:48:05:934,-0.2292,-0.4645,10.0439,-0.3696,-0.7214,9.7731,-0.0085,-0.0033,-0.0166
92623,47.126507,-1.904093,58.25,22.04,3.216,273.0,19 / 20,9263497,2019-08-18 17:48:06:034,-0.5051,-0.4771,9.8302,-0.3564,-0.7237,9.7734,-0.0067,-0.0173,-0.0153
92624,47.126507,-1.904093,58.25,22.04,3.216,273.0,19 / 20,9263597,2019-08-18 17:48:06:134,-0.4423,-0.2304,9.7961,-0.335,-0.725,9.7741,-0.0115,-0.0208,-0.0167
92625,47.126507,-1.904093,58.25,22.04,3.216,273.0,19 / 20,9263697,2019-08-18 17:48:06:234,-0.055,-0.3777,9.7129,-0.3031,-0.7301,9.7747,-0.0186,-0.0169,-0.0168
92626,47.126507,-1.904093,58.25,22.04,3.216,273.0,19 / 20,9263798,2019-08-18 17:48:06:335,-0.064,-0.4872,9.7764,-0.2904,-0.7378,9.7745,-0.0221,-0.015,-0.0163
92627,47.126507,-1.904093,58.25,22.04,3.216,273.0,19 / 20,9263897,2019-08-18 17:48:06:434,-0.1586,-0.4076,9.8955,-0.271,-0.7514,9.7741,-0.0127,-0.0072,-0.017
92628,47.126507,-1.904093,58.25,22.04,3.216,273.0,19 / 20,9263997,2019-08-18 17:48:06:534,-0.1286,-0.3172,9.8727,-0.2574,-0.7576,9.774,-0.0159,-0.0144,-0.0183
92629,47.126507,-1.904093,58.25,22.04,3.216,273.0,18 / 19,9264097,2019-08-18 17:48:06:634,-0.0418,-0.4884,9.7794,-0.2301,-0.7725,9.7735,-0.0194,-0.011,-0.0221
92630,47.126507,-1.904093,58.25,22.04,3.216,273.0,18 / 19,9264197,2019-08-18 17:48:06:734,0.0665,-0.7141,9.9487,-0.2194,-0.7792,9.7732,-0.0176,-0.0054,-0.0287
92631,47.126507,-1.904093,58.25,22.04,3.216,273.0,18 / 19,9264297,2019-08-18 17:48:06:834,-0.1436,-0.5507,9.4514,-0.1964,-0.799,9.7721,-0.0151,-0.0049,-0.0291
92632,47.126507,-1.904093,58.25,22.04,3.216,273.0,18 / 19,9264397,2019-08-18 17:48:06:934,0.1264,-0.7679,9.9015,-0.1893,-0.8042,9.7718,-0.0104,-0.0017,-0.0295
92633,47.126507,-1.904093,58.25,22.04,3.216,273.0,18 / 19,9264497,2019-08-18 17:48:07:034,0.2509,-0.6411,9.938,-0.1691,-0.8165,9.7711,-0.0081,-0.0099,-0.0294
92634,47.126507,-1.904093,58.25,22.04,3.216,273.0,18 / 19,9264597,2019-08-18 17:48:07:134,-0.225,-0.8793,9.2963,-0.1555,-0.821,9.771,-0.0005,-0.003,-0.0257
92635,47.126507,-1.904093,58.25,22.04,3.216,273.0,18 / 19,9264697,2019-08-18 17:48:07:234,0.0863,-0.6285,9.8344,-0.1342,-0.8184,9.7715,0.002,-0.0131,-0.0247
92636,47.126507,-1.904093,58.25,22.04,3.216,273.0,18 / 19,9264797,2019-08-18 17:48:07:334,-0.0694,-0.5363,10.3133,-0.1223,-0.8121,9.7722,-0.0008,-0.0102,-0.0231
92637,47.126507,-1.904093,58.25,22.04,3.216,273.0,18 / 19,9264897,2019-08-18 17:48:07:434,0.1796,-0.5997,9.7997,-0.0976,-0.8098,9.7727,-0.0081,-0.0071,-0.0226
92638,47.126507,-1.904093,58.25,22.04,3.216,273.0,18 / 19,9264997,2019-08-18 17:48:07:534,0.0533,-0.9188,10.0493,-0.0915,-0.8123,9.7725,-0.0101,0.0004,-0.0217
92639,47.126507,-1.904093,58.25,22.04,3.216,273.0,18 / 19,9265097,2019-08-18 17:48:07:634,-0.1664,-0.8751,10.4462,-0.0716,-0.8166,9.7723,-0.0094,-0.0108,-0.0191
92640,47.126507,-1.904093,58.25,22.04,3.216,273.0,18 / 19,9265197,2019-08-18 17:48:07:734,-0.2747,-0.6889,9.5848,-0.0629,-0.8212,9.772,-0.012,-0.0007,-0.0186
92641,47.126507,-1.904093,58.25,22.04,3.216,273.0,18 / 19,9265297,2019-08-18 17:48:07:834,0.1527,-0.5441,9.686,-0.048,-0.8257,9.7717,-0.0003,-0.0022,-0.0172
92642,47.126507,-1.904093,58.25,22.04,3.216,273.0,18 / 19,9265397,2019-08-18 17:48:07:934,0.1048,-0.7027,9.7812,-0.0475,-0.8225,9.772,0.0001,-0.0044,-0.0139
92643,47.126507,-1.904093,58.25,22.04,3.216,273.0,18 / 19,9265497,2019-08-18 17:48:08:034,0.3065,-0.5016,9.6573,-0.0415,-0.8188,9.7723,-0.0051,0.0007,-0.0145
92644,47.126507,-1.904093,58.25,22.04,3.216,273.0,18 / 19,9265597,2019-08-18 17:48:08:134,-0.1185,-0.5908,10.2774,-0.0371,-0.822,9.7721,-0.0246,-0.014,-0.0166
92645,47.126507,-1.904093,58.25,22.04,3.216,273.0,18 / 19,9265697,2019-08-18 17:48:08:234,0.0958,-1.0618,10.2169,-0.0164,-0.8461,9.7701,-0.0219,-0.0268,-0.0144
92646,47.126507,-1.904093,58.25,22.04,3.216,273.0,18 / 19,9265797,2019-08-18 17:48:08:334,0.3532,-0.6405,10.3205,0.0048,-0.8532,9.7695,-0.0112,-0.0246,-0.013
92647,47.126507,-1.904093,58.25,22.04,3.216,273.0,18 / 19,9265897,2019-08-18 17:48:08:434,0.0025,-0.823,9.6782,0.0119,-0.8604,9.7688,-0.0158,0.001,-0.0107
92648,47.126507,-1.904093,58.25,22.04,3.216,273.0,18 / 19,9265997,2019-08-18 17:48:08:534,-0.0359,-0.7506,9.8111,0.0123,-0.8698,9.768,-0.0163,-0.0063,-0.0109
92649,47.126507,-1.904093,58.25,22.04,3.216,273.0,19 / 20,9266097,2019-08-18 17:48:08:634,-0.2184,-0.4459,9.6267,0.0179,-0.8702,9.768,-0.0155,-0.0089,-0.013
92650,47.126507,-1.904093,58.25,22.04,3.216,273.0,19 / 20,9266197,2019-08-18 17:48:08:734,0.1,-0.5441,10.178,0.0219,-0.8854,9.7666,-0.0195,-0.0018,-0.0114
92651,47.126507,-1.904093,58.25,22.04,3.216,273.0,19 / 20,9266297,2019-08-18 17:48:08:834,-0.2094,-0.7985,10.4587,0.023,-0.8936,9.7658,-0.006,-0.0126,-0.0112
92652,47.126507,-1.904093,58.25,22.04,3.216,273.0,19 / 20,9266397,2019-08-18 17:48:08:934,0.0653,-0.7889,10.5395,0.0355,-0.8939,9.7658,0.0007,-0.0069,-0.0082
92653,47.126507,-1.904093,58.25,22.04,3.216,273.0,19 / 20,9266497,2019-08-18 17:48:09:034,-0.0311,-0.6895,9.9883,0.0414,-0.8907,9.766,-0.0007,-0.0107,-0.0069
92654,47.126507,-1.904093,58.25,22.04,3.216,273.0,19 / 20,9266597,2019-08-18 17:48:09:134,-0.0406,-0.4345,9.8189,0.0507,-0.8861,9.7664,-0.0009,0.0022,-0.0079
92655,47.126507,-1.904093,58.25,22.04,3.216,273.0,19 / 20,9266697,2019-08-18 17:48:09:234,-0.0712,-0.6117,9.5501,0.0486,-0.8851,9.7665,-0.0076,0.0019,-0.0085
92656,47.126507,-1.904093,58.25,22.04,3.216,273.0,19 / 20,9266797,2019-08-18 17:48:09:334,0.0605,-0.8386,9.9793,0.0449,-0.8804,9.767,-0.0001,-0.0063,-0.0096
92657,47.126507,-1.904093,58.25,22.04,3.216,273.0,19 / 20,9266896,2019-08-18 17:48:09:433,-0.2998,-0.7368,9.7913,0.0469,-0.8723,9.7677,0.0083,0.0006,-0.0089
92658,47.126507,-1.904093,58.25,22.04,3.216,273.0,19 / 20,9266997,2019-08-18 17:48:09:534,0.0054,-0.6991,10.1954,0.0429,-0.8618,9.7686,0.0066,0.0001,-0.0089
92659,47.126507,-1.904093,58.25,22.04,3.216,273.0,20 / 21,9267098,2019-08-18 17:48:09:635,-0.137,-0.6656,9.8763,0.0444,-0.8504,9.7696,-0.0026,-0.0109,-0.0071
92660,47.126507,-1.904093,58.25,22.04,3.216,273.0,20 / 21,9267197,2019-08-18 17:48:09:734,0.1024,-0.5243,10.0451,0.0474,-0.8441,9.7701,-0.0058,0.0051,-0.0081
92661,47.126507,-1.904093,58.25,22.04,3.216,273.0,20 / 21,9267297,2019-08-18 17:48:09:834,0.0174,-0.6817,9.7979,0.0469,-0.8465,9.7699,-0.0089,-0.0039,-0.0097
92662,47.126507,-1.904093,58.25,22.04,3.216,273.0,20 / 21,9267397,2019-08-18 17:48:09:934,-0.0131,-0.7201,9.7135,0.0621,-0.8429,9.7702,-0.0014,-0.014,-0.0108
92663,47.126507,-1.904093,58.25,22.04,3.216,273.0,20 / 21,9267497,2019-08-18 17:48:10:034,0.0653,-0.7392,10.0906,0.0684,-0.8397,9.7704,0.0012,-0.0124,-0.0103
92664,47.126507,-1.904093,58.25,22.04,3.216,273.0,20 / 21,9267597,2019-08-18 17:48:10:134,0.4879,-0.7667,9.7034,0.0778,-0.8363,9.7706,-0.0044,-0.0013,-0.0087
92665,47.126507,-1.904093,58.25,22.04,3.216,273.0,20 / 21,9267698,2019-08-18 17:48:10:235,0.091,-1.227,9.4759,0.0756,-0.8335,9.7709,-0.0046,-0.0019,-0.0111
92666,47.126507,-1.904093,58.25,22.04,3.216,273.0,20 / 21,9267798,2019-08-18 17:48:10:335,0.1485,-0.72,9.9937,0.0829,-0.8325,9.7709,-0.0004,-0.0087,-0.0112
92667,47.126507,-1.904093,58.25,22.04,3.216,273.0,20 / 21,9267898,2019-08-18 17:48:10:435,-0.0789,-0.759,9.9134,0.0876,-0.827,9.7713,0.001,-0.0068,-0.0106
92668,47.126507,-1.904093,58.25,22.04,3.216,273.0,20 / 21,9267997,2019-08-18 17:48:10:534,-0.1167,-0.7715,9.8159,0.0907,-0.8223,9.7717,0.0023,-0.0002,-0.0099
92669,47.126507,-1.904093,58.25,22.04,3.216,273.0,16 / 20,9268097,2019-08-18 17:48:10:634,0.1066,-0.6231,10.0619,0.0925,-0.8186,9.772,-0.0016,0.0,-0.0106
92670,47.126507,-1.904093,58.25,22.04,3.216,273.0,16 / 20,9268197,2019-08-18 17:48:10:734,-0.0005,-0.7422,9.8632,0.0921,-0.8208,9.7718,-0.0038,-0.0035,-0.0108
92671,47.126507,-1.904093,58.25,22.04,3.216,273.0,16 / 20,9268297,2019-08-18 17:48:10:834,0.1234,-0.5944,9.8865,0.0931,-0.8185,9.772,0.0022,0.002,-0.01
92672,47.126507,-1.904093,58.25,22.04,3.216,273.0,16 / 20,9268397,2019-08-18 17:48:10:934,0.2269,-0.7452,9.9655,0.0924,-0.8156,9.7722,-0.0002,0.0046,-0.0087
92673,47.126507,-1.904093,58.25,22.04,3.216,273.0,16 / 20,9268497,2019-08-18 17:48:11:034,0.0611,-0.5902,9.7931,0.0901,-0.8147,9.7723,-0.0004,0.0077,-0.0095
92674,47.126507,-1.904093,58.25,22.04,3.216,273.0,16 / 20,9268597,2019-08-18 17:48:11:134,-0.1107,-0.8074,10.1145,0.0819,-0.8106,9.7727,0.0051,0.0128,-0.0086
92675,47.126507,-1.904093,58.25,22.04,3.216,273.0,16 / 20,9268697,2019-08-18 17:48:11:234,0.2993,-0.7218,10.3594,0.074,-0.808,9.773,0.0108,0.006,-0.0087
92676,47.126507,-1.904093,58.25,22.04,3.216,273.0,16 / 20,9268797,2019-08-18 17:48:11:334,0.0378,-0.8799,10.096,0.0707,-0.7952,9.7741,0.004,0.0015,-0.0101
92677,47.126507,-1.904093,58.25,22.04,3.216,273.0,16 / 20,9268897,2019-08-18 17:48:11:434,0.0509,-0.7009,10.105,0.0678,-0.788,9.7747,0.0103,0.0016,-0.0103
92678,47.126507,-1.904093,58.25,22.04,3.216,273.0,16 / 20,9268997,2019-08-18 17:48:11:534,-0.2944,-0.8356,9.8099,0.0652,-0.7862,9.7749,-0.0026,-0.0021,-0.0096
92679,47.126507,-1.904093,58.25,22.04,3.216,273.0,16 / 20,9269097,2019-08-18 17:48:11:634,-0.0616,-0.9445,9.9649,0.0617,-0.7912,9.7745,-0.0085,0.0009,-0.0102
92680,47.126507,-1.904093,58.25,22.04,3.216,273.0,16 / 20,9269197,2019-08-18 17:48:11:734,-0.4165,-0.7889,9.5334,0.043,-0.7974,9.7741,0.0013,0.0034,-0.0093
92681,47.126507,-1.904093,58.25,22.04,3.216,273.0,16 / 20,9269297,2019-08-18 17:48:11:834,-0.4369,-0.765,9.3167,0.039,-0.7949,9.7743,0.0031,0.0008,-0.0101
92682,47.126507,-1.904093,58.25,22.04,3.216,273.0,16 / 20,9269397,2019-08-18 17:48:11:934,-0.4806,-0.9517,9.5471,0.032,-0.7921,9.7746,0.0043,-0.0028,-0.01
92683,47.126507,-1.904093,58.25,22.04,3.216,273.0,16 / 20,9269497,2019-08-18 17:48:12:034,0.0701,-0.987,10.1983,0.0376,-0.7956,9.7742,-0.0014,-0.0188,-0.0106
92684,47.126507,-1.904093,58.25,22.04,3.216,273.0,16 / 20,9269597,2019-08-18 17:48:12:134,-0.304,-0.9259,9.7375,0.0423,-0.7983,9.774,-0.0013,0.0015,-0.0078
92685,47.126507,-1.904093,58.25,22.04,3.216,273.0,16 / 20,9269697,2019-08-18 17:48:12:234,-0.2076,-0.7997,9.4059,0.0356,-0.7979,9.7741,-0.0018,0.0096,-0.0079
92686,47.126507,-1.904093,58.25,22.04,3.216,273.0,16 / 20,9269797,2019-08-18 17:48:12:334,-0.1855,-0.741,9.8698,0.0305,-0.8016,9.7738,-0.0039,-0.0045,-0.0078
92687,47.126507,-1.904093,58.25,22.04,3.216,273.0,16 / 20,9269897,2019-08-18 17:48:12:434,-0.2573,-0.48,9.7907,0.0302,-0.802,9.7738,-0.0019,0.0,-0.0063
92688,47.126507,-1.904093,58.25,22.04,3.216,273.0,16 / 20,9269997,2019-08-18 17:48:12:534,-0.3363,-0.6135,10.0846,0.0279,-0.8018,9.7738,0.01,-0.0031,-0.0016
92689,47.126507,-1.904093,58.25,22.04,3.216,273.0,Dec-16,9270097,2019-08-18 17:48:12:634,-0.0377,-0.7518,10.1056,0.0253,-0.7852,9.7751,0.0121,-0.0062,0.0002
92690,47.126507,-1.904093,58.25,22.04,3.216,273.0,Dec-16,9270197,2019-08-18 17:48:12:734,-0.2394,-0.6183,9.9769,0.0253,-0.7763,9.7758,0.0068,-0.0069,0.0013
92691,47.126507,-1.904093,58.25,22.04,3.216,273.0,Dec-16,9270297,2019-08-18 17:48:12:834,-0.0586,-0.5914,9.519,0.0173,-0.7649,9.7768,-0.0051,0.0099,0.001
92692,47.126507,-1.904093,58.25,22.04,3.216,273.0,Dec-16,9270397,2019-08-18 17:48:12:934,-0.3291,-0.653,9.7255,0.0034,-0.7645,9.7768,-0.0026,0.0115,0.0011
92693,47.126507,-1.904093,58.25,22.04,3.216,273.0,Dec-16,9270497,2019-08-18 17:48:13:034,-0.2651,-0.3759,9.8883,-0.0115,-0.7555,9.7775,0.0012,0.0029,0.0005
92694,47.126507,-1.904093,58.25,22.04,3.216,273.0,Dec-16,9270597,2019-08-18 17:48:13:134,-0.3663,-0.6847,10.0822,-0.0216,-0.7443,9.7783,0.0147,0.0085,0.0049
92695,47.126507,-1.904093,58.25,22.04,3.216,273.0,Dec-16,9270696,2019-08-18 17:48:13:233,-0.0802,-0.5177,9.3329,-0.0438,-0.721,9.78,0.0131,0.0081,0.0065
92696,47.126507,-1.904093,58.25,22.04,3.216,273.0,Dec-16,9270797,2019-08-18 17:48:13:334,-0.4614,-0.6949,9.5914,-0.0592,-0.7107,9.7807,-0.0047,0.0054,0.0069
92697,47.126507,-1.904093,58.25,22.04,3.216,273.0,Dec-16,9270896,2019-08-18 17:48:13:433,-0.4632,-0.3268,9.6567,-0.0767,-0.7014,9.7812,0.0086,0.0021,0.008
92698,47.126507,-1.904093,58.25,22.04,3.216,273.0,Dec-16,9270996,2019-08-18 17:48:13:533,-0.5865,-0.5698,9.9254,-0.0806,-0.691,9.7819,0.0116,-0.002,0.0064
92699,47.126507,-1.904093,58.25,22.04,3.216,273.0,13 / 18,9271096,2019-08-18 17:48:13:633,-0.4117,-0.3555,9.7818,-0.0869,-0.6832,9.7824,-0.0006,-0.0058,0.0064
92700,47.12675,-1.906769,60.56,23.24,3.216,279.5,13 / 18,9271197,2019-08-18 17:48:13:734,-0.2489,-0.413,9.3909,-0.0856,-0.6835,9.7824,-0.0117,0.0023,0.0075
92701,47.12675,-1.906769,60.56,23.24,3.216,279.5,13 / 18,9271297,2019-08-18 17:48:13:834,-0.3399,-0.428,9.3155,-0.099,-0.6876,9.782,-0.0041,-0.0036,0.0029
92702,47.12675,-1.906769,60.56,23.24,3.216,279.5,13 / 18,9271397,2019-08-18 17:48:13:934,-0.2968,-0.4076,10.1193,-0.099,-0.6872,9.782,-0.004,-0.0059,0.0018
92703,47.12675,-1.906769,60.56,23.24,3.216,279.5,13 / 18,9271497,2019-08-18 17:48:14:034,-0.134,-0.4824,9.7387,-0.0966,-0.678,9.7827,-0.007,0.0021,0.0005
92704,47.12675,-1.906769,60.56,23.24,3.216,279.5,13 / 18,9271597,2019-08-18 17:48:14:134,-0.0526,-0.4052,10.099,-0.096,-0.6794,9.7826,-0.0081,0.0016,-0.0007
92705,47.12675,-1.906769,60.56,23.24,3.216,279.5,13 / 18,9271697,2019-08-18 17:48:14:234,0.1102,-0.2652,9.2574,-0.101,-0.6792,9.7826,-0.0038,0.0006,-0.0008
92706,47.12675,-1.906769,60.56,23.24,3.216,279.5,13 / 18,9271797,2019-08-18 17:48:14:334,-0.4213,-0.6147,9.923,-0.1001,-0.6796,9.7826,-0.0048,-0.0045,0.0009
92707,47.12675,-1.906769,60.56,23.24,3.216,279.5,13 / 18,9271897,2019-08-18 17:48:14:434,-0.125,-0.2807,9.7925,-0.0999,-0.6736,9.783,0.0029,0.0045,0.0024
92708,47.12675,-1.906769,60.56,23.24,3.216,279.5,13 / 18,9271996,2019-08-18 17:48:14:533,-0.1424,-0.5124,9.7925,-0.104,-0.6696,9.7832,-0.0002,0.0002,0.0015
92709,47.12675,-1.906769,60.56,23.24,3.216,279.5,13 / 18,9272097,2019-08-18 17:48:14:634,-0.1113,-0.7063,9.5082,-0.0969,-0.6583,9.784,0.0026,-0.0012,-0.0004
92710,47.12675,-1.906769,60.56,23.24,3.216,279.5,13 / 18,9272196,2019-08-18 17:48:14:733,-0.1179,-0.6877,9.7692,-0.0974,-0.6524,9.7844,0.0119,0.0049,0.0014
92711,47.12675,-1.906769,60.56,23.24,3.216,279.5,13 / 18,9272297,2019-08-18 17:48:14:834,-0.1256,-0.4842,10.193,-0.0986,-0.6287,9.786,0.0171,-0.0037,0.0011
92712,47.12675,-1.906769,60.56,23.24,3.216,279.5,13 / 18,9272397,2019-08-18 17:48:14:934,-0.0071,-0.2897,10.7251,-0.0964,-0.6204,9.7865,0.0056,-0.0044,0.0025
92713,47.12675,-1.906769,60.56,23.24,3.216,279.5,13 / 18,9272497,2019-08-18 17:48:15:034,-0.0149,-0.7506,9.756,-0.09,-0.6065,9.7875,0.0012,-0.0068,0.0003
92714,47.12675,-1.906769,60.56,23.24,3.216,279.5,13 / 18,9272597,2019-08-18 17:48:15:134,-0.0436,-0.392,9.4514,-0.0906,-0.6093,9.7873,-0.0133,0.0122,0.0008
92715,47.12675,-1.906769,60.56,23.24,3.216,279.5,13 / 18,9272697,2019-08-18 17:48:15:234,0.1102,-0.4579,9.7255,-0.0982,-0.623,9.7863,-0.0128,0.0023,-0.0004
92716,47.12675,-1.906769,60.56,23.24,3.216,279.5,13 / 18,9272797,2019-08-18 17:48:15:334,0.0186,-0.8392,9.7201,-0.1028,-0.6306,9.7858,-0.0164,-0.0029,-0.0054
92717,47.12675,-1.906769,60.56,23.24,3.216,279.5,13 / 18,9272897,2019-08-18 17:48:15:434,-0.1831,-0.6506,10.0721,-0.0993,-0.6441,9.785,-0.0207,-0.0094,-0.0117
92718,47.12675,-1.906769,60.56,23.24,3.216,279.5,13 / 18,9272997,2019-08-18 17:48:15:534,0.0013,-0.7811,9.9859,-0.0755,-0.666,9.7837,0.0034,-0.005,-0.015
92719,47.12675,-1.906769,60.56,23.24,3.216,279.5,Dec-16,9273097,2019-08-18 17:48:15:634,-0.1526,-0.9092,10.2391,-0.072,-0.6653,9.7838,0.0048,0.0033,-0.0117
92720,47.12675,-1.906769,60.56,23.24,3.216,279.5,Dec-16,9273198,2019-08-18 17:48:15:735,0.0527,-0.9894,9.6142,-0.0702,-0.664,9.7839,0.0029,0.0058,-0.0112
92721,47.12675,-1.906769,60.56,23.24,3.216,279.5,Dec-16,9273297,2019-08-18 17:48:15:834,-0.0951,-0.7512,10.0733,-0.0672,-0.6661,9.7838,-0.0017,-0.0058,-0.0135
92722,47.12675,-1.906769,60.56,23.24,3.216,279.5,Dec-16,9273398,2019-08-18 17:48:15:935,0.0252,-0.5686,10.16,-0.0629,-0.6687,9.7836,-0.0023,0.0008,-0.0127
92723,47.12675,-1.906769,60.56,23.24,3.216,279.5,Dec-16,9273497,2019-08-18 17:48:16:034,0.1694,-0.8649,10.0882,-0.0622,-0.6709,9.7835,-0.0014,0.0027,-0.0115
92724,47.12675,-1.906769,60.56,23.24,3.216,279.5,Dec-16,9273597,2019-08-18 17:48:16:134,-0.1143,-0.6692,9.5076,-0.0598,-0.671,9.7835,0.009,-0.0003,-0.0099
92725,47.12675,-1.906769,60.56,23.24,3.216,279.5,Dec-16,9273697,2019-08-18 17:48:16:234,-0.2256,-0.7775,9.7369,-0.0567,-0.6678,9.7837,0.0049,0.0095,-0.0072
92726,47.12675,-1.906769,60.56,23.24,3.216,279.5,Dec-16,9273796,2019-08-18 17:48:16:333,-0.4632,-0.8571,9.8925,-0.0737,-0.6661,9.7837,-0.001,0.0146,-0.0058
92727,47.12675,-1.906769,60.56,23.24,3.216,279.5,Dec-16,9273897,2019-08-18 17:48:16:434,-0.5213,-0.735,10.1199,-0.09,-0.6679,9.7835,-0.0033,0.0077,0.0014
92728,47.12675,-1.906769,60.56,23.24,3.216,279.5,Dec-16,9273997,2019-08-18 17:48:16:534,-0.6841,-0.6093,10.017,-0.113,-0.6718,9.783,-0.005,0.0082,0.0053
92729,47.12675,-1.906769,60.56,23.24,3.216,279.5,Dec-16,9274097,2019-08-18 17:48:16:634,-0.8654,-0.7895,9.5399,-0.1292,-0.678,9.7823,-0.0039,-0.0013,0.0048
92730,47.12675,-1.906769,60.56,23.24,3.216,279.5,Dec-16,9274197,2019-08-18 17:48:16:734,-0.9337,-0.7703,9.859,-0.1438,-0.6836,9.7817,-0.0091,-0.0048,0.0053
92731,47.12675,-1.906769,60.56,23.24,3.216,279.5,Dec-16,9274297,2019-08-18 17:48:16:834,-0.5638,-0.6075,9.4921,-0.1539,-0.6899,9.7811,-0.0091,0.0,0.0087
92732,47.12675,-1.906769,60.56,23.24,3.216,279.5,Dec-16,9274398,2019-08-18 17:48:16:935,-1.0061,-0.8236,9.6531,-0.1778,-0.696,9.7803,0.0013,0.0012,0.0107
92733,47.12675,-1.906769,60.56,23.24,3.216,279.5,Dec-16,9274497,2019-08-18 17:48:17:034,-0.9558,-0.6351,10.0338,-0.1868,-0.6956,9.7802,-0.0045,-0.0018,0.0123
92734,47.12675,-1.906769,60.56,23.24,3.216,279.5,Dec-16,9274597,2019-08-18 17:48:17:134,-1.3251,-0.7093,9.6513,-0.203,-0.6963,9.7798,-0.0049,-0.0083,0.013
92735,47.12675,-1.906769,60.56,23.24,3.216,279.5,Dec-16,9274697,2019-08-18 17:48:17:234,-1.1156,-0.8176,9.8751,-0.2105,-0.6969,9.7796,-0.0051,-0.0099,0.0134
92736,47.12675,-1.906769,60.56,23.24,3.216,279.5,Dec-16,9274798,2019-08-18 17:48:17:335,-1.3299,-0.6883,9.4143,-0.2151,-0.6999,9.7793,-0.0124,-0.0115,0.0138
92737,47.12675,-1.906769,60.56,23.24,3.216,279.5,Dec-16,9274897,2019-08-18 17:48:17:434,-0.5309,-0.2837,10.2133,-0.2124,-0.7057,9.7789,-0.0129,-0.0116,0.0135
92738,47.12675,-1.906769,60.56,23.24,3.216,279.5,Dec-16,9274997,2019-08-18 17:48:17:534,-0.3968,-0.4453,9.8105,-0.2164,-0.7156,9.7781,-0.0083,-0.009,0.015
92739,47.12675,-1.906769,60.56,23.24,3.216,279.5,17 / 19,9275097,2019-08-18 17:48:17:634,-0.4914,-0.4567,9.361,-0.2176,-0.7138,9.7782,-0.0057,-0.0029,0.0146
92740,47.12675,-1.906769,60.56,23.24,3.216,279.5,17 / 19,9275197,2019-08-18 17:48:17:734,-0.5075,-0.4651,9.5711,-0.2213,-0.7116,9.7783,-0.0027,0.0012,0.0137
92741,47.12675,-1.906769,60.56,23.24,3.216,279.5,17 / 19,9275297,2019-08-18 17:48:17:834,-0.2543,-0.3561,9.923,-0.2333,-0.7105,9.7781,-0.0112,0.0085,0.0105
92742,47.12675,-1.906769,60.56,23.24,3.216,279.5,17 / 19,9275397,2019-08-18 17:48:17:934,-0.2872,-0.5782,10.1564,-0.2439,-0.7115,9.7778,0.0042,0.0023,0.0096
92743,47.12675,-1.906769,60.56,23.24,3.216,279.5,17 / 19,9275497,2019-08-18 17:48:18:034,-0.1472,-0.4124,9.7542,-0.2426,-0.7016,9.7785,0.0072,-0.0031,0.0097
92744,47.12675,-1.906769,60.56,23.24,3.216,279.5,17 / 19,9275596,2019-08-18 17:48:18:133,-0.3058,-0.556,10.1996,-0.2408,-0.6872,9.7796,0.0047,0.0028,0.0067
92745,47.12675,-1.906769,60.56,23.24,3.216,279.5,17 / 19,9275697,2019-08-18 17:48:18:234,-0.1933,-0.5261,9.6597,-0.245,-0.6798,9.78,0.0083,0.0036,0.0061
92746,47.12675,-1.906769,60.56,23.24,3.216,279.5,17 / 19,9275797,2019-08-18 17:48:18:334,-0.0335,-0.3789,10.2169,-0.2457,-0.6694,9.7807,0.0003,-0.0004,0.0052
92747,47.12675,-1.906769,60.56,23.24,3.216,279.5,17 / 19,9275896,2019-08-18 17:48:18:433,-0.2436,-0.6548,10.3797,-0.2472,-0.669,9.7807,-0.0038,0.0005,0.0028
92748,47.12675,-1.906769,60.56,23.24,3.216,279.5,17 / 19,9275997,2019-08-18 17:48:18:534,0.2221,-0.6554,9.9823,-0.2497,-0.6634,9.781,0.0077,-0.0042,0.0049
92749,47.12675,-1.906769,60.56,23.24,3.216,279.5,15 / 19,9276097,2019-08-18 17:48:18:634,-0.4297,-0.149,9.528,-0.2384,-0.6475,9.7823,-0.0056,-0.014,0.0033
92750,47.12675,-1.906769,60.56,23.24,3.216,279.5,15 / 19,9276197,2019-08-18 17:48:18:734,-0.1208,-0.4866,9.6788,-0.2287,-0.6475,9.7826,-0.0065,-0.0018,0.0044
92751,47.12675,-1.906769,60.56,23.24,3.216,279.5,15 / 19,9276297,2019-08-18 17:48:18:834,-0.2124,-0.5285,9.7889,-0.2294,-0.6463,9.7826,0.0004,0.0055,0.0061
92752,47.12675,-1.906769,60.56,23.24,3.216,279.5,15 / 19,9276397,2019-08-18 17:48:18:934,0.1587,-0.5884,10.0254,-0.2331,-0.6413,9.7829,0.0065,0.0022,0.0074
92753,47.12675,-1.906769,60.56,23.24,3.216,279.5,15 / 19,9276497,2019-08-18 17:48:19:034,-0.0347,-0.4513,9.6782,-0.2342,-0.6273,9.7838,0.0022,0.0111,0.0084
92754,47.12675,-1.906769,60.56,23.24,3.216,279.5,15 / 19,9276597,2019-08-18 17:48:19:134,-0.055,-0.2717,9.756,-0.2433,-0.621,9.7839,0.0047,0.0174,0.0097
92755,47.12675,-1.906769,60.56,23.24,3.216,279.5,15 / 19,9276697,2019-08-18 17:48:19:234,-0.064,-0.3897,9.7201,-0.2609,-0.6076,9.7843,0.004,0.01,0.0089
92756,47.12675,-1.906769,60.56,23.24,3.216,279.5,15 / 19,9276797,2019-08-18 17:48:19:334,-0.0317,-0.3358,10.1571,-0.2706,-0.5979,9.7847,0.0083,0.0096,0.0117
92757,47.12675,-1.906769,60.56,23.24,3.216,279.5,15 / 19,9276897,2019-08-18 17:48:19:434,-0.3645,-0.2646,10.2343,-0.2776,-0.5768,9.7857,0.0092,0.0019,0.0125
92758,47.12675,-1.906769,60.56,23.24,3.216,279.5,15 / 19,9276997,2019-08-18 17:48:19:534,-0.1622,-0.4232,9.9745,-0.2769,-0.5683,9.7863,0.0053,-0.004,0.0098
92759,47.12675,-1.906769,60.56,23.24,3.216,279.5,15 / 19,9277098,2019-08-18 17:48:19:635,-0.2172,-0.4238,9.8506,-0.2721,-0.5555,9.7871,-0.0023,-0.0041,0.0073
92760,47.12675,-1.906769,60.56,23.24,3.216,279.5,15 / 19,9277197,2019-08-18 17:48:19:734,0.0025,-0.4184,9.5399,-0.2666,-0.5569,9.7872,-0.0161,-0.0086,-0.0049
92761,47.12675,-1.906769,60.56,23.24,3.216,279.5,15 / 19,9277297,2019-08-18 17:48:19:834,-0.064,-0.5381,9.6429,-0.2577,-0.5704,9.7867,-0.0051,0.0018,-0.0049
92762,47.12675,-1.906769,60.56,23.24,3.216,279.5,15 / 19,9277397,2019-08-18 17:48:19:934,-0.0789,-0.7111,9.9188,-0.257,-0.5732,9.7865,-0.0027,0.0013,-0.0067
92763,47.12675,-1.906769,60.56,23.24,3.216,279.5,15 / 19,9277497,2019-08-18 17:48:20:034,-0.2076,-0.8404,10.1876,-0.2523,-0.5831,9.786,-0.0037,0.0026,-0.0058
92764,47.12675,-1.906769,60.56,23.24,3.216,279.5,15 / 19,9277597,2019-08-18 17:48:20:134,-0.4507,-0.5004,8.8768,-0.2484,-0.5892,9.7858,0.0038,0.0047,-0.0037
92765,47.12675,-1.906769,60.56,23.24,3.216,279.5,15 / 19,9277697,2019-08-18 17:48:20:234,-0.0873,-0.6321,9.0719,-0.2503,-0.5881,9.7858,0.0052,0.0097,-0.0041
92766,47.12675,-1.906769,60.56,23.24,3.216,279.5,15 / 19,9277797,2019-08-18 17:48:20:334,-0.0592,-0.7446,10.166,-0.2523,-0.5869,9.7858,0.0018,0.0002,-0.0067
92767,47.12675,-1.906769,60.56,23.24,3.216,279.5,15 / 19,9277897,2019-08-18 17:48:20:434,-0.0496,-0.8751,10.275,-0.2378,-0.584,9.7864,0.0043,-0.0095,-0.0085
92768,47.12675,-1.906769,60.56,23.24,3.216,279.5,15 / 19,9277997,2019-08-18 17:48:20:534,0.1126,-0.7033,9.6716,-0.2315,-0.5861,9.7864,-0.0053,0.0041,-0.0093
92769,47.12675,-1.906769,60.56,23.24,3.216,279.5,17 / 20,9278097,2019-08-18 17:48:20:634,-0.0526,-0.6476,9.95,-0.2339,-0.5921,9.786,-0.0006,0.0187,-0.0087
92770,47.12675,-1.906769,60.56,23.24,3.216,279.5,17 / 20,9278197,2019-08-18 17:48:20:734,0.0659,-0.4615,10.1624,-0.2366,-0.5961,9.7857,-0.0048,-0.004,-0.0089
92771,47.12675,-1.906769,60.56,23.24,3.216,279.5,17 / 20,9278296,2019-08-18 17:48:20:833,0.0336,-0.9343,10.412,-0.2211,-0.6046,9.7855,0.0005,-0.0043,-0.0077
92772,47.12675,-1.906769,60.56,23.24,3.216,279.5,17 / 20,9278397,2019-08-18 17:48:20:934,0.0252,-0.7566,10.6539,-0.215,-0.6032,9.7857,0.0076,-0.0033,-0.005
92773,47.12675,-1.906769,60.56,23.24,3.216,279.5,17 / 20,9278497,2019-08-18 17:48:21:034,-0.1107,-0.4022,10.3378,-0.2131,-0.5856,9.7868,0.0119,0.0041,-0.0041
92774,47.12675,-1.906769,60.56,23.24,3.216,279.5,17 / 20,9278597,2019-08-18 17:48:21:134,-0.1334,-0.6309,9.8727,-0.2121,-0.5851,9.7869,-0.0063,0.0167,0.0063
92775,47.12675,-1.906769,60.56,23.24,3.216,279.5,17 / 20,9278697,2019-08-18 17:48:21:234,-0.4566,-0.6357,9.747,-0.2438,-0.5934,9.7856,-0.0094,0.0232,0.0092
92776,47.12675,-1.906769,60.56,23.24,3.216,279.5,17 / 20,9278797,2019-08-18 17:48:21:334,-0.9139,-0.5686,9.8326,-0.2688,-0.5995,9.7846,-0.0032,0.0094,0.0116
92777,47.12675,-1.906769,60.56,23.24,3.216,279.5,17 / 20,9278897,2019-08-18 17:48:21:434,-0.6805,-0.6225,9.7752,-0.296,-0.5995,9.7838,0.0075,0.0039,0.0124
92778,47.12675,-1.906769,60.56,23.24,3.216,279.5,17 / 20,9278997,2019-08-18 17:48:21:534,-0.7104,-0.4956,9.7453,-0.3043,-0.5961,9.7838,0.004,0.0069,0.0107
92779,47.12675,-1.906769,60.56,23.24,3.216,279.5,16 / 21,9279097,2019-08-18 17:48:21:634,-0.7829,-0.6452,9.8859,-0.328,-0.5953,9.7831,-0.0029,0.0111,0.0116
92780,47.12675,-1.906769,60.56,23.24,3.216,279.5,16 / 21,9279197,2019-08-18 17:48:21:734,-0.9875,-0.6357,9.8506,-0.3476,-0.5989,9.7822,0.0044,0.0042,0.0082
92781,47.12675,-1.906769,60.56,23.24,3.216,279.5,16 / 21,9279297,2019-08-18 17:48:21:834,-0.7146,-0.9307,10.09,-0.359,-0.5989,9.7818,0.0067,-0.0018,0.0061
92782,47.12675,-1.906769,60.56,23.24,3.216,279.5,16 / 21,9279397,2019-08-18 17:48:21:934,-0.6661,-0.817,9.8039,-0.3753,-0.5915,9.7816,0.0063,0.0,0.0061
92783,47.12675,-1.906769,60.56,23.24,3.216,279.5,16 / 21,9279497,2019-08-18 17:48:22:034,-0.872,-0.8464,10.2313,-0.3828,-0.592,9.7813,0.0022,0.0022,0.0074
92784,47.12675,-1.906769,60.56,23.24,3.216,279.5,16 / 21,9279597,2019-08-18 17:48:22:134,-0.8158,-0.7925,9.8255,-0.4,-0.5981,9.7802,0.0033,0.0056,0.0056
92785,47.12675,-1.906769,60.56,23.24,3.216,279.5,16 / 21,9279697,2019-08-18 17:48:22:234,-0.702,-0.9092,10.1199,-0.4126,-0.6014,9.7795,0.0021,-0.0004,0.0041
92786,47.12675,-1.906769,60.56,23.24,3.216,279.5,16 / 21,9279797,2019-08-18 17:48:22:334,-0.8152,-0.7787,9.8063,-0.4255,-0.6099,9.7784,-0.0119,-0.0068,0.0047
92787,47.12675,-1.906769,60.56,23.24,3.216,279.5,16 / 21,9279896,2019-08-18 17:48:22:433,-1.1342,-0.7123,9.6704,-0.4334,-0.6191,9.7775,-0.0025,-0.0048,0.004
92788,47.12675,-1.906769,60.56,23.24,3.216,279.5,16 / 21,9279997,2019-08-18 17:48:22:534,-0.8678,-0.9254,10.1008,-0.4427,-0.6268,9.7766,-0.004,-0.0022,0.0047
92789,47.127045,-1.909522,68.69,23.2,4.288,278.2,16 / 20,9280097,2019-08-18 17:48:22:634,-0.9774,-0.8374,9.2419,-0.4505,-0.6319,9.7759,-0.0078,-0.0016,0.0048
92790,47.127045,-1.909522,68.69,23.2,4.288,278.2,16 / 20,9280197,2019-08-18 17:48:22:734,-0.8846,-0.7625,10.2564,-0.4695,-0.641,9.7744,-0.0018,-0.0039,0.008
92791,47.127045,-1.909522,68.69,23.2,4.288,278.2,16 / 20,9280298,2019-08-18 17:48:22:835,-1.0953,-0.8757,10.078,-0.4706,-0.6444,9.7741,0.0072,-0.0086,0.0081
92792,47.127045,-1.909522,68.69,23.2,4.288,278.2,16 / 20,9280397,2019-08-18 17:48:22:934,-0.7948,-0.5106,9.765,-0.4781,-0.6392,9.7741,0.0051,0.0001,0.0062
92793,47.127045,-1.909522,68.69,23.2,4.288,278.2,16 / 20,9280497,2019-08-18 17:48:23:034,-0.7834,-0.984,9.7512,-0.484,-0.6355,9.7741,0.0047,-0.0016,0.0069
92794,47.127045,-1.909522,68.69,23.2,4.288,278.2,16 / 20,9280597,2019-08-18 17:48:23:134,-0.3615,-0.6895,10.1463,-0.4982,-0.6346,9.7734,0.005,0.0064,0.0069
92795,47.127045,-1.909522,68.69,23.2,4.288,278.2,16 / 20,9280697,2019-08-18 17:48:23:234,-0.6248,-0.8523,9.5304,-0.5014,-0.6308,9.7735,0.0064,-0.0024,0.0044
92796,47.127045,-1.909522,68.69,23.2,4.288,278.2,16 / 20,9280797,2019-08-18 17:48:23:334,-0.7715,-0.6746,9.9715,-0.5114,-0.6343,9.7727,-0.0043,0.0017,0.0042
92797,47.127045,-1.909522,68.69,23.2,4.288,278.2,16 / 20,9280897,2019-08-18 17:48:23:434,-0.7757,-0.896,9.9104,-0.5115,-0.6411,9.7723,-0.0053,-0.0141,0.0042
92798,47.127045,-1.909522,68.69,23.2,4.288,278.2,16 / 20,9280997,2019-08-18 17:48:23:534,-0.711,-0.6105,9.9942,-0.5039,-0.65,9.7721,-0.0116,-0.0126,0.0019
92799,47.127045,-1.909522,68.69,23.2,4.288,278.2,Dec-17,9281097,2019-08-18 17:48:23:634,-0.6494,-0.9804,9.3215,-0.5026,-0.6558,9.7718,-0.0074,0.001,0.0024
92800,47.127045,-1.909522,68.69,23.2,4.288,278.2,Dec-17,9281197,2019-08-18 17:48:23:734,-0.5746,-0.5339,9.8195,-0.5081,-0.6655,9.7708,-0.0042,0.0073,0.0042
92801,47.127045,-1.909522,68.69,23.2,4.288,278.2,Dec-17,9281297,2019-08-18 17:48:23:834,-0.6212,-0.6351,9.6824,-0.5116,-0.6681,9.7705,0.0007,0.0033,0.0029
92802,47.127045,-1.909522,68.69,23.2,4.288,278.2,Dec-17,9281398,2019-08-18 17:48:23:935,-0.3968,-0.5195,9.3981,-0.51,-0.6623,9.771,0.0014,0.0029,0.0054
92803,47.127045,-1.909522,68.69,23.2,4.288,278.2,Dec-17,9281497,2019-08-18 17:48:24:034,-0.6362,-0.3448,9.3071,-0.5159,-0.6579,9.7709,0.0105,0.0142,0.0074
92804,47.127045,-1.909522,68.69,23.2,4.288,278.2,Dec-17,9281597,2019-08-18 17:48:24:134,-0.4698,-0.085,9.6956,-0.5365,-0.6304,9.7717,0.0148,0.0211,0.0196
92805,47.127045,-1.909522,68.69,23.2,4.288,278.2,Dec-17,9281696,2019-08-18 17:48:24:233,-0.705,-0.149,9.9069,-0.5523,-0.6172,9.7716,0.0068,0.0221,0.0243
92806,47.127045,-1.909522,68.69,23.2,4.288,278.2,Dec-17,9281797,2019-08-18 17:48:24:334,-0.4782,-0.1676,9.8691,-0.5609,-0.5925,9.7727,0.0078,-0.0049,0.0248
92807,47.127045,-1.909522,68.69,23.2,4.288,278.2,Dec-17,9281897,2019-08-18 17:48:24:434,-0.4417,-0.1652,9.6686,-0.5614,-0.5805,9.7733,0.0007,0.0025,0.0231
92808,47.127045,-1.909522,68.69,23.2,4.288,278.2,Dec-17,9281997,2019-08-18 17:48:24:534,-0.6027,-0.1042,9.8787,-0.5709,-0.561,9.7739,-0.001,0.0042,0.0228
92809,47.127045,-1.909522,68.69,23.2,4.288,278.2,15 / 21,9282097,2019-08-18 17:48:24:634,-0.3998,-0.0173,9.6992,-0.5708,-0.5538,9.7744,-0.0015,-0.0022,0.0229
92810,47.127045,-1.909522,68.69,23.2,4.288,278.2,15 / 21,9282197,2019-08-18 17:48:24:734,-0.5332,0.1383,9.6692,-0.5528,-0.5331,9.7765,0.0029,-0.0144,0.0215
92811,47.127045,-1.909522,68.69,23.2,4.288,278.2,15 / 21,9282297,2019-08-18 17:48:24:834,-0.4955,-0.1257,9.0348,-0.5532,-0.5245,9.777,0.0032,0.0095,0.0243
92812,47.127045,-1.909522,68.69,23.2,4.288,278.2,15 / 21,9282397,2019-08-18 17:48:24:934,-0.3411,-0.2963,9.3221,-0.5583,-0.5136,9.7773,-0.0063,-0.009,0.0233
92813,47.127045,-1.909522,68.69,23.2,4.288,278.2,15 / 21,9282497,2019-08-18 17:48:25:034,-0.1945,0.3352,10.0703,-0.5433,-0.5027,9.7787,-0.0002,-0.0052,0.0228
92814,47.127045,-1.909522,68.69,23.2,4.288,278.2,15 / 21,9282597,2019-08-18 17:48:25:134,-0.8667,0.1514,9.6752,-0.5401,-0.4941,9.7793,-0.0044,0.0012,0.0222
92815,47.127045,-1.909522,68.69,23.2,4.288,278.2,15 / 21,9282697,2019-08-18 17:48:25:234,-0.7404,-0.2185,9.8883,-0.5492,-0.4923,9.7789,-0.0086,0.0086,0.0229
92816,47.127045,-1.909522,68.69,23.2,4.288,278.2,15 / 21,9282797,2019-08-18 17:48:25:334,-1.0067,-0.2077,9.6106,-0.5579,-0.4922,9.7784,-0.0136,0.0104,0.0225
92817,47.127045,-1.909522,68.69,23.2,4.288,278.2,15 / 21,9282897,2019-08-18 17:48:25:434,-0.7685,-0.4244,9.5184,-0.5719,-0.4933,9.7775,-0.006,-0.0105,0.021
92818,47.127045,-1.909522,68.69,23.2,4.288,278.2,15 / 21,9282997,2019-08-18 17:48:25:534,-0.4117,-0.3035,9.7548,-0.5679,-0.4931,9.7778,-0.0039,-0.0092,0.0132
92819,47.127045,-1.909522,68.69,23.2,4.288,278.2,14 / 20,9283097,2019-08-18 17:48:25:634,-0.2753,-0.4747,9.1305,-0.5579,-0.4963,9.7782,-0.0009,-0.0084,0.0133
92820,47.127045,-1.909522,68.69,23.2,4.288,278.2,14 / 20,9283197,2019-08-18 17:48:25:734,-0.3052,-0.5938,11.0782,-0.5547,-0.4957,9.7784,-0.0296,0.013,0.0139
92821,47.127045,-1.909522,68.69,23.2,4.288,278.2,14 / 20,9283297,2019-08-18 17:48:25:834,-0.3166,-0.8314,10.3157,-0.5651,-0.5131,9.7769,-0.0142,0.0106,0.0105
92822,47.127045,-1.909522,68.69,23.2,4.288,278.2,14 / 20,9283397,2019-08-18 17:48:25:934,-0.9678,-0.1616,9.7692,-0.5717,-0.5181,9.7763,0.0162,-0.01,0.012
92823,47.127045,-1.909522,68.69,23.2,4.288,278.2,14 / 20,9283496,2019-08-18 17:48:26:033,-0.2573,-0.4782,9.665,-0.562,-0.4935,9.7781,0.0345,-0.0202,0.0138
92824,47.127045,-1.909522,68.69,23.2,4.288,278.2,14 / 20,9283597,2019-08-18 17:48:26:134,-0.2537,-0.2472,10.2175,-0.5411,-0.4638,9.7807,-0.0035,0.0042,0.0146
92825,47.127045,-1.909522,68.69,23.2,4.288,278.2,14 / 20,9283697,2019-08-18 17:48:26:234,-0.4423,-0.3214,10.1828,-0.539,-0.4482,9.7816,0.0085,-0.0106,0.0133
92826,47.127045,-1.909522,68.69,23.2,4.288,278.2,14 / 20,9283797,2019-08-18 17:48:26:334,-0.3818,0.0419,8.3375,-0.5246,-0.4378,9.7828,-0.0118,-0.0269,0.0115
92827,47.127045,-1.909522,68.69,23.2,4.288,278.2,14 / 20,9283897,2019-08-18 17:48:26:434,0.4699,-0.2622,9.677,-0.5037,-0.4383,9.7839,-0.011,0.0345,0.0143
92828,47.127045,-1.909522,68.69,23.2,4.288,278.2,14 / 20,9283997,2019-08-18 17:48:26:534,0.1946,-0.2101,9.0138,-0.5219,-0.4385,9.7829,0.0035,0.0445,0.0149
92829,47.127045,-1.909522,68.69,23.2,4.288,278.2,15 / 21,9284097,2019-08-18 17:48:26:634,-0.0748,-0.3083,8.6284,-0.5623,-0.437,9.7808,-0.0095,0.0308,0.0114
92830,47.127045,-1.909522,68.69,23.2,4.288,278.2,15 / 21,9284197,2019-08-18 17:48:26:734,-0.2088,-0.3268,9.9003,-0.5646,-0.4385,9.7806,-0.006,0.0044,0.0101
92831,47.127045,-1.909522,68.69,23.2,4.288,278.2,15 / 21,9284296,2019-08-18 17:48:26:833,-0.1711,-0.4477,10.1092,-0.5527,-0.4335,9.7815,0.0044,-0.0043,0.0102
92832,47.127045,-1.909522,68.69,23.2,4.288,278.2,15 / 21,9284397,2019-08-18 17:48:26:934,-0.2525,-0.3508,10.02,-0.5471,-0.4293,9.782,-0.0059,-0.0031,0.0101
92833,47.127045,-1.909522,68.69,23.2,4.288,278.2,15 / 21,9284497,2019-08-18 17:48:27:034,-0.3992,-0.343,10.0936,-0.5398,-0.4346,9.7821,-0.011,0.0028,0.0109
92834,47.127045,-1.909522,68.69,23.2,4.288,278.2,15 / 21,9284597,2019-08-18 17:48:27:134,-0.462,-0.4238,10.1062,-0.5394,-0.4372,9.782,0.0019,0.0023,0.011
92835,47.127045,-1.909522,68.69,23.2,4.288,278.2,15 / 21,9284697,2019-08-18 17:48:27:234,-0.4249,-0.3591,10.1433,-0.5344,-0.4221,9.783,0.0085,-0.002,0.0114
92836,47.127045,-1.909522,68.69,23.2,4.288,278.2,15 / 21,9284797,2019-08-18 17:48:27:334,-0.5069,-0.413,9.5525,-0.5324,-0.415,9.7834,-0.0033,0.0001,0.0105
92837,47.127045,-1.909522,68.69,23.2,4.288,278.2,15 / 21,9284897,2019-08-18 17:48:27:434,-0.726,-0.34,9.6255,-0.537,-0.422,9.7828,-0.0103,0.0019,0.0096
92838,47.127045,-1.909522,68.69,23.2,4.288,278.2,15 / 21,9284997,2019-08-18 17:48:27:534,-0.5339,-0.3448,9.5693,-0.5377,-0.4293,9.7825,-0.0076,0.0034,0.0106
92839,47.127045,-1.909522,68.69,23.2,4.288,278.2,17 / 21,9285096,2019-08-18 17:48:27:633,-0.4872,-0.3723,9.8183,-0.5428,-0.433,9.782,0.0024,0.0001,0.0119
92840,47.127045,-1.909522,68.69,23.2,4.288,278.2,17 / 21,9285197,2019-08-18 17:48:27:734,-0.5195,-0.2664,9.7069,-0.5423,-0.4311,9.7821,0.0012,-0.0002,0.0119
92841,47.127045,-1.909522,68.69,23.2,4.288,278.2,17 / 21,9285297,2019-08-18 17:48:27:834,-0.6823,-0.507,10.0457,-0.5411,-0.4302,9.7823,-0.0024,-0.0067,0.0124
92842,47.127045,-1.909522,68.69,23.2,4.288,278.2,17 / 21,9285397,2019-08-18 17:48:27:934,-0.4459,-0.4729,9.8261,-0.5357,-0.4345,9.7824,-0.0116,-0.0087,0.0113
92843,47.127045,-1.909522,68.69,23.2,4.288,278.2,17 / 21,9285497,2019-08-18 17:48:28:034,-0.4596,-0.4184,9.7429,-0.5362,-0.4473,9.7818,-0.0123,-0.0022,0.0095
92844,47.127045,-1.909522,68.69,23.2,4.288,278.2,17 / 21,9285597,2019-08-18 17:48:28:134,-0.5626,-0.4812,9.8865,-0.5284,-0.4613,9.7815,-0.0114,-0.0136,0.0096
92845,47.127045,-1.909522,68.69,23.2,4.288,278.2,17 / 21,9285697,2019-08-18 17:48:28:234,-0.5297,-0.4938,9.6513,-0.5202,-0.4656,9.7818,-0.0024,-0.0049,0.0105
92846,47.127045,-1.909522,68.69,23.2,4.288,278.2,17 / 21,9285797,2019-08-18 17:48:28:334,-0.4207,-0.2783,9.5094,-0.5124,-0.4716,9.7819,-0.0059,-0.004,0.0101
92847,47.127045,-1.909522,68.69,23.2,4.288,278.2,17 / 21,9285897,2019-08-18 17:48:28:434,-0.4991,-0.3627,9.9218,-0.5202,-0.4737,9.7814,0.0013,0.0098,0.0102
92848,47.127045,-1.909522,68.69,23.2,4.288,278.2,17 / 21,9285997,2019-08-18 17:48:28:534,-0.6212,-0.5381,9.832,-0.529,-0.4677,9.7812,0.0081,0.0058,0.0114
92849,47.127045,-1.909522,68.69,23.2,4.288,278.2,16 / 20,9286096,2019-08-18 17:48:28:633,-0.4949,-0.5345,9.8356,-0.5318,-0.4634,9.7812,0.0026,0.004,0.0113
92850,47.127045,-1.909522,68.69,23.2,4.288,278.2,16 / 20,9286197,2019-08-18 17:48:28:734,-0.48,-0.5154,9.7399,-0.5349,-0.4584,9.7813,0.0097,-0.0026,0.0097
92851,47.127045,-1.909522,68.69,23.2,4.288,278.2,16 / 20,9286297,2019-08-18 17:48:28:834,-0.653,-0.3831,9.8123,-0.5334,-0.4529,9.7817,0.0093,0.0061,0.0105
92852,47.127045,-1.909522,68.69,23.2,4.288,278.2,16 / 20,9286397,2019-08-18 17:48:28:934,-0.4321,-0.4058,10.0373,-0.5521,-0.4324,9.7815,0.007,0.0121,0.0211
92853,47.127045,-1.909522,68.69,23.2,4.288,278.2,16 / 20,9286497,2019-08-18 17:48:29:034,-0.7816,0.0593,9.6375,-0.5588,-0.4253,9.7815,0.0071,0.0046,0.0223
92854,47.127045,-1.909522,68.69,23.2,4.288,278.2,16 / 20,9286598,2019-08-18 17:48:29:135,-0.5374,-0.2759,9.616,-0.5678,-0.4081,9.7817,0.0026,-0.0015,0.0245
92855,47.127045,-1.909522,68.69,23.2,4.288,278.2,16 / 20,9286697,2019-08-18 17:48:29:234,-0.8463,-0.2412,9.3658,-0.5693,-0.4014,9.7819,-0.0031,0.0082,0.0265
92856,47.127045,-1.909522,68.69,23.2,4.288,278.2,16 / 20,9286797,2019-08-18 17:48:29:334,-0.5458,-0.0317,9.9601,-0.5856,-0.3918,9.7813,-0.0045,0.0047,0.0274
92857,47.127045,-1.909522,68.69,23.2,4.288,278.2,16 / 20,9286897,2019-08-18 17:48:29:434,-0.7218,-0.073,9.6507,-0.5844,-0.3867,9.7816,-0.0037,-0.006,0.0273
92858,47.127045,-1.909522,68.69,23.2,4.288,278.2,16 / 20,9286997,2019-08-18 17:48:29:534,-0.374,0.0036,9.9218,-0.5862,-0.3764,9.7819,-0.0021,0.0054,0.0255
92859,47.127045,-1.909522,68.69,23.2,4.288,278.2,Dec-20,9287098,2019-08-18 17:48:29:635,-0.5704,-0.1239,10.0798,-0.5897,-0.3738,9.7818,-0.0074,0.0,0.0258
92860,47.127045,-1.909522,68.69,23.2,4.288,278.2,Dec-20,9287197,2019-08-18 17:48:29:734,-0.4135,-0.1891,9.6998,-0.5795,-0.3652,9.7827,-0.0021,-0.011,0.0248
92861,47.127045,-1.909522,68.69,23.2,4.288,278.2,Dec-20,9287297,2019-08-18 17:48:29:834,-0.6961,-0.2795,9.5381,-0.5805,-0.3622,9.7827,-0.0024,-0.0021,0.0206
92862,47.127045,-1.909522,68.69,23.2,4.288,278.2,Dec-20,9287397,2019-08-18 17:48:29:934,-0.4273,-0.4292,9.51,-0.58,-0.3617,9.7828,-0.0087,0.0,0.0185
92863,47.127045,-1.909522,68.69,23.2,4.288,278.2,Dec-20,9287497,2019-08-18 17:48:30:034,-0.4806,-0.3184,10.2337,-0.5815,-0.3632,9.7827,-0.004,-0.0006,0.0171
92864,47.127045,-1.909522,68.69,23.2,4.288,278.2,Dec-20,9287598,2019-08-18 17:48:30:135,-0.3136,-0.2514,9.9781,-0.5772,-0.3628,9.7829,0.0049,-0.0045,0.0159
92865,47.127045,-1.909522,68.69,23.2,4.288,278.2,Dec-20,9287697,2019-08-18 17:48:30:234,-0.2448,-0.2813,9.6034,-0.5742,-0.3574,9.7833,-0.0015,-0.0031,0.0149
92866,47.127045,-1.909522,68.69,23.2,4.288,278.2,Dec-20,9287796,2019-08-18 17:48:30:333,-0.7805,-0.0042,9.7177,-0.575,-0.3523,9.7834,0.0013,0.0045,0.014
92867,47.127045,-1.909522,68.69,23.2,4.288,278.2,Dec-20,9287897,2019-08-18 17:48:30:434,-0.371,-0.2334,10.0786,-0.5755,-0.3508,9.7835,-0.0002,0.0008,0.0152
92868,47.127045,-1.909522,68.69,23.2,4.288,278.2,Dec-20,9287997,2019-08-18 17:48:30:534,-0.4279,-0.2274,9.6956,-0.571,-0.3435,9.784,-0.0039,-0.0086,0.0142
92869,47.127045,-1.909522,68.69,23.2,4.288,278.2,13 / 20,9288097,2019-08-18 17:48:30:634,-0.3477,-0.1065,9.765,-0.5666,-0.3437,9.7842,0.0006,0.0016,0.0156
92870,47.127045,-1.909522,68.69,23.2,4.288,278.2,13 / 20,9288197,2019-08-18 17:48:30:734,-0.5464,-0.234,9.6507,-0.5675,-0.3394,9.7843,-0.0039,0.0004,0.0178
92871,47.127045,-1.909522,68.69,23.2,4.288,278.2,13 / 20,9288297,2019-08-18 17:48:30:834,-0.4758,-0.1837,10.3354,-0.5661,-0.338,9.7845,-0.0009,-0.0049,0.0175
92872,47.127045,-1.909522,68.69,23.2,4.288,278.2,13 / 20,9288397,2019-08-18 17:48:30:934,-0.4351,-0.1425,9.8811,-0.5594,-0.3315,9.7851,-0.0009,-0.0033,0.0164
92873,47.127045,-1.909522,68.69,23.2,4.288,278.2,13 / 20,9288497,2019-08-18 17:48:31:034,-0.4111,-0.2945,9.3263,-0.5543,-0.3292,9.7854,-0.0063,-0.0024,0.0161
92874,47.127045,-1.909522,68.69,23.2,4.288,278.2,13 / 20,9288597,2019-08-18 17:48:31:134,-0.6841,-0.2041,10.1983,-0.5613,-0.3292,9.785,-0.0056,-0.0007,0.0171
92875,47.127045,-1.909522,68.69,23.2,4.288,278.2,13 / 20,9288697,2019-08-18 17:48:31:234,-0.1867,0.0102,10.1451,-0.5531,-0.3272,9.7856,0.0025,-0.0073,0.0173
92876,47.127045,-1.909522,68.69,23.2,4.288,278.2,13 / 20,9288797,2019-08-18 17:48:31:334,-0.4183,0.0712,10.2744,-0.5343,-0.3242,9.7867,-0.004,-0.0068,0.0166
92877,47.127045,-1.909522,68.69,23.2,4.288,278.2,13 / 20,9288897,2019-08-18 17:48:31:434,-0.3555,-0.1748,9.7578,-0.5316,-0.3229,9.7869,-0.0021,-0.0023,0.0179
92878,47.127045,-1.909522,68.69,23.2,4.288,278.2,13 / 20,9288997,2019-08-18 17:48:31:534,-0.708,-0.085,9.5621,-0.528,-0.3235,9.7871,-0.0088,0.0014,0.0182
92879,47.127045,-1.909522,68.69,23.2,4.288,278.2,14 / 20,9289097,2019-08-18 17:48:31:634,-0.9965,-0.4441,9.8877,-0.5384,-0.3373,9.7861,-0.0186,0.0159,0.0184
92880,47.127186,-1.912239,72.79,23.78,3.216,270.8,14 / 20,9289197,2019-08-18 17:48:31:734,-1.2156,-0.5471,9.2766,-0.56,-0.3523,9.7843,-0.0078,0.0127,0.0197
92881,47.127186,-1.912239,72.79,23.78,3.216,270.8,14 / 20,9289297,2019-08-18 17:48:31:834,-1.039,-0.3089,9.2969,-0.5825,-0.3606,9.7827,0.0031,-0.0009,0.0221
92882,47.127186,-1.912239,72.79,23.78,3.216,270.8,14 / 20,9289397,2019-08-18 17:48:31:934,-1.0289,-0.4609,9.4927,-0.5886,-0.3586,9.7824,0.0058,0.0054,0.0212
92883,47.127186,-1.912239,72.79,23.78,3.216,270.8,14 / 20,9289497,2019-08-18 17:48:32:034,-1.0486,-0.4447,9.9727,-0.6112,-0.3494,9.7813,0.0058,0.0063,0.0223
92884,47.127186,-1.912239,72.79,23.78,3.216,270.8,14 / 20,9289597,2019-08-18 17:48:32:134,-0.9133,-0.4274,9.6375,-0.621,-0.346,9.7808,0.0022,0.002,0.0227
92885,47.127186,-1.912239,72.79,23.78,3.216,270.8,14 / 20,9289697,2019-08-18 17:48:32:234,-1.2916,-0.4184,9.6633,-0.6375,-0.3454,9.7798,-0.0025,-0.001,0.0191
92886,47.127186,-1.912239,72.79,23.78,3.216,270.8,14 / 20,9289797,2019-08-18 17:48:32:334,-1.2892,-0.4543,9.5441,-0.6477,-0.3486,9.779,-0.0098,0.0099,0.0198
92887,47.127186,-1.912239,72.79,23.78,3.216,270.8,14 / 20,9289897,2019-08-18 17:48:32:434,-1.1528,-0.5441,9.8273,-0.673,-0.3637,9.7768,-0.0078,0.0051,0.0196
92888,47.127186,-1.912239,72.79,23.78,3.216,270.8,14 / 20,9289997,2019-08-18 17:48:32:534,-1.151,-0.6081,9.7411,-0.6814,-0.3674,9.7761,-0.0057,-0.0012,0.0218
92889,47.127186,-1.912239,72.79,23.78,3.216,270.8,17 / 21,9290097,2019-08-18 17:48:32:634,-0.8026,-0.5321,9.4017,-0.6901,-0.3724,9.7752,-0.0024,-0.0071,0.0219
92890,47.127186,-1.912239,72.79,23.78,3.216,270.8,17 / 21,9290196,2019-08-18 17:48:32:733,-0.9714,-0.565,9.9176,-0.6907,-0.375,9.7751,-0.0027,-0.0101,0.0197
92891,47.127186,-1.912239,72.79,23.78,3.216,270.8,17 / 21,9290297,2019-08-18 17:48:32:834,-0.571,-0.3005,9.8973,-0.6972,-0.3795,9.7745,-0.005,0.0037,0.0198
92892,47.127186,-1.912239,72.79,23.78,3.216,270.8,17 / 21,9290397,2019-08-18 17:48:32:934,-1.1605,-0.4758,9.4592,-0.7043,-0.3824,9.7739,0.0022,0.0029,0.0194
92893,47.127186,-1.912239,72.79,23.78,3.216,270.8,17 / 21,9290497,2019-08-18 17:48:33:034,-1.0414,-0.5028,9.6142,-0.714,-0.3775,9.7733,-0.0044,-0.0071,0.0192
92894,47.127186,-1.912239,72.79,23.78,3.216,270.8,17 / 21,9290597,2019-08-18 17:48:33:134,-0.7565,-0.4567,10.1852,-0.7156,-0.3794,9.7731,-0.0044,-0.0071,0.0192
92895,47.127186,-1.912239,72.79,23.78,3.216,270.8,17 / 21,9290697,2019-08-18 17:48:33:234,-0.793,-0.4274,10.251,-0.7145,-0.3779,9.7733,0.0049,-0.0042,0.0153
92896,47.127186,-1.912239,72.79,23.78,3.216,270.8,17 / 21,9290797,2019-08-18 17:48:33:334,-0.6901,-0.3065,10.1439,-0.7141,-0.3752,9.7734,-0.0001,-0.0053,0.0124
92897,47.127186,-1.912239,72.79,23.78,3.216,270.8,17 / 21,9290897,2019-08-18 17:48:33:434,-0.6685,-0.3394,10.0834,-0.703,-0.3742,9.7743,-0.0025,-0.0144,0.0138
92898,47.127186,-1.912239,72.79,23.78,3.216,270.8,17 / 21,9290997,2019-08-18 17:48:33:534,-0.656,-0.1179,9.3113,-0.6992,-0.3731,9.7746,0.0016,0.0059,0.0216
92899,47.127186,-1.912239,72.79,23.78,3.216,270.8,16 / 19,9291096,2019-08-18 17:48:33:633,-0.9217,-0.237,9.7716,-0.712,-0.3596,9.7742,0.0058,0.0068,0.0262
92900,47.127186,-1.912239,72.79,23.78,3.216,270.8,16 / 19,9291197,2019-08-18 17:48:33:734,-0.6703,-0.0437,9.4418,-0.7142,-0.3548,9.7742,-0.0005,0.0017,0.0251
92901,47.127186,-1.912239,72.79,23.78,3.216,270.8,16 / 19,9291297,2019-08-18 17:48:33:834,-0.8834,-0.1993,9.5609,-0.7193,-0.3428,9.7742,-0.005,-0.0005,0.0251
92902,47.127186,-1.912239,72.79,23.78,3.216,270.8,16 / 19,9291397,2019-08-18 17:48:33:934,-0.6601,-0.0718,9.7818,-0.7217,-0.3411,9.7741,-0.0002,0.0077,0.0254
92903,47.127186,-1.912239,72.79,23.78,3.216,270.8,16 / 19,9291497,2019-08-18 17:48:34:034,-0.7948,-0.0766,9.5765,-0.7346,-0.3347,9.7734,-0.0102,0.0094,0.0246
92904,47.127186,-1.912239,72.79,23.78,3.216,270.8,16 / 19,9291597,2019-08-18 17:48:34:134,-0.7709,0.07,9.856,-0.7425,-0.3332,9.7728,-0.0021,0.0114,0.027
92905,47.127186,-1.912239,72.79,23.78,3.216,270.8,16 / 19,9291697,2019-08-18 17:48:34:234,-0.7523,-0.0323,9.7848,-0.748,-0.3285,9.7726,0.0026,-0.0096,0.0271
92906,47.127186,-1.912239,72.79,23.78,3.216,270.8,16 / 19,9291797,2019-08-18 17:48:34:334,-0.6057,0.0509,9.768,-0.7416,-0.3219,9.7733,0.0004,-0.0122,0.0268
92907,47.127186,-1.912239,72.79,23.78,3.216,270.8,16 / 19,9291897,2019-08-18 17:48:34:434,-0.7751,-0.1939,9.6938,-0.7253,-0.3081,9.7749,-0.0115,-0.0013,0.0215
92908,47.127186,-1.912239,72.79,23.78,3.216,270.8,16 / 19,9291997,2019-08-18 17:48:34:534,-0.3465,-0.2287,10.1942,-0.7212,-0.3177,9.7749,-0.0059,0.0018,0.0133
92909,47.127186,-1.912239,72.79,23.78,3.216,270.8,13 / 17,9292097,2019-08-18 17:48:34:634,-0.5321,-0.4585,9.6926,-0.7192,-0.3219,9.7749,-0.0001,0.0038,0.0115
92910,47.127186,-1.912239,72.79,23.78,3.216,270.8,13 / 17,9292197,2019-08-18 17:48:34:734,-0.4381,-0.243,9.6926,-0.7188,-0.3226,9.775,-0.0042,0.0044,0.0128
92911,47.127186,-1.912239,72.79,23.78,3.216,270.8,13 / 17,9292297,2019-08-18 17:48:34:834,-0.8565,-0.1532,9.6794,-0.7146,-0.3253,9.7752,0.0028,-0.0022,0.0139
92912,47.127186,-1.912239,72.79,23.78,3.216,270.8,13 / 17,9292397,2019-08-18 17:48:34:934,-0.4399,-0.3681,9.8207,-0.7023,-0.3218,9.7762,-0.0006,-0.0099,0.0156
92913,47.127186,-1.912239,72.79,23.78,3.216,270.8,13 / 17,9292497,2019-08-18 17:48:35:034,-0.456,-0.1706,9.6429,-0.6973,-0.3165,9.7767,0.0044,0.0013,0.0149
92914,47.127186,-1.912239,72.79,23.78,3.216,270.8,13 / 17,9292597,2019-08-18 17:48:35:134,-0.5482,-0.3639,10.0218,-0.6995,-0.312,9.7767,-0.004,0.0023,0.0156
92915,47.127186,-1.912239,72.79,23.78,3.216,270.8,13 / 17,9292697,2019-08-18 17:48:35:234,-0.5566,-0.0766,10.0278,-0.7006,-0.3117,9.7766,0.0015,0.002,0.0131
92916,47.127186,-1.912239,72.79,23.78,3.216,270.8,13 / 17,9292797,2019-08-18 17:48:35:334,-0.3974,-0.2807,9.5076,-0.6985,-0.3094,9.7769,0.0017,0.0029,0.0136
92917,47.127186,-1.912239,72.79,23.78,3.216,270.8,13 / 17,9292897,2019-08-18 17:48:35:434,-0.6452,-0.152,10.0607,-0.694,-0.3088,9.7772,-0.0036,-0.0002,0.0128
92918,47.127186,-1.912239,72.79,23.78,3.216,270.8,13 / 17,9292997,2019-08-18 17:48:35:534,-0.4584,-0.3807,9.8237,-0.6898,-0.311,9.7774,0.0008,-0.0067,0.0123
92919,47.127186,-1.912239,72.79,23.78,3.216,270.8,17 / 20,9293097,2019-08-18 17:48:35:634,-0.6991,-0.1167,9.8787,-0.6777,-0.3112,9.7783,-0.0026,-0.0167,0.0132
92920,47.127186,-1.912239,72.79,23.78,3.216,270.8,17 / 20,9293197,2019-08-18 17:48:35:734,-0.9684,-0.5937,9.8231,-0.6694,-0.3158,9.7787,-0.0071,-0.0044,0.014
92921,47.127186,-1.912239,72.79,23.78,3.216,270.8,17 / 20,9293297,2019-08-18 17:48:35:834,-1.0294,-0.5369,10.2576,-0.6715,-0.3233,9.7783,-0.005,0.0023,0.0142
92922,47.127186,-1.912239,72.79,23.78,3.216,270.8,17 / 20,9293397,2019-08-18 17:48:35:934,-0.5273,-0.6147,10.2947,-0.6749,-0.3379,9.7776,-0.0053,-0.0086,0.0128
92923,47.127186,-1.912239,72.79,23.78,3.216,270.8,17 / 20,9293497,2019-08-18 17:48:36:034,-1.1396,-0.4208,9.8877,-0.6708,-0.3438,9.7776,-0.0056,-0.0102,0.0122
92924,47.127186,-1.912239,72.79,23.78,3.216,270.8,17 / 20,9293597,2019-08-18 17:48:36:134,-0.7326,-0.2753,10.2055,-0.6696,-0.3534,9.7774,-0.003,0.0057,0.0137
92925,47.127186,-1.912239,72.79,23.78,3.216,270.8,17 / 20,9293697,2019-08-18 17:48:36:234,-1.0307,-0.5854,9.5394,-0.6775,-0.3578,9.7767,-0.0021,0.0083,0.016
92926,47.127186,-1.912239,72.79,23.78,3.216,270.8,17 / 20,9293797,2019-08-18 17:48:36:334,-0.9504,-0.568,10.1882,-0.691,-0.3602,9.7756,0.0055,-0.0021,0.0164
92927,47.127186,-1.912239,72.79,23.78,3.216,270.8,17 / 20,9293896,2019-08-18 17:48:36:433,-0.9044,-0.4585,9.7836,-0.6898,-0.3535,9.776,0.0167,-0.0088,0.0152
92928,47.127186,-1.912239,72.79,23.78,3.216,270.8,17 / 20,9293997,2019-08-18 17:48:36:534,-0.9289,-0.6015,10.2708,-0.6873,-0.3321,9.7769,0.0218,-0.0042,0.0155
92929,47.127186,-1.912239,72.79,23.78,3.216,270.8,18 / 21,9294097,2019-08-18 17:48:36:634,-0.7212,-0.41,9.3658,-0.6835,-0.3189,9.7776,0.0007,-0.0376,0.0138
92930,47.127186,-1.912239,72.79,23.78,3.216,270.8,18 / 21,9294197,2019-08-18 17:48:36:734,-0.0933,-0.1772,8.9576,-0.6795,-0.3374,9.7773,-0.0697,0.0105,0.0083
92931,47.127186,-1.912239,72.79,23.78,3.216,270.8,18 / 21,9294297,2019-08-18 17:48:36:834,-0.9181,-0.6327,8.1699,-0.6942,-0.3856,9.7744,-0.0289,0.0613,0.0142
92932,47.127186,-1.912239,72.79,23.78,3.216,270.8,18 / 21,9294397,2019-08-18 17:48:36:934,-0.7858,-0.158,9.5004,-0.7501,-0.3995,9.7698,0.0213,0.0073,0.019
92933,47.127186,-1.912239,72.79,23.78,3.216,270.8,18 / 21,9294498,2019-08-18 17:48:37:035,-1.0013,-0.3795,10.3426,-0.751,-0.382,9.7704,0.0345,-0.015,0.0198
92934,47.127186,-1.912239,72.79,23.78,3.216,270.8,18 / 21,9294597,2019-08-18 17:48:37:134,-0.8116,-0.2897,10.7939,-0.7229,-0.3362,9.7742,0.0186,-0.0216,0.0166
92935,47.127186,-1.912239,72.79,23.78,3.216,270.8,18 / 21,9294698,2019-08-18 17:48:37:235,-0.5398,-0.3089,10.3971,-0.7093,-0.328,9.7755,-0.0066,-0.0128,0.0137
92936,47.127186,-1.912239,72.79,23.78,3.216,270.8,18 / 21,9294797,2019-08-18 17:48:37:334,-0.5356,-0.0868,9.0515,-0.6957,-0.386,9.7743,-0.0828,0.0072,0.0117
92937,47.127186,-1.912239,72.79,23.78,3.216,270.8,18 / 21,9294897,2019-08-18 17:48:37:434,-0.392,0.1101,8.4356,-0.7071,-0.4304,9.7717,-0.0763,0.0262,0.0112
92938,47.127186,-1.912239,72.79,23.78,3.216,270.8,18 / 21,9294997,2019-08-18 17:48:37:534,-0.4171,-0.4244,9.4723,-0.727,-0.468,9.7685,0.006,0.0057,0.0183
92939,47.127186,-1.912239,72.79,23.78,3.216,270.8,18 / 21,9295096,2019-08-18 17:48:37:633,-0.4812,-0.2514,10.1391,-0.7225,-0.4543,9.7694,0.0289,-0.0056,0.0201
92940,47.127186,-1.912239,72.79,23.78,3.216,270.8,18 / 21,9295197,2019-08-18 17:48:37:734,-0.2813,-0.2257,11.5319,-0.7025,-0.4098,9.7729,0.0231,-0.0131,0.019
