,GPS LATITUDE (degrees), GPS LONGITUDE (degrees), GPS ALTITUDE (m), GPS SPEED (Kmh), GPS ACCURACY (m), GPS ORIENTATION (Â°),GPS SATELLITES IN RANGE, TIME SINCE START (ms), DATE (YYYY-MO-DD HH-MI-SS_SSS), ACCELEROMETER X (m/s²) , ACCELEROMETER Y (m/s²), ACCELEROMETER Z (m/s²), GRAVITY X (m/s²), GRAVITY Y (m/s²), GRAVITY Z (m/s²), GYROSCOPE Yaw (rad/s), GYROSCOPE Pitch (rad/s), GYROSCOPE Roll (rad/s), MAGNETIC FIELD X (Î¼T), MAGNETIC FIELD Y (Î¼T), MAGNETIC FIELD Z (Î¼T), ORIENTATION (Yaw) (Â°), ORIENTATION (Pitch) (Â°), ORIENTATION (Roll ) (Â°)
10655,52.554695,-1.463064,0,0,6,0,22 / 23,1065518,2020-01-08 09:55:41:315,0.0375,-0.0963,9.8771,-0.0099,0.0028,9.8066,0.0112,0.0428,-0.0646,1.31,-28.5,32.69,344.66,-86.33,163.78
10656,52.554695,-1.463064,0,0,6,0,22 / 23,1065619,2020-01-08 09:55:41:416,-0.3254,0.2611,9.7393,-0.0047,0.0015,9.8066,0.0016,0.0405,-0.0389,0.63,-28.31,31.81,343.92,-86.31,163.06
10657,52.554695,-1.463064,0,0,6,0,22 / 23,1065719,2020-01-08 09:55:41:516,0.4298,0.0856,9.9481,-0.0033,0.003,9.8066,0.0094,0.053,-0.0014,1.06,-28.31,32.56,344.34,-86.33,163.47
10658,52.554695,-1.463064,0,0,6,0,22 / 23,1065819,2020-01-08 09:55:41:616,-0.2802,-0.0263,9.8147,-0.0029,0.0028,9.8066,0.0158,0.0345,-0.063,0.88,-28.37,32.63,344.31,-86.31,163.45
10659,52.554695,-1.463064,0,0,6,0,22 / 23,1065919,2020-01-08 09:55:41:716,-0.2078,-0.0191,9.7049,-0.0069,0.0048,9.8066,0.0128,0.0306,-0.0295,0.88,-28.37,32.31,343.91,-86.34,163.04
10660,52.554695,-1.463064,0,0,6,0,22 / 23,1066019,2020-01-08 09:55:41:816,-0.2175,0.0854,9.7823,-0.0037,0.0002,9.8066,0.0159,0.0156,0.0227,0.94,-28.56,32.19,344.23,-86.32,163.38
10661,52.554695,-1.463064,0,0,6,0,22 / 23,1066119,2020-01-08 09:55:41:916,0.1452,-0.0191,9.8431,-0.0067,0.0018,9.8066,-0.0197,-0.0293,0.0045,1.19,-28.62,32.88,343.58,-86.31,162.79
10662,52.554695,-1.463064,0,0,6,0,22 / 23,1066221,2020-01-08 09:55:42:018,0.3825,-0.244,9.881,0.0079,-0.0024,9.8066,-0.0095,-0.0252,0.0346,0.69,-28.44,32.63,343.5,-86.31,162.68
10663,52.554695,-1.463064,0,0,6,0,22 / 23,1066319,2020-01-08 09:55:42:116,-0.4793,0.3149,9.7444,-0.0073,0.0016,9.8066,-0.0156,-0.0398,0.0114,1.13,-28.81,32.25,344.27,-86.33,163.41
10664,52.554695,-1.463064,0,0,6,0,22 / 23,1066419,2020-01-08 09:55:42:216,0.3301,-0.4353,9.9091,0.0036,-0.0049,9.8066,-0.0193,-0.0535,0.0289,0.81,-28.81,32.56,343.59,-86.34,162.8
10665,52.554695,-1.463064,0,0,6,0,22 / 23,1066519,2020-01-08 09:55:42:316,-0.692,0.2822,9.789,0.0076,-0.0023,9.8066,-0.0146,-0.038,0.072,0.81,-28.5,32.44,344.47,-86.34,163.57
10666,52.554695,-1.463064,0,0,6,0,22 / 23,1066619,2020-01-08 09:55:42:416,0.2693,0.031,9.796,0.0065,-0.0038,9.8066,-0.0155,-0.0139,0.014,0.81,-28.87,32.25,344.52,-86.35,163.64
10667,52.554695,-1.463064,0,0,6,0,22 / 23,1066718,2020-01-08 09:55:42:515,0.1151,-0.231,9.812,0.0052,-0.0043,9.8066,-0.0014,-0.0193,-0.0218,0.44,-28.31,32.31,341.85,-86.31,162.89
10668,52.554695,-1.463064,0,0,6,0,22 / 23,1066819,2020-01-08 09:55:42:616,0.5578,-0.0505,9.9419,0.0117,-0.0022,9.8066,0.0051,-0.0007,0.0331,1.06,-28.44,32.0,344.45,-86.35,163.54
10669,52.554695,-1.463064,0,0,6,0,22 / 23,1066919,2020-01-08 09:55:42:716,-0.3358,0.0872,9.7101,0.0051,-0.004,9.8066,-0.0038,0.0135,0.0269,1.06,-28.37,32.56,344.09,-86.33,163.24
10670,52.554695,-1.463064,0,0,6,0,22 / 23,1067019,2020-01-08 09:55:42:816,-0.3351,-0.1952,9.8715,0.0027,0.0005,9.8066,-0.0003,0.014,-0.0388,0.75,-28.94,31.88,343.85,-86.35,163.02
10671,52.554695,-1.463064,0,0,6,0,21 / 23,1067119,2020-01-08 09:55:42:916,-0.0582,-0.2636,9.932,0.0099,-0.0029,9.8066,0.0046,0.0341,-0.0252,0.5,-28.44,32.19,343.45,-86.34,162.61
10672,52.554695,-1.463064,0,0,6,0,21 / 23,1067219,2020-01-08 09:55:43:016,-0.4934,-0.0517,9.7611,-0.0032,0.0019,9.8066,0.0033,0.0429,-0.05,0.44,-28.87,32.56,341.52,-86.34,162.58
10673,52.554695,-1.463064,0,0,6,0,21 / 23,1067319,2020-01-08 09:55:43:116,-0.28,-0.0085,9.9374,0.0084,0.0014,9.8066,-0.0019,0.0385,-0.0565,0.69,-28.94,32.25,342.91,-86.36,162.12
10674,52.554695,-1.463064,0,0,6,0,21 / 23,1067419,2020-01-08 09:55:43:216,-0.1923,-0.085,9.8506,-0.0042,0.0052,9.8066,0.018,0.0529,-0.0046,1.94,-28.62,32.0,345.54,-86.34,162.81
10675,52.554695,-1.463064,0,0,6,0,21 / 23,1067519,2020-01-08 09:55:43:316,0.0163,-0.0881,9.8611,-0.0037,0.0008,9.8066,0.0067,0.0615,-0.0356,1.06,-28.62,32.5,343.44,-86.36,162.65
10676,52.554695,-1.463064,0,0,6,0,21 / 23,1067618,2020-01-08 09:55:43:415,-0.174,-0.2233,9.7312,-0.0041,0.0026,9.8066,0.001,0.0307,-0.0225,1.31,-29.0,32.44,343.07,-86.34,162.28
10677,52.554695,-1.463064,0,0,6,0,21 / 23,1067719,2020-01-08 09:55:43:516,0.4771,-0.0271,9.9364,-0.006,0.003,9.8066,0.0057,0.0347,0.037,0.81,-28.0,31.94,343.96,-86.37,163.07
10678,52.554695,-1.463064,0,0,6,0,21 / 23,1067819,2020-01-08 09:55:43:616,0.1415,-0.1049,9.8328,-0.0153,0.0023,9.8066,-0.0031,-0.0049,0.0005,1.0,-28.44,32.13,344.12,-86.38,163.23
10679,52.554695,-1.463064,0,0,6,0,21 / 23,1067918,2020-01-08 09:55:43:715,0.2341,-0.2597,9.9949,-0.0014,0.0022,9.8066,0.0005,-0.02,-0.02,0.94,-28.56,31.94,343.35,-86.36,162.54
10680,52.554695,-1.463064,0,0,6,0,21 / 23,1068018,2020-01-08 09:55:43:815,-0.5376,0.0355,9.7715,-0.0017,0.0033,9.8066,-0.0165,-0.043,0.0421,1.31,-28.31,32.06,343.69,-86.35,162.83
10681,52.554695,-1.463064,0,0,6,0,22 / 23,1068119,2020-01-08 09:55:43:916,0.2431,0.1733,9.8636,-0.012,0.0042,9.8065,-0.0212,-0.0517,0.0542,1.25,-27.81,32.5,344.06,-86.37,163.19
10682,52.554695,-1.463064,0,0,6,0,22 / 23,1068219,2020-01-08 09:55:44:016,0.1807,-0.4198,9.9689,-0.0031,0.0018,9.8066,-0.0289,-0.0509,0.0233,0.94,-28.56,32.56,343.41,-86.35,162.63
10683,52.554695,-1.463064,0,0,6,0,22 / 23,1068318,2020-01-08 09:55:44:115,0.2523,0.2739,9.8722,-0.0068,0.0024,9.8066,-0.0182,-0.0529,0.0256,0.94,-28.62,33.0,343.83,-86.37,163.02
10684,52.554695,-1.463064,0,0,6,0,22 / 23,1068418,2020-01-08 09:55:44:215,-0.3956,0.481,9.6942,0.0033,-0.001,9.8065,-0.0267,-0.0397,0.0274,1.19,-28.44,32.88,343.91,-86.36,163.06
10685,52.554695,-1.463064,0,0,6,0,22 / 23,1068519,2020-01-08 09:55:44:316,-0.0729,-0.2599,9.8293,-0.0104,0.0047,9.8066,-0.023,-0.0354,0.0437,1.5,-28.44,32.25,346.11,-86.38,163.31
10686,52.554695,-1.463064,0,0,6,0,22 / 23,1068619,2020-01-08 09:55:44:416,0.2722,-0.1783,10.0135,-0.0019,-0.001,9.8066,-0.0013,-0.0033,0.0179,0.81,-28.81,32.19,343.82,-86.35,162.98
10687,52.554695,-1.463064,0,0,6,0,22 / 23,1068718,2020-01-08 09:55:44:515,-0.0784,0.0665,9.8816,0.0003,0.0029,9.8066,0.0032,0.0103,-0.016,0.94,-28.25,32.13,343.68,-86.37,162.81
10688,52.554695,-1.463064,0,0,6,0,22 / 23,1068819,2020-01-08 09:55:44:616,-0.0819,-0.0617,9.8495,0.0084,-0.0042,9.8066,0.0045,0.0274,-0.0051,0.63,-28.56,32.25,344.44,-86.39,163.56
10689,52.554695,-1.463064,0,0,6,0,22 / 23,1068919,2020-01-08 09:55:44:716,-0.3372,-0.1475,9.7338,-0.0032,-0.0002,9.8066,0.0123,0.0311,0.0002,0.81,-28.56,32.63,344.03,-86.37,163.2
10690,52.554695,-1.463064,0,0,6,0,22 / 23,1069019,2020-01-08 09:55:44:816,0.2213,0.3413,9.8365,0.007,-0.0052,9.8066,0.0225,0.0451,-0.0404,0.81,-28.31,32.31,344.05,-86.39,163.16
10691,52.554695,-1.463064,0,0,6,0,21 / 23,1069119,2020-01-08 09:55:44:916,-0.4374,-0.1503,9.8059,-0.0124,0.0039,9.8066,0.0102,0.0478,-0.0623,1.0,-28.31,32.44,344.33,-86.39,163.42
10692,52.554695,-1.463064,0,0,6,0,21 / 23,1069218,2020-01-08 09:55:45:015,0.3897,-0.0635,9.9263,-0.0041,0.0039,9.8066,0.0019,0.0479,-0.0459,0.69,-28.62,32.13,343.67,-86.37,162.83
10693,52.554695,-1.463064,0,0,6,0,21 / 23,1069319,2020-01-08 09:55:45:116,0.0188,0.1477,9.829,-0.0031,0.0009,9.8066,0.0063,0.0404,-0.0252,0.69,-28.44,32.75,343.54,-86.38,162.7
10694,52.554695,-1.463064,0,0,6,0,21 / 23,1069418,2020-01-08 09:55:45:215,0.6379,-0.5271,10.0202,-0.0117,0.0054,9.8066,0.0081,0.0446,-0.043,1.38,-28.37,32.88,343.18,-86.36,162.37
10695,52.554695,-1.463064,0,0,6,0,21 / 23,1069519,2020-01-08 09:55:45:316,-0.4316,0.2535,9.7802,-0.0088,0.0019,9.8066,0.0025,0.0329,-0.0373,0.75,-28.0,32.56,344.06,-86.4,163.19
10696,52.554695,-1.463064,0,0,6,0,21 / 23,1069619,2020-01-08 09:55:45:416,0.0072,0.2751,9.858,-0.0042,0.005,9.8066,-0.0005,0.0163,-0.0041,1.0,-28.94,32.81,343.81,-86.4,162.98
10697,52.554695,-1.463064,0,0,6,0,21 / 23,1069719,2020-01-08 09:55:45:516,-0.0387,0.3504,9.7137,0.0017,0.0007,9.8066,0.0107,0.0157,0.0051,0.56,-29.06,32.75,343.69,-86.4,162.88
10698,52.554695,-1.463064,0,0,6,0,21 / 23,1069818,2020-01-08 09:55:45:615,-0.5784,-0.1325,9.777,-0.0143,0.0042,9.8066,0.0085,0.0065,-0.0184,1.38,-29.0,32.19,344.42,-86.4,163.53
10699,52.554695,-1.463064,0,0,6,0,21 / 23,1069919,2020-01-08 09:55:45:716,0.0361,-0.2906,9.9231,-0.0033,0.0026,9.8066,0.0026,-0.0002,-0.0054,0.75,-28.56,32.31,343.65,-86.37,162.82
10700,52.554695,-1.463064,0,0,6,0,21 / 23,1070019,2020-01-08 09:55:45:816,0.2247,0.0424,9.9837,-0.0005,0.0042,9.8066,-0.0076,-0.0057,0.0377,0.88,-28.94,32.56,343.88,-86.4,163.05
10701,52.554695,-1.463064,0,0,6,0,22 / 23,1070118,2020-01-08 09:55:45:915,0.0444,0.006,9.8573,0.0026,-0.0014,9.8066,-0.0135,-0.0275,0.0341,0.88,-28.19,32.44,343.92,-86.39,163.03
10702,52.554695,-1.463064,0,0,6,0,22 / 23,1070218,2020-01-08 09:55:46:015,-0.3124,-0.2042,9.7252,-0.0081,0.0026,9.8066,-0.0113,-0.0307,0.0071,1.0,-28.25,32.31,344.23,-86.39,163.33
10703,52.554695,-1.463064,0,0,6,0,22 / 23,1070318,2020-01-08 09:55:46:115,0.3551,-0.4076,10.0408,0.0067,-0.0042,9.8066,-0.0201,-0.045,0.0282,1.5,-28.62,32.63,345.78,-86.38,163.12
10704,52.554695,-1.463064,0,0,6,0,22 / 23,1070418,2020-01-08 09:55:46:215,0.0524,0.2734,9.8199,-0.0124,0.0069,9.8066,-0.0345,-0.0484,0.0608,1.06,-28.5,32.25,343.17,-86.33,162.34
10705,52.554695,-1.463064,0,0,6,0,22 / 23,1070519,2020-01-08 09:55:46:316,0.1315,-0.412,9.9663,0.0065,-0.0015,9.8066,-0.025,-0.041,0.0374,1.13,-28.0,33.0,344.03,-86.37,163.17
10706,52.554695,-1.463064,0,0,6,0,22 / 23,1070619,2020-01-08 09:55:46:416,-0.1932,-0.2288,9.7178,-0.0013,0.0031,9.8066,-0.0139,-0.0364,0.0034,0.94,-28.06,32.44,343.94,-86.36,163.06
10707,52.554695,-1.463064,0,0,6,0,22 / 23,1070719,2020-01-08 09:55:46:516,0.6449,-0.3995,10.0,-0.0055,0.0032,9.8066,-0.0112,-0.0322,0.0151,1.06,-28.44,32.69,344.03,-86.38,163.17
10708,52.554695,-1.463064,0,0,6,0,22 / 23,1070819,2020-01-08 09:55:46:616,-0.5751,-0.0582,9.7445,-0.0134,0.0048,9.8066,-0.0046,-0.021,0.0449,1.13,-28.62,32.81,344.26,-86.39,163.41
10709,52.554695,-1.463064,0,0,6,0,22 / 23,1070919,2020-01-08 09:55:46:716,0.1478,0.2743,9.8733,0.0025,0.0004,9.8066,0.0022,0.0064,0.0075,1.63,-28.56,32.5,345.74,-86.37,163.09
10710,52.554695,-1.463064,0,0,6,0,22 / 23,1071019,2020-01-08 09:55:46:816,-0.0344,0.2396,9.7806,-0.0054,0.0026,9.8065,0.0053,0.0218,-0.0229,0.94,-28.75,32.56,344.01,-86.37,163.19
10711,52.554695,-1.463064,0,0,6,0,22 / 23,1071118,2020-01-08 09:55:46:915,0.5029,-0.4694,10.0273,-0.0094,0.0037,9.8066,0.0156,0.0336,-0.015,1.13,-28.37,32.88,344.49,-86.39,163.6
10712,52.554695,-1.463064,0,0,6,0,22 / 23,1071219,2020-01-08 09:55:47:016,-0.3485,0.3321,9.7534,0.0063,-0.0009,9.8065,0.013,0.0319,0.0004,1.06,-28.37,32.13,343.81,-86.36,162.94
10713,52.554695,-1.463064,0,0,6,0,22 / 23,1071319,2020-01-08 09:55:47:116,-0.2594,0.0097,9.7749,-0.0049,0.004,9.8065,0.0114,0.0457,-0.0332,0.75,-28.69,32.38,344.47,-86.38,163.59
10714,52.554695,-1.463064,0,0,6,0,22 / 23,1071419,2020-01-08 09:55:47:216,-0.5267,0.0778,9.7597,-0.0003,0.0003,9.8066,0.0191,0.05,-0.0555,1.0,-29.19,32.06,344.33,-86.37,163.45
10715,52.554695,-1.463064,0,0,6,0,22 / 23,1071519,2020-01-08 09:55:47:316,0.4314,-0.0774,9.9386,-0.0121,0.0032,9.8066,0.0099,0.0411,-0.0536,1.13,-29.0,32.75,344.74,-86.38,163.87
10716,52.554695,-1.463064,0,0,6,0,22 / 23,1071619,2020-01-08 09:55:47:416,-0.292,0.1982,9.7776,0.0048,-0.0039,9.8066,-0.0012,0.0366,-0.0253,1.0,-28.94,32.94,344.04,-86.34,163.22
10717,52.554695,-1.463064,0,0,6,0,22 / 23,1071718,2020-01-08 09:55:47:515,0.2227,0.0762,9.9249,-0.002,0.0042,9.8066,0.0046,0.0456,-0.0117,1.25,-28.81,32.69,344.1,-86.38,163.26
10718,52.554695,-1.463064,0,0,6,0,22 / 23,1071818,2020-01-08 09:55:47:615,-0.0146,-0.0567,9.9133,0.0021,-0.0003,9.8066,0.0084,0.0283,-0.0537,1.38,-28.25,32.5,344.33,-86.38,163.45
10719,52.554695,-1.463064,0,0,6,0,22 / 23,1071919,2020-01-08 09:55:47:716,-0.2172,-0.1093,9.6871,-0.0057,0.0036,9.8065,0.0082,0.0217,-0.0089,1.38,-28.25,32.13,343.81,-86.39,162.93
10720,52.554695,-1.463064,0,0,6,0,22 / 23,1072019,2020-01-08 09:55:47:816,0.4544,-0.38,9.9795,0.011,-0.0038,9.8066,-0.0002,0.0234,0.0317,1.13,-28.44,32.25,344.17,-86.39,163.27
10721,52.554695,-1.463064,0,0,6,0,22 / 23,1072119,2020-01-08 09:55:47:916,-0.5797,-0.0188,9.7711,-0.0051,0.0007,9.8066,-0.0032,0.0061,-0.0032,1.06,-28.5,32.75,343.53,-86.37,162.7
10722,52.554695,-1.463064,0,0,6,0,22 / 23,1072219,2020-01-08 09:55:48:016,0.2898,-0.1581,9.9812,0.0031,-0.0047,9.8066,-0.0024,0.0064,-0.0084,1.06,-28.44,32.38,343.8,-86.39,162.93
10723,52.554695,-1.463064,0,0,6,0,22 / 23,1072319,2020-01-08 09:55:48:116,-0.2966,0.1741,9.7887,0.0024,-0.0014,9.8066,-0.0149,-0.0157,0.0295,1.0,-28.12,32.25,343.47,-86.37,162.61
10724,52.554695,-1.463064,0,0,6,0,22 / 23,1072419,2020-01-08 09:55:48:216,0.5245,-0.5161,9.9876,0.0112,-0.004,9.8066,-0.0138,-0.0249,0.0457,0.75,-28.56,32.31,343.99,-86.39,163.14
10725,52.554695,-1.463064,0,0,6,0,22 / 23,1072519,2020-01-08 09:55:48:316,-0.4103,0.2452,9.7261,-0.0015,-0.0001,9.8066,-0.0074,-0.0363,0.0187,0.69,-28.37,32.38,343.61,-86.39,162.74
10726,52.554695,-1.463064,0,0,6,0,22 / 23,1072619,2020-01-08 09:55:48:416,0.2042,-0.1512,9.8968,0.0026,-0.0046,9.8066,-0.0153,-0.038,0.0133,1.06,-28.75,32.25,343.61,-86.38,162.77
10727,52.554695,-1.463064,0,0,6,0,22 / 23,1072718,2020-01-08 09:55:48:515,-0.4543,0.0802,9.753,0.0045,-0.0006,9.8066,-0.0241,-0.035,0.0314,1.06,-28.19,32.44,343.45,-86.38,162.6
10728,52.554695,-1.463064,0,0,6,0,22 / 23,1072819,2020-01-08 09:55:48:616,0.4513,-0.4552,9.9891,0.0101,-0.0055,9.8066,-0.0288,-0.0321,0.0387,0.69,-27.94,31.69,344.06,-86.39,163.17
10729,52.554695,-1.463064,0,0,6,0,22 / 23,1072919,2020-01-08 09:55:48:716,-0.1383,0.2016,9.7857,0.0006,-0.0022,9.8066,-0.0204,-0.0348,0.0145,1.0,-28.31,32.5,343.55,-86.38,162.72
10730,52.554695,-1.463064,0,0,6,0,22 / 23,1073019,2020-01-08 09:55:48:816,0.4547,-0.268,10.0019,0.0009,-0.005,9.8066,-0.0243,-0.0467,0.0069,0.63,-28.37,32.25,343.31,-86.38,162.46
10731,52.554695,-1.463064,0,0,6,0,21 / 23,1073118,2020-01-08 09:55:48:915,-0.5117,-0.0315,9.7187,0.0119,-0.0053,9.8066,-0.0201,-0.0335,0.0417,1.25,-28.19,32.0,343.17,-86.36,162.34
10732,52.554695,-1.463064,0,0,6,0,21 / 23,1073219,2020-01-08 09:55:49:016,0.1812,-0.2468,9.9567,0.0057,-0.0029,9.8066,-0.0123,-0.0144,0.0119,1.06,-28.87,32.44,344.0,-86.38,163.15
10733,52.554695,-1.463064,0,0,6,0,21 / 23,1073319,2020-01-08 09:55:49:116,-0.0452,0.0273,9.7818,0.0047,-0.0064,9.8066,-0.0148,-0.0223,-0.0309,0.44,-29.25,31.81,341.39,-86.35,162.48
10734,52.554695,-1.463064,0,0,6,0,21 / 23,1073418,2020-01-08 09:55:49:215,-0.1492,0.298,9.7462,0.0081,-0.0026,9.8066,-0.0068,-0.0005,0.0343,0.75,-29.06,32.38,343.15,-86.35,162.35
10735,52.554695,-1.463064,0,0,6,0,21 / 23,1073518,2020-01-08 09:55:49:315,-0.1699,-0.2547,9.7203,0.0031,-0.0041,9.8066,-0.0001,0.0014,0.0269,0.94,-28.75,31.94,344.11,-86.39,163.25
10736,52.554695,-1.463064,0,0,6,0,21 / 23,1073619,2020-01-08 09:55:49:416,-0.0186,0.1274,9.9876,-0.0014,-0.0022,9.8066,0.0073,0.0249,-0.0396,0.88,-28.31,32.0,343.45,-86.37,162.6
10737,52.554695,-1.463064,0,0,6,0,21 / 23,1073718,2020-01-08 09:55:49:515,-0.2684,0.1446,9.7984,0.0086,-0.0039,9.8066,0.0039,0.0206,-0.0257,0.94,-28.69,32.75,343.1,-86.35,162.33
10738,52.554695,-1.463064,0,0,6,0,21 / 23,1073819,2020-01-08 09:55:49:616,0.078,0.2251,9.728,0.0053,-0.0012,9.8066,0.0176,0.0323,0.0155,1.0,-28.0,32.38,343.9,-86.38,163.02
10739,52.554695,-1.463064,0,0,6,0,21 / 23,1073919,2020-01-08 09:55:49:716,-0.1134,-0.1179,9.7573,0.0013,-0.0065,9.8066,0.0326,0.0297,-0.0149,0.94,-28.5,31.5,343.59,-86.34,162.74
10740,52.554695,-1.463064,0,0,6,0,21 / 23,1074018,2020-01-08 09:55:49:815,0.3758,-0.2964,9.8967,-0.0027,0.0006,9.8065,0.0349,0.0454,-0.0518,0.5,-28.0,32.44,343.1,-86.36,162.27
10741,52.554695,-1.463064,0,0,6,0,21 / 23,1074118,2020-01-08 09:55:49:915,-0.1875,0.2318,9.9163,0.0089,-0.0047,9.8066,0.0221,0.043,-0.0317,0.5,-28.56,31.81,343.29,-86.33,162.48
10742,52.554695,-1.463064,0,0,6,0,21 / 23,1074219,2020-01-08 09:55:50:016,-0.117,0.3966,9.7053,0.0004,0.0028,9.8066,0.0116,0.0423,-0.0117,0.88,-28.12,32.5,343.47,-86.37,162.64
10743,52.554695,-1.463064,0,0,6,0,21 / 23,1074319,2020-01-08 09:55:50:116,0.4541,-0.5082,9.9687,0.0026,-0.0039,9.8066,0.0153,0.0325,-0.0284,0.25,-28.87,32.69,341.43,-86.34,162.49
10744,52.554695,-1.463064,0,0,6,0,21 / 23,1074418,2020-01-08 09:55:50:215,0.2134,0.1614,9.965,-0.004,0.0005,9.8066,0.0081,0.0319,-0.0463,1.25,-28.75,32.06,343.26,-86.34,162.45
10745,52.554695,-1.463064,0,0,6,0,21 / 23,1074519,2020-01-08 09:55:50:316,-0.0461,0.1259,9.8474,0.0058,-0.0026,9.8066,-0.0011,0.0236,-0.0407,0.69,-28.19,32.25,343.51,-86.34,162.66
10746,52.554695,-1.463064,0,0,6,0,21 / 23,1074619,2020-01-08 09:55:50:416,-0.1863,-0.2699,9.7336,-0.0026,0.0045,9.8066,0.0054,0.0194,-0.0022,1.0,-28.25,32.56,343.86,-86.37,163.01
10747,52.554695,-1.463064,0,0,6,0,21 / 23,1074719,2020-01-08 09:55:50:516,0.1017,0.2309,9.8729,0.0017,-0.0024,9.8066,-0.0008,0.0249,-0.0209,0.88,-28.25,32.19,343.39,-86.35,162.54
10748,52.554695,-1.463064,0,0,6,0,21 / 23,1074819,2020-01-08 09:55:50:616,0.0171,0.3364,9.7759,-0.0018,0.0048,9.8066,-0.004,0.0245,-0.0202,0.56,-28.44,31.88,343.62,-86.34,162.76
10749,52.554695,-1.463064,0,0,6,0,21 / 23,1074919,2020-01-08 09:55:50:716,0.282,-0.4666,9.9814,0.0009,0.0001,9.8066,-0.002,0.0241,-0.0014,0.69,-28.5,32.0,343.56,-86.38,162.69
10750,52.554695,-1.463064,0,0,6,0,21 / 23,1075019,2020-01-08 09:55:50:816,-0.4511,-0.1432,9.7275,-0.0092,0.0053,9.8066,-0.003,0.0053,0.0172,0.31,-28.12,32.25,341.46,-86.34,162.52
10751,52.554695,-1.463064,0,0,6,0,21 / 23,1075119,2020-01-08 09:55:50:916,0.3625,-0.447,9.9856,0.0002,0.0022,9.8066,0.0011,0.0077,0.0123,1.0,-28.25,32.0,343.57,-86.37,162.71
10752,52.554695,-1.463064,0,0,6,0,21 / 23,1075219,2020-01-08 09:55:51:016,-0.1244,0.0693,9.8724,-0.0027,0.0019,9.8066,-0.0071,-0.0107,-0.0085,1.13,-28.37,32.75,343.5,-86.36,162.67
10753,52.554695,-1.463064,0,0,6,0,21 / 23,1075319,2020-01-08 09:55:51:116,0.405,-0.3311,9.9519,-0.0045,0.0041,9.8066,-0.0133,-0.0099,0.0188,0.69,-28.25,32.06,343.95,-86.38,163.06
10754,52.554695,-1.463064,0,0,6,0,21 / 23,1075419,2020-01-08 09:55:51:216,-0.5917,0.0188,9.8035,-0.0133,0.0042,9.8066,-0.0204,-0.0221,0.0507,0.81,-28.81,32.31,343.3,-86.35,162.49
10755,52.554695,-1.463064,0,0,6,0,21 / 23,1075518,2020-01-08 09:55:51:315,0.1417,0.3339,9.7725,0.0053,-0.0039,9.8066,-0.0084,-0.0345,0.0135,0.81,-28.81,32.5,344.18,-86.39,163.33
10756,52.554695,-1.463064,0,0,6,0,21 / 23,1075619,2020-01-08 09:55:51:416,0.1377,0.2121,9.8085,0.0036,-0.0031,9.8066,-0.017,-0.047,0.0113,0.81,-28.62,32.31,343.61,-86.36,162.78
10757,52.554695,-1.463064,0,0,6,0,21 / 23,1075719,2020-01-08 09:55:51:516,-0.177,0.4022,9.7921,0.008,-0.005,9.8065,-0.0206,-0.0533,0.0612,0.94,-28.44,32.56,343.29,-86.34,162.48
10758,52.554695,-1.463064,0,0,6,0,21 / 23,1075818,2020-01-08 09:55:51:615,-0.261,-0.1955,9.718,0.0068,-0.0043,9.8065,-0.0167,-0.0321,0.0356,1.13,-28.81,32.81,344.25,-86.39,163.4
10759,52.554695,-1.463064,0,0,6,0,21 / 23,1075919,2020-01-08 09:55:51:716,0.0006,-0.1293,9.9632,-0.0026,-0.0015,9.8066,-0.0229,-0.0258,-0.011,0.88,-28.69,32.69,343.93,-86.35,163.11
10760,52.554695,-1.463064,0,0,6,0,21 / 23,1076018,2020-01-08 09:55:51:815,-0.266,-0.1245,9.8053,0.0099,-0.003,9.8066,-0.0177,-0.0236,0.016,1.0,-28.62,31.94,343.33,-86.35,162.52
10761,52.554695,-1.463064,0,0,6,0,22 / 23,1076119,2020-01-08 09:55:51:916,0.2637,-0.2155,9.8587,0.0081,-0.0011,9.8066,-0.0105,0.0003,0.0264,1.0,-28.44,32.56,344.17,-86.37,163.3
10762,52.554695,-1.463064,0,0,6,0,22 / 23,1076219,2020-01-08 09:55:52:016,0.1493,0.1762,9.9232,-0.0025,-0.0036,9.8066,-0.0133,-0.0027,-0.0302,1.06,-28.25,32.5,343.97,-86.36,163.12
10763,52.554695,-1.463064,0,0,6,0,22 / 23,1076319,2020-01-08 09:55:52:116,-0.5106,0.2953,9.8229,-0.0039,-0.0026,9.8066,-0.0223,-0.0091,0.0027,0.75,-29.0,31.88,343.19,-86.37,162.38
10764,52.554695,-1.463064,0,0,6,0,22 / 23,1076419,2020-01-08 09:55:52:216,-0.315,-0.2456,9.9201,0.0117,-0.0016,9.8066,-0.0107,-0.0008,0.057,1.0,-28.56,32.19,343.42,-86.38,162.6
10765,52.554695,-1.463064,0,0,6,0,22 / 23,1076519,2020-01-08 09:55:52:316,-0.2191,-0.1779,9.9518,-0.0047,-0.0021,9.8066,-0.0091,-0.0015,-0.0461,1.5,-28.81,32.31,345.92,-86.39,163.16
10766,52.554695,-1.463064,0,0,6,0,22 / 23,1076619,2020-01-08 09:55:52:416,0.3323,0.2358,9.7422,0.0052,-0.0039,9.8066,-0.0115,-0.0105,-0.063,0.63,-28.5,31.94,343.89,-86.4,163.01
10767,52.554695,-1.463064,0,0,6,0,22 / 23,1076719,2020-01-08 09:55:52:516,0.2105,-0.3357,9.9374,0.0103,-0.0006,9.8066,-0.0035,-0.0045,0.0567,0.63,-28.81,32.69,344.46,-86.39,163.6
10768,52.554695,-1.463064,0,0,6,0,22 / 23,1076818,2020-01-08 09:55:52:615,0.1693,-0.1626,9.7462,-0.0041,-0.0006,9.8066,-0.0073,-0.0047,0.0259,1.19,-27.87,31.38,344.49,-86.39,163.54
10769,52.554695,-1.463064,0,0,6,0,22 / 23,1076919,2020-01-08 09:55:52:716,-0.0999,-0.1463,9.9404,-0.0063,-0.0017,9.8066,-0.0049,0.005,-0.0489,1.06,-28.31,32.31,343.5,-86.37,162.64
10770,52.554695,-1.463064,0,0,6,0,22 / 23,1077019,2020-01-08 09:55:52:816,-0.0721,0.2595,9.8318,0.0098,-0.002,9.8066,0.0029,-0.0029,-0.0012,1.06,-28.12,32.38,343.61,-86.36,162.75
10771,52.554695,-1.463064,0,0,6,0,22 / 23,1077119,2020-01-08 09:55:52:916,0.1629,0.3379,9.7303,0.0061,-0.0024,9.8066,0.0018,0.0048,0.0298,0.81,-28.56,32.25,344.11,-86.38,163.25
10772,52.554695,-1.463064,0,0,6,0,22 / 23,1077218,2020-01-08 09:55:53:015,-0.0636,-0.3154,9.8069,-0.002,-0.0014,9.8066,0.0045,0.0118,-0.011,0.63,-28.31,32.75,344.1,-86.38,163.23
10773,52.554695,-1.463064,0,0,6,0,22 / 23,1077319,2020-01-08 09:55:53:116,0.3725,-0.4079,9.9873,0.0023,-0.0025,9.8066,0.0173,0.0197,-0.0234,0.81,-28.5,32.75,344.18,-86.39,163.3
10774,52.554695,-1.463064,0,0,6,0,22 / 23,1077419,2020-01-08 09:55:53:216,-0.3864,0.2373,9.8124,0.0073,-0.0052,9.8065,0.0254,0.0183,-0.0093,0.69,-28.06,32.38,344.84,-86.4,163.9
10775,52.554695,-1.463064,0,0,6,0,22 / 23,1077519,2020-01-08 09:55:53:316,-0.0388,0.096,9.7163,0.0009,0.0008,9.8066,0.0206,0.0344,-0.0103,0.88,-28.75,32.38,344.3,-86.38,163.43
10776,52.554695,-1.463064,0,0,6,0,22 / 23,1077619,2020-01-08 09:55:53:416,0.2875,-0.1912,9.8995,0.0048,-0.0028,9.8066,0.0194,0.0355,-0.0372,1.63,-28.44,32.38,346.16,-86.39,163.36
10777,52.554695,-1.463064,0,0,6,0,22 / 23,1077719,2020-01-08 09:55:53:516,-0.2518,-0.0453,9.7469,0.003,0.0003,9.8066,0.0165,0.0404,-0.0381,1.06,-28.56,32.25,344.09,-86.38,163.23
10778,52.554695,-1.463064,0,0,6,0,22 / 23,1077819,2020-01-08 09:55:53:616,0.1714,-0.3454,10.0131,0.0053,-0.0039,9.8066,0.0058,0.0384,-0.0184,0.94,-28.5,32.63,344.01,-86.36,163.16
10779,52.554695,-1.463064,0,0,6,0,22 / 23,1077918,2020-01-08 09:55:53:715,0.1111,0.0204,9.917,-0.0032,0.0035,9.8066,0.0062,0.0379,-0.0208,0.56,-28.69,32.25,343.83,-86.37,162.98
10780,52.554695,-1.463064,0,0,6,0,22 / 23,1078019,2020-01-08 09:55:53:816,0.108,0.2413,9.8092,0.0053,-0.0009,9.8066,0.0069,0.039,-0.0415,0.56,-28.44,32.81,344.32,-86.39,163.44
10781,52.554695,-1.463064,0,0,6,0,22 / 23,1078118,2020-01-08 09:55:53:915,-0.3004,-0.2259,9.7794,-0.0092,0.0019,9.8066,0.0051,0.0209,-0.0405,0.63,-28.56,31.94,343.5,-86.37,162.67
10782,52.554695,-1.463064,0,0,6,0,22 / 23,1078219,2020-01-08 09:55:54:016,-0.0495,0.2667,9.7215,0.0021,-0.0008,9.8066,-0.0067,0.0234,-0.0054,0.63,-28.94,32.06,343.93,-86.39,163.07
10783,52.554695,-1.463064,0,0,6,0,22 / 23,1078319,2020-01-08 09:55:54:116,0.0637,0.2777,9.8859,-0.0003,0.0004,9.8066,0.0043,0.0145,-0.0091,0.94,-28.5,32.31,344.12,-86.38,163.23
10784,52.554695,-1.463064,0,0,6,0,22 / 23,1078419,2020-01-08 09:55:54:216,0.0964,-0.0459,9.9802,0.0029,-0.0034,9.8066,0.0044,0.017,-0.0342,1.19,-28.56,32.0,344.18,-86.35,163.32
10785,52.554695,-1.463064,0,0,6,0,22 / 23,1078519,2020-01-08 09:55:54:316,-0.1737,-0.1222,9.6298,-0.0021,0.001,9.8066,-0.0006,0.0105,0.0045,1.31,-28.44,31.88,343.76,-86.36,162.89
10786,52.554695,-1.463064,0,0,6,0,22 / 23,1078618,2020-01-08 09:55:54:415,0.0978,0.2111,9.7745,0.0105,-0.0019,9.8066,-0.004,0.0123,0.0359,0.88,-27.94,32.56,344.32,-86.38,163.44
10787,52.554695,-1.463064,0,0,6,0,22 / 23,1078718,2020-01-08 09:55:54:515,-0.2613,-0.1309,9.7522,-0.0057,0.0009,9.8066,-0.0048,-0.0005,-0.0065,0.75,-28.31,32.38,344.35,-86.4,163.44
10788,52.554695,-1.463064,0,0,6,0,22 / 23,1078819,2020-01-08 09:55:54:616,0.1721,-0.1472,9.945,0.0014,-0.0029,9.8066,-0.0014,0.0093,-0.0109,0.81,-28.31,32.31,344.18,-86.38,163.28
10789,52.554695,-1.463064,0,0,6,0,22 / 23,1078919,2020-01-08 09:55:54:716,0.034,0.2143,9.8025,0.0021,0.0001,9.8066,-0.0084,-0.0108,0.0199,0.56,-28.62,32.44,343.92,-86.4,163.07
10790,52.554695,-1.463064,0,0,6,0,22 / 23,1079019,2020-01-08 09:55:54:816,-0.1646,0.3098,9.8054,-0.0026,0.0033,9.8066,-0.0168,-0.0196,0.0413,0.81,-29.31,32.13,344.15,-86.4,163.28
10791,52.554695,-1.463064,0,0,6,0,21 / 23,1079119,2020-01-08 09:55:54:916,-0.0954,0.1063,9.6785,-0.009,0.0046,9.8066,-0.0099,-0.0275,0.0226,1.25,-28.81,32.38,344.19,-86.42,163.31
10792,52.554695,-1.463064,0,0,6,0,21 / 23,1079219,2020-01-08 09:55:55:016,0.2677,-0.2429,9.9847,-0.0008,0.0063,9.8066,-0.0224,-0.0466,0.0178,0.56,-29.0,31.88,344.11,-86.43,163.24
10793,52.554695,-1.463064,0,0,6,0,21 / 23,1079318,2020-01-08 09:55:55:115,-0.5099,-0.1224,9.7663,-0.0079,0.0037,9.8066,-0.0271,-0.0346,0.048,1.13,-28.94,31.88,343.9,-86.4,163.05
10794,52.554695,-1.463064,0,0,6,0,21 / 23,1079419,2020-01-08 09:55:55:216,0.4273,-0.238,9.9324,-0.0042,0.0034,9.8066,-0.0268,-0.039,0.0287,0.56,-28.12,32.31,343.9,-86.42,163.0
10795,52.554695,-1.463064,0,0,6,0,21 / 23,1079519,2020-01-08 09:55:55:316,-0.315,-0.0786,9.7323,-0.0024,0.0009,9.8066,-0.0215,-0.0389,0.0032,1.19,-28.06,32.63,343.62,-86.41,162.77
10796,52.554695,-1.463064,0,0,6,0,21 / 23,1079619,2020-01-08 09:55:55:416,-0.456,-0.0272,9.7574,-0.0082,0.0058,9.8066,-0.0276,-0.033,0.0234,1.06,-28.56,32.13,344.26,-86.43,163.38
10797,52.554695,-1.463064,0,0,6,0,21 / 23,1079719,2020-01-08 09:55:55:516,0.3363,-0.3672,9.932,-0.0082,0.0019,9.8066,-0.0187,-0.0378,0.0321,0.88,-28.69,32.44,343.59,-86.41,162.74
10798,52.554695,-1.463064,0,0,6,0,21 / 23,1079818,2020-01-08 09:55:55:615,0.2073,-0.5123,10.0351,-0.0026,0.0045,9.8066,-0.0118,-0.0081,0.0027,0.63,-28.37,31.81,343.71,-86.4,162.83
10799,52.554695,-1.463064,0,0,6,0,21 / 23,1079919,2020-01-08 09:55:55:716,-0.0885,0.0598,9.717,0.001,0.0016,9.8066,-0.006,0.0044,-0.0227,0.44,-28.81,32.31,341.83,-86.44,162.87
10800,52.554695,-1.463064,0,0,6,0,21 / 23,1080018,2020-01-08 09:55:55:815,0.2568,0.0456,9.846,-0.0113,0.0073,9.8065,-0.0005,0.0093,0.0086,1.19,-28.75,32.63,344.24,-86.46,163.38
10801,52.554695,-1.463064,0,0,6,0,21 / 23,1080119,2020-01-08 09:55:55:916,-0.0553,0.0974,9.9932,0.0065,-0.0042,9.8066,0.0088,0.0144,0.0231,0.63,-28.37,32.5,343.6,-86.41,162.75
10802,52.554695,-1.463064,0,0,6,0,22 / 23,1080219,2020-01-08 09:55:56:016,0.1947,-0.5573,10.0457,-0.0031,-0.0019,9.8065,0.0127,0.03,-0.0406,0.75,-28.06,31.69,343.43,-86.43,162.56
10803,52.554695,-1.463064,0,0,6,0,22 / 23,1080319,2020-01-08 09:55:56:116,-0.1487,0.205,9.7698,0.0104,-0.0047,9.8066,0.0086,0.0343,-0.0424,0.81,-28.87,32.19,343.01,-86.41,162.2
10804,52.554695,-1.463064,0,0,6,0,22 / 23,1080419,2020-01-08 09:55:56:216,-0.0546,0.0447,9.7534,0.0064,-0.0005,9.8066,0.0134,0.0389,0.0148,0.88,-28.19,32.0,343.76,-86.44,162.87
10805,52.554695,-1.463064,0,0,6,0,22 / 23,1080518,2020-01-08 09:55:56:315,-0.1189,0.0759,9.6864,-0.0013,-0.0041,9.8066,0.0245,0.0427,0.0002,0.81,-28.19,32.0,343.69,-86.41,162.81
10806,52.554695,-1.463064,0,0,6,0,22 / 23,1080619,2020-01-08 09:55:56:416,-0.0289,0.2954,9.8372,-0.0032,0.0006,9.8066,0.0151,0.0366,-0.0579,1.06,-28.5,33.0,342.95,-86.41,162.14
10807,52.554695,-1.463064,0,0,6,0,22 / 23,1080719,2020-01-08 09:55:56:516,0.1518,-0.4808,10.0067,0.0098,-0.0059,9.8066,0.0188,0.0297,-0.0308,0.56,-28.0,32.5,343.07,-86.4,162.26
10808,52.554695,-1.463064,0,0,6,0,22 / 23,1080819,2020-01-08 09:55:56:616,-0.1715,-0.2553,9.7815,-0.0004,0.0023,9.8066,0.0046,0.0169,-0.0134,0.81,-28.31,32.81,343.48,-86.43,162.64
10809,52.554695,-1.463064,0,0,6,0,22 / 23,1080918,2020-01-08 09:55:56:715,-0.2203,0.3101,9.7534,0.0023,-0.0012,9.8066,0.0029,0.0282,-0.0315,0.38,-28.5,32.06,341.39,-86.42,162.42
10810,52.554695,-1.463064,0,0,6,0,22 / 23,1081018,2020-01-08 09:55:56:815,-0.1603,0.0129,9.7757,-0.0036,0.0038,9.8065,0.0109,0.0365,-0.0318,1.19,-28.56,32.56,343.33,-86.42,162.52
10811,52.554695,-1.463064,0,0,6,0,22 / 23,1081119,2020-01-08 09:55:56:916,0.1258,-0.2927,9.931,0.0054,-0.0024,9.8066,0.0026,0.0253,-0.0392,0.38,-28.44,32.0,341.35,-86.43,162.38
10812,52.554695,-1.463064,0,0,6,0,22 / 23,1081219,2020-01-08 09:55:57:016,-0.287,-0.0293,9.709,-0.0015,0.0043,9.8066,-0.0004,0.0278,-0.0051,0.69,-28.06,32.88,343.73,-86.45,162.86
10813,52.554695,-1.463064,0,0,6,0,22 / 23,1081319,2020-01-08 09:55:57:116,0.4495,-0.3471,10.01,-0.0011,-0.0015,9.8066,0.0051,0.0285,0.0002,0.94,-28.62,32.19,343.57,-86.43,162.72
10814,52.554695,-1.463064,0,0,6,0,22 / 23,1081418,2020-01-08 09:55:57:215,-0.462,-0.0938,9.8141,-0.0063,0.0037,9.8066,-0.0019,0.0229,-0.0385,0.81,-28.5,32.31,343.22,-86.41,162.37
10815,52.554695,-1.463064,0,0,6,0,22 / 23,1081519,2020-01-08 09:55:57:316,0.0784,0.1317,9.8648,0.0025,0.0014,9.8066,-0.0033,0.0125,-0.0159,0.19,-28.62,32.25,342.04,-86.44,163.07
10816,52.554695,-1.463064,0,0,6,0,22 / 23,1081620,2020-01-08 09:55:57:417,-0.5199,-0.1611,9.7751,-0.0101,0.0052,9.8066,0.001,0.0024,0.0346,0.69,-28.19,32.19,343.43,-86.41,162.57
10817,52.554695,-1.463064,0,0,6,0,22 / 23,1081719,2020-01-08 09:55:57:516,0.4256,-0.1274,9.8793,0.001,0.0004,9.8066,-0.0014,0.0039,0.0069,1.0,-28.19,32.31,343.22,-86.43,162.36
10818,52.554695,-1.463064,0,0,6,0,22 / 23,1081818,2020-01-08 09:55:57:615,-0.1332,-0.0597,9.7755,0.0003,0.0038,9.8066,-0.0101,-0.016,-0.0091,0.63,-28.44,32.0,343.7,-86.41,162.82
10819,52.554695,-1.463064,0,0,6,0,22 / 23,1081919,2020-01-08 09:55:57:716,0.4681,-0.0806,9.8823,-0.0099,0.0031,9.8066,-0.0184,-0.0137,0.0495,0.63,-28.19,32.13,343.41,-86.39,162.55
10820,52.554695,-1.463064,0,0,6,0,22 / 23,1082023,2020-01-08 09:55:57:820,-0.5388,-0.145,9.8061,-0.0133,0.0031,9.8066,-0.0167,-0.0233,0.0353,0.81,-28.75,32.94,342.95,-86.38,162.18
10821,52.554695,-1.463064,0,0,6,0,22 / 23,1082119,2020-01-08 09:55:57:916,0.0537,-0.405,10.0186,0.0036,0.0038,9.8066,-0.0131,-0.0283,-0.0157,0.75,-28.0,32.31,343.59,-86.42,162.72
10822,52.554695,-1.463064,0,0,6,0,22 / 23,1082218,2020-01-08 09:55:58:015,0.1441,0.2889,9.7738,-0.0035,0.0019,9.8066,-0.0199,-0.0466,0.0416,0.69,-28.06,32.63,343.9,-86.4,163.04
10823,52.554695,-1.463064,0,0,6,0,22 / 23,1082319,2020-01-08 09:55:58:116,0.4288,-0.5279,10.0599,-0.011,0.0062,9.8065,-0.0292,-0.0541,0.045,1.06,-28.44,32.38,344.1,-86.42,163.2
10824,52.554695,-1.463064,0,0,6,0,22 / 23,1082419,2020-01-08 09:55:58:216,-0.2488,-0.2915,9.7447,-0.0041,0.0024,9.8065,-0.0299,-0.0454,0.0084,1.06,-28.62,32.69,343.37,-86.39,162.57
10825,52.554695,-1.463064,0,0,6,0,22 / 23,1082519,2020-01-08 09:55:58:316,0.3337,-0.376,10.0012,-0.0052,0.0024,9.8066,-0.0128,-0.0198,0.0037,0.81,-28.81,32.44,344.0,-86.41,163.14
10826,52.554695,-1.463064,0,0,6,0,22 / 23,1082618,2020-01-08 09:55:58:415,-0.5426,-0.0899,9.7565,-0.0007,-0.0009,9.8066,-0.0101,-0.031,0.0092,0.63,-28.56,32.56,343.76,-86.42,162.93
10827,52.554695,-1.463064,0,0,6,0,22 / 23,1082719,2020-01-08 09:55:58:516,0.4192,-0.2788,9.8894,-0.012,0.005,9.8065,-0.0074,-0.0028,0.0348,1.0,-28.69,32.63,344.12,-86.43,163.27
10828,52.554695,-1.463064,0,0,6,0,22 / 23,1082819,2020-01-08 09:55:58:616,-0.0274,0.2132,9.8046,-0.0014,0.0001,9.8066,0.0078,0.0089,0.0042,1.25,-28.69,32.69,343.37,-86.41,162.57
10829,52.554695,-1.463064,0,0,6,0,22 / 23,1082919,2020-01-08 09:55:58:716,-0.5028,-0.0598,9.8196,-0.0039,0.0026,9.8066,0.0078,0.019,-0.0378,0.75,-28.44,32.5,344.08,-86.42,163.21
10830,52.554695,-1.463064,0,0,6,0,22 / 23,1083018,2020-01-08 09:55:58:815,-0.4665,0.0988,9.7734,-0.0013,-0.0001,9.8066,0.0086,0.0329,-0.0032,0.63,-28.12,32.44,344.03,-86.42,163.13
10831,52.554695,-1.463064,0,0,6,0,22 / 23,1083119,2020-01-08 09:55:58:916,0.0729,0.126,9.9194,-0.0057,0.0031,9.8066,0.0147,0.0382,0.0016,1.19,-28.31,32.5,343.98,-86.42,163.11
10832,52.554695,-1.463064,0,0,6,0,22 / 23,1083219,2020-01-08 09:55:59:016,-0.0772,0.3245,9.7299,0.0078,-0.0019,9.8066,0.022,0.0451,-0.0358,0.81,-28.94,32.0,344.29,-86.42,163.4
10833,52.554695,-1.463064,0,0,6,0,22 / 23,1083318,2020-01-08 09:55:59:115,-0.2465,0.023,9.7612,-0.0059,0.0015,9.8066,0.0231,0.037,-0.0493,1.19,-28.44,32.44,344.48,-86.42,163.55
10834,52.554695,-1.463064,0,0,6,0,22 / 23,1083419,2020-01-08 09:55:59:216,0.2771,-0.3537,10.0379,-0.0008,-0.0015,9.8066,0.0121,0.0324,-0.0207,0.94,-29.06,32.5,343.97,-86.39,163.14
10835,52.554695,-1.463064,0,0,6,0,22 / 23,1083519,2020-01-08 09:55:59:316,-0.11,0.3267,9.7238,-0.0005,-0.0003,9.8066,0.0076,0.0257,-0.0103,1.31,-28.69,32.19,343.83,-86.37,162.98
10836,52.554695,-1.463064,0,0,6,0,22 / 23,1083618,2020-01-08 09:55:59:415,0.0544,0.1313,9.8281,0.0095,-0.0048,9.8066,0.0084,0.0383,-0.0379,1.31,-28.44,32.56,344.28,-86.39,163.4
10837,52.554695,-1.463064,0,0,6,0,22 / 23,1083719,2020-01-08 09:55:59:516,0.1151,0.116,9.7757,-0.0036,0.0008,9.8066,0.0082,0.0394,-0.0603,0.88,-28.94,32.63,344.24,-86.39,163.39
10838,52.554695,-1.463064,0,0,6,0,22 / 23,1083818,2020-01-08 09:55:59:615,-0.0103,-0.0933,9.8648,0.0007,-0.0044,9.8066,0.0054,0.0279,-0.0283,0.94,-28.62,32.69,343.94,-86.38,163.12
10839,52.554695,-1.463064,0,0,6,0,22 / 23,1083918,2020-01-08 09:55:59:715,-0.4418,-0.1166,9.7761,0.0033,0.0002,9.8066,0.0112,0.0348,-0.0051,0.69,-28.75,32.38,343.7,-86.36,162.87
10840,52.554695,-1.463064,0,0,6,0,22 / 23,1084018,2020-01-08 09:55:59:815,0.5026,-0.3249,9.9598,0.0111,-0.0047,9.8066,0.0053,0.0366,-0.0305,1.38,-28.44,32.56,344.55,-86.38,163.66
10841,52.554695,-1.463064,0,0,6,0,22 / 23,1084118,2020-01-08 09:55:59:915,-0.2936,-0.0897,9.7067,-0.0032,-0.0003,9.8066,0.005,0.0303,-0.0211,1.38,-28.31,32.81,344.28,-86.37,163.41
10842,52.554695,-1.463064,0,0,6,0,22 / 23,1084219,2020-01-08 09:56:00:016,0.0173,0.3029,9.8959,0.0037,-0.0059,9.8066,0.0043,0.0156,0.0097,1.44,-28.44,32.56,344.07,-86.37,163.21
10843,52.554695,-1.463064,0,0,6,0,22 / 23,1084319,2020-01-08 09:56:00:116,-0.4723,-0.2621,9.8285,0.0083,-0.0028,9.8066,0.0044,0.0115,0.0242,1.38,-27.87,31.69,343.72,-86.33,162.86
10844,52.554695,-1.463064,0,0,6,0,22 / 23,1084419,2020-01-08 09:56:00:216,0.3867,0.041,9.928,0.0105,-0.0047,9.8066,-0.0025,0.0014,-0.006,1.06,-28.5,32.19,343.55,-86.33,162.7
10845,52.554695,-1.463064,0,0,6,0,22 / 23,1084519,2020-01-08 09:56:00:316,-0.1724,0.1519,9.7106,0.0002,-0.0043,9.8066,-0.0123,-0.0252,0.0134,1.38,-28.94,31.56,343.85,-86.33,163.01
10846,52.554695,-1.463064,0,0,6,0,22 / 23,1084618,2020-01-08 09:56:00:415,0.6518,-0.3976,9.9996,0.003,-0.003,9.8065,-0.0277,-0.038,0.057,0.5,-28.56,32.13,343.58,-86.35,162.75
10847,52.554695,-1.463064,0,0,6,0,22 / 23,1084719,2020-01-08 09:56:00:516,-0.5212,-0.133,9.771,0.0126,-0.0058,9.8066,-0.0229,-0.0346,0.0413,0.88,-28.56,31.69,343.5,-86.31,162.69
10848,52.554695,-1.463064,0,0,6,0,22 / 23,1084818,2020-01-08 09:56:00:615,-0.0301,0.3034,9.8902,0.0018,-0.0007,9.8066,-0.0219,-0.0637,-0.0061,0.88,-28.12,32.13,343.98,-86.34,163.11
10849,52.554695,-1.463064,0,0,6,0,22 / 23,1084919,2020-01-08 09:56:00:716,-0.0435,0.2796,9.7512,0.0074,-0.0049,9.8066,-0.0227,-0.0559,0.0466,0.75,-28.75,32.19,343.23,-86.31,162.44
10850,52.554695,-1.463064,0,0,6,0,22 / 23,1085019,2020-01-08 09:56:00:816,-0.2577,-0.2923,9.7677,0.0055,0.0003,9.8066,-0.0278,-0.0509,0.063,0.06,-28.94,32.0,342.04,-86.34,163.1
10851,52.554695,-1.463064,0,0,6,0,22 / 23,1085119,2020-01-08 09:56:00:916,0.2247,-0.4547,10.0356,0.0046,-0.0064,9.8066,-0.0162,-0.0321,0.0087,0.44,-29.31,32.63,341.84,-86.32,162.88
10852,52.554695,-1.463064,0,0,6,0,22 / 23,1085218,2020-01-08 09:56:01:015,0.0559,0.3234,9.8739,-0.0043,0.0026,9.8066,-0.004,-0.0054,0.0025,0.88,-28.94,32.19,343.67,-86.31,162.85
10853,52.554695,-1.463064,0,0,6,0,22 / 23,1085319,2020-01-08 09:56:01:116,0.252,-0.4248,9.9564,0.0064,-0.0032,9.8066,0.0027,0.0194,0.0054,0.69,-28.81,32.31,343.38,-86.3,162.58
10854,52.554695,-1.463064,0,0,6,0,22 / 23,1085419,2020-01-08 09:56:01:216,-0.2647,-0.3098,9.7726,-0.0059,0.0036,9.8066,0.0075,0.0116,0.0003,0.63,-28.56,32.13,343.82,-86.33,162.99
10855,52.554695,-1.463064,0,0,6,0,22 / 23,1085519,2020-01-08 09:56:01:316,0.3238,0.4524,9.8314,0.0052,0.0014,9.8066,0.009,0.0176,-0.004,0.19,-28.69,32.31,341.85,-86.32,162.92
10856,52.554695,-1.463064,0,0,6,0,22 / 23,1085619,2020-01-08 09:56:01:416,0.1903,-0.0336,9.9213,-0.0048,0.0034,9.8066,0.0078,0.0394,-0.0466,0.13,-28.31,32.56,341.84,-86.33,162.84
10857,52.554695,-1.463064,0,0,6,0,22 / 23,1085719,2020-01-08 09:56:01:516,0.1533,-0.3552,9.9332,-0.0069,0.0002,9.8066,0.0056,0.0259,-0.072,0.63,-28.19,32.56,343.53,-86.31,162.71
10858,52.554695,-1.463064,0,0,6,0,22 / 23,1085819,2020-01-08 09:56:01:616,-0.4271,0.4159,9.6906,-0.0045,0.0006,9.8066,0.0012,0.0537,-0.004,-0.37,-28.19,32.31,341.41,-86.32,162.47
10859,52.554695,-1.463064,0,0,6,0,22 / 23,1085918,2020-01-08 09:56:01:715,-0.0258,-0.2866,9.9388,-0.0024,-0.0003,9.8066,0.006,0.0453,-0.0016,0.0,-28.06,32.81,341.7,-86.3,162.72
10860,52.554695,-1.463064,0,0,6,0,22 / 23,1086019,2020-01-08 09:56:01:816,0.077,-0.4841,9.9011,-0.0079,0.0028,9.8066,0.0047,0.0506,-0.0411,0.13,-28.44,32.25,341.47,-86.29,162.53
10861,52.554695,-1.463064,0,0,6,0,22 / 23,1086119,2020-01-08 09:56:01:916,0.2308,0.3944,9.8247,-0.0053,0.0012,9.8066,0.0169,0.0353,-0.0176,0.13,-28.44,31.94,341.8,-86.31,162.85
10862,52.554695,-1.463064,0,0,6,0,22 / 23,1086219,2020-01-08 09:56:02:016,0.0129,-0.4386,9.9385,0.0023,-0.0014,9.8066,-0.0113,0.0002,0.0083,-0.06,-28.31,32.19,341.92,-86.29,162.97
10863,52.554695,-1.463064,0,0,6,0,22 / 23,1086319,2020-01-08 09:56:02:116,-0.2027,-0.156,9.8266,-0.0037,0.0009,9.8066,-0.0106,-0.0343,0.0172,0.56,-28.25,32.19,343.65,-86.31,162.8
10864,52.554695,-1.463064,0,0,6,0,22 / 23,1086418,2020-01-08 09:56:02:215,0.5167,-0.1843,9.8286,0.0049,0.0017,9.8065,0.0121,-0.0264,0.0287,0.19,-27.69,32.75,342.18,-86.3,163.18
10865,52.554695,-1.463064,0,0,6,0,22 / 23,1086519,2020-01-08 09:56:02:316,0.029,0.2988,9.8231,-0.0079,-0.0002,9.8066,-0.0074,-0.0426,-0.0099,0.44,-28.31,32.06,341.21,-86.28,162.29
10866,52.554695,-1.463064,0,0,6,0,22 / 23,1086619,2020-01-08 09:56:02:416,0.3971,-0.4861,9.9081,0.0079,-0.0003,9.8066,-0.0203,-0.0413,0.0481,0.5,-28.25,32.5,343.74,-86.29,162.92
10867,52.554695,-1.463064,0,0,6,0,22 / 23,1086723,2020-01-08 09:56:02:520,0.154,0.3066,9.7824,-0.0036,0.0018,9.8066,-0.0097,-0.0406,0.0685,0.44,-28.75,32.19,342.08,-86.3,163.14
10868,52.554695,-1.463064,0,0,6,0,22 / 23,1086819,2020-01-08 09:56:02:616,-0.0456,0.2643,9.892,-0.0027,-0.003,9.8066,-0.0235,-0.0457,-0.0231,-0.19,-28.12,32.0,341.64,-86.29,162.7
10869,52.554695,-1.463064,0,0,6,0,22 / 23,1086919,2020-01-08 09:56:02:716,-0.3871,0.3293,9.8319,0.0084,-0.0009,9.8066,-0.0343,-0.0444,-0.0072,0.06,-28.0,32.69,341.94,-86.31,162.95
10870,52.554695,-1.463064,0,0,6,0,22 / 23,1087019,2020-01-08 09:56:02:816,-0.1426,0.3419,9.8918,0.0122,-0.0026,9.8066,-0.0235,-0.0311,0.0712,0.25,-28.06,32.81,342.57,-86.32,163.53
10871,52.554695,-1.463064,0,0,6,0,22 / 23,1087119,2020-01-08 09:56:02:916,-0.0089,-0.1714,9.6768,-0.007,-0.0016,9.8066,-0.0159,-0.0232,0.0149,0.69,-28.0,32.25,343.08,-86.3,162.27
10872,52.554695,-1.463064,0,0,6,0,22 / 23,1087219,2020-01-08 09:56:03:016,-0.0992,-0.0985,9.95,0.0066,-0.0028,9.8066,-0.0139,-0.0107,-0.0226,0.25,-28.5,32.56,341.8,-86.28,162.82
10873,52.554695,-1.463064,0,0,6,0,22 / 23,1087319,2020-01-08 09:56:03:116,-0.1976,0.184,9.6732,0.0054,-0.0028,9.8066,-0.0029,-0.0084,0.0304,0.06,-28.06,32.13,341.78,-86.29,162.83
10874,52.554695,-1.463064,0,0,6,0,22 / 23,1087419,2020-01-08 09:56:03:216,0.1082,-0.5049,10.0603,0.0023,-0.0081,9.8066,0.0087,0.0048,0.0032,0.56,-28.06,33.0,343.72,-86.29,162.9
10875,52.554695,-1.463064,0,0,6,0,22 / 23,1087519,2020-01-08 09:56:03:316,-0.426,-0.2208,9.733,0.0052,-0.0002,9.8066,0.0127,0.0264,-0.0254,0.38,-28.12,32.56,342.1,-86.27,163.11
10876,52.554695,-1.463064,0,0,6,0,22 / 23,1087619,2020-01-08 09:56:03:416,0.3479,0.1743,9.9415,0.0075,-0.0027,9.8066,0.029,0.0389,-0.0278,0.38,-28.0,32.38,342.05,-86.28,163.09
10877,52.554695,-1.463064,0,0,6,0,22 / 23,1087719,2020-01-08 09:56:03:516,-0.0296,-0.0377,9.8813,0.0063,-0.0048,9.8066,0.0156,0.035,-0.0262,0.19,-27.81,32.56,341.75,-86.26,162.78
10878,52.554695,-1.463064,0,0,6,0,22 / 23,1087819,2020-01-08 09:56:03:616,-0.0949,-0.2194,9.7082,0.0043,0.0021,9.8066,0.0022,0.0306,-0.0073,0.5,-27.94,32.44,344.09,-86.29,163.22
10879,52.554695,-1.463064,0,0,6,0,22 / 23,1087919,2020-01-08 09:56:03:716,-0.4714,0.295,9.7359,0.0044,-0.0064,9.8065,0.0076,0.043,-0.0232,0.63,-28.19,32.13,343.48,-86.25,162.66
10880,52.554695,-1.463064,0,0,6,0,22 / 23,1088019,2020-01-08 09:56:03:816,0.5458,0.2538,9.8182,0.0105,-0.0043,9.8066,0.0174,0.0549,-0.0751,0.88,-28.19,32.75,343.4,-86.25,162.6
10881,52.554695,-1.463064,0,0,6,0,22 / 23,1088119,2020-01-08 09:56:03:916,-0.3879,0.2257,9.7549,0.0105,-0.0017,9.8066,0.0158,0.0571,-0.0561,0.38,-28.37,32.25,341.38,-86.27,162.45
10882,52.554695,-1.463064,0,0,6,0,22 / 23,1088219,2020-01-08 09:56:04:016,0.0271,-0.059,9.9033,-0.0031,-0.0006,9.8066,0.0096,0.0386,0.001,0.25,-28.37,32.19,341.86,-86.27,162.91
10883,52.554695,-1.463064,0,0,6,0,22 / 23,1088319,2020-01-08 09:56:04:116,0.4379,-0.2456,9.923,0.0017,-0.0007,9.8066,-0.0017,0.0201,0.0001,0.38,-28.37,31.94,341.66,-86.26,162.72
10884,52.554695,-1.463064,0,0,6,0,22 / 23,1088419,2020-01-08 09:56:04:216,-0.6428,0.2149,9.6913,-0.0076,0.0043,9.8066,-0.006,-0.0138,-0.0124,0.69,-28.31,33.0,343.74,-86.29,162.92
10885,52.554695,-1.463064,0,0,6,0,22 / 23,1088519,2020-01-08 09:56:04:316,0.3333,-0.1574,9.914,0.0033,-0.0023,9.8066,-0.0048,-0.014,-0.0129,1.0,-28.31,31.94,343.47,-86.26,162.64
10886,52.554695,-1.463064,0,0,6,0,22 / 23,1088619,2020-01-08 09:56:04:416,-0.4287,0.4764,9.761,-0.0034,0.0013,9.8066,-0.0106,-0.0331,0.023,0.06,-28.37,32.44,341.91,-86.28,162.95
10887,52.554695,-1.463064,0,0,6,0,22 / 23,1088719,2020-01-08 09:56:04:516,0.5169,-0.2093,9.9475,0.0085,-0.0011,9.8066,-0.0132,-0.0472,0.0447,0.69,-29.0,32.5,343.0,-86.26,162.26
10888,52.554695,-1.463064,0,0,6,0,22 / 23,1088819,2020-01-08 09:56:04:616,-0.1191,0.3186,9.8,0.0094,-0.0057,9.8065,-0.0239,-0.0464,0.05,0.69,-28.44,32.31,343.24,-86.26,162.43
10889,52.554695,-1.463064,0,0,6,0,22 / 23,1088919,2020-01-08 09:56:04:716,-0.0417,0.289,9.8491,0.008,-0.0039,9.8066,-0.0088,-0.036,0.026,0.13,-28.12,32.25,341.75,-86.3,162.8
10890,52.554695,-1.463064,0,0,6,0,22 / 23,1089019,2020-01-08 09:56:04:816,-0.1914,-0.4774,9.8536,0.0021,0.0007,9.8066,-0.0034,-0.0325,-0.0107,0.25,-28.56,32.25,341.51,-86.27,162.62
10891,52.554695,-1.463064,0,0,6,0,22 / 23,1089119,2020-01-08 09:56:04:916,0.3072,0.0494,9.8565,-0.006,-0.0007,9.8066,0.0028,0.0152,-0.0057,0.94,-28.25,32.56,342.88,-86.28,162.11
10892,52.554695,-1.463064,0,0,6,0,22 / 23,1089219,2020-01-08 09:56:05:016,-0.0298,0.1944,9.7791,0.0075,-0.0012,9.8066,-0.0065,0.0334,0.0109,-0.06,-27.75,32.63,341.21,-86.28,162.26
10893,52.554695,-1.463064,0,0,6,0,22 / 23,1089318,2020-01-08 09:56:05:115,-0.2069,-0.2154,9.8872,0.0016,-0.0017,9.8066,-0.0093,0.0293,-0.0028,0.44,-28.31,32.13,341.74,-86.27,162.79
10894,52.554695,-1.463064,0,0,6,0,22 / 23,1089419,2020-01-08 09:56:05:216,-0.1397,0.1557,9.8131,-0.0018,-0.0002,9.8066,-0.0279,0.0188,-0.0231,0.88,-28.69,32.56,343.4,-86.27,162.63
10895,52.554695,-1.463064,0,0,6,0,22 / 23,1089519,2020-01-08 09:56:05:316,-0.2441,-0.504,9.9544,0.0,0.0006,9.8066,-0.0058,0.029,-0.0192,0.13,-28.87,32.31,341.51,-86.26,162.62
10896,52.554695,-1.463064,0,0,6,0,22 / 23,1089619,2020-01-08 09:56:05:416,0.1923,-0.2009,9.7771,0.0033,0.0002,9.8066,0.0044,0.0279,-0.0185,0.38,-28.94,32.63,341.68,-86.27,162.75
10897,52.554695,-1.463064,0,0,6,0,22 / 23,1089718,2020-01-08 09:56:05:515,-0.0271,0.2718,9.888,-0.0004,0.0033,9.8066,0.0023,0.0053,-0.0004,0.81,-28.75,32.75,343.59,-86.28,162.8
10898,52.554695,-1.463064,0,0,6,0,22 / 23,1089819,2020-01-08 09:56:05:616,-0.2462,-0.2189,9.9787,-0.0048,0.0009,9.8066,0.0027,-0.0031,0.0283,0.0,-28.5,32.88,341.58,-86.26,162.62
10899,52.554695,-1.463064,0,0,6,0,22 / 23,1089919,2020-01-08 09:56:05:716,0.137,0.0993,9.7624,0.0047,-0.0003,9.8066,-0.0047,-0.0197,-0.0035,0.69,-28.75,32.19,343.57,-86.28,162.76
10900,52.554695,-1.463064,0,0,6,0,22 / 23,1090018,2020-01-08 09:56:05:815,-0.0688,-0.3336,9.9694,-0.0017,0.0028,9.8066,0.0077,-0.0187,-0.0252,0.88,-28.94,32.63,343.45,-86.29,162.67
10901,52.554695,-1.463064,0,0,6,0,22 / 23,1090119,2020-01-08 09:56:05:916,-0.1013,0.3399,9.6899,-0.0022,-0.0019,9.8066,0.0158,0.0475,-0.0041,0.63,-28.5,32.75,343.54,-86.26,162.74
10902,52.554695,-1.463064,0,0,6,0,22 / 23,1090218,2020-01-08 09:56:06:015,0.1814,0.0985,9.8233,0.0027,-0.001,9.8066,0.0088,0.0513,-0.0119,-0.25,-28.81,32.38,341.55,-86.28,162.65
10903,52.554695,-1.463064,0,0,6,0,22 / 23,1090319,2020-01-08 09:56:06:116,-0.0008,0.1793,9.6839,-0.0036,-0.0029,9.8066,-0.0103,0.0206,-0.0046,0.06,-28.94,32.94,341.79,-86.27,162.85
10904,52.554695,-1.463064,0,0,6,0,22 / 23,1090418,2020-01-08 09:56:06:215,0.1662,0.0038,9.8858,0.0035,-0.0033,9.8066,-0.0254,0.0133,0.0302,0.56,-28.75,32.44,343.22,-86.26,162.44
10905,52.554695,-1.463064,0,0,6,0,22 / 23,1090519,2020-01-08 09:56:06:316,-0.5219,-0.3583,9.8946,0.0091,-0.0023,9.8066,-0.0171,-0.0029,-0.0121,0.56,-28.19,32.31,343.02,-86.28,162.22
10906,52.554695,-1.463064,0,0,6,0,22 / 23,1090619,2020-01-08 09:56:06:416,0.2086,-0.2796,9.8395,0.0056,0.0019,9.8065,-0.009,-0.0153,-0.0335,0.63,-28.56,32.56,343.89,-86.29,163.09
10907,52.554695,-1.463064,0,0,6,0,22 / 23,1090719,2020-01-08 09:56:06:516,0.1466,-0.4653,9.9446,-0.0015,0.0013,9.8066,-0.0022,-0.0172,0.0273,0.25,-28.81,32.31,341.4,-86.29,162.51
10908,52.554695,-1.463064,0,0,6,0,22 / 23,1090819,2020-01-08 09:56:06:616,-0.482,0.4439,9.7728,-0.002,0.0005,9.8066,0.0038,-0.0162,0.0533,0.31,-28.12,32.25,341.28,-86.3,162.35
10909,52.554695,-1.463064,0,0,6,0,22 / 23,1090919,2020-01-08 09:56:06:716,0.2773,-0.2547,9.8445,0.0054,0.0012,9.8066,0.0177,-0.0223,0.01,0.56,-28.62,31.94,343.66,-86.3,162.84
10910,52.554695,-1.463064,0,0,6,0,22 / 23,1091019,2020-01-08 09:56:06:816,-0.0605,-0.6045,9.9225,-0.0039,-0.0012,9.8066,0.0118,-0.0058,-0.0092,1.0,-28.62,32.56,343.19,-86.32,162.42
10911,52.554695,-1.463064,0,0,6,0,22 / 23,1091119,2020-01-08 09:56:06:916,0.2048,0.0342,9.8464,-0.0026,0.0037,9.8066,-0.0073,-0.0124,-0.0049,-0.25,-28.62,32.44,341.47,-86.32,162.56
10912,52.554695,-1.463064,0,0,6,0,22 / 23,1091219,2020-01-08 09:56:07:016,-0.4541,0.0962,9.8313,-0.0077,0.0025,9.8066,-0.0152,-0.0143,-0.0033,0.5,-28.62,32.69,342.91,-86.3,162.17
10913,52.554695,-1.463064,0,0,6,0,22 / 23,1091319,2020-01-08 09:56:07:116,0.137,-0.2427,9.7728,-0.0003,-0.0005,9.8066,-0.0069,0.0342,0.0047,0.31,-28.44,32.19,341.4,-86.34,162.46
10914,52.554695,-1.463064,0,0,6,0,22 / 23,1091418,2020-01-08 09:56:07:215,0.2251,-0.0054,9.8435,0.0017,-0.0003,9.8066,0.0132,0.0524,-0.012,0.19,-28.75,32.69,341.76,-86.34,162.8
10915,52.554695,-1.463064,0,0,6,0,22 / 23,1091519,2020-01-08 09:56:07:316,0.4219,-0.3509,9.8734,-0.0085,-0.0004,9.8066,0.0023,0.063,-0.0434,0.44,-28.56,33.0,341.9,-86.33,162.93
10916,52.554695,-1.463064,0,0,6,0,22 / 23,1091618,2020-01-08 09:56:07:415,-0.0314,0.2778,9.7149,-0.0017,0.0003,9.8066,0.0018,0.0462,-0.0315,0.69,-28.5,32.19,343.09,-86.35,162.26
10917,52.554695,-1.463064,0,0,6,0,22 / 23,1091719,2020-01-08 09:56:07:516,-0.243,0.4882,9.8871,-0.0021,-0.0047,9.8066,-0.0212,-0.0123,0.001,1.0,-28.37,32.5,343.39,-86.32,162.58
10918,52.554695,-1.463064,0,0,6,0,22 / 23,1091819,2020-01-08 09:56:07:616,0.3273,0.057,9.7977,0.0081,-0.0009,9.8066,-0.0246,-0.0213,0.0215,0.25,-28.31,32.56,341.69,-86.34,162.7
10919,52.554695,-1.463064,0,0,6,0,22 / 23,1091919,2020-01-08 09:56:07:716,-0.4602,-0.383,9.8932,-0.0006,0.0019,9.8066,0.011,-0.0107,0.0163,0.69,-28.75,32.06,343.34,-86.36,162.52
10920,52.554695,-1.463064,0,0,6,0,22 / 23,1092019,2020-01-08 09:56:07:816,0.1643,-0.0714,9.8859,0.002,0.001,9.8066,0.0103,-0.0081,-0.0071,0.81,-28.56,33.06,343.28,-86.34,162.5
10921,52.554695,-1.463064,0,0,6,0,22 / 23,1092119,2020-01-08 09:56:07:916,-0.4689,-0.0073,9.8356,0.0042,-0.0002,9.8066,0.0007,-0.0276,0.0134,0.88,-29.06,32.44,342.76,-86.33,161.99
10922,52.554695,-1.463064,0,0,6,0,22 / 23,1092218,2020-01-08 09:56:08:015,0.1897,-0.08,9.8612,0.005,-0.001,9.8066,-0.0153,-0.0409,0.0346,0.81,-28.69,32.06,343.38,-86.34,162.57
10923,52.554695,-1.463064,0,0,6,0,22 / 23,1092319,2020-01-08 09:56:08:116,0.013,0.4922,9.7583,0.0051,-0.0005,9.8065,-0.0232,-0.0197,0.0143,0.19,-27.87,32.81,341.29,-86.34,162.33
10924,52.554695,-1.463064,0,0,6,0,22 / 23,1092419,2020-01-08 09:56:08:216,0.0313,-0.2387,9.8462,-0.0016,-0.0025,9.8066,-0.0062,0.0183,-0.0192,0.75,-27.94,31.88,342.88,-86.36,162.06
10925,52.554695,-1.463064,0,0,6,0,22 / 23,1092519,2020-01-08 09:56:08:316,0.2626,0.4127,9.8081,0.0002,0.0008,9.8066,0.0027,0.0266,-0.028,0.81,-28.56,33.0,342.93,-86.33,162.17
10926,52.554695,-1.463064,0,0,6,0,22 / 23,1092619,2020-01-08 09:56:08:416,-0.4039,0.1852,9.8326,-0.0058,-0.0003,9.8066,0.0058,0.0388,-0.0186,-0.06,-28.44,32.69,340.86,-86.34,161.92
10927,52.554695,-1.463064,0,0,6,0,22 / 23,1092719,2020-01-08 09:56:08:516,0.0742,-0.4358,9.9021,0.0004,-0.001,9.8066,0.0038,0.0437,-0.0064,0.69,-28.31,33.25,343.05,-86.35,162.25
10928,52.554695,-1.463064,0,0,6,0,22 / 23,1092818,2020-01-08 09:56:08:615,-0.51,0.4385,9.8075,-0.0005,-0.0005,9.8066,-0.0001,0.0373,-0.0117,1.44,-28.31,32.13,342.95,-86.34,162.13
10929,52.554695,-1.463064,0,0,6,0,22 / 23,1092919,2020-01-08 09:56:08:716,0.3789,0.2383,9.8109,-0.0091,0.0015,9.8066,-0.012,0.0084,-0.0145,0.06,-28.12,32.81,341.04,-86.34,162.09
10930,52.554695,-1.463064,0,0,6,0,22 / 23,1093022,2020-01-08 09:56:08:819,-0.0612,-0.205,9.9343,0.0006,0.0002,9.8066,-0.0024,-0.0144,-0.025,0.75,-27.87,32.56,342.35,-86.33,161.59
10931,52.554695,-1.463064,0,0,6,0,22 / 23,1093119,2020-01-08 09:56:08:916,-0.4836,0.497,9.7754,0.0005,-0.0002,9.8066,-0.0167,-0.0301,0.0319,0.38,-28.69,32.38,340.7,-86.32,161.84
10932,52.554695,-1.463064,0,0,6,0,22 / 23,1093219,2020-01-08 09:56:09:016,-0.132,-0.0484,9.8632,0.0078,-0.0021,9.8066,-0.0045,-0.033,0.0569,0.94,-28.44,32.75,343.13,-86.36,162.32
10933,52.554695,-1.463064,0,0,6,0,22 / 23,1093319,2020-01-08 09:56:09:116,-0.3958,0.2196,9.8418,-0.0067,0.0021,9.8066,-0.0038,-0.0313,0.0242,0.88,-28.44,32.44,343.05,-86.35,162.23
10934,52.554695,-1.463064,0,0,6,0,22 / 23,1093419,2020-01-08 09:56:09:216,0.1793,-0.1883,9.8851,0.0035,0.0008,9.8066,-0.0079,-0.0181,0.0151,0.31,-28.0,31.94,341.01,-86.34,162.09
10935,52.554695,-1.463064,0,0,6,0,22 / 23,1093519,2020-01-08 09:56:09:316,-0.031,0.0469,9.8399,0.0029,0.0007,9.8066,-0.0051,-0.023,-0.0011,0.63,-28.06,32.69,342.43,-86.33,161.67
10936,52.554695,-1.463064,0,0,6,0,22 / 23,1093619,2020-01-08 09:56:09:416,0.3717,-0.4142,9.8492,0.0047,-0.0012,9.8066,-0.0028,0.0115,-0.0075,0.56,-28.94,33.0,342.65,-86.34,161.91
10937,52.554695,-1.463064,0,0,6,0,22 / 23,1093719,2020-01-08 09:56:09:516,-0.3176,0.2539,9.7692,0.006,0.0014,9.8066,-0.0144,0.0348,0.007,1.38,-28.5,32.5,343.01,-86.35,162.21
10938,52.554695,-1.463064,0,0,6,0,22 / 23,1093819,2020-01-08 09:56:09:616,-0.0278,-0.3703,9.9369,0.0009,0.0006,9.8066,-0.0068,0.0292,0.0055,0.63,-28.44,32.25,342.58,-86.36,161.78
10939,52.554695,-1.463064,0,0,6,0,22 / 23,1093919,2020-01-08 09:56:09:716,0.1976,-0.2887,9.8017,0.0056,0.002,9.8066,-0.0119,0.0193,-0.0129,0.56,-28.19,32.88,342.77,-86.35,161.98
10940,52.554695,-1.463064,0,0,6,0,22 / 23,1094019,2020-01-08 09:56:09:816,-0.2266,-0.4253,9.9594,-0.0032,0.0015,9.8066,-0.0117,0.0016,-0.0293,0.81,-28.62,32.31,342.19,-86.36,161.44
10941,52.554695,-1.463064,0,0,6,0,22 / 23,1094119,2020-01-08 09:56:09:916,-0.0536,0.2957,9.7018,0.0018,-0.0015,9.8066,-0.0128,-0.002,-0.0075,0.13,-28.69,32.25,340.25,-86.36,161.4
10942,52.554695,-1.463064,0,0,6,0,22 / 23,1094219,2020-01-08 09:56:10:016,-0.0302,-0.5357,9.9488,0.0019,-0.0031,9.8066,0.0003,-0.0163,0.0186,0.13,-28.5,32.63,340.47,-86.37,161.53
10943,52.554695,-1.463064,0,0,6,0,22 / 23,1094319,2020-01-08 09:56:10:116,0.0506,0.319,9.7209,-0.0052,0.0011,9.8066,0.009,-0.0156,0.02,0.44,-28.81,32.13,340.42,-86.38,161.56
10944,52.554695,-1.463064,0,0,6,0,22 / 23,1094419,2020-01-08 09:56:10:216,0.0007,-0.3834,9.9319,-0.0019,-0.0002,9.8066,0.0164,0.0085,-0.0159,0.19,-28.19,32.38,340.21,-86.37,161.32
10945,52.554695,-1.463064,0,0,6,0,22 / 23,1094518,2020-01-08 09:56:10:315,-0.1359,-0.1842,9.8649,0.0045,-0.0003,9.8066,0.0081,0.0114,-0.0207,0.69,-28.75,32.31,342.03,-86.39,161.28
10946,52.554695,-1.463064,0,0,6,0,22 / 23,1094619,2020-01-08 09:56:10:416,-0.0895,-0.5211,9.9279,0.0054,-0.0001,9.8066,0.0029,0.0012,0.0262,0.56,-28.19,32.38,342.69,-86.4,161.87
10947,52.554695,-1.463064,0,0,6,0,22 / 23,1094719,2020-01-08 09:56:10:516,-0.1527,0.2696,9.8054,-0.0039,-0.0022,9.8066,0.0106,0.0125,0.0219,0.25,-28.62,32.19,340.47,-86.37,161.6
10948,52.554695,-1.463064,0,0,6,0,22 / 23,1094818,2020-01-08 09:56:10:615,0.378,-0.123,9.8918,0.006,-0.002,9.8066,0.0044,0.0199,-0.0541,0.63,-28.87,32.06,341.68,-86.38,160.95
10949,52.554695,-1.463064,0,0,6,0,22 / 23,1094919,2020-01-08 09:56:10:716,-0.322,0.1529,9.7836,0.006,-0.0014,9.8066,-0.0001,0.0186,-0.0437,0.0,-28.37,32.63,340.39,-86.38,161.46
10950,52.554695,-1.463064,0,0,6,0,22 / 23,1095019,2020-01-08 09:56:10:816,-0.2113,0.1876,9.7478,-0.0031,-0.0011,9.8066,0.0019,0.0413,-0.0013,0.06,-28.06,32.81,340.53,-86.38,161.59
10951,52.554695,-1.463064,0,0,6,0,22 / 23,1095118,2020-01-08 09:56:10:915,-0.463,0.0347,9.8096,0.0055,0.0011,9.8066,0.0002,0.0497,-0.0153,0.56,-28.56,33.13,342.42,-86.39,161.67
10952,52.554695,-1.463064,0,0,6,0,22 / 23,1095219,2020-01-08 09:56:11:016,0.3253,-0.3207,9.9461,0.0001,0.0012,9.8066,0.0094,0.0409,-0.0234,0.63,-28.19,31.94,342.35,-86.37,161.55
10953,52.554695,-1.463064,0,0,6,0,22 / 23,1095318,2020-01-08 09:56:11:115,0.0555,0.0512,9.7849,0.0072,-0.0026,9.8066,0.001,0.0426,-0.0174,0.31,-28.06,32.63,340.01,-86.38,161.09
10954,52.554695,-1.463064,0,0,6,0,22 / 23,1095419,2020-01-08 09:56:11:216,-0.2117,0.4381,9.7596,-0.001,0.0019,9.8066,-0.0133,-0.0121,-0.0173,0.69,-28.62,32.25,342.08,-86.4,161.32
10955,52.554695,-1.463064,0,0,6,0,22 / 23,1095519,2020-01-08 09:56:11:316,0.2823,0.2631,9.8516,-0.0005,-0.0019,9.8066,-0.0109,-0.0171,0.0047,0.75,-28.56,32.44,342.25,-86.4,161.49
10956,52.554695,-1.463064,0,0,6,0,22 / 23,1095619,2020-01-08 09:56:11:416,-0.5312,0.0235,9.8094,0.0072,-0.0006,9.8065,-0.002,-0.0131,0.0405,0.38,-29.37,32.75,339.83,-86.39,160.96
10957,52.554695,-1.463064,0,0,6,0,22 / 23,1095718,2020-01-08 09:56:11:515,0.2282,-0.2205,9.8451,0.0014,-0.0002,9.8066,0.0064,-0.0127,0.0046,0.0,-28.94,32.56,339.94,-86.4,161.06
10958,52.554695,-1.463064,0,0,6,0,22 / 23,1095818,2020-01-08 09:56:11:615,0.0056,0.2285,9.8202,-0.0002,-0.0021,9.8066,0.0049,-0.0292,-0.0068,0.88,-28.25,32.56,342.08,-86.41,161.31
10959,52.554695,-1.463064,0,0,6,0,22 / 23,1095918,2020-01-08 09:56:11:715,-0.4406,0.1464,9.8042,-0.0065,0.0024,9.8066,-0.008,-0.0157,0.0092,0.63,-28.0,32.63,342.24,-86.43,161.46
10960,52.554695,-1.463064,0,0,6,0,22 / 23,1096019,2020-01-08 09:56:11:816,-0.2872,-0.4108,9.8419,-0.0011,0.0021,9.8066,-0.0157,-0.0168,-0.0025,0.75,-29.19,32.19,342.09,-86.41,161.34
10961,52.554695,-1.463064,0,0,6,0,22 / 23,1096118,2020-01-08 09:56:11:915,-0.2925,-0.4898,9.9556,-0.0048,-0.0023,9.8066,-0.0001,0.0299,0.0,0.75,-27.81,32.38,342.39,-86.4,161.58
10962,52.554695,-1.463064,0,0,6,0,22 / 23,1096219,2020-01-08 09:56:12:016,0.0477,-0.2341,9.8616,0.004,0.0002,9.8066,0.0075,0.0394,-0.0112,0.56,-28.56,32.25,341.77,-86.41,161.03
10963,52.554695,-1.463064,0,0,6,0,22 / 23,1096318,2020-01-08 09:56:12:115,-0.3982,0.2279,9.8801,0.0008,-0.0015,9.8066,0.0005,0.0323,-0.0347,0.38,-28.44,32.88,340.3,-86.41,161.36
10964,52.554695,-1.463064,0,0,6,0,22 / 23,1096419,2020-01-08 09:56:12:216,0.0816,-0.3465,9.7902,0.0015,0.0027,9.8066,-0.0164,0.0444,-0.0099,0.75,-28.75,32.31,342.34,-86.4,161.57
10965,52.554695,-1.463064,0,0,6,0,22 / 23,1096519,2020-01-08 09:56:12:316,-0.3826,0.1091,9.8292,0.0026,0.001,9.8066,-0.0287,-0.0092,0.0186,0.19,-28.75,32.5,340.2,-86.4,161.31
10966,52.554695,-1.463064,0,0,6,0,22 / 23,1096619,2020-01-08 09:56:12:416,0.0907,-0.4664,9.8639,0.0033,-0.0043,9.8066,-0.0131,-0.0262,0.0059,0.81,-28.25,31.81,342.22,-86.4,161.42
10967,52.554695,-1.463064,0,0,6,0,22 / 23,1096718,2020-01-08 09:56:12:515,0.1087,0.3236,9.7357,0.0061,0.003,9.8066,0.0057,-0.017,-0.0034,0.75,-28.75,33.06,341.93,-86.42,161.21
10968,52.554695,-1.463064,0,0,6,0,22 / 23,1096819,2020-01-08 09:56:12:616,-0.0298,-0.3396,9.8243,-0.0008,0.0015,9.8066,0.0121,-0.0186,-0.0076,0.81,-28.62,32.81,342.25,-86.43,161.5
10969,52.554695,-1.463064,0,0,6,0,22 / 23,1096919,2020-01-08 09:56:12:716,0.3195,0.1697,9.7959,-0.0027,0.0014,9.8066,0.0044,-0.0151,0.0295,0.31,-28.81,33.06,340.36,-86.41,161.45
10970,52.554695,-1.463064,0,0,6,0,22 / 23,1097019,2020-01-08 09:56:12:816,-0.4729,0.3519,9.8257,-0.0072,0.0032,9.8066,-0.0125,-0.0263,0.0285,0.56,-28.31,32.44,341.79,-86.38,161.03
10971,52.554695,-1.463064,0,0,6,0,22 / 23,1097118,2020-01-08 09:56:12:915,0.1306,-0.1818,9.7902,0.0025,0.0038,9.8066,0.0004,-0.0137,0.0034,0.38,-28.69,32.56,340.67,-86.39,161.76
10972,52.554695,-1.463064,0,0,6,0,22 / 23,1097219,2020-01-08 09:56:13:016,-0.4505,0.0307,9.8155,0.0032,0.0007,9.8066,0.0044,0.0169,-0.0273,0.38,-28.37,31.81,340.03,-86.41,161.14
10973,52.554695,-1.463064,0,0,6,0,22 / 23,1097319,2020-01-08 09:56:13:116,0.2435,-0.2001,9.8649,0.0037,0.0005,9.8066,0.0078,0.056,-0.0353,0.44,-28.06,32.63,340.27,-86.4,161.33
10974,52.554695,-1.463064,0,0,6,0,22 / 23,1097419,2020-01-08 09:56:13:216,0.0445,0.3604,9.8169,0.0063,-0.0001,9.8066,0.0087,0.0601,-0.0095,0.0,-28.37,32.31,340.12,-86.41,161.22
10975,52.554695,-1.463064,0,0,6,0,22 / 23,1097519,2020-01-08 09:56:13:316,-0.244,-0.3873,9.9395,-0.0028,-0.0017,9.8066,-0.0268,0.0276,-0.0043,0.19,-28.31,31.94,340.11,-86.44,161.21
10976,52.554695,-1.463064,0,0,6,0,22 / 23,1097619,2020-01-08 09:56:13:416,0.0355,0.0964,9.8754,-0.0007,0.0007,9.8066,-0.0218,0.0122,-0.0083,0.44,-28.44,32.94,340.51,-86.41,161.56
10977,52.554695,-1.463064,0,0,6,0,22 / 23,1097719,2020-01-08 09:56:13:516,-0.4756,-0.2527,9.8373,-0.009,0.002,9.8066,-0.0008,0.0085,-0.0111,0.56,-28.37,32.69,342.06,-86.39,161.3
10978,52.554695,-1.463064,0,0,6,0,22 / 23,1097819,2020-01-08 09:56:13:616,0.2264,-0.2932,9.8836,0.0032,0.0,9.8066,0.0118,0.004,-0.0254,0.75,-28.0,32.25,342.06,-86.4,161.27
10979,52.554695,-1.463064,0,0,6,0,22 / 23,1097919,2020-01-08 09:56:13:716,0.087,0.3578,9.8278,0.0015,-0.0023,9.8066,0.0066,-0.0224,0.0158,0.69,-28.25,32.38,342.41,-86.4,161.61
10980,52.554695,-1.463064,0,0,6,0,22 / 23,1098020,2020-01-08 09:56:13:817,0.2056,-0.0187,9.8241,-0.0094,0.0029,9.8066,-0.0072,-0.0263,0.0454,0.88,-28.44,32.56,342.03,-86.38,161.28
10981,52.554695,-1.463064,0,0,6,0,22 / 23,1098119,2020-01-08 09:56:13:916,-0.2832,0.4724,9.7598,-0.0045,0.0037,9.8066,-0.021,-0.0448,0.0145,0.44,-28.81,32.19,340.47,-86.42,161.59
10982,52.554695,-1.463064,0,0,6,0,22 / 23,1098219,2020-01-08 09:56:14:016,-0.1848,-0.3801,10.0349,0.0002,-0.0041,9.8066,-0.0152,-0.0363,-0.0017,0.0,-28.75,32.06,340.25,-86.41,161.39
10983,52.554695,-1.463064,0,0,6,0,22 / 23,1098319,2020-01-08 09:56:14:116,-0.007,0.322,9.8496,0.0,0.0025,9.8066,0.015,0.0014,-0.0057,0.0,-28.75,32.75,340.3,-86.4,161.4
10984,52.554695,-1.463064,0,0,6,0,22 / 23,1098419,2020-01-08 09:56:14:216,-0.1999,0.1961,9.865,-0.0054,0.0012,9.8066,0.008,0.026,-0.027,0.75,-28.62,32.88,342.11,-86.37,161.39
10985,52.554695,-1.463064,0,0,6,0,22 / 23,1098519,2020-01-08 09:56:14:316,-0.0549,0.1188,9.8197,0.0016,-0.0015,9.8066,-0.0097,0.0351,0.0117,0.56,-28.56,32.69,341.99,-86.39,161.27
10986,52.554695,-1.463064,0,0,6,0,22 / 23,1098619,2020-01-08 09:56:14:416,0.0438,-0.0898,9.9347,0.0045,-0.0021,9.8066,-0.0056,0.0346,0.0195,0.13,-28.81,32.69,340.67,-86.4,161.75
10987,52.554695,-1.463064,0,0,6,0,22 / 23,1098719,2020-01-08 09:56:14:516,-0.2779,0.3662,9.8199,-0.0052,-0.0027,9.8066,-0.0182,-0.0006,-0.027,0.5,-28.69,32.56,342.62,-86.38,161.86
