,GPS LATITUDE (degrees), GPS LONGITUDE (degrees), GPS ALTITUDE (m), GPS SPEED (Kmh), GPS ACCURACY (m), GPS ORIENTATION (Â°),GPS SATELLITES IN RANGE, TIME SINCE START (ms), DATE (YYYY-MO-DD HH-MI-SS_SSS), ACCELEROMETER X (m/s²) , ACCELEROMETER Y (m/s²), ACCELEROMETER Z (m/s²), GRAVITY X (m/s²), GRAVITY Y (m/s²), GRAVITY Z (m/s²), GYROSCOPE Yaw (rad/s), GYROSCOPE Pitch (rad/s), GYROSCOPE Roll (rad/s), MAGNETIC FIELD X (Î¼T), MAGNETIC FIELD Y (Î¼T), MAGNETIC FIELD Z (Î¼T), ORIENTATION (Yaw) (Â°), ORIENTATION (Pitch) (Â°), ORIENTATION (Roll ) (Â°)
22514,52.436733,-1.531323,183.48,10.46,2.0,182.12,23 / 24,2255627,2019-09-07 09:51:00:906,-0.9084,-0.038,9.6835,0.0056,-0.0064,9.8066,-0.046,-0.0481,0.0382,-11.62,-32.75,31.94,15.39,-85.01,-145.39
22515,52.436733,-1.531323,183.48,10.46,2.0,182.12,23 / 24,2255727,2019-09-07 09:51:01:006,-0.3942,0.6318,9.8953,0.0015,0.0153,9.8066,-0.0655,0.0157,0.0086,-11.0,-32.5,31.63,16.63,-85.05,-145.8
22516,52.436733,-1.531323,183.48,10.46,2.0,182.12,23 / 24,2255828,2019-09-07 09:51:01:107,0.419,0.4042,9.7062,0.0105,0.0093,9.8066,0.0361,-0.0754,0.0308,-10.75,-32.25,31.69,15.21,-85.18,-147.06
22517,52.436733,-1.531323,183.48,10.46,2.0,182.12,23 / 24,2255928,2019-09-07 09:51:01:207,-0.4963,0.2312,10.3904,-0.0013,-0.0102,9.8066,0.0177,-0.0117,-0.0057,-11.81,-32.12,31.94,13.2,-85.13,-147.33
22518,52.436733,-1.531323,183.48,10.46,2.0,182.12,23 / 24,2256028,2019-09-07 09:51:01:307,-0.5193,0.1674,10.5036,0.0054,-0.0072,9.8066,0.0795,-0.0374,-0.0068,-11.56,-32.5,31.81,13.48,-84.97,-147.11
22519,52.436733,-1.531323,183.48,10.46,2.0,182.12,24 / 24,2256127,2019-09-07 09:51:01:406,-0.67,-0.4431,9.7588,0.0051,0.0003,9.8066,0.0237,-0.0338,0.0613,-11.44,-32.19,32.19,13.52,-84.84,-148.7
22520,52.436733,-1.531323,183.48,10.46,2.0,182.12,24 / 24,2256227,2019-09-07 09:51:01:506,0.0349,-0.0565,9.0064,0.0041,0.0042,9.8066,0.0205,-0.0695,0.0323,-11.37,-31.94,32.06,13.91,-84.71,-148.37
22521,52.436733,-1.531323,183.48,10.46,2.0,182.12,24 / 24,2256327,2019-09-07 09:51:01:606,-2.0479,1.2364,10.2312,0.0037,-0.0273,9.8065,-0.0831,-0.101,0.0807,-11.94,-31.56,32.31,12.63,-84.63,-147.96
22522,52.436733,-1.531323,183.48,10.46,2.0,182.12,24 / 24,2256427,2019-09-07 09:51:01:706,0.6022,0.6709,10.0765,0.0002,0.0277,9.8065,0.0153,-0.1055,0.0767,-11.19,-31.56,32.19,16.61,-84.86,-145.87
22523,52.436733,-1.531323,183.48,10.46,2.0,182.12,24 / 24,2256527,2019-09-07 09:51:01:806,0.0701,0.6486,9.4538,-0.0038,0.0125,9.8066,-0.1538,0.0025,0.0108,-12.0,-32.12,31.75,15.23,-84.81,-145.55
22524,52.436733,-1.531323,183.48,10.46,2.0,182.12,24 / 24,2256627,2019-09-07 09:51:01:906,-0.3768,0.3661,9.8257,-0.0058,0.0041,9.8066,0.1097,-0.026,0.0022,-11.37,-31.37,32.31,17.08,-84.71,-145.44
22525,52.436733,-1.531323,183.48,10.46,2.0,182.12,24 / 24,2256727,2019-09-07 09:51:02:006,0.0346,0.7951,10.1697,-0.0012,0.001,9.8066,0.0043,0.0273,-0.0575,-11.25,-32.44,32.31,17.67,-84.71,-144.94
22526,52.436733,-1.531323,183.48,10.46,2.0,182.12,24 / 24,2256828,2019-09-07 09:51:02:107,-0.5092,0.7026,10.0552,-0.0045,-0.0085,9.8066,0.0188,-0.0249,0.0039,-11.56,-32.0,31.88,15.51,-84.77,-145.31
22527,52.436733,-1.531323,183.48,10.46,2.0,182.12,24 / 24,2256927,2019-09-07 09:51:02:206,-0.0174,0.5759,10.0289,-0.0029,-0.0103,9.8066,-0.0406,0.0252,0.006,-11.62,-33.0,32.06,15.82,-84.67,-145.09
22528,52.436733,-1.531323,183.48,10.46,2.0,182.12,24 / 24,2257027,2019-09-07 09:51:02:306,-0.5333,0.4324,9.7174,0.0,0.0021,9.8066,0.0291,0.0184,0.0044,-11.94,-32.31,32.31,15.92,-84.69,-144.95
22529,52.436733,-1.531323,183.48,10.46,2.0,182.12,25 / 25,2257128,2019-09-07 09:51:02:407,-0.1077,0.7876,9.7742,-0.0028,-0.0044,9.8066,-0.0148,0.0027,0.0156,-11.62,-32.62,31.94,16.53,-84.71,-144.44
22530,52.436733,-1.531323,183.48,10.46,2.0,182.12,25 / 25,2257227,2019-09-07 09:51:02:506,-1.0469,0.692,10.6465,0.0183,-0.0131,9.8065,-0.0291,-0.016,-0.0396,-11.44,-32.5,32.44,17.52,-84.75,-145.07
22531,52.436733,-1.531323,183.48,10.46,2.0,182.12,25 / 25,2257328,2019-09-07 09:51:02:607,-0.9072,1.0238,10.005,0.0014,-0.0172,9.8066,0.0093,-0.023,-0.0147,-11.37,-32.62,32.44,18.88,-84.84,-143.85
22532,52.436733,-1.531323,183.48,10.46,2.0,182.12,25 / 25,2257427,2019-09-07 09:51:02:706,-0.8122,0.8783,9.641,0.0,-0.0226,9.8066,-0.0793,-0.0211,0.0055,-11.0,-32.37,32.31,18.33,-84.68,-144.36
22533,52.436733,-1.531323,183.48,10.46,2.0,182.12,25 / 25,2257527,2019-09-07 09:51:02:806,-1.0204,0.7463,9.6514,-0.0007,0.0,9.8066,-0.0387,-0.0743,0.0261,-11.25,-32.44,32.81,18.23,-84.74,-144.92
22534,52.436733,-1.531323,183.48,10.46,2.0,182.12,25 / 25,2257627,2019-09-07 09:51:02:906,-0.2081,0.6459,10.0705,-0.0133,0.0172,9.8065,0.0558,-0.0448,-0.0314,-11.25,-32.69,31.44,18.43,-84.84,-143.74
22535,52.436733,-1.531323,183.48,10.46,2.0,182.12,25 / 25,2257728,2019-09-07 09:51:03:007,-0.1819,-1.1569,10.4323,0.0046,-0.0212,9.8066,0.0888,-0.0514,-0.0031,-10.94,-32.56,31.94,17.71,-84.85,-144.92
22536,52.436733,-1.531323,183.48,10.46,2.0,182.12,25 / 25,2257828,2019-09-07 09:51:03:107,-1.4476,-0.1493,8.5941,0.0449,-0.0058,9.8065,-0.3246,-0.0212,0.008,-11.25,-32.56,31.88,14.88,-85.05,-147.44
22537,52.436733,-1.531323,183.48,10.46,2.0,182.12,25 / 25,2257927,2019-09-07 09:51:03:206,0.2236,2.8678,9.9123,-0.0244,0.0755,9.8063,-0.2496,0.0621,-0.0645,-11.06,-32.81,31.44,15.03,-84.76,-146.85
22538,52.436733,-1.531323,183.48,10.46,2.0,182.12,25 / 25,2258027,2019-09-07 09:51:03:306,-1.1256,0.7169,11.2008,-0.0352,0.0128,9.8066,0.2417,-0.0251,0.0808,-11.56,-32.69,32.13,18.32,-84.74,-142.79
22539,52.436733,-1.531323,183.48,10.46,2.0,182.12,23 / 23,2258128,2019-09-07 09:51:03:407,-1.1675,0.4679,9.9194,0.0065,-0.0079,9.8066,0.2821,-0.0442,0.1051,-11.06,-32.37,32.0,19.36,-84.44,-143.5
22540,52.436733,-1.531323,183.48,10.46,2.0,182.12,23 / 23,2258227,2019-09-07 09:51:03:506,0.7407,-1.3686,9.2783,0.0025,-0.0311,9.8065,-0.3047,-0.082,0.092,-11.0,-32.37,32.38,17.6,-84.13,-145.19
22541,52.436733,-1.531323,183.48,10.46,2.0,182.12,23 / 23,2258327,2019-09-07 09:51:03:606,-0.3905,1.2402,9.7626,-0.017,0.0094,9.8066,-0.1742,0.0071,0.0264,-11.81,-32.31,32.13,17.69,-84.23,-143.48
22542,52.436733,-1.531323,183.48,10.46,2.0,182.12,23 / 23,2258427,2019-09-07 09:51:03:706,-1.8086,2.1295,9.9784,0.0031,0.0043,9.8066,-0.0411,-0.0815,0.0249,-11.44,-32.5,31.56,20.73,-84.3,-142.3
22543,52.436733,-1.531323,183.48,10.46,2.0,182.12,23 / 23,2258527,2019-09-07 09:51:03:806,-1.3938,0.8481,9.5098,-0.0154,0.0473,9.8065,-0.1114,-0.0527,0.0388,-11.5,-33.19,32.13,24.0,-84.21,-139.44
22544,52.436733,-1.531323,183.48,10.46,2.0,182.12,23 / 23,2258627,2019-09-07 09:51:03:906,-0.2667,0.6799,9.982,-0.0006,0.0327,9.8065,0.0996,-0.0566,-0.0514,-10.94,-32.56,32.19,25.18,-84.37,-138.3
22545,52.436733,-1.531323,183.48,10.46,2.0,182.12,23 / 23,2258727,2019-09-07 09:51:04:006,-0.0285,0.7137,10.255,0.0047,-0.0135,9.8066,0.0359,-0.0463,-0.0506,-10.94,-32.5,32.06,23.16,-84.38,-140.06
22546,52.436733,-1.531323,183.48,10.46,2.0,182.12,23 / 23,2258827,2019-09-07 09:51:04:106,-1.9218,0.5202,10.2333,-0.0012,0.0022,9.8066,-0.0117,-0.0273,-0.0615,-11.37,-32.19,31.88,22.18,-84.24,-141.01
22547,52.436733,-1.531323,183.48,10.46,2.0,182.12,23 / 23,2258928,2019-09-07 09:51:04:207,0.0909,-2.9094,11.6273,-0.0086,-0.0219,9.8065,0.227,-0.1268,0.0509,-10.12,-32.06,32.06,23.93,-84.18,-141.08
22548,52.436733,-1.531323,183.48,10.46,2.0,182.12,23 / 23,2259027,2019-09-07 09:51:04:306,-0.7129,-2.7936,10.3319,0.0596,-0.1361,9.8054,0.0968,-0.1957,0.0512,-10.44,-31.44,32.69,26.67,-84.5,-138.8
22549,52.436733,-1.531323,183.48,10.46,2.0,182.12,24 / 25,2259127,2019-09-07 09:51:04:406,-0.8228,-1.6318,11.651,0.0421,-0.0849,9.8061,0.2737,-0.1495,-0.0276,-9.75,-31.56,32.25,20.07,-84.22,-144.56
22550,52.436733,-1.531323,183.48,10.46,2.0,182.12,24 / 25,2259227,2019-09-07 09:51:04:506,-1.3242,0.0706,8.4499,0.0275,-0.0285,9.8065,-0.3175,-0.1645,0.0535,-9.31,-32.62,32.5,20.64,-84.4,-146.1
22551,52.436733,-1.531323,183.48,10.46,2.0,182.12,24 / 25,2259327,2019-09-07 09:51:04:606,0.3488,0.902,8.9036,0.0219,-0.1181,9.8059,-0.1158,-0.0321,-0.0761,-9.94,-32.44,32.44,16.97,-84.18,-147.38
22552,52.436733,-1.531323,183.48,10.46,2.0,182.12,24 / 25,2259427,2019-09-07 09:51:04:706,-2.0162,0.5005,10.48,-0.0165,0.0219,9.8066,-0.3775,-0.0925,-0.054,-8.94,-32.81,32.0,21.79,-84.44,-144.65
22553,52.436733,-1.531323,183.48,10.46,2.0,182.12,24 / 25,2259527,2019-09-07 09:51:04:806,-2.0552,2.55,9.8958,0.0255,-0.0283,9.8065,-0.2546,-0.1179,-0.0691,-8.81,-33.06,30.94,22.19,-84.68,-143.76
22554,52.436733,-1.531323,183.48,10.46,2.0,182.12,24 / 25,2259627,2019-09-07 09:51:04:906,-0.8404,1.1225,9.693,-0.0064,0.0518,9.8065,0.1344,-0.0732,-0.0092,-9.12,-32.44,31.5,21.24,-84.9,-144.91
22555,52.436733,-1.531323,183.48,10.46,2.0,182.12,24 / 25,2259728,2019-09-07 09:51:05:007,-0.9539,0.8041,10.1908,-0.0117,0.0377,9.8065,0.1177,-0.1385,0.05,-8.94,-32.94,31.88,22.96,-85.17,-143.27
22556,52.436733,-1.531323,183.48,10.46,2.0,182.12,24 / 25,2259827,2019-09-07 09:51:05:106,-0.7305,-0.3578,10.0258,0.0036,-0.0394,9.8065,-0.0597,-0.0889,-0.0086,-8.31,-33.12,31.5,23.63,-84.89,-144.46
22557,52.436733,-1.531323,183.48,10.46,2.0,182.12,24 / 25,2259927,2019-09-07 09:51:05:206,-0.1775,-0.0117,9.7863,0.009,-0.0184,9.8066,0.0218,-0.0745,0.0203,-8.81,-32.81,31.31,21.29,-84.93,-144.48
22558,52.436733,-1.531323,183.48,10.46,2.0,182.12,24 / 25,2260027,2019-09-07 09:51:05:306,-1.0961,1.3141,10.2543,-0.0053,-0.0064,9.8066,-0.0623,-0.0711,-0.0208,-8.06,-32.25,31.63,23.89,-84.91,-144.16
22559,52.436733,-1.531323,183.48,10.46,2.0,182.12,24 / 25,2260128,2019-09-07 09:51:05:407,-0.8995,0.5898,9.5751,0.0157,0.0016,9.8066,-0.0332,-0.1694,0.0548,-7.12,-33.06,31.88,24.79,-84.89,-145.11
22560,52.436733,-1.531323,183.48,10.46,2.0,182.12,24 / 25,2260227,2019-09-07 09:51:05:506,-1.5121,-0.0293,9.7462,0.0119,-0.0011,9.8066,-0.0091,-0.0944,-0.0549,-8.62,-32.87,31.06,20.65,-84.76,-145.13
22561,52.436733,-1.531323,183.48,10.46,2.0,182.12,24 / 25,2260327,2019-09-07 09:51:05:606,-0.535,1.1164,9.4797,0.0226,-0.0069,9.8066,-0.0205,-0.0819,-0.0164,-7.94,-32.69,31.44,19.38,-84.93,-147.96
22562,52.436733,-1.531323,183.48,10.46,2.0,182.12,24 / 25,2260427,2019-09-07 09:51:05:706,-1.5861,0.6997,9.781,-0.002,0.0264,9.8065,0.0706,-0.1633,0.1137,-6.5,-32.56,31.63,23.51,-85.1,-147.93
22563,52.436733,-1.531323,183.48,10.46,2.0,182.12,24 / 25,2260527,2019-09-07 09:51:05:806,-1.0549,1.113,10.1242,-0.0122,0.0302,9.8065,-0.0112,-0.0914,0.0525,-7.31,-33.0,30.88,22.31,-85.07,-146.98
22564,52.436733,-1.531323,183.48,10.46,2.0,182.12,24 / 25,2260627,2019-09-07 09:51:05:906,-0.9734,0.8322,10.2731,-0.0037,-0.0044,9.8065,-0.018,-0.0632,-0.0305,-7.31,-32.87,30.88,24.24,-85.12,-145.19
22565,52.436733,-1.531323,183.48,10.46,2.0,182.12,24 / 25,2260727,2019-09-07 09:51:06:006,-0.67,0.6197,9.6435,0.0113,0.0081,9.8066,-0.0405,-0.1049,0.0202,-6.75,-33.31,31.63,24.84,-85.22,-144.92
22566,52.436733,-1.531323,183.48,10.46,2.0,182.12,24 / 25,2260827,2019-09-07 09:51:06:106,-0.2475,0.8258,9.5715,0.0095,0.0094,9.8066,0.0063,-0.0527,-0.0179,-6.19,-33.62,31.44,26.38,-85.29,-145.0
22567,52.436733,-1.531323,183.48,10.46,2.0,182.12,24 / 25,2260927,2019-09-07 09:51:06:206,-0.2114,1.0962,9.9842,-0.0114,0.0117,9.8066,0.0197,-0.0478,0.0366,-6.25,-33.44,30.5,26.82,-85.42,-144.45
22568,52.436733,-1.531323,183.48,10.46,2.0,182.12,24 / 25,2261027,2019-09-07 09:51:06:306,-0.3662,0.7613,10.3829,-0.0115,-0.0115,9.8066,-0.0073,-0.0727,0.0488,-7.0,-33.25,30.19,26.25,-85.31,-142.91
22569,52.43604,-1.53141,182.82,4.71,3.0,199.07,25 / 25,2261128,2019-09-07 09:51:06:407,-0.843,0.7973,9.9008,-0.0102,-0.0107,9.8066,-0.0009,-0.068,0.0055,-6.5,-33.56,31.06,30.14,-85.28,-141.54
22570,52.43604,-1.53141,182.82,4.71,3.0,199.07,25 / 25,2261227,2019-09-07 09:51:06:506,-0.737,0.9712,9.6344,-0.0095,0.0021,9.8066,-0.013,-0.0474,-0.006,-6.62,-32.81,31.0,29.89,-85.16,-139.97
22571,52.43604,-1.53141,182.82,4.71,3.0,199.07,25 / 25,2261327,2019-09-07 09:51:06:606,-0.6956,1.2605,9.9297,-0.0001,0.0027,9.8066,0.0179,-0.0884,0.0419,-6.87,-33.06,30.31,31.21,-85.2,-138.41
22572,52.43604,-1.53141,182.82,4.71,3.0,199.07,25 / 25,2261427,2019-09-07 09:51:06:706,0.2812,1.4093,9.8382,0.0121,0.0056,9.8066,0.0078,-0.047,-0.0211,-6.56,-33.31,30.38,30.69,-85.28,-138.84
22573,52.43604,-1.53141,182.82,4.71,3.0,199.07,25 / 25,2261528,2019-09-07 09:51:06:807,0.1552,1.0627,9.9565,0.0012,-0.0022,9.8066,0.0224,-0.0314,-0.0191,-6.19,-32.94,30.56,31.76,-85.3,-139.96
22574,52.43604,-1.53141,182.82,4.71,3.0,199.07,25 / 25,2261628,2019-09-07 09:51:06:907,0.0863,0.9938,9.9723,-0.0074,0.0025,9.8066,-0.0096,-0.017,0.0389,-6.12,-33.69,30.31,32.02,-85.3,-139.53
22575,52.43604,-1.53141,182.82,4.71,3.0,199.07,25 / 25,2261727,2019-09-07 09:51:07:006,0.0051,1.2468,9.9814,-0.0104,0.0091,9.8066,-0.0304,0.009,0.0192,-6.12,-33.37,30.5,34.52,-85.31,-137.4
22576,52.43604,-1.53141,182.82,4.71,3.0,199.07,25 / 25,2261827,2019-09-07 09:51:07:106,-0.5978,1.0927,9.839,-0.0132,0.0019,9.8065,-0.0241,0.0279,-0.0121,-6.31,-34.12,30.13,36.81,-85.3,-135.11
22577,52.43604,-1.53141,182.82,4.71,3.0,199.07,25 / 25,2261927,2019-09-07 09:51:07:206,-0.3664,1.6407,10.1199,-0.001,-0.0011,9.8066,0.0145,0.0221,0.0186,-6.75,-33.75,30.19,36.16,-85.27,-133.88
22578,52.43604,-1.53141,182.82,4.71,3.0,199.07,25 / 25,2262027,2019-09-07 09:51:07:306,0.1332,1.5308,9.9547,0.0009,0.014,9.8066,0.0207,0.0648,-0.0217,-6.44,-33.37,30.38,38.26,-85.26,-133.69
22579,52.43604,-1.53141,182.82,4.71,3.0,199.07,25 / 25,2262127,2019-09-07 09:51:07:406,-0.073,1.2603,9.9405,0.0007,0.0089,9.8066,-0.0048,0.0562,0.0202,-6.5,-33.5,30.5,39.43,-85.38,-132.77
22580,52.43604,-1.53141,182.82,4.71,3.0,199.07,25 / 25,2262227,2019-09-07 09:51:07:506,0.6693,1.1622,9.7738,-0.0056,0.0069,9.8066,-0.0165,0.0887,-0.0285,-6.56,-33.62,30.38,38.91,-85.48,-131.18
22581,52.43604,-1.53141,182.82,4.71,3.0,199.07,25 / 25,2262327,2019-09-07 09:51:07:606,0.2767,1.274,9.7905,-0.0058,0.0111,9.8066,-0.0242,0.064,-0.0067,-6.69,-33.75,30.44,40.58,-85.54,-129.57
22582,52.43604,-1.53141,182.82,4.71,3.0,199.07,25 / 25,2262427,2019-09-07 09:51:07:706,0.154,1.787,10.0876,-0.0032,0.0059,9.8066,-0.0009,0.0495,0.0211,-7.19,-33.87,30.38,42.67,-85.57,-127.59
22583,52.43604,-1.53141,182.82,4.71,3.0,199.07,25 / 25,2262527,2019-09-07 09:51:07:806,0.1641,1.2641,9.7945,-0.0065,-0.0017,9.8066,-0.0376,0.0925,-0.0121,-7.75,-33.5,30.0,41.99,-85.55,-126.33
22584,52.43604,-1.53141,182.82,4.71,3.0,199.07,25 / 25,2262627,2019-09-07 09:51:07:906,-0.3739,1.4707,9.9441,-0.0068,0.0076,9.8066,0.014,0.0871,0.0013,-8.0,-33.69,30.06,43.32,-85.54,-125.19
22585,52.43604,-1.53141,182.82,4.71,3.0,199.07,25 / 25,2262727,2019-09-07 09:51:08:006,-0.1014,0.7926,10.0515,-0.0026,0.0096,9.8066,0.0338,0.0881,0.0138,-7.62,-33.25,30.63,45.09,-85.56,-123.77
22586,52.43604,-1.53141,182.82,4.71,3.0,199.07,25 / 25,2262827,2019-09-07 09:51:08:106,0.1264,-0.1039,9.8679,0.0019,-0.0086,9.8066,0.032,0.0956,-0.0171,-7.62,-33.25,30.5,44.1,-85.51,-124.74
22587,52.43604,-1.53141,182.82,4.71,3.0,199.07,25 / 25,2262927,2019-09-07 09:51:08:206,0.364,-0.6486,9.7487,0.0056,-0.01,9.8066,0.0451,0.0922,-0.0161,-7.44,-33.12,30.88,44.56,-85.51,-126.08
22588,52.43604,-1.53141,182.82,4.71,3.0,199.07,25 / 25,2263027,2019-09-07 09:51:08:306,0.2349,-0.5701,9.5388,0.006,0.0005,9.8066,-0.0032,0.1074,-0.0515,-6.94,-33.0,30.88,43.25,-85.52,-127.3
22589,52.43604,-1.53141,182.82,4.71,3.0,199.07,24 / 24,2263127,2019-09-07 09:51:08:406,0.3965,-0.1549,9.7286,0.0083,0.0059,9.8066,-0.0018,0.0909,-0.0454,-8.31,-33.56,30.88,40.56,-85.67,-128.04
22590,52.43604,-1.53141,182.82,4.71,3.0,199.07,24 / 24,2263227,2019-09-07 09:51:08:506,0.4431,-0.7013,9.7134,0.0064,0.0058,9.8065,-0.0067,0.1608,-0.0378,-8.06,-33.19,30.75,40.29,-85.76,-128.15
22591,52.43604,-1.53141,182.82,4.71,3.0,199.07,24 / 24,2263327,2019-09-07 09:51:08:606,0.7347,0.1064,9.9637,0.0059,0.0054,9.8065,0.0301,0.1195,0.0033,-8.87,-32.75,30.88,37.97,-85.93,-128.47
22592,52.43604,-1.53141,182.82,4.71,3.0,199.07,24 / 24,2263427,2019-09-07 09:51:08:706,0.5481,-0.5076,9.7062,0.006,-0.0044,9.8065,-0.028,0.1515,0.0099,-9.5,-32.81,31.13,37.78,-85.95,-128.64
22593,52.43604,-1.53141,182.82,4.71,3.0,199.07,24 / 24,2263528,2019-09-07 09:51:08:807,0.9078,-0.0408,9.8756,-0.0009,-0.0082,9.8066,-0.0032,0.1797,0.001,-9.44,-33.06,31.38,38.14,-85.96,-128.29
22594,52.43604,-1.53141,182.82,4.71,3.0,199.07,24 / 24,2263627,2019-09-07 09:51:08:906,1.1697,-0.7067,10.0272,-0.0031,0.0061,9.8066,0.1267,0.2186,-0.0018,-9.69,-32.81,31.44,35.93,-85.88,-128.71
22595,52.43604,-1.53141,182.82,4.71,3.0,199.07,24 / 24,2263727,2019-09-07 09:51:09:006,1.3031,-2.2511,10.0961,-0.0012,-0.0029,9.8066,0.1218,0.1867,0.0219,-9.69,-32.19,31.81,35.21,-85.75,-129.85
22596,52.43604,-1.53141,182.82,4.71,3.0,199.07,24 / 24,2263827,2019-09-07 09:51:09:106,1.566,-2.7884,9.6732,0.0138,-0.0276,9.8065,0.0324,0.2324,-0.0357,-10.0,-32.12,32.25,32.51,-85.58,-132.48
22597,52.43604,-1.53141,182.82,4.71,3.0,199.07,24 / 24,2263928,2019-09-07 09:51:09:207,1.5035,-2.5199,9.197,0.0213,-0.018,9.8066,-0.0021,0.2316,-0.0551,-10.75,-32.31,32.44,25.73,-85.49,-137.22
22598,52.43604,-1.53141,182.82,4.71,3.0,199.07,24 / 24,2264027,2019-09-07 09:51:09:306,1.5586,-1.7291,9.3654,0.0194,0.0291,9.8065,-0.0057,0.2663,-0.0815,-11.0,-32.69,31.38,22.81,-85.85,-139.32
22599,52.43604,-1.53141,182.82,4.71,3.0,199.07,24 / 25,2264127,2019-09-07 09:51:09:406,1.6666,-1.5261,9.395,0.0171,0.0197,9.8066,-0.0627,0.2675,-0.0547,-10.94,-32.94,31.94,21.37,-86.14,-141.07
22600,52.43604,-1.53141,182.82,4.71,3.0,199.07,24 / 25,2264227,2019-09-07 09:51:09:506,1.4018,-0.3163,9.5632,0.0065,0.0391,9.8065,-0.0179,0.256,-0.0283,-11.0,-32.25,32.81,20.91,-86.41,-141.87
22601,52.43604,-1.53141,182.82,4.71,3.0,199.07,24 / 25,2264327,2019-09-07 09:51:09:606,1.5432,0.1307,9.9237,0.0112,0.0333,9.8065,-0.034,0.3118,-0.0261,-11.56,-32.69,32.31,19.15,-86.94,-141.29
22602,52.43604,-1.53141,182.82,4.71,3.0,199.07,24 / 25,2264427,2019-09-07 09:51:09:706,1.6347,-0.9501,10.4144,-0.0104,0.0068,9.8066,0.0593,0.3024,0.0204,-12.25,-32.31,31.81,19.07,-87.09,-141.28
22603,52.43604,-1.53141,182.82,4.71,3.0,199.07,24 / 25,2264527,2019-09-07 09:51:09:806,1.0789,-0.3017,10.2362,-0.0037,0.0087,9.8066,-0.0209,0.2927,-0.0037,-12.75,-32.25,31.88,19.6,-87.09,-139.22
22604,52.43604,-1.53141,182.82,4.71,3.0,199.07,24 / 25,2264628,2019-09-07 09:51:09:907,1.4196,-1.2471,9.679,0.0059,0.0048,9.8066,0.0127,0.3576,-0.0575,-13.81,-32.75,31.81,18.79,-87.26,-138.44
22605,52.43604,-1.53141,182.82,4.71,3.0,199.07,24 / 25,2264728,2019-09-07 09:51:10:007,2.2163,-1.5346,9.4005,0.0189,0.0038,9.8066,0.0506,0.2997,-0.0498,-13.31,-32.12,31.81,17.12,-87.36,-141.51
22606,52.43604,-1.53141,182.82,4.71,3.0,199.07,24 / 25,2264827,2019-09-07 09:51:10:106,1.652,-1.7879,9.6456,0.0176,-0.0112,9.8065,-0.0008,0.3433,-0.0782,-14.0,-31.5,31.63,8.97,-87.42,-147.77
22607,52.43604,-1.53141,182.82,4.71,3.0,199.07,24 / 25,2264928,2019-09-07 09:51:10:207,1.9995,-1.455,10.0788,0.0322,0.0003,9.8065,0.0083,0.305,-0.0611,-14.94,-32.25,31.75,357.98,-87.44,-156.82
22608,52.43604,-1.53141,182.82,4.71,3.0,199.07,24 / 25,2265027,2019-09-07 09:51:10:306,1.2566,-0.9511,10.0271,0.0163,0.0086,9.8066,-0.0075,0.2771,-0.0064,-15.06,-32.37,31.5,351.4,-87.49,-163.14
22609,52.43604,-1.53141,182.82,4.71,3.0,199.07,25 / 25,2265127,2019-09-07 09:51:10:406,1.838,-1.3433,9.4423,0.0099,0.0076,9.8066,-0.0131,0.3277,-0.1175,-15.37,-32.5,31.31,344.68,-87.59,-168.89
22610,52.43604,-1.53141,182.82,4.71,3.0,199.07,25 / 25,2265227,2019-09-07 09:51:10:506,1.9263,-1.3178,9.3315,0.0027,0.0004,9.8066,0.0308,0.2609,-0.0146,-15.75,-32.44,31.69,338.6,-87.65,-174.05
22611,52.43604,-1.53141,182.82,4.71,3.0,199.07,25 / 25,2265328,2019-09-07 09:51:10:607,1.345,-1.149,9.5362,-0.0004,-0.0221,9.8066,-0.0113,0.2579,-0.014,-16.5,-32.19,31.19,340.0,-87.48,-171.89
22612,52.43604,-1.53141,182.82,4.71,3.0,199.07,25 / 25,2265427,2019-09-07 09:51:10:706,0.0299,-1.4776,9.8004,-0.0149,0.011,9.8066,0.0378,0.1886,0.0107,-17.0,-32.06,30.75,338.85,-87.33,-171.52
22613,52.43604,-1.53141,182.82,4.71,3.0,199.07,25 / 25,2265527,2019-09-07 09:51:10:806,0.0191,-2.439,9.5498,-0.0042,0.0201,9.8065,0.0351,0.1021,0.0269,-17.0,-31.56,31.38,339.72,-87.42,-170.71
22614,52.43604,-1.53141,182.82,4.71,3.0,199.07,25 / 25,2265627,2019-09-07 09:51:10:906,0.5103,-2.0159,9.705,0.0209,0.0123,9.8065,-0.0132,0.0778,-0.0523,-17.5,-31.69,31.44,336.14,-87.39,-174.14
22615,52.43604,-1.53141,182.82,4.71,3.0,199.07,25 / 25,2265727,2019-09-07 09:51:11:006,-0.3025,-1.7465,9.6725,0.0186,0.031,9.8065,-0.0209,0.0097,-0.0316,-16.87,-32.56,30.69,325.18,-87.49,175.28
22616,52.43604,-1.53141,182.82,4.71,3.0,199.07,25 / 25,2265827,2019-09-07 09:51:11:106,0.8154,-1.2346,9.9279,0.0137,0.0174,9.8066,0.0167,-0.0319,-0.0165,-16.19,-32.12,31.06,315.67,-87.57,164.56
22617,52.43604,-1.53141,182.82,4.71,3.0,199.07,25 / 25,2265928,2019-09-07 09:51:11:207,0.0301,-1.4464,9.6458,-0.0089,0.0091,9.8066,-0.024,-0.0273,0.0032,-17.12,-32.19,31.5,313.99,-87.65,163.49
22618,52.43604,-1.53141,182.82,4.71,3.0,199.07,25 / 25,2266028,2019-09-07 09:51:11:307,-1.047,-1.8722,9.4141,-0.0163,0.0157,9.8066,0.0031,-0.0525,-0.0331,-17.0,-32.75,31.38,316.93,-87.74,167.13
22619,52.43604,-1.53141,182.82,4.71,3.0,199.07,24 / 24,2266128,2019-09-07 09:51:11:407,-1.7426,-1.6796,9.6579,-0.0061,0.013,9.8066,-0.0053,-0.109,-0.0045,-16.37,-32.12,31.5,318.49,-87.95,166.28
22620,52.43604,-1.53141,182.82,4.71,3.0,199.07,24 / 24,2266227,2019-09-07 09:51:11:506,-1.0243,-0.7754,10.446,0.0071,-0.0057,9.8066,-0.0016,-0.1049,-0.0286,-16.5,-32.12,31.88,314.2,-87.89,162.14
22621,52.43604,-1.53141,182.82,4.71,3.0,199.07,24 / 24,2266327,2019-09-07 09:51:11:606,-1.1113,-1.8487,9.6676,-0.0165,0.0045,9.8066,0.0239,-0.2077,0.0739,-16.19,-32.31,31.56,314.53,-87.87,162.47
22622,52.43604,-1.53141,182.82,4.71,3.0,199.07,24 / 24,2266427,2019-09-07 09:51:11:706,-1.2426,-1.7691,9.2641,-0.0147,-0.022,9.8065,0.009,-0.2679,0.103,-15.75,-32.06,31.88,327.16,-87.79,174.82
22623,52.43604,-1.53141,182.82,4.71,3.0,199.07,24 / 24,2266527,2019-09-07 09:51:11:806,-2.0678,-2.6361,9.914,-0.0208,-0.0277,9.8066,-0.0242,-0.2258,0.0234,-15.5,-32.62,32.19,337.66,-87.67,-176.38
22624,52.43604,-1.53141,182.82,4.71,3.0,199.07,24 / 24,2266627,2019-09-07 09:51:11:906,-1.6715,-1.88,9.5921,-0.0039,0.0042,9.8066,-0.0248,-0.1951,-0.0349,-14.69,-31.87,31.94,336.93,-87.64,-177.1
22625,52.43604,-1.53141,182.82,4.71,3.0,199.07,24 / 24,2266727,2019-09-07 09:51:12:006,-2.1613,-1.2226,9.2561,-0.0163,0.0015,9.8065,-0.0225,-0.2964,0.0644,-14.5,-31.87,31.56,340.52,-87.68,-175.12
22626,52.43604,-1.53141,182.82,4.71,3.0,199.07,24 / 24,2266827,2019-09-07 09:51:12:106,-2.0796,-2.1736,10.7706,-0.0142,-0.0176,9.8065,0.0881,-0.3311,0.0764,-14.81,-31.87,32.56,342.04,-87.62,-172.85
22627,52.43604,-1.53141,182.82,4.71,3.0,199.07,24 / 24,2266927,2019-09-07 09:51:12:206,-2.0992,-1.8287,10.0901,-0.0141,0.0122,9.8065,0.0667,-0.3215,0.0169,-13.44,-31.94,32.31,350.76,-87.5,-166.75
22628,52.43604,-1.53141,182.82,4.71,3.0,199.07,24 / 24,2267027,2019-09-07 09:51:12:306,-2.4404,-2.069,9.8198,-0.0047,-0.0297,9.8065,-0.0593,-0.3261,0.0247,-13.56,-32.12,32.88,353.47,-87.27,-163.25
22629,52.43604,-1.53141,182.82,4.71,3.0,199.07,24 / 24,2267127,2019-09-07 09:51:12:406,-2.2917,-1.2343,9.8114,-0.0049,-0.0169,9.8066,-0.0171,-0.287,0.0021,-13.0,-32.06,32.69,357.25,-87.26,-161.13
22630,52.43604,-1.53141,182.82,4.71,3.0,199.07,24 / 24,2267227,2019-09-07 09:51:12:506,-1.8681,-1.273,10.0348,-0.0099,0.0113,9.8066,0.008,-0.3204,0.0328,-11.87,-32.0,31.75,358.64,-87.23,-160.74
22631,52.43604,-1.53141,182.82,4.71,3.0,199.07,24 / 24,2267327,2019-09-07 09:51:12:606,-2.2877,-1.1458,10.5853,-0.007,0.0115,9.8066,0.0476,-0.3384,0.0548,-11.75,-32.25,31.81,1.47,-87.27,-158.04
22632,52.43604,-1.53141,182.82,4.71,3.0,199.07,24 / 24,2267427,2019-09-07 09:51:12:706,-1.6134,-1.53,9.8729,0.016,-0.0331,9.8066,-0.0353,-0.3346,0.0285,-10.87,-30.69,32.25,1.19,-86.95,-159.9
22633,52.43604,-1.53141,182.82,4.71,3.0,199.07,24 / 24,2267528,2019-09-07 09:51:12:807,-2.0031,-0.3792,9.5466,0.0045,-0.046,9.8065,-0.0247,-0.341,0.0575,-10.0,-31.19,32.69,3.37,-86.72,-159.95
22634,52.43604,-1.53141,182.82,4.71,3.0,199.07,24 / 24,2267627,2019-09-07 09:51:12:906,-2.2121,-0.897,9.7882,-0.014,-0.0014,9.8066,0.0126,-0.3116,0.0345,-9.94,-31.62,32.81,4.63,-86.52,-158.78
22635,52.43604,-1.53141,182.82,4.71,3.0,199.07,24 / 24,2267727,2019-09-07 09:51:13:006,-2.1795,-1.1085,9.9698,-0.0237,0.0075,9.8065,0.0319,-0.3492,0.1054,-8.94,-31.0,33.0,10.63,-86.39,-154.73
22636,52.43604,-1.53141,182.82,4.71,3.0,199.07,24 / 24,2267827,2019-09-07 09:51:13:106,-2.3445,-0.3291,10.5923,-0.0112,-0.0318,9.8065,-0.044,-0.2799,0.0382,-8.5,-32.06,32.56,16.66,-86.24,-150.76
22637,52.43604,-1.53141,182.82,4.71,3.0,199.07,24 / 24,2267927,2019-09-07 09:51:13:206,-2.3846,-0.6014,10.1821,0.0014,-0.0284,9.8066,-0.0413,-0.2993,0.0022,-8.0,-31.62,32.13,16.74,-85.91,-150.41
22638,52.43604,-1.53141,182.82,4.71,3.0,199.07,24 / 24,2268027,2019-09-07 09:51:13:306,-1.9345,-0.2988,9.9942,0.0078,0.0021,9.8066,0.0669,-0.2939,0.0186,-7.62,-32.56,32.63,14.99,-85.79,-152.48
22639,52.43604,-1.53141,182.82,4.71,3.0,199.07,24 / 24,2268127,2019-09-07 09:51:13:406,-1.7494,-1.2494,9.1197,-0.0051,-0.0233,9.8066,0.0,-0.3087,0.0427,-7.5,-32.19,32.69,15.86,-85.51,-153.37
22640,52.43604,-1.53141,182.82,4.71,3.0,199.07,24 / 24,2268227,2019-09-07 09:51:13:506,-2.496,-1.1687,9.4454,-0.0071,0.0059,9.8066,0.0389,-0.4089,0.1236,-6.37,-31.19,33.13,18.92,-85.24,-152.26
22641,52.43604,-1.53141,182.82,4.71,3.0,199.07,24 / 24,2268327,2019-09-07 09:51:13:606,-2.8772,-1.4854,10.4346,-0.023,0.0004,9.8066,-0.0061,-0.3574,0.0898,-6.31,-32.31,32.75,22.88,-85.1,-148.71
22642,52.43604,-1.53141,182.82,4.71,3.0,199.07,24 / 24,2268427,2019-09-07 09:51:13:706,-3.0108,-0.922,10.2748,-0.0142,-0.005,9.8066,-0.0598,-0.3818,0.0456,-5.69,-31.5,31.5,25.39,-85.09,-146.07
22643,52.43604,-1.53141,182.82,4.71,3.0,199.07,24 / 24,2268528,2019-09-07 09:51:13:807,-2.5999,-0.2223,9.783,-0.0043,-0.0215,9.8066,-0.0177,-0.3548,-0.0048,-5.0,-31.81,32.13,28.05,-84.9,-145.53
22644,52.43604,-1.53141,182.82,4.71,3.0,199.07,24 / 24,2268628,2019-09-07 09:51:13:907,-3.0432,-1.0056,9.9401,-0.0138,-0.0324,9.8065,-0.016,-0.3419,0.021,-4.87,-31.81,31.38,27.35,-84.52,-146.16
22645,52.43604,-1.53141,182.82,4.71,3.0,199.07,24 / 24,2268727,2019-09-07 09:51:14:006,-2.8518,-1.1604,9.453,-0.0146,-0.0214,9.8066,0.0109,-0.38,0.0925,-4.81,-31.56,31.81,28.22,-84.37,-145.65
22646,52.43604,-1.53141,182.82,4.71,3.0,199.07,24 / 24,2268827,2019-09-07 09:51:14:106,-2.7117,-0.0662,9.2946,-0.0127,0.0282,9.8066,-0.0474,-0.3926,0.0634,-3.69,-32.56,31.44,31.41,-84.2,-144.56
22647,52.43604,-1.53141,182.82,4.71,3.0,199.07,24 / 24,2268928,2019-09-07 09:51:14:207,-2.4705,-0.6661,9.9408,-0.0116,0.0276,9.8065,-0.0579,-0.3663,0.0411,-3.19,-31.94,30.56,36.91,-84.31,-141.21
22648,52.43604,-1.53141,182.82,4.71,3.0,199.07,24 / 24,2269027,2019-09-07 09:51:14:306,-3.0895,-0.3345,10.2199,-0.0148,0.0026,9.8066,-0.0803,-0.3539,0.052,-3.12,-33.06,29.69,39.78,-84.35,-138.61
22649,52.43604,-1.53141,182.82,4.71,3.0,199.07,25 / 25,2269127,2019-09-07 09:51:14:406,-2.3614,-0.9795,9.7234,-0.0122,-0.018,9.8066,-0.0896,-0.355,0.0378,-2.81,-33.31,28.75,40.83,-84.33,-137.61
22650,52.43604,-1.53141,182.82,4.71,3.0,199.07,25 / 25,2269227,2019-09-07 09:51:14:506,-2.5008,-0.0579,10.0996,-0.0156,-0.0049,9.8066,0.056,-0.3689,0.067,-2.31,-32.25,29.06,43.67,-84.23,-136.92
22651,52.43604,-1.53141,182.82,4.71,3.0,199.07,25 / 25,2269327,2019-09-07 09:51:14:606,-2.8035,0.0804,10.1714,-0.0095,0.0035,9.8066,0.0979,-0.3911,0.0954,-2.0,-32.25,28.81,44.51,-83.94,-136.4
22652,52.43604,-1.53141,182.82,4.71,3.0,199.07,25 / 25,2269427,2019-09-07 09:51:14:706,-2.7704,0.0668,9.6621,-0.0082,-0.0127,9.8065,-0.093,-0.4037,0.0926,-1.06,-32.87,27.81,47.13,-83.66,-136.49
22653,52.43604,-1.53141,182.82,4.71,3.0,199.07,25 / 25,2269527,2019-09-07 09:51:14:806,-3.1472,0.792,10.0429,-0.0169,-0.0188,9.8066,-0.1425,-0.4035,0.0487,-1.75,-32.69,27.25,45.4,-83.32,-136.37
22654,52.43604,-1.53141,182.82,4.71,3.0,199.07,25 / 25,2269627,2019-09-07 09:51:14:906,-2.194,0.4484,10.212,-0.0036,0.0039,9.8066,0.0672,-0.3874,0.0612,-1.19,-33.69,26.75,48.54,-83.21,-135.97
22655,52.43604,-1.53141,182.82,4.71,3.0,199.07,25 / 25,2269727,2019-09-07 09:51:15:006,-2.007,-0.5457,10.1646,-0.0018,0.0099,9.8066,0.0977,-0.3727,0.0486,-1.25,-33.06,26.88,48.43,-83.13,-135.96
22656,52.43604,-1.53141,182.82,4.71,3.0,199.07,25 / 25,2269827,2019-09-07 09:51:15:106,-2.2798,0.6278,10.4007,-0.0135,-0.0283,9.8066,-0.0726,-0.3685,0.0044,-0.44,-33.5,26.31,50.95,-82.97,-136.23
22657,52.43604,-1.53141,182.82,4.71,3.0,199.07,25 / 25,2269927,2019-09-07 09:51:15:206,-2.5387,1.0951,9.7185,0.0009,-0.0202,9.8066,-0.0404,-0.3939,0.0504,0.0,-33.87,25.5,50.02,-82.72,-137.53
22658,52.43604,-1.53141,182.82,4.71,3.0,199.07,25 / 25,2270027,2019-09-07 09:51:15:306,-2.1273,0.6485,9.7777,-0.006,-0.0077,9.8066,-0.1123,-0.3455,0.011,0.13,-33.81,24.94,50.17,-82.56,-137.88
22659,52.43566,-1.531538,181.99,6.88,3.0,236.01,25 / 25,2270127,2019-09-07 09:51:15:406,-2.1526,0.3534,9.7418,-0.0007,-0.0007,9.8066,-0.0794,-0.3684,0.0229,0.19,-33.94,24.31,50.72,-82.62,-137.66
22660,52.43566,-1.531538,181.99,6.88,3.0,236.01,25 / 25,2270227,2019-09-07 09:51:15:506,-2.5522,1.2861,10.029,0.0033,0.0059,9.8066,-0.0536,-0.3713,0.0386,0.75,-33.62,23.56,54.17,-82.67,-136.9
22661,52.43566,-1.531538,181.99,6.88,3.0,236.01,25 / 25,2270327,2019-09-07 09:51:15:606,-1.5426,1.7242,9.991,0.0048,-0.0046,9.8066,-0.0138,-0.3643,0.0231,0.69,-34.37,22.5,54.86,-82.71,-136.71
22662,52.43566,-1.531538,181.99,6.88,3.0,236.01,25 / 25,2270427,2019-09-07 09:51:15:706,-1.4759,2.0974,10.0695,0.0014,0.0069,9.8066,-0.0439,-0.3857,0.0402,1.19,-34.62,22.13,55.02,-82.79,-137.25
22663,52.43566,-1.531538,181.99,6.88,3.0,236.01,25 / 25,2270527,2019-09-07 09:51:15:806,-2.1732,1.7032,10.6059,-0.0078,0.0059,9.8066,-0.0049,-0.387,0.0517,1.94,-34.62,21.31,58.7,-82.68,-137.42
22664,52.43566,-1.531538,181.99,6.88,3.0,236.01,25 / 25,2270627,2019-09-07 09:51:15:906,-1.6307,1.7938,10.634,-0.0027,-0.0323,9.8065,0.0483,-0.3193,-0.0021,1.44,-34.37,21.25,54.9,-82.55,-137.99
22665,52.43566,-1.531538,181.99,6.88,3.0,236.01,25 / 25,2270727,2019-09-07 09:51:16:006,-1.8263,1.7562,10.0315,0.0006,-0.0231,9.8066,-0.0113,-0.3149,0.0168,2.19,-34.62,20.81,56.05,-82.33,-140.29
22666,52.43566,-1.531538,181.99,6.88,3.0,236.01,25 / 25,2270827,2019-09-07 09:51:16:106,-1.4091,1.8369,9.7304,0.0077,-0.0148,9.8066,-0.064,-0.3316,0.0034,2.5,-34.37,20.0,57.19,-82.22,-142.68
22667,52.43566,-1.531538,181.99,6.88,3.0,236.01,25 / 25,2270928,2019-09-07 09:51:16:207,-1.6511,1.3986,9.8533,0.0066,0.0007,9.8066,0.0294,-0.3782,0.046,2.19,-34.87,19.63,53.09,-82.24,-143.79
22668,52.43566,-1.531538,181.99,6.88,3.0,236.01,25 / 25,2271028,2019-09-07 09:51:16:307,-1.1434,1.63,9.8219,0.0038,-0.0113,9.8066,0.0069,-0.3562,0.0223,3.13,-34.37,18.5,56.18,-82.25,-144.53
22669,52.43566,-1.531538,181.99,6.88,3.0,236.01,25 / 25,2271127,2019-09-07 09:51:16:406,-1.8708,1.5071,10.1472,0.006,-0.001,9.8066,-0.0399,-0.352,0.0085,3.0,-34.81,18.06,57.05,-82.32,-145.14
22670,52.43566,-1.531538,181.99,6.88,3.0,236.01,25 / 25,2271228,2019-09-07 09:51:16:507,-1.5603,0.9466,9.918,-0.0057,-0.0194,9.8066,-0.0472,-0.348,0.0459,3.38,-34.44,16.81,57.3,-82.42,-145.64
22671,52.43566,-1.531538,181.99,6.88,3.0,236.01,25 / 25,2271327,2019-09-07 09:51:16:606,-1.4598,0.8361,9.7395,-0.0034,-0.0192,9.8066,-0.0297,-0.3484,0.0557,3.31,-34.25,16.44,57.86,-82.29,-146.82
22672,52.43566,-1.531538,181.99,6.88,3.0,236.01,25 / 25,2271427,2019-09-07 09:51:16:706,-1.2276,1.4877,10.3661,0.0004,0.0039,9.8066,0.0553,-0.351,0.0428,4.06,-35.0,16.0,61.67,-82.22,-147.33
22673,52.43566,-1.531538,181.99,6.88,3.0,236.01,25 / 25,2271527,2019-09-07 09:51:16:806,-2.0927,1.4566,10.4074,0.007,-0.0007,9.8066,0.0544,-0.3681,-0.0079,3.88,-34.81,15.25,62.93,-82.03,-148.52
22674,52.43566,-1.531538,181.99,6.88,3.0,236.01,25 / 25,2271627,2019-09-07 09:51:16:906,-0.5808,0.6654,9.2116,-0.0032,-0.0208,9.8066,0.0392,-0.3922,0.0792,4.13,-34.56,15.25,60.73,-82.0,-150.46
22675,52.43566,-1.531538,181.99,6.88,3.0,236.01,25 / 25,2271727,2019-09-07 09:51:17:006,-1.8145,1.3035,9.7405,-0.012,0.0055,9.8066,-0.0273,-0.3388,0.0445,3.75,-35.19,14.44,63.84,-81.77,-150.5
22676,52.43566,-1.531538,181.99,6.88,3.0,236.01,25 / 25,2271827,2019-09-07 09:51:17:106,-1.6549,2.0887,10.2362,-0.0088,0.0049,9.8066,-0.0368,-0.3455,0.073,3.88,-34.87,13.38,67.5,-81.74,-149.98
22677,52.43566,-1.531538,181.99,6.88,3.0,236.01,25 / 25,2271928,2019-09-07 09:51:17:207,-1.7722,1.8485,10.9083,-0.006,0.0004,9.8066,-0.0252,-0.4113,0.0917,3.38,-34.81,13.19,64.05,-81.67,-149.34
22678,52.43566,-1.531538,181.99,6.88,3.0,236.01,25 / 25,2272027,2019-09-07 09:51:17:306,-0.992,1.8113,10.3679,0.008,-0.0186,9.8066,0.0539,-0.4277,0.0219,3.81,-35.25,12.75,67.33,-81.65,-150.35
22679,52.43566,-1.531538,181.99,6.88,3.0,236.01,24 / 25,2272128,2019-09-07 09:51:17:407,-1.8201,0.9165,9.756,-0.0179,-0.0264,9.8065,0.0765,-0.4249,0.0134,3.31,-35.44,11.69,65.42,-81.37,-151.8
22680,52.43566,-1.531538,181.99,6.88,3.0,236.01,24 / 25,2272227,2019-09-07 09:51:17:506,-1.809,1.6155,9.523,-0.0274,-0.0281,9.8065,-0.0247,-0.3875,0.045,3.56,-35.19,10.88,73.83,-81.05,-153.21
22681,52.43566,-1.531538,181.99,6.88,3.0,236.01,24 / 25,2272327,2019-09-07 09:51:17:606,-1.8541,1.8226,9.8619,-0.0217,-0.0189,9.8066,-0.0339,-0.4354,0.1012,3.38,-35.56,10.06,75.5,-80.63,-154.76
22682,52.43566,-1.531538,181.99,6.88,3.0,236.01,24 / 25,2272427,2019-09-07 09:51:17:706,-1.1882,1.7036,10.0255,0.01,0.0054,9.8065,-0.0362,-0.4072,0.0177,2.94,-35.94,9.19,82.76,-80.51,-154.76
22683,52.43566,-1.531538,181.99,6.88,3.0,236.01,24 / 25,2272527,2019-09-07 09:51:17:806,-1.3361,1.8047,10.4417,0.0215,0.0104,9.8065,-0.0224,-0.4173,0.0556,2.56,-35.06,8.75,80.78,-80.63,-154.68
22684,52.43566,-1.531538,181.99,6.88,3.0,236.01,24 / 25,2272627,2019-09-07 09:51:17:906,-2.9592,2.1391,10.4216,-0.0567,-0.0015,9.8064,-0.0673,-0.3629,0.1116,2.19,-35.44,8.25,85.84,-80.4,-153.98
22685,52.43566,-1.531538,181.99,6.88,3.0,236.01,24 / 25,2272728,2019-09-07 09:51:18:007,-1.3872,4.2027,10.2328,-0.038,-0.0168,9.8065,-0.0132,-0.4824,0.1338,1.75,-36.25,7.25,97.37,-80.42,-154.29
22686,52.43566,-1.531538,181.99,6.88,3.0,236.01,24 / 25,2272828,2019-09-07 09:51:18:107,-0.9764,1.8946,9.1782,0.0265,-0.0093,9.8066,-0.0289,-0.3637,0.0818,2.38,-35.69,6.75,97.65,-80.3,-155.07
22687,52.43566,-1.531538,181.99,6.88,3.0,236.01,24 / 25,2272927,2019-09-07 09:51:18:206,-3.1055,1.0892,9.8188,0.0352,0.0517,9.8064,-0.0407,-0.2983,0.0497,1.31,-35.87,6.19,109.48,-80.19,-154.07
22688,52.43566,-1.531538,181.99,6.88,3.0,236.01,24 / 25,2273028,2019-09-07 09:51:18:307,-1.1515,0.3593,9.1742,-0.0159,-0.0075,9.8066,0.0036,-0.5715,0.0858,1.0,-35.94,5.06,127.71,-79.79,-153.62
22689,52.43566,-1.531538,181.99,6.88,3.0,236.01,25 / 25,2273127,2019-09-07 09:51:18:406,-0.5598,2.0168,9.7102,0.0128,-0.0232,9.8066,0.0403,-0.4451,-0.004,0.5,-36.06,4.56,128.01,-79.75,-154.09
22690,52.43566,-1.531538,181.99,6.88,3.0,236.01,25 / 25,2273228,2019-09-07 09:51:18:507,0.1376,1.9553,9.4542,-0.018,-0.0198,9.8066,-0.146,-0.4374,0.0525,0.0,-35.94,4.13,149.12,-79.88,-155.94
22691,52.43566,-1.531538,181.99,6.88,3.0,236.01,25 / 25,2273327,2019-09-07 09:51:18:606,1.4369,0.6303,9.9679,0.0079,0.0211,9.8066,-0.017,-0.3445,0.1199,0.06,-36.06,2.44,170.0,-79.93,-156.7
22692,52.43566,-1.531538,181.99,6.88,3.0,236.01,25 / 25,2273427,2019-09-07 09:51:18:706,1.8874,1.5242,9.0228,-0.0006,-0.016,9.8066,-0.0182,-0.2863,0.0484,-0.19,-36.12,1.81,170.22,-79.97,-157.44
22693,52.43566,-1.531538,181.99,6.88,3.0,236.01,25 / 25,2273527,2019-09-07 09:51:18:806,1.3881,0.6493,10.3085,-0.0021,0.0074,9.8066,-0.0158,-0.3421,0.1039,-1.25,-36.81,1.94,182.4,-80.02,-157.97
22694,52.43566,-1.531538,181.99,6.88,3.0,236.01,25 / 25,2273627,2019-09-07 09:51:18:906,1.1685,1.692,9.976,-0.0117,0.0157,9.8065,-0.0194,-0.272,0.0871,-1.25,-36.19,0.94,186.45,-79.9,-158.76
22695,52.43566,-1.531538,181.99,6.88,3.0,236.01,25 / 25,2273728,2019-09-07 09:51:19:007,2.6759,1.2288,10.1561,0.0136,0.0255,9.8066,-0.0232,-0.3384,0.0738,-2.19,-36.06,0.88,197.43,-79.73,-158.81
22696,52.43566,-1.531538,181.99,6.88,3.0,236.01,25 / 25,2273828,2019-09-07 09:51:19:107,1.5899,0.007,9.5238,-0.0069,-0.0045,9.8065,0.1779,-0.4051,0.0774,-2.25,-36.75,0.0,197.31,-79.57,-158.96
22697,52.43566,-1.531538,181.99,6.88,3.0,236.01,25 / 25,2273927,2019-09-07 09:51:19:206,0.4689,0.9798,10.0112,-0.0217,-0.0394,9.8065,0.1726,-0.3163,0.0653,-3.12,-36.56,0.19,206.45,-79.6,-159.82
22698,52.43566,-1.531538,181.99,6.88,3.0,236.01,25 / 25,2274028,2019-09-07 09:51:19:307,1.3223,0.7886,10.1633,0.0174,0.019,9.8065,-0.1462,-0.3209,0.0682,-3.94,-37.25,-0.06,214.98,-79.52,-159.57
22699,52.43566,-1.531538,181.99,6.88,3.0,236.01,22 / 23,2274127,2019-09-07 09:51:19:406,1.6284,0.6966,9.4049,0.0184,0.0163,9.8066,-0.0841,-0.3108,0.0749,-4.0,-36.75,-0.87,213.05,-79.39,-158.38
22700,52.43566,-1.531538,181.99,6.88,3.0,236.01,22 / 23,2274227,2019-09-07 09:51:19:506,2.3674,0.2047,9.966,-0.0155,-0.0351,9.8065,0.048,-0.2957,0.0879,-5.5,-36.62,-0.69,220.9,-79.44,-156.95
22701,52.43566,-1.531538,181.99,6.88,3.0,236.01,22 / 23,2274327,2019-09-07 09:51:19:606,2.7731,-0.8127,10.2017,-0.0184,-0.0273,9.8066,-0.0033,-0.3326,0.0826,-4.5,-36.81,-0.94,213.32,-79.38,-157.22
22702,52.43566,-1.531538,181.99,6.88,3.0,236.01,22 / 23,2274428,2019-09-07 09:51:19:707,0.6993,1.8909,10.3169,0.0028,0.041,9.8065,0.0307,-0.3255,0.0993,-5.12,-36.87,-0.94,220.21,-79.26,-157.41
22703,52.43566,-1.531538,181.99,6.88,3.0,236.01,22 / 23,2274527,2019-09-07 09:51:19:806,1.7526,1.2006,10.209,0.0015,0.0185,9.8065,0.1147,-0.2237,-0.0439,-5.56,-36.56,-1.37,225.59,-78.95,-158.26
22704,52.43566,-1.531538,181.99,6.88,3.0,236.01,22 / 23,2274627,2019-09-07 09:51:19:906,2.8723,-0.8768,10.0269,-0.0102,0.0281,9.8065,-0.0248,-0.2499,0.0815,-5.94,-36.87,-1.37,224.78,-78.8,-159.19
22705,52.43566,-1.531538,181.99,6.88,3.0,236.01,22 / 23,2274727,2019-09-07 09:51:20:006,-1.3413,-0.2959,9.2342,-0.0048,-0.0048,9.8066,-0.0687,-0.1134,-0.0931,-6.5,-36.75,-1.56,221.48,-78.74,-160.93
22706,52.43566,-1.531538,181.99,6.88,3.0,236.01,22 / 23,2274827,2019-09-07 09:51:20:106,0.7522,1.0731,9.7647,0.0154,0.0175,9.8066,-0.0124,-0.0949,-0.0008,-6.25,-36.75,-1.69,221.09,-78.68,-161.47
22707,52.43566,-1.531538,181.99,6.88,3.0,236.01,22 / 23,2274928,2019-09-07 09:51:20:207,0.6329,1.574,9.5548,0.007,0.023,9.8066,-0.0585,-0.0859,0.0047,-6.81,-36.69,-2.06,226.42,-78.72,-161.51
22708,52.43566,-1.531538,181.99,6.88,3.0,236.01,22 / 23,2275027,2019-09-07 09:51:20:306,1.7202,-0.8666,10.7615,0.0025,-0.025,9.8065,0.1215,-0.1295,-0.017,-6.12,-36.44,-1.44,224.5,-78.75,-161.84
22709,52.43566,-1.531538,181.99,6.88,3.0,236.01,24 / 24,2275127,2019-09-07 09:51:20:406,1.1577,0.3508,10.655,-0.0233,-0.0587,9.8064,0.3152,-0.1578,0.0413,-6.81,-36.56,-1.44,230.12,-78.95,-161.19
22710,52.43566,-1.531538,181.99,6.88,3.0,236.01,24 / 24,2275227,2019-09-07 09:51:20:506,0.8764,0.9796,9.9685,0.0244,0.0567,9.8064,-0.1339,-0.1145,0.0548,-6.37,-36.44,-1.5,224.6,-78.63,-160.72
22711,52.43566,-1.531538,181.99,6.88,3.0,236.01,24 / 24,2275327,2019-09-07 09:51:20:606,1.7933,-1.6032,10.2497,0.009,0.0434,9.8065,-0.2584,-0.1145,0.0261,-6.94,-36.75,-1.94,225.08,-78.2,-161.55
22712,52.43566,-1.531538,181.99,6.88,3.0,236.01,24 / 24,2275427,2019-09-07 09:51:20:706,-0.6546,0.1116,10.2395,0.0199,-0.0004,9.8066,0.0198,-0.0805,0.0521,-7.06,-36.69,-1.94,225.96,-78.45,-161.01
22713,52.43566,-1.531538,181.99,6.88,3.0,236.01,24 / 24,2275527,2019-09-07 09:51:20:806,0.8249,0.7787,9.7858,-0.0106,0.0056,9.8066,0.1208,-0.0474,0.0514,-8.06,-36.87,-2.06,231.32,-78.58,-160.6
22714,52.43566,-1.531538,181.99,6.88,3.0,236.01,24 / 24,2275627,2019-09-07 09:51:20:906,0.8298,1.121,10.1459,0.0442,0.0096,9.8065,-0.1564,0.0746,-0.0718,-7.62,-36.31,-1.87,232.72,-78.69,-160.17
22715,52.43566,-1.531538,181.99,6.88,3.0,236.01,24 / 24,2275727,2019-09-07 09:51:21:006,0.3045,-1.3784,9.9295,-0.0135,0.0282,9.8065,-0.0994,-0.1101,0.0652,-8.06,-36.94,-2.12,231.65,-78.42,-159.24
22716,52.43566,-1.531538,181.99,6.88,3.0,236.01,24 / 24,2275827,2019-09-07 09:51:21:106,-1.7068,-0.8038,8.4643,0.004,0.0129,9.8066,-0.0883,0.0395,0.0121,-7.19,-36.44,-1.94,227.44,-78.39,-159.37
22717,52.43566,-1.531538,181.99,6.88,3.0,236.01,24 / 24,2275927,2019-09-07 09:51:21:206,0.3879,-0.2528,10.8302,0.0198,0.0132,9.8065,-0.137,-0.0374,0.0601,-7.69,-36.87,-2.31,230.8,-78.13,-159.36
22718,52.43566,-1.531538,181.99,6.88,3.0,236.01,24 / 24,2276027,2019-09-07 09:51:21:306,1.938,0.4343,10.2934,0.0212,0.0253,9.8066,-0.0194,-0.0558,0.1349,-8.0,-36.56,-2.25,230.43,-77.97,-159.25
22719,52.43566,-1.531538,181.99,6.88,3.0,236.01,23 / 23,2276128,2019-09-07 09:51:21:407,0.1659,1.4645,10.3023,-0.0003,0.0115,9.8066,0.0085,0.0466,-0.0655,-7.75,-36.94,-2.37,230.66,-78.02,-159.05
22720,52.43566,-1.531538,181.99,6.88,3.0,236.01,23 / 23,2276227,2019-09-07 09:51:21:506,0.1991,0.2636,10.0787,0.0145,0.0164,9.8065,-0.0546,0.0535,-0.0603,-7.19,-36.44,-2.12,227.04,-78.22,-159.29
22721,52.43566,-1.531538,181.99,6.88,3.0,236.01,23 / 23,2276327,2019-09-07 09:51:21:606,-0.0682,1.0394,9.9946,0.0097,0.0343,9.8065,-0.0465,-0.0169,0.0084,-7.62,-36.87,-2.37,230.38,-78.07,-159.84
22722,52.43566,-1.531538,181.99,6.88,3.0,236.01,23 / 23,2276427,2019-09-07 09:51:21:706,-0.1108,0.7851,10.0421,-0.0132,-0.0187,9.8066,0.0563,-0.0091,0.0097,-7.75,-37.12,-2.37,229.85,-77.94,-160.18
22723,52.43566,-1.531538,181.99,6.88,3.0,236.01,23 / 23,2276527,2019-09-07 09:51:21:806,0.2395,0.6389,10.2062,-0.0081,-0.0091,9.8066,0.0404,-0.0199,0.0039,-7.37,-36.37,-1.62,225.68,-77.89,-160.35
22724,52.43566,-1.531538,181.99,6.88,3.0,236.01,23 / 23,2276628,2019-09-07 09:51:21:907,0.5196,0.9177,10.082,0.0152,0.0152,9.8066,0.0046,-0.0218,0.0384,-8.0,-36.75,-1.75,229.04,-77.62,-160.17
22725,52.43566,-1.531538,181.99,6.88,3.0,236.01,23 / 23,2276728,2019-09-07 09:51:22:007,0.6749,2.2115,9.915,-0.0064,-0.0177,9.8066,0.1521,-0.003,0.0384,-7.62,-36.56,-2.12,229.15,-77.65,-160.11
22726,52.43566,-1.531538,181.99,6.88,3.0,236.01,23 / 23,2276827,2019-09-07 09:51:22:106,-0.0003,1.1071,9.7727,0.0205,0.0324,9.8066,-0.1036,0.0217,-0.0775,-7.81,-36.44,-2.0,229.53,-77.49,-160.29
22727,52.43566,-1.531538,181.99,6.88,3.0,236.01,23 / 23,2276927,2019-09-07 09:51:22:206,1.2838,-0.1049,10.1858,0.0136,0.0427,9.8065,-0.1143,-0.0764,0.034,-7.56,-36.44,-2.19,228.4,-77.18,-161.0
22728,52.43566,-1.531538,181.99,6.88,3.0,236.01,23 / 23,2277027,2019-09-07 09:51:22:306,-0.2554,0.5358,9.727,-0.0273,-0.0293,9.8065,0.1281,0.0538,-0.0445,-7.06,-36.81,-2.12,222.59,-77.18,-161.65
22729,52.43566,-1.531538,181.99,6.88,3.0,236.01,24 / 24,2277127,2019-09-07 09:51:22:406,0.998,0.8157,10.2067,-0.0269,-0.0257,9.8065,0.0948,-0.0245,0.0208,-7.44,-36.81,-1.69,222.87,-77.46,-162.46
22730,52.43566,-1.531538,181.99,6.88,3.0,236.01,24 / 24,2277228,2019-09-07 09:51:22:507,0.3897,0.4421,10.2064,0.0074,0.03,9.8066,-0.0418,0.0427,-0.0287,-7.0,-36.94,-1.5,224.37,-77.28,-163.61
22731,52.43566,-1.531538,181.99,6.88,3.0,236.01,24 / 24,2277327,2019-09-07 09:51:22:606,0.4694,0.5153,9.6346,0.0033,0.0228,9.8065,-0.05,0.0225,-0.0534,-7.0,-36.69,-1.37,224.26,-77.32,-164.12
22732,52.43566,-1.531538,181.99,6.88,3.0,236.01,24 / 24,2277428,2019-09-07 09:51:22:707,0.4268,1.2111,9.627,-0.0106,-0.0033,9.8066,-0.0078,-0.0095,0.0184,-7.44,-36.94,-2.19,221.75,-77.29,-164.17
22733,52.43566,-1.531538,181.99,6.88,3.0,236.01,24 / 24,2277527,2019-09-07 09:51:22:806,-0.0908,0.9329,9.5824,0.0099,0.0013,9.8066,0.0182,0.0164,-0.0046,-6.94,-36.81,-1.75,222.0,-77.39,-164.11
22734,52.43566,-1.531538,181.99,6.88,3.0,236.01,24 / 24,2277627,2019-09-07 09:51:22:906,-0.3086,0.6074,10.0223,-0.0056,-0.0021,9.8066,-0.0162,0.0322,0.0113,-6.81,-36.81,-1.94,221.87,-77.33,-164.09
22735,52.43566,-1.531538,181.99,6.88,3.0,236.01,24 / 24,2277727,2019-09-07 09:51:23:006,0.4646,1.258,9.7596,0.0011,-0.0125,9.8066,0.0967,0.0112,-0.0026,-6.69,-36.81,-2.0,222.11,-77.39,-163.87
22736,52.43566,-1.531538,181.99,6.88,3.0,236.01,24 / 24,2277827,2019-09-07 09:51:23:106,0.4277,1.3832,9.4589,0.0155,0.0118,9.8066,-0.0813,-0.0393,0.0073,-7.37,-36.94,-2.44,221.67,-77.19,-163.88
22737,52.43566,-1.531538,181.99,6.88,3.0,236.01,24 / 24,2277928,2019-09-07 09:51:23:207,-0.2614,0.3576,10.3207,0.0103,0.0083,9.8066,-0.0429,0.0723,-0.1065,-7.31,-37.06,-1.94,221.77,-77.16,-163.48
22738,52.43566,-1.531538,181.99,6.88,3.0,236.01,24 / 24,2278028,2019-09-07 09:51:23:307,0.175,0.5129,10.4805,0.0013,-0.0014,9.8065,0.0759,-0.0398,0.0282,-7.25,-36.62,-2.56,219.74,-77.15,-163.5
22739,52.43566,-1.531538,181.99,6.88,3.0,236.01,24 / 24,2278127,2019-09-07 09:51:23:406,-0.3677,0.225,10.9578,0.0278,0.0236,9.8066,-0.0374,0.0378,-0.072,-7.25,-36.75,-1.75,221.35,-76.93,-163.3
22740,52.43566,-1.531538,181.99,6.88,3.0,236.01,25 / 25,2278227,2019-09-07 09:51:23:506,-0.1731,0.2557,10.1093,-0.0139,0.0002,9.8066,0.0456,0.0031,-0.032,-6.44,-36.69,-1.19,218.17,-76.9,-163.74
22741,52.43566,-1.531538,181.99,6.88,3.0,236.01,25 / 25,2278327,2019-09-07 09:51:23:606,0.8232,0.9271,9.7283,-0.0148,0.0141,9.8066,0.0146,-0.0393,0.0336,-7.06,-37.12,-1.81,220.71,-76.92,-164.76
22742,52.43566,-1.531538,181.99,6.88,3.0,236.01,25 / 25,2278427,2019-09-07 09:51:23:706,1.5523,-0.4514,9.8562,-0.0075,-0.0376,9.8065,0.1412,0.0555,-0.1574,-6.44,-36.5,-1.81,216.81,-77.08,-165.15
22743,52.43566,-1.531538,181.99,6.88,3.0,236.01,25 / 25,2278528,2019-09-07 09:51:23:807,0.5936,0.7238,9.5171,-0.0513,-0.0646,9.8063,0.3176,0.0796,-0.1552,-6.06,-36.5,-1.37,219.01,-77.23,-165.99
22744,52.43566,-1.531538,181.99,6.88,3.0,236.01,25 / 25,2278628,2019-09-07 09:51:23:907,-1.324,0.6561,9.7714,0.0076,0.0217,9.8065,-0.0516,0.0498,0.1094,-6.81,-36.81,-1.5,222.78,-77.22,-167.12
22745,52.43566,-1.531538,181.99,6.88,3.0,236.01,25 / 25,2278727,2019-09-07 09:51:24:006,-0.1082,0.959,10.1366,-0.0127,0.0063,9.8066,0.1244,-0.0504,0.0541,-6.06,-36.56,-2.12,215.35,-77.17,-167.6
22746,52.43566,-1.531538,181.99,6.88,3.0,236.01,25 / 25,2278827,2019-09-07 09:51:24:106,-0.798,-0.4937,10.0958,0.0032,0.0157,9.8066,-0.0623,-0.0418,-0.0209,-6.25,-36.56,-1.56,215.27,-77.15,-167.74
22747,52.43566,-1.531538,181.99,6.88,3.0,236.01,25 / 25,2278927,2019-09-07 09:51:24:206,-0.794,-0.1393,9.74,-0.0013,-0.0137,9.8066,-0.0674,-0.0232,-0.0455,-6.25,-36.5,-2.44,215.83,-77.06,-167.6
22748,52.43566,-1.531538,181.99,6.88,3.0,236.01,25 / 25,2279027,2019-09-07 09:51:24:306,0.1563,-0.047,10.1528,0.0088,0.0121,9.8066,-0.0129,0.0182,-0.0323,-6.19,-36.62,-1.62,215.04,-76.92,-167.17
22749,52.436077,-1.532196,181.35,13.07,3.0,334.44,23 / 23,2279133,2019-09-07 09:51:24:412,-0.9261,0.2959,9.7059,0.0054,-0.003,9.8066,0.001,0.0627,0.0235,-6.87,-36.5,-1.69,220.49,-76.93,-167.08
22750,52.436077,-1.532196,181.35,13.07,3.0,334.44,23 / 23,2279227,2019-09-07 09:51:24:506,-0.1477,-0.4178,9.8701,0.0266,-0.011,9.8066,-0.0324,-0.0398,0.0324,-6.75,-37.37,-1.94,219.9,-76.82,-166.2
22751,52.436077,-1.532196,181.35,13.07,3.0,334.44,23 / 23,2279327,2019-09-07 09:51:24:606,-0.2209,-0.5557,10.0826,0.0101,-0.0335,9.8065,0.0865,-0.0512,0.0212,-7.06,-36.44,-2.0,221.36,-76.78,-164.35
22752,52.436077,-1.532196,181.35,13.07,3.0,334.44,23 / 23,2279427,2019-09-07 09:51:24:706,-0.2306,0.1662,9.5799,0.0139,0.007,9.8066,0.0518,-0.005,-0.0276,-6.75,-36.81,-2.0,220.58,-76.67,-163.8
22753,52.436077,-1.532196,181.35,13.07,3.0,334.44,23 / 23,2279528,2019-09-07 09:51:24:807,0.4975,-0.252,10.5713,0.0064,-0.0085,9.8066,0.0354,0.0429,-0.0596,-6.75,-36.62,-2.25,220.94,-76.71,-163.13
22754,52.436077,-1.532196,181.35,13.07,3.0,334.44,23 / 23,2279627,2019-09-07 09:51:24:906,0.0213,-0.3748,10.2532,0.0136,0.0267,9.8066,0.0154,0.0319,0.0073,-6.94,-37.37,-2.5,221.26,-76.73,-162.47
22755,52.436077,-1.532196,181.35,13.07,3.0,334.44,23 / 23,2279727,2019-09-07 09:51:25:006,-0.0432,-0.3561,9.5437,0.0271,0.0332,9.8065,-0.0682,-0.0444,0.0577,-6.81,-37.37,-1.94,220.79,-76.52,-162.53
22756,52.436077,-1.532196,181.35,13.07,3.0,334.44,23 / 23,2279827,2019-09-07 09:51:25:106,-0.9698,-0.4952,10.0892,-0.0121,-0.0015,9.8065,-0.1315,-0.0079,-0.0169,-6.87,-37.12,-2.19,221.0,-76.65,-162.69
22757,52.436077,-1.532196,181.35,13.07,3.0,334.44,23 / 23,2279927,2019-09-07 09:51:25:206,-1.9278,0.5654,9.4976,-0.0112,0.0125,9.8066,-0.0073,-0.0776,0.124,-6.87,-37.06,-1.94,220.51,-76.6,-163.62
22758,52.436077,-1.532196,181.35,13.07,3.0,334.44,23 / 23,2280027,2019-09-07 09:51:25:306,-1.0314,-0.2801,9.5156,-0.0165,-0.0081,9.8065,-0.0552,0.0388,-0.0709,-6.56,-37.06,-1.94,220.05,-76.57,-164.58
22759,52.436077,-1.532196,181.35,13.07,3.0,334.44,22 / 22,2280127,2019-09-07 09:51:25:406,0.5868,0.013,10.1061,-0.0164,-0.0102,9.8065,-0.0148,0.0254,-0.0701,-6.81,-36.94,-2.06,220.16,-76.63,-164.62
22760,52.436077,-1.532196,181.35,13.07,3.0,334.44,22 / 22,2280227,2019-09-07 09:51:25:506,-1.7443,0.0045,9.6736,0.0007,0.0036,9.8066,-0.0168,-0.0057,-0.055,-6.75,-36.37,-1.25,223.62,-76.75,-164.43
22761,52.436077,-1.532196,181.35,13.07,3.0,334.44,22 / 22,2280327,2019-09-07 09:51:25:606,-1.5089,-1.0109,9.3337,0.0159,0.0193,9.8066,0.0239,0.0181,-0.0295,-6.44,-36.81,-2.19,215.61,-76.62,-164.01
22762,52.436077,-1.532196,181.35,13.07,3.0,334.44,22 / 22,2280428,2019-09-07 09:51:25:707,0.0711,0.0704,9.9231,0.0048,-0.0139,9.8066,0.0238,-0.035,0.026,-7.19,-36.81,-2.31,220.41,-76.58,-163.77
22763,52.436077,-1.532196,181.35,13.07,3.0,334.44,22 / 22,2280527,2019-09-07 09:51:25:806,-0.2142,-0.7459,9.9743,0.0008,-0.0082,9.8066,0.0049,0.0161,-0.0104,-6.62,-36.81,-2.06,220.73,-76.64,-163.28
22764,52.436077,-1.532196,181.35,13.07,3.0,334.44,22 / 22,2280627,2019-09-07 09:51:25:906,-0.0021,-0.6687,10.0793,0.0024,-0.0006,9.8066,-0.1067,0.0234,-0.0313,-6.94,-36.5,-1.69,221.7,-76.67,-163.01
22765,52.436077,-1.532196,181.35,13.07,3.0,334.44,22 / 22,2280727,2019-09-07 09:51:26:006,-0.7482,-0.2932,9.293,0.0033,-0.0156,9.8066,-0.0002,0.0061,-0.0106,-6.31,-36.94,-2.25,216.22,-76.67,-162.55
22766,52.436077,-1.532196,181.35,13.07,3.0,334.44,22 / 22,2280827,2019-09-07 09:51:26:106,-0.3772,-0.6624,9.5904,0.0044,-0.0206,9.8065,-0.0638,0.0085,0.0153,-6.62,-36.69,-2.12,221.17,-76.66,-162.32
22767,52.436077,-1.532196,181.35,13.07,3.0,334.44,22 / 22,2280927,2019-09-07 09:51:26:206,-1.3558,-0.3423,9.6548,-0.0186,-0.0109,9.8065,0.028,0.0603,-0.0667,-7.19,-37.0,-2.44,221.54,-76.75,-161.9
22768,52.436077,-1.532196,181.35,13.07,3.0,334.44,22 / 22,2281028,2019-09-07 09:51:26:307,1.3012,-1.8393,11.361,-0.0029,0.0123,9.8066,0.049,-0.0994,0.1009,-7.25,-36.69,-2.31,221.09,-76.57,-162.04
22769,52.436077,-1.532196,181.35,13.07,3.0,334.44,23 / 23,2281127,2019-09-07 09:51:26:406,-1.4388,0.8577,9.7234,0.0124,0.058,9.8064,0.0163,-0.1013,0.0944,-6.62,-37.12,-2.06,220.44,-76.54,-163.5
22770,52.436077,-1.532196,181.35,13.07,3.0,334.44,23 / 23,2281227,2019-09-07 09:51:26:506,-1.0856,1.7217,9.3759,0.0125,0.0322,9.8065,-0.0259,0.1157,-0.0829,-6.19,-36.81,-1.75,214.63,-76.12,-164.15
22771,52.436077,-1.532196,181.35,13.07,3.0,334.44,23 / 23,2281327,2019-09-07 09:51:26:606,-0.2957,-0.9707,9.2069,0.0096,-0.0174,9.8066,-0.1005,0.0749,-0.0667,-6.87,-37.06,-2.0,219.64,-76.3,-164.24
22772,52.436077,-1.532196,181.35,13.07,3.0,334.44,23 / 23,2281427,2019-09-07 09:51:26:706,-0.6305,-0.222,9.1034,-0.0136,-0.0177,9.8066,-0.0212,0.0049,0.0104,-6.94,-36.87,-1.62,220.32,-76.52,-163.67
22773,52.436077,-1.532196,181.35,13.07,3.0,334.44,23 / 23,2281527,2019-09-07 09:51:26:806,1.2261,-1.0312,10.1344,-0.0115,-0.0168,9.8066,0.1969,-0.1155,0.1299,-7.0,-36.5,-1.81,221.31,-76.58,-163.48
22774,52.436077,-1.532196,181.35,13.07,3.0,334.44,23 / 23,2281627,2019-09-07 09:51:26:906,-2.4797,1.4583,9.9316,0.0195,-0.0162,9.8065,0.1211,0.1949,-0.1392,-7.56,-36.94,-1.81,224.83,-76.39,-162.92
22775,52.436077,-1.532196,181.35,13.07,3.0,334.44,23 / 23,2281728,2019-09-07 09:51:27:007,1.5693,-0.8491,10.3562,0.0455,0.0241,9.8065,-0.1232,0.0776,-0.1071,-6.87,-36.87,-1.87,220.48,-76.42,-162.75
22776,52.436077,-1.532196,181.35,13.07,3.0,334.44,23 / 23,2281827,2019-09-07 09:51:27:106,0.0255,-3.9539,10.2509,0.0074,0.0478,9.8065,-0.1669,-0.1181,0.0763,-7.25,-36.75,-1.87,220.09,-76.2,-162.59
22777,52.436077,-1.532196,181.35,13.07,3.0,334.44,23 / 23,2281928,2019-09-07 09:51:27:207,-1.2307,-0.2115,9.4103,-0.0221,-0.0139,9.8065,0.13,-0.0082,0.0289,-6.25,-36.62,-1.5,216.84,-76.15,-162.6
22778,52.436077,-1.532196,181.35,13.07,3.0,334.44,23 / 23,2282027,2019-09-07 09:51:27:306,-0.5277,-1.6164,10.5354,-0.0023,-0.0232,9.8065,0.0791,0.0328,-0.0007,-7.06,-36.81,-1.75,219.99,-76.18,-162.74
22779,52.436077,-1.532196,181.35,13.07,3.0,334.44,24 / 24,2282128,2019-09-07 09:51:27:407,-1.3572,0.1048,9.43,0.0149,0.0373,9.8065,-0.0909,0.0177,-0.0751,-7.0,-36.81,-1.37,221.69,-76.08,-163.02
22780,52.436077,-1.532196,181.35,13.07,3.0,334.44,24 / 24,2282227,2019-09-07 09:51:27:506,0.243,-1.8424,8.9501,0.0053,0.0135,9.8066,-0.1374,-0.1117,0.0339,-6.87,-37.06,-2.0,220.26,-76.3,-162.71
22781,52.436077,-1.532196,181.35,13.07,3.0,334.44,24 / 24,2282327,2019-09-07 09:51:27:606,-2.745,-2.6662,8.7755,-0.0414,-0.0965,9.806,0.1427,-0.196,0.1365,-7.37,-36.62,-2.56,219.22,-76.5,-161.87
22782,52.436077,-1.532196,181.35,13.07,3.0,334.44,24 / 24,2282427,2019-09-07 09:51:27:706,0.5862,-1.174,10.906,-0.0075,-0.0619,9.8064,0.1001,-0.0016,-0.0127,-6.81,-35.94,-2.87,221.63,-77.01,-160.38
22783,52.436077,-1.532196,181.35,13.07,3.0,334.44,24 / 24,2282527,2019-09-07 09:51:27:806,-0.3913,0.0846,10.8765,0.0383,0.0434,9.8064,0.1735,0.0413,-0.047,-7.75,-36.19,-2.25,227.78,-76.85,-160.67
22784,52.436077,-1.532196,181.35,13.07,3.0,334.44,24 / 24,2282627,2019-09-07 09:51:27:906,0.1884,-0.5147,11.3126,0.0039,0.0237,9.8066,0.1979,0.0051,-0.0579,-7.37,-35.56,-1.94,221.64,-76.31,-161.27
22785,52.436077,-1.532196,181.35,13.07,3.0,334.44,24 / 24,2282727,2019-09-07 09:51:28:006,-0.3285,-0.9399,9.8993,0.0009,0.0259,9.8066,-0.1039,-0.0044,-0.0253,-7.0,-35.87,-2.19,220.66,-76.1,-162.66
22786,52.436077,-1.532196,181.35,13.07,3.0,334.44,24 / 24,2282827,2019-09-07 09:51:28:106,-0.4078,-1.4292,9.0488,-0.0106,-0.014,9.8065,-0.1046,-0.0153,-0.0037,-7.25,-36.62,-2.37,220.3,-76.33,-162.75
22787,52.436077,-1.532196,181.35,13.07,3.0,334.44,24 / 24,2282927,2019-09-07 09:51:28:206,-1.7969,-1.8645,9.1291,-0.0222,-0.0417,9.8065,0.1187,-0.0114,0.0518,-7.37,-36.44,-2.5,221.73,-76.6,-162.55
22788,52.436077,-1.532196,181.35,13.07,3.0,334.44,24 / 24,2283027,2019-09-07 09:51:28:306,-1.4492,-0.859,9.4293,-0.0126,-0.0231,9.8065,0.0527,0.0211,0.0491,-7.25,-36.75,-2.06,221.96,-76.97,-162.01
22789,52.436077,-1.532196,181.35,13.07,3.0,334.44,23 / 24,2283129,2019-09-07 09:51:28:408,-0.9624,-1.635,10.3289,0.0089,0.0181,9.8066,0.0034,-0.0537,0.0489,-7.94,-37.19,-2.44,226.63,-76.95,-161.79
22790,52.436077,-1.532196,181.35,13.07,3.0,334.44,23 / 24,2283227,2019-09-07 09:51:28:506,0.0123,-1.6127,9.983,-0.0001,0.0024,9.8066,0.1376,0.0063,0.0038,-7.69,-37.06,-2.19,226.1,-76.77,-162.04
22791,52.436077,-1.532196,181.35,13.07,3.0,334.44,23 / 24,2283327,2019-09-07 09:51:28:606,-0.9441,-1.6694,10.2694,0.012,0.0171,9.8066,-0.0562,0.0475,-0.0331,-7.19,-36.75,-2.31,220.75,-76.52,-162.59
22792,52.436077,-1.532196,181.35,13.07,3.0,334.44,23 / 24,2283427,2019-09-07 09:51:28:706,0.4509,-0.3568,9.7901,-0.009,0.0008,9.8066,0.081,-0.0184,0.0044,-7.25,-36.37,-2.19,221.79,-76.67,-162.78
22793,52.436077,-1.532196,181.35,13.07,3.0,334.44,23 / 24,2283527,2019-09-07 09:51:28:806,-1.3003,-1.0209,8.8353,-0.0174,-0.0262,9.8065,-0.0678,0.0068,0.0171,-7.62,-37.12,-2.06,225.58,-76.75,-163.02
22794,52.436077,-1.532196,181.35,13.07,3.0,334.44,23 / 24,2283627,2019-09-07 09:51:28:906,-1.4631,-1.4118,9.2619,0.0068,-0.0096,9.8066,-0.1761,-0.022,0.0449,-7.31,-37.06,-3.0,219.8,-76.92,-162.38
22795,52.436077,-1.532196,181.35,13.07,3.0,334.44,23 / 24,2283728,2019-09-07 09:51:29:007,-0.7566,-2.1683,10.1807,0.0036,-0.0082,9.8066,0.0906,-0.0545,0.0416,-7.44,-36.87,-2.06,222.34,-77.09,-161.76
22796,52.436077,-1.532196,181.35,13.07,3.0,334.44,23 / 24,2283828,2019-09-07 09:51:29:107,-0.9461,-1.5386,10.1614,0.0026,0.0077,9.8066,0.0371,0.0236,-0.0212,-6.94,-36.5,-3.06,220.88,-76.94,-161.68
22797,52.436077,-1.532196,181.35,13.07,3.0,334.44,23 / 24,2283928,2019-09-07 09:51:29:207,-0.5795,-1.6839,10.0817,-0.0009,0.0143,9.8066,0.0098,-0.0142,0.0133,-7.5,-36.94,-2.0,220.97,-76.58,-162.37
22798,52.436077,-1.532196,181.35,13.07,3.0,334.44,23 / 24,2284027,2019-09-07 09:51:29:306,-0.6995,-0.8014,9.8562,0.0057,0.0051,9.8066,-0.0684,0.0298,-0.0295,-7.31,-36.56,-1.75,220.61,-76.43,-162.51
22799,52.436077,-1.532196,181.35,13.07,3.0,334.44,23 / 23,2284127,2019-09-07 09:51:29:406,-0.546,-2.9939,10.9346,0.0032,-0.0057,9.8066,0.1002,0.0259,-0.0442,-7.56,-37.37,-1.94,225.25,-76.52,-162.62
22800,52.436077,-1.532196,181.35,13.07,3.0,334.44,23 / 23,2284227,2019-09-07 09:51:29:506,-0.9631,-1.8338,9.5347,-0.0279,-0.0099,9.8066,0.1663,0.0319,-0.0778,-7.12,-36.62,-1.5,222.75,-76.58,-163.34
22801,52.436077,-1.532196,181.35,13.07,3.0,334.44,23 / 23,2284327,2019-09-07 09:51:29:606,-1.6119,-0.4841,9.6234,0.0065,0.0252,9.8066,0.1138,-0.0697,-0.001,-7.44,-36.62,-1.5,221.98,-76.36,-164.0
22802,52.436077,-1.532196,181.35,13.07,3.0,334.44,23 / 23,2284427,2019-09-07 09:51:29:706,-0.1447,-1.7073,9.5603,-0.011,-0.0122,9.8065,0.0124,0.0098,-0.0324,-7.06,-36.12,-1.56,220.85,-76.53,-164.29
22803,52.436077,-1.532196,181.35,13.07,3.0,334.44,23 / 23,2284527,2019-09-07 09:51:29:806,-1.0395,-0.1972,9.0458,-0.0089,-0.002,9.8066,0.1207,-0.0185,-0.0029,-7.56,-36.31,-2.12,226.06,-76.81,-164.0
22804,52.436077,-1.532196,181.35,13.07,3.0,334.44,23 / 23,2284627,2019-09-07 09:51:29:906,-0.5158,-0.6524,10.2466,-0.0058,-0.0225,9.8066,0.0686,-0.0357,0.0398,-7.06,-36.25,-2.31,222.13,-76.98,-163.57
22805,52.436077,-1.532196,181.35,13.07,3.0,334.44,23 / 23,2284727,2019-09-07 09:51:30:006,-0.6272,-0.6425,9.9263,0.0159,0.0149,9.8066,0.103,0.0133,0.0073,-7.44,-36.06,-2.37,222.28,-77.04,-163.52
22806,52.436077,-1.532196,181.35,13.07,3.0,334.44,23 / 23,2284827,2019-09-07 09:51:30:106,-0.6636,-2.0008,10.137,-0.0028,-0.0138,9.8066,0.1125,0.0686,-0.0247,-7.37,-36.56,-1.62,221.66,-77.01,-162.95
22807,52.436077,-1.532196,181.35,13.07,3.0,334.44,23 / 23,2284927,2019-09-07 09:51:30:206,-0.1525,-1.9491,10.4246,0.016,0.0448,9.8064,0.1516,-0.0239,0.0456,-6.37,-36.69,-1.5,218.93,-77.1,-162.82
22808,52.436077,-1.532196,181.35,13.07,3.0,334.44,23 / 23,2285027,2019-09-07 09:51:30:306,-0.2127,-1.0204,10.5043,0.003,0.027,9.8065,0.0463,-0.0342,0.0072,-6.19,-36.5,-1.69,216.9,-76.84,-163.6
22809,52.436077,-1.532196,181.35,13.07,3.0,334.44,23 / 23,2285127,2019-09-07 09:51:30:406,-1.4835,-0.382,9.8896,-0.0233,0.0024,9.8065,0.0129,0.0378,-0.0845,-6.87,-36.62,-1.81,220.23,-76.69,-164.76
22810,52.436077,-1.532196,181.35,13.07,3.0,334.44,23 / 23,2285227,2019-09-07 09:51:30:506,-0.4017,-0.2021,9.8123,-0.012,-0.0175,9.8065,-0.0557,0.0208,-0.05,-6.37,-36.75,-1.81,215.45,-76.72,-164.99
22811,52.436077,-1.532196,181.35,13.07,3.0,334.44,23 / 23,2285327,2019-09-07 09:51:30:606,-0.5252,-0.4175,9.2958,0.0044,-0.0206,9.8066,-0.0231,-0.0062,0.0079,-6.19,-37.06,-1.81,215.72,-76.89,-165.12
22812,52.436077,-1.532196,181.35,13.07,3.0,334.44,23 / 23,2285427,2019-09-07 09:51:30:706,-0.6877,-1.3163,9.3165,-0.0097,-0.0192,9.8066,-0.0611,0.0141,0.0578,-6.94,-36.56,-2.69,219.56,-77.26,-164.4
22813,52.436077,-1.532196,181.35,13.07,3.0,334.44,23 / 23,2285527,2019-09-07 09:51:30:806,-0.8513,-1.9196,9.5334,-0.0084,-0.0184,9.8065,-0.0781,0.0676,0.0016,-7.0,-36.5,-2.5,223.0,-77.37,-163.55
22814,52.436077,-1.532196,181.35,13.07,3.0,334.44,23 / 23,2285627,2019-09-07 09:51:30:906,-0.2283,-0.6517,9.6499,-0.0021,-0.0138,9.8065,0.0357,-0.005,-0.0173,-7.25,-36.69,-2.19,222.6,-77.45,-163.04
22815,52.436077,-1.532196,181.35,13.07,3.0,334.44,23 / 23,2285727,2019-09-07 09:51:31:006,0.1444,-1.8995,10.0044,0.0091,0.0002,9.8066,0.0212,-0.108,0.0498,-7.0,-36.5,-2.25,223.15,-77.39,-163.31
22816,52.436077,-1.532196,181.35,13.07,3.0,334.44,23 / 23,2285827,2019-09-07 09:51:31:106,-0.6502,-1.012,10.0117,-0.0134,-0.0068,9.8065,-0.0511,-0.0177,-0.0233,-7.19,-36.44,-1.94,223.18,-77.48,-163.68
22817,52.436077,-1.532196,181.35,13.07,3.0,334.44,23 / 23,2285927,2019-09-07 09:51:31:206,-0.7815,-0.4048,9.3368,-0.0072,-0.0031,9.8066,-0.0098,0.0138,-0.0868,-7.25,-36.69,-2.0,222.43,-77.6,-164.21
22818,52.436077,-1.532196,181.35,13.07,3.0,334.44,23 / 23,2286027,2019-09-07 09:51:31:306,-0.2464,-0.8333,10.3777,0.0021,0.0148,9.8066,-0.109,-0.0141,-0.0155,-6.62,-36.5,-2.44,223.35,-77.7,-164.39
