,GPS LATITUDE (degrees), GPS LONGITUDE (degrees), GPS ALTITUDE (m), GPS SPEED (Kmh), GPS ACCURACY (m), GPS ORIENTATION (Â°),GPS SATELLITES IN RANGE, TIME SINCE START (ms), DATE (YYYY-MO-DD HH-MI-SS_SSS), ACCELEROMETER X (m/s²) , ACCELEROMETER Y (m/s²), ACCELEROMETER Z (m/s²), GRAVITY X (m/s²), GRAVITY Y (m/s²), GRAVITY Z (m/s²), GYROSCOPE Yaw (rad/s), GYROSCOPE Pitch (rad/s), GYROSCOPE Roll (rad/s), MAGNETIC FIELD X (Î¼T), MAGNETIC FIELD Y (Î¼T), MAGNETIC FIELD Z (Î¼T), ORIENTATION (Yaw) (Â°), ORIENTATION (Pitch) (Â°), ORIENTATION (Roll ) (Â°)
0,52.881744,-1.71748,122.15,30.95,4,282.34,22 / 22,956512,2019-11-06 12:01:50:393,1.1562,0.3713,12.2063,0.0572,-0.0702,9.8061,0.2367,0.141,-0.2418,2.69,-37.12,11.06,324.6,-80.16,148.59
1,52.881744,-1.71748,122.15,30.95,4,282.34,22 / 22,956612,2019-11-06 12:01:50:493,-5.6016,-2.2511,6.3126,0.0906,-0.0383,9.8061,0.2429,0.2952,-0.3969,0.88,-37.06,7.69,287.13,-80.28,148.85
2,52.881744,-1.71748,122.15,30.95,4,282.34,22 / 22,956711,2019-11-06 12:01:50:592,-0.4111,0.68,11.8689,-0.0607,-0.0395,9.8064,0.1031,0.4197,-0.2931,2.13,-41.06,7.31,284.56,-80.78,150.9
3,52.881744,-1.71748,122.15,30.95,4,282.34,22 / 22,956812,2019-11-06 12:01:50:693,-2.8493,2.1808,7.2371,-0.0362,0.0233,9.8065,-0.2978,0.0242,0.1266,0.19,-43.0,7.5,266.56,-80.55,149.78
4,52.881744,-1.71748,122.15,30.95,4,282.34,22 / 22,956913,2019-11-06 12:01:50:794,-3.9506,3.5023,6.9313,-0.0151,0.0158,9.8066,-0.3605,0.3938,-0.0069,1.25,-45.44,10.56,296.85,-80.31,150.22
5,52.881744,-1.71748,122.15,30.95,4,282.34,22 / 22,957012,2019-11-06 12:01:50:893,2.8846,-0.6521,12.1433,0.028,0.034,9.8065,-0.2466,-0.143,0.2301,1.0,-42.25,13.81,310.89,-80.31,149.78
6,52.881744,-1.71748,122.15,30.95,4,282.34,22 / 22,957112,2019-11-06 12:01:50:993,2.6476,-2.3995,11.9391,0.0643,-0.0236,9.8064,0.2419,0.2411,-0.3512,2.81,-38.31,11.19,323.64,-80.38,148.16
7,52.881744,-1.71748,122.15,30.95,4,282.34,22 / 22,957212,2019-11-06 12:01:51:093,-4.8583,2.388,7.1228,0.049,-0.0055,9.8064,0.2193,-0.2057,-0.084,1.63,-38.81,6.94,282.78,-80.54,147.4
8,52.881744,-1.71748,122.15,30.95,4,282.34,22 / 22,957312,2019-11-06 12:01:51:193,-0.5011,-2.1063,11.4874,-0.0694,0.0106,9.8063,-0.212,-0.0006,0.0779,2.0,-43.44,9.06,299.88,-81.01,147.29
9,52.881744,-1.71748,122.15,30.95,4,282.34,22 / 22,957412,2019-11-06 12:01:51:293,0.5765,-0.4475,11.5442,-0.0504,0.0509,9.8063,-0.1577,-0.322,0.2597,3.44,-41.62,9.63,318.78,-81.07,146.87
10,52.881744,-1.71748,122.15,30.95,4,282.34,22 / 22,957512,2019-11-06 12:01:51:393,-2.6531,0.2726,10.3023,0.0507,-0.0343,9.8064,-0.0923,-0.1138,0.227,2.63,-39.94,10.31,317.95,-80.67,146.38
11,52.881744,-1.71748,122.15,30.95,4,282.34,22 / 22,957613,2019-11-06 12:01:51:494,2.312,2.8172,9.539,0.0273,-0.0462,9.8064,0.2775,0.259,-0.3563,2.56,-39.44,6.75,313.34,-81.07,146.06
12,52.881744,-1.71748,122.15,30.95,4,282.34,22 / 22,957712,2019-11-06 12:01:51:593,-0.9026,-2.3848,9.8181,0.0363,0.0479,9.8064,0.3717,-0.3464,-0.047,1.88,-43.94,9.44,293.07,-80.9,145.39
13,52.881744,-1.71748,122.15,30.95,4,282.34,22 / 22,957812,2019-11-06 12:01:51:693,0.9736,0.8358,9.6964,-0.0088,-0.022,9.8066,0.3479,-0.181,-0.1091,1.63,-41.5,10.56,311.13,-81.09,146.68
14,52.881744,-1.71748,122.15,30.95,4,282.34,22 / 22,957912,2019-11-06 12:01:51:793,-3.1961,2.385,10.3472,-0.0638,0.034,9.8063,-0.1301,-0.2943,0.2236,1.94,-41.75,9.56,307.56,-81.21,146.75
15,52.881744,-1.71748,122.15,30.95,4,282.34,22 / 22,958012,2019-11-06 12:01:51:893,-3.393,0.9511,10.3141,-0.0736,0.024,9.8062,-0.1791,0.0092,0.0023,2.88,-40.69,8.44,319.21,-81.18,147.88
16,52.881744,-1.71748,122.15,30.95,4,282.34,22 / 22,958112,2019-11-06 12:01:51:993,-6.1898,-2.7335,9.7537,0.0087,-0.052,9.8064,0.0097,-0.5911,0.4167,2.13,-41.69,8.38,289.89,-80.65,148.07
17,52.881744,-1.71748,122.15,30.95,4,282.34,22 / 22,958212,2019-11-06 12:01:52:093,-1.257,0.2423,9.3097,-0.034,-0.0686,9.8063,-0.1097,0.2893,-0.1213,2.19,-41.19,9.63,305.04,-80.66,146.68
18,52.881744,-1.71748,122.15,30.95,4,282.34,22 / 22,958312,2019-11-06 12:01:52:193,3.0336,3.6898,7.7927,-0.0216,-0.0522,9.8064,0.2504,-0.1567,-0.0267,3.31,-41.31,9.56,321.33,-80.55,148.89
19,52.881744,-1.71748,122.15,30.95,4,282.34,22 / 22,958412,2019-11-06 12:01:52:293,-2.4455,3.2109,8.9001,0.0187,-0.0445,9.8065,0.0523,0.5206,-0.438,3.0,-40.19,8.75,319.29,-80.3,149.04
20,52.881744,-1.71748,122.15,30.95,4,282.34,22 / 22,958512,2019-11-06 12:01:52:393,4.0118,-0.8513,10.717,-0.0743,-0.0081,9.8063,-0.023,0.2584,-0.1754,4.13,-39.87,8.75,341.21,-80.44,150.06
21,52.881744,-1.71748,122.15,30.95,4,282.34,22 / 22,958612,2019-11-06 12:01:52:493,-4.7739,2.2486,11.0565,0.0219,0.0332,9.8065,-0.0306,0.2841,-0.2649,4.81,-40.81,8.5,356.67,-80.15,149.93
22,52.881744,-1.71748,122.15,30.95,4,282.34,22 / 22,958712,2019-11-06 12:01:52:593,0.328,2.9289,9.7658,-0.0114,0.0321,9.8065,-0.1458,0.3469,-0.1107,5.31,-40.44,8.94,355.31,-80.25,149.41
23,52.881744,-1.71748,122.15,30.95,4,282.34,22 / 22,958812,2019-11-06 12:01:52:693,-3.0264,4.1523,9.8924,0.0304,-0.0138,9.8066,-0.1261,0.0378,0.0865,6.06,-41.56,8.88,5.56,-80.25,148.14
24,52.881744,-1.71748,122.15,30.95,4,282.34,22 / 22,958912,2019-11-06 12:01:52:793,-0.2278,1.4893,9.8202,0.0142,-0.0297,9.8066,0.0113,0.4196,-0.2954,5.0,-40.69,9.38,353.51,-80.32,148.89
25,52.881744,-1.71748,122.15,30.95,4,282.34,22 / 22,959012,2019-11-06 12:01:52:893,3.7227,-1.9164,9.5997,0.0355,-0.0559,9.8064,0.1337,-0.4021,0.2204,6.31,-40.94,9.31,3.66,-80.55,147.64
26,52.881744,-1.71748,122.15,30.95,4,282.34,22 / 22,959112,2019-11-06 12:01:52:993,3.6248,-0.5304,9.736,0.061,-0.0209,9.8064,0.0251,0.4713,-0.338,5.69,-41.06,10.69,351.73,-80.82,147.53
27,52.881744,-1.71748,122.15,30.95,4,282.34,22 / 22,959212,2019-11-06 12:01:53:093,1.8155,0.8974,8.9907,0.0567,-0.0225,9.8064,-0.2247,0.7151,-0.3053,7.38,-37.75,11.0,3.48,-80.85,149.35
28,52.881744,-1.71748,122.15,30.95,4,282.34,22 / 22,959312,2019-11-06 12:01:53:193,3.797,-3.1464,8.6702,-0.0641,0.016,9.8064,-0.0261,0.2743,-0.1795,7.44,-35.62,7.94,23.88,-80.74,149.65
29,52.881744,-1.71748,122.15,30.95,4,282.34,22 / 22,959411,2019-11-06 12:01:53:292,1.0909,3.0031,9.5391,0.0108,0.0275,9.8066,0.0646,0.3834,-0.371,4.75,-42.06,6.5,20.79,-80.68,148.68
30,52.881744,-1.71748,122.15,30.95,4,282.34,22 / 22,959512,2019-11-06 12:01:53:393,-7.6369,5.2572,8.4119,0.0371,-0.0803,9.8062,0.1528,0.6462,-0.5528,4.94,-44.44,8.5,345.17,-80.36,146.88
31,52.881744,-1.71748,122.15,30.95,4,282.34,22 / 22,959612,2019-11-06 12:01:53:493,1.0285,1.0117,11.7136,-0.059,-0.001,9.8064,-0.133,0.7422,-0.4426,6.5,-42.75,12.25,352.94,-80.47,146.39
32,52.881744,-1.71748,122.15,30.95,4,282.34,22 / 22,959712,2019-11-06 12:01:53:593,-6.053,4.6007,10.9263,0.0314,-0.0452,9.8064,-0.0212,0.3124,-0.1554,4.63,-38.19,8.94,349.09,-80.38,146.89
33,52.881744,-1.71748,122.15,30.95,4,282.34,22 / 22,959812,2019-11-06 12:01:53:693,1.9548,-1.9062,8.7837,-0.0832,-0.006,9.8063,-0.1735,0.7314,-0.4026,4.56,-40.69,5.5,56.68,-80.53,149.72
34,52.881744,-1.71748,122.15,30.95,4,282.34,22 / 22,959912,2019-11-06 12:01:53:793,3.379,2.6098,10.6564,0.0343,0.0323,9.8065,0.045,0.5583,-0.3993,3.25,-43.31,6.88,292.03,-80.59,149.09
35,52.881744,-1.71748,122.15,30.95,4,282.34,22 / 22,960012,2019-11-06 12:01:53:893,2.8293,2.4273,10.5967,-0.079,0.0318,9.8062,0.1009,0.4859,-0.3209,3.38,-43.31,9.63,322.53,-80.79,149.96
36,52.881744,-1.71748,122.15,30.95,4,282.34,22 / 22,960112,2019-11-06 12:01:53:993,1.7219,0.5484,9.1288,-0.0921,-0.029,9.8061,0.0548,-0.6519,0.3098,2.75,-41.19,9.44,321.77,-80.56,149.86
37,52.881744,-1.71748,122.15,30.95,4,282.34,22 / 22,960212,2019-11-06 12:01:54:093,-4.2128,-4.8257,10.8637,-0.0607,0.0065,9.8065,0.1605,-0.0809,-0.0338,2.19,-41.62,7.63,284.19,-80.28,148.06
38,52.881744,-1.71748,122.15,30.95,4,282.34,22 / 22,960312,2019-11-06 12:01:54:193,1.0278,2.2357,10.7533,0.017,-0.0461,9.8065,0.1337,-0.3309,0.0021,1.88,-46.37,6.44,225.4,-80.62,148.37
39,52.881744,-1.71748,122.15,30.95,4,282.34,22 / 22,960412,2019-11-06 12:01:54:293,-2.9021,2.0355,9.6833,0.0425,0.013,9.8065,-0.1602,-0.2897,0.2487,1.13,-43.62,11.06,295.25,-80.85,145.71
40,52.881744,-1.71748,122.15,30.95,4,282.34,21 / 22,960512,2019-11-06 12:01:54:393,-2.5519,-1.3188,9.3176,0.0291,0.0104,9.8066,-0.1192,0.1514,-0.0134,1.56,-42.12,9.19,301.3,-81.26,145.7
41,52.881744,-1.71748,122.15,30.95,4,282.34,21 / 22,960612,2019-11-06 12:01:54:493,-1.8637,0.0238,9.8014,0.0308,0.0081,9.8065,-0.0334,-0.1211,0.085,2.06,-42.37,7.81,292.96,-81.31,144.88
42,52.881744,-1.71748,122.15,30.95,4,282.34,21 / 22,960711,2019-11-06 12:01:54:592,0.7905,0.0831,9.676,-0.0156,0.005,9.8066,0.0241,-0.073,0.1545,1.56,-43.06,7.31,277.23,-81.24,145.83
43,52.881744,-1.71748,122.15,30.95,4,282.34,21 / 22,960811,2019-11-06 12:01:54:692,-4.0914,3.1821,9.6071,-0.02,-0.0086,9.8066,0.1925,0.0536,-0.0982,2.13,-43.62,9.5,301.03,-80.79,146.71
44,52.881744,-1.71748,122.15,30.95,4,282.34,21 / 22,960912,2019-11-06 12:01:54:793,-3.0115,4.2461,9.8724,0.0116,-0.0344,9.8066,0.2047,-0.0448,-0.0501,3.44,-40.94,9.5,319.12,-80.49,148.11
45,52.881744,-1.71748,122.15,30.95,4,282.34,21 / 22,961012,2019-11-06 12:01:54:893,1.2244,1.7644,9.5923,-0.017,-0.0236,9.8065,-0.0754,0.095,-0.1031,3.0,-41.56,5.25,181.65,-80.29,148.66
46,52.881744,-1.71748,122.15,30.95,4,282.34,21 / 22,961112,2019-11-06 12:01:54:993,-2.6835,1.9394,9.3575,0.0079,-0.0051,9.8066,-0.0516,-0.3304,0.1459,0.88,-44.44,7.5,267.12,-80.32,148.28
47,52.881744,-1.71748,122.15,30.95,4,282.34,21 / 22,961212,2019-11-06 12:01:55:093,-3.3008,-1.5031,8.4884,0.0026,0.0296,9.8066,-0.1865,-0.1898,0.1972,2.38,-44.25,7.0,258.37,-80.45,147.01
48,52.881744,-1.71748,122.15,30.95,4,282.34,21 / 22,961312,2019-11-06 12:01:55:193,2.0089,3.4625,11.1661,-0.0705,0.0325,9.8063,-0.1849,-0.4133,0.3658,1.94,-41.94,8.56,299.54,-80.91,146.54
49,52.881744,-1.71748,122.15,30.95,4,282.34,21 / 22,961412,2019-11-06 12:01:55:293,-1.6987,-2.2358,8.8348,-0.0037,0.0568,9.8064,0.1414,-0.4821,0.2556,1.75,-41.0,9.06,301.78,-80.94,146.49
50,52.881744,-1.71748,122.15,30.95,4,282.34,23 / 23,961512,2019-11-06 12:01:55:393,-1.5854,-0.6718,8.6347,0.0173,-0.0651,9.8063,0.0588,-0.2601,0.105,3.94,-45.81,3.63,142.54,-81.48,145.2
51,52.881744,-1.71748,122.15,30.95,4,282.34,23 / 23,961612,2019-11-06 12:01:55:493,-2.3546,1.3381,11.5273,0.0135,0.0178,9.8066,0.0999,-0.1472,0.129,4.0,-45.75,11.06,323.51,-81.69,143.63
52,52.881744,-1.71748,122.15,30.95,4,282.34,23 / 23,961713,2019-11-06 12:01:55:594,-2.6716,1.0858,8.3936,0.0179,-0.0354,9.8065,-0.1446,-0.0902,0.1211,0.69,-40.37,10.56,303.41,-81.69,144.62
53,52.881744,-1.71748,122.15,30.95,4,282.34,23 / 23,961812,2019-11-06 12:01:55:693,-4.3785,-2.4208,8.8114,0.042,-0.024,9.8064,-0.1042,-0.148,0.1142,-1.25,-37.31,5.38,241.98,-81.49,145.97
54,52.881744,-1.71748,122.15,30.95,4,282.34,23 / 23,961912,2019-11-06 12:01:55:793,0.8402,0.2365,11.269,-0.0104,0.0097,9.8066,-0.1078,0.1208,-0.0248,2.44,-46.56,3.25,179.63,-81.5,146.66
55,52.881744,-1.71748,122.15,30.95,4,282.34,23 / 23,962012,2019-11-06 12:01:55:893,-0.111,2.8772,8.1553,0.0288,-0.0049,9.8066,-0.0115,-0.1436,0.0831,2.69,-43.87,10.88,320.41,-81.32,147.36
56,52.881744,-1.71748,122.15,30.95,4,282.34,23 / 23,962112,2019-11-06 12:01:55:993,-2.9652,1.8061,9.1421,-0.0087,0.0318,9.8066,0.0013,0.0094,0.0353,1.13,-42.25,7.81,281.77,-81.26,146.4
57,52.881744,-1.71748,122.15,30.95,4,282.34,23 / 23,962212,2019-11-06 12:01:56:093,0.9365,-1.5348,10.388,-0.0014,0.0147,9.8066,0.093,-0.1441,-0.0226,1.94,-43.94,6.06,244.22,-81.06,146.0
58,52.881744,-1.71748,122.15,30.95,4,282.34,23 / 23,962312,2019-11-06 12:01:56:193,-2.9119,1.7884,8.8118,0.0239,-0.0146,9.8066,0.1553,0.1074,-0.1521,3.44,-43.25,8.94,309.09,-80.79,145.6
59,52.881744,-1.71748,122.15,30.95,4,282.34,23 / 23,962412,2019-11-06 12:01:56:293,-0.2571,0.0901,10.1776,-0.0086,0.0046,9.8065,0.0362,-0.0916,-0.0248,1.06,-41.62,7.88,276.03,-80.84,145.62
60,52.881744,-1.71748,122.15,30.95,4,282.34,22 / 22,962512,2019-11-06 12:01:56:393,-1.9551,-1.5002,10.4414,-0.0045,0.0244,9.8065,-0.1018,0.0545,-0.0087,-1.25,-40.87,7.38,254.74,-80.97,145.39
61,52.881744,-1.71748,122.15,30.95,4,282.34,22 / 22,962612,2019-11-06 12:01:56:493,0.4856,-1.1114,8.7327,0.0001,0.008,9.8066,-0.1779,-0.0205,0.049,-0.25,-41.0,8.31,275.59,-81.54,145.02
62,52.881744,-1.71748,122.15,30.95,4,282.34,22 / 22,962712,2019-11-06 12:01:56:593,-1.1369,-0.396,9.5849,-0.0315,0.0197,9.8065,0.1244,0.0214,-0.0826,0.69,-39.44,5.75,266.39,-81.8,144.04
63,52.881744,-1.71748,122.15,30.95,4,282.34,22 / 22,962812,2019-11-06 12:01:56:693,-0.5902,-1.2436,10.1168,-0.0211,-0.0173,9.8065,0.1214,-0.0664,-0.0356,-0.06,-40.75,6.5,267.78,-81.83,144.9
64,52.881744,-1.71748,122.15,30.95,4,282.34,22 / 22,962912,2019-11-06 12:01:56:793,-0.6546,0.7318,9.8465,-0.014,-0.028,9.8066,0.0963,-0.229,0.1367,-2.12,-41.75,6.69,255.87,-81.69,146.44
65,52.881744,-1.71748,122.15,30.95,4,282.34,22 / 22,963012,2019-11-06 12:01:56:893,-1.8323,0.4232,10.2154,-0.0289,-0.0018,9.8066,0.1309,-0.0633,-0.0616,1.25,-39.44,9.0,300.81,-81.66,147.45
66,52.881744,-1.71748,122.15,30.95,4,282.34,22 / 22,963112,2019-11-06 12:01:56:993,-0.3545,-1.344,9.0856,0.0375,-0.0002,9.8065,0.1544,-0.1522,-0.0704,0.5,-41.69,4.19,209.26,-81.53,147.66
67,52.881744,-1.71748,122.15,30.95,4,282.34,22 / 22,963212,2019-11-06 12:01:57:093,-1.9769,-1.1298,10.2374,0.046,0.0184,9.8065,-0.1441,-0.0627,0.1211,-0.5,-42.94,5.63,250.35,-81.75,147.97
68,52.881744,-1.71748,122.15,30.95,4,282.34,22 / 22,963312,2019-11-06 12:01:57:193,-1.1167,0.0398,9.4925,-0.0149,-0.0101,9.8066,-0.2375,-0.104,0.1608,-1.75,-45.56,8.56,268.92,-81.73,147.9
69,52.881744,-1.71748,122.15,30.95,4,282.34,22 / 22,963412,2019-11-06 12:01:57:293,-3.527,0.665,8.4596,-0.017,0.03,9.8066,0.0715,-0.1664,0.0589,-0.75,-40.62,12.06,295.54,-81.88,146.49
70,52.881744,-1.71748,122.15,30.95,4,282.34,22 / 22,963512,2019-11-06 12:01:57:393,-0.6113,-0.3551,10.7927,-0.0346,0.0444,9.8064,0.1649,-0.0896,-0.0897,1.0,-36.75,8.25,297.99,-81.9,146.23
71,52.881744,-1.71748,122.15,30.95,4,282.34,22 / 22,963612,2019-11-06 12:01:57:493,-3.1083,0.4152,8.4925,-0.0747,0.0025,9.8063,0.1773,-0.2323,0.0434,0.44,-39.62,5.44,244.67,-82.23,144.59
72,52.881744,-1.71748,122.15,30.95,4,282.34,22 / 22,963712,2019-11-06 12:01:57:593,-2.5458,-0.8983,8.5727,0.0035,0.0016,9.8066,0.0768,-0.111,-0.0337,-1.5,-41.37,4.25,228.39,-82.38,144.59
73,52.881744,-1.71748,122.15,30.95,4,282.34,22 / 22,963812,2019-11-06 12:01:57:693,1.3563,-0.2009,10.6508,0.0192,0.0255,9.8065,-0.1906,-0.1847,0.2324,-1.06,-43.75,6.5,265.75,-83.07,142.77
74,52.881744,-1.71748,122.15,30.95,4,282.34,22 / 22,963912,2019-11-06 12:01:57:793,2.9638,-1.1099,11.0482,-0.0185,0.0234,9.8066,-0.0169,-0.1541,0.023,-0.87,-40.69,7.94,278.44,-83.44,140.98
75,52.881744,-1.71748,122.15,30.95,4,282.34,22 / 22,964012,2019-11-06 12:01:57:893,-4.2857,1.2009,9.6633,-0.0213,0.021,9.8066,-0.0209,-0.155,0.055,-2.25,-39.62,8.13,273.5,-83.86,138.96
76,52.881744,-1.71748,122.15,30.95,4,282.34,22 / 22,964111,2019-11-06 12:01:57:992,4.0198,-0.2867,10.8953,-0.0738,0.0001,9.8064,-0.0171,-0.27,0.1861,-1.56,-37.94,4.75,253.7,-84.34,137.58
77,52.881744,-1.71748,122.15,30.95,4,282.34,22 / 22,964212,2019-11-06 12:01:58:093,3.3721,-2.6549,11.4196,-0.0839,-0.0249,9.8062,0.1993,-0.2594,-0.0999,-0.69,-42.81,4.88,254.98,-84.7,135.29
78,52.881744,-1.71748,122.15,30.95,4,282.34,22 / 22,964312,2019-11-06 12:01:58:193,-3.901,5.5334,7.4566,0.0276,0.0058,9.8066,0.2484,-0.0652,-0.0598,-0.06,-42.37,7.5,288.22,-84.61,136.36
79,52.881744,-1.71748,122.15,30.95,4,282.34,22 / 22,964412,2019-11-06 12:01:58:293,1.5586,-2.3932,11.3705,0.0207,-0.0152,9.8065,-0.2578,-0.0343,0.1103,1.13,-41.12,7.81,300.98,-85.14,135.68
80,52.881744,-1.71748,122.15,30.95,4,282.34,21 / 21,964512,2019-11-06 12:01:58:393,1.936,-1.803,10.1063,-0.0079,0.0074,9.8065,-0.3244,0.0456,0.1522,0.19,-39.25,5.06,276.76,-85.48,134.57
81,52.881744,-1.71748,122.15,30.95,4,282.34,21 / 21,964612,2019-11-06 12:01:58:493,-2.5113,1.7925,6.6046,-0.0021,-0.0319,9.8066,-0.1792,0.2648,-0.0106,-0.87,-41.12,6.56,284.03,-85.5,138.47
82,52.881744,-1.71748,122.15,30.95,4,282.34,21 / 21,964712,2019-11-06 12:01:58:593,-3.6804,-0.6616,9.0688,0.0487,0.0287,9.8064,-0.0019,-0.2748,0.327,-2.12,-39.5,6.81,273.36,-85.26,135.63
83,52.881744,-1.71748,122.15,30.95,4,282.34,21 / 21,964812,2019-11-06 12:01:58:693,-3.3268,-0.6829,8.2541,-0.0516,-0.0169,9.8065,0.219,0.0832,-0.1005,-2.87,-40.12,5.44,260.32,-85.76,141.33
84,52.881744,-1.71748,122.15,30.95,4,282.34,21 / 21,964912,2019-11-06 12:01:58:793,-0.0906,2.1844,7.782,0.0081,-0.0605,9.8064,0.2205,-0.2499,0.0702,-1.06,-42.69,4.38,257.5,-85.52,144.4
85,52.881744,-1.71748,122.15,30.95,4,282.34,21 / 21,965012,2019-11-06 12:01:58:893,-2.7791,1.1449,11.3692,0.0098,-0.0203,9.8066,0.0772,-0.062,0.1099,-1.19,-42.69,6.94,288.47,-85.3,144.96
86,52.881744,-1.71748,122.15,30.95,4,282.34,21 / 21,965112,2019-11-06 12:01:58:993,-1.5776,-0.7547,8.5241,0.015,-0.0572,9.8064,-0.1023,0.0729,0.073,-0.75,-41.94,6.88,293.37,-85.1,149.45
87,52.881744,-1.71748,122.15,30.95,4,282.34,21 / 21,965212,2019-11-06 12:01:59:093,2.4155,-0.4297,10.4448,0.0341,-0.0407,9.8064,-0.0989,-0.1756,0.2018,-1.69,-40.81,3.5,253.69,-84.78,153.66
88,52.881744,-1.71748,122.15,30.95,4,282.34,21 / 21,965312,2019-11-06 12:01:59:193,2.27,3.6332,10.7725,0.0209,-0.0496,9.8065,-0.0993,-0.1322,0.2216,-0.87,-47.19,3.44,228.75,-84.88,158.47
89,52.881744,-1.71748,122.15,30.95,4,282.34,21 / 21,965412,2019-11-06 12:01:59:293,-2.8178,4.5241,8.4523,-0.0033,0.0262,9.8066,0.162,-0.194,0.05,-0.37,-45.37,7.63,321.01,-84.52,160.93
90,52.88257,-1.721282,121.84,30.14,4,295.79,20 / 21,965512,2019-11-06 12:01:59:393,0.5015,2.8172,6.951,-0.0198,0.0348,9.8065,0.1219,0.0038,-0.0306,1.56,-41.56,8.81,346.98,-84.66,159.99
91,52.88257,-1.721282,121.84,30.14,4,295.79,20 / 21,965612,2019-11-06 12:01:59:493,-0.1261,1.2942,11.7698,-0.0191,0.0415,9.8065,0.0319,-0.1292,0.0219,0.13,-39.81,5.75,317.52,-85.11,160.23
92,52.88257,-1.721282,121.84,30.14,4,295.79,20 / 21,965712,2019-11-06 12:01:59:593,-2.539,-0.6353,8.3331,0.0269,0.011,9.8066,0.0915,0.157,-0.1159,-1.94,-42.81,4.88,279.93,-85.35,161.49
93,52.88257,-1.721282,121.84,30.14,4,295.79,20 / 21,965812,2019-11-06 12:01:59:693,-1.4496,-0.0432,12.9159,0.0192,-0.0585,9.8064,-0.2927,0.1613,0.0329,-1.12,-41.81,8.31,326.55,-85.62,166.42
94,52.88257,-1.721282,121.84,30.14,4,295.79,20 / 21,965912,2019-11-06 12:01:59:793,-2.1781,-0.3982,11.9727,-0.0022,0.008,9.8066,-0.3219,0.2181,0.0432,-0.62,-38.75,7.44,326.29,-86.05,166.67
95,52.88257,-1.721282,121.84,30.14,4,295.79,20 / 21,966012,2019-11-06 12:01:59:893,-0.775,0.8987,8.0187,-0.0315,-0.0375,9.8065,0.0412,0.0776,-0.2006,-2.75,-37.56,3.0,265.03,-86.12,167.3
96,52.88257,-1.721282,121.84,30.14,4,295.79,20 / 21,966112,2019-11-06 12:01:59:993,-0.2538,1.435,10.5644,-0.0486,0.0026,9.8064,0.1039,-0.2571,0.0871,-1.25,-43.94,3.69,294.23,-86.34,166.85
97,52.88257,-1.721282,121.84,30.14,4,295.79,20 / 21,966212,2019-11-06 12:02:00:093,1.8801,1.2119,11.2288,-0.0511,-0.0213,9.8064,0.144,0.3168,-0.2216,-0.69,-43.56,6.38,329.36,-86.29,172.7
98,52.88257,-1.721282,121.84,30.14,4,295.79,20 / 21,966312,2019-11-06 12:02:00:193,0.325,2.7061,10.0639,0.0032,-0.0342,9.8065,-0.0479,0.1558,0.048,0.31,-40.75,7.0,347.68,-85.9,172.84
99,52.88257,-1.721282,121.84,30.14,4,295.79,20 / 21,966412,2019-11-06 12:02:00:293,-0.9353,-2.0983,10.4529,0.022,-0.0219,9.8066,0.0227,-0.1569,0.0851,-2.69,-42.19,2.38,246.33,-85.61,177.46
100,52.88257,-1.721282,121.84,30.14,4,295.79,22 / 22,966512,2019-11-06 12:02:00:393,0.0427,0.5796,10.1589,0.0271,-0.0039,9.8066,-0.0959,-0.0034,0.0601,-0.31,-45.62,4.56,0.43,-85.55,-179.88
101,52.88257,-1.721282,121.84,30.14,4,295.79,22 / 22,966612,2019-11-06 12:02:00:493,-1.6277,-0.1705,8.7361,0.0099,-0.0051,9.8066,-0.2094,0.0419,0.178,-1.5,-44.5,6.5,349.85,-85.79,-177.38
102,52.88257,-1.721282,121.84,30.14,4,295.79,22 / 22,966712,2019-11-06 12:02:00:593,0.5083,0.5476,9.5706,-0.0635,-0.0103,9.8063,-0.1646,-0.3067,0.365,-2.56,-42.81,7.25,332.04,-86.03,-174.14
103,52.88257,-1.721282,121.84,30.14,4,295.79,22 / 22,966813,2019-11-06 12:02:00:694,-2.9889,-2.3109,9.3334,-0.0075,0.0073,9.8066,0.1413,-0.3747,0.0521,-2.44,-43.06,6.44,332.59,-85.95,-176.15
104,52.88257,-1.721282,121.84,30.14,4,295.79,22 / 22,966911,2019-11-06 12:02:00:792,-2.4894,-0.5777,9.8193,-0.0201,0.0005,9.8066,0.0867,0.1614,-0.0923,-1.94,-43.5,6.44,330.49,-85.79,-176.78
105,52.88257,-1.721282,121.84,30.14,4,295.79,22 / 22,967011,2019-11-06 12:02:00:892,-0.7153,-1.3038,9.9403,0.0154,0.0417,9.8065,0.0488,-0.1785,0.0446,-0.81,-41.81,7.56,354.43,-86.04,-176.43
106,52.88257,-1.721282,121.84,30.14,4,295.79,22 / 22,967112,2019-11-06 12:02:00:993,-0.4831,2.6386,9.5244,0.0478,0.0123,9.8065,0.0573,0.0957,-0.0781,0.56,-41.0,7.13,21.18,-86.13,-175.13
107,52.88257,-1.721282,121.84,30.14,4,295.79,22 / 22,967212,2019-11-06 12:02:01:093,1.0428,-1.8788,10.986,0.0236,-0.006,9.8065,0.0016,-0.2369,0.1086,0.13,-40.69,5.81,13.57,-86.13,-172.68
108,52.88257,-1.721282,121.84,30.14,4,295.79,22 / 22,967312,2019-11-06 12:02:01:193,3.5077,-1.9951,10.2826,0.0304,-0.0064,9.8065,-0.067,0.0224,-0.05,0.94,-40.62,6.5,22.22,-86.21,-174.29
109,52.88257,-1.721282,121.84,30.14,4,295.79,22 / 22,967412,2019-11-06 12:02:01:293,0.0618,1.3258,10.2805,0.0452,-0.0195,9.8064,0.0215,-0.3528,0.2316,1.44,-39.87,7.31,22.67,-86.14,-173.95
110,52.88257,-1.721282,121.84,30.14,4,295.79,22 / 22,967512,2019-11-06 12:02:01:393,-3.1237,5.6733,11.732,0.0439,-0.0166,9.8064,-0.2289,0.7647,-0.4647,2.81,-38.87,4.81,61.43,-86.04,-173.6
111,52.88257,-1.721282,121.84,30.14,4,295.79,22 / 22,967611,2019-11-06 12:02:01:492,2.469,-0.9973,9.6278,-0.0026,-0.0332,9.8066,-0.0493,0.2083,-0.0499,1.25,-44.19,3.06,98.76,-85.96,-176.11
112,52.88257,-1.721282,121.84,30.14,4,295.79,22 / 22,967711,2019-11-06 12:02:01:592,-8.6744,-1.6187,9.8324,0.092,0.0308,9.8061,-0.0931,1.0819,-0.5601,-1.12,-43.81,6.88,349.2,-86.07,-178.06
113,52.88257,-1.721282,121.84,30.14,4,295.79,22 / 22,967812,2019-11-06 12:02:01:693,3.5271,1.0078,10.2424,-0.1113,-0.0411,9.8058,-0.1119,1.2193,-0.7819,-2.44,-39.87,8.63,343.07,-86.02,-179.33
114,52.88257,-1.721282,121.84,30.14,4,295.79,22 / 22,967912,2019-11-06 12:02:01:793,-7.8179,-6.8694,10.038,-0.0077,0.0003,9.8066,0.0115,-0.4274,0.269,-2.56,-37.06,6.88,339.25,-86.03,-170.65
115,52.88257,-1.721282,121.84,30.14,4,295.79,22 / 22,968012,2019-11-06 12:02:01:893,-5.7369,-0.7531,10.4736,-0.1021,-0.1086,9.8055,-0.2043,0.4429,-0.2183,-2.62,-36.94,5.88,355.36,-85.96,-156.26
116,52.88257,-1.721282,121.84,30.14,4,295.79,22 / 22,968112,2019-11-06 12:02:01:993,7.8648,1.8948,9.361,-0.0726,-0.1258,9.8056,0.1173,-1.0424,0.6181,-2.5,-36.94,5.19,8.53,-86.02,-153.74
117,52.88257,-1.721282,121.84,30.14,4,295.79,22 / 22,968212,2019-11-06 12:02:02:093,-3.0627,-1.4554,10.1668,0.0302,0.0052,9.8066,0.0175,-0.3953,0.1836,-2.69,-37.62,5.69,347.67,-86.11,-161.04
118,52.88257,-1.721282,121.84,30.14,4,295.79,22 / 22,968312,2019-11-06 12:02:02:193,6.0311,0.1259,9.5888,-0.0623,-0.0462,9.8063,-0.0162,-0.5368,0.3203,-2.25,-37.19,5.63,359.64,-86.07,-161.78
119,52.88257,-1.721282,121.84,30.14,4,295.79,22 / 22,968412,2019-11-06 12:02:02:293,-1.3642,1.421,9.053,0.0344,0.0503,9.8064,0.2187,-0.3963,0.1516,-2.0,-37.19,5.94,348.31,-85.91,-168.38
120,52.88257,-1.721282,121.84,30.14,4,295.79,22 / 22,968512,2019-11-06 12:02:02:393,-1.1894,-3.2991,10.1532,0.0078,-0.0253,9.8066,0.0286,-0.0558,0.0524,-2.19,-36.5,5.06,330.83,-85.79,-173.46
121,52.88257,-1.721282,121.84,30.14,4,295.79,22 / 22,968612,2019-11-06 12:02:02:493,-6.7121,-2.343,9.512,0.0684,0.0311,9.8063,-0.0167,-0.5344,0.4646,-2.81,-36.25,5.44,309.37,-85.4,-177.02
122,52.88257,-1.721282,121.84,30.14,4,295.79,22 / 22,968712,2019-11-06 12:02:02:593,3.6123,2.2881,10.9323,-0.0219,-0.0053,9.8065,0.0618,-0.1634,0.2699,-2.94,-36.75,5.19,314.42,-85.18,-172.1
123,52.88257,-1.721282,121.84,30.14,4,295.79,22 / 22,968812,2019-11-06 12:02:02:693,-1.266,3.7465,10.1389,0.0446,0.0591,9.8063,-0.0282,-0.5483,0.2603,-2.75,-36.25,3.56,297.78,-84.89,-170.59
124,52.88257,-1.721282,121.84,30.14,4,295.79,22 / 22,968912,2019-11-06 12:02:02:793,-2.1288,-2.7558,7.9241,-0.0213,0.0459,9.8065,-0.0052,0.1926,-0.08,-3.62,-40.37,-0.62,223.39,-84.64,-174.1
125,52.88257,-1.721282,121.84,30.14,4,295.79,22 / 22,969012,2019-11-06 12:02:02:893,-0.7938,1.0448,8.036,-0.0223,-0.0501,9.8064,0.0043,-0.1616,-0.0749,-0.62,-52.12,-1.25,191.25,-84.92,-174.37
126,52.88257,-1.721282,121.84,30.14,4,295.79,22 / 22,969112,2019-11-06 12:02:02:993,2.3865,0.8515,9.4989,0.0187,-0.0537,9.8065,-0.0377,0.1801,-0.1656,4.44,-56.94,2.38,126.98,-85.15,-176.02
127,52.88257,-1.721282,121.84,30.14,4,295.79,22 / 22,969212,2019-11-06 12:02:03:093,-1.2662,2.2697,10.7661,0.0306,-0.0063,9.8066,0.0938,-0.1967,0.2006,6.13,-56.81,5.31,91.59,-85.32,-175.23
128,52.88257,-1.721282,121.84,30.14,4,295.79,22 / 22,969312,2019-11-06 12:02:03:193,2.5746,1.756,10.9765,-0.0346,-0.0184,9.8065,0.0588,0.2854,-0.2707,6.38,-59.69,4.0,104.89,-85.2,-173.81
129,52.88257,-1.721282,121.84,30.14,4,295.79,22 / 22,969412,2019-11-06 12:02:03:293,-3.0731,-3.3927,10.4425,0.0083,-0.0284,9.8066,-0.1411,0.01,-0.0509,5.94,-62.87,3.75,105.26,-85.52,-172.32
130,52.88257,-1.721282,121.84,30.14,4,295.79,19 / 20,969521,2019-11-06 12:02:03:402,-1.5294,3.1068,9.9102,-0.0263,-0.0138,9.8065,-0.0928,0.3445,-0.1279,2.75,-52.62,18.5,18.88,-85.91,-173.78
131,52.88257,-1.721282,121.84,30.14,4,295.79,19 / 20,969612,2019-11-06 12:02:03:493,2.676,2.6518,9.9259,-0.0172,0.0277,9.8065,-0.027,-0.0383,-0.1462,-1.37,-36.81,13.56,2.67,-86.29,-173.7
132,52.88257,-1.721282,121.84,30.14,4,295.79,19 / 20,969711,2019-11-06 12:02:03:592,-5.0309,-4.6401,9.9122,0.0743,0.0718,9.8061,-0.1873,0.8968,-0.518,-2.19,-35.44,9.38,345.84,-86.63,-178.47
133,52.88257,-1.721282,121.84,30.14,4,295.79,19 / 20,969811,2019-11-06 12:02:03:692,7.5893,1.0736,7.7203,-0.0683,0.0284,9.8064,-0.1113,0.7398,-0.4593,-2.0,-36.25,7.25,356.55,-87.02,-166.62
134,52.88257,-1.721282,121.84,30.14,4,295.79,19 / 20,969911,2019-11-06 12:02:03:792,-5.1303,-0.3539,11.2274,0.0386,0.0293,9.8064,-0.0244,0.141,-0.1506,-1.87,-36.87,7.5,355.81,-87.34,-169.28
135,52.88257,-1.721282,121.84,30.14,4,295.79,19 / 20,970012,2019-11-06 12:02:03:893,-3.2759,-3.5234,10.3857,-0.0902,-0.0479,9.8061,-0.25,0.7658,-0.3492,-1.0,-36.69,7.63,18.24,-87.18,-158.7
136,52.88257,-1.721282,121.84,30.14,4,295.79,19 / 20,970112,2019-11-06 12:02:03:993,-3.7603,-3.0397,9.9789,-0.0849,-0.0163,9.8062,-0.1363,-0.3544,0.2895,-1.87,-36.81,7.63,12.26,-87.51,-156.09
137,52.88257,-1.721282,121.84,30.14,4,295.79,19 / 20,970212,2019-11-06 12:02:04:093,-0.8767,-0.6621,10.25,-0.0943,0.0064,9.8062,0.0622,0.3943,-0.2968,-2.37,-37.37,6.69,17.62,-87.85,-149.76
138,52.88257,-1.721282,121.84,30.14,4,295.79,19 / 20,970312,2019-11-06 12:02:04:193,5.2355,2.8149,9.0494,-0.0752,-0.014,9.8063,0.0921,-0.5855,0.3196,-1.81,-37.06,6.19,12.89,-88.01,-151.29
139,52.88257,-1.721282,121.84,30.14,4,295.79,19 / 20,970412,2019-11-06 12:02:04:293,-0.6871,1.0148,10.5796,-0.0276,0.0007,9.8066,0.0517,-0.1521,0.0699,-1.69,-36.44,6.19,7.15,-88.14,-155.74
140,52.88257,-1.721282,121.84,30.14,4,295.79,22 / 22,970514,2019-11-06 12:02:04:395,5.1011,2.0896,10.9074,-0.0763,-0.0293,9.8063,-0.011,-0.584,0.4011,-2.5,-36.87,6.75,24.07,-88.03,-144.09
141,52.88257,-1.721282,121.84,30.14,4,295.79,22 / 22,970613,2019-11-06 12:02:04:494,-6.0549,1.4611,9.8117,0.0119,0.015,9.8065,-0.1538,-0.2641,0.319,-1.87,-36.75,6.44,27.27,-88.35,-138.72
142,52.88257,-1.721282,121.84,30.14,4,295.79,22 / 22,970712,2019-11-06 12:02:04:593,0.7948,-2.446,11.1697,-0.1034,0.02,9.806,-0.1904,-0.2818,0.216,-1.31,-37.56,6.88,59.83,-88.29,-120.03
143,52.88257,-1.721282,121.84,30.14,4,295.79,22 / 22,970812,2019-11-06 12:02:04:693,-1.8149,-1.7373,10.4641,0.0349,0.0743,9.8062,0.0707,-0.3903,0.1189,-2.69,-36.94,7.06,55.3,-88.74,-106.55
144,52.88257,-1.721282,121.84,30.14,4,295.79,22 / 22,970912,2019-11-06 12:02:04:793,-1.4127,-1.3489,8.8618,0.0512,0.036,9.8064,0.0807,0.3386,-0.3453,-1.75,-37.44,6.38,63.68,-88.81,-104.12
145,52.88257,-1.721282,121.84,30.14,4,295.79,22 / 22,971012,2019-11-06 12:02:04:893,5.015,0.5066,9.8688,0.0547,-0.0104,9.8064,-0.0301,-0.1087,0.1453,-1.5,-36.87,6.69,75.31,-88.51,-104.11
146,52.88257,-1.721282,121.84,30.14,4,295.79,22 / 22,971112,2019-11-06 12:02:04:993,1.0504,-0.262,11.8002,0.0645,-0.003,9.8063,-0.0778,0.1302,-0.0134,-2.31,-37.06,7.31,60.44,-88.69,-109.41
147,52.88257,-1.721282,121.84,30.14,4,295.79,22 / 22,971212,2019-11-06 12:02:05:093,0.0675,0.723,10.645,0.0191,-0.0109,9.8065,0.0462,-0.0227,0.1023,-1.37,-36.94,6.56,62.02,-88.57,-116.49
148,52.88257,-1.721282,121.84,30.14,4,295.79,22 / 22,971312,2019-11-06 12:02:05:193,0.8154,-1.1466,11.2029,-0.0172,0.0216,9.8066,-0.0673,0.048,0.0384,-1.75,-37.31,6.63,52.82,-88.4,-117.75
149,52.88257,-1.721282,121.84,30.14,4,295.79,22 / 22,971412,2019-11-06 12:02:05:293,0.3198,-0.2415,8.6181,-0.0222,0.0303,9.8065,0.1134,-0.0883,-0.0667,-1.37,-37.19,7.56,58.22,-88.38,-121.0
150,52.88257,-1.721282,121.84,30.14,4,295.79,20 / 21,971512,2019-11-06 12:02:05:393,0.2769,-0.6403,10.2986,0.039,-0.014,9.8065,0.188,0.0175,-0.1322,-1.62,-36.81,6.94,53.75,-88.37,-117.01
151,52.88257,-1.721282,121.84,30.14,4,295.79,20 / 21,971612,2019-11-06 12:02:05:493,0.8853,0.6129,8.1119,0.017,-0.0553,9.8064,-0.2297,0.0885,0.0289,-1.44,-36.87,6.63,58.72,-88.26,-120.95
152,52.88257,-1.721282,121.84,30.14,4,295.79,20 / 21,971712,2019-11-06 12:02:05:593,0.7031,-1.3109,11.3143,0.0012,0.0078,9.8066,-0.1814,0.0877,0.1333,-1.31,-37.0,6.69,64.65,-88.31,-115.22
153,52.88257,-1.721282,121.84,30.14,4,295.79,20 / 21,971811,2019-11-06 12:02:05:692,3.6091,-0.1986,11.279,-0.0603,-0.02,9.8064,0.0638,0.4768,-0.2613,-1.19,-37.62,7.19,58.99,-88.02,-122.07
154,52.88257,-1.721282,121.84,30.14,4,295.79,20 / 21,971911,2019-11-06 12:02:05:792,2.2483,0.1586,8.6967,0.0782,-0.0059,9.8063,0.1467,-0.4317,0.0807,-1.31,-37.19,6.5,39.83,-88.35,-137.58
155,52.88257,-1.721282,121.84,30.14,4,295.79,20 / 21,972012,2019-11-06 12:02:05:893,-2.5517,-0.4496,10.8414,0.0321,0.0392,9.8065,0.0169,-0.1863,0.1554,-1.37,-37.06,6.81,46.05,-88.3,-132.24
156,52.88257,-1.721282,121.84,30.14,4,295.79,20 / 21,972112,2019-11-06 12:02:05:993,3.1036,1.3814,11.0478,-0.0478,0.012,9.8065,0.0027,-0.4228,0.3594,-1.5,-36.5,6.81,46.5,-88.01,-132.75
157,52.88257,-1.721282,121.84,30.14,4,295.79,20 / 21,972212,2019-11-06 12:02:06:093,-3.4562,-1.2537,8.9842,0.0538,-0.0187,9.8065,0.0461,-0.3158,0.2588,-1.44,-37.0,6.56,35.55,-87.94,-142.61
158,52.88257,-1.721282,121.84,30.14,4,295.79,20 / 21,972312,2019-11-06 12:02:06:193,0.48,0.6378,11.3563,-0.0241,-0.0405,9.8065,-0.033,-0.093,0.137,-1.19,-36.62,6.81,43.51,-87.79,-136.37
159,52.88257,-1.721282,121.84,30.14,4,295.79,20 / 21,972412,2019-11-06 12:02:06:293,-0.4028,-0.7258,11.1587,0.0077,-0.0162,9.8066,0.1558,-0.1119,-0.0327,-1.44,-37.19,6.81,44.61,-87.5,-136.51
160,52.88257,-1.721282,121.84,30.14,4,295.79,20 / 21,972512,2019-11-06 12:02:06:393,0.5146,-0.2072,10.8982,0.0157,-0.0175,9.8066,0.1318,0.0194,-0.1304,-1.19,-36.94,6.56,36.46,-87.49,-143.26
161,52.88257,-1.721282,121.84,30.14,4,295.79,20 / 21,972611,2019-11-06 12:02:06:492,1.9373,1.3662,9.5384,-0.0103,0.0068,9.8065,-0.1412,0.0562,-0.0523,-1.12,-37.12,7.13,31.01,-87.41,-147.9
162,52.88257,-1.721282,121.84,30.14,4,295.79,20 / 21,972712,2019-11-06 12:02:06:593,0.5437,-1.3979,10.9912,0.0131,0.0294,9.8065,-0.1609,0.231,-0.0042,-1.44,-36.25,7.0,25.42,-87.49,-151.96
163,52.88257,-1.721282,121.84,30.14,4,295.79,20 / 21,972812,2019-11-06 12:02:06:693,-3.1083,2.0342,8.9864,0.0193,0.0132,9.8066,-0.0663,0.5698,-0.3469,-1.06,-36.62,6.88,27.03,-87.65,-150.45
164,52.88257,-1.721282,121.84,30.14,4,295.79,20 / 21,972912,2019-11-06 12:02:06:793,-4.4409,0.7389,9.051,0.1104,-0.0004,9.806,0.068,-0.2041,0.1148,-1.12,-37.0,6.94,39.07,-87.78,-140.17
165,52.88257,-1.721282,121.84,30.14,4,295.79,20 / 21,973012,2019-11-06 12:02:06:893,0.5729,-2.5476,11.2533,0.0495,0.0527,9.8064,0.0374,0.4207,-0.2791,-1.56,-36.31,6.25,23.18,-88.28,-142.26
166,52.88257,-1.721282,121.84,30.14,4,295.79,20 / 21,973112,2019-11-06 12:02:06:993,2.7802,2.0016,8.193,0.0395,0.0275,9.8065,0.1032,-0.3959,0.0693,-1.81,-36.12,7.06,34.83,-88.14,-134.5
167,52.88257,-1.721282,121.84,30.14,4,295.79,20 / 21,973212,2019-11-06 12:02:07:093,-0.9025,3.9279,9.8281,0.0361,0.034,9.8065,-0.0025,0.0676,0.0545,-1.87,-36.94,7.38,37.34,-88.13,-132.51
168,52.88257,-1.721282,121.84,30.14,4,295.79,20 / 21,973312,2019-11-06 12:02:07:193,5.3027,-1.6287,9.3569,0.0182,-0.0252,9.8066,0.0138,-0.3855,0.2885,-1.62,-36.06,6.44,26.72,-88.04,-139.88
169,52.88257,-1.721282,121.84,30.14,4,295.79,20 / 21,973412,2019-11-06 12:02:07:293,-1.4426,2.1233,10.3701,0.056,-0.0119,9.8065,0.2498,-0.3982,0.1296,-1.44,-36.5,7.0,36.25,-88.11,-141.33
170,52.88257,-1.721282,121.84,30.14,4,295.79,22 / 23,973512,2019-11-06 12:02:07:393,3.4604,1.7662,9.4232,-0.0541,-0.033,9.8064,0.1983,0.1142,-0.0834,-2.0,-36.37,6.81,31.92,-87.79,-137.93
171,52.88257,-1.721282,121.84,30.14,4,295.79,22 / 23,973612,2019-11-06 12:02:07:493,-0.2479,3.4232,10.0948,-0.0467,0.0198,9.8065,-0.1782,-0.0681,0.1859,-1.19,-36.37,7.13,40.3,-87.89,-138.54
172,52.88257,-1.721282,121.84,30.14,4,295.79,22 / 23,973712,2019-11-06 12:02:07:593,3.2157,-3.4396,9.8899,-0.0366,0.0467,9.8064,-0.1938,-0.2886,0.3061,-1.19,-36.75,7.38,46.35,-87.98,-133.22
173,52.88257,-1.721282,121.84,30.14,4,295.79,22 / 23,973812,2019-11-06 12:02:07:693,-0.6349,-2.9249,10.5725,0.0569,0.0142,9.8064,0.0471,-0.2747,0.1006,-1.62,-36.5,7.0,35.25,-88.27,-133.75
174,52.88257,-1.721282,121.84,30.14,4,295.79,22 / 23,973912,2019-11-06 12:02:07:793,2.0024,3.9686,9.5756,-0.005,-0.0026,9.8066,0.0418,-0.2498,0.0615,-1.19,-37.25,6.88,57.97,-88.5,-120.6
175,52.88257,-1.721282,121.84,30.14,4,295.79,22 / 23,974012,2019-11-06 12:02:07:893,-1.0983,-1.51,10.9387,0.0287,0.0435,9.8065,-0.0449,-0.2824,0.2149,-0.69,-36.5,7.06,68.13,-88.8,-109.42
176,52.88257,-1.721282,121.84,30.14,4,295.79,22 / 23,974112,2019-11-06 12:02:07:993,8.1263,-0.321,9.4343,-0.0888,0.0221,9.8062,-0.158,-0.278,0.2159,-1.06,-36.81,6.69,86.13,-88.45,-93.85
177,52.88257,-1.721282,121.84,30.14,4,295.79,22 / 23,974212,2019-11-06 12:02:08:093,-0.3477,1.0854,7.5782,-0.0117,-0.0308,9.8066,-0.0163,-0.7138,0.4844,-1.87,-35.69,6.88,77.84,-88.6,-93.01
178,52.88257,-1.721282,121.84,30.14,4,295.79,22 / 23,974312,2019-11-06 12:02:08:193,-4.167,0.0252,11.2014,-0.0626,-0.0211,9.8063,-0.0205,0.5957,-0.1965,-1.37,-36.44,6.94,93.46,-88.33,-86.93
179,52.88257,-1.721282,121.84,30.14,4,295.79,22 / 23,974412,2019-11-06 12:02:08:293,-0.3991,-1.2791,9.18,-0.0803,-0.0248,9.8063,0.1624,0.2452,-0.286,-1.62,-37.31,7.75,90.03,-88.06,-84.68
180,52.883698,-1.724929,121.75,31.17,3,295.67,20 / 21,974512,2019-11-06 12:02:08:393,-2.9998,2.0439,12.1013,0.09,-0.0218,9.8062,0.2788,0.3543,-0.31,-2.19,-38.25,6.75,66.34,-88.63,-104.28
181,52.883698,-1.724929,121.75,31.17,3,295.67,20 / 21,974612,2019-11-06 12:02:08:493,3.9023,-1.4278,8.9326,-0.0144,-0.0739,9.8063,-0.1599,0.45,-0.1324,-1.44,-37.56,6.38,74.66,-88.46,-105.18
182,52.883698,-1.724929,121.75,31.17,3,295.67,20 / 21,974712,2019-11-06 12:02:08:593,0.1369,1.9153,10.2551,0.0039,-0.0147,9.8066,-0.1736,0.1453,-0.0851,-1.87,-36.94,6.06,53.67,-88.27,-116.09
183,52.883698,-1.724929,121.75,31.17,3,295.67,20 / 21,974812,2019-11-06 12:02:08:693,3.7607,-2.4779,9.968,-0.0336,0.0344,9.8065,0.1119,0.3059,-0.2306,-0.81,-36.75,6.88,67.22,-88.25,-113.15
184,52.883698,-1.724929,121.75,31.17,3,295.67,20 / 21,974912,2019-11-06 12:02:08:793,-2.3319,2.1876,8.2992,0.0003,0.0132,9.8066,0.1068,0.0828,-0.0997,-1.62,-36.44,7.31,50.14,-88.43,-119.89
185,52.883698,-1.724929,121.75,31.17,3,295.67,20 / 21,975011,2019-11-06 12:02:08:892,0.2814,-0.3979,11.6737,-0.0601,-0.0053,9.8064,0.1488,0.3543,-0.2379,-1.25,-36.62,7.0,52.35,-88.08,-127.53
186,52.883698,-1.724929,121.75,31.17,3,295.67,20 / 21,975112,2019-11-06 12:02:08:993,-4.6716,-1.1609,12.5032,0.0163,-0.0587,9.8064,0.0521,0.0349,-0.0137,-1.5,-36.87,7.44,39.7,-88.02,-138.83
187,52.883698,-1.724929,121.75,31.17,3,295.67,20 / 21,975212,2019-11-06 12:02:09:093,1.4132,0.2756,9.2773,-0.0203,-0.0434,9.8064,-0.191,0.8632,-0.2968,-1.37,-36.75,7.56,35.37,-87.82,-143.31
188,52.883698,-1.724929,121.75,31.17,3,295.67,20 / 21,975312,2019-11-06 12:02:09:193,9.4428,1.2838,10.0343,0.1153,0.0491,9.8058,-0.1602,-0.7384,0.493,-2.06,-37.0,7.44,30.0,-87.33,-140.89
189,52.883698,-1.724929,121.75,31.17,3,295.67,20 / 21,975412,2019-11-06 12:02:09:293,2.936,1.0836,10.3696,0.1529,-0.0068,9.8054,0.1221,0.2187,-0.0919,-1.81,-36.56,7.13,9.81,-87.79,-156.16
190,52.883698,-1.724929,121.75,31.17,3,295.67,21 / 21,975512,2019-11-06 12:02:09:393,8.5138,0.3251,7.5279,0.0614,-0.0327,9.8064,0.0269,1.0248,-0.62,-1.44,-36.75,7.63,23.14,-87.64,-154.01
191,52.883698,-1.724929,121.75,31.17,3,295.67,21 / 21,975612,2019-11-06 12:02:09:493,-6.0054,1.1427,11.4122,0.1356,0.02,9.8057,0.3313,-0.6416,0.2889,-1.37,-36.69,7.25,20.72,-87.73,-155.38
192,52.883698,-1.724929,121.75,31.17,3,295.67,21 / 21,975712,2019-11-06 12:02:09:593,7.7766,4.3388,9.9693,-0.0677,-0.051,9.8063,0.3184,-0.8022,0.4,-1.81,-36.87,6.81,19.55,-86.9,-149.81
193,52.883698,-1.724929,121.75,31.17,3,295.67,21 / 21,975812,2019-11-06 12:02:09:693,-6.2098,-1.751,10.4178,0.0397,0.0182,9.8065,0.0409,-0.9695,0.6844,-0.94,-36.87,7.19,20.07,-86.86,-157.47
194,52.883698,-1.724929,121.75,31.17,3,295.67,21 / 21,975912,2019-11-06 12:02:09:793,-2.2904,-0.2629,10.0173,-0.1358,-0.0009,9.8056,-0.191,-0.1164,0.2099,-1.19,-36.87,7.06,9.66,-86.84,-165.0
195,52.883698,-1.724929,121.75,31.17,3,295.67,21 / 21,976012,2019-11-06 12:02:09:893,7.3193,0.6719,8.823,-0.0086,-0.028,9.8066,0.0153,-0.7923,0.4602,-1.56,-36.5,7.56,10.55,-86.9,-157.91
196,52.883698,-1.724929,121.75,31.17,3,295.67,21 / 21,976112,2019-11-06 12:02:09:993,4.8875,1.7478,7.7669,-0.0775,-0.0465,9.8062,0.0524,0.3533,-0.1827,-1.06,-37.87,6.88,20.46,-87.0,-157.07
197,52.883698,-1.724929,121.75,31.17,3,295.67,21 / 21,976212,2019-11-06 12:02:10:093,3.7828,1.6408,10.1991,-0.0686,-0.0132,9.8064,0.086,-0.365,0.1088,-1.31,-38.5,6.56,19.9,-87.19,-157.14
198,52.883698,-1.724929,121.75,31.17,3,295.67,21 / 21,976312,2019-11-06 12:02:10:193,-6.9456,-0.7941,10.2997,-0.0681,-0.0019,9.8063,-0.1373,0.9631,-0.4542,-1.94,-39.06,8.38,11.19,-87.25,-157.31
199,52.883698,-1.724929,121.75,31.17,3,295.67,21 / 21,976412,2019-11-06 12:02:10:293,4.2855,0.3654,8.3278,-0.1385,-0.0378,9.8055,-0.1476,0.3554,-0.1405,-1.81,-38.0,8.19,20.27,-87.33,-149.98
200,52.883698,-1.724929,121.75,31.17,3,295.67,21 / 22,976512,2019-11-06 12:02:10:393,-7.637,0.1706,12.626,-0.0058,0.0077,9.8066,0.0079,-0.4982,0.4532,-2.06,-37.19,7.69,24.56,-87.14,-146.77
201,52.883698,-1.724929,121.75,31.17,3,295.67,21 / 22,976612,2019-11-06 12:02:10:493,0.3504,1.3728,9.9716,-0.0629,-0.045,9.8063,-0.1362,0.7018,-0.2711,-2.0,-36.94,7.94,24.72,-86.68,-147.52
202,52.883698,-1.724929,121.75,31.17,3,295.67,21 / 22,976712,2019-11-06 12:02:10:593,-4.3205,0.9912,8.4522,0.085,0.0353,9.8062,-0.2048,0.0999,-0.0188,-1.0,-37.44,7.69,18.47,-87.05,-158.72
203,52.883698,-1.724929,121.75,31.17,3,295.67,21 / 22,976812,2019-11-06 12:02:10:693,-0.0383,0.5434,8.0229,0.05,-0.0087,9.8065,0.0974,0.3934,-0.285,-1.56,-36.5,7.5,9.09,-87.12,-158.87
204,52.883698,-1.724929,121.75,31.17,3,295.67,21 / 22,976912,2019-11-06 12:02:10:793,5.0705,1.8233,8.6812,0.0655,-0.0345,9.8063,0.1952,-0.3746,0.2182,-0.94,-36.44,7.06,8.87,-87.23,-165.19
205,52.883698,-1.724929,121.75,31.17,3,295.67,21 / 22,977012,2019-11-06 12:02:10:893,-0.2083,-0.2276,11.5432,0.0407,0.0154,9.8065,0.0915,-0.1178,0.0961,-1.56,-36.94,6.69,0.91,-87.25,-163.37
206,52.883698,-1.724929,121.75,31.17,3,295.67,21 / 22,977112,2019-11-06 12:02:10:993,3.6464,4.1935,10.8417,-0.0248,-0.0114,9.8066,0.0888,-0.441,0.2442,-1.87,-37.19,7.19,5.12,-87.05,-160.28
207,52.883698,-1.724929,121.75,31.17,3,295.67,21 / 22,977212,2019-11-06 12:02:11:093,3.2245,1.1589,11.3978,0.0178,0.0189,9.8066,0.0675,-0.6092,0.291,-1.75,-37.56,7.38,7.68,-86.97,-158.5
208,52.883698,-1.724929,121.75,31.17,3,295.67,21 / 22,977312,2019-11-06 12:02:11:193,1.5628,1.9905,9.3806,-0.0421,-0.025,9.8065,0.0106,-0.6147,0.2825,-2.19,-37.56,7.69,10.14,-86.79,-158.45
209,52.883698,-1.724929,121.75,31.17,3,295.67,21 / 22,977412,2019-11-06 12:02:11:293,1.6172,4.2126,5.6064,-0.0418,-0.0523,9.8064,-0.2353,0.2752,0.0106,-3.69,-37.25,7.44,346.06,-86.77,-160.6
210,52.883698,-1.724929,121.75,31.17,3,295.67,21 / 21,977512,2019-11-06 12:02:11:393,-0.5955,0.2489,9.2635,-0.0214,0.0424,9.8064,0.0122,-0.146,0.0159,-5.12,-38.62,5.38,323.05,-87.02,-161.98
211,52.883698,-1.724929,121.75,31.17,3,295.67,21 / 21,977612,2019-11-06 12:02:11:493,4.0578,1.484,9.8425,0.0083,-0.0195,9.8065,0.0668,0.3866,-0.1877,-3.25,-42.44,7.13,352.31,-87.32,-162.5
212,52.883698,-1.724929,121.75,31.17,3,295.67,21 / 21,977712,2019-11-06 12:02:11:593,1.0658,2.7153,10.4674,0.048,0.0153,9.8065,0.0286,0.2842,-0.1483,-1.44,-46.81,3.63,3.41,-87.54,-164.22
213,52.883698,-1.724929,121.75,31.17,3,295.67,21 / 21,977812,2019-11-06 12:02:11:693,-0.4599,1.8286,9.9571,-0.0176,-0.0203,9.8065,0.239,0.0394,0.007,0.88,-49.31,8.69,36.81,-87.44,-157.88
214,52.883698,-1.724929,121.75,31.17,3,295.67,21 / 21,977912,2019-11-06 12:02:11:793,0.8052,2.2141,10.1479,0.0202,0.0029,9.8066,0.1626,-0.2069,0.086,2.75,-46.12,10.13,46.1,-87.57,-158.36
215,52.883698,-1.724929,121.75,31.17,3,295.67,21 / 21,978012,2019-11-06 12:02:11:893,-2.2183,1.0349,9.3028,0.0321,0.0411,9.8064,-0.0167,-0.1729,0.1974,0.94,-41.81,11.88,34.43,-87.65,-155.01
216,52.883698,-1.724929,121.75,31.17,3,295.67,21 / 21,978112,2019-11-06 12:02:11:993,1.2279,3.0033,6.923,-0.0332,0.0143,9.8065,-0.2302,0.2208,-0.0719,-1.69,-40.19,10.44,11.01,-87.89,-159.27
217,52.883698,-1.724929,121.75,31.17,3,295.67,21 / 21,978212,2019-11-06 12:02:12:093,-4.287,2.171,9.2348,0.0171,0.0256,9.8066,-0.016,-0.4396,0.1951,-3.0,-38.81,7.94,0.2,-87.99,-159.27
218,52.883698,-1.724929,121.75,31.17,3,295.67,21 / 21,978312,2019-11-06 12:02:12:193,3.2485,0.5381,9.4122,-0.0609,-0.0297,9.8064,0.101,-0.046,0.1323,-0.69,-38.31,8.88,20.28,-87.67,-156.78
219,52.883698,-1.724929,121.75,31.17,3,295.67,21 / 21,978412,2019-11-06 12:02:12:293,2.4729,-1.0842,10.4043,-0.0004,0.0061,9.8066,-0.0655,-0.3453,0.1735,0.81,-39.06,5.88,34.36,-87.74,-163.33
220,52.883698,-1.724929,121.75,31.17,3,295.67,20 / 21,978512,2019-11-06 12:02:12:393,-1.6028,0.5762,11.8812,-0.0482,0.001,9.8064,0.181,-0.2624,0.1831,-0.69,-41.56,6.75,20.17,-87.54,-156.76
221,52.883698,-1.724929,121.75,31.17,3,295.67,20 / 21,978612,2019-11-06 12:02:12:493,-0.4087,1.7891,9.1288,-0.0014,-0.0339,9.8065,-0.1047,0.0535,0.0473,-1.94,-43.19,6.63,6.05,-87.4,-159.63
222,52.883698,-1.724929,121.75,31.17,3,295.67,20 / 21,978712,2019-11-06 12:02:12:593,-1.2896,0.7976,9.8604,0.0003,0.008,9.8066,-0.2329,0.2324,-0.1254,-1.37,-44.44,7.88,21.4,-87.5,-156.47
223,52.883698,-1.724929,121.75,31.17,3,295.67,20 / 21,978812,2019-11-06 12:02:12:693,-0.5438,-0.3166,9.8022,-0.0092,-0.0202,9.8065,0.0171,-0.2091,0.0713,-1.37,-42.87,8.63,24.19,-87.79,-153.78
224,52.883698,-1.724929,121.75,31.17,3,295.67,20 / 21,978912,2019-11-06 12:02:12:793,0.8432,1.2012,9.8841,0.0298,-0.0137,9.8065,-0.0696,0.0729,-0.0512,-1.69,-42.19,7.81,11.17,-87.88,-156.89
225,52.883698,-1.724929,121.75,31.17,3,295.67,20 / 21,979012,2019-11-06 12:02:12:893,1.0238,1.8283,10.6562,-0.031,-0.0182,9.8065,0.0026,0.1703,-0.0667,-2.62,-42.81,8.25,5.88,-87.83,-154.69
226,52.883698,-1.724929,121.75,31.17,3,295.67,20 / 21,979112,2019-11-06 12:02:12:993,0.7757,0.4597,10.6459,-0.0255,-0.0077,9.8066,-0.0063,0.0059,0.0944,-1.81,-42.06,8.63,16.51,-87.69,-153.96
227,52.883698,-1.724929,121.75,31.17,3,295.67,20 / 21,979212,2019-11-06 12:02:13:093,0.0394,0.8889,9.2426,-0.0403,0.0165,9.8065,0.0143,0.1284,-0.1183,-3.19,-42.37,9.0,4.52,-87.5,-157.92
228,52.883698,-1.724929,121.75,31.17,3,295.67,20 / 21,979312,2019-11-06 12:02:13:193,-2.6863,3.2758,8.0483,-0.0126,0.0216,9.8065,0.0135,-0.0903,0.1054,-0.81,-43.0,7.88,26.58,-87.62,-152.01
229,52.883698,-1.724929,121.75,31.17,3,295.67,20 / 21,979412,2019-11-06 12:02:13:293,-1.8088,0.9351,9.6865,-0.0447,0.034,9.8064,0.0867,0.1062,-0.06,-2.62,-43.06,8.06,10.51,-87.55,-151.19
230,52.883698,-1.724929,121.75,31.17,3,295.67,21 / 22,979511,2019-11-06 12:02:13:392,1.715,1.9337,8.7288,-0.0312,-0.0185,9.8065,0.0353,-0.0524,0.0152,-1.5,-42.75,8.06,26.47,-87.61,-152.12
231,52.883698,-1.724929,121.75,31.17,3,295.67,21 / 22,979612,2019-11-06 12:02:13:493,2.5493,1.5669,8.7169,-0.0043,-0.0223,9.8066,-0.1729,0.299,-0.0283,-1.06,-44.0,7.38,22.24,-87.71,-155.03
232,52.883698,-1.724929,121.75,31.17,3,295.67,21 / 22,979712,2019-11-06 12:02:13:593,1.9463,1.3797,9.483,-0.041,-0.0117,9.8065,0.127,-0.2517,0.1512,-1.75,-44.44,8.06,17.62,-87.74,-152.01
233,52.883698,-1.724929,121.75,31.17,3,295.67,21 / 22,979812,2019-11-06 12:02:13:693,-1.6351,1.8961,10.571,-0.0191,-0.004,9.8066,0.0961,0.0539,-0.1092,-0.31,-44.12,10.63,23.39,-87.7,-160.28
234,52.883698,-1.724929,121.75,31.17,3,295.67,21 / 22,979912,2019-11-06 12:02:13:793,0.2457,1.7919,9.3572,-0.0293,-0.0063,9.8065,0.163,-0.3144,0.1542,0.5,-41.94,11.19,28.79,-87.52,-160.97
235,52.883698,-1.724929,121.75,31.17,3,295.67,21 / 22,980012,2019-11-06 12:02:13:893,-2.4335,-0.8709,10.2996,-0.0028,-0.0105,9.8066,0.0021,-0.1717,0.0725,-1.37,-38.06,10.13,17.74,-87.53,-159.42
236,52.883698,-1.724929,121.75,31.17,3,295.67,21 / 22,980112,2019-11-06 12:02:13:993,-0.2475,-0.0619,9.9687,-0.0103,-0.0203,9.8065,-0.078,-0.1142,0.0384,-3.44,-39.5,8.19,1.44,-87.58,-158.28
237,52.883698,-1.724929,121.75,31.17,3,295.67,21 / 22,980212,2019-11-06 12:02:14:093,-1.7142,-0.9977,10.1886,0.0323,0.0354,9.8065,0.1531,-0.2786,0.1291,-1.12,-42.44,8.44,20.18,-87.74,-156.77
238,52.883698,-1.724929,121.75,31.17,3,295.67,21 / 22,980312,2019-11-06 12:02:14:193,-0.2804,2.1592,8.6148,0.0174,0.0182,9.8065,0.0145,0.0915,-0.1547,-2.87,-39.12,9.44,3.6,-87.72,-158.55
239,52.883698,-1.724929,121.75,31.17,3,295.67,21 / 22,980412,2019-11-06 12:02:14:293,4.1167,2.7086,9.2177,0.0514,0.0358,9.8064,0.1249,-0.2188,0.0968,-1.06,-38.44,8.31,19.16,-87.8,-157.13
240,52.883698,-1.724929,121.75,31.17,3,295.67,19 / 20,980512,2019-11-06 12:02:14:393,-1.3183,-1.0966,9.2997,0.058,0.0129,9.8064,0.0065,0.1103,-0.0381,-1.06,-42.31,3.69,0.7,-87.99,-165.51
241,52.883698,-1.724929,121.75,31.17,3,295.67,19 / 20,980612,2019-11-06 12:02:14:493,5.7327,1.9661,9.213,0.0025,0.013,9.8066,0.0807,-0.5417,0.357,-0.12,-42.94,11.0,17.34,-88.0,-165.0
242,52.883698,-1.724929,121.75,31.17,3,295.67,19 / 20,980712,2019-11-06 12:02:14:593,-0.7608,1.4067,9.8149,0.0469,0.0125,9.8065,0.0705,-0.3453,0.1341,-2.75,-38.62,10.69,356.02,-87.99,-168.24
243,52.883698,-1.724929,121.75,31.17,3,295.67,19 / 20,980812,2019-11-06 12:02:14:693,2.8173,3.0996,10.0793,-0.0464,-0.0143,9.8065,0.0772,-0.2882,0.2511,-3.31,-40.44,6.25,342.77,-87.91,-166.96
244,52.883698,-1.724929,121.75,31.17,3,295.67,19 / 20,980912,2019-11-06 12:02:14:793,-2.0828,0.6682,9.7034,0.0198,0.0084,9.8066,-0.0376,-0.5191,0.1875,-1.19,-43.56,8.13,8.84,-87.91,-165.79
245,52.883698,-1.724929,121.75,31.17,3,295.67,19 / 20,981012,2019-11-06 12:02:14:893,-2.2968,2.4583,9.4903,-0.0645,0.0209,9.8064,0.0039,0.2057,-0.063,1.88,-41.56,10.88,38.61,-87.94,-156.55
246,52.883698,-1.724929,121.75,31.17,3,295.67,19 / 20,981112,2019-11-06 12:02:14:993,-0.5581,-0.3746,9.7244,-0.0219,0.0136,9.8066,0.0518,-0.1947,0.0339,0.81,-41.0,9.25,26.55,-88.03,-163.79
247,52.883698,-1.724929,121.75,31.17,3,295.67,19 / 20,981212,2019-11-06 12:02:15:093,-1.5567,-0.4198,9.7043,-0.0066,0.0068,9.8066,-0.0324,-0.293,0.1962,-1.06,-41.75,6.81,11.73,-88.13,-162.41
248,52.883698,-1.724929,121.75,31.17,3,295.67,19 / 20,981312,2019-11-06 12:02:15:193,3.54,1.1582,9.5953,-0.0439,0.0024,9.8065,-0.0999,-0.0638,0.049,-2.31,-43.12,9.5,9.93,-88.09,-160.15
249,52.883698,-1.724929,121.75,31.17,3,295.67,19 / 20,981412,2019-11-06 12:02:15:293,0.0907,1.5828,10.0041,-0.0132,0.0192,9.8066,-0.0709,0.4171,-0.1366,-0.44,-42.06,11.25,15.21,-88.06,-166.74
250,52.883698,-1.724929,121.75,31.17,3,295.67,21 / 22,981512,2019-11-06 12:02:15:393,3.0036,-1.1599,10.7886,-0.0378,-0.0277,9.8065,0.1126,0.2682,-0.2013,0.44,-39.75,11.5,16.26,-88.04,-165.57
251,52.883698,-1.724929,121.75,31.17,3,295.67,21 / 22,981612,2019-11-06 12:02:15:493,-0.7796,0.5095,8.986,0.0341,0.0153,9.8065,-0.1342,0.0362,-0.0133,-2.94,-38.5,8.0,345.84,-88.1,-171.53
252,52.883698,-1.724929,121.75,31.17,3,295.67,21 / 22,981712,2019-11-06 12:02:15:593,2.0253,-0.4187,10.2181,-0.0346,0.0139,9.8066,-0.0566,0.1484,-0.0516,-2.12,-40.69,9.31,2.76,-88.18,-165.1
253,52.883698,-1.724929,121.75,31.17,3,295.67,21 / 22,981811,2019-11-06 12:02:15:692,-0.7865,1.8774,9.3759,0.0019,0.0132,9.8066,-0.054,0.1389,0.0235,-1.12,-41.19,10.31,7.69,-88.27,-167.55
254,52.883698,-1.724929,121.75,31.17,3,295.67,21 / 22,981911,2019-11-06 12:02:15:792,2.9136,1.3155,9.3117,-0.0011,-0.0157,9.8066,0.0127,0.1089,-0.1635,-1.06,-40.44,9.88,8.34,-88.14,-167.03
255,52.883698,-1.724929,121.75,31.17,3,295.67,21 / 22,982012,2019-11-06 12:02:15:893,-0.0347,-2.5074,11.0209,0.0319,-0.0012,9.8065,-0.0615,0.2696,-0.1052,-1.44,-39.0,10.44,9.38,-88.16,-166.07
256,52.883698,-1.724929,121.75,31.17,3,295.67,21 / 22,982112,2019-11-06 12:02:15:993,2.9268,0.1083,9.7429,-0.0037,-0.0265,9.8066,-0.0685,0.3708,-0.1515,-1.37,-40.06,9.31,6.12,-88.13,-168.43
257,52.883698,-1.724929,121.75,31.17,3,295.67,21 / 22,982212,2019-11-06 12:02:16:093,-2.3834,-0.8287,10.3879,0.0344,0.0218,9.8066,-0.1015,0.247,-0.053,-0.31,-39.56,9.44,11.78,-88.2,-169.86
258,52.883698,-1.724929,121.75,31.17,3,295.67,21 / 22,982312,2019-11-06 12:02:16:193,-0.344,-0.7022,9.0773,0.0112,-0.0041,9.8066,-0.1858,0.3114,-0.1747,-0.37,-40.06,9.88,15.35,-88.23,-166.53
259,52.883698,-1.724929,121.75,31.17,3,295.67,21 / 22,982412,2019-11-06 12:02:16:293,4.2286,-0.4773,10.0473,0.0432,-0.0063,9.8065,0.0477,0.3909,-0.2973,-0.06,-40.69,8.88,0.42,-88.36,-179.63
260,52.883698,-1.724929,121.75,31.17,3,295.67,23 / 23,982512,2019-11-06 12:02:16:393,-0.7311,-2.0277,10.9616,0.0725,0.0001,9.8065,0.1142,0.2511,-0.3044,0.94,-40.19,10.31,6.23,-88.37,179.81
261,52.883698,-1.724929,121.75,31.17,3,295.67,23 / 23,982612,2019-11-06 12:02:16:493,2.971,-2.7941,9.5047,0.0372,0.0096,9.8065,-0.0131,-0.4013,0.1486,1.44,-38.62,10.0,13.29,-88.13,-174.1
262,52.883698,-1.724929,121.75,31.17,3,295.67,23 / 23,982712,2019-11-06 12:02:16:593,-0.4854,0.9428,9.0581,0.0434,0.033,9.8065,-0.038,0.0358,0.0786,-2.31,-38.44,9.88,345.11,-88.38,177.97
263,52.883698,-1.724929,121.75,31.17,3,295.67,23 / 23,982812,2019-11-06 12:02:16:693,3.4924,-1.8678,10.9653,0.0038,0.0195,9.8065,0.0076,0.3176,-0.2568,-0.31,-40.0,9.25,359.3,-88.55,179.38
264,52.883698,-1.724929,121.75,31.17,3,295.67,23 / 23,982912,2019-11-06 12:02:16:793,-1.8185,0.6003,10.069,0.0487,-0.0354,9.8064,0.1162,-0.1359,0.1682,1.13,-39.37,10.19,358.72,-88.3,173.16
265,52.883698,-1.724929,121.75,31.17,3,295.67,23 / 23,983012,2019-11-06 12:02:16:893,1.3277,0.3278,9.253,-0.0205,-0.0165,9.8066,0.018,-0.3118,0.1211,-1.25,-38.06,8.56,351.88,-88.18,179.3
266,52.883698,-1.724929,121.75,31.17,3,295.67,23 / 23,983112,2019-11-06 12:02:16:993,-4.6887,-0.9705,11.0022,-0.0005,0.0178,9.8066,0.0751,-0.3599,0.3039,-1.75,-40.56,7.88,346.17,-88.34,-177.81
267,52.883698,-1.724929,121.75,31.17,3,295.67,23 / 23,983212,2019-11-06 12:02:17:093,0.6873,1.7975,10.135,-0.0523,-0.0039,9.8064,-0.0989,-0.1404,0.2941,-0.56,-41.31,9.56,351.1,-88.39,177.83
268,52.883698,-1.724929,121.75,31.17,3,295.67,23 / 23,983312,2019-11-06 12:02:17:193,-2.4006,-0.0469,10.6013,0.0472,0.0017,9.8065,0.1414,-0.3474,0.1305,0.75,-39.44,12.5,3.6,-88.49,178.92
269,52.883698,-1.724929,121.75,31.17,3,295.67,23 / 23,983412,2019-11-06 12:02:17:293,3.6559,1.3937,8.8024,-0.0397,-0.0053,9.8065,-0.0911,0.0247,-0.0218,1.5,-37.37,12.94,7.62,-88.45,178.29
270,52.884514,-1.728495,122.53,26.99,4,286.17,21 / 22,983511,2019-11-06 12:02:17:392,2.8827,2.1149,10.0166,0.0108,0.0318,9.8065,0.0573,-0.5039,0.2147,0.25,-35.94,9.19,346.84,-88.54,168.17
271,52.884514,-1.728495,122.53,26.99,4,286.17,21 / 22,983612,2019-11-06 12:02:17:493,-2.4131,-0.0348,10.5889,-0.0477,-0.0254,9.8064,0.0593,-0.3826,0.2364,-1.37,-38.44,7.81,340.8,-88.45,170.33
272,52.884514,-1.728495,122.53,26.99,4,286.17,21 / 22,983712,2019-11-06 12:02:17:593,3.8021,-0.1186,10.2351,-0.0395,-0.0014,9.8065,0.0049,0.1967,-0.1322,1.88,-41.25,8.69,0.42,-88.59,167.85
273,52.884514,-1.728495,122.53,26.99,4,286.17,21 / 22,983812,2019-11-06 12:02:17:693,0.0669,1.0731,9.6708,0.0364,-0.0113,9.8065,0.1384,0.2013,-0.1666,2.0,-41.56,10.0,359.68,-88.69,168.4
274,52.884514,-1.728495,122.53,26.99,4,286.17,21 / 22,983912,2019-11-06 12:02:17:793,2.5363,-0.0361,7.5669,-0.0117,0.0274,9.8066,-0.1774,0.2917,-0.0962,2.13,-39.44,11.13,354.39,-88.68,164.54
275,52.884514,-1.728495,122.53,26.99,4,286.17,21 / 22,984012,2019-11-06 12:02:17:893,-1.6319,-0.5347,10.4163,0.0279,0.046,9.8065,-0.1957,0.14,-0.0503,-0.62,-39.31,10.63,334.74,-88.8,161.74
276,52.884514,-1.728495,122.53,26.99,4,286.17,21 / 22,984112,2019-11-06 12:02:17:993,-0.6676,2.0332,9.0629,0.002,-0.0107,9.8066,0.1081,0.1335,-0.1059,-1.44,-39.44,9.31,341.4,-88.81,169.38
277,52.884514,-1.728495,122.53,26.99,4,286.17,21 / 22,984211,2019-11-06 12:02:18:092,-0.2668,0.5395,8.9107,0.0112,-0.0265,9.8066,-0.0331,0.1407,-0.0206,-1.0,-39.56,9.63,343.52,-89.04,170.31
278,52.884514,-1.728495,122.53,26.99,4,286.17,21 / 22,984311,2019-11-06 12:02:18:192,3.7257,0.8485,10.392,-0.0118,-0.0082,9.8066,0.0175,0.4384,-0.3241,2.13,-40.69,11.5,7.73,-89.04,177.83
279,52.884514,-1.728495,122.53,26.99,4,286.17,21 / 22,984411,2019-11-06 12:02:18:292,2.2346,1.1144,10.507,0.0626,-0.003,9.8064,-0.0485,0.2388,-0.0584,4.38,-39.75,10.69,1.58,-89.05,161.51
280,52.884514,-1.728495,122.53,26.99,4,286.17,21 / 22,984512,2019-11-06 12:02:18:393,-1.1568,0.7271,9.9867,-0.0389,-0.0308,9.8065,0.0236,0.3233,-0.1258,5.44,-39.62,12.19,16.22,-88.84,172.6
281,52.884514,-1.728495,122.53,26.99,4,286.17,21 / 22,984612,2019-11-06 12:02:18:493,-0.1223,1.8347,10.296,0.0351,-0.0136,9.8065,0.0103,-0.2117,0.235,2.81,-37.56,12.63,355.59,-88.92,162.84
282,52.884514,-1.728495,122.53,26.99,4,286.17,21 / 22,984712,2019-11-06 12:02:18:593,-2.1203,1.3766,9.4763,0.0164,-0.0036,9.8066,0.068,0.2541,-0.1438,1.31,-36.87,10.44,358.66,-88.99,173.04
283,52.884514,-1.728495,122.53,26.99,4,286.17,21 / 22,984812,2019-11-06 12:02:18:693,-1.295,1.1761,9.7408,0.0386,0.0005,9.8065,-0.0581,-0.1626,0.0489,1.94,-38.25,10.19,354.69,-89.0,163.72
284,52.884514,-1.728495,122.53,26.99,4,286.17,21 / 22,984912,2019-11-06 12:02:18:793,-1.5922,0.85,10.1302,0.0961,-0.0084,9.8061,-0.0071,0.5944,-0.2433,2.75,-38.0,11.63,350.29,-89.07,156.74
285,52.884514,-1.728495,122.53,26.99,4,286.17,21 / 22,985012,2019-11-06 12:02:18:893,4.8998,1.155,9.7397,-0.0325,0.0074,9.8065,-0.0275,0.3629,-0.2718,2.88,-37.56,10.69,350.44,-89.05,155.71
286,52.884514,-1.728495,122.53,26.99,4,286.17,21 / 22,985112,2019-11-06 12:02:18:993,-0.7337,0.5849,9.2367,0.0469,-0.0132,9.8065,0.0156,0.3406,-0.2677,2.94,-38.25,11.38,345.01,-89.05,150.57
287,52.884514,-1.728495,122.53,26.99,4,286.17,21 / 22,985212,2019-11-06 12:02:19:093,4.7195,0.1119,9.1426,-0.0506,-0.0124,9.8065,-0.091,0.6057,-0.2132,2.0,-38.31,9.75,11.07,-89.19,179.18
288,52.884514,-1.728495,122.53,26.99,4,286.17,21 / 22,985312,2019-11-06 12:02:19:193,-2.5225,-1.2224,10.1372,-0.008,0.0026,9.8066,-0.0924,0.0343,-0.0221,0.0,-40.19,9.31,348.03,-89.33,168.65
289,52.884514,-1.728495,122.53,26.99,4,286.17,21 / 22,985412,2019-11-06 12:02:19:293,-3.5542,0.9229,9.1455,-0.0814,0.0098,9.8063,-0.0355,0.4063,-0.2344,1.25,-40.19,10.63,12.79,-89.42,-172.87
290,52.884514,-1.728495,122.53,26.99,4,286.17,22 / 22,985512,2019-11-06 12:02:19:393,0.6688,0.9804,9.6508,-0.0628,-0.0068,9.8063,-0.1916,0.5051,-0.2784,1.69,-40.06,11.06,13.19,-89.45,-177.56
291,52.884514,-1.728495,122.53,26.99,4,286.17,22 / 22,985612,2019-11-06 12:02:19:493,-2.0482,2.1757,9.239,-0.0197,0.0151,9.8065,0.0551,-0.0709,-0.0326,1.06,-39.94,11.94,339.96,-89.57,155.69
292,52.884514,-1.728495,122.53,26.99,4,286.17,22 / 22,985712,2019-11-06 12:02:19:593,3.6199,1.8995,9.3902,-0.0494,0.0185,9.8065,0.0834,-0.4258,0.3416,2.5,-37.81,13.13,17.56,-89.61,-175.77
293,52.884514,-1.728495,122.53,26.99,4,286.17,22 / 22,985812,2019-11-06 12:02:19:693,-1.3833,3.5406,9.8158,0.0394,0.0035,9.8065,-0.0138,-0.2826,0.1443,2.44,-35.75,11.19,315.06,-89.62,125.62
294,52.884514,-1.728495,122.53,26.99,4,286.17,22 / 22,985912,2019-11-06 12:02:19:793,2.6904,-0.3784,9.8151,-0.0074,0.0141,9.8066,0.0235,-0.1001,0.0443,1.19,-37.94,7.81,304.46,-89.66,118.67
295,52.884514,-1.728495,122.53,26.99,4,286.17,22 / 22,986012,2019-11-06 12:02:19:893,2.381,0.6228,10.6985,0.0432,-0.0143,9.8065,0.0999,-0.2029,0.0749,1.31,-39.75,9.94,311.43,-89.33,127.71
296,52.884514,-1.728495,122.53,26.99,4,286.17,22 / 22,986112,2019-11-06 12:02:19:993,2.9755,-0.1671,11.1001,0.0211,-0.044,9.8065,-0.0087,0.0371,-0.099,0.81,-40.62,10.75,328.14,-89.14,144.64
297,52.884514,-1.728495,122.53,26.99,4,286.17,22 / 22,986212,2019-11-06 12:02:20:093,-0.4913,0.1025,9.7485,0.0474,-0.0159,9.8064,0.0127,-0.271,0.2483,0.75,-40.81,11.5,353.19,-89.28,168.72
298,52.884514,-1.728495,122.53,26.99,4,286.17,22 / 22,986311,2019-11-06 12:02:20:192,-2.8124,1.3501,10.4389,0.0364,0.0324,9.8064,-0.0663,0.2652,-0.1479,3.69,-38.06,12.75,353.56,-89.24,156.7
299,52.884514,-1.728495,122.53,26.99,4,286.17,22 / 22,986412,2019-11-06 12:02:20:293,1.6686,0.3431,9.4006,0.0294,0.0034,9.8066,-0.0589,0.0059,0.0763,2.0,-39.37,9.0,338.44,-89.35,146.92
300,52.884514,-1.728495,122.53,26.99,4,286.17,23 / 23,986511,2019-11-06 12:02:20:392,-3.0924,0.8048,10.5075,0.0424,0.0354,9.8065,-0.1548,0.3531,-0.19,2.19,-41.81,8.88,320.25,-89.53,129.08
301,52.884514,-1.728495,122.53,26.99,4,286.17,23 / 23,986612,2019-11-06 12:02:20:493,1.208,0.0576,9.5732,-0.0116,-0.0024,9.8066,0.0289,0.166,-0.1469,2.25,-42.12,10.44,324.28,-89.55,134.04
302,52.884514,-1.728495,122.53,26.99,4,286.17,23 / 23,986712,2019-11-06 12:02:20:593,-1.5432,0.6098,9.7649,0.0388,-0.024,9.8065,0.0595,0.1804,-0.2176,3.0,-43.44,14.31,318.58,-89.29,127.9
303,52.884514,-1.728495,122.53,26.99,4,286.17,23 / 23,986812,2019-11-06 12:02:20:693,0.4724,0.8848,10.2341,-0.0124,-0.0127,9.8066,-0.1127,0.121,-0.008,4.31,-37.19,14.81,322.67,-89.34,128.69
304,52.884514,-1.728495,122.53,26.99,4,286.17,23 / 23,986912,2019-11-06 12:02:20:793,0.3444,-1.9905,10.547,-0.0068,-0.0053,9.8066,-0.1043,0.1584,0.1007,-0.31,-34.94,11.63,306.94,-89.49,128.14
305,52.884514,-1.728495,122.53,26.99,4,286.17,23 / 23,987012,2019-11-06 12:02:20:893,2.8302,-0.1927,9.8504,-0.0573,-0.0173,9.8064,0.0125,0.278,-0.3202,-0.19,-37.94,7.75,321.07,-89.5,142.57
306,52.884514,-1.728495,122.53,26.99,4,286.17,23 / 23,987112,2019-11-06 12:02:20:993,0.303,-0.3268,10.075,0.0011,-0.0059,9.8066,-0.0373,-0.1253,0.1134,1.38,-39.94,9.06,307.75,-89.3,123.86
307,52.884514,-1.728495,122.53,26.99,4,286.17,23 / 23,987213,2019-11-06 12:02:21:094,-2.7681,-0.411,10.4266,-0.0341,-0.0106,9.8065,-0.02,0.2801,-0.1435,1.5,-42.06,9.5,314.25,-89.42,124.65
308,52.884514,-1.728495,122.53,26.99,4,286.17,23 / 23,987312,2019-11-06 12:02:21:193,2.4868,-0.0398,10.0078,-0.0475,-0.0197,9.8064,-0.034,0.2436,-0.1766,1.94,-43.12,13.56,313.44,-89.29,126.88
309,52.884514,-1.728495,122.53,26.99,4,286.17,23 / 23,987412,2019-11-06 12:02:21:293,-0.6171,-1.2904,10.9307,-0.013,0.003,9.8066,0.051,-0.0742,0.0432,2.19,-39.87,12.56,311.71,-89.14,124.92
310,52.884514,-1.728495,122.53,26.99,4,286.17,23 / 23,987512,2019-11-06 12:02:21:393,0.2926,0.1954,8.8215,0.0102,-0.0104,9.8066,0.0072,-0.0485,0.0469,4.31,-39.56,14.56,320.35,-89.3,126.57
311,52.884514,-1.728495,122.53,26.99,4,286.17,23 / 23,987612,2019-11-06 12:02:21:493,-0.8912,2.1759,9.5512,-0.0029,-0.0182,9.8065,-0.0102,0.0587,0.0192,3.25,-37.87,13.19,314.18,-89.34,122.54
312,52.884514,-1.728495,122.53,26.99,4,286.17,23 / 23,987712,2019-11-06 12:02:21:593,0.7776,-0.8747,11.039,-0.0034,0.0002,9.8066,0.0459,-0.1081,-0.0522,3.63,-36.69,13.69,318.41,-89.19,123.83
313,52.884514,-1.728495,122.53,26.99,4,286.17,23 / 23,987812,2019-11-06 12:02:21:693,0.1568,-1.0611,9.0646,0.0235,-0.0165,9.8065,-0.0145,0.1263,0.091,1.75,-33.81,13.5,310.11,-89.04,123.75
314,52.884514,-1.728495,122.53,26.99,4,286.17,23 / 23,987912,2019-11-06 12:02:21:793,1.3094,0.1254,9.6823,-0.039,0.0132,9.8065,0.023,0.0069,0.0219,-1.56,-32.19,9.88,294.98,-89.18,128.64
315,52.884514,-1.728495,122.53,26.99,4,286.17,23 / 23,988012,2019-11-06 12:02:21:893,-0.2773,0.0316,10.71,-0.002,0.0244,9.8066,0.128,-0.0235,0.0073,0.38,-36.69,8.69,303.11,-89.07,126.32
