,GPS LATITUDE (degrees), GPS LONGITUDE (degrees), GPS ALTITUDE (m), GPS SPEED (Kmh), GPS ACCURACY (m), GPS ORIENTATION (Â°),GPS SATELLITES IN RANGE, TIME SINCE START (ms), DATE (YYYY-MO-DD HH-MI-SS_SSS), ACCELEROMETER X (m/s²) , ACCELEROMETER Y (m/s²), ACCELEROMETER Z (m/s²), GRAVITY X (m/s²), GRAVITY Y (m/s²), GRAVITY Z (m/s²), GYROSCOPE Yaw (rad/s), GYROSCOPE Pitch (rad/s), GYROSCOPE Roll (rad/s), MAGNETIC FIELD X (Î¼T), MAGNETIC FIELD Y (Î¼T), MAGNETIC FIELD Z (Î¼T), ORIENTATION (Yaw) (Â°), ORIENTATION (Pitch) (Â°), ORIENTATION (Roll ) (Â°)
46346,52.79845,-1.383719,149.05,10.55,4,259.79,22 / 24,6107213,2019-11-06 17:48:07:675,0.1907,-0.1087,9.9309,0.0097,0.0028,9.8066,-0.0003,-0.0055,0.0245,5.75,-36.81,16.38,201.06,-87.15,2.7
46347,52.79845,-1.383719,149.05,10.55,4,259.79,22 / 24,6107313,2019-11-06 17:48:07:775,0.0208,0.0684,9.921,-0.0063,-0.006,9.8066,-0.0302,0.024,-0.0258,6.31,-37.31,16.13,200.42,-87.18,1.97
46348,52.79845,-1.383719,149.05,10.55,4,259.79,22 / 24,6107414,2019-11-06 17:48:07:876,-0.0249,0.1005,9.8785,0.0023,-0.0064,9.8066,0.0267,0.0163,0.0108,6.0,-36.12,16.69,199.63,-87.21,2.03
46349,52.79845,-1.383719,149.05,10.55,4,259.79,22 / 24,6107513,2019-11-06 17:48:07:975,-0.4808,-0.5626,10.0345,-0.0033,-0.0022,9.8066,0.0033,0.0047,-0.0275,6.31,-36.69,16.25,199.64,-87.21,1.09
46350,52.79845,-1.383719,149.05,10.55,4,259.79,22 / 24,6107613,2019-11-06 17:48:08:075,-0.5491,-0.1873,10.1585,0.0082,-0.003,9.8066,0.0211,-0.0164,0.0204,6.56,-37.44,16.38,203.41,-87.19,2.11
46351,52.79845,-1.383719,149.05,10.55,4,259.79,22 / 24,6107713,2019-11-06 17:48:08:175,0.2762,-0.1843,9.7618,-0.0045,-0.0113,9.8065,-0.0016,0.0383,-0.0224,6.75,-37.44,16.06,203.23,-87.28,1.85
46352,52.79845,-1.383719,149.05,10.55,4,259.79,22 / 24,6107814,2019-11-06 17:48:08:276,0.0811,0.0493,9.8595,0.0105,0.0031,9.8066,0.0037,-0.0402,0.0416,6.69,-36.25,16.31,203.79,-87.26,2.41
46353,52.79833,-1.384712,145.96,4.71,4,257.1,23 / 25,6107914,2019-11-06 17:48:08:376,-0.5728,0.4031,9.8221,-0.0054,0.0019,9.8066,0.0028,0.0584,-0.0094,6.31,-36.37,16.63,198.99,-87.26,1.31
46354,52.79833,-1.384712,145.96,4.71,4,257.1,23 / 25,6108013,2019-11-06 17:48:08:475,0.0791,-0.936,9.6968,0.004,-0.0037,9.8066,0.0002,-0.0409,0.0488,5.88,-37.5,17.0,197.98,-87.28,0.25
46355,52.79833,-1.384712,145.96,4.71,4,257.1,23 / 25,6108113,2019-11-06 17:48:08:575,0.416,-1.1063,9.6343,-0.0054,0.012,9.8066,-0.0423,0.123,-0.0541,6.5,-37.19,16.19,201.16,-87.29,-0.42
46356,52.79833,-1.384712,145.96,4.71,4,257.1,23 / 25,6108213,2019-11-06 17:48:08:675,0.3492,-0.2868,9.789,0.0169,0.0044,9.8066,0.003,0.0665,-0.0261,6.38,-36.94,16.56,198.92,-87.19,1.32
46357,52.79833,-1.384712,145.96,4.71,4,257.1,23 / 25,6108314,2019-11-06 17:48:08:776,-1.2294,-0.5333,9.8813,0.0002,-0.0125,9.8066,0.0285,0.102,-0.0711,6.75,-37.19,17.25,200.65,-87.28,0.18
46358,52.79833,-1.384712,145.96,4.71,4,257.1,23 / 25,6108414,2019-11-06 17:48:08:876,-0.4187,-0.0314,10.0227,0.0045,-0.0013,9.8066,0.0025,0.0448,0.0017,5.81,-36.75,16.5,197.43,-87.36,-0.41
46359,52.79833,-1.384712,145.96,4.71,4,257.1,23 / 25,6108514,2019-11-06 17:48:08:976,-0.5722,-0.9472,9.7336,0.0026,0.0036,9.8066,-0.0154,0.0719,-0.0108,6.44,-37.19,16.25,197.88,-87.31,-0.91
46360,52.79833,-1.384712,145.96,4.71,4,257.1,23 / 25,6108614,2019-11-06 17:48:09:076,-0.13,-2.0548,9.6644,0.0091,-0.0136,9.8065,0.0195,0.0269,-0.0297,6.25,-37.37,16.81,195.85,-87.27,-2.07
46361,52.79833,-1.384712,145.96,4.71,4,257.1,23 / 25,6108714,2019-11-06 17:48:09:176,-0.4123,-1.931,9.7187,-0.0031,-0.0006,9.8066,0.044,0.0805,-0.0336,6.94,-37.62,17.06,199.11,-87.4,-1.53
46362,52.79833,-1.384712,145.96,4.71,4,257.1,23 / 25,6108814,2019-11-06 17:48:09:276,-0.3535,-1.9607,9.6381,0.0059,-0.0001,9.8066,-0.0147,0.0495,-0.0378,6.06,-37.19,16.38,199.08,-87.46,0.3
46363,52.79833,-1.384712,145.96,4.71,4,257.1,23 / 25,6108914,2019-11-06 17:48:09:376,-1.0047,-1.3181,9.7028,0.0084,-0.001,9.8066,-0.0155,0.0685,-0.0062,6.5,-36.75,16.81,200.78,-87.44,0.21
46364,52.79833,-1.384712,145.96,4.71,4,257.1,23 / 25,6109014,2019-11-06 17:48:09:476,-0.0524,-1.533,10.1596,-0.0129,0.0104,9.8065,0.0105,0.1237,-0.0932,6.38,-36.5,17.19,197.01,-87.39,-0.92
46365,52.79833,-1.384712,145.96,4.71,4,257.1,23 / 25,6109114,2019-11-06 17:48:09:576,-1.552,-1.6199,9.7417,-0.0118,-0.0014,9.8066,-0.0257,-0.0064,-0.0223,6.0,-36.94,16.75,197.52,-87.4,-0.34
46366,52.79833,-1.384712,145.96,4.71,4,257.1,23 / 25,6109214,2019-11-06 17:48:09:676,-0.9172,-1.6365,9.458,-0.0133,0.0007,9.8066,-0.0244,0.1202,-0.021,5.81,-37.19,17.25,197.0,-87.38,-0.88
46367,52.79833,-1.384712,145.96,4.71,4,257.1,23 / 25,6109313,2019-11-06 17:48:09:775,-1.7212,-1.1062,9.7331,-0.0059,-0.0009,9.8066,-0.0021,-0.1065,0.0334,5.94,-36.19,17.25,197.07,-87.36,-0.84
46368,52.79833,-1.384712,145.96,4.71,4,257.1,23 / 25,6109413,2019-11-06 17:48:09:875,-0.0115,-2.1785,9.8083,-0.0146,0.0021,9.8065,0.0158,0.1219,-0.045,5.69,-36.81,17.63,194.09,-87.41,-3.12
46369,52.79833,-1.384712,145.96,4.71,4,257.1,23 / 25,6109513,2019-11-06 17:48:09:975,-0.4632,-1.838,9.9101,0.0039,0.0009,9.8066,-0.0176,-0.0673,0.0467,6.0,-36.69,17.19,196.08,-87.44,-1.92
46370,52.79833,-1.384712,145.96,4.71,4,257.1,23 / 25,6109613,2019-11-06 17:48:10:075,0.8813,-1.8656,9.9875,-0.0158,0.0011,9.8066,-0.0096,0.1522,-0.0784,5.69,-35.69,18.19,194.12,-87.44,-3.14
46371,52.79833,-1.384712,145.96,4.71,4,257.1,23 / 25,6109713,2019-11-06 17:48:10:175,-2.197,-0.894,9.9104,-0.0102,0.0012,9.8066,-0.012,0.0064,0.0365,6.06,-36.62,17.88,194.12,-87.4,-3.09
46372,52.79833,-1.384712,145.96,4.71,4,257.1,23 / 25,6109814,2019-11-06 17:48:10:276,0.0206,-1.7263,9.6664,-0.036,0.0099,9.8065,-0.0065,0.1794,-0.1342,4.75,-35.56,16.75,189.07,-87.39,-6.5
46373,52.79833,-1.384712,145.96,4.71,4,257.1,22 / 25,6109915,2019-11-06 17:48:10:377,-1.3631,-0.8908,9.9302,-0.0078,0.006,9.8066,-0.0022,-0.0048,0.014,4.75,-35.31,17.75,190.46,-87.37,-4.18
46374,52.79833,-1.384712,145.96,4.71,4,257.1,22 / 25,6110014,2019-11-06 17:48:10:476,0.6608,-1.9086,9.4228,-0.0141,0.0026,9.8066,-0.0493,0.1195,-0.0742,5.06,-34.75,18.0,188.9,-87.32,-5.86
46375,52.79833,-1.384712,145.96,4.71,4,257.1,22 / 25,6110114,2019-11-06 17:48:10:576,-0.4357,-0.5393,9.8241,-0.0027,0.0043,9.8066,-0.0064,-0.0427,0.0331,4.63,-34.0,16.13,191.18,-87.23,-5.1
46376,52.79833,-1.384712,145.96,4.71,4,257.1,22 / 25,6110213,2019-11-06 17:48:10:675,0.6659,-0.2785,9.7865,-0.0087,0.0032,9.8066,-0.1073,0.0716,-0.0353,4.38,-33.5,16.5,186.9,-87.11,-5.7
46377,52.79833,-1.384712,145.96,4.71,4,257.1,22 / 25,6110314,2019-11-06 17:48:10:776,-0.5642,-1.0153,10.2739,0.0109,-0.011,9.8066,-0.0513,-0.0466,0.0712,4.13,-32.69,15.63,187.96,-86.9,-5.23
46378,52.79833,-1.384712,145.96,4.71,4,257.1,22 / 25,6110414,2019-11-06 17:48:10:876,-0.3539,-1.5255,9.7368,-0.0162,-0.0003,9.8066,0.0376,0.0812,-0.0816,5.06,-32.81,14.94,191.5,-86.94,-5.68
46379,52.79833,-1.384712,145.96,4.71,4,257.1,22 / 25,6110514,2019-11-06 17:48:10:976,-1.1242,-1.1644,9.8678,-0.0155,0.0095,9.8066,0.0265,-0.0002,-0.0534,5.25,-32.56,15.81,191.8,-87.07,-4.39
46380,52.79833,-1.384712,145.96,4.71,4,257.1,22 / 25,6110615,2019-11-06 17:48:11:077,0.2558,-1.0871,9.8483,-0.004,-0.0008,9.8066,0.0043,0.1094,-0.0423,5.31,-32.94,15.06,192.07,-87.06,-5.1
46381,52.79833,-1.384712,145.96,4.71,4,257.1,22 / 25,6110716,2019-11-06 17:48:11:178,-0.8045,-0.949,10.3008,-0.0008,-0.0091,9.8066,-0.0066,-0.0091,-0.0217,6.0,-32.94,14.56,196.34,-87.19,-3.87
46382,52.79833,-1.384712,145.96,4.71,4,257.1,22 / 25,6110816,2019-11-06 17:48:11:278,-0.1831,-1.9323,9.535,-0.0166,-0.0121,9.8065,0.0826,0.0495,-0.0225,5.81,-33.0,15.19,196.35,-87.33,-3.93
46383,52.79833,-1.384712,145.96,4.71,4,257.1,21 / 25,6110914,2019-11-06 17:48:11:376,-0.9118,-1.096,9.5965,0.0041,-0.0243,9.8066,0.0078,-0.0476,0.0392,6.0,-34.5,15.06,197.47,-87.64,-2.86
46384,52.79833,-1.384712,145.96,4.71,4,257.1,21 / 25,6111013,2019-11-06 17:48:11:475,0.1206,-1.9263,9.6585,0.0031,-0.0195,9.8065,-0.0111,0.0151,0.0064,5.38,-33.56,14.94,193.62,-87.78,-3.7
46385,52.79833,-1.384712,145.96,4.71,4,257.1,21 / 25,6111113,2019-11-06 17:48:11:575,-0.4748,0.2616,9.9741,0.0137,-0.0059,9.8066,0.0033,-0.1029,0.0428,5.31,-34.12,13.94,196.55,-87.94,-1.77
46386,52.79833,-1.384712,145.96,4.71,4,257.1,21 / 25,6111213,2019-11-06 17:48:11:675,0.0005,-0.3476,9.9103,0.0108,-0.0065,9.8066,0.0325,-0.0504,0.0535,5.63,-34.75,13.44,200.74,-87.95,-2.28
46387,52.79833,-1.384712,145.96,4.71,4,257.1,21 / 25,6111314,2019-11-06 17:48:11:776,-0.675,-2.0202,9.9721,0.0008,0.0095,9.8066,0.0464,-0.0636,-0.0208,6.31,-34.06,13.94,198.97,-88.02,-2.8
46388,52.79833,-1.384712,145.96,4.71,4,257.1,21 / 25,6111414,2019-11-06 17:48:11:876,-0.0405,0.9552,9.7555,-0.006,0.0064,9.8066,0.0502,0.0131,0.0068,7.63,-34.69,13.56,203.24,-88.07,-4.87
46389,52.79833,-1.384712,145.96,4.71,4,257.1,21 / 25,6111513,2019-11-06 17:48:11:975,0.2363,0.3477,9.853,-0.0109,-0.0054,9.8066,-0.0529,0.0317,-0.04,7.88,-35.5,13.63,202.43,-88.17,-5.81
46390,52.79833,-1.384712,145.96,4.71,4,257.1,21 / 25,6111614,2019-11-06 17:48:12:076,-0.8375,-0.7671,9.8742,-0.0013,-0.0034,9.8066,-0.0805,0.0349,0.0513,8.75,-35.37,14.0,204.79,-88.1,-6.28
46391,52.79833,-1.384712,145.96,4.71,4,257.1,21 / 25,6111714,2019-11-06 17:48:12:176,-0.3768,-0.0059,9.5871,-0.0045,0.0123,9.8066,0.0166,0.0159,-0.0412,9.63,-36.0,14.5,203.63,-87.98,-8.46
46392,52.79833,-1.384712,145.96,4.71,4,257.1,21 / 25,6111814,2019-11-06 17:48:12:276,-1.1954,-0.2771,10.0628,-0.0003,0.0043,9.8066,0.0853,-0.0721,0.0307,9.88,-35.44,15.06,203.92,-88.0,-8.21
46393,52.79833,-1.384712,145.96,4.71,4,257.1,24 / 25,6111913,2019-11-06 17:48:12:375,-0.447,-0.4005,9.8372,-0.0025,-0.002,9.8066,0.0217,-0.0176,-0.0186,10.19,-36.81,15.81,201.39,-88.15,-9.3
46394,52.79833,-1.384712,145.96,4.71,4,257.1,24 / 25,6112014,2019-11-06 17:48:12:476,0.2631,-0.1341,9.9712,0.0217,0.0058,9.8066,-0.0381,-0.0754,0.0252,10.38,-36.44,16.0,205.18,-88.07,-5.27
46395,52.79833,-1.384712,145.96,4.71,4,257.1,24 / 25,6112114,2019-11-06 17:48:12:576,0.4069,1.1518,10.0879,0.0078,0.0005,9.8066,-0.1233,-0.0571,0.0642,9.94,-36.31,16.81,204.16,-87.87,-4.73
46396,52.79833,-1.384712,145.96,4.71,4,257.1,24 / 25,6112214,2019-11-06 17:48:12:676,-0.0378,-1.7831,9.5115,0.0177,0.0006,9.8066,-0.0978,-0.0191,0.0208,9.5,-37.0,17.5,202.06,-87.54,-5.35
46397,52.79833,-1.384712,145.96,4.71,4,257.1,24 / 25,6112314,2019-11-06 17:48:12:776,0.0189,0.841,9.9684,0.0131,0.0099,9.8065,0.0213,-0.0776,0.0376,8.5,-36.5,17.63,201.82,-87.3,-2.97
46398,52.79833,-1.384712,145.96,4.71,4,257.1,24 / 25,6112413,2019-11-06 17:48:12:875,0.3916,-0.413,9.9677,0.0002,-0.0074,9.8066,0.0439,-0.0609,-0.022,8.44,-36.87,18.5,197.57,-87.34,-3.85
46399,52.79833,-1.384712,145.96,4.71,4,257.1,24 / 25,6112514,2019-11-06 17:48:12:976,-0.4977,0.8187,9.9393,0.013,-0.0197,9.8066,0.0417,-0.0613,0.045,8.06,-37.19,17.56,199.59,-87.56,-2.86
46400,52.79833,-1.384712,145.96,4.71,4,257.1,24 / 25,6112614,2019-11-06 17:48:13:076,-1.094,0.151,10.4237,-0.0172,0.0003,9.8066,-0.0804,0.0757,-0.0708,7.63,-36.75,18.38,197.08,-87.71,-5.63
46401,52.79833,-1.384712,145.96,4.71,4,257.1,24 / 25,6112714,2019-11-06 17:48:13:176,-0.8877,-0.2125,10.3827,0.0064,-0.0027,9.8066,0.0208,-0.0075,0.0309,7.5,-37.44,17.63,198.79,-87.61,-3.74
46402,52.79833,-1.384712,145.96,4.71,4,257.1,24 / 25,6112814,2019-11-06 17:48:13:276,-0.8039,-0.4232,9.2387,-0.0159,0.0132,9.8066,-0.0135,0.1178,-0.0597,7.06,-36.81,17.56,195.4,-87.67,-4.68
46403,52.79833,-1.384712,145.96,4.71,4,257.1,23 / 25,6112914,2019-11-06 17:48:13:376,0.6589,-0.3302,9.9766,-0.0106,-0.0034,9.8066,-0.0057,0.0551,-0.0215,6.88,-36.62,17.94,193.47,-87.71,-6.77
46404,52.79833,-1.384712,145.96,4.71,4,257.1,23 / 25,6113014,2019-11-06 17:48:13:476,-0.5651,-0.4427,10.1183,-0.0038,-0.0073,9.8066,0.0061,0.0392,0.0008,6.69,-36.25,17.69,192.57,-87.74,-7.77
46405,52.79833,-1.384712,145.96,4.71,4,257.1,23 / 25,6113114,2019-11-06 17:48:13:576,0.018,-0.2693,9.7361,-0.0128,-0.005,9.8066,-0.0252,0.0335,-0.0125,6.31,-36.5,17.94,189.19,-87.79,-8.58
46406,52.79833,-1.384712,145.96,4.71,4,257.1,23 / 25,6113214,2019-11-06 17:48:13:676,-0.0379,0.0128,9.9691,-0.0024,-0.0082,9.8066,0.0379,0.0173,0.0156,6.5,-36.62,17.06,192.01,-87.81,-9.46
46407,52.79833,-1.384712,145.96,4.71,4,257.1,23 / 25,6113313,2019-11-06 17:48:13:775,-0.211,-0.0033,9.7429,-0.0079,0.0019,9.8066,-0.0083,0.0174,-0.0288,6.06,-36.75,17.38,187.85,-87.9,-11.01
46408,52.79833,-1.384712,145.96,4.71,4,257.1,23 / 25,6113413,2019-11-06 17:48:13:875,-0.352,-0.5777,9.5036,-0.005,0.0073,9.8066,-0.005,0.0155,-0.0098,6.31,-36.75,17.19,187.7,-87.97,-11.19
46409,52.79833,-1.384712,145.96,4.71,4,257.1,23 / 25,6113513,2019-11-06 17:48:13:975,-0.2566,-1.3947,9.8061,-0.0079,-0.0032,9.8066,0.0008,0.0618,-0.0576,5.81,-37.37,17.13,186.27,-87.98,-12.72
46410,52.79833,-1.384712,145.96,4.71,4,257.1,23 / 25,6113614,2019-11-06 17:48:14:076,-0.5362,-0.1034,10.1643,0.0023,-0.0075,9.8066,-0.0079,-0.0827,0.029,6.06,-36.19,16.88,188.39,-88.03,-10.47
46411,52.79833,-1.384712,145.96,4.71,4,257.1,23 / 25,6113713,2019-11-06 17:48:14:175,0.0362,0.0535,9.8841,0.0098,0.0025,9.8066,-0.0018,-0.0154,0.0101,5.69,-36.62,16.88,189.52,-87.98,-9.24
46412,52.79833,-1.384712,145.96,4.71,4,257.1,23 / 25,6113813,2019-11-06 17:48:14:275,1.6223,-0.4945,9.9341,0.0204,-0.0066,9.8066,0.024,-0.1083,0.063,5.88,-36.0,16.25,193.91,-87.97,-5.63
46413,52.79833,-1.384712,145.96,4.71,4,257.1,22 / 24,6113914,2019-11-06 17:48:14:376,-0.1214,0.132,9.5451,0.0092,-0.0018,9.8065,0.0044,-0.0737,0.0643,5.13,-36.37,17.06,187.99,-88.02,-7.84
46414,52.79833,-1.384712,145.96,4.71,4,257.1,22 / 24,6114014,2019-11-06 17:48:14:476,1.0463,-0.5151,9.7382,0.0035,0.0023,9.8066,0.0094,0.001,-0.0132,6.25,-37.0,16.63,190.55,-88.1,-8.18
46415,52.79833,-1.384712,145.96,4.71,4,257.1,22 / 24,6114113,2019-11-06 17:48:14:575,-0.1843,-0.1182,9.7762,0.0062,-0.0194,9.8066,-0.0332,-0.0009,0.0417,5.25,-36.31,16.5,187.47,-88.21,-8.45
46416,52.79833,-1.384712,145.96,4.71,4,257.1,22 / 24,6114214,2019-11-06 17:48:14:676,0.7983,-0.0104,9.6862,-0.0032,-0.0089,9.8066,-0.0415,0.0216,-0.0278,6.19,-36.75,16.5,190.54,-88.19,-8.22
46417,52.79833,-1.384712,145.96,4.71,4,257.1,22 / 24,6114314,2019-11-06 17:48:14:776,-0.6172,0.7025,10.021,0.0131,0.0035,9.8066,0.027,-0.058,0.0469,5.94,-36.62,17.0,191.52,-88.19,-7.18
46418,52.79833,-1.384712,145.96,4.71,4,257.1,22 / 24,6114414,2019-11-06 17:48:14:876,0.6239,0.1164,9.6685,-0.0028,-0.0004,9.8066,-0.0069,0.0578,-0.0219,6.06,-36.62,16.44,192.34,-88.2,-7.39
46419,52.79833,-1.384712,145.96,4.71,4,257.1,22 / 24,6114513,2019-11-06 17:48:14:975,-1.313,0.6127,9.8727,0.0179,-0.0013,9.8066,0.0142,-0.1006,0.0608,5.63,-36.37,16.81,191.76,-88.24,-6.98
46420,52.79833,-1.384712,145.96,4.71,4,257.1,22 / 24,6114613,2019-11-06 17:48:15:075,0.3953,-1.0613,9.7401,-0.0187,0.0015,9.8066,-0.0442,0.1605,-0.1009,5.69,-37.06,15.69,192.27,-88.37,-7.54
46421,52.79833,-1.384712,145.96,4.71,4,257.1,22 / 24,6114713,2019-11-06 17:48:15:175,0.3197,-0.3433,9.9196,0.0075,-0.0123,9.8066,-0.0031,-0.0381,0.0459,5.5,-36.12,16.75,189.16,-88.43,-9.78
46422,52.79833,-1.384712,145.96,4.71,4,257.1,22 / 24,6114813,2019-11-06 17:48:15:275,1.237,-0.2024,9.6943,-0.0157,-0.0099,9.8066,-0.0543,0.1432,-0.0563,5.81,-37.12,16.0,191.03,-88.38,-8.86
46423,52.79833,-1.384712,145.96,4.71,4,257.1,24 / 25,6114913,2019-11-06 17:48:15:375,-0.5696,0.4238,9.9948,0.009,0.0082,9.8065,0.0235,-0.0428,0.019,6.75,-36.44,16.06,192.48,-88.37,-10.43
46424,52.79833,-1.384712,145.96,4.71,4,257.1,24 / 25,6115014,2019-11-06 17:48:15:476,-0.6807,0.3958,9.7761,-0.0175,0.0095,9.8066,-0.0192,0.1364,-0.0472,6.56,-37.69,16.56,187.37,-88.34,-14.57
46425,52.79833,-1.384712,145.96,4.71,4,257.1,24 / 25,6115114,2019-11-06 17:48:15:576,-1.1188,0.1606,9.9644,0.008,0.0036,9.8066,0.0027,-0.0321,0.0022,6.44,-37.0,17.13,185.15,-88.34,-13.98
46426,52.79833,-1.384712,145.96,4.71,4,257.1,24 / 25,6115213,2019-11-06 17:48:15:675,-0.1753,-0.2465,9.9875,-0.0128,0.0016,9.8066,-0.025,0.1234,-0.0685,6.88,-37.31,16.56,188.53,-88.43,-13.39
46427,52.79833,-1.384712,145.96,4.71,4,257.1,24 / 25,6115313,2019-11-06 17:48:15:775,0.4527,-0.0691,9.3971,0.0059,-0.0052,9.8066,-0.0237,-0.0376,0.031,6.5,-37.25,16.63,188.77,-88.41,-13.13
46428,52.79833,-1.384712,145.96,4.71,4,257.1,24 / 25,6115414,2019-11-06 17:48:15:876,0.705,-0.3555,9.7848,-0.0132,-0.0084,9.8066,0.0018,0.0787,-0.0417,6.31,-36.81,16.81,185.82,-88.3,-13.27
46429,52.79833,-1.384712,145.96,4.71,4,257.1,24 / 25,6115514,2019-11-06 17:48:15:976,-0.2478,0.1719,10.2746,0.0047,0.0057,9.8066,0.0267,-0.023,-0.0003,6.44,-36.56,16.25,184.63,-88.37,-15.65
46430,52.79833,-1.384712,145.96,4.71,4,257.1,24 / 25,6115614,2019-11-06 17:48:16:076,-1.0382,1.5142,10.3378,-0.0167,0.008,9.8065,0.0029,0.1851,-0.097,6.19,-36.75,16.81,179.19,-88.43,-20.3
46431,52.79833,-1.384712,145.96,4.71,4,257.1,24 / 25,6115714,2019-11-06 17:48:16:176,-0.9582,0.8224,9.8224,-0.0035,-0.0172,9.8066,0.0111,0.0306,-0.0235,6.13,-37.06,16.25,181.75,-88.6,-18.72
46432,52.79833,-1.384712,145.96,4.71,4,257.1,24 / 25,6115814,2019-11-06 17:48:16:276,-0.1568,0.2626,10.0578,-0.0232,-0.0237,9.8065,-0.0342,0.1527,-0.0643,6.13,-37.25,18.0,179.84,-88.78,-18.6
46433,52.79833,-1.384712,145.96,4.71,4,257.1,23 / 24,6115914,2019-11-06 17:48:16:376,0.6162,-0.5349,10.133,-0.0057,-0.0092,9.8066,0.0358,0.0514,-0.0396,6.0,-37.31,17.31,173.58,-89.0,-26.08
46434,52.79833,-1.384712,145.96,4.71,4,257.1,23 / 24,6116014,2019-11-06 17:48:16:476,-1.1992,-0.0101,9.6788,-0.0165,-0.0005,9.8066,0.0296,0.1587,-0.0735,6.31,-36.37,16.38,177.97,-89.1,-22.65
46435,52.79833,-1.384712,145.96,4.71,4,257.1,23 / 24,6116114,2019-11-06 17:48:16:576,0.2768,-0.318,9.4894,-0.0109,-0.0024,9.8066,-0.0231,0.1542,-0.0752,6.13,-36.25,17.38,172.51,-89.19,-27.14
46436,52.79833,-1.384712,145.96,4.71,4,257.1,23 / 24,6116213,2019-11-06 17:48:16:675,-1.7575,0.5154,10.3546,-0.0191,0.0067,9.8066,-0.022,0.1041,-0.0363,6.13,-36.87,17.06,166.71,-89.21,-33.1
46437,52.79833,-1.384712,145.96,4.71,4,257.1,23 / 24,6116314,2019-11-06 17:48:16:776,0.3791,0.0158,10.0256,-0.0206,0.0041,9.8065,-0.003,0.1448,-0.0733,6.5,-37.31,16.5,172.79,-89.2,-29.79
46438,52.79833,-1.384712,145.96,4.71,4,257.1,23 / 24,6116414,2019-11-06 17:48:16:876,-0.6214,0.5988,9.9976,-0.001,0.0059,9.8066,0.0095,0.0162,-0.0267,6.88,-36.81,17.06,179.8,-89.16,-22.59
46439,52.79833,-1.384712,145.96,4.71,4,257.1,23 / 24,6116514,2019-11-06 17:48:16:976,0.8435,0.3163,9.9212,-0.0124,0.0034,9.8066,0.006,0.1208,-0.0447,6.44,-37.12,17.5,179.19,-89.11,-19.27
46440,52.79833,-1.384712,145.96,4.71,4,257.1,23 / 24,6116614,2019-11-06 17:48:17:076,0.3636,0.0618,10.0185,0.0103,-0.0056,9.8066,0.0087,-0.0786,0.0734,6.81,-36.75,16.44,185.04,-89.17,-18.43
46441,52.79833,-1.384712,145.96,4.71,4,257.1,23 / 24,6116714,2019-11-06 17:48:17:176,0.877,-0.4617,10.0368,-0.0175,0.0086,9.8066,-0.0004,0.0729,-0.0523,6.44,-36.75,17.25,181.73,-89.17,-17.66
46442,52.79833,-1.384712,145.96,4.71,4,257.1,23 / 24,6116814,2019-11-06 17:48:17:276,-1.0279,-0.2836,9.7319,0.005,0.005,9.8066,-0.0016,-0.0614,0.0455,6.13,-36.19,17.25,183.15,-89.2,-16.2
46443,52.798203,-1.38553,144.17,5.79,4,255.91,24 / 25,6116919,2019-11-06 17:48:17:381,-0.0789,-0.0624,10.2179,0.009,-0.0042,9.8066,-0.0483,0.0712,0.0249,6.75,-36.75,17.25,183.11,-89.26,-19.19
46444,52.798203,-1.38553,144.17,5.79,4,255.91,24 / 25,6117014,2019-11-06 17:48:17:476,0.0675,-0.4656,9.7657,-0.0038,-0.0067,9.8066,0.0082,0.0288,-0.0638,6.31,-36.5,16.75,181.89,-89.28,-17.5
46445,52.798203,-1.38553,144.17,5.79,4,255.91,24 / 25,6117113,2019-11-06 17:48:17:575,-0.757,-0.3699,9.7181,-0.0154,-0.003,9.8066,0.0038,0.0952,-0.0283,6.0,-36.81,16.94,187.74,-89.29,-11.5
46446,52.798203,-1.38553,144.17,5.79,4,255.91,24 / 25,6117213,2019-11-06 17:48:17:675,-0.152,0.3876,9.7736,-0.0041,-0.0031,9.8066,0.0029,0.0674,-0.063,6.31,-37.19,17.38,180.04,-89.34,-19.4
46447,52.798203,-1.38553,144.17,5.79,4,255.91,24 / 25,6117314,2019-11-06 17:48:17:776,-0.4219,0.0072,9.8505,-0.017,-0.0001,9.8066,-0.0042,0.0855,-0.0377,6.06,-37.25,16.81,178.96,-89.36,-20.51
46448,52.798203,-1.38553,144.17,5.79,4,255.91,24 / 25,6117414,2019-11-06 17:48:17:876,0.3167,0.294,10.0111,-0.0088,0.0066,9.8066,-0.0242,0.0603,-0.0248,5.19,-37.0,16.56,173.15,-89.33,-23.41
46449,52.798203,-1.38553,144.17,5.79,4,255.91,24 / 25,6117514,2019-11-06 17:48:17:976,0.2093,0.3697,9.8059,-0.0084,-0.0068,9.8066,-0.0331,0.0387,-0.0409,6.13,-37.37,17.44,176.37,-89.37,-23.16
46450,52.798203,-1.38553,144.17,5.79,4,255.91,24 / 25,6117614,2019-11-06 17:48:18:076,0.0217,-0.6438,9.5829,-0.0063,-0.009,9.8066,-0.0157,0.0498,0.0104,6.25,-37.12,17.69,168.46,-89.45,-30.19
46451,52.798203,-1.38553,144.17,5.79,4,255.91,24 / 25,6117714,2019-11-06 17:48:18:176,-0.0365,-0.6111,10.0189,-0.0042,-0.0106,9.8066,-0.0333,-0.056,-0.0106,5.94,-36.44,16.88,169.35,-89.43,-30.29
46452,52.798203,-1.38553,144.17,5.79,4,255.91,24 / 25,6117814,2019-11-06 17:48:18:276,-0.4401,0.4327,10.2759,0.0167,0.0029,9.8066,0.0641,-0.054,0.0668,6.56,-37.25,17.63,176.97,-89.46,-24.33
46453,52.798203,-1.38553,144.17,5.79,4,255.91,22 / 24,6117914,2019-11-06 17:48:18:376,0.0684,0.2159,9.9548,-0.0003,0.003,9.8066,0.0075,-0.008,-0.0312,6.13,-36.87,16.69,163.46,-89.44,-36.31
46454,52.798203,-1.38553,144.17,5.79,4,255.91,22 / 24,6118014,2019-11-06 17:48:18:476,-0.4888,0.2483,10.0612,-0.005,0.0042,9.8066,0.016,0.0344,-0.0031,5.75,-37.06,17.0,162.82,-89.43,-36.96
46455,52.798203,-1.38553,144.17,5.79,4,255.91,22 / 24,6118113,2019-11-06 17:48:18:575,0.0538,-0.1359,9.9391,-0.0103,0.0055,9.8066,-0.0093,0.0502,-0.004,6.13,-36.44,17.5,159.63,-89.4,-39.19
46456,52.798203,-1.38553,144.17,5.79,4,255.91,22 / 24,6118214,2019-11-06 17:48:18:676,-0.4465,-1.0265,9.5213,0.0111,0.0062,9.8066,-0.0266,-0.0281,0.0451,6.25,-36.75,17.19,165.78,-89.41,-33.96
46457,52.798203,-1.38553,144.17,5.79,4,255.91,22 / 24,6118315,2019-11-06 17:48:18:777,0.152,0.3148,9.5305,-0.0084,0.0018,9.8066,-0.0413,0.015,-0.0114,6.44,-36.12,16.69,164.56,-89.35,-35.22
46458,52.798203,-1.38553,144.17,5.79,4,255.91,22 / 24,6118413,2019-11-06 17:48:18:875,-0.052,0.4934,9.8836,0.0147,-0.0011,9.8066,-0.0254,-0.0077,0.0386,6.19,-37.06,17.5,167.88,-89.22,-30.88
46459,52.798203,-1.38553,144.17,5.79,4,255.91,22 / 24,6118513,2019-11-06 17:48:18:975,-0.3642,-0.4418,10.1213,-0.0063,0.0183,9.8066,0.021,-0.0132,-0.0071,6.06,-37.25,16.69,173.34,-89.1,-26.32
46460,52.798203,-1.38553,144.17,5.79,4,255.91,22 / 24,6118613,2019-11-06 17:48:19:075,1.1185,0.2636,9.4795,0.0083,0.0143,9.8065,0.0265,-0.0837,0.0766,5.94,-36.44,17.31,173.1,-89.13,-26.55
46461,52.798203,-1.38553,144.17,5.79,4,255.91,22 / 24,6118713,2019-11-06 17:48:19:175,0.2338,0.3667,9.2966,-0.0126,0.0018,9.8066,-0.0161,0.0178,-0.0209,6.06,-36.5,17.69,164.78,-89.03,-34.14
46462,52.798203,-1.38553,144.17,5.79,4,255.91,22 / 24,6118813,2019-11-06 17:48:19:275,-0.9147,0.1188,10.0709,0.0107,-0.0027,9.8066,0.0357,-0.1083,0.0807,6.06,-37.25,16.81,172.96,-89.07,-26.71
46463,52.798203,-1.38553,144.17,5.79,4,255.91,23 / 25,6118914,2019-11-06 17:48:19:376,-0.6171,0.5311,9.8206,-0.0081,-0.0051,9.8066,-0.0937,0.0471,-0.0487,5.31,-36.31,16.94,168.25,-89.03,-28.54
46464,52.798203,-1.38553,144.17,5.79,4,255.91,23 / 25,6119013,2019-11-06 17:48:19:475,-0.4192,-0.1626,10.1249,0.0193,-0.0122,9.8066,-0.024,-0.1072,0.0976,6.13,-36.62,16.94,179.35,-88.97,-20.12
46465,52.798203,-1.38553,144.17,5.79,4,255.91,23 / 25,6119113,2019-11-06 17:48:19:575,-0.0854,-0.758,9.3725,-0.0101,0.0043,9.8066,-0.0168,-0.0075,-0.0135,6.44,-36.56,17.25,178.46,-88.96,-21.03
46466,52.798203,-1.38553,144.17,5.79,4,255.91,23 / 25,6119214,2019-11-06 17:48:19:676,1.0957,-1.1315,9.4748,0.0108,-0.0042,9.8066,0.0332,-0.133,0.0579,6.31,-37.5,16.75,178.42,-88.97,-21.08
46467,52.798203,-1.38553,144.17,5.79,4,255.91,23 / 25,6119313,2019-11-06 17:48:19:775,-0.3643,0.4867,9.8255,0.0166,-0.0052,9.8065,0.0224,-0.1567,0.0746,6.19,-37.31,17.5,176.09,-89.01,-22.47
46468,52.798203,-1.38553,144.17,5.79,4,255.91,23 / 25,6119413,2019-11-06 17:48:19:875,1.0647,-0.9787,9.9932,0.0046,-0.0148,9.8065,0.007,0.0016,-0.0157,6.13,-37.06,17.44,177.97,-89.16,-21.53
46469,52.798203,-1.38553,144.17,5.79,4,255.91,23 / 25,6119513,2019-11-06 17:48:19:975,-0.3397,-0.5295,10.0093,0.0167,-0.0058,9.8066,0.0168,-0.078,0.0507,5.94,-36.87,16.88,177.13,-89.22,-22.39
46470,52.798203,-1.38553,144.17,5.79,4,255.91,23 / 25,6119613,2019-11-06 17:48:20:075,0.44,-0.8306,9.8263,-0.0128,0.0028,9.8066,0.0272,0.0948,-0.0654,6.0,-36.75,17.31,176.62,-89.2,-22.92
46471,52.798203,-1.38553,144.17,5.79,4,255.91,23 / 25,6119713,2019-11-06 17:48:20:175,-0.8832,-0.4105,9.9326,0.006,-0.0129,9.8066,0.0142,-0.0283,0.069,6.63,-36.56,17.63,174.95,-89.32,-26.41
46472,52.798203,-1.38553,144.17,5.79,4,255.91,23 / 25,6119813,2019-11-06 17:48:20:275,-1.1903,-1.4136,10.0564,-0.0092,0.0016,9.8066,-0.0076,0.0667,-0.0337,6.13,-36.12,17.81,162.12,-89.3,-36.72
46473,52.798203,-1.38553,144.17,5.79,4,255.91,23 / 24,6119913,2019-11-06 17:48:20:375,-1.0585,-0.0873,10.4149,-0.0011,0.0011,9.8066,-0.0315,-0.0151,0.0108,6.31,-35.81,18.44,159.59,-89.22,-39.36
46474,52.798203,-1.38553,144.17,5.79,4,255.91,23 / 24,6120013,2019-11-06 17:48:20:475,-1.296,-2.1851,9.6919,-0.0115,0.001,9.8066,0.0073,0.077,-0.0426,6.13,-35.75,17.88,159.61,-89.09,-39.42
46475,52.798203,-1.38553,144.17,5.79,4,255.91,23 / 24,6120113,2019-11-06 17:48:20:575,0.1155,-2.865,9.7427,-0.0058,-0.0186,9.8065,0.0877,0.0681,-0.0404,5.94,-35.37,17.69,155.05,-89.28,-43.94
46476,52.798203,-1.38553,144.17,5.79,4,255.91,23 / 24,6120214,2019-11-06 17:48:20:676,-1.7224,-4.5259,9.6428,-0.0236,-0.0231,9.8065,0.0875,0.0603,-0.0425,6.25,-36.0,18.0,119.04,-89.52,-80.2
46477,52.798203,-1.38553,144.17,5.79,4,255.91,23 / 24,6120313,2019-11-06 17:48:20:775,0.1084,-0.6072,9.9108,-0.0206,-0.0062,9.8065,0.0011,0.1118,-0.0334,5.81,-36.37,17.44,81.61,-89.34,-119.14
46478,52.798203,-1.38553,144.17,5.79,4,255.91,23 / 24,6120413,2019-11-06 17:48:20:875,-1.0761,0.4288,10.1593,-0.0051,0.0296,9.8065,-0.0695,0.047,-0.0054,5.19,-35.87,18.19,86.89,-89.37,-109.85
46479,52.798203,-1.38553,144.17,5.79,4,255.91,23 / 24,6120514,2019-11-06 17:48:20:976,0.9327,1.0531,10.18,-0.0088,0.0319,9.8066,-0.0577,0.1342,-0.0741,5.63,-36.0,18.19,129.7,-89.25,-69.82
46480,52.798203,-1.38553,144.17,5.79,4,255.91,23 / 24,6120614,2019-11-06 17:48:21:076,-1.5946,-3.6425,9.486,-0.0004,0.0249,9.8066,-0.0139,-0.017,0.0137,5.5,-35.75,18.06,149.69,-89.07,-49.64
46481,52.798203,-1.38553,144.17,5.79,4,255.91,23 / 24,6120714,2019-11-06 17:48:21:176,-0.7074,-2.4499,9.6475,-0.0061,0.0111,9.8066,-0.0571,0.0166,-0.0063,5.69,-35.75,18.19,154.57,-88.92,-44.74
46482,52.798203,-1.38553,144.17,5.79,4,255.91,23 / 24,6120814,2019-11-06 17:48:21:276,-1.5379,-1.3926,9.945,0.002,-0.0114,9.8066,-0.0194,-0.0338,0.0276,6.0,-36.31,17.5,157.5,-88.84,-41.78
46483,52.798203,-1.38553,144.17,5.79,4,255.91,22 / 24,6120914,2019-11-06 17:48:21:376,-0.7223,-1.8544,9.9573,0.0032,0.0113,9.8066,-0.0075,-0.0339,0.0048,5.13,-36.25,18.0,158.4,-88.83,-37.95
46484,52.798203,-1.38553,144.17,5.79,4,255.91,22 / 24,6121013,2019-11-06 17:48:21:475,-0.2826,-1.197,9.54,0.0049,0.0016,9.8066,0.0194,-0.0188,-0.0269,5.56,-36.56,17.88,161.93,-88.78,-37.24
46485,52.798203,-1.38553,144.17,5.79,4,255.91,22 / 24,6121113,2019-11-06 17:48:21:575,-1.817,-2.4999,9.8123,0.0146,-0.0046,9.8066,-0.0174,-0.1112,0.0666,5.44,-35.62,17.69,161.85,-88.84,-34.37
46486,52.798203,-1.38553,144.17,5.79,4,255.91,22 / 24,6121214,2019-11-06 17:48:21:676,0.6677,-2.8139,9.3708,0.0025,-0.0005,9.8066,-0.0136,0.0548,-0.0462,5.81,-36.25,17.69,162.74,-88.82,-36.35
46487,52.798203,-1.38553,144.17,5.79,4,255.91,22 / 24,6121314,2019-11-06 17:48:21:776,-0.3621,-0.96,10.204,0.0212,0.002,9.8066,0.0395,-0.1128,0.0556,5.81,-36.87,17.63,165.86,-88.82,-33.14
46488,52.798203,-1.38553,144.17,5.79,4,255.91,22 / 24,6121413,2019-11-06 17:48:21:875,0.3914,-2.5406,9.8141,-0.0146,0.0075,9.8066,0.041,0.0535,-0.0886,5.56,-37.0,18.13,162.14,-88.85,-36.98
46489,52.798203,-1.38553,144.17,5.79,4,255.91,22 / 24,6121514,2019-11-06 17:48:21:976,-0.7852,-0.9652,9.619,0.019,-0.0056,9.8066,-0.034,-0.0227,0.0161,6.25,-36.69,16.81,161.22,-88.9,-38.94
46490,52.798203,-1.38553,144.17,5.79,4,255.91,22 / 24,6121614,2019-11-06 17:48:22:076,-1.853,-1.7498,9.675,-0.0171,-0.002,9.8066,0.0246,0.1408,-0.0875,5.5,-37.12,17.63,162.08,-88.92,-37.0
46491,52.798203,-1.38553,144.17,5.79,4,255.91,22 / 24,6121714,2019-11-06 17:48:22:176,-0.6891,-1.2683,9.4747,0.0044,-0.008,9.8066,-0.0076,0.0397,0.0053,6.13,-37.0,17.5,161.0,-89.02,-38.05
46492,52.798203,-1.38553,144.17,5.79,4,255.91,22 / 24,6121814,2019-11-06 17:48:22:276,-1.3446,-1.5396,9.8648,0.0023,0.0023,9.8066,-0.0509,0.0277,0.0253,6.25,-36.56,17.81,159.84,-88.99,-39.27
46493,52.798203,-1.38553,144.17,5.79,4,255.91,23 / 25,6121914,2019-11-06 17:48:22:376,0.0806,-0.9326,9.2997,-0.0093,0.0003,9.8066,-0.0632,0.1564,-0.0931,5.5,-36.94,17.69,161.8,-88.96,-37.27
46494,52.798203,-1.38553,144.17,5.79,4,255.91,23 / 25,6122014,2019-11-06 17:48:22:476,-0.5891,-0.9461,9.7577,0.002,-0.0048,9.8065,-0.0186,-0.0567,0.0843,5.63,-36.37,17.94,167.13,-88.95,-31.74
46495,52.798203,-1.38553,144.17,5.79,4,255.91,23 / 25,6122113,2019-11-06 17:48:22:575,2.0603,-3.2554,9.4693,-0.0373,0.0214,9.8066,0.0287,0.328,-0.1869,6.69,-36.81,17.81,164.32,-88.92,-37.48
46496,52.798203,-1.38553,144.17,5.79,4,255.91,23 / 25,6122213,2019-11-06 17:48:22:675,-3.4768,-1.1185,9.9613,-0.0019,0.0104,9.8066,0.041,-0.065,-0.0359,5.88,-36.87,17.81,165.69,-89.11,-33.17
46497,52.798203,-1.38553,144.17,5.79,4,255.91,23 / 25,6122314,2019-11-06 17:48:22:776,0.4426,-1.8313,9.6679,-0.0382,-0.0076,9.8065,-0.0356,0.399,-0.1532,6.19,-36.12,17.69,166.06,-89.12,-32.78
46498,52.798203,-1.38553,144.17,5.79,4,255.91,23 / 25,6122414,2019-11-06 17:48:22:876,-3.1782,-1.0403,9.4909,-0.0132,0.0073,9.8066,-0.0072,-0.0407,-0.0172,6.56,-36.56,17.31,170.57,-89.06,-32.12
46499,52.798203,-1.38553,144.17,5.79,4,255.91,23 / 25,6122514,2019-11-06 17:48:22:976,0.9452,-3.7972,10.3856,-0.0397,0.0184,9.8065,0.0968,0.2455,-0.1677,6.19,-36.37,17.44,166.72,-89.1,-33.13
46500,52.798203,-1.38553,144.17,5.79,4,255.91,23 / 25,6122614,2019-11-06 17:48:23:076,-0.2464,-1.1847,9.6083,0.0043,0.0178,9.8066,0.1232,-0.143,-0.0023,6.25,-36.75,17.25,169.21,-89.25,-30.52
46501,52.798203,-1.38553,144.17,5.79,4,255.91,23 / 25,6122714,2019-11-06 17:48:23:176,1.3236,-1.6275,9.6529,-0.0119,-0.0245,9.8065,-0.0432,0.086,0.0293,6.06,-36.25,17.56,164.31,-89.33,-34.47
46502,52.798203,-1.38553,144.17,5.79,4,255.91,23 / 25,6122814,2019-11-06 17:48:23:276,-1.8108,-0.4374,10.0312,0.0237,-0.016,9.8066,0.0611,-0.229,0.1753,6.19,-36.69,17.31,156.35,-89.28,-43.69
46503,52.798203,-1.38553,144.17,5.79,4,255.91,22 / 23,6122914,2019-11-06 17:48:23:376,-2.1162,-1.6947,10.1878,-0.0363,0.0,9.8065,-0.0168,0.0632,-0.072,6.31,-36.44,17.38,141.96,-89.38,-58.24
46504,52.798203,-1.38553,144.17,5.79,4,255.91,22 / 23,6123014,2019-11-06 17:48:23:476,1.1344,-1.8391,9.6621,0.0229,0.0113,9.8066,0.0019,-0.2126,0.0877,6.38,-36.06,17.38,146.63,-89.36,-53.51
46505,52.798203,-1.38553,144.17,5.79,4,255.91,22 / 23,6123114,2019-11-06 17:48:23:576,0.1825,-0.9528,10.1061,0.0222,0.0175,9.8066,0.0182,-0.1267,0.0792,5.69,-36.81,17.25,162.39,-89.2,-37.54
46506,52.798203,-1.38553,144.17,5.79,4,255.91,22 / 23,6123213,2019-11-06 17:48:23:675,-0.2141,-0.0146,10.023,0.0198,-0.0061,9.8066,0.1012,-0.1634,0.0767,6.06,-35.75,17.0,158.13,-89.2,-41.9
46507,52.798203,-1.38553,144.17,5.79,4,255.91,22 / 23,6123313,2019-11-06 17:48:23:775,-0.9312,-0.4893,9.4581,-0.0126,-0.0133,9.8065,-0.049,-0.0081,-0.0014,5.63,-36.37,16.69,149.54,-89.39,-50.52
46508,52.798203,-1.38553,144.17,5.79,4,255.91,22 / 23,6123414,2019-11-06 17:48:23:876,-1.1336,-0.2098,9.719,0.0124,-0.0031,9.8066,-0.0142,-0.1606,0.1204,6.13,-36.81,17.38,153.77,-89.41,-46.21
46509,52.798203,-1.38553,144.17,5.79,4,255.91,22 / 23,6123514,2019-11-06 17:48:23:976,0.9079,0.2934,9.4981,0.0043,0.0003,9.8066,-0.0077,0.0252,-0.0366,6.25,-36.12,17.44,150.21,-89.31,-49.91
46510,52.798203,-1.38553,144.17,5.79,4,255.91,22 / 23,6123614,2019-11-06 17:48:24:076,0.0736,-0.7219,9.8565,-0.0022,0.0019,9.8066,0.0485,-0.0894,-0.0462,6.06,-36.25,17.31,151.29,-89.33,-48.79
46511,52.798203,-1.38553,144.17,5.79,4,255.91,22 / 23,6123713,2019-11-06 17:48:24:175,-0.2714,0.4273,10.0396,0.0175,-0.0118,9.8066,-0.0408,-0.0984,0.1431,6.13,-36.56,17.63,153.68,-89.47,-45.22
46512,52.798203,-1.38553,144.17,5.79,4,255.91,22 / 23,6123814,2019-11-06 17:48:24:276,0.9885,-0.9468,9.6996,0.0183,-0.0082,9.8066,-0.0073,-0.0008,0.039,6.88,-36.94,17.5,153.22,-89.21,-48.71
46513,52.798203,-1.38553,144.17,5.79,4,255.91,22 / 24,6123914,2019-11-06 17:48:24:376,0.2422,0.1567,9.5883,0.0085,-0.0036,9.8066,-0.0695,-0.143,0.0577,6.38,-36.87,17.5,156.67,-89.28,-42.32
46514,52.798203,-1.38553,144.17,5.79,4,255.91,22 / 24,6124014,2019-11-06 17:48:24:476,0.786,-0.7228,9.6374,0.0082,-0.015,9.8065,-0.0503,0.0761,0.0645,6.25,-36.75,17.19,159.52,-89.28,-40.43
46515,52.798203,-1.38553,144.17,5.79,4,255.91,22 / 24,6124114,2019-11-06 17:48:24:576,-0.3715,-1.5307,10.4172,0.0046,0.001,9.8066,0.0782,-0.0372,-0.0293,5.88,-36.37,17.69,152.83,-89.22,-46.28
46516,52.798203,-1.38553,144.17,5.79,4,255.91,22 / 24,6124214,2019-11-06 17:48:24:676,-0.4899,0.6144,9.1199,-0.0106,0.0109,9.8066,0.0393,0.0962,-0.0698,6.25,-36.69,17.88,149.36,-89.37,-49.71
46517,52.798203,-1.38553,144.17,5.79,4,255.91,22 / 24,6124313,2019-11-06 17:48:24:775,1.0203,1.4602,9.2386,-0.0021,0.0094,9.8065,-0.0326,0.1228,-0.0228,6.31,-36.56,16.94,148.97,-89.34,-51.17
46518,52.798203,-1.38553,144.17,5.79,4,255.91,22 / 24,6124413,2019-11-06 17:48:24:875,-0.9178,-0.6016,10.7304,-0.0077,0.0107,9.8066,-0.0074,0.1289,-0.0592,6.38,-36.44,18.06,155.92,-89.27,-43.08
46519,52.798203,-1.38553,144.17,5.79,4,255.91,22 / 24,6124514,2019-11-06 17:48:24:976,1.241,0.5828,9.2618,-0.0129,-0.0206,9.8066,-0.0906,0.1161,-0.0132,5.88,-36.94,17.88,158.39,-89.26,-40.58
46520,52.798203,-1.38553,144.17,5.79,4,255.91,22 / 24,6124614,2019-11-06 17:48:25:076,-0.97,0.3439,9.51,0.0039,-0.0209,9.8065,-0.0164,0.0675,0.1104,5.81,-35.69,17.0,154.83,-89.33,-45.18
46521,52.798203,-1.38553,144.17,5.79,4,255.91,22 / 24,6124714,2019-11-06 17:48:25:176,-0.0398,-1.0384,9.7443,-0.0345,0.0096,9.8065,0.016,-0.0015,-0.1114,6.0,-36.06,17.63,142.92,-89.25,-56.37
46522,52.798203,-1.38553,144.17,5.79,4,255.91,22 / 24,6124814,2019-11-06 17:48:25:276,1.858,0.0469,9.5412,0.0202,-0.0064,9.8066,0.0554,-0.1189,0.1378,6.06,-36.5,16.94,146.24,-89.31,-53.97
46523,52.798203,-1.38553,144.17,5.79,4,255.91,22 / 23,6124914,2019-11-06 17:48:25:376,-0.137,0.0185,9.4662,-0.0031,0.0016,9.8066,-0.0071,-0.1083,-0.0452,5.94,-36.94,18.13,135.41,-89.28,-64.01
46524,52.798203,-1.38553,144.17,5.79,4,255.91,22 / 23,6125013,2019-11-06 17:48:25:475,1.7439,0.133,9.6862,-0.0072,-0.0188,9.8065,-0.0219,-0.0229,-0.0221,6.25,-36.62,17.25,137.8,-89.4,-62.46
46525,52.798203,-1.38553,144.17,5.79,4,255.91,22 / 23,6125113,2019-11-06 17:48:25:575,-0.1565,0.3092,10.1171,0.0264,0.0045,9.8066,0.0469,-0.05,0.0432,6.25,-36.37,17.38,129.55,-89.42,-70.78
46526,52.798203,-1.38553,144.17,5.79,4,255.91,22 / 23,6125214,2019-11-06 17:48:25:676,0.306,0.3314,9.6341,-0.0242,-0.0029,9.8066,0.0132,0.0598,-0.0933,6.38,-37.06,17.13,112.4,-89.32,-88.33
46527,52.798203,-1.38553,144.17,5.79,4,255.91,22 / 23,6125314,2019-11-06 17:48:25:776,0.3619,-0.3263,10.3911,-0.0039,0.0022,9.8066,0.0653,0.0774,-0.0123,6.13,-36.44,17.75,100.82,-89.39,-98.75
46528,52.798203,-1.38553,144.17,5.79,4,255.91,22 / 23,6125414,2019-11-06 17:48:25:876,0.339,-0.6577,9.5082,0.0055,-0.0103,9.8066,0.0493,-0.09,0.0381,5.81,-37.31,17.13,89.12,-89.34,-111.68
46529,52.798203,-1.38553,144.17,5.79,4,255.91,22 / 23,6125514,2019-11-06 17:48:25:976,0.5142,0.0552,9.6502,-0.0171,-0.0011,9.8065,-0.0286,-0.005,-0.0003,5.69,-36.75,17.56,79.61,-89.29,-120.19
46530,52.798203,-1.38553,144.17,5.79,4,255.91,22 / 23,6125614,2019-11-06 17:48:26:076,2.2556,0.5058,9.8776,0.0233,-0.0147,9.8066,0.0634,-0.154,0.0532,6.0,-36.62,17.75,77.46,-89.3,-122.31
46531,52.798203,-1.38553,144.17,5.79,4,255.91,22 / 23,6125714,2019-11-06 17:48:26:176,-1.2741,0.3613,10.0158,0.0231,-0.0147,9.8066,0.0008,-0.1861,0.1093,6.38,-37.12,16.56,59.43,-89.3,-141.24
46532,52.798203,-1.38553,144.17,5.79,4,255.91,22 / 23,6125814,2019-11-06 17:48:26:276,1.6581,-0.0646,9.5882,-0.0054,-0.0147,9.8066,-0.0198,0.1188,-0.0631,5.81,-36.87,17.69,50.56,-89.23,-149.03
46533,52.798023,-1.386615,143.36,11.01,4,254.2,22 / 23,6125915,2019-11-06 17:48:26:377,0.3527,-0.4703,9.8113,0.0067,-0.0104,9.8066,0.017,0.0278,0.0331,5.94,-36.69,18.31,43.28,-89.19,-156.24
46534,52.798023,-1.386615,143.36,11.01,4,254.2,22 / 23,6126014,2019-11-06 17:48:26:476,0.8564,0.6922,9.8805,0.0014,0.0025,9.8066,-0.0166,-0.0086,0.0467,5.69,-37.37,17.63,47.76,-89.14,-151.92
46535,52.798023,-1.386615,143.36,11.01,4,254.2,22 / 23,6126114,2019-11-06 17:48:26:576,-0.3946,0.6675,10.0993,-0.0015,0.0004,9.8066,0.0039,-0.0688,0.027,5.56,-36.56,18.31,50.98,-89.11,-148.8
46536,52.798023,-1.386615,143.36,11.01,4,254.2,22 / 23,6126214,2019-11-06 17:48:26:676,1.2612,0.9041,9.3001,-0.0106,0.0045,9.8066,0.01,0.1405,-0.1199,6.06,-36.44,18.0,56.47,-89.01,-143.54
46537,52.798023,-1.386615,143.36,11.01,4,254.2,22 / 23,6126314,2019-11-06 17:48:26:776,0.3825,0.0483,10.2195,-0.008,0.0151,9.8066,0.0412,-0.0336,-0.0403,5.38,-37.12,18.06,48.52,-89.11,-148.32
46538,52.798023,-1.386615,143.36,11.01,4,254.2,22 / 23,6126413,2019-11-06 17:48:26:875,-0.1769,0.7495,8.8615,0.0074,-0.0222,9.8065,-0.0922,0.1176,0.0575,5.38,-36.19,18.56,48.68,-89.08,-147.33
46539,52.798023,-1.386615,143.36,11.01,4,254.2,22 / 23,6126513,2019-11-06 17:48:26:975,-0.6025,0.1742,9.3778,-0.0001,-0.023,9.8065,-0.0469,-0.0103,0.0201,5.31,-37.37,17.69,45.5,-88.95,-151.52
46540,52.798023,-1.386615,143.36,11.01,4,254.2,22 / 23,6126613,2019-11-06 17:48:27:075,0.196,-0.1927,9.9013,0.004,0.0119,9.8066,-0.0285,0.016,-0.0247,5.81,-36.75,17.88,46.65,-89.05,-153.14
46541,52.798023,-1.386615,143.36,11.01,4,254.2,22 / 23,6126714,2019-11-06 17:48:27:176,0.2993,0.37,9.6565,0.002,0.0064,9.8065,0.0149,0.0211,0.0129,5.63,-37.44,17.94,50.94,-89.17,-148.76
46542,52.798023,-1.386615,143.36,11.01,4,254.2,22 / 23,6126814,2019-11-06 17:48:27:276,0.4107,0.8426,9.9946,-0.0081,-0.0271,9.8066,0.02,0.016,0.0328,5.69,-37.0,18.06,46.87,-89.03,-152.94
46543,52.798023,-1.386615,143.36,11.01,4,254.2,21 / 22,6126914,2019-11-06 17:48:27:376,1.14,1.0657,9.7231,-0.0157,-0.0176,9.8065,0.0339,0.1038,-0.0289,5.88,-36.5,18.25,48.29,-88.8,-151.85
46544,52.798023,-1.386615,143.36,11.01,4,254.2,21 / 22,6127014,2019-11-06 17:48:27:476,-0.256,0.1662,9.8078,-0.0046,-0.0128,9.8066,0.0339,-0.0684,0.0224,5.38,-37.5,17.75,41.42,-88.62,-155.92
46545,52.798023,-1.386615,143.36,11.01,4,254.2,21 / 22,6127114,2019-11-06 17:48:27:576,1.0887,0.589,10.0219,-0.0111,-0.0005,9.8066,0.0002,0.0802,-0.0456,5.69,-37.12,18.31,41.29,-88.47,-159.13
46546,52.798023,-1.386615,143.36,11.01,4,254.2,21 / 22,6127214,2019-11-06 17:48:27:676,-1.1869,0.6956,9.9054,-0.0007,0.0095,9.8065,0.0101,-0.0092,0.0073,5.38,-37.44,17.75,39.32,-88.44,-158.17
46547,52.798023,-1.386615,143.36,11.01,4,254.2,21 / 22,6127314,2019-11-06 17:48:27:776,0.4962,0.9343,10.4024,-0.0204,0.0037,9.8066,-0.0191,0.1254,-0.0457,4.75,-37.0,18.0,42.49,-88.47,-155.1
46548,52.798023,-1.386615,143.36,11.01,4,254.2,21 / 22,6127414,2019-11-06 17:48:27:876,-0.3411,2.1461,10.5157,0.0026,0.0105,9.8066,-0.024,-0.0109,0.0298,5.13,-36.94,17.56,47.26,-88.61,-150.29
46549,52.798023,-1.386615,143.36,11.01,4,254.2,21 / 22,6127514,2019-11-06 17:48:27:976,0.4395,0.4521,8.9797,-0.0135,0.002,9.8066,-0.0927,0.046,-0.0418,5.13,-36.94,17.88,52.3,-88.68,-145.3
46550,52.798023,-1.386615,143.36,11.01,4,254.2,21 / 22,6127614,2019-11-06 17:48:28:076,0.9993,0.4657,9.9961,0.0062,-0.0075,9.8065,-0.0426,-0.088,0.0536,5.44,-37.19,18.13,54.05,-88.8,-143.41
46551,52.798023,-1.386615,143.36,11.01,4,254.2,21 / 22,6127714,2019-11-06 17:48:28:176,0.518,0.3315,9.8814,0.0106,-0.0035,9.8066,0.0239,-0.0979,0.039,5.19,-37.62,17.69,52.62,-88.77,-144.9
46552,52.798023,-1.386615,143.36,11.01,4,254.2,21 / 22,6127814,2019-11-06 17:48:28:276,1.3158,1.344,9.7467,0.0206,-0.0138,9.8065,0.0893,-0.2024,0.0851,5.19,-36.69,18.25,48.11,-88.64,-149.43
46553,52.798023,-1.386615,143.36,11.01,4,254.2,21 / 23,6127914,2019-11-06 17:48:28:376,-1.5512,0.2129,10.0005,0.003,-0.0157,9.8066,0.0402,-0.0652,0.0224,5.19,-37.31,17.44,40.78,-88.42,-157.77
46554,52.798023,-1.386615,143.36,11.01,4,254.2,21 / 23,6128014,2019-11-06 17:48:28:476,0.2807,0.6687,10.6558,0.001,0.0054,9.8066,-0.0273,-0.015,-0.0083,5.38,-37.56,17.94,37.66,-88.43,-159.82
46555,52.798023,-1.386615,143.36,11.01,4,254.2,21 / 23,6128114,2019-11-06 17:48:28:576,0.4249,1.7192,8.964,0.0035,-0.0129,9.8066,-0.1119,0.0405,0.048,5.44,-36.75,17.5,38.18,-88.53,-159.15
46556,52.798023,-1.386615,143.36,11.01,4,254.2,21 / 23,6128214,2019-11-06 17:48:28:676,0.6132,-2.0585,10.3164,0.0083,-0.0392,9.8065,-0.0001,-0.0947,0.1166,5.19,-37.06,18.13,41.87,-88.53,-155.6
46557,52.798023,-1.386615,143.36,11.01,4,254.2,21 / 23,6128313,2019-11-06 17:48:28:775,1.6612,-0.9662,9.916,-0.007,-0.0235,9.8066,0.0111,0.0577,-0.0115,5.19,-36.31,18.06,35.01,-88.16,-162.56
46558,52.798023,-1.386615,143.36,11.01,4,254.2,21 / 23,6128413,2019-11-06 17:48:28:875,-0.413,1.0569,9.3226,0.015,0.0109,9.8065,0.0658,-0.1331,0.045,5.75,-36.94,17.25,38.25,-88.07,-163.65
46559,52.798023,-1.386615,143.36,11.01,4,254.2,21 / 23,6128513,2019-11-06 17:48:28:975,-0.0857,-0.2912,10.2048,-0.0135,-0.0033,9.8066,0.0204,0.0964,-0.0413,5.25,-37.0,17.44,33.21,-88.04,-165.44
46560,52.798023,-1.386615,143.36,11.01,4,254.2,21 / 23,6128614,2019-11-06 17:48:29:076,-0.8261,0.3929,10.466,0.007,0.0034,9.8066,0.0089,-0.098,0.0325,5.5,-36.56,17.81,32.64,-87.96,-167.96
46561,52.798023,-1.386615,143.36,11.01,4,254.2,21 / 23,6128714,2019-11-06 17:48:29:176,0.7468,-0.1602,9.2896,0.0,-0.0061,9.8066,-0.0121,0.132,-0.0892,5.81,-36.75,18.06,32.57,-87.98,-168.0
46562,52.798023,-1.386615,143.36,11.01,4,254.2,21 / 23,6128814,2019-11-06 17:48:29:276,0.9857,0.9477,9.744,0.0113,-0.0074,9.8066,0.0335,-0.0354,0.016,5.38,-37.12,17.69,31.58,-88.05,-165.99
46563,52.798023,-1.386615,143.36,11.01,4,254.2,21 / 23,6128914,2019-11-06 17:48:29:376,1.4336,0.7633,9.2656,-0.0099,-0.0092,9.8066,-0.094,0.1377,-0.0476,5.5,-36.19,18.19,32.72,-87.95,-167.84
46564,52.798023,-1.386615,143.36,11.01,4,254.2,21 / 23,6129013,2019-11-06 17:48:29:475,-0.3148,-0.7999,10.4593,0.0126,0.0204,9.8065,0.0825,0.0057,-0.0094,5.5,-36.37,17.44,34.72,-88.2,-166.79
46565,52.798023,-1.386615,143.36,11.01,4,254.2,21 / 23,6129113,2019-11-06 17:48:29:575,-0.8165,0.9808,9.2566,-0.0139,0.0115,9.8065,0.0727,0.1116,-0.1163,5.31,-35.5,18.06,27.79,-88.11,-169.4
46566,52.798023,-1.386615,143.36,11.01,4,254.2,21 / 23,6129213,2019-11-06 17:48:29:675,-1.1314,1.8308,9.6857,0.0074,0.0126,9.8066,-0.0434,0.0213,0.0065,4.81,-35.94,17.44,27.82,-88.21,-170.28
46567,52.798023,-1.386615,143.36,11.01,4,254.2,21 / 23,6129313,2019-11-06 17:48:29:775,1.1918,0.5855,10.6126,-0.0202,-0.015,9.8066,-0.063,0.2092,-0.1233,5.63,-35.25,17.44,31.01,-88.32,-170.12
46568,52.798023,-1.386615,143.36,11.01,4,254.2,21 / 23,6129414,2019-11-06 17:48:29:876,0.6171,0.7443,9.2727,0.0264,-0.0156,9.8066,-0.0572,-0.0908,0.0954,5.44,-35.94,16.81,25.29,-88.26,-172.62
46569,52.798023,-1.386615,143.36,11.01,4,254.2,21 / 23,6129514,2019-11-06 17:48:29:976,1.4876,-1.057,9.4226,-0.01,-0.0187,9.8066,0.0162,0.1959,-0.0674,5.5,-36.56,17.75,28.53,-88.21,-171.59
46570,52.798023,-1.386615,143.36,11.01,4,254.2,21 / 23,6129615,2019-11-06 17:48:30:077,-0.3271,0.085,10.0315,0.006,0.0032,9.8065,0.0417,-0.0234,-0.0047,5.5,-36.0,17.69,26.42,-88.12,-173.61
46571,52.798023,-1.386615,143.36,11.01,4,254.2,21 / 23,6129714,2019-11-06 17:48:30:176,-0.1069,1.6726,9.816,-0.0099,0.0163,9.8066,0.0049,0.112,-0.0437,5.75,-36.12,17.63,26.18,-88.15,-173.82
46572,52.798023,-1.386615,143.36,11.01,4,254.2,21 / 23,6129814,2019-11-06 17:48:30:276,-0.9255,-0.0103,9.9354,0.0052,-0.0165,9.8066,-0.0441,0.0095,-0.0101,5.63,-36.25,17.5,27.57,-88.19,-172.46
46573,52.798023,-1.386615,143.36,11.01,4,254.2,21 / 23,6129914,2019-11-06 17:48:30:376,0.2737,0.6101,9.8057,-0.0069,-0.0116,9.8066,-0.0257,0.1529,-0.0047,5.56,-36.25,17.69,26.86,-88.16,-173.16
46574,52.798023,-1.386615,143.36,11.01,4,254.2,21 / 23,6130014,2019-11-06 17:48:30:476,1.4335,0.8223,9.866,-0.0018,0.0017,9.8066,-0.0158,-0.0008,-0.0672,5.38,-36.06,17.63,23.56,-88.11,-173.43
46575,52.798023,-1.386615,143.36,11.01,4,254.2,21 / 23,6130114,2019-11-06 17:48:30:576,1.2447,-1.1953,9.9256,-0.0211,-0.0002,9.8066,0.0469,0.2272,-0.101,5.56,-36.5,17.75,27.73,-88.05,-172.44
46576,52.798023,-1.386615,143.36,11.01,4,254.2,21 / 23,6130214,2019-11-06 17:48:30:676,-0.5794,1.0606,9.7741,0.0084,-0.0198,9.8065,0.0032,-0.0662,0.0315,5.75,-36.81,17.88,23.89,-87.92,-176.2
46577,52.798023,-1.386615,143.36,11.01,4,254.2,21 / 23,6130314,2019-11-06 17:48:30:776,0.1291,-1.0719,9.8421,0.004,-0.0089,9.8066,-0.0196,0.0796,0.0252,6.19,-37.44,17.94,24.83,-87.84,-175.39
46578,52.798023,-1.386615,143.36,11.01,4,254.2,21 / 23,6130413,2019-11-06 17:48:30:875,-1.2825,-0.2621,10.1864,0.0205,0.0025,9.8066,0.0356,-0.1773,0.0301,5.44,-36.69,18.06,20.35,-87.85,-176.67
46579,52.798023,-1.386615,143.36,11.01,4,254.2,21 / 23,6130514,2019-11-06 17:48:30:976,0.9393,0.9428,9.4933,0.0057,0.0032,9.8066,0.0426,0.0927,0.0301,6.25,-36.5,17.63,24.99,-87.86,-175.17
46580,52.798023,-1.386615,143.36,11.01,4,254.2,21 / 23,6130614,2019-11-06 17:48:31:076,-0.0973,-1.9947,9.8285,-0.006,-0.0152,9.8065,0.0537,-0.0437,-0.0558,6.19,-36.25,18.5,23.88,-87.69,-175.35
46581,52.798023,-1.386615,143.36,11.01,4,254.2,21 / 23,6130713,2019-11-06 17:48:31:175,0.0533,0.7012,10.2563,-0.0001,-0.0036,9.8066,0.0489,-0.0192,0.0386,6.25,-36.75,18.63,22.25,-87.48,-177.07
46582,52.798023,-1.386615,143.36,11.01,4,254.2,21 / 23,6130816,2019-11-06 17:48:31:278,-0.7244,-0.8904,9.505,0.0077,0.0134,9.8066,-0.0559,-0.0826,0.0046,6.44,-36.5,18.44,24.68,-87.53,-175.73
46583,52.798023,-1.386615,143.36,11.01,4,254.2,22 / 23,6130913,2019-11-06 17:48:31:375,-0.7828,-0.8413,10.0478,-0.0085,-0.0046,9.8066,-0.0131,0.106,-0.0453,6.31,-36.5,18.0,26.5,-87.61,-173.98
46584,52.798023,-1.386615,143.36,11.01,4,254.2,22 / 23,6131013,2019-11-06 17:48:31:475,-0.9556,0.9877,9.9379,0.0092,-0.0195,9.8066,-0.0044,-0.0848,0.0561,6.5,-36.44,19.0,26.95,-87.54,-175.28
46585,52.798023,-1.386615,143.36,11.01,4,254.2,22 / 23,6131113,2019-11-06 17:48:31:575,-0.456,-1.3871,9.8939,-0.0068,-0.0084,9.8066,-0.0974,0.1002,-0.0206,5.5,-36.94,17.94,26.58,-87.5,-174.07
46586,52.798023,-1.386615,143.36,11.01,4,254.2,22 / 23,6131214,2019-11-06 17:48:31:676,0.4145,-2.1733,10.15,0.0048,0.0198,9.8066,0.0927,0.081,-0.069,6.0,-36.81,18.25,27.41,-87.6,-173.2
46587,52.798023,-1.386615,143.36,11.01,4,254.2,22 / 23,6131314,2019-11-06 17:48:31:776,0.7764,-0.8962,9.9754,-0.0258,0.0137,9.8066,0.0715,0.1633,-0.2027,6.13,-36.87,18.06,25.06,-87.45,-175.51
46588,52.798023,-1.386615,143.36,11.01,4,254.2,22 / 23,6131414,2019-11-06 17:48:31:876,-0.4718,0.8928,9.9212,0.0027,-0.0102,9.8066,-0.0117,0.0296,0.053,5.31,-36.81,18.5,20.1,-87.34,-176.38
46589,52.798023,-1.386615,143.36,11.01,4,254.2,22 / 23,6131514,2019-11-06 17:48:31:976,-0.6879,-0.9859,10.0492,-0.0063,-0.0104,9.8065,-0.0079,0.1228,-0.0407,5.88,-36.75,18.56,24.24,-87.24,-175.42
46590,52.798023,-1.386615,143.36,11.01,4,254.2,22 / 23,6131614,2019-11-06 17:48:32:076,-1.3667,-0.0254,10.6929,-0.0002,0.003,9.8066,-0.0751,-0.0422,0.0601,6.25,-37.06,18.19,25.99,-87.27,-174.8
46591,52.798023,-1.386615,143.36,11.01,4,254.2,22 / 23,6131714,2019-11-06 17:48:32:176,-0.8249,0.0612,9.5064,0.0006,-0.0092,9.8066,0.067,0.0838,0.0345,6.0,-36.37,18.06,28.22,-87.36,-172.61
46592,52.798023,-1.386615,143.36,11.01,4,254.2,22 / 23,6131813,2019-11-06 17:48:32:275,1.38,-0.3902,9.4159,-0.0249,0.0034,9.8066,-0.0672,0.1683,-0.1019,6.56,-37.0,17.69,32.08,-87.17,-172.08
46593,52.798023,-1.386615,143.36,11.01,4,254.2,21 / 23,6131914,2019-11-06 17:48:32:376,-0.594,0.3267,10.396,-0.0098,-0.0068,9.8066,-0.083,-0.0256,0.0448,5.75,-36.94,17.88,29.3,-87.29,-171.74
46594,52.798023,-1.386615,143.36,11.01,4,254.2,21 / 23,6132013,2019-11-06 17:48:32:475,1.0367,-0.6191,10.0266,-0.0068,-0.0007,9.8066,-0.0293,0.0835,-0.0474,6.25,-37.0,17.88,31.11,-87.41,-169.95
46595,52.798023,-1.386615,143.36,11.01,4,254.2,21 / 23,6132114,2019-11-06 17:48:32:576,0.2756,1.1215,9.7546,0.0004,-0.0131,9.8066,-0.0044,-0.0318,0.0456,6.25,-37.69,18.0,29.62,-87.47,-171.34
46596,52.798023,-1.386615,143.36,11.01,4,254.2,21 / 23,6132214,2019-11-06 17:48:32:676,-0.5384,-1.2324,9.7011,-0.0032,-0.0027,9.8066,-0.0084,-0.0228,-0.0379,6.31,-36.81,18.19,30.05,-87.39,-170.96
46597,52.798023,-1.386615,143.36,11.01,4,254.2,21 / 23,6132314,2019-11-06 17:48:32:776,0.8283,-0.2162,9.8037,0.0143,0.0047,9.8066,-0.0141,-0.0746,0.013,5.94,-37.31,17.44,30.47,-87.45,-171.65
46598,52.798023,-1.386615,143.36,11.01,4,254.2,21 / 23,6132414,2019-11-06 17:48:32:876,-0.7532,-0.481,10.4423,0.0105,0.0016,9.8066,0.0289,-0.0797,0.0269,6.38,-38.37,17.38,31.36,-87.58,-170.75
46599,52.798023,-1.386615,143.36,11.01,4,254.2,21 / 23,6132513,2019-11-06 17:48:32:975,-0.9323,-0.3702,9.8147,-0.0117,0.0163,9.8065,0.0243,0.118,-0.1322,6.13,-37.87,18.63,27.35,-87.55,-172.34
46600,52.798023,-1.386615,143.36,11.01,4,254.2,21 / 23,6132613,2019-11-06 17:48:33:075,-0.6138,0.3548,9.0993,0.0058,-0.0037,9.8066,-0.0546,0.0438,0.0403,5.88,-37.69,18.13,28.61,-87.53,-172.22
46601,52.798023,-1.386615,143.36,11.01,4,254.2,21 / 23,6132714,2019-11-06 17:48:33:176,-0.7291,-1.0887,10.7144,-0.0188,-0.0062,9.8066,-0.0911,0.136,-0.0446,5.5,-37.87,18.44,31.96,-87.57,-169.07
46602,52.798023,-1.386615,143.36,11.01,4,254.2,21 / 23,6132813,2019-11-06 17:48:33:275,-0.3363,-0.7878,10.1861,0.0062,-0.0047,9.8066,-0.0254,0.0335,0.0216,6.0,-37.87,18.69,29.81,-87.69,-169.93
46603,52.798023,-1.386615,143.36,11.01,4,254.2,22 / 24,6132913,2019-11-06 17:48:33:375,-0.9753,-0.0797,9.2431,-0.0039,0.0085,9.8066,0.0416,0.0978,-0.0171,5.5,-37.81,19.38,30.62,-87.73,-169.13
46604,52.798023,-1.386615,143.36,11.01,4,254.2,22 / 24,6133014,2019-11-06 17:48:33:476,0.897,-1.9243,10.0084,0.0025,0.0064,9.8066,-0.0638,-0.0138,0.1308,5.13,-37.87,19.31,24.02,-87.68,-172.56
46605,52.798023,-1.386615,143.36,11.01,4,254.2,22 / 24,6133114,2019-11-06 17:48:33:576,-0.9093,-0.6828,9.7606,-0.0048,0.0007,9.8066,0.0417,-0.0724,-0.0179,5.0,-37.62,19.38,26.97,-87.75,-169.76
46606,52.798023,-1.386615,143.36,11.01,4,254.2,22 / 24,6133214,2019-11-06 17:48:33:676,0.3222,-1.0997,9.9788,0.0017,0.0158,9.8066,0.0374,0.0693,0.0032,5.63,-37.44,19.38,28.81,-87.69,-170.8
46607,52.798023,-1.386615,143.36,11.01,4,254.2,22 / 24,6133313,2019-11-06 17:48:33:775,0.7145,-0.5153,9.1543,0.0017,-0.0098,9.8066,-0.0961,0.0615,0.0152,4.56,-36.81,20.0,26.5,-87.77,-169.34
46608,52.798023,-1.386615,143.36,11.01,4,254.2,22 / 24,6133413,2019-11-06 17:48:33:875,0.0469,-0.6313,8.752,-0.0019,-0.0237,9.8066,-0.0872,0.1665,0.0224,5.06,-37.06,19.69,27.49,-87.75,-168.43
46609,52.798023,-1.386615,143.36,11.01,4,254.2,22 / 24,6133513,2019-11-06 17:48:33:975,1.0558,-1.4424,10.5461,-0.0143,0.0203,9.8066,0.0749,0.1688,-0.1494,4.88,-36.81,19.19,28.55,-87.78,-168.22
46610,52.798023,-1.386615,143.36,11.01,4,254.2,22 / 24,6133613,2019-11-06 17:48:34:075,-1.0787,0.0391,9.5182,-0.0158,0.0165,9.8066,0.1341,0.1467,-0.1007,5.0,-36.56,19.31,22.85,-87.72,-173.58
46611,52.798023,-1.386615,143.36,11.01,4,254.2,22 / 24,6133713,2019-11-06 17:48:34:175,0.4148,-0.6913,10.0904,-0.0133,-0.0281,9.8065,-0.1796,0.1761,-0.053,5.19,-36.25,19.13,22.35,-87.55,-174.12
46612,52.798023,-1.386615,143.36,11.01,4,254.2,22 / 24,6133813,2019-11-06 17:48:34:275,-1.0836,-1.2261,9.422,0.0013,-0.029,9.8066,-0.1353,0.1528,0.1321,4.5,-36.94,19.38,23.34,-87.79,-173.07
46613,52.798023,-1.386615,143.36,11.01,4,254.2,21 / 24,6133913,2019-11-06 17:48:34:375,0.9936,-1.8121,9.1611,-0.0425,0.0254,9.8065,0.0284,0.2066,-0.1754,4.81,-36.5,19.94,26.98,-87.75,-168.86
46614,52.798023,-1.386615,143.36,11.01,4,254.2,21 / 24,6134014,2019-11-06 17:48:34:476,-1.7692,-0.4288,10.1154,-0.0156,0.0214,9.8065,0.1101,0.0599,-0.0023,5.38,-36.37,19.19,26.21,-87.67,-170.44
46615,52.798023,-1.386615,143.36,11.01,4,254.2,21 / 24,6134113,2019-11-06 17:48:34:575,0.267,-0.808,9.3985,-0.0406,0.0068,9.8065,-0.0117,0.1678,-0.1682,5.56,-36.5,19.19,33.38,-87.55,-166.6
46616,52.798023,-1.386615,143.36,11.01,4,254.2,21 / 24,6134214,2019-11-06 17:48:34:676,-1.1365,0.2921,10.0628,0.0058,-0.0027,9.8066,0.1003,-0.1361,0.1223,5.44,-37.06,19.38,26.03,-87.51,-170.8
46617,52.798023,-1.386615,143.36,11.01,4,254.2,21 / 24,6134313,2019-11-06 17:48:34:775,-0.5621,-1.6533,9.9014,-0.0167,-0.02,9.8066,-0.088,0.1953,-0.1487,5.31,-36.44,19.94,26.01,-87.33,-170.09
46618,52.798023,-1.386615,143.36,11.01,4,254.2,21 / 24,6134413,2019-11-06 17:48:34:875,-2.2391,0.3344,10.2277,0.0075,0.0045,9.8066,-0.0164,-0.1954,0.0982,5.56,-36.5,19.5,26.27,-87.49,-172.36
46619,52.798023,-1.386615,143.36,11.01,4,254.2,21 / 24,6134513,2019-11-06 17:48:34:975,1.6921,-0.7591,9.3391,-0.0283,-0.0004,9.8066,-0.0711,0.2606,-0.0659,5.81,-37.19,18.69,32.0,-87.51,-168.0
46620,52.798023,-1.386615,143.36,11.01,4,254.2,21 / 24,6134614,2019-11-06 17:48:35:076,0.2893,-1.1543,10.2134,0.0112,-0.0178,9.8066,0.0218,-0.2195,0.119,5.69,-36.56,19.31,31.84,-87.52,-168.14
46621,52.798023,-1.386615,143.36,11.01,4,254.2,21 / 24,6134713,2019-11-06 17:48:35:175,1.8797,-1.2934,10.7139,-0.0322,-0.0086,9.8065,0.0391,0.1903,-0.1214,5.44,-36.44,19.13,27.91,-87.32,-169.16
46622,52.798023,-1.386615,143.36,11.01,4,254.2,21 / 24,6134814,2019-11-06 17:48:35:276,-1.2554,-0.5768,9.782,0.0064,-0.0111,9.8066,0.0131,-0.0851,0.0496,5.63,-36.56,18.56,29.42,-87.17,-170.72
46623,52.797756,-1.387992,142.46,13.49,4,250.8,23 / 24,6134913,2019-11-06 17:48:35:375,-1.6481,-1.475,10.2182,-0.0094,0.0048,9.8066,0.0383,-0.0345,0.0246,5.63,-37.0,19.5,26.8,-87.06,-172.28
46624,52.797756,-1.387992,142.46,13.49,4,250.8,23 / 24,6135013,2019-11-06 17:48:35:475,0.1129,-0.1676,10.521,0.0292,-0.0128,9.8065,-0.0019,-0.1892,0.1205,6.0,-36.94,19.25,24.29,-86.98,-175.58
46625,52.797756,-1.387992,142.46,13.49,4,250.8,23 / 24,6135114,2019-11-06 17:48:35:576,-1.1798,-0.1563,9.84,0.0132,-0.0028,9.8066,0.0406,-0.0949,0.0048,5.75,-36.94,19.75,23.51,-87.01,-175.33
46626,52.797756,-1.387992,142.46,13.49,4,250.8,23 / 24,6135214,2019-11-06 17:48:35:676,0.2342,-0.8002,9.6871,0.0057,0.0061,9.8066,0.0067,-0.0215,-0.0578,5.81,-36.37,19.0,23.43,-87.03,-176.26
46627,52.797756,-1.387992,142.46,13.49,4,250.8,23 / 24,6135314,2019-11-06 17:48:35:776,-1.8265,-0.7014,9.2628,0.009,0.0031,9.8066,-0.0352,-0.1196,0.1076,5.19,-36.62,18.75,18.55,-87.1,-177.96
46628,52.797756,-1.387992,142.46,13.49,4,250.8,23 / 24,6135413,2019-11-06 17:48:35:875,1.684,-0.4883,10.1268,0.0276,0.0016,9.8066,-0.0489,-0.1404,0.1354,5.56,-36.44,18.69,24.0,-87.27,-175.55
46629,52.797756,-1.387992,142.46,13.49,4,250.8,23 / 24,6135514,2019-11-06 17:48:35:976,-0.5458,-1.0714,10.9236,0.0111,-0.0028,9.8066,0.001,-0.1464,0.0968,4.94,-37.06,18.94,20.27,-87.42,-176.18
46630,52.797756,-1.387992,142.46,13.49,4,250.8,23 / 24,6135614,2019-11-06 17:48:36:076,0.4836,-0.3375,8.9432,0.0045,-0.0101,9.8066,-0.0282,0.0081,0.0238,5.19,-37.0,18.88,22.18,-87.32,-174.49
46631,52.797756,-1.387992,142.46,13.49,4,250.8,23 / 24,6135714,2019-11-06 17:48:36:176,-1.3245,-2.2105,11.4714,0.0006,0.0171,9.8066,0.2107,-0.1903,-0.0105,5.38,-36.62,19.06,22.94,-87.24,-173.85
46632,52.797756,-1.387992,142.46,13.49,4,250.8,23 / 24,6135813,2019-11-06 17:48:36:275,1.3602,-2.6011,10.7806,-0.0008,0.0196,9.8065,0.0755,-0.1492,-0.0576,5.31,-37.44,19.25,21.46,-86.92,-175.43
46633,52.797756,-1.387992,142.46,13.49,4,250.8,23 / 24,6135914,2019-11-06 17:48:36:376,-3.2198,-0.3714,10.2836,0.05,-0.0504,9.8064,-0.0832,-0.2949,0.314,5.19,-36.81,18.94,20.28,-86.93,-176.5
46634,52.797756,-1.387992,142.46,13.49,4,250.8,23 / 24,6136014,2019-11-06 17:48:36:476,0.5597,-0.266,8.7839,0.0251,-0.0031,9.8065,0.1176,-0.0324,-0.0067,5.5,-37.06,19.56,27.63,-86.99,-171.58
46635,52.797756,-1.387992,142.46,13.49,4,250.8,23 / 24,6136116,2019-11-06 17:48:36:578,-1.154,0.4036,8.4152,0.0068,0.0012,9.8066,-0.0671,-0.1211,-0.0029,5.31,-36.56,19.0,19.99,-86.87,-176.79
46636,52.797756,-1.387992,142.46,13.49,4,250.8,23 / 24,6136213,2019-11-06 17:48:36:675,0.7428,-1.3694,10.8503,0.0253,-0.0203,9.8066,-0.0746,-0.0835,0.1488,5.25,-36.75,19.06,16.06,-86.93,179.69
46637,52.797756,-1.387992,142.46,13.49,4,250.8,23 / 24,6136313,2019-11-06 17:48:36:775,-1.2461,0.7438,8.9298,-0.0009,-0.0274,9.8066,-0.0326,-0.0374,0.0042,5.75,-36.06,18.81,22.32,-86.93,-177.33
46638,52.797756,-1.387992,142.46,13.49,4,250.8,23 / 24,6136414,2019-11-06 17:48:36:876,-1.128,-1.8906,9.4533,0.0037,-0.0156,9.8066,0.1096,-0.0744,0.0129,5.88,-37.0,19.13,21.76,-86.93,-177.9
46639,52.797756,-1.387992,142.46,13.49,4,250.8,23 / 24,6136513,2019-11-06 17:48:36:975,-0.3324,-0.7461,10.2339,-0.0086,0.0108,9.8066,0.1014,-0.0361,-0.0274,5.63,-36.75,19.06,21.18,-86.68,-178.61
46640,52.797756,-1.387992,142.46,13.49,4,250.8,23 / 24,6136613,2019-11-06 17:48:37:075,-0.7897,-1.1048,10.1864,-0.0091,0.0034,9.8066,-0.0566,-0.0023,-0.07,5.75,-37.0,18.75,20.58,-86.54,-179.23
46641,52.797756,-1.387992,142.46,13.49,4,250.8,23 / 24,6136713,2019-11-06 17:48:37:175,0.0999,-1.2751,10.4446,0.0181,-0.0014,9.8065,0.017,-0.0156,0.0889,6.0,-36.94,18.88,20.34,-86.65,-179.38
46642,52.797756,-1.387992,142.46,13.49,4,250.8,23 / 24,6136813,2019-11-06 17:48:37:275,-0.5945,0.5317,9.0791,0.0137,0.0019,9.8066,0.0415,-0.0734,0.0283,6.19,-37.12,19.13,21.99,-86.63,-177.91
46643,52.797756,-1.387992,142.46,13.49,4,250.8,23 / 24,6136914,2019-11-06 17:48:37:376,-1.04,-0.42,10.4335,-0.0063,0.0233,9.8065,0.067,-0.1712,-0.0161,5.31,-36.81,19.25,18.8,-86.62,-178.03
46644,52.797756,-1.387992,142.46,13.49,4,250.8,23 / 24,6137014,2019-11-06 17:48:37:476,0.0977,-0.7968,10.4027,0.0128,0.0047,9.8066,-0.0069,-0.0751,0.0463,5.75,-36.81,19.44,21.91,-86.7,-177.94
46645,52.797756,-1.387992,142.46,13.49,4,250.8,23 / 24,6137114,2019-11-06 17:48:37:576,-0.7277,0.1069,10.3633,-0.0167,-0.0014,9.8066,0.0157,-0.0891,0.0394,5.81,-36.81,18.94,21.02,-86.59,-178.81
46646,52.797756,-1.387992,142.46,13.49,4,250.8,23 / 24,6137214,2019-11-06 17:48:37:676,0.5983,-1.2472,9.8431,-0.0057,-0.0074,9.8066,0.0405,-0.1427,0.0566,5.63,-36.31,19.25,20.7,-86.47,-179.12
46647,52.797756,-1.387992,142.46,13.49,4,250.8,23 / 24,6137314,2019-11-06 17:48:37:776,0.3009,-0.7124,9.3144,-0.0144,0.0087,9.8066,-0.0345,-0.0025,-0.0146,5.94,-36.56,19.06,20.39,-86.49,-179.45
46648,52.797756,-1.387992,142.46,13.49,4,250.8,23 / 24,6137413,2019-11-06 17:48:37:875,0.812,-1.2963,10.5571,0.0109,0.0247,9.8066,-0.0727,-0.2064,0.0339,5.88,-36.44,18.63,22.4,-86.62,-177.49
46649,52.797756,-1.387992,142.46,13.49,4,250.8,23 / 24,6137513,2019-11-06 17:48:37:975,-2.0261,0.6562,9.6449,-0.0395,0.012,9.8065,0.0301,-0.1778,0.1573,5.5,-36.06,19.0,18.6,-86.51,179.03
46650,52.797756,-1.387992,142.46,13.49,4,250.8,23 / 24,6137613,2019-11-06 17:48:38:075,1.2935,-1.0801,9.4797,-0.0046,-0.0083,9.8066,-0.0091,-0.0351,-0.0448,5.44,-36.94,19.13,16.6,-86.42,179.91
46651,52.797756,-1.387992,142.46,13.49,4,250.8,23 / 24,6137713,2019-11-06 17:48:38:175,-0.8935,-0.1505,10.0476,-0.0057,0.0094,9.8066,0.0305,-0.0301,0.1124,5.94,-37.19,18.75,21.28,-86.53,-178.62
46652,52.797756,-1.387992,142.46,13.49,4,250.8,23 / 24,6137813,2019-11-06 17:48:38:275,0.4039,0.5761,9.4606,0.004,0.01,9.8066,0.0232,-0.0119,-0.0566,5.81,-37.0,18.81,19.59,-86.68,179.97
46653,52.797756,-1.387992,142.46,13.49,4,250.8,23 / 24,6137913,2019-11-06 17:48:38:375,-0.4803,0.1717,9.9004,-0.0029,-0.0067,9.8066,0.0207,-0.0139,0.0927,5.56,-36.56,18.94,21.51,-86.69,-178.3
46654,52.797756,-1.387992,142.46,13.49,4,250.8,23 / 24,6138014,2019-11-06 17:48:38:476,0.2533,0.9689,10.6452,-0.0002,0.0067,9.8066,0.0202,0.015,-0.0342,5.38,-36.62,19.75,15.53,-86.7,179.89
46655,52.797756,-1.387992,142.46,13.49,4,250.8,23 / 24,6138114,2019-11-06 17:48:38:576,-0.6476,1.0717,9.4351,-0.008,0.0118,9.8066,-0.0081,-0.0468,0.1596,5.75,-36.19,18.88,21.56,-86.58,-178.26
46656,52.797756,-1.387992,142.46,13.49,4,250.8,23 / 24,6138213,2019-11-06 17:48:38:675,0.1787,0.6114,9.9373,-0.0083,-0.0094,9.8066,-0.0013,-0.0234,0.0505,6.06,-36.44,18.94,19.3,-86.48,179.64
46657,52.797756,-1.387992,142.46,13.49,4,250.8,23 / 24,6138314,2019-11-06 17:48:38:776,-1.3285,-0.0833,10.8073,0.0128,0.0111,9.8066,0.0043,-0.1644,0.0849,5.75,-36.75,18.75,21.87,-86.6,-178.04
