,GPS LATITUDE (degrees),GPS LONGITUDE (degrees), GPS ALTITUDE (m),GPS SPEED (Kmh),GPS ACCURACY (m),GPS ORIENTATION (Â°), SATELLITES IN RANGE, TIME SINCE START (ms), DATE (YYYY-MO-DD HH-MI-SS_SSS),ACCELEROMETER X (m/s²) , ACCELEROMETER Y (m/s²), ACCELEROMETER Z (m/s²), GRAVITY X (m/s²), GRAVITY Y (m/s²), GRAVITY Z (m/s²), GYROSCOPE Yaw (rad/s), GYROSCOPE Pitch (rad/s), GYROSCOPE Roll (rad/s)
22569,47.249035,-1.676837,108.73,30.22,3.216,149.5,17 / 21,2256910,2019-08-09 20:51:45:648,-1.4591,0.1905,9.6292,-0.927,0.2633,9.7592,-0.0005,-0.039,0.0014
22570,47.249035,-1.676837,108.73,30.22,3.216,149.5,17 / 21,2257010,2019-08-09 20:51:45:748,-2.2474,0.0456,8.8941,-0.8844,0.2538,9.7634,-0.0022,0.0144,0.0171
22571,47.249035,-1.676837,108.73,30.22,3.216,149.5,17 / 21,2257110,2019-08-09 20:51:45:848,1.5863,0.1797,9.7028,-0.8995,0.2442,9.7623,-0.0115,-0.0674,-0.0034
22572,47.249035,-1.676837,108.73,30.22,3.216,149.5,17 / 21,2257210,2019-08-09 20:51:45:948,0.8788,0.5694,10.3438,-0.9043,0.2397,9.7619,-0.0019,-0.049,0.023
22573,47.249035,-1.676837,108.73,30.22,3.216,149.5,17 / 21,2257310,2019-08-09 20:51:46:048,-1.1119,0.3712,9.9961,-0.895,0.2385,9.7628,0.0067,0.0461,-0.0243
22574,47.249035,-1.676837,108.73,30.22,3.216,149.5,17 / 21,2257410,2019-08-09 20:51:46:148,-0.9857,0.1929,8.8492,-0.8873,0.244,9.7634,0.0117,0.0095,-0.0056
22575,47.249035,-1.676837,108.73,30.22,3.216,149.5,17 / 21,2257511,2019-08-09 20:51:46:249,-0.7762,0.2575,9.6483,-0.8763,0.2543,9.7641,-0.0062,-0.0062,0.0239
22576,47.249035,-1.676837,108.73,30.22,3.216,149.5,17 / 21,2257611,2019-08-09 20:51:46:349,-1.7584,0.3982,9.9601,-0.8653,0.2437,9.7654,-0.013,-0.0005,0.0143
22577,47.249035,-1.676837,108.73,30.22,3.216,149.5,17 / 21,2257711,2019-08-09 20:51:46:449,0.5209,0.0516,9.4771,-0.8532,0.2247,9.7669,-0.0115,0.0344,-0.0018
22578,47.249035,-1.676837,108.73,30.22,3.216,149.5,17 / 21,2257810,2019-08-09 20:51:46:548,-0.8079,0.1611,10.2097,-0.8734,0.222,9.7652,0.0001,0.0247,0.0074
22579,47.249035,-1.676837,108.73,30.22,3.216,149.5,17 / 21,2257910,2019-08-09 20:51:46:648,-0.1561,0.6525,10.0547,-0.8916,0.2188,9.7636,-0.0125,-0.0142,0.0077
22580,47.249035,-1.676837,108.73,30.22,3.216,149.5,17 / 21,2258010,2019-08-09 20:51:46:748,-0.8348,-0.4889,9.7429,-0.8862,0.2184,9.7641,-0.013,0.0095,-0.0146
22581,47.249035,-1.676837,108.73,30.22,3.216,149.5,17 / 21,2258110,2019-08-09 20:51:46:848,-1.1562,-0.3638,10.2109,-0.8978,0.1928,9.7636,-0.0257,-0.0669,-0.0008
22582,47.249035,-1.676837,108.73,30.22,3.216,149.5,17 / 21,2258210,2019-08-09 20:51:46:948,-1.6099,-0.1663,9.2545,-0.8719,0.1818,9.7661,0.0011,-0.0066,0.015
22583,47.249035,-1.676837,108.73,30.22,3.216,149.5,17 / 21,2258310,2019-08-09 20:51:47:048,-0.5619,0.4837,9.7201,-0.868,0.1634,9.7668,-0.0307,0.0087,-0.0064
22584,47.249035,-1.676837,108.73,30.22,3.216,149.5,17 / 21,2258411,2019-08-09 20:51:47:149,-0.8594,-0.6391,9.1581,-0.8715,0.1306,9.767,-0.0173,-0.0413,0.0855
22585,47.249035,-1.676837,108.73,30.22,3.216,149.5,17 / 21,2258510,2019-08-09 20:51:47:248,-0.7456,-0.3608,9.455,-0.8514,0.114,9.769,0.0084,-0.0418,0.0295
22586,47.249035,-1.676837,108.73,30.22,3.216,149.5,17 / 22,2258610,2019-08-09 20:51:47:348,0.385,-0.2561,10.0056,-0.8484,0.1122,9.7692,0.0107,-0.0104,0.0008
22587,47.249035,-1.676837,108.73,30.22,3.216,149.5,17 / 22,2258710,2019-08-09 20:51:47:448,-0.1291,-0.3853,9.8488,-0.8388,0.1175,9.77,0.0118,-0.0234,-0.0306
22588,47.249035,-1.676837,108.73,30.22,3.216,149.5,17 / 22,2258810,2019-08-09 20:51:47:548,-1.0784,0.4383,10.1331,-0.8193,0.1293,9.7715,-0.0129,-0.0213,0.0137
22589,47.249035,-1.676837,108.73,30.22,3.216,149.5,17 / 22,2258910,2019-08-09 20:51:47:648,-1.5441,0.1043,9.4334,-0.8187,0.1155,9.7717,-0.0316,-0.0159,0.0134
22590,47.249035,-1.676837,108.73,30.22,3.216,149.5,17 / 22,2259011,2019-08-09 20:51:47:749,-2.6089,0.0576,9.2126,-0.8184,0.0966,9.772,-0.0142,-0.0221,0.0082
22591,47.249035,-1.676837,108.73,30.22,3.216,149.5,17 / 22,2259110,2019-08-09 20:51:47:848,-1.8631,-0.1238,8.8923,-0.7781,0.0846,9.7754,0.001,-0.0663,0.026
22592,47.249035,-1.676837,108.73,30.22,3.216,149.5,17 / 22,2259211,2019-08-09 20:51:47:949,0.6454,-0.3925,9.6471,-0.7871,0.0871,9.7746,0.015,0.0426,0.0044
22593,47.249035,-1.676837,108.73,30.22,3.216,149.5,17 / 22,2259310,2019-08-09 20:51:48:048,-0.3344,-0.2692,9.7584,-0.8006,0.1075,9.7733,0.0282,0.0442,0.0061
22594,47.249035,-1.676837,108.73,30.22,3.216,149.5,17 / 22,2259410,2019-08-09 20:51:48:148,-2.1337,-0.6637,9.8746,-0.7936,0.1338,9.7736,0.044,-0.0082,0.0481
22595,47.249035,-1.676837,108.73,30.22,3.216,149.5,17 / 22,2259510,2019-08-09 20:51:48:248,-2.1307,-0.2543,10.0655,-0.8178,0.1554,9.7713,0.0251,0.0038,0.0235
22596,47.249035,-1.676837,108.73,30.22,3.216,149.5,18 / 22,2259610,2019-08-09 20:51:48:348,-1.276,-0.058,9.4466,-0.7935,0.1708,9.773,0.0127,-0.0457,-0.0304
22597,47.249035,-1.676837,108.73,30.22,3.216,149.5,18 / 22,2259711,2019-08-09 20:51:48:449,-0.177,0.9357,10.1122,-0.8001,0.1836,9.7722,-0.0151,-0.04,0.0243
22598,47.249035,-1.676837,108.73,30.22,3.216,149.5,18 / 22,2259811,2019-08-09 20:51:48:549,-3.0776,-0.2303,9.7626,-0.7803,0.1842,9.7738,-0.0281,0.027,-0.0066
22599,47.249035,-1.676837,108.73,30.22,3.216,149.5,18 / 22,2259910,2019-08-09 20:51:48:648,-1.8045,-0.5051,9.5621,-0.7909,0.1489,9.7736,-0.0109,0.0065,-0.0193
22600,47.249035,-1.676837,108.73,30.22,3.216,149.5,18 / 22,2260010,2019-08-09 20:51:48:748,-1.0066,-0.4596,9.4203,-0.8107,0.1339,9.7722,-0.0088,-0.0252,0.0452
22601,47.249035,-1.676837,108.73,30.22,3.216,149.5,18 / 22,2260111,2019-08-09 20:51:48:849,0.1833,0.0145,9.6333,-0.8008,0.1306,9.773,0.0421,-0.0333,0.0622
22602,47.249035,-1.676837,108.73,30.22,3.216,149.5,18 / 22,2260211,2019-08-09 20:51:48:949,-1.5297,0.7298,10.2121,-0.7918,0.1414,9.7736,0.0304,-0.0144,-0.0102
22603,47.249035,-1.676837,108.73,30.22,3.216,149.5,18 / 22,2260310,2019-08-09 20:51:49:048,-1.2346,-0.0753,9.3903,-0.7873,0.1831,9.7733,0.0402,-0.0759,0.0425
22604,47.249035,-1.676837,108.73,30.22,3.216,149.5,18 / 22,2260411,2019-08-09 20:51:49:149,-1.4118,0.285,9.3251,-0.7892,0.2075,9.7726,0.0246,0.0467,-0.0292
22605,47.249035,-1.676837,108.73,30.22,3.216,149.5,18 / 22,2260510,2019-08-09 20:51:49:248,-1.7386,2.7032,11.4296,-0.8023,0.2533,9.7705,0.0033,-0.0312,0.0448
22606,47.249035,-1.676837,108.73,30.22,3.216,149.5,16 / 21,2260610,2019-08-09 20:51:49:348,-1.4866,1.2152,11.0866,-0.8315,0.2111,9.7691,-0.0734,-0.0972,0.0809
22607,47.249035,-1.676837,108.73,30.22,3.216,149.5,16 / 21,2260711,2019-08-09 20:51:49:449,-0.8139,0.4359,8.9785,-0.8029,0.1423,9.7727,-0.0625,0.0027,0.0183
22608,47.249035,-1.676837,108.73,30.22,3.216,149.5,16 / 21,2260811,2019-08-09 20:51:49:549,-1.1203,0.4233,8.6942,-0.7557,0.1239,9.7767,-0.0253,-0.0657,-0.0125
22609,47.249035,-1.676837,108.73,30.22,3.216,149.5,16 / 21,2260911,2019-08-09 20:51:49:649,0.7825,0.1683,9.5789,-0.7395,0.1257,9.7779,0.0123,0.0785,-0.0387
22610,47.249035,-1.676837,108.73,30.22,3.216,149.5,16 / 21,2261010,2019-08-09 20:51:49:748,0.1911,0.3551,9.9027,-0.7338,0.1353,9.7782,0.0009,-0.0773,0.0685
22611,47.249035,-1.676837,108.73,30.22,3.216,149.5,16 / 21,2261110,2019-08-09 20:51:49:848,1.6599,-0.4015,9.8416,-0.7903,0.1149,9.7741,-0.0081,-0.1051,0.0667
22612,47.249035,-1.676837,108.73,30.22,3.216,149.5,16 / 21,2261210,2019-08-09 20:51:49:948,-0.9857,-0.3608,9.8494,-0.7842,0.0997,9.7747,0.04,-0.1421,0.1097
22613,47.249035,-1.676837,108.73,30.22,3.216,149.5,16 / 21,2261310,2019-08-09 20:51:50:048,-1.8374,1.8694,9.8255,-0.7166,0.1072,9.7798,0.002,0.1301,-0.0198
22614,47.249035,-1.676837,108.73,30.22,3.216,149.5,16 / 21,2261411,2019-08-09 20:51:50:149,-1.0335,1.4702,10.2475,-0.7402,0.1215,9.7779,0.0272,-0.0305,0.0835
22615,47.249035,-1.676837,108.73,30.22,3.216,149.5,16 / 21,2261511,2019-08-09 20:51:50:249,0.0786,-1.212,9.4867,-0.7089,0.1301,9.7801,0.0187,-0.0297,0.074
22616,47.249035,-1.676837,108.73,30.22,3.216,149.5,16 / 21,2261612,2019-08-09 20:51:50:350,-0.3207,1.0344,9.8285,-0.7162,0.1662,9.7791,0.0097,-0.0034,0.0147
22617,47.249035,-1.676837,108.73,30.22,3.216,149.5,16 / 21,2261711,2019-08-09 20:51:50:449,-1.185,0.2617,10.3534,-0.7282,0.1648,9.7782,0.014,0.0141,0.0142
22618,47.249035,-1.676837,108.73,30.22,3.216,149.5,16 / 21,2261811,2019-08-09 20:51:50:549,0.0983,0.7764,10.4342,-0.7277,0.1803,9.778,-0.0124,0.0371,-0.0294
22619,47.249035,-1.676837,108.73,30.22,3.216,149.5,16 / 21,2261910,2019-08-09 20:51:50:648,-1.1203,-0.1477,9.4687,-0.7268,0.1866,9.7779,-0.009,-0.0266,0.0277
22620,47.249035,-1.676837,108.73,30.22,3.216,149.5,16 / 21,2262010,2019-08-09 20:51:50:748,-0.4182,0.4514,9.2389,-0.7004,0.17,9.7801,-0.0035,-0.0389,0.0043
22621,47.249035,-1.676837,108.73,30.22,3.216,149.5,16 / 21,2262110,2019-08-09 20:51:50:848,-1.3352,0.5376,9.5932,-0.69,0.1761,9.7808,-0.0033,-0.0874,0.0488
22622,47.249035,-1.676837,108.73,30.22,3.216,149.5,16 / 21,2262210,2019-08-09 20:51:50:948,1.4672,-0.0059,8.7188,-0.6858,0.1699,9.7812,-0.0048,0.1071,-0.0106
22623,47.249035,-1.676837,108.73,30.22,3.216,149.5,16 / 21,2262311,2019-08-09 20:51:51:049,0.7172,-0.1322,10.4348,-0.6974,0.1662,9.7804,-0.0052,-0.0036,0.0278
22624,47.249035,-1.676837,108.73,30.22,3.216,149.5,16 / 21,2262411,2019-08-09 20:51:51:149,-0.2099,0.3401,9.2658,-0.6945,0.1602,9.7807,-0.0063,-0.0494,-0.0052
22625,47.249035,-1.676837,108.73,30.22,3.216,149.5,16 / 21,2262511,2019-08-09 20:51:51:249,0.5885,0.2072,9.5878,-0.6831,0.1651,9.7814,0.0041,0.0152,-0.0107
22626,47.249035,-1.676837,108.73,30.22,3.216,149.5,17 / 20,2262610,2019-08-09 20:51:51:348,-2.0164,0.0384,10.2941,-0.6765,0.1653,9.7819,-0.0007,0.0345,-0.0311
22627,47.249035,-1.676837,108.73,30.22,3.216,149.5,17 / 20,2262711,2019-08-09 20:51:51:449,-1.4465,0.2826,9.8686,-0.6731,0.1725,9.782,-0.0118,-0.0314,-0.0133
22628,47.249035,-1.676837,108.73,30.22,3.216,149.5,17 / 20,2262810,2019-08-09 20:51:51:548,-1.2221,0.0235,9.7309,-0.6707,0.1624,9.7823,0.0009,0.0439,0.0098
22629,47.249035,-1.676837,108.73,30.22,3.216,149.5,17 / 20,2262910,2019-08-09 20:51:51:648,-0.851,-0.0765,9.6369,-0.6451,0.166,9.784,0.007,0.0149,-0.0029
22630,47.249035,-1.676837,108.73,30.22,3.216,149.5,17 / 20,2263010,2019-08-09 20:51:51:748,-1.8889,-0.1513,9.9548,-0.6424,0.1724,9.7841,-0.0059,0.0221,-0.0264
22631,47.249035,-1.676837,108.73,30.22,3.216,149.5,17 / 20,2263111,2019-08-09 20:51:51:849,-1.0024,1.0219,10.5509,-0.6634,0.1615,9.7829,0.0102,-0.0708,0.1091
22632,47.249035,-1.676837,108.73,30.22,3.216,149.5,17 / 20,2263211,2019-08-09 20:51:51:949,-1.7201,0.2336,9.3448,-0.5967,0.1698,9.787,0.0207,-0.0403,0.0187
22633,47.249035,-1.676837,108.73,30.22,3.216,149.5,17 / 20,2263310,2019-08-09 20:51:52:048,0.3042,0.3353,9.9685,-0.6032,0.1779,9.7865,0.0213,0.0512,-0.014
22634,47.249035,-1.676837,108.73,30.22,3.216,149.5,17 / 20,2263411,2019-08-09 20:51:52:149,-0.6654,0.1073,10.09,-0.5869,0.2023,9.787,0.0057,0.0854,-0.0455
22635,47.249035,-1.676837,108.73,30.22,3.216,149.5,17 / 20,2263510,2019-08-09 20:51:52:248,-2.0487,-0.2237,10.1756,-0.6424,0.2068,9.7834,0.0192,-0.0333,0.0629
22636,47.249035,-1.676837,108.73,30.22,3.216,149.5,17 / 22,2263611,2019-08-09 20:51:52:349,-2.0607,-0.2567,9.0611,-0.5899,0.2084,9.7867,-0.0135,-0.0543,0.0015
22637,47.249035,-1.676837,108.73,30.22,3.216,149.5,17 / 22,2263711,2019-08-09 20:51:52:449,0.4922,-0.1914,9.0276,-0.6128,0.2,9.7854,-0.0348,0.0899,-0.0465
22638,47.249035,-1.676837,108.73,30.22,3.216,149.5,17 / 22,2263811,2019-08-09 20:51:52:549,-0.8438,0.9638,10.8334,-0.6101,0.1825,9.786,-0.0342,-0.0358,0.0291
22639,47.249035,-1.676837,108.73,30.22,3.216,149.5,17 / 22,2263911,2019-08-09 20:51:52:649,0.0325,-0.866,10.0613,-0.6127,0.1501,9.7863,-0.0294,0.0232,0.0796
22640,47.249035,-1.676837,108.73,30.22,3.216,149.5,17 / 22,2264011,2019-08-09 20:51:52:749,0.5281,-0.4991,9.4663,-0.5933,0.1185,9.788,-0.001,-0.0101,0.0419
22641,47.249035,-1.676837,108.73,30.22,3.216,149.5,17 / 22,2264111,2019-08-09 20:51:52:849,-0.5014,0.0037,9.68,-0.5891,0.1135,9.7883,0.0083,0.0079,0.0014
22642,47.249035,-1.676837,108.73,30.22,3.216,149.5,17 / 22,2264210,2019-08-09 20:51:52:948,-0.8354,-0.1435,9.9739,-0.59,0.1178,9.7882,0.0163,0.0022,0.0156
22643,47.249035,-1.676837,108.73,30.22,3.216,149.5,17 / 22,2264311,2019-08-09 20:51:53:049,-3.1955,0.8213,10.369,-0.5653,0.1381,9.7894,0.0091,0.0562,0.0282
22644,47.249035,-1.676837,108.73,30.22,3.216,149.5,17 / 22,2264411,2019-08-09 20:51:53:149,-3.3775,0.218,9.7153,-0.6113,0.1445,9.7865,0.0083,-0.0286,-0.0165
22645,47.249035,-1.676837,108.73,30.22,3.216,149.5,17 / 22,2264510,2019-08-09 20:51:53:248,-3.0578,-0.0041,10.0487,-0.5979,0.156,9.7872,0.0144,0.0008,0.0328
22646,47.246895,-1.674824,107.19,31.76,3.216,145.3,16 / 19,2264610,2019-08-09 20:51:53:348,-1.2933,-0.216,8.9684,-0.5822,0.1477,9.7882,-0.0144,-0.0588,0.0307
22647,47.246895,-1.674824,107.19,31.76,3.216,145.3,16 / 19,2264710,2019-08-09 20:51:53:448,-0.757,0.2784,9.7303,-0.5644,0.1309,9.7895,-0.0078,0.0072,0.0152
22648,47.246895,-1.674824,107.19,31.76,3.216,145.3,16 / 19,2264810,2019-08-09 20:51:53:548,1.7557,-0.4392,9.5226,-0.5396,0.1309,9.7909,-0.0064,0.0299,-0.0143
22649,47.246895,-1.674824,107.19,31.76,3.216,145.3,16 / 19,2264910,2019-08-09 20:51:53:648,1.6133,0.1174,10.0481,-0.5698,0.1073,9.7895,-0.0371,0.0365,-0.0162
22650,47.246895,-1.674824,107.19,31.76,3.216,145.3,16 / 19,2265010,2019-08-09 20:51:53:748,1.1955,-0.1806,9.5029,-0.5854,0.082,9.7888,-0.0232,-0.0464,0.026
22651,47.246895,-1.674824,107.19,31.76,3.216,145.3,16 / 19,2265110,2019-08-09 20:51:53:848,-2.0289,-0.1364,9.4358,-0.5553,0.0589,9.7907,-0.0028,-0.0484,0.0116
22652,47.246895,-1.674824,107.19,31.76,3.216,145.3,16 / 19,2265210,2019-08-09 20:51:53:948,-0.3691,-0.1777,10.0852,-0.568,0.0628,9.79,0.002,0.0345,-0.0007
22653,47.246895,-1.674824,107.19,31.76,3.216,145.3,16 / 19,2265310,2019-08-09 20:51:54:048,0.9991,0.3491,10.4563,-0.5713,0.0625,9.7898,0.0085,0.0607,-0.0229
22654,47.246895,-1.674824,107.19,31.76,3.216,145.3,16 / 19,2265410,2019-08-09 20:51:54:148,-3.1704,-0.1232,9.3694,-0.5528,0.07,9.7908,0.0072,-0.0817,0.0306
22655,47.246895,-1.674824,107.19,31.76,3.216,145.3,16 / 19,2265510,2019-08-09 20:51:54:248,-2.974,0.0911,9.5322,-0.5434,0.0748,9.7913,-0.0006,0.0423,-0.005
22656,47.246895,-1.674824,107.19,31.76,3.216,145.3,18 / 21,2265610,2019-08-09 20:51:54:348,-2.2528,-0.0107,9.7453,-0.538,0.0719,9.7916,-0.0094,0.0269,0.0416
22657,47.246895,-1.674824,107.19,31.76,3.216,145.3,18 / 21,2265710,2019-08-09 20:51:54:448,-1.7434,-0.5583,10.0296,-0.514,0.0432,9.7931,-0.009,-0.0123,0.0012
22658,47.246895,-1.674824,107.19,31.76,3.216,145.3,18 / 21,2265810,2019-08-09 20:51:54:548,1.0584,-0.0783,9.8883,-0.5394,0.042,9.7917,-0.0005,-0.0141,0.0242
22659,47.246895,-1.674824,107.19,31.76,3.216,145.3,18 / 21,2265911,2019-08-09 20:51:54:649,-0.0747,0.1336,10.0386,-0.5101,0.029,9.7933,0.0101,0.0076,0.0092
22660,47.246895,-1.674824,107.19,31.76,3.216,145.3,18 / 21,2266011,2019-08-09 20:51:54:749,0.8986,0.634,10.0463,-0.5069,0.0441,9.7934,0.0069,0.1036,-0.0578
22661,47.246895,-1.674824,107.19,31.76,3.216,145.3,18 / 21,2266111,2019-08-09 20:51:54:849,-2.0205,0.0947,9.8321,-0.5412,0.0562,9.7915,0.0192,-0.0739,0.0233
22662,47.246895,-1.674824,107.19,31.76,3.216,145.3,18 / 21,2266211,2019-08-09 20:51:54:949,-0.9174,0.0336,8.7241,-0.5624,0.0726,9.7902,0.0228,-0.0146,-0.0114
22663,47.246895,-1.674824,107.19,31.76,3.216,145.3,18 / 21,2266310,2019-08-09 20:51:55:048,-1.5208,-0.0723,8.5182,-0.531,0.1,9.7918,0.0145,0.0126,0.0111
22664,47.246895,-1.674824,107.19,31.76,3.216,145.3,18 / 21,2266411,2019-08-09 20:51:55:149,0.7585,0.5358,9.8045,-0.5268,0.1133,9.7918,0.0042,0.009,-0.0121
22665,47.246895,-1.674824,107.19,31.76,3.216,145.3,18 / 21,2266511,2019-08-09 20:51:55:249,-1.6566,0.2324,9.8811,-0.5354,0.1235,9.7912,-0.0053,-0.0076,0.0056
22666,47.246895,-1.674824,107.19,31.76,3.216,145.3,16 / 20,2266610,2019-08-09 20:51:55:348,-1.9511,0.3778,10.0637,-0.5461,0.1169,9.7907,-0.0248,0.0367,-0.0021
22667,47.246895,-1.674824,107.19,31.76,3.216,145.3,16 / 20,2266710,2019-08-09 20:51:55:448,0.9435,0.4395,9.4831,-0.5627,0.0896,9.7901,-0.026,0.0246,0.0114
22668,47.246895,-1.674824,107.19,31.76,3.216,145.3,16 / 20,2266810,2019-08-09 20:51:55:548,-0.2093,0.3503,9.8686,-0.5201,0.0821,9.7925,-0.0068,0.0114,-0.0046
22669,47.246895,-1.674824,107.19,31.76,3.216,145.3,16 / 20,2266910,2019-08-09 20:51:55:648,0.1372,-0.0316,9.9218,-0.5286,0.0758,9.7921,-0.0061,0.0354,0.0104
22670,47.246895,-1.674824,107.19,31.76,3.216,145.3,16 / 20,2267010,2019-08-09 20:51:55:748,-2.4078,0.5418,10.5797,-0.5695,0.0705,9.7898,-0.014,0.0299,-0.0207
22671,47.246895,-1.674824,107.19,31.76,3.216,145.3,16 / 20,2267110,2019-08-09 20:51:55:848,-1.677,-0.1226,9.3993,-0.5555,0.0732,9.7906,0.008,-0.0147,0.0172
22672,47.246895,-1.674824,107.19,31.76,3.216,145.3,16 / 20,2267210,2019-08-09 20:51:55:948,-0.2458,-0.1459,9.2736,-0.557,0.078,9.7905,0.0343,-0.0162,-0.0088
22673,47.246895,-1.674824,107.19,31.76,3.216,145.3,16 / 20,2267310,2019-08-09 20:51:56:048,-0.2321,0.5729,9.7094,-0.552,0.1268,9.7903,0.0213,0.0452,-0.0017
22674,47.246895,-1.674824,107.19,31.76,3.216,145.3,16 / 20,2267411,2019-08-09 20:51:56:149,-0.28,0.2569,9.932,-0.538,0.1357,9.7909,0.0045,-0.0168,0.0066
22675,47.246895,-1.674824,107.19,31.76,3.216,145.3,16 / 20,2267511,2019-08-09 20:51:56:249,0.227,0.2108,9.7728,-0.5601,0.1454,9.7896,0.0014,-0.0112,0.0152
22676,47.246895,-1.674824,107.19,31.76,3.216,145.3,18 / 22,2267610,2019-08-09 20:51:56:348,-1.6716,0.8507,9.7267,-0.5694,0.1393,9.7891,-0.0214,0.0118,-0.0177
22677,47.246895,-1.674824,107.19,31.76,3.216,145.3,18 / 22,2267710,2019-08-09 20:51:56:448,-0.599,-0.1471,9.0689,-0.5329,0.1284,9.7913,-0.0031,-0.0016,0.0241
22678,47.246895,-1.674824,107.19,31.76,3.216,145.3,18 / 22,2267811,2019-08-09 20:51:56:549,0.7771,0.0378,9.5717,-0.5409,0.1138,9.7911,-0.0256,-0.015,0.0205
22679,47.246895,-1.674824,107.19,31.76,3.216,145.3,18 / 22,2267911,2019-08-09 20:51:56:649,-1.923,0.3521,9.2658,-0.5374,0.1008,9.7914,-0.0421,-0.0124,0.0115
22680,47.246895,-1.674824,107.19,31.76,3.216,145.3,18 / 22,2268010,2019-08-09 20:51:56:748,-1.0832,0.3419,10.0392,-0.5452,0.0591,9.7913,-0.01,0.0144,-0.0016
22681,47.246895,-1.674824,107.19,31.76,3.216,145.3,18 / 22,2268110,2019-08-09 20:51:56:848,-0.9198,0.0941,10.1319,-0.5512,0.0575,9.791,-0.0027,0.0432,0.0098
22682,47.246895,-1.674824,107.19,31.76,3.216,145.3,18 / 22,2268210,2019-08-09 20:51:56:948,-0.3997,-0.3159,9.6663,-0.5573,0.065,9.7906,0.0373,-0.0646,-0.0021
22683,47.246895,-1.674824,107.19,31.76,3.216,145.3,18 / 22,2268310,2019-08-09 20:51:57:048,-1.2017,0.0677,9.279,-0.536,0.0939,9.7915,0.0489,0.015,-0.0066
22684,47.246895,-1.674824,107.19,31.76,3.216,145.3,18 / 22,2268411,2019-08-09 20:51:57:149,-1.5285,0.2988,10.2858,-0.5523,0.1339,9.7902,-0.0013,-0.0101,0.0417
22685,47.246895,-1.674824,107.19,31.76,3.216,145.3,18 / 22,2268510,2019-08-09 20:51:57:248,-0.6008,0.2018,9.9937,-0.5519,0.1301,9.7902,-0.0166,0.0314,-0.0073
22686,47.246895,-1.674824,107.19,31.76,3.216,145.3,17 / 19,2268610,2019-08-09 20:51:57:348,0.8327,0.3006,9.8931,-0.5666,0.1244,9.7895,0.0024,-0.0003,0.0283
22687,47.246895,-1.674824,107.19,31.76,3.216,145.3,17 / 19,2268710,2019-08-09 20:51:57:448,0.9896,0.8746,10.834,-0.5584,0.127,9.7899,-0.0125,-0.0436,0.0074
22688,47.246895,-1.674824,107.19,31.76,3.216,145.3,17 / 19,2268810,2019-08-09 20:51:57:548,-2.0289,-0.4841,9.8781,-0.577,0.1068,9.7891,-0.0354,0.0534,-0.0238
22689,47.246895,-1.674824,107.19,31.76,3.216,145.3,17 / 19,2268910,2019-08-09 20:51:57:648,-1.0808,-0.0771,9.3604,-0.5454,0.0982,9.791,-0.0188,-0.0398,0.05
22690,47.246895,-1.674824,107.19,31.76,3.216,145.3,17 / 19,2269010,2019-08-09 20:51:57:748,-2.6706,-0.5787,9.3275,-0.5528,0.0769,9.7908,0.0022,0.0095,0.0561
22691,47.246895,-1.674824,107.19,31.76,3.216,145.3,17 / 19,2269110,2019-08-09 20:51:57:848,2.2657,0.1569,9.4681,-0.5339,0.072,9.7918,-0.0005,-0.0255,-0.0113
22692,47.246895,-1.674824,107.19,31.76,3.216,145.3,17 / 19,2269210,2019-08-09 20:51:57:948,0.7777,0.3227,10.5719,-0.5652,0.0848,9.79,0.0086,0.0597,-0.0043
22693,47.246895,-1.674824,107.19,31.76,3.216,145.3,17 / 19,2269310,2019-08-09 20:51:58:048,-0.9324,0.0097,9.7722,-0.5163,0.0927,9.7926,0.0273,0.004,0.0157
22694,47.246895,-1.674824,107.19,31.76,3.216,145.3,17 / 19,2269411,2019-08-09 20:51:58:149,-1.3256,0.1881,10.5707,-0.5485,0.1207,9.7906,-0.0062,-0.0766,-0.0048
22695,47.246895,-1.674824,107.19,31.76,3.216,145.3,17 / 19,2269511,2019-08-09 20:51:58:249,0.7436,0.2773,9.3394,-0.4953,0.1188,9.7934,0.0054,0.0807,0.0426
22696,47.246895,-1.674824,107.19,31.76,3.216,145.3,17 / 18,2269611,2019-08-09 20:51:58:349,1.217,-0.3279,9.5388,-0.5144,0.1114,9.7925,0.0018,0.0179,0.0409
22697,47.246895,-1.674824,107.19,31.76,3.216,145.3,17 / 18,2269710,2019-08-09 20:51:58:448,0.7184,-0.4482,9.0737,-0.5203,0.1024,9.7923,0.0011,-0.0489,0.0275
22698,47.246895,-1.674824,107.19,31.76,3.216,145.3,17 / 18,2269810,2019-08-09 20:51:58:548,-0.1172,-0.0125,9.5406,-0.5016,0.1021,9.7933,0.012,-0.0372,0.0272
22699,47.246895,-1.674824,107.19,31.76,3.216,145.3,17 / 18,2269910,2019-08-09 20:51:58:648,0.5317,0.0199,10.7879,-0.4941,0.1067,9.7936,0.0208,0.0707,0.0046
22700,47.246895,-1.674824,107.19,31.76,3.216,145.3,17 / 18,2270010,2019-08-09 20:51:58:748,-0.5068,-0.1836,9.4448,-0.4851,0.1403,9.7936,0.0343,0.0044,0.0033
22701,47.246895,-1.674824,107.19,31.76,3.216,145.3,17 / 18,2270110,2019-08-09 20:51:58:848,0.4533,0.5334,10.3019,-0.5061,0.1511,9.7924,0.0133,0.0352,-0.0054
22702,47.246895,-1.674824,107.19,31.76,3.216,145.3,17 / 18,2270210,2019-08-09 20:51:58:948,0.2396,0.0414,10.5168,-0.502,0.1531,9.7926,-0.0064,0.0089,-0.0019
22703,47.246895,-1.674824,107.19,31.76,3.216,145.3,17 / 18,2270310,2019-08-09 20:51:59:048,-1.0365,0.649,10.6772,-0.5034,0.1533,9.7925,-0.016,-0.061,0.0205
22704,47.246895,-1.674824,107.19,31.76,3.216,145.3,17 / 18,2270410,2019-08-09 20:51:59:148,-0.742,-0.3357,8.942,-0.4828,0.1358,9.7938,-0.0086,0.0456,0.0112
22705,47.246895,-1.674824,107.19,31.76,3.216,145.3,17 / 18,2270510,2019-08-09 20:51:59:248,0.0588,-0.2189,8.3447,-0.4794,0.1303,9.7941,-0.0085,-0.1045,0.0294
22706,47.246895,-1.674824,107.19,31.76,3.216,145.3,17 / 20,2270610,2019-08-09 20:51:59:348,1.1572,-0.0579,9.3634,-0.4484,0.1109,9.7958,-0.0165,-0.0595,0.032
22707,47.246895,-1.674824,107.19,31.76,3.216,145.3,17 / 20,2270710,2019-08-09 20:51:59:448,-1.0275,0.0989,9.8452,-0.4651,0.0921,9.7952,-0.0306,0.022,0.0107
22708,47.246895,-1.674824,107.19,31.76,3.216,145.3,17 / 20,2270810,2019-08-09 20:51:59:548,-2.7831,-0.2315,10.3151,-0.4559,0.0798,9.7957,0.0047,-0.0486,0.0644
22709,47.246895,-1.674824,107.19,31.76,3.216,145.3,17 / 20,2270910,2019-08-09 20:51:59:648,-2.7592,-0.1794,9.1431,-0.4574,0.0791,9.7957,0.0074,-0.0281,-0.0285
22710,47.246895,-1.674824,107.19,31.76,3.216,145.3,17 / 20,2271010,2019-08-09 20:51:59:748,1.645,-0.0047,9.9895,-0.4333,0.0916,9.7966,0.025,-0.0256,0.0511
22711,47.246895,-1.674824,107.19,31.76,3.216,145.3,17 / 20,2271111,2019-08-09 20:51:59:849,2.2322,0.9668,10.4109,-0.4415,0.0992,9.7962,0.0218,-0.0868,0.0916
22712,47.246895,-1.674824,107.19,31.76,3.216,145.3,17 / 20,2271210,2019-08-09 20:51:59:948,1.2206,0.2701,11.1411,-0.3932,0.111,9.7981,-0.0044,0.1007,-0.052
22713,47.246895,-1.674824,107.19,31.76,3.216,145.3,17 / 20,2271310,2019-08-09 20:52:00:048,-0.939,-0.3848,9.8386,-0.4435,0.1132,9.796,-0.0074,0.0348,-0.023
22714,47.246895,-1.674824,107.19,31.76,3.216,145.3,17 / 20,2271410,2019-08-09 20:52:00:148,-0.0759,-0.2752,8.7008,-0.443,0.1185,9.7959,0.0266,-0.0599,0.035
22715,47.246895,-1.674824,107.19,31.76,3.216,145.3,17 / 20,2271510,2019-08-09 20:52:00:248,-3.1147,-0.0951,8.2674,-0.3871,0.1371,9.798,0.0007,-0.0717,0.0053
22716,47.246895,-1.674824,107.19,31.76,3.216,145.3,17 / 21,2271610,2019-08-09 20:52:00:348,1.806,-0.5811,10.43,-0.4382,0.1298,9.796,0.029,0.0334,0.0484
22717,47.246895,-1.674824,107.19,31.76,3.216,145.3,17 / 21,2271711,2019-08-09 20:52:00:449,1.0674,-0.3255,9.3975,-0.4104,0.174,9.7965,0.0152,-0.0055,-0.0349
22718,47.246895,-1.674824,107.19,31.76,3.216,145.3,17 / 21,2271811,2019-08-09 20:52:00:549,1.7258,0.6088,10.0625,-0.4564,0.1869,9.7942,-0.0148,0.0756,-0.037
22719,47.246895,-1.674824,107.19,31.76,3.216,145.3,17 / 21,2271911,2019-08-09 20:52:00:649,-2.992,-0.0939,10.2325,-0.4783,0.1773,9.7934,-0.0128,-0.0523,0.017
22720,47.246895,-1.674824,107.19,31.76,3.216,145.3,17 / 21,2272011,2019-08-09 20:52:00:749,-0.9904,-0.0597,9.6292,-0.4745,0.1698,9.7937,-0.0035,0.0143,0.0043
22721,47.246895,-1.674824,107.19,31.76,3.216,145.3,17 / 21,2272111,2019-08-09 20:52:00:849,-2.6712,0.6843,10.5611,-0.4388,0.1863,9.7951,0.0278,0.079,0.0098
22722,47.246895,-1.674824,107.19,31.76,3.216,145.3,17 / 21,2272210,2019-08-09 20:52:00:948,0.5005,0.0899,10.0853,-0.4895,0.187,9.7926,-0.0048,-0.0704,0.0388
22723,47.246895,-1.674824,107.19,31.76,3.216,145.3,17 / 21,2272311,2019-08-09 20:52:01:049,-1.0347,0.4855,9.37,-0.4516,0.1604,9.7949,-0.0122,-0.0057,-0.0331
22724,47.246895,-1.674824,107.19,31.76,3.216,145.3,17 / 21,2272410,2019-08-09 20:52:01:148,-2.339,1.9137,10.4611,-0.4602,0.1658,9.7944,-0.0793,0.0729,-0.0555
22725,47.246895,-1.674824,107.19,31.76,3.216,145.3,17 / 21,2272510,2019-08-09 20:52:01:248,-0.3566,-1.5208,9.0384,-0.4286,0.0978,9.7968,-0.0219,-0.1422,0.0108
22726,47.246895,-1.674824,107.19,31.76,3.216,145.3,18 / 22,2272610,2019-08-09 20:52:01:348,3.288,-0.4111,9.9955,-0.475,0.0982,9.7946,-0.0385,-0.0957,-0.0742
22727,47.246895,-1.674824,107.19,31.76,3.216,145.3,18 / 22,2272710,2019-08-09 20:52:01:448,4.0805,-0.5978,8.8965,-0.4543,0.0734,9.7958,0.0024,0.0333,0.1058
22728,47.246895,-1.674824,107.19,31.76,3.216,145.3,18 / 22,2272811,2019-08-09 20:52:01:549,1.9395,0.4981,10.764,-0.4778,0.0872,9.7946,-0.0038,0.0299,-0.0439
22729,47.246895,-1.674824,107.19,31.76,3.216,145.3,18 / 22,2272910,2019-08-09 20:52:01:648,1.4666,-0.3123,9.1449,-0.4669,0.0866,9.7951,0.0088,-0.0134,0.0535
22730,47.246895,-1.674824,107.19,31.76,3.216,145.3,18 / 22,2273010,2019-08-09 20:52:01:748,1.2799,0.6974,11.3793,-0.4708,0.0974,9.7949,-0.0168,0.0679,-0.0428
22731,47.246895,-1.674824,107.19,31.76,3.216,145.3,18 / 22,2273110,2019-08-09 20:52:01:848,-0.6816,2.0502,11.8821,-0.5571,0.0815,9.7905,-0.0067,-0.1893,0.0749
22732,47.246895,-1.674824,107.19,31.76,3.216,145.3,18 / 22,2273210,2019-08-09 20:52:01:948,-0.3775,-1.7578,6.3874,-0.3816,0.0933,9.7988,0.0006,0.091,-0.0598
22733,47.246895,-1.674824,107.19,31.76,3.216,145.3,18 / 22,2273310,2019-08-09 20:52:02:048,1.2475,-0.8983,8.1154,-0.3864,0.1034,9.7985,0.0319,0.0816,-0.0238
22734,47.246895,-1.674824,107.19,31.76,3.216,145.3,18 / 22,2273411,2019-08-09 20:52:02:149,-2.151,-0.2279,10.1194,-0.4256,0.126,9.7966,0.0302,0.0371,0.0293
22735,47.246895,-1.674824,107.19,31.76,3.216,145.3,18 / 22,2273510,2019-08-09 20:52:02:248,-0.0184,0.5053,10.7891,-0.4957,0.1773,9.7925,0.04,-0.0759,0.0719
22736,47.24483,-1.672568,104.41,31.46,3.216,141.0,17 / 20,2273610,2019-08-09 20:52:02:348,0.5514,1.7245,12.2149,-0.5115,0.1829,9.7916,-0.0259,0.2033,-0.1372
22737,47.24483,-1.672568,104.41,31.46,3.216,141.0,17 / 20,2273710,2019-08-09 20:52:02:448,-0.6367,0.9829,10.9807,-0.5334,0.1397,9.7911,-0.0591,0.0127,0.0015
22738,47.24483,-1.672568,104.41,31.46,3.216,141.0,17 / 20,2273810,2019-08-09 20:52:02:548,-0.1148,-0.3758,9.0743,-0.4863,0.1191,9.7939,-0.0302,-0.0073,0.0131
22739,47.24483,-1.672568,104.41,31.46,3.216,141.0,17 / 20,2273910,2019-08-09 20:52:02:648,-0.2536,-0.0226,9.2527,-0.4983,0.1117,9.7933,0.0113,0.019,-0.0027
22740,47.24483,-1.672568,104.41,31.46,3.216,141.0,17 / 20,2274010,2019-08-09 20:52:02:748,-0.6152,0.5831,9.7159,-0.502,0.1225,9.793,0.0123,0.0125,0.0428
22741,47.24483,-1.672568,104.41,31.46,3.216,141.0,17 / 20,2274110,2019-08-09 20:52:02:848,0.3258,0.306,10.1385,-0.5088,0.1365,9.7925,-0.0003,-0.0012,-0.0093
22742,47.24483,-1.672568,104.41,31.46,3.216,141.0,17 / 20,2274210,2019-08-09 20:52:02:948,0.7938,-0.0903,8.6134,-0.4734,0.1516,9.794,0.0386,-0.0624,0.012
22743,47.24483,-1.672568,104.41,31.46,3.216,141.0,17 / 20,2274311,2019-08-09 20:52:03:049,0.1666,-0.1986,8.884,-0.4501,0.1963,9.7944,0.0092,-0.0711,0.0726
22744,47.24483,-1.672568,104.41,31.46,3.216,141.0,17 / 20,2274411,2019-08-09 20:52:03:149,0.0929,1.5857,10.4288,-0.5124,0.1713,9.7918,-0.0532,0.0953,-0.0647
22745,47.24483,-1.672568,104.41,31.46,3.216,141.0,17 / 20,2274510,2019-08-09 20:52:03:248,-1.8703,0.1773,9.9733,-0.4631,0.154,9.7945,0.0243,0.0077,0.0017
22746,47.24483,-1.672568,104.41,31.46,3.216,141.0,18 / 22,2274610,2019-08-09 20:52:03:348,-0.3823,-0.2698,10.0086,-0.4793,0.1812,9.7933,0.0253,0.0177,-0.0343
22747,47.24483,-1.672568,104.41,31.46,3.216,141.0,18 / 22,2274710,2019-08-09 20:52:03:448,-1.1945,0.0372,9.3742,-0.4977,0.1882,9.7922,0.0407,-0.0864,0.0737
22748,47.24483,-1.672568,104.41,31.46,3.216,141.0,18 / 22,2274810,2019-08-09 20:52:03:548,0.3186,-0.1178,9.5208,-0.4633,0.22,9.7932,0.0185,0.0181,0.0071
22749,47.24483,-1.672568,104.41,31.46,3.216,141.0,18 / 22,2274910,2019-08-09 20:52:03:648,-1.2813,-0.1124,10.7131,-0.531,0.2271,9.7896,0.0064,0.048,0.0032
22750,47.24483,-1.672568,104.41,31.46,3.216,141.0,18 / 22,2275010,2019-08-09 20:52:03:748,-0.6804,0.649,11.7348,-0.5895,0.2431,9.7859,0.0065,0.0526,0.0214
22751,47.24483,-1.672568,104.41,31.46,3.216,141.0,18 / 22,2275110,2019-08-09 20:52:03:848,-1.7338,-0.4781,9.7566,-0.6271,0.2398,9.7836,0.0155,-0.0713,0.0503
22752,47.24483,-1.672568,104.41,31.46,3.216,141.0,18 / 22,2275211,2019-08-09 20:52:03:949,-0.5397,-0.1052,7.3158,-0.5105,0.2625,9.7898,-0.0159,-0.1304,-0.0198
22753,47.24483,-1.672568,104.41,31.46,3.216,141.0,18 / 22,2275311,2019-08-09 20:52:04:049,-1.1778,0.0743,8.52,-0.5154,0.2497,9.7899,-0.0059,0.0261,-0.0266
22754,47.24483,-1.672568,104.41,31.46,3.216,141.0,18 / 22,2275411,2019-08-09 20:52:04:149,1.5558,0.4389,10.4294,-0.5324,0.249,9.789,0.0092,0.0208,0.0292
22755,47.24483,-1.672568,104.41,31.46,3.216,141.0,18 / 22,2275511,2019-08-09 20:52:04:249,0.3012,0.5352,11.2105,-0.576,0.2592,9.7863,0.0269,-0.0707,0.0322
22756,47.24483,-1.672568,104.41,31.46,3.216,141.0,18 / 22,2275610,2019-08-09 20:52:04:348,0.7633,0.8381,10.6664,-0.588,0.2619,9.7855,-0.0447,-0.1424,0.0671
22757,47.24483,-1.672568,104.41,31.46,3.216,141.0,18 / 22,2275710,2019-08-09 20:52:04:448,0.0905,-0.1094,8.0992,-0.5004,0.2355,9.791,-0.0447,-0.1424,0.0671
22758,47.24483,-1.672568,104.41,31.46,3.216,141.0,18 / 22,2275810,2019-08-09 20:52:04:548,0.0953,0.0558,8.5135,-0.5,0.1941,9.792,-0.0071,-0.0405,0.0005
22759,47.24483,-1.672568,104.41,31.46,3.216,141.0,18 / 22,2275910,2019-08-09 20:52:04:648,-2.2516,0.5717,9.7411,-0.5145,0.1997,9.7911,-0.0154,0.015,-0.0233
22760,47.24483,-1.672568,104.41,31.46,3.216,141.0,18 / 22,2276010,2019-08-09 20:52:04:748,1.0129,-0.2597,10.181,-0.532,0.1702,9.7907,-0.0199,0.0149,0.0144
22761,47.24483,-1.672568,104.41,31.46,3.216,141.0,18 / 22,2276110,2019-08-09 20:52:04:848,0.9668,0.3533,9.5495,-0.5529,0.1628,9.7897,-0.032,-0.0113,0.0032
22762,47.24483,-1.672568,104.41,31.46,3.216,141.0,18 / 22,2276210,2019-08-09 20:52:04:948,0.1773,0.033,9.127,-0.5141,0.1423,9.7921,0.0033,0.0226,-0.013
22763,47.24483,-1.672568,104.41,31.46,3.216,141.0,18 / 22,2276310,2019-08-09 20:52:05:048,-1.4848,0.0468,10.2163,-0.5442,0.144,9.7905,0.0002,-0.0349,0.0023
22764,47.24483,-1.672568,104.41,31.46,3.216,141.0,18 / 22,2276410,2019-08-09 20:52:05:148,-1.7183,-0.2387,10.0745,-0.5203,0.1363,9.7919,-0.0173,-0.0248,0.0037
22765,47.24483,-1.672568,104.41,31.46,3.216,141.0,18 / 22,2276510,2019-08-09 20:52:05:248,-0.5565,-0.1004,9.3053,-0.5306,0.127,9.7915,-0.0083,0.0024,-0.0013
22766,47.24483,-1.672568,104.41,31.46,3.216,141.0,17 / 20,2276610,2019-08-09 20:52:05:348,-0.757,0.3263,9.6058,-0.525,0.1302,9.7917,0.0052,0.0258,0.002
22767,47.24483,-1.672568,104.41,31.46,3.216,141.0,17 / 20,2276710,2019-08-09 20:52:05:448,-0.447,-0.0705,10.7245,-0.529,0.1454,9.7913,0.0156,0.0668,-0.0101
22768,47.24483,-1.672568,104.41,31.46,3.216,141.0,17 / 20,2276810,2019-08-09 20:52:05:548,-0.7977,1.5593,10.0559,-0.5484,0.1183,9.7906,-0.0494,0.0045,-0.1123
22769,47.24483,-1.672568,104.41,31.46,3.216,141.0,17 / 20,2276910,2019-08-09 20:52:05:648,-0.0812,-0.5338,8.6565,-0.4942,0.1093,9.7936,-0.02,-0.0426,0.0368
22770,47.24483,-1.672568,104.41,31.46,3.216,141.0,17 / 20,2277010,2019-08-09 20:52:05:748,0.7555,-0.4392,9.6728,-0.5106,0.0991,9.7928,0.0178,0.0122,0.0134
22771,47.24483,-1.672568,104.41,31.46,3.216,141.0,17 / 20,2277110,2019-08-09 20:52:05:848,-0.1806,-0.2686,10.1589,-0.5246,0.1183,9.7919,0.0573,-0.0177,0.0091
22772,47.24483,-1.672568,104.41,31.46,3.216,141.0,17 / 20,2277210,2019-08-09 20:52:05:948,-1.486,-0.4093,9.6423,-0.5055,0.185,9.7919,0.0685,-0.0362,0.0139
22773,47.24483,-1.672568,104.41,31.46,3.216,141.0,17 / 20,2277310,2019-08-09 20:52:06:048,-2.6185,0.3736,9.6627,-0.5189,0.2095,9.7907,0.0532,0.0383,-0.0342
22774,47.24483,-1.672568,104.41,31.46,3.216,141.0,17 / 20,2277411,2019-08-09 20:52:06:149,-2.1768,0.3958,10.9346,-0.536,0.2451,9.7889,-0.0006,0.0639,0.0288
22775,47.24483,-1.672568,104.41,31.46,3.216,141.0,17 / 20,2277511,2019-08-09 20:52:06:249,1.4547,0.118,9.4801,-0.5151,0.2343,9.7903,-0.0188,-0.006,0.0344
22776,47.24483,-1.672568,104.41,31.46,3.216,141.0,17 / 21,2277610,2019-08-09 20:52:06:348,-0.2985,-0.3704,9.4179,-0.5165,0.1984,9.791,-0.0185,-0.0117,0.0221
22777,47.24483,-1.672568,104.41,31.46,3.216,141.0,17 / 21,2277710,2019-08-09 20:52:06:448,-0.9749,-0.1711,9.3023,-0.533,0.1815,9.7905,-0.0389,-0.0146,0.0207
22778,47.24483,-1.672568,104.41,31.46,3.216,141.0,17 / 21,2277810,2019-08-09 20:52:06:548,-0.6942,0.3078,10.1846,-0.5373,0.1499,9.7908,-0.0224,0.0069,-0.0037
22779,47.24483,-1.672568,104.41,31.46,3.216,141.0,17 / 21,2277910,2019-08-09 20:52:06:648,-0.2315,0.197,9.6603,-0.5069,0.1135,9.7929,-0.0055,-0.032,0.0084
22780,47.24483,-1.672568,104.41,31.46,3.216,141.0,17 / 21,2278011,2019-08-09 20:52:06:749,0.0594,0.6136,10.5126,-0.4859,0.1106,9.794,-0.0079,-0.0087,-0.028
22781,47.24483,-1.672568,104.41,31.46,3.216,141.0,17 / 21,2278110,2019-08-09 20:52:06:848,-0.5296,0.2078,9.7309,-0.5257,0.1234,9.7918,-0.01,0.0518,-0.0231
22782,47.24483,-1.672568,104.41,31.46,3.216,141.0,17 / 21,2278211,2019-08-09 20:52:06:949,0.1235,0.0719,9.4675,-0.5682,0.1146,9.7895,-0.0104,-0.0175,0.0322
22783,47.24483,-1.672568,104.41,31.46,3.216,141.0,17 / 21,2278311,2019-08-09 20:52:07:049,-0.0789,0.449,8.6122,-0.5512,0.1193,9.7904,0.0027,-0.0894,0.0101
22784,47.24483,-1.672568,104.41,31.46,3.216,141.0,17 / 21,2278410,2019-08-09 20:52:07:148,-0.4966,0.3299,10.0996,-0.5266,0.1218,9.7917,0.0076,0.0521,0.0018
22785,47.24483,-1.672568,104.41,31.46,3.216,141.0,17 / 21,2278510,2019-08-09 20:52:07:248,0.7178,0.5831,10.2415,-0.5587,0.1346,9.7898,-0.0154,0.0258,0.0041
22786,47.24483,-1.672568,104.41,31.46,3.216,141.0,17 / 21,2278610,2019-08-09 20:52:07:348,-0.3739,0.2084,9.1617,-0.5784,0.128,9.7887,-0.0216,-0.0175,-0.0011
22787,47.24483,-1.672568,104.41,31.46,3.216,141.0,17 / 21,2278710,2019-08-09 20:52:07:448,-0.8983,-0.0017,10.1642,-0.5698,0.113,9.7894,-0.0031,-0.0024,0.0541
22788,47.24483,-1.672568,104.41,31.46,3.216,141.0,17 / 21,2278810,2019-08-09 20:52:07:548,-0.3865,-0.2345,10.3139,-0.5388,0.1016,9.7913,0.006,-0.0336,0.0346
22789,47.24483,-1.672568,104.41,31.46,3.216,141.0,17 / 21,2278910,2019-08-09 20:52:07:648,-0.9408,0.0684,9.7746,-0.5393,0.1131,9.7912,0.018,0.0364,0.0167
22790,47.24483,-1.672568,104.41,31.46,3.216,141.0,17 / 21,2279010,2019-08-09 20:52:07:748,0.8238,-0.3483,9.2078,-0.514,0.1247,9.7924,0.0177,-0.0683,0.0138
22791,47.24483,-1.672568,104.41,31.46,3.216,141.0,17 / 21,2279110,2019-08-09 20:52:07:848,0.0534,-0.6709,10.1499,-0.5472,0.1332,9.7905,0.0069,-0.0048,0.0566
22792,47.24483,-1.672568,104.41,31.46,3.216,141.0,17 / 21,2279211,2019-08-09 20:52:07:949,-1.3089,-0.5613,9.5495,-0.5471,0.1259,9.7906,0.0311,-0.015,0.005
22793,47.24483,-1.672568,104.41,31.46,3.216,141.0,17 / 21,2279311,2019-08-09 20:52:08:049,0.8292,0.6172,9.8817,-0.5481,0.143,9.7903,0.0052,0.0303,-0.005
22794,47.24483,-1.672568,104.41,31.46,3.216,141.0,17 / 21,2279411,2019-08-09 20:52:08:149,0.0546,-0.6128,9.2275,-0.5357,0.1365,9.7911,0.012,0.0031,0.0394
22795,47.24483,-1.672568,104.41,31.46,3.216,141.0,17 / 21,2279511,2019-08-09 20:52:08:249,-0.3482,-0.1669,9.9733,-0.5569,0.1486,9.7897,0.0114,0.0135,0.0117
22796,47.24483,-1.672568,104.41,31.46,3.216,141.0,17 / 21,2279611,2019-08-09 20:52:08:349,-0.0603,0.0917,9.6579,-0.56,0.1518,9.7895,0.0243,-0.0314,0.0329
22797,47.24483,-1.672568,104.41,31.46,3.216,141.0,17 / 21,2279710,2019-08-09 20:52:08:448,-1.5327,0.0199,9.9003,-0.5705,0.176,9.7885,-0.0061,0.004,-0.007
22798,47.24483,-1.672568,104.41,31.46,3.216,141.0,17 / 21,2279810,2019-08-09 20:52:08:548,-1.8703,0.391,9.5986,-0.5792,0.174,9.788,-0.0166,0.0195,0.0069
22799,47.24483,-1.672568,104.41,31.46,3.216,141.0,17 / 21,2279910,2019-08-09 20:52:08:648,-1.097,0.0618,9.8799,-0.586,0.1511,9.788,-0.0267,0.014,-0.0266
22800,47.24483,-1.672568,104.41,31.46,3.216,141.0,17 / 21,2280010,2019-08-09 20:52:08:748,-2.3031,-0.1591,10.1241,-0.5958,0.142,9.7875,-0.0177,0.0169,0.0379
22801,47.24483,-1.672568,104.41,31.46,3.216,141.0,17 / 21,2280110,2019-08-09 20:52:08:848,-0.5409,-0.0292,9.4843,-0.584,0.1343,9.7883,0.0111,-0.0044,-0.014
22802,47.24483,-1.672568,104.41,31.46,3.216,141.0,17 / 21,2280210,2019-08-09 20:52:08:948,-0.6595,-0.2501,9.0049,-0.5656,0.1408,9.7893,0.0233,-0.0249,0.0255
22803,47.24483,-1.672568,104.41,31.46,3.216,141.0,17 / 21,2280311,2019-08-09 20:52:09:049,-0.821,-0.1423,9.349,-0.5451,0.142,9.7905,-0.0059,-0.053,0.0249
22804,47.24483,-1.672568,104.41,31.46,3.216,141.0,17 / 21,2280411,2019-08-09 20:52:09:149,0.6711,-0.1399,9.5651,-0.5726,0.1426,9.7889,0.0169,0.0429,-0.0166
22805,47.24483,-1.672568,104.41,31.46,3.216,141.0,17 / 21,2280510,2019-08-09 20:52:09:248,-0.1561,0.47,10.342,-0.5617,0.1677,9.7891,0.0184,-0.0681,0.0456
22806,47.24483,-1.672568,104.41,31.46,3.216,141.0,18 / 22,2280610,2019-08-09 20:52:09:348,0.8196,-0.2327,10.0565,-0.5789,0.1759,9.788,0.0117,0.0328,0.0273
22807,47.24483,-1.672568,104.41,31.46,3.216,141.0,18 / 22,2280710,2019-08-09 20:52:09:448,0.628,0.0977,9.3478,-0.5387,0.1778,9.7902,0.0059,-0.0519,0.0127
22808,47.24483,-1.672568,104.41,31.46,3.216,141.0,18 / 22,2280810,2019-08-09 20:52:09:548,1.2027,0.5185,10.5593,-0.5823,0.1721,9.7878,-0.0238,0.0854,0.0013
22809,47.24483,-1.672568,104.41,31.46,3.216,141.0,18 / 22,2280910,2019-08-09 20:52:09:648,0.7484,-0.4512,9.9027,-0.5442,0.1524,9.7904,0.0085,-0.0026,0.0643
22810,47.24483,-1.672568,104.41,31.46,3.216,141.0,18 / 22,2281011,2019-08-09 20:52:09:749,-3.3074,-0.4482,9.6896,-0.5924,0.1547,9.7875,0.0033,-0.0795,0.0607
22811,47.24483,-1.672568,104.41,31.46,3.216,141.0,18 / 22,2281110,2019-08-09 20:52:09:848,4.2086,0.8207,9.7279,-0.5342,0.1542,9.7909,-0.0217,0.0556,-0.018
22812,47.24483,-1.672568,104.41,31.46,3.216,141.0,18 / 22,2281210,2019-08-09 20:52:09:948,0.8944,0.5322,11.0699,-0.6065,0.1365,9.7869,-0.0126,-0.0124,0.0327
22813,47.24483,-1.672568,104.41,31.46,3.216,141.0,18 / 22,2281311,2019-08-09 20:52:10:049,-1.428,0.2006,10.2343,-0.6097,0.1208,9.7869,-0.0175,-0.0409,0.0116
22814,47.24483,-1.672568,104.41,31.46,3.216,141.0,18 / 22,2281411,2019-08-09 20:52:10:149,-2.6568,-0.2728,9.4394,-0.6021,0.0953,9.7877,-0.018,0.0076,0.0256
22815,47.24483,-1.672568,104.41,31.46,3.216,141.0,18 / 22,2281511,2019-08-09 20:52:10:249,-0.0507,-0.0968,8.7666,-0.5764,0.0828,9.7893,-0.0243,-0.06,0.0141
22816,47.24483,-1.672568,104.41,31.46,3.216,141.0,16 / 20,2281611,2019-08-09 20:52:10:349,-0.1273,0.048,9.537,-0.555,0.0433,9.7908,-0.0371,-0.0089,0.0212
22817,47.24483,-1.672568,104.41,31.46,3.216,141.0,16 / 20,2281711,2019-08-09 20:52:10:449,0.5454,-0.8528,9.1575,-0.5846,0.0275,9.7892,0.0135,-0.0655,0.0633
22818,47.24483,-1.672568,104.41,31.46,3.216,141.0,16 / 20,2281811,2019-08-09 20:52:10:549,-2.843,0.3784,9.9829,-0.5844,0.0188,9.7892,0.0093,0.0308,-0.032
22819,47.24483,-1.672568,104.41,31.46,3.216,141.0,16 / 20,2281910,2019-08-09 20:52:10:648,-2.3108,0.2024,10.3468,-0.5561,0.0378,9.7908,0.0257,-0.0188,0.0499
22820,47.24483,-1.672568,104.41,31.46,3.216,141.0,16 / 20,2282010,2019-08-09 20:52:10:748,-0.8755,0.0235,10.5276,-0.5952,0.0601,9.7884,0.0151,0.0786,-0.0108
22821,47.24483,-1.672568,104.41,31.46,3.216,141.0,16 / 20,2282110,2019-08-09 20:52:10:848,-0.7259,-0.0166,9.7465,-0.5806,0.0719,9.7892,0.025,-0.0308,0.0112
22822,47.24483,-1.672568,104.41,31.46,3.216,141.0,16 / 20,2282211,2019-08-09 20:52:10:949,-0.0046,0.9327,10.1218,-0.6273,0.1142,9.7859,0.0174,0.0121,-0.0315
22823,47.24483,-1.672568,104.41,31.46,3.216,141.0,16 / 20,2282311,2019-08-09 20:52:11:049,1.2212,0.2449,9.5382,-0.5678,0.1298,9.7893,-0.0022,0.04,0.0069
22824,47.24483,-1.672568,104.41,31.46,3.216,141.0,16 / 20,2282410,2019-08-09 20:52:11:148,-1.0701,0.1791,9.7333,-0.5804,0.1214,9.7887,-0.0078,-0.0046,0.0015
22825,47.24483,-1.672568,104.41,31.46,3.216,141.0,16 / 20,2282511,2019-08-09 20:52:11:249,-0.5876,-0.5787,10.0284,-0.6228,0.1158,9.7862,0.0106,-0.0223,0.0315
22826,47.24291,-1.670159,99.6,31.38,3.216,137.8,17 / 20,2282610,2019-08-09 20:52:11:348,-0.1219,-0.1513,9.364,-0.6186,0.1259,9.7863,0.023,-0.0046,0.0152
22827,47.24291,-1.670159,99.6,31.38,3.216,137.8,17 / 20,2282710,2019-08-09 20:52:11:448,-1.9577,0.1971,10.3217,-0.6362,0.1379,9.785,-0.0048,-0.0003,0.0047
22828,47.24291,-1.670159,99.6,31.38,3.216,137.8,17 / 20,2282810,2019-08-09 20:52:11:548,-1.8817,-0.4835,9.4921,-0.6242,0.1223,9.786,0.0028,-0.0306,0.0296
22829,47.24291,-1.670159,99.6,31.38,3.216,137.8,17 / 20,2282910,2019-08-09 20:52:11:648,-2.752,0.1133,10.002,-0.6251,0.1161,9.786,0.0056,0.0415,0.0012
22830,47.24291,-1.670159,99.6,31.38,3.216,137.8,17 / 20,2283011,2019-08-09 20:52:11:749,1.0279,0.0151,10.3247,-0.6295,0.0938,9.786,-0.0367,-0.0233,0.0099
22831,47.24291,-1.670159,99.6,31.38,3.216,137.8,17 / 20,2283110,2019-08-09 20:52:11:848,0.5592,-0.2225,9.683,-0.6338,0.0746,9.7859,-0.0181,0.0172,0.0269
22832,47.24291,-1.670159,99.6,31.38,3.216,137.8,17 / 20,2283210,2019-08-09 20:52:11:948,-0.6744,0.0001,9.7261,-0.6246,0.0408,9.7867,-0.0403,0.0077,0.0041
22833,47.24291,-1.670159,99.6,31.38,3.216,137.8,17 / 20,2283310,2019-08-09 20:52:12:048,0.9447,-0.3034,10.1547,-0.6477,0.0156,9.7852,-0.0352,0.0142,0.0419
22834,47.24291,-1.670159,99.6,31.38,3.216,137.8,17 / 20,2283411,2019-08-09 20:52:12:149,0.5239,-0.5188,9.8009,-0.6354,-0.0199,9.786,0.0005,-0.07,0.0164
22835,47.24291,-1.670159,99.6,31.38,3.216,137.8,17 / 20,2283510,2019-08-09 20:52:12:248,0.1265,0.1216,9.1856,-0.6673,-0.0124,9.7839,0.0216,-0.0005,-0.0145
22836,47.24291,-1.670159,99.6,31.38,3.216,137.8,13 / 18,2283610,2019-08-09 20:52:12:348,0.4479,-0.2896,9.7327,-0.6414,0.0232,9.7856,0.0157,-0.0082,-0.0148
22837,47.24291,-1.670159,99.6,31.38,3.216,137.8,13 / 18,2283710,2019-08-09 20:52:12:448,0.1534,-0.2435,9.6525,-0.6381,0.0379,9.7858,0.0346,-0.0047,0.0425
22838,47.24291,-1.670159,99.6,31.38,3.216,137.8,13 / 18,2283810,2019-08-09 20:52:12:548,-0.769,-0.0256,9.0037,-0.6246,0.0531,9.7866,0.002,-0.0635,0.0356
22839,47.24291,-1.670159,99.6,31.38,3.216,137.8,13 / 18,2283910,2019-08-09 20:52:12:648,-1.1389,0.0067,9.4161,-0.6274,0.0528,9.7864,0.0076,0.0183,0.0029
22840,47.24291,-1.670159,99.6,31.38,3.216,137.8,13 / 18,2284011,2019-08-09 20:52:12:749,-0.614,0.3814,9.3544,-0.611,0.0446,9.7875,-0.0217,0.022,-0.0275
22841,47.24291,-1.670159,99.6,31.38,3.216,137.8,13 / 18,2284110,2019-08-09 20:52:12:848,-1.4154,-0.0783,10.0475,-0.6342,0.0398,9.786,0.0124,0.0866,0.036
22842,47.24291,-1.670159,99.6,31.38,3.216,137.8,13 / 18,2284210,2019-08-09 20:52:12:948,0.4652,-0.104,10.6341,-0.6818,0.0601,9.7827,0.0112,-0.0364,-0.0101
22843,47.24291,-1.670159,99.6,31.38,3.216,137.8,13 / 18,2284310,2019-08-09 20:52:13:048,0.9189,-0.037,9.8698,-0.6777,0.0665,9.783,0.006,-0.0087,0.0055
22844,47.24291,-1.670159,99.6,31.38,3.216,137.8,13 / 18,2284410,2019-08-09 20:52:13:148,0.2869,0.1121,9.0869,-0.6513,0.0663,9.7848,0.0057,0.0561,0.0189
22845,47.24291,-1.670159,99.6,31.38,3.216,137.8,13 / 18,2284510,2019-08-09 20:52:13:248,-0.4003,0.0145,10.7915,-0.7208,0.0639,9.7799,-0.0101,-0.0425,0.0215
22846,47.24291,-1.670159,99.6,31.38,3.216,137.8,13 / 18,2284610,2019-08-09 20:52:13:348,0.6508,0.118,9.6028,-0.6685,0.0649,9.7836,-0.0129,-0.0596,0.0161
22847,47.24291,-1.670159,99.6,31.38,3.216,137.8,13 / 18,2284710,2019-08-09 20:52:13:448,-0.9952,0.37,9.9099,-0.6833,0.0509,9.7827,-0.023,-0.0035,-0.01
22848,47.24291,-1.670159,99.6,31.38,3.216,137.8,13 / 18,2284810,2019-08-09 20:52:13:548,0.4533,-0.4913,9.1701,-0.6429,0.0337,9.7855,0.0018,0.0052,0.0482
22849,47.24291,-1.670159,99.6,31.38,3.216,137.8,13 / 18,2284910,2019-08-09 20:52:13:648,-0.8085,0.3557,9.6992,-0.6601,0.0347,9.7843,-0.0076,0.031,-0.0224
22850,47.24291,-1.670159,99.6,31.38,3.216,137.8,13 / 18,2285011,2019-08-09 20:52:13:749,-1.6147,0.5556,9.8632,-0.6526,0.0384,9.7848,0.0033,-0.0076,0.0263
22851,47.24291,-1.670159,99.6,31.38,3.216,137.8,13 / 18,2285111,2019-08-09 20:52:13:849,-1.8769,0.643,9.9566,-0.669,0.0342,9.7837,-0.0122,0.0361,-0.0396
22852,47.24291,-1.670159,99.6,31.38,3.216,137.8,13 / 18,2285210,2019-08-09 20:52:13:948,-0.8917,0.0091,9.5483,-0.6524,0.0315,9.7849,-0.0174,-0.0333,0.0369
22853,47.24291,-1.670159,99.6,31.38,3.216,137.8,13 / 18,2285310,2019-08-09 20:52:14:048,-1.9607,0.1031,9.6088,-0.6515,0.0126,9.785,-0.004,0.0216,-0.009
22854,47.24291,-1.670159,99.6,31.38,3.216,137.8,13 / 18,2285410,2019-08-09 20:52:14:148,-1.5333,-0.4033,9.698,-0.6465,0.013,9.7853,-0.0167,-0.0105,0.0229
22855,47.24291,-1.670159,99.6,31.38,3.216,137.8,13 / 18,2285510,2019-08-09 20:52:14:248,-0.4853,-0.2082,10.1702,-0.6635,-0.0097,9.7842,-0.0103,0.0486,-0.0027
22856,47.24291,-1.670159,99.6,31.38,3.216,137.8,16 / 19,2285610,2019-08-09 20:52:14:348,-1.352,-0.3237,10.3426,-0.657,-0.0047,9.7846,0.0164,0.027,0.0206
22857,47.24291,-1.670159,99.6,31.38,3.216,137.8,16 / 19,2285710,2019-08-09 20:52:14:448,-0.827,-0.0867,9.4245,-0.6517,0.0097,9.785,0.0192,0.0544,-0.0222
22858,47.24291,-1.670159,99.6,31.38,3.216,137.8,16 / 19,2285810,2019-08-09 20:52:14:548,-0.2895,0.1162,9.9709,-0.6912,0.0195,9.7822,-0.0151,-0.0011,0.0047
22859,47.24291,-1.670159,99.6,31.38,3.216,137.8,16 / 19,2285911,2019-08-09 20:52:14:649,-0.3889,-0.5877,9.4903,-0.6714,0.0047,9.7836,-0.0089,-0.0021,0.076
22860,47.24291,-1.670159,99.6,31.38,3.216,137.8,16 / 19,2286010,2019-08-09 20:52:14:748,-0.5619,2.5015,11.0351,-0.6676,0.0097,9.7839,0.0211,-0.0144,0.0202
22861,47.24291,-1.670159,99.6,31.38,3.216,137.8,16 / 19,2286111,2019-08-09 20:52:14:849,-1.8847,-1.9266,8.3399,-0.6454,-0.001,9.7854,-0.0983,0.1165,-0.1423
22862,47.24291,-1.670159,99.6,31.38,3.216,137.8,16 / 19,2286210,2019-08-09 20:52:14:948,-0.6379,-0.8624,10.7472,-0.648,-0.0509,9.7851,-0.048,0.054,0.0763
22863,47.24291,-1.670159,99.6,31.38,3.216,137.8,16 / 19,2286310,2019-08-09 20:52:15:048,-2.7173,-0.9366,8.5015,-0.6822,-0.1172,9.7822,-0.0078,-0.0485,0.0108
22864,47.24291,-1.670159,99.6,31.38,3.216,137.8,16 / 19,2286410,2019-08-09 20:52:15:148,0.6059,-0.1878,9.5232,-0.6971,-0.1332,9.7809,0.0191,0.0152,0.0147
22865,47.24291,-1.670159,99.6,31.38,3.216,137.8,16 / 19,2286511,2019-08-09 20:52:15:249,-0.5463,-0.2812,11.0998,-0.7319,-0.117,9.7786,0.0013,0.0011,0.0147
22866,47.24291,-1.670159,99.6,31.38,3.216,137.8,16 / 21,2286611,2019-08-09 20:52:15:349,-1.7698,-0.4494,9.6764,-0.7334,-0.1232,9.7784,0.0001,-0.0485,0.0025
22867,47.24291,-1.670159,99.6,31.38,3.216,137.8,16 / 21,2286711,2019-08-09 20:52:15:449,0.0115,0.0965,9.3975,-0.7231,-0.1189,9.7792,0.005,0.0176,-0.0068
22868,47.24291,-1.670159,99.6,31.38,3.216,137.8,16 / 21,2286811,2019-08-09 20:52:15:549,-1.2023,-0.304,9.9661,-0.6954,-0.1164,9.7813,-0.0067,-0.0019,0.0229
22869,47.24291,-1.670159,99.6,31.38,3.216,137.8,16 / 21,2286910,2019-08-09 20:52:15:648,-0.5547,-0.286,9.5484,-0.6822,-0.1148,9.7822,0.0155,0.0337,0.016
22870,47.24291,-1.670159,99.6,31.38,3.216,137.8,16 / 21,2287010,2019-08-09 20:52:15:748,-1.3627,-0.0364,8.7948,-0.668,-0.1074,9.7833,0.0149,-0.0766,0.011
22871,47.24291,-1.670159,99.6,31.38,3.216,137.8,16 / 21,2287110,2019-08-09 20:52:15:848,-1.3627,-0.0927,8.9115,-0.6251,-0.0833,9.7864,0.0144,-0.0377,0.016
22872,47.24291,-1.670159,99.6,31.38,3.216,137.8,16 / 21,2287211,2019-08-09 20:52:15:949,-0.9276,0.0714,9.9991,-0.6529,-0.0756,9.7846,0.0067,0.0079,0.0306
22873,47.24291,-1.670159,99.6,31.38,3.216,137.8,16 / 21,2287311,2019-08-09 20:52:16:049,0.4401,0.2078,9.9135,-0.6586,-0.0732,9.7842,-0.0055,0.0148,-0.0189
22874,47.24291,-1.670159,99.6,31.38,3.216,137.8,16 / 21,2287411,2019-08-09 20:52:16:149,0.3964,0.3012,10.4318,-0.6647,-0.067,9.7839,0.0199,0.0462,0.0105
22875,47.24291,-1.670159,99.6,31.38,3.216,137.8,16 / 21,2287510,2019-08-09 20:52:16:248,-1.9972,-0.0059,9.7656,-0.6768,-0.0423,9.7832,0.0176,-0.0045,0.0197
22876,47.24291,-1.670159,99.6,31.38,3.216,137.8,16 / 20,2287610,2019-08-09 20:52:16:348,0.4072,-0.0394,9.8057,-0.6732,-0.0272,9.7835,0.026,-0.0168,0.0069
22877,47.24291,-1.670159,99.6,31.38,3.216,137.8,16 / 20,2287711,2019-08-09 20:52:16:449,-0.7911,-0.0268,9.461,-0.6444,-0.031,9.7854,-0.0234,-0.0414,0.0279
22878,47.24291,-1.670159,99.6,31.38,3.216,137.8,16 / 20,2287811,2019-08-09 20:52:16:549,-1.3202,-0.2459,9.9601,-0.6195,-0.0452,9.787,-0.0239,0.0536,0.0005
22879,47.24291,-1.670159,99.6,31.38,3.216,137.8,16 / 20,2287910,2019-08-09 20:52:16:648,1.0261,-0.0927,9.9392,-0.6454,-0.0637,9.7852,-0.0116,-0.0042,0.0083
22880,47.24291,-1.670159,99.6,31.38,3.216,137.8,16 / 20,2288010,2019-08-09 20:52:16:748,0.573,-0.1621,9.9727,-0.6377,-0.0853,9.7855,-0.0013,0.0072,0.0132
22881,47.24291,-1.670159,99.6,31.38,3.216,137.8,16 / 20,2288110,2019-08-09 20:52:16:848,-0.5385,-0.0556,10.0667,-0.6287,-0.0871,9.7861,0.0049,-0.0196,0.009
22882,47.24291,-1.670159,99.6,31.38,3.216,137.8,16 / 20,2288210,2019-08-09 20:52:16:948,-0.3207,-0.5206,9.1976,-0.6079,-0.0776,9.7875,0.0115,0.0546,-0.0016
22883,47.24291,-1.670159,99.6,31.38,3.216,137.8,16 / 20,2288310,2019-08-09 20:52:17:048,-1.185,-0.3596,9.6333,-0.6377,-0.0774,9.7856,-0.0088,0.0478,-0.0072
22884,47.24291,-1.670159,99.6,31.38,3.216,137.8,16 / 20,2288410,2019-08-09 20:52:17:148,0.06,0.2336,10.4719,-0.631,-0.0853,9.786,-0.0208,-0.0401,0.0091
22885,47.24291,-1.670159,99.6,31.38,3.216,137.8,16 / 20,2288510,2019-08-09 20:52:17:248,0.6023,-0.0388,9.7698,-0.6159,-0.0951,9.7868,-0.0117,0.0087,0.0171
22886,47.24291,-1.670159,99.6,31.38,3.216,137.8,17 / 22,2288610,2019-08-09 20:52:17:348,-0.6978,-0.2022,9.3819,-0.5826,-0.1129,9.7887,-0.0182,-0.057,0.0235
22887,47.24291,-1.670159,99.6,31.38,3.216,137.8,17 / 22,2288710,2019-08-09 20:52:17:448,0.9279,-0.0777,9.5986,-0.5804,-0.123,9.7887,-0.0131,-0.001,0.0059
22888,47.24291,-1.670159,99.6,31.38,3.216,137.8,17 / 22,2288810,2019-08-09 20:52:17:548,0.4856,0.1408,10.0254,-0.5625,-0.1198,9.7898,0.0062,0.0207,-0.0066
22889,47.24291,-1.670159,99.6,31.38,3.216,137.8,17 / 22,2288910,2019-08-09 20:52:17:648,0.1438,-0.0861,9.7716,-0.5711,-0.1135,9.7894,0.0072,-0.0106,0.0144
22890,47.24291,-1.670159,99.6,31.38,3.216,137.8,17 / 22,2289010,2019-08-09 20:52:17:748,-0.1896,-0.0915,9.379,-0.5562,-0.0943,9.7904,0.0228,-0.0069,0.0161
22891,47.24291,-1.670159,99.6,31.38,3.216,137.8,17 / 22,2289110,2019-08-09 20:52:17:848,-1.5716,0.2473,9.8949,-0.5393,-0.0765,9.7915,0.0135,0.039,-0.018
22892,47.24291,-1.670159,99.6,31.38,3.216,137.8,17 / 22,2289210,2019-08-09 20:52:17:948,-0.0944,0.3706,9.6184,-0.5459,-0.0577,9.7913,0.0017,-0.0005,0.0164
22893,47.24291,-1.670159,99.6,31.38,3.216,137.8,17 / 22,2289310,2019-08-09 20:52:18:048,0.3731,0.3826,10.5958,-0.5483,-0.0502,9.7912,-0.0046,0.0373,-0.0265
22894,47.24291,-1.670159,99.6,31.38,3.216,137.8,17 / 22,2289410,2019-08-09 20:52:18:148,-0.663,-0.3889,9.3275,-0.554,-0.0522,9.7909,-0.0159,0.0426,-0.0301
22895,47.24291,-1.670159,99.6,31.38,3.216,137.8,17 / 22,2289510,2019-08-09 20:52:18:248,-0.0723,-0.1788,9.7979,-0.5797,-0.0549,9.7893,-0.0112,-0.0029,0.0302
22896,47.24291,-1.670159,99.6,31.38,3.216,137.8,17 / 20,2289610,2019-08-09 20:52:18:348,0.2378,-0.104,9.1509,-0.5842,-0.0584,9.7891,0.0192,-0.0339,-0.004
22897,47.24291,-1.670159,99.6,31.38,3.216,137.8,17 / 20,2289710,2019-08-09 20:52:18:448,-1.6057,-0.3273,9.0934,-0.559,-0.0401,9.7906,0.0313,-0.0399,0.0079
22898,47.24291,-1.670159,99.6,31.38,3.216,137.8,17 / 20,2289810,2019-08-09 20:52:18:548,-0.6828,-0.0406,9.285,-0.5413,-0.0271,9.7917,-0.0079,-0.051,0.0074
22899,47.24291,-1.670159,99.6,31.38,3.216,137.8,17 / 20,2289910,2019-08-09 20:52:18:648,-0.8797,0.2012,8.951,-0.5668,-0.0267,9.7902,0.0151,0.0175,0.0029
22900,47.24291,-1.670159,99.6,31.38,3.216,137.8,17 / 20,2290011,2019-08-09 20:52:18:749,-0.28,0.039,9.6573,-0.5543,-0.0128,9.791,0.0074,-0.0097,0.0084
22901,47.24291,-1.670159,99.6,31.38,3.216,137.8,17 / 20,2290110,2019-08-09 20:52:18:848,0.06,0.0007,10.2618,-0.5638,-0.0096,9.7904,-0.0092,0.0227,0.0071
22902,47.24291,-1.670159,99.6,31.38,3.216,137.8,17 / 20,2290211,2019-08-09 20:52:18:949,0.1109,-0.3189,9.4161,-0.5606,-0.0268,9.7906,-0.0122,-0.0236,0.0344
22903,47.24291,-1.670159,99.6,31.38,3.216,137.8,17 / 20,2290311,2019-08-09 20:52:19:049,0.0361,0.1096,9.7417,-0.5542,-0.0319,9.7909,-0.0063,0.0269,-0.0146
22904,47.24291,-1.670159,99.6,31.38,3.216,137.8,17 / 20,2290410,2019-08-09 20:52:19:148,-0.2039,0.3461,10.1732,-0.5857,-0.0548,9.789,-0.0312,0.0375,-0.0211
22905,47.24291,-1.670159,99.6,31.38,3.216,137.8,17 / 20,2290511,2019-08-09 20:52:19:249,0.1678,0.5951,10.7736,-0.5488,-0.0605,9.7911,-0.0284,0.1023,-0.0071
22906,47.24291,-1.670159,99.6,31.38,3.216,137.8,18 / 21,2290611,2019-08-09 20:52:19:349,-1.4663,-0.5948,9.2425,-0.5383,-0.0941,9.7914,-0.0185,-0.0887,0.014
22907,47.24291,-1.670159,99.6,31.38,3.216,137.8,18 / 21,2290710,2019-08-09 20:52:19:448,-0.5056,-0.1956,8.6116,-0.5555,-0.092,9.7905,0.0143,-0.0492,0.001
22908,47.24291,-1.670159,99.6,31.38,3.216,137.8,18 / 21,2290810,2019-08-09 20:52:19:548,0.2821,0.2264,9.379,-0.5077,-0.0798,9.7932,0.0085,0.0054,-0.0115
22909,47.24291,-1.670159,99.6,31.38,3.216,137.8,18 / 21,2290910,2019-08-09 20:52:19:648,-0.9982,0.1683,10.1625,-0.5333,-0.0739,9.7919,0.0026,0.0525,0.0108
22910,47.24291,-1.670159,99.6,31.38,3.216,137.8,18 / 21,2291010,2019-08-09 20:52:19:748,-0.8073,-0.1393,9.6136,-0.5046,-0.0639,9.7934,0.0206,0.0121,0.0087
22911,47.24291,-1.670159,99.6,31.38,3.216,137.8,18 / 21,2291110,2019-08-09 20:52:19:848,-0.6199,-0.0693,9.0522,-0.5066,-0.0458,9.7934,0.0278,-0.0565,0.0032
22912,47.24291,-1.670159,99.6,31.38,3.216,137.8,18 / 21,2291210,2019-08-09 20:52:19:948,-0.4505,0.3347,10.2337,-0.5008,-0.0193,9.7938,-0.0015,0.0047,0.0156
22913,47.24291,-1.670159,99.6,31.38,3.216,137.8,18 / 21,2291310,2019-08-09 20:52:20:048,-1.5112,0.0097,10.6509,-0.528,-0.0134,9.7924,-0.0047,0.0215,-0.0039
22914,47.24291,-1.670159,99.6,31.38,3.216,137.8,18 / 21,2291410,2019-08-09 20:52:20:148,-1.337,0.1677,10.5096,-0.5218,-0.0148,9.7927,0.0011,0.0354,-0.0025
22915,47.24291,-1.670159,99.6,31.38,3.216,137.8,18 / 21,2291510,2019-08-09 20:52:20:248,-0.1722,0.5215,10.178,-0.5591,-0.0096,9.7907,-0.0139,0.0444,-0.0051
22916,47.24113,-1.6675,103.35,30.37,3.216,132.5,18 / 22,2291610,2019-08-09 20:52:20:348,-0.2758,-0.1681,9.2395,-0.5669,-0.0142,9.7902,-0.0148,-0.0507,0.0306
22917,47.24113,-1.6675,103.35,30.37,3.216,132.5,18 / 22,2291710,2019-08-09 20:52:20:448,0.5233,0.0402,9.0821,-0.5184,-0.0131,9.7929,0.026,-0.0445,0.0125
22918,47.24113,-1.6675,103.35,30.37,3.216,132.5,18 / 22,2291810,2019-08-09 20:52:20:548,0.1073,0.3682,9.3664,-0.539,0.0005,9.7918,0.0129,0.005,-0.0095
22919,47.24113,-1.6675,103.35,30.37,3.216,132.5,18 / 22,2291910,2019-08-09 20:52:20:648,-0.0346,0.0001,9.8374,-0.5346,0.0175,9.792,0.0034,0.0084,0.011
22920,47.24113,-1.6675,103.35,30.37,3.216,132.5,18 / 22,2292010,2019-08-09 20:52:20:748,-1.1963,-0.1094,9.6998,-0.5575,0.018,9.7908,0.0011,-0.0434,0.0151
22921,47.24113,-1.6675,103.35,30.37,3.216,132.5,18 / 22,2292110,2019-08-09 20:52:20:848,-1.0425,0.1982,9.8614,-0.5611,0.022,9.7906,-0.0001,0.0246,0.0112
22922,47.24113,-1.6675,103.35,30.37,3.216,132.5,18 / 22,2292210,2019-08-09 20:52:20:948,-1.2688,0.3473,9.7596,-0.5288,0.0254,9.7924,-0.0021,0.0102,0.0019
22923,47.24113,-1.6675,103.35,30.37,3.216,132.5,18 / 22,2292310,2019-08-09 20:52:21:048,-0.9952,0.0743,9.841,-0.5312,0.0203,9.7922,-0.022,0.02,-0.0052
22924,47.24113,-1.6675,103.35,30.37,3.216,132.5,18 / 22,2292410,2019-08-09 20:52:21:148,-1.1933,0.1982,10.0356,-0.5421,0.01,9.7917,-0.022,0.02,-0.0052
22925,47.24113,-1.6675,103.35,30.37,3.216,132.5,18 / 22,2292510,2019-08-09 20:52:21:248,-0.3596,-0.1651,9.5513,-0.5377,0.0045,9.7919,0.0042,0.0025,0.0106
22926,47.24113,-1.6675,103.35,30.37,3.216,132.5,18 / 22,2292610,2019-08-09 20:52:21:348,0.3395,-0.2585,9.6549,-0.5572,0.0058,9.7908,-0.0019,-0.0221,0.0429
22927,47.24113,-1.6675,103.35,30.37,3.216,132.5,18 / 22,2292710,2019-08-09 20:52:21:448,-0.2776,-0.0184,9.9607,-0.5603,0.0106,9.7906,0.0118,0.046,-0.0031
22928,47.24113,-1.6675,103.35,30.37,3.216,132.5,18 / 22,2292810,2019-08-09 20:52:21:548,-0.6936,-0.052,9.7926,-0.5916,0.0147,9.7888,0.0114,-0.0472,0.0311
22929,47.24113,-1.6675,103.35,30.37,3.216,132.5,18 / 22,2292910,2019-08-09 20:52:21:648,-0.2752,-0.2626,8.9755,-0.5559,0.0306,9.7908,0.0168,-0.035,-0.0061
22930,47.24113,-1.6675,103.35,30.37,3.216,132.5,18 / 22,2293010,2019-08-09 20:52:21:748,-1.1658,0.2359,9.5543,-0.5676,0.0386,9.7901,0.0134,-0.0101,0.015
22931,47.24113,-1.6675,103.35,30.37,3.216,132.5,18 / 22,2293111,2019-08-09 20:52:21:849,-1.1808,0.2306,9.862,-0.571,0.0356,9.7899,-0.0367,0.0387,0.0061
22932,47.24113,-1.6675,103.35,30.37,3.216,132.5,18 / 22,2293211,2019-08-09 20:52:21:949,-1.0419,0.0372,9.2999,-0.568,0.0141,9.7902,-0.0286,-0.037,0.0132
22933,47.24113,-1.6675,103.35,30.37,3.216,132.5,18 / 22,2293311,2019-08-09 20:52:22:049,-0.8857,0.3419,9.9877,-0.5682,-0.0068,9.7902,-0.0176,0.0088,-0.0076
22934,47.24113,-1.6675,103.35,30.37,3.216,132.5,18 / 22,2293410,2019-08-09 20:52:22:148,-0.1369,-0.1328,9.4885,-0.5799,-0.0187,9.7895,-0.0254,-0.0429,0.0256
22935,47.24113,-1.6675,103.35,30.37,3.216,132.5,18 / 22,2293511,2019-08-09 20:52:22:249,0.4503,-0.1435,9.9769,-0.5612,-0.0308,9.7905,0.0009,0.0141,0.0071
22936,47.24113,-1.6675,103.35,30.37,3.216,132.5,16 / 19,2293610,2019-08-09 20:52:22:348,0.4401,-0.0849,10.1613,-0.572,-0.0307,9.7899,0.0029,0.0131,-0.0194
22937,47.24113,-1.6675,103.35,30.37,3.216,132.5,16 / 19,2293710,2019-08-09 20:52:22:448,-1.0222,-0.0945,10.023,-0.5965,-0.0192,9.7885,0.0154,0.0258,0.0262
22938,47.24113,-1.6675,103.35,30.37,3.216,132.5,16 / 19,2293810,2019-08-09 20:52:22:548,-0.1998,-0.183,9.5657,-0.5774,-0.0101,9.7896,0.0316,-0.0199,0.0213
22939,47.24113,-1.6675,103.35,30.37,3.216,132.5,16 / 19,2293910,2019-08-09 20:52:22:648,-0.6223,0.0965,9.6908,-0.572,0.0216,9.7899,0.0127,0.0136,-0.0185
22940,47.24113,-1.6675,103.35,30.37,3.216,132.5,16 / 19,2294010,2019-08-09 20:52:22:748,-0.1285,0.1869,9.6722,-0.5578,0.0251,9.7907,0.0065,-0.0232,0.0243
22941,47.24113,-1.6675,103.35,30.37,3.216,132.5,16 / 19,2294110,2019-08-09 20:52:22:848,-0.6654,-0.2944,9.5292,-0.5689,0.0239,9.7901,-0.0005,-0.0222,0.0257
22942,47.24113,-1.6675,103.35,30.37,3.216,132.5,16 / 19,2294211,2019-08-09 20:52:22:949,-0.6487,-0.4584,9.2365,-0.5885,0.0214,9.789,0.0067,-0.0301,0.0355
22943,47.24113,-1.6675,103.35,30.37,3.216,132.5,16 / 19,2294310,2019-08-09 20:52:23:048,-1.3969,0.5137,10.7221,-0.5951,0.0214,9.7886,-0.0065,0.0329,0.0269
22944,47.24113,-1.6675,103.35,30.37,3.216,132.5,16 / 19,2294410,2019-08-09 20:52:23:148,-1.595,-0.4129,9.7632,-0.6171,0.0143,9.7872,0.0113,-0.039,0.0392
22945,47.24113,-1.6675,103.35,30.37,3.216,132.5,16 / 19,2294510,2019-08-09 20:52:23:248,-1.7261,0.0714,9.203,-0.6038,0.0311,9.788,0.0076,-0.009,-0.01
22946,47.24113,-1.6675,103.35,30.37,3.216,132.5,16 / 20,2294611,2019-08-09 20:52:23:349,0.5454,0.0887,9.8763,-0.6066,0.0368,9.7878,-0.0031,-0.0607,0.0291
22947,47.24113,-1.6675,103.35,30.37,3.216,132.5,16 / 20,2294711,2019-08-09 20:52:23:449,-0.2429,-0.3596,10.105,-0.5724,0.0258,9.7899,-0.0181,-0.0444,-0.0102
22948,47.24113,-1.6675,103.35,30.37,3.216,132.5,16 / 20,2294810,2019-08-09 20:52:23:548,-1.9918,-0.3979,10.0056,-0.5715,0.0084,9.79,-0.0157,0.0612,0.0419
22949,47.24113,-1.6675,103.35,30.37,3.216,132.5,16 / 20,2294910,2019-08-09 20:52:23:648,0.6155,0.0378,10.2187,-0.5829,-0.002,9.7893,-0.0103,0.0027,-0.0054
22950,47.24113,-1.6675,103.35,30.37,3.216,132.5,16 / 20,2295010,2019-08-09 20:52:23:748,-0.7402,-0.213,9.5094,-0.5981,-0.0281,9.7884,-0.0089,-0.03,0.0251
