,GPS LATITUDE (degrees), GPS LONGITUDE (degrees), GPS ALTITUDE (m), GPS SPEED (Kmh), GPS ACCURACY (m), GPS ORIENTATION (Â°),GPS SATELLITES IN RANGE, TIME SINCE START (ms), DATE (YYYY-MO-DD HH-MI-SS_SSS), ACCELEROMETER X (m/s²) , ACCELEROMETER Y (m/s²), ACCELEROMETER Z (m/s²), GRAVITY X (m/s²), GRAVITY Y (m/s²), GRAVITY Z (m/s²), GYROSCOPE Yaw (rad/s), GYROSCOPE Pitch (rad/s), GYROSCOPE Roll (rad/s), MAGNETIC FIELD X (Î¼T), MAGNETIC FIELD Y (Î¼T), MAGNETIC FIELD Z (Î¼T), ORIENTATION (Yaw) (Â°), ORIENTATION (Pitch) (Â°), ORIENTATION (Roll ) (Â°)
3913,51.786217,-2.301175,60,18.57,11,211.3,15 / 24,391323,2019-08-16 12:55:45:103,-0.2831,-0.3195,9.8464,0.0273,-0.0129,9.8066,-0.0075,-0.0298,-0.0202,-15.02,11.17,-38.35,210.87,6.26,-0.58
3914,51.786217,-2.301175,60,18.57,11,211.3,15 / 24,391423,2019-08-16 12:55:45:203,-0.2454,-0.3059,10.5166,0.0298,-0.0011,9.8066,0.001,-0.033,0.0021,-15.02,11.54,-37.91,213.16,6.36,-0.72
3915,51.786217,-2.301175,60,18.57,11,211.3,15 / 24,391523,2019-08-16 12:55:45:303,0.4342,0.0698,9.5501,0.054,0.0051,9.8065,0.0021,-0.0021,0.0138,-15.02,11.54,-37.91,213.16,6.36,-0.72
3916,51.786217,-2.301175,60,18.57,11,211.3,15 / 24,391623,2019-08-16 12:55:45:403,0.3293,0.0138,9.4522,0.0087,-0.0002,9.8066,0.0148,-0.0053,-0.0032,-14.65,11.17,-38.41,210.99,6.64,-0.87
3917,51.786217,-2.301175,60,18.57,11,211.3,15 / 24,391725,2019-08-16 12:55:45:505,0.1836,0.2198,10.2983,-0.0288,-0.0069,9.8066,0.0148,0.0565,0.0011,-14.27,11.48,-37.54,212.42,6.47,-0.82
3918,51.78609,-2.301308,61,18.0,10,211.8,15 / 24,391823,2019-08-16 12:55:45:603,0.1309,0.2581,10.2801,-0.0537,-0.0142,9.8065,0.0148,0.0565,0.0011,-14.27,11.48,-37.54,212.42,6.47,-0.82
3919,51.78609,-2.301308,61,18.0,10,211.8,15 / 24,391923,2019-08-16 12:55:45:703,-0.1536,-0.0465,9.6244,-0.0285,0.0064,9.8066,0.0276,0.0106,-0.0213,-15.02,11.11,-38.41,211.16,6.16,-0.72
3920,51.78609,-2.301308,61,18.0,10,211.8,15 / 24,392023,2019-08-16 12:55:45:803,0.1126,0.1549,9.6501,-0.0326,0.0137,9.8066,-0.0246,-0.0107,-0.0032,-14.27,11.86,-37.6,211.16,6.16,-0.72
3921,51.78609,-2.301308,61,18.0,10,211.8,15 / 24,392122,2019-08-16 12:55:45:902,0.0134,0.2099,9.3209,0.0185,-0.0042,9.8066,0.0148,0.016,-0.0192,-14.27,11.86,-37.6,214.72,6.06,-0.63
3922,51.78609,-2.301308,61,18.0,10,211.8,15 / 24,392223,2019-08-16 12:55:46:003,0.0094,0.5475,9.3047,0.0406,0.0069,9.8066,-0.015,-0.0426,0.0,-14.27,11.86,-37.6,214.72,6.06,-0.63
3923,51.78609,-2.301308,61,18.0,10,211.8,15 / 24,392323,2019-08-16 12:55:46:103,-0.3913,0.1891,10.3162,0.0241,0.0106,9.8066,-0.0086,0.0277,-0.0075,-13.9,12.23,-38.04,214.67,6.28,-0.73
3924,51.78609,-2.301308,61,18.0,10,211.8,15 / 24,392422,2019-08-16 12:55:46:202,-0.0581,0.1871,9.744,0.0145,-0.0109,9.8066,-0.0107,0.0618,-0.0149,-13.9,11.86,-38.48,214.78,6.31,-0.84
3925,51.78609,-2.301308,61,18.0,10,211.8,15 / 24,392523,2019-08-16 12:55:46:303,0.0721,-0.21,10.6829,-0.0434,-0.0342,9.8065,-0.0107,0.0618,-0.0149,-13.9,11.86,-38.1,215.12,5.99,-0.86
3926,51.78609,-2.301308,61,18.0,10,211.8,15 / 24,392622,2019-08-16 12:55:46:402,-0.1289,-0.2496,10.0559,-0.0312,-0.0068,9.8066,0.0319,0.0288,-0.0053,-13.9,11.86,-38.1,215.12,5.99,-0.86
3927,51.78609,-2.301308,61,18.0,10,211.8,15 / 24,392723,2019-08-16 12:55:46:503,0.1638,0.2828,9.2404,-0.016,-0.0058,9.8066,0.0085,-0.0298,0.0043,-13.9,11.86,-38.1,215.18,5.82,-0.78
3928,51.78595,-2.30145,62,18.27,10,212.2,15 / 24,392823,2019-08-16 12:55:46:603,-0.1714,0.1811,9.5618,-0.0161,0.0061,9.8066,0.0138,-0.0117,0.0032,-13.9,11.11,-38.1,212.89,5.76,-0.7
3929,51.78595,-2.30145,62,18.27,10,212.2,15 / 24,392923,2019-08-16 12:55:46:703,0.0442,0.5179,9.67,0.0205,0.0256,9.8066,-0.0086,-0.0202,-0.0149,-13.9,11.11,-38.1,212.62,5.94,-0.64
3930,51.78595,-2.30145,62,18.27,10,212.2,15 / 24,393023,2019-08-16 12:55:46:803,0.5062,0.1732,9.8203,0.0158,0.023,9.8066,0.0063,-0.0107,-0.0053,-13.9,11.11,-38.1,212.62,5.94,-0.64
3931,51.78595,-2.30145,62,18.27,10,212.2,15 / 24,393123,2019-08-16 12:55:46:903,0.4779,-0.1236,9.8444,-0.0157,-0.0226,9.8066,-0.0054,0.0234,-0.0107,-13.52,10.73,-38.1,212.4,6.14,-0.61
3932,51.78595,-2.30145,62,18.27,10,212.2,15 / 24,393222,2019-08-16 12:55:47:002,-0.2711,-0.2117,10.5844,-0.0253,-0.0095,9.8066,-0.0054,0.0234,-0.0107,-14.27,10.73,-37.66,212.63,5.99,-0.67
3933,51.78595,-2.30145,62,18.27,10,212.2,15 / 24,393323,2019-08-16 12:55:47:103,-0.3541,0.0483,9.6614,-0.0476,-0.0052,9.8065,0.0319,0.0309,0.0064,-14.27,10.73,-37.66,212.63,5.99,-0.67
3934,51.78595,-2.30145,62,18.27,10,212.2,15 / 24,393423,2019-08-16 12:55:47:203,-0.2691,-0.0835,10.0736,-0.0081,-0.0019,9.8066,-0.032,-0.0064,-0.0043,-14.65,11.11,-38.16,211.27,5.74,-0.55
3935,51.78595,-2.30145,62,18.27,10,212.2,15 / 24,393522,2019-08-16 12:55:47:302,0.1284,-0.0418,10.2909,0.0078,-0.0019,9.8066,-0.0054,0.0032,-0.0256,-14.27,10.73,-38.16,212.69,5.7,-0.53
3936,51.78595,-2.30145,62,18.27,10,212.2,15 / 24,393623,2019-08-16 12:55:47:403,0.0954,-0.3223,10.0014,0.0148,-0.0011,9.8066,0.0063,0.0021,-0.0053,-14.65,11.11,-38.6,211.19,5.76,-0.59
3937,51.78595,-2.30145,62,18.27,10,212.2,15 / 24,393723,2019-08-16 12:55:47:503,0.1607,0.2177,9.7658,0.0091,0.0118,9.8066,-0.0011,-0.032,-0.0117,-14.65,11.11,-38.6,211.19,5.76,-0.59
3938,51.78582,-2.301591,62,18.29,10,212.5,15 / 24,393823,2019-08-16 12:55:47:603,0.1877,-0.1834,9.1423,0.0146,0.0034,9.8066,0.0063,0.0224,-0.0075,-14.65,11.11,-38.16,211.19,5.85,-0.56
3939,51.78582,-2.301591,62,18.29,10,212.5,15 / 24,393923,2019-08-16 12:55:47:703,-0.2256,0.039,9.1916,0.0092,0.0031,9.8066,0.0063,0.0224,-0.0075,-14.27,10.73,-38.16,212.55,5.9,-0.57
3940,51.78582,-2.301591,62,18.29,10,212.5,15 / 24,394023,2019-08-16 12:55:47:803,0.0147,0.0768,10.0118,-0.0026,0.0058,9.8066,-0.0011,-0.0234,0.0011,-14.27,10.73,-38.16,212.55,5.9,-0.57
3941,51.78582,-2.301591,62,18.29,10,212.5,15 / 24,394123,2019-08-16 12:55:47:903,-0.118,0.0151,9.8013,-0.0059,-0.0008,9.8066,-0.0011,-0.0043,-0.0085,-14.65,11.11,-38.6,210.82,5.9,-0.42
3942,51.78582,-2.301591,62,18.29,10,212.5,15 / 24,394222,2019-08-16 12:55:48:002,0.0642,0.2876,9.812,-0.0105,-0.0068,9.8066,-0.0267,0.0192,-0.017,-14.65,10.73,-38.16,210.95,5.87,-0.41
3943,51.78582,-2.301591,62,18.29,10,212.5,15 / 24,394323,2019-08-16 12:55:48:103,-0.434,0.0867,10.1416,-0.0212,-0.0072,9.8066,-0.0118,0.0021,0.0053,-14.65,11.11,-38.66,210.95,5.87,-0.41
3944,51.78582,-2.301591,62,18.29,10,212.5,15 / 24,394423,2019-08-16 12:55:48:203,0.4962,0.274,9.0466,-0.0337,0.0018,9.8066,0.033,0.0053,-0.0107,-14.65,11.48,-38.16,210.92,5.71,-0.3
3945,51.78582,-2.301591,62,18.29,10,212.5,15 / 24,394523,2019-08-16 12:55:48:303,-0.2124,0.0048,10.2731,-0.006,0.019,9.8066,0.0255,-0.0479,0.0043,-14.65,11.48,-38.16,210.92,5.71,-0.3
3946,51.78582,-2.301591,62,18.29,10,212.5,15 / 24,394623,2019-08-16 12:55:48:403,-0.1123,-0.2327,10.5023,0.008,0.0241,9.8066,-0.0075,0.0075,0.0043,-15.02,11.11,-38.16,210.72,5.73,-0.19
3947,51.78582,-2.301591,62,18.29,10,212.5,15 / 24,394722,2019-08-16 12:55:48:502,0.273,0.118,10.1999,0.0119,0.0328,9.8066,-0.0075,0.0075,0.0043,-14.65,11.11,-38.6,210.26,5.89,-0.05
3948,51.785694,-2.301722,63,18.2,10,212.7,15 / 24,394823,2019-08-16 12:55:48:603,0.1507,0.036,9.8697,0.0073,0.0223,9.8066,0.0287,-0.0234,0.0021,-14.65,11.11,-38.6,210.26,5.89,-0.05
3949,51.785694,-2.301722,63,18.2,10,212.7,15 / 24,394923,2019-08-16 12:55:48:703,-0.2936,-0.1929,10.1693,0.0027,0.0225,9.8066,-0.0235,-0.0309,-0.0138,-14.65,11.11,-38.98,210.02,5.97,0.05
3950,51.785694,-2.301722,63,18.2,10,212.7,15 / 24,395023,2019-08-16 12:55:48:803,-0.5105,-0.1845,9.2693,-0.0454,-0.0195,9.8065,0.0074,0.1065,0.0064,-14.65,11.11,-38.6,210.21,5.68,0.09
3951,51.785694,-2.301722,63,18.2,10,212.7,15 / 24,395123,2019-08-16 12:55:48:903,-0.814,0.2291,10.2352,-0.0308,0.0065,9.8066,-0.0043,0.017,0.0202,-14.65,11.11,-38.6,210.21,5.68,0.09
3952,51.785694,-2.301722,63,18.2,10,212.7,15 / 24,395223,2019-08-16 12:55:49:003,-0.2177,0.2182,9.3343,0.0098,0.0139,9.8066,-0.0097,-0.0139,0.0032,-15.02,11.48,-38.16,210.27,5.55,0.21
3953,51.785694,-2.301722,63,18.2,10,212.7,15 / 24,395323,2019-08-16 12:55:49:103,-0.4815,0.1259,9.7943,0.0104,0.0016,9.8066,0.0127,0.0085,0.0053,-15.4,10.73,-38.1,210.13,5.64,0.25
3954,51.785694,-2.301722,63,18.2,10,212.7,15 / 24,395424,2019-08-16 12:55:49:204,-0.0225,0.1236,9.9224,0.0169,0.0108,9.8066,-0.0118,-0.0053,0.0234,-15.02,11.11,-38.1,210.13,5.64,0.25
3955,51.785694,-2.301722,63,18.2,10,212.7,15 / 24,395523,2019-08-16 12:55:49:303,0.4746,0.2419,9.6589,0.027,0.0227,9.8066,-0.0118,-0.0053,0.0234,-15.02,11.11,-38.1,210.13,5.64,0.25
3956,51.785694,-2.301722,63,18.2,10,212.7,15 / 24,395622,2019-08-16 12:55:49:402,0.0844,0.3179,9.0829,0.0054,0.0116,9.8066,-0.0054,-0.0032,0.0085,-14.65,11.11,-37.66,209.91,5.84,0.29
3957,51.785694,-2.301722,63,18.2,10,212.7,15 / 24,395723,2019-08-16 12:55:49:503,0.2628,0.3674,9.5534,-0.0026,0.019,9.8066,0.0266,0.0138,0.0064,-14.27,11.48,-38.1,209.91,5.84,0.29
3958,51.785557,-2.301865,64,18.33,11,212.4,15 / 24,395823,2019-08-16 12:55:49:603,-0.0077,0.221,9.8748,-0.0298,0.0122,9.8066,0.0095,0.0309,0.0032,-14.65,10.73,-38.1,209.77,5.72,0.44
3959,51.785557,-2.301865,64,18.33,11,212.4,15 / 24,395923,2019-08-16 12:55:49:703,0.0346,0.0634,9.9143,-0.0184,0.0017,9.8066,-0.0139,0.049,0.016,-14.65,10.73,-38.1,209.77,5.72,0.44
3960,51.785557,-2.301865,64,18.33,11,212.4,15 / 24,396023,2019-08-16 12:55:49:803,-0.1642,-0.4241,9.7355,-0.0082,-0.023,9.8066,-0.0363,0.0075,0.0266,-14.27,11.11,-38.48,211.08,5.63,0.52
3961,51.785557,-2.301865,64,18.33,11,212.4,15 / 24,396123,2019-08-16 12:55:49:903,0.0543,0.0389,10.6807,0.0119,0.0045,9.8066,-0.0139,0.0138,0.016,-14.27,11.11,-38.04,211.33,5.52,0.43
3962,51.785557,-2.301865,64,18.33,11,212.4,15 / 24,396223,2019-08-16 12:55:50:003,0.0666,0.1205,9.7409,0.0366,0.0303,9.8065,-0.0139,0.0138,0.016,-14.65,10.79,-38.85,209.5,5.8,0.47
3963,51.785557,-2.301865,64,18.33,11,212.4,15 / 24,396323,2019-08-16 12:55:50:103,-0.0568,0.1459,9.9902,0.0132,0.0205,9.8066,-0.0118,-0.0352,0.017,-14.65,10.79,-38.85,209.5,5.8,0.47
3964,51.785557,-2.301865,64,18.33,11,212.4,15 / 24,396423,2019-08-16 12:55:50:203,-0.4702,0.1845,10.3812,-0.0097,-0.0026,9.8066,0.0085,-0.0064,0.0075,-13.9,11.11,-38.04,210.79,5.92,0.54
3965,51.785557,-2.301865,64,18.33,11,212.4,15 / 24,396523,2019-08-16 12:55:50:303,-0.3966,0.0258,10.2071,-0.0307,0.0062,9.8066,0.0117,0.032,0.0085,-15.02,11.11,-38.48,209.36,5.79,0.66
3966,51.785557,-2.301865,64,18.33,11,212.4,15 / 24,396623,2019-08-16 12:55:50:403,-0.0406,0.0272,9.5969,-0.0046,0.0166,9.8066,-0.0171,0.0128,0.0138,-15.02,11.11,-38.48,209.36,5.79,0.66
3967,51.785557,-2.301865,64,18.33,11,212.4,15 / 24,396723,2019-08-16 12:55:50:503,-0.0697,0.2231,9.9401,-0.0043,0.0295,9.8066,0.0021,0.0224,0.0085,-15.02,11.11,-38.41,209.06,5.85,0.83
3968,51.785378,-2.302046,62,19.23,11,211.9,15 / 24,396822,2019-08-16 12:55:50:602,-0.0997,-0.2831,9.9933,-0.0055,0.0031,9.8066,-0.0182,0.0032,0.0032,-15.02,11.11,-38.41,209.06,5.85,0.83
3969,51.785378,-2.302046,62,19.23,11,211.9,15 / 24,396923,2019-08-16 12:55:50:703,0.0334,0.0107,9.6368,-0.0065,-0.0014,9.8067,-0.0182,0.0032,0.0032,-14.65,10.79,-38.85,208.86,5.83,0.86
3970,51.785378,-2.302046,62,19.23,11,211.9,15 / 24,397023,2019-08-16 12:55:50:803,0.0096,-0.2546,10.2217,0.0119,0.0061,9.8066,0.0148,-0.0341,0.0202,-14.65,11.17,-39.66,208.63,5.91,0.85
3971,51.785378,-2.302046,62,19.23,11,211.9,15 / 24,397123,2019-08-16 12:55:50:903,-0.0785,-0.0192,9.7529,0.0335,0.0207,9.8066,0.0095,0.0011,0.0256,-15.02,10.42,-40.1,206.06,6.14,0.87
3972,51.785378,-2.302046,62,19.23,11,211.9,15 / 24,397223,2019-08-16 12:55:51:003,-0.0913,-0.3405,9.9457,0.0043,0.0019,9.8066,0.0106,-0.0234,0.0181,-15.02,10.42,-40.1,206.06,6.14,0.87
3973,51.785378,-2.302046,62,19.23,11,211.9,15 / 24,397323,2019-08-16 12:55:51:103,-0.2322,-0.1057,10.256,-0.0015,0.0015,9.8066,0.017,0.0075,0.0085,-15.02,10.04,-39.23,206.2,6.03,0.93
3974,51.785378,-2.302046,62,19.23,11,211.9,15 / 24,397422,2019-08-16 12:55:51:202,-0.1603,0.103,9.9804,0.0025,0.0041,9.8066,-0.0065,0.0373,0.0298,-14.65,10.42,-38.79,206.2,6.03,0.93
3975,51.785378,-2.302046,62,19.23,11,211.9,15 / 24,397522,2019-08-16 12:55:51:302,-0.2967,0.1285,10.8103,-0.0018,-0.0104,9.8066,0.0095,0.0213,0.0085,-15.02,10.79,-38.73,208.53,6.06,0.94
3976,51.785378,-2.302046,62,19.23,11,211.9,15 / 24,397623,2019-08-16 12:55:51:403,-0.0145,0.0407,8.8761,-0.0103,-0.01,9.8066,0.0095,0.0213,0.0085,-15.02,10.79,-40.04,208.53,6.06,0.94
3977,51.785378,-2.302046,62,19.23,11,211.9,15 / 24,397723,2019-08-16 12:55:51:503,0.6265,0.2123,9.079,-0.0186,0.0021,9.8066,-0.0107,0.033,0.0149,-15.02,10.79,-40.04,208.53,6.06,0.94
3978,51.785187,-2.3022,61,19.8,11,211.1,15 / 24,397823,2019-08-16 12:55:51:603,0.4626,0.0101,9.4109,0.015,0.0232,9.8066,0.0212,-0.0224,0.0192,-15.33,10.79,-40.04,208.33,5.97,1.01
3979,51.785187,-2.3022,61,19.8,11,211.1,15 / 24,397923,2019-08-16 12:55:51:703,0.1919,0.5591,9.8909,0.0312,0.0486,9.8065,0.0095,-0.0181,-0.0021,-14.65,10.42,-38.73,205.62,6.26,1.17
3980,51.785187,-2.3022,61,19.8,11,211.1,15 / 24,398023,2019-08-16 12:55:51:803,-0.3654,-0.0384,9.5063,0.0167,-0.0041,9.8066,-0.0033,-0.0202,0.0085,-14.65,10.42,-38.73,205.62,6.26,1.17
3981,51.785187,-2.3022,61,19.8,11,211.1,15 / 24,398123,2019-08-16 12:55:51:903,-0.4702,-0.0662,9.8375,0.0294,-0.0179,9.8066,-0.0299,0.0181,0.0021,-14.65,10.42,-39.16,205.82,6.37,1.0
3982,51.785187,-2.3022,61,19.8,11,211.1,15 / 24,398224,2019-08-16 12:55:52:004,0.5126,0.0786,9.8705,0.0161,-0.0141,9.8066,-0.0022,-0.0032,0.0107,-14.27,10.42,-40.35,207.2,6.31,0.83
3983,51.785187,-2.3022,61,19.8,11,211.1,15 / 24,398323,2019-08-16 12:55:52:103,0.1007,-0.3466,9.4659,0.0074,-0.0425,9.8066,-0.0022,-0.0032,0.0107,-15.02,10.79,-39.54,207.2,6.31,0.83
3984,51.785187,-2.3022,61,19.8,11,211.1,15 / 24,398423,2019-08-16 12:55:52:203,0.1021,-0.0795,9.567,0.0008,-0.0433,9.8066,0.0191,-0.0192,-0.0085,-15.02,11.17,-38.66,208.96,6.19,0.6
3985,51.785187,-2.3022,61,19.8,11,211.1,15 / 24,398523,2019-08-16 12:55:52:303,0.2435,0.2776,9.0996,0.0084,-0.0044,9.8066,0.0138,0.0043,0.0107,-15.02,11.17,-38.66,208.96,6.19,0.6
3986,51.785187,-2.3022,61,19.8,11,211.1,15 / 24,398623,2019-08-16 12:55:52:403,0.3301,-0.0605,9.4545,0.0028,-0.003,9.8067,-0.0022,-0.0277,0.0117,-14.65,10.79,-38.66,209.01,6.22,0.56
3987,51.785187,-2.3022,61,19.8,11,211.1,15 / 24,398722,2019-08-16 12:55:52:502,0.0021,0.0914,9.5878,0.0115,-0.0041,9.8066,-0.0054,-0.032,-0.0107,-15.02,10.79,-39.04,209.01,6.22,0.56
3988,51.78504,-2.302343,61,19.63,11,210.9,15 / 24,398823,2019-08-16 12:55:52:603,0.0658,0.3752,9.6014,0.0311,0.0003,9.8066,-0.0118,0.0053,0.0075,-14.65,11.17,-39.04,209.02,6.38,0.47
3989,51.78504,-2.302343,61,19.63,11,210.9,15 / 24,398923,2019-08-16 12:55:52:703,0.2693,-0.0413,9.7514,0.0213,0.0081,9.8066,-0.0288,0.0224,0.0064,-14.96,11.17,-39.04,209.02,6.38,0.47
3990,51.78504,-2.302343,61,19.63,11,210.9,15 / 24,399023,2019-08-16 12:55:52:803,0.2728,0.0731,10.4927,0.0333,0.0006,9.8066,0.0138,0.0394,-0.0064,-14.65,10.79,-38.6,209.02,6.56,0.38
3991,51.78504,-2.302343,61,19.63,11,210.9,15 / 24,399123,2019-08-16 12:55:52:903,-0.1507,-0.0464,9.7758,-0.0011,-0.0105,9.8066,0.0138,0.0394,-0.0064,-14.65,10.79,-38.6,209.02,6.56,0.38
3992,51.78504,-2.302343,61,19.63,11,210.9,15 / 24,399223,2019-08-16 12:55:53:003,-0.0761,0.1356,10.2051,-0.0011,-0.0053,9.8066,-0.0214,0.0106,-0.0085,-14.65,10.42,-38.16,206.97,6.52,0.33
3993,51.78504,-2.302343,61,19.63,11,210.9,15 / 24,399322,2019-08-16 12:55:53:102,0.2822,-0.0458,9.8133,-0.0093,-0.0155,9.8066,0.017,0.0043,-0.0107,-14.65,10.42,-38.6,206.88,6.5,0.3
3994,51.78504,-2.302343,61,19.63,11,210.9,15 / 24,399423,2019-08-16 12:55:53:203,0.157,-0.2307,9.4246,-0.0217,-0.0292,9.8066,-0.016,-0.0277,-0.0117,-14.65,10.42,-38.6,206.88,6.5,0.3
3995,51.78504,-2.302343,61,19.63,11,210.9,15 / 24,399523,2019-08-16 12:55:53:303,-0.1065,-0.0666,9.4092,-0.0045,-0.0083,9.8066,-0.0171,0.0224,-0.0021,-14.96,10.79,-38.16,209.64,6.31,0.21
3996,51.78504,-2.302343,61,19.63,11,210.9,15 / 24,399623,2019-08-16 12:55:53:403,-0.0404,-0.0585,9.7427,0.0126,-0.0189,9.8066,-0.0246,-0.0352,0.0107,-14.96,10.79,-38.98,209.69,6.32,0.07
3997,51.78504,-2.302343,61,19.63,11,210.9,15 / 24,399723,2019-08-16 12:55:53:503,0.3886,0.0712,9.4044,0.037,0.0041,9.8066,0.0266,-0.0426,-0.0107,-14.96,10.79,-38.98,209.69,6.32,0.07
3998,51.784885,-2.302484,61,19.57,11,211.0,15 / 24,399823,2019-08-16 12:55:53:603,-0.1495,-0.2162,9.9138,0.0267,-0.0015,9.8066,0.0266,-0.0426,-0.0107,-14.65,10.48,-38.98,207.37,6.52,-0.01
3999,51.784885,-2.302484,61,19.57,11,211.0,15 / 24,399923,2019-08-16 12:55:53:703,0.1038,0.1522,9.8781,0.0356,0.0013,9.8066,0.017,-0.0245,0.0096,-14.65,10.48,-38.54,207.37,6.71,-0.1
4000,51.784885,-2.302484,61,19.57,11,211.0,15 / 24,400023,2019-08-16 12:55:53:803,-0.1621,-0.2696,10.1851,-0.0138,0.0085,9.8066,0.0234,0.0,-0.0043,-14.65,10.48,-38.54,207.37,6.71,-0.1
4001,51.784885,-2.302484,61,19.57,11,211.0,15 / 24,400123,2019-08-16 12:55:53:903,0.0091,0.0708,10.1408,-0.0132,-0.0031,9.8066,-0.0011,0.0138,-0.0075,-14.65,10.48,-38.54,207.33,6.56,-0.01
4002,51.784885,-2.302484,61,19.57,11,211.0,15 / 24,400223,2019-08-16 12:55:54:003,0.0798,-0.0589,9.657,-0.0142,-0.0018,9.8066,0.001,-0.0011,0.0011,-14.65,10.86,-38.98,209.65,6.48,0.01
4003,51.784885,-2.302484,61,19.57,11,211.0,15 / 24,400323,2019-08-16 12:55:54:103,0.5447,-0.0859,10.6959,-0.0183,-0.0079,9.8066,-0.0171,0.0341,-0.0149,-14.65,10.86,-38.98,209.65,6.48,0.01
4004,51.784885,-2.302484,61,19.57,11,211.0,15 / 24,400423,2019-08-16 12:55:54:203,0.3607,-0.6939,9.4465,0.0241,0.0122,9.8066,-0.0363,-0.0064,-0.0032,-14.96,10.86,-38.54,209.73,6.37,0.03
4005,51.784885,-2.302484,61,19.57,11,211.0,15 / 24,400523,2019-08-16 12:55:54:303,0.2244,-0.0253,9.5606,0.0293,-0.001,9.8066,-0.0363,-0.0064,-0.0032,-14.65,10.86,-38.91,209.61,6.53,0.02
4006,51.784885,-2.302484,61,19.57,11,211.0,15 / 24,400624,2019-08-16 12:55:54:404,0.4287,0.3741,9.0598,0.0335,-0.0111,9.8066,0.0021,0.0383,0.016,-14.96,10.48,-38.48,207.6,6.66,-0.14
4007,51.784885,-2.302484,61,19.57,11,211.0,15 / 24,400723,2019-08-16 12:55:54:503,0.0787,-0.121,10.0728,-0.0084,-0.0051,9.8066,0.0053,-0.0139,0.0096,-14.96,10.48,-38.48,207.6,6.66,-0.14
4008,51.78472,-2.302636,62,19.62,11,210.9,15 / 24,400823,2019-08-16 12:55:54:603,0.7278,-0.0816,8.8055,-0.0237,0.0124,9.8066,0.034,-0.0202,0.0128,-14.96,10.48,-38.91,207.32,6.58,-0.01
4009,51.78472,-2.302636,62,19.62,11,210.9,15 / 24,400925,2019-08-16 12:55:54:705,0.0271,0.2418,9.648,0.0106,0.023,9.8066,-0.0235,0.0181,0.0043,-14.96,10.48,-38.91,207.32,6.58,-0.01
4010,51.78472,-2.302636,62,19.62,11,210.9,15 / 24,401023,2019-08-16 12:55:54:803,-0.3543,0.1716,9.4628,-0.0066,-0.0019,9.8066,-0.0267,0.0202,0.0021,-14.96,10.48,-39.79,206.94,6.69,0.08
4011,51.78472,-2.302636,62,19.62,11,210.9,15 / 24,401123,2019-08-16 12:55:54:903,-0.6941,0.1152,10.6075,-0.0031,-0.0035,9.8066,-0.0054,-0.0362,0.0,-15.33,10.48,-39.73,206.94,6.69,0.08
4012,51.78472,-2.302636,62,19.62,11,210.9,15 / 24,401223,2019-08-16 12:55:55:003,0.2846,-0.1773,9.9752,0.0226,-0.0001,9.8066,0.0351,0.0362,-0.016,-14.58,10.86,-39.29,209.41,6.67,0.07
4013,51.78472,-2.302636,62,19.62,11,210.9,15 / 24,401323,2019-08-16 12:55:55:103,0.4685,-0.5689,9.991,0.0511,0.008,9.8065,0.0351,0.0362,-0.016,-14.58,10.48,-38.41,209.41,6.67,0.07
4014,51.78472,-2.302636,62,19.62,11,210.9,15 / 24,401423,2019-08-16 12:55:55:203,0.6,0.2478,9.8345,0.0298,0.0003,9.8066,-0.0192,0.017,-0.0021,-14.58,10.48,-38.41,209.41,6.67,0.07
4015,51.78472,-2.302636,62,19.62,11,210.9,15 / 24,401523,2019-08-16 12:55:55:303,0.0316,-0.4168,9.9507,-0.0485,-0.0189,9.8065,0.0085,0.0682,0.0117,-14.58,10.11,-38.85,207.14,6.82,-0.01
4016,51.78472,-2.302636,62,19.62,11,210.9,15 / 24,401623,2019-08-16 12:55:55:403,-0.3443,-0.0307,10.227,-0.1016,-0.0634,9.8059,-0.0054,0.0224,-0.0075,-14.96,10.86,-38.85,210.08,6.12,-0.07
4017,51.78472,-2.302636,62,19.62,11,210.9,15 / 24,401723,2019-08-16 12:55:55:503,-0.1657,0.2195,9.5075,0.0168,0.002,9.8066,0.017,-0.0064,-0.0043,-14.96,10.48,-39.29,207.77,6.21,-0.11
4018,51.784595,-2.30277,62,19.05,11,211.0,15 / 24,401823,2019-08-16 12:55:55:603,0.0606,-0.1356,8.3677,0.0491,0.0333,9.8065,-0.0224,-0.0139,0.0021,-14.96,10.48,-39.29,207.77,6.21,-0.11
4019,51.784595,-2.30277,62,19.05,11,211.0,15 / 24,401924,2019-08-16 12:55:55:704,-0.2489,-0.1386,9.6703,0.0186,-0.0049,9.8066,-0.0075,0.0256,0.0064,-14.27,10.48,-39.73,208.55,6.56,-0.07
4020,51.784595,-2.30277,62,19.05,11,211.0,15 / 24,402023,2019-08-16 12:55:55:803,-0.1932,0.1444,10.509,0.0125,-0.0323,9.8066,-0.0182,0.0213,-0.0011,-14.27,10.48,-39.66,208.91,6.53,-0.27
4021,51.784595,-2.30277,62,19.05,11,211.0,15 / 24,402123,2019-08-16 12:55:55:903,0.3875,0.1062,10.2784,0.0021,-0.0071,9.8066,-0.0182,0.0213,-0.0011,-13.52,10.48,-39.29,208.91,6.53,-0.27
4022,51.784595,-2.30277,62,19.05,11,211.0,15 / 24,402223,2019-08-16 12:55:56:003,0.2835,0.2575,9.8581,-0.0044,0.0002,9.8066,0.0085,-0.0181,-0.0043,-12.02,10.86,-39.23,214.38,6.51,-0.26
4023,51.784595,-2.30277,62,19.05,11,211.0,15 / 24,402323,2019-08-16 12:55:56:103,-0.2617,-0.1077,9.9464,-0.0431,-0.0105,9.8066,-0.0097,0.0277,-0.0032,-12.02,10.86,-39.23,214.38,6.51,-0.26
4024,51.784595,-2.30277,62,19.05,11,211.0,15 / 24,402423,2019-08-16 12:55:56:203,-0.064,-0.3602,10.0258,0.0035,-0.0117,9.8066,0.0191,-0.0479,-0.0064,-13.15,10.86,-39.23,213.07,6.0,-0.11
4025,51.784595,-2.30277,62,19.05,11,211.0,15 / 24,402523,2019-08-16 12:55:56:303,0.2229,0.1377,9.3273,0.0214,0.011,9.8066,0.0053,-0.0639,-0.0011,-12.77,10.48,-39.6,213.07,6.0,-0.11
4026,51.784595,-2.30277,62,19.05,11,211.0,15 / 24,402623,2019-08-16 12:55:56:403,0.1248,0.094,9.1316,0.0421,0.025,9.8065,0.0117,-0.0373,0.0075,-13.15,10.48,-39.23,210.39,6.29,-0.12
4027,51.784595,-2.30277,62,19.05,11,211.0,15 / 24,402723,2019-08-16 12:55:56:503,-0.1788,0.048,9.9566,0.0247,0.001,9.8066,0.0127,0.0053,-0.0021,-13.15,10.48,-39.23,210.39,6.29,-0.12
4028,51.784447,-2.302908,63,19.11,12,211.1,15 / 24,402823,2019-08-16 12:55:56:603,-0.2066,-0.0582,10.1632,0.0285,0.0132,9.8066,0.0127,0.0053,-0.0021,-13.15,10.86,-39.6,212.63,6.41,-0.19
4029,51.784447,-2.302908,63,19.11,12,211.1,15 / 24,402923,2019-08-16 12:55:56:703,-0.2668,0.1692,10.043,0.009,-0.0051,9.8066,-0.0022,-0.0352,-0.0234,-13.52,10.48,-39.6,208.75,6.59,-0.21
4030,51.784447,-2.302908,63,19.11,12,211.1,15 / 24,403023,2019-08-16 12:55:56:803,0.0205,0.0823,10.7671,-0.0297,-0.0412,9.8065,-0.0214,0.0181,0.0213,-13.52,10.48,-39.6,208.75,6.59,-0.21
4031,51.784447,-2.302908,63,19.11,12,211.1,15 / 24,403124,2019-08-16 12:55:56:904,0.3376,-0.1983,9.7099,-0.0369,0.0052,9.8066,0.0063,0.0032,-0.0117,-13.9,10.48,-38.73,209.34,6.33,-0.34
4032,51.784447,-2.302908,63,19.11,12,211.1,15 / 24,403223,2019-08-16 12:55:57:003,0.2156,-0.0864,9.6901,-0.0448,0.0038,9.8065,-0.0171,-0.0213,-0.0138,-13.52,10.48,-39.98,209.34,6.33,-0.34
4033,51.784447,-2.302908,63,19.11,12,211.1,15 / 24,403323,2019-08-16 12:55:57:103,-0.1367,-0.2086,9.5043,-0.041,0.0004,9.8066,-0.0182,0.0607,0.0043,-14.96,10.48,-40.41,207.9,6.12,-0.22
4034,51.784447,-2.302908,63,19.11,12,211.1,15 / 24,403423,2019-08-16 12:55:57:203,-0.038,0.3447,10.6394,-0.0027,0.0009,9.8066,-0.0246,0.033,0.0138,-15.71,10.48,-39.98,206.71,6.11,-0.21
4035,51.784447,-2.302908,63,19.11,12,211.1,15 / 24,403523,2019-08-16 12:55:57:303,0.4515,0.0764,9.6096,-0.0155,-0.0012,9.8066,-0.0246,-0.0202,-0.0021,-15.71,10.48,-39.98,206.71,6.11,-0.21
4036,51.784447,-2.302908,63,19.11,12,211.1,15 / 24,403623,2019-08-16 12:55:57:403,-0.0812,0.4107,9.8745,0.0128,-0.0144,9.8066,-0.0246,-0.0202,-0.0021,-14.96,10.48,-39.23,208.03,6.02,-0.17
4037,51.784447,-2.302908,63,19.11,12,211.1,15 / 24,403723,2019-08-16 12:55:57:503,0.001,-0.3103,9.3568,0.0251,-0.0137,9.8066,-0.0267,-0.0224,0.0011,-15.33,10.11,-38.73,208.19,6.05,-0.28
4038,51.784264,-2.303076,61,19.87,12,211.0,15 / 24,403823,2019-08-16 12:55:57:603,-0.2158,0.1503,10.3695,0.0195,-0.0068,9.8066,0.017,-0.0213,-0.0096,-14.96,9.79,-39.54,208.14,6.13,-0.37
4039,51.784264,-2.303076,61,19.87,12,211.0,15 / 24,403922,2019-08-16 12:55:57:702,-0.4119,-0.1721,9.2702,-0.0016,0.0231,9.8066,0.0649,-0.0426,0.0043,-14.96,9.79,-39.54,208.14,6.13,-0.37
4040,51.784264,-2.303076,61,19.87,12,211.0,15 / 24,404023,2019-08-16 12:55:57:803,0.3028,0.4444,10.7535,-0.0117,-0.0164,9.8066,0.0436,0.0437,-0.0458,-14.58,10.48,-39.1,208.02,6.19,-0.25
4041,51.784264,-2.303076,61,19.87,12,211.0,15 / 24,404123,2019-08-16 12:55:57:903,-0.0196,-0.316,9.2867,-0.0408,-0.0033,9.8066,-0.0256,0.0426,0.0234,-14.96,10.17,-38.66,208.04,5.97,-0.15
4042,51.784264,-2.303076,61,19.87,12,211.0,15 / 24,404223,2019-08-16 12:55:58:003,0.2726,-0.0504,10.3818,-0.0048,0.0117,9.8066,0.0276,0.0096,-0.0064,-14.96,10.17,-38.66,208.04,5.97,-0.15
4043,51.784264,-2.303076,61,19.87,12,211.0,15 / 24,404323,2019-08-16 12:55:58:103,-0.6003,0.2599,9.9744,0.0017,0.0167,9.8066,0.0276,0.0096,-0.0064,-14.58,10.86,-39.1,210.17,6.02,-0.07
4044,51.784264,-2.303076,61,19.87,12,211.0,15 / 24,404423,2019-08-16 12:55:58:203,-0.2917,0.72,10.8985,-0.0006,0.0284,9.8066,-0.0065,-0.0202,0.0266,-14.21,10.48,-39.48,208.94,6.22,-0.04
4045,51.784264,-2.303076,61,19.87,12,211.0,15 / 24,404523,2019-08-16 12:55:58:303,0.0568,-0.1213,9.9724,-0.0002,0.0431,9.8066,0.0319,0.0128,-0.0096,-14.21,10.48,-39.48,208.94,6.22,-0.04
4046,51.784264,-2.303076,61,19.87,12,211.0,15 / 24,404623,2019-08-16 12:55:58:403,0.6726,-0.3246,8.669,0.0181,-0.0021,9.8066,-0.0075,0.0309,-0.017,-14.58,10.48,-39.48,207.21,6.34,0.18
4047,51.784264,-2.303076,61,19.87,12,211.0,15 / 24,404723,2019-08-16 12:55:58:503,-0.0482,0.0434,10.2575,0.0012,-0.0264,9.8066,-0.0033,0.0341,-0.017,-14.58,10.17,-39.1,207.23,6.43,0.12
4048,51.784107,-2.303222,60,19.72,11,210.9,15 / 24,404823,2019-08-16 12:55:58:603,-0.049,0.2011,9.034,-0.0175,-0.023,9.8066,0.017,-0.0075,-0.0032,-14.58,10.17,-39.1,207.23,6.43,0.12
4049,51.784107,-2.303222,60,19.72,11,210.9,15 / 24,404922,2019-08-16 12:55:58:702,0.2286,-0.0049,9.9226,-0.0231,0.0053,9.8066,0.0074,-0.0373,0.0032,-14.96,10.48,-39.48,207.47,6.27,0.05
4050,51.784107,-2.303222,60,19.72,11,210.9,15 / 24,405023,2019-08-16 12:55:58:803,0.0992,0.1937,10.584,-0.0347,0.0149,9.8066,0.0074,-0.0373,0.0032,-14.58,10.86,-38.66,207.47,6.27,0.05
4051,51.784107,-2.303222,60,19.72,11,210.9,15 / 24,405123,2019-08-16 12:55:58:903,0.0348,-0.4587,9.4376,-0.0108,-0.0132,9.8066,-0.0214,0.0447,0.0064,-14.96,10.54,-39.04,209.62,6.13,0.22
4052,51.784107,-2.303222,60,19.72,11,210.9,15 / 24,405223,2019-08-16 12:55:59:003,-0.1803,-0.1551,10.1407,-0.0237,-0.0065,9.8066,-0.0065,0.0192,-0.0085,-14.58,10.86,-39.04,209.68,5.99,0.25
4053,51.784107,-2.303222,60,19.72,11,210.9,15 / 24,405323,2019-08-16 12:55:59:103,-0.474,-0.2585,9.8246,0.015,0.007,9.8066,-0.0022,-0.0352,0.0064,-14.96,10.86,-39.04,209.84,5.91,0.2
4054,51.784107,-2.303222,60,19.72,11,210.9,15 / 24,405423,2019-08-16 12:55:59:203,-0.1061,0.5535,9.61,0.0346,0.0053,9.8066,0.0372,-0.0256,-0.0011,-14.96,10.86,-39.04,209.84,5.91,0.2
4055,51.784107,-2.303222,60,19.72,11,210.9,15 / 24,405523,2019-08-16 12:55:59:303,0.1067,0.242,8.8622,0.0149,0.0001,9.8066,0.0031,-0.0064,0.0107,-14.96,10.54,-39.04,209.79,6.1,0.13
4056,51.784107,-2.303222,60,19.72,11,210.9,15 / 24,405623,2019-08-16 12:55:59:403,0.0614,0.0988,9.3255,0.0161,0.0107,9.8066,0.0244,-0.0064,0.0213,-14.58,10.54,-39.04,209.69,6.21,0.14
4057,51.784107,-2.303222,60,19.72,11,210.9,15 / 24,405723,2019-08-16 12:55:59:503,-0.4793,0.2125,10.2207,0.0009,0.0181,9.8066,0.018,0.0,0.0021,-14.58,10.54,-39.48,209.5,6.27,0.23
4058,51.78399,-2.303344,61,19.34,12,210.9,15 / 24,405823,2019-08-16 12:55:59:603,-0.2018,-0.1886,10.1752,-0.0025,0.0075,9.8066,-0.015,0.0,0.0011,-14.58,10.54,-39.48,209.5,6.27,0.23
4059,51.78399,-2.303344,61,19.34,12,210.9,15 / 24,405923,2019-08-16 12:55:59:703,-0.361,-0.1172,10.4505,-0.019,-0.0011,9.8066,-0.015,0.0,0.0011,-14.96,10.86,-39.04,209.42,6.28,0.27
4060,51.78399,-2.303344,61,19.34,12,210.9,15 / 24,406023,2019-08-16 12:55:59:803,-0.294,0.1443,10.0116,-0.021,-0.001,9.8066,-0.0033,-0.0266,-0.0138,-14.58,10.54,-39.91,209.27,6.17,0.33
4061,51.78399,-2.303344,61,19.34,12,210.9,15 / 24,406123,2019-08-16 12:55:59:903,0.1847,-0.7375,9.8156,0.005,-0.0152,9.8066,-0.031,-0.0384,0.0043,-14.96,10.17,-39.41,207.26,6.15,0.24
4062,51.78399,-2.303344,61,19.34,12,210.9,15 / 24,406223,2019-08-16 12:56:00:003,0.1612,-0.1165,10.2988,0.013,-0.0172,9.8066,-0.0043,-0.0202,0.0096,-14.96,10.17,-39.41,207.26,6.15,0.24
4063,51.78399,-2.303344,61,19.34,12,210.9,15 / 24,406322,2019-08-16 12:56:00:102,-0.006,0.3467,10.3434,-0.0162,0.0031,9.8066,0.0021,0.0352,0.0149,-14.58,10.17,-38.6,207.45,6.17,0.11
4064,51.78399,-2.303344,61,19.34,12,210.9,15 / 24,406423,2019-08-16 12:56:00:203,-0.1704,-0.1977,10.5673,0.0063,0.0088,9.8066,-0.0203,-0.016,-0.0011,-14.96,10.17,-39.04,207.36,6.23,0.14
4065,51.78399,-2.303344,61,19.34,12,210.9,15 / 24,406523,2019-08-16 12:56:00:303,-0.0014,-0.1173,10.3069,0.0151,-0.0112,9.8066,-0.0033,-0.0565,0.0256,-14.96,10.17,-39.04,207.36,6.23,0.14
4066,51.78399,-2.303344,61,19.34,12,210.9,15 / 24,406623,2019-08-16 12:56:00:403,0.4537,-0.2373,10.2926,0.0137,-0.0018,9.8066,-0.0033,-0.0565,0.0256,-14.96,10.17,-39.04,207.36,6.23,0.14
4067,51.78399,-2.303344,61,19.34,12,210.9,15 / 24,406723,2019-08-16 12:56:00:503,0.0172,0.112,8.6477,0.028,0.0087,9.8066,0.0053,0.016,0.0117,-14.58,10.17,-39.41,207.27,6.39,0.11
4068,51.78388,-2.303474,60,18.95,12,211.0,15 / 24,406823,2019-08-16 12:56:00:603,-0.0808,0.2385,9.6873,0.0002,-0.0088,9.8066,-0.0214,-0.0107,0.016,-14.96,10.54,-38.6,209.67,6.37,0.06
4069,51.78388,-2.303474,60,18.95,12,211.0,15 / 24,406923,2019-08-16 12:56:00:703,-0.1165,0.3463,9.9974,-0.0034,0.0025,9.8066,-0.0043,0.0011,0.0138,-14.96,10.54,-38.6,209.67,6.37,0.06
4070,51.78388,-2.303474,60,18.95,12,211.0,15 / 24,407023,2019-08-16 12:56:00:803,0.3516,0.4135,9.6716,0.0012,-0.0015,9.8067,0.0191,-0.0266,-0.0053,-14.96,10.54,-39.85,209.49,6.36,0.09
4071,51.78388,-2.303474,60,18.95,12,211.0,15 / 24,407123,2019-08-16 12:56:00:903,0.474,-0.1417,10.2385,0.0117,0.0,9.8066,-0.0278,0.0522,-0.0075,-14.96,10.54,-38.98,209.64,6.42,0.05
4072,51.78388,-2.303474,60,18.95,12,211.0,15 / 24,407223,2019-08-16 12:56:01:003,0.1068,-0.2997,9.5366,0.0365,-0.0288,9.8065,-0.0043,0.0298,-0.0117,-14.58,10.54,-39.41,209.64,6.42,0.05
4073,51.78388,-2.303474,60,18.95,12,211.0,15 / 24,407323,2019-08-16 12:56:01:103,-0.2225,-0.2172,10.2715,0.0032,-0.0013,9.8067,0.0308,-0.0128,0.0064,-14.58,10.54,-39.41,209.95,6.52,-0.2
4074,51.78388,-2.303474,60,18.95,12,211.0,15 / 24,407423,2019-08-16 12:56:01:203,0.1732,-0.0115,8.6256,-0.002,0.0179,9.8066,0.0564,-0.0075,0.0085,-14.58,10.54,-39.41,209.95,6.52,-0.2
4075,51.78388,-2.303474,60,18.95,12,211.0,15 / 24,407523,2019-08-16 12:56:01:303,-0.6093,-0.0141,10.1336,-0.0167,0.0263,9.8066,0.0564,-0.0075,0.0085,-14.96,10.54,-38.54,209.76,6.57,-0.1
4076,51.78388,-2.303474,60,18.95,12,211.0,15 / 24,407623,2019-08-16 12:56:01:403,-0.0752,0.3151,9.5334,-0.0373,0.0437,9.8065,0.0021,0.0117,0.0202,-14.58,10.54,-38.54,209.3,6.5,0.23
4077,51.78388,-2.303474,60,18.95,12,211.0,15 / 24,407723,2019-08-16 12:56:01:503,-0.1209,0.2738,9.9225,0.0018,0.0159,9.8066,-0.0288,-0.0586,0.0096,-14.58,10.54,-38.54,209.3,6.5,0.23
4078,51.783764,-2.30364,60,18.8,13,211.2,15 / 24,407823,2019-08-16 12:56:01:603,-0.2642,0.2061,10.3226,0.0257,0.0163,9.8066,-0.0086,-0.0043,-0.0096,-14.58,10.54,-38.98,209.14,6.56,0.3
4079,51.783764,-2.30364,60,18.8,13,211.2,15 / 24,407923,2019-08-16 12:56:01:703,-0.3656,-0.0808,9.9576,0.0544,-0.0021,9.8065,-0.0235,0.0341,0.0085,-14.58,10.17,-39.79,206.75,6.83,0.14
4080,51.783764,-2.30364,60,18.8,13,211.2,15 / 24,408023,2019-08-16 12:56:01:803,-0.4819,-0.1297,10.0319,-0.0268,-0.0272,9.8066,0.017,0.0256,0.0096,-14.96,10.17,-39.41,207.17,6.62,0.06
4081,51.783764,-2.30364,60,18.8,13,211.2,15 / 24,408123,2019-08-16 12:56:01:903,-0.0145,0.0823,10.0545,-0.0039,0.0187,9.8066,0.0223,-0.0149,-0.0192,-14.96,10.17,-39.41,207.17,6.62,0.06
4082,51.783764,-2.30364,60,18.8,13,211.2,15 / 24,408223,2019-08-16 12:56:02:003,0.2512,-0.1388,9.6871,0.0078,-0.0192,9.8066,-0.0182,0.0266,-0.0075,-15.33,10.54,-39.79,209.11,6.65,0.17
4083,51.783764,-2.30364,60,18.8,13,211.2,15 / 24,408323,2019-08-16 12:56:02:103,-0.0342,0.036,10.7172,-0.0058,-0.0096,9.8066,-0.0182,0.0266,-0.0075,-14.96,10.54,-39.41,209.47,6.63,0.05
4084,51.783764,-2.30364,60,18.8,13,211.2,15 / 24,408425,2019-08-16 12:56:02:205,-0.1784,-0.1999,9.3589,-0.013,-0.0165,9.8066,-0.0075,0.0096,0.0021,-14.96,10.54,-39.41,209.47,6.63,0.05
4085,51.783764,-2.30364,60,18.8,13,211.2,15 / 24,408524,2019-08-16 12:56:02:304,-0.1402,0.022,10.7681,0.0242,0.0131,9.8066,0.0042,0.0298,0.0011,-14.96,10.54,-38.54,209.63,6.52,0.01
4086,51.783764,-2.30364,60,18.8,13,211.2,15 / 24,408623,2019-08-16 12:56:02:403,0.1243,-0.0621,8.9624,0.0134,0.0149,9.8066,-0.0256,0.0202,0.0107,-14.58,10.92,-38.91,209.51,6.68,0.0
4087,51.783764,-2.30364,60,18.8,13,211.2,15 / 24,408724,2019-08-16 12:56:02:504,0.0083,-0.3556,10.227,0.0085,0.0166,9.8066,-0.0128,-0.032,-0.0075,-14.58,10.54,-38.1,209.49,6.77,0.06
4088,51.783646,-2.303776,60,19.25,12,211.4,15 / 24,408823,2019-08-16 12:56:02:603,0.1518,-0.469,9.8165,0.005,-0.0193,9.8066,0.0021,-0.0533,-0.0053,-14.58,10.54,-38.1,209.49,6.77,0.06
4089,51.783646,-2.303776,60,19.25,12,211.4,15 / 24,408923,2019-08-16 12:56:02:703,0.2818,0.1432,9.6034,0.0171,0.0014,9.8066,0.0021,0.0075,-0.0032,-14.58,10.17,-38.54,207.26,6.74,-0.05
4090,51.783646,-2.303776,60,19.25,12,211.4,15 / 24,409023,2019-08-16 12:56:02:803,-0.2271,-0.3798,10.3918,0.0113,-0.0124,9.8066,0.0063,0.0213,-0.0032,-14.96,10.54,-38.48,209.81,6.77,-0.15
4091,51.783646,-2.303776,60,19.25,12,211.4,15 / 24,409123,2019-08-16 12:56:02:903,-0.2422,-0.4738,10.625,-0.0224,-0.0273,9.8066,-0.0054,-0.0234,0.0075,-14.96,10.54,-38.48,209.81,6.77,-0.15
4092,51.783646,-2.303776,60,19.25,12,211.4,15 / 24,409223,2019-08-16 12:56:03:003,0.0601,0.3741,9.9743,0.0043,-0.0032,9.8066,-0.0054,-0.0234,0.0075,-15.33,10.54,-38.54,209.94,6.57,-0.22
4093,51.783646,-2.303776,60,19.25,12,211.4,15 / 24,409323,2019-08-16 12:56:03:103,-0.3681,-0.1637,10.1098,0.0344,0.0034,9.8066,-0.0033,0.0256,-0.0192,-14.58,10.54,-38.91,209.97,6.59,-0.25
4094,51.783646,-2.303776,60,19.25,12,211.4,15 / 24,409423,2019-08-16 12:56:03:203,-0.1671,-0.2431,10.4845,0.058,-0.0076,9.8065,-0.0267,0.0277,-0.0011,-14.58,10.54,-38.91,210.07,6.86,-0.46
4095,51.783646,-2.303776,60,19.25,12,211.4,15 / 24,409523,2019-08-16 12:56:03:303,0.337,-0.1045,9.3815,-0.003,-0.0228,9.8066,0.0436,0.0032,-0.0053,-14.58,10.54,-38.91,210.07,6.86,-0.46
4096,51.783646,-2.303776,60,19.25,12,211.4,15 / 24,409623,2019-08-16 12:56:03:403,0.2063,-0.0162,9.466,-0.0134,0.0098,9.8066,0.0298,-0.0447,0.0032,-14.21,10.17,-38.04,209.45,6.78,-0.57
4097,51.783646,-2.303776,60,19.25,12,211.4,15 / 24,409723,2019-08-16 12:56:03:503,0.1149,0.2695,8.9507,-0.0288,0.0268,9.8066,0.0042,-0.0085,0.0064,-14.58,11.29,-37.6,210.15,6.71,-0.34
4098,51.7835,-2.30393,59,19.65,11,211.7,15 / 24,409823,2019-08-16 12:56:03:603,0.0723,0.2763,9.1431,-0.0072,-0.007,9.8066,-0.0107,-0.0043,-0.0096,-14.58,11.29,-38.04,210.15,6.71,-0.34
4099,51.7835,-2.30393,59,19.65,11,211.7,15 / 24,409923,2019-08-16 12:56:03:703,-0.4851,0.0163,10.6146,0.0093,0.0139,9.8066,-0.0107,-0.0043,-0.0096,-14.21,10.92,-38.48,211.43,6.73,-0.32
4100,51.7835,-2.30393,59,19.65,11,211.7,15 / 24,410023,2019-08-16 12:56:03:803,-0.0957,0.3626,9.7788,0.0085,0.0193,9.8066,0.0021,-0.0064,0.0085,-14.21,10.92,-38.48,211.43,6.73,-0.32
4101,51.7835,-2.30393,59,19.65,11,211.7,15 / 24,410123,2019-08-16 12:56:03:903,-0.2239,-0.1842,9.7113,-0.0335,0.0007,9.8066,0.0095,0.0426,-0.0011,-14.21,11.29,-37.66,211.23,6.83,-0.25
4102,51.7835,-2.30393,59,19.65,11,211.7,15 / 24,410223,2019-08-16 12:56:04:003,-0.3103,0.0954,10.2938,-0.0631,-0.0035,9.8064,-0.0107,0.0884,-0.0032,-15.33,10.92,-37.66,209.91,6.51,-0.08
4103,51.7835,-2.30393,59,19.65,11,211.7,15 / 24,410323,2019-08-16 12:56:04:103,-0.2368,-0.0215,10.1358,0.0008,-0.001,9.8067,0.0042,-0.0213,-0.0053,-14.96,11.29,-38.1,209.91,6.51,-0.08
4104,51.7835,-2.30393,59,19.65,11,211.7,15 / 24,410423,2019-08-16 12:56:04:203,0.2647,-0.1393,9.5472,0.0308,-0.0032,9.8066,-0.0224,-0.0586,-0.0213,-14.96,11.29,-38.1,209.91,6.51,-0.08
4105,51.7835,-2.30393,59,19.65,11,211.7,15 / 24,410523,2019-08-16 12:56:04:303,0.0706,-0.25,9.5904,0.0625,-0.0142,9.8064,0.0021,0.0128,0.0138,-14.21,10.92,-38.16,211.4,6.78,-0.33
4106,51.7835,-2.30393,59,19.65,11,211.7,15 / 24,410624,2019-08-16 12:56:04:404,-0.1345,0.1352,9.9149,0.0003,-0.0099,9.8066,-0.0054,-0.0064,0.0138,-14.21,10.92,-38.16,211.4,6.78,-0.33
4107,51.7835,-2.30393,59,19.65,11,211.7,15 / 24,410723,2019-08-16 12:56:04:503,-0.4038,-0.2138,9.3665,-0.0049,0.0046,9.8066,0.0074,0.0064,0.0075,-14.58,10.92,-38.16,210.17,6.75,-0.38
4108,51.78336,-2.304069,59,19.4,11,211.7,14 / 24,410823,2019-08-16 12:56:04:603,0.2404,0.3442,9.2125,-0.0091,0.013,9.8066,0.0074,0.0064,0.0075,-14.58,10.86,-38.16,209.97,6.67,-0.21
4109,51.78336,-2.304069,59,19.4,11,211.7,14 / 24,410922,2019-08-16 12:56:04:702,0.4292,0.1523,10.026,0.0055,0.0223,9.8066,-0.032,-0.0724,0.0075,-14.58,10.86,-38.16,209.97,6.67,-0.21
4110,51.78336,-2.304069,59,19.4,11,211.7,14 / 24,411023,2019-08-16 12:56:04:803,-0.3406,-0.0139,10.647,0.0105,-0.0013,9.8066,0.0117,0.0,0.0032,-14.58,10.86,-38.23,209.75,6.76,-0.11
4111,51.78336,-2.304069,59,19.4,11,211.7,14 / 24,411123,2019-08-16 12:56:04:903,-0.1344,0.1812,9.6994,-0.0004,0.0007,9.8067,-0.0043,0.0075,0.0,-14.21,10.86,-38.23,211.08,6.81,-0.14
4112,51.78336,-2.304069,59,19.4,11,211.7,14 / 24,411223,2019-08-16 12:56:05:003,-0.5546,-0.1965,9.1853,-0.0115,-0.0059,9.8066,0.0148,0.0714,-0.0096,-14.21,10.86,-38.23,211.08,6.81,-0.14
4113,51.78336,-2.304069,59,19.4,11,211.7,14 / 24,411323,2019-08-16 12:56:05:103,-0.1206,0.2589,10.0771,-0.0185,-0.0138,9.8066,-0.0011,0.0128,0.0149,-14.58,11.23,-38.66,209.68,6.74,-0.14
4114,51.78336,-2.304069,59,19.4,11,211.7,14 / 24,411423,2019-08-16 12:56:05:203,0.1243,0.2872,8.9985,-0.0292,-0.0008,9.8066,0.0298,-0.0202,0.0043,-14.96,10.86,-37.41,209.97,6.59,-0.06
4115,51.78336,-2.304069,59,19.4,11,211.7,14 / 24,411523,2019-08-16 12:56:05:303,-0.4544,-0.0096,9.2677,-0.0012,0.01,9.8066,0.0298,-0.0202,0.0043,-14.96,10.86,-37.41,209.97,6.59,-0.06
4116,51.78336,-2.304069,59,19.4,11,211.7,14 / 24,411623,2019-08-16 12:56:05:403,0.144,0.168,10.1964,0.001,0.0226,9.8066,-0.0203,-0.0107,0.0138,-14.21,11.23,-37.85,210.91,6.66,0.05
4117,51.78336,-2.304069,59,19.4,11,211.7,14 / 24,411723,2019-08-16 12:56:05:503,-0.1631,-0.321,10.1337,0.0042,0.0043,9.8066,0.0276,-0.0426,-0.016,-14.27,11.23,-37.91,210.91,6.66,0.05
4118,51.783245,-2.304202,58,18.86,12,211.8,14 / 24,411823,2019-08-16 12:56:05:603,-0.107,0.2848,9.3262,-0.0024,0.0042,9.8067,0.001,-0.0426,0.0021,-14.58,10.86,-37.91,209.35,6.8,0.14
4119,51.783245,-2.304202,58,18.86,12,211.8,14 / 24,411923,2019-08-16 12:56:05:703,-0.4063,-0.2019,10.4983,-0.0107,-0.0123,9.8066,0.0319,0.0021,-0.0107,-14.27,10.86,-37.91,209.35,6.8,0.14
4120,51.783245,-2.304202,58,18.86,12,211.8,14 / 24,412023,2019-08-16 12:56:05:803,-0.2608,-0.0424,10.6977,-0.0146,-0.0115,9.8066,-0.0001,-0.0053,-0.0032,-14.96,10.86,-37.54,209.46,6.69,0.13
4121,51.783245,-2.304202,58,18.86,12,211.8,14 / 24,412123,2019-08-16 12:56:05:903,-0.1147,-0.2343,10.0921,0.0054,0.0041,9.8066,0.001,0.0032,0.0053,-14.58,10.86,-37.54,209.46,6.69,0.13
4122,51.783245,-2.304202,58,18.86,12,211.8,14 / 24,412223,2019-08-16 12:56:06:003,0.1775,-0.1644,9.4846,0.0023,0.0049,9.8066,0.001,0.0032,0.0053,-14.58,10.86,-37.54,209.46,6.69,0.13
4123,51.783245,-2.304202,58,18.86,12,211.8,14 / 24,412323,2019-08-16 12:56:06:103,0.1386,-0.0513,10.066,0.0001,0.005,9.8067,0.0021,0.0213,0.0011,-14.96,10.86,-38.04,209.41,6.71,0.14
4124,51.783245,-2.304202,58,18.86,12,211.8,14 / 24,412423,2019-08-16 12:56:06:203,0.0668,-0.0964,10.5368,0.001,0.0273,9.8066,-0.0118,0.0234,0.0011,-14.96,10.86,-38.04,209.41,6.71,0.14
4125,51.783245,-2.304202,58,18.86,12,211.8,14 / 24,412523,2019-08-16 12:56:06:303,-0.1816,0.4127,9.6466,0.0022,0.0181,9.8066,-0.0086,-0.0245,0.0021,-14.96,10.86,-38.85,208.98,6.8,0.28
4126,51.783245,-2.304202,58,18.86,12,211.8,14 / 24,412623,2019-08-16 12:56:06:403,-0.2968,-0.3061,10.4551,0.0001,0.0107,9.8066,0.0021,0.0075,0.0064,-14.65,10.86,-38.54,208.87,6.83,0.34
4127,51.783245,-2.304202,58,18.86,12,211.8,14 / 24,412723,2019-08-16 12:56:06:503,-0.0668,0.0138,10.2564,-0.0104,-0.0105,9.8066,0.0127,0.0128,-0.0043,-14.65,10.86,-38.54,208.87,6.83,0.34
4128,51.783092,-2.304345,58,19.17,12,211.7,14 / 24,412822,2019-08-16 12:56:06:602,0.1934,-0.0287,9.3328,0.0146,-0.0074,9.8066,-0.0043,-0.0117,-0.0032,-14.65,10.86,-38.1,209.13,6.75,0.31
4129,51.783092,-2.304345,58,19.17,12,211.7,14 / 24,412923,2019-08-16 12:56:06:703,0.3647,-0.2701,9.7137,0.0224,-0.0107,9.8066,-0.0001,0.0245,0.0,-14.65,10.48,-38.91,209.13,6.75,0.31
4130,51.783092,-2.304345,58,19.17,12,211.7,14 / 24,413023,2019-08-16 12:56:06:803,0.1038,-0.0479,10.9163,-0.0008,0.0052,9.8066,-0.0043,0.016,-0.0053,-14.65,10.79,-38.1,209.25,6.83,0.19
4131,51.783092,-2.304345,58,19.17,12,211.7,14 / 24,413123,2019-08-16 12:56:06:903,0.0445,-0.1893,9.9978,0.0074,0.0098,9.8066,-0.0043,0.016,-0.0053,-14.65,10.79,-38.98,209.25,6.83,0.19
4132,51.783092,-2.304345,58,19.17,12,211.7,14 / 24,413224,2019-08-16 12:56:07:004,0.1332,-0.1698,9.7114,0.0104,0.011,9.8066,-0.0256,0.0043,0.0032,-14.65,10.42,-39.41,206.69,6.92,0.22
4133,51.783092,-2.304345,58,19.17,12,211.7,14 / 24,413324,2019-08-16 12:56:07:104,-0.5082,-0.3879,10.2714,-0.0086,-0.0093,9.8066,0.0085,0.0032,-0.0128,-14.65,10.42,-39.41,206.69,6.92,0.22
4134,51.783092,-2.304345,58,19.17,12,211.7,14 / 24,413423,2019-08-16 12:56:07:203,0.6851,-0.0495,9.6566,-0.0181,0.0006,9.8066,0.0212,0.0075,-0.0085,-14.65,10.79,-38.6,209.08,6.85,0.19
4135,51.783092,-2.304345,58,19.17,12,211.7,14 / 24,413523,2019-08-16 12:56:07:303,0.0213,-0.4522,9.9344,-0.0413,0.0184,9.8065,-0.0246,0.0245,0.0021,-14.65,10.42,-38.6,209.08,6.85,0.19
4136,51.783092,-2.304345,58,19.17,12,211.7,14 / 24,413623,2019-08-16 12:56:07:403,0.4374,0.3086,10.601,-0.0384,0.0146,9.8066,-0.0171,0.0543,0.0064,-14.65,11.17,-39.1,208.91,6.69,0.38
4137,51.783092,-2.304345,58,19.17,12,211.7,14 / 24,413723,2019-08-16 12:56:07:503,0.5097,-0.0403,9.1189,0.0142,0.0088,9.8066,-0.0118,-0.0234,0.0,-14.65,11.17,-38.23,208.99,6.79,0.38
4138,51.782944,-2.304487,59,19.2,13,211.5,14 / 24,413823,2019-08-16 12:56:07:603,-0.1936,0.1204,9.4788,0.0333,-0.0155,9.8066,-0.0118,-0.0234,0.0,-15.02,10.42,-39.48,208.99,6.79,0.38
4139,51.782944,-2.304487,59,19.2,13,211.5,14 / 24,413923,2019-08-16 12:56:07:703,-0.436,-0.109,9.9583,0.0324,-0.0369,9.8065,-0.0107,-0.0032,0.0,-15.02,10.79,-38.6,209.22,6.85,0.1
4140,51.782944,-2.304487,59,19.2,13,211.5,14 / 24,414023,2019-08-16 12:56:07:803,-0.3001,-0.3065,10.8023,0.0015,-0.0034,9.8066,-0.0097,0.0298,0.0021,-15.02,10.79,-39.1,209.22,6.85,0.1
4141,51.782944,-2.304487,59,19.2,13,211.5,14 / 24,414123,2019-08-16 12:56:07:903,-0.0163,-0.0931,10.0799,-0.0062,-0.0229,9.8066,-0.0182,0.0415,-0.0085,-15.02,10.79,-39.1,209.22,6.85,0.1
4142,51.782944,-2.304487,59,19.2,13,211.5,14 / 24,414223,2019-08-16 12:56:08:003,0.5687,-0.0032,8.5804,-0.0056,-0.0156,9.8066,-0.0065,0.0053,-0.0032,-14.65,11.17,-38.23,209.6,6.75,0.0
4143,51.782944,-2.304487,59,19.2,13,211.5,14 / 24,414323,2019-08-16 12:56:08:103,0.1021,-0.1241,9.6231,-0.011,-0.015,9.8066,-0.015,0.016,0.0085,-14.65,11.17,-38.23,209.6,6.75,0.0
4144,51.782944,-2.304487,59,19.2,13,211.5,14 / 24,414423,2019-08-16 12:56:08:203,-0.4014,-0.1571,10.6564,-0.0029,0.0002,9.8067,-0.0267,-0.0437,0.0043,-14.65,11.17,-38.23,209.75,6.65,-0.04
4145,51.782944,-2.304487,59,19.2,13,211.5,14 / 24,414523,2019-08-16 12:56:08:303,0.2373,0.5573,9.8683,0.0138,0.0042,9.8066,-0.0171,0.0021,0.0064,-15.02,11.17,-39.04,209.56,6.74,-0.06
4146,51.782944,-2.304487,59,19.2,13,211.5,14 / 24,414624,2019-08-16 12:56:08:404,0.3041,-0.1353,10.101,0.0269,-0.0005,9.8066,0.0021,0.032,0.016,-15.02,11.17,-39.04,209.56,6.74,-0.06
4147,51.782944,-2.304487,59,19.2,13,211.5,14 / 24,414724,2019-08-16 12:56:08:504,0.2343,0.2546,9.986,-0.0277,0.0097,9.8066,0.0021,0.032,0.016,-14.65,10.42,-39.04,207.32,6.78,-0.1
4148,51.78277,-2.304648,59,19.75,13,211.2,14 / 24,414823,2019-08-16 12:56:08:603,-0.1971,-0.1936,10.5297,-0.0295,0.0149,9.8066,0.0085,0.0117,-0.0096,-14.65,10.79,-38.66,207.32,6.78,-0.1
4149,51.78277,-2.304648,59,19.75,13,211.2,14 / 24,414923,2019-08-16 12:56:08:703,0.303,0.3117,8.7942,0.0087,0.0071,9.8066,0.0255,-0.0384,-0.0043,-15.33,10.79,-38.23,209.59,6.66,0.06
4150,51.78277,-2.304648,59,19.75,13,211.2,14 / 24,415023,2019-08-16 12:56:08:803,-0.2,-0.2315,10.2789,0.0028,0.0171,9.8066,0.0053,-0.0522,-0.0043,-15.33,10.79,-38.23,209.59,6.66,0.06
4151,51.78277,-2.304648,59,19.75,13,211.2,14 / 24,415123,2019-08-16 12:56:08:903,0.092,0.1458,9.8763,-0.0105,0.0152,9.8066,0.0053,0.0149,0.0053,-14.65,10.79,-38.23,209.41,6.73,0.13
4152,51.78277,-2.304648,59,19.75,13,211.2,14 / 24,415223,2019-08-16 12:56:09:003,-0.1491,0.0325,9.5468,-0.0088,0.0267,9.8066,0.0095,-0.032,0.0032,-15.02,10.79,-38.6,208.98,6.76,0.3
4153,51.78277,-2.304648,59,19.75,13,211.2,14 / 24,415323,2019-08-16 12:56:09:103,-0.1653,-0.0461,10.0007,-0.0028,0.003,9.8066,-0.0022,-0.0224,0.0053,-14.65,10.79,-38.23,209.11,6.75,0.32
4154,51.78277,-2.304648,59,19.75,13,211.2,14 / 24,415423,2019-08-16 12:56:09:203,-0.1378,0.1305,9.888,-0.008,0.004,9.8066,-0.0065,0.0085,0.0128,-14.65,10.79,-38.23,209.11,6.75,0.32
4155,51.78277,-2.304648,59,19.75,13,211.2,14 / 24,415523,2019-08-16 12:56:09:303,0.1192,-0.2717,10.4121,-0.0103,0.0043,9.8066,-0.0065,0.0085,0.0128,-15.02,11.17,-39.04,208.9,6.71,0.37
4156,51.78277,-2.304648,59,19.75,13,211.2,14 / 24,415622,2019-08-16 12:56:09:402,0.5859,0.1295,9.6091,0.0268,0.0195,9.8066,-0.0256,0.0426,-0.0043,-15.33,11.17,-38.23,208.9,6.71,0.37
4157,51.78277,-2.304648,59,19.75,13,211.2,14 / 24,415723,2019-08-16 12:56:09:503,-0.0698,-0.1135,9.7354,0.0185,0.0215,9.8066,-0.0065,-0.0064,0.0043,-14.27,10.79,-37.73,210.14,6.87,0.43
4158,51.78263,-2.304797,58,19.57,13,211.3,14 / 24,415823,2019-08-16 12:56:09:603,-0.0278,0.3607,10.0307,-0.0054,0.002,9.8066,-0.0011,0.0362,-0.0064,-14.27,10.79,-37.73,210.14,6.87,0.43
4159,51.78263,-2.304797,58,19.57,13,211.3,14 / 24,415923,2019-08-16 12:56:09:703,-0.2572,0.0217,9.253,-0.0021,-0.0012,9.8066,0.0127,0.0266,-0.0181,-13.52,10.79,-39.85,209.76,6.85,0.46
4160,51.78263,-2.304797,58,19.57,13,211.3,14 / 24,416023,2019-08-16 12:56:09:803,0.3213,0.0239,9.2176,-0.0217,-0.0128,9.8066,0.0127,-0.0266,0.0032,-14.65,10.42,-39.85,206.21,6.83,0.46
4161,51.78263,-2.304797,58,19.57,13,211.3,14 / 24,416123,2019-08-16 12:56:09:903,-0.1053,0.1295,9.2247,-0.0337,-0.0181,9.8066,0.0266,-0.0224,-0.0096,-14.65,10.42,-39.85,206.21,6.83,0.46
4162,51.78263,-2.304797,58,19.57,13,211.3,14 / 24,416222,2019-08-16 12:56:10:002,0.4433,0.1907,9.6267,-0.0068,0.0009,9.8066,-0.0139,-0.0416,-0.0053,-15.71,10.79,-39.41,207.67,6.61,0.45
4163,51.78263,-2.304797,58,19.57,13,211.3,14 / 24,416323,2019-08-16 12:56:10:103,0.2837,0.3839,10.1876,-0.0102,-0.0096,9.8066,-0.0182,-0.0192,-0.0053,-15.33,11.17,-38.54,207.67,6.61,0.45
4164,51.78263,-2.304797,58,19.57,13,211.3,14 / 24,416423,2019-08-16 12:56:10:203,0.0464,-0.7628,10.1325,-0.005,-0.0154,9.8066,-0.0182,-0.0192,-0.0053,-14.96,10.86,-38.1,209.19,6.54,0.38
4165,51.78263,-2.304797,58,19.57,13,211.3,14 / 24,416523,2019-08-16 12:56:10:303,0.0848,-0.3123,9.5331,0.0021,-0.0049,9.8066,-0.0033,-0.016,-0.0021,-14.96,10.86,-38.54,209.19,6.54,0.38
4166,51.78263,-2.304797,58,19.57,13,211.3,14 / 24,416623,2019-08-16 12:56:10:403,-0.0759,0.1836,9.3633,-0.0103,-0.0047,9.8066,0.0532,0.0021,0.0011,-14.96,10.86,-38.54,209.19,6.54,0.38
4167,51.78263,-2.304797,58,19.57,13,211.3,14 / 24,416723,2019-08-16 12:56:10:503,-0.5038,0.0092,10.3335,-0.0225,0.0197,9.8066,0.0202,0.0085,0.0032,-14.96,10.86,-38.1,209.23,6.48,0.39
4168,51.78248,-2.304936,59,19.52,13,211.1,Dec-24,416823,2019-08-16 12:56:10:603,-0.1276,-0.1322,9.9699,-0.0261,0.022,9.8066,0.017,-0.0554,0.0021,-15.33,10.86,-38.91,209.23,6.48,0.39
4169,51.78248,-2.304936,59,19.52,13,211.1,Dec-24,416923,2019-08-16 12:56:10:703,-0.1616,-0.1326,9.5402,-0.0098,0.0281,9.8066,-0.0533,-0.0309,0.0128,-14.96,10.86,-38.41,208.94,6.51,0.56
4170,51.78248,-2.304936,59,19.52,13,211.1,Dec-24,417023,2019-08-16 12:56:10:803,0.0057,0.4002,10.036,0.0344,-0.0057,9.8066,-0.0267,-0.0107,0.0075,-14.96,10.86,-38.41,208.94,6.51,0.56
4171,51.78248,-2.304936,59,19.52,13,211.1,Dec-24,417123,2019-08-16 12:56:10:903,0.168,-0.5194,9.2882,0.0217,-0.0128,9.8066,-0.0267,-0.0107,0.0075,-14.58,10.86,-38.41,209.01,6.67,0.43
4172,51.78248,-2.304936,59,19.52,13,211.1,Dec-24,417222,2019-08-16 12:56:11:002,-0.6479,-0.2548,9.4709,-0.0134,-0.0359,9.8066,-0.0267,-0.0128,0.0032,-14.96,11.23,-38.41,209.15,6.74,0.3
4173,51.78248,-2.304936,59,19.52,13,211.1,Dec-24,417324,2019-08-16 12:56:11:104,-0.6109,0.1707,10.0469,-0.0522,-0.0456,9.8064,0.0159,0.0426,0.0032,-14.96,10.86,-38.41,209.59,6.35,0.22
4174,51.78248,-2.304936,59,19.52,13,211.1,Dec-24,417423,2019-08-16 12:56:11:203,0.2001,0.2797,9.8566,-0.0228,-0.0118,9.8066,-0.0139,0.0053,-0.0011,-14.96,10.86,-38.41,209.59,6.35,0.22
4175,51.78248,-2.304936,59,19.52,13,211.1,Dec-24,417525,2019-08-16 12:56:11:305,-0.2232,-0.2788,9.5523,-0.0034,-0.0181,9.8066,-0.0235,-0.0064,0.0,-14.96,10.86,-38.85,209.63,6.28,0.14
4176,51.78248,-2.304936,59,19.52,13,211.1,Dec-24,417623,2019-08-16 12:56:11:403,0.2469,-0.173,9.9102,0.0087,-0.006,9.8066,0.0234,0.0192,0.0032,-14.96,10.48,-38.85,209.63,6.28,0.14
4177,51.78248,-2.304936,59,19.52,13,211.1,Dec-24,417723,2019-08-16 12:56:11:503,-0.494,-0.4719,10.5075,-0.0016,0.008,9.8066,0.0042,-0.0032,0.0107,-15.33,10.48,-38.41,207.44,6.34,0.12
4178,51.782303,-2.305089,58,19.97,12,210.8,Dec-24,417824,2019-08-16 12:56:11:604,-0.1094,0.2303,9.5522,-0.0126,0.0091,9.8066,0.0095,0.0288,0.0053,-15.33,10.48,-38.41,207.44,6.34,0.12
4179,51.782303,-2.305089,58,19.97,12,210.8,Dec-24,417923,2019-08-16 12:56:11:703,-0.2742,0.0991,10.9263,-0.0229,-0.0026,9.8066,0.0095,0.0288,0.0053,-14.58,10.11,-38.85,207.2,6.3,0.2
4180,51.782303,-2.305089,58,19.97,12,210.8,Dec-24,418023,2019-08-16 12:56:11:803,-0.3738,0.0471,9.2029,-0.0527,-0.0226,9.8065,0.0031,0.017,0.0,-14.96,10.11,-38.85,207.2,6.3,0.2
4181,51.782303,-2.305089,58,19.97,12,210.8,Dec-24,418122,2019-08-16 12:56:11:902,-0.292,0.4329,9.6536,-0.073,-0.0379,9.8063,-0.032,-0.0202,0.0213,-14.96,10.11,-38.85,207.2,6.3,0.2
4182,51.782303,-2.305089,58,19.97,12,210.8,Dec-24,418223,2019-08-16 12:56:12:003,-0.316,-0.3225,9.195,0.0115,0.0256,9.8066,0.0095,0.0234,0.0117,-14.96,10.48,-38.85,207.59,5.82,0.2
4183,51.782303,-2.305089,58,19.97,12,210.8,Dec-24,418323,2019-08-16 12:56:12:103,-0.0352,-0.0748,9.6257,0.0335,0.0465,9.8065,-0.0342,0.0245,0.0096,-14.96,10.86,-38.79,207.59,5.82,0.2
4184,51.782303,-2.305089,58,19.97,12,210.8,Dec-24,418423,2019-08-16 12:56:12:203,0.1666,-0.1358,9.9527,0.0168,0.0087,9.8066,0.001,-0.0107,-0.017,-14.96,10.86,-38.35,209.58,6.12,0.35
4185,51.782303,-2.305089,58,19.97,12,210.8,Dec-24,418523,2019-08-16 12:56:12:303,0.2829,-0.408,9.7362,0.0233,0.004,9.8066,-0.0001,0.0565,0.0181,-14.96,10.48,-38.79,207.07,6.25,0.3
4186,51.782303,-2.305089,58,19.97,12,210.8,Dec-24,418623,2019-08-16 12:56:12:403,0.0725,-0.1635,10.0561,-0.0445,-0.0247,9.8065,0.0021,0.0352,0.0096,-14.96,10.48,-38.79,207.07,6.25,0.3
4187,51.782303,-2.305089,58,19.97,12,210.8,Dec-24,418723,2019-08-16 12:56:12:503,-0.1884,0.1592,9.9617,-0.0272,0.0161,9.8066,-0.0011,0.0309,0.0043,-14.96,10.48,-38.35,207.47,5.95,0.29
4188,51.78217,-2.305226,58,20.15,12,210.7,Dec-24,418824,2019-08-16 12:56:12:604,-0.0701,0.3383,10.203,-0.0306,0.0014,9.8066,-0.0011,0.0309,0.0043,-14.96,10.86,-38.79,209.49,5.85,0.45
4189,51.78217,-2.305226,58,20.15,12,210.7,Dec-24,418923,2019-08-16 12:56:12:703,-0.3496,-0.3109,10.4573,-0.0296,0.0063,9.8066,-0.015,-0.0149,0.0096,-15.33,10.48,-37.91,209.49,5.85,0.45
4190,51.78217,-2.305226,58,20.15,12,210.7,Dec-24,419023,2019-08-16 12:56:12:803,0.2695,0.0773,9.639,-0.0224,-0.0054,9.8066,-0.0011,-0.0298,-0.0011,-15.33,10.48,-37.91,209.49,5.85,0.45
4191,51.78217,-2.305226,58,20.15,12,210.7,Dec-24,419123,2019-08-16 12:56:12:903,0.2833,0.1672,10.4396,0.004,0.0069,9.8066,-0.0033,-0.0426,0.017,-15.33,10.86,-38.35,209.69,5.72,0.49
4192,51.78217,-2.305226,58,20.15,12,210.7,Dec-24,419224,2019-08-16 12:56:13:004,0.1235,-0.4373,10.504,0.003,0.0045,9.8066,0.033,-0.0128,-0.0117,-14.58,10.86,-38.29,209.65,5.75,0.5
4193,51.78217,-2.305226,58,20.15,12,210.7,Dec-24,419323,2019-08-16 12:56:13:103,-0.0187,-0.3903,9.024,0.0091,0.0058,9.8066,-0.032,-0.0309,0.017,-14.58,10.86,-39.16,209.65,5.75,0.5
4194,51.78217,-2.305226,58,20.15,12,210.7,Dec-24,419423,2019-08-16 12:56:13:203,0.2054,0.6612,9.6552,0.0124,0.0048,9.8066,0.0095,0.0767,-0.0032,-14.58,10.86,-39.16,209.65,5.75,0.5
4195,51.78217,-2.305226,58,20.15,12,210.7,Dec-24,419523,2019-08-16 12:56:13:303,0.2375,-0.6223,10.0704,0.0108,-0.0113,9.8066,0.0021,0.0096,-0.0043,-14.96,10.86,-37.85,209.6,5.83,0.49
4196,51.78217,-2.305226,58,20.15,12,210.7,Dec-24,419623,2019-08-16 12:56:13:403,0.4245,-0.5865,9.0004,0.0181,0.0028,9.8066,-0.0043,-0.0192,0.0085,-14.96,10.86,-38.73,209.6,5.83,0.49
4197,51.78217,-2.305226,58,20.15,12,210.7,Dec-24,419723,2019-08-16 12:56:13:503,-0.234,0.3464,10.0157,0.0086,0.0259,9.8066,-0.0043,-0.0192,0.0085,-15.33,10.86,-38.29,209.34,5.95,0.6
4198,51.78202,-2.305363,59,20.11,12,210.6,Dec-24,419822,2019-08-16 12:56:13:602,-0.2451,0.1084,9.674,-0.035,0.0001,9.8066,0.0372,-0.0107,0.0,-15.33,10.86,-38.73,209.34,5.95,0.6
4199,51.78202,-2.305363,59,20.11,12,210.6,Dec-24,419923,2019-08-16 12:56:13:703,0.1773,0.3941,9.8718,-0.0255,-0.0056,9.8066,-0.0128,-0.016,-0.0032,-15.33,10.86,-37.85,209.39,5.8,0.64
4200,51.78202,-2.305363,59,20.11,12,210.6,Dec-24,420023,2019-08-16 12:56:13:803,-0.005,0.2479,10.1985,0.0148,-0.0094,9.8066,-0.032,-0.017,-0.0053,-15.33,10.86,-37.85,209.39,5.8,0.64
4201,51.78202,-2.305363,59,20.11,12,210.6,Dec-24,420124,2019-08-16 12:56:13:904,-0.3424,-0.4852,10.3116,0.0217,-0.0299,9.8066,0.0149,0.0245,0.0053,-14.96,10.48,-38.29,209.39,5.8,0.64
4202,51.78202,-2.305363,59,20.11,12,210.6,Dec-24,420223,2019-08-16 12:56:14:003,0.205,0.0582,9.9942,-0.0157,-0.0133,9.8066,0.0117,0.0021,-0.0064,-14.96,10.86,-38.23,209.7,5.83,0.43
4203,51.78202,-2.305363,59,20.11,12,210.6,Dec-24,420323,2019-08-16 12:56:14:103,-0.4101,0.0144,9.0434,-0.0166,-0.0194,9.8066,0.0021,-0.0884,0.0064,-14.58,10.86,-37.85,209.9,5.69,0.37
4204,51.78202,-2.305363,59,20.11,12,210.6,Dec-24,420422,2019-08-16 12:56:14:202,-0.1875,0.3639,10.0934,0.0264,0.0228,9.8066,0.0021,-0.0884,0.0064,-14.96,10.48,-37.85,207.32,5.89,0.41
4205,51.78202,-2.305363,59,20.11,12,210.6,Dec-24,420523,2019-08-16 12:56:14:303,0.1441,0.171,9.5453,0.0237,-0.0056,9.8066,-0.0001,-0.0565,-0.0138,-14.96,10.48,-37.85,207.32,5.89,0.41
4206,51.78202,-2.305363,59,20.11,12,210.6,Dec-24,420623,2019-08-16 12:56:14:403,-0.3279,-0.2294,10.0355,-0.0141,0.0006,9.8066,-0.0107,0.0447,0.0043,-14.96,10.17,-38.66,207.25,6.0,0.32
4207,51.78202,-2.305363,59,20.11,12,210.6,Dec-24,420722,2019-08-16 12:56:14:502,-0.1865,0.3221,10.2196,-0.0073,-0.003,9.8066,-0.0235,0.0032,0.0064,-14.96,10.86,-38.23,209.72,5.92,0.36
4208,51.781864,-2.305507,58,20.09,12,210.4,Dec-24,420823,2019-08-16 12:56:14:603,0.0045,0.117,10.4639,-0.0166,-0.0017,9.8066,0.0117,-0.0032,0.0011,-14.96,10.86,-38.23,209.72,5.92,0.36
4209,51.781864,-2.305507,58,20.09,12,210.4,Dec-24,420923,2019-08-16 12:56:14:703,0.5266,0.4464,9.8099,-0.0085,-0.0315,9.8066,-0.0075,-0.0543,0.0064,-14.58,10.48,-38.23,207.38,5.83,0.4
4210,51.781864,-2.305507,58,20.09,12,210.4,Dec-24,421023,2019-08-16 12:56:14:803,-0.0537,-0.1149,9.8446,0.0085,-0.0305,9.8066,0.0063,-0.0373,-0.0021,-14.96,10.86,-38.23,210.05,5.8,0.22
4211,51.781864,-2.305507,58,20.09,12,210.4,Dec-24,421123,2019-08-16 12:56:14:903,0.1483,0.3141,9.4454,0.0204,0.0065,9.8066,0.0063,-0.0373,-0.0021,-14.58,10.86,-38.23,210.05,5.8,0.22
4212,51.781864,-2.305507,58,20.09,12,210.4,Dec-24,421222,2019-08-16 12:56:15:002,0.0995,0.003,9.5831,0.034,0.0301,9.8065,-0.0288,-0.0064,0.0075,-14.58,10.86,-38.23,210.05,5.8,0.22
4213,51.781864,-2.305507,58,20.09,12,210.4,Dec-24,421323,2019-08-16 12:56:15:103,0.1396,0.2272,9.4122,-0.0058,-0.0017,9.8066,0.0063,0.0341,0.0021,-14.58,10.54,-37.79,209.75,6.06,0.27
4214,51.781864,-2.305507,58,20.09,12,210.4,Dec-24,421423,2019-08-16 12:56:15:203,-0.2848,-0.2315,9.4377,0.0076,0.0055,9.8066,-0.0192,0.017,-0.0032,-14.58,10.48,-38.66,207.22,6.11,0.28
4215,51.781864,-2.305507,58,20.09,12,210.4,Dec-24,421523,2019-08-16 12:56:15:303,-0.3276,0.2022,9.3491,0.0126,-0.0008,9.8066,-0.016,-0.0181,-0.0043,-14.58,10.48,-38.66,207.22,6.11,0.28
4216,51.781864,-2.305507,58,20.09,12,210.4,Dec-24,421623,2019-08-16 12:56:15:403,-0.2447,0.3123,10.3328,-0.0114,0.005,9.8066,-0.0118,-0.0394,0.0075,-14.96,10.54,-38.16,209.72,6.16,0.24
4217,51.781864,-2.305507,58,20.09,12,210.4,Dec-24,421723,2019-08-16 12:56:15:503,-0.2846,-0.4582,9.407,-0.0161,0.011,9.8066,-0.0107,0.0692,0.0107,-14.96,11.23,-38.16,209.6,6.11,0.34
4218,51.78169,-2.305662,59,20.49,12,210.1,Dec-24,421823,2019-08-16 12:56:15:603,0.319,0.1285,9.6802,-0.0063,0.0126,9.8066,-0.0107,0.0692,0.0107,-14.96,11.23,-38.16,209.6,6.11,0.34
4219,51.78169,-2.305662,59,20.49,12,210.1,Dec-24,421923,2019-08-16 12:56:15:703,0.1309,0.2096,9.7104,-0.0082,0.0038,9.8066,0.0106,-0.0149,0.0085,-14.21,10.54,-38.16,210.81,6.11,0.42
4220,51.78169,-2.305662,59,20.49,12,210.1,Dec-24,422023,2019-08-16 12:56:15:803,0.2492,0.3542,10.3906,-0.004,-0.0044,9.8066,0.0063,0.0021,0.0011,-14.58,10.92,-38.16,209.43,6.08,0.47
4221,51.78169,-2.305662,59,20.49,12,210.1,Dec-24,422123,2019-08-16 12:56:15:903,-0.0023,-0.0864,10.1523,0.001,0.0071,9.8066,0.0138,-0.0277,0.0107,-14.58,10.92,-38.16,209.43,6.08,0.47
4222,51.78169,-2.305662,59,20.49,12,210.1,Dec-24,422223,2019-08-16 12:56:16:003,-0.4212,0.1395,10.4426,0.0017,0.0238,9.8066,0.017,0.0256,0.0256,-14.58,10.54,-37.73,209.36,6.11,0.5
4223,51.78169,-2.305662,59,20.49,12,210.1,Dec-24,422323,2019-08-16 12:56:16:103,-0.0115,0.2545,9.1764,-0.0215,0.0179,9.8066,-0.0043,0.0128,0.017,-14.58,10.54,-38.54,208.95,6.18,0.62
4224,51.78169,-2.305662,59,20.49,12,210.1,Dec-24,422423,2019-08-16 12:56:16:203,-0.4392,-0.0847,9.562,-0.0345,0.0294,9.8065,0.0095,-0.0107,0.0043,-14.58,10.92,-38.6,208.63,6.09,0.87
4225,51.78169,-2.305662,59,20.49,12,210.1,Dec-24,422523,2019-08-16 12:56:16:303,-0.0659,-0.0765,9.1211,0.0079,0.02,9.8066,0.0095,-0.0107,0.0043,-14.58,10.54,-38.98,208.63,6.09,0.87
4226,51.78169,-2.305662,59,20.49,12,210.1,Dec-24,422623,2019-08-16 12:56:16:403,0.0047,-0.0093,9.9431,0.0382,0.0291,9.8065,-0.0065,-0.0224,0.0,-14.58,10.54,-38.98,208.63,6.09,0.87
4227,51.78169,-2.305662,59,20.49,12,210.1,Dec-24,422723,2019-08-16 12:56:16:503,0.2733,0.2476,8.9874,-0.0102,-0.0044,9.8066,-0.0288,-0.0075,0.017,-14.58,10.54,-38.1,208.51,6.37,0.91
4228,51.78153,-2.305796,60,20.32,12,209.6,Dec-24,422823,2019-08-16 12:56:16:603,0.1726,0.0756,9.3846,-0.0163,0.0085,9.8066,0.0223,0.0383,0.0117,-14.58,10.54,-39.79,208.2,6.3,0.91
4229,51.78153,-2.305796,60,20.32,12,209.6,Dec-24,422923,2019-08-16 12:56:16:703,0.11,0.0143,9.6543,-0.0196,0.0214,9.8066,0.0276,-0.0394,-0.0032,-14.58,10.54,-39.79,208.2,6.3,0.91
4230,51.78153,-2.305796,60,20.32,12,209.6,Dec-24,423023,2019-08-16 12:56:16:803,-0.0983,0.3985,10.0208,-0.0124,0.0074,9.8066,-0.0065,-0.0384,0.0117,-14.21,10.17,-38.98,206.99,6.26,1.08
4231,51.78153,-2.305796,60,20.32,12,209.6,Dec-24,423123,2019-08-16 12:56:16:903,0.077,0.2737,9.9059,-0.0063,0.0041,9.8066,0.0063,-0.0096,0.0032,-14.21,10.17,-39.79,206.75,6.24,1.12
4232,51.78153,-2.305796,60,20.32,12,209.6,Dec-24,423224,2019-08-16 12:56:17:004,-0.4206,0.2343,10.0959,0.0115,0.0124,9.8066,-0.0107,-0.0043,-0.0011,-14.21,10.17,-39.79,206.75,6.24,1.12
4233,51.78153,-2.305796,60,20.32,12,209.6,Dec-24,423324,2019-08-16 12:56:17:104,-0.1243,0.3814,11.235,0.0414,0.0121,9.8066,-0.0107,-0.0043,-0.0011,-13.83,10.17,-39.41,206.82,6.49,1.07
4234,51.78153,-2.305796,60,20.32,12,209.6,Dec-24,423423,2019-08-16 12:56:17:203,-0.2253,-0.6729,10.4656,-0.0004,-0.0093,9.8066,-0.0033,-0.0043,-0.0149,-13.52,10.17,-39.41,206.82,6.49,1.07
4235,51.78153,-2.305796,60,20.32,12,209.6,Dec-24,423523,2019-08-16 12:56:17:303,0.1048,-0.2976,9.9488,-0.0151,-0.0016,9.8066,0.0021,0.0085,0.0053,-13.52,9.79,-40.23,206.73,6.56,0.98
