,GPS LATITUDE (degrees), GPS LONGITUDE (degrees), GPS ALTITUDE (m), GPS SPEED (Kmh), GPS ACCURACY (m), GPS ORIENTATION (Â°),GPS SATELLITES IN RANGE, TIME SINCE START (ms), DATE (YYYY-MO-DD HH-MI-SS_SSS), ACCELEROMETER X (m/s²) , ACCELEROMETER Y (m/s²), ACCELEROMETER Z (m/s²), GRAVITY X (m/s²), GRAVITY Y (m/s²), GRAVITY Z (m/s²), GYROSCOPE Yaw (rad/s), GYROSCOPE Pitch (rad/s), GYROSCOPE Roll (rad/s), MAGNETIC FIELD X (Î¼T), MAGNETIC FIELD Y (Î¼T), MAGNETIC FIELD Z (Î¼T), ORIENTATION (Yaw) (Â°), ORIENTATION (Pitch) (Â°), ORIENTATION (Roll ) (Â°)
7920,52.46631,-1.882692,561.29,57.64,29.032257,217.0,Dec-19,3960048,2019-10-03 15:28:44:804,-0.8029,0.9057,10.5486,0.0105,0.2975,9.8021,-0.0027,0.016,-0.0699,-23.65,13.14,-12.96,209.14,-0.25,-1.56
7921,52.46631,-1.882692,561.29,57.64,29.032257,217.0,Dec-19,3960548,2019-10-03 15:28:45:304,-0.1784,0.1763,10.2999,-0.0412,0.31,9.8017,-0.0389,-0.0319,0.009,-23.84,13.71,-11.99,210.9,-0.18,-1.65
7922,52.4662,-1.882847,561.29,58.64,29.032257,217.0,Dec-19,3961048,2019-10-03 15:28:45:804,-0.8888,1.162,10.5482,-0.0818,0.5117,9.793,0.0272,0.0203,0.0388,-23.6,12.82,-13.36,209.5,0.64,-2.96
7923,52.4662,-1.882847,561.29,58.64,29.032257,217.0,Dec-19,3961548,2019-10-03 15:28:46:304,-0.5971,0.7935,9.5134,-0.1306,0.4483,9.7955,0.0485,-0.0628,0.0303,-23.83,14.06,-11.58,211.08,0.68,-2.67
7924,52.466072,-1.882994,561.29,58.75,29.032257,216.9,Dec-19,3962048,2019-10-03 15:28:46:804,-0.0772,0.2683,9.6091,-0.2118,0.3723,9.7973,-0.025,-0.0149,0.0196,-23.86,13.87,-11.76,209.05,1.14,-2.23
7925,52.466072,-1.882994,561.29,58.75,29.032257,216.9,Dec-19,3962548,2019-10-03 15:28:47:304,0.1025,0.1551,10.0848,-0.2389,0.3679,9.7968,0.0368,-0.0053,-0.0198,-23.83,13.94,-11.74,210.79,1.42,-2.28
7926,52.465954,-1.883154,554.84,59.26,32.258064,217.3,Dec-19,3963048,2019-10-03 15:28:47:804,-1.0638,0.7037,9.6052,-0.2671,0.3793,9.7957,0.0197,0.0192,0.0068,-23.82,14.23,-11.39,210.73,1.39,-2.22
7927,52.465954,-1.883154,554.84,59.26,32.258064,217.3,Dec-19,3963549,2019-10-03 15:28:48:305,-1.0271,0.6664,9.288,-0.4442,0.3631,9.7899,-0.0027,-0.065,0.0058,-23.67,14.34,-11.58,210.52,2.33,-2.0
7928,52.46585,-1.883303,554.84,58.28,32.258064,218.3,Nov-19,3964048,2019-10-03 15:28:48:804,-1.08,0.245,9.6714,-0.5433,0.2365,9.7887,0.0346,0.0352,0.0239,-23.29,15.5,-10.83,212.94,3.18,-1.38
7929,52.46585,-1.883303,554.84,58.28,32.258064,218.3,Nov-19,3964549,2019-10-03 15:28:49:305,-0.5411,0.3154,9.5605,-0.6195,0.1865,9.7853,-0.0463,-0.0511,0.01,-21.92,17.66,-10.38,218.9,3.48,-1.13
7930,52.465748,-1.883447,554.84,57.78,35.48387,219.2,Dec-19,3965048,2019-10-03 15:28:49:804,-1.0369,-0.2569,9.3633,-0.6603,0.1148,9.7837,-0.0112,-0.0053,-0.023,-23.19,16.4,-9.64,214.38,3.83,-0.85
7931,52.465748,-1.883447,554.84,57.78,35.48387,219.2,Dec-19,3965548,2019-10-03 15:28:50:304,-0.6121,0.0271,9.9905,-0.7226,0.0702,9.7797,0.0229,-0.0053,-0.0081,-22.66,16.86,-10.11,215.82,4.22,-0.46
7932,52.46566,-1.883572,558.06,54.86,35.48387,220.0,Dec-19,3966048,2019-10-03 15:28:50:804,-0.7349,-0.053,9.701,-0.7584,0.039,9.7772,0.0069,0.016,-0.0059,-22.3,16.95,-10.74,216.8,4.44,-0.23
7933,52.46566,-1.883572,558.06,54.86,35.48387,220.0,Dec-19,3966548,2019-10-03 15:28:51:304,-0.819,0.4119,9.5198,-0.7603,0.0595,9.777,-0.0176,-0.0106,0.0122,-22.23,16.53,-11.51,216.75,4.42,-0.3
7934,52.465546,-1.883719,561.29,54.76,38.709675,220.6,Dec-19,3967048,2019-10-03 15:28:51:804,0.0047,-0.4379,10.1133,-0.7705,0.097,9.7759,0.0112,-0.0085,-0.0273,-22.26,17.11,-10.57,216.86,4.61,-0.5
7935,52.465546,-1.883719,561.29,54.76,38.709675,220.6,Dec-19,3967548,2019-10-03 15:28:52:304,-0.9528,0.32,10.5141,-0.8425,0.1543,9.7692,0.0048,-0.0543,-0.007,-21.95,17.05,-11.29,216.97,4.54,-0.79
7936,52.465454,-1.883848,567.74,50.36,35.48387,221.6,Dec-19,3968048,2019-10-03 15:28:52:804,-1.3696,-0.4324,9.6332,-1.0611,0.1411,9.7481,-0.0804,-0.0309,-0.04,-21.91,17.0,-11.45,216.73,5.96,-0.84
7937,52.465454,-1.883848,567.74,50.36,35.48387,221.6,Dec-19,3968548,2019-10-03 15:28:53:304,-2.1147,0.6894,9.6902,-1.3528,0.175,9.7113,-0.0144,-0.0138,0.0111,-21.71,17.17,-11.57,216.52,7.55,-1.0
7938,52.46537,-1.883983,567.74,48.02,35.48387,222.6,Dec-19,3969048,2019-10-03 15:28:53:804,-2.1022,-0.2842,9.0822,-1.6935,0.1336,9.6584,0.0122,0.0139,-0.0155,-21.63,17.51,-11.2,217.65,9.94,-0.79
7939,52.46537,-1.883983,567.74,48.02,35.48387,222.6,Dec-19,3969548,2019-10-03 15:28:54:304,-2.9603,0.4682,8.3085,-2.014,0.1184,9.5969,-0.0048,0.0501,0.0047,-21.28,17.13,-12.41,216.77,11.61,-0.71
7940,52.4653,-1.884104,564.52,43.38,35.48387,223.6,Dec-19,3970048,2019-10-03 15:28:54:804,-2.7592,-0.4822,9.7942,-2.2275,0.0697,9.5501,0.008,0.0022,-0.0028,-21.3,17.24,-12.21,216.51,12.9,-0.52
7941,52.4653,-1.884104,564.52,43.38,35.48387,223.6,Dec-19,3970548,2019-10-03 15:28:55:304,-2.7676,-0.1178,10.2698,-2.4332,0.0059,9.5,0.0101,0.0245,0.0047,-20.92,17.71,-12.2,217.68,14.37,-0.04
7942,52.465237,-1.8842,567.74,37.76,35.48387,224.3,Dec-19,3971049,2019-10-03 15:28:55:805,-2.253,-0.6398,9.8968,-2.5496,-0.0491,9.4693,-0.0059,0.0032,-0.0028,-21.23,16.98,-12.69,215.57,15.07,0.3
7943,52.465237,-1.8842,567.74,37.76,35.48387,224.3,Dec-19,3971549,2019-10-03 15:28:56:305,-1.4621,-0.2642,9.5451,-2.3812,-0.0569,9.513,0.0048,0.0022,0.01,-20.92,17.35,-12.71,215.65,14.24,0.39
7944,52.465176,-1.884291,570.97,34.56,32.258064,224.5,Dec-19,3972048,2019-10-03 15:28:56:804,-2.1104,-0.3766,9.8987,-2.224,-0.0527,9.551,0.0112,0.0096,0.0122,-20.92,17.35,-12.71,215.82,13.32,0.32
7945,52.465176,-1.884291,570.97,34.56,32.258064,224.5,Dec-19,3972549,2019-10-03 15:28:57:305,-1.139,-0.1258,9.4889,-2.0158,-0.0296,9.5972,-0.0016,0.0171,0.0079,-21.0,17.85,-11.85,217.85,12.28,0.27
7946,52.46516,-1.884343,570.97,24.8,32.258064,224.7,Dec-19,3973048,2019-10-03 15:28:57:804,-1.2199,-0.302,9.8622,-1.7361,-0.0173,9.6517,-0.0186,0.0032,0.01,-20.26,18.71,-11.81,221.02,10.2,0.1
7947,52.46516,-1.884343,570.97,24.8,32.258064,224.7,Dec-19,3973548,2019-10-03 15:28:58:304,-1.4623,-0.1513,10.207,-1.5269,0.013,9.687,-0.0059,-0.0383,0.0058,-20.28,19.14,-11.07,218.73,9.18,-0.15
7948,52.46512,-1.884405,567.74,21.46,29.032257,224.8,Dec-19,3974048,2019-10-03 15:28:58:804,-1.2169,0.0112,10.0124,-1.4794,0.0621,9.6942,0.0027,-0.001,-0.006,-20.1,18.96,-11.68,221.48,8.76,-0.38
7949,52.46512,-1.884405,567.74,21.46,29.032257,224.8,Dec-19,3974549,2019-10-03 15:28:59:305,-1.3006,0.1004,10.4541,-1.5194,0.0848,9.6879,0.0027,0.0139,0.0089,-20.13,18.46,-12.4,219.94,8.95,-0.43
7950,52.4651,-1.88447,564.52,18.58,32.258064,225.2,Dec-19,3975048,2019-10-03 15:28:59:804,-0.5028,0.3473,9.586,-1.1924,0.133,9.733,-0.0165,0.0064,0.0121,-20.56,18.37,-11.82,219.0,7.67,-0.62
7951,52.4651,-1.88447,564.52,18.58,32.258064,225.2,Dec-19,3975548,2019-10-03 15:29:00:304,-0.3688,-0.0547,10.1668,-0.9605,0.1753,9.7579,0.0037,-0.0021,0.0111,-20.6,18.24,-11.96,219.57,5.62,-1.03
7952,52.46508,-1.884519,561.29,15.59,32.258064,225.4,Dec-19,3976048,2019-10-03 15:29:00:804,1.3584,0.7601,9.9578,-0.1139,0.3351,9.8003,0.0272,-0.016,-0.0006,-21.6,17.57,-11.15,219.47,1.58,-1.86
7953,52.46508,-1.884519,561.29,15.59,32.258064,225.4,Dec-19,3976548,2019-10-03 15:29:01:304,1.0963,0.4438,10.3713,0.4819,0.4282,9.7854,0.0122,-0.0191,-0.006,-21.23,17.27,-12.29,221.78,-1.71,-2.24
7954,52.46505,-1.88457,564.52,16.6,32.258064,225.3,Dec-19,3977048,2019-10-03 15:29:01:804,1.2962,0.7618,10.403,1.0743,0.5334,9.733,0.0218,0.0437,-0.0411,-21.31,16.91,-12.64,221.7,-5.31,-2.88
7955,52.46505,-1.88457,564.52,16.6,32.258064,225.3,Dec-19,3977550,2019-10-03 15:29:02:306,1.745,0.2829,9.5739,1.4099,0.5685,9.6881,0.0016,0.0171,-0.0081,-20.96,17.49,-12.44,222.63,-8.27,-3.36
7956,52.465,-1.884631,564.52,22.28,32.258064,225.1,Dec-19,3978048,2019-10-03 15:29:02:804,0.6134,0.488,9.6686,1.4547,0.5558,9.6822,-0.0165,-0.0032,0.0196,-20.99,16.97,-13.09,223.02,-8.53,-3.29
7957,52.465,-1.884631,564.52,22.28,32.258064,225.1,Dec-19,3978548,2019-10-03 15:29:03:304,0.4985,0.201,11.6727,1.4211,0.5345,9.6884,-0.0527,0.0597,0.075,-20.34,16.55,-14.57,223.28,-8.42,-3.26
7958,52.464947,-1.884729,564.52,28.33,32.258064,225.0,Dec-19,3979049,2019-10-03 15:29:03:805,0.3206,0.1098,8.9925,1.1392,0.5553,9.7244,-0.008,-0.0522,0.0239,-20.92,17.02,-13.15,222.58,-7.53,-3.12
7959,52.464947,-1.884729,564.52,28.33,32.258064,225.0,Dec-19,3979548,2019-10-03 15:29:04:304,0.4416,0.3688,9.3515,1.011,0.571,9.7377,-0.0431,-0.0181,0.0143,-20.96,17.39,-12.58,222.06,-5.92,-3.36
7960,52.464912,-1.884796,570.97,32.8,32.258064,224.9,Dec-19,3980048,2019-10-03 15:29:04:804,0.8835,0.2264,9.3482,0.9168,0.5833,9.7463,-0.0218,-0.0799,0.0079,-21.37,16.7,-12.83,221.96,-5.58,-3.42
7961,52.464912,-1.884796,570.97,32.8,32.258064,224.9,Dec-19,3980549,2019-10-03 15:29:05:305,0.9815,-0.0414,8.9883,0.8108,0.6045,9.7544,0.0144,-0.001,0.0665,-21.06,16.04,-14.12,220.41,-5.03,-3.57
7962,52.46484,-1.884901,574.19,36.68,32.258064,224.3,Dec-19,3981049,2019-10-03 15:29:05:805,0.9118,0.1566,9.6372,0.5985,0.5681,9.7719,-0.0059,-0.017,0.0313,-21.41,16.17,-13.42,219.98,-3.93,-3.48
7963,52.46484,-1.884901,574.19,36.68,32.258064,224.3,Dec-19,3981548,2019-10-03 15:29:06:304,0.1053,-0.4811,9.8649,0.5054,0.5045,9.7806,0.0293,-0.0756,0.0121,-20.91,16.46,-13.84,219.59,-3.23,-3.07
7964,52.46476,-1.885014,577.42,40.0,16.129032,223.5,Dec-19,3982049,2019-10-03 15:29:06:805,-1.4352,1.2081,8.8833,0.4316,0.4072,9.7887,-0.074,-0.0873,0.0015,-21.4,16.09,-13.53,219.09,-2.52,-2.38
7965,52.46476,-1.885014,577.42,40.0,16.129032,223.5,Dec-19,3982549,2019-10-03 15:29:07:305,0.8401,-0.26,8.4193,0.3641,0.2945,9.7955,0.0197,0.0192,0.0068,-21.49,15.77,-13.77,218.84,-2.32,-1.91
7966,52.46467,-1.885134,577.42,43.02,16.129032,221.9,Dec-19,3983048,2019-10-03 15:29:07:804,-0.7454,0.5253,10.3002,0.0051,0.2737,9.8028,-0.0602,-0.0032,0.0089,-19.82,16.53,-15.29,221.23,-0.54,-1.58
7967,52.46467,-1.885134,577.42,43.02,16.129032,221.9,Dec-19,3983549,2019-10-03 15:29:08:305,-0.595,0.4115,9.9398,-0.266,0.1999,9.801,-0.0133,-0.0032,0.0164,-20.25,16.36,-14.91,218.71,1.43,-1.23
7968,52.464565,-1.885267,567.74,43.96,16.129032,219.8,Dec-19,3984049,2019-10-03 15:29:08:805,0.3362,-0.3514,9.557,-0.18,0.203,9.8029,-0.0069,-0.0085,0.0377,-21.16,15.27,-14.8,215.78,1.02,-1.25
7969,52.464565,-1.885267,567.74,43.96,16.129032,219.8,Dec-19,3984548,2019-10-03 15:29:09:304,-0.5579,0.2762,9.4399,-0.2985,0.2263,9.7995,-0.0293,-0.1001,0.0164,-20.89,15.46,-14.99,217.49,1.11,-1.25
7970,52.464485,-1.885368,570.97,45.54,16.129032,218.1,Nov-19,3985049,2019-10-03 15:29:09:805,-0.4539,-0.0291,9.6231,-0.4019,0.2028,9.7963,-0.0037,-0.0128,0.0121,-21.3,15.22,-14.65,215.34,2.35,-1.19
7971,52.464485,-1.885368,570.97,45.54,16.129032,218.1,Nov-19,3985548,2019-10-03 15:29:10:304,-0.6012,0.4241,9.233,-0.5133,0.189,9.7914,0.0027,-0.001,-0.0017,-21.22,16.12,-13.77,216.92,2.8,-1.09
7972,52.46436,-1.885505,567.74,50.33,16.129032,216.2,Nov-19,3986048,2019-10-03 15:29:10:804,-0.7881,-0.1473,9.6779,-0.574,0.2435,9.7868,-0.0059,-0.0458,0.0505,-21.08,15.06,-15.13,212.18,3.32,-1.37
7973,52.46436,-1.885505,567.74,50.33,16.129032,216.2,Nov-19,3986549,2019-10-03 15:29:11:305,-0.9819,0.1539,9.2168,-0.66,0.2153,9.782,-0.0123,-0.0277,0.0366,-22.19,13.46,-15.05,213.19,3.71,-1.27
7974,52.464252,-1.885619,567.74,51.34,12.903226,214.6,Nov-19,3987049,2019-10-03 15:29:11:805,-1.1158,0.8521,9.2995,-0.7056,0.2185,9.7788,-0.0176,0.0181,0.0313,-21.82,14.77,-14.34,213.18,4.06,-1.46
7975,52.464252,-1.885619,567.74,51.34,12.903226,214.6,Nov-19,3987549,2019-10-03 15:29:12:305,-0.4929,0.3773,9.7758,-0.7533,0.1888,9.7758,0.0272,0.0181,0.0302,-22.8,13.7,-13.86,210.79,4.39,-1.19
7976,52.464157,-1.885729,574.19,53.21,16.129032,213.0,Oct-19,3988048,2019-10-03 15:29:12:804,-0.6086,0.5159,11.2229,-0.7473,0.2039,9.776,-0.0623,-0.0138,0.0164,-22.61,12.94,-14.88,208.89,4.28,-1.02
7977,52.464157,-1.885729,574.19,53.21,16.129032,213.0,Oct-19,3988548,2019-10-03 15:29:13:304,-1.1556,0.0575,9.117,-0.7648,0.1698,9.7753,-0.0197,-0.0298,0.0281,-22.99,12.08,-15.02,207.09,4.27,-1.13
7978,52.46405,-1.885833,567.74,51.98,16.129032,211.3,Oct-19,3989048,2019-10-03 15:29:13:804,-1.8057,0.0575,9.6555,-1.0838,0.1568,9.7453,0.0048,-0.0032,0.0068,-23.59,11.86,-14.25,205.72,6.34,-0.92
7979,52.46405,-1.885833,567.74,51.98,16.129032,211.3,Oct-19,3989548,2019-10-03 15:29:14:304,-2.3676,0.6862,9.9603,-1.4837,0.0834,9.6934,0.0218,0.0117,0.0452,-23.71,13.9,-12.04,209.05,8.33,-0.69
7980,52.46395,-1.885931,567.74,50.54,19.35484,209.9,Nov-19,3990048,2019-10-03 15:29:14:804,-1.648,-0.4575,10.1192,-1.7622,0.1107,9.6464,-0.0165,0.0661,0.0441,-23.2,10.72,-15.71,203.7,10.35,-0.66
7981,52.46395,-1.885931,567.74,50.54,19.35484,209.9,Nov-19,3990548,2019-10-03 15:29:15:304,-1.4062,-0.2909,9.9653,-1.9341,-0.0679,9.6138,0.0112,0.0171,0.0388,-22.74,10.6,-16.45,203.24,11.34,-0.11
7982,52.46385,-1.88601,564.52,46.69,12.903226,208.0,Nov-19,3991048,2019-10-03 15:29:15:804,0.0724,-0.4251,8.8565,-1.5517,-0.1883,9.6813,-0.0485,0.1002,0.092,-23.96,9.92,-15.08,200.4,9.1,1.11
7983,52.46385,-1.88601,564.52,46.69,12.903226,208.0,Nov-19,3991548,2019-10-03 15:29:16:304,0.5326,-1.8352,10.3773,-1.1173,-0.9734,9.694,0.0229,0.0458,0.2774,-23.5,8.71,-16.49,196.52,7.04,4.66
7984,52.463737,-1.886102,564.52,46.12,16.129032,201.6,Nov-19,3992048,2019-10-03 15:29:16:804,-1.0908,-3.5184,9.9381,-0.7268,-1.7747,9.6173,-0.0378,-0.0064,0.2295,-24.46,6.31,-16.19,187.28,4.62,9.67
7985,52.463737,-1.886102,564.52,46.12,16.129032,201.6,Nov-19,3992549,2019-10-03 15:29:17:305,0.2493,-2.9348,10.457,-0.1507,-2.3809,9.512,-0.0389,0.0821,0.2795,-25.23,3.86,-15.76,179.99,0.88,14.05
7986,52.463642,-1.886135,561.29,41.15,16.129032,187.1,Nov-19,3993049,2019-10-03 15:29:17:805,0.2146,-3.8907,9.1078,0.296,-2.7186,9.4176,0.0197,-0.0692,0.2742,-26.35,1.58,-14.25,175.85,-1.65,15.66
7987,52.463642,-1.886135,561.29,41.15,16.129032,187.1,Nov-19,3993548,2019-10-03 15:29:18:304,0.1639,-2.3517,10.6116,0.6858,-2.9874,9.3153,-0.0016,0.0309,0.1709,-26.24,-0.38,-14.54,169.59,-4.01,17.78
7988,52.46354,-1.886125,558.06,38.81,16.129032,172.7,Nov-19,3994048,2019-10-03 15:29:18:804,-0.3825,-1.7757,10.6674,0.6697,-2.7102,9.4009,-0.0378,0.0256,0.141,-25.32,-1.41,-16.03,166.78,-3.7,17.0
7989,52.46354,-1.886125,558.06,38.81,16.129032,172.7,Nov-19,3994548,2019-10-03 15:29:19:304,0.809,-0.4024,9.74,0.6066,-2.1081,9.5581,0.0474,0.0171,0.0547,-25.74,-2.42,-15.22,167.99,-3.76,13.0
7990,52.463448,-1.886098,558.06,37.87,19.35484,165.7,Nov-19,3995049,2019-10-03 15:29:19:805,-0.6245,1.9965,10.0449,0.3391,-0.8369,9.765,-0.0815,-0.0106,-0.0411,-25.92,-4.34,-14.47,166.79,-2.8,8.15
7991,52.463448,-1.886098,558.06,37.87,19.35484,165.7,Nov-19,3995548,2019-10-03 15:29:20:304,-0.9934,2.7204,8.3402,-0.0395,0.3959,9.7986,-0.0101,0.0096,-0.1626,-25.77,-4.06,-14.82,171.77,-0.2,-0.95
7992,52.463367,-1.886084,561.29,34.49,22.580645,170.1,Nov-19,3996048,2019-10-03 15:29:20:804,-1.3632,2.6559,10.0752,-0.5613,1.5961,9.6596,0.0027,0.0235,-0.2084,-25.64,-2.4,-15.39,180.39,3.01,-8.29
7993,52.463367,-1.886084,561.29,34.49,22.580645,170.1,Nov-19,3996549,2019-10-03 15:29:21:305,-0.8659,3.3834,10.1698,-0.5569,2.3067,9.5152,-0.0293,-0.0745,-0.2616,-25.9,1.38,-15.07,189.55,3.26,-13.63
7994,52.46324,-1.886066,564.52,40.43,19.35484,182.3,Nov-19,3997048,2019-10-03 15:29:21:804,-0.6635,3.3203,9.3503,-0.4823,3.1148,9.2863,0.0037,-0.0319,-0.251,-25.15,3.04,-16.06,196.8,2.81,-17.81
7995,52.46324,-1.886066,564.52,40.43,19.35484,182.3,Nov-19,3997548,2019-10-03 15:29:22:304,-1.4934,4.0179,9.5802,-0.3922,3.5417,9.1363,-0.0431,-0.0639,-0.3138,-24.95,4.6,-16.01,202.06,2.4,-20.75
7996,52.463135,-1.886098,567.74,41.44,19.35484,197.1,Nov-19,3998049,2019-10-03 15:29:22:805,-0.3666,3.0812,9.5314,-0.3529,3.8044,9.0317,-0.024,-0.0053,-0.2734,-23.47,8.17,-16.8,210.74,2.1,-22.72
7997,52.463135,-1.886098,567.74,41.44,19.35484,197.1,Nov-19,3998548,2019-10-03 15:29:23:304,-0.7222,2.7225,8.8552,-0.2685,3.7349,9.0636,0.0282,-0.0191,-0.2212,-21.7,12.06,-16.84,218.31,1.64,-22.67
7998,52.46304,-1.886156,564.52,39.56,19.35484,212.8,Nov-19,3999048,2019-10-03 15:29:23:804,-1.2603,2.9301,8.3712,-0.3259,3.5712,9.1275,0.0016,-0.0628,-0.1999,-19.83,15.17,-16.63,224.82,1.75,-21.45
7999,52.46304,-1.886156,564.52,39.56,19.35484,212.8,Nov-19,3999548,2019-10-03 15:29:24:304,-1.4131,2.9378,9.4496,-0.558,3.4553,9.1608,-0.0325,-0.0149,-0.2499,-18.03,17.6,-16.28,230.66,3.07,-20.69
8000,52.46299,-1.886309,558.06,41.8,22.580645,227.7,Nov-19,4000049,2019-10-03 15:29:24:805,-1.3192,3.1082,9.6723,-0.7346,3.5472,9.1131,-0.0154,-0.0096,-0.2723,-15.45,18.59,-17.77,237.07,4.13,-21.1
8001,52.46299,-1.886309,558.06,41.8,22.580645,227.7,Nov-19,4000548,2019-10-03 15:29:25:304,-1.9895,4.4277,8.3289,-0.8705,3.9468,8.9351,-0.024,-0.0149,-0.3703,-9.88,21.29,-18.68,248.21,5.09,-23.83
8002,52.462933,-1.886436,561.29,41.22,16.129032,243.9,Nov-19,4001048,2019-10-03 15:29:25:804,-1.2746,4.0265,8.8712,-0.7948,4.331,8.7625,0.0048,0.0149,-0.4055,-5.05,23.93,-17.38,259.55,4.65,-26.3
8003,52.462933,-1.886436,561.29,41.22,16.129032,243.9,Nov-19,4001548,2019-10-03 15:29:26:304,-1.2277,4.6583,8.8471,-0.5916,4.4817,8.7026,0.0506,-0.0351,-0.3703,-0.53,23.25,-18.95,267.26,3.62,-27.31
8004,52.46291,-1.886601,554.84,39.02,16.129032,265.4,Nov-19,4002049,2019-10-03 15:29:26:805,-1.0177,4.9352,10.6472,-0.4195,4.497,8.7047,-0.0027,-0.0703,-0.284,5.06,22.65,-19.01,279.21,2.45,-27.32
8005,52.46291,-1.886601,554.84,39.02,16.129032,265.4,Nov-19,4002548,2019-10-03 15:29:27:304,-0.3561,3.3662,10.7185,-0.3537,4.3397,8.787,-0.0005,-0.065,-0.3245,8.1,22.01,-18.71,285.33,2.16,-26.5
8006,52.462906,-1.886772,554.84,41.04,12.903226,283.7,Nov-19,4003048,2019-10-03 15:29:27:804,-1.0865,2.979,9.7626,-0.5133,4.0011,8.9386,0.0368,0.0032,-0.2276,11.84,20.83,-18.06,291.42,2.64,-24.65
8007,52.462906,-1.886772,554.84,41.04,12.903226,283.7,Nov-19,4003549,2019-10-03 15:29:28:305,-1.4316,3.0143,10.2716,-0.7792,3.6278,9.0776,-0.0016,0.0565,-0.1967,12.93,19.83,-18.43,295.9,4.2,-22.35
8008,52.46293,-1.886925,554.84,39.85,16.129032,296.8,Nov-19,4004049,2019-10-03 15:29:28:805,-1.9111,3.6823,9.0991,-0.9716,3.5085,9.1059,-0.0154,-0.0213,-0.2734,15.54,17.99,-18.3,302.63,5.69,-21.07
8009,52.46293,-1.886925,554.84,39.85,16.129032,296.8,Nov-19,4004548,2019-10-03 15:29:29:304,-0.8405,3.0574,9.4722,-1.112,3.429,9.1201,-0.0091,-0.0415,-0.3256,18.09,16.69,-17.15,307.43,6.51,-20.61
8010,52.46296,-1.88706,554.84,37.66,19.35484,309.7,Nov-19,4005048,2019-10-03 15:29:29:804,-1.5486,3.1714,8.9514,-1.2755,3.3279,9.1361,0.0378,-0.0021,-0.2403,19.9,15.22,-16.5,313.43,7.44,-20.23
8011,52.46296,-1.88706,554.84,37.66,19.35484,309.7,Nov-19,4005548,2019-10-03 15:29:30:304,-0.4665,1.0844,9.98,-1.343,2.6305,9.3513,0.0133,-0.049,-0.1093,19.64,14.65,-17.32,313.59,7.87,-15.71
8012,52.463062,-1.887157,554.84,41.0,16.129032,322.9,Nov-19,4006049,2019-10-03 15:29:30:805,-0.6137,0.561,9.5246,-1.464,1.8852,9.5117,-0.0005,0.0245,-0.0454,20.07,14.36,-17.06,315.76,8.19,-12.74
8013,52.463062,-1.887157,554.84,41.0,16.129032,322.9,Nov-19,4006548,2019-10-03 15:29:31:304,-1.572,-0.0373,10.5018,-1.5853,1.0873,9.6164,-0.0304,0.0309,0.0111,20.55,14.7,-16.18,317.65,8.94,-7.41
8014,52.463142,-1.887256,554.84,39.96,12.903226,326.3,Nov-19,4007048,2019-10-03 15:29:31:804,-0.7176,-0.2998,9.0318,-1.6622,0.4633,9.6536,0.0165,-0.0479,0.0196,21.01,14.58,-15.68,318.99,9.76,-2.75
8015,52.463142,-1.887256,554.84,39.96,12.903226,326.3,Nov-19,4007548,2019-10-03 15:29:32:304,-0.3199,-0.5703,10.7785,-1.434,-0.2536,9.6979,-0.0304,-0.0607,0.1474,20.08,16.5,-16.3,317.67,8.68,0.79
8016,52.46323,-1.887344,551.61,39.42,12.903226,323.9,Nov-19,4008048,2019-10-03 15:29:32:804,-1.2288,-0.809,9.8365,-1.3085,-0.9947,9.6679,0.0346,0.0054,0.1698,18.14,16.63,-17.16,314.98,7.73,5.28
8017,52.46323,-1.887344,551.61,39.42,12.903226,323.9,Nov-19,4008548,2019-10-03 15:29:33:304,-2.0557,-2.239,10.2325,-1.4563,-1.728,9.5427,-0.0463,-0.0159,0.1751,17.85,16.75,-17.34,317.34,8.54,10.26
8018,52.463295,-1.887439,548.39,37.4,12.903226,313.9,Nov-19,4009048,2019-10-03 15:29:33:804,-1.2928,-2.8805,8.8979,-1.0245,-2.0552,9.534,0.0304,-0.0128,0.2422,15.68,17.01,-19.1,316.71,6.1,11.74
8019,52.463295,-1.887439,548.39,37.4,12.903226,313.9,Nov-19,4009548,2019-10-03 15:29:34:304,-0.7008,-1.3572,10.0836,-0.8896,-2.1405,9.5287,-0.0112,0.016,0.1836,15.44,18.51,-17.86,311.33,5.53,12.66
8020,52.46336,-1.887561,545.16,36.32,12.903226,303.2,Nov-19,4010049,2019-10-03 15:29:34:805,-1.2463,-2.3103,9.6041,-0.8394,-2.0792,9.5469,-0.0016,-0.0117,0.1826,14.11,18.34,-19.1,311.61,4.91,12.29
8021,52.46336,-1.887561,545.16,36.32,12.903226,303.2,Nov-19,4010548,2019-10-03 15:29:35:304,-3.1521,-2.0735,9.6104,-1.0494,-1.9252,9.5584,0.0048,-0.0447,0.1847,11.34,18.55,-20.67,302.23,4.29,11.3
8022,52.463413,-1.887688,541.94,35.6,16.129032,293.9,Nov-19,4011048,2019-10-03 15:29:35:804,-3.2512,-1.5281,9.5004,-1.6571,-1.9293,9.4711,0.0123,0.0405,0.1613,10.33,19.53,-20.29,294.96,8.84,11.65
8023,52.463413,-1.887688,541.94,35.6,16.129032,293.9,Nov-19,4011548,2019-10-03 15:29:36:304,-2.0103,-0.7788,9.7053,-2.1062,-1.6515,9.4343,0.0091,0.0043,0.1133,9.28,20.25,-20.09,283.52,12.26,10.74
8024,52.463436,-1.887787,541.94,31.43,12.903226,286.7,Nov-19,4012048,2019-10-03 15:29:36:804,-1.0897,-2.0645,9.0674,-2.0787,-1.2411,9.5031,0.0133,0.0011,0.157,8.86,19.58,-20.93,282.62,12.24,7.44
8025,52.463436,-1.887787,541.94,31.43,12.903226,286.7,Nov-19,4012548,2019-10-03 15:29:37:304,-0.7998,0.4645,9.6556,-1.9493,-0.6749,9.5872,-0.0176,0.0906,-0.0134,7.64,19.61,-21.38,279.74,12.02,5.57
8026,52.463455,-1.887893,541.94,26.96,12.903226,283.4,Nov-19,4013048,2019-10-03 15:29:37:804,-0.7022,0.9687,9.606,-1.6402,-0.1239,9.6677,0.0123,-0.0266,-0.0092,7.35,20.01,-21.11,279.63,9.63,0.73
8027,52.463455,-1.887893,541.94,26.96,12.903226,283.4,Nov-19,4013548,2019-10-03 15:29:38:304,-0.5574,0.9878,9.4515,-1.395,0.4619,9.6959,-0.0144,0.0139,-0.0507,9.06,19.23,-21.17,286.77,8.36,-2.16
8028,52.46347,-1.88801,541.94,26.89,12.903226,285.8,Nov-19,4014048,2019-10-03 15:29:38:804,-0.7014,1.4492,11.067,-1.1613,0.7852,9.7059,0.0016,0.0309,-0.0752,10.41,19.41,-20.37,290.66,6.8,-4.62
8029,52.46347,-1.88801,541.94,26.89,12.903226,285.8,Nov-19,4014548,2019-10-03 15:29:39:304,-0.3483,1.1957,10.0918,-1.0572,1.0503,9.6928,-0.0389,0.0416,-0.0763,10.22,18.99,-20.85,290.42,6.35,-5.93
8030,52.463497,-1.88812,541.94,28.58,12.903226,290.3,Nov-19,4015049,2019-10-03 15:29:39:805,-0.9309,1.2326,9.4063,-0.9978,1.0771,9.6961,0.0005,0.0011,0.0505,10.41,19.04,-20.71,290.76,5.84,-6.34
8031,52.463497,-1.88812,541.94,28.58,12.903226,290.3,Nov-19,4015548,2019-10-03 15:29:40:304,-0.4289,0.5901,10.1763,-0.8592,1.0284,9.7147,0.0005,0.0448,-0.0038,10.88,19.13,-20.39,293.86,5.32,-6.08
8032,52.463524,-1.888234,545.16,28.33,12.903226,291.4,Nov-19,4016048,2019-10-03 15:29:40:804,-0.6841,1.1916,8.9752,-0.7808,0.9827,9.726,-0.0346,-0.0234,-0.0337,11.29,19.09,-20.2,294.5,4.57,-5.77
8033,52.463524,-1.888234,545.16,28.33,12.903226,291.4,Nov-19,4016548,2019-10-03 15:29:41:304,-0.5881,0.8439,9.5041,-0.717,0.9696,9.7322,-0.0218,0.0256,-0.0028,12.56,18.98,-19.55,296.96,4.29,-5.65
8034,52.463535,-1.888365,541.94,29.27,12.903226,291.6,Nov-19,4017048,2019-10-03 15:29:41:804,-0.1202,0.563,10.3228,-0.7201,0.952,9.7337,0.008,0.0064,0.0089,11.65,18.99,-20.09,297.02,4.26,-5.53
8035,52.463535,-1.888365,541.94,29.27,12.903226,291.6,Nov-19,4017548,2019-10-03 15:29:42:304,-0.4876,0.6507,9.4118,-0.6965,0.9101,9.7395,-0.0176,-0.0596,-0.0326,11.77,18.76,-20.23,297.29,3.92,-5.4
8036,52.463566,-1.888487,538.71,30.02,12.903226,292.1,Nov-19,4018048,2019-10-03 15:29:42:804,-0.4536,1.2155,10.6582,-0.6339,0.8702,9.7474,0.0133,0.0384,0.0164,12.66,19.02,-19.44,299.91,3.71,-5.1
8037,52.463566,-1.888487,538.71,30.02,12.903226,292.1,Nov-19,4018548,2019-10-03 15:29:43:304,-0.6087,0.8207,11.1213,-0.5011,0.8213,9.7593,0.0123,-0.0522,0.0462,11.98,18.3,-20.53,299.08,2.99,-4.92
8038,52.463593,-1.888591,538.71,30.13,12.903226,292.6,Nov-18,4019049,2019-10-03 15:29:43:805,0.61,0.4676,9.6654,-0.2252,0.8442,9.7676,0.0304,-0.001,0.0249,11.82,19.55,-19.45,298.28,1.32,-4.94
8039,52.463593,-1.888591,538.71,30.13,12.903226,292.6,Nov-18,4019549,2019-10-03 15:29:44:305,-0.4539,0.593,8.8844,-0.2273,0.8089,9.7706,-0.0378,-0.0724,0.0292,12.43,18.98,-19.63,299.33,1.35,-4.73
8040,52.463623,-1.888725,538.71,32.47,12.903226,292.6,Nov-19,4020048,2019-10-03 15:29:44:804,-3.3919,2.4617,8.9724,-0.2884,0.7716,9.7756,-0.139,-0.5379,-0.2201,11.89,18.66,-20.26,299.08,1.81,-4.51
8041,52.463623,-1.888725,538.71,32.47,12.903226,292.6,Nov-19,4020549,2019-10-03 15:29:45:305,-0.3232,-0.0924,11.4033,-0.2272,0.7493,9.7753,0.0591,-0.1001,0.059,11.2,19.32,-20.03,301.7,1.1,-4.38
8042,52.46365,-1.888851,535.48,34.42,12.903226,292.4,Nov-19,4021048,2019-10-03 15:29:45:804,0.7311,-0.0974,10.4739,-0.0823,0.7636,9.7765,0.0176,0.0714,0.0281,10.79,18.94,-20.61,297.34,1.01,-4.56
8043,52.46365,-1.888851,535.48,34.42,12.903226,292.4,Nov-19,4021548,2019-10-03 15:29:46:304,0.0978,1.2912,9.9821,0.2131,0.7867,9.7727,-0.0101,-0.0628,0.0057,11.46,19.03,-20.16,300.96,-1.06,-4.67
8044,52.463673,-1.888979,525.81,36.72,16.129032,292.0,Nov-19,4022048,2019-10-03 15:29:46:804,-0.5278,1.0448,9.5087,0.1994,0.8217,9.7701,-0.0133,-0.0255,0.0398,8.03,18.87,-21.89,292.47,-1.65,-4.72
8045,52.463673,-1.888979,525.81,36.72,16.129032,292.0,Nov-19,4022548,2019-10-03 15:29:47:304,-0.5999,0.9039,9.7613,-0.1628,0.7702,9.775,0.0069,0.0181,-0.0028,12.23,20.91,-17.7,297.69,0.95,-4.51
8046,52.463707,-1.889136,522.58,40.75,16.129032,292.1,Nov-19,4023048,2019-10-03 15:29:47:804,-1.2823,0.3316,8.1588,-0.4014,0.7631,9.7687,-0.0858,-0.0213,0.0313,13.57,18.2,-19.61,304.52,1.79,-4.46
8047,52.463707,-1.889136,522.58,40.75,16.129032,292.1,Nov-19,4023548,2019-10-03 15:29:48:304,-0.3807,0.0128,10.067,-0.6006,0.7029,9.763,0.0027,-0.001,0.027,12.81,18.51,-19.83,300.22,3.33,-4.27
8048,52.46374,-1.889293,519.35,42.12,16.129032,292.3,Nov-19,4024048,2019-10-03 15:29:48:804,-1.2653,0.934,9.1299,-0.6837,0.6792,9.7592,-0.0336,0.0288,-0.071,11.84,18.51,-20.42,297.68,4.0,-3.98
8049,52.46374,-1.889293,519.35,42.12,16.129032,292.3,Nov-19,4024549,2019-10-03 15:29:49:305,-0.2458,0.2339,9.4522,-0.8098,0.7487,9.7444,0.0037,-0.0266,0.0313,13.0,19.62,-18.6,298.29,4.74,-4.39
8050,52.463783,-1.889447,522.58,40.79,16.129032,293.1,Nov-19,4025048,2019-10-03 15:29:49:804,-1.464,1.2137,10.3145,-0.868,0.7402,9.7401,0.0123,0.0213,-0.0102,12.23,19.38,-19.36,297.1,4.98,-4.37
8051,52.463783,-1.889447,522.58,40.79,16.129032,293.1,Nov-19,4025548,2019-10-03 15:29:50:304,-1.0212,0.743,10.901,-0.8828,0.7287,9.7396,-0.0101,0.0149,-0.022,12.95,19.76,-18.49,298.36,5.08,-4.27
8052,52.46383,-1.889606,519.35,41.36,12.903226,293.6,Nov-19,4026048,2019-10-03 15:29:50:804,-1.381,0.9051,8.9692,-0.9256,0.7378,9.735,-0.0261,-0.0777,-0.055,12.14,18.55,-20.21,296.64,5.25,-4.3
8053,52.46383,-1.889606,519.35,41.36,12.903226,293.6,Nov-19,4026548,2019-10-03 15:29:51:304,-1.8428,1.3094,9.984,-0.9072,0.7859,9.7329,0.0304,-0.0298,0.0686,12.5,18.86,-19.71,296.56,5.26,-4.53
8054,52.463867,-1.889772,522.58,41.62,16.129032,294.1,Nov-19,4027048,2019-10-03 15:29:51:804,-0.4669,0.3649,9.2393,-0.9176,0.8021,9.7306,0.0197,0.0522,-0.0592,13.27,18.3,-19.73,299.8,5.37,-4.71
8055,52.463867,-1.889772,522.58,41.62,16.129032,294.1,Nov-19,4027548,2019-10-03 15:29:52:304,-1.1493,1.1998,8.4063,-0.9213,0.8043,9.7301,-0.0133,0.0948,0.0121,12.92,18.86,-19.42,298.82,5.47,-4.76
8056,52.463905,-1.889938,522.58,42.88,16.129032,295.0,Nov-19,4028048,2019-10-03 15:29:52:804,-0.5128,2.3258,12.8237,-0.9446,0.8165,9.7268,-0.0027,-0.2162,0.1314,13.13,18.98,-19.17,298.69,5.61,-4.88
8057,52.463905,-1.889938,522.58,42.88,16.129032,295.0,Nov-19,4028548,2019-10-03 15:29:53:304,-1.1134,0.956,10.686,-0.9479,0.8574,9.723,0.0091,0.032,0.0302,13.32,17.93,-20.03,299.62,5.44,-5.09
8058,52.46398,-1.889979,522.58,40.07,16.129032,297.5,Nov-19,4029048,2019-10-03 15:29:53:804,-0.5614,0.5899,9.437,-0.9076,0.8498,9.7275,0.024,-0.0724,0.0686,13.02,17.53,-20.58,298.75,5.45,-5.04
8059,52.46398,-1.889979,522.58,40.07,16.129032,297.5,Nov-19,4029548,2019-10-03 15:29:54:304,-0.8126,0.8593,8.9863,-0.8955,0.8497,9.7286,0.0048,0.0458,-0.0039,12.24,15.89,-22.31,299.26,5.46,-4.93
8060,52.46403,-1.89014,522.58,41.18,19.35484,298.5,Nov-19,4030049,2019-10-03 15:29:54:805,-0.0088,0.3143,9.7233,-0.8931,0.9163,9.7228,-0.008,0.0011,-0.022,13.64,17.71,-20.01,301.69,5.39,-5.41
8061,52.46403,-1.89014,522.58,41.18,19.35484,298.5,Nov-19,4030549,2019-10-03 15:29:55:305,-0.6414,0.6147,10.3874,-0.8936,0.8076,9.7324,0.0154,0.048,0.0228,13.56,18.46,-19.37,302.34,5.23,-4.74
8062,52.464092,-1.890279,522.58,41.4,19.35484,299.4,Nov-19,4031048,2019-10-03 15:29:55:804,-0.851,1.5526,11.2884,-0.568,0.8374,9.7543,-0.0261,0.0405,-0.0656,13.95,19.7,-17.81,301.27,3.32,-4.91
8063,52.464092,-1.890279,522.58,41.4,19.35484,299.4,Nov-19,4031548,2019-10-03 15:29:56:304,0.1426,0.9859,9.0794,-0.034,0.8219,9.7721,0.0176,-0.0266,0.0068,13.8,18.64,-19.04,303.94,0.6,-4.85
8064,52.464146,-1.890437,522.58,41.9,19.35484,299.5,Nov-19,4032050,2019-10-03 15:29:56:806,-0.8991,0.8896,8.4413,-0.3042,0.6033,9.7833,0.0016,0.0107,0.0441,12.51,18.84,-19.71,301.58,1.65,-4.11
8065,52.464146,-1.890437,522.58,41.9,19.35484,299.5,Nov-19,4032548,2019-10-03 15:29:57:304,0.7851,-0.0931,10.4653,-0.2204,0.4385,9.7944,-0.0325,-0.0319,-0.0039,12.87,18.6,-19.71,302.3,1.29,-2.56
8066,52.464214,-1.890563,522.58,44.17,16.129032,299.0,Nov-19,4033048,2019-10-03 15:29:57:804,-0.1058,1.0627,10.5354,-0.1116,0.5936,9.788,-0.024,0.0277,0.042,12.28,18.56,-20.12,300.33,0.68,-3.33
8067,52.464214,-1.890563,522.58,44.17,16.129032,299.0,Nov-19,4033548,2019-10-03 15:29:58:304,-0.5955,0.3927,9.387,-0.2913,0.6439,9.7811,-0.0112,-0.0181,-0.0209,11.96,18.2,-20.63,300.53,1.7,-3.77
8068,52.46427,-1.890738,525.81,46.87,16.129032,298.9,Nov-19,4034048,2019-10-03 15:29:58:804,-2.4693,0.5806,12.2146,-0.4793,0.4428,9.7849,-0.1742,-0.0554,-0.0294,11.8,19.66,-19.35,297.87,2.64,-3.51
8069,52.46427,-1.890738,525.81,46.87,16.129032,298.9,Nov-19,4034549,2019-10-03 15:29:59:305,-1.0573,0.2142,8.8414,-0.606,0.6814,9.7642,0.1071,0.0309,-0.0198,11.88,18.28,-20.61,298.99,3.54,-3.99
8070,52.46433,-1.890906,519.35,46.48,19.35484,299.2,Nov-19,4035048,2019-10-03 15:29:59:804,0.1349,0.4314,8.5096,-0.6892,0.6301,9.7621,-0.0197,0.1119,-0.0145,11.79,18.79,-20.2,297.84,4.02,-3.46
8071,52.46433,-1.890906,519.35,46.48,19.35484,299.2,Nov-19,4035549,2019-10-03 15:30:00:305,-0.5259,0.5542,10.1964,-0.6338,0.6145,9.7668,0.0282,0.0235,0.026,12.44,18.6,-19.98,301.24,3.9,-3.77
8072,52.464394,-1.891043,522.58,46.01,19.35484,299.6,Nov-19,4036048,2019-10-03 15:30:00:804,1.0638,1.3412,9.4556,-0.6467,0.6012,9.7668,0.1699,-0.0607,0.0675,12.43,18.38,-20.19,298.87,4.05,-3.85
8073,52.464394,-1.891043,522.58,46.01,19.35484,299.6,Nov-19,4036548,2019-10-03 15:30:01:304,-1.2487,1.0764,9.8816,-0.7073,0.5764,9.7641,0.0037,0.032,0.0942,11.82,18.59,-20.36,297.69,4.27,-3.34
8074,52.464455,-1.891202,519.35,46.3,16.129032,299.4,Nov-19,4037048,2019-10-03 15:30:01:804,-1.3744,1.1594,9.6203,-0.777,0.5521,9.7602,0.0346,-0.0042,-0.0017,12.04,18.36,-20.44,298.93,4.31,-3.14
8075,52.464455,-1.891202,519.35,46.3,16.129032,299.4,Nov-19,4037548,2019-10-03 15:30:02:304,-2.9372,0.0303,9.3675,-1.0503,0.4972,9.7376,0.0027,0.0203,0.0356,11.79,18.0,-20.9,297.19,6.15,-2.92
8076,52.464504,-1.891374,519.35,46.22,16.129032,299.0,Nov-19,4038049,2019-10-03 15:30:02:805,-3.6792,-0.2623,9.871,-2.147,0.2887,9.5644,-0.0069,-0.0671,0.0175,12.63,18.23,-20.2,294.38,12.65,-1.73
8077,52.464504,-1.891374,519.35,46.22,16.129032,299.0,Nov-19,4038548,2019-10-03 15:30:03:304,-3.7176,0.4739,10.9055,-2.8364,0.2051,9.3853,-0.008,-0.017,0.0675,12.43,18.53,-20.05,287.43,16.09,-1.46
8078,52.464542,-1.89152,519.35,40.1,16.129032,298.7,Nov-19,4039050,2019-10-03 15:30:03:806,-3.5294,0.1979,9.1355,-3.2028,0.1681,9.2674,0.0091,0.0533,-0.006,11.79,18.0,-20.9,284.59,18.59,-1.04
8079,52.464542,-1.89152,519.35,40.1,16.129032,298.7,Nov-19,4039549,2019-10-03 15:30:04:305,-2.5881,0.4208,10.3704,-3.2452,0.1075,9.2535,-0.0208,-0.0117,-0.0028,11.44,18.13,-20.98,280.72,19.44,-0.63
8080,52.46459,-1.891666,522.58,37.37,19.35484,298.4,Nov-19,4040048,2019-10-03 15:30:04:804,-3.0154,0.3584,9.7442,-3.203,0.1366,9.2678,-0.0186,0.0245,0.0111,11.25,17.72,-21.44,281.23,19.03,-0.77
8081,52.46459,-1.891666,522.58,37.37,19.35484,298.4,Nov-19,4040548,2019-10-03 15:30:05:304,-2.4446,0.3518,9.9033,-3.0374,0.1705,9.3229,0.0165,0.0267,0.0089,11.69,17.04,-21.75,284.8,18.27,-1.03
8082,52.4646,-1.891688,522.58,20.34,16.129032,298.1,Nov-19,4041048,2019-10-03 15:30:05:804,-2.5625,0.4322,9.805,-2.9277,0.1902,9.3575,-0.0144,-0.0266,0.0079,13.82,15.2,-21.87,290.75,17.57,-1.09
8083,52.4646,-1.891688,522.58,20.34,16.129032,298.1,Nov-19,4041549,2019-10-03 15:30:06:305,-2.4091,0.1958,9.5668,-2.8372,0.2207,9.3847,-0.0101,-0.0192,0.026,14.12,15.85,-21.2,294.28,16.84,-1.22
8084,52.464607,-1.891751,522.58,14.29,16.129032,297.7,Nov-19,4042049,2019-10-03 15:30:06:805,-2.0784,0.2957,9.8728,-2.6825,0.2723,9.4287,0.0101,0.0288,0.0068,13.3,16.64,-21.12,295.01,16.14,-1.61
8085,52.464607,-1.891751,522.58,14.29,16.129032,297.7,Nov-19,4042548,2019-10-03 15:30:07:304,-1.9456,0.2064,10.0628,-2.4497,0.309,9.4907,0.008,0.0128,0.0047,12.71,16.88,-21.3,292.95,14.47,-1.86
8086,52.464615,-1.891775,522.58,7.34,12.903226,297.7,Nov-19,4043048,2019-10-03 15:30:07:804,-1.6422,0.4825,9.6379,-2.2259,0.3386,9.5447,0.0069,0.0075,-0.0017,12.61,17.17,-21.13,294.06,13.42,-2.0
8087,52.464615,-1.891775,522.58,7.34,12.903226,297.7,Nov-19,4043548,2019-10-03 15:30:08:304,-1.3428,0.6416,10.112,-1.9093,0.3932,9.611,-0.0005,0.016,0.0078,12.84,17.05,-21.08,295.85,11.64,-2.29
8088,52.464615,-1.891775,522.58,7.34,12.903226,297.7,Nov-19,4044048,2019-10-03 15:30:08:804,-0.221,0.6458,9.9757,-1.3572,0.477,9.7006,0.0069,-0.033,-0.0017,13.12,16.98,-20.96,298.74,8.54,-2.73
8089,52.464615,-1.891775,522.58,7.34,12.903226,297.7,Nov-19,4044548,2019-10-03 15:30:09:304,-0.6782,0.7595,9.619,-0.9172,0.5392,9.7488,-0.0059,0.0405,0.0078,12.57,17.9,-20.54,299.77,5.74,-3.12
8090,52.464615,-1.891789,522.58,0.0,32.258064,297.7,Nov-19,4045049,2019-10-03 15:30:09:805,-0.6026,0.532,9.864,-0.6692,0.5767,9.7668,0.0027,-0.017,0.0046,12.07,18.07,-20.68,298.74,4.15,-3.35
8091,52.464615,-1.891789,522.58,0.0,32.258064,297.7,Nov-19,4045548,2019-10-03 15:30:10:304,-0.3131,0.6946,9.936,-0.5195,0.6008,9.7744,0.0016,0.0,0.0046,12.86,17.51,-20.68,301.78,3.04,-3.52
8092,52.464615,-1.891789,522.58,0.0,32.258064,297.7,Nov-19,4046048,2019-10-03 15:30:10:804,-0.3881,0.6385,9.9575,-0.4014,0.6223,9.7787,0.0016,0.0192,0.0014,12.03,17.94,-20.82,300.01,2.44,-3.63
8093,52.464615,-1.891789,522.58,0.0,32.258064,297.7,Nov-19,4046548,2019-10-03 15:30:11:304,-0.4044,0.5294,9.7668,-0.3468,0.6332,9.78,0.0037,0.016,0.0036,12.63,17.72,-20.65,302.44,2.07,-3.7
8094,52.464615,-1.891789,522.58,0.0,32.258064,297.7,Nov-19,4047049,2019-10-03 15:30:11:805,-0.578,0.4942,9.8991,-0.3073,0.6383,9.781,-0.0091,-0.0064,0.0142,11.97,17.85,-20.94,300.43,1.85,-3.74
8095,52.464615,-1.891789,522.58,0.0,32.258064,297.7,Nov-19,4047548,2019-10-03 15:30:12:304,-0.4418,0.6385,10.0875,-0.2964,0.6432,9.781,0.008,0.0192,0.0036,12.05,17.53,-21.15,300.5,1.75,-3.75
8096,52.464615,-1.891789,522.58,0.0,32.258064,297.7,Nov-19,4048048,2019-10-03 15:30:12:804,-0.4848,0.5684,9.2502,-0.2921,0.6427,9.7812,-0.008,0.0022,0.0121,11.69,17.35,-21.5,301.7,1.72,-3.76
8097,52.464615,-1.891789,522.58,0.0,32.258064,297.7,Nov-19,4048549,2019-10-03 15:30:13:305,-0.3918,0.6689,10.0356,-0.3033,0.6416,9.7809,0.0048,-0.0032,-0.0007,11.84,16.98,-21.71,301.66,1.78,-3.76
8098,52.464615,-1.891789,522.58,0.0,32.258064,297.7,Nov-19,4049048,2019-10-03 15:30:13:804,-0.5733,0.5404,10.0089,-0.3154,0.6355,9.781,-0.008,-0.0181,0.011,12.04,16.93,-21.64,301.62,1.84,-3.72
8099,52.464615,-1.891789,522.58,0.0,32.258064,297.7,Nov-19,4049548,2019-10-03 15:30:14:304,-0.3662,0.6198,9.9804,-0.3295,0.6326,9.7807,0.0016,0.0107,0.0014,12.23,17.62,-20.97,300.39,1.93,-3.7
8100,52.464615,-1.891789,522.58,0.0,32.258064,297.7,Nov-19,4050048,2019-10-03 15:30:14:804,-0.3596,0.6763,9.9913,-0.3469,0.6295,9.7803,0.0048,0.0107,0.0014,12.18,17.13,-21.4,301.65,2.03,-3.68
8101,52.464615,-1.891789,522.58,0.0,32.258064,297.7,Nov-19,4050548,2019-10-03 15:30:15:304,-0.5879,0.5797,9.3897,-0.3641,0.6197,9.7803,0.0016,0.0085,0.0014,12.42,17.09,-21.3,301.6,2.11,-3.64
8102,52.464615,-1.891789,522.58,0.0,32.258064,297.7,Nov-19,4051048,2019-10-03 15:30:15:804,-0.5862,0.514,10.032,-0.3789,0.6173,9.7799,0.008,0.0213,0.0025,12.65,16.82,-21.39,303.76,2.2,-3.61
8103,52.464615,-1.891789,522.58,0.0,32.258064,297.7,Nov-19,4051548,2019-10-03 15:30:16:304,-0.5845,0.5006,9.7884,-0.395,0.6139,9.7794,-0.0016,-0.0192,0.0003,12.27,17.22,-21.28,301.49,2.27,-3.6
8104,52.46461,-1.891796,525.81,0.0,32.258064,297.7,Nov-19,4052048,2019-10-03 15:30:16:804,-0.3697,0.6777,9.8521,-0.4027,0.6093,9.7794,0.0027,-0.0096,0.0035,12.31,17.71,-20.85,300.1,2.36,-3.58
8105,52.46461,-1.891796,525.81,0.0,32.258064,297.7,Nov-19,4052548,2019-10-03 15:30:17:304,-0.4407,0.6417,9.3927,-0.4172,0.608,9.7789,-0.0005,0.0011,0.0046,12.69,16.87,-21.31,301.4,2.41,-3.55
8106,52.46461,-1.891796,525.81,0.0,32.258064,297.7,Nov-19,4053048,2019-10-03 15:30:17:804,-0.6208,0.5844,9.6491,-0.4295,0.6063,9.7785,0.0091,0.0288,0.0046,12.16,17.08,-21.46,301.33,2.51,-3.55
8107,52.46461,-1.891796,525.81,0.0,32.258064,297.7,Nov-19,4053548,2019-10-03 15:30:18:304,-0.4199,0.4949,10.0458,-0.4398,0.6005,9.7784,-0.008,-0.0213,0.0131,11.97,17.41,-21.3,301.28,2.58,-3.52
8108,52.46461,-1.891796,525.81,0.0,32.258064,297.7,Nov-19,4054048,2019-10-03 15:30:18:804,-0.5094,0.6153,9.9669,-0.4477,0.5985,9.7781,0.0037,0.0032,-0.0008,12.58,17.22,-21.09,303.49,2.63,-3.5
8109,52.46461,-1.891796,525.81,0.0,32.258064,297.7,Nov-19,4054548,2019-10-03 15:30:19:304,-0.5407,0.618,9.2627,-0.4566,0.5978,9.7778,-0.0059,-0.0138,0.0035,11.94,16.94,-21.69,301.02,2.67,-3.5
8110,52.46461,-1.891796,525.81,0.0,32.258064,297.7,Nov-19,4055048,2019-10-03 15:30:19:804,-0.3387,0.7021,9.8503,-0.4602,0.5979,9.7776,0.0005,-0.0096,0.0078,12.07,17.2,-21.41,301.2,2.69,-3.5
8111,52.46461,-1.891796,525.81,0.0,32.258064,297.7,Nov-19,4055548,2019-10-03 15:30:20:304,-0.4641,0.6717,9.6647,-0.4723,0.5952,9.7772,-0.0037,-0.0213,0.0067,12.22,17.41,-21.16,301.16,2.74,-3.49
8112,52.46461,-1.891796,525.81,0.0,32.258064,297.7,Nov-19,4056048,2019-10-03 15:30:20:804,-0.576,0.4622,9.3393,-0.4756,0.5927,9.7771,0.0027,-0.0192,0.0046,12.46,17.12,-21.25,301.14,2.78,-3.47
8113,52.46461,-1.891796,525.81,0.0,32.258064,297.7,Nov-19,4056549,2019-10-03 15:30:21:305,-0.4784,0.5692,9.3846,-0.4775,0.5938,9.777,0.0005,-0.0074,0.0056,12.33,17.11,-21.34,301.14,2.78,-3.47
8114,52.46461,-1.891796,525.81,0.0,32.258064,297.7,Nov-19,4057048,2019-10-03 15:30:21:804,-0.6009,0.5971,9.5286,-0.4837,0.5949,9.7766,0.0016,-0.0149,0.0035,12.52,17.84,-20.62,301.95,2.83,-3.48
8115,52.46461,-1.891796,525.81,0.0,32.258064,297.7,Nov-19,4057548,2019-10-03 15:30:22:304,-0.4393,0.666,9.8657,-0.4871,0.5896,9.7768,0.0037,-0.0106,0.0013,12.3,18.41,-20.24,299.94,2.86,-3.45
8116,52.46461,-1.891796,525.81,0.0,32.258064,297.7,Nov-19,4058048,2019-10-03 15:30:22:804,-0.6225,0.5651,9.4305,-0.4893,0.5897,9.7767,-0.0059,-0.0138,0.0077,12.32,18.36,-20.28,299.93,2.88,-3.45
8117,52.46461,-1.891796,525.81,0.0,32.258064,297.7,Nov-19,4058548,2019-10-03 15:30:23:304,-0.6907,0.5387,9.7954,-0.4899,0.5915,9.7765,-0.0016,-0.017,0.0024,12.16,18.58,-20.17,298.7,2.86,-3.46
8118,52.46461,-1.891796,525.81,0.0,32.258064,297.7,Nov-19,4059048,2019-10-03 15:30:23:804,-0.663,0.6279,9.4059,-0.4944,0.5898,9.7764,0.0016,0.0064,0.0024,11.63,18.44,-20.61,299.73,2.89,-3.46
8119,52.46461,-1.891796,525.81,0.0,32.258064,297.7,Nov-19,4059548,2019-10-03 15:30:24:304,-0.4899,0.6184,10.0357,-0.4924,0.5898,9.7765,0.0016,0.0021,0.0077,12.03,18.74,-20.1,298.69,2.89,-3.45
8120,52.46461,-1.891796,525.81,0.0,32.258064,297.7,Nov-19,4060048,2019-10-03 15:30:24:804,-0.671,0.5068,9.8172,-0.496,0.5908,9.7763,-0.0005,0.0245,0.0088,11.61,18.33,-20.71,299.74,2.87,-3.46
8121,52.46461,-1.891796,525.81,0.0,32.258064,297.7,Nov-19,4060548,2019-10-03 15:30:25:304,-0.3858,0.6605,10.0214,-0.4956,0.5924,9.7762,0.0101,0.0096,-0.0008,11.71,18.49,-20.52,299.72,2.89,-3.47
8122,52.46461,-1.891796,525.81,0.0,32.258064,297.7,Nov-19,4061048,2019-10-03 15:30:25:804,-0.4853,0.6352,10.0354,-0.4975,0.5913,9.7762,-0.0069,0.0224,0.012,11.86,18.15,-20.73,299.71,2.91,-3.46
8123,52.46461,-1.891796,525.81,0.0,32.258064,297.7,Nov-19,4061548,2019-10-03 15:30:26:304,-0.3622,0.6832,9.946,-0.4954,0.5939,9.7761,0.0112,0.0011,-0.0008,12.19,17.56,-21.05,299.72,2.89,-3.48
8124,52.46461,-1.891796,525.81,0.0,32.258064,297.7,Nov-19,4062048,2019-10-03 15:30:26:804,-0.3894,0.6494,9.9657,-0.5014,0.5907,9.776,-0.0005,-0.0107,0.0066,11.72,17.94,-20.99,299.7,2.91,-3.47
8125,52.46461,-1.891796,525.81,0.0,32.258064,297.7,Nov-19,4062548,2019-10-03 15:30:27:304,-0.6298,0.6398,9.3163,-0.5012,0.5892,9.7761,0.0005,0.0032,0.0098,11.86,18.15,-20.73,299.72,2.91,-3.45
8126,52.46461,-1.891796,525.81,0.0,32.258064,297.7,Nov-19,4063048,2019-10-03 15:30:27:804,-0.6682,0.4904,9.8829,-0.5014,0.5918,9.7759,0.0027,-0.0032,0.0045,11.44,18.06,-21.05,297.4,2.94,-3.46
8127,52.46461,-1.891796,525.81,0.0,32.258064,297.7,Nov-19,4063548,2019-10-03 15:30:28:304,-0.4669,0.5074,10.0518,-0.4993,0.5901,9.7761,0.0016,-0.0043,0.0088,11.7,18.02,-20.94,299.69,2.93,-3.45
8128,52.46461,-1.891796,525.81,0.0,32.258064,297.7,Nov-19,4064049,2019-10-03 15:30:28:805,-0.5189,0.4966,9.9582,-0.5004,0.5866,9.7763,-0.0005,-0.0085,0.0034,12.26,18.11,-20.53,299.69,2.94,-3.44
8129,52.46461,-1.891796,525.81,0.0,32.258064,297.7,Nov-19,4064549,2019-10-03 15:30:29:305,-0.4511,0.5933,9.3317,-0.4986,0.588,9.7763,-0.0037,-0.0021,0.0098,11.61,18.33,-20.71,299.7,2.93,-3.43
8130,52.46461,-1.891796,525.81,0.0,32.258064,297.7,Nov-19,4065049,2019-10-03 15:30:29:805,-0.6491,0.6146,9.5583,-0.4987,0.5897,9.7762,-0.0016,0.0053,0.0088,12.07,18.0,-20.75,299.7,2.93,-3.44
8131,52.46461,-1.891796,525.81,0.0,32.258064,297.7,Nov-19,4065548,2019-10-03 15:30:30:304,-0.3368,0.6593,9.9058,-0.4989,0.5872,9.7763,0.0026,0.0288,0.0066,11.88,18.57,-20.35,298.66,2.93,-3.45
8132,52.46461,-1.891796,525.81,0.0,32.258064,297.7,Nov-19,4066048,2019-10-03 15:30:30:804,-0.4397,0.6711,10.1143,-0.5005,0.588,9.7762,0.008,-0.0032,-0.004,11.97,17.85,-20.94,299.71,2.93,-3.43
8133,52.46461,-1.891796,525.81,0.0,32.258064,297.7,Nov-19,4066548,2019-10-03 15:30:31:304,-0.3263,0.6797,9.884,-0.4974,0.5887,9.7763,-0.0027,-0.0064,0.0109,12.11,18.06,-20.67,299.7,2.94,-3.44
8134,52.46461,-1.891796,525.81,0.0,32.258064,297.7,Nov-19,4067048,2019-10-03 15:30:31:804,-0.4086,0.6839,9.7701,-0.4985,0.589,9.7763,0.0101,-0.0043,-0.0019,12.5,17.98,-20.51,299.7,2.93,-3.44
8135,52.46461,-1.891796,525.81,0.0,32.258064,297.7,Nov-19,4067548,2019-10-03 15:30:32:304,-0.3159,0.5323,9.6402,-0.4963,0.5851,9.7766,0.0058,0.0138,0.0013,11.77,17.97,-20.94,299.71,2.92,-3.44
8136,52.46461,-1.891796,525.81,0.0,32.258064,297.7,Nov-19,4068048,2019-10-03 15:30:32:804,-0.5051,0.5879,9.3677,-0.497,0.5872,9.7764,0.0048,-0.0245,-0.0019,12.41,18.29,-20.29,299.9,2.92,-3.43
8137,52.46461,-1.891796,525.81,0.0,32.258064,297.7,Nov-19,4068549,2019-10-03 15:30:33:305,-0.4043,0.6911,9.9746,-0.4961,0.5897,9.7763,-0.0027,-0.0139,0.0045,12.01,17.91,-20.86,299.72,2.9,-3.45
8138,52.46461,-1.891796,525.81,0.0,32.258064,297.7,Nov-19,4069049,2019-10-03 15:30:33:805,-0.4495,0.5851,9.7684,-0.4967,0.5866,9.7765,0.0016,0.0,0.012,12.39,17.83,-20.7,299.73,2.9,-3.43
8139,52.46461,-1.891796,525.81,0.0,32.258064,297.7,Nov-19,4069548,2019-10-03 15:30:34:304,-0.7811,0.6267,9.6979,-0.4984,0.5865,9.7764,-0.0016,-0.0064,0.0066,12.52,17.83,-20.63,301.91,2.92,-3.44
8140,52.46461,-1.891796,525.81,0.0,32.258064,297.7,Nov-19,4070049,2019-10-03 15:30:34:805,-0.3307,0.5115,9.8,-0.4948,0.5906,9.7763,-0.0006,-0.0011,0.0034,12.59,17.3,-21.03,303.29,2.9,-3.45
8141,52.46461,-1.891796,525.81,0.0,32.258064,297.7,Nov-19,4070548,2019-10-03 15:30:35:304,-0.5313,0.5575,9.3422,-0.4967,0.5882,9.7764,0.0016,-0.0064,0.0002,12.03,17.94,-20.82,299.71,2.91,-3.45
8142,52.46461,-1.891796,525.81,0.0,32.258064,297.7,Nov-19,4071048,2019-10-03 15:30:35:804,-0.3907,0.6081,9.4739,-0.4995,0.586,9.7764,0.0016,0.0021,0.0013,12.2,19.72,-19.03,299.8,2.9,-3.43
8143,52.46461,-1.891796,525.81,0.0,32.258064,297.7,Nov-19,4071548,2019-10-03 15:30:36:304,-0.3364,0.647,9.6467,-0.4986,0.5869,9.7764,0.0016,-0.0032,0.0034,12.94,19.05,-19.22,301.0,2.9,-3.44
8144,52.46461,-1.891796,525.81,0.0,32.258064,297.7,Nov-19,4072049,2019-10-03 15:30:36:805,-0.5851,0.6083,9.9614,-0.4991,0.5892,9.7762,-0.0027,-0.0043,0.0024,12.82,19.32,-19.03,301.0,2.9,-3.45
8145,52.46461,-1.891796,525.81,0.0,32.258064,297.7,Nov-19,4072548,2019-10-03 15:30:37:304,-0.6512,0.4703,9.8832,-0.4995,0.5851,9.7764,0.0048,0.0191,0.0087,12.84,19.36,-18.99,298.86,2.91,-3.44
8146,52.46461,-1.891796,525.81,0.0,32.258064,297.7,Nov-19,4073048,2019-10-03 15:30:37:804,-0.3614,0.5161,9.6359,-0.4957,0.5857,9.7766,-0.0027,-0.0054,0.0024,12.84,19.36,-18.99,301.0,2.92,-3.42
8147,52.46461,-1.891796,525.81,0.0,32.258064,297.7,Nov-19,4073548,2019-10-03 15:30:38:304,-0.553,0.4492,9.3216,-0.4941,0.5868,9.7766,0.0026,0.016,0.0109,12.99,19.12,-19.13,301.01,2.89,-3.43
8148,52.46461,-1.891796,525.81,0.0,32.258064,297.7,Nov-19,4074049,2019-10-03 15:30:38:805,-0.3457,0.6117,9.9816,-0.4979,0.5864,9.7764,-0.0016,-0.0085,0.0055,12.73,19.43,-18.98,301.0,2.9,-3.43
8149,52.46461,-1.891796,525.81,0.0,32.258064,297.7,Nov-19,4074548,2019-10-03 15:30:39:304,-0.2972,0.6467,9.4966,-0.4973,0.5834,9.7766,0.0112,-0.0043,-0.003,12.2,19.33,-19.42,298.87,2.91,-3.41
8150,52.46461,-1.891796,525.81,0.0,32.258064,297.7,Nov-19,4075048,2019-10-03 15:30:39:804,-0.4402,0.6555,9.9147,-0.495,0.5866,9.7766,-0.0069,0.0266,0.0087,12.73,18.97,-19.45,301.01,2.89,-3.43
8151,52.46461,-1.891796,525.81,0.0,32.258064,297.7,Nov-19,4075548,2019-10-03 15:30:40:304,-0.5768,0.621,9.2509,-0.4952,0.5846,9.7767,-0.0016,-0.0277,0.0077,13.61,20.27,-17.44,302.15,2.89,-3.42
8152,52.46461,-1.891796,525.81,0.0,32.258064,297.7,Nov-19,4076049,2019-10-03 15:30:40:805,0.2327,0.74,9.6293,-0.2323,0.6205,9.7842,-0.008,0.001,0.0205,13.57,20.45,-17.25,302.4,2.13,-3.51
8153,52.46461,-1.891796,525.81,0.0,32.258064,297.7,Nov-19,4076548,2019-10-03 15:30:41:304,1.663,0.7152,9.5336,0.2889,0.701,9.7773,-0.0155,0.0213,-0.0211,12.62,19.73,-18.74,302.38,-1.69,-4.1
8154,52.46461,-1.891796,525.81,0.0,32.258064,297.7,Nov-19,4077048,2019-10-03 15:30:41:804,1.9451,0.9912,9.5549,0.9949,0.8043,9.7228,0.0005,0.0202,0.0066,11.99,20.71,-18.1,300.89,-5.12,-4.68
8155,52.46461,-1.891796,525.81,0.0,32.258064,297.7,Nov-19,4077549,2019-10-03 15:30:42:305,1.5836,0.9123,9.8411,1.4763,0.8296,9.6593,-0.0027,0.0266,0.0055,11.11,20.7,-18.65,303.5,-7.9,-4.86
8156,52.464592,-1.891828,512.9,6.62,29.032257,297.8,Nov-19,4078049,2019-10-03 15:30:42:805,1.0109,0.9845,10.0425,1.4723,0.8715,9.6563,0.0144,0.0437,0.0087,12.21,20.76,-17.89,302.35,-8.63,-5.16
8157,52.464592,-1.891828,512.9,6.62,29.032257,297.8,Nov-19,4078548,2019-10-03 15:30:43:304,1.4501,1.277,9.6321,1.6437,0.8631,9.6293,0.0218,0.017,-0.0136,11.29,20.3,-18.99,302.34,-9.29,-4.87
8158,52.464607,-1.891888,512.9,14.15,29.032257,297.2,Nov-19,4079048,2019-10-03 15:30:43:804,0.7216,1.195,9.8535,1.6383,0.8227,9.6338,-0.0528,-0.082,0.0151,11.66,20.41,-18.65,304.39,-9.76,-4.89
8159,52.464607,-1.891888,512.9,14.15,29.032257,297.2,Nov-19,4079548,2019-10-03 15:30:44:304,2.1225,0.9154,9.4768,1.64,0.8815,9.6283,0.0101,-0.0171,0.013,11.38,20.39,-18.83,302.4,-9.6,-5.07
8160,52.464607,-1.891977,500.0,19.04,29.032257,297.9,Nov-19,4080048,2019-10-03 15:30:44:804,0.303,1.0483,9.7402,1.4958,0.8489,9.6547,0.008,0.0714,-0.0147,12.16,20.98,-17.66,302.45,-8.75,-5.05
8161,52.464607,-1.891977,500.0,19.04,29.032257,297.9,Nov-19,4080548,2019-10-03 15:30:45:304,0.123,1.5108,9.9985,1.2808,0.9086,9.6801,-0.1508,-0.0384,0.0268,8.78,21.63,-18.84,295.47,-7.67,-4.8
8162,52.46464,-1.892083,503.23,25.16,29.032257,298.0,Nov-19,4081049,2019-10-03 15:30:45:805,0.6114,0.9636,10.2898,1.0529,0.8715,9.7109,-0.0006,0.0266,0.0109,10.92,20.33,-19.17,297.58,-6.25,-5.04
8163,52.46464,-1.892083,503.23,25.16,29.032257,298.0,Nov-19,4081548,2019-10-03 15:30:46:304,0.3544,0.9358,10.6698,0.8655,0.8512,9.7312,0.0048,0.0117,0.0087,12.8,20.18,-18.13,303.78,-5.06,-5.0
8164,52.464672,-1.892189,503.23,29.92,29.032257,297.8,Nov-19,4082048,2019-10-03 15:30:46:804,0.7084,0.8677,9.8365,0.7563,0.8237,9.7427,0.0069,-0.0469,0.0194,10.66,20.31,-19.33,299.79,-4.47,-4.78
8165,52.464672,-1.892189,503.23,29.92,29.032257,297.8,Nov-19,4082549,2019-10-03 15:30:47:305,0.8344,0.4877,9.9019,0.6965,0.8519,9.7447,-0.0091,0.0426,-0.0168,12.11,19.97,-18.83,301.48,-4.08,-4.89
8166,52.464706,-1.892305,503.23,33.08,29.032257,297.7,Nov-19,4083048,2019-10-03 15:30:47:804,-0.2152,0.5248,9.1485,0.5917,0.7256,9.7619,0.0421,0.1236,0.0322,13.06,19.43,-18.76,304.58,-3.46,-4.25
8167,52.464706,-1.892305,503.23,33.08,29.032257,297.7,Nov-19,4083549,2019-10-03 15:30:48:305,0.7297,0.4245,7.9525,0.6857,0.7205,9.7561,0.025,-0.1321,-0.0179,10.17,19.1,-20.78,298.96,-4.01,-4.22
8168,52.464764,-1.89245,506.45,36.0,29.032257,297.8,Nov-19,4084048,2019-10-03 15:30:48:804,-0.0218,0.7963,9.6271,0.5022,0.7669,9.7637,-0.008,-0.0426,0.0247,17.01,19.7,-14.91,310.21,-3.57,-4.29
8169,52.464764,-1.89245,506.45,36.0,29.032257,297.8,Nov-19,4084548,2019-10-03 15:30:49:304,0.2494,0.9332,9.8578,0.3076,0.7416,9.7737,0.0112,0.0021,0.0002,20.43,14.77,-16.26,315.6,-2.3,-4.51
8170,52.4648,-1.892594,500.0,38.92,29.032257,297.6,Nov-19,4085048,2019-10-03 15:30:49:804,0.6021,-0.0826,10.4446,0.2778,0.6304,9.7824,0.0282,0.0671,0.0481,9.32,21.37,-18.88,293.18,-1.67,-3.78
8171,52.4648,-1.892594,500.0,38.92,29.032257,297.6,Nov-19,4085549,2019-10-03 15:30:50:305,0.5063,0.4937,9.6702,0.2108,0.6267,9.7843,0.0005,0.0064,0.0226,10.09,20.48,-19.47,296.11,-1.23,-3.66
8172,52.464848,-1.892751,503.23,40.79,29.032257,297.4,Nov-19,4086049,2019-10-03 15:30:50:805,0.3953,0.5208,9.6584,0.1194,0.6604,9.7837,-0.0176,-0.032,0.0716,10.38,20.3,-19.49,295.74,-0.72,-3.75
8173,52.464848,-1.892751,503.23,40.79,29.032257,297.4,Nov-19,4086549,2019-10-03 15:30:51:305,0.2537,0.9165,12.1125,0.1964,0.6554,9.7828,-0.0165,-0.0309,0.0183,10.29,20.41,-19.43,295.91,-0.98,-3.76
8174,52.464897,-1.892924,500.0,42.77,29.032257,297.0,Nov-19,4087048,2019-10-03 15:30:51:804,0.8297,0.5407,9.7654,0.2453,0.675,9.7803,0.0218,-0.0458,-0.0179,10.61,19.37,-20.3,299.41,-1.43,-3.95
8175,52.464897,-1.892924,500.0,42.77,29.032257,297.0,Nov-19,4087548,2019-10-03 15:30:52:304,0.2753,0.618,9.3563,0.2712,0.6761,9.7796,-0.0187,0.0426,0.0247,10.45,18.47,-21.21,298.41,-1.44,-3.92
8176,52.464943,-1.893095,503.23,44.89,29.032257,296.6,Nov-19,4088048,2019-10-03 15:30:52:804,1.2087,0.9361,9.695,0.4696,0.7052,9.77,-0.0037,0.0458,0.0034,10.94,19.83,-19.68,300.06,-2.46,-4.05
8177,52.464943,-1.893095,503.23,44.89,29.032257,296.6,Nov-19,4088548,2019-10-03 15:30:53:304,0.3327,1.1071,9.4892,0.6766,0.7489,9.7546,-0.0123,-0.0181,0.0545,10.42,19.73,-20.05,297.42,-3.61,-4.4
8178,52.464996,-1.893269,503.23,47.92,29.032257,296.7,Nov-19,4089048,2019-10-03 15:30:53:804,0.3208,1.0775,10.8008,0.797,0.7577,9.7448,-0.0282,-0.0298,-0.036,10.93,19.43,-20.07,301.31,-4.66,-4.45
8179,52.464996,-1.893269,503.23,47.92,29.032257,296.7,Nov-19,4089548,2019-10-03 15:30:54:304,-0.9002,-0.0207,7.222,0.5701,0.7241,9.7633,-0.0197,0.0192,-0.15,10.0,20.29,-19.7,297.96,-4.35,-4.24
8180,52.465057,-1.893458,503.23,51.77,29.032257,296.8,Nov-19,4090049,2019-10-03 15:30:54:805,-0.1508,0.0054,11.1212,0.1915,0.6392,9.7839,-0.0325,0.0032,-0.0296,10.6,19.43,-20.25,299.28,-1.12,-3.74
8181,52.465057,-1.893458,503.23,51.77,29.032257,296.8,Nov-19,4090548,2019-10-03 15:30:55:304,-0.4014,0.9442,8.1763,-0.08,0.6442,9.7851,-0.0069,-0.0011,-0.0094,13.89,18.8,-18.81,295.77,-0.54,-3.84
8182,52.46512,-1.893652,503.23,53.24,29.032257,296.7,Nov-19,4091049,2019-10-03 15:30:55:805,-0.4458,0.5582,10.0794,-0.2025,0.5699,9.788,0.0453,0.0937,0.0162,10.61,19.76,-19.92,296.78,0.93,-3.52
8183,52.46512,-1.893652,503.23,53.24,29.032257,296.7,Nov-19,4091548,2019-10-03 15:30:56:304,0.5777,0.2485,10.3831,-0.3374,0.6393,9.78,0.0122,0.0128,0.0247,10.57,19.23,-20.45,297.26,1.77,-3.61
8184,52.465183,-1.89385,503.23,53.5,29.032257,296.5,Nov-19,4092048,2019-10-03 15:30:56:804,-0.0784,0.4848,8.938,-0.3737,0.619,9.78,-0.0006,-0.0107,-0.0083,10.61,19.76,-19.92,295.9,2.09,-3.64
8185,52.465183,-1.89385,503.23,53.5,29.032257,296.5,Nov-19,4092548,2019-10-03 15:30:57:304,0.4119,0.196,9.5794,-0.4414,0.6791,9.7731,-0.0016,-0.0096,0.0513,10.54,19.09,-20.6,296.34,2.58,-3.98
8186,52.46525,-1.894048,506.45,53.28,29.032257,296.8,Nov-19,4093048,2019-10-03 15:30:57:804,-1.2542,1.2491,8.4904,-0.4649,0.6916,9.7712,0.0357,-0.0203,-0.0094,11.49,19.11,-20.07,296.45,2.63,-4.07
8187,52.46525,-1.894048,506.45,53.28,29.032257,296.8,Nov-19,4093548,2019-10-03 15:30:58:304,-0.0293,-0.3681,10.2443,-0.4172,0.6028,9.7792,0.0804,-0.0298,0.0471,10.95,18.99,-20.49,294.21,2.45,-3.78
8188,52.465298,-1.894253,503.23,54.0,29.032257,296.3,Nov-19,4094048,2019-10-03 15:30:58:804,0.9892,-0.3082,9.6436,-0.4036,0.5714,9.7817,0.0186,0.0937,0.03,10.83,18.78,-20.73,296.66,2.43,-3.41
8189,52.465298,-1.894253,503.23,54.0,29.032257,296.3,Nov-19,4094548,2019-10-03 15:30:59:304,-0.4702,0.9168,9.3964,-0.4342,0.5504,9.7816,-0.0155,0.0724,0.0684,10.99,18.73,-20.7,299.04,2.53,-3.21
8190,52.46535,-1.894452,503.23,53.46,29.032257,295.8,Nov-19,4095049,2019-10-03 15:30:59:805,0.2558,0.6162,10.3308,-0.4214,0.5668,9.7812,-0.0091,-0.0053,-0.0232,11.26,19.19,-20.13,296.88,2.47,-3.16
8191,52.46535,-1.894452,503.23,53.46,29.032257,295.8,Nov-19,4095548,2019-10-03 15:31:00:304,-0.0504,0.7421,9.8578,-0.4581,0.6766,9.7725,-0.0559,-0.0139,0.0226,10.64,19.37,-20.29,296.86,2.33,-3.53
8192,52.465412,-1.894657,503.23,53.35,29.032257,295.5,Nov-19,4096048,2019-10-03 15:31:00:804,-1.0566,0.6052,8.9287,-0.3868,0.6004,9.7806,-0.0325,-0.0266,-0.0009,11.88,19.35,-19.61,299.17,2.16,-3.6
8193,52.465412,-1.894657,503.23,53.35,29.032257,295.5,Nov-19,4096548,2019-10-03 15:31:01:304,-0.7001,0.729,9.7814,-0.3878,0.6423,9.7779,0.0463,-0.0352,0.0279,11.31,19.56,-19.74,293.56,2.2,-3.78
8194,52.465473,-1.894852,506.45,53.39,29.032257,295.4,Dec-19,4097048,2019-10-03 15:31:01:804,-1.0198,1.0602,10.2532,-0.4198,0.6262,9.7776,0.0144,-0.0373,0.0034,11.08,21.06,-18.26,294.93,2.45,-3.66
8195,52.465473,-1.894852,506.45,53.39,29.032257,295.4,Dec-19,4097549,2019-10-03 15:31:02:305,-0.8899,0.7702,9.301,-0.3863,0.6383,9.7782,-0.0251,0.0042,0.0087,14.32,16.67,-20.42,306.0,2.19,-3.74
8196,52.465523,-1.895042,503.23,53.6,29.032257,295.3,Dec-18,4098049,2019-10-03 15:31:02:805,-0.8545,0.6024,9.6011,-0.3944,0.6474,9.7773,-0.0091,0.0032,0.0119,11.63,18.43,-20.62,300.06,2.3,-3.79
8197,52.465523,-1.895042,503.23,53.6,29.032257,295.3,Dec-18,4098548,2019-10-03 15:31:03:304,-1.5351,1.2795,9.4584,-0.5536,0.6115,9.7719,0.0058,0.0373,0.0162,12.01,19.16,-19.71,296.4,2.89,-3.62
8198,52.465584,-1.895239,506.45,54.04,29.032257,295.2,Dec-18,4099048,2019-10-03 15:31:03:804,-1.8398,0.6533,9.4158,-0.6728,0.5499,9.7681,0.0122,0.0149,0.0503,15.26,19.04,-17.45,304.85,3.93,-3.22
8199,52.465584,-1.895239,506.45,54.04,29.032257,295.2,Dec-18,4099548,2019-10-03 15:31:04:304,-0.2759,0.5911,9.5581,-0.6962,0.6112,9.7628,-0.0027,0.0192,-0.0467,14.65,14.05,-22.09,310.99,4.4,-3.6
8200,52.46564,-1.895432,506.45,52.34,29.032257,294.9,Dec-18,4100049,2019-10-03 15:31:04:805,-1.5561,0.2957,9.2362,-0.8203,0.4297,9.7628,0.0367,-0.1023,0.0258,9.72,20.5,-19.63,291.9,4.66,-2.79
8201,52.46564,-1.895432,506.45,52.34,29.032257,294.9,Dec-18,4100549,2019-10-03 15:31:05:305,-0.8544,1.0214,11.0037,-0.7858,0.526,9.761,0.0516,0.0053,0.0407,13.62,18.62,-19.17,300.06,4.41,-3.17
8202,52.46569,-1.895618,503.23,50.94,29.032257,294.6,Dec-18,4101048,2019-10-03 15:31:05:804,-1.5302,0.6263,9.7931,-0.8017,0.4356,9.7641,-0.0485,-0.0075,-0.0264,11.58,19.05,-20.07,297.52,4.75,-2.69
8203,52.46569,-1.895618,503.23,50.94,29.032257,294.6,Dec-18,4101548,2019-10-03 15:31:06:304,0.1314,-0.2001,10.3192,-0.8086,0.208,9.771,-0.0549,-0.0075,0.0471,13.99,22.81,-13.57,298.83,4.74,-1.39
8204,52.465744,-1.895808,503.23,49.64,29.032257,292.9,Dec-18,4102049,2019-10-03 15:31:06:805,-0.2888,-0.1428,8.6428,-0.7039,0.0822,9.781,-0.0069,-0.032,0.0417,12.32,19.67,-19.01,297.66,4.25,-0.53
8205,52.465744,-1.895808,503.23,49.64,29.032257,292.9,Dec-18,4102548,2019-10-03 15:31:07:304,-0.7397,0.4639,11.0567,-0.7948,0.108,9.7738,-0.0325,-0.0011,0.0939,11.41,20.12,-19.11,295.04,4.65,-0.63
8206,52.46579,-1.896002,503.23,48.38,29.032257,290.0,Dec-18,4103048,2019-10-03 15:31:07:804,-0.7361,0.2513,9.302,-0.7031,0.0776,9.7811,-0.057,-0.0043,0.0375,8.6,21.91,-18.61,289.22,3.91,-0.13
8207,52.46579,-1.896002,503.23,48.38,29.032257,290.0,Dec-18,4103548,2019-10-03 15:31:08:304,-1.1242,0.977,10.4038,-0.6657,0.3032,9.7793,0.0463,0.0905,-0.0403,9.18,18.45,-21.8,291.95,3.89,-1.78
8208,52.46583,-1.896186,500.0,46.98,29.032257,289.0,Dec-18,4104048,2019-10-03 15:31:08:804,-0.8698,0.6485,10.5628,-0.6993,0.5135,9.7682,0.0133,0.0437,0.0034,9.36,20.33,-19.98,289.95,4.24,-2.43
8209,52.46583,-1.896186,500.0,46.98,29.032257,289.0,Dec-18,4104548,2019-10-03 15:31:09:304,-1.387,0.9365,9.4374,-0.7092,0.6482,9.7595,0.024,0.066,-0.0041,11.6,23.21,-15.05,294.69,4.15,-3.66
8210,52.465874,-1.896364,503.23,46.08,29.032257,290.0,Dec-18,4105049,2019-10-03 15:31:09:805,-0.6995,0.6682,9.428,-0.7537,0.7925,9.7455,-0.041,-0.0341,-0.0445,17.09,18.14,-16.69,309.44,4.17,-4.32
8211,52.465874,-1.896364,503.23,46.08,29.032257,290.0,Dec-18,4105549,2019-10-03 15:31:10:305,-1.5225,0.9507,9.9327,-0.785,0.8425,9.7388,-0.0432,0.0767,-0.0616,21.32,9.38,-18.91,331.48,4.64,-4.85
8212,52.465908,-1.896533,503.23,44.1,32.258064,291.2,Dec-18,4106048,2019-10-03 15:31:10:804,-0.3727,0.3006,9.491,-0.8143,0.8757,9.7335,0.0176,-0.016,-0.0062,15.64,18.85,-17.32,305.73,4.63,-5.18
8213,52.465908,-1.896533,503.23,44.1,32.258064,291.2,Dec-18,4106548,2019-10-03 15:31:11:304,-0.8224,0.5274,9.613,-0.8137,0.8535,9.7355,0.025,0.0042,0.0098,17.53,19.98,-13.91,308.67,4.76,-5.01
8214,52.465946,-1.896685,503.23,41.9,32.258064,292.2,Dec-18,4107049,2019-10-03 15:31:11:805,-0.7226,0.5861,9.7852,-0.783,0.7499,9.7465,0.0026,0.033,0.03,9.31,22.38,-17.68,288.14,4.67,-4.56
8215,52.465946,-1.896685,503.23,41.9,32.258064,292.2,Dec-18,4107548,2019-10-03 15:31:12:304,-0.6653,0.4092,10.1175,-0.8156,0.6662,9.7499,-0.0006,0.033,-0.035,9.86,22.58,-17.11,289.81,4.77,-3.91
8216,52.465984,-1.896825,503.23,39.38,32.258064,292.4,Dec-18,4108049,2019-10-03 15:31:12:805,-1.4074,0.7364,9.473,-0.8175,0.5951,9.7544,0.0186,0.0138,0.0268,6.99,22.69,-18.34,283.09,4.78,-3.49
8217,52.465984,-1.896825,503.23,39.38,32.258064,292.4,Dec-18,4108549,2019-10-03 15:31:13:305,-0.9538,0.1616,10.0553,-0.8332,0.558,9.7552,-0.0037,0.0224,0.0172,7.51,24.08,-16.25,284.98,4.78,-3.32
8218,52.466015,-1.896977,503.23,37.3,32.258064,292.2,Dec-18,4109048,2019-10-03 15:31:13:804,-1.355,0.9149,9.553,-0.784,0.546,9.76,-0.0133,-0.0245,-0.0371,8.16,24.2,-15.74,285.29,4.62,-3.18
8219,52.466015,-1.896977,503.23,37.3,32.258064,292.2,Dec-18,4109548,2019-10-03 15:31:14:304,-0.8139,0.6756,8.7158,-0.7353,0.4599,9.7682,0.0176,-0.0096,0.0375,7.33,21.79,-19.28,283.74,4.41,-2.89
8220,52.46605,-1.897106,506.45,34.88,32.258064,291.2,Dec-18,4110049,2019-10-03 15:31:14:805,-0.1889,-0.0172,10.8291,-0.6922,0.3186,9.777,-0.0091,-0.0852,0.0652,4.86,22.19,-19.59,279.04,4.11,-2.03
8221,52.46605,-1.897106,506.45,34.88,32.258064,291.2,Dec-18,4110548,2019-10-03 15:31:15:304,-0.6437,-0.1086,9.8145,-0.6172,0.194,9.7853,-0.0006,0.0042,0.0449,6.84,23.37,-17.53,281.19,3.79,-1.5
8222,52.466072,-1.89724,506.45,33.3,29.032257,288.5,Dec-18,4111048,2019-10-03 15:31:15:804,-0.6956,-0.6113,10.2112,-0.5674,0.0467,9.7901,0.0005,-0.0192,0.1014,2.95,23.43,-18.51,274.71,3.32,-0.27
8223,52.466072,-1.89724,506.45,33.3,29.032257,288.5,Dec-18,4111548,2019-10-03 15:31:16:304,0.1231,0.0538,10.1269,-0.5227,-0.139,9.7917,-0.0368,-0.049,0.0961,4.89,24.79,-16.17,279.48,2.99,0.64
8224,52.466087,-1.897307,496.77,29.77,32.258064,283.5,Dec-18,4112048,2019-10-03 15:31:16:804,-0.4011,-0.1534,9.5548,-0.3885,-0.3127,9.794,-0.0208,-0.0298,0.1195,1.64,25.3,-16.04,273.12,2.27,1.83
8225,52.466087,-1.897307,496.77,29.77,32.258064,283.5,Dec-18,4112549,2019-10-03 15:31:17:305,-0.6693,-0.09,9.7644,-0.4895,-0.4789,9.7827,-0.0027,-0.0405,0.1025,-0.25,26.11,-14.78,268.26,2.72,2.71
