,GPS LATITUDE (degrees), GPS LONGITUDE (degrees), GPS ALTITUDE (m), GPS SPEED (Kmh), GPS ACCURACY (m), GPS ORIENTATION (Â°),GPS SATELLITES IN RANGE, TIME SINCE START (ms), DATE (YYYY-MO-DD HH-MI-SS_SSS), ACCELEROMETER X (m/s²) , ACCELEROMETER Y (m/s²), ACCELEROMETER Z (m/s²), GRAVITY X (m/s²), GRAVITY Y (m/s²), GRAVITY Z (m/s²), GYROSCOPE Yaw (rad/s), GYROSCOPE Pitch (rad/s), GYROSCOPE Roll (rad/s), MAGNETIC FIELD X (Î¼T), MAGNETIC FIELD Y (Î¼T), MAGNETIC FIELD Z (Î¼T), ORIENTATION (Yaw) (Â°), ORIENTATION (Pitch) (Â°), ORIENTATION (Roll ) (Â°)
24821,52.41832,-1.559816,164.65,4.22,3,138.12,22 / 22,2490529,2019-09-06 18:57:37:211,-1.373,-1.3575,10.0027,0.0041,0.0042,9.8066,0.0057,-0.1248,0.0177,-9.37,-30.75,-6.56,243.89,-87.59,-162.38
24822,52.41832,-1.559816,164.65,4.22,3,138.12,22 / 22,2490628,2019-09-06 18:57:37:310,-1.3124,-1.4328,9.8882,0.0016,0.0009,9.8066,0.0163,-0.1494,0.0194,-9.06,-30.75,-6.69,243.82,-87.62,-162.49
24823,52.41832,-1.559816,164.65,4.22,3,138.12,22 / 22,2490729,2019-09-06 18:57:37:411,-1.3127,-1.0355,9.9599,-0.0008,0.0028,9.8066,-0.0055,-0.1085,-0.0281,-9.19,-31.06,-6.37,246.77,-87.56,-163.13
24824,52.41832,-1.559816,164.65,4.22,3,138.12,22 / 22,2490829,2019-09-06 18:57:37:511,-1.3035,-0.6575,9.7429,0.0044,-0.0052,9.8066,-0.0162,-0.1061,0.0352,-9.31,-30.62,-6.25,247.31,-87.53,-162.47
24825,52.41832,-1.559816,164.65,4.22,3,138.12,22 / 22,2490929,2019-09-06 18:57:37:611,-1.3558,-1.651,9.9223,0.0003,-0.0038,9.8066,-0.0262,-0.102,0.0094,-10.06,-31.06,-6.56,247.73,-87.52,-161.44
24826,52.41832,-1.559816,164.65,4.22,3,138.12,22 / 22,2491028,2019-09-06 18:57:37:710,-1.6263,-1.5277,9.7949,-0.0028,0.0029,9.8066,-0.0274,-0.08,-0.0243,-10.37,-30.25,-6.5,250.58,-87.48,-162.34
24827,52.41832,-1.559816,164.65,4.22,3,138.12,22 / 22,2491129,2019-09-06 18:57:37:811,-1.5904,-0.8711,9.8577,0.0001,-0.0031,9.8066,0.0157,-0.0808,0.0327,-9.87,-30.56,-6.06,249.78,-87.47,-162.96
24828,52.41832,-1.559816,164.65,4.22,3,138.12,22 / 22,2491229,2019-09-06 18:57:37:911,-1.2338,-0.4202,9.9588,0.0021,0.0061,9.8066,-0.0001,-0.0699,0.0013,-10.06,-30.75,-6.44,248.25,-87.41,-164.4
24829,52.41832,-1.559816,164.65,4.22,3,138.12,22 / 22,2491330,2019-09-06 18:57:38:012,-1.3392,-1.1001,9.8966,0.0098,0.0062,9.8066,-0.0082,-0.0577,0.012,-10.56,-30.94,-6.25,250.57,-87.36,-164.66
24830,52.41829,-1.55994,164.94,1.26,3,354.46,22 / 22,2491429,2019-09-06 18:57:38:111,-1.2789,-1.0195,9.7657,0.006,0.0029,9.8066,0.0076,-0.0534,0.004,-10.75,-31.31,-6.0,251.01,-87.34,-164.16
24831,52.41829,-1.55994,164.94,1.26,3,354.46,22 / 22,2491528,2019-09-06 18:57:38:210,-0.7812,-0.4976,9.7537,-0.0004,-0.0015,9.8066,0.0282,-0.0542,0.0097,-10.94,-30.94,-7.12,247.67,-87.31,-163.95
24832,52.41829,-1.55994,164.94,1.26,3,354.46,22 / 22,2491628,2019-09-06 18:57:38:310,-0.8752,-0.5804,9.8667,-0.0038,-0.0015,9.8066,0.0124,-0.0586,-0.0086,-10.69,-30.81,-6.75,247.54,-87.29,-164.03
24833,52.41829,-1.55994,164.94,1.26,3,354.46,22 / 22,2491729,2019-09-06 18:57:38:411,-1.0099,-0.6675,9.9737,0.0048,0.0053,9.8066,-0.0167,-0.0478,0.0061,-10.62,-31.44,-6.31,250.53,-87.28,-164.51
24834,52.41829,-1.55994,164.94,1.26,3,354.46,22 / 22,2491829,2019-09-06 18:57:38:511,-1.12,-0.6176,9.9171,0.0008,-0.0004,9.8066,-0.0154,-0.0336,-0.002,-10.81,-31.12,-6.44,249.91,-87.24,-165.08
24835,52.41829,-1.55994,164.94,1.26,3,354.46,22 / 22,2491929,2019-09-06 18:57:38:611,-0.7787,-0.5713,9.8891,0.004,0.0056,9.8066,-0.007,-0.0257,0.0266,-10.44,-30.44,-6.5,247.11,-87.18,-165.25
24836,52.41829,-1.55994,164.94,1.26,3,354.46,22 / 22,2492028,2019-09-06 18:57:38:710,-0.9342,-0.7026,9.8378,0.0032,-0.0025,9.8066,0.0142,-0.0281,0.0146,-11.44,-31.0,-6.62,246.78,-87.18,-164.6
24837,52.41829,-1.55994,164.94,1.26,3,354.46,22 / 22,2492129,2019-09-06 18:57:38:811,-0.9493,-0.6834,9.9217,0.0031,0.0003,9.8066,-0.0071,-0.0272,0.0,-10.81,-30.81,-6.62,247.59,-87.14,-163.65
24838,52.41829,-1.55994,164.94,1.26,3,354.46,22 / 22,2492229,2019-09-06 18:57:38:911,-0.5876,-0.5936,9.7486,0.0019,0.0,9.8066,0.0101,-0.0122,0.028,-10.81,-30.56,-6.5,251.54,-87.14,-163.15
24839,52.41829,-1.55994,164.94,1.26,3,354.46,22 / 22,2492328,2019-09-06 18:57:39:010,-1.0351,-0.674,9.9004,-0.0009,-0.0058,9.8066,0.0209,-0.018,-0.0102,-10.5,-30.81,-6.44,249.22,-87.13,-162.69
24840,52.41829,-1.55994,164.94,1.26,3,354.46,22 / 22,2492429,2019-09-06 18:57:39:111,-1.0569,-0.584,9.8464,-0.002,-0.002,9.8066,-0.0096,-0.0235,0.0051,-10.44,-30.94,-6.44,249.99,-87.13,-161.88
24841,52.41829,-1.55994,164.94,1.26,3,354.46,22 / 22,2492529,2019-09-06 18:57:39:211,-1.2434,-0.6291,9.8646,-0.0004,-0.0016,9.8066,0.0101,-0.0198,0.0069,-10.5,-30.31,-5.69,250.21,-87.13,-161.88
24842,52.41829,-1.55994,164.94,1.26,3,354.46,22 / 22,2492628,2019-09-06 18:57:39:310,-1.2539,-0.8312,10.0734,0.0047,-0.0021,9.8066,-0.0166,-0.0379,-0.0114,-10.94,-30.56,-6.69,249.97,-87.11,-161.11
24843,52.41829,-1.55994,164.94,1.26,3,354.46,22 / 22,2492728,2019-09-06 18:57:39:410,-0.7531,-0.5592,9.7749,-0.0026,-0.003,9.8066,0.009,-0.015,0.0143,-10.12,-30.19,-6.87,247.99,-87.11,-160.45
24844,52.41829,-1.55994,164.94,1.26,3,354.46,22 / 22,2492828,2019-09-06 18:57:39:510,-0.9477,-0.7449,9.896,0.0015,-0.0032,9.8066,0.0084,-0.0057,0.0194,-10.56,-30.69,-6.69,251.35,-87.11,-159.67
24845,52.41829,-1.55994,164.94,1.26,3,354.46,22 / 22,2492928,2019-09-06 18:57:39:610,-0.7539,-0.7062,9.8676,0.0027,-0.0016,9.8066,0.0118,-0.0028,-0.0084,-10.25,-30.25,-6.25,252.93,-87.11,-159.0
24846,52.41829,-1.55994,164.94,1.26,3,354.46,22 / 22,2493029,2019-09-06 18:57:39:711,-0.7048,-0.4097,9.7837,0.0,-0.0018,9.8066,-0.0021,-0.0221,-0.0034,-10.62,-30.37,-6.75,252.8,-87.07,-158.29
24847,52.41829,-1.55994,164.94,1.26,3,354.46,22 / 22,2493129,2019-09-06 18:57:39:811,-0.7555,-0.4068,9.7577,-0.0008,-0.0024,9.8066,0.0023,-0.0032,0.0087,-10.81,-30.25,-6.19,257.07,-87.08,-157.51
24848,52.41829,-1.55994,164.94,1.26,3,354.46,22 / 22,2493229,2019-09-06 18:57:39:911,-0.6855,-0.4188,9.7928,0.0007,-0.0033,9.8066,0.0112,-0.0204,0.0078,-10.44,-30.31,-6.62,251.38,-87.1,-156.87
24849,52.41829,-1.55994,164.94,1.26,3,354.46,22 / 22,2493328,2019-09-06 18:57:40:010,-0.7498,-0.3433,9.8843,-0.0006,-0.0029,9.8066,0.011,-0.0021,-0.0013,-10.87,-30.5,-6.44,258.4,-87.09,-156.17
24850,52.41829,-1.55994,164.94,1.26,3,354.46,21 / 22,2493428,2019-09-06 18:57:40:110,-0.9255,-0.6516,9.8495,-0.0009,-0.0042,9.8066,-0.0017,-0.0103,0.0004,-10.37,-30.19,-6.87,253.03,-87.1,-155.17
24851,52.41829,-1.55994,164.94,1.26,3,354.46,21 / 22,2493529,2019-09-06 18:57:40:211,-0.6356,-0.3015,9.9414,-0.0007,-0.0033,9.8066,0.0036,-0.0033,0.0007,-10.19,-30.5,-6.37,257.58,-87.11,-154.19
24852,52.41829,-1.55994,164.94,1.26,3,354.46,21 / 22,2493628,2019-09-06 18:57:40:310,-0.2805,-0.089,10.0846,0.0006,-0.0023,9.8066,0.034,-0.0063,0.0096,-10.44,-30.5,-6.69,254.59,-87.12,-153.61
24853,52.41829,-1.55994,164.94,1.26,3,354.46,21 / 22,2493728,2019-09-06 18:57:40:410,-0.4417,-0.2951,9.9156,0.0056,0.0,9.8066,-0.0118,-0.0012,-0.0031,-10.31,-30.06,-6.5,259.04,-87.08,-152.62
24854,52.41829,-1.55994,164.94,1.26,3,354.46,21 / 22,2493829,2019-09-06 18:57:40:511,-0.4235,-0.2425,9.7867,0.002,-0.0018,9.8066,-0.0164,-0.0126,-0.0044,-10.69,-30.75,-6.87,259.01,-87.09,-151.73
24855,52.41829,-1.55994,164.94,1.26,3,354.46,21 / 22,2493929,2019-09-06 18:57:40:611,-0.3831,-0.1477,9.8383,-0.0028,-0.0043,9.8066,0.0111,0.0076,0.0138,-10.75,-30.56,-6.5,263.17,-87.1,-151.09
24856,52.41829,-1.55994,164.94,1.26,3,354.46,21 / 22,2494028,2019-09-06 18:57:40:710,-0.3373,-0.1945,9.7645,-0.003,-0.0053,9.8066,0.0303,0.0009,0.0103,-10.31,-30.37,-6.62,258.19,-87.14,-149.91
24857,52.41829,-1.55994,164.94,1.26,3,354.46,21 / 22,2494128,2019-09-06 18:57:40:810,-0.3627,-0.0707,9.7858,-0.0012,-0.0038,9.8066,0.0087,-0.0073,-0.0007,-10.19,-30.75,-7.06,259.09,-87.13,-148.75
24858,52.41829,-1.55994,164.94,1.26,3,354.46,21 / 22,2494228,2019-09-06 18:57:40:910,-0.2356,-0.0219,9.6962,0.0015,-0.0028,9.8066,0.0027,-0.0155,-0.0076,-10.56,-30.81,-6.56,262.8,-87.13,-147.94
24859,52.41829,-1.55994,164.94,1.26,3,354.46,21 / 22,2494328,2019-09-06 18:57:41:010,-0.4532,-0.1857,9.8001,-0.0031,-0.0048,9.8066,0.0146,-0.0038,0.018,-10.31,-30.31,-7.31,260.53,-87.13,-147.51
24860,52.41829,-1.55994,164.94,1.26,3,354.46,21 / 21,2494429,2019-09-06 18:57:41:111,-0.4828,-0.0929,9.8785,-0.0008,-0.0014,9.8066,0.0133,-0.003,-0.001,-10.44,-30.62,-6.0,265.33,-87.14,-146.11
24861,52.41829,-1.55994,164.94,1.26,3,354.46,21 / 21,2494528,2019-09-06 18:57:41:210,-0.4194,-0.09,9.8526,-0.0014,-0.0045,9.8066,0.0151,-0.0132,-0.0034,-10.69,-30.0,-6.81,265.76,-87.16,-145.25
24862,52.41829,-1.55994,164.94,1.26,3,354.46,21 / 21,2494629,2019-09-06 18:57:41:311,-0.466,-0.2032,9.8398,-0.0001,-0.003,9.8066,0.0054,-0.0119,-0.0077,-10.12,-30.31,-6.81,263.54,-87.18,-144.56
24863,52.41829,-1.55994,164.94,1.26,3,354.46,21 / 21,2494729,2019-09-06 18:57:41:411,-0.3906,-0.0663,9.8892,0.0022,-0.0042,9.8066,0.0097,0.0023,0.0152,-10.19,-30.56,-6.0,268.51,-87.18,-143.0
24864,52.41829,-1.55994,164.94,1.26,3,354.46,21 / 21,2494829,2019-09-06 18:57:41:511,-0.4689,-0.1927,9.8995,-0.0023,-0.0029,9.8066,0.0071,-0.003,0.0109,-10.06,-30.5,-6.12,269.95,-87.18,-141.82
24865,52.41829,-1.55994,164.94,1.26,3,354.46,21 / 21,2494928,2019-09-06 18:57:41:610,-0.5883,-0.3267,9.893,-0.0027,-0.005,9.8066,-0.0026,-0.0205,-0.0109,-10.44,-30.25,-6.69,267.29,-87.22,-140.87
24866,52.41829,-1.55994,164.94,1.26,3,354.46,21 / 21,2495029,2019-09-06 18:57:41:711,-0.2372,0.04,9.8529,0.001,-0.0032,9.8066,0.0095,-0.0006,0.0016,-10.25,-30.31,-6.75,268.49,-87.21,-139.63
24867,52.41829,-1.55994,164.94,1.26,3,354.46,21 / 21,2495129,2019-09-06 18:57:41:811,-0.3088,-0.0798,9.7245,-0.001,-0.004,9.8066,0.0239,-0.0013,0.0122,-10.25,-30.5,-6.12,273.41,-87.23,-138.48
24868,52.41829,-1.55994,164.94,1.26,3,354.46,21 / 21,2495228,2019-09-06 18:57:41:910,-0.2468,0.0053,9.7741,-0.0024,-0.0016,9.8066,0.016,0.0054,-0.0001,-10.44,-30.5,-6.75,270.32,-87.23,-137.86
24869,52.41829,-1.55994,164.94,1.26,3,354.46,21 / 21,2495329,2019-09-06 18:57:42:011,-0.1626,0.1161,9.706,-0.0003,-0.0033,9.8066,-0.0236,-0.0152,-0.0109,-10.56,-30.19,-6.37,278.21,-87.27,-136.67
24870,52.41829,-1.55994,164.94,1.26,3,354.46,21 / 21,2495428,2019-09-06 18:57:42:110,-0.1074,0.0819,9.7571,0.0005,-0.0042,9.8066,0.0209,-0.0046,0.0148,-10.87,-30.25,-6.62,276.31,-87.27,-134.95
24871,52.41829,-1.55994,164.94,1.26,3,354.46,21 / 21,2495529,2019-09-06 18:57:42:211,0.2179,0.5044,9.8471,0.0043,-0.0002,9.8066,0.0095,-0.0161,0.0069,-10.56,-30.5,-6.19,280.71,-87.26,-134.2
24872,52.41829,-1.55994,164.94,1.26,3,354.46,21 / 21,2495628,2019-09-06 18:57:42:310,0.2057,0.4743,9.7606,0.0009,-0.0017,9.8066,-0.0166,-0.0278,-0.0194,-10.75,-30.12,-6.5,281.04,-87.25,-133.86
24873,52.41829,-1.55994,164.94,1.26,3,354.46,21 / 21,2495729,2019-09-06 18:57:42:411,0.079,0.2697,9.7934,0.0051,-0.0007,9.8066,0.0277,0.005,0.0147,-10.56,-30.5,-6.25,281.1,-87.2,-133.67
24874,52.41829,-1.55994,164.94,1.26,3,354.46,21 / 21,2495829,2019-09-06 18:57:42:511,0.491,0.672,9.7922,-0.0025,-0.0035,9.8066,0.0243,-0.0155,0.0213,-10.81,-30.19,-6.62,278.08,-87.16,-132.96
24875,52.41829,-1.55994,164.94,1.26,3,354.46,21 / 21,2495929,2019-09-06 18:57:42:611,0.3427,0.4975,9.8981,-0.0044,-0.0038,9.8066,-0.003,-0.0085,-0.0068,-10.62,-30.31,-6.44,282.57,-87.2,-132.24
24876,52.41829,-1.55994,164.94,1.26,3,354.46,21 / 21,2496028,2019-09-06 18:57:42:710,0.213,0.3972,9.9136,-0.0015,-0.0049,9.8066,-0.0172,-0.0106,0.0025,-10.37,-30.19,-6.0,281.3,-87.21,-130.66
24877,52.41829,-1.55994,164.94,1.26,3,354.46,21 / 21,2496129,2019-09-06 18:57:42:811,0.5852,0.6689,9.6681,0.0016,-0.0007,9.8066,0.0293,-0.0172,0.0225,-10.19,-30.25,-6.19,281.78,-87.2,-130.16
24878,52.41829,-1.55994,164.94,1.26,3,354.46,21 / 21,2496229,2019-09-06 18:57:42:911,0.4183,0.5899,9.8171,-0.0038,-0.0039,9.8066,0.0057,-0.023,0.0012,-10.44,-29.75,-6.44,282.65,-87.2,-129.32
24879,52.41829,-1.55994,164.94,1.26,3,354.46,21 / 21,2496329,2019-09-06 18:57:43:011,0.5321,0.6144,9.9111,-0.002,-0.0031,9.8066,0.0019,-0.0287,-0.0006,-10.87,-29.81,-5.81,286.99,-87.22,-128.01
24880,52.41829,-1.55994,164.94,1.26,3,354.46,21 / 21,2496428,2019-09-06 18:57:43:110,0.4672,0.5727,9.9377,0.0004,-0.0013,9.8066,0.0083,-0.0206,-0.0007,-10.75,-30.81,-6.37,287.98,-87.23,-126.86
24881,52.41829,-1.55994,164.94,1.26,3,354.46,21 / 21,2496529,2019-09-06 18:57:43:211,0.7277,0.6086,9.9238,-0.0003,0.0014,9.8066,-0.015,-0.0143,-0.0023,-10.94,-30.44,-5.69,289.02,-87.26,-126.13
24882,52.41829,-1.55994,164.94,1.26,3,354.46,21 / 21,2496629,2019-09-06 18:57:43:311,0.468,0.5373,9.735,-0.0107,-0.0042,9.8066,-0.0154,-0.019,-0.0026,-11.06,-30.37,-5.69,290.77,-87.36,-124.68
24883,52.41829,-1.55994,164.94,1.26,3,354.46,21 / 21,2496728,2019-09-06 18:57:43:410,0.7324,0.6649,9.6856,-0.0061,-0.0016,9.8066,-0.0003,-0.0092,-0.0049,-11.12,-30.81,-6.25,290.75,-87.41,-124.6
24884,52.41829,-1.55994,164.94,1.26,3,354.46,21 / 21,2496829,2019-09-06 18:57:43:511,0.0856,0.6044,9.929,0.0043,0.0037,9.8066,0.0051,-0.026,0.0096,-11.12,-30.44,-6.19,291.01,-87.4,-124.53
24885,52.41829,-1.55994,164.94,1.26,3,354.46,21 / 21,2496929,2019-09-06 18:57:43:611,0.1588,0.5393,9.828,-0.0014,-0.0004,9.8066,0.0018,-0.038,-0.0113,-10.75,-30.31,-6.94,288.33,-87.44,-123.59
24886,52.41829,-1.55994,164.94,1.26,3,354.46,21 / 21,2497029,2019-09-06 18:57:43:711,0.3882,0.4924,9.5728,-0.0058,-0.0067,9.8066,0.0076,-0.0594,-0.0019,-10.69,-30.69,-6.37,292.93,-87.45,-122.6
24887,52.41829,-1.55994,164.94,1.26,3,354.46,21 / 21,2497129,2019-09-06 18:57:43:811,0.3861,0.3592,9.6713,-0.0066,-0.0054,9.8066,0.0027,-0.031,-0.01,-11.19,-30.87,-6.25,295.92,-87.5,-119.87
24888,52.41829,-1.55994,164.94,1.26,3,354.46,21 / 21,2497229,2019-09-06 18:57:43:911,0.1368,0.481,9.8481,0.0032,-0.0007,9.8066,0.0038,-0.0138,0.0144,-11.25,-30.81,-6.62,292.67,-87.47,-119.29
24889,52.41829,-1.55994,164.94,1.26,3,354.46,21 / 21,2497329,2019-09-06 18:57:44:011,0.6926,0.632,9.7021,-0.0001,-0.0025,9.8066,-0.0027,-0.0272,0.0248,-10.62,-30.31,-6.25,297.52,-87.48,-118.49
24890,52.41829,-1.55994,164.94,1.26,3,354.46,21 / 21,2497429,2019-09-06 18:57:44:111,0.2561,0.749,9.912,-0.0058,-0.0108,9.8066,-0.0154,-0.0081,0.0098,-10.87,-29.87,-6.5,297.53,-87.41,-118.33
24891,52.41829,-1.55994,164.94,1.26,3,354.46,21 / 21,2497528,2019-09-06 18:57:44:210,1.0297,1.1488,9.8452,-0.0052,-0.0133,9.8066,0.0691,-0.0304,0.0139,-11.37,-30.06,-6.06,299.87,-87.32,-115.92
24892,52.41829,-1.55994,164.94,1.26,3,354.46,21 / 21,2497629,2019-09-06 18:57:44:311,0.7541,0.4759,9.7518,0.0171,0.0021,9.8066,0.0842,-0.0365,0.0177,-11.31,-30.0,-5.75,297.17,-87.15,-118.11
24893,52.41829,-1.55994,164.94,1.26,3,354.46,21 / 21,2497728,2019-09-06 18:57:44:410,1.2786,1.115,9.745,0.0008,0.0037,9.8066,-0.0186,-0.0475,-0.0096,-11.94,-30.37,-5.94,299.94,-87.15,-117.94
24894,52.41829,-1.55994,164.94,1.26,3,354.46,21 / 21,2497828,2019-09-06 18:57:44:510,1.6094,1.1935,9.7694,0.0053,0.0032,9.8065,0.0124,-0.0208,-0.0116,-12.25,-30.75,-6.0,298.42,-87.14,-119.15
24895,52.41829,-1.55994,164.94,1.26,3,354.46,21 / 21,2497929,2019-09-06 18:57:44:611,0.6938,0.9837,9.592,0.0025,0.0017,9.8066,0.0054,-0.0111,0.0321,-11.75,-30.56,-6.12,297.69,-87.11,-119.79
24896,52.41829,-1.55994,164.94,1.26,3,354.46,21 / 21,2498029,2019-09-06 18:57:44:711,0.4578,0.6188,9.7064,0.0008,-0.0004,9.8066,0.012,-0.0169,0.0186,-11.62,-30.5,-5.87,297.56,-87.1,-120.08
24897,52.41829,-1.55994,164.94,1.26,3,354.46,21 / 21,2498129,2019-09-06 18:57:44:811,0.1101,0.414,9.9805,-0.0011,-0.0034,9.8066,-0.0118,-0.0248,-0.011,-12.0,-30.75,-6.25,298.16,-87.09,-119.3
24898,52.41829,-1.55994,164.94,1.26,3,354.46,21 / 21,2498229,2019-09-06 18:57:44:911,-0.0797,0.5894,10.2233,0.0087,-0.0016,9.8066,0.0013,-0.0021,0.0047,-11.31,-30.5,-6.37,296.09,-87.02,-118.84
24899,52.41829,-1.55994,164.94,1.26,3,354.46,21 / 21,2498328,2019-09-06 18:57:45:010,0.6887,0.7979,10.2603,0.0073,0.0006,9.8066,0.0305,-0.0007,0.026,-11.87,-30.62,-5.75,297.4,-86.91,-119.63
24900,52.41829,-1.55994,164.94,1.26,3,354.46,22 / 22,2498429,2019-09-06 18:57:45:111,0.8334,0.9222,9.6728,0.0167,0.0029,9.8066,0.0155,0.0087,-0.0036,-12.31,-30.06,-5.25,300.51,-86.89,-120.64
24901,52.41829,-1.55994,164.94,1.26,3,354.46,22 / 22,2498529,2019-09-06 18:57:45:211,0.7889,0.6625,9.602,0.0122,-0.0004,9.8066,-0.0065,-0.0036,0.0127,-12.06,-30.5,-5.81,294.84,-86.7,-121.84
24902,52.41829,-1.55994,164.94,1.26,3,354.46,22 / 22,2498629,2019-09-06 18:57:45:311,0.6373,0.418,9.539,-0.0077,-0.0119,9.8066,-0.0096,-0.0061,0.031,-11.94,-30.62,-5.69,296.2,-86.65,-120.23
24903,52.41829,-1.55994,164.94,1.26,3,354.46,22 / 22,2498728,2019-09-06 18:57:45:410,0.523,0.8695,9.9148,-0.01,-0.0149,9.8065,0.0229,0.0072,-0.0072,-12.31,-31.06,-5.62,297.22,-86.6,-119.16
24904,52.41829,-1.55994,164.94,1.26,3,354.46,22 / 22,2498828,2019-09-06 18:57:45:510,0.5271,0.8457,9.7731,-0.0033,-0.0034,9.8066,0.0137,-0.0055,0.0153,-11.69,-30.5,-6.0,297.37,-86.54,-119.12
24905,52.41829,-1.55994,164.94,1.26,3,354.46,22 / 22,2498929,2019-09-06 18:57:45:611,1.0185,0.4596,9.8885,-0.0043,-0.0157,9.8066,-0.0176,0.0287,0.017,-12.06,-30.5,-5.69,299.19,-86.5,-117.34
24906,52.41829,-1.55994,164.94,1.26,3,354.46,22 / 22,2499029,2019-09-06 18:57:45:711,0.2697,0.1256,10.0689,-0.0018,-0.0056,9.8066,-0.03,-0.0062,0.0057,-13.0,-30.25,-6.06,303.45,-86.47,-115.54
24907,52.41829,-1.55994,164.94,1.26,3,354.46,22 / 22,2499128,2019-09-06 18:57:45:810,0.5352,0.7169,9.7137,-0.0077,-0.0059,9.8066,-0.0021,0.0069,-0.0005,-12.69,-30.44,-5.75,305.49,-86.47,-113.65
24908,52.41829,-1.55994,164.94,1.26,3,354.46,22 / 22,2499228,2019-09-06 18:57:45:910,0.4881,0.5108,10.2112,0.003,-0.0035,9.8065,0.0275,0.0118,-0.0051,-12.12,-30.0,-5.81,302.6,-86.45,-114.07
24909,52.41829,-1.55994,164.94,1.26,3,354.46,22 / 22,2499329,2019-09-06 18:57:46:011,0.7459,1.1717,9.5511,0.0086,0.0098,9.8066,0.0778,0.0039,0.0151,-12.31,-30.25,-5.69,301.25,-86.44,-115.3
24910,52.41829,-1.55994,164.94,1.26,3,354.46,22 / 22,2499428,2019-09-06 18:57:46:110,0.5376,1.143,9.5815,0.0019,-0.0028,9.8066,-0.0207,0.0211,-0.0191,-11.56,-30.81,-4.81,301.88,-86.39,-118.11
24911,52.41829,-1.55994,164.94,1.26,3,354.46,22 / 22,2499529,2019-09-06 18:57:46:211,1.4041,1.3465,9.4472,-0.0078,-0.0039,9.8066,0.0274,-0.002,0.0257,-11.62,-30.75,-5.19,301.24,-86.32,-118.56
24912,52.41829,-1.55994,164.94,1.26,3,354.46,22 / 22,2499628,2019-09-06 18:57:46:310,1.0585,0.8575,10.1252,-0.0045,0.0132,9.8066,0.0118,0.0256,-0.0358,-12.0,-30.56,-5.69,294.77,-86.32,-120.88
24913,52.41829,-1.55994,164.94,1.26,3,354.46,22 / 22,2499729,2019-09-06 18:57:46:411,-0.397,0.0443,11.0294,-0.0052,0.0045,9.8066,0.0525,0.0011,-0.0078,-11.19,-30.75,-5.06,294.41,-86.36,-122.56
24914,52.41829,-1.55994,164.94,1.26,3,354.46,22 / 22,2499829,2019-09-06 18:57:46:511,1.5392,3.5352,11.1885,0.0492,0.0643,9.8063,0.1692,0.1635,-0.0913,-11.06,-30.5,-5.06,285.99,-86.38,-130.87
24915,52.41829,-1.55994,164.94,1.26,3,354.46,22 / 22,2499929,2019-09-06 18:57:46:611,-1.4836,1.3126,9.6412,0.0621,0.0633,9.8062,-0.3664,0.0743,-0.1561,-11.0,-30.37,-4.87,284.66,-86.38,-132.12
24916,52.41829,-1.55994,164.94,1.26,3,354.46,22 / 22,2500031,2019-09-06 18:57:46:713,-0.1227,-0.1978,8.8749,-0.0183,-0.0265,9.8066,0.23,0.0219,0.0868,-11.06,-30.81,-5.37,289.34,-86.43,-127.5
24917,52.41829,-1.55994,164.94,1.26,3,354.46,22 / 22,2500128,2019-09-06 18:57:46:810,0.9735,0.594,9.491,0.0122,0.0116,9.8066,0.0299,0.0437,-0.0385,-10.25,-30.75,-4.94,286.84,-86.42,-127.01
24918,52.41829,-1.55994,164.94,1.26,3,354.46,22 / 22,2500229,2019-09-06 18:57:46:911,-0.4924,-0.3049,10.4003,-0.0096,-0.0062,9.8066,0.1767,0.0572,0.0097,-10.75,-30.56,-5.19,289.92,-86.49,-127.08
24919,52.41829,-1.55994,164.94,1.26,3,354.46,22 / 22,2500329,2019-09-06 18:57:47:011,-0.2959,3.9573,10.2893,-0.0468,-0.0224,9.8064,0.2642,-0.0071,-0.0792,-10.69,-31.37,-5.12,289.51,-86.52,-127.56
24920,52.418407,-1.559937,165.65,5.33,3,358.22,21 / 21,2500429,2019-09-06 18:57:47:111,1.1006,0.3283,10.0759,0.0369,0.0039,9.8065,0.2002,-0.1088,0.014,-10.94,-30.81,-6.31,285.14,-86.44,-127.67
24921,52.418407,-1.559937,165.65,5.33,3,358.22,21 / 21,2500528,2019-09-06 18:57:47:210,0.1046,-0.1962,10.3406,0.0038,-0.0122,9.8066,-0.0652,0.0436,0.0469,-10.62,-30.94,-5.81,290.18,-86.51,-123.03
24922,52.418407,-1.559937,165.65,5.33,3,358.22,21 / 21,2500628,2019-09-06 18:57:47:310,0.3253,0.78,9.8845,0.0169,0.0009,9.8065,0.0468,0.0782,0.0461,-10.94,-31.37,-5.5,294.22,-86.39,-122.8
24923,52.418407,-1.559937,165.65,5.33,3,358.22,21 / 21,2500729,2019-09-06 18:57:47:411,0.7713,0.8584,10.1164,0.0244,0.0139,9.8065,-0.0157,0.0427,-0.0238,-11.37,-31.25,-5.81,287.76,-86.21,-124.61
24924,52.418407,-1.559937,165.65,5.33,3,358.22,21 / 21,2500828,2019-09-06 18:57:47:510,-0.8977,-0.3326,9.7481,0.0167,-0.0075,9.8066,0.0005,0.0153,0.0161,-10.94,-30.81,-5.19,291.46,-85.99,-124.41
24925,52.418407,-1.559937,165.65,5.33,3,358.22,21 / 21,2500929,2019-09-06 18:57:47:611,-0.2059,-0.1905,9.8569,0.0049,0.0035,9.8066,-0.073,0.0218,0.0603,-11.25,-31.81,-5.25,291.72,-85.99,-123.86
24926,52.418407,-1.559937,165.65,5.33,3,358.22,21 / 21,2501028,2019-09-06 18:57:47:710,-1.2217,0.0119,9.8225,-0.012,-0.014,9.8065,-0.0208,0.0467,0.0107,-10.69,-31.44,-6.31,288.53,-85.92,-123.18
24927,52.418407,-1.559937,165.65,5.33,3,358.22,21 / 21,2501128,2019-09-06 18:57:47:810,0.6084,1.5671,10.0869,-0.0222,-0.0204,9.8065,0.1006,0.0277,-0.0178,-11.12,-31.5,-5.0,293.43,-85.89,-122.35
24928,52.418407,-1.559937,165.65,5.33,3,358.22,21 / 21,2501229,2019-09-06 18:57:47:911,0.5197,-0.0909,9.8864,0.0316,0.0056,9.8065,0.1113,-0.0123,0.0849,-11.19,-31.56,-5.06,291.71,-85.73,-123.22
24929,52.418407,-1.559937,165.65,5.33,3,358.22,21 / 21,2501329,2019-09-06 18:57:48:011,0.056,0.9827,9.8626,-0.0044,0.0026,9.8065,0.0089,0.0275,0.0055,-11.31,-31.87,-5.81,286.95,-85.65,-123.68
24930,52.418407,-1.559937,165.65,5.33,3,358.22,21 / 22,2501429,2019-09-06 18:57:48:111,0.1197,0.6049,9.4023,-0.0019,0.0034,9.8066,0.0262,0.0424,0.0024,-10.87,-31.25,-4.87,290.97,-85.57,-123.84
24931,52.418407,-1.559937,165.65,5.33,3,358.22,21 / 22,2501529,2019-09-06 18:57:48:211,-0.0567,-0.3956,9.6648,-0.0052,0.0078,9.8066,0.0077,0.0482,-0.0614,-10.87,-31.62,-4.69,290.52,-85.64,-124.09
24932,52.418407,-1.559937,165.65,5.33,3,358.22,21 / 22,2501628,2019-09-06 18:57:48:310,0.0708,0.3866,9.8368,-0.0097,-0.0016,9.8066,0.0415,0.0193,0.0277,-11.06,-31.81,-5.5,289.0,-85.56,-125.28
24933,52.418407,-1.559937,165.65,5.33,3,358.22,21 / 22,2501729,2019-09-06 18:57:48:411,-0.2527,0.7444,9.3846,-0.009,-0.002,9.8066,0.0078,-0.0036,0.0217,-11.12,-31.75,-4.94,288.46,-85.61,-125.93
24934,52.418407,-1.559937,165.65,5.33,3,358.22,21 / 22,2501828,2019-09-06 18:57:48:510,0.5562,0.1016,9.8812,0.0035,0.0122,9.8066,0.0068,-0.0067,-0.0284,-11.19,-31.25,-4.94,287.34,-85.63,-127.39
24935,52.418407,-1.559937,165.65,5.33,3,358.22,21 / 22,2501929,2019-09-06 18:57:48:611,-0.8078,0.1962,9.8727,0.0016,0.0174,9.8066,-0.0951,0.0365,-0.072,-11.25,-32.0,-5.0,286.31,-85.79,-128.42
24936,52.418407,-1.559937,165.65,5.33,3,358.22,21 / 22,2502029,2019-09-06 18:57:48:711,0.2004,-0.0693,9.8726,-0.0139,-0.0018,9.8066,0.051,0.0362,-0.0191,-10.31,-31.44,-5.19,284.59,-86.02,-128.05
24937,52.418407,-1.559937,165.65,5.33,3,358.22,21 / 22,2502128,2019-09-06 18:57:48:810,0.22,0.0967,9.4272,-0.0058,0.003,9.8066,0.0129,0.0206,-0.0391,-9.94,-31.12,-5.19,284.08,-86.08,-128.71
24938,52.418407,-1.559937,165.65,5.33,3,358.22,21 / 22,2502229,2019-09-06 18:57:48:911,0.6951,0.6015,9.7677,-0.0123,0.005,9.8066,0.0525,-0.0216,-0.0187,-10.56,-31.94,-4.69,284.37,-86.13,-131.17
24939,52.418407,-1.559937,165.65,5.33,3,358.22,21 / 22,2502329,2019-09-06 18:57:49:011,0.6201,-0.34,9.7105,-0.0131,0.0048,9.8066,-0.0399,-0.0245,-0.0089,-10.37,-31.37,-5.62,275.67,-86.26,-133.4
24940,52.418407,-1.559937,165.65,5.33,3,358.22,22 / 22,2502429,2019-09-06 18:57:49:111,0.6675,-0.3116,9.9249,-0.0108,0.0113,9.8065,0.0048,0.0083,-0.0312,-10.12,-31.12,-5.0,277.54,-86.36,-135.81
24941,52.418407,-1.559937,165.65,5.33,3,358.22,22 / 22,2502528,2019-09-06 18:57:49:210,-0.6045,-0.3154,10.1295,-0.0102,0.0037,9.8066,0.0035,0.0023,-0.0303,-10.06,-31.37,-5.31,277.81,-86.5,-135.94
24942,52.418407,-1.559937,165.65,5.33,3,358.22,22 / 22,2502629,2019-09-06 18:57:49:311,-0.7067,-0.3701,10.233,-0.0162,-0.0042,9.8066,-0.0438,-0.0584,0.0066,-10.06,-31.62,-5.81,273.56,-86.65,-136.26
24943,52.418407,-1.559937,165.65,5.33,3,358.22,22 / 22,2502729,2019-09-06 18:57:49:411,0.5659,-0.3994,9.5884,-0.0057,-0.0059,9.8066,-0.0023,-0.0747,0.0431,-10.12,-30.75,-5.56,274.79,-86.73,-135.54
24944,52.418407,-1.559937,165.65,5.33,3,358.22,22 / 22,2502828,2019-09-06 18:57:49:510,-0.3532,-2.2991,9.3944,0.0072,0.0105,9.8066,-0.0118,-0.0872,0.0048,-10.75,-32.0,-5.75,276.05,-86.66,-136.81
24945,52.418407,-1.559937,165.65,5.33,3,358.22,22 / 22,2502928,2019-09-06 18:57:49:610,0.4049,0.0748,9.6393,0.0102,-0.0019,9.8066,0.0312,-0.1092,0.0529,-10.31,-31.44,-6.06,273.94,-86.65,-136.15
24946,52.418407,-1.559937,165.65,5.33,3,358.22,22 / 22,2503029,2019-09-06 18:57:49:711,0.9682,-1.5993,10.0799,0.0101,0.0014,9.8065,0.0267,-0.1783,0.0374,-11.12,-31.37,-5.69,278.05,-86.48,-134.65
24947,52.418407,-1.559937,165.65,5.33,3,358.22,22 / 22,2503129,2019-09-06 18:57:49:811,0.2432,-1.8647,10.4406,-0.0076,0.0062,9.8066,0.0097,-0.1773,0.0311,-11.37,-31.62,-5.81,277.4,-86.6,-135.33
24948,52.418407,-1.559937,165.65,5.33,3,358.22,22 / 22,2503229,2019-09-06 18:57:49:911,-0.2757,-0.7541,9.9174,0.0041,-0.0088,9.8066,-0.021,-0.1441,0.031,-11.25,-31.56,-5.81,277.32,-86.54,-135.25
24949,52.418407,-1.559937,165.65,5.33,3,358.22,22 / 22,2503328,2019-09-06 18:57:50:010,0.5186,-1.1141,9.6458,-0.0068,-0.0124,9.8066,0.0138,-0.1872,0.0193,-11.5,-31.25,-5.75,278.45,-86.41,-134.08
24950,52.418407,-1.559937,165.65,5.33,3,358.22,22 / 22,2503431,2019-09-06 18:57:50:113,0.6884,-2.1875,9.7459,0.0392,-0.0002,9.8065,0.0678,-0.2517,0.0676,-12.37,-31.56,-5.31,285.28,-86.04,-132.61
24951,52.418407,-1.559937,165.65,5.33,3,358.22,22 / 22,2503528,2019-09-06 18:57:50:210,-0.0666,-2.1527,9.3385,0.0296,0.0259,9.8065,-0.145,-0.1239,0.031,-13.0,-32.31,-5.44,287.67,-86.05,-132.57
24952,52.418407,-1.559937,165.65,5.33,3,358.22,22 / 22,2503628,2019-09-06 18:57:50:310,0.4332,-1.3164,9.8175,-0.0511,-0.0329,9.8064,-0.116,-0.0444,0.0287,-12.87,-31.44,-5.31,292.53,-86.13,-128.4
24953,52.418407,-1.559937,165.65,5.33,3,358.22,22 / 22,2503729,2019-09-06 18:57:50:411,-0.7996,-0.5887,10.6688,0.0042,-0.0523,9.8065,-0.1268,-0.2047,0.0342,-14.62,-30.75,-5.37,306.99,-85.83,-117.94
24954,52.418407,-1.559937,165.65,5.33,3,358.22,22 / 22,2503828,2019-09-06 18:57:50:510,-0.8415,-2.0776,10.623,0.0191,-0.0195,9.8065,-0.0812,-0.2423,0.0497,-14.87,-30.94,-5.06,310.61,-85.54,-114.21
24955,52.418407,-1.559937,165.65,5.33,3,358.22,22 / 22,2503929,2019-09-06 18:57:50:611,-0.2383,-3.7033,10.188,0.0201,0.0188,9.8065,0.0788,-0.177,-0.0161,-15.5,-30.37,-5.19,307.32,-85.44,-117.25
24956,52.418407,-1.559937,165.65,5.33,3,358.22,22 / 22,2504029,2019-09-06 18:57:50:711,-1.5843,-2.7619,8.5186,0.0237,0.0224,9.8066,0.0537,-0.3129,0.0428,-16.56,-30.81,-4.25,307.26,-85.23,-122.64
24957,52.418407,-1.559937,165.65,5.33,3,358.22,22 / 22,2504129,2019-09-06 18:57:50:811,-0.976,-1.1766,9.4615,0.0752,0.0143,9.8063,-0.0656,-0.3658,0.0721,-17.25,-31.5,-4.37,301.7,-84.8,-127.07
24958,52.418407,-1.559937,165.65,5.33,3,358.22,22 / 22,2504229,2019-09-06 18:57:50:911,-0.0613,-1.8123,9.9351,-0.015,-0.033,9.8065,-0.1223,-0.3813,0.042,-17.56,-31.56,-3.56,302.61,-84.61,-126.83
24959,52.418407,-1.559937,165.65,5.33,3,358.22,22 / 22,2504328,2019-09-06 18:57:51:010,-0.3295,-2.7419,10.2368,-0.0113,-0.0203,9.8066,0.0128,-0.4055,0.0564,-18.25,-30.94,-3.5,309.24,-84.38,-123.73
24960,52.418407,-1.559937,165.65,5.33,3,358.22,22 / 22,2504428,2019-09-06 18:57:51:110,-0.5442,-2.0087,10.1852,0.0002,-0.0003,9.8066,-0.0616,-0.4278,0.001,-19.5,-31.19,-2.75,310.39,-84.44,-123.65
24961,52.418407,-1.559937,165.65,5.33,3,358.22,22 / 22,2504529,2019-09-06 18:57:51:211,-1.3422,-2.81,10.3396,-0.001,0.0228,9.8066,-0.0246,-0.3727,-0.0654,-19.69,-30.69,-3.31,309.88,-84.53,-125.01
24962,52.418407,-1.559937,165.65,5.33,3,358.22,22 / 22,2504628,2019-09-06 18:57:51:310,-0.8167,-2.4428,9.6405,0.0072,0.0119,9.8065,0.0101,-0.4212,0.0328,-19.87,-30.94,-3.31,306.87,-84.7,-127.96
24963,52.418407,-1.559937,165.65,5.33,3,358.22,22 / 22,2504728,2019-09-06 18:57:51:410,-0.5487,-2.2323,9.9641,0.0045,0.0054,9.8066,-0.0368,-0.4384,0.0383,-20.69,-30.69,-2.31,309.17,-84.68,-129.2
24964,52.418407,-1.559937,165.65,5.33,3,358.22,22 / 22,2504829,2019-09-06 18:57:51:511,-0.0311,-1.4423,10.016,0.0085,0.0068,9.8066,-0.0467,-0.4204,0.038,-21.94,-30.31,-1.94,309.02,-84.69,-130.04
24965,52.418407,-1.559937,165.65,5.33,3,358.22,22 / 22,2504928,2019-09-06 18:57:51:610,-0.0528,-1.9355,10.1581,0.0104,-0.006,9.8066,-0.0534,-0.4543,0.0506,-22.0,-30.69,-2.0,308.54,-84.58,-130.18
24966,52.418407,-1.559937,165.65,5.33,3,358.22,22 / 22,2505029,2019-09-06 18:57:51:711,-0.5611,-1.808,10.4989,0.0179,-0.009,9.8066,-0.0231,-0.4475,0.0653,-22.25,-30.19,-1.12,311.9,-84.41,-129.68
24967,52.418407,-1.559937,165.65,5.33,3,358.22,22 / 22,2505128,2019-09-06 18:57:51:810,-0.8501,-1.8733,10.4524,0.0239,-0.0184,9.8065,0.0201,-0.4646,0.1403,-23.75,-30.56,-0.94,312.24,-84.13,-129.6
24968,52.418407,-1.559937,165.65,5.33,3,358.22,22 / 22,2505228,2019-09-06 18:57:51:910,-1.189,-2.077,10.3345,0.0196,-0.0303,9.8065,0.0574,-0.51,0.1177,-24.56,-29.44,-0.31,316.17,-83.49,-128.41
24969,52.418407,-1.559937,165.65,5.33,3,358.22,22 / 22,2505329,2019-09-06 18:57:52:011,-0.2848,-3.0523,10.3272,0.0389,-0.0291,9.8064,0.0724,-0.4721,0.0915,-25.12,-30.44,0.56,317.27,-82.95,-129.06
24970,52.418407,-1.559937,165.65,5.33,3,358.22,22 / 22,2505429,2019-09-06 18:57:52:111,-0.6334,-2.7019,10.2219,0.0493,0.0085,9.8065,0.0945,-0.4436,0.0378,-25.75,-30.37,1.56,316.78,-82.5,-131.45
24971,52.418407,-1.559937,165.65,5.33,3,358.22,22 / 22,2505529,2019-09-06 18:57:52:211,-0.3623,-2.2128,9.5706,0.0383,0.0219,9.8065,0.0859,-0.4815,0.0062,-25.94,-30.12,3.0,312.52,-82.13,-137.12
24972,52.418407,-1.559937,165.65,5.33,3,358.22,22 / 22,2505628,2019-09-06 18:57:52:310,-0.8723,-1.3699,9.4497,0.0326,0.0002,9.8065,0.0503,-0.4564,0.0292,-27.37,-30.19,3.94,310.1,-81.82,-141.12
24973,52.418407,-1.559937,165.65,5.33,3,358.22,22 / 22,2505729,2019-09-06 18:57:52:411,-1.7365,-1.7224,9.8659,0.0182,-0.0147,9.8065,-0.0429,-0.4627,0.0765,-27.56,-30.0,4.88,311.96,-81.6,-141.24
24974,52.418407,-1.559937,165.65,5.33,3,358.22,22 / 22,2505828,2019-09-06 18:57:52:510,-1.776,-1.8918,10.2784,-0.0219,-0.0122,9.8065,-0.0593,-0.4347,0.092,-28.0,-29.5,5.81,316.24,-81.51,-139.57
24975,52.418407,-1.559937,165.65,5.33,3,358.22,22 / 22,2505928,2019-09-06 18:57:52:610,-0.3066,-2.6561,10.4185,-0.0309,0.0016,9.8066,-0.0841,-0.4683,0.0207,-28.37,-28.87,5.25,315.12,-81.56,-138.59
24976,52.418407,-1.559937,165.65,5.33,3,358.22,22 / 22,2506028,2019-09-06 18:57:52:710,-1.4294,-1.7987,9.8498,0.0124,0.0121,9.8066,-0.1106,-0.4548,-0.0387,-28.87,-29.19,6.44,317.56,-81.79,-138.39
24977,52.418407,-1.559937,165.65,5.33,3,358.22,22 / 22,2506128,2019-09-06 18:57:52:810,-1.0701,-1.9233,9.5663,0.0291,0.0008,9.8066,0.0327,-0.4155,0.0741,-29.25,-29.12,7.25,317.92,-81.79,-139.99
24978,52.418407,-1.559937,165.65,5.33,3,358.22,22 / 22,2506229,2019-09-06 18:57:52:911,0.4388,-2.4679,9.5739,0.0146,-0.0072,9.8066,0.0204,-0.4752,0.1048,-29.31,-29.06,7.63,318.49,-81.46,-141.15
24979,52.418407,-1.559937,165.65,5.33,3,358.22,22 / 22,2506328,2019-09-06 18:57:53:010,0.1058,-1.6667,9.5411,0.0178,-0.0067,9.8066,0.0572,-0.4809,0.0712,-29.75,-29.06,9.06,318.56,-81.19,-142.39
24980,52.418407,-1.559937,165.65,5.33,3,358.22,22 / 22,2506429,2019-09-06 18:57:53:111,0.5681,-2.9725,10.3218,0.0199,-0.0167,9.8066,0.0333,-0.4573,0.0754,-30.75,-28.81,10.19,319.24,-80.82,-142.92
24981,52.418407,-1.559937,165.65,5.33,3,358.22,22 / 22,2506528,2019-09-06 18:57:53:210,-0.1503,-1.8616,10.3974,0.0171,-0.0095,9.8065,-0.085,-0.4046,0.0594,-31.44,-29.0,11.06,321.46,-80.79,-142.64
24982,52.418407,-1.559937,165.65,5.33,3,358.22,22 / 22,2506629,2019-09-06 18:57:53:311,-1.3672,-3.0101,10.0775,-0.0138,-0.0004,9.8066,-0.0747,-0.513,0.1142,-30.69,-28.62,11.38,322.15,-80.7,-141.97
24983,52.418407,-1.559937,165.65,5.33,3,358.22,22 / 22,2506728,2019-09-06 18:57:53:410,0.5842,-2.7965,9.8719,-0.0005,-0.0024,9.8066,0.0263,-0.4768,0.0691,-30.62,-28.06,12.88,326.08,-80.68,-141.99
24984,52.418407,-1.559937,165.65,5.33,3,358.22,22 / 22,2506829,2019-09-06 18:57:53:511,-0.7559,-2.5932,10.141,0.0218,0.0061,9.8065,0.0033,-0.4378,0.0238,-31.37,-28.06,13.81,326.43,-80.46,-143.16
24985,52.418407,-1.559937,165.65,5.33,3,358.22,22 / 22,2506930,2019-09-06 18:57:53:612,-0.909,-2.4107,10.6732,0.024,-0.0084,9.8066,0.0686,-0.4674,0.058,-31.62,-28.75,14.5,326.12,-80.31,-144.18
24986,52.418407,-1.559937,165.65,5.33,3,358.22,22 / 22,2507029,2019-09-06 18:57:53:711,-0.0217,-2.7828,10.041,0.0328,-0.0057,9.8066,0.0357,-0.442,0.0179,-31.19,-27.87,16.31,326.23,-80.11,-146.26
24987,52.418407,-1.559937,165.65,5.33,3,358.22,22 / 22,2507129,2019-09-06 18:57:53:811,-1.3353,-2.9748,10.3619,0.0139,0.0015,9.8066,0.0163,-0.4545,0.0797,-31.56,-27.94,17.19,326.24,-80.05,-147.07
24988,52.418407,-1.559937,165.65,5.33,3,358.22,22 / 22,2507229,2019-09-06 18:57:53:911,-0.5047,-1.3776,10.3165,0.0191,0.0159,9.8066,-0.0349,-0.3513,-0.0376,-31.06,-28.0,17.69,327.15,-80.03,-148.37
24989,52.418407,-1.559937,165.65,5.33,3,358.22,22 / 22,2507329,2019-09-06 18:57:54:011,-1.2261,-2.0434,9.958,0.035,0.0009,9.8066,-0.0573,-0.3356,-0.0444,-30.75,-28.0,18.63,326.12,-79.87,-150.61
24990,52.418407,-1.559937,165.65,5.33,3,358.22,22 / 22,2507429,2019-09-06 18:57:54:111,-0.2484,-0.0752,10.3804,0.0009,0.0198,9.8066,-0.0106,-0.343,0.0324,-30.94,-27.94,19.13,323.71,-80.01,-152.82
24991,52.418407,-1.559937,165.65,5.33,3,358.22,22 / 22,2507528,2019-09-06 18:57:54:210,-0.2614,-0.1782,9.2165,0.0434,-0.0084,9.8065,-0.1608,-0.1835,-0.0818,-30.62,-27.31,20.25,324.22,-79.74,-153.78
24992,52.418407,-1.559937,165.65,5.33,3,358.22,22 / 22,2507628,2019-09-06 18:57:54:310,-1.8657,-2.1205,9.936,-0.0202,-0.008,9.8066,-0.1579,-0.3929,0.1745,-30.75,-27.94,20.69,325.28,-79.73,-154.03
24993,52.418407,-1.559937,165.65,5.33,3,358.22,22 / 22,2507729,2019-09-06 18:57:54:411,-0.9012,-3.0416,10.0511,0.0097,0.0031,9.8066,-0.0472,-0.3351,0.0121,-30.69,-27.56,21.56,326.73,-79.51,-153.95
24994,52.418407,-1.559937,165.65,5.33,3,358.22,22 / 22,2507829,2019-09-06 18:57:54:511,-2.5923,-1.7975,9.756,-0.0124,0.0229,9.8065,-0.1325,-0.264,-0.0212,-30.31,-27.56,22.5,327.44,-79.61,-155.47
24995,52.418407,-1.559937,165.65,5.33,3,358.22,22 / 22,2507929,2019-09-06 18:57:54:611,-2.4859,-1.2294,9.5893,-0.0094,0.0227,9.8065,0.1111,-0.324,0.0494,-30.0,-27.69,22.13,324.97,-79.54,-156.31
24996,52.418407,-1.559937,165.65,5.33,3,358.22,22 / 22,2508029,2019-09-06 18:57:54:711,0.9032,-2.1407,10.0085,0.0079,0.0085,9.8066,-0.0484,-0.2275,-0.0345,-30.19,-27.19,23.31,324.07,-79.49,-158.54
24997,52.418407,-1.559937,165.65,5.33,3,358.22,22 / 22,2508128,2019-09-06 18:57:54:810,-0.1853,-2.4271,10.5806,-0.0179,0.0025,9.8066,0.1287,-0.2902,0.0961,-29.94,-27.44,23.44,324.43,-79.47,-158.21
24998,52.418407,-1.559937,165.65,5.33,3,358.22,22 / 22,2508229,2019-09-06 18:57:54:911,-0.3807,-0.3535,10.1049,0.0258,-0.0007,9.8066,-0.0517,-0.1797,0.0393,-30.31,-27.87,23.69,324.81,-79.44,-158.95
24999,52.418407,-1.559937,165.65,5.33,3,358.22,22 / 22,2508330,2019-09-06 18:57:55:012,0.5705,-0.9638,9.41,0.0222,0.0099,9.8065,0.0131,-0.1382,-0.0285,-30.0,-27.69,24.56,324.29,-79.38,-160.6
25000,52.418407,-1.559937,165.65,5.33,3,358.22,22 / 22,2508428,2019-09-06 18:57:55:110,0.3468,-1.3408,10.3227,0.0185,0.0004,9.8066,0.0204,-0.1601,-0.0154,-29.25,-28.06,24.31,322.39,-79.36,-161.91
25001,52.418407,-1.559937,165.65,5.33,3,358.22,22 / 22,2508529,2019-09-06 18:57:55:211,0.5192,-0.2366,10.1558,0.016,0.0053,9.8066,-0.0881,-0.0528,-0.0253,-29.0,-27.37,24.94,322.24,-79.3,-163.41
25002,52.418407,-1.559937,165.65,5.33,3,358.22,22 / 22,2508629,2019-09-06 18:57:55:311,0.5362,-1.2617,9.8319,-0.0206,0.0108,9.8066,0.0299,-0.0779,0.0517,-28.69,-27.75,25.19,322.2,-79.22,-163.24
25003,52.418407,-1.559937,165.65,5.33,3,358.22,22 / 22,2508729,2019-09-06 18:57:55:411,0.4754,-1.1653,9.9512,-0.0194,0.0244,9.8066,0.0105,-0.0737,-0.0437,-28.94,-27.81,25.19,322.29,-79.41,-163.25
25004,52.418407,-1.559937,165.65,5.33,3,358.22,22 / 22,2508828,2019-09-06 18:57:55:510,-0.9864,-0.1393,9.9539,0.009,-0.0006,9.8066,0.0453,-0.1208,0.016,-28.19,-27.56,25.5,324.05,-79.36,-163.78
25005,52.418407,-1.559937,165.65,5.33,3,358.22,22 / 22,2508929,2019-09-06 18:57:55:611,0.3445,0.0142,10.6551,0.0024,0.0012,9.8066,0.0326,-0.0909,-0.0042,-28.69,-28.06,24.88,321.38,-79.45,-164.08
25006,52.418407,-1.559937,165.65,5.33,3,358.22,22 / 22,2509028,2019-09-06 18:57:55:710,-0.3241,-0.2235,10.3202,0.0087,-0.0025,9.8066,0.0205,-0.0786,-0.0228,-28.69,-27.5,25.13,321.17,-79.38,-164.41
25007,52.418407,-1.559937,165.65,5.33,3,358.22,22 / 22,2509130,2019-09-06 18:57:55:812,1.3649,-0.6025,9.5497,0.0253,-0.0191,9.8065,0.0906,-0.0066,0.0504,-28.5,-28.06,25.75,322.8,-79.18,-164.78
25008,52.418407,-1.559937,165.65,5.33,3,358.22,22 / 22,2509228,2019-09-06 18:57:55:910,0.8983,-1.5832,9.7998,0.0077,0.0056,9.8066,0.0177,-0.0343,0.0331,-29.44,-27.44,25.38,320.19,-78.92,-165.02
25009,52.418407,-1.559937,165.65,5.33,3,358.22,22 / 22,2509328,2019-09-06 18:57:56:010,-0.1942,-1.6746,9.8114,-0.0171,-0.0043,9.8066,-0.0077,0.0132,0.0167,-28.87,-27.31,25.94,321.77,-78.9,-164.81
25010,52.418663,-1.559616,166.68,6.62,3,110.67,22 / 22,2509429,2019-09-06 18:57:56:111,0.8193,-0.6101,9.6409,0.0081,0.0116,9.8066,-0.1078,-0.0465,-0.0109,-29.31,-27.44,25.5,322.13,-79.01,-164.55
25011,52.418663,-1.559616,166.68,6.62,3,110.67,22 / 22,2509529,2019-09-06 18:57:56:211,0.7259,-0.1367,10.3722,0.0093,0.0001,9.8066,-0.032,-0.0137,-0.0448,-28.75,-27.31,25.88,321.54,-79.22,-165.18
25012,52.418663,-1.559616,166.68,6.62,3,110.67,22 / 22,2509629,2019-09-06 18:57:56:311,-0.1077,-0.69,10.1919,0.0004,-0.0121,9.8066,0.0902,-0.0186,0.088,-29.0,-27.25,25.88,321.56,-79.15,-165.14
25013,52.418663,-1.559616,166.68,6.62,3,110.67,22 / 22,2509729,2019-09-06 18:57:56:411,0.0394,-0.846,9.972,0.0026,0.0172,9.8066,-0.0054,-0.0626,-0.0739,-29.0,-27.56,26.06,320.57,-79.08,-165.8
25014,52.418663,-1.559616,166.68,6.62,3,110.67,22 / 22,2509828,2019-09-06 18:57:56:510,0.7135,-1.3063,9.8929,0.0067,0.0024,9.8066,-0.0396,-0.0583,-0.0994,-28.25,-27.81,26.44,320.28,-78.94,-166.88
25015,52.418663,-1.559616,166.68,6.62,3,110.67,22 / 22,2509929,2019-09-06 18:57:56:611,0.0136,0.4005,10.0502,-0.0173,-0.0044,9.8066,0.0114,-0.0094,0.16,-28.62,-27.62,25.88,319.87,-78.92,-166.32
25016,52.418663,-1.559616,166.68,6.62,3,110.67,22 / 22,2510029,2019-09-06 18:57:56:711,-0.5257,0.7233,10.2068,-0.0038,0.0079,9.8066,-0.0749,-0.0533,-0.0271,-28.12,-27.69,25.88,321.66,-79.17,-165.78
25017,52.418663,-1.559616,166.68,6.62,3,110.67,22 / 22,2510129,2019-09-06 18:57:56:811,0.069,-0.4946,9.7291,0.0013,-0.0115,9.8066,-0.0525,-0.0555,-0.0197,-28.31,-27.62,26.13,322.18,-79.27,-165.39
25018,52.418663,-1.559616,166.68,6.62,3,110.67,22 / 22,2510228,2019-09-06 18:57:56:910,0.2783,-0.6101,9.5892,-0.0018,-0.0124,9.8066,0.0112,-0.0233,0.0672,-28.56,-27.81,25.75,322.1,-79.15,-164.48
25019,52.418663,-1.559616,166.68,6.62,3,110.67,22 / 22,2510328,2019-09-06 18:57:57:010,0.2147,-0.5246,10.141,0.0099,-0.0154,9.8066,0.0011,-0.0251,0.0545,-28.37,-27.87,25.94,323.29,-79.02,-164.26
25020,52.418663,-1.559616,166.68,6.62,3,110.67,22 / 22,2510429,2019-09-06 18:57:57:111,-0.3334,-0.4191,11.1185,-0.0023,0.0001,9.8066,0.0764,-0.0219,0.0178,-28.44,-27.94,26.06,323.39,-78.93,-164.13
25021,52.418663,-1.559616,166.68,6.62,3,110.67,22 / 22,2510529,2019-09-06 18:57:57:211,0.9821,1.3984,9.7921,-0.0309,0.0254,9.8065,0.027,0.0184,-0.1424,-28.37,-27.25,26.31,323.91,-79.05,-163.9
25022,52.418663,-1.559616,166.68,6.62,3,110.67,22 / 22,2510628,2019-09-06 18:57:57:310,1.0577,-1.085,10.2282,0.0335,-0.0356,9.8065,0.1343,-0.0547,0.0431,-28.19,-27.62,26.56,325.25,-78.95,-163.67
25023,52.418663,-1.559616,166.68,6.62,3,110.67,22 / 22,2510728,2019-09-06 18:57:57:410,-1.3561,-0.671,10.5227,0.0218,0.0024,9.8065,-0.1386,0.0733,-0.0683,-27.87,-27.0,26.06,323.22,-78.83,-164.4
25024,52.418663,-1.559616,166.68,6.62,3,110.67,22 / 22,2510829,2019-09-06 18:57:57:511,0.1402,-0.7305,9.4691,0.0257,-0.006,9.8065,0.055,-0.0538,0.0021,-27.19,-26.75,26.56,325.26,-78.83,-164.73
25025,52.418663,-1.559616,166.68,6.62,3,110.67,22 / 22,2510928,2019-09-06 18:57:57:610,-0.8215,0.933,9.4194,0.0209,-0.0275,9.8066,0.0515,-0.0046,0.0412,-28.06,-26.81,25.75,322.79,-78.68,-164.7
25026,52.418663,-1.559616,166.68,6.62,3,110.67,22 / 22,2511029,2019-09-06 18:57:57:711,-0.9964,-0.2277,9.9816,-0.026,0.0133,9.8065,-0.0662,0.0168,0.048,-28.06,-27.31,25.75,323.81,-78.78,-163.86
25027,52.418663,-1.559616,166.68,6.62,3,110.67,22 / 22,2511129,2019-09-06 18:57:57:811,-0.2513,0.331,9.8762,-0.0071,0.0246,9.8066,0.0746,-0.0138,-0.0378,-28.31,-27.62,25.94,322.71,-78.77,-164.64
25028,52.418663,-1.559616,166.68,6.62,3,110.67,22 / 22,2511228,2019-09-06 18:57:57:910,0.5541,-0.078,10.1818,0.0087,-0.0125,9.8065,0.1069,-0.0358,-0.0331,-28.06,-27.75,26.13,321.89,-78.81,-165.38
25029,52.418663,-1.559616,166.68,6.62,3,110.67,22 / 22,2511329,2019-09-06 18:57:58:011,0.0693,-0.7982,10.1899,-0.0085,0.0055,9.8066,0.0056,-0.0114,0.0065,-28.5,-27.56,25.69,321.99,-78.69,-165.23
25030,52.418663,-1.559616,166.68,6.62,3,110.67,22 / 22,2511429,2019-09-06 18:57:58:111,0.1756,0.0687,10.2955,0.0099,0.002,9.8065,-0.0466,-0.0017,-0.0068,-28.19,-28.0,25.81,322.09,-78.65,-165.12
25031,52.418663,-1.559616,166.68,6.62,3,110.67,22 / 22,2511529,2019-09-06 18:57:58:211,-1.0302,1.4719,9.8224,0.0318,-0.0177,9.8065,0.0009,0.0156,-0.0119,-27.69,-27.87,26.31,321.78,-78.64,-165.39
25032,52.418663,-1.559616,166.68,6.62,3,110.67,22 / 22,2511628,2019-09-06 18:57:58:310,1.4475,-1.0332,9.8509,-0.0327,-0.0001,9.8065,-0.081,-0.0041,0.0532,-28.19,-27.81,26.0,321.75,-78.5,-165.33
25033,52.418663,-1.559616,166.68,6.62,3,110.67,22 / 22,2511729,2019-09-06 18:57:58:411,-0.013,-0.0496,9.7775,-0.009,-0.0098,9.8065,0.0309,-0.0194,0.0583,-28.56,-27.69,26.69,323.47,-78.38,-164.02
25034,52.418663,-1.559616,166.68,6.62,3,110.67,22 / 22,2511829,2019-09-06 18:57:58:511,0.6708,-0.9089,10.1248,-0.0072,-0.0056,9.8066,-0.0771,-0.0311,0.006,-28.75,-27.44,25.75,323.31,-78.36,-163.17
25035,52.418663,-1.559616,166.68,6.62,3,110.67,22 / 22,2511929,2019-09-06 18:57:58:611,-0.5238,-0.2495,9.6892,-0.0224,0.0115,9.8066,0.0351,-0.0681,0.0155,-29.0,-27.25,26.13,324.23,-78.6,-162.48
25036,52.418663,-1.559616,166.68,6.62,3,110.67,22 / 22,2512029,2019-09-06 18:57:58:711,0.9927,-0.4197,9.73,0.0048,-0.0092,9.8066,-0.0965,-0.1065,0.032,-29.25,-27.12,25.56,324.37,-78.69,-162.41
25037,52.418663,-1.559616,166.68,6.62,3,110.67,22 / 22,2512128,2019-09-06 18:57:58:810,0.1423,-1.6865,10.2629,0.0122,-0.0021,9.8066,-0.0631,0.0119,-0.0592,-29.5,-26.5,26.38,324.4,-78.67,-162.54
25038,52.418663,-1.559616,166.68,6.62,3,110.67,22 / 22,2512229,2019-09-06 18:57:58:911,1.2958,-0.8925,9.8928,0.0135,0.0147,9.8066,0.0818,0.0165,-0.038,-29.0,-27.12,25.94,322.94,-78.65,-163.64
25039,52.418663,-1.559616,166.68,6.62,3,110.67,22 / 22,2512329,2019-09-06 18:57:59:011,0.7964,-0.2166,10.5753,0.0026,0.0024,9.8066,-0.0936,0.0274,-0.0684,-27.94,-27.69,26.5,324.62,-78.71,-164.1
25040,52.418663,-1.559616,166.68,6.62,3,110.67,22 / 22,2512428,2019-09-06 18:57:59:110,1.3787,-0.3713,10.3185,0.0052,-0.0114,9.8066,0.0083,0.0781,0.0071,-28.56,-27.37,26.0,322.24,-78.63,-164.25
25041,52.418663,-1.559616,166.68,6.62,3,110.67,22 / 22,2512529,2019-09-06 18:57:59:211,-1.4367,-0.0567,9.7114,-0.0009,0.0028,9.8066,0.0076,0.0228,0.0962,-28.19,-28.56,26.94,324.35,-78.56,-164.09
25042,52.418663,-1.559616,166.68,6.62,3,110.67,22 / 22,2512629,2019-09-06 18:57:59:311,-0.0847,-0.1548,9.9273,-0.0069,0.0176,9.8065,-0.0148,-0.0369,-0.0193,-28.44,-27.75,26.13,322.74,-78.55,-164.49
25043,52.418663,-1.559616,166.68,6.62,3,110.67,22 / 22,2512729,2019-09-06 18:57:59:411,-0.0111,-1.3747,10.5091,-0.0223,0.0168,9.8066,-0.033,0.0626,-0.0846,-28.06,-28.37,26.38,323.02,-78.69,-164.32
25044,52.418663,-1.559616,166.68,6.62,3,110.67,22 / 22,2512828,2019-09-06 18:57:59:510,0.7713,-1.6776,9.1437,0.0157,0.0045,9.8066,0.0517,-0.1154,0.0913,-28.06,-28.12,25.94,323.26,-78.76,-164.15
25045,52.418663,-1.559616,166.68,6.62,3,110.67,22 / 22,2512929,2019-09-06 18:57:59:611,1.3344,-1.0724,9.0105,0.0329,-0.0025,9.8065,-0.1217,0.0156,-0.0527,-27.81,-28.37,25.5,321.85,-78.82,-165.43
25046,52.418663,-1.559616,166.68,6.62,3,110.67,22 / 22,2513028,2019-09-06 18:57:59:710,-0.3182,0.1063,9.8911,-0.0367,0.0265,9.8065,-0.0392,-0.0279,0.0896,-27.37,-28.19,26.06,322.01,-78.7,-166.16
25047,52.418663,-1.559616,166.68,6.62,3,110.67,22 / 22,2513129,2019-09-06 18:57:59:811,1.0855,-1.1833,9.2154,-0.0345,0.0334,9.8065,0.0754,0.0082,-0.0583,-27.5,-28.25,25.88,322.41,-79.05,-166.0
25048,52.418663,-1.559616,166.68,6.62,3,110.67,22 / 22,2513229,2019-09-06 18:57:59:911,0.4456,-0.163,9.9583,-0.0129,0.0261,9.8065,-0.0635,-0.0933,-0.0304,-27.87,-28.5,25.81,320.98,-79.2,-166.4
25049,52.418663,-1.559616,166.68,6.62,3,110.67,22 / 22,2513329,2019-09-06 18:58:00:011,-1.0835,-0.5778,10.8519,0.0062,0.0052,9.8066,0.1018,0.0999,-0.0574,-27.31,-28.44,25.88,321.48,-79.32,-166.97
25050,52.418663,-1.559616,166.68,6.62,3,110.67,22 / 22,2513428,2019-09-06 18:58:00:110,2.1011,-0.9827,10.0348,0.047,-0.0194,9.8064,0.2673,-0.0607,0.0785,-27.87,-28.19,25.81,319.05,-78.92,-167.95
25051,52.418663,-1.559616,166.68,6.62,3,110.67,22 / 22,2513529,2019-09-06 18:58:00:211,-0.4566,-1.2546,10.0144,0.0278,-0.0196,9.8066,-0.128,-0.0048,-0.0449,-27.37,-28.81,26.19,318.89,-78.73,-168.73
25052,52.418663,-1.559616,166.68,6.62,3,110.67,22 / 22,2513628,2019-09-06 18:58:00:310,1.6391,-0.7174,9.445,-0.0185,0.0182,9.8066,-0.089,-0.0111,0.0556,-27.25,-28.5,25.69,320.03,-78.81,-167.97
25053,52.418663,-1.559616,166.68,6.62,3,110.67,22 / 22,2513729,2019-09-06 18:58:00:411,1.7865,-0.0347,9.2616,-0.0294,0.0155,9.8065,-0.0097,-0.0075,-0.0025,-27.87,-28.56,25.0,318.5,-79.27,-167.25
25054,52.418663,-1.559616,166.68,6.62,3,110.67,22 / 22,2513829,2019-09-06 18:58:00:511,0.4305,0.9058,9.9505,-0.0167,-0.011,9.8066,0.0565,0.0454,0.0455,-27.56,-28.81,24.81,319.68,-79.45,-166.31
25055,52.418663,-1.559616,166.68,6.62,3,110.67,22 / 22,2513928,2019-09-06 18:58:00:610,0.0135,-0.5877,10.4684,0.0097,-0.0057,9.8066,-0.0085,-0.0131,-0.0088,-27.62,-27.75,25.44,319.6,-79.22,-166.44
25056,52.418663,-1.559616,166.68,6.62,3,110.67,22 / 22,2514029,2019-09-06 18:58:00:711,1.6908,-1.0477,8.9919,0.0031,-0.0272,9.8065,0.0476,0.0911,-0.0138,-27.87,-28.37,25.5,321.01,-78.77,-166.14
25057,52.418663,-1.559616,166.68,6.62,3,110.67,22 / 22,2514129,2019-09-06 18:58:00:811,0.7477,0.6264,8.8563,-0.0241,0.0034,9.8066,-0.1511,-0.0235,0.0426,-27.75,-28.5,26.0,322.83,-78.74,-164.52
25058,52.418663,-1.559616,166.68,6.62,3,110.67,22 / 22,2514229,2019-09-06 18:58:00:911,0.9735,0.4001,9.0288,-0.0641,0.031,9.8063,-0.1354,0.0577,-0.0896,-27.75,-28.69,25.31,324.34,-79.83,-162.4
25059,52.418663,-1.559616,166.68,6.62,3,110.67,22 / 22,2514329,2019-09-06 18:58:01:011,-0.5179,0.4512,9.8084,-0.0129,-0.0122,9.8065,0.0592,-0.0534,0.0752,-28.06,-28.0,24.56,326.45,-79.9,-160.73
25060,52.418663,-1.559616,166.68,6.62,3,110.67,22 / 22,2514428,2019-09-06 18:58:01:110,1.2292,0.6249,8.724,-0.0118,0.0152,9.8066,-0.1115,0.0232,-0.1453,-28.56,-28.69,25.0,323.48,-79.93,-162.31
25061,52.418663,-1.559616,166.68,6.62,3,110.67,22 / 22,2514528,2019-09-06 18:58:01:210,0.8628,-0.6102,10.2944,0.0101,-0.0294,9.8065,0.0548,0.0099,0.131,-27.94,-29.0,25.63,325.82,-79.43,-162.09
25062,52.418663,-1.559616,166.68,6.62,3,110.67,22 / 22,2514629,2019-09-06 18:58:01:311,-0.4941,-0.2029,10.2119,-0.0346,0.0572,9.8064,-0.1353,-0.0571,0.0357,-28.25,-28.69,25.13,324.23,-79.22,-162.18
25063,52.418663,-1.559616,166.68,6.62,3,110.67,22 / 22,2514728,2019-09-06 18:58:01:410,1.217,-2.3012,10.4857,-0.0265,0.0293,9.8065,0.0118,-0.0257,-0.065,-27.87,-28.37,25.69,324.95,-79.65,-163.13
25064,52.418663,-1.559616,166.68,6.62,3,110.67,22 / 22,2514828,2019-09-06 18:58:01:510,-0.2488,-0.2463,9.9101,-0.0239,0.0017,9.8066,0.0092,0.028,0.1416,-28.19,-28.62,25.13,325.65,-79.87,-161.28
25065,52.418663,-1.559616,166.68,6.62,3,110.67,22 / 22,2514928,2019-09-06 18:58:01:610,0.8373,-0.0521,9.6535,0.0013,0.0132,9.8066,0.0264,0.0022,-0.0275,-27.87,-27.87,25.13,325.07,-79.77,-161.89
25066,52.418663,-1.559616,166.68,6.62,3,110.67,22 / 22,2515028,2019-09-06 18:58:01:710,0.6204,-0.4063,10.1299,-0.0048,-0.0071,9.8066,0.0551,-0.0414,0.0164,-27.12,-28.12,24.56,326.12,-79.54,-161.79
25067,52.418663,-1.559616,166.68,6.62,3,110.67,22 / 22,2515129,2019-09-06 18:58:01:811,0.8457,-0.425,9.7601,-0.0036,-0.0081,9.8066,-0.0589,-0.0467,0.0146,-27.37,-28.5,25.19,326.44,-79.47,-161.48
25068,52.418663,-1.559616,166.68,6.62,3,110.67,22 / 22,2515229,2019-09-06 18:58:01:911,0.5588,1.2672,10.5482,-0.0087,-0.0011,9.8066,0.0491,-0.1231,0.0052,-27.0,-28.31,24.69,326.41,-79.63,-161.58
25069,52.418663,-1.559616,166.68,6.62,3,110.67,22 / 22,2515329,2019-09-06 18:58:02:011,-0.3456,0.2098,9.4392,-0.0273,0.0226,9.8065,0.091,-0.0455,0.029,-27.06,-28.12,23.69,325.75,-79.84,-161.02
25070,52.418663,-1.559616,166.68,6.62,3,110.67,22 / 22,2515428,2019-09-06 18:58:02:110,0.7417,-0.0383,10.5822,0.0114,-0.0081,9.8066,0.0233,0.0286,0.0206,-27.87,-28.75,24.31,324.35,-79.58,-161.02
25071,52.418663,-1.559616,166.68,6.62,3,110.67,22 / 22,2515529,2019-09-06 18:58:02:211,-0.3577,0.7071,9.9099,-0.0054,0.0017,9.8066,0.0168,0.0219,0.0302,-27.69,-28.94,24.38,324.95,-79.71,-160.57
25072,52.418663,-1.559616,166.68,6.62,3,110.67,22 / 22,2515628,2019-09-06 18:58:02:310,-0.5746,1.155,9.1735,-0.0008,-0.0201,9.8066,0.002,0.0515,0.0328,-28.19,-28.37,24.63,326.86,-79.78,-160.32
25073,52.418663,-1.559616,166.68,6.62,3,110.67,22 / 22,2515729,2019-09-06 18:58:02:411,-0.2711,0.6974,8.2533,-0.0344,0.0405,9.8064,0.0324,-0.0271,0.0168,-27.94,-28.06,24.19,327.1,-80.21,-159.08
25074,52.418663,-1.559616,166.68,6.62,3,110.67,22 / 22,2515829,2019-09-06 18:58:02:511,-2.879,3.536,9.9558,-0.0803,0.0365,9.8062,0.0265,-0.0015,0.0588,-29.06,-28.25,23.94,329.88,-80.76,-155.96
25075,52.418663,-1.559616,166.68,6.62,3,110.67,22 / 22,2515928,2019-09-06 18:58:02:610,0.5672,2.7776,10.0659,-0.0915,0.0818,9.8058,0.0694,0.1759,-0.1441,-27.81,-28.25,23.56,332.03,-80.93,-155.04
25076,52.418663,-1.559616,166.68,6.62,3,110.67,22 / 22,2516029,2019-09-06 18:58:02:711,-2.5751,-3.3564,13.6889,0.0945,-0.0869,9.8058,0.4893,-0.2315,0.094,-28.19,-28.0,23.94,327.15,-79.76,-158.81
25077,52.418663,-1.559616,166.68,6.62,3,110.67,22 / 22,2516129,2019-09-06 18:58:02:811,3.0837,1.834,9.8751,0.0176,0.0098,9.8066,-0.2084,-0.1781,0.101,-27.37,-28.56,24.5,327.62,-79.86,-160.49
25078,52.418663,-1.559616,166.68,6.62,3,110.67,22 / 22,2516228,2019-09-06 18:58:02:910,-2.9831,-1.3062,11.6818,-0.0043,-0.0149,9.8066,0.0437,-0.2162,0.0215,-28.5,-27.94,24.0,324.53,-79.98,-161.24
25079,52.418663,-1.559616,166.68,6.62,3,110.67,22 / 22,2516329,2019-09-06 18:58:03:011,-1.0705,0.8466,10.6642,-0.0868,0.0644,9.806,0.2639,-0.0717,0.005,-28.25,-28.69,24.44,326.93,-80.48,-159.22
25080,52.418663,-1.559616,166.68,6.62,3,110.67,22 / 22,2516428,2019-09-06 18:58:03:110,-0.5197,1.1441,10.102,0.0698,-0.0664,9.8061,-0.2675,-0.0046,0.1485,-28.06,-28.62,24.38,324.98,-80.24,-160.82
25081,52.418663,-1.559616,166.68,6.62,3,110.67,22 / 22,2516529,2019-09-06 18:58:03:211,0.962,0.2735,10.6943,-0.0133,0.0152,9.8065,0.014,0.1042,-0.0714,-27.81,-28.37,23.81,326.16,-80.58,-160.1
25082,52.418663,-1.559616,166.68,6.62,3,110.67,22 / 22,2516629,2019-09-06 18:58:03:311,0.2642,-0.04,9.7651,0.087,-0.0507,9.806,0.1486,0.014,-0.0052,-27.56,-28.69,23.81,325.79,-80.47,-160.22
25083,52.418663,-1.559616,166.68,6.62,3,110.67,22 / 22,2516730,2019-09-06 18:58:03:412,-0.7077,0.1454,9.2714,0.0354,-0.0206,9.8065,-0.1539,-0.0185,0.0664,-27.75,-28.44,23.56,324.81,-80.19,-161.1
25084,52.418663,-1.559616,166.68,6.62,3,110.67,22 / 22,2516829,2019-09-06 18:58:03:511,-2.2239,-0.4643,9.5672,-0.0334,0.0243,9.8065,-0.1225,-0.0329,-0.0051,-27.75,-28.75,23.38,324.44,-80.93,-160.4
25085,52.418663,-1.559616,166.68,6.62,3,110.67,22 / 22,2516929,2019-09-06 18:58:03:611,-0.8051,0.3907,12.5318,0.0097,-0.0126,9.8066,0.1858,0.0823,-0.0304,-28.06,-28.75,23.75,326.64,-81.02,-159.76
25086,52.418663,-1.559616,166.68,6.62,3,110.67,22 / 22,2517028,2019-09-06 18:58:03:710,-2.2053,0.6341,10.905,0.0599,-0.046,9.8063,0.2868,-0.0251,0.1178,-27.87,-28.44,23.94,325.18,-80.38,-160.87
25087,52.418663,-1.559616,166.68,6.62,3,110.67,22 / 22,2517129,2019-09-06 18:58:03:811,1.1769,0.4216,9.9903,0.0124,-0.0181,9.8065,-0.0019,0.0508,-0.0445,-27.75,-28.25,24.38,323.85,-79.91,-161.8
25088,52.418663,-1.559616,166.68,6.62,3,110.67,22 / 22,2517228,2019-09-06 18:58:03:910,-0.7657,-0.7323,9.9736,0.0139,-0.0358,9.8065,0.0997,-0.0599,0.0883,-27.81,-28.25,24.88,326.88,-79.91,-160.36
25089,52.418663,-1.559616,166.68,6.62,3,110.67,22 / 22,2517329,2019-09-06 18:58:04:011,-2.7544,0.4721,8.9677,-0.0424,0.0255,9.8065,-0.0791,-0.0665,0.0958,-28.19,-28.94,24.44,327.89,-80.35,-158.32
25090,52.418663,-1.559616,166.68,6.62,3,110.67,22 / 22,2517428,2019-09-06 18:58:04:110,-0.8941,1.0631,9.8584,-0.0124,0.0008,9.8065,-0.0194,0.0185,-0.0076,-28.19,-28.62,23.38,328.56,-80.62,-156.58
25091,52.418663,-1.559616,166.68,6.62,3,110.67,22 / 22,2517529,2019-09-06 18:58:04:211,-1.3021,0.1839,11.1947,-0.0022,-0.015,9.8066,0.1209,-0.0276,0.0234,-28.06,-28.87,23.94,330.64,-80.58,-156.01
25092,52.418663,-1.559616,166.68,6.62,3,110.67,22 / 22,2517628,2019-09-06 18:58:04:310,-0.2342,0.7976,9.8915,0.0532,-0.0385,9.8064,0.071,0.0086,-0.0244,-27.87,-28.37,24.38,328.24,-80.04,-157.99
25093,52.418663,-1.559616,166.68,6.62,3,110.67,22 / 22,2517728,2019-09-06 18:58:04:410,-0.4732,1.666,9.9603,0.0276,-0.0148,9.8065,0.0038,0.0705,-0.0471,-28.25,-28.44,24.38,327.34,-79.77,-158.65
25094,52.418663,-1.559616,166.68,6.62,3,110.67,22 / 22,2517828,2019-09-06 18:58:04:510,-0.0973,0.5606,10.4514,0.0006,0.0059,9.8065,0.0998,0.0278,0.0064,-27.69,-28.25,23.81,327.75,-79.93,-158.37
25095,52.418663,-1.559616,166.68,6.62,3,110.67,22 / 22,2517929,2019-09-06 18:58:04:611,-0.0099,0.1406,10.4368,0.0072,0.0044,9.8066,-0.1057,0.0382,-0.0094,-28.12,-28.44,24.0,327.35,-80.02,-158.77
25096,52.418663,-1.559616,166.68,6.62,3,110.67,22 / 22,2518028,2019-09-06 18:58:04:710,0.3614,-1.2093,9.4128,0.0084,-0.0087,9.8066,0.0581,-0.0503,-0.0098,-28.19,-28.62,24.56,328.18,-80.01,-159.12
25097,52.418663,-1.559616,166.68,6.62,3,110.67,22 / 22,2518129,2019-09-06 18:58:04:811,0.6652,-0.4574,9.9073,-0.0013,0.0026,9.8066,-0.0984,0.0227,-0.0335,-28.5,-28.31,24.75,328.8,-80.14,-158.77
25098,52.418663,-1.559616,166.68,6.62,3,110.67,22 / 22,2518229,2019-09-06 18:58:04:911,-0.1675,-0.5137,10.0443,0.013,-0.0059,9.8066,-0.0415,-0.0372,0.0374,-28.0,-29.0,24.19,327.29,-80.19,-158.76
25099,52.418663,-1.559616,166.68,6.62,3,110.67,22 / 22,2518329,2019-09-06 18:58:05:011,0.0117,-0.3303,9.0185,0.0346,-0.0147,9.8065,0.005,-0.0218,-0.0135,-28.12,-28.37,24.25,326.74,-80.29,-159.44
25100,52.418346,-1.558193,167.78,12.91,3,110.35,22 / 22,2518429,2019-09-06 18:58:05:111,-0.7631,1.2463,9.3208,-0.024,0.0479,9.8064,0.147,-0.0267,-0.0006,-27.94,-29.25,23.94,326.3,-80.66,-159.87
25101,52.418346,-1.558193,167.78,12.91,3,110.35,22 / 22,2518528,2019-09-06 18:58:05:210,-1.0622,1.2604,10.4852,-0.0039,0.0096,9.8066,0.1055,0.0378,-0.0275,-27.87,-28.75,23.5,325.57,-80.57,-160.47
25102,52.418346,-1.558193,167.78,12.91,3,110.35,22 / 22,2518629,2019-09-06 18:58:05:311,-1.2137,0.8875,9.3497,0.0122,-0.0134,9.8066,0.1546,-0.0548,0.0392,-27.69,-28.44,23.63,324.99,-80.31,-161.01
25103,52.418346,-1.558193,167.78,12.91,3,110.35,22 / 22,2518728,2019-09-06 18:58:05:410,-0.5216,-0.531,9.8016,0.0001,-0.0042,9.8066,-0.0408,-0.0695,0.0624,-28.12,-29.0,24.31,324.62,-80.12,-161.07
25104,52.418346,-1.558193,167.78,12.91,3,110.35,22 / 22,2518829,2019-09-06 18:58:05:511,-0.4011,1.3371,9.4467,-0.0122,0.0004,9.8066,-0.0607,0.0508,-0.007,-28.0,-28.69,23.75,325.75,-80.37,-160.21
25105,52.418346,-1.558193,167.78,12.91,3,110.35,22 / 22,2518929,2019-09-06 18:58:05:611,0.3902,0.6212,10.4023,-0.0135,0.0111,9.8066,-0.0908,-0.063,0.0037,-27.94,-29.12,23.5,327.13,-80.56,-159.09
25106,52.418346,-1.558193,167.78,12.91,3,110.35,22 / 22,2519028,2019-09-06 18:58:05:710,0.7701,0.0247,10.4956,0.0068,-0.0261,9.8066,-0.0394,0.0395,0.0017,-28.19,-28.81,23.69,327.63,-80.58,-158.65
25107,52.418346,-1.558193,167.78,12.91,3,110.35,22 / 22,2519128,2019-09-06 18:58:05:810,1.4656,-1.1612,9.4234,-0.003,0.0074,9.8066,-0.0155,0.0012,0.0101,-27.56,-28.62,23.63,327.45,-80.42,-158.74
25108,52.418346,-1.558193,167.78,12.91,3,110.35,22 / 22,2519229,2019-09-06 18:58:05:911,-1.1407,-1.1609,9.0586,-0.0144,0.02,9.8066,0.0173,-0.0315,0.0094,-28.37,-28.5,24.06,327.8,-80.53,-158.61
25109,52.418346,-1.558193,167.78,12.91,3,110.35,22 / 22,2519329,2019-09-06 18:58:06:011,0.7578,0.5602,7.18,-0.0274,0.0439,9.8065,-0.1446,-0.0808,-0.0359,-28.06,-28.94,23.19,326.35,-81.28,-158.87
25110,52.418346,-1.558193,167.78,12.91,3,110.35,22 / 22,2519429,2019-09-06 18:58:06:111,-1.899,0.2283,10.027,-0.0309,0.0289,9.8065,-0.1743,-0.0851,-0.0058,-27.5,-28.69,22.88,327.45,-81.66,-159.03
25111,52.418346,-1.558193,167.78,12.91,3,110.35,22 / 22,2519529,2019-09-06 18:58:06:211,-2.0023,4.6089,11.3135,0.0189,0.0143,9.8066,0.2976,-0.2237,0.052,-27.62,-28.94,23.69,325.72,-81.95,-161.05
25112,52.418346,-1.558193,167.78,12.91,3,110.35,22 / 22,2519629,2019-09-06 18:58:06:311,-0.2192,2.9599,9.8176,0.0331,-0.0222,9.8065,0.0893,0.047,-0.267,-27.56,-28.31,23.5,321.02,-81.1,-164.99
25113,52.418346,-1.558193,167.78,12.91,3,110.35,22 / 22,2519729,2019-09-06 18:58:06:411,2.0328,0.5758,9.5894,0.0199,-0.0509,9.8064,0.0481,0.1426,0.0782,-27.44,-28.75,24.19,322.62,-80.49,-163.99
25114,52.418346,-1.558193,167.78,12.91,3,110.35,22 / 22,2519828,2019-09-06 18:58:06:510,-1.2641,-0.5133,9.7917,-0.0532,0.0487,9.8063,-0.1039,-0.0361,0.1099,-27.31,-29.0,24.13,325.28,-81.15,-161.98
25115,52.418346,-1.558193,167.78,12.91,3,110.35,22 / 22,2519929,2019-09-06 18:58:06:611,-0.8799,1.3297,9.1959,-0.0219,0.0299,9.8066,-0.1285,0.042,-0.1272,-27.44,-29.19,23.0,324.14,-81.59,-161.96
25116,52.418346,-1.558193,167.78,12.91,3,110.35,22 / 22,2520028,2019-09-06 18:58:06:710,-1.3775,1.6183,8.9785,-0.0013,-0.0025,9.8066,-0.0043,-0.0109,0.0552,-27.0,-29.12,23.44,323.9,-81.74,-162.26
25117,52.418346,-1.558193,167.78,12.91,3,110.35,22 / 22,2520129,2019-09-06 18:58:06:811,-0.3238,0.3238,9.6939,0.0191,-0.0087,9.8066,0.1057,-0.0342,0.0189,-27.37,-29.19,23.69,324.5,-81.55,-162.89
25118,52.418346,-1.558193,167.78,12.91,3,110.35,22 / 22,2520229,2019-09-06 18:58:06:911,-1.3845,1.4791,9.6552,-0.011,0.005,9.8066,-0.0509,0.007,-0.0231,-27.19,-28.81,23.88,323.96,-81.29,-163.24
25119,52.418346,-1.558193,167.78,12.91,3,110.35,22 / 22,2520328,2019-09-06 18:58:07:010,-0.946,-0.2513,10.2359,-0.008,-0.0059,9.8065,0.0287,-0.018,-0.0112,-27.44,-28.69,24.31,324.62,-81.15,-162.57
25120,52.418346,-1.558193,167.78,12.91,3,110.35,22 / 22,2520429,2019-09-06 18:58:07:111,-0.2993,1.459,9.5255,-0.0179,0.0009,9.8066,0.0428,-0.1694,0.0808,-27.69,-29.44,24.5,326.41,-81.28,-161.32
25121,52.418346,-1.558193,167.78,12.91,3,110.35,22 / 22,2520528,2019-09-06 18:58:07:210,-1.1172,-0.0785,9.9515,-0.0103,0.015,9.8066,-0.0808,0.0484,-0.0713,-27.62,-29.0,23.81,325.67,-81.33,-160.78
25122,52.418346,-1.558193,167.78,12.91,3,110.35,22 / 22,2520628,2019-09-06 18:58:07:310,-1.0066,0.852,8.9334,-0.019,0.0038,9.8065,-0.011,-0.0534,0.0869,-27.62,-29.0,22.94,325.48,-81.42,-159.73
25123,52.418346,-1.558193,167.78,12.91,3,110.35,22 / 22,2520729,2019-09-06 18:58:07:411,-0.1027,0.0955,9.6769,0.0169,-0.0099,9.8066,-0.1384,0.0196,-0.0325,-27.44,-28.75,23.88,327.92,-81.43,-159.77
25124,52.418346,-1.558193,167.78,12.91,3,110.35,22 / 22,2520829,2019-09-06 18:58:07:511,0.2173,1.1673,9.7361,-0.0088,0.0157,9.8065,-0.0473,-0.0721,0.0261,-27.37,-28.12,23.88,327.09,-81.44,-160.65
25125,52.418346,-1.558193,167.78,12.91,3,110.35,22 / 22,2520928,2019-09-06 18:58:07:610,-0.1785,0.7445,9.8334,-0.0032,-0.0027,9.8066,0.0235,-0.0305,0.0035,-27.69,-28.69,23.25,323.73,-81.24,-161.2
25126,52.418346,-1.558193,167.78,12.91,3,110.35,22 / 22,2521028,2019-09-06 18:58:07:710,-0.2859,0.3765,9.7037,0.0061,-0.0175,9.8065,0.0731,-0.0143,0.0032,-27.44,-28.37,22.81,325.62,-81.25,-160.59
