,GPS LATITUDE (degrees), GPS LONGITUDE (degrees), GPS ALTITUDE (m), GPS SPEED (Kmh), GPS ACCURACY (m), GPS ORIENTATION (Â°),GPS SATELLITES IN RANGE, TIME SINCE START (ms), DATE (YYYY-MO-DD HH-MI-SS_SSS), ACCELEROMETER X (m/s²) , ACCELEROMETER Y (m/s²), ACCELEROMETER Z (m/s²), GRAVITY X (m/s²), GRAVITY Y (m/s²), GRAVITY Z (m/s²), GYROSCOPE Yaw (rad/s), GYROSCOPE Pitch (rad/s), GYROSCOPE Roll (rad/s), MAGNETIC FIELD X (Î¼T), MAGNETIC FIELD Y (Î¼T), MAGNETIC FIELD Z (Î¼T), ORIENTATION (Yaw) (Â°), ORIENTATION (Pitch) (Â°), ORIENTATION (Roll ) (Â°)
18239,52.512814,-1.725921,147.87,3.85,6,2.67,24 / 26,2137908,2020-01-08 16:56:52:884,1.0117,1.2848,9.9973,-0.0037,-0.0016,9.8066,-0.0069,0.0515,-0.0354,-3.94,-37.0,-13.06,271.66,-88.69,-101.88
18240,52.512814,-1.725921,147.87,3.85,6,2.67,24 / 26,2138008,2020-01-08 16:56:52:984,0.8593,3.1962,9.3969,-0.006,0.0032,9.8066,-0.0105,0.0343,-0.0122,-3.56,-36.69,-12.62,271.42,-88.65,-102.01
18241,52.512814,-1.725921,147.87,3.85,6,2.67,24 / 26,2138108,2020-01-08 16:56:53:084,0.5678,1.2944,9.736,-0.0053,-0.0019,9.8066,0.0261,0.0516,-0.0293,-3.94,-37.12,-12.75,271.94,-88.71,-101.66
18242,52.512814,-1.725921,147.87,3.85,6,2.67,24 / 26,2138207,2020-01-08 16:56:53:183,0.4053,3.3605,9.6746,-0.0096,0.0015,9.8066,-0.0103,0.0773,-0.0169,-3.56,-37.12,-12.56,272.85,-88.68,-100.66
18243,52.512814,-1.725921,147.87,3.85,6,2.67,24 / 26,2138308,2020-01-08 16:56:53:284,1.4804,3.7026,9.171,-0.001,0.0085,9.8066,-0.0149,-0.0346,0.0391,-3.62,-37.56,-12.81,270.09,-88.73,-103.47
18244,52.512814,-1.725921,147.87,3.85,6,2.67,24 / 26,2138407,2020-01-08 16:56:53:383,0.5649,2.5649,9.577,0.0065,0.0011,9.8066,0.0077,0.0075,-0.0043,-4.37,-36.62,-12.81,264.4,-88.68,-109.12
18245,52.512814,-1.725921,147.87,3.85,6,2.67,24 / 26,2138507,2020-01-08 16:56:53:483,-0.3666,2.0838,9.8956,-0.0015,0.0047,9.8066,0.0025,-0.1022,0.0443,-3.69,-36.69,-12.19,260.88,-88.66,-113.68
18246,52.512814,-1.725921,147.87,3.85,6,2.67,24 / 26,2138607,2020-01-08 16:56:53:583,0.4009,2.431,9.674,0.01,0.0017,9.8066,0.0095,-0.066,0.0308,-3.37,-37.12,-12.5,254.87,-88.68,-115.35
18247,52.512814,-1.725921,147.87,3.85,6,2.67,24 / 26,2138707,2020-01-08 16:56:53:683,0.0955,1.4353,9.6439,0.0054,0.0044,9.8066,-0.0417,-0.0567,0.024,-4.31,-35.94,-12.56,254.02,-88.66,-119.67
18248,52.512814,-1.725921,147.87,3.85,6,2.67,24 / 26,2138808,2020-01-08 16:56:53:784,0.8936,0.0493,9.4707,0.0015,-0.0195,9.8066,-0.0657,-0.0767,0.0572,-4.0,-36.69,-12.12,253.45,-88.71,-121.36
18249,52.512814,-1.725921,147.87,3.85,6,2.67,24 / 26,2138907,2020-01-08 16:56:53:883,-0.6942,1.1209,9.9928,0.0077,-0.0087,9.8066,-0.0976,0.0042,0.0106,-3.0,-36.37,-12.75,251.58,-88.76,-118.25
18250,52.512814,-1.725921,147.87,3.85,6,2.67,25 / 27,2139008,2020-01-08 16:56:53:984,0.4327,0.5663,9.4441,0.0052,-0.0203,9.8066,-0.0414,-0.0751,0.0861,-4.37,-36.75,-12.69,263.55,-88.75,-110.17
18251,52.512814,-1.725921,147.87,3.85,6,2.67,25 / 27,2139108,2020-01-08 16:56:54:084,-0.131,0.7929,9.3055,0.0116,-0.0029,9.8066,-0.0932,0.0232,0.0257,-4.44,-36.44,-12.75,261.54,-88.73,-112.23
18252,52.512814,-1.725921,147.87,3.85,6,2.67,25 / 27,2139208,2020-01-08 16:56:54:184,0.2707,0.319,9.4391,0.0024,-0.0233,9.8066,-0.0535,-0.0258,0.0523,-3.44,-36.06,-12.25,258.27,-88.76,-112.23
18253,52.512814,-1.725921,147.87,3.85,6,2.67,25 / 27,2139308,2020-01-08 16:56:54:284,-0.1402,1.237,10.3352,0.015,-0.004,9.8066,-0.0618,0.0223,0.0318,-3.37,-36.44,-12.12,263.04,-88.73,-107.34
18254,52.512814,-1.725921,147.87,3.85,6,2.67,25 / 27,2139408,2020-01-08 16:56:54:384,0.7395,0.8254,10.3485,-0.0003,-0.0155,9.8065,-0.0505,-0.0791,0.0198,-3.56,-35.56,-13.75,265.37,-88.79,-107.6
18255,52.512814,-1.725921,147.87,3.85,6,2.67,25 / 27,2139508,2020-01-08 16:56:54:484,-0.2815,1.7427,10.0614,0.0111,-0.0047,9.8066,-0.0484,-0.0341,0.0378,-3.62,-35.81,-13.12,266.34,-88.77,-107.5
18256,52.512814,-1.725921,147.87,3.85,6,2.67,25 / 27,2139608,2020-01-08 16:56:54:584,0.7451,1.3886,9.3421,0.0099,0.0025,9.8066,0.0002,-0.1028,0.057,-3.37,-36.19,-13.62,256.26,-88.7,-112.66
18257,52.512814,-1.725921,147.87,3.85,6,2.67,25 / 27,2139708,2020-01-08 16:56:54:684,0.4165,0.8168,9.3512,0.0147,0.0062,9.8066,-0.0428,-0.057,0.0255,-4.25,-36.31,-13.62,254.85,-88.62,-117.82
18258,52.512814,-1.725921,147.87,3.85,6,2.67,25 / 27,2139808,2020-01-08 16:56:54:784,0.3528,0.3155,10.0985,0.0162,-0.0025,9.8066,0.0286,-0.0057,0.0628,-4.87,-36.81,-13.0,252.47,-88.66,-125.18
18259,52.512814,-1.725921,147.87,3.85,6,2.67,25 / 27,2139908,2020-01-08 16:56:54:884,0.5044,2.9129,10.4123,-0.0016,-0.0005,9.8066,-0.1039,-0.0496,-0.0233,-4.62,-37.62,-12.44,251.8,-88.59,-126.9
18260,52.512814,-1.725921,147.87,3.85,6,2.67,24 / 26,2140008,2020-01-08 16:56:54:984,0.6962,3.1462,9.9306,0.0056,-0.0164,9.8066,-0.014,-0.0617,0.106,-4.19,-38.06,-12.87,250.65,-88.66,-122.92
18261,52.512814,-1.725921,147.87,3.85,6,2.67,24 / 26,2140107,2020-01-08 16:56:55:083,-0.3485,2.0065,9.7278,0.0088,0.0031,9.8066,0.0323,0.0384,0.0198,-4.44,-37.75,-13.12,256.03,-88.72,-117.59
18262,52.512814,-1.725921,147.87,3.85,6,2.67,24 / 26,2140208,2020-01-08 16:56:55:184,0.4165,2.8998,8.9967,-0.0025,0.0074,9.8066,-0.0108,-0.0696,0.0736,-4.44,-38.44,-13.0,254.78,-88.6,-118.56
18263,52.512814,-1.725921,147.87,3.85,6,2.67,24 / 26,2140308,2020-01-08 16:56:55:284,-0.2721,2.6413,10.4119,0.0247,-0.0068,9.8066,0.077,0.0507,0.0102,-4.19,-38.81,-13.5,249.67,-88.44,-123.25
18264,52.512814,-1.725921,147.87,3.85,6,2.67,24 / 26,2140407,2020-01-08 16:56:55:383,1.342,2.1439,9.5612,0.0042,0.0226,9.8065,0.0022,-0.1281,0.0192,-4.75,-38.5,-13.62,248.62,-88.41,-127.24
18265,52.512814,-1.725921,147.87,3.85,6,2.67,24 / 26,2140508,2020-01-08 16:56:55:484,0.0706,0.8433,9.3209,0.0209,-0.0121,9.8065,0.0264,0.0318,-0.0513,-4.19,-39.62,-12.81,245.79,-88.27,-126.69
18266,52.512814,-1.725921,147.87,3.85,6,2.67,24 / 26,2140607,2020-01-08 16:56:55:583,1.8939,2.0836,9.8296,-0.0082,0.0054,9.8066,0.0094,-0.0292,0.0229,-5.25,-39.94,-13.5,250.56,-88.37,-126.06
18267,52.512814,-1.725921,147.87,3.85,6,2.67,24 / 26,2140708,2020-01-08 16:56:55:684,-0.3523,2.6541,9.3339,0.0078,0.0125,9.8066,-0.0296,0.0998,-0.085,-5.19,-40.25,-13.56,246.14,-88.25,-129.21
18268,52.512814,-1.725921,147.87,3.85,6,2.67,24 / 26,2140807,2020-01-08 16:56:55:783,0.2339,2.9986,9.5835,-0.0069,-0.008,9.8066,-0.0092,0.0169,0.0377,-4.87,-40.94,-13.12,246.36,-88.2,-129.83
18269,52.512814,-1.725921,147.87,3.85,6,2.67,25 / 26,2140908,2020-01-08 16:56:55:884,0.1059,2.9214,10.6355,-0.0017,-0.0068,9.8066,0.0576,0.0994,-0.1162,-5.31,-41.94,-12.19,247.6,-88.21,-129.67
18270,52.512814,-1.725921,147.87,3.85,6,2.67,25 / 26,2141007,2020-01-08 16:56:55:983,0.7953,0.1845,9.333,-0.0084,0.0166,9.8066,-0.034,-0.032,0.0831,-5.12,-41.37,-12.06,247.37,-88.06,-129.59
18271,52.512814,-1.725921,147.87,3.85,6,2.67,25 / 26,2141108,2020-01-08 16:56:56:084,1.195,0.5515,9.3305,0.0101,-0.0243,9.8065,0.0685,0.141,-0.0253,-5.62,-41.37,-11.81,251.73,-88.07,-129.24
18272,52.512814,-1.725921,147.87,3.85,6,2.67,25 / 26,2141208,2020-01-08 16:56:56:184,1.4291,1.5029,9.5038,-0.0231,0.022,9.8066,0.0119,0.0761,-0.0933,-5.44,-40.31,-11.75,245.47,-88.11,-131.87
18273,52.512814,-1.725921,147.87,3.85,6,2.67,25 / 26,2141307,2020-01-08 16:56:56:283,-0.4489,2.6441,9.6037,0.0135,-0.0005,9.8066,-0.0235,-0.0059,-0.0807,-4.62,-40.31,-10.87,251.96,-88.0,-126.19
18274,52.512814,-1.725921,147.87,3.85,6,2.67,25 / 26,2141407,2020-01-08 16:56:56:383,1.6508,1.3167,9.7672,0.0148,-0.0061,9.8066,0.0026,-0.1039,0.1479,-4.81,-39.69,-10.69,253.63,-88.11,-124.79
18275,52.512814,-1.725921,147.87,3.85,6,2.67,25 / 26,2141508,2020-01-08 16:56:56:484,1.2395,1.3579,9.9357,0.002,0.001,9.8066,-0.0163,-0.0404,0.1241,-4.56,-38.75,-10.94,253.96,-88.18,-124.84
18276,52.512814,-1.725921,147.87,3.85,6,2.67,25 / 26,2141608,2020-01-08 16:56:56:584,-0.166,1.5548,9.1015,-0.0103,-0.0053,9.8066,-0.0517,-0.0016,-0.0889,-4.75,-38.5,-11.25,255.9,-88.14,-122.87
18277,52.512814,-1.725921,147.87,3.85,6,2.67,25 / 26,2141709,2020-01-08 16:56:56:685,-0.5392,0.6784,9.6606,0.0094,-0.0166,9.8065,0.1375,-0.0936,0.0659,-3.81,-38.44,-11.0,255.27,-88.12,-118.82
18278,52.512814,-1.725921,147.87,3.85,6,2.67,25 / 26,2141811,2020-01-08 16:56:56:787,0.6072,1.833,11.29,0.0072,0.0469,9.8064,0.0488,-0.0705,-0.0721,-3.81,-37.87,-10.94,256.12,-88.2,-118.17
18279,52.512814,-1.725921,147.87,3.85,6,2.67,25 / 26,2141912,2020-01-08 16:56:56:888,-1.8045,2.7645,10.6661,0.0061,0.0015,9.8066,0.23,0.1278,-0.1984,-4.5,-38.25,-11.62,252.59,-88.11,-120.42
18280,52.512814,-1.725921,147.87,3.85,6,2.67,24 / 26,2142007,2020-01-08 16:56:56:983,1.7344,0.8329,10.494,-0.0024,0.0408,9.8065,-0.2011,-0.0937,0.155,-3.75,-37.12,-11.37,250.59,-88.12,-123.78
18281,52.512814,-1.725921,147.87,3.85,6,2.67,24 / 26,2142108,2020-01-08 16:56:57:084,-1.4284,1.1985,10.1237,0.0382,-0.0168,9.8065,-0.0329,0.2191,-0.0899,-4.25,-37.5,-11.87,258.28,-88.03,-114.52
18282,52.512814,-1.725921,147.87,3.85,6,2.67,24 / 26,2142208,2020-01-08 16:56:57:184,-0.3024,0.3298,10.2129,-0.0022,0.0253,9.8066,-0.1134,-0.1574,0.1522,-4.0,-37.75,-11.94,260.69,-88.04,-111.93
18283,52.512814,-1.725921,147.87,3.85,6,2.67,24 / 26,2142308,2020-01-08 16:56:57:284,-2.1001,2.5502,10.5172,0.0368,0.0004,9.8065,0.0544,0.1735,-0.1016,-3.81,-37.37,-12.44,257.35,-87.88,-115.04
18284,52.512814,-1.725921,147.87,3.85,6,2.67,24 / 26,2142408,2020-01-08 16:56:57:384,1.7135,1.4446,10.0127,-0.0208,0.0145,9.8066,-0.0897,-0.2263,0.1591,-4.44,-37.31,-12.44,253.72,-87.89,-118.78
18285,52.512814,-1.725921,147.87,3.85,6,2.67,24 / 26,2142507,2020-01-08 16:56:57:483,1.317,1.0402,9.8291,0.0258,0.0114,9.8066,0.0266,0.132,-0.0668,-3.44,-37.25,-12.37,247.29,-87.86,-120.84
18286,52.512814,-1.725921,147.87,3.85,6,2.67,24 / 26,2142608,2020-01-08 16:56:57:584,3.043,-0.8069,9.8763,-0.0304,-0.0266,9.8065,0.0789,-0.2237,0.1933,-3.19,-37.19,-12.5,248.12,-88.03,-120.45
18287,52.512814,-1.725921,147.87,3.85,6,2.67,24 / 26,2142707,2020-01-08 16:56:57:683,-1.3041,1.444,10.7687,0.0371,-0.0408,9.8065,0.1508,0.0687,-0.1802,-2.75,-37.62,-12.69,247.98,-87.88,-119.42
18288,52.512814,-1.725921,147.87,3.85,6,2.67,24 / 26,2142808,2020-01-08 16:56:57:784,-1.0849,0.1784,8.8993,-0.0265,-0.0166,9.8066,0.0776,-0.1528,0.1382,-3.69,-37.06,-12.94,248.82,-87.93,-123.04
18289,52.512814,-1.725921,147.87,3.85,6,2.67,25 / 27,2142907,2020-01-08 16:56:57:883,-1.1445,0.9153,9.5463,0.0231,-0.0158,9.8065,0.068,0.0269,-0.0879,-3.12,-36.5,-12.19,245.96,-87.93,-122.58
18290,52.512814,-1.725921,147.87,3.85,6,2.67,25 / 27,2143008,2020-01-08 16:56:57:984,0.4248,0.3416,9.0702,-0.0037,-0.0343,9.8065,0.0433,-0.124,0.0155,-3.37,-37.81,-12.19,249.46,-88.07,-119.03
18291,52.512814,-1.725921,147.87,3.85,6,2.67,25 / 27,2143107,2020-01-08 16:56:58:083,0.8214,0.8008,10.264,0.0069,-0.0125,9.8066,0.0903,0.0603,-0.0086,-3.69,-37.25,-12.5,251.82,-87.98,-121.0
18292,52.512814,-1.725921,147.87,3.85,6,2.67,25 / 27,2143207,2020-01-08 16:56:58:183,0.6101,1.0434,9.363,0.0123,-0.0004,9.8066,0.0041,-0.0306,-0.03,-3.62,-37.0,-13.0,246.79,-87.9,-125.07
18293,52.512814,-1.725921,147.87,3.85,6,2.67,25 / 27,2143308,2020-01-08 16:56:58:284,0.0518,1.5375,9.9691,0.0014,-0.0001,9.8066,0.005,0.0819,0.0284,-4.69,-36.75,-12.75,249.37,-87.81,-126.22
18294,52.512814,-1.725921,147.87,3.85,6,2.67,25 / 27,2143408,2020-01-08 16:56:58:384,0.4719,1.4983,10.1014,-0.0005,0.0084,9.8066,-0.0369,0.0025,0.0296,-4.0,-36.62,-12.75,247.66,-87.81,-123.93
18295,52.512814,-1.725921,147.87,3.85,6,2.67,25 / 27,2143508,2020-01-08 16:56:58:484,0.6324,0.4728,10.1631,0.016,0.0048,9.8066,-0.0665,0.017,-0.0299,-3.44,-37.25,-12.44,242.61,-87.8,-125.6
18296,52.512814,-1.725921,147.87,3.85,6,2.67,25 / 27,2143607,2020-01-08 16:56:58:583,0.5311,2.2564,9.9462,0.0003,0.0054,9.8066,-0.066,0.0943,-0.0041,-3.69,-36.87,-12.69,248.06,-87.86,-123.65
18297,52.512814,-1.725921,147.87,3.85,6,2.67,25 / 27,2143707,2020-01-08 16:56:58:683,-1.6087,0.5576,9.2526,0.0135,0.0133,9.8066,-0.0336,0.0915,-0.143,-3.5,-37.25,-13.06,244.09,-87.83,-123.5
18298,52.512814,-1.725921,147.87,3.85,6,2.67,25 / 27,2143808,2020-01-08 16:56:58:784,0.2054,2.8639,9.5763,0.0263,0.0227,9.8066,0.0071,0.1393,-0.0653,-4.0,-37.19,-12.87,241.47,-87.68,-130.11
18299,52.512814,-1.725921,147.87,3.85,6,2.67,25 / 27,2143908,2020-01-08 16:56:58:884,-0.4992,2.7053,9.8009,0.0111,0.0022,9.8066,-0.0412,0.0955,-0.003,-3.31,-37.31,-13.0,236.98,-87.63,-130.52
18300,52.512814,-1.725921,147.87,3.85,6,2.67,24 / 26,2144008,2020-01-08 16:56:58:984,-0.0574,0.9691,10.1921,-0.0036,0.0058,9.8066,-0.0119,-0.084,-0.0129,-4.0,-36.62,-12.44,245.29,-87.7,-127.04
18301,52.512814,-1.725921,147.87,3.85,6,2.67,24 / 26,2144107,2020-01-08 16:56:59:083,0.396,1.057,9.7003,-0.0013,0.0226,9.8066,0.004,-0.0504,0.0649,-3.5,-37.31,-12.12,236.57,-87.67,-131.65
18302,52.512814,-1.725921,147.87,3.85,6,2.67,24 / 26,2144208,2020-01-08 16:56:59:184,0.4383,0.6166,10.2451,0.0004,0.0328,9.8065,0.0756,0.0814,0.0,-3.5,-37.44,-13.37,228.11,-87.34,-139.41
18303,52.512814,-1.725921,147.87,3.85,6,2.67,24 / 26,2144308,2020-01-08 16:56:59:284,-0.4622,3.4556,9.4152,0.0207,0.0341,9.8065,0.0215,0.1494,-0.0816,-3.81,-36.87,-12.94,227.79,-87.05,-143.4
18304,52.512814,-1.725921,147.87,3.85,6,2.67,24 / 26,2144408,2020-01-08 16:56:59:384,0.8998,1.6591,10.5102,0.0195,0.0038,9.8065,0.0136,0.0762,-0.0836,-4.12,-37.19,-12.69,225.17,-86.9,-145.98
18305,52.512814,-1.725921,147.87,3.85,6,2.67,24 / 26,2144507,2020-01-08 16:56:59:483,-0.4773,3.2178,9.2172,0.0104,0.0063,9.8066,-0.071,0.1529,-0.0526,-3.62,-36.87,-12.94,225.77,-86.9,-145.32
18306,52.512814,-1.725921,147.87,3.85,6,2.67,24 / 26,2144608,2020-01-08 16:56:59:584,0.3098,3.1651,9.735,0.0049,0.015,9.8066,0.0093,-0.01,-0.0337,-3.5,-37.62,-12.81,220.2,-86.85,-147.04
18307,52.512814,-1.725921,147.87,3.85,6,2.67,24 / 26,2144707,2020-01-08 16:56:59:683,-1.3422,0.4807,9.8378,-0.0014,0.0042,9.8066,-0.0494,0.0233,0.0273,-3.94,-36.69,-12.75,222.57,-86.86,-148.79
18308,52.512814,-1.725921,147.87,3.85,6,2.67,24 / 26,2144808,2020-01-08 16:56:59:784,-1.1266,-0.2055,10.1511,-0.015,0.0203,9.8066,0.0303,-0.1256,0.1027,-3.25,-36.75,-12.75,219.12,-86.76,-148.24
18309,52.512814,-1.725921,147.87,3.85,6,2.67,24 / 25,2144908,2020-01-08 16:56:59:884,1.3508,-1.1924,9.9522,0.0034,0.0016,9.8065,-0.047,-0.1639,0.0961,-4.25,-36.75,-12.56,222.41,-86.62,-148.53
18310,52.512814,-1.725921,147.87,3.85,6,2.67,24 / 25,2145007,2020-01-08 16:56:59:983,-0.5151,3.4706,9.7082,-0.0051,0.0105,9.8066,0.0326,-0.0091,0.0199,-3.69,-36.31,-12.94,223.36,-86.48,-147.39
18311,52.512814,-1.725921,147.87,3.85,6,2.67,24 / 25,2145108,2020-01-08 16:57:00:084,2.3161,3.7815,9.7862,-0.0294,-0.0192,9.8065,-0.0151,-0.202,0.0865,-4.0,-36.5,-13.5,223.51,-86.51,-147.27
18312,52.512814,-1.725921,147.87,3.85,6,2.67,24 / 25,2145207,2020-01-08 16:57:00:183,-1.3581,1.5473,8.9961,0.0003,-0.023,9.8066,0.2062,-0.1176,-0.1023,-3.5,-36.37,-12.25,222.59,-86.68,-144.93
18313,52.512814,-1.725921,147.87,3.85,6,2.67,24 / 25,2145308,2020-01-08 16:57:00:284,2.7845,1.5409,9.009,-0.069,0.0378,9.8063,0.0345,-0.2913,0.3407,-4.81,-36.0,-12.87,224.02,-86.46,-150.7
18314,52.512814,-1.725921,147.87,3.85,6,2.67,24 / 25,2145408,2020-01-08 16:57:00:384,-1.9538,3.6766,9.2073,-0.022,-0.0381,9.8065,0.0464,-0.0719,-0.0574,-3.69,-36.19,-11.94,223.23,-86.24,-147.91
18315,52.512814,-1.725921,147.87,3.85,6,2.67,24 / 25,2145507,2020-01-08 16:57:00:483,1.2136,-1.0826,10.3483,-0.0587,-0.0012,9.8064,0.0026,-0.5058,0.2776,-3.81,-36.25,-12.19,223.1,-86.68,-148.9
18316,52.512814,-1.725921,147.87,3.85,6,2.67,24 / 25,2145608,2020-01-08 16:57:00:584,-2.2914,3.5915,11.0025,-0.0342,0.0085,9.8065,0.1543,0.0803,0.0631,-3.12,-36.75,-11.87,221.59,-86.54,-145.6
18317,52.512814,-1.725921,147.87,3.85,6,2.67,24 / 25,2145707,2020-01-08 16:57:00:683,1.6183,-1.3397,8.8874,-0.0354,0.051,9.8064,0.0016,-0.2651,0.0387,-3.0,-36.06,-12.06,215.82,-86.29,-151.95
18318,52.512814,-1.725921,147.87,3.85,6,2.67,24 / 25,2145808,2020-01-08 16:57:00:784,1.2203,2.8785,9.4184,0.023,-0.0031,9.8066,0.1089,0.1537,-0.1473,-2.37,-37.0,-13.19,210.22,-86.06,-153.0
18319,52.512814,-1.725921,147.87,3.85,6,2.67,25 / 26,2145909,2020-01-08 16:57:00:885,0.1132,1.6562,8.2552,-0.0269,0.0399,9.8065,-0.1193,0.0559,0.1541,-2.75,-36.81,-13.25,212.46,-85.92,-154.52
18320,52.513348,-1.725886,148.35,9.49,6,2.39,25 / 26,2146007,2020-01-08 16:57:00:983,0.6577,-1.2699,10.8445,0.0097,0.003,9.8066,-0.0011,0.1658,-0.0838,-1.37,-37.25,-12.56,206.4,-85.91,-152.89
18321,52.513348,-1.725886,148.35,9.49,6,2.39,25 / 26,2146108,2020-01-08 16:57:01:084,-2.1655,2.3418,9.2881,0.0089,0.0086,9.8066,-0.1391,0.2885,-0.089,-1.94,-36.94,-13.94,210.38,-85.97,-152.47
18322,52.513348,-1.725886,148.35,9.49,6,2.39,25 / 26,2146207,2020-01-08 16:57:01:183,-0.2322,2.9111,9.846,0.0348,-0.0015,9.8065,0.0181,0.2608,-0.1641,-1.56,-37.12,-14.19,210.61,-86.09,-152.36
18323,52.513348,-1.725886,148.35,9.49,6,2.39,25 / 26,2146308,2020-01-08 16:57:01:284,-0.998,1.2355,10.261,0.0158,0.0072,9.8066,0.0798,0.2019,-0.1219,-2.25,-37.5,-14.19,210.57,-86.0,-152.3
18324,52.513348,-1.725886,148.35,9.49,6,2.39,25 / 26,2146407,2020-01-08 16:57:01:383,3.154,0.1423,10.371,0.0457,0.023,9.8064,-0.0048,0.3177,-0.1757,-1.81,-36.87,-15.06,209.22,-85.59,-153.17
18325,52.513348,-1.725886,148.35,9.49,6,2.39,25 / 26,2146508,2020-01-08 16:57:01:484,-0.9211,0.9037,9.6811,0.032,0.0087,9.8066,-0.0922,0.2827,-0.1067,-1.81,-37.0,-15.06,208.68,-85.61,-153.83
18326,52.513348,-1.725886,148.35,9.49,6,2.39,25 / 26,2146608,2020-01-08 16:57:01:584,0.4407,0.4314,10.8344,0.0065,0.0175,9.8066,-0.0107,0.0043,-0.0384,-2.19,-37.19,-15.19,208.86,-85.66,-153.68
18327,52.513348,-1.725886,148.35,9.49,6,2.39,25 / 26,2146707,2020-01-08 16:57:01:683,0.2484,1.1072,8.7729,0.0031,0.0262,9.8066,-0.0946,0.0695,0.0325,-2.62,-37.06,-15.25,211.35,-85.52,-154.4
18328,52.513348,-1.725886,148.35,9.49,6,2.39,25 / 26,2146808,2020-01-08 16:57:01:784,0.8369,2.0136,9.7956,-0.0029,0.0182,9.8065,-0.1085,-0.0264,0.0206,-2.69,-37.56,-15.56,211.89,-85.54,-153.3
18329,52.513348,-1.725886,148.35,9.49,6,2.39,25 / 26,2146908,2020-01-08 16:57:01:884,-0.003,1.2421,9.1253,0.006,0.0142,9.8065,-0.0778,0.0685,-0.0116,-2.81,-36.62,-15.37,211.99,-85.51,-153.64
18330,52.513348,-1.725886,148.35,9.49,6,2.39,25 / 26,2147007,2020-01-08 16:57:01:983,-0.6409,1.5437,11.0557,-0.0134,0.0335,9.8065,-0.0299,-0.1528,0.1375,-2.87,-37.06,-15.12,210.35,-85.41,-155.42
18331,52.513348,-1.725886,148.35,9.49,6,2.39,25 / 26,2147108,2020-01-08 16:57:02:084,-2.1493,0.26,7.2406,0.0078,0.0768,9.8063,-0.2878,0.0922,0.0572,-3.5,-37.0,-15.44,211.33,-85.3,-154.14
18332,52.513348,-1.725886,148.35,9.49,6,2.39,25 / 26,2147208,2020-01-08 16:57:02:184,-1.5273,1.7595,10.3227,-0.0234,-0.0233,9.8066,0.0345,-0.3498,0.0551,-3.87,-37.56,-14.94,215.59,-85.36,-152.81
18333,52.513348,-1.725886,148.35,9.49,6,2.39,25 / 26,2147308,2020-01-08 16:57:02:284,3.1846,-0.5559,11.2111,-0.0417,0.018,9.8065,0.0482,-0.3371,0.2713,-3.94,-36.87,-14.19,215.52,-85.54,-153.91
18334,52.513348,-1.725886,148.35,9.49,6,2.39,25 / 26,2147408,2020-01-08 16:57:02:384,-0.479,-0.0588,6.8714,-0.0424,0.0443,9.8064,-0.2344,-0.0098,0.1695,-4.31,-37.06,-14.56,217.84,-85.52,-150.6
18335,52.513348,-1.725886,148.35,9.49,6,2.39,25 / 26,2147509,2020-01-08 16:57:02:485,0.725,0.772,9.9568,-0.0004,-0.0401,9.8066,0.0766,-0.1352,-0.0105,-3.94,-37.06,-13.37,217.04,-85.5,-152.75
18336,52.513348,-1.725886,148.35,9.49,6,2.39,25 / 26,2147607,2020-01-08 16:57:02:583,0.7304,1.6436,10.7278,0.0072,0.0314,9.8065,-0.1181,0.0545,-0.0208,-4.62,-37.56,-12.75,219.2,-85.31,-153.81
18337,52.513348,-1.725886,148.35,9.49,6,2.39,25 / 26,2147708,2020-01-08 16:57:02:684,-0.3456,0.7793,10.1879,-0.0088,-0.0154,9.8065,0.0301,0.0874,0.0187,-4.56,-37.44,-12.31,221.45,-85.48,-152.72
18338,52.513348,-1.725886,148.35,9.49,6,2.39,25 / 26,2147808,2020-01-08 16:57:02:784,0.88,-0.1902,9.3797,0.0073,-0.0074,9.8065,-0.0009,0.0531,-0.0943,-4.94,-37.19,-11.87,221.6,-85.53,-152.64
18339,52.513348,-1.725886,148.35,9.49,6,2.39,24 / 26,2147908,2020-01-08 16:57:02:884,-0.7718,0.9934,10.281,0.0005,-0.0136,9.8066,0.0765,0.0663,-0.0482,-5.06,-37.5,-11.81,221.06,-85.59,-153.37
18340,52.513348,-1.725886,148.35,9.49,6,2.39,24 / 26,2148008,2020-01-08 16:57:02:984,0.3021,-0.2747,9.6402,0.0132,-0.0223,9.8066,0.0285,0.149,-0.062,-4.19,-37.19,-11.37,217.35,-85.56,-154.17
18341,52.513348,-1.725886,148.35,9.49,6,2.39,24 / 26,2148107,2020-01-08 16:57:03:083,-1.6806,0.8693,10.0705,0.0236,-0.0151,9.8066,0.0485,0.1739,-0.1532,-5.19,-37.25,-11.5,222.87,-85.61,-152.48
18342,52.513348,-1.725886,148.35,9.49,6,2.39,24 / 26,2148208,2020-01-08 16:57:03:184,0.7186,-0.3297,10.4407,0.0136,0.003,9.8066,-0.0199,0.0313,-0.0271,-4.87,-37.19,-11.37,222.41,-85.56,-152.91
18343,52.513348,-1.725886,148.35,9.49,6,2.39,24 / 26,2148309,2020-01-08 16:57:03:285,-0.8404,-0.7314,9.3739,0.0164,0.0101,9.8066,-0.0544,0.0864,-0.0244,-3.87,-37.62,-11.62,217.8,-85.53,-152.46
18344,52.513348,-1.725886,148.35,9.49,6,2.39,24 / 26,2148408,2020-01-08 16:57:03:384,0.7193,-0.2352,10.5287,0.0095,0.0216,9.8066,-0.0005,0.0309,-0.0542,-4.5,-36.69,-11.37,218.17,-85.48,-153.04
18345,52.513348,-1.725886,148.35,9.49,6,2.39,24 / 26,2148508,2020-01-08 16:57:03:484,0.7239,-1.091,9.6653,0.0027,-0.0048,9.8066,-0.0264,-0.0494,0.08,-4.62,-37.37,-11.94,220.75,-85.43,-153.44
18346,52.513348,-1.725886,148.35,9.49,6,2.39,24 / 26,2148608,2020-01-08 16:57:03:584,0.9635,-1.4134,9.8609,-0.0227,0.0029,9.8066,-0.0224,-0.0966,0.1607,-4.5,-37.69,-11.37,218.74,-85.4,-151.95
18347,52.513348,-1.725886,148.35,9.49,6,2.39,24 / 26,2148708,2020-01-08 16:57:03:684,0.562,-0.8903,10.2626,0.0018,-0.0071,9.8066,0.0143,-0.12,-0.0265,-4.62,-37.62,-12.06,221.34,-85.47,-152.59
18348,52.513348,-1.725886,148.35,9.49,6,2.39,24 / 26,2148808,2020-01-08 16:57:03:784,-1.372,-0.7982,9.3538,-0.0226,0.0076,9.8065,-0.0211,-0.019,0.1335,-4.19,-37.12,-12.31,215.79,-85.5,-155.0
18349,52.513348,-1.725886,148.35,9.49,6,2.39,24 / 26,2148908,2020-01-08 16:57:03:884,0.6102,-0.3809,10.9402,-0.0008,-0.0143,9.8066,0.006,-0.1395,-0.0412,-4.69,-36.87,-11.81,220.7,-85.46,-153.54
18350,52.513348,-1.725886,148.35,9.49,6,2.39,24 / 26,2149008,2020-01-08 16:57:03:984,-1.0005,-0.6814,9.4294,0.0015,0.0179,9.8066,-0.0487,0.082,0.0,-4.94,-37.62,-11.62,220.32,-85.53,-153.9
18351,52.513348,-1.725886,148.35,9.49,6,2.39,24 / 26,2149108,2020-01-08 16:57:04:084,-0.0155,0.3548,9.7702,-0.0049,-0.0027,9.8066,0.0589,-0.0158,0.0058,-4.12,-37.37,-12.25,216.12,-85.39,-154.43
18352,52.513348,-1.725886,148.35,9.49,6,2.39,24 / 26,2149208,2020-01-08 16:57:04:184,-0.921,-0.2756,10.2565,0.0064,-0.0081,9.8066,0.0157,0.0764,-0.0674,-4.0,-37.56,-12.5,215.13,-85.29,-155.23
18353,52.513348,-1.725886,148.35,9.49,6,2.39,24 / 26,2149308,2020-01-08 16:57:04:284,0.6481,0.3289,9.5376,-0.0001,0.0094,9.8066,-0.0624,-0.0362,0.0214,-4.5,-37.56,-12.31,215.52,-85.33,-154.82
18354,52.513348,-1.725886,148.35,9.49,6,2.39,24 / 26,2149408,2020-01-08 16:57:04:384,-0.0808,-0.2099,9.2327,0.0024,-0.0058,9.8066,0.0816,0.0278,-0.0216,-4.81,-37.25,-11.94,219.66,-85.4,-154.65
18355,52.513348,-1.725886,148.35,9.49,6,2.39,24 / 26,2149508,2020-01-08 16:57:04:484,0.4852,-1.3232,9.6668,-0.0059,-0.0008,9.8066,0.0505,-0.0523,-0.0065,-4.69,-37.06,-12.44,219.69,-85.35,-154.54
18356,52.513348,-1.725886,148.35,9.49,6,2.39,24 / 26,2149608,2020-01-08 16:57:04:584,-0.0085,-1.0184,9.4849,0.0149,-0.0067,9.8066,0.0404,0.0317,-0.0609,-4.87,-37.56,-12.44,219.05,-85.34,-155.04
18357,52.513348,-1.725886,148.35,9.49,6,2.39,24 / 26,2149707,2020-01-08 16:57:04:683,-0.0832,-0.2336,9.5217,-0.0014,0.0143,9.8066,-0.009,0.0626,-0.0276,-4.81,-37.25,-12.75,218.21,-85.2,-155.0
18358,52.513348,-1.725886,148.35,9.49,6,2.39,24 / 26,2149808,2020-01-08 16:57:04:784,-0.5711,-0.7471,10.2626,-0.0038,-0.0027,9.8066,-0.0234,-0.0472,0.0131,-4.69,-37.06,-12.56,217.53,-85.12,-155.68
18359,52.513348,-1.725886,148.35,9.49,6,2.39,24 / 26,2149908,2020-01-08 16:57:04:884,1.8078,-1.7244,9.5512,-0.0149,-0.002,9.8066,-0.045,-0.1837,0.0994,-4.75,-37.37,-12.19,218.92,-85.25,-155.27
18360,52.513348,-1.725886,148.35,9.49,6,2.39,23 / 25,2150008,2020-01-08 16:57:04:984,-1.2637,0.2903,10.5156,0.012,0.0096,9.8066,-0.0345,0.1792,-0.1154,-4.75,-37.75,-12.5,219.73,-85.32,-154.21
18361,52.513348,-1.725886,148.35,9.49,6,2.39,23 / 25,2150108,2020-01-08 16:57:05:084,0.9791,-1.7965,9.1019,-0.0194,0.0316,9.8065,-0.1336,-0.1293,0.1149,-4.5,-37.12,-12.87,214.74,-85.26,-155.08
18362,52.513348,-1.725886,148.35,9.49,6,2.39,23 / 25,2150207,2020-01-08 16:57:05:183,0.0487,-1.0411,10.5413,-0.0013,0.0038,9.8066,-0.029,0.0087,0.0008,-4.87,-37.75,-12.81,219.1,-85.32,-153.95
18363,52.513348,-1.725886,148.35,9.49,6,2.39,23 / 25,2150308,2020-01-08 16:57:05:284,-1.0369,-0.9761,10.0624,0.0003,0.0122,9.8066,-0.0635,0.0168,0.0512,-5.0,-37.56,-12.62,219.81,-85.36,-153.19
18364,52.513348,-1.725886,148.35,9.49,6,2.39,23 / 25,2150407,2020-01-08 16:57:05:383,-0.4771,-0.9563,10.5031,-0.0149,0.0296,9.8065,-0.0403,-0.0388,0.0617,-5.06,-37.5,-13.06,220.89,-85.38,-152.18
18365,52.513348,-1.725886,148.35,9.49,6,2.39,23 / 25,2150508,2020-01-08 16:57:05:484,-0.3529,-0.7912,9.3424,0.0081,0.0126,9.8066,-0.0408,-0.0547,-0.028,-4.81,-36.94,-13.06,219.29,-85.27,-153.86
18366,52.513348,-1.725886,148.35,9.49,6,2.39,23 / 25,2150608,2020-01-08 16:57:05:584,-1.2676,-0.731,9.7323,0.0025,0.0137,9.8066,-0.0383,0.0611,-0.0471,-5.31,-37.44,-12.5,219.67,-85.3,-154.47
18367,52.513348,-1.725886,148.35,9.49,6,2.39,23 / 25,2150708,2020-01-08 16:57:05:684,0.876,0.2459,9.7616,-0.0102,-0.0004,9.8066,-0.0323,-0.1267,0.0412,-4.75,-37.81,-13.06,218.51,-85.32,-154.64
18368,52.513348,-1.725886,148.35,9.49,6,2.39,23 / 25,2150808,2020-01-08 16:57:05:784,0.7212,-0.7032,10.2349,0.0175,0.0047,9.8066,0.0094,0.1015,-0.1014,-5.12,-37.69,-12.81,219.16,-85.28,-153.81
18369,52.513348,-1.725886,148.35,9.49,6,2.39,23 / 25,2150908,2020-01-08 16:57:05:884,0.5435,-0.6042,9.994,-0.0214,0.0145,9.8066,-0.0201,-0.0758,0.071,-5.37,-37.5,-13.0,218.11,-85.24,-155.2
18370,52.513348,-1.725886,148.35,9.49,6,2.39,24 / 27,2151008,2020-01-08 16:57:05:984,-0.5448,-1.0355,9.7885,0.0009,0.0112,9.8066,-0.0465,0.0764,-0.0187,-4.94,-37.37,-12.0,219.31,-85.31,-154.91
18371,52.513348,-1.725886,148.35,9.49,6,2.39,24 / 27,2151108,2020-01-08 16:57:06:084,-0.6888,-1.3901,9.3688,-0.0032,-0.003,9.8066,-0.0556,0.0168,-0.0384,-5.37,-37.62,-12.87,217.71,-85.27,-155.51
18372,52.513348,-1.725886,148.35,9.49,6,2.39,24 / 27,2151207,2020-01-08 16:57:06:183,0.146,-0.2333,10.0213,0.0064,0.0088,9.8066,-0.0184,0.0365,0.0164,-4.37,-37.87,-12.44,214.68,-85.4,-155.95
18373,52.513348,-1.725886,148.35,9.49,6,2.39,24 / 27,2151308,2020-01-08 16:57:06:284,-0.2921,-1.3767,8.7422,0.0044,0.0193,9.8066,-0.0847,-0.0182,-0.0312,-5.0,-38.31,-12.69,217.09,-85.25,-156.21
18374,52.513348,-1.725886,148.35,9.49,6,2.39,24 / 27,2151407,2020-01-08 16:57:06:383,0.2611,-0.4567,10.2556,0.0148,0.0096,9.8066,-0.0341,0.0483,-0.0305,-4.31,-38.06,-12.94,213.95,-85.25,-155.82
18375,52.513348,-1.725886,148.35,9.49,6,2.39,24 / 27,2151508,2020-01-08 16:57:06:484,0.312,-1.3548,9.3918,-0.0073,0.007,9.8065,-0.0294,-0.0146,0.0283,-5.37,-38.12,-12.25,218.84,-85.32,-155.27
18376,52.513348,-1.725886,148.35,9.49,6,2.39,24 / 27,2151608,2020-01-08 16:57:06:584,0.5225,0.2987,11.2821,0.0214,-0.0004,9.8066,0.0655,0.0357,-0.104,-5.0,-38.06,-13.0,217.47,-85.26,-155.77
18377,52.513348,-1.725886,148.35,9.49,6,2.39,24 / 27,2151708,2020-01-08 16:57:06:684,0.089,0.3465,9.3922,-0.0058,0.0543,9.8064,-0.1192,-0.0132,0.1128,-5.87,-37.87,-12.37,220.65,-85.13,-156.99
18378,52.513348,-1.725886,148.35,9.49,6,2.39,24 / 27,2151808,2020-01-08 16:57:06:784,-0.7819,-0.5429,9.7291,-0.0136,-0.0212,9.8065,0.0977,-0.0743,0.0536,-4.25,-37.94,-12.0,214.82,-85.11,-155.3
18379,52.513348,-1.725886,148.35,9.49,6,2.39,25 / 27,2151908,2020-01-08 16:57:06:884,-0.2403,-0.3731,9.4704,-0.0016,0.0173,9.8066,0.0281,-0.0775,0.0532,-5.44,-37.62,-12.44,218.75,-85.19,-155.14
18380,52.513348,-1.725886,148.35,9.49,6,2.39,25 / 27,2152008,2020-01-08 16:57:06:984,-0.1376,-1.0707,9.3924,-0.019,-0.008,9.8066,0.0758,-0.1774,0.1327,-4.56,-37.81,-12.31,218.68,-85.27,-155.36
18381,52.513348,-1.725886,148.35,9.49,6,2.39,25 / 27,2152108,2020-01-08 16:57:07:084,1.0809,-0.6277,10.4145,0.0013,-0.0056,9.8066,0.0055,-0.1422,0.0049,-4.75,-38.0,-12.31,218.93,-85.18,-154.9
18382,52.513348,-1.725886,148.35,9.49,6,2.39,25 / 27,2152207,2020-01-08 16:57:07:183,-1.0425,-0.3125,9.8498,-0.017,-0.0063,9.8066,0.0256,-0.1382,0.0666,-4.44,-37.5,-12.75,214.27,-85.15,-155.48
18383,52.513348,-1.725886,148.35,9.49,6,2.39,25 / 27,2152308,2020-01-08 16:57:07:284,2.0809,-1.2762,9.7426,-0.0247,0.0185,9.8065,-0.0058,-0.2615,0.1483,-4.56,-37.62,-12.37,217.83,-85.11,-156.08
18384,52.513348,-1.725886,148.35,9.49,6,2.39,25 / 27,2152408,2020-01-08 16:57:07:384,-0.8912,0.9576,10.2897,-0.0096,0.0224,9.8065,-0.0712,-0.0976,0.0471,-4.44,-37.37,-12.5,214.81,-85.05,-155.44
18385,52.513348,-1.725886,148.35,9.49,6,2.39,25 / 27,2152508,2020-01-08 16:57:07:484,1.1906,-1.2366,9.5032,-0.0339,0.0108,9.8066,-0.0769,-0.2542,0.2167,-5.25,-37.75,-12.12,217.24,-85.05,-156.68
18386,52.513348,-1.725886,148.35,9.49,6,2.39,25 / 27,2152608,2020-01-08 16:57:07:584,-2.0011,1.7829,10.8316,-0.0074,0.0018,9.8066,0.0317,-0.0668,-0.0235,-3.69,-37.5,-12.5,214.34,-85.04,-155.98
18387,52.513348,-1.725886,148.35,9.49,6,2.39,25 / 27,2152708,2020-01-08 16:57:07:684,1.772,0.0707,9.6718,-0.0385,0.044,9.8064,-0.0753,-0.2308,0.2434,-5.12,-37.75,-12.94,215.8,-84.96,-157.28
18388,52.513348,-1.725886,148.35,9.49,6,2.39,25 / 27,2152807,2020-01-08 16:57:07:783,-0.2863,1.2332,10.7291,-0.0211,0.0089,9.8066,0.0294,-0.0386,0.0931,-4.37,-36.94,-12.69,214.1,-84.9,-155.31
18389,52.513348,-1.725886,148.35,9.49,6,2.39,25 / 27,2152908,2020-01-08 16:57:07:884,1.8462,0.5886,9.7249,-0.0252,0.011,9.8066,-0.0327,-0.249,0.1693,-4.31,-38.19,-12.87,214.35,-84.93,-154.84
18390,52.513348,-1.725886,148.35,9.49,6,2.39,24 / 25,2153008,2020-01-08 16:57:07:984,-2.0739,0.8647,9.8793,-0.0124,-0.0125,9.8066,0.0934,0.1068,-0.0041,-4.69,-37.0,-13.0,217.73,-84.89,-155.07
18391,52.513348,-1.725886,148.35,9.49,6,2.39,24 / 25,2153108,2020-01-08 16:57:08:084,0.5059,0.6946,9.7399,-0.0176,0.0026,9.8066,-0.0147,-0.1508,0.0805,-4.5,-37.19,-12.62,214.1,-84.86,-155.25
18392,52.513348,-1.725886,148.35,9.49,6,2.39,24 / 25,2153207,2020-01-08 16:57:08:183,-1.6236,-0.1662,8.7286,-0.0165,0.0172,9.8066,-0.1603,0.0761,0.1248,-5.12,-36.56,-12.31,218.28,-84.86,-155.36
18393,52.513348,-1.725886,148.35,9.49,6,2.39,24 / 25,2153307,2020-01-08 16:57:08:283,-2.0782,-0.1504,9.6908,0.0041,-0.0063,9.8066,0.071,0.1633,-0.1423,-4.81,-37.5,-12.62,218.49,-84.83,-154.08
18394,52.513348,-1.725886,148.35,9.49,6,2.39,24 / 25,2153408,2020-01-08 16:57:08:384,1.6286,0.0093,10.3524,0.0352,-0.0071,9.8065,0.0308,0.0619,-0.157,-4.56,-37.19,-12.25,217.14,-84.73,-156.5
18395,52.513348,-1.725886,148.35,9.49,6,2.39,24 / 25,2153508,2020-01-08 16:57:08:484,-1.517,-0.7239,9.471,0.0031,0.0021,9.8066,-0.0238,0.1722,0.0184,-4.37,-37.5,-12.62,213.69,-84.73,-155.56
18396,52.513348,-1.725886,148.35,9.49,6,2.39,24 / 25,2153608,2020-01-08 16:57:08:584,2.8512,-0.152,9.5157,-0.0097,-0.0024,9.8066,0.0579,-0.0416,0.1259,-4.44,-37.19,-12.12,215.24,-84.81,-154.52
18397,52.513348,-1.725886,148.35,9.49,6,2.39,24 / 25,2153708,2020-01-08 16:57:08:684,-0.2905,0.9182,10.3069,0.0612,-0.0177,9.8064,0.0937,0.3695,-0.2583,-4.0,-37.12,-12.12,216.01,-84.64,-153.29
18398,52.513348,-1.725886,148.35,9.49,6,2.39,24 / 25,2153808,2020-01-08 16:57:08:784,3.1256,0.0506,9.9344,-0.0092,0.0052,9.8066,0.0106,-0.2518,0.1653,-4.62,-37.25,-12.81,217.22,-84.55,-155.15
18399,52.513348,-1.725886,148.35,9.49,6,2.39,24 / 25,2153908,2020-01-08 16:57:08:884,-0.5697,-0.6266,9.1008,0.0317,0.0036,9.8065,-0.0432,0.0809,-0.0061,-4.37,-37.56,-12.87,214.48,-84.47,-153.96
18400,52.513348,-1.725886,148.35,9.49,6,2.39,25 / 26,2154008,2020-01-08 16:57:08:984,-4.3384,1.4579,9.4176,-0.0638,-0.002,9.8064,0.0307,-0.5206,0.2581,-4.37,-37.44,-12.62,214.97,-84.49,-153.63
18401,52.513348,-1.725886,148.35,9.49,6,2.39,25 / 26,2154108,2020-01-08 16:57:09:084,-0.7509,-0.0354,9.8336,-0.0219,-0.0051,9.8065,-0.0019,-0.364,0.2216,-4.44,-37.37,-12.31,214.09,-84.7,-155.74
18402,52.513348,-1.725886,148.35,9.49,6,2.39,25 / 26,2154210,2020-01-08 16:57:09:186,-3.8293,1.3296,8.7596,-0.0573,-0.0049,9.8064,-0.062,-0.2912,0.1878,-4.94,-37.37,-13.25,216.7,-84.96,-156.42
18403,52.513348,-1.725886,148.35,9.49,6,2.39,25 / 26,2154308,2020-01-08 16:57:09:284,2.6125,-1.5123,10.1596,-0.0387,-0.0134,9.8065,0.034,-0.4421,0.2412,-4.0,-37.69,-12.75,214.94,-85.02,-154.27
18404,52.513348,-1.725886,148.35,9.49,6,2.39,25 / 26,2154408,2020-01-08 16:57:09:384,-2.3981,1.7805,9.2397,-0.0155,0.0182,9.8066,-0.0286,0.0657,0.011,-4.62,-37.37,-12.56,219.04,-84.93,-153.59
18405,52.513348,-1.725886,148.35,9.49,6,2.39,25 / 26,2154508,2020-01-08 16:57:09:484,2.6337,-0.2061,9.6288,-0.0358,-0.0092,9.8065,-0.0619,-0.3026,0.1663,-4.37,-37.12,-13.12,214.55,-84.95,-154.84
18406,52.513348,-1.725886,148.35,9.49,6,2.39,25 / 26,2154609,2020-01-08 16:57:09:585,-1.6502,0.8166,10.278,0.0131,0.0194,9.8066,-0.0499,0.2679,-0.1636,-4.31,-37.25,-12.44,215.78,-85.01,-154.19
18407,52.513348,-1.725886,148.35,9.49,6,2.39,25 / 26,2154708,2020-01-08 16:57:09:684,-1.7569,1.214,8.9001,-0.0259,0.0201,9.8065,-0.0346,-0.023,0.0379,-4.19,-37.44,-12.75,213.85,-84.95,-155.68
18408,52.513348,-1.725886,148.35,9.49,6,2.39,25 / 26,2154808,2020-01-08 16:57:09:784,-2.3174,1.3274,10.5054,0.0443,-0.0034,9.8065,0.0233,0.4225,-0.2571,-4.81,-37.5,-12.87,218.89,-84.82,-153.59
18409,52.513348,-1.725886,148.35,9.49,6,2.39,23 / 24,2154908,2020-01-08 16:57:09:884,-1.6827,-0.3702,8.7336,0.0042,0.0297,9.8065,-0.1329,0.229,-0.0968,-4.5,-37.94,-12.62,214.09,-84.88,-155.09
18410,52.514164,-1.725834,149.57,8.84,6,0.72,23 / 24,2155008,2020-01-08 16:57:09:984,2.304,-1.2985,10.6785,-0.0073,-0.0269,9.8065,0.1898,0.2485,-0.2079,-6.06,-38.25,-12.37,223.04,-84.85,-153.63
18411,52.514164,-1.725834,149.57,8.84,6,0.72,23 / 24,2155108,2020-01-08 16:57:10:084,-1.6908,0.4828,10.4169,0.0196,0.0106,9.8066,-0.047,0.0846,-0.1002,-5.12,-38.25,-11.87,217.99,-84.95,-155.62
18412,52.514164,-1.725834,149.57,8.84,6,0.72,23 / 24,2155208,2020-01-08 16:57:10:184,0.2093,-0.3947,10.7626,0.0012,-0.0245,9.8065,0.1314,-0.0596,-0.0153,-4.87,-37.94,-12.25,218.91,-85.1,-154.77
18413,52.514164,-1.725834,149.57,8.84,6,0.72,23 / 24,2155308,2020-01-08 16:57:10:284,-0.0482,-0.2571,9.4313,-0.0005,0.0201,9.8066,-0.0365,-0.0174,0.0097,-4.69,-37.0,-12.25,218.5,-84.97,-155.27
18414,52.514164,-1.725834,149.57,8.84,6,0.72,23 / 24,2155408,2020-01-08 16:57:10:384,0.8297,-1.1228,9.9192,0.0125,-0.0065,9.8066,0.0249,0.0913,-0.0851,-4.19,-37.62,-12.19,215.05,-85.05,-154.9
18415,52.514164,-1.725834,149.57,8.84,6,0.72,23 / 24,2155508,2020-01-08 16:57:10:484,0.7552,-0.5318,10.1979,0.0018,0.0071,9.8066,-0.016,0.021,0.006,-4.81,-36.87,-12.62,218.07,-85.03,-154.9
18416,52.514164,-1.725834,149.57,8.84,6,0.72,23 / 24,2155607,2020-01-08 16:57:10:583,-0.7892,0.3306,10.0178,-0.0032,0.0187,9.8066,-0.0081,-0.001,-0.0201,-4.06,-37.62,-12.69,214.44,-85.01,-154.86
18417,52.514164,-1.725834,149.57,8.84,6,0.72,23 / 24,2155708,2020-01-08 16:57:10:684,-0.3782,0.2237,9.1048,-0.0179,0.0152,9.8066,-0.0261,-0.063,0.0138,-4.62,-37.06,-12.44,217.43,-84.96,-156.55
18418,52.514164,-1.725834,149.57,8.84,6,0.72,23 / 24,2155808,2020-01-08 16:57:10:784,-0.6918,0.9678,10.0768,0.0067,-0.0124,9.8066,-0.0092,0.0877,-0.08,-4.25,-37.81,-13.0,213.93,-85.04,-155.52
18419,52.514164,-1.725834,149.57,8.84,6,0.72,23 / 24,2155908,2020-01-08 16:57:10:884,-0.2982,-0.5486,9.2914,-0.007,-0.0322,9.8065,-0.0909,0.0057,0.0605,-5.0,-36.12,-12.81,218.5,-85.18,-154.86
18420,52.514164,-1.725834,149.57,8.84,6,0.72,25 / 26,2156008,2020-01-08 16:57:10:984,0.9103,-0.4008,9.2638,-0.0192,-0.0137,9.8066,0.0637,0.1364,-0.0088,-4.12,-36.75,-12.94,215.8,-85.46,-154.15
18421,52.514164,-1.725834,149.57,8.84,6,0.72,25 / 26,2156108,2020-01-08 16:57:11:084,0.3223,-0.0602,9.6953,-0.0365,0.0105,9.8065,-0.0151,0.148,-0.2392,-4.81,-35.81,-12.25,219.42,-85.44,-155.25
18422,52.514164,-1.725834,149.57,8.84,6,0.72,25 / 26,2156208,2020-01-08 16:57:11:184,0.1742,-0.9529,9.795,0.002,0.0013,9.8066,-0.0025,0.08,0.0024,-3.75,-35.87,-11.75,217.03,-85.29,-153.41
18423,52.514164,-1.725834,149.57,8.84,6,0.72,25 / 26,2156308,2020-01-08 16:57:11:284,0.3498,-0.1246,9.6776,0.0103,-0.0086,9.8066,-0.042,0.0342,-0.0096,-4.06,-35.56,-12.5,216.28,-85.32,-154.34
18424,52.514164,-1.725834,149.57,8.84,6,0.72,25 / 26,2156408,2020-01-08 16:57:11:384,0.7253,-1.2996,9.2875,-0.0009,-0.0079,9.8066,-0.0921,-0.1039,0.0571,-2.87,-36.25,-12.06,213.79,-85.34,-152.76
18425,52.514164,-1.725834,149.57,8.84,6,0.72,25 / 26,2156508,2020-01-08 16:57:11:484,-0.2379,0.2764,10.0707,0.0249,-0.0185,9.8065,0.0382,0.0573,0.0277,-3.19,-36.37,-13.19,213.68,-85.42,-152.52
18426,52.514164,-1.725834,149.57,8.84,6,0.72,25 / 26,2156608,2020-01-08 16:57:11:584,-0.9642,0.7066,10.5332,-0.0075,0.0116,9.8066,-0.1355,-0.1799,0.1353,-3.12,-36.31,-12.31,214.85,-85.4,-151.59
18427,52.514164,-1.725834,149.57,8.84,6,0.72,25 / 26,2156708,2020-01-08 16:57:11:684,-1.6532,0.4167,10.7966,0.0131,-0.0161,9.8066,-0.0035,0.0117,-0.0056,-3.56,-36.69,-13.62,218.77,-85.35,-149.85
18428,52.514164,-1.725834,149.57,8.84,6,0.72,25 / 26,2156807,2020-01-08 16:57:11:783,0.3363,-0.0123,9.3304,-0.007,0.0091,9.8066,-0.0915,-0.2308,0.2508,-4.06,-37.06,-13.12,217.64,-85.38,-151.85
18429,52.514164,-1.725834,149.57,8.84,6,0.72,25 / 26,2156908,2020-01-08 16:57:11:884,2.1183,-0.4628,9.7522,0.0374,-0.0126,9.8065,0.0326,0.0316,-0.066,-3.75,-37.12,-12.87,216.28,-85.35,-153.4
18430,52.514164,-1.725834,149.57,8.84,6,0.72,23 / 25,2157008,2020-01-08 16:57:11:984,1.2194,-0.9231,9.1261,-0.015,0.015,9.8066,-0.1076,-0.2348,0.1208,-4.5,-37.44,-12.75,217.55,-85.23,-151.72
18431,52.514164,-1.725834,149.57,8.84,6,0.72,23 / 25,2157108,2020-01-08 16:57:12:084,1.2077,-1.2044,9.8798,0.0229,-0.0119,9.8065,-0.0012,-0.1566,0.076,-4.25,-38.0,-13.0,217.38,-85.14,-151.55
18432,52.514164,-1.725834,149.57,8.84,6,0.72,23 / 25,2157208,2020-01-08 16:57:12:184,-1.7929,0.5175,9.8862,0.0157,-0.0121,9.8066,-0.0316,-0.2276,0.1132,-4.94,-37.87,-13.06,220.56,-85.14,-151.93
18433,52.514164,-1.725834,149.57,8.84,6,0.72,23 / 25,2157308,2020-01-08 16:57:12:284,0.0366,0.3426,10.4029,0.0332,-0.02,9.8065,-0.0378,-0.2482,0.1565,-4.06,-37.69,-12.56,215.42,-85.24,-154.05
18434,52.514164,-1.725834,149.57,8.84,6,0.72,23 / 25,2157407,2020-01-08 16:57:12:383,-1.5712,0.0393,9.9758,0.0157,-0.0054,9.8066,-0.0419,-0.2293,0.1435,-4.87,-37.37,-12.75,221.11,-85.27,-151.73
18435,52.514164,-1.725834,149.57,8.84,6,0.72,23 / 25,2157507,2020-01-08 16:57:12:483,1.3282,-0.9161,9.2013,0.0205,-0.017,9.8066,0.0031,-0.166,0.0703,-4.56,-37.5,-12.81,220.35,-85.36,-152.77
18436,52.514164,-1.725834,149.57,8.84,6,0.72,23 / 25,2157609,2020-01-08 16:57:12:585,-0.043,-1.0967,9.1411,0.0148,-0.0024,9.8066,-0.0573,-0.1978,0.113,-4.12,-38.44,-12.81,217.92,-85.35,-151.26
18437,52.514164,-1.725834,149.57,8.84,6,0.72,23 / 25,2157708,2020-01-08 16:57:12:684,1.2126,-0.4815,10.2535,0.0241,-0.0181,9.8065,0.0003,-0.144,0.1092,-4.75,-38.12,-12.69,219.93,-85.38,-153.07
18438,52.514164,-1.725834,149.57,8.84,6,0.72,23 / 25,2157807,2020-01-08 16:57:12:783,-0.8758,-0.1699,10.2266,0.0091,-0.0004,9.8066,-0.0678,-0.0727,0.039,-4.69,-37.62,-12.62,221.03,-85.41,-151.86
18439,52.514164,-1.725834,149.57,8.84,6,0.72,24 / 25,2157908,2020-01-08 16:57:12:884,-0.0897,-0.8933,10.0713,0.0097,-0.013,9.8066,-0.0002,-0.0306,0.0443,-3.87,-37.37,-12.87,217.26,-85.43,-152.39
18440,52.514164,-1.725834,149.57,8.84,6,0.72,24 / 25,2158008,2020-01-08 16:57:12:984,-0.3693,-0.9134,9.0565,-0.0056,0.0073,9.8065,-0.0338,-0.0569,0.0329,-5.0,-37.12,-12.44,221.84,-85.51,-152.31
18441,52.514164,-1.725834,149.57,8.84,6,0.72,24 / 25,2158107,2020-01-08 16:57:13:083,0.3419,-0.8578,9.8151,0.0023,-0.0091,9.8066,0.0559,0.0359,0.0204,-4.44,-37.69,-13.12,218.31,-85.52,-151.09
18442,52.514164,-1.725834,149.57,8.84,6,0.72,24 / 25,2158208,2020-01-08 16:57:13:184,0.0565,-1.2772,9.3248,-0.0052,0.015,9.8066,-0.0591,-0.0561,0.0243,-4.62,-37.19,-12.37,221.74,-85.51,-152.44
18443,52.514164,-1.725834,149.57,8.84,6,0.72,24 / 25,2158308,2020-01-08 16:57:13:284,-0.2214,-0.4008,10.3141,0.0049,-0.0058,9.8066,0.0438,0.0107,0.0,-4.56,-37.69,-12.56,221.17,-85.54,-151.91
18444,52.514164,-1.725834,149.57,8.84,6,0.72,24 / 25,2158408,2020-01-08 16:57:13:384,-0.3843,-1.4635,9.469,-0.01,0.0056,9.8065,0.0424,-0.0586,0.0136,-4.94,-37.94,-12.94,221.62,-85.66,-151.6
18445,52.514164,-1.725834,149.57,8.84,6,0.72,24 / 25,2158507,2020-01-08 16:57:13:483,-0.861,-0.2745,10.3912,0.0008,0.0113,9.8066,0.0699,0.022,-0.0323,-4.06,-37.69,-12.37,219.2,-85.74,-151.2
18446,52.514164,-1.725834,149.57,8.84,6,0.72,24 / 25,2158608,2020-01-08 16:57:13:584,-0.1677,-0.7211,8.9709,-0.0007,0.0247,9.8066,-0.0183,-0.1348,0.1071,-4.31,-37.56,-12.75,218.06,-85.64,-151.6
18447,52.514164,-1.725834,149.57,8.84,6,0.72,24 / 25,2158707,2020-01-08 16:57:13:683,0.6912,-1.246,9.5787,0.0131,-0.004,9.8066,0.0953,0.021,-0.0372,-4.19,-37.44,-13.19,218.62,-85.68,-151.2
18448,52.514164,-1.725834,149.57,8.84,6,0.72,24 / 25,2158808,2020-01-08 16:57:13:784,0.7841,-2.0489,8.7977,0.0025,0.0226,9.8066,-0.0785,-0.2217,0.1202,-4.25,-38.06,-12.12,217.91,-85.61,-152.48
18449,52.514164,-1.725834,149.57,8.84,6,0.72,24 / 25,2158908,2020-01-08 16:57:13:884,0.9679,-1.2174,10.8919,0.0388,-0.0188,9.8065,0.0561,-0.1193,0.1074,-4.87,-38.0,-12.81,221.37,-85.74,-152.04
18450,52.514164,-1.725834,149.57,8.84,6,0.72,25 / 26,2159008,2020-01-08 16:57:13:984,-1.8833,-1.7228,10.0191,0.0019,0.0118,9.8066,-0.0912,-0.1435,0.1328,-4.87,-37.44,-12.87,222.96,-85.78,-150.49
18451,52.514164,-1.725834,149.57,8.84,6,0.72,25 / 26,2159108,2020-01-08 16:57:14:084,0.8704,-3.044,9.3465,0.0212,-0.0063,9.8066,0.0852,-0.0639,0.0207,-4.31,-37.62,-12.19,220.38,-85.91,-150.14
18452,52.514164,-1.725834,149.57,8.84,6,0.72,25 / 26,2159208,2020-01-08 16:57:14:184,1.016,-2.986,9.0322,0.01,0.0229,9.8065,-0.0652,-0.2893,0.1707,-4.19,-37.44,-13.25,220.31,-85.85,-149.55
18453,52.514164,-1.725834,149.57,8.84,6,0.72,25 / 26,2159308,2020-01-08 16:57:14:284,1.2349,-1.6142,10.3675,0.0419,-0.0147,9.8065,0.0696,-0.2022,0.1215,-4.56,-37.37,-12.56,225.66,-85.86,-147.56
18454,52.514164,-1.725834,149.57,8.84,6,0.72,25 / 26,2159408,2020-01-08 16:57:14:384,-2.1612,-1.22,10.1761,0.0207,0.0132,9.8065,-0.0316,-0.1956,0.0932,-4.69,-37.75,-12.5,225.52,-85.86,-148.49
18455,52.514164,-1.725834,149.57,8.84,6,0.72,25 / 26,2159508,2020-01-08 16:57:14:484,0.1885,-0.7871,10.2739,0.0248,0.0021,9.8066,0.0193,-0.2308,0.1171,-4.81,-37.56,-12.56,224.72,-85.93,-148.55
18456,52.514164,-1.725834,149.57,8.84,6,0.72,25 / 26,2159608,2020-01-08 16:57:14:584,-1.5332,-0.0362,9.6136,0.0241,0.0133,9.8066,0.0239,0.0375,-0.043,-4.81,-37.12,-12.12,225.37,-85.75,-148.69
18457,52.514164,-1.725834,149.57,8.84,6,0.72,25 / 26,2159708,2020-01-08 16:57:14:684,0.4538,-0.8795,10.0119,-0.0015,0.0008,9.8066,0.0284,-0.0887,0.0855,-4.06,-37.25,-13.31,219.94,-85.72,-149.73
18458,52.514164,-1.725834,149.57,8.84,6,0.72,25 / 26,2159808,2020-01-08 16:57:14:784,-0.2715,-0.7061,9.827,0.0105,0.0041,9.8066,-0.0073,0.0125,0.0209,-3.5,-37.87,-12.19,216.48,-85.69,-149.74
18459,52.514164,-1.725834,149.57,8.84,6,0.72,25 / 26,2159908,2020-01-08 16:57:14:884,0.1705,-0.3276,9.754,0.0013,-0.0024,9.8066,-0.0077,-0.0223,0.0011,-5.0,-37.56,-12.87,223.23,-85.71,-149.84
18460,52.514164,-1.725834,149.57,8.84,6,0.72,23 / 25,2160008,2020-01-08 16:57:14:984,-0.7169,0.1518,10.1762,0.0022,-0.0065,9.8066,0.0048,0.0166,-0.005,-4.25,-37.56,-12.0,220.16,-85.74,-150.08
18461,52.514164,-1.725834,149.57,8.84,6,0.72,23 / 25,2160107,2020-01-08 16:57:15:083,-0.4394,-0.4061,9.7478,-0.0095,-0.0064,9.8066,-0.038,-0.0371,0.0076,-3.62,-37.87,-12.5,219.57,-85.72,-150.73
18462,52.514164,-1.725834,149.57,8.84,6,0.72,23 / 25,2160208,2020-01-08 16:57:15:184,-0.6103,0.5747,9.9042,-0.0019,-0.0085,9.8066,0.0175,0.0789,-0.0518,-4.19,-37.69,-12.56,218.63,-85.8,-151.2
18463,52.514164,-1.725834,149.57,8.84,6,0.72,23 / 25,2160308,2020-01-08 16:57:15:284,-0.1302,-0.2646,9.1304,-0.0041,-0.007,9.8066,-0.0388,0.0086,-0.0033,-4.87,-37.94,-12.87,221.21,-85.84,-152.4
18464,52.514164,-1.725834,149.57,8.84,6,0.72,23 / 25,2160408,2020-01-08 16:57:15:384,0.5306,-0.1277,10.0606,0.0064,-0.0078,9.8066,-0.0185,0.0883,-0.0572,-4.25,-37.56,-12.44,219.2,-85.8,-151.31
18465,52.514164,-1.725834,149.57,8.84,6,0.72,23 / 25,2160507,2020-01-08 16:57:15:483,0.7135,0.0677,10.2242,-0.0114,-0.007,9.8066,0.0285,0.029,0.0121,-3.69,-37.87,-12.62,219.14,-85.8,-150.6
18466,52.514164,-1.725834,149.57,8.84,6,0.72,23 / 25,2160607,2020-01-08 16:57:15:583,0.4118,-0.3433,9.6815,-0.0022,-0.001,9.8066,-0.0326,0.0821,-0.0182,-4.81,-37.56,-12.25,223.46,-85.9,-150.94
18467,52.514164,-1.725834,149.57,8.84,6,0.72,23 / 25,2160707,2020-01-08 16:57:15:683,-0.89,-0.0044,9.7709,-0.022,-0.0122,9.8066,-0.0171,0.0616,-0.0964,-4.31,-37.56,-12.19,219.93,-85.97,-150.76
18468,52.514164,-1.725834,149.57,8.84,6,0.72,23 / 25,2160808,2020-01-08 16:57:15:784,-0.023,-0.2203,9.5982,-0.0011,-0.0059,9.8066,-0.0377,0.0525,-0.0222,-4.75,-37.06,-12.25,225.19,-86.18,-149.76
18469,52.514164,-1.725834,149.57,8.84,6,0.72,23 / 25,2160908,2020-01-08 16:57:15:884,-0.377,-0.3806,9.8148,0.002,-0.0048,9.8066,-0.0157,0.0583,-0.002,-4.5,-37.31,-12.19,222.04,-86.23,-149.05
18470,52.514164,-1.725834,149.57,8.84,6,0.72,23 / 24,2161008,2020-01-08 16:57:15:984,0.2158,-0.1976,10.0484,-0.005,-0.0047,9.8066,0.0035,-0.021,-0.0107,-5.56,-37.31,-13.06,229.03,-86.22,-148.41
18471,52.514164,-1.725834,149.57,8.84,6,0.72,23 / 24,2161107,2020-01-08 16:57:16:083,-0.1445,-0.2941,9.8202,0.0033,-0.0068,9.8065,-0.0235,-0.0051,-0.0009,-4.62,-37.44,-12.56,225.81,-86.19,-148.01
18472,52.514164,-1.725834,149.57,8.84,6,0.72,23 / 24,2161208,2020-01-08 16:57:16:184,0.4582,0.238,9.9199,-0.0011,-0.0014,9.8066,-0.0225,0.0077,-0.0218,-4.62,-38.0,-12.31,227.35,-86.2,-147.12
18473,52.514164,-1.725834,149.57,8.84,6,0.72,23 / 24,2161307,2020-01-08 16:57:16:283,-0.0453,-0.0755,9.6747,0.0001,-0.0037,9.8066,-0.0294,0.0205,-0.0031,-4.5,-37.75,-13.12,223.95,-86.27,-145.96
18474,52.514164,-1.725834,149.57,8.84,6,0.72,23 / 24,2161408,2020-01-08 16:57:16:384,0.1796,0.0622,9.9169,-0.0032,-0.0059,9.8066,-0.005,0.0004,-0.026,-4.87,-37.94,-12.62,227.82,-86.29,-145.75
18475,52.514164,-1.725834,149.57,8.84,6,0.72,23 / 24,2161507,2020-01-08 16:57:16:483,-0.3202,-0.6529,9.7707,0.0033,-0.0009,9.8066,0.008,0.0199,0.0068,-4.37,-38.12,-12.75,223.45,-86.28,-146.54
18476,52.514164,-1.725834,149.57,8.84,6,0.72,23 / 24,2161608,2020-01-08 16:57:16:584,-0.5108,-0.3012,9.7355,0.0017,0.0,9.8066,0.012,-0.0804,0.0513,-4.69,-37.12,-12.69,227.13,-86.24,-146.62
18477,52.514164,-1.725834,149.57,8.84,6,0.72,23 / 24,2161708,2020-01-08 16:57:16:684,-0.6413,-0.2083,9.8588,0.0064,0.0019,9.8066,0.035,0.0262,-0.0199,-4.56,-37.25,-12.75,227.08,-86.25,-146.7
18478,52.514164,-1.725834,149.57,8.84,6,0.72,23 / 24,2161808,2020-01-08 16:57:16:784,0.5076,0.0649,9.5662,-0.0081,0.0089,9.8066,-0.0269,-0.0427,0.0185,-4.62,-37.37,-12.62,226.94,-86.26,-146.87
18479,52.514164,-1.725834,149.57,8.84,6,0.72,23 / 24,2161908,2020-01-08 16:57:16:884,0.1568,0.2327,9.8194,0.0005,-0.0004,9.8066,0.0227,0.0519,-0.0219,-5.06,-37.56,-12.75,227.18,-86.31,-146.5
18480,52.514164,-1.725834,149.57,8.84,6,0.72,24 / 26,2162008,2020-01-08 16:57:16:984,0.4033,0.3,9.621,-0.0011,0.0037,9.8066,-0.0061,-0.0236,0.0109,-4.56,-37.75,-12.5,229.1,-86.38,-145.55
18481,52.514164,-1.725834,149.57,8.84,6,0.72,24 / 26,2162108,2020-01-08 16:57:17:084,0.2951,-0.178,10.0236,-0.001,-0.0027,9.8066,-0.0154,-0.0318,0.0101,-4.0,-38.06,-12.56,224.24,-86.39,-145.86
18482,52.514164,-1.725834,149.57,8.84,6,0.72,24 / 26,2162207,2020-01-08 16:57:17:183,-0.1381,-0.0525,9.7461,-0.0009,-0.0025,9.8066,-0.0125,-0.006,0.0328,-4.5,-38.0,-12.31,225.27,-86.38,-145.47
18483,52.514164,-1.725834,149.57,8.84,6,0.72,24 / 26,2162308,2020-01-08 16:57:17:284,0.4976,0.1229,9.7718,-0.0048,0.0043,9.8066,-0.0032,-0.0372,0.0105,-4.75,-37.81,-12.19,229.36,-86.38,-145.26
18484,52.514164,-1.725834,149.57,8.84,6,0.72,24 / 26,2162408,2020-01-08 16:57:17:384,-0.3539,0.0169,10.0333,0.006,-0.0022,9.8066,0.0114,0.0638,-0.0401,-4.44,-37.56,-12.12,226.33,-86.43,-144.37
18485,52.514164,-1.725834,149.57,8.84,6,0.72,24 / 26,2162507,2020-01-08 16:57:17:483,-0.2941,0.0873,9.872,-0.0109,-0.0021,9.8066,-0.0086,-0.0756,0.0379,-4.69,-37.62,-12.75,229.53,-86.45,-144.18
18486,52.514164,-1.725834,149.57,8.84,6,0.72,24 / 26,2162608,2020-01-08 16:57:17:584,-0.3622,0.1138,9.8293,0.0062,-0.0085,9.8066,-0.0024,0.0204,-0.0388,-4.69,-37.56,-12.19,231.18,-86.44,-143.37
18487,52.514164,-1.725834,149.57,8.84,6,0.72,24 / 26,2162707,2020-01-08 16:57:17:683,0.7635,-0.6234,9.6699,-0.0071,0.0086,9.8066,-0.0202,-0.0535,0.053,-4.75,-37.5,-12.56,230.96,-86.45,-142.78
18488,52.514164,-1.725834,149.57,8.84,6,0.72,24 / 26,2162810,2020-01-08 16:57:17:786,0.2201,0.6022,10.2905,-0.0036,0.0081,9.8065,-0.0005,-0.0165,-0.0423,-5.37,-37.87,-12.44,231.4,-86.48,-143.19
18489,52.514164,-1.725834,149.57,8.84,6,0.72,23 / 26,2162908,2020-01-08 16:57:17:884,0.4023,0.885,9.9374,-0.0236,0.0103,9.8066,0.0546,-0.0427,0.0369,-4.62,-37.19,-12.81,229.03,-86.53,-145.07
18490,52.514164,-1.725834,149.57,8.84,6,0.72,23 / 26,2163008,2020-01-08 16:57:17:984,-0.4081,0.1664,9.4418,0.0041,0.0059,9.8066,0.0215,0.035,-0.0392,-3.94,-37.25,-12.25,224.65,-86.47,-146.56
18491,52.514164,-1.725834,149.57,8.84,6,0.72,23 / 26,2163108,2020-01-08 16:57:18:084,-0.1602,0.0172,9.602,-0.0047,-0.009,9.8066,0.0185,-0.0267,0.0633,-4.62,-37.81,-12.25,228.11,-86.43,-146.77
18492,52.514164,-1.725834,149.57,8.84,6,0.72,23 / 26,2163208,2020-01-08 16:57:18:184,0.0751,0.4959,9.9148,0.0054,-0.008,9.8066,0.023,0.0345,-0.0277,-4.56,-37.5,-12.69,228.57,-86.35,-145.23
18493,52.514164,-1.725834,149.57,8.84,6,0.72,23 / 26,2163308,2020-01-08 16:57:18:284,0.2841,0.9622,9.9149,-0.0013,0.0003,9.8066,-0.0138,0.0201,0.0268,-4.56,-37.31,-12.12,229.85,-86.34,-144.84
18494,52.514164,-1.725834,149.57,8.84,6,0.72,23 / 26,2163408,2020-01-08 16:57:18:384,0.7798,-0.0736,10.1626,0.0044,-0.0028,9.8066,-0.0047,0.053,-0.042,-4.69,-37.19,-12.19,230.74,-86.33,-143.82
18495,52.514164,-1.725834,149.57,8.84,6,0.72,23 / 26,2163508,2020-01-08 16:57:18:484,-0.2162,0.2304,9.8299,0.003,0.001,9.8066,-0.0143,0.1184,-0.0538,-4.37,-38.0,-12.69,225.89,-86.39,-144.01
18496,52.514164,-1.725834,149.57,8.84,6,0.72,23 / 26,2163608,2020-01-08 16:57:18:584,1.0925,0.0606,9.8921,0.0001,-0.0084,9.8065,0.0056,0.021,-0.0161,-4.37,-37.44,-12.56,226.76,-86.52,-143.48
18497,52.514164,-1.725834,149.57,8.84,6,0.72,23 / 26,2163708,2020-01-08 16:57:18:684,-0.5873,0.0849,9.6712,0.0134,-0.0072,9.8066,0.0004,0.0837,-0.0425,-4.62,-37.25,-12.56,231.61,-86.62,-142.41
18498,52.514164,-1.725834,149.57,8.84,6,0.72,23 / 26,2163807,2020-01-08 16:57:18:783,0.9081,-0.1788,9.8916,0.0029,-0.0032,9.8066,0.0146,-0.0438,0.0365,-4.0,-37.69,-13.0,228.85,-86.59,-141.12
18499,52.514164,-1.725834,149.57,8.84,6,0.72,23 / 26,2163908,2020-01-08 16:57:18:884,-0.2905,0.6432,9.8736,0.019,-0.0043,9.8065,0.015,0.0984,-0.0896,-4.31,-37.06,-13.0,229.53,-86.5,-140.36
18500,52.51467,-1.725823,150.35,3.91,6,0.86,23 / 26,2164007,2020-01-08 16:57:18:983,0.4779,0.4504,9.5404,0.009,-0.0059,9.8066,0.0142,-0.039,0.0089,-4.5,-37.69,-13.0,228.74,-86.56,-141.16
18501,52.51467,-1.725823,150.35,3.91,6,0.86,23 / 26,2164108,2020-01-08 16:57:19:084,-1.2615,0.37,9.5032,0.013,0.0015,9.8066,0.0068,0.1321,-0.0967,-4.62,-36.87,-13.37,233.88,-86.52,-139.71
18502,52.51467,-1.725823,150.35,3.91,6,0.86,23 / 26,2164207,2020-01-08 16:57:19:183,0.8963,-0.3272,10.276,0.0074,-0.0067,9.8066,0.061,-0.0961,-0.03,-4.37,-37.5,-12.31,230.48,-86.62,-140.35
18503,52.51467,-1.725823,150.35,3.91,6,0.86,23 / 26,2164308,2020-01-08 16:57:19:284,0.6291,0.1769,10.1819,0.0026,-0.0033,9.8066,0.0007,0.0269,0.0148,-4.37,-37.5,-12.31,231.08,-86.65,-139.76
18504,52.51467,-1.725823,150.35,3.91,6,0.86,23 / 26,2164407,2020-01-08 16:57:19:383,1.0425,-0.1565,10.0917,-0.0173,-0.0139,9.8066,0.0192,-0.1255,0.0742,-4.37,-36.87,-12.19,231.43,-86.73,-139.54
18505,52.51467,-1.725823,150.35,3.91,6,0.86,23 / 26,2164508,2020-01-08 16:57:19:484,0.4979,0.6322,10.1217,0.0065,0.0002,9.8066,0.0041,-0.0445,0.0167,-3.94,-37.12,-12.5,231.46,-86.65,-139.34
18506,52.51467,-1.725823,150.35,3.91,6,0.86,23 / 26,2164608,2020-01-08 16:57:19:584,-0.761,0.4191,9.4562,-0.0161,0.0024,9.8066,0.034,-0.1193,0.0817,-4.94,-37.31,-12.69,234.6,-86.62,-139.14
18507,52.51467,-1.725823,150.35,3.91,6,0.86,23 / 26,2164707,2020-01-08 16:57:19:683,0.2214,0.6505,9.7663,0.003,0.0058,9.8066,0.0471,-0.0735,0.0287,-4.44,-37.06,-12.37,230.37,-86.58,-140.39
18508,52.51467,-1.725823,150.35,3.91,6,0.86,23 / 26,2164808,2020-01-08 16:57:19:784,-0.217,0.3433,9.5326,-0.0109,-0.0071,9.8066,0.0528,-0.0262,0.0277,-4.37,-36.62,-12.37,229.89,-86.51,-140.77
18509,52.51467,-1.725823,150.35,3.91,6,0.86,24 / 25,2164907,2020-01-08 16:57:19:883,-0.0421,0.0252,10.1202,-0.0089,-0.0081,9.8066,0.0258,-0.0512,0.0006,-4.0,-37.19,-12.06,229.29,-86.58,-141.59
18510,52.51467,-1.725823,150.35,3.91,6,0.86,24 / 25,2165008,2020-01-08 16:57:19:984,-0.0745,0.3414,9.7433,0.0016,-0.0142,9.8066,-0.0117,-0.0115,-0.0116,-4.37,-37.06,-12.69,229.12,-86.6,-141.03
18511,52.51467,-1.725823,150.35,3.91,6,0.86,24 / 25,2165108,2020-01-08 16:57:20:084,0.9634,0.0694,9.9131,-0.0171,0.0035,9.8066,-0.0277,-0.0885,0.059,-3.81,-37.25,-11.87,229.46,-86.66,-141.59
18512,52.51467,-1.725823,150.35,3.91,6,0.86,24 / 25,2165208,2020-01-08 16:57:20:184,0.3962,0.8402,9.9796,-0.004,-0.0017,9.8066,-0.0242,0.058,-0.0315,-4.31,-37.19,-12.56,230.49,-86.73,-139.78
18513,52.51467,-1.725823,150.35,3.91,6,0.86,24 / 25,2165308,2020-01-08 16:57:20:284,0.4579,0.5974,9.4408,-0.0064,-0.0044,9.8066,-0.0082,0.0055,0.005,-4.37,-37.25,-12.87,231.3,-86.85,-139.14
18514,52.51467,-1.725823,150.35,3.91,6,0.86,24 / 25,2165408,2020-01-08 16:57:20:384,-0.1068,0.1589,9.9434,0.0083,-0.0144,9.8066,0.0191,0.0881,-0.0613,-4.44,-37.69,-12.12,232.69,-86.89,-138.33
18515,52.51467,-1.725823,150.35,3.91,6,0.86,24 / 25,2165508,2020-01-08 16:57:20:484,-0.2793,0.1114,10.0615,-0.0115,-0.0062,9.8066,-0.012,-0.0008,0.0234,-4.75,-37.19,-12.62,237.64,-86.99,-136.66
18516,52.51467,-1.725823,150.35,3.91,6,0.86,24 / 25,2165608,2020-01-08 16:57:20:584,-0.926,0.3888,9.5469,0.0156,0.0028,9.8066,-0.0328,0.1141,-0.1098,-4.37,-37.37,-12.69,234.53,-86.94,-135.81
18517,52.51467,-1.725823,150.35,3.91,6,0.86,24 / 25,2165708,2020-01-08 16:57:20:684,0.0625,0.0417,9.3835,-0.0043,0.013,9.8065,-0.0528,0.0483,0.0263,-4.31,-37.31,-12.94,233.39,-87.0,-137.18
18518,52.51467,-1.725823,150.35,3.91,6,0.86,24 / 25,2165809,2020-01-08 16:57:20:785,1.0059,0.6325,10.5274,0.0164,0.0125,9.8066,-0.0475,0.0837,-0.0298,-4.44,-37.87,-13.06,234.99,-87.04,-135.37
18519,52.51467,-1.725823,150.35,3.91,6,0.86,24 / 25,2165908,2020-01-08 16:57:20:884,0.4763,1.292,10.0316,0.0009,-0.0026,9.8066,-0.0103,0.0685,-0.013,-4.56,-37.37,-13.25,239.7,-86.98,-134.43
18520,52.51467,-1.725823,150.35,3.91,6,0.86,24 / 25,2166008,2020-01-08 16:57:20:984,0.143,0.5115,9.8361,-0.003,0.0103,9.8066,0.0009,0.0191,0.0318,-4.62,-37.25,-12.87,239.23,-86.93,-134.82
18521,52.51467,-1.725823,150.35,3.91,6,0.86,24 / 25,2166108,2020-01-08 16:57:21:084,0.6433,0.7909,9.5944,0.0028,0.0014,9.8066,0.0038,-0.0398,-0.0156,-4.75,-37.37,-13.06,237.76,-86.87,-136.25
18522,52.51467,-1.725823,150.35,3.91,6,0.86,24 / 25,2166208,2020-01-08 16:57:21:184,-0.0703,0.4,9.8794,-0.0091,-0.0025,9.8066,-0.0516,0.0198,0.0053,-4.62,-37.19,-12.69,238.18,-87.03,-136.16
18523,52.51467,-1.725823,150.35,3.91,6,0.86,24 / 25,2166307,2020-01-08 16:57:21:283,0.7214,2.8936,9.4173,-0.0033,-0.0044,9.8066,-0.0614,-0.0518,-0.0029,-3.81,-37.19,-12.0,236.95,-87.13,-134.47
18524,52.51467,-1.725823,150.35,3.91,6,0.86,24 / 25,2166408,2020-01-08 16:57:21:384,0.3163,1.7774,10.0828,0.0055,-0.0007,9.8066,-0.0091,0.0493,-0.0006,-3.69,-37.56,-11.87,238.42,-87.23,-132.94
18525,52.51467,-1.725823,150.35,3.91,6,0.86,24 / 25,2166507,2020-01-08 16:57:21:483,0.7846,3.6881,9.4936,-0.0009,0.0017,9.8066,0.0045,0.0351,0.0195,-4.37,-37.25,-12.44,239.54,-87.16,-131.75
18526,52.51467,-1.725823,150.35,3.91,6,0.86,24 / 25,2166607,2020-01-08 16:57:21:583,0.9865,2.8033,10.1273,0.0099,0.0136,9.8066,0.0199,-0.0177,-0.0146,-4.5,-37.0,-12.12,238.78,-87.05,-132.28
18527,52.51467,-1.725823,150.35,3.91,6,0.86,24 / 25,2166708,2020-01-08 16:57:21:684,0.7711,1.1646,9.5626,0.0071,0.0154,9.8066,-0.0249,-0.0517,0.0106,-4.06,-36.81,-12.25,236.42,-86.87,-134.4
18528,52.51467,-1.725823,150.35,3.91,6,0.86,24 / 25,2166808,2020-01-08 16:57:21:784,0.1826,0.3231,9.783,-0.0238,0.0049,9.8066,-0.0319,-0.1072,0.0626,-3.75,-37.44,-12.62,234.17,-86.94,-136.22
18529,52.51467,-1.725823,150.35,3.91,6,0.86,24 / 25,2166909,2020-01-08 16:57:21:885,1.4708,3.1703,9.5301,-0.0134,-0.0145,9.8065,-0.0594,-0.1395,0.0403,-4.19,-37.06,-12.19,237.29,-87.06,-133.91
18530,52.51467,-1.725823,150.35,3.91,6,0.86,24 / 25,2167008,2020-01-08 16:57:21:984,-0.5825,2.5216,9.9416,-0.0196,0.0091,9.8066,-0.0118,-0.0449,0.0613,-4.44,-36.94,-12.06,240.35,-87.18,-130.92
18531,52.51467,-1.725823,150.35,3.91,6,0.86,24 / 25,2167108,2020-01-08 16:57:22:084,0.3405,2.5276,9.4556,0.0009,-0.0043,9.8066,-0.0166,-0.0399,0.0141,-3.81,-37.19,-12.44,239.82,-87.21,-131.57
18532,52.51467,-1.725823,150.35,3.91,6,0.86,24 / 25,2167207,2020-01-08 16:57:22:183,0.6035,3.0641,10.0246,-0.0088,0.007,9.8066,0.0008,-0.0262,0.0494,-3.87,-36.75,-12.31,240.46,-87.13,-130.67
18533,52.51467,-1.725823,150.35,3.91,6,0.86,24 / 25,2167307,2020-01-08 16:57:22:283,0.436,2.0173,9.7533,0.0096,0.0013,9.8066,-0.0464,-0.014,-0.0258,-4.56,-36.87,-12.81,243.7,-87.11,-130.47
18534,52.51467,-1.725823,150.35,3.91,6,0.86,24 / 25,2167408,2020-01-08 16:57:22:384,1.0756,2.6048,10.5909,0.0009,-0.005,9.8066,0.0964,-0.0155,0.0359,-3.87,-36.56,-11.81,240.22,-87.13,-130.94
18535,52.51467,-1.725823,150.35,3.91,6,0.86,24 / 25,2167508,2020-01-08 16:57:22:484,-0.578,4.3928,10.7237,0.0158,-0.0206,9.8065,0.1576,0.0873,-0.1515,-3.94,-37.75,-11.87,240.25,-87.04,-130.47
18536,52.51467,-1.725823,150.35,3.91,6,0.86,24 / 25,2167608,2020-01-08 16:57:22:584,1.2704,1.6361,8.1812,0.024,-0.0433,9.8065,0.1672,0.0189,-0.1519,-4.5,-36.81,-12.0,235.9,-87.0,-135.28
18537,52.51467,-1.725823,150.35,3.91,6,0.86,24 / 25,2167708,2020-01-08 16:57:22:684,2.0161,3.4304,10.0298,-0.0136,-0.0212,9.8065,0.1843,-0.0849,0.0761,-3.75,-37.56,-11.75,236.83,-86.98,-134.01
18538,52.51467,-1.725823,150.35,3.91,6,0.86,24 / 25,2167808,2020-01-08 16:57:22:784,2.1141,2.9878,9.5954,0.0197,-0.0335,9.8065,0.1396,0.1855,-0.1669,-3.75,-38.12,-11.94,234.42,-86.81,-136.24
18539,52.51467,-1.725823,150.35,3.91,6,0.86,23 / 25,2167908,2020-01-08 16:57:22:884,-0.2894,4.7471,10.6152,0.0054,-0.0182,9.8066,0.1064,0.0637,-0.0922,-3.81,-37.94,-11.44,236.56,-86.95,-135.16
18540,52.51467,-1.725823,150.35,3.91,6,0.86,23 / 25,2168007,2020-01-08 16:57:22:983,1.1531,2.504,8.7603,0.0012,-0.0242,9.8065,0.1129,0.2009,0.0115,-3.81,-37.06,-12.31,234.89,-86.89,-136.12
18541,52.51467,-1.725823,150.35,3.91,6,0.86,23 / 25,2168109,2020-01-08 16:57:23:085,-0.354,3.3034,8.3723,0.0305,-0.0087,9.8065,0.0781,0.1674,-0.2359,-4.37,-37.62,-12.75,234.47,-86.76,-135.28
18542,52.51467,-1.725823,150.35,3.91,6,0.86,23 / 25,2168207,2020-01-08 16:57:23:183,2.0279,2.4672,10.043,0.0318,-0.0286,9.8065,0.1713,0.1101,-0.1247,-3.69,-38.0,-12.0,230.87,-86.77,-140.07
18543,52.51467,-1.725823,150.35,3.91,6,0.86,23 / 25,2168307,2020-01-08 16:57:23:283,-0.2851,3.1442,10.5554,0.0169,0.0098,9.8065,-0.0214,0.2145,-0.0464,-3.87,-37.56,-12.56,231.74,-86.68,-138.1
18544,52.51467,-1.725823,150.35,3.91,6,0.86,23 / 25,2168408,2020-01-08 16:57:23:384,1.4019,1.9291,10.5575,0.0209,-0.0203,9.8066,0.0165,0.0532,-0.0515,-3.75,-37.44,-12.25,235.72,-86.71,-134.78
18545,52.51467,-1.725823,150.35,3.91,6,0.86,23 / 25,2168507,2020-01-08 16:57:23:483,-1.4182,3.5818,9.6363,0.0402,-0.0009,9.8065,-0.0382,0.2891,-0.1298,-4.25,-37.87,-11.87,236.93,-86.7,-133.22
18546,52.51467,-1.725823,150.35,3.91,6,0.86,23 / 25,2168608,2020-01-08 16:57:23:584,0.5498,2.4861,9.4559,0.0013,-0.0016,9.8066,0.0182,-0.0707,0.0772,-3.81,-37.12,-11.94,236.82,-86.72,-133.61
18547,52.51467,-1.725823,150.35,3.91,6,0.86,23 / 25,2168708,2020-01-08 16:57:23:684,-1.6693,3.5241,10.715,0.0219,-0.0186,9.8065,0.0692,0.0755,-0.025,-3.94,-37.62,-11.81,236.94,-86.7,-133.2
