,GPS LATITUDE (degrees), GPS LONGITUDE (degrees), GPS ALTITUDE (m), GPS SPEED (Kmh), GPS ACCURACY (m), GPS ORIENTATION (Â°),GPS SATELLITES IN RANGE, TIME SINCE START (ms), DATE (YYYY-MO-DD HH-MI-SS_SSS), ACCELEROMETER X (m/s²) , ACCELEROMETER Y (m/s²), ACCELEROMETER Z (m/s²), GRAVITY X (m/s²), GRAVITY Y (m/s²), GRAVITY Z (m/s²), GYROSCOPE Yaw (rad/s), GYROSCOPE Pitch (rad/s), GYROSCOPE Roll (rad/s), MAGNETIC FIELD X (Î¼T), MAGNETIC FIELD Y (Î¼T), MAGNETIC FIELD Z (Î¼T), ORIENTATION (Yaw) (Â°), ORIENTATION (Pitch) (Â°), ORIENTATION (Roll ) (Â°)
99511,52.43084,-1.484122,150.01,9.92,2.0,226.05,23 / 23,5529776,2019-09-07 11:59:22:930,-0.6284,0.8474,9.8395,0.0066,-0.0047,9.8066,0.0211,0.0319,-0.0098,-13.12,-26.75,24.81,12.78,-83.38,-141.22
99512,52.43084,-1.484122,150.01,9.92,2.0,226.05,23 / 23,5529876,2019-09-07 11:59:23:030,-0.3751,1.2105,9.6011,0.0085,-0.0022,9.8066,0.009,0.0063,-0.0087,-13.19,-26.75,25.13,11.91,-83.38,-142.0
99513,52.43084,-1.484122,150.01,9.92,2.0,226.05,23 / 23,5529975,2019-09-07 11:59:23:129,-0.5795,1.3036,9.495,-0.0018,0.0016,9.8066,0.0037,0.0215,0.0186,-12.69,-27.19,25.63,12.66,-83.42,-142.2
99514,52.43084,-1.484122,150.01,9.92,2.0,226.05,23 / 23,5530075,2019-09-07 11:59:23:229,-0.4958,1.1808,10.1285,-0.0048,-0.0001,9.8066,-0.0038,0.0124,0.005,-13.44,-27.19,24.5,12.39,-83.42,-141.56
99515,52.43084,-1.484122,150.01,9.92,2.0,226.05,23 / 23,5530176,2019-09-07 11:59:23:330,-0.5221,1.1425,9.8445,-0.0021,0.0042,9.8066,-0.0035,0.015,0.0052,-13.06,-27.12,24.5,12.81,-83.44,-141.18
99516,52.43084,-1.484122,150.01,9.92,2.0,226.05,22 / 22,5530276,2019-09-07 11:59:23:430,-0.8452,0.9471,9.8857,-0.0019,0.0064,9.8065,-0.0055,0.0133,-0.0098,-13.75,-27.06,25.88,12.34,-83.53,-140.7
99517,52.43084,-1.484122,150.01,9.92,2.0,226.05,22 / 22,5530375,2019-09-07 11:59:23:529,-0.4373,1.1385,9.4173,0.0068,0.0084,9.8065,0.0021,0.0217,-0.0088,-13.44,-27.25,25.81,13.88,-83.6,-141.06
99518,52.43084,-1.484122,150.01,9.92,2.0,226.05,22 / 22,5530475,2019-09-07 11:59:23:629,-0.4437,1.0859,9.3125,0.0003,0.0072,9.8066,-0.0112,-0.0051,-0.0252,-13.75,-27.44,25.69,11.67,-83.73,-141.25
99519,52.43084,-1.484122,150.01,9.92,2.0,226.05,22 / 22,5530575,2019-09-07 11:59:23:729,-0.5162,1.044,9.9405,-0.0007,0.0064,9.8066,-0.0087,0.0275,-0.0021,-13.75,-27.19,26.13,11.72,-83.82,-141.2
99520,52.43084,-1.484122,150.01,9.92,2.0,226.05,22 / 22,5530675,2019-09-07 11:59:23:829,-0.5384,0.8711,10.1014,-0.0037,0.0032,9.8066,-0.0004,-0.0007,-0.0064,-14.0,-27.31,25.88,12.2,-83.9,-140.74
99521,52.43084,-1.484122,150.01,9.92,2.0,226.05,22 / 22,5530776,2019-09-07 11:59:23:930,-0.4898,1.1955,9.7712,0.0007,0.0016,9.8066,-0.0035,-0.0003,-0.0118,-13.0,-26.5,26.19,14.13,-83.92,-140.71
99522,52.43084,-1.484122,150.01,9.92,2.0,226.05,22 / 22,5530875,2019-09-07 11:59:24:029,-0.4955,1.3052,10.182,-0.0036,0.0046,9.8066,-0.0086,0.0175,0.0199,-13.5,-27.37,26.0,14.54,-83.95,-140.38
99523,52.43084,-1.484122,150.01,9.92,2.0,226.05,22 / 22,5530975,2019-09-07 11:59:24:129,-0.67,1.433,9.8751,0.0021,0.0031,9.8066,-0.0035,-0.0109,-0.0269,-12.81,-27.37,25.94,15.35,-83.98,-139.64
99524,52.43084,-1.484122,150.01,9.92,2.0,226.05,22 / 22,5531075,2019-09-07 11:59:24:229,-0.5834,0.821,9.6184,0.0046,-0.0007,9.8066,0.0182,-0.0098,-0.0219,-13.81,-27.12,25.75,12.87,-84.02,-140.12
99525,52.43084,-1.484122,150.01,9.92,2.0,226.05,22 / 22,5531175,2019-09-07 11:59:24:329,-0.6537,0.9597,10.0276,0.0038,0.0018,9.8066,-0.0055,-0.0035,-0.0131,-13.37,-27.25,26.25,14.06,-84.04,-140.79
99526,52.43084,-1.484122,150.01,9.92,2.0,226.05,23 / 23,5531276,2019-09-07 11:59:24:430,-0.3382,1.1379,9.7566,0.0024,0.006,9.8066,0.0002,0.015,-0.0074,-13.37,-26.87,26.25,13.67,-84.14,-141.12
99527,52.43084,-1.484122,150.01,9.92,2.0,226.05,23 / 23,5531376,2019-09-07 11:59:24:530,-0.325,1.0799,10.1162,-0.0013,0.0013,9.8066,-0.0005,0.0027,0.0054,-13.25,-26.94,26.75,14.74,-84.16,-140.96
99528,52.43084,-1.484122,150.01,9.92,2.0,226.05,23 / 23,5531475,2019-09-07 11:59:24:629,-0.4424,1.0675,9.8915,-0.002,0.0004,9.8066,-0.0089,-0.0062,0.0029,-13.06,-26.62,26.0,14.3,-84.16,-140.54
99529,52.43084,-1.484122,150.01,9.92,2.0,226.05,23 / 23,5531575,2019-09-07 11:59:24:729,-0.5646,1.3889,10.1353,0.0001,0.0041,9.8066,0.0063,0.0095,-0.0044,-13.12,-27.5,26.25,14.95,-84.18,-139.95
99530,52.43084,-1.484122,150.01,9.92,2.0,226.05,23 / 23,5531676,2019-09-07 11:59:24:830,-0.4831,1.1224,9.7188,-0.0021,-0.0001,9.8066,0.0013,0.0068,0.0016,-12.94,-27.0,26.06,15.1,-84.21,-139.81
99531,52.43084,-1.484122,150.01,9.92,2.0,226.05,23 / 23,5531775,2019-09-07 11:59:24:929,-0.5252,0.9563,9.857,-0.0042,0.001,9.8066,-0.0019,-0.015,-0.0123,-13.31,-27.19,26.25,15.74,-84.23,-139.22
99532,52.43084,-1.484122,150.01,9.92,2.0,226.05,23 / 23,5531876,2019-09-07 11:59:25:030,-0.4851,1.006,9.8677,-0.0042,0.0024,9.8066,-0.0093,-0.0004,-0.0045,-13.19,-27.0,25.38,15.22,-84.25,-138.82
99533,52.43084,-1.484122,150.01,9.92,2.0,226.05,23 / 23,5531975,2019-09-07 11:59:25:129,-0.7283,1.2321,10.123,-0.0021,0.007,9.8066,-0.0074,0.0133,-0.0023,-13.69,-27.0,25.44,13.76,-84.3,-138.34
99534,52.43084,-1.484122,150.01,9.92,2.0,226.05,23 / 23,5532075,2019-09-07 11:59:25:229,-0.6214,1.2693,9.8415,-0.0034,0.004,9.8066,-0.0096,-0.0116,-0.0153,-13.69,-27.37,25.69,15.59,-84.38,-137.56
99535,52.43084,-1.484122,150.01,9.92,2.0,226.05,23 / 23,5532175,2019-09-07 11:59:25:329,-0.3915,0.9947,9.817,-0.0012,0.0055,9.8066,0.0005,0.0197,0.0042,-13.75,-27.81,25.0,14.88,-84.43,-137.33
99536,52.43084,-1.484122,150.01,9.92,2.0,226.05,22 / 22,5532275,2019-09-07 11:59:25:429,-0.6935,1.3125,10.0776,-0.0042,0.0037,9.8066,-0.0006,0.0075,0.0065,-13.75,-27.0,26.25,16.47,-84.5,-136.73
99537,52.43084,-1.484122,150.01,9.92,2.0,226.05,22 / 22,5532375,2019-09-07 11:59:25:529,-0.5922,1.1731,10.2412,-0.0018,0.0017,9.8066,0.0001,0.0049,-0.0061,-13.69,-27.19,26.06,17.18,-84.53,-136.07
99538,52.43084,-1.484122,150.01,9.92,2.0,226.05,22 / 22,5532476,2019-09-07 11:59:25:630,-0.4411,0.9254,9.6991,-0.0004,-0.0008,9.8066,0.0067,0.0028,0.0027,-13.56,-27.12,26.38,17.29,-84.53,-135.97
99539,52.43084,-1.484122,150.01,9.92,2.0,226.05,22 / 22,5532575,2019-09-07 11:59:25:729,-0.6535,1.1661,9.629,-0.0027,0.0029,9.8066,-0.0038,0.0123,0.0038,-13.75,-26.81,26.0,17.77,-84.56,-135.52
99540,52.43084,-1.484122,150.01,9.92,2.0,226.05,22 / 22,5532676,2019-09-07 11:59:25:830,-0.553,1.0739,9.9047,-0.0032,0.0049,9.8066,-0.0027,-0.0049,-0.0041,-13.44,-27.5,25.81,20.55,-84.61,-134.72
99541,52.43084,-1.484122,150.01,9.92,2.0,226.05,22 / 22,5532776,2019-09-07 11:59:25:930,-0.5149,1.1214,9.9911,-0.0001,0.0037,9.8066,0.0011,-0.009,-0.0099,-13.12,-26.44,25.81,20.95,-84.65,-134.28
99542,52.43084,-1.484122,150.01,9.92,2.0,226.05,22 / 22,5532875,2019-09-07 11:59:26:029,-0.4429,1.0117,9.9044,0.0,0.0035,9.8066,0.0058,0.0122,0.0113,-13.31,-26.87,25.94,21.29,-84.7,-134.01
99543,52.43084,-1.484122,150.01,9.92,2.0,226.05,22 / 22,5532975,2019-09-07 11:59:26:129,-0.2214,0.5616,10.079,-0.0038,0.0042,9.8066,0.0015,-0.0001,-0.0057,-13.25,-27.25,26.13,22.11,-84.74,-133.25
99544,52.43084,-1.484122,150.01,9.92,2.0,226.05,22 / 22,5533075,2019-09-07 11:59:26:229,0.3124,-0.8989,9.9443,-0.0022,0.0011,9.8066,0.0069,-0.0093,-0.0128,-13.81,-26.5,25.81,20.43,-84.74,-132.97
99545,52.43084,-1.484122,150.01,9.92,2.0,226.05,22 / 22,5533176,2019-09-07 11:59:26:330,0.3459,-1.083,9.6742,0.004,-0.0091,9.8065,0.0395,0.0098,0.0063,-13.56,-26.69,25.75,19.99,-84.71,-133.44
99546,52.43051,-1.484711,150.48,0.0,3.0,227.37,23 / 23,5533275,2019-09-07 11:59:26:429,0.15,-0.8379,9.6716,0.0011,-0.0068,9.8066,0.0141,0.0032,-0.0015,-12.94,-26.81,26.44,21.02,-84.61,-134.3
99547,52.43051,-1.484711,150.48,0.0,3.0,227.37,23 / 23,5533376,2019-09-07 11:59:26:530,0.1019,-0.4703,9.8648,-0.0036,0.0107,9.8066,-0.0216,-0.0084,-0.0186,-13.56,-26.81,26.44,19.29,-84.62,-134.11
99548,52.43051,-1.484711,150.48,0.0,3.0,227.37,23 / 23,5533475,2019-09-07 11:59:26:629,0.2443,-0.5745,10.0162,-0.0002,0.0064,9.8066,-0.0045,0.0007,-0.0078,-13.87,-26.75,26.44,19.88,-84.72,-133.54
99549,52.43051,-1.484711,150.48,0.0,3.0,227.37,23 / 23,5533575,2019-09-07 11:59:26:729,0.1759,-0.3484,9.7443,-0.0011,0.0042,9.8066,0.0018,0.0064,0.0003,-13.75,-26.75,25.94,20.21,-84.78,-133.22
99550,52.43051,-1.484711,150.48,0.0,3.0,227.37,23 / 23,5533676,2019-09-07 11:59:26:830,0.1534,-0.4818,9.78,-0.0013,0.0019,9.8066,0.0049,0.0202,0.0159,-12.94,-27.81,26.06,22.29,-84.79,-133.13
99551,52.43051,-1.484711,150.48,0.0,3.0,227.37,23 / 23,5533775,2019-09-07 11:59:26:929,0.1716,-0.7765,9.8982,-0.0026,0.0011,9.8066,0.0017,0.0182,0.0061,-13.69,-27.0,25.69,20.84,-84.81,-132.62
99552,52.43051,-1.484711,150.48,0.0,3.0,227.37,23 / 23,5533875,2019-09-07 11:59:27:029,0.1056,-0.6329,9.8642,-0.0015,0.0034,9.8066,0.0038,0.0123,0.0,-13.19,-26.69,26.19,23.39,-84.85,-132.02
99553,52.43051,-1.484711,150.48,0.0,3.0,227.37,23 / 23,5533976,2019-09-07 11:59:27:130,0.1468,-0.393,9.7598,-0.0007,0.0016,9.8066,0.0007,0.0011,-0.005,-13.5,-26.94,26.38,23.58,-84.87,-131.84
99554,52.43051,-1.484711,150.48,0.0,3.0,227.37,23 / 23,5534075,2019-09-07 11:59:27:229,0.2426,-0.6596,9.9355,-0.0014,0.0021,9.8066,-0.0101,-0.01,-0.0155,-13.25,-27.0,26.44,23.68,-84.89,-131.75
99555,52.43051,-1.484711,150.48,0.0,3.0,227.37,23 / 23,5534176,2019-09-07 11:59:27:330,0.149,-0.6927,10.0144,0.0016,0.0033,9.8066,-0.0038,-0.0135,-0.0133,-13.37,-26.5,26.31,23.91,-84.93,-131.45
99556,52.43051,-1.484711,150.48,0.0,3.0,227.37,22 / 22,5534276,2019-09-07 11:59:27:430,0.1717,-0.6757,9.8,-0.0019,0.0014,9.8066,-0.0094,-0.0214,-0.0202,-13.56,-26.44,26.44,22.59,-84.94,-130.9
99557,52.43051,-1.484711,150.48,0.0,3.0,227.37,22 / 22,5534376,2019-09-07 11:59:27:530,0.1597,-0.4339,9.6708,-0.0025,0.004,9.8066,-0.0091,-0.0225,-0.0221,-13.75,-26.69,25.81,23.24,-84.97,-130.35
99558,52.43051,-1.484711,150.48,0.0,3.0,227.37,22 / 22,5534478,2019-09-07 11:59:27:632,0.1678,-0.4152,9.7036,-0.0011,0.0039,9.8066,-0.0075,-0.021,-0.0163,-13.75,-27.12,26.13,23.52,-85.0,-130.08
99559,52.43051,-1.484711,150.48,0.0,3.0,227.37,22 / 22,5534575,2019-09-07 11:59:27:729,0.2615,-0.7864,10.0011,-0.0013,0.0026,9.8066,-0.0056,-0.0111,-0.0116,-13.69,-26.25,26.31,23.99,-85.04,-129.57
99560,52.43051,-1.484711,150.48,0.0,3.0,227.37,22 / 22,5534676,2019-09-07 11:59:27:830,0.1902,-0.7047,9.8349,-0.0018,0.0029,9.8066,0.0007,0.0034,0.0008,-13.56,-27.0,26.38,24.29,-85.06,-129.35
99561,52.43051,-1.484711,150.48,0.0,3.0,227.37,22 / 22,5534776,2019-09-07 11:59:27:930,0.1626,-0.5709,9.7689,-0.0011,0.0029,9.8066,0.0032,0.0164,0.0042,-13.0,-27.12,26.69,27.53,-85.09,-128.89
99562,52.43051,-1.484711,150.48,0.0,3.0,227.37,22 / 22,5534875,2019-09-07 11:59:28:029,0.2307,-0.5128,9.7577,-0.0004,0.0026,9.8066,0.0114,0.0236,0.0169,-13.31,-26.44,26.0,26.86,-85.13,-128.63
99563,52.43051,-1.484711,150.48,0.0,3.0,227.37,22 / 22,5534975,2019-09-07 11:59:28:129,0.1895,-0.7921,9.9912,0.0002,0.0025,9.8066,0.0051,0.025,0.0102,-13.12,-26.19,26.31,27.03,-85.15,-128.46
99564,52.43051,-1.484711,150.48,0.0,3.0,227.37,22 / 22,5535075,2019-09-07 11:59:28:229,0.2325,-0.7608,9.8823,-0.0004,0.0028,9.8066,0.0025,0.0159,0.0077,-13.0,-26.44,25.94,27.32,-85.17,-128.18
99565,52.43051,-1.484711,150.48,0.0,3.0,227.37,22 / 22,5535175,2019-09-07 11:59:28:329,0.177,-0.4904,9.6234,-0.0018,0.0011,9.8066,-0.0046,-0.0015,-0.0062,-12.69,-26.44,26.63,28.55,-85.19,-127.81
99566,52.43051,-1.484711,150.48,0.0,3.0,227.37,22 / 22,5535276,2019-09-07 11:59:28:430,0.1926,-0.7452,9.9644,-0.0016,0.0007,9.8066,-0.0056,-0.0043,-0.0121,-13.06,-26.69,26.31,28.13,-85.21,-127.49
99567,52.43051,-1.484711,150.48,0.0,3.0,227.37,23 / 23,5535375,2019-09-07 11:59:28:529,0.1443,-0.5389,9.7744,-0.0013,0.0007,9.8066,-0.006,-0.0212,-0.0178,-12.94,-26.87,26.94,29.22,-85.21,-127.26
99568,52.43051,-1.484711,150.48,0.0,3.0,227.37,23 / 23,5535476,2019-09-07 11:59:28:630,0.2186,-0.5893,9.8098,-0.0001,0.0017,9.8066,0.0002,-0.0007,-0.0066,-13.44,-26.75,26.56,29.45,-85.23,-127.04
99569,52.43051,-1.484711,150.48,0.0,3.0,227.37,23 / 23,5535575,2019-09-07 11:59:28:729,0.1927,-0.7685,9.8477,-0.001,0.0026,9.8066,-0.0003,0.0006,-0.001,-13.25,-26.56,26.56,29.59,-85.25,-126.9
99570,52.43051,-1.484711,150.48,0.0,3.0,227.37,23 / 23,5535675,2019-09-07 11:59:28:829,0.1365,-0.5488,9.8292,-0.0015,0.0025,9.8066,0.0008,0.0254,0.015,-13.19,-27.0,26.44,28.89,-85.26,-126.76
99571,52.43051,-1.484711,150.48,0.0,3.0,227.37,23 / 23,5535776,2019-09-07 11:59:28:930,0.1981,-0.555,9.7664,-0.0009,0.0018,9.8066,0.0051,0.0195,0.0094,-13.44,-26.81,26.44,29.33,-85.28,-126.33
99572,52.43051,-1.484711,150.48,0.0,3.0,227.37,23 / 23,5535875,2019-09-07 11:59:29:029,0.1966,-0.8016,9.9368,-0.0009,0.0013,9.8066,0.0011,0.0106,0.0032,-12.56,-26.0,26.56,30.29,-85.3,-126.15
99573,52.43051,-1.484711,150.48,0.0,3.0,227.37,23 / 23,5535975,2019-09-07 11:59:29:129,0.1764,-0.7093,9.8598,-0.0001,-0.0014,9.8066,-0.0008,-0.0068,-0.0072,-12.94,-26.94,26.25,29.7,-85.3,-125.98
99574,52.43051,-1.484711,150.48,0.0,3.0,227.37,23 / 23,5536075,2019-09-07 11:59:29:229,0.1747,-0.5968,9.7767,-0.0006,0.0019,9.8066,-0.0053,-0.019,-0.0129,-13.06,-26.37,25.81,29.84,-85.32,-125.76
99575,52.43051,-1.484711,150.48,0.0,3.0,227.37,23 / 23,5536176,2019-09-07 11:59:29:330,0.1951,-0.8572,9.9876,-0.0003,0.0013,9.8066,-0.008,-0.0209,-0.0183,-13.0,-26.94,26.19,30.05,-85.32,-125.65
99576,52.43051,-1.484711,150.48,0.0,3.0,227.37,22 / 22,5536277,2019-09-07 11:59:29:431,0.1521,-0.587,9.7622,-0.0003,0.001,9.8065,-0.0054,-0.012,-0.0128,-12.56,-26.06,25.63,30.09,-85.33,-125.52
99577,52.43051,-1.484711,150.48,0.0,3.0,227.37,22 / 22,5536376,2019-09-07 11:59:29:530,0.2346,-0.7054,9.8656,-0.0006,0.0025,9.8066,-0.0043,-0.0049,-0.001,-12.75,-26.5,26.06,30.27,-85.35,-125.35
99578,52.43051,-1.484711,150.48,0.0,3.0,227.37,22 / 22,5536475,2019-09-07 11:59:29:629,0.2416,-0.8488,9.9796,-0.0005,-0.0002,9.8066,0.007,0.0166,0.0106,-12.94,-26.94,25.56,30.51,-85.35,-125.21
99579,52.43051,-1.484711,150.48,0.0,3.0,227.37,22 / 22,5536575,2019-09-07 11:59:29:729,0.1652,-0.6819,9.7466,0.0001,0.0017,9.8066,0.0035,0.0211,0.013,-13.0,-26.31,26.31,30.48,-85.36,-125.15
99580,52.43051,-1.484711,150.48,0.0,3.0,227.37,22 / 22,5536675,2019-09-07 11:59:29:829,0.2322,-0.6148,9.8213,-0.0018,0.0008,9.8066,0.0013,0.0056,-0.0005,-13.12,-26.62,25.88,30.74,-85.36,-124.98
99581,52.43051,-1.484711,150.48,0.0,3.0,227.37,22 / 22,5536775,2019-09-07 11:59:29:929,0.2152,-0.7364,9.9146,0.0008,0.0005,9.8066,-0.0028,-0.0031,-0.0042,-13.31,-27.0,26.0,30.79,-85.36,-124.94
99582,52.43051,-1.484711,150.48,0.0,3.0,227.37,22 / 22,5536875,2019-09-07 11:59:30:029,0.226,-0.7227,9.7942,0.0005,0.0,9.8066,-0.0058,-0.0191,-0.0173,-13.81,-27.31,26.0,28.96,-85.35,-124.87
99583,52.43051,-1.484711,150.48,0.0,3.0,227.37,22 / 22,5536976,2019-09-07 11:59:30:130,0.2636,-0.5697,9.7009,-0.0008,0.0007,9.8066,-0.009,-0.0081,-0.0126,-13.56,-26.62,26.13,28.97,-85.35,-124.86
99584,52.43051,-1.484711,150.48,0.0,3.0,227.37,22 / 22,5537076,2019-09-07 11:59:30:230,0.1896,-0.662,9.8745,-0.0004,0.0002,9.8066,-0.0039,0.0023,-0.003,-13.12,-26.19,25.56,30.83,-85.37,-124.81
99585,52.43051,-1.484711,150.48,0.0,3.0,227.37,22 / 22,5537176,2019-09-07 11:59:30:330,0.2349,-0.8046,9.8757,0.0015,0.0006,9.8066,0.0044,0.0233,0.0084,-13.5,-26.75,25.75,30.84,-85.38,-124.88
99586,52.43051,-1.484711,150.48,0.0,3.0,227.37,23 / 23,5537275,2019-09-07 11:59:30:429,0.2077,-0.5534,9.7077,0.0001,-0.0009,9.8066,0.0025,0.0185,0.0089,-13.31,-26.94,26.19,30.7,-85.38,-125.01
99587,52.43051,-1.484711,150.48,0.0,3.0,227.37,23 / 23,5537375,2019-09-07 11:59:30:529,0.2261,-0.5468,9.7712,-0.0003,-0.0007,9.8066,0.0049,0.0156,0.0102,-13.75,-26.81,25.69,28.77,-85.37,-125.05
99588,52.43051,-1.484711,150.48,0.0,3.0,227.37,23 / 23,5537476,2019-09-07 11:59:30:630,0.2921,-0.8428,9.9959,-0.0009,-0.0011,9.8066,0.0005,0.0047,-0.0026,-13.75,-27.5,25.81,28.83,-85.36,-124.99
99589,52.43051,-1.484711,150.48,0.0,3.0,227.37,23 / 23,5537575,2019-09-07 11:59:30:729,0.2305,-0.6232,9.735,-0.0005,-0.0005,9.8066,-0.0007,-0.0021,-0.0095,-13.94,-26.87,25.75,28.78,-85.34,-125.05
99590,52.43051,-1.484711,150.48,0.0,3.0,227.37,23 / 23,5537675,2019-09-07 11:59:30:829,0.1677,-0.5508,9.7365,-0.0005,-0.0012,9.8066,-0.0107,-0.0085,-0.0172,-13.12,-26.94,25.88,30.6,-85.31,-125.14
99591,52.43051,-1.484711,150.48,0.0,3.0,227.37,23 / 23,5537775,2019-09-07 11:59:30:929,0.2692,-0.6658,9.8355,-0.0008,-0.0004,9.8066,-0.0085,-0.0188,-0.0175,-13.31,-26.62,25.75,30.62,-85.31,-125.12
99592,52.43051,-1.484711,150.48,0.0,3.0,227.37,23 / 23,5537875,2019-09-07 11:59:31:029,0.1874,-0.8327,9.9084,0.0008,-0.0014,9.8066,-0.006,-0.0076,-0.0153,-13.0,-26.44,26.06,30.42,-85.29,-125.23
99593,52.43051,-1.484711,150.48,0.0,3.0,227.37,23 / 23,5537976,2019-09-07 11:59:31:130,0.2308,-0.7177,9.8123,0.0009,-0.0011,9.8066,-0.0033,0.0005,-0.0079,-13.56,-27.06,26.25,28.31,-85.29,-125.51
99594,52.43051,-1.484711,150.48,0.0,3.0,227.37,23 / 23,5538076,2019-09-07 11:59:31:230,0.2266,-0.5431,9.7233,0.0004,-0.0007,9.8066,0.0039,0.0165,0.0084,-13.12,-26.5,26.0,29.92,-85.29,-125.71
99595,52.43051,-1.484711,150.48,0.0,3.0,227.37,23 / 23,5538176,2019-09-07 11:59:31:330,0.2187,-0.8292,9.9475,0.0009,-0.0013,9.8066,0.0024,0.0243,0.0087,-13.25,-27.25,25.63,29.72,-85.28,-125.97
99596,52.43051,-1.484711,150.48,0.0,3.0,227.37,22 / 22,5538276,2019-09-07 11:59:31:430,0.2494,-0.7472,9.8077,-0.0009,-0.0015,9.8065,0.0033,0.0157,0.0069,-13.25,-27.0,25.63,29.62,-85.26,-126.07
99597,52.43051,-1.484711,150.48,0.0,3.0,227.37,22 / 22,5538375,2019-09-07 11:59:31:529,0.1952,-0.488,9.6809,0.0006,-0.0029,9.8066,0.0002,-0.0037,-0.0111,-13.69,-26.5,26.25,27.42,-85.24,-126.3
99598,52.43051,-1.484711,150.48,0.0,3.0,227.37,22 / 22,5538476,2019-09-07 11:59:31:630,0.2178,-0.7528,9.8218,0.0003,-0.0021,9.8066,-0.0071,-0.0058,-0.0145,-13.69,-26.56,25.88,27.12,-85.22,-126.65
99599,52.43051,-1.484711,150.48,0.0,3.0,227.37,22 / 22,5538575,2019-09-07 11:59:31:729,0.1445,-0.5039,9.7648,0.0004,-0.0005,9.8066,-0.007,-0.0096,-0.0165,-13.12,-27.25,26.81,29.72,-85.2,-126.8
99600,52.43051,-1.484711,150.48,0.0,3.0,227.37,22 / 22,5538675,2019-09-07 11:59:31:829,0.258,-0.5994,9.8301,0.0003,-0.0014,9.8066,-0.0012,0.0017,0.0003,-12.94,-27.25,26.38,28.58,-85.19,-127.08
99601,52.43051,-1.484711,150.48,0.0,3.0,227.37,22 / 22,5538775,2019-09-07 11:59:31:929,0.1934,-0.7689,9.8629,0.0005,-0.0019,9.8066,0.0003,0.0101,0.0005,-13.37,-27.06,25.69,28.38,-85.17,-127.27
99602,52.43051,-1.484711,150.48,0.0,3.0,227.37,22 / 22,5538875,2019-09-07 11:59:32:029,0.165,-0.5177,9.6851,0.0014,-0.002,9.8066,0.0057,0.0242,0.0155,-13.06,-27.25,25.94,28.29,-85.16,-127.36
99603,52.43051,-1.484711,150.48,0.0,3.0,227.37,22 / 22,5538975,2019-09-07 11:59:32:129,0.1844,-0.4707,9.7951,-0.0004,-0.0019,9.8065,0.0035,0.0094,0.0033,-13.37,-26.62,26.25,28.07,-85.13,-127.58
99604,52.43051,-1.484711,150.48,0.0,3.0,227.37,22 / 22,5539075,2019-09-07 11:59:32:229,0.2514,-0.7573,9.9787,-0.0004,-0.0026,9.8066,-0.0035,0.002,-0.0044,-13.69,-26.44,26.19,25.92,-85.11,-127.74
99605,52.43051,-1.484711,150.48,0.0,3.0,227.37,22 / 22,5539176,2019-09-07 11:59:32:330,0.1753,-0.5328,9.7383,-0.0004,-0.0026,9.8066,-0.0049,-0.0117,-0.0165,-13.31,-26.62,25.94,27.77,-85.07,-127.88
99606,52.43051,-1.484711,150.48,0.0,3.0,227.37,22 / 22,5539276,2019-09-07 11:59:32:430,0.2153,-0.4595,9.7373,0.0004,-0.0017,9.8066,-0.0099,-0.0092,-0.0106,-13.25,-27.19,26.19,27.37,-85.04,-128.27
99607,52.43051,-1.484711,150.48,0.0,3.0,227.37,22 / 22,5539375,2019-09-07 11:59:32:529,0.2178,-0.7736,9.9721,0.0011,-0.004,9.8066,-0.0061,-0.0102,-0.0118,-13.94,-27.19,26.13,25.23,-85.02,-128.5
99608,52.43051,-1.484711,150.48,0.0,3.0,227.37,22 / 22,5539476,2019-09-07 11:59:32:630,0.1533,-0.6408,9.8072,0.0005,-0.0018,9.8066,0.0073,0.0212,0.0073,-13.37,-26.62,26.0,26.79,-85.0,-128.83
99609,52.43051,-1.484711,150.48,0.0,3.0,227.37,22 / 22,5539575,2019-09-07 11:59:32:729,0.171,-0.4305,9.7491,0.0012,-0.0015,9.8066,0.003,0.0204,0.0093,-13.5,-27.06,25.63,26.47,-84.97,-129.14
99610,52.43051,-1.484711,150.48,0.0,3.0,227.37,22 / 22,5539675,2019-09-07 11:59:32:829,0.2274,-0.6669,9.9027,0.0009,-0.0034,9.8066,0.0005,0.0164,0.0087,-13.25,-26.94,25.75,26.12,-84.93,-129.47
99611,52.43051,-1.484711,150.48,0.0,3.0,227.37,22 / 22,5539775,2019-09-07 11:59:32:929,0.1679,-0.7103,9.8907,0.0,-0.002,9.8066,0.0006,0.0167,0.0073,-13.25,-26.69,26.13,26.01,-84.91,-129.59
99612,52.43051,-1.484711,150.48,0.0,3.0,227.37,22 / 22,5539876,2019-09-07 11:59:33:030,0.1493,-0.5293,9.8279,-0.0005,-0.003,9.8066,-0.0048,-0.0076,-0.0105,-13.12,-26.81,26.13,25.84,-84.89,-129.76
99613,52.43051,-1.484711,150.48,0.0,3.0,227.37,22 / 22,5539976,2019-09-07 11:59:33:130,0.1867,-0.4583,9.8014,0.0001,-0.0017,9.8066,-0.0112,-0.0212,-0.0167,-13.81,-26.12,25.88,23.72,-84.85,-129.89
99614,52.43051,-1.484711,150.48,0.0,3.0,227.37,22 / 22,5540075,2019-09-07 11:59:33:229,0.2091,-0.7079,9.9341,0.0002,-0.0031,9.8066,-0.0087,-0.0033,-0.0131,-13.06,-26.87,26.0,25.61,-84.83,-129.99
99615,52.43051,-1.484711,150.48,0.0,3.0,227.37,22 / 22,5540176,2019-09-07 11:59:33:330,0.1774,-0.6072,9.8976,0.001,-0.0027,9.8066,-0.0067,-0.008,-0.0033,-13.31,-27.12,26.38,25.29,-84.8,-130.3
99616,52.43051,-1.484711,150.48,0.0,3.0,227.37,22 / 22,5540275,2019-09-07 11:59:33:429,0.1635,-0.4562,9.731,0.0007,-0.003,9.8066,0.0004,0.0139,0.0039,-13.62,-26.87,26.0,23.06,-84.76,-130.6
99617,52.43051,-1.484711,150.48,0.0,3.0,227.37,22 / 22,5540375,2019-09-07 11:59:33:529,0.1658,-0.5882,9.8246,0.0023,-0.0038,9.8066,0.0068,0.0203,0.0143,-13.37,-26.5,26.13,24.51,-84.73,-130.97
99618,52.43051,-1.484711,150.48,0.0,3.0,227.37,22 / 22,5540475,2019-09-07 11:59:33:629,0.258,-0.4406,9.7321,-0.0008,-0.0028,9.8066,0.0013,0.0083,0.0055,-13.25,-26.81,26.06,24.4,-84.71,-131.15
99619,52.43051,-1.484711,150.48,0.0,3.0,227.37,22 / 22,5540576,2019-09-07 11:59:33:730,0.1559,-0.5695,9.9192,-0.001,-0.0032,9.8066,0.0015,0.0056,-0.0022,-13.31,-26.87,26.06,24.25,-84.66,-131.32
99620,52.43051,-1.484711,150.48,0.0,3.0,227.37,22 / 22,5540675,2019-09-07 11:59:33:829,0.1647,-0.6391,9.8256,0.0013,-0.0041,9.8066,-0.0077,-0.0141,-0.0171,-12.87,-26.81,26.13,23.87,-84.61,-131.69
99621,52.43051,-1.484711,150.48,0.0,3.0,227.37,22 / 22,5540776,2019-09-07 11:59:33:930,0.217,-0.434,9.753,0.0008,-0.0032,9.8066,-0.0085,-0.007,-0.0107,-13.12,-26.81,25.94,23.55,-84.57,-131.99
99622,52.43051,-1.484711,150.48,0.0,3.0,227.37,22 / 22,5540876,2019-09-07 11:59:34:030,0.1432,-0.4559,9.9146,0.0,-0.0023,9.8066,-0.0001,0.0036,-0.0009,-13.0,-26.56,26.31,23.25,-84.54,-132.27
99623,52.43051,-1.484711,150.48,0.0,3.0,227.37,22 / 22,5540976,2019-09-07 11:59:34:130,0.19,-0.5937,9.8397,0.0016,-0.0034,9.8066,0.0027,0.0148,0.0073,-13.94,-26.5,26.06,20.89,-84.51,-132.62
99624,52.43051,-1.484711,150.48,0.0,3.0,227.37,22 / 22,5541076,2019-09-07 11:59:34:230,0.1871,-0.37,9.6784,0.0019,-0.0042,9.8066,0.0064,0.0198,0.0061,-13.5,-26.5,26.06,22.48,-84.48,-132.93
99625,52.43051,-1.484711,150.48,0.0,3.0,227.37,22 / 22,5541176,2019-09-07 11:59:34:330,0.1611,-0.4482,9.8179,0.0004,-0.0039,9.8066,0.0017,0.0173,0.0054,-13.44,-27.06,26.5,22.91,-84.43,-133.43
99626,52.43051,-1.484711,150.48,0.0,3.0,227.37,23 / 23,5541276,2019-09-07 11:59:34:430,0.2075,-0.5854,9.9274,-0.0007,-0.0041,9.8066,-0.007,-0.0169,-0.016,-13.19,-27.0,25.88,21.84,-84.39,-133.63
99627,52.43051,-1.484711,150.48,0.0,3.0,227.37,23 / 23,5541376,2019-09-07 11:59:34:530,0.1643,-0.3607,9.7258,0.0004,-0.0038,9.8066,-0.0056,-0.0101,-0.0146,-13.44,-26.87,26.63,22.46,-84.34,-133.88
99628,52.43051,-1.484711,150.48,0.0,3.0,227.37,23 / 23,5541475,2019-09-07 11:59:34:629,0.155,-0.4048,9.7689,0.0001,-0.0032,9.8066,-0.0062,-0.0008,-0.0071,-13.12,-27.31,26.31,21.28,-84.31,-134.17
99629,52.43051,-1.484711,150.48,0.0,3.0,227.37,23 / 23,5541576,2019-09-07 11:59:34:730,0.2256,-0.6083,9.947,0.0003,-0.0009,9.8066,0.0004,0.017,0.0048,-14.12,-26.81,25.94,19.13,-84.27,-134.37
99630,52.43051,-1.484711,150.48,0.0,3.0,227.37,23 / 23,5541675,2019-09-07 11:59:34:829,0.1524,-0.3376,9.6673,0.0009,-0.0031,9.8066,0.0025,0.018,0.0103,-13.56,-26.37,26.31,18.73,-84.23,-134.68
99631,52.43051,-1.484711,150.48,0.0,3.0,227.37,23 / 23,5541775,2019-09-07 11:59:34:929,0.2207,-0.5641,9.9389,0.0016,-0.0028,9.8066,0.0058,0.0142,0.0103,-13.0,-26.94,25.69,20.48,-84.21,-134.93
99632,52.43051,-1.484711,150.48,0.0,3.0,227.37,23 / 23,5541875,2019-09-07 11:59:35:029,0.1636,-0.5027,9.8337,0.0005,-0.0024,9.8066,0.0002,0.0102,0.0019,-13.69,-26.75,26.31,18.4,-84.17,-135.07
99633,52.43051,-1.484711,150.48,0.0,3.0,227.37,23 / 23,5541976,2019-09-07 11:59:35:130,0.1458,-0.3182,9.7426,-0.0004,-0.0038,9.8066,-0.0013,-0.0022,-0.0058,-13.12,-26.25,25.75,20.07,-84.13,-135.26
99634,52.43051,-1.484711,150.48,0.0,3.0,227.37,23 / 23,5542076,2019-09-07 11:59:35:230,0.2105,-0.6107,10.0118,0.0016,-0.0034,9.8066,-0.0032,-0.013,-0.0207,-13.31,-26.87,26.63,20.93,-84.09,-135.36
99635,52.43051,-1.484711,150.48,0.0,3.0,227.37,23 / 23,5542176,2019-09-07 11:59:35:330,0.1376,-0.4524,9.7753,0.0017,-0.0014,9.8066,-0.0077,-0.0158,-0.0143,-13.44,-26.75,25.88,19.58,-84.06,-135.8
99636,52.43051,-1.484711,150.48,0.0,3.0,227.37,22 / 22,5542276,2019-09-07 11:59:35:430,0.1787,-0.5667,10.0152,0.0009,-0.0025,9.8066,-0.0012,-0.0029,-0.0057,-12.87,-26.69,26.06,19.49,-84.04,-135.89
99637,52.43051,-1.484711,150.48,0.0,3.0,227.37,22 / 22,5542376,2019-09-07 11:59:35:530,0.1608,-0.422,9.8354,0.0013,-0.0028,9.8066,-0.0003,0.0059,0.0005,-13.5,-26.62,26.31,19.16,-84.01,-136.19
99638,52.43051,-1.484711,150.48,0.0,3.0,227.37,22 / 22,5542475,2019-09-07 11:59:35:629,0.1617,-0.2723,9.7264,0.0025,-0.0014,9.8065,0.0052,0.0217,0.0136,-13.19,-26.94,26.44,19.0,-83.99,-136.35
99639,52.43051,-1.484711,150.48,0.0,3.0,227.37,22 / 22,5542575,2019-09-07 11:59:35:729,0.1393,-0.5158,9.9441,0.0001,-0.0013,9.8065,-0.0008,0.0276,0.0139,-13.37,-27.12,25.81,18.7,-83.97,-136.62
99640,52.43051,-1.484711,150.48,0.0,3.0,227.37,22 / 22,5542676,2019-09-07 11:59:35:830,0.1807,-0.5241,9.8859,0.0002,-0.0023,9.8066,0.0006,0.0108,0.0063,-12.94,-26.56,26.0,18.56,-83.93,-136.77
99641,52.43051,-1.484711,150.48,0.0,3.0,227.37,22 / 22,5542775,2019-09-07 11:59:35:929,0.1553,-0.2677,9.7695,-0.0001,-0.003,9.8066,-0.0044,-0.0036,-0.0086,-13.56,-26.94,25.94,16.52,-83.91,-136.85
99642,52.43051,-1.484711,150.48,0.0,3.0,227.37,22 / 22,5542875,2019-09-07 11:59:36:029,0.1668,-0.5241,9.9901,0.0007,-0.0028,9.8066,-0.006,-0.0114,-0.0151,-13.25,-26.75,26.19,18.33,-83.89,-136.98
99643,52.43051,-1.484711,150.48,0.0,3.0,227.37,22 / 22,5542975,2019-09-07 11:59:36:129,0.1972,-0.4984,9.8539,0.0005,-0.0021,9.8066,-0.0065,-0.0093,-0.0112,-13.31,-26.75,25.88,18.14,-83.86,-137.17
99644,52.43051,-1.484711,150.48,0.0,3.0,227.37,22 / 22,5543076,2019-09-07 11:59:36:230,0.1116,-0.2424,9.7855,0.0007,-0.0012,9.8066,-0.0022,0.0154,0.0047,-13.44,-26.44,26.75,18.85,-83.84,-137.26
99645,52.43051,-1.484711,150.48,0.0,3.0,227.37,22 / 22,5543176,2019-09-07 11:59:36:330,0.1145,-0.4288,9.9236,0.0002,-0.0029,9.8066,0.0027,0.0129,0.0043,-13.31,-26.81,25.88,17.88,-83.81,-137.41
99646,52.43051,-1.484711,150.48,0.0,3.0,227.37,22 / 23,5543276,2019-09-07 11:59:36:430,0.1686,-0.4958,9.8977,0.0001,-0.0024,9.8066,0.0043,0.0187,0.0127,-13.19,-27.19,26.44,17.82,-83.78,-137.48
99647,52.43051,-1.484711,150.48,0.0,3.0,227.37,22 / 23,5543375,2019-09-07 11:59:36:529,0.1143,-0.2545,9.7724,0.0013,-0.0022,9.8066,-0.0034,0.0068,-0.0024,-14.0,-26.62,26.38,15.59,-83.74,-137.73
99648,52.43051,-1.484711,150.48,0.0,3.0,227.37,22 / 23,5543475,2019-09-07 11:59:36:629,0.1514,-0.4456,9.9577,0.0001,-0.0015,9.8066,-0.007,-0.0033,-0.0073,-13.19,-26.87,26.13,17.5,-83.72,-137.79
99649,52.43051,-1.484711,150.48,0.0,3.0,227.37,22 / 23,5543576,2019-09-07 11:59:36:730,0.1628,-0.432,9.9188,-0.0008,-0.0015,9.8066,-0.0093,-0.0071,-0.0097,-13.44,-26.94,25.88,17.43,-83.71,-137.85
99650,52.43051,-1.484711,150.48,0.0,3.0,227.37,22 / 23,5543675,2019-09-07 11:59:36:829,0.1611,-0.2213,9.7148,-0.0003,-0.0031,9.8066,-0.0015,0.0208,0.0059,-13.62,-26.56,26.25,15.5,-83.66,-137.84
99651,52.43051,-1.484711,150.48,0.0,3.0,227.37,22 / 23,5543775,2019-09-07 11:59:36:929,0.1338,-0.4647,9.9701,0.0014,-0.0022,9.8066,0.0049,0.0133,0.0064,-13.31,-26.81,26.38,17.35,-83.64,-137.94
99652,52.43051,-1.484711,150.48,0.0,3.0,227.37,22 / 23,5543876,2019-09-07 11:59:37:030,0.1791,-0.408,9.8654,0.0013,-0.0021,9.8066,0.0042,0.006,0.0055,-13.19,-26.37,25.69,16.95,-83.62,-138.25
99653,52.43051,-1.484711,150.48,0.0,3.0,227.37,22 / 23,5543975,2019-09-07 11:59:37:129,0.1688,-0.2315,9.7446,0.0015,-0.0021,9.8066,0.0008,-0.0103,-0.0122,-13.25,-26.69,26.06,16.78,-83.59,-138.47
99654,52.43051,-1.484711,150.48,0.0,3.0,227.37,22 / 23,5544075,2019-09-07 11:59:37:229,0.1287,-0.4126,9.9556,0.0001,-0.0014,9.8066,-0.0055,-0.0064,-0.0101,-13.69,-27.0,25.88,14.7,-83.57,-138.58
99655,52.43051,-1.484711,150.48,0.0,3.0,227.37,22 / 23,5544175,2019-09-07 11:59:37:329,0.169,-0.4032,9.8793,0.0004,-0.0023,9.8066,-0.0043,0.0015,-0.007,-13.62,-26.75,26.13,14.67,-83.54,-138.61
99656,52.43051,-1.484711,150.48,0.0,3.0,227.37,22 / 22,5544275,2019-09-07 11:59:37:429,0.1646,-0.1906,9.7586,0.0003,-0.0025,9.8066,0.0031,0.0152,0.0062,-13.19,-26.12,26.25,16.46,-83.5,-138.72
99657,52.43051,-1.484711,150.48,0.0,3.0,227.37,22 / 22,5544375,2019-09-07 11:59:37:529,0.1488,-0.4369,9.9937,0.0011,-0.0043,9.8066,0.0161,0.0184,0.0143,-13.31,-26.5,26.38,16.34,-83.48,-138.83
99658,52.43051,-1.484711,150.48,0.0,3.0,227.37,22 / 22,5544476,2019-09-07 11:59:37:630,0.1847,-0.3962,9.8539,0.0003,-0.0022,9.8066,0.0044,0.0166,0.0058,-13.25,-27.31,26.06,16.17,-83.44,-139.07
99659,52.43051,-1.484711,150.48,0.0,3.0,227.37,22 / 22,5544575,2019-09-07 11:59:37:729,0.1087,-0.1585,9.7236,0.0002,-0.0014,9.8066,-0.0023,0.0045,0.002,-13.69,-27.12,25.88,14.08,-83.41,-139.17
99660,52.43051,-1.484711,150.48,0.0,3.0,227.37,22 / 22,5544675,2019-09-07 11:59:37:829,0.1716,-0.413,9.9289,0.0001,-0.0011,9.8066,-0.0063,-0.006,-0.0108,-13.25,-26.56,25.75,16.02,-83.4,-139.2
99661,52.43051,-1.484711,150.48,0.0,3.0,227.37,22 / 22,5544776,2019-09-07 11:59:37:930,0.2082,-0.4174,9.8891,0.0003,-0.0014,9.8066,-0.0084,-0.0141,-0.016,-13.62,-26.62,25.56,14.02,-83.38,-139.24
99662,52.43051,-1.484711,150.48,0.0,3.0,227.37,22 / 22,5544876,2019-09-07 11:59:38:030,0.0733,-0.1241,9.7296,-0.0003,-0.0013,9.8066,-0.0034,0.0107,0.0008,-13.62,-26.56,26.06,13.98,-83.35,-139.28
99663,52.43051,-1.484711,150.48,0.0,3.0,227.37,22 / 22,5544975,2019-09-07 11:59:38:129,0.1248,-0.3781,9.9847,-0.0003,-0.001,9.8066,-0.0014,0.0101,0.0015,-13.56,-27.25,26.38,13.96,-83.33,-139.3
99664,52.43051,-1.484711,150.48,0.0,3.0,227.37,22 / 22,5545075,2019-09-07 11:59:38:229,0.1832,-0.3714,9.8979,0.0001,-0.0024,9.8066,0.0071,0.0176,0.0079,-13.19,-26.87,26.25,15.94,-83.29,-139.31
99665,52.43051,-1.484711,150.48,0.0,3.0,227.37,22 / 22,5545175,2019-09-07 11:59:38:329,0.1485,-0.1752,9.7074,0.0007,-0.0009,9.8065,-0.0017,-0.0003,-0.0059,-13.56,-26.62,26.13,13.71,-83.28,-139.54
99666,52.43051,-1.484711,150.48,0.0,3.0,227.37,22 / 23,5545275,2019-09-07 11:59:38:429,0.0987,-0.3622,9.9725,0.0004,-0.0006,9.8066,-0.0045,-0.0083,-0.0069,-13.37,-26.94,26.25,15.62,-83.27,-139.59
99667,52.43051,-1.484711,150.48,0.0,3.0,227.37,22 / 23,5545375,2019-09-07 11:59:38:529,0.1391,-0.3097,9.8656,-0.0009,-0.0011,9.8065,-0.0087,-0.0023,-0.0067,-13.12,-26.31,26.5,16.32,-83.26,-139.71
99668,52.43051,-1.484711,150.48,0.0,3.0,227.37,22 / 23,5545475,2019-09-07 11:59:38:629,0.1867,-0.2038,9.7828,-0.0006,-0.0024,9.8066,0.0027,0.0191,0.0054,-13.75,-27.19,26.44,13.61,-83.23,-139.64
99669,52.43051,-1.484711,150.48,0.0,3.0,227.37,22 / 23,5545576,2019-09-07 11:59:38:730,0.104,-0.3214,9.8446,0.0016,-0.0017,9.8066,0.0025,-0.0049,0.0019,-13.25,-26.62,26.06,15.53,-83.23,-139.69
99670,52.43051,-1.484711,150.48,0.0,3.0,227.37,22 / 23,5545675,2019-09-07 11:59:38:829,0.1444,-0.1878,9.8801,-0.0004,-0.0011,9.8066,-0.004,0.0006,-0.0039,-13.75,-26.5,25.94,13.33,-83.21,-139.83
99671,52.43051,-1.484711,150.48,0.0,3.0,227.37,22 / 23,5545776,2019-09-07 11:59:38:930,0.1935,-0.3386,10.0015,0.0006,-0.0005,9.8066,-0.0051,-0.0033,-0.0094,-13.69,-26.56,26.25,13.33,-83.2,-139.89
99672,52.43051,-1.484711,150.48,0.0,3.0,227.37,22 / 23,5545876,2019-09-07 11:59:39:030,0.1205,-0.2033,9.7754,-0.0002,-0.0023,9.8065,0.0035,0.011,0.0077,-13.31,-26.31,26.31,15.16,-83.18,-139.97
99673,52.43051,-1.484711,150.48,0.0,3.0,227.37,22 / 23,5545976,2019-09-07 11:59:39:130,0.1116,-0.1297,9.8016,0.0008,-0.0002,9.8066,0.0034,0.0123,0.0073,-13.19,-26.62,25.63,15.24,-83.16,-139.97
99674,52.43051,-1.484711,150.48,0.0,3.0,227.37,22 / 23,5546075,2019-09-07 11:59:39:229,0.1609,-0.3846,9.9319,0.0004,-0.0004,9.8066,-0.0019,-0.0079,-0.0063,-13.25,-26.69,26.31,15.14,-83.15,-140.05
99675,52.43051,-1.484711,150.48,0.0,3.0,227.37,22 / 23,5546175,2019-09-07 11:59:39:329,0.1202,-0.181,9.6712,0.0005,-0.0019,9.8066,-0.0006,-0.0076,-0.0103,-12.5,-26.87,26.0,17.17,-83.15,-140.08
99676,52.43051,-1.484711,150.48,0.0,3.0,227.37,22 / 23,5546275,2019-09-07 11:59:39:429,0.1207,-0.172,9.8611,-0.0002,-0.0018,9.8066,-0.0028,-0.0049,-0.0059,-13.25,-26.87,26.0,15.04,-83.12,-140.15
99677,52.43051,-1.484711,150.48,0.0,3.0,227.37,22 / 22,5546376,2019-09-07 11:59:39:530,0.0803,-0.1499,9.8178,-0.0009,-0.0016,9.8066,0.0028,0.0186,0.0101,-13.06,-27.06,25.81,15.05,-83.09,-140.15
99678,52.43051,-1.484711,150.48,0.0,3.0,227.37,22 / 22,5546476,2019-09-07 11:59:39:630,0.139,-0.2297,9.7875,0.0012,-0.0019,9.8066,-0.0046,0.018,0.0023,-13.37,-26.81,26.0,14.96,-83.07,-140.24
99679,52.43051,-1.484711,150.48,0.0,3.0,227.37,22 / 22,5546575,2019-09-07 11:59:39:729,0.2021,-0.4118,9.9094,0.0,-0.0009,9.8066,0.0036,0.0194,0.0117,-13.69,-26.62,26.81,13.94,-83.07,-140.23
99680,52.43051,-1.484711,150.48,0.0,3.0,227.37,22 / 22,5546675,2019-09-07 11:59:39:829,0.1144,-0.1798,9.8326,-0.0004,-0.0005,9.8066,-0.0044,-0.0056,-0.0063,-13.62,-26.12,26.69,13.83,-83.07,-140.27
99681,52.43051,-1.484711,150.48,0.0,3.0,227.37,22 / 22,5546775,2019-09-07 11:59:39:929,0.1524,-0.1619,9.7969,0.0008,-0.0014,9.8066,-0.0007,-0.0089,-0.0115,-13.44,-26.62,26.63,15.73,-83.06,-140.36
99682,52.43051,-1.484711,150.48,0.0,3.0,227.37,22 / 22,5546875,2019-09-07 11:59:40:029,0.1437,-0.3734,9.903,-0.0005,-0.0016,9.8066,-0.0036,-0.0061,-0.011,-13.75,-27.19,26.0,12.82,-83.04,-140.38
99683,52.43051,-1.484711,150.48,0.0,3.0,227.37,22 / 22,5546975,2019-09-07 11:59:40:129,0.0854,-0.1737,9.8781,0.0,-0.0007,9.8066,-0.0009,0.0058,0.0007,-13.12,-27.12,26.13,14.72,-83.02,-140.46
99684,52.43051,-1.484711,150.48,0.0,3.0,227.37,22 / 22,5547075,2019-09-07 11:59:40:229,0.1569,-0.1887,9.8275,0.0006,-0.0009,9.8066,0.0001,0.011,0.0067,-13.25,-26.5,26.13,14.59,-83.01,-140.52
99685,52.43051,-1.484711,150.48,0.0,3.0,227.37,22 / 22,5547176,2019-09-07 11:59:40:330,0.18,-0.3276,9.8951,0.0005,-0.0019,9.8066,0.0073,0.014,0.0115,-13.94,-26.94,26.06,12.58,-83.0,-140.6
99686,52.43051,-1.484711,150.48,0.0,3.0,227.37,22 / 23,5547275,2019-09-07 11:59:40:429,0.0665,-0.1583,9.8111,0.0011,-0.0003,9.8066,-0.0042,-0.0054,-0.0086,-13.12,-26.12,25.94,14.34,-82.99,-140.75
99687,52.43051,-1.484711,150.48,0.0,3.0,227.37,22 / 23,5547375,2019-09-07 11:59:40:529,0.1252,-0.1414,9.8814,0.0,-0.0013,9.8066,-0.0044,-0.0066,-0.0068,-13.19,-26.81,26.13,14.36,-82.97,-140.79
99688,52.43051,-1.484711,150.48,0.0,3.0,227.37,22 / 23,5547476,2019-09-07 11:59:40:630,0.151,-0.3177,9.8231,-0.0008,-0.0009,9.8066,-0.0028,-0.0033,-0.0079,-13.19,-26.94,26.06,14.42,-82.96,-140.75
99689,52.43051,-1.484711,150.48,0.0,3.0,227.37,22 / 23,5547576,2019-09-07 11:59:40:730,0.1148,-0.136,9.7881,-0.0002,-0.0002,9.8066,0.0022,0.0111,0.0054,-14.0,-26.94,26.31,12.39,-82.95,-140.78
99690,52.43051,-1.484711,150.48,0.0,3.0,227.37,22 / 23,5547675,2019-09-07 11:59:40:829,0.1374,-0.1913,9.9169,0.0003,-0.0015,9.8066,0.0034,0.0126,0.0114,-13.37,-26.19,26.0,14.26,-82.93,-140.83
99691,52.43051,-1.484711,150.48,0.0,3.0,227.37,22 / 23,5547775,2019-09-07 11:59:40:929,0.1598,-0.327,9.8801,0.0005,0.0005,9.8066,-0.0038,0.0239,0.0067,-13.19,-26.25,26.19,14.19,-82.92,-140.9
99692,52.43051,-1.484711,150.48,0.0,3.0,227.37,22 / 23,5547875,2019-09-07 11:59:41:029,0.0674,-0.1233,9.8085,0.0009,-0.0009,9.8066,-0.0045,-0.0095,-0.0167,-13.31,-27.0,25.31,13.17,-82.92,-141.0
99693,52.43051,-1.484711,150.48,0.0,3.0,227.37,22 / 23,5547976,2019-09-07 11:59:41:130,0.1644,-0.1974,9.8806,-0.0002,-0.0013,9.8066,-0.003,0.0005,-0.0089,-13.37,-26.5,25.75,13.97,-82.9,-141.1
99694,52.43051,-1.484711,150.48,0.0,3.0,227.37,22 / 23,5548075,2019-09-07 11:59:41:229,0.1601,-0.2947,9.8728,-0.001,-0.0002,9.8066,-0.0038,-0.0005,-0.0028,-13.5,-26.5,25.94,14.04,-82.89,-141.03
99695,52.43051,-1.484711,150.48,0.0,3.0,227.37,22 / 23,5548176,2019-09-07 11:59:41:330,0.0644,-0.0881,9.7754,0.0013,-0.0023,9.8066,0.0087,0.0129,0.007,-13.75,-26.69,25.94,12.25,-82.88,-140.92
99696,52.43051,-1.484711,150.48,0.0,3.0,227.37,22 / 23,5548275,2019-09-07 11:59:41:429,0.1627,-0.1947,9.9155,0.0005,-0.0002,9.8066,0.006,0.0165,0.0084,-13.19,-26.56,25.88,14.06,-82.87,-141.09
99697,52.43051,-1.484711,150.48,0.0,3.0,227.37,22 / 23,5548375,2019-09-07 11:59:41:529,0.1519,-0.2779,9.9437,0.0,-0.0009,9.8065,0.0024,0.0115,0.0068,-13.06,-26.06,26.19,13.94,-82.86,-141.14
99698,52.43051,-1.484711,150.48,0.0,3.0,227.37,22 / 23,5548476,2019-09-07 11:59:41:630,0.0291,-0.154,9.8797,-0.0009,-0.0003,9.8066,-0.0052,-0.0032,-0.01,-13.06,-26.75,26.38,14.05,-82.85,-141.1
99699,52.43051,-1.484711,150.48,0.0,3.0,227.37,22 / 23,5548575,2019-09-07 11:59:41:729,0.1412,-0.1145,9.844,0.0003,-0.0005,9.8066,-0.0041,-0.0119,-0.0127,-12.94,-26.75,26.38,14.06,-82.84,-141.09
99700,52.43051,-1.484711,150.48,0.0,3.0,227.37,22 / 23,5548675,2019-09-07 11:59:41:829,0.1909,-0.3339,9.9508,0.001,-0.0016,9.8066,-0.0062,-0.0088,-0.0132,-13.44,-26.62,26.0,14.03,-82.82,-141.12
99701,52.43051,-1.484711,150.48,0.0,3.0,227.37,22 / 23,5548776,2019-09-07 11:59:41:930,0.0643,-0.1547,9.8086,0.0007,-0.0003,9.8066,-0.0001,0.0113,0.0018,-12.81,-26.31,26.0,13.79,-82.81,-141.28
99702,52.43051,-1.484711,150.48,0.0,3.0,227.37,22 / 23,5548875,2019-09-07 11:59:42:029,0.1094,-0.0545,9.7769,0.0013,-0.0013,9.8066,0.0027,0.0199,0.0093,-13.0,-27.0,26.56,14.69,-82.79,-141.35
99703,52.43051,-1.484711,150.48,0.0,3.0,227.37,22 / 23,5548976,2019-09-07 11:59:42:130,0.1474,-0.3193,9.95,0.0,-0.0013,9.8066,0.003,0.0179,0.0093,-13.19,-26.75,26.0,13.71,-82.79,-141.42
99704,52.43051,-1.484711,150.48,0.0,3.0,227.37,22 / 23,5549076,2019-09-07 11:59:42:230,0.1608,-0.2878,9.8591,0.0004,-0.0016,9.8066,0.0035,0.0095,0.0121,-13.12,-26.69,25.44,12.73,-82.79,-141.42
99705,52.43051,-1.484711,150.48,0.0,3.0,227.37,22 / 23,5549176,2019-09-07 11:59:42:330,0.0942,0.0069,9.7463,-0.0002,-0.0009,9.8066,-0.0012,-0.0061,-0.0065,-13.06,-27.0,25.94,13.69,-82.76,-141.44
99706,52.43051,-1.484711,150.48,0.0,3.0,227.37,23 / 23,5549276,2019-09-07 11:59:42:430,0.1704,-0.3327,10.0087,0.0011,-0.0015,9.8066,-0.0076,-0.0055,-0.0146,-13.25,-26.62,26.38,13.66,-82.75,-141.47
99707,52.43051,-1.484711,150.48,0.0,3.0,227.37,23 / 23,5549375,2019-09-07 11:59:42:529,0.1445,-0.2796,9.8666,0.0007,-0.0025,9.8066,-0.0029,-0.0071,-0.013,-13.25,-27.12,25.75,13.5,-82.72,-141.61
99708,52.43051,-1.484711,150.48,0.0,3.0,227.37,23 / 23,5549475,2019-09-07 11:59:42:629,0.1223,-0.0287,9.7176,0.0009,0.0001,9.8066,-0.0022,0.0077,0.0008,-13.37,-27.12,26.0,13.36,-82.71,-141.74
99709,52.43051,-1.484711,150.48,0.0,3.0,227.37,23 / 23,5549575,2019-09-07 11:59:42:729,0.1481,-0.2515,9.9545,0.0018,-0.0009,9.8066,0.0047,0.015,0.0135,-13.62,-26.94,26.38,11.22,-82.71,-141.87
99710,52.43051,-1.484711,150.48,0.0,3.0,227.37,23 / 23,5549675,2019-09-07 11:59:42:829,0.1472,-0.3005,9.9299,0.0006,-0.0009,9.8066,0.002,0.0157,0.0078,-13.31,-27.12,25.94,13.14,-82.69,-141.94
99711,52.43051,-1.484711,150.48,0.0,3.0,227.37,23 / 23,5549776,2019-09-07 11:59:42:930,0.1225,-0.0276,9.7043,-0.0003,-0.0004,9.8066,0.0013,0.0064,0.0036,-13.44,-26.69,25.81,13.09,-82.69,-141.98
99712,52.43051,-1.484711,150.48,0.0,3.0,227.37,23 / 23,5549875,2019-09-07 11:59:43:029,0.1021,-0.1591,9.923,0.0009,-0.0014,9.8066,-0.0043,0.0014,-0.0086,-13.44,-26.81,26.5,14.01,-82.68,-141.98
99713,52.43051,-1.484711,150.48,0.0,3.0,227.37,23 / 23,5549975,2019-09-07 11:59:43:129,0.1337,-0.2854,10.0127,0.0008,-0.0015,9.8066,-0.0054,-0.0136,-0.0104,-13.25,-27.0,26.44,12.98,-82.66,-142.09
99714,52.43051,-1.484711,150.48,0.0,3.0,227.37,23 / 23,5550075,2019-09-07 11:59:43:229,0.1151,-0.0573,9.7375,0.0002,0.0016,9.8066,-0.0021,-0.0026,-0.0083,-13.44,-26.62,25.94,12.92,-82.66,-142.13
99715,52.43051,-1.484711,150.48,0.0,3.0,227.37,23 / 23,5550175,2019-09-07 11:59:43:329,0.1171,-0.1119,9.8685,0.001,0.0,9.8066,0.0012,0.0045,0.0003,-13.69,-26.94,25.5,10.84,-82.66,-142.21
99716,52.43051,-1.484711,150.48,0.0,3.0,227.37,23 / 23,5550278,2019-09-07 11:59:43:432,0.139,-0.247,9.97,0.0007,0.0002,9.8066,0.0095,0.0122,0.0137,-13.56,-26.31,26.0,10.68,-82.65,-142.3
99717,52.43051,-1.484711,150.48,0.0,3.0,227.37,22 / 22,5550376,2019-09-07 11:59:43:530,0.0742,-0.0487,9.7453,0.0006,-0.0008,9.8066,0.0048,0.0154,0.007,-13.06,-26.69,26.81,13.54,-82.64,-142.41
99718,52.43051,-1.484711,150.48,0.0,3.0,227.37,22 / 22,5550475,2019-09-07 11:59:43:629,0.1475,-0.1828,9.8626,-0.0005,-0.0006,9.8066,-0.0013,-0.0022,-0.0043,-13.19,-26.56,26.63,13.5,-82.62,-142.45
99719,52.43051,-1.484711,150.48,0.0,3.0,227.37,22 / 22,5550575,2019-09-07 11:59:43:729,0.1546,-0.2454,10.0176,-0.0005,-0.0014,9.8066,-0.0092,-0.0104,-0.015,-13.56,-26.94,26.19,10.54,-82.6,-142.48
99720,52.43051,-1.484711,150.48,0.0,3.0,227.37,22 / 22,5550675,2019-09-07 11:59:43:829,0.063,-0.0724,9.7747,0.0009,-0.0009,9.8066,-0.0046,0.0003,-0.0096,-13.25,-26.56,25.75,12.57,-82.6,-142.46
99721,52.43051,-1.484711,150.48,0.0,3.0,227.37,22 / 22,5550775,2019-09-07 11:59:43:929,0.1016,-0.1397,9.8414,0.0009,-0.001,9.8066,-0.0067,0.0076,-0.0015,-13.69,-27.19,25.56,10.39,-82.59,-142.61
99722,52.43051,-1.484711,150.48,0.0,3.0,227.37,22 / 22,5550875,2019-09-07 11:59:44:029,0.164,-0.2666,9.9567,0.0006,-0.0002,9.8066,0.0047,0.0179,0.0083,-13.06,-26.62,26.19,12.35,-82.6,-142.65
99723,52.43051,-1.484711,150.48,0.0,3.0,227.37,22 / 22,5550976,2019-09-07 11:59:44:130,0.0811,-0.0805,9.7284,0.0004,-0.0001,9.8066,0.004,0.0178,0.0114,-13.69,-26.31,26.13,10.18,-82.59,-142.75
99724,52.43051,-1.484711,150.48,0.0,3.0,227.37,22 / 22,5551075,2019-09-07 11:59:44:229,0.07,-0.1062,9.8283,0.0008,-0.0002,9.8066,0.0005,0.0063,-0.0009,-13.44,-26.12,26.5,13.11,-82.58,-142.75
99725,52.43051,-1.484711,150.48,0.0,3.0,227.37,22 / 22,5551175,2019-09-07 11:59:44:329,0.1403,-0.2158,10.0544,0.0011,-0.002,9.8066,-0.0079,-0.0086,-0.0113,-13.37,-26.06,25.5,12.1,-82.56,-142.82
99726,52.43051,-1.484711,150.48,0.0,3.0,227.37,23 / 23,5551276,2019-09-07 11:59:44:430,0.0841,-0.1673,9.8191,-0.0002,-0.0002,9.8066,-0.0071,-0.0139,-0.013,-13.5,-26.81,26.19,12.14,-82.56,-142.84
99727,52.43051,-1.484711,150.48,0.0,3.0,227.37,23 / 23,5551375,2019-09-07 11:59:44:529,0.0531,0.0351,9.6845,0.0008,-0.0014,9.8065,-0.0098,-0.0179,-0.0261,-13.31,-26.5,26.0,12.01,-82.54,-142.91
99728,52.43051,-1.484711,150.48,0.0,3.0,227.37,23 / 23,5551475,2019-09-07 11:59:44:629,0.1158,0.0039,9.7681,0.0,-0.0014,9.8066,-0.0044,-0.0012,-0.0067,-13.0,-27.12,26.0,11.9,-82.54,-143.06
99729,52.43051,-1.484711,150.48,0.0,3.0,227.37,23 / 23,5551575,2019-09-07 11:59:44:729,0.0967,-0.2458,9.9779,0.0002,-0.0004,9.8066,-0.002,0.0035,-0.0005,-12.94,-26.56,25.75,11.83,-82.53,-143.12
99730,52.43051,-1.484711,150.48,0.0,3.0,227.37,23 / 23,5551676,2019-09-07 11:59:44:830,0.0215,-0.0214,9.821,0.0011,0.0002,9.8066,0.0019,0.0237,0.0143,-13.19,-27.12,26.31,11.73,-82.53,-143.21
99731,52.43051,-1.484711,150.48,0.0,3.0,227.37,23 / 23,5551775,2019-09-07 11:59:44:929,0.0582,0.0391,9.7214,-0.0008,-0.0014,9.8066,0.0021,0.03,0.0107,-13.25,-26.5,25.94,11.69,-82.52,-143.19
99732,52.43051,-1.484711,150.48,0.0,3.0,227.37,23 / 23,5551875,2019-09-07 11:59:45:029,0.0882,-0.2525,10.0328,0.0,-0.0009,9.8066,0.0077,0.0174,0.007,-13.44,-26.5,26.25,11.57,-82.52,-143.3
99733,52.43051,-1.484711,150.48,0.0,3.0,227.37,23 / 23,5551976,2019-09-07 11:59:45:130,0.0626,-0.1739,9.8123,0.0009,-0.0009,9.8066,-0.0008,-0.0006,-0.0039,-13.44,-26.5,26.19,11.47,-82.5,-143.39
99734,52.43051,-1.484711,150.48,0.0,3.0,227.37,23 / 23,5552075,2019-09-07 11:59:45:229,0.0392,-0.0131,9.8197,0.0005,-0.0008,9.8066,-0.0062,-0.0101,-0.0117,-13.25,-26.44,26.44,11.46,-82.5,-143.4
99735,52.43051,-1.484711,150.48,0.0,3.0,227.37,23 / 23,5552175,2019-09-07 11:59:45:329,0.1091,-0.1043,9.9165,-0.0006,0.0003,9.8066,-0.0042,-0.0131,-0.0131,-14.19,-26.62,25.81,9.5,-82.49,-143.41
99736,52.43051,-1.484711,150.48,0.0,3.0,227.37,22 / 22,5552276,2019-09-07 11:59:45:430,0.1055,-0.2168,9.9342,0.0006,-0.0007,9.8066,-0.0046,-0.0079,-0.0086,-13.06,-26.37,26.0,11.35,-82.48,-143.5
99737,52.43051,-1.484711,150.48,0.0,3.0,227.37,22 / 22,5552375,2019-09-07 11:59:45:529,0.0075,-0.0276,9.8004,0.0013,-0.0003,9.8066,-0.0001,0.0083,0.0062,-13.31,-27.06,26.25,11.27,-82.47,-143.62
99738,52.43051,-1.484711,150.48,0.0,3.0,227.37,22 / 22,5552476,2019-09-07 11:59:45:630,0.075,-0.0564,9.8079,0.0007,-0.0011,9.8066,0.0038,0.0172,0.0072,-13.62,-26.81,25.81,9.13,-82.48,-143.73
99739,52.43051,-1.484711,150.48,0.0,3.0,227.37,22 / 22,5552575,2019-09-07 11:59:45:729,0.1346,-0.2644,9.9314,0.0001,-0.0004,9.8066,0.0021,0.0148,0.0058,-13.37,-26.5,26.13,11.0,-82.47,-143.81
99740,52.43051,-1.484711,150.48,0.0,3.0,227.37,22 / 22,5552675,2019-09-07 11:59:45:829,0.0253,-0.0697,9.8255,-0.0011,-0.0014,9.8066,-0.0064,-0.0009,-0.0043,-13.44,-27.5,26.13,11.06,-82.46,-143.81
99741,52.43051,-1.484711,150.48,0.0,3.0,227.37,22 / 22,5552776,2019-09-07 11:59:45:930,0.0281,-0.0742,9.8237,0.001,-0.0011,9.8066,-0.0043,-0.0102,-0.0126,-13.06,-27.06,26.19,11.08,-82.44,-143.8
99742,52.43051,-1.484711,150.48,0.0,3.0,227.37,22 / 22,5552875,2019-09-07 11:59:46:029,0.1264,-0.2449,9.9565,0.0001,-0.0006,9.8066,-0.0068,-0.0116,-0.013,-13.37,-26.56,25.81,10.97,-82.43,-143.89
99743,52.43051,-1.484711,150.48,0.0,3.0,227.37,22 / 22,5552975,2019-09-07 11:59:46:129,0.0562,-0.0981,9.8341,0.0013,-0.0012,9.8066,-0.0034,0.0066,-0.0011,-13.94,-27.06,26.31,8.89,-82.42,-143.95
99744,52.43051,-1.484711,150.48,0.0,3.0,227.37,22 / 22,5553075,2019-09-07 11:59:46:229,0.0606,-0.0088,9.7942,0.0004,-0.0014,9.8066,0.0022,0.0146,0.0097,-13.62,-27.62,26.75,9.84,-82.43,-144.03
99745,52.43051,-1.484711,150.48,0.0,3.0,227.37,22 / 22,5553176,2019-09-07 11:59:46:330,0.1104,-0.2254,9.9813,0.0014,-0.0012,9.8066,0.0073,0.022,0.0157,-13.31,-27.19,26.56,11.62,-82.41,-144.14
99746,52.43051,-1.484711,150.48,0.0,3.0,227.37,23 / 23,5553275,2019-09-07 11:59:46:429,0.0643,-0.2005,9.8823,0.0013,-0.0001,9.8066,0.0025,0.0138,0.0057,-13.12,-26.5,26.44,10.53,-82.4,-144.24
99747,52.43051,-1.484711,150.48,0.0,3.0,227.37,23 / 23,5553376,2019-09-07 11:59:46:530,0.041,0.027,9.7853,-0.0003,-0.0007,9.8066,-0.0024,0.0022,-0.0026,-13.56,-26.25,26.13,8.46,-82.39,-144.3
99748,52.43051,-1.484711,150.48,0.0,3.0,227.37,23 / 23,5553475,2019-09-07 11:59:46:629,0.1604,-0.233,9.9485,-0.0005,-0.0005,9.8066,-0.0104,-0.0132,-0.0164,-13.19,-26.69,26.0,10.49,-82.38,-144.32
99749,52.43051,-1.484711,150.48,0.0,3.0,227.37,23 / 23,5553575,2019-09-07 11:59:46:729,0.0541,-0.2206,10.0377,0.0003,-0.0001,9.8066,-0.0064,-0.0097,-0.0136,-13.12,-26.69,26.38,10.51,-82.38,-144.3
99750,52.43051,-1.484711,150.48,0.0,3.0,227.37,23 / 23,5553676,2019-09-07 11:59:46:830,0.0599,-0.0385,9.6964,-0.0008,-0.0001,9.8066,-0.0069,-0.0046,-0.0136,-13.25,-26.62,26.56,11.4,-82.38,-144.34
99751,52.43051,-1.484711,150.48,0.0,3.0,227.37,23 / 23,5553775,2019-09-07 11:59:46:929,0.1188,-0.0212,9.8163,0.0021,-0.0005,9.8066,-0.0025,0.0056,-0.0004,-13.31,-27.0,25.69,10.33,-82.38,-144.46
99752,52.43051,-1.484711,150.48,0.0,3.0,227.37,23 / 23,5553875,2019-09-07 11:59:47:029,0.1096,-0.1784,10.0356,0.0012,-0.0008,9.8066,0.0078,0.0161,0.0125,-13.06,-26.56,25.56,10.25,-82.38,-144.53
99753,52.43051,-1.484711,150.48,0.0,3.0,227.37,23 / 23,5553975,2019-09-07 11:59:47:129,0.0441,-0.199,9.8186,0.0,0.0,9.8066,0.0087,0.025,0.0173,-13.06,-26.56,25.94,10.13,-82.37,-144.64
99754,52.43051,-1.484711,150.48,0.0,3.0,227.37,23 / 23,5554076,2019-09-07 11:59:47:230,0.0511,0.0557,9.6733,0.0001,-0.0003,9.8065,0.0061,0.023,0.0145,-12.75,-26.25,26.19,9.96,-82.36,-144.74
99755,52.43051,-1.484711,150.48,0.0,3.0,227.37,23 / 23,5554175,2019-09-07 11:59:47:329,0.1199,-0.2241,9.9398,0.0004,-0.0008,9.8066,0.0018,0.0145,0.0047,-13.62,-27.25,25.56,7.97,-82.35,-144.77
99756,52.43051,-1.484711,150.48,0.0,3.0,227.37,22 / 22,5554275,2019-09-07 11:59:47:429,0.0375,-0.1485,9.8657,0.0,-0.0014,9.8066,0.0026,0.0022,-0.0005,-13.5,-26.37,25.94,9.91,-82.35,-144.79
99757,52.43051,-1.484711,150.48,0.0,3.0,227.37,22 / 22,5554376,2019-09-07 11:59:47:530,0.0791,0.0471,9.6589,-0.0005,-0.0013,9.8066,-0.0064,-0.0069,-0.0104,-13.44,-27.0,26.5,10.9,-82.33,-144.79
99758,52.43051,-1.484711,150.48,0.0,3.0,227.37,22 / 22,5554476,2019-09-07 11:59:47:630,0.1031,-0.2407,10.0033,0.0,-0.0002,9.8066,-0.0106,-0.0166,-0.0164,-13.75,-26.69,25.94,7.97,-82.31,-144.78
99759,52.43051,-1.484711,150.48,0.0,3.0,227.37,22 / 22,5554576,2019-09-07 11:59:47:730,0.1022,-0.2067,9.9294,-0.0006,-0.0013,9.8066,-0.0087,-0.0154,-0.0154,-13.31,-26.81,26.31,9.97,-82.3,-144.79
99760,52.43051,-1.484711,150.48,0.0,3.0,227.37,22 / 22,5554676,2019-09-07 11:59:47:830,0.0022,0.0736,9.7794,0.0023,-0.0008,9.8066,-0.002,0.0029,-0.0044,-13.37,-26.56,26.5,10.69,-82.3,-144.98
99761,52.43051,-1.484711,150.48,0.0,3.0,227.37,22 / 22,5554775,2019-09-07 11:59:47:929,0.0469,-0.074,9.8966,0.0006,0.0004,9.8066,0.0008,0.0066,-0.0009,-13.25,-26.56,25.75,9.7,-82.3,-145.03
99762,52.43051,-1.484711,150.48,0.0,3.0,227.37,22 / 22,5554875,2019-09-07 11:59:48:029,0.1249,-0.2014,10.0385,0.0015,-0.0007,9.8066,0.0098,0.0302,0.0128,-13.69,-26.37,26.0,7.51,-82.29,-145.15
99763,52.43051,-1.484711,150.48,0.0,3.0,227.37,22 / 22,5554975,2019-09-07 11:59:48:129,0.027,-0.0518,9.8367,0.0005,-0.0008,9.8066,0.0022,0.0208,0.0123,-13.69,-26.5,25.94,7.33,-82.28,-145.3
99764,52.43051,-1.484711,150.48,0.0,3.0,227.37,22 / 22,5555075,2019-09-07 11:59:48:229,0.0346,0.0163,9.799,0.0004,-0.0014,9.8066,0.0041,0.0013,-0.0007,-13.62,-27.19,25.81,7.36,-82.27,-145.31
99765,52.43051,-1.484711,150.48,0.0,3.0,227.37,22 / 22,5555176,2019-09-07 11:59:48:330,0.1122,-0.1508,9.9397,0.0,-0.0007,9.8066,-0.0034,-0.0045,-0.0102,-13.81,-26.25,26.25,7.26,-82.25,-145.36
99766,52.43051,-1.484711,150.48,0.0,3.0,227.37,22 / 22,5555277,2019-09-07 11:59:48:431,0.0708,-0.1814,9.9607,0.0002,-0.0018,9.8066,-0.006,-0.0182,-0.0192,-13.75,-27.0,26.19,7.26,-82.24,-145.4
99767,52.43051,-1.484711,150.48,0.0,3.0,227.37,22 / 22,5555375,2019-09-07 11:59:48:529,0.0091,0.0549,9.7856,0.0009,0.0002,9.8066,-0.0045,-0.0072,-0.0159,-13.62,-26.62,26.25,7.19,-82.23,-145.46
99768,52.43051,-1.484711,150.48,0.0,3.0,227.37,22 / 22,5555476,2019-09-07 11:59:48:630,0.0083,0.0657,9.7377,-0.0001,-0.0004,9.8066,-0.0074,-0.0127,-0.0125,-13.19,-26.62,26.5,10.12,-82.23,-145.49
99769,52.43051,-1.484711,150.48,0.0,3.0,227.37,22 / 22,5555575,2019-09-07 11:59:48:729,0.0721,-0.217,10.0062,0.0008,-0.0001,9.8066,-0.002,0.0041,-0.0016,-13.37,-26.94,26.19,9.13,-82.23,-145.53
99770,52.43051,-1.484711,150.48,0.0,3.0,227.37,22 / 22,5555676,2019-09-07 11:59:48:830,0.0221,-0.0125,9.8091,0.0014,-0.001,9.8066,0.0017,0.0143,0.0072,-13.31,-26.25,26.0,8.98,-82.23,-145.61
99771,52.43051,-1.484711,150.48,0.0,3.0,227.37,22 / 22,5555775,2019-09-07 11:59:48:929,-0.0261,0.0732,9.7254,0.0006,0.0006,9.8066,0.0069,0.0197,0.0131,-13.87,-26.75,26.25,6.87,-82.24,-145.74
99772,52.43051,-1.484711,150.48,0.0,3.0,227.37,22 / 22,5555875,2019-09-07 11:59:49:029,0.0686,-0.1602,9.9936,0.0011,-0.0008,9.8066,0.003,0.0122,0.0088,-13.37,-26.5,26.38,8.76,-82.22,-145.81
99773,52.43051,-1.484711,150.48,0.0,3.0,227.37,22 / 22,5555975,2019-09-07 11:59:49:129,0.0903,-0.1409,9.8681,0.0004,0.0,9.8066,0.0002,0.0153,-0.0004,-13.19,-26.37,26.0,8.72,-82.21,-145.84
99774,52.43051,-1.484711,150.48,0.0,3.0,227.37,22 / 22,5556075,2019-09-07 11:59:49:229,-0.0279,0.0699,9.7736,-0.0001,-0.0015,9.8066,-0.0056,-0.0189,-0.0165,-13.75,-26.37,26.31,6.74,-82.21,-145.82
99775,52.43051,-1.484711,150.48,0.0,3.0,227.37,22 / 22,5556175,2019-09-07 11:59:49:329,0.0758,-0.2243,10.004,-0.0003,0.0005,9.8066,-0.0103,-0.0103,-0.0179,-13.37,-26.87,26.19,8.8,-82.2,-145.82
99776,52.43051,-1.484711,150.48,0.0,3.0,227.37,22 / 22,5556275,2019-09-07 11:59:49:429,0.044,0.0399,9.8439,0.0001,0.0,9.8066,-0.0014,-0.0079,-0.0088,-13.62,-26.75,26.13,6.77,-82.19,-145.83
99777,52.43051,-1.484711,150.48,0.0,3.0,227.37,22 / 22,5556376,2019-09-07 11:59:49:530,0.1043,-0.056,9.8492,0.0009,0.0007,9.8066,-0.0019,0.0156,0.0021,-13.31,-26.19,26.31,8.69,-82.19,-145.88
99778,52.43051,-1.484711,150.48,0.0,3.0,227.37,22 / 22,5556475,2019-09-07 11:59:49:629,0.0698,-0.1648,10.0093,0.0016,0.0002,9.8066,0.0084,0.0195,0.0158,-13.56,-26.69,26.5,7.6,-82.21,-145.98
99779,52.43051,-1.484711,150.48,0.0,3.0,227.37,22 / 22,5556576,2019-09-07 11:59:49:730,0.0272,-0.0757,9.8054,0.0004,0.0002,9.8066,0.0073,0.022,0.0158,-13.12,-26.69,25.88,8.57,-82.2,-146.02
99780,52.43051,-1.484711,150.48,0.0,3.0,227.37,22 / 22,5556675,2019-09-07 11:59:49:829,0.0532,0.0417,9.7628,0.0002,-0.0004,9.8066,-0.0018,0.0086,0.0018,-13.37,-26.62,26.31,8.58,-82.2,-146.02
99781,52.43051,-1.484711,150.48,0.0,3.0,227.37,22 / 22,5556775,2019-09-07 11:59:49:929,0.0798,-0.1269,9.9768,0.0004,-0.0005,9.8066,-0.0016,-0.0012,-0.0087,-13.56,-26.69,26.13,6.51,-82.19,-146.05
99782,52.43051,-1.484711,150.48,0.0,3.0,227.37,22 / 22,5556875,2019-09-07 11:59:50:029,0.071,-0.1627,9.8562,-0.0008,-0.0015,9.8066,-0.0067,-0.0129,-0.0153,-12.81,-26.81,25.75,8.5,-82.18,-146.08
99783,52.43051,-1.484711,150.48,0.0,3.0,227.37,22 / 22,5556975,2019-09-07 11:59:50:129,0.0488,0.0657,9.788,0.0004,0.0005,9.8066,-0.0041,-0.008,-0.0128,-12.94,-26.87,26.0,8.51,-82.18,-146.08
99784,52.43051,-1.484711,150.48,0.0,3.0,227.37,22 / 22,5557075,2019-09-07 11:59:50:229,0.0672,-0.0155,9.8885,-0.0002,0.0008,9.8066,-0.0004,0.0051,-0.0037,-13.25,-26.44,25.44,7.45,-82.18,-146.07
99785,52.43051,-1.484711,150.48,0.0,3.0,227.37,22 / 22,5557175,2019-09-07 11:59:50:329,0.0744,-0.2177,9.9121,0.0005,-0.0001,9.8066,0.001,0.0081,0.0077,-13.5,-26.69,26.0,8.44,-82.18,-146.13
99786,52.43051,-1.484711,150.48,0.0,3.0,227.37,22 / 23,5557275,2019-09-07 11:59:50:429,0.0034,0.0993,9.7084,0.0002,-0.0002,9.8066,0.0004,0.0223,0.014,-13.44,-26.87,25.88,8.36,-82.18,-146.21
99787,52.43051,-1.484711,150.48,0.0,3.0,227.37,22 / 23,5557376,2019-09-07 11:59:50:530,0.0475,0.0492,9.751,0.0005,0.0003,9.8066,0.0045,0.0169,0.0091,-13.25,-26.87,26.06,8.32,-82.18,-146.24
99788,52.43051,-1.484711,150.48,0.0,3.0,227.37,22 / 23,5557475,2019-09-07 11:59:50:629,0.0909,-0.2108,10.0535,0.0007,-0.0009,9.8066,-0.0011,0.0073,0.0062,-13.44,-26.75,26.38,8.35,-82.18,-146.21
99789,52.43051,-1.484711,150.48,0.0,3.0,227.37,22 / 23,5557575,2019-09-07 11:59:50:729,-0.0093,0.0256,9.7496,-0.0007,-0.001,9.8066,-0.0067,-0.0064,-0.0137,-13.06,-26.44,26.13,8.38,-82.16,-146.15
99790,52.43051,-1.484711,150.48,0.0,3.0,227.37,22 / 23,5557676,2019-09-07 11:59:50:830,0.0214,0.0669,9.7056,-0.0002,0.0007,9.8066,-0.0049,-0.0159,-0.0136,-13.12,-26.75,25.81,8.44,-82.16,-146.14
99791,52.43051,-1.484711,150.48,0.0,3.0,227.37,22 / 23,5557775,2019-09-07 11:59:50:929,0.0835,-0.1314,10.0473,-0.0002,-0.0002,9.8066,-0.0093,-0.0128,-0.0134,-13.81,-26.69,26.5,7.41,-82.16,-146.15
99792,52.43051,-1.484711,150.48,0.0,3.0,227.37,22 / 23,5557876,2019-09-07 11:59:51:030,0.0153,-0.1283,9.8463,0.0002,0.0004,9.8066,0.0027,0.0053,0.0041,-13.37,-26.81,26.63,9.44,-82.16,-146.09
99793,52.43051,-1.484711,150.48,0.0,3.0,227.37,22 / 23,5557975,2019-09-07 11:59:51:129,0.0065,0.0114,9.7271,0.0009,-0.0002,9.8066,-0.0021,0.015,0.0064,-13.5,-26.56,25.88,8.4,-82.15,-146.17
99794,52.43051,-1.484711,150.48,0.0,3.0,227.37,22 / 23,5558075,2019-09-07 11:59:51:229,0.0353,0.0146,9.7413,0.0,-0.0001,9.8066,0.0061,0.0242,0.0104,-14.06,-26.56,25.88,6.37,-82.16,-146.18
99795,52.43051,-1.484711,150.48,0.0,3.0,227.37,22 / 23,5558176,2019-09-07 11:59:51:330,0.0447,-0.1726,10.0784,-0.0001,-0.0004,9.8066,0.0047,0.0225,0.0146,-13.5,-26.81,26.31,8.36,-82.16,-146.2
99796,52.43051,-1.484711,150.48,0.0,3.0,227.37,22 / 22,5558276,2019-09-07 11:59:51:430,0.0415,-0.2029,9.9425,0.0008,0.0001,9.8066,0.0001,0.0213,0.0093,-13.62,-27.0,27.06,7.3,-82.16,-146.24
99797,52.43051,-1.484711,150.48,0.0,3.0,227.37,22 / 22,5558376,2019-09-07 11:59:51:530,-0.0441,0.1106,9.7231,-0.0008,-0.0001,9.8065,0.0009,0.0037,-0.0019,-13.81,-26.81,26.19,6.35,-82.16,-146.2
99798,52.43051,-1.484711,150.48,0.0,3.0,227.37,22 / 22,5558475,2019-09-07 11:59:51:629,0.0725,-0.1596,9.9989,0.0005,0.0002,9.8066,-0.0063,-0.0066,-0.0098,-13.44,-26.31,26.13,8.38,-82.16,-146.15
99799,52.43051,-1.484711,150.48,0.0,3.0,227.37,22 / 22,5558576,2019-09-07 11:59:51:730,0.0294,-0.1307,10.0524,-0.0003,-0.0003,9.8065,-0.0063,-0.0226,-0.018,-13.87,-26.56,26.31,6.42,-82.15,-146.14
99800,52.43051,-1.484711,150.48,0.0,3.0,227.37,22 / 22,5558676,2019-09-07 11:59:51:830,-0.0339,-0.0337,9.8056,-0.001,0.0006,9.8066,-0.0084,-0.0196,-0.0188,-13.56,-27.12,26.0,6.43,-82.14,-146.13
99801,52.43051,-1.484711,150.48,0.0,3.0,227.37,22 / 22,5558776,2019-09-07 11:59:51:930,0.0465,0.0478,9.7013,0.001,0.001,9.8066,-0.004,-0.0124,-0.0134,-13.69,-26.5,26.06,6.38,-82.15,-146.14
99802,52.43051,-1.484711,150.48,0.0,3.0,227.37,22 / 22,5558875,2019-09-07 11:59:52:029,0.0445,-0.0095,9.8927,-0.0001,0.0003,9.8066,-0.0023,0.0053,0.0025,-13.75,-27.44,25.94,6.41,-82.14,-146.15
99803,52.43051,-1.484711,150.48,0.0,3.0,227.37,22 / 22,5558976,2019-09-07 11:59:52:130,0.0625,-0.1821,9.9102,0.001,-0.0004,9.8066,0.003,0.0177,0.0098,-13.94,-26.62,26.38,6.34,-82.14,-146.21
99804,52.43051,-1.484711,150.48,0.0,3.0,227.37,22 / 22,5559075,2019-09-07 11:59:52:229,-0.002,0.064,9.6952,0.0004,-0.0003,9.8066,0.0059,0.0188,0.015,-13.06,-26.75,26.25,8.27,-82.14,-146.29
99805,52.43051,-1.484711,150.48,0.0,3.0,227.37,22 / 22,5559175,2019-09-07 11:59:52:329,0.0006,0.0532,9.6985,0.0,0.0001,9.8066,0.0046,0.0235,0.0133,-13.06,-26.62,25.56,8.28,-82.14,-146.28
99806,52.43051,-1.484711,150.48,0.0,3.0,227.37,22 / 23,5559275,2019-09-07 11:59:52:429,0.1014,-0.1712,10.0395,-0.0009,-0.0014,9.8066,-0.0031,0.0054,-0.0076,-13.37,-26.81,26.25,8.28,-82.13,-146.28
99807,52.43051,-1.484711,150.48,0.0,3.0,227.37,22 / 23,5559376,2019-09-07 11:59:52:530,0.0258,0.018,9.7513,0.0009,-0.0008,9.8066,-0.0033,-0.0048,-0.0087,-13.31,-26.75,26.94,9.15,-82.12,-146.35
99808,52.43051,-1.484711,150.48,0.0,3.0,227.37,22 / 23,5559475,2019-09-07 11:59:52:629,-0.0109,0.1022,9.8143,0.0002,-0.0001,9.8066,-0.0038,-0.0156,-0.013,-13.31,-26.44,26.0,8.22,-82.11,-146.3
99809,52.43051,-1.484711,150.48,0.0,3.0,227.37,22 / 23,5559575,2019-09-07 11:59:52:729,0.0961,-0.1923,10.0131,0.0,0.0002,9.8066,-0.0049,-0.0005,-0.0077,-13.75,-26.25,26.5,7.12,-82.11,-146.38
99810,52.43051,-1.484711,150.48,0.0,3.0,227.37,22 / 23,5559676,2019-09-07 11:59:52:830,0.0047,-0.0764,9.8253,-0.0003,0.0006,9.8066,-0.0012,0.0109,0.0037,-13.31,-26.5,25.94,8.1,-82.11,-146.4
99811,52.43051,-1.484711,150.48,0.0,3.0,227.37,22 / 23,5559775,2019-09-07 11:59:52:929,0.0002,0.0561,9.811,0.0008,0.0003,9.8066,0.0028,0.0163,0.0101,-13.5,-26.87,25.88,8.13,-82.11,-146.42
99812,52.43051,-1.484711,150.48,0.0,3.0,227.37,22 / 23,5559875,2019-09-07 11:59:53:029,0.1242,-0.0709,9.9416,-0.0012,-0.0011,9.8066,0.0044,0.0123,0.0145,-13.19,-27.06,26.0,8.11,-82.12,-146.43
99813,52.43051,-1.484711,150.48,0.0,3.0,227.37,22 / 23,5559975,2019-09-07 11:59:53:129,0.0403,-0.1339,9.8505,0.0002,-0.0011,9.8066,-0.0003,0.0076,0.0047,-13.44,-27.0,25.88,8.16,-82.1,-146.39
99814,52.43051,-1.484711,150.48,0.0,3.0,227.37,22 / 23,5560076,2019-09-07 11:59:53:230,-0.0071,0.0239,9.8069,0.0002,-0.0006,9.8066,-0.0037,-0.0063,-0.0092,-13.5,-26.5,26.63,9.15,-82.09,-146.31
99815,52.43051,-1.484711,150.48,0.0,3.0,227.37,22 / 23,5560175,2019-09-07 11:59:53:329,0.1124,0.0016,9.7854,0.0009,-0.001,9.8066,-0.0059,-0.0158,-0.0158,-13.62,-26.56,25.81,6.17,-82.08,-146.36
99816,52.43051,-1.484711,150.48,0.0,3.0,227.37,21 / 22,5560278,2019-09-07 11:59:53:432,0.0506,-0.1574,9.8833,0.0005,-0.0015,9.8066,0.007,0.0151,0.0118,-13.31,-26.44,26.44,8.18,-82.08,-146.33
99817,52.43051,-1.484711,150.48,0.0,3.0,227.37,21 / 22,5560375,2019-09-07 11:59:53:529,-0.0033,0.0323,9.7785,-0.0012,0.0015,9.8066,0.0014,0.0074,0.0071,-13.37,-26.56,26.56,9.2,-82.07,-146.31
99818,52.43051,-1.484711,150.48,0.0,3.0,227.37,21 / 22,5560476,2019-09-07 11:59:53:630,0.0968,-0.1528,9.9707,0.0006,0.0004,9.8066,-0.0049,-0.0104,-0.0133,-13.5,-26.62,26.06,8.28,-82.08,-146.29
