,GPS LATITUDE (degrees), GPS LONGITUDE (degrees), GPS ALTITUDE (m), GPS SPEED (Kmh), GPS ACCURACY (m), GPS ORIENTATION (Â°),GPS SATELLITES IN RANGE, TIME SINCE START (ms), DATE (YYYY-MO-DD HH-MI-SS_SSS), ACCELEROMETER X (m/s²) , ACCELEROMETER Y (m/s²), ACCELEROMETER Z (m/s²), GRAVITY X (m/s²), GRAVITY Y (m/s²), GRAVITY Z (m/s²), GYROSCOPE Yaw (rad/s), GYROSCOPE Pitch (rad/s), GYROSCOPE Roll (rad/s), MAGNETIC FIELD X (Î¼T), MAGNETIC FIELD Y (Î¼T), MAGNETIC FIELD Z (Î¼T), ORIENTATION (Yaw) (Â°), ORIENTATION (Pitch) (Â°), ORIENTATION (Roll ) (Â°)
50559,53.68058,-1.554486,127.42,24.97,6,351.7,21 / 23,5055938,2019-11-08 11:21:33:549,4.7495,2.4843,8.8526,0.0034,0.0147,9.8066,0.141,-0.4948,0.3731,-9.87,-46.44,30.81,8.1,-80.75,-155.96
50560,53.68058,-1.554486,127.42,24.97,6,351.7,21 / 23,5056038,2019-11-08 11:21:33:649,-1.3164,0.1038,9.3976,-0.0236,-0.0207,9.8066,0.0934,-0.3989,0.1916,-9.94,-46.87,31.06,7.78,-80.87,-156.22
50561,53.68058,-1.554486,127.42,24.97,6,351.7,21 / 23,5056138,2019-11-08 11:21:33:749,5.0581,1.3092,9.106,0.0715,0.0388,9.8063,0.0302,0.0586,-0.0592,-9.75,-46.62,30.06,10.02,-80.73,-154.06
50562,53.68058,-1.554486,127.42,24.97,6,351.7,21 / 23,5056238,2019-11-08 11:21:33:849,-0.5061,0.8691,9.1044,0.0322,0.0346,9.8065,-0.1228,0.2972,-0.1338,-9.37,-46.44,30.25,9.77,-81.09,-155.86
50563,53.68058,-1.554486,127.42,24.97,6,351.7,21 / 23,5056338,2019-11-08 11:21:33:949,4.8682,1.6829,8.7286,0.0015,-0.0028,9.8066,-0.0908,0.5912,-0.3123,-9.25,-46.87,30.94,10.31,-81.01,-155.96
50564,53.68058,-1.554486,127.42,24.97,6,351.7,21 / 23,5056438,2019-11-08 11:21:34:049,1.0802,0.6166,9.5554,0.0456,0.0523,9.8063,-0.0808,0.4854,-0.3416,-9.87,-46.87,30.44,6.98,-81.19,-156.25
50565,53.682625,-1.554978,132.26,25.34,6,351.42,21 / 23,5056539,2019-11-08 11:21:34:150,-4.7874,0.0562,10.5281,-0.0389,-0.0309,9.8065,-0.0204,0.0635,0.0463,-10.56,-46.62,30.31,5.68,-81.1,-155.55
50566,53.682625,-1.554978,132.26,25.34,6,351.42,21 / 23,5056639,2019-11-08 11:21:34:250,2.4362,1.5692,8.9849,-0.0167,-0.0243,9.8066,0.0952,-0.2327,0.1739,-9.94,-46.81,31.0,8.95,-80.85,-155.33
50567,53.682625,-1.554978,132.26,25.34,6,351.42,21 / 23,5056738,2019-11-08 11:21:34:349,-2.5333,-0.6288,10.328,-0.0187,-0.0207,9.8066,0.0786,-0.4715,0.1954,-10.0,-46.75,31.5,9.35,-80.92,-155.47
50568,53.682625,-1.554978,132.26,25.34,6,351.42,21 / 23,5056839,2019-11-08 11:21:34:450,-1.5769,-1.285,9.7536,-0.034,-0.0247,9.8065,0.0909,-0.345,0.2021,-10.56,-46.87,30.19,5.17,-81.03,-155.94
50569,53.682625,-1.554978,132.26,25.34,6,351.42,21 / 23,5056939,2019-11-08 11:21:34:550,-0.1773,-0.2063,9.1497,0.0119,0.0169,9.8065,-0.0471,-0.0342,-0.0143,-9.87,-47.06,29.94,9.39,-81.09,-154.44
50570,53.682625,-1.554978,132.26,25.34,6,351.42,21 / 23,5057039,2019-11-08 11:21:34:650,-1.2328,0.1847,10.9628,-0.0113,-0.0049,9.8065,-0.1064,-0.0068,-0.0207,-10.44,-46.62,31.44,10.65,-81.08,-153.97
50571,53.682625,-1.554978,132.26,25.34,6,351.42,21 / 23,5057139,2019-11-08 11:21:34:750,0.0188,1.5127,9.4932,0.0152,0.0002,9.8066,0.0077,0.1633,-0.0381,-10.44,-46.37,30.5,9.24,-81.01,-155.02
50572,53.682625,-1.554978,132.26,25.34,6,351.42,21 / 23,5057239,2019-11-08 11:21:34:850,-0.8361,0.0365,10.2834,0.0259,-0.0035,9.8066,0.0224,0.1164,-0.1026,-10.37,-46.75,31.31,6.99,-80.96,-156.8
50573,53.682625,-1.554978,132.26,25.34,6,351.42,21 / 23,5057339,2019-11-08 11:21:34:950,-0.1254,-0.2765,10.4352,0.0207,0.0038,9.8066,0.0511,-0.0291,-0.0312,-9.69,-46.12,30.94,6.08,-80.93,-157.47
50574,53.682625,-1.554978,132.26,25.34,6,351.42,21 / 23,5057438,2019-11-08 11:21:35:049,0.4631,-0.2692,9.5898,-0.0032,-0.0062,9.8066,0.0132,-0.0996,0.0789,-10.12,-45.81,30.63,5.62,-80.91,-157.82
50575,53.682625,-1.554978,132.26,25.34,6,351.42,22 / 24,5057538,2019-11-08 11:21:35:149,-0.9074,0.3194,9.5142,-0.0029,0.0054,9.8066,0.0104,-0.0331,0.0319,-10.25,-45.19,30.38,4.7,-80.88,-157.98
50576,53.682625,-1.554978,132.26,25.34,6,351.42,22 / 24,5057638,2019-11-08 11:21:35:249,-1.1156,-1.2562,10.174,-0.0103,0.0074,9.8066,-0.0935,0.1342,-0.039,-9.87,-44.37,30.44,5.36,-80.93,-157.45
50577,53.682625,-1.554978,132.26,25.34,6,351.42,22 / 24,5057738,2019-11-08 11:21:35:349,0.6389,-0.6539,9.6676,-0.012,-0.0154,9.8065,-0.0463,0.1892,-0.1139,-9.75,-44.0,30.81,6.57,-80.85,-157.05
50578,53.682625,-1.554978,132.26,25.34,6,351.42,22 / 24,5057838,2019-11-08 11:21:35:449,-1.5547,-0.6222,10.1352,0.0207,0.0183,9.8066,-0.0053,-0.0358,0.0306,-10.37,-43.12,30.88,5.36,-80.95,-157.94
50579,53.682625,-1.554978,132.26,25.34,6,351.42,22 / 24,5057938,2019-11-08 11:21:35:549,-0.7131,0.3717,10.1704,0.023,0.0077,9.8065,0.0354,-0.0731,0.0593,-9.37,-42.62,31.5,8.06,-80.92,-157.97
50580,53.682625,-1.554978,132.26,25.34,6,351.42,22 / 24,5058039,2019-11-08 11:21:35:650,2.1375,-0.2252,9.9805,-0.0142,-0.0088,9.8066,0.0337,-0.1753,0.1627,-8.94,-43.44,30.94,7.21,-80.86,-158.21
50581,53.682625,-1.554978,132.26,25.34,6,351.42,22 / 24,5058138,2019-11-08 11:21:35:749,-1.2743,-1.0063,9.9371,-0.0311,-0.0164,9.8065,0.0003,-0.2439,0.1529,-9.12,-43.25,32.19,9.04,-80.87,-157.22
50582,53.682625,-1.554978,132.26,25.34,6,351.42,22 / 24,5058239,2019-11-08 11:21:35:850,2.0178,-0.1926,9.1968,-0.0211,-0.0082,9.8066,-0.0616,-0.0694,0.0266,-9.5,-44.0,32.75,11.12,-80.8,-156.04
50583,53.682625,-1.554978,132.26,25.34,6,351.42,22 / 24,5058338,2019-11-08 11:21:35:949,-2.5158,-1.6457,10.767,0.0035,0.0021,9.8066,0.0319,0.0864,-0.1392,-10.19,-45.06,32.5,8.96,-80.82,-156.15
50584,53.682625,-1.554978,132.26,25.34,6,351.42,22 / 24,5058439,2019-11-08 11:21:36:050,-2.4656,-1.8359,9.6397,-0.0193,0.018,9.8066,0.0256,0.4225,-0.2683,-9.81,-46.87,30.63,5.68,-81.17,-157.77
50585,53.682625,-1.554978,132.26,25.34,6,351.42,21 / 24,5058539,2019-11-08 11:21:36:150,1.7802,-0.5537,9.2437,0.0141,0.0014,9.8065,-0.0499,0.3322,-0.2979,-9.87,-46.56,29.19,4.69,-81.39,-157.41
50586,53.682625,-1.554978,132.26,25.34,6,351.42,21 / 24,5058639,2019-11-08 11:21:36:250,-2.6691,-0.0852,10.8797,-0.0329,-0.0334,9.8065,0.0213,0.0387,-0.0389,-9.94,-46.25,29.69,5.14,-81.59,-157.57
50587,53.682625,-1.554978,132.26,25.34,6,351.42,21 / 24,5058739,2019-11-08 11:21:36:350,-1.3029,-0.9518,9.711,-0.0308,-0.035,9.8064,-0.0508,-0.1711,0.1288,-10.0,-46.62,30.25,7.13,-81.35,-156.1
50588,53.682625,-1.554978,132.26,25.34,6,351.42,21 / 24,5058839,2019-11-08 11:21:36:450,-2.7375,-0.6791,10.1347,0.0039,0.0074,9.8065,0.1048,-0.4075,0.2809,-10.06,-46.19,30.38,7.06,-81.24,-156.15
50589,53.682625,-1.554978,132.26,25.34,6,351.42,21 / 24,5058939,2019-11-08 11:21:36:550,-2.3241,-2.1037,9.6656,-0.0172,-0.0264,9.8066,0.1395,-0.396,0.2085,-10.12,-46.37,30.0,6.28,-81.37,-156.72
50590,53.682625,-1.554978,132.26,25.34,6,351.42,21 / 24,5059039,2019-11-08 11:21:36:650,3.2152,0.596,9.793,0.054,0.0245,9.8064,-0.0198,-0.1684,0.0581,-11.0,-46.0,30.56,6.06,-81.28,-155.76
50591,53.682625,-1.554978,132.26,25.34,6,351.42,21 / 24,5059139,2019-11-08 11:21:36:750,-3.3279,-1.5032,10.562,0.024,0.0265,9.8065,-0.0417,0.1405,0.0044,-11.12,-44.87,30.94,5.36,-81.45,-156.25
50592,53.682625,-1.554978,132.26,25.34,6,351.42,21 / 24,5059239,2019-11-08 11:21:36:850,1.8524,0.6661,10.2668,0.0225,0.0001,9.8065,-0.0658,0.4156,-0.2315,-11.75,-45.0,30.56,4.25,-81.32,-155.5
50593,53.682625,-1.554978,132.26,25.34,6,351.42,21 / 24,5059339,2019-11-08 11:21:36:950,1.108,-0.6624,9.787,0.0411,0.0341,9.8064,-0.1064,0.5125,-0.2835,-10.56,-45.56,30.31,4.2,-81.33,-156.62
50594,53.682625,-1.554978,132.26,25.34,6,351.42,21 / 24,5059439,2019-11-08 11:21:37:050,-3.8232,-2.1322,10.4697,-0.0345,-0.0315,9.8065,-0.0536,0.3243,-0.1662,-10.94,-46.5,30.81,5.22,-81.28,-156.41
50595,53.682625,-1.554978,132.26,25.34,6,351.42,23 / 24,5059539,2019-11-08 11:21:37:150,2.2088,-0.0311,9.0308,0.0001,0.0013,9.8066,-0.0045,0.0993,-0.0758,-10.5,-46.44,30.56,8.43,-81.27,-155.59
50596,53.682625,-1.554978,132.26,25.34,6,351.42,23 / 24,5059638,2019-11-08 11:21:37:249,-3.9059,-0.8976,10.3463,-0.0483,-0.0314,9.8065,0.0091,-0.3362,0.1674,-10.5,-45.94,30.25,7.07,-81.45,-156.1
50597,53.682625,-1.554978,132.26,25.34,6,351.42,23 / 24,5059738,2019-11-08 11:21:37:349,-1.0549,-1.1238,10.1404,-0.0439,-0.0422,9.8064,0.1158,-0.4895,0.2733,-10.25,-46.81,29.5,9.9,-81.31,-153.99
50598,53.682625,-1.554978,132.26,25.34,6,351.42,23 / 24,5059838,2019-11-08 11:21:37:449,-4.4374,-0.7736,10.7156,-0.0227,-0.0231,9.8066,0.1047,-0.5689,0.3201,-10.5,-46.44,30.31,9.26,-81.36,-154.42
50599,53.682625,-1.554978,132.26,25.34,6,351.42,23 / 24,5059940,2019-11-08 11:21:37:551,-1.7615,-1.3867,10.1391,-0.0441,-0.0359,9.8064,0.032,-0.4323,0.2522,-10.37,-46.56,30.06,7.63,-81.35,-155.72
50600,53.682625,-1.554978,132.26,25.34,6,351.42,23 / 24,5060039,2019-11-08 11:21:37:650,4.1963,2.361,9.2535,-0.0543,-0.0552,9.8063,0.012,0.0229,-0.0252,-10.0,-46.37,30.5,9.56,-80.99,-154.78
50601,53.682625,-1.554978,132.26,25.34,6,351.42,23 / 24,5060139,2019-11-08 11:21:37:750,-2.5905,-0.1666,9.8738,0.0091,0.0061,9.8065,-0.0088,0.2249,-0.1449,-10.75,-46.75,30.88,5.63,-81.11,-156.14
50602,53.682625,-1.554978,132.26,25.34,6,351.42,23 / 24,5060239,2019-11-08 11:21:37:850,4.9518,0.574,9.6158,-0.0377,-0.0237,9.8065,-0.0232,0.5592,-0.3329,-10.12,-46.44,30.5,8.72,-81.06,-155.41
50603,53.682625,-1.554978,132.26,25.34,6,351.42,23 / 24,5060338,2019-11-08 11:21:37:949,1.0058,0.2609,8.772,0.0401,0.0533,9.8064,-0.0855,0.5866,-0.3501,-10.5,-46.12,31.06,7.44,-81.43,-156.33
50604,53.682625,-1.554978,132.26,25.34,6,351.42,23 / 24,5060438,2019-11-08 11:21:38:049,3.8722,2.0415,8.2206,0.0096,0.0136,9.8066,-0.1559,0.4024,-0.1937,-10.94,-45.75,30.5,7.3,-81.42,-154.76
50605,53.682625,-1.554978,132.26,25.34,6,351.42,22 / 24,5060540,2019-11-08 11:21:38:151,1.5947,-0.214,10.4111,0.0391,0.0563,9.8064,-0.1974,0.2623,-0.1236,-10.5,-45.81,30.5,10.12,-81.29,-154.27
50606,53.682625,-1.554978,132.26,25.34,6,351.42,22 / 24,5060639,2019-11-08 11:21:38:250,-6.3556,-1.9138,10.0793,-0.0628,-0.0275,9.8063,0.0275,-0.129,0.2207,-10.12,-46.06,31.0,7.7,-81.63,-156.08
50607,53.682625,-1.554978,132.26,25.34,6,351.42,22 / 24,5060738,2019-11-08 11:21:38:349,5.3815,1.159,9.4971,0.0321,-0.0081,9.8066,0.1321,-0.5026,0.2218,-10.62,-46.37,30.88,6.24,-81.56,-155.57
50608,53.682625,-1.554978,132.26,25.34,6,351.42,22 / 24,5060839,2019-11-08 11:21:38:450,-2.6796,-1.1056,9.5828,0.0534,0.0371,9.8064,0.0055,-0.5561,0.3921,-10.5,-46.31,31.69,8.41,-81.74,-155.97
50609,53.682625,-1.554978,132.26,25.34,6,351.42,22 / 24,5060938,2019-11-08 11:21:38:549,5.428,1.4605,9.9021,-0.055,-0.0142,9.8064,-0.0463,-0.5966,0.4001,-10.31,-45.62,30.75,11.02,-81.57,-153.49
50610,53.682625,-1.554978,132.26,25.34,6,351.42,22 / 24,5061039,2019-11-08 11:21:38:650,0.8142,0.5541,8.8611,0.0269,-0.0168,9.8065,-0.0152,-0.4451,0.3,-9.87,-44.81,30.69,9.65,-81.73,-154.48
50611,53.682625,-1.554978,132.26,25.34,6,351.42,22 / 24,5061138,2019-11-08 11:21:38:749,4.5069,1.5052,8.2956,-0.047,-0.0622,9.8063,-0.0116,-0.2512,0.1894,-10.06,-46.0,31.25,8.81,-81.89,-155.14
50612,53.682625,-1.554978,132.26,25.34,6,351.42,22 / 24,5061239,2019-11-08 11:21:38:850,-0.9503,-0.2683,10.0447,-0.0121,0.0112,9.8066,-0.0179,0.0572,-0.0488,-9.0,-46.19,31.31,12.34,-81.85,-154.07
50613,53.682625,-1.554978,132.26,25.34,6,351.42,22 / 24,5061338,2019-11-08 11:21:38:949,-5.2162,-2.1092,10.9013,-0.0646,-0.0384,9.8063,-0.0819,0.2562,-0.209,-9.0,-45.69,31.31,11.75,-82.21,-154.42
50614,53.682625,-1.554978,132.26,25.34,6,351.42,22 / 24,5061438,2019-11-08 11:21:39:049,-1.108,-0.2423,9.8373,0.0418,0.0432,9.8064,-0.1123,0.5537,-0.3581,-8.87,-45.69,30.69,14.49,-82.01,-152.3
50615,53.682625,-1.554978,132.26,25.34,6,351.42,21 / 22,5061540,2019-11-08 11:21:39:151,-4.8874,-1.7473,10.4349,-0.0244,-0.0086,9.8066,-0.0639,0.6614,-0.4417,-9.19,-45.94,30.25,13.93,-82.1,-152.28
50616,53.682625,-1.554978,132.26,25.34,6,351.42,21 / 22,5061639,2019-11-08 11:21:39:250,4.4413,1.124,9.0879,-0.0735,-0.0551,9.8062,-0.1108,0.6662,-0.4025,-9.19,-46.12,29.69,15.01,-81.92,-151.5
50617,53.682625,-1.554978,132.26,25.34,6,351.42,21 / 22,5061738,2019-11-08 11:21:39:349,-3.8498,-0.884,10.5436,0.0282,0.0245,9.8065,-0.0424,0.4143,-0.2401,-8.44,-45.87,29.25,14.6,-82.2,-153.11
50618,53.682625,-1.554978,132.26,25.34,6,351.42,21 / 22,5061838,2019-11-08 11:21:39:449,5.2687,1.8133,8.9689,0.0642,0.0448,9.8063,-0.0068,0.2493,-0.1541,-9.31,-46.12,29.75,13.98,-81.96,-152.3
50619,53.682625,-1.554978,132.26,25.34,6,351.42,21 / 22,5061938,2019-11-08 11:21:39:549,0.9083,0.8263,9.3002,0.0556,0.0477,9.8064,0.0624,-0.1855,0.0813,-9.19,-46.19,29.69,14.32,-81.89,-152.06
50620,53.682625,-1.554978,132.26,25.34,6,351.42,21 / 22,5062038,2019-11-08 11:21:39:649,4.9689,1.5526,8.6094,0.0215,0.0121,9.8065,0.0817,-0.2856,0.1989,-10.06,-46.56,29.06,10.14,-82.08,-153.06
50621,53.682625,-1.554978,132.26,25.34,6,351.42,21 / 22,5062138,2019-11-08 11:21:39:749,-0.0826,-0.6037,10.1582,0.0522,0.0608,9.8063,0.1035,-0.5135,0.2719,-9.69,-45.94,29.94,9.79,-82.32,-153.76
50622,53.682625,-1.554978,132.26,25.34,6,351.42,21 / 22,5062239,2019-11-08 11:21:39:850,-4.034,-2.1066,10.8558,-0.0165,-0.0207,9.8066,0.0889,-0.5325,0.3644,-9.75,-46.12,29.56,10.09,-82.26,-153.53
50623,53.682625,-1.554978,132.26,25.34,6,351.42,21 / 22,5062338,2019-11-08 11:21:39:949,-1.3072,-1.0049,10.2345,0.0281,0.0317,9.8065,0.0985,-0.5007,0.3276,-10.25,-45.81,30.06,10.48,-82.3,-153.21
50624,53.682625,-1.554978,132.26,25.34,6,351.42,21 / 22,5062438,2019-11-08 11:21:40:049,-3.8175,-1.7436,10.1557,-0.0486,-0.0479,9.8064,0.1235,-0.4236,0.2504,-10.69,-45.62,30.38,8.91,-82.35,-152.74
50625,53.682625,-1.554978,132.26,25.34,6,351.42,23 / 23,5062538,2019-11-08 11:21:40:149,3.0126,0.8067,9.4303,-0.02,-0.0071,9.8066,-0.0371,-0.0725,0.0363,-10.44,-46.06,30.0,12.15,-82.18,-151.91
50626,53.682625,-1.554978,132.26,25.34,6,351.42,23 / 23,5062638,2019-11-08 11:21:40:249,-4.7052,-1.564,10.0417,0.0473,0.0169,9.8064,-0.1153,0.0911,-0.1143,-10.25,-44.87,30.06,11.87,-82.24,-152.07
50627,53.682625,-1.554978,132.26,25.34,6,351.42,23 / 23,5062739,2019-11-08 11:21:40:350,0.1726,0.1265,10.7023,-0.0332,-0.0403,9.8065,-0.1058,0.3446,-0.2173,-10.31,-44.87,30.44,13.05,-82.02,-151.19
50628,53.682625,-1.554978,132.26,25.34,6,351.42,23 / 23,5062839,2019-11-08 11:21:40:450,-2.709,-1.4311,11.151,-0.0235,-0.008,9.8065,-0.1291,0.4293,-0.2231,-10.31,-43.5,31.63,11.97,-82.17,-152.86
50629,53.682625,-1.554978,132.26,25.34,6,351.42,23 / 23,5062939,2019-11-08 11:21:40:550,1.3253,1.0704,10.1663,-0.0336,-0.0491,9.8064,-0.0714,0.4078,-0.3203,-10.87,-43.69,32.88,11.28,-81.96,-152.37
50630,53.682625,-1.554978,132.26,25.34,6,351.42,23 / 23,5063039,2019-11-08 11:21:40:650,2.9266,1.7924,8.7768,0.0047,0.008,9.8066,-0.062,0.4899,-0.3124,-10.5,-44.75,34.63,13.12,-82.07,-153.28
50631,53.682625,-1.554978,132.26,25.34,6,351.42,23 / 23,5063138,2019-11-08 11:21:40:749,1.2888,1.3428,8.4639,-0.0344,-0.0249,9.8065,-0.1402,0.322,-0.1212,-10.44,-45.62,34.19,10.93,-82.26,-154.68
50632,53.682625,-1.554978,132.26,25.34,6,351.42,23 / 23,5063238,2019-11-08 11:21:40:849,5.1444,0.9629,8.9647,0.0597,0.0395,9.8064,-0.1524,-0.0013,0.0669,-10.69,-46.81,33.88,11.02,-82.04,-153.16
50633,53.682625,-1.554978,132.26,25.34,6,351.42,23 / 23,5063338,2019-11-08 11:21:40:949,-2.0229,-0.7401,8.6301,0.0416,0.0216,9.8065,-0.0738,-0.2759,0.3217,-10.81,-47.94,31.56,8.4,-82.43,-154.27
50634,53.682625,-1.554978,132.26,25.34,6,351.42,23 / 23,5063438,2019-11-08 11:21:41:049,3.6849,1.4528,8.5662,0.0563,-0.0031,9.8065,0.067,-0.4399,0.244,-9.87,-48.0,29.56,12.05,-82.4,-152.02
50635,53.682625,-1.554978,132.26,25.34,6,351.42,23 / 23,5063538,2019-11-08 11:21:41:149,-2.3259,0.2149,11.2914,0.0124,0.0355,9.8065,0.1355,-0.327,0.2632,-10.19,-47.31,30.31,11.2,-82.36,-152.66
50636,53.682625,-1.554978,132.26,25.34,6,351.42,23 / 23,5063638,2019-11-08 11:21:41:249,-1.2103,-0.4012,10.3159,-0.0211,-0.0019,9.8066,0.1252,-0.4316,0.23,-10.0,-47.06,29.38,12.36,-82.09,-151.31
50637,53.682625,-1.554978,132.26,25.34,6,351.42,23 / 23,5063739,2019-11-08 11:21:41:350,-2.5799,-0.366,10.1091,0.0343,0.0444,9.8065,0.0389,-0.2258,0.1922,-10.06,-46.87,29.56,15.18,-81.96,-149.65
50638,53.682625,-1.554978,132.26,25.34,6,351.42,23 / 23,5063839,2019-11-08 11:21:41:450,0.3388,1.322,9.4716,0.0032,0.0096,9.8066,0.0493,-0.2804,0.0929,-10.0,-46.94,29.56,14.01,-82.15,-150.5
50639,53.682625,-1.554978,132.26,25.34,6,351.42,23 / 23,5063938,2019-11-08 11:21:41:549,2.4324,2.3455,9.3624,0.0599,0.0248,9.8064,-0.0341,-0.0483,0.0639,-10.12,-46.5,29.88,12.21,-82.34,-151.81
50640,53.682625,-1.554978,132.26,25.34,6,351.42,23 / 23,5064038,2019-11-08 11:21:41:649,1.7126,1.5302,9.7515,-0.0184,-0.0257,9.8066,-0.0278,0.042,-0.1163,-10.06,-46.44,30.0,10.47,-82.35,-153.21
50641,53.682625,-1.554978,132.26,25.34,6,351.42,23 / 23,5064138,2019-11-08 11:21:41:749,3.1937,2.2614,8.8308,0.016,0.0123,9.8066,-0.073,0.3159,-0.1808,-9.69,-47.19,30.0,9.85,-82.26,-153.76
50642,53.682625,-1.554978,132.26,25.34,6,351.42,23 / 23,5064238,2019-11-08 11:21:41:849,-2.5718,-0.2242,10.0844,-0.0515,-0.0362,9.8064,-0.0404,0.4241,-0.2343,-10.12,-46.5,30.44,10.4,-82.35,-153.26
50643,53.682625,-1.554978,132.26,25.34,6,351.42,23 / 23,5064338,2019-11-08 11:21:41:949,2.2694,2.3852,9.4601,-0.0335,-0.0123,9.8065,-0.0535,0.4504,-0.2475,-9.94,-46.56,30.0,11.79,-82.3,-152.21
50644,53.682625,-1.554978,132.26,25.34,6,351.42,23 / 23,5064438,2019-11-08 11:21:42:049,-3.3345,0.1402,10.2681,-0.0534,-0.0194,9.8064,-0.0085,0.2718,-0.2556,-10.5,-46.31,30.31,11.68,-82.27,-152.26
50645,53.682625,-1.554978,132.26,25.34,6,351.42,23 / 23,5064538,2019-11-08 11:21:42:149,2.2137,1.1806,9.67,-0.0281,-0.0267,9.8065,0.0022,0.1974,-0.1409,-10.25,-46.62,30.5,14.45,-82.15,-150.62
50646,53.682625,-1.554978,132.26,25.34,6,351.42,23 / 23,5064638,2019-11-08 11:21:42:249,0.684,0.9805,9.5266,-0.0137,0.0063,9.8066,-0.045,0.1086,-0.0736,-10.12,-46.94,30.25,14.04,-82.36,-150.39
50647,53.682625,-1.554978,132.26,25.34,6,351.42,23 / 23,5064739,2019-11-08 11:21:42:350,3.6416,1.7279,9.161,-0.035,-0.0392,9.8065,-0.0196,0.0047,0.0276,-10.37,-46.19,30.13,14.45,-82.22,-150.06
50648,53.682625,-1.554978,132.26,25.34,6,351.42,23 / 23,5064839,2019-11-08 11:21:42:450,0.3037,0.7876,9.4596,0.0171,0.0012,9.8066,0.0914,-0.3243,0.196,-10.06,-46.81,30.75,13.98,-82.27,-150.95
50649,53.682625,-1.554978,132.26,25.34,6,351.42,23 / 23,5064939,2019-11-08 11:21:42:550,-3.7127,-1.536,10.7261,-0.0287,-0.0264,9.8065,0.0972,-0.4238,0.2461,-9.87,-46.81,31.06,11.58,-82.33,-152.86
50650,53.682625,-1.554978,132.26,25.34,6,351.42,23 / 23,5065038,2019-11-08 11:21:42:649,0.5547,1.1284,9.0451,0.0403,0.0476,9.8064,0.0204,-0.469,0.2846,-10.56,-46.94,29.69,10.51,-82.21,-151.53
50651,53.682625,-1.554978,132.26,25.34,6,351.42,23 / 23,5065138,2019-11-08 11:21:42:749,-3.7662,-0.4141,10.3811,0.0077,0.0258,9.8065,0.0416,-0.3694,0.1942,-10.19,-46.19,30.69,12.46,-82.51,-152.04
50652,53.682625,-1.554978,132.26,25.34,6,351.42,23 / 23,5065238,2019-11-08 11:21:42:849,2.497,0.0056,9.6683,0.0555,0.0294,9.8064,-0.0393,-0.1435,0.1644,-9.69,-46.62,30.25,14.18,-82.41,-150.26
50653,53.682625,-1.554978,132.26,25.34,6,351.42,23 / 23,5065339,2019-11-08 11:21:42:950,-0.7426,0.6722,9.4353,0.0263,0.0367,9.8065,-0.0148,-0.0843,0.063,-9.62,-46.25,30.13,12.73,-82.62,-151.3
50654,53.682625,-1.554978,132.26,25.34,6,351.42,23 / 23,5065439,2019-11-08 11:21:43:050,3.7613,1.403,9.5399,0.0399,0.014,9.8065,-0.0819,0.1732,-0.1371,-9.94,-46.56,29.81,14.1,-82.51,-150.29
50655,53.684704,-1.555504,136.08,26.26,6,351.02,23 / 23,5065542,2019-11-08 11:21:43:153,-2.2067,0.0025,9.9823,0.0573,0.0401,9.8064,-0.1044,0.3372,-0.2111,-9.94,-46.81,29.88,14.8,-82.46,-149.75
50656,53.684704,-1.555504,136.08,26.26,6,351.02,23 / 23,5065639,2019-11-08 11:21:43:250,-3.6993,-1.6961,12.1527,0.0058,-0.0359,9.8065,-0.206,0.5919,-0.3214,-10.25,-47.06,30.19,12.45,-82.67,-151.56
50657,53.684704,-1.555504,136.08,26.26,6,351.02,23 / 23,5065739,2019-11-08 11:21:43:350,-0.5201,-0.894,10.7837,0.0256,0.0446,9.8065,-0.2189,0.6207,-0.2951,-9.31,-46.56,30.63,14.04,-82.56,-152.51
50658,53.684704,-1.555504,136.08,26.26,6,351.02,23 / 23,5065839,2019-11-08 11:21:43:450,-5.4468,-1.5842,10.1112,-0.075,-0.0321,9.8063,0.0326,0.1773,-0.13,-10.12,-46.75,30.13,9.79,-82.54,-153.74
50659,53.684704,-1.555504,136.08,26.26,6,351.02,23 / 23,5065939,2019-11-08 11:21:43:550,2.3855,0.9007,9.4867,-0.0328,-0.0082,9.8066,0.0202,-0.0351,0.0299,-10.31,-46.56,29.94,12.72,-82.56,-151.38
50660,53.684704,-1.555504,136.08,26.26,6,351.02,23 / 23,5066040,2019-11-08 11:21:43:651,-3.7775,-1.9763,10.8192,-0.0538,-0.0261,9.8064,0.1099,-0.3932,0.2116,-10.37,-45.94,30.69,11.29,-82.71,-152.93
50661,53.684704,-1.555504,136.08,26.26,6,351.02,23 / 23,5066138,2019-11-08 11:21:43:749,1.6844,1.2499,8.9918,-0.0588,-0.0572,9.8063,0.15,-0.5094,0.3278,-9.94,-46.81,29.94,11.13,-82.81,-152.58
50662,53.684704,-1.555504,136.08,26.26,6,351.02,23 / 23,5066238,2019-11-08 11:21:43:849,3.8849,1.2526,9.299,-0.0004,-0.0048,9.8066,0.0764,-0.5189,0.3541,-10.19,-46.5,30.44,14.1,-82.51,-150.23
50663,53.684704,-1.555504,136.08,26.26,6,351.02,23 / 23,5066338,2019-11-08 11:21:43:949,-5.2597,-1.5442,10.8049,-0.0507,-0.0398,9.8064,0.1035,-0.494,0.2744,-10.06,-46.75,30.5,16.7,-82.29,-148.75
50664,53.684704,-1.555504,136.08,26.26,6,351.02,23 / 23,5066438,2019-11-08 11:21:44:049,0.1605,-0.397,9.8049,0.0492,0.0516,9.8063,0.0092,-0.1184,0.1012,-10.31,-46.25,30.75,17.02,-82.25,-148.44
50665,53.684704,-1.555504,136.08,26.26,6,351.02,22 / 23,5066538,2019-11-08 11:21:44:149,-5.3355,-1.6964,10.0885,0.0099,0.0056,9.8066,0.0227,0.1196,-0.109,-10.19,-46.87,30.13,15.25,-82.54,-149.35
50666,53.684704,-1.555504,136.08,26.26,6,351.02,22 / 23,5066639,2019-11-08 11:21:44:250,2.1602,0.6649,9.5772,0.0821,0.0536,9.8061,-0.0738,0.5302,-0.377,-10.87,-47.06,29.94,14.62,-82.53,-148.13
50667,53.684704,-1.555504,136.08,26.26,6,351.02,22 / 23,5066739,2019-11-08 11:21:44:350,-5.8545,-0.584,10.8582,0.0658,0.0446,9.8063,-0.1079,0.6796,-0.4161,-10.19,-46.31,30.56,12.82,-82.94,-151.6
50668,53.684704,-1.555504,136.08,26.26,6,351.02,22 / 23,5066838,2019-11-08 11:21:44:449,1.9784,0.5079,9.6778,0.0107,0.0011,9.8065,-0.0654,0.5938,-0.3773,-10.44,-46.5,29.88,13.1,-82.68,-150.98
50669,53.684704,-1.555504,136.08,26.26,6,351.02,22 / 23,5066938,2019-11-08 11:21:44:549,5.5905,1.4712,8.4444,0.0513,0.0601,9.8062,-0.0813,0.4254,-0.2091,-10.0,-46.31,30.13,10.98,-82.92,-152.63
50670,53.684704,-1.555504,136.08,26.26,6,351.02,22 / 23,5067038,2019-11-08 11:21:44:649,0.8196,0.2395,9.8629,-0.0479,-0.0414,9.8064,0.0576,-0.1509,0.0822,-10.06,-46.37,29.75,11.71,-82.88,-152.04
50671,53.684704,-1.555504,136.08,26.26,6,351.02,22 / 23,5067139,2019-11-08 11:21:44:750,5.2629,2.76,8.2033,-0.0015,0.0047,9.8066,0.0736,-0.3918,0.2503,-10.25,-46.69,30.06,13.38,-82.8,-150.76
50672,53.684704,-1.555504,136.08,26.26,6,351.02,22 / 23,5067238,2019-11-08 11:21:44:849,-1.9476,-0.3945,9.8332,-0.0614,-0.0507,9.8063,0.1182,-0.686,0.3732,-10.06,-46.75,30.13,12.51,-83.1,-151.36
50673,53.684704,-1.555504,136.08,26.26,6,351.02,22 / 23,5067338,2019-11-08 11:21:44:949,5.2413,1.8658,8.9625,-0.0574,-0.0344,9.8063,0.0785,-0.526,0.2772,-10.44,-46.87,29.69,15.9,-82.94,-148.65
50674,53.684704,-1.555504,136.08,26.26,6,351.02,22 / 23,5067439,2019-11-08 11:21:45:050,-4.1717,-1.4466,11.5525,-0.0121,-0.0192,9.8065,0.0393,-0.2422,0.1752,-10.19,-46.56,30.0,14.14,-83.07,-150.03
50675,53.684704,-1.555504,136.08,26.26,6,351.02,23 / 23,5067539,2019-11-08 11:21:45:150,-2.5599,-0.463,9.3076,-0.0231,-0.058,9.8064,0.0801,0.0733,-0.0791,-10.06,-46.81,30.0,13.96,-82.85,-150.27
50676,53.684704,-1.555504,136.08,26.26,6,351.02,23 / 23,5067639,2019-11-08 11:21:45:250,6.2055,1.3953,10.092,0.0817,0.0359,9.8062,0.0403,0.5541,-0.424,-10.06,-46.25,29.88,16.02,-82.97,-148.48
50677,53.684704,-1.555504,136.08,26.26,6,351.02,23 / 23,5067738,2019-11-08 11:21:45:349,-2.8626,-0.7931,11.7721,0.0014,0.0428,9.8065,-0.164,0.5731,-0.3179,-10.19,-46.5,30.19,14.09,-83.3,-149.94
50678,53.684704,-1.555504,136.08,26.26,6,351.02,23 / 23,5067838,2019-11-08 11:21:45:449,3.0416,1.5879,8.8021,0.0179,0.0452,9.8065,-0.1965,0.3586,-0.1047,-9.87,-46.19,29.5,12.91,-82.98,-151.03
50679,53.684704,-1.555504,136.08,26.26,6,351.02,23 / 23,5067938,2019-11-08 11:21:45:549,4.0541,1.1437,10.2472,0.0735,0.029,9.8063,0.0267,-0.1309,0.1432,-10.5,-46.37,30.19,9.91,-83.1,-153.45
50680,53.684704,-1.555504,136.08,26.26,6,351.02,23 / 23,5068038,2019-11-08 11:21:45:649,3.42,0.7438,9.5856,-0.0111,-0.0314,9.8065,0.1149,-0.3734,0.1962,-10.44,-47.25,29.75,12.44,-83.1,-151.42
50681,53.684704,-1.555504,136.08,26.26,6,351.02,23 / 23,5068138,2019-11-08 11:21:45:749,3.3406,2.5282,8.3689,0.0198,0.0277,9.8065,0.2205,-0.5423,0.2388,-9.87,-46.44,29.38,13.57,-82.94,-149.98
50682,53.684704,-1.555504,136.08,26.26,6,351.02,23 / 23,5068238,2019-11-08 11:21:45:849,-1.5198,-1.2893,11.0578,-0.0453,-0.0416,9.8064,0.1247,-0.4271,0.2039,-10.12,-46.5,29.63,12.65,-83.3,-151.13
50683,53.684704,-1.555504,136.08,26.26,6,351.02,23 / 23,5068339,2019-11-08 11:21:45:950,5.6305,0.9854,9.9809,-0.0457,-0.0275,9.8065,0.0133,-0.0154,0.002,-10.12,-46.37,29.63,14.05,-83.02,-150.08
50684,53.684704,-1.555504,136.08,26.26,6,351.02,23 / 23,5068439,2019-11-08 11:21:46:050,-1.365,0.1182,9.1033,-0.0268,-0.0023,9.8066,-0.0897,0.2005,-0.0983,-9.94,-46.87,29.81,12.35,-83.01,-151.53
50685,53.684704,-1.555504,136.08,26.26,6,351.02,23 / 23,5068539,2019-11-08 11:21:46:150,-3.0928,-1.0059,10.6426,-0.0362,-0.0365,9.8065,-0.1409,0.465,-0.2042,-10.19,-46.56,29.31,11.44,-83.15,-151.69
50686,53.684704,-1.555504,136.08,26.26,6,351.02,23 / 23,5068639,2019-11-08 11:21:46:250,0.7029,0.4351,9.3695,-0.0332,-0.0311,9.8065,-0.0458,0.4232,-0.2125,-9.69,-47.0,30.19,14.29,-83.02,-149.93
50687,53.684704,-1.555504,136.08,26.26,6,351.02,23 / 23,5068738,2019-11-08 11:21:46:349,-2.8592,-0.0839,10.4019,0.0234,0.0171,9.8065,-0.0303,0.0536,-0.036,-10.37,-46.56,30.31,12.4,-83.22,-151.41
50688,53.684704,-1.555504,136.08,26.26,6,351.02,23 / 23,5068838,2019-11-08 11:21:46:449,2.2646,0.5459,10.5422,0.027,0.0035,9.8065,0.0093,-0.1421,0.0761,-9.94,-46.37,29.63,12.56,-83.05,-151.29
50689,53.684704,-1.555504,136.08,26.26,6,351.02,23 / 23,5068938,2019-11-08 11:21:46:549,2.122,0.4982,9.32,0.0304,0.0219,9.8065,0.08,-0.3127,0.1291,-9.69,-46.69,30.38,11.37,-83.1,-152.3
50690,53.684704,-1.555504,136.08,26.26,6,351.02,23 / 23,5069038,2019-11-08 11:21:46:649,0.0621,0.0395,9.5129,-0.0276,-0.0159,9.8065,0.0052,-0.2677,0.1368,-9.62,-46.87,30.19,11.74,-83.0,-152.02
50691,53.684704,-1.555504,136.08,26.26,6,351.02,23 / 23,5069138,2019-11-08 11:21:46:749,0.9863,0.707,9.064,0.0057,0.0022,9.8066,0.0262,-0.0421,0.0429,-10.06,-46.75,29.81,13.24,-82.98,-150.81
50692,53.684704,-1.555504,136.08,26.26,6,351.02,23 / 23,5069238,2019-11-08 11:21:46:849,0.1398,-1.1744,10.082,-0.007,-0.0131,9.8066,0.0213,-0.0113,-0.0184,-10.12,-46.37,29.88,13.47,-83.06,-150.53
50693,53.684704,-1.555504,136.08,26.26,6,351.02,23 / 23,5069338,2019-11-08 11:21:46:949,0.2577,-0.9991,10.3306,-0.0037,-0.0101,9.8066,0.0366,0.0145,-0.0286,-10.12,-46.25,29.25,13.16,-83.02,-150.29
50694,53.684704,-1.555504,136.08,26.26,6,351.02,23 / 23,5069439,2019-11-08 11:21:47:050,-0.2303,0.2499,9.2549,-0.0009,0.0088,9.8066,0.0246,0.0049,-0.0147,-11.0,-46.12,30.25,11.3,-83.04,-150.61
50695,53.684704,-1.555504,136.08,26.26,6,351.02,23 / 23,5069539,2019-11-08 11:21:47:150,0.9309,0.3551,11.0895,-0.0026,-0.0027,9.8066,-0.0623,-0.0993,0.0188,-10.0,-47.44,30.0,12.66,-82.99,-151.28
50696,53.684704,-1.555504,136.08,26.26,6,351.02,23 / 23,5069639,2019-11-08 11:21:47:250,0.283,0.1409,10.8535,-0.0206,-0.0073,9.8066,-0.1377,-0.0678,0.0876,-9.94,-46.94,30.25,11.87,-83.01,-151.92
50697,53.684704,-1.555504,136.08,26.26,6,351.02,23 / 23,5069738,2019-11-08 11:21:47:349,1.7405,-0.1424,8.8499,0.0084,-0.0085,9.8066,-0.1385,0.0228,-0.0025,-9.37,-46.87,30.44,15.59,-83.03,-150.62
50698,53.684704,-1.555504,136.08,26.26,6,351.02,23 / 23,5069838,2019-11-08 11:21:47:449,-0.9026,0.3141,9.4702,-0.0159,-0.0136,9.8066,-0.1523,0.1219,-0.0163,-10.44,-46.5,29.75,13.23,-83.12,-150.71
50699,53.684704,-1.555504,136.08,26.26,6,351.02,23 / 23,5069938,2019-11-08 11:21:47:549,2.144,1.2301,9.8706,-0.012,-0.0066,9.8066,-0.0676,0.2859,-0.1362,-10.19,-46.0,29.13,14.71,-83.23,-148.93
50700,53.684704,-1.555504,136.08,26.26,6,351.02,23 / 23,5070038,2019-11-08 11:21:47:649,-0.0751,1.5492,9.5363,0.0102,0.0112,9.8065,0.0951,0.2875,-0.2157,-10.37,-46.5,29.88,14.21,-83.28,-149.84
50701,53.684704,-1.555504,136.08,26.26,6,351.02,23 / 23,5070138,2019-11-08 11:21:47:749,-1.4644,-1.5088,10.9753,-0.015,-0.0111,9.8066,0.0354,-0.0901,0.0198,-9.81,-45.81,30.0,12.73,-83.26,-151.07
50702,53.684704,-1.555504,136.08,26.26,6,351.02,23 / 23,5070238,2019-11-08 11:21:47:849,2.1227,-0.2093,9.543,0.0059,0.0531,9.8065,0.0903,-0.1643,0.1014,-10.0,-46.5,29.25,13.18,-83.27,-150.18
50703,53.684704,-1.555504,136.08,26.26,6,351.02,23 / 23,5070338,2019-11-08 11:21:47:949,-1.1106,0.9967,9.5969,0.0226,0.0079,9.8066,-0.0484,-0.2693,0.1072,-10.12,-45.81,29.94,15.57,-83.5,-148.63
50704,53.684704,-1.555504,136.08,26.26,6,351.02,23 / 23,5070438,2019-11-08 11:21:48:049,-2.7118,-1.0534,10.7848,0.0298,0.03,9.8065,-0.1711,-0.1011,0.1008,-10.62,-45.94,30.31,14.95,-83.81,-147.29
50705,53.684704,-1.555504,136.08,26.26,6,351.02,23 / 23,5070538,2019-11-08 11:21:48:149,0.2842,-0.4745,9.7384,0.0079,-0.0116,9.8066,-0.0702,0.236,-0.0881,-10.56,-46.44,29.94,15.34,-83.68,-147.01
50706,53.684704,-1.555504,136.08,26.26,6,351.02,23 / 23,5070638,2019-11-08 11:21:48:249,-2.4772,-0.3911,9.9481,-0.0405,-0.0187,9.8065,-0.0131,0.3025,-0.174,-9.75,-45.94,29.75,16.77,-83.67,-147.54
50707,53.684704,-1.555504,136.08,26.26,6,351.02,23 / 23,5070739,2019-11-08 11:21:48:350,0.9681,0.2662,9.7421,-0.0299,-0.0109,9.8066,-0.042,0.1775,-0.0959,-10.31,-45.87,30.06,19.02,-83.59,-145.69
50708,53.684704,-1.555504,136.08,26.26,6,351.02,23 / 23,5070838,2019-11-08 11:21:48:449,2.0176,1.5401,9.2828,0.0154,0.012,9.8066,0.0021,-0.1672,0.0681,-10.62,-45.62,29.44,16.45,-83.65,-145.54
50709,53.684704,-1.555504,136.08,26.26,6,351.02,23 / 23,5070938,2019-11-08 11:21:48:549,-1.4977,0.4627,9.5557,0.0025,-0.0057,9.8066,0.019,-0.3012,0.1293,-9.81,-45.87,29.63,18.29,-83.73,-146.24
50710,53.684704,-1.555504,136.08,26.26,6,351.02,23 / 23,5071039,2019-11-08 11:21:48:650,1.9987,0.983,9.08,-0.0197,-0.0126,9.8066,-0.0544,-0.1025,0.1772,-9.94,-45.69,29.63,18.48,-83.63,-146.13
50711,53.684704,-1.555504,136.08,26.26,6,351.02,23 / 23,5071139,2019-11-08 11:21:48:750,0.6918,-1.063,10.2624,0.0056,0.0155,9.8065,-0.014,0.0237,0.015,-9.75,-45.25,29.69,16.74,-83.64,-147.53
50712,53.684704,-1.555504,136.08,26.26,6,351.02,23 / 23,5071239,2019-11-08 11:21:48:850,-1.3782,0.4222,10.2849,-0.0069,-0.0107,9.8066,0.0487,0.1022,-0.0775,-10.44,-45.31,29.81,14.22,-83.49,-149.71
50713,53.684704,-1.555504,136.08,26.26,6,351.02,23 / 23,5071340,2019-11-08 11:21:48:951,1.564,0.2685,9.7529,-0.0017,-0.0057,9.8066,0.027,0.1183,-0.0105,-10.5,-45.69,29.5,14.06,-83.34,-149.95
50714,53.684704,-1.555504,136.08,26.26,6,351.02,23 / 23,5071439,2019-11-08 11:21:49:050,-0.3386,-0.0691,9.9012,-0.0165,0.0024,9.8066,0.0011,-0.0375,-0.023,-9.69,-45.19,29.94,13.46,-83.33,-150.4
50715,53.684704,-1.555504,136.08,26.26,6,351.02,23 / 23,5071539,2019-11-08 11:21:49:150,-0.1309,-1.0668,9.6287,0.0028,-0.0059,9.8066,-0.0146,-0.1388,-0.0072,-10.19,-44.75,29.31,13.76,-83.49,-149.57
50716,53.684704,-1.555504,136.08,26.26,6,351.02,23 / 23,5071638,2019-11-08 11:21:49:249,2.2481,-1.3799,10.1113,0.0213,0.0152,9.8065,-0.0073,-0.0146,0.0,-10.0,-44.81,29.5,14.89,-83.6,-149.1
50717,53.684704,-1.555504,136.08,26.26,6,351.02,23 / 23,5071738,2019-11-08 11:21:49:349,-0.3,0.1601,9.6355,0.0134,0.0199,9.8065,-0.0737,0.0464,0.0286,-9.81,-44.69,29.75,14.63,-83.87,-149.21
50718,53.684704,-1.555504,136.08,26.26,6,351.02,23 / 23,5071838,2019-11-08 11:21:49:449,-0.8102,-1.0413,9.3646,-0.0157,0.0052,9.8066,0.0387,0.1687,-0.0557,-9.87,-44.31,29.0,14.68,-83.93,-148.57
50719,53.684704,-1.555504,136.08,26.26,6,351.02,23 / 23,5071938,2019-11-08 11:21:49:549,1.2863,0.19,9.4009,-0.0172,0.0002,9.8066,0.0108,0.1803,-0.0379,-9.94,-43.94,29.44,16.99,-83.93,-146.62
50720,53.684704,-1.555504,136.08,26.26,6,351.02,23 / 23,5072038,2019-11-08 11:21:49:649,-1.0547,-1.2131,10.438,-0.0197,-0.019,9.8065,0.0567,-0.1384,0.0409,-10.19,-44.37,29.38,16.59,-83.95,-146.95
50721,53.684704,-1.555504,136.08,26.26,6,351.02,23 / 23,5072138,2019-11-08 11:21:49:749,-1.8901,-1.3565,10.7818,-0.0187,-0.0218,9.8066,0.0374,-0.2222,0.1216,-10.81,-44.06,28.94,14.82,-83.9,-146.7
50722,53.684704,-1.555504,136.08,26.26,6,351.02,23 / 23,5072238,2019-11-08 11:21:49:849,1.1583,-0.7732,9.7257,0.0255,0.0155,9.8065,0.0154,-0.1071,0.0564,-10.62,-44.69,30.19,15.74,-83.7,-146.62
50723,53.684704,-1.555504,136.08,26.26,6,351.02,23 / 23,5072338,2019-11-08 11:21:49:949,-1.7211,-1.6772,10.424,0.0114,0.0238,9.8066,-0.046,0.0694,-0.0428,-10.5,-44.62,29.25,16.36,-83.86,-147.24
50724,53.684704,-1.555504,136.08,26.26,6,351.02,23 / 23,5072438,2019-11-08 11:21:50:049,-1.5225,-1.1549,9.0812,0.0024,0.0146,9.8066,-0.0017,0.2615,-0.1657,-10.62,-44.69,30.0,14.93,-83.81,-147.27
50725,53.684704,-1.555504,136.08,26.26,6,351.02,23 / 23,5072538,2019-11-08 11:21:50:149,1.7775,0.0881,9.1313,0.0172,0.0162,9.8066,-0.0437,0.2531,-0.1297,-10.5,-45.5,29.56,17.75,-83.84,-146.58
50726,53.684704,-1.555504,136.08,26.26,6,351.02,23 / 23,5072638,2019-11-08 11:21:50:249,-1.5059,-0.2485,9.7275,-0.033,-0.012,9.8065,-0.0492,0.0229,0.0166,-10.5,-45.87,30.06,17.57,-83.96,-146.74
50727,53.684704,-1.555504,136.08,26.26,6,351.02,23 / 23,5072739,2019-11-08 11:21:50:350,3.0634,0.1252,10.0372,-0.0234,-0.0096,9.8065,0.0287,-0.063,0.1024,-10.31,-46.56,30.06,18.68,-83.79,-145.94
50728,53.684704,-1.555504,136.08,26.26,6,351.02,23 / 23,5072839,2019-11-08 11:21:50:450,1.2874,-0.3332,9.7702,-0.0203,-0.0106,9.8065,0.0384,-0.3038,0.1131,-10.19,-46.06,29.5,16.26,-83.92,-147.87
50729,53.684704,-1.555504,136.08,26.26,6,351.02,23 / 23,5072939,2019-11-08 11:21:50:550,2.7112,-0.8002,10.3855,-0.0396,-0.0044,9.8065,-0.0312,-0.3277,0.1749,-10.31,-46.19,29.63,18.94,-83.9,-145.6
50730,53.684704,-1.555504,136.08,26.26,6,351.02,23 / 23,5073039,2019-11-08 11:21:50:650,1.813,1.9219,8.1517,0.0097,0.0472,9.8064,-0.1161,-0.0281,0.1003,-10.12,-46.0,29.0,18.04,-83.89,-145.87
50731,53.684704,-1.555504,136.08,26.26,6,351.02,23 / 23,5073139,2019-11-08 11:21:50:750,-0.2825,-2.1725,10.8517,0.0164,-0.0038,9.8066,-0.0374,0.1385,-0.0918,-9.94,-46.25,29.75,17.99,-83.97,-146.37
50732,53.684704,-1.555504,136.08,26.26,6,351.02,23 / 23,5073239,2019-11-08 11:21:50:850,3.4939,0.9485,9.4158,-0.0251,-0.0175,9.8065,-0.0067,0.3666,-0.2,-10.56,-46.81,29.19,16.59,-83.97,-145.33
50733,53.684704,-1.555504,136.08,26.26,6,351.02,23 / 23,5073339,2019-11-08 11:21:50:950,-0.507,-1.2847,9.5131,0.0407,0.0347,9.8065,-0.0547,0.4595,-0.2251,-10.19,-46.19,29.31,17.48,-84.21,-146.18
50734,53.684704,-1.555504,136.08,26.26,6,351.02,23 / 23,5073438,2019-11-08 11:21:51:049,-2.2997,-1.6251,10.3806,-0.0063,-0.0174,9.8066,0.0038,0.0806,-0.0989,-10.37,-46.56,29.5,19.36,-84.05,-145.23
50735,53.684704,-1.555504,136.08,26.26,6,351.02,23 / 23,5073539,2019-11-08 11:21:51:150,1.0937,0.2658,9.915,0.011,0.0013,9.8065,-0.0251,-0.0489,0.1016,-9.62,-46.37,29.31,18.18,-83.89,-145.75
50736,53.684704,-1.555504,136.08,26.26,6,351.02,23 / 23,5073639,2019-11-08 11:21:51:250,-3.1542,-1.4706,10.8018,-0.0406,-0.0415,9.8064,0.069,-0.373,0.2059,-11.0,-45.94,29.56,13.98,-83.98,-148.05
50737,53.684704,-1.555504,136.08,26.26,6,351.02,23 / 23,5073738,2019-11-08 11:21:51:349,-0.6172,0.2524,9.4745,-0.043,-0.0353,9.8065,0.0678,-0.4933,0.2379,-9.94,-46.19,29.19,17.77,-83.67,-146.2
50738,53.684704,-1.555504,136.08,26.26,6,351.02,23 / 23,5073839,2019-11-08 11:21:51:450,-3.8823,-1.0958,9.9427,-0.0193,0.0028,9.8066,0.0326,-0.2922,0.1569,-10.31,-46.94,29.81,17.54,-83.8,-146.9
50739,53.684704,-1.555504,136.08,26.26,6,351.02,23 / 23,5073938,2019-11-08 11:21:51:549,-1.8897,-0.1207,9.8752,-0.0498,-0.0298,9.8064,-0.0452,0.192,-0.1122,-9.81,-46.06,29.88,17.27,-83.93,-147.01
50740,53.684704,-1.555504,136.08,26.26,6,351.02,23 / 23,5074038,2019-11-08 11:21:51:649,5.0669,1.6106,9.1921,0.0614,0.037,9.8063,-0.0814,0.4312,-0.2637,-9.87,-46.44,29.56,20.15,-83.65,-144.71
50741,53.684704,-1.555504,136.08,26.26,6,351.02,23 / 23,5074138,2019-11-08 11:21:51:749,-2.7286,-1.228,10.8459,0.0186,0.0119,9.8066,-0.0524,0.6084,-0.3909,-9.81,-46.44,30.0,18.39,-83.88,-146.08
50742,53.684704,-1.555504,136.08,26.26,6,351.02,23 / 23,5074238,2019-11-08 11:21:51:849,5.5824,1.4623,8.8695,-0.0533,-0.0285,9.8064,-0.1415,0.682,-0.3618,-10.37,-46.31,29.44,19.02,-83.7,-145.14
50743,53.684704,-1.555504,136.08,26.26,6,351.02,23 / 23,5074338,2019-11-08 11:21:51:949,2.6863,0.1367,8.8576,0.0752,0.0744,9.806,0.0473,0.1836,-0.148,-10.75,-46.37,29.25,14.01,-84.23,-147.35
50744,53.684704,-1.555504,136.08,26.26,6,351.02,23 / 23,5074438,2019-11-08 11:21:52:049,4.8605,1.7561,8.6029,0.028,0.0416,9.8065,0.0822,-0.1914,0.0767,-10.81,-46.56,29.38,16.41,-84.07,-145.44
50745,53.686733,-1.555994,138.75,26.18,4,351.3,23 / 23,5074539,2019-11-08 11:21:52:150,-2.1994,-0.3429,10.5218,0.0553,0.0443,9.8063,0.1231,-0.6659,0.4108,-9.87,-46.81,29.75,20.71,-83.79,-144.23
50746,53.686733,-1.555994,138.75,26.18,4,351.3,23 / 23,5074638,2019-11-08 11:21:52:249,-6.0867,-2.7182,10.9919,0.0829,0.0821,9.8059,0.1487,-0.8248,0.4787,-10.19,-46.25,29.94,17.79,-84.25,-146.41
50747,53.686733,-1.555994,138.75,26.18,4,351.3,23 / 23,5074739,2019-11-08 11:21:52:350,3.8914,-0.1742,9.6957,-0.0487,-0.0209,9.8065,0.0936,-0.5736,0.3521,-9.69,-46.81,29.31,20.79,-83.86,-143.63
50748,53.686733,-1.555994,138.75,26.18,4,351.3,23 / 23,5074839,2019-11-08 11:21:52:450,-6.6094,-2.3742,10.7264,-0.0718,-0.0516,9.8062,0.0864,-0.3035,0.173,-10.62,-46.5,30.0,17.23,-84.15,-145.21
50749,53.686733,-1.555994,138.75,26.18,4,351.3,23 / 23,5074938,2019-11-08 11:21:52:549,2.6068,0.4257,9.2666,-0.0939,-0.0662,9.8059,-0.1762,0.3749,-0.186,-10.06,-46.19,29.63,18.32,-84.23,-145.97
50750,53.686733,-1.555994,138.75,26.18,4,351.3,23 / 23,5075038,2019-11-08 11:21:52:649,6.1758,2.2959,8.1816,0.0238,-0.0018,9.8065,-0.1273,0.6491,-0.3608,-10.25,-46.56,30.0,23.2,-83.93,-142.03
50751,53.686733,-1.555994,138.75,26.18,4,351.3,23 / 23,5075138,2019-11-08 11:21:52:749,0.9329,0.0478,9.7637,-0.043,-0.0382,9.8065,-0.0139,0.8076,-0.5533,-10.0,-46.81,28.88,23.83,-83.8,-141.11
50752,53.686733,-1.555994,138.75,26.18,4,351.3,23 / 23,5075238,2019-11-08 11:21:52:849,6.9899,1.593,8.6681,0.1048,0.0637,9.8059,-0.0613,0.6622,-0.4231,-10.19,-45.94,29.81,24.04,-83.66,-141.41
50753,53.686733,-1.555994,138.75,26.18,4,351.3,23 / 23,5075338,2019-11-08 11:21:52:949,-1.8641,-1.5947,10.1973,0.0411,0.0447,9.8064,0.0558,0.0688,-0.0602,-10.19,-47.0,28.88,19.7,-84.15,-144.39
50754,53.686733,-1.555994,138.75,26.18,4,351.3,23 / 23,5075438,2019-11-08 11:21:53:049,6.7053,1.6305,9.1344,0.0572,0.0368,9.8063,0.0477,-0.278,0.1918,-10.25,-46.87,29.5,21.3,-83.92,-143.66
50755,53.686733,-1.555994,138.75,26.18,4,351.3,23 / 23,5075538,2019-11-08 11:21:53:149,-0.5752,-1.4018,10.4213,0.0859,0.0724,9.8059,0.1917,-0.7461,0.4635,-10.44,-46.31,29.19,21.06,-83.73,-143.41
50756,53.686733,-1.555994,138.75,26.18,4,351.3,23 / 23,5075638,2019-11-08 11:21:53:249,-2.88,-1.5095,10.54,-0.0754,-0.0838,9.8059,0.168,-0.8534,0.4976,-10.06,-46.19,30.31,18.63,-84.14,-145.75
50757,53.686733,-1.555994,138.75,26.18,4,351.3,23 / 23,5075739,2019-11-08 11:21:53:350,7.1454,1.6151,8.6376,0.0782,0.0468,9.8062,0.1193,-0.5742,0.3206,-10.25,-46.37,29.5,22.46,-83.4,-142.9
50758,53.686733,-1.555994,138.75,26.18,4,351.3,23 / 23,5075839,2019-11-08 11:21:53:450,-3.9752,-2.2997,10.3587,0.0092,-0.0019,9.8066,0.0357,-0.2578,0.1249,-10.06,-46.75,30.31,21.31,-83.59,-143.83
50759,53.686733,-1.555994,138.75,26.18,4,351.3,23 / 23,5075939,2019-11-08 11:21:53:550,6.7051,1.1016,8.5317,0.0922,0.0668,9.806,-0.1407,0.5033,-0.2978,-10.25,-46.44,30.0,23.85,-83.48,-141.69
50760,53.686733,-1.555994,138.75,26.18,4,351.3,23 / 23,5076039,2019-11-08 11:21:53:650,2.552,-0.3394,8.6648,0.0848,0.0729,9.806,-0.12,0.6969,-0.4254,-10.19,-46.62,28.81,23.76,-83.5,-141.36
50761,53.686733,-1.555994,138.75,26.18,4,351.3,23 / 23,5076139,2019-11-08 11:21:53:750,5.5715,1.3325,8.7556,0.0169,0.0023,9.8066,-0.1203,0.732,-0.4518,-10.19,-46.75,29.69,22.64,-83.97,-142.49
50762,53.686733,-1.555994,138.75,26.18,4,351.3,23 / 23,5076239,2019-11-08 11:21:53:850,2.2417,0.9889,8.8314,0.0802,0.0575,9.8061,-0.0436,0.6712,-0.4469,-10.37,-46.44,29.81,20.66,-84.26,-143.95
50763,53.686733,-1.555994,138.75,26.18,4,351.3,23 / 23,5076339,2019-11-08 11:21:53:950,-6.1521,-1.9176,11.1182,-0.0608,-0.0627,9.8062,0.0292,0.2542,-0.1305,-10.56,-46.75,30.19,19.79,-84.22,-143.04
50764,53.686733,-1.555994,138.75,26.18,4,351.3,23 / 23,5076438,2019-11-08 11:21:54:049,2.3697,-0.0397,8.8426,0.018,0.0024,9.8066,0.083,-0.0495,0.0128,-10.56,-46.25,29.56,20.62,-84.02,-142.38
50765,53.686733,-1.555994,138.75,26.18,4,351.3,23 / 23,5076538,2019-11-08 11:21:54:149,-7.0117,-1.8342,11.2611,0.0676,0.0763,9.8061,0.0647,-0.5659,0.3674,-10.06,-45.87,29.31,22.53,-84.32,-141.8
50766,53.686733,-1.555994,138.75,26.18,4,351.3,23 / 23,5076639,2019-11-08 11:21:54:250,1.3132,-0.0754,9.9199,-0.0682,-0.047,9.8063,0.1281,-0.7118,0.489,-9.87,-46.25,29.56,23.09,-84.43,-141.76
50767,53.686733,-1.555994,138.75,26.18,4,351.3,23 / 23,5076739,2019-11-08 11:21:54:350,-6.6886,-2.7159,11.5292,-0.0493,-0.0381,9.8064,0.1288,-0.8247,0.4906,-10.12,-46.25,29.69,23.93,-84.37,-141.05
50768,53.686733,-1.555994,138.75,26.18,4,351.3,23 / 23,5076839,2019-11-08 11:21:54:450,0.5916,0.0363,9.9716,-0.0927,-0.0847,9.8058,0.0892,-0.6713,0.4155,-10.19,-46.62,28.94,25.86,-83.92,-139.31
50769,53.686733,-1.555994,138.75,26.18,4,351.3,23 / 23,5076939,2019-11-08 11:21:54:550,7.6352,2.6805,8.815,0.052,0.0251,9.8065,0.0147,-0.0674,0.0097,-10.31,-46.19,29.25,24.98,-83.98,-139.92
50770,53.686733,-1.555994,138.75,26.18,4,351.3,23 / 23,5077039,2019-11-08 11:21:54:650,0.3418,-0.7018,9.8301,-0.0446,-0.0237,9.8064,-0.0437,0.2438,-0.153,-9.94,-46.06,29.94,22.51,-84.21,-142.38
50771,53.686733,-1.555994,138.75,26.18,4,351.3,23 / 23,5077139,2019-11-08 11:21:54:750,8.0245,2.0617,8.1367,0.1155,0.0709,9.8057,-0.1011,0.7362,-0.5212,-10.37,-46.44,29.31,25.69,-83.9,-139.38
50772,53.686733,-1.555994,138.75,26.18,4,351.3,23 / 23,5077239,2019-11-08 11:21:54:850,-2.7956,-1.0939,9.4255,0.0319,0.0473,9.8064,-0.0607,0.8412,-0.5302,-10.44,-46.25,29.38,22.51,-84.38,-141.78
50773,53.686733,-1.555994,138.75,26.18,4,351.3,23 / 23,5077339,2019-11-08 11:21:54:950,6.7218,1.9351,7.4887,0.0972,0.0448,9.806,-0.0484,0.7802,-0.5431,-9.81,-46.0,29.56,25.65,-84.08,-139.77
50774,53.686733,-1.555994,138.75,26.18,4,351.3,23 / 23,5077439,2019-11-08 11:21:55:050,-3.4679,-1.2706,10.9255,0.0535,0.1026,9.8059,-0.135,0.4225,-0.2312,-10.56,-46.37,29.5,21.7,-84.55,-141.15
50775,53.686733,-1.555994,138.75,26.18,4,351.3,23 / 23,5077546,2019-11-08 11:21:55:157,6.3551,0.9616,8.1398,0.0139,0.0262,9.8065,-0.1096,0.1923,-0.0726,-9.87,-45.81,29.06,23.25,-84.18,-141.28
50776,53.686733,-1.555994,138.75,26.18,4,351.3,23 / 23,5077639,2019-11-08 11:21:55:250,6.2597,1.4699,9.1215,0.0684,0.066,9.8061,-0.0483,-0.3702,0.252,-9.87,-45.75,28.88,23.76,-83.93,-141.0
50777,53.686733,-1.555994,138.75,26.18,4,351.3,23 / 23,5077739,2019-11-08 11:21:55:350,1.731,-0.4261,9.9789,-0.0531,-0.0486,9.8063,0.1114,-0.5147,0.3805,-10.69,-46.56,29.13,18.31,-84.44,-143.64
50778,53.686733,-1.555994,138.75,26.18,4,351.3,23 / 23,5077839,2019-11-08 11:21:55:450,6.2812,0.5272,8.9436,0.0239,0.0102,9.8065,0.069,-0.5928,0.4255,-10.31,-46.69,29.25,20.56,-84.33,-143.56
50779,53.686733,-1.555994,138.75,26.18,4,351.3,23 / 23,5077939,2019-11-08 11:21:55:550,-2.1933,-1.7312,10.0581,-0.0667,-0.0428,9.8063,0.0785,-0.4796,0.3415,-10.37,-46.06,29.25,18.36,-84.38,-145.35
50780,53.686733,-1.555994,138.75,26.18,4,351.3,23 / 23,5078038,2019-11-08 11:21:55:649,5.0052,0.5821,8.9258,-0.0465,-0.0233,9.8065,-0.0564,-0.3421,0.2806,-9.87,-46.31,29.31,22.0,-84.11,-142.38
50781,53.686733,-1.555994,138.75,26.18,4,351.3,23 / 23,5078138,2019-11-08 11:21:55:749,-3.6972,-1.6205,9.8044,-0.0626,-0.0242,9.8063,-0.111,-0.2145,0.184,-9.69,-46.19,29.63,19.88,-84.28,-144.6
50782,53.686733,-1.555994,138.75,26.18,4,351.3,23 / 23,5078238,2019-11-08 11:21:55:849,0.402,-2.0478,10.7679,-0.0523,-0.0528,9.8063,-0.15,0.1027,0.0352,-9.94,-46.12,29.44,19.41,-84.43,-144.43
50783,53.686733,-1.555994,138.75,26.18,4,351.3,23 / 23,5078338,2019-11-08 11:21:55:949,-2.7951,-2.3209,10.4801,-0.0247,0.0012,9.8065,-0.147,0.2469,-0.0762,-10.0,-46.5,29.06,21.16,-84.23,-143.03
50784,53.686733,-1.555994,138.75,26.18,4,351.3,23 / 23,5078440,2019-11-08 11:21:56:051,0.8415,-1.1374,10.4333,-0.0448,-0.0459,9.8064,-0.1629,0.353,-0.1916,-9.5,-46.75,29.63,25.52,-84.04,-141.75
50785,53.686733,-1.555994,138.75,26.18,4,351.3,23 / 24,5078539,2019-11-08 11:21:56:150,3.0668,0.2215,8.7751,0.0112,0.0171,9.8066,-0.1303,0.3846,-0.1682,-9.75,-46.69,29.25,21.52,-84.19,-142.82
50786,53.686733,-1.555994,138.75,26.18,4,351.3,23 / 24,5078639,2019-11-08 11:21:56:250,0.981,-0.9794,9.5799,-0.0138,-0.0063,9.8065,-0.051,0.1643,-0.0938,-10.0,-46.62,29.88,22.52,-84.3,-142.39
50787,53.686733,-1.555994,138.75,26.18,4,351.3,23 / 24,5078738,2019-11-08 11:21:56:349,0.3707,-0.6852,9.6112,-0.0252,-0.009,9.8065,-0.0403,0.1119,-0.076,-10.25,-46.19,29.5,23.8,-84.34,-141.18
50788,53.686733,-1.555994,138.75,26.18,4,351.3,23 / 24,5078840,2019-11-08 11:21:56:451,-0.2596,-0.8827,9.9496,-0.038,-0.0018,9.8065,0.0147,0.156,-0.0387,-10.81,-46.06,28.19,20.76,-84.43,-140.9
50789,53.686733,-1.555994,138.75,26.18,4,351.3,23 / 24,5078941,2019-11-08 11:21:56:552,-1.6732,-0.2007,10.1059,-0.0127,-0.0042,9.8066,0.0027,0.137,-0.0319,-10.19,-45.94,29.38,27.48,-84.25,-137.59
50790,53.686733,-1.555994,138.75,26.18,4,351.3,23 / 24,5079038,2019-11-08 11:21:56:649,0.3536,-0.2041,10.2251,-0.0386,-0.0217,9.8065,-0.0127,0.1923,-0.1567,-10.44,-46.81,29.25,29.1,-83.95,-136.52
50791,53.686733,-1.555994,138.75,26.18,4,351.3,23 / 24,5079139,2019-11-08 11:21:56:750,1.0794,0.0935,9.2409,-0.0034,0.014,9.8066,-0.0473,0.2436,-0.1646,-10.19,-46.75,28.88,28.32,-84.04,-137.12
50792,53.686733,-1.555994,138.75,26.18,4,351.3,23 / 24,5079239,2019-11-08 11:21:56:850,1.7271,-0.0765,10.0703,-0.0353,0.0011,9.8066,0.0011,0.2669,-0.166,-10.19,-46.87,29.69,30.06,-84.12,-136.02
50793,53.686733,-1.555994,138.75,26.18,4,351.3,23 / 24,5079339,2019-11-08 11:21:56:950,0.3825,0.599,9.3917,0.0099,0.0241,9.8065,-0.0145,0.2777,-0.235,-10.69,-46.19,28.88,27.47,-84.21,-135.84
50794,53.686733,-1.555994,138.75,26.18,4,351.3,23 / 24,5079439,2019-11-08 11:21:57:050,-1.3176,-2.1844,8.8863,-0.0344,0.0072,9.8065,-0.0752,0.1932,-0.1297,-10.19,-46.69,29.63,29.19,-84.41,-136.55
50795,53.686733,-1.555994,138.75,26.18,4,351.3,24 / 24,5079538,2019-11-08 11:21:57:149,-1.6871,-0.7723,9.1837,0.0187,0.025,9.8066,-0.0721,0.2279,-0.1415,-10.62,-46.0,28.94,28.98,-84.53,-134.29
50796,53.686733,-1.555994,138.75,26.18,4,351.3,24 / 24,5079638,2019-11-08 11:21:57:249,-1.0824,0.115,10.7854,-0.0323,0.0002,9.8065,0.007,0.1547,-0.1263,-10.37,-46.37,29.13,31.51,-84.68,-133.74
50797,53.686733,-1.555994,138.75,26.18,4,351.3,24 / 24,5079739,2019-11-08 11:21:57:350,2.4013,0.8566,10.0925,0.037,-0.0136,9.8065,0.0715,0.1057,-0.131,-10.62,-46.37,28.44,24.9,-84.73,-137.14
50798,53.686733,-1.555994,138.75,26.18,4,351.3,24 / 24,5079838,2019-11-08 11:21:57:449,-0.3396,1.1306,10.186,-0.0215,-0.0255,9.8066,-0.0431,0.0208,-0.0195,-10.44,-46.0,28.94,26.94,-84.75,-137.7
50799,53.686733,-1.555994,138.75,26.18,4,351.3,24 / 24,5079938,2019-11-08 11:21:57:549,1.9856,0.6906,9.1111,0.0205,-0.0009,9.8066,0.0054,-0.0086,0.0011,-10.81,-46.37,29.38,22.08,-84.65,-140.21
50800,53.686733,-1.555994,138.75,26.18,4,351.3,24 / 24,5080039,2019-11-08 11:21:57:650,-2.5503,-1.0208,9.4908,-0.0459,-0.018,9.8065,0.0406,-0.1094,0.1032,-10.37,-46.25,28.88,24.48,-84.87,-139.77
50801,53.686733,-1.555994,138.75,26.18,4,351.3,24 / 24,5080139,2019-11-08 11:21:57:750,0.521,0.6927,8.7169,0.001,-0.0135,9.8066,0.0947,-0.1732,0.088,-9.81,-46.25,29.19,27.19,-84.88,-137.39
50802,53.686733,-1.555994,138.75,26.18,4,351.3,24 / 24,5080238,2019-11-08 11:21:57:849,-2.0408,-1.7508,10.6714,-0.0343,-0.0438,9.8065,0.0823,-0.21,0.1777,-10.81,-45.62,28.69,25.93,-84.94,-136.67
50803,53.686733,-1.555994,138.75,26.18,4,351.3,24 / 24,5080339,2019-11-08 11:21:57:950,1.2845,0.0215,9.6493,-0.0005,-0.0159,9.8066,0.1038,-0.215,0.1205,-10.44,-46.5,29.13,27.28,-84.73,-137.41
50804,53.686733,-1.555994,138.75,26.18,4,351.3,24 / 24,5080439,2019-11-08 11:21:58:050,-1.0324,-0.3854,10.6518,-0.0156,-0.035,9.8065,0.0337,-0.1844,0.1488,-10.75,-45.75,28.81,24.65,-84.79,-137.88
50805,53.686733,-1.555994,138.75,26.18,4,351.3,24 / 24,5080539,2019-11-08 11:21:58:150,0.8953,0.1093,9.8151,-0.0126,0.0093,9.8066,-0.0156,-0.0678,0.0995,-11.06,-46.0,28.69,24.99,-84.72,-137.64
50806,53.686733,-1.555994,138.75,26.18,4,351.3,24 / 24,5080639,2019-11-08 11:21:58:250,-1.3278,-0.3302,9.5509,-0.0204,-0.0026,9.8066,-0.0468,-0.068,0.0876,-10.12,-46.12,28.13,26.39,-84.76,-137.65
50807,53.686733,-1.555994,138.75,26.18,4,351.3,24 / 24,5080739,2019-11-08 11:21:58:350,-0.481,0.6369,9.1583,0.0105,0.004,9.8066,0.0094,-0.0611,0.0678,-10.69,-46.37,29.31,26.77,-84.78,-136.04
50808,53.686733,-1.555994,138.75,26.18,4,351.3,24 / 24,5080838,2019-11-08 11:21:58:449,-1.5867,-0.1286,10.6481,-0.0288,-0.0208,9.8066,0.0344,-0.151,0.162,-10.81,-46.0,29.13,25.15,-84.86,-137.41
50809,53.686733,-1.555994,138.75,26.18,4,351.3,24 / 24,5080938,2019-11-08 11:21:58:549,2.1839,0.7717,9.7567,0.0125,0.001,9.8066,0.0528,-0.298,0.1667,-10.19,-46.0,29.0,27.62,-84.83,-137.04
50810,53.686733,-1.555994,138.75,26.18,4,351.3,24 / 24,5081038,2019-11-08 11:21:58:649,-0.1593,-0.5277,10.4251,-0.0459,-0.0121,9.8064,-0.0044,-0.3016,0.2231,-10.62,-46.5,28.63,22.56,-84.82,-139.7
50811,53.686733,-1.555994,138.75,26.18,4,351.3,24 / 24,5081138,2019-11-08 11:21:58:749,3.7425,-0.4606,8.9824,-0.0029,-0.0233,9.8066,0.0545,-0.3975,0.2564,-10.5,-45.69,29.0,25.71,-84.71,-138.8
50812,53.686733,-1.555994,138.75,26.18,4,351.3,24 / 24,5081239,2019-11-08 11:21:58:850,-1.836,0.3661,9.5072,-0.0574,-0.0184,9.8064,-0.0011,-0.3242,0.233,-10.25,-45.75,29.63,24.4,-84.79,-140.38
50813,53.686733,-1.555994,138.75,26.18,4,351.3,24 / 24,5081339,2019-11-08 11:21:58:950,2.9364,0.5605,9.0835,-0.0377,-0.0509,9.8064,-0.0635,-0.18,0.1742,-10.44,-46.0,28.63,24.52,-84.82,-139.76
50814,53.686733,-1.555994,138.75,26.18,4,351.3,24 / 24,5081439,2019-11-08 11:21:59:050,-2.2367,-1.1194,10.3197,-0.0431,-0.0201,9.8065,-0.0854,-0.109,0.1568,-10.94,-46.19,28.94,21.8,-84.59,-140.49
50815,53.686733,-1.555994,138.75,26.18,4,351.3,23 / 23,5081539,2019-11-08 11:21:59:150,0.244,1.0827,10.7844,-0.0218,-0.0479,9.8065,-0.0553,-0.1105,0.0836,-10.81,-46.19,28.63,21.95,-84.35,-140.5
50816,53.686733,-1.555994,138.75,26.18,4,351.3,23 / 23,5081638,2019-11-08 11:21:59:249,-1.3866,-1.3118,10.247,0.0118,0.039,9.8065,-0.1855,-0.0233,0.157,-10.87,-46.31,28.81,21.27,-84.32,-141.11
50817,53.686733,-1.555994,138.75,26.18,4,351.3,23 / 23,5081738,2019-11-08 11:21:59:349,1.8884,0.6151,9.4139,-0.0259,0.0022,9.8065,-0.007,-0.1101,0.1122,-10.31,-45.75,29.31,24.85,-84.45,-139.72
50818,53.686733,-1.555994,138.75,26.18,4,351.3,23 / 23,5081838,2019-11-08 11:21:59:449,-1.3186,0.0158,10.1081,0.0154,-0.0033,9.8066,0.0613,-0.0626,0.0723,-10.44,-46.06,29.44,24.61,-84.56,-139.86
50819,53.686733,-1.555994,138.75,26.18,4,351.3,23 / 23,5081939,2019-11-08 11:21:59:550,1.0229,-0.0923,10.2203,0.0322,0.0006,9.8065,0.0333,-0.0761,0.0571,-10.12,-45.87,29.25,23.39,-84.48,-140.97
50820,53.686733,-1.555994,138.75,26.18,4,351.3,23 / 23,5082038,2019-11-08 11:21:59:649,-0.8942,-0.6148,10.0476,0.0105,-0.0094,9.8066,0.012,-0.0341,0.0195,-10.31,-45.81,28.63,21.88,-84.51,-142.25
50821,53.686733,-1.555994,138.75,26.18,4,351.3,23 / 23,5082138,2019-11-08 11:21:59:749,1.3505,0.6424,9.899,0.0155,0.0092,9.8066,-0.0363,-0.0352,0.0688,-10.25,-46.87,29.5,23.4,-84.38,-141.59
50822,53.686733,-1.555994,138.75,26.18,4,351.3,23 / 23,5082238,2019-11-08 11:21:59:849,-0.4668,0.0626,9.6545,-0.0044,0.0167,9.8066,-0.0739,-0.0164,0.0317,-10.5,-46.25,28.88,23.24,-84.41,-141.14
50823,53.686733,-1.555994,138.75,26.18,4,351.3,23 / 23,5082338,2019-11-08 11:21:59:949,1.3737,0.2504,9.5139,0.0218,0.0127,9.8066,0.0163,-0.0429,0.0345,-10.62,-46.56,29.19,22.33,-84.51,-140.15
50824,53.686733,-1.555994,138.75,26.18,4,351.3,23 / 23,5082438,2019-11-08 11:22:00:049,0.2701,-0.3296,10.0751,0.0061,-0.0053,9.8066,0.0101,0.064,-0.0083,-10.5,-45.75,29.13,22.94,-84.56,-141.3
50825,53.686733,-1.555994,138.75,26.18,4,351.3,23 / 23,5082539,2019-11-08 11:22:00:150,3.0441,0.55,9.845,0.0014,-0.0144,9.8065,0.003,0.243,-0.1829,-10.5,-46.62,29.25,23.13,-84.4,-141.31
50826,53.686733,-1.555994,138.75,26.18,4,351.3,23 / 23,5082638,2019-11-08 11:22:00:249,-0.3498,-0.838,10.1116,0.0296,0.0349,9.8065,-0.1012,0.3713,-0.2017,-10.31,-45.94,29.13,22.49,-84.4,-141.79
50827,53.686733,-1.555994,138.75,26.18,4,351.3,23 / 23,5082738,2019-11-08 11:22:00:349,-2.834,-1.555,9.7464,-0.0078,0.0065,9.8066,-0.0673,0.4151,-0.2508,-10.37,-46.56,29.19,24.15,-84.31,-140.5
50828,53.686733,-1.555994,138.75,26.18,4,351.3,23 / 23,5082838,2019-11-08 11:22:00:449,-1.7712,0.1944,9.5433,0.0482,0.0248,9.8064,-0.0504,0.4282,-0.2193,-10.31,-46.12,28.63,24.83,-84.27,-139.86
50829,53.686733,-1.555994,138.75,26.18,4,351.3,23 / 23,5082938,2019-11-08 11:22:00:549,-2.5535,-1.5097,10.779,-0.0357,-0.0348,9.8065,0.0581,0.1852,-0.1681,-10.25,-46.44,28.88,20.81,-84.62,-143.11
50830,53.686733,-1.555994,138.75,26.18,4,351.3,23 / 23,5083038,2019-11-08 11:22:00:649,4.8102,2.4991,10.6578,0.0286,-0.0089,9.8065,0.0803,0.0805,-0.0451,-10.19,-46.19,28.69,19.74,-84.5,-144.11
50831,53.686733,-1.555994,138.75,26.18,4,351.3,23 / 23,5083139,2019-11-08 11:22:00:750,0.7327,0.5265,9.8978,-0.0451,-0.0387,9.8064,0.033,0.0504,0.0101,-10.31,-46.12,28.69,19.64,-84.43,-144.22
50832,53.686733,-1.555994,138.75,26.18,4,351.3,23 / 23,5083238,2019-11-08 11:22:00:849,0.502,0.1804,9.8553,0.0134,0.019,9.8065,-0.059,0.0547,-0.0382,-10.25,-46.37,29.0,21.31,-84.32,-142.85
50833,53.686733,-1.555994,138.75,26.18,4,351.3,23 / 23,5083338,2019-11-08 11:22:00:949,-0.8739,-0.0109,9.5242,-0.0063,0.0067,9.8066,-0.0531,0.0072,-0.0374,-10.31,-46.31,29.38,22.4,-84.28,-141.95
50834,53.686733,-1.555994,138.75,26.18,4,351.3,23 / 23,5083439,2019-11-08 11:22:01:050,-0.6562,-0.0903,9.59,0.0123,-0.0003,9.8066,-0.0228,0.101,-0.0088,-10.37,-45.94,28.38,21.18,-84.25,-142.48
50835,53.688873,-1.556526,139.14,27.42,6,351.52,22 / 22,5083539,2019-11-08 11:22:01:150,1.0616,-0.229,9.4911,0.0159,0.0113,9.8066,-0.0088,0.0132,0.0235,-10.12,-46.75,28.63,21.56,-84.3,-142.71
50836,53.688873,-1.556526,139.14,27.42,6,351.52,22 / 22,5083639,2019-11-08 11:22:01:250,1.3166,0.58,9.8515,0.009,0.01,9.8066,-0.0303,0.0259,0.0267,-10.0,-46.19,28.56,22.19,-84.37,-142.07
50837,53.688873,-1.556526,139.14,27.42,6,351.52,22 / 22,5083739,2019-11-08 11:22:01:350,-1.9421,-0.5704,10.1219,-0.0328,-0.0242,9.8065,0.052,-0.2072,0.1717,-10.31,-45.87,28.63,21.89,-84.48,-142.26
50838,53.688873,-1.556526,139.14,27.42,6,351.52,22 / 22,5083839,2019-11-08 11:22:01:450,1.7023,0.3901,9.9867,-0.0066,-0.02,9.8066,0.0828,-0.3581,0.1806,-9.62,-46.56,28.25,21.52,-84.44,-142.14
50839,53.688873,-1.556526,139.14,27.42,6,351.52,22 / 22,5083938,2019-11-08 11:22:01:549,-3.932,-0.1971,10.2424,-0.0533,-0.0211,9.8064,0.0308,-0.4077,0.2566,-10.31,-46.19,28.63,22.36,-84.35,-141.93
50840,53.688873,-1.556526,139.14,27.42,6,351.52,22 / 22,5084038,2019-11-08 11:22:01:649,0.5941,-0.738,10.1509,-0.0407,-0.024,9.8064,0.0303,-0.3902,0.2472,-10.5,-46.19,29.19,24.58,-84.13,-140.17
50841,53.688873,-1.556526,139.14,27.42,6,351.52,22 / 22,5084139,2019-11-08 11:22:01:750,-4.597,-0.6227,10.425,-0.0475,-0.0352,9.8064,0.0085,-0.3367,0.2604,-10.37,-45.5,29.0,23.77,-84.36,-140.64
50842,53.688873,-1.556526,139.14,27.42,6,351.52,22 / 22,5084239,2019-11-08 11:22:01:850,0.8252,1.0015,9.6989,-0.048,-0.0443,9.8064,-0.0158,-0.0762,0.0178,-11.0,-46.19,29.0,23.21,-84.03,-139.62
50843,53.688873,-1.556526,139.14,27.42,6,351.52,22 / 22,5084339,2019-11-08 11:22:01:950,2.9124,0.3834,9.2619,0.0005,-0.0074,9.8066,-0.0176,-0.0093,-0.0728,-10.75,-46.0,28.63,22.84,-84.24,-139.8
50844,53.688873,-1.556526,139.14,27.42,6,351.52,22 / 22,5084438,2019-11-08 11:22:02:049,2.951,0.9455,9.7469,-0.0609,-0.0281,9.8063,-0.0371,0.2649,-0.1957,-10.37,-46.37,28.81,22.6,-84.45,-141.67
50845,53.688873,-1.556526,139.14,27.42,6,351.52,23 / 23,5084538,2019-11-08 11:22:02:149,1.8664,0.7114,9.3908,0.0341,0.0245,9.8065,-0.0389,0.3579,-0.2693,-10.19,-46.62,29.25,24.39,-84.19,-140.37
50846,53.688873,-1.556526,139.14,27.42,6,351.52,23 / 23,5084638,2019-11-08 11:22:02:249,-4.1701,-1.497,10.5647,-0.0338,-0.0057,9.8065,-0.0778,0.4463,-0.3653,-10.44,-46.56,28.88,24.04,-84.24,-140.64
50847,53.688873,-1.556526,139.14,27.42,6,351.52,23 / 23,5084738,2019-11-08 11:22:02:349,2.6015,2.2785,8.2722,0.0342,-0.0049,9.8065,-0.1087,0.4514,-0.2755,-10.44,-46.31,28.5,20.43,-84.4,-143.57
50848,53.688873,-1.556526,139.14,27.42,6,351.52,23 / 23,5084839,2019-11-08 11:22:02:450,-1.3828,-1.7307,10.9458,-0.0244,-0.0471,9.8064,-0.0222,0.1824,-0.1746,-10.06,-46.19,29.38,21.79,-84.65,-142.25
50849,53.688873,-1.556526,139.14,27.42,6,351.52,23 / 23,5084939,2019-11-08 11:22:02:550,1.2329,-0.6769,10.0474,-0.0002,-0.0292,9.8065,-0.0202,0.1477,-0.0854,-10.25,-45.56,28.69,21.32,-84.34,-142.84
50850,53.688873,-1.556526,139.14,27.42,6,351.52,23 / 23,5085039,2019-11-08 11:22:02:650,0.4262,-0.9619,10.5845,-0.0081,-0.0288,9.8066,0.0026,0.0694,-0.0855,-10.19,-46.31,29.38,20.37,-84.37,-143.63
50851,53.688873,-1.556526,139.14,27.42,6,351.52,23 / 23,5085138,2019-11-08 11:22:02:749,0.8932,-0.1571,9.287,0.0058,-0.0009,9.8066,-0.0411,0.0637,-0.0776,-10.56,-47.06,29.38,18.2,-84.3,-143.81
50852,53.688873,-1.556526,139.14,27.42,6,351.52,23 / 23,5085238,2019-11-08 11:22:02:849,0.039,-0.5227,9.4158,0.0,-0.0026,9.8066,-0.0591,0.1177,-0.0146,-10.0,-46.19,29.5,20.6,-84.37,-143.94
50853,53.688873,-1.556526,139.14,27.42,6,351.52,23 / 23,5085339,2019-11-08 11:22:02:950,0.848,-0.8006,9.433,-0.0026,0.0097,9.8066,-0.0131,0.0874,-0.0744,-10.25,-45.81,29.75,21.02,-84.49,-143.51
50854,53.688873,-1.556526,139.14,27.42,6,351.52,23 / 23,5085438,2019-11-08 11:22:03:049,-0.6614,-0.9233,10.0339,-0.0219,-0.011,9.8066,0.0951,0.1349,-0.1653,-10.19,-46.19,29.31,19.39,-84.56,-144.38
50855,53.688873,-1.556526,139.14,27.42,6,351.52,22 / 23,5085538,2019-11-08 11:22:03:149,2.4379,-1.1135,10.546,0.0169,-0.0105,9.8066,0.0707,0.1069,-0.1192,-9.94,-46.31,28.94,20.12,-84.58,-143.73
50856,53.688873,-1.556526,139.14,27.42,6,351.52,22 / 23,5085638,2019-11-08 11:22:03:249,1.8862,-0.5999,9.9679,-0.0115,-0.013,9.8066,0.0103,0.197,-0.0926,-10.06,-46.62,29.56,18.56,-84.55,-145.66
50857,53.688873,-1.556526,139.14,27.42,6,351.52,22 / 23,5085739,2019-11-08 11:22:03:350,2.5219,0.2645,9.7688,0.0013,0.0098,9.8066,0.017,0.2062,-0.0976,-9.94,-45.75,28.94,18.88,-84.55,-144.82
50858,53.688873,-1.556526,139.14,27.42,6,351.52,22 / 23,5085839,2019-11-08 11:22:03:450,-1.4082,-0.1065,9.3224,-0.0265,-0.023,9.8065,0.1227,0.0868,-0.1032,-10.12,-45.81,29.25,19.4,-84.57,-144.36
50859,53.688873,-1.556526,139.14,27.42,6,351.52,22 / 23,5085939,2019-11-08 11:22:03:550,0.9143,-3.225,9.1174,0.0186,-0.0056,9.8066,0.1228,0.1163,-0.1355,-10.12,-45.94,29.63,20.18,-84.54,-144.21
50860,53.688873,-1.556526,139.14,27.42,6,351.52,22 / 23,5086039,2019-11-08 11:22:03:650,-2.2558,-2.4798,10.1061,-0.0506,-0.0308,9.8064,0.1082,0.0065,-0.0603,-10.12,-46.19,29.69,20.35,-84.63,-144.01
50861,53.688873,-1.556526,139.14,27.42,6,351.52,22 / 23,5086138,2019-11-08 11:22:03:749,1.2864,-0.8417,10.1469,-0.0099,-0.0448,9.8065,0.1382,-0.1378,0.0761,-10.31,-45.94,28.63,22.08,-84.6,-142.02
50862,53.688873,-1.556526,139.14,27.42,6,351.52,22 / 23,5086238,2019-11-08 11:22:03:849,-0.6643,-1.0248,10.8645,-0.0041,-0.0473,9.8064,0.1354,-0.1589,0.0217,-10.44,-45.94,29.06,22.9,-84.51,-141.37
50863,53.688873,-1.556526,139.14,27.42,6,351.52,22 / 23,5086338,2019-11-08 11:22:03:949,-0.9746,0.4342,9.3303,-0.0087,-0.013,9.8066,0.0721,-0.0971,0.0273,-10.44,-45.19,28.88,22.79,-84.26,-141.55
50864,53.688873,-1.556526,139.14,27.42,6,351.52,22 / 23,5086439,2019-11-08 11:22:04:050,2.0628,-1.4151,10.0977,0.0225,0.0123,9.8066,-0.0561,0.0425,-0.0408,-10.69,-46.12,28.69,23.59,-84.3,-139.12
50865,53.688873,-1.556526,139.14,27.42,6,351.52,22 / 22,5086540,2019-11-08 11:22:04:151,1.2098,-1.7033,9.711,0.017,-0.0103,9.8066,-0.025,0.1141,-0.1044,-11.0,-45.37,29.0,21.51,-84.26,-140.86
