,GPS LATITUDE (degrees),GPS LONGITUDE (degrees), GPS ALTITUDE (m),GPS SPEED (Kmh),GPS ACCURACY (m),GPS ORIENTATION (Â°), SATELLITES IN RANGE, TIME SINCE START (ms), DATE (YYYY-MO-DD HH-MI-SS_SSS),ACCELEROMETER X (m/s²) , ACCELEROMETER Y (m/s²), ACCELEROMETER Z (m/s²), GRAVITY X (m/s²), GRAVITY Y (m/s²), GRAVITY Z (m/s²), GYROSCOPE Yaw (rad/s), GYROSCOPE Pitch (rad/s), GYROSCOPE Roll (rad/s)
0,46.430428,-0.504429,100.58,0.33,11.792,178.8,0 / 22,28,2019-08-12 13:19:45:464,-2.5358,-0.6146,9.4976,-2.5301,-0.6239,9.4541,-0.0002,0.0004,0.0002
1,46.430428,-0.504429,100.58,0.33,11.792,178.8,0 / 22,128,2019-08-12 13:19:45:564,-2.543,-0.6146,9.4557,-2.5274,-0.6194,9.4551,0.0009,-0.0007,0.0002
2,46.430428,-0.504429,100.58,0.33,11.792,178.8,0 / 22,228,2019-08-12 13:19:45:664,-2.5251,-0.6265,9.439,-2.5277,-0.6183,9.4551,-0.0002,-0.0007,0.0002
3,46.430428,-0.504429,100.58,0.33,11.792,178.8,0 / 22,328,2019-08-12 13:19:45:764,-2.5287,-0.6289,9.4833,-2.5292,-0.6206,9.4545,-0.0002,-0.0007,0.0002
4,46.430428,-0.504429,100.58,0.33,11.792,178.8,0 / 22,427,2019-08-12 13:19:45:863,-2.5442,-0.605,9.4928,-2.5306,-0.6226,9.454,-0.0002,-0.0017,0.0002
5,46.430428,-0.504429,100.58,0.33,11.792,178.8,0 / 22,528,2019-08-12 13:19:45:964,-2.5538,-0.6206,9.4581,-2.5304,-0.6204,9.4542,-0.0002,-0.0007,0.0002
6,46.430428,-0.504429,100.58,0.33,11.792,178.8,0 / 22,628,2019-08-12 13:19:46:064,-2.5191,-0.6206,9.3875,-2.5316,-0.6203,9.4539,-0.0002,0.0004,-0.0008
7,46.430428,-0.504429,100.58,0.33,11.792,178.8,0 / 22,727,2019-08-12 13:19:46:163,-2.5298,-0.6146,9.4665,-2.5318,-0.6223,9.4537,-0.0002,-0.0007,0.0002
8,46.430428,-0.504429,100.58,0.33,11.792,178.8,0 / 22,827,2019-08-12 13:19:46:263,-2.5251,-0.6577,9.5671,-2.5308,-0.6226,9.454,-0.0002,0.0004,-0.0008
9,46.430428,-0.504429,100.58,0.33,11.792,178.8,0 / 22,928,2019-08-12 13:19:46:364,-2.5741,-0.5966,9.4749,-2.5341,-0.6201,9.4533,0.0009,0.0015,0.0002
10,46.430428,-0.504429,100.58,0.33,11.792,178.8,0 / 22,1028,2019-08-12 13:19:46:464,-2.5251,-0.6289,9.439,-2.5317,-0.6223,9.4538,-0.0002,-0.0007,-0.0019
11,46.430428,-0.504429,100.58,0.33,11.792,178.8,0 / 22,1127,2019-08-12 13:19:46:563,-2.5251,-0.5966,9.4055,-2.53,-0.6214,9.4543,-0.0002,0.0015,0.0002
12,46.430428,-0.504429,100.58,0.33,11.792,178.8,0 / 22,1227,2019-08-12 13:19:46:663,-2.5358,-0.6265,9.5419,-2.5313,-0.622,9.4539,0.0009,-0.0007,0.0002
13,46.430428,-0.504429,100.58,0.33,11.792,178.8,0 / 22,1327,2019-08-12 13:19:46:763,-2.5634,-0.5811,9.4833,-2.5297,-0.6189,9.4545,-0.0002,0.0004,0.0002
14,46.430428,-0.504429,100.58,0.33,11.792,178.8,0 / 22,1427,2019-08-12 13:19:46:863,-2.5083,-0.6768,9.4821,-2.5252,-0.6208,9.4556,0.0009,0.0004,0.0002
15,46.430428,-0.504429,100.58,0.33,11.792,178.8,0 / 22,1527,2019-08-12 13:19:46:963,-2.5574,-0.6218,9.3707,-2.5297,-0.6233,9.4542,-0.0013,0.0015,0.0002
16,46.430428,-0.504429,100.58,0.33,11.792,178.8,0 / 22,1627,2019-08-12 13:19:47:063,-2.4963,-0.5978,9.524,-2.5291,-0.6199,9.4546,0.0009,-0.0017,0.0002
17,46.430428,-0.504429,100.58,0.33,11.792,178.8,0 / 22,1727,2019-08-12 13:19:47:163,-2.5322,-0.5942,9.5072,-2.5258,-0.6161,9.4558,0.0009,-0.0007,0.0002
18,46.430428,-0.504429,100.58,0.33,11.792,178.8,0 / 22,1827,2019-08-12 13:19:47:263,-2.5586,-0.6433,9.4988,-2.534,-0.6166,9.4535,-0.0002,0.0004,0.0002
19,46.430428,-0.504429,100.58,0.33,11.792,178.8,0 / 22,1928,2019-08-12 13:19:47:364,-2.4939,-0.5894,9.348,-2.5322,-0.6185,9.4539,-0.0002,-0.0007,0.0002
20,46.430428,-0.504429,100.58,0.33,11.792,178.8,0 / 22,2028,2019-08-12 13:19:47:464,-2.5035,-0.6254,9.4138,-2.5309,-0.619,9.4542,-0.0002,0.0004,0.0002
21,46.430428,-0.504429,100.58,0.33,11.792,178.8,0 / 22,2128,2019-08-12 13:19:47:564,-2.537,-0.6038,9.5826,-2.5294,-0.6198,9.4546,-0.0013,0.0004,0.0002
22,46.430428,-0.504429,100.58,0.33,11.792,178.8,0 / 22,2227,2019-08-12 13:19:47:663,-2.5442,-0.6062,9.4378,-2.5283,-0.6189,9.4549,-0.0002,0.0004,0.0002
23,46.430428,-0.504429,100.58,0.33,11.792,178.8,0 / 22,2328,2019-08-12 13:19:47:764,-2.5622,-0.6289,9.4904,-2.5292,-0.6184,9.4547,0.0009,-0.0007,0.0002
24,46.430428,-0.504429,100.58,0.33,11.792,178.8,0 / 22,2427,2019-08-12 13:19:47:863,-2.5215,-0.5954,9.4713,-2.5291,-0.6179,9.4547,-0.0002,-0.0007,-0.0008
25,46.430428,-0.504429,100.58,0.33,11.792,178.8,Nov-22,2527,2019-08-12 13:19:47:963,-2.5275,-0.6241,9.4749,-2.5288,-0.6143,9.4551,-0.0002,0.0004,0.0002
26,46.430428,-0.504429,100.58,0.33,11.792,178.8,Nov-22,2628,2019-08-12 13:19:48:064,-2.4963,-0.6026,9.5204,-2.5226,-0.6164,9.4566,0.0009,-0.0017,0.0002
27,46.430428,-0.504429,100.58,0.33,11.792,178.8,Nov-22,2728,2019-08-12 13:19:48:164,-2.4281,-0.6397,9.5395,-2.4941,-0.6233,9.4637,-0.0023,-0.0017,-0.0019
28,46.430428,-0.504429,100.58,0.33,11.792,178.8,Nov-22,2827,2019-08-12 13:19:48:263,-2.0678,-0.678,9.5934,-2.4368,-0.631,9.4781,-0.0002,-0.007,-0.0051
29,46.430428,-0.504429,100.58,0.33,11.792,178.8,Nov-22,2927,2019-08-12 13:19:48:363,-1.7888,-0.7355,9.6461,-2.4064,-0.6355,9.4855,-0.0002,-0.0156,-0.0104
30,46.430428,-0.504429,100.58,0.33,11.792,178.8,Nov-22,3028,2019-08-12 13:19:48:464,-1.1209,-0.7666,9.9178,-2.3119,-0.6453,9.5084,0.0041,-0.0326,-0.0221
31,46.430428,-0.504429,100.58,0.33,11.792,178.8,Nov-22,3128,2019-08-12 13:19:48:564,-0.994,-0.7558,9.8268,-2.2475,-0.6471,9.5237,0.0094,-0.0251,-0.0253
32,46.430428,-0.504429,100.58,0.33,11.792,178.8,Nov-22,3228,2019-08-12 13:19:48:664,-1.073,-0.7624,9.7011,-2.1796,-0.6505,9.5392,0.0083,0.0036,-0.037
33,46.430428,-0.504429,100.58,0.33,11.792,178.8,Nov-22,3327,2019-08-12 13:19:48:763,-1.2471,-0.6828,9.7873,-2.1453,-0.6529,9.5468,0.0105,0.0132,-0.0445
34,46.430428,-0.504429,100.58,0.33,11.792,178.8,Nov-22,3428,2019-08-12 13:19:48:864,-1.3345,-0.6702,9.7401,-2.0439,-0.6551,9.5689,0.0147,0.0057,-0.0466
35,46.430428,-0.504429,100.58,0.33,11.792,178.8,0 / 22,3533,2019-08-12 13:19:48:969,-1.3004,-0.5009,9.7802,-1.8202,-0.6258,9.6159,0.0179,0.0015,-0.0424
36,46.430428,-0.504429,100.58,0.33,11.792,178.8,0 / 22,3628,2019-08-12 13:19:49:064,-1.3292,-0.3374,9.8681,-1.7543,-0.5943,9.6301,0.019,0.0004,-0.0253
37,46.430428,-0.504429,100.58,0.33,11.792,178.8,0 / 22,3727,2019-08-12 13:19:49:163,-1.2777,-0.18,9.7652,-1.7266,-0.5715,9.6365,-0.0023,-0.0049,-0.0062
38,46.430428,-0.504429,100.58,0.33,11.792,178.8,0 / 22,3827,2019-08-12 13:19:49:263,-1.2106,-0.7487,9.7951,-1.6208,-0.5393,9.6567,-0.0066,-0.0007,-0.0062
39,46.430428,-0.504429,100.58,0.33,11.792,178.8,0 / 22,3928,2019-08-12 13:19:49:364,-1.1592,-0.7079,9.7245,-1.598,-0.5589,9.6594,-0.0034,-0.0028,-0.0168
40,46.430428,-0.504429,100.58,0.33,11.792,178.8,0 / 22,4027,2019-08-12 13:19:49:463,-1.401,-0.5978,9.8622,-1.5572,-0.5629,9.6658,0.0051,-0.0017,-0.0083
41,46.430428,-0.504429,100.58,0.33,11.792,178.8,0 / 22,4127,2019-08-12 13:19:49:563,-1.1604,-0.4715,9.7676,-1.494,-0.5326,9.6775,0.0264,0.0004,0.0077
42,46.430428,-0.504429,100.58,0.33,11.792,178.8,0 / 22,4227,2019-08-12 13:19:49:663,-1.1837,-0.374,9.5916,-1.4839,-0.5131,9.6801,0.0115,0.0004,0.0141
43,46.430428,-0.504429,100.58,0.33,11.792,178.8,0 / 22,4328,2019-08-12 13:19:49:764,-1.2352,0.0989,9.8316,-1.4749,-0.4861,9.6829,-0.0077,0.0025,0.0396
44,46.430428,-0.504429,100.58,0.33,11.792,178.8,0 / 22,4428,2019-08-12 13:19:49:864,-1.1861,0.0193,9.8095,-1.4693,-0.4724,9.6844,-0.0183,-0.0028,0.0599
45,46.430428,-0.504429,100.58,0.33,11.792,178.8,0 / 22,4527,2019-08-12 13:19:49:963,-1.1658,-0.0855,9.849,-1.4052,-0.4,9.6972,-0.0215,-0.0049,0.0887
46,46.430428,-0.504429,100.58,0.33,11.792,178.8,0 / 22,4628,2019-08-12 13:19:50:064,-1.2777,0.2294,9.9447,-1.3572,-0.3012,9.7076,-0.0226,-0.007,0.1036
47,46.430428,-0.504429,100.58,0.33,11.792,178.8,0 / 22,4727,2019-08-12 13:19:50:163,-1.1412,0.0815,10.0016,-1.332,-0.258,9.7123,-0.0396,-0.0081,0.1355
48,46.430428,-0.504429,100.58,0.33,11.792,178.8,0 / 22,4828,2019-08-12 13:19:50:264,-1.1328,0.0157,9.7879,-1.3008,-0.2333,9.7172,-0.0396,-0.0102,0.144
49,46.430428,-0.504429,100.58,0.33,11.792,178.8,0 / 22,4927,2019-08-12 13:19:50:363,-1.1951,-0.025,9.9274,-1.2845,-0.2656,9.7185,-0.0535,-0.006,0.1398
50,46.430428,-0.504429,100.58,0.33,11.792,178.8,0 / 22,5028,2019-08-12 13:19:50:464,-1.4327,-0.1495,9.8903,-1.2817,-0.2828,9.7184,-0.0556,-0.0081,0.1451
51,46.430428,-0.504429,100.58,0.33,11.792,178.8,0 / 22,5128,2019-08-12 13:19:50:564,-1.4956,-0.0717,9.53,-1.2905,-0.3167,9.7162,-0.0535,-0.0028,0.1451
52,46.430428,-0.504429,100.58,0.33,11.792,178.8,0 / 22,5228,2019-08-12 13:19:50:664,-1.3214,-0.3626,9.4354,-1.2961,-0.3356,9.7148,-0.0407,0.0004,0.1398
53,46.430428,-0.504429,100.58,0.33,11.792,178.8,0 / 22,5327,2019-08-12 13:19:50:763,-1.4333,-0.3297,9.8885,-1.3035,-0.3593,9.713,-0.0396,-0.0049,0.1302
54,46.430428,-0.504429,100.58,0.33,11.792,178.8,0 / 22,5427,2019-08-12 13:19:50:863,-1.7613,0.0325,9.819,-1.3168,-0.3619,9.7111,-0.0247,-0.0028,0.1323
55,46.430428,-0.504429,100.58,0.33,11.792,178.8,0 / 22,5527,2019-08-12 13:19:50:963,-2.0768,0.3054,9.682,-1.3506,-0.3552,9.7067,-0.0354,0.0004,0.1558
56,46.430428,-0.504429,100.58,0.33,11.792,178.8,0 / 22,5628,2019-08-12 13:19:51:064,-2.537,-0.1734,9.4773,-1.3823,-0.3467,9.7025,-0.0396,0.0015,0.1632
57,46.430428,-0.504429,100.58,0.33,11.792,178.8,0 / 22,5728,2019-08-12 13:19:51:164,-2.4389,-0.1645,9.5024,-1.4523,-0.3663,9.6916,-0.0524,0.0036,0.1494
58,46.430428,-0.504429,100.58,0.33,11.792,178.8,0 / 22,5828,2019-08-12 13:19:51:264,-2.6843,-0.198,9.336,-1.4937,-0.3874,9.6845,-0.0545,-0.0017,0.1398
59,46.430428,-0.504429,100.58,0.33,11.792,178.8,0 / 22,5928,2019-08-12 13:19:51:364,-2.4676,-0.5739,9.4653,-1.6363,-0.4054,9.6607,-0.0428,-0.0081,0.1376
60,46.430428,-0.504429,100.58,0.33,11.792,178.8,0 / 22,6028,2019-08-12 13:19:51:464,-2.0923,-0.4787,9.4773,-1.6513,-0.4174,9.6576,-0.0375,-0.0156,0.1313
61,46.430428,-0.504429,100.58,0.33,11.792,178.8,0 / 22,6127,2019-08-12 13:19:51:563,-2.124,-0.5625,9.4821,-1.665,-0.4399,9.6542,-0.03,-0.0081,0.1078
62,46.430428,-0.504429,100.58,0.33,11.792,178.8,0 / 22,6227,2019-08-12 13:19:51:663,-2.5538,-0.7433,9.415,-1.6933,-0.4556,9.6486,-0.0247,0.0079,0.0908
63,46.430428,-0.504429,100.58,0.33,11.792,178.8,0 / 22,6328,2019-08-12 13:19:51:764,-2.801,-0.6625,9.5701,-1.7559,-0.464,9.637,0.0009,0.0089,0.0769
64,46.430428,-0.504429,100.58,0.33,11.792,178.8,0 / 22,6428,2019-08-12 13:19:51:864,-2.6322,-0.602,9.3683,-1.7889,-0.4609,9.6311,-0.0045,0.0047,0.0663
65,46.430428,-0.504429,100.58,0.33,11.792,178.8,0 / 22,6528,2019-08-12 13:19:51:964,-2.7848,-0.6702,9.5318,-1.8311,-0.4436,9.624,0.0232,-0.0145,0.0652
66,46.430428,-0.504429,100.58,0.33,11.792,178.8,0 / 22,6628,2019-08-12 13:19:52:064,-2.4838,-0.4937,9.3749,-1.848,-0.4334,9.6212,-0.0023,-0.0124,0.0556
67,46.430428,-0.504429,100.58,0.33,11.792,178.8,0 / 22,6728,2019-08-12 13:19:52:164,-2.3365,-0.0938,9.1804,-1.8808,-0.4459,9.6143,-0.029,-0.0017,0.046
68,46.430428,-0.504429,100.58,0.33,11.792,178.8,0 / 22,6828,2019-08-12 13:19:52:264,-2.133,-0.7211,9.6778,-1.8776,-0.4593,9.6143,-0.0343,-0.022,0.0439
69,46.430428,-0.504429,100.58,0.33,11.792,178.8,0 / 22,6928,2019-08-12 13:19:52:364,-2.2755,-0.8684,9.4569,-1.8639,-0.4952,9.6152,-0.0087,-0.022,0.0375
70,46.430428,-0.504429,100.58,0.33,11.792,178.8,0 / 22,7027,2019-08-12 13:19:52:463,-2.5783,-0.4865,9.275,-1.8739,-0.5039,9.6127,-0.0087,-0.0134,0.0311
71,46.430428,-0.504429,100.58,0.33,11.792,178.8,0 / 22,7128,2019-08-12 13:19:52:564,-2.4491,-0.8103,9.4432,-1.9068,-0.5212,9.6053,-0.0034,-0.006,0.0205
72,46.430428,-0.504429,100.58,0.33,11.792,178.8,0 / 22,7228,2019-08-12 13:19:52:664,-2.7052,-1.0803,9.6868,-1.9442,-0.5339,9.5972,0.0137,0.0079,0.0045
73,46.430428,-0.504429,100.58,0.33,11.792,178.8,0 / 22,7327,2019-08-12 13:19:52:763,-2.3401,-1.0024,9.4863,-1.97,-0.5501,9.591,-0.0013,0.0057,-0.004
74,46.430428,-0.504429,100.58,0.33,11.792,178.8,0 / 22,7427,2019-08-12 13:19:52:863,-2.4921,-0.8223,9.275,-1.9933,-0.5657,9.5853,-0.0034,-0.007,-0.0328
75,46.430428,-0.504429,100.58,0.33,11.792,178.8,0 / 22,7527,2019-08-12 13:19:52:963,-2.3545,-1.2131,9.5054,-1.9984,-0.5924,9.5826,-0.0162,-0.0092,-0.0434
76,46.430428,-0.504429,100.58,0.33,11.792,178.8,0 / 22,7628,2019-08-12 13:19:53:064,-2.4125,-1.3149,9.5156,-2.0182,-0.6549,9.5744,-0.0045,0.0121,-0.069
77,46.430428,-0.504429,100.58,0.33,11.792,178.8,0 / 22,7728,2019-08-12 13:19:53:164,-2.4963,-1.8332,9.6048,-2.0419,-0.7036,9.5659,-0.0023,0.0238,-0.1042
78,46.430428,-0.504429,100.58,0.33,11.792,178.8,0 / 22,7828,2019-08-12 13:19:53:264,-2.4592,-2.0942,9.5347,-2.0789,-0.7739,9.5525,0.0168,0.026,-0.1414
79,46.430428,-0.504429,100.58,0.33,11.792,178.8,0 / 22,7928,2019-08-12 13:19:53:364,-2.4694,-1.8614,9.2774,-2.0935,-0.8219,9.5453,0.0307,0.0164,-0.1702
80,46.430428,-0.504429,100.58,0.33,11.792,178.8,0 / 22,8028,2019-08-12 13:19:53:464,-2.3096,-2.248,9.0942,-2.1066,-0.8894,9.5363,0.0371,0.0228,-0.2213
81,46.430428,-0.504429,100.58,0.33,11.792,178.8,0 / 22,8127,2019-08-12 13:19:53:563,-2.455,-1.9553,9.6616,-2.1142,-0.9341,9.5304,0.0499,0.0153,-0.2469
82,46.430428,-0.504429,100.58,0.33,11.792,178.8,0 / 22,8228,2019-08-12 13:19:53:664,-2.1546,-2.2319,9.5784,-2.1039,-0.9855,9.5275,0.0701,0.0079,-0.2576
83,46.430428,-0.504429,100.58,0.33,11.792,178.8,0 / 22,8328,2019-08-12 13:19:53:764,-2.1139,-2.1349,9.4198,-2.0881,-1.014,9.528,0.0776,0.0111,-0.2714
84,46.430428,-0.504429,100.58,0.33,11.792,178.8,0 / 22,8427,2019-08-12 13:19:53:863,-1.9062,-2.1744,9.3773,-2.0574,-1.048,9.531,0.0786,0.0143,-0.2959
85,46.430428,-0.504429,100.58,0.33,11.792,178.8,0 / 22,8527,2019-08-12 13:19:53:963,-1.9469,-1.9649,9.597,-2.04,-1.0743,9.5318,0.068,0.0164,-0.3066
86,46.430428,-0.504429,100.58,0.33,11.792,178.8,0 / 22,8628,2019-08-12 13:19:54:064,-1.8325,-1.9805,9.6515,-1.9875,-1.2171,9.5257,0.0595,0.0079,-0.3108
87,46.430428,-0.504429,100.58,0.33,11.792,178.8,0 / 22,8728,2019-08-12 13:19:54:164,-1.7912,-2.1774,9.433,-1.9605,-1.2504,9.527,0.0616,0.0175,-0.3151
88,46.430428,-0.504429,100.58,0.33,11.792,178.8,0 / 22,8827,2019-08-12 13:19:54:263,-1.6045,-2.2636,9.521,-1.9286,-1.2838,9.5291,0.0925,0.0249,-0.3204
89,46.430428,-0.504429,100.58,0.33,11.792,178.8,0 / 22,8928,2019-08-12 13:19:54:364,-2.6472,-2.1283,9.2397,-1.9525,-1.293,9.5229,0.0914,0.0537,-0.313
90,46.430428,-0.504429,100.58,0.33,11.792,178.8,0 / 22,9028,2019-08-12 13:19:54:464,-2.7196,-1.9853,9.4521,-1.9989,-1.3075,9.5113,0.0872,0.0441,-0.313
91,46.430428,-0.504429,100.58,0.33,11.792,178.8,0 / 22,9128,2019-08-12 13:19:54:564,-2.2958,-2.2618,9.4599,-2.011,-1.3176,9.5074,0.0808,0.0238,-0.3161
92,46.430428,-0.504429,100.58,0.33,11.792,178.8,0 / 22,9227,2019-08-12 13:19:54:663,-2.8561,-1.9272,9.2923,-2.2089,-1.4745,9.4402,0.0733,0.0249,-0.3076
93,46.430428,-0.504429,100.58,0.33,11.792,178.8,0 / 22,9328,2019-08-12 13:19:54:764,-2.8112,-1.9487,9.3384,-2.3097,-1.554,9.4032,0.0744,0.0249,-0.2959
94,46.430428,-0.504429,100.58,0.33,11.792,178.8,0 / 22,9427,2019-08-12 13:19:54:863,-2.7591,-1.8231,9.3767,-2.4151,-1.6443,9.3613,0.0776,0.0175,-0.2831
95,46.430428,-0.504429,100.58,0.33,11.792,178.8,0 / 22,9528,2019-08-12 13:19:54:964,-2.7381,-1.8159,9.2121,-2.4477,-1.6851,9.3456,0.0797,0.0111,-0.2831
96,46.430428,-0.504429,100.58,0.33,11.792,178.8,0 / 22,9627,2019-08-12 13:19:55:063,-2.0055,-2.0367,9.4899,-2.4355,-1.7222,9.342,0.0658,0.0153,-0.2821
97,46.430428,-0.504429,100.58,0.33,11.792,178.8,0 / 22,9727,2019-08-12 13:19:55:163,-2.2503,-2.0314,9.2816,-2.4009,-1.7321,9.3491,0.0701,0.0089,-0.2799
98,46.430428,-0.504429,100.58,0.33,11.792,178.8,0 / 22,9828,2019-08-12 13:19:55:264,-1.8996,-1.9865,9.3941,-2.3337,-1.7441,9.3639,0.0637,0.01,-0.2799
99,46.430428,-0.504429,100.58,0.33,11.792,178.8,0 / 22,9927,2019-08-12 13:19:55:363,-1.7894,-2.2157,9.5282,-2.2879,-1.7497,9.3741,0.0754,0.0089,-0.2789
100,46.430428,-0.504429,100.58,0.33,11.792,178.8,0 / 22,10028,2019-08-12 13:19:55:464,-1.6967,-2.0942,9.5539,-2.2125,-1.7491,9.3923,0.0882,0.0079,-0.2831
101,46.430428,-0.504429,100.58,0.33,11.792,178.8,0 / 22,10128,2019-08-12 13:19:55:564,-1.8032,-2.0128,9.2965,-2.1347,-1.7686,9.4067,0.0946,0.0089,-0.2863
102,46.430428,-0.504429,100.58,0.33,11.792,178.8,0 / 22,10228,2019-08-12 13:19:55:664,-1.796,-1.9643,9.4671,-2.055,-1.7845,9.4214,0.0776,0.0164,-0.2917
103,46.430428,-0.504429,100.58,0.33,11.792,178.8,0 / 22,10327,2019-08-12 13:19:55:763,-1.9894,-2.0355,9.6581,-2.0234,-1.7787,9.4293,0.0829,0.0143,-0.2927
104,46.430428,-0.504429,100.58,0.33,11.792,178.8,0 / 22,10427,2019-08-12 13:19:55:863,-1.7332,-1.8189,9.6269,-1.9622,-1.7864,9.4408,0.068,-0.006,-0.2853
105,46.430428,-0.504429,100.58,0.33,11.792,178.8,0 / 22,10528,2019-08-12 13:19:55:964,-0.1794,-1.9086,10.3063,-1.8768,-1.7738,9.4605,0.084,-0.0241,-0.2799
106,46.430428,-0.504429,100.58,0.33,11.792,178.8,0 / 22,10627,2019-08-12 13:19:56:063,-1.392,-1.6944,9.8125,-1.746,-1.7455,9.4908,0.0786,0.0004,-0.2672
107,46.430428,-0.504429,100.58,0.33,11.792,178.8,0 / 22,10727,2019-08-12 13:19:56:163,-2.0941,-1.7776,9.4001,-1.7566,-1.728,9.492,0.0648,0.042,-0.249
108,46.430428,-0.504429,100.58,0.33,11.792,178.8,0 / 22,10828,2019-08-12 13:19:56:264,-1.0604,-1.3412,9.7011,-1.7169,-1.7089,9.5028,0.0744,0.0121,-0.2363
109,46.430428,-0.504429,100.58,0.33,11.792,178.8,0 / 22,10927,2019-08-12 13:19:56:363,-1.7577,-1.4095,9.7011,-1.6922,-1.6583,9.5161,0.0893,0.0217,-0.2032
110,46.430428,-0.504429,100.58,0.33,11.792,178.8,0 / 22,11028,2019-08-12 13:19:56:464,-1.7637,-0.9977,9.773,-1.6972,-1.5872,9.5274,0.0637,0.0185,-0.166
111,46.430428,-0.504429,100.58,0.33,11.792,178.8,0 / 22,11128,2019-08-12 13:19:56:564,-1.1939,-0.5475,10.0986,-1.6416,-1.5282,9.5467,0.036,-0.0113,-0.1447
112,46.430428,-0.504429,100.58,0.33,11.792,178.8,0 / 22,11227,2019-08-12 13:19:56:663,-1.3268,-0.8325,9.6263,-1.6189,-1.4862,9.5572,0.035,0.0015,-0.118
113,46.430428,-0.504429,100.58,0.33,11.792,178.8,0 / 22,11327,2019-08-12 13:19:56:763,-1.1173,-0.848,9.609,-1.5916,-1.4385,9.5691,0.0392,0.0015,-0.0892
114,46.430428,-0.504429,100.58,0.33,11.792,178.8,0 / 22,11427,2019-08-12 13:19:56:863,-1.1484,-0.8354,9.7394,-1.5683,-1.3994,9.5788,0.0392,0.0004,-0.0765
115,46.430428,-0.504429,100.58,0.33,11.792,178.8,Jul-23,11528,2019-08-12 13:19:56:964,-1.2998,-0.5344,9.8717,-1.5521,-1.3433,9.5894,0.0275,0.0111,-0.0743
116,46.430428,-0.504429,100.58,0.33,11.792,178.8,Jul-23,11628,2019-08-12 13:19:57:064,-1.1939,-0.7522,9.6904,-1.5477,-1.3121,9.5944,0.0264,0.0217,-0.0648
117,46.430428,-0.504429,100.58,0.33,11.792,178.8,Jul-23,11728,2019-08-12 13:19:57:164,-1.1532,-0.9085,9.7311,-1.5573,-1.28,9.5972,0.0222,0.0334,-0.0626
118,46.430428,-0.504429,100.58,0.33,11.792,178.8,Jul-23,11828,2019-08-12 13:19:57:264,-1.0233,-0.9276,9.7496,-1.5557,-1.2542,9.6009,0.0307,0.0217,-0.0648
119,46.430428,-0.504429,100.58,0.33,11.792,178.8,Jul-23,11928,2019-08-12 13:19:57:364,-0.9509,-0.7079,9.8053,-1.4908,-1.1876,9.6196,0.0243,0.0132,-0.0584
120,46.430428,-0.504429,100.58,0.33,11.792,178.8,Jul-23,12028,2019-08-12 13:19:57:464,-0.8886,-0.6493,9.7646,-1.4784,-1.151,9.626,0.0381,0.0175,-0.0392
121,46.430428,-0.504429,100.58,0.33,11.792,178.8,Jul-23,12128,2019-08-12 13:19:57:564,-0.8036,-0.2201,9.7275,-1.4816,-1.0543,9.6366,0.0563,0.0345,-0.0062
122,46.430428,-0.504429,100.58,0.33,11.792,178.8,Jul-23,12227,2019-08-12 13:19:57:663,-0.8156,0.0211,9.8927,-1.4818,-0.9962,9.6427,0.0254,0.0238,0.0034
123,46.430428,-0.504429,100.58,0.33,11.792,178.8,Jul-23,12327,2019-08-12 13:19:57:763,-1.0999,-0.0705,9.9831,-1.4796,-0.9301,9.6497,-0.0002,0.0111,0.013
124,46.430428,-0.504429,100.58,0.33,11.792,178.8,Jul-23,12428,2019-08-12 13:19:57:864,-0.6306,-0.3614,9.5335,-1.47,-0.916,9.6525,-0.0162,0.0111,0.0045
125,46.430122,-0.504756,112.93,5.58,15.008,259.4,0 / 23,12528,2019-08-12 13:19:57:964,-0.7964,-0.4236,9.6269,-1.4365,-0.8823,9.6607,0.0264,-0.0081,0.0119
126,46.430122,-0.504756,112.93,5.58,15.008,259.4,0 / 23,12627,2019-08-12 13:19:58:063,-0.5702,-0.2973,9.919,-1.3959,-0.8561,9.669,0.0041,-0.0241,0.0098
127,46.430122,-0.504756,112.93,5.58,15.008,259.4,0 / 23,12728,2019-08-12 13:19:58:164,-0.6731,-0.259,10.0166,-1.3425,-0.8032,9.6811,0.0232,-0.0049,0.0162
128,46.430122,-0.504756,112.93,5.58,15.008,259.4,0 / 23,12827,2019-08-12 13:19:58:263,-0.4176,-0.4242,10.0178,-1.3089,-0.7633,9.6889,0.0307,-0.0124,0.0173
129,46.430122,-0.504756,112.93,5.58,15.008,259.4,0 / 23,12928,2019-08-12 13:19:58:364,-0.6091,-0.0334,10.0932,-1.2447,-0.6796,9.7036,0.036,-0.0347,0.0141
130,46.430122,-0.504756,112.93,5.58,15.008,259.4,0 / 23,13027,2019-08-12 13:19:58:463,-0.4385,0.388,10.265,-1.2003,-0.661,9.7104,-0.0226,-0.0113,-0.0008
131,46.430122,-0.504756,112.93,5.58,15.008,259.4,0 / 23,13128,2019-08-12 13:19:58:564,-0.3547,-0.0909,10.0363,-1.1605,-0.6476,9.7162,-0.0226,0.0047,0.0088
132,46.430122,-0.504756,112.93,5.58,15.008,259.4,0 / 23,13228,2019-08-12 13:19:58:664,-0.5744,-0.5547,10.2015,-1.1565,-0.6416,9.7171,0.0073,0.0292,0.0247
133,46.430122,-0.504756,112.93,5.58,15.008,259.4,0 / 23,13327,2019-08-12 13:19:58:763,-0.7462,0.0265,10.089,-1.1403,-0.5944,9.722,0.0222,-0.0017,0.0119
134,46.430122,-0.504756,112.93,5.58,15.008,259.4,0 / 23,13427,2019-08-12 13:19:58:863,-0.7743,0.0055,9.9106,-1.106,-0.5706,9.7274,-0.0013,-0.0305,0.0045
135,46.430122,-0.504756,112.93,5.58,15.008,259.4,0 / 23,13527,2019-08-12 13:19:58:963,-0.5546,-0.1633,9.9513,-1.0301,-0.5587,9.7364,-0.0087,-0.0379,-0.0008
136,46.430122,-0.504756,112.93,5.58,15.008,259.4,0 / 23,13627,2019-08-12 13:19:59:063,-0.5881,-0.4691,9.9561,-0.9894,-0.5585,9.7406,-0.0087,-0.0262,-0.004
137,46.430122,-0.504756,112.93,5.58,15.008,259.4,0 / 23,13728,2019-08-12 13:19:59:164,-0.4804,-0.3141,10.3655,-0.9527,-0.5534,9.7446,-0.0098,-0.0049,-0.004
138,46.430122,-0.504756,112.93,5.58,15.008,259.4,0 / 23,13827,2019-08-12 13:19:59:263,-0.4236,-0.5326,10.4511,-0.9321,-0.5297,9.7479,0.0296,-0.0028,0.0088
139,46.430122,-0.504756,112.93,5.58,15.008,259.4,0 / 23,13928,2019-08-12 13:19:59:364,-0.3799,-0.0741,10.3248,-0.8985,-0.5095,9.7521,-0.0045,-0.0177,-0.0019
140,46.430122,-0.504756,112.93,5.58,15.008,259.4,0 / 23,14028,2019-08-12 13:19:59:464,-0.2314,-0.0286,10.0202,-0.8589,-0.4977,9.7563,-0.0034,-0.0326,-0.0062
141,46.430122,-0.504756,112.93,5.58,15.008,259.4,0 / 23,14127,2019-08-12 13:19:59:563,-0.4116,-0.3141,9.8322,-0.8172,-0.5003,9.7597,-0.0183,-0.0028,-0.004
142,46.430122,-0.504756,112.93,5.58,15.008,259.4,0 / 23,14227,2019-08-12 13:19:59:663,-0.2907,-0.1591,10.262,-0.8054,-0.5002,9.7607,-0.0151,0.01,-0.004
143,46.430122,-0.504756,112.93,5.58,15.008,259.4,0 / 23,14328,2019-08-12 13:19:59:764,-0.1734,-0.1238,10.1369,-0.7948,-0.5069,9.7612,-0.0172,0.0185,-0.0051
144,46.430122,-0.504756,112.93,5.58,15.008,259.4,0 / 23,14428,2019-08-12 13:19:59:864,0.0026,-0.2608,9.8131,-0.7898,-0.5105,9.7615,-0.0183,0.0207,-0.0062
145,46.430122,-0.504756,112.93,5.58,15.008,259.4,0 / 23,14527,2019-08-12 13:19:59:963,-0.2805,-0.2806,9.946,-0.7758,-0.5476,9.7606,-0.0449,0.0121,-0.0126
146,46.430122,-0.504756,112.93,5.58,15.008,259.4,0 / 23,14628,2019-08-12 13:20:00:064,-0.1841,-0.6888,10.4445,-0.7563,-0.5579,9.7615,-0.0108,-0.0081,-0.0136
147,46.430122,-0.504756,112.93,5.58,15.008,259.4,0 / 23,14728,2019-08-12 13:20:00:164,-0.5516,-0.5655,10.3709,-0.7077,-0.5729,9.7643,0.0105,-0.0262,-0.0243
148,46.430122,-0.504756,112.93,5.58,15.008,259.4,0 / 23,14827,2019-08-12 13:20:00:263,-1.0957,-0.2423,9.8574,-0.6975,-0.5856,9.7643,-0.0343,0.0079,-0.0211
149,46.430122,-0.504756,112.93,5.58,15.008,259.4,0 / 23,14927,2019-08-12 13:20:00:363,-1.6679,-0.1411,9.506,-0.7918,-0.6102,9.7556,-0.0151,0.0771,0.0013
150,46.430122,-0.504756,112.93,5.58,15.008,259.4,0 / 23,15028,2019-08-12 13:20:00:464,-2.6771,-0.4781,9.0703,-0.9141,-0.6107,9.7448,-0.0087,0.0878,0.0098
151,46.430122,-0.504756,112.93,5.58,15.008,259.4,0 / 23,15128,2019-08-12 13:20:00:564,-2.953,-0.2249,9.9495,-1.0595,-0.636,9.7285,-0.046,0.0249,-0.0136
152,46.430122,-0.504756,112.93,5.58,15.008,259.4,0 / 23,15227,2019-08-12 13:20:00:663,-2.5652,-0.6002,9.7951,-1.0959,-0.6497,9.7235,-0.0151,-0.0294,-0.004
153,46.430122,-0.504756,112.93,5.58,15.008,259.4,0 / 23,15328,2019-08-12 13:20:00:764,-2.6424,-0.8055,9.4072,-1.1562,-0.6516,9.7164,-0.0013,-0.0028,0.0034
154,46.430122,-0.504756,112.93,5.58,15.008,259.4,0 / 23,15428,2019-08-12 13:20:00:864,-2.3682,-0.5033,9.6305,-1.2148,-0.657,9.7089,0.0094,-0.0038,0.0034
155,46.430122,-0.504756,112.93,5.58,15.008,259.4,0 / 23,15527,2019-08-12 13:20:00:963,-2.1953,-0.7319,9.0188,-1.2635,-0.643,9.7036,-0.0002,-0.0177,0.0056
156,46.430122,-0.504756,112.93,5.58,15.008,259.4,0 / 23,15628,2019-08-12 13:20:01:064,-1.1508,-0.2567,9.7442,-1.25,-0.6381,9.7057,-0.0087,-0.0209,-0.003
157,46.430122,-0.504756,112.93,5.58,15.008,259.4,0 / 23,15727,2019-08-12 13:20:01:163,-2.5065,-0.4997,8.7297,-1.2652,-0.6534,9.7027,-0.029,0.0057,-0.003
158,46.430122,-0.504756,112.93,5.58,15.008,259.4,0 / 23,15828,2019-08-12 13:20:01:264,-1.5835,-0.6218,9.7209,-1.3007,-0.6516,9.6982,-0.0226,-0.0113,-0.0019
159,46.430122,-0.504756,112.93,5.58,15.008,259.4,0 / 23,15929,2019-08-12 13:20:01:365,-2.0091,-0.3488,10.0836,-1.3068,-0.6655,9.6964,-0.0162,-0.0113,-0.004
160,46.430122,-0.504756,112.93,5.58,15.008,259.4,0 / 23,16027,2019-08-12 13:20:01:463,-1.6344,-0.6487,9.7903,-1.2967,-0.6692,9.6975,-0.013,-0.0209,0.0024
161,46.430122,-0.504756,112.93,5.58,15.008,259.4,0 / 23,16127,2019-08-12 13:20:01:563,-1.4297,-0.6206,9.5371,-1.2991,-0.6782,9.6965,-0.0162,-0.0028,-0.0019
162,46.430122,-0.504756,112.93,5.58,15.008,259.4,0 / 23,16228,2019-08-12 13:20:01:664,-1.4153,-0.4793,9.3175,-1.3163,-0.7028,9.6925,-0.0247,0.0153,-0.0019
163,46.430122,-0.504756,112.93,5.58,15.008,259.4,0 / 23,16328,2019-08-12 13:20:01:764,-1.4231,-0.8851,9.3522,-1.3247,-0.709,9.6909,-0.0066,0.01,0.0034
164,46.430122,-0.504756,112.93,5.58,15.008,259.4,0 / 23,16429,2019-08-12 13:20:01:865,-1.1047,-0.6607,9.4958,-1.3068,-0.7025,9.6938,0.0126,-0.0145,0.0024
165,46.430122,-0.504756,112.93,5.58,15.008,259.4,0 / 23,16528,2019-08-12 13:20:01:964,-1.3148,-0.4542,10.3613,-1.2873,-0.6909,9.6972,-0.0172,-0.0134,-0.0019
166,46.430122,-0.504756,112.93,5.58,15.008,259.4,0 / 23,16627,2019-08-12 13:20:02:063,-1.2914,-0.7618,10.4272,-1.2643,-0.6732,9.7015,0.0179,-0.0209,0.0077
167,46.430122,-0.504756,112.93,5.58,15.008,259.4,0 / 23,16728,2019-08-12 13:20:02:164,-1.1717,-0.3315,10.086,-1.2451,-0.6715,9.7041,0.0041,-0.0113,0.0024
168,46.430122,-0.504756,112.93,5.58,15.008,259.4,0 / 23,16828,2019-08-12 13:20:02:264,-0.9287,-0.4733,9.2121,-1.2495,-0.6726,9.7034,-0.0119,0.0324,0.0045
169,46.430122,-0.504756,112.93,5.58,15.008,259.4,0 / 23,16928,2019-08-12 13:20:02:364,-0.8766,-0.4081,9.6072,-1.2746,-0.6781,9.6998,-0.0108,0.043,0.0034
170,46.430122,-0.504756,112.93,5.58,15.008,259.4,0 / 23,17027,2019-08-12 13:20:02:463,-1.3088,-0.6517,9.682,-1.283,-0.6819,9.6984,-0.0045,-0.0017,0.0013
171,46.430122,-0.504756,112.93,5.58,15.008,259.4,0 / 23,17128,2019-08-12 13:20:02:564,-1.2597,-0.4099,9.6275,-1.2578,-0.6863,9.7014,-0.0194,-0.0305,-0.0019
172,46.430122,-0.504756,112.93,5.58,15.008,259.4,0 / 23,17228,2019-08-12 13:20:02:664,-1.3645,-0.6673,10.0076,-1.2309,-0.6773,9.7055,-0.0013,-0.007,0.0109
173,46.430122,-0.504756,112.93,5.58,15.008,259.4,0 / 23,17327,2019-08-12 13:20:02:763,-1.2645,-0.2866,9.5234,-1.1947,-0.6564,9.7114,-0.013,-0.0028,0.0088
174,46.430122,-0.504756,112.93,5.58,15.008,259.4,0 / 23,17427,2019-08-12 13:20:02:863,-1.0862,-0.4913,9.263,-1.1897,-0.6187,9.7145,-0.0108,0.0111,0.0151
175,46.430122,-0.504756,112.93,5.58,15.008,259.4,0 / 23,17528,2019-08-12 13:20:02:964,-0.994,-0.3398,10.168,-1.1941,-0.6157,9.7142,-0.0066,0.01,0.0162
176,46.430122,-0.504756,112.93,5.58,15.008,259.4,0 / 23,17628,2019-08-12 13:20:03:064,-0.9892,-0.5841,9.6772,-1.1866,-0.5793,9.7173,0.003,0.0047,0.0173
177,46.430122,-0.504756,112.93,5.58,15.008,259.4,0 / 23,17728,2019-08-12 13:20:03:164,-1.4177,-0.4608,10.1016,-1.1825,-0.5537,9.7193,0.003,-0.0017,0.0215
178,46.430122,-0.504756,112.93,5.58,15.008,259.4,0 / 23,17827,2019-08-12 13:20:03:263,-1.2065,-0.2489,10.1279,-1.1783,-0.518,9.7218,0.0232,-0.0124,0.0354
179,46.430122,-0.504756,112.93,5.58,15.008,259.4,0 / 23,17928,2019-08-12 13:20:03:364,-1.3124,0.3533,9.3211,-1.183,-0.4855,9.7229,0.0201,-0.0049,0.0439
180,46.430122,-0.504756,112.93,5.58,15.008,259.4,0 / 23,18028,2019-08-12 13:20:03:464,-1.2843,-0.0376,9.017,-1.2145,-0.4598,9.7203,-0.0098,0.026,0.045
181,46.430122,-0.504756,112.93,5.58,15.008,259.4,0 / 23,18128,2019-08-12 13:20:03:564,-1.5566,0.1624,9.4629,-1.2322,-0.4417,9.7189,-0.0066,-0.0007,0.0428
182,46.430122,-0.504756,112.93,5.58,15.008,259.4,0 / 23,18228,2019-08-12 13:20:03:664,-1.2448,-0.1082,9.9974,-1.2199,-0.4408,9.7205,-0.0258,-0.0326,0.0365
183,46.430122,-0.504756,112.93,5.58,15.008,259.4,0 / 23,18327,2019-08-12 13:20:03:763,-1.3926,0.1486,10.5277,-1.2136,-0.4387,9.7214,-0.0215,-0.022,0.045
184,46.430122,-0.504756,112.93,5.58,15.008,259.4,0 / 23,18428,2019-08-12 13:20:03:864,-1.7045,0.0618,10.6893,-1.2083,-0.4194,9.7229,-0.0045,-0.0241,0.0492
185,46.430122,-0.504756,112.93,5.58,15.008,259.4,0 / 23,18528,2019-08-12 13:20:03:964,-1.6895,-0.0412,9.9968,-1.198,-0.3913,9.7253,0.0083,-0.0326,0.0556
186,46.430122,-0.504756,112.93,5.58,15.008,259.4,0 / 23,18627,2019-08-12 13:20:04:063,-1.3136,0.0965,10.1674,-1.1911,-0.3543,9.7276,-0.0002,-0.0145,0.0546
187,46.430122,-0.504756,112.93,5.58,15.008,259.4,0 / 23,18727,2019-08-12 13:20:04:163,-1.2531,0.2898,9.4426,-1.1994,-0.3363,9.7272,-0.0066,0.0068,0.0556
188,46.430122,-0.504756,112.93,5.58,15.008,259.4,0 / 23,18827,2019-08-12 13:20:04:263,-1.2268,0.2479,9.4575,-1.2295,-0.3096,9.7243,-0.0108,0.0238,0.0503
189,46.430122,-0.504756,112.93,5.58,15.008,259.4,0 / 23,18928,2019-08-12 13:20:04:364,-1.3088,0.0863,9.4773,-1.2484,-0.298,9.7223,-0.0226,0.0196,0.0428
190,46.430122,-0.504756,112.93,5.58,15.008,259.4,0 / 23,19028,2019-08-12 13:20:04:464,-1.2687,0.2467,9.5467,-1.2629,-0.2993,9.7204,-0.0172,0.0025,0.0354
191,46.430122,-0.504756,112.93,5.58,15.008,259.4,0 / 23,19127,2019-08-12 13:20:04:563,-1.3172,-0.0639,9.664,-1.2573,-0.3086,9.7208,-0.0236,-0.0102,0.0301
192,46.430122,-0.504756,112.93,5.58,15.008,259.4,0 / 23,19228,2019-08-12 13:20:04:664,-1.0443,-0.1842,9.5683,-1.2697,-0.3063,9.7193,-0.0055,0.026,0.0343
193,46.430122,-0.504756,112.93,5.58,15.008,259.4,0 / 23,19328,2019-08-12 13:20:04:764,-1.4177,-0.1609,9.9196,-1.2992,-0.2929,9.7158,-0.0013,0.0217,0.0332
194,46.430122,-0.504756,112.93,5.58,15.008,259.4,0 / 23,19428,2019-08-12 13:20:04:864,-1.3944,0.1205,9.8203,-1.3082,-0.3081,9.7141,-0.0471,0.0079,0.0247
195,46.430122,-0.504756,112.93,5.58,15.008,259.4,0 / 23,19527,2019-08-12 13:20:04:963,-1.811,-0.2734,9.4079,-1.3609,-0.3392,9.7058,-0.0268,0.0185,0.0205
196,46.430122,-0.504756,112.93,5.58,15.008,259.4,0 / 23,19627,2019-08-12 13:20:05:063,-2.9638,-0.2824,9.6634,-1.4001,-0.3537,9.6997,-0.0183,-0.0007,0.0162
197,46.430122,-0.504756,112.93,5.58,15.008,259.4,0 / 23,19728,2019-08-12 13:20:05:164,-2.5011,-0.5853,9.4815,-1.4739,-0.3534,9.6888,0.0126,0.01,0.029
198,46.430122,-0.504756,112.93,5.58,15.008,259.4,0 / 23,19828,2019-08-12 13:20:05:264,-2.5436,-0.2429,9.3498,-1.521,-0.3505,9.6816,0.0051,0.0121,0.0279
199,46.430122,-0.504756,112.93,5.58,15.008,259.4,0 / 23,19927,2019-08-12 13:20:05:363,-2.4772,-0.3045,9.33,-1.5929,-0.3454,9.6703,-0.0066,0.01,0.0237
200,46.430122,-0.504756,112.93,5.58,15.008,259.4,0 / 23,20027,2019-08-12 13:20:05:463,-2.6945,-0.3734,9.6048,-1.7323,-0.3439,9.6463,-0.0013,-0.006,0.0226
201,46.430122,-0.504756,112.93,5.58,15.008,259.4,0 / 23,20128,2019-08-12 13:20:05:564,-2.8429,-0.3698,9.9166,-1.9361,-0.3462,9.6074,-0.0194,-0.022,0.0162
202,46.430122,-0.504756,112.93,5.58,15.008,259.4,0 / 23,20228,2019-08-12 13:20:05:664,-2.8022,-0.0424,10.0483,-1.936,-0.3557,9.6071,-0.0108,-0.0337,0.0194
203,46.430122,-0.504756,112.93,5.58,15.008,259.4,0 / 23,20328,2019-08-12 13:20:05:764,-1.893,-0.2973,9.9837,-1.9176,-0.3602,9.6106,-0.0247,-0.0145,0.0151
204,46.430122,-0.504756,112.93,5.58,15.008,259.4,0 / 23,20427,2019-08-12 13:20:05:863,-1.7697,-0.5224,9.7215,-1.9457,-0.3595,9.605,0.0009,0.0164,0.0226
205,46.430122,-0.504756,112.93,5.58,15.008,259.4,13 / 23,20528,2019-08-12 13:20:05:964,-2.0349,-0.4446,9.281,-1.9713,-0.3493,9.6001,0.0073,0.0196,0.0215
206,46.430122,-0.504756,112.93,5.58,15.008,259.4,13 / 23,20628,2019-08-12 13:20:06:064,-2.0684,-0.4829,9.336,-1.9859,-0.3297,9.5978,0.0296,0.0132,0.0258
207,46.430122,-0.504756,112.93,5.58,15.008,259.4,13 / 23,20727,2019-08-12 13:20:06:163,-1.9696,-0.1824,9.7772,-1.9754,-0.3214,9.6003,-0.0034,-0.023,0.0162
208,46.430122,-0.504756,112.93,5.58,15.008,259.4,13 / 23,20828,2019-08-12 13:20:06:264,-2.0492,-0.3674,9.8771,-1.957,-0.3149,9.6042,0.003,-0.0262,0.0173
209,46.430122,-0.504756,112.93,5.58,15.008,259.4,13 / 23,20928,2019-08-12 13:20:06:364,-1.8008,-0.2608,9.6551,-1.9383,-0.3222,9.6078,-0.0087,-0.0007,0.0109
210,46.430122,-0.504756,112.93,5.58,15.008,259.4,13 / 23,21027,2019-08-12 13:20:06:463,-1.7362,-0.4201,9.7263,-1.9039,-0.3452,9.6139,0.0019,-0.0017,0.013
211,46.430122,-0.504756,112.93,5.58,15.008,259.4,13 / 23,21127,2019-08-12 13:20:06:563,-1.7912,-0.2926,9.5665,-1.8975,-0.3674,9.6143,-0.0098,0.0047,0.0109
212,46.430122,-0.504756,112.93,5.58,15.008,259.4,13 / 23,21228,2019-08-12 13:20:06:664,-2.0588,-0.3356,10.2338,-1.8874,-0.3796,9.6158,-0.0172,-0.0124,0.0098
213,46.430122,-0.504756,112.93,5.58,15.008,259.4,13 / 23,21328,2019-08-12 13:20:06:764,-1.3292,-0.4823,9.445,-1.8589,-0.405,9.6203,-0.0226,-0.0251,0.0056
214,46.430122,-0.504756,112.93,5.58,15.008,259.4,13 / 23,21428,2019-08-12 13:20:06:864,-1.5638,-0.4183,9.9789,-1.8526,-0.4127,9.6212,-0.0151,-0.0017,0.0066
215,46.42995,-0.506176,104.75,15.3,15.008,260.2,0 / 23,21528,2019-08-12 13:20:06:964,-1.9953,-0.5457,8.9769,-1.8735,-0.431,9.6164,0.0051,0.0111,0.013
216,46.42995,-0.506176,104.75,15.3,15.008,260.2,0 / 23,21627,2019-08-12 13:20:07:063,-1.7224,-0.6176,9.521,-1.8565,-0.4393,9.6193,-0.0013,-0.0017,0.0119
217,46.42995,-0.506176,104.75,15.3,15.008,260.2,0 / 23,21728,2019-08-12 13:20:07:164,-1.8768,-0.4817,9.5204,-1.8567,-0.439,9.6193,-0.0023,-0.0028,0.0109
218,46.42995,-0.506176,104.75,15.3,15.008,260.2,0 / 23,21828,2019-08-12 13:20:07:264,-1.8529,-0.538,9.5581,-1.8514,-0.4446,9.62,-0.0055,-0.007,0.0088
219,46.42995,-0.506176,104.75,15.3,15.008,260.2,0 / 23,21928,2019-08-12 13:20:07:364,-2.0109,-0.456,9.6993,-1.8465,-0.4476,9.6208,0.0009,-0.0081,0.0109
220,46.42995,-0.506176,104.75,15.3,15.008,260.2,0 / 23,22028,2019-08-12 13:20:07:464,-1.8679,-0.4733,9.4198,-1.8469,-0.4537,9.6205,-0.0119,-0.0017,0.0098
221,46.42995,-0.506176,104.75,15.3,15.008,260.2,0 / 23,22128,2019-08-12 13:20:07:564,-1.5686,-0.4763,8.6848,-1.859,-0.4445,9.6186,0.0222,0.0207,0.0173
222,46.42995,-0.506176,104.75,15.3,15.008,260.2,0 / 23,22228,2019-08-12 13:20:07:664,-1.9175,-0.2453,9.2756,-1.8811,-0.4308,9.6149,0.0126,0.0334,0.0151
223,46.42995,-0.506176,104.75,15.3,15.008,260.2,0 / 23,22327,2019-08-12 13:20:07:763,-2.1779,-0.3734,9.3426,-1.9038,-0.4233,9.6108,0.0083,-0.0028,0.0162
224,46.42995,-0.506176,104.75,15.3,15.008,260.2,0 / 23,22427,2019-08-12 13:20:07:863,-2.0019,-0.4476,9.521,-1.8944,-0.4243,9.6126,-0.0108,-0.0177,0.0077
225,46.42995,-0.506176,104.75,15.3,15.008,260.2,0 / 23,22527,2019-08-12 13:20:07:963,-1.963,-0.6062,9.7107,-1.89,-0.4469,9.6124,-0.0098,0.0036,0.0088
226,46.42995,-0.506176,104.75,15.3,15.008,260.2,0 / 23,22628,2019-08-12 13:20:08:064,-1.8792,-0.6816,9.4857,-1.9029,-0.4582,9.6093,-0.0119,0.0185,0.0077
227,46.42995,-0.506176,104.75,15.3,15.008,260.2,0 / 23,22727,2019-08-12 13:20:08:163,-2.1396,-0.6188,9.5066,-1.9174,-0.5045,9.6041,-0.0545,-0.0102,-0.004
228,46.42995,-0.506176,104.75,15.3,15.008,260.2,0 / 23,22828,2019-08-12 13:20:08:264,-2.4646,-0.7433,9.2678,-1.9258,-0.464,9.6045,0.0765,-0.0017,0.0237
229,46.42995,-0.506176,104.75,15.3,15.008,260.2,0 / 23,22927,2019-08-12 13:20:08:363,-2.0055,-0.3363,9.8921,-1.9521,-0.4475,9.6,0.0083,0.0057,0.0056
230,46.42995,-0.506176,104.75,15.3,15.008,260.2,0 / 23,23028,2019-08-12 13:20:08:464,-2.3377,-0.5475,9.5461,-2.024,-0.4421,9.5853,-0.0002,0.0494,0.0151
231,46.42995,-0.506176,104.75,15.3,15.008,260.2,0 / 23,23128,2019-08-12 13:20:08:564,-2.7914,-0.5104,9.6467,-2.0654,-0.446,9.5763,-0.0002,0.0121,0.0045
232,46.42995,-0.506176,104.75,15.3,15.008,260.2,0 / 23,23228,2019-08-12 13:20:08:664,-2.731,-0.4817,10.2554,-2.0813,-0.4379,9.5732,0.0126,-0.0326,0.0045
233,46.42995,-0.506176,104.75,15.3,15.008,260.2,0 / 23,23327,2019-08-12 13:20:08:763,-2.7854,-0.6236,10.1309,-2.0694,-0.4365,9.5759,0.0073,-0.0507,0.0077
234,46.42995,-0.506176,104.75,15.3,15.008,260.2,0 / 23,23428,2019-08-12 13:20:08:864,-2.6849,-0.5122,9.3977,-2.0742,-0.412,9.5759,0.0339,-0.0049,0.0162
235,46.42995,-0.506176,104.75,15.3,15.008,260.2,0 / 23,23528,2019-08-12 13:20:08:964,-2.6316,-0.5793,9.2648,-2.1087,-0.3891,9.5694,0.0328,0.0271,0.0141
236,46.42995,-0.506176,104.75,15.3,15.008,260.2,0 / 23,23628,2019-08-12 13:20:09:064,-2.704,-0.4254,9.1612,-2.1655,-0.3707,9.5574,0.0051,0.0153,0.0088
237,46.42995,-0.506176,104.75,15.3,15.008,260.2,0 / 23,23728,2019-08-12 13:20:09:164,-2.7663,-0.5721,9.3941,-2.1903,-0.3678,9.5518,0.0041,-0.0028,0.0066
238,46.42995,-0.506176,104.75,15.3,15.008,260.2,0 / 23,23828,2019-08-12 13:20:09:264,-2.7758,-0.6325,9.1989,-2.2758,-0.3772,9.5315,0.0105,-0.0017,0.0045
239,46.42995,-0.506176,104.75,15.3,15.008,260.2,0 / 23,23927,2019-08-12 13:20:09:363,-2.874,-0.3734,9.3737,-2.3941,-0.3922,9.5018,0.0179,0.0143,0.0098
240,46.42995,-0.506176,104.75,15.3,15.008,260.2,0 / 23,24027,2019-08-12 13:20:09:463,-2.7322,-0.3937,9.4474,-2.5237,-0.4107,9.4675,0.0371,0.0047,0.0141
241,46.42995,-0.506176,104.75,15.3,15.008,260.2,0 / 23,24128,2019-08-12 13:20:09:564,-2.78,-0.3973,9.2845,-2.5619,-0.4135,9.4571,0.0414,-0.0017,0.0141
242,46.42995,-0.506176,104.75,15.3,15.008,260.2,0 / 23,24227,2019-08-12 13:20:09:663,-2.6639,-0.59,9.4372,-2.5523,-0.3828,9.4609,0.0232,-0.0177,0.0077
243,46.42995,-0.506176,104.75,15.3,15.008,260.2,0 / 23,24328,2019-08-12 13:20:09:764,-2.8417,-0.5475,9.2786,-2.5689,-0.3732,9.4568,0.0094,0.0015,0.0024
244,46.42995,-0.506176,104.75,15.3,15.008,260.2,0 / 23,24427,2019-08-12 13:20:09:863,-2.5646,-0.3704,8.8943,-2.5843,-0.3732,9.4527,-0.0013,0.0025,-0.0062
245,46.42995,-0.506176,104.75,15.3,15.008,260.2,0 / 23,24527,2019-08-12 13:20:09:963,-2.9249,-0.3422,9.5641,-2.5937,-0.3727,9.4501,0.0126,0.0057,-0.0019
246,46.42995,-0.506176,104.75,15.3,15.008,260.2,0 / 23,24628,2019-08-12 13:20:10:064,-2.7304,-0.5368,9.5587,-2.5864,-0.3575,9.4527,0.0275,-0.0113,0.0002
247,46.42995,-0.506176,104.75,15.3,15.008,260.2,0 / 23,24727,2019-08-12 13:20:10:163,-2.2928,-0.4416,9.0565,-2.5745,-0.3475,9.4563,0.0158,-0.0241,-0.0019
248,46.42995,-0.506176,104.75,15.3,15.008,260.2,0 / 23,24828,2019-08-12 13:20:10:264,-2.467,-0.4667,9.1822,-2.5757,-0.3351,9.4564,0.0126,0.0164,0.0024
249,46.42995,-0.506176,104.75,15.3,15.008,260.2,0 / 23,24927,2019-08-12 13:20:10:363,-2.4718,-0.2536,9.0074,-2.5849,-0.3385,9.4538,-0.0098,0.0111,-0.0062
250,46.42995,-0.506176,104.75,15.3,15.008,260.2,0 / 23,25028,2019-08-12 13:20:10:464,-2.4903,-0.5027,8.9344,-2.5657,-0.3505,9.4586,-0.0055,-0.006,-0.0072
251,46.42995,-0.506176,104.75,15.3,15.008,260.2,0 / 23,25128,2019-08-12 13:20:10:564,-2.5119,-0.526,9.3965,-2.5491,-0.3837,9.4618,-0.0013,-0.006,-0.0115
252,46.42995,-0.506176,104.75,15.3,15.008,260.2,0 / 23,25227,2019-08-12 13:20:10:663,-2.5891,-0.6541,9.4509,-2.5352,-0.3953,9.465,0.003,-0.0113,-0.0147
253,46.42995,-0.506176,104.75,15.3,15.008,260.2,0 / 23,25328,2019-08-12 13:20:10:764,-2.2401,-0.5865,9.284,-2.5266,-0.4342,9.4656,0.0105,-0.007,-0.0104
254,46.42995,-0.506176,104.75,15.3,15.008,260.2,0 / 23,25428,2019-08-12 13:20:10:864,-2.3784,-0.5769,9.2091,-2.4994,-0.4738,9.471,-0.0055,0.0111,-0.0136
255,46.42995,-0.506176,104.75,15.3,15.008,260.2,0 / 23,25528,2019-08-12 13:20:10:964,-2.4592,-0.4697,9.445,-2.4977,-0.4873,9.4707,-0.0023,0.0089,-0.0136
256,46.42995,-0.506176,104.75,15.3,15.008,260.2,0 / 23,25628,2019-08-12 13:20:11:064,-2.2108,-0.6044,9.0589,-2.4722,-0.5087,9.4763,-0.0002,0.0036,-0.0157
257,46.42995,-0.506176,104.75,15.3,15.008,260.2,0 / 23,25727,2019-08-12 13:20:11:163,-2.4377,-0.5469,9.3264,-2.4503,-0.52,9.4814,0.0073,-0.0028,-0.0136
258,46.42995,-0.506176,104.75,15.3,15.008,260.2,0 / 23,25827,2019-08-12 13:20:11:263,-2.4233,-0.5829,9.4761,-2.419,-0.5383,9.4884,0.0041,-0.0166,-0.0136
259,46.42995,-0.506176,104.75,15.3,15.008,260.2,0 / 23,25927,2019-08-12 13:20:11:363,-2.3994,-0.4835,9.2732,-2.401,-0.5317,9.4933,-0.0002,-0.0145,-0.0136
260,46.42995,-0.506176,104.75,15.3,15.008,260.2,0 / 23,26027,2019-08-12 13:20:11:463,-2.4933,-0.5894,9.6724,-2.3668,-0.5405,9.5014,0.0094,-0.0102,-0.0094
261,46.42995,-0.506176,104.75,15.3,15.008,260.2,0 / 23,26128,2019-08-12 13:20:11:564,-2.5029,-0.6182,9.4491,-2.3622,-0.524,9.5035,0.0307,0.0057,-0.0051
262,46.42995,-0.506176,104.75,15.3,15.008,260.2,0 / 23,26228,2019-08-12 13:20:11:664,-2.3712,-0.4404,9.6676,-2.3619,-0.4957,9.505,0.0051,0.0132,-0.0115
263,46.42995,-0.506176,104.75,15.3,15.008,260.2,0 / 23,26327,2019-08-12 13:20:11:763,-2.2719,-0.4805,9.5126,-2.3375,-0.4773,9.512,0.0381,-0.006,-0.003
264,46.42995,-0.506176,104.75,15.3,15.008,260.2,0 / 23,26428,2019-08-12 13:20:11:864,-2.1474,-0.4913,9.7574,-2.2805,-0.452,9.5271,0.0201,-0.0166,-0.0104
265,46.42995,-0.506176,104.75,15.3,15.008,260.2,0 / 23,26527,2019-08-12 13:20:11:963,-2.057,-0.2231,9.0487,-2.2789,-0.446,9.5277,0.0019,0.0111,-0.0104
266,46.42995,-0.506176,104.75,15.3,15.008,260.2,0 / 23,26628,2019-08-12 13:20:12:064,-1.7643,-0.2902,7.2579,-2.288,-0.4342,9.5261,0.0232,-0.0156,-0.0104
267,46.42995,-0.506176,104.75,15.3,15.008,260.2,0 / 23,26728,2019-08-12 13:20:12:164,-2.0091,-0.2345,8.6854,-2.3116,-0.432,9.5205,0.0211,0.0207,-0.0126
268,46.42995,-0.506176,104.75,15.3,15.008,260.2,0 / 23,26828,2019-08-12 13:20:12:264,-2.9452,-0.4458,9.6927,-2.2684,-0.4209,9.5314,0.0339,-0.0028,-0.02
269,46.42995,-0.506176,104.75,15.3,15.008,260.2,0 / 23,26927,2019-08-12 13:20:12:363,-1.6452,-0.4003,9.6096,-2.2281,-0.4263,9.5407,-0.0002,0.0057,-0.0136
270,46.42995,-0.506176,104.75,15.3,15.008,260.2,0 / 23,27028,2019-08-12 13:20:12:464,-1.5303,-0.2393,10.1249,-2.238,-0.4267,9.5383,-0.0013,0.0356,-0.0062
271,46.42995,-0.506176,104.75,15.3,15.008,260.2,0 / 23,27128,2019-08-12 13:20:12:564,-1.7356,-0.2315,9.1756,-2.2618,-0.4172,9.5331,0.0222,0.0324,-0.003
272,46.42995,-0.506176,104.75,15.3,15.008,260.2,0 / 23,27228,2019-08-12 13:20:12:664,-1.9487,-0.3788,9.5359,-2.2467,-0.3993,9.5375,0.0168,-0.0156,-0.0083
273,46.42995,-0.506176,104.75,15.3,15.008,260.2,0 / 23,27328,2019-08-12 13:20:12:764,-2.1414,-0.5086,9.6377,-2.2136,-0.3783,9.5461,0.0158,-0.0102,-0.0083
274,46.42995,-0.506176,104.75,15.3,15.008,260.2,0 / 23,27427,2019-08-12 13:20:12:863,-1.9133,-0.7205,10.1393,-2.1991,-0.3612,9.5501,0.0339,-0.0081,-0.0062
275,46.42995,-0.506176,104.75,15.3,15.008,260.2,0 / 23,27528,2019-08-12 13:20:12:964,-2.0845,-0.2842,10.4386,-2.1687,-0.3318,9.5581,0.0307,-0.0209,-0.0062
276,46.42995,-0.506176,104.75,15.3,15.008,260.2,0 / 23,27628,2019-08-12 13:20:13:064,-1.8104,-0.3626,9.5766,-2.1496,-0.3107,9.5631,0.0275,-0.006,-0.0083
277,46.42995,-0.506176,104.75,15.3,15.008,260.2,0 / 23,27727,2019-08-12 13:20:13:163,-1.383,-0.5194,9.6138,-2.1502,-0.3012,9.5633,0.0158,0.0175,-0.0168
278,46.42995,-0.506176,104.75,15.3,15.008,260.2,0 / 23,27827,2019-08-12 13:20:13:263,-1.9726,-0.2495,9.5623,-2.1505,-0.3079,9.563,0.0009,0.0111,-0.0264
279,46.42995,-0.506176,104.75,15.3,15.008,260.2,0 / 23,27927,2019-08-12 13:20:13:363,-2.0378,-0.3997,9.7454,-2.0845,-0.3786,9.5751,0.0009,0.0015,-0.0296
280,46.42995,-0.506176,104.75,15.3,15.008,260.2,0 / 23,28027,2019-08-12 13:20:13:463,-1.6799,-0.9917,9.442,-2.0587,-0.4063,9.5795,0.0105,-0.006,-0.0307
281,46.42995,-0.506176,104.75,15.3,15.008,260.2,0 / 23,28128,2019-08-12 13:20:13:564,-1.9433,-1.0611,9.8436,-2.0284,-0.4408,9.5844,0.0019,-0.0177,-0.0466
282,46.42995,-0.506176,104.75,15.3,15.008,260.2,0 / 23,28228,2019-08-12 13:20:13:664,-2.0546,-1.091,9.8418,-2.0127,-0.4701,9.5864,-0.0098,-0.0049,-0.0605
283,46.42995,-0.506176,104.75,15.3,15.008,260.2,0 / 23,28328,2019-08-12 13:20:13:764,-1.9481,-0.9773,9.4797,-2.0044,-0.5212,9.5855,-0.0098,0.0079,-0.0584
284,46.42995,-0.506176,104.75,15.3,15.008,260.2,0 / 23,28428,2019-08-12 13:20:13:864,-1.9523,-1.1724,9.1642,-2.0021,-0.5433,9.5847,0.0083,0.0143,-0.053
285,46.42995,-0.506176,104.75,15.3,15.008,260.2,0 / 23,28528,2019-08-12 13:20:13:964,-1.8702,-1.1239,9.591,-1.9618,-0.6673,9.5852,0.0168,0.0047,-0.053
286,46.42995,-0.506176,104.75,15.3,15.008,260.2,0 / 23,28627,2019-08-12 13:20:14:063,-1.8026,-1.2083,9.6221,-1.9363,-0.6998,9.5881,0.0381,-0.0113,-0.0456
287,46.42995,-0.506176,104.75,15.3,15.008,260.2,0 / 23,28728,2019-08-12 13:20:14:164,-2.0067,-0.8977,9.9866,-1.9161,-0.688,9.593,0.0339,-0.0049,-0.0307
288,46.42995,-0.506176,104.75,15.3,15.008,260.2,0 / 23,28827,2019-08-12 13:20:14:263,-1.8014,-0.7259,9.8352,-1.9084,-0.6568,9.5967,0.052,-0.0028,-0.0232
289,46.42995,-0.506176,104.75,15.3,15.008,260.2,0 / 23,28927,2019-08-12 13:20:14:363,-1.6853,-0.8079,9.7526,-1.8773,-0.6392,9.604,0.0286,-0.0092,-0.0307
290,46.42995,-0.506176,104.75,15.3,15.008,260.2,0 / 23,29027,2019-08-12 13:20:14:463,-1.6123,-0.5805,9.5479,-1.8457,-0.6404,9.6101,0.0083,-0.0134,-0.0307
291,46.42995,-0.506176,104.75,15.3,15.008,260.2,0 / 23,29128,2019-08-12 13:20:14:564,-1.6147,-0.432,9.3564,-1.8418,-0.6307,9.6115,0.0115,0.0217,-0.0285
292,46.42995,-0.506176,104.75,15.3,15.008,260.2,0 / 23,29228,2019-08-12 13:20:14:664,-1.8882,-0.3602,9.6431,-1.859,-0.6226,9.6087,0.003,0.0292,-0.0211
293,46.42995,-0.506176,104.75,15.3,15.008,260.2,0 / 23,29327,2019-08-12 13:20:14:763,-1.8673,-0.213,9.846,-1.858,-0.5891,9.611,0.0264,-0.0134,-0.0072
294,46.42995,-0.506176,104.75,15.3,15.008,260.2,0 / 23,29427,2019-08-12 13:20:14:863,-1.9403,-0.213,9.6185,-1.8394,-0.5653,9.616,0.019,-0.0198,-0.0051
295,46.42995,-0.506176,104.75,15.3,15.008,260.2,Nov-23,29527,2019-08-12 13:20:14:963,-1.9582,-0.6978,9.9005,-1.8274,-0.5241,9.6206,0.0179,-0.006,-0.0115
296,46.42995,-0.506176,104.75,15.3,15.008,260.2,Nov-23,29627,2019-08-12 13:20:15:063,-1.7308,-0.3279,9.3235,-1.8283,-0.5066,9.6214,0.0158,0.0089,-0.0136
297,46.42995,-0.506176,104.75,15.3,15.008,260.2,Nov-23,29727,2019-08-12 13:20:15:163,-1.9714,-0.3572,10.0878,-1.8233,-0.5063,9.6224,-0.0108,-0.0124,-0.02
298,46.42995,-0.506176,104.75,15.3,15.008,260.2,Nov-23,29827,2019-08-12 13:20:15:263,-1.7577,-0.0208,9.7778,-1.794,-0.5112,9.6276,-0.0343,-0.0294,-0.0221
299,46.42995,-0.506176,104.75,15.3,15.008,260.2,Nov-23,29927,2019-08-12 13:20:15:363,-1.4052,-0.45,8.9679,-1.8068,-0.5544,9.6228,-0.0439,0.0366,-0.0253
300,46.42995,-0.506176,104.75,15.3,15.008,260.2,Nov-23,30033,2019-08-12 13:20:15:469,-1.3471,-0.5871,9.1385,-1.8308,-0.5711,9.6173,-0.0141,0.0366,-0.0211
301,46.42995,-0.506176,104.75,15.3,15.008,260.2,Nov-23,30128,2019-08-12 13:20:15:564,-1.7775,-0.4266,9.6982,-1.8329,-0.5786,9.6165,0.0051,-0.007,-0.0179
302,46.42995,-0.506176,104.75,15.3,15.008,260.2,Nov-23,30228,2019-08-12 13:20:15:664,-1.7649,-0.5954,9.524,-1.8233,-0.5709,9.6187,0.0051,-0.007,-0.0157
303,46.42995,-0.506176,104.75,15.3,15.008,260.2,Nov-23,30327,2019-08-12 13:20:15:763,-1.8146,-0.4099,9.4192,-1.8266,-0.5699,9.6182,-0.0045,0.0068,-0.0211
304,46.42995,-0.506176,104.75,15.3,15.008,260.2,Nov-23,30427,2019-08-12 13:20:15:863,-1.7422,-0.5386,10.1447,-1.8083,-0.5526,9.6251,-0.0215,-0.0102,-0.0285
305,46.429836,-0.508126,105.82,18.05,9.648001,263.1,0 / 23,30528,2019-08-12 13:20:15:964,-1.6368,-0.4979,9.53,-1.7912,-0.5769,9.6244,-0.0183,0.0025,-0.0328
306,46.429836,-0.508126,105.82,18.05,9.648001,263.1,0 / 23,30628,2019-08-12 13:20:16:064,-1.498,-0.9911,9.4216,-1.7939,-0.6087,9.6219,-0.0045,0.0132,-0.037
307,46.429836,-0.508126,105.82,18.05,9.648001,263.1,0 / 23,30727,2019-08-12 13:20:16:163,-1.4321,-1.0276,9.1044,-1.8022,-0.6261,9.6193,-0.0034,0.0185,-0.0381
308,46.429836,-0.508126,105.82,18.05,9.648001,263.1,0 / 23,30827,2019-08-12 13:20:16:263,-1.8643,-0.9186,9.5144,-1.7822,-0.6721,9.6199,0.0083,-0.0007,-0.037
309,46.429836,-0.508126,105.82,18.05,9.648001,263.1,0 / 23,30927,2019-08-12 13:20:16:363,-1.7158,-1.0671,10.1477,-1.7651,-0.706,9.6206,0.0019,-0.0017,-0.0403
310,46.429836,-0.508126,105.82,18.05,9.648001,263.1,0 / 23,31028,2019-08-12 13:20:16:464,-1.9762,-1.1551,10.0998,-1.7432,-0.7072,9.6245,0.0094,-0.0241,-0.0381
311,46.429836,-0.508126,105.82,18.05,9.648001,263.1,0 / 23,31127,2019-08-12 13:20:16:563,-1.6248,-0.9797,10.2105,-1.7277,-0.6969,9.6281,0.0371,-0.0209,-0.0296
312,46.429836,-0.508126,105.82,18.05,9.648001,263.1,0 / 23,31227,2019-08-12 13:20:16:663,-1.4866,-1.1203,9.6503,-1.7179,-0.6946,9.63,0.0158,0.0057,-0.0349
313,46.429836,-0.508126,105.82,18.05,9.648001,263.1,0 / 23,31328,2019-08-12 13:20:16:764,-1.5632,-0.8779,9.3408,-1.7175,-0.6957,9.63,0.0168,0.01,-0.037
314,46.429836,-0.508126,105.82,18.05,9.648001,263.1,0 / 23,31428,2019-08-12 13:20:16:864,-1.3717,-0.9444,9.3246,-1.7194,-0.7157,9.6282,-0.0066,0.0111,-0.0445
315,46.429836,-0.508126,105.82,18.05,9.648001,263.1,0 / 23,31528,2019-08-12 13:20:16:964,-1.5907,-1.0216,9.77,-1.7081,-0.7523,9.6274,-0.0407,-0.0081,-0.0498
316,46.429836,-0.508126,105.82,18.05,9.648001,263.1,0 / 23,31627,2019-08-12 13:20:17:063,-1.9403,-0.8318,10.2554,-1.674,-0.7918,9.6302,-0.0268,-0.0347,-0.0477
317,46.429836,-0.508126,105.82,18.05,9.648001,263.1,0 / 23,31728,2019-08-12 13:20:17:164,-1.3728,-1.6453,9.4976,-1.6528,-0.8104,9.6323,0.0158,-0.0017,-0.0339
318,46.429836,-0.508126,105.82,18.05,9.648001,263.1,0 / 23,31828,2019-08-12 13:20:17:264,-1.2466,-0.8229,9.5461,-1.6683,-0.8064,9.63,0.0222,0.0409,-0.0232
319,46.429836,-0.508126,105.82,18.05,9.648001,263.1,0 / 23,31928,2019-08-12 13:20:17:364,-1.4878,-0.9043,8.9284,-1.6816,-0.7834,9.6296,0.0307,0.0143,-0.0157
320,46.429836,-0.508126,105.82,18.05,9.648001,263.1,0 / 23,32028,2019-08-12 13:20:17:464,-1.5123,-0.6595,10.2069,-1.674,-0.7467,9.6338,0.0296,-0.0124,-0.0136
321,46.429836,-0.508126,105.82,18.05,9.648001,263.1,0 / 23,32128,2019-08-12 13:20:17:564,-1.4333,-0.7546,9.9747,-1.6511,-0.736,9.6386,0.0051,-0.023,-0.02
322,46.429836,-0.508126,105.82,18.05,9.648001,263.1,0 / 23,32227,2019-08-12 13:20:17:663,-1.5608,-0.4248,10.2057,-1.6382,-0.7377,9.6407,-0.0141,0.0004,-0.0232
323,46.429836,-0.508126,105.82,18.05,9.648001,263.1,0 / 23,32328,2019-08-12 13:20:17:764,-1.6518,-0.7337,9.7939,-1.6127,-0.6999,9.6478,-0.0002,0.0079,-0.02
324,46.429836,-0.508126,105.82,18.05,9.648001,263.1,0 / 23,32428,2019-08-12 13:20:17:864,-1.535,-0.7421,9.5383,-1.6016,-0.6836,9.6508,0.0147,0.0004,-0.0157
325,46.429836,-0.508126,105.82,18.05,9.648001,263.1,0 / 23,32528,2019-08-12 13:20:17:964,-1.3818,-0.5266,9.737,-1.6051,-0.6729,9.651,0.0126,0.0079,-0.0126
326,46.429836,-0.508126,105.82,18.05,9.648001,263.1,0 / 23,32628,2019-08-12 13:20:18:064,-1.5374,-0.684,9.6473,-1.5859,-0.6204,9.6577,-0.0066,0.0036,-0.0168
327,46.429836,-0.508126,105.82,18.05,9.648001,263.1,0 / 23,32728,2019-08-12 13:20:18:164,-1.6446,-0.4626,9.6922,-1.5715,-0.5779,9.6626,0.0019,-0.0038,-0.0168
328,46.429836,-0.508126,105.82,18.05,9.648001,263.1,0 / 23,32827,2019-08-12 13:20:18:263,-1.5297,-0.6349,9.102,-1.5574,-0.5468,9.6667,0.0137,0.0015,-0.0115
329,46.429836,-0.508126,105.82,18.05,9.648001,263.1,0 / 23,32927,2019-08-12 13:20:18:363,-1.465,-0.2112,9.7317,-1.5526,-0.5184,9.6691,0.0083,-0.0028,-0.003
330,46.429836,-0.508126,105.82,18.05,9.648001,263.1,0 / 23,33027,2019-08-12 13:20:18:463,-1.4614,-0.0932,9.8526,-1.5482,-0.491,9.6712,0.0094,-0.0007,0.0109
331,46.429836,-0.508126,105.82,18.05,9.648001,263.1,0 / 23,33127,2019-08-12 13:20:18:563,-1.6613,-0.1495,9.9549,-1.5469,-0.4741,9.6723,-0.0034,-0.0017,0.0088
332,46.429836,-0.508126,105.82,18.05,9.648001,263.1,0 / 23,33227,2019-08-12 13:20:18:663,-1.4501,0.1139,9.6706,-1.5613,-0.4442,9.6714,-0.0002,0.0164,0.0088
333,46.429836,-0.508126,105.82,18.05,9.648001,263.1,0 / 23,33328,2019-08-12 13:20:18:764,-1.6835,-0.0855,9.8244,-1.5545,-0.4309,9.6731,-0.0045,-0.0124,0.0056
334,46.429836,-0.508126,105.82,18.05,9.648001,263.1,0 / 23,33428,2019-08-12 13:20:18:864,-1.5159,0.1139,10.0704,-1.5529,-0.318,9.6777,0.0062,0.0036,0.0098
335,46.429836,-0.508126,105.82,18.05,9.648001,263.1,0 / 23,33528,2019-08-12 13:20:18:964,-1.8188,0.3036,9.9998,-1.5475,-0.3051,9.679,0.0083,-0.0113,0.0098
336,46.429836,-0.508126,105.82,18.05,9.648001,263.1,0 / 23,33627,2019-08-12 13:20:19:063,-1.7206,0.0468,9.755,-1.5398,-0.286,9.6808,-0.0066,-0.0049,0.0066
337,46.429836,-0.508126,105.82,18.05,9.648001,263.1,0 / 23,33728,2019-08-12 13:20:19:164,-1.3274,-0.1615,9.4294,-1.5471,-0.2808,9.6798,-0.0119,0.0164,0.0056
338,46.429836,-0.508126,105.82,18.05,9.648001,263.1,0 / 23,33828,2019-08-12 13:20:19:264,-1.24,-0.1022,9.427,-1.5642,-0.2658,9.6775,0.0094,0.0164,0.0088
339,46.429836,-0.508126,105.82,18.05,9.648001,263.1,0 / 23,33928,2019-08-12 13:20:19:364,-1.5315,-0.1477,10.2386,-1.5641,-0.2536,9.6778,0.0094,-0.0038,0.0066
340,46.429836,-0.508126,105.82,18.05,9.648001,263.1,0 / 23,34028,2019-08-12 13:20:19:464,-1.4926,-0.2195,9.9944,-1.548,-0.2388,9.6808,-0.0034,-0.0124,0.0077
341,46.429836,-0.508126,105.82,18.05,9.648001,263.1,0 / 23,34128,2019-08-12 13:20:19:564,-1.5626,0.1534,10.0824,-1.5434,-0.2326,9.6816,-0.0119,-0.0113,0.0056
342,46.429836,-0.508126,105.82,18.05,9.648001,263.1,0 / 23,34228,2019-08-12 13:20:19:664,-1.6207,0.0408,9.992,-1.539,-0.2193,9.6827,-0.0045,-0.0049,0.0077
343,46.429836,-0.508126,105.82,18.05,9.648001,263.1,0 / 23,34328,2019-08-12 13:20:19:764,-1.4207,0.1306,9.9005,-1.5425,-0.2208,9.6821,-0.0141,0.0121,0.0088
344,46.429836,-0.508126,105.82,18.05,9.648001,263.1,0 / 23,34428,2019-08-12 13:20:19:864,-1.4579,-0.1866,9.1577,-1.559,-0.2109,9.6796,0.0009,0.0111,0.0077
345,46.429836,-0.508126,105.82,18.05,9.648001,263.1,0 / 23,34528,2019-08-12 13:20:19:964,-1.5171,-0.3398,9.418,-1.557,-0.1767,9.6806,0.0019,-0.0092,0.0077
346,46.429836,-0.508126,105.82,18.05,9.648001,263.1,0 / 23,34628,2019-08-12 13:20:20:064,-1.4908,0.1294,9.8226,-1.5388,-0.1414,9.6841,-0.013,-0.0134,0.0045
347,46.429836,-0.508126,105.82,18.05,9.648001,263.1,0 / 23,34727,2019-08-12 13:20:20:163,-1.7242,0.0564,10.0728,-1.5377,-0.0721,9.6851,-0.0023,0.0047,0.0098
348,46.429836,-0.508126,105.82,18.05,9.648001,263.1,0 / 23,34827,2019-08-12 13:20:20:263,-1.5189,-0.0537,10.3165,-1.5445,-0.0446,9.6842,0.0019,-0.0007,0.0119
349,46.429836,-0.508126,105.82,18.05,9.648001,263.1,0 / 23,34928,2019-08-12 13:20:20:364,-1.7104,-0.116,9.9567,-1.5448,-0.0095,9.6842,-0.0055,0.0015,0.0098
350,46.429836,-0.508126,105.82,18.05,9.648001,263.1,0 / 23,35028,2019-08-12 13:20:20:464,-1.6596,0.1163,9.8717,-1.5423,0.0053,9.6846,-0.0002,-0.0017,0.0109
351,46.429836,-0.508126,105.82,18.05,9.648001,263.1,0 / 23,35128,2019-08-12 13:20:20:564,-1.6225,-0.0914,9.9711,-1.5468,0.0234,9.6839,-0.0119,0.0025,0.0066
352,46.429836,-0.508126,105.82,18.05,9.648001,263.1,0 / 23,35228,2019-08-12 13:20:20:664,-1.6572,0.4006,9.5467,-1.532,0.0137,9.6862,-0.0172,0.0057,0.0024
353,46.429836,-0.508126,105.82,18.05,9.648001,263.1,0 / 23,35328,2019-08-12 13:20:20:764,-1.5692,-0.377,9.7263,-1.5383,0.0008,9.6853,-0.0077,0.0025,0.0034
354,46.429836,-0.508126,105.82,18.05,9.648001,263.1,0 / 23,35428,2019-08-12 13:20:20:864,-1.4118,-0.1273,9.8999,-1.5344,-0.0431,9.6858,0.0009,-0.0017,0.0024
355,46.429836,-0.508126,105.82,18.05,9.648001,263.1,0 / 23,35528,2019-08-12 13:20:20:964,-1.6069,-0.4344,9.9513,-1.5319,-0.0973,9.6858,0.0126,-0.0028,0.0002
356,46.429836,-0.508126,105.82,18.05,9.648001,263.1,0 / 23,35628,2019-08-12 13:20:21:064,-1.4722,-0.3045,9.4868,-1.5202,-0.1295,9.6872,-0.0002,-0.0038,-0.004
357,46.429836,-0.508126,105.82,18.05,9.648001,263.1,0 / 23,35728,2019-08-12 13:20:21:164,-1.5788,-0.283,9.7376,-1.5244,-0.1617,9.6861,0.0073,0.0068,-0.0051
358,46.429836,-0.508126,105.82,18.05,9.648001,263.1,0 / 23,35828,2019-08-12 13:20:21:264,-1.301,-0.4901,9.852,-1.5175,-0.2055,9.6864,0.003,0.0004,-0.0072
359,46.429836,-0.508126,105.82,18.05,9.648001,263.1,0 / 23,35927,2019-08-12 13:20:21:363,-1.4441,-0.1465,9.5659,-1.5145,-0.2351,9.6861,0.0105,-0.0017,-0.0062
360,46.429836,-0.508126,105.82,18.05,9.648001,263.1,0 / 23,36028,2019-08-12 13:20:21:464,-1.6883,-0.2626,9.9771,-1.5089,-0.2468,9.6867,0.003,-0.0038,-0.0062
361,46.429836,-0.508126,105.82,18.05,9.648001,263.1,0 / 23,36128,2019-08-12 13:20:21:564,-1.4375,-0.2393,10.0291,-1.5023,-0.2621,9.6873,0.0041,0.0143,-0.0062
362,46.429836,-0.508126,105.82,18.05,9.648001,263.1,0 / 23,36227,2019-08-12 13:20:21:663,-1.4728,-0.6367,9.9394,-1.5019,-0.2966,9.6864,-0.0023,-0.0038,-0.0094
363,46.429836,-0.508126,105.82,18.05,9.648001,263.1,0 / 23,36328,2019-08-12 13:20:21:764,-1.6003,-0.2632,9.8238,-1.4919,-0.3035,9.6878,-0.0034,-0.0102,-0.0115
364,46.429836,-0.508126,105.82,18.05,9.648001,263.1,0 / 23,36428,2019-08-12 13:20:21:864,-1.3465,-0.259,9.5192,-1.4785,-0.3072,9.6897,-0.0183,-0.0102,-0.0126
365,46.429836,-0.508126,105.82,18.05,9.648001,263.1,0 / 23,36528,2019-08-12 13:20:21:964,-1.4447,-0.429,9.6688,-1.4823,-0.3162,9.6888,0.0051,0.0089,-0.0094
366,46.429836,-0.508126,105.82,18.05,9.648001,263.1,0 / 23,36627,2019-08-12 13:20:22:063,-1.4578,-0.4494,9.7352,-1.4894,-0.3107,9.6879,0.0115,0.0025,-0.004
367,46.429836,-0.508126,105.82,18.05,9.648001,263.1,0 / 23,36728,2019-08-12 13:20:22:164,-1.5351,-0.2405,9.9376,-1.4814,-0.3134,9.689,-0.0034,-0.0092,-0.0062
368,46.429836,-0.508126,105.82,18.05,9.648001,263.1,0 / 23,36828,2019-08-12 13:20:22:264,-1.5716,-0.2955,9.758,-1.4817,-0.3084,9.6892,0.0105,0.0036,-0.0051
369,46.429836,-0.508126,105.82,18.05,9.648001,263.1,0 / 23,36927,2019-08-12 13:20:22:363,-1.5105,-0.3392,9.9998,-1.4949,-0.314,9.687,-0.0066,0.0057,-0.0062
370,46.429836,-0.508126,105.82,18.05,9.648001,263.1,0 / 23,37027,2019-08-12 13:20:22:463,-1.5692,-0.2985,10.0118,-1.5054,-0.3074,9.6855,0.0073,0.0079,-0.0062
371,46.429836,-0.508126,105.82,18.05,9.648001,263.1,0 / 23,37129,2019-08-12 13:20:22:565,-1.6991,-0.3931,9.8101,-1.51,-0.2999,9.6851,-0.0002,-0.0102,-0.0051
372,46.429836,-0.508126,105.82,18.05,9.648001,263.1,0 / 23,37228,2019-08-12 13:20:22:664,-1.3609,-0.2752,9.8478,-1.5021,-0.2985,9.6863,0.0051,-0.0017,-0.004
373,46.429836,-0.508126,105.82,18.05,9.648001,263.1,0 / 23,37329,2019-08-12 13:20:22:765,-1.5375,-0.2357,9.4276,-1.4988,-0.2787,9.6874,0.0147,0.0025,-0.003
374,46.429836,-0.508126,105.82,18.05,9.648001,263.1,0 / 23,37429,2019-08-12 13:20:22:865,-1.5452,-0.1567,9.609,-1.4939,-0.281,9.6881,0.0073,-0.0028,-0.003
375,46.429836,-0.508126,105.82,18.05,9.648001,263.1,0 / 23,37528,2019-08-12 13:20:22:964,-1.4734,-0.0801,9.1469,-1.4976,-0.272,9.6878,0.0019,0.0079,-0.0051
376,46.429836,-0.508126,105.82,18.05,9.648001,263.1,0 / 23,37629,2019-08-12 13:20:23:065,-1.5931,-0.2285,9.5389,-1.504,-0.2613,9.6871,-0.0141,0.0036,-0.0115
377,46.429836,-0.508126,105.82,18.05,9.648001,263.1,0 / 23,37729,2019-08-12 13:20:23:165,-1.6655,-0.6331,9.989,-1.5015,-0.2684,9.6873,-0.0013,-0.0028,-0.0094
378,46.429836,-0.508126,105.82,18.05,9.648001,263.1,0 / 23,37828,2019-08-12 13:20:23:264,-1.9941,-0.2662,9.7784,-1.5033,-0.2727,9.6869,-0.0013,-0.007,-0.0094
379,46.429836,-0.508126,105.82,18.05,9.648001,263.1,0 / 23,37928,2019-08-12 13:20:23:364,-2.9662,-0.69,9.2935,-1.5737,-0.2835,9.6754,-0.0023,0.042,-0.0115
380,46.429836,-0.508126,105.82,18.05,9.648001,263.1,0 / 23,38029,2019-08-12 13:20:23:465,-2.5095,-0.3434,9.3438,-1.6406,-0.2959,9.6639,-0.0098,0.0334,-0.0136
381,46.429836,-0.508126,105.82,18.05,9.648001,263.1,0 / 23,38128,2019-08-12 13:20:23:564,-2.7711,-0.4374,9.0978,-1.7224,-0.3218,9.6488,-0.0098,0.0196,-0.019
382,46.429836,-0.508126,105.82,18.05,9.648001,263.1,0 / 23,38228,2019-08-12 13:20:23:664,-2.7794,-0.511,9.5,-1.949,-0.392,9.603,-0.0087,-0.006,-0.019
383,46.429836,-0.508126,105.82,18.05,9.648001,263.1,0 / 23,38327,2019-08-12 13:20:23:763,-2.9004,-0.2543,9.6772,-2.1943,-0.4573,9.5471,-0.0023,-0.0188,-0.0179
384,46.429836,-0.508126,105.82,18.05,9.648001,263.1,0 / 23,38427,2019-08-12 13:20:23:863,-2.6364,-0.7564,9.4204,-2.3102,-0.4977,9.5177,0.0073,-0.0081,-0.0136
385,46.429836,-0.508126,105.82,18.05,9.648001,263.1,14 / 23,38528,2019-08-12 13:20:23:964,-2.7723,-0.5589,9.2468,-2.4453,-0.5372,9.4817,0.0073,0.0079,-0.0104
386,46.429836,-0.508126,105.82,18.05,9.648001,263.1,14 / 23,38628,2019-08-12 13:20:24:064,-2.8297,-0.5871,8.9057,-2.5078,-0.5465,9.4648,0.0073,0.0111,-0.0115
387,46.429836,-0.508126,105.82,18.05,9.648001,263.1,14 / 23,38728,2019-08-12 13:20:24:164,-2.9907,-0.4847,9.3091,-2.5174,-0.5536,9.4618,-0.0108,0.0004,-0.0147
