,GPS LATITUDE (degrees),GPS LONGITUDE (degrees), GPS ALTITUDE (m),GPS SPEED (Kmh),GPS ACCURACY (m),GPS ORIENTATION (Â°), SATELLITES IN RANGE, TIME SINCE START (ms), DATE (YYYY-MO-DD HH-MI-SS_SSS),ACCELEROMETER X (m/s²) , ACCELEROMETER Y (m/s²), ACCELEROMETER Z (m/s²), GRAVITY X (m/s²), GRAVITY Y (m/s²), GRAVITY Z (m/s²), GYROSCOPE Yaw (rad/s), GYROSCOPE Pitch (rad/s), GYROSCOPE Roll (rad/s)
34589,45.874615,-0.303801,98.74,22.28,3.216,153.0,16 / 18,3458910,2019-08-09 23:32:56:137,1.202,-0.7552,9.6238,1.5112,-1.4593,9.579,-0.0056,0.0244,-0.0306
34590,45.874615,-0.303801,98.74,22.28,3.216,153.0,16 / 18,3459010,2019-08-09 23:32:56:237,1.7652,-0.6912,9.616,1.5244,-1.4665,9.5758,0.0104,0.029,-0.0635
34591,45.874615,-0.303801,98.74,22.28,3.216,153.0,16 / 18,3459111,2019-08-09 23:32:56:338,1.8736,-1.2586,9.5693,1.564,-1.4739,9.5683,-0.0263,0.0222,-0.0553
34592,45.874615,-0.303801,98.74,22.28,3.216,153.0,16 / 18,3459211,2019-08-09 23:32:56:438,1.7431,-1.0874,9.4783,1.5747,-1.4681,9.5674,-0.004,0.0139,-0.0537
34593,45.874615,-0.303801,98.74,22.28,3.216,153.0,16 / 18,3459310,2019-08-09 23:32:56:537,1.5665,-0.8743,9.5448,1.5842,-1.4652,9.5663,-0.0086,0.004,-0.0445
34594,45.874615,-0.303801,98.74,22.28,3.216,153.0,16 / 18,3459410,2019-08-09 23:32:56:637,1.3672,-1.6764,9.5597,1.5852,-1.467,9.5658,-0.0246,0.0065,-0.0178
34595,45.874615,-0.303801,98.74,22.28,3.216,153.0,16 / 18,3459511,2019-08-09 23:32:56:738,1.3792,-1.5573,9.8009,1.5776,-1.467,9.5671,-0.0303,0.0125,0.0032
34596,45.874615,-0.303801,98.74,22.28,3.216,153.0,14 / 16,3459611,2019-08-09 23:32:56:838,1.7006,-1.844,9.9512,1.5656,-1.4812,9.5669,0.0288,0.0022,-0.0616
34597,45.874615,-0.303801,98.74,22.28,3.216,153.0,14 / 16,3459711,2019-08-09 23:32:56:938,0.8447,-1.4705,9.3161,1.5657,-1.4883,9.5658,0.0103,0.0182,-0.0234
34598,45.874615,-0.303801,98.74,22.28,3.216,153.0,14 / 16,3459811,2019-08-09 23:32:57:038,1.3941,-0.0376,9.3604,1.5721,-1.4709,9.5674,0.0136,0.0138,-0.0572
34599,45.874615,-0.303801,98.74,22.28,3.216,153.0,14 / 16,3459910,2019-08-09 23:32:57:137,1.8455,-1.2095,9.2718,1.5997,-1.47,9.563,-0.0011,0.0322,-0.0402
34600,45.874615,-0.303801,98.74,22.28,3.216,153.0,14 / 16,3460010,2019-08-09 23:32:57:237,1.9017,-1.5692,8.9971,1.613,-1.4612,9.5621,-0.0079,0.0287,-0.0828
34601,45.874615,-0.303801,98.74,22.28,3.216,153.0,14 / 16,3460110,2019-08-09 23:32:57:337,2.2375,-2.0756,9.0061,1.6645,-1.4728,9.5515,0.0217,0.0309,-0.0831
34602,45.874615,-0.303801,98.74,22.28,3.216,153.0,14 / 16,3460211,2019-08-09 23:32:57:438,2.3147,-2.3396,9.3987,1.6826,-1.4644,9.5496,-0.018,0.0304,-0.0821
34603,45.874615,-0.303801,98.74,22.28,3.216,153.0,14 / 16,3460311,2019-08-09 23:32:57:538,2.2704,-2.0618,9.6357,1.704,-1.4768,9.5439,0.0056,0.0128,-0.0762
34604,45.874615,-0.303801,98.74,22.28,3.216,153.0,14 / 16,3460411,2019-08-09 23:32:57:638,2.59,-1.4974,9.3837,1.7244,-1.4851,9.5389,-0.0236,0.0033,-0.0833
34605,45.874615,-0.303801,98.74,22.28,3.216,153.0,14 / 16,3460511,2019-08-09 23:32:57:738,2.0921,-1.7841,9.6621,1.7268,-1.4961,9.5368,-0.0067,-0.0203,-0.0599
34606,45.874615,-0.303801,98.74,22.28,3.216,153.0,16 / 18,3460610,2019-08-09 23:32:57:837,1.8383,-1.3873,9.7531,1.7085,-1.5059,9.5385,0.0054,-0.0021,-0.0535
34607,45.874615,-0.303801,98.74,22.28,3.216,153.0,16 / 18,3460711,2019-08-09 23:32:57:938,1.5899,-2.3474,9.5232,1.7016,-1.514,9.5385,-0.0198,0.0116,-0.0303
34608,45.874615,-0.303801,98.74,22.28,3.216,153.0,16 / 18,3460811,2019-08-09 23:32:58:038,1.7084,-2.1474,9.6064,1.7086,-1.5265,9.5353,-0.0008,0.021,-0.028
34609,45.874615,-0.303801,98.74,22.28,3.216,153.0,16 / 18,3460910,2019-08-09 23:32:58:137,1.6976,-1.8141,9.6902,1.7156,-1.5244,9.5343,-0.0126,0.0076,-0.0195
34610,45.874615,-0.303801,98.74,22.28,3.216,153.0,16 / 18,3461010,2019-08-09 23:32:58:237,1.3403,-1.6099,9.4777,1.7104,-1.5417,9.5325,0.0208,-0.0035,-0.0274
34611,45.874615,-0.303801,98.74,22.28,3.216,153.0,16 / 18,3461110,2019-08-09 23:32:58:337,1.0607,-3.1027,9.4663,1.7012,-1.5457,9.5335,0.0027,0.0016,0.0012
34612,45.874615,-0.303801,98.74,22.28,3.216,153.0,16 / 18,3461211,2019-08-09 23:32:58:438,1.129,-2.1462,9.7076,1.6771,-1.5447,9.5379,-0.0079,0.0033,-0.0209
34613,45.874615,-0.303801,98.74,22.28,3.216,153.0,16 / 18,3461311,2019-08-09 23:32:58:538,1.1122,-2.2995,9.7237,1.6665,-1.554,9.5383,-0.0149,-0.0004,-0.0031
34614,45.874615,-0.303801,98.74,22.28,3.216,153.0,16 / 18,3461410,2019-08-09 23:32:58:637,0.895,-2.1187,10.2277,1.6456,-1.5702,9.5392,-0.0269,0.0008,0.0002
34615,45.874615,-0.303801,98.74,22.28,3.216,153.0,16 / 18,3461510,2019-08-09 23:32:58:737,1.029,-2.7167,9.3808,1.6265,-1.5381,9.5477,-0.0339,-0.0116,-0.0324
34616,45.874615,-0.303801,98.74,22.28,3.216,153.0,16 / 18,3461610,2019-08-09 23:32:58:837,0.9985,-1.1586,9.2539,1.6011,-1.5452,9.5509,-0.0013,-0.0049,0.0042
34617,45.874615,-0.303801,98.74,22.28,3.216,153.0,16 / 18,3461710,2019-08-09 23:32:58:937,0.862,-2.1391,9.7255,1.569,-1.5398,9.5571,-0.0027,-0.0306,0.0132
34618,45.874615,-0.303801,98.74,22.28,3.216,153.0,16 / 18,3461810,2019-08-09 23:32:59:037,0.604,-1.6081,9.8195,1.5126,-1.5597,9.5629,0.0161,-0.0296,-0.0009
34619,45.874615,-0.303801,98.74,22.28,3.216,153.0,16 / 18,3461910,2019-08-09 23:32:59:137,0.528,-2.3073,8.9516,1.4809,-1.5338,9.5721,-0.0355,-0.0208,0.0081
34620,45.874615,-0.303801,98.74,22.28,3.216,153.0,16 / 18,3462010,2019-08-09 23:32:59:237,0.4006,-1.6554,8.7589,1.4487,-1.5078,9.5811,-0.0537,-0.0069,0.0111
34621,45.874615,-0.303801,98.74,22.28,3.216,153.0,16 / 18,3462110,2019-08-09 23:32:59:337,0.5059,-1.0623,9.5472,1.42,-1.5125,9.5847,0.0246,0.0003,0.0286
34622,45.874615,-0.303801,98.74,22.28,3.216,153.0,16 / 18,3462210,2019-08-09 23:32:59:437,1.0602,-1.1341,9.6872,1.3933,-1.5359,9.5849,0.0128,0.0155,0.0284
34623,45.874615,-0.303801,98.74,22.28,3.216,153.0,16 / 18,3462311,2019-08-09 23:32:59:538,0.865,-0.7678,9.9577,1.3824,-1.5441,9.5851,0.0241,0.0087,-0.015
34624,45.874615,-0.303801,98.74,22.28,3.216,153.0,16 / 18,3462410,2019-08-09 23:32:59:637,0.8327,-1.2646,9.68,1.3712,-1.5551,9.585,-0.0156,0.0129,0.0123
34625,45.874615,-0.303801,98.74,22.28,3.216,153.0,16 / 18,3462511,2019-08-09 23:32:59:738,0.476,-1.0826,9.4232,1.3685,-1.5472,9.5866,-0.0213,0.0066,-0.0138
34626,45.874615,-0.303801,98.74,22.28,3.216,153.0,14 / 16,3462611,2019-08-09 23:32:59:838,0.7244,-1.8919,9.5507,1.3621,-1.5359,9.5894,0.0092,0.0091,-0.0194
34627,45.874615,-0.303801,98.74,22.28,3.216,153.0,14 / 16,3462710,2019-08-09 23:32:59:937,1.0177,-1.0922,10.026,1.357,-1.5324,9.5907,0.0168,0.0069,0.0246
34628,45.874615,-0.303801,98.74,22.28,3.216,153.0,14 / 16,3462810,2019-08-09 23:33:00:037,0.6926,-0.244,9.5041,1.3326,-1.4829,9.6019,-0.0154,-0.0135,0.0153
34629,45.874615,-0.303801,98.74,22.28,3.216,153.0,14 / 16,3462911,2019-08-09 23:33:00:138,0.6011,-1.5597,9.959,1.3148,-1.4541,9.6087,0.0106,-0.0152,0.012
34630,45.874615,-0.303801,98.74,22.28,3.216,153.0,14 / 16,3463011,2019-08-09 23:33:00:238,0.2024,0.3024,10.1924,1.2717,-1.4147,9.6204,-0.0127,0.0018,0.0103
34631,45.874615,-0.303801,98.74,22.28,3.216,153.0,14 / 16,3463110,2019-08-09 23:33:00:337,0.5275,-1.489,10.0547,1.2603,-1.416,9.6217,0.019,0.0072,0.0056
34632,45.874615,-0.303801,98.74,22.28,3.216,153.0,14 / 16,3463210,2019-08-09 23:33:00:437,0.4353,-0.3919,9.8345,1.2454,-1.3766,9.6293,-0.0102,0.0039,-0.0013
34633,45.874615,-0.303801,98.74,22.28,3.216,153.0,14 / 16,3463310,2019-08-09 23:33:00:537,0.1887,-1.3478,9.5076,1.2372,-1.3464,9.6347,0.0055,0.0168,0.0327
34634,45.874615,-0.303801,98.74,22.28,3.216,153.0,14 / 16,3463411,2019-08-09 23:33:00:638,0.3551,-1.346,9.7692,1.2314,-1.317,9.6395,0.0067,0.0172,0.0075
34635,45.874615,-0.303801,98.74,22.28,3.216,153.0,14 / 16,3463510,2019-08-09 23:33:00:737,0.1809,-0.5176,9.756,1.2312,-1.3079,9.6408,-0.0168,0.0011,-0.0225
34636,45.874615,-0.303801,98.74,22.28,3.216,153.0,14 / 17,3463611,2019-08-09 23:33:00:838,0.8243,-0.5757,9.3239,1.2179,-1.2519,9.6499,-0.0381,0.0136,0.0377
34637,45.874615,-0.303801,98.74,22.28,3.216,153.0,14 / 17,3463713,2019-08-09 23:33:00:940,1.0931,-0.1465,9.3353,1.2069,-1.2404,9.6527,-0.0077,-0.0093,-0.0231
34638,45.874615,-0.303801,98.74,22.28,3.216,153.0,14 / 17,3463811,2019-08-09 23:33:01:038,1.1481,-1.1443,9.8518,1.199,-1.2213,9.6562,0.0228,-0.0262,-0.0168
34639,45.874615,-0.303801,98.74,22.28,3.216,153.0,14 / 17,3463910,2019-08-09 23:33:01:137,0.4466,-2.1031,9.1288,1.1533,-1.1886,9.6658,-0.0646,-0.0184,-0.0044
34640,45.874615,-0.303801,98.74,22.28,3.216,153.0,14 / 17,3464010,2019-08-09 23:33:01:237,0.6909,-1.0383,9.4903,1.1388,-1.2486,9.6599,-0.0316,-0.0136,-0.0117
34641,45.874615,-0.303801,98.74,22.28,3.216,153.0,14 / 17,3464111,2019-08-09 23:33:01:338,0.8866,-0.1609,9.9655,1.1178,-1.2764,9.6588,-0.0108,-0.0067,-0.0221
34642,45.874615,-0.303801,98.74,22.28,3.216,153.0,14 / 17,3464210,2019-08-09 23:33:01:437,0.8094,-2.1678,9.5334,1.107,-1.2763,9.66,-0.019,0.0008,0.023
34643,45.874615,-0.303801,98.74,22.28,3.216,153.0,14 / 17,3464311,2019-08-09 23:33:01:538,0.3413,-1.3203,9.3412,1.0967,-1.2434,9.6655,-0.0473,0.0077,-0.0103
34644,45.874615,-0.303801,98.74,22.28,3.216,153.0,14 / 17,3464410,2019-08-09 23:33:01:637,0.9255,-2.0062,9.7375,1.0951,-1.2405,9.666,0.0309,0.0131,-0.0032
34645,45.874615,-0.303801,98.74,22.28,3.216,153.0,14 / 17,3464510,2019-08-09 23:33:01:737,0.6178,-1.3897,9.3299,1.0925,-1.2331,9.6673,0.0066,0.0087,-0.005
34646,45.874615,-0.303801,98.74,22.28,3.216,153.0,14 / 16,3464610,2019-08-09 23:33:01:837,0.7327,-0.7869,9.5011,1.0907,-1.2349,9.6673,0.0053,0.0116,-0.0021
34647,45.874615,-0.303801,98.74,22.28,3.216,153.0,14 / 16,3464711,2019-08-09 23:33:01:938,0.6657,-0.69,9.6956,1.0914,-1.2376,9.6668,0.0082,0.0142,-0.0117
34648,45.874615,-0.303801,98.74,22.28,3.216,153.0,14 / 16,3464811,2019-08-09 23:33:02:038,0.4927,-3.1027,9.8392,1.0919,-1.2531,9.6648,-0.0186,0.006,-0.0108
34649,45.874615,-0.303801,98.74,22.28,3.216,153.0,14 / 16,3464911,2019-08-09 23:33:02:138,1.4097,-1.103,9.7135,1.0935,-1.2647,9.6631,0.0372,0.0057,0.0309
34650,45.874615,-0.303801,98.74,22.28,3.216,153.0,14 / 16,3465010,2019-08-09 23:33:02:237,0.6023,-2.3043,9.7052,1.0777,-1.2492,9.6669,0.002,0.0224,0.0276
34651,45.874615,-0.303801,98.74,22.28,3.216,153.0,14 / 16,3465110,2019-08-09 23:33:02:337,0.731,-0.6265,9.8243,1.0788,-1.2426,9.6676,-0.0149,-0.0031,-0.0152
34652,45.874615,-0.303801,98.74,22.28,3.216,153.0,14 / 16,3465210,2019-08-09 23:33:02:437,1.2194,-1.3615,9.2904,1.0718,-1.2363,9.6692,-0.0149,-0.0031,-0.0152
34653,45.874615,-0.303801,98.74,22.28,3.216,153.0,14 / 16,3465311,2019-08-09 23:33:02:538,0.8136,-1.1521,9.4161,1.0638,-1.2296,9.6709,-0.0249,-0.0076,-0.0237
34654,45.874615,-0.303801,98.74,22.28,3.216,153.0,14 / 16,3465411,2019-08-09 23:33:02:638,1.0709,-0.8061,9.6202,1.0621,-1.2277,9.6713,0.0094,0.0024,-0.0222
34655,45.874615,-0.303801,98.74,22.28,3.216,153.0,14 / 16,3465510,2019-08-09 23:33:02:737,0.9195,-1.3083,9.9015,1.0545,-1.231,9.6718,0.0169,-0.0068,-0.0001
34656,45.874615,-0.303801,98.74,22.28,3.216,153.0,Nov-15,3465610,2019-08-09 23:33:02:837,0.6226,-1.1305,9.4514,1.0428,-1.2378,9.6722,-0.0115,-0.0055,0.0121
34657,45.874615,-0.303801,98.74,22.28,3.216,153.0,Nov-15,3465710,2019-08-09 23:33:02:937,0.8537,-0.9438,9.5268,1.0203,-1.2265,9.676,-0.003,-0.018,0.0015
34658,45.874615,-0.303801,98.74,22.28,3.216,153.0,Nov-15,3465810,2019-08-09 23:33:03:037,0.4305,-1.4926,9.7369,1.012,-1.2318,9.6762,0.0037,-0.0171,-0.0025
34659,45.874615,-0.303801,98.74,22.28,3.216,153.0,Nov-15,3465910,2019-08-09 23:33:03:137,0.4089,-0.4338,8.7619,0.9779,-1.207,9.6828,0.0633,-0.002,0.0023
34660,45.874615,-0.303801,98.74,22.28,3.216,153.0,Nov-15,3466011,2019-08-09 23:33:03:238,0.3515,-0.9037,8.9869,0.9641,-1.2065,9.6843,-0.0746,-0.0017,0.0226
34661,45.874615,-0.303801,98.74,22.28,3.216,153.0,Nov-15,3466110,2019-08-09 23:33:03:337,0.4,0.0085,10.2792,0.9487,-1.1963,9.6871,-0.0018,-0.0053,0.0038
34662,45.874615,-0.303801,98.74,22.28,3.216,153.0,Nov-15,3466210,2019-08-09 23:33:03:437,0.9512,-0.8438,10.2929,0.9423,-1.2146,9.6854,0.04,-0.0192,-0.0143
34663,45.874615,-0.303801,98.74,22.28,3.216,153.0,Nov-15,3466310,2019-08-09 23:33:03:537,0.2557,-2.5185,10.1655,0.9166,-1.2422,9.6844,0.0158,0.001,0.017
34664,45.874615,-0.303801,98.74,22.28,3.216,153.0,Nov-15,3466410,2019-08-09 23:33:03:637,0.3024,-1.2538,9.4047,0.9086,-1.2148,9.6886,0.0101,0.0056,0.0163
34665,45.874615,-0.303801,98.74,22.28,3.216,153.0,Nov-15,3466511,2019-08-09 23:33:03:738,0.7327,-1.4657,9.3837,0.8965,-1.2101,9.6903,0.0259,0.0012,0.0059
34666,45.874615,-0.303801,98.74,22.28,3.216,153.0,13 / 17,3466611,2019-08-09 23:33:03:838,0.1396,-1.4962,9.4927,0.8919,-1.2089,9.6909,-0.0065,0.0029,-0.0044
34667,45.874615,-0.303801,98.74,22.28,3.216,153.0,13 / 17,3466710,2019-08-09 23:33:03:937,0.4035,0.1935,9.6884,0.8817,-1.1811,9.6953,-0.0039,0.0013,0.0079
34668,45.874615,-0.303801,98.74,22.28,3.216,153.0,13 / 17,3466810,2019-08-09 23:33:04:037,0.5771,-0.6307,9.7722,0.8745,-1.1653,9.6978,-0.0029,0.0011,0.0102
34669,45.874615,-0.303801,98.74,22.28,3.216,153.0,13 / 17,3466910,2019-08-09 23:33:04:137,0.1994,-0.9575,9.6106,0.8699,-1.1276,9.7027,0.0,0.0119,0.0164
34670,45.874615,-0.303801,98.74,22.28,3.216,153.0,13 / 17,3467011,2019-08-09 23:33:04:238,0.6645,0.0397,9.8979,0.8696,-1.1114,9.7046,0.0069,0.0047,0.0005
34671,45.874615,-0.303801,98.74,22.28,3.216,153.0,13 / 17,3467111,2019-08-09 23:33:04:338,0.7046,-0.8061,10.02,0.861,-1.0934,9.7074,-0.0002,0.002,0.0145
34672,45.874615,-0.303801,98.74,22.28,3.216,153.0,13 / 17,3467210,2019-08-09 23:33:04:437,0.631,-0.7091,9.9619,0.8623,-1.0839,9.7084,0.0166,0.0179,-0.0018
34673,45.874615,-0.303801,98.74,22.28,3.216,153.0,13 / 17,3467311,2019-08-09 23:33:04:538,0.6681,-0.0292,9.5459,0.8779,-1.0519,9.7105,0.0051,0.0195,-0.0041
34674,45.874615,-0.303801,98.74,22.28,3.216,153.0,13 / 17,3467410,2019-08-09 23:33:04:637,0.7549,-0.587,9.6046,0.8883,-1.0463,9.7101,-0.024,-0.0003,-0.0245
34675,45.874615,-0.303801,98.74,22.28,3.216,153.0,13 / 17,3467510,2019-08-09 23:33:04:737,1.0871,-1.3789,9.6938,0.8904,-1.0265,9.712,-0.029,-0.0151,0.0063
34676,45.87277,-0.302796,96.7,25.68,3.216,159.8,13 / 17,3467610,2019-08-09 23:33:04:837,0.8584,0.731,9.6238,0.8748,-1.002,9.716,0.0208,-0.0224,-0.0163
34677,45.87277,-0.302796,96.7,25.68,3.216,159.8,13 / 17,3467710,2019-08-09 23:33:04:937,0.6992,-0.5314,10.0864,0.8575,-1.0007,9.7177,0.0545,-0.0102,0.0054
34678,45.87277,-0.302796,96.7,25.68,3.216,159.8,13 / 17,3467810,2019-08-09 23:33:05:037,0.2024,-1.9715,9.4999,0.8384,-1.017,9.7177,-0.0209,0.0171,0.015
34679,45.87277,-0.302796,96.7,25.68,3.216,159.8,13 / 17,3467910,2019-08-09 23:33:05:137,1.3481,-0.365,10.6724,0.8475,-1.0234,9.7162,0.0501,0.0246,-0.054
34680,45.87277,-0.302796,96.7,25.68,3.216,159.8,13 / 17,3468010,2019-08-09 23:33:05:237,1.0745,-1.677,9.7315,0.8719,-0.9829,9.7182,0.0149,0.011,-0.0388
34681,45.87277,-0.302796,96.7,25.68,3.216,159.8,13 / 17,3468111,2019-08-09 23:33:05:338,0.9919,0.1259,9.7968,0.8827,-0.9625,9.7193,0.012,0.0062,-0.0302
34682,45.87277,-0.302796,96.7,25.68,3.216,159.8,13 / 17,3468211,2019-08-09 23:33:05:438,1.0123,0.9273,9.689,0.8945,-0.961,9.7184,0.0051,0.0074,0.0135
34683,45.87277,-0.302796,96.7,25.68,3.216,159.8,13 / 17,3468311,2019-08-09 23:33:05:538,0.5915,-0.6062,9.7758,0.8884,-0.9377,9.7212,-0.0289,0.0035,-0.0153
34684,45.87277,-0.302796,96.7,25.68,3.216,159.8,13 / 17,3468410,2019-08-09 23:33:05:637,0.9099,-0.6499,9.5747,0.8992,-0.913,9.7226,-0.0093,0.0105,0.0044
34685,45.87277,-0.302796,96.7,25.68,3.216,159.8,13 / 17,3468510,2019-08-09 23:33:05:737,1.2643,-0.1495,9.6926,0.9012,-0.9051,9.7231,0.0172,0.0017,-0.0179
34686,45.87277,-0.302796,96.7,25.68,3.216,159.8,13 / 17,3468611,2019-08-09 23:33:05:838,0.886,-0.7929,9.9901,0.8955,-0.9093,9.7232,0.0157,-0.0053,-0.0125
34687,45.87277,-0.302796,96.7,25.68,3.216,159.8,13 / 17,3468710,2019-08-09 23:33:05:937,0.8447,-0.0118,9.4107,0.8918,-0.902,9.7243,-0.0058,-0.0047,-0.0054
34688,45.87277,-0.302796,96.7,25.68,3.216,159.8,13 / 17,3468811,2019-08-09 23:33:06:038,0.8531,-0.7421,9.3897,0.8771,-0.8644,9.729,-0.0323,-0.0114,0.0042
34689,45.87277,-0.302796,96.7,25.68,3.216,159.8,13 / 17,3468911,2019-08-09 23:33:06:138,0.6597,-0.8677,9.6758,0.8649,-0.8636,9.7302,-0.0156,-0.0206,0.0223
34690,45.87277,-0.302796,96.7,25.68,3.216,159.8,13 / 17,3469011,2019-08-09 23:33:06:238,0.4,-0.165,9.5705,0.8371,-0.8421,9.7345,0.0027,0.0091,0.0089
34691,45.87277,-0.302796,96.7,25.68,3.216,159.8,13 / 17,3469110,2019-08-09 23:33:06:337,0.6136,-0.4559,9.959,0.8373,-0.8375,9.7349,0.0007,0.0078,-0.0087
34692,45.87277,-0.302796,96.7,25.68,3.216,159.8,13 / 17,3469211,2019-08-09 23:33:06:438,1.062,-0.7522,10.1804,0.8392,-0.843,9.7342,0.0106,0.0003,0.0159
34693,45.87277,-0.302796,96.7,25.68,3.216,159.8,13 / 17,3469310,2019-08-09 23:33:06:537,0.5047,-0.3907,9.8231,0.8378,-0.8369,9.7349,0.0158,-0.0033,0.008
34694,45.87277,-0.302796,96.7,25.68,3.216,159.8,13 / 17,3469410,2019-08-09 23:33:06:637,0.5161,-0.6559,9.4933,0.8232,-0.8114,9.7383,-0.0235,-0.0188,-0.0086
34695,45.87277,-0.302796,96.7,25.68,3.216,159.8,13 / 17,3469510,2019-08-09 23:33:06:737,1.0093,0.066,9.8057,0.8003,-0.8205,9.7394,0.0018,-0.0425,0.0097
34696,45.87277,-0.302796,96.7,25.68,3.216,159.8,14 / 18,3469611,2019-08-09 23:33:06:838,1.6862,-2.9142,11.2129,0.7633,-0.818,9.7426,-0.0571,-0.0098,-0.0006
34697,45.87277,-0.302796,96.7,25.68,3.216,159.8,14 / 18,3469710,2019-08-09 23:33:06:937,-0.1848,-0.7899,9.6393,0.7709,-0.7725,9.7457,0.1781,0.0033,-0.0671
34698,45.87277,-0.302796,96.7,25.68,3.216,159.8,14 / 18,3469810,2019-08-09 23:33:07:037,-0.2148,-1.5944,9.4191,0.7633,-0.7967,9.7444,0.1115,-0.0235,-0.0713
34699,45.87277,-0.302796,96.7,25.68,3.216,159.8,14 / 18,3469911,2019-08-09 23:33:07:138,0.701,-0.4332,9.3514,0.7618,-0.7871,9.7453,0.0558,0.0153,-0.0256
34700,45.87277,-0.302796,96.7,25.68,3.216,159.8,14 / 18,3470011,2019-08-09 23:33:07:238,0.7298,-1.0377,10.1852,0.7715,-0.7747,9.7455,-0.073,0.0165,0.0118
34701,45.87277,-0.302796,96.7,25.68,3.216,159.8,14 / 18,3470110,2019-08-09 23:33:07:337,0.8315,-1.7051,9.9745,0.7716,-0.7849,9.7447,0.054,0.0026,-0.0161
34702,45.87277,-0.302796,96.7,25.68,3.216,159.8,14 / 18,3470210,2019-08-09 23:33:07:437,0.5388,-0.7169,9.4915,0.7562,-0.7644,9.7475,-0.0031,-0.0035,0.0085
34703,45.87277,-0.302796,96.7,25.68,3.216,159.8,14 / 18,3470310,2019-08-09 23:33:07:537,0.1234,-1.1981,9.3101,0.755,-0.7593,9.748,-0.044,0.0037,0.0346
34704,45.87277,-0.302796,96.7,25.68,3.216,159.8,14 / 18,3470410,2019-08-09 23:33:07:637,0.9937,-0.0866,9.7608,0.7501,-0.7576,9.7485,0.0397,-0.0013,-0.0271
34705,45.87277,-0.302796,96.7,25.68,3.216,159.8,14 / 18,3470511,2019-08-09 23:33:07:738,0.5628,-0.2345,10.2463,0.7477,-0.7381,9.7502,0.0195,0.0002,-0.0036
34706,45.87277,-0.302796,96.7,25.68,3.216,159.8,Nov-15,3470611,2019-08-09 23:33:07:838,0.5957,0.479,9.6573,0.7433,-0.765,9.7485,-0.0109,0.0078,0.0086
34707,45.87277,-0.302796,96.7,25.68,3.216,159.8,Nov-15,3470710,2019-08-09 23:33:07:937,1.0015,-1.4896,9.6944,0.7463,-0.7566,9.7489,-0.0205,0.0075,0.0088
34708,45.87277,-0.302796,96.7,25.68,3.216,159.8,Nov-15,3470810,2019-08-09 23:33:08:037,1.0745,-0.9426,9.8829,0.7556,-0.7609,9.7478,-0.0553,0.0035,0.0033
34709,45.87277,-0.302796,96.7,25.68,3.216,159.8,Nov-15,3470910,2019-08-09 23:33:08:137,1.3349,-1.2903,9.8799,0.7622,-0.7431,9.7487,0.0321,-0.0044,-0.0305
34710,45.87277,-0.302796,96.7,25.68,3.216,159.8,Nov-15,3471010,2019-08-09 23:33:08:237,0.8632,-0.9563,9.7991,0.7575,-0.7421,9.7491,-0.0118,0.0042,0.0039
34711,45.87277,-0.302796,96.7,25.68,3.216,159.8,Nov-15,3471111,2019-08-09 23:33:08:338,0.9841,-1.1353,10.0434,0.7604,-0.7525,9.7481,0.0218,0.011,-0.0126
34712,45.87277,-0.302796,96.7,25.68,3.216,159.8,Nov-15,3471211,2019-08-09 23:33:08:438,0.9051,-0.4877,10.0511,0.7845,-0.7704,9.7448,0.0075,0.0136,-0.0163
34713,45.87277,-0.302796,96.7,25.68,3.216,159.8,Nov-15,3471310,2019-08-09 23:33:08:537,0.8902,-0.9312,10.2253,0.7946,-0.7797,9.7433,0.0201,0.0101,-0.0057
34714,45.87277,-0.302796,96.7,25.68,3.216,159.8,Nov-15,3471410,2019-08-09 23:33:08:637,0.9895,-0.4601,9.7632,0.8104,-0.7823,9.7417,-0.0355,0.0137,-0.0084
34715,45.87277,-0.302796,96.7,25.68,3.216,159.8,Nov-15,3471510,2019-08-09 23:33:08:737,0.8968,-0.7049,9.6226,0.8198,-0.7852,9.7407,0.015,0.0118,-0.0228
34716,45.87277,-0.302796,96.7,25.68,3.216,159.8,13 / 18,3471611,2019-08-09 23:33:08:838,0.9536,-1.0509,9.352,0.8359,-0.7799,9.7398,-0.0113,0.0005,-0.0195
34717,45.87277,-0.302796,96.7,25.68,3.216,159.8,13 / 18,3471710,2019-08-09 23:33:08:937,0.7399,-1.3831,9.5483,0.8378,-0.7736,9.7401,0.0073,-0.0053,0.0138
34718,45.87277,-0.302796,96.7,25.68,3.216,159.8,13 / 18,3471810,2019-08-09 23:33:09:037,1.1799,-1.1969,9.9356,0.8244,-0.7787,9.7409,0.0223,-0.0171,-0.0141
34719,45.87277,-0.302796,96.7,25.68,3.216,159.8,13 / 18,3471911,2019-08-09 23:33:09:138,0.9327,0.0726,9.6411,0.8153,-0.7641,9.7428,-0.0051,-0.0157,-0.0077
34720,45.87277,-0.302796,96.7,25.68,3.216,159.8,13 / 18,3472011,2019-08-09 23:33:09:238,0.8297,0.4724,10.0589,0.8076,-0.7839,9.7419,0.0033,-0.0031,0.0186
34721,45.87277,-0.302796,96.7,25.68,3.216,159.8,13 / 18,3472110,2019-08-09 23:33:09:337,0.8614,-0.0956,9.7429,0.8045,-0.7876,9.7418,-0.0421,0.0072,0.0156
34722,45.87277,-0.302796,96.7,25.68,3.216,159.8,13 / 18,3472210,2019-08-09 23:33:09:437,0.8644,-1.4789,9.4238,0.8095,-0.77,9.7428,0.0282,-0.0086,-0.0549
34723,45.87277,-0.302796,96.7,25.68,3.216,159.8,13 / 18,3472311,2019-08-09 23:33:09:538,1.0236,-0.6361,9.5681,0.8094,-0.7678,9.743,-0.03,0.0062,0.0235
34724,45.87277,-0.302796,96.7,25.68,3.216,159.8,13 / 18,3472411,2019-08-09 23:33:09:638,1.2349,-1.079,9.9907,0.8117,-0.7766,9.7421,0.0103,-0.0115,-0.0253
34725,45.87277,-0.302796,96.7,25.68,3.216,159.8,13 / 18,3472510,2019-08-09 23:33:09:737,0.3197,-0.7594,9.8823,0.7981,-0.7757,9.7433,0.0095,-0.0144,-0.0376
34726,45.87277,-0.302796,96.7,25.68,3.216,159.8,Oct-15,3472611,2019-08-09 23:33:09:838,1.0171,0.0929,9.856,0.8012,-0.8005,9.741,0.0005,-0.0055,-0.0123
34727,45.87277,-0.302796,96.7,25.68,3.216,159.8,Oct-15,3472712,2019-08-09 23:33:09:939,0.4233,-1.5746,9.2604,0.7942,-0.7746,9.7437,-0.0603,0.0057,0.0168
34728,45.87277,-0.302796,96.7,25.68,3.216,159.8,Oct-15,3472811,2019-08-09 23:33:10:038,0.944,-1.592,9.4227,0.7954,-0.7461,9.7458,0.0444,0.0002,-0.0287
34729,45.87277,-0.302796,96.7,25.68,3.216,159.8,Oct-15,3472911,2019-08-09 23:33:10:138,0.7914,-0.8701,9.6806,0.7873,-0.7484,9.7463,-0.002,-0.0194,0.0164
34730,45.87277,-0.302796,96.7,25.68,3.216,159.8,Oct-15,3473010,2019-08-09 23:33:10:237,0.2808,-0.3596,9.182,0.7795,-0.7142,9.7495,0.0015,-0.0136,-0.0042
34731,45.87277,-0.302796,96.7,25.68,3.216,159.8,Oct-15,3473110,2019-08-09 23:33:10:337,0.786,-0.0124,9.5609,0.749,-0.7003,9.7529,0.0536,-0.0161,-0.0224
34732,45.87277,-0.302796,96.7,25.68,3.216,159.8,Oct-15,3473210,2019-08-09 23:33:10:437,0.3353,-0.8318,9.7435,0.7451,-0.694,9.7536,-0.0198,-0.0155,0.0225
34733,45.87277,-0.302796,96.7,25.68,3.216,159.8,Oct-15,3473311,2019-08-09 23:33:10:538,0.3,0.0546,9.2993,0.7064,-0.6843,9.7572,0.0459,-0.0244,-0.006
34734,45.87277,-0.302796,96.7,25.68,3.216,159.8,Oct-15,3473410,2019-08-09 23:33:10:637,0.2336,-0.9354,9.7644,0.6959,-0.6828,9.7581,0.0954,0.0261,0.0195
34735,45.87277,-0.302796,96.7,25.68,3.216,159.8,Oct-15,3473510,2019-08-09 23:33:10:737,0.5687,-1.5016,10.2642,0.686,-0.6995,9.7576,-0.0076,0.0063,-0.0198
34736,45.87277,-0.302796,96.7,25.68,3.216,159.8,13 / 18,3473610,2019-08-09 23:33:10:837,0.5783,-1.2825,9.8482,0.6998,-0.7114,9.7558,-0.0076,0.0166,0.0012
34737,45.87277,-0.302796,96.7,25.68,3.216,159.8,13 / 18,3473711,2019-08-09 23:33:10:938,0.886,-1.7476,10.1373,0.7156,-0.7178,9.7541,-0.017,0.0109,0.001
34738,45.87277,-0.302796,96.7,25.68,3.216,159.8,13 / 18,3473810,2019-08-09 23:33:11:037,1.1918,-1.4424,10.412,0.7265,-0.6799,9.756,0.0194,0.0102,-0.0058
34739,45.87277,-0.302796,96.7,25.68,3.216,159.8,13 / 18,3473910,2019-08-09 23:33:11:137,0.1803,-0.5212,9.0934,0.7325,-0.6678,9.7564,-0.0099,0.0021,-0.0017
34740,45.87277,-0.302796,96.7,25.68,3.216,159.8,13 / 18,3474010,2019-08-09 23:33:11:237,0.7992,0.1456,9.7878,0.7353,-0.6669,9.7563,0.0359,-0.0011,-0.0062
34741,45.87277,-0.302796,96.7,25.68,3.216,159.8,13 / 18,3474111,2019-08-09 23:33:11:338,0.376,-0.4847,9.4562,0.7275,-0.6617,9.7572,0.0232,-0.0128,-0.0097
34742,45.87277,-0.302796,96.7,25.68,3.216,159.8,13 / 18,3474211,2019-08-09 23:33:11:438,0.6238,-1.155,9.9158,0.7197,-0.672,9.7571,-0.0204,-0.0062,0.0063
34743,45.87277,-0.302796,96.7,25.68,3.216,159.8,13 / 18,3474311,2019-08-09 23:33:11:538,0.9476,-0.1267,10.1553,0.7006,-0.6652,9.7589,-0.0035,-0.0044,0.0311
34744,45.87277,-0.302796,96.7,25.68,3.216,159.8,13 / 18,3474410,2019-08-09 23:33:11:637,0.6065,-0.8456,9.7034,0.6967,-0.6572,9.7598,0.0005,0.0057,-0.0152
34745,45.87277,-0.302796,96.7,25.68,3.216,159.8,13 / 18,3474510,2019-08-09 23:33:11:737,0.3622,0.0068,9.6812,0.7125,-0.6752,9.7574,0.0305,-0.0011,-0.0589
34746,45.87277,-0.302796,96.7,25.68,3.216,159.8,Oct-14,3474610,2019-08-09 23:33:11:837,0.2042,-0.2477,9.5525,0.7189,-0.6688,9.7574,-0.0266,0.016,0.0499
34747,45.87277,-0.302796,96.7,25.68,3.216,159.8,Oct-14,3474710,2019-08-09 23:33:11:937,0.4688,-0.4727,8.8828,0.7326,-0.6437,9.758,-0.0306,0.0049,-0.006
34748,45.87277,-0.302796,96.7,25.68,3.216,159.8,Oct-14,3474810,2019-08-09 23:33:12:037,1.0883,-0.5493,9.3065,0.7327,-0.6529,9.7574,-0.0181,-0.0013,-0.0053
34749,45.87277,-0.302796,96.7,25.68,3.216,159.8,Oct-14,3474911,2019-08-09 23:33:12:138,1.2451,-0.7528,10.0793,0.7289,-0.6515,9.7578,0.0059,-0.0084,0.018
34750,45.87277,-0.302796,96.7,25.68,3.216,159.8,Oct-14,3475011,2019-08-09 23:33:12:238,0.6902,-1.8978,10.0284,0.7199,-0.6589,9.758,0.0331,-0.0018,-0.0162
34751,45.87277,-0.302796,96.7,25.68,3.216,159.8,Oct-14,3475110,2019-08-09 23:33:12:337,0.9817,-0.532,9.4382,0.7465,-0.6878,9.754,-0.0018,0.0134,-0.0409
34752,45.87277,-0.302796,96.7,25.68,3.216,159.8,Oct-14,3475210,2019-08-09 23:33:12:437,1.2128,-1.765,8.9492,0.7679,-0.6537,9.7547,-0.0317,0.0172,-0.0349
34753,45.87277,-0.302796,96.7,25.68,3.216,159.8,Oct-14,3475310,2019-08-09 23:33:12:537,1.5983,-0.8163,9.0108,0.7904,-0.6323,9.7543,0.0085,0.0011,-0.0526
34754,45.87277,-0.302796,96.7,25.68,3.216,159.8,Oct-14,3475411,2019-08-09 23:33:12:638,1.281,1.3966,10.0631,0.8042,-0.636,9.7529,-0.0036,0.0002,-0.0213
34755,45.87277,-0.302796,96.7,25.68,3.216,159.8,Oct-14,3475511,2019-08-09 23:33:12:738,0.5364,-0.3757,9.7507,0.8077,-0.6236,9.7534,-0.0121,0.0028,-0.0096
34756,45.87277,-0.302796,96.7,25.68,3.216,159.8,14 / 18,3475610,2019-08-09 23:33:12:837,0.9752,-0.3763,9.5226,0.8209,-0.6363,9.7515,0.0255,0.0011,-0.0624
34757,45.87277,-0.302796,96.7,25.68,3.216,159.8,14 / 18,3475710,2019-08-09 23:33:12:937,1.6587,-0.0597,10.7263,0.8364,-0.6287,9.7507,-0.0262,0.0014,-0.0196
34758,45.87277,-0.302796,96.7,25.68,3.216,159.8,14 / 18,3475810,2019-08-09 23:33:13:037,1.4995,0.318,10.5784,0.841,-0.6619,9.7481,0.0432,-0.0059,-0.0426
34759,45.87277,-0.302796,96.7,25.68,3.216,159.8,14 / 18,3475910,2019-08-09 23:33:13:137,1.2906,-0.766,10.3522,0.8582,-0.6649,9.7464,0.06,-0.0014,-0.0263
34760,45.87277,-0.302796,96.7,25.68,3.216,159.8,14 / 18,3476010,2019-08-09 23:33:13:237,1.8981,-0.5074,9.589,0.8609,-0.6558,9.7467,0.0164,-0.0013,-0.0386
34761,45.87277,-0.302796,96.7,25.68,3.216,159.8,14 / 18,3476110,2019-08-09 23:33:13:337,1.7275,0.1923,9.5483,0.8702,-0.6561,9.7459,-0.0572,0.024,-0.0254
34762,45.87277,-0.302796,96.7,25.68,3.216,159.8,14 / 18,3476211,2019-08-09 23:33:13:438,2.5164,0.3563,9.9296,0.8988,-0.6444,9.7441,0.0574,0.0089,-0.0754
34763,45.87277,-0.302796,96.7,25.68,3.216,159.8,14 / 18,3476311,2019-08-09 23:33:13:538,2.0005,-0.8683,9.9793,0.9287,-0.6392,9.7416,0.0345,0.0043,-0.0412
34764,45.87277,-0.302796,96.7,25.68,3.216,159.8,14 / 18,3476410,2019-08-09 23:33:13:637,1.6491,0.3342,9.1778,0.9509,-0.6298,9.7401,-0.0297,-0.005,-0.0542
34765,45.87277,-0.302796,96.7,25.68,3.216,159.8,14 / 18,3476510,2019-08-09 23:33:13:737,1.5773,-0.4757,8.9881,0.9631,-0.6366,9.7385,0.0021,0.0006,-0.0695
34766,45.870888,-0.301857,94.54,23.48,3.216,163.5,Dec-16,3476611,2019-08-09 23:33:13:838,2.1423,-0.1213,9.1389,0.9902,-0.6148,9.7371,-0.0423,-0.0108,-0.0642
34767,45.870888,-0.301857,94.54,23.48,3.216,163.5,Dec-16,3476711,2019-08-09 23:33:13:938,1.5587,1.0865,9.6345,1.001,-0.5964,9.7372,0.0159,0.0017,-0.0367
34768,45.870888,-0.301857,94.54,23.48,3.216,163.5,Dec-16,3476810,2019-08-09 23:33:14:037,1.3026,0.1462,9.1533,1.0266,-0.5804,9.7355,-0.0123,0.0125,-0.0331
34769,45.870888,-0.301857,94.54,23.48,3.216,163.5,Dec-16,3476911,2019-08-09 23:33:14:138,2.1417,0.2563,9.7465,1.0433,-0.6026,9.7324,0.0141,0.0101,-0.0462
34770,45.870888,-0.301857,94.54,23.48,3.216,163.5,Dec-16,3477011,2019-08-09 23:33:14:238,2.3111,-0.6624,9.5531,1.0816,-0.5756,9.7298,-0.0441,-0.0046,-0.044
34771,45.870888,-0.301857,94.54,23.48,3.216,163.5,Dec-16,3477111,2019-08-09 23:33:14:338,2.2991,-0.1154,9.923,1.0921,-0.5869,9.728,-0.0711,-0.0005,-0.0411
34772,45.870888,-0.301857,94.54,23.48,3.216,163.5,Dec-16,3477211,2019-08-09 23:33:14:438,2.4823,0.7442,10.1487,1.1153,-0.591,9.7251,-0.0406,-0.005,-0.0187
34773,45.870888,-0.301857,94.54,23.48,3.216,163.5,Dec-16,3477311,2019-08-09 23:33:14:538,1.463,-1.5196,9.0168,1.1256,-0.5507,9.7263,0.0301,-0.0179,-0.0805
34774,45.870888,-0.301857,94.54,23.48,3.216,163.5,Dec-16,3477410,2019-08-09 23:33:14:637,1.6946,-0.6229,9.601,1.133,-0.5693,9.7243,-0.021,-0.0001,-0.0338
34775,45.870888,-0.301857,94.54,23.48,3.216,163.5,Dec-16,3477510,2019-08-09 23:33:14:737,1.9185,0.169,9.8099,1.1412,-0.5858,9.7224,-0.0004,-0.0108,-0.0495
34776,45.870888,-0.301857,94.54,23.48,3.216,163.5,14 / 18,3477610,2019-08-09 23:33:14:837,2.0735,-1.1838,9.8213,1.1474,-0.5908,9.7214,0.0192,-0.0085,-0.0701
34777,45.870888,-0.301857,94.54,23.48,3.216,163.5,14 / 18,3477710,2019-08-09 23:33:14:937,2.1148,-0.4655,10.1499,1.1558,-0.6143,9.7189,0.0036,-0.007,-0.1006
34778,45.870888,-0.301857,94.54,23.48,3.216,163.5,14 / 18,3477810,2019-08-09 23:33:15:037,2.2878,-0.7235,10.1756,1.1666,-0.6354,9.7163,0.0441,-0.016,-0.0841
34779,45.870888,-0.301857,94.54,23.48,3.216,163.5,14 / 18,3477910,2019-08-09 23:33:15:137,2.3452,-0.3368,10.175,1.1711,-0.6437,9.7152,0.0025,-0.0253,-0.0851
34780,45.870888,-0.301857,94.54,23.48,3.216,163.5,14 / 18,3478010,2019-08-09 23:33:15:237,1.882,-0.8797,9.8859,1.1766,-0.6568,9.7136,-0.0318,-0.0094,-0.0957
34781,45.870888,-0.301857,94.54,23.48,3.216,163.5,14 / 18,3478111,2019-08-09 23:33:15:338,2.1645,-0.1938,9.8805,1.1844,-0.6751,9.7114,0.01,0.0016,-0.0542
34782,45.870888,-0.301857,94.54,23.48,3.216,163.5,14 / 18,3478210,2019-08-09 23:33:15:437,2.4093,-0.3045,9.0653,1.2302,-0.6339,9.7085,-0.0502,0.0173,-0.0799
34783,45.870888,-0.301857,94.54,23.48,3.216,163.5,14 / 18,3478310,2019-08-09 23:33:15:537,2.7301,-0.5092,8.875,1.259,-0.6362,9.7047,-0.0047,0.0272,-0.0969
34784,45.870888,-0.301857,94.54,23.48,3.216,163.5,14 / 18,3478410,2019-08-09 23:33:15:637,2.4033,-0.3919,9.4741,1.3219,-0.6295,9.6967,0.0285,0.007,-0.1225
34785,45.870888,-0.301857,94.54,23.48,3.216,163.5,14 / 18,3478510,2019-08-09 23:33:15:737,2.6218,1.6216,9.5142,1.3483,-0.6067,9.6946,-0.0726,0.0197,-0.0582
34786,45.870888,-0.301857,94.54,23.48,3.216,163.5,15 / 18,3478610,2019-08-09 23:33:15:837,2.1232,-1.0048,9.4388,1.3857,-0.6119,9.6889,-0.0479,-0.0053,-0.0687
34787,45.870888,-0.301857,94.54,23.48,3.216,163.5,15 / 18,3478711,2019-08-09 23:33:15:938,2.4961,-1.422,9.774,1.3981,-0.6412,9.6853,0.0172,0.0026,-0.0918
34788,45.870888,-0.301857,94.54,23.48,3.216,163.5,15 / 18,3478810,2019-08-09 23:33:16:037,2.1298,-0.3985,9.7399,1.4232,-0.6456,9.6813,-0.0054,-0.0069,-0.0546
34789,45.870888,-0.301857,94.54,23.48,3.216,163.5,15 / 18,3478910,2019-08-09 23:33:16:137,2.3782,0.1019,9.771,1.434,-0.6547,9.6791,0.0104,0.0048,-0.0805
34790,45.870888,-0.301857,94.54,23.48,3.216,163.5,15 / 18,3479011,2019-08-09 23:33:16:238,2.1088,-0.8282,9.5232,1.4529,-0.6726,9.6751,-0.0043,-0.0012,-0.0957
34791,45.870888,-0.301857,94.54,23.48,3.216,163.5,15 / 18,3479111,2019-08-09 23:33:16:338,1.6689,0.1223,9.0623,1.4671,-0.6656,9.6734,-0.0099,0.0024,-0.0993
34792,45.870888,-0.301857,94.54,23.48,3.216,163.5,15 / 18,3479211,2019-08-09 23:33:16:438,1.9358,-0.6792,9.2036,1.4991,-0.6529,9.6694,0.0463,0.0147,-0.1125
34793,45.870888,-0.301857,94.54,23.48,3.216,163.5,15 / 18,3479310,2019-08-09 23:33:16:537,2.6308,1.6821,9.9673,1.5114,-0.6553,9.6673,-0.1052,0.0039,-0.04
34794,45.870888,-0.301857,94.54,23.48,3.216,163.5,15 / 18,3479410,2019-08-09 23:33:16:637,2.1794,-0.5325,9.3017,1.5274,-0.6252,9.6668,-0.0272,-0.015,-0.0727
34795,45.870888,-0.301857,94.54,23.48,3.216,163.5,15 / 18,3479510,2019-08-09 23:33:16:737,2.4153,-0.2919,9.1641,1.5288,-0.6166,9.6671,-0.0358,-0.0286,-0.0753
34796,45.870888,-0.301857,94.54,23.48,3.216,163.5,13 / 15,3479611,2019-08-09 23:33:16:838,1.9107,0.5341,10.4737,1.5106,-0.6069,9.6706,-0.0084,-0.0553,-0.0656
34797,45.870888,-0.301857,94.54,23.48,3.216,163.5,13 / 15,3479710,2019-08-09 23:33:16:937,1.0841,-0.0244,11.0645,1.4558,-0.659,9.6756,0.0933,-0.0242,-0.015
34798,45.870888,-0.301857,94.54,23.48,3.216,163.5,13 / 15,3479811,2019-08-09 23:33:17:038,1.8419,0.1097,11.0441,1.4352,-0.6582,9.6787,0.0047,0.0038,-0.0382
34799,45.870888,-0.301857,94.54,23.48,3.216,163.5,13 / 15,3479911,2019-08-09 23:33:17:138,1.1009,0.0032,8.6505,1.4285,-0.6639,9.6793,0.0183,-0.0017,-0.0618
34800,45.870888,-0.301857,94.54,23.48,3.216,163.5,13 / 15,3480010,2019-08-09 23:33:17:237,1.8089,-0.8324,9.9548,1.4319,-0.7309,9.674,0.0314,0.0145,-0.0162
34801,45.870888,-0.301857,94.54,23.48,3.216,163.5,13 / 15,3480110,2019-08-09 23:33:17:337,1.7222,-0.4218,9.4232,1.4361,-0.7391,9.6727,-0.0127,0.0131,-0.0744
34802,45.870888,-0.301857,94.54,23.48,3.216,163.5,13 / 15,3480210,2019-08-09 23:33:17:437,2.2435,-1.65,9.6669,1.4384,-0.759,9.6709,0.0207,-0.0121,-0.0785
34803,45.870888,-0.301857,94.54,23.48,3.216,163.5,13 / 15,3480311,2019-08-09 23:33:17:538,0.1641,-1.1102,8.884,1.4061,-0.7175,9.6788,-0.0161,-0.0001,0.0009
34804,45.870888,-0.301857,94.54,23.48,3.216,163.5,13 / 15,3480410,2019-08-09 23:33:17:637,0.7693,-0.5457,9.5878,1.3981,-0.7371,9.6784,0.0107,0.027,-0.0254
34805,45.870888,-0.301857,94.54,23.48,3.216,163.5,13 / 15,3480510,2019-08-09 23:33:17:737,1.2128,-0.4476,9.8548,1.4257,-0.7283,9.6751,0.0098,0.0363,-0.0283
34806,45.870888,-0.301857,94.54,23.48,3.216,163.5,16 / 17,3480610,2019-08-09 23:33:17:837,1.1469,-2.175,9.756,1.4324,-0.7513,9.6723,0.0319,0.022,-0.0402
34807,45.870888,-0.301857,94.54,23.48,3.216,163.5,16 / 17,3480710,2019-08-09 23:33:17:937,1.8658,-0.031,9.8841,1.4503,-0.7505,9.6697,0.0023,0.0051,-0.0223
34808,45.870888,-0.301857,94.54,23.48,3.216,163.5,16 / 17,3480811,2019-08-09 23:33:18:038,0.9183,0.8824,9.5579,1.4555,-0.7522,9.6688,-0.0217,-0.0047,-0.0586
34809,45.870888,-0.301857,94.54,23.48,3.216,163.5,16 / 17,3480911,2019-08-09 23:33:18:138,1.0141,-0.2177,9.8763,1.4519,-0.7453,9.6699,-0.0503,-0.0169,-0.0735
34810,45.870888,-0.301857,94.54,23.48,3.216,163.5,16 / 17,3481011,2019-08-09 23:33:18:238,0.9111,1.3762,8.9618,1.4513,-0.7188,9.672,-0.0377,0.0099,0.0014
34811,45.870888,-0.301857,94.54,23.48,3.216,163.5,16 / 17,3481111,2019-08-09 23:33:18:338,1.3127,-0.8887,9.9769,1.4398,-0.7121,9.6742,-0.0409,0.0114,-0.0341
34812,45.870888,-0.301857,94.54,23.48,3.216,163.5,16 / 17,3481210,2019-08-09 23:33:18:437,1.117,-1.9146,9.9081,1.4302,-0.713,9.6756,0.008,0.0076,-0.0238
34813,45.870888,-0.301857,94.54,23.48,3.216,163.5,16 / 17,3481310,2019-08-09 23:33:18:537,0.804,-0.9647,9.2449,1.4239,-0.7033,9.6772,0.0078,0.0073,-0.018
34814,45.870888,-0.301857,94.54,23.48,3.216,163.5,16 / 17,3481410,2019-08-09 23:33:18:637,1.457,1.3738,10.1948,1.4121,-0.707,9.6787,0.0383,-0.0125,-0.0803
34815,45.870888,-0.301857,94.54,23.48,3.216,163.5,16 / 17,3481511,2019-08-09 23:33:18:738,1.466,-0.0741,9.9488,1.3909,-0.7386,9.6794,0.0616,-0.0062,-0.0684
34816,45.870888,-0.301857,94.54,23.48,3.216,163.5,14 / 15,3481611,2019-08-09 23:33:18:838,1.1493,0.3635,9.7225,1.3902,-0.716,9.6812,-0.0356,-0.0051,-0.0333
34817,45.870888,-0.301857,94.54,23.48,3.216,163.5,14 / 15,3481710,2019-08-09 23:33:18:937,0.6699,-0.6684,9.2305,1.3835,-0.6961,9.6836,-0.047,0.0164,-0.0444
34818,45.870888,-0.301857,94.54,23.48,3.216,163.5,14 / 15,3481810,2019-08-09 23:33:19:037,1.4558,-0.4182,9.5549,1.3827,-0.7362,9.6807,0.0105,-0.004,-0.0523
34819,45.870888,-0.301857,94.54,23.48,3.216,163.5,14 / 15,3481910,2019-08-09 23:33:19:137,1.0584,-0.1728,9.598,1.3711,-0.706,9.6846,-0.0373,-0.0026,-0.0195
34820,45.870888,-0.301857,94.54,23.48,3.216,163.5,14 / 15,3482011,2019-08-09 23:33:19:238,0.6855,-1.255,9.1348,1.3689,-0.7018,9.6852,0.0134,0.0147,-0.0313
34821,45.870888,-0.301857,94.54,23.48,3.216,163.5,14 / 15,3482110,2019-08-09 23:33:19:337,0.4125,0.5029,9.1964,1.3635,-0.7084,9.6855,-0.032,0.0108,0.0245
34822,45.870888,-0.301857,94.54,23.48,3.216,163.5,14 / 15,3482210,2019-08-09 23:33:19:437,0.0558,-1.7296,9.4376,1.3428,-0.7468,9.6855,-0.013,-0.0037,-0.0161
34823,45.870888,-0.301857,94.54,23.48,3.216,163.5,14 / 15,3482311,2019-08-09 23:33:19:538,1.2589,-0.5715,10.3935,1.3347,-0.7508,9.6863,-0.0058,-0.0081,-0.0583
34824,45.870888,-0.301857,94.54,23.48,3.216,163.5,14 / 15,3482411,2019-08-09 23:33:19:638,1.4366,-1.3615,9.9667,1.3254,-0.7474,9.6879,0.0051,0.0181,0.0151
34825,45.870888,-0.301857,94.54,23.48,3.216,163.5,14 / 15,3482510,2019-08-09 23:33:19:737,1.7706,-0.9061,10.8059,1.338,-0.7908,9.6827,-0.0949,0.0155,-0.0396
34826,45.870888,-0.301857,94.54,23.48,3.216,163.5,16 / 17,3482611,2019-08-09 23:33:19:838,1.1948,-1.331,10.4737,1.3479,-0.7584,9.6839,0.067,0.0214,-0.0316
34827,45.870888,-0.301857,94.54,23.48,3.216,163.5,16 / 17,3482710,2019-08-09 23:33:19:937,2.5069,0.0205,9.0408,1.3574,-0.7513,9.6831,-0.0785,0.0142,0.0707
34828,45.870888,-0.301857,94.54,23.48,3.216,163.5,16 / 17,3482810,2019-08-09 23:33:20:037,2.0496,-1.5926,8.79,1.3364,-0.6806,9.6913,0.0255,-0.004,-0.0982
34829,45.870888,-0.301857,94.54,23.48,3.216,163.5,16 / 17,3482910,2019-08-09 23:33:20:137,1.7754,-0.5918,9.7716,1.3517,-0.7371,9.685,0.0822,0.0236,-0.0921
34830,45.870888,-0.301857,94.54,23.48,3.216,163.5,16 / 17,3483011,2019-08-09 23:33:20:238,1.381,-1.3185,9.8841,1.3791,-0.709,9.6833,-0.0394,0.0126,-0.0291
34831,45.870888,-0.301857,94.54,23.48,3.216,163.5,16 / 17,3483110,2019-08-09 23:33:20:337,1.5049,-1.0647,10.1984,1.3859,-0.7126,9.682,0.0059,0.0022,-0.0619
34832,45.870888,-0.301857,94.54,23.48,3.216,163.5,16 / 17,3483210,2019-08-09 23:33:20:437,1.9011,-0.0148,9.5076,1.3973,-0.7553,9.6772,-0.0168,0.0135,-0.0467
34833,45.870888,-0.301857,94.54,23.48,3.216,163.5,16 / 17,3483311,2019-08-09 23:33:20:538,1.7922,-1.0359,9.6968,1.401,-0.7552,9.6766,-0.004,-0.0028,-0.0867
34834,45.870888,-0.301857,94.54,23.48,3.216,163.5,16 / 17,3483411,2019-08-09 23:33:20:638,0.977,-0.7642,9.6513,1.4117,-0.7588,9.6748,-0.0074,0.0194,-0.0033
34835,45.870888,-0.301857,94.54,23.48,3.216,163.5,16 / 17,3483510,2019-08-09 23:33:20:737,1.2756,-0.3177,9.695,1.4084,-0.7471,9.6762,0.0096,0.0062,-0.0574
34836,45.870888,-0.301857,94.54,23.48,3.216,163.5,13 / 14,3483610,2019-08-09 23:33:20:837,1.8885,-1.6794,9.3544,1.4186,-0.7304,9.676,0.0391,0.0128,-0.0576
34837,45.870888,-0.301857,94.54,23.48,3.216,163.5,13 / 14,3483710,2019-08-09 23:33:20:937,1.4498,0.057,9.8656,1.4275,-0.7592,9.6724,0.0391,0.0128,-0.0576
34838,45.870888,-0.301857,94.54,23.48,3.216,163.5,13 / 14,3483810,2019-08-09 23:33:21:037,1.0979,-1.0287,9.54,1.4435,-0.7443,9.6712,0.0009,0.0143,-0.0303
34839,45.870888,-0.301857,94.54,23.48,3.216,163.5,13 / 14,3483911,2019-08-09 23:33:21:138,1.6455,-0.1537,10.3582,1.4505,-0.7357,9.6708,0.0385,0.0208,-0.0464
34840,45.870888,-0.301857,94.54,23.48,3.216,163.5,13 / 14,3484010,2019-08-09 23:33:21:237,1.8939,-1.6213,9.3484,1.4754,-0.7346,9.6672,-0.0485,0.007,-0.0698
34841,45.870888,-0.301857,94.54,23.48,3.216,163.5,13 / 14,3484111,2019-08-09 23:33:21:338,1.5911,-1.6447,10.2744,1.4767,-0.763,9.6648,-0.0226,-0.004,-0.0349
34842,45.870888,-0.301857,94.54,23.48,3.216,163.5,13 / 14,3484210,2019-08-09 23:33:21:437,1.2667,-1.577,9.7638,1.4638,-0.7613,9.6669,-0.0159,-0.017,-0.0444
34843,45.870888,-0.301857,94.54,23.48,3.216,163.5,13 / 14,3484310,2019-08-09 23:33:21:537,1.5486,0.1127,9.6136,1.4484,-0.772,9.6683,-0.0077,0.0039,-0.0041
34844,45.870888,-0.301857,94.54,23.48,3.216,163.5,13 / 14,3484411,2019-08-09 23:33:21:638,0.6992,-1.1754,9.2509,1.4516,-0.7592,9.6689,-0.0341,0.0253,-0.0265
34845,45.870888,-0.301857,94.54,23.48,3.216,163.5,13 / 14,3484510,2019-08-09 23:33:21:737,1.1044,-0.0483,9.3454,1.4541,-0.7632,9.6682,-0.0105,0.0217,-0.0489
34846,45.870888,-0.301857,94.54,23.48,3.216,163.5,16 / 17,3484610,2019-08-09 23:33:21:837,2.0867,-1.1562,9.9967,1.4733,-0.7489,9.6664,-0.049,0.0087,-0.0305
34847,45.870888,-0.301857,94.54,23.48,3.216,163.5,16 / 17,3484711,2019-08-09 23:33:21:938,1.77,-1.4567,9.6914,1.4793,-0.7328,9.6667,0.0282,0.0003,-0.0736
34848,45.870888,-0.301857,94.54,23.48,3.216,163.5,16 / 17,3484811,2019-08-09 23:33:22:038,1.8479,-0.8683,10.1499,1.4798,-0.751,9.6652,0.0287,-0.0108,-0.0735
34849,45.870888,-0.301857,94.54,23.48,3.216,163.5,16 / 17,3484910,2019-08-09 23:33:22:137,1.1062,-0.9467,9.9218,1.4737,-0.7568,9.6657,0.0052,-0.0032,-0.0189
34850,45.870888,-0.301857,94.54,23.48,3.216,163.5,16 / 17,3485010,2019-08-09 23:33:22:237,1.3654,-0.4673,9.4382,1.4667,-0.7762,9.6652,-0.0484,0.0096,-0.0405
34851,45.870888,-0.301857,94.54,23.48,3.216,163.5,16 / 17,3485110,2019-08-09 23:33:22:337,1.7635,-0.0016,9.3275,1.4749,-0.7791,9.6637,-0.0388,0.019,-0.0477
34852,45.870888,-0.301857,94.54,23.48,3.216,163.5,16 / 17,3485210,2019-08-09 23:33:22:437,1.6689,-0.8013,9.4101,1.4894,-0.7614,9.6629,-0.0104,-0.0009,-0.0725
34853,45.870888,-0.301857,94.54,23.48,3.216,163.5,16 / 17,3485311,2019-08-09 23:33:22:538,1.8616,0.8435,10.0631,1.4924,-0.7568,9.6628,-0.0041,0.0051,-0.0507
34854,45.870888,-0.301857,94.54,23.48,3.216,163.5,16 / 17,3485411,2019-08-09 23:33:22:638,2.0561,-0.7103,9.8303,1.4984,-0.7716,9.6607,0.0327,0.0043,-0.0852
34855,45.870888,-0.301857,94.54,23.48,3.216,163.5,16 / 17,3485510,2019-08-09 23:33:22:737,1.797,-0.8468,9.8734,1.5077,-0.7849,9.6582,0.0089,0.012,-0.0577
34856,45.869144,-0.301764,93.32,20.63,3.216,190.9,15 / 16,3485610,2019-08-09 23:33:22:837,1.6964,0.7795,9.3119,1.5243,-0.8026,9.6542,0.0069,0.0134,-0.0703
34857,45.869144,-0.301764,93.32,20.63,3.216,190.9,15 / 16,3485710,2019-08-09 23:33:22:937,1.4678,-1.2161,8.9223,1.5284,-0.8238,9.6517,-0.0497,0.0245,-0.0142
34858,45.869144,-0.301764,93.32,20.63,3.216,190.9,15 / 16,3485811,2019-08-09 23:33:23:038,2.5194,-0.3835,9.5717,1.5574,-0.8065,9.6486,0.0104,0.0085,-0.0508
34859,45.869144,-0.301764,93.32,20.63,3.216,190.9,15 / 16,3485911,2019-08-09 23:33:23:138,2.7427,0.1797,10.4043,1.5516,-0.8411,9.6465,0.0022,-0.0261,-0.0697
34860,45.869144,-0.301764,93.32,20.63,3.216,190.9,15 / 16,3486010,2019-08-09 23:33:23:237,1.6144,-0.8492,9.4256,1.5359,-0.849,9.6484,-0.0291,0.0034,-0.0562
34861,45.869144,-0.301764,93.32,20.63,3.216,190.9,15 / 16,3486110,2019-08-09 23:33:23:337,1.6868,-1.2598,9.7351,1.5364,-0.8526,9.6479,0.0153,0.0044,-0.0638
34862,45.869144,-0.301764,93.32,20.63,3.216,190.9,15 / 16,3486210,2019-08-09 23:33:23:437,1.8772,-0.7456,9.7602,1.5399,-0.858,9.6469,-0.0047,-0.0199,-0.0471
34863,45.869144,-0.301764,93.32,20.63,3.216,190.9,15 / 16,3486310,2019-08-09 23:33:23:537,1.3379,-1.17,9.2287,1.5182,-0.8486,9.6512,-0.0068,-0.0093,-0.0487
34864,45.869144,-0.301764,93.32,20.63,3.216,190.9,15 / 16,3486410,2019-08-09 23:33:23:637,1.557,-1.8949,9.774,1.5109,-0.8833,9.6492,-0.0101,-0.0057,-0.0549
34865,45.869144,-0.301764,93.32,20.63,3.216,190.9,15 / 16,3486510,2019-08-09 23:33:23:737,1.0506,-0.5032,9.185,1.5016,-0.8701,9.6519,-0.0137,0.0005,-0.0375
34866,45.869144,-0.301764,93.32,20.63,3.216,190.9,16 / 17,3486610,2019-08-09 23:33:23:837,1.1859,-0.9132,9.4107,1.494,-0.8874,9.6515,-0.0423,0.0097,-0.0223
34867,45.869144,-0.301764,93.32,20.63,3.216,190.9,16 / 17,3486710,2019-08-09 23:33:23:937,1.4696,-0.7923,9.9296,1.4866,-0.8933,9.6521,-0.0511,-0.0002,-0.0136
34868,45.869144,-0.301764,93.32,20.63,3.216,190.9,16 / 17,3486810,2019-08-09 23:33:24:037,1.3923,-0.9545,9.6142,1.4845,-0.8621,9.6552,-0.0511,-0.0002,-0.0136
34869,45.869144,-0.301764,93.32,20.63,3.216,190.9,16 / 17,3486910,2019-08-09 23:33:24:137,1.6617,-0.8258,9.6405,1.478,-0.8759,9.655,-0.0145,0.0146,-0.059
34870,45.869144,-0.301764,93.32,20.63,3.216,190.9,16 / 17,3487011,2019-08-09 23:33:24:238,1.8089,-0.6582,10.2343,1.4889,-0.8971,9.6514,0.0248,-0.0058,-0.0805
34871,45.869144,-0.301764,93.32,20.63,3.216,190.9,16 / 17,3487111,2019-08-09 23:33:24:338,1.1763,-0.6283,9.6178,1.4766,-0.8979,9.6532,-0.0286,0.0011,-0.0322
34872,45.869144,-0.301764,93.32,20.63,3.216,190.9,16 / 17,3487210,2019-08-09 23:33:24:437,1.6282,-1.0036,9.6854,1.4803,-0.9123,9.6513,0.0035,0.0022,-0.0691
34873,45.869144,-0.301764,93.32,20.63,3.216,190.9,16 / 17,3487310,2019-08-09 23:33:24:537,1.1368,-1.3484,9.3125,1.4669,-0.9126,9.6533,-0.0002,0.0016,-0.0213
34874,45.869144,-0.301764,93.32,20.63,3.216,190.9,16 / 17,3487411,2019-08-09 23:33:24:638,1.4211,-1.0401,9.276,1.4632,-0.9082,9.6543,-0.0036,-0.0037,-0.0785
34875,45.869144,-0.301764,93.32,20.63,3.216,190.9,16 / 17,3487511,2019-08-09 23:33:24:738,1.7024,-0.8031,10.029,1.4425,-0.9204,9.6562,0.0114,-0.0197,-0.0309
34876,45.869144,-0.301764,93.32,20.63,3.216,190.9,16 / 17,3487610,2019-08-09 23:33:24:837,1.0344,-0.1285,9.0312,1.4287,-0.9297,9.6574,-0.0265,-0.0194,-0.0527
34877,45.869144,-0.301764,93.32,20.63,3.216,190.9,16 / 17,3487710,2019-08-09 23:33:24:937,1.1248,-0.8324,8.4733,1.4306,-0.8996,9.6599,-0.0029,0.0275,-0.0887
34878,45.869144,-0.301764,93.32,20.63,3.216,190.9,16 / 17,3487810,2019-08-09 23:33:25:037,1.2457,1.7862,8.8163,1.4553,-0.8585,9.66,-0.0928,0.0546,-0.0504
34879,45.869144,-0.301764,93.32,20.63,3.216,190.9,16 / 17,3487910,2019-08-09 23:33:25:137,1.0943,-0.5715,9.3275,1.5087,-0.8357,9.6538,-0.0479,0.0369,-0.0631
34880,45.869144,-0.301764,93.32,20.63,3.216,190.9,16 / 17,3488011,2019-08-09 23:33:25:238,2.4446,0.3707,10.7843,1.507,-0.8678,9.6512,0.0726,0.0166,-0.0567
34881,45.869144,-0.301764,93.32,20.63,3.216,190.9,16 / 17,3488110,2019-08-09 23:33:25:337,1.8149,-0.6648,10.9118,1.5205,-0.9115,9.6451,0.0049,0.0012,-0.0151
34882,45.869144,-0.301764,93.32,20.63,3.216,190.9,16 / 17,3488210,2019-08-09 23:33:25:437,1.1469,-0.1501,10.3516,1.5084,-0.9211,9.6461,-0.0442,0.0045,-0.0423
34883,45.869144,-0.301764,93.32,20.63,3.216,190.9,16 / 17,3488310,2019-08-09 23:33:25:537,1.275,-1.103,9.3813,1.5087,-0.9322,9.645,0.0302,0.0169,-0.058
34884,45.869144,-0.301764,93.32,20.63,3.216,190.9,16 / 17,3488411,2019-08-09 23:33:25:638,1.39,-1.3627,9.2395,1.5184,-0.9105,9.6455,-0.0367,0.0199,-0.0471
34885,45.869144,-0.301764,93.32,20.63,3.216,190.9,16 / 17,3488510,2019-08-09 23:33:25:737,1.5695,-1.6686,9.367,1.5531,-0.8986,9.6411,0.0084,0.0401,-0.0593
34886,45.869144,-0.301764,93.32,20.63,3.216,190.9,13 / 14,3488610,2019-08-09 23:33:25:837,1.4911,-0.1106,9.434,1.572,-0.8775,9.64,-0.0321,0.0348,-0.049
34887,45.869144,-0.301764,93.32,20.63,3.216,190.9,13 / 14,3488712,2019-08-09 23:33:25:939,1.7365,-0.9192,10.2576,1.5989,-0.8744,9.6358,0.0291,0.0146,-0.032
34888,45.869144,-0.301764,93.32,20.63,3.216,190.9,13 / 14,3488810,2019-08-09 23:33:26:037,1.8832,-1.1538,10.2205,1.5931,-0.8786,9.6364,-0.0009,-0.0069,-0.0301
34889,45.869144,-0.301764,93.32,20.63,3.216,190.9,13 / 14,3488910,2019-08-09 23:33:26:137,1.4696,0.0606,9.6944,1.5752,-0.9025,9.6372,-0.003,-0.0128,-0.0399
34890,45.869144,-0.301764,93.32,20.63,3.216,190.9,13 / 14,3489011,2019-08-09 23:33:26:238,1.7174,-0.5379,10.1104,1.566,-0.8976,9.6391,0.016,-0.0232,-0.0572
34891,45.869144,-0.301764,93.32,20.63,3.216,190.9,13 / 14,3489110,2019-08-09 23:33:26:337,1.6575,-0.9719,9.8303,1.5203,-0.9087,9.6454,-0.0166,-0.0256,-0.0132
34892,45.869144,-0.301764,93.32,20.63,3.216,190.9,13 / 14,3489210,2019-08-09 23:33:26:437,0.9225,-0.3512,9.3191,1.5028,-0.8925,9.6496,-0.0134,-0.0156,-0.0789
34893,45.869144,-0.301764,93.32,20.63,3.216,190.9,13 / 14,3489310,2019-08-09 23:33:26:537,0.9686,-1.7656,9.5292,1.49,-0.883,9.6525,0.0131,0.016,-0.0763
34894,45.869144,-0.301764,93.32,20.63,3.216,190.9,13 / 14,3489411,2019-08-09 23:33:26:638,1.4875,-4.1717,9.7955,1.4953,-0.8808,9.6519,-0.0141,0.0234,-0.0395
34895,45.869144,-0.301764,93.32,20.63,3.216,190.9,13 / 14,3489511,2019-08-09 23:33:26:738,1.4983,0.6113,9.346,1.5079,-0.8817,9.6498,-0.0362,0.0141,-0.054
34896,45.869144,-0.301764,93.32,20.63,3.216,190.9,16 / 17,3489610,2019-08-09 23:33:26:837,1.3995,-1.5327,9.0779,1.5255,-0.8719,9.648,0.0363,0.0094,-0.0672
34897,45.869144,-0.301764,93.32,20.63,3.216,190.9,16 / 17,3489711,2019-08-09 23:33:26:938,1.0895,-1.182,9.1712,1.5241,-0.8902,9.6465,0.0484,0.0138,-0.0427
34898,45.869144,-0.301764,93.32,20.63,3.216,190.9,16 / 17,3489810,2019-08-09 23:33:27:037,1.6779,-0.2129,10.0918,1.5276,-0.8749,9.6474,-0.0282,0.0045,-0.0621
34899,45.869144,-0.301764,93.32,20.63,3.216,190.9,16 / 17,3489910,2019-08-09 23:33:27:137,1.3642,0.1959,9.4891,1.5352,-0.842,9.6491,-0.0157,0.0219,-0.0252
34900,45.869144,-0.301764,93.32,20.63,3.216,190.9,16 / 17,3490010,2019-08-09 23:33:27:237,1.5582,0.1259,9.4514,1.5555,-0.7986,9.6495,-0.0106,0.0277,-0.0522
34901,45.869144,-0.301764,93.32,20.63,3.216,190.9,16 / 17,3490110,2019-08-09 23:33:27:337,1.6042,-0.0854,9.6465,1.5704,-0.7802,9.6486,-0.0332,0.0164,-0.0365
34902,45.869144,-0.301764,93.32,20.63,3.216,190.9,16 / 17,3490211,2019-08-09 23:33:27:438,1.5258,0.7645,9.5663,1.5857,-0.7436,9.649,0.0128,0.0223,-0.0667
34903,45.869144,-0.301764,93.32,20.63,3.216,190.9,16 / 17,3490311,2019-08-09 23:33:27:538,2.3387,0.1366,9.6214,1.6084,-0.7282,9.6464,-0.014,0.0213,-0.0787
34904,45.869144,-0.301764,93.32,20.63,3.216,190.9,16 / 17,3490410,2019-08-09 23:33:27:637,1.9292,-0.7845,9.2389,1.6348,-0.722,9.6424,-0.0068,0.0058,-0.063
34905,45.869144,-0.301764,93.32,20.63,3.216,190.9,16 / 17,3490511,2019-08-09 23:33:27:738,2.3602,0.6221,10.084,1.6413,-0.7114,9.6421,0.0006,-0.0195,-0.0832
34906,45.869144,-0.301764,93.32,20.63,3.216,190.9,14 / 15,3490611,2019-08-09 23:33:27:838,2.1435,0.4784,9.9931,1.6189,-0.7006,9.6467,-0.0149,-0.0272,-0.0453
34907,45.869144,-0.301764,93.32,20.63,3.216,190.9,14 / 15,3490710,2019-08-09 23:33:27:937,1.4797,0.2061,9.5896,1.6009,-0.7074,9.6492,0.0208,-0.0489,-0.0701
34908,45.869144,-0.301764,93.32,20.63,3.216,190.9,14 / 15,3490810,2019-08-09 23:33:28:037,1.281,0.1546,9.4418,1.543,-0.6954,9.6595,0.0051,-0.0318,-0.0637
34909,45.869144,-0.301764,93.32,20.63,3.216,190.9,14 / 15,3490910,2019-08-09 23:33:28:137,1.7958,-1.2335,9.8249,1.5303,-0.6762,9.6629,-0.0133,-0.0156,-0.0499
34910,45.869144,-0.301764,93.32,20.63,3.216,190.9,14 / 15,3491010,2019-08-09 23:33:28:237,1.2098,-0.9551,10.1194,1.4965,-0.6707,9.6686,-0.0329,-0.0056,-0.047
34911,45.869144,-0.301764,93.32,20.63,3.216,190.9,14 / 15,3491110,2019-08-09 23:33:28:337,1.6575,-0.9306,9.9284,1.4895,-0.6754,9.6693,0.034,-0.0013,-0.0777
34912,45.869144,-0.301764,93.32,20.63,3.216,190.9,14 / 15,3491211,2019-08-09 23:33:28:438,1.524,-1.5154,9.7704,1.4907,-0.6795,9.6688,-0.0103,0.0137,-0.0667
34913,45.869144,-0.301764,93.32,20.63,3.216,190.9,14 / 15,3491311,2019-08-09 23:33:28:538,1.3169,0.1522,9.7782,1.5,-0.6686,9.6682,0.0299,0.0189,-0.0585
34914,45.869144,-0.301764,93.32,20.63,3.216,190.9,14 / 15,3491411,2019-08-09 23:33:28:638,1.4079,0.1007,9.8339,1.5078,-0.6757,9.6665,0.0199,0.0149,-0.0708
34915,45.869144,-0.301764,93.32,20.63,3.216,190.9,14 / 15,3491510,2019-08-09 23:33:28:737,1.0763,-0.5906,9.1258,1.514,-0.6723,9.6657,-0.0242,0.0224,-0.0534
34916,45.869144,-0.301764,93.32,20.63,3.216,190.9,15 / 17,3491610,2019-08-09 23:33:28:837,1.3439,-0.2297,9.537,1.5391,-0.6479,9.6634,-0.0026,0.029,-0.0522
34917,45.869144,-0.301764,93.32,20.63,3.216,190.9,15 / 17,3491710,2019-08-09 23:33:28:937,1.4977,-1.2694,9.9278,1.5552,-0.6157,9.663,-0.0335,0.0292,-0.0297
34918,45.869144,-0.301764,93.32,20.63,3.216,190.9,15 / 17,3491810,2019-08-09 23:33:29:037,1.3696,-0.6487,9.9422,1.5513,-0.6146,9.6637,0.0137,0.0036,-0.041
34919,45.869144,-0.301764,93.32,20.63,3.216,190.9,15 / 17,3491910,2019-08-09 23:33:29:137,1.3205,-0.4308,9.2658,1.5432,-0.6101,9.6652,-0.02,-0.0101,-0.0456
34920,45.869144,-0.301764,93.32,20.63,3.216,190.9,15 / 17,3492010,2019-08-09 23:33:29:237,1.0242,1.3631,9.4526,1.5232,-0.618,9.6679,-0.0124,0.0002,-0.0245
34921,45.869144,-0.301764,93.32,20.63,3.216,190.9,15 / 17,3492111,2019-08-09 23:33:29:338,1.2463,0.573,9.9003,1.5166,-0.5892,9.6707,0.0036,-0.0087,-0.0536
34922,45.869144,-0.301764,93.32,20.63,3.216,190.9,15 / 17,3492211,2019-08-09 23:33:29:438,1.026,0.3515,9.1754,1.4926,-0.5498,9.6768,0.0047,-0.0055,-0.0527
34923,45.869144,-0.301764,93.32,20.63,3.216,190.9,15 / 17,3492311,2019-08-09 23:33:29:538,0.9889,1.3625,9.2958,1.4838,-0.5484,9.6782,-0.0493,0.0003,-0.0336
34924,45.869144,-0.301764,93.32,20.63,3.216,190.9,15 / 17,3492410,2019-08-09 23:33:29:637,0.9805,-0.4494,9.4352,1.4575,-0.505,9.6846,0.0052,-0.0195,-0.03
34925,45.869144,-0.301764,93.32,20.63,3.216,190.9,15 / 17,3492510,2019-08-09 23:33:29:737,1.4013,1.2847,9.7333,1.4345,-0.4951,9.6885,-0.0259,-0.0179,-0.0166
34926,45.869144,-0.301764,93.32,20.63,3.216,190.9,15 / 16,3492610,2019-08-09 23:33:29:837,1.1871,0.6933,9.616,1.4059,-0.4834,9.6933,0.0162,-0.016,-0.0401
34927,45.869144,-0.301764,93.32,20.63,3.216,190.9,15 / 16,3492710,2019-08-09 23:33:29:937,0.9764,0.09,9.7818,1.3883,-0.4862,9.6957,-0.011,-0.0186,-0.0282
34928,45.869144,-0.301764,93.32,20.63,3.216,190.9,15 / 16,3492810,2019-08-09 23:33:30:037,0.6783,-0.1854,9.7453,1.3683,-0.4628,9.6997,-0.0068,-0.0021,-0.043
34929,45.869144,-0.301764,93.32,20.63,3.216,190.9,15 / 16,3492911,2019-08-09 23:33:30:138,1.1104,0.8764,9.9111,1.3502,-0.4582,9.7024,0.0036,-0.0016,-0.045
34930,45.869144,-0.301764,93.32,20.63,3.216,190.9,15 / 16,3493011,2019-08-09 23:33:30:238,1.3145,-0.1309,10.2169,1.3495,-0.4518,9.7028,0.0165,0.0082,-0.0379
34931,45.869144,-0.301764,93.32,20.63,3.216,190.9,15 / 16,3493110,2019-08-09 23:33:30:337,0.5717,1.6162,9.5154,1.3457,-0.4528,9.7033,-0.0173,0.0179,-0.047
34932,45.869144,-0.301764,93.32,20.63,3.216,190.9,15 / 16,3493210,2019-08-09 23:33:30:437,0.6998,0.2366,9.294,1.3558,-0.4616,9.7015,0.0168,0.0251,-0.0488
34933,45.869144,-0.301764,93.32,20.63,3.216,190.9,15 / 16,3493311,2019-08-09 23:33:30:538,1.0284,1.0267,9.771,1.3708,-0.4469,9.7001,-0.0476,0.0106,-0.0229
34934,45.869144,-0.301764,93.32,20.63,3.216,190.9,15 / 16,3493411,2019-08-09 23:33:30:638,0.6753,-0.1351,9.4268,1.3678,-0.4407,9.7008,0.0079,0.0103,-0.0268
34935,45.869144,-0.301764,93.32,20.63,3.216,190.9,15 / 16,3493511,2019-08-09 23:33:30:738,0.8261,0.5299,9.6286,1.3904,-0.4247,9.6983,-0.0376,0.0255,-0.0171
34936,45.869144,-0.301764,93.32,20.63,3.216,190.9,15 / 16,3493610,2019-08-09 23:33:30:837,1.3109,-0.0992,9.3981,1.3976,-0.431,9.697,-0.0132,0.0224,-0.0469
34937,45.869144,-0.301764,93.32,20.63,3.216,190.9,15 / 16,3493710,2019-08-09 23:33:30:937,1.3576,-0.2859,10.0451,1.4124,-0.4258,9.6951,0.0107,0.0083,-0.0473
34938,45.869144,-0.301764,93.32,20.63,3.216,190.9,15 / 16,3493810,2019-08-09 23:33:31:037,1.4456,-0.4218,10.0266,1.4129,-0.419,9.6953,0.0237,-0.0006,-0.0502
34939,45.869144,-0.301764,93.32,20.63,3.216,190.9,15 / 16,3493910,2019-08-09 23:33:31:137,0.8848,0.1564,9.4574,1.4058,-0.4197,9.6963,-0.0221,0.004,-0.048
34940,45.869144,-0.301764,93.32,20.63,3.216,190.9,15 / 16,3494010,2019-08-09 23:33:31:237,1.5731,0.4156,9.7926,1.4066,-0.4053,9.6968,0.02,0.0097,-0.0525
34941,45.869144,-0.301764,93.32,20.63,3.216,190.9,15 / 16,3494110,2019-08-09 23:33:31:337,1.1954,-0.034,9.6489,1.4054,-0.3962,9.6973,0.0191,0.0123,-0.0464
34942,45.869144,-0.301764,93.32,20.63,3.216,190.9,15 / 16,3494211,2019-08-09 23:33:31:438,0.9434,0.227,9.2592,1.4075,-0.3923,9.6972,-0.0419,0.0191,-0.0374
34943,45.869144,-0.301764,93.32,20.63,3.216,190.9,15 / 16,3494311,2019-08-09 23:33:31:538,1.2104,0.1324,9.425,1.4251,-0.3914,9.6947,-0.0405,0.0051,-0.0282
34944,45.869144,-0.301764,93.32,20.63,3.216,190.9,15 / 16,3494411,2019-08-09 23:33:31:638,1.8448,-0.3955,9.9949,1.4232,-0.394,9.6948,0.0159,-0.0087,-0.0798
34945,45.869144,-0.301764,93.32,20.63,3.216,190.9,15 / 16,3494510,2019-08-09 23:33:31:737,1.2331,-1.4968,9.2443,1.4197,-0.3795,9.6959,-0.0674,0.0062,-0.0343
34946,45.867725,-0.302699,94.35,16.94,3.216,216.8,13 / 15,3494610,2019-08-09 23:33:31:837,1.7018,-0.0381,9.5855,1.4173,-0.381,9.6962,0.0068,-0.0014,-0.0485
34947,45.867725,-0.302699,94.35,16.94,3.216,216.8,13 / 15,3494710,2019-08-09 23:33:31:937,1.1254,2.1532,9.9386,1.4158,-0.3735,9.6967,-0.0412,-0.0017,-0.0682
34948,45.867725,-0.302699,94.35,16.94,3.216,216.8,13 / 15,3494810,2019-08-09 23:33:32:037,1.205,-0.35,9.6363,1.4198,-0.3457,9.6972,-0.0051,0.0122,-0.0381
34949,45.867725,-0.302699,94.35,16.94,3.216,216.8,13 / 15,3494910,2019-08-09 23:33:32:137,1.1086,1.205,9.7848,1.4308,-0.3519,9.6953,-0.029,0.011,-0.0372
34950,45.867725,-0.302699,94.35,16.94,3.216,216.8,13 / 15,3495011,2019-08-09 23:33:32:238,1.521,-0.1231,9.6184,1.4297,-0.3479,9.6956,0.0065,0.0025,-0.0716
34951,45.867725,-0.302699,94.35,16.94,3.216,216.8,13 / 15,3495110,2019-08-09 23:33:32:337,1.1757,-0.502,9.7878,1.4391,-0.3513,9.6941,0.006,0.011,-0.0385
34952,45.867725,-0.302699,94.35,16.94,3.216,216.8,13 / 15,3495210,2019-08-09 23:33:32:437,1.3379,-0.6942,9.5376,1.4415,-0.3571,9.6936,0.0096,0.0102,-0.0628
34953,45.867725,-0.302699,94.35,16.94,3.216,216.8,13 / 15,3495310,2019-08-09 23:33:32:537,1.2439,1.2906,9.762,1.4487,-0.386,9.6914,0.0435,0.0186,-0.073
34954,45.867725,-0.302699,94.35,16.94,3.216,216.8,13 / 15,3495411,2019-08-09 23:33:32:638,1.2212,-0.186,9.4681,1.46,-0.3352,9.6916,0.0264,0.0233,-0.0639
34955,45.867725,-0.302699,94.35,16.94,3.216,216.8,13 / 15,3495511,2019-08-09 23:33:32:738,1.6886,0.1684,10.0757,1.4804,-0.3467,9.6881,-0.0313,0.0173,-0.0197
34956,45.867725,-0.302699,94.35,16.94,3.216,216.8,15 / 17,3495610,2019-08-09 23:33:32:837,1.4899,2.0813,10.3223,1.4806,-0.3385,9.6883,0.0439,0.0078,-0.0547
34957,45.867725,-0.302699,94.35,16.94,3.216,216.8,15 / 17,3495711,2019-08-09 23:33:32:938,1.3636,-0.7762,9.5603,1.4955,-0.336,9.6861,-0.0075,0.0086,-0.0566
34958,45.867725,-0.302699,94.35,16.94,3.216,216.8,15 / 17,3495810,2019-08-09 23:33:33:037,1.5414,0.0056,9.8722,1.498,-0.3285,9.686,-0.0096,0.0104,-0.0558
34959,45.867725,-0.302699,94.35,16.94,3.216,216.8,15 / 17,3495910,2019-08-09 23:33:33:137,1.603,0.6562,9.789,1.5001,-0.3179,9.686,-0.0209,0.0034,-0.0407
34960,45.867725,-0.302699,94.35,16.94,3.216,216.8,15 / 17,3496010,2019-08-09 23:33:33:237,1.3283,0.5939,10.0978,1.4954,-0.3112,9.687,0.0367,0.0025,-0.045
34961,45.867725,-0.302699,94.35,16.94,3.216,216.8,15 / 17,3496110,2019-08-09 23:33:33:337,1.2774,1.6169,9.7596,1.4928,-0.3028,9.6876,0.0275,0.0121,-0.0404
34962,45.867725,-0.302699,94.35,16.94,3.216,216.8,15 / 17,3496211,2019-08-09 23:33:33:438,1.2649,1.742,9.3945,1.4906,-0.2644,9.6891,-0.0239,0.0117,-0.0372
34963,45.867725,-0.302699,94.35,16.94,3.216,216.8,15 / 17,3496310,2019-08-09 23:33:33:537,1.4043,1.4403,9.7016,1.4949,-0.2542,9.6887,-0.0163,0.0049,-0.0551
34964,45.867725,-0.302699,94.35,16.94,3.216,216.8,15 / 17,3496410,2019-08-09 23:33:33:637,1.0284,2.3686,10.032,1.5035,-0.156,9.6895,-0.0108,0.0146,-0.0366
34965,45.867725,-0.302699,94.35,16.94,3.216,216.8,15 / 17,3496510,2019-08-09 23:33:33:737,1.202,2.9241,9.5819,1.5087,-0.1247,9.6891,-0.0141,0.0024,-0.0596
34966,45.867725,-0.302699,94.35,16.94,3.216,216.8,14 / 16,3496611,2019-08-09 23:33:33:838,1.2056,2.6428,9.8722,1.5059,-0.0657,9.6901,0.0059,-0.0011,-0.0381
34967,45.867725,-0.302699,94.35,16.94,3.216,216.8,14 / 16,3496711,2019-08-09 23:33:33:938,1.3606,0.9315,9.7752,1.503,-0.0285,9.6908,-0.0086,0.0057,-0.0336
34968,45.867725,-0.302699,94.35,16.94,3.216,216.8,14 / 16,3496811,2019-08-09 23:33:34:038,1.0458,2.0777,9.8476,1.4951,0.0289,9.692,0.0072,0.0029,-0.0244
34969,45.867725,-0.302699,94.35,16.94,3.216,216.8,14 / 16,3496910,2019-08-09 23:33:34:137,1.1661,2.1585,10.1182,1.496,0.0401,9.6918,0.0032,0.0074,-0.0376
34970,45.867725,-0.302699,94.35,16.94,3.216,216.8,14 / 16,3497011,2019-08-09 23:33:34:238,1.1894,1.988,10.3672,1.4982,0.0971,9.691,0.0144,0.0116,-0.0457
34971,45.867725,-0.302699,94.35,16.94,3.216,216.8,14 / 16,3497111,2019-08-09 23:33:34:338,1.381,0.8262,10.0397,1.5043,0.1161,9.6899,0.0039,0.0192,-0.0507
34972,45.867725,-0.302699,94.35,16.94,3.216,216.8,14 / 16,3497211,2019-08-09 23:33:34:438,0.9482,2.1298,9.8404,1.521,0.1647,9.6866,-0.0002,0.0275,-0.0411
