,GPS LATITUDE (degrees),GPS LONGITUDE (degrees), GPS ALTITUDE (m),GPS SPEED (Kmh),GPS ACCURACY (m),GPS ORIENTATION (Â°), SATELLITES IN RANGE, TIME SINCE START (ms), DATE (YYYY-MO-DD HH-MI-SS_SSS),ACCELEROMETER X (m/s²) , ACCELEROMETER Y (m/s²), ACCELEROMETER Z (m/s²), GRAVITY X (m/s²), GRAVITY Y (m/s²), GRAVITY Z (m/s²), GYROSCOPE Yaw (rad/s), GYROSCOPE Pitch (rad/s), GYROSCOPE Roll (rad/s)
56929,47.697353,-1.703446,62.63,29.78,9.648001,176.1,17 / 22,5694097,2019-08-18 16:48:36:634,-0.5716,0.2514,9.8015,-0.5826,-0.0562,9.7892,0.0079,-0.009,0.0035
56930,47.697353,-1.703446,62.63,29.78,9.648001,176.1,17 / 22,5694197,2019-08-18 16:48:36:734,-0.717,-0.0622,9.343,-0.5762,-0.0521,9.7896,0.0057,0.001,0.003
56931,47.697353,-1.703446,62.63,29.78,9.648001,176.1,17 / 22,5694297,2019-08-18 16:48:36:834,-0.7643,-0.401,9.5441,-0.5835,-0.0491,9.7892,-0.0052,0.0069,0.0011
56932,47.697353,-1.703446,62.63,29.78,9.648001,176.1,17 / 22,5694397,2019-08-18 16:48:36:934,-0.6691,-0.3214,9.8242,-0.5881,-0.0564,9.7888,-0.0091,-0.0041,0.0015
56933,47.697353,-1.703446,62.63,29.78,9.648001,176.1,17 / 22,5694497,2019-08-18 16:48:37:034,-0.7074,-0.3466,10.0798,-0.5882,-0.0664,9.7888,0.0037,-0.0073,0.0015
56934,47.697353,-1.703446,62.63,29.78,9.648001,176.1,17 / 22,5694597,2019-08-18 16:48:37:134,-0.8152,-0.0533,10.0906,-0.5858,-0.0619,9.7889,0.0103,-0.0074,0.0032
56935,47.697353,-1.703446,62.63,29.78,9.648001,176.1,17 / 22,5694697,2019-08-18 16:48:37:234,-0.7613,-0.228,10.1481,-0.5912,-0.0546,9.7887,0.0031,0.0072,0.0097
56936,47.697353,-1.703446,62.63,29.78,9.648001,176.1,17 / 22,5694797,2019-08-18 16:48:37:334,-1.0061,-0.1467,9.7865,-0.5998,-0.0517,9.7882,0.0081,0.0134,0.0119
56937,47.697353,-1.703446,62.63,29.78,9.648001,176.1,17 / 22,5694897,2019-08-18 16:48:37:434,-0.6039,0.0904,10.1373,-0.622,-0.0407,9.7868,0.004,0.0121,0.0104
56938,47.697353,-1.703446,62.63,29.78,9.648001,176.1,17 / 22,5694997,2019-08-18 16:48:37:534,-0.7996,-0.0228,10.1253,-0.6333,-0.0377,9.7861,-0.0014,0.0,0.0087
56939,47.697353,-1.703446,62.63,29.78,9.648001,176.1,17 / 22,5695097,2019-08-18 16:48:37:634,-0.7954,-0.0431,10.1451,-0.6396,-0.0337,9.7857,0.0008,-0.0164,0.0075
56940,47.697353,-1.703446,62.63,29.78,9.648001,176.1,16 / 22,5695198,2019-08-18 16:48:37:735,-0.7296,-0.0263,9.9523,-0.6337,-0.0285,9.7861,-0.0097,-0.0049,0.0101
56941,47.697353,-1.703446,62.63,29.78,9.648001,176.1,16 / 22,5695297,2019-08-18 16:48:37:834,-0.644,-0.1526,9.4998,-0.633,-0.0327,9.7861,-0.0086,0.0032,0.012
56942,47.697353,-1.703446,62.63,29.78,9.648001,176.1,16 / 22,5695397,2019-08-18 16:48:37:934,-0.9265,0.2646,9.206,-0.6373,-0.0315,9.7859,-0.0037,0.0098,0.0178
56943,47.697353,-1.703446,62.63,29.78,9.648001,176.1,16 / 22,5695496,2019-08-18 16:48:38:033,-0.8774,0.4872,9.2,-0.6573,-0.0183,9.7846,0.0058,0.0122,0.0191
56944,47.697353,-1.703446,62.63,29.78,9.648001,176.1,16 / 22,5695597,2019-08-18 16:48:38:134,-0.9044,0.4579,9.8428,-0.6576,-0.0071,9.7846,0.0102,-0.0139,0.0205
56945,47.697353,-1.703446,62.63,29.78,9.648001,176.1,16 / 22,5695697,2019-08-18 16:48:38:234,-0.8631,0.5501,9.8632,-0.6546,0.0203,9.7848,0.0103,-0.0009,0.0224
56946,47.697353,-1.703446,62.63,29.78,9.648001,176.1,16 / 22,5695797,2019-08-18 16:48:38:334,-0.6895,0.5375,9.6902,-0.6702,0.0382,9.7836,0.004,0.0091,0.0289
56947,47.697353,-1.703446,62.63,29.78,9.648001,176.1,16 / 22,5695897,2019-08-18 16:48:38:434,-0.9774,0.6482,9.9374,-0.7042,0.0644,9.7811,0.0105,0.0246,0.0354
56948,47.697353,-1.703446,62.63,29.78,9.648001,176.1,16 / 22,5695997,2019-08-18 16:48:38:534,-1.1767,0.7919,10.0176,-0.7286,0.0843,9.7792,0.0022,0.0122,0.0337
56949,47.697353,-1.703446,62.63,29.78,9.648001,176.1,16 / 22,5696097,2019-08-18 16:48:38:634,-1.2264,0.8152,10.254,-0.7512,0.113,9.7772,0.0115,-0.0022,0.0344
56950,47.697353,-1.703446,62.63,29.78,9.648001,176.1,13 / 20,5696197,2019-08-18 16:48:38:734,-1.1593,0.7931,9.7291,-0.7554,0.1312,9.7766,0.0063,-0.0085,0.0326
56951,47.697353,-1.703446,62.63,29.78,9.648001,176.1,13 / 20,5696297,2019-08-18 16:48:38:834,-1.0869,0.817,9.9075,-0.7517,0.154,9.7766,-0.0055,-0.0151,0.0283
56952,47.697353,-1.703446,62.63,29.78,9.648001,176.1,13 / 20,5696396,2019-08-18 16:48:38:933,-1.1138,0.8033,9.8051,-0.7482,0.1591,9.7768,-0.0115,-0.0166,0.0244
56953,47.697353,-1.703446,62.63,29.78,9.648001,176.1,13 / 20,5696497,2019-08-18 16:48:39:034,-1.069,0.5614,9.3604,-0.7367,0.1546,9.7777,-0.0186,-0.0045,0.0165
56954,47.697353,-1.703446,62.63,29.78,9.648001,176.1,13 / 20,5696597,2019-08-18 16:48:39:134,-0.8355,0.5028,10.0331,-0.7347,0.1476,9.778,-0.0155,-0.006,0.0152
56955,47.697353,-1.703446,62.63,29.78,9.648001,176.1,13 / 20,5696697,2019-08-18 16:48:39:234,-0.9235,0.4375,9.5154,-0.7244,0.1446,9.7788,-0.0128,-0.015,0.0104
56956,47.697353,-1.703446,62.63,29.78,9.648001,176.1,13 / 20,5696797,2019-08-18 16:48:39:334,-0.7661,0.0533,10.0948,-0.712,0.1345,9.7798,-0.0215,-0.0084,0.0078
56957,47.697353,-1.703446,62.63,29.78,9.648001,176.1,13 / 20,5696897,2019-08-18 16:48:39:434,-0.4955,0.1395,9.4951,-0.7017,0.1204,9.7808,-0.0055,-0.0013,0.0098
56958,47.697353,-1.703446,62.63,29.78,9.648001,176.1,13 / 20,5696997,2019-08-18 16:48:39:534,-0.5883,0.0132,10.081,-0.7005,0.113,9.7809,-0.0148,0.0093,0.01
56959,47.697353,-1.703446,62.63,29.78,9.648001,176.1,15 / 21,5697097,2019-08-18 16:48:39:634,-0.9026,0.2358,9.8889,-0.709,0.0977,9.7805,-0.0003,0.007,0.0097
56960,47.697353,-1.703446,62.63,29.78,9.648001,176.1,15 / 21,5697197,2019-08-18 16:48:39:734,-0.6763,0.0724,9.9344,-0.7106,0.103,9.7803,0.0105,-0.0006,0.0092
56961,47.697353,-1.703446,62.63,29.78,9.648001,176.1,15 / 21,5697297,2019-08-18 16:48:39:834,-0.8014,-0.0108,9.6441,-0.7099,0.1053,9.7804,-0.0033,0.0102,0.006
56962,47.697353,-1.703446,62.63,29.78,9.648001,176.1,15 / 21,5697396,2019-08-18 16:48:39:933,-0.7787,0.0216,10.0894,-0.7158,0.0982,9.78,0.0063,-0.0067,0.0046
56963,47.697353,-1.703446,62.63,29.78,9.648001,176.1,15 / 21,5697497,2019-08-18 16:48:40:034,-0.5853,-0.1335,9.7584,-0.7101,0.101,9.7804,0.0042,-0.0013,0.0041
56964,47.697353,-1.703446,62.63,29.78,9.648001,176.1,15 / 21,5697597,2019-08-18 16:48:40:134,-0.7122,-0.2017,9.9685,-0.7144,0.0978,9.7801,-0.0014,0.0089,0.0047
56965,47.697353,-1.703446,62.63,29.78,9.648001,176.1,15 / 21,5697697,2019-08-18 16:48:40:234,-0.5775,-0.0796,9.692,-0.7215,0.0952,9.7796,0.0013,-0.0001,0.006
56966,47.697353,-1.703446,62.63,29.78,9.648001,176.1,15 / 21,5697797,2019-08-18 16:48:40:334,-0.8122,0.0006,9.8787,-0.7251,0.0925,9.7794,0.0005,0.0094,0.005
56967,47.697353,-1.703446,62.63,29.78,9.648001,176.1,15 / 21,5697897,2019-08-18 16:48:40:434,-0.9109,0.2047,10.5036,-0.7311,0.0916,9.7789,0.0121,-0.0015,0.0067
56968,47.697353,-1.703446,62.63,29.78,9.648001,176.1,15 / 21,5697997,2019-08-18 16:48:40:534,-0.7356,0.1053,10.1744,-0.7218,0.1083,9.7794,0.0142,0.0003,0.0128
56969,47.697353,-1.703446,62.63,29.78,9.648001,176.1,17 / 21,5698098,2019-08-18 16:48:40:635,-1.0564,0.3154,10.02,-0.7241,0.1167,9.7792,0.0094,-0.01,0.0133
56970,47.694874,-1.703081,66.86,30.05,9.648001,171.9,17 / 21,5698197,2019-08-18 16:48:40:734,-0.9103,0.1149,9.9877,-0.7186,0.1294,9.7794,0.0005,-0.0157,0.0116
56971,47.694874,-1.703081,66.86,30.05,9.648001,171.9,17 / 21,5698297,2019-08-18 16:48:40:834,-0.8912,0.1676,9.501,-0.712,0.1276,9.7799,-0.0246,-0.0016,0.0106
56972,47.694874,-1.703081,66.86,30.05,9.648001,171.9,17 / 21,5698396,2019-08-18 16:48:40:933,-0.805,0.2813,9.5064,-0.7128,0.1026,9.7802,-0.022,-0.0011,0.011
56973,47.694874,-1.703081,66.86,30.05,9.648001,171.9,17 / 21,5698497,2019-08-18 16:48:41:034,-0.9564,0.2706,8.9875,-0.7141,0.0917,9.7802,-0.0069,-0.0012,0.0137
56974,47.694874,-1.703081,66.86,30.05,9.648001,171.9,17 / 21,5698597,2019-08-18 16:48:41:134,-0.9451,-0.2616,9.5585,-0.7193,0.0825,9.7799,-0.0105,0.0066,0.0118
56975,47.694874,-1.703081,66.86,30.05,9.648001,171.9,17 / 21,5698697,2019-08-18 16:48:41:234,-0.9367,0.0557,9.2993,-0.7275,0.0728,9.7794,-0.0026,0.0068,0.0092
56976,47.694874,-1.703081,66.86,30.05,9.648001,171.9,17 / 21,5698798,2019-08-18 16:48:41:335,-0.7194,-0.2304,9.5411,-0.7377,0.0653,9.7786,-0.0061,0.0088,0.006
56977,47.694874,-1.703081,66.86,30.05,9.648001,171.9,17 / 21,5698898,2019-08-18 16:48:41:435,-0.954,0.1532,9.9709,-0.7489,0.0579,9.7778,-0.0164,0.0008,0.0047
56978,47.694874,-1.703081,66.86,30.05,9.648001,171.9,17 / 21,5698997,2019-08-18 16:48:41:534,-0.7942,-0.2346,10.099,-0.7497,0.0336,9.7779,-0.0128,-0.0077,0.0045
56979,47.694874,-1.703081,66.86,30.05,9.648001,171.9,17 / 21,5699097,2019-08-18 16:48:41:634,-0.9265,-0.1401,9.5417,-0.7519,0.0268,9.7777,-0.0088,0.0052,0.0063
56980,47.694874,-1.703081,66.86,30.05,9.648001,171.9,18 / 22,5699196,2019-08-18 16:48:41:733,-1.0073,-0.2089,10.6407,-0.759,0.0138,9.7772,-0.0019,0.0003,0.0051
56981,47.694874,-1.703081,66.86,30.05,9.648001,171.9,18 / 22,5699297,2019-08-18 16:48:41:834,-0.8744,-0.0862,10.0056,-0.7531,0.0119,9.7777,0.0058,-0.0118,0.0057
56982,47.694874,-1.703081,66.86,30.05,9.648001,171.9,18 / 22,5699397,2019-08-18 16:48:41:934,-0.8846,-0.2274,10.3061,-0.7461,0.011,9.7782,-0.0011,-0.0076,0.0072
56983,47.694874,-1.703081,66.86,30.05,9.648001,171.9,18 / 22,5699497,2019-08-18 16:48:42:034,-0.9828,-0.1395,10.1044,-0.7461,0.0094,9.7782,0.009,-0.0034,0.0087
56984,47.694874,-1.703081,66.86,30.05,9.648001,171.9,18 / 22,5699597,2019-08-18 16:48:42:134,-0.8924,-0.2131,10.0768,-0.7462,0.0197,9.7782,0.0056,-0.005,0.0092
56985,47.694874,-1.703081,66.86,30.05,9.648001,171.9,18 / 22,5699697,2019-08-18 16:48:42:234,-0.823,-0.3053,10.0248,-0.7436,0.0187,9.7784,0.0002,0.0002,0.0084
56986,47.694874,-1.703081,66.86,30.05,9.648001,171.9,18 / 22,5699797,2019-08-18 16:48:42:334,-0.9666,-0.1215,9.7572,-0.7486,0.0103,9.778,-0.0036,0.0023,0.0079
56987,47.694874,-1.703081,66.86,30.05,9.648001,171.9,18 / 22,5699897,2019-08-18 16:48:42:434,-0.8373,0.0509,9.2502,-0.7513,0.0094,9.7778,-0.0032,0.0139,0.0083
56988,47.694874,-1.703081,66.86,30.05,9.648001,171.9,18 / 22,5699997,2019-08-18 16:48:42:534,-0.8349,-0.1101,9.4514,-0.7743,0.005,9.776,0.0082,0.001,0.0108
56989,47.694874,-1.703081,66.86,30.05,9.648001,171.9,18 / 22,5700097,2019-08-18 16:48:42:634,-1.0396,0.1826,9.7644,-0.7742,0.0084,9.776,0.0053,-0.0057,0.0105
56990,47.694874,-1.703081,66.86,30.05,9.648001,171.9,18 / 22,5700197,2019-08-18 16:48:42:734,-0.9367,-0.0323,9.613,-0.7755,0.0101,9.7759,0.0026,0.0011,0.0075
56991,47.694874,-1.703081,66.86,30.05,9.648001,171.9,18 / 22,5700297,2019-08-18 16:48:42:834,-1.0797,0.0257,9.5735,-0.778,0.0076,9.7757,-0.0119,0.0023,0.0071
56992,47.694874,-1.703081,66.86,30.05,9.648001,171.9,18 / 22,5700397,2019-08-18 16:48:42:934,-0.8086,-0.0419,9.3652,-0.7913,-0.0097,9.7747,-0.012,0.0117,0.0056
56993,47.694874,-1.703081,66.86,30.05,9.648001,171.9,18 / 22,5700497,2019-08-18 16:48:43:034,-0.9211,-0.1688,9.941,-0.8029,-0.015,9.7737,-0.0008,0.0157,0.0084
56994,47.694874,-1.703081,66.86,30.05,9.648001,171.9,18 / 22,5700597,2019-08-18 16:48:43:134,-1.0678,0.0018,9.6477,-0.8092,-0.0139,9.7732,0.0126,-0.002,0.0098
56995,47.694874,-1.703081,66.86,30.05,9.648001,171.9,18 / 22,5700696,2019-08-18 16:48:43:233,-1.0498,-0.2867,10.0373,-0.8119,-0.0032,9.773,0.007,-0.0049,0.0101
56996,47.694874,-1.703081,66.86,30.05,9.648001,171.9,18 / 22,5700797,2019-08-18 16:48:43:334,-0.8756,-0.0533,9.7004,-0.8115,-0.0016,9.773,0.0057,-0.0108,0.0094
56997,47.694874,-1.703081,66.86,30.05,9.648001,171.9,18 / 22,5700897,2019-08-18 16:48:43:434,-0.9247,-0.2969,9.8111,-0.8065,0.0002,9.7734,-0.0142,0.0091,0.0086
56998,47.694874,-1.703081,66.86,30.05,9.648001,171.9,18 / 22,5700997,2019-08-18 16:48:43:534,-1.0833,-0.1544,9.9901,-0.8167,-0.0102,9.7726,-0.0075,0.0093,0.0101
56999,47.694874,-1.703081,66.86,30.05,9.648001,171.9,16 / 19,5701097,2019-08-18 16:48:43:634,-1.048,-0.0622,9.9763,-0.8261,-0.0146,9.7718,0.004,-0.0145,0.0099
57000,47.694874,-1.703081,66.86,30.05,9.648001,171.9,16 / 19,5701197,2019-08-18 16:48:43:734,-0.987,-0.0772,9.3718,-0.8163,-0.0131,9.7726,-0.0025,-0.0124,0.0087
57001,47.694874,-1.703081,66.86,30.05,9.648001,171.9,16 / 19,5701297,2019-08-18 16:48:43:834,-0.8744,-0.2436,10.1062,-0.8182,-0.0232,9.7724,-0.0084,-0.0004,0.0077
57002,47.694874,-1.703081,66.86,30.05,9.648001,171.9,16 / 19,5701397,2019-08-18 16:48:43:934,-0.7882,0.1,9.6297,-0.8174,-0.0285,9.7725,-0.0077,-0.0034,0.0085
57003,47.694874,-1.703081,66.86,30.05,9.648001,171.9,16 / 19,5701497,2019-08-18 16:48:44:034,-1.0001,0.0629,9.5028,-0.825,-0.0387,9.7718,-0.01,0.006,0.007
57004,47.694874,-1.703081,66.86,30.05,9.648001,171.9,16 / 19,5701597,2019-08-18 16:48:44:134,-0.8248,-0.0676,9.9446,-0.8291,-0.0447,9.7714,-0.0028,-0.0095,0.0075
57005,47.694874,-1.703081,66.86,30.05,9.648001,171.9,16 / 19,5701697,2019-08-18 16:48:44:234,-0.6398,-0.0754,9.6411,-0.8206,-0.0509,9.7721,-0.0025,-0.0063,0.0077
57006,47.694874,-1.703081,66.86,30.05,9.648001,171.9,16 / 19,5701797,2019-08-18 16:48:44:334,-0.8732,-0.0622,9.5046,-0.8195,-0.0524,9.7722,0.0026,-0.0016,0.008
57007,47.694874,-1.703081,66.86,30.05,9.648001,171.9,16 / 19,5701897,2019-08-18 16:48:44:434,-0.7254,0.0024,9.9212,-0.8154,-0.0485,9.7726,0.0059,-0.0044,0.0088
57008,47.694874,-1.703081,66.86,30.05,9.648001,171.9,16 / 19,5701997,2019-08-18 16:48:44:534,-0.8553,0.0413,9.6333,-0.8128,-0.0461,9.7728,0.0044,0.0132,0.0096
57009,47.694874,-1.703081,66.86,30.05,9.648001,171.9,17 / 19,5702097,2019-08-18 16:48:44:634,-0.4722,-0.1083,10.5144,-0.8245,-0.0376,9.7719,0.0062,0.0074,0.0084
57010,47.694874,-1.703081,66.86,30.05,9.648001,171.9,17 / 19,5702197,2019-08-18 16:48:44:734,-0.7481,0.0401,9.9404,-0.8175,-0.035,9.7725,-0.0022,-0.0115,0.0083
57011,47.694874,-1.703081,66.86,30.05,9.648001,171.9,17 / 19,5702297,2019-08-18 16:48:44:834,-0.6799,-0.0658,9.7931,-0.8028,-0.039,9.7737,-0.0119,-0.0049,0.0058
57012,47.694874,-1.703081,66.86,30.05,9.648001,171.9,17 / 19,5702396,2019-08-18 16:48:44:933,-0.7619,0.173,9.4166,-0.8026,-0.0457,9.7736,-0.0069,0.0059,0.0084
57013,47.694874,-1.703081,66.86,30.05,9.648001,171.9,17 / 19,5702497,2019-08-18 16:48:45:034,-0.5758,0.1191,10.3516,-0.8079,-0.0487,9.7732,0.002,0.0099,0.0083
57014,47.694874,-1.703081,66.86,30.05,9.648001,171.9,17 / 19,5702597,2019-08-18 16:48:45:134,-0.7475,0.0036,10.2875,-0.8078,-0.0396,9.7732,0.0091,-0.0168,0.008
57015,47.694874,-1.703081,66.86,30.05,9.648001,171.9,17 / 19,5702697,2019-08-18 16:48:45:234,-0.6817,-0.2688,9.8871,-0.7838,-0.0333,9.7752,-0.0086,-0.0049,0.0051
57016,47.694874,-1.703081,66.86,30.05,9.648001,171.9,17 / 19,5702796,2019-08-18 16:48:45:333,-0.62,-0.182,9.9416,-0.7804,-0.0394,9.7755,-0.0149,0.0051,0.0074
57017,47.694874,-1.703081,66.86,30.05,9.648001,171.9,17 / 19,5702897,2019-08-18 16:48:45:434,-0.6177,-0.1131,9.7267,-0.7976,-0.0483,9.774,0.0099,0.0129,0.0092
57018,47.694874,-1.703081,66.86,30.05,9.648001,171.9,17 / 19,5702997,2019-08-18 16:48:45:534,-0.8631,-0.0407,9.6698,-0.8029,-0.0415,9.7736,0.0134,-0.0021,0.0092
57019,47.694874,-1.703081,66.86,30.05,9.648001,171.9,17 / 21,5703097,2019-08-18 16:48:45:634,-0.8984,0.1688,9.3849,-0.7945,-0.0332,9.7744,-0.0093,-0.0031,0.007
57020,47.694874,-1.703081,66.86,30.05,9.648001,171.9,17 / 21,5703197,2019-08-18 16:48:45:734,-0.7864,-0.0742,9.5699,-0.7938,-0.0387,9.7744,-0.0089,-0.0036,0.0081
57021,47.694874,-1.703081,66.86,30.05,9.648001,171.9,17 / 21,5703296,2019-08-18 16:48:45:833,-0.9283,0.1927,9.4603,-0.7864,-0.0465,9.775,-0.0024,-0.0036,0.0097
57022,47.694874,-1.703081,66.86,30.05,9.648001,171.9,17 / 21,5703397,2019-08-18 16:48:45:934,-0.5925,-0.1323,9.6758,-0.7874,-0.0442,9.7749,-0.0009,-0.0036,0.0113
57023,47.694874,-1.703081,66.86,30.05,9.648001,171.9,17 / 21,5703497,2019-08-18 16:48:46:034,-0.6973,-0.07,10.2337,-0.7818,-0.0443,9.7753,-0.0006,-0.0135,0.0108
57024,47.694874,-1.703081,66.86,30.05,9.648001,171.9,17 / 21,5703597,2019-08-18 16:48:46:134,-0.6967,0.0407,10.3516,-0.7705,-0.0429,9.7762,-0.0059,-0.0088,0.0133
57025,47.694874,-1.703081,66.86,30.05,9.648001,171.9,17 / 21,5703697,2019-08-18 16:48:46:234,-0.9103,0.2544,9.7764,-0.7587,-0.0409,9.7772,-0.0001,-0.0087,0.0157
57026,47.694874,-1.703081,66.86,30.05,9.648001,171.9,17 / 21,5703796,2019-08-18 16:48:46:333,-0.5572,0.2071,9.8093,-0.7529,-0.0321,9.7777,0.0041,-0.0059,0.0185
57027,47.694874,-1.703081,66.86,30.05,9.648001,171.9,17 / 21,5703897,2019-08-18 16:48:46:434,-0.7727,0.1897,10.2349,-0.75,-0.0268,9.7779,-0.0015,0.002,0.0194
57028,47.694874,-1.703081,66.86,30.05,9.648001,171.9,17 / 21,5703997,2019-08-18 16:48:46:534,-0.6853,0.188,10.2379,-0.7519,-0.0092,9.7778,0.0123,0.0045,0.0194
57029,47.694874,-1.703081,66.86,30.05,9.648001,171.9,16 / 20,5704097,2019-08-18 16:48:46:634,-0.7176,0.2909,9.9015,-0.7486,0.0058,9.778,-0.0006,-0.0064,0.02
57030,47.694874,-1.703081,66.86,30.05,9.648001,171.9,16 / 20,5704196,2019-08-18 16:48:46:733,-0.714,0.2783,9.4358,-0.7424,0.0199,9.7785,-0.0014,0.0035,0.0219
57031,47.694874,-1.703081,66.86,30.05,9.648001,171.9,16 / 20,5704297,2019-08-18 16:48:46:834,-0.474,0.2035,9.37,-0.7429,0.0257,9.7784,0.007,0.0084,0.0226
57032,47.694874,-1.703081,66.86,30.05,9.648001,171.9,16 / 20,5704397,2019-08-18 16:48:46:934,-0.6171,0.3956,9.5268,-0.7541,0.0473,9.7775,-0.0045,0.0187,0.0203
57033,47.694874,-1.703081,66.86,30.05,9.648001,171.9,16 / 20,5704497,2019-08-18 16:48:47:034,-0.553,0.5088,9.7746,-0.7666,0.0521,9.7765,-0.0066,0.0171,0.0201
57034,47.694874,-1.703081,66.86,30.05,9.648001,171.9,16 / 20,5704597,2019-08-18 16:48:47:134,-0.6949,0.5525,9.9104,-0.771,0.0611,9.7761,-0.013,-0.0162,0.0148
57035,47.694874,-1.703081,66.86,30.05,9.648001,171.9,16 / 20,5704697,2019-08-18 16:48:47:234,-0.4973,0.3915,9.5633,-0.7558,0.0555,9.7773,-0.0224,-0.0127,0.0078
57036,47.694874,-1.703081,66.86,30.05,9.648001,171.9,16 / 20,5704796,2019-08-18 16:48:47:333,-0.541,0.1179,10.2863,-0.7436,0.0417,9.7783,-0.0135,0.0054,0.0061
57037,47.694874,-1.703081,66.86,30.05,9.648001,171.9,16 / 20,5704897,2019-08-18 16:48:47:434,-0.2699,0.1508,10.2911,-0.7393,0.0324,9.7787,-0.0073,-0.0039,0.0078
57038,47.694874,-1.703081,66.86,30.05,9.648001,171.9,16 / 20,5704997,2019-08-18 16:48:47:534,-0.301,0.1203,9.9685,-0.724,0.0301,9.7798,-0.0051,0.0005,0.0069
57039,47.694874,-1.703081,66.86,30.05,9.648001,171.9,17 / 21,5705096,2019-08-18 16:48:47:633,-0.4088,0.1179,10.1187,-0.7198,0.0291,9.7802,-0.0063,-0.0091,0.0079
57040,47.694874,-1.703081,66.86,30.05,9.648001,171.9,17 / 21,5705197,2019-08-18 16:48:47:734,-0.3441,0.0676,9.9775,-0.6995,0.0241,9.7816,-0.0052,-0.0089,0.0078
57041,47.694874,-1.703081,66.86,30.05,9.648001,171.9,17 / 21,5705297,2019-08-18 16:48:47:834,-0.4297,-0.0245,9.856,-0.6942,0.0245,9.782,0.0004,0.0105,0.0092
57042,47.694874,-1.703081,66.86,30.05,9.648001,171.9,17 / 21,5705397,2019-08-18 16:48:47:934,-0.4991,-0.1119,10.2432,-0.6941,0.0261,9.782,0.0015,0.0014,0.0089
57043,47.694874,-1.703081,66.86,30.05,9.648001,171.9,17 / 21,5705497,2019-08-18 16:48:48:034,-0.5327,0.1766,9.6962,-0.6889,0.0306,9.7824,0.0075,-0.0128,0.0078
57044,47.694874,-1.703081,66.86,30.05,9.648001,171.9,17 / 21,5705597,2019-08-18 16:48:48:134,-0.5237,0.3699,10.2127,-0.6631,0.044,9.7841,0.0067,-0.0141,0.0074
57045,47.694874,-1.703081,66.86,30.05,9.648001,171.9,17 / 21,5705697,2019-08-18 16:48:48:234,-0.395,0.2813,9.5824,-0.6525,0.0481,9.7848,-0.0037,-0.009,0.0069
57046,47.694874,-1.703081,66.86,30.05,9.648001,171.9,17 / 21,5705796,2019-08-18 16:48:48:333,-0.2537,0.2137,9.8566,-0.6348,0.0452,9.786,-0.0055,-0.005,0.0083
57047,47.694874,-1.703081,66.86,30.05,9.648001,171.9,17 / 21,5705897,2019-08-18 16:48:48:434,-0.31,-0.1658,9.8949,-0.6339,0.0408,9.7861,-0.0125,0.0056,0.0043
57048,47.694874,-1.703081,66.86,30.05,9.648001,171.9,17 / 21,5705996,2019-08-18 16:48:48:533,-0.158,-0.161,9.6944,-0.6319,0.0247,9.7862,-0.0118,0.0069,0.0008
57049,47.694874,-1.703081,66.86,30.05,9.648001,171.9,17 / 21,5706097,2019-08-18 16:48:48:634,-0.4189,-0.2119,9.6734,-0.6308,0.0154,9.7863,-0.0025,0.0129,0.0003
57050,47.694874,-1.703081,66.86,30.05,9.648001,171.9,17 / 21,5706196,2019-08-18 16:48:48:733,-0.3513,-0.0778,10.0487,-0.6309,0.0178,9.7863,0.0158,0.0005,-0.0008
57051,47.694874,-1.703081,66.86,30.05,9.648001,171.9,17 / 21,5706297,2019-08-18 16:48:48:834,-0.1903,-0.0874,10.1762,-0.6225,0.0247,9.7868,0.0193,-0.0061,-0.0022
57052,47.694874,-1.703081,66.86,30.05,9.648001,171.9,17 / 21,5706397,2019-08-18 16:48:48:934,-0.0137,-0.1161,10.2648,-0.6005,0.0364,9.7882,0.0035,-0.0018,-0.0071
57053,47.694874,-1.703081,66.86,30.05,9.648001,171.9,17 / 21,5706497,2019-08-18 16:48:49:034,-0.21,-0.176,9.5591,-0.595,0.0336,9.7885,-0.0011,0.0035,-0.0067
57054,47.694874,-1.703081,66.86,30.05,9.648001,171.9,17 / 21,5706597,2019-08-18 16:48:49:134,-0.3244,-0.0623,10.2576,-0.5876,0.0235,9.789,0.0001,0.0074,-0.0047
57055,47.694874,-1.703081,66.86,30.05,9.648001,171.9,17 / 21,5706697,2019-08-18 16:48:49:234,-0.243,-0.2017,9.7548,-0.5832,0.0206,9.7893,-0.0051,-0.0104,-0.003
57056,47.694874,-1.703081,66.86,30.05,9.648001,171.9,17 / 21,5706796,2019-08-18 16:48:49:333,0.1305,0.0766,10.2822,-0.558,0.0125,9.7908,-0.0009,-0.0058,0.001
57057,47.694874,-1.703081,66.86,30.05,9.648001,171.9,17 / 21,5706897,2019-08-18 16:48:49:434,-0.3597,0.2263,9.8733,-0.5506,0.0098,9.7912,-0.0062,-0.0067,0.0018
57058,47.694874,-1.703081,66.86,30.05,9.648001,171.9,17 / 21,5706997,2019-08-18 16:48:49:534,-0.2388,-0.0832,10.1361,-0.5349,0.0099,9.792,-0.0016,0.0042,0.0071
57059,47.694874,-1.703081,66.86,30.05,9.648001,171.9,17 / 21,5707097,2019-08-18 16:48:49:634,-0.7356,0.0491,9.4789,-0.5406,0.0086,9.7917,-0.0025,0.0108,0.0082
57060,47.692547,-1.702462,71.3,29.54,5.36,167.2,17 / 22,5707196,2019-08-18 16:48:49:733,-0.659,-0.0634,10.2217,-0.5462,0.0097,9.7914,0.0026,0.0005,0.0107
57061,47.692547,-1.702462,71.3,29.54,5.36,167.2,17 / 22,5707297,2019-08-18 16:48:49:834,-0.3034,0.0222,9.8237,-0.5434,0.0184,9.7916,0.0006,-0.005,0.0099
57062,47.692547,-1.702462,71.3,29.54,5.36,167.2,17 / 22,5707397,2019-08-18 16:48:49:934,-0.4255,0.1862,9.8811,-0.5395,0.0198,9.7918,0.0003,0.0064,0.0099
57063,47.692547,-1.702462,71.3,29.54,5.36,167.2,17 / 22,5707497,2019-08-18 16:48:50:034,-0.4644,-0.0054,9.85,-0.5488,0.0197,9.7913,-0.005,0.0082,0.0088
57064,47.692547,-1.702462,71.3,29.54,5.36,167.2,17 / 22,5707596,2019-08-18 16:48:50:133,-0.4129,0.0575,9.5627,-0.5535,0.0183,9.791,-0.0071,0.0032,0.0087
57065,47.692547,-1.702462,71.3,29.54,5.36,167.2,17 / 22,5707697,2019-08-18 16:48:50:234,-0.5584,0.1341,9.917,-0.5598,0.011,9.7907,-0.0044,0.0065,0.0106
57066,47.692547,-1.702462,71.3,29.54,5.36,167.2,17 / 22,5707797,2019-08-18 16:48:50:334,-0.3824,0.0042,9.431,-0.5632,0.0102,9.7905,-0.003,0.0093,0.0107
57067,47.692547,-1.702462,71.3,29.54,5.36,167.2,17 / 22,5707897,2019-08-18 16:48:50:434,-0.6045,0.0066,10.2367,-0.5719,0.0072,9.79,0.0026,0.015,0.0108
57068,47.692547,-1.702462,71.3,29.54,5.36,167.2,17 / 22,5707996,2019-08-18 16:48:50:533,-0.4058,0.0078,10.4372,-0.5786,0.0106,9.7896,0.0105,-0.0159,0.0092
57069,47.692547,-1.702462,71.3,29.54,5.36,167.2,14 / 20,5708097,2019-08-18 16:48:50:634,-0.7044,0.0257,10.4779,-0.5646,0.0264,9.7904,0.0046,-0.0284,0.0078
57070,47.692547,-1.702462,71.3,29.54,5.36,167.2,14 / 20,5708197,2019-08-18 16:48:50:734,-0.4465,-0.0419,10.4785,-0.5431,0.0321,9.7915,0.0032,-0.0245,0.0078
57071,47.692547,-1.702462,71.3,29.54,5.36,167.2,14 / 20,5708297,2019-08-18 16:48:50:834,-0.6356,0.1353,10.0044,-0.5329,0.0353,9.7921,-0.0052,0.0036,0.01
57072,47.692547,-1.702462,71.3,29.54,5.36,167.2,14 / 20,5708397,2019-08-18 16:48:50:934,-0.8248,0.164,9.7105,-0.5466,0.0295,9.7914,-0.0089,0.0173,0.0112
57073,47.692547,-1.702462,71.3,29.54,5.36,167.2,14 / 20,5708496,2019-08-18 16:48:51:033,-0.7445,0.0623,9.1658,-0.5796,0.0183,9.7895,-0.0046,0.0155,0.011
57074,47.692547,-1.702462,71.3,29.54,5.36,167.2,14 / 20,5708597,2019-08-18 16:48:51:134,-0.9756,-0.255,9.6046,-0.5873,0.0157,9.789,-0.0044,-0.0088,0.0102
57075,47.692547,-1.702462,71.3,29.54,5.36,167.2,14 / 20,5708697,2019-08-18 16:48:51:234,-0.9079,-0.1035,10.0751,-0.5915,0.0071,9.7888,-0.0072,-0.0023,0.0078
57076,47.692547,-1.702462,71.3,29.54,5.36,167.2,14 / 20,5708797,2019-08-18 16:48:51:334,-0.9103,-0.1131,10.1606,-0.5965,0.0025,9.7885,-0.006,0.0,0.0068
57077,47.692547,-1.702462,71.3,29.54,5.36,167.2,14 / 20,5708896,2019-08-18 16:48:51:433,-0.8259,-0.1526,10.2211,-0.6118,0.002,9.7875,0.0058,0.0055,0.0076
57078,47.692547,-1.702462,71.3,29.54,5.36,167.2,14 / 20,5708997,2019-08-18 16:48:51:534,-0.9391,-0.0844,9.8745,-0.617,-0.0003,9.7872,-0.0005,-0.0073,0.0069
57079,47.692547,-1.702462,71.3,29.54,5.36,167.2,15 / 21,5709097,2019-08-18 16:48:51:634,-0.7876,-0.1353,9.5016,-0.6197,0.0011,9.7871,0.0091,-0.0046,0.0079
57080,47.692547,-1.702462,71.3,29.54,5.36,167.2,15 / 21,5709197,2019-08-18 16:48:51:734,-0.8978,-0.012,9.6477,-0.6232,0.0019,9.7868,0.0067,0.0093,0.0077
57081,47.692547,-1.702462,71.3,29.54,5.36,167.2,15 / 21,5709297,2019-08-18 16:48:51:834,-0.9702,-0.2298,9.7189,-0.6452,0.0044,9.7854,0.0012,0.0065,0.0087
57082,47.692547,-1.702462,71.3,29.54,5.36,167.2,15 / 21,5709397,2019-08-18 16:48:51:934,-0.8469,-0.0748,10.0194,-0.6548,0.003,9.7848,0.001,-0.0002,0.0087
57083,47.692547,-1.702462,71.3,29.54,5.36,167.2,15 / 21,5709496,2019-08-18 16:48:52:033,-0.8882,-0.4214,9.5818,-0.6642,0.0022,9.7841,-0.0023,0.003,0.0087
57084,47.692547,-1.702462,71.3,29.54,5.36,167.2,15 / 21,5709597,2019-08-18 16:48:52:134,-0.8535,-0.1508,10.1876,-0.6691,-0.0019,9.7838,-0.0058,-0.0028,0.0081
57085,47.692547,-1.702462,71.3,29.54,5.36,167.2,15 / 21,5709697,2019-08-18 16:48:52:234,-0.8667,-0.1371,9.8135,-0.668,-0.0085,9.7839,-0.0043,-0.0079,0.0077
57086,47.692547,-1.702462,71.3,29.54,5.36,167.2,15 / 21,5709797,2019-08-18 16:48:52:334,-0.8732,0.0168,10.0757,-0.6655,-0.0139,9.784,-0.0064,-0.0081,0.0081
57087,47.692547,-1.702462,71.3,29.54,5.36,167.2,15 / 21,5709897,2019-08-18 16:48:52:434,-0.8206,0.012,9.3532,-0.6642,-0.0265,9.7841,-0.0116,-0.0026,0.0095
57088,47.692547,-1.702462,71.3,29.54,5.36,167.2,15 / 21,5709997,2019-08-18 16:48:52:534,-0.972,0.0359,9.9787,-0.6684,-0.0314,9.7838,-0.0051,-0.001,0.0101
57089,47.692547,-1.702462,71.3,29.54,5.36,167.2,13 / 21,5710097,2019-08-18 16:48:52:634,-0.7864,-0.0485,9.777,-0.6701,-0.0392,9.7837,0.0002,-0.0104,0.0109
57090,47.692547,-1.702462,71.3,29.54,5.36,167.2,13 / 21,5710196,2019-08-18 16:48:52:733,-0.6733,-0.1736,9.9116,-0.6641,-0.038,9.7841,0.0019,-0.0091,0.0097
57091,47.692547,-1.702462,71.3,29.54,5.36,167.2,13 / 21,5710297,2019-08-18 16:48:52:834,-0.6308,-0.1413,10.0631,-0.6704,-0.0371,9.7836,0.0002,0.0046,0.0086
57092,47.692547,-1.702462,71.3,29.54,5.36,167.2,13 / 21,5710397,2019-08-18 16:48:52:934,-0.6613,-0.0186,9.9955,-0.6719,-0.04,9.7835,-0.0071,-0.0006,0.0094
57093,47.692547,-1.702462,71.3,29.54,5.36,167.2,13 / 21,5710497,2019-08-18 16:48:53:034,-0.6093,-0.249,10.4025,-0.6733,-0.0443,9.7834,0.0017,0.0014,0.0099
57094,47.692547,-1.702462,71.3,29.54,5.36,167.2,13 / 21,5710597,2019-08-18 16:48:53:134,-0.7392,-0.3388,10.2211,-0.6733,-0.0431,9.7834,0.0111,-0.0092,0.0092
57095,47.692547,-1.702462,71.3,29.54,5.36,167.2,13 / 21,5710697,2019-08-18 16:48:53:234,-0.5225,-0.0958,10.1864,-0.6685,-0.0342,9.7838,0.0117,-0.0128,0.0084
57096,47.692547,-1.702462,71.3,29.54,5.36,167.2,13 / 21,5710797,2019-08-18 16:48:53:334,-0.535,-0.1742,9.6255,-0.6589,-0.0231,9.7845,-0.0012,0.0046,0.0075
57097,47.692547,-1.702462,71.3,29.54,5.36,167.2,13 / 21,5710896,2019-08-18 16:48:53:433,-0.5859,-0.1047,10.0822,-0.6607,-0.024,9.7843,-0.0043,0.0062,0.0074
57098,47.692547,-1.702462,71.3,29.54,5.36,167.2,13 / 21,5710997,2019-08-18 16:48:53:534,-0.5476,0.0395,9.6483,-0.6659,-0.0257,9.784,0.0028,0.0075,0.0087
57099,47.692547,-1.702462,71.3,29.54,5.36,167.2,13 / 21,5711097,2019-08-18 16:48:53:634,-0.7829,0.1778,9.2868,-0.6701,-0.0231,9.7837,-0.0041,0.0071,0.0074
57100,47.692547,-1.702462,71.3,29.54,5.36,167.2,13 / 20,5711197,2019-08-18 16:48:53:734,-0.5117,-0.0706,9.5627,-0.675,-0.0258,9.7834,-0.0029,0.0006,0.0093
57101,47.692547,-1.702462,71.3,29.54,5.36,167.2,13 / 20,5711297,2019-08-18 16:48:53:834,-0.4459,0.0233,9.8883,-0.6766,-0.0243,9.7833,-0.0079,0.0049,0.0092
57102,47.692547,-1.702462,71.3,29.54,5.36,167.2,13 / 20,5711397,2019-08-18 16:48:53:934,-0.4099,-0.1203,9.5878,-0.6781,-0.0297,9.7831,-0.0057,0.0011,0.0102
57103,47.692547,-1.702462,71.3,29.54,5.36,167.2,13 / 20,5711497,2019-08-18 16:48:54:034,-0.7655,0.2502,9.6579,-0.6773,-0.03,9.7832,-0.0012,0.0001,0.0097
57104,47.692547,-1.702462,71.3,29.54,5.36,167.2,13 / 20,5711597,2019-08-18 16:48:54:134,-0.8732,0.3807,9.9458,-0.6816,-0.0251,9.7829,0.0049,0.0003,0.0092
57105,47.692547,-1.702462,71.3,29.54,5.36,167.2,13 / 20,5711697,2019-08-18 16:48:54:234,-0.5464,0.2544,9.759,-0.6776,-0.0248,9.7832,-0.0255,-0.004,0.0075
57106,47.692547,-1.702462,71.3,29.54,5.36,167.2,13 / 20,5711797,2019-08-18 16:48:54:334,-0.6194,0.1329,9.5621,-0.6763,-0.0466,9.7832,-0.0118,0.0091,0.0081
57107,47.692547,-1.702462,71.3,29.54,5.36,167.2,13 / 20,5711897,2019-08-18 16:48:54:434,-0.6727,-0.1748,10.2738,-0.6857,-0.0464,9.7825,0.0178,0.0021,0.0132
57108,47.692547,-1.702462,71.3,29.54,5.36,167.2,13 / 20,5711997,2019-08-18 16:48:54:534,-0.7224,-0.0605,10.0463,-0.6867,-0.0301,9.7825,0.0183,-0.0037,0.0114
57109,47.692547,-1.702462,71.3,29.54,5.36,167.2,13 / 20,5712097,2019-08-18 16:48:54:634,-0.6733,-0.0964,9.9937,-0.6855,-0.0143,9.7827,-0.0038,0.0027,0.0122
57110,47.692547,-1.702462,71.3,29.54,5.36,167.2,14 / 22,5712197,2019-08-18 16:48:54:734,-0.5949,-0.1083,9.6662,-0.6938,-0.0178,9.7821,-0.0074,0.008,0.0112
57111,47.692547,-1.702462,71.3,29.54,5.36,167.2,14 / 22,5712297,2019-08-18 16:48:54:834,-0.6877,-0.1939,9.8823,-0.6994,-0.0218,9.7817,0.0015,0.0021,0.0102
57112,47.692547,-1.702462,71.3,29.54,5.36,167.2,14 / 22,5712397,2019-08-18 16:48:54:934,-0.7787,0.0665,9.4669,-0.7038,-0.0172,9.7813,-0.0004,-0.0008,0.0115
57113,47.692547,-1.702462,71.3,29.54,5.36,167.2,14 / 22,5712497,2019-08-18 16:48:55:034,-0.9349,0.1119,10.1163,-0.7054,-0.0171,9.7812,-0.0033,-0.0022,0.0118
57114,47.692547,-1.702462,71.3,29.54,5.36,167.2,14 / 22,5712597,2019-08-18 16:48:55:134,-0.6464,-0.1514,9.7716,-0.7037,-0.019,9.7814,-0.0056,0.0061,0.0113
57115,47.692547,-1.702462,71.3,29.54,5.36,167.2,14 / 22,5712697,2019-08-18 16:48:55:234,-1.0456,0.3861,10.7269,-0.7059,-0.0231,9.7812,-0.0093,-0.0199,0.0112
57116,47.692547,-1.702462,71.3,29.54,5.36,167.2,14 / 22,5712797,2019-08-18 16:48:55:334,-1.1617,-0.4591,9.4388,-0.6843,-0.0372,9.7827,-0.0228,0.0004,0.0094
57117,47.692547,-1.702462,71.3,29.54,5.36,167.2,14 / 22,5712897,2019-08-18 16:48:55:434,-0.5153,0.161,9.5316,-0.6859,-0.0406,9.7825,-0.0098,0.0135,0.0091
57118,47.692547,-1.702462,71.3,29.54,5.36,167.2,14 / 22,5712997,2019-08-18 16:48:55:534,-0.8325,0.0904,9.5675,-0.6896,-0.0519,9.7822,0.0034,-0.0186,0.009
57119,47.692547,-1.702462,71.3,29.54,5.36,167.2,14 / 22,5713097,2019-08-18 16:48:55:634,-0.5249,0.0976,9.5615,-0.6693,-0.0504,9.7837,-0.0115,-0.0275,0.009
57120,47.692547,-1.702462,71.3,29.54,5.36,167.2,13 / 22,5713197,2019-08-18 16:48:55:734,-0.6039,-0.1616,10.0984,-0.659,-0.0546,9.7843,-0.0141,-0.0148,0.0087
57121,47.692547,-1.702462,71.3,29.54,5.36,167.2,13 / 22,5713297,2019-08-18 16:48:55:834,-0.5775,-0.0778,10.2935,-0.6491,-0.0636,9.7849,-0.0058,0.0007,0.0101
57122,47.692547,-1.702462,71.3,29.54,5.36,167.2,13 / 22,5713397,2019-08-18 16:48:55:934,-0.7924,-0.2729,9.9805,-0.6454,-0.0788,9.7851,-0.0124,-0.0027,0.0111
57123,47.692547,-1.702462,71.3,29.54,5.36,167.2,13 / 22,5713497,2019-08-18 16:48:56:034,-0.6105,0.0557,9.771,-0.6452,-0.0817,9.7851,-0.0048,-0.0031,0.0108
57124,47.692547,-1.702462,71.3,29.54,5.36,167.2,13 / 22,5713597,2019-08-18 16:48:56:134,-0.6021,-0.012,9.5585,-0.6392,-0.0799,9.7855,0.0002,-0.009,0.0095
57125,47.692547,-1.702462,71.3,29.54,5.36,167.2,13 / 22,5713697,2019-08-18 16:48:56:234,-0.4818,-0.2173,9.8769,-0.6289,-0.0775,9.7862,0.0091,0.0005,0.0116
57126,47.692547,-1.702462,71.3,29.54,5.36,167.2,13 / 22,5713797,2019-08-18 16:48:56:334,-0.4979,0.0904,9.3903,-0.6287,-0.0758,9.7862,0.0054,-0.0013,0.0115
57127,47.692547,-1.702462,71.3,29.54,5.36,167.2,13 / 22,5713897,2019-08-18 16:48:56:434,-0.468,0.3083,9.4544,-0.6323,-0.0608,9.7861,0.0058,0.0186,0.0123
57128,47.692547,-1.702462,71.3,29.54,5.36,167.2,13 / 22,5713997,2019-08-18 16:48:56:534,-0.4453,0.0036,9.2383,-0.6417,-0.057,9.7855,-0.003,0.0091,0.0123
57129,47.692547,-1.702462,71.3,29.54,5.36,167.2,13 / 22,5714097,2019-08-18 16:48:56:634,-0.5943,0.0862,9.4532,-0.6512,-0.0591,9.7848,-0.0091,0.0078,0.0087
57130,47.692547,-1.702462,71.3,29.54,5.36,167.2,13 / 23,5714197,2019-08-18 16:48:56:734,-0.7715,-0.2286,10.1116,-0.6568,-0.0634,9.7844,-0.011,0.0117,0.0074
57131,47.692547,-1.702462,71.3,29.54,5.36,167.2,13 / 23,5714297,2019-08-18 16:48:56:834,-0.544,-0.2011,10.3588,-0.6674,-0.0696,9.7837,0.0081,-0.0002,0.011
57132,47.692547,-1.702462,71.3,29.54,5.36,167.2,13 / 23,5714397,2019-08-18 16:48:56:934,-0.6775,-0.0814,10.2893,-0.6648,-0.0626,9.7839,0.0137,-0.007,0.0116
57133,47.692547,-1.702462,71.3,29.54,5.36,167.2,13 / 23,5714497,2019-08-18 16:48:57:034,-0.5668,0.1215,10.2301,-0.6589,-0.0547,9.7843,0.0077,-0.0059,0.0113
57134,47.692547,-1.702462,71.3,29.54,5.36,167.2,13 / 23,5714599,2019-08-18 16:48:57:136,-0.5937,0.0635,9.8566,-0.6484,-0.0377,9.7851,-0.0097,-0.0023,0.0109
57135,47.692547,-1.702462,71.3,29.54,5.36,167.2,13 / 23,5714697,2019-08-18 16:48:57:234,-0.5392,0.0048,9.6968,-0.6447,-0.0418,9.7853,-0.009,0.007,0.0117
57136,47.692547,-1.702462,71.3,29.54,5.36,167.2,13 / 23,5714798,2019-08-18 16:48:57:335,-0.6135,0.0688,10.0439,-0.65,-0.0438,9.785,-0.0046,0.0087,0.0115
57137,47.692547,-1.702462,71.3,29.54,5.36,167.2,13 / 23,5714897,2019-08-18 16:48:57:434,-0.5111,-0.2023,9.6285,-0.6528,-0.0428,9.7848,-0.0005,0.0023,0.013
57138,47.692547,-1.702462,71.3,29.54,5.36,167.2,13 / 23,5714997,2019-08-18 16:48:57:534,-0.5823,0.0641,9.9152,-0.656,-0.0401,9.7846,0.0,0.0096,0.0119
57139,47.692547,-1.702462,71.3,29.54,5.36,167.2,13 / 23,5715097,2019-08-18 16:48:57:634,-0.55,-0.0353,10.0134,-0.663,-0.0344,9.7842,0.0041,-0.0042,0.0123
57140,47.692547,-1.702462,71.3,29.54,5.36,167.2,13 / 23,5715197,2019-08-18 16:48:57:734,-0.3812,0.1071,9.7758,-0.6569,-0.0284,9.7846,-0.0034,0.0096,0.0094
57141,47.692547,-1.702462,71.3,29.54,5.36,167.2,13 / 23,5715296,2019-08-18 16:48:57:833,-0.4351,-0.0168,9.938,-0.6669,-0.031,9.7839,-0.0072,0.0198,0.0097
57142,47.692547,-1.702462,71.3,29.54,5.36,167.2,13 / 23,5715397,2019-08-18 16:48:57:934,-0.6021,0.1921,9.7626,-0.6793,-0.0262,9.7831,0.0116,0.0022,0.0107
57143,47.692547,-1.702462,71.3,29.54,5.36,167.2,13 / 23,5715497,2019-08-18 16:48:58:034,-0.644,0.073,10.2181,-0.6709,-0.011,9.7837,0.0085,-0.0094,0.0106
57144,47.692547,-1.702462,71.3,29.54,5.36,167.2,13 / 23,5715598,2019-08-18 16:48:58:135,-0.4393,0.1209,10.0122,-0.6686,0.0,9.7838,0.0049,0.0006,0.0101
57145,47.692547,-1.702462,71.3,29.54,5.36,167.2,13 / 23,5715697,2019-08-18 16:48:58:234,-0.7565,0.4286,9.756,-0.6645,0.0084,9.7841,0.003,-0.0031,0.0105
57146,47.692547,-1.702462,71.3,29.54,5.36,167.2,13 / 23,5715797,2019-08-18 16:48:58:334,-0.6123,0.1646,9.27,-0.6614,0.008,9.7843,-0.0029,0.0081,0.0105
57147,47.692547,-1.702462,71.3,29.54,5.36,167.2,13 / 23,5715897,2019-08-18 16:48:58:434,-0.6536,0.2831,9.3981,-0.6688,0.0122,9.7838,0.0078,0.0086,0.0096
57148,47.692547,-1.702462,71.3,29.54,5.36,167.2,13 / 23,5715997,2019-08-18 16:48:58:534,-0.3184,0.0371,9.6201,-0.6707,0.0166,9.7837,0.0055,0.0008,0.0096
57149,47.692547,-1.702462,71.3,29.54,5.36,167.2,Oct-20,5716097,2019-08-18 16:48:58:634,-0.5099,0.3759,9.613,-0.6749,0.0301,9.7834,0.0014,0.0073,0.0073
57150,47.69026,-1.701548,70.95,29.47,5.36,162.6,Oct-20,5716197,2019-08-18 16:48:58:734,-0.8553,0.4382,9.9452,-0.6738,0.0311,9.7834,-0.0081,-0.0071,0.0039
57151,47.69026,-1.701548,70.95,29.47,5.36,162.6,Oct-20,5716297,2019-08-18 16:48:58:834,-0.5985,0.1945,9.3502,-0.6609,0.026,9.7843,-0.0091,0.0004,0.0047
57152,47.69026,-1.701548,70.95,29.47,5.36,162.6,Oct-20,5716397,2019-08-18 16:48:58:934,-0.3483,0.1449,9.9715,-0.6569,0.02,9.7846,-0.0017,-0.0108,0.0056
57153,47.69026,-1.701548,70.95,29.47,5.36,162.6,Oct-20,5716496,2019-08-18 16:48:59:033,-0.2867,0.0018,10.1235,-0.6387,0.0208,9.7858,0.0064,-0.0186,0.0054
57154,47.69026,-1.701548,70.95,29.47,5.36,162.6,Oct-20,5716596,2019-08-18 16:48:59:133,-0.738,-0.076,10.6778,-0.6261,0.031,9.7866,0.0026,-0.004,0.0087
57155,47.69026,-1.701548,70.95,29.47,5.36,162.6,Oct-20,5716697,2019-08-18 16:48:59:234,-0.3675,0.4346,9.9835,-0.6093,0.0432,9.7876,0.0037,-0.0037,0.0085
57156,47.69026,-1.701548,70.95,29.47,5.36,162.6,Oct-20,5716797,2019-08-18 16:48:59:334,-0.4117,0.0233,9.7069,-0.6099,0.0423,9.7876,-0.0083,0.0079,0.0092
57157,47.69026,-1.701548,70.95,29.47,5.36,162.6,Oct-20,5716897,2019-08-18 16:48:59:434,-0.383,0.2622,9.6273,-0.6133,0.0371,9.7874,-0.0061,0.004,0.0092
57158,47.69026,-1.701548,70.95,29.47,5.36,162.6,Oct-20,5716997,2019-08-18 16:48:59:534,-0.5943,0.249,10.0685,-0.6121,0.038,9.7875,-0.0008,-0.0122,0.0102
57159,47.69026,-1.701548,70.95,29.47,5.36,162.6,13 / 23,5717097,2019-08-18 16:48:59:634,-0.5692,0.4106,9.8386,-0.6043,0.0415,9.7879,0.0004,-0.0125,0.0078
57160,47.69026,-1.701548,70.95,29.47,5.36,162.6,13 / 23,5717197,2019-08-18 16:48:59:734,-0.6069,0.2831,9.6597,-0.5826,0.043,9.7892,-0.0057,-0.0132,0.0083
57161,47.69026,-1.701548,70.95,29.47,5.36,162.6,13 / 23,5717297,2019-08-18 16:48:59:834,-0.5506,0.1071,9.437,-0.5781,0.0378,9.7895,-0.0205,0.0082,0.0093
57162,47.69026,-1.701548,70.95,29.47,5.36,162.6,13 / 23,5717398,2019-08-18 16:48:59:935,-0.4219,-0.0575,9.4502,-0.5889,0.0259,9.7889,-0.0036,0.0159,0.0096
57163,47.69026,-1.701548,70.95,29.47,5.36,162.6,13 / 23,5717497,2019-08-18 16:49:00:034,-0.4854,-0.1239,9.7237,-0.5885,0.0221,9.789,-0.0039,0.0063,0.0088
57164,47.69026,-1.701548,70.95,29.47,5.36,162.6,13 / 23,5717597,2019-08-18 16:49:00:134,-0.3172,-0.1305,9.9368,-0.5983,0.018,9.7884,-0.0051,0.0078,0.0107
57165,47.69026,-1.701548,70.95,29.47,5.36,162.6,13 / 23,5717697,2019-08-18 16:49:00:234,-0.453,-0.0245,10.0026,-0.6016,0.0151,9.7882,-0.0045,0.0014,0.0078
57166,47.69026,-1.701548,70.95,29.47,5.36,162.6,13 / 23,5717797,2019-08-18 16:49:00:334,-0.3669,0.009,9.3311,-0.5995,0.0071,9.7883,-0.0106,0.0098,0.0029
57167,47.69026,-1.701548,70.95,29.47,5.36,162.6,13 / 23,5717897,2019-08-18 16:49:00:434,-0.6787,-0.1275,9.7949,-0.6044,0.0015,9.788,-0.0023,0.0109,0.0019
57168,47.69026,-1.701548,70.95,29.47,5.36,162.6,13 / 23,5717997,2019-08-18 16:49:00:534,-0.8188,-0.2328,10.1385,-0.5994,0.0037,9.7883,0.0102,-0.0131,0.0031
57169,47.69026,-1.701548,70.95,29.47,5.36,162.6,13 / 23,5718097,2019-08-18 16:49:00:634,-0.4417,-0.155,10.02,-0.589,0.0054,9.7889,-0.0038,-0.0153,0.003
57170,47.69026,-1.701548,70.95,29.47,5.36,162.6,13 / 23,5718197,2019-08-18 16:49:00:734,-0.3465,-0.1203,10.0697,-0.5916,-0.003,9.7888,-0.0038,0.0188,0.0078
57171,47.69026,-1.701548,70.95,29.47,5.36,162.6,13 / 23,5718297,2019-08-18 16:49:00:834,-0.3776,-0.2819,9.7698,-0.6025,-0.0041,9.7881,0.0019,0.0212,0.0097
57172,47.69026,-1.701548,70.95,29.47,5.36,162.6,13 / 23,5718396,2019-08-18 16:49:00:933,-0.483,0.1257,10.3139,-0.6225,0.0098,9.7869,0.0164,0.0051,0.0124
57173,47.69026,-1.701548,70.95,29.47,5.36,162.6,13 / 23,5718498,2019-08-18 16:49:01:035,-0.6278,0.2837,9.9308,-0.6214,0.0226,9.7869,0.0122,-0.0067,0.0119
57174,47.69026,-1.701548,70.95,29.47,5.36,162.6,13 / 23,5718597,2019-08-18 16:49:01:134,-0.5015,0.2688,9.8033,-0.6133,0.0398,9.7874,0.0015,0.0009,0.0112
57175,47.69026,-1.701548,70.95,29.47,5.36,162.6,13 / 23,5718697,2019-08-18 16:49:01:234,-0.6787,0.2113,9.5142,-0.6156,0.0416,9.7872,0.0037,0.0075,0.0092
57176,47.69026,-1.701548,70.95,29.47,5.36,162.6,13 / 23,5718797,2019-08-18 16:49:01:334,-0.7829,0.2227,9.5483,-0.6197,0.0438,9.787,-0.0009,0.0021,0.007
57177,47.69026,-1.701548,70.95,29.47,5.36,162.6,13 / 23,5718897,2019-08-18 16:49:01:434,-0.6189,-0.0347,9.6662,-0.6285,0.0449,9.7864,-0.0025,0.0095,0.008
57178,47.69026,-1.701548,70.95,29.47,5.36,162.6,13 / 23,5718997,2019-08-18 16:49:01:534,-0.392,-0.2185,9.9601,-0.6336,0.0527,9.786,0.0112,0.0046,0.0105
57179,47.69026,-1.701548,70.95,29.47,5.36,162.6,13 / 23,5719097,2019-08-18 16:49:01:634,-0.5997,0.0264,9.762,-0.6366,0.0564,9.7858,-0.0031,0.0127,0.0092
57180,47.69026,-1.701548,70.95,29.47,5.36,162.6,13 / 23,5719197,2019-08-18 16:49:01:734,-0.5913,0.0533,9.9464,-0.6588,0.051,9.7844,-0.0064,0.0071,0.0092
57181,47.69026,-1.701548,70.95,29.47,5.36,162.6,13 / 23,5719297,2019-08-18 16:49:01:834,-0.8152,0.2101,9.8602,-0.6615,0.0486,9.7842,-0.0038,-0.0066,0.0101
57182,47.69026,-1.701548,70.95,29.47,5.36,162.6,13 / 23,5719398,2019-08-18 16:49:01:935,-0.9151,0.1347,9.8189,-0.653,0.0459,9.7848,-0.0011,-0.014,0.012
57183,47.69026,-1.701548,70.95,29.47,5.36,162.6,13 / 23,5719497,2019-08-18 16:49:02:034,-1.0247,0.1502,10.0559,-0.646,0.0465,9.7852,-0.0016,-0.0177,0.0128
57184,47.69026,-1.701548,70.95,29.47,5.36,162.6,13 / 23,5719597,2019-08-18 16:49:02:134,-1.0253,0.1209,9.6944,-0.6383,0.0369,9.7858,-0.0191,0.0004,0.0142
57185,47.69026,-1.701548,70.95,29.47,5.36,162.6,13 / 23,5719697,2019-08-18 16:49:02:234,-0.717,-0.0389,10.0631,-0.6475,0.0281,9.7852,-0.0119,0.0074,0.0156
57186,47.69026,-1.701548,70.95,29.47,5.36,162.6,13 / 23,5719797,2019-08-18 16:49:02:334,-0.8433,-0.076,10.2923,-0.6492,0.0285,9.7851,-0.0002,-0.0102,0.0175
57187,47.69026,-1.701548,70.95,29.47,5.36,162.6,13 / 23,5719897,2019-08-18 16:49:02:434,-0.8307,0.1287,9.9919,-0.6505,0.0289,9.785,-0.0074,0.0009,0.0167
57188,47.69026,-1.701548,70.95,29.47,5.36,162.6,13 / 23,5719997,2019-08-18 16:49:02:534,-1.0522,0.0299,10.0625,-0.658,0.0271,9.7845,-0.0001,0.0069,0.0161
57189,47.69026,-1.701548,70.95,29.47,5.36,162.6,13 / 22,5720097,2019-08-18 16:49:02:634,-1.1426,0.1712,9.3825,-0.6771,0.0298,9.7832,-0.0079,0.0134,0.0152
57190,47.69026,-1.701548,70.95,29.47,5.36,162.6,13 / 22,5720197,2019-08-18 16:49:02:734,-0.8421,0.1748,9.5423,-0.688,0.0261,9.7825,0.0013,0.006,0.0138
57191,47.69026,-1.701548,70.95,29.47,5.36,162.6,13 / 22,5720297,2019-08-18 16:49:02:834,-0.9456,0.24,9.7159,-0.6948,0.0347,9.7819,0.009,-0.0089,0.0151
57192,47.69026,-1.701548,70.95,29.47,5.36,162.6,13 / 22,5720397,2019-08-18 16:49:02:934,-0.8768,0.0611,9.9128,-0.6893,0.0392,9.7823,-0.0023,-0.0051,0.0137
57193,47.69026,-1.701548,70.95,29.47,5.36,162.6,13 / 22,5720497,2019-08-18 16:49:03:034,-0.7811,-0.1119,9.8159,-0.6927,0.0398,9.7821,-0.0004,0.0051,0.0124
57194,47.69026,-1.701548,70.95,29.47,5.36,162.6,13 / 22,5720597,2019-08-18 16:49:03:134,-0.5955,-0.1981,9.8638,-0.6959,0.0406,9.7818,0.0071,0.0001,0.0069
57195,47.69026,-1.701548,70.95,29.47,5.36,162.6,13 / 22,5720697,2019-08-18 16:49:03:234,-0.8116,0.1071,10.032,-0.6989,0.042,9.7816,-0.0015,0.0048,0.0049
57196,47.69026,-1.701548,70.95,29.47,5.36,162.6,13 / 22,5720797,2019-08-18 16:49:03:334,-0.7332,-0.1359,10.0589,-0.7017,0.0385,9.7814,0.0048,0.0057,0.0056
57197,47.69026,-1.701548,70.95,29.47,5.36,162.6,13 / 22,5720897,2019-08-18 16:49:03:434,-0.6254,-0.0581,9.5693,-0.7067,0.0422,9.7811,0.0041,0.006,0.0063
57198,47.69026,-1.701548,70.95,29.47,5.36,162.6,13 / 22,5720997,2019-08-18 16:49:03:534,-0.6919,0.0168,9.5968,-0.711,0.0434,9.7807,0.008,0.0021,0.0077
57199,47.69026,-1.701548,70.95,29.47,5.36,162.6,13 / 22,5721097,2019-08-18 16:49:03:634,-0.6931,-0.0844,9.8638,-0.7028,0.0492,9.7813,0.0019,-0.0124,0.0078
57200,47.69026,-1.701548,70.95,29.47,5.36,162.6,14 / 22,5721197,2019-08-18 16:49:03:734,-0.7278,-0.0928,9.5567,-0.6955,0.0481,9.7818,-0.0051,-0.0011,0.0084
57201,47.69026,-1.701548,70.95,29.47,5.36,162.6,14 / 22,5721296,2019-08-18 16:49:03:833,-0.5793,-0.2274,9.7459,-0.7034,0.0335,9.7813,-0.0146,0.0058,0.0083
57202,47.69026,-1.701548,70.95,29.47,5.36,162.6,14 / 22,5721397,2019-08-18 16:49:03:934,-0.7056,-0.097,10.0182,-0.709,0.0233,9.781,-0.0123,0.0047,0.0081
57203,47.69026,-1.701548,70.95,29.47,5.36,162.6,14 / 22,5721497,2019-08-18 16:49:04:034,-0.8014,0.0545,9.859,-0.7117,0.0072,9.7808,-0.0107,-0.0013,0.0095
57204,47.69026,-1.701548,70.95,29.47,5.36,162.6,14 / 22,5721600,2019-08-18 16:49:04:137,-0.7236,-0.003,9.8793,-0.71,0.0085,9.7809,0.0019,-0.0013,0.0128
57205,47.69026,-1.701548,70.95,29.47,5.36,162.6,14 / 22,5721697,2019-08-18 16:49:04:234,-0.8217,0.1646,9.5124,-0.713,0.013,9.7807,-0.0019,0.0067,0.0108
57206,47.69026,-1.701548,70.95,29.47,5.36,162.6,14 / 22,5721796,2019-08-18 16:49:04:333,-0.9217,0.0623,9.537,-0.7188,0.0119,9.7803,-0.0002,0.0079,0.0111
57207,47.69026,-1.701548,70.95,29.47,5.36,162.6,14 / 22,5721897,2019-08-18 16:49:04:434,-0.8631,0.2496,9.8284,-0.7267,0.0172,9.7797,-0.0074,-0.0047,0.0127
57208,47.69026,-1.701548,70.95,29.47,5.36,162.6,14 / 22,5721998,2019-08-18 16:49:04:535,-0.8511,-0.0425,10.3097,-0.7286,0.0155,9.7795,-0.0051,0.0,0.0128
57209,47.69026,-1.701548,70.95,29.47,5.36,162.6,14 / 22,5722097,2019-08-18 16:49:04:634,-0.9289,-0.3238,9.8721,-0.7382,0.0251,9.7788,0.0067,-0.0012,0.0155
57210,47.69026,-1.701548,70.95,29.47,5.36,162.6,13 / 23,5722196,2019-08-18 16:49:04:733,-0.9618,0.167,10.2253,-0.7342,0.0288,9.7791,-0.0007,0.0009,0.0157
57211,47.69026,-1.701548,70.95,29.47,5.36,162.6,13 / 23,5722297,2019-08-18 16:49:04:834,-1.0187,-0.0533,9.8967,-0.7491,0.0328,9.7779,0.0008,0.0107,0.0168
57212,47.69026,-1.701548,70.95,29.47,5.36,162.6,13 / 23,5722397,2019-08-18 16:49:04:934,-0.9055,0.1419,9.686,-0.7611,0.0363,9.777,-0.0084,-0.0024,0.0182
57213,47.69026,-1.701548,70.95,29.47,5.36,162.6,13 / 23,5722497,2019-08-18 16:49:05:034,-1.1264,0.2298,9.5376,-0.7644,0.0269,9.7768,-0.0065,0.0051,0.0178
57214,47.69026,-1.701548,70.95,29.47,5.36,162.6,13 / 23,5722597,2019-08-18 16:49:05:134,-1.1144,0.1131,9.3125,-0.7734,0.0244,9.7761,-0.001,0.0137,0.0166
57215,47.69026,-1.701548,70.95,29.47,5.36,162.6,13 / 23,5722697,2019-08-18 16:49:05:234,-1.0217,-0.0066,9.6836,-0.791,0.0274,9.7747,0.007,-0.0063,0.0124
57216,47.69026,-1.701548,70.95,29.47,5.36,162.6,13 / 23,5722797,2019-08-18 16:49:05:334,-0.9037,-0.1862,10.0349,-0.7909,0.0315,9.7747,0.0071,-0.0005,0.0078
57217,47.69026,-1.701548,70.95,29.47,5.36,162.6,13 / 23,5722897,2019-08-18 16:49:05:434,-0.8589,-0.1837,10.023,-0.8055,0.0401,9.7734,0.0018,0.0042,0.0069
57218,47.69026,-1.701548,70.95,29.47,5.36,162.6,13 / 23,5722997,2019-08-18 16:49:05:534,-1.1156,-0.0934,10.0349,-0.8066,0.0332,9.7734,-0.0114,0.0,0.0055
57219,47.69026,-1.701548,70.95,29.47,5.36,162.6,13 / 23,5723097,2019-08-18 16:49:05:634,-0.969,0.0102,9.8835,-0.8113,0.0271,9.773,-0.0008,-0.0049,0.0063
57220,47.69026,-1.701548,70.95,29.47,5.36,162.6,Nov-21,5723197,2019-08-18 16:49:05:734,-1.0289,-0.006,9.537,-0.8052,0.0187,9.7735,-0.0108,-0.0199,0.0063
57221,47.69026,-1.701548,70.95,29.47,5.36,162.6,Nov-21,5723298,2019-08-18 16:49:05:835,-0.9133,-0.1173,9.1252,-0.7943,0.0056,9.7744,-0.0325,0.0023,0.0061
57222,47.69026,-1.701548,70.95,29.47,5.36,162.6,Nov-21,5723397,2019-08-18 16:49:05:934,-1.0821,-0.4256,10.0314,-0.8009,-0.0289,9.7738,-0.0167,0.0062,0.0092
57223,47.69026,-1.701548,70.95,29.47,5.36,162.6,Nov-21,5723497,2019-08-18 16:49:06:034,-0.8313,-0.1383,9.3813,-0.8,-0.0336,9.7739,-0.0028,0.0037,0.0109
57224,47.69026,-1.701548,70.95,29.47,5.36,162.6,Nov-21,5723597,2019-08-18 16:49:06:134,-0.55,-0.2412,9.768,-0.8078,-0.0395,9.7732,-0.0084,0.0053,0.0103
57225,47.69026,-1.701548,70.95,29.47,5.36,162.6,Nov-21,5723697,2019-08-18 16:49:06:234,-0.7769,-0.146,10.3103,-0.8128,-0.0418,9.7728,0.0077,-0.0067,0.0114
57226,47.69026,-1.701548,70.95,29.47,5.36,162.6,Nov-21,5723797,2019-08-18 16:49:06:334,-0.7553,0.0527,9.9176,-0.803,-0.0331,9.7737,0.0033,-0.0049,0.0104
57227,47.69026,-1.701548,70.95,29.47,5.36,162.6,Nov-21,5723897,2019-08-18 16:49:06:434,-0.9091,0.2448,10.0086,-0.8031,-0.0297,9.7737,0.0029,0.0005,0.0108
57228,47.69026,-1.701548,70.95,29.47,5.36,162.6,Nov-21,5723997,2019-08-18 16:49:06:534,-0.8589,-0.018,9.3706,-0.8037,-0.0277,9.7736,-0.0015,-0.0003,0.0098
57229,47.69026,-1.701548,70.95,29.47,5.36,162.6,Nov-21,5724097,2019-08-18 16:49:06:634,-0.869,-0.1915,9.847,-0.8073,-0.0271,9.7733,0.0008,0.0021,0.0105
57230,47.69026,-1.701548,70.95,29.47,5.36,162.6,Nov-21,5724197,2019-08-18 16:49:06:734,-1.0743,-0.1401,10.1002,-0.8093,-0.0195,9.7732,0.0141,-0.0033,0.0127
57231,47.69026,-1.701548,70.95,29.47,5.36,162.6,Nov-21,5724297,2019-08-18 16:49:06:834,-0.8331,-0.0539,9.9236,-0.8082,-0.0125,9.7733,0.0043,0.0009,0.0146
57232,47.69026,-1.701548,70.95,29.47,5.36,162.6,Nov-21,5724397,2019-08-18 16:49:06:934,-0.9642,0.2502,9.9697,-0.8146,-0.0111,9.7728,-0.0058,-0.0039,0.0128
57233,47.69026,-1.701548,70.95,29.47,5.36,162.6,Nov-21,5724497,2019-08-18 16:49:07:034,-0.9277,0.164,9.7225,-0.8142,-0.0127,9.7728,-0.0023,0.0099,0.0136
57234,47.69026,-1.701548,70.95,29.47,5.36,162.6,Nov-21,5724597,2019-08-18 16:49:07:134,-0.9552,-0.0132,9.5346,-0.8262,-0.0224,9.7718,-0.0137,-0.0001,0.0126
57235,47.69026,-1.701548,70.95,29.47,5.36,162.6,Nov-21,5724697,2019-08-18 16:49:07:234,-0.9612,-0.0347,9.3173,-0.8309,-0.0303,9.7713,-0.0068,0.0087,0.0127
57236,47.69026,-1.701548,70.95,29.47,5.36,162.6,Nov-21,5724797,2019-08-18 16:49:07:334,-0.8714,-0.1197,9.4807,-0.8404,-0.0416,9.7705,-0.016,-0.0021,0.0119
57237,47.69026,-1.701548,70.95,29.47,5.36,162.6,Nov-21,5724897,2019-08-18 16:49:07:434,-1.0366,-0.3609,9.9476,-0.8393,-0.0528,9.7705,-0.0094,-0.0018,0.0084
57238,47.69026,-1.701548,70.95,29.47,5.36,162.6,Nov-21,5724997,2019-08-18 16:49:07:534,-1.1019,-0.1556,10.1301,-0.8406,-0.0557,9.7704,-0.0024,-0.0048,0.0062
57239,47.69026,-1.701548,70.95,29.47,5.36,162.6,Nov-21,5725097,2019-08-18 16:49:07:634,-1.0079,-0.2424,9.6986,-0.8324,-0.0581,9.7711,0.0028,-0.0106,0.0065
57240,47.68802,-1.700368,73.64,29.48,8.576,157.5,Nov-21,5725197,2019-08-18 16:49:07:734,-0.905,-0.2251,9.7422,-0.8404,-0.0671,9.7703,-0.0098,0.0081,0.0074
57241,47.68802,-1.700368,73.64,29.48,8.576,157.5,Nov-21,5725296,2019-08-18 16:49:07:833,-0.8469,-0.3789,9.6022,-0.8438,-0.0712,9.77,-0.0046,-0.0125,0.0052
57242,47.68802,-1.700368,73.64,29.48,8.576,157.5,Nov-21,5725396,2019-08-18 16:49:07:933,-0.4938,-0.1526,9.674,-0.8302,-0.0892,9.771,-0.0157,-0.0056,0.0039
57243,47.68802,-1.700368,73.64,29.48,8.576,157.5,Nov-21,5725497,2019-08-18 16:49:08:034,-0.6805,-0.3382,9.5322,-0.8289,-0.1053,9.771,-0.0147,-0.0014,0.0002
57244,47.68802,-1.700368,73.64,29.48,8.576,157.5,Nov-21,5725597,2019-08-18 16:49:08:134,-0.811,-0.088,9.832,-0.8264,-0.1205,9.771,-0.0147,-0.0014,0.0002
57245,47.68802,-1.700368,73.64,29.48,8.576,157.5,Nov-21,5725697,2019-08-18 16:49:08:234,-0.4315,-0.3687,9.7291,-0.8278,-0.1313,9.7708,-0.0038,0.0051,0.0046
57246,47.68802,-1.700368,73.64,29.48,8.576,157.5,Nov-21,5725797,2019-08-18 16:49:08:334,-0.6865,-0.1999,10.011,-0.8393,-0.129,9.7698,0.0157,-0.0064,0.0066
57247,47.68802,-1.700368,73.64,29.48,8.576,157.5,Nov-21,5725897,2019-08-18 16:49:08:434,-0.8206,-0.0844,10.1427,-0.8291,-0.1204,9.7708,0.0106,-0.0145,0.0069
57248,47.68802,-1.700368,73.64,29.48,8.576,157.5,Nov-21,5725997,2019-08-18 16:49:08:534,-1.0019,0.0186,9.9344,-0.8222,-0.1052,9.7716,0.0135,0.0042,0.0134
57249,47.68802,-1.700368,73.64,29.48,8.576,157.5,Nov-22,5726097,2019-08-18 16:49:08:634,-0.6608,-0.0952,10.2103,-0.8242,-0.0936,9.7715,0.0111,0.0013,0.0151
57250,47.68802,-1.700368,73.64,29.48,8.576,157.5,Nov-22,5726197,2019-08-18 16:49:08:734,-0.905,0.0365,10.0547,-0.8239,-0.0778,9.7717,0.0033,0.0021,0.0159
57251,47.68802,-1.700368,73.64,29.48,8.576,157.5,Nov-22,5726297,2019-08-18 16:49:08:834,-0.6769,0.3113,9.8213,-0.8251,-0.0701,9.7716,0.0026,0.0016,0.0167
57252,47.68802,-1.700368,73.64,29.48,8.576,157.5,Nov-22,5726397,2019-08-18 16:49:08:934,-0.6655,0.3226,9.5789,-0.825,-0.0658,9.7717,0.0043,0.0073,0.0179
57253,47.68802,-1.700368,73.64,29.48,8.576,157.5,Nov-22,5726497,2019-08-18 16:49:09:034,-0.9157,0.3585,8.9516,-0.8354,-0.049,9.7709,0.0069,0.0164,0.0182
57254,47.68802,-1.700368,73.64,29.48,8.576,157.5,Nov-22,5726597,2019-08-18 16:49:09:134,-1.0815,0.5309,9.3059,-0.8445,-0.0387,9.7701,0.0034,0.0037,0.0178
57255,47.68802,-1.700368,73.64,29.48,8.576,157.5,Nov-22,5726697,2019-08-18 16:49:09:234,-0.5728,0.1886,9.5531,-0.8504,-0.022,9.7697,0.0036,0.0091,0.0169
57256,47.68802,-1.700368,73.64,29.48,8.576,157.5,Nov-22,5726797,2019-08-18 16:49:09:334,-0.8014,0.091,9.9428,-0.8609,-0.0197,9.7688,-0.0059,0.0113,0.0137
57257,47.68802,-1.700368,73.64,29.48,8.576,157.5,Nov-22,5726897,2019-08-18 16:49:09:434,-0.7625,0.1054,10.3576,-0.8678,-0.0202,9.7682,-0.0024,-0.0037,0.009
57258,47.68802,-1.700368,73.64,29.48,8.576,157.5,Nov-22,5726997,2019-08-18 16:49:09:534,-0.6883,0.106,9.7195,-0.8633,-0.0195,9.7686,-0.0029,-0.0025,0.0078
57259,47.68802,-1.700368,73.64,29.48,8.576,157.5,Nov-22,5727097,2019-08-18 16:49:09:634,-0.7104,0.2323,9.4879,-0.8609,-0.0243,9.7688,-0.0111,0.0085,0.0076
57260,47.68802,-1.700368,73.64,29.48,8.576,157.5,13 / 23,5727197,2019-08-18 16:49:09:734,-0.8672,-0.0084,9.5262,-0.8623,-0.0245,9.7686,0.0049,-0.0078,0.0084
57261,47.68802,-1.700368,73.64,29.48,8.576,157.5,13 / 23,5727297,2019-08-18 16:49:09:834,-0.5416,-0.234,9.601,-0.8571,-0.0126,9.7691,0.0123,0.0071,0.0094
57262,47.68802,-1.700368,73.64,29.48,8.576,157.5,13 / 23,5727397,2019-08-18 16:49:09:934,-0.6643,-0.2298,9.9488,-0.8537,-0.0128,9.7694,-0.0013,-0.0062,-0.0022
57263,47.68802,-1.700368,73.64,29.48,8.576,157.5,13 / 23,5727498,2019-08-18 16:49:10:035,-0.4991,-0.1215,9.6561,-0.8364,-0.0321,9.7709,-0.0055,-0.0007,-0.0132
57264,47.68802,-1.700368,73.64,29.48,8.576,157.5,13 / 23,5727597,2019-08-18 16:49:10:134,-0.6302,-0.3807,10.0062,-0.8312,-0.0401,9.7713,0.0004,-0.0086,-0.0128
57265,47.68802,-1.700368,73.64,29.48,8.576,157.5,13 / 23,5727697,2019-08-18 16:49:10:234,-0.4249,-0.7225,10.0044,-0.7999,-0.0597,9.7738,0.0009,-0.0078,-0.009
57266,47.68802,-1.700368,73.64,29.48,8.576,157.5,13 / 23,5727797,2019-08-18 16:49:10:334,-0.4279,-0.5213,10.1104,-0.7923,-0.0634,9.7744,0.002,-0.007,-0.0057
57267,47.68802,-1.700368,73.64,29.48,8.576,157.5,13 / 23,5727897,2019-08-18 16:49:10:434,-0.5368,-0.431,10.2941,-0.7736,-0.0749,9.7758,0.002,-0.0035,-0.0007
57268,47.68802,-1.700368,73.64,29.48,8.576,157.5,13 / 23,5727997,2019-08-18 16:49:10:534,-0.4614,-0.1838,9.8566,-0.7669,-0.0766,9.7763,0.0018,-0.0022,0.001
57269,47.68802,-1.700368,73.64,29.48,8.576,157.5,13 / 22,5728097,2019-08-18 16:49:10:634,-0.5422,-0.0479,9.6525,-0.7706,-0.0785,9.776,0.0024,0.0172,0.0027
57270,47.68802,-1.700368,73.64,29.48,8.576,157.5,13 / 22,5728197,2019-08-18 16:49:10:734,-0.6272,-0.161,9.2431,-0.7784,-0.08,9.7754,-0.0015,0.0132,0.0022
57271,47.68802,-1.700368,73.64,29.48,8.576,157.5,13 / 22,5728297,2019-08-18 16:49:10:834,-0.8295,-0.0371,9.3298,-0.7813,-0.0867,9.7751,-0.0053,0.0074,0.0031
57272,47.68802,-1.700368,73.64,29.48,8.576,157.5,13 / 22,5728397,2019-08-18 16:49:10:934,-0.9121,-0.4016,9.8542,-0.7908,-0.0947,9.7743,0.0057,0.0076,0.0024
57273,47.68802,-1.700368,73.64,29.48,8.576,157.5,13 / 22,5728496,2019-08-18 16:49:11:033,-0.7284,-0.4776,9.9559,-0.8016,-0.0943,9.7734,0.0074,0.0009,0.0024
57274,47.68802,-1.700368,73.64,29.48,8.576,157.5,13 / 22,5728597,2019-08-18 16:49:11:134,-0.9792,-0.2125,10.3241,-0.8085,-0.0989,9.7728,-0.0032,0.0045,0.0023
57275,47.68802,-1.700368,73.64,29.48,8.576,157.5,13 / 22,5728697,2019-08-18 16:49:11:234,-0.984,-0.1724,10.3606,-0.8132,-0.1028,9.7723,0.0054,-0.0027,0.0068
57276,47.68802,-1.700368,73.64,29.48,8.576,157.5,13 / 22,5728797,2019-08-18 16:49:11:334,-0.9546,-0.2604,9.7147,-0.8164,-0.0974,9.7721,0.0048,0.0009,0.0079
57277,47.68802,-1.700368,73.64,29.48,8.576,157.5,13 / 22,5728897,2019-08-18 16:49:11:434,-1.0695,-0.1371,9.7279,-0.8279,-0.0908,9.7712,0.0107,0.0026,0.0087
57278,47.68802,-1.700368,73.64,29.48,8.576,157.5,13 / 22,5728997,2019-08-18 16:49:11:534,-1.1988,-0.3687,9.3107,-0.8362,-0.088,9.7705,-0.0088,0.0157,0.0084
57279,47.68802,-1.700368,73.64,29.48,8.576,157.5,Dec-21,5729097,2019-08-18 16:49:11:634,-0.89,-0.4555,9.6609,-0.8605,-0.1189,9.7681,-0.0188,-0.0009,0.0059
57280,47.68802,-1.700368,73.64,29.48,8.576,157.5,Dec-21,5729197,2019-08-18 16:49:11:734,-1.0773,-0.2879,10.0254,-0.8663,-0.1274,9.7675,-0.0037,-0.0047,0.0083
57281,47.68802,-1.700368,73.64,29.48,8.576,157.5,Dec-21,5729298,2019-08-18 16:49:11:835,-1.0929,-0.1293,9.6273,-0.873,-0.1289,9.7669,0.0036,0.0059,0.0092
57282,47.68802,-1.700368,73.64,29.48,8.576,157.5,Dec-21,5729397,2019-08-18 16:49:11:934,-1.1151,-0.3843,10.0924,-0.8768,-0.1301,9.7665,-0.0025,-0.0031,0.0095
57283,47.68802,-1.700368,73.64,29.48,8.576,157.5,Dec-21,5729498,2019-08-18 16:49:12:035,-1.1911,-0.1035,9.786,-0.878,-0.1301,9.7664,0.0067,-0.0172,0.0096
57284,47.68802,-1.700368,73.64,29.48,8.576,157.5,Dec-21,5729597,2019-08-18 16:49:12:134,-1.1851,-0.2789,9.7854,-0.8654,-0.1247,9.7676,-0.0042,-0.0082,0.0084
57285,47.68802,-1.700368,73.64,29.48,8.576,157.5,Dec-21,5729697,2019-08-18 16:49:12:234,-0.875,-0.2197,10.342,-0.8677,-0.1288,9.7673,-0.01,0.0023,0.0069
57286,47.68802,-1.700368,73.64,29.48,8.576,157.5,Dec-21,5729797,2019-08-18 16:49:12:334,-1.2593,-0.2765,9.9224,-0.8726,-0.1417,9.7667,-0.0036,-0.0043,0.0084
57287,47.68802,-1.700368,73.64,29.48,8.576,157.5,Dec-21,5729897,2019-08-18 16:49:12:434,-0.9091,0.0449,9.4615,-0.8726,-0.1431,9.7667,-0.0007,0.0085,0.0111
57288,47.68802,-1.700368,73.64,29.48,8.576,157.5,Dec-21,5729997,2019-08-18 16:49:12:534,-1.0965,0.0946,9.5603,-0.8864,-0.1439,9.7654,0.0039,0.0018,0.0105
57289,47.68802,-1.700368,73.64,29.48,8.576,157.5,Dec-21,5730097,2019-08-18 16:49:12:634,-1.0636,0.0934,9.6944,-0.8913,-0.1423,9.765,0.0039,0.0018,0.0105
57290,47.68802,-1.700368,73.64,29.48,8.576,157.5,Dec-21,5730197,2019-08-18 16:49:12:734,-0.8894,-0.1413,9.8051,-0.8899,-0.1341,9.7653,0.0019,0.0007,0.0087
57291,47.68802,-1.700368,73.64,29.48,8.576,157.5,Dec-21,5730297,2019-08-18 16:49:12:834,-1.0959,-0.2783,10.3594,-0.8937,-0.1333,9.7649,0.0,0.0014,0.0088
57292,47.68802,-1.700368,73.64,29.48,8.576,157.5,Dec-21,5730397,2019-08-18 16:49:12:934,-0.8481,-0.2298,10.0361,-0.9036,-0.1299,9.7641,0.0026,0.0087,0.0072
57293,47.68802,-1.700368,73.64,29.48,8.576,157.5,Dec-21,5730497,2019-08-18 16:49:13:034,-0.8756,-0.2999,9.4885,-0.9132,-0.1321,9.7631,-0.0061,0.0018,0.0067
57294,47.68802,-1.700368,73.64,29.48,8.576,157.5,Dec-21,5730597,2019-08-18 16:49:13:134,-1.2156,0.0605,9.9518,-0.9107,-0.1347,9.7633,0.0056,-0.0093,0.006
57295,47.68802,-1.700368,73.64,29.48,8.576,157.5,Dec-21,5730697,2019-08-18 16:49:13:234,-0.9654,-0.164,9.4077,-0.9062,-0.1303,9.7638,0.002,0.0013,0.0061
57296,47.68802,-1.700368,73.64,29.48,8.576,157.5,Dec-21,5730797,2019-08-18 16:49:13:334,-0.893,-0.401,9.4687,-0.9126,-0.1338,9.7632,0.0006,0.0071,0.0061
57297,47.68802,-1.700368,73.64,29.48,8.576,157.5,Dec-21,5730897,2019-08-18 16:49:13:434,-1.0336,-0.0239,10.3504,-0.9196,-0.1327,9.7625,0.0086,0.0112,0.0069
57298,47.68802,-1.700368,73.64,29.48,8.576,157.5,Dec-21,5730997,2019-08-18 16:49:13:534,-0.823,-0.0006,10.0505,-0.9252,-0.1216,9.7621,0.0052,0.0007,0.0073
57299,47.68802,-1.700368,73.64,29.48,8.576,157.5,14 / 22,5731097,2019-08-18 16:49:13:634,-0.9965,-0.0359,9.5525,-0.928,-0.1174,9.7619,0.0079,0.0019,0.0084
57300,47.68802,-1.700368,73.64,29.48,8.576,157.5,14 / 22,5731197,2019-08-18 16:49:13:734,-1.0941,-0.2077,10.3181,-0.9325,-0.1044,9.7617,0.0103,-0.0077,0.0109
57301,47.68802,-1.700368,73.64,29.48,8.576,157.5,14 / 22,5731297,2019-08-18 16:49:13:834,-1.0995,-0.2352,10.2905,-0.9264,-0.0975,9.7623,0.0102,-0.0185,0.0078
57302,47.68802,-1.700368,73.64,29.48,8.576,157.5,14 / 22,5731397,2019-08-18 16:49:13:934,-1.0079,-0.1,10.6658,-0.9089,-0.0924,9.764,-0.0047,-0.0084,0.0096
57303,47.68802,-1.700368,73.64,29.48,8.576,157.5,14 / 22,5731497,2019-08-18 16:49:14:034,-1.1055,-0.067,9.5645,-0.9135,-0.0962,9.7635,-0.0145,0.0088,0.0102
57304,47.68802,-1.700368,73.64,29.48,8.576,157.5,14 / 22,5731597,2019-08-18 16:49:14:134,-1.1198,-0.1227,9.4478,-0.9323,-0.1129,9.7616,-0.0159,0.0005,0.0096
57305,47.68802,-1.700368,73.64,29.48,8.576,157.5,14 / 22,5731697,2019-08-18 16:49:14:234,-1.3365,-0.0006,9.6435,-0.9302,-0.121,9.7617,-0.0085,-0.0077,0.0087
57306,47.68802,-1.700368,73.64,29.48,8.576,157.5,14 / 22,5731797,2019-08-18 16:49:14:334,-1.1911,-0.3029,9.7147,-0.9294,-0.129,9.7617,-0.0075,-0.0028,0.0092
57307,47.68802,-1.700368,73.64,29.48,8.576,157.5,14 / 22,5731897,2019-08-18 16:49:14:434,-1.1719,-0.1359,9.9685,-0.9384,-0.135,9.7607,-0.0056,0.0075,0.0105
57308,47.68802,-1.700368,73.64,29.48,8.576,157.5,14 / 22,5731997,2019-08-18 16:49:14:534,-1.227,-0.1634,10.2073,-0.9412,-0.1467,9.7603,-0.0077,-0.0063,0.0113
57309,47.68802,-1.700368,73.64,29.48,8.576,157.5,13 / 22,5732097,2019-08-18 16:49:14:634,-1.2713,-0.0413,9.2616,-0.9416,-0.1483,9.7602,-0.0055,-0.0012,0.0088
