,GPS LATITUDE (degrees), GPS LONGITUDE (degrees), GPS ALTITUDE (m), GPS SPEED (Kmh), GPS ACCURACY (m), GPS ORIENTATION (Â°),GPS SATELLITES IN RANGE, TIME SINCE START (ms), DATE (YYYY-MO-DD HH-MI-SS_SSS), ACCELEROMETER X (m/s²) , ACCELEROMETER Y (m/s²), ACCELEROMETER Z (m/s²), GRAVITY X (m/s²), GRAVITY Y (m/s²), GRAVITY Z (m/s²), GYROSCOPE Yaw (rad/s), GYROSCOPE Pitch (rad/s), GYROSCOPE Roll (rad/s), MAGNETIC FIELD X (Î¼T), MAGNETIC FIELD Y (Î¼T), MAGNETIC FIELD Z (Î¼T), ORIENTATION (Yaw) (Â°), ORIENTATION (Pitch) (Â°), ORIENTATION (Roll ) (Â°)
55089,51.41291,-2.851441,53,21.55,10,190.7,15 / 20,5508923,2019-08-16 14:21:02:703,-0.1272,0.1978,8.6421,0.0224,-0.005,9.8066,-0.0042,-0.0751,0.0048,-18.29,-3.6,-23.5,169.98,8.52,1.84
55090,51.41291,-2.851441,53,21.55,10,190.7,15 / 20,5509023,2019-08-16 14:21:02:803,0.2434,-0.24,10.4634,0.0366,-0.0135,9.8066,0.0096,-0.0282,-0.0037,-18.29,-3.6,-23.5,169.98,8.52,1.84
55091,51.41291,-2.851441,53,21.55,10,190.7,15 / 20,5509123,2019-08-16 14:21:02:903,0.389,-0.1475,10.1575,0.0304,-0.0025,9.8066,-0.0106,0.007,0.0048,-18.88,-2.24,-23.21,173.03,8.74,1.8
55092,51.41291,-2.851441,53,21.55,10,190.7,15 / 20,5509223,2019-08-16 14:21:03:003,-0.1749,0.0695,10.2033,0.0187,-0.0139,9.8066,-0.0117,0.04,-0.0005,-18.61,-3.12,-23.32,170.59,8.86,1.74
55093,51.41291,-2.851441,53,21.55,10,190.7,15 / 20,5509323,2019-08-16 14:21:03:103,-0.0642,0.0906,10.0341,-0.0258,-0.0082,9.8066,0.0032,0.0442,0.0197,-18.0,-3.55,-23.74,167.63,8.72,1.66
55094,51.41291,-2.851441,53,21.55,10,190.7,15 / 20,5509423,2019-08-16 14:21:03:203,-0.1042,0.0542,9.5444,0.0006,-0.0016,9.8067,-0.0032,0.0219,0.0069,-18.0,-3.55,-23.74,167.63,8.72,1.66
55095,51.41291,-2.851441,53,21.55,10,190.7,15 / 20,5509524,2019-08-16 14:21:03:304,0.1687,-0.3515,8.4539,0.0045,0.0082,9.8066,0.0203,-0.0229,0.0144,-18.29,-3.6,-23.5,167.64,8.72,1.65
55096,51.41291,-2.851441,53,21.55,10,190.7,15 / 20,5509623,2019-08-16 14:21:03:403,0.208,0.2551,10.471,-0.0027,0.0108,9.8066,-0.0042,-0.0058,0.0133,-18.29,-3.6,-23.5,167.64,8.72,1.65
55097,51.41291,-2.851441,53,21.55,10,190.7,15 / 20,5509723,2019-08-16 14:21:03:503,-0.7404,0.374,10.1441,0.0085,-0.0013,9.8066,-0.0213,-0.0303,0.0016,-18.04,-3.55,-23.71,167.57,8.69,1.71
55098,51.412712,-2.85149,52,21.65,10,190.1,15 / 20,5509823,2019-08-16 14:21:03:603,-0.1582,-0.4598,9.4542,0.0136,-0.0066,9.8066,-0.0213,-0.0303,0.0016,-18.04,-3.55,-23.71,167.58,8.74,1.72
55099,51.412712,-2.85149,52,21.65,10,190.1,15 / 20,5509923,2019-08-16 14:21:03:703,0.2295,0.0074,9.6302,0.0178,-0.0085,9.8066,0.0043,0.0453,0.0176,-18.57,-3.11,-23.35,167.58,8.74,1.72
55100,51.412712,-2.85149,52,21.65,10,190.1,15 / 20,5510024,2019-08-16 14:21:03:804,-0.4992,0.0737,9.7678,0.0151,-0.0055,9.8066,0.0288,0.0006,0.0165,-17.96,-3.63,-23.75,167.61,8.84,1.7
55101,51.412712,-2.85149,52,21.65,10,190.1,15 / 20,5510123,2019-08-16 14:21:03:903,-0.1803,0.0305,10.1076,-0.002,0.0064,9.8066,0.0224,-0.0484,-0.0005,-17.96,-3.63,-23.75,167.61,8.84,1.7
55102,51.412712,-2.85149,52,21.65,10,190.1,15 / 20,5510224,2019-08-16 14:21:04:004,-0.0705,0.5062,9.8056,0.0121,0.0028,9.8066,-0.0011,0.0027,-0.0059,-18.51,-3.65,-23.32,168.1,8.82,1.74
55103,51.412712,-2.85149,52,21.65,10,190.1,15 / 20,5510324,2019-08-16 14:21:04:104,-0.1204,0.1994,10.3814,-0.0131,0.0118,9.8066,0.0021,-0.0186,0.0005,-18.8,-2.76,-23.21,170.52,8.86,1.81
55104,51.412712,-2.85149,52,21.65,10,190.1,15 / 20,5510423,2019-08-16 14:21:04:203,0.4003,0.0983,10.3574,-0.0027,0.0069,9.8066,0.0075,-0.0144,0.0304,-17.66,-4.13,-23.9,167.43,8.78,1.87
55105,51.412712,-2.85149,52,21.65,10,190.1,15 / 20,5510523,2019-08-16 14:21:04:303,-0.0033,-0.1226,9.4183,-0.0071,0.0152,9.8066,0.0032,0.0208,0.0218,-18.74,-4.16,-23.06,167.43,8.78,1.87
55106,51.412712,-2.85149,52,21.65,10,190.1,15 / 20,5510623,2019-08-16 14:21:04:403,0.1502,0.1578,10.2969,-0.0037,0.0226,9.8066,0.0032,0.0208,0.0218,-18.74,-4.16,-23.06,167.43,8.78,1.87
55107,51.412712,-2.85149,52,21.65,10,190.1,15 / 20,5510723,2019-08-16 14:21:04:503,-0.1876,-0.2602,9.6063,0.0109,0.0134,9.8066,-0.0064,0.0229,-0.0016,-18.25,-3.22,-23.59,169.85,8.73,1.99
55108,51.41252,-2.851542,51,21.62,10,189.7,15 / 20,5510823,2019-08-16 14:21:04:603,0.5334,0.0418,9.5131,0.0129,0.008,9.8066,-0.0085,0.0336,0.0069,-18.0,-3.55,-23.74,169.85,8.73,1.99
55109,51.41252,-2.851542,51,21.62,10,189.7,15 / 20,5510923,2019-08-16 14:21:04:703,-0.2518,0.0926,10.0997,0.0273,0.0049,9.8066,-0.0181,-0.0271,0.0176,-18.57,-3.11,-23.35,170.28,8.88,2.05
55110,51.41252,-2.851542,51,21.62,10,189.7,15 / 20,5511023,2019-08-16 14:21:04:803,-0.3143,0.2052,9.7405,0.0135,-0.0008,9.8066,-0.0011,-0.0026,-0.0059,-18.21,-3.21,-23.62,170.28,8.88,2.05
55111,51.41252,-2.851542,51,21.62,10,189.7,15 / 20,5511123,2019-08-16 14:21:04:903,0.0172,0.2552,9.45,0.007,-0.0073,9.8066,-0.0053,-0.0133,0.0154,-18.21,-3.21,-23.62,170.28,8.88,2.05
55112,51.41252,-2.851542,51,21.62,10,189.7,15 / 20,5511223,2019-08-16 14:21:05:003,-0.2657,0.0712,9.9407,0.0058,-0.0037,9.8066,-0.0149,0.0623,0.0112,-18.18,-3.68,-23.58,167.33,8.94,1.99
55113,51.41252,-2.851542,51,21.62,10,189.7,15 / 20,5511323,2019-08-16 14:21:05:103,-0.7002,-0.1213,9.6964,0.0027,-0.007,9.8066,-0.0149,0.0623,0.0112,-17.71,-3.58,-23.95,167.37,8.97,1.95
55114,51.41252,-2.851542,51,21.62,10,189.7,15 / 20,5511423,2019-08-16 14:21:05:203,-0.6347,-0.2881,10.0658,-0.0081,-0.0022,9.8066,0.0096,-0.0538,-0.0016,-17.71,-3.58,-23.95,167.37,8.97,1.95
55115,51.41252,-2.851542,51,21.62,10,189.7,15 / 20,5511523,2019-08-16 14:21:05:303,-0.6484,-0.0593,9.4049,-0.01,-0.0088,9.8066,0.0192,0.0826,-0.0005,-17.42,-3.97,-24.1,166.8,8.92,1.93
55116,51.41252,-2.851542,51,21.62,10,189.7,15 / 20,5511623,2019-08-16 14:21:05:403,0.1761,0.1812,8.564,0.0048,-0.0109,9.8066,-0.0224,-0.0133,0.0091,-17.59,-4.12,-23.95,167.45,8.88,1.86
55117,51.41252,-2.851542,51,21.62,10,189.7,15 / 20,5511723,2019-08-16 14:21:05:503,-0.3309,-0.0263,9.752,0.0286,-0.0098,9.8066,-0.0266,0.0346,0.0186,-17.59,-4.12,-23.95,167.45,8.88,1.86
55118,51.41237,-2.851642,49,21.36,10,190.0,15 / 20,5511823,2019-08-16 14:21:05:603,-0.354,-0.0759,10.0313,0.001,-0.0021,9.8067,0.0341,-0.0176,0.0069,-17.42,-3.97,-24.1,166.93,9.05,1.84
55119,51.41237,-2.851642,49,21.36,10,190.0,15 / 20,5511923,2019-08-16 14:21:05:703,0.0929,0.3563,10.4737,0.0013,0.0212,9.8066,-0.0053,0.0123,0.0016,-17.67,-3.57,-23.98,166.93,9.05,1.84
55120,51.41237,-2.851642,49,21.36,10,190.0,15 / 20,5512024,2019-08-16 14:21:05:804,-0.2853,0.2933,10.8008,-0.0211,0.0117,9.8066,-0.0202,0.0219,0.0037,-18.25,-3.14,-23.6,169.93,9.03,1.97
55121,51.41237,-2.851642,49,21.36,10,190.0,15 / 20,5512123,2019-08-16 14:21:05:903,-0.2088,0.2787,10.0387,-0.0293,-0.0106,9.8066,-0.0202,0.0219,0.0037,-18.5,-3.56,-23.35,167.86,8.67,1.95
55122,51.41237,-2.851642,49,21.36,10,190.0,15 / 20,5512223,2019-08-16 14:21:06:003,-0.3273,-0.422,9.5513,-0.0026,-0.0063,9.8066,0.0149,0.0091,-0.0069,-19.29,-3.16,-22.76,170.42,8.52,1.85
55123,51.41237,-2.851642,49,21.36,10,190.0,15 / 20,5512323,2019-08-16 14:21:06:103,0.2018,-0.2297,8.7914,0.0274,-0.0167,9.8066,0.0021,-0.0644,-0.008,-18.72,-4.06,-23.09,170.42,8.52,1.85
55124,51.41237,-2.851642,49,21.36,10,190.0,15 / 20,5512423,2019-08-16 14:21:06:203,0.6125,0.0527,9.1449,0.0764,-0.0431,9.8063,-0.0415,-0.0069,0.0069,-18.72,-4.06,-23.09,170.42,8.52,1.85
55125,51.41237,-2.851642,49,21.36,10,190.0,15 / 20,5512524,2019-08-16 14:21:06:304,-0.2289,-0.0923,9.7991,0.0236,-0.0195,9.8066,-0.033,-0.0026,0.0016,-17.64,-4.02,-23.93,167.67,9.0,1.68
55126,51.41237,-2.851642,49,21.36,10,190.0,15 / 20,5512623,2019-08-16 14:21:06:403,-0.1611,0.3218,9.8767,0.0281,-0.0208,9.8066,-0.0138,0.0155,0.0112,-17.31,-4.49,-24.09,167.24,9.19,1.59
55127,51.41237,-2.851642,49,21.36,10,190.0,15 / 20,5512723,2019-08-16 14:21:06:503,-0.1228,0.2343,10.8827,-0.0116,0.0035,9.8066,0.0107,0.0592,0.0005,-17.35,-4.4,-24.07,167.22,9.12,1.6
55128,51.41217,-2.851694,48,21.36,10,189.5,15 / 20,5512823,2019-08-16 14:21:06:603,0.4006,-0.0453,9.689,-0.0173,0.0117,9.8066,0.0107,0.0592,0.0005,-17.35,-4.4,-24.07,167.22,9.12,1.6
55129,51.41217,-2.851694,48,21.36,10,189.5,15 / 20,5512922,2019-08-16 14:21:06:702,-0.0729,0.0961,10.1605,-0.0385,0.0158,9.8066,-0.001,0.0251,0.0059,-18.22,-3.59,-23.56,167.69,8.88,1.64
55130,51.41217,-2.851694,48,21.36,10,189.5,15 / 20,5513023,2019-08-16 14:21:06:803,0.4532,-0.1437,9.89,-0.0174,-0.0047,9.8066,-0.0138,0.0283,0.0059,-18.44,-3.63,-23.38,167.71,8.78,1.59
55131,51.41217,-2.851694,48,21.36,10,189.5,15 / 20,5513123,2019-08-16 14:21:06:903,-0.4588,-0.1107,10.1506,-0.0115,-0.0166,9.8066,-0.016,0.0251,0.0037,-18.43,-4.0,-23.33,167.73,8.71,1.56
55132,51.41217,-2.851694,48,21.36,10,189.5,15 / 20,5513222,2019-08-16 14:21:07:002,-0.2576,-0.0304,9.5667,-0.0029,-0.0258,9.8066,-0.0064,-0.0144,-0.0027,-18.43,-4.0,-23.33,167.73,8.71,1.56
55133,51.41217,-2.851694,48,21.36,10,189.5,15 / 20,5513323,2019-08-16 14:21:07:103,-0.317,-0.2281,8.8772,0.0099,-0.0102,9.8066,-0.0021,0.0389,-0.0112,-18.72,-3.6,-23.16,168.41,8.72,1.4
55134,51.41217,-2.851694,48,21.36,10,189.5,15 / 20,5513423,2019-08-16 14:21:07:203,-0.171,-0.3221,9.0448,0.0141,-0.0148,9.8066,0.0117,-0.0261,0.0069,-17.93,-3.98,-23.72,167.98,8.79,1.36
55135,51.41217,-2.851694,48,21.36,10,189.5,15 / 20,5513523,2019-08-16 14:21:07:303,0.0982,-0.3158,9.7156,0.0581,-0.017,9.8065,0.0341,-0.0005,0.0112,-17.89,-4.08,-23.74,168.07,9.14,1.33
55136,51.41217,-2.851694,48,21.36,10,189.5,15 / 20,5513623,2019-08-16 14:21:07:403,-0.1475,0.1317,9.7966,0.0364,0.0155,9.8066,0.0128,0.0144,-0.0091,-17.89,-4.08,-23.74,168.07,9.14,1.33
55137,51.41217,-2.851694,48,21.36,10,189.5,15 / 20,5513723,2019-08-16 14:21:07:503,-0.0576,0.0432,10.1661,0.0124,0.0108,9.8066,0.0128,0.0144,-0.0091,-17.89,-4.43,-23.67,168.0,9.2,1.41
55138,51.41198,-2.851736,48,21.37,10,189.3,15 / 20,5513823,2019-08-16 14:21:07:603,-0.3294,0.2132,10.5851,-0.0452,-0.0068,9.8065,-0.017,0.0251,0.0091,-17.6,-4.47,-23.88,168.0,9.2,1.41
55139,51.41198,-2.851736,48,21.37,10,189.3,15 / 20,5513923,2019-08-16 14:21:07:703,-0.1288,0.1714,9.7321,-0.0653,0.0157,9.8064,0.0,0.0261,0.0261,-18.18,-4.04,-23.52,167.91,8.81,1.42
55140,51.41198,-2.851736,48,21.37,10,189.3,15 / 20,5514023,2019-08-16 14:21:07:803,-0.2841,0.1184,9.612,-0.0492,0.0485,9.8064,-0.0042,0.0165,0.0059,-18.18,-4.04,-23.52,167.91,8.81,1.42
55141,51.41198,-2.851736,48,21.37,10,189.3,15 / 20,5514123,2019-08-16 14:21:07:903,-0.0467,0.0038,9.6348,-0.0061,-0.0044,9.8066,-0.0277,0.0283,0.0059,-18.95,-4.11,-22.9,168.14,8.47,1.64
55142,51.41198,-2.851736,48,21.37,10,189.3,15 / 20,5514223,2019-08-16 14:21:08:003,-0.323,0.078,10.1337,0.0246,-0.0247,9.8066,-0.0085,-0.0474,0.0069,-18.43,-4.0,-23.33,168.14,8.47,1.64
55143,51.41198,-2.851736,48,21.37,10,189.3,15 / 20,5514323,2019-08-16 14:21:08:103,0.3615,-0.3513,9.1267,0.0638,-0.0439,9.8063,0.0203,-0.0495,-0.0059,-18.18,-3.58,-23.59,167.88,8.89,1.46
55144,51.41198,-2.851736,48,21.37,10,189.3,15 / 20,5514423,2019-08-16 14:21:08:203,0.2147,-0.0675,9.2748,0.0103,-0.0119,9.8066,0.0171,0.0357,0.0048,-18.18,-3.58,-23.59,167.88,8.89,1.46
55145,51.41198,-2.851736,48,21.37,10,189.3,15 / 20,5514523,2019-08-16 14:21:08:303,0.0319,0.0606,10.7131,-0.0121,0.0037,9.8066,0.0171,0.0357,0.0048,-17.85,-4.53,-23.68,165.43,8.96,1.4
55146,51.41198,-2.851736,48,21.37,10,189.3,15 / 20,5514623,2019-08-16 14:21:08:403,0.5026,0.0731,8.6947,0.0029,0.0243,9.8066,0.0096,0.0272,0.0144,-18.14,-4.14,-23.53,167.8,8.94,1.55
55147,51.41198,-2.851736,48,21.37,10,189.3,15 / 20,5514723,2019-08-16 14:21:08:503,-0.1512,0.0744,9.3146,-0.0107,0.0278,9.8066,-0.0106,0.0219,0.0048,-17.89,-3.62,-23.81,167.8,8.94,1.55
55148,51.411793,-2.851786,51,21.32,10,188.9,15 / 20,5514823,2019-08-16 14:21:08:603,0.1696,0.3982,10.3896,-0.0471,0.0385,9.8065,-0.0064,-0.0293,0.0133,-17.89,-3.62,-23.81,167.8,8.94,1.55
55149,51.411793,-2.851786,51,21.32,10,188.9,15 / 20,5514923,2019-08-16 14:21:08:703,0.3303,-0.1924,9.2485,-0.0612,0.0435,9.8064,-0.0245,-0.0399,0.008,-18.43,-4.45,-23.25,167.52,8.54,1.72
55150,51.411793,-2.851786,51,21.32,10,188.9,15 / 20,5515024,2019-08-16 14:21:08:804,0.3673,-0.1012,9.4039,0.004,-0.0073,9.8066,-0.0085,-0.0239,-0.0123,-18.5,-3.56,-23.35,168.11,8.57,1.69
55151,51.411793,-2.851786,51,21.32,10,188.9,15 / 20,5515123,2019-08-16 14:21:08:903,-0.2385,-0.2238,8.6912,0.0414,-0.0134,9.8066,-0.001,0.041,-0.0027,-18.5,-3.56,-23.35,168.11,8.57,1.69
55152,51.411793,-2.851786,51,21.32,10,188.9,15 / 20,5515223,2019-08-16 14:21:09:003,-0.3295,0.3447,11.7977,-0.0004,-0.0157,9.8066,-0.001,0.041,-0.0027,-18.18,-4.04,-23.52,167.75,8.81,1.57
55153,51.411793,-2.851786,51,21.32,10,188.9,15 / 20,5515324,2019-08-16 14:21:09:104,0.1019,-0.7518,10.2399,-0.001,-0.0359,9.8066,-0.0298,0.0261,0.008,-18.18,-4.04,-23.52,167.75,8.81,1.57
55154,51.411793,-2.851786,51,21.32,10,188.9,15 / 20,5515423,2019-08-16 14:21:09:203,0.2571,-0.2022,10.2255,-0.0081,0.0075,9.8066,0.0107,-0.0729,0.024,-17.89,-4.43,-23.67,167.98,8.85,1.37
55155,51.411793,-2.851786,51,21.32,10,188.9,15 / 20,5515523,2019-08-16 14:21:09:303,0.0749,-0.019,9.2671,-0.0258,0.0264,9.8066,0.0096,0.0528,0.0378,-17.61,-4.8,-23.81,165.4,8.79,1.4
55156,51.411793,-2.851786,51,21.32,10,188.9,15 / 20,5515623,2019-08-16 14:21:09:403,-0.1594,0.0085,10.1519,-0.0387,0.0435,9.8065,0.0256,0.0133,0.0059,-18.1,-4.93,-23.41,165.1,8.51,1.59
55157,51.411793,-2.851786,51,21.32,10,188.9,15 / 20,5515724,2019-08-16 14:21:09:504,-0.36,-0.0759,9.434,0.0033,0.0133,9.8066,0.0085,-0.0154,0.0048,-18.1,-4.93,-23.41,165.1,8.51,1.59
55158,51.411594,-2.851827,50,21.29,10,188.4,15 / 20,5515823,2019-08-16 14:21:09:603,-0.2481,0.0672,9.3852,0.0084,0.0163,9.8066,-0.0192,-0.0069,0.0101,-17.89,-4.43,-23.67,165.1,8.51,1.59
55159,51.411594,-2.851827,50,21.29,10,188.4,15 / 20,5515923,2019-08-16 14:21:09:703,0.2568,-0.0438,9.4382,0.0045,-0.0022,9.8066,-0.0032,-0.025,0.0005,-18.01,-3.9,-23.68,167.56,8.53,1.7
55160,51.411594,-2.851827,50,21.29,10,188.4,15 / 20,5516023,2019-08-16 14:21:09:803,0.2676,0.2196,9.9723,0.0136,-0.0014,9.8066,-0.0032,-0.025,0.0005,-18.68,-4.51,-23.04,167.56,8.53,1.7
55161,51.411594,-2.851827,50,21.29,10,188.4,15 / 20,5516123,2019-08-16 14:21:09:903,0.2424,0.3171,9.987,0.0228,-0.001,9.8066,-0.0202,0.0006,0.0154,-18.43,-4.45,-23.25,167.55,8.66,1.72
55162,51.411594,-2.851827,50,21.29,10,188.4,15 / 20,5516222,2019-08-16 14:21:10:002,-0.1641,0.0823,10.4502,0.0048,0.0056,9.8066,0.0149,-0.0538,0.0059,-18.72,-4.06,-23.09,167.55,8.66,1.72
55163,51.411594,-2.851827,50,21.29,10,188.4,15 / 20,5516323,2019-08-16 14:21:10:103,0.3022,0.1275,9.7461,-0.0084,0.0107,9.8066,-0.0192,0.041,0.0112,-18.72,-4.06,-23.09,167.55,8.66,1.72
55164,51.411594,-2.851827,50,21.29,10,188.4,15 / 20,5516423,2019-08-16 14:21:10:203,-0.2971,-0.1293,10.3197,0.0009,0.005,9.8066,0.0096,-0.0293,0.008,-18.43,-4.45,-23.25,167.49,8.6,1.77
55165,51.411594,-2.851827,50,21.29,10,188.4,15 / 20,5516523,2019-08-16 14:21:10:303,0.2868,-0.3143,9.6554,0.0089,0.0118,9.8066,0.0277,0.0048,0.0069,-18.05,-5.38,-23.35,167.49,8.6,1.77
55166,51.411594,-2.851827,50,21.29,10,188.4,15 / 20,5516623,2019-08-16 14:21:10:403,0.4024,-0.0504,9.6212,-0.0212,0.0074,9.8066,0.0277,0.0197,0.0027,-18.1,-4.93,-23.41,164.87,8.64,1.85
55167,51.411594,-2.851827,50,21.29,10,188.4,15 / 20,5516723,2019-08-16 14:21:10:503,0.1356,-0.0924,9.6772,-0.0283,0.0179,9.8066,-0.0053,-0.0229,0.0165,-17.81,-4.98,-23.63,164.78,8.45,1.91
55168,51.411407,-2.85187,50,21.27,10,187.8,15 / 20,5516823,2019-08-16 14:21:10:603,-0.217,0.2174,9.3518,0.0116,-0.0071,9.8066,-0.0053,-0.0229,0.0165,-17.81,-4.98,-23.63,164.78,8.45,1.91
55169,51.411407,-2.85187,50,21.27,10,187.8,15 / 20,5516923,2019-08-16 14:21:10:703,-0.217,0.2174,9.3518,0.0088,-0.015,9.8066,-0.0106,-0.0453,0.0112,-17.93,-3.98,-23.72,167.35,8.53,1.89
55170,51.411407,-2.85187,50,21.27,10,187.8,15 / 20,5517022,2019-08-16 14:21:10:802,-0.0826,-0.1387,9.5018,0.0045,-0.0292,9.8066,-0.0234,0.04,0.0016,-18.14,-4.49,-23.47,167.53,8.59,1.72
55171,51.411407,-2.85187,50,21.27,10,187.8,15 / 20,5517123,2019-08-16 14:21:10:903,0.2714,0.1384,9.4702,-0.0009,-0.0138,9.8066,-0.0064,-0.0218,-0.0059,-18.1,-4.93,-23.41,167.53,8.59,1.72
55172,51.411407,-2.85187,50,21.27,10,187.8,15 / 20,5517223,2019-08-16 14:21:11:003,-0.0898,0.2014,10.1462,-0.0069,-0.0172,9.8066,0.0267,-0.0016,0.0027,-18.1,-4.93,-23.41,167.53,8.59,1.72
55173,51.411407,-2.85187,50,21.27,10,187.8,15 / 20,5517323,2019-08-16 14:21:11:103,0.2963,0.314,9.2023,-0.0152,0.0122,9.8066,0.0298,0.0293,-0.0027,-18.22,-3.95,-23.51,167.55,8.5,1.7
55174,51.411407,-2.85187,50,21.27,10,187.8,15 / 20,5517423,2019-08-16 14:21:11:203,0.2195,0.1389,9.7768,-0.019,0.0171,9.8066,-0.017,0.0368,0.0144,-18.14,-4.49,-23.47,167.44,8.37,1.77
55175,51.411407,-2.85187,50,21.27,10,187.8,15 / 20,5517523,2019-08-16 14:21:11:303,-0.6748,0.0748,10.1451,0.0143,-0.0043,9.8066,-0.0053,-0.0282,0.0016,-18.14,-4.49,-23.47,167.44,8.37,1.77
55176,51.411407,-2.85187,50,21.27,10,187.8,15 / 20,5517623,2019-08-16 14:21:11:403,0.3701,-0.2924,8.8581,0.0031,-0.0117,9.8066,-0.0053,-0.0282,0.0016,-18.05,-5.38,-23.35,164.91,8.45,1.76
55177,51.411407,-2.85187,50,21.27,10,187.8,15 / 20,5517723,2019-08-16 14:21:11:503,0.0817,-0.1894,9.3161,0.0131,-0.0184,9.8066,-0.0351,0.0538,0.0091,-18.05,-5.38,-23.35,164.91,8.45,1.76
55178,51.41126,-2.851937,50,21.11,10,187.7,15 / 20,5517823,2019-08-16 14:21:11:603,0.6011,0.2331,9.4616,0.0133,-0.0195,9.8066,0.0117,-0.0453,0.0016,-18.05,-5.38,-23.35,164.91,8.45,1.76
55179,51.41126,-2.851937,50,21.11,10,187.7,15 / 20,5517923,2019-08-16 14:21:11:703,0.0061,0.0504,10.9908,0.006,-0.0131,9.8066,0.0171,0.0251,0.0037,-18.38,-4.89,-23.2,165.03,8.56,1.67
55180,51.41126,-2.851937,50,21.11,10,187.7,15 / 20,5518023,2019-08-16 14:21:11:803,0.1664,-0.1431,10.5021,0.0222,-0.0202,9.8066,0.0021,0.008,-0.0101,-18.38,-4.89,-23.2,165.14,8.71,1.59
55181,51.41126,-2.851937,50,21.11,10,187.7,15 / 20,5518123,2019-08-16 14:21:11:903,0.0537,0.2427,9.4518,-0.0172,-0.0022,9.8066,0.0032,-0.025,0.0197,-18.38,-4.89,-23.2,165.14,8.71,1.59
55182,51.41126,-2.851937,50,21.11,10,187.7,15 / 20,5518223,2019-08-16 14:21:12:003,-0.1745,0.1076,9.3435,-0.0027,-0.0077,9.8066,-0.0106,-0.0122,0.0165,-18.7,-4.85,-22.95,165.8,8.5,1.52
55183,51.41126,-2.851937,50,21.11,10,187.7,15 / 20,5518323,2019-08-16 14:21:12:103,0.258,-0.0403,9.0339,0.0089,0.0061,9.8066,-0.0106,-0.0122,0.0165,-18.68,-4.51,-23.04,165.85,8.49,1.47
55184,51.41126,-2.851937,50,21.11,10,187.7,15 / 20,5518423,2019-08-16 14:21:12:203,-0.5114,0.0527,9.5756,0.0158,-0.0012,9.8066,0.0032,-0.0293,-0.0069,-17.89,-4.88,-23.59,165.85,8.49,1.47
55185,51.41126,-2.851937,50,21.11,10,187.7,15 / 20,5518523,2019-08-16 14:21:12:303,0.234,-0.1467,10.0772,0.0166,-0.0076,9.8066,-0.0106,0.0261,0.0069,-17.89,-4.88,-23.59,165.85,8.49,1.47
55186,51.41126,-2.851937,50,21.11,10,187.7,15 / 20,5518623,2019-08-16 14:21:12:403,0.2859,-0.2355,9.2779,0.0055,0.0024,9.8066,0.0149,0.0219,0.0123,-17.76,-5.42,-23.56,165.3,8.6,1.45
55187,51.41126,-2.851937,50,21.11,10,187.7,15 / 20,5518723,2019-08-16 14:21:12:503,-0.5085,-0.2209,10.156,0.0168,0.0099,9.8066,0.0213,-0.0421,-0.0016,-17.8,-5.36,-23.54,165.23,8.68,1.54
55188,51.41107,-2.851969,50,21.13,10,187.3,15 / 20,5518823,2019-08-16 14:21:12:603,0.1302,0.1835,10.0725,0.0005,-0.0021,9.8066,0.0011,0.008,-0.0016,-17.8,-5.36,-23.54,165.23,8.68,1.54
55189,51.41107,-2.851969,50,21.13,10,187.3,15 / 20,5518923,2019-08-16 14:21:12:703,-0.2105,0.1785,10.1109,-0.0175,0.0001,9.8066,0.0117,0.0059,0.0069,-17.93,-4.44,-23.64,167.77,8.68,1.52
55190,51.41107,-2.851969,50,21.13,10,187.3,15 / 20,5519023,2019-08-16 14:21:12:803,0.0591,-0.084,10.6414,-0.0341,0.0008,9.8066,-0.0042,-0.025,0.0091,-18.5,-4.01,-23.27,168.29,8.49,1.49
55191,51.41107,-2.851969,50,21.13,10,187.3,15 / 20,5519123,2019-08-16 14:21:12:903,-0.009,-0.2646,9.5239,-0.0087,-0.0043,9.8066,-0.0042,-0.025,0.0091,-18.91,-4.91,-22.76,165.86,8.44,1.45
55192,51.41107,-2.851969,50,21.13,10,187.3,15 / 20,5519224,2019-08-16 14:21:13:004,0.1901,-0.0829,9.5219,0.0072,0.0,9.8066,-0.0064,0.0187,0.0069,-18.91,-4.91,-22.76,165.85,8.48,1.47
55193,51.41107,-2.851969,50,21.13,10,187.3,15 / 20,5519323,2019-08-16 14:21:13:103,0.1617,0.2581,10.5175,0.0315,0.0036,9.8066,0.0053,-0.0122,0.008,-18.91,-4.91,-22.76,165.85,8.48,1.47
55194,51.41107,-2.851969,50,21.13,10,187.3,15 / 20,5519424,2019-08-16 14:21:13:204,-0.3797,0.2019,9.8103,0.0111,-0.0035,9.8066,0.032,-0.0389,-0.0016,-17.93,-4.77,-23.58,165.22,8.65,1.54
55195,51.41107,-2.851969,50,21.13,10,187.3,15 / 20,5519523,2019-08-16 14:21:13:303,0.3903,0.1353,9.0873,0.0063,-0.0051,9.8066,0.0011,0.0283,-0.0016,-17.55,-5.36,-23.74,165.25,8.7,1.52
55196,51.41107,-2.851969,50,21.13,10,187.3,15 / 20,5519623,2019-08-16 14:21:13:403,-0.0815,0.2663,9.9986,-0.006,-0.02,9.8066,-0.0341,-0.0335,-0.0016,-17.55,-5.36,-23.74,165.25,8.7,1.52
55197,51.41107,-2.851969,50,21.13,10,187.3,15 / 20,5519723,2019-08-16 14:21:13:503,0.0196,0.1423,9.9028,-0.0046,-0.0295,9.8066,0.0128,-0.0314,0.0208,-17.51,-5.72,-23.68,165.25,8.7,1.52
55198,51.41088,-2.85201,50,21.16,10,187.1,15 / 20,5519823,2019-08-16 14:21:13:603,-0.4919,-0.0574,10.0149,-0.0258,-0.0193,9.8066,0.0128,-0.0314,0.0208,-17.89,-4.88,-23.59,165.38,8.58,1.37
55199,51.41088,-2.85201,50,21.16,10,187.1,15 / 20,5519924,2019-08-16 14:21:13:704,-0.1855,-0.1168,10.7902,-0.0284,-0.0023,9.8066,0.0053,0.0389,-0.0133,-18.38,-5.26,-23.12,165.38,8.58,1.37
55200,51.41088,-2.85201,50,21.16,10,187.1,15 / 20,5520023,2019-08-16 14:21:13:803,0.3901,-0.4073,9.2346,-0.0491,-0.0081,9.8065,0.0394,-0.0282,-0.0112,-18.67,-4.97,-22.95,166.03,8.31,1.25
55201,51.41088,-2.85201,50,21.16,10,187.1,15 / 20,5520123,2019-08-16 14:21:13:903,0.109,-0.227,9.9892,0.0078,-0.0015,9.8066,0.0011,-0.0208,0.0037,-18.67,-4.97,-22.95,166.03,8.31,1.25
55202,51.41088,-2.85201,50,21.16,10,187.1,15 / 20,5520223,2019-08-16 14:21:14:003,-0.1972,0.0933,9.5333,0.0359,-0.0011,9.8066,0.0096,-0.0282,0.0005,-18.85,-5.4,-22.7,166.08,8.52,1.24
55203,51.41088,-2.85201,50,21.16,10,187.1,15 / 20,5520323,2019-08-16 14:21:14:103,0.3947,0.1345,9.4014,-0.0133,-0.008,9.8066,-0.0181,0.0261,0.0133,-18.61,-5.07,-22.98,166.08,8.72,1.28
55204,51.41088,-2.85201,50,21.16,10,187.1,15 / 20,5520423,2019-08-16 14:21:14:203,0.3403,-0.1483,9.6692,-0.0255,0.0083,9.8066,0.0032,-0.008,0.0218,-17.85,-5.24,-23.54,166.08,8.72,1.28
55205,51.41088,-2.85201,50,21.16,10,187.1,15 / 20,5520523,2019-08-16 14:21:14:303,-0.6285,0.1201,10.0331,-0.0413,0.0247,9.8065,0.016,0.0314,0.0165,-17.85,-5.24,-23.54,165.35,8.45,1.37
55206,51.41088,-2.85201,50,21.16,10,187.1,15 / 20,5520623,2019-08-16 14:21:14:403,0.2302,-0.0131,10.1883,-0.0081,0.0082,9.8066,0.016,0.0314,0.0165,-17.85,-5.24,-23.54,165.35,8.45,1.37
55207,51.41088,-2.85201,50,21.16,10,187.1,15 / 20,5520723,2019-08-16 14:21:14:503,-0.1791,-0.0974,9.801,0.0046,0.0063,9.8066,-0.0192,-0.0229,0.0186,-18.33,-5.7,-23.05,162.76,8.39,1.4
55208,51.410683,-2.852037,49,21.25,10,186.6,15 / 20,5520823,2019-08-16 14:21:14:603,0.444,-0.1163,9.2518,0.0045,-0.0023,9.8067,-0.0021,0.0283,-0.0037,-17.31,-5.21,-23.94,162.76,8.39,1.4
55209,51.410683,-2.852037,49,21.25,10,186.6,15 / 20,5520923,2019-08-16 14:21:14:703,0.0533,0.2174,9.557,0.0084,-0.0217,9.8066,-0.0085,-0.0346,-0.0027,-18.63,-5.34,-22.9,165.91,8.42,1.4
55210,51.410683,-2.852037,49,21.25,10,186.6,15 / 20,5521024,2019-08-16 14:21:14:804,-0.372,0.2766,9.5114,0.0255,-0.0356,9.8066,-0.0106,0.0187,0.0037,-18.63,-5.34,-22.9,166.11,8.62,1.23
55211,51.410683,-2.852037,49,21.25,10,186.6,15 / 20,5521123,2019-08-16 14:21:14:903,-0.0019,-0.0193,9.4273,-0.0019,-0.0061,9.8066,-0.0181,0.0123,0.0091,-18.63,-5.34,-22.9,166.11,8.62,1.23
55212,51.410683,-2.852037,49,21.25,10,186.6,15 / 20,5521224,2019-08-16 14:21:15:004,0.0843,-0.0252,9.5135,0.0064,-0.002,9.8066,0.0021,0.0069,0.0112,-18.05,-5.75,-23.27,163.05,8.69,1.19
55213,51.410683,-2.852037,49,21.25,10,186.6,15 / 20,5521324,2019-08-16 14:21:15:104,-0.3466,0.1459,10.067,-0.0195,0.0078,9.8066,0.0075,0.0261,-0.0016,-18.14,-5.19,-23.33,163.05,8.69,1.19
55214,51.410683,-2.852037,49,21.25,10,186.6,15 / 20,5521424,2019-08-16 14:21:15:204,-0.1279,0.0379,9.3033,-0.0634,0.0222,9.8064,0.0011,0.0357,0.0165,-18.09,-5.62,-23.26,162.93,8.3,1.21
55215,51.410683,-2.852037,49,21.25,10,186.6,15 / 20,5521523,2019-08-16 14:21:15:303,0.1263,-0.0563,9.4009,-0.0303,0.0098,9.8066,0.0011,0.0357,0.0165,-18.09,-5.62,-23.26,162.93,8.3,1.21
55216,51.410683,-2.852037,49,21.25,10,186.6,15 / 20,5521623,2019-08-16 14:21:15:403,0.4588,0.298,9.5453,0.0058,0.0069,9.8066,0.0075,0.0197,0.0197,-18.03,-6.05,-23.2,162.88,8.11,1.21
55217,51.410683,-2.852037,49,21.25,10,186.6,15 / 20,5521723,2019-08-16 14:21:15:503,-0.1669,-0.2166,9.2344,0.0197,0.0079,9.8066,0.0085,0.0219,0.0101,-18.33,-5.7,-23.05,162.82,8.21,1.29
55218,51.41052,-2.852083,48,21.11,10,186.4,15 / 20,5521823,2019-08-16 14:21:15:603,-0.1465,-0.1879,9.9503,0.0291,-0.0048,9.8066,0.016,-0.0101,-0.008,-17.64,-5.18,-23.71,165.39,8.38,1.31
55219,51.41052,-2.852083,48,21.11,10,186.4,15 / 20,5521923,2019-08-16 14:21:15:703,0.4532,-0.0954,9.5632,0.0296,-0.0001,9.8066,0.0096,0.024,0.0176,-17.64,-5.18,-23.71,165.39,8.38,1.31
55220,51.41052,-2.852083,48,21.11,10,186.4,15 / 20,5522023,2019-08-16 14:21:15:803,0.0933,0.0255,10.4013,0.0325,0.013,9.8066,0.0117,-0.0005,0.008,-18.66,-5.22,-22.9,165.39,8.38,1.31
55221,51.41052,-2.852083,48,21.11,10,186.4,15 / 20,5522123,2019-08-16 14:21:15:903,0.3595,0.0188,9.9813,-0.0141,0.0021,9.8066,-0.0128,-0.0186,0.0133,-18.95,-4.92,-22.73,165.9,8.55,1.43
55222,51.41052,-2.852083,48,21.11,10,186.4,15 / 20,5522223,2019-08-16 14:21:16:003,-0.3135,-0.1671,10.2961,-0.0116,0.0057,9.8066,0.0032,0.0155,0.0027,-18.63,-5.34,-22.9,165.9,8.38,1.39
55223,51.41052,-2.852083,48,21.11,10,186.4,15 / 20,5522324,2019-08-16 14:21:16:104,0.5116,0.0515,9.3397,-0.0085,0.0076,9.8066,-0.0085,-0.0367,-0.0069,-18.63,-5.34,-22.9,165.9,8.38,1.39
55224,51.41052,-2.852083,48,21.11,10,186.4,15 / 20,5522423,2019-08-16 14:21:16:203,-0.2384,0.5351,9.7729,0.0135,-0.0051,9.8066,-0.0085,-0.0367,-0.0069,-18.46,-4.72,-23.17,165.22,8.32,1.42
55225,51.41052,-2.852083,48,21.11,10,186.4,15 / 20,5522524,2019-08-16 14:21:16:304,0.0516,0.094,9.8234,0.0272,-0.0098,9.8066,0.016,-0.0197,0.0091,-17.75,-6.1,-23.4,162.78,8.49,1.41
55226,51.41052,-2.852083,48,21.11,10,186.4,15 / 20,5522624,2019-08-16 14:21:16:404,0.1441,0.0497,10.0685,0.0097,0.0037,9.8066,0.0085,-0.0122,0.0016,-17.75,-6.1,-23.4,162.78,8.49,1.41
55227,51.41052,-2.852083,48,21.11,10,186.4,15 / 20,5522723,2019-08-16 14:21:16:503,0.4557,-0.0888,9.1681,0.0193,0.0107,9.8066,-0.0106,0.008,0.0037,-17.51,-6.02,-23.6,162.8,8.54,1.45
55228,51.410328,-2.852117,49,21.22,10,186.0,15 / 20,5522823,2019-08-16 14:21:16:603,-0.4148,0.2307,10.7064,0.0014,0.001,9.8067,0.0,0.0272,-0.0037,-17.59,-5.61,-23.64,162.73,8.63,1.54
55229,51.410328,-2.852117,49,21.22,10,186.0,15 / 20,5522924,2019-08-16 14:21:16:704,-0.0346,0.057,10.0639,-0.0345,0.012,9.8066,0.0064,0.0144,0.0101,-18.41,-5.15,-23.12,165.12,8.41,1.55
55230,51.410328,-2.852117,49,21.22,10,186.0,15 / 20,5523025,2019-08-16 14:21:16:805,-0.4224,0.1612,9.7289,-0.0203,0.0043,9.8066,-0.0192,0.0229,0.008,-18.41,-5.15,-23.12,165.12,8.41,1.55
55231,51.410328,-2.852117,49,21.22,10,186.0,15 / 20,5523123,2019-08-16 14:21:16:903,-0.1198,-0.0024,9.0466,0.0078,0.0031,9.8066,0.016,-0.0367,0.0091,-19.13,-5.35,-22.49,165.7,8.25,1.55
55232,51.410328,-2.852117,49,21.22,10,186.0,15 / 20,5523223,2019-08-16 14:21:17:003,0.0832,0.032,8.6259,0.0209,0.0037,9.8066,0.016,-0.0367,0.0091,-18.66,-4.84,-22.98,165.7,8.25,1.55
55233,51.410328,-2.852117,49,21.22,10,186.0,15 / 20,5523323,2019-08-16 14:21:17:103,0.4696,0.3454,9.8272,0.0425,0.0089,9.8066,0.0373,-0.0453,-0.0027,-18.41,-5.15,-23.12,165.02,8.48,1.66
55234,51.410328,-2.852117,49,21.22,10,186.0,15 / 20,5523423,2019-08-16 14:21:17:203,0.4225,0.1689,10.4706,0.0264,0.0006,9.8066,-0.0117,0.0634,0.0048,-17.68,-4.75,-23.76,165.02,8.48,1.66
55235,51.410328,-2.852117,49,21.22,10,186.0,15 / 20,5523523,2019-08-16 14:21:17:303,-0.2521,0.0696,10.0483,0.0053,-0.0039,9.8066,-0.0256,0.0112,0.008,-17.68,-4.75,-23.76,165.02,8.48,1.66
55236,51.410328,-2.852117,49,21.22,10,186.0,15 / 20,5523623,2019-08-16 14:21:17:403,0.0521,-0.325,10.1273,-0.0343,0.0029,9.8066,-0.0351,-0.0293,0.0027,-17.59,-5.61,-23.64,162.59,8.52,1.65
55237,51.410328,-2.852117,49,21.22,10,186.0,15 / 20,5523724,2019-08-16 14:21:17:504,0.1044,-0.1693,9.051,-0.0343,-0.0263,9.8066,-0.0245,-0.0229,-0.0048,-18.03,-6.05,-23.2,162.71,8.37,1.44
55238,51.410133,-2.852136,49,21.23,10,185.5,15 / 20,5523823,2019-08-16 14:21:17:603,0.658,-0.0465,9.4449,0.0019,-0.0262,9.8066,-0.0181,0.0432,0.0005,-17.36,-5.53,-23.84,162.15,8.43,1.3
55239,51.410133,-2.852136,49,21.23,10,185.5,15 / 20,5523923,2019-08-16 14:21:17:703,-0.3214,0.0765,10.3399,0.0004,0.0004,9.8066,0.0075,0.0304,0.0059,-17.36,-5.53,-23.84,162.15,8.43,1.3
55240,51.410133,-2.852136,49,21.23,10,185.5,15 / 20,5524023,2019-08-16 14:21:17:803,0.0047,-0.116,9.8367,-0.0029,0.0026,9.8066,0.0075,0.0304,0.0059,-18.33,-5.7,-23.05,162.86,8.41,1.31
55241,51.410133,-2.852136,49,21.23,10,185.5,15 / 20,5524123,2019-08-16 14:21:17:903,-0.2246,0.3873,9.7255,-0.0073,0.0201,9.8066,0.0256,-0.0357,-0.0016,-18.33,-5.7,-23.05,162.86,8.41,1.31
55242,51.410133,-2.852136,49,21.23,10,185.5,15 / 20,5524223,2019-08-16 14:21:18:003,-0.176,-0.0007,10.5401,-0.0259,0.0153,9.8066,-0.0128,0.056,-0.0005,-18.66,-5.22,-22.9,165.88,8.33,1.41
55243,51.410133,-2.852136,49,21.23,10,185.5,15 / 20,5524323,2019-08-16 14:21:18:103,-0.4939,-0.3904,9.4622,0.0124,-0.035,9.8066,-0.0415,-0.0133,-0.0218,-18.58,-5.78,-22.83,163.5,8.29,1.37
55244,51.410133,-2.852136,49,21.23,10,185.5,15 / 20,5524423,2019-08-16 14:21:18:203,-0.231,-0.4481,9.5444,0.0101,-0.0619,9.8065,0.0,-0.0389,0.0016,-18.58,-5.78,-22.83,163.5,8.29,1.37
55245,51.410133,-2.852136,49,21.23,10,185.5,15 / 20,5524522,2019-08-16 14:21:18:302,0.1194,-0.4301,10.0221,-0.0057,-0.0113,9.8066,0.016,0.0165,-0.0144,-18.09,-5.62,-23.26,163.15,8.45,1.03
55246,51.410133,-2.852136,49,21.23,10,185.5,15 / 20,5524623,2019-08-16 14:21:18:403,0.3202,-0.3484,10.2894,0.0006,-0.0104,9.8066,-0.0011,0.0155,0.0144,-18.05,-5.75,-23.27,163.22,8.44,0.96
55247,51.410133,-2.852136,49,21.23,10,185.5,15 / 20,5524723,2019-08-16 14:21:18:503,0.2605,-0.4216,9.8366,0.0048,-0.0262,9.8066,-0.0011,0.0155,0.0144,-17.99,-6.19,-23.2,163.37,8.51,0.82
55248,51.40994,-2.852155,49,21.29,10,185.4,15 / 20,5524823,2019-08-16 14:21:18:603,-0.4769,-0.12,9.8031,-0.0119,-0.0051,9.8066,0.0203,-0.0154,-0.0005,-17.99,-6.19,-23.2,163.37,8.51,0.82
55249,51.40994,-2.852155,49,21.29,10,185.4,15 / 20,5524923,2019-08-16 14:21:18:703,-0.0489,0.2831,9.1791,-0.0109,0.02,9.8066,0.0096,0.057,0.0048,-17.63,-5.62,-23.62,163.48,8.45,0.77
55250,51.40994,-2.852155,49,21.29,10,185.4,15 / 20,5525023,2019-08-16 14:21:18:803,0.1284,0.0347,9.8182,-0.0141,0.0155,9.8066,-0.0106,-0.0176,0.0027,-18.38,-5.26,-23.12,163.48,8.45,0.77
55251,51.40994,-2.852155,49,21.29,10,185.4,15 / 20,5525123,2019-08-16 14:21:18:903,0.074,-0.0982,9.6127,-0.0032,0.0062,9.8066,-0.0224,-0.0314,0.0048,-18.63,-5.34,-22.9,166.5,8.42,0.8
55252,51.40994,-2.852155,49,21.29,10,185.4,15 / 20,5525223,2019-08-16 14:21:19:003,0.2132,-0.0677,9.9497,0.0124,-0.0106,9.8066,-0.0011,0.0346,0.0091,-18.29,-5.83,-23.05,163.44,8.51,0.75
55253,51.40994,-2.852155,49,21.29,10,185.4,15 / 20,5525323,2019-08-16 14:21:19:103,0.1714,-0.2142,10.6441,-0.0428,0.0149,9.8065,-0.0032,0.0517,0.0059,-18.29,-5.83,-23.05,163.44,8.51,0.75
55254,51.40994,-2.852155,49,21.29,10,185.4,15 / 20,5525423,2019-08-16 14:21:19:203,0.0843,-0.2218,9.558,-0.0129,-0.0031,9.8066,0.0,-0.008,-0.0176,-17.48,-5.87,-23.66,162.67,8.24,0.77
55255,51.40994,-2.852155,49,21.29,10,185.4,15 / 20,5525523,2019-08-16 14:21:19:303,0.1831,-0.307,9.8367,-0.0103,-0.0177,9.8066,0.0,-0.008,-0.0176,-15.61,-5.37,-25.05,162.67,8.24,0.77
55256,51.40994,-2.852155,49,21.29,10,185.4,15 / 20,5525622,2019-08-16 14:21:19:402,0.048,-0.575,8.9538,0.0187,-0.018,9.8066,-0.0256,0.0261,-0.0091,-13.63,-5.94,-26.06,160.28,8.22,0.65
55257,51.40994,-2.852155,49,21.29,10,185.4,15 / 20,5525723,2019-08-16 14:21:19:503,0.0282,0.1773,9.8475,0.0256,-0.0394,9.8065,-0.0128,-0.009,-0.0027,-12.13,-5.47,-26.89,160.28,8.22,0.65
55258,51.409737,-2.852173,50,21.41,10,185.2,15 / 20,5525823,2019-08-16 14:21:19:603,-0.0158,-0.082,9.8277,0.0137,-0.0512,9.8065,-0.0128,-0.0058,-0.0122,-13.56,-4.4,-26.4,166.68,8.39,0.39
55259,51.409737,-2.852173,50,21.41,10,185.2,15 / 20,5525923,2019-08-16 14:21:19:703,0.2389,-0.001,8.7695,0.0032,-0.0081,9.8066,0.0213,-0.0367,0.0027,-13.56,-4.4,-26.4,166.68,8.39,0.39
55260,51.409737,-2.852173,50,21.41,10,185.2,15 / 20,5526024,2019-08-16 14:21:19:804,0.3686,-0.0699,9.4419,0.0191,-0.0056,9.8066,0.0288,-0.0421,0.0037,-16.71,-4.37,-24.58,168.54,8.42,0.35
55261,51.409737,-2.852173,50,21.41,10,185.2,15 / 20,5526123,2019-08-16 14:21:19:903,-0.3212,-0.0581,9.4314,0.0563,-0.0119,9.8065,0.0107,0.0176,0.0133,-19.26,-4.82,-22.49,166.94,8.76,0.35
55262,51.409737,-2.852173,50,21.41,10,185.2,15 / 20,5526223,2019-08-16 14:21:20:003,0.4279,0.2228,9.5658,0.0335,0.022,9.8066,0.0107,0.0176,0.0133,-19.26,-4.82,-22.49,166.94,8.76,0.35
55263,51.409737,-2.852173,50,21.41,10,185.2,15 / 20,5526323,2019-08-16 14:21:20:103,-0.0484,0.2582,9.9504,-0.0246,0.0036,9.8066,-0.0042,0.056,0.0101,-19.0,-4.95,-22.68,166.73,8.89,0.66
55264,51.409737,-2.852173,50,21.41,10,185.2,15 / 20,5526424,2019-08-16 14:21:20:204,-0.704,0.5894,10.3104,-0.0382,-0.0028,9.8066,-0.0085,0.041,0.0165,-18.78,-5.01,-22.85,166.71,8.74,0.64
55265,51.409737,-2.852173,50,21.41,10,185.2,15 / 20,5526523,2019-08-16 14:21:20:303,-0.2216,0.47,9.7614,-0.0789,0.0184,9.8063,-0.0106,0.0336,0.0069,-18.69,-5.1,-22.91,166.71,8.74,0.64
55266,51.409737,-2.852173,50,21.41,10,185.2,15 / 20,5526623,2019-08-16 14:21:20:403,-0.6001,0.4629,9.8971,-0.0881,0.0433,9.8062,0.0245,0.0229,0.0165,-18.31,-6.0,-22.99,163.34,8.18,0.77
55267,51.409737,-2.852173,50,21.41,10,185.2,15 / 20,5526722,2019-08-16 14:21:20:502,0.0494,0.0037,8.3014,0.0248,0.0056,9.8066,0.0224,-0.0453,0.008,-18.31,-6.0,-22.99,163.34,8.18,0.77
55268,51.409534,-2.852195,50,21.36,10,185.0,15 / 20,5526823,2019-08-16 14:21:20:603,0.882,-0.1672,8.7708,0.0463,-0.0015,9.8065,-0.016,-0.0197,0.0005,-18.07,-6.06,-23.17,163.3,8.31,0.85
55269,51.409534,-2.852195,50,21.36,10,185.0,15 / 20,5526923,2019-08-16 14:21:20:703,0.4858,0.0232,9.6017,0.0848,-0.0164,9.8063,-0.016,-0.0197,0.0005,-17.93,-5.13,-23.5,165.93,8.82,0.9
55270,51.409534,-2.852195,50,21.36,10,185.0,15 / 20,5527023,2019-08-16 14:21:20:803,0.1275,0.3245,9.8423,-0.002,-0.0042,9.8067,-0.0021,0.0219,0.0005,-18.64,-5.66,-22.81,164.1,8.81,0.87
55271,51.409534,-2.852195,50,21.36,10,185.0,15 / 20,5527123,2019-08-16 14:21:20:903,0.1406,0.3341,9.4625,-0.0114,0.0056,9.8066,-0.0298,0.0346,0.0218,-18.64,-5.66,-22.81,164.1,8.81,0.87
55272,51.409534,-2.852195,50,21.36,10,185.0,15 / 20,5527223,2019-08-16 14:21:21:003,0.1854,0.2042,9.6819,-0.0299,0.0162,9.8066,-0.0117,0.008,0.0133,-18.86,-5.72,-22.62,164.01,8.62,0.91
55273,51.409534,-2.852195,50,21.36,10,185.0,15 / 20,5527324,2019-08-16 14:21:21:104,-0.4733,-0.0829,9.3016,-0.0371,0.0141,9.8066,-0.0074,0.0496,0.0069,-18.97,-5.18,-22.66,164.01,8.62,0.91
55274,51.409534,-2.852195,50,21.36,10,185.0,15 / 20,5527424,2019-08-16 14:21:21:204,0.0605,-0.3164,9.6652,-0.0502,-0.0026,9.8065,-0.0096,0.0091,-0.0176,-18.66,-5.22,-22.9,166.46,8.34,0.82
55275,51.409534,-2.852195,50,21.36,10,185.0,15 / 20,5527523,2019-08-16 14:21:21:303,0.1656,-0.4739,8.8453,0.0197,-0.0251,9.8066,0.016,-0.0208,-0.0059,-18.66,-5.22,-22.9,166.46,8.34,0.82
55276,51.409534,-2.852195,50,21.36,10,185.0,15 / 20,5527623,2019-08-16 14:21:21:403,0.2157,-0.3533,9.2256,0.0172,-0.015,9.8066,0.0139,0.0559,0.0016,-17.78,-6.12,-23.37,163.49,8.48,0.7
55277,51.409534,-2.852195,50,21.36,10,185.0,15 / 20,5527723,2019-08-16 14:21:21:503,0.4194,-0.0681,9.979,0.0274,-0.0091,9.8066,-0.0011,-0.0005,0.0005,-17.93,-6.62,-23.12,161.09,8.65,0.7
55278,51.409336,-2.852216,52,21.43,10,184.7,15 / 20,5527824,2019-08-16 14:21:21:604,-0.3259,0.2841,10.7213,0.014,0.0098,9.8066,-0.0011,-0.0005,0.0005,-17.93,-6.62,-23.12,161.09,8.65,0.7
55279,51.409336,-2.852216,52,21.43,10,184.7,15 / 20,5527923,2019-08-16 14:21:21:703,0.2992,0.0574,10.1549,0.0013,0.0235,9.8066,-0.0021,0.0272,0.0069,-18.33,-5.7,-23.05,163.39,8.62,0.83
55280,51.409336,-2.852216,52,21.43,10,184.7,15 / 20,5528023,2019-08-16 14:21:21:803,-0.4166,-0.0016,10.1865,-0.0283,0.0023,9.8066,-0.0011,-0.0101,0.0005,-18.74,-4.79,-22.93,163.39,8.62,0.83
55281,51.409336,-2.852216,52,21.43,10,184.7,15 / 20,5528123,2019-08-16 14:21:21:903,-0.3339,0.1713,9.5491,-0.0366,0.0096,9.8066,0.0085,-0.0048,0.0144,-18.74,-4.79,-22.93,163.39,8.62,0.83
55282,51.409336,-2.852216,52,21.43,10,184.7,15 / 20,5528223,2019-08-16 14:21:22:003,-0.2158,0.0677,10.1705,0.0084,0.0146,9.8066,-0.0234,-0.0016,0.0016,-19.11,-5.47,-22.47,166.42,8.4,0.82
55283,51.409336,-2.852216,52,21.43,10,184.7,15 / 20,5528323,2019-08-16 14:21:22:103,0.1882,-0.2331,9.527,0.0024,-0.0156,9.8066,-0.0085,0.0378,-0.0133,-19.43,-5.09,-22.29,166.32,8.38,0.92
55284,51.409336,-2.852216,52,21.43,10,184.7,15 / 20,5528423,2019-08-16 14:21:22:203,0.3264,-0.0778,8.8026,0.0345,-0.0312,9.8065,0.0341,-0.0676,-0.0176,-19.43,-5.09,-22.29,166.32,8.38,0.92
55285,51.409336,-2.852216,52,21.43,10,184.7,15 / 20,5528523,2019-08-16 14:21:22:303,0.5006,-0.1551,9.0482,0.0192,-0.013,9.8066,0.0117,0.0219,0.0037,-17.89,-4.8,-23.6,166.0,8.62,0.79
55286,51.409336,-2.852216,52,21.43,10,184.7,15 / 20,5528623,2019-08-16 14:21:22:403,0.092,0.1225,9.6857,0.022,-0.0144,9.8066,0.0117,0.0219,0.0037,-13.24,-4.49,-26.54,166.0,8.62,0.79
55287,51.409336,-2.852216,52,21.43,10,184.7,15 / 20,5528723,2019-08-16 14:21:22:503,0.6125,0.0997,9.9651,0.0149,-0.0148,9.8066,0.0085,-0.0112,0.0112,-19.27,-4.72,-22.5,166.63,8.72,0.73
55288,51.40912,-2.852227,51,21.57,10,184.5,14 / 20,5528823,2019-08-16 14:21:22:603,-0.3981,0.1311,9.9515,0.0224,0.0088,9.8066,0.0245,-0.0463,0.0101,-19.27,-4.72,-22.5,166.63,8.72,0.73
55289,51.40912,-2.852227,51,21.57,10,184.5,14 / 20,5528923,2019-08-16 14:21:22:703,-0.31,0.2583,10.4579,-0.0019,0.0143,9.8066,-0.0021,0.0048,-0.0101,-19.15,-5.74,-22.37,164.09,8.84,0.81
55290,51.40912,-2.852227,51,21.57,10,184.5,14 / 20,5529023,2019-08-16 14:21:22:803,-0.0095,0.0522,10.5687,-0.027,0.0206,9.8066,-0.0064,0.0794,-0.0016,-19.69,-5.14,-22.04,166.97,8.65,0.88
55291,51.40912,-2.852227,51,21.57,10,184.5,14 / 20,5529123,2019-08-16 14:21:22:903,0.569,-0.0611,9.2469,-0.0228,-0.0025,9.8066,-0.0053,0.0006,0.0048,-19.69,-5.14,-22.04,166.97,8.65,0.88
55292,51.40912,-2.852227,51,21.57,10,184.5,14 / 20,5529223,2019-08-16 14:21:23:003,-0.3342,-0.0212,9.9318,-0.0273,-0.0071,9.8066,0.0373,-0.0271,-0.0069,-19.39,-5.61,-22.19,164.02,8.51,0.8
55293,51.40912,-2.852227,51,21.57,10,184.5,14 / 20,5529323,2019-08-16 14:21:23:103,-0.0066,0.4713,10.9527,-0.0099,0.024,9.8066,0.0203,-0.1294,-0.0005,-18.89,-5.41,-22.67,166.53,8.51,0.79
55294,51.40912,-2.852227,51,21.57,10,184.5,14 / 20,5529423,2019-08-16 14:21:23:203,-0.5445,0.5943,11.5825,0.0088,0.0323,9.8066,0.0203,-0.1294,-0.0005,-18.89,-5.41,-22.67,166.53,8.51,0.79
55295,51.40912,-2.852227,51,21.57,10,184.5,14 / 20,5529523,2019-08-16 14:21:23:303,-0.2811,-0.1474,9.1244,-0.0009,-0.0115,9.8066,-0.0021,-0.0879,-0.0101,-18.24,-5.1,-23.27,165.72,8.52,0.98
55296,51.40912,-2.852227,51,21.57,10,184.5,14 / 20,5529623,2019-08-16 14:21:23:403,0.4641,0.4124,9.6025,0.0363,-0.0085,9.8066,0.0096,-0.0133,-0.0123,-17.78,-6.12,-23.37,163.26,8.74,0.99
55297,51.40912,-2.852227,51,21.57,10,184.5,14 / 20,5529723,2019-08-16 14:21:23:503,-0.2715,0.1763,9.882,-0.008,-0.0135,9.8066,-0.0074,-0.0069,-0.0059,-17.73,-6.26,-23.38,163.26,8.74,0.99
55298,51.40892,-2.852227,53,21.5,10,184.2,14 / 20,5529823,2019-08-16 14:21:23:603,0.3297,-0.3706,9.551,-0.023,-0.0078,9.8066,0.0288,0.0006,-0.0037,-17.73,-6.26,-23.38,163.26,8.74,0.99
55299,51.40892,-2.852227,53,21.5,10,184.2,14 / 20,5529923,2019-08-16 14:21:23:703,0.371,0.1829,9.8174,-0.0087,0.02,9.8066,-0.0011,-0.0016,-0.0005,-17.78,-6.12,-23.37,163.32,8.62,0.91
55300,51.40892,-2.852227,53,21.5,10,184.2,14 / 20,5530023,2019-08-16 14:21:23:803,-0.3289,-0.1978,10.0385,-0.0038,0.0094,9.8066,-0.0341,-0.0101,0.0122,-18.22,-4.77,-23.36,165.77,8.59,0.95
55301,51.40892,-2.852227,53,21.5,10,184.2,14 / 20,5530123,2019-08-16 14:21:23:903,0.6348,0.0306,9.2708,0.0216,-0.0064,9.8066,-0.0341,-0.0101,0.0122,-17.63,-5.62,-23.62,165.77,8.59,0.95
55302,51.40892,-2.852227,53,21.5,10,184.2,14 / 20,5530223,2019-08-16 14:21:24:003,0.064,0.2872,10.737,-0.034,-0.0133,9.8066,-0.0149,0.0314,0.0048,-17.63,-5.62,-23.62,165.77,8.59,0.95
55303,51.40892,-2.852227,53,21.5,10,184.2,14 / 20,5530323,2019-08-16 14:21:24:103,-0.3745,0.112,9.2298,-0.0323,-0.0148,9.8066,-0.016,-0.0453,-0.0016,-18.89,-5.41,-22.67,166.47,8.41,0.83
55304,51.40892,-2.852227,53,21.5,10,184.2,14 / 20,5530423,2019-08-16 14:21:24:203,0.5464,-0.2261,9.5761,0.0173,-0.0418,9.8065,0.0203,-0.0911,-0.0176,-19.47,-4.98,-22.27,166.47,8.41,0.83
55305,51.40892,-2.852227,53,21.5,10,184.2,14 / 20,5530523,2019-08-16 14:21:24:303,0.0097,-0.1643,8.7842,0.0098,-0.0116,9.8066,0.0,-0.0271,0.0037,-18.38,-5.4,-23.08,166.11,8.57,0.61
55306,51.40892,-2.852227,53,21.5,10,184.2,14 / 20,5530624,2019-08-16 14:21:24:404,0.752,-0.2769,9.472,0.0119,-0.0127,9.8066,0.0224,0.0261,-0.0112,-17.79,-5.82,-23.45,166.11,8.57,0.61
55307,51.40892,-2.852227,53,21.5,10,184.2,14 / 20,5530723,2019-08-16 14:21:24:503,0.313,-0.196,9.9751,0.0231,-0.0215,9.8066,-0.0106,0.0336,0.0037,-18.55,-5.91,-22.83,164.42,8.73,0.52
55308,51.408714,-2.852254,52,21.59,10,184.3,15 / 20,5530823,2019-08-16 14:21:24:603,0.029,-0.1417,9.1373,-0.0367,-0.0151,9.8066,-0.0319,0.0293,-0.0005,-18.55,-5.91,-22.83,164.42,8.73,0.52
55309,51.408714,-2.852254,52,21.59,10,184.3,15 / 20,5530924,2019-08-16 14:21:24:704,-0.2092,-0.1556,9.5532,-0.0378,-0.0086,9.8066,-0.0319,0.0293,-0.0005,-17.78,-6.12,-23.37,163.83,8.55,0.38
55310,51.408714,-2.852254,52,21.59,10,184.3,15 / 20,5531023,2019-08-16 14:21:24:803,0.1608,0.4432,10.6019,-0.0208,-0.0052,9.8066,-0.0224,-0.057,-0.0165,-17.88,-5.56,-23.44,163.89,8.35,0.27
55311,51.408714,-2.852254,52,21.59,10,184.3,15 / 20,5531123,2019-08-16 14:21:24:903,0.1145,-0.0648,10.3708,-0.0034,-0.0048,9.8067,0.0064,0.0101,-0.0005,-18.03,-6.05,-23.2,163.92,8.34,0.23
55312,51.408714,-2.852254,52,21.59,10,184.3,15 / 20,5531223,2019-08-16 14:21:25:003,-0.1182,-0.343,9.7491,0.0341,-0.021,9.8066,0.0234,-0.0357,0.0101,-18.03,-6.05,-23.2,163.92,8.34,0.23
55313,51.408714,-2.852254,52,21.59,10,184.3,15 / 20,5531323,2019-08-16 14:21:25:103,-0.5127,0.0278,9.4274,0.0067,0.0346,9.8066,0.0256,0.0378,0.0176,-18.54,-5.77,-22.87,164.72,8.56,0.17
55314,51.408714,-2.852254,52,21.59,10,184.3,15 / 20,5531423,2019-08-16 14:21:25:203,-0.0416,0.0702,10.1246,0.0029,0.0219,9.8066,-0.0074,0.0187,0.0059,-18.56,-6.08,-22.78,164.51,8.55,0.38
55315,51.408714,-2.852254,52,21.59,10,184.3,15 / 20,5531523,2019-08-16 14:21:25:303,-0.4269,0.5043,9.9301,-0.0063,0.0347,9.8066,-0.0085,0.0538,-0.0059,-17.56,-5.6,-23.67,163.7,8.46,0.56
55316,51.408714,-2.852254,52,21.59,10,184.3,15 / 20,5531623,2019-08-16 14:21:25:403,-0.6336,0.3324,10.2056,-0.0278,0.0129,9.8066,-0.0085,0.0538,-0.0059,-17.56,-5.6,-23.67,163.7,8.46,0.56
55317,51.408714,-2.852254,52,21.59,10,184.3,15 / 20,5531723,2019-08-16 14:21:25:503,0.1913,0.2877,10.3593,-0.0369,0.0254,9.8065,0.0096,-0.0218,0.0048,-18.24,-6.12,-23.02,163.54,8.28,0.59
55318,51.40852,-2.852267,53,21.58,10,184.2,15 / 20,5531823,2019-08-16 14:21:25:603,0.4818,0.538,9.9049,-0.0322,0.0309,9.8065,0.0021,-0.041,-0.0112,-18.03,-6.05,-23.2,163.36,8.05,0.71
55319,51.40852,-2.852267,53,21.58,10,184.2,15 / 20,5531924,2019-08-16 14:21:25:704,-0.4697,0.0257,8.8628,0.0229,-0.0248,9.8066,-0.0106,0.0581,-0.0048,-18.03,-6.05,-23.2,163.36,8.05,0.71
55320,51.40852,-2.852267,53,21.58,10,184.2,15 / 20,5532023,2019-08-16 14:21:25:803,0.0625,0.0913,8.5021,0.063,-0.0486,9.8063,-0.0021,-0.0335,-0.0037,-17.8,-5.97,-23.4,163.36,8.05,0.71
55321,51.40852,-2.852267,53,21.58,10,184.2,15 / 20,5532123,2019-08-16 14:21:25:903,0.4125,0.0678,9.7499,0.0013,-0.0324,9.8066,-0.0085,-0.0208,-0.0197,-18.0,-5.81,-23.28,163.75,8.63,0.48
55322,51.40852,-2.852267,53,21.58,10,184.2,15 / 20,5532223,2019-08-16 14:21:26:003,-0.1967,-0.4786,10.3487,-0.03,-0.0644,9.8064,-0.016,0.0176,0.0048,-18.0,-5.81,-23.28,163.75,8.63,0.48
55323,51.40852,-2.852267,53,21.58,10,184.2,15 / 20,5532324,2019-08-16 14:21:26:104,-0.2317,-0.019,10.3846,-0.0318,-0.0087,9.8066,0.0224,0.024,-0.0069,-18.54,-5.77,-22.87,164.83,8.57,0.06
55324,51.40852,-2.852267,53,21.58,10,184.2,15 / 20,5532423,2019-08-16 14:21:26:203,0.2231,-0.2364,8.8648,-0.0649,-0.0012,9.8064,0.0096,-0.0378,0.0037,-19.04,-6.09,-22.37,164.83,8.57,0.06
55325,51.40852,-2.852267,53,21.58,10,184.2,15 / 20,5532523,2019-08-16 14:21:26:303,0.0865,0.244,9.4121,0.0114,0.0043,9.8066,0.0096,-0.0378,0.0037,-17.71,-6.09,-23.43,164.17,8.2,-0.05
55326,51.40852,-2.852267,53,21.58,10,184.2,15 / 20,5532624,2019-08-16 14:21:26:404,-0.0777,0.5205,9.9956,0.0378,0.0094,9.8066,0.0021,-0.0122,-0.0123,-17.22,-6.36,-23.73,164.17,8.2,-0.05
55327,51.40852,-2.852267,53,21.58,10,184.2,15 / 20,5532723,2019-08-16 14:21:26:503,-0.5245,0.5326,9.8907,0.0318,0.0012,9.8066,0.0032,0.0282,0.0133,-17.22,-6.36,-23.73,164.17,8.2,-0.05
55328,51.40834,-2.852304,53,21.46,10,184.5,15 / 20,5532823,2019-08-16 14:21:26:603,0.1176,0.5089,9.1541,0.0004,0.0,9.8067,0.0,-0.0559,-0.0027,-17.66,-6.52,-23.36,161.68,8.38,0.01
55329,51.40834,-2.852304,53,21.46,10,184.5,15 / 20,5532923,2019-08-16 14:21:26:703,-0.4686,0.1999,10.0903,-0.0005,-0.0015,9.8067,-0.0096,0.0133,-0.0027,-16.98,-5.99,-23.99,163.54,8.38,0.0
55330,51.40834,-2.852304,53,21.46,10,184.5,15 / 20,5533022,2019-08-16 14:21:26:802,0.188,-0.0222,9.3522,-0.0224,-0.003,9.8066,-0.0106,-0.0101,-0.0059,-16.98,-5.99,-23.99,163.54,8.38,0.0
55331,51.40834,-2.852304,53,21.46,10,184.5,15 / 20,5533123,2019-08-16 14:21:26:903,-0.2404,-0.3165,10.02,-0.0181,-0.0105,9.8066,-0.0021,0.0016,0.0112,-18.28,-5.99,-23.02,164.19,8.26,-0.05
55332,51.40834,-2.852304,53,21.46,10,184.5,15 / 20,5533223,2019-08-16 14:21:27:003,0.2075,-0.241,10.3696,0.005,0.0024,9.8066,-0.0021,0.0016,0.0112,-18.21,-6.11,-23.05,164.26,8.17,-0.14
55333,51.40834,-2.852304,53,21.46,10,184.5,15 / 20,5533323,2019-08-16 14:21:27:103,0.0078,-0.0962,8.672,0.0088,0.0213,9.8066,0.0245,0.0027,0.0016,-18.32,-5.63,-23.08,164.13,8.19,-0.01
55334,51.40834,-2.852304,53,21.46,10,184.5,15 / 20,5533423,2019-08-16 14:21:27:203,0.0211,-0.0209,9.4833,0.0274,0.024,9.8066,0.0448,-0.0346,-0.0027,-18.32,-5.63,-23.08,164.13,8.19,-0.01
55335,51.40834,-2.852304,53,21.46,10,184.5,15 / 20,5533523,2019-08-16 14:21:27:303,-0.1129,0.327,9.9065,0.0227,0.0214,9.8066,0.0149,-0.0005,0.0037,-18.04,-5.68,-23.28,163.97,8.31,0.18
55336,51.40834,-2.852304,53,21.46,10,184.5,15 / 20,5533623,2019-08-16 14:21:27:403,0.0441,0.6078,10.6856,0.0475,0.0403,9.8065,-0.0234,0.024,0.008,-17.42,-6.15,-23.64,163.06,8.51,0.48
55337,51.40834,-2.852304,53,21.46,10,184.5,15 / 20,5533723,2019-08-16 14:21:27:503,0.2047,0.4202,9.9268,0.0098,0.004,9.8066,-0.0074,-0.0122,0.0016,-17.42,-6.15,-23.64,163.06,8.51,0.48
55338,51.408146,-2.852342,51,21.58,10,184.6,15 / 20,5533823,2019-08-16 14:21:27:603,-0.2931,0.388,10.286,0.0013,0.0074,9.8066,-0.0085,0.0474,0.0048,-17.96,-6.18,-23.23,163.67,8.5,0.53
55339,51.408146,-2.852342,51,21.58,10,184.6,15 / 20,5533923,2019-08-16 14:21:27:703,-0.5874,0.209,10.1208,-0.0167,0.0037,9.8066,-0.0085,0.0474,0.0048,-17.48,-6.01,-23.63,162.98,8.4,0.52
55340,51.408146,-2.852342,51,21.58,10,184.6,15 / 20,5534023,2019-08-16 14:21:27:803,-0.1857,-0.0715,10.1229,-0.0202,0.0074,9.8066,0.0171,0.04,0.0101,-17.48,-6.01,-23.63,162.98,8.4,0.52
55341,51.408146,-2.852342,51,21.58,10,184.6,15 / 20,5534123,2019-08-16 14:21:27:903,-0.2745,-0.249,9.8856,-0.0024,-0.0088,9.8066,0.0011,0.0069,0.0016,-18.55,-5.39,-22.95,166.74,8.28,0.53
55342,51.408146,-2.852342,51,21.58,10,184.6,15 / 20,5534223,2019-08-16 14:21:28:003,0.3035,0.1517,9.4216,0.0024,-0.0016,9.8066,-0.0362,0.008,0.0112,-18.55,-5.39,-22.95,166.74,8.28,0.53
55343,51.408146,-2.852342,51,21.58,10,184.6,15 / 20,5534323,2019-08-16 14:21:28:103,-0.2133,0.0005,9.8908,0.0141,-0.0104,9.8066,-0.0213,-0.0133,0.0133,-19.03,-5.85,-22.44,164.24,8.29,0.52
55344,51.408146,-2.852342,51,21.58,10,184.6,15 / 20,5534423,2019-08-16 14:21:28:203,0.4986,-0.4342,9.0986,0.0179,-0.0079,9.8066,0.0021,-0.0197,0.0218,-18.57,-5.64,-22.87,164.37,8.39,0.48
55345,51.408146,-2.852342,51,21.58,10,184.6,15 / 20,5534524,2019-08-16 14:21:28:304,-0.0663,-0.2461,8.7989,0.017,-0.0029,9.8066,0.0075,0.0293,0.0027,-17.51,-6.02,-23.6,163.78,8.49,0.49
55346,51.408146,-2.852342,51,21.58,10,184.6,15 / 20,5534623,2019-08-16 14:21:28:403,0.4258,0.3587,9.4282,0.0012,0.0275,9.8066,0.0192,-0.0517,-0.0069,-17.51,-6.02,-23.6,163.78,8.49,0.49
55347,51.408146,-2.852342,51,21.58,10,184.6,15 / 20,5534723,2019-08-16 14:21:28:503,0.2547,-0.2174,8.7143,-0.0192,0.0188,9.8066,0.0192,-0.0517,-0.0069,-17.76,-5.96,-23.43,163.53,8.45,0.65
55348,51.407944,-2.852352,50,21.61,10,184.3,14 / 20,5534823,2019-08-16 14:21:28:603,0.0663,0.0227,9.8321,-0.0044,0.0322,9.8066,0.0288,-0.0112,-0.0037,-17.31,-7.0,-23.48,163.53,8.45,0.65
55349,51.407944,-2.852352,50,21.61,10,184.3,14 / 20,5534923,2019-08-16 14:21:28:703,0.0926,-0.0625,9.7378,-0.0178,0.0233,9.8066,-0.0096,0.0272,0.0208,-17.95,-6.46,-23.16,163.39,8.31,0.75
55350,51.407944,-2.852352,50,21.61,10,184.3,14 / 20,5535024,2019-08-16 14:21:28:804,0.3132,-0.266,9.6614,-0.005,-0.0016,9.8066,-0.0096,0.024,0.0123,-18.0,-6.04,-23.23,163.4,8.29,0.74
55351,51.407944,-2.852352,50,21.61,10,184.3,14 / 20,5535123,2019-08-16 14:21:28:903,-0.0579,-0.1872,9.4883,-0.0001,-0.0257,9.8066,-0.017,-0.0431,-0.0048,-18.0,-6.04,-23.23,163.4,8.29,0.74
55352,51.407944,-2.852352,50,21.61,10,184.3,14 / 20,5535223,2019-08-16 14:21:29:003,-0.4725,-0.205,9.8195,0.0182,-0.0347,9.8066,-0.0042,-0.0293,0.0037,-18.45,-6.19,-22.83,163.56,8.33,0.59
55353,51.407944,-2.852352,50,21.61,10,184.3,14 / 20,5535323,2019-08-16 14:21:29:103,-0.0694,0.1464,9.9309,0.0263,-0.0528,9.8065,0.016,-0.0026,-0.0016,-18.46,-6.49,-22.74,163.56,8.33,0.59
55354,51.407944,-2.852352,50,21.61,10,184.3,14 / 20,5535424,2019-08-16 14:21:29:204,-0.5481,0.0991,9.7736,-0.0026,-0.0017,9.8066,0.0298,0.0208,-0.0176,-18.24,-6.12,-23.02,163.87,8.56,0.34
55355,51.407944,-2.852352,50,21.61,10,184.3,14 / 20,5535524,2019-08-16 14:21:29:304,-0.3728,-0.0987,9.7595,-0.0281,0.0053,9.8066,0.0298,0.0208,-0.0176,-17.76,-5.73,-23.49,163.85,8.4,0.32
55356,51.407944,-2.852352,50,21.61,10,184.3,14 / 20,5535623,2019-08-16 14:21:29:403,-0.2161,0.2309,10.1643,-0.0162,0.0038,9.8066,0.0192,0.0059,-0.0037,-17.76,-5.73,-23.49,163.85,8.4,0.32
55357,51.407944,-2.852352,50,21.61,10,184.3,14 / 20,5535724,2019-08-16 14:21:29:504,-0.61,-0.1346,9.677,0.0042,0.011,9.8066,-0.0011,-0.0208,-0.0091,-17.6,-6.67,-23.36,161.36,8.3,0.31
55358,51.407757,-2.852376,50,21.57,10,184.3,14 / 20,5535823,2019-08-16 14:21:29:603,-0.0994,0.2686,9.8645,0.0041,0.0188,9.8066,-0.016,0.0155,-0.0101,-17.6,-6.94,-23.28,161.36,8.3,0.31
55359,51.407757,-2.852376,50,21.57,10,184.3,14 / 20,5535924,2019-08-16 14:21:29:704,0.233,-0.3111,9.3835,0.0097,0.0062,9.8066,0.0245,-0.0495,-0.0123,-18.03,-6.05,-23.2,163.79,8.34,0.37
55360,51.407757,-2.852376,50,21.57,10,184.3,14 / 20,5536023,2019-08-16 14:21:29:803,0.2999,-0.1688,9.9404,0.0152,-0.0102,9.8066,0.0117,0.0187,0.0048,-18.03,-6.05,-23.2,163.79,8.34,0.37
55361,51.407757,-2.852376,50,21.57,10,184.3,14 / 20,5536123,2019-08-16 14:21:29:903,0.0364,0.2427,9.5469,0.0201,-0.0132,9.8066,-0.0149,0.0165,-0.0059,-18.52,-6.06,-22.81,164.55,8.48,0.33
55362,51.407757,-2.852376,50,21.57,10,184.3,14 / 20,5536223,2019-08-16 14:21:30:003,-0.2612,0.4345,10.4686,-0.0143,-0.0002,9.8066,-0.0149,0.0165,-0.0059,-18.49,-6.2,-22.8,163.87,8.45,0.32
55363,51.407757,-2.852376,50,21.57,10,184.3,14 / 20,5536323,2019-08-16 14:21:30:103,-0.4635,0.3884,10.5335,-0.0095,0.0089,9.8066,0.016,0.0016,0.0144,-18.49,-6.2,-22.8,163.87,8.45,0.32
55364,51.407757,-2.852376,50,21.57,10,184.3,14 / 20,5536423,2019-08-16 14:21:30:203,0.5309,-0.0155,10.1457,0.0099,0.0136,9.8066,0.0171,-0.0378,0.0101,-18.18,-6.55,-22.94,161.35,8.39,0.35
55365,51.407757,-2.852376,50,21.57,10,184.3,14 / 20,5536523,2019-08-16 14:21:30:303,0.5012,-0.1897,9.662,-0.0149,0.0153,9.8066,-0.0256,0.0293,-0.0069,-18.24,-6.12,-23.02,161.35,8.39,0.35
55366,51.407757,-2.852376,50,21.57,10,184.3,14 / 20,5536624,2019-08-16 14:21:30:404,-0.2972,-0.189,9.8316,-0.033,-0.0057,9.8066,-0.0149,0.0293,-0.0101,-18.03,-6.05,-23.2,163.73,8.27,0.41
55367,51.407757,-2.852376,50,21.57,10,184.3,14 / 20,5536723,2019-08-16 14:21:30:503,-0.0423,-0.3596,8.823,-0.0366,-0.0308,9.8065,-0.017,-0.0538,-0.0144,-17.63,-6.95,-23.25,161.45,8.12,0.17
55368,51.40757,-2.85242,51,21.5,10,184.6,14 / 20,5536822,2019-08-16 14:21:30:602,0.2622,-0.562,9.4026,0.019,-0.0341,9.8066,0.0117,-0.0165,-0.0005,-17.63,-6.95,-23.25,161.45,8.12,0.17
55369,51.40757,-2.85242,51,21.5,10,184.6,14 / 20,5536923,2019-08-16 14:21:30:703,0.2032,0.0321,11.2342,0.0071,-0.0249,9.8066,0.0139,-0.0431,-0.0069,-17.69,-6.53,-23.33,161.65,8.29,0.02
55370,51.40757,-2.85242,51,21.5,10,184.6,14 / 20,5537023,2019-08-16 14:21:30:803,0.0623,0.0125,8.5888,-0.0027,-0.0255,9.8066,0.0139,-0.0431,-0.0069,-17.2,-6.78,-23.62,161.65,8.29,0.02
55371,51.40757,-2.85242,51,21.5,10,184.6,14 / 20,5537123,2019-08-16 14:21:30:903,0.0481,-0.0579,9.982,-0.012,0.0036,9.8066,-0.0085,-0.0165,0.0005,-18.03,-6.05,-23.2,164.28,8.27,-0.13
55372,51.40757,-2.85242,51,21.5,10,184.6,14 / 20,5537222,2019-08-16 14:21:31:002,-0.0969,0.2171,9.3602,0.0274,0.0024,9.8066,0.0224,-0.0591,-0.0016,-18.82,-5.71,-22.65,164.93,8.2,-0.13
55373,51.40757,-2.85242,51,21.5,10,184.6,14 / 20,5537323,2019-08-16 14:21:31:103,0.6005,-0.0497,8.4702,0.0474,0.003,9.8065,0.0107,-0.0325,-0.0091,-18.82,-5.71,-22.65,164.93,8.2,-0.13
55374,51.40757,-2.85242,51,21.5,10,184.6,14 / 20,5537423,2019-08-16 14:21:31:203,0.022,-0.1828,9.2895,0.0169,-0.0008,9.8066,0.0107,-0.0485,-0.0069,-18.74,-6.29,-22.57,164.9,8.46,-0.04
55375,51.40757,-2.85242,51,21.5,10,184.6,14 / 20,5537523,2019-08-16 14:21:31:303,-0.322,-0.1783,10.1263,0.0257,0.0101,9.8066,-0.017,0.0591,-0.0027,-17.85,-5.55,-23.47,164.16,8.59,0.06
55376,51.40757,-2.85242,51,21.5,10,184.6,14 / 20,5537622,2019-08-16 14:21:31:402,0.141,-0.045,9.4792,-0.0031,-0.0047,9.8066,0.0032,0.0027,0.0005,-17.54,-6.03,-23.58,164.3,8.58,0.02
55377,51.40757,-2.85242,51,21.5,10,184.6,14 / 20,5537723,2019-08-16 14:21:31:503,-0.3053,0.0498,10.8172,-0.0171,-0.012,9.8066,-0.0277,0.0506,0.008,-17.4,-6.59,-23.54,164.3,8.58,0.02
55378,51.407383,-2.852446,51,21.49,10,184.7,14 / 20,5537823,2019-08-16 14:21:31:603,0.1318,-0.0227,9.932,-0.0578,-0.0127,9.8065,-0.0277,0.0506,0.008,-17.4,-6.59,-23.54,164.3,8.58,0.02
55379,51.407383,-2.852446,51,21.49,10,184.7,14 / 20,5537923,2019-08-16 14:21:31:703,-0.3912,0.1977,9.9294,0.0311,-0.0016,9.8066,0.0075,0.0165,0.0037,-17.98,-6.47,-23.13,164.29,8.22,-0.15
55380,51.407383,-2.852446,51,21.49,10,184.7,14 / 20,5538023,2019-08-16 14:21:31:803,-0.3299,0.2311,9.7849,0.0465,0.0026,9.8065,0.0234,-0.0101,-0.0069,-17.98,-6.47,-23.13,164.29,8.22,-0.15
55381,51.407383,-2.852446,51,21.49,10,184.7,14 / 20,5538123,2019-08-16 14:21:31:903,-0.5259,0.111,10.6072,0.0002,0.0021,9.8067,-0.0149,-0.009,-0.0154,-17.46,-6.44,-23.53,163.64,8.48,-0.06
55382,51.407383,-2.852446,51,21.49,10,184.7,14 / 20,5538223,2019-08-16 14:21:32:003,0.2196,0.0304,10.729,0.0004,0.0116,9.8066,0.0128,0.0485,-0.0005,-18.37,-5.57,-23.06,164.24,8.48,-0.05
55383,51.407383,-2.852446,51,21.49,10,184.7,14 / 20,5538323,2019-08-16 14:21:32:103,0.1345,-0.1531,9.563,-0.0031,0.0214,9.8066,0.0266,-0.0112,-0.0016,-18.37,-5.57,-23.06,164.24,8.48,-0.05
55384,51.407383,-2.852446,51,21.49,10,184.7,14 / 20,5538423,2019-08-16 14:21:32:203,-0.1696,-0.2317,9.7375,-0.0057,0.0086,9.8066,-0.0117,0.0293,0.0112,-18.28,-6.13,-22.99,164.11,8.42,0.07
55385,51.407383,-2.852446,51,21.49,10,184.7,14 / 20,5538523,2019-08-16 14:21:32:303,0.4505,0.0563,9.3641,0.0088,0.0122,9.8066,-0.0117,0.0293,0.0112,-18.38,-5.26,-23.12,164.11,8.42,0.07
55386,51.407383,-2.852446,51,21.49,10,184.7,14 / 20,5538623,2019-08-16 14:21:32:403,0.3342,0.2291,9.4497,0.0189,0.0005,9.8066,0.0117,-0.0517,0.0016,-17.8,-5.67,-23.47,164.04,8.45,0.15
55387,51.407383,-2.852446,51,21.49,10,184.7,14 / 20,5538723,2019-08-16 14:21:32:503,0.0259,0.3752,10.2603,0.0442,-0.0052,9.8066,-0.0106,0.0432,-0.0048,-17.49,-6.46,-23.5,163.43,8.71,0.19
55388,51.407204,-2.852486,50,21.46,9,184.9,14 / 20,5538823,2019-08-16 14:21:32:603,0.1763,0.1407,10.3489,-0.0249,-0.0022,9.8066,0.0085,-0.0186,-0.0112,-17.83,-5.98,-23.37,163.43,8.71,0.19
55389,51.407204,-2.852486,50,21.46,9,184.9,14 / 20,5538923,2019-08-16 14:21:32:703,-0.0209,-0.2092,9.4558,0.008,0.0055,9.8066,0.0203,0.0133,-0.0016,-17.51,-5.72,-23.68,164.18,8.58,0.14
55390,51.407204,-2.852486,50,21.46,9,184.9,14 / 20,5539023,2019-08-16 14:21:32:803,-0.1735,0.0639,9.8528,0.0121,0.0097,9.8066,-0.0128,0.0432,0.0112,-17.51,-5.72,-23.68,164.18,8.58,0.14
55391,51.407204,-2.852486,50,21.46,9,184.9,14 / 20,5539124,2019-08-16 14:21:32:904,0.3751,-0.0173,10.6635,-0.0111,0.0086,9.8066,-0.0383,0.0485,0.0112,-17.72,-5.08,-23.67,166.62,8.63,0.21
55392,51.407204,-2.852486,50,21.46,9,184.9,14 / 20,5539223,2019-08-16 14:21:33:003,0.0656,-0.0955,9.449,-0.0169,0.0134,9.8066,-0.0383,0.0485,0.0112,-18.61,-5.65,-22.84,164.61,8.51,0.27
55393,51.407204,-2.852486,50,21.46,9,184.9,14 / 20,5539322,2019-08-16 14:21:33:102,-0.2109,0.1765,9.4453,0.0064,-0.0074,9.8066,-0.0096,-0.0261,-0.0069,-18.56,-6.08,-22.78,164.61,8.51,0.27
55394,51.407204,-2.852486,50,21.46,9,184.9,14 / 20,5539423,2019-08-16 14:21:33:203,0.1691,-0.1686,10.2466,0.0239,-0.0225,9.8066,-0.016,0.0069,0.0027,-18.56,-6.08,-22.78,164.61,8.51,0.27
55395,51.407204,-2.852486,50,21.46,9,184.9,14 / 20,5539524,2019-08-16 14:21:33:304,-0.6736,0.4634,10.1287,0.0285,-0.0123,9.8066,0.0245,0.0378,0.0005,-18.33,-5.7,-23.05,164.07,8.68,0.18
55396,51.407204,-2.852486,50,21.46,9,184.9,14 / 20,5539623,2019-08-16 14:21:33:403,0.3772,0.3087,9.3726,0.0293,-0.0048,9.8066,-0.0106,0.0485,0.0059,-17.54,-6.03,-23.58,164.19,8.86,0.2
55397,51.407204,-2.852486,50,21.46,9,184.9,14 / 20,5539723,2019-08-16 14:21:33:503,0.2756,-0.074,9.6602,-0.028,-0.0002,9.8066,-0.0011,0.024,-0.0101,-17.54,-6.03,-23.58,164.19,8.86,0.2
55398,51.40701,-2.852509,51,21.48,9,184.9,14 / 20,5539823,2019-08-16 14:21:33:603,-0.2407,0.0126,9.6959,-0.0042,-0.0045,9.8066,-0.0319,-0.0037,-0.0059,-17.54,-6.03,-23.58,164.2,8.7,0.15
55399,51.40701,-2.852509,51,21.48,9,184.9,14 / 20,5539924,2019-08-16 14:21:33:704,0.1635,-0.1881,9.7928,-0.0071,-0.0221,9.8066,-0.0319,-0.0037,-0.0059,-17.78,-6.4,-23.3,164.23,8.69,0.01
55400,51.40701,-2.852509,51,21.48,9,184.9,14 / 20,5540023,2019-08-16 14:21:33:803,0.0176,-0.2909,9.8678,-0.0019,-0.0213,9.8066,-0.0042,0.0346,-0.0176,-17.78,-6.4,-23.3,164.23,8.69,0.01
55401,51.40701,-2.852509,51,21.48,9,184.9,14 / 20,5540124,2019-08-16 14:21:33:904,-0.1352,0.0435,10.2774,-0.0055,-0.0127,9.8066,0.0107,0.0229,-0.0186,-17.78,-6.4,-23.3,164.37,8.72,-0.11
55402,51.40701,-2.852509,51,21.48,9,184.9,14 / 20,5540222,2019-08-16 14:21:34:002,-0.1634,0.1264,9.6793,0.0076,-0.0182,9.8066,0.0021,-0.0282,0.0059,-18.61,-5.65,-22.84,165.13,8.79,-0.2
55403,51.40701,-2.852509,51,21.48,9,184.9,14 / 20,5540323,2019-08-16 14:21:34:103,0.0676,0.2708,9.5133,0.0049,0.0005,9.8066,0.0075,0.0325,0.0154,-18.61,-5.65,-22.84,165.13,8.79,-0.2
55404,51.40701,-2.852509,51,21.48,9,184.9,14 / 20,5540423,2019-08-16 14:21:34:203,-0.2026,-0.369,9.1138,0.002,0.0017,9.8066,-0.0032,-0.0527,0.0154,-18.52,-6.21,-22.77,165.12,8.8,-0.19
55405,51.40701,-2.852509,51,21.48,9,184.9,14 / 20,5540523,2019-08-16 14:21:34:303,0.5727,-0.0394,9.7766,0.03,0.0046,9.8066,0.0107,-0.0762,0.0005,-18.52,-6.21,-22.77,165.12,8.8,-0.19
55406,51.40701,-2.852509,51,21.48,9,184.9,14 / 20,5540623,2019-08-16 14:21:34:403,0.6271,-0.4945,10.1789,0.0417,-0.0066,9.8066,0.0107,-0.0762,0.0005,-18.58,-5.78,-22.83,165.09,8.96,-0.12
55407,51.40701,-2.852509,51,21.48,9,184.9,14 / 20,5540723,2019-08-16 14:21:34:503,0.0124,-0.3559,10.2408,-0.0098,0.011,9.8066,0.0149,0.0687,-0.0016,-17.49,-6.46,-23.5,163.88,9.33,-0.06
55408,51.406803,-2.852533,51,21.49,9,184.8,14 / 20,5540823,2019-08-16 14:21:34:603,0.0785,-0.1846,10.4528,-0.0307,0.0245,9.8066,0.032,0.0027,-0.0016,-17.67,-6.97,-23.22,163.88,9.33,-0.06
