,GPS LATITUDE (degrees), GPS LONGITUDE (degrees), GPS ALTITUDE (m), GPS SPEED (Kmh), GPS ACCURACY (m), GPS ORIENTATION (Â°),GPS SATELLITES IN RANGE, TIME SINCE START (ms), DATE (YYYY-MO-DD HH-MI-SS_SSS), ACCELEROMETER X (m/s²) , ACCELEROMETER Y (m/s²), ACCELEROMETER Z (m/s²), GRAVITY X (m/s²), GRAVITY Y (m/s²), GRAVITY Z (m/s²), GYROSCOPE Yaw (rad/s), GYROSCOPE Pitch (rad/s), GYROSCOPE Roll (rad/s), MAGNETIC FIELD X (Î¼T), MAGNETIC FIELD Y (Î¼T), MAGNETIC FIELD Z (Î¼T), ORIENTATION (Yaw) (Â°), ORIENTATION (Pitch) (Â°), ORIENTATION (Roll ) (Â°)
1164,53.17238,-1.682001,194.82,1.67,3,313.41,19 / 20,1589014,2019-11-06 16:32:49:476,0.8281,-1.7863,9.5902,0.0251,-0.0226,9.8065,-0.0302,0.1488,-0.0363,3.44,-36.5,0.63,6.05,-87.2,111.12
1165,53.17238,-1.682001,194.82,1.67,3,313.41,19 / 20,1589114,2019-11-06 16:32:49:576,0.7429,-0.3187,9.8427,0.0057,-0.011,9.8065,-0.0175,0.1735,-0.1133,3.38,-37.19,0.5,358.08,-87.07,107.67
1166,53.17238,-1.682001,194.82,1.67,3,313.41,19 / 20,1589214,2019-11-06 16:32:49:676,-0.6012,-0.7054,9.8626,-0.0117,-0.0207,9.8065,-0.0205,0.1722,-0.0588,3.19,-36.94,0.38,42.19,-87.15,107.77
1167,53.17238,-1.682001,194.82,1.67,3,313.41,19 / 20,1589314,2019-11-06 16:32:49:776,0.8293,1.1535,9.8356,0.0022,-0.0071,9.8066,-0.0052,0.1511,-0.0627,3.44,-37.06,0.0,41.96,-87.09,107.17
1168,53.17238,-1.682001,194.82,1.67,3,313.41,19 / 20,1589413,2019-11-06 16:32:49:875,0.466,0.4549,9.8125,0.0105,-0.0163,9.8066,-0.0445,0.1306,-0.0634,3.13,-37.31,0.56,356.18,-87.1,106.88
1169,53.17238,-1.682001,194.82,1.67,3,313.41,19 / 20,1589513,2019-11-06 16:32:49:975,0.6176,1.3401,9.8846,-0.0037,-0.0193,9.8066,-0.0081,-0.0341,-0.0278,3.56,-37.69,0.69,5.1,-87.02,106.69
1170,53.17238,-1.682001,194.82,1.67,3,313.41,19 / 20,1589614,2019-11-06 16:32:50:076,0.5548,-0.7912,9.4603,0.007,-0.0028,9.8066,-0.0538,0.0649,-0.0304,3.5,-37.75,0.44,31.84,-86.99,106.57
1171,53.17238,-1.682001,194.82,1.67,3,313.41,19 / 20,1589714,2019-11-06 16:32:50:176,0.5835,-1.023,9.696,-0.024,-0.0391,9.8065,0.0353,0.0378,-0.1496,4.38,-37.12,1.13,10.65,-86.87,109.48
1172,53.17238,-1.682001,194.82,1.67,3,313.41,19 / 20,1589814,2019-11-06 16:32:50:276,0.8483,-0.2505,10.1428,-0.0068,-0.0159,9.8066,0.0084,0.1694,0.0311,4.81,-38.19,1.31,21.21,-86.69,113.54
1173,53.17238,-1.682001,194.82,1.67,3,313.41,19 / 20,1589914,2019-11-06 16:32:50:376,0.9542,0.6021,9.7861,0.0064,0.002,9.8066,0.0065,0.1064,-0.0591,4.69,-37.81,0.81,20.97,-86.73,113.5
1174,53.17238,-1.682001,194.82,1.67,3,313.41,19 / 20,1590013,2019-11-06 16:32:50:475,0.7382,0.4634,9.4797,-0.0059,-0.0119,9.8066,-0.0045,0.0302,-0.04,3.5,-38.19,0.63,17.4,-86.73,112.36
1175,53.17238,-1.682001,194.82,1.67,3,313.41,19 / 20,1590114,2019-11-06 16:32:50:576,0.5473,0.499,9.4748,0.0011,-0.0047,9.8066,-0.0116,-0.0124,-0.0493,3.88,-38.12,0.75,18.53,-86.96,113.6
1176,53.17238,-1.682001,194.82,1.67,3,313.41,19 / 20,1590213,2019-11-06 16:32:50:675,0.7065,0.4932,9.8175,-0.0033,-0.0058,9.8066,-0.0028,-0.0142,0.0105,4.69,-37.94,-0.06,35.41,-86.68,110.59
1177,53.17238,-1.682001,194.82,1.67,3,313.41,19 / 20,1590314,2019-11-06 16:32:50:776,0.8593,-0.1994,9.8703,0.0071,-0.0042,9.8066,-0.0301,0.0149,-0.0097,4.06,-38.0,0.75,11.04,-86.47,108.82
1178,53.17238,-1.682001,194.82,1.67,3,313.41,19 / 20,1590414,2019-11-06 16:32:50:876,0.4432,-0.0462,9.9415,0.002,-0.0049,9.8066,0.0046,0.0054,-0.0192,3.81,-38.25,0.5,9.43,-86.44,108.07
1179,53.17238,-1.682001,194.82,1.67,3,313.41,19 / 20,1590513,2019-11-06 16:32:50:975,0.4487,0.3992,9.7382,-0.0024,-0.0017,9.8066,0.0043,0.0356,-0.0344,5.06,-38.12,0.69,12.12,-86.43,107.81
1180,53.17238,-1.682001,194.82,1.67,3,313.41,19 / 20,1590614,2019-11-06 16:32:51:076,0.6639,0.2165,9.7497,-0.0032,-0.0063,9.8066,-0.0176,0.0282,-0.0007,4.63,-38.25,-0.06,32.33,-86.41,107.54
1181,53.17238,-1.682001,194.82,1.67,3,313.41,19 / 20,1590714,2019-11-06 16:32:51:176,0.3954,0.3248,9.8933,-0.0003,-0.0052,9.8066,-0.0118,0.036,-0.0288,4.0,-38.44,0.94,8.29,-86.38,107.5
1182,53.17238,-1.682001,194.82,1.67,3,313.41,19 / 20,1590814,2019-11-06 16:32:51:276,0.7193,-0.1727,9.8476,0.002,-0.0058,9.8066,0.0135,0.0215,-0.0231,4.25,-38.37,0.81,8.41,-86.34,107.49
1183,53.17238,-1.682001,194.82,1.67,3,313.41,19 / 21,1590914,2019-11-06 16:32:51:376,0.6088,0.0327,9.8616,-0.0006,-0.0064,9.8066,0.0071,0.0376,-0.0269,4.38,-38.19,1.06,7.24,-86.29,106.95
1184,53.17238,-1.682001,194.82,1.67,3,313.41,19 / 21,1591014,2019-11-06 16:32:51:476,0.6131,-0.0468,9.7636,-0.0003,-0.0038,9.8066,-0.0051,0.033,-0.0071,4.44,-38.75,0.81,7.46,-86.3,106.93
1185,53.17238,-1.682001,194.82,1.67,3,313.41,19 / 21,1591113,2019-11-06 16:32:51:575,0.5203,0.0296,9.8429,0.0021,-0.0015,9.8066,-0.0045,0.0182,0.0025,4.44,-38.37,0.13,40.42,-86.28,106.8
1186,53.17238,-1.682001,194.82,1.67,3,313.41,19 / 21,1591213,2019-11-06 16:32:51:675,-0.1,-0.1428,9.9129,0.0001,-0.0037,9.8066,-0.005,0.0368,-0.0339,4.06,-38.37,0.81,6.85,-86.27,106.77
1187,53.17238,-1.682001,194.82,1.67,3,313.41,19 / 21,1591314,2019-11-06 16:32:51:776,-0.065,0.409,9.7553,-0.0084,-0.0066,9.8066,0.022,0.0199,0.0058,4.56,-38.62,0.19,35.3,-86.24,108.03
1188,53.17238,-1.682001,194.82,1.67,3,313.41,19 / 21,1591413,2019-11-06 16:32:51:875,-0.6251,-0.1065,9.8013,-0.0077,-0.0009,9.8066,0.012,0.0334,-0.0159,3.69,-38.62,0.94,14.09,-86.24,109.4
1189,53.17238,-1.682001,194.82,1.67,3,313.41,19 / 21,1591513,2019-11-06 16:32:51:975,-0.4166,0.3085,9.8624,-0.0022,-0.0031,9.8066,0.0063,-0.0172,0.0077,4.75,-38.5,1.0,18.3,-86.21,110.67
1190,53.17238,-1.682001,194.82,1.67,3,313.41,19 / 21,1591614,2019-11-06 16:32:52:076,-0.5563,-0.0817,9.8063,0.0003,0.001,9.8066,-0.0139,0.0203,-0.0088,4.0,-38.56,0.88,17.63,-86.23,110.76
1191,53.17238,-1.682001,194.82,1.67,3,313.41,19 / 21,1591714,2019-11-06 16:32:52:176,-0.48,-0.0671,9.8258,-0.0015,-0.0019,9.8066,0.0062,-0.0069,0.0075,4.31,-38.37,1.38,17.58,-86.22,111.01
1192,53.17238,-1.682001,194.82,1.67,3,313.41,19 / 21,1591814,2019-11-06 16:32:52:276,-0.8815,-1.4003,9.7831,-0.0033,0.0153,9.8065,0.0127,0.0811,0.0137,4.25,-38.5,1.13,24.17,-86.09,113.23
1193,53.17238,-1.682001,194.82,1.67,3,313.41,19 / 20,1591914,2019-11-06 16:32:52:376,-0.6272,1.4505,10.0497,0.0079,-0.0053,9.8066,-0.0372,-0.0324,0.0368,3.88,-38.56,0.75,22.46,-86.1,112.22
1194,53.17238,-1.682001,194.82,1.67,3,313.41,19 / 20,1592014,2019-11-06 16:32:52:476,-0.66,-0.2455,9.8217,0.0066,-0.0072,9.8066,-0.0168,0.09,-0.0294,4.19,-38.69,0.88,19.98,-86.32,112.0
1195,53.17238,-1.682001,194.82,1.67,3,313.41,19 / 20,1592113,2019-11-06 16:32:52:575,-0.3811,0.0218,9.7795,-0.0013,-0.0049,9.8066,0.0475,-0.0177,0.0309,4.06,-38.69,0.63,16.77,-86.31,110.65
1196,53.17238,-1.682001,194.82,1.67,3,313.41,19 / 20,1592213,2019-11-06 16:32:52:675,-0.6062,1.5645,9.78,0.0177,0.009,9.8066,-0.0381,-0.1637,0.1155,4.38,-38.19,1.31,26.57,-86.08,114.17
1197,53.17238,-1.682001,194.82,1.67,3,313.41,19 / 20,1592315,2019-11-06 16:32:52:777,-0.2585,-0.117,9.6981,-0.012,0.0154,9.8065,-0.0222,0.0525,-0.0028,4.13,-38.19,0.5,27.62,-86.09,114.65
1198,53.17238,-1.682001,194.82,1.67,3,313.41,19 / 20,1592414,2019-11-06 16:32:52:876,-0.3579,1.319,9.8695,-0.0086,-0.0085,9.8066,0.0538,-0.111,0.0095,4.25,-38.5,0.75,26.69,-86.04,114.05
1199,53.17238,-1.682001,194.82,1.67,3,313.41,19 / 20,1592514,2019-11-06 16:32:52:976,-0.8013,-0.8193,10.0121,-0.0005,0.0152,9.8066,0.0143,0.0833,-0.0596,4.69,-38.25,1.06,25.07,-86.14,114.07
1200,53.17238,-1.682001,194.82,1.67,3,313.41,19 / 20,1592614,2019-11-06 16:32:53:076,-1.1266,-0.8581,9.4944,-0.0022,-0.0125,9.8066,0.0048,0.0225,-0.0091,3.88,-37.87,0.69,26.96,-86.09,114.37
1201,53.17238,-1.682001,194.82,1.67,3,313.41,19 / 20,1592714,2019-11-06 16:32:53:176,-0.3308,-0.2513,9.6828,-0.0003,-0.0021,9.8066,0.0069,-0.0697,0.0439,4.63,-38.44,0.88,25.78,-86.12,114.37
1202,53.17238,-1.682001,194.82,1.67,3,313.41,19 / 20,1592813,2019-11-06 16:32:53:275,-0.1319,0.1269,9.6591,0.0068,0.0034,9.8066,-0.0331,-0.0436,0.006,5.06,-38.69,0.88,24.61,-86.16,113.54
1203,53.17238,-1.682001,194.82,1.67,3,313.41,19 / 20,1592914,2019-11-06 16:32:53:376,-1.1868,-0.001,10.4695,-0.0171,-0.0067,9.8065,-0.0043,0.1699,-0.0752,4.25,-38.87,1.31,26.87,-86.15,114.16
1204,53.17238,-1.682001,194.82,1.67,3,313.41,19 / 20,1593014,2019-11-06 16:32:53:476,0.4425,-0.7533,9.3322,0.0168,-0.0082,9.8066,-0.0617,0.0468,0.0179,4.75,-38.44,1.94,7.88,-86.07,115.86
1205,53.17238,-1.682001,194.82,1.67,3,313.41,19 / 20,1593113,2019-11-06 16:32:53:575,0.2167,-0.4322,9.5821,-0.0015,-0.0021,9.8066,-0.0326,0.1351,-0.0415,5.06,-36.5,9.25,314.33,-86.02,115.35
1206,53.17238,-1.682001,194.82,1.67,3,313.41,19 / 20,1593214,2019-11-06 16:32:53:676,0.6046,-0.3842,10.046,0.019,0.0028,9.8066,0.0354,0.0451,-0.0722,-7.37,-41.37,27.88,275.76,-86.06,115.4
1207,53.17238,-1.682001,194.82,1.67,3,313.41,19 / 20,1593314,2019-11-06 16:32:53:776,0.3297,-1.1344,9.7906,0.0015,0.0025,9.8066,0.0042,0.1076,-0.0827,-5.31,-40.94,1.75,211.24,-86.05,115.19
1208,53.17238,-1.682001,194.82,1.67,3,313.41,19 / 20,1593413,2019-11-06 16:32:53:875,-0.2816,0.5286,9.5413,0.0012,0.0178,9.8066,0.039,0.1388,-0.0379,1.94,-39.56,-0.5,138.92,-85.98,116.17
1209,53.17238,-1.682001,194.82,1.67,3,313.41,19 / 20,1593513,2019-11-06 16:32:53:975,-0.0413,0.6075,10.0412,-0.0092,-0.0025,9.8066,-0.002,0.0212,-0.0357,2.69,-38.87,-0.31,95.27,-85.91,117.45
1210,53.17238,-1.682001,194.82,1.67,3,313.41,19 / 20,1593614,2019-11-06 16:32:54:076,0.0608,0.6184,9.9975,0.0025,0.0029,9.8066,0.0186,0.0517,-0.0013,2.0,-39.0,-0.31,137.74,-85.87,118.76
1211,53.17238,-1.682001,194.82,1.67,3,313.41,19 / 20,1593714,2019-11-06 16:32:54:176,0.2417,-0.0092,9.8844,-0.0114,-0.003,9.8066,0.019,0.0248,-0.0413,-0.5,-40.12,-0.31,180.0,-85.9,118.14
1212,53.17238,-1.682001,194.82,1.67,3,313.41,19 / 20,1593813,2019-11-06 16:32:54:275,0.5412,-0.3601,9.9075,-0.0185,0.0005,9.8066,-0.0095,0.0304,0.0269,-13.69,-43.06,15.31,247.12,-85.88,118.08
1213,53.17238,-1.682001,194.82,1.67,3,313.41,18 / 19,1593914,2019-11-06 16:32:54:376,-0.1976,-0.3474,9.7711,0.0068,-0.0023,9.8066,0.0064,0.0068,-0.0023,3.81,-37.12,21.25,302.34,-85.93,117.58
1214,53.17238,-1.682001,194.82,1.67,3,313.41,18 / 19,1594014,2019-11-06 16:32:54:476,-0.1402,-0.2066,9.7333,0.0011,-0.0059,9.8066,0.0194,0.0214,-0.0113,4.94,-36.87,5.5,327.5,-85.97,118.08
1215,53.17238,-1.682001,194.82,1.67,3,313.41,18 / 19,1594114,2019-11-06 16:32:54:576,-0.9427,-0.1982,9.413,0.0036,0.0003,9.8066,-0.0371,-0.1226,0.0626,4.56,-37.94,1.25,33.84,-85.96,118.06
1216,53.17238,-1.682001,194.82,1.67,3,313.41,18 / 19,1594214,2019-11-06 16:32:54:676,-0.1593,0.442,9.7266,-0.0151,0.0136,9.8066,0.0029,0.0203,-0.0402,4.44,-38.37,0.81,31.96,-85.99,115.95
1217,53.17238,-1.682001,194.82,1.67,3,313.41,18 / 19,1594314,2019-11-06 16:32:54:776,-0.0765,0.6985,9.6553,-0.0099,0.0015,9.8066,-0.0198,-0.0574,0.062,3.94,-38.37,1.25,40.78,-85.95,119.59
1218,53.17238,-1.682001,194.82,1.67,3,313.41,18 / 19,1594414,2019-11-06 16:32:54:876,-0.5544,-0.0956,9.9291,0.0008,0.0002,9.8066,0.0026,0.056,-0.0393,4.31,-38.56,0.94,42.67,-86.0,120.02
1219,53.17238,-1.682001,194.82,1.67,3,313.41,18 / 19,1594513,2019-11-06 16:32:54:975,0.0182,-0.2367,9.2655,0.0207,-0.0134,9.8066,0.0602,0.0032,0.0165,4.31,-38.5,0.69,35.35,-86.02,117.59
1220,53.17238,-1.682001,194.82,1.67,3,313.41,18 / 19,1594613,2019-11-06 16:32:55:075,-0.149,0.5287,9.5604,-0.0066,-0.0034,9.8066,-0.0153,-0.05,0.0058,4.13,-38.87,1.13,34.47,-86.06,116.87
1221,53.17238,-1.682001,194.82,1.67,3,313.41,18 / 19,1594714,2019-11-06 16:32:55:176,-0.6571,-0.2921,10.028,0.0067,0.0099,9.8065,-0.0095,-0.0076,0.0136,4.06,-38.31,0.5,34.08,-86.06,117.26
1222,53.17238,-1.682001,194.82,1.67,3,313.41,18 / 19,1594814,2019-11-06 16:32:55:276,-0.111,0.0904,9.6882,-0.0108,0.0078,9.8066,-0.0088,-0.0151,0.0096,4.56,-38.44,0.88,27.33,-86.15,115.31
1223,53.17238,-1.682001,194.82,1.67,3,313.41,18 / 20,1594913,2019-11-06 16:32:55:375,-0.1933,0.7286,9.606,-0.0008,-0.0125,9.8066,-0.0312,0.0404,0.0192,4.44,-38.37,1.31,34.43,-86.1,117.61
1224,53.17238,-1.682001,194.82,1.67,3,313.41,18 / 20,1595013,2019-11-06 16:32:55:475,-0.6969,-0.3488,10.0397,-0.0038,0.0016,9.8066,0.0205,0.0837,-0.0472,4.25,-38.94,1.19,40.1,-86.1,119.55
1225,53.17238,-1.682001,194.82,1.67,3,313.41,18 / 20,1595114,2019-11-06 16:32:55:576,-0.352,-0.0241,9.8391,0.0112,-0.0137,9.8066,-0.0428,0.0534,-0.037,4.0,-38.87,1.63,3.85,-86.05,118.09
1226,53.17238,-1.682001,194.82,1.67,3,313.41,18 / 20,1595213,2019-11-06 16:32:55:675,-0.4955,-0.191,9.9654,0.0052,0.0021,9.8066,-0.0231,0.0514,0.0331,4.38,-38.31,0.81,33.17,-86.07,116.92
1227,53.17238,-1.682001,194.82,1.67,3,313.41,18 / 20,1595313,2019-11-06 16:32:55:775,-0.2927,0.5882,9.7158,-0.0035,-0.0061,9.8066,-0.0288,0.0051,0.0075,4.44,-39.31,0.56,35.11,-86.02,116.89
1228,53.17238,-1.682001,194.82,1.67,3,313.41,18 / 20,1595414,2019-11-06 16:32:55:876,-0.5597,-0.0557,10.0125,-0.0059,-0.0041,9.8066,0.0309,0.0254,-0.039,3.69,-38.37,1.13,33.53,-86.07,117.08
1229,53.17238,-1.682001,194.82,1.67,3,313.41,18 / 20,1595514,2019-11-06 16:32:55:976,-0.3529,0.4301,9.9962,-0.0017,-0.0038,9.8066,0.0071,-0.0161,-0.0015,4.13,-38.94,0.69,35.23,-86.05,117.13
1230,53.17238,-1.682001,194.82,1.67,3,313.41,18 / 20,1595614,2019-11-06 16:32:56:076,-0.3014,-0.3979,9.7418,-0.001,-0.0004,9.8066,-0.0241,0.0271,-0.0019,4.25,-38.25,0.75,34.06,-86.07,117.32
1231,53.17238,-1.682001,194.82,1.67,3,313.41,18 / 20,1595714,2019-11-06 16:32:56:176,-0.5228,0.1401,9.7707,0.0012,-0.0029,9.8066,-0.0214,0.0103,0.037,3.94,-38.31,0.81,34.64,-86.09,117.69
1232,53.17238,-1.682001,194.82,1.67,3,313.41,18 / 20,1595814,2019-11-06 16:32:56:276,-0.4439,0.2559,9.9344,-0.0177,-0.0111,9.8065,0.0158,0.0041,-0.0308,4.25,-38.5,1.13,33.69,-86.16,117.65
1233,53.17238,-1.682001,194.82,1.67,3,313.41,18 / 19,1595913,2019-11-06 16:32:56:375,-0.3087,0.1279,9.6791,-0.0061,-0.0007,9.8066,0.0183,0.0088,0.012,4.75,-38.37,1.13,33.78,-86.05,118.43
1234,53.17238,-1.682001,194.82,1.67,3,313.41,18 / 19,1596013,2019-11-06 16:32:56:475,-0.6081,-0.0038,9.9596,-0.0055,-0.0027,9.8066,0.0037,0.0053,-0.028,3.94,-38.37,1.25,36.15,-86.06,118.19
1235,53.17238,-1.682001,194.82,1.67,3,313.41,18 / 19,1596114,2019-11-06 16:32:56:576,-0.5164,0.1999,9.8951,0.0046,0.0023,9.8066,-0.0043,-0.0184,0.0101,4.31,-38.62,0.69,37.81,-86.09,118.45
1236,53.17238,-1.682001,194.82,1.67,3,313.41,18 / 19,1596214,2019-11-06 16:32:56:676,-0.498,-0.0495,9.9057,0.0016,0.0037,9.8066,0.0006,-0.0144,-0.0032,4.38,-38.31,0.69,37.2,-86.07,118.72
1237,53.17238,-1.682001,194.82,1.67,3,313.41,18 / 19,1596313,2019-11-06 16:32:56:775,-0.5083,0.1125,9.8192,-0.0016,-0.0001,9.8066,0.0044,-0.0216,-0.0018,4.13,-39.06,1.0,39.15,-86.06,118.89
1238,53.17238,-1.682001,194.82,1.67,3,313.41,18 / 19,1596413,2019-11-06 16:32:56:875,-0.087,0.2743,9.8101,0.0017,0.0006,9.8066,-0.0031,-0.0141,0.0022,4.31,-38.0,0.25,65.77,-86.06,119.09
1239,53.17238,-1.682001,194.82,1.67,3,313.41,18 / 19,1596513,2019-11-06 16:32:56:975,-0.4361,0.1556,9.8739,-0.0003,0.0001,9.8065,0.0028,-0.0102,0.0051,5.06,-38.5,0.94,34.54,-86.07,118.95
1240,53.17238,-1.682001,194.82,1.67,3,313.41,18 / 19,1596614,2019-11-06 16:32:57:076,-0.3682,0.1868,9.8255,0.0023,0.002,9.8066,-0.0209,0.0104,0.0097,4.06,-38.12,1.13,38.31,-86.06,119.15
1241,53.17238,-1.682001,194.82,1.67,3,313.41,18 / 19,1596714,2019-11-06 16:32:57:176,-0.44,-0.0923,9.8139,-0.0019,0.0024,9.8065,0.0008,-0.0054,0.0171,4.5,-38.12,1.0,35.57,-86.06,119.48
1242,53.17238,-1.682001,194.82,1.67,3,313.41,18 / 19,1596814,2019-11-06 16:32:57:276,-0.2757,0.1582,9.871,-0.0032,0.0029,9.8066,0.0022,0.0026,0.0029,4.38,-38.75,0.69,40.69,-86.06,119.58
1243,53.17238,-1.682001,194.82,1.67,3,313.41,18 / 18,1596913,2019-11-06 16:32:57:375,-0.4661,0.2487,9.8247,-0.0001,0.001,9.8066,0.0031,0.0044,-0.0062,3.94,-38.81,0.56,41.49,-86.07,119.97
1244,53.17238,-1.682001,194.82,1.67,3,313.41,18 / 18,1597013,2019-11-06 16:32:57:475,-0.3998,0.1655,9.8215,0.0006,0.0018,9.8066,0.0006,0.0032,0.0075,4.44,-38.12,1.0,40.11,-86.06,119.99
1245,53.17238,-1.682001,194.82,1.67,3,313.41,18 / 18,1597114,2019-11-06 16:32:57:576,-0.3916,0.1264,9.8327,-0.0022,0.0004,9.8066,0.0095,-0.0256,-0.0011,4.13,-38.31,0.81,40.76,-86.06,120.27
1246,53.17238,-1.682001,194.82,1.67,3,313.41,18 / 18,1597213,2019-11-06 16:32:57:675,-0.4203,0.2201,9.8374,-0.0022,0.0016,9.8066,-0.0041,-0.0152,0.0039,4.5,-38.19,1.0,37.69,-86.07,120.71
1247,53.17238,-1.682001,194.82,1.67,3,313.41,18 / 18,1597313,2019-11-06 16:32:57:775,-0.5769,-0.0615,9.9748,-0.0014,0.0046,9.8066,-0.0295,-0.019,0.0441,3.81,-38.37,1.13,41.75,-86.08,120.87
1248,53.17238,-1.682001,194.82,1.67,3,313.41,18 / 18,1597413,2019-11-06 16:32:57:875,-0.6386,0.2555,9.9908,-0.0033,0.0009,9.8066,0.0082,0.0076,-0.0227,3.94,-38.56,0.25,69.98,-86.08,121.11
1249,53.17238,-1.682001,194.82,1.67,3,313.41,18 / 18,1597514,2019-11-06 16:32:57:976,-0.2311,0.3193,9.7535,-0.0058,0.0001,9.8066,0.0177,0.035,-0.014,4.5,-39.12,1.13,40.51,-86.06,121.8
1250,53.17238,-1.682001,194.82,1.67,3,313.41,18 / 18,1597614,2019-11-06 16:32:58:076,-0.3756,0.1155,9.763,-0.0005,0.0001,9.8066,-0.0208,0.04,-0.0111,4.06,-38.87,1.13,45.34,-86.06,121.73
1251,53.17238,-1.682001,194.82,1.67,3,313.41,18 / 18,1597714,2019-11-06 16:32:58:176,0.178,0.2141,9.2326,0.0133,-0.0102,9.8066,-0.0569,-0.0487,0.036,4.38,-38.69,1.13,46.84,-86.06,122.51
1252,53.17238,-1.682001,194.82,1.67,3,313.41,18 / 18,1597815,2019-11-06 16:32:58:277,-0.1799,0.3344,9.9933,0.0014,0.0141,9.8065,0.0426,-0.0411,-0.0092,4.06,-38.69,-0.06,71.74,-86.02,121.6
1253,53.17238,-1.682001,194.82,1.67,3,313.41,18 / 19,1597914,2019-11-06 16:32:58:376,-0.4842,-0.1568,9.8625,0.0001,0.0005,9.8066,0.0081,-0.0628,-0.0114,4.13,-38.62,0.94,44.66,-86.05,121.34
1254,53.17238,-1.682001,194.82,1.67,3,313.41,18 / 19,1598014,2019-11-06 16:32:58:476,-0.4471,0.0099,9.8381,0.0038,0.0107,9.8066,-0.0091,-0.0364,0.0431,4.44,-38.25,0.75,43.33,-86.04,121.35
1255,53.17238,-1.682001,194.82,1.67,3,313.41,18 / 19,1598114,2019-11-06 16:32:58:576,-0.3144,-0.0317,9.755,0.0,0.0033,9.8066,-0.0193,-0.0323,0.0269,4.31,-38.0,0.69,43.62,-86.08,121.8
1256,53.17238,-1.682001,194.82,1.67,3,313.41,18 / 19,1598214,2019-11-06 16:32:58:676,-0.3575,0.406,9.8445,0.0022,0.0035,9.8066,-0.001,-0.0261,0.0216,3.81,-38.87,0.88,45.62,-86.07,121.93
1257,53.17238,-1.682001,194.82,1.67,3,313.41,18 / 19,1598314,2019-11-06 16:32:58:776,-0.4694,-0.1073,9.8559,-0.0009,0.0051,9.8066,0.0039,0.0017,0.0073,4.5,-39.12,0.81,41.22,-86.07,122.23
1258,53.17238,-1.682001,194.82,1.67,3,313.41,18 / 19,1598414,2019-11-06 16:32:58:876,-0.3702,0.5337,9.8722,-0.0009,0.0017,9.8066,0.0058,-0.0332,0.0222,4.31,-38.87,0.31,72.24,-86.05,122.32
1259,53.17238,-1.682001,194.82,1.67,3,313.41,18 / 19,1598514,2019-11-06 16:32:58:976,-0.288,0.0858,9.8201,0.0009,0.0048,9.8066,0.0026,0.0083,-0.0001,4.88,-38.5,0.56,40.93,-86.05,122.48
1260,53.17238,-1.682001,194.82,1.67,3,313.41,18 / 19,1598615,2019-11-06 16:32:59:077,-0.1055,0.4972,9.8462,0.0005,-0.0005,9.8066,0.0086,-0.0399,0.0125,4.25,-38.69,0.13,72.68,-86.04,122.48
1261,53.17238,-1.682001,194.82,1.67,3,313.41,18 / 19,1598714,2019-11-06 16:32:59:176,-0.5062,-0.0703,9.8986,0.0,0.0051,9.8065,0.0008,0.001,-0.0059,4.06,-38.62,1.31,47.59,-86.05,122.72
1262,53.17238,-1.682001,194.82,1.67,3,313.41,18 / 19,1598814,2019-11-06 16:32:59:276,-0.3245,0.1064,9.8402,-0.0029,-0.0002,9.8066,0.0097,-0.0286,0.0027,4.19,-38.75,1.25,48.45,-86.02,122.94
1263,53.17238,-1.682001,194.82,1.67,3,313.41,18 / 18,1598914,2019-11-06 16:32:59:376,-0.143,-0.3068,9.8368,-0.0024,0.004,9.8065,-0.0082,0.0206,-0.0133,4.19,-39.0,1.56,17.79,-86.0,123.61
1264,53.17238,-1.682001,194.82,1.67,3,313.41,18 / 18,1599014,2019-11-06 16:32:59:476,-0.3857,0.2455,9.8908,-0.0019,-0.0004,9.8066,-0.0026,-0.0155,0.0059,4.75,-38.31,0.88,44.25,-85.98,124.06
1265,53.17238,-1.682001,194.82,1.67,3,313.41,18 / 18,1599114,2019-11-06 16:32:59:576,-0.4538,0.3081,9.8715,-0.0026,0.0029,9.8066,-0.0107,0.0373,-0.0139,3.94,-39.06,0.69,52.37,-85.97,124.56
1266,53.17238,-1.682001,194.82,1.67,3,313.41,18 / 18,1599214,2019-11-06 16:32:59:676,-0.3266,0.3205,9.8346,-0.0032,-0.0005,9.8066,-0.0029,0.0186,0.0034,4.38,-38.31,0.94,52.14,-85.95,125.15
1267,53.17238,-1.682001,194.82,1.67,3,313.41,18 / 18,1599314,2019-11-06 16:32:59:776,-0.3001,0.1248,9.8374,-0.0032,0.0021,9.8066,0.0047,0.0399,-0.008,4.81,-38.56,1.25,48.83,-85.92,125.86
1268,53.17238,-1.682001,194.82,1.67,3,313.41,18 / 18,1599414,2019-11-06 16:32:59:876,-0.4235,-0.1073,9.8554,-0.0037,-0.0003,9.8066,-0.0033,0.0176,-0.0058,4.44,-38.37,0.31,77.87,-85.91,126.2
1269,53.17238,-1.682001,194.82,1.67,3,313.41,18 / 18,1599514,2019-11-06 16:32:59:976,-0.4734,-0.04,9.8649,-0.0015,0.0021,9.8066,0.0049,0.0383,-0.0213,4.56,-38.62,0.88,50.83,-85.88,126.8
1270,53.17238,-1.682001,194.82,1.67,3,313.41,18 / 18,1599614,2019-11-06 16:33:00:076,-0.1249,-0.0229,9.778,-0.002,-0.0016,9.8066,-0.0055,0.0101,-0.0068,4.25,-38.31,1.0,57.72,-85.84,127.23
1271,53.17238,-1.682001,194.82,1.67,3,313.41,18 / 18,1599713,2019-11-06 16:33:00:175,-0.2054,0.416,9.847,-0.0027,0.0015,9.8066,0.0133,-0.0302,0.0031,4.19,-39.0,1.0,61.06,-85.83,127.89
1272,53.17238,-1.682001,194.82,1.67,3,313.41,18 / 18,1599814,2019-11-06 16:33:00:276,-0.332,-0.0289,9.7676,0.0023,0.004,9.8066,-0.0178,0.0081,-0.0054,4.38,-38.87,0.56,61.81,-85.82,128.26
1273,53.17238,-1.682001,194.82,1.67,3,313.41,19 / 20,1599915,2019-11-06 16:33:00:377,-0.3307,-0.023,9.8273,-0.0046,-0.0031,9.8066,0.0042,-0.0361,0.011,4.75,-38.69,0.94,54.73,-85.81,128.77
1274,53.17238,-1.682001,194.82,1.67,3,313.41,19 / 20,1600014,2019-11-06 16:33:00:476,-0.4437,0.0054,9.8284,-0.0001,0.0038,9.8066,-0.0148,0.0101,0.0008,3.94,-38.75,1.0,63.63,-85.83,129.46
1275,53.17238,-1.682001,194.82,1.67,3,313.41,19 / 20,1600114,2019-11-06 16:33:00:576,-0.416,0.0461,9.6384,-0.0002,0.0006,9.8066,0.106,-0.0625,0.0582,4.0,-38.31,1.38,62.14,-85.83,129.74
1276,53.17238,-1.682001,194.82,1.67,3,313.41,19 / 20,1600214,2019-11-06 16:33:00:676,-0.1174,0.648,9.8841,-0.008,0.0016,9.8065,-0.0206,0.0171,0.0223,4.31,-38.19,1.13,61.49,-85.81,129.11
1277,53.17238,-1.682001,194.82,1.67,3,313.41,19 / 20,1600314,2019-11-06 16:33:00:776,-0.3403,-0.229,9.9002,0.0132,0.0114,9.8066,-0.0057,0.0196,0.0005,5.0,-38.12,0.75,55.27,-85.76,129.56
1278,53.17238,-1.682001,194.82,1.67,3,313.41,19 / 20,1600414,2019-11-06 16:33:00:876,-0.2522,0.4763,9.8272,0.005,0.0028,9.8066,-0.0018,-0.0262,0.0288,3.88,-38.44,0.75,63.15,-85.76,129.62
1279,53.17238,-1.682001,194.82,1.67,3,313.41,19 / 20,1600514,2019-11-06 16:33:00:976,-0.1998,0.1207,9.8259,0.0,0.0029,9.8066,-0.0061,0.0223,-0.0005,4.25,-38.44,0.69,63.69,-85.74,129.69
1280,53.17238,-1.682001,194.82,1.67,3,313.41,19 / 20,1600614,2019-11-06 16:33:01:076,-0.2021,0.2655,9.8587,-0.0006,-0.001,9.8066,0.0219,-0.0199,-0.0002,4.63,-38.5,1.06,55.72,-85.75,129.74
1281,53.17238,-1.682001,194.82,1.67,3,313.41,19 / 20,1600713,2019-11-06 16:33:01:175,-0.4201,0.0855,9.9673,0.0008,0.0013,9.8066,0.0121,-0.0009,-0.0217,4.56,-38.81,1.5,36.3,-85.76,129.52
1282,53.17238,-1.682001,194.82,1.67,3,313.41,19 / 20,1600813,2019-11-06 16:33:01:275,-0.1849,0.0382,9.7807,-0.0002,0.0,9.8066,0.0015,-0.0313,0.0113,4.44,-38.81,1.69,35.62,-85.72,129.82
1283,53.17238,-1.682001,194.82,1.67,3,313.41,19 / 20,1600914,2019-11-06 16:33:01:376,-0.1734,-0.0571,9.86,0.002,0.002,9.8066,-0.0041,0.0119,-0.0048,3.63,-38.56,0.94,66.07,-85.73,129.84
1284,53.17238,-1.682001,194.82,1.67,3,313.41,18 / 20,1601013,2019-11-06 16:33:01:475,-0.3028,0.1991,9.9526,-0.0012,-0.0023,9.8066,0.0019,0.0006,0.0002,4.44,-38.37,1.06,64.12,-85.73,129.9
1285,53.17238,-1.682001,194.82,1.67,3,313.41,18 / 20,1601114,2019-11-06 16:33:01:576,-0.1962,0.2424,9.8036,-0.0015,0.001,9.8066,0.0075,0.0382,-0.0118,4.69,-38.31,1.25,56.35,-85.72,129.97
1286,53.17238,-1.682001,194.82,1.67,3,313.41,18 / 20,1601214,2019-11-06 16:33:01:676,-0.1678,0.2037,9.8332,-0.0001,-0.0029,9.8066,-0.0119,0.0228,0.0008,5.0,-38.25,1.25,56.72,-85.71,130.14
1287,53.17238,-1.682001,194.82,1.67,3,313.41,18 / 20,1601313,2019-11-06 16:33:01:775,-0.2711,0.2322,9.9452,-0.002,0.0018,9.8066,0.0053,0.02,-0.0058,4.19,-39.0,0.88,67.61,-85.69,130.39
1288,53.17238,-1.682001,194.82,1.67,3,313.41,18 / 20,1601413,2019-11-06 16:33:01:875,-0.2748,-0.0755,9.7846,0.0007,-0.0022,9.8066,-0.0058,0.0057,-0.0083,4.31,-38.31,1.06,65.97,-85.68,130.45
1289,53.17238,-1.682001,194.82,1.67,3,313.41,18 / 20,1601514,2019-11-06 16:33:01:976,-0.2717,0.0596,9.8436,-0.0026,0.0005,9.8066,0.0079,0.0092,-0.0097,4.81,-38.62,1.19,59.3,-85.67,130.72
1290,53.17238,-1.682001,194.82,1.67,3,313.41,18 / 20,1601614,2019-11-06 16:33:02:076,-0.2803,0.0301,9.8231,0.0003,-0.002,9.8065,-0.0125,0.0039,-0.0093,4.88,-38.75,1.06,59.74,-85.66,130.93
1291,53.17238,-1.682001,194.82,1.67,3,313.41,18 / 20,1601713,2019-11-06 16:33:02:175,-0.2434,0.2155,9.8409,-0.0023,-0.0002,9.8066,-0.0012,0.0117,0.0026,4.44,-38.81,0.88,69.59,-85.65,131.13
1292,53.17238,-1.682001,194.82,1.67,3,313.41,18 / 20,1601813,2019-11-06 16:33:02:275,-0.4022,0.0662,9.8789,-0.0007,0.0,9.8066,-0.0122,0.0201,-0.0109,4.69,-38.75,1.06,60.72,-85.63,131.34
1293,53.17238,-1.682001,194.82,1.67,3,313.41,19 / 19,1601916,2019-11-06 16:33:02:378,-0.0726,0.1588,9.7892,-0.0033,-0.0006,9.8066,0.0086,0.0145,-0.0033,4.19,-38.5,0.63,68.96,-85.61,131.59
1294,53.17238,-1.682001,194.82,1.67,3,313.41,19 / 19,1602014,2019-11-06 16:33:02:476,-0.2508,0.1018,9.828,-0.002,-0.0004,9.8066,-0.008,0.0185,-0.0031,4.19,-39.06,1.38,71.3,-85.61,131.79
1295,53.17238,-1.682001,194.82,1.67,3,313.41,19 / 19,1602114,2019-11-06 16:33:02:576,-0.2924,0.1958,9.8438,-0.0019,0.0013,9.8066,0.0085,0.0003,-0.0003,4.13,-39.06,1.06,72.24,-85.58,132.09
1296,53.17238,-1.682001,194.82,1.67,3,313.41,19 / 19,1602215,2019-11-06 16:33:02:677,-0.0461,-0.0275,9.8035,-0.0013,0.0008,9.8066,-0.0039,0.0011,-0.0135,4.19,-38.06,1.38,70.13,-85.58,132.07
1297,53.17238,-1.682001,194.82,1.67,3,313.41,19 / 19,1602313,2019-11-06 16:33:02:775,-0.1593,0.1203,9.8106,-0.0021,0.0003,9.8066,0.0121,-0.0175,-0.0016,4.19,-38.62,1.13,73.0,-85.56,132.43
1298,53.17238,-1.682001,194.82,1.67,3,313.41,19 / 19,1602413,2019-11-06 16:33:02:875,-0.1836,0.0889,9.8345,-0.0017,0.0004,9.8066,-0.0181,-0.0083,-0.0039,3.63,-38.62,0.88,73.19,-85.56,132.55
1299,53.17238,-1.682001,194.82,1.67,3,313.41,19 / 19,1602513,2019-11-06 16:33:02:975,-0.2087,-0.0056,9.7194,-0.0014,0.0012,9.8066,-0.0032,-0.0148,0.0156,4.5,-39.31,1.13,63.97,-85.54,132.83
1300,53.17238,-1.682001,194.82,1.67,3,313.41,19 / 19,1602613,2019-11-06 16:33:03:075,-0.1675,0.1642,9.8285,-0.0016,0.0013,9.8066,-0.0149,0.0066,-0.0037,4.5,-38.5,0.94,62.62,-85.53,132.73
1301,53.17238,-1.682001,194.82,1.67,3,313.41,19 / 19,1602714,2019-11-06 16:33:03:176,-0.2747,0.1515,9.8104,-0.0021,0.0001,9.8066,-0.0047,0.0068,0.0081,4.81,-38.81,1.13,64.73,-85.51,133.1
1302,53.17238,-1.682001,194.82,1.67,3,313.41,19 / 19,1602814,2019-11-06 16:33:03:276,-0.2583,0.1368,9.7535,-0.002,0.0023,9.8066,-0.0123,0.0118,0.0095,4.56,-38.31,0.94,63.63,-85.5,133.15
1303,53.17238,-1.682001,194.82,1.67,3,313.41,20 / 20,1602913,2019-11-06 16:33:03:375,-0.2324,0.0334,9.8911,0.0012,0.001,9.8066,-0.01,0.0059,0.0039,4.19,-38.06,1.0,74.07,-85.48,133.56
1304,53.17238,-1.682001,194.82,1.67,3,313.41,20 / 20,1603013,2019-11-06 16:33:03:475,-0.1227,0.1479,9.8166,0.0021,0.0009,9.8066,-0.002,-0.0125,0.0095,4.5,-38.94,1.13,65.75,-85.48,133.55
1305,53.17238,-1.682001,194.82,1.67,3,313.41,20 / 20,1603114,2019-11-06 16:33:03:576,-0.271,0.0352,9.8028,0.0006,0.0028,9.8065,-0.0057,0.0011,-0.0001,4.31,-38.94,0.88,76.45,-85.47,133.68
1306,53.17238,-1.682001,194.82,1.67,3,313.41,20 / 20,1603214,2019-11-06 16:33:03:676,-0.2932,0.2396,9.8946,-0.0026,0.0011,9.8066,0.0144,-0.0139,-0.0071,4.44,-38.94,1.0,76.77,-85.46,133.77
1307,53.17238,-1.682001,194.82,1.67,3,313.41,20 / 20,1603313,2019-11-06 16:33:03:775,-0.091,-0.0103,9.7721,0.0,0.0011,9.8066,-0.0116,-0.01,-0.0066,4.5,-38.62,1.19,66.71,-85.45,133.95
1308,53.17238,-1.682001,194.82,1.67,3,313.41,20 / 20,1603415,2019-11-06 16:33:03:877,-0.2284,0.2823,9.9169,-0.0011,0.002,9.8066,0.0045,-0.0199,0.008,4.38,-39.0,1.25,77.65,-85.42,133.94
1309,53.17238,-1.682001,194.82,1.67,3,313.41,20 / 20,1603514,2019-11-06 16:33:03:976,-0.32,0.064,9.8325,-0.0014,0.0015,9.8066,-0.0074,0.0281,0.0045,4.69,-38.75,1.25,67.44,-85.41,134.19
1310,53.17238,-1.682001,194.82,1.67,3,313.41,20 / 20,1603613,2019-11-06 16:33:04:075,-0.1663,0.184,9.8117,-0.0024,-0.0005,9.8066,0.0084,-0.0076,0.0059,4.81,-38.81,1.56,48.68,-85.4,134.46
1311,53.17238,-1.682001,194.82,1.67,3,313.41,20 / 20,1603713,2019-11-06 16:33:04:175,-0.3491,0.0265,9.8868,0.0005,0.002,9.8065,-0.0039,0.0224,-0.0016,4.88,-38.69,1.38,68.02,-85.4,134.51
1312,53.17238,-1.682001,194.82,1.67,3,313.41,20 / 20,1603814,2019-11-06 16:33:04:276,-0.2222,0.1329,9.793,0.0003,-0.0001,9.8066,0.0017,-0.0059,0.0036,4.0,-38.69,1.13,79.31,-85.38,134.61
1313,53.17238,-1.682001,194.82,1.67,3,313.41,19 / 20,1603915,2019-11-06 16:33:04:377,-0.3739,0.2106,9.8351,0.0005,0.0022,9.8066,0.0019,-0.0033,-0.0013,4.38,-38.69,1.44,79.52,-85.37,134.73
1314,53.17238,-1.682001,194.82,1.67,3,313.41,19 / 20,1604014,2019-11-06 16:33:04:476,-0.1137,0.2681,9.8423,-0.001,0.0002,9.8066,0.0067,-0.0239,-0.0021,3.63,-39.06,0.56,80.01,-85.36,134.89
1315,53.17238,-1.682001,194.82,1.67,3,313.41,19 / 20,1604114,2019-11-06 16:33:04:576,-0.2387,0.1189,9.859,0.0,0.0012,9.8066,-0.0013,-0.0039,-0.0081,4.5,-38.06,1.19,67.83,-85.35,134.98
1316,53.17238,-1.682001,194.82,1.67,3,313.41,19 / 20,1604213,2019-11-06 16:33:04:675,-0.3015,0.3015,9.9071,0.0,0.0004,9.8065,0.0005,-0.011,0.0078,4.63,-39.25,1.19,69.73,-85.34,135.18
1317,53.17238,-1.682001,194.82,1.67,3,313.41,19 / 20,1604313,2019-11-06 16:33:04:775,-0.073,0.1387,9.8364,0.0001,0.0018,9.8066,-0.0068,0.0303,-0.0032,4.44,-38.75,1.0,80.86,-85.34,135.28
1318,53.17238,-1.682001,194.82,1.67,3,313.41,19 / 20,1604413,2019-11-06 16:33:04:875,-0.2629,0.105,9.8025,-0.0014,-0.0005,9.8066,-0.0009,0.0182,0.0013,4.19,-38.56,1.0,81.42,-85.32,135.48
1319,53.17238,-1.682001,194.82,1.67,3,313.41,19 / 20,1604514,2019-11-06 16:33:04:976,-0.306,0.0082,9.9269,-0.0013,0.0009,9.8066,0.002,0.0132,-0.005,4.06,-38.56,1.5,55.01,-85.3,135.53
1320,53.17238,-1.682001,194.82,1.67,3,313.41,19 / 20,1604614,2019-11-06 16:33:05:076,-0.0833,0.0654,9.8547,-0.0009,-0.001,9.8066,0.0063,-0.0061,-0.0048,5.0,-38.75,1.13,70.72,-85.3,135.55
1321,53.17238,-1.682001,194.82,1.67,3,313.41,19 / 20,1604713,2019-11-06 16:33:05:175,-0.129,0.17,9.8151,-0.0026,0.0011,9.8066,0.0109,-0.0016,-0.0149,4.75,-38.06,0.69,69.76,-85.27,135.71
1322,53.17238,-1.682001,194.82,1.67,3,313.41,19 / 20,1604813,2019-11-06 16:33:05:275,-0.339,0.095,9.975,0.001,-0.0011,9.8066,-0.0064,-0.0044,0.0018,4.75,-38.5,1.56,50.96,-85.27,135.73
1323,53.17238,-1.682001,194.82,1.67,3,313.41,20 / 20,1604913,2019-11-06 16:33:05:375,-0.0752,0.2029,9.8216,-0.0034,0.0008,9.8066,0.0089,0.0123,-0.0024,4.19,-38.56,1.31,83.14,-85.25,135.84
1324,53.17238,-1.682001,194.82,1.67,3,313.41,20 / 20,1605013,2019-11-06 16:33:05:475,-0.2028,0.0464,9.7252,-0.0009,-0.0012,9.8066,-0.0159,0.0099,-0.0001,4.25,-38.37,1.44,81.1,-85.26,136.03
1325,53.17238,-1.682001,194.82,1.67,3,313.41,20 / 20,1605113,2019-11-06 16:33:05:575,-0.1784,0.2627,9.9137,-0.0026,0.0045,9.8066,0.0163,0.0243,0.0145,4.0,-38.12,0.88,82.14,-85.22,136.45
1326,53.17238,-1.682001,194.82,1.67,3,313.41,20 / 20,1605214,2019-11-06 16:33:05:676,-0.2372,-0.0112,9.6805,-0.0013,-0.0043,9.8066,-0.0273,0.0156,-0.015,4.31,-38.25,1.56,55.8,-85.23,136.38
1327,53.17238,-1.682001,194.82,1.67,3,313.41,20 / 20,1605314,2019-11-06 16:33:05:776,-0.0513,0.04,9.7905,0.0008,0.0026,9.8066,-0.0002,0.0334,0.0091,4.5,-38.56,1.5,54.29,-85.21,136.53
1328,53.17238,-1.682001,194.82,1.67,3,313.41,20 / 20,1605414,2019-11-06 16:33:05:876,-0.0762,0.3498,9.8761,-0.0016,-0.0022,9.8066,-0.0216,0.0014,-0.0194,4.44,-38.56,1.0,84.55,-85.19,136.19
1329,53.17238,-1.682001,194.82,1.67,3,313.41,20 / 20,1605514,2019-11-06 16:33:05:976,-0.0351,0.0563,9.8079,-0.0014,0.0016,9.8066,0.0135,0.0461,-0.0093,4.44,-38.62,1.44,85.27,-85.18,136.71
1330,53.17238,-1.682001,194.82,1.67,3,313.41,20 / 20,1605613,2019-11-06 16:33:06:075,-0.1868,-0.1911,9.8157,-0.0019,-0.0018,9.8066,-0.0048,0.0256,-0.0157,4.25,-38.37,1.81,57.47,-85.17,136.73
1331,53.17238,-1.682001,194.82,1.67,3,313.41,20 / 20,1605713,2019-11-06 16:33:06:175,-0.1189,0.0787,9.8386,-0.0018,-0.0013,9.8066,-0.0056,0.0295,-0.0141,4.0,-38.62,1.31,86.11,-85.15,136.88
1332,53.17238,-1.682001,194.82,1.67,3,313.41,20 / 20,1605814,2019-11-06 16:33:06:276,-0.2547,-0.3734,9.7907,-0.0021,-0.0025,9.8066,-0.0048,0.0522,-0.0291,4.5,-38.69,1.56,55.77,-85.15,136.96
1333,53.17238,-1.682001,194.82,1.67,3,313.41,19 / 19,1605914,2019-11-06 16:33:06:376,-0.2298,0.5452,9.8331,-0.0018,-0.0019,9.8066,0.0072,0.022,-0.0112,4.19,-38.31,1.0,84.32,-85.14,137.16
1334,53.17238,-1.682001,194.82,1.67,3,313.41,19 / 19,1606014,2019-11-06 16:33:06:476,-0.5117,0.1236,9.8755,-0.0008,-0.0013,9.8066,-0.011,0.0438,-0.0163,4.69,-38.0,1.31,73.7,-85.13,137.42
1335,53.17238,-1.682001,194.82,1.67,3,313.41,19 / 19,1606113,2019-11-06 16:33:06:575,-0.7864,0.5065,9.9182,-0.0055,-0.0041,9.8066,0.0082,0.0041,-0.0023,4.31,-38.5,2.13,60.78,-85.09,137.74
1336,53.17238,-1.682001,194.82,1.67,3,313.41,19 / 19,1606213,2019-11-06 16:33:06:675,-0.8443,0.6083,9.8617,-0.0056,0.0019,9.8066,0.0126,0.054,-0.0216,4.5,-38.75,0.88,76.8,-85.07,138.11
1337,53.17238,-1.682001,194.82,1.67,3,313.41,19 / 19,1606314,2019-11-06 16:33:06:776,-0.4709,0.5938,9.8625,-0.0072,-0.0009,9.8066,0.0078,-0.0052,-0.007,4.56,-37.87,1.13,76.77,-85.0,138.6
1338,53.17238,-1.682001,194.82,1.67,3,313.41,19 / 19,1606413,2019-11-06 16:33:06:875,-0.3244,-0.0434,9.9401,-0.0035,0.0008,9.8066,0.0192,0.0332,-0.01,4.69,-37.87,1.63,59.65,-84.95,138.87
1339,53.17238,-1.682001,194.82,1.67,3,313.41,19 / 19,1606513,2019-11-06 16:33:06:975,-0.4838,0.3958,9.8515,-0.0049,-0.0011,9.8066,0.0002,-0.0317,0.0056,4.69,-38.87,1.06,79.21,-84.93,138.7
1340,53.17238,-1.682001,194.82,1.67,3,313.41,19 / 19,1606613,2019-11-06 16:33:07:075,-0.8133,0.2533,9.887,0.0007,-0.0005,9.8066,-0.0066,0.0172,-0.0072,5.0,-38.31,1.38,78.06,-84.91,138.79
1341,53.17238,-1.682001,194.82,1.67,3,313.41,19 / 19,1606713,2019-11-06 16:33:07:175,-0.5086,0.1512,9.8007,-0.0033,-0.0032,9.8066,-0.0011,-0.0058,0.0123,4.75,-38.31,1.63,60.66,-84.86,138.8
1342,53.17238,-1.682001,194.82,1.67,3,313.41,19 / 19,1606813,2019-11-06 16:33:07:275,-0.8863,0.3498,9.9776,-0.0047,0.0034,9.8066,0.0083,0.0145,-0.0048,5.19,-38.62,1.19,80.77,-84.83,138.96
1343,53.17238,-1.682001,194.82,1.67,3,313.41,19 / 19,1606914,2019-11-06 16:33:07:376,-1.3432,0.5033,10.0292,-0.0045,0.0021,9.8066,0.0022,-0.0061,0.0083,5.13,-38.75,1.75,64.43,-84.77,139.44
1344,53.17238,-1.682001,194.82,1.67,3,313.41,19 / 19,1607013,2019-11-06 16:33:07:475,-1.5858,0.5589,9.8458,-0.002,0.0036,9.8066,-0.0052,-0.0086,0.0072,5.19,-38.37,1.88,64.83,-84.69,140.14
1345,53.17238,-1.682001,194.82,1.67,3,313.41,19 / 19,1607114,2019-11-06 16:33:07:576,-1.5137,0.227,9.6805,-0.018,0.0055,9.8065,0.0109,-0.0411,0.0254,4.56,-38.87,1.88,69.23,-84.59,141.04
1346,53.17238,-1.682001,194.82,1.67,3,313.41,19 / 19,1607214,2019-11-06 16:33:07:676,-2.3167,0.7176,9.8624,-0.0034,0.0026,9.8066,0.0236,-0.0241,-0.0097,4.94,-39.06,1.56,68.82,-84.59,140.84
1347,53.17238,-1.682001,194.82,1.67,3,313.41,19 / 19,1607314,2019-11-06 16:33:07:776,-2.5742,0.6555,9.8872,-0.0063,0.0051,9.8066,-0.0407,-0.034,0.0282,4.94,-38.37,2.0,70.79,-84.45,142.17
1348,53.17238,-1.682001,194.82,1.67,3,313.41,19 / 19,1607414,2019-11-06 16:33:07:876,-1.8274,1.5827,9.6869,-0.0041,0.0089,9.8066,0.0266,-0.0154,-0.0117,5.31,-39.06,1.25,87.21,-84.53,141.46
1349,53.17238,-1.682001,194.82,1.67,3,313.41,19 / 19,1607514,2019-11-06 16:33:07:976,-0.7569,1.2863,9.9934,0.0086,-0.0055,9.8066,0.0143,-0.0857,0.0078,4.75,-39.0,1.13,88.02,-84.51,142.03
1350,53.17238,-1.682001,194.82,1.67,3,313.41,19 / 19,1607614,2019-11-06 16:33:08:076,-1.3664,1.1853,10.025,-0.0051,0.0044,9.8066,0.0032,-0.0795,-0.0002,5.88,-39.37,0.94,80.26,-84.48,142.05
1351,53.17238,-1.682001,194.82,1.67,3,313.41,19 / 19,1607714,2019-11-06 16:33:08:176,-0.4703,0.1062,9.887,-0.0005,-0.0093,9.8066,-0.0061,-0.1341,-0.0143,5.19,-39.0,1.56,69.61,-84.5,140.57
1352,53.17238,-1.682001,194.82,1.67,3,313.41,19 / 19,1607814,2019-11-06 16:33:08:276,-0.287,0.133,9.7288,0.0059,-0.0015,9.8066,0.0018,-0.0995,0.0314,5.44,-39.69,1.63,70.06,-84.47,139.3
1353,53.17238,-1.682001,194.82,1.67,3,313.41,19 / 20,1607917,2019-11-06 16:33:08:379,-0.7264,-0.0317,9.4148,0.0053,-0.0046,9.8066,-0.0279,-0.115,0.0153,5.0,-39.44,0.69,83.84,-84.51,138.13
1354,53.17238,-1.682001,194.82,1.67,3,313.41,19 / 20,1608013,2019-11-06 16:33:08:475,0.3504,0.9987,9.905,0.0056,0.0055,9.8066,0.0401,-0.1701,0.0371,4.31,-39.81,1.0,98.31,-84.63,137.98
1355,53.17238,-1.682001,194.82,1.67,3,313.41,19 / 20,1608113,2019-11-06 16:33:08:575,-0.8343,0.9578,10.0774,0.0131,0.0001,9.8066,-0.0156,-0.1238,0.0121,3.63,-39.69,0.63,95.84,-84.75,137.34
1356,53.17238,-1.682001,194.82,1.67,3,313.41,19 / 20,1608215,2019-11-06 16:33:08:677,1.0997,1.6179,10.1211,0.0092,-0.0061,9.8066,-0.0221,-0.2236,0.0862,4.44,-39.62,0.25,107.46,-84.79,137.18
1357,53.17238,-1.682001,194.82,1.67,3,313.41,19 / 20,1608313,2019-11-06 16:33:08:775,-0.5656,0.5965,9.8166,-0.0008,0.0064,9.8066,0.0021,-0.1366,-0.008,4.13,-40.75,0.63,95.3,-84.85,136.13
1358,53.17238,-1.682001,194.82,1.67,3,313.41,19 / 20,1608413,2019-11-06 16:33:08:875,0.2264,2.3448,9.5347,-0.0071,0.0052,9.8066,0.0587,-0.2671,0.0407,4.13,-39.75,0.0,105.68,-84.85,135.64
1359,53.17238,-1.682001,194.82,1.67,3,313.41,19 / 20,1608513,2019-11-06 16:33:08:975,-2.2578,1.3743,9.9058,0.019,-0.0014,9.8066,-0.0025,-0.1279,0.0255,4.0,-40.31,0.69,92.93,-84.85,136.09
1360,53.17238,-1.682001,194.82,1.67,3,313.41,19 / 20,1608613,2019-11-06 16:33:09:075,-1.011,2.675,9.5135,-0.0026,0.0026,9.8066,0.0007,-0.2827,0.0511,3.63,-40.44,0.69,90.98,-84.89,134.94
1361,53.17238,-1.682001,194.82,1.67,3,313.41,19 / 20,1608713,2019-11-06 16:33:09:175,-0.1067,-0.0169,9.7269,0.0216,-0.0097,9.8066,-0.1112,-0.0764,0.0048,3.44,-40.69,0.69,118.68,-84.97,135.13
1362,53.17238,-1.682001,194.82,1.67,3,313.41,19 / 20,1608813,2019-11-06 16:33:09:275,0.2022,2.4623,9.4109,0.0139,-0.031,9.8065,-0.0411,-0.2468,0.0457,2.75,-40.5,0.13,116.14,-85.4,131.86
1363,53.17238,-1.682001,194.82,1.67,3,313.41,20 / 21,1608913,2019-11-06 16:33:09:375,1.5726,2.2541,8.6296,0.0203,-0.0241,9.8065,-0.0687,-0.1892,0.037,1.94,-40.5,-0.69,132.73,-85.99,129.13
1364,53.17238,-1.682001,194.82,1.67,3,313.41,20 / 21,1609014,2019-11-06 16:33:09:476,3.1825,-2.3223,9.8479,0.017,-0.0612,9.8064,-0.1286,-0.3524,0.1648,1.44,-39.5,-1.19,145.35,-86.81,129.54
1365,53.17238,-1.682001,194.82,1.67,3,313.41,20 / 21,1609114,2019-11-06 16:33:09:576,2.635,-0.0521,10.8579,0.0102,-0.0697,9.8063,-0.0934,-0.2034,-0.1239,0.44,-39.62,-1.62,143.3,-87.88,117.11
1366,53.17238,-1.682001,194.82,1.67,3,313.41,20 / 21,1609214,2019-11-06 16:33:09:676,2.0337,-0.2744,10.0975,-0.0367,-0.0202,9.8065,-0.0576,-0.3414,-0.0293,0.38,-40.31,-3.31,127.03,-87.79,102.84
1367,53.17238,-1.682001,194.82,1.67,3,313.41,20 / 21,1609314,2019-11-06 16:33:09:776,0.608,1.8965,9.1423,-0.0411,0.0021,9.8065,-0.017,-0.2555,-0.1738,0.5,-39.06,-3.12,113.56,-87.33,100.15
1368,53.17238,-1.682001,194.82,1.67,3,313.41,20 / 21,1609414,2019-11-06 16:33:09:876,0.4056,-1.1177,9.3194,-0.0548,0.0107,9.8065,-0.0221,-0.3818,-0.1201,0.19,-38.5,-3.81,123.43,-86.74,96.67
1369,53.17238,-1.682001,194.82,1.67,3,313.41,20 / 21,1609513,2019-11-06 16:33:09:975,1.0773,0.3265,9.4722,-0.0372,-0.0091,9.8065,-0.0422,-0.3337,-0.0795,0.44,-38.69,-5.31,117.99,-86.11,90.13
1370,53.17238,-1.682001,194.82,1.67,3,313.41,20 / 21,1609613,2019-11-06 16:33:10:075,0.5571,-0.226,10.0577,-0.0163,-0.0159,9.8066,-0.0507,-0.3679,-0.0167,-0.62,-38.56,-5.87,118.73,-85.9,85.59
1371,53.17238,-1.682001,194.82,1.67,3,313.41,20 / 21,1609713,2019-11-06 16:33:10:175,0.106,-0.7434,10.2105,-0.0023,-0.0133,9.8066,0.0169,-0.3582,0.0308,-1.56,-37.94,-5.5,127.42,-85.96,82.37
1372,53.17238,-1.682001,194.82,1.67,3,313.41,20 / 21,1609813,2019-11-06 16:33:10:275,-0.2255,-0.7684,9.7643,0.0255,-0.0099,9.8065,0.0682,-0.3496,0.1071,-2.31,-37.62,-6.06,120.65,-86.38,83.18
1373,53.172455,-1.682116,194.65,3.51,2,339.9,19 / 19,1609913,2019-11-06 16:33:10:375,0.1577,-1.2776,9.8588,0.0311,-0.0003,9.8065,0.1235,-0.4961,0.1886,-3.56,-37.94,-5.19,140.3,-87.14,90.77
1374,53.172455,-1.682116,194.65,3.51,2,339.9,19 / 19,1610013,2019-11-06 16:33:10:475,2.0038,-1.3721,9.8847,0.0127,0.0017,9.8066,0.007,-0.3202,0.0102,-4.56,-38.12,-6.37,146.45,-87.64,100.31
1375,53.172455,-1.682116,194.65,3.51,2,339.9,19 / 19,1610114,2019-11-06 16:33:10:576,2.0373,-0.2826,9.6016,-0.0201,0.0001,9.8066,-0.0077,-0.3831,-0.0351,-4.37,-37.81,-6.12,141.38,-87.58,99.74
1376,53.172455,-1.682116,194.65,3.51,2,339.9,19 / 19,1610213,2019-11-06 16:33:10:675,0.4092,-1.1007,9.4634,-0.0298,0.0089,9.8065,0.0441,-0.3346,-0.1099,-4.62,-37.75,-6.37,142.54,-87.33,94.83
1377,53.172455,-1.682116,194.65,3.51,2,339.9,19 / 19,1610313,2019-11-06 16:33:10:775,0.525,-1.0114,9.6713,-0.0212,0.0235,9.8066,0.0291,-0.3786,-0.0078,-4.62,-38.06,-6.31,141.7,-86.84,92.35
1378,53.172455,-1.682116,194.65,3.51,2,339.9,19 / 19,1610414,2019-11-06 16:33:10:876,0.6197,-0.2365,10.0275,0.0203,0.0199,9.8066,0.0833,-0.2935,-0.0222,-5.19,-37.44,-6.31,146.42,-86.7,97.97
1379,53.172455,-1.682116,194.65,3.51,2,339.9,19 / 19,1610513,2019-11-06 16:33:10:975,1.6838,0.3102,9.7313,0.0154,0.0144,9.8066,0.0792,-0.3803,-0.0092,-6.69,-37.69,-6.06,157.52,-86.63,102.85
1380,53.172455,-1.682116,194.65,3.51,2,339.9,19 / 19,1610613,2019-11-06 16:33:11:075,2.7397,-1.1098,9.9273,0.004,-0.023,9.8066,-0.0291,-0.2313,-0.0394,-7.0,-37.44,-5.69,159.16,-86.6,104.94
1381,53.172455,-1.682116,194.65,3.51,2,339.9,19 / 19,1610714,2019-11-06 16:33:11:176,2.2437,-0.5103,10.2225,-0.0082,-0.0089,9.8066,-0.0336,-0.2805,-0.0463,-7.06,-37.75,-6.5,156.56,-86.78,101.91
1382,53.172455,-1.682116,194.65,3.51,2,339.9,19 / 19,1610814,2019-11-06 16:33:11:276,1.1631,0.2559,9.8808,-0.0041,-0.0158,9.8066,-0.0555,-0.2612,-0.0327,-7.81,-37.25,-7.06,153.75,-86.7,99.9
1383,53.172455,-1.682116,194.65,3.51,2,339.9,19 / 20,1610914,2019-11-06 16:33:11:376,0.7638,0.1672,9.2065,0.002,-0.019,9.8066,-0.0254,-0.3167,0.0335,-8.06,-36.87,-7.0,149.47,-86.94,95.27
1384,53.172455,-1.682116,194.65,3.51,2,339.9,19 / 20,1611014,2019-11-06 16:33:11:476,1.4855,-0.6242,9.577,0.0196,-0.0077,9.8066,0.0191,-0.2716,-0.0104,-9.0,-37.44,-6.87,151.7,-87.25,95.36
1385,53.172455,-1.682116,194.65,3.51,2,339.9,19 / 20,1611113,2019-11-06 16:33:11:575,0.5487,-0.6347,10.1281,0.0087,-0.005,9.8066,0.0651,-0.2499,-0.0005,-9.12,-37.12,-8.06,149.1,-87.3,96.5
1386,53.172455,-1.682116,194.65,3.51,2,339.9,19 / 20,1611214,2019-11-06 16:33:11:676,1.2588,-0.7779,10.3527,0.0011,0.0018,9.8066,0.0122,-0.277,-0.014,-9.75,-37.44,-7.87,155.06,-87.33,100.49
1387,53.172455,-1.682116,194.65,3.51,2,339.9,19 / 20,1611314,2019-11-06 16:33:11:776,0.5265,-0.4601,10.1496,0.0117,0.013,9.8066,0.0374,-0.2483,-0.012,-9.75,-37.44,-7.62,157.99,-87.2,103.64
1388,53.172455,-1.682116,194.65,3.51,2,339.9,19 / 20,1611414,2019-11-06 16:33:11:876,2.772,0.7333,9.8494,-0.0025,-0.0193,9.8066,-0.012,-0.2483,0.0107,-11.0,-37.62,-7.19,162.67,-87.23,102.75
1389,53.172455,-1.682116,194.65,3.51,2,339.9,19 / 20,1611514,2019-11-06 16:33:11:976,-0.2696,-1.3169,9.7115,0.0038,-0.009,9.8066,-0.0036,-0.1614,0.0356,-11.56,-36.87,-7.81,158.93,-87.44,100.27
1390,53.172455,-1.682116,194.65,3.51,2,339.9,19 / 20,1611614,2019-11-06 16:33:12:076,1.008,-2.0164,10.0308,0.0258,0.0051,9.8066,0.066,-0.2639,0.0225,-11.62,-37.75,-7.5,169.24,-87.57,108.27
1391,53.172455,-1.682116,194.65,3.51,2,339.9,19 / 20,1611714,2019-11-06 16:33:12:176,1.6362,1.41,9.7316,0.0031,0.004,9.8066,0.0212,-0.1043,-0.0615,-12.87,-37.12,-7.87,170.1,-87.48,110.66
1392,53.172455,-1.682116,194.65,3.51,2,339.9,19 / 20,1611814,2019-11-06 16:33:12:276,0.028,0.1428,10.0079,-0.0139,-0.0156,9.8066,-0.0072,-0.2152,0.0823,-12.37,-38.19,-7.0,169.87,-87.45,108.91
1393,53.172455,-1.682116,194.65,3.51,2,339.9,20 / 21,1611914,2019-11-06 16:33:12:376,1.0213,1.4478,10.0977,0.0044,-0.025,9.8065,-0.0284,-0.0986,-0.0109,-12.94,-37.94,-7.62,164.62,-87.72,104.74
1394,53.172455,-1.682116,194.65,3.51,2,339.9,20 / 21,1612014,2019-11-06 16:33:12:476,0.3116,-1.3714,10.3088,0.0012,0.0101,9.8066,0.0206,-0.1547,0.0617,-13.62,-38.0,-7.62,168.25,-87.77,106.94
1395,53.172455,-1.682116,194.65,3.51,2,339.9,20 / 21,1612114,2019-11-06 16:33:12:576,-0.2689,-1.1431,10.0321,0.0128,-0.0003,9.8066,-0.0036,-0.0558,-0.0792,-13.12,-37.37,-7.44,172.4,-87.7,109.95
1396,53.172455,-1.682116,194.65,3.51,2,339.9,20 / 21,1612214,2019-11-06 16:33:12:676,1.0598,-0.0209,8.8705,-0.0021,0.0131,9.8066,0.0676,-0.1385,0.0597,-13.69,-38.31,-7.25,173.39,-87.39,109.23
1397,53.172455,-1.682116,194.65,3.51,2,339.9,20 / 21,1612314,2019-11-06 16:33:12:776,0.0929,0.8322,9.7958,0.0135,-0.027,9.8065,0.0162,-0.0352,-0.0017,-13.94,-37.94,-7.25,176.55,-87.52,112.76
1398,53.172455,-1.682116,194.65,3.51,2,339.9,20 / 21,1612414,2019-11-06 16:33:12:876,0.3836,0.5118,9.8145,-0.0201,-0.0093,9.8065,-0.0007,-0.1798,0.1022,-14.25,-37.69,-7.31,177.25,-87.7,113.55
1399,53.172455,-1.682116,194.65,3.51,2,339.9,20 / 21,1612513,2019-11-06 16:33:12:975,-0.8357,0.2504,10.0747,-0.0018,-0.0112,9.8066,-0.0735,0.0485,-0.0427,-14.31,-38.12,-7.31,173.24,-87.9,109.21
1400,53.172455,-1.682116,194.65,3.51,2,339.9,20 / 21,1612613,2019-11-06 16:33:13:075,0.7486,-0.4225,10.2238,-0.0264,0.0315,9.8065,-0.0237,-0.1541,-0.0243,-14.81,-37.25,-7.5,170.18,-87.81,104.37
1401,53.172455,-1.682116,194.65,3.51,2,339.9,20 / 21,1612713,2019-11-06 16:33:13:175,1.0397,0.1709,9.3544,-0.0092,0.0338,9.8066,0.0282,-0.0287,0.0059,-13.81,-37.69,-7.87,161.93,-87.26,99.7
1402,53.172455,-1.682116,194.65,3.51,2,339.9,20 / 21,1612814,2019-11-06 16:33:13:276,0.544,0.0519,9.7751,0.0038,0.0102,9.8065,0.0613,-0.2248,0.1652,-13.81,-37.62,-6.94,168.45,-87.19,103.67
1403,53.172455,-1.682116,194.65,3.51,2,339.9,19 / 20,1612914,2019-11-06 16:33:13:376,0.1242,-0.8513,10.5972,0.0339,-0.0074,9.8065,0.0719,-0.1108,0.0866,-14.56,-37.81,-7.19,176.72,-87.44,111.4
1404,53.172455,-1.682116,194.65,3.51,2,339.9,19 / 20,1613014,2019-11-06 16:33:13:476,0.4338,0.4661,9.7921,0.032,-0.0275,9.8065,-0.0275,0.082,-0.0184,-14.5,-38.19,-7.06,183.79,-87.7,120.72
1405,53.172455,-1.682116,194.65,3.51,2,339.9,19 / 20,1613114,2019-11-06 16:33:13:576,1.0585,-2.7918,9.8195,0.0234,-0.0148,9.8066,0.0173,0.2101,-0.1011,-14.62,-38.0,-5.94,194.94,-87.8,128.07
1406,53.172455,-1.682116,194.65,3.51,2,339.9,19 / 20,1613214,2019-11-06 16:33:13:676,1.7967,0.8094,9.9028,0.0179,0.0027,9.8066,0.0319,0.1686,-0.1348,-14.87,-38.19,-6.0,195.51,-87.58,128.82
1407,53.172455,-1.682116,194.65,3.51,2,339.9,19 / 20,1613314,2019-11-06 16:33:13:776,1.6037,0.3616,10.4346,0.0342,-0.0143,9.8065,0.0345,0.1118,-0.0937,-15.0,-37.62,-5.62,198.6,-87.24,132.45
1408,53.172455,-1.682116,194.65,3.51,2,339.9,19 / 20,1613413,2019-11-06 16:33:13:875,0.3619,2.5613,9.7394,0.0112,-0.0103,9.8066,-0.0046,0.0697,-0.0203,-14.37,-37.25,-5.5,206.28,-87.18,139.02
1409,53.172455,-1.682116,194.65,3.51,2,339.9,19 / 20,1613514,2019-11-06 16:33:13:976,1.5065,0.1064,10.262,0.0083,-0.0517,9.8065,0.0252,0.1409,-0.0741,-14.94,-37.75,-6.37,206.4,-87.31,140.99
1410,53.172455,-1.682116,194.65,3.51,2,339.9,19 / 20,1613614,2019-11-06 16:33:14:076,0.3933,0.7338,9.4824,0.0185,0.0015,9.8066,-0.075,0.1271,0.0012,-14.44,-37.62,-5.81,209.32,-87.53,145.52
1411,53.172455,-1.682116,194.65,3.51,2,339.9,19 / 20,1613714,2019-11-06 16:33:14:176,1.7228,-0.835,10.489,0.0221,-0.0126,9.8066,-0.078,0.1426,0.0058,-15.12,-37.56,-6.31,215.59,-87.6,150.65
1412,53.172455,-1.682116,194.65,3.51,2,339.9,19 / 20,1613814,2019-11-06 16:33:14:276,0.7529,0.0145,9.7559,0.0031,-0.0304,9.8066,-0.0246,0.2032,-0.1337,-14.56,-37.0,-6.5,217.2,-87.77,152.07
1413,53.172455,-1.682116,194.65,3.51,2,339.9,20 / 20,1613914,2019-11-06 16:33:14:376,1.6778,-1.8947,9.7748,0.0017,-0.0067,9.8066,-0.0101,0.0417,-0.0443,-15.25,-37.5,-6.31,212.26,-87.73,146.81
1414,53.172455,-1.682116,194.65,3.51,2,339.9,20 / 20,1614013,2019-11-06 16:33:14:475,1.1324,0.2949,10.6023,0.006,-0.0161,9.8065,0.0669,0.1856,-0.1782,-14.31,-37.37,-6.69,206.5,-87.68,145.5
1415,53.172455,-1.682116,194.65,3.51,2,339.9,20 / 20,1614114,2019-11-06 16:33:14:576,-0.0559,0.5076,10.2077,-0.0004,0.021,9.8066,0.0324,0.124,-0.1949,-13.81,-37.44,-6.31,203.58,-87.25,139.43
1416,53.172455,-1.682116,194.65,3.51,2,339.9,20 / 20,1614214,2019-11-06 16:33:14:676,0.586,1.9897,10.0975,0.0179,0.0194,9.8065,0.112,0.0591,-0.0314,-14.5,-38.0,-5.69,200.64,-86.68,136.73
1417,53.172455,-1.682116,194.65,3.51,2,339.9,20 / 20,1614314,2019-11-06 16:33:14:776,0.5368,0.2563,10.774,0.066,-0.0537,9.8062,0.0084,-0.0129,0.1477,-14.75,-37.19,-5.56,214.23,-86.62,150.34
1418,53.172455,-1.682116,194.65,3.51,2,339.9,20 / 20,1614414,2019-11-06 16:33:14:876,2.3593,0.0289,10.9293,0.0671,-0.0486,9.8062,0.0712,0.065,0.1613,-14.06,-36.94,-4.12,232.08,-86.68,164.65
1419,53.172455,-1.682116,194.65,3.51,2,339.9,20 / 20,1614514,2019-11-06 16:33:14:976,1.8151,-1.5675,9.9307,0.0089,-0.0016,9.8066,0.0193,-0.1271,0.0734,-15.75,-37.56,-4.0,242.36,-86.38,173.76
1420,53.172455,-1.682116,194.65,3.51,2,339.9,20 / 20,1614613,2019-11-06 16:33:15:075,2.0352,-0.9032,9.7675,0.0036,-0.0057,9.8066,-0.0319,-0.0874,0.0016,-15.25,-37.31,-3.87,242.53,-86.31,175.25
1421,53.172455,-1.682116,194.65,3.51,2,339.9,20 / 20,1614713,2019-11-06 16:33:15:175,1.3764,0.1504,9.699,-0.0022,-0.0006,9.8066,-0.0491,-0.1665,0.1065,-15.0,-36.25,-4.69,241.1,-86.39,176.7
1422,53.172455,-1.682116,194.65,3.51,2,339.9,20 / 20,1614813,2019-11-06 16:33:15:275,0.8379,-0.4627,10.3061,-0.0187,-0.015,9.8066,-0.0175,-0.1438,0.0452,-15.44,-36.12,-5.25,244.72,-86.6,-179.86
1423,53.172455,-1.682116,194.65,3.51,2,339.9,18 / 19,1614913,2019-11-06 16:33:15:375,0.4398,-0.793,9.821,-0.0161,-0.0208,9.8066,0.0221,-0.1446,-0.0186,-15.37,-36.5,-5.87,246.06,-86.82,-175.66
1424,53.172455,-1.682116,194.65,3.51,2,339.9,18 / 19,1615014,2019-11-06 16:33:15:476,1.176,-0.9966,9.5694,-0.0033,0.0207,9.8066,-0.0017,-0.1349,0.0193,-15.06,-36.81,-5.19,246.54,-86.77,-178.1
1425,53.172455,-1.682116,194.65,3.51,2,339.9,18 / 19,1615114,2019-11-06 16:33:15:576,0.3507,0.0158,10.0736,0.0055,0.0156,9.8065,0.0605,0.0132,-0.0871,-14.69,-36.87,-4.31,246.71,-86.61,179.06
1426,53.172455,-1.682116,194.65,3.51,2,339.9,18 / 19,1615214,2019-11-06 16:33:15:676,0.5193,-0.2587,10.0069,-0.0081,0.0358,9.8065,-0.0215,-0.0513,-0.0076,-14.0,-35.94,-3.56,239.38,-86.38,173.0
1427,53.172455,-1.682116,194.65,3.51,2,339.9,18 / 19,1615314,2019-11-06 16:33:15:776,0.366,0.954,9.2945,-0.0014,0.0251,9.8066,-0.0318,-0.12,0.0956,-14.94,-36.12,-2.81,240.97,-86.29,169.9
1428,53.172455,-1.682116,194.65,3.51,2,339.9,18 / 19,1615414,2019-11-06 16:33:15:876,0.6908,0.041,9.7655,-0.0081,-0.0066,9.8066,0.0782,-0.1407,0.0666,-16.12,-36.56,-3.19,242.02,-86.28,170.08
1429,53.172455,-1.682116,194.65,3.51,2,339.9,18 / 19,1615514,2019-11-06 16:33:15:976,0.9571,0.1152,10.3892,0.0084,-0.0086,9.8066,-0.0514,-0.0545,0.0303,-17.19,-36.75,-3.06,245.89,-86.27,173.17
1430,53.172455,-1.682116,194.65,3.51,2,339.9,18 / 19,1615614,2019-11-06 16:33:16:076,0.4107,0.1555,9.8412,-0.0203,0.0067,9.8066,0.0499,-0.1053,0.0405,-17.19,-37.25,-4.06,243.76,-86.37,173.88
1431,53.172455,-1.682116,194.65,3.51,2,339.9,18 / 19,1615714,2019-11-06 16:33:16:176,0.0985,1.6074,9.545,-0.0156,0.0189,9.8066,0.0405,-0.0301,0.0073,-17.12,-37.31,-4.12,243.14,-86.32,173.31
1432,53.172455,-1.682116,194.65,3.51,2,339.9,18 / 19,1615814,2019-11-06 16:33:16:276,0.6452,-0.1703,10.4261,0.0023,0.0219,9.8065,0.0858,-0.1269,0.0122,-17.81,-37.81,-3.69,240.73,-86.17,170.1
1433,53.172455,-1.682116,194.65,3.51,2,339.9,18 / 19,1615914,2019-11-06 16:33:16:376,0.9445,-0.277,9.9701,0.0111,0.002,9.8066,-0.019,0.0144,-0.0244,-17.44,-37.69,-3.37,241.18,-85.81,169.24
1434,53.172455,-1.682116,194.65,3.51,2,339.9,18 / 19,1616013,2019-11-06 16:33:16:475,0.7272,-1.4788,9.828,-0.01,0.0193,9.8066,-0.0076,-0.2372,0.0331,-18.19,-36.56,-3.37,241.93,-85.83,168.82
1435,53.172455,-1.682116,194.65,3.51,2,339.9,18 / 19,1616113,2019-11-06 16:33:16:575,-1.3322,3.2523,11.1392,-0.007,-0.0113,9.8066,-0.0084,0.5672,-0.3874,-18.25,-36.44,-3.0,236.61,-85.81,162.92
1436,53.172455,-1.682116,194.65,3.51,2,339.9,18 / 19,1616214,2019-11-06 16:33:16:676,-2.265,-1.661,9.0877,0.0022,0.0388,9.8065,-0.2073,-0.0368,0.021,-17.75,-36.0,-3.75,227.62,-85.66,156.34
1437,53.172455,-1.682116,194.65,3.51,2,339.9,18 / 19,1616314,2019-11-06 16:33:16:776,-0.8012,-0.5714,11.1913,0.0479,0.0249,9.8065,-0.0469,0.3643,-0.1082,-16.12,-35.62,-3.37,227.7,-85.86,155.04
1438,53.172455,-1.682116,194.65,3.51,2,339.9,18 / 19,1616414,2019-11-06 16:33:16:876,2.8518,-5.206,10.4859,0.0097,0.068,9.8064,0.1837,-0.3154,-0.0507,-15.87,-36.81,-3.06,227.81,-85.16,156.5
1439,53.172455,-1.682116,194.65,3.51,2,339.9,18 / 19,1616514,2019-11-06 16:33:16:976,-0.6959,1.5046,8.4342,0.045,-0.053,9.8063,0.1363,0.3129,-0.2521,-14.56,-37.5,-2.31,230.21,-84.21,158.63
1440,53.172455,-1.682116,194.65,3.51,2,339.9,18 / 19,1616614,2019-11-06 16:33:17:076,-1.9832,3.0791,8.973,-0.0209,0.0163,9.8066,0.0811,0.2709,-0.0744,-14.87,-37.44,-2.56,227.38,-83.91,159.45
1441,53.172455,-1.682116,194.65,3.51,2,339.9,18 / 19,1616714,2019-11-06 16:33:17:176,0.6786,-1.4357,9.7303,-0.0055,-0.0107,9.8066,-0.1149,-0.0956,-0.0803,-15.0,-36.94,-2.87,228.35,-83.73,160.92
1442,53.172455,-1.682116,194.65,3.51,2,339.9,18 / 19,1616814,2019-11-06 16:33:17:276,-0.5656,-3.832,9.5496,-0.0319,-0.0041,9.8065,-0.0162,-0.2181,0.0806,-14.69,-37.87,-2.81,226.64,-84.26,158.24
1443,53.172455,-1.682116,194.65,3.51,2,339.9,18 / 19,1616914,2019-11-06 16:33:17:376,-4.4423,1.8872,8.4845,0.0138,0.0154,9.8066,0.3187,0.3235,-0.3742,-14.81,-37.81,-3.37,226.88,-84.61,157.9
1444,53.172455,-1.682116,194.65,3.51,2,339.9,18 / 19,1617014,2019-11-06 16:33:17:476,0.5542,-1.2665,8.4113,-0.0315,0.0109,9.8066,-0.0896,0.0952,-0.1101,-15.0,-38.12,-3.37,227.02,-84.41,158.41
1445,53.172455,-1.682116,194.65,3.51,2,339.9,18 / 19,1617114,2019-11-06 16:33:17:576,5.6259,-8.678,12.4706,0.1077,-0.0538,9.8059,0.0977,0.7947,-0.4189,-14.94,-37.62,-2.5,231.48,-84.03,160.75
1446,53.172455,-1.682116,194.65,3.51,2,339.9,18 / 19,1617213,2019-11-06 16:33:17:675,-3.3069,7.0039,9.9568,0.0589,0.0185,9.8064,-0.3517,0.7593,-0.2657,-15.19,-37.87,-2.87,224.62,-83.61,156.99
1447,53.172455,-1.682116,194.65,3.51,2,339.9,18 / 19,1617313,2019-11-06 16:33:17:775,-0.8205,-5.2715,10.7679,0.0342,0.028,9.8065,0.1243,-0.3285,0.2108,-15.25,-38.19,-1.87,231.14,-83.75,160.91
1448,53.172455,-1.682116,194.65,3.51,2,339.9,18 / 19,1617413,2019-11-06 16:33:17:875,2.2512,-7.1069,9.8875,-0.01,-0.0326,9.8065,0.1083,-0.1167,0.0901,-15.37,-38.12,-0.69,234.51,-83.29,162.12
1449,53.172455,-1.682116,194.65,3.51,2,339.9,18 / 19,1617513,2019-11-06 16:33:17:975,-0.0911,4.2946,7.8268,-0.0329,0.0581,9.8063,0.2405,-0.5106,0.2366,-15.0,-37.31,1.5,245.06,-83.03,163.0
1450,53.172455,-1.682116,194.65,3.51,2,339.9,18 / 19,1617613,2019-11-06 16:33:18:075,1.3772,3.7482,9.194,0.0231,-0.0313,9.8065,-0.1056,0.048,-0.0923,-14.81,-36.31,8.63,268.72,-82.78,162.86
1451,53.172455,-1.682116,194.65,3.51,2,339.9,18 / 19,1617713,2019-11-06 16:33:18:175,0.8501,0.3686,9.5859,-0.0056,0.0178,9.8066,-0.0786,-0.507,0.1996,-34.44,-43.12,12.75,263.51,-83.19,160.59
1452,53.172455,-1.682116,194.65,3.51,2,339.9,18 / 19,1617813,2019-11-06 16:33:18:275,1.9197,-5.5586,10.6709,-0.0196,0.0166,9.8066,0.0933,-0.209,0.2048,-21.0,-40.31,-3.37,233.35,-83.38,161.38
1453,53.172455,-1.682116,194.65,3.51,2,339.9,18 / 18,1617914,2019-11-06 16:33:18:376,-1.4982,5.9788,10.8633,0.01,0.024,9.8065,0.086,-0.6112,0.3293,-17.25,-39.94,-4.0,227.94,-83.22,162.61
1454,53.172455,-1.682116,194.65,3.51,2,339.9,18 / 18,1618014,2019-11-06 16:33:18:476,1.2777,-2.404,7.9075,0.0124,0.0503,9.8065,-0.1093,-0.624,0.2286,-17.0,-40.12,-3.06,231.51,-82.87,164.38
1455,53.172455,-1.682116,194.65,3.51,2,339.9,18 / 18,1618113,2019-11-06 16:33:18:575,-2.6065,5.7135,9.3178,0.0436,-0.0074,9.8065,-0.1402,0.3833,-0.2077,-16.94,-40.19,-3.31,231.27,-82.6,164.59
1456,53.172455,-1.682116,194.65,3.51,2,339.9,18 / 18,1618213,2019-11-06 16:33:18:675,2.6319,-5.8058,10.2355,-0.0325,0.0289,9.8065,0.1107,-0.7532,0.3581,-23.56,-40.56,-1.81,238.88,-82.67,164.21
1457,53.172455,-1.682116,194.65,3.51,2,339.9,18 / 18,1618314,2019-11-06 16:33:18:776,-6.4577,-9.2535,9.7804,-0.0341,-0.0627,9.8064,-0.1353,1.0996,-0.5089,-32.12,-42.44,24.0,284.03,-82.84,164.62
1458,53.172455,-1.682116,194.65,3.51,2,339.9,18 / 18,1618414,2019-11-06 16:33:18:876,-1.3055,0.6463,9.222,-0.0212,-0.0174,9.8066,-0.1196,0.7199,-0.4366,-15.56,-37.37,6.63,261.72,-82.95,163.07
1459,53.172455,-1.682116,194.65,3.51,2,339.9,18 / 18,1618514,2019-11-06 16:33:18:976,0.9699,-8.3119,10.5605,0.022,-0.0691,9.8063,-0.0629,0.6224,-0.3579,-15.06,-38.25,1.25,238.05,-83.05,159.17
1460,53.172455,-1.682116,194.65,3.51,2,339.9,18 / 18,1618614,2019-11-06 16:33:19:076,-1.8065,3.5526,10.4279,0.0587,-0.0863,9.8061,-0.194,1.2371,-0.595,-15.12,-38.75,-1.19,233.72,-83.12,161.92
1461,53.172455,-1.682116,194.65,3.51,2,339.9,18 / 18,1618714,2019-11-06 16:33:19:176,0.0907,-8.1305,11.8688,0.0068,-0.0345,9.8065,0.1297,-0.3941,0.063,-15.44,-38.25,-0.87,231.89,-83.13,159.32
1462,53.172455,-1.682116,194.65,3.51,2,339.9,18 / 18,1618814,2019-11-06 16:33:19:276,-3.509,6.0296,10.9247,0.0202,-0.0201,9.8065,0.0672,0.7433,-0.4504,-14.44,-38.94,-1.37,229.45,-82.92,158.47
1463,53.172924,-1.681809,193.05,8.62,3,24.49,18 / 18,1618914,2019-11-06 16:33:19:376,-0.8796,-1.3898,9.4406,0.0062,-0.0086,9.8066,0.126,-0.1985,0.021,-14.56,-38.81,-0.19,231.34,-82.42,156.71
1464,53.172924,-1.681809,193.05,8.62,3,24.49,18 / 18,1619014,2019-11-06 16:33:19:476,-0.226,-0.579,10.9323,0.021,-0.0574,9.8064,0.1497,0.2927,-0.1932,-13.56,-39.44,-0.62,227.39,-82.14,157.54
1465,53.172924,-1.681809,193.05,8.62,3,24.49,18 / 18,1619114,2019-11-06 16:33:19:576,0.3761,-5.8607,10.5581,-0.0447,0.0397,9.8064,-0.0072,-0.5303,0.1781,-13.56,-38.87,-1.06,226.47,-81.99,156.67
1466,53.172924,-1.681809,193.05,8.62,3,24.49,18 / 18,1619213,2019-11-06 16:33:19:675,-2.7944,0.0141,9.4669,0.0031,-0.0209,9.8065,-0.0818,0.1951,0.0211,-13.25,-39.25,-0.5,226.64,-82.29,153.48
1467,53.172924,-1.681809,193.05,8.62,3,24.49,18 / 18,1619313,2019-11-06 16:33:19:775,-2.9692,1.2847,11.5648,-0.0144,0.0658,9.8063,0.0454,-0.6166,0.3899,-12.75,-39.5,-1.19,221.21,-82.11,151.1
1468,53.172924,-1.681809,193.05,8.62,3,24.49,18 / 18,1619413,2019-11-06 16:33:19:875,-3.7644,5.5433,10.8032,0.048,-0.0009,9.8065,0.1103,0.3123,-0.2488,-12.44,-39.44,-1.19,220.36,-81.79,152.34
1469,53.172924,-1.681809,193.05,8.62,3,24.49,18 / 18,1619513,2019-11-06 16:33:19:975,-1.5747,-0.5759,8.7766,0.0507,0.1027,9.8059,0.2423,-0.7634,0.3203,-13.06,-39.56,-0.31,223.41,-80.88,152.76
1470,53.172924,-1.681809,193.05,8.62,3,24.49,18 / 18,1619614,2019-11-06 16:33:20:076,3.9442,-5.0292,10.5874,0.0291,0.003,9.8066,0.18,-0.4969,0.169,-12.87,-39.62,0.0,222.19,-79.69,153.6
1471,53.172924,-1.681809,193.05,8.62,3,24.49,18 / 18,1619714,2019-11-06 16:33:20:176,0.2668,0.5426,9.8627,-0.0627,0.0333,9.8063,-0.0755,-0.5566,0.1847,-13.75,-39.31,0.38,224.33,-79.65,154.5
1472,53.172924,-1.681809,193.05,8.62,3,24.49,18 / 18,1619814,2019-11-06 16:33:20:276,-2.4158,-3.1014,10.128,-0.0582,0.0498,9.8063,0.0082,-0.1855,0.2525,-14.06,-39.56,-0.19,221.92,-80.26,150.47
1473,53.172924,-1.681809,193.05,8.62,3,24.49,18 / 19,1619914,2019-11-06 16:33:20:376,-2.8295,7.3769,11.6289,-0.0071,0.0919,9.8061,-0.1147,-1.189,0.606,-14.37,-38.56,0.19,221.51,-80.32,149.31
1474,53.172924,-1.681809,193.05,8.62,3,24.49,18 / 19,1620013,2019-11-06 16:33:20:475,3.4887,-10.3481,10.6199,-0.0299,0.0225,9.8065,0.325,-1.2642,0.6202,-15.06,-38.87,0.06,224.41,-80.67,151.3
1475,53.172924,-1.681809,193.05,8.62,3,24.49,18 / 19,1620113,2019-11-06 16:33:20:575,-0.5334,-0.1495,10.0777,-0.0006,0.0557,9.8065,0.2695,-0.5365,0.0794,-14.94,-39.25,0.0,227.01,-80.41,155.21
1476,53.172924,-1.681809,193.05,8.62,3,24.49,18 / 19,1620214,2019-11-06 16:33:20:676,4.4259,-8.2548,10.7018,-0.0152,0.0742,9.8063,0.1928,-1.0195,0.454,-15.56,-38.75,0.69,228.61,-79.63,153.93
1477,53.172924,-1.681809,193.05,8.62,3,24.49,18 / 19,1620314,2019-11-06 16:33:20:776,-1.5715,2.946,10.0667,-0.011,0.0619,9.8063,-0.0044,-0.4872,0.1449,-14.81,-39.12,1.0,227.53,-79.38,154.08
1478,53.172924,-1.681809,193.05,8.62,3,24.49,18 / 19,1620413,2019-11-06 16:33:20:875,1.3027,-3.2383,10.0537,-0.0324,0.0754,9.8063,-0.0107,-0.7684,0.3422,-15.5,-39.19,1.25,224.92,-79.2,150.86
