,GPS LATITUDE (degrees), GPS LONGITUDE (degrees), GPS ALTITUDE (m), GPS SPEED (Kmh), GPS ACCURACY (m), GPS ORIENTATION (Â°),GPS SATELLITES IN RANGE, TIME SINCE START (ms), DATE (YYYY-MO-DD HH-MI-SS_SSS), ACCELEROMETER X (m/s²) , ACCELEROMETER Y (m/s²), ACCELEROMETER Z (m/s²), GRAVITY X (m/s²), GRAVITY Y (m/s²), GRAVITY Z (m/s²), GYROSCOPE Yaw (rad/s), GYROSCOPE Pitch (rad/s), GYROSCOPE Roll (rad/s), MAGNETIC FIELD X (Î¼T), MAGNETIC FIELD Y (Î¼T), MAGNETIC FIELD Z (Î¼T), ORIENTATION (Yaw) (Â°), ORIENTATION (Pitch) (Â°), ORIENTATION (Roll ) (Â°)
4567,52.37895,-1.515942,135.25,5.3,3,187.65,21 / 22,465128,2019-09-06 18:23:51:810,-2.3977,1.7073,9.304,0.0144,-0.0088,9.8066,-0.0254,-0.478,0.0424,1.06,-32.94,8.19,70.91,-81.08,-153.77
4568,52.37895,-1.515942,135.25,5.3,3,187.65,21 / 22,465229,2019-09-06 18:23:51:911,-0.9258,3.1687,9.7798,0.0221,-0.0101,9.8066,-0.0231,-0.5077,-0.0209,0.56,-33.87,5.75,93.19,-81.28,-155.13
4569,52.37895,-1.515942,135.25,5.3,3,187.65,21 / 22,465329,2019-09-06 18:23:52:011,-1.3803,1.6166,9.868,0.0307,-0.0256,9.8065,-0.0234,-0.502,0.0138,0.25,-33.25,5.75,75.63,-81.54,-156.86
4570,52.37895,-1.515942,135.25,5.3,3,187.65,21 / 21,465429,2019-09-06 18:23:52:111,-0.5016,3.0336,9.9234,0.0137,-0.0173,9.8065,-0.0511,-0.4817,-0.0079,-0.19,-33.44,4.88,95.83,-81.67,-158.01
4571,52.37895,-1.515942,135.25,5.3,3,187.65,21 / 21,465529,2019-09-06 18:23:52:211,1.8933,2.0106,9.6215,0.0009,-0.0211,9.8066,-0.0474,-0.4946,0.0317,-0.87,-33.0,3.44,176.76,-81.95,-160.04
4572,52.37895,-1.515942,135.25,5.3,3,187.65,21 / 21,465628,2019-09-06 18:23:52:310,2.7402,1.075,10.1455,-0.0039,-0.0062,9.8066,-0.0164,-0.5006,0.0558,-0.94,-32.37,2.5,178.37,-82.06,-160.9
4573,52.37895,-1.515942,135.25,5.3,3,187.65,21 / 21,465729,2019-09-06 18:23:52:411,3.381,-1.2859,9.9588,-0.0082,0.0072,9.8066,0.0318,-0.4934,0.0089,-2.19,-32.87,2.44,211.68,-82.06,-161.69
4574,52.37895,-1.515942,135.25,5.3,3,187.65,21 / 21,465829,2019-09-06 18:23:52:511,2.4291,-0.2842,9.9739,-0.0227,0.0026,9.8066,0.0648,-0.4703,0.0064,-2.19,-33.0,1.19,208.14,-82.05,-163.36
4575,52.37895,-1.515942,135.25,5.3,3,187.65,21 / 21,465929,2019-09-06 18:23:52:611,1.7087,-1.5125,9.838,-0.0069,0.0,9.8066,-0.0169,-0.4862,0.1003,-3.87,-33.06,0.31,227.3,-82.04,-165.42
4576,52.37895,-1.515942,135.25,5.3,3,187.65,21 / 21,466029,2019-09-06 18:23:52:711,1.3398,-1.598,10.1828,0.0143,0.0112,9.8066,-0.0711,-0.5075,0.0794,-4.5,-33.69,1.13,231.28,-81.78,-165.28
4577,52.37895,-1.515942,135.25,5.3,3,187.65,21 / 21,466128,2019-09-06 18:23:52:810,2.1158,-2.571,10.6792,0.024,0.0208,9.8065,-0.0046,-0.4738,0.0529,-4.75,-33.44,0.25,233.55,-81.57,-165.15
4578,52.37895,-1.515942,135.25,5.3,3,187.65,21 / 21,466228,2019-09-06 18:23:52:910,1.7057,-1.4357,10.2885,0.0076,0.017,9.8066,0.066,-0.4214,0.0423,-5.5,-33.5,0.56,238.05,-81.3,-166.65
4579,52.37895,-1.515942,135.25,5.3,3,187.65,21 / 21,466329,2019-09-06 18:23:53:011,1.8751,-0.8869,10.0796,0.0109,0.009,9.8066,0.0638,-0.435,0.0758,-6.87,-32.94,0.0,241.89,-81.0,-167.34
4580,52.37895,-1.515942,135.25,5.3,3,187.65,20 / 20,466429,2019-09-06 18:23:53:111,3.6382,-1.2103,9.6662,0.0353,0.0142,9.8065,-0.0179,-0.4742,0.1352,-7.44,-32.62,0.06,240.9,-80.67,-167.03
4581,52.37895,-1.515942,135.25,5.3,3,187.65,20 / 20,466529,2019-09-06 18:23:53:211,1.8886,-2.8473,10.7136,0.0424,0.0172,9.8065,-0.1212,-0.5038,0.0689,-8.37,-32.94,0.0,244.38,-80.2,-166.13
4582,52.37895,-1.515942,135.25,5.3,3,187.65,20 / 20,466629,2019-09-06 18:23:53:311,2.1108,-2.6181,10.321,-0.0151,0.0165,9.8065,0.0311,-0.4345,0.0933,-8.62,-32.87,-0.5,247.75,-80.29,-167.15
4583,52.37895,-1.515942,135.25,5.3,3,187.65,20 / 20,466729,2019-09-06 18:23:53:411,0.6714,-1.743,10.0026,0.0033,0.0136,9.8066,0.0215,-0.3837,-0.023,-9.31,-33.56,-0.25,245.78,-80.2,-168.12
4584,52.37895,-1.515942,135.25,5.3,3,187.65,20 / 20,466828,2019-09-06 18:23:53:510,1.0437,-1.5165,9.959,-0.0009,0.0215,9.8065,0.0572,-0.2972,-0.0158,-9.81,-33.25,-0.25,248.07,-80.03,-169.75
4585,52.37895,-1.515942,135.25,5.3,3,187.65,20 / 20,466929,2019-09-06 18:23:53:611,1.088,0.0786,9.3539,-0.0152,0.0195,9.8066,0.038,-0.2769,0.0425,-10.0,-33.44,-0.62,242.37,-79.98,-171.45
4586,52.37895,-1.515942,135.25,5.3,3,187.65,20 / 20,467029,2019-09-06 18:23:53:711,1.8538,-0.4661,9.4757,-0.0274,0.0034,9.8065,-0.0749,-0.1817,-0.0364,-10.12,-33.31,-0.31,245.74,-79.9,-172.29
4587,52.37895,-1.515942,135.25,5.3,3,187.65,20 / 20,467129,2019-09-06 18:23:53:811,0.4328,-0.5236,10.302,-0.0215,0.0053,9.8066,-0.006,-0.1998,0.0072,-11.12,-32.87,-0.94,243.76,-80.24,-174.03
4588,52.37895,-1.515942,135.25,5.3,3,187.65,20 / 20,467229,2019-09-06 18:23:53:911,0.8273,-0.391,9.8295,-0.012,0.0177,9.8066,0.0192,-0.0987,0.03,-10.19,-32.69,-0.81,240.2,-80.3,-175.41
4589,52.37895,-1.515942,135.25,5.3,3,187.65,20 / 20,467329,2019-09-06 18:23:54:011,0.956,0.3638,9.7434,0.0157,0.018,9.8065,0.0208,-0.0853,-0.008,-11.19,-32.44,-0.75,242.64,-80.18,-176.16
4590,52.37895,-1.515942,135.25,5.3,3,187.65,20 / 20,467428,2019-09-06 18:23:54:110,0.2563,0.9077,10.0571,0.0097,0.011,9.8065,0.074,-0.0848,0.0424,-11.19,-32.94,0.0,245.36,-80.03,-176.41
4591,52.37895,-1.515942,135.25,5.3,3,187.65,20 / 20,467529,2019-09-06 18:23:54:211,0.6911,-0.5683,10.1211,0.0094,0.0042,9.8065,0.0921,-0.0799,-0.0107,-10.81,-33.06,-0.12,244.82,-79.74,-176.2
4592,52.37895,-1.515942,135.25,5.3,3,187.65,20 / 20,467628,2019-09-06 18:23:54:310,0.1876,0.7013,9.8657,0.0042,0.0105,9.8066,-0.0363,-0.0501,0.0021,-11.5,-32.75,0.0,243.46,-79.59,-177.49
4593,52.37895,-1.515942,135.25,5.3,3,187.65,20 / 20,467728,2019-09-06 18:23:54:410,0.5785,-0.3358,10.0096,0.0276,0.0128,9.8065,-0.0137,-0.0746,0.0124,-10.69,-32.87,0.25,243.35,-79.48,-177.29
4594,52.37895,-1.515942,135.25,5.3,3,187.65,20 / 20,467829,2019-09-06 18:23:54:511,0.7494,-0.258,9.2918,-0.0117,-0.0004,9.8066,-0.0415,0.0788,0.025,-10.81,-32.44,-0.37,244.12,-79.44,-177.18
4595,52.37895,-1.515942,135.25,5.3,3,187.65,20 / 20,467928,2019-09-06 18:23:54:610,0.6904,-0.2848,9.6344,0.0082,-0.0075,9.8066,-0.0046,-0.0145,0.0968,-10.5,-32.19,-0.56,237.87,-79.59,-177.31
4596,52.37895,-1.515942,135.25,5.3,3,187.65,20 / 20,468029,2019-09-06 18:23:54:711,-0.6052,-0.0738,10.3217,0.0004,-0.0003,9.8066,-0.0026,0.0079,-0.0368,-12.0,-32.06,-1.0,244.01,-79.6,-175.69
4597,52.37895,-1.515942,135.25,5.3,3,187.65,20 / 20,468128,2019-09-06 18:23:54:810,-0.3929,-0.0145,10.69,0.0071,0.0003,9.8066,0.0916,0.0206,0.0923,-11.06,-31.87,-1.0,241.66,-79.58,-175.69
4598,52.37895,-1.515942,135.25,5.3,3,187.65,20 / 20,468229,2019-09-06 18:23:54:911,-0.4052,0.5691,9.822,0.0222,-0.0006,9.8066,-0.021,-0.0926,-0.0107,-11.75,-32.56,0.0,247.04,-79.3,-174.82
4599,52.37895,-1.515942,135.25,5.3,3,187.65,20 / 20,468328,2019-09-06 18:23:55:010,0.7978,-0.6252,9.36,0.0004,0.0036,9.8065,-0.0626,-0.0024,-0.0085,-11.94,-32.12,-0.5,247.67,-79.15,-174.56
4600,52.37895,-1.515942,135.25,5.3,3,187.65,20 / 20,468429,2019-09-06 18:23:55:111,-0.0499,-0.1748,9.7789,0.002,-0.0071,9.8066,-0.0934,0.0148,0.0245,-11.44,-32.5,-0.56,241.85,-79.27,-174.54
4601,52.37895,-1.515942,135.25,5.3,3,187.65,20 / 20,468529,2019-09-06 18:23:55:211,-0.6662,-0.6245,9.4132,-0.0234,-0.0047,9.8066,-0.1595,-0.0344,-0.0279,-11.44,-32.12,-1.31,242.73,-79.59,-174.34
4602,52.37895,-1.515942,135.25,5.3,3,187.65,20 / 20,468629,2019-09-06 18:23:55:311,0.0081,-0.2791,10.117,-0.0093,-0.0022,9.8066,0.011,0.0295,-0.0697,-11.56,-32.5,-1.31,245.63,-79.88,-174.44
4603,52.37895,-1.515942,135.25,5.3,3,187.65,20 / 20,468729,2019-09-06 18:23:55:411,-0.9212,0.0608,9.4015,0.0161,0.0192,9.8065,-0.0782,-0.0121,0.0533,-11.0,-32.94,-1.19,241.9,-79.75,-174.93
4604,52.37895,-1.515942,135.25,5.3,3,187.65,20 / 20,468830,2019-09-06 18:23:55:512,0.401,-0.63,9.7288,-0.0041,-0.017,9.8065,0.0981,0.0004,0.055,-11.31,-32.44,-1.25,243.39,-79.66,-173.71
4605,52.37895,-1.515942,135.25,5.3,3,187.65,20 / 20,468929,2019-09-06 18:23:55:611,1.2814,1.47,9.2061,-0.0152,-0.0156,9.8066,-0.1229,-0.0605,0.0052,-11.81,-32.31,-0.87,245.76,-79.56,-173.41
4606,52.37895,-1.515942,135.25,5.3,3,187.65,20 / 20,469029,2019-09-06 18:23:55:711,0.4589,-0.5579,9.7393,0.0008,-0.0156,9.8066,-0.1152,-0.0127,-0.0304,-11.44,-32.44,-0.37,247.66,-79.62,-173.21
4607,52.37895,-1.515942,135.25,5.3,3,187.65,20 / 20,469129,2019-09-06 18:23:55:811,0.3099,0.7368,9.9689,-0.0332,-0.007,9.8065,0.0429,-0.0373,0.0731,-11.81,-32.69,-1.06,246.24,-79.92,-172.91
4608,52.37895,-1.515942,135.25,5.3,3,187.65,20 / 20,469229,2019-09-06 18:23:55:911,-0.1346,-0.1359,9.3615,0.0209,0.0043,9.8065,-0.0837,-0.0484,-0.0194,-11.19,-31.87,-0.87,245.11,-79.84,-172.03
4609,52.37895,-1.515942,135.25,5.3,3,187.65,20 / 20,469329,2019-09-06 18:23:56:011,0.5929,-0.6576,9.6785,0.0254,0.0245,9.8065,-0.0518,-0.0292,-0.0336,-11.06,-32.25,-1.69,241.24,-79.79,-172.09
4610,52.379124,-1.516315,134.61,9.16,3,356.68,21 / 21,469429,2019-09-06 18:23:56:111,-0.0815,0.4267,10.0867,0.0026,-0.0003,9.8066,-0.1096,-0.0295,-0.0175,-10.94,-32.12,-1.12,244.72,-79.9,-172.72
4611,52.379124,-1.516315,134.61,9.16,3,356.68,21 / 21,469529,2019-09-06 18:23:56:211,0.4558,0.3731,9.4529,0.0048,0.0057,9.8066,-0.0335,0.0243,-0.0189,-11.37,-32.19,-1.37,244.9,-80.01,-172.78
4612,52.379124,-1.516315,134.61,9.16,3,356.68,21 / 21,469629,2019-09-06 18:23:56:311,0.3049,-0.8097,9.7307,-0.0105,-0.0074,9.8066,-0.0785,0.0181,-0.0478,-11.19,-31.87,-1.37,245.12,-80.09,-172.76
4613,52.379124,-1.516315,134.61,9.16,3,356.68,21 / 21,469729,2019-09-06 18:23:56:411,-0.2849,-0.8135,9.9706,-0.0134,0.0076,9.8066,-0.0533,-0.0069,-0.0302,-11.19,-32.06,-2.31,241.16,-80.29,-173.58
4614,52.379124,-1.516315,134.61,9.16,3,356.68,21 / 21,469828,2019-09-06 18:23:56:510,-0.7521,-0.277,9.2178,-0.0138,0.0019,9.8066,0.0087,0.0188,-0.0835,-10.94,-32.31,-2.0,240.14,-80.39,-175.14
4615,52.379124,-1.516315,134.61,9.16,3,356.68,21 / 21,469928,2019-09-06 18:23:56:610,0.4281,-0.1539,9.4545,-0.0119,0.0053,9.8066,-0.0176,-0.0163,-0.0082,-11.12,-32.44,-2.06,239.56,-80.39,-175.89
4616,52.379124,-1.516315,134.61,9.16,3,356.68,21 / 21,470029,2019-09-06 18:23:56:711,0.6664,-0.6152,10.4201,-0.0121,-0.0039,9.8066,-0.0523,0.0198,0.0119,-10.75,-31.62,-1.69,239.47,-80.64,-176.67
4617,52.379124,-1.516315,134.61,9.16,3,356.68,21 / 21,470128,2019-09-06 18:23:56:810,-0.8371,0.7202,9.5669,-0.0299,-0.0086,9.8066,-0.0278,0.0615,-0.0778,-11.12,-32.87,-2.62,235.47,-80.92,-177.31
4618,52.379124,-1.516315,134.61,9.16,3,356.68,21 / 21,470228,2019-09-06 18:23:56:910,-0.4071,-0.9166,9.8443,-0.0008,-0.0094,9.8066,-0.0238,0.0659,-0.0095,-10.56,-31.87,-2.69,236.07,-81.04,-177.54
4619,52.379124,-1.516315,134.61,9.16,3,356.68,21 / 21,470331,2019-09-06 18:23:57:013,0.0406,0.3596,9.4916,-0.0033,-0.0264,9.8065,-0.0166,0.0161,0.0474,-11.62,-31.62,-2.5,242.44,-81.01,-176.8
4620,52.379124,-1.516315,134.61,9.16,3,356.68,20 / 20,470429,2019-09-06 18:23:57:111,0.1213,-0.8436,9.6007,-0.0043,-0.0345,9.8065,-0.0708,-0.0113,0.0351,-11.31,-31.81,-2.56,237.94,-80.99,-175.06
4621,52.379124,-1.516315,134.61,9.16,3,356.68,20 / 20,470529,2019-09-06 18:23:57:211,-0.206,-0.5984,9.6473,-0.0139,-0.018,9.8066,-0.0449,0.0153,0.0191,-11.31,-31.5,-2.62,240.68,-81.29,-173.11
4622,52.379124,-1.516315,134.61,9.16,3,356.68,20 / 20,470629,2019-09-06 18:23:57:311,-0.3299,-0.8708,9.831,-0.0111,-0.0185,9.8065,-0.0127,-0.0516,0.0438,-10.94,-31.5,-3.12,242.4,-81.51,-171.56
4623,52.379124,-1.516315,134.61,9.16,3,356.68,20 / 20,470729,2019-09-06 18:23:57:411,-0.4762,-0.3852,9.6496,-0.0068,-0.0102,9.8066,0.0041,-0.0194,-0.0076,-11.19,-31.56,-2.94,242.48,-81.57,-170.93
4624,52.379124,-1.516315,134.61,9.16,3,356.68,20 / 20,470828,2019-09-06 18:23:57:510,-0.6243,-0.3886,9.4848,-0.0055,-0.0089,9.8066,-0.0227,0.0125,-0.0013,-11.31,-31.37,-2.75,243.85,-81.62,-170.12
4625,52.379124,-1.516315,134.61,9.16,3,356.68,20 / 20,470929,2019-09-06 18:23:57:611,-0.5737,-0.8531,10.1134,-0.0031,-0.0016,9.8066,-0.0109,-0.0239,0.0064,-11.31,-31.87,-2.94,243.02,-81.59,-170.33
4626,52.379124,-1.516315,134.61,9.16,3,356.68,20 / 20,471029,2019-09-06 18:23:57:711,-0.7151,-0.4613,9.7915,-0.0027,-0.0011,9.8066,0.0146,0.0181,-0.0479,-11.31,-32.37,-3.25,242.9,-81.51,-170.26
4627,52.379124,-1.516315,134.61,9.16,3,356.68,20 / 20,471128,2019-09-06 18:23:57:810,-1.2349,-1.075,9.7408,-0.0071,-0.0032,9.8066,0.05,-0.0268,0.0519,-11.12,-31.5,-2.94,243.18,-81.52,-170.65
4628,52.379124,-1.516315,134.61,9.16,3,356.68,20 / 20,471229,2019-09-06 18:23:57:911,-0.8375,-0.2372,9.9361,0.0034,0.0038,9.8066,-0.0221,0.0165,-0.0497,-11.62,-32.06,-3.5,245.0,-81.28,-170.2
4629,52.379124,-1.516315,134.61,9.16,3,356.68,20 / 20,471329,2019-09-06 18:23:58:011,-0.8644,-0.5312,9.2092,-0.0029,0.0024,9.8066,0.0198,-0.0294,0.0375,-11.31,-32.06,-3.06,241.99,-81.23,-170.62
4630,52.379124,-1.516315,134.61,9.16,3,356.68,21 / 21,471428,2019-09-06 18:23:58:110,-0.782,-0.9246,9.2376,-0.016,-0.0134,9.8066,-0.0164,0.0138,-0.009,-12.25,-32.0,-3.37,245.44,-81.29,-169.7
4631,52.379124,-1.516315,134.61,9.16,3,356.68,21 / 21,471529,2019-09-06 18:23:58:211,-1.2859,-2.842,8.9349,-0.0036,-0.003,9.8066,0.101,0.0946,-0.1045,-11.37,-31.56,-2.87,243.02,-81.37,-169.72
4632,52.379124,-1.516315,134.61,9.16,3,356.68,21 / 21,471628,2019-09-06 18:23:58:310,-2.3479,-1.2091,9.5342,-0.0818,-0.0439,9.8061,0.1556,-0.0752,0.0577,-11.87,-31.75,-3.25,245.71,-81.33,-169.47
4633,52.379124,-1.516315,134.61,9.16,3,356.68,21 / 21,471729,2019-09-06 18:23:58:411,-1.3869,-0.7762,10.4639,-0.0391,-0.0288,9.8064,0.1312,-0.02,0.0294,-11.19,-32.25,-3.44,244.18,-81.8,-169.5
4634,52.379124,-1.516315,134.61,9.16,3,356.68,21 / 21,471828,2019-09-06 18:23:58:510,-0.4529,-0.1114,10.4691,-0.008,-0.0031,9.8065,0.2393,0.0044,-0.0248,-11.69,-32.12,-3.19,246.37,-81.61,-169.39
4635,52.379124,-1.516315,134.61,9.16,3,356.68,21 / 21,471928,2019-09-06 18:23:58:610,-1.4009,-0.3739,10.4973,-0.0257,-0.0242,9.8065,0.1624,0.0217,-0.042,-11.5,-31.75,-2.94,243.75,-81.57,-169.39
4636,52.379124,-1.516315,134.61,9.16,3,356.68,21 / 21,472029,2019-09-06 18:23:58:711,-0.2305,-0.931,10.105,0.0405,0.0241,9.8064,-0.0423,0.0245,-0.0073,-11.37,-31.69,-3.12,242.97,-81.26,-169.51
4637,52.379124,-1.516315,134.61,9.16,3,356.68,21 / 21,472128,2019-09-06 18:23:58:810,-1.1018,-1.01,9.9785,0.0111,0.0121,9.8066,-0.0511,0.0078,-0.0136,-11.06,-32.0,-3.44,242.96,-81.33,-169.71
4638,52.379124,-1.516315,134.61,9.16,3,356.68,21 / 21,472228,2019-09-06 18:23:58:910,-1.1794,-1.0004,9.7269,-0.012,0.002,9.8066,0.0131,0.0112,-0.0452,-11.62,-32.19,-3.25,245.53,-81.38,-169.81
4639,52.379124,-1.516315,134.61,9.16,3,356.68,21 / 21,472329,2019-09-06 18:23:59:011,-1.2896,-0.5073,9.6714,-0.0001,-0.0013,9.8066,0.041,0.0319,0.0049,-11.44,-31.94,-2.94,242.51,-81.44,-170.54
4640,52.379124,-1.516315,134.61,9.16,3,356.68,21 / 22,472430,2019-09-06 18:23:59:112,-0.6474,-0.6442,9.4872,0.0003,0.0084,9.8066,0.0155,0.0489,-0.0457,-11.19,-31.69,-3.81,238.85,-81.34,-170.65
4641,52.379124,-1.516315,134.61,9.16,3,356.68,21 / 22,472529,2019-09-06 18:23:59:211,-1.7066,-0.5675,9.5918,-0.0105,-0.0008,9.8066,0.0141,0.0657,-0.013,-10.31,-31.94,-2.81,238.82,-81.4,-171.47
4642,52.379124,-1.516315,134.61,9.16,3,356.68,21 / 22,472629,2019-09-06 18:23:59:311,-1.0008,-0.1241,9.8065,-0.0033,0.0033,9.8065,-0.0542,0.0035,-0.0298,-11.44,-32.44,-2.81,241.72,-81.49,-171.63
4643,52.379124,-1.516315,134.61,9.16,3,356.68,21 / 22,472728,2019-09-06 18:23:59:410,-2.0803,-0.4164,10.0862,-0.0097,0.0017,9.8066,-0.0327,0.0878,-0.0359,-10.19,-31.69,-3.0,238.93,-81.68,-172.13
4644,52.379124,-1.516315,134.61,9.16,3,356.68,21 / 22,472828,2019-09-06 18:23:59:510,-1.7966,-0.5123,9.9055,-0.0113,0.0106,9.8065,-0.0109,0.0849,-0.0621,-10.75,-32.37,-2.56,241.15,-81.78,-173.1
4645,52.379124,-1.516315,134.61,9.16,3,356.68,21 / 22,472929,2019-09-06 18:23:59:611,-2.6701,0.2447,10.0211,-0.0032,0.0156,9.8066,0.0729,0.0825,-0.0319,-10.06,-31.81,-3.44,237.28,-81.76,-174.43
4646,52.379124,-1.516315,134.61,9.16,3,356.68,21 / 22,473028,2019-09-06 18:23:59:710,-2.0991,-0.4007,9.9793,-0.0182,-0.0002,9.8066,0.1024,0.0638,-0.0005,-9.94,-32.31,-2.62,236.46,-81.69,-175.3
4647,52.379124,-1.516315,134.61,9.16,3,356.68,21 / 22,473129,2019-09-06 18:23:59:811,-2.644,0.3752,9.8414,0.0039,0.0005,9.8066,0.0354,0.157,-0.0358,-9.31,-32.75,-2.75,232.25,-81.49,-175.42
4648,52.379124,-1.516315,134.61,9.16,3,356.68,21 / 22,473228,2019-09-06 18:23:59:910,-3.1296,0.353,10.3068,0.0112,-0.0012,9.8066,0.0585,0.1805,-0.0053,-9.12,-32.19,-2.75,232.84,-81.34,-174.97
4649,52.379124,-1.516315,134.61,9.16,3,356.68,21 / 22,473329,2019-09-06 18:24:00:011,-2.8403,0.8388,10.1038,0.0144,0.0069,9.8066,-0.0139,0.1784,0.0074,-9.0,-33.25,-2.25,236.16,-81.15,-174.18
4650,52.379124,-1.516315,134.61,9.16,3,356.68,20 / 20,473428,2019-09-06 18:24:00:110,-3.727,1.5958,10.0387,-0.001,-0.0062,9.8066,0.101,0.292,-0.0893,-9.0,-33.06,-2.19,236.85,-81.09,-173.03
4651,52.379124,-1.516315,134.61,9.16,3,356.68,20 / 20,473529,2019-09-06 18:24:00:211,-2.2848,2.1681,9.158,-0.0041,0.0056,9.8066,-0.0529,0.3018,-0.0231,-8.12,-33.44,-1.37,236.98,-80.99,-173.41
4652,52.379124,-1.516315,134.61,9.16,3,356.68,20 / 20,473628,2019-09-06 18:24:00:310,-2.9528,0.7406,9.6774,0.0209,-0.0177,9.8066,-0.0983,0.2728,-0.0021,-8.12,-32.81,-1.75,233.78,-80.9,-171.54
4653,52.379124,-1.516315,134.61,9.16,3,356.68,20 / 20,473728,2019-09-06 18:24:00:410,-2.9961,1.9764,10.0127,-0.0022,-0.0144,9.8066,0.0123,0.3559,-0.0631,-7.69,-32.12,-1.31,239.98,-81.03,-170.46
4654,52.379124,-1.516315,134.61,9.16,3,356.68,20 / 20,473829,2019-09-06 18:24:00:511,-3.487,0.9428,10.1744,0.013,-0.0063,9.8066,-0.0363,0.3101,0.0019,-6.81,-32.19,-1.25,236.2,-81.12,-170.16
4655,52.379124,-1.516315,134.61,9.16,3,356.68,20 / 20,473928,2019-09-06 18:24:00:610,-2.5554,0.7818,9.9924,0.0202,-0.0054,9.8065,0.0298,0.2793,0.0041,-6.37,-32.25,-1.62,227.63,-81.01,-168.25
4656,52.379124,-1.516315,134.61,9.16,3,356.68,20 / 20,474028,2019-09-06 18:24:00:710,-2.8242,0.5307,9.5979,0.0189,-0.0007,9.8066,0.063,0.3489,-0.0112,-5.44,-31.44,-2.12,222.51,-80.76,-167.11
4657,52.379124,-1.516315,134.61,9.16,3,356.68,20 / 20,474128,2019-09-06 18:24:00:810,-2.3992,0.6692,9.8565,0.0182,0.0067,9.8065,0.0499,0.3221,0.0368,-5.87,-31.87,-1.31,231.27,-80.49,-166.54
4658,52.379124,-1.516315,134.61,9.16,3,356.68,20 / 20,474229,2019-09-06 18:24:00:911,-3.093,-0.4537,10.0691,0.0125,-0.0111,9.8065,0.0274,0.2717,-0.0483,-4.25,-32.31,-1.06,217.9,-80.37,-165.16
4659,52.379124,-1.516315,134.61,9.16,3,356.68,20 / 20,474329,2019-09-06 18:24:01:011,-1.94,0.3726,10.0563,-0.0034,-0.0172,9.8066,0.0235,0.2199,0.0448,-4.81,-32.44,-0.56,225.32,-80.31,-164.6
4660,52.379124,-1.516315,134.61,9.16,3,356.68,20 / 20,474429,2019-09-06 18:24:01:111,-1.0705,0.7747,9.7204,0.0281,0.0219,9.8065,-0.062,0.3039,-0.0565,-4.56,-32.69,0.0,227.88,-80.03,-163.83
4661,52.379124,-1.516315,134.61,9.16,3,356.68,20 / 20,474528,2019-09-06 18:24:01:210,-2.1717,0.3787,9.4065,0.0211,0.0048,9.8065,0.0479,0.2369,0.0048,-4.69,-32.12,0.5,235.2,-80.09,-162.89
4662,52.379124,-1.516315,134.61,9.16,3,356.68,20 / 20,474628,2019-09-06 18:24:01:310,-2.3016,-0.406,9.4966,-0.0105,-0.0118,9.8066,-0.0778,0.1763,0.0133,-4.19,-32.62,0.31,220.96,-80.25,-162.32
4663,52.379124,-1.516315,134.61,9.16,3,356.68,20 / 20,474730,2019-09-06 18:24:01:412,-1.9604,0.1556,9.6732,0.0054,-0.005,9.8066,0.1305,0.2245,-0.0007,-3.0,-32.06,0.75,215.66,-80.29,-161.79
4664,52.379124,-1.516315,134.61,9.16,3,356.68,20 / 20,474828,2019-09-06 18:24:01:510,-1.3075,0.5767,9.7292,-0.0013,-0.0236,9.8065,0.1046,0.1717,0.0072,-3.62,-32.25,1.25,227.51,-80.33,-161.19
4665,52.379124,-1.516315,134.61,9.16,3,356.68,20 / 20,474928,2019-09-06 18:24:01:610,-1.5255,0.0173,9.7075,0.0041,-0.0289,9.8066,0.0246,0.1456,-0.0323,-2.87,-32.87,1.25,214.78,-80.4,-159.75
4666,52.379124,-1.516315,134.61,9.16,3,356.68,20 / 20,475028,2019-09-06 18:24:01:710,-1.6677,-0.3831,10.0467,0.0019,0.0004,9.8066,0.0298,0.096,0.0152,-2.75,-32.31,1.0,216.2,-80.43,-158.98
4667,52.379124,-1.516315,134.61,9.16,3,356.68,20 / 20,475129,2019-09-06 18:24:01:811,-0.7138,0.1976,10.3428,0.0044,-0.0084,9.8066,0.0977,0.0991,0.0374,-2.87,-32.81,1.44,215.1,-80.49,-158.4
4668,52.379124,-1.516315,134.61,9.16,3,356.68,20 / 20,475229,2019-09-06 18:24:01:911,-0.9735,0.426,9.9751,0.0032,0.0157,9.8066,0.0012,0.1004,-0.0224,-2.69,-32.44,1.25,215.89,-80.37,-158.3
4669,52.379124,-1.516315,134.61,9.16,3,356.68,20 / 20,475329,2019-09-06 18:24:02:011,-0.5021,0.1241,10.0553,0.0041,0.0242,9.8065,-0.0145,0.0512,0.0232,-2.69,-32.75,1.94,217.77,-80.27,-158.65
4670,52.379124,-1.516315,134.61,9.16,3,356.68,21 / 21,475429,2019-09-06 18:24:02:111,-0.3307,-0.6496,9.7713,-0.0096,-0.0225,9.8066,0.0464,0.0436,-0.016,-2.75,-32.25,1.88,218.73,-80.13,-158.5
4671,52.379124,-1.516315,134.61,9.16,3,356.68,21 / 21,475531,2019-09-06 18:24:02:213,-0.674,0.221,9.947,-0.0144,-0.0201,9.8065,0.031,0.0838,-0.0082,-2.5,-33.5,2.75,200.73,-80.35,-158.82
4672,52.379124,-1.516315,134.61,9.16,3,356.68,21 / 21,475629,2019-09-06 18:24:02:311,-0.2211,-0.5791,9.8706,-0.0015,0.0077,9.8066,-0.0355,0.0267,0.008,-1.81,-31.87,2.13,202.24,-80.33,-159.15
4673,52.379124,-1.516315,134.61,9.16,3,356.68,21 / 21,475730,2019-09-06 18:24:02:412,-0.0602,-1.0684,10.187,-0.0072,-0.0041,9.8066,0.04,-0.0095,-0.0066,-2.31,-32.5,2.5,203.87,-80.49,-159.23
4674,52.379124,-1.516315,134.61,9.16,3,356.68,21 / 21,475829,2019-09-06 18:24:02:511,-0.4411,1.5858,9.9082,-0.0074,0.0332,9.8065,-0.0645,-0.0013,-0.0151,-1.81,-32.56,1.69,201.92,-80.39,-160.12
4675,52.379124,-1.516315,134.61,9.16,3,356.68,21 / 21,475929,2019-09-06 18:24:02:611,0.0258,-1.4899,9.7366,-0.0049,0.0284,9.8065,-0.0343,-0.0154,-0.0161,-1.56,-32.31,2.88,205.39,-80.41,-160.68
4676,52.379124,-1.516315,134.61,9.16,3,356.68,21 / 21,476029,2019-09-06 18:24:02:711,-0.8009,-0.5746,9.977,-0.0083,-0.0172,9.8066,0.0903,0.0539,0.0037,-1.87,-32.75,2.63,205.18,-80.49,-161.61
4677,52.379124,-1.516315,134.61,9.16,3,356.68,21 / 21,476128,2019-09-06 18:24:02:810,-0.7682,-0.0323,9.9076,-0.0052,-0.017,9.8066,0.0504,0.0296,-0.0205,-1.87,-31.94,2.25,205.17,-80.64,-161.75
4678,52.379124,-1.516315,134.61,9.16,3,356.68,21 / 21,476229,2019-09-06 18:24:02:911,-0.1195,-0.6015,9.8259,-0.0135,0.0013,9.8066,0.0005,0.0032,0.0203,-2.06,-32.81,2.56,208.04,-80.71,-162.75
4679,52.379124,-1.516315,134.61,9.16,3,356.68,21 / 21,476329,2019-09-06 18:24:03:011,-0.5252,-0.4787,9.5544,0.0008,0.0056,9.8066,-0.0205,0.0287,-0.033,-1.62,-32.12,1.69,206.26,-80.74,-162.94
4680,52.379124,-1.516315,134.61,9.16,3,356.68,20 / 20,476429,2019-09-06 18:24:03:111,0.2614,-0.4713,10.217,-0.0133,-0.0254,9.8065,0.06,-0.0141,0.0431,-1.25,-33.06,1.94,187.33,-80.87,-163.59
4681,52.379124,-1.516315,134.61,9.16,3,356.68,20 / 20,476529,2019-09-06 18:24:03:211,-0.7246,-0.0453,10.0273,-0.0012,-0.0311,9.8066,-0.0454,0.0107,-0.0102,-1.87,-32.37,2.19,207.44,-80.9,-163.59
4682,52.379124,-1.516315,134.61,9.16,3,356.68,20 / 20,476628,2019-09-06 18:24:03:310,-0.5286,-0.9731,10.0801,-0.0062,0.011,9.8066,-0.005,0.0093,-0.0117,-1.75,-32.87,2.13,206.45,-80.92,-164.13
4683,52.379124,-1.516315,134.61,9.16,3,356.68,20 / 20,476728,2019-09-06 18:24:03:410,-0.7256,-0.3344,9.8693,-0.0068,0.0045,9.8066,0.0364,0.0142,-0.0087,-1.37,-32.25,1.44,190.38,-80.88,-165.02
4684,52.379124,-1.516315,134.61,9.16,3,356.68,20 / 20,476828,2019-09-06 18:24:03:510,-0.4463,-0.2341,9.4725,-0.007,0.0071,9.8066,-0.0651,0.0613,-0.0423,-1.81,-32.69,2.44,207.0,-80.82,-166.2
4685,52.379124,-1.516315,134.61,9.16,3,356.68,20 / 20,476929,2019-09-06 18:24:03:611,-0.5857,-1.4484,9.376,-0.0067,0.0164,9.8065,0.0876,0.0596,-0.0127,-1.31,-32.87,2.13,189.6,-80.81,-167.1
4686,52.379124,-1.516315,134.61,9.16,3,356.68,20 / 20,477029,2019-09-06 18:24:03:711,-0.7643,-1.2695,9.5696,-0.0127,-0.0378,9.8065,0.0224,0.0787,-0.0422,-0.87,-33.12,2.81,190.68,-81.16,-168.3
4687,52.379124,-1.516315,134.61,9.16,3,356.68,20 / 20,477130,2019-09-06 18:24:03:812,-1.4576,-0.6993,9.887,-0.0135,-0.0178,9.8066,-0.0105,0.0935,-0.0898,-0.94,-32.37,2.25,192.69,-81.27,-169.42
4688,52.379124,-1.516315,134.61,9.16,3,356.68,20 / 20,477229,2019-09-06 18:24:03:911,-1.3764,-0.4935,10.0016,-0.0182,0.0017,9.8066,0.0224,0.0988,-0.0261,-0.56,-32.19,2.75,196.64,-81.39,-170.84
4689,52.379124,-1.516315,134.61,9.16,3,356.68,20 / 20,477329,2019-09-06 18:24:04:011,-1.7,-0.8449,9.6392,-0.0164,0.005,9.8065,0.023,0.127,-0.0265,-0.56,-32.5,2.38,195.47,-81.44,-172.81
4690,52.379124,-1.516315,134.61,9.16,3,356.68,20 / 21,477428,2019-09-06 18:24:04:110,-1.9056,-0.7182,9.5435,-0.0094,-0.0072,9.8066,-0.0427,0.1361,-0.0713,0.25,-32.0,3.56,153.73,-81.42,-174.06
4691,52.379124,-1.516315,134.61,9.16,3,356.68,20 / 21,477528,2019-09-06 18:24:04:210,-1.3824,-0.9499,10.3473,-0.011,0.006,9.8066,-0.014,0.1407,-0.0034,0.25,-32.25,3.0,171.62,-81.39,-174.82
4692,52.379124,-1.516315,134.61,9.16,3,356.68,20 / 21,477629,2019-09-06 18:24:04:311,-1.3475,-1.3264,9.6279,-0.0076,0.0104,9.8066,-0.0172,0.1462,-0.0274,0.0,-31.87,4.19,158.55,-81.32,-174.98
4693,52.379124,-1.516315,134.61,9.16,3,356.68,20 / 21,477728,2019-09-06 18:24:04:410,-1.0262,-0.7549,9.3464,-0.0143,0.0155,9.8066,-0.0338,0.1919,-0.0363,-0.12,-32.37,4.31,158.57,-81.34,-175.06
4694,52.379124,-1.516315,134.61,9.16,3,356.68,20 / 21,477829,2019-09-06 18:24:04:511,-1.2631,-1.1699,9.0832,-0.0013,-0.0113,9.8066,-0.0704,0.2018,-0.0217,1.13,-31.44,4.19,122.62,-81.3,-176.09
4695,52.379124,-1.516315,134.61,9.16,3,356.68,20 / 21,477928,2019-09-06 18:24:04:610,-0.3275,-2.2271,10.1114,0.0213,-0.0106,9.8065,-0.0492,0.2235,-0.0413,1.63,-32.25,4.31,110.28,-81.62,-176.93
4696,52.379124,-1.516315,134.61,9.16,3,356.68,20 / 21,478029,2019-09-06 18:24:04:711,-0.4532,-2.0995,10.6269,-0.0026,0.0033,9.8066,0.0308,0.2514,-0.0009,1.38,-31.62,3.63,113.7,-82.04,-177.06
4697,52.379124,-1.516315,134.61,9.16,3,356.68,20 / 21,478129,2019-09-06 18:24:04:811,-0.9393,-2.0133,10.2023,0.0015,0.0035,9.8066,0.1223,0.237,-0.0458,1.31,-31.37,4.25,104.53,-82.18,-176.7
4698,52.379124,-1.516315,134.61,9.16,3,356.68,20 / 21,478229,2019-09-06 18:24:04:911,-0.1437,-2.1726,10.0724,-0.0217,-0.0056,9.8066,0.0158,0.2667,-0.0502,1.69,-31.87,4.88,80.54,-81.99,-176.91
4699,52.379124,-1.516315,134.61,9.16,3,356.68,20 / 21,478331,2019-09-06 18:24:05:013,1.0513,-2.6023,9.9972,-0.0048,-0.0064,9.8066,0.0304,0.2075,-0.014,1.81,-31.75,5.56,60.54,-81.85,-177.17
4700,52.37976,-1.516684,133.43,8.77,3,307.92,20 / 20,478428,2019-09-06 18:24:05:110,2.7938,-2.2757,10.0736,0.0184,-0.0061,9.8065,0.1086,0.3389,-0.0712,3.06,-32.06,5.75,69.72,-81.78,-177.26
4701,52.37976,-1.516684,133.43,8.77,3,307.92,20 / 20,478528,2019-09-06 18:24:05:210,0.1966,-1.4307,10.5683,0.0096,-0.0313,9.8065,-0.0426,0.3238,-0.1334,3.0,-31.56,7.13,52.98,-81.85,-179.11
4702,52.37976,-1.516684,133.43,8.77,3,307.92,20 / 20,478629,2019-09-06 18:24:05:311,2.4303,-3.338,8.6845,-0.0049,-0.0408,9.8065,-0.0359,0.1692,0.0001,3.56,-31.62,7.31,55.52,-81.88,177.76
4703,52.37976,-1.516684,133.43,8.77,3,307.92,20 / 20,478729,2019-09-06 18:24:05:411,0.933,-2.5319,9.1571,0.0187,-0.0015,9.8065,-0.1467,0.2942,-0.0641,4.0,-31.19,7.69,43.85,-81.99,177.36
4704,52.37976,-1.516684,133.43,8.77,3,307.92,20 / 20,478828,2019-09-06 18:24:05:510,-0.5515,-1.9865,9.0649,-0.0045,-0.022,9.8066,-0.1398,0.2649,-0.0305,4.56,-31.12,7.94,47.21,-82.09,175.44
4705,52.37976,-1.516684,133.43,8.77,3,307.92,20 / 20,478929,2019-09-06 18:24:05:611,2.0888,-1.6325,9.1902,0.0468,-0.0016,9.8065,-0.0332,0.2641,0.0101,5.13,-30.62,7.69,41.64,-82.47,172.69
4706,52.37976,-1.516684,133.43,8.77,3,307.92,20 / 20,479028,2019-09-06 18:24:05:710,1.9192,-1.3039,9.8931,-0.0054,0.0037,9.8066,0.1189,0.2579,-0.0669,5.44,-30.31,8.19,41.18,-82.42,172.84
4707,52.37976,-1.516684,133.43,8.77,3,307.92,20 / 20,479129,2019-09-06 18:24:05:811,1.2682,-1.6428,9.6773,0.0066,0.0172,9.8066,0.0525,0.1732,-0.0197,5.19,-30.69,8.94,36.19,-82.36,173.17
4708,52.37976,-1.516684,133.43,8.77,3,307.92,20 / 20,479229,2019-09-06 18:24:05:911,0.7069,-1.6899,10.2602,-0.0388,-0.0194,9.8065,-0.0606,0.2575,0.0282,5.75,-30.44,9.13,43.13,-82.15,174.09
4709,52.37976,-1.516684,133.43,8.77,3,307.92,20 / 20,479328,2019-09-06 18:24:06:010,0.8535,-1.5387,9.8264,0.0036,-0.0005,9.8065,-0.3188,0.2343,0.0184,5.69,-30.94,9.75,39.85,-82.11,175.03
4710,52.37976,-1.516684,133.43,8.77,3,307.92,20 / 20,479430,2019-09-06 18:24:06:112,0.4385,-1.6966,10.4475,-0.0473,-0.0335,9.8065,-0.1345,0.0826,0.0074,5.69,-30.19,10.06,38.62,-82.41,175.12
4711,52.37976,-1.516684,133.43,8.77,3,307.92,20 / 20,479528,2019-09-06 18:24:06:210,1.5003,0.0263,10.2492,0.0851,0.0885,9.8059,-0.4464,0.2254,0.0314,5.56,-31.06,10.13,40.96,-82.45,176.47
4712,52.37976,-1.516684,133.43,8.77,3,307.92,20 / 20,479628,2019-09-06 18:24:06:310,1.9965,-1.026,10.0215,0.0123,0.0463,9.8065,0.083,0.1674,0.043,6.69,-30.75,10.63,39.86,-83.21,176.78
4713,52.37976,-1.516684,133.43,8.77,3,307.92,20 / 20,479728,2019-09-06 18:24:06:410,0.7677,-1.2504,10.2286,-0.0103,-0.0464,9.8064,0.3162,0.1985,-0.0652,5.56,-30.75,11.0,36.1,-83.01,177.05
4714,52.37976,-1.516684,133.43,8.77,3,307.92,20 / 20,479828,2019-09-06 18:24:06:510,1.3108,-0.1665,9.9265,0.026,0.0368,9.8065,-0.0904,0.2961,-0.0442,6.31,-30.75,11.19,34.91,-83.42,176.77
4715,52.37976,-1.516684,133.43,8.77,3,307.92,20 / 20,479929,2019-09-06 18:24:06:611,0.5547,-1.4274,10.2572,-0.0414,-0.0628,9.8063,0.2913,0.1794,-0.0254,5.69,-30.56,11.19,35.45,-83.14,176.75
4716,52.37976,-1.516684,133.43,8.77,3,307.92,20 / 20,480028,2019-09-06 18:24:06:710,-0.4002,-1.1994,9.6352,-0.0297,-0.0131,9.8065,0.2159,0.1139,-0.0758,5.94,-31.0,11.94,32.66,-82.62,176.65
4717,52.37976,-1.516684,133.43,8.77,3,307.92,20 / 20,480130,2019-09-06 18:24:06:812,0.9281,-0.1733,9.7471,0.0126,0.0188,9.8066,0.1226,0.0734,0.0013,5.5,-30.81,12.06,34.97,-82.08,177.6
4718,52.37976,-1.516684,133.43,8.77,3,307.92,20 / 20,480228,2019-09-06 18:24:06:910,0.1145,-0.3391,9.6404,0.0054,0.0199,9.8066,0.0411,0.0667,-0.0031,5.38,-30.56,12.44,30.62,-82.15,178.19
4719,52.37976,-1.516684,133.43,8.77,3,307.92,20 / 20,480329,2019-09-06 18:24:07:011,0.5735,0.2147,9.5847,-0.0008,-0.0008,9.8065,-0.029,0.0209,0.0337,5.81,-30.87,12.25,35.2,-82.26,178.01
4720,52.37976,-1.516684,133.43,8.77,3,307.92,20 / 20,480429,2019-09-06 18:24:07:111,0.202,0.3476,10.3415,-0.0326,-0.0248,9.8065,-0.0564,0.0057,-0.0387,5.81,-30.5,12.5,32.9,-82.15,178.92
4721,52.37976,-1.516684,133.43,8.77,3,307.92,20 / 20,480528,2019-09-06 18:24:07:210,1.2486,-0.9211,8.8545,0.0096,0.0014,9.8066,-0.083,-0.0295,0.0784,6.13,-30.81,12.5,32.59,-82.18,178.42
4722,52.37976,-1.516684,133.43,8.77,3,307.92,20 / 20,480630,2019-09-06 18:24:07:312,1.2834,0.9127,9.5784,0.0005,0.0009,9.8066,0.1402,0.0156,0.0355,6.25,-30.94,12.31,36.72,-82.04,178.83
4723,52.37976,-1.516684,133.43,8.77,3,307.92,20 / 20,480728,2019-09-06 18:24:07:410,-1.2544,-0.4417,10.1072,0.0309,0.026,9.8065,-0.0279,0.002,0.0033,6.75,-30.87,13.38,38.44,-81.96,179.31
4724,52.37976,-1.516684,133.43,8.77,3,307.92,20 / 20,480829,2019-09-06 18:24:07:511,-0.0349,0.2969,10.0402,0.0297,0.046,9.8064,0.1453,0.0193,-0.0452,6.31,-30.62,12.75,32.31,-82.45,178.54
4725,52.37976,-1.516684,133.43,8.77,3,307.92,20 / 20,480929,2019-09-06 18:24:07:611,-0.2517,-0.3297,10.0247,-0.0278,-0.034,9.8065,0.203,-0.0106,0.0667,6.69,-31.06,13.0,36.49,-82.23,178.19
4726,52.37976,-1.516684,133.43,8.77,3,307.92,20 / 20,481028,2019-09-06 18:24:07:710,0.7992,-0.4235,10.0078,-0.0031,-0.0232,9.8065,0.1635,0.0876,-0.1033,6.5,-30.44,13.19,35.77,-82.19,177.89
4727,52.37976,-1.516684,133.43,8.77,3,307.92,20 / 20,481129,2019-09-06 18:24:07:811,0.5674,-0.0213,9.7857,0.0161,0.0487,9.8064,-0.203,0.0114,0.0374,6.44,-31.0,13.06,31.05,-82.17,177.27
4728,52.37976,-1.516684,133.43,8.77,3,307.92,20 / 20,481229,2019-09-06 18:24:07:911,-0.238,0.8938,9.5819,0.016,0.0184,9.8065,0.2214,0.1373,-0.0288,5.88,-31.31,13.25,31.55,-82.18,177.64
4729,52.37976,-1.516684,133.43,8.77,3,307.92,20 / 20,481329,2019-09-06 18:24:08:011,-0.3109,0.2461,9.696,0.0431,0.0429,9.8064,-0.0756,-0.0552,-0.0535,6.25,-30.94,13.56,27.52,-81.96,176.52
4730,52.37976,-1.516684,133.43,8.77,3,307.92,20 / 20,481429,2019-09-06 18:24:08:111,0.0553,-0.0488,9.9728,-0.0019,-0.0027,9.8066,0.148,0.0261,-0.0343,6.38,-31.37,13.31,30.49,-81.96,176.61
4731,52.37976,-1.516684,133.43,8.77,3,307.92,20 / 20,481528,2019-09-06 18:24:08:210,-0.6369,0.7176,10.1663,-0.0132,-0.0356,9.8065,0.2354,-0.0868,-0.0005,5.75,-31.0,12.38,33.13,-82.23,176.46
4732,52.37976,-1.516684,133.43,8.77,3,307.92,20 / 20,481630,2019-09-06 18:24:08:312,0.2377,-0.587,9.86,0.0419,0.0578,9.8063,0.0577,-0.011,0.0035,6.19,-31.25,12.75,27.82,-82.75,175.52
4733,52.37976,-1.516684,133.43,8.77,3,307.92,20 / 20,481729,2019-09-06 18:24:08:411,1.0831,-1.0017,8.3536,-0.0261,-0.0384,9.8065,0.0854,0.1676,-0.023,5.31,-31.5,12.81,24.45,-82.22,176.04
4734,52.37976,-1.516684,133.43,8.77,3,307.92,20 / 20,481829,2019-09-06 18:24:08:511,0.6731,3.3787,10.6246,-0.0434,-0.0138,9.8065,0.2125,0.1131,-0.0028,4.56,-32.62,12.31,32.23,-81.93,178.37
4735,52.37976,-1.516684,133.43,8.77,3,307.92,20 / 20,481929,2019-09-06 18:24:08:611,-0.2283,3.4224,9.9876,0.0797,0.0835,9.8059,-0.1685,-0.1284,-0.0518,4.56,-32.19,13.75,26.54,-81.55,178.49
4736,52.37976,-1.516684,133.43,8.77,3,307.92,20 / 20,482028,2019-09-06 18:24:08:710,1.5539,1.2594,10.803,-0.0015,-0.0251,9.8066,0.2055,0.1421,-0.1276,4.94,-31.87,14.81,21.19,-82.05,176.76
4737,52.37976,-1.516684,133.43,8.77,3,307.92,20 / 20,482128,2019-09-06 18:24:08:810,-0.3885,-1.1643,9.8522,-0.0111,-0.0587,9.8065,0.2323,0.1555,-0.0604,4.69,-31.81,14.63,21.78,-81.74,176.93
4738,52.37976,-1.516684,133.43,8.77,3,307.92,20 / 20,482229,2019-09-06 18:24:08:911,-0.2569,-1.3141,10.2984,-0.0025,-0.005,9.8066,0.3539,0.056,-0.0263,5.38,-31.5,14.06,22.18,-81.87,175.92
4739,52.37976,-1.516684,133.43,8.77,3,307.92,20 / 20,482329,2019-09-06 18:24:09:011,0.0058,-0.2903,10.3191,-0.0235,-0.0492,9.8065,-0.2244,0.0069,0.0238,5.63,-31.94,13.31,30.56,-81.76,176.12
4740,52.37976,-1.516684,133.43,8.77,3,307.92,21 / 21,482428,2019-09-06 18:24:09:110,1.1679,0.5771,9.1086,-0.0315,-0.0401,9.8065,-0.1483,0.0568,0.0197,5.13,-31.44,13.25,25.71,-81.96,176.67
4741,52.37976,-1.516684,133.43,8.77,3,307.92,21 / 21,482529,2019-09-06 18:24:09:211,1.3543,2.0768,9.5293,0.0208,0.0671,9.8063,0.112,-0.0425,0.0065,4.75,-31.56,12.81,27.57,-82.37,178.19
4742,52.37976,-1.516684,133.43,8.77,3,307.92,21 / 21,482629,2019-09-06 18:24:09:311,0.4408,1.3935,9.0537,0.0146,0.0449,9.8064,-0.0119,0.0151,0.0171,4.94,-31.75,12.56,29.41,-82.22,179.35
4743,52.37976,-1.516684,133.43,8.77,3,307.92,21 / 21,482729,2019-09-06 18:24:09:411,0.0695,0.1082,10.3275,-0.0174,-0.0032,9.8066,0.1583,0.0093,0.0433,4.44,-32.06,12.69,26.06,-82.01,-179.54
4744,52.37976,-1.516684,133.43,8.77,3,307.92,21 / 21,482829,2019-09-06 18:24:09:511,0.2303,-0.2341,10.4114,-0.001,0.0215,9.8066,0.2166,0.0235,-0.0001,5.0,-32.0,13.38,32.8,-82.1,-178.37
4745,52.37976,-1.516684,133.43,8.77,3,307.92,21 / 21,482929,2019-09-06 18:24:09:611,0.0505,0.2643,10.1111,-0.0181,-0.0292,9.8065,-0.067,0.0071,0.0033,4.69,-32.12,13.38,33.49,-82.14,-177.81
4746,52.37976,-1.516684,133.43,8.77,3,307.92,21 / 21,483029,2019-09-06 18:24:09:711,0.4262,0.6413,10.4219,-0.0015,-0.0004,9.8066,0.0921,-0.0392,0.0489,4.81,-31.25,13.25,33.32,-82.15,-177.6
4747,52.37976,-1.516684,133.43,8.77,3,307.92,21 / 21,483128,2019-09-06 18:24:09:810,-0.0632,0.8807,10.028,-0.0077,-0.0512,9.8064,0.0221,0.1047,-0.0154,4.44,-31.94,12.75,28.67,-81.72,-178.06
4748,52.37976,-1.516684,133.43,8.77,3,307.92,21 / 21,483228,2019-09-06 18:24:09:910,-0.0912,0.5066,9.179,-0.0036,0.0192,9.8066,0.0974,0.0321,-0.0022,4.38,-32.06,13.31,29.84,-81.61,-177.39
4749,52.37976,-1.516684,133.43,8.77,3,307.92,21 / 21,483331,2019-09-06 18:24:10:013,0.5864,1.5076,9.6795,0.0109,-0.0277,9.8065,-0.1382,0.08,-0.134,4.44,-32.06,12.38,30.59,-81.32,-179.37
4750,52.37976,-1.516684,133.43,8.77,3,307.92,20 / 20,483429,2019-09-06 18:24:10:111,1.9032,0.5092,9.495,-0.024,-0.051,9.8064,-0.2547,-0.0376,0.0129,4.75,-31.44,12.06,33.63,-81.32,179.17
4751,52.37976,-1.516684,133.43,8.77,3,307.92,20 / 20,483528,2019-09-06 18:24:10:210,0.3803,2.0059,8.6659,0.0051,0.0026,9.8066,0.145,-0.0111,-0.0668,4.13,-32.06,12.81,24.29,-81.42,178.63
4752,52.37976,-1.516684,133.43,8.77,3,307.92,20 / 20,483629,2019-09-06 18:24:10:311,2.0347,0.9431,9.9317,0.0628,0.0725,9.8061,0.1252,-0.0149,-0.0147,5.06,-31.31,12.94,28.14,-81.43,177.81
4753,52.37976,-1.516684,133.43,8.77,3,307.92,20 / 20,483729,2019-09-06 18:24:10:411,0.9654,1.967,9.6015,0.0511,0.0838,9.8061,0.316,-0.15,-0.006,4.13,-31.87,12.5,22.34,-81.23,177.15
4754,52.37976,-1.516684,133.43,8.77,3,307.92,20 / 20,483829,2019-09-06 18:24:10:511,0.1424,1.2605,9.5308,0.0231,0.0505,9.8065,-0.0576,-0.0873,0.0591,4.13,-31.62,12.38,23.59,-81.56,176.37
4755,52.37976,-1.516684,133.43,8.77,3,307.92,20 / 20,483928,2019-09-06 18:24:10:610,-0.0314,0.6614,9.3065,-0.002,-0.0113,9.8065,0.0054,-0.0257,0.0113,4.19,-31.5,12.88,22.1,-81.34,177.34
4756,52.37976,-1.516684,133.43,8.77,3,307.92,20 / 20,484028,2019-09-06 18:24:10:710,1.3257,-0.1102,9.6489,0.0087,0.0112,9.8066,-0.0536,0.0116,0.0842,4.5,-31.87,13.0,27.96,-81.25,177.19
4757,52.37976,-1.516684,133.43,8.77,3,307.92,20 / 20,484129,2019-09-06 18:24:10:811,-0.3275,1.5245,9.7959,0.0169,0.0337,9.8065,0.0447,-0.0564,0.0777,4.25,-32.56,12.38,27.21,-81.73,178.63
4758,52.37976,-1.516684,133.43,8.77,3,307.92,20 / 20,484229,2019-09-06 18:24:10:911,0.5283,0.9966,9.7094,0.0039,0.02,9.8066,-0.01,0.0139,-0.0102,4.06,-31.87,12.75,24.74,-81.77,179.3
4759,52.37976,-1.516684,133.43,8.77,3,307.92,20 / 20,484329,2019-09-06 18:24:11:011,-0.4953,1.421,10.0432,-0.0236,-0.0095,9.8066,-0.0435,0.008,-0.0371,4.75,-31.94,13.13,30.26,-81.79,179.42
4760,52.37976,-1.516684,133.43,8.77,3,307.92,21 / 21,484429,2019-09-06 18:24:11:111,-0.0633,1.9495,9.944,-0.0018,-0.0191,9.8066,-0.0032,-0.0198,0.0181,4.31,-32.12,12.88,25.6,-81.62,179.73
4761,52.37976,-1.516684,133.43,8.77,3,307.92,21 / 21,484529,2019-09-06 18:24:11:211,0.3203,1.729,9.5192,0.0029,0.0051,9.8066,0.0643,-0.0241,0.0433,4.75,-32.19,12.88,30.91,-81.52,179.55
4762,52.37976,-1.516684,133.43,8.77,3,307.92,21 / 21,484629,2019-09-06 18:24:11:311,1.3396,1.5943,9.9184,0.0075,0.0063,9.8066,-0.0367,-0.0229,0.0161,4.38,-31.31,12.5,24.83,-81.53,179.37
4763,52.37976,-1.516684,133.43,8.77,3,307.92,21 / 21,484728,2019-09-06 18:24:11:410,0.8691,1.7131,9.8311,-0.0077,-0.0075,9.8066,-0.0309,0.0059,-0.0268,4.94,-31.5,13.06,29.57,-81.55,178.95
4764,52.37976,-1.516684,133.43,8.77,3,307.92,21 / 21,484828,2019-09-06 18:24:11:510,0.7487,2.7296,9.6651,0.0098,-0.0096,9.8066,-0.04,-0.1221,0.066,3.81,-31.94,12.56,23.71,-81.64,178.46
4765,52.37976,-1.516684,133.43,8.77,3,307.92,21 / 21,484929,2019-09-06 18:24:11:611,0.5035,2.566,9.2801,0.0151,0.0123,9.8065,0.0167,-0.0317,0.0328,4.63,-31.81,12.69,28.83,-81.7,178.31
4766,52.37976,-1.516684,133.43,8.77,3,307.92,21 / 21,485029,2019-09-06 18:24:11:711,1.4125,2.4345,9.6749,-0.0039,0.0082,9.8066,-0.0445,0.0336,-0.0256,4.25,-31.81,12.38,26.08,-81.76,178.22
4767,52.37976,-1.516684,133.43,8.77,3,307.92,21 / 21,485129,2019-09-06 18:24:11:811,1.5293,2.0136,9.9057,-0.0183,-0.0722,9.8063,0.0991,-0.0211,0.0086,4.56,-31.69,12.5,28.46,-81.04,177.28
4768,52.37976,-1.516684,133.43,8.77,3,307.92,21 / 21,485229,2019-09-06 18:24:11:911,1.0416,1.5384,9.9387,-0.0127,0.0128,9.8065,-0.0522,-0.0499,0.025,5.06,-31.81,12.5,28.95,-81.01,177.57
4769,52.37976,-1.516684,133.43,8.77,3,307.92,21 / 21,485328,2019-09-06 18:24:12:010,1.0106,2.774,9.576,0.0108,0.0243,9.8066,-0.1528,0.0433,-0.007,4.13,-31.75,12.81,24.46,-80.59,177.88
4770,52.37976,-1.516684,133.43,8.77,3,307.92,20 / 20,485429,2019-09-06 18:24:12:111,1.4908,2.6715,9.7814,-0.0268,-0.0791,9.8063,-0.2991,-0.0206,0.0202,4.31,-31.94,12.56,23.76,-80.4,177.25
4771,52.37976,-1.516684,133.43,8.77,3,307.92,20 / 20,485528,2019-09-06 18:24:12:210,1.2859,1.9881,9.9484,-0.0066,-0.0386,9.8066,-0.0009,0.0701,-0.0167,5.31,-31.56,12.44,31.75,-80.61,176.54
4772,52.37976,-1.516684,133.43,8.77,3,307.92,20 / 20,485630,2019-09-06 18:24:12:312,1.2973,2.5276,9.3672,-0.0188,-0.057,9.8065,0.1413,-0.0285,-0.0589,4.0,-31.69,12.44,25.53,-80.34,176.21
4773,52.37976,-1.516684,133.43,8.77,3,307.92,20 / 20,485729,2019-09-06 18:24:12:411,1.9192,2.5737,9.7745,0.0301,0.0444,9.8065,0.0584,0.0706,0.0113,4.81,-31.5,12.19,29.67,-80.42,175.33
4774,52.37976,-1.516684,133.43,8.77,3,307.92,20 / 20,485829,2019-09-06 18:24:12:511,1.2916,2.6257,9.9429,0.0267,0.0392,9.8065,-0.0827,0.0029,0.0039,4.69,-31.19,12.88,25.91,-80.65,175.46
4775,52.37976,-1.516684,133.43,8.77,3,307.92,20 / 20,485929,2019-09-06 18:24:12:611,0.9342,2.4939,9.3315,0.0265,0.0632,9.8063,-0.134,0.023,-0.057,4.31,-32.19,12.94,20.08,-80.66,175.19
4776,52.37976,-1.516684,133.43,8.77,3,307.92,20 / 20,486029,2019-09-06 18:24:12:711,0.5218,2.4201,9.6706,-0.0036,-0.0355,9.8066,0.1635,0.0423,0.0112,4.81,-31.81,12.94,24.72,-80.59,174.33
4777,52.37976,-1.516684,133.43,8.77,3,307.92,20 / 20,486129,2019-09-06 18:24:12:811,1.4269,2.7517,9.5169,0.0246,0.0072,9.8065,0.0456,-0.0134,0.0128,4.56,-31.62,12.56,23.82,-80.63,173.79
4778,52.37976,-1.516684,133.43,8.77,3,307.92,20 / 20,486229,2019-09-06 18:24:12:911,0.9145,1.8882,9.6808,0.0002,0.0092,9.8066,0.055,0.02,0.0185,4.63,-30.94,12.94,23.68,-80.6,173.94
4779,52.37976,-1.516684,133.43,8.77,3,307.92,20 / 20,486329,2019-09-06 18:24:13:011,0.5482,2.424,9.9453,-0.0018,0.0027,9.8066,0.0257,0.0019,-0.0225,4.31,-31.87,13.06,18.57,-80.61,174.21
4780,52.37976,-1.516684,133.43,8.77,3,307.92,20 / 20,486430,2019-09-06 18:24:13:112,0.9381,2.4701,9.6612,0.0025,0.0008,9.8066,0.0012,-0.0136,-0.0048,4.25,-31.69,12.69,18.51,-80.64,174.19
4781,52.37976,-1.516684,133.43,8.77,3,307.92,20 / 20,486529,2019-09-06 18:24:13:211,0.7786,2.1412,9.6588,-0.0015,0.0016,9.8066,0.0274,0.0044,0.0027,4.94,-32.12,12.81,24.68,-80.67,174.39
4782,52.37976,-1.516684,133.43,8.77,3,307.92,20 / 20,486629,2019-09-06 18:24:13:311,1.0596,2.1012,9.6008,0.0057,0.0037,9.8066,0.0358,-0.003,0.0155,5.0,-32.06,13.38,24.4,-80.68,174.22
4783,52.37976,-1.516684,133.43,8.77,3,307.92,20 / 20,486729,2019-09-06 18:24:13:411,0.9721,2.1157,9.6373,0.0011,-0.0013,9.8066,0.0338,0.0071,-0.0058,4.81,-31.12,12.88,24.17,-80.66,174.33
4784,52.37976,-1.516684,133.43,8.77,3,307.92,20 / 20,486829,2019-09-06 18:24:13:511,0.9658,2.0562,9.6308,0.0044,0.0042,9.8066,0.0286,-0.0043,-0.0023,4.63,-31.75,12.94,24.19,-80.7,174.1
4785,52.37976,-1.516684,133.43,8.77,3,307.92,20 / 20,486929,2019-09-06 18:24:13:611,0.8474,1.9833,9.9808,-0.0026,-0.0019,9.8066,0.0076,0.0011,0.0022,4.56,-31.94,13.25,24.3,-80.73,174.2
4786,52.37976,-1.516684,133.43,8.77,3,307.92,20 / 20,487029,2019-09-06 18:24:13:711,1.016,2.5589,9.4789,0.0021,0.0024,9.8066,0.027,-0.0006,0.0147,4.63,-31.69,13.38,24.1,-80.79,174.13
4787,52.37976,-1.516684,133.43,8.77,3,307.92,20 / 20,487129,2019-09-06 18:24:13:811,0.5445,1.7915,9.3772,0.0197,0.0469,9.8065,0.051,-0.002,0.0231,4.38,-31.25,13.44,18.9,-80.27,174.37
4788,52.37976,-1.516684,133.43,8.77,3,307.92,20 / 20,487228,2019-09-06 18:24:13:910,0.3541,1.2516,9.815,-0.0062,0.0072,9.8066,-0.0043,0.0113,0.0451,4.56,-31.81,13.69,20.44,-81.52,174.21
4789,52.37976,-1.516684,133.43,8.77,3,307.92,20 / 20,487329,2019-09-06 18:24:14:011,0.5297,1.2633,9.5466,0.0235,0.0773,9.8062,0.113,0.1032,-0.0175,4.63,-31.44,13.25,24.91,-81.39,175.28
4790,52.37994,-1.517714,133.16,3.17,3,284.4,21 / 21,487429,2019-09-06 18:24:14:111,0.0318,1.0919,9.6117,-0.0022,-0.0079,9.8066,-0.0536,-0.0063,0.0,4.0,-32.12,13.13,19.5,-81.44,175.48
4791,52.37994,-1.517714,133.16,3.17,3,284.4,21 / 21,487529,2019-09-06 18:24:14:211,0.2626,1.257,9.9294,0.0019,0.0093,9.8066,0.0533,-0.0123,0.0213,4.63,-31.94,12.94,24.69,-81.43,175.17
4792,52.37994,-1.517714,133.16,3.17,3,284.4,21 / 21,487629,2019-09-06 18:24:14:311,0.4525,1.2987,10.0068,0.0072,0.0063,9.8066,0.0154,-0.0155,-0.0236,4.44,-32.37,12.44,21.61,-81.48,175.01
4793,52.37994,-1.517714,133.16,3.17,3,284.4,21 / 21,487729,2019-09-06 18:24:14:411,0.1618,0.7827,9.4777,-0.0036,0.0051,9.8066,-0.0076,-0.006,0.0074,5.0,-31.25,12.69,23.97,-81.58,175.08
4794,52.37994,-1.517714,133.16,3.17,3,284.4,21 / 21,487829,2019-09-06 18:24:14:511,-0.0702,0.7011,9.5963,-0.0023,-0.0017,9.8066,0.0222,-0.0039,0.0208,5.19,-31.56,13.0,24.72,-81.61,175.37
4795,52.37994,-1.517714,133.16,3.17,3,284.4,21 / 21,487929,2019-09-06 18:24:14:611,0.1034,0.9435,9.7172,0.009,0.0148,9.8066,-0.0092,-0.0134,-0.0014,5.0,-31.44,12.94,24.35,-81.61,175.37
4796,52.37994,-1.517714,133.16,3.17,3,284.4,21 / 21,488032,2019-09-06 18:24:14:714,0.1842,0.732,10.0008,0.0026,0.0111,9.8065,-0.0049,-0.0102,-0.0131,5.0,-31.81,12.94,24.75,-81.67,175.46
4797,52.37994,-1.517714,133.16,3.17,3,284.4,21 / 21,488128,2019-09-06 18:24:14:810,0.1111,0.7167,9.734,-0.0004,0.0048,9.8066,-0.0133,-0.0131,-0.0144,3.69,-31.94,13.25,19.23,-81.85,175.63
4798,52.37994,-1.517714,133.16,3.17,3,284.4,21 / 21,488228,2019-09-06 18:24:14:910,0.3401,0.8322,9.6669,-0.0041,-0.0024,9.8066,-0.0219,0.002,-0.0136,4.56,-32.12,13.44,24.97,-81.94,175.89
4799,52.37994,-1.517714,133.16,3.17,3,284.4,21 / 21,488328,2019-09-06 18:24:15:010,0.2422,0.9233,9.9379,-0.0034,0.0041,9.8066,0.0177,0.0202,0.0012,4.44,-31.94,12.81,19.9,-82.03,176.24
4800,52.37994,-1.517714,133.16,3.17,3,284.4,20 / 20,488429,2019-09-06 18:24:15:111,0.1442,0.9926,9.6204,-0.0009,0.0014,9.8066,-0.0013,-0.0105,0.01,4.63,-31.94,13.19,25.5,-82.06,176.38
4801,52.37994,-1.517714,133.16,3.17,3,284.4,20 / 20,488529,2019-09-06 18:24:15:211,0.0448,1.3679,9.8602,-0.0024,0.0051,9.8066,0.0141,0.0136,-0.0061,4.13,-32.44,13.06,20.69,-82.16,176.89
4802,52.37994,-1.517714,133.16,3.17,3,284.4,20 / 20,488629,2019-09-06 18:24:15:311,-0.0365,1.168,10.1109,0.0036,0.0006,9.8066,0.0225,-0.003,0.0012,4.75,-31.62,12.31,28.79,-82.2,176.67
4803,52.37994,-1.517714,133.16,3.17,3,284.4,20 / 20,488728,2019-09-06 18:24:15:410,0.3081,0.8871,9.7657,0.0034,0.0025,9.8066,0.0082,-0.0196,0.0051,4.5,-31.81,12.75,25.5,-82.22,176.55
4804,52.37994,-1.517714,133.16,3.17,3,284.4,20 / 20,488829,2019-09-06 18:24:15:511,0.0775,0.9085,9.7416,0.0013,0.0048,9.8066,-0.0005,-0.0066,-0.0126,4.63,-31.69,12.94,25.21,-82.3,176.42
4805,52.37994,-1.517714,133.16,3.17,3,284.4,20 / 20,488928,2019-09-06 18:24:15:610,0.2528,0.8462,9.8691,0.0023,0.0053,9.8066,-0.0011,-0.0108,0.003,4.5,-31.87,13.25,24.99,-82.41,176.38
4806,52.37994,-1.517714,133.16,3.17,3,284.4,20 / 20,489029,2019-09-06 18:24:15:711,0.1614,0.7435,9.7098,0.0015,0.0045,9.8066,0.0112,0.0037,0.0106,4.69,-31.62,13.19,24.97,-82.48,176.43
4807,52.37994,-1.517714,133.16,3.17,3,284.4,20 / 20,489129,2019-09-06 18:24:15:811,0.075,0.7292,9.6639,-0.0021,0.0042,9.8066,0.0054,-0.0067,-0.001,3.63,-31.87,12.38,22.61,-82.54,176.74
4808,52.37994,-1.517714,133.16,3.17,3,284.4,20 / 20,489228,2019-09-06 18:24:15:910,-0.0843,0.6483,9.8952,0.0014,0.0057,9.8066,0.0021,0.0052,-0.0024,4.0,-31.75,13.13,20.36,-82.63,177.07
4809,52.37994,-1.517714,133.16,3.17,3,284.4,20 / 20,489328,2019-09-06 18:24:16:010,0.0867,0.5937,9.8343,0.001,0.0056,9.8066,-0.0074,0.0006,0.0068,3.75,-32.25,12.88,20.22,-82.76,177.08
4810,52.37994,-1.517714,133.16,3.17,3,284.4,21 / 21,489429,2019-09-06 18:24:16:111,0.0103,0.4105,9.8168,0.0007,0.004,9.8066,0.0042,-0.0022,0.0013,3.88,-31.37,13.0,20.02,-82.83,177.18
4811,52.37994,-1.517714,133.16,3.17,3,284.4,21 / 21,489529,2019-09-06 18:24:16:211,-0.0748,0.4356,9.8935,-0.0008,0.0078,9.8065,0.0164,0.0053,0.0049,3.38,-31.37,12.94,14.71,-82.94,177.45
4812,52.37994,-1.517714,133.16,3.17,3,284.4,21 / 21,489629,2019-09-06 18:24:16:311,-0.1636,0.3153,9.8038,0.0006,0.0103,9.8066,0.0123,0.0016,0.0118,3.75,-32.12,13.44,20.89,-83.02,177.78
4813,52.37994,-1.517714,133.16,3.17,3,284.4,21 / 21,489729,2019-09-06 18:24:16:411,-0.3071,0.1169,9.7976,-0.002,0.0064,9.8066,-0.0134,-0.0205,0.0107,3.63,-32.56,13.13,21.68,-83.09,178.24
4814,52.37994,-1.517714,133.16,3.17,3,284.4,21 / 21,489828,2019-09-06 18:24:16:510,0.3649,0.1499,9.4809,0.0022,0.0052,9.8066,0.0655,-0.055,0.0347,3.94,-32.56,12.88,22.42,-83.22,178.89
4815,52.37994,-1.517714,133.16,3.17,3,284.4,21 / 21,489929,2019-09-06 18:24:16:611,0.3253,-0.2008,9.8717,0.0074,-0.015,9.8066,0.0784,0.1275,-0.0729,4.13,-31.56,13.0,22.18,-83.39,179.08
4816,52.37994,-1.517714,133.16,3.17,3,284.4,21 / 21,490029,2019-09-06 18:24:16:711,-0.3886,0.2917,10.1519,0.005,-0.0042,9.8066,0.1719,0.0205,-0.0041,4.13,-32.0,13.44,21.75,-83.18,178.56
4817,52.37994,-1.517714,133.16,3.17,3,284.4,21 / 21,490128,2019-09-06 18:24:16:810,0.1161,0.5604,9.5408,0.0,0.0208,9.8066,-0.1241,0.0417,0.0056,4.31,-32.19,13.31,24.06,-83.17,-179.75
4818,52.37994,-1.517714,133.16,3.17,3,284.4,21 / 21,490229,2019-09-06 18:24:16:911,-0.3781,0.3611,9.6418,-0.0118,0.0392,9.8065,0.0256,-0.0199,0.0155,4.44,-31.94,13.19,24.63,-83.48,-179.01
4819,52.37994,-1.517714,133.16,3.17,3,284.4,21 / 21,490329,2019-09-06 18:24:17:011,-0.2566,0.0465,9.7934,-0.005,-0.0103,9.8066,0.049,-0.085,-0.0091,4.63,-32.44,13.69,29.14,-83.7,-177.28
4820,52.37994,-1.517714,133.16,3.17,3,284.4,21 / 21,490429,2019-09-06 18:24:17:111,-0.4737,-0.0261,9.9885,0.0045,0.0226,9.8066,0.1193,-0.0256,0.0927,3.94,-31.94,13.31,28.68,-83.76,-175.63
4821,52.37994,-1.517714,133.16,3.17,3,284.4,21 / 21,490529,2019-09-06 18:24:17:211,-0.7348,-0.4613,10.0998,0.0093,0.0185,9.8066,0.0732,-0.0442,0.0444,3.81,-32.19,13.13,29.58,-83.75,-174.93
4822,52.37994,-1.517714,133.16,3.17,3,284.4,21 / 21,490628,2019-09-06 18:24:17:310,-0.363,-0.0802,9.804,0.0248,0.0085,9.8066,-0.0885,0.093,-0.0606,3.44,-32.31,12.81,22.26,-84.17,-176.14
4823,52.37994,-1.517714,133.16,3.17,3,284.4,21 / 21,490729,2019-09-06 18:24:17:411,-0.1766,0.2287,9.6715,-0.0068,-0.0388,9.8065,-0.0519,-0.0086,-0.0075,3.88,-32.5,12.88,25.41,-84.03,-177.84
4824,52.37994,-1.517714,133.16,3.17,3,284.4,21 / 21,490830,2019-09-06 18:24:17:512,-0.0814,-0.3525,10.0639,-0.006,-0.0063,9.8066,0.0319,-0.0336,0.0336,3.94,-32.12,12.69,25.01,-84.0,-178.19
4825,52.37994,-1.517714,133.16,3.17,3,284.4,21 / 21,490929,2019-09-06 18:24:17:611,-0.3666,-0.5189,9.9305,0.0063,0.0072,9.8066,-0.0817,-0.0228,-0.0882,3.44,-32.0,13.63,17.72,-84.08,-178.49
4826,52.37994,-1.517714,133.16,3.17,3,284.4,21 / 21,491028,2019-09-06 18:24:17:710,-0.5916,-0.2712,9.7144,0.0104,0.0261,9.8066,-0.0479,-0.0055,-0.0378,3.75,-32.37,13.0,25.11,-84.18,-177.92
4827,52.37994,-1.517714,133.16,3.17,3,284.4,21 / 21,491129,2019-09-06 18:24:17:811,-0.2815,0.1882,10.1569,0.0059,0.0096,9.8066,0.0195,-0.01,-0.0175,3.88,-31.62,13.38,24.3,-84.37,-178.37
4828,52.37994,-1.517714,133.16,3.17,3,284.4,21 / 21,491228,2019-09-06 18:24:17:910,-0.0666,-0.3677,9.8584,0.0091,0.0094,9.8066,0.0114,-0.0004,-0.026,3.38,-32.19,12.94,18.36,-84.44,-178.92
4829,52.37994,-1.517714,133.16,3.17,3,284.4,21 / 21,491329,2019-09-06 18:24:18:011,-0.0382,-0.2398,9.7347,-0.0015,-0.0026,9.8066,-0.0247,0.0001,0.0037,4.38,-31.69,13.25,23.1,-84.49,-179.18
4830,52.37994,-1.517714,133.16,3.17,3,284.4,21 / 21,491429,2019-09-06 18:24:18:111,-0.1845,-0.1502,9.9403,-0.0023,-0.0019,9.8066,-0.0116,0.006,0.0114,4.06,-32.12,12.44,25.59,-84.51,-178.96
4831,52.37994,-1.517714,133.16,3.17,3,284.4,21 / 21,491529,2019-09-06 18:24:18:211,-0.3647,-0.4901,9.8254,-0.0045,0.0071,9.8066,0.0245,0.0063,0.0188,4.0,-31.62,12.75,24.46,-84.58,-178.03
4832,52.37994,-1.517714,133.16,3.17,3,284.4,21 / 21,491629,2019-09-06 18:24:18:311,-0.3695,0.0994,9.8641,-0.0041,0.007,9.8066,0.0215,-0.0085,-0.0121,4.19,-32.0,13.13,25.42,-84.59,-177.26
4833,52.37994,-1.517714,133.16,3.17,3,284.4,21 / 21,491728,2019-09-06 18:24:18:410,-0.2524,-0.1446,9.7935,0.0057,0.0085,9.8065,-0.0131,-0.0062,-0.0004,4.13,-31.94,13.19,25.52,-84.69,-177.07
4834,52.37994,-1.517714,133.16,3.17,3,284.4,21 / 21,491829,2019-09-06 18:24:18:511,-0.2269,-0.2115,9.7575,0.0028,0.0028,9.8066,-0.0245,-0.0078,-0.0141,4.56,-31.94,12.94,29.95,-84.71,-177.27
4835,52.37994,-1.517714,133.16,3.17,3,284.4,21 / 21,491928,2019-09-06 18:24:18:610,-0.2629,-0.6685,9.6987,0.005,0.0046,9.8066,-0.0041,0.0103,0.0037,4.0,-32.06,12.69,24.66,-84.79,-177.65
4836,52.37994,-1.517714,133.16,3.17,3,284.4,21 / 21,492028,2019-09-06 18:24:18:710,-0.4232,-0.5966,9.8679,0.0027,0.0048,9.8066,0.0079,0.0025,0.008,4.19,-32.44,12.88,24.28,-84.9,-177.84
4837,52.37994,-1.517714,133.16,3.17,3,284.4,21 / 21,492128,2019-09-06 18:24:18:810,-0.2565,-0.3417,9.9752,0.0003,0.0001,9.8066,-0.0118,0.0036,-0.0158,4.31,-31.81,13.31,24.33,-84.97,-177.73
4838,52.37994,-1.517714,133.16,3.17,3,284.4,21 / 21,492228,2019-09-06 18:24:18:910,-0.3952,-0.6803,9.9797,0.0031,0.0031,9.8066,0.0112,-0.0005,-0.0008,3.81,-31.94,12.56,24.02,-85.06,-177.9
4839,52.37994,-1.517714,133.16,3.17,3,284.4,21 / 21,492329,2019-09-06 18:24:19:011,-0.2557,-0.5673,9.8868,0.0018,0.0087,9.8066,0.0022,0.0024,0.013,3.69,-32.44,12.63,24.14,-85.18,-177.68
4840,52.37994,-1.517714,133.16,3.17,3,284.4,20 / 20,492429,2019-09-06 18:24:19:111,-0.1112,-0.1924,9.8244,-0.0031,0.0078,9.8066,0.0073,-0.0053,0.012,3.69,-32.06,12.69,24.83,-85.25,-177.05
4841,52.37994,-1.517714,133.16,3.17,3,284.4,20 / 20,492528,2019-09-06 18:24:19:210,-0.4588,-0.2971,9.671,-0.0077,0.0022,9.8065,-0.0081,-0.0035,0.0088,4.13,-31.75,12.63,25.92,-85.28,-176.11
4842,52.37994,-1.517714,133.16,3.17,3,284.4,20 / 20,492629,2019-09-06 18:24:19:311,-0.4671,-0.3988,9.7426,-0.005,0.0036,9.8066,0.0113,-0.0033,0.006,4.19,-31.87,12.94,27.65,-85.29,-174.67
4843,52.37994,-1.517714,133.16,3.17,3,284.4,20 / 20,492729,2019-09-06 18:24:19:411,-0.4444,-0.7154,9.9185,0.0004,0.0047,9.8066,0.0151,0.0036,0.0122,3.75,-32.56,13.44,28.23,-85.33,-174.31
4844,52.37994,-1.517714,133.16,3.17,3,284.4,20 / 20,492829,2019-09-06 18:24:19:511,-0.2998,-0.4327,9.7767,-0.002,0.0064,9.8066,-0.0094,-0.0006,-0.0041,3.63,-31.94,12.81,28.67,-85.37,-173.75
4845,52.37994,-1.517714,133.16,3.17,3,284.4,20 / 20,492929,2019-09-06 18:24:19:611,-0.5474,-0.661,9.7621,-0.0002,0.0017,9.8066,0.0002,0.0075,0.0033,3.81,-31.94,13.06,29.27,-85.41,-173.19
4846,52.37994,-1.517714,133.16,3.17,3,284.4,20 / 20,493028,2019-09-06 18:24:19:710,-0.4984,-1.0279,9.8068,0.0,0.0028,9.8066,0.0201,0.0096,-0.0028,4.13,-31.94,13.81,27.66,-85.44,-173.01
4847,52.37994,-1.517714,133.16,3.17,3,284.4,20 / 20,493129,2019-09-06 18:24:19:811,-0.5218,-0.5076,9.8773,-0.0005,-0.0025,9.8066,-0.0012,-0.0008,0.0154,4.56,-32.06,13.0,34.27,-85.45,-172.75
4848,52.37994,-1.517714,133.16,3.17,3,284.4,20 / 20,493228,2019-09-06 18:24:19:910,-0.3857,-0.5804,9.7763,-0.0025,-0.0032,9.8066,0.0086,0.0135,0.0099,4.13,-31.75,13.13,29.95,-85.42,-172.61
4849,52.37994,-1.517714,133.16,3.17,3,284.4,20 / 20,493328,2019-09-06 18:24:20:010,-0.5984,-1.0999,9.8287,-0.0031,-0.0009,9.8066,0.0006,-0.0056,-0.0184,4.81,-31.75,13.0,34.87,-85.41,-172.29
4850,52.37994,-1.517714,133.16,3.17,3,284.4,21 / 21,493428,2019-09-06 18:24:20:110,-0.3748,-0.7516,9.9654,0.0003,-0.0049,9.8066,-0.0248,-0.0242,-0.0033,4.44,-31.75,13.5,28.49,-85.39,-172.37
4851,52.37994,-1.517714,133.16,3.17,3,284.4,21 / 21,493528,2019-09-06 18:24:20:210,-0.3918,-0.466,9.8296,0.0055,0.0091,9.8066,0.0124,-0.0142,0.0101,4.19,-31.69,13.81,28.27,-85.42,-172.52
4852,52.37994,-1.517714,133.16,3.17,3,284.4,21 / 21,493629,2019-09-06 18:24:20:311,0.028,-0.5089,9.6215,0.0008,0.0081,9.8066,-0.0009,0.0018,-0.0168,3.69,-31.75,13.56,28.26,-85.52,-172.43
4853,52.37994,-1.517714,133.16,3.17,3,284.4,21 / 21,493729,2019-09-06 18:24:20:411,-0.3993,-0.5056,9.9148,-0.0021,-0.0011,9.8066,0.0101,-0.0084,-0.0067,3.56,-32.25,12.81,30.32,-85.57,-172.12
4854,52.37994,-1.517714,133.16,3.17,3,284.4,21 / 21,493828,2019-09-06 18:24:20:510,-0.3908,-0.2869,9.9924,0.0036,0.0088,9.8066,0.0169,-0.0068,0.0037,3.75,-31.19,13.0,30.05,-85.64,-172.11
4855,52.37994,-1.517714,133.16,3.17,3,284.4,21 / 21,493929,2019-09-06 18:24:20:611,-0.0995,-0.0811,9.7887,0.0037,0.0038,9.8066,0.0282,-0.0047,-0.0071,3.44,-31.75,13.75,23.67,-85.66,-172.38
4856,52.37994,-1.517714,133.16,3.17,3,284.4,21 / 21,494029,2019-09-06 18:24:20:711,0.1104,-0.1814,9.9157,0.0063,0.0073,9.8066,0.0215,0.0222,-0.0139,3.56,-31.62,13.0,29.42,-85.69,-172.74
4857,52.37994,-1.517714,133.16,3.17,3,284.4,21 / 21,494129,2019-09-06 18:24:20:811,0.0515,0.1288,9.9022,0.0001,0.0034,9.8066,-0.0057,-0.0027,-0.0248,3.38,-32.25,13.06,23.96,-85.7,-173.28
4858,52.37994,-1.517714,133.16,3.17,3,284.4,21 / 21,494229,2019-09-06 18:24:20:911,-0.0233,-0.0703,9.6305,0.0027,0.008,9.8066,0.0082,-0.008,0.0201,3.94,-32.19,12.94,28.75,-85.76,-173.22
4859,52.37994,-1.517714,133.16,3.17,3,284.4,21 / 21,494329,2019-09-06 18:24:21:011,-0.2112,0.0622,9.8252,-0.0079,-0.0009,9.8066,-0.0168,0.013,0.0087,4.06,-31.31,13.31,30.25,-85.78,-171.78
4860,52.37994,-1.517714,133.16,3.17,3,284.4,20 / 20,494429,2019-09-06 18:24:21:111,-0.3093,0.1293,9.8712,-0.0037,-0.002,9.8066,-0.0068,0.0037,0.0076,4.44,-31.31,12.69,30.96,-85.79,-171.15
4861,52.37994,-1.517714,133.16,3.17,3,284.4,20 / 20,494529,2019-09-06 18:24:21:211,-0.1106,0.2175,9.8459,-0.0003,0.002,9.8066,-0.01,0.0088,-0.0036,4.38,-31.87,13.5,30.09,-85.8,-170.55
4862,52.37994,-1.517714,133.16,3.17,3,284.4,20 / 20,494629,2019-09-06 18:24:21:311,-0.2569,-0.2568,9.745,0.0049,-0.0016,9.8066,0.0113,0.0105,0.0034,4.25,-31.87,13.0,31.13,-85.8,-171.16
4863,52.37994,-1.517714,133.16,3.17,3,284.4,20 / 20,494729,2019-09-06 18:24:21:411,-0.2228,-0.5875,9.8754,0.0011,-0.0064,9.8066,0.0283,-0.0058,-0.0168,4.44,-32.06,13.25,29.9,-85.73,-172.29
4864,52.37994,-1.517714,133.16,3.17,3,284.4,20 / 20,494828,2019-09-06 18:24:21:510,-0.2781,-0.6701,9.8671,-0.0011,-0.0044,9.8066,0.0324,-0.0007,-0.0109,4.25,-31.44,13.38,29.47,-85.67,-172.57
4865,52.37994,-1.517714,133.16,3.17,3,284.4,20 / 20,494929,2019-09-06 18:24:21:611,-0.4139,-0.8679,10.0332,-0.0045,-0.0098,9.8066,-0.0018,0.0086,0.0147,3.94,-31.87,13.63,27.66,-85.64,-172.8
4866,52.37994,-1.517714,133.16,3.17,3,284.4,20 / 20,495028,2019-09-06 18:24:21:710,-0.5035,-0.8455,9.7705,-0.0034,-0.0099,9.8065,-0.0182,-0.0022,-0.0199,3.88,-31.5,13.25,29.38,-85.54,-172.79
4867,52.37994,-1.517714,133.16,3.17,3,284.4,20 / 20,495129,2019-09-06 18:24:21:811,-0.7681,-1.2247,9.7766,0.0033,0.0004,9.8066,-0.0122,0.0041,0.0025,3.63,-31.87,13.44,29.09,-85.52,-173.22
4868,52.37994,-1.517714,133.16,3.17,3,284.4,20 / 20,495228,2019-09-06 18:24:21:910,-0.4737,-1.3341,9.7412,0.0017,-0.009,9.8066,0.0073,0.0029,0.0074,3.5,-31.94,13.5,26.68,-85.48,-173.79
4869,52.37994,-1.517714,133.16,3.17,3,284.4,20 / 20,495329,2019-09-06 18:24:22:011,-0.5884,-1.6515,9.7522,-0.0011,-0.0039,9.8066,0.0171,0.0094,-0.0123,4.19,-31.87,13.94,26.46,-85.44,-174.02
4870,52.37994,-1.517714,133.16,3.17,3,284.4,21 / 21,495429,2019-09-06 18:24:22:111,-0.5889,-1.4736,9.6895,0.0015,-0.003,9.8066,0.0026,0.0018,0.0058,3.94,-31.94,13.56,25.97,-85.35,-174.53
4871,52.37994,-1.517714,133.16,3.17,3,284.4,21 / 21,495529,2019-09-06 18:24:22:211,-0.5111,-1.8146,9.5865,-0.002,0.0034,9.8066,-0.0441,-0.0429,-0.0046,3.94,-31.25,13.81,26.07,-85.27,-174.38
4872,52.37994,-1.517714,133.16,3.17,3,284.4,21 / 21,495629,2019-09-06 18:24:22:311,-0.9357,-1.4415,10.0909,-0.0026,0.0012,9.8066,-0.0488,-0.0203,-0.0096,4.56,-31.5,13.75,31.06,-85.24,-173.81
4873,52.37994,-1.517714,133.16,3.17,3,284.4,21 / 21,495729,2019-09-06 18:24:22:411,-0.6652,-0.6146,9.9799,0.0072,0.0097,9.8066,0.0715,-0.0115,0.0287,4.44,-31.5,13.81,26.59,-85.29,-173.93
4874,52.37994,-1.517714,133.16,3.17,3,284.4,21 / 21,495828,2019-09-06 18:24:22:510,-0.6637,-1.0182,9.9418,0.0041,0.0056,9.8066,0.052,0.0094,-0.0279,4.06,-31.5,13.88,26.36,-85.23,-174.17
4875,52.37994,-1.517714,133.16,3.17,3,284.4,21 / 21,495928,2019-09-06 18:24:22:610,-0.4786,-1.0468,9.8138,-0.001,-0.0105,9.8066,-0.001,-0.0174,-0.0064,3.5,-31.94,13.0,28.01,-85.17,-174.52
4876,52.37994,-1.517714,133.16,3.17,3,284.4,21 / 21,496028,2019-09-06 18:24:22:710,-0.5935,-0.8294,10.1501,0.0037,-0.007,9.8066,0.0074,0.0073,-0.0103,4.06,-31.69,14.25,25.31,-85.1,-175.32
4877,52.37994,-1.517714,133.16,3.17,3,284.4,21 / 21,496129,2019-09-06 18:24:22:811,-0.2354,-0.8187,9.8857,0.003,-0.0094,9.8065,-0.0215,0.0017,-0.0208,3.75,-31.81,14.19,23.3,-85.09,-177.0
4878,52.37994,-1.517714,133.16,3.17,3,284.4,21 / 21,496228,2019-09-06 18:24:22:910,-0.1945,-1.448,9.3847,-0.0026,-0.0095,9.8065,-0.0268,0.0,-0.012,5.06,-31.62,13.25,29.33,-85.06,-177.37
4879,52.37994,-1.517714,133.16,3.17,3,284.4,21 / 21,496330,2019-09-06 18:24:23:012,-0.6234,-0.767,9.7314,0.0099,0.0159,9.8066,0.0057,-0.005,-0.0104,4.75,-31.44,13.63,26.92,-85.15,-177.39
4880,52.379963,-1.517913,133.06,2.73,2,282.8,20 / 20,496428,2019-09-06 18:24:23:110,-1.2008,-2.0055,9.9019,-0.0047,-0.0036,9.8066,-0.023,-0.0157,-0.0034,4.88,-31.25,13.56,26.55,-85.13,-177.73
4881,52.379963,-1.517913,133.06,2.73,2,282.8,20 / 20,496529,2019-09-06 18:24:23:211,-0.5098,-1.3508,9.789,0.0028,0.0041,9.8066,-0.0032,-0.0088,-0.008,4.31,-31.5,13.19,24.02,-85.07,-177.74
