,GPS LATITUDE (degrees),GPS LONGITUDE (degrees), GPS ALTITUDE (m),GPS SPEED (Kmh),GPS ACCURACY (m),GPS ORIENTATION (Â°), SATELLITES IN RANGE, TIME SINCE START (ms), DATE (YYYY-MO-DD HH-MI-SS_SSS),ACCELEROMETER X (m/s²) , ACCELEROMETER Y (m/s²), ACCELEROMETER Z (m/s²), GRAVITY X (m/s²), GRAVITY Y (m/s²), GRAVITY Z (m/s²), GYROSCOPE Yaw (rad/s), GYROSCOPE Pitch (rad/s), GYROSCOPE Roll (rad/s)
13094,45.665432,0.131535,93.94,28.34,6.432,39.4,14 / 18,693184,2019-08-12 10:36:15:674,-0.4451,0.3582,9.5677,-0.3674,-0.0793,9.7994,-0.0099,0.0024,0.0079
13095,45.665432,0.131535,93.94,28.34,6.432,39.4,14 / 18,693185,2019-08-12 10:36:15:675,-0.4451,0.3582,9.5677,-0.3674,-0.0793,9.7994,-0.0099,0.0024,0.0079
13096,45.665432,0.131535,93.94,28.34,6.432,39.4,14 / 18,693185,2019-08-12 10:36:15:675,-0.4451,0.3582,9.5677,-0.3674,-0.0793,9.7994,-0.0099,0.0024,0.0079
13097,45.665432,0.131535,93.94,28.34,6.432,39.4,14 / 18,693189,2019-08-12 10:36:15:679,-0.4451,0.3582,9.5677,-0.3674,-0.0793,9.7994,-0.0099,0.0024,0.0079
13098,45.665432,0.131535,93.94,28.34,6.432,39.4,14 / 18,693190,2019-08-12 10:36:15:680,-0.4451,0.3582,9.5677,-0.3674,-0.0793,9.7994,-0.0099,0.0024,0.0079
13099,45.665432,0.131535,93.94,28.34,6.432,39.4,14 / 18,693191,2019-08-12 10:36:15:681,-0.4451,0.3582,9.5677,-0.3674,-0.0793,9.7994,-0.0099,0.0024,0.0079
13100,45.665432,0.131535,93.94,28.34,6.432,39.4,14 / 18,693193,2019-08-12 10:36:15:683,-0.4451,0.3582,9.5677,-0.3674,-0.0793,9.7994,-0.0099,0.0024,0.0079
13101,45.665432,0.131535,93.94,28.34,6.432,39.4,14 / 18,693248,2019-08-12 10:36:15:738,-0.4451,0.3582,9.5677,-0.3674,-0.0793,9.7994,-0.0099,0.0024,0.0079
13102,45.665432,0.131535,93.94,28.34,6.432,39.4,14 / 18,693347,2019-08-12 10:36:15:837,-0.6612,-0.256,10.3362,-0.3674,-0.0793,9.7994,-0.0099,0.0024,0.0079
13103,45.665432,0.131535,93.94,28.34,6.432,39.4,14 / 18,693447,2019-08-12 10:36:15:937,-0.687,-0.0812,9.1882,-0.446,-0.3294,9.791,-0.0089,0.0184,-0.0102
13104,45.665432,0.131535,93.94,28.34,6.432,39.4,14 / 18,693548,2019-08-12 10:36:16:038,-0.5636,-0.3212,9.9508,-0.4468,-0.3327,9.7908,-0.0068,-0.004,-0.0092
13105,45.665432,0.131535,93.94,28.34,6.432,39.4,14 / 18,693648,2019-08-12 10:36:16:138,-0.9497,-0.3505,10.584,-0.4361,-0.3411,9.791,-0.0121,-0.0253,-0.0081
13106,45.665432,0.131535,93.94,28.34,6.432,39.4,14 / 18,693748,2019-08-12 10:36:16:238,-0.2452,-0.5259,10.9132,-0.4222,-0.35,9.7913,-0.0057,-0.0146,-0.0102
13107,45.665432,0.131535,93.94,28.34,6.432,39.4,14 / 18,693848,2019-08-12 10:36:16:338,-0.4278,-0.651,9.5515,-0.4107,-0.3498,9.7918,0.0028,-0.0114,-0.0092
13108,45.665432,0.131535,93.94,28.34,6.432,39.4,14 / 18,693949,2019-08-12 10:36:16:439,-0.5373,-0.5397,9.5216,-0.4215,-0.3381,9.7918,0.0124,0.0046,-0.0092
13109,45.665432,0.131535,93.94,28.34,6.432,39.4,14 / 18,694049,2019-08-12 10:36:16:539,-1.1083,-0.3966,9.6251,-0.435,-0.331,9.7914,0.0145,0.0259,-0.0102
13110,45.665432,0.131535,93.94,28.34,6.432,39.4,14 / 18,694149,2019-08-12 10:36:16:639,-0.1692,-0.1249,10.1052,-0.4344,-0.3421,9.7911,-0.0195,-0.0242,-0.0102
13111,45.665432,0.131535,93.94,28.34,6.432,39.4,14 / 18,694249,2019-08-12 10:36:16:739,-0.654,-0.6738,9.5156,-0.4607,-0.3448,9.7898,-0.0057,0.044,-0.0102
13112,45.665432,0.131535,93.94,28.34,6.432,39.4,14 / 18,694347,2019-08-12 10:36:16:837,-0.1273,-0.4092,10.2686,-0.4655,-0.3451,9.7895,0.0082,-0.005,-0.007
13113,45.665432,0.131535,93.94,28.34,6.432,39.4,14 / 18,694447,2019-08-12 10:36:16:937,-0.672,-0.7151,9.7041,-0.4809,-0.3377,9.789,0.0124,0.0291,-0.0017
13114,45.665432,0.131535,93.94,28.34,6.432,39.4,14 / 18,694547,2019-08-12 10:36:17:037,-0.7953,-0.1261,8.78,-0.4682,-0.3063,9.7907,0.0284,-0.0253,-0.007
13115,45.665432,0.131535,93.94,28.34,6.432,39.4,14 / 18,694647,2019-08-12 10:36:17:137,-0.6953,-0.0908,10.8618,-0.4491,-0.2943,9.7919,0.0114,-0.0317,-0.007
13116,45.665432,0.131535,93.94,28.34,6.432,39.4,14 / 18,694749,2019-08-12 10:36:17:239,-0.4793,-0.1165,10.8438,-0.4031,-0.3177,9.7932,-0.0419,-0.0125,-0.0081
13117,45.665432,0.131535,93.94,28.34,6.432,39.4,14 / 18,694847,2019-08-12 10:36:17:337,0.5191,0.5198,9.779,-0.4039,-0.3239,9.793,-0.0132,0.028,0.0047
13118,45.665432,0.131535,93.94,28.34,6.432,39.4,14 / 18,694949,2019-08-12 10:36:17:439,-0.3871,0.011,8.5094,-0.4384,-0.3077,9.792,0.006,0.0344,0.0111
13119,45.665432,0.131535,93.94,28.34,6.432,39.4,14 / 18,695047,2019-08-12 10:36:17:537,-0.4745,-0.0231,10.426,-0.4171,-0.274,9.7939,-0.0014,-0.0551,0.0068
13120,45.665432,0.131535,93.94,28.34,6.432,39.4,14 / 18,695147,2019-08-12 10:36:17:637,0.2169,0.3258,8.9069,-0.4193,-0.2752,9.7938,-0.0323,0.0131,0.0047
13121,45.665432,0.131535,93.94,28.34,6.432,39.4,14 / 18,695247,2019-08-12 10:36:17:737,-0.4673,0.09,9.0667,-0.4377,-0.2653,9.7933,0.006,0.0291,0.0079
13122,45.665432,0.131535,93.94,28.34,6.432,39.4,14 / 18,695348,2019-08-12 10:36:17:838,-0.5146,-0.001,9.9998,-0.4534,-0.2387,9.7933,0.0273,0.0046,0.0132
13123,45.665432,0.131535,93.94,28.34,6.432,39.4,14 / 18,695448,2019-08-12 10:36:17:938,-0.3512,0.3013,11.2891,-0.4383,-0.28,9.7928,-0.0941,-0.0242,0.0047
13124,45.665432,0.131535,93.94,28.34,6.432,39.4,14 / 18,695548,2019-08-12 10:36:18:038,-1.3232,0.5892,10.9288,-0.4013,-0.298,9.7939,-0.0334,-0.0562,0.0004
13125,45.665432,0.131535,93.94,28.34,6.432,39.4,14 / 18,695648,2019-08-12 10:36:18:138,-0.0585,-0.0561,10.7223,-0.375,-0.2668,9.7958,0.0177,-0.0274,0.0153
13126,45.665432,0.131535,93.94,28.34,6.432,39.4,14 / 18,695748,2019-08-12 10:36:18:238,-0.1764,0.0044,8.8273,-0.3779,-0.2207,9.7969,0.0518,0.0088,0.0143
13127,45.665432,0.131535,93.94,28.34,6.432,39.4,14 / 18,695848,2019-08-12 10:36:18:338,-0.2931,-0.0076,10.0788,-0.4161,-0.1953,9.7959,-0.0249,0.0003,0.0121
13128,45.665432,0.131535,93.94,28.34,6.432,39.4,14 / 18,695948,2019-08-12 10:36:18:438,-0.5798,0.585,10.0603,-0.3886,-0.1969,9.797,-0.0163,-0.0498,0.0047
13129,45.665432,0.131535,93.94,28.34,6.432,39.4,14 / 18,696048,2019-08-12 10:36:18:538,-0.7294,0.248,5.4592,-0.4338,-0.1859,9.7953,0.0007,0.044,0.0143
13130,45.665432,0.131535,93.94,28.34,6.432,39.4,14 / 18,696148,2019-08-12 10:36:18:638,1.6827,-0.6456,10.4805,-0.3996,-0.1858,9.7967,0.0295,-0.0263,-0.006
13131,45.665432,0.131535,93.94,28.34,6.432,39.4,14 / 18,696248,2019-08-12 10:36:18:738,-0.323,0.2552,8.9637,-0.4033,-0.1631,9.797,0.0018,0.0376,0.0132
13132,45.665432,0.131535,93.94,28.34,6.432,39.4,14 / 18,696348,2019-08-12 10:36:18:838,-0.3141,-0.0207,8.5867,-0.4152,-0.1293,9.797,0.0284,-0.0018,0.01
13133,45.665432,0.131535,93.94,28.34,6.432,39.4,14 / 18,696447,2019-08-12 10:36:18:937,-0.6768,0.1726,9.4923,-0.4079,-0.096,9.7977,0.0103,-0.0093,0.0132
13134,45.665432,0.131535,93.94,28.34,6.432,39.4,14 / 18,696547,2019-08-12 10:36:19:037,-0.511,0.1517,10.1926,-0.3991,-0.0952,9.7981,-0.0238,-0.0157,0.0089
13135,45.665432,0.131535,93.94,28.34,6.432,39.4,14 / 18,696647,2019-08-12 10:36:19:137,-0.3123,0.3133,9.9777,-0.4034,-0.1027,9.7978,-0.0078,0.0056,0.0068
13136,45.665432,0.131535,93.94,28.34,6.432,39.4,14 / 18,696748,2019-08-12 10:36:19:238,-0.2536,0.1511,9.3289,-0.4182,-0.0942,9.7973,0.0018,0.0291,0.0121
13137,45.665432,0.131535,93.94,28.34,6.432,39.4,14 / 18,696848,2019-08-12 10:36:19:338,-0.4242,0.099,9.7365,-0.446,-0.0583,9.7963,0.0273,-0.0008,0.0121
13138,45.665432,0.131535,93.94,28.34,6.432,39.4,14 / 18,696947,2019-08-12 10:36:19:437,-0.7803,0.3007,10.0244,-0.4482,-0.0352,9.7963,0.0124,0.0014,0.0132
13139,45.665432,0.131535,93.94,28.34,6.432,39.4,14 / 18,697048,2019-08-12 10:36:19:538,-0.4775,0.4551,9.9406,-0.4273,-0.0279,9.7973,-0.0099,-0.0327,0.0089
13140,45.665432,0.131535,93.94,28.34,6.432,39.4,14 / 18,697148,2019-08-12 10:36:19:638,-0.2883,0.4001,9.7209,-0.4243,-0.0263,9.7974,-0.0078,-0.0018,0.0079
13141,45.665432,0.131535,93.94,28.34,6.432,39.4,14 / 18,697248,2019-08-12 10:36:19:738,-0.4589,0.0738,9.6617,-0.4434,0.0027,9.7966,-0.0004,0.0056,0.0068
13142,45.665432,0.131535,93.94,28.34,6.432,39.4,14 / 18,697348,2019-08-12 10:36:19:838,-0.344,0.0888,9.4707,-0.4524,0.0008,9.7962,-0.0057,0.0141,0.0057
13143,45.665432,0.131535,93.94,28.34,6.432,39.4,14 / 18,697448,2019-08-12 10:36:19:938,-0.6127,0.16,9.2983,-0.4641,0.0062,9.7957,0.0028,0.0078,0.0036
13144,45.665432,0.131535,93.94,28.34,6.432,39.4,14 / 18,697548,2019-08-12 10:36:20:038,-0.6642,-0.0387,9.5013,-0.4627,0.0069,9.7957,-0.0014,-0.0072,-0.0028
13145,45.665432,0.131535,93.94,28.34,6.432,39.4,14 / 18,697648,2019-08-12 10:36:20:138,-0.3296,-0.3308,9.2935,-0.4513,-0.0214,9.7962,-0.0206,-0.0072,-0.0049
13146,45.665432,0.131535,93.94,28.34,6.432,39.4,14 / 18,697962,2019-08-12 10:36:20:452,-0.49,-0.1345,9.8137,-0.4513,-0.0214,9.7962,-0.0206,-0.0072,-0.0049
13147,45.665432,0.131535,93.94,28.34,6.432,39.4,14 / 18,697963,2019-08-12 10:36:20:453,-0.49,-0.1345,9.8137,-0.4513,-0.0214,9.7962,-0.0206,-0.0072,-0.0049
13148,45.665432,0.131535,93.94,28.34,6.432,39.4,14 / 18,697963,2019-08-12 10:36:20:453,-0.49,-0.1345,9.8137,-0.4513,-0.0214,9.7962,-0.0206,-0.0072,-0.0049
13149,45.665432,0.131535,93.94,28.34,6.432,39.4,14 / 18,697964,2019-08-12 10:36:20:454,-0.49,-0.1345,9.8137,-0.4513,-0.0214,9.7962,-0.0206,-0.0072,-0.0049
13150,45.665432,0.131535,93.94,28.34,6.432,39.4,14 / 18,697964,2019-08-12 10:36:20:454,-0.49,-0.1345,9.8137,-0.4513,-0.0214,9.7962,-0.0206,-0.0072,-0.0049
13151,45.665432,0.131535,93.94,28.34,6.432,39.4,14 / 18,697967,2019-08-12 10:36:20:457,-0.49,-0.1345,9.8137,-0.4513,-0.0214,9.7962,-0.0206,-0.0072,-0.0049
13152,45.665432,0.131535,93.94,28.34,6.432,39.4,14 / 18,697968,2019-08-12 10:36:20:458,-0.49,-0.1345,9.8137,-0.4513,-0.0214,9.7962,-0.0206,-0.0072,-0.0049
13153,45.665432,0.131535,93.94,28.34,6.432,39.4,14 / 18,697969,2019-08-12 10:36:20:459,-0.49,-0.1345,9.8137,-0.4513,-0.0214,9.7962,-0.0206,-0.0072,-0.0049
13154,45.665432,0.131535,93.94,28.34,6.432,39.4,14 / 18,697972,2019-08-12 10:36:20:462,-0.49,-0.1345,9.8137,-0.4513,-0.0214,9.7962,-0.0206,-0.0072,-0.0049
13155,45.665432,0.131535,93.94,28.34,6.432,39.4,14 / 18,697973,2019-08-12 10:36:20:463,-0.49,-0.1345,9.8137,-0.4513,-0.0214,9.7962,-0.0206,-0.0072,-0.0049
13156,45.665432,0.131535,93.94,28.34,6.432,39.4,14 / 18,697974,2019-08-12 10:36:20:464,-0.49,-0.1345,9.8137,-0.4513,-0.0214,9.7962,-0.0206,-0.0072,-0.0049
13157,45.665432,0.131535,93.94,28.34,6.432,39.4,14 / 18,697976,2019-08-12 10:36:20:466,-0.49,-0.1345,9.8137,-0.4513,-0.0214,9.7962,-0.0206,-0.0072,-0.0049
13158,45.665432,0.131535,93.94,28.34,6.432,39.4,14 / 18,698071,2019-08-12 10:36:20:561,-0.49,-0.1345,9.8137,-0.4513,-0.0214,9.7962,-0.0206,-0.0072,-0.0049
13159,45.665432,0.131535,93.94,28.34,6.432,39.4,14 / 18,698445,2019-08-12 10:36:20:935,-0.49,-0.1345,9.8137,-0.4513,-0.0214,9.7962,-0.0206,-0.0072,-0.0049
13160,45.665432,0.131535,93.94,28.34,6.432,39.4,14 / 17,698445,2019-08-12 10:36:20:935,-0.49,-0.1345,9.8137,-0.4513,-0.0214,9.7962,-0.0206,-0.0072,-0.0049
13161,45.665432,0.131535,93.94,28.34,6.432,39.4,14 / 17,698446,2019-08-12 10:36:20:936,-0.49,-0.1345,9.8137,-0.4513,-0.0214,9.7962,-0.0206,-0.0072,-0.0049
13162,45.665432,0.131535,93.94,28.34,6.432,39.4,14 / 17,698446,2019-08-12 10:36:20:936,-0.49,-0.1345,9.8137,-0.4513,-0.0214,9.7962,-0.0206,-0.0072,-0.0049
13163,45.665432,0.131535,93.94,28.34,6.432,39.4,14 / 17,698447,2019-08-12 10:36:20:937,-0.49,-0.1345,9.8137,-0.4513,-0.0214,9.7962,-0.0206,-0.0072,-0.0049
13164,45.665432,0.131535,93.94,28.34,6.432,39.4,14 / 17,698447,2019-08-12 10:36:20:937,-0.49,-0.1345,9.8137,-0.4513,-0.0214,9.7962,-0.0206,-0.0072,-0.0049
13165,45.665432,0.131535,93.94,28.34,6.432,39.4,14 / 17,698448,2019-08-12 10:36:20:938,-0.49,-0.1345,9.8137,-0.4513,-0.0214,9.7962,-0.0206,-0.0072,-0.0049
13166,45.665432,0.131535,93.94,28.34,6.432,39.4,14 / 17,698448,2019-08-12 10:36:20:938,-0.49,-0.1345,9.8137,-0.4513,-0.0214,9.7962,-0.0206,-0.0072,-0.0049
13167,45.665432,0.131535,93.94,28.34,6.432,39.4,14 / 17,698449,2019-08-12 10:36:20:939,-0.49,-0.1345,9.8137,-0.4513,-0.0214,9.7962,-0.0206,-0.0072,-0.0049
13168,45.667744,0.134271,94.61,28.26,5.36,40.0,14 / 17,698532,2019-08-12 10:36:21:022,-0.49,-0.1345,9.8137,-0.4513,-0.0214,9.7962,-0.0206,-0.0072,-0.0049
13169,45.667744,0.134271,94.61,28.26,5.36,40.0,14 / 17,698924,2019-08-12 10:36:21:414,-0.49,-0.1345,9.8137,-0.4513,-0.0214,9.7962,-0.0206,-0.0072,-0.0049
13170,45.667744,0.134271,94.61,28.26,5.36,40.0,14 / 17,698924,2019-08-12 10:36:21:414,-0.49,-0.1345,9.8137,-0.4513,-0.0214,9.7962,-0.0206,-0.0072,-0.0049
13171,45.667744,0.134271,94.61,28.26,5.36,40.0,14 / 17,698925,2019-08-12 10:36:21:415,-0.49,-0.1345,9.8137,-0.4513,-0.0214,9.7962,-0.0206,-0.0072,-0.0049
13172,45.667744,0.134271,94.61,28.26,5.36,40.0,14 / 17,698925,2019-08-12 10:36:21:415,-0.49,-0.1345,9.8137,-0.4513,-0.0214,9.7962,-0.0206,-0.0072,-0.0049
13173,45.667744,0.134271,94.61,28.26,5.36,40.0,14 / 17,698926,2019-08-12 10:36:21:416,-0.49,-0.1345,9.8137,-0.4513,-0.0214,9.7962,-0.0206,-0.0072,-0.0049
13174,45.667744,0.134271,94.61,28.26,5.36,40.0,14 / 17,698926,2019-08-12 10:36:21:416,-0.49,-0.1345,9.8137,-0.4513,-0.0214,9.7962,-0.0206,-0.0072,-0.0049
13175,45.667744,0.134271,94.61,28.26,5.36,40.0,14 / 17,698927,2019-08-12 10:36:21:417,-0.49,-0.1345,9.8137,-0.4513,-0.0214,9.7962,-0.0206,-0.0072,-0.0049
13176,45.667744,0.134271,94.61,28.26,5.36,40.0,14 / 17,698927,2019-08-12 10:36:21:417,-0.49,-0.1345,9.8137,-0.4513,-0.0214,9.7962,-0.0206,-0.0072,-0.0049
13177,45.667744,0.134271,94.61,28.26,5.36,40.0,14 / 17,698928,2019-08-12 10:36:21:418,-0.49,-0.1345,9.8137,-0.4513,-0.0214,9.7962,-0.0206,-0.0072,-0.0049
13178,45.667744,0.134271,94.61,28.26,5.36,40.0,14 / 17,698928,2019-08-12 10:36:21:418,-0.49,-0.1345,9.8137,-0.4513,-0.0214,9.7962,-0.0206,-0.0072,-0.0049
13179,45.667744,0.134271,94.61,28.26,5.36,40.0,14 / 17,698929,2019-08-12 10:36:21:419,-0.49,-0.1345,9.8137,-0.4513,-0.0214,9.7962,-0.0206,-0.0072,-0.0049
13180,45.667744,0.134271,94.61,28.26,5.36,40.0,14 / 17,698929,2019-08-12 10:36:21:419,-0.49,-0.1345,9.8137,-0.4513,-0.0214,9.7962,-0.0206,-0.0072,-0.0049
13181,45.667744,0.134271,94.61,28.26,5.36,40.0,14 / 17,698929,2019-08-12 10:36:21:419,-0.49,-0.1345,9.8137,-0.4513,-0.0214,9.7962,-0.0206,-0.0072,-0.0049
13182,45.667744,0.134271,94.61,28.26,5.36,40.0,14 / 17,698930,2019-08-12 10:36:21:420,-0.49,-0.1345,9.8137,-0.4513,-0.0214,9.7962,-0.0206,-0.0072,-0.0049
13183,45.667744,0.134271,94.61,28.26,5.36,40.0,14 / 17,698934,2019-08-12 10:36:21:424,-0.49,-0.1345,9.8137,-0.4513,-0.0214,9.7962,-0.0206,-0.0072,-0.0049
13184,45.667744,0.134271,94.61,28.26,5.36,40.0,14 / 17,698935,2019-08-12 10:36:21:425,-0.49,-0.1345,9.8137,-0.4513,-0.0214,9.7962,-0.0206,-0.0072,-0.0049
13185,45.667744,0.134271,94.61,28.26,5.36,40.0,14 / 17,698935,2019-08-12 10:36:21:425,-0.49,-0.1345,9.8137,-0.4513,-0.0214,9.7962,-0.0206,-0.0072,-0.0049
13186,45.667744,0.134271,94.61,28.26,5.36,40.0,14 / 17,698936,2019-08-12 10:36:21:426,-0.49,-0.1345,9.8137,-0.4513,-0.0214,9.7962,-0.0206,-0.0072,-0.0049
13187,45.667744,0.134271,94.61,28.26,5.36,40.0,14 / 17,698937,2019-08-12 10:36:21:427,-0.49,-0.1345,9.8137,-0.4513,-0.0214,9.7962,-0.0206,-0.0072,-0.0049
13188,45.667744,0.134271,94.61,28.26,5.36,40.0,14 / 17,698938,2019-08-12 10:36:21:428,-0.49,-0.1345,9.8137,-0.4513,-0.0214,9.7962,-0.0206,-0.0072,-0.0049
13189,45.667744,0.134271,94.61,28.26,5.36,40.0,14 / 17,698940,2019-08-12 10:36:21:430,-0.49,-0.1345,9.8137,-0.4513,-0.0214,9.7962,-0.0206,-0.0072,-0.0049
13190,45.667744,0.134271,94.61,28.26,5.36,40.0,14 / 17,698941,2019-08-12 10:36:21:431,-0.49,-0.1345,9.8137,-0.4513,-0.0214,9.7962,-0.0206,-0.0072,-0.0049
13191,45.667744,0.134271,94.61,28.26,5.36,40.0,14 / 17,698943,2019-08-12 10:36:21:433,-0.49,-0.1345,9.8137,-0.4513,-0.0214,9.7962,-0.0206,-0.0072,-0.0049
13192,45.667744,0.134271,94.61,28.26,5.36,40.0,14 / 17,698944,2019-08-12 10:36:21:434,-0.49,-0.1345,9.8137,-0.4513,-0.0214,9.7962,-0.0206,-0.0072,-0.0049
13193,45.667744,0.134271,94.61,28.26,5.36,40.0,14 / 17,698944,2019-08-12 10:36:21:434,-0.49,-0.1345,9.8137,-0.4513,-0.0214,9.7962,-0.0206,-0.0072,-0.0049
13194,45.667744,0.134271,94.61,28.26,5.36,40.0,14 / 17,698945,2019-08-12 10:36:21:435,-0.49,-0.1345,9.8137,-0.4513,-0.0214,9.7962,-0.0206,-0.0072,-0.0049
13195,45.667744,0.134271,94.61,28.26,5.36,40.0,14 / 17,698946,2019-08-12 10:36:21:436,-0.49,-0.1345,9.8137,-0.4513,-0.0214,9.7962,-0.0206,-0.0072,-0.0049
13196,45.667744,0.134271,94.61,28.26,5.36,40.0,14 / 17,698947,2019-08-12 10:36:21:437,-0.49,-0.1345,9.8137,-0.4513,-0.0214,9.7962,-0.0206,-0.0072,-0.0049
13197,45.667744,0.134271,94.61,28.26,5.36,40.0,14 / 17,698948,2019-08-12 10:36:21:438,-0.49,-0.1345,9.8137,-0.4513,-0.0214,9.7962,-0.0206,-0.0072,-0.0049
13198,45.667744,0.134271,94.61,28.26,5.36,40.0,14 / 17,698948,2019-08-12 10:36:21:438,-0.49,-0.1345,9.8137,-0.4513,-0.0214,9.7962,-0.0206,-0.0072,-0.0049
13199,45.667744,0.134271,94.61,28.26,5.36,40.0,14 / 17,698949,2019-08-12 10:36:21:439,-0.49,-0.1345,9.8137,-0.4513,-0.0214,9.7962,-0.0206,-0.0072,-0.0049
13200,45.667744,0.134271,94.61,28.26,5.36,40.0,14 / 17,698952,2019-08-12 10:36:21:442,-0.49,-0.1345,9.8137,-0.4513,-0.0214,9.7962,-0.0206,-0.0072,-0.0049
13201,45.667744,0.134271,94.61,28.26,5.36,40.0,14 / 17,698953,2019-08-12 10:36:21:443,-0.49,-0.1345,9.8137,-0.4513,-0.0214,9.7962,-0.0206,-0.0072,-0.0049
13202,45.667744,0.134271,94.61,28.26,5.36,40.0,14 / 17,698954,2019-08-12 10:36:21:444,-0.49,-0.1345,9.8137,-0.4513,-0.0214,9.7962,-0.0206,-0.0072,-0.0049
13203,45.667744,0.134271,94.61,28.26,5.36,40.0,14 / 17,698954,2019-08-12 10:36:21:444,-0.49,-0.1345,9.8137,-0.4513,-0.0214,9.7962,-0.0206,-0.0072,-0.0049
13204,45.667744,0.134271,94.61,28.26,5.36,40.0,14 / 17,698955,2019-08-12 10:36:21:445,-0.49,-0.1345,9.8137,-0.4513,-0.0214,9.7962,-0.0206,-0.0072,-0.0049
13205,45.667744,0.134271,94.61,28.26,5.36,40.0,14 / 17,698955,2019-08-12 10:36:21:445,-0.49,-0.1345,9.8137,-0.4513,-0.0214,9.7962,-0.0206,-0.0072,-0.0049
13206,45.667744,0.134271,94.61,28.26,5.36,40.0,14 / 17,698956,2019-08-12 10:36:21:446,-0.49,-0.1345,9.8137,-0.4513,-0.0214,9.7962,-0.0206,-0.0072,-0.0049
13207,45.667744,0.134271,94.61,28.26,5.36,40.0,14 / 17,698956,2019-08-12 10:36:21:446,-0.49,-0.1345,9.8137,-0.4513,-0.0214,9.7962,-0.0206,-0.0072,-0.0049
13208,45.667744,0.134271,94.61,28.26,5.36,40.0,14 / 17,698957,2019-08-12 10:36:21:447,-0.49,-0.1345,9.8137,-0.4513,-0.0214,9.7962,-0.0206,-0.0072,-0.0049
13209,45.667744,0.134271,94.61,28.26,5.36,40.0,14 / 17,698957,2019-08-12 10:36:21:447,-0.49,-0.1345,9.8137,-0.4513,-0.0214,9.7962,-0.0206,-0.0072,-0.0049
13210,45.667744,0.134271,94.61,28.26,5.36,40.0,14 / 17,698957,2019-08-12 10:36:21:447,-0.49,-0.1345,9.8137,-0.4513,-0.0214,9.7962,-0.0206,-0.0072,-0.0049
13211,45.667744,0.134271,94.61,28.26,5.36,40.0,14 / 17,698958,2019-08-12 10:36:21:448,-0.49,-0.1345,9.8137,-0.4513,-0.0214,9.7962,-0.0206,-0.0072,-0.0049
13212,45.667744,0.134271,94.61,28.26,5.36,40.0,14 / 17,698958,2019-08-12 10:36:21:448,-0.49,-0.1345,9.8137,-0.4513,-0.0214,9.7962,-0.0206,-0.0072,-0.0049
13213,45.667744,0.134271,94.61,28.26,5.36,40.0,14 / 17,698958,2019-08-12 10:36:21:448,-0.49,-0.1345,9.8137,-0.4513,-0.0214,9.7962,-0.0206,-0.0072,-0.0049
13214,45.667744,0.134271,94.61,28.26,5.36,40.0,14 / 17,698959,2019-08-12 10:36:21:449,-0.49,-0.1345,9.8137,-0.4513,-0.0214,9.7962,-0.0206,-0.0072,-0.0049
13215,45.667744,0.134271,94.61,28.26,5.36,40.0,14 / 17,698959,2019-08-12 10:36:21:449,-0.49,-0.1345,9.8137,-0.4513,-0.0214,9.7962,-0.0206,-0.0072,-0.0049
13216,45.667744,0.134271,94.61,28.26,5.36,40.0,14 / 17,698960,2019-08-12 10:36:21:450,-0.49,-0.1345,9.8137,-0.4513,-0.0214,9.7962,-0.0206,-0.0072,-0.0049
13217,45.667744,0.134271,94.61,28.26,5.36,40.0,14 / 17,698960,2019-08-12 10:36:21:450,-0.49,-0.1345,9.8137,-0.4513,-0.0214,9.7962,-0.0206,-0.0072,-0.0049
13218,45.667744,0.134271,94.61,28.26,5.36,40.0,14 / 17,699037,2019-08-12 10:36:21:527,-0.49,-0.1345,9.8137,-0.4513,-0.0214,9.7962,-0.0206,-0.0072,-0.0049
13219,45.667744,0.134271,94.61,28.26,5.36,40.0,14 / 17,699137,2019-08-12 10:36:21:627,-0.49,-0.1345,9.8137,-0.4513,-0.0214,9.7962,-0.0206,-0.0072,-0.0049
13220,45.667744,0.134271,94.61,28.26,5.36,40.0,14 / 17,699238,2019-08-12 10:36:21:728,-0.7546,-0.1919,9.8861,-0.7738,-0.1778,9.7745,0.0241,0.0173,-0.0049
13221,45.667744,0.134271,94.61,28.26,5.36,40.0,14 / 17,699337,2019-08-12 10:36:21:827,-0.8887,-0.3655,9.7137,-0.7647,-0.2034,9.7747,-0.0089,-0.005,-0.0049
13222,45.667744,0.134271,94.61,28.26,5.36,40.0,14 / 17,699437,2019-08-12 10:36:21:927,-0.7684,-0.0758,9.8137,-0.7554,-0.2087,9.7753,-0.0004,-0.0072,-0.0081
13223,45.667744,0.134271,94.61,28.26,5.36,40.0,14 / 17,699538,2019-08-12 10:36:22:028,-0.6726,-0.2799,9.8562,-0.7541,-0.203,9.7755,0.0124,0.0088,-0.0049
13224,45.667744,0.134271,94.61,28.26,5.36,40.0,14 / 17,699637,2019-08-12 10:36:22:127,-0.7785,-0.3547,9.8298,-0.76,-0.1995,9.7751,0.0124,0.0109,-0.0049
13225,45.667744,0.134271,94.61,28.26,5.36,40.0,14 / 17,699738,2019-08-12 10:36:22:228,-0.6211,-0.3218,9.5443,-0.7436,-0.2168,9.776,0.0039,-0.0061,-0.0081
13226,45.667744,0.134271,94.61,28.26,5.36,40.0,14 / 17,699837,2019-08-12 10:36:22:327,-0.7169,-0.235,10.4206,-0.7344,-0.2163,9.7767,0.005,-0.0093,-0.007
13227,45.667744,0.134271,94.61,28.26,5.36,40.0,14 / 17,699937,2019-08-12 10:36:22:427,-0.6457,-0.344,10.244,-0.725,-0.2301,9.7771,-0.0121,-0.0082,-0.007
13228,45.667744,0.134271,94.61,28.26,5.36,40.0,14 / 17,700037,2019-08-12 10:36:22:527,-0.8378,-0.0537,9.5024,-0.7296,-0.2392,9.7765,-0.0068,-0.0029,-0.006
13229,45.667744,0.134271,94.61,28.26,5.36,40.0,14 / 17,700137,2019-08-12 10:36:22:627,-0.7289,-0.1578,10.0507,-0.7507,-0.2472,9.7748,0.006,0.0109,-0.0038
13230,45.667744,0.134271,94.61,28.26,5.36,40.0,14 / 17,700237,2019-08-12 10:36:22:727,-0.6522,-0.3314,9.6646,-0.7605,-0.2471,9.774,0.0018,0.0109,-0.0038
13231,45.667744,0.134271,94.61,28.26,5.36,40.0,14 / 17,700337,2019-08-12 10:36:22:827,-1.0419,-0.1859,9.1062,-0.7683,-0.2429,9.7735,0.0103,0.0099,-0.006
13232,45.667744,0.134271,94.61,28.26,5.36,40.0,14 / 17,700437,2019-08-12 10:36:22:927,-0.7133,-0.1656,9.2169,-0.784,-0.2346,9.7724,0.0071,0.0109,-0.0038
13233,45.667744,0.134271,94.61,28.26,5.36,40.0,14 / 17,700537,2019-08-12 10:36:23:027,-1.103,-0.396,10.1758,-0.7931,-0.2333,9.7717,0.0018,0.0109,-0.0049
13234,45.667744,0.134271,94.61,28.26,5.36,40.0,14 / 17,700637,2019-08-12 10:36:23:127,-1.0754,-0.1219,9.7861,-0.8036,-0.2271,9.771,0.0039,0.012,-0.0049
13235,45.667744,0.134271,94.61,28.26,5.36,40.0,14 / 17,700737,2019-08-12 10:36:23:227,-0.8228,-0.2177,9.785,-0.8081,-0.2302,9.7706,-0.0025,-0.004,-0.006
13236,45.667744,0.134271,94.61,28.26,5.36,40.0,14 / 17,700837,2019-08-12 10:36:23:327,-0.9407,-0.1506,10.432,-0.7961,-0.2281,9.7716,0.0028,-0.0157,-0.006
13237,45.667744,0.134271,94.61,28.26,5.36,40.0,14 / 17,700937,2019-08-12 10:36:23:427,-0.8031,-0.1458,9.9735,-0.794,-0.2236,9.7719,0.006,-0.004,-0.0017
13238,45.667744,0.134271,94.61,28.26,5.36,40.0,14 / 17,701038,2019-08-12 10:36:23:528,-0.9785,-0.0279,9.5072,-0.802,-0.2187,9.7714,0.0007,0.0035,-0.0017
13239,45.667744,0.134271,94.61,28.26,5.36,40.0,14 / 17,701138,2019-08-12 10:36:23:628,-0.9342,0.0236,9.9011,-0.8031,-0.2157,9.7713,-0.0057,-0.0029,-0.0017
13240,45.667744,0.134271,94.61,28.26,5.36,40.0,14 / 17,701237,2019-08-12 10:36:23:727,-1.0317,-0.2572,10.162,-0.826,-0.1956,9.7698,0.0018,-0.0008,-0.0017
13241,45.667744,0.134271,94.61,28.26,5.36,40.0,14 / 17,701337,2019-08-12 10:36:23:827,-0.9108,-0.2248,9.5994,-0.8356,-0.1794,9.7693,0.0028,-0.0008,-0.0028
13242,45.667744,0.134271,94.61,28.26,5.36,40.0,14 / 17,701438,2019-08-12 10:36:23:928,-1.0485,-0.1333,10.3314,-0.8497,-0.1592,9.7685,-0.0004,0.0014,-0.0007
13243,45.667744,0.134271,94.61,28.26,5.36,40.0,14 / 17,701538,2019-08-12 10:36:24:028,-0.818,-0.265,9.5414,-0.8576,-0.1469,9.768,0.0071,0.0035,-0.0007
13244,45.667744,0.134271,94.61,28.26,5.36,40.0,14 / 17,701638,2019-08-12 10:36:24:128,-0.9862,-0.1961,9.4222,-0.8422,-0.126,9.7696,0.0007,0.0046,-0.0017
13245,45.667744,0.134271,94.61,28.26,5.36,40.0,14 / 17,701738,2019-08-12 10:36:24:228,-0.8073,-0.1722,9.7,-0.8386,-0.1266,9.7699,-0.0046,0.0046,-0.0028
13246,45.667744,0.134271,94.61,28.26,5.36,40.0,14 / 17,701837,2019-08-12 10:36:24:327,-1.0491,0.0266,9.1846,-0.8145,-0.128,9.7719,0.0092,0.0014,-0.0028
13247,45.667744,0.134271,94.61,28.26,5.36,40.0,14 / 17,701937,2019-08-12 10:36:24:427,-0.6139,0.0128,9.4617,-0.8136,-0.1265,9.772,-0.0025,0.0099,-0.0007
13248,45.667744,0.134271,94.61,28.26,5.36,40.0,14 / 17,702037,2019-08-12 10:36:24:527,-0.9252,-0.2308,9.9376,-0.8103,-0.1235,9.7723,0.0018,-0.0008,-0.0017
13249,45.667744,0.134271,94.61,28.26,5.36,40.0,14 / 17,702137,2019-08-12 10:36:24:627,-0.7887,-0.1602,9.7473,-0.8098,-0.1248,9.7724,-0.0004,0.0067,0.0004
13250,45.667744,0.134271,94.61,28.26,5.36,40.0,14 / 17,702237,2019-08-12 10:36:24:727,-0.8887,0.0613,9.533,-0.7877,-0.0973,9.7745,0.006,-0.0008,0.0015
13251,45.667744,0.134271,94.61,28.26,5.36,40.0,14 / 17,702338,2019-08-12 10:36:24:828,-0.7312,-0.0531,9.5491,-0.7527,-0.0916,9.7773,-0.0004,-0.0029,0.0025
13252,45.667744,0.134271,94.61,28.26,5.36,40.0,14 / 17,702437,2019-08-12 10:36:24:927,-0.6259,-0.0602,9.8789,-0.7313,-0.0642,9.7791,0.0135,-0.0008,0.0036
13253,45.667744,0.134271,94.61,28.26,5.36,40.0,14 / 17,702537,2019-08-12 10:36:25:027,-0.4775,0.19,9.7909,-0.7275,-0.0664,9.7794,-0.0036,0.0056,0.0047
13254,45.667744,0.134271,94.61,28.26,5.36,40.0,14 / 17,702637,2019-08-12 10:36:25:127,-0.6355,-0.0285,10.4954,-0.7239,-0.0587,9.7797,0.0028,0.0003,0.0036
13255,45.667744,0.134271,94.61,28.26,5.36,40.0,14 / 17,702738,2019-08-12 10:36:25:228,-0.6223,-0.0028,10.1806,-0.7243,-0.0523,9.7797,0.0103,0.0046,0.0057
13256,45.667744,0.134271,94.61,28.26,5.36,40.0,14 / 17,702838,2019-08-12 10:36:25:328,-0.5589,0.0882,9.2259,-0.7267,-0.0314,9.7796,0.0188,0.0099,0.0057
13257,45.66941,0.13638,105.61,25.72,5.36,41.1,Sep-17,702937,2019-08-12 10:36:25:427,-0.6576,0.1439,9.6072,-0.7105,0.0054,9.7809,0.0082,0.0003,0.0068
13258,45.66941,0.13638,105.61,25.72,5.36,41.1,Sep-17,703037,2019-08-12 10:36:25:527,-0.7193,0.257,9.6766,-0.702,0.0323,9.7814,-0.0004,-0.0072,0.0047
13259,45.66941,0.13638,105.61,25.72,5.36,41.1,Sep-17,703138,2019-08-12 10:36:25:628,-0.6199,0.2085,9.8676,-0.6886,0.0282,9.7824,-0.011,-0.0135,0.0047
13260,45.66941,0.13638,105.61,25.72,5.36,41.1,Sep-17,703239,2019-08-12 10:36:25:729,-0.8827,-0.0596,9.931,-0.6767,0.0256,9.7832,-0.0121,-0.0061,0.0047
13261,45.66941,0.13638,105.61,25.72,5.36,41.1,Sep-17,703339,2019-08-12 10:36:25:829,-0.8258,0.1594,9.5276,-0.6766,0.0216,9.7833,-0.011,-0.0018,0.0057
13262,45.66941,0.13638,105.61,25.72,5.36,41.1,Sep-17,703439,2019-08-12 10:36:25:929,-0.8599,-0.0004,9.7054,-0.6859,0.0148,9.7826,-0.0046,0.012,0.0047
13263,45.66941,0.13638,105.61,25.72,5.36,41.1,Sep-17,703539,2019-08-12 10:36:26:029,-0.818,-0.2231,10.3237,-0.6976,0.0195,9.7818,0.0028,0.0067,0.0036
13264,45.66941,0.13638,105.61,25.72,5.36,41.1,Sep-17,703638,2019-08-12 10:36:26:128,-0.5277,0.1421,10.0693,-0.6956,0.0114,9.7819,-0.0132,-0.0168,-0.0007
13265,45.66941,0.13638,105.61,25.72,5.36,41.1,Sep-17,703739,2019-08-12 10:36:26:229,-0.5762,-0.1375,10.165,-0.6853,0.014,9.7827,0.0092,-0.0093,-0.0007
13266,45.66941,0.13638,105.61,25.72,5.36,41.1,Sep-17,703839,2019-08-12 10:36:26:329,-0.9078,-0.2733,10.2015,-0.6898,-0.0214,9.7823,-0.0099,-0.0104,-0.0038
13267,45.66941,0.13638,105.61,25.72,5.36,41.1,Sep-17,703938,2019-08-12 10:36:26:428,-0.5912,-0.1847,9.9011,-0.6899,-0.0347,9.7823,-0.0089,0.0046,-0.007
13268,45.66941,0.13638,105.61,25.72,5.36,41.1,Sep-17,704039,2019-08-12 10:36:26:529,-0.6917,-0.1584,9.6545,-0.6996,-0.0515,9.7815,-0.0057,0.0109,-0.007
13269,45.66941,0.13638,105.61,25.72,5.36,41.1,Sep-17,704138,2019-08-12 10:36:26:628,-0.6133,-0.3757,9.4797,-0.7035,-0.0815,9.781,-0.0014,0.0088,-0.006
13270,45.66941,0.13638,105.61,25.72,5.36,41.1,Sep-17,704238,2019-08-12 10:36:26:728,-0.5427,-0.3062,9.3791,-0.693,-0.144,9.7811,0.006,0.0003,-0.0049
13271,45.66941,0.13638,105.61,25.72,5.36,41.1,Sep-17,704338,2019-08-12 10:36:26:828,-0.7241,-0.2518,9.5419,-0.6901,-0.1721,9.7808,0.0082,0.0099,-0.0049
13272,45.66941,0.13638,105.61,25.72,5.36,41.1,Sep-17,704438,2019-08-12 10:36:26:928,-0.8216,-0.3709,9.6006,-0.6898,-0.1675,9.7809,0.0082,-0.0018,-0.0049
13273,45.66941,0.13638,105.61,25.72,5.36,41.1,Sep-17,704537,2019-08-12 10:36:27:027,-0.5858,-0.3206,9.7048,-0.6877,-0.1675,9.7811,0.0082,0.0046,-0.0038
13274,45.66941,0.13638,105.61,25.72,5.36,41.1,Sep-17,704637,2019-08-12 10:36:27:127,-0.6056,-0.1051,9.8963,-0.701,-0.1628,9.7802,0.0092,0.0099,-0.0028
13275,45.66941,0.13638,105.61,25.72,5.36,41.1,Sep-17,704738,2019-08-12 10:36:27:228,-0.4763,0.014,9.7718,-0.688,-0.1724,9.781,-0.0046,0.0003,-0.0038
13276,45.66941,0.13638,105.61,25.72,5.36,41.1,Sep-17,704838,2019-08-12 10:36:27:328,-0.6427,-0.2913,9.9119,-0.6784,-0.165,9.7818,0.0028,-0.0072,-0.0028
13277,45.66941,0.13638,105.61,25.72,5.36,41.1,Sep-17,704937,2019-08-12 10:36:27:427,-0.7528,-0.2398,9.6796,-0.6787,-0.1557,9.7819,0.0071,0.012,-0.0007
13278,45.66941,0.13638,105.61,25.72,5.36,41.1,Sep-17,705037,2019-08-12 10:36:27:527,-0.7187,0.014,9.7766,-0.6773,-0.1506,9.7821,-0.0078,-0.0008,-0.0007
13279,45.66941,0.13638,105.61,25.72,5.36,41.1,Sep-17,705138,2019-08-12 10:36:27:628,-0.5589,-0.0345,9.9921,-0.6823,-0.1342,9.782,-0.0078,0.0056,0.0025
13280,45.66941,0.13638,105.61,25.72,5.36,41.1,Sep-17,705238,2019-08-12 10:36:27:728,-0.5684,0.0643,9.6688,-0.6893,-0.1144,9.7817,-0.0025,0.0067,0.0036
13281,45.66941,0.13638,105.61,25.72,5.36,41.1,Sep-17,705337,2019-08-12 10:36:27:827,-0.5092,0.1133,9.9998,-0.6758,-0.1005,9.7828,-0.0025,-0.0125,0.0036
13282,45.66941,0.13638,105.61,25.72,5.36,41.1,Sep-17,705437,2019-08-12 10:36:27:927,-0.6858,0.0768,10.2716,-0.6659,-0.0922,9.7836,0.005,-0.0125,0.0025
13283,45.66941,0.13638,105.61,25.72,5.36,41.1,Sep-17,705538,2019-08-12 10:36:28:028,-0.6091,-0.0782,9.7293,-0.6507,-0.0763,9.7847,0.0124,-0.004,0.0036
13284,45.66941,0.13638,105.61,25.72,5.36,41.1,Sep-17,705638,2019-08-12 10:36:28:128,-0.5792,-0.1369,9.6036,-0.6434,-0.0537,9.7854,0.0145,0.0056,0.0047
13285,45.66941,0.13638,105.61,25.72,5.36,41.1,Sep-17,705737,2019-08-12 10:36:28:227,-0.8653,-0.0614,9.8394,-0.6572,-0.0304,9.7846,-0.0004,0.012,0.0036
13286,45.66941,0.13638,105.61,25.72,5.36,41.1,Sep-17,705838,2019-08-12 10:36:28:328,-0.4631,0.0481,9.8574,-0.6697,-0.0151,9.7837,-0.0004,0.0173,0.0025
13287,45.66941,0.13638,105.61,25.72,5.36,41.1,Sep-17,705938,2019-08-12 10:36:28:428,-0.7055,-0.0986,9.7538,-0.6913,-0.0047,9.7823,-0.0025,0.0056,0.0015
13288,45.66941,0.13638,105.61,25.72,5.36,41.1,Sep-17,706037,2019-08-12 10:36:28:527,-0.6582,-0.1847,9.7448,-0.6959,-0.013,9.7819,-0.0004,-0.004,0.0004
13289,45.66941,0.13638,105.61,25.72,5.36,41.1,Sep-17,706137,2019-08-12 10:36:28:627,-0.8073,-0.1081,10.4003,-0.6987,-0.019,9.7817,-0.0014,0.0003,-0.0007
13290,45.66941,0.13638,105.61,25.72,5.36,41.1,Sep-17,706238,2019-08-12 10:36:28:728,-0.8599,0.0146,9.9358,-0.6958,-0.0155,9.7819,0.0114,-0.0093,0.0004
13291,45.66941,0.13638,105.61,25.72,5.36,41.1,Sep-17,706338,2019-08-12 10:36:28:828,-0.8725,-0.1309,9.9322,-0.6889,-0.0239,9.7824,-0.0025,0.0014,0.0004
13292,45.66941,0.13638,105.61,25.72,5.36,41.1,Sep-17,706438,2019-08-12 10:36:28:928,-0.7863,-0.1189,10.1602,-0.6855,-0.0289,9.7826,0.0007,0.0024,0.0004
13293,45.66941,0.13638,105.61,25.72,5.36,41.1,Sep-17,706538,2019-08-12 10:36:29:028,-0.818,-0.1045,10.2237,-0.6775,-0.0529,9.7831,-0.0014,-0.0093,-0.0017
13294,45.66941,0.13638,105.61,25.72,5.36,41.1,Sep-17,706637,2019-08-12 10:36:29:127,-0.4852,-0.1632,9.7874,-0.6652,-0.0664,9.7838,-0.0014,-0.0008,-0.0028
13295,45.66941,0.13638,105.61,25.72,5.36,41.1,Sep-17,706738,2019-08-12 10:36:29:228,-0.8216,-0.1632,9.9352,-0.6636,-0.0821,9.7838,0.0007,0.0014,-0.0017
13296,45.66941,0.13638,105.61,25.72,5.36,41.1,Sep-17,706838,2019-08-12 10:36:29:328,-0.5409,-0.3009,9.4426,-0.6671,-0.0957,9.7835,-0.0004,0.0035,-0.0038
13297,45.66941,0.13638,105.61,25.72,5.36,41.1,Sep-17,706939,2019-08-12 10:36:29:429,-0.7731,0.0164,9.8275,-0.666,-0.1027,9.7835,0.0028,-0.0072,-0.0028
13298,45.66941,0.13638,105.61,25.72,5.36,41.1,Sep-17,707314,2019-08-12 10:36:29:804,-0.3356,-0.2637,10.2117,-0.6635,-0.1067,9.7836,-0.0046,-0.0061,-0.0028
13299,45.66941,0.13638,105.61,25.72,5.36,41.1,Sep-17,707314,2019-08-12 10:36:29:804,-0.3356,-0.2637,10.2117,-0.6635,-0.1067,9.7836,-0.0046,-0.0061,-0.0028
13300,45.66941,0.13638,105.61,25.72,5.36,41.1,Sep-17,707318,2019-08-12 10:36:29:808,-0.3356,-0.2637,10.2117,-0.6635,-0.1067,9.7836,-0.0046,-0.0061,-0.0028
13301,45.66941,0.13638,105.61,25.72,5.36,41.1,Sep-17,707322,2019-08-12 10:36:29:812,-0.3356,-0.2637,10.2117,-0.6635,-0.1067,9.7836,-0.0046,-0.0061,-0.0028
13302,45.66941,0.13638,105.61,25.72,5.36,41.1,Sep-17,707323,2019-08-12 10:36:29:813,-0.3356,-0.2637,10.2117,-0.6635,-0.1067,9.7836,-0.0046,-0.0061,-0.0028
13303,45.66941,0.13638,105.61,25.72,5.36,41.1,Sep-17,707324,2019-08-12 10:36:29:814,-0.3356,-0.2637,10.2117,-0.6635,-0.1067,9.7836,-0.0046,-0.0061,-0.0028
13304,45.66941,0.13638,105.61,25.72,5.36,41.1,Sep-17,707324,2019-08-12 10:36:29:814,-0.3356,-0.2637,10.2117,-0.6635,-0.1067,9.7836,-0.0046,-0.0061,-0.0028
13305,45.66941,0.13638,105.61,25.72,5.36,41.1,Sep-17,707325,2019-08-12 10:36:29:815,-0.3356,-0.2637,10.2117,-0.6635,-0.1067,9.7836,-0.0046,-0.0061,-0.0028
13306,45.66941,0.13638,105.61,25.72,5.36,41.1,Sep-17,707325,2019-08-12 10:36:29:815,-0.3356,-0.2637,10.2117,-0.6635,-0.1067,9.7836,-0.0046,-0.0061,-0.0028
13307,45.66941,0.13638,105.61,25.72,5.36,41.1,Sep-17,707326,2019-08-12 10:36:29:816,-0.3356,-0.2637,10.2117,-0.6635,-0.1067,9.7836,-0.0046,-0.0061,-0.0028
13308,45.66941,0.13638,105.61,25.72,5.36,41.1,Sep-17,707326,2019-08-12 10:36:29:816,-0.3356,-0.2637,10.2117,-0.6635,-0.1067,9.7836,-0.0046,-0.0061,-0.0028
13309,45.66941,0.13638,105.61,25.72,5.36,41.1,Sep-17,707326,2019-08-12 10:36:29:816,-0.3356,-0.2637,10.2117,-0.6635,-0.1067,9.7836,-0.0046,-0.0061,-0.0028
13310,45.66941,0.13638,105.61,25.72,5.36,41.1,Sep-17,707327,2019-08-12 10:36:29:817,-0.3356,-0.2637,10.2117,-0.6635,-0.1067,9.7836,-0.0046,-0.0061,-0.0028
13311,45.66941,0.13638,105.61,25.72,5.36,41.1,Sep-17,707327,2019-08-12 10:36:29:817,-0.3356,-0.2637,10.2117,-0.6635,-0.1067,9.7836,-0.0046,-0.0061,-0.0028
13312,45.66941,0.13638,105.61,25.72,5.36,41.1,Sep-17,707328,2019-08-12 10:36:29:818,-0.3356,-0.2637,10.2117,-0.6635,-0.1067,9.7836,-0.0046,-0.0061,-0.0028
13313,45.66941,0.13638,105.61,25.72,5.36,41.1,Sep-17,707328,2019-08-12 10:36:29:818,-0.3356,-0.2637,10.2117,-0.6635,-0.1067,9.7836,-0.0046,-0.0061,-0.0028
13314,45.66941,0.13638,105.61,25.72,5.36,41.1,Sep-17,707329,2019-08-12 10:36:29:819,-0.3356,-0.2637,10.2117,-0.6635,-0.1067,9.7836,-0.0046,-0.0061,-0.0028
13315,45.66941,0.13638,105.61,25.72,5.36,41.1,Sep-17,707339,2019-08-12 10:36:29:829,-0.3356,-0.2637,10.2117,-0.6635,-0.1067,9.7836,-0.0046,-0.0061,-0.0028
13316,45.66941,0.13638,105.61,25.72,5.36,41.1,Sep-17,707339,2019-08-12 10:36:29:829,-0.3356,-0.2637,10.2117,-0.6635,-0.1067,9.7836,-0.0046,-0.0061,-0.0028
13317,45.66941,0.13638,105.61,25.72,5.36,41.1,Sep-17,707340,2019-08-12 10:36:29:830,-0.3356,-0.2637,10.2117,-0.6635,-0.1067,9.7836,-0.0046,-0.0061,-0.0028
13318,45.66941,0.13638,105.61,25.72,5.36,41.1,Sep-17,707340,2019-08-12 10:36:29:830,-0.3356,-0.2637,10.2117,-0.6635,-0.1067,9.7836,-0.0046,-0.0061,-0.0028
13319,45.66941,0.13638,105.61,25.72,5.36,41.1,Sep-17,707341,2019-08-12 10:36:29:831,-0.3356,-0.2637,10.2117,-0.6635,-0.1067,9.7836,-0.0046,-0.0061,-0.0028
13320,45.66941,0.13638,105.61,25.72,5.36,41.1,Sep-17,707341,2019-08-12 10:36:29:831,-0.3356,-0.2637,10.2117,-0.6635,-0.1067,9.7836,-0.0046,-0.0061,-0.0028
13321,45.66941,0.13638,105.61,25.72,5.36,41.1,Sep-17,707341,2019-08-12 10:36:29:831,-0.3356,-0.2637,10.2117,-0.6635,-0.1067,9.7836,-0.0046,-0.0061,-0.0028
13322,45.66941,0.13638,105.61,25.72,5.36,41.1,Sep-17,707342,2019-08-12 10:36:29:832,-0.3356,-0.2637,10.2117,-0.6635,-0.1067,9.7836,-0.0046,-0.0061,-0.0028
13323,45.66941,0.13638,105.61,25.72,5.36,41.1,Sep-17,707343,2019-08-12 10:36:29:833,-0.3356,-0.2637,10.2117,-0.6635,-0.1067,9.7836,-0.0046,-0.0061,-0.0028
13324,45.66941,0.13638,105.61,25.72,5.36,41.1,Sep-17,707343,2019-08-12 10:36:29:833,-0.3356,-0.2637,10.2117,-0.6635,-0.1067,9.7836,-0.0046,-0.0061,-0.0028
13325,45.66941,0.13638,105.61,25.72,5.36,41.1,Sep-17,707343,2019-08-12 10:36:29:833,-0.3356,-0.2637,10.2117,-0.6635,-0.1067,9.7836,-0.0046,-0.0061,-0.0028
13326,45.66941,0.13638,105.61,25.72,5.36,41.1,Sep-17,707344,2019-08-12 10:36:29:834,-0.3356,-0.2637,10.2117,-0.6635,-0.1067,9.7836,-0.0046,-0.0061,-0.0028
13327,45.66941,0.13638,105.61,25.72,5.36,41.1,Sep-17,707344,2019-08-12 10:36:29:834,-0.3356,-0.2637,10.2117,-0.6635,-0.1067,9.7836,-0.0046,-0.0061,-0.0028
13328,45.66941,0.13638,105.61,25.72,5.36,41.1,Sep-17,707345,2019-08-12 10:36:29:835,-0.3356,-0.2637,10.2117,-0.6635,-0.1067,9.7836,-0.0046,-0.0061,-0.0028
13329,45.66941,0.13638,105.61,25.72,5.36,41.1,Sep-17,707345,2019-08-12 10:36:29:835,-0.3356,-0.2637,10.2117,-0.6635,-0.1067,9.7836,-0.0046,-0.0061,-0.0028
13330,45.66941,0.13638,105.61,25.72,5.36,41.1,Sep-17,707345,2019-08-12 10:36:29:835,-0.3356,-0.2637,10.2117,-0.6635,-0.1067,9.7836,-0.0046,-0.0061,-0.0028
13331,45.66941,0.13638,105.61,25.72,5.36,41.1,Sep-17,707346,2019-08-12 10:36:29:836,-0.3356,-0.2637,10.2117,-0.6635,-0.1067,9.7836,-0.0046,-0.0061,-0.0028
13332,45.66941,0.13638,105.61,25.72,5.36,41.1,Sep-17,707346,2019-08-12 10:36:29:836,-0.3356,-0.2637,10.2117,-0.6635,-0.1067,9.7836,-0.0046,-0.0061,-0.0028
13333,45.66941,0.13638,105.61,25.72,5.36,41.1,Sep-17,707347,2019-08-12 10:36:29:837,-0.3356,-0.2637,10.2117,-0.6635,-0.1067,9.7836,-0.0046,-0.0061,-0.0028
13334,45.66941,0.13638,105.61,25.72,5.36,41.1,Sep-17,707347,2019-08-12 10:36:29:837,-0.3356,-0.2637,10.2117,-0.6635,-0.1067,9.7836,-0.0046,-0.0061,-0.0028
13335,45.66941,0.13638,105.61,25.72,5.36,41.1,Sep-17,707347,2019-08-12 10:36:29:837,-0.3356,-0.2637,10.2117,-0.6635,-0.1067,9.7836,-0.0046,-0.0061,-0.0028
13336,45.66941,0.13638,105.61,25.72,5.36,41.1,Sep-17,707348,2019-08-12 10:36:29:838,-0.3356,-0.2637,10.2117,-0.6635,-0.1067,9.7836,-0.0046,-0.0061,-0.0028
13337,45.66941,0.13638,105.61,25.72,5.36,41.1,Sep-17,707348,2019-08-12 10:36:29:838,-0.3356,-0.2637,10.2117,-0.6635,-0.1067,9.7836,-0.0046,-0.0061,-0.0028
13338,45.66941,0.13638,105.61,25.72,5.36,41.1,Sep-17,707396,2019-08-12 10:36:29:886,-0.3356,-0.2637,10.2117,-0.6635,-0.1067,9.7836,-0.0046,-0.0061,-0.0028
13339,45.66941,0.13638,105.61,25.72,5.36,41.1,Aug-16,707784,2019-08-12 10:36:30:274,-0.3356,-0.2637,10.2117,-0.6635,-0.1067,9.7836,-0.0046,-0.0061,-0.0028
13340,45.66941,0.13638,105.61,25.72,5.36,41.1,Aug-16,707784,2019-08-12 10:36:30:274,-0.3356,-0.2637,10.2117,-0.6635,-0.1067,9.7836,-0.0046,-0.0061,-0.0028
13341,45.66941,0.13638,105.61,25.72,5.36,41.1,Aug-16,707785,2019-08-12 10:36:30:275,-0.3356,-0.2637,10.2117,-0.6635,-0.1067,9.7836,-0.0046,-0.0061,-0.0028
13342,45.66941,0.13638,105.61,25.72,5.36,41.1,Aug-16,707785,2019-08-12 10:36:30:275,-0.3356,-0.2637,10.2117,-0.6635,-0.1067,9.7836,-0.0046,-0.0061,-0.0028
13343,45.66941,0.13638,105.61,25.72,5.36,41.1,Aug-16,707786,2019-08-12 10:36:30:276,-0.3356,-0.2637,10.2117,-0.6635,-0.1067,9.7836,-0.0046,-0.0061,-0.0028
13344,45.66941,0.13638,105.61,25.72,5.36,41.1,Aug-16,707786,2019-08-12 10:36:30:276,-0.3356,-0.2637,10.2117,-0.6635,-0.1067,9.7836,-0.0046,-0.0061,-0.0028
13345,45.66941,0.13638,105.61,25.72,5.36,41.1,Aug-16,707787,2019-08-12 10:36:30:277,-0.3356,-0.2637,10.2117,-0.6635,-0.1067,9.7836,-0.0046,-0.0061,-0.0028
13346,45.66941,0.13638,105.61,25.72,5.36,41.1,Aug-16,707787,2019-08-12 10:36:30:277,-0.3356,-0.2637,10.2117,-0.6635,-0.1067,9.7836,-0.0046,-0.0061,-0.0028
13347,45.66941,0.13638,105.61,25.72,5.36,41.1,Aug-16,707787,2019-08-12 10:36:30:277,-0.3356,-0.2637,10.2117,-0.6635,-0.1067,9.7836,-0.0046,-0.0061,-0.0028
13348,45.66941,0.13638,105.61,25.72,5.36,41.1,Aug-16,707788,2019-08-12 10:36:30:278,-0.3356,-0.2637,10.2117,-0.6635,-0.1067,9.7836,-0.0046,-0.0061,-0.0028
13349,45.66941,0.13638,105.61,25.72,5.36,41.1,Aug-16,707788,2019-08-12 10:36:30:278,-0.3356,-0.2637,10.2117,-0.6635,-0.1067,9.7836,-0.0046,-0.0061,-0.0028
13350,45.66941,0.13638,105.61,25.72,5.36,41.1,Aug-16,707788,2019-08-12 10:36:30:278,-0.3356,-0.2637,10.2117,-0.6635,-0.1067,9.7836,-0.0046,-0.0061,-0.0028
13351,45.66941,0.13638,105.61,25.72,5.36,41.1,Aug-16,707789,2019-08-12 10:36:30:279,-0.3356,-0.2637,10.2117,-0.6635,-0.1067,9.7836,-0.0046,-0.0061,-0.0028
13352,45.66941,0.13638,105.61,25.72,5.36,41.1,Aug-16,707789,2019-08-12 10:36:30:279,-0.3356,-0.2637,10.2117,-0.6635,-0.1067,9.7836,-0.0046,-0.0061,-0.0028
13353,45.66941,0.13638,105.61,25.72,5.36,41.1,Aug-16,707790,2019-08-12 10:36:30:280,-0.3356,-0.2637,10.2117,-0.6635,-0.1067,9.7836,-0.0046,-0.0061,-0.0028
13354,45.66941,0.13638,105.61,25.72,5.36,41.1,Aug-16,707790,2019-08-12 10:36:30:280,-0.3356,-0.2637,10.2117,-0.6635,-0.1067,9.7836,-0.0046,-0.0061,-0.0028
13355,45.66941,0.13638,105.61,25.72,5.36,41.1,Aug-16,707790,2019-08-12 10:36:30:280,-0.3356,-0.2637,10.2117,-0.6635,-0.1067,9.7836,-0.0046,-0.0061,-0.0028
13356,45.66941,0.13638,105.61,25.72,5.36,41.1,Aug-16,707791,2019-08-12 10:36:30:281,-0.3356,-0.2637,10.2117,-0.6635,-0.1067,9.7836,-0.0046,-0.0061,-0.0028
13357,45.66941,0.13638,105.61,25.72,5.36,41.1,Aug-16,707791,2019-08-12 10:36:30:281,-0.3356,-0.2637,10.2117,-0.6635,-0.1067,9.7836,-0.0046,-0.0061,-0.0028
13358,45.66941,0.13638,105.61,25.72,5.36,41.1,Aug-16,707791,2019-08-12 10:36:30:281,-0.3356,-0.2637,10.2117,-0.6635,-0.1067,9.7836,-0.0046,-0.0061,-0.0028
13359,45.66941,0.13638,105.61,25.72,5.36,41.1,Aug-16,707792,2019-08-12 10:36:30:282,-0.3356,-0.2637,10.2117,-0.6635,-0.1067,9.7836,-0.0046,-0.0061,-0.0028
13360,45.66941,0.13638,105.61,25.72,5.36,41.1,Aug-16,707798,2019-08-12 10:36:30:288,-0.3356,-0.2637,10.2117,-0.6635,-0.1067,9.7836,-0.0046,-0.0061,-0.0028
13361,45.66941,0.13638,105.61,25.72,5.36,41.1,Aug-16,707798,2019-08-12 10:36:30:288,-0.3356,-0.2637,10.2117,-0.6635,-0.1067,9.7836,-0.0046,-0.0061,-0.0028
13362,45.66941,0.13638,105.61,25.72,5.36,41.1,Aug-16,707799,2019-08-12 10:36:30:289,-0.3356,-0.2637,10.2117,-0.6635,-0.1067,9.7836,-0.0046,-0.0061,-0.0028
13363,45.66941,0.13638,105.61,25.72,5.36,41.1,Aug-16,707800,2019-08-12 10:36:30:290,-0.3356,-0.2637,10.2117,-0.6635,-0.1067,9.7836,-0.0046,-0.0061,-0.0028
13364,45.66941,0.13638,105.61,25.72,5.36,41.1,Aug-16,707800,2019-08-12 10:36:30:290,-0.3356,-0.2637,10.2117,-0.6635,-0.1067,9.7836,-0.0046,-0.0061,-0.0028
13365,45.66941,0.13638,105.61,25.72,5.36,41.1,Aug-16,707801,2019-08-12 10:36:30:291,-0.3356,-0.2637,10.2117,-0.6635,-0.1067,9.7836,-0.0046,-0.0061,-0.0028
13366,45.66941,0.13638,105.61,25.72,5.36,41.1,Aug-16,707801,2019-08-12 10:36:30:291,-0.3356,-0.2637,10.2117,-0.6635,-0.1067,9.7836,-0.0046,-0.0061,-0.0028
13367,45.66941,0.13638,105.61,25.72,5.36,41.1,Aug-16,707801,2019-08-12 10:36:30:291,-0.3356,-0.2637,10.2117,-0.6635,-0.1067,9.7836,-0.0046,-0.0061,-0.0028
13368,45.66941,0.13638,105.61,25.72,5.36,41.1,Aug-16,707802,2019-08-12 10:36:30:292,-0.3356,-0.2637,10.2117,-0.6635,-0.1067,9.7836,-0.0046,-0.0061,-0.0028
13369,45.66941,0.13638,105.61,25.72,5.36,41.1,Aug-16,707802,2019-08-12 10:36:30:292,-0.3356,-0.2637,10.2117,-0.6635,-0.1067,9.7836,-0.0046,-0.0061,-0.0028
13370,45.66941,0.13638,105.61,25.72,5.36,41.1,Aug-16,707803,2019-08-12 10:36:30:293,-0.3356,-0.2637,10.2117,-0.6635,-0.1067,9.7836,-0.0046,-0.0061,-0.0028
13371,45.66941,0.13638,105.61,25.72,5.36,41.1,Aug-16,707803,2019-08-12 10:36:30:293,-0.3356,-0.2637,10.2117,-0.6635,-0.1067,9.7836,-0.0046,-0.0061,-0.0028
13372,45.66941,0.13638,105.61,25.72,5.36,41.1,Aug-16,707804,2019-08-12 10:36:30:294,-0.3356,-0.2637,10.2117,-0.6635,-0.1067,9.7836,-0.0046,-0.0061,-0.0028
13373,45.66941,0.13638,105.61,25.72,5.36,41.1,Aug-16,707804,2019-08-12 10:36:30:294,-0.3356,-0.2637,10.2117,-0.6635,-0.1067,9.7836,-0.0046,-0.0061,-0.0028
13374,45.66941,0.13638,105.61,25.72,5.36,41.1,Aug-16,707805,2019-08-12 10:36:30:295,-0.3356,-0.2637,10.2117,-0.6635,-0.1067,9.7836,-0.0046,-0.0061,-0.0028
13375,45.66941,0.13638,105.61,25.72,5.36,41.1,Aug-16,707805,2019-08-12 10:36:30:295,-0.3356,-0.2637,10.2117,-0.6635,-0.1067,9.7836,-0.0046,-0.0061,-0.0028
13376,45.66941,0.13638,105.61,25.72,5.36,41.1,Aug-16,707806,2019-08-12 10:36:30:296,-0.3356,-0.2637,10.2117,-0.6635,-0.1067,9.7836,-0.0046,-0.0061,-0.0028
13377,45.66941,0.13638,105.61,25.72,5.36,41.1,Aug-16,707806,2019-08-12 10:36:30:296,-0.3356,-0.2637,10.2117,-0.6635,-0.1067,9.7836,-0.0046,-0.0061,-0.0028
13378,45.66941,0.13638,105.61,25.72,5.36,41.1,Aug-16,707807,2019-08-12 10:36:30:297,-0.3356,-0.2637,10.2117,-0.6635,-0.1067,9.7836,-0.0046,-0.0061,-0.0028
13379,45.66941,0.13638,105.61,25.72,5.36,41.1,Aug-16,707807,2019-08-12 10:36:30:297,-0.3356,-0.2637,10.2117,-0.6635,-0.1067,9.7836,-0.0046,-0.0061,-0.0028
13380,45.66941,0.13638,105.61,25.72,5.36,41.1,Aug-16,707808,2019-08-12 10:36:30:298,-0.3356,-0.2637,10.2117,-0.6635,-0.1067,9.7836,-0.0046,-0.0061,-0.0028
13381,45.66941,0.13638,105.61,25.72,5.36,41.1,Aug-16,707808,2019-08-12 10:36:30:298,-0.3356,-0.2637,10.2117,-0.6635,-0.1067,9.7836,-0.0046,-0.0061,-0.0028
13382,45.66941,0.13638,105.61,25.72,5.36,41.1,Aug-16,707808,2019-08-12 10:36:30:298,-0.3356,-0.2637,10.2117,-0.6635,-0.1067,9.7836,-0.0046,-0.0061,-0.0028
13383,45.66941,0.13638,105.61,25.72,5.36,41.1,Aug-16,707810,2019-08-12 10:36:30:300,-0.3356,-0.2637,10.2117,-0.6635,-0.1067,9.7836,-0.0046,-0.0061,-0.0028
13384,45.66941,0.13638,105.61,25.72,5.36,41.1,Aug-16,707811,2019-08-12 10:36:30:301,-0.3356,-0.2637,10.2117,-0.6635,-0.1067,9.7836,-0.0046,-0.0061,-0.0028
13385,45.66941,0.13638,105.61,25.72,5.36,41.1,Aug-16,707812,2019-08-12 10:36:30:302,-0.3356,-0.2637,10.2117,-0.6635,-0.1067,9.7836,-0.0046,-0.0061,-0.0028
13386,45.66941,0.13638,105.61,25.72,5.36,41.1,Aug-16,707813,2019-08-12 10:36:30:303,-0.3356,-0.2637,10.2117,-0.6635,-0.1067,9.7836,-0.0046,-0.0061,-0.0028
13387,45.66941,0.13638,105.61,25.72,5.36,41.1,Aug-16,707814,2019-08-12 10:36:30:304,-0.3356,-0.2637,10.2117,-0.6635,-0.1067,9.7836,-0.0046,-0.0061,-0.0028
13388,45.66941,0.13638,105.61,25.72,5.36,41.1,Aug-16,707814,2019-08-12 10:36:30:304,-0.3356,-0.2637,10.2117,-0.6635,-0.1067,9.7836,-0.0046,-0.0061,-0.0028
13389,45.66941,0.13638,105.61,25.72,5.36,41.1,Aug-16,707815,2019-08-12 10:36:30:305,-0.3356,-0.2637,10.2117,-0.6635,-0.1067,9.7836,-0.0046,-0.0061,-0.0028
13390,45.66941,0.13638,105.61,25.72,5.36,41.1,Aug-16,707815,2019-08-12 10:36:30:305,-0.3356,-0.2637,10.2117,-0.6635,-0.1067,9.7836,-0.0046,-0.0061,-0.0028
13391,45.66941,0.13638,105.61,25.72,5.36,41.1,Aug-16,707816,2019-08-12 10:36:30:306,-0.3356,-0.2637,10.2117,-0.6635,-0.1067,9.7836,-0.0046,-0.0061,-0.0028
13392,45.66941,0.13638,105.61,25.72,5.36,41.1,Aug-16,707816,2019-08-12 10:36:30:306,-0.3356,-0.2637,10.2117,-0.6635,-0.1067,9.7836,-0.0046,-0.0061,-0.0028
13393,45.66941,0.13638,105.61,25.72,5.36,41.1,Aug-16,707817,2019-08-12 10:36:30:307,-0.3356,-0.2637,10.2117,-0.6635,-0.1067,9.7836,-0.0046,-0.0061,-0.0028
13394,45.66941,0.13638,105.61,25.72,5.36,41.1,Aug-16,707817,2019-08-12 10:36:30:307,-0.3356,-0.2637,10.2117,-0.6635,-0.1067,9.7836,-0.0046,-0.0061,-0.0028
13395,45.66941,0.13638,105.61,25.72,5.36,41.1,Aug-16,707818,2019-08-12 10:36:30:308,-0.3356,-0.2637,10.2117,-0.6635,-0.1067,9.7836,-0.0046,-0.0061,-0.0028
13396,45.66941,0.13638,105.61,25.72,5.36,41.1,Aug-16,707818,2019-08-12 10:36:30:308,-0.3356,-0.2637,10.2117,-0.6635,-0.1067,9.7836,-0.0046,-0.0061,-0.0028
13397,45.66941,0.13638,105.61,25.72,5.36,41.1,Aug-16,707819,2019-08-12 10:36:30:309,-0.3356,-0.2637,10.2117,-0.6635,-0.1067,9.7836,-0.0046,-0.0061,-0.0028
13398,45.66941,0.13638,105.61,25.72,5.36,41.1,Aug-16,707819,2019-08-12 10:36:30:309,-0.3356,-0.2637,10.2117,-0.6635,-0.1067,9.7836,-0.0046,-0.0061,-0.0028
13399,45.66941,0.13638,105.61,25.72,5.36,41.1,Aug-16,707820,2019-08-12 10:36:30:310,-0.3356,-0.2637,10.2117,-0.6635,-0.1067,9.7836,-0.0046,-0.0061,-0.0028
13400,45.66941,0.13638,105.61,25.72,5.36,41.1,Aug-16,707822,2019-08-12 10:36:30:312,-0.3356,-0.2637,10.2117,-0.6635,-0.1067,9.7836,-0.0046,-0.0061,-0.0028
13401,45.66941,0.13638,105.61,25.72,5.36,41.1,Aug-16,707823,2019-08-12 10:36:30:313,-0.3356,-0.2637,10.2117,-0.6635,-0.1067,9.7836,-0.0046,-0.0061,-0.0028
13402,45.66941,0.13638,105.61,25.72,5.36,41.1,Aug-16,707823,2019-08-12 10:36:30:313,-0.3356,-0.2637,10.2117,-0.6635,-0.1067,9.7836,-0.0046,-0.0061,-0.0028
13403,45.66941,0.13638,105.61,25.72,5.36,41.1,Aug-16,707824,2019-08-12 10:36:30:314,-0.3356,-0.2637,10.2117,-0.6635,-0.1067,9.7836,-0.0046,-0.0061,-0.0028
13404,45.66941,0.13638,105.61,25.72,5.36,41.1,Aug-16,707824,2019-08-12 10:36:30:314,-0.3356,-0.2637,10.2117,-0.6635,-0.1067,9.7836,-0.0046,-0.0061,-0.0028
13405,45.66941,0.13638,105.61,25.72,5.36,41.1,Aug-16,707824,2019-08-12 10:36:30:314,-0.3356,-0.2637,10.2117,-0.6635,-0.1067,9.7836,-0.0046,-0.0061,-0.0028
13406,45.66941,0.13638,105.61,25.72,5.36,41.1,Aug-16,707825,2019-08-12 10:36:30:315,-0.3356,-0.2637,10.2117,-0.6635,-0.1067,9.7836,-0.0046,-0.0061,-0.0028
13407,45.66941,0.13638,105.61,25.72,5.36,41.1,Aug-16,707825,2019-08-12 10:36:30:315,-0.3356,-0.2637,10.2117,-0.6635,-0.1067,9.7836,-0.0046,-0.0061,-0.0028
13408,45.66941,0.13638,105.61,25.72,5.36,41.1,Aug-16,707825,2019-08-12 10:36:30:315,-0.3356,-0.2637,10.2117,-0.6635,-0.1067,9.7836,-0.0046,-0.0061,-0.0028
13409,45.66941,0.13638,105.61,25.72,5.36,41.1,Aug-16,707826,2019-08-12 10:36:30:316,-0.3356,-0.2637,10.2117,-0.6635,-0.1067,9.7836,-0.0046,-0.0061,-0.0028
13410,45.66941,0.13638,105.61,25.72,5.36,41.1,Aug-16,707826,2019-08-12 10:36:30:316,-0.3356,-0.2637,10.2117,-0.6635,-0.1067,9.7836,-0.0046,-0.0061,-0.0028
13411,45.66941,0.13638,105.61,25.72,5.36,41.1,Aug-16,707827,2019-08-12 10:36:30:317,-0.3356,-0.2637,10.2117,-0.6635,-0.1067,9.7836,-0.0046,-0.0061,-0.0028
13412,45.66941,0.13638,105.61,25.72,5.36,41.1,Aug-16,707827,2019-08-12 10:36:30:317,-0.3356,-0.2637,10.2117,-0.6635,-0.1067,9.7836,-0.0046,-0.0061,-0.0028
13413,45.66941,0.13638,105.61,25.72,5.36,41.1,Aug-16,707828,2019-08-12 10:36:30:318,-0.3356,-0.2637,10.2117,-0.6635,-0.1067,9.7836,-0.0046,-0.0061,-0.0028
13414,45.66941,0.13638,105.61,25.72,5.36,41.1,Aug-16,707828,2019-08-12 10:36:30:318,-0.3356,-0.2637,10.2117,-0.6635,-0.1067,9.7836,-0.0046,-0.0061,-0.0028
13415,45.66941,0.13638,105.61,25.72,5.36,41.1,Aug-16,707829,2019-08-12 10:36:30:319,-0.3356,-0.2637,10.2117,-0.6635,-0.1067,9.7836,-0.0046,-0.0061,-0.0028
13416,45.66941,0.13638,105.61,25.72,5.36,41.1,Aug-16,707829,2019-08-12 10:36:30:319,-0.3356,-0.2637,10.2117,-0.6635,-0.1067,9.7836,-0.0046,-0.0061,-0.0028
13417,45.66941,0.13638,105.61,25.72,5.36,41.1,Aug-16,707829,2019-08-12 10:36:30:319,-0.3356,-0.2637,10.2117,-0.6635,-0.1067,9.7836,-0.0046,-0.0061,-0.0028
13418,45.66941,0.13638,105.61,25.72,5.36,41.1,Aug-16,707830,2019-08-12 10:36:30:320,-0.3356,-0.2637,10.2117,-0.6635,-0.1067,9.7836,-0.0046,-0.0061,-0.0028
13419,45.66941,0.13638,105.61,25.72,5.36,41.1,Aug-16,707830,2019-08-12 10:36:30:320,-0.3356,-0.2637,10.2117,-0.6635,-0.1067,9.7836,-0.0046,-0.0061,-0.0028
13420,45.66941,0.13638,105.61,25.72,5.36,41.1,Aug-16,707830,2019-08-12 10:36:30:320,-0.3356,-0.2637,10.2117,-0.6635,-0.1067,9.7836,-0.0046,-0.0061,-0.0028
13421,45.66941,0.13638,105.61,25.72,5.36,41.1,Aug-16,707831,2019-08-12 10:36:30:321,-0.3356,-0.2637,10.2117,-0.6635,-0.1067,9.7836,-0.0046,-0.0061,-0.0028
13422,45.66941,0.13638,105.61,25.72,5.36,41.1,Aug-16,707831,2019-08-12 10:36:30:321,-0.3356,-0.2637,10.2117,-0.6635,-0.1067,9.7836,-0.0046,-0.0061,-0.0028
13423,45.66941,0.13638,105.61,25.72,5.36,41.1,Aug-16,707831,2019-08-12 10:36:30:321,-0.3356,-0.2637,10.2117,-0.6635,-0.1067,9.7836,-0.0046,-0.0061,-0.0028
13424,45.66941,0.13638,105.61,25.72,5.36,41.1,Aug-16,707832,2019-08-12 10:36:30:322,-0.3356,-0.2637,10.2117,-0.6635,-0.1067,9.7836,-0.0046,-0.0061,-0.0028
13425,45.66941,0.13638,105.61,25.72,5.36,41.1,Aug-16,707832,2019-08-12 10:36:30:322,-0.3356,-0.2637,10.2117,-0.6635,-0.1067,9.7836,-0.0046,-0.0061,-0.0028
13426,45.66941,0.13638,105.61,25.72,5.36,41.1,Aug-16,707832,2019-08-12 10:36:30:322,-0.3356,-0.2637,10.2117,-0.6635,-0.1067,9.7836,-0.0046,-0.0061,-0.0028
13427,45.66941,0.13638,105.61,25.72,5.36,41.1,Aug-16,707833,2019-08-12 10:36:30:323,-0.3356,-0.2637,10.2117,-0.6635,-0.1067,9.7836,-0.0046,-0.0061,-0.0028
13428,45.66941,0.13638,105.61,25.72,5.36,41.1,Aug-16,707888,2019-08-12 10:36:30:378,-0.3356,-0.2637,10.2117,-0.6635,-0.1067,9.7836,-0.0046,-0.0061,-0.0028
13429,45.66941,0.13638,105.61,25.72,5.36,41.1,Aug-16,707988,2019-08-12 10:36:30:478,-0.3356,-0.2637,10.2117,-0.6635,-0.1067,9.7836,-0.0046,-0.0061,-0.0028
13430,45.66941,0.13638,105.61,25.72,5.36,41.1,Aug-16,708088,2019-08-12 10:36:30:578,-0.3356,-0.2637,10.2117,-0.6635,-0.1067,9.7836,-0.0046,-0.0061,-0.0028
13431,45.66941,0.13638,105.61,25.72,5.36,41.1,Aug-16,708188,2019-08-12 10:36:30:678,-0.3356,-0.2637,10.2117,-0.6635,-0.1067,9.7836,-0.0046,-0.0061,-0.0028
13432,45.66941,0.13638,105.61,25.72,5.36,41.1,Aug-16,708288,2019-08-12 10:36:30:778,-0.3697,-0.0219,9.5719,-0.5468,-0.1679,9.79,0.005,0.0099,-0.0017
13433,45.66941,0.13638,105.61,25.72,5.36,41.1,Aug-16,708388,2019-08-12 10:36:30:878,-0.4852,-0.2201,9.597,-0.5457,-0.1803,9.7898,-0.0068,0.0003,-0.0007
13434,45.66941,0.13638,105.61,25.72,5.36,41.1,Aug-16,708488,2019-08-12 10:36:30:978,-0.5247,-0.2338,10.1423,-0.5457,-0.1807,9.7898,0.005,0.0003,-0.0017
13435,45.66941,0.13638,105.61,25.72,5.36,41.1,Aug-16,708588,2019-08-12 10:36:31:078,-0.2799,-0.168,9.5503,-0.5532,-0.1817,9.7893,0.0071,0.0078,-0.0028
13436,45.66941,0.13638,105.61,25.72,5.36,41.1,Aug-16,708688,2019-08-12 10:36:31:178,-0.7163,-0.1219,9.9633,-0.5663,-0.1682,9.7888,0.0092,0.0056,-0.0007
13437,45.67249,0.140273,102.81,25.56,5.36,43.1,0 / 17,708788,2019-08-12 10:36:31:278,-0.4086,-0.4547,10.1662,-0.561,-0.1659,9.7892,0.005,-0.004,-0.0017
13438,45.67249,0.140273,102.81,25.56,5.36,43.1,0 / 17,708888,2019-08-12 10:36:31:378,-0.6163,-0.2296,9.5683,-0.559,-0.1606,9.7894,0.005,0.0067,-0.0028
13439,45.67249,0.140273,102.81,25.56,5.36,43.1,0 / 17,708989,2019-08-12 10:36:31:479,-0.5277,-0.414,9.5659,-0.5651,-0.1584,9.7891,0.0028,-0.0018,-0.0028
13440,45.67249,0.140273,102.81,25.56,5.36,43.1,0 / 17,709088,2019-08-12 10:36:31:578,-0.6079,-0.1979,9.7915,-0.5644,-0.1562,9.7892,0.0071,0.0035,-0.0017
13441,45.67249,0.140273,102.81,25.56,5.36,43.1,0 / 17,709188,2019-08-12 10:36:31:678,-0.5786,-0.1411,9.8298,-0.571,-0.1498,9.7889,0.0124,0.0003,-0.0007
13442,45.67249,0.140273,102.81,25.56,5.36,43.1,0 / 17,709289,2019-08-12 10:36:31:779,-0.3218,-0.0291,9.5348,-0.5761,-0.1538,9.7885,0.0007,0.0024,0.0004
13443,45.67249,0.140273,102.81,25.56,5.36,43.1,0 / 17,709388,2019-08-12 10:36:31:878,-0.6235,-0.0812,9.4707,-0.573,-0.1527,9.7887,-0.0025,-0.0114,-0.0007
13444,45.67249,0.140273,102.81,25.56,5.36,43.1,0 / 17,709489,2019-08-12 10:36:31:979,-0.5744,-0.0626,10.323,-0.5746,-0.137,9.7888,0.0007,0.0003,0.0004
13445,45.67249,0.140273,102.81,25.56,5.36,43.1,0 / 17,709588,2019-08-12 10:36:32:078,-0.4374,0.0577,9.9496,-0.579,-0.1392,9.7886,-0.0099,-0.0146,0.0004
13446,45.67249,0.140273,102.81,25.56,5.36,43.1,0 / 17,709689,2019-08-12 10:36:32:179,-0.6355,-0.0549,9.512,-0.5726,-0.1445,9.7889,-0.0099,-0.0093,-0.0007
13447,45.67249,0.140273,102.81,25.56,5.36,43.1,0 / 17,709788,2019-08-12 10:36:32:278,-0.6935,-0.3505,9.9166,-0.5811,-0.1508,9.7883,-0.0078,0.0099,-0.0007
13448,45.67249,0.140273,102.81,25.56,5.36,43.1,0 / 17,709890,2019-08-12 10:36:32:380,-0.8863,-0.3595,9.9226,-0.5906,-0.1452,9.7878,0.0103,0.0088,-0.0007
13449,45.67249,0.140273,102.81,25.56,5.36,43.1,0 / 17,709990,2019-08-12 10:36:32:480,-0.5044,-0.0213,9.91,-0.5797,-0.138,9.7885,0.0039,0.0024,-0.0017
13450,45.67249,0.140273,102.81,25.56,5.36,43.1,0 / 17,710122,2019-08-12 10:36:32:612,-0.5044,-0.0213,9.91,-0.5698,-0.1372,9.7891,-0.0004,0.0035,-0.0007
13451,45.67249,0.140273,102.81,25.56,5.36,43.1,0 / 17,710188,2019-08-12 10:36:32:678,-0.5044,-0.0213,9.91,-0.5698,-0.1372,9.7891,-0.0004,0.0035,-0.0007
13452,45.67249,0.140273,102.81,25.56,5.36,43.1,0 / 17,710288,2019-08-12 10:36:32:778,-0.5044,-0.0213,9.91,-0.5698,-0.1372,9.7891,-0.0004,0.0035,-0.0007
13453,45.67249,0.140273,102.81,25.56,5.36,43.1,0 / 17,710389,2019-08-12 10:36:32:879,-0.7977,-0.1871,9.6886,-0.5694,-0.1127,9.7895,0.0124,-0.0008,-0.0017
13454,45.67249,0.140273,102.81,25.56,5.36,43.1,0 / 17,710489,2019-08-12 10:36:32:979,-0.8432,-0.1482,10.0076,-0.5718,-0.1114,9.7893,0.0082,0.0056,-0.0028
13455,45.67249,0.140273,102.81,25.56,5.36,43.1,0 / 17,710589,2019-08-12 10:36:33:079,-0.4793,-0.2159,9.7712,-0.5847,-0.1201,9.7885,0.006,0.0035,-0.0028
13456,45.67249,0.140273,102.81,25.56,5.36,43.1,0 / 17,710690,2019-08-12 10:36:33:180,-0.7779,-0.1003,9.8496,-0.597,-0.1284,9.7876,-0.0004,0.0024,-0.0028
13457,45.67249,0.140273,102.81,25.56,5.36,43.1,0 / 17,710790,2019-08-12 10:36:33:280,-0.6923,-0.1782,9.8083,-0.5998,-0.1306,9.7874,0.0071,-0.0008,-0.0038
13458,45.67249,0.140273,102.81,25.56,5.36,43.1,0 / 17,710888,2019-08-12 10:36:33:378,-0.8282,-0.147,9.6964,-0.5972,-0.1297,9.7876,0.006,-0.0104,-0.006
13459,45.67249,0.140273,102.81,25.56,5.36,43.1,0 / 17,710988,2019-08-12 10:36:33:478,-0.8917,-0.2643,10.025,-0.5969,-0.1315,9.7876,-0.0046,-0.0061,-0.0092
13460,45.67249,0.140273,102.81,25.56,5.36,43.1,0 / 17,711088,2019-08-12 10:36:33:578,-0.654,-0.2643,10.2476,-0.6089,-0.1508,9.7866,-0.0099,0.0099,-0.0124
13461,45.67249,0.140273,102.81,25.56,5.36,43.1,0 / 17,711189,2019-08-12 10:36:33:679,-0.9557,-0.4301,9.8358,-0.6446,-0.2024,9.7833,0.0007,-0.004,-0.0134
13462,45.67249,0.140273,102.81,25.56,5.36,43.1,0 / 17,711288,2019-08-12 10:36:33:778,-0.9234,-0.3948,10.0148,-0.6719,-0.244,9.7806,0.0071,-0.0061,-0.0134
13463,45.67249,0.140273,102.81,25.56,5.36,43.1,0 / 17,711388,2019-08-12 10:36:33:878,-0.5852,-0.745,10.5242,-0.7037,-0.3032,9.7767,0.005,-0.0072,-0.0166
13464,45.67249,0.140273,102.81,25.56,5.36,43.1,0 / 17,711488,2019-08-12 10:36:33:978,-1.0598,-0.4284,10.259,-0.757,-0.3339,9.7717,0.0018,-0.0008,-0.0166
13465,45.67249,0.140273,102.81,25.56,5.36,43.1,0 / 17,711588,2019-08-12 10:36:34:078,-0.9497,-0.575,9.1858,-0.7661,-0.3301,9.7711,0.0188,0.0152,-0.0145
13466,45.67249,0.140273,102.81,25.56,5.36,43.1,0 / 17,711689,2019-08-12 10:36:34:179,-0.6804,-0.4086,9.6539,-0.7737,-0.3226,9.7708,0.0209,0.0067,-0.0124
13467,45.67249,0.140273,102.81,25.56,5.36,43.1,0 / 17,711789,2019-08-12 10:36:34:279,-1.3418,-0.6504,10.2488,-0.7704,-0.3298,9.7708,-0.0206,-0.0168,-0.0156
13468,45.67249,0.140273,102.81,25.56,5.36,43.1,0 / 17,711888,2019-08-12 10:36:34:378,-0.7348,-0.2123,10.6475,-0.7419,-0.3674,9.7716,-0.0408,-0.0114,-0.0156
13469,45.67249,0.140273,102.81,25.56,5.36,43.1,0 / 17,711988,2019-08-12 10:36:34:478,-1.1006,-0.1961,9.1846,-0.7659,-0.3893,9.7689,-0.0227,0.0408,-0.0102
13470,45.67249,0.140273,102.81,25.56,5.36,43.1,0 / 17,712088,2019-08-12 10:36:34:578,-0.6726,-0.2877,9.1056,-0.8146,-0.3989,9.7646,-0.0014,0.0163,-0.0124
13471,45.67249,0.140273,102.81,25.56,5.36,43.1,0 / 17,712188,2019-08-12 10:36:34:678,-0.9826,-0.2901,9.3289,-0.8127,-0.4035,9.7646,-0.0036,-0.0093,-0.0134
13472,45.67249,0.140273,102.81,25.56,5.36,43.1,0 / 17,712288,2019-08-12 10:36:34:778,-0.9683,-0.4056,9.3923,-0.8158,-0.417,9.7638,-0.0068,0.0046,-0.0124
13473,45.67249,0.140273,102.81,25.56,5.36,43.1,0 / 17,712388,2019-08-12 10:36:34:878,-0.9395,-0.4786,10.0501,-0.8358,-0.4159,9.7621,0.0135,-0.0018,-0.0113
13474,45.67249,0.140273,102.81,25.56,5.36,43.1,0 / 17,712489,2019-08-12 10:36:34:979,-1.1,-0.3841,9.7927,-0.8634,-0.4106,9.7599,0.0241,0.0035,-0.0124
13475,45.67249,0.140273,102.81,25.56,5.36,43.1,0 / 17,712589,2019-08-12 10:36:35:079,-0.9359,-0.5684,9.5689,-0.8927,-0.4244,9.7567,-0.0185,0.012,-0.0134
13476,45.67249,0.140273,102.81,25.56,5.36,43.1,0 / 17,712687,2019-08-12 10:36:35:177,-0.9449,-0.2416,9.6916,-0.902,-0.4449,9.7549,-0.0163,0.0024,-0.0156
13477,45.67249,0.140273,102.81,25.56,5.36,43.1,0 / 17,712788,2019-08-12 10:36:35:278,-1.0144,-0.5151,9.8424,-0.9208,-0.4391,9.7534,-0.0014,-0.0061,-0.0134
13478,45.67249,0.140273,102.81,25.56,5.36,43.1,0 / 17,712888,2019-08-12 10:36:35:378,-0.9743,-0.3769,9.7508,-0.9297,-0.4527,9.752,0.0188,0.0014,-0.0102
13479,45.67249,0.140273,102.81,25.56,5.36,43.1,0 / 17,712989,2019-08-12 10:36:35:479,-0.7726,-0.6606,9.2953,-0.9517,-0.4349,9.7507,0.0241,0.0312,-0.0092
13480,45.67249,0.140273,102.81,25.56,5.36,43.1,0 / 17,713088,2019-08-12 10:36:35:578,-1.4501,-0.3763,10.0334,-0.9488,-0.407,9.7522,0.0188,-0.0157,-0.0145
