,GPS LATITUDE (degrees),GPS LONGITUDE (degrees), GPS ALTITUDE (m),GPS SPEED (Kmh),GPS ACCURACY (m),GPS ORIENTATION (Â°), SATELLITES IN RANGE, TIME SINCE START (ms), DATE (YYYY-MO-DD HH-MI-SS_SSS),ACCELEROMETER X (m/s²) , ACCELEROMETER Y (m/s²), ACCELEROMETER Z (m/s²), GRAVITY X (m/s²), GRAVITY Y (m/s²), GRAVITY Z (m/s²), GYROSCOPE Yaw (rad/s), GYROSCOPE Pitch (rad/s), GYROSCOPE Roll (rad/s)
65160,46.46089,-0.888878,81.85,31.91,3.216,99.9,17 / 19,6516011,2019-08-09 22:02:44:749,0.6143,-0.2393,9.95,-0.3233,-0.1536,9.8001,-0.014,-0.0549,0.0032
65161,46.46089,-0.888878,81.85,31.91,3.216,99.9,17 / 19,6516111,2019-08-09 22:02:44:849,0.1067,-0.1459,9.7141,-0.3145,-0.1619,9.8003,0.0029,0.0264,-0.0216
65162,46.46089,-0.888878,81.85,31.91,3.216,99.9,17 / 19,6516211,2019-08-09 22:02:44:949,-0.2847,-0.2495,9.616,-0.3328,-0.1583,9.7997,-0.0107,-0.0246,0.0158
65163,46.46089,-0.888878,81.85,31.91,3.216,99.9,17 / 19,6516311,2019-08-09 22:02:45:049,-0.2369,-0.5033,9.5029,-0.3179,-0.1639,9.8001,-0.0034,0.0039,0.0138
65164,46.46089,-0.888878,81.85,31.91,3.216,99.9,17 / 19,6516410,2019-08-09 22:02:45:148,-1.1712,0.148,9.8931,-0.3285,-0.1573,9.7999,-0.0014,-0.0033,-0.0256
65165,46.46089,-0.888878,81.85,31.91,3.216,99.9,17 / 19,6516511,2019-08-09 22:02:45:249,-1.996,-0.2399,9.4418,-0.3225,-0.1541,9.8001,-0.0005,-0.0282,-0.0113
65166,46.46089,-0.888878,81.85,31.91,3.216,99.9,16 / 18,6516611,2019-08-09 22:02:45:349,0.3336,-0.3177,9.455,-0.3171,-0.1487,9.8004,0.0157,-0.0032,0.0016
65167,46.46089,-0.888878,81.85,31.91,3.216,99.9,16 / 18,6516711,2019-08-09 22:02:45:449,-0.6966,0.391,10.5294,-0.3374,-0.1446,9.7998,-0.01,-0.0141,-0.0121
65168,46.46089,-0.888878,81.85,31.91,3.216,99.9,16 / 18,6516811,2019-08-09 22:02:45:549,-0.7235,0.0085,9.3472,-0.3393,-0.1404,9.7998,-0.0048,0.007,-0.0112
65169,46.46089,-0.888878,81.85,31.91,3.216,99.9,16 / 18,6516910,2019-08-09 22:02:45:648,0.1636,0.4526,9.5669,-0.317,-0.1349,9.8006,0.0097,-0.0415,-0.0084
65170,46.46089,-0.888878,81.85,31.91,3.216,99.9,16 / 18,6517010,2019-08-09 22:02:45:748,0.8537,0.4341,9.9434,-0.3334,-0.1288,9.8001,-0.0053,-0.0005,-0.0332
65171,46.46089,-0.888878,81.85,31.91,3.216,99.9,16 / 18,6517110,2019-08-09 22:02:45:848,0.4407,0.1917,10.0212,-0.3386,-0.1209,9.8001,0.0059,0.0198,-0.014
65172,46.46089,-0.888878,81.85,31.91,3.216,99.9,16 / 18,6517210,2019-08-09 22:02:45:948,-1.9487,0.2114,9.7357,-0.3504,-0.1086,9.7998,-0.002,-0.0154,-0.0123
65173,46.46089,-0.888878,81.85,31.91,3.216,99.9,16 / 18,6517311,2019-08-09 22:02:46:049,-1.5525,0.0743,9.3359,-0.3535,-0.106,9.7997,0.0026,-0.0262,-0.0159
65174,46.46089,-0.888878,81.85,31.91,3.216,99.9,16 / 18,6517410,2019-08-09 22:02:46:148,-0.5008,0.1144,9.7644,-0.3732,-0.0993,9.799,0.0011,0.0023,0.0126
65175,46.46089,-0.888878,81.85,31.91,3.216,99.9,16 / 18,6517510,2019-08-09 22:02:46:248,-0.7498,0.3473,10.3743,-0.3888,-0.0947,9.7985,-0.0069,-0.0037,0.001
65176,46.46089,-0.888878,81.85,31.91,3.216,99.9,16 / 18,6517611,2019-08-09 22:02:46:349,-1.2143,0.1204,10.3031,-0.4135,-0.0967,9.7975,-0.0071,-0.0383,-0.0074
65177,46.46089,-0.888878,81.85,31.91,3.216,99.9,16 / 18,6517711,2019-08-09 22:02:46:449,-0.7809,0.1222,9.5448,-0.3932,-0.0905,9.7983,0.0226,0.016,0.011
65178,46.46089,-0.888878,81.85,31.91,3.216,99.9,16 / 18,6517810,2019-08-09 22:02:46:548,-0.9623,-0.4386,9.1222,-0.3969,-0.0715,9.7984,-0.0038,-0.0039,-0.0413
65179,46.46089,-0.888878,81.85,31.91,3.216,99.9,16 / 18,6517910,2019-08-09 22:02:46:648,-0.1172,-0.4638,9.9398,-0.3953,-0.0723,9.7984,-0.0116,0.0131,0.0307
65180,46.46089,-0.888878,81.85,31.91,3.216,99.9,16 / 18,6518011,2019-08-09 22:02:46:749,-0.5972,-0.459,9.4065,-0.3963,-0.083,9.7983,0.0089,-0.0007,-0.021
65181,46.46089,-0.888878,81.85,31.91,3.216,99.9,16 / 18,6518111,2019-08-09 22:02:46:849,-0.8917,0.0929,9.6998,-0.4067,-0.083,9.7979,0.0053,0.0135,-0.0094
65182,46.46089,-0.888878,81.85,31.91,3.216,99.9,16 / 18,6518211,2019-08-09 22:02:46:949,-1.3148,0.0103,9.877,-0.4197,-0.0782,9.7974,-0.0012,-0.0307,0.055
65183,46.46089,-0.888878,81.85,31.91,3.216,99.9,16 / 18,6518311,2019-08-09 22:02:47:049,-0.7929,-0.2435,9.3682,-0.421,-0.0879,9.7972,0.0157,-0.0041,0.0063
65184,46.46089,-0.888878,81.85,31.91,3.216,99.9,16 / 18,6518410,2019-08-09 22:02:47:148,-1.9248,0.0444,9.8686,-0.4305,-0.0726,9.7969,0.0098,0.0104,-0.0108
65185,46.46089,-0.888878,81.85,31.91,3.216,99.9,16 / 18,6518510,2019-08-09 22:02:47:248,-1.2113,0.0714,10.2409,-0.4444,-0.0688,9.7963,-0.0043,0.0316,-0.0082
65186,46.46089,-0.888878,81.85,31.91,3.216,99.9,17 / 19,6518611,2019-08-09 22:02:47:349,-0.8647,-0.4793,9.2898,-0.4363,-0.0728,9.7967,0.004,-0.0043,0.007
65187,46.46089,-0.888878,81.85,31.91,3.216,99.9,17 / 19,6518711,2019-08-09 22:02:47:449,0.1666,0.1713,9.7327,-0.4404,-0.0752,9.7965,-0.0003,0.012,-0.0212
65188,46.46089,-0.888878,81.85,31.91,3.216,99.9,17 / 19,6518810,2019-08-09 22:02:47:548,-0.8713,0.3916,10.5653,-0.4567,-0.0797,9.7957,-0.0154,0.0154,-0.0061
65189,46.46089,-0.888878,81.85,31.91,3.216,99.9,17 / 19,6518910,2019-08-09 22:02:47:648,-0.9402,-0.289,9.61,-0.4674,-0.0913,9.7951,0.0133,-0.0792,0.048
65190,46.46089,-0.888878,81.85,31.91,3.216,99.9,17 / 19,6519011,2019-08-09 22:02:47:749,-1.1042,0.2521,9.5914,-0.4241,-0.0806,9.7971,-0.0128,-0.034,-0.0027
65191,46.46089,-0.888878,81.85,31.91,3.216,99.9,17 / 19,6519110,2019-08-09 22:02:47:848,-1.4519,-0.1908,9.6411,-0.4547,-0.09,9.7957,-0.0053,0.0228,0.0131
65192,46.46089,-0.888878,81.85,31.91,3.216,99.9,17 / 19,6519210,2019-08-09 22:02:47:948,-1.6985,-0.1387,9.4993,-0.4527,-0.0947,9.7957,0.0068,-0.0273,0.0125
65193,46.46089,-0.888878,81.85,31.91,3.216,99.9,17 / 19,6519310,2019-08-09 22:02:48:048,-0.66,-0.2824,9.5214,-0.4411,-0.0963,9.7963,0.0136,0.0063,-0.0091
65194,46.46089,-0.888878,81.85,31.91,3.216,99.9,17 / 19,6519411,2019-08-09 22:02:48:149,-1.4741,0.1773,9.8793,-0.4474,-0.0877,9.796,0.0043,0.0018,-0.0177
65195,46.46089,-0.888878,81.85,31.91,3.216,99.9,17 / 19,6519510,2019-08-09 22:02:48:248,-1.0341,0.1438,9.9727,-0.4508,-0.0877,9.7959,0.0007,0.0159,-0.0005
65196,46.46089,-0.888878,81.85,31.91,3.216,99.9,16 / 18,6519610,2019-08-09 22:02:48:348,-0.7432,0.0869,9.7872,-0.4494,-0.0854,9.796,0.0014,-0.011,0.0042
65197,46.46089,-0.888878,81.85,31.91,3.216,99.9,16 / 18,6519710,2019-08-09 22:02:48:448,-0.5367,0.1665,9.7141,-0.4622,-0.0898,9.7953,-0.0131,0.0249,-0.0116
65198,46.46089,-0.888878,81.85,31.91,3.216,99.9,16 / 18,6519810,2019-08-09 22:02:48:548,-0.6229,0.03,9.6088,-0.4498,-0.0912,9.7959,-0.006,-0.0189,0.0067
65199,46.46089,-0.888878,81.85,31.91,3.216,99.9,16 / 18,6519910,2019-08-09 22:02:48:648,-1.024,0.3084,10.1888,-0.4822,-0.0807,9.7945,0.0109,0.0383,-0.0375
65200,46.46089,-0.888878,81.85,31.91,3.216,99.9,16 / 18,6520011,2019-08-09 22:02:48:749,-0.9408,-0.1783,9.4041,-0.4782,-0.0728,9.7947,-0.0071,-0.0114,0.0011
65201,46.46089,-0.888878,81.85,31.91,3.216,99.9,16 / 18,6520110,2019-08-09 22:02:48:848,-0.8462,0.0732,9.8973,-0.4807,-0.0792,9.7945,-0.0024,-0.0015,-0.0007
65202,46.46089,-0.888878,81.85,31.91,3.216,99.9,16 / 18,6520210,2019-08-09 22:02:48:948,-1.0006,0.1115,9.6585,-0.492,-0.0793,9.794,-0.0128,-0.0079,0.0195
65203,46.46089,-0.888878,81.85,31.91,3.216,99.9,16 / 18,6520312,2019-08-09 22:02:49:050,-0.7983,0.0139,9.5561,-0.4947,-0.093,9.7937,0.0037,-0.0243,0.0162
65204,46.46089,-0.888878,81.85,31.91,3.216,99.9,16 / 18,6520410,2019-08-09 22:02:49:148,-0.3249,-0.2082,9.5777,-0.483,-0.0917,9.7943,-0.0029,0.0148,-0.0119
65205,46.46089,-0.888878,81.85,31.91,3.216,99.9,16 / 18,6520511,2019-08-09 22:02:49:249,0.2569,0.3533,10.19,-0.5068,-0.1001,9.793,-0.0047,0.0042,-0.0078
65206,46.460423,-0.885305,80.05,30.5,3.216,101.0,16 / 18,6520611,2019-08-09 22:02:49:349,0.5293,-0.1034,9.7195,-0.5039,-0.103,9.7932,-0.0033,-0.0027,-0.0136
65207,46.460423,-0.885305,80.05,30.5,3.216,101.0,16 / 18,6520710,2019-08-09 22:02:49:448,-0.1992,-0.3512,9.3119,-0.5115,-0.1073,9.7927,0.0093,-0.0008,0.0016
65208,46.460423,-0.885305,80.05,30.5,3.216,101.0,16 / 18,6520810,2019-08-09 22:02:49:548,-0.6948,-0.0603,10.0589,-0.5278,-0.1024,9.7919,-0.0037,-0.0024,-0.0083
65209,46.460423,-0.885305,80.05,30.5,3.216,101.0,16 / 18,6520910,2019-08-09 22:02:49:648,-0.2255,0.1234,9.5076,-0.5253,-0.0967,9.7921,0.0166,-0.038,-0.0276
65210,46.460423,-0.885305,80.05,30.5,3.216,101.0,16 / 18,6521010,2019-08-09 22:02:49:748,-2.5293,0.1767,9.5166,-0.5265,-0.0822,9.7922,0.0132,0.0474,-0.016
65211,46.460423,-0.885305,80.05,30.5,3.216,101.0,16 / 18,6521111,2019-08-09 22:02:49:849,-2.1361,0.6095,9.959,-0.5385,-0.0647,9.7916,-0.004,0.029,-0.0063
65212,46.460423,-0.885305,80.05,30.5,3.216,101.0,16 / 18,6521211,2019-08-09 22:02:49:949,-1.2742,0.5035,9.5591,-0.5121,-0.0531,9.7931,0.0076,-0.0436,-0.0108
65213,46.460423,-0.885305,80.05,30.5,3.216,101.0,16 / 18,6521310,2019-08-09 22:02:50:048,0.3683,0.3431,9.522,-0.5306,-0.0414,9.7922,-0.0158,0.0407,-0.0374
65214,46.460423,-0.885305,80.05,30.5,3.216,101.0,16 / 18,6521410,2019-08-09 22:02:50:148,0.9507,0.121,9.6022,-0.5436,-0.0363,9.7915,-0.0092,-0.0445,0.0099
65215,46.460423,-0.885305,80.05,30.5,3.216,101.0,16 / 18,6521510,2019-08-09 22:02:50:248,0.2659,0.0755,9.364,-0.5263,-0.0447,9.7924,-0.0028,-0.0057,-0.0433
65216,46.460423,-0.885305,80.05,30.5,3.216,101.0,17 / 19,6521610,2019-08-09 22:02:50:348,-0.6636,0.0809,10.0613,-0.5573,-0.0467,9.7907,0.0034,0.0203,0.0254
65217,46.460423,-0.885305,80.05,30.5,3.216,101.0,17 / 19,6521710,2019-08-09 22:02:50:448,-0.1704,-0.8241,9.5705,-0.5477,-0.035,9.7913,0.0149,-0.0406,0.0281
65218,46.460423,-0.885305,80.05,30.5,3.216,101.0,17 / 19,6521810,2019-08-09 22:02:50:548,0.081,0.0348,9.932,-0.5635,-0.0415,9.7904,-0.0146,-0.0316,-0.0341
65219,46.460423,-0.885305,80.05,30.5,3.216,101.0,17 / 19,6521911,2019-08-09 22:02:50:649,-1.8182,0.1001,9.9356,-0.5643,-0.0427,9.7903,-0.0024,0.0217,0.0011
65220,46.460423,-0.885305,80.05,30.5,3.216,101.0,17 / 19,6522010,2019-08-09 22:02:50:748,-0.5559,0.1007,9.8345,-0.5506,-0.0455,9.7911,-0.0039,-0.0141,-0.004
65221,46.460423,-0.885305,80.05,30.5,3.216,101.0,17 / 19,6522111,2019-08-09 22:02:50:849,-0.016,-0.0705,9.8255,-0.5401,-0.0487,9.7916,-0.0022,-0.0053,0.0131
65222,46.460423,-0.885305,80.05,30.5,3.216,101.0,17 / 19,6522210,2019-08-09 22:02:50:948,-1.0401,-0.0591,9.7099,-0.5361,-0.047,9.7919,0.0029,-0.0042,-0.0101
65223,46.460423,-0.885305,80.05,30.5,3.216,101.0,17 / 19,6522310,2019-08-09 22:02:51:048,-0.4332,0.3934,10.3552,-0.5451,-0.0447,9.7914,-0.0033,-0.02,0.005
65224,46.460423,-0.885305,80.05,30.5,3.216,101.0,17 / 19,6522410,2019-08-09 22:02:51:148,0.09,0.1043,9.947,-0.538,-0.0445,9.7918,0.0042,0.0022,-0.0174
65225,46.460423,-0.885305,80.05,30.5,3.216,101.0,17 / 19,6522510,2019-08-09 22:02:51:248,-1.1736,-0.1777,9.3975,-0.5285,-0.032,9.7923,0.0015,-0.0047,-0.0033
65226,46.460423,-0.885305,80.05,30.5,3.216,101.0,16 / 18,6522610,2019-08-09 22:02:51:348,-0.7373,-0.2411,9.686,-0.5247,-0.0266,9.7926,0.0017,-0.0046,-0.0087
65227,46.460423,-0.885305,80.05,30.5,3.216,101.0,16 / 18,6522710,2019-08-09 22:02:51:448,0.5437,0.06,9.7369,-0.5162,-0.0272,9.793,-0.0018,-0.0035,-0.0221
65228,46.460423,-0.885305,80.05,30.5,3.216,101.0,16 / 18,6522810,2019-08-09 22:02:51:548,-0.9587,0.0486,9.9751,-0.5191,-0.0202,9.7929,-0.0093,0.0279,0.0122
65229,46.460423,-0.885305,80.05,30.5,3.216,101.0,16 / 18,6522910,2019-08-09 22:02:51:648,-0.0172,-0.3093,9.2072,-0.5168,-0.0259,9.793,0.0033,-0.0461,0.0294
65230,46.460423,-0.885305,80.05,30.5,3.216,101.0,16 / 18,6523010,2019-08-09 22:02:51:748,0.2186,0.1539,9.9212,-0.5143,-0.0253,9.7931,0.0031,0.0107,-0.0211
65231,46.460423,-0.885305,80.05,30.5,3.216,101.0,16 / 18,6523110,2019-08-09 22:02:51:848,-0.4799,-0.2489,10.3007,-0.5205,-0.0283,9.7928,-0.0064,0.026,0.0222
65232,46.460423,-0.885305,80.05,30.5,3.216,101.0,16 / 18,6523210,2019-08-09 22:02:51:948,0.1923,-0.7594,9.6363,-0.5109,-0.0311,9.7933,0.017,-0.0075,0.024
65233,46.460423,-0.885305,80.05,30.5,3.216,101.0,16 / 18,6523310,2019-08-09 22:02:52:048,0.6915,-0.6882,9.4843,-0.5125,-0.0344,9.7932,0.0085,-0.049,-0.0078
65234,46.460423,-0.885305,80.05,30.5,3.216,101.0,16 / 18,6523410,2019-08-09 22:02:52:148,-1.103,0.3425,10.0416,-0.5192,-0.0241,9.7929,0.0023,0.0558,0.0015
65235,46.460423,-0.885305,80.05,30.5,3.216,101.0,16 / 18,6523510,2019-08-09 22:02:52:248,0.3797,0.2611,10.1433,-0.4935,-0.0301,9.7942,0.0085,0.006,0.0075
65236,46.460423,-0.885305,80.05,30.5,3.216,101.0,17 / 18,6523610,2019-08-09 22:02:52:348,-0.7768,0.0947,9.5807,-0.5016,-0.0175,9.7938,0.0066,-0.0032,-0.0209
65237,46.460423,-0.885305,80.05,30.5,3.216,101.0,17 / 18,6523710,2019-08-09 22:02:52:448,0.1624,0.2413,9.3784,-0.4931,-0.0096,9.7942,0.0131,-0.0201,0.0005
65238,46.460423,-0.885305,80.05,30.5,3.216,101.0,17 / 18,6523810,2019-08-09 22:02:52:548,0.221,0.4514,9.9913,-0.4946,-0.0057,9.7942,-0.0032,0.0011,-0.0302
65239,46.460423,-0.885305,80.05,30.5,3.216,101.0,17 / 18,6523911,2019-08-09 22:02:52:649,0.8298,0.1779,10.1445,-0.502,-0.0028,9.7938,-0.0127,0.024,-0.0312
65240,46.460423,-0.885305,80.05,30.5,3.216,101.0,17 / 18,6524010,2019-08-09 22:02:52:748,0.1181,0.0648,9.2832,-0.5009,-0.004,9.7938,0.0035,-0.0102,-0.0436
65241,46.460423,-0.885305,80.05,30.5,3.216,101.0,17 / 18,6524111,2019-08-09 22:02:52:849,-1.2448,-0.3243,9.8859,-0.4875,-0.0075,9.7945,0.0121,0.0109,0.014
65242,46.460423,-0.885305,80.05,30.5,3.216,101.0,17 / 18,6524210,2019-08-09 22:02:52:948,-0.5403,-0.0526,9.9027,-0.4956,-0.0053,9.7941,-0.0105,0.0189,-0.0082
65243,46.460423,-0.885305,80.05,30.5,3.216,101.0,17 / 18,6524310,2019-08-09 22:02:53:048,-1.1209,-0.0591,9.7704,-0.4909,-0.0129,9.7943,-0.0011,-0.0058,0.0095
65244,46.460423,-0.885305,80.05,30.5,3.216,101.0,17 / 18,6524410,2019-08-09 22:02:53:148,-0.7678,0.3826,9.8805,-0.5108,-0.015,9.7933,-0.0061,0.0091,-0.012
65245,46.460423,-0.885305,80.05,30.5,3.216,101.0,17 / 18,6524510,2019-08-09 22:02:53:248,-1.243,0.2856,9.5094,-0.5089,-0.0068,9.7934,0.0025,-0.0181,-0.0145
65246,46.460423,-0.885305,80.05,30.5,3.216,101.0,17 / 18,6524610,2019-08-09 22:02:53:348,-0.2243,0.0947,10.0026,-0.519,-0.0023,9.7929,0.0027,0.0289,-0.0184
65247,46.460423,-0.885305,80.05,30.5,3.216,101.0,17 / 18,6524711,2019-08-09 22:02:53:449,-1.3705,-0.2231,9.5017,-0.5128,-0.0014,9.7932,0.0078,0.0131,0.0167
65248,46.460423,-0.885305,80.05,30.5,3.216,101.0,17 / 18,6524810,2019-08-09 22:02:53:548,-0.6965,0.4245,9.698,-0.5209,0.0002,9.7928,-0.0069,0.0033,-0.0376
65249,46.460423,-0.885305,80.05,30.5,3.216,101.0,17 / 18,6524910,2019-08-09 22:02:53:648,-1.905,0.148,9.7596,-0.5201,0.0054,9.7928,-0.0017,0.006,0.0233
65250,46.460423,-0.885305,80.05,30.5,3.216,101.0,17 / 18,6525011,2019-08-09 22:02:53:749,-1.8637,-0.0723,9.6465,-0.5238,-0.0084,9.7926,-0.0014,0.0169,0.0022
65251,46.460423,-0.885305,80.05,30.5,3.216,101.0,17 / 18,6525111,2019-08-09 22:02:53:849,-0.028,0.1378,9.5825,-0.5035,-0.0101,9.7937,-0.003,-0.0235,-0.0105
65252,46.460423,-0.885305,80.05,30.5,3.216,101.0,17 / 18,6525211,2019-08-09 22:02:53:949,0.1025,0.364,9.8578,-0.5124,-0.0142,9.7932,-0.0131,0.0363,-0.0135
65253,46.460423,-0.885305,80.05,30.5,3.216,101.0,17 / 18,6525310,2019-08-09 22:02:54:048,-1.2113,0.0725,9.8446,-0.5093,-0.0199,9.7934,-0.0087,0.0121,0.0267
65254,46.460423,-0.885305,80.05,30.5,3.216,101.0,17 / 18,6525410,2019-08-09 22:02:54:148,0.8345,-0.3883,9.2862,-0.5019,-0.0342,9.7937,0.003,-0.0105,-0.0257
65255,46.460423,-0.885305,80.05,30.5,3.216,101.0,17 / 18,6525510,2019-08-09 22:02:54:248,0.5023,-0.2202,9.8841,-0.5076,-0.0277,9.7935,0.0093,0.0063,-0.0014
65256,46.460423,-0.885305,80.05,30.5,3.216,101.0,17 / 18,6525610,2019-08-09 22:02:54:348,0.4515,0.0007,10.1283,-0.5094,-0.0297,9.7934,-0.0051,-0.0156,0.0246
65257,46.460423,-0.885305,80.05,30.5,3.216,101.0,17 / 18,6525710,2019-08-09 22:02:54:448,-0.5469,-0.4362,9.3245,-0.4979,-0.0345,9.7939,0.0135,0.0126,-0.0116
65258,46.460423,-0.885305,80.05,30.5,3.216,101.0,17 / 18,6525810,2019-08-09 22:02:54:548,-0.6439,-0.3369,9.3239,-0.5186,-0.0177,9.7929,-0.0054,0.0031,-0.043
65259,46.460423,-0.885305,80.05,30.5,3.216,101.0,17 / 18,6525910,2019-08-09 22:02:54:648,0.7855,-0.0059,9.4753,-0.5018,-0.0169,9.7938,-0.0105,0.0082,0.0062
65260,46.460423,-0.885305,80.05,30.5,3.216,101.0,17 / 18,6526010,2019-08-09 22:02:54:748,-0.918,-0.2489,10.2881,-0.5331,-0.0267,9.7921,-0.0036,0.0115,0.0009
65261,46.460423,-0.885305,80.05,30.5,3.216,101.0,17 / 18,6526110,2019-08-09 22:02:54:848,-0.6559,-0.1932,9.3598,-0.5237,-0.0216,9.7926,0.0079,-0.0371,-0.0206
65262,46.460423,-0.885305,80.05,30.5,3.216,101.0,17 / 18,6526210,2019-08-09 22:02:54:948,-1.1682,-0.1022,9.5466,-0.5167,-0.0202,9.793,-0.0097,0.0068,-0.048
65263,46.460423,-0.885305,80.05,30.5,3.216,101.0,17 / 18,6526310,2019-08-09 22:02:55:048,0.3683,0.4209,10.5024,-0.5329,-0.0142,9.7922,-0.0023,-0.0235,0.0532
65264,46.460423,-0.885305,80.05,30.5,3.216,101.0,17 / 18,6526411,2019-08-09 22:02:55:149,0.002,-0.4979,10.4845,-0.4942,-0.0308,9.7941,-0.0327,0.043,-0.0405
65265,46.460423,-0.885305,80.05,30.5,3.216,101.0,17 / 18,6526511,2019-08-09 22:02:55:249,-0.9904,-1.1012,9.6495,-0.5214,-0.0403,9.7927,0.0129,0.027,0.0455
65266,46.460423,-0.885305,80.05,30.5,3.216,101.0,18 / 19,6526610,2019-08-09 22:02:55:348,-0.5691,0.7214,9.6286,-0.5031,-0.0435,9.7936,-0.0014,-0.0112,-0.082
65267,46.460423,-0.885305,80.05,30.5,3.216,101.0,18 / 19,6526710,2019-08-09 22:02:55:448,-1.1096,-0.0939,10.0428,-0.5235,-0.0285,9.7926,-0.0084,0.009,0.0122
65268,46.460423,-0.885305,80.05,30.5,3.216,101.0,18 / 19,6526810,2019-08-09 22:02:55:548,-1.1263,-0.5218,9.7375,-0.5057,-0.036,9.7935,0.0239,0.001,0.0444
65269,46.460423,-0.885305,80.05,30.5,3.216,101.0,18 / 19,6526910,2019-08-09 22:02:55:648,-1.0659,0.303,9.2126,-0.5044,-0.0214,9.7936,0.0014,0.0158,-0.0703
65270,46.460423,-0.885305,80.05,30.5,3.216,101.0,18 / 19,6527010,2019-08-09 22:02:55:748,-1.7973,0.2282,9.7788,-0.5116,-0.0127,9.7933,-0.011,0.062,-0.0247
65271,46.460423,-0.885305,80.05,30.5,3.216,101.0,18 / 19,6527110,2019-08-09 22:02:55:848,-1.5962,0.0702,9.0677,-0.5075,-0.0184,9.7935,0.0051,0.0603,-0.0211
65272,46.460423,-0.885305,80.05,30.5,3.216,101.0,18 / 19,6527210,2019-08-09 22:02:55:948,-0.3488,0.06,9.8333,-0.5382,-0.013,9.7919,0.0051,0.0603,-0.0211
65273,46.460423,-0.885305,80.05,30.5,3.216,101.0,18 / 19,6527310,2019-08-09 22:02:56:048,0.5562,0.0259,9.9745,-0.5193,-0.0134,9.7929,-0.0051,-0.0038,0.0027
65274,46.460423,-0.885305,80.05,30.5,3.216,101.0,18 / 19,6527410,2019-08-09 22:02:56:148,0.148,-0.3536,9.5729,-0.5233,-0.0162,9.7927,0.0042,-0.0262,-0.0018
65275,46.460423,-0.885305,80.05,30.5,3.216,101.0,18 / 19,6527510,2019-08-09 22:02:56:248,0.2797,0.0666,9.4963,-0.5243,-0.0101,9.7926,0.0064,-0.0387,0.0065
65276,46.460423,-0.885305,80.05,30.5,3.216,101.0,18 / 19,6527610,2019-08-09 22:02:56:348,-0.1974,-0.125,10.0811,-0.5102,-0.0145,9.7934,0.0058,0.0347,-0.0009
65277,46.460423,-0.885305,80.05,30.5,3.216,101.0,18 / 19,6527710,2019-08-09 22:02:56:448,0.1767,-0.0442,10.1613,-0.5133,-0.0098,9.7932,0.0074,-0.0134,0.0099
65278,46.460423,-0.885305,80.05,30.5,3.216,101.0,18 / 19,6527810,2019-08-09 22:02:56:548,-1.6758,0.0013,9.5364,-0.5096,-0.0066,9.7934,0.019,0.0155,0.0027
65279,46.460423,-0.885305,80.05,30.5,3.216,101.0,18 / 19,6527911,2019-08-09 22:02:56:649,-0.2458,0.3539,9.6166,-0.5115,0.0143,9.7933,0.007,-0.0085,-0.0463
65280,46.460423,-0.885305,80.05,30.5,3.216,101.0,18 / 19,6528011,2019-08-09 22:02:56:749,-0.4691,0.467,9.8458,-0.5221,0.0285,9.7927,0.0103,0.0175,0.0
65281,46.460423,-0.885305,80.05,30.5,3.216,101.0,18 / 19,6528110,2019-08-09 22:02:56:848,-0.2949,0.3365,9.5052,-0.5325,0.0352,9.7921,0.0001,-0.033,-0.018
65282,46.460423,-0.885305,80.05,30.5,3.216,101.0,18 / 19,6528210,2019-08-09 22:02:56:948,-0.687,-0.2447,9.5352,-0.5322,0.0436,9.7921,0.0169,0.0156,0.0121
65283,46.460423,-0.885305,80.05,30.5,3.216,101.0,18 / 19,6528310,2019-08-09 22:02:57:048,-0.1638,0.1821,10.0745,-0.5323,0.0687,9.792,0.0091,0.0004,0.0135
65284,46.460423,-0.885305,80.05,30.5,3.216,101.0,18 / 19,6528410,2019-08-09 22:02:57:148,1.1117,0.6627,9.6411,-0.5339,0.0741,9.7918,-0.0078,-0.0549,-0.0337
65285,46.460423,-0.885305,80.05,30.5,3.216,101.0,18 / 19,6528510,2019-08-09 22:02:57:248,-2.2947,0.0672,9.9158,-0.5431,0.074,9.7913,-0.0063,0.0401,0.0047
65286,46.460423,-0.885305,80.05,30.5,3.216,101.0,17 / 18,6528610,2019-08-09 22:02:57:348,-1.5824,0.0714,9.9763,-0.5189,0.0736,9.7926,-0.0051,0.0294,-0.0242
65287,46.460423,-0.885305,80.05,30.5,3.216,101.0,17 / 18,6528711,2019-08-09 22:02:57:449,-1.1682,0.3042,9.9667,-0.537,0.0714,9.7917,-0.0033,-0.0071,-0.0149
65288,46.460423,-0.885305,80.05,30.5,3.216,101.0,17 / 18,6528810,2019-08-09 22:02:57:548,-1.2107,0.209,9.8458,-0.5385,0.0687,9.7916,-0.0101,0.0204,-0.0253
65289,46.460423,-0.885305,80.05,30.5,3.216,101.0,17 / 18,6528911,2019-08-09 22:02:57:649,-1.343,0.1893,9.5136,-0.5251,0.0789,9.7923,0.0084,-0.0082,-0.0084
65290,46.460423,-0.885305,80.05,30.5,3.216,101.0,17 / 18,6529010,2019-08-09 22:02:57:748,-1.489,0.2898,9.9338,-0.5228,0.0854,9.7923,0.0036,0.0154,-0.0113
65291,46.460423,-0.885305,80.05,30.5,3.216,101.0,17 / 18,6529110,2019-08-09 22:02:57:848,-0.0364,0.0989,9.9458,-0.5334,0.0881,9.7917,-0.007,-0.0119,-0.0241
65292,46.460423,-0.885305,80.05,30.5,3.216,101.0,17 / 18,6529210,2019-08-09 22:02:57:948,0.0588,0.1557,9.4316,-0.5251,0.0943,9.7921,-0.0003,0.0097,-0.0118
65293,46.460423,-0.885305,80.05,30.5,3.216,101.0,17 / 18,6529310,2019-08-09 22:02:58:048,-0.0944,0.37,9.8458,-0.5408,0.0955,9.7913,-0.0043,0.01,-0.0078
65294,46.460423,-0.885305,80.05,30.5,3.216,101.0,17 / 18,6529410,2019-08-09 22:02:58:148,-0.8318,0.1677,9.8476,-0.5472,0.0934,9.7909,-0.0047,-0.0318,-0.0073
65295,46.460423,-0.885305,80.05,30.5,3.216,101.0,17 / 18,6529510,2019-08-09 22:02:58:248,-1.0509,0.0073,9.6872,-0.5371,0.0926,9.7915,0.0009,0.0067,-0.0025
65296,46.459877,-0.881839,77.07,30.35,3.216,104.8,16 / 18,6529611,2019-08-09 22:02:58:349,-1.3645,0.1516,10.1463,-0.5517,0.0932,9.7907,-0.0092,0.0207,-0.008
65297,46.459877,-0.881839,77.07,30.35,3.216,104.8,16 / 18,6529711,2019-08-09 22:02:58:449,-0.2075,-0.3219,9.3526,-0.5646,0.0854,9.79,-0.0035,-0.0323,0.0158
65298,46.459877,-0.881839,77.07,30.35,3.216,104.8,16 / 18,6529811,2019-08-09 22:02:58:549,-0.9976,-0.0957,9.2186,-0.5442,0.0951,9.7911,0.019,-0.0397,0.006
65299,46.459877,-0.881839,77.07,30.35,3.216,104.8,16 / 18,6529911,2019-08-09 22:02:58:649,-0.5343,0.0145,9.9129,-0.5535,0.0997,9.7905,-0.0058,-0.0213,0.0179
65300,46.459877,-0.881839,77.07,30.35,3.216,104.8,16 / 18,6530010,2019-08-09 22:02:58:748,-0.4045,0.1827,9.7549,-0.5351,0.0945,9.7916,-0.0069,-0.0008,-0.0008
65301,46.459877,-0.881839,77.07,30.35,3.216,104.8,16 / 18,6530110,2019-08-09 22:02:58:848,0.1115,0.0366,9.6986,-0.5413,0.0867,9.7913,-0.0063,-0.0144,0.013
65302,46.459877,-0.881839,77.07,30.35,3.216,104.8,16 / 18,6530211,2019-08-09 22:02:58:949,-1.1461,-0.2321,9.5681,-0.5297,0.0779,9.792,0.0061,0.004,-0.003
65303,46.459877,-0.881839,77.07,30.35,3.216,104.8,16 / 18,6530311,2019-08-09 22:02:59:049,1.4409,0.2862,9.8889,-0.5159,0.0788,9.7928,0.0061,0.004,-0.003
65304,46.459877,-0.881839,77.07,30.35,3.216,104.8,16 / 18,6530410,2019-08-09 22:02:59:148,0.1624,-0.0077,10.1367,-0.5202,0.078,9.7925,-0.0082,0.0106,-0.0164
65305,46.459877,-0.881839,77.07,30.35,3.216,104.8,16 / 18,6530511,2019-08-09 22:02:59:249,-0.6128,0.0324,9.8117,-0.4992,0.0786,9.7936,0.0202,0.0222,-0.0076
65306,46.459877,-0.881839,77.07,30.35,3.216,104.8,14 / 16,6530610,2019-08-09 22:02:59:348,0.0109,0.5729,9.9111,-0.4893,0.0947,9.794,-0.0016,-0.0008,0.0078
65307,46.459877,-0.881839,77.07,30.35,3.216,104.8,14 / 16,6530710,2019-08-09 22:02:59:448,0.4419,0.0486,9.9913,-0.5008,0.0914,9.7934,0.0006,-0.0118,0.0061
65308,46.459877,-0.881839,77.07,30.35,3.216,104.8,14 / 16,6530810,2019-08-09 22:02:59:548,0.069,0.0743,9.3071,-0.4629,0.0986,9.7952,0.0105,0.0099,-0.0108
65309,46.459877,-0.881839,77.07,30.35,3.216,104.8,14 / 16,6530910,2019-08-09 22:02:59:648,-0.2865,0.0672,9.7237,-0.463,0.1044,9.7952,0.0103,-0.0177,-0.0058
65310,46.459877,-0.881839,77.07,30.35,3.216,104.8,14 / 16,6531010,2019-08-09 22:02:59:748,0.1947,0.151,10.0649,-0.4512,0.1091,9.7957,-0.0097,-0.015,-0.0063
65311,46.459877,-0.881839,77.07,30.35,3.216,104.8,14 / 16,6531111,2019-08-09 22:02:59:849,0.5909,-0.0933,9.3161,-0.447,0.1036,9.7959,-0.0015,-0.0229,0.0161
65312,46.459877,-0.881839,77.07,30.35,3.216,104.8,14 / 16,6531211,2019-08-09 22:02:59:949,-0.9402,0.0247,9.8201,-0.4438,0.1001,9.7961,-0.0012,-0.0349,-0.0218
65313,46.459877,-0.881839,77.07,30.35,3.216,104.8,14 / 16,6531310,2019-08-09 22:03:00:048,-0.9432,0.1755,10.0248,-0.4315,0.0995,9.7966,-0.0087,0.0285,-0.0058
65314,46.459877,-0.881839,77.07,30.35,3.216,104.8,14 / 16,6531410,2019-08-09 22:03:00:148,-0.5774,-0.037,9.9176,-0.4263,0.1009,9.7969,0.0164,0.0263,-0.0084
65315,46.459877,-0.881839,77.07,30.35,3.216,104.8,14 / 16,6531510,2019-08-09 22:03:00:248,-0.8558,0.1958,9.7872,-0.4304,0.1096,9.7966,0.0104,0.0049,-0.0132
65316,46.459877,-0.881839,77.07,30.35,3.216,104.8,14 / 16,6531610,2019-08-09 22:03:00:348,-0.945,-0.2202,9.194,-0.4113,0.1117,9.7974,0.001,-0.0038,-0.0094
65317,46.459877,-0.881839,77.07,30.35,3.216,104.8,14 / 16,6531710,2019-08-09 22:03:00:448,-0.5643,0.3317,9.5783,-0.4037,0.1115,9.7977,-0.0065,0.0294,-0.02
65318,46.459877,-0.881839,77.07,30.35,3.216,104.8,14 / 16,6531810,2019-08-09 22:03:00:548,-1.0611,0.1432,9.7608,-0.3949,0.1059,9.7981,-0.005,-0.0234,-0.0128
65319,46.459877,-0.881839,77.07,30.35,3.216,104.8,14 / 16,6531911,2019-08-09 22:03:00:649,0.5383,-0.013,9.4574,-0.3933,0.1088,9.7982,0.0046,-0.0118,-0.003
65320,46.459877,-0.881839,77.07,30.35,3.216,104.8,14 / 16,6532010,2019-08-09 22:03:00:748,0.3898,0.3886,9.5555,-0.399,0.1093,9.7979,-0.0024,-0.0336,-0.013
65321,46.459877,-0.881839,77.07,30.35,3.216,104.8,14 / 16,6532110,2019-08-09 22:03:00:848,0.1402,0.2922,9.5645,-0.4023,0.1096,9.7978,-0.0027,-0.0138,-0.0213
65322,46.459877,-0.881839,77.07,30.35,3.216,104.8,14 / 16,6532210,2019-08-09 22:03:00:948,-0.0166,0.0396,9.777,-0.4011,0.1109,9.7978,0.0077,0.0019,-0.0014
65323,46.459877,-0.881839,77.07,30.35,3.216,104.8,14 / 16,6532310,2019-08-09 22:03:01:048,-0.4667,0.4323,10.0062,-0.4125,0.1142,9.7973,-0.0015,0.0206,-0.031
65324,46.459877,-0.881839,77.07,30.35,3.216,104.8,14 / 16,6532410,2019-08-09 22:03:01:148,-0.7343,-0.1651,9.8219,-0.4152,0.1165,9.7972,-0.0026,-0.0167,-0.0086
65325,46.459877,-0.881839,77.07,30.35,3.216,104.8,14 / 16,6532510,2019-08-09 22:03:01:248,0.072,-0.0322,9.3969,-0.3962,0.1129,9.798,0.0073,0.0081,-0.0109
65326,46.459877,-0.881839,77.07,30.35,3.216,104.8,16 / 18,6532610,2019-08-09 22:03:01:348,-1.2712,0.3197,9.4538,-0.3975,0.1173,9.7979,-0.0042,0.0063,-0.0019
65327,46.459877,-0.881839,77.07,30.35,3.216,104.8,16 / 18,6532710,2019-08-09 22:03:01:448,-0.1896,0.4658,10.0368,-0.4129,0.1171,9.7973,-0.0128,0.0113,-0.0275
65328,46.459877,-0.881839,77.07,30.35,3.216,104.8,16 / 18,6532810,2019-08-09 22:03:01:548,-0.7121,-0.2962,9.8847,-0.4127,0.1097,9.7973,0.004,-0.0039,-0.0423
65329,46.459877,-0.881839,77.07,30.35,3.216,104.8,16 / 18,6532911,2019-08-09 22:03:01:649,-1.015,0.0929,9.5789,-0.4071,0.1224,9.7974,0.0212,0.0001,-0.0091
65330,46.459877,-0.881839,77.07,30.35,3.216,104.8,16 / 18,6533011,2019-08-09 22:03:01:749,-0.8055,0.2539,9.4861,-0.4112,0.1264,9.7972,-0.0005,-0.0363,0.002
65331,46.459877,-0.881839,77.07,30.35,3.216,104.8,16 / 18,6533110,2019-08-09 22:03:01:848,-0.2548,0.634,10.2205,-0.4198,0.1361,9.7967,-0.0045,0.0376,-0.0342
65332,46.459877,-0.881839,77.07,30.35,3.216,104.8,16 / 18,6533210,2019-08-09 22:03:01:948,-1.5423,0.6118,10.0038,-0.416,0.1387,9.7968,-0.0038,0.0006,-0.0259
65333,46.459877,-0.881839,77.07,30.35,3.216,104.8,16 / 18,6533310,2019-08-09 22:03:02:048,-1.4621,0.3964,9.5358,-0.4035,0.1489,9.7972,0.0112,0.0149,-0.0098
65334,46.459877,-0.881839,77.07,30.35,3.216,104.8,16 / 18,6533410,2019-08-09 22:03:02:148,0.0343,0.5245,9.7698,-0.4151,0.1561,9.7966,0.0112,0.0149,-0.0098
65335,46.459877,-0.881839,77.07,30.35,3.216,104.8,16 / 18,6533510,2019-08-09 22:03:02:248,0.0223,0.121,9.5651,-0.4006,0.1625,9.7971,-0.0106,-0.0255,-0.006
65336,46.459877,-0.881839,77.07,30.35,3.216,104.8,17 / 19,6533610,2019-08-09 22:03:02:348,-0.6062,0.2437,9.783,-0.3979,0.1572,9.7973,0.0005,-0.0009,-0.016
65337,46.459877,-0.881839,77.07,30.35,3.216,104.8,17 / 19,6533710,2019-08-09 22:03:02:448,-0.447,0.1988,9.9009,-0.3991,0.1597,9.7972,0.0005,0.0007,-0.0046
65338,46.459877,-0.881839,77.07,30.35,3.216,104.8,17 / 19,6533810,2019-08-09 22:03:02:548,0.2396,0.0594,9.6555,-0.423,0.1548,9.7963,-0.0078,-0.0222,0.0027
65339,46.459877,-0.881839,77.07,30.35,3.216,104.8,17 / 19,6533910,2019-08-09 22:03:02:648,-0.2171,0.0181,9.3616,-0.412,0.1504,9.7968,0.009,-0.0049,-0.0158
65340,46.459877,-0.881839,77.07,30.35,3.216,104.8,17 / 19,6534010,2019-08-09 22:03:02:748,0.4323,0.0755,9.795,-0.4073,0.1568,9.7969,0.009,0.0015,-0.0085
65341,46.459877,-0.881839,77.07,30.35,3.216,104.8,17 / 19,6534110,2019-08-09 22:03:02:848,0.8322,0.0923,10.2002,-0.4209,0.1599,9.7963,-0.0035,-0.0359,-0.0069
65342,46.459877,-0.881839,77.07,30.35,3.216,104.8,17 / 19,6534210,2019-08-09 22:03:02:948,0.1247,0.0085,9.5831,-0.3971,0.1583,9.7973,0.0004,0.003,0.0015
65343,46.459877,-0.881839,77.07,30.35,3.216,104.8,17 / 19,6534310,2019-08-09 22:03:03:048,0.2085,0.0791,9.4143,-0.4157,0.1541,9.7966,-0.0061,0.0271,-0.0121
65344,46.459877,-0.881839,77.07,30.35,3.216,104.8,17 / 19,6534411,2019-08-09 22:03:03:149,0.3892,0.2443,10.0948,-0.4236,0.1444,9.7964,-0.0216,0.0128,-0.0033
65345,46.459877,-0.881839,77.07,30.35,3.216,104.8,17 / 19,6534511,2019-08-09 22:03:03:249,-0.5349,-0.3716,9.449,-0.4188,0.1181,9.797,-0.0026,-0.0096,0.0081
65346,46.459877,-0.881839,77.07,30.35,3.216,104.8,17 / 19,6534610,2019-08-09 22:03:03:348,-0.1136,0.0139,9.6112,-0.4139,0.1132,9.7973,-0.0024,0.0076,-0.0057
65347,46.459877,-0.881839,77.07,30.35,3.216,104.8,17 / 19,6534710,2019-08-09 22:03:03:448,-0.7013,-0.1956,9.6477,-0.4135,0.1024,9.7974,-0.0026,0.0199,-0.0151
65348,46.459877,-0.881839,77.07,30.35,3.216,104.8,17 / 19,6534811,2019-08-09 22:03:03:549,-1.2915,0.0905,9.6525,-0.4292,0.0994,9.7967,-0.0077,-0.0073,-0.0073
65349,46.459877,-0.881839,77.07,30.35,3.216,104.8,17 / 19,6534910,2019-08-09 22:03:03:648,-0.1501,-0.2435,9.4268,-0.4015,0.0905,9.798,0.0046,-0.017,0.0052
65350,46.459877,-0.881839,77.07,30.35,3.216,104.8,17 / 19,6535010,2019-08-09 22:03:03:748,-0.3931,0.0043,10.2127,-0.4158,0.0865,9.7974,0.0053,0.0342,-0.0018
65351,46.459877,-0.881839,77.07,30.35,3.216,104.8,17 / 19,6535110,2019-08-09 22:03:03:848,-0.9438,-0.2196,10.2552,-0.4379,0.0787,9.7966,-0.0099,0.016,0.0095
65352,46.459877,-0.881839,77.07,30.35,3.216,104.8,17 / 19,6535210,2019-08-09 22:03:03:948,-0.4829,-0.1801,9.4669,-0.4305,0.0697,9.7969,-0.0069,-0.0075,-0.0058
65353,46.459877,-0.881839,77.07,30.35,3.216,104.8,17 / 19,6535310,2019-08-09 22:03:04:048,-0.4523,0.1504,9.6016,-0.4359,0.0752,9.7967,0.0067,-0.0024,0.0034
65354,46.459877,-0.881839,77.07,30.35,3.216,104.8,17 / 19,6535410,2019-08-09 22:03:04:148,-0.9342,0.0534,9.9733,-0.4412,0.0736,9.7964,-0.0024,-0.0005,0.0088
65355,46.459877,-0.881839,77.07,30.35,3.216,104.8,17 / 19,6535511,2019-08-09 22:03:04:249,-2.4557,-0.362,9.3275,-0.4451,0.0679,9.7963,0.0028,0.0036,0.0023
65356,46.459877,-0.881839,77.07,30.35,3.216,104.8,17 / 19,6535610,2019-08-09 22:03:04:348,0.4198,0.2096,9.7764,-0.4428,0.0648,9.7964,0.0013,0.0042,-0.0111
65357,46.459877,-0.881839,77.07,30.35,3.216,104.8,17 / 19,6535710,2019-08-09 22:03:04:448,0.5999,-0.2692,9.6268,-0.4424,0.063,9.7965,0.0006,0.0253,-0.018
65358,46.459877,-0.881839,77.07,30.35,3.216,104.8,17 / 19,6535810,2019-08-09 22:03:04:548,-0.523,-0.1483,9.5136,-0.4509,0.059,9.7961,-0.0022,-0.0238,0.0021
65359,46.459877,-0.881839,77.07,30.35,3.216,104.8,17 / 19,6535910,2019-08-09 22:03:04:648,-0.5014,0.5394,10.2301,-0.4595,0.0541,9.7957,0.0116,-0.0565,0.0517
65360,46.459877,-0.881839,77.07,30.35,3.216,104.8,17 / 19,6536011,2019-08-09 22:03:04:749,-0.1573,0.391,9.8937,-0.4582,0.0486,9.7958,-0.0036,0.0471,-0.0412
65361,46.459877,-0.881839,77.07,30.35,3.216,104.8,17 / 19,6536111,2019-08-09 22:03:04:849,-0.3829,0.1336,10.281,-0.4814,0.0529,9.7947,-0.0029,0.0332,-0.0114
65362,46.459877,-0.881839,77.07,30.35,3.216,104.8,17 / 19,6536210,2019-08-09 22:03:04:948,-0.6205,-0.3991,9.4693,-0.4627,0.0561,9.7956,0.0024,-0.0232,-0.0124
65363,46.459877,-0.881839,77.07,30.35,3.216,104.8,17 / 19,6536310,2019-08-09 22:03:05:048,0.7178,0.4407,9.7872,-0.476,0.0553,9.7949,-0.0072,-0.0164,-0.0136
65364,46.459877,-0.881839,77.07,30.35,3.216,104.8,17 / 19,6536411,2019-08-09 22:03:05:149,-0.4446,0.2629,9.6519,-0.4803,0.0495,9.7948,0.0014,0.0094,0.0003
65365,46.459877,-0.881839,77.07,30.35,3.216,104.8,17 / 19,6536510,2019-08-09 22:03:05:248,0.415,-0.1711,9.6711,-0.489,0.0482,9.7943,0.0014,0.0094,0.0003
65366,46.459877,-0.881839,77.07,30.35,3.216,104.8,15 / 18,6536611,2019-08-09 22:03:05:349,0.0319,-0.3375,9.5178,-0.4821,0.0455,9.7947,0.0012,-0.0155,0.0195
65367,46.459877,-0.881839,77.07,30.35,3.216,104.8,15 / 18,6536710,2019-08-09 22:03:05:448,-0.5703,-0.265,9.8063,-0.4893,0.0403,9.7944,0.0034,-0.0109,0.0054
65368,46.459877,-0.881839,77.07,30.35,3.216,104.8,15 / 18,6536810,2019-08-09 22:03:05:548,-0.9851,0.0187,9.9266,-0.512,0.0422,9.7932,0.0022,0.0245,-0.0116
65369,46.459877,-0.881839,77.07,30.35,3.216,104.8,15 / 18,6536910,2019-08-09 22:03:05:648,-0.7887,0.3347,9.7602,-0.5062,0.0494,9.7935,0.0113,-0.0027,-0.0158
65370,46.459877,-0.881839,77.07,30.35,3.216,104.8,15 / 18,6537011,2019-08-09 22:03:05:749,-0.6852,0.2078,10.1649,-0.5143,0.0575,9.793,-0.0047,-0.007,-0.0032
65371,46.459877,-0.881839,77.07,30.35,3.216,104.8,15 / 18,6537111,2019-08-09 22:03:05:849,-1.422,-0.1549,9.3598,-0.5147,0.056,9.793,-0.004,0.0113,-0.0146
65372,46.459877,-0.881839,77.07,30.35,3.216,104.8,15 / 18,6537210,2019-08-09 22:03:05:948,-0.7355,-0.1004,9.6303,-0.5219,0.05,9.7926,-0.0005,0.0271,-0.0133
65373,46.459877,-0.881839,77.07,30.35,3.216,104.8,15 / 18,6537310,2019-08-09 22:03:06:048,-0.3907,-0.1842,9.5412,-0.531,0.048,9.7921,0.0023,-0.0327,0.0063
65374,46.459877,-0.881839,77.07,30.35,3.216,104.8,15 / 18,6537410,2019-08-09 22:03:06:148,-1.5435,0.0031,9.5268,-0.5292,0.05,9.7922,0.0013,0.0309,-0.0293
65375,46.459877,-0.881839,77.07,30.35,3.216,104.8,15 / 18,6537510,2019-08-09 22:03:06:248,-0.8534,-0.0316,9.6309,-0.5446,0.0514,9.7914,-0.0071,-0.0283,0.0053
65376,46.459877,-0.881839,77.07,30.35,3.216,104.8,16 / 19,6537610,2019-08-09 22:03:06:348,-0.8839,-0.0933,9.264,-0.5335,0.0504,9.792,0.0138,-0.0051,-0.0172
65377,46.459877,-0.881839,77.07,30.35,3.216,104.8,16 / 19,6537710,2019-08-09 22:03:06:448,-1.0186,0.1252,10.1343,-0.56,0.0544,9.7905,0.0099,0.024,0.0119
65378,46.459877,-0.881839,77.07,30.35,3.216,104.8,16 / 19,6537810,2019-08-09 22:03:06:548,-0.1207,-0.1896,10.2678,-0.5805,0.0464,9.7893,-0.0096,0.0033,0.0188
65379,46.459877,-0.881839,77.07,30.35,3.216,104.8,16 / 19,6537910,2019-08-09 22:03:06:648,-0.4314,-0.3979,9.3472,-0.5683,0.035,9.7901,0.0201,-0.0345,0.0011
65380,46.459877,-0.881839,77.07,30.35,3.216,104.8,16 / 19,6538010,2019-08-09 22:03:06:748,-0.3703,0.1677,9.2676,-0.5982,0.05,9.7883,0.016,0.0338,-0.0106
65381,46.459877,-0.881839,77.07,30.35,3.216,104.8,16 / 19,6538110,2019-08-09 22:03:06:848,-0.3667,0.4466,9.8763,-0.583,0.057,9.7891,0.0041,-0.0212,-0.0261
65382,46.459877,-0.881839,77.07,30.35,3.216,104.8,16 / 19,6538210,2019-08-09 22:03:06:948,-0.7822,-0.2626,9.5675,-0.5798,0.0498,9.7894,-0.0022,0.0102,-0.0037
65383,46.459877,-0.881839,77.07,30.35,3.216,104.8,16 / 19,6538310,2019-08-09 22:03:07:048,-0.8803,-0.1657,9.7937,-0.5901,0.0494,9.7888,0.006,0.007,0.0036
65384,46.459877,-0.881839,77.07,30.35,3.216,104.8,16 / 19,6538411,2019-08-09 22:03:07:149,-1.8188,0.0606,9.9955,-0.6126,0.0353,9.7874,-0.0145,0.009,-0.0189
65385,46.459877,-0.881839,77.07,30.35,3.216,104.8,16 / 19,6538510,2019-08-09 22:03:07:248,-1.0736,-0.0166,9.856,-0.598,0.0292,9.7884,-0.0025,-0.0024,0.003
65386,46.459194,-0.87854,75.07,29.67,3.216,108.3,16 / 18,6538610,2019-08-09 22:03:07:348,-1.3556,-0.1753,9.4628,-0.6168,0.0183,9.7872,0.0014,0.0059,0.0012
65387,46.459194,-0.87854,75.07,29.67,3.216,108.3,16 / 18,6538710,2019-08-09 22:03:07:448,-1.015,-0.2423,9.7531,-0.6191,0.01,9.7871,-0.0026,0.0151,-0.0005
65388,46.459194,-0.87854,75.07,29.67,3.216,108.3,16 / 18,6538810,2019-08-09 22:03:07:548,-0.9593,-0.2477,9.5783,-0.6266,0.0071,9.7866,0.0058,0.0182,-0.0123
65389,46.459194,-0.87854,75.07,29.67,3.216,108.3,16 / 18,6538911,2019-08-09 22:03:07:649,-1.7506,0.2138,9.8566,-0.637,0.007,9.7859,0.0118,-0.0149,-0.0045
65390,46.459194,-0.87854,75.07,29.67,3.216,108.3,16 / 18,6539011,2019-08-09 22:03:07:749,-2.5407,0.042,9.6244,-0.6453,0.0253,9.7854,0.0135,-0.0234,-0.0168
65391,46.459194,-0.87854,75.07,29.67,3.216,108.3,16 / 18,6539111,2019-08-09 22:03:07:849,-2.1325,0.2006,9.8488,-0.648,0.0318,9.7852,0.0123,0.0181,-0.021
65392,46.459194,-0.87854,75.07,29.67,3.216,108.3,16 / 18,6539210,2019-08-09 22:03:07:948,0.9932,0.2497,10.1265,-0.6656,0.0451,9.7839,0.0045,-0.0143,-0.017
65393,46.459194,-0.87854,75.07,29.67,3.216,108.3,16 / 18,6539310,2019-08-09 22:03:08:048,1.4666,0.3359,9.8315,-0.6767,0.0513,9.7831,0.0004,-0.0008,-0.0076
65394,46.459194,-0.87854,75.07,29.67,3.216,108.3,16 / 18,6539410,2019-08-09 22:03:08:148,-0.9551,0.0666,9.4538,-0.6692,0.058,9.7836,0.0044,-0.024,-0.0053
65395,46.459194,-0.87854,75.07,29.67,3.216,108.3,16 / 18,6539510,2019-08-09 22:03:08:248,-0.1668,0.2096,10.0404,-0.7078,0.0635,9.7809,0.0102,0.01,0.0113
65396,46.459194,-0.87854,75.07,29.67,3.216,108.3,17 / 19,6539610,2019-08-09 22:03:08:348,0.4281,0.0211,10.4994,-0.7047,0.0617,9.7811,-0.0056,0.0175,-0.0416
65397,46.459194,-0.87854,75.07,29.67,3.216,108.3,17 / 19,6539710,2019-08-09 22:03:08:448,-0.5715,-0.0352,9.5136,-0.7029,0.0683,9.7812,0.0049,-0.0013,-0.001
65398,46.459194,-0.87854,75.07,29.67,3.216,108.3,17 / 19,6539810,2019-08-09 22:03:08:548,-0.1429,0.1851,9.6381,-0.6908,0.0693,9.782,0.0074,-0.0157,-0.005
65399,46.459194,-0.87854,75.07,29.67,3.216,108.3,17 / 19,6539910,2019-08-09 22:03:08:648,-1.5908,0.3233,10.0607,-0.711,0.0777,9.7805,-0.0015,0.0163,-0.0236
65400,46.459194,-0.87854,75.07,29.67,3.216,108.3,17 / 19,6540010,2019-08-09 22:03:08:748,-2.4377,0.0899,9.4256,-0.7063,0.0784,9.7809,0.0013,-0.0485,-0.0123
65401,46.459194,-0.87854,75.07,29.67,3.216,108.3,17 / 19,6540110,2019-08-09 22:03:08:848,-0.9192,0.3916,9.8656,-0.7167,0.0807,9.7801,-0.0061,0.0085,-0.0176
65402,46.459194,-0.87854,75.07,29.67,3.216,108.3,17 / 19,6540210,2019-08-09 22:03:08:948,-0.8103,-0.0699,9.6621,-0.7258,0.082,9.7794,-0.0086,-0.0185,-0.0168
65403,46.459194,-0.87854,75.07,29.67,3.216,108.3,17 / 19,6540310,2019-08-09 22:03:09:048,1.2074,0.0438,9.5855,-0.706,0.084,9.7808,0.0026,-0.0459,-0.0288
65404,46.459194,-0.87854,75.07,29.67,3.216,108.3,17 / 19,6540410,2019-08-09 22:03:09:148,0.8537,0.0839,9.3341,-0.7049,0.0829,9.7809,0.0009,-0.0098,0.0213
65405,46.459194,-0.87854,75.07,29.67,3.216,108.3,17 / 19,6540510,2019-08-09 22:03:09:248,-1.5686,0.1982,9.4304,-0.7013,0.0774,9.7812,-0.0136,-0.0364,0.0067
65406,46.459194,-0.87854,75.07,29.67,3.216,108.3,16 / 18,6540610,2019-08-09 22:03:09:348,-1.3562,-0.0196,9.5178,-0.7033,0.0703,9.7811,-0.0046,0.0215,-0.0137
65407,46.459194,-0.87854,75.07,29.67,3.216,108.3,16 / 18,6540711,2019-08-09 22:03:09:449,-1.0132,0.054,9.8422,-0.7347,0.0664,9.7789,-0.0078,-0.0169,-0.0025
65408,46.459194,-0.87854,75.07,29.67,3.216,108.3,16 / 18,6540810,2019-08-09 22:03:09:548,-1.7823,-0.04,9.9194,-0.7252,0.0602,9.7796,-0.002,0.0162,0.0005
65409,46.459194,-0.87854,75.07,29.67,3.216,108.3,16 / 18,6540910,2019-08-09 22:03:09:648,-2.3037,0.373,10.2061,-0.7656,0.0724,9.7764,0.0084,0.0495,-0.0382
65410,46.459194,-0.87854,75.07,29.67,3.216,108.3,16 / 18,6541010,2019-08-09 22:03:09:748,-1.1012,0.1976,10.2217,-0.767,0.0838,9.7763,0.0041,0.0303,-0.018
65411,46.459194,-0.87854,75.07,29.67,3.216,108.3,16 / 18,6541110,2019-08-09 22:03:09:848,-0.5266,0.3425,10.002,-0.7816,0.0922,9.775,0.0033,0.0196,-0.0019
65412,46.459194,-0.87854,75.07,29.67,3.216,108.3,16 / 18,6541210,2019-08-09 22:03:09:948,-0.578,0.1971,9.7435,-0.8129,0.0931,9.7725,-0.0021,-0.0153,-0.0163
65413,46.459194,-0.87854,75.07,29.67,3.216,108.3,16 / 18,6541310,2019-08-09 22:03:10:048,-0.854,0.2461,9.6208,-0.818,0.0992,9.772,0.0099,-0.0054,-0.022
65414,46.459194,-0.87854,75.07,29.67,3.216,108.3,16 / 18,6541410,2019-08-09 22:03:10:148,-1.6069,0.3634,10.2163,-0.8318,0.1077,9.7707,0.0108,0.0448,-0.0154
65415,46.459194,-0.87854,75.07,29.67,3.216,108.3,16 / 18,6541510,2019-08-09 22:03:10:248,-1.9846,0.3497,10.1271,-0.8582,0.1124,9.7684,-0.0028,0.0159,-0.0182
65416,46.459194,-0.87854,75.07,29.67,3.216,108.3,16 / 18,6541610,2019-08-09 22:03:10:348,-0.3003,0.23,9.959,-0.8581,0.1157,9.7683,0.0025,-0.0077,-0.0114
65417,46.459194,-0.87854,75.07,29.67,3.216,108.3,16 / 18,6541710,2019-08-09 22:03:10:448,-2.4569,0.0229,9.6992,-0.8817,0.1192,9.7662,0.0017,0.0249,-0.0132
65418,46.459194,-0.87854,75.07,29.67,3.216,108.3,16 / 18,6541810,2019-08-09 22:03:10:548,-1.7488,-0.0801,9.045,-0.8543,0.1238,9.7686,0.0044,0.0004,-0.0289
65419,46.459194,-0.87854,75.07,29.67,3.216,108.3,16 / 18,6541910,2019-08-09 22:03:10:648,-0.9581,0.3994,9.0366,-0.8289,0.1347,9.7706,0.0111,-0.0522,0.0031
65420,46.459194,-0.87854,75.07,29.67,3.216,108.3,16 / 18,6541911,2019-08-09 22:03:10:649,-0.9581,0.3994,9.0366,-0.8289,0.1347,9.7706,0.0111,-0.0522,0.0031
65421,46.459194,-0.87854,75.07,29.67,3.216,108.3,16 / 18,6541911,2019-08-09 22:03:10:649,-0.9581,0.3994,9.0366,-0.8289,0.1347,9.7706,0.0111,-0.0522,0.0031
65422,46.459194,-0.87854,75.07,29.67,3.216,108.3,16 / 18,6541911,2019-08-09 22:03:10:649,-0.9581,0.3994,9.0366,-0.8289,0.1347,9.7706,0.0111,-0.0522,0.0031
65423,46.459194,-0.87854,75.07,29.67,3.216,108.3,16 / 18,6541912,2019-08-09 22:03:10:650,-0.9581,0.3994,9.0366,-0.8289,0.1347,9.7706,0.0111,-0.0522,0.0031
65424,46.459194,-0.87854,75.07,29.67,3.216,108.3,16 / 18,6541954,2019-08-09 22:03:10:692,-0.9581,0.3994,9.0366,-0.8289,0.1347,9.7706,0.0111,-0.0522,0.0031
65425,46.459194,-0.87854,75.07,29.67,3.216,108.3,16 / 18,6542055,2019-08-09 22:03:10:793,-1.5136,0.2593,9.9548,-0.8665,0.1286,9.7675,-0.0127,0.0094,-0.0068
65426,46.459194,-0.87854,75.07,29.67,3.216,108.3,16 / 18,6542155,2019-08-09 22:03:10:893,-2.0098,0.0797,10.0685,-0.8669,0.1265,9.7674,0.005,0.0468,-0.0199
65427,46.459194,-0.87854,75.07,29.67,3.216,108.3,16 / 18,6542255,2019-08-09 22:03:10:993,-0.6451,0.4341,9.844,-0.89,0.1307,9.7653,0.0038,-0.014,0.0082
65428,46.459194,-0.87854,75.07,29.67,3.216,108.3,16 / 18,6542355,2019-08-09 22:03:11:093,-1.1006,0.4107,9.5567,-0.8891,0.134,9.7653,0.0007,-0.0043,-0.024
65429,46.459194,-0.87854,75.07,29.67,3.216,108.3,16 / 18,6542455,2019-08-09 22:03:11:193,-0.7971,0.23,9.6178,-0.8916,0.1309,9.7652,-0.0011,-0.0068,-0.0075
65430,46.459194,-0.87854,75.07,29.67,3.216,108.3,16 / 18,6542555,2019-08-09 22:03:11:293,-1.2969,-0.1142,9.8338,-0.8997,0.1335,9.7644,0.006,-0.0002,0.0015
65431,46.459194,-0.87854,75.07,29.67,3.216,108.3,17 / 19,6542655,2019-08-09 22:03:11:393,-2.1852,0.0444,10.0589,-0.9098,0.1319,9.7635,-0.0083,-0.0082,0.0018
65432,46.459194,-0.87854,75.07,29.67,3.216,108.3,17 / 19,6542755,2019-08-09 22:03:11:493,-1.5716,-0.0986,10.0344,-0.9187,0.1211,9.7628,-0.0039,0.0213,-0.0137
65433,46.459194,-0.87854,75.07,29.67,3.216,108.3,17 / 19,6542855,2019-08-09 22:03:11:593,-0.9707,0.0276,9.8207,-0.9298,0.1184,9.7618,0.0005,0.0026,-0.0062
65434,46.459194,-0.87854,75.07,29.67,3.216,108.3,17 / 19,6542955,2019-08-09 22:03:11:693,-1.0994,0.1869,10.4677,-0.939,0.1181,9.7609,-0.0031,0.0201,-0.0163
65435,46.459194,-0.87854,75.07,29.67,3.216,108.3,17 / 19,6543055,2019-08-09 22:03:11:793,0.2809,0.1366,9.3538,-0.9222,0.1184,9.7625,0.0091,0.0145,-0.0157
65436,46.459194,-0.87854,75.07,29.67,3.216,108.3,17 / 19,6543155,2019-08-09 22:03:11:893,0.5508,0.3958,10.1942,-0.934,0.1264,9.7612,-0.011,0.0228,-0.0136
65437,46.459194,-0.87854,75.07,29.67,3.216,108.3,17 / 19,6543255,2019-08-09 22:03:11:993,-2.6562,-0.1729,9.7267,-0.9431,0.1188,9.7605,-0.0069,-0.0084,0.012
65438,46.459194,-0.87854,75.07,29.67,3.216,108.3,17 / 19,6543355,2019-08-09 22:03:12:093,-2.3575,0.0259,9.2054,-0.9416,0.1146,9.7607,0.0099,-0.0045,-0.0016
65439,46.459194,-0.87854,75.07,29.67,3.216,108.3,17 / 19,6543455,2019-08-09 22:03:12:193,-1.3179,0.0049,9.4179,-0.9396,0.1219,9.7608,0.0049,-0.005,-0.0162
65440,46.459194,-0.87854,75.07,29.67,3.216,108.3,17 / 19,6543555,2019-08-09 22:03:12:293,-0.4535,0.3634,10.1283,-0.947,0.1188,9.7601,-0.0038,0.0072,-0.0142
65441,46.459194,-0.87854,75.07,29.67,3.216,108.3,16 / 18,6543655,2019-08-09 22:03:12:393,-1.6297,-0.1483,10.3037,-0.9801,0.1055,9.757,-0.0119,0.0418,-0.0028
65442,46.459194,-0.87854,75.07,29.67,3.216,108.3,16 / 18,6543755,2019-08-09 22:03:12:493,-2.0517,-0.3746,9.0031,-0.9834,0.0983,9.7567,0.0045,-0.0224,0.0138
65443,46.459194,-0.87854,75.07,29.67,3.216,108.3,16 / 18,6543855,2019-08-09 22:03:12:593,-0.1692,0.64,10.2816,-0.9691,0.0983,9.7582,0.0071,-0.0321,0.0244
65444,46.459194,-0.87854,75.07,29.67,3.216,108.3,16 / 18,6543955,2019-08-09 22:03:12:693,-0.6864,0.1246,9.7243,-0.9772,0.0921,9.7574,0.0068,-0.0177,-0.0066
65445,46.459194,-0.87854,75.07,29.67,3.216,108.3,16 / 18,6544055,2019-08-09 22:03:12:793,-0.2045,0.1881,10.1583,-0.9794,0.1026,9.7571,0.0029,0.0079,-0.0076
65446,46.459194,-0.87854,75.07,29.67,3.216,108.3,16 / 18,6544155,2019-08-09 22:03:12:893,-1.1766,0.2599,10.0338,-0.9883,0.0983,9.7562,-0.0087,0.0228,-0.0062
65447,46.459194,-0.87854,75.07,29.67,3.216,108.3,16 / 18,6544255,2019-08-09 22:03:12:993,-1.0653,-0.2531,9.4101,-0.9936,0.0945,9.7557,-0.0038,0.0633,-0.0368
65448,46.459194,-0.87854,75.07,29.67,3.216,108.3,16 / 18,6544355,2019-08-09 22:03:13:093,-2.7735,0.0318,9.5094,-0.9661,0.0991,9.7584,0.0066,-0.0202,0.0209
65449,46.459194,-0.87854,75.07,29.67,3.216,108.3,16 / 18,6544455,2019-08-09 22:03:13:193,1.2056,0.1342,10.0757,-1.0209,0.0915,9.7529,0.0041,-0.0042,-0.0094
65450,46.459194,-0.87854,75.07,29.67,3.216,108.3,16 / 18,6544555,2019-08-09 22:03:13:293,0.1648,-0.1304,9.4837,-0.9871,0.0931,9.7564,0.0011,-0.0425,0.0004
65451,46.459194,-0.87854,75.07,29.67,3.216,108.3,17 / 19,6544654,2019-08-09 22:03:13:392,-0.4613,0.0947,9.7279,-0.9824,0.0909,9.7569,-0.0125,-0.0187,-0.0003
65452,46.459194,-0.87854,75.07,29.67,3.216,108.3,17 / 19,6544755,2019-08-09 22:03:13:493,-1.5531,0.0929,9.9512,-0.9889,0.0747,9.7564,-0.0171,0.0079,-0.0128
65453,46.459194,-0.87854,75.07,29.67,3.216,108.3,17 / 19,6544855,2019-08-09 22:03:13:593,-1.4394,-0.0262,9.7183,-0.9832,0.0693,9.757,-0.0055,0.0054,-0.0037
65454,46.459194,-0.87854,75.07,29.67,3.216,108.3,17 / 19,6544955,2019-08-09 22:03:13:693,-1.2149,0.1833,9.9781,-0.9889,0.0582,9.7565,0.001,0.0375,-0.0133
65455,46.459194,-0.87854,75.07,29.67,3.216,108.3,17 / 19,6545055,2019-08-09 22:03:13:793,-0.2045,0.2192,10.1756,-0.9955,0.0595,9.7558,0.001,0.0375,-0.0133
65456,46.459194,-0.87854,75.07,29.67,3.216,108.3,17 / 19,6545155,2019-08-09 22:03:13:893,-1.7829,0.045,9.4633,-0.9892,0.0652,9.7564,0.0074,-0.0042,-0.002
65457,46.459194,-0.87854,75.07,29.67,3.216,108.3,17 / 19,6545254,2019-08-09 22:03:13:992,-1.3107,0.4155,10.0589,-0.9999,0.0742,9.7553,0.008,-0.0164,-0.0137
65458,46.459194,-0.87854,75.07,29.67,3.216,108.3,17 / 19,6545356,2019-08-09 22:03:14:094,-1.8374,0.3437,9.9182,-1.0077,0.0862,9.7544,-0.0065,-0.0199,-0.0308
65459,46.459194,-0.87854,75.07,29.67,3.216,108.3,17 / 19,6545454,2019-08-09 22:03:14:192,-1.0521,0.3347,9.8195,-1.0019,0.0877,9.7549,0.0022,-0.0038,-0.0133
65460,46.459194,-0.87854,75.07,29.67,3.216,108.3,17 / 19,6545555,2019-08-09 22:03:14:293,-0.8234,0.4041,9.8817,-1.0051,0.0971,9.7545,0.0034,0.0181,-0.0278
65461,46.459194,-0.87854,75.07,29.67,3.216,108.3,17 / 19,6545655,2019-08-09 22:03:14:393,0.409,0.4293,10.0026,-0.9998,0.1014,9.755,-0.0024,-0.0114,-0.0155
65462,46.459194,-0.87854,75.07,29.67,3.216,108.3,17 / 19,6545755,2019-08-09 22:03:14:493,-2.0146,0.1133,9.6417,-1.0088,0.1014,9.7541,-0.0053,0.0045,-0.0264
65463,46.459194,-0.87854,75.07,29.67,3.216,108.3,17 / 19,6545856,2019-08-09 22:03:14:594,-2.2713,0.2671,10.1337,-1.0129,0.1013,9.7537,-0.002,0.0182,-0.0151
65464,46.459194,-0.87854,75.07,29.67,3.216,108.3,17 / 19,6545955,2019-08-09 22:03:14:693,-2.6071,0.0612,9.2281,-1.0085,0.1044,9.7541,0.0049,-0.0477,-0.0108
65465,46.459194,-0.87854,75.07,29.67,3.216,108.3,17 / 19,6546055,2019-08-09 22:03:14:793,0.069,0.2467,9.4418,-0.9919,0.1103,9.7557,0.0071,0.0308,-0.0238
65466,46.459194,-0.87854,75.07,29.67,3.216,108.3,17 / 19,6546155,2019-08-09 22:03:14:893,0.0786,0.2563,10.0416,-1.0065,0.1091,9.7543,-0.0111,0.0093,-0.0179
65467,46.459194,-0.87854,75.07,29.67,3.216,108.3,17 / 19,6546255,2019-08-09 22:03:14:993,-0.9485,0.1575,9.8434,-0.9889,0.106,9.7561,0.0018,0.0193,-0.0323
65468,46.459194,-0.87854,75.07,29.67,3.216,108.3,17 / 19,6546355,2019-08-09 22:03:15:093,-1.5501,0.115,9.4382,-0.9954,0.1158,9.7553,0.0128,-0.0148,-0.0038
65469,46.459194,-0.87854,75.07,29.67,3.216,108.3,17 / 19,6546455,2019-08-09 22:03:15:193,-1.6183,0.2605,9.6776,-1.004,0.1193,9.7544,-0.0009,0.0106,-0.0219
65470,46.459194,-0.87854,75.07,29.67,3.216,108.3,17 / 19,6546555,2019-08-09 22:03:15:293,-1.0892,0.1061,9.868,-0.9991,0.1228,9.7549,0.0071,-0.0014,-0.0201
65471,46.459194,-0.87854,75.07,29.67,3.216,108.3,16 / 18,6546655,2019-08-09 22:03:15:393,-1.6908,-0.1076,9.2922,-1.0111,0.1244,9.7536,-0.002,-0.0527,0.0215
65472,46.459194,-0.87854,75.07,29.67,3.216,108.3,16 / 18,6546755,2019-08-09 22:03:15:493,-0.684,0.3066,9.9452,-0.9828,0.1256,9.7565,-0.0039,0.0271,-0.0091
65473,46.459194,-0.87854,75.07,29.67,3.216,108.3,16 / 18,6546855,2019-08-09 22:03:15:593,-0.5517,0.3437,9.7704,-0.9779,0.1245,9.757,0.0,-0.0045,-0.0177
65474,46.459194,-0.87854,75.07,29.67,3.216,108.3,16 / 18,6546955,2019-08-09 22:03:15:693,-0.6271,-0.0418,9.771,-0.9696,0.1248,9.7578,-0.0002,-0.0023,-0.0064
65475,46.459194,-0.87854,75.07,29.67,3.216,108.3,16 / 18,6547055,2019-08-09 22:03:15:793,-0.098,0.4227,9.862,-0.9659,0.1193,9.7582,-0.0025,-0.0172,0.0181
65476,46.459194,-0.87854,75.07,29.67,3.216,108.3,16 / 18,6547155,2019-08-09 22:03:15:893,-1.3747,-0.2345,9.5825,-0.9627,0.1156,9.7586,0.0017,0.0108,0.0034
65477,46.459194,-0.87854,75.07,29.67,3.216,108.3,16 / 18,6547255,2019-08-09 22:03:15:993,-1.5064,-0.0304,10.0445,-0.9675,0.1125,9.7582,-0.0028,0.0174,-0.0102
65478,46.459194,-0.87854,75.07,29.67,3.216,108.3,16 / 18,6547355,2019-08-09 22:03:16:093,-0.5996,-0.1657,9.9087,-0.9526,0.1008,9.7598,0.0017,0.0021,0.0088
65479,46.459194,-0.87854,75.07,29.67,3.216,108.3,16 / 18,6547455,2019-08-09 22:03:16:193,-0.6954,-0.4099,9.0869,-0.9577,0.0937,9.7593,0.0056,-0.0457,0.025
65480,46.459194,-0.87854,75.07,29.67,3.216,108.3,16 / 18,6547555,2019-08-09 22:03:16:293,-1.0335,-0.5482,9.5603,-0.9449,0.0827,9.7607,-0.0083,-0.005,0.0235
65481,46.458305,-0.875105,74.52,32.31,3.216,112.8,16 / 18,6547655,2019-08-09 22:03:16:393,-0.7612,-0.5984,9.9787,-0.9494,0.0673,9.7604,-0.0005,-0.0375,0.0391
65482,46.458305,-0.875105,74.52,32.31,3.216,112.8,16 / 18,6547755,2019-08-09 22:03:16:493,-0.9611,-0.0627,10.111,-0.9418,0.0581,9.7612,0.0007,-0.0377,-0.0039
65483,46.458305,-0.875105,74.52,32.31,3.216,112.8,16 / 18,6547855,2019-08-09 22:03:16:593,0.3779,-0.2932,9.8374,-0.9632,0.0491,9.7591,-0.011,0.017,-0.0066
65484,46.458305,-0.875105,74.52,32.31,3.216,112.8,16 / 18,6547955,2019-08-09 22:03:16:693,-1.237,-0.3267,9.4179,-0.9163,0.0462,9.7636,-0.0074,-0.0155,0.0262
65485,46.458305,-0.875105,74.52,32.31,3.216,112.8,16 / 18,6548055,2019-08-09 22:03:16:793,-1.4519,-0.1244,10.2469,-0.9403,0.0325,9.7614,-0.0005,0.0173,-0.0022
65486,46.458305,-0.875105,74.52,32.31,3.216,112.8,16 / 18,6548154,2019-08-09 22:03:16:892,-0.8624,-0.1166,9.5501,-0.9477,0.0294,9.7607,-0.0027,-0.0322,-0.011
65487,46.458305,-0.875105,74.52,32.31,3.216,112.8,16 / 18,6548255,2019-08-09 22:03:16:993,-0.9264,-0.2166,9.5034,-0.9257,0.0209,9.7628,0.006,-0.0103,0.0062
65488,46.458305,-0.875105,74.52,32.31,3.216,112.8,16 / 18,6548355,2019-08-09 22:03:17:093,0.1283,0.1695,9.5591,-0.9101,0.026,9.7643,0.003,-0.0455,-0.0214
65489,46.458305,-0.875105,74.52,32.31,3.216,112.8,16 / 18,6548454,2019-08-09 22:03:17:192,0.3605,-0.043,9.9141,-0.9016,0.0239,9.7651,-0.0084,-0.0027,-0.0208
65490,46.458305,-0.875105,74.52,32.31,3.216,112.8,16 / 18,6548555,2019-08-09 22:03:17:293,-1.9547,-0.2453,9.789,-0.9034,0.0156,9.7649,0.0071,0.0027,0.0184
65491,46.458305,-0.875105,74.52,32.31,3.216,112.8,16 / 18,6548654,2019-08-09 22:03:17:392,-1.3975,-0.1232,9.1934,-0.8998,0.026,9.7652,0.0095,-0.0207,-0.0184
65492,46.458305,-0.875105,74.52,32.31,3.216,112.8,16 / 18,6548755,2019-08-09 22:03:17:493,-0.8384,-0.0891,9.7112,-0.9085,0.0274,9.7644,-0.0005,0.0135,-0.0065
65493,46.458305,-0.875105,74.52,32.31,3.216,112.8,16 / 18,6548855,2019-08-09 22:03:17:593,-0.0507,0.1929,9.8267,-0.8908,0.0352,9.766,0.0085,-0.0136,-0.0186
65494,46.458305,-0.875105,74.52,32.31,3.216,112.8,16 / 18,6548954,2019-08-09 22:03:17:692,-0.8719,0.3611,9.6034,-0.8855,0.0448,9.7665,0.0128,-0.0003,-0.0257
65495,46.458305,-0.875105,74.52,32.31,3.216,112.8,16 / 18,6549055,2019-08-09 22:03:17:793,-0.4374,0.2862,10.263,-0.894,0.0527,9.7657,-0.0143,0.0309,-0.0095
65496,46.458305,-0.875105,74.52,32.31,3.216,112.8,16 / 18,6549154,2019-08-09 22:03:17:892,-0.1626,-0.1244,9.4161,-0.8893,0.0521,9.7661,-0.0002,-0.044,-0.0001
65497,46.458305,-0.875105,74.52,32.31,3.216,112.8,16 / 18,6549255,2019-08-09 22:03:17:993,-0.6535,0.4035,9.3999,-0.8882,0.0573,9.7662,-0.0053,-0.0184,-0.0218
65498,46.458305,-0.875105,74.52,32.31,3.216,112.8,16 / 18,6549355,2019-08-09 22:03:18:093,-1.5698,0.06,9.273,-0.8941,0.0629,9.7656,0.0011,0.0534,-0.0237
65499,46.458305,-0.875105,74.52,32.31,3.216,112.8,16 / 18,6549455,2019-08-09 22:03:18:193,-0.3973,0.5915,10.2612,-0.8716,0.0641,9.7676,-0.0015,-0.0381,-0.0075
65500,46.458305,-0.875105,74.52,32.31,3.216,112.8,16 / 18,6549555,2019-08-09 22:03:18:293,-0.9904,0.1318,9.3658,-0.8561,0.0631,9.769,-0.0029,-0.0123,0.0009
65501,46.458305,-0.875105,74.52,32.31,3.216,112.8,17 / 19,6549654,2019-08-09 22:03:18:392,-0.7504,0.4407,10.093,-0.8467,0.0681,9.7698,-0.0027,0.0154,-0.0302
65502,46.458305,-0.875105,74.52,32.31,3.216,112.8,17 / 19,6549754,2019-08-09 22:03:18:492,-0.8911,0.4736,10.172,-0.8436,0.0696,9.7701,-0.0132,0.0079,-0.0167
65503,46.458305,-0.875105,74.52,32.31,3.216,112.8,17 / 19,6549855,2019-08-09 22:03:18:593,-0.1968,0.0049,9.0749,-0.8115,0.0622,9.7728,0.002,-0.035,-0.0035
65504,46.458305,-0.875105,74.52,32.31,3.216,112.8,17 / 19,6549955,2019-08-09 22:03:18:693,0.2947,0.2485,9.7417,-0.8124,0.0721,9.7727,0.0081,0.0339,-0.0184
65505,46.458305,-0.875105,74.52,32.31,3.216,112.8,17 / 19,6550055,2019-08-09 22:03:18:793,-0.5427,0.6711,10.2313,-0.8156,0.0791,9.7724,-0.0141,-0.0006,-0.0105
65506,46.458305,-0.875105,74.52,32.31,3.216,112.8,17 / 19,6550154,2019-08-09 22:03:18:892,-0.45,0.0085,9.4598,-0.7956,0.0736,9.7741,0.0126,-0.0045,-0.0173
65507,46.458305,-0.875105,74.52,32.31,3.216,112.8,17 / 19,6550254,2019-08-09 22:03:18:992,-0.256,0.2372,9.7094,-0.7911,0.0885,9.7743,0.0111,0.0122,-0.0137
65508,46.458305,-0.875105,74.52,32.31,3.216,112.8,17 / 19,6550355,2019-08-09 22:03:19:093,-0.9252,0.5257,10.1924,-0.7963,0.0896,9.7739,0.0022,-0.0643,0.0153
65509,46.458305,-0.875105,74.52,32.31,3.216,112.8,17 / 19,6550454,2019-08-09 22:03:19:192,0.3012,0.4065,10.0116,-0.7762,0.1005,9.7754,0.0116,-0.0345,0.0132
65510,46.458305,-0.875105,74.52,32.31,3.216,112.8,17 / 19,6550555,2019-08-09 22:03:19:293,-2.2636,0.3676,9.9901,-0.7874,0.1033,9.7744,-0.0008,0.055,-0.0009
65511,46.458305,-0.875105,74.52,32.31,3.216,112.8,17 / 19,6550655,2019-08-09 22:03:19:393,-2.5784,0.036,9.7848,-0.7805,0.1097,9.7749,0.0039,0.022,-0.0078
65512,46.458305,-0.875105,74.52,32.31,3.216,112.8,17 / 19,6550755,2019-08-09 22:03:19:493,0.877,0.0396,9.4203,-0.772,0.1128,9.7756,0.0063,-0.0099,-0.012
65513,46.458305,-0.875105,74.52,32.31,3.216,112.8,17 / 19,6550855,2019-08-09 22:03:19:593,0.0403,-0.0298,9.4681,-0.7701,0.1175,9.7757,-0.0023,0.0524,-0.0349
65514,46.458305,-0.875105,74.52,32.31,3.216,112.8,17 / 19,6550956,2019-08-09 22:03:19:694,-0.3332,0.3808,10.0266,-0.777,0.1235,9.775,-0.0054,-0.0193,-0.0005
65515,46.458305,-0.875105,74.52,32.31,3.216,112.8,17 / 19,6551055,2019-08-09 22:03:19:793,-0.5619,0.0061,9.6998,-0.7758,0.1148,9.7752,0.0008,-0.0009,-0.0052
65516,46.458305,-0.875105,74.52,32.31,3.216,112.8,17 / 19,6551155,2019-08-09 22:03:19:893,-0.4332,0.1282,9.7327,-0.7701,0.107,9.7758,0.0088,0.0013,-0.0032
65517,46.458305,-0.875105,74.52,32.31,3.216,112.8,17 / 19,6551255,2019-08-09 22:03:19:993,-0.3027,0.0917,9.7997,-0.771,0.1147,9.7756,0.0059,-0.0326,0.0133
65518,46.458305,-0.875105,74.52,32.31,3.216,112.8,17 / 19,6551355,2019-08-09 22:03:20:093,0.2881,0.0803,9.9434,-0.7586,0.1184,9.7765,0.0038,0.0195,-0.0076
65519,46.458305,-0.875105,74.52,32.31,3.216,112.8,17 / 19,6551455,2019-08-09 22:03:20:193,-2.0834,0.2629,9.9619,-0.7568,0.1225,9.7766,-0.002,-0.0359,-0.0011
65520,46.458305,-0.875105,74.52,32.31,3.216,112.8,17 / 19,6551555,2019-08-09 22:03:20:293,-2.4491,0.1935,9.7375,-0.7595,0.1171,9.7765,-0.0017,0.0268,-0.0096
65521,46.458305,-0.875105,74.52,32.31,3.216,112.8,17 / 19,6551655,2019-08-09 22:03:20:393,-2.0744,0.1677,9.7309,-0.7523,0.1179,9.777,-0.0049,0.0113,-0.0108
65522,46.458305,-0.875105,74.52,32.31,3.216,112.8,17 / 19,6551756,2019-08-09 22:03:20:494,0.0002,-0.0484,9.4975,-0.7454,0.1161,9.7776,0.0058,-0.0336,-0.0016
65523,46.458305,-0.875105,74.52,32.31,3.216,112.8,17 / 19,6551854,2019-08-09 22:03:20:592,0.722,0.0187,9.5106,-0.7508,0.1134,9.7772,-0.0064,0.0058,-0.0015
65524,46.458305,-0.875105,74.52,32.31,3.216,112.8,17 / 19,6551955,2019-08-09 22:03:20:693,0.7645,-0.2189,9.3484,-0.7495,0.1074,9.7774,0.0085,0.0186,0.009
65525,46.458305,-0.875105,74.52,32.31,3.216,112.8,17 / 19,6552055,2019-08-09 22:03:20:793,-1.6836,0.209,9.8141,-0.7491,0.1092,9.7774,0.0052,-0.021,-0.0163
65526,46.458305,-0.875105,74.52,32.31,3.216,112.8,17 / 19,6552155,2019-08-09 22:03:20:893,-1.158,0.1713,10.1176,-0.7581,0.1135,9.7766,-0.0068,-0.0028,-0.0116
65527,46.458305,-0.875105,74.52,32.31,3.216,112.8,17 / 19,6552254,2019-08-09 22:03:20:992,-0.8396,0.3784,9.7525,-0.7388,0.112,9.7781,0.0022,-0.0055,-0.0125
65528,46.458305,-0.875105,74.52,32.31,3.216,112.8,17 / 19,6552356,2019-08-09 22:03:21:094,-0.1549,-0.0172,9.5124,-0.7355,0.1122,9.7784,-0.0004,0.0119,-0.035
65529,46.458305,-0.875105,74.52,32.31,3.216,112.8,17 / 19,6552455,2019-08-09 22:03:21:193,-0.3362,0.063,9.7668,-0.7345,0.1181,9.7784,-0.0014,0.0004,0.004
65530,46.458305,-0.875105,74.52,32.31,3.216,112.8,17 / 19,6552555,2019-08-09 22:03:21:293,-0.3458,0.5268,9.8997,-0.7164,0.1232,9.7797,0.0029,0.0411,-0.0419
65531,46.458305,-0.875105,74.52,32.31,3.216,112.8,15 / 16,6552655,2019-08-09 22:03:21:393,-0.2201,0.2216,9.9691,-0.7116,0.1302,9.7799,-0.0017,-0.0153,-0.0079
65532,46.458305,-0.875105,74.52,32.31,3.216,112.8,15 / 16,6552755,2019-08-09 22:03:21:493,0.743,0.1396,9.6184,-0.691,0.124,9.7815,0.0024,0.0258,-0.0293
65533,46.458305,-0.875105,74.52,32.31,3.216,112.8,15 / 16,6552855,2019-08-09 22:03:21:593,1.4086,0.2886,10.1104,-0.6973,0.1319,9.7809,-0.0043,-0.0117,-0.0206
65534,46.458305,-0.875105,74.52,32.31,3.216,112.8,15 / 16,6552955,2019-08-09 22:03:21:693,-1.7075,-0.0939,9.4466,-0.6724,0.1334,9.7827,0.004,-0.0186,0.0099
65535,46.458305,-0.875105,74.52,32.31,3.216,112.8,15 / 16,6553056,2019-08-09 22:03:21:794,-0.016,0.2144,9.4203,-0.6756,0.1384,9.7824,0.0165,-0.0129,-0.0185
65536,46.458305,-0.875105,74.52,32.31,3.216,112.8,15 / 16,6553155,2019-08-09 22:03:21:893,0.7496,0.1174,9.4143,-0.6601,0.1499,9.7833,-0.0052,-0.0553,0.0116
65537,46.458305,-0.875105,74.52,32.31,3.216,112.8,15 / 16,6553255,2019-08-09 22:03:21:993,-1.7416,0.1833,10.0122,-0.6848,0.1455,9.7816,-0.0045,0.0567,-0.0118
65538,46.458305,-0.875105,74.52,32.31,3.216,112.8,15 / 16,6553355,2019-08-09 22:03:22:093,0.4042,0.5215,9.8153,-0.6871,0.151,9.7814,-0.0015,0.0392,-0.0219
65539,46.458305,-0.875105,74.52,32.31,3.216,112.8,15 / 16,6553455,2019-08-09 22:03:22:193,1.0542,0.2593,9.8093,-0.6743,0.1527,9.7822,0.0046,0.0274,-0.0195
65540,46.458305,-0.875105,74.52,32.31,3.216,112.8,15 / 16,6553555,2019-08-09 22:03:22:293,-2.3001,0.5508,10.0817,-0.6973,0.1606,9.7805,-0.0133,-0.0055,-0.0245
65541,46.458305,-0.875105,74.52,32.31,3.216,112.8,18 / 19,6553655,2019-08-09 22:03:22:393,-2.0882,-0.0107,9.6363,-0.6947,0.1571,9.7807,0.0048,-0.0109,-0.0005
65542,46.458305,-0.875105,74.52,32.31,3.216,112.8,18 / 19,6553755,2019-08-09 22:03:22:493,-1.0976,0.4945,9.5519,-0.6913,0.1655,9.7809,0.0048,-0.0096,-0.0264
