,GPS LATITUDE (degrees), GPS LONGITUDE (degrees), GPS ALTITUDE (m), GPS SPEED (Kmh), GPS ACCURACY (m), GPS ORIENTATION (Â°),GPS SATELLITES IN RANGE, TIME SINCE START (ms), DATE (YYYY-MO-DD HH-MI-SS_SSS), ACCELEROMETER X (m/s²) , ACCELEROMETER Y (m/s²), ACCELEROMETER Z (m/s²), GRAVITY X (m/s²), GRAVITY Y (m/s²), GRAVITY Z (m/s²), GYROSCOPE Yaw (rad/s), GYROSCOPE Pitch (rad/s), GYROSCOPE Roll (rad/s), MAGNETIC FIELD X (Î¼T), MAGNETIC FIELD Y (Î¼T), MAGNETIC FIELD Z (Î¼T), ORIENTATION (Yaw) (Â°), ORIENTATION (Pitch) (Â°), ORIENTATION (Roll ) (Â°)
12093,52.50848,-1.342796,161.76,21.53,3,121.22,20 / 20,1209311,2020-01-08 10:35:55:985,-3.1315,-1.6838,10.8078,-0.0291,0.0127,9.8066,-0.0352,-0.4055,0.286,-24.44,-30.75,29.81,336.26,-82.71,-162.54
12094,52.507553,-1.3405,163.14,20.53,3,125.99,20 / 20,1209411,2020-01-08 10:35:56:085,-2.0425,-0.3408,9.9667,-0.0601,-0.0623,9.8062,-0.0259,-0.1987,0.2189,-23.94,-30.81,29.31,337.62,-82.57,-160.28
12095,52.507553,-1.3405,163.14,20.53,3,125.99,20 / 20,1209510,2020-01-08 10:35:56:184,4.4689,3.9352,9.683,-0.02,-0.0203,9.8065,-0.0192,-0.6027,0.5122,-24.87,-30.56,29.44,334.3,-82.58,-162.15
12096,52.507553,-1.3405,163.14,20.53,3,125.99,20 / 20,1209610,2020-01-08 10:35:56:284,0.8938,1.0104,8.2788,-0.0509,-0.0599,9.8063,-0.1845,-0.3973,0.2078,-24.37,-30.56,29.44,334.52,-82.81,-163.15
12097,52.507553,-1.3405,163.14,20.53,3,125.99,20 / 20,1209711,2020-01-08 10:35:56:385,6.1824,2.241,10.2516,-0.0732,0.0024,9.8063,-0.0194,-0.5181,0.2941,-24.44,-30.94,29.06,338.11,-82.88,-159.94
12098,52.507553,-1.3405,163.14,20.53,3,125.99,20 / 20,1209811,2020-01-08 10:35:56:485,-3.2772,-1.7482,9.9895,-0.0453,-0.0391,9.8064,-0.0719,-0.5642,0.3576,-24.44,-31.19,29.38,337.42,-82.86,-160.55
12099,52.507553,-1.3405,163.14,20.53,3,125.99,20 / 20,1209910,2020-01-08 10:35:56:584,3.2594,2.5129,10.0793,-0.0359,-0.0283,9.8065,0.0573,-0.163,0.02,-24.81,-31.06,29.25,334.28,-82.91,-162.3
12100,52.507553,-1.3405,163.14,20.53,3,125.99,20 / 20,1210010,2020-01-08 10:35:56:684,-2.4345,-0.798,10.4419,-0.0053,-0.0105,9.8066,-0.0049,-0.3264,0.3145,-24.25,-31.19,29.81,333.01,-82.98,-165.59
12101,52.507553,-1.3405,163.14,20.53,3,125.99,20 / 20,1210111,2020-01-08 10:35:56:785,1.0967,0.9645,10.4641,-0.0119,-0.014,9.8066,-0.0215,0.2602,-0.1429,-24.25,-31.25,29.31,330.04,-83.02,-167.29
12102,52.507553,-1.3405,163.14,20.53,3,125.99,20 / 20,1210211,2020-01-08 10:35:56:885,1.4997,1.9777,9.7984,0.0138,0.0095,9.8066,-0.0244,-0.1577,0.1399,-24.25,-31.0,29.44,330.34,-82.99,-167.01
12103,52.507553,-1.3405,163.14,20.53,3,125.99,20 / 20,1210311,2020-01-08 10:35:56:985,1.7969,0.0965,11.3169,-0.0644,-0.0143,9.8064,0.0672,0.3031,-0.0439,-24.37,-30.94,29.44,332.57,-82.9,-164.95
12104,52.507553,-1.3405,163.14,20.53,3,125.99,20 / 20,1210411,2020-01-08 10:35:57:085,1.6239,0.7755,9.1068,0.0058,0.0036,9.8066,-0.209,0.0951,-0.0123,-24.5,-31.0,28.75,332.82,-82.75,-164.65
12105,52.507553,-1.3405,163.14,20.53,3,125.99,20 / 20,1210511,2020-01-08 10:35:57:185,0.1808,-0.6329,10.2408,-0.0243,0.0364,9.8065,0.0964,0.1323,-0.1029,-24.31,-31.0,28.38,332.54,-82.9,-163.93
12106,52.507553,-1.3405,163.14,20.53,3,125.99,20 / 20,1210610,2020-01-08 10:35:57:284,2.9974,1.9587,9.5404,0.0489,-0.0031,9.8065,0.0794,0.2872,-0.2517,-24.25,-31.5,28.44,332.41,-83.08,-164.13
12107,52.507553,-1.3405,163.14,20.53,3,125.99,20 / 20,1210711,2020-01-08 10:35:57:385,-2.4016,0.6591,7.294,0.0382,0.0248,9.8065,0.2152,0.1115,-0.1858,-25.19,-31.69,29.19,331.17,-83.17,-165.15
12108,52.507553,-1.3405,163.14,20.53,3,125.99,20 / 20,1210811,2020-01-08 10:35:57:485,1.5625,0.2884,10.4204,0.0475,-0.0226,9.8064,0.2502,0.2565,-0.1155,-25.69,-31.12,28.5,330.76,-83.07,-164.49
12109,52.507553,-1.3405,163.14,20.53,3,125.99,20 / 20,1210910,2020-01-08 10:35:57:584,-0.7849,-1.0825,9.0166,0.0588,-0.0159,9.8064,0.0634,0.0381,0.004,-24.69,-31.31,28.31,330.99,-83.07,-164.3
12110,52.507553,-1.3405,163.14,20.53,3,125.99,20 / 20,1211010,2020-01-08 10:35:57:684,1.9271,0.8395,9.8979,-0.0087,0.0076,9.8066,0.0602,0.1899,-0.1117,-24.75,-31.25,28.19,333.89,-83.12,-161.69
12111,52.507553,-1.3405,163.14,20.53,3,125.99,20 / 20,1211111,2020-01-08 10:35:57:785,0.0591,-0.0779,9.7913,0.0022,0.0049,9.8066,-0.1422,-0.057,0.1385,-24.94,-30.75,28.44,336.17,-83.3,-159.69
12112,52.507553,-1.3405,163.14,20.53,3,125.99,20 / 20,1211211,2020-01-08 10:35:57:885,2.5042,1.6317,9.5661,-0.0389,-0.0099,9.8065,-0.0898,0.1116,-0.0243,-25.19,-31.25,28.06,339.48,-83.5,-156.76
12113,52.507553,-1.3405,163.14,20.53,3,125.99,20 / 20,1211311,2020-01-08 10:35:57:985,-0.1475,-0.1891,10.4215,-0.0154,0.0088,9.8066,-0.0614,-0.3808,0.2963,-25.0,-31.06,28.56,340.46,-83.54,-156.91
12114,52.507553,-1.3405,163.14,20.53,3,125.99,20 / 20,1211411,2020-01-08 10:35:58:085,-1.7571,-1.7958,10.7189,-0.02,-0.042,9.8065,0.0695,-0.0677,-0.0004,-25.37,-31.12,28.63,341.99,-83.35,-155.47
12115,52.507553,-1.3405,163.14,20.53,3,125.99,20 / 20,1211511,2020-01-08 10:35:58:185,-2.0979,-0.9768,9.5158,-0.0011,-0.0077,9.8066,0.0461,-0.4561,0.2177,-25.75,-30.56,28.06,340.01,-83.44,-155.17
12116,52.507553,-1.3405,163.14,20.53,3,125.99,20 / 20,1211611,2020-01-08 10:35:58:285,-0.1571,-0.8829,11.2385,-0.0273,-0.0589,9.8064,0.1156,-0.0963,0.1468,-25.44,-30.94,28.44,341.43,-83.59,-155.02
12117,52.507553,-1.3405,163.14,20.53,3,125.99,20 / 20,1211711,2020-01-08 10:35:58:385,-0.2851,-0.6859,10.0328,0.0229,-0.0076,9.8066,0.1089,-0.1242,-0.0071,-25.87,-30.75,29.13,343.52,-83.3,-152.98
12118,52.507553,-1.3405,163.14,20.53,3,125.99,20 / 20,1211811,2020-01-08 10:35:58:485,-0.1331,-2.1524,11.7895,0.0131,0.0091,9.8066,-0.0445,0.0432,0.0157,-25.37,-30.31,28.81,346.23,-83.0,-151.61
12119,52.507553,-1.3405,163.14,20.53,3,125.99,20 / 20,1211911,2020-01-08 10:35:58:585,-1.3545,-2.2222,10.797,0.0024,0.0136,9.8065,-0.3211,0.1726,0.069,-25.19,-30.69,28.5,344.32,-82.87,-153.25
12120,52.507553,-1.3405,163.14,20.53,3,125.99,20 / 20,1212011,2020-01-08 10:35:58:685,-0.9897,0.8709,6.6085,-0.0537,0.0757,9.8062,-0.2906,0.1797,-0.1853,-24.69,-30.44,28.88,344.35,-83.3,-153.37
12121,52.507553,-1.3405,163.14,20.53,3,125.99,20 / 20,1212111,2020-01-08 10:35:58:785,-1.0122,-1.72,10.2764,-0.0541,0.0649,9.8063,-0.2076,-0.1392,0.0915,-24.94,-30.69,28.69,344.45,-83.37,-153.25
12122,52.507553,-1.3405,163.14,20.53,3,125.99,20 / 20,1212211,2020-01-08 10:35:58:885,-0.7256,0.1815,7.1747,-0.0672,0.0056,9.8064,-0.3221,0.0975,0.0814,-25.12,-31.06,28.0,342.27,-83.27,-154.17
12123,52.507553,-1.3405,163.14,20.53,3,125.99,19 / 20,1212311,2020-01-08 10:35:58:985,1.6751,-0.3967,11.1568,-0.0511,0.0462,9.8064,0.0403,-0.3253,0.1269,-25.31,-30.94,29.31,346.99,-83.59,-151.0
12124,52.507553,-1.3405,163.14,20.53,3,125.99,19 / 20,1212410,2020-01-08 10:35:59:084,-1.9001,-1.7087,10.5926,-0.0011,-0.0304,9.8065,-0.018,-0.2849,0.1627,-25.0,-31.25,29.25,346.39,-83.42,-151.51
12125,52.507553,-1.3405,163.14,20.53,3,125.99,19 / 20,1212511,2020-01-08 10:35:59:185,2.1246,-0.1371,9.6169,-0.007,-0.0318,9.8066,0.0945,-0.1611,0.0458,-24.69,-31.25,29.0,346.07,-83.21,-151.75
12126,52.507553,-1.3405,163.14,20.53,3,125.99,19 / 20,1212611,2020-01-08 10:35:59:285,-3.187,-2.5658,9.699,-0.0191,-0.0025,9.8066,-0.078,-0.4174,0.2561,-24.62,-30.75,28.88,345.15,-83.34,-152.61
12127,52.507553,-1.3405,163.14,20.53,3,125.99,19 / 20,1212711,2020-01-08 10:35:59:385,0.0989,-0.4739,10.0535,-0.0534,-0.0227,9.8064,-0.007,0.0648,-0.0982,-24.81,-30.87,28.75,347.43,-83.43,-150.57
12128,52.507553,-1.3405,163.14,20.53,3,125.99,19 / 20,1212811,2020-01-08 10:35:59:485,-3.3997,-1.8503,9.9385,0.0154,-0.0008,9.8066,-0.0555,-0.346,0.2028,-24.94,-30.81,29.38,345.43,-83.48,-152.39
12129,52.507553,-1.3405,163.14,20.53,3,125.99,19 / 20,1212910,2020-01-08 10:35:59:584,1.3667,0.5099,10.5224,-0.031,-0.0272,9.8065,0.0014,0.2303,-0.1727,-24.81,-30.75,28.94,343.21,-83.58,-154.43
12130,52.507553,-1.3405,163.14,20.53,3,125.99,19 / 20,1213011,2020-01-08 10:35:59:685,0.4018,-0.5473,8.9008,0.0078,0.0246,9.8065,-0.1663,-0.1552,0.1274,-24.81,-31.12,29.19,343.1,-83.59,-154.53
12131,52.507553,-1.3405,163.14,20.53,3,125.99,19 / 20,1213110,2020-01-08 10:35:59:784,1.6473,-0.0372,10.8048,-0.0553,0.0144,9.8064,-0.0449,0.1291,0.0122,-25.0,-31.12,29.5,344.4,-83.62,-154.35
12132,52.507553,-1.3405,163.14,20.53,3,125.99,19 / 19,1213210,2020-01-08 10:35:59:884,-0.5568,0.0636,8.1607,0.0033,0.0286,9.8065,-0.2119,-0.0612,-0.0245,-24.5,-31.12,29.06,342.67,-83.5,-156.02
12133,52.507553,-1.3405,163.14,20.53,3,125.99,19 / 19,1213310,2020-01-08 10:35:59:984,-0.0885,-0.6438,9.7013,-0.0468,0.0246,9.8064,0.1074,0.0175,-0.086,-24.69,-31.0,28.81,342.75,-83.59,-154.85
12134,52.507553,-1.3405,163.14,20.53,3,125.99,19 / 19,1213411,2020-01-08 10:36:00:085,-1.3702,-1.4075,8.5286,0.011,-0.0149,9.8066,-0.0695,-0.0381,0.0736,-24.0,-31.37,29.75,344.49,-83.44,-155.34
12135,52.507553,-1.3405,163.14,20.53,3,125.99,19 / 19,1213511,2020-01-08 10:36:00:185,-0.1097,-1.0498,9.521,-0.0045,0.012,9.8066,0.1005,0.2131,-0.2237,-24.56,-31.12,28.81,343.41,-83.57,-154.24
12136,52.507553,-1.3405,163.14,20.53,3,125.99,19 / 19,1213611,2020-01-08 10:36:00:285,1.5684,-0.2309,10.9711,0.0598,-0.0009,9.8064,0.1467,-0.0883,-0.0098,-24.56,-31.25,29.13,342.46,-83.52,-155.09
12137,52.507553,-1.3405,163.14,20.53,3,125.99,19 / 19,1213711,2020-01-08 10:36:00:385,1.4173,1.4163,9.0818,-0.0063,-0.0356,9.8065,0.0065,0.2271,-0.1382,-24.37,-31.44,29.63,347.0,-83.54,-153.09
12138,52.507553,-1.3405,163.14,20.53,3,125.99,19 / 19,1213811,2020-01-08 10:36:00:485,0.2666,0.6691,10.306,-0.0006,0.0043,9.8066,0.0197,0.0864,-0.0308,-24.31,-30.75,28.75,346.56,-83.77,-152.56
12139,52.507553,-1.3405,163.14,20.53,3,125.99,19 / 19,1213911,2020-01-08 10:36:00:585,-1.8,-0.4228,10.0433,0.0084,-0.0032,9.8065,-0.0364,0.1517,-0.0457,-24.37,-31.37,29.56,348.38,-83.81,-151.88
12140,52.507553,-1.3405,163.14,20.53,3,125.99,19 / 19,1214011,2020-01-08 10:36:00:685,0.8144,0.5323,9.7181,0.0099,0.0108,9.8065,0.0557,0.1977,-0.1156,-24.69,-30.94,29.38,347.13,-83.77,-150.91
12141,52.507553,-1.3405,163.14,20.53,3,125.99,19 / 19,1214111,2020-01-08 10:36:00:785,-2.0407,0.1402,7.7094,0.0249,0.0239,9.8065,0.1013,0.0098,0.0395,-24.06,-31.25,29.38,347.79,-83.81,-151.45
12142,52.507553,-1.3405,163.14,20.53,3,125.99,19 / 19,1214211,2020-01-08 10:36:00:885,1.4639,0.6705,10.9839,0.0412,-0.0013,9.8065,0.224,0.2154,-0.3423,-24.37,-31.0,29.19,348.6,-83.97,-150.75
12143,52.507553,-1.3405,163.14,20.53,3,125.99,19 / 19,1214311,2020-01-08 10:36:00:985,-2.7602,-1.2373,8.3978,0.0843,0.0139,9.8062,-0.0361,0.149,-0.0365,-23.87,-31.12,29.25,345.77,-84.03,-153.33
12144,52.507553,-1.3405,163.14,20.53,3,125.99,19 / 19,1214410,2020-01-08 10:36:01:084,3.1433,1.7149,10.0729,-0.0032,0.009,9.8065,0.1045,0.3887,-0.3049,-24.69,-31.25,28.75,346.22,-84.02,-151.8
12145,52.507553,-1.3405,163.14,20.53,3,125.99,19 / 19,1214511,2020-01-08 10:36:01:185,-0.7254,-0.8437,9.5888,0.0388,0.0264,9.8065,0.043,-0.0279,0.0587,-24.37,-30.81,29.06,347.95,-84.1,-151.36
12146,52.507553,-1.3405,163.14,20.53,3,125.99,19 / 19,1214611,2020-01-08 10:36:01:285,3.0663,1.8271,8.9292,0.025,-0.0413,9.8065,0.1057,0.3597,-0.2424,-24.06,-31.37,28.88,348.07,-83.71,-151.18
12147,52.507553,-1.3405,163.14,20.53,3,125.99,19 / 19,1214711,2020-01-08 10:36:01:385,-1.8017,-0.4098,9.2004,0.0477,0.0052,9.8065,0.1976,-0.1553,0.0428,-24.69,-31.25,29.13,346.93,-83.75,-151.09
12148,52.507553,-1.3405,163.14,20.53,3,125.99,19 / 19,1214810,2020-01-08 10:36:01:484,0.615,-0.5241,10.7451,0.0214,-0.0264,9.8065,0.0823,0.1072,-0.0992,-24.37,-30.31,29.0,350.33,-83.85,-149.18
12149,52.507553,-1.3405,163.14,20.53,3,125.99,19 / 19,1214911,2020-01-08 10:36:01:585,-0.9309,0.0385,10.7062,0.0023,0.0114,9.8066,0.1669,-0.2193,0.0641,-24.0,-31.06,29.19,351.09,-83.85,-148.46
12150,52.507553,-1.3405,163.14,20.53,3,125.99,19 / 19,1215011,2020-01-08 10:36:01:685,-1.3345,1.2036,7.2123,0.0329,-0.0328,9.8065,0.0858,-0.0067,-0.0267,-24.44,-30.44,29.06,350.61,-83.63,-148.9
12151,52.507553,-1.3405,163.14,20.53,3,125.99,19 / 19,1215111,2020-01-08 10:36:01:785,-0.2696,-0.5693,8.3099,0.0295,0.0091,9.8065,0.3537,-0.0046,-0.1664,-24.5,-30.0,28.56,350.35,-83.88,-149.17
12152,52.507553,-1.3405,163.14,20.53,3,125.99,19 / 19,1215210,2020-01-08 10:36:01:884,1.1442,0.0373,11.5644,0.0947,-0.0412,9.8061,0.1433,-0.0953,-0.062,-24.0,-30.25,28.88,354.41,-84.27,-145.51
12153,52.507553,-1.3405,163.14,20.53,3,125.99,19 / 19,1215311,2020-01-08 10:36:01:985,-0.3243,0.4524,10.5654,0.0099,-0.0424,9.8065,0.191,0.0342,0.0445,-24.5,-31.06,28.63,351.83,-84.06,-147.82
12154,52.507553,-1.3405,163.14,20.53,3,125.99,19 / 19,1215411,2020-01-08 10:36:02:085,-0.3505,-0.4084,10.2686,0.0144,-0.0561,9.8065,0.0664,-0.0431,-0.033,-24.06,-30.5,28.06,350.9,-84.16,-147.7
12155,52.507553,-1.3405,163.14,20.53,3,125.99,19 / 19,1215510,2020-01-08 10:36:02:184,1.0963,0.2276,10.8226,-0.0048,-0.0306,9.8065,0.0328,0.0017,-0.1088,-25.25,-31.06,29.06,351.6,-83.76,-146.85
12156,52.507553,-1.3405,163.14,20.53,3,125.99,19 / 19,1215611,2020-01-08 10:36:02:285,1.9863,0.9422,9.6959,0.033,-0.0746,9.8063,0.1939,0.0383,0.1947,-24.19,-31.06,28.44,352.19,-83.48,-146.42
12157,52.507553,-1.3405,163.14,20.53,3,125.99,19 / 19,1215711,2020-01-08 10:36:02:385,-1.6766,2.151,6.3447,0.0341,-0.0503,9.8064,0.034,-0.1755,0.2452,-24.5,-31.62,29.06,352.19,-83.86,-147.45
12158,52.507553,-1.3405,163.14,20.53,3,125.99,19 / 19,1215811,2020-01-08 10:36:02:485,-0.2167,0.4765,9.3165,-0.0101,0.0033,9.8066,0.1035,0.1523,-0.2319,-24.5,-31.0,28.88,352.8,-84.2,-146.96
12159,52.507553,-1.3405,163.14,20.53,3,125.99,19 / 19,1215911,2020-01-08 10:36:02:585,0.3399,0.1521,10.4828,0.0165,0.0048,9.8065,0.0836,-0.2144,-0.0301,-24.0,-31.37,28.63,353.6,-84.26,-146.24
12160,52.507553,-1.3405,163.14,20.53,3,125.99,19 / 19,1216011,2020-01-08 10:36:02:685,-0.1317,-0.0326,11.0137,0.022,-0.0639,9.8064,0.1542,-0.0208,0.0911,-24.81,-31.56,28.81,351.4,-84.41,-147.1
12161,52.507553,-1.3405,163.14,20.53,3,125.99,19 / 19,1216111,2020-01-08 10:36:02:785,-1.1758,1.453,8.2189,0.0449,-0.0084,9.8065,0.1726,-0.015,-0.0085,-24.37,-30.69,28.63,349.8,-84.18,-149.69
12162,52.507553,-1.3405,163.14,20.53,3,125.99,20 / 20,1216211,2020-01-08 10:36:02:885,0.3453,0.4536,11.3613,0.0354,0.005,9.8065,0.0663,-0.0622,0.1322,-24.25,-31.0,28.5,351.85,-84.14,-147.81
12163,52.507553,-1.3405,163.14,20.53,3,125.99,20 / 20,1216311,2020-01-08 10:36:02:985,-0.6675,1.0343,9.0205,0.0148,-0.017,9.8066,-0.0594,-0.0582,-0.0462,-24.62,-31.19,28.31,347.99,-84.07,-149.17
12164,52.507553,-1.3405,163.14,20.53,3,125.99,20 / 20,1216411,2020-01-08 10:36:03:085,0.5412,1.0259,9.0108,-0.0232,0.0165,9.8065,0.1015,-0.0659,0.0098,-24.31,-30.94,28.44,348.31,-84.1,-150.02
12165,52.507553,-1.3405,163.14,20.53,3,125.99,20 / 20,1216510,2020-01-08 10:36:03:184,-0.0877,0.7464,9.741,-0.0012,0.0159,9.8065,0.1014,-0.1425,0.0887,-24.5,-31.06,28.56,350.65,-84.21,-148.92
12166,52.507553,-1.3405,163.14,20.53,3,125.99,20 / 20,1216611,2020-01-08 10:36:03:285,0.4661,1.6472,8.6957,-0.0133,0.0145,9.8066,0.0518,-0.0214,0.0093,-24.62,-30.87,28.81,350.08,-84.16,-148.29
12167,52.507553,-1.3405,163.14,20.53,3,125.99,20 / 20,1216711,2020-01-08 10:36:03:385,0.0577,-0.1236,10.8607,-0.015,0.0287,9.8066,0.0762,0.008,0.0693,-24.69,-30.19,27.94,350.1,-84.24,-147.3
12168,52.507553,-1.3405,163.14,20.53,3,125.99,20 / 20,1216811,2020-01-08 10:36:03:485,0.0872,0.034,8.4366,0.0016,0.002,9.8066,-0.0761,0.0997,0.0053,-24.0,-28.75,28.44,351.97,-84.26,-146.76
12169,52.507553,-1.3405,163.14,20.53,3,125.99,20 / 20,1216911,2020-01-08 10:36:03:585,2.2601,1.4555,9.7864,-0.034,-0.0045,9.8065,-0.0343,0.2388,-0.0955,-24.19,-27.81,28.25,353.53,-84.36,-145.36
12170,52.507553,-1.3405,163.14,20.53,3,125.99,20 / 20,1217010,2020-01-08 10:36:03:684,0.3082,0.5179,9.9434,0.0102,-0.0153,9.8066,-0.0638,0.0004,0.1175,-24.44,-29.44,27.81,354.05,-84.31,-144.85
12171,52.507553,-1.3405,163.14,20.53,3,125.99,20 / 20,1217111,2020-01-08 10:36:03:785,2.8718,1.7983,9.5942,-0.0267,-0.0351,9.8065,-0.0331,0.2448,-0.1794,-25.06,-30.37,27.94,354.77,-84.23,-143.02
12172,52.507553,-1.3405,163.14,20.53,3,125.99,20 / 20,1217211,2020-01-08 10:36:03:885,1.2374,0.3734,10.328,0.0289,0.0136,9.8066,-0.0517,-0.3313,0.209,-24.81,-30.25,28.06,354.95,-84.28,-142.87
12173,52.507553,-1.3405,163.14,20.53,3,125.99,20 / 20,1217310,2020-01-08 10:36:03:984,-2.8115,-1.4487,9.5179,0.001,0.0069,9.8066,-0.0072,0.0329,0.1187,-25.12,-30.81,27.5,355.11,-84.29,-142.71
12174,52.507553,-1.3405,163.14,20.53,3,125.99,20 / 20,1217411,2020-01-08 10:36:04:085,-4.3021,-2.1353,8.6175,0.0996,0.0429,9.806,-0.3528,-0.4156,0.5671,-25.06,-31.19,27.44,356.86,-84.16,-140.06
12175,52.507553,-1.3405,163.14,20.53,3,125.99,20 / 20,1217510,2020-01-08 10:36:04:184,1.4505,2.231,7.6667,-0.0049,-0.0464,9.8065,-0.3013,0.2209,-0.0679,-24.87,-31.62,27.44,355.18,-84.19,-141.57
12176,52.507553,-1.3405,163.14,20.53,3,125.99,20 / 20,1217611,2020-01-08 10:36:04:285,4.472,2.6743,11.0333,0.0981,0.0337,9.8061,-0.0859,-0.5698,0.4489,-25.19,-30.44,27.69,352.19,-84.46,-145.41
12177,52.507553,-1.3405,163.14,20.53,3,125.99,20 / 20,1217711,2020-01-08 10:36:04:385,4.2253,3.5529,7.8724,0.0177,-0.041,9.8065,-0.0999,0.0714,-0.0144,-24.75,-31.0,27.69,355.38,-84.41,-142.47
12178,52.507553,-1.3405,163.14,20.53,3,125.99,20 / 20,1217811,2020-01-08 10:36:04:485,0.7002,1.368,8.2127,0.0112,0.0894,9.8061,0.1148,-0.646,0.4347,-24.75,-30.75,27.56,356.12,-84.42,-141.79
12179,52.507553,-1.3405,163.14,20.53,3,125.99,20 / 20,1217910,2020-01-08 10:36:04:584,-3.1913,-2.6635,11.0244,-0.0528,0.0268,9.8064,0.1064,0.6187,-0.5158,-25.37,-31.19,27.19,357.79,-84.66,-139.23
12180,52.507553,-1.3405,163.14,20.53,3,125.99,20 / 20,1218011,2020-01-08 10:36:04:685,-4.1361,-2.1151,9.8529,0.0763,0.0162,9.8063,0.013,-0.1142,0.1158,-24.94,-31.31,28.06,354.59,-84.44,-143.19
12181,52.507553,-1.3405,163.14,20.53,3,125.99,20 / 20,1218111,2020-01-08 10:36:04:785,4.1278,1.4068,11.3679,-0.0217,-0.0357,9.8065,0.2649,0.4016,-0.2776,-25.12,-31.62,27.88,357.13,-84.25,-140.85
12182,52.507553,-1.3405,163.14,20.53,3,125.99,20 / 20,1218211,2020-01-08 10:36:04:885,-0.6487,-1.0164,10.3243,0.0592,0.0027,9.8065,0.0587,-0.1709,0.0503,-25.37,-30.81,28.13,355.74,-84.23,-142.12
12183,52.506577,-1.338342,166.14,19.38,4,125.34,20 / 20,1218310,2020-01-08 10:36:04:984,-0.0618,-1.2377,9.2393,-0.016,-0.0288,9.8065,-0.0755,0.0876,-0.12,-25.5,-31.0,27.75,354.07,-84.18,-143.65
12184,52.506577,-1.338342,166.14,19.38,4,125.34,20 / 20,1218411,2020-01-08 10:36:05:085,0.7457,-0.0438,9.4558,-0.0042,0.028,9.8066,0.0265,-0.0929,0.0644,-25.62,-31.56,27.38,351.75,-84.52,-143.62
12185,52.506577,-1.338342,166.14,19.38,4,125.34,20 / 20,1218511,2020-01-08 10:36:05:185,-0.1168,-0.6843,9.4643,-0.0073,0.0029,9.8066,-0.0408,-0.0643,0.0925,-25.69,-31.0,27.44,353.21,-84.51,-142.3
12186,52.506577,-1.338342,166.14,19.38,4,125.34,20 / 20,1218611,2020-01-08 10:36:05:285,1.3893,1.6005,9.1025,-0.0091,0.0263,9.8066,0.0826,-0.0625,0.0716,-25.94,-31.25,27.13,355.51,-84.65,-140.21
12187,52.506577,-1.338342,166.14,19.38,4,125.34,20 / 20,1218711,2020-01-08 10:36:05:385,0.3423,-0.5561,10.3326,-0.0007,0.0075,9.8066,0.1208,-0.1201,0.0548,-25.62,-31.0,27.19,355.99,-84.46,-139.75
12188,52.506577,-1.338342,166.14,19.38,4,125.34,20 / 20,1218810,2020-01-08 10:36:05:484,0.921,0.3934,9.5461,-0.0039,0.0082,9.8066,-0.0713,0.1018,-0.0109,-25.44,-31.25,27.38,356.53,-84.3,-140.37
12189,52.506577,-1.338342,166.14,19.38,4,125.34,20 / 20,1218911,2020-01-08 10:36:05:585,3.0341,0.6603,10.0642,-0.0357,0.0298,9.8065,0.1086,0.1286,-0.0758,-25.81,-31.25,27.13,357.34,-84.42,-138.52
12190,52.506577,-1.338342,166.14,19.38,4,125.34,20 / 20,1219011,2020-01-08 10:36:05:685,0.797,0.3528,9.4605,-0.028,-0.0136,9.8065,0.0409,0.156,-0.1349,-25.87,-31.31,26.56,359.13,-84.34,-136.88
12191,52.506577,-1.338342,166.14,19.38,4,125.34,20 / 20,1219111,2020-01-08 10:36:05:785,2.3083,1.155,10.3706,-0.0296,0.0034,9.8066,0.0941,0.2658,-0.1143,-25.94,-31.12,26.75,358.84,-84.41,-137.14
12192,52.506577,-1.338342,166.14,19.38,4,125.34,20 / 20,1219211,2020-01-08 10:36:05:885,1.6783,0.0947,9.7741,-0.0246,-0.0107,9.8065,-0.0919,-0.2205,0.2072,-26.12,-31.56,27.38,358.18,-84.43,-137.74
12193,52.506577,-1.338342,166.14,19.38,4,125.34,21 / 21,1219311,2020-01-08 10:36:05:985,1.2903,0.4943,10.2333,-0.042,-0.0056,9.8065,-0.0032,-0.1057,0.0507,-26.31,-31.25,27.19,359.09,-84.38,-136.91
12194,52.506577,-1.338342,166.14,19.38,4,125.34,21 / 21,1219411,2020-01-08 10:36:06:085,-1.8922,-1.7675,9.611,-0.0221,-0.036,9.8065,-0.0376,-0.3378,0.2217,-26.69,-31.12,26.88,356.58,-84.38,-138.13
12195,52.506577,-1.338342,166.14,19.38,4,125.34,21 / 21,1219511,2020-01-08 10:36:06:185,0.837,0.2575,10.1574,-0.0434,-0.0247,9.8065,-0.0371,-0.0025,0.0289,-26.5,-31.19,26.69,0.96,-84.14,-135.21
12196,52.506577,-1.338342,166.14,19.38,4,125.34,21 / 21,1219610,2020-01-08 10:36:06:284,-1.1772,-0.8897,9.4702,-0.0222,-0.013,9.8065,-0.1177,-0.1976,0.2007,-26.31,-31.0,27.06,3.2,-84.13,-133.17
12197,52.506577,-1.338342,166.14,19.38,4,125.34,21 / 21,1219711,2020-01-08 10:36:06:385,2.3862,0.7145,9.4036,-0.0311,-0.0201,9.8065,-0.0402,0.1303,-0.098,-26.25,-30.87,27.19,3.11,-84.06,-133.25
12198,52.506577,-1.338342,166.14,19.38,4,125.34,21 / 21,1219810,2020-01-08 10:36:06:484,-1.7697,-0.3515,8.9062,-0.0043,0.0354,9.8065,-0.1486,-0.13,0.0603,-26.0,-30.75,26.38,1.14,-84.11,-133.97
12199,52.506577,-1.338342,166.14,19.38,4,125.34,21 / 21,1219911,2020-01-08 10:36:06:585,2.1962,1.6727,9.3218,-0.0432,-0.0083,9.8065,-0.0377,0.2363,-0.1422,-25.56,-29.31,26.88,3.01,-84.25,-133.32
12200,52.506577,-1.338342,166.14,19.38,4,125.34,21 / 21,1220011,2020-01-08 10:36:06:685,1.0733,2.0336,9.9308,0.0151,0.0261,9.8066,-0.0041,-0.0869,0.0045,-27.69,-28.5,26.94,357.99,-84.66,-135.83
12201,52.506577,-1.338342,166.14,19.38,4,125.34,21 / 21,1220111,2020-01-08 10:36:06:785,1.0415,1.3041,9.1556,0.0114,-0.0192,9.8066,0.0125,0.2568,-0.0841,-28.37,-29.75,26.5,357.75,-84.59,-136.04
12202,52.506577,-1.338342,166.14,19.38,4,125.34,21 / 21,1220211,2020-01-08 10:36:06:885,2.801,2.3464,10.1581,0.0149,0.0195,9.8065,0.0624,0.3784,-0.196,-26.56,-30.5,25.69,358.58,-84.72,-135.23
12203,52.506577,-1.338342,166.14,19.38,4,125.34,21 / 21,1220311,2020-01-08 10:36:06:985,-4.1713,-2.566,9.9367,0.0481,0.0453,9.8064,0.0298,0.3049,-0.1774,-25.87,-31.81,26.19,358.91,-84.99,-136.0
12204,52.506577,-1.338342,166.14,19.38,4,125.34,21 / 21,1220410,2020-01-08 10:36:07:084,1.9879,3.1305,9.2876,0.0342,0.04,9.8065,0.0481,0.3734,-0.3396,-25.69,-31.19,27.0,3.34,-84.78,-133.01
12205,52.506577,-1.338342,166.14,19.38,4,125.34,21 / 21,1220511,2020-01-08 10:36:07:185,-2.3799,-0.6842,8.8054,0.0355,0.0241,9.8065,-0.2122,-0.0083,0.0583,-25.94,-31.62,26.0,0.21,-84.9,-134.8
12206,52.506577,-1.338342,166.14,19.38,4,125.34,21 / 21,1220610,2020-01-08 10:36:07:284,0.6146,1.7469,10.8376,-0.0585,-0.0094,9.8064,-0.0578,0.2271,-0.0029,-25.69,-31.56,26.31,359.15,-84.86,-135.78
12207,52.506577,-1.338342,166.14,19.38,4,125.34,21 / 21,1220711,2020-01-08 10:36:07:385,-2.2164,-1.6437,9.8154,0.0344,0.0051,9.8065,-0.3334,-0.248,0.4581,-26.25,-31.12,26.31,357.85,-84.84,-136.98
12208,52.506577,-1.338342,166.14,19.38,4,125.34,21 / 21,1220811,2020-01-08 10:36:07:485,-1.0613,4.0938,8.9905,-0.0647,-0.0095,9.8064,-0.0499,0.1927,-0.3157,-26.56,-30.87,25.75,359.55,-84.92,-134.33
12209,52.506577,-1.338342,166.14,19.38,4,125.34,21 / 21,1220911,2020-01-08 10:36:07:585,5.3594,-0.6563,11.5718,0.0167,0.037,9.8065,-0.3917,-0.3959,0.1496,-26.12,-31.37,25.81,359.52,-85.08,-135.45
12210,52.506577,-1.338342,166.14,19.38,4,125.34,21 / 21,1221011,2020-01-08 10:36:07:685,6.2753,3.9812,9.3128,-0.1546,-0.0086,9.8053,-0.2504,0.1999,0.2795,-25.56,-30.81,25.88,354.06,-85.25,-140.5
12211,52.506577,-1.338342,166.14,19.38,4,125.34,21 / 21,1221110,2020-01-08 10:36:07:784,2.6415,3.2431,11.9002,-0.0742,0.0307,9.8063,-0.1532,-0.9971,0.6785,-26.0,-31.25,26.38,1.19,-85.51,-133.89
12212,52.506577,-1.338342,166.14,19.38,4,125.34,21 / 21,1221211,2020-01-08 10:36:07:885,-3.7279,-7.5294,10.7598,-0.0753,-0.1322,9.8054,-0.0628,-0.4085,0.4628,-26.62,-31.75,26.44,356.71,-85.53,-136.98
12213,52.506577,-1.338342,166.14,19.38,4,125.34,21 / 21,1221311,2020-01-08 10:36:07:985,8.6975,4.8206,7.4102,-0.0484,-0.0574,9.8064,0.1223,-0.8108,0.457,-26.75,-31.5,25.0,359.81,-85.03,-132.98
12214,52.506577,-1.338342,166.14,19.38,4,125.34,21 / 21,1221410,2020-01-08 10:36:08:084,-1.4091,-3.648,12.5091,-0.0498,-0.0729,9.8062,0.1791,-0.9685,0.5979,-26.44,-32.0,25.13,3.96,-84.84,-130.25
12215,52.506577,-1.338342,166.14,19.38,4,125.34,21 / 21,1221511,2020-01-08 10:36:08:185,3.5699,6.2837,7.6219,-0.0483,-0.1252,9.8057,-0.3255,-0.2764,0.387,-26.19,-31.69,25.63,4.53,-84.83,-130.84
12216,52.506577,-1.338342,166.14,19.38,4,125.34,21 / 21,1221611,2020-01-08 10:36:08:285,-1.0079,-2.7997,7.301,-0.1102,-0.0075,9.806,-0.0848,-0.4977,0.3608,-26.5,-31.31,25.69,7.21,-85.25,-128.32
12217,52.506577,-1.338342,166.14,19.38,4,125.34,21 / 21,1221711,2020-01-08 10:36:08:385,2.6921,-0.6619,12.2987,-0.0824,0.0021,9.8063,-0.1452,-0.0129,0.017,-26.37,-31.56,25.63,5.51,-85.24,-129.9
12218,52.506577,-1.338342,166.14,19.38,4,125.34,21 / 21,1221811,2020-01-08 10:36:08:485,0.0978,-2.3122,9.3492,-0.0453,0.0011,9.8065,-0.21,-0.2644,0.2219,-26.25,-31.56,25.06,1.8,-85.23,-132.22
12219,52.506577,-1.338342,166.14,19.38,4,125.34,21 / 21,1221911,2020-01-08 10:36:08:585,3.1806,-1.561,9.2634,-0.0224,-0.0252,9.8066,0.0221,0.1547,-0.0458,-26.75,-31.62,26.0,2.88,-85.1,-131.26
12220,52.506577,-1.338342,166.14,19.38,4,125.34,21 / 21,1222011,2020-01-08 10:36:08:685,-1.9479,0.7668,10.6023,0.0032,0.0023,9.8066,0.0545,-0.2325,0.0634,-26.56,-31.31,25.88,1.51,-85.32,-132.51
12221,52.506577,-1.338342,166.14,19.38,4,125.34,21 / 21,1222111,2020-01-08 10:36:08:785,-1.8841,3.5229,8.6292,0.0321,-0.0586,9.8064,-0.211,0.0382,-0.014,-26.87,-31.44,25.5,1.31,-85.37,-132.7
12222,52.506577,-1.338342,166.14,19.38,4,125.34,21 / 21,1222211,2020-01-08 10:36:08:885,-1.29,0.1339,10.3624,0.0006,-0.0316,9.8065,0.1532,-0.0249,0.1027,-26.12,-31.75,25.63,3.2,-85.59,-132.02
12223,52.506577,-1.338342,166.14,19.38,4,125.34,21 / 21,1222310,2020-01-08 10:36:08:984,3.325,-2.4526,9.9472,-0.0058,-0.0203,9.8065,0.0592,-0.0232,-0.0884,-26.69,-31.31,25.81,3.14,-85.43,-131.0
12224,52.506577,-1.338342,166.14,19.38,4,125.34,21 / 21,1222411,2020-01-08 10:36:09:085,1.6154,-4.0323,10.3968,0.0157,-0.006,9.8066,0.1571,-0.0623,0.1207,-26.31,-31.12,26.13,3.28,-85.32,-131.96
12225,52.506577,-1.338342,166.14,19.38,4,125.34,21 / 21,1222510,2020-01-08 10:36:09:184,3.7274,0.3219,8.4862,-0.0153,0.0028,9.8066,-0.002,0.2299,-0.1802,-25.75,-31.56,24.75,1.76,-85.38,-132.25
12226,52.506577,-1.338342,166.14,19.38,4,125.34,21 / 21,1222610,2020-01-08 10:36:09:284,0.2774,-1.9608,10.9522,-0.0044,0.0749,9.8063,0.0133,-0.1433,0.0477,-25.62,-32.0,25.94,2.56,-85.73,-132.62
12227,52.506577,-1.338342,166.14,19.38,4,125.34,21 / 21,1222711,2020-01-08 10:36:09:385,-2.9806,0.7334,10.3538,0.0036,-0.045,9.8065,-0.1784,0.3529,-0.2219,-26.12,-31.69,25.31,0.43,-85.44,-133.48
12228,52.506577,-1.338342,166.14,19.38,4,125.34,21 / 21,1222811,2020-01-08 10:36:09:485,-2.3046,-0.4016,10.5951,-0.0034,0.0584,9.8064,-0.0689,0.0422,0.0336,-25.56,-31.37,25.19,0.99,-85.6,-132.96
12229,52.506577,-1.338342,166.14,19.38,4,125.34,21 / 21,1222911,2020-01-08 10:36:09:585,-3.4277,-1.9101,10.4092,0.0074,0.0154,9.8066,0.1522,0.4638,-0.2288,-25.94,-30.62,25.63,1.28,-85.85,-133.81
12230,52.506577,-1.338342,166.14,19.38,4,125.34,21 / 21,1223011,2020-01-08 10:36:09:685,3.4545,1.0189,10.5034,0.0776,0.0136,9.8063,0.0811,0.1296,-0.2677,-26.25,-31.5,25.56,2.67,-85.61,-132.51
12231,52.506577,-1.338342,166.14,19.38,4,125.34,21 / 21,1223111,2020-01-08 10:36:09:785,0.2047,0.8145,7.2438,0.0078,-0.006,9.8066,0.2135,-0.0905,-0.1084,-26.0,-31.75,25.63,2.23,-85.59,-132.92
12232,52.506577,-1.338342,166.14,19.38,4,125.34,21 / 21,1223210,2020-01-08 10:36:09:884,0.8175,-1.0222,9.7851,0.0191,-0.0664,9.8063,0.2276,-0.2975,0.3185,-26.0,-31.5,25.56,4.33,-86.0,-130.94
12233,52.506577,-1.338342,166.14,19.38,4,125.34,21 / 21,1223310,2020-01-08 10:36:09:984,1.0486,3.7073,7.8415,0.021,-0.0611,9.8064,-0.1719,0.0608,0.1476,-26.12,-32.19,24.63,359.54,-85.96,-134.3
12234,52.506577,-1.338342,166.14,19.38,4,125.34,21 / 21,1223411,2020-01-08 10:36:10:085,-1.923,2.338,7.0144,-0.0584,0.0605,9.8062,-0.0931,-0.0865,0.0037,-25.69,-31.69,25.25,1.21,-86.34,-132.74
12235,52.506577,-1.338342,166.14,19.38,4,125.34,21 / 21,1223510,2020-01-08 10:36:10:184,1.0016,1.5512,8.716,-0.0236,0.0002,9.8065,-0.4295,0.2239,-0.0251,-25.56,-31.19,25.63,357.06,-86.12,-137.77
12236,52.506577,-1.338342,166.14,19.38,4,125.34,21 / 21,1223611,2020-01-08 10:36:10:285,0.5425,1.7709,6.814,-0.0763,0.0521,9.8062,-0.4128,0.285,-0.0034,-26.19,-31.5,25.19,349.46,-86.03,-143.77
12237,52.506577,-1.338342,166.14,19.38,4,125.34,21 / 21,1223710,2020-01-08 10:36:10:384,3.2284,0.3806,11.4793,-0.063,0.0609,9.8062,-0.1266,-0.2145,0.0787,-25.31,-31.75,25.31,355.25,-86.45,-139.48
12238,52.506577,-1.338342,166.14,19.38,4,125.34,21 / 21,1223810,2020-01-08 10:36:10:484,0.6325,1.4859,8.6092,-0.0474,-0.0267,9.8065,-0.2713,-0.1117,0.2749,-25.44,-31.37,25.31,353.55,-86.35,-141.08
12239,52.506577,-1.338342,166.14,19.38,4,125.34,21 / 21,1223911,2020-01-08 10:36:10:585,2.489,1.735,10.8081,-0.0541,-0.0113,9.8065,0.0494,-0.3982,0.3323,-26.19,-31.56,24.31,354.71,-86.29,-137.68
12240,52.506577,-1.338342,166.14,19.38,4,125.34,21 / 21,1224011,2020-01-08 10:36:10:685,-1.4825,-2.0702,9.4248,-0.0191,-0.0437,9.8065,-0.0623,-0.2723,0.1238,-25.25,-31.37,25.19,351.6,-86.41,-142.92
12241,52.506577,-1.338342,166.14,19.38,4,125.34,21 / 21,1224111,2020-01-08 10:36:10:785,1.932,0.6524,8.2472,-0.0358,-0.0091,9.8065,0.0033,-0.2327,0.1532,-25.62,-32.19,24.88,349.45,-86.12,-143.77
12242,52.506577,-1.338342,166.14,19.38,4,125.34,21 / 21,1224210,2020-01-08 10:36:10:884,-1.3588,-0.1521,12.1512,-0.054,0.0309,9.8063,0.2033,-0.1291,0.132,-25.25,-31.87,25.06,352.7,-86.52,-141.89
12243,52.506577,-1.338342,166.14,19.38,4,125.34,21 / 21,1224311,2020-01-08 10:36:10:985,-0.547,-0.0853,10.1593,0.046,-0.0339,9.8064,-0.2628,0.085,0.0129,-25.69,-31.31,24.81,352.36,-86.46,-141.09
12244,52.506577,-1.338342,166.14,19.38,4,125.34,21 / 21,1224411,2020-01-08 10:36:11:085,-1.465,1.0553,8.3466,0.0239,-0.012,9.8066,-0.2409,0.0761,0.0947,-25.06,-31.44,25.5,348.87,-86.23,-146.61
12245,52.506577,-1.338342,166.14,19.38,4,125.34,21 / 21,1224511,2020-01-08 10:36:11:185,2.773,-0.1935,12.9516,0.098,-0.0393,9.806,-0.2862,-0.1023,0.1626,-25.25,-32.19,25.63,351.49,-86.21,-144.12
12246,52.506577,-1.338342,166.14,19.38,4,125.34,21 / 21,1224611,2020-01-08 10:36:11:285,-1.5523,0.966,7.2002,0.1157,-0.0496,9.8058,-0.5602,-0.2431,0.2384,-25.37,-31.56,24.5,343.11,-85.97,-150.8
12247,52.506577,-1.338342,166.14,19.38,4,125.34,21 / 21,1224710,2020-01-08 10:36:11:384,4.6129,2.4339,11.4519,0.041,0.0529,9.8064,0.096,-0.2909,0.1175,-25.37,-31.94,24.44,347.69,-86.36,-145.4
12248,52.506577,-1.338342,166.14,19.38,4,125.34,21 / 21,1224811,2020-01-08 10:36:11:485,-1.1789,-3.6541,11.2939,0.1041,0.0077,9.806,-0.0321,-0.491,0.3947,-25.25,-31.75,23.44,340.46,-86.46,-151.0
12249,52.506577,-1.338342,166.14,19.38,4,125.34,21 / 21,1224911,2020-01-08 10:36:11:585,3.1833,0.8275,10.1396,0.0268,0.0222,9.8065,0.0451,-0.0393,0.0459,-25.12,-32.0,24.25,346.91,-86.3,-146.12
12250,52.506577,-1.338342,166.14,19.38,4,125.34,21 / 21,1225011,2020-01-08 10:36:11:685,-0.4894,-3.0668,9.9249,0.0338,0.0475,9.8064,-0.0549,-0.3712,0.3068,-25.56,-32.44,24.44,344.22,-86.4,-147.58
12251,52.506577,-1.338342,166.14,19.38,4,125.34,21 / 21,1225111,2020-01-08 10:36:11:785,3.4688,1.0772,10.1919,-0.0138,0.0317,9.8065,0.0703,0.0924,-0.0279,-26.25,-31.87,23.5,345.87,-86.39,-146.02
12252,52.506577,-1.338342,166.14,19.38,4,125.34,21 / 21,1225211,2020-01-08 10:36:11:885,-0.3859,-2.3195,10.0368,0.0454,0.0248,9.8065,-0.088,-0.2796,0.2008,-25.87,-31.44,24.94,345.65,-86.29,-147.41
12253,52.506577,-1.338342,166.14,19.38,4,125.34,21 / 21,1225311,2020-01-08 10:36:11:985,-0.9215,1.5182,9.8675,-0.0066,-0.0039,9.8066,-0.0243,0.006,-0.0368,-25.75,-31.81,24.13,348.04,-86.25,-143.95
12254,52.506577,-1.338342,166.14,19.38,4,125.34,21 / 21,1225411,2020-01-08 10:36:12:085,-1.8705,-1.2379,9.5741,0.0173,0.0197,9.8066,-0.0474,-0.1611,0.1383,-25.44,-31.75,25.0,352.9,-86.31,-141.67
12255,52.506577,-1.338342,166.14,19.38,4,125.34,21 / 21,1225511,2020-01-08 10:36:12:185,1.0527,2.1647,10.2168,-0.0177,0.005,9.8066,0.1753,0.1552,-0.0855,-26.19,-31.75,24.88,352.34,-86.02,-141.05
12256,52.506577,-1.338342,166.14,19.38,4,125.34,21 / 21,1225611,2020-01-08 10:36:12:285,0.8336,0.0794,11.3506,0.0252,0.0283,9.8065,0.108,-0.36,0.1412,-26.06,-31.94,25.0,351.1,-85.97,-142.2
12257,52.506577,-1.338342,166.14,19.38,4,125.34,21 / 21,1225711,2020-01-08 10:36:12:385,-0.5525,-1.2492,8.4297,-0.0694,0.0025,9.8064,0.1022,0.2274,-0.315,-26.81,-31.62,24.75,350.24,-85.84,-141.92
12258,52.506577,-1.338342,166.14,19.38,4,125.34,21 / 21,1225811,2020-01-08 10:36:12:485,-1.1216,-4.3645,11.2441,0.0304,0.0696,9.8063,0.2061,-0.2231,0.3131,-26.06,-31.56,24.31,352.49,-85.97,-139.73
12259,52.506577,-1.338342,166.14,19.38,4,125.34,21 / 21,1225911,2020-01-08 10:36:12:585,-0.2283,-0.9066,9.8296,-0.018,-0.0282,9.8066,0.0042,0.5441,-0.2215,-26.5,-31.75,25.31,353.41,-85.67,-140.01
12260,52.506577,-1.338342,166.14,19.38,4,125.34,21 / 21,1226010,2020-01-08 10:36:12:684,4.3382,2.0201,11.9516,-0.0183,0.0014,9.8066,0.279,0.0841,-0.237,-26.5,-31.12,25.63,353.21,-85.58,-141.33
12261,52.506577,-1.338342,166.14,19.38,4,125.34,21 / 21,1226111,2020-01-08 10:36:12:785,1.0119,1.2504,9.7348,-0.077,-0.0347,9.8062,0.2031,0.5729,-0.372,-26.12,-31.69,25.5,352.7,-85.4,-141.77
12262,52.506577,-1.338342,166.14,19.38,4,125.34,21 / 21,1226212,2020-01-08 10:36:12:886,1.2729,-2.1716,9.8701,-0.0744,0.0004,9.8063,0.3363,0.4812,-0.4651,-26.12,-32.12,26.19,349.66,-85.46,-144.6
12263,52.506577,-1.338342,166.14,19.38,4,125.34,21 / 21,1226311,2020-01-08 10:36:12:985,-4.0498,-1.5125,8.5012,-0.1067,-0.0457,9.8059,0.0792,0.4837,-0.4666,-25.81,-32.06,25.31,341.79,-85.62,-150.82
12264,52.506577,-1.338342,166.14,19.38,4,125.34,21 / 21,1226411,2020-01-08 10:36:13:085,2.2169,2.0079,10.0464,-0.0427,0.0028,9.8065,0.0824,0.4099,-0.1424,-26.31,-31.69,25.81,347.63,-85.68,-146.53
12265,52.506577,-1.338342,166.14,19.38,4,125.34,21 / 21,1226510,2020-01-08 10:36:13:184,-1.6524,-1.2896,11.2499,-0.071,0.012,9.8064,0.2538,0.3122,-0.1358,-26.31,-31.69,25.75,344.48,-85.46,-149.42
12266,52.506577,-1.338342,166.14,19.38,4,125.34,21 / 21,1226611,2020-01-08 10:36:13:285,4.7986,3.1062,10.2466,-0.059,-0.064,9.8062,0.1617,0.5668,-0.5575,-26.19,-32.0,25.25,346.09,-85.4,-146.76
12267,52.506577,-1.338342,166.14,19.38,4,125.34,21 / 21,1226710,2020-01-08 10:36:13:384,-2.7287,-2.3824,9.4299,-0.0821,-0.0302,9.8062,0.096,0.0989,-0.3281,-25.94,-31.37,25.69,349.33,-85.58,-144.95
12268,52.506577,-1.338342,166.14,19.38,4,125.34,21 / 21,1226810,2020-01-08 10:36:13:484,3.5414,1.3491,9.9869,-0.0239,0.0057,9.8066,0.0998,0.4085,-0.0117,-25.5,-31.44,25.31,345.51,-85.69,-148.5
12269,52.506577,-1.338342,166.14,19.38,4,125.34,21 / 21,1226911,2020-01-08 10:36:13:585,-3.2925,-4.088,10.3449,0.0394,0.0359,9.8064,-0.0415,-0.3002,0.3211,-25.31,-31.75,25.75,348.17,-85.62,-147.13
12270,52.506577,-1.338342,166.14,19.38,4,125.34,21 / 21,1227011,2020-01-08 10:36:13:685,2.3588,-0.3547,9.716,-0.022,-0.0472,9.8065,-0.1411,0.1178,-0.1684,-25.62,-31.31,25.69,345.26,-85.64,-148.77
12271,52.506577,-1.338342,166.14,19.38,4,125.34,21 / 21,1227111,2020-01-08 10:36:13:785,2.7117,2.1639,12.2212,0.1077,-0.0093,9.806,-0.242,-0.3782,0.3116,-25.56,-31.56,26.69,345.72,-85.89,-149.46
12272,52.506577,-1.338342,166.14,19.38,4,125.34,20 / 21,1227211,2020-01-08 10:36:13:885,-1.5255,0.819,7.4163,0.0559,-0.0579,9.8063,0.0731,0.2728,-0.2612,-25.56,-32.12,25.81,338.01,-85.56,-155.48
12273,52.505753,-1.336084,168.69,19.6,4,119.98,20 / 21,1227310,2020-01-08 10:36:13:984,0.6171,1.2285,11.7096,0.0205,0.0123,9.8066,0.2161,0.1973,-0.0328,-25.06,-31.5,26.75,341.31,-85.76,-154.7
12274,52.505753,-1.336084,168.69,19.6,4,119.98,20 / 21,1227411,2020-01-08 10:36:14:085,-0.5712,-0.4474,10.8451,0.0415,-0.0083,9.8065,-0.1277,0.0175,0.1266,-25.37,-32.06,25.88,336.17,-85.76,-158.37
12275,52.505753,-1.336084,168.69,19.6,4,119.98,20 / 21,1227510,2020-01-08 10:36:14:184,3.9387,1.5368,11.1626,-0.0202,-0.0119,9.8066,0.1135,0.3265,-0.1985,-25.75,-31.75,25.75,334.68,-85.7,-158.66
12276,52.505753,-1.336084,168.69,19.6,4,119.98,20 / 21,1227610,2020-01-08 10:36:14:284,-2.7853,-1.5098,8.5933,0.0824,0.001,9.8062,-0.1011,-0.1872,0.1398,-25.62,-31.37,25.94,334.44,-85.52,-158.87
12277,52.505753,-1.336084,168.69,19.6,4,119.98,20 / 21,1227711,2020-01-08 10:36:14:385,2.0634,-0.6131,12.0523,-0.0255,0.0024,9.8066,0.18,-0.049,-0.1018,-25.37,-31.94,26.0,338.83,-85.58,-155.82
12278,52.505753,-1.336084,168.69,19.6,4,119.98,20 / 21,1227811,2020-01-08 10:36:14:485,1.5447,0.4889,11.4677,0.0275,-0.0236,9.8066,-0.2032,-0.2328,0.1093,-25.62,-32.06,26.0,336.27,-85.4,-157.05
12279,52.505753,-1.336084,168.69,19.6,4,119.98,20 / 21,1227911,2020-01-08 10:36:14:585,-0.4372,-0.8902,9.7815,-0.0588,-0.0018,9.8064,-0.0954,-0.2336,0.1912,-26.0,-31.31,26.0,336.23,-85.49,-157.18
12280,52.505753,-1.336084,168.69,19.6,4,119.98,20 / 21,1228010,2020-01-08 10:36:14:684,3.2811,1.6561,10.5381,-0.0558,-0.0136,9.8064,-0.0393,-0.1507,-0.0072,-25.69,-31.56,25.75,341.62,-85.56,-152.11
12281,52.505753,-1.336084,168.69,19.6,4,119.98,20 / 21,1228111,2020-01-08 10:36:14:785,-0.594,-1.3383,9.4495,-0.0206,-0.0129,9.8066,-0.1169,-0.3294,0.2699,-25.5,-31.69,26.5,345.04,-85.6,-151.14
12282,52.505753,-1.336084,168.69,19.6,4,119.98,20 / 21,1228211,2020-01-08 10:36:14:885,-1.9376,-1.5082,8.965,-0.0613,-0.021,9.8064,0.0468,0.1554,-0.0561,-25.31,-31.5,25.75,345.01,-85.64,-150.1
12283,52.505753,-1.336084,168.69,19.6,4,119.98,20 / 20,1228310,2020-01-08 10:36:14:984,-3.7745,-3.1623,11.0648,0.0243,-0.0156,9.8066,0.1033,-0.3559,0.1479,-25.25,-31.87,25.56,344.21,-85.63,-150.82
12284,52.505753,-1.336084,168.69,19.6,4,119.98,20 / 20,1228410,2020-01-08 10:36:15:084,0.6391,1.1252,10.96,-0.0042,-0.0495,9.8065,0.1244,0.5068,-0.3523,-26.0,-32.0,25.69,343.32,-85.28,-150.45
12285,52.505753,-1.336084,168.69,19.6,4,119.98,20 / 20,1228511,2020-01-08 10:36:15:185,4.6673,3.1917,11.5166,0.0759,0.0242,9.8063,0.0731,0.2171,-0.1137,-25.87,-31.31,25.75,342.4,-85.22,-151.32
12286,52.505753,-1.336084,168.69,19.6,4,119.98,20 / 20,1228611,2020-01-08 10:36:15:285,-7.258,-3.8317,8.119,0.0332,0.026,9.8065,0.1985,0.7755,-0.6073,-25.75,-31.69,25.88,339.42,-85.28,-154.08
12287,52.505753,-1.336084,168.69,19.6,4,119.98,20 / 20,1228711,2020-01-08 10:36:15:385,6.4972,4.6654,10.5967,0.1244,0.0627,9.8056,0.2393,0.655,-0.398,-25.75,-31.06,26.25,346.79,-85.16,-147.23
12288,52.505753,-1.336084,168.69,19.6,4,119.98,20 / 20,1228811,2020-01-08 10:36:15:485,-5.1097,-3.6688,6.4895,0.085,0.0118,9.8062,0.2438,0.5022,-0.2773,-25.81,-31.44,26.5,342.3,-85.19,-152.52
12289,52.505753,-1.336084,168.69,19.6,4,119.98,20 / 20,1228911,2020-01-08 10:36:15:585,1.7222,1.0709,10.4032,0.0917,0.0489,9.8061,0.2079,0.6928,-0.5864,-25.56,-30.56,25.56,340.23,-85.42,-153.4
12290,52.505753,-1.336084,168.69,19.6,4,119.98,20 / 20,1229010,2020-01-08 10:36:15:684,-4.5395,-2.8981,9.596,0.1443,0.0256,9.8055,-0.1905,0.2959,-0.0744,-25.94,-31.0,26.56,339.69,-85.29,-154.98
12291,52.505753,-1.336084,168.69,19.6,4,119.98,20 / 20,1229111,2020-01-08 10:36:15:785,1.4965,2.3824,7.8085,-0.0137,0.0746,9.8063,-0.0064,0.5845,-0.4688,-26.5,-29.62,25.5,341.3,-84.86,-152.29
12292,52.505753,-1.336084,168.69,19.6,4,119.98,20 / 20,1229211,2020-01-08 10:36:15:885,-0.8217,-1.3913,9.7496,0.0013,0.0523,9.8065,-0.2838,-0.0651,-0.0892,-26.25,-29.94,26.0,341.47,-85.0,-152.17
12293,52.505753,-1.336084,168.69,19.6,4,119.98,20 / 20,1229311,2020-01-08 10:36:15:985,-2.2983,0.4095,6.8796,-0.0546,0.0232,9.8065,-0.3323,0.0706,0.1379,-25.12,-28.56,26.19,343.71,-84.94,-151.22
12294,52.505753,-1.336084,168.69,19.6,4,119.98,20 / 20,1229411,2020-01-08 10:36:16:085,0.8187,0.9636,8.7884,-0.057,0.0494,9.8063,0.1219,-0.1705,0.0691,-24.69,-27.0,26.69,347.42,-85.39,-149.01
12295,52.505753,-1.336084,168.69,19.6,4,119.98,20 / 20,1229511,2020-01-08 10:36:16:185,-0.3708,-0.9864,10.6265,0.0618,-0.0542,9.8062,0.2967,-0.1948,0.0192,-25.19,-28.81,25.94,342.43,-85.03,-152.43
12296,52.505753,-1.336084,168.69,19.6,4,119.98,20 / 20,1229610,2020-01-08 10:36:16:284,-1.2628,0.817,7.7057,0.0695,-0.0649,9.8062,-0.0361,0.1698,-0.0465,-26.0,-30.31,26.25,340.53,-85.02,-153.05
12297,52.505753,-1.336084,168.69,19.6,4,119.98,20 / 20,1229711,2020-01-08 10:36:16:385,0.4753,1.4772,9.6249,0.0122,0.0385,9.8065,0.237,0.0365,-0.1469,-25.94,-30.5,26.38,341.05,-84.9,-152.53
12298,52.505753,-1.336084,168.69,19.6,4,119.98,20 / 20,1229810,2020-01-08 10:36:16:484,-0.5113,0.9852,8.5988,0.0426,-0.0283,9.8064,-0.2612,0.1746,-0.1058,-25.94,-31.44,26.19,338.42,-84.81,-154.89
12299,52.505753,-1.336084,168.69,19.6,4,119.98,20 / 20,1229911,2020-01-08 10:36:16:585,0.2031,0.5269,9.0382,-0.0372,0.0414,9.8064,-0.1235,0.1479,0.0134,-25.31,-31.25,27.25,342.24,-85.13,-153.65
12300,52.505753,-1.336084,168.69,19.6,4,119.98,20 / 20,1230011,2020-01-08 10:36:16:685,0.298,0.4449,10.8195,-0.0062,0.0285,9.8065,-0.0987,-0.0754,0.0888,-25.81,-30.87,26.63,339.33,-85.13,-155.26
12301,52.505753,-1.336084,168.69,19.6,4,119.98,20 / 20,1230110,2020-01-08 10:36:16:784,-1.3654,0.4082,9.2638,-0.0199,0.0155,9.8065,-0.1405,0.0706,-0.083,-25.87,-31.12,26.25,337.26,-85.02,-156.04
12302,52.505753,-1.336084,168.69,19.6,4,119.98,20 / 20,1230211,2020-01-08 10:36:16:885,-0.7394,-0.1498,9.7633,-0.0137,0.0062,9.8066,-0.0254,-0.1928,0.12,-25.62,-31.5,26.88,339.17,-85.06,-155.38
12303,52.505753,-1.336084,168.69,19.6,4,119.98,20 / 20,1230310,2020-01-08 10:36:16:984,-1.6998,-0.8452,9.6741,-0.0335,-0.0277,9.8065,-0.0432,-0.2013,0.136,-25.81,-31.56,26.25,335.67,-85.01,-157.45
12304,52.505753,-1.336084,168.69,19.6,4,119.98,20 / 20,1230411,2020-01-08 10:36:17:085,1.5973,2.1505,9.8431,-0.0149,-0.0086,9.8065,-0.0295,-0.2587,0.1352,-25.19,-31.87,26.94,339.91,-84.96,-155.72
12305,52.505753,-1.336084,168.69,19.6,4,119.98,20 / 20,1230510,2020-01-08 10:36:17:184,-0.9775,-0.199,9.8652,-0.0368,-0.0123,9.8065,-0.0878,-0.2679,0.2002,-26.06,-32.25,26.44,339.35,-84.97,-154.03
12306,52.505753,-1.336084,168.69,19.6,4,119.98,20 / 20,1230611,2020-01-08 10:36:17:285,2.0475,2.4097,10.078,-0.0303,-0.0229,9.8065,0.0163,-0.0606,0.0652,-25.87,-31.12,25.94,338.9,-84.85,-154.46
12307,52.505753,-1.336084,168.69,19.6,4,119.98,20 / 20,1230711,2020-01-08 10:36:17:385,-1.6321,-0.0757,9.6517,-0.0165,-0.0093,9.8065,-0.0538,-0.3677,0.2166,-25.56,-30.87,26.5,338.82,-84.83,-155.64
12308,52.505753,-1.336084,168.69,19.6,4,119.98,20 / 20,1230810,2020-01-08 10:36:17:484,0.7948,2.8345,8.5806,-0.0339,-0.0464,9.8064,-0.09,0.1012,-0.0277,-25.69,-31.5,26.75,340.9,-84.71,-153.68
12309,52.505753,-1.336084,168.69,19.6,4,119.98,20 / 20,1230911,2020-01-08 10:36:17:585,-2.7525,-0.8144,10.8975,-0.0431,0.0211,9.8065,-0.0939,-0.2213,0.1992,-25.31,-31.44,26.69,342.96,-84.95,-152.93
12310,52.505753,-1.336084,168.69,19.6,4,119.98,20 / 20,1231011,2020-01-08 10:36:17:685,0.5216,0.2121,11.0938,-0.0293,-0.0095,9.8065,-0.0514,0.1702,-0.0652,-25.69,-30.94,26.13,340.13,-84.84,-153.32
12311,52.505753,-1.336084,168.69,19.6,4,119.98,20 / 20,1231110,2020-01-08 10:36:17:784,-0.4054,0.2277,9.343,-0.0007,0.0117,9.8066,-0.1381,-0.1467,0.1261,-25.06,-31.37,25.88,341.05,-84.66,-153.51
12312,52.505753,-1.336084,168.69,19.6,4,119.98,19 / 20,1231210,2020-01-08 10:36:17:884,-0.7196,1.3617,8.3269,-0.0566,-0.0046,9.8064,0.2381,0.0347,-0.1171,-25.75,-31.56,26.56,342.62,-84.76,-152.06
12313,52.505753,-1.336084,168.69,19.6,4,119.98,19 / 20,1231311,2020-01-08 10:36:17:985,1.1317,-0.5213,12.0462,0.0572,-0.0376,9.8064,0.1437,-0.2694,0.1197,-25.56,-31.94,26.38,338.39,-84.6,-154.79
12314,52.505753,-1.336084,168.69,19.6,4,119.98,19 / 20,1231411,2020-01-08 10:36:18:085,3.5962,2.3483,10.1633,0.003,-0.0367,9.8065,0.3058,0.4605,-0.3768,-25.44,-31.69,26.63,343.51,-84.77,-152.34
12315,52.505753,-1.336084,168.69,19.6,4,119.98,19 / 20,1231511,2020-01-08 10:36:18:185,0.8328,-0.3332,11.9692,0.0722,0.0304,9.8063,0.2541,-0.001,-0.0801,-25.62,-31.94,26.88,344.89,-84.85,-149.99
12316,52.505753,-1.336084,168.69,19.6,4,119.98,19 / 20,1231611,2020-01-08 10:36:18:285,-2.4805,-0.7882,9.8443,0.0275,-0.0273,9.8065,-0.2172,0.6722,-0.3128,-26.5,-31.0,26.31,341.19,-84.72,-152.3
12317,52.505753,-1.336084,168.69,19.6,4,119.98,19 / 20,1231711,2020-01-08 10:36:18:385,3.0624,2.9098,8.6201,-0.0153,-0.0389,9.8065,-0.137,0.4781,-0.32,-25.69,-31.56,26.13,342.21,-84.74,-151.32
12318,52.505753,-1.336084,168.69,19.6,4,119.98,19 / 20,1231810,2020-01-08 10:36:18:484,-2.6863,-3.3372,11.1904,-0.0223,-0.08,9.8062,-0.0798,0.3493,-0.2353,-25.81,-31.25,26.44,340.08,-84.81,-153.35
12319,52.505753,-1.336084,168.69,19.6,4,119.98,19 / 20,1231911,2020-01-08 10:36:18:585,1.9259,1.9666,9.5248,-0.0046,-0.0526,9.8065,-0.0734,0.3772,-0.1677,-25.75,-31.81,26.5,343.29,-84.43,-151.35
12320,52.505753,-1.336084,168.69,19.6,4,119.98,19 / 20,1232010,2020-01-08 10:36:18:684,0.1629,-1.6372,11.2561,0.0312,0.0041,9.8065,-0.0349,-0.1589,0.0707,-25.87,-31.5,26.44,341.71,-84.52,-151.76
12321,52.505753,-1.336084,168.69,19.6,4,119.98,19 / 20,1232111,2020-01-08 10:36:18:785,-0.7575,-0.6361,9.7628,0.0117,-0.0195,9.8066,0.007,0.1621,-0.0819,-25.81,-30.94,26.25,338.47,-84.47,-154.73
12322,52.505753,-1.336084,168.69,19.6,4,119.98,19 / 20,1232211,2020-01-08 10:36:18:885,-0.8639,-0.557,9.5816,0.0561,0.0016,9.8064,-0.1832,-0.1434,0.1598,-25.94,-31.31,26.81,335.18,-84.42,-158.86
12323,52.505753,-1.336084,168.69,19.6,4,119.98,19 / 20,1232311,2020-01-08 10:36:18:985,1.9179,2.1737,9.4198,0.0187,-0.0354,9.8065,-0.2229,0.0465,0.024,-25.94,-31.37,26.25,336.09,-84.46,-156.92
12324,52.505753,-1.336084,168.69,19.6,4,119.98,19 / 20,1232411,2020-01-08 10:36:19:085,0.6628,0.4168,10.4731,0.0403,0.0166,9.8065,-0.0613,-0.289,0.3156,-25.69,-31.44,26.88,340.45,-84.59,-154.06
12325,52.505753,-1.336084,168.69,19.6,4,119.98,19 / 20,1232511,2020-01-08 10:36:19:185,-3.2371,-1.4328,9.8435,0.0006,-0.0153,9.8065,-0.0346,-0.1244,0.083,-26.25,-31.56,26.06,339.85,-84.52,-153.43
12326,52.505753,-1.336084,168.69,19.6,4,119.98,19 / 20,1232611,2020-01-08 10:36:19:285,2.535,1.0522,11.2205,0.0417,-0.0048,9.8065,0.0072,0.2741,-0.1528,-26.69,-31.12,26.56,339.71,-84.38,-153.62
12327,52.505753,-1.336084,168.69,19.6,4,119.98,19 / 20,1232710,2020-01-08 10:36:19:384,1.5287,0.0608,11.8203,-0.0594,-0.0216,9.8064,0.2067,0.3056,-0.2328,-26.31,-30.94,26.75,339.64,-84.24,-154.69
12328,52.505753,-1.336084,168.69,19.6,4,119.98,19 / 20,1232811,2020-01-08 10:36:19:485,1.3559,1.0879,9.1687,0.0129,-0.0416,9.8065,-0.0698,0.2453,-0.099,-26.56,-31.0,26.19,339.55,-84.12,-152.57
12329,52.505753,-1.336084,168.69,19.6,4,119.98,19 / 20,1232910,2020-01-08 10:36:19:584,-3.0838,0.2349,7.4334,-0.0777,0.0193,9.8062,0.3057,0.1983,-0.1282,-25.56,-31.0,26.0,345.05,-84.39,-148.66
12330,52.505753,-1.336084,168.69,19.6,4,119.98,19 / 20,1233011,2020-01-08 10:36:19:685,0.3518,0.9214,9.4947,-0.0312,-0.009,9.8065,0.1465,0.1828,-0.1995,-25.94,-30.56,26.38,343.13,-84.26,-150.38
12331,52.505753,-1.336084,168.69,19.6,4,119.98,19 / 20,1233111,2020-01-08 10:36:19:785,-1.2192,0.0019,8.8747,-0.0401,0.0096,9.8065,0.0777,0.0622,-0.0306,-26.44,-30.25,26.0,344.4,-84.4,-149.3
12332,52.505753,-1.336084,168.69,19.6,4,119.98,20 / 20,1233212,2020-01-08 10:36:19:886,-1.0982,-0.0854,9.6612,-0.0237,0.0013,9.8065,0.012,0.0624,-0.0612,-26.25,-31.06,26.38,342.74,-84.32,-150.76
12333,52.505753,-1.336084,168.69,19.6,4,119.98,20 / 20,1233311,2020-01-08 10:36:19:985,-1.5117,-0.5826,9.6683,0.0637,0.0071,9.8064,-0.1257,-0.307,0.214,-26.19,-31.19,25.94,343.72,-84.3,-149.86
12334,52.505753,-1.336084,168.69,19.6,4,119.98,20 / 20,1233411,2020-01-08 10:36:20:085,-1.062,-0.8307,10.2714,0.0201,0.0143,9.8066,-0.0512,-0.1876,0.1889,-26.87,-31.5,26.0,339.52,-84.22,-152.63
12335,52.505753,-1.336084,168.69,19.6,4,119.98,20 / 20,1233511,2020-01-08 10:36:20:185,3.5846,4.0249,9.7825,0.0484,0.0445,9.8064,-0.059,-0.5424,0.3196,-26.06,-31.37,25.69,342.64,-84.08,-150.79
12336,52.505753,-1.336084,168.69,19.6,4,119.98,20 / 20,1233611,2020-01-08 10:36:20:285,-1.9277,-0.9716,11.1897,0.0079,0.0316,9.8065,-0.0084,-0.6505,0.4819,-26.37,-30.69,27.0,343.17,-84.11,-151.42
12337,52.505753,-1.336084,168.69,19.6,4,119.98,20 / 20,1233711,2020-01-08 10:36:20:385,4.1359,4.0926,9.4739,0.0657,0.0104,9.8064,-0.2149,-0.1878,0.2201,-27.0,-31.31,26.19,342.96,-83.87,-149.38
12338,52.505753,-1.336084,168.69,19.6,4,119.98,20 / 20,1233811,2020-01-08 10:36:20:485,-3.6903,-1.1712,7.2626,0.0626,0.0504,9.8062,-0.2576,-0.707,0.4589,-27.12,-30.75,26.63,346.6,-83.81,-147.16
12339,52.505753,-1.336084,168.69,19.6,4,119.98,20 / 20,1233911,2020-01-08 10:36:20:585,4.5826,3.4574,9.419,0.0477,-0.0183,9.8065,-0.1748,0.2551,-0.2214,-26.94,-30.94,26.56,349.35,-83.89,-144.67
12340,52.505753,-1.336084,168.69,19.6,4,119.98,20 / 20,1234011,2020-01-08 10:36:20:685,-5.4416,-1.7984,8.1045,0.1265,0.0411,9.8057,-0.3082,-0.4184,0.3343,-26.25,-31.19,26.25,343.93,-84.02,-149.6
12341,52.505753,-1.336084,168.69,19.6,4,119.98,20 / 20,1234110,2020-01-08 10:36:20:784,-2.5924,-0.7663,11.0138,-0.0066,-0.0345,9.8066,0.1632,0.4286,-0.3705,-26.0,-30.75,26.25,345.4,-83.93,-148.23
12342,52.505753,-1.336084,168.69,19.6,4,119.98,20 / 20,1234211,2020-01-08 10:36:20:885,-5.3049,-1.5204,7.4535,0.1101,-0.009,9.806,-0.2608,-0.1358,0.0888,-26.81,-31.31,26.56,340.78,-83.89,-152.49
12343,52.505753,-1.336084,168.69,19.6,4,119.98,20 / 20,1234310,2020-01-08 10:36:20:984,-0.0068,1.4459,9.5861,-0.0822,0.0205,9.8062,0.329,0.3463,-0.2562,-26.44,-31.19,26.56,342.26,-84.13,-152.25
12344,52.505753,-1.336084,168.69,19.6,4,119.98,20 / 20,1234411,2020-01-08 10:36:21:085,2.0673,0.5098,11.0964,0.0144,0.0306,9.8065,0.0907,-0.0332,-0.057,-26.62,-31.12,26.5,343.04,-84.38,-150.55
12345,52.505753,-1.336084,168.69,19.6,4,119.98,20 / 20,1234511,2020-01-08 10:36:21:185,1.4006,3.1697,8.6864,0.0474,0.0248,9.8064,0.0121,-0.2378,0.1621,-26.06,-30.75,25.56,341.19,-84.5,-152.24
12346,52.505753,-1.336084,168.69,19.6,4,119.98,20 / 20,1234611,2020-01-08 10:36:21:285,-0.8913,-0.111,10.5335,0.0093,0.0223,9.8065,0.1559,-0.1292,0.0365,-25.69,-31.62,26.25,341.06,-84.57,-152.33
12347,52.505753,-1.336084,168.69,19.6,4,119.98,20 / 20,1234710,2020-01-08 10:36:21:384,1.2474,0.3164,9.9437,-0.0007,-0.0079,9.8066,0.0264,0.1071,-0.1007,-25.5,-31.87,25.19,338.18,-84.63,-154.93
12348,52.505753,-1.336084,168.69,19.6,4,119.98,20 / 20,1234811,2020-01-08 10:36:21:485,-0.9291,1.2348,8.658,-0.0325,0.036,9.8065,0.1242,0.1235,-0.0678,-25.37,-31.81,25.63,338.55,-84.98,-155.87
12349,52.505753,-1.336084,168.69,19.6,4,119.98,20 / 20,1234911,2020-01-08 10:36:21:585,-0.2551,0.9475,9.1171,-0.0291,0.0003,9.8066,0.0938,0.1704,-0.1567,-25.94,-31.19,25.38,335.92,-85.02,-156.13
12350,52.505753,-1.336084,168.69,19.6,4,119.98,20 / 20,1235011,2020-01-08 10:36:21:685,1.2929,1.7556,10.5381,0.0336,-0.0091,9.8065,-0.1102,-0.0292,0.0228,-25.56,-31.06,25.69,335.45,-85.01,-157.72
12351,52.505753,-1.336084,168.69,19.6,4,119.98,20 / 20,1235110,2020-01-08 10:36:21:784,2.245,1.3822,11.2198,0.0492,-0.0008,9.8065,-0.1173,-0.0976,0.0898,-25.56,-30.94,26.5,339.85,-85.13,-154.78
12352,52.505753,-1.336084,168.69,19.6,4,119.98,20 / 20,1235211,2020-01-08 10:36:21:885,-0.7255,-0.0771,9.6079,0.0378,0.0147,9.8065,-0.0846,-0.2334,0.2207,-26.0,-31.0,26.13,337.02,-85.18,-156.32
12353,52.505753,-1.336084,168.69,19.6,4,119.98,20 / 20,1235311,2020-01-08 10:36:21:985,2.4089,1.9929,9.799,0.0169,0.0201,9.8065,-0.0993,-0.0716,0.0353,-26.06,-31.62,25.5,339.26,-85.21,-154.2
12354,52.505753,-1.336084,168.69,19.6,4,119.98,20 / 20,1235411,2020-01-08 10:36:22:085,-2.919,-1.4023,8.9656,0.0215,0.0363,9.8065,-0.1869,-0.3112,0.2228,-26.0,-30.69,25.5,337.76,-85.43,-155.72
12355,52.505753,-1.336084,168.69,19.6,4,119.98,20 / 20,1235510,2020-01-08 10:36:22:184,3.0077,1.4193,12.2005,0.0823,-0.0316,9.8062,-0.2316,-0.0334,0.0303,-26.5,-31.0,24.94,333.7,-85.22,-158.28
12356,52.505753,-1.336084,168.69,19.6,4,119.98,20 / 20,1235611,2020-01-08 10:36:22:285,-3.8299,-1.4179,8.1724,0.1178,0.0198,9.8058,-0.3709,-0.4229,0.3975,-26.69,-31.19,25.19,341.54,-85.48,-150.0
12357,52.505753,-1.336084,168.69,19.6,4,119.98,20 / 20,1235711,2020-01-08 10:36:22:385,3.5698,2.2938,11.6447,-0.0184,-0.0137,9.8066,0.1377,0.313,-0.3005,-26.56,-30.25,25.44,335.31,-85.43,-155.86
12358,52.505753,-1.336084,168.69,19.6,4,119.98,20 / 20,1235811,2020-01-08 10:36:22:485,2.7308,1.8679,10.1117,0.0926,0.0302,9.8061,-0.1237,-0.3398,0.2345,-26.37,-30.44,24.94,333.11,-85.43,-158.97
12359,52.505753,-1.336084,168.69,19.6,4,119.98,20 / 20,1235910,2020-01-08 10:36:22:584,-5.2645,-3.3147,8.4455,-0.0564,-0.0325,9.8063,0.1242,0.7585,-0.4019,-26.31,-30.31,24.63,334.62,-85.49,-157.58
12360,52.505753,-1.336084,168.69,19.6,4,119.98,20 / 20,1236010,2020-01-08 10:36:22:684,-3.462,-1.6683,9.5501,0.0143,0.008,9.8065,-0.081,0.2161,-0.2053,-25.56,-31.37,24.63,335.97,-85.53,-156.27
12361,52.505753,-1.336084,168.69,19.6,4,119.98,20 / 20,1236111,2020-01-08 10:36:22:785,-3.0659,-2.2958,10.5441,-0.0579,-0.0652,9.8062,0.0301,-0.5456,0.2623,-26.31,-30.56,24.88,333.61,-85.77,-158.59
12362,52.505753,-1.336084,168.69,19.6,4,119.98,20 / 20,1236211,2020-01-08 10:36:22:885,6.0846,5.6797,9.566,-0.0262,-0.058,9.8064,-0.1753,-0.4834,0.2799,-25.94,-31.06,25.25,337.73,-85.62,-154.66
12363,52.50501,-1.333882,169.96,17.46,4,115.22,20 / 20,1236310,2020-01-08 10:36:22:984,-3.0082,-1.7165,8.1959,-0.0889,-0.0051,9.8062,-0.2326,-0.7183,0.5373,-26.37,-30.62,24.56,332.7,-85.68,-159.4
12364,52.50501,-1.333882,169.96,17.46,4,115.22,20 / 20,1236411,2020-01-08 10:36:23:085,4.6219,3.4083,10.6392,-0.0977,-0.0497,9.8059,-0.0713,0.3003,-0.1928,-26.0,-30.81,25.0,339.54,-85.81,-153.03
12365,52.50501,-1.333882,169.96,17.46,4,115.22,20 / 20,1236510,2020-01-08 10:36:23:184,-1.7929,-0.48,8.8941,0.0068,0.0278,9.8066,-0.127,-0.1366,0.2108,-26.62,-30.94,24.75,334.32,-85.95,-156.95
12366,52.50501,-1.333882,169.96,17.46,4,115.22,20 / 20,1236612,2020-01-08 10:36:23:286,-1.6007,-0.5918,9.7,-0.0215,-0.0171,9.8066,0.0167,0.3357,-0.1502,-26.25,-31.19,24.38,333.93,-85.89,-157.14
12367,52.50501,-1.333882,169.96,17.46,4,115.22,20 / 20,1236711,2020-01-08 10:36:23:385,-0.3286,0.2097,9.7853,0.0306,0.0256,9.8065,-0.0073,0.2192,-0.0957,-26.06,-30.87,24.38,334.32,-85.94,-156.79
12368,52.50501,-1.333882,169.96,17.46,4,115.22,20 / 20,1236811,2020-01-08 10:36:23:485,-1.4539,-1.7269,9.9373,0.0102,0.0237,9.8065,0.0697,0.2171,-0.1555,-26.12,-30.81,23.94,330.96,-86.06,-160.02
12369,52.50501,-1.333882,169.96,17.46,4,115.22,20 / 20,1236911,2020-01-08 10:36:23:585,1.4312,1.0453,10.2395,0.0373,-0.0002,9.8066,0.089,0.2467,-0.1536,-26.37,-31.19,24.25,329.69,-86.06,-161.22
12370,52.50501,-1.333882,169.96,17.46,4,115.22,20 / 20,1237010,2020-01-08 10:36:23:684,-0.9589,-0.4458,8.6781,0.025,0.0218,9.8065,0.0222,-0.0124,-0.0438,-25.56,-29.94,24.56,330.52,-86.24,-161.77
12371,52.50501,-1.333882,169.96,17.46,4,115.22,20 / 20,1237111,2020-01-08 10:36:23:785,0.7471,-0.4757,10.7797,0.0132,-0.008,9.8065,0.2545,0.1752,-0.0898,-25.56,-31.12,24.5,330.68,-86.32,-161.6
12372,52.50501,-1.333882,169.96,17.46,4,115.22,21 / 21,1237211,2020-01-08 10:36:23:885,-1.6941,-1.3396,8.8018,0.0712,0.0112,9.8064,-0.0303,-0.0211,0.0181,-26.56,-30.62,25.06,326.01,-86.53,-165.1
12373,52.50501,-1.333882,169.96,17.46,4,115.22,21 / 21,1237311,2020-01-08 10:36:23:985,1.1721,0.6308,10.2664,-0.0197,0.0092,9.8066,0.0417,0.0796,-0.0495,-27.87,-29.69,25.75,327.9,-86.53,-163.48
12374,52.50501,-1.333882,169.96,17.46,4,115.22,21 / 21,1237411,2020-01-08 10:36:24:085,0.1698,1.2891,10.2241,-0.0039,-0.0139,9.8066,-0.0294,-0.1368,0.1375,-28.12,-28.0,23.06,328.27,-86.54,-159.68
12375,52.50501,-1.333882,169.96,17.46,4,115.22,21 / 21,1237511,2020-01-08 10:36:24:185,-1.4416,-1.1678,9.1814,-0.0313,-0.0092,9.8066,-0.0578,-0.2499,0.1802,-26.31,-27.87,24.06,331.64,-86.38,-159.66
12376,52.50501,-1.333882,169.96,17.46,4,115.22,21 / 21,1237611,2020-01-08 10:36:24:285,1.8447,-0.085,10.6973,-0.04,-0.0328,9.8064,-0.0002,0.0503,0.0179,-26.75,-30.19,24.06,332.83,-86.17,-157.3
12377,52.50501,-1.333882,169.96,17.46,4,115.22,21 / 21,1237711,2020-01-08 10:36:24:385,-3.5728,-1.8963,7.9,0.0137,0.0023,9.8065,-0.152,-0.3004,0.1341,-26.0,-30.37,24.19,333.09,-86.09,-158.06
12378,52.50501,-1.333882,169.96,17.46,4,115.22,21 / 21,1237810,2020-01-08 10:36:24:484,2.004,1.8739,9.6238,-0.0516,-0.0217,9.8064,0.1149,0.2537,-0.2496,-26.31,-30.56,24.69,335.65,-86.0,-155.56
12379,52.50501,-1.333882,169.96,17.46,4,115.22,21 / 21,1237911,2020-01-08 10:36:24:585,0.9657,0.7375,10.0346,0.0221,0.0133,9.8066,-0.0133,-0.1025,0.1031,-26.19,-30.37,24.13,330.38,-85.96,-160.57
12380,52.50501,-1.333882,169.96,17.46,4,115.22,21 / 21,1238011,2020-01-08 10:36:24:685,2.8209,1.3861,10.4314,-0.0301,-0.0088,9.8066,0.0139,0.2882,-0.2388,-26.19,-30.37,24.31,333.11,-86.07,-158.04
12381,52.50501,-1.333882,169.96,17.46,4,115.22,21 / 21,1238110,2020-01-08 10:36:24:784,-3.6371,-2.9543,9.7934,-0.0013,0.0582,9.8064,-0.2863,-0.28,0.1314,-26.25,-30.44,23.75,333.26,-85.92,-157.84
12382,52.50501,-1.333882,169.96,17.46,4,115.22,20 / 20,1238211,2020-01-08 10:36:24:885,2.1242,-0.5985,11.1288,-0.0916,-0.0003,9.8061,0.0592,0.4987,-0.1707,-26.12,-30.56,24.25,333.97,-86.2,-157.23
12383,52.50501,-1.333882,169.96,17.46,4,115.22,20 / 20,1238310,2020-01-08 10:36:24:984,2.8712,2.3539,10.57,0.0616,0.0483,9.8062,-0.1381,0.096,-0.2253,-26.62,-31.0,24.13,324.31,-86.43,-165.48
12384,52.50501,-1.333882,169.96,17.46,4,115.22,20 / 20,1238411,2020-01-08 10:36:25:085,1.4247,-0.4826,11.2336,-0.003,0.0322,9.8065,0.1967,0.4419,-0.3501,-25.44,-31.12,25.56,332.84,-86.64,-161.92
12385,52.50501,-1.333882,169.96,17.46,4,115.22,20 / 20,1238511,2020-01-08 10:36:25:185,1.6658,1.2239,11.0925,0.0762,-0.0037,9.8063,0.1226,0.2912,-0.1782,-25.75,-30.87,24.13,329.65,-86.79,-161.6
12386,52.50501,-1.333882,169.96,17.46,4,115.22,20 / 20,1238610,2020-01-08 10:36:25:284,-2.0999,-1.4277,8.7568,0.0604,0.0041,9.8064,0.0912,-0.0481,0.0179,-26.0,-31.56,24.38,321.77,-86.49,-168.93
12387,52.50501,-1.333882,169.96,17.46,4,115.22,20 / 20,1238711,2020-01-08 10:36:25:385,-0.3697,-0.1926,9.5874,-0.0006,0.0005,9.8066,0.0723,0.1611,-0.1722,-26.19,-31.56,24.56,323.57,-86.43,-168.37
12388,52.50501,-1.333882,169.96,17.46,4,115.22,20 / 20,1238810,2020-01-08 10:36:25:484,-2.0251,-1.5263,9.018,0.0298,0.0177,9.8065,-0.0573,-0.2033,0.0514,-25.87,-31.62,24.56,322.18,-86.47,-169.72
12389,52.50501,-1.333882,169.96,17.46,4,115.22,20 / 20,1238910,2020-01-08 10:36:25:584,-0.1993,0.2509,9.4709,-0.0317,-0.0016,9.8066,-0.0303,0.0759,-0.0053,-25.94,-31.19,23.88,320.21,-86.58,-170.53
12390,52.50501,-1.333882,169.96,17.46,4,115.22,20 / 20,1239011,2020-01-08 10:36:25:685,1.6204,-0.7612,9.6824,0.0237,0.0085,9.8066,-0.3693,-0.1676,0.0116,-26.06,-31.37,24.94,320.76,-86.59,-171.21
12391,52.50501,-1.333882,169.96,17.46,4,115.22,20 / 20,1239110,2020-01-08 10:36:25:784,-2.5929,-0.1088,6.4055,-0.111,0.0451,9.8058,-0.2862,-0.0555,0.2293,-25.81,-31.94,24.5,318.39,-86.34,-173.27
12392,52.50501,-1.333882,169.96,17.46,4,115.22,21 / 21,1239211,2020-01-08 10:36:25:885,3.7439,-1.7038,13.06,-0.1098,0.0546,9.8058,0.0142,-0.0102,0.0145,-25.81,-31.44,24.44,320.07,-87.07,-170.95
12393,52.50501,-1.333882,169.96,17.46,4,115.22,21 / 21,1239311,2020-01-08 10:36:25:985,-1.7849,-2.9667,8.7966,0.0352,-0.0081,9.8065,-0.1753,-0.4331,0.1822,-25.94,-31.75,24.13,319.59,-86.75,-171.17
12394,52.50501,-1.333882,169.96,17.46,4,115.22,21 / 21,1239411,2020-01-08 10:36:26:085,0.1971,-1.5178,7.6859,-0.0777,0.0297,9.8062,-0.0341,0.4609,-0.2194,-25.31,-31.75,24.25,316.41,-86.51,-175.14
12395,52.50501,-1.333882,169.96,17.46,4,115.22,21 / 21,1239511,2020-01-08 10:36:26:185,-5.7094,-1.7109,7.4803,0.0291,0.0211,9.8065,-0.3308,-0.7851,0.4326,-25.75,-31.44,24.13,316.88,-86.72,-173.82
12396,52.50501,-1.333882,169.96,17.46,4,115.22,21 / 21,1239611,2020-01-08 10:36:26:285,-3.1886,-2.366,8.8419,-0.1128,-0.0404,9.8058,-0.1095,-0.3027,0.2312,-25.19,-31.75,24.44,313.45,-86.63,-178.07
12397,52.50501,-1.333882,169.96,17.46,4,115.22,21 / 21,1239711,2020-01-08 10:36:26:385,0.7428,1.6435,10.2403,-0.0565,-0.0077,9.8064,0.0473,-0.2088,0.0613,-25.19,-31.12,24.31,321.3,-86.98,-170.8
12398,52.50501,-1.333882,169.96,17.46,4,115.22,21 / 21,1239811,2020-01-08 10:36:26:485,1.5649,-0.7462,11.7909,0.0202,-0.0202,9.8066,-0.06,-0.2253,0.1339,-25.37,-31.37,24.25,320.99,-87.08,-171.16
