,GPS LATITUDE (degrees), GPS LONGITUDE (degrees), GPS ALTITUDE (m), GPS SPEED (Kmh), GPS ACCURACY (m), GPS ORIENTATION (Â°),GPS SATELLITES IN RANGE, TIME SINCE START (ms), DATE (YYYY-MO-DD HH-MI-SS_SSS), ACCELEROMETER X (m/s²) , ACCELEROMETER Y (m/s²), ACCELEROMETER Z (m/s²), GRAVITY X (m/s²), GRAVITY Y (m/s²), GRAVITY Z (m/s²), GYROSCOPE Yaw (rad/s), GYROSCOPE Pitch (rad/s), GYROSCOPE Roll (rad/s), MAGNETIC FIELD X (Î¼T), MAGNETIC FIELD Y (Î¼T), MAGNETIC FIELD Z (Î¼T), ORIENTATION (Yaw) (Â°), ORIENTATION (Pitch) (Â°), ORIENTATION (Roll ) (Â°)
18320,53.159843,-1.874956,317.18,17.0,4,343.34,21 / 21,1831394,2019-11-06 13:57:52:187,0.2699,-1.8891,10.0617,0.0209,-0.0032,9.8066,0.0865,0.1798,-0.1325,-11.69,-37.06,-7.5,149.23,-87.14,85.62
18321,53.159843,-1.874956,317.18,17.0,4,343.34,21 / 21,1831493,2019-11-06 13:57:52:286,-1.1432,0.9716,11.4602,0.0488,0.0223,9.8064,0.2309,0.216,-0.0718,-11.31,-36.44,-6.0,163.5,-86.97,99.66
18322,53.159843,-1.874956,317.18,17.0,4,343.34,21 / 21,1831593,2019-11-06 13:57:52:386,0.4858,0.929,10.1718,0.0598,0.0494,9.8063,-0.0935,0.0288,0.031,-11.5,-35.81,0.0,198.93,-86.7,112.41
18323,53.159843,-1.874956,317.18,17.0,4,343.34,21 / 21,1831693,2019-11-06 13:57:52:486,-1.1524,0.4575,10.5731,0.0022,-0.0224,9.8066,0.003,0.146,-0.0449,-29.25,-41.56,15.5,232.02,-86.69,116.4
18324,53.159843,-1.874956,317.18,17.0,4,343.34,21 / 21,1831793,2019-11-06 13:57:52:586,-0.0494,-2.1934,9.3335,0.0045,0.0,9.8066,0.0188,-0.1484,0.0277,-18.44,-39.44,-6.81,186.24,-86.59,118.23
18325,53.159843,-1.874956,317.18,17.0,4,343.34,21 / 21,1831893,2019-11-06 13:57:52:686,0.5814,0.5357,8.2107,-0.0039,-0.025,9.8065,-0.0915,0.1604,0.0263,-14.87,-38.06,-8.12,182.42,-86.74,120.8
18326,53.159843,-1.874956,317.18,17.0,4,343.34,21 / 21,1831993,2019-11-06 13:57:52:786,0.6815,-3.421,9.6737,-0.0083,-0.0284,9.8065,-0.1742,-0.066,0.0627,-14.56,-37.62,-8.12,178.32,-87.36,116.22
18327,53.159843,-1.874956,317.18,17.0,4,343.34,21 / 21,1832094,2019-11-06 13:57:52:887,0.187,-3.3647,9.3824,0.0449,0.0094,9.8064,-0.1068,0.0177,0.1016,-15.25,-38.12,-8.37,178.04,-87.72,115.94
18328,53.159843,-1.874956,317.18,17.0,4,343.34,21 / 21,1832193,2019-11-06 13:57:52:986,-0.135,-3.3027,9.761,0.0209,-0.0376,9.8065,0.0389,-0.0606,0.235,-19.44,-39.12,-7.75,190.07,-87.83,123.62
18329,53.159843,-1.874956,317.18,17.0,4,343.34,21 / 21,1832293,2019-11-06 13:57:53:086,-0.7635,-3.6451,14.0756,-0.0034,-0.0777,9.8063,0.2976,-0.1167,-0.1167,-24.44,-39.12,21.88,273.14,-87.33,143.83
18330,53.159843,-1.874956,317.18,17.0,4,343.34,21 / 21,1832393,2019-11-06 13:57:53:186,-1.3184,0.2553,12.173,0.0821,-0.0391,9.8062,0.0665,0.1817,0.0482,-13.12,-36.06,3.44,246.35,-86.54,151.9
18331,53.159843,-1.874956,317.18,17.0,4,343.34,21 / 21,1832493,2019-11-06 13:57:53:286,-0.9267,-1.2741,10.512,0.0654,0.0463,9.8062,0.0422,-0.0182,0.0182,-13.06,-37.44,-2.37,230.13,-85.91,157.67
18332,53.159843,-1.874956,317.18,17.0,4,343.34,21 / 21,1832593,2019-11-06 13:57:53:386,2.2091,-2.8933,10.0956,0.0147,-0.0152,9.8066,0.0801,-0.2184,0.0713,-13.44,-37.94,-4.31,224.01,-85.25,160.28
18333,53.159843,-1.874956,317.18,17.0,4,343.34,21 / 21,1832693,2019-11-06 13:57:53:486,0.4986,-1.6695,8.3495,-0.0252,-0.0269,9.8065,0.0832,0.0977,-0.0494,-14.25,-38.12,-4.06,227.93,-85.3,162.93
18334,53.159843,-1.874956,317.18,17.0,4,343.34,21 / 21,1832793,2019-11-06 13:57:53:586,-0.6888,-4.4547,9.0981,0.0202,-0.0177,9.8066,-0.0195,0.1643,-0.1033,-14.06,-37.37,-3.75,229.46,-85.18,164.67
18335,53.159843,-1.874956,317.18,17.0,4,343.34,21 / 21,1832893,2019-11-06 13:57:53:686,1.8067,-2.4035,12.6433,0.0047,-0.0146,9.8066,0.1697,-0.3144,-0.0217,-13.25,-36.94,-0.06,242.59,-85.12,164.95
18336,53.159843,-1.874956,317.18,17.0,4,343.34,21 / 21,1832993,2019-11-06 13:57:53:786,-1.9707,-3.9814,9.8802,0.0676,0.0119,9.8063,-0.0876,-0.2801,0.3823,-13.19,-35.94,11.94,288.46,-84.79,165.97
18337,53.16108,-1.875173,314.49,13.97,4,12.01,21 / 21,1833093,2019-11-06 13:57:53:886,-0.1135,-1.9907,13.1247,0.0722,0.0014,9.8063,-0.1434,0.1496,0.0443,-33.0,-43.0,15.31,280.72,-84.66,172.58
18338,53.16108,-1.875173,314.49,13.97,4,12.01,21 / 21,1833193,2019-11-06 13:57:53:986,3.3599,-2.6247,12.4444,0.0105,0.0069,9.8066,0.0698,-0.0183,0.0168,-19.69,-39.56,-4.06,240.88,-84.06,172.31
18339,53.16108,-1.875173,314.49,13.97,4,12.01,21 / 21,1833294,2019-11-06 13:57:54:087,-0.565,-3.2275,8.8588,0.0264,0.0096,9.8065,-0.0835,0.1539,0.0043,-16.94,-39.31,-4.12,238.01,-83.58,173.37
18340,53.16108,-1.875173,314.49,13.97,4,12.01,21 / 21,1833393,2019-11-06 13:57:54:186,1.2239,-1.1032,10.6207,0.032,-0.0318,9.8064,0.0314,0.2965,-0.3685,-17.12,-38.81,-3.44,241.91,-83.46,174.96
18341,53.16108,-1.875173,314.49,13.97,4,12.01,21 / 21,1833493,2019-11-06 13:57:54:286,-2.9433,4.3441,10.5524,0.0471,-0.0606,9.8063,0.129,0.5968,-0.6449,-16.94,-40.25,-3.81,231.73,-83.1,167.3
18342,53.16108,-1.875173,314.49,13.97,4,12.01,21 / 21,1833593,2019-11-06 13:57:54:386,0.4667,-0.8951,9.9555,-0.0053,0.0417,9.8065,0.0785,0.1159,-0.0097,-27.87,-41.5,1.38,248.34,-82.55,166.36
18343,53.16108,-1.875173,314.49,13.97,4,12.01,21 / 21,1833693,2019-11-06 13:57:54:486,0.0521,-2.5983,10.9746,-0.0208,-0.0161,9.8065,0.023,0.5204,-0.1154,-22.81,-39.56,26.75,298.87,-82.16,167.32
18344,53.16108,-1.875173,314.49,13.97,4,12.01,21 / 21,1833793,2019-11-06 13:57:54:586,-3.9247,4.3059,7.9103,-0.0048,-0.0402,9.8065,-0.1689,0.1076,-0.2716,-14.62,-38.06,5.75,261.63,-82.32,168.03
18345,53.16108,-1.875173,314.49,13.97,4,12.01,21 / 21,1833893,2019-11-06 13:57:54:686,-2.9935,0.4949,7.7543,-0.02,-0.0582,9.8064,-0.1832,0.2053,-0.1874,-14.81,-38.25,-1.31,238.73,-83.11,167.46
18346,53.16108,-1.875173,314.49,13.97,4,12.01,21 / 21,1833993,2019-11-06 13:57:54:786,0.0092,-3.8022,9.4114,-0.0282,0.0045,9.8066,-0.0392,-0.2037,0.0299,-15.19,-39.06,-1.56,235.46,-83.55,166.75
18347,53.16108,-1.875173,314.49,13.97,4,12.01,21 / 21,1834093,2019-11-06 13:57:54:886,-1.377,0.2542,11.6409,0.0552,0.0125,9.8064,0.1287,0.2797,-0.2346,-14.56,-38.62,-1.56,233.72,-83.64,164.51
18348,53.16108,-1.875173,314.49,13.97,4,12.01,21 / 21,1834193,2019-11-06 13:57:54:986,1.1002,-1.4285,12.0741,0.0318,0.0127,9.8065,0.1316,-0.3419,0.1207,-14.69,-38.56,-0.25,238.26,-83.05,163.67
18349,53.16108,-1.875173,314.49,13.97,4,12.01,21 / 21,1834293,2019-11-06 13:57:55:086,-1.3979,-8.457,11.6006,0.0619,-0.0187,9.8064,0.1387,0.3809,-0.1782,-14.75,-37.44,3.0,248.44,-82.24,164.77
18350,53.16108,-1.875173,314.49,13.97,4,12.01,21 / 21,1834393,2019-11-06 13:57:55:186,5.4405,0.977,10.6134,-0.0132,-0.0834,9.8063,0.0467,0.7408,-0.3718,-14.56,-37.75,18.31,293.93,-82.15,165.71
18351,53.16108,-1.875173,314.49,13.97,4,12.01,21 / 21,1834493,2019-11-06 13:57:55:286,-0.9018,-5.5428,10.4118,-0.0625,-0.0133,9.8064,0.0393,-0.2856,-0.0933,-29.25,-41.31,1.5,249.84,-82.27,166.07
18352,53.16108,-1.875173,314.49,13.97,4,12.01,21 / 21,1834593,2019-11-06 13:57:55:386,-3.0899,3.5953,8.7841,0.0202,-0.0006,9.8066,-0.1489,0.6318,-0.2542,-19.25,-40.12,-2.44,235.44,-82.35,164.56
18353,53.16108,-1.875173,314.49,13.97,4,12.01,21 / 21,1834693,2019-11-06 13:57:55:486,-2.9859,1.9018,7.7648,-0.0391,0.0496,9.8064,0.3109,-1.3384,0.5228,-17.87,-39.37,-2.0,234.14,-82.59,163.34
18354,53.16108,-1.875173,314.49,13.97,4,12.01,21 / 21,1834793,2019-11-06 13:57:55:586,1.257,3.1453,10.2926,0.0153,-0.0232,9.8066,0.2565,-0.108,-0.2921,-17.44,-39.12,-1.37,233.86,-82.27,161.47
18355,53.16108,-1.875173,314.49,13.97,4,12.01,21 / 21,1834893,2019-11-06 13:57:55:686,-0.4494,-0.945,8.7789,-0.022,0.0376,9.8065,0.1423,-1.1419,0.2567,-19.69,-40.12,-1.5,230.91,-81.48,156.83
18356,53.16108,-1.875173,314.49,13.97,4,12.01,21 / 21,1834993,2019-11-06 13:57:55:786,-0.6183,-6.7334,10.6915,-0.0618,0.0136,9.8064,0.0821,-0.4517,0.2577,-29.37,-42.25,3.5,243.46,-81.63,156.22
18357,53.16108,-1.875173,314.49,13.97,4,12.01,21 / 21,1835093,2019-11-06 13:57:55:886,-3.6089,-0.181,8.4281,-0.0169,-0.0012,9.8066,-0.179,0.0868,-0.2515,-16.0,-37.44,16.75,279.42,-81.93,155.58
18358,53.16108,-1.875173,314.49,13.97,4,12.01,21 / 21,1835194,2019-11-06 13:57:55:987,0.0146,1.4687,10.7554,-0.0405,-0.046,9.8064,0.0726,0.3881,-0.1387,-16.37,-38.19,4.25,241.93,-82.23,153.74
18359,53.16108,-1.875173,314.49,13.97,4,12.01,21 / 21,1835293,2019-11-06 13:57:56:086,-0.3099,-6.508,8.3716,0.0332,0.0046,9.8066,-0.0108,-0.5061,0.2514,-16.94,-38.81,1.25,233.35,-82.25,154.16
18360,53.16108,-1.875173,314.49,13.97,4,12.01,21 / 21,1835393,2019-11-06 13:57:56:186,-1.2576,6.0537,10.7454,0.0387,-0.0849,9.8062,-0.0328,-1.3128,0.5987,-17.5,-38.87,0.88,235.61,-82.24,156.88
18361,53.16108,-1.875173,314.49,13.97,4,12.01,21 / 21,1835493,2019-11-06 13:57:56:286,1.4976,-10.674,8.3096,-0.0055,0.0714,9.8064,-0.0185,-0.7897,0.5457,-17.25,-38.87,1.31,234.26,-82.09,155.54
18362,53.16108,-1.875173,314.49,13.97,4,12.01,21 / 21,1835594,2019-11-06 13:57:56:387,-1.4703,2.2313,8.8207,-0.0669,-0.1129,9.8057,0.1776,0.1663,-0.4663,-16.75,-38.69,3.06,240.49,-82.5,155.24
18363,53.16108,-1.875173,314.49,13.97,4,12.01,21 / 21,1835693,2019-11-06 13:57:56:486,-1.088,-11.6069,10.343,-0.0335,0.072,9.8063,0.2275,-1.0183,0.4477,-16.37,-36.81,9.38,254.5,-82.41,150.0
18364,53.16108,-1.875173,314.49,13.97,4,12.01,21 / 21,1835795,2019-11-06 13:57:56:588,1.8447,0.3553,9.8848,-0.0089,-0.0295,9.8065,0.2684,-0.992,0.4223,-28.19,-41.19,28.94,279.29,-82.23,151.24
18365,53.16108,-1.875173,314.49,13.97,4,12.01,21 / 21,1835893,2019-11-06 13:57:56:686,1.7626,7.1143,10.7577,0.0596,0.0922,9.806,0.1569,-1.4999,0.7201,-28.56,-40.87,4.44,239.96,-81.9,151.77
18366,53.16108,-1.875173,314.49,13.97,4,12.01,21 / 21,1835994,2019-11-06 13:57:56:787,2.2236,3.6529,10.6043,0.0551,-0.0772,9.8062,-0.0645,0.7129,-0.5887,-20.19,-39.31,1.56,235.46,-81.32,153.5
18367,53.16108,-1.875173,314.49,13.97,4,12.01,21 / 21,1836093,2019-11-06 13:57:56:886,-0.0648,-9.7548,8.9279,-0.1133,0.0433,9.8058,0.1903,-1.6263,0.5664,-20.56,-39.31,1.81,235.63,-81.75,152.66
18368,53.16108,-1.875173,314.49,13.97,4,12.01,21 / 21,1836193,2019-11-06 13:57:56:986,3.0619,-8.9146,10.453,-0.0792,-0.0276,9.8062,0.0995,-0.9473,0.4451,-20.94,-39.5,1.0,234.23,-82.28,152.99
18369,53.16108,-1.875173,314.49,13.97,4,12.01,21 / 21,1836294,2019-11-06 13:57:57:087,2.5025,-16.6829,9.3,-0.1039,0.1447,9.8049,0.267,-1.8283,0.893,-25.0,-39.44,1.56,233.9,-82.92,148.07
18370,53.16108,-1.875173,314.49,13.97,4,12.01,21 / 21,1836394,2019-11-06 13:57:57:187,-1.6605,-6.7345,9.4009,0.0249,0.1533,9.8054,-0.0575,-1.6759,0.9174,-36.69,-42.0,23.06,267.38,-83.2,152.1
18371,53.16108,-1.875173,314.49,13.97,4,12.01,21 / 21,1836493,2019-11-06 13:57:57:286,3.7238,11.7357,8.6278,0.0433,0.0651,9.8063,-0.0751,-0.6505,0.0701,-18.94,-37.06,14.88,272.19,-83.43,154.06
18372,53.16108,-1.875173,314.49,13.97,4,12.01,21 / 21,1836593,2019-11-06 13:57:57:386,-1.3039,-7.2997,10.814,-0.0207,0.1908,9.8047,0.2776,-1.8281,0.9781,-18.69,-37.5,5.0,241.8,-83.29,148.12
18373,53.16108,-1.875173,314.49,13.97,4,12.01,21 / 21,1836693,2019-11-06 13:57:57:486,-1.8472,7.3468,8.3593,-0.0116,0.0379,9.8065,-0.0398,-0.044,0.0318,-19.81,-38.25,3.0,239.24,-83.5,151.14
18374,53.16108,-1.875173,314.49,13.97,4,12.01,21 / 21,1836793,2019-11-06 13:57:57:586,0.2739,-9.0557,11.1645,-0.0153,0.1041,9.806,-0.1243,1.0863,-0.5367,-19.94,-38.06,3.0,239.61,-83.42,151.68
18375,53.16108,-1.875173,314.49,13.97,4,12.01,21 / 21,1836893,2019-11-06 13:57:57:686,1.4669,-7.0986,11.126,0.0513,-0.0546,9.8063,-0.121,1.245,-0.6163,-19.87,-38.5,3.38,242.71,-83.21,155.46
18376,53.16108,-1.875173,314.49,13.97,4,12.01,21 / 21,1836993,2019-11-06 13:57:57:786,-0.7699,-9.2631,9.6227,0.0603,0.0526,9.8062,-0.1674,0.0892,-0.0223,-20.0,-38.31,7.19,250.53,-82.87,153.3
18377,53.16108,-1.875173,314.49,13.97,4,12.01,20 / 20,1837093,2019-11-06 13:57:57:886,-2.1504,-7.9054,10.0868,-0.0447,-0.1035,9.806,-0.1878,1.2246,-0.4295,-19.44,-36.56,13.44,265.68,-83.06,152.51
18378,53.16108,-1.875173,314.49,13.97,4,12.01,20 / 20,1837193,2019-11-06 13:57:57:986,5.1786,7.1265,9.5894,-0.0769,-0.0878,9.8059,-0.0826,1.2297,-0.6549,-39.31,-42.62,20.5,270.22,-83.63,158.14
18379,53.16108,-1.875173,314.49,13.97,4,12.01,20 / 20,1837293,2019-11-06 13:57:58:086,1.2907,-6.9347,11.6994,0.005,-0.0981,9.8061,0.1733,0.3092,-0.2547,-25.81,-39.69,3.25,248.91,-83.65,161.34
18380,53.16108,-1.875173,314.49,13.97,4,12.01,20 / 20,1837393,2019-11-06 13:57:58:186,-0.7088,6.9602,8.8653,0.0505,-0.1174,9.8058,-0.0926,1.0114,-0.4996,-22.19,-38.31,2.19,247.09,-83.19,162.64
18381,53.16108,-1.875173,314.49,13.97,4,12.01,20 / 20,1837493,2019-11-06 13:57:58:286,-0.1889,4.0054,9.1399,-0.0166,0.0324,9.8065,0.0947,-1.2021,0.3926,-22.12,-39.44,3.63,248.73,-82.99,159.8
18382,53.16108,-1.875173,314.49,13.97,4,12.01,20 / 20,1837593,2019-11-06 13:57:58:386,0.9883,-9.0655,9.7001,-0.0323,0.0261,9.8065,0.0187,-0.3465,0.254,-22.87,-40.06,2.25,243.58,-83.09,159.27
18383,53.16108,-1.875173,314.49,13.97,4,12.01,20 / 20,1837693,2019-11-06 13:57:58:486,0.2523,0.051,9.332,-0.0216,0.0575,9.8064,0.0302,-0.7886,0.248,-27.69,-40.25,2.63,247.02,-83.35,159.52
18384,53.16108,-1.875173,314.49,13.97,4,12.01,20 / 20,1837794,2019-11-06 13:57:58:587,-3.6323,-7.9532,11.1189,-0.0194,0.0778,9.8063,0.2333,-1.0145,0.5194,-29.62,-39.94,31.56,287.21,-83.41,156.25
18385,53.16108,-1.875173,314.49,13.97,4,12.01,20 / 20,1837893,2019-11-06 13:57:58:686,-0.5479,-2.2005,8.732,0.0403,0.0363,9.8065,-0.0662,-0.1487,0.2128,-20.75,-36.31,11.31,265.99,-83.09,158.9
18386,53.16108,-1.875173,314.49,13.97,4,12.01,20 / 20,1837994,2019-11-06 13:57:58:787,-1.7121,-9.2323,10.6595,0.0009,0.0561,9.8065,0.0249,-1.1558,0.6004,-20.0,-37.31,6.81,258.98,-83.18,161.43
18387,53.16108,-1.875173,314.49,13.97,4,12.01,20 / 21,1838093,2019-11-06 13:57:58:886,0.602,5.2254,8.4225,-0.0295,-0.0244,9.8066,-0.0465,0.651,-0.2555,-21.31,-38.0,4.06,256.17,-83.45,166.71
18388,53.16108,-1.875173,314.49,13.97,4,12.01,20 / 21,1838193,2019-11-06 13:57:58:986,-2.4853,-7.4097,10.3694,-0.0104,0.0446,9.8065,0.0032,-0.5544,0.2929,-21.69,-37.94,3.94,255.33,-83.41,165.89
18389,53.16108,-1.875173,314.49,13.97,4,12.01,20 / 21,1838293,2019-11-06 13:57:59:086,2.4145,8.5039,8.7936,0.0596,-0.0312,9.8064,-0.2361,0.7375,-0.4225,-21.44,-38.37,4.56,259.05,-83.35,167.2
18390,53.16108,-1.875173,314.49,13.97,4,12.01,20 / 21,1838393,2019-11-06 13:57:59:186,-0.462,-5.5514,10.0871,0.0236,0.0909,9.8061,-0.0262,-0.4231,0.3923,-20.69,-36.44,8.75,269.37,-83.07,167.2
18391,53.16108,-1.875173,314.49,13.97,4,12.01,20 / 21,1838493,2019-11-06 13:57:59:286,-4.8142,-4.7785,10.6546,-0.0158,-0.057,9.8064,0.0538,1.0551,-0.5239,-25.06,-38.5,28.75,305.07,-83.07,171.68
18392,53.16108,-1.875173,314.49,13.97,4,12.01,20 / 21,1838593,2019-11-06 13:57:59:386,-0.3261,-8.0441,10.4447,0.0447,-0.0125,9.8064,-0.0448,0.0012,-0.0571,-37.69,-41.0,11.31,268.25,-82.73,169.69
18393,53.16108,-1.875173,314.49,13.97,4,12.01,20 / 21,1838693,2019-11-06 13:57:59:486,2.5438,2.9281,10.1956,0.0395,-0.0471,9.8064,-0.046,0.99,-0.3398,-25.06,-39.44,2.44,254.98,-82.4,171.83
18394,53.16108,-1.875173,314.49,13.97,4,12.01,20 / 21,1838793,2019-11-06 13:57:59:586,0.5955,3.1856,8.9852,0.01,-0.0347,9.8065,-0.1266,0.4878,-0.3377,-23.31,-37.81,3.31,256.73,-82.41,171.46
18395,53.16108,-1.875173,314.49,13.97,4,12.01,20 / 21,1838893,2019-11-06 13:57:59:686,1.9351,5.1939,11.3845,-0.0191,-0.059,9.8064,0.0559,0.6361,-0.4362,-23.44,-38.5,3.13,254.09,-82.54,168.43
18396,53.16108,-1.875173,314.49,13.97,4,12.01,20 / 21,1838993,2019-11-06 13:57:59:786,0.2048,-1.6778,8.7846,0.0158,-0.0124,9.8065,0.1939,-0.1379,0.0918,-25.5,-39.12,3.44,254.18,-82.63,168.32
18397,53.16108,-1.875173,314.49,13.97,4,12.01,21 / 21,1839093,2019-11-06 13:57:59:886,0.4558,-3.7072,10.152,0.0363,-0.0757,9.8062,-0.0227,0.368,-0.2812,-36.25,-41.94,9.63,265.75,-82.41,168.79
18398,53.16108,-1.875173,314.49,13.97,4,12.01,21 / 21,1839193,2019-11-06 13:57:59:986,3.1369,0.9498,10.1801,-0.0175,-0.0038,9.8066,0.0291,0.1173,-0.1301,-26.37,-37.87,30.88,301.7,-82.4,168.02
18399,53.16108,-1.875173,314.49,13.97,4,12.01,21 / 21,1839293,2019-11-06 13:58:00:086,-1.383,-4.493,9.7934,-0.0179,0.0001,9.8066,0.0085,0.1028,0.2531,-20.94,-36.94,8.81,269.25,-82.65,168.1
18400,53.16108,-1.875173,314.49,13.97,4,12.01,21 / 21,1839393,2019-11-06 13:58:00:186,1.4768,1.9444,9.9576,-0.0418,-0.0812,9.8061,-0.0049,-0.2111,0.0056,-20.62,-37.81,5.19,261.44,-82.86,170.56
18401,53.16108,-1.875173,314.49,13.97,4,12.01,21 / 21,1839493,2019-11-06 13:58:00:286,0.4143,1.196,8.5,-0.0096,-0.0162,9.8066,0.1498,0.0826,0.0228,-21.31,-37.87,4.38,255.86,-82.73,167.67
18402,53.16108,-1.875173,314.49,13.97,4,12.01,21 / 21,1839594,2019-11-06 13:58:00:387,1.5061,9.8253,8.6691,0.0105,-0.0341,9.8066,-0.0884,1.2737,-0.5108,-21.12,-38.19,4.88,261.56,-82.45,171.44
18403,53.16108,-1.875173,314.49,13.97,4,12.01,21 / 21,1839693,2019-11-06 13:58:00:486,-1.2847,-2.6568,9.6585,0.0134,0.0112,9.8066,0.0581,-0.5962,0.5023,-21.44,-38.0,6.44,263.19,-82.08,171.08
18404,53.16108,-1.875173,314.49,13.97,4,12.01,21 / 21,1839793,2019-11-06 13:58:00:586,-1.3604,0.8026,11.7159,-0.0355,-0.0791,9.8063,0.142,-0.903,0.4702,-21.25,-36.87,10.19,278.36,-82.05,175.67
18405,53.16108,-1.875173,314.49,13.97,4,12.01,21 / 21,1839893,2019-11-06 13:58:00:686,-5.7053,-7.0904,10.7634,0.0564,-0.0318,9.8063,-0.0049,-0.1761,0.3446,-34.69,-40.94,31.81,301.94,-81.42,176.13
18406,53.16108,-1.875173,314.49,13.97,4,12.01,21 / 21,1839993,2019-11-06 13:58:00:786,-1.4924,1.492,7.8988,0.0449,-0.1021,9.806,0.2346,-1.0152,0.2227,-31.25,-39.94,5.94,268.09,-81.22,178.38
18407,53.16108,-1.875173,314.49,13.97,4,12.01,21 / 21,1840094,2019-11-06 13:58:00:887,1.2115,-6.0187,8.691,0.0422,0.0803,9.8062,-0.1347,-0.5731,0.4103,-24.62,-38.69,4.44,265.13,-81.49,179.27
18408,53.16108,-1.875173,314.49,13.97,4,12.01,21 / 21,1840194,2019-11-06 13:58:00:987,0.8808,7.0424,9.3037,0.0293,-0.0338,9.8065,0.1423,-1.0472,0.2806,-23.12,-38.0,4.25,263.14,-81.28,177.55
18409,53.16108,-1.875173,314.49,13.97,4,12.01,21 / 21,1840293,2019-11-06 13:58:01:086,0.9805,-1.2651,10.5935,-0.0184,0.0996,9.8061,-0.0179,-0.8403,0.5982,-24.94,-38.75,4.25,260.84,-81.47,174.82
18410,53.16108,-1.875173,314.49,13.97,4,12.01,21 / 21,1840394,2019-11-06 13:58:01:187,0.5913,5.8769,10.0302,0.0414,-0.0314,9.8064,-0.0183,-0.0208,0.0328,-26.94,-38.94,4.06,262.98,-81.16,177.2
18411,53.16108,-1.875173,314.49,13.97,4,12.01,21 / 21,1840493,2019-11-06 13:58:01:286,2.7104,-6.9693,10.7608,0.027,0.0775,9.8062,0.0389,-0.7856,0.4524,-38.56,-42.62,29.81,294.37,-81.04,174.26
18412,53.16108,-1.875173,314.49,13.97,4,12.01,21 / 21,1840593,2019-11-06 13:58:01:386,-3.3142,-1.0393,10.3518,-0.0178,0.0112,9.8066,0.0111,0.0036,0.021,-21.5,-36.25,17.88,294.94,-81.16,175.15
18413,53.16108,-1.875173,314.49,13.97,4,12.01,21 / 21,1840693,2019-11-06 13:58:01:486,-0.2001,-1.2604,9.9847,0.0293,0.0385,9.8065,0.0467,-0.1934,-0.0253,-21.25,-37.56,8.63,270.72,-80.99,172.81
18414,53.16108,-1.875173,314.49,13.97,4,12.01,21 / 21,1840793,2019-11-06 13:58:01:586,0.346,-3.8781,10.3152,0.0172,0.0351,9.8066,-0.0148,-0.413,0.1898,-20.81,-38.94,6.63,261.9,-80.61,170.11
18415,53.16108,-1.875173,314.49,13.97,4,12.01,21 / 21,1840893,2019-11-06 13:58:01:686,4.3683,3.2364,10.6953,0.0148,0.0095,9.8066,-0.1892,0.1307,-0.0374,-20.94,-38.06,5.56,258.52,-80.54,168.92
18416,53.16108,-1.875173,314.49,13.97,4,12.01,21 / 21,1840993,2019-11-06 13:58:01:786,2.1623,0.2125,8.6564,0.0465,0.0213,9.8064,-0.149,-0.0012,-0.0487,-21.44,-38.62,6.69,261.45,-80.55,169.75
18417,53.16108,-1.875173,314.49,13.97,4,12.01,22 / 22,1841094,2019-11-06 13:58:01:887,-3.4432,3.7198,6.3183,0.0688,-0.0082,9.8063,-0.5774,1.3034,-0.2986,-20.56,-37.19,8.75,265.8,-80.46,168.3
18418,53.16108,-1.875173,314.49,13.97,4,12.01,22 / 22,1841194,2019-11-06 13:58:01:987,-0.9668,7.4472,6.363,-0.0123,-0.0258,9.8066,0.1245,0.8487,-0.7046,-20.5,-37.25,12.44,271.31,-80.51,165.73
18419,53.16108,-1.875173,314.49,13.97,4,12.01,22 / 22,1841294,2019-11-06 13:58:02:087,1.3385,5.5184,10.2425,-0.1111,-0.109,9.8054,0.1975,1.4785,-0.7907,-38.06,-42.75,27.69,285.32,-80.29,167.79
18420,53.16108,-1.875173,314.49,13.97,4,12.01,22 / 22,1841393,2019-11-06 13:58:02:186,-0.4127,13.2668,10.9337,0.0401,-0.1334,9.8056,0.4076,-0.5468,0.574,-27.75,-40.12,5.06,255.08,-79.46,169.33
18421,53.16108,-1.875173,314.49,13.97,4,12.01,22 / 22,1841493,2019-11-06 13:58:02:286,3.2379,-10.5229,13.601,-0.0192,-0.1968,9.8046,0.3437,1.0796,-0.9597,-23.81,-39.31,5.44,258.29,-78.97,173.98
18422,53.16108,-1.875173,314.49,13.97,4,12.01,22 / 22,1841594,2019-11-06 13:58:02:387,-0.518,6.9878,9.5741,0.0943,-0.051,9.806,-0.5306,1.3133,-0.3378,-23.75,-38.87,5.25,256.09,-78.51,172.32
18423,53.16108,-1.875173,314.49,13.97,4,12.01,22 / 22,1841693,2019-11-06 13:58:02:486,1.2916,-6.3844,11.8252,-0.0302,-0.0012,9.8065,0.0562,0.3226,-0.0774,-24.44,-39.62,5.94,258.63,-78.89,172.5
18424,53.16108,-1.875173,314.49,13.97,4,12.01,22 / 22,1841793,2019-11-06 13:58:02:586,-1.8402,8.677,8.0234,0.0591,-0.0508,9.8063,0.1909,-0.9858,0.4624,-30.94,-41.19,7.0,260.27,-78.95,171.73
18425,53.16108,-1.875173,314.49,13.97,4,12.01,22 / 22,1841893,2019-11-06 13:58:02:686,-2.3333,-4.207,10.4579,0.0112,0.0292,9.8065,0.2027,-0.7643,0.2066,-32.56,-41.19,35.19,295.13,-78.72,167.7
18426,53.16108,-1.875173,314.49,13.97,4,12.01,22 / 22,1841994,2019-11-06 13:58:02:787,0.3926,7.4101,9.27,-0.0025,-0.0084,9.8066,-0.2241,0.5899,-0.1297,-20.56,-36.94,14.69,276.08,-78.57,167.42
18427,53.16189,-1.874255,315.95,11.89,4,46.57,21 / 22,1842094,2019-11-06 13:58:02:887,-0.087,-10.0013,10.5034,-0.003,0.1112,9.806,-0.1847,-0.6237,0.6479,-20.56,-37.87,10.06,261.37,-78.81,164.36
18428,53.16189,-1.874255,315.95,11.89,4,46.57,21 / 22,1842194,2019-11-06 13:58:02:987,-1.0891,6.0192,10.1667,0.0044,-0.0859,9.8062,-0.2162,-1.0866,0.7545,-20.69,-38.31,6.69,257.31,-78.99,167.64
18429,53.16189,-1.874255,315.95,11.89,4,46.57,21 / 22,1842293,2019-11-06 13:58:03:086,-1.468,-1.6617,10.6319,0.0179,0.0025,9.8065,-0.1849,-0.1255,0.0964,-21.12,-38.37,6.88,256.49,-79.1,166.55
18430,53.16189,-1.874255,315.95,11.89,4,46.57,21 / 22,1842393,2019-11-06 13:58:03:186,-4.9451,3.6313,8.5274,-0.0233,-0.0928,9.8061,0.2328,0.4312,-0.5567,-20.37,-38.69,7.63,258.78,-79.11,166.74
18431,53.16189,-1.874255,315.95,11.89,4,46.57,21 / 22,1842493,2019-11-06 13:58:03:286,-0.623,-2.2851,9.2582,-0.0327,-0.0222,9.8065,0.1782,-0.2354,-0.0061,-20.31,-37.62,11.5,268.26,-78.88,165.92
18432,53.16189,-1.874255,315.95,11.89,4,46.57,21 / 22,1842593,2019-11-06 13:58:03:386,-0.9361,4.0326,9.7141,0.0326,-0.0137,9.8065,0.2339,-0.4218,0.1909,-20.0,-37.31,25.25,295.09,-78.59,166.34
18433,53.16189,-1.874255,315.95,11.89,4,46.57,21 / 22,1842694,2019-11-06 13:58:03:487,-3.2324,-3.0131,8.4972,0.0517,0.0077,9.8064,-0.2439,-0.2358,0.2081,-39.69,-42.56,22.63,276.0,-78.69,166.89
18434,53.16189,-1.874255,315.95,11.89,4,46.57,21 / 22,1842793,2019-11-06 13:58:03:586,-1.1694,0.5723,11.2692,0.005,-0.0158,9.8065,0.0662,0.1317,-0.0931,-24.06,-39.37,6.5,255.48,-78.59,166.66
18435,53.16189,-1.874255,315.95,11.89,4,46.57,21 / 22,1842893,2019-11-06 13:58:03:686,-0.3533,2.3735,9.4761,0.0263,0.0155,9.8065,0.0317,-0.229,0.069,-22.81,-38.69,6.0,252.67,-78.25,166.68
18436,53.16189,-1.874255,315.95,11.89,4,46.57,21 / 22,1842994,2019-11-06 13:58:03:787,0.7638,-2.4894,8.727,-0.016,0.0127,9.8066,0.0421,-0.3188,0.1601,-22.81,-39.19,5.75,252.67,-78.21,166.75
18437,53.16189,-1.874255,315.95,11.89,4,46.57,21 / 21,1843093,2019-11-06 13:58:03:886,0.1344,2.5155,9.0649,-0.0404,-0.024,9.8065,-0.1097,0.0944,-0.0436,-24.56,-39.62,5.19,252.05,-78.95,167.33
18438,53.16189,-1.874255,315.95,11.89,4,46.57,21 / 21,1843193,2019-11-06 13:58:03:986,-2.2497,-0.6404,8.4171,-0.0408,0.0377,9.8064,-0.1212,-0.1475,0.157,-34.87,-41.5,10.06,260.78,-79.44,166.64
18439,53.16189,-1.874255,315.95,11.89,4,46.57,21 / 21,1843293,2019-11-06 13:58:04:086,-1.4735,3.5614,8.3638,0.0024,-0.0137,9.8066,-0.1258,0.2343,-0.1798,-27.62,-39.37,34.13,298.44,-79.72,166.39
18440,53.16189,-1.874255,315.95,11.89,4,46.57,21 / 21,1843394,2019-11-06 13:58:04:187,0.4734,1.7367,11.3929,0.0135,0.0202,9.8066,0.0963,0.0718,0.0055,-20.37,-36.87,10.25,264.51,-79.66,165.34
18441,53.16189,-1.874255,315.95,11.89,4,46.57,21 / 21,1843493,2019-11-06 13:58:04:286,0.0192,-0.1205,10.5512,0.0392,0.0208,9.8065,0.082,-0.1105,0.0337,-20.62,-38.25,8.13,257.17,-79.23,164.35
18442,53.16189,-1.874255,315.95,11.89,4,46.57,21 / 21,1843593,2019-11-06 13:58:04:386,-1.5628,-0.7413,9.8094,0.0616,0.0305,9.8063,0.0129,-0.0452,0.1977,-20.62,-38.62,7.0,253.59,-78.71,164.53
18443,53.16189,-1.874255,315.95,11.89,4,46.57,21 / 21,1843694,2019-11-06 13:58:04:487,-0.2474,1.2912,9.9625,-0.0048,-0.0105,9.8066,-0.026,0.3111,-0.1489,-20.56,-38.31,6.38,254.45,-79.04,167.14
18444,53.16189,-1.874255,315.95,11.89,4,46.57,21 / 21,1843793,2019-11-06 13:58:04:586,-1.5985,-4.6455,7.5543,-0.032,0.0014,9.8065,-0.1327,-0.5226,0.379,-20.87,-38.12,7.38,258.85,-79.68,168.08
18445,53.16189,-1.874255,315.95,11.89,4,46.57,21 / 21,1843893,2019-11-06 13:58:04:686,-0.8822,2.6912,9.1519,0.0052,0.0026,9.8066,-0.0679,-0.1032,0.1451,-21.37,-36.56,12.94,276.7,-80.07,170.13
18446,53.16189,-1.874255,315.95,11.89,4,46.57,21 / 21,1843993,2019-11-06 13:58:04:786,-4.8602,-2.3422,9.7336,0.0006,0.0349,9.8065,0.0723,-0.5756,0.3033,-30.62,-40.31,32.88,300.17,-80.23,171.27
18447,53.16189,-1.874255,315.95,11.89,4,46.57,21 / 21,1844093,2019-11-06 13:58:04:886,-0.6525,0.6729,9.5164,-0.0248,-0.0305,9.8065,-0.0037,0.1308,-0.1628,-34.12,-41.0,8.13,264.15,-80.1,172.57
18448,53.16189,-1.874255,315.95,11.89,4,46.57,21 / 21,1844193,2019-11-06 13:58:04:986,-2.5888,4.7715,8.5662,-0.0288,0.0581,9.8064,-0.0128,-0.357,0.2567,-24.94,-38.75,4.44,256.62,-80.29,172.19
18449,53.16189,-1.874255,315.95,11.89,4,46.57,21 / 21,1844293,2019-11-06 13:58:05:086,-1.8974,5.0948,9.1563,0.0092,-0.0173,9.8066,0.005,0.3921,-0.1236,-23.37,-39.44,4.19,256.09,-80.36,172.01
18450,53.16189,-1.874255,315.95,11.89,4,46.57,21 / 21,1844393,2019-11-06 13:58:05:186,-2.3373,5.4542,8.9614,-0.0036,0.0516,9.8065,0.0914,0.5125,-0.2073,-23.81,-39.06,3.88,255.36,-80.32,171.02
18451,53.16189,-1.874255,315.95,11.89,4,46.57,21 / 21,1844493,2019-11-06 13:58:05:286,-1.3169,7.4264,9.6741,0.0149,-0.0751,9.8063,-0.0678,0.8581,-0.4586,-25.81,-39.81,3.69,256.77,-80.35,172.4
18452,53.16189,-1.874255,315.95,11.89,4,46.57,21 / 21,1844593,2019-11-06 13:58:05:386,-1.598,1.3087,7.9079,0.0367,-0.0191,9.8065,0.2195,-0.2456,0.1976,-38.75,-42.37,18.56,278.17,-80.27,171.76
18453,53.16189,-1.874255,315.95,11.89,4,46.57,21 / 21,1844693,2019-11-06 13:58:05:486,-3.9215,0.4956,10.1076,-0.0301,-0.053,9.8064,-0.0219,0.487,-0.2759,-21.25,-36.37,16.13,288.17,-80.14,174.11
18454,53.16189,-1.874255,315.95,11.89,4,46.57,21 / 21,1844793,2019-11-06 13:58:05:586,0.1616,5.0765,9.2978,-0.0136,-0.025,9.8066,-0.0734,0.4235,-0.0637,-21.12,-37.5,7.63,268.51,-80.28,174.01
18455,53.16189,-1.874255,315.95,11.89,4,46.57,21 / 21,1844893,2019-11-06 13:58:05:686,-1.9161,-0.4184,7.9211,-0.0547,-0.0589,9.8063,-0.1109,0.2985,-0.0897,-21.5,-37.87,5.25,262.06,-80.57,175.39
18456,53.16189,-1.874255,315.95,11.89,4,46.57,21 / 21,1844993,2019-11-06 13:58:05:786,-1.9891,3.6589,9.0402,-0.0205,-0.0429,9.8065,-0.0327,-0.2099,0.2052,-22.0,-38.44,4.31,263.58,-81.26,178.25
18457,53.16189,-1.874255,315.95,11.89,4,46.57,20 / 20,1845093,2019-11-06 13:58:05:886,-0.4331,3.9232,8.9649,0.0122,-0.0207,9.8066,-0.148,0.3222,-0.1623,-21.56,-38.81,4.13,264.42,-81.61,178.89
18458,53.16189,-1.874255,315.95,11.89,4,46.57,20 / 20,1845193,2019-11-06 13:58:05:986,-4.253,1.624,10.0602,0.0306,-0.0197,9.8065,0.1406,-0.2107,0.0716,-21.56,-38.0,5.56,270.35,-81.74,179.11
18459,53.16189,-1.874255,315.95,11.89,4,46.57,20 / 20,1845293,2019-11-06 13:58:06:086,-2.1572,-0.7163,11.249,0.0561,-0.0034,9.8064,-0.0556,0.0835,0.0403,-20.5,-36.44,15.31,293.45,-81.38,178.36
18460,53.16189,-1.874255,315.95,11.89,4,46.57,20 / 20,1845393,2019-11-06 13:58:06:186,0.0642,1.4975,11.458,0.0049,-0.0202,9.8066,-0.0548,0.4493,-0.1284,-36.62,-42.75,27.94,298.6,-81.35,178.85
18461,53.16189,-1.874255,315.95,11.89,4,46.57,20 / 20,1845493,2019-11-06 13:58:06:286,-2.5564,-1.9491,8.6815,0.0062,-0.004,9.8066,0.0225,0.1304,-0.0742,-28.12,-40.12,3.81,263.44,-81.3,177.64
18462,53.16189,-1.874255,315.95,11.89,4,46.57,20 / 20,1845593,2019-11-06 13:58:06:386,1.083,1.6379,10.7821,-0.0269,-0.0333,9.8065,0.1992,0.2406,-0.0624,-22.81,-39.0,2.38,256.63,-81.13,176.36
18463,53.16189,-1.874255,315.95,11.89,4,46.57,20 / 20,1845693,2019-11-06 13:58:06:486,1.0335,3.1737,8.625,-0.0219,0.0136,9.8066,0.0638,-0.2461,0.1216,-22.19,-38.81,2.81,257.93,-80.98,175.83
18464,53.16189,-1.874255,315.95,11.89,4,46.57,20 / 20,1845793,2019-11-06 13:58:06:586,-3.4416,4.6118,7.8745,-0.0074,-0.0164,9.8066,0.0184,-0.3136,0.2187,-22.94,-39.37,1.31,254.76,-81.18,176.77
18465,53.16189,-1.874255,315.95,11.89,4,46.57,20 / 20,1845893,2019-11-06 13:58:06:686,-1.8358,0.0184,9.5699,-0.0285,0.0216,9.8065,-0.0408,-0.0383,0.1162,-29.62,-40.44,2.25,259.96,-81.81,176.92
18466,53.16189,-1.874255,315.95,11.89,4,46.57,20 / 20,1845993,2019-11-06 13:58:06:786,-1.2437,4.6051,9.6853,-0.0114,-0.0421,9.8065,-0.0105,0.2511,-0.0832,-33.5,-41.06,29.31,302.88,-81.84,178.28
18467,53.16189,-1.874255,315.95,11.89,4,46.57,21 / 21,1846093,2019-11-06 13:58:06:886,-1.2474,-2.2759,12.3115,0.033,-0.0356,9.8064,0.1691,0.0781,0.0597,-19.75,-36.19,12.25,289.1,-81.63,-179.3
18468,53.16189,-1.874255,315.95,11.89,4,46.57,21 / 21,1846194,2019-11-06 13:58:06:987,0.5941,4.7917,8.3207,0.0587,-0.0165,9.8064,0.3028,-0.2309,0.1898,-20.06,-38.37,3.94,265.81,-80.82,-178.09
18469,53.16189,-1.874255,315.95,11.89,4,46.57,21 / 21,1846293,2019-11-06 13:58:07:086,-2.0988,-1.77,10.3648,0.0093,0.0041,9.8066,0.1278,-0.1022,0.0288,-20.56,-38.37,2.75,263.59,-80.38,-177.08
18470,53.16189,-1.874255,315.95,11.89,4,46.57,21 / 21,1846394,2019-11-06 13:58:07:187,-0.4157,0.2761,8.7245,0.0064,0.0488,9.8064,0.05,0.517,-0.2999,-19.94,-37.69,2.44,258.8,-80.14,-178.28
18471,53.16189,-1.874255,315.95,11.89,4,46.57,21 / 21,1846493,2019-11-06 13:58:07:286,-4.4945,3.5535,10.7259,0.0143,0.0413,9.8064,-0.0548,0.0446,0.1151,-19.0,-39.0,2.56,260.85,-80.3,-178.26
18472,53.16189,-1.874255,315.95,11.89,4,46.57,21 / 21,1846594,2019-11-06 13:58:07:387,-0.5782,4.9897,9.923,-0.0226,0.0368,9.8065,-0.2476,0.785,-0.2001,-18.5,-37.87,5.19,267.66,-80.61,-178.25
18473,53.16189,-1.874255,315.95,11.89,4,46.57,21 / 21,1846694,2019-11-06 13:58:07:487,-0.5636,5.8485,10.0919,-0.0064,-0.0086,9.8066,0.1469,0.2767,0.0281,-18.25,-37.19,19.06,310.32,-80.63,-175.66
18474,53.16189,-1.874255,315.95,11.89,4,46.57,21 / 21,1846793,2019-11-06 13:58:07:586,-0.3586,-1.9943,11.4662,0.0,-0.0126,9.8066,0.1876,-0.2068,0.1459,-38.12,-42.5,16.0,288.88,-80.25,-174.18
18475,53.16189,-1.874255,315.95,11.89,4,46.57,21 / 21,1846893,2019-11-06 13:58:07:686,-2.8439,-1.0046,10.341,0.0769,-0.0263,9.8063,0.0779,0.8,-0.2434,-21.81,-39.37,-0.5,259.13,-79.35,-171.96
18476,53.16189,-1.874255,315.95,11.89,4,46.57,21 / 21,1846993,2019-11-06 13:58:07:786,-1.0293,-6.0335,10.3605,0.012,0.0203,9.8066,0.2027,-0.1036,0.0746,-21.0,-39.37,0.19,257.78,-79.02,-171.85
18477,53.16189,-1.874255,315.95,11.89,4,46.57,20 / 22,1847093,2019-11-06 13:58:07:886,-4.2913,4.9715,10.4158,0.0341,-0.0597,9.8064,0.1439,1.174,-0.7015,-20.81,-40.0,-0.25,256.92,-78.8,-171.8
18478,53.16189,-1.874255,315.95,11.89,4,46.57,20 / 22,1847196,2019-11-06 13:58:07:989,-1.2958,-1.6173,10.1497,0.042,-0.0598,9.8063,0.0314,1.1253,-0.59,-21.62,-40.06,0.38,257.23,-78.42,-171.75
18479,53.16189,-1.874255,315.95,11.89,4,46.57,20 / 22,1847293,2019-11-06 13:58:08:086,-5.4056,10.7614,7.1412,0.0633,-0.0202,9.8063,-0.1559,1.5105,-0.6612,-29.06,-42.31,2.25,264.39,-78.26,-172.28
18480,53.16189,-1.874255,315.95,11.89,4,46.57,20 / 22,1847393,2019-11-06 13:58:08:186,-2.3932,1.6417,10.4062,-0.0272,0.0171,9.8065,-0.1176,0.888,-0.3494,-25.0,-40.5,28.13,315.6,-78.65,-173.55
18481,53.16189,-1.874255,315.95,11.89,4,46.57,20 / 22,1847493,2019-11-06 13:58:08:286,-3.0298,-5.733,10.6341,0.0324,-0.0791,9.8062,-0.0526,1.1131,-0.5849,-15.44,-37.69,7.94,277.54,-78.91,-174.67
18482,53.16189,-1.874255,315.95,11.89,4,46.57,20 / 22,1847593,2019-11-06 13:58:08:386,-6.4763,6.0995,10.6542,-0.0006,-0.0298,9.8066,0.0357,0.9701,-0.4715,-14.31,-39.0,0.19,246.14,-78.98,-174.63
18483,53.16189,-1.874255,315.95,11.89,4,46.57,20 / 22,1847693,2019-11-06 13:58:08:486,-3.6947,3.0085,9.3451,0.0492,-0.0636,9.8063,0.0747,1.0003,-0.4218,-13.81,-39.94,-0.81,242.35,-78.87,-174.36
18484,53.16189,-1.874255,315.95,11.89,4,46.57,20 / 22,1847794,2019-11-06 13:58:08:587,-7.0178,6.1898,8.8589,0.0537,-0.0378,9.8064,-0.0793,1.2219,-0.3491,-13.5,-38.87,-0.75,240.67,-78.61,-173.9
18485,53.16189,-1.874255,315.95,11.89,4,46.57,20 / 22,1847893,2019-11-06 13:58:08:686,-1.2115,-0.3493,10.1924,-0.0074,-0.0181,9.8066,0.1018,0.0992,0.0381,-11.94,-39.06,-0.19,242.36,-78.65,-172.97
18486,53.16189,-1.874255,315.95,11.89,4,46.57,20 / 22,1847993,2019-11-06 13:58:08:786,-4.2527,5.4154,9.6787,0.0102,-0.0381,9.8065,-0.0823,0.7525,-0.2494,-11.87,-37.75,3.44,255.24,-78.74,-172.86
18487,53.16189,-1.874255,315.95,11.89,4,46.57,21 / 21,1848093,2019-11-06 13:58:08:886,-0.8598,-0.1441,10.128,0.0284,0.0197,9.8065,0.0007,-0.0228,0.2351,-14.5,-39.12,23.0,326.32,-78.95,-172.95
18488,53.16189,-1.874255,315.95,11.89,4,46.57,21 / 21,1848194,2019-11-06 13:58:08:987,-1.4352,5.0676,8.9834,-0.0152,-0.0549,9.8064,0.062,-0.3406,0.2123,-19.87,-40.87,-1.56,250.62,-79.06,-172.21
18489,53.16189,-1.874255,315.95,11.89,4,46.57,21 / 21,1848293,2019-11-06 13:58:09:086,2.5406,-4.4842,11.3605,-0.0821,-0.0013,9.8062,0.1093,-0.6584,0.4218,-13.37,-39.56,-3.44,237.42,-79.55,-172.41
18490,53.16189,-1.874255,315.95,11.89,4,46.57,21 / 21,1848393,2019-11-06 13:58:09:186,-7.1032,4.0617,8.868,-0.0158,-0.0113,9.8065,0.0719,0.0426,0.1729,-11.0,-40.62,-3.12,232.66,-79.56,-170.97
18491,53.16189,-1.874255,315.95,11.89,4,46.57,21 / 21,1848493,2019-11-06 13:58:09:286,-7.5317,4.174,8.2946,-0.0937,0.0325,9.8061,0.2741,-0.7878,0.4498,-11.12,-39.62,-3.44,232.24,-79.63,-172.68
18492,53.16189,-1.874255,315.95,11.89,4,46.57,21 / 21,1848593,2019-11-06 13:58:09:386,-3.8947,5.993,9.9213,-0.0546,0.0346,9.8064,0.2053,-0.9537,0.4749,-12.56,-40.87,-2.81,236.33,-79.33,-172.5
18493,53.16189,-1.874255,315.95,11.89,4,46.57,21 / 21,1848693,2019-11-06 13:58:09:486,-0.7412,6.0061,8.5722,0.002,0.0323,9.8066,-0.0381,-0.1252,0.1946,-24.19,-43.06,6.94,275.99,-79.18,-171.08
18494,53.16189,-1.874255,315.95,11.89,4,46.57,21 / 21,1848793,2019-11-06 13:58:09:586,-7.3524,-4.4344,11.3041,0.0154,0.0811,9.8063,0.0315,-0.9797,0.6166,-6.81,-37.19,11.13,313.87,-79.4,-170.85
18495,53.16189,-1.874255,315.95,11.89,4,46.57,21 / 21,1848893,2019-11-06 13:58:09:686,-4.4017,2.7166,8.2236,0.0161,0.0099,9.8066,-0.2635,0.7941,-0.1671,-5.75,-38.62,1.31,229.32,-79.64,-168.6
18496,53.16189,-1.874255,315.95,11.89,4,46.57,21 / 21,1848993,2019-11-06 13:58:09:786,3.9793,-3.7651,11.4384,-0.0552,-0.0163,9.8065,0.1106,-0.3987,0.1923,-6.44,-39.25,-1.19,223.25,-80.04,-167.81
18497,53.16189,-1.874255,315.95,11.89,4,46.57,21 / 21,1849094,2019-11-06 13:58:09:887,-5.5929,4.2981,10.1696,0.0459,-0.0143,9.8065,0.0289,0.64,-0.3613,-5.62,-39.44,-1.56,220.28,-79.99,-167.5
18498,53.16189,-1.874255,315.95,11.89,4,46.57,21 / 21,1849193,2019-11-06 13:58:09:986,-5.3056,1.1843,8.5812,-0.0768,0.0258,9.8062,-0.141,-0.2126,0.2996,-5.19,-40.25,-0.12,219.44,-79.93,-167.62
18499,53.16189,-1.874255,315.95,11.89,4,46.57,21 / 21,1849293,2019-11-06 13:58:10:086,-7.963,3.6787,8.7925,0.0318,-0.0087,9.8065,-0.1784,1.1,-0.293,-4.25,-38.87,0.56,216.85,-80.02,-166.26
18500,53.16189,-1.874255,315.95,11.89,4,46.57,21 / 21,1849393,2019-11-06 13:58:10:186,-1.9119,2.4459,9.5284,-0.011,-0.0255,9.8065,-0.026,0.8049,-0.2406,-3.12,-37.44,9.88,357.05,-80.16,-164.42
18501,53.16189,-1.874255,315.95,11.89,4,46.57,21 / 21,1849493,2019-11-06 13:58:10:286,5.1947,3.9803,11.1125,-0.0684,0.0075,9.8064,0.1711,0.8516,-0.4652,-19.94,-43.5,22.94,327.29,-80.16,-163.8
18502,53.16189,-1.874255,315.95,11.89,4,46.57,21 / 21,1849593,2019-11-06 13:58:10:386,1.4996,-4.7923,9.4992,-0.0222,0.0448,9.8065,-0.0169,-0.0368,0.1095,-10.75,-40.69,-0.75,243.39,-79.94,-165.83
18503,53.16189,-1.874255,315.95,11.89,4,46.57,21 / 21,1849693,2019-11-06 13:58:10:486,-1.3958,0.8548,10.0282,0.0695,-0.0033,9.8063,-0.1162,1.1052,-0.385,-5.75,-40.0,-1.94,220.36,-79.62,-163.71
18504,53.16189,-1.874255,315.95,11.89,4,46.57,21 / 21,1849793,2019-11-06 13:58:10:586,-6.835,2.8803,8.2862,0.0103,-0.0104,9.8065,-0.094,0.4566,-0.1545,-5.44,-39.62,-2.0,215.65,-79.85,-162.89
18505,53.16189,-1.874255,315.95,11.89,4,46.57,21 / 21,1849893,2019-11-06 13:58:10:686,-5.685,2.6393,9.2901,0.0615,-0.0027,9.8064,-0.1226,0.8628,-0.409,-4.75,-39.94,-1.69,216.04,-80.05,-163.18
18506,53.16189,-1.874255,315.95,11.89,4,46.57,21 / 21,1849994,2019-11-06 13:58:10:787,-0.368,-1.2236,9.3056,0.0197,-0.0088,9.8065,-0.1682,0.6108,-0.302,-11.12,-41.12,-0.37,250.56,-80.15,-162.15
18507,53.16189,-1.874255,315.95,11.89,4,46.57,20 / 21,1850093,2019-11-06 13:58:10:886,-0.9106,-3.2145,10.0119,-0.0067,-0.0796,9.8063,-0.036,0.597,-0.3168,-16.44,-41.5,26.44,343.51,-80.1,-160.89
18508,53.16189,-1.874255,315.95,11.89,4,46.57,20 / 21,1850193,2019-11-06 13:58:10:986,4.5217,-2.0028,9.3119,-0.0248,-0.0041,9.8065,0.0152,0.5798,-0.1937,-2.19,-37.69,9.69,20.24,-80.15,-161.49
18509,53.16189,-1.874255,315.95,11.89,4,46.57,20 / 21,1850294,2019-11-06 13:58:11:087,-1.1426,0.9529,11.1434,0.0361,0.002,9.8065,-0.0504,0.4136,-0.244,-2.0,-38.87,1.38,197.11,-80.17,-160.98
18510,53.16189,-1.874255,315.95,11.89,4,46.57,20 / 21,1850394,2019-11-06 13:58:11:187,-1.649,0.5154,9.6345,0.0136,-0.0103,9.8066,-0.0297,0.1752,-0.0986,-2.19,-38.75,-0.06,198.07,-80.5,-161.36
18511,53.16189,-1.874255,315.95,11.89,4,46.57,20 / 21,1850493,2019-11-06 13:58:11:286,0.5159,-1.3894,8.9757,0.0033,-0.0117,9.8066,0.046,0.2469,-0.025,-2.31,-39.37,0.19,198.13,-80.53,-161.58
18512,53.16189,-1.874255,315.95,11.89,4,46.57,20 / 21,1850593,2019-11-06 13:58:11:386,-1.8648,1.1129,9.7309,0.0281,0.0292,9.8065,0.1492,-0.3521,0.2311,-1.94,-38.44,1.25,198.02,-80.31,-161.24
18513,53.16189,-1.874255,315.95,11.89,4,46.57,20 / 21,1850693,2019-11-06 13:58:11:486,3.9161,0.4161,10.7047,0.0185,0.0329,9.8065,-0.1371,0.031,0.0436,-1.62,-38.75,3.5,193.18,-80.04,-160.57
18514,53.16189,-1.874255,315.95,11.89,4,46.57,20 / 21,1850793,2019-11-06 13:58:11:586,0.9748,-1.1814,10.0858,-0.0337,-0.0224,9.8065,0.0191,-0.7611,0.5008,-1.5,-37.12,13.75,29.56,-80.01,-159.81
18515,53.16189,-1.874255,315.95,11.89,4,46.57,20 / 21,1850893,2019-11-06 13:58:11:686,-3.9861,-3.6795,9.8701,-0.0086,0.0079,9.8066,-0.0046,-0.3975,0.1257,-20.19,-42.56,8.0,291.63,-80.09,-161.0
18516,53.16189,-1.874255,315.95,11.89,4,46.57,20 / 21,1850993,2019-11-06 13:58:11:786,-1.7429,1.2005,9.2357,0.0129,-0.0331,9.8066,0.0554,-0.5163,0.2029,-6.62,-40.5,-1.06,231.45,-80.15,-161.03
18517,53.16253,-1.873737,323.04,7.5,4,330.22,21 / 21,1851093,2019-11-06 13:58:11:886,-2.613,-0.5929,9.2987,-0.0503,-0.0209,9.8064,0.0502,-0.3888,0.0946,-5.06,-39.81,-2.0,216.96,-80.25,-162.17
18518,53.16253,-1.873737,323.04,7.5,4,330.22,21 / 21,1851193,2019-11-06 13:58:11:986,-0.9635,0.7128,8.4731,-0.0224,0.0267,9.8066,-0.1455,0.3391,-0.1813,-4.44,-40.62,-1.87,210.23,-80.58,-164.26
18519,53.16253,-1.873737,323.04,7.5,4,330.22,21 / 21,1851293,2019-11-06 13:58:12:086,-1.7415,1.627,9.8972,-0.0407,0.0098,9.8065,0.0491,0.1158,-0.1479,-6.31,-39.75,-1.87,222.7,-80.81,-165.69
18520,53.16253,-1.873737,323.04,7.5,4,330.22,21 / 21,1851393,2019-11-06 13:58:12:186,2.5514,-0.4213,11.0761,-0.0188,-0.0218,9.8066,-0.0038,0.0613,-0.2112,-13.0,-41.25,0.25,256.57,-80.86,-164.05
18521,53.16253,-1.873737,323.04,7.5,4,330.22,21 / 21,1851493,2019-11-06 13:58:12:286,-1.5326,-1.0755,10.6241,-0.014,0.0385,9.8065,-0.1142,0.0821,-0.1194,-4.87,-38.31,23.0,3.65,-80.97,-165.05
18522,53.16253,-1.873737,323.04,7.5,4,330.22,21 / 21,1851593,2019-11-06 13:58:12:386,2.3126,1.3936,7.9584,0.0182,0.0117,9.8066,-0.173,-0.0775,0.0924,-2.62,-37.25,3.94,237.56,-80.97,-167.47
18523,53.16253,-1.873737,323.04,7.5,4,330.22,21 / 21,1851693,2019-11-06 13:58:12:486,2.6934,-0.712,9.7167,-0.052,0.0191,9.8064,-0.2942,0.5934,-0.3471,-2.81,-38.75,0.0,209.16,-81.27,-166.53
18524,53.16253,-1.873737,323.04,7.5,4,330.22,21 / 21,1851793,2019-11-06 13:58:12:586,-5.3061,1.5198,9.7379,0.0333,0.0436,9.8064,0.1091,0.3983,-0.2788,-2.12,-38.56,-1.25,198.81,-81.4,-167.53
18525,53.16253,-1.873737,323.04,7.5,4,330.22,21 / 21,1851893,2019-11-06 13:58:12:686,2.4371,-1.2149,9.3594,-0.0417,0.0241,9.8065,0.1764,0.6681,-0.384,-2.62,-38.56,-1.31,206.45,-81.55,-171.4
18526,53.16253,-1.873737,323.04,7.5,4,330.22,21 / 21,1851994,2019-11-06 13:58:12:787,-4.8889,2.7034,8.8032,0.0262,0.0001,9.8066,-0.0721,0.6794,-0.3815,-2.0,-38.56,-0.31,199.48,-81.32,-171.38
18527,53.16253,-1.873737,323.04,7.5,4,330.22,21 / 21,1852094,2019-11-06 13:58:12:887,5.0586,-0.4735,9.9866,-0.0516,-0.0456,9.8064,-0.2217,0.171,-0.0164,-1.44,-37.69,5.44,214.79,-81.29,-174.5
18528,53.16253,-1.873737,323.04,7.5,4,330.22,21 / 21,1852193,2019-11-06 13:58:12:986,-1.5601,-0.2659,10.487,0.018,0.027,9.8066,-0.2282,0.6818,-0.3297,-9.81,-40.31,25.13,337.25,-81.09,-175.58
18529,53.16253,-1.873737,323.04,7.5,4,330.22,21 / 21,1852293,2019-11-06 13:58:13:086,1.419,3.9047,10.7422,-0.0186,0.0533,9.8064,0.0891,0.4312,-0.2445,-15.06,-41.44,2.06,257.07,-81.02,-176.05
18530,53.16253,-1.873737,323.04,7.5,4,330.22,21 / 21,1852393,2019-11-06 13:58:13:186,0.3151,2.0829,11.5704,-0.038,0.0203,9.8065,0.1531,0.6228,-0.4367,-4.37,-39.75,-2.62,204.06,-81.03,-178.69
18531,53.16253,-1.873737,323.04,7.5,4,330.22,21 / 21,1852493,2019-11-06 13:58:13:286,-2.5897,2.8667,8.7432,-0.0519,0.0118,9.8065,0.1109,-0.3684,0.0157,-3.94,-39.44,-2.06,206.05,-80.71,-179.4
18532,53.16253,-1.873737,323.04,7.5,4,330.22,21 / 21,1852593,2019-11-06 13:58:13:386,-1.1217,0.0914,9.0437,-0.021,-0.054,9.8064,-0.0905,0.1544,0.0442,-3.5,-39.75,-2.56,198.46,-80.97,-178.77
18533,53.16253,-1.873737,323.04,7.5,4,330.22,21 / 21,1852693,2019-11-06 13:58:13:486,0.2254,1.2468,10.8476,-0.0236,-0.0274,9.8065,-0.1268,0.3105,-0.1479,-7.0,-39.81,-2.37,222.14,-81.17,-177.57
18534,53.16253,-1.873737,323.04,7.5,4,330.22,21 / 21,1852793,2019-11-06 13:58:13:586,1.1905,-5.9802,10.082,-0.0044,0.0431,9.8065,0.0936,0.0989,0.0189,-20.5,-43.37,16.44,297.38,-81.05,-177.44
18535,53.16253,-1.873737,323.04,7.5,4,330.22,21 / 21,1852893,2019-11-06 13:58:13:686,-0.7556,-0.0501,10.8012,-0.0055,-0.0257,9.8066,-0.0111,0.6732,-0.309,-1.69,-36.94,15.88,354.01,-81.04,-176.65
18536,53.16253,-1.873737,323.04,7.5,4,330.22,21 / 21,1852993,2019-11-06 13:58:13:786,7.0152,-2.9616,10.2908,-0.0359,0.0517,9.8064,0.1229,-0.8389,0.5015,-1.62,-37.44,1.81,206.0,-80.73,-177.19
18537,53.16253,-1.873737,323.04,7.5,4,330.22,21 / 21,1853093,2019-11-06 13:58:13:886,-0.9296,1.4326,10.4805,0.0364,0.0347,9.8065,0.0004,-0.4773,0.2958,-1.37,-38.44,-0.37,189.26,-80.65,-177.42
18538,53.16253,-1.873737,323.04,7.5,4,330.22,21 / 21,1853193,2019-11-06 13:58:13:986,1.5008,-0.8955,8.667,-0.0601,0.0018,9.8064,0.2296,0.0315,-0.0308,-2.25,-39.12,-0.75,195.67,-80.82,-179.19
18539,53.16253,-1.873737,323.04,7.5,4,330.22,21 / 21,1853293,2019-11-06 13:58:14:086,-0.8142,-1.2015,9.3574,-0.0429,-0.0039,9.8064,-0.2675,0.3362,-0.2171,-2.81,-37.75,-0.87,203.56,-80.86,-178.36
18540,53.16253,-1.873737,323.04,7.5,4,330.22,21 / 21,1853395,2019-11-06 13:58:14:188,-0.3091,0.7256,9.0905,0.0163,0.0017,9.8066,-0.0568,0.0578,0.0397,-1.5,-38.12,1.0,190.23,-80.55,-176.53
18541,53.16253,-1.873737,323.04,7.5,4,330.22,21 / 21,1853493,2019-11-06 13:58:14:286,0.5307,3.9194,8.7616,-0.0075,-0.02,9.8066,-0.03,0.3663,-0.0011,-1.81,-37.06,7.19,297.92,-80.37,-176.35
18542,53.16253,-1.873737,323.04,7.5,4,330.22,21 / 21,1853593,2019-11-06 13:58:14:386,-6.1304,-1.841,10.5485,-0.0255,0.028,9.8065,-0.0171,-0.7694,0.3399,-21.19,-43.25,19.63,306.86,-80.32,-174.74
18543,53.16253,-1.873737,323.04,7.5,4,330.22,21 / 21,1853693,2019-11-06 13:58:14:486,1.7594,-4.2415,11.2433,0.0622,-0.0337,9.8064,0.0758,-0.4687,0.198,-9.62,-40.94,-1.94,234.63,-80.25,-170.35
18544,53.16253,-1.873737,323.04,7.5,4,330.22,21 / 21,1853793,2019-11-06 13:58:14:586,5.1086,-3.4986,11.1548,0.0603,0.0198,9.8064,0.1289,-0.4984,0.159,-5.87,-40.31,-2.31,219.08,-80.19,-169.83
18545,53.16253,-1.873737,323.04,7.5,4,330.22,21 / 21,1853893,2019-11-06 13:58:14:686,5.2733,-0.8426,10.5928,0.0045,0.0704,9.8064,0.2558,-0.82,0.1185,-4.69,-39.62,-2.44,211.1,-79.77,-174.33
18546,53.16253,-1.873737,323.04,7.5,4,330.22,21 / 21,1853993,2019-11-06 13:58:14:786,-3.9229,3.2082,8.483,0.0348,0.0327,9.8065,0.1645,0.0847,-0.1969,-5.5,-40.0,-2.12,210.59,-79.72,-175.38
18547,53.16253,-1.873737,323.04,7.5,4,330.22,21 / 21,1854093,2019-11-06 13:58:14:886,4.4478,-5.8362,9.9523,-0.0202,0.0006,9.8066,-0.0577,1.0573,-0.4403,-9.75,-40.44,-1.44,233.29,-79.95,-177.22
18548,53.16253,-1.873737,323.04,7.5,4,330.22,21 / 21,1854193,2019-11-06 13:58:14:986,2.8701,6.5956,7.6588,-0.0439,-0.0274,9.8065,-0.3075,0.6324,-0.4945,-13.37,-41.25,27.0,330.39,-80.38,-177.04
18549,53.16253,-1.873737,323.04,7.5,4,330.22,21 / 21,1854293,2019-11-06 13:58:15:086,3.7003,0.1466,10.6336,0.0109,0.0358,9.8065,-0.0526,-0.1033,0.3851,-2.94,-36.81,5.88,273.38,-80.94,-178.66
18550,53.16253,-1.873737,323.04,7.5,4,330.22,21 / 21,1854393,2019-11-06 13:58:15:186,7.1795,-4.574,9.6387,-0.0763,0.0506,9.8061,-0.1158,0.7423,-0.5195,-2.19,-38.75,0.06,198.2,-81.0,-179.47
18551,53.16253,-1.873737,323.04,7.5,4,330.22,21 / 21,1854493,2019-11-06 13:58:15:286,0.9408,-0.0685,10.7925,-0.1044,0.0519,9.8059,0.259,0.6705,-0.3537,-3.19,-38.94,-1.06,202.7,-80.78,-179.31
18552,53.16253,-1.873737,323.04,7.5,4,330.22,21 / 21,1854594,2019-11-06 13:58:15:387,3.5727,-1.3262,9.9776,-0.0332,0.0259,9.8065,-0.0278,0.4037,-0.2075,-2.87,-38.69,-1.44,202.81,-80.91,-179.82
18553,53.16253,-1.873737,323.04,7.5,4,330.22,21 / 21,1854694,2019-11-06 13:58:15:487,4.2278,0.1649,10.2472,-0.0707,-0.0239,9.8063,-0.0938,-0.4008,0.0259,-2.62,-38.81,-1.25,203.29,-81.05,-179.08
18554,53.16253,-1.873737,323.04,7.5,4,330.22,21 / 21,1854793,2019-11-06 13:58:15:586,2.6231,-2.0517,10.0733,-0.0586,-0.0141,9.8064,0.0206,0.2232,-0.1484,-2.75,-37.75,-0.44,207.77,-81.64,176.86
18555,53.16253,-1.873737,323.04,7.5,4,330.22,21 / 21,1854893,2019-11-06 13:58:15:686,1.9683,0.5165,10.3634,0.0646,0.0044,9.8063,-0.0239,-0.6174,0.0097,-2.87,-37.75,19.25,337.86,-81.37,173.48
18556,53.16253,-1.873737,323.04,7.5,4,330.22,21 / 21,1854993,2019-11-06 13:58:15:786,-3.5046,-1.9379,8.7733,0.0276,0.0386,9.8065,0.2883,-0.0837,0.1381,-21.06,-42.25,8.81,268.32,-81.34,171.35
18557,53.16253,-1.873737,323.04,7.5,4,330.22,20 / 21,1855093,2019-11-06 13:58:15:886,-0.0032,-0.9178,8.8456,-0.0215,0.0303,9.8065,-0.2321,0.5765,-0.4678,-6.56,-39.62,-3.25,211.81,-81.2,169.87
18558,53.16253,-1.873737,323.04,7.5,4,330.22,20 / 21,1855193,2019-11-06 13:58:15:986,7.6732,-8.3124,8.8467,-0.0435,0.0541,9.8063,0.0104,-0.4503,0.4129,-4.37,-39.19,-3.25,197.55,-80.74,166.48
18559,53.16253,-1.873737,323.04,7.5,4,330.22,20 / 21,1855293,2019-11-06 13:58:16:086,-4.9275,1.6479,9.832,0.0422,-0.0106,9.8065,0.096,-1.1737,0.6091,-3.25,-39.19,-3.81,191.31,-81.0,168.16
18560,53.16253,-1.873737,323.04,7.5,4,330.22,20 / 21,1855394,2019-11-06 13:58:16:187,6.6607,-5.4549,10.5178,-0.1131,0.0239,9.8059,0.2461,-1.2953,0.3152,-5.44,-39.94,-3.75,198.06,-81.04,164.09
18561,53.16253,-1.873737,323.04,7.5,4,330.22,20 / 21,1855493,2019-11-06 13:58:16:286,-3.0233,6.3054,11.1485,0.0694,-0.0843,9.806,-0.0194,0.0567,0.2687,-16.81,-41.19,3.94,249.37,-80.77,166.77
18562,53.16253,-1.873737,323.04,7.5,4,330.22,20 / 21,1855593,2019-11-06 13:58:16:386,3.2197,0.9637,10.057,-0.0041,0.0096,9.8066,0.1887,-1.6473,0.7394,-6.37,-38.25,24.94,322.18,-80.61,164.59
18563,53.16253,-1.873737,323.04,7.5,4,330.22,20 / 21,1855693,2019-11-06 13:58:16:486,-4.0625,8.5901,10.579,0.0501,-0.133,9.8056,-0.1816,0.2792,0.0451,-1.87,-36.94,4.25,225.41,-80.31,164.57
18564,53.16253,-1.873737,323.04,7.5,4,330.22,20 / 21,1855793,2019-11-06 13:58:16:586,-0.4388,-0.2334,8.252,0.0721,-0.0263,9.8063,-0.0895,-0.9769,0.5504,-2.94,-38.87,-0.75,199.45,-80.71,169.25
18565,53.16253,-1.873737,323.04,7.5,4,330.22,20 / 21,1855893,2019-11-06 13:58:16:686,6.4649,-5.2625,10.1499,0.099,-0.0463,9.806,0.1306,-0.8777,0.5359,-2.0,-38.5,-2.25,191.87,-81.04,172.21
18566,53.16253,-1.873737,323.04,7.5,4,330.22,20 / 21,1855993,2019-11-06 13:58:16:786,-5.4299,-0.1651,8.9518,0.0459,-0.0098,9.8065,0.0164,-0.3907,0.1019,-2.0,-38.31,-2.25,191.76,-81.18,171.47
18567,53.16253,-1.873737,323.04,7.5,4,330.22,20 / 21,1856094,2019-11-06 13:58:16:887,-2.809,1.614,8.9879,0.0225,0.0003,9.8066,0.1304,-1.0581,0.5007,-2.25,-38.12,-1.12,194.46,-81.23,171.2
18568,53.16253,-1.873737,323.04,7.5,4,330.22,20 / 21,1856193,2019-11-06 13:58:16:986,-5.2713,4.7238,9.7427,0.0875,-0.025,9.8062,-0.0334,0.0772,-0.0154,-1.75,-37.62,2.94,217.06,-81.15,171.33
18569,53.16253,-1.873737,323.04,7.5,4,330.22,20 / 21,1856293,2019-11-06 13:58:17:086,-7.127,-2.0917,11.1814,-0.015,-0.0014,9.8066,0.1017,-0.8581,0.4877,-6.81,-39.06,23.19,324.48,-81.03,170.23
18570,53.16253,-1.873737,323.04,7.5,4,330.22,20 / 21,1856393,2019-11-06 13:58:17:186,-0.0817,0.5818,9.4434,-0.0058,-0.0787,9.8062,0.037,0.316,0.0288,-12.37,-40.37,-1.0,231.79,-80.83,170.99
18571,53.16253,-1.873737,323.04,7.5,4,330.22,20 / 21,1856493,2019-11-06 13:58:17:286,4.512,-4.3804,10.9451,-0.029,-0.0028,9.8065,0.0452,-0.3709,0.0244,-7.06,-39.12,-3.37,212.07,-80.84,170.67
18572,53.16253,-1.873737,323.04,7.5,4,330.22,20 / 21,1856593,2019-11-06 13:58:17:386,0.3234,-1.9375,8.4437,0.0231,-0.0149,9.8065,-0.0859,0.5683,-0.2529,-5.31,-39.37,-3.12,205.23,-80.98,172.53
18573,53.16253,-1.873737,323.04,7.5,4,330.22,20 / 21,1856693,2019-11-06 13:58:17:486,4.3491,-5.3291,10.5981,-0.0631,0.0306,9.8063,-0.0063,0.1251,-0.2314,-5.44,-39.44,-3.56,200.98,-81.13,169.08
18574,53.16253,-1.873737,323.04,7.5,4,330.22,20 / 21,1856794,2019-11-06 13:58:17:587,-3.3248,3.348,10.5617,0.0133,0.0371,9.8065,0.1582,0.7486,-0.3855,-6.87,-39.75,-3.75,208.44,-80.85,170.02
18575,53.16253,-1.873737,323.04,7.5,4,330.22,20 / 21,1856893,2019-11-06 13:58:17:686,-1.266,0.7989,9.7868,0.0438,0.0866,9.8061,0.1081,0.3952,-0.2487,-20.06,-42.94,10.06,268.66,-80.75,170.32
18576,53.16253,-1.873737,323.04,7.5,4,330.22,20 / 21,1856993,2019-11-06 13:58:17:786,3.9488,2.5678,10.8311,-0.0284,-0.0245,9.8065,0.0654,0.7813,-0.4131,-2.69,-36.94,9.88,304.02,-80.46,170.54
18577,53.16253,-1.873737,323.04,7.5,4,330.22,21 / 22,1857093,2019-11-06 13:58:17:886,5.1867,-5.4228,7.5774,0.0062,0.027,9.8065,-0.0877,-0.2848,0.2809,-3.31,-37.37,2.06,215.23,-80.45,171.73
18578,53.16253,-1.873737,323.04,7.5,4,330.22,21 / 22,1857193,2019-11-06 13:58:17:986,4.0457,1.8744,11.7831,0.0018,-0.1013,9.806,-0.2557,0.5386,-0.1847,-3.31,-38.19,-1.62,198.33,-81.01,173.04
18579,53.16253,-1.873737,323.04,7.5,4,330.22,21 / 22,1857295,2019-11-06 13:58:18:088,0.7823,-5.1143,10.9317,-0.0301,-0.0603,9.8063,0.0962,-0.4558,0.1403,-3.69,-38.56,-2.31,203.75,-81.3,172.25
18580,53.16253,-1.873737,323.04,7.5,4,330.22,21 / 22,1857395,2019-11-06 13:58:18:188,2.0382,-0.7268,9.4915,-0.0543,-0.0102,9.8064,-0.0452,-0.0939,0.1657,-3.44,-38.25,-2.56,195.47,-81.55,170.88
18581,53.16253,-1.873737,323.04,7.5,4,330.22,21 / 22,1857494,2019-11-06 13:58:18:287,-4.9605,0.7771,10.0164,-0.0144,-0.0062,9.8066,-0.1362,0.7583,-0.3227,-2.69,-37.87,-0.81,201.86,-81.7,170.38
18582,53.16253,-1.873737,323.04,7.5,4,330.22,21 / 22,1857594,2019-11-06 13:58:18:387,-0.9979,-8.8395,11.4748,-0.0614,0.0277,9.8063,0.0977,-0.6049,0.4686,-3.5,-36.94,5.31,254.45,-81.58,169.93
18583,53.16253,-1.873737,323.04,7.5,4,330.22,21 / 22,1857693,2019-11-06 13:58:18:486,-3.2006,-2.2687,11.8225,0.0014,-0.0672,9.8064,0.0879,0.6472,-0.4457,-21.12,-42.87,19.44,293.0,-81.11,173.72
18584,53.16253,-1.873737,323.04,7.5,4,330.22,21 / 22,1857793,2019-11-06 13:58:18:586,4.5207,-8.1713,11.1494,-0.0043,0.0882,9.8062,0.1718,-0.7601,0.3232,-10.56,-40.12,-2.5,227.42,-80.75,172.59
18585,53.16253,-1.873737,323.04,7.5,4,330.22,21 / 22,1857893,2019-11-06 13:58:18:686,-0.6421,-0.902,9.1778,0.0586,0.0019,9.8064,0.018,0.1641,-0.0601,-6.25,-39.75,-2.56,208.86,-80.55,173.39
18586,53.16253,-1.873737,323.04,7.5,4,330.22,21 / 22,1857993,2019-11-06 13:58:18:786,-5.4495,2.9394,8.5219,-0.0333,-0.0251,9.8065,0.1,-0.881,0.4965,-5.5,-39.56,-2.75,204.59,-80.58,173.18
18587,53.16253,-1.873737,323.04,7.5,4,330.22,21 / 21,1858093,2019-11-06 13:58:18:886,-4.0417,2.6386,8.6503,0.0348,-0.0524,9.8064,-0.1687,-0.1731,0.0957,-6.12,-39.69,-3.37,209.64,-80.79,174.14
18588,53.16253,-1.873737,323.04,7.5,4,330.22,21 / 21,1858193,2019-11-06 13:58:18:986,-3.4711,-0.1714,9.5476,0.0092,-0.0197,9.8066,0.17,-0.8634,0.5403,-9.44,-40.56,-2.75,219.12,-80.91,172.84
18589,53.16253,-1.873737,323.04,7.5,4,330.22,21 / 21,1858294,2019-11-06 13:58:19:087,3.0353,4.6262,9.6028,0.0234,-0.0781,9.8063,0.0525,-0.0121,0.0047,-14.75,-40.37,25.19,313.64,-80.51,174.49
18590,53.16253,-1.873737,323.04,7.5,4,330.22,21 / 21,1858393,2019-11-06 13:58:19:186,-1.1772,-2.2481,10.7611,0.0066,-0.0319,9.8066,0.1707,-0.8353,0.3705,-3.31,-37.44,6.63,274.03,-80.27,173.51
18591,53.16253,-1.873737,323.04,7.5,4,330.22,21 / 21,1858493,2019-11-06 13:58:19:286,3.4637,-5.2608,9.8443,0.0513,-0.0286,9.8064,0.0718,-0.6739,0.3421,-3.56,-38.31,0.88,213.98,-80.09,172.52
18592,53.16253,-1.873737,323.04,7.5,4,330.22,21 / 21,1858594,2019-11-06 13:58:19:387,1.0194,-3.9422,10.8937,0.0265,-0.0285,9.8066,0.0731,-0.2805,0.1153,-3.37,-38.37,-1.31,200.24,-80.2,173.52
18593,53.16253,-1.873737,323.04,7.5,4,330.22,21 / 21,1858693,2019-11-06 13:58:19:486,3.0659,-2.8535,10.5663,0.0545,0.0187,9.8064,0.0171,0.5389,-0.2528,-4.19,-39.0,-2.19,202.33,-79.9,174.18
18594,53.16253,-1.873737,323.04,7.5,4,330.22,21 / 21,1858793,2019-11-06 13:58:19:586,-3.1583,0.9221,9.6418,0.0891,0.0202,9.8062,0.0567,0.0879,0.1192,-3.75,-39.37,-1.5,205.1,-79.42,176.39
18595,53.16253,-1.873737,323.04,7.5,4,330.22,21 / 21,1858893,2019-11-06 13:58:19:686,0.7698,-1.5187,10.3629,0.0434,0.0246,9.8064,-0.0554,0.4286,-0.2597,-3.5,-38.31,3.19,215.34,-79.05,177.77
18596,53.16253,-1.873737,323.04,7.5,4,330.22,21 / 21,1858993,2019-11-06 13:58:19:786,2.1708,0.7974,9.1218,0.011,-0.0479,9.8064,-0.0138,-0.0035,0.0213,-3.25,-37.37,16.13,338.76,-78.92,178.86
18597,53.16253,-1.873737,323.04,7.5,4,330.22,20 / 22,1859093,2019-11-06 13:58:19:886,-4.3629,-5.8451,9.093,-0.0423,0.0155,9.8065,-0.0978,-0.7216,0.2612,-23.56,-43.81,16.63,286.37,-78.93,177.63
18598,53.16253,-1.873737,323.04,7.5,4,330.22,20 / 22,1859193,2019-11-06 13:58:19:986,-2.1537,-0.5591,9.3279,0.0029,-0.0204,9.8066,-0.0254,0.074,-0.0894,-6.94,-40.37,-1.87,214.79,-79.41,175.7
18599,53.16253,-1.873737,323.04,7.5,4,330.22,20 / 22,1859293,2019-11-06 13:58:20:086,2.3239,-4.0553,9.1864,-0.0202,0.0253,9.8066,-0.0599,0.689,-0.2775,-5.37,-40.06,-2.0,204.62,-79.41,170.82
18600,53.16253,-1.873737,323.04,7.5,4,330.22,20 / 22,1859393,2019-11-06 13:58:20:186,-1.9595,0.8313,9.4795,0.0432,-0.0074,9.8065,-0.0885,0.2225,-0.2023,-4.75,-39.69,-2.0,204.86,-79.39,171.48
18601,53.16253,-1.873737,323.04,7.5,4,330.22,20 / 22,1859493,2019-11-06 13:58:20:286,1.4248,-1.4045,8.7788,0.0085,-0.0191,9.8066,0.0222,-0.0443,0.1552,-6.81,-40.06,-2.62,210.28,-79.62,171.71
18602,53.16253,-1.873737,323.04,7.5,4,330.22,20 / 22,1859593,2019-11-06 13:58:20:386,-0.0598,-1.6286,11.3497,-0.0138,-0.0156,9.8066,0.0321,0.0678,-0.1038,-15.94,-42.06,1.0,242.12,-79.85,172.57
18603,53.16253,-1.873737,323.04,7.5,4,330.22,20 / 22,1859693,2019-11-06 13:58:20:486,0.5235,0.9689,9.801,-0.0346,0.0233,9.8065,0.0284,-0.4857,0.0865,-12.19,-40.62,27.0,322.03,-79.8,175.19
18604,53.16253,-1.873737,323.04,7.5,4,330.22,20 / 22,1859793,2019-11-06 13:58:20:586,2.0433,-2.5929,10.0761,0.0141,0.0209,9.8065,-0.0069,-0.2662,0.2516,-2.56,-38.69,3.88,226.3,-79.87,174.49
18605,53.16253,-1.873737,323.04,7.5,4,330.22,20 / 22,1859893,2019-11-06 13:58:20:686,-3.6677,2.0643,11.0711,0.0162,0.0118,9.8066,0.0859,-0.6998,0.173,-3.37,-38.81,0.94,205.58,-79.45,174.67
18606,53.16253,-1.873737,323.04,7.5,4,330.22,20 / 22,1859996,2019-11-06 13:58:20:789,4.5519,-1.0516,9.8793,-0.0282,0.0209,9.8065,0.0667,-0.7944,0.4516,-3.81,-39.19,0.5,210.91,-79.16,173.12
18607,53.163372,-1.874401,329.12,11.37,4,336.0,21 / 21,1860093,2019-11-06 13:58:20:886,-1.906,-0.1787,7.8179,0.0454,-0.0698,9.8062,-0.1167,1.1673,-0.569,-3.25,-39.0,-0.5,201.85,-79.53,173.35
18608,53.163372,-1.874401,329.12,11.37,4,336.0,21 / 21,1860193,2019-11-06 13:58:20:986,-2.1427,0.817,7.938,-0.0173,-0.0486,9.8065,0.0001,0.4189,-0.0625,-3.81,-38.06,0.38,209.16,-79.96,172.87
18609,53.163372,-1.874401,329.12,11.37,4,336.0,21 / 21,1860293,2019-11-06 13:58:21:086,-4.5698,5.3506,8.0154,0.0919,-0.0876,9.8057,-0.2155,0.9675,-0.5918,-2.94,-37.75,4.13,231.1,-80.41,171.04
18610,53.163372,-1.874401,329.12,11.37,4,336.0,21 / 21,1860393,2019-11-06 13:58:21:186,-0.6311,-0.2869,9.9682,-0.0053,-0.0353,9.8065,0.0478,0.7946,-0.2771,-14.87,-40.81,26.5,315.91,-80.21,174.49
18611,53.163372,-1.874401,329.12,11.37,4,336.0,21 / 21,1860493,2019-11-06 13:58:21:286,-2.2511,-7.5914,11.8918,0.0325,-0.0698,9.8063,-0.1198,0.6073,-0.4795,-14.62,-40.81,0.5,243.96,-79.82,175.8
18612,53.163372,-1.874401,329.12,11.37,4,336.0,21 / 21,1860593,2019-11-06 13:58:21:386,-2.9787,2.4315,10.6903,0.0221,0.0087,9.8065,-0.0675,0.7365,-0.2721,-6.69,-40.37,-2.44,214.21,-79.84,172.94
18613,53.163372,-1.874401,329.12,11.37,4,336.0,21 / 21,1860693,2019-11-06 13:58:21:486,6.0017,-4.1326,12.4972,-0.0057,0.0071,9.8066,0.2117,-0.0811,0.0152,-4.81,-39.37,-1.75,205.67,-79.66,171.49
18614,53.163372,-1.874401,329.12,11.37,4,336.0,21 / 21,1860793,2019-11-06 13:58:21:586,-2.8454,3.4831,8.6198,0.0412,0.025,9.8065,-0.1913,0.5818,-0.2728,-5.62,-39.44,-2.44,208.74,-79.37,170.08
18615,53.163372,-1.874401,329.12,11.37,4,336.0,21 / 21,1860894,2019-11-06 13:58:21:687,-0.3718,4.8108,8.1092,-0.0516,-0.0244,9.8064,0.092,-0.8417,0.4293,-7.31,-39.87,-1.62,211.78,-79.47,169.38
18616,53.163372,-1.874401,329.12,11.37,4,336.0,21 / 21,1860993,2019-11-06 13:58:21:786,-2.3657,4.4919,8.1442,-0.0297,-0.0398,9.8065,0.0215,-0.506,0.2423,-20.69,-43.12,19.63,287.74,-80.18,168.51
18617,53.163372,-1.874401,329.12,11.37,4,336.0,21 / 22,1861093,2019-11-06 13:58:21:886,-2.1086,3.692,7.2393,0.0184,0.0422,9.8065,0.0808,-0.5604,0.5523,-3.94,-37.37,11.88,309.08,-80.82,169.29
18618,53.163372,-1.874401,329.12,11.37,4,336.0,21 / 22,1861193,2019-11-06 13:58:21:986,-1.4509,0.3581,10.3823,-0.0013,-0.0309,9.8065,-0.0203,-0.4473,0.2824,-3.37,-37.75,2.13,215.42,-80.74,172.29
18619,53.163372,-1.874401,329.12,11.37,4,336.0,21 / 22,1861293,2019-11-06 13:58:22:086,3.6429,-1.0697,9.4952,-0.0428,0.016,9.8065,0.0603,-0.8867,0.4524,-4.44,-38.62,-1.19,205.27,-80.55,170.68
18620,53.163372,-1.874401,329.12,11.37,4,336.0,21 / 22,1861394,2019-11-06 13:58:22:187,4.7861,-1.3824,9.8422,-0.0112,0.0007,9.8066,0.0702,0.23,-0.1108,-4.62,-38.25,-1.87,208.08,-80.51,172.87
18621,53.163372,-1.874401,329.12,11.37,4,336.0,21 / 22,1861493,2019-11-06 13:58:22:286,-8.3251,2.3583,7.9781,-0.0965,-0.0295,9.8061,0.0696,-0.8711,0.245,-3.25,-38.44,-1.81,197.71,-80.51,173.14
18622,53.163372,-1.874401,329.12,11.37,4,336.0,21 / 22,1861593,2019-11-06 13:58:22:386,-0.9681,-2.1201,10.4065,-0.1019,0.0321,9.806,-0.1028,-1.0498,0.6771,-2.87,-38.19,0.69,209.39,-80.9,170.01
18623,53.163372,-1.874401,329.12,11.37,4,336.0,21 / 22,1861693,2019-11-06 13:58:22:486,-5.058,6.6324,7.3139,-0.0307,0.0933,9.8061,-0.2302,-0.382,0.305,-3.0,-36.37,7.19,279.38,-81.09,169.69
18624,53.163372,-1.874401,329.12,11.37,4,336.0,21 / 22,1861793,2019-11-06 13:58:22:586,1.2636,-1.0373,9.0674,-0.0009,0.0467,9.8065,0.0253,-0.2396,0.1637,-18.81,-42.31,23.13,301.17,-81.22,171.72
18625,53.163372,-1.874401,329.12,11.37,4,336.0,21 / 22,1861893,2019-11-06 13:58:22:686,0.4772,-1.4257,9.4507,0.0071,-0.0165,9.8066,-0.1059,0.1,-0.035,-9.31,-40.0,-3.25,221.39,-81.38,174.34
18626,53.163372,-1.874401,329.12,11.37,4,336.0,21 / 22,1861993,2019-11-06 13:58:22:786,-2.0232,0.3913,8.5666,-0.008,-0.0288,9.8065,-0.1251,0.1831,-0.2294,-6.5,-38.94,-4.25,208.61,-81.75,173.91
18627,53.163372,-1.874401,329.12,11.37,4,336.0,22 / 22,1862093,2019-11-06 13:58:22:886,-0.1038,0.1875,10.6143,-0.0234,0.0175,9.8066,-0.0761,-0.286,0.1263,-5.94,-38.87,-4.12,207.33,-82.11,170.76
18628,53.163372,-1.874401,329.12,11.37,4,336.0,22 / 22,1862193,2019-11-06 13:58:22:986,-6.8315,3.0864,10.6676,-0.0014,0.0091,9.8066,0.3492,0.2497,-0.1475,-6.75,-38.81,-4.06,209.89,-82.02,169.01
