,GPS LATITUDE (degrees), GPS LONGITUDE (degrees), GPS ALTITUDE (m), GPS SPEED (Kmh), GPS ACCURACY (m), GPS ORIENTATION (Â°),GPS SATELLITES IN RANGE, TIME SINCE START (ms), DATE (YYYY-MO-DD HH-MI-SS_SSS), ACCELEROMETER X (m/s²) , ACCELEROMETER Y (m/s²), ACCELEROMETER Z (m/s²), GRAVITY X (m/s²), GRAVITY Y (m/s²), GRAVITY Z (m/s²), GYROSCOPE Yaw (rad/s), GYROSCOPE Pitch (rad/s), GYROSCOPE Roll (rad/s), MAGNETIC FIELD X (Î¼T), MAGNETIC FIELD Y (Î¼T), MAGNETIC FIELD Z (Î¼T), ORIENTATION (Yaw) (Â°), ORIENTATION (Pitch) (Â°), ORIENTATION (Roll ) (Â°)
19565,51.997025,-2.123071,73,0.0,9.0,97.2,15 / 24,1956540,2019-08-31 10:22:56:619,0.1553,0.1317,9.2209,0.0025,0.0059,9.8066,-0.0054,-0.0144,-0.0144,0.97,-19.92,44.06,89.84,-1.2,4.51
19566,51.997025,-2.123071,73,0.0,9.0,97.2,15 / 24,1956641,2019-08-31 10:22:56:720,0.4242,0.2648,9.5721,-0.0013,-0.0013,9.8066,0.0053,0.0314,-0.0037,0.97,-19.55,43.62,89.84,-1.2,4.51
19567,51.997025,-2.123071,73,0.0,9.0,97.2,15 / 24,1956741,2019-08-31 10:22:56:820,0.1833,0.0224,9.5618,0.0007,-0.0001,9.8067,-0.0064,0.0314,0.0016,0.97,-19.55,43.62,89.84,-1.2,4.51
19568,51.997025,-2.123071,73,0.0,9.0,97.2,15 / 24,1956841,2019-08-31 10:22:56:920,-0.1715,-0.3236,10.1544,-0.0006,0.0046,9.8067,0.0245,0.0219,-0.009,1.34,-19.55,43.68,89.84,-1.2,4.51
19569,51.997025,-2.123071,73,0.0,9.0,97.2,15 / 24,1956942,2019-08-31 10:22:57:021,0.1431,0.086,9.1993,-0.0005,-0.0021,9.8067,-0.0022,-0.0048,-0.0058,1.65,-19.92,43.62,86.33,-1.19,4.51
19570,51.997025,-2.123071,73,0.0,9.0,97.2,15 / 24,1957041,2019-08-31 10:22:57:120,0.2176,0.1754,9.1973,0.0034,0.0095,9.8066,-0.0011,-0.0026,0.0048,1.65,-19.92,43.62,86.33,-1.19,4.51
19571,51.997025,-2.123071,73,0.0,9.0,97.2,15 / 24,1957141,2019-08-31 10:22:57:220,-0.3042,-0.4086,10.4663,0.0015,0.0046,9.8066,0.0245,0.0517,-0.0058,1.65,-19.55,43.68,86.41,-1.22,4.52
19572,51.997025,-2.123071,73,0.0,9.0,97.2,15 / 24,1957241,2019-08-31 10:22:57:320,-0.0876,-0.0332,9.8279,0.001,0.001,9.8067,-0.0054,-0.0026,0.0059,1.65,-20.3,44.06,86.42,-1.22,4.52
19573,51.997025,-2.123071,73,0.0,9.0,97.2,15 / 24,1957341,2019-08-31 10:22:57:420,-0.1267,-0.099,9.3622,-0.0016,-0.0036,9.8066,0.0,-0.0208,-0.0154,1.65,-20.3,44.06,86.42,-1.22,4.52
19574,51.997025,-2.123071,73,0.0,9.0,97.2,15 / 24,1957441,2019-08-31 10:22:57:520,-0.1761,-0.1698,10.2497,-0.0026,-0.0005,9.8067,0.0,-0.0208,-0.0154,0.97,-20.3,43.62,89.83,-1.2,4.52
19575,51.997025,-2.123071,73,0.0,9.0,97.2,15 / 24,1957541,2019-08-31 10:22:57:620,0.1251,0.3609,9.5186,-0.0012,0.0184,9.8066,0.0266,0.0623,-0.0026,1.34,-19.92,43.62,89.83,-1.2,4.5
19576,51.997025,-2.123071,73,0.0,9.0,97.2,15 / 24,1957641,2019-08-31 10:22:57:720,0.0053,0.15,9.3685,0.0012,0.0291,9.8066,-0.0181,-0.058,0.0037,1.65,-19.92,42.37,89.83,-1.2,4.5
19577,51.997025,-2.123071,73,0.0,9.0,97.2,15 / 24,1957740,2019-08-31 10:22:57:819,-0.0831,0.0492,10.0396,-0.0018,0.0186,9.8066,0.0159,0.0815,-0.0048,0.97,-19.55,42.37,90.13,-1.37,4.51
19578,51.997025,-2.123071,73,0.0,9.0,97.2,15 / 24,1957841,2019-08-31 10:22:57:920,0.3862,0.8971,8.7668,-0.0041,0.0343,9.8066,0.0223,0.0549,-0.0122,0.97,-19.55,42.37,90.13,-1.37,4.51
19579,51.997025,-2.123071,73,0.0,9.0,97.2,15 / 24,1957941,2019-08-31 10:22:58:020,0.5514,1.1078,8.8206,0.0019,0.0323,9.8066,-0.0086,-0.0016,0.0059,1.65,-19.92,42.81,87.3,-1.57,4.48
19580,51.997025,-2.123071,73,0.0,9.0,97.2,15 / 24,1958041,2019-08-31 10:22:58:120,-0.4632,-0.3245,11.0682,-0.0053,0.0444,9.8065,-0.0224,-0.0985,0.0197,1.65,-19.92,42.81,87.99,-1.83,4.44
19581,51.997025,-2.123071,73,0.0,9.0,97.2,15 / 24,1958141,2019-08-31 10:22:58:220,0.024,0.2423,9.1191,0.0029,0.0341,9.8066,0.0298,0.0922,-0.0112,1.65,-19.92,42.81,87.99,-1.83,4.44
19582,51.997025,-2.123071,73,0.0,9.0,97.2,15 / 24,1958241,2019-08-31 10:22:58:320,0.1791,0.1392,9.5779,-0.0057,0.0015,9.8066,0.0298,0.0922,-0.0112,1.65,-19.55,43.62,88.64,-2.03,4.45
19583,51.997025,-2.123071,73,0.0,9.0,97.2,15 / 24,1958341,2019-08-31 10:22:58:420,-0.029,0.6085,9.435,-0.0046,0.031,9.8066,0.0159,0.0485,-0.0037,1.34,-19.55,44.12,92.54,-2.19,4.43
19584,51.997025,-2.123071,73,0.0,9.0,97.2,15 / 24,1958441,2019-08-31 10:22:58:520,-0.178,0.3523,10.1828,-0.0096,0.0778,9.8063,-0.0032,-0.0229,0.008,1.34,-19.55,44.12,92.54,-2.19,4.43
19585,51.997025,-2.123071,73,0.0,9.0,97.2,15 / 24,1958540,2019-08-31 10:22:58:619,-0.0389,0.652,9.6774,-0.0008,0.0632,9.8064,0.0042,-0.0112,-0.0048,1.65,-19.55,44.12,90.33,-2.64,4.4
19586,51.997025,-2.123071,73,0.0,9.0,97.2,15 / 24,1958641,2019-08-31 10:22:58:720,-0.0418,0.9639,9.7755,-0.0006,0.1372,9.8057,0.0106,0.008,-0.0112,2.03,-19.55,44.12,90.33,-2.64,4.4
19587,51.997025,-2.123071,73,0.0,9.0,97.2,15 / 24,1958741,2019-08-31 10:22:58:820,-0.1299,0.9764,10.1292,-0.0084,0.0774,9.8063,0.0053,0.0208,0.0006,2.03,-19.92,44.5,92.53,-3.44,4.4
19588,51.997025,-2.123071,73,0.0,9.0,97.2,15 / 24,1958842,2019-08-31 10:22:58:921,-0.0511,1.0714,8.8965,-0.0137,0.1634,9.8053,0.001,0.0144,-0.0058,2.4,-19.55,44.12,95.13,-4.4,4.36
19589,51.997025,-2.123071,73,0.0,9.0,97.2,15 / 24,1958941,2019-08-31 10:22:59:020,0.0239,1.1463,10.1621,-0.0061,0.0773,9.8063,0.001,0.0144,-0.0058,2.4,-19.55,44.12,95.13,-4.4,4.36
19590,51.997025,-2.123071,73,0.0,9.0,97.2,15 / 24,1959045,2019-08-31 10:22:59:124,0.0097,0.7058,9.1685,-0.019,0.152,9.8055,-0.0192,0.0048,-0.0165,2.4,-19.92,43.25,97.19,-5.3,4.33
19591,51.997025,-2.123071,73,0.0,9.0,97.2,15 / 24,1959141,2019-08-31 10:22:59:220,-0.1644,0.8644,10.4975,-0.0143,0.0807,9.8063,0.0053,-0.0016,0.0069,2.4,-20.24,42.43,97.19,-5.3,4.33
19592,51.997025,-2.123071,73,0.0,9.0,97.2,15 / 24,1959241,2019-08-31 10:22:59:320,-0.1356,0.9188,9.6861,-0.0254,0.1491,9.8055,0.0053,-0.0165,0.0016,2.78,-20.61,42.0,95.44,-6.18,4.29
19593,51.997025,-2.123071,73,0.0,9.0,97.2,15 / 24,1959342,2019-08-31 10:22:59:421,0.0995,0.8087,8.8743,-0.0153,0.0568,9.8065,0.0117,-0.0197,-0.0016,2.78,-20.61,42.0,95.44,-6.18,4.29
19594,51.997025,-2.123071,73,0.0,9.0,97.2,15 / 24,1959442,2019-08-31 10:22:59:521,-0.1113,0.6537,9.1891,-0.0243,0.1788,9.805,0.0149,0.0006,-0.009,2.78,-20.61,42.0,95.44,-6.18,4.29
19595,51.997025,-2.123071,73,0.0,9.0,97.2,15 / 24,1959541,2019-08-31 10:22:59:620,-0.1061,0.7151,9.6843,-0.005,0.0417,9.8066,-0.0086,0.0336,-0.0122,2.78,-20.99,41.18,97.53,-7.23,4.25
19596,51.997025,-2.123071,73,0.0,9.0,97.2,15 / 24,1959641,2019-08-31 10:22:59:720,-0.1328,0.4026,9.7457,-0.0114,0.062,9.8064,0.0,-0.0314,-0.0058,3.15,-21.36,40.75,98.1,-7.48,4.25
19597,51.997025,-2.123071,73,0.0,9.0,97.2,15 / 24,1959742,2019-08-31 10:22:59:821,0.0849,1.1429,9.3426,-0.0222,0.1342,9.8057,-0.0096,0.008,-0.0016,3.15,-21.36,40.75,98.1,-7.48,4.25
19598,51.997025,-2.123071,73,0.0,9.0,97.2,15 / 24,1959841,2019-08-31 10:22:59:920,-0.2908,0.6074,9.4293,-0.0192,0.0609,9.8064,-0.0096,0.008,-0.0016,2.78,-22.11,40.75,99.45,-8.27,4.23
19599,51.997025,-2.123071,73,0.0,9.0,97.2,15 / 24,1959941,2019-08-31 10:23:00:020,-0.467,0.3509,10.2608,-0.0324,0.1279,9.8058,0.0032,0.0038,-0.0144,2.78,-22.11,41.18,99.45,-8.27,4.23
19600,51.997025,-2.123071,74,1.49,9.0,97.7,15 / 24,1960041,2019-08-31 10:23:00:120,0.1479,1.1913,9.5934,-0.0358,0.2067,9.8044,-0.0022,0.0091,-0.0197,3.15,-22.49,39.93,101.58,-9.5,4.23
19601,51.997025,-2.123049,74,1.49,9.0,97.7,15 / 24,1960141,2019-08-31 10:23:00:220,-0.224,0.3823,10.2443,-0.0132,0.0685,9.8064,0.0042,0.0229,-0.0208,3.15,-22.49,39.93,101.58,-9.5,4.23
19602,51.997025,-2.123049,74,1.49,9.0,97.7,15 / 24,1960241,2019-08-31 10:23:00:320,-0.1926,0.5765,9.6998,-0.0207,0.0471,9.8065,-0.0118,-0.0069,0.0133,3.9,-22.8,39.5,98.62,-9.9,4.23
19603,51.997025,-2.123049,74,1.49,9.0,97.7,15 / 24,1960341,2019-08-31 10:23:00:420,-0.0934,0.389,9.533,-0.0343,0.0989,9.8061,-0.0064,0.0176,-0.0176,3.9,-23.92,39.06,98.62,-9.9,4.23
19604,51.997025,-2.123049,74,1.49,9.0,97.7,15 / 24,1960441,2019-08-31 10:23:00:520,-0.0505,0.2623,9.5087,-0.0083,0.0343,9.8066,0.0159,0.0219,-0.0218,4.28,-24.3,39.06,99.33,-10.51,4.12
19605,51.997025,-2.123049,74,1.49,9.0,97.7,15 / 24,1960541,2019-08-31 10:23:00:620,0.0173,-0.0025,9.9945,-0.0126,0.0727,9.8064,-0.0043,0.0027,0.0016,4.97,-24.67,38.68,99.33,-10.51,4.12
19606,51.997025,-2.123049,74,1.49,9.0,97.7,15 / 24,1960641,2019-08-31 10:23:00:720,0.1649,0.0892,9.4482,-0.0107,0.112,9.806,0.001,-0.0186,-0.0154,5.34,-25.05,37.43,96.64,-11.16,4.16
19607,51.997025,-2.123049,74,1.49,9.0,97.7,15 / 24,1960741,2019-08-31 10:23:00:820,0.0868,-0.4572,9.4251,-0.0033,-0.012,9.8066,0.001,-0.0186,-0.0154,5.72,-25.74,37.0,94.1,-11.22,4.19
19608,51.997025,-2.123049,74,1.49,9.0,97.7,15 / 24,1960841,2019-08-31 10:23:00:920,-0.1631,-0.5995,9.8934,-0.0126,-0.0444,9.8065,-0.0054,0.0069,-0.0165,5.72,-25.74,37.0,94.1,-11.22,4.19
19609,51.997025,-2.123049,74,1.49,9.0,97.7,15 / 24,1960942,2019-08-31 10:23:01:021,-0.2407,-0.4785,9.6743,-0.0175,-0.019,9.8066,-0.0043,-0.0112,-0.0357,7.59,-25.05,34.87,87.78,-10.97,4.09
19610,51.99702,-2.123009,75,2.54,9.0,98.5,15 / 24,1961041,2019-08-31 10:23:01:120,-0.1589,-0.0559,9.422,-0.0229,-0.0207,9.8066,-0.0256,-0.0548,-0.024,7.97,-25.05,32.37,86.18,-10.86,3.99
19611,51.99702,-2.123009,75,2.54,9.0,98.5,15 / 24,1961143,2019-08-31 10:23:01:222,-0.1,-0.3902,9.3506,-0.0429,-0.0108,9.8066,0.0213,0.0304,-0.0303,6.47,-24.3,29.43,89.5,-10.78,3.74
19612,51.99702,-2.123009,75,2.54,9.0,98.5,15 / 24,1961241,2019-08-31 10:23:01:320,0.132,-0.0502,9.4479,-0.0022,-0.0036,9.8066,0.0085,-0.0133,-0.0474,6.47,-24.3,29.43,89.5,-10.78,3.74
19613,51.99702,-2.123009,75,2.54,9.0,98.5,15 / 24,1961341,2019-08-31 10:23:01:420,-0.3138,-0.3397,10.0547,-0.0021,0.0064,9.8066,-0.0064,0.0325,-0.0389,3.9,-24.3,26.5,93.17,-10.81,3.73
19614,51.99702,-2.123009,75,2.54,9.0,98.5,15 / 24,1961441,2019-08-31 10:23:01:520,-0.1722,0.2592,9.2176,-0.009,0.0259,9.8066,-0.0054,0.024,-0.0559,0.59,-26.49,28.62,93.17,-10.81,3.73
19615,51.99702,-2.123009,75,2.54,9.0,98.5,15 / 24,1961541,2019-08-31 10:23:01:620,-0.2727,-0.0853,10.1717,-0.0331,0.0399,9.8065,-0.0054,0.024,-0.0559,-0.53,-29.42,31.12,105.03,-11.06,3.55
19616,51.99702,-2.123009,75,2.54,9.0,98.5,15 / 24,1961641,2019-08-31 10:23:01:720,0.1643,-0.0868,9.9222,-0.0541,-0.0076,9.8065,-0.0075,0.0336,-0.0644,0.22,-30.92,34.06,105.03,-11.06,3.55
19617,51.99702,-2.123009,75,2.54,9.0,98.5,15 / 24,1961741,2019-08-31 10:23:01:820,-0.6077,-0.5406,9.3033,-0.0888,-0.0031,9.8062,-0.0341,-0.0101,-0.0463,0.22,-30.92,34.06,105.03,-11.06,3.55
19618,51.99702,-2.123009,75,2.54,9.0,98.5,15 / 24,1961840,2019-08-31 10:23:01:919,-0.2622,-0.2238,9.8917,-0.0424,-0.0078,9.8066,-0.0192,-0.0058,-0.0623,2.4,-32.36,33.68,99.31,-11.17,3.03
19619,51.99702,-2.123009,75,2.54,9.0,98.5,15 / 24,1961941,2019-08-31 10:23:02:020,-0.3476,-0.3907,10.032,-0.0685,-0.0123,9.8064,-0.0288,-0.0346,-0.0559,3.53,-33.49,32.81,99.31,-11.17,3.03
19620,51.99702,-2.123009,75,4.58,9.0,101.5,15 / 24,1962041,2019-08-31 10:23:02:120,-0.4835,-0.2325,9.3579,-0.0796,-0.0192,9.8063,0.0117,0.0314,-0.0985,3.9,-35.67,32.37,94.24,-11.14,2.54
19621,51.997017,-2.122948,75,4.58,9.0,101.5,15 / 24,1962141,2019-08-31 10:23:02:220,-0.2049,-0.3806,9.8134,-0.0211,0.0067,9.8066,-0.0277,0.0368,-0.0666,3.9,-36.05,31.93,94.24,-11.14,2.54
19622,51.997017,-2.122948,75,4.58,9.0,101.5,15 / 24,1962241,2019-08-31 10:23:02:320,-0.2865,-0.7935,9.8972,-0.0402,0.0069,9.8066,-0.0426,0.0208,-0.0623,5.34,-36.05,32.0,92.62,-11.19,2.31
19623,51.997017,-2.122948,75,4.58,9.0,101.5,15 / 24,1962341,2019-08-31 10:23:02:420,-0.4605,-0.3477,9.6185,-0.025,0.0089,9.8066,-0.0426,0.0208,-0.0623,5.34,-36.05,32.0,92.62,-11.19,2.31
19624,51.997017,-2.122948,75,4.58,9.0,101.5,15 / 24,1962441,2019-08-31 10:23:02:520,-0.5509,-0.4289,9.5133,-0.0723,-0.0097,9.8064,-0.048,0.0027,-0.073,12.34,-34.55,30.31,80.4,-11.16,1.88
19625,51.997017,-2.122948,75,4.58,9.0,101.5,15 / 24,1962541,2019-08-31 10:23:02:620,-0.7826,-0.378,9.9874,-0.0413,0.0031,9.8066,-0.0256,0.0016,-0.1113,19.34,-31.99,20.62,65.31,-11.09,1.63
19626,51.997017,-2.122948,75,4.58,9.0,101.5,15 / 24,1962641,2019-08-31 10:23:02:720,-0.4967,-0.7216,10.3706,-0.0445,-0.0189,9.8065,-0.0352,0.0048,-0.0815,16.44,-24.94,2.75,58.93,-11.0,1.4
19627,51.997017,-2.122948,75,4.58,9.0,101.5,15 / 24,1962743,2019-08-31 10:23:02:822,0.146,-0.26,9.9185,-0.0906,-0.0385,9.8062,-0.0213,0.0123,-0.0911,16.44,-24.94,2.75,58.93,-11.0,1.4
19628,51.997017,-2.122948,75,4.58,9.0,101.5,15 / 24,1962841,2019-08-31 10:23:02:920,-0.4973,0.3914,8.7295,-0.0516,0.0039,9.8065,-0.0363,0.041,-0.1049,9.47,-28.04,-4.87,71.01,-10.54,1.06
19629,51.997017,-2.122948,75,4.58,9.0,101.5,15 / 24,1962941,2019-08-31 10:23:03:020,-0.3845,0.1023,9.5575,-0.0891,0.0355,9.8062,-0.0096,0.0272,-0.1113,3.27,-28.77,-7.86,71.01,-10.54,1.06
19630,51.997017,-2.122948,75,4.58,9.0,101.5,15 / 24,1963041,2019-08-31 10:23:03:120,-1.4488,-0.5579,9.6543,-0.0283,-0.0199,9.8066,-0.0096,0.0272,-0.1113,-2.54,-28.49,-9.06,92.74,-10.56,0.49
19631,51.997,-2.122866,75,5.72,9.0,107.3,15 / 24,1963141,2019-08-31 10:23:03:220,-0.4977,-0.7862,9.0747,-0.0707,-0.0772,9.8061,0.0053,0.0219,-0.1241,-8.87,-27.46,-8.19,105.43,-10.13,0.05
19632,51.997,-2.122866,75,5.72,9.0,107.3,15 / 24,1963241,2019-08-31 10:23:03:320,-0.0921,0.0644,8.8293,-0.0349,-0.0184,9.8066,-0.0245,-0.0058,-0.1156,-8.87,-27.46,-8.19,105.43,-10.13,0.05
19633,51.997,-2.122866,75,5.72,9.0,107.3,15 / 24,1963341,2019-08-31 10:23:03:420,-0.3659,-0.2802,9.4358,-0.0597,-0.0321,9.8064,-0.0458,0.008,-0.1252,-12.33,-26.45,-6.97,105.43,-10.13,0.05
19634,51.997,-2.122866,75,5.72,9.0,107.3,15 / 24,1963441,2019-08-31 10:23:03:520,-0.2994,-1.2914,9.646,-0.0044,-0.0625,9.8065,-0.0576,-0.0804,-0.107,-14.79,-25.27,-6.54,118.45,-10.03,-0.57
19635,51.997,-2.122866,75,5.72,9.0,107.3,15 / 24,1963541,2019-08-31 10:23:03:620,0.0241,-0.8465,9.0579,-0.0409,-0.0774,9.8063,-0.0576,-0.0144,-0.0943,-14.79,-25.27,-6.54,118.45,-10.03,-0.57
19636,51.997,-2.122866,75,5.72,9.0,107.3,15 / 24,1963641,2019-08-31 10:23:03:720,-0.2645,-0.7518,9.9343,-0.0252,-0.0219,9.8066,-0.0394,0.0038,-0.1156,-15.33,-24.94,-6.57,118.53,-9.75,-1.0
19637,51.997,-2.122866,75,5.72,9.0,107.3,15 / 24,1963740,2019-08-31 10:23:03:819,-0.5363,-1.1665,9.4359,-0.0245,-0.0072,9.8066,-0.0299,-0.0421,-0.139,-18.04,-23.29,-5.67,118.53,-9.75,-1.0
19638,51.997,-2.122866,75,5.72,9.0,107.3,15 / 24,1963841,2019-08-31 10:23:03:920,0.1341,0.2663,9.1789,-0.0089,-0.058,9.8065,-0.0299,-0.0421,-0.139,-17.7,-23.58,-5.56,124.87,-9.78,-1.15
19639,51.997,-2.122866,75,5.72,9.0,107.3,15 / 24,1963942,2019-08-31 10:23:04:021,-0.008,0.1952,9.4746,-0.033,-0.0578,9.8064,-0.0288,0.0048,-0.1518,-18.76,-23.1,-3.8,128.13,-9.61,-1.5
19640,51.997,-2.122866,75,5.72,9.0,107.3,15 / 24,1964042,2019-08-31 10:23:04:121,0.1813,0.5737,10.6219,-0.0165,-0.0405,9.8066,-0.0011,0.0464,-0.1433,-18.84,-23.05,-3.68,128.13,-9.61,-1.5
19641,51.996983,-2.122766,74,7.12,9.0,113.9,15 / 24,1964142,2019-08-31 10:23:04:221,-0.2259,-0.1718,9.5819,-0.0471,-0.0512,9.8064,-0.032,0.0133,-0.123,-18.84,-23.05,-3.68,128.13,-9.61,-1.5
19642,51.996983,-2.122766,74,7.12,9.0,113.9,15 / 24,1964241,2019-08-31 10:23:04:320,0.1182,-1.167,10.1161,-0.0089,-0.0361,9.8066,0.0,0.0133,-0.1603,-18.42,-23.38,-3.73,126.58,-9.55,-1.91
19643,51.996983,-2.122766,74,7.12,9.0,113.9,15 / 24,1964340,2019-08-31 10:23:04:419,-0.2556,-0.0433,8.7918,-0.019,-0.1003,9.8061,-0.0096,-0.0026,-0.1486,-18.05,-23.31,-5.55,126.25,-9.14,-2.36
19644,51.996983,-2.122766,74,7.12,9.0,113.9,15 / 24,1964440,2019-08-31 10:23:04:519,0.1393,-0.5996,10.0663,-0.0444,-0.0586,9.8064,-0.0118,0.0325,-0.1443,-18.05,-23.31,-5.55,126.25,-9.14,-2.36
19645,51.996983,-2.122766,74,7.12,9.0,113.9,15 / 24,1964541,2019-08-31 10:23:04:620,0.0135,-0.117,10.0282,-0.0167,-0.0361,9.8066,-0.0118,0.0325,-0.1443,-19.19,-22.19,-6.3,129.16,-9.02,-2.77
19646,51.996983,-2.122766,74,7.12,9.0,113.9,15 / 24,1964641,2019-08-31 10:23:04:720,-0.2143,-0.4049,9.3037,-0.0348,-0.0689,9.8063,-0.0352,-0.0165,-0.1624,-20.0,-21.51,-6.11,129.16,-9.02,-2.77
19647,51.996983,-2.122766,74,7.12,9.0,113.9,15 / 24,1964741,2019-08-31 10:23:04:820,-0.1648,-0.158,9.9319,-0.0517,-0.0985,9.806,-0.0032,0.0261,-0.156,-21.51,-20.41,-4.57,136.6,-8.77,-3.38
19648,51.996983,-2.122766,74,7.12,9.0,113.9,15 / 24,1964841,2019-08-31 10:23:04:920,0.1066,0.1253,9.4322,-0.0355,-0.0128,9.8066,-0.0096,0.0261,-0.1337,-21.93,-20.14,-3.69,136.72,-8.86,-3.58
19649,51.996983,-2.122766,74,7.12,9.0,113.9,15 / 24,1964941,2019-08-31 10:23:05:020,0.3172,0.1099,9.4119,-0.0226,0.0136,9.8066,-0.0373,0.0048,-0.1241,-21.93,-20.14,-3.69,136.72,-8.86,-3.58
19650,51.996983,-2.122766,74,7.12,9.0,113.9,15 / 24,1965041,2019-08-31 10:23:05:120,0.1486,-0.0528,9.4958,-0.0152,-0.022,9.8066,-0.0544,-0.0037,-0.1358,-22.22,-19.66,-4.43,136.73,-8.84,-3.73
19651,51.99696,-2.122649,74,8.23,9.0,122.9,14 / 24,1965141,2019-08-31 10:23:05:220,0.2431,-0.3445,8.6629,-0.011,-0.0774,9.8063,-0.0789,0.0123,-0.1166,-22.22,-19.66,-4.43,136.73,-8.84,-3.73
19652,51.99696,-2.122649,74,8.23,9.0,122.9,14 / 24,1965241,2019-08-31 10:23:05:320,0.2781,-0.693,10.003,0.0028,-0.0786,9.8063,0.0042,0.0069,-0.1507,-22.2,-19.72,-4.29,136.81,-8.58,-4.11
19653,51.99696,-2.122649,74,8.23,9.0,122.9,14 / 24,1965341,2019-08-31 10:23:05:420,0.3033,-0.5471,10.604,0.0069,-0.1528,9.8055,0.0042,0.0069,-0.1507,-22.45,-19.26,-5.01,136.81,-8.58,-4.11
19654,51.99696,-2.122649,74,8.23,9.0,122.9,14 / 24,1965443,2019-08-31 10:23:05:522,0.3343,0.578,9.1147,-0.0154,-0.0286,9.8066,-0.0373,-0.0144,-0.1369,-22.27,-19.79,-3.52,137.05,-7.66,-4.78
19655,51.99696,-2.122649,74,8.23,9.0,122.9,14 / 24,1965541,2019-08-31 10:23:05:620,-0.1138,-0.7201,10.2793,-0.0632,-0.041,9.8064,-0.049,0.0954,-0.1241,-21.92,-20.19,-3.47,137.05,-7.66,-4.78
19656,51.99696,-2.122649,74,8.23,9.0,122.9,14 / 24,1965641,2019-08-31 10:23:05:720,0.3214,0.345,9.302,-0.0841,-0.0077,9.8063,0.0159,0.0794,-0.1124,-21.92,-20.19,-3.47,137.05,-7.66,-4.78
19657,51.99696,-2.122649,74,8.23,9.0,122.9,14 / 24,1965741,2019-08-31 10:23:05:820,0.5073,0.3704,9.8841,0.0042,0.0037,9.8066,-0.0394,-0.0282,-0.1156,-22.74,-19.15,-4.03,139.82,-7.99,-5.15
19658,51.99696,-2.122649,74,8.23,9.0,122.9,14 / 24,1965841,2019-08-31 10:23:05:920,0.5165,0.7761,9.1203,0.0189,-0.0009,9.8066,-0.0352,0.008,-0.0719,-23.37,-18.52,-3.29,139.86,-7.98,-5.12
19659,51.99696,-2.122649,74,8.23,9.0,122.9,14 / 24,1965941,2019-08-31 10:23:06:020,0.3812,-0.0641,9.4643,0.0232,0.0105,9.8066,0.0032,0.0389,-0.0783,-23.37,-18.52,-3.29,139.86,-7.98,-5.12
19660,51.99696,-2.122649,74,8.23,9.0,122.9,14 / 24,1966041,2019-08-31 10:23:06:120,0.4599,0.587,10.7782,0.0194,0.0004,9.8066,-0.0128,-0.0783,-0.073,-23.51,-18.36,-3.16,142.64,-7.92,-4.98
19661,51.99691,-2.122538,74,9.36,9.0,129.2,14 / 24,1966140,2019-08-31 10:23:06:219,0.9615,-0.058,9.4958,0.0824,-0.0127,9.8063,-0.0128,-0.0783,-0.073,-23.51,-18.36,-3.16,142.69,-7.49,-4.74
19662,51.99691,-2.122538,74,9.36,9.0,129.2,14 / 24,1966241,2019-08-31 10:23:06:320,0.0622,-0.8493,9.2081,0.0329,-0.0388,9.8065,-0.0384,-0.0325,-0.0538,-23.8,-17.82,-4.01,142.69,-7.49,-4.74
19663,51.99691,-2.122538,74,9.36,9.0,129.2,14 / 24,1966342,2019-08-31 10:23:06:421,0.4418,-0.1812,9.5324,0.0795,-0.0553,9.8062,0.0159,0.0101,-0.0421,-23.51,-18.36,-3.16,142.77,-6.93,-4.72
19664,51.99691,-2.122538,74,9.36,9.0,129.2,14 / 24,1966442,2019-08-31 10:23:06:521,0.8885,1.3929,10.481,0.1363,0.1903,9.8039,0.1587,0.0613,-0.0836,-23.51,-18.36,-3.16,142.77,-6.93,-4.72
19665,51.99691,-2.122538,74,9.36,9.0,129.2,14 / 24,1966541,2019-08-31 10:23:06:620,0.9076,1.4038,10.6028,0.1267,0.0413,9.8057,-0.0512,-0.0506,-0.0357,-24.89,-16.56,-2.53,145.38,-6.96,-3.34
19666,51.99691,-2.122538,74,9.36,9.0,129.2,14 / 24,1966640,2019-08-31 10:23:06:719,0.7527,0.2236,9.1916,0.1324,0.0433,9.8057,-0.032,0.0655,-0.0005,-25.04,-16.03,-4.01,146.98,-6.47,-2.69
19667,51.99691,-2.122538,74,9.36,9.0,129.2,14 / 24,1966740,2019-08-31 10:23:06:819,0.9142,0.6685,10.5235,-0.002,0.036,9.8066,0.049,0.0783,-0.0282,-25.04,-16.03,-4.01,146.98,-6.47,-2.69
19668,51.99691,-2.122538,74,9.36,9.0,129.2,14 / 24,1966841,2019-08-31 10:23:06:920,0.301,0.8058,9.8311,0.0285,0.0734,9.8063,0.049,0.0783,-0.0282,-25.22,-16.15,-1.83,147.05,-6.59,-2.52
19669,51.99691,-2.122538,74,9.36,9.0,129.2,14 / 24,1966941,2019-08-31 10:23:07:020,0.0249,0.7754,8.1381,0.0422,0.0804,9.8062,-0.0224,0.0389,-0.0154,-25.22,-16.15,-1.83,147.02,-6.64,-1.99
19670,51.996857,-2.122422,74,10.17,9.0,131.7,14 / 24,1967041,2019-08-31 10:23:07:120,0.5418,0.2051,8.9022,0.0446,-0.0163,9.8065,-0.0043,0.0528,-0.0964,-25.22,-16.15,-1.83,147.02,-6.64,-1.99
19671,51.996857,-2.122422,74,10.17,9.0,131.7,14 / 24,1967141,2019-08-31 10:23:07:220,-0.217,0.6144,10.243,0.0548,-0.0091,9.8065,0.0394,0.0059,-0.0357,-25.44,-15.89,-0.45,147.17,-6.34,-1.86
19672,51.996857,-2.122422,74,10.17,9.0,131.7,14 / 24,1967241,2019-08-31 10:23:07:320,1.7045,0.0631,11.8924,0.1086,0.0211,9.806,0.0468,-0.0176,-0.0314,-25.17,-16.12,-2.56,147.0,-5.88,-1.41
19673,51.996857,-2.122422,74,10.17,9.0,131.7,14 / 24,1967340,2019-08-31 10:23:07:419,1.5086,-0.4297,11.3734,0.135,0.0035,9.8057,-0.0192,-0.0602,-0.0314,-24.69,-16.85,-2.58,145.43,-5.23,-0.96
19674,51.996857,-2.122422,74,10.17,9.0,131.7,14 / 24,1967441,2019-08-31 10:23:07:520,0.9207,-0.1039,10.592,0.0745,-0.0281,9.8063,0.0873,0.1231,-0.0602,-24.69,-16.85,-2.58,145.43,-5.23,-0.96
19675,51.996857,-2.122422,74,10.17,9.0,131.7,14 / 24,1967541,2019-08-31 10:23:07:620,1.6242,0.3225,11.8584,0.002,0.1263,9.8058,-0.3026,-0.025,0.1177,-24.55,-16.76,-4.03,145.43,-5.23,-0.96
19676,51.996857,-2.122422,74,10.17,9.0,131.7,14 / 24,1967641,2019-08-31 10:23:07:720,-0.8541,1.7054,9.3228,-0.0989,-0.0196,9.8061,-0.3026,-0.025,0.1177,-25.35,-15.84,-2.52,146.96,-5.64,-0.34
19677,51.996857,-2.122422,74,10.17,9.0,131.7,14 / 24,1967741,2019-08-31 10:23:07:820,-0.1159,-0.632,9.3225,-0.003,-0.016,9.8066,-0.0885,-0.0069,0.0719,-26.07,-14.84,-0.42,149.86,-6.06,-0.75
19678,51.996857,-2.122422,74,10.17,9.0,131.7,14 / 24,1967841,2019-08-31 10:23:07:920,0.2311,0.2237,9.1548,0.0333,-0.0054,9.8066,-0.0032,-0.0229,-0.0048,-26.09,-14.78,-0.81,149.78,-6.03,-0.84
19679,51.996857,-2.122422,74,10.17,9.0,131.7,14 / 24,1967941,2019-08-31 10:23:08:020,0.6659,0.3397,9.2279,0.1315,-0.0693,9.8055,-0.0554,-0.0463,-0.009,-26.09,-14.78,-0.81,149.78,-6.03,-0.84
19680,51.996788,-2.122293,74,10.85,9.0,132.6,14 / 24,1968041,2019-08-31 10:23:08:120,1.4032,-0.4333,9.4616,0.1314,-0.0958,9.8053,-0.048,-0.1614,0.0197,-25.47,-15.7,-2.21,147.11,-5.16,-0.81
19681,51.996788,-2.122293,74,10.85,9.0,132.6,14 / 24,1968141,2019-08-31 10:23:08:220,0.9963,0.1555,8.2081,0.3625,-0.2429,9.7969,-0.0043,-0.1411,-0.0069,-24.93,-16.52,-2.33,145.7,-2.61,-0.85
19682,51.996788,-2.122293,74,10.85,9.0,132.6,14 / 24,1968241,2019-08-31 10:23:08:320,0.59,0.205,8.9867,0.1597,-0.0795,9.805,-0.0458,0.0538,-0.0069,-24.93,-16.52,-2.33,145.7,-2.61,-0.85
19683,51.996788,-2.122293,74,10.85,9.0,132.6,14 / 24,1968341,2019-08-31 10:23:08:420,0.2381,-0.0301,10.1575,0.0226,-0.0359,9.8066,-0.0416,0.0591,0.0336,-24.17,-17.6,-2.41,143.09,-1.57,-0.71
19684,51.996788,-2.122293,74,10.85,9.0,132.6,14 / 24,1968441,2019-08-31 10:23:08:520,0.7835,-0.4362,9.8149,-0.0151,-0.0262,9.8066,-0.0416,0.0591,0.0336,-24.73,-16.94,-1.06,145.77,-1.55,-0.88
19685,51.996788,-2.122293,74,10.85,9.0,132.6,14 / 24,1968542,2019-08-31 10:23:08:621,0.3916,0.1976,9.2377,0.0227,0.0834,9.8063,0.017,0.106,0.0304,-25.33,-15.98,-1.75,145.77,-1.55,-0.88
19686,51.996788,-2.122293,74,10.85,9.0,132.6,14 / 24,1968641,2019-08-31 10:23:08:720,0.3897,0.5018,9.3788,0.0065,0.0179,9.8066,-0.0139,0.0187,0.0282,-25.5,-15.71,-1.72,147.32,-1.73,-0.21
19687,51.996788,-2.122293,74,10.85,9.0,132.6,14 / 24,1968741,2019-08-31 10:23:08:820,-0.1589,0.9279,8.9963,0.0252,0.014,9.8066,-0.0586,-0.0357,0.0357,-25.5,-15.71,-1.72,147.32,-1.73,-0.21
19688,51.996788,-2.122293,74,10.85,9.0,132.6,14 / 24,1968841,2019-08-31 10:23:08:920,0.5841,0.3032,9.3462,0.0923,-0.0227,9.8062,-0.0171,-0.106,0.0261,-24.8,-16.84,-1.12,145.74,-1.65,-0.06
19689,51.996788,-2.122293,74,10.85,9.0,132.6,14 / 24,1968941,2019-08-31 10:23:09:020,0.3734,0.1927,9.4833,0.2215,-0.0704,9.8039,0.0032,-0.0591,0.0027,-24.46,-17.37,-0.54,144.67,-0.35,0.32
19690,51.996727,-2.122178,74,10.92,9.0,131.5,14 / 24,1969041,2019-08-31 10:23:09:120,-0.2153,0.6734,9.9983,0.0821,-0.0362,9.8062,-0.0405,-0.0154,0.0698,-24.46,-17.37,-0.54,144.67,-0.35,0.32
19691,51.996727,-2.122178,74,10.92,9.0,131.5,14 / 24,1969141,2019-08-31 10:23:09:220,0.0479,-0.1724,10.2021,0.0213,0.0287,9.8066,-0.0405,-0.0154,0.0698,-24.75,-16.95,0.18,145.78,0.16,0.43
19692,51.996727,-2.122178,74,10.92,9.0,131.5,14 / 24,1969242,2019-08-31 10:23:09:321,0.5569,0.5109,9.2189,0.0433,0.1002,9.806,0.0522,0.0868,0.0666,-25.37,-16.01,0.17,147.38,0.04,1.05
19693,51.996727,-2.122178,74,10.92,9.0,131.5,14 / 24,1969341,2019-08-31 10:23:09:420,0.3229,0.3856,10.0003,0.0299,0.0991,9.8061,0.0223,0.0069,0.0719,-25.8,-15.29,0.74,150.08,-0.12,1.64
19694,51.996727,-2.122178,74,10.92,9.0,131.5,14 / 24,1969441,2019-08-31 10:23:09:520,0.0289,0.8738,9.4727,-0.01,0.0998,9.8061,-0.0011,0.0741,0.0783,-25.8,-15.29,0.74,150.08,-0.12,1.64
19695,51.996727,-2.122178,74,10.92,9.0,131.5,14 / 24,1969541,2019-08-31 10:23:09:620,-0.195,1.0333,10.312,-0.0134,0.2026,9.8045,0.0426,0.0645,0.0773,-25.66,-12.9,8.66,154.1,-0.47,2.11
19696,51.996727,-2.122178,74,10.92,9.0,131.5,14 / 24,1969640,2019-08-31 10:23:09:719,0.4599,0.8364,9.8303,0.0526,0.0855,9.8061,0.0415,-0.0282,0.1156,-21.14,-16.01,14.02,144.43,-1.05,3.14
19697,51.996727,-2.122178,74,10.92,9.0,131.5,14 / 24,1969741,2019-08-31 10:23:09:820,0.1217,1.089,9.4395,0.1405,0.153,9.8045,0.0309,-0.0399,0.1167,-23.1,-18.17,6.01,144.43,-1.05,3.14
19698,51.996727,-2.122178,74,10.92,9.0,131.5,14 / 24,1969841,2019-08-31 10:23:09:920,0.4668,0.708,8.9043,0.0771,0.0907,9.8059,0.0373,-0.0101,0.1326,-24.4,-17.45,-0.04,144.79,-0.91,4.35
19699,51.996727,-2.122178,74,10.92,9.0,131.5,14 / 24,1969941,2019-08-31 10:23:10:020,0.7806,1.1678,9.9252,0.1552,0.1863,9.8037,0.0191,-0.008,0.1177,-24.4,-17.45,-0.04,144.79,-0.91,4.35
19700,51.996674,-2.12205,74,10.87,9.0,125.9,14 / 24,1970041,2019-08-31 10:23:10:120,0.5039,0.6615,9.1273,0.084,0.0897,9.8059,0.0191,-0.008,0.1177,-24.95,-16.48,-2.48,147.18,-0.79,5.76
19701,51.996674,-2.12205,74,10.87,9.0,125.9,14 / 24,1970141,2019-08-31 10:23:10:220,0.2955,1.2309,10.0564,0.1453,0.1758,9.804,-0.0203,-0.0197,0.154,-24.01,-17.55,-3.93,142.57,-0.64,7.08
19702,51.996674,-2.12205,74,10.87,9.0,125.9,14 / 24,1970241,2019-08-31 10:23:10:320,0.298,0.8329,10.3756,0.0515,0.076,9.8062,0.001,-0.0154,0.1614,-24.01,-17.55,-3.93,142.57,-0.64,7.08
19703,51.996674,-2.12205,74,10.87,9.0,125.9,14 / 24,1970341,2019-08-31 10:23:10:420,0.5702,1.1555,9.7674,0.1026,0.1537,9.8049,0.033,0.0027,0.1667,-22.94,-19.19,-2.39,140.31,-0.71,8.16
19704,51.996674,-2.12205,74,10.87,9.0,125.9,14 / 24,1970440,2019-08-31 10:23:10:519,0.269,0.9717,11.0468,0.0382,0.0757,9.8063,0.0064,-0.0069,0.171,-22.55,-19.52,-3.23,138.67,-0.76,8.81
19705,51.996674,-2.12205,74,10.87,9.0,125.9,14 / 24,1970540,2019-08-31 10:23:10:619,0.1351,0.5388,10.0661,0.0711,0.1732,9.8049,0.0351,0.0389,0.1817,-22.55,-19.52,-3.23,138.67,-0.76,8.81
19706,51.996674,-2.12205,74,10.87,9.0,125.9,14 / 24,1970640,2019-08-31 10:23:10:719,0.3426,0.7059,10.4159,0.0412,0.074,9.8063,-0.0277,0.008,0.1806,-21.88,-20.13,-4.01,137.16,-1.11,9.85
19707,51.996674,-2.12205,74,10.87,9.0,125.9,14 / 24,1970740,2019-08-31 10:23:10:819,-0.1448,0.3898,10.3854,0.0491,0.1207,9.8058,-0.0277,0.008,0.1806,-20.88,-21.23,-3.62,134.48,-1.38,10.56
19708,51.996674,-2.12205,74,10.87,9.0,125.9,14 / 24,1970840,2019-08-31 10:23:10:919,0.1114,0.2729,9.0316,0.0215,0.0614,9.8064,0.0373,-0.0005,0.1742,-20.88,-21.23,-3.62,134.48,-1.38,10.56
19709,51.996674,-2.12205,74,10.87,9.0,125.9,14 / 24,1970941,2019-08-31 10:23:11:020,-0.0564,0.3082,10.9285,0.0264,0.0499,9.8065,0.0138,-0.0282,0.1699,-20.45,-21.49,-4.47,133.08,-1.55,10.9
19710,51.996628,-2.1219,73,10.95,9.0,116.1,14 / 24,1971041,2019-08-31 10:23:11:120,0.1163,0.2937,9.8281,0.0801,0.0993,9.8058,0.0138,-0.0218,0.1742,-20.45,-21.49,-4.47,133.08,-1.55,10.9
19711,51.996628,-2.1219,73,10.95,9.0,116.1,14 / 24,1971140,2019-08-31 10:23:11:219,0.3878,0.2451,8.8475,0.0588,0.0549,9.8063,0.0436,-0.0261,0.188,-19.65,-22.05,-5.24,131.53,-1.66,11.64
19712,51.996628,-2.1219,73,10.95,9.0,116.1,14 / 24,1971241,2019-08-31 10:23:11:320,0.2768,0.2678,10.171,0.1181,0.1047,9.8054,0.0149,-0.0005,0.1763,-20.06,-21.82,-4.65,131.54,-1.66,12.56
19713,51.996628,-2.1219,73,10.95,9.0,116.1,14 / 24,1971341,2019-08-31 10:23:11:420,-0.0017,0.3382,10.0325,0.052,0.0618,9.8063,0.0373,-0.0442,0.1838,-20.06,-21.82,-4.65,131.54,-1.66,12.56
19714,51.996628,-2.1219,73,10.95,9.0,116.1,14 / 24,1971441,2019-08-31 10:23:11:520,0.2692,0.5507,9.826,0.1422,0.1472,9.8045,0.0234,-0.0037,0.1838,-20.06,-21.82,-4.65,131.54,-1.66,12.56
19715,51.996628,-2.1219,73,10.95,9.0,116.1,14 / 24,1971541,2019-08-31 10:23:11:620,0.3896,0.3996,9.7595,0.0113,0.0646,9.8064,0.0234,-0.0037,0.1838,-20.14,-21.9,-3.85,131.91,-1.75,13.75
19716,51.996628,-2.1219,73,10.95,9.0,116.1,14 / 24,1971642,2019-08-31 10:23:11:721,-0.1408,-0.0869,10.285,0.0065,0.0564,9.8065,0.0245,0.0229,0.2083,-21.69,-20.68,-1.38,137.03,-1.98,14.06
19717,51.996628,-2.1219,73,10.95,9.0,116.1,14 / 24,1971741,2019-08-31 10:23:11:820,0.3003,-0.1785,8.9366,0.0284,0.0495,9.8065,0.0245,-0.0197,0.1795,-21.24,-19.73,7.71,140.98,-2.18,14.32
19718,51.996628,-2.1219,73,10.95,9.0,116.1,14 / 24,1971841,2019-08-31 10:23:11:920,0.177,-0.6662,10.1025,0.0493,0.0676,9.8063,0.0096,0.0208,0.1614,-21.24,-19.73,7.71,140.98,-2.18,14.32
19719,51.996628,-2.1219,73,10.95,9.0,116.1,14 / 24,1971941,2019-08-31 10:23:12:020,0.0783,0.5306,10.0677,0.0136,0.0298,9.8066,-0.0032,-0.0271,0.1785,-10.19,-25.29,12.52,117.22,-2.21,14.81
19720,51.99661,-2.121777,71,10.96,9.0,105.3,14 / 24,1972040,2019-08-31 10:23:12:119,-0.3158,-0.3903,10.2858,0.0116,0.0413,9.8066,0.0074,-0.041,0.1976,-8.9,-28.56,-2.23,107.92,-2.39,14.98
19721,51.99661,-2.121777,71,10.96,9.0,105.3,14 / 24,1972141,2019-08-31 10:23:12:220,0.0497,0.1304,9.0314,0.0208,0.0192,9.8066,0.0106,-0.041,0.171,-12.44,-26.83,-5.03,107.92,-2.39,14.98
19722,51.99661,-2.121777,71,10.96,9.0,105.3,14 / 24,1972241,2019-08-31 10:23:12:320,-0.138,-0.4041,10.1745,0.0435,0.0391,9.8065,0.0106,-0.041,0.171,-12.44,-26.83,-5.03,107.92,-2.39,14.98
19723,51.99661,-2.121777,71,10.96,9.0,105.3,14 / 24,1972341,2019-08-31 10:23:12:420,0.3335,0.8012,9.6815,-0.0019,0.0383,9.8066,0.0213,0.0858,0.1721,-13.52,-26.35,-4.77,118.07,-2.53,15.29
19724,51.99661,-2.121777,71,10.96,9.0,105.3,14 / 24,1972441,2019-08-31 10:23:12:520,-0.4817,-0.4113,9.8557,-0.0207,0.0652,9.8064,-0.0309,0.0474,0.1912,-13.37,-26.05,-6.55,115.76,-2.92,15.37
19725,51.99661,-2.121777,71,10.96,9.0,105.3,14 / 24,1972541,2019-08-31 10:23:12:620,-0.527,0.1497,11.4537,-0.0077,0.0259,9.8066,-0.0288,-0.0005,0.1955,-13.37,-26.05,-6.55,115.76,-2.92,15.37
19726,51.99661,-2.121777,71,10.96,9.0,105.3,14 / 24,1972641,2019-08-31 10:23:12:720,-0.2892,0.0142,10.469,-0.0402,0.0402,9.8065,0.0064,-0.025,0.1731,-12.87,-26.56,-5.36,115.6,-3.24,15.26
19727,51.99661,-2.121777,71,10.96,9.0,105.3,14 / 24,1972741,2019-08-31 10:23:12:820,-0.4041,0.1957,8.847,-0.038,0.0207,9.8066,-0.0128,0.0336,0.1806,-12.77,-26.55,-5.67,115.28,-3.44,15.11
19728,51.99661,-2.121777,71,10.96,9.0,105.3,14 / 24,1972841,2019-08-31 10:23:12:920,-1.0555,-0.5936,11.1492,-0.0382,0.0461,9.8065,-0.0213,0.0591,0.1742,-12.77,-26.55,-5.67,115.28,-3.44,15.11
19729,51.99661,-2.121777,71,10.96,9.0,105.3,14 / 24,1972941,2019-08-31 10:23:13:020,-0.387,0.6234,7.9406,-0.0894,0.0829,9.8059,-0.0213,0.0591,0.1742,-11.8,-27.17,-4.77,113.87,-4.1,14.84
19730,51.996597,-2.121619,70,10.99,9.0,95.5,14 / 24,1973040,2019-08-31 10:23:13:119,-0.3593,-0.1159,7.698,-0.0418,-0.0466,9.8065,-0.0171,-0.0069,0.1252,-11.8,-27.17,-4.77,113.87,-4.1,14.84
19731,51.996597,-2.121619,70,10.99,9.0,95.5,14 / 24,1973140,2019-08-31 10:23:13:219,-1.0307,-1.3148,7.221,-0.0156,-0.0662,9.8064,0.0053,0.0538,0.1071,-9.77,-27.84,-5.45,109.65,-3.95,14.51
19732,51.996597,-2.121619,70,10.99,9.0,95.5,14 / 24,1973241,2019-08-31 10:23:13:320,-0.0687,-0.2061,8.0997,-0.0089,-0.0494,9.8065,0.0383,-0.0112,0.0922,-8.17,-28.36,-5.39,105.96,-3.62,14.29
19733,51.996597,-2.121619,70,10.99,9.0,95.5,14 / 24,1973341,2019-08-31 10:23:13:420,-1.493,-0.9791,11.2742,-0.0859,-0.1489,9.8051,0.0309,0.0197,0.0964,-8.17,-28.36,-5.39,105.96,-3.62,14.29
19734,51.996597,-2.121619,70,10.99,9.0,95.5,14 / 24,1973441,2019-08-31 10:23:13:520,-1.2588,-0.8636,10.4462,-0.0443,0.0175,9.8065,0.0554,0.0964,0.1007,-8.69,-28.15,-5.67,107.5,-2.92,13.57
19735,51.996597,-2.121619,70,10.99,9.0,95.5,14 / 24,1973541,2019-08-31 10:23:13:620,-0.6268,-0.0291,9.8852,-0.0974,0.0788,9.8058,0.0074,0.0623,0.1241,-9.19,-28.09,-5.15,107.5,-2.92,13.57
19736,51.996597,-2.121619,70,10.99,9.0,95.5,14 / 24,1973641,2019-08-31 10:23:13:720,-1.1144,-0.3065,8.9009,-0.0688,0.0585,9.8062,0.0287,-0.0005,0.1103,-10.51,-27.48,-5.87,111.69,-3.53,13.16
19737,51.996597,-2.121619,70,10.99,9.0,95.5,14 / 24,1973742,2019-08-31 10:23:13:821,-0.5147,0.5212,8.7038,-0.1399,0.0956,9.8052,0.0287,-0.0005,0.1103,-12.14,-26.93,-5.25,111.69,-3.53,13.16
19738,51.996597,-2.121619,70,10.99,9.0,95.5,14 / 24,1973841,2019-08-31 10:23:13:920,-0.8874,-0.0675,11.2403,-0.1871,0.1333,9.804,-0.0054,0.0485,0.1039,-11.78,-27.18,-4.73,113.68,-4.66,12.43
19739,51.996597,-2.121619,70,10.99,9.0,95.5,14 / 24,1973941,2019-08-31 10:23:14:020,-0.6522,-0.1388,10.1065,-0.0327,-0.0144,9.8066,-0.0022,-0.0538,0.0762,-8.18,-28.44,-4.95,105.83,-4.66,12.22
19740,51.996597,-2.121454,70,11.39,9.0,88.3,14 / 24,1974042,2019-08-31 10:23:14:121,-0.516,-0.2046,8.6695,-0.0397,-0.1728,9.805,-0.0022,-0.0868,0.0879,-8.18,-28.44,-4.95,105.83,-4.66,12.22
19741,51.996597,-2.121454,70,11.39,9.0,88.3,14 / 24,1974141,2019-08-31 10:23:14:220,-0.4546,-0.7803,8.165,-0.0405,-0.0469,9.8065,0.0085,-0.0154,0.1028,-3.17,-29.42,-4.94,95.94,-3.75,11.72
19742,51.996597,-2.121454,70,11.39,9.0,88.3,14 / 24,1974241,2019-08-31 10:23:14:320,-0.7271,-0.1659,10.9004,-0.0351,-0.0065,9.8066,-0.0043,0.0304,0.0868,-0.99,-29.27,-6.5,91.92,-3.5,11.46
19743,51.996597,-2.121454,70,11.39,9.0,88.3,14 / 24,1974341,2019-08-31 10:23:14:420,-0.0059,-0.3442,8.3993,-0.0561,-0.0208,9.8065,0.0767,-0.0165,0.0975,-0.06,-29.5,-5.45,91.92,-3.5,11.46
19744,51.996597,-2.121454,70,11.39,9.0,88.3,14 / 24,1974442,2019-08-31 10:23:14:521,-1.048,-0.5827,10.1049,-0.0662,-0.032,9.8064,0.0032,0.0421,0.0911,-0.05,-29.18,-6.96,89.85,-3.32,11.07
19745,51.996597,-2.121454,70,11.39,9.0,88.3,14 / 24,1974541,2019-08-31 10:23:14:620,-0.7192,0.2217,11.0531,-0.038,0.0042,9.8066,0.0032,0.0421,0.0911,-0.94,-29.35,-6.12,89.85,-3.32,11.07
19746,51.996597,-2.121454,70,11.39,9.0,88.3,14 / 24,1974641,2019-08-31 10:23:14:720,-0.3227,-0.2381,9.5693,-0.074,0.0094,9.8064,0.0159,0.0293,0.0858,-0.87,-29.04,-7.5,91.75,-3.38,10.63
19747,51.996597,-2.121454,70,11.39,9.0,88.3,14 / 24,1974741,2019-08-31 10:23:14:820,-0.8226,-0.8056,9.5619,-0.0229,-0.0193,9.8066,0.0287,0.0048,0.0623,-0.87,-29.04,-7.5,91.75,-3.38,10.63
19748,51.996597,-2.121454,70,11.39,9.0,88.3,14 / 24,1974841,2019-08-31 10:23:14:920,-0.5917,0.1318,10.4627,-0.0514,-0.0652,9.8063,-0.0171,0.0133,0.0815,-0.81,-29.17,-6.97,91.75,-3.01,10.32
19749,51.996597,-2.121454,70,11.39,9.0,88.3,14 / 24,1974941,2019-08-31 10:23:15:020,-0.4132,0.2146,10.0897,-0.0377,-0.0236,9.8066,0.0319,0.0016,0.0666,-0.05,-29.17,-7.03,89.83,-2.88,10.1
19750,51.99661,-2.121273,70,11.86,9.0,83.0,14 / 24,1975042,2019-08-31 10:23:15:121,-0.7646,-0.1344,10.3532,-0.0567,0.0007,9.8065,0.033,-0.0005,0.0804,-0.05,-29.17,-7.03,89.83,-2.88,10.1
19751,51.99661,-2.121273,70,11.86,9.0,83.0,15 / 24,1975141,2019-08-31 10:23:15:220,-0.4458,-0.5445,10.0776,-0.0605,-0.0225,9.8064,-0.0022,0.0602,0.0304,-1.62,-29.12,-7.02,93.65,-2.88,9.76
19752,51.99661,-2.121273,70,11.86,9.0,83.0,15 / 24,1975241,2019-08-31 10:23:15:320,-0.6281,0.4684,10.1959,-0.0844,-0.0196,9.8063,-0.0022,0.0602,0.0304,-1.62,-29.12,-7.02,93.64,-2.77,9.4
19753,51.99661,-2.121273,70,11.86,9.0,83.0,15 / 24,1975341,2019-08-31 10:23:15:420,-1.3556,-0.304,9.0322,-0.1009,0.0045,9.8061,-0.0554,0.0719,0.0251,-1.63,-29.32,-6.14,93.73,-2.69,8.9
19754,51.99661,-2.121273,70,11.86,9.0,83.0,15 / 24,1975440,2019-08-31 10:23:15:519,-0.2665,2.0734,9.1316,-0.1818,0.0486,9.8048,-0.1204,-0.0048,0.1284,-1.63,-29.32,-6.14,93.73,-2.69,8.9
19755,51.99661,-2.121273,70,11.86,9.0,83.0,15 / 24,1975541,2019-08-31 10:23:15:620,-1.374,-0.6051,11.1832,-0.0917,-0.0382,9.8061,0.0245,-0.1049,0.04,-0.87,-29.5,-5.4,91.84,-3.04,7.86
19756,51.99661,-2.121273,70,11.86,9.0,83.0,15 / 24,1975641,2019-08-31 10:23:15:720,-0.6805,0.3305,9.0187,-0.1548,-0.0351,9.8054,-0.0011,0.0123,0.0325,-0.84,-29.52,-5.26,91.76,-2.86,6.95
19757,51.99661,-2.121273,70,11.86,9.0,83.0,15 / 24,1975741,2019-08-31 10:23:15:820,-0.972,0.0331,8.4135,-0.0701,0.0089,9.8064,0.0138,0.0272,0.0378,-0.84,-29.52,-5.26,91.76,-2.86,6.95
19758,51.99661,-2.121273,70,11.86,9.0,83.0,15 / 24,1975840,2019-08-31 10:23:15:919,-0.4459,0.0495,8.0183,-0.0487,0.008,9.8065,0.0127,-0.0005,0.0272,-0.05,-29.51,-5.4,89.83,-3.02,6.29
19759,51.99661,-2.121273,70,11.86,9.0,83.0,15 / 24,1975941,2019-08-31 10:23:16:020,-0.4523,-0.0605,10.2328,-0.0185,-0.0088,9.8066,0.0127,-0.0005,0.0272,-1.78,-29.58,-4.69,93.58,-3.06,6.01
19760,51.99664,-2.121105,66,12.0,9.0,80.3,14 / 24,1976040,2019-08-31 10:23:16:119,-0.6047,-0.1511,10.6474,-0.0574,-0.0022,9.8065,-0.0416,-0.0154,0.0272,-0.05,-29.51,-5.4,89.81,-3.02,5.9
19761,51.99664,-2.121105,66,12.0,9.0,80.3,14 / 24,1976141,2019-08-31 10:23:16:220,0.1503,0.4685,9.1776,-0.1246,0.0197,9.8058,-0.0075,0.0528,0.0144,-0.05,-29.51,-5.4,89.81,-3.02,5.9
19762,51.99664,-2.121105,66,12.0,9.0,80.3,14 / 24,1976241,2019-08-31 10:23:16:320,-0.5172,0.4966,11.7316,-0.0484,0.0063,9.8065,0.0404,-0.0026,0.04,-0.88,-29.86,-2.71,91.87,-3.13,5.17
19763,51.99664,-2.121105,66,12.0,9.0,80.3,14 / 24,1976342,2019-08-31 10:23:16:421,-0.833,-0.6423,8.2618,-0.067,-0.0094,9.8064,0.0532,-0.0389,0.0304,-0.05,-29.88,-2.71,89.95,-3.09,4.77
19764,51.99664,-2.121105,66,12.0,9.0,80.3,14 / 24,1976441,2019-08-31 10:23:16:520,-0.3261,0.1776,10.1494,-0.0065,0.0103,9.8066,0.0064,0.0016,0.041,-0.05,-29.88,-2.71,89.95,-3.09,4.77
19765,51.99664,-2.121105,66,12.0,9.0,80.3,14 / 24,1976541,2019-08-31 10:23:16:620,0.1376,-0.0687,8.068,-0.0287,-0.0005,9.8066,0.0532,0.0155,0.0133,2.71,-29.74,-2.86,84.27,-3.08,4.61
19766,51.99664,-2.121105,66,12.0,9.0,80.3,14 / 24,1976641,2019-08-31 10:23:16:720,-0.1129,0.4149,8.635,-0.003,0.0155,9.8066,-0.0128,0.0805,0.0272,2.99,-29.53,-4.35,84.17,-3.17,4.58
19767,51.99664,-2.121105,66,12.0,9.0,80.3,14 / 24,1976740,2019-08-31 10:23:16:819,-0.6901,0.5364,9.2235,-0.0681,0.003,9.8064,-0.0128,0.0805,0.0272,2.99,-29.53,-4.35,84.17,-3.17,4.58
19768,51.99664,-2.121105,66,12.0,9.0,80.3,14 / 24,1976841,2019-08-31 10:23:16:920,-0.2794,0.1252,9.3477,-0.0322,-0.0351,9.8065,0.0564,-0.0911,0.0304,1.18,-29.35,-6.09,87.64,-3.15,4.18
19769,51.99664,-2.121105,66,12.0,9.0,80.3,14 / 24,1976941,2019-08-31 10:23:17:020,-0.0496,-0.1107,11.0321,-0.0793,-0.068,9.8061,-0.0373,-0.0229,0.0027,1.18,-29.35,-6.09,87.67,-2.73,3.74
19770,51.99664,-2.121105,66,12.0,9.0,80.3,14 / 24,1977045,2019-08-31 10:23:17:124,-0.1082,0.1385,10.8204,-0.0504,-0.0278,9.8065,-0.0075,-0.0069,0.0027,1.18,-29.35,-6.09,87.67,-2.73,3.74
19771,51.99665,-2.120908,67,12.44,9.0,78.9,14 / 24,1977141,2019-08-31 10:23:17:220,-0.1369,0.2478,10.1282,-0.0962,-0.0265,9.8061,-0.0277,-0.0069,0.0208,0.31,-29.58,-4.98,87.67,-2.73,3.74
19772,51.99665,-2.120908,67,12.44,9.0,78.9,14 / 24,1977241,2019-08-31 10:23:17:320,-0.097,0.2929,10.7796,-0.0322,0.03,9.8066,-0.0149,0.057,0.0048,0.3,-29.6,-4.84,89.72,-2.56,3.18
19773,51.99665,-2.120908,67,12.44,9.0,78.9,14 / 24,1977341,2019-08-31 10:23:17:420,-0.2129,0.2353,9.1802,-0.0825,0.0388,9.8062,-0.016,0.0464,0.0037,-0.51,-29.46,-5.62,91.52,-2.78,2.7
19774,51.99665,-2.120908,67,12.44,9.0,78.9,14 / 24,1977441,2019-08-31 10:23:17:520,-0.3343,0.3742,9.6653,-0.0326,0.0357,9.8065,0.0053,0.0304,-0.0005,-0.51,-29.46,-5.62,91.52,-2.78,2.7
19775,51.99665,-2.120908,67,12.44,9.0,78.9,14 / 24,1977541,2019-08-31 10:23:17:620,-0.4475,-0.1394,9.9087,-0.0384,0.0076,9.8066,0.0053,0.0304,-0.0005,-0.54,-29.4,-5.93,91.47,-2.99,2.51
19776,51.99665,-2.120908,67,12.44,9.0,78.9,14 / 24,1977641,2019-08-31 10:23:17:720,-0.0488,-0.4789,8.8868,-0.0242,-0.0495,9.8065,0.0735,0.0208,-0.025,-1.43,-29.68,-4.12,91.62,-3.04,2.29
19777,51.99665,-2.120908,67,12.44,9.0,78.9,14 / 24,1977741,2019-08-31 10:23:17:820,-0.5647,-0.5404,8.9898,-0.0369,-0.1269,9.8058,0.0362,-0.0559,-0.0058,-0.57,-29.53,-5.27,91.6,-2.31,2.05
19778,51.99665,-2.120908,67,12.44,9.0,78.9,14 / 24,1977841,2019-08-31 10:23:17:920,-0.0184,0.1974,9.4517,-0.0033,-0.0113,9.8066,0.0639,0.0623,-0.0176,-0.57,-29.53,-5.27,91.6,-2.31,2.05
19779,51.99665,-2.120908,67,12.44,9.0,78.9,14 / 24,1977941,2019-08-31 10:23:18:020,0.0518,0.1339,11.0015,0.0048,0.0269,9.8066,0.0426,0.0123,0.0069,0.34,-29.66,-4.5,89.78,-2.24,2.03
19780,51.99668,-2.120726,66,12.73,9.0,78.1,14 / 24,1978041,2019-08-31 10:23:18:120,0.1439,0.0322,10.2544,0.0157,0.0264,9.8066,0.0138,0.008,0.0027,1.34,-29.76,-3.51,89.78,-2.24,2.03
19781,51.99668,-2.120726,66,12.73,9.0,78.1,14 / 24,1978141,2019-08-31 10:23:18:220,-0.341,-0.0541,10.5222,0.0035,0.014,9.8066,0.0064,-0.0186,0.0272,3.28,-29.46,-4.61,83.8,-2.47,2.12
19782,51.99668,-2.120726,66,12.73,9.0,78.1,14 / 24,1978241,2019-08-31 10:23:18:320,0.0973,0.0074,9.3873,-0.0031,0.0018,9.8067,-0.0107,-0.0197,-0.0005,3.24,-29.08,-6.64,83.8,-2.47,2.12
19783,51.99668,-2.120726,66,12.73,9.0,78.1,14 / 24,1978340,2019-08-31 10:23:18:419,-0.6805,-0.4408,8.8034,-0.0384,-0.0201,9.8066,-0.0107,-0.0197,-0.0005,4.05,-28.77,-7.48,81.72,-2.48,2.1
19784,51.99668,-2.120726,66,12.73,9.0,78.1,14 / 24,1978442,2019-08-31 10:23:18:521,0.2755,0.3645,9.641,-0.0583,-0.0439,9.8064,-0.0224,-0.0431,0.0155,3.94,-29.05,-6.37,81.72,-2.48,2.1
19785,51.99668,-2.120726,66,12.73,9.0,78.1,14 / 24,1978541,2019-08-31 10:23:18:620,-0.2989,0.1822,9.4432,-0.0936,-0.0661,9.806,-0.0213,-0.0133,-0.0144,3.94,-29.05,-6.37,81.72,-2.48,2.1
19786,51.99668,-2.120726,66,12.73,9.0,78.1,14 / 24,1978641,2019-08-31 10:23:18:720,0.1095,0.0187,9.4841,-0.0378,0.0093,9.8066,-0.0032,0.0048,-0.0314,2.04,-29.33,-5.94,85.72,-2.02,1.61
19787,51.99668,-2.120726,66,12.73,9.0,78.1,14 / 24,1978741,2019-08-31 10:23:18:820,0.026,0.4267,10.4775,-0.0625,0.028,9.8064,0.0234,-0.0133,-0.0048,1.97,-29.17,-6.72,85.61,-2.16,1.24
19788,51.99668,-2.120726,66,12.73,9.0,78.1,14 / 24,1978841,2019-08-31 10:23:18:920,0.2064,0.4509,9.6961,-0.0078,0.0267,9.8066,-0.0128,0.0069,-0.009,1.14,-29.41,-5.79,87.61,-2.31,1.18
19789,51.99668,-2.120726,66,12.73,9.0,78.1,14 / 24,1978941,2019-08-31 10:23:19:020,0.5366,0.5588,10.7449,-0.0276,0.0368,9.8065,0.0064,0.0304,-0.0208,1.14,-29.41,-5.79,87.61,-2.31,1.18
19790,51.99668,-2.120726,66,12.73,9.0,78.1,14 / 24,1979040,2019-08-31 10:23:19:119,-0.1592,-0.1703,9.1198,-0.0082,-0.0187,9.8066,-0.0022,-0.057,-0.0218,1.18,-29.56,-4.98,87.69,-2.69,0.85
19791,51.996704,-2.12054,66,12.93,9.0,78.2,15 / 24,1979141,2019-08-31 10:23:19:220,0.1781,0.1696,9.3047,-0.0421,-0.0446,9.8065,-0.0022,-0.057,-0.0218,1.18,-29.56,-4.98,87.69,-2.69,0.85
19792,51.996704,-2.12054,66,12.93,9.0,78.2,15 / 24,1979241,2019-08-31 10:23:19:320,-0.5802,-0.299,9.9785,-0.0145,-0.0079,9.8066,0.0032,-0.041,-0.0261,2.04,-29.33,-5.94,85.6,-2.42,0.62
19793,51.996704,-2.12054,66,12.93,9.0,78.2,15 / 24,1979341,2019-08-31 10:23:19:420,0.7585,0.4968,9.8346,-0.0471,-0.0117,9.8065,-0.0363,-0.0911,-0.0016,1.12,-29.74,-3.76,87.8,-2.37,0.54
19794,51.996704,-2.12054,66,12.93,9.0,78.2,15 / 24,1979441,2019-08-31 10:23:19:520,-0.1017,-0.3591,9.2,-0.0818,-0.0671,9.8061,-0.0064,-0.0847,-0.0037,1.12,-29.74,-3.76,87.8,-2.37,0.54
19795,51.996704,-2.12054,66,12.93,9.0,78.2,15 / 24,1979540,2019-08-31 10:23:19:619,-0.1496,0.3431,8.4562,-0.0353,-0.0302,9.8065,0.0245,0.0229,-0.025,3.17,-29.72,-2.59,84.1,-1.96,0.08
19796,51.996704,-2.12054,66,12.93,9.0,78.2,15 / 24,1979641,2019-08-31 10:23:19:720,0.2646,0.3067,10.0053,-0.0354,-0.0141,9.8066,0.0266,0.0666,-0.0208,4.59,-29.46,-3.29,84.1,-1.96,0.08
19797,51.996704,-2.12054,66,12.93,9.0,78.2,15 / 24,1979741,2019-08-31 10:23:19:820,0.5684,0.354,9.8027,0.012,0.0278,9.8066,0.0053,0.0432,-0.0378,3.88,-28.81,-7.4,81.7,-1.86,-0.12
19798,51.996704,-2.12054,66,12.93,9.0,78.2,15 / 24,1979841,2019-08-31 10:23:19:920,0.1919,0.3885,9.1597,0.0057,0.0479,9.8065,0.0127,0.0027,-0.0026,1.69,-29.24,-6.49,85.61,-2.14,-0.13
19799,51.996704,-2.12054,66,12.93,9.0,78.2,15 / 24,1979941,2019-08-31 10:23:20:020,-0.351,-0.2301,9.1702,-0.0813,0.0682,9.8061,0.0127,0.0027,-0.0026,1.69,-29.24,-6.49,85.61,-2.14,-0.13
19800,51.996704,-2.12054,66,12.93,9.0,78.2,15 / 24,1980041,2019-08-31 10:23:20:120,0.0699,0.1909,9.3771,-0.0113,0.0019,9.8066,0.001,0.0144,-0.0037,-0.47,-29.42,-5.83,89.45,-2.5,-0.63
19801,51.996727,-2.120344,66,13.01,9.0,78.8,15 / 24,1980141,2019-08-31 10:23:20:220,0.1004,-0.0668,10.5446,-0.0084,-0.0432,9.8066,0.0032,-0.0058,-0.0335,-1.86,-29.16,-6.8,93.32,-2.51,-0.7
19802,51.996727,-2.120344,66,13.01,9.0,78.8,15 / 24,1980241,2019-08-31 10:23:20:320,0.3157,0.4739,9.6565,0.0011,-0.1031,9.8061,-0.0022,-0.0463,-0.0026,-0.51,-29.34,-6.26,93.32,-2.51,-0.7
19803,51.996727,-2.120344,66,13.01,9.0,78.8,15 / 24,1980341,2019-08-31 10:23:20:420,0.3643,0.1647,9.6255,-0.0089,-0.0748,9.8064,0.0053,0.04,0.0165,0.29,-29.34,-6.26,89.54,-2.08,-0.78
19804,51.996727,-2.120344,66,13.01,9.0,78.8,15 / 24,1980442,2019-08-31 10:23:20:521,0.8067,0.3872,9.7116,0.0161,0.0492,9.8065,0.0383,0.0229,-0.0165,0.29,-29.34,-6.26,89.54,-2.08,-0.78
19805,51.996727,-2.120344,66,13.01,9.0,78.8,15 / 24,1980541,2019-08-31 10:23:20:620,0.79,0.316,9.8332,0.0439,0.0034,9.8066,-0.0075,-0.0346,-0.0176,-0.54,-29.46,-5.66,91.46,-2.37,-0.69
19806,51.996727,-2.120344,66,13.01,9.0,78.8,15 / 24,1980641,2019-08-31 10:23:20:720,0.1161,0.2147,10.3575,0.0701,-0.0146,9.8064,-0.0075,-0.0346,-0.0176,1.1,-29.11,-7.19,87.47,-2.27,-0.28
19807,51.996727,-2.120344,66,13.01,9.0,78.8,15 / 24,1980741,2019-08-31 10:23:20:820,0.0683,-0.2012,10.1218,-0.0659,-0.0034,9.8064,-0.0181,0.0144,-0.0335,1.1,-29.11,-7.19,87.47,-2.27,-0.28
19808,51.996727,-2.120344,66,13.01,9.0,78.8,15 / 24,1980841,2019-08-31 10:23:20:920,-0.2227,-0.5279,9.7014,-0.0244,0.0019,9.8066,-0.0235,0.0069,0.0208,2.65,-29.23,-6.23,83.6,-2.23,-0.66
19809,51.996727,-2.120344,66,13.01,9.0,78.8,15 / 24,1980940,2019-08-31 10:23:21:019,-0.1139,-0.0159,9.1851,0.0139,-0.006,9.8066,0.0532,-0.0016,0.0219,2.65,-29.23,-6.23,83.6,-2.23,-0.66
19810,51.996727,-2.120344,66,13.01,9.0,78.8,15 / 24,1981041,2019-08-31 10:23:21:120,0.6803,0.2748,9.5201,0.0255,0.0182,9.8066,0.0106,-0.0303,-0.0133,1.69,-29.27,-6.37,85.57,-2.21,-0.58
19811,51.996754,-2.120157,66,13.15,9.0,79.2,15 / 24,1981140,2019-08-31 10:23:21:219,0.5577,-0.1013,10.699,0.0087,-0.016,9.8066,0.0159,-0.0239,-0.0101,-3.81,-29.11,-6.19,97.37,-2.33,-0.44
19812,51.996754,-2.120157,66,13.15,9.0,79.2,15 / 24,1981241,2019-08-31 10:23:21:320,0.2484,-0.1182,9.0379,0.0042,-0.0236,9.8066,-0.0064,-0.0154,-0.0133,-5.16,-29.35,-3.5,97.37,-2.33,-0.44
19813,51.996754,-2.120157,66,13.15,9.0,79.2,15 / 24,1981341,2019-08-31 10:23:21:420,0.0779,-0.1602,9.93,0.006,-0.0318,9.8066,-0.0331,0.0016,0.0123,-4.89,-29.46,-2.88,99.55,-2.14,-0.43
19814,51.996754,-2.120157,66,13.15,9.0,79.2,15 / 24,1981441,2019-08-31 10:23:21:520,-0.3031,-0.47,9.4086,-0.0039,0.0148,9.8066,-0.0331,0.0016,0.0123,-4.89,-29.46,-2.88,99.55,-2.14,-0.43
19815,51.996754,-2.120157,66,13.15,9.0,79.2,15 / 24,1981542,2019-08-31 10:23:21:621,0.2053,-0.0229,9.2155,-0.0091,0.0385,9.8066,-0.0149,0.0112,0.0069,-0.44,-29.85,-3.01,89.76,-2.23,-0.44
19816,51.996754,-2.120157,66,13.15,9.0,79.2,15 / 24,1981641,2019-08-31 10:23:21:720,0.0895,0.112,9.6308,-0.0051,0.0815,9.8063,0.0223,0.0453,-0.0016,1.31,-29.81,-3.1,87.8,-2.7,-0.47
19817,51.996754,-2.120157,66,13.15,9.0,79.2,15 / 24,1981741,2019-08-31 10:23:21:820,0.7037,0.2574,8.9307,0.0491,0.0402,9.8064,0.0032,0.0006,0.0293,1.31,-29.81,-3.1,87.8,-2.7,-0.47
19818,51.996754,-2.120157,66,13.15,9.0,79.2,15 / 24,1981841,2019-08-31 10:23:21:920,0.3253,-0.3587,10.1643,0.0239,-0.0676,9.8064,0.0138,-0.1017,-0.0069,1.23,-29.83,-2.91,87.81,-2.87,-0.02
19819,51.996754,-2.120157,66,13.15,9.0,79.2,15 / 24,1981941,2019-08-31 10:23:22:020,0.4203,-0.2168,9.4948,0.0162,-0.0301,9.8066,0.0106,-0.0367,-0.0112,2.18,-29.48,-5.12,85.64,-2.48,0.13
19820,51.996754,-2.120157,66,13.15,9.0,79.2,15 / 23,1982041,2019-08-31 10:23:22:120,-0.1144,-0.4461,9.5922,0.0158,-0.0446,9.8065,0.0277,-0.0261,0.0037,2.18,-29.48,-5.12,85.64,-2.48,0.13
19821,51.996777,-2.119963,66,13.31,9.0,79.0,15 / 23,1982141,2019-08-31 10:23:22:220,0.5584,0.2925,9.2646,0.0482,-0.0358,9.8065,0.0287,0.0133,-0.0005,1.19,-29.61,-4.69,87.73,-2.23,0.24
19822,51.996777,-2.119963,66,13.31,9.0,79.0,15 / 23,1982241,2019-08-31 10:23:22:320,0.9566,0.4015,8.9297,0.0699,-0.037,9.8063,-0.0565,-0.0005,0.0123,2.12,-29.68,-3.8,85.95,-2.03,0.66
19823,51.996777,-2.119963,66,13.31,9.0,79.0,15 / 23,1982341,2019-08-31 10:23:22:420,-0.0098,-0.0732,10.8405,-0.0156,0.0233,9.8066,-0.0565,-0.0005,0.0123,3.01,-29.59,-3.94,85.95,-2.03,0.66
19824,51.996777,-2.119963,66,13.31,9.0,79.0,15 / 23,1982441,2019-08-31 10:23:22:520,-0.0313,0.0863,10.6063,-0.0396,0.0504,9.8064,-0.0288,0.0368,0.0091,3.01,-29.59,-3.94,85.95,-2.03,0.66
19825,51.996777,-2.119963,66,13.31,9.0,79.0,15 / 23,1982541,2019-08-31 10:23:22:620,-0.0475,0.1719,9.9145,0.0252,0.0202,9.8066,-0.0416,-0.0112,0.0251,2.05,-29.56,-4.69,85.83,-2.31,0.41
19826,51.996777,-2.119963,66,13.31,9.0,79.0,15 / 23,1982641,2019-08-31 10:23:22:720,-0.2851,-0.2568,10.1627,0.0353,-0.004,9.8066,0.0106,-0.0101,-0.0122,0.3,-29.78,-3.63,85.83,-2.31,0.41
19827,51.996777,-2.119963,66,13.31,9.0,79.0,15 / 23,1982741,2019-08-31 10:23:22:820,0.3751,0.132,10.2578,0.0202,0.0049,9.8066,-0.0054,0.0091,0.0101,-1.15,-29.66,-4.36,91.61,-2.34,0.52
19828,51.996777,-2.119963,66,13.31,9.0,79.0,15 / 23,1982841,2019-08-31 10:23:22:920,-0.3455,0.0121,10.0608,-0.0093,0.0127,9.8066,0.0213,-0.0112,0.0144,-1.15,-29.66,-4.36,91.61,-2.34,0.52
19829,51.996777,-2.119963,66,13.31,9.0,79.0,15 / 23,1982942,2019-08-31 10:23:23:021,0.3797,0.0171,10.1189,0.0326,0.009,9.8066,0.0213,-0.0112,0.0144,-0.38,-29.66,-4.48,89.7,-2.42,0.47
19830,51.9968,-2.119769,66,13.5,9.0,78.6,15 / 23,1983041,2019-08-31 10:23:23:120,0.6023,0.0219,10.3725,0.1009,0.0178,9.8061,0.0277,0.0038,0.0037,0.3,-29.08,-7.39,89.7,-2.42,0.47
19831,51.9968,-2.119769,66,13.5,9.0,78.6,15 / 24,1983140,2019-08-31 10:23:23:219,-0.3732,-0.0255,9.3846,-0.0203,-0.0244,9.8066,-0.0213,-0.0644,-0.0101,-0.39,-29.51,-5.4,89.63,-2.53,1.06
19832,51.9968,-2.119769,66,13.5,9.0,78.6,15 / 24,1983241,2019-08-31 10:23:23:320,0.0205,0.0279,10.0143,-0.0058,0.0209,9.8066,-0.0309,0.0123,0.0346,0.3,-29.29,-6.46,89.55,-2.38,0.94
19833,51.9968,-2.119769,66,13.5,9.0,78.6,15 / 24,1983342,2019-08-31 10:23:23:421,-0.063,-0.2045,10.2822,0.0017,0.0431,9.8066,0.0074,0.0176,-0.0005,0.3,-29.29,-6.46,89.55,-2.38,0.94
19834,51.9968,-2.119769,66,13.5,9.0,78.6,15 / 24,1983440,2019-08-31 10:23:23:519,0.1288,0.418,9.7327,0.0217,0.0205,9.8066,0.0404,0.0293,-0.008,0.29,-29.19,-6.91,89.41,-2.64,0.95
19835,51.9968,-2.119769,66,13.5,9.0,78.6,15 / 24,1983541,2019-08-31 10:23:23:620,0.1521,0.1691,9.5839,0.0348,0.0499,9.8065,0.0085,0.0293,0.0048,0.28,-29.23,-6.74,89.36,-2.93,1.15
19836,51.9968,-2.119769,66,13.5,9.0,78.6,15 / 24,1983641,2019-08-31 10:23:23:720,-0.1934,-0.1781,9.4262,-0.0001,0.037,9.8066,0.0096,0.0101,0.024,0.28,-29.23,-6.74,89.36,-2.93,1.15
19837,51.9968,-2.119769,66,13.5,9.0,78.6,15 / 24,1983741,2019-08-31 10:23:23:820,0.6022,0.0786,9.145,0.0207,0.0204,9.8066,0.0096,0.0101,0.024,-1.17,-29.17,-6.91,91.27,-3.15,1.15
19838,51.9968,-2.119769,66,13.5,9.0,78.6,15 / 24,1983841,2019-08-31 10:23:23:920,0.2132,0.062,8.9776,0.0251,-0.0084,9.8066,-0.0032,-0.0591,0.0027,-3.62,-29.12,-6.25,97.25,-3.09,1.3
19839,51.9968,-2.119769,66,13.5,9.0,78.6,15 / 24,1983941,2019-08-31 10:23:24:020,-0.4612,-0.2771,10.0298,-0.0096,-0.0238,9.8066,-0.0128,-0.0506,0.0037,-3.62,-29.12,-6.25,97.25,-3.09,1.3
19840,51.996834,-2.11957,65,13.63,9.0,78.0,15 / 24,1984042,2019-08-31 10:23:24:121,0.3672,0.2387,10.583,0.0117,0.0139,9.8066,-0.0128,0.0069,0.0229,-2.15,-29.55,-4.69,93.37,-2.93,1.2
19841,51.996834,-2.11957,65,13.63,9.0,78.0,15 / 24,1984141,2019-08-31 10:23:24:220,0.0812,-0.6414,11.3107,0.0088,0.0133,9.8066,-0.0139,0.0112,0.0176,-0.45,-29.55,-5.14,89.57,-3.01,1.27
19842,51.996834,-2.11957,65,13.63,9.0,78.0,15 / 24,1984241,2019-08-31 10:23:24:320,0.245,-0.2899,9.551,0.0009,-0.0003,9.8067,-0.0118,-0.0112,0.0059,1.28,-29.12,-7.1,89.57,-3.01,1.27
19843,51.996834,-2.11957,65,13.63,9.0,78.0,15 / 24,1984341,2019-08-31 10:23:24:420,-0.3668,-0.2498,8.7338,0.0215,-0.0101,9.8066,-0.0714,0.0389,0.0293,2.09,-29.17,-6.68,85.45,-2.95,1.4
19844,51.996834,-2.11957,65,13.63,9.0,78.0,15 / 24,1984440,2019-08-31 10:23:24:519,1.4127,0.2337,8.3708,-0.0167,-0.026,9.8066,0.0671,-0.0591,0.0187,1.15,-29.49,-5.41,85.45,-2.95,1.4
19845,51.996834,-2.11957,65,13.63,9.0,78.0,15 / 24,1984541,2019-08-31 10:23:24:620,-0.2401,0.5677,12.0481,-0.0316,-0.1164,9.8059,0.0671,-0.0591,0.0187,1.15,-29.49,-5.41,85.45,-2.95,1.4
19846,51.996834,-2.11957,65,13.63,9.0,78.0,15 / 24,1984641,2019-08-31 10:23:24:720,-0.6502,-0.6559,9.1599,-0.017,-0.0355,9.8066,-0.0213,-0.0719,0.0123,0.29,-29.56,-5.13,89.67,-2.26,1.27
19847,51.996834,-2.11957,65,13.63,9.0,78.0,15 / 24,1984743,2019-08-31 10:23:24:822,-0.2248,-0.9322,10.1545,-0.0307,-0.0443,9.8065,-0.0458,0.0176,0.0037,1.12,-29.49,-5.4,89.67,-2.26,1.27
19848,51.996834,-2.11957,65,13.63,9.0,78.0,15 / 24,1984841,2019-08-31 10:23:24:920,-0.2428,-0.0256,9.5049,-0.0135,-0.0847,9.8063,-0.0213,0.024,0.0251,1.12,-29.49,-5.4,89.67,-2.26,1.27
19849,51.996834,-2.11957,65,13.63,9.0,78.0,15 / 24,1984941,2019-08-31 10:23:25:020,0.0593,0.2579,9.5246,0.0072,0.0383,9.8066,0.0032,0.0101,0.0251,1.16,-29.63,-4.58,87.84,-1.76,1.19
19850,51.996845,-2.119362,65,13.88,9.0,77.8,15 / 24,1985041,2019-08-31 10:23:25:120,0.1401,-0.3558,10.1044,0.0205,-0.0276,9.8066,0.017,-0.0559,-0.0037,1.18,-29.46,-5.54,87.67,-1.99,1.22
19851,51.996845,-2.119362,65,13.88,9.0,77.8,15 / 24,1985142,2019-08-31 10:23:25:221,-0.1332,0.0393,9.1099,-0.0108,-0.0117,9.8066,-0.0245,-0.0197,0.0251,2.83,-29.38,-5.39,83.85,-1.83,1.35
19852,51.996845,-2.119362,65,13.88,9.0,77.8,15 / 24,1985241,2019-08-31 10:23:25:320,-0.0504,-0.1552,10.9144,-0.0079,-0.0115,9.8066,0.0298,-0.058,-0.0058,2.83,-29.38,-5.39,83.85,-1.83,1.35
19853,51.996845,-2.119362,65,13.88,9.0,77.8,15 / 24,1985341,2019-08-31 10:23:25:420,0.6744,0.319,10.2786,0.019,-0.0529,9.8065,0.0298,-0.058,-0.0058,2.74,-29.23,-6.16,83.8,-1.76,1.31
19854,51.996845,-2.119362,65,13.88,9.0,77.8,15 / 24,1985441,2019-08-31 10:23:25:520,0.4762,0.1137,8.2639,0.0047,-0.0181,9.8066,0.0064,0.0038,-0.008,0.3,-29.35,-6.19,89.74,-1.46,1.45
19855,51.996845,-2.119362,65,13.88,9.0,77.8,15 / 24,1985541,2019-08-31 10:23:25:620,0.0212,0.6757,10.4899,0.0132,-0.0321,9.8066,0.0468,0.0144,-0.0186,0.29,-29.39,-6.03,89.74,-1.46,1.45
19856,51.996845,-2.119362,65,13.88,9.0,77.8,15 / 24,1985641,2019-08-31 10:23:25:720,-0.3176,-0.2734,9.2199,0.0211,-0.0298,9.8066,-0.0448,-0.0666,0.0496,0.3,-29.66,-4.46,89.86,-1.29,1.58
19857,51.996845,-2.119362,65,13.88,9.0,77.8,15 / 24,1985742,2019-08-31 10:23:25:821,0.0872,-0.4351,10.0681,0.0166,-0.01,9.8066,-0.0118,-0.0367,-0.0026,1.23,-29.73,-3.81,89.86,-1.29,1.58
19858,51.996845,-2.119362,65,13.88,9.0,77.8,15 / 24,1985841,2019-08-31 10:23:25:920,-0.2368,-0.2323,9.6237,0.0041,-0.043,9.8066,-0.049,0.0357,0.0261,1.23,-29.73,-3.81,89.86,-1.29,1.58
19859,51.996845,-2.119362,65,13.88,9.0,77.8,15 / 24,1985940,2019-08-31 10:23:26:019,0.4306,0.017,10.4343,-0.0325,0.0187,9.8066,-0.0171,0.0538,0.0006,2.99,-29.31,-5.68,83.95,-1.0,1.54
19860,51.996876,-2.119158,66,13.75,9.0,77.4,15 / 24,1986041,2019-08-31 10:23:26:120,-0.1527,-0.2227,9.8445,-0.0261,0.0225,9.8066,-0.0149,-0.0165,0.0219,3.55,-29.15,-6.15,81.99,-1.09,1.34
19861,51.996876,-2.119158,66,13.75,9.0,77.4,15 / 24,1986141,2019-08-31 10:23:26:220,-0.3148,0.4855,10.1151,-0.0368,0.0791,9.8063,-0.0149,-0.0165,0.0219,3.55,-29.15,-6.15,81.99,-1.09,1.34
19862,51.996876,-2.119158,66,13.75,9.0,77.4,15 / 24,1986241,2019-08-31 10:23:26:320,-0.0113,0.827,9.4352,0.0067,0.0867,9.8063,0.0042,0.0336,0.0155,0.41,-29.42,-5.88,89.71,-1.52,1.06
19863,51.996876,-2.119158,66,13.75,9.0,77.4,15 / 24,1986341,2019-08-31 10:23:26:420,-0.0406,0.2902,9.5416,-0.002,0.1398,9.8057,-0.0256,0.0069,0.0165,-1.14,-29.42,-5.75,89.71,-1.52,1.06
19864,51.996876,-2.119158,66,13.75,9.0,77.4,15 / 24,1986441,2019-08-31 10:23:26:520,-0.4333,-0.1653,9.6343,0.0006,0.0031,9.8067,0.0106,-0.0527,0.0187,-1.98,-29.49,-5.12,93.57,-2.34,1.04
19865,51.996876,-2.119158,66,13.75,9.0,77.4,15 / 24,1986541,2019-08-31 10:23:26:620,-0.0958,-0.2157,9.4518,0.0033,-0.0378,9.8066,-0.0245,-0.0218,0.0048,-0.41,-29.48,-5.57,89.6,-2.12,1.05
19866,51.996876,-2.119158,66,13.75,9.0,77.4,15 / 24,1986641,2019-08-31 10:23:26:720,0.2678,-0.0456,10.394,-0.0233,-0.0284,9.8066,-0.0139,-0.09,0.0155,-1.32,-29.6,-4.69,91.61,-1.95,0.91
19867,51.996876,-2.119158,66,13.75,9.0,77.4,15 / 24,1986741,2019-08-31 10:23:26:820,-0.2624,-0.3629,9.4874,-0.0019,-0.0129,9.8066,0.001,-0.0506,0.0059,0.49,-29.6,-4.83,91.61,-1.95,0.91
19868,51.996876,-2.119158,66,13.75,9.0,77.4,15 / 24,1986841,2019-08-31 10:23:26:920,-0.3456,-0.0152,9.6691,0.0046,-0.0418,9.8066,0.0106,0.0016,-0.0069,0.49,-29.6,-4.83,91.61,-1.95,0.91
19869,51.996876,-2.119158,66,13.75,9.0,77.4,15 / 24,1986940,2019-08-31 10:23:27:019,0.3485,0.458,11.0563,0.0145,0.0529,9.8065,0.0106,0.0016,-0.0069,3.9,-29.38,-4.67,81.91,-1.7,0.93
19870,51.996876,-2.119158,66,13.75,9.0,77.4,15 / 24,1987041,2019-08-31 10:23:27:120,-0.1486,-0.0079,9.8758,0.0098,0.0624,9.8064,0.0,0.0773,0.0069,2.01,-29.6,-4.44,85.96,-2.02,0.97
19871,51.99691,-2.118962,65,13.77,9.0,77.0,15 / 24,1987141,2019-08-31 10:23:27:220,-0.1376,0.0386,9.1083,0.0052,0.0963,9.8062,-0.0213,0.0219,0.0176,2.01,-29.6,-4.44,85.96,-2.02,0.97
19872,51.99691,-2.118962,65,13.77,9.0,77.0,15 / 24,1987241,2019-08-31 10:23:27:320,-0.1981,0.2122,10.1009,-0.0259,0.0056,9.8066,-0.0224,-0.0207,0.0059,0.43,-29.38,-6.06,89.51,-2.58,0.97
19873,51.99691,-2.118962,65,13.77,9.0,77.0,15 / 24,1987341,2019-08-31 10:23:27:420,-0.2503,0.1398,10.2475,-0.041,0.0279,9.8065,0.0117,0.0123,-0.0197,-0.42,-29.78,-3.57,89.67,-2.75,0.72
19874,51.99691,-2.118962,65,13.77,9.0,77.0,15 / 24,1987441,2019-08-31 10:23:27:520,0.2502,0.5259,9.9421,-0.0231,0.0184,9.8066,-0.0405,-0.0303,0.0112,-1.3,-29.86,-2.55,89.67,-2.75,0.72
19875,51.99691,-2.118962,65,13.77,9.0,77.0,15 / 24,1987541,2019-08-31 10:23:27:620,-0.6241,0.7187,10.3501,-0.0671,0.0006,9.8064,0.0128,-0.0026,-0.0335,-2.31,-29.9,-0.68,93.73,-2.75,0.33
19876,51.99691,-2.118962,65,13.77,9.0,77.0,15 / 24,1987641,2019-08-31 10:23:27:720,0.3394,-0.357,9.0461,-0.0606,-0.0541,9.8063,0.0128,-0.0026,-0.0335,-2.31,-29.9,-0.68,93.73,-2.75,0.33
19877,51.99691,-2.118962,65,13.77,9.0,77.0,15 / 24,1987740,2019-08-31 10:23:27:819,0.2207,0.0614,10.1611,-0.0788,-0.0789,9.806,-0.0789,-0.0154,0.0059,-0.44,-29.99,-0.68,89.92,-2.32,-0.16
19878,51.99691,-2.118962,65,13.77,9.0,77.0,15 / 24,1987842,2019-08-31 10:23:27:921,0.2444,1.0302,13.4101,-0.0626,-0.0123,9.8064,0.0607,-0.0378,-0.0165,2.09,-29.9,1.28,86.24,-2.24,-0.52
19879,51.99691,-2.118962,65,13.77,9.0,77.0,15 / 24,1987941,2019-08-31 10:23:28:020,-0.1917,-0.0203,10.96,0.0228,0.0002,9.8066,0.017,0.0272,0.0219,3.83,-29.71,-1.66,82.24,-2.25,-0.39
19880,51.99691,-2.118962,65,13.77,9.0,77.0,15 / 24,1988041,2019-08-31 10:23:28:120,-0.029,0.539,10.2875,0.0448,-0.0199,9.8065,0.0202,0.0112,-0.0314,3.83,-29.71,-1.66,82.24,-2.25,-0.39
19881,51.99695,-2.118773,65,13.94,9.0,77.2,15 / 24,1988141,2019-08-31 10:23:28:220,0.8163,0.4661,10.4722,0.0486,0.0345,9.8065,0.033,0.1295,-0.0144,3.92,-29.69,-1.7,82.24,-2.49,-0.14
19882,51.99695,-2.118773,65,13.94,9.0,77.2,15 / 24,1988241,2019-08-31 10:23:28:320,0.0349,0.2945,10.8266,0.0458,0.1255,9.8057,0.0128,-0.0676,-0.025,1.23,-29.85,-2.76,82.24,-2.49,-0.14
19883,51.99695,-2.118773,65,13.94,9.0,77.2,15 / 24,1988341,2019-08-31 10:23:28:420,-0.7155,-0.0526,8.5967,-0.0073,-0.0473,9.8065,0.0128,-0.0676,-0.025,-0.44,-29.94,-1.77,89.78,-3.38,0.03
19884,51.99695,-2.118773,65,13.94,9.0,77.2,15 / 24,1988441,2019-08-31 10:23:28:520,0.126,0.1327,8.9292,0.0339,-0.0079,9.8066,0.0394,-0.057,-0.009,2.27,-29.77,-2.94,85.88,-3.11,-0.01
