,GPS LATITUDE (degrees),GPS LONGITUDE (degrees), GPS ALTITUDE (m),GPS SPEED (Kmh),GPS ACCURACY (m),GPS ORIENTATION (Â°), SATELLITES IN RANGE, TIME SINCE START (ms), DATE (YYYY-MO-DD HH-MI-SS_SSS),ACCELEROMETER X (m/s²) , ACCELEROMETER Y (m/s²), ACCELEROMETER Z (m/s²), GRAVITY X (m/s²), GRAVITY Y (m/s²), GRAVITY Z (m/s²), GYROSCOPE Yaw (rad/s), GYROSCOPE Pitch (rad/s), GYROSCOPE Roll (rad/s)
97690,47.113125,-2.035263,73.54,9.88,10.72,302.6,18 / 22,9770197,2019-08-18 17:56:32:734,0.443,-0.498,9.6154,0.1163,0.028,9.8059,0.0026,0.0263,-0.0132
97691,47.113125,-2.035263,73.54,9.88,10.72,302.6,18 / 22,9770297,2019-08-18 17:56:32:834,0.4705,0.1754,10.1918,0.0878,0.05,9.8061,0.0639,-0.0201,-0.0149
97692,47.113125,-2.035263,73.54,9.88,10.72,302.6,18 / 22,9770397,2019-08-18 17:56:32:934,-0.1735,-0.2352,10.4102,0.1028,0.082,9.8058,0.053,-0.0148,-0.0139
97693,47.113125,-2.035263,73.54,9.88,10.72,302.6,18 / 22,9770497,2019-08-18 17:56:33:034,-0.1089,0.0629,10.3809,0.0911,0.1187,9.8055,0.0008,0.0051,-0.0048
97694,47.113125,-2.035263,73.54,9.88,10.72,302.6,18 / 22,9770597,2019-08-18 17:56:33:134,-0.0101,0.4232,10.5102,0.0844,0.1166,9.8056,-0.0401,-0.0226,-0.0079
97695,47.113125,-2.035263,73.54,9.88,10.72,302.6,18 / 22,9770697,2019-08-18 17:56:33:234,-0.3471,-0.0096,9.4927,0.0705,0.084,9.806,0.0044,-0.0031,-0.0025
97696,47.113125,-2.035263,73.54,9.88,10.72,302.6,18 / 22,9770797,2019-08-18 17:56:33:334,0.8315,-0.7596,8.9264,0.0852,0.072,9.806,0.0028,0.019,0.0038
97697,47.113125,-2.035263,73.54,9.88,10.72,302.6,18 / 22,9770897,2019-08-18 17:56:33:434,0.1473,-0.0162,8.8115,0.0626,0.059,9.8063,0.0208,0.0664,0.0016
97698,47.113125,-2.035263,73.54,9.88,10.72,302.6,18 / 22,9770997,2019-08-18 17:56:33:534,-0.2484,0.1365,9.9188,0.0125,0.0721,9.8064,0.0277,0.0129,0.009
97699,47.113125,-2.035263,73.54,9.88,10.72,302.6,18 / 22,9771096,2019-08-18 17:56:33:633,-0.5374,0.1718,10.2858,-0.0327,0.1383,9.8056,0.0859,0.0232,0.0146
97700,47.113125,-2.035263,73.54,9.88,10.72,302.6,18 / 22,9771197,2019-08-18 17:56:33:734,-0.2094,0.2807,11.1632,-0.042,0.1691,9.8051,0.0194,-0.0086,-0.001
97701,47.113125,-2.035263,73.54,9.88,10.72,302.6,18 / 22,9771297,2019-08-18 17:56:33:834,-0.6907,0.1335,9.6854,-0.0288,0.1893,9.8048,0.0089,-0.0329,-0.0001
97702,47.113125,-2.035263,73.54,9.88,10.72,302.6,18 / 22,9771397,2019-08-18 17:56:33:934,-0.1268,-0.1844,9.5124,-0.0133,0.1849,9.8049,-0.0314,-0.0236,-0.0036
97703,47.113125,-2.035263,73.54,9.88,10.72,302.6,18 / 22,9771497,2019-08-18 17:56:34:034,-0.3076,-0.228,8.7259,-0.0083,0.1424,9.8056,-0.0481,0.0026,0.0016
97704,47.113125,-2.035263,73.54,9.88,10.72,302.6,18 / 22,9771597,2019-08-18 17:56:34:134,-0.7793,-0.4256,8.9384,-0.0116,0.1079,9.806,-0.0471,0.0204,0.0018
97705,47.113125,-2.035263,73.54,9.88,10.72,302.6,18 / 22,9771697,2019-08-18 17:56:34:234,-0.9516,-0.5088,9.9697,-0.0766,0.0441,9.8063,-0.0426,0.0104,-0.0011
97706,47.113125,-2.035263,73.54,9.88,10.72,302.6,18 / 22,9771797,2019-08-18 17:56:34:334,-0.7589,-0.8541,10.3193,-0.0961,0.0141,9.8062,-0.0316,-0.0222,-0.0016
97707,47.113125,-2.035263,73.54,9.88,10.72,302.6,18 / 22,9771898,2019-08-18 17:56:34:435,-0.8625,-0.5608,10.4761,-0.1035,-0.0193,9.8061,0.0189,0.012,0.0002
97708,47.113125,-2.035263,73.54,9.88,10.72,302.6,18 / 22,9771997,2019-08-18 17:56:34:534,-0.8331,-0.2526,9.5609,-0.1269,-0.0158,9.8058,0.0121,0.0213,0.0033
97709,47.113125,-2.035263,73.54,9.88,10.72,302.6,19 / 22,9772096,2019-08-18 17:56:34:633,-0.8966,-0.2658,9.6615,-0.1714,-0.0139,9.8051,0.0227,0.0096,0.0015
97710,47.113125,-2.035263,73.54,9.88,10.72,302.6,19 / 22,9772197,2019-08-18 17:56:34:734,-0.8631,-0.3118,9.8147,-0.1858,-0.007,9.8049,0.0056,-0.0217,0.0017
97711,47.113125,-2.035263,73.54,9.88,10.72,302.6,19 / 22,9772297,2019-08-18 17:56:34:834,-0.9439,-0.4992,10.3103,-0.1565,-0.0377,9.8053,-0.0532,-0.0698,-0.0078
97712,47.113125,-2.035263,73.54,9.88,10.72,302.6,19 / 22,9772397,2019-08-18 17:56:34:934,-0.7697,-0.6027,9.7668,-0.1249,-0.0806,9.8055,-0.034,-0.0381,-0.0053
97713,47.113125,-2.035263,73.54,9.88,10.72,302.6,19 / 22,9772497,2019-08-18 17:56:35:034,-0.4028,-0.7769,9.7249,-0.1418,-0.1264,9.8048,0.0035,0.0345,-0.0024
97714,47.113125,-2.035263,73.54,9.88,10.72,302.6,19 / 22,9772597,2019-08-18 17:56:35:134,-0.5392,-0.8338,9.3263,-0.1776,-0.1236,9.8043,-0.0113,-0.0103,0.0025
97715,47.113125,-2.035263,73.54,9.88,10.72,302.6,19 / 22,9772697,2019-08-18 17:56:35:234,-0.4902,-0.2987,9.5501,-0.1936,-0.1329,9.8038,0.0192,0.0054,0.0024
97716,47.113125,-2.035263,73.54,9.88,10.72,302.6,19 / 22,9772797,2019-08-18 17:56:35:334,-0.881,-0.2622,10.4378,-0.2122,-0.1359,9.8034,-0.0335,-0.0064,-0.0022
97717,47.113125,-2.035263,73.54,9.88,10.72,302.6,19 / 22,9772897,2019-08-18 17:56:35:434,-0.5859,-0.6704,9.7393,-0.2228,-0.1788,9.8025,-0.0114,-0.0037,-0.0022
97718,47.113125,-2.035263,73.54,9.88,10.72,302.6,19 / 22,9772997,2019-08-18 17:56:35:534,-0.3016,-0.5812,9.1976,-0.2351,-0.18,9.8022,0.0208,0.0406,-0.0005
97719,47.113125,-2.035263,73.54,9.88,10.72,302.6,18 / 21,9773097,2019-08-18 17:56:35:634,-0.3513,-0.5632,9.4801,-0.299,-0.1689,9.8006,0.0157,0.0434,0.001
97720,47.113125,-2.035263,73.54,9.88,10.72,302.6,18 / 21,9773197,2019-08-18 17:56:35:734,-0.6458,-0.7548,9.8602,-0.3306,-0.1513,9.7999,0.0545,0.0549,0.0073
97721,47.113125,-2.035263,73.54,9.88,10.72,302.6,18 / 21,9773297,2019-08-18 17:56:35:834,-1.0833,0.0144,9.9368,-0.3666,-0.0864,9.7994,0.0371,-0.0175,0.0012
97722,47.113125,-2.035263,73.54,9.88,10.72,302.6,18 / 21,9773397,2019-08-18 17:56:35:934,-1.3485,-0.1227,10.19,-0.349,-0.0626,9.8002,0.0003,-0.033,-0.0071
97723,47.113125,-2.035263,73.54,9.88,10.72,302.6,18 / 21,9773497,2019-08-18 17:56:36:034,-0.7248,-0.1784,9.5597,-0.339,-0.0692,9.8005,-0.0333,-0.0149,-0.0111
97724,47.113125,-2.035263,73.54,9.88,10.72,302.6,18 / 21,9773597,2019-08-18 17:56:36:134,-1.1917,-0.0904,9.5813,-0.3628,-0.1229,9.7992,-0.052,-0.006,-0.011
97725,47.113125,-2.035263,73.54,9.88,10.72,302.6,18 / 21,9773697,2019-08-18 17:56:36:234,-0.8942,-0.4812,10.4198,-0.3598,-0.1608,9.7987,-0.0286,-0.0603,-0.003
97726,47.113125,-2.035263,73.54,9.88,10.72,302.6,18 / 21,9773797,2019-08-18 17:56:36:334,-0.7404,-0.2771,10.4318,-0.3079,-0.2164,9.7994,-0.0337,-0.0346,-0.0058
97727,47.113125,-2.035263,73.54,9.88,10.72,302.6,18 / 21,9773897,2019-08-18 17:56:36:434,-0.4554,-0.6871,8.3458,-0.2937,-0.2436,9.7992,-0.0273,0.0002,-0.0042
97728,47.113125,-2.035263,73.54,9.88,10.72,302.6,18 / 21,9773998,2019-08-18 17:56:36:535,-0.6224,-0.3681,9.5543,-0.3566,-0.2637,9.7966,0.0184,0.0732,0.0022
97729,47.113125,-2.035263,73.54,9.88,10.72,302.6,19 / 22,9774099,2019-08-18 17:56:36:636,-0.7206,-0.3783,9.352,-0.4082,-0.2594,9.7947,0.0089,0.0668,0.0033
97730,47.113125,-2.035263,73.54,9.88,10.72,302.6,19 / 22,9774197,2019-08-18 17:56:36:734,-1.3269,-0.1664,10.6227,-0.4965,-0.2232,9.7915,0.0679,0.039,0.0023
97731,47.113125,-2.035263,73.54,9.88,10.72,302.6,19 / 22,9774297,2019-08-18 17:56:36:834,-1.1402,-0.8673,10.8981,-0.5185,-0.1836,9.7912,0.0301,-0.0469,-0.004
97732,47.113125,-2.035263,73.54,9.88,10.72,302.6,19 / 22,9774397,2019-08-18 17:56:36:934,-1.0283,-0.9924,9.6525,-0.4872,-0.1609,9.7932,0.0217,-0.028,-0.002
97733,47.113125,-2.035263,73.54,9.88,10.72,302.6,19 / 22,9774497,2019-08-18 17:56:37:034,-1.0307,-0.3896,9.5381,-0.4832,-0.1673,9.7933,-0.0344,0.0,-0.0054
97734,47.113125,-2.035263,73.54,9.88,10.72,302.6,19 / 22,9774597,2019-08-18 17:56:37:134,-0.7404,-0.6805,9.045,-0.4988,-0.2002,9.7919,-0.0148,0.0257,-0.0061
97735,47.113125,-2.035263,73.54,9.88,10.72,302.6,19 / 22,9774697,2019-08-18 17:56:37:234,-0.8936,-0.8529,9.0258,-0.5291,-0.2357,9.7895,-0.0327,0.0037,-0.0037
97736,47.113125,-2.035263,73.54,9.88,10.72,302.6,19 / 22,9774797,2019-08-18 17:56:37:334,-1.0666,-0.5501,9.6297,-0.5544,-0.2699,9.7872,0.0079,-0.0085,-0.0043
97737,47.113125,-2.035263,73.54,9.88,10.72,302.6,19 / 22,9774898,2019-08-18 17:56:37:435,-1.1444,-1.157,10.278,-0.5575,-0.2698,9.7871,0.0163,-0.0257,-0.0039
97738,47.113125,-2.035263,73.54,9.88,10.72,302.6,19 / 22,9774997,2019-08-18 17:56:37:534,-1.0606,-0.4573,9.7907,-0.522,-0.277,9.7888,-0.019,-0.058,-0.0082
97739,47.113125,-2.035263,73.54,9.88,10.72,302.6,19 / 22,9775097,2019-08-18 17:56:37:634,-0.5973,-0.7368,10.2097,-0.4908,-0.2929,9.79,-0.0146,-0.02,-0.0069
97740,47.113876,-2.036768,64.92,17.18,9.648001,307.7,19 / 22,9775197,2019-08-18 17:56:37:734,-1.0372,-0.6159,9.6052,-0.4967,-0.3482,9.7879,-0.0351,0.0069,-0.0036
97741,47.113876,-2.036768,64.92,17.18,9.648001,307.7,19 / 22,9775297,2019-08-18 17:56:37:834,-0.9618,-0.644,9.1449,-0.51,-0.3691,9.7864,-0.0114,0.0107,-0.0026
97742,47.113876,-2.036768,64.92,17.18,9.648001,307.7,19 / 22,9775397,2019-08-18 17:56:37:934,-1.1372,-0.5872,10.032,-0.5166,-0.3929,9.7851,-0.0053,-0.0444,-0.0006
97743,47.113876,-2.036768,64.92,17.18,9.648001,307.7,19 / 22,9775497,2019-08-18 17:56:38:034,-0.823,-0.5513,10.0792,-0.5046,-0.3986,9.7855,-0.008,-0.0446,-0.0037
97744,47.113876,-2.036768,64.92,17.18,9.648001,307.7,19 / 22,9775597,2019-08-18 17:56:38:134,-0.5015,-0.9331,9.8237,-0.4887,-0.4204,9.7854,0.0332,0.0769,-0.0009
97745,47.113876,-2.036768,64.92,17.18,9.648001,307.7,19 / 22,9775697,2019-08-18 17:56:38:234,-0.5961,-0.6009,7.2517,-0.5721,-0.3978,9.7819,0.0297,0.1097,0.0031
97746,47.113876,-2.036768,64.92,17.18,9.648001,307.7,19 / 22,9775797,2019-08-18 17:56:38:334,-1.3575,-0.1772,10.7616,-0.6446,-0.4058,9.777,0.0578,0.0717,0.0053
97747,47.113876,-2.036768,64.92,17.18,9.648001,307.7,19 / 22,9775897,2019-08-18 17:56:38:434,-1.3479,-0.4339,9.9051,-0.688,-0.3686,9.7755,-0.0126,-0.0594,-0.0108
97748,47.113876,-2.036768,64.92,17.18,9.648001,307.7,19 / 22,9775997,2019-08-18 17:56:38:534,-1.0582,-0.1969,10.9711,-0.6445,-0.3743,9.7783,0.0099,-0.0317,-0.0042
97749,47.113876,-2.036768,64.92,17.18,9.648001,307.7,19 / 22,9776097,2019-08-18 17:56:38:634,-0.8445,-0.6596,10.348,-0.6418,-0.374,9.7785,-0.018,-0.0376,-0.0057
97750,47.113876,-2.036768,64.92,17.18,9.648001,307.7,19 / 22,9776197,2019-08-18 17:56:38:734,-1.4167,-0.3376,9.2778,-0.608,-0.4013,9.7796,-0.0033,-0.0057,-0.0001
97751,47.113876,-2.036768,64.92,17.18,9.648001,307.7,19 / 22,9776297,2019-08-18 17:56:38:834,-1.1647,0.0078,10.0577,-0.6208,-0.4143,9.7782,-0.0206,0.0007,0.0007
97752,47.113876,-2.036768,64.92,17.18,9.648001,307.7,19 / 22,9776397,2019-08-18 17:56:38:934,-0.656,-0.6434,9.3209,-0.6125,-0.4515,9.7771,-0.0282,-0.0291,-0.0018
97753,47.113876,-2.036768,64.92,17.18,9.648001,307.7,19 / 22,9776497,2019-08-18 17:56:39:034,-0.9588,-0.7619,10.1499,-0.6264,-0.4322,9.7771,0.0537,0.0686,0.0003
97754,47.113876,-2.036768,64.92,17.18,9.648001,307.7,19 / 22,9776597,2019-08-18 17:56:39:134,-0.6877,-0.4304,10.7646,-0.6982,-0.3799,9.7744,0.0285,0.025,-0.0017
97755,47.113876,-2.036768,64.92,17.18,9.648001,307.7,19 / 22,9776697,2019-08-18 17:56:39:234,-0.6314,-0.1855,9.9984,-0.683,-0.3597,9.7762,0.0203,-0.0488,0.0054
97756,47.113876,-2.036768,64.92,17.18,9.648001,307.7,19 / 22,9776797,2019-08-18 17:56:39:334,-1.5131,0.085,10.2379,-0.6535,-0.3433,9.7788,-0.0206,0.033,-0.0051
97757,47.113876,-2.036768,64.92,17.18,9.648001,307.7,19 / 22,9776897,2019-08-18 17:56:39:434,-1.0235,-0.4974,9.8793,-0.6878,-0.3568,9.776,-0.0427,-0.0039,-0.0062
97758,47.113876,-2.036768,64.92,17.18,9.648001,307.7,19 / 22,9776997,2019-08-18 17:56:39:534,-0.6937,0.006,9.7339,-0.6872,-0.3792,9.7752,-0.044,-0.0619,-0.0028
97759,47.113876,-2.036768,64.92,17.18,9.648001,307.7,19 / 22,9777097,2019-08-18 17:56:39:634,-0.9187,-0.4944,9.9128,-0.6266,-0.4271,9.7773,-0.0536,-0.065,0.0026
97760,47.113876,-2.036768,64.92,17.18,9.648001,307.7,19 / 22,9777197,2019-08-18 17:56:39:734,-0.9337,-0.0443,9.3741,-0.5966,-0.4551,9.7779,-0.0168,0.0092,0.0138
97761,47.113876,-2.036768,64.92,17.18,9.648001,307.7,19 / 22,9777297,2019-08-18 17:56:39:834,-0.4076,-0.3118,8.9031,-0.6113,-0.4726,9.7762,0.0155,0.0563,0.0179
97762,47.113876,-2.036768,64.92,17.18,9.648001,307.7,19 / 22,9777397,2019-08-18 17:56:39:934,-0.7589,-0.5908,8.863,-0.6508,-0.4656,9.7739,0.0203,0.1022,0.0213
97763,47.113876,-2.036768,64.92,17.18,9.648001,307.7,19 / 22,9777497,2019-08-18 17:56:40:034,-1.1677,-0.0132,9.5549,-0.7803,-0.4403,9.7656,0.0306,0.0751,0.0266
97764,47.113876,-2.036768,64.92,17.18,9.648001,307.7,19 / 22,9777597,2019-08-18 17:56:40:134,-1.1953,0.1898,9.7854,-0.8228,-0.4055,9.7637,0.0349,0.0017,0.0209
97765,47.113876,-2.036768,64.92,17.18,9.648001,307.7,19 / 22,9777697,2019-08-18 17:56:40:234,-0.987,0.0233,10.5695,-0.8356,-0.3449,9.7649,0.0047,-0.0301,0.0152
97766,47.113876,-2.036768,64.92,17.18,9.648001,307.7,19 / 22,9777797,2019-08-18 17:56:40:334,-1.2515,-0.1652,10.6975,-0.8181,-0.33,9.7669,0.0177,-0.0263,0.012
97767,47.113876,-2.036768,64.92,17.18,9.648001,307.7,19 / 22,9777897,2019-08-18 17:56:40:434,-0.7936,-0.7368,10.4043,-0.804,-0.3152,9.7686,0.0173,0.0015,0.0155
97768,47.113876,-2.036768,64.92,17.18,9.648001,307.7,19 / 22,9777997,2019-08-18 17:56:40:534,-0.823,-0.2382,10.0308,-0.8157,-0.3025,9.768,0.0207,0.0071,0.0172
97769,47.113876,-2.036768,64.92,17.18,9.648001,307.7,19 / 22,9778097,2019-08-18 17:56:40:634,-1.121,-0.0605,9.5603,-0.8343,-0.2669,9.7675,0.0372,0.025,0.0178
97770,47.113876,-2.036768,64.92,17.18,9.648001,307.7,19 / 22,9778197,2019-08-18 17:56:40:734,-1.0067,-0.5387,9.5519,-0.8601,-0.2366,9.766,0.0516,0.0234,0.0195
97771,47.113876,-2.036768,64.92,17.18,9.648001,307.7,19 / 22,9778297,2019-08-18 17:56:40:834,-0.893,-0.4705,10.0792,-0.8699,-0.1789,9.7664,0.0371,-0.0217,0.0044
97772,47.113876,-2.036768,64.92,17.18,9.648001,307.7,19 / 22,9778397,2019-08-18 17:56:40:934,-1.4209,-0.0748,10.5689,-0.8613,-0.1548,9.7675,0.0153,-0.0426,0.0033
97773,47.113876,-2.036768,64.92,17.18,9.648001,307.7,19 / 22,9778497,2019-08-18 17:56:41:034,-0.7565,0.1472,10.3629,-0.8009,-0.1638,9.7725,-0.0219,-0.0217,-0.0003
97774,47.113876,-2.036768,64.92,17.18,9.648001,307.7,19 / 22,9778597,2019-08-18 17:56:41:134,-0.732,0.1149,8.8474,-0.7884,-0.1779,9.7733,0.0099,0.0206,-0.0017
97775,47.113876,-2.036768,64.92,17.18,9.648001,307.7,19 / 22,9778697,2019-08-18 17:56:41:234,-0.6314,0.1856,8.623,-0.8497,-0.167,9.7683,-0.0015,0.0598,-0.0041
97776,47.113876,-2.036768,64.92,17.18,9.648001,307.7,19 / 22,9778797,2019-08-18 17:56:41:334,-0.6536,-0.2891,9.4298,-0.8829,-0.1681,9.7654,0.0144,0.0591,0.0021
97777,47.113876,-2.036768,64.92,17.18,9.648001,307.7,19 / 22,9778897,2019-08-18 17:56:41:434,-0.9235,0.4465,10.1828,-0.9505,-0.1294,9.7596,0.0386,0.0186,-0.0045
97778,47.113876,-2.036768,64.92,17.18,9.648001,307.7,19 / 22,9778997,2019-08-18 17:56:41:534,-0.7404,-0.2843,11.0303,-0.9463,-0.1182,9.7602,0.0059,-0.0348,-0.0072
97779,47.113876,-2.036768,64.92,17.18,9.648001,307.7,19 / 22,9779097,2019-08-18 17:56:41:634,-1.2479,-0.0443,10.5503,-0.8882,-0.0963,9.7659,0.0072,-0.0513,-0.0095
97780,47.113876,-2.036768,64.92,17.18,9.648001,307.7,19 / 22,9779197,2019-08-18 17:56:41:734,-1.0857,0.0844,9.7393,-0.8453,-0.1077,9.7696,-0.0473,-0.0429,-0.0088
97781,47.113876,-2.036768,64.92,17.18,9.648001,307.7,19 / 22,9779297,2019-08-18 17:56:41:834,-0.5464,-0.3005,9.358,-0.7954,-0.1673,9.7729,-0.0641,-0.0485,-0.009
97782,47.113876,-2.036768,64.92,17.18,9.648001,307.7,19 / 22,9779397,2019-08-18 17:56:41:934,-0.6284,-0.2101,9.5705,-0.7564,-0.2187,9.775,-0.0325,-0.0215,-0.011
97783,47.113876,-2.036768,64.92,17.18,9.648001,307.7,19 / 22,9779497,2019-08-18 17:56:42:034,-0.7074,-0.6871,9.9685,-0.7295,-0.2553,9.7762,-0.0465,-0.0413,-0.0119
97784,47.113876,-2.036768,64.92,17.18,9.648001,307.7,19 / 22,9779597,2019-08-18 17:56:42:134,-0.5338,-0.3196,9.4759,-0.7016,-0.2871,9.7773,0.0044,0.0094,-0.001
97785,47.113876,-2.036768,64.92,17.18,9.648001,307.7,19 / 22,9779697,2019-08-18 17:56:42:234,-0.0933,-0.407,10.3378,-0.7142,-0.3009,9.776,-0.0187,0.0173,-0.0022
97786,47.113876,-2.036768,64.92,17.18,9.648001,307.7,19 / 22,9779797,2019-08-18 17:56:42:334,-0.7703,-0.3023,9.583,-0.7217,-0.3046,9.7753,0.011,-0.015,-0.0012
97787,47.113876,-2.036768,64.92,17.18,9.648001,307.7,19 / 22,9779897,2019-08-18 17:56:42:434,-0.702,-0.003,10.0236,-0.6968,-0.2813,9.7778,0.0279,-0.0245,-0.001
97788,47.113876,-2.036768,64.92,17.18,9.648001,307.7,19 / 22,9779997,2019-08-18 17:56:42:534,-0.9241,-0.0754,10.1978,-0.6831,-0.2833,9.7787,-0.0499,-0.0192,-0.0035
97789,47.113876,-2.036768,64.92,17.18,9.648001,307.7,19 / 22,9780097,2019-08-18 17:56:42:634,-0.9588,-0.4519,10.2911,-0.6701,-0.3203,9.7785,-0.0468,-0.0147,-0.0032
97790,47.113876,-2.036768,64.92,17.18,9.648001,307.7,19 / 22,9780197,2019-08-18 17:56:42:734,-0.4441,-0.1407,9.9715,-0.6541,-0.3535,9.7784,0.01,0.0004,-0.0028
97791,47.113876,-2.036768,64.92,17.18,9.648001,307.7,19 / 22,9780297,2019-08-18 17:56:42:834,-0.4614,-0.231,9.0815,-0.6514,-0.347,9.7788,0.0189,0.0061,-0.0007
97792,47.113876,-2.036768,64.92,17.18,9.648001,307.7,19 / 22,9780397,2019-08-18 17:56:42:934,-0.6099,-0.5333,10.16,-0.6533,-0.3295,9.7793,0.0163,0.0208,0.0005
97793,47.113876,-2.036768,64.92,17.18,9.648001,307.7,19 / 22,9780498,2019-08-18 17:56:43:035,-0.2214,-0.8535,9.7111,-0.666,-0.3208,9.7788,0.0029,-0.015,-0.0017
97794,47.113876,-2.036768,64.92,17.18,9.648001,307.7,19 / 22,9780597,2019-08-18 17:56:43:134,-0.7027,-0.507,10.4174,-0.6545,-0.3168,9.7797,-0.0079,-0.0273,-0.0045
97795,47.113876,-2.036768,64.92,17.18,9.648001,307.7,19 / 22,9780698,2019-08-18 17:56:43:235,-0.7421,-0.6608,10.6012,-0.6369,-0.327,9.7805,-0.012,-0.0043,-0.0049
97796,47.113876,-2.036768,64.92,17.18,9.648001,307.7,19 / 22,9780797,2019-08-18 17:56:43:334,-0.641,-0.4932,9.6052,-0.6193,-0.3478,9.7809,-0.0182,-0.0233,-0.005
97797,47.113876,-2.036768,64.92,17.18,9.648001,307.7,19 / 22,9780897,2019-08-18 17:56:43:434,-0.7421,-0.4878,10.2205,-0.6054,-0.3488,9.7817,-0.001,-0.0451,-0.0028
97798,47.113876,-2.036768,64.92,17.18,9.648001,307.7,19 / 22,9780997,2019-08-18 17:56:43:534,-0.5841,-0.7296,10.2822,-0.5501,-0.3459,9.7851,0.0103,-0.0437,-0.0038
97799,47.113876,-2.036768,64.92,17.18,9.648001,307.7,19 / 22,9781097,2019-08-18 17:56:43:634,-0.5213,-0.5686,9.5226,-0.5276,-0.343,9.7864,0.0054,-0.011,-0.0054
97800,47.113876,-2.036768,64.92,17.18,9.648001,307.7,19 / 22,9781198,2019-08-18 17:56:43:735,-0.7296,-0.1012,9.7039,-0.5208,-0.3388,9.787,0.0011,0.0078,0.0001
97801,47.113876,-2.036768,64.92,17.18,9.648001,307.7,19 / 22,9781297,2019-08-18 17:56:43:834,-0.6883,-0.3148,9.352,-0.5175,-0.3554,9.7865,-0.0205,-0.0079,-0.0007
97802,47.113876,-2.036768,64.92,17.18,9.648001,307.7,19 / 22,9781397,2019-08-18 17:56:43:934,-0.2322,-0.3909,9.4214,-0.5108,-0.3937,9.7854,-0.0029,0.0527,-0.003
97803,47.113876,-2.036768,64.92,17.18,9.648001,307.7,19 / 22,9781497,2019-08-18 17:56:44:034,-0.5584,-0.3861,9.2449,-0.5491,-0.4013,9.783,-0.0092,0.0554,-0.0034
97804,47.113876,-2.036768,64.92,17.18,9.648001,307.7,19 / 22,9781597,2019-08-18 17:56:44:134,-0.9463,-0.4651,9.7818,-0.5987,-0.4085,9.7798,0.009,0.0363,0.0023
97805,47.113876,-2.036768,64.92,17.18,9.648001,307.7,19 / 22,9781697,2019-08-18 17:56:44:234,-0.6637,-0.3226,10.752,-0.6242,-0.3795,9.7794,0.0376,0.0033,-0.0001
97806,47.113876,-2.036768,64.92,17.18,9.648001,307.7,19 / 22,9781797,2019-08-18 17:56:44:334,-0.6386,-0.1119,10.5736,-0.6062,-0.3402,9.782,0.0311,-0.0226,-0.0023
97807,47.113876,-2.036768,64.92,17.18,9.648001,307.7,19 / 22,9781897,2019-08-18 17:56:44:434,-0.6949,0.1736,10.3983,-0.5973,-0.3211,9.7832,0.0253,0.0016,-0.0104
97808,47.113876,-2.036768,64.92,17.18,9.648001,307.7,19 / 22,9781997,2019-08-18 17:56:44:534,-0.4483,-0.5177,9.6902,-0.5832,-0.3069,9.7845,0.0128,-0.0006,-0.008
97809,47.113876,-2.036768,64.92,17.18,9.648001,307.7,19 / 22,9782097,2019-08-18 17:56:44:634,-0.7439,-0.7093,10.029,-0.5846,-0.3011,9.7846,0.0197,0.011,-0.0049
97810,47.113876,-2.036768,64.92,17.18,9.648001,307.7,19 / 22,9782197,2019-08-18 17:56:44:734,-0.6751,-0.2777,9.4131,-0.5906,-0.2745,9.785,0.0221,-0.006,-0.0057
97811,47.113876,-2.036768,64.92,17.18,9.648001,307.7,19 / 22,9782297,2019-08-18 17:56:44:834,-0.4016,-0.7003,9.6722,-0.5907,-0.2647,9.7853,0.0107,0.0098,-0.0065
97812,47.113876,-2.036768,64.92,17.18,9.648001,307.7,19 / 22,9782397,2019-08-18 17:56:44:934,-0.3794,-0.486,9.5771,-0.6247,-0.2563,9.7834,0.0176,0.0277,-0.0009
97813,47.113876,-2.036768,64.92,17.18,9.648001,307.7,19 / 22,9782497,2019-08-18 17:56:45:034,-0.7236,-0.1622,10.0236,-0.638,-0.2426,9.7829,0.0283,-0.0082,-0.002
97814,47.113876,-2.036768,64.92,17.18,9.648001,307.7,19 / 22,9782597,2019-08-18 17:56:45:134,-0.398,-0.4226,10.0391,-0.6296,-0.2135,9.7841,0.0016,-0.0162,-0.0049
97815,47.113876,-2.036768,64.92,17.18,9.648001,307.7,19 / 22,9782697,2019-08-18 17:56:45:234,-0.717,-0.0946,9.8955,-0.6284,-0.2199,9.784,-0.0141,-0.0036,-0.0031
97816,47.113876,-2.036768,64.92,17.18,9.648001,307.7,19 / 22,9782798,2019-08-18 17:56:45:335,-0.6685,-0.4244,9.9434,-0.6412,-0.2217,9.7832,0.0121,0.0096,-0.0034
97817,47.113876,-2.036768,64.92,17.18,9.648001,307.7,19 / 22,9782897,2019-08-18 17:56:45:434,-0.89,-0.568,10.1349,-0.6371,-0.2172,9.7835,0.0049,-0.0109,-0.0026
97818,47.113876,-2.036768,64.92,17.18,9.648001,307.7,19 / 22,9782997,2019-08-18 17:56:45:534,-0.7864,-0.0413,10.3432,-0.6058,-0.1991,9.7859,0.0181,-0.0354,0.0043
97819,47.113876,-2.036768,64.92,17.18,9.648001,307.7,19 / 22,9783096,2019-08-18 17:56:45:633,-0.7673,0.0281,10.2037,-0.5928,-0.1845,9.787,0.0286,0.0043,0.0016
97820,47.113876,-2.036768,64.92,17.18,9.648001,307.7,19 / 22,9783197,2019-08-18 17:56:45:734,-0.8271,0.0545,9.9751,-0.5976,-0.168,9.787,0.0085,-0.0027,0.0001
97821,47.113876,-2.036768,64.92,17.18,9.648001,307.7,19 / 22,9783297,2019-08-18 17:56:45:834,-0.5728,0.0694,9.7034,-0.5885,-0.1607,9.7877,-0.0115,-0.0031,0.0037
97822,47.113876,-2.036768,64.92,17.18,9.648001,307.7,19 / 22,9783398,2019-08-18 17:56:45:935,-0.4279,-0.1137,8.9348,-0.5908,-0.1644,9.7875,-0.0066,0.0359,0.0102
97823,47.113876,-2.036768,64.92,17.18,9.648001,307.7,19 / 22,9783497,2019-08-18 17:56:46:034,-0.6973,-0.0874,9.1138,-0.6632,-0.1618,9.7829,0.0156,0.06,0.0115
97824,47.113876,-2.036768,64.92,17.18,9.648001,307.7,19 / 22,9783597,2019-08-18 17:56:46:134,-1.1216,0.3681,9.5974,-0.6895,-0.1546,9.7812,0.0077,0.0046,0.0087
97825,47.113876,-2.036768,64.92,17.18,9.648001,307.7,19 / 22,9783697,2019-08-18 17:56:46:234,-1.0791,0.1538,11.4523,-0.6778,-0.1416,9.7822,0.0078,-0.0413,0.0016
97826,47.113876,-2.036768,64.92,17.18,9.648001,307.7,19 / 22,9783797,2019-08-18 17:56:46:334,-1.051,0.1754,12.0604,-0.6382,-0.138,9.7849,0.0002,-0.0855,-0.0048
97827,47.113876,-2.036768,64.92,17.18,9.648001,307.7,19 / 22,9783897,2019-08-18 17:56:46:434,-0.6679,-0.228,10.0541,-0.5411,-0.1505,9.7906,-0.0146,-0.0446,-0.004
97828,47.113876,-2.036768,64.92,17.18,9.648001,307.7,19 / 22,9783997,2019-08-18 17:56:46:534,-0.5039,-0.4082,8.189,-0.5183,-0.1744,9.7914,-0.0555,0.0243,0.0016
97829,47.113876,-2.036768,64.92,17.18,9.648001,307.7,19 / 22,9784097,2019-08-18 17:56:46:634,-0.5734,-0.2909,8.6349,-0.5658,-0.2373,9.7874,-0.0197,0.0491,0.0043
97830,47.114708,-2.038436,58.76,17.88,9.648001,307.1,19 / 22,9784197,2019-08-18 17:56:46:734,-0.7212,-0.4579,8.5661,-0.6034,-0.2397,9.7851,0.0167,0.1003,0.0107
97831,47.114708,-2.038436,58.76,17.88,9.648001,307.1,19 / 22,9784297,2019-08-18 17:56:46:834,-1.6448,-0.5979,11.3099,-0.7282,-0.2165,9.7772,0.0468,0.0974,0.011
97832,47.114708,-2.038436,58.76,17.88,9.648001,307.1,19 / 22,9784397,2019-08-18 17:56:46:934,0.0988,0.0814,11.6247,-0.787,-0.1761,9.7734,0.0221,-0.0847,0.0018
97833,47.114708,-2.038436,58.76,17.88,9.648001,307.1,19 / 22,9784497,2019-08-18 17:56:47:034,-0.7266,-1.5395,10.0349,-0.696,-0.1205,9.7812,0.0515,0.0491,-0.0014
97834,47.114708,-2.038436,58.76,17.88,9.648001,307.1,19 / 22,9784597,2019-08-18 17:56:47:134,-1.4383,-1.1205,8.9773,-0.7164,-0.0867,9.7801,0.0015,0.0835,-0.0035
97835,47.114708,-2.038436,58.76,17.88,9.648001,307.1,19 / 22,9784697,2019-08-18 17:56:47:234,-0.8475,-0.9571,9.4921,-0.8154,-0.0912,9.7723,0.0319,0.0128,0.0087
97836,47.114708,-2.038436,58.76,17.88,9.648001,307.1,19 / 22,9784797,2019-08-18 17:56:47:334,-0.9487,-0.1395,10.2193,-0.8335,-0.0736,9.7709,0.0421,-0.0642,0.0128
97837,47.114708,-2.038436,58.76,17.88,9.648001,307.1,19 / 22,9784897,2019-08-18 17:56:47:434,-1.4389,0.2586,10.1457,-0.746,-0.0295,9.7782,0.0174,-0.0855,0.0001
97838,47.114708,-2.038436,58.76,17.88,9.648001,307.1,19 / 22,9784997,2019-08-18 17:56:47:534,-0.6099,0.6458,9.8919,-0.6783,-0.0362,9.7831,-0.0229,-0.0558,0.004
97839,47.114708,-2.038436,58.76,17.88,9.648001,307.1,18 / 22,9785097,2019-08-18 17:56:47:634,-0.9421,0.2586,9.2329,-0.6719,-0.0826,9.7833,-0.0612,0.0605,0.0228
97840,47.114708,-2.038436,58.76,17.88,9.648001,307.1,18 / 22,9785197,2019-08-18 17:56:47:734,-0.9983,0.1556,9.361,-0.7252,-0.1218,9.779,-0.0472,0.0377,0.0298
97841,47.114708,-2.038436,58.76,17.88,9.648001,307.1,18 / 22,9785296,2019-08-18 17:56:47:833,-0.6566,-0.6728,9.8608,-0.7614,-0.1281,9.7762,0.0417,0.0091,0.0154
97842,47.114708,-2.038436,58.76,17.88,9.648001,307.1,18 / 22,9785397,2019-08-18 17:56:47:934,-0.5614,-0.3579,10.3121,-0.7694,-0.0984,9.7759,0.0418,-0.0007,0.0045
97843,47.114708,-2.038436,58.76,17.88,9.648001,307.1,18 / 22,9785497,2019-08-18 17:56:48:034,-0.7577,-0.1035,10.3235,-0.7652,-0.0505,9.7766,0.0287,0.0028,-0.0085
97844,47.114708,-2.038436,58.76,17.88,9.648001,307.1,18 / 22,9785598,2019-08-18 17:56:48:135,-0.8924,-0.3843,9.6806,-0.7747,-0.0373,9.7759,0.0285,0.0277,-0.0053
97845,47.114708,-2.038436,58.76,17.88,9.648001,307.1,18 / 22,9785697,2019-08-18 17:56:48:234,-1.1037,-0.0557,9.8596,-0.8184,-0.0004,9.7724,0.0367,0.0301,-0.0034
97846,47.114708,-2.038436,58.76,17.88,9.648001,307.1,18 / 22,9785797,2019-08-18 17:56:48:334,-0.899,0.2113,10.0086,-0.8309,0.0127,9.7714,0.0193,-0.0108,-0.0081
97847,47.114708,-2.038436,58.76,17.88,9.648001,307.1,18 / 22,9785897,2019-08-18 17:56:48:434,-0.7272,-0.4944,9.7309,-0.8194,0.0327,9.7723,0.0123,-0.0166,-0.0121
97848,47.114708,-2.038436,58.76,17.88,9.648001,307.1,18 / 22,9785997,2019-08-18 17:56:48:534,-0.5045,-0.2586,9.3257,-0.8123,0.0234,9.7729,-0.0428,0.0236,-0.0163
97849,47.114708,-2.038436,58.76,17.88,9.648001,307.1,18 / 22,9786097,2019-08-18 17:56:48:634,-0.7667,-0.7105,9.3939,-0.8406,-0.0416,9.7705,-0.0421,0.0368,-0.0143
97850,47.114708,-2.038436,58.76,17.88,9.648001,307.1,18 / 22,9786197,2019-08-18 17:56:48:734,-0.7691,-0.3909,10.6114,-0.8551,-0.0605,9.7691,-0.0029,-0.012,-0.0293
97851,47.114708,-2.038436,58.76,17.88,9.648001,307.1,18 / 22,9786297,2019-08-18 17:56:48:834,-0.9642,-0.9595,12.0335,-0.8164,-0.0809,9.7723,0.0167,-0.0422,-0.0431
97852,47.114708,-2.038436,58.76,17.88,9.648001,307.1,18 / 22,9786397,2019-08-18 17:56:48:934,-0.7044,-0.6584,11.1375,-0.7274,-0.1051,9.7791,-0.0216,-0.1243,-0.0552
97853,47.114708,-2.038436,58.76,17.88,9.648001,307.1,18 / 22,9786496,2019-08-18 17:56:49:033,-0.1005,-1.1474,9.209,-0.6514,-0.1283,9.7842,-0.0464,-0.0937,-0.0528
97854,47.114708,-2.038436,58.76,17.88,9.648001,307.1,18 / 22,9786597,2019-08-18 17:56:49:134,-0.4962,-0.9373,9.2377,-0.5693,-0.2076,9.7879,-0.0712,-0.0086,-0.0463
97855,47.114708,-2.038436,58.76,17.88,9.648001,307.1,18 / 22,9786697,2019-08-18 17:56:49:234,0.0815,-0.747,8.5535,-0.5598,-0.2621,9.7871,-0.0532,0.0155,-0.0439
97856,47.114708,-2.038436,58.76,17.88,9.648001,307.1,18 / 22,9786797,2019-08-18 17:56:49:334,-0.1963,-1.4162,9.1658,-0.5844,-0.3224,9.7839,-0.006,0.0267,-0.0441
97857,47.114708,-2.038436,58.76,17.88,9.648001,307.1,18 / 22,9786897,2019-08-18 17:56:49:434,-0.1466,-1.3815,9.5447,-0.5948,-0.3367,9.7828,0.0389,0.0262,-0.0507
97858,47.114708,-2.038436,58.76,17.88,9.648001,307.1,18 / 22,9786997,2019-08-18 17:56:49:534,-0.2603,-1.3036,10.3737,-0.6075,-0.3305,9.7822,0.0221,0.0164,-0.0557
97859,47.114708,-2.038436,58.76,17.88,9.648001,307.1,18 / 22,9787097,2019-08-18 17:56:49:634,-0.0365,-0.984,10.5659,-0.6131,-0.3338,9.7818,0.0281,0.0168,-0.0566
97860,47.114708,-2.038436,58.76,17.88,9.648001,307.1,18 / 22,9787197,2019-08-18 17:56:49:734,-0.5829,-1.5939,10.5198,-0.6292,-0.3286,9.7809,0.0181,0.019,-0.0616
97861,47.114708,-2.038436,58.76,17.88,9.648001,307.1,18 / 22,9787297,2019-08-18 17:56:49:834,-0.1927,-1.1911,9.8476,-0.6341,-0.3256,9.7807,0.0331,0.0166,-0.0621
97862,47.114708,-2.038436,58.76,17.88,9.648001,307.1,18 / 22,9787397,2019-08-18 17:56:49:934,-0.4004,-1.1073,9.3604,-0.6401,-0.3131,9.7807,0.0454,0.0168,-0.059
97863,47.114708,-2.038436,58.76,17.88,9.648001,307.1,18 / 22,9787497,2019-08-18 17:56:50:034,-0.2753,-1.0074,9.765,-0.6436,-0.2944,9.7811,0.045,0.0106,-0.0583
97864,47.114708,-2.038436,58.76,17.88,9.648001,307.1,18 / 22,9787597,2019-08-18 17:56:50:134,-0.638,-1.0816,9.4837,-0.634,-0.2859,9.782,0.0083,-0.0115,-0.0584
97865,47.114708,-2.038436,58.76,17.88,9.648001,307.1,18 / 22,9787697,2019-08-18 17:56:50:234,-0.4411,-0.4711,10.1834,-0.6129,-0.302,9.7828,-0.0064,-0.0197,-0.0611
97866,47.114708,-2.038436,58.76,17.88,9.648001,307.1,18 / 22,9787797,2019-08-18 17:56:50:334,-0.7709,-1.306,9.9625,-0.5477,-0.3782,9.784,-0.0268,-0.039,-0.0665
97867,47.114708,-2.038436,58.76,17.88,9.648001,307.1,18 / 22,9787897,2019-08-18 17:56:50:434,-0.2274,-1.1684,10.0086,-0.5288,-0.3919,9.7845,-0.0178,-0.0174,-0.0596
97868,47.114708,-2.038436,58.76,17.88,9.648001,307.1,18 / 22,9787997,2019-08-18 17:56:50:534,-0.2777,-1.7915,9.7788,-0.5085,-0.4446,9.7834,-0.0179,0.0049,-0.0571
97869,47.114708,-2.038436,58.76,17.88,9.648001,307.1,18 / 22,9788097,2019-08-18 17:56:50:634,-0.2495,-0.9421,9.2993,-0.5061,-0.4693,9.7823,-0.0021,0.0061,-0.0631
97870,47.114708,-2.038436,58.76,17.88,9.648001,307.1,18 / 22,9788197,2019-08-18 17:56:50:734,-0.3273,-1.0553,9.2544,-0.5131,-0.4917,9.7809,0.0093,-0.0067,-0.0725
97871,47.114708,-2.038436,58.76,17.88,9.648001,307.1,18 / 22,9788297,2019-08-18 17:56:50:834,-0.395,-1.1947,11.1638,-0.5052,-0.5012,9.7808,0.0093,-0.0067,-0.0725
97872,47.114708,-2.038436,58.76,17.88,9.648001,307.1,18 / 22,9788397,2019-08-18 17:56:50:934,-0.3896,-1.7765,9.8907,-0.4479,-0.5086,9.7832,0.0094,-0.0239,-0.0703
97873,47.114708,-2.038436,58.76,17.88,9.648001,307.1,18 / 22,9788497,2019-08-18 17:56:51:034,-0.0293,-0.9104,9.7339,-0.4253,-0.5146,9.7839,0.0136,0.0041,-0.0684
97874,47.114708,-2.038436,58.76,17.88,9.648001,307.1,18 / 22,9788597,2019-08-18 17:56:51:134,-0.149,-1.1438,9.6704,-0.4243,-0.5317,9.783,0.0117,0.0116,-0.0656
97875,47.114708,-2.038436,58.76,17.88,9.648001,307.1,18 / 22,9788697,2019-08-18 17:56:51:234,-0.1993,-1.0331,10.8705,-0.4218,-0.5333,9.783,0.0307,0.0029,-0.0657
97876,47.114708,-2.038436,58.76,17.88,9.648001,307.1,18 / 22,9788797,2019-08-18 17:56:51:334,-0.5674,-1.8202,9.7279,-0.4061,-0.5285,9.784,0.0248,-0.0341,-0.0705
97877,47.114708,-2.038436,58.76,17.88,9.648001,307.1,18 / 22,9788897,2019-08-18 17:56:51:434,-0.0454,-1.7765,9.3771,-0.3775,-0.5193,9.7856,0.0336,-0.0167,-0.0679
97878,47.114708,-2.038436,58.76,17.88,9.648001,307.1,18 / 22,9788996,2019-08-18 17:56:51:533,0.1162,-0.8811,10.7436,-0.3586,-0.5112,9.7868,0.0234,0.0031,-0.0634
97879,47.114708,-2.038436,58.76,17.88,9.648001,307.1,18 / 22,9789097,2019-08-18 17:56:51:634,-0.2112,-1.0552,10.3043,-0.3507,-0.5139,9.7869,0.0138,-0.0109,-0.0632
97880,47.114708,-2.038436,58.76,17.88,9.648001,307.1,18 / 22,9789197,2019-08-18 17:56:51:734,-0.1628,-0.817,10.269,-0.3391,-0.4828,9.7889,0.0373,0.0015,-0.0612
97881,47.114708,-2.038436,58.76,17.88,9.648001,307.1,18 / 22,9789297,2019-08-18 17:56:51:834,-0.398,-1.0864,10.3929,-0.3335,-0.4754,9.7894,0.0756,0.0215,-0.0526
97882,47.114708,-2.038436,58.76,17.88,9.648001,307.1,18 / 22,9789398,2019-08-18 17:56:51:935,-0.8684,-0.6865,11.0794,-0.3533,-0.4032,9.792,0.0696,0.0327,-0.0526
97883,47.114708,-2.038436,58.76,17.88,9.648001,307.1,18 / 22,9789497,2019-08-18 17:56:52:034,-0.222,-0.6794,8.9504,-0.3579,-0.3904,9.7923,0.0,-0.042,-0.0564
97884,47.114708,-2.038436,58.76,17.88,9.648001,307.1,18 / 22,9789597,2019-08-18 17:56:52:134,-0.3938,-0.2203,9.4538,-0.2919,-0.4136,9.7936,-0.0356,-0.0755,-0.0593
97885,47.114708,-2.038436,58.76,17.88,9.648001,307.1,18 / 22,9789697,2019-08-18 17:56:52:234,-0.4662,-1.0535,10.2672,-0.2581,-0.4291,9.7939,-0.0141,-0.0307,-0.055
97886,47.114708,-2.038436,58.76,17.88,9.648001,307.1,18 / 22,9789797,2019-08-18 17:56:52:334,-0.2783,-0.9134,9.777,-0.2348,-0.4469,9.7936,-0.0387,-0.0238,-0.0497
97887,47.114708,-2.038436,58.76,17.88,9.648001,307.1,18 / 22,9789897,2019-08-18 17:56:52:434,-0.1179,-0.334,9.1431,-0.2218,-0.4859,9.7921,-0.0082,0.0051,-0.0394
97888,47.114708,-2.038436,58.76,17.88,9.648001,307.1,18 / 22,9789997,2019-08-18 17:56:52:534,-0.5973,-0.7877,9.5938,-0.2224,-0.5059,9.7911,-0.0241,-0.0247,-0.0443
97889,47.114708,-2.038436,58.76,17.88,9.648001,307.1,18 / 22,9790097,2019-08-18 17:56:52:634,-0.6787,-0.7422,9.5974,-0.1743,-0.553,9.7895,-0.0182,-0.0298,-0.0417
97890,47.114708,-2.038436,58.76,17.88,9.648001,307.1,18 / 22,9790197,2019-08-18 17:56:52:734,-0.4315,-0.7787,9.8338,-0.1703,-0.5541,9.7895,0.0633,0.1077,-0.0217
97891,47.114708,-2.038436,58.76,17.88,9.648001,307.1,18 / 22,9790297,2019-08-18 17:56:52:834,-0.3363,-1.6993,9.0324,-0.2941,-0.4811,9.7904,0.0912,0.1031,-0.0153
97892,47.114708,-2.038436,58.76,17.88,9.648001,307.1,18 / 22,9790397,2019-08-18 17:56:52:934,-0.5075,0.3609,10.3384,-0.3561,-0.4328,9.7906,0.0566,0.0631,-0.0288
97893,47.114708,-2.038436,58.76,17.88,9.648001,307.1,18 / 22,9790497,2019-08-18 17:56:53:034,-0.9163,0.4567,11.6223,-0.4331,-0.3514,9.7908,0.0592,-0.0098,-0.0307
97894,47.114708,-2.038436,58.76,17.88,9.648001,307.1,18 / 22,9790597,2019-08-18 17:56:53:134,-0.2567,-0.6961,9.8111,-0.4301,-0.3162,9.7921,-0.0655,-0.1084,-0.0457
97895,47.114708,-2.038436,58.76,17.88,9.648001,307.1,18 / 22,9790697,2019-08-18 17:56:53:234,-0.289,0.1179,8.9342,-0.3141,-0.3861,9.794,-0.0524,-0.0571,-0.0461
97896,47.114708,-2.038436,58.76,17.88,9.648001,307.1,18 / 22,9790797,2019-08-18 17:56:53:334,-0.5967,-0.3172,10.0966,-0.2824,-0.4146,9.7938,-0.0358,0.0068,-0.0284
97897,47.114708,-2.038436,58.76,17.88,9.648001,307.1,18 / 22,9790897,2019-08-18 17:56:53:434,-0.9768,-0.3382,8.4997,-0.2742,-0.4907,9.7905,0.0013,0.0318,-0.0163
97898,47.114708,-2.038436,58.76,17.88,9.648001,307.1,18 / 22,9790997,2019-08-18 17:56:53:534,-0.325,0.079,9.856,-0.2888,-0.4726,9.791,0.0643,0.0282,0.001
97899,47.114708,-2.038436,58.76,17.88,9.648001,307.1,19 / 22,9791097,2019-08-18 17:56:53:634,-0.5476,0.246,10.0331,-0.319,-0.4043,9.7931,-0.0101,-0.0084,-0.0108
97900,47.114708,-2.038436,58.76,17.88,9.648001,307.1,19 / 22,9791197,2019-08-18 17:56:53:734,-1.0719,-0.0168,10.1457,-0.3165,-0.4015,9.7933,-0.0278,-0.004,-0.0148
97901,47.114708,-2.038436,58.76,17.88,9.648001,307.1,19 / 22,9791296,2019-08-18 17:56:53:833,-0.0933,-0.1389,9.6752,-0.3068,-0.4435,9.7918,-0.072,-0.0501,-0.0197
97902,47.114708,-2.038436,58.76,17.88,9.648001,307.1,19 / 22,9791397,2019-08-18 17:56:53:934,-0.404,-0.1215,6.0007,-0.2846,-0.4799,9.7908,-0.0515,-0.0068,-0.0354
97903,47.114708,-2.038436,58.76,17.88,9.648001,307.1,19 / 22,9791497,2019-08-18 17:56:54:034,-0.4171,0.7159,11.4206,-0.2729,-0.5615,9.7868,-0.0791,-0.1422,-0.0114
97904,47.114708,-2.038436,58.76,17.88,9.648001,307.1,19 / 22,9791596,2019-08-18 17:56:54:133,-0.1203,-0.7667,9.3712,-0.2985,-0.5691,9.7856,0.0471,0.0367,-0.0048
97905,47.114708,-2.038436,58.76,17.88,9.648001,307.1,19 / 22,9791697,2019-08-18 17:56:54:234,-1.136,0.3837,10.257,-0.302,-0.5163,9.7884,0.0289,-0.0398,0.0035
97906,47.114708,-2.038436,58.76,17.88,9.648001,307.1,19 / 22,9791797,2019-08-18 17:56:54:334,-1.0977,0.2382,10.0858,-0.2877,-0.4925,9.79,0.011,-0.0174,0.0097
97907,47.114708,-2.038436,58.76,17.88,9.648001,307.1,19 / 22,9791897,2019-08-18 17:56:54:434,-0.0406,0.4872,10.1648,-0.3294,-0.4585,9.7904,-0.0314,0.0305,0.0253
97908,47.114708,-2.038436,58.76,17.88,9.648001,307.1,19 / 22,9791997,2019-08-18 17:56:54:534,-1.5957,0.8697,9.2233,-0.3495,-0.4654,9.7894,-0.0377,0.0079,0.0265
97909,47.114708,-2.038436,58.76,17.88,9.648001,307.1,19 / 22,9792097,2019-08-18 17:56:54:634,-0.8385,-0.1131,8.8696,-0.3956,-0.473,9.7872,-0.0033,0.0204,0.0431
97910,47.114708,-2.038436,58.76,17.88,9.648001,307.1,19 / 22,9792197,2019-08-18 17:56:54:734,-1.0366,0.5213,9.6501,-0.4257,-0.4394,9.7875,0.0389,0.0223,0.0493
97911,47.114708,-2.038436,58.76,17.88,9.648001,307.1,19 / 22,9792297,2019-08-18 17:56:54:834,-0.4016,-0.0293,9.3837,-0.4621,-0.3572,9.7892,0.0569,0.0283,0.0443
97912,47.114708,-2.038436,58.76,17.88,9.648001,307.1,19 / 22,9792397,2019-08-18 17:56:54:934,-1.1025,1.1959,10.7251,-0.5059,-0.2942,9.7892,0.0455,0.0438,0.0435
97913,47.114708,-2.038436,58.76,17.88,9.648001,307.1,19 / 22,9792497,2019-08-18 17:56:55:034,-0.9253,0.4292,9.4711,-0.5899,-0.2106,9.7866,0.0698,0.0614,0.0473
97914,47.114708,-2.038436,58.76,17.88,9.648001,307.1,19 / 22,9792597,2019-08-18 17:56:55:134,-0.6727,1.0972,10.3306,-0.6283,-0.1534,9.7853,0.0365,0.027,0.0416
97915,47.114708,-2.038436,58.76,17.88,9.648001,307.1,19 / 22,9792698,2019-08-18 17:56:55:235,-1.4981,0.8212,9.9488,-0.6086,-0.1071,9.7872,-0.0182,-0.0408,0.0388
97916,47.114708,-2.038436,58.76,17.88,9.648001,307.1,19 / 22,9792797,2019-08-18 17:56:55:334,-1.0402,0.6782,9.5974,-0.5992,-0.1122,9.7877,-0.0414,-0.0157,0.0317
97917,47.114708,-2.038436,58.76,17.88,9.648001,307.1,19 / 22,9792897,2019-08-18 17:56:55:434,-0.6494,0.3651,9.5483,-0.5561,-0.187,9.7891,-0.0847,-0.0587,0.0266
97918,47.114708,-2.038436,58.76,17.88,9.648001,307.1,19 / 22,9792997,2019-08-18 17:56:55:534,0.1611,-0.2795,9.9793,-0.5318,-0.2076,9.79,-0.0725,-0.0428,-0.0013
97919,47.115696,-2.039912,61.3,16.84,9.648001,320.5,19 / 22,9793097,2019-08-18 17:56:55:634,-0.1963,0.4776,10.1546,-0.4932,-0.2594,9.7908,-0.061,-0.0401,-0.0091
97920,47.115696,-2.039912,61.3,16.84,9.648001,320.5,19 / 22,9793197,2019-08-18 17:56:55:734,-0.2878,0.1293,9.589,-0.4448,-0.3088,9.7917,-0.04,-0.0229,-0.0085
97921,47.115696,-2.039912,61.3,16.84,9.648001,320.5,19 / 22,9793297,2019-08-18 17:56:55:834,-0.1059,-0.1089,9.9093,-0.4241,-0.3316,9.7919,-0.025,0.0001,-0.0072
97922,47.115696,-2.039912,61.3,16.84,9.648001,320.5,19 / 22,9793397,2019-08-18 17:56:55:934,-0.0652,-0.0491,9.6944,-0.419,-0.3523,9.7914,-0.0221,-0.0024,-0.0055
97923,47.115696,-2.039912,61.3,16.84,9.648001,320.5,19 / 22,9793497,2019-08-18 17:56:56:034,-0.2448,-0.589,10.4372,-0.4104,-0.3586,9.7915,-0.0091,-0.016,-0.0102
97924,47.115696,-2.039912,61.3,16.84,9.648001,320.5,19 / 22,9793597,2019-08-18 17:56:56:134,0.2514,0.1754,10.345,-0.378,-0.3521,9.793,-0.0142,-0.0437,-0.0085
97925,47.115696,-2.039912,61.3,16.84,9.648001,320.5,19 / 22,9793697,2019-08-18 17:56:56:234,-0.0359,-0.2418,9.0096,-0.3458,-0.3553,9.7941,-0.0369,-0.013,-0.0066
97926,47.115696,-2.039912,61.3,16.84,9.648001,320.5,19 / 22,9793797,2019-08-18 17:56:56:334,-0.1095,-0.155,9.3149,-0.3161,-0.3884,9.7939,-0.0409,0.0168,-0.0103
97927,47.115696,-2.039912,61.3,16.84,9.648001,320.5,19 / 22,9793897,2019-08-18 17:56:56:434,0.2018,-0.1987,9.7788,-0.3212,-0.4093,9.7928,-0.0289,0.0243,-0.0087
97928,47.115696,-2.039912,61.3,16.84,9.648001,320.5,19 / 22,9793997,2019-08-18 17:56:56:534,0.2706,0.6961,9.5561,-0.3256,-0.4388,9.7914,-0.0042,0.0306,-0.0073
97929,47.115696,-2.039912,61.3,16.84,9.648001,320.5,19 / 22,9794097,2019-08-18 17:56:56:634,-0.1478,-1.0092,9.3065,-0.3388,-0.4365,9.7911,0.063,0.04,-0.0069
97930,47.115696,-2.039912,61.3,16.84,9.648001,320.5,19 / 22,9794197,2019-08-18 17:56:56:734,-0.1609,-0.7057,10.0828,-0.3663,-0.3553,9.7934,0.063,0.0296,-0.0121
97931,47.115696,-2.039912,61.3,16.84,9.648001,320.5,19 / 22,9794297,2019-08-18 17:56:56:834,0.2993,0.6159,11.0573,-0.3543,-0.3272,9.7948,0.0466,-0.0314,-0.0096
97932,47.115696,-2.039912,61.3,16.84,9.648001,320.5,19 / 22,9794397,2019-08-18 17:56:56:934,-0.0023,0.2095,9.9284,-0.2978,-0.2633,9.7986,0.0007,-0.0126,-0.019
97933,47.115696,-2.039912,61.3,16.84,9.648001,320.5,19 / 22,9794497,2019-08-18 17:56:57:034,0.4023,-0.4405,10.166,-0.272,-0.2567,9.7995,-0.0057,0.007,-0.0176
97934,47.115696,-2.039912,61.3,16.84,9.648001,320.5,19 / 22,9794597,2019-08-18 17:56:57:134,0.2,-0.2693,8.444,-0.275,-0.2398,9.7999,-0.0255,-0.0107,-0.0181
97935,47.115696,-2.039912,61.3,16.84,9.648001,320.5,19 / 22,9794697,2019-08-18 17:56:57:234,0.6656,-0.2263,9.9039,-0.2636,-0.245,9.8,-0.0264,0.0242,-0.0146
97936,47.115696,-2.039912,61.3,16.84,9.648001,320.5,19 / 22,9794797,2019-08-18 17:56:57:334,-0.4536,0.4004,10.5593,-0.2874,-0.2468,9.7993,0.0301,0.0454,-0.0117
97937,47.115696,-2.039912,61.3,16.84,9.648001,320.5,19 / 22,9794897,2019-08-18 17:56:57:434,-0.653,-0.2161,10.5976,-0.2842,-0.2445,9.7995,-0.0195,-0.0479,-0.0191
97938,47.115696,-2.039912,61.3,16.84,9.648001,320.5,19 / 22,9794997,2019-08-18 17:56:57:534,-0.3232,-0.5082,9.8769,-0.219,-0.2888,9.8,-0.0351,-0.0064,-0.0172
97939,47.115696,-2.039912,61.3,16.84,9.648001,320.5,19 / 22,9795097,2019-08-18 17:56:57:634,-0.1346,-0.0598,9.0378,-0.2257,-0.3084,9.7992,-0.06,0.0335,-0.0173
97940,47.115696,-2.039912,61.3,16.84,9.648001,320.5,19 / 22,9795197,2019-08-18 17:56:57:734,-0.7038,-0.8517,9.2856,-0.2868,-0.3777,9.7952,0.0217,0.0619,-0.008
97941,47.115696,-2.039912,61.3,16.84,9.648001,320.5,19 / 22,9795297,2019-08-18 17:56:57:834,-1.0929,-0.7129,9.6992,-0.3064,-0.3645,9.7951,0.038,0.0264,-0.0092
97942,47.115696,-2.039912,61.3,16.84,9.648001,320.5,19 / 22,9795397,2019-08-18 17:56:57:934,-1.7681,-1.0929,10.0786,-0.3036,-0.3445,9.7959,0.0253,-0.004,-0.0058
97943,47.115696,-2.039912,61.3,16.84,9.648001,320.5,19 / 22,9795497,2019-08-18 17:56:58:034,-1.0031,-0.6069,9.1132,-0.3261,-0.3279,9.7957,0.0158,0.0403,-0.0112
97944,47.115696,-2.039912,61.3,16.84,9.648001,320.5,19 / 22,9795597,2019-08-18 17:56:58:134,-0.8816,-0.6159,9.8596,-0.4312,-0.2969,9.7927,0.0457,0.0682,-0.0051
97945,47.115696,-2.039912,61.3,16.84,9.648001,320.5,19 / 22,9795697,2019-08-18 17:56:58:234,-0.5793,-0.3412,10.2947,-0.4706,-0.2724,9.7916,0.0171,-0.0144,0.0063
97946,47.115696,-2.039912,61.3,16.84,9.648001,320.5,19 / 22,9795797,2019-08-18 17:56:58:334,-0.7212,0.1682,9.9194,-0.4701,-0.2427,9.7924,-0.0025,-0.0386,-0.0004
97947,47.115696,-2.039912,61.3,16.84,9.648001,320.5,19 / 22,9795897,2019-08-18 17:56:58:434,-1.0588,-0.1024,9.4801,-0.4491,-0.2563,9.793,-0.0364,-0.0431,-0.0044
97948,47.115696,-2.039912,61.3,16.84,9.648001,320.5,19 / 22,9795997,2019-08-18 17:56:58:534,-0.9217,-0.3154,9.583,-0.4572,-0.2833,9.7919,-0.0209,0.0186,0.0037
97949,47.115696,-2.039912,61.3,16.84,9.648001,320.5,19 / 22,9796097,2019-08-18 17:56:58:634,-0.8433,-0.0204,9.1952,-0.4743,-0.2899,9.7909,-0.0051,-0.0112,0.0175
97950,47.115696,-2.039912,61.3,16.84,9.648001,320.5,19 / 22,9796197,2019-08-18 17:56:58:734,-0.708,0.1862,9.434,-0.4709,-0.2926,9.791,0.0236,0.0201,0.0181
97951,47.115696,-2.039912,61.3,16.84,9.648001,320.5,19 / 22,9796298,2019-08-18 17:56:58:835,-1.0797,-0.0652,8.9725,-0.4947,-0.2757,9.7903,-0.017,0.0081,0.0094
97952,47.115696,-2.039912,61.3,16.84,9.648001,320.5,19 / 22,9796398,2019-08-18 17:56:58:935,-0.7667,0.2915,9.1844,-0.5186,-0.3011,9.7883,-0.0349,0.0157,0.0092
97953,47.115696,-2.039912,61.3,16.84,9.648001,320.5,19 / 22,9796499,2019-08-18 17:56:59:036,-0.5991,0.2789,9.9631,-0.5226,-0.3207,9.7875,-0.0467,-0.0004,0.0105
97954,47.115696,-2.039912,61.3,16.84,9.648001,320.5,19 / 22,9796597,2019-08-18 17:56:59:134,-0.6452,-0.3262,9.2449,-0.5191,-0.3343,9.7872,-0.0203,-0.0058,0.0105
97955,47.115696,-2.039912,61.3,16.84,9.648001,320.5,19 / 22,9796697,2019-08-18 17:56:59:234,-0.4064,-0.7997,9.2688,-0.5322,-0.3509,9.7859,-0.0187,0.0086,0.0074
97956,47.115696,-2.039912,61.3,16.84,9.648001,320.5,19 / 22,9796797,2019-08-18 17:56:59:334,-0.1382,-0.7296,10.1906,-0.5417,-0.3566,9.7852,0.0085,0.0111,0.0062
97957,47.115696,-2.039912,61.3,16.84,9.648001,320.5,19 / 22,9796897,2019-08-18 17:56:59:434,-0.7098,-0.2269,9.3532,-0.5392,-0.3557,9.7854,-0.0231,-0.0163,-0.0072
97958,47.115696,-2.039912,61.3,16.84,9.648001,320.5,19 / 22,9796997,2019-08-18 17:56:59:534,-0.6607,-0.6602,9.9895,-0.5324,-0.3755,9.785,-0.0804,0.0508,-0.0092
97959,47.115696,-2.039912,61.3,16.84,9.648001,320.5,19 / 22,9797097,2019-08-18 17:56:59:634,-1.0761,-0.3717,8.2363,-0.6024,-0.4507,9.7777,0.0092,0.1052,-0.0045
97960,47.115696,-2.039912,61.3,16.84,9.648001,320.5,19 / 22,9797197,2019-08-18 17:56:59:734,-0.5207,-0.9972,9.9488,-0.6794,-0.4245,9.7739,0.0743,0.0704,-0.0045
97961,47.115696,-2.039912,61.3,16.84,9.648001,320.5,19 / 22,9797297,2019-08-18 17:56:59:834,-0.5913,-0.261,11.3931,-0.6931,-0.3537,9.7757,0.0685,-0.067,-0.0043
97962,47.115696,-2.039912,61.3,16.84,9.648001,320.5,19 / 22,9797397,2019-08-18 17:56:59:934,-1.2725,-0.1975,11.7462,-0.6305,-0.3021,9.7817,0.0213,-0.081,-0.0117
97963,47.115696,-2.039912,61.3,16.84,9.648001,320.5,19 / 22,9797497,2019-08-18 17:57:00:034,-0.6129,-0.5345,9.4986,-0.5752,-0.352,9.7834,-0.0296,-0.0006,-0.0185
97964,47.115696,-2.039912,61.3,16.84,9.648001,320.5,19 / 22,9797597,2019-08-18 17:57:00:134,-0.7667,-0.5172,9.361,-0.5873,-0.3757,9.7818,-0.0645,0.0204,-0.0097
97965,47.115696,-2.039912,61.3,16.84,9.648001,320.5,19 / 22,9797697,2019-08-18 17:57:00:234,-0.9702,-0.7632,8.4895,-0.625,-0.4464,9.7765,-0.0281,0.0143,-0.0019
97966,47.115696,-2.039912,61.3,16.84,9.648001,320.5,19 / 22,9797797,2019-08-18 17:57:00:334,-1.2545,-1.0493,9.7722,-0.6354,-0.447,9.7758,0.0299,0.0123,-0.0026
97967,47.115696,-2.039912,61.3,16.84,9.648001,320.5,19 / 22,9797897,2019-08-18 17:57:00:434,-0.7972,-0.7093,10.6526,-0.6661,-0.4129,9.7753,0.0403,0.0192,-0.0031
97968,47.115696,-2.039912,61.3,16.84,9.648001,320.5,19 / 22,9797997,2019-08-18 17:57:00:534,-1.1007,-1.0451,10.2492,-0.6684,-0.4096,9.7753,0.0061,0.0012,-0.0045
97969,47.115696,-2.039912,61.3,16.84,9.648001,320.5,19 / 22,9798097,2019-08-18 17:57:00:634,-1.0672,-0.185,9.8488,-0.6804,-0.4173,9.7741,-0.0042,-0.0067,-0.0056
97970,47.115696,-2.039912,61.3,16.84,9.648001,320.5,19 / 22,9798197,2019-08-18 17:57:00:734,-0.6009,-0.5459,9.6423,-0.6681,-0.4084,9.7753,0.0021,-0.0191,-0.0053
97971,47.115696,-2.039912,61.3,16.84,9.648001,320.5,19 / 22,9798297,2019-08-18 17:57:00:834,-0.8188,0.3909,10.0481,-0.6442,-0.4183,9.7765,-0.0242,-0.0169,-0.001
97972,47.115696,-2.039912,61.3,16.84,9.648001,320.5,19 / 22,9798398,2019-08-18 17:57:00:935,-0.8996,-0.4872,9.1228,-0.6249,-0.439,9.7769,-0.0684,-0.0553,-0.0028
97973,47.115696,-2.039912,61.3,16.84,9.648001,320.5,19 / 22,9798497,2019-08-18 17:57:01:034,-0.8068,-0.2514,9.4735,-0.5789,-0.5123,9.7761,-0.0493,-0.0131,0.002
97974,47.115696,-2.039912,61.3,16.84,9.648001,320.5,19 / 22,9798597,2019-08-18 17:57:01:134,-0.5464,-0.7775,9.3263,-0.5756,-0.5479,9.7744,-0.0412,-0.0091,0.0026
97975,47.115696,-2.039912,61.3,16.84,9.648001,320.5,19 / 22,9798697,2019-08-18 17:57:01:234,-0.4746,-0.6249,9.5405,-0.5897,-0.5509,9.7734,0.0097,0.0225,0.0068
97976,47.115696,-2.039912,61.3,16.84,9.648001,320.5,19 / 22,9798797,2019-08-18 17:57:01:334,-0.8098,-0.5962,9.7021,-0.6087,-0.5458,9.7725,0.0274,0.0186,0.0079
97977,47.115696,-2.039912,61.3,16.84,9.648001,320.5,19 / 22,9798896,2019-08-18 17:57:01:433,-0.6129,-0.6973,10.0667,-0.6393,-0.494,9.7733,0.0389,0.0276,0.0072
97978,47.115696,-2.039912,61.3,16.84,9.648001,320.5,19 / 22,9798997,2019-08-18 17:57:01:534,-0.6961,0.0084,8.8378,-0.659,-0.4677,9.7733,0.0125,0.002,0.0066
97979,47.115696,-2.039912,61.3,16.84,9.648001,320.5,19 / 22,9799098,2019-08-18 17:57:01:635,-0.5099,-0.3531,8.86,-0.7018,-0.4254,9.7723,0.0267,0.0595,0.0028
97980,47.115696,-2.039912,61.3,16.84,9.648001,320.5,19 / 22,9799197,2019-08-18 17:57:01:734,-1.0175,-0.6267,8.9067,-0.7347,-0.4249,9.7699,0.0542,0.0612,0.0074
97981,47.115696,-2.039912,61.3,16.84,9.648001,320.5,19 / 22,9799296,2019-08-18 17:57:01:833,-1.1019,-0.7811,9.006,-0.832,-0.3454,9.7652,0.0861,0.0529,0.0092
97982,47.115696,-2.039912,61.3,16.84,9.648001,320.5,19 / 22,9799397,2019-08-18 17:57:01:934,-1.3473,0.3184,10.5904,-0.8554,-0.3098,9.7644,0.0023,-0.0236,-0.0034
97983,47.115696,-2.039912,61.3,16.84,9.648001,320.5,19 / 22,9799497,2019-08-18 17:57:02:034,-1.7537,-0.4705,10.0463,-0.8218,-0.3096,9.7672,-0.0111,-0.054,-0.0074
97984,47.115696,-2.039912,61.3,16.84,9.648001,320.5,19 / 22,9799597,2019-08-18 17:57:02:134,-0.7691,-0.5806,9.4723,-0.797,-0.3228,9.7689,-0.0638,-0.0367,-0.0098
97985,47.115696,-2.039912,61.3,16.84,9.648001,320.5,19 / 22,9799698,2019-08-18 17:57:02:235,-0.9564,-0.7506,8.3087,-0.7731,-0.3973,9.7681,-0.0451,-0.0104,-0.0033
97986,47.115696,-2.039912,61.3,16.84,9.648001,320.5,19 / 22,9799797,2019-08-18 17:57:02:334,-1.0306,-0.3334,9.115,-0.7955,-0.3999,9.7661,0.0113,0.0669,-0.0015
97987,47.115696,-2.039912,61.3,16.84,9.648001,320.5,19 / 22,9799897,2019-08-18 17:57:02:434,-0.9858,-0.5878,9.3622,-0.8932,-0.3879,9.7582,0.0225,0.0711,0.0033
97988,47.115696,-2.039912,61.3,16.84,9.648001,320.5,19 / 22,9799997,2019-08-18 17:57:02:534,-1.1851,-0.1143,9.7453,-0.9268,-0.3648,9.7559,0.0349,0.0176,0.0054
97989,47.115696,-2.039912,61.3,16.84,9.648001,320.5,19 / 22,9800097,2019-08-18 17:57:02:634,-1.1228,-0.5154,10.327,-0.9486,-0.3121,9.7557,0.0394,0.0028,0.0004
97990,47.115696,-2.039912,61.3,16.84,9.648001,320.5,19 / 22,9800196,2019-08-18 17:57:02:733,-0.8894,-0.4872,9.7399,-0.9566,-0.2885,9.7556,0.0369,0.0194,-0.0049
97991,47.115696,-2.039912,61.3,16.84,9.648001,320.5,19 / 22,9800297,2019-08-18 17:57:02:834,-0.9235,-0.4405,10.1666,-0.9993,-0.2351,9.7528,0.041,0.0353,-0.0053
97992,47.115696,-2.039912,61.3,16.84,9.648001,320.5,19 / 22,9800400,2019-08-18 17:57:02:937,-1.1887,-0.0389,10.2025,-1.0213,-0.2119,9.751,0.0253,-0.0036,-0.0092
97993,47.115696,-2.039912,61.3,16.84,9.648001,320.5,19 / 22,9800497,2019-08-18 17:57:03:034,-1.1773,-0.4531,10.433,-0.9783,-0.2065,9.7555,-0.0242,-0.0785,-0.0234
97994,47.115696,-2.039912,61.3,16.84,9.648001,320.5,19 / 22,9800597,2019-08-18 17:57:03:134,-0.7523,-0.3142,10.6137,-0.9163,-0.2382,9.7608,-0.0675,-0.0816,-0.0291
97995,47.115696,-2.039912,61.3,16.84,9.648001,320.5,19 / 22,9800697,2019-08-18 17:57:03:234,-0.4776,-0.267,7.9167,-0.8783,-0.2787,9.7639,-0.1182,-0.0254,-0.0244
97996,47.115696,-2.039912,61.3,16.84,9.648001,320.5,19 / 22,9800797,2019-08-18 17:57:03:334,-0.6799,-0.2292,7.3163,-0.8512,-0.4064,9.7612,-0.0637,0.0494,-0.0209
97997,47.115696,-2.039912,61.3,16.84,9.648001,320.5,19 / 22,9800897,2019-08-18 17:57:03:434,-0.5823,0.0132,8.0316,-0.8817,-0.4374,9.7571,-0.0251,0.0287,-0.0071
97998,47.115696,-2.039912,61.3,16.84,9.648001,320.5,19 / 22,9800998,2019-08-18 17:57:03:535,-1.1168,-0.6476,10.0062,-0.9479,-0.4496,9.7504,0.0617,0.0377,0.0146
97999,47.115696,-2.039912,61.3,16.84,9.648001,320.5,19 / 22,9801096,2019-08-18 17:57:03:633,-1.3329,-0.1784,9.9984,-0.9623,-0.4149,9.7505,0.0231,0.0025,0.0099
98000,47.115696,-2.039912,61.3,16.84,9.648001,320.5,19 / 22,9801197,2019-08-18 17:57:03:734,-1.774,-0.0072,10.3049,-0.959,-0.3759,9.7524,0.0012,-0.0252,0.0105
98001,47.115696,-2.039912,61.3,16.84,9.648001,320.5,19 / 22,9801297,2019-08-18 17:57:03:834,-0.7888,0.3825,10.4066,-0.9535,-0.3587,9.7536,0.0281,-0.0095,0.0085
98002,47.115696,-2.039912,61.3,16.84,9.648001,320.5,19 / 22,9801397,2019-08-18 17:57:03:934,-1.1827,1.0014,10.2247,-0.939,-0.3108,9.7566,0.0147,-0.0244,0.0121
98003,47.115696,-2.039912,61.3,16.84,9.648001,320.5,19 / 22,9801497,2019-08-18 17:57:04:034,-1.0037,0.3172,8.9079,-0.9375,-0.2835,9.7576,0.0166,0.0295,0.0224
98004,47.115696,-2.039912,61.3,16.84,9.648001,320.5,19 / 22,9801597,2019-08-18 17:57:04:134,-0.6458,0.0874,8.948,-0.9783,-0.2447,9.7547,0.055,0.079,0.0295
98005,47.115696,-2.039912,61.3,16.84,9.648001,320.5,19 / 22,9801697,2019-08-18 17:57:04:234,-1.1785,0.1036,9.4717,-1.0376,-0.1937,9.7497,0.0244,0.0478,0.0267
98006,47.115696,-2.039912,61.3,16.84,9.648001,320.5,19 / 22,9801797,2019-08-18 17:57:04:334,-1.4431,1.26,10.7628,-1.0726,-0.1386,9.7468,0.0445,-0.0026,0.0266
98007,47.115696,-2.039912,61.3,16.84,9.648001,320.5,19 / 22,9801897,2019-08-18 17:57:04:434,-0.9109,0.4705,10.2995,-1.071,-0.0921,9.7476,0.046,-0.0058,0.0246
98008,47.115696,-2.039912,61.3,16.84,9.648001,320.5,19 / 22,9801997,2019-08-18 17:57:04:534,-1.2258,0.1652,10.4994,-1.0888,-0.0205,9.746,0.0412,0.0431,0.0216
98009,47.115696,-2.039912,61.3,16.84,9.648001,320.5,19 / 22,9802097,2019-08-18 17:57:04:634,-0.8702,0.1143,9.9721,-1.1146,0.0153,9.7431,0.016,-0.0171,0.0215
98010,47.11681,-2.04124,60.69,17.66,9.648001,321.2,19 / 22,9802197,2019-08-18 17:57:04:734,-0.8134,-0.0383,9.6764,-1.0839,0.0495,9.7464,0.0308,0.0244,0.0258
98011,47.11681,-2.04124,60.69,17.66,9.648001,321.2,19 / 22,9802297,2019-08-18 17:57:04:834,-0.4273,1.7514,6.9416,-1.115,0.0778,9.7427,0.0344,0.0465,0.0255
98012,47.11681,-2.04124,60.69,17.66,9.648001,321.2,19 / 22,9802397,2019-08-18 17:57:04:934,-1.5442,0.6249,9.4945,-1.2198,0.1482,9.7294,0.0581,0.1066,0.0364
98013,47.11681,-2.04124,60.69,17.66,9.648001,321.2,19 / 22,9802497,2019-08-18 17:57:05:034,-1.2383,-0.2705,9.2562,-1.2419,0.1854,9.7259,0.0289,-0.0301,0.0187
98014,47.11681,-2.04124,60.69,17.66,9.648001,321.2,19 / 22,9802597,2019-08-18 17:57:05:134,-2.3588,0.3621,10.0014,-1.1929,0.2146,9.7315,-0.0244,-0.1055,0.0037
98015,47.11681,-2.04124,60.69,17.66,9.648001,321.2,19 / 22,9802697,2019-08-18 17:57:05:234,-1.2575,0.7811,9.8231,-1.1522,0.2136,9.7364,-0.0261,-0.0703,0.0012
98016,47.11681,-2.04124,60.69,17.66,9.648001,321.2,19 / 22,9802797,2019-08-18 17:57:05:334,-0.5704,-0.392,10.5072,-1.1182,0.1697,9.7412,-0.0696,-0.011,0.0027
98017,47.11681,-2.04124,60.69,17.66,9.648001,321.2,19 / 22,9802897,2019-08-18 17:57:05:434,-1.0785,-0.1957,10.2091,-1.0939,0.1287,9.7446,0.0177,-0.0186,-0.0013
98018,47.11681,-2.04124,60.69,17.66,9.648001,321.2,19 / 22,9802997,2019-08-18 17:57:05:534,-1.3892,0.334,10.8849,-1.0738,0.1484,9.7465,0.0568,0.0196,-0.0009
98019,47.11681,-2.04124,60.69,17.66,9.648001,321.2,19 / 22,9803098,2019-08-18 17:57:05:635,-0.4602,0.1748,9.8039,-1.0831,0.1772,9.745,0.0708,-0.0018,0.0033
98020,47.11681,-2.04124,60.69,17.66,9.648001,321.2,19 / 22,9803196,2019-08-18 17:57:05:733,-0.9133,0.3831,8.0645,-1.0787,0.2412,9.7442,0.0116,0.0168,-0.0092
98021,47.11681,-2.04124,60.69,17.66,9.648001,321.2,19 / 22,9803298,2019-08-18 17:57:05:835,-1.2354,0.2149,9.9505,-1.1286,0.2476,9.7383,0.0072,0.1343,-0.0006
98022,47.11681,-2.04124,60.69,17.66,9.648001,321.2,19 / 22,9803397,2019-08-18 17:57:05:934,-1.5346,0.5722,9.343,-1.2696,0.2711,9.7203,0.0321,0.0,0.0124
98023,47.11681,-2.04124,60.69,17.66,9.648001,321.2,19 / 22,9803497,2019-08-18 17:57:06:034,-1.7561,0.325,9.7788,-1.2736,0.2985,9.719,-0.0085,-0.0476,-0.0013
98024,47.11681,-2.04124,60.69,17.66,9.648001,321.2,19 / 22,9803597,2019-08-18 17:57:06:134,-1.862,0.7416,10.5892,-1.1927,0.2664,9.7302,-0.0569,-0.0371,-0.0027
98025,47.11681,-2.04124,60.69,17.66,9.648001,321.2,19 / 22,9803697,2019-08-18 17:57:06:234,-1.0881,0.2945,9.2293,-1.1659,0.2292,9.7344,-0.0858,-0.0148,0.0111
98026,47.11681,-2.04124,60.69,17.66,9.648001,321.2,19 / 22,9803797,2019-08-18 17:57:06:334,-1.2641,0.0964,9.6525,-1.1623,0.1547,9.7363,-0.0052,0.0074,0.0303
98027,47.11681,-2.04124,60.69,17.66,9.648001,321.2,19 / 22,9803897,2019-08-18 17:57:06:434,-1.1982,0.8392,10.3899,-1.1702,0.1621,9.7352,0.0044,-0.0076,0.0264
98028,47.11681,-2.04124,60.69,17.66,9.648001,321.2,19 / 22,9803997,2019-08-18 17:57:06:534,-1.2701,0.6195,10.585,-1.1419,0.1509,9.7388,-0.0495,-0.0788,0.0122
98029,47.11681,-2.04124,60.69,17.66,9.648001,321.2,19 / 23,9804097,2019-08-18 17:57:06:634,-0.8128,-0.5495,10.0517,-1.0692,0.1114,9.7476,-0.0347,-0.0471,0.0019
98030,47.11681,-2.04124,60.69,17.66,9.648001,321.2,19 / 23,9804198,2019-08-18 17:57:06:735,-0.887,-0.0395,10.1816,-1.0646,0.1005,9.7482,-0.0237,0.0001,0.0019
98031,47.11681,-2.04124,60.69,17.66,9.648001,321.2,19 / 23,9804297,2019-08-18 17:57:06:834,-0.9708,-0.1855,10.3402,-1.0568,0.0909,9.7491,0.0359,-0.0088,0.0079
98032,47.11681,-2.04124,60.69,17.66,9.648001,321.2,19 / 23,9804397,2019-08-18 17:57:06:934,-0.954,-0.2251,9.9128,-1.0612,0.1678,9.7476,0.0448,0.01,0.0063
98033,47.11681,-2.04124,60.69,17.66,9.648001,321.2,19 / 23,9804497,2019-08-18 17:57:07:034,-0.9516,-0.0569,9.9057,-1.0669,0.1945,9.7465,-0.0155,-0.0207,-0.0044
98034,47.11681,-2.04124,60.69,17.66,9.648001,321.2,19 / 23,9804597,2019-08-18 17:57:07:134,-0.8116,0.3424,9.1335,-1.0468,0.1929,9.7487,-0.0329,-0.0413,-0.0139
98035,47.11681,-2.04124,60.69,17.66,9.648001,321.2,19 / 23,9804696,2019-08-18 17:57:07:233,-0.1669,-0.4262,7.5516,-1.0209,0.15,9.7522,-0.1063,0.0153,-0.0196
98036,47.11681,-2.04124,60.69,17.66,9.648001,321.2,19 / 23,9804797,2019-08-18 17:57:07:334,-0.6787,-0.4764,9.4424,-1.0431,0.0159,9.751,-0.0697,0.0463,-0.0178
98037,47.11681,-2.04124,60.69,17.66,9.648001,321.2,19 / 23,9804897,2019-08-18 17:57:07:434,-0.9726,0.015,11.493,-1.0544,-0.0098,9.7498,0.0431,-0.0417,-0.0037
98038,47.11681,-2.04124,60.69,17.66,9.648001,321.2,19 / 23,9804997,2019-08-18 17:57:07:534,-0.3279,-0.4705,11.0926,-0.9899,0.0311,9.7565,0.0676,-0.0526,-0.0008
98039,47.11681,-2.04124,60.69,17.66,9.648001,321.2,18 / 23,9805097,2019-08-18 17:57:07:634,-0.9816,0.234,10.7442,-0.9561,0.0863,9.7595,0.027,-0.0442,-0.0135
98040,47.11681,-2.04124,60.69,17.66,9.648001,321.2,18 / 23,9805197,2019-08-18 17:57:07:734,-0.9283,0.7877,10.3031,-0.8821,0.0787,9.7666,-0.0434,-0.084,-0.017
98041,47.11681,-2.04124,60.69,17.66,9.648001,321.2,18 / 23,9805297,2019-08-18 17:57:07:834,-0.3782,0.0545,8.7798,-0.819,0.0067,9.7724,-0.1018,-0.0255,-0.0221
98042,47.11681,-2.04124,60.69,17.66,9.648001,321.2,18 / 23,9805397,2019-08-18 17:57:07:934,-0.1921,-0.0228,8.957,-0.8081,-0.1143,9.7726,-0.0813,-0.0031,-0.0199
98043,47.11681,-2.04124,60.69,17.66,9.648001,321.2,18 / 23,9805497,2019-08-18 17:57:08:034,-0.134,-0.4208,9.0707,-0.8104,-0.1386,9.7721,-0.0151,0.0015,-0.0086
98044,47.11681,-2.04124,60.69,17.66,9.648001,321.2,18 / 23,9805597,2019-08-18 17:57:08:134,-0.7242,-0.2113,9.4645,-0.8072,-0.1597,9.7721,-0.0173,0.0162,-0.0057
98045,47.11681,-2.04124,60.69,17.66,9.648001,321.2,18 / 23,9805697,2019-08-18 17:57:08:234,-0.5704,-0.5255,10.3779,-0.8154,-0.1748,9.7711,-0.029,0.013,-0.0106
98046,47.11681,-2.04124,60.69,17.66,9.648001,321.2,18 / 23,9805797,2019-08-18 17:57:08:334,-0.5117,-0.3136,10.2199,-0.8151,-0.1935,9.7708,-0.0476,-0.0575,-0.0188
98047,47.11681,-2.04124,60.69,17.66,9.648001,321.2,18 / 23,9805897,2019-08-18 17:57:08:434,-0.1197,-0.513,10.4001,-0.7497,-0.259,9.7745,-0.0271,-0.0346,-0.0137
98048,47.11681,-2.04124,60.69,17.66,9.648001,321.2,18 / 23,9805997,2019-08-18 17:57:08:534,-0.6488,-0.5956,9.4585,-0.7287,-0.2811,9.7755,-0.0063,0.0372,-0.003
98049,47.11681,-2.04124,60.69,17.66,9.648001,321.2,17 / 23,9806097,2019-08-18 17:57:08:634,-0.79,0.4459,8.9581,-0.7553,-0.2938,9.7731,0.0034,0.0529,0.0016
98050,47.11681,-2.04124,60.69,17.66,9.648001,321.2,17 / 23,9806197,2019-08-18 17:57:08:734,-0.7044,-0.5758,10.023,-0.7844,-0.2918,9.7709,0.0185,0.0279,0.0012
98051,47.11681,-2.04124,60.69,17.66,9.648001,321.2,17 / 23,9806297,2019-08-18 17:57:08:834,-0.8158,-0.1544,10.3552,-0.8129,-0.2557,9.7696,0.0478,0.0057,-0.0058
98052,47.11681,-2.04124,60.69,17.66,9.648001,321.2,17 / 23,9806397,2019-08-18 17:57:08:934,-0.4632,-0.3687,10.9394,-0.8052,-0.2195,9.7711,0.0313,-0.0418,-0.0094
98053,47.11681,-2.04124,60.69,17.66,9.648001,321.2,17 / 23,9806497,2019-08-18 17:57:09:034,-0.9397,0.2119,10.679,-0.7348,-0.212,9.7768,-0.0144,-0.0426,-0.0084
98054,47.11681,-2.04124,60.69,17.66,9.648001,321.2,17 / 23,9806596,2019-08-18 17:57:09:133,-0.7829,-0.6877,9.3466,-0.7351,-0.2163,9.7767,-0.0031,0.0119,-0.0062
98055,47.11681,-2.04124,60.69,17.66,9.648001,321.2,17 / 23,9806697,2019-08-18 17:57:09:234,-0.9127,-0.006,9.3891,-0.7929,-0.2195,9.7721,-0.004,0.034,-0.0058
98056,47.11681,-2.04124,60.69,17.66,9.648001,321.2,17 / 23,9806797,2019-08-18 17:57:09:334,-1.2192,-0.5447,10.2558,-0.805,-0.2202,9.7711,0.0444,0.0548,-0.01
98057,47.11681,-2.04124,60.69,17.66,9.648001,321.2,17 / 23,9806897,2019-08-18 17:57:09:434,-0.6033,-0.17,7.1745,-0.8642,-0.1593,9.7672,0.0671,0.0424,-0.0014
98058,47.11681,-2.04124,60.69,17.66,9.648001,321.2,17 / 23,9806997,2019-08-18 17:57:09:534,-0.7631,-0.2274,10.7059,-0.8726,-0.1369,9.7668,0.0055,0.0475,0.0055
98059,47.11681,-2.04124,60.69,17.66,9.648001,321.2,16 / 23,9807097,2019-08-18 17:57:09:634,-2.0949,0.5614,11.0992,-0.9326,-0.1275,9.7614,-0.0162,-0.0504,-0.0108
98060,47.11681,-2.04124,60.69,17.66,9.648001,321.2,16 / 23,9807197,2019-08-18 17:57:09:734,-1.5771,-0.398,10.5276,-0.9251,-0.1408,9.7619,0.0203,-0.0292,-0.0044
98061,47.11681,-2.04124,60.69,17.66,9.648001,321.2,16 / 23,9807297,2019-08-18 17:57:09:834,-1.2587,-0.3711,11.4769,-0.8841,-0.1028,9.7662,-0.0011,-0.0377,-0.0103
98062,47.11681,-2.04124,60.69,17.66,9.648001,321.2,16 / 23,9807397,2019-08-18 17:57:09:934,-1.2138,-0.1018,8.9354,-0.8468,-0.115,9.7693,-0.009,-0.0714,-0.0049
