,GPS LATITUDE (degrees),GPS LONGITUDE (degrees), GPS ALTITUDE (m),GPS SPEED (Kmh),GPS ACCURACY (m),GPS ORIENTATION (Â°), SATELLITES IN RANGE, TIME SINCE START (ms), DATE (YYYY-MO-DD HH-MI-SS_SSS),ACCELEROMETER X (m/s²) , ACCELEROMETER Y (m/s²), ACCELEROMETER Z (m/s²), GRAVITY X (m/s²), GRAVITY Y (m/s²), GRAVITY Z (m/s²), GYROSCOPE Yaw (rad/s), GYROSCOPE Pitch (rad/s), GYROSCOPE Roll (rad/s)
39154,46.81588,-1.214287,126.78,34.31,8.576,152.2,0 / 18,3915414,2019-08-18 21:56:24:526,2.3139,-0.6683,9.6709,2.177,-0.7973,9.5287,0.0009,-0.0021,0.0068
39155,46.81588,-1.214287,126.78,34.31,8.576,152.2,0 / 18,3915516,2019-08-18 21:56:24:628,2.3564,-0.7419,9.9744,2.172,-0.8072,9.529,-0.0045,-0.0042,0.0068
39156,46.81588,-1.214287,126.78,34.31,8.576,152.2,0 / 18,3915615,2019-08-18 21:56:24:727,2.3947,-0.9886,9.4854,2.1744,-0.8033,9.5287,0.003,0.0011,0.0058
39157,46.81588,-1.214287,126.78,34.31,8.576,152.2,0 / 18,3915714,2019-08-18 21:56:24:826,2.2163,-0.9299,8.9706,2.18,-0.8044,9.5274,-0.0002,0.0022,0.0079
39158,46.81588,-1.214287,126.78,34.31,8.576,152.2,0 / 18,3915815,2019-08-18 21:56:24:927,2.3444,-0.9179,9.2747,2.1809,-0.8012,9.5274,0.0062,0.0054,0.0058
39159,46.81588,-1.214287,126.78,34.31,8.576,152.2,0 / 18,3915915,2019-08-18 21:56:25:027,2.4102,-0.7653,9.5273,2.2372,-0.8027,9.5143,0.0051,-0.0127,0.0047
39160,46.81588,-1.214287,126.78,34.31,8.576,152.2,0 / 18,3916014,2019-08-18 21:56:25:126,2.3306,-0.7928,9.5284,2.2511,-0.7953,9.5116,0.0073,0.0054,0.0047
39161,46.81588,-1.214287,126.78,34.31,8.576,152.2,0 / 18,3916115,2019-08-18 21:56:25:227,2.1804,-0.627,9.4818,2.2526,-0.7879,9.5119,0.0147,0.0054,0.0026
39162,46.81588,-1.214287,126.78,34.31,8.576,152.2,0 / 18,3916215,2019-08-18 21:56:25:327,2.5587,-0.8036,9.6907,2.2706,-0.7769,9.5085,0.0051,-0.0085,0.0036
39163,46.81588,-1.214287,126.78,34.31,8.576,152.2,0 / 18,3916314,2019-08-18 21:56:25:426,2.6389,-0.6761,9.4399,2.3155,-0.7712,9.4981,0.0009,0.0032,0.0047
39164,46.81588,-1.214287,126.78,34.31,8.576,152.2,0 / 18,3916414,2019-08-18 21:56:25:526,2.7419,-0.5367,9.45,2.3716,-0.7697,9.4844,-0.0013,0.0032,0.0058
39165,46.81588,-1.214287,126.78,34.31,8.576,152.2,0 / 18,3916515,2019-08-18 21:56:25:627,2.7227,-0.5642,9.7882,2.4449,-0.7546,9.467,0.0062,-0.0053,0.0026
39166,46.81588,-1.214287,126.78,34.31,8.576,152.2,0 / 18,3916615,2019-08-18 21:56:25:727,2.6916,-0.7084,9.3285,2.4531,-0.7567,9.4647,0.003,0.0,0.0026
39167,46.81588,-1.214287,126.78,34.31,8.576,152.2,0 / 18,3916716,2019-08-18 21:56:25:828,2.6251,-0.7348,9.4614,2.4498,-0.7594,9.4653,-0.0034,0.0096,0.0068
39168,46.81588,-1.214287,126.78,34.31,8.576,152.2,0 / 18,3916815,2019-08-18 21:56:25:927,2.1924,-1.0185,9.3962,2.4307,-0.7675,9.4696,-0.0023,0.0139,0.0068
39169,46.81588,-1.214287,126.78,34.31,8.576,152.2,0 / 18,3916914,2019-08-18 21:56:26:026,2.0727,-1.3609,9.3722,2.4124,-0.7793,9.4733,-0.0002,0.0043,-0.0028
39170,46.81588,-1.214287,126.78,34.31,8.576,152.2,0 / 18,3917015,2019-08-18 21:56:26:127,2.1421,-1.1747,9.5668,2.4082,-0.7876,9.4737,-0.0002,-0.0063,-0.0049
39171,46.81588,-1.214287,126.78,34.31,8.576,152.2,0 / 18,3917115,2019-08-18 21:56:26:227,2.0182,-1.2406,9.5799,2.3955,-0.8041,9.4755,-0.0034,0.0032,-0.0028
39172,46.81588,-1.214287,126.78,34.31,8.576,152.2,0 / 18,3917214,2019-08-18 21:56:26:326,2.2409,-1.1526,9.2495,2.3459,-0.8792,9.4813,-0.0023,0.0032,-0.0028
39173,46.81588,-1.214287,126.78,34.31,8.576,152.2,0 / 18,3917315,2019-08-18 21:56:26:427,1.9835,-1.0783,9.058,2.2735,-0.9536,9.4917,-0.0002,0.0096,-0.0017
39174,46.81588,-1.214287,126.78,34.31,8.576,152.2,0 / 18,3917416,2019-08-18 21:56:26:528,2.2283,-0.9862,9.3022,2.2559,-0.9941,9.4917,-0.0023,-0.001,-0.0038
39175,46.81588,-1.214287,126.78,34.31,8.576,152.2,0 / 18,3917516,2019-08-18 21:56:26:628,2.3977,-0.8976,9.5087,2.2561,-1.0366,9.4871,0.0051,-0.0042,-0.0049
39176,46.81588,-1.214287,126.78,34.31,8.576,152.2,0 / 18,3917614,2019-08-18 21:56:26:726,2.3737,-0.9293,9.5338,2.2656,-1.0511,9.4833,0.0073,0.0011,-0.0028
39177,46.81588,-1.214287,126.78,34.31,8.576,152.2,0 / 18,3917716,2019-08-18 21:56:26:828,2.6042,-0.9467,9.4985,2.2995,-1.0607,9.474,0.0083,0.0118,-0.0017
39178,46.81588,-1.214287,126.78,34.31,8.576,152.2,0 / 18,3917815,2019-08-18 21:56:26:927,2.5102,-1.134,9.7344,2.2977,-1.0573,9.4749,0.0019,0.0054,-0.0006
39179,46.81588,-1.214287,126.78,34.31,8.576,152.2,0 / 18,3917914,2019-08-18 21:56:27:026,2.6557,-1.0376,9.7529,2.3353,-1.0484,9.4667,0.0062,-0.0181,-0.0006
39180,46.81588,-1.214287,126.78,34.31,8.576,152.2,0 / 18,3918014,2019-08-18 21:56:27:126,2.497,-0.9796,9.6847,2.3415,-1.0392,9.4661,0.0051,0.0043,0.0036
39181,46.81588,-1.214287,126.78,34.31,8.576,152.2,0 / 18,3918115,2019-08-18 21:56:27:227,2.3636,-1.0137,9.6571,2.3456,-1.0247,9.4667,0.0073,0.0,0.0026
39182,46.81588,-1.214287,126.78,34.31,8.576,152.2,0 / 18,3918215,2019-08-18 21:56:27:327,2.2834,-0.87,9.3178,2.3522,-1.0113,9.4665,0.0115,0.0032,0.0026
39183,46.81588,-1.214287,126.78,34.31,8.576,152.2,0 / 18,3918314,2019-08-18 21:56:27:426,2.2582,-0.7408,9.0891,2.406,-0.9437,9.46,0.0062,0.0086,0.0004
39184,46.81588,-1.214287,126.78,34.31,8.576,152.2,0 / 18,3918415,2019-08-18 21:56:27:527,2.582,-0.8521,9.28,2.4442,-0.9166,9.4528,0.0051,-0.0042,0.0004
39185,46.81588,-1.214287,126.78,34.31,8.576,152.2,0 / 18,3918515,2019-08-18 21:56:27:627,2.5868,-0.7084,9.3184,2.487,-0.8834,9.4448,0.0105,0.0043,-0.0006
39186,46.81588,-1.214287,126.78,34.31,8.576,152.2,0 / 18,3918615,2019-08-18 21:56:27:727,2.6293,-0.6282,9.3513,2.4913,-0.8753,9.4445,0.0019,0.0118,0.0036
39187,46.81588,-1.214287,126.78,34.31,8.576,152.2,0 / 18,3918716,2019-08-18 21:56:27:828,2.2349,-0.7078,9.3956,2.46,-0.8636,9.4537,0.0009,0.0118,0.0036
39188,46.81588,-1.214287,126.78,34.31,8.576,152.2,0 / 18,3918814,2019-08-18 21:56:27:926,2.4587,-0.7563,9.781,2.4537,-0.866,9.4552,-0.0002,-0.0042,0.0015
39189,46.81588,-1.214287,126.78,34.31,8.576,152.2,0 / 18,3918915,2019-08-18 21:56:28:027,2.2241,-1.0622,9.8588,2.4441,-0.8702,9.4572,-0.0045,0.0011,0.0036
39190,46.81588,-1.214287,126.78,34.31,8.576,152.2,0 / 18,3919014,2019-08-18 21:56:28:126,2.3534,-1.0652,9.8774,2.4396,-0.8734,9.4581,-0.0023,-0.0053,0.0015
39191,46.81588,-1.214287,126.78,34.31,8.576,152.2,0 / 18,3919115,2019-08-18 21:56:28:227,1.953,-1.1232,9.4854,2.3829,-0.8945,9.4706,-0.0013,0.0043,0.0047
39192,46.81588,-1.214287,126.78,34.31,8.576,152.2,0 / 18,3919214,2019-08-18 21:56:28:326,2.1002,-0.8138,9.2076,2.3468,-0.8923,9.4798,0.0041,-0.0021,0.0026
39193,46.81588,-1.214287,126.78,34.31,8.576,152.2,0 / 18,3919315,2019-08-18 21:56:28:427,2.175,-1.0604,9.5027,2.3083,-0.8763,9.4908,0.003,0.0,0.0068
39194,46.81588,-1.214287,126.78,34.31,8.576,152.2,0 / 18,3919414,2019-08-18 21:56:28:526,2.3306,-0.812,9.547,2.3092,-0.8589,9.4921,0.0019,-0.0032,0.0047
39195,46.81588,-1.214287,126.78,34.31,8.576,152.2,0 / 18,3919514,2019-08-18 21:56:28:626,2.1463,-0.788,9.0831,2.319,-0.835,9.4919,0.0041,0.0032,0.0058
39196,46.81588,-1.214287,126.78,34.31,8.576,152.2,0 / 18,3919614,2019-08-18 21:56:28:726,2.421,-0.4774,9.2441,2.3348,-0.8083,9.4903,0.003,0.0011,0.0079
39197,46.81588,-1.214287,126.78,34.31,8.576,152.2,0 / 18,3919715,2019-08-18 21:56:28:827,2.6634,-0.5612,9.2525,2.3407,-0.8073,9.4889,-0.0023,-0.0021,0.009
39198,46.81588,-1.214287,126.78,34.31,8.576,152.2,0 / 18,3919814,2019-08-18 21:56:28:926,2.6856,-0.5438,9.3818,2.3688,-0.7614,9.4858,0.0126,0.0022,0.0068
39199,46.81588,-1.214287,126.78,34.31,8.576,152.2,0 / 18,3919915,2019-08-18 21:56:29:027,2.9334,-0.6001,10.06,2.3976,-0.741,9.4801,0.0009,-0.0138,0.0068
39200,46.81588,-1.214287,126.78,34.31,8.576,152.2,0 / 18,3920015,2019-08-18 21:56:29:127,2.685,-0.6953,9.8792,2.4048,-0.7395,9.4784,-0.0013,0.0054,0.009
39201,46.81588,-1.214287,126.78,34.31,8.576,152.2,0 / 18,3920114,2019-08-18 21:56:29:226,2.5294,-0.7467,9.9295,2.4001,-0.7358,9.4799,0.0009,0.0128,0.01
39202,46.81588,-1.214287,126.78,34.31,8.576,152.2,0 / 18,3920214,2019-08-18 21:56:29:326,2.0559,-0.7318,9.7158,2.375,-0.7257,9.487,0.0115,0.0192,0.009
39203,46.81588,-1.214287,126.78,34.31,8.576,152.2,0 / 18,3920315,2019-08-18 21:56:29:427,1.9027,-1.0209,9.8708,2.3674,-0.7247,9.489,0.0094,-0.0074,0.0058
39204,46.81588,-1.214287,126.78,34.31,8.576,152.2,0 / 18,3920417,2019-08-18 21:56:29:529,1.9266,-0.8437,9.7834,2.3656,-0.7207,9.4897,0.0073,-0.0063,0.0047
39205,46.81588,-1.214287,126.78,34.31,8.576,152.2,0 / 18,3920516,2019-08-18 21:56:29:628,1.6333,-0.66,8.7862,2.3309,-0.7136,9.4989,0.0137,0.0235,0.0079
39206,46.81588,-1.214287,126.78,34.31,8.576,152.2,0 / 18,3920614,2019-08-18 21:56:29:726,1.5489,-0.8634,9.9738,2.3103,-0.7106,9.5041,0.0041,-0.0159,0.0026
39207,46.81588,-1.214287,126.78,34.31,8.576,152.2,0 / 18,3920716,2019-08-18 21:56:29:828,1.68,-0.8808,9.8942,2.2969,-0.7229,9.5064,-0.0108,0.0032,0.0068
39208,46.81588,-1.214287,126.78,34.31,8.576,152.2,0 / 18,3920815,2019-08-18 21:56:29:927,1.8865,-0.8587,9.3339,2.2702,-0.7355,9.5119,-0.0023,0.0064,0.0079
39209,46.81588,-1.214287,126.78,34.31,8.576,152.2,0 / 18,3920914,2019-08-18 21:56:30:026,1.8159,-0.7707,9.0957,2.2543,-0.7374,9.5155,0.0062,0.0064,0.0058
39210,46.81588,-1.214287,126.78,34.31,8.576,152.2,0 / 18,3921014,2019-08-18 21:56:30:126,1.8889,-0.7719,9.3501,2.2415,-0.7376,9.5185,0.0051,-0.001,0.0058
39211,46.81588,-1.214287,126.78,34.31,8.576,152.2,0 / 18,3921115,2019-08-18 21:56:30:227,2.4659,-0.6905,9.4285,2.2318,-0.7344,9.521,0.0094,-0.0042,0.0036
39212,46.81588,-1.214287,126.78,34.31,8.576,152.2,0 / 18,3921215,2019-08-18 21:56:30:327,2.2917,-0.8982,10.0258,2.2225,-0.7311,9.5235,0.0051,-0.0021,0.0068
39213,46.81588,-1.214287,126.78,34.31,8.576,152.2,0 / 18,3921315,2019-08-18 21:56:30:427,2.2726,-0.8742,9.7188,2.1894,-0.7362,9.5307,0.0073,0.0011,0.0068
39214,46.81588,-1.214287,126.78,34.31,8.576,152.2,0 / 18,3921414,2019-08-18 21:56:30:526,2.1259,-0.8581,9.8822,2.1342,-0.7364,9.5432,-0.0013,-0.0096,0.0068
39215,46.81588,-1.214287,126.78,34.31,8.576,152.2,0 / 18,3921514,2019-08-18 21:56:30:626,1.8518,-0.897,10.5855,2.1494,-0.7454,9.5391,-0.0119,-0.0309,0.0058
39216,46.81588,-1.214287,126.78,34.31,8.576,152.2,0 / 18,3921614,2019-08-18 21:56:30:726,1.5304,-0.9143,9.5829,2.1579,-0.7638,9.5357,-0.013,0.0022,0.01
39217,46.81588,-1.214287,126.78,34.31,8.576,152.2,0 / 18,3921715,2019-08-18 21:56:30:827,2.002,-0.9694,8.7922,2.1514,-0.7672,9.5369,0.0009,0.0107,0.01
39218,46.81588,-1.214287,126.78,34.31,8.576,152.2,0 / 18,3921816,2019-08-18 21:56:30:928,2.0044,-0.8264,8.7455,2.143,-0.7566,9.5397,0.0115,0.0043,0.0079
39219,46.81588,-1.214287,126.78,34.31,8.576,152.2,0 / 18,3921914,2019-08-18 21:56:31:026,2.1451,-0.5762,9.292,2.1562,-0.7491,9.5373,0.0073,-0.0117,0.0068
39220,46.81588,-1.214287,126.78,34.31,8.576,152.2,0 / 18,3922014,2019-08-18 21:56:31:126,2.3917,-0.5516,9.1406,2.1666,-0.7328,9.5362,0.0126,0.016,0.0079
39221,46.81588,-1.214287,126.78,34.31,8.576,152.2,0 / 18,3922116,2019-08-18 21:56:31:228,2.2726,-0.7156,9.5739,2.1646,-0.7246,9.5373,0.0073,0.0171,0.009
39222,46.81588,-1.214287,126.78,34.31,8.576,152.2,0 / 18,3922214,2019-08-18 21:56:31:326,2.5078,-0.572,9.6673,2.1834,-0.7153,9.5337,0.0083,-0.0074,0.0047
39223,46.81588,-1.214287,126.78,34.31,8.576,152.2,Nov-18,3922314,2019-08-18 21:56:31:426,2.4348,-0.5271,9.4788,2.1979,-0.7122,9.5306,-0.0013,-0.0032,0.009
39224,46.81588,-1.214287,126.78,34.31,8.576,152.2,Nov-18,3922414,2019-08-18 21:56:31:526,2.8083,-0.5726,9.8176,2.2607,-0.7074,9.5163,0.0051,-0.0138,0.0047
39225,46.81588,-1.214287,126.78,34.31,8.576,152.2,Nov-18,3922514,2019-08-18 21:56:31:626,2.6497,-0.4475,9.3357,2.33,-0.6954,9.5004,0.0062,0.0075,0.0079
39226,46.81588,-1.214287,126.78,34.31,8.576,152.2,Nov-18,3922614,2019-08-18 21:56:31:726,2.8466,-0.5935,9.4494,2.3433,-0.6925,9.4974,-0.0023,-0.0032,0.0079
39227,46.81588,-1.214287,126.78,34.31,8.576,152.2,Nov-18,3922714,2019-08-18 21:56:31:826,2.7269,-0.7803,9.4417,2.3535,-0.6922,9.4948,-0.0023,-0.001,0.0079
39228,46.81588,-1.214287,126.78,34.31,8.576,152.2,Nov-18,3922814,2019-08-18 21:56:31:926,2.755,-0.6582,9.2052,2.4156,-0.6806,9.4801,-0.0023,0.0,0.0079
39229,46.81588,-1.214287,126.78,34.31,8.576,152.2,Nov-18,3922916,2019-08-18 21:56:32:028,2.8227,-0.8413,9.4046,2.4569,-0.6817,9.4694,0.0062,0.0128,0.0058
39230,46.81588,-1.214287,126.78,34.31,8.576,152.2,Nov-18,3923015,2019-08-18 21:56:32:127,2.4779,-0.7832,9.0412,2.4746,-0.6813,9.4648,0.0073,0.0,0.0058
39231,46.81588,-1.214287,126.78,34.31,8.576,152.2,Nov-18,3923115,2019-08-18 21:56:32:227,2.433,-0.8718,9.7816,2.4859,-0.6771,9.4621,0.0062,-0.0106,0.0036
39232,46.81588,-1.214287,126.78,34.31,8.576,152.2,Nov-18,3923215,2019-08-18 21:56:32:327,2.3408,-0.8156,9.5165,2.4775,-0.6756,9.4644,0.0062,0.0075,0.0058
39233,46.81351,-1.212345,150.41,33.62,9.648001,150.7,0 / 18,3923314,2019-08-18 21:56:32:426,2.2115,-1.1143,10.5514,2.4752,-0.6905,9.464,-0.0023,-0.0106,0.0047
39234,46.81351,-1.212345,150.41,33.62,9.648001,150.7,0 / 18,3923414,2019-08-18 21:56:32:526,2.2283,-0.7503,9.2088,2.4655,-0.7122,9.4649,-0.0247,0.0086,0.01
39235,46.81351,-1.212345,150.41,33.62,9.648001,150.7,0 / 18,3923515,2019-08-18 21:56:32:627,2.1415,-0.6857,8.6402,2.446,-0.7238,9.4691,-0.0045,0.0192,0.0079
39236,46.81351,-1.212345,150.41,33.62,9.648001,150.7,0 / 18,3923614,2019-08-18 21:56:32:726,2.0709,-0.5899,9.055,2.4206,-0.722,9.4758,0.0105,0.0064,0.0036
39237,46.81351,-1.212345,150.41,33.62,9.648001,150.7,0 / 18,3923715,2019-08-18 21:56:32:827,2.3253,-0.6917,9.4698,2.4216,-0.7264,9.4752,-0.0002,-0.0085,0.0058
39238,46.81351,-1.212345,150.41,33.62,9.648001,150.7,0 / 18,3923815,2019-08-18 21:56:32:927,2.2714,-0.4726,9.31,2.4209,-0.7247,9.4755,0.0126,-0.0021,0.0004
39239,46.81351,-1.212345,150.41,33.62,9.648001,150.7,0 / 18,3923914,2019-08-18 21:56:33:026,2.7454,-0.8317,10.2162,2.4171,-0.722,9.4767,0.0051,-0.0042,0.0026
39240,46.81351,-1.212345,150.41,33.62,9.648001,150.7,0 / 18,3924014,2019-08-18 21:56:33:126,2.6401,-1.1537,9.6661,2.4225,-0.7295,9.4747,-0.0023,-0.0096,0.0036
39241,46.81351,-1.212345,150.41,33.62,9.648001,150.7,0 / 18,3924114,2019-08-18 21:56:33:226,2.6694,-0.8066,9.5979,2.4227,-0.7376,9.474,-0.0098,0.0054,0.0047
39242,46.81351,-1.212345,150.41,33.62,9.648001,150.7,0 / 18,3924216,2019-08-18 21:56:33:328,2.4659,-0.7982,9.1663,2.4211,-0.7491,9.4735,-0.0034,0.0,0.0047
39243,46.81351,-1.212345,150.41,33.62,9.648001,150.7,0 / 18,3924314,2019-08-18 21:56:33:426,2.445,-1.3674,9.2088,2.4347,-0.7635,9.4689,0.003,0.0022,0.0036
39244,46.81351,-1.212345,150.41,33.62,9.648001,150.7,0 / 18,3924416,2019-08-18 21:56:33:528,2.4109,-1.0688,9.2166,2.4626,-0.7868,9.4598,-0.0055,-0.0021,0.0068
39245,46.81351,-1.212345,150.41,33.62,9.648001,150.7,0 / 18,3924515,2019-08-18 21:56:33:627,2.3989,-0.736,9.2268,2.4905,-0.7981,9.4515,0.003,0.0064,0.0015
39246,46.81351,-1.212345,150.41,33.62,9.648001,150.7,0 / 18,3924614,2019-08-18 21:56:33:726,2.3839,-1.1101,9.38,2.4971,-0.7999,9.4496,0.003,0.0011,-0.0017
39247,46.81351,-1.212345,150.41,33.62,9.648001,150.7,0 / 18,3924716,2019-08-18 21:56:33:828,2.6359,-1.0149,9.313,2.5029,-0.8043,9.4477,0.0019,-0.0032,-0.0049
39248,46.81351,-1.212345,150.41,33.62,9.648001,150.7,0 / 18,3924814,2019-08-18 21:56:33:926,2.6174,-1.152,8.9682,2.5019,-0.8135,9.4472,-0.0002,0.0096,-0.006
39249,46.81351,-1.212345,150.41,33.62,9.648001,150.7,0 / 18,3924915,2019-08-18 21:56:34:027,2.448,-0.9455,9.122,2.5022,-0.8248,9.4461,0.0041,0.0022,-0.0081
39250,46.81351,-1.212345,150.41,33.62,9.648001,150.7,0 / 18,3925014,2019-08-18 21:56:34:126,2.7838,-0.9957,9.7218,2.5155,-0.8612,9.4393,0.0051,0.0032,-0.007
39251,46.81351,-1.212345,150.41,33.62,9.648001,150.7,0 / 18,3925115,2019-08-18 21:56:34:227,2.6395,-0.9975,9.6386,2.5207,-0.8698,9.4372,0.0062,-0.0032,-0.0081
39252,46.81351,-1.212345,150.41,33.62,9.648001,150.7,0 / 18,3925214,2019-08-18 21:56:34:326,2.8807,-1.0406,9.6404,2.5383,-0.9149,9.4282,-0.0023,0.0075,-0.0017
39253,46.81351,-1.212345,150.41,33.62,9.648001,150.7,0 / 18,3925314,2019-08-18 21:56:34:426,2.6221,-1.049,9.152,2.5547,-0.9486,9.4204,-0.0023,0.0086,-0.0038
39254,46.81351,-1.212345,150.41,33.62,9.648001,150.7,0 / 18,3925416,2019-08-18 21:56:34:528,2.5605,-1.1903,9.532,2.5684,-0.9763,9.4139,0.003,0.0032,-0.007
39255,46.81351,-1.212345,150.41,33.62,9.648001,150.7,0 / 18,3925516,2019-08-18 21:56:34:628,2.451,-1.2513,9.2747,2.5845,-1.0075,9.4061,-0.0055,0.0022,-0.0049
39256,46.81351,-1.212345,150.41,33.62,9.648001,150.7,0 / 18,3925615,2019-08-18 21:56:34:727,2.3606,-1.3154,9.134,2.5948,-1.0151,9.4025,0.003,0.0,-0.006
39257,46.81351,-1.212345,150.41,33.62,9.648001,150.7,0 / 18,3925716,2019-08-18 21:56:34:828,2.2929,-1.1107,9.3112,2.5885,-1.0175,9.404,-0.0076,0.0022,-0.0006
39258,46.81351,-1.212345,150.41,33.62,9.648001,150.7,0 / 18,3925816,2019-08-18 21:56:34:928,2.1852,-0.9658,9.0293,2.581,-1.0278,9.4049,-0.0066,0.0054,-0.0006
39259,46.81351,-1.212345,150.41,33.62,9.648001,150.7,0 / 18,3925914,2019-08-18 21:56:35:026,2.4222,-1.0203,9.1837,2.53,-1.0611,9.4151,0.003,0.0086,-0.0049
39260,46.81351,-1.212345,150.41,33.62,9.648001,150.7,0 / 18,3926015,2019-08-18 21:56:35:127,2.5988,-1.1005,9.4387,2.5016,-1.078,9.4207,-0.0023,0.0022,-0.0049
39261,46.81351,-1.212345,150.41,33.62,9.648001,150.7,0 / 18,3926114,2019-08-18 21:56:35:226,2.5354,-1.1448,9.2507,2.4868,-1.0887,9.4234,0.003,0.0,-0.006
39262,46.81351,-1.212345,150.41,33.62,9.648001,150.7,0 / 18,3926215,2019-08-18 21:56:35:327,2.6832,-1.0233,9.2693,2.4867,-1.0876,9.4236,0.0019,0.0022,-0.0049
39263,46.81351,-1.212345,150.41,33.62,9.648001,150.7,0 / 18,3926314,2019-08-18 21:56:35:426,2.5671,-1.0029,9.7074,2.4904,-1.1038,9.4207,0.0019,0.0011,-0.006
39264,46.81351,-1.212345,150.41,33.62,9.648001,150.7,0 / 18,3926415,2019-08-18 21:56:35:527,2.6317,-1.1591,9.5721,2.4982,-1.099,9.4192,-0.0034,-0.0021,-0.0038
39265,46.81351,-1.212345,150.41,33.62,9.648001,150.7,0 / 18,3926514,2019-08-18 21:56:35:626,2.5533,-1.07,9.2884,2.5106,-1.0911,9.4168,-0.0076,0.0086,-0.0006
39266,46.81351,-1.212345,150.41,33.62,9.648001,150.7,0 / 18,3926615,2019-08-18 21:56:35:727,2.4917,-1.0275,9.3142,2.5213,-1.0921,9.4139,-0.0055,0.0011,-0.0038
39267,46.81351,-1.212345,150.41,33.62,9.648001,150.7,0 / 18,3926715,2019-08-18 21:56:35:827,2.351,-1.1226,9.1945,2.5493,-1.0989,9.4055,0.0009,-0.0096,-0.007
39268,46.81351,-1.212345,150.41,33.62,9.648001,150.7,0 / 18,3926815,2019-08-18 21:56:35:927,2.4354,-1.2609,9.237,2.5683,-1.0994,9.4003,0.0009,0.0011,-0.0049
39269,46.81351,-1.212345,150.41,33.62,9.648001,150.7,0 / 18,3926915,2019-08-18 21:56:36:027,2.6569,-1.0801,9.4662,2.5979,-1.1133,9.3905,0.003,0.0032,-0.0049
39270,46.81351,-1.212345,150.41,33.62,9.648001,150.7,0 / 18,3927014,2019-08-18 21:56:36:126,2.6233,-1.0664,9.1149,2.6117,-1.1207,9.3858,0.0019,0.0128,-0.0028
39271,46.81351,-1.212345,150.41,33.62,9.648001,150.7,0 / 18,3927114,2019-08-18 21:56:36:226,2.8059,-0.9203,9.3591,2.6234,-1.1118,9.3836,0.0062,-0.001,-0.0049
39272,46.81351,-1.212345,150.41,33.62,9.648001,150.7,0 / 18,3927214,2019-08-18 21:56:36:326,2.7676,-0.9042,9.204,2.6275,-1.1022,9.3836,0.0083,0.0011,-0.006
39273,46.81351,-1.212345,150.41,33.62,9.648001,150.7,0 / 18,3927314,2019-08-18 21:56:36:426,3.0824,-1.1029,9.5296,2.6287,-1.0984,9.3837,-0.0066,0.0022,-0.0028
39274,46.81351,-1.212345,150.41,33.62,9.648001,150.7,0 / 18,3927414,2019-08-18 21:56:36:526,2.685,-1.0694,9.4099,2.6203,-1.0934,9.3866,-0.0023,0.0086,-0.0028
39275,46.81351,-1.212345,150.41,33.62,9.648001,150.7,0 / 18,3927514,2019-08-18 21:56:36:626,2.4725,-1.3237,9.8415,2.5977,-1.088,9.3935,-0.0034,0.0022,-0.0028
39276,46.81351,-1.212345,150.41,33.62,9.648001,150.7,0 / 18,3927614,2019-08-18 21:56:36:726,2.2816,-1.1669,9.371,2.581,-1.0889,9.398,0.0019,0.0139,-0.0049
39277,46.81351,-1.212345,150.41,33.62,9.648001,150.7,0 / 18,3927715,2019-08-18 21:56:36:827,2.0224,-1.1232,9.1939,2.5693,-1.0951,9.4005,-0.0076,0.0075,-0.0017
39278,46.81351,-1.212345,150.41,33.62,9.648001,150.7,0 / 18,3927814,2019-08-18 21:56:36:926,2.2211,-1.1562,9.119,2.5623,-1.1016,9.4017,-0.0055,0.0011,-0.006
39279,46.81351,-1.212345,150.41,33.62,9.648001,150.7,0 / 18,3927915,2019-08-18 21:56:37:027,2.3779,-1.1023,9.4854,2.5252,-1.1221,9.4093,0.0041,0.0011,-0.0081
39280,46.81351,-1.212345,150.41,33.62,9.648001,150.7,0 / 18,3928014,2019-08-18 21:56:37:126,2.4964,-1.2202,9.2729,2.5006,-1.1442,9.4132,0.0041,-0.0032,-0.0092
39281,46.81351,-1.212345,150.41,33.62,9.648001,150.7,0 / 18,3928115,2019-08-18 21:56:37:227,2.6102,-1.1879,9.201,2.4947,-1.1725,9.4113,-0.0045,0.0086,-0.0038
39282,46.81351,-1.212345,150.41,33.62,9.648001,150.7,0 / 18,3928214,2019-08-18 21:56:37:326,2.9041,-1.1538,9.8415,2.4983,-1.1783,9.4096,-0.0034,-0.0053,-0.006
39283,46.81351,-1.212345,150.41,33.62,9.648001,150.7,0 / 18,3928315,2019-08-18 21:56:37:427,2.6473,-1.1921,9.4901,2.5119,-1.1735,9.4066,0.0009,-0.0021,-0.007
39284,46.81351,-1.212345,150.41,33.62,9.648001,150.7,0 / 18,3928416,2019-08-18 21:56:37:528,2.6724,-1.1107,9.395,2.5273,-1.1654,9.4034,0.0083,0.0086,-0.006
39285,46.81351,-1.212345,150.41,33.62,9.648001,150.7,0 / 18,3928516,2019-08-18 21:56:37:628,2.4551,-1.1663,9.2765,2.5267,-1.1525,9.4052,-0.0013,0.0128,-0.0028
39286,46.81351,-1.212345,150.41,33.62,9.648001,150.7,0 / 18,3928614,2019-08-18 21:56:37:726,2.2684,-1.0616,9.6595,2.5047,-1.1407,9.4125,0.003,0.0054,-0.0017
39287,46.81351,-1.212345,150.41,33.62,9.648001,150.7,0 / 18,3928714,2019-08-18 21:56:37:826,2.0415,-1.1897,9.137,2.472,-1.1289,9.4226,0.0051,0.0054,-0.0028
39288,46.81351,-1.212345,150.41,33.62,9.648001,150.7,0 / 18,3928815,2019-08-18 21:56:37:927,2.0811,-1.0406,9.4099,2.4224,-1.1191,9.4366,-0.0055,0.0022,0.0004
39289,46.81351,-1.212345,150.41,33.62,9.648001,150.7,0 / 18,3928914,2019-08-18 21:56:38:026,2.1451,-0.8281,9.3399,2.3791,-1.1205,9.4475,-0.0045,0.0054,-0.0017
39290,46.81351,-1.212345,150.41,33.62,9.648001,150.7,0 / 18,3929015,2019-08-18 21:56:38:127,2.266,-1.1388,9.3453,2.3419,-1.1093,9.4581,0.0041,0.0096,-0.0028
39291,46.81351,-1.212345,150.41,33.62,9.648001,150.7,0 / 18,3929115,2019-08-18 21:56:38:227,2.4671,-1.0185,9.3896,2.3096,-1.0954,9.4676,0.0019,0.0022,-0.0006
39292,46.81351,-1.212345,150.41,33.62,9.648001,150.7,0 / 18,3929216,2019-08-18 21:56:38:328,2.509,-1.1119,9.6194,2.2859,-1.0737,9.4759,0.0158,0.0064,-0.0017
39293,46.81351,-1.212345,150.41,33.62,9.648001,150.7,0 / 18,3929317,2019-08-18 21:56:38:429,2.4851,-0.9419,9.9995,2.2776,-1.055,9.48,0.0083,0.0011,0.0004
39294,46.81351,-1.212345,150.41,33.62,9.648001,150.7,0 / 18,3929416,2019-08-18 21:56:38:528,2.506,-0.9209,9.4447,2.2915,-1.0271,9.4797,0.0019,0.0011,0.0026
39295,46.81351,-1.212345,150.41,33.62,9.648001,150.7,0 / 18,3929516,2019-08-18 21:56:38:628,2.5144,-1.0065,9.6733,2.2903,-1.0249,9.4802,-0.0066,0.0043,0.0058
39296,46.81351,-1.212345,150.41,33.62,9.648001,150.7,0 / 18,3929615,2019-08-18 21:56:38:727,2.1978,-0.9137,9.2118,2.2911,-1.027,9.4798,-0.0076,0.0011,0.0047
39297,46.81351,-1.212345,150.41,33.62,9.648001,150.7,0 / 18,3929716,2019-08-18 21:56:38:828,2.2504,-0.9652,9.6422,2.2978,-1.0237,9.4785,0.0019,-0.0063,0.0026
39298,46.81351,-1.212345,150.41,33.62,9.648001,150.7,0 / 18,3929814,2019-08-18 21:56:38:926,2.1822,-0.6749,9.1077,2.3179,-1.0057,9.4756,0.0019,-0.0032,0.0026
39299,46.81351,-1.212345,150.41,33.62,9.648001,150.7,0 / 18,3929914,2019-08-18 21:56:39:026,2.4881,-0.5732,9.2992,2.3255,-1.0058,9.4737,-0.0045,0.0011,0.0058
39300,46.81351,-1.212345,150.41,33.62,9.648001,150.7,0 / 18,3930014,2019-08-18 21:56:39:126,2.4695,-0.8407,9.4931,2.325,-1.0023,9.4742,-0.0013,0.0086,0.0047
39301,46.81351,-1.212345,150.41,33.62,9.648001,150.7,0 / 18,3930114,2019-08-18 21:56:39:226,2.6377,-0.827,9.298,2.3244,-0.9912,9.4755,0.0009,0.0032,0.0015
39302,46.81351,-1.212345,150.41,33.62,9.648001,150.7,0 / 18,3930214,2019-08-18 21:56:39:326,2.9274,-1.0113,10.0624,2.3268,-0.9926,9.4748,-0.0002,-0.0032,0.0004
39303,46.81351,-1.212345,150.41,33.62,9.648001,150.7,0 / 18,3930314,2019-08-18 21:56:39:426,2.3522,-1.1035,9.4931,2.3253,-0.9871,9.4757,0.0041,0.0064,0.0015
39304,46.81351,-1.212345,150.41,33.62,9.648001,150.7,0 / 18,3930414,2019-08-18 21:56:39:526,2.0613,-1.2417,9.2657,2.3143,-0.9915,9.478,-0.0066,0.0118,0.0036
39305,46.81351,-1.212345,150.41,33.62,9.648001,150.7,0 / 18,3930514,2019-08-18 21:56:39:626,1.9865,-1.0346,9.0257,2.3082,-0.9882,9.4798,0.0062,0.0086,0.0004
39306,46.81351,-1.212345,150.41,33.62,9.648001,150.7,0 / 18,3930614,2019-08-18 21:56:39:726,2.1631,-0.8778,9.3633,2.3157,-0.9861,9.4782,-0.0023,-0.0085,0.0015
39307,46.81351,-1.212345,150.41,33.62,9.648001,150.7,0 / 18,3930716,2019-08-18 21:56:39:828,2.4905,-1.0233,9.4877,2.3228,-0.9847,9.4766,0.0051,-0.0053,-0.0017
39308,46.81351,-1.212345,150.41,33.62,9.648001,150.7,0 / 18,3930815,2019-08-18 21:56:39:927,2.4498,-1.0604,9.2214,2.3305,-0.98,9.4752,-0.0002,0.0,0.0004
39309,46.81351,-1.212345,150.41,33.62,9.648001,150.7,0 / 18,3930914,2019-08-18 21:56:40:026,2.5294,-0.7048,9.2669,2.3683,-0.9719,9.4666,0.0009,0.0054,0.0004
39310,46.81351,-1.212345,150.41,33.62,9.648001,150.7,0 / 18,3931015,2019-08-18 21:56:40:127,2.8376,-0.8754,9.4512,2.4148,-0.9684,9.4552,-0.0013,0.0,0.0004
39311,46.81351,-1.212345,150.41,33.62,9.648001,150.7,0 / 18,3931114,2019-08-18 21:56:40:226,2.7197,-0.797,9.219,2.451,-0.9641,9.4463,-0.0034,0.0011,0.0015
39312,46.81351,-1.212345,150.41,33.62,9.648001,150.7,0 / 18,3931215,2019-08-18 21:56:40:327,2.9112,-0.8868,9.3758,2.4849,-0.9542,9.4385,0.0083,0.0107,-0.0006
39313,46.81351,-1.212345,150.41,33.62,9.648001,150.7,Oct-18,3931315,2019-08-18 21:56:40:427,2.2355,-1.0861,9.4429,2.4829,-0.9403,9.4404,0.0137,0.0022,-0.0038
39314,46.81351,-1.212345,150.41,33.62,9.648001,150.7,Oct-18,3931414,2019-08-18 21:56:40:526,2.09,-0.8748,9.1214,2.4774,-0.9439,9.4415,-0.0013,0.0054,0.0015
39315,46.81351,-1.212345,150.41,33.62,9.648001,150.7,Oct-18,3931516,2019-08-18 21:56:40:628,1.9117,-1.0688,9.5153,2.4645,-0.9493,9.4443,-0.0119,0.0086,0.0036
39316,46.81351,-1.212345,150.41,33.62,9.648001,150.7,Oct-18,3931614,2019-08-18 21:56:40:726,2.096,-1.0329,9.7403,2.4233,-0.9554,9.4544,0.003,0.0032,0.0004
39317,46.81351,-1.212345,150.41,33.62,9.648001,150.7,Oct-18,3931715,2019-08-18 21:56:40:827,2.0966,-0.9359,9.7194,2.4073,-0.9564,9.4584,0.0051,-0.0138,-0.0017
39318,46.81351,-1.212345,150.41,33.62,9.648001,150.7,Oct-18,3931815,2019-08-18 21:56:40:927,2.4133,-0.9712,9.7457,2.4107,-0.9546,9.4577,0.0041,-0.0085,-0.0038
39319,46.81351,-1.212345,150.41,33.62,9.648001,150.7,Oct-18,3931914,2019-08-18 21:56:41:026,2.6036,-0.8886,9.201,2.3949,-0.9586,9.4613,-0.0045,0.015,0.0026
39320,46.81351,-1.212345,150.41,33.62,9.648001,150.7,Oct-18,3932015,2019-08-18 21:56:41:127,2.2618,-0.9754,9.5979,2.3836,-0.9584,9.4642,0.0073,0.0086,-0.0006
39321,46.81351,-1.212345,150.41,33.62,9.648001,150.7,Oct-18,3932114,2019-08-18 21:56:41:226,2.4132,-0.8473,9.3106,2.3833,-0.9569,9.4644,0.003,-0.0021,0.0026
39322,46.81351,-1.212345,150.41,33.62,9.648001,150.7,Oct-18,3932215,2019-08-18 21:56:41:327,2.4055,-1.1035,9.4321,2.3788,-0.9629,9.4649,0.0009,0.0054,0.0004
39323,46.81351,-1.212345,150.41,33.62,9.648001,150.7,Oct-18,3932314,2019-08-18 21:56:41:426,2.2846,-0.9251,9.9738,2.3899,-0.974,9.461,-0.0023,-0.0138,-0.0006
39324,46.81351,-1.212345,150.41,33.62,9.648001,150.7,Oct-18,3932415,2019-08-18 21:56:41:527,2.0834,-1.0562,9.1202,2.4002,-0.9733,9.4584,-0.0002,-0.0085,-0.0006
39325,46.81351,-1.212345,150.41,33.62,9.648001,150.7,Oct-18,3932514,2019-08-18 21:56:41:626,2.5773,-1.0795,9.6278,2.4028,-0.967,9.4584,0.0019,0.0,0.0015
39326,46.81351,-1.212345,150.41,33.62,9.648001,150.7,Oct-18,3932615,2019-08-18 21:56:41:727,2.5635,-0.7551,9.2274,2.425,-0.9793,9.4515,-0.0013,0.0075,0.0015
39327,46.81351,-1.212345,150.41,33.62,9.648001,150.7,Oct-18,3932714,2019-08-18 21:56:41:826,2.6305,-0.7946,9.3118,2.423,-0.9786,9.4521,0.003,0.0075,0.0004
39328,46.81351,-1.212345,150.41,33.62,9.648001,150.7,Oct-18,3932814,2019-08-18 21:56:41:926,2.67,-0.7366,9.1693,2.42,-0.9811,9.4526,-0.0045,0.0128,0.0036
39329,46.81351,-1.212345,150.41,33.62,9.648001,150.7,Oct-18,3932914,2019-08-18 21:56:42:026,2.3839,-1.1214,9.5482,2.4048,-0.9756,9.457,0.0115,0.0096,-0.0006
39330,46.81351,-1.212345,150.41,33.62,9.648001,150.7,Oct-18,3933014,2019-08-18 21:56:42:126,2.4216,-1.0329,9.7062,2.4021,-0.9675,9.4586,0.0105,-0.0021,-0.0017
39331,46.81351,-1.212345,150.41,33.62,9.648001,150.7,Oct-18,3933115,2019-08-18 21:56:42:227,2.2193,-1.0652,9.5614,2.4007,-0.9594,9.4597,0.0073,0.0,-0.0017
39332,46.81351,-1.212345,150.41,33.62,9.648001,150.7,Oct-18,3933215,2019-08-18 21:56:42:327,2.1744,-1.0317,9.6081,2.397,-0.9586,9.4608,0.0019,-0.001,0.0004
39333,46.81351,-1.212345,150.41,33.62,9.648001,150.7,Oct-18,3933315,2019-08-18 21:56:42:427,2.1014,-1.2435,9.4045,2.373,-0.9587,9.4668,0.0019,0.0022,0.0004
39334,46.81351,-1.212345,150.41,33.62,9.648001,150.7,Oct-18,3933415,2019-08-18 21:56:42:527,2.2762,-1.0017,9.2238,2.3565,-0.9597,9.4708,0.0051,0.0054,0.0015
39335,46.81351,-1.212345,150.41,33.62,9.648001,150.7,Oct-18,3933515,2019-08-18 21:56:42:627,2.5916,-0.8401,9.462,2.3685,-0.9486,9.4689,0.0051,-0.0032,0.0015
39336,46.81351,-1.212345,150.41,33.62,9.648001,150.7,Oct-18,3933616,2019-08-18 21:56:42:728,2.4599,-0.6719,9.1867,2.3702,-0.9399,9.4694,0.0041,0.0054,0.0036
39337,46.81351,-1.212345,150.41,33.62,9.648001,150.7,Oct-18,3933715,2019-08-18 21:56:42:827,2.5719,-0.6456,9.5739,2.3707,-0.9309,9.4701,0.0073,0.0043,0.0015
39338,46.81351,-1.212345,150.41,33.62,9.648001,150.7,Oct-18,3933814,2019-08-18 21:56:42:926,2.5653,-1.0646,9.3052,2.3905,-0.9041,9.4678,-0.0076,0.0,0.0047
39339,46.81351,-1.212345,150.41,33.62,9.648001,150.7,Oct-18,3933915,2019-08-18 21:56:43:027,2.5198,-0.9341,9.8481,2.4024,-0.8937,9.4657,-0.0023,-0.0021,0.0036
39340,46.81351,-1.212345,150.41,33.62,9.648001,150.7,Oct-18,3934014,2019-08-18 21:56:43:126,2.0068,-0.8425,9.6853,2.393,-0.8979,9.4677,-0.0098,0.0011,0.0068
39341,46.81351,-1.212345,150.41,33.62,9.648001,150.7,Oct-18,3934115,2019-08-18 21:56:43:227,2.0481,-0.8652,9.3896,2.3484,-0.8963,9.479,-0.0002,0.0075,0.0026
39342,46.81351,-1.212345,150.41,33.62,9.648001,150.7,Oct-18,3934214,2019-08-18 21:56:43:326,2.0535,-0.876,9.1388,2.3055,-0.9089,9.4884,-0.0002,0.0128,0.0036
39343,46.81351,-1.212345,150.41,33.62,9.648001,150.7,Oct-18,3934316,2019-08-18 21:56:43:428,2.2187,-1.0897,9.474,2.256,-0.9362,9.4976,0.003,0.0096,0.0036
39344,46.81351,-1.212345,150.41,33.62,9.648001,150.7,Oct-18,3934416,2019-08-18 21:56:43:528,2.2163,-1.0406,9.152,2.2268,-0.9351,9.5046,0.0009,0.0064,0.0036
39345,46.81351,-1.212345,150.41,33.62,9.648001,150.7,Oct-18,3934514,2019-08-18 21:56:43:626,2.3504,-0.8778,9.4716,2.1998,-0.9499,9.5094,0.0137,-0.0053,-0.0028
39346,46.81351,-1.212345,150.41,33.62,9.648001,150.7,Oct-18,3934616,2019-08-18 21:56:43:728,2.4863,-1.1627,9.9648,2.2003,-0.9437,9.5099,0.0051,-0.0042,0.0004
39347,46.81351,-1.212345,150.41,33.62,9.648001,150.7,Oct-18,3934716,2019-08-18 21:56:43:828,2.1912,-1.0071,9.5973,2.1963,-0.9475,9.5105,-0.0034,0.0011,0.0047
39348,46.81351,-1.212345,150.41,33.62,9.648001,150.7,Oct-18,3934815,2019-08-18 21:56:43:927,2.0547,-0.8964,9.3453,2.182,-0.9427,9.5142,0.0062,0.0022,0.0026
39349,46.81351,-1.212345,150.41,33.62,9.648001,150.7,Oct-18,3934914,2019-08-18 21:56:44:026,1.7614,-0.8132,8.8838,2.1526,-0.9449,9.5207,0.0062,0.0011,0.0026
39350,46.81351,-1.212345,150.41,33.62,9.648001,150.7,Oct-18,3935014,2019-08-18 21:56:44:126,1.9559,-0.8347,9.9289,2.1318,-0.941,9.5258,0.0062,0.0032,0.0015
39351,46.81351,-1.212345,150.41,33.62,9.648001,150.7,Oct-18,3935114,2019-08-18 21:56:44:226,1.8596,-0.7647,9.3405,2.1362,-0.9391,9.525,-0.0002,-0.0074,0.0026
39352,46.81351,-1.212345,150.41,33.62,9.648001,150.7,Oct-18,3935214,2019-08-18 21:56:44:326,2.5204,-0.7336,9.2244,2.1377,-0.9389,9.5247,-0.0023,0.0032,0.0047
39353,46.81351,-1.212345,150.41,33.62,9.648001,150.7,Oct-18,3935315,2019-08-18 21:56:44:427,2.5258,-0.7611,9.4572,2.1317,-0.9417,9.5257,0.0009,0.0043,0.0026
39354,46.81351,-1.212345,150.41,33.62,9.648001,150.7,Oct-18,3935415,2019-08-18 21:56:44:527,2.4186,-0.9688,9.1406,2.1372,-0.9367,9.525,0.0062,-0.001,0.0026
39355,46.81351,-1.212345,150.41,33.62,9.648001,150.7,Oct-18,3935514,2019-08-18 21:56:44:626,2.6473,-0.988,9.6577,2.1644,-0.9183,9.5206,0.019,-0.001,0.0004
39356,46.81351,-1.212345,150.41,33.62,9.648001,150.7,Oct-18,3935615,2019-08-18 21:56:44:727,2.4665,-0.876,9.7966,2.1978,-0.9068,9.5141,0.0115,-0.0053,0.0015
39357,46.81351,-1.212345,150.41,33.62,9.648001,150.7,Oct-18,3935715,2019-08-18 21:56:44:827,1.616,-0.7809,8.8078,2.2047,-0.9011,9.513,-0.0066,0.0054,0.0068
39358,46.81351,-1.212345,150.41,33.62,9.648001,150.7,Oct-18,3935815,2019-08-18 21:56:44:927,1.8704,-0.9221,8.9113,2.1965,-0.8951,9.5155,-0.0108,0.015,0.0079
39359,46.81351,-1.212345,150.41,33.62,9.648001,150.7,Oct-18,3935915,2019-08-18 21:56:45:027,1.5813,-1.0442,9.3285,2.1768,-0.897,9.5198,-0.0055,0.0086,0.0036
39360,46.81351,-1.212345,150.41,33.62,9.648001,150.7,Oct-18,3936014,2019-08-18 21:56:45:126,1.4316,-0.897,9.2441,2.1586,-0.9047,9.5232,-0.0034,0.0022,0.0026
39361,46.81351,-1.212345,150.41,33.62,9.648001,150.7,Oct-18,3936115,2019-08-18 21:56:45:227,1.5106,-0.8641,9.2256,2.1475,-0.912,9.5251,-0.0013,0.0032,0.0015
39362,46.81351,-1.212345,150.41,33.62,9.648001,150.7,Oct-18,3936214,2019-08-18 21:56:45:326,1.9404,-1.2483,9.8606,2.1329,-0.9162,9.5279,0.0051,0.0,0.0004
39363,46.81351,-1.212345,150.41,33.62,9.648001,150.7,Oct-18,3936315,2019-08-18 21:56:45:427,2.0451,-1.198,9.289,2.0849,-0.9449,9.5358,0.0073,0.0064,0.0026
39364,46.81351,-1.212345,150.41,33.62,9.648001,150.7,Oct-18,3936416,2019-08-18 21:56:45:528,1.9895,-1.1005,9.1933,2.0468,-0.9626,9.5423,0.0158,0.0171,0.0004
39365,46.81351,-1.212345,150.41,33.62,9.648001,150.7,Oct-18,3936517,2019-08-18 21:56:45:629,2.4528,-1.0831,9.8684,2.0078,-0.9838,9.5484,0.0115,0.0032,0.0015
39366,46.81351,-1.212345,150.41,33.62,9.648001,150.7,Oct-18,3936614,2019-08-18 21:56:45:726,2.4863,-0.8557,9.9169,2.014,-0.985,9.5469,0.0019,-0.0181,0.0004
39367,46.81351,-1.212345,150.41,33.62,9.648001,150.7,Oct-18,3936715,2019-08-18 21:56:45:827,2.1199,-0.9,9.2268,2.0203,-0.983,9.5458,-0.0023,-0.0063,0.0004
39368,46.81351,-1.212345,150.41,33.62,9.648001,150.7,Oct-18,3936815,2019-08-18 21:56:45:927,2.1547,-1.0807,9.5039,2.0104,-0.992,9.547,-0.0076,0.0118,0.0036
39369,46.81351,-1.212345,150.41,33.62,9.648001,150.7,Oct-18,3936914,2019-08-18 21:56:46:026,1.9039,-1.2076,9.96,2.0096,-0.9971,9.5466,-0.0045,-0.0085,0.0015
39370,46.81351,-1.212345,150.41,33.62,9.648001,150.7,Oct-18,3937014,2019-08-18 21:56:46:126,2.2289,-0.8611,10.4299,2.0206,-1.0019,9.5438,-0.0098,-0.0085,0.0026
39371,46.81351,-1.212345,150.41,33.62,9.648001,150.7,Oct-18,3937116,2019-08-18 21:56:46:228,1.8416,-1.0287,9.1897,2.0192,-1.0043,9.5438,0.0051,0.0032,0.0015
39372,46.81351,-1.212345,150.41,33.62,9.648001,150.7,Oct-18,3937215,2019-08-18 21:56:46:327,2.3821,-0.8766,9.5075,2.0333,-0.99,9.5423,0.0041,-0.0042,0.0026
39373,46.81351,-1.212345,150.41,33.62,9.648001,150.7,Oct-18,3937315,2019-08-18 21:56:46:427,1.9272,-0.8353,9.2896,2.0441,-0.9865,9.5404,0.0009,0.0011,0.0026
39374,46.81351,-1.212345,150.41,33.62,9.648001,150.7,Oct-18,3937414,2019-08-18 21:56:46:526,2.7754,-0.8652,9.5632,2.066,-0.9882,9.5355,-0.0098,-0.0063,0.0015
39375,46.81351,-1.212345,150.41,33.62,9.648001,150.7,Oct-18,3937515,2019-08-18 21:56:46:627,2.4306,-1.0107,9.5614,2.0802,-0.992,9.532,-0.0066,-0.0042,0.0015
39376,46.81351,-1.212345,150.41,33.62,9.648001,150.7,Oct-18,3937614,2019-08-18 21:56:46:726,2.752,-1.0347,9.6488,2.0967,-0.9931,9.5283,-0.0055,-0.0021,-0.0017
39377,46.81351,-1.212345,150.41,33.62,9.648001,150.7,Oct-18,3937715,2019-08-18 21:56:46:827,2.4174,-1.2645,8.9006,2.1075,-1.0101,9.5241,-0.013,0.016,-0.0006
39378,46.81351,-1.212345,150.41,33.62,9.648001,150.7,Oct-18,3937814,2019-08-18 21:56:46:926,2.7526,-1.3507,9.4183,2.1284,-1.0191,9.5185,0.0009,-0.0053,-0.0092
39379,46.81351,-1.212345,150.41,33.62,9.648001,150.7,Oct-18,3937914,2019-08-18 21:56:47:026,2.6174,-1.2549,9.7721,2.155,-1.0234,9.5121,0.0019,-0.0149,-0.0102
39380,46.81351,-1.212345,150.41,33.62,9.648001,150.7,Oct-18,3938014,2019-08-18 21:56:47:126,2.175,-1.2866,9.0137,2.18,-1.0291,9.5057,0.0041,0.0054,-0.0092
39381,46.81351,-1.212345,150.41,33.62,9.648001,150.7,Oct-18,3938114,2019-08-18 21:56:47:226,2.0164,-1.1956,8.9485,2.1717,-1.0332,9.5072,0.0041,0.0277,-0.006
39382,46.81351,-1.212345,150.41,33.62,9.648001,150.7,Oct-18,3938214,2019-08-18 21:56:47:326,2.1768,-1.119,8.9736,2.1536,-1.034,9.5112,0.0126,0.0182,-0.0092
39383,46.81351,-1.212345,150.41,33.62,9.648001,150.7,Oct-18,3938315,2019-08-18 21:56:47:427,2.202,-1.2447,9.2747,2.1627,-1.0339,9.5092,0.0083,-0.0096,-0.0134
39384,46.81351,-1.212345,150.41,33.62,9.648001,150.7,Oct-18,3938416,2019-08-18 21:56:47:528,2.5916,-1.2292,9.7439,2.1708,-1.0428,9.5064,0.0009,0.0064,-0.0124
39385,46.81351,-1.212345,150.41,33.62,9.648001,150.7,Oct-18,3938516,2019-08-18 21:56:47:628,2.1068,-1.5452,9.2537,2.165,-1.0563,9.5062,-0.0034,0.015,-0.007
39386,46.81351,-1.212345,150.41,33.62,9.648001,150.7,Oct-18,3938615,2019-08-18 21:56:47:727,2.4701,-1.8487,9.3758,2.1807,-1.1174,9.4956,0.0147,0.0054,-0.0134
39387,46.81351,-1.212345,150.41,33.62,9.648001,150.7,Oct-18,3938714,2019-08-18 21:56:47:826,2.2774,-1.2178,9.6787,2.1887,-1.1224,9.4932,0.0019,-0.0138,-0.0113
39388,46.81351,-1.212345,150.41,33.62,9.648001,150.7,Oct-18,3938815,2019-08-18 21:56:47:927,2.5126,-1.1813,9.6009,2.1949,-1.1236,9.4916,0.0115,0.0118,-0.0028
39389,46.81351,-1.212345,150.41,33.62,9.648001,150.7,Oct-18,3938914,2019-08-18 21:56:48:026,2.0152,-1.2262,9.0753,2.1766,-1.1081,9.4976,0.0243,0.0256,0.0004
39390,46.81351,-1.212345,150.41,33.62,9.648001,150.7,Oct-18,3939015,2019-08-18 21:56:48:127,1.9512,-1.1615,9.5332,2.1605,-1.0809,9.5044,0.0211,0.0054,0.0004
39391,46.81351,-1.212345,150.41,33.62,9.648001,150.7,Oct-18,3939114,2019-08-18 21:56:48:226,1.8632,-1.0766,9.4471,2.1539,-1.0635,9.5079,0.0147,0.0075,-0.0006
39392,46.81351,-1.212345,150.41,33.62,9.648001,150.7,Oct-18,3939214,2019-08-18 21:56:48:326,1.7614,-0.809,9.4967,2.1471,-1.0617,9.5096,-0.0119,-0.0021,0.0036
39393,46.81351,-1.212345,150.41,33.62,9.648001,150.7,Oct-18,3939314,2019-08-18 21:56:48:426,1.9266,-0.7491,9.4453,2.1332,-1.0317,9.5161,-0.0045,-0.0074,0.0026
39394,46.81351,-1.212345,150.41,33.62,9.648001,150.7,Oct-18,3939415,2019-08-18 21:56:48:527,2.2911,-0.7473,10.1073,2.1406,-1.0303,9.5146,-0.0002,-0.0138,0.0026
39395,46.81351,-1.212345,150.41,33.62,9.648001,150.7,Oct-18,3939514,2019-08-18 21:56:48:626,2.1307,-0.6474,9.8475,2.1453,-1.0279,9.5138,-0.0002,-0.0063,0.0036
39396,46.81351,-1.212345,150.41,33.62,9.648001,150.7,Oct-18,3939615,2019-08-18 21:56:48:727,2.4126,-0.9604,9.5249,2.1434,-1.0094,9.5162,0.0009,0.0011,0.0047
39397,46.81351,-1.212345,150.41,33.62,9.648001,150.7,Oct-18,3939715,2019-08-18 21:56:48:827,2.3708,-0.7503,9.362,2.143,-1.0085,9.5164,0.0019,0.0054,0.0036
39398,46.81351,-1.212345,150.41,33.62,9.648001,150.7,Oct-18,3939814,2019-08-18 21:56:48:926,2.4025,-0.7797,9.4261,2.143,-0.9971,9.5176,0.0062,0.0032,0.0036
39399,46.81351,-1.212345,150.41,33.62,9.648001,150.7,Oct-18,3939914,2019-08-18 21:56:49:026,2.4617,-0.8263,9.1783,2.1495,-0.9821,9.5176,0.0051,0.0043,0.0047
39400,46.81351,-1.212345,150.41,33.62,9.648001,150.7,Oct-18,3940015,2019-08-18 21:56:49:127,2.4605,-0.7791,9.6769,2.1773,-0.9606,9.5135,0.003,0.0054,0.0047
39401,46.81351,-1.212345,150.41,33.62,9.648001,150.7,Oct-18,3940114,2019-08-18 21:56:49:226,2.1708,-0.785,9.6847,2.1936,-0.9348,9.5123,0.003,-0.0042,0.0058
39402,46.81351,-1.212345,150.41,33.62,9.648001,150.7,Oct-18,3940214,2019-08-18 21:56:49:326,2.0733,-0.9718,9.9959,2.1959,-0.9239,9.5129,0.0009,-0.0021,0.0058
39403,46.81351,-1.212345,150.41,33.62,9.648001,150.7,Jul-18,3940314,2019-08-18 21:56:49:426,2.002,-0.9652,9.896,2.2022,-0.9175,9.512,0.0009,-0.0106,0.0026
39404,46.81351,-1.212345,150.41,33.62,9.648001,150.7,Jul-18,3940414,2019-08-18 21:56:49:526,1.8344,-0.8898,9.9007,2.196,-0.9122,9.514,0.003,0.0064,0.0026
39405,46.81351,-1.212345,150.41,33.62,9.648001,150.7,Jul-18,3940515,2019-08-18 21:56:49:627,1.5154,-0.7587,9.216,2.1631,-0.9252,9.5203,-0.014,0.0235,0.0079
39406,46.81351,-1.212345,150.41,33.62,9.648001,150.7,Jul-18,3940615,2019-08-18 21:56:49:727,1.4352,-0.7982,9.0029,2.1346,-0.9321,9.526,-0.0045,0.0246,0.0068
39407,46.81351,-1.212345,150.41,33.62,9.648001,150.7,Jul-18,3940716,2019-08-18 21:56:49:828,1.5813,-0.9431,9.2334,2.1173,-0.9303,9.53,0.0062,0.0064,0.0026
39408,46.81351,-1.212345,150.41,33.62,9.648001,150.7,Jul-18,3940815,2019-08-18 21:56:49:927,1.8009,-0.961,9.541,2.1174,-0.9236,9.5307,0.0062,-0.0149,0.0004
39409,46.81351,-1.212345,150.41,33.62,9.648001,150.7,Jul-18,3940914,2019-08-18 21:56:50:026,2.3115,-0.9922,9.8427,2.1166,-0.9204,9.5312,0.0051,-0.0032,0.0015
39410,46.81351,-1.212345,150.41,33.62,9.648001,150.7,Jul-18,3941015,2019-08-18 21:56:50:127,2.5575,-0.9778,9.7439,2.1136,-0.9209,9.5318,0.0009,0.0,0.0047
39411,46.81351,-1.212345,150.41,33.62,9.648001,150.7,Jul-18,3941115,2019-08-18 21:56:50:227,2.448,-1.1184,9.2836,2.0636,-0.9219,9.5426,0.0019,0.015,0.0068
39412,46.81351,-1.212345,150.41,33.62,9.648001,150.7,Jul-18,3941215,2019-08-18 21:56:50:327,2.5808,-0.8892,9.8708,2.058,-0.9259,9.5435,-0.0023,0.0032,0.0058
39413,46.81351,-1.212345,150.41,33.62,9.648001,150.7,0 / 18,3941314,2019-08-18 21:56:50:426,2.1768,-0.9251,9.6272,2.053,-0.913,9.5458,0.003,-0.0053,0.0015
39414,46.81351,-1.212345,150.41,33.62,9.648001,150.7,0 / 18,3941414,2019-08-18 21:56:50:526,2.1936,-0.8802,9.7637,2.0762,-0.8972,9.5423,-0.0023,-0.0117,0.0036
39415,46.81351,-1.212345,150.41,33.62,9.648001,150.7,0 / 18,3941514,2019-08-18 21:56:50:626,1.9769,-0.8808,9.4883,2.0903,-0.8899,9.5399,0.0009,-0.001,0.0036
39416,46.81351,-1.212345,150.41,33.62,9.648001,150.7,0 / 18,3941614,2019-08-18 21:56:50:726,2.1547,-0.961,9.5446,2.0925,-0.8917,9.5392,-0.0045,0.0032,0.0058
39417,46.81351,-1.212345,150.41,33.62,9.648001,150.7,0 / 18,3941714,2019-08-18 21:56:50:826,1.9248,-0.8898,9.2669,2.0982,-0.8879,9.5383,0.0019,0.0011,0.0047
39418,46.81351,-1.212345,150.41,33.62,9.648001,150.7,0 / 18,3941815,2019-08-18 21:56:50:927,1.9841,-1.0568,9.5165,2.1026,-0.8842,9.5377,-0.0002,0.0011,0.0047
39419,46.81351,-1.212345,150.41,33.62,9.648001,150.7,0 / 18,3941914,2019-08-18 21:56:51:026,1.9781,-0.7737,9.7158,2.1703,-0.8706,9.5238,-0.0076,-0.0063,0.0058
39420,46.81351,-1.212345,150.41,33.62,9.648001,150.7,0 / 18,3942014,2019-08-18 21:56:51:126,2.3911,-0.6779,9.4339,2.2041,-0.8628,9.5167,0.0009,-0.0085,0.0036
39421,46.81351,-1.212345,150.41,33.62,9.648001,150.7,0 / 18,3942115,2019-08-18 21:56:51:227,2.582,-0.7695,9.5751,2.2546,-0.8655,9.5046,-0.0002,-0.001,0.0058
39422,46.81351,-1.212345,150.41,33.62,9.648001,150.7,0 / 18,3942216,2019-08-18 21:56:51:328,2.494,-0.8617,9.5763,2.2949,-0.8576,9.4957,0.003,-0.0021,0.0047
39423,46.808365,-1.208171,128.84,34.16,12.864,150.0,0 / 18,3942315,2019-08-18 21:56:51:427,2.5946,-0.7461,9.3369,2.3245,-0.8434,9.4898,0.0019,0.0096,0.0058
39424,46.808365,-1.208171,128.84,34.16,12.864,150.0,0 / 18,3942414,2019-08-18 21:56:51:526,2.5114,-0.9676,9.4243,2.3214,-0.8462,9.4903,-0.0013,0.0054,0.0068
39425,46.808365,-1.208171,128.84,34.16,12.864,150.0,0 / 18,3942514,2019-08-18 21:56:51:626,2.5156,-0.903,9.5997,2.3118,-0.8421,9.493,0.0009,0.0107,0.0068
39426,46.808365,-1.208171,128.84,34.16,12.864,150.0,0 / 18,3942614,2019-08-18 21:56:51:726,2.5168,-0.7539,9.2292,2.3152,-0.8393,9.4924,-0.0023,0.0075,0.0079
39427,46.808365,-1.208171,128.84,34.16,12.864,150.0,0 / 18,3942714,2019-08-18 21:56:51:826,2.4336,-0.8509,9.8313,2.3235,-0.8354,9.4907,-0.0013,-0.0074,0.0047
39428,46.808365,-1.208171,128.84,34.16,12.864,150.0,0 / 18,3942815,2019-08-18 21:56:51:927,2.9322,-0.8647,9.8146,2.3317,-0.8346,9.4888,-0.0002,-0.0117,0.0047
39429,46.808365,-1.208171,128.84,34.16,12.864,150.0,0 / 18,3942915,2019-08-18 21:56:52:027,2.3187,-0.9425,9.9061,2.3431,-0.8405,9.4854,-0.0055,-0.0021,0.0058
39430,46.808365,-1.208171,128.84,34.16,12.864,150.0,0 / 18,3943014,2019-08-18 21:56:52:126,2.3097,-0.8407,9.3638,2.3366,-0.8412,9.487,0.003,0.015,0.0058
39431,46.808365,-1.208171,128.84,34.16,12.864,150.0,0 / 18,3943114,2019-08-18 21:56:52:226,2.0206,-0.7437,9.2064,2.3266,-0.8266,9.4907,0.019,0.0064,0.0015
39432,46.808365,-1.208171,128.84,34.16,12.864,150.0,0 / 18,3943215,2019-08-18 21:56:52:327,2.0984,-0.8204,9.4189,2.3291,-0.8176,9.4909,0.0105,-0.0021,0.0015
39433,46.808365,-1.208171,128.84,34.16,12.864,150.0,0 / 18,3943314,2019-08-18 21:56:52:426,2.1774,-0.8144,9.3698,2.3404,-0.8173,9.4881,0.0051,-0.0042,0.0004
39434,46.808365,-1.208171,128.84,34.16,12.864,150.0,0 / 18,3943414,2019-08-18 21:56:52:526,2.2133,-0.8916,9.7625,2.3444,-0.8203,9.4869,-0.0013,-0.0053,0.0004
39435,46.808365,-1.208171,128.84,34.16,12.864,150.0,0 / 18,3943514,2019-08-18 21:56:52:626,2.2043,-0.812,9.4925,2.3542,-0.8388,9.4829,0.003,0.0022,0.0004
39436,46.808365,-1.208171,128.84,34.16,12.864,150.0,0 / 18,3943614,2019-08-18 21:56:52:726,2.433,-0.8587,9.6158,2.3526,-0.855,9.4818,-0.0023,0.0043,0.0015
39437,46.808365,-1.208171,128.84,34.16,12.864,150.0,0 / 18,3943714,2019-08-18 21:56:52:826,2.4653,-0.9221,9.4249,2.3493,-0.8836,9.48,-0.0023,0.0096,0.0026
39438,46.808365,-1.208171,128.84,34.16,12.864,150.0,0 / 18,3943814,2019-08-18 21:56:52:926,2.5461,-1.0514,9.4189,2.3494,-0.8944,9.479,0.0062,0.0032,-0.0006
39439,46.808365,-1.208171,128.84,34.16,12.864,150.0,0 / 18,3943914,2019-08-18 21:56:53:026,2.5389,-1.0712,9.5644,2.3418,-0.9197,9.4784,0.0019,0.0054,-0.0006
39440,46.808365,-1.208171,128.84,34.16,12.864,150.0,0 / 18,3944015,2019-08-18 21:56:53:127,2.4234,-1.2854,9.541,2.3308,-0.9499,9.4781,0.0094,0.0075,-0.0038
39441,46.808365,-1.208171,128.84,34.16,12.864,150.0,0 / 18,3944115,2019-08-18 21:56:53:227,2.4438,-1.0981,9.1987,2.3341,-0.9649,9.4758,0.003,-0.0021,-0.007
39442,46.808365,-1.208171,128.84,34.16,12.864,150.0,0 / 18,3944214,2019-08-18 21:56:53:326,2.3672,-1.1717,9.8481,2.3299,-1.0204,9.4711,0.0009,-0.0021,-0.007
39443,46.808365,-1.208171,128.84,34.16,12.864,150.0,0 / 18,3944314,2019-08-18 21:56:53:426,2.1217,-1.0682,9.3752,2.3431,-1.0334,9.4664,-0.0002,0.0054,-0.006
39444,46.808365,-1.208171,128.84,34.16,12.864,150.0,0 / 18,3944414,2019-08-18 21:56:53:526,2.1876,-1.2154,9.6033,2.352,-1.0605,9.4612,-0.0076,-0.0032,-0.0038
39445,46.808365,-1.208171,128.84,34.16,12.864,150.0,0 / 18,3944516,2019-08-18 21:56:53:628,2.3031,-1.1184,9.2573,2.3785,-1.0885,9.4514,0.0009,0.0043,-0.0049
39446,46.808365,-1.208171,128.84,34.16,12.864,150.0,0 / 18,3944614,2019-08-18 21:56:53:726,2.2714,-1.2681,9.7122,2.387,-1.0936,9.4486,0.0041,-0.0021,-0.007
39447,46.808365,-1.208171,128.84,34.16,12.864,150.0,0 / 18,3944715,2019-08-18 21:56:53:827,2.4288,-1.0652,9.4345,2.396,-1.0913,9.4466,0.0019,-0.0074,-0.0081
39448,46.808365,-1.208171,128.84,34.16,12.864,150.0,0 / 18,3944814,2019-08-18 21:56:53:926,2.4324,-1.0017,9.4417,2.3949,-1.0901,9.447,0.003,0.0118,-0.0049
39449,46.808365,-1.208171,128.84,34.16,12.864,150.0,0 / 18,3944914,2019-08-18 21:56:54:026,2.5114,-1.1526,9.729,2.3888,-1.091,9.4485,-0.0013,0.0096,-0.0038
39450,46.808365,-1.208171,128.84,34.16,12.864,150.0,0 / 18,3945015,2019-08-18 21:56:54:127,2.5515,-1.1657,9.7176,2.3754,-1.1158,9.449,-0.0055,0.0,-0.0049
39451,46.808365,-1.208171,128.84,34.16,12.864,150.0,0 / 18,3945114,2019-08-18 21:56:54:226,2.6102,-1.0861,9.5057,2.3759,-1.1425,9.4456,-0.0055,-0.001,-0.0049
39452,46.808365,-1.208171,128.84,34.16,12.864,150.0,0 / 18,3945214,2019-08-18 21:56:54:326,2.4857,-1.2639,9.1059,2.3759,-1.1492,9.4448,0.003,-0.0063,-0.0081
39453,46.808365,-1.208171,128.84,34.16,12.864,150.0,0 / 18,3945314,2019-08-18 21:56:54:426,2.6754,-1.2274,9.2094,2.3708,-1.1528,9.4457,-0.0055,0.0118,-0.0028
39454,46.808365,-1.208171,128.84,34.16,12.864,150.0,0 / 18,3945414,2019-08-18 21:56:54:526,2.357,-1.1184,9.2322,2.3572,-1.1654,9.4475,-0.0098,0.0096,-0.0028
39455,46.808365,-1.208171,128.84,34.16,12.864,150.0,0 / 18,3945514,2019-08-18 21:56:54:626,2.0457,-1.2986,8.8557,2.3437,-1.1661,9.4508,-0.0034,0.0182,-0.0017
39456,46.808365,-1.208171,128.84,34.16,12.864,150.0,0 / 18,3945615,2019-08-18 21:56:54:727,2.0655,-1.2435,9.0753,2.3205,-1.1699,9.4561,0.0105,0.0139,-0.006
39457,46.808365,-1.208171,128.84,34.16,12.864,150.0,0 / 18,3945714,2019-08-18 21:56:54:826,1.9727,-1.4099,9.5727,2.3043,-1.1746,9.4594,0.0062,-0.0096,-0.0081
39458,46.808365,-1.208171,128.84,34.16,12.864,150.0,0 / 18,3945814,2019-08-18 21:56:54:926,2.0673,-0.9868,9.8505,2.3127,-1.1735,9.4575,0.0041,-0.0053,-0.0081
39459,46.808365,-1.208171,128.84,34.16,12.864,150.0,0 / 18,3945914,2019-08-18 21:56:55:026,1.9996,-1.2926,9.9127,2.3111,-1.1771,9.4575,-0.0066,-0.001,-0.0028
39460,46.808365,-1.208171,128.84,34.16,12.864,150.0,0 / 18,3946014,2019-08-18 21:56:55:126,2.2247,-1.0095,9.5626,2.3097,-1.1792,9.4575,-0.0034,0.0011,-0.0028
39461,46.808365,-1.208171,128.84,34.16,12.864,150.0,0 / 18,3946116,2019-08-18 21:56:55:228,2.2941,-1.0119,9.2447,2.3008,-1.1812,9.4595,-0.0034,0.0118,-0.0028
39462,46.808365,-1.208171,128.84,34.16,12.864,150.0,0 / 18,3946214,2019-08-18 21:56:55:326,2.2061,-1.128,8.9604,2.2886,-1.1803,9.4625,-0.0013,0.0054,-0.0028
39463,46.808365,-1.208171,128.84,34.16,12.864,150.0,0 / 18,3946315,2019-08-18 21:56:55:427,2.6593,-1.1256,9.2807,2.2858,-1.1791,9.4634,0.0041,0.0043,-0.0038
39464,46.808365,-1.208171,128.84,34.16,12.864,150.0,0 / 18,3946416,2019-08-18 21:56:55:528,2.6862,-1.2866,9.7852,2.2984,-1.1711,9.4613,0.0105,-0.0053,-0.006
39465,46.808365,-1.208171,128.84,34.16,12.864,150.0,0 / 18,3946515,2019-08-18 21:56:55:627,2.5988,-1.2747,9.5763,2.3114,-1.164,9.459,-0.0013,-0.0096,-0.006
39466,46.808365,-1.208171,128.84,34.16,12.864,150.0,0 / 18,3946614,2019-08-18 21:56:55:726,2.7335,-1.2316,9.705,2.3138,-1.1658,9.4582,-0.0087,0.0086,-0.0006
39467,46.808365,-1.208171,128.84,34.16,12.864,150.0,0 / 18,3946714,2019-08-18 21:56:55:826,2.4288,-1.1023,9.4578,2.3083,-1.1636,9.4598,0.0062,0.0096,-0.0038
39468,46.808365,-1.208171,128.84,34.16,12.864,150.0,0 / 18,3946815,2019-08-18 21:56:55:927,2.3474,-1.1502,9.5326,2.3182,-1.1518,9.4588,0.0062,-0.0063,-0.0049
39469,46.808365,-1.208171,128.84,34.16,12.864,150.0,0 / 18,3946914,2019-08-18 21:56:56:026,2.3079,-0.8234,9.0706,2.3275,-1.1429,9.4576,0.0083,-0.001,-0.0038
39470,46.808365,-1.208171,128.84,34.16,12.864,150.0,0 / 18,3947014,2019-08-18 21:56:56:126,2.2983,-1.1346,9.4357,2.3264,-1.1356,9.4588,-0.0045,0.0064,-0.0006
39471,46.808365,-1.208171,128.84,34.16,12.864,150.0,0 / 18,3947115,2019-08-18 21:56:56:227,2.1541,-1.0825,9.3399,2.3306,-1.1344,9.4579,-0.0013,-0.001,-0.0017
39472,46.808365,-1.208171,128.84,34.16,12.864,150.0,0 / 18,3947214,2019-08-18 21:56:56:326,2.26,-1.0712,9.198,2.3847,-1.0969,9.4488,0.0019,-0.001,-0.0017
39473,46.808365,-1.208171,128.84,34.16,12.864,150.0,0 / 18,3947314,2019-08-18 21:56:56:426,2.533,-0.8162,9.6613,2.3985,-1.0734,9.448,-0.0034,0.0043,0.0004
39474,46.808365,-1.208171,128.84,34.16,12.864,150.0,0 / 18,3947414,2019-08-18 21:56:56:526,2.5192,-0.9155,9.4752,2.4258,-1.0542,9.4432,-0.0002,0.0086,-0.0006
39475,46.808365,-1.208171,128.84,34.16,12.864,150.0,0 / 18,3947515,2019-08-18 21:56:56:627,2.7963,-1.0915,9.3932,2.4503,-1.0543,9.4369,-0.0013,0.0054,-0.0017
39476,46.808365,-1.208171,128.84,34.16,12.864,150.0,0 / 18,3947614,2019-08-18 21:56:56:726,2.7454,-0.9838,9.3908,2.4743,-1.0479,9.4313,-0.0034,-0.0042,-0.0017
39477,46.808365,-1.208171,128.84,34.16,12.864,150.0,0 / 18,3947714,2019-08-18 21:56:56:826,2.9178,-1.1573,9.6488,2.4685,-1.0493,9.4327,-0.0034,0.0054,0.0004
39478,46.808365,-1.208171,128.84,34.16,12.864,150.0,0 / 18,3947815,2019-08-18 21:56:56:927,2.418,-1.0299,9.1807,2.4533,-1.0462,9.437,0.0019,0.0086,-0.0017
39479,46.808365,-1.208171,128.84,34.16,12.864,150.0,0 / 18,3947914,2019-08-18 21:56:57:026,2.2331,-1.0269,9.0334,2.4242,-1.0528,9.4438,0.003,0.0086,-0.0017
39480,46.808365,-1.208171,128.84,34.16,12.864,150.0,0 / 18,3948015,2019-08-18 21:56:57:127,2.1487,-1.2657,9.6015,2.4091,-1.0478,9.4482,0.0094,-0.0074,-0.006
39481,46.808365,-1.208171,128.84,34.16,12.864,150.0,0 / 18,3948114,2019-08-18 21:56:57:226,2.1319,-1.0556,9.5979,2.4073,-1.0478,9.4487,0.0019,-0.0074,-0.0017
39482,46.808365,-1.208171,128.84,34.16,12.864,150.0,0 / 18,3948214,2019-08-18 21:56:57:326,2.278,-1.0771,9.3519,2.4106,-1.0505,9.4475,-0.0002,-0.0032,-0.0017
39483,46.808365,-1.208171,128.84,34.16,12.864,150.0,0 / 18,3948314,2019-08-18 21:56:57:426,2.3971,-1.0508,9.6404,2.4061,-1.0497,9.4488,-0.0013,0.0054,-0.0028
39484,46.808365,-1.208171,128.84,34.16,12.864,150.0,0 / 18,3948414,2019-08-18 21:56:57:526,2.2935,-1.0807,9.3926,2.4061,-1.05,9.4487,0.0009,-0.001,-0.006
39485,46.808365,-1.208171,128.84,34.16,12.864,150.0,0 / 18,3948514,2019-08-18 21:56:57:626,2.767,-1.0263,9.638,2.4127,-1.0605,9.4459,-0.0076,0.0022,-0.0028
39486,46.808365,-1.208171,128.84,34.16,12.864,150.0,0 / 18,3948614,2019-08-18 21:56:57:726,2.6563,-0.9724,9.4363,2.4257,-1.0745,9.441,-0.0066,0.0075,-0.0038
39487,46.808365,-1.208171,128.84,34.16,12.864,150.0,0 / 18,3948715,2019-08-18 21:56:57:827,2.7921,-1.2274,9.4506,2.4392,-1.0825,9.4366,0.0019,0.0022,-0.007
39488,46.808365,-1.208171,128.84,34.16,12.864,150.0,0 / 18,3948816,2019-08-18 21:56:57:928,2.7311,-1.3429,8.8222,2.4603,-1.097,9.4294,0.0062,0.0096,-0.0049
39489,46.808365,-1.208171,128.84,34.16,12.864,150.0,0 / 18,3948914,2019-08-18 21:56:58:026,2.855,-1.1657,9.7679,2.4816,-1.1088,9.4224,0.0062,-0.0042,-0.007
39490,46.808365,-1.208171,128.84,34.16,12.864,150.0,0 / 18,3949014,2019-08-18 21:56:58:126,2.4318,-1.3243,9.3501,2.4911,-1.1057,9.4203,0.003,-0.0085,-0.0092
39491,46.808365,-1.208171,128.84,34.16,12.864,150.0,0 / 18,3949114,2019-08-18 21:56:58:226,2.4228,-1.04,9.5398,2.493,-1.1112,9.4191,-0.0023,0.0043,-0.0049
39492,46.808365,-1.208171,128.84,34.16,12.864,150.0,0 / 18,3949215,2019-08-18 21:56:58:327,2.7005,-1.2495,9.219,2.4831,-1.116,9.4212,-0.0013,0.0182,-0.0049
39493,46.808365,-1.208171,128.84,34.16,12.864,150.0,Sep-18,3949314,2019-08-18 21:56:58:426,2.7371,-1.3076,9.7439,2.4692,-1.1193,9.4245,0.0019,0.0043,-0.006
39494,46.808365,-1.208171,128.84,34.16,12.864,150.0,Sep-18,3949414,2019-08-18 21:56:58:526,2.6347,-1.401,9.5751,2.4507,-1.1382,9.427,0.0009,-0.001,-0.0081
39495,46.808365,-1.208171,128.84,34.16,12.864,150.0,Sep-18,3949515,2019-08-18 21:56:58:627,2.4893,-1.1891,9.0311,2.4256,-1.1532,9.4317,0.0051,0.0,-0.0081
39496,46.808365,-1.208171,128.84,34.16,12.864,150.0,Sep-18,3949615,2019-08-18 21:56:58:727,2.4851,-1.228,9.3926,2.3861,-1.1679,9.44,0.0073,0.0022,-0.0081
39497,46.808365,-1.208171,128.84,34.16,12.864,150.0,Sep-18,3949715,2019-08-18 21:56:58:827,2.3498,-1.4177,9.6936,2.3479,-1.188,9.447,-0.0002,0.0064,-0.006
39498,46.808365,-1.208171,128.84,34.16,12.864,150.0,Sep-18,3949816,2019-08-18 21:56:58:928,2.0002,-1.2052,9.6697,2.3357,-1.191,9.4497,-0.0013,-0.001,-0.006
39499,46.808365,-1.208171,128.84,34.16,12.864,150.0,Sep-18,3949915,2019-08-18 21:56:59:027,2.0218,-1.1256,9.3962,2.3064,-1.205,9.4551,0.0009,0.0043,-0.007
39500,46.808365,-1.208171,128.84,34.16,12.864,150.0,Sep-18,3950016,2019-08-18 21:56:59:128,2.002,-1.1801,9.4854,2.3099,-1.2045,9.4543,-0.0002,-0.0042,-0.007
39501,46.808365,-1.208171,128.84,34.16,12.864,150.0,Sep-18,3950114,2019-08-18 21:56:59:226,2.1463,-1.1071,9.5147,2.3156,-1.1964,9.4539,0.0019,0.0022,-0.006
39502,46.808365,-1.208171,128.84,34.16,12.864,150.0,Sep-18,3950214,2019-08-18 21:56:59:326,2.5868,-1.073,9.6625,2.3167,-1.1973,9.4536,-0.0034,0.0032,-0.0049
39503,46.808365,-1.208171,128.84,34.16,12.864,150.0,0 / 18,3950314,2019-08-18 21:56:59:426,2.7305,-1.1873,9.3016,2.3269,-1.1902,9.452,-0.0002,0.0043,-0.006
39504,46.808365,-1.208171,128.84,34.16,12.864,150.0,0 / 18,3950415,2019-08-18 21:56:59:527,2.6706,-1.468,9.2393,2.3341,-1.1865,9.4506,0.0073,0.0086,-0.0081
39505,46.808365,-1.208171,128.84,34.16,12.864,150.0,0 / 18,3950514,2019-08-18 21:56:59:626,2.667,-1.2106,9.0376,2.3467,-1.1749,9.449,-0.0034,0.0,-0.006
39506,46.808365,-1.208171,128.84,34.16,12.864,150.0,0 / 18,3950614,2019-08-18 21:56:59:726,2.4605,-1.2567,9.3046,2.374,-1.1661,9.4432,-0.0002,0.0011,-0.007
39507,46.808365,-1.208171,128.84,34.16,12.864,150.0,0 / 18,3950714,2019-08-18 21:56:59:826,2.4964,-1.2741,9.2914,2.4149,-1.1801,9.4311,0.0073,0.0011,-0.0092
39508,46.808365,-1.208171,128.84,34.16,12.864,150.0,0 / 18,3950814,2019-08-18 21:56:59:926,2.0942,-1.0981,8.8754,2.4308,-1.175,9.4277,0.0041,0.0032,-0.007
39509,46.808365,-1.208171,128.84,34.16,12.864,150.0,0 / 18,3950914,2019-08-18 21:57:00:026,2.2774,-1.0568,9.4357,2.4459,-1.1871,9.4223,-0.0023,-0.0053,-0.0081
39510,46.808365,-1.208171,128.84,34.16,12.864,150.0,0 / 18,3951015,2019-08-18 21:57:00:127,2.2085,-1.1849,9.4177,2.4468,-1.187,9.422,-0.0023,0.0022,-0.0049
39511,46.808365,-1.208171,128.84,34.16,12.864,150.0,0 / 18,3951114,2019-08-18 21:57:00:226,2.424,-1.0777,9.8098,2.4421,-1.1854,9.4235,0.003,0.0032,-0.0081
39512,46.808365,-1.208171,128.84,34.16,12.864,150.0,0 / 18,3951214,2019-08-18 21:57:00:326,2.4641,-1.0029,9.4057,2.4375,-1.1846,9.4248,-0.0002,0.0096,-0.0038
39513,46.808365,-1.208171,128.84,34.16,12.864,150.0,0 / 18,3951316,2019-08-18 21:57:00:428,2.5066,-1.0915,9.6051,2.4243,-1.1873,9.4278,-0.0034,0.0043,-0.0038
39514,46.808365,-1.208171,128.84,34.16,12.864,150.0,0 / 18,3951415,2019-08-18 21:57:00:527,2.7484,-1.4207,9.6081,2.4264,-1.1861,9.4274,0.0009,-0.0032,-0.007
39515,46.808365,-1.208171,128.84,34.16,12.864,150.0,0 / 18,3951515,2019-08-18 21:57:00:627,2.5922,-1.1322,9.0604,2.4244,-1.1783,9.4289,0.0009,0.0064,-0.006
39516,46.808365,-1.208171,128.84,34.16,12.864,150.0,0 / 18,3951614,2019-08-18 21:57:00:726,2.6287,-1.1921,9.4722,2.4322,-1.177,9.427,-0.0002,0.0011,-0.007
39517,46.808365,-1.208171,128.84,34.16,12.864,150.0,0 / 18,3951714,2019-08-18 21:57:00:826,2.357,-1.3046,9.6045,2.4571,-1.1667,9.4219,0.0041,-0.0032,-0.0081
39518,46.808365,-1.208171,128.84,34.16,12.864,150.0,0 / 18,3951814,2019-08-18 21:57:00:926,2.1038,-1.0089,9.2974,2.4828,-1.1854,9.4128,0.0041,0.0,-0.0092
39519,46.808365,-1.208171,128.84,34.16,12.864,150.0,0 / 18,3951914,2019-08-18 21:57:01:026,2.3025,-1.1615,9.1992,2.4774,-1.1841,9.4144,-0.0002,0.0096,-0.006
39520,46.808365,-1.208171,128.84,34.16,12.864,150.0,0 / 18,3952014,2019-08-18 21:57:01:126,2.3295,-1.122,9.6733,2.4746,-1.1803,9.4156,0.0041,0.0011,-0.007
39521,46.808365,-1.208171,128.84,34.16,12.864,150.0,0 / 18,3952114,2019-08-18 21:57:01:226,2.7041,-1.1885,9.6727,2.4743,-1.1827,9.4154,-0.0066,-0.0021,-0.006
39522,46.808365,-1.208171,128.84,34.16,12.864,150.0,0 / 18,3952214,2019-08-18 21:57:01:326,2.7035,-1.3633,9.6098,2.4575,-1.1865,9.4193,0.0009,-0.001,-0.0081
39523,46.808365,-1.208171,128.84,34.16,12.864,150.0,0 / 18,3952314,2019-08-18 21:57:01:426,2.7454,-1.2621,9.7613,2.4406,-1.1819,9.4243,-0.0034,0.0032,-0.007
39524,46.808365,-1.208171,128.84,34.16,12.864,150.0,0 / 18,3952414,2019-08-18 21:57:01:526,2.4438,-1.5231,8.8461,2.4176,-1.2073,9.427,-0.0119,0.0075,-0.006
39525,46.808365,-1.208171,128.84,34.16,12.864,150.0,0 / 18,3952514,2019-08-18 21:57:01:626,2.3306,-1.2244,9.1747,2.4016,-1.2293,9.4282,-0.0098,0.0064,-0.0049
39526,46.808365,-1.208171,128.84,34.16,12.864,150.0,0 / 18,3952614,2019-08-18 21:57:01:726,2.0457,-1.2854,9.0023,2.38,-1.2438,9.4318,-0.0013,0.0107,-0.006
39527,46.808365,-1.208171,128.84,34.16,12.864,150.0,0 / 18,3952715,2019-08-18 21:57:01:827,2.0655,-1.3531,9.5099,2.3708,-1.2474,9.4337,0.003,-0.0063,-0.007
39528,46.808365,-1.208171,128.84,34.16,12.864,150.0,0 / 18,3952815,2019-08-18 21:57:01:927,2.035,-1.1346,9.5781,2.3514,-1.2524,9.4378,-0.0002,0.0064,-0.007
39529,46.808365,-1.208171,128.84,34.16,12.864,150.0,0 / 18,3952914,2019-08-18 21:57:02:026,2.0529,-1.1586,9.5895,2.3171,-1.2528,9.4463,0.0051,0.0107,-0.0081
39530,46.808365,-1.208171,128.84,34.16,12.864,150.0,0 / 18,3953014,2019-08-18 21:57:02:126,2.1655,-1.3201,9.4141,2.2786,-1.2717,9.4531,0.003,0.0022,-0.0081
39531,46.808365,-1.208171,128.84,34.16,12.864,150.0,0 / 18,3953115,2019-08-18 21:57:02:227,2.7023,-1.2675,9.4985,2.2599,-1.2661,9.4583,-0.0002,-0.0021,-0.007
39532,46.808365,-1.208171,128.84,34.16,12.864,150.0,0 / 18,3953214,2019-08-18 21:57:02:326,2.679,-1.3004,9.5135,2.2587,-1.2578,9.4597,0.003,0.0043,-0.0049
39533,46.808365,-1.208171,128.84,34.16,12.864,150.0,0 / 18,3953314,2019-08-18 21:57:02:426,2.6191,-1.3088,9.3142,2.2752,-1.237,9.4585,0.0041,-0.0042,-0.007
39534,46.808365,-1.208171,128.84,34.16,12.864,150.0,0 / 18,3953416,2019-08-18 21:57:02:528,2.4132,-1.0604,9.5506,2.2775,-1.2287,9.4591,-0.0066,0.0128,-0.0038
