,GPS LATITUDE (degrees),GPS LONGITUDE (degrees), GPS ALTITUDE (m),GPS SPEED (Kmh),GPS ACCURACY (m),GPS ORIENTATION (Â°), SATELLITES IN RANGE, TIME SINCE START (ms), DATE (YYYY-MO-DD HH-MI-SS_SSS),ACCELEROMETER X (m/s²) , ACCELEROMETER Y (m/s²), ACCELEROMETER Z (m/s²), GRAVITY X (m/s²), GRAVITY Y (m/s²), GRAVITY Z (m/s²), GYROSCOPE Yaw (rad/s), GYROSCOPE Pitch (rad/s), GYROSCOPE Roll (rad/s)
18680,46.63663,-1.149924,110.38,36.81,20.368,355.1,0 / 24,994311,2019-08-12 13:36:19:747,-2.1444,-0.1788,9.6808,-1.8695,-0.3169,9.6216,-0.0002,-0.0092,-0.0008
18681,46.63663,-1.149924,110.38,36.81,20.368,355.1,0 / 24,994312,2019-08-12 13:36:19:748,-2.1444,-0.1788,9.6808,-1.8695,-0.3169,9.6216,-0.0002,-0.0092,-0.0008
18682,46.63663,-1.149924,110.38,36.81,20.368,355.1,0 / 24,994312,2019-08-12 13:36:19:748,-2.1444,-0.1788,9.6808,-1.8695,-0.3169,9.6216,-0.0002,-0.0092,-0.0008
18683,46.63663,-1.149924,110.38,36.81,20.368,355.1,0 / 24,994312,2019-08-12 13:36:19:748,-2.1444,-0.1788,9.6808,-1.8695,-0.3169,9.6216,-0.0002,-0.0092,-0.0008
18684,46.63663,-1.149924,110.38,36.81,20.368,355.1,0 / 24,994313,2019-08-12 13:36:19:749,-2.1444,-0.1788,9.6808,-1.8695,-0.3169,9.6216,-0.0002,-0.0092,-0.0008
18685,46.63663,-1.149924,110.38,36.81,20.368,355.1,0 / 24,994313,2019-08-12 13:36:19:749,-2.1444,-0.1788,9.6808,-1.8695,-0.3169,9.6216,-0.0002,-0.0092,-0.0008
18686,46.63663,-1.149924,110.38,36.81,20.368,355.1,0 / 24,994313,2019-08-12 13:36:19:749,-2.1444,-0.1788,9.6808,-1.8695,-0.3169,9.6216,-0.0002,-0.0092,-0.0008
18687,46.63663,-1.149924,110.38,36.81,20.368,355.1,0 / 24,994314,2019-08-12 13:36:19:750,-2.1444,-0.1788,9.6808,-1.8695,-0.3169,9.6216,-0.0002,-0.0092,-0.0008
18688,46.63663,-1.149924,110.38,36.81,20.368,355.1,0 / 24,994314,2019-08-12 13:36:19:750,-2.1444,-0.1788,9.6808,-1.8695,-0.3169,9.6216,-0.0002,-0.0092,-0.0008
18689,46.63663,-1.149924,110.38,36.81,20.368,355.1,0 / 24,994320,2019-08-12 13:36:19:756,-2.1444,-0.1788,9.6808,-1.8695,-0.3169,9.6216,-0.0002,-0.0092,-0.0008
18690,46.63663,-1.149924,110.38,36.81,20.368,355.1,0 / 24,994320,2019-08-12 13:36:19:756,-2.1444,-0.1788,9.6808,-1.8695,-0.3169,9.6216,-0.0002,-0.0092,-0.0008
18691,46.63663,-1.149924,110.38,36.81,20.368,355.1,0 / 24,994321,2019-08-12 13:36:19:757,-2.1444,-0.1788,9.6808,-1.8695,-0.3169,9.6216,-0.0002,-0.0092,-0.0008
18692,46.63663,-1.149924,110.38,36.81,20.368,355.1,0 / 24,994346,2019-08-12 13:36:19:782,-2.1444,-0.1788,9.6808,-1.8695,-0.3169,9.6216,-0.0002,-0.0092,-0.0008
18693,46.63663,-1.149924,110.38,36.81,20.368,355.1,0 / 24,994446,2019-08-12 13:36:19:882,-2.1444,-0.1788,9.6808,-1.8695,-0.3169,9.6216,-0.0002,-0.0092,-0.0008
18694,46.63663,-1.149924,110.38,36.81,20.368,355.1,0 / 24,994546,2019-08-12 13:36:19:982,-2.0684,0.1031,9.7191,-2.0834,-0.2919,9.5783,-0.0013,0.0025,0.0013
18695,46.63663,-1.149924,110.38,36.81,20.368,355.1,0 / 24,994645,2019-08-12 13:36:20:081,-1.9989,-0.0663,9.1187,-2.1185,-0.2273,9.5724,-0.0002,0.0036,0.0077
18696,46.63663,-1.149924,110.38,36.81,20.368,355.1,0 / 24,994746,2019-08-12 13:36:20:182,-2.1845,0.1749,8.8805,-2.1211,-0.2015,9.5724,0.0009,-0.0038,0.0088
18697,46.63663,-1.149924,110.38,36.81,20.368,355.1,0 / 24,994846,2019-08-12 13:36:20:282,-2.3096,-0.0244,8.7824,-2.1261,-0.1889,9.5715,0.0083,0.0015,0.0077
18698,46.63663,-1.149924,110.38,36.81,20.368,355.1,0 / 24,994946,2019-08-12 13:36:20:382,-2.3132,0.1282,9.585,-2.1309,-0.1817,9.5706,-0.0034,0.0025,0.0066
18699,46.63663,-1.149924,110.38,36.81,20.368,355.1,0 / 24,995046,2019-08-12 13:36:20:482,-2.3455,-0.0501,9.5144,-2.1407,-0.178,9.5685,-0.0034,0.0047,0.0045
18700,46.63663,-1.149924,110.38,36.81,20.368,355.1,0 / 24,995146,2019-08-12 13:36:20:582,-2.3503,-0.0723,9.7119,-2.1641,-0.1658,9.5635,-0.0077,0.0025,0.0024
18701,46.63663,-1.149924,110.38,36.81,20.368,355.1,0 / 24,995246,2019-08-12 13:36:20:682,-2.3802,-0.1525,10.3535,-2.168,-0.1584,9.5627,0.0041,-0.0209,0.0034
18702,46.63663,-1.149924,110.38,36.81,20.368,355.1,0 / 24,995347,2019-08-12 13:36:20:783,-2.054,-0.1387,9.5036,-2.1632,-0.1565,9.5638,-0.0034,-0.0017,0.0056
18703,46.63663,-1.149924,110.38,36.81,20.368,355.1,0 / 24,995446,2019-08-12 13:36:20:882,-2.0342,-0.1836,9.3378,-2.1736,-0.1522,9.5615,0.0009,0.0079,0.0088
18704,46.63663,-1.149924,110.38,36.81,20.368,355.1,0 / 24,995546,2019-08-12 13:36:20:982,-1.957,-0.2058,9.3103,-2.1804,-0.149,9.56,-0.0034,0.0068,0.0088
18705,46.63663,-1.149924,110.38,36.81,20.368,355.1,0 / 24,995646,2019-08-12 13:36:21:082,-2.0163,0.0049,9.3378,-2.1982,-0.1156,9.5564,-0.0077,-0.006,0.0066
18706,46.63663,-1.149924,110.38,36.81,20.368,355.1,0 / 24,995746,2019-08-12 13:36:21:182,-2.1181,0.1432,9.0906,-2.1907,-0.1086,9.5582,-0.0034,-0.0049,0.0098
18707,46.63663,-1.149924,110.38,36.81,20.368,355.1,0 / 24,995846,2019-08-12 13:36:21:282,-2.1953,0.1324,9.6018,-2.1888,-0.0936,9.5588,-0.0013,-0.0007,0.0088
18708,46.63663,-1.149924,110.38,36.81,20.368,355.1,0 / 24,995946,2019-08-12 13:36:21:382,-2.1133,0.3473,9.5096,-2.185,-0.0791,9.5598,0.0041,0.0057,0.0077
18709,46.63663,-1.149924,110.38,36.81,20.368,355.1,0 / 24,996046,2019-08-12 13:36:21:482,-2.376,0.2845,9.6335,-2.187,-0.0742,9.5594,-0.0002,-0.006,0.0066
18710,46.63663,-1.149924,110.38,36.81,20.368,355.1,0 / 24,996146,2019-08-12 13:36:21:582,-2.5077,0.0606,9.3223,-2.186,-0.0633,9.5597,0.0126,-0.0028,0.0088
18711,46.63663,-1.149924,110.38,36.81,20.368,355.1,0 / 24,996246,2019-08-12 13:36:21:682,-2.2222,-0.1304,9.6568,-2.1848,-0.056,9.56,-0.0066,-0.0017,0.0077
18712,46.63663,-1.149924,110.38,36.81,20.368,355.1,0 / 24,996346,2019-08-12 13:36:21:782,-2.1941,-0.274,9.8873,-2.1781,-0.0548,9.5615,-0.0087,-0.0092,0.0077
18713,46.63663,-1.149924,110.38,36.81,20.368,355.1,0 / 24,996446,2019-08-12 13:36:21:882,-1.9911,-0.0837,10.0567,-2.1848,-0.0562,9.56,-0.0066,0.0121,0.0077
18714,46.63663,-1.149924,110.38,36.81,20.368,355.1,0 / 24,996546,2019-08-12 13:36:21:982,-2.0971,0.0157,9.33,-2.1876,-0.0608,9.5593,-0.013,0.0057,0.0056
18715,46.63663,-1.149924,110.38,36.81,20.368,355.1,0 / 24,996647,2019-08-12 13:36:22:083,-1.8224,-0.0861,9.3492,-2.1884,-0.0602,9.5592,-0.0034,0.0089,0.0066
18716,46.63663,-1.149924,110.38,36.81,20.368,355.1,0 / 24,996746,2019-08-12 13:36:22:182,-2.1043,0.0019,9.7472,-2.1939,-0.062,9.5579,-0.0045,0.0036,0.0066
18717,46.63663,-1.149924,110.38,36.81,20.368,355.1,0 / 24,996846,2019-08-12 13:36:22:282,-2.1528,-0.0304,9.7089,-2.174,-0.0526,9.5625,0.0041,-0.023,0.0077
18718,46.63663,-1.149924,110.38,36.81,20.368,355.1,0 / 24,996946,2019-08-12 13:36:22:382,-2.2234,0.0408,10.1902,-2.1386,-0.0421,9.5705,0.0019,-0.0305,0.0066
18719,46.63663,-1.149924,110.38,36.81,20.368,355.1,0 / 24,997046,2019-08-12 13:36:22:482,-2.0779,0.1827,9.9046,-2.1266,-0.0376,9.5732,0.0019,-0.0102,0.0088
18720,46.63663,-1.149924,110.38,36.81,20.368,355.1,0 / 24,997146,2019-08-12 13:36:22:582,-2.2994,0.1348,10.2578,-2.1266,-0.0389,9.5732,-0.0013,0.0068,0.0066
18721,46.63663,-1.149924,110.38,36.81,20.368,355.1,0 / 24,997246,2019-08-12 13:36:22:682,-2.0821,0.1456,9.6084,-2.1311,-0.0288,9.5722,0.0094,0.0164,0.0066
18722,46.63663,-1.149924,110.38,36.81,20.368,355.1,0 / 24,997346,2019-08-12 13:36:22:782,-1.8451,0.0791,8.692,-2.1424,-0.0425,9.5697,-0.0247,0.0089,-0.004
18723,46.63663,-1.149924,110.38,36.81,20.368,355.1,0 / 24,997446,2019-08-12 13:36:22:882,-2.2958,-0.1196,9.1894,-2.1359,-0.0587,9.571,-0.0162,-0.0038,-0.0051
18724,46.63663,-1.149924,110.38,36.81,20.368,355.1,0 / 24,997546,2019-08-12 13:36:22:982,-2.075,-0.4847,9.9603,-2.1329,-0.0709,9.5716,0.0019,0.0057,0.0013
18725,46.63663,-1.149924,110.38,36.81,20.368,355.1,0 / 24,997646,2019-08-12 13:36:23:082,-2.2521,-0.4045,9.6473,-2.1352,-0.0793,9.571,-0.0055,0.0132,0.0002
18726,46.63663,-1.149924,110.38,36.81,20.368,355.1,0 / 24,997746,2019-08-12 13:36:23:182,-1.9582,-0.3111,9.3552,-2.1371,-0.097,9.5705,-0.0119,0.0025,-0.003
18727,46.63663,-1.149924,110.38,36.81,20.368,355.1,0 / 24,997847,2019-08-12 13:36:23:283,-2.1605,-0.4087,9.7819,-2.121,-0.1278,9.5737,-0.0141,-0.0007,-0.0051
18728,46.63663,-1.149924,110.38,36.81,20.368,355.1,0 / 24,997946,2019-08-12 13:36:23:382,-2.0067,-0.4135,9.7221,-2.1071,-0.1349,9.5767,0.0073,-0.007,-0.003
18729,46.63663,-1.149924,110.38,36.81,20.368,355.1,0 / 24,998046,2019-08-12 13:36:23:482,-1.8756,-0.3829,9.2654,-2.1028,-0.1407,9.5775,-0.0002,-0.0007,-0.0019
18730,46.63663,-1.149924,110.38,36.81,20.368,355.1,0 / 24,998146,2019-08-12 13:36:23:582,-1.8954,-0.2363,9.1217,-2.105,-0.1723,9.5765,-0.0034,0.0143,-0.0008
18731,46.63663,-1.149924,110.38,36.81,20.368,355.1,0 / 24,998246,2019-08-12 13:36:23:682,-2.0588,-0.0298,9.3606,-2.0967,-0.2009,9.5778,-0.0055,0.0015,-0.003
18732,46.63663,-1.149924,110.38,36.81,20.368,355.1,0 / 24,998346,2019-08-12 13:36:23:782,-2.0151,-0.3069,9.6311,-2.0748,-0.2138,9.5823,0.0009,-0.0177,-0.0019
18733,46.63663,-1.149924,110.38,36.81,20.368,355.1,0 / 24,998447,2019-08-12 13:36:23:883,-1.9858,-0.3434,10.1297,-2.0624,-0.2146,9.5849,0.0041,-0.0145,-0.0008
18734,46.63663,-1.149924,110.38,36.81,20.368,355.1,0 / 24,998546,2019-08-12 13:36:23:982,-2.1324,-0.1723,9.9136,-2.0427,-0.2253,9.5889,0.0062,0.0047,0.0034
18735,46.63663,-1.149924,110.38,36.81,20.368,355.1,0 / 24,998646,2019-08-12 13:36:24:082,-2.0869,-0.0376,9.5563,-2.0392,-0.2277,9.5896,0.0009,0.0036,0.0034
18736,46.63663,-1.149924,110.38,36.81,20.368,355.1,0 / 24,998748,2019-08-12 13:36:24:184,-2.075,-0.0777,9.901,-2.0312,-0.2333,9.5911,-0.0077,-0.0028,-0.0008
18737,46.63663,-1.149924,110.38,36.81,20.368,355.1,0 / 24,998847,2019-08-12 13:36:24:283,-2.0247,-0.2357,9.825,-2.0326,-0.2228,9.5911,-0.0045,-0.0007,0.0013
18738,46.63663,-1.149924,110.38,36.81,20.368,355.1,0 / 24,998946,2019-08-12 13:36:24:382,-2.0534,-0.265,9.6443,-2.0207,-0.2111,9.5939,0.0073,-0.0028,0.0024
18739,46.63663,-1.149924,110.38,36.81,20.368,355.1,0 / 24,999046,2019-08-12 13:36:24:482,-2.0019,-0.3464,9.4432,-2.0283,-0.2202,9.5921,-0.0013,0.0185,0.0013
18740,46.63663,-1.149924,110.38,36.81,20.368,355.1,0 / 24,999146,2019-08-12 13:36:24:582,-1.9104,-0.2273,9.2738,-2.0391,-0.2313,9.5895,-0.0119,0.0089,-0.0008
18741,46.63663,-1.149924,110.38,36.81,20.368,355.1,0 / 24,999246,2019-08-12 13:36:24:682,-2.0115,-0.368,9.4168,-2.0428,-0.2323,9.5887,0.0019,0.0089,0.0002
18742,46.63663,-1.149924,110.38,36.81,20.368,355.1,0 / 24,999348,2019-08-12 13:36:24:784,-1.975,-0.3333,9.5575,-2.0369,-0.2324,9.59,-0.0034,-0.0113,0.0002
18743,46.63663,-1.149924,110.38,36.81,20.368,355.1,0 / 24,999446,2019-08-12 13:36:24:882,-2.0534,-0.3512,9.4055,-2.0267,-0.2327,9.5921,-0.0013,-0.0113,0.0024
18744,46.63663,-1.149924,110.38,36.81,20.368,355.1,0 / 24,999546,2019-08-12 13:36:24:982,-2.1623,-0.1387,9.3342,-2.0236,-0.2343,9.5927,-0.0034,0.0004,0.0034
18745,46.63663,-1.149924,110.38,36.81,20.368,355.1,0 / 24,999646,2019-08-12 13:36:25:082,-1.9989,-0.1447,9.3719,-2.0416,-0.2222,9.5892,0.003,0.0047,0.0034
18746,46.63663,-1.149924,110.38,36.81,20.368,355.1,Oct-24,999746,2019-08-12 13:36:25:182,-1.8565,-0.0597,9.5886,-2.0626,-0.2211,9.5847,-0.0055,0.01,0.0013
18747,46.63663,-1.149924,110.38,36.81,20.368,355.1,Oct-24,999846,2019-08-12 13:36:25:282,-2.0396,0.1192,9.8903,-2.0612,-0.224,9.585,-0.0066,-0.0081,0.0002
18748,46.63663,-1.149924,110.38,36.81,20.368,355.1,Oct-24,999946,2019-08-12 13:36:25:382,-2.1629,-0.0268,9.7293,-2.0617,-0.2253,9.5848,-0.0045,0.0025,0.0024
18749,46.63663,-1.149924,110.38,36.81,20.368,355.1,Oct-24,1000046,2019-08-12 13:36:25:482,-2.1971,-0.0394,9.7885,-2.0609,-0.2301,9.5849,-0.0055,0.0025,-0.0008
18750,46.63663,-1.149924,110.38,36.81,20.368,355.1,Oct-24,1000146,2019-08-12 13:36:25:582,-2.1707,-0.3339,9.7658,-2.0585,-0.2337,9.5853,-0.0002,-0.0007,-0.0051
18751,46.63663,-1.149924,110.38,36.81,20.368,355.1,Oct-24,1000246,2019-08-12 13:36:25:682,-2.0061,-0.5374,9.5288,-2.058,-0.2667,9.5846,0.0019,-0.0007,-0.0062
18752,46.63663,-1.149924,110.38,36.81,20.368,355.1,Oct-24,1000346,2019-08-12 13:36:25:782,-2.1276,-0.453,9.8885,-2.0668,-0.2979,9.5818,-0.0066,0.0079,-0.0083
18753,46.63663,-1.149924,110.38,36.81,20.368,355.1,Oct-24,1000446,2019-08-12 13:36:25:882,-2.0624,-0.6218,9.7161,-2.0674,-0.3109,9.5812,-0.0077,-0.0007,-0.0094
18754,46.63663,-1.149924,110.38,36.81,20.368,355.1,Oct-24,1000546,2019-08-12 13:36:25:982,-2.1109,-0.7624,9.7107,-2.0552,-0.3194,9.5836,0.0073,-0.0102,-0.0062
18755,46.63663,-1.149924,110.38,36.81,20.368,355.1,Oct-24,1000646,2019-08-12 13:36:26:082,-1.8972,-0.6307,9.0457,-2.0542,-0.324,9.5836,-0.0002,0.0036,-0.004
18756,46.63663,-1.149924,110.38,36.81,20.368,355.1,0 / 24,1000746,2019-08-12 13:36:26:182,-1.8936,-0.4769,9.4288,-2.0481,-0.358,9.5837,0.0009,0.0015,-0.0019
18757,46.64172,-1.150542,114.0,33.93,15.008,355.4,0 / 24,1000846,2019-08-12 13:36:26:282,-1.9804,-0.4488,9.5377,-2.0441,-0.3595,9.5845,0.0019,0.0015,-0.0008
18758,46.64172,-1.150542,114.0,33.93,15.008,355.4,0 / 24,1000947,2019-08-12 13:36:26:383,-2.0786,-0.3967,9.1331,-2.0349,-0.3659,9.5862,-0.0066,-0.0028,-0.004
18759,46.64172,-1.150542,114.0,33.93,15.008,355.4,0 / 24,1001046,2019-08-12 13:36:26:482,-1.8978,-0.2818,9.1588,-2.0319,-0.3669,9.5868,0.0019,0.0057,-0.0019
18760,46.64172,-1.150542,114.0,33.93,15.008,355.4,0 / 24,1001147,2019-08-12 13:36:26:583,-2.0546,-0.3159,9.3336,-2.0336,-0.3625,9.5866,-0.0002,-0.0028,0.0002
18761,46.64172,-1.150542,114.0,33.93,15.008,355.4,0 / 24,1001246,2019-08-12 13:36:26:682,-2.0702,-0.1453,9.4659,-2.029,-0.3603,9.5877,-0.0013,-0.0049,0.0013
18762,46.64172,-1.150542,114.0,33.93,15.008,355.4,0 / 24,1001346,2019-08-12 13:36:26:782,-2.0821,-0.2411,9.16,-2.0314,-0.3561,9.5873,0.003,0.0015,0.0013
18763,46.64172,-1.150542,114.0,33.93,15.008,355.4,0 / 24,1001446,2019-08-12 13:36:26:882,-1.9911,-0.2124,9.4863,-2.0336,-0.3498,9.5871,0.003,0.0068,-0.0008
18764,46.64172,-1.150542,114.0,33.93,15.008,355.4,0 / 24,1001547,2019-08-12 13:36:26:983,-2.1432,-0.0047,9.1229,-2.0377,-0.3331,9.5868,-0.0002,0.0025,-0.0008
18765,46.64172,-1.150542,114.0,33.93,15.008,355.4,0 / 24,1001728,2019-08-12 13:36:27:164,-2.0534,-0.0232,9.9956,-2.0361,-0.3226,9.5875,0.0073,-0.0049,0.0002
18766,46.64172,-1.150542,114.0,33.93,15.008,355.4,0 / 24,1001747,2019-08-12 13:36:27:183,-2.0534,-0.0232,9.9956,-2.0361,-0.3226,9.5875,0.0073,-0.0049,0.0002
18767,46.64172,-1.150542,114.0,33.93,15.008,355.4,0 / 24,1001846,2019-08-12 13:36:27:282,-2.0534,-0.0232,9.9956,-2.0361,-0.3226,9.5875,0.0073,-0.0049,0.0002
18768,46.64172,-1.150542,114.0,33.93,15.008,355.4,0 / 24,1001947,2019-08-12 13:36:27:383,-2.3251,-0.1387,10.1177,-2.0066,-0.3108,9.5941,0.003,-0.0038,-0.0019
18769,46.64172,-1.150542,114.0,33.93,15.008,355.4,0 / 24,1002047,2019-08-12 13:36:27:483,-1.9217,-0.274,10.0585,-2.008,-0.3056,9.594,-0.0002,0.0004,-0.0019
18770,46.64172,-1.150542,114.0,33.93,15.008,355.4,0 / 24,1002147,2019-08-12 13:36:27:583,-2.0384,-0.6002,9.3241,-2.0161,-0.3121,9.5921,-0.0002,0.0111,-0.0019
18771,46.64172,-1.150542,114.0,33.93,15.008,355.4,0 / 24,1002246,2019-08-12 13:36:27:682,-1.9822,-0.5577,9.5659,-2.0286,-0.3169,9.5893,-0.0013,0.01,-0.0019
18772,46.64172,-1.150542,114.0,33.93,15.008,355.4,0 / 24,1002347,2019-08-12 13:36:27:783,-1.7978,-0.4991,9.4815,-2.0232,-0.3068,9.5908,0.003,-0.0049,0.0002
18773,46.64172,-1.150542,114.0,33.93,15.008,355.4,0 / 24,1002446,2019-08-12 13:36:27:882,-1.9942,-0.4799,9.7394,-1.9954,-0.2965,9.5969,-0.0077,-0.007,-0.0008
18774,46.64172,-1.150542,114.0,33.93,15.008,355.4,0 / 24,1002546,2019-08-12 13:36:27:982,-2.0444,-0.4135,9.7903,-1.991,-0.2844,9.5982,0.003,-0.0102,0.0013
18775,46.64172,-1.150542,114.0,33.93,15.008,355.4,0 / 24,1002648,2019-08-12 13:36:28:084,-1.9977,-0.3141,9.6509,-1.9683,-0.2639,9.6035,-0.0034,-0.0049,0.0024
18776,46.64172,-1.150542,114.0,33.93,15.008,355.4,0 / 24,1002746,2019-08-12 13:36:28:182,-1.9283,-0.0962,9.661,-1.9659,-0.2382,9.6046,0.0009,0.0015,0.0056
18777,46.64172,-1.150542,114.0,33.93,15.008,355.4,0 / 24,1002847,2019-08-12 13:36:28:283,-2.06,0.0402,9.5647,-1.9602,-0.209,9.6065,0.003,0.0068,0.0077
18778,46.64172,-1.150542,114.0,33.93,15.008,355.4,0 / 24,1002946,2019-08-12 13:36:28:382,-2.0181,0.1372,9.6203,-1.9603,-0.2027,9.6066,-0.0077,-0.0038,0.0066
18779,46.64172,-1.150542,114.0,33.93,15.008,355.4,0 / 24,1003047,2019-08-12 13:36:28:483,-1.7894,0.2234,8.8805,-1.952,-0.1873,9.6086,-0.0013,-0.0007,0.0066
18780,46.64172,-1.150542,114.0,33.93,15.008,355.4,0 / 24,1003148,2019-08-12 13:36:28:584,-1.9038,0.0468,9.5491,-1.9525,-0.1796,9.6086,0.0105,0.0068,0.0077
18781,46.64172,-1.150542,114.0,33.93,15.008,355.4,0 / 24,1003247,2019-08-12 13:36:28:683,-1.9313,0.1683,9.8963,-1.9481,-0.1714,9.6097,-0.0023,-0.0028,0.0024
18782,46.64172,-1.150542,114.0,33.93,15.008,355.4,0 / 24,1003348,2019-08-12 13:36:28:784,-2.0205,0.0367,9.8089,-1.9325,-0.1661,9.6129,-0.0077,-0.0049,0.0002
18783,46.64172,-1.150542,114.0,33.93,15.008,355.4,0 / 24,1003447,2019-08-12 13:36:28:883,-2.0247,-0.031,10.3117,-1.9125,-0.1526,9.6171,-0.0023,-0.006,0.0024
18784,46.64172,-1.150542,114.0,33.93,15.008,355.4,0 / 24,1003546,2019-08-12 13:36:28:982,-2.1701,-0.2668,10.083,-1.9049,-0.1415,9.6188,-0.0055,0.0025,0.0024
18785,46.64172,-1.150542,114.0,33.93,15.008,355.4,0 / 24,1003648,2019-08-12 13:36:29:084,-1.7637,-0.2297,9.603,-1.9,-0.1633,9.6194,0.0051,0.0015,0.0034
18786,46.64172,-1.150542,114.0,33.93,15.008,355.4,0 / 24,1003748,2019-08-12 13:36:29:184,-1.9259,-0.2405,9.904,-1.9087,-0.164,9.6177,-0.0002,0.0153,0.0024
18787,46.64172,-1.150542,114.0,33.93,15.008,355.4,0 / 24,1003848,2019-08-12 13:36:29:284,-1.8068,-0.2411,9.8334,-1.9083,-0.1705,9.6177,-0.0055,0.0004,-0.0019
18788,46.64172,-1.150542,114.0,33.93,15.008,355.4,0 / 24,1004252,2019-08-12 13:36:29:688,-1.8068,-0.2411,9.8334,-1.9044,-0.1679,9.6185,-0.0002,0.0004,0.0002
18789,46.64172,-1.150542,114.0,33.93,15.008,355.4,0 / 24,1004252,2019-08-12 13:36:29:688,-1.8068,-0.2411,9.8334,-1.9044,-0.1679,9.6185,-0.0002,0.0004,0.0002
18790,46.64172,-1.150542,114.0,33.93,15.008,355.4,0 / 24,1004253,2019-08-12 13:36:29:689,-1.8068,-0.2411,9.8334,-1.9044,-0.1679,9.6185,-0.0002,0.0004,0.0002
18791,46.64172,-1.150542,114.0,33.93,15.008,355.4,0 / 24,1004253,2019-08-12 13:36:29:689,-1.8068,-0.2411,9.8334,-1.9044,-0.1679,9.6185,-0.0002,0.0004,0.0002
18792,46.64172,-1.150542,114.0,33.93,15.008,355.4,0 / 24,1004254,2019-08-12 13:36:29:690,-1.8068,-0.2411,9.8334,-1.9044,-0.1679,9.6185,-0.0002,0.0004,0.0002
18793,46.64172,-1.150542,114.0,33.93,15.008,355.4,0 / 24,1004257,2019-08-12 13:36:29:693,-1.8068,-0.2411,9.8334,-1.9044,-0.1679,9.6185,-0.0002,0.0004,0.0002
18794,46.64172,-1.150542,114.0,33.93,15.008,355.4,0 / 24,1004257,2019-08-12 13:36:29:693,-1.8068,-0.2411,9.8334,-1.9044,-0.1679,9.6185,-0.0002,0.0004,0.0002
18795,46.64172,-1.150542,114.0,33.93,15.008,355.4,0 / 24,1004258,2019-08-12 13:36:29:694,-1.8068,-0.2411,9.8334,-1.9044,-0.1679,9.6185,-0.0002,0.0004,0.0002
18796,46.64172,-1.150542,114.0,33.93,15.008,355.4,0 / 24,1004259,2019-08-12 13:36:29:695,-1.8068,-0.2411,9.8334,-1.9044,-0.1679,9.6185,-0.0002,0.0004,0.0002
18797,46.64172,-1.150542,114.0,33.93,15.008,355.4,0 / 24,1004259,2019-08-12 13:36:29:695,-1.8068,-0.2411,9.8334,-1.9044,-0.1679,9.6185,-0.0002,0.0004,0.0002
18798,46.64172,-1.150542,114.0,33.93,15.008,355.4,0 / 24,1004260,2019-08-12 13:36:29:696,-1.8068,-0.2411,9.8334,-1.9044,-0.1679,9.6185,-0.0002,0.0004,0.0002
18799,46.64172,-1.150542,114.0,33.93,15.008,355.4,0 / 24,1004260,2019-08-12 13:36:29:696,-1.8068,-0.2411,9.8334,-1.9044,-0.1679,9.6185,-0.0002,0.0004,0.0002
18800,46.64172,-1.150542,114.0,33.93,15.008,355.4,0 / 24,1004263,2019-08-12 13:36:29:699,-1.8068,-0.2411,9.8334,-1.9044,-0.1679,9.6185,-0.0002,0.0004,0.0002
18801,46.64172,-1.150542,114.0,33.93,15.008,355.4,0 / 24,1004264,2019-08-12 13:36:29:700,-1.8068,-0.2411,9.8334,-1.9044,-0.1679,9.6185,-0.0002,0.0004,0.0002
18802,46.64172,-1.150542,114.0,33.93,15.008,355.4,0 / 24,1004265,2019-08-12 13:36:29:701,-1.8068,-0.2411,9.8334,-1.9044,-0.1679,9.6185,-0.0002,0.0004,0.0002
18803,46.64172,-1.150542,114.0,33.93,15.008,355.4,0 / 24,1004266,2019-08-12 13:36:29:702,-1.8068,-0.2411,9.8334,-1.9044,-0.1679,9.6185,-0.0002,0.0004,0.0002
18804,46.64172,-1.150542,114.0,33.93,15.008,355.4,0 / 24,1004267,2019-08-12 13:36:29:703,-1.8068,-0.2411,9.8334,-1.9044,-0.1679,9.6185,-0.0002,0.0004,0.0002
18805,46.64172,-1.150542,114.0,33.93,15.008,355.4,0 / 24,1004268,2019-08-12 13:36:29:704,-1.8068,-0.2411,9.8334,-1.9044,-0.1679,9.6185,-0.0002,0.0004,0.0002
18806,46.64172,-1.150542,114.0,33.93,15.008,355.4,0 / 24,1004268,2019-08-12 13:36:29:704,-1.8068,-0.2411,9.8334,-1.9044,-0.1679,9.6185,-0.0002,0.0004,0.0002
18807,46.64172,-1.150542,114.0,33.93,15.008,355.4,0 / 24,1004269,2019-08-12 13:36:29:705,-1.8068,-0.2411,9.8334,-1.9044,-0.1679,9.6185,-0.0002,0.0004,0.0002
18808,46.64172,-1.150542,114.0,33.93,15.008,355.4,0 / 24,1004270,2019-08-12 13:36:29:706,-1.8068,-0.2411,9.8334,-1.9044,-0.1679,9.6185,-0.0002,0.0004,0.0002
18809,46.64172,-1.150542,114.0,33.93,15.008,355.4,0 / 24,1004270,2019-08-12 13:36:29:706,-1.8068,-0.2411,9.8334,-1.9044,-0.1679,9.6185,-0.0002,0.0004,0.0002
18810,46.64172,-1.150542,114.0,33.93,15.008,355.4,0 / 24,1004271,2019-08-12 13:36:29:707,-1.8068,-0.2411,9.8334,-1.9044,-0.1679,9.6185,-0.0002,0.0004,0.0002
18811,46.64172,-1.150542,114.0,33.93,15.008,355.4,0 / 24,1004271,2019-08-12 13:36:29:707,-1.8068,-0.2411,9.8334,-1.9044,-0.1679,9.6185,-0.0002,0.0004,0.0002
18812,46.64172,-1.150542,114.0,33.93,15.008,355.4,0 / 24,1004272,2019-08-12 13:36:29:708,-1.8068,-0.2411,9.8334,-1.9044,-0.1679,9.6185,-0.0002,0.0004,0.0002
18813,46.64172,-1.150542,114.0,33.93,15.008,355.4,0 / 24,1004272,2019-08-12 13:36:29:708,-1.8068,-0.2411,9.8334,-1.9044,-0.1679,9.6185,-0.0002,0.0004,0.0002
18814,46.64172,-1.150542,114.0,33.93,15.008,355.4,0 / 24,1004272,2019-08-12 13:36:29:708,-1.8068,-0.2411,9.8334,-1.9044,-0.1679,9.6185,-0.0002,0.0004,0.0002
18815,46.64172,-1.150542,114.0,33.93,15.008,355.4,0 / 24,1004273,2019-08-12 13:36:29:709,-1.8068,-0.2411,9.8334,-1.9044,-0.1679,9.6185,-0.0002,0.0004,0.0002
18816,46.64172,-1.150542,114.0,33.93,15.008,355.4,0 / 24,1004273,2019-08-12 13:36:29:709,-1.8068,-0.2411,9.8334,-1.9044,-0.1679,9.6185,-0.0002,0.0004,0.0002
18817,46.64172,-1.150542,114.0,33.93,15.008,355.4,0 / 24,1004274,2019-08-12 13:36:29:710,-1.8068,-0.2411,9.8334,-1.9044,-0.1679,9.6185,-0.0002,0.0004,0.0002
18818,46.64172,-1.150542,114.0,33.93,15.008,355.4,0 / 24,1004275,2019-08-12 13:36:29:711,-1.8068,-0.2411,9.8334,-1.9044,-0.1679,9.6185,-0.0002,0.0004,0.0002
18819,46.64172,-1.150542,114.0,33.93,15.008,355.4,0 / 24,1004275,2019-08-12 13:36:29:711,-1.8068,-0.2411,9.8334,-1.9044,-0.1679,9.6185,-0.0002,0.0004,0.0002
18820,46.64172,-1.150542,114.0,33.93,15.008,355.4,0 / 24,1004276,2019-08-12 13:36:29:712,-1.8068,-0.2411,9.8334,-1.9044,-0.1679,9.6185,-0.0002,0.0004,0.0002
18821,46.64172,-1.150542,114.0,33.93,15.008,355.4,0 / 24,1004277,2019-08-12 13:36:29:713,-1.8068,-0.2411,9.8334,-1.9044,-0.1679,9.6185,-0.0002,0.0004,0.0002
18822,46.64172,-1.150542,114.0,33.93,15.008,355.4,0 / 24,1004277,2019-08-12 13:36:29:713,-1.8068,-0.2411,9.8334,-1.9044,-0.1679,9.6185,-0.0002,0.0004,0.0002
18823,46.64172,-1.150542,114.0,33.93,15.008,355.4,0 / 24,1004278,2019-08-12 13:36:29:714,-1.8068,-0.2411,9.8334,-1.9044,-0.1679,9.6185,-0.0002,0.0004,0.0002
18824,46.64172,-1.150542,114.0,33.93,15.008,355.4,0 / 24,1004278,2019-08-12 13:36:29:714,-1.8068,-0.2411,9.8334,-1.9044,-0.1679,9.6185,-0.0002,0.0004,0.0002
18825,46.64172,-1.150542,114.0,33.93,15.008,355.4,0 / 24,1004279,2019-08-12 13:36:29:715,-1.8068,-0.2411,9.8334,-1.9044,-0.1679,9.6185,-0.0002,0.0004,0.0002
18826,46.64172,-1.150542,114.0,33.93,15.008,355.4,0 / 24,1004279,2019-08-12 13:36:29:715,-1.8068,-0.2411,9.8334,-1.9044,-0.1679,9.6185,-0.0002,0.0004,0.0002
18827,46.64172,-1.150542,114.0,33.93,15.008,355.4,0 / 24,1004288,2019-08-12 13:36:29:724,-1.8068,-0.2411,9.8334,-1.9044,-0.1679,9.6185,-0.0002,0.0004,0.0002
18828,46.64172,-1.150542,114.0,33.93,15.008,355.4,0 / 24,1004388,2019-08-12 13:36:29:824,-1.8068,-0.2411,9.8334,-1.9044,-0.1679,9.6185,-0.0002,0.0004,0.0002
18829,46.64172,-1.150542,114.0,33.93,15.008,355.4,Dec-24,1004708,2019-08-12 13:36:30:144,-1.8068,-0.2411,9.8334,-1.9044,-0.1679,9.6185,-0.0002,0.0004,0.0002
18830,46.64172,-1.150542,114.0,33.93,15.008,355.4,Dec-24,1004708,2019-08-12 13:36:30:144,-1.8068,-0.2411,9.8334,-1.9044,-0.1679,9.6185,-0.0002,0.0004,0.0002
18831,46.64172,-1.150542,114.0,33.93,15.008,355.4,Dec-24,1004709,2019-08-12 13:36:30:145,-1.8068,-0.2411,9.8334,-1.9044,-0.1679,9.6185,-0.0002,0.0004,0.0002
18832,46.64172,-1.150542,114.0,33.93,15.008,355.4,Dec-24,1004709,2019-08-12 13:36:30:145,-1.8068,-0.2411,9.8334,-1.9044,-0.1679,9.6185,-0.0002,0.0004,0.0002
18833,46.64172,-1.150542,114.0,33.93,15.008,355.4,Dec-24,1004710,2019-08-12 13:36:30:146,-1.8068,-0.2411,9.8334,-1.9044,-0.1679,9.6185,-0.0002,0.0004,0.0002
18834,46.64172,-1.150542,114.0,33.93,15.008,355.4,Dec-24,1004711,2019-08-12 13:36:30:147,-1.8068,-0.2411,9.8334,-1.9044,-0.1679,9.6185,-0.0002,0.0004,0.0002
18835,46.64172,-1.150542,114.0,33.93,15.008,355.4,Dec-24,1004712,2019-08-12 13:36:30:148,-1.8068,-0.2411,9.8334,-1.9044,-0.1679,9.6185,-0.0002,0.0004,0.0002
18836,46.64172,-1.150542,114.0,33.93,15.008,355.4,Dec-24,1004712,2019-08-12 13:36:30:148,-1.8068,-0.2411,9.8334,-1.9044,-0.1679,9.6185,-0.0002,0.0004,0.0002
18837,46.64172,-1.150542,114.0,33.93,15.008,355.4,Dec-24,1004746,2019-08-12 13:36:30:182,-1.8068,-0.2411,9.8334,-1.9044,-0.1679,9.6185,-0.0002,0.0004,0.0002
18838,46.64172,-1.150542,114.0,33.93,15.008,355.4,Dec-24,1004846,2019-08-12 13:36:30:282,-1.8068,-0.2411,9.8334,-1.9044,-0.1679,9.6185,-0.0002,0.0004,0.0002
18839,46.64172,-1.150542,114.0,33.93,15.008,355.4,Dec-24,1005169,2019-08-12 13:36:30:605,-1.8068,-0.2411,9.8334,-1.9044,-0.1679,9.6185,-0.0002,0.0004,0.0002
18840,46.64172,-1.150542,114.0,33.93,15.008,355.4,Dec-24,1005170,2019-08-12 13:36:30:606,-1.8068,-0.2411,9.8334,-1.9044,-0.1679,9.6185,-0.0002,0.0004,0.0002
18841,46.64172,-1.150542,114.0,33.93,15.008,355.4,Dec-24,1005170,2019-08-12 13:36:30:606,-1.8068,-0.2411,9.8334,-1.9044,-0.1679,9.6185,-0.0002,0.0004,0.0002
18842,46.64172,-1.150542,114.0,33.93,15.008,355.4,Dec-24,1005171,2019-08-12 13:36:30:607,-1.8068,-0.2411,9.8334,-1.9044,-0.1679,9.6185,-0.0002,0.0004,0.0002
18843,46.64172,-1.150542,114.0,33.93,15.008,355.4,Dec-24,1005222,2019-08-12 13:36:30:658,-1.8068,-0.2411,9.8334,-1.9044,-0.1679,9.6185,-0.0002,0.0004,0.0002
18844,46.64172,-1.150542,114.0,33.93,15.008,355.4,Dec-24,1005321,2019-08-12 13:36:30:757,-1.8068,-0.2411,9.8334,-1.9044,-0.1679,9.6185,-0.0002,0.0004,0.0002
18845,46.64172,-1.150542,114.0,33.93,15.008,355.4,Dec-24,1005421,2019-08-12 13:36:30:857,-2.0139,-0.2022,9.4144,-1.9901,-0.3928,9.5946,0.0041,0.0057,-0.0008
18846,46.64172,-1.150542,114.0,33.93,15.008,355.4,Dec-24,1005521,2019-08-12 13:36:30:957,-1.9121,-0.4356,9.2911,-1.9684,-0.3866,9.5993,0.0073,-0.0007,-0.0019
18847,46.64172,-1.150542,114.0,33.93,15.008,355.4,0 / 24,1005621,2019-08-12 13:36:31:057,-1.9828,-0.4386,9.3558,-1.9525,-0.3726,9.6031,0.0009,-0.0092,-0.0008
18848,46.64172,-1.150542,114.0,33.93,15.008,355.4,0 / 24,1005721,2019-08-12 13:36:31:157,-1.8655,-0.3207,9.0134,-1.9398,-0.3552,9.6063,0.0041,-0.007,0.0013
18849,46.64172,-1.150542,114.0,33.93,15.008,355.4,0 / 24,1005821,2019-08-12 13:36:31:257,-1.8864,-0.0603,9.1978,-1.9464,-0.3191,9.6063,0.0041,0.01,0.0013
18850,46.64172,-1.150542,114.0,33.93,15.008,355.4,0 / 24,1005921,2019-08-12 13:36:31:357,-1.6631,-0.1016,9.4342,-1.948,-0.2854,9.607,-0.0034,0.0047,0.0002
18851,46.64172,-1.150542,114.0,33.93,15.008,355.4,0 / 24,1006022,2019-08-12 13:36:31:458,-1.9965,-0.0771,9.3486,-1.9577,-0.2474,9.6061,-0.0023,-0.0038,0.0056
18852,46.64172,-1.150542,114.0,33.93,15.008,355.4,0 / 24,1006123,2019-08-12 13:36:31:559,-1.9068,0.1049,9.5683,-1.9545,-0.2194,9.6074,0.0041,-0.007,0.0077
18853,46.64172,-1.150542,114.0,33.93,15.008,355.4,0 / 24,1006222,2019-08-12 13:36:31:658,-1.9325,0.0863,9.3396,-1.958,-0.1626,9.6078,-0.0066,-0.0049,0.0066
18854,46.64172,-1.150542,114.0,33.93,15.008,355.4,0 / 24,1006322,2019-08-12 13:36:31:758,-1.893,0.212,9.5305,-1.9596,-0.1404,9.6079,-0.0045,-0.007,0.0077
18855,46.64172,-1.150542,114.0,33.93,15.008,355.4,0 / 24,1006422,2019-08-12 13:36:31:858,-1.9798,0.1222,9.7059,-1.9724,-0.1235,9.6055,-0.0002,0.0185,0.0056
18856,46.64172,-1.150542,114.0,33.93,15.008,355.4,0 / 24,1006522,2019-08-12 13:36:31:958,-2.2593,0.1576,9.9429,-1.9757,-0.1254,9.6048,-0.0077,0.0004,0.0034
18857,46.644634,-1.150885,114.21,32.9,18.224,355.7,0 / 24,1006623,2019-08-12 13:36:32:059,-1.9894,0.1013,9.6461,-1.9767,-0.1296,9.6045,-0.0108,0.0025,0.0024
18858,46.644634,-1.150885,114.21,32.9,18.224,355.7,0 / 24,1006721,2019-08-12 13:36:32:157,-2.1905,0.0067,9.8071,-1.9819,-0.1329,9.6034,-0.0045,0.0036,0.0034
18859,46.644634,-1.150885,114.21,32.9,18.224,355.7,0 / 24,1006822,2019-08-12 13:36:32:258,-2.1097,-0.1292,10.347,-1.9954,-0.1285,9.6006,0.0051,0.0004,0.0056
18860,46.644634,-1.150885,114.21,32.9,18.224,355.7,0 / 24,1006923,2019-08-12 13:36:32:359,-2.1629,-0.0831,10.0154,-1.9956,-0.1372,9.6005,-0.0034,-0.006,0.0024
18861,46.644634,-1.150885,114.21,32.9,18.224,355.7,0 / 24,1007021,2019-08-12 13:36:32:457,-2.0271,-0.35,9.8358,-1.9958,-0.1403,9.6004,0.003,-0.006,0.0024
18862,46.644634,-1.150885,114.21,32.9,18.224,355.7,0 / 24,1007122,2019-08-12 13:36:32:558,-2.1264,-0.3967,9.8256,-2.0094,-0.1604,9.5972,-0.0077,0.0057,-0.0019
18863,46.644634,-1.150885,114.21,32.9,18.224,355.7,0 / 24,1007221,2019-08-12 13:36:32:657,-2.1294,-0.4697,9.6143,-2.0454,-0.1914,9.5891,-0.0034,0.0015,-0.004
18864,46.644634,-1.150885,114.21,32.9,18.224,355.7,0 / 24,1007322,2019-08-12 13:36:32:758,-2.0438,-0.4823,9.3396,-2.0566,-0.2368,9.5857,-0.0013,0.0036,-0.0051
18865,46.644634,-1.150885,114.21,32.9,18.224,355.7,0 / 24,1007421,2019-08-12 13:36:32:857,-2.1216,-0.4344,9.7502,-2.0758,-0.2563,9.581,-0.0013,-0.0028,-0.003
18866,46.644634,-1.150885,114.21,32.9,18.224,355.7,0 / 24,1007522,2019-08-12 13:36:32:958,-2.0277,-0.5721,8.9739,-2.0711,-0.2707,9.5816,0.003,-0.0102,-0.0019
18867,46.644634,-1.150885,114.21,32.9,18.224,355.7,0 / 24,1007621,2019-08-12 13:36:33:057,-2.154,-0.6212,9.33,-2.0783,-0.2811,9.5798,-0.0023,0.0004,-0.0051
18868,46.644634,-1.150885,114.21,32.9,18.224,355.7,0 / 24,1007722,2019-08-12 13:36:33:158,-2.1007,-0.7193,9.3241,-2.0801,-0.2866,9.5792,0.0019,0.0036,-0.004
18869,46.644634,-1.150885,114.21,32.9,18.224,355.7,0 / 24,1007822,2019-08-12 13:36:33:258,-1.9517,-0.2962,8.9679,-2.0832,-0.2899,9.5785,-0.0087,0.0036,-0.0019
18870,46.644634,-1.150885,114.21,32.9,18.224,355.7,0 / 24,1007921,2019-08-12 13:36:33:357,-2.0905,-0.4769,9.3133,-2.0861,-0.2916,9.5778,0.003,0.0068,0.0002
18871,46.644634,-1.150885,114.21,32.9,18.224,355.7,0 / 24,1008022,2019-08-12 13:36:33:458,-1.9696,-0.2752,9.1589,-2.0996,-0.295,9.5747,-0.0045,0.0057,-0.0019
18872,46.644634,-1.150885,114.21,32.9,18.224,355.7,0 / 24,1008122,2019-08-12 13:36:33:558,-1.9708,-0.1657,9.4863,-2.0939,-0.2964,9.5759,-0.0034,-0.0102,0.0002
18873,46.644634,-1.150885,114.21,32.9,18.224,355.7,0 / 24,1008222,2019-08-12 13:36:33:658,-1.981,-0.1292,9.8238,-2.0764,-0.2937,9.5798,-0.0034,-0.0102,0.0002
18874,46.644634,-1.150885,114.21,32.9,18.224,355.7,0 / 24,1008321,2019-08-12 13:36:33:757,-1.8577,-0.1525,9.4168,-2.0741,-0.286,9.5805,-0.0034,-0.0017,-0.0008
18875,46.644634,-1.150885,114.21,32.9,18.224,355.7,0 / 24,1008422,2019-08-12 13:36:33:858,-1.8331,0.0438,9.3809,-2.0607,-0.2609,9.5841,0.003,0.0047,0.0013
18876,46.644634,-1.150885,114.21,32.9,18.224,355.7,0 / 24,1008521,2019-08-12 13:36:33:957,-1.8822,-0.0196,9.3277,-2.0654,-0.2615,9.5831,-0.0013,0.0057,0.0002
18877,46.644634,-1.150885,114.21,32.9,18.224,355.7,0 / 24,1008622,2019-08-12 13:36:34:058,-1.9301,-0.1669,9.6167,-2.0712,-0.2679,9.5817,-0.0002,0.0089,-0.0008
18878,46.644634,-1.150885,114.21,32.9,18.224,355.7,0 / 24,1008721,2019-08-12 13:36:34:157,-1.9971,-0.1962,9.7562,-2.0698,-0.2734,9.5818,-0.0045,0.0079,-0.0019
18879,46.644634,-1.150885,114.21,32.9,18.224,355.7,0 / 24,1008821,2019-08-12 13:36:34:257,-2.1007,-0.2261,9.8286,-2.0632,-0.2725,9.5833,0.0062,0.0015,0.0002
18880,46.644634,-1.150885,114.21,32.9,18.224,355.7,0 / 24,1008922,2019-08-12 13:36:34:358,-2.2192,-0.0938,10.2344,-2.0726,-0.2714,9.5813,0.0062,0.0111,0.0024
18881,46.644634,-1.150885,114.21,32.9,18.224,355.7,0 / 24,1009022,2019-08-12 13:36:34:458,-2.1857,-0.286,10.0429,-2.0695,-0.2637,9.5822,0.0094,-0.0102,0.0013
18882,46.644634,-1.150885,114.21,32.9,18.224,355.7,0 / 24,1009122,2019-08-12 13:36:34:558,-2.2635,-0.3129,9.9902,-2.0622,-0.255,9.584,0.0073,-0.0113,0.0045
18883,46.644634,-1.150885,114.21,32.9,18.224,355.7,0 / 24,1009222,2019-08-12 13:36:34:658,-2.0851,-0.3039,9.837,-2.0277,-0.2261,9.5921,0.0051,-0.0198,0.0034
18884,46.644634,-1.150885,114.21,32.9,18.224,355.7,0 / 24,1009321,2019-08-12 13:36:34:757,-2.1558,-0.2997,9.591,-2.0181,-0.2078,9.5945,0.003,0.0111,0.0077
18885,46.644634,-1.150885,114.21,32.9,18.224,355.7,0 / 24,1009422,2019-08-12 13:36:34:858,-1.9343,-0.1244,9.6503,-2.023,-0.2004,9.5936,-0.0045,0.0057,0.0088
18886,46.644634,-1.150885,114.21,32.9,18.224,355.7,0 / 24,1009522,2019-08-12 13:36:34:958,-2.0875,-0.0166,9.3049,-2.0152,-0.1411,9.5963,0.0147,-0.0038,0.0162
18887,46.644634,-1.150885,114.21,32.9,18.224,355.7,0 / 24,1009622,2019-08-12 13:36:35:058,-2.0049,0.1294,9.418,-2.008,-0.0661,9.5986,0.0019,-0.0007,0.0194
18888,46.644634,-1.150885,114.21,32.9,18.224,355.7,0 / 24,1009721,2019-08-12 13:36:35:157,-2.0636,0.1456,9.6149,-1.9951,0.0572,9.6014,-0.0013,-0.0028,0.0183
18889,46.644634,-1.150885,114.21,32.9,18.224,355.7,0 / 24,1010095,2019-08-12 13:36:35:531,-2.0636,0.1456,9.6149,-1.9951,0.0572,9.6014,-0.0013,-0.0028,0.0183
18890,46.644634,-1.150885,114.21,32.9,18.224,355.7,0 / 24,1010096,2019-08-12 13:36:35:532,-2.0636,0.1456,9.6149,-1.9951,0.0572,9.6014,-0.0013,-0.0028,0.0183
18891,46.644634,-1.150885,114.21,32.9,18.224,355.7,0 / 24,1010096,2019-08-12 13:36:35:532,-2.0636,0.1456,9.6149,-1.9951,0.0572,9.6014,-0.0013,-0.0028,0.0183
18892,46.644634,-1.150885,114.21,32.9,18.224,355.7,0 / 24,1010097,2019-08-12 13:36:35:533,-2.0636,0.1456,9.6149,-1.9951,0.0572,9.6014,-0.0013,-0.0028,0.0183
18893,46.644634,-1.150885,114.21,32.9,18.224,355.7,0 / 24,1010097,2019-08-12 13:36:35:533,-2.0636,0.1456,9.6149,-1.9951,0.0572,9.6014,-0.0013,-0.0028,0.0183
18894,46.644634,-1.150885,114.21,32.9,18.224,355.7,0 / 24,1010097,2019-08-12 13:36:35:533,-2.0636,0.1456,9.6149,-1.9951,0.0572,9.6014,-0.0013,-0.0028,0.0183
18895,46.644634,-1.150885,114.21,32.9,18.224,355.7,0 / 24,1010098,2019-08-12 13:36:35:534,-2.0636,0.1456,9.6149,-1.9951,0.0572,9.6014,-0.0013,-0.0028,0.0183
18896,46.644634,-1.150885,114.21,32.9,18.224,355.7,0 / 24,1010098,2019-08-12 13:36:35:534,-2.0636,0.1456,9.6149,-1.9951,0.0572,9.6014,-0.0013,-0.0028,0.0183
18897,46.644634,-1.150885,114.21,32.9,18.224,355.7,0 / 24,1010099,2019-08-12 13:36:35:535,-2.0636,0.1456,9.6149,-1.9951,0.0572,9.6014,-0.0013,-0.0028,0.0183
18898,46.644634,-1.150885,114.21,32.9,18.224,355.7,0 / 24,1010100,2019-08-12 13:36:35:536,-2.0636,0.1456,9.6149,-1.9951,0.0572,9.6014,-0.0013,-0.0028,0.0183
18899,46.644634,-1.150885,114.21,32.9,18.224,355.7,0 / 24,1010100,2019-08-12 13:36:35:536,-2.0636,0.1456,9.6149,-1.9951,0.0572,9.6014,-0.0013,-0.0028,0.0183
18900,46.644634,-1.150885,114.21,32.9,18.224,355.7,0 / 24,1010103,2019-08-12 13:36:35:539,-2.0636,0.1456,9.6149,-1.9951,0.0572,9.6014,-0.0013,-0.0028,0.0183
18901,46.644634,-1.150885,114.21,32.9,18.224,355.7,0 / 24,1010104,2019-08-12 13:36:35:540,-2.0636,0.1456,9.6149,-1.9951,0.0572,9.6014,-0.0013,-0.0028,0.0183
18902,46.644634,-1.150885,114.21,32.9,18.224,355.7,0 / 24,1010105,2019-08-12 13:36:35:541,-2.0636,0.1456,9.6149,-1.9951,0.0572,9.6014,-0.0013,-0.0028,0.0183
18903,46.644634,-1.150885,114.21,32.9,18.224,355.7,0 / 24,1010106,2019-08-12 13:36:35:542,-2.0636,0.1456,9.6149,-1.9951,0.0572,9.6014,-0.0013,-0.0028,0.0183
18904,46.644634,-1.150885,114.21,32.9,18.224,355.7,0 / 24,1010106,2019-08-12 13:36:35:542,-2.0636,0.1456,9.6149,-1.9951,0.0572,9.6014,-0.0013,-0.0028,0.0183
18905,46.644634,-1.150885,114.21,32.9,18.224,355.7,0 / 24,1010107,2019-08-12 13:36:35:543,-2.0636,0.1456,9.6149,-1.9951,0.0572,9.6014,-0.0013,-0.0028,0.0183
18906,46.644634,-1.150885,114.21,32.9,18.224,355.7,0 / 24,1010108,2019-08-12 13:36:35:544,-2.0636,0.1456,9.6149,-1.9951,0.0572,9.6014,-0.0013,-0.0028,0.0183
18907,46.644634,-1.150885,114.21,32.9,18.224,355.7,0 / 24,1010109,2019-08-12 13:36:35:545,-2.0636,0.1456,9.6149,-1.9951,0.0572,9.6014,-0.0013,-0.0028,0.0183
18908,46.644634,-1.150885,114.21,32.9,18.224,355.7,0 / 24,1010109,2019-08-12 13:36:35:545,-2.0636,0.1456,9.6149,-1.9951,0.0572,9.6014,-0.0013,-0.0028,0.0183
18909,46.644634,-1.150885,114.21,32.9,18.224,355.7,0 / 24,1010110,2019-08-12 13:36:35:546,-2.0636,0.1456,9.6149,-1.9951,0.0572,9.6014,-0.0013,-0.0028,0.0183
18910,46.644634,-1.150885,114.21,32.9,18.224,355.7,0 / 24,1010111,2019-08-12 13:36:35:547,-2.0636,0.1456,9.6149,-1.9951,0.0572,9.6014,-0.0013,-0.0028,0.0183
18911,46.644634,-1.150885,114.21,32.9,18.224,355.7,0 / 24,1010112,2019-08-12 13:36:35:548,-2.0636,0.1456,9.6149,-1.9951,0.0572,9.6014,-0.0013,-0.0028,0.0183
18912,46.644634,-1.150885,114.21,32.9,18.224,355.7,0 / 24,1010112,2019-08-12 13:36:35:548,-2.0636,0.1456,9.6149,-1.9951,0.0572,9.6014,-0.0013,-0.0028,0.0183
18913,46.644634,-1.150885,114.21,32.9,18.224,355.7,0 / 24,1010113,2019-08-12 13:36:35:549,-2.0636,0.1456,9.6149,-1.9951,0.0572,9.6014,-0.0013,-0.0028,0.0183
18914,46.644634,-1.150885,114.21,32.9,18.224,355.7,0 / 24,1010114,2019-08-12 13:36:35:550,-2.0636,0.1456,9.6149,-1.9951,0.0572,9.6014,-0.0013,-0.0028,0.0183
18915,46.644634,-1.150885,114.21,32.9,18.224,355.7,0 / 24,1010115,2019-08-12 13:36:35:551,-2.0636,0.1456,9.6149,-1.9951,0.0572,9.6014,-0.0013,-0.0028,0.0183
18916,46.644634,-1.150885,114.21,32.9,18.224,355.7,0 / 24,1010115,2019-08-12 13:36:35:551,-2.0636,0.1456,9.6149,-1.9951,0.0572,9.6014,-0.0013,-0.0028,0.0183
18917,46.644634,-1.150885,114.21,32.9,18.224,355.7,0 / 24,1010134,2019-08-12 13:36:35:570,-2.0636,0.1456,9.6149,-1.9951,0.0572,9.6014,-0.0013,-0.0028,0.0183
18918,46.644634,-1.150885,114.21,32.9,18.224,355.7,0 / 24,1010234,2019-08-12 13:36:35:670,-2.0636,0.1456,9.6149,-1.9951,0.0572,9.6014,-0.0013,-0.0028,0.0183
18919,46.644634,-1.150885,114.21,32.9,18.224,355.7,Sep-24,1010554,2019-08-12 13:36:35:990,-2.0636,0.1456,9.6149,-1.9951,0.0572,9.6014,-0.0013,-0.0028,0.0183
18920,46.644634,-1.150885,114.21,32.9,18.224,355.7,Sep-24,1010555,2019-08-12 13:36:35:991,-2.0636,0.1456,9.6149,-1.9951,0.0572,9.6014,-0.0013,-0.0028,0.0183
18921,46.644634,-1.150885,114.21,32.9,18.224,355.7,Sep-24,1010555,2019-08-12 13:36:35:991,-2.0636,0.1456,9.6149,-1.9951,0.0572,9.6014,-0.0013,-0.0028,0.0183
18922,46.644634,-1.150885,114.21,32.9,18.224,355.7,Sep-24,1010556,2019-08-12 13:36:35:992,-2.0636,0.1456,9.6149,-1.9951,0.0572,9.6014,-0.0013,-0.0028,0.0183
18923,46.644634,-1.150885,114.21,32.9,18.224,355.7,Sep-24,1010556,2019-08-12 13:36:35:992,-2.0636,0.1456,9.6149,-1.9951,0.0572,9.6014,-0.0013,-0.0028,0.0183
18924,46.644634,-1.150885,114.21,32.9,18.224,355.7,Sep-24,1010557,2019-08-12 13:36:35:993,-2.0636,0.1456,9.6149,-1.9951,0.0572,9.6014,-0.0013,-0.0028,0.0183
18925,46.644634,-1.150885,114.21,32.9,18.224,355.7,Sep-24,1010558,2019-08-12 13:36:35:994,-2.0636,0.1456,9.6149,-1.9951,0.0572,9.6014,-0.0013,-0.0028,0.0183
18926,46.644634,-1.150885,114.21,32.9,18.224,355.7,Sep-24,1010558,2019-08-12 13:36:35:994,-2.0636,0.1456,9.6149,-1.9951,0.0572,9.6014,-0.0013,-0.0028,0.0183
18927,46.644634,-1.150885,114.21,32.9,18.224,355.7,Sep-24,1010591,2019-08-12 13:36:36:027,-2.0636,0.1456,9.6149,-1.9951,0.0572,9.6014,-0.0013,-0.0028,0.0183
18928,46.644634,-1.150885,114.21,32.9,18.224,355.7,Sep-24,1010691,2019-08-12 13:36:36:127,-2.0636,0.1456,9.6149,-1.9951,0.0572,9.6014,-0.0013,-0.0028,0.0183
18929,46.644634,-1.150885,114.21,32.9,18.224,355.7,Sep-24,1011011,2019-08-12 13:36:36:447,-2.0636,0.1456,9.6149,-1.9951,0.0572,9.6014,-0.0013,-0.0028,0.0183
18930,46.644634,-1.150885,114.21,32.9,18.224,355.7,Sep-24,1011012,2019-08-12 13:36:36:448,-2.0636,0.1456,9.6149,-1.9951,0.0572,9.6014,-0.0013,-0.0028,0.0183
18931,46.644634,-1.150885,114.21,32.9,18.224,355.7,Sep-24,1011012,2019-08-12 13:36:36:448,-2.0636,0.1456,9.6149,-1.9951,0.0572,9.6014,-0.0013,-0.0028,0.0183
18932,46.644634,-1.150885,114.21,32.9,18.224,355.7,Sep-24,1011091,2019-08-12 13:36:36:527,-2.0636,0.1456,9.6149,-1.9951,0.0572,9.6014,-0.0013,-0.0028,0.0183
18933,46.644634,-1.150885,114.21,32.9,18.224,355.7,Sep-24,1011191,2019-08-12 13:36:36:627,-2.0636,0.1456,9.6149,-1.9951,0.0572,9.6014,-0.0013,-0.0028,0.0183
18934,46.644634,-1.150885,114.21,32.9,18.224,355.7,Sep-24,1011297,2019-08-12 13:36:36:733,-2.1061,-0.2908,9.5719,-2.0616,-0.1622,9.5861,0.0009,0.0036,0.0034
18935,46.644634,-1.150885,114.21,32.9,18.224,355.7,Sep-24,1011391,2019-08-12 13:36:36:827,-2.0594,-0.1046,9.3139,-2.0643,-0.1449,9.5858,-0.0066,-0.006,0.0013
18936,46.644634,-1.150885,114.21,32.9,18.224,355.7,0 / 24,1011491,2019-08-12 13:36:36:927,-2.1767,-0.119,9.9184,-2.0563,-0.1509,9.5875,-0.013,-0.0156,-0.0008
18937,46.644634,-1.150885,114.21,32.9,18.224,355.7,0 / 24,1011591,2019-08-12 13:36:37:027,-1.8277,-0.0112,9.4204,-2.0465,-0.1607,9.5894,-0.0034,-0.0102,0.0024
18938,46.644634,-1.150885,114.21,32.9,18.224,355.7,0 / 24,1011691,2019-08-12 13:36:37:127,-2.0151,0.1624,9.3719,-2.0507,-0.1548,9.5886,-0.0023,0.0068,0.0056
18939,46.644634,-1.150885,114.21,32.9,18.224,355.7,0 / 24,1011792,2019-08-12 13:36:37:228,-2.2641,0.2222,9.7772,-2.0553,-0.149,9.5877,0.0051,-0.0038,0.0077
18940,46.644634,-1.150885,114.21,32.9,18.224,355.7,0 / 24,1011892,2019-08-12 13:36:37:328,-1.9618,-0.0052,9.5856,-2.0701,-0.1192,9.5849,0.0051,-0.0007,0.0088
18941,46.644634,-1.150885,114.21,32.9,18.224,355.7,0 / 24,1011992,2019-08-12 13:36:37:428,-2.1899,0.1282,9.8825,-2.0813,-0.0925,9.5828,-0.0045,-0.0038,0.0077
18942,46.644634,-1.150885,114.21,32.9,18.224,355.7,0 / 24,1012093,2019-08-12 13:36:37:529,-2.2868,-0.0615,9.4934,-2.0985,-0.0672,9.5792,-0.0013,0.0111,0.0088
18943,46.644634,-1.150885,114.21,32.9,18.224,355.7,0 / 24,1012191,2019-08-12 13:36:37:627,-2.218,-0.1711,9.4288,-2.1229,-0.0607,9.5739,-0.013,0.0057,0.0056
18944,46.644634,-1.150885,114.21,32.9,18.224,355.7,0 / 24,1012291,2019-08-12 13:36:37:727,-2.3204,-0.1591,9.4737,-2.1382,-0.0456,9.5706,0.0009,0.0057,0.0077
18945,46.644634,-1.150885,114.21,32.9,18.224,355.7,0 / 24,1012393,2019-08-12 13:36:37:829,-2.3233,-0.0938,9.5431,-2.1521,-0.0169,9.5676,0.003,-0.0049,0.0088
18946,46.644634,-1.150885,114.21,32.9,18.224,355.7,0 / 24,1012491,2019-08-12 13:36:37:927,-2.2431,-0.0052,9.2492,-2.1479,-0.0097,9.5685,0.0041,-0.0081,0.0098
18947,46.644634,-1.150885,114.21,32.9,18.224,355.7,0 / 24,1012591,2019-08-12 13:36:38:027,-2.0911,0.1306,9.5347,-2.1493,0.023,9.5682,-0.0045,-0.006,0.0098
18948,46.644634,-1.150885,114.21,32.9,18.224,355.7,0 / 24,1012692,2019-08-12 13:36:38:128,-2.1067,0.0145,9.6018,-2.1547,0.05,9.5669,0.0019,-0.0007,0.0109
18949,46.644634,-1.150885,114.21,32.9,18.224,355.7,0 / 24,1012793,2019-08-12 13:36:38:229,-1.9642,0.0971,9.0637,-2.1644,0.0632,9.5646,-0.0066,0.0132,0.0109
18950,46.644634,-1.150885,114.21,32.9,18.224,355.7,0 / 24,1012892,2019-08-12 13:36:38:328,-2.0331,0.1426,9.5126,-2.1721,0.067,9.5628,0.0009,0.0047,0.0109
18951,46.644634,-1.150885,114.21,32.9,18.224,355.7,0 / 24,1012992,2019-08-12 13:36:38:428,-1.8864,0.4161,8.9781,-2.1828,0.0821,9.5603,-0.0055,-0.007,0.0098
18952,46.644634,-1.150885,114.21,32.9,18.224,355.7,0 / 24,1013092,2019-08-12 13:36:38:528,-2.0863,0.3778,9.5814,-2.1752,0.0856,9.562,-0.0141,-0.0102,0.0077
18953,46.644634,-1.150885,114.21,32.9,18.224,355.7,0 / 24,1013192,2019-08-12 13:36:38:628,-2.3048,0.1378,9.8639,-2.1716,0.0894,9.5628,-0.0002,-0.0007,0.0088
18954,46.644634,-1.150885,114.21,32.9,18.224,355.7,0 / 24,1013291,2019-08-12 13:36:38:727,-2.4245,0.0887,10.0022,-2.179,0.0862,9.5611,-0.0066,0.0089,0.0077
18955,46.644634,-1.150885,114.21,32.9,18.224,355.7,0 / 24,1013391,2019-08-12 13:36:38:827,-2.3952,-0.0621,9.7089,-2.1737,0.0927,9.5623,-0.0108,0.0004,0.0098
18956,46.644634,-1.150885,114.21,32.9,18.224,355.7,0 / 24,1013490,2019-08-12 13:36:38:926,-2.1228,-0.0112,8.9021,-2.1756,0.0983,9.5618,-0.0055,0.0089,0.0109
18957,46.644634,-1.150885,114.21,32.9,18.224,355.7,0 / 24,1013591,2019-08-12 13:36:39:027,-2.1037,-0.0376,9.2444,-2.1894,0.0988,9.5586,-0.0002,0.0164,0.0109
18958,46.644634,-1.150885,114.21,32.9,18.224,355.7,0 / 24,1013691,2019-08-12 13:36:39:127,-2.1623,0.1031,9.1367,-2.1895,0.0982,9.5586,-0.0077,-0.0102,0.0088
18959,46.644634,-1.150885,114.21,32.9,18.224,355.7,0 / 24,1013791,2019-08-12 13:36:39:227,-2.1953,-0.0262,9.5012,-2.1745,0.0961,9.562,-0.0077,-0.0188,0.0077
18960,46.644634,-1.150885,114.21,32.9,18.224,355.7,0 / 24,1013891,2019-08-12 13:36:39:327,-2.1156,0.0133,10.0345,-2.1462,0.0808,9.5686,-0.0098,-0.0209,0.0034
18961,46.644634,-1.150885,114.21,32.9,18.224,355.7,0 / 24,1013991,2019-08-12 13:36:39:427,-2.1665,-0.1687,10.502,-2.1297,0.0831,9.5722,0.0147,-0.0156,0.0056
18962,46.644634,-1.150885,114.21,32.9,18.224,355.7,0 / 24,1014091,2019-08-12 13:36:39:527,-2.0169,0.1378,9.7999,-2.1246,0.0793,9.5734,-0.0045,-0.0007,0.0056
18963,46.644634,-1.150885,114.21,32.9,18.224,355.7,0 / 24,1014191,2019-08-12 13:36:39:627,-1.8822,0.0492,9.3701,-2.1221,0.0556,9.5741,-0.0172,0.0079,0.0024
18964,46.644634,-1.150885,114.21,32.9,18.224,355.7,0 / 24,1014291,2019-08-12 13:36:39:727,-1.7074,0.1061,9.3079,-2.1312,0.048,9.5722,0.003,0.0153,0.0024
18965,46.644634,-1.150885,114.21,32.9,18.224,355.7,0 / 24,1014391,2019-08-12 13:36:39:827,-2.0127,-0.0657,9.2175,-2.1208,0.0377,9.5745,-0.0045,-0.0134,-0.0019
18966,46.644634,-1.150885,114.21,32.9,18.224,355.7,0 / 24,1014491,2019-08-12 13:36:39:927,-1.9199,-0.2106,9.0475,-2.1133,0.0192,9.5762,-0.0013,0.0164,-0.003
18967,46.644634,-1.150885,114.21,32.9,18.224,355.7,0 / 24,1014591,2019-08-12 13:36:40:027,-2.1887,-0.4075,9.3797,-2.1235,0.0115,9.574,0.0073,0.0175,-0.0019
18968,46.644634,-1.150885,114.21,32.9,18.224,355.7,0 / 24,1014691,2019-08-12 13:36:40:127,-2.1947,-0.2255,9.3731,-2.1291,0.0094,9.5727,0.0051,0.0153,0.0013
18969,46.644634,-1.150885,114.21,32.9,18.224,355.7,0 / 24,1014791,2019-08-12 13:36:40:227,-2.1719,-0.3243,9.8131,-2.1319,-0.0053,9.5721,-0.0055,0.0057,-0.0008
18970,46.644634,-1.150885,114.21,32.9,18.224,355.7,0 / 24,1014891,2019-08-12 13:36:40:327,-2.3198,-0.3518,9.5126,-2.1135,-0.018,9.5762,0.0073,-0.0134,0.0002
18971,46.644634,-1.150885,114.21,32.9,18.224,355.7,0 / 24,1014992,2019-08-12 13:36:40:428,-2.1581,-0.2578,10.1417,-2.1025,-0.0241,9.5786,-0.0013,-0.0124,0.0024
18972,46.644634,-1.150885,114.21,32.9,18.224,355.7,0 / 24,1015091,2019-08-12 13:36:40:527,-2.069,0.0379,9.8681,-2.0812,-0.0245,9.5832,0.0094,-0.0102,0.0066
18973,46.644634,-1.150885,114.21,32.9,18.224,355.7,0 / 24,1015191,2019-08-12 13:36:40:627,-1.7817,-0.0873,9.4605,-2.0848,-0.0194,9.5825,0.003,0.01,0.0088
18974,46.644634,-1.150885,114.21,32.9,18.224,355.7,0 / 24,1015291,2019-08-12 13:36:40:727,-1.8415,0.2192,9.2205,-2.0989,-0.02,9.5794,-0.0087,0.0121,0.0109
18975,46.644634,-1.150885,114.21,32.9,18.224,355.7,0 / 24,1015391,2019-08-12 13:36:40:827,-1.908,0.3389,9.8071,-2.1063,-0.0072,9.5778,0.0062,0.0068,0.0194
18976,46.644634,-1.150885,114.21,32.9,18.224,355.7,0 / 24,1015491,2019-08-12 13:36:40:927,-2.1264,0.2036,10.0465,-2.097,0.0211,9.5798,0.0073,-0.0102,0.0215
18977,46.644634,-1.150885,114.21,32.9,18.224,355.7,0 / 24,1015591,2019-08-12 13:36:41:027,-2.0259,0.6615,9.6191,-2.0902,0.0371,9.5812,-0.0098,-0.0028,0.0215
18978,46.644634,-1.150885,114.21,32.9,18.224,355.7,0 / 24,1015691,2019-08-12 13:36:41:127,-2.2563,0.3575,9.9507,-2.0959,0.0833,9.5797,-0.0172,0.0079,0.0183
18979,46.644634,-1.150885,114.21,32.9,18.224,355.7,0 / 24,1015791,2019-08-12 13:36:41:227,-2.0833,0.4179,9.1876,-2.1037,0.1618,9.577,-0.0013,0.0089,0.0205
18980,46.644634,-1.150885,114.21,32.9,18.224,355.7,0 / 24,1015891,2019-08-12 13:36:41:327,-2.3718,0.4167,9.4396,-2.0967,0.2082,9.5776,0.003,-0.006,0.0183
18981,46.644634,-1.150885,114.21,32.9,18.224,355.7,0 / 24,1015991,2019-08-12 13:36:41:427,-2.1169,0.4125,9.1002,-2.0933,0.2198,9.5781,-0.0002,-0.0092,0.0173
18982,46.644634,-1.150885,114.21,32.9,18.224,355.7,0 / 24,1016090,2019-08-12 13:36:41:526,-2.1749,0.2449,9.5138,-2.0965,0.2233,9.5773,-0.0077,0.0079,0.0119
18983,46.644634,-1.150885,114.21,32.9,18.224,355.7,0 / 24,1016191,2019-08-12 13:36:41:627,-2.151,0.3922,9.4498,-2.1142,0.2337,9.5732,-0.0151,0.0089,0.0098
18984,46.644634,-1.150885,114.21,32.9,18.224,355.7,0 / 24,1016291,2019-08-12 13:36:41:727,-1.8864,0.47,9.2822,-2.138,0.2417,9.5677,-0.0172,0.0089,0.0098
18985,46.644634,-1.150885,114.21,32.9,18.224,355.7,0 / 24,1016393,2019-08-12 13:36:41:829,-1.9265,0.2773,9.6131,-2.1473,0.2426,9.5656,-0.0066,-0.0028,0.013
18986,46.644634,-1.150885,114.21,32.9,18.224,355.7,0 / 24,1016491,2019-08-12 13:36:41:927,-2.1677,0.3305,10.0483,-2.1663,0.2518,9.5611,-0.0045,0.0004,0.0162
18987,46.644634,-1.150885,114.21,32.9,18.224,355.7,0 / 24,1016591,2019-08-12 13:36:42:027,-2.3808,0.4102,9.8741,-2.1607,0.2541,9.5623,-0.0013,-0.0113,0.0183
18988,46.644634,-1.150885,114.21,32.9,18.224,355.7,0 / 24,1016691,2019-08-12 13:36:42:127,-2.2144,0.1881,9.9184,-2.155,0.2645,9.5633,-0.0034,0.0025,0.0183
18989,46.644634,-1.150885,114.21,32.9,18.224,355.7,0 / 24,1016791,2019-08-12 13:36:42:227,-2.3658,0.2605,9.828,-2.1598,0.2759,9.5619,-0.0034,-0.0038,0.0151
18990,46.644634,-1.150885,114.21,32.9,18.224,355.7,0 / 24,1016891,2019-08-12 13:36:42:327,-2.2671,0.3222,9.4934,-2.1546,0.2782,9.563,-0.0045,-0.0092,0.013
18991,46.644634,-1.150885,114.21,32.9,18.224,355.7,0 / 24,1016991,2019-08-12 13:36:42:427,-2.227,0.1294,9.1918,-2.1574,0.263,9.5628,-0.0055,-0.0017,0.0098
18992,46.644634,-1.150885,114.21,32.9,18.224,355.7,0 / 24,1017091,2019-08-12 13:36:42:527,-2.3246,0.0995,9.5162,-2.1402,0.2435,9.5672,-0.0045,-0.0017,0.0119
18993,46.644634,-1.150885,114.21,32.9,18.224,355.7,0 / 24,1017191,2019-08-12 13:36:42:627,-1.8882,0.239,9.5371,-2.1581,0.2358,9.5633,-0.0066,0.0004,0.0109
18994,46.644634,-1.150885,114.21,32.9,18.224,355.7,0 / 24,1017290,2019-08-12 13:36:42:726,-1.8948,0.2635,9.2139,-2.1652,0.2307,9.5619,-0.0055,0.0153,0.0151
18995,46.644634,-1.150885,114.21,32.9,18.224,355.7,0 / 24,1017391,2019-08-12 13:36:42:827,-1.9283,0.3264,9.588,-2.1678,0.2335,9.5612,-0.0013,0.0089,0.0162
18996,46.644634,-1.150885,114.21,32.9,18.224,355.7,0 / 24,1017491,2019-08-12 13:36:42:927,-2.1665,0.2126,9.9639,-2.1558,0.2372,9.5638,-0.0034,-0.0038,0.0119
18997,46.644634,-1.150885,114.21,32.9,18.224,355.7,0 / 24,1017591,2019-08-12 13:36:43:027,-2.142,0.3042,10.0932,-2.1485,0.2374,9.5655,-0.0045,-0.0017,0.0098
18998,46.644634,-1.150885,114.21,32.9,18.224,355.7,0 / 24,1017691,2019-08-12 13:36:43:127,-2.215,-0.0525,9.9621,-2.1403,0.232,9.5674,-0.0077,-0.0102,0.0088
18999,46.644634,-1.150885,114.21,32.9,18.224,355.7,0 / 24,1017792,2019-08-12 13:36:43:228,-2.3263,0.0307,9.3438,-2.1382,0.2277,9.568,-0.0077,0.0025,0.0109
19000,46.644634,-1.150885,114.21,32.9,18.224,355.7,0 / 24,1017891,2019-08-12 13:36:43:327,-2.0636,0.1641,9.1205,-2.1509,0.212,9.5655,0.0041,0.0036,0.0119
19001,46.644634,-1.150885,114.21,32.9,18.224,355.7,0 / 24,1017991,2019-08-12 13:36:43:427,-2.2192,0.1558,9.2337,-2.1731,0.2152,9.5604,0.0041,0.026,0.0109
19002,46.644634,-1.150885,114.21,32.9,18.224,355.7,0 / 24,1018091,2019-08-12 13:36:43:527,-2.0863,-0.1298,8.9823,-2.1915,0.2143,9.5563,0.0009,0.0196,0.0119
19003,46.644634,-1.150885,114.21,32.9,18.224,355.7,0 / 24,1018191,2019-08-12 13:36:43:627,-2.1162,0.3335,9.4821,-2.1937,0.2112,9.5558,-0.0023,-0.0124,0.0098
19004,46.644634,-1.150885,114.21,32.9,18.224,355.7,0 / 24,1018291,2019-08-12 13:36:43:727,-2.1552,0.5251,9.7179,-2.1758,0.2024,9.5601,-0.0151,-0.0251,0.0066
19005,46.644634,-1.150885,114.21,32.9,18.224,355.7,0 / 24,1018391,2019-08-12 13:36:43:827,-2.2318,0.23,10.6935,-2.1592,0.1913,9.5641,-0.0034,-0.007,0.0066
19006,46.644634,-1.150885,114.21,32.9,18.224,355.7,0 / 24,1018491,2019-08-12 13:36:43:927,-2.1827,0.294,10.569,-2.1597,0.1889,9.564,-0.0077,0.0036,0.0056
19007,46.644634,-1.150885,114.21,32.9,18.224,355.7,0 / 24,1018591,2019-08-12 13:36:44:027,-2.1827,0.294,10.569,-2.1597,0.1889,9.564,-0.0077,0.0036,0.0056
19008,46.644634,-1.150885,114.21,32.9,18.224,355.7,0 / 24,1018691,2019-08-12 13:36:44:127,-2.1827,0.294,10.569,-2.1597,0.1889,9.564,-0.0077,0.0036,0.0056
19009,46.644634,-1.150885,114.21,32.9,18.224,355.7,0 / 24,1018791,2019-08-12 13:36:44:227,-2.8698,0.2569,10.681,-2.1507,0.2275,9.5652,0.003,-0.0454,0.0183
19010,46.644634,-1.150885,114.21,32.9,18.224,355.7,0 / 24,1018891,2019-08-12 13:36:44:327,-2.8417,0.069,11.1263,-2.1186,0.2265,9.5724,-0.0119,-0.0443,0.0056
19011,46.644634,-1.150885,114.21,32.9,18.224,355.7,0 / 24,1018991,2019-08-12 13:36:44:427,-2.0881,0.2737,9.26,-2.1166,0.2139,9.5731,-0.0162,0.0121,0.0066
19012,46.644634,-1.150885,114.21,32.9,18.224,355.7,0 / 24,1019091,2019-08-12 13:36:44:527,-2.0917,0.5891,8.9715,-2.1277,0.2017,9.5709,-0.0162,0.0068,0.0077
19013,46.644634,-1.150885,114.21,32.9,18.224,355.7,0 / 24,1019191,2019-08-12 13:36:44:627,-2.2108,0.0492,9.6107,-2.1544,0.1803,9.5654,-0.0172,0.0121,0.0077
19014,46.644634,-1.150885,114.21,32.9,18.224,355.7,0 / 24,1019291,2019-08-12 13:36:44:727,-1.799,0.2084,7.7702,-2.1663,0.1566,9.5631,-0.0279,-0.0081,0.0056
19015,46.644634,-1.150885,114.21,32.9,18.224,355.7,0 / 24,1019391,2019-08-12 13:36:44:827,-2.0271,-0.0867,9.6125,-2.1825,0.1313,9.5598,-0.0183,0.0089,-0.0019
19016,46.644634,-1.150885,114.21,32.9,18.224,355.7,13 / 24,1019491,2019-08-12 13:36:44:927,-1.8756,0.0247,10.5415,-2.1834,0.1352,9.5595,0.0211,0.0121,0.0066
19017,46.644634,-1.150885,114.21,32.9,18.224,355.7,13 / 24,1019592,2019-08-12 13:36:45:028,-1.9415,0.1067,10.0519,-2.1664,0.1361,9.5634,0.0041,-0.0092,0.0045
19018,46.644634,-1.150885,114.21,32.9,18.224,355.7,13 / 24,1019692,2019-08-12 13:36:45:128,-2.3072,-0.6319,9.8161,-2.1472,0.1339,9.5678,0.0062,-0.0017,0.0013
19019,46.644634,-1.150885,114.21,32.9,18.224,355.7,13 / 24,1019793,2019-08-12 13:36:45:229,-2.3186,-0.1597,9.3354,-2.1411,0.1169,9.5693,-0.0002,0.0004,0.0002
19020,46.644634,-1.150885,114.21,32.9,18.224,355.7,13 / 24,1019892,2019-08-12 13:36:45:328,-1.9666,-0.0286,8.7961,-2.1437,0.1058,9.5689,-0.0002,0.0057,0.0024
19021,46.644634,-1.150885,114.21,32.9,18.224,355.7,13 / 24,1019991,2019-08-12 13:36:45:427,-1.9343,0.1246,8.9512,-2.1611,0.0916,9.5651,-0.0002,0.0207,0.0077
19022,46.644634,-1.150885,114.21,32.9,18.224,355.7,13 / 24,1020092,2019-08-12 13:36:45:528,-2.1157,0.6244,8.2323,-2.1679,0.1041,9.5635,0.0201,0.0334,0.0205
19023,46.644634,-1.150885,114.21,32.9,18.224,355.7,13 / 24,1020192,2019-08-12 13:36:45:628,-1.8882,0.2509,9.9932,-2.1556,0.146,9.5657,0.0062,-0.0166,0.0194
19024,46.644634,-1.150885,114.21,32.9,18.224,355.7,13 / 24,1020291,2019-08-12 13:36:45:727,-2.0672,0.4473,9.4102,-2.1562,0.1432,9.5656,-0.013,0.0132,0.0151
19025,46.644634,-1.150885,114.21,32.9,18.224,355.7,13 / 24,1020392,2019-08-12 13:36:45:828,-1.9756,0.3311,9.3947,-2.1651,0.1425,9.5636,-0.0204,0.0057,0.0162
19026,46.644634,-1.150885,114.21,32.9,18.224,355.7,0 / 24,1020491,2019-08-12 13:36:45:927,-2.1941,0.3904,9.2684,-2.1624,0.1498,9.5641,-0.0066,-0.0038,0.0215
19027,46.65009,-1.151736,126.81,35.21,11.792,349.7,0 / 24,1020591,2019-08-12 13:36:46:027,-2.4509,0.3784,9.9675,-2.1677,0.2225,9.5615,0.0211,0.0057,0.0301
19028,46.65009,-1.151736,126.81,35.21,11.792,349.7,0 / 24,1020691,2019-08-12 13:36:46:127,-3.132,0.1282,10.4296,-2.1624,0.2536,9.5619,0.0222,-0.0124,0.0311
19029,46.65009,-1.151736,126.81,35.21,11.792,349.7,0 / 24,1020791,2019-08-12 13:36:46:227,-2.4784,0.5951,10.9252,-2.1217,0.2635,9.5708,-0.0268,-0.0443,0.0141
19030,46.65009,-1.151736,126.81,35.21,11.792,349.7,0 / 24,1020891,2019-08-12 13:36:46:327,-2.1306,0.8806,9.916,-2.1031,0.2429,9.5754,-0.046,-0.0209,0.0077
19031,46.65009,-1.151736,126.81,35.21,11.792,349.7,0 / 24,1020991,2019-08-12 13:36:46:427,-1.8134,0.6813,8.4029,-2.1176,0.244,9.5722,-0.0066,0.0334,0.0237
19032,46.65009,-1.151736,126.81,35.21,11.792,349.7,0 / 24,1021091,2019-08-12 13:36:46:527,-1.6476,0.8136,7.8779,-2.1451,0.2656,9.5655,0.0062,0.0334,0.0322
19033,46.65009,-1.151736,126.81,35.21,11.792,349.7,0 / 24,1021191,2019-08-12 13:36:46:627,-2.069,0.731,8.7285,-2.1553,0.3009,9.5622,0.0009,-0.0017,0.0365
19034,46.65009,-1.151736,126.81,35.21,11.792,349.7,0 / 24,1021291,2019-08-12 13:36:46:727,-2.3221,0.9345,9.5036,-2.1545,0.3205,9.5617,-0.0034,-0.0038,0.0322
19035,46.65009,-1.151736,126.81,35.21,11.792,349.7,0 / 24,1021391,2019-08-12 13:36:46:827,-2.5544,0.8447,10.739,-2.1642,0.3487,9.5585,-0.0055,0.0089,0.0247
19036,46.65009,-1.151736,126.81,35.21,11.792,349.7,0 / 24,1021490,2019-08-12 13:36:46:926,-2.2874,0.5239,9.6544,-2.1775,0.3576,9.5551,-0.0141,0.0111,0.0194
19037,46.65009,-1.151736,126.81,35.21,11.792,349.7,0 / 24,1021591,2019-08-12 13:36:47:027,-2.1007,0.3138,9.9471,-2.1771,0.3496,9.5555,-0.0215,-0.0113,0.0151
19038,46.65009,-1.151736,126.81,35.21,11.792,349.7,0 / 24,1021691,2019-08-12 13:36:47:127,-2.1426,0.5532,9.4629,-2.1704,0.3423,9.5573,-0.0172,-0.0102,0.0119
19039,46.65009,-1.151736,126.81,35.21,11.792,349.7,0 / 24,1021791,2019-08-12 13:36:47:227,-1.8852,0.376,9.2331,-2.1626,0.3282,9.5596,-0.0162,-0.0049,0.0098
19040,46.65009,-1.151736,126.81,35.21,11.792,349.7,0 / 24,1021890,2019-08-12 13:36:47:326,-2.1593,0.2413,9.6167,-2.1746,0.3132,9.5574,-0.0087,0.0111,0.0119
19041,46.65009,-1.151736,126.81,35.21,11.792,349.7,0 / 24,1021991,2019-08-12 13:36:47:427,-2.0929,0.297,9.846,-2.1862,0.3074,9.5549,-0.0066,0.0015,0.0141
19042,46.65009,-1.151736,126.81,35.21,11.792,349.7,0 / 24,1022091,2019-08-12 13:36:47:527,-2.3054,0.1606,9.1241,-2.1885,0.3078,9.5544,0.0094,0.0057,0.0141
19043,46.65009,-1.151736,126.81,35.21,11.792,349.7,0 / 24,1022191,2019-08-12 13:36:47:627,-2.1809,0.0726,9.4372,-2.1906,0.2644,9.5552,-0.0023,-0.0081,0.0098
19044,46.65009,-1.151736,126.81,35.21,11.792,349.7,0 / 24,1022291,2019-08-12 13:36:47:727,-2.0438,0.0073,9.1457,-2.172,0.2011,9.561,-0.0066,-0.0017,0.0024
19045,46.65009,-1.151736,126.81,35.21,11.792,349.7,0 / 24,1022391,2019-08-12 13:36:47:827,-1.9965,-0.2836,9.4503,-2.1664,0.158,9.5631,-0.0108,-0.0028,-0.0019
19046,46.65009,-1.151736,126.81,35.21,11.792,349.7,0 / 24,1022491,2019-08-12 13:36:47:927,-1.9187,-0.377,9.7089,-2.1594,0.1292,9.5651,-0.0077,0.0025,-0.0051
19047,46.65009,-1.151736,126.81,35.21,11.792,349.7,0 / 24,1022591,2019-08-12 13:36:48:027,-1.9253,0.0474,9.691,-2.1623,0.1082,9.5647,-0.0023,0.0079,-0.004
19048,46.65009,-1.151736,126.81,35.21,11.792,349.7,0 / 24,1022691,2019-08-12 13:36:48:127,-2.37,-0.2728,10.1818,-2.1617,0.0566,9.5653,-0.0023,-0.0007,0.0002
19049,46.65009,-1.151736,126.81,35.21,11.792,349.7,0 / 24,1022791,2019-08-12 13:36:48:227,-2.2545,-0.4865,9.3911,-2.1572,-0.0097,9.5664,-0.0023,-0.0007,-0.0008
19050,46.65009,-1.151736,126.81,35.21,11.792,349.7,0 / 24,1022891,2019-08-12 13:36:48:327,-2.3712,-0.2022,9.2768,-2.1471,-0.0922,9.5683,-0.0002,-0.0102,0.0013
19051,46.65009,-1.151736,126.81,35.21,11.792,349.7,0 / 24,1022991,2019-08-12 13:36:48:427,-2.2623,-0.3339,9.6006,-2.1292,-0.1215,9.5719,-0.0002,-0.0007,0.0034
19052,46.65009,-1.151736,126.81,35.21,11.792,349.7,0 / 24,1023092,2019-08-12 13:36:48:528,-1.9211,-0.0089,9.2528,-2.1166,-0.129,9.5746,0.0019,-0.0038,0.0066
19053,46.65009,-1.151736,126.81,35.21,11.792,349.7,0 / 24,1023434,2019-08-12 13:36:48:870,-1.9211,-0.0089,9.2528,-2.1166,-0.129,9.5746,0.0019,-0.0038,0.0066
19054,46.65009,-1.151736,126.81,35.21,11.792,349.7,0 / 24,1023435,2019-08-12 13:36:48:871,-1.9211,-0.0089,9.2528,-2.1166,-0.129,9.5746,0.0019,-0.0038,0.0066
19055,46.65009,-1.151736,126.81,35.21,11.792,349.7,0 / 24,1023436,2019-08-12 13:36:48:872,-1.9211,-0.0089,9.2528,-2.1166,-0.129,9.5746,0.0019,-0.0038,0.0066
19056,46.65009,-1.151736,126.81,35.21,11.792,349.7,0 / 24,1023436,2019-08-12 13:36:48:872,-1.9211,-0.0089,9.2528,-2.1166,-0.129,9.5746,0.0019,-0.0038,0.0066
19057,46.65009,-1.151736,126.81,35.21,11.792,349.7,0 / 24,1023436,2019-08-12 13:36:48:872,-1.9211,-0.0089,9.2528,-2.1166,-0.129,9.5746,0.0019,-0.0038,0.0066
19058,46.65009,-1.151736,126.81,35.21,11.792,349.7,0 / 24,1023436,2019-08-12 13:36:48:872,-1.9211,-0.0089,9.2528,-2.1166,-0.129,9.5746,0.0019,-0.0038,0.0066
19059,46.65009,-1.151736,126.81,35.21,11.792,349.7,0 / 24,1023437,2019-08-12 13:36:48:873,-1.9211,-0.0089,9.2528,-2.1166,-0.129,9.5746,0.0019,-0.0038,0.0066
