,GPS LATITUDE (degrees),GPS LONGITUDE (degrees), GPS ALTITUDE (m),GPS SPEED (Kmh),GPS ACCURACY (m),GPS ORIENTATION (Â°), SATELLITES IN RANGE, TIME SINCE START (ms), DATE (YYYY-MO-DD HH-MI-SS_SSS),ACCELEROMETER X (m/s²) , ACCELEROMETER Y (m/s²), ACCELEROMETER Z (m/s²), GRAVITY X (m/s²), GRAVITY Y (m/s²), GRAVITY Z (m/s²), GYROSCOPE Yaw (rad/s), GYROSCOPE Pitch (rad/s), GYROSCOPE Roll (rad/s)
0,46.573257,-1.116153,77.06,0.0,20.368,158.3,0 / 19,29,2019-08-18 22:19:49:562,-0.0588,0.263,9.7834,-0.0818,0.264,9.8028,0.003,0.0022,0.0004
1,46.573257,-1.116153,77.06,0.0,20.368,158.3,0 / 19,129,2019-08-18 22:19:49:662,-0.1019,0.2738,9.8313,-0.0824,0.2658,9.8027,0.0019,0.0011,0.0004
2,46.573257,-1.116153,77.06,0.0,20.368,158.3,0 / 19,229,2019-08-18 22:19:49:762,-0.0875,0.2463,9.7547,-0.0842,0.2629,9.8028,0.003,0.0011,0.0004
3,46.573257,-1.116153,77.06,0.0,20.368,158.3,0 / 19,329,2019-08-18 22:19:49:862,-0.0815,0.2774,9.7236,-0.0802,0.2623,9.8028,0.003,0.0022,0.0004
4,46.573257,-1.116153,77.06,0.0,20.368,158.3,0 / 19,429,2019-08-18 22:19:49:962,-0.0755,0.2463,9.811,-0.0802,0.2649,9.8027,0.0019,0.0011,0.0004
5,46.573257,-1.116153,77.06,0.0,20.368,158.3,0 / 19,529,2019-08-18 22:19:50:062,-0.0767,0.2834,9.8181,-0.0808,0.2636,9.8028,0.0019,0.0022,0.0004
6,46.573257,-1.116153,77.06,0.0,20.368,158.3,0 / 19,628,2019-08-18 22:19:50:161,-0.0899,0.2211,9.7667,-0.0806,0.265,9.8027,0.0019,0.0032,0.0015
7,46.573257,-1.116153,77.06,0.0,20.368,158.3,0 / 19,729,2019-08-18 22:19:50:262,-0.0887,0.2654,9.7655,-0.083,0.2643,9.8027,0.003,0.0022,0.0004
8,46.573257,-1.116153,77.06,0.0,20.368,158.3,0 / 19,829,2019-08-18 22:19:50:362,-0.0719,0.2331,9.8409,-0.0829,0.2655,9.8027,0.0019,0.0032,-0.0006
9,46.573257,-1.116153,77.06,0.0,20.368,158.3,0 / 19,929,2019-08-18 22:19:50:462,-0.0995,0.2654,9.8289,-0.0834,0.2618,9.8028,0.0019,0.0022,0.0004
10,46.573257,-1.116153,77.06,0.0,20.368,158.3,0 / 19,1028,2019-08-18 22:19:50:561,-0.0731,0.2522,9.7116,-0.0864,0.266,9.8027,0.0019,0.0022,0.0004
11,46.573257,-1.116153,77.06,0.0,20.368,158.3,0 / 19,1128,2019-08-18 22:19:50:661,-0.0636,0.287,9.6829,-0.0827,0.264,9.8027,0.0019,0.0032,0.0004
12,46.573257,-1.116153,77.06,0.0,20.368,158.3,0 / 19,1229,2019-08-18 22:19:50:762,-0.0815,0.2068,9.8529,-0.0833,0.2611,9.8028,0.0019,0.0011,0.0004
13,46.573257,-1.116153,77.06,0.0,20.368,158.3,0 / 19,1329,2019-08-18 22:19:50:862,-0.212,0.5575,9.7798,-0.0886,0.2783,9.8023,0.003,0.0043,-0.0006
14,46.573257,-1.116153,77.06,0.0,20.368,158.3,0 / 19,1429,2019-08-18 22:19:50:962,-0.0767,0.3336,9.7104,-0.0933,0.2931,9.8018,0.0009,0.0011,0.0004
15,46.573257,-1.116153,77.06,0.0,20.368,158.3,0 / 19,1528,2019-08-18 22:19:51:061,-0.0731,0.2415,9.7535,-0.0909,0.2774,9.8023,0.003,0.0022,0.0004
16,46.573257,-1.116153,77.06,0.0,20.368,158.3,0 / 19,1629,2019-08-18 22:19:51:162,-0.0719,0.2798,9.8385,-0.084,0.2777,9.8024,0.0019,0.0022,0.0004
17,46.573257,-1.116153,77.06,0.0,20.368,158.3,0 / 19,1729,2019-08-18 22:19:51:262,-0.1055,0.2511,9.7858,-0.0865,0.273,9.8025,0.003,0.0022,0.0004
18,46.573257,-1.116153,77.06,0.0,20.368,158.3,0 / 19,1829,2019-08-18 22:19:51:362,-0.0636,0.2666,9.7356,-0.0856,0.2713,9.8025,0.003,0.0022,0.0004
19,46.573257,-1.116153,77.06,0.0,20.368,158.3,0 / 19,1928,2019-08-18 22:19:51:461,-0.0923,0.2498,9.8181,-0.0831,0.271,9.8026,0.0009,0.0022,0.0004
20,46.573257,-1.116153,77.06,0.0,20.368,158.3,0 / 19,2029,2019-08-18 22:19:51:562,-0.0971,0.2822,9.8289,-0.0863,0.27,9.8026,0.0019,0.0022,0.0004
21,46.573257,-1.116153,77.06,0.0,20.368,158.3,0 / 19,2129,2019-08-18 22:19:51:662,-0.0683,0.2307,9.8002,-0.0819,0.2683,9.8026,0.0019,0.0022,0.0004
22,46.573257,-1.116153,77.06,0.0,20.368,158.3,0 / 19,2229,2019-08-18 22:19:51:762,-0.0839,0.2774,9.6984,-0.0834,0.2664,9.8027,0.003,0.0022,0.0004
23,46.573257,-1.116153,77.06,0.0,20.368,158.3,0 / 19,2328,2019-08-18 22:19:51:861,-0.0695,0.257,9.7655,-0.0799,0.2662,9.8027,0.003,0.0022,0.0004
24,46.573257,-1.116153,77.06,0.0,20.368,158.3,0 / 19,2428,2019-08-18 22:19:51:961,-0.0791,0.2822,9.8026,-0.0806,0.2688,9.8026,0.0019,0.0022,0.0015
25,46.573257,-1.116153,77.06,0.0,20.368,158.3,0 / 19,2528,2019-08-18 22:19:52:061,-0.0707,0.1864,9.8038,-0.0843,0.2666,9.8027,0.0019,0.0011,0.0004
26,46.573257,-1.116153,77.06,0.0,20.368,158.3,0 / 19,2628,2019-08-18 22:19:52:161,-0.0444,0.2331,9.7356,-0.082,0.2675,9.8027,0.0041,0.0032,0.0004
27,46.573257,-1.116153,77.06,0.0,20.368,158.3,0 / 19,2729,2019-08-18 22:19:52:262,-0.1007,0.2606,9.7942,-0.0826,0.2689,9.8026,0.0019,0.0032,0.0004
28,46.573257,-1.116153,77.06,0.0,20.368,158.3,0 / 19,2829,2019-08-18 22:19:52:362,-0.0875,0.281,9.8122,-0.0825,0.267,9.8027,-0.0004,0.0002,-0.0011
29,46.573257,-1.116153,77.06,0.0,20.368,158.3,0 / 19,2929,2019-08-18 22:19:52:462,-0.0791,0.2319,9.7379,-0.0806,0.2627,9.8028,0.0007,0.0013,-0.0011
30,46.573257,-1.116153,77.06,0.0,20.368,158.3,0 / 19,3029,2019-08-18 22:19:52:562,-0.0815,0.2451,9.7427,-0.0805,0.2635,9.8028,0.0007,0.0002,0.0
31,46.573257,-1.116153,77.06,0.0,20.368,158.3,0 / 19,3129,2019-08-18 22:19:52:662,-0.0612,0.2594,9.8397,-0.078,0.2601,9.8029,-0.0004,-0.0009,0.0
32,46.573257,-1.116153,77.06,0.0,20.368,158.3,0 / 19,3229,2019-08-18 22:19:52:762,-0.0899,0.2834,9.7703,-0.077,0.2574,9.803,-0.0004,0.0002,0.0
33,46.573257,-1.116153,77.06,0.0,20.368,158.3,0 / 19,3329,2019-08-18 22:19:52:862,-0.0755,0.2882,9.7583,-0.0758,0.2593,9.8029,-0.0004,0.0002,-0.0011
34,46.573257,-1.116153,77.06,0.0,20.368,158.3,0 / 19,3428,2019-08-18 22:19:52:961,-0.0971,0.287,9.7631,-0.0777,0.2618,9.8028,0.0007,0.0013,-0.0011
35,46.573257,-1.116153,77.06,0.0,20.368,158.3,0 / 19,3529,2019-08-18 22:19:53:062,-0.0803,0.2415,9.7631,-0.0787,0.259,9.8029,-0.0004,0.0002,0.0
36,46.573257,-1.116153,77.06,0.0,20.368,158.3,0 / 19,3628,2019-08-18 22:19:53:161,-0.0707,0.2965,9.7966,-0.0756,0.2585,9.803,0.0028,0.0002,-0.0011
37,46.573257,-1.116153,77.06,0.0,20.368,158.3,0 / 19,3729,2019-08-18 22:19:53:262,-0.1019,0.2259,9.7475,-0.079,0.2619,9.8028,-0.0004,0.0013,0.0
38,46.573257,-1.116153,77.06,0.0,20.368,158.3,0 / 19,3828,2019-08-18 22:19:53:361,-0.06,0.2451,9.7535,-0.0823,0.2579,9.8029,-0.0014,-0.0009,0.0
39,46.573257,-1.116153,77.06,0.0,20.368,158.3,0 / 19,3928,2019-08-18 22:19:53:461,-0.0145,0.2762,9.8289,-0.0765,0.2608,9.8029,-0.0025,-0.0019,-0.0021
40,46.573257,-1.116153,77.06,0.0,20.368,158.3,0 / 19,4028,2019-08-18 22:19:53:561,-0.1138,0.257,9.7894,-0.0777,0.2595,9.8029,-0.0004,-0.0009,0.0011
41,46.573257,-1.116153,77.06,0.0,20.368,158.3,0 / 19,4129,2019-08-18 22:19:53:662,-0.0516,0.2487,9.7511,-0.0788,0.2552,9.803,0.0028,-0.0009,0.0
42,46.573257,-1.116153,77.06,0.0,20.368,158.3,0 / 19,4229,2019-08-18 22:19:53:762,-0.0528,0.2822,9.7439,-0.0706,0.2602,9.8029,-0.0025,0.0034,0.0
43,46.573257,-1.116153,77.06,0.0,20.368,158.3,0 / 19,4329,2019-08-18 22:19:53:862,-0.1294,0.2582,9.8193,-0.0769,0.2629,9.8028,-0.0014,0.0002,0.0011
44,46.573257,-1.116153,77.06,0.0,20.368,158.3,Sep-19,4429,2019-08-18 22:19:53:962,-0.042,0.2079,9.7583,-0.0789,0.2574,9.803,0.0018,-0.0009,-0.0011
45,46.573257,-1.116153,77.06,0.0,20.368,158.3,Sep-19,4529,2019-08-18 22:19:54:062,-0.042,0.2941,9.702,-0.0723,0.2576,9.803,-0.0014,0.0013,-0.0011
46,46.573257,-1.116153,77.06,0.0,20.368,158.3,Sep-19,4629,2019-08-18 22:19:54:162,-0.1055,0.2331,9.7822,-0.0802,0.2613,9.8028,-0.0014,-0.0009,0.0
47,46.573257,-1.116153,77.06,0.0,20.368,158.3,Sep-19,4728,2019-08-18 22:19:54:261,-0.0336,0.2606,9.8265,-0.0784,0.2574,9.803,0.0007,0.0013,-0.0011
48,46.573257,-1.116153,77.06,0.0,20.368,158.3,Sep-19,4828,2019-08-18 22:19:54:361,-0.054,0.2008,9.7224,-0.0682,0.2473,9.8033,0.0007,0.0002,-0.0011
49,46.573257,-1.116153,77.06,0.0,20.368,158.3,Sep-19,4928,2019-08-18 22:19:54:461,-0.1474,0.3564,9.7619,-0.0804,0.2585,9.8029,-0.0004,-0.0009,0.0011
50,46.573257,-1.116153,77.06,0.0,20.368,158.3,Sep-19,5028,2019-08-18 22:19:54:561,-0.0169,0.2247,9.8193,-0.0782,0.2634,9.8028,-0.0025,-0.0009,0.0
51,46.573257,-1.116153,77.06,0.0,20.368,158.3,Sep-19,5128,2019-08-18 22:19:54:661,-0.0564,0.2211,9.8086,-0.0717,0.2509,9.8032,0.0007,0.0023,0.0011
52,46.573257,-1.116153,77.06,0.0,20.368,158.3,Sep-19,5228,2019-08-18 22:19:54:761,-0.1462,0.2522,9.7296,-0.0819,0.2441,9.8033,0.0028,0.0023,-0.0011
53,46.573257,-1.116153,77.06,0.0,20.368,158.3,Sep-19,5329,2019-08-18 22:19:54:862,-0.2563,0.2905,9.696,-0.1081,0.2572,9.8027,0.0018,-0.0009,-0.0011
54,46.573257,-1.116153,77.06,0.0,20.368,158.3,0 / 19,5429,2019-08-18 22:19:54:962,-0.2036,0.3935,9.8014,-0.1465,0.2842,9.8014,0.0039,-0.0062,0.0075
55,46.573257,-1.116153,77.06,0.0,20.368,158.3,0 / 19,5529,2019-08-18 22:19:55:062,-0.2276,0.2439,9.8397,-0.1621,0.2889,9.8011,0.0007,-0.003,0.0096
56,46.573257,-1.116153,77.06,0.0,20.368,158.3,0 / 19,5629,2019-08-18 22:19:55:162,-0.1887,0.2864,9.7176,-0.1794,0.2919,9.8007,-0.0014,0.0023,0.0096
57,46.573257,-1.116153,77.06,0.0,20.368,158.3,0 / 19,5729,2019-08-18 22:19:55:262,-0.1851,0.3271,9.7409,-0.1829,0.2924,9.8006,-0.0004,0.0002,0.0128
58,46.573257,-1.116153,77.06,0.0,20.368,158.3,0 / 19,5828,2019-08-18 22:19:55:361,-0.2198,0.2738,9.7559,-0.1828,0.2923,9.8006,-0.0025,0.0013,0.0139
59,46.573257,-1.116153,77.06,0.0,20.368,158.3,0 / 19,5928,2019-08-18 22:19:55:461,-0.1857,0.2499,9.7846,-0.1836,0.2857,9.8008,-0.0036,0.0013,0.0149
60,46.573257,-1.116153,77.06,0.0,20.368,158.3,0 / 19,6028,2019-08-18 22:19:55:561,-0.1641,0.2415,9.7954,-0.1857,0.2832,9.8008,-0.0014,0.0023,0.0171
61,46.573257,-1.116153,77.06,0.0,20.368,158.3,0 / 19,6129,2019-08-18 22:19:55:662,-0.4406,0.4085,9.7337,-0.1947,0.3006,9.8001,0.0007,0.0045,0.0256
62,46.573257,-1.116153,77.06,0.0,20.368,158.3,0 / 19,6228,2019-08-18 22:19:55:761,0.0346,0.3773,9.7906,-0.2117,0.3309,9.7988,0.0039,0.0034,0.0362
63,46.573257,-1.116153,77.06,0.0,20.368,158.3,0 / 19,6328,2019-08-18 22:19:55:861,-0.4664,0.5431,9.7266,-0.2375,0.3527,9.7974,-0.0014,0.0034,0.0437
64,46.573257,-1.116153,77.06,0.0,20.368,158.3,0 / 19,6428,2019-08-18 22:19:55:961,-0.3084,0.3205,9.8313,-0.2549,0.3491,9.7971,-0.0046,0.0055,0.0522
65,46.573257,-1.116153,77.06,0.0,20.368,158.3,0 / 19,6529,2019-08-18 22:19:56:062,-0.6513,0.3983,9.7236,-0.2678,0.3519,9.7967,-0.0004,0.0055,0.0618
66,46.573257,-1.116153,77.06,0.0,20.368,158.3,0 / 19,6629,2019-08-18 22:19:56:162,-0.5502,0.4115,9.814,-0.3707,0.3768,9.7924,0.0018,0.0023,0.0799
67,46.573257,-1.116153,77.06,0.0,20.368,158.3,0 / 19,6728,2019-08-18 22:19:56:261,-0.6723,0.4486,9.7792,-0.4227,0.3998,9.7894,-0.0014,0.0013,0.0884
68,46.573257,-1.116153,77.06,0.0,20.368,158.3,0 / 19,6828,2019-08-18 22:19:56:361,-0.6077,0.3797,9.7529,-0.4897,0.4123,9.7857,-0.0036,0.0013,0.1065
69,46.573257,-1.116153,77.06,0.0,20.368,158.3,0 / 19,6928,2019-08-18 22:19:56:461,-0.6202,0.4587,9.7302,-0.5221,0.4167,9.7839,-0.0036,0.0023,0.1204
70,46.573257,-1.116153,77.06,0.0,20.368,158.3,0 / 19,7028,2019-08-18 22:19:56:561,-0.707,0.4204,9.7852,-0.5664,0.4186,9.7813,-0.0078,0.0023,0.1364
71,46.573257,-1.116153,77.06,0.0,20.368,158.3,0 / 19,7129,2019-08-18 22:19:56:662,-0.3778,0.2283,9.7319,-0.5329,0.3853,9.7846,-0.0153,-0.0041,0.1385
72,46.573257,-1.116153,77.06,0.0,20.368,158.3,0 / 19,7228,2019-08-18 22:19:56:761,-0.3185,0.1583,9.817,-0.5183,0.3764,9.7857,-0.0078,0.0013,0.1513
73,46.573257,-1.116153,77.06,0.0,20.368,158.3,0 / 19,7328,2019-08-18 22:19:56:861,-0.3449,0.2211,9.8385,-0.471,0.3431,9.7893,-0.0057,-0.0009,0.1555
74,46.573257,-1.116153,77.06,0.0,20.368,158.3,0 / 19,7428,2019-08-18 22:19:56:961,-0.224,0.1846,9.7373,-0.4272,0.303,9.7927,-0.0121,-0.0041,0.1555
75,46.573257,-1.116153,77.06,0.0,20.368,158.3,0 / 19,7528,2019-08-18 22:19:57:061,-0.0875,0.1469,9.8499,-0.339,0.2512,9.7976,-0.01,-0.0019,0.1609
76,46.573257,-1.116153,77.06,0.0,20.368,158.3,0 / 19,7628,2019-08-18 22:19:57:161,0.0609,0.0038,9.8229,-0.2994,0.2311,9.7994,-0.0025,0.0023,0.1619
77,46.573257,-1.116153,77.06,0.0,20.368,158.3,0 / 19,7728,2019-08-18 22:19:57:261,-0.0929,-0.0321,9.89,-0.275,0.2081,9.8006,0.0049,0.0108,0.1545
78,46.573257,-1.116153,77.06,0.0,20.368,158.3,0 / 19,7829,2019-08-18 22:19:57:362,-0.0761,0.1409,9.7475,-0.2482,0.1699,9.802,0.0039,0.0098,0.1523
79,46.573257,-1.116153,77.06,0.0,20.368,158.3,0 / 19,7929,2019-08-18 22:19:57:462,-0.0953,0.2534,9.6942,-0.2038,0.1804,9.8029,0.0049,0.0055,0.1555
80,46.573257,-1.116153,77.06,0.0,20.368,158.3,0 / 19,8029,2019-08-18 22:19:57:562,-0.203,0.1996,9.7607,-0.1954,0.1861,9.8029,-0.0025,0.0055,0.1587
81,46.573257,-1.116153,77.06,0.0,20.368,158.3,0 / 19,8128,2019-08-18 22:19:57:661,-0.4059,0.1744,9.8702,-0.2288,0.1855,9.8022,0.0007,0.0098,0.1609
82,46.573257,-1.116153,77.06,0.0,20.368,158.3,0 / 19,8229,2019-08-18 22:19:57:762,-0.3449,0.1385,9.8421,-0.2605,0.1785,9.8016,0.0028,0.0098,0.1662
83,46.573257,-1.116153,77.06,0.0,20.368,158.3,0 / 19,8329,2019-08-18 22:19:57:862,-0.5089,0.2552,9.7631,-0.3143,0.2024,9.7995,0.0039,0.0098,0.1747
84,46.573257,-1.116153,77.06,0.0,20.368,158.3,0 / 19,8429,2019-08-18 22:19:57:962,-0.5735,0.339,9.7906,-0.3628,0.2275,9.7973,-0.0014,0.0098,0.1822
85,46.573257,-1.116153,77.06,0.0,20.368,158.3,0 / 19,8529,2019-08-18 22:19:58:062,-0.6178,0.2217,9.8361,-0.439,0.2381,9.7939,-0.0014,0.0087,0.196
86,46.573257,-1.116153,77.06,0.0,20.368,158.3,0 / 19,8628,2019-08-18 22:19:58:161,-0.6657,0.3013,9.7834,-0.4892,0.2429,9.7914,-0.0004,0.0076,0.2035
87,46.573257,-1.116153,77.06,0.0,20.368,158.3,0 / 19,8729,2019-08-18 22:19:58:262,-0.7788,0.2283,9.7697,-0.5625,0.2635,9.787,0.006,0.0055,0.2216
88,46.573257,-1.116153,77.06,0.0,20.368,158.3,0 / 19,8829,2019-08-18 22:19:58:362,-0.7543,0.1505,9.7481,-0.6071,0.2658,9.7842,0.0018,0.0055,0.2376
89,46.573257,-1.116153,77.06,0.0,20.368,158.3,0 / 19,8929,2019-08-18 22:19:58:462,-0.7238,0.3061,9.8858,-0.6521,0.3001,9.7803,-0.0004,0.0162,0.245
90,46.573257,-1.116153,77.06,0.0,20.368,158.3,0 / 19,9029,2019-08-18 22:19:58:562,-0.8088,0.2798,9.7092,-0.6877,0.2903,9.7782,-0.0238,0.0183,0.2525
91,46.573257,-1.116153,77.06,0.0,20.368,158.3,0 / 19,9128,2019-08-18 22:19:58:661,-0.8291,0.2127,9.6966,-0.7355,0.2673,9.7754,-0.0089,0.0194,0.2834
92,46.573257,-1.116153,77.06,0.0,20.368,158.3,0 / 19,9228,2019-08-18 22:19:58:761,-0.9512,0.0254,9.8696,-0.766,0.254,9.7734,-0.0089,0.0172,0.2908
93,46.573257,-1.116153,77.06,0.0,20.368,158.3,0 / 19,9328,2019-08-18 22:19:58:861,-0.5915,-0.0746,9.705,-0.781,0.2131,9.7732,-0.0195,0.0055,0.294
94,46.573257,-1.116153,77.06,0.0,20.368,158.3,0 / 19,9428,2019-08-18 22:19:58:961,-0.4371,-0.0022,9.6152,-0.7732,0.2088,9.7739,-0.0164,0.0098,0.3026
95,46.573257,-1.116153,77.06,0.0,20.368,158.3,0 / 19,9529,2019-08-18 22:19:59:062,-0.2533,-0.2068,9.8439,-0.7522,0.2011,9.7757,-0.0206,0.0066,0.3036
96,46.573257,-1.116153,77.06,0.0,20.368,158.3,0 / 19,9629,2019-08-18 22:19:59:162,-0.309,-0.1458,9.793,-0.7378,0.1888,9.777,-0.0195,0.0098,0.2972
97,46.573257,-1.116153,77.06,0.0,20.368,158.3,0 / 19,9729,2019-08-18 22:19:59:262,-0.133,-0.3206,9.7846,-0.5879,0.0708,9.7888,-0.011,0.0055,0.293
98,46.573257,-1.116153,77.06,0.0,20.368,158.3,0 / 19,9829,2019-08-18 22:19:59:362,-0.1976,-0.3714,10.1461,-0.5693,0.0799,9.7898,0.0177,-0.003,0.2908
99,46.573257,-1.116153,77.06,0.0,20.368,158.3,0 / 19,9928,2019-08-18 22:19:59:461,0.0244,-0.162,9.7182,-0.5459,0.0964,9.791,0.0103,0.0076,0.2898
100,46.573257,-1.116153,77.06,0.0,20.368,158.3,0 / 19,10028,2019-08-18 22:19:59:561,-0.0707,-0.0668,9.5626,-0.5375,0.1077,9.7913,0.0039,0.0119,0.278
101,46.573257,-1.116153,77.06,0.0,20.368,158.3,0 / 19,10128,2019-08-18 22:19:59:661,-0.045,-0.1225,9.8768,-0.5206,0.1109,9.7922,-0.0078,0.0055,0.2834
102,46.573257,-1.116153,77.06,0.0,20.368,158.3,0 / 19,10228,2019-08-18 22:19:59:761,-0.1785,-0.378,9.8032,-0.4354,0.0598,9.7968,-0.0025,0.0066,0.2802
103,46.573257,-1.116153,77.06,0.0,20.368,158.3,0 / 19,10328,2019-08-18 22:19:59:861,-0.1073,-0.3553,9.7577,-0.3666,-0.0207,9.7998,-0.0057,0.0055,0.261
104,46.573257,-1.116153,77.06,0.0,20.368,158.3,0 / 19,10429,2019-08-18 22:19:59:962,0.1358,-0.4672,9.7541,-0.3556,-0.0289,9.8002,-0.0004,0.0034,0.245
105,46.573257,-1.116153,77.06,0.0,20.368,158.3,0 / 19,10529,2019-08-18 22:20:00:062,0.3524,-0.5301,9.8277,-0.2904,-0.0663,9.8021,0.0092,0.0076,0.2195
106,46.573257,-1.116153,77.06,0.0,20.368,158.3,0 / 19,10629,2019-08-18 22:20:00:162,0.5194,-0.3834,9.8445,-0.2698,-0.0698,9.8027,0.0071,0.0023,0.1939
107,46.573257,-1.116153,77.06,0.0,20.368,158.3,0 / 19,10729,2019-08-18 22:20:00:262,0.8349,-0.3302,9.7721,-0.2231,-0.0642,9.8039,0.0145,0.0066,0.1609
108,46.573257,-1.116153,77.06,0.0,20.368,158.3,0 / 19,10828,2019-08-18 22:20:00:361,0.8061,-0.2098,9.9337,-0.1864,-0.0528,9.8047,0.0081,0.0098,0.1332
109,46.573257,-1.116153,77.06,0.0,20.368,158.3,0 / 19,10928,2019-08-18 22:20:00:461,0.1609,0.0332,9.8912,-0.1696,-0.0408,9.8051,0.0209,0.0098,0.1151
110,46.573257,-1.116153,77.06,0.0,20.368,158.3,0 / 19,11028,2019-08-18 22:20:00:561,0.2657,0.1942,9.869,-0.1549,-0.023,9.8054,-0.0046,-0.0019,0.1097
111,46.573257,-1.116153,77.06,0.0,20.368,158.3,0 / 19,11128,2019-08-18 22:20:00:661,-0.1162,0.3516,9.7864,-0.1527,-0.0107,9.8055,-0.0025,0.0066,0.1044
112,46.573257,-1.116153,77.06,0.0,20.368,158.3,0 / 19,11228,2019-08-18 22:20:00:761,0.0514,-0.047,9.4985,-0.1498,-0.0174,9.8055,-0.0121,0.0023,0.097
113,46.573257,-1.116153,77.06,0.0,20.368,158.3,0 / 19,11329,2019-08-18 22:20:00:862,-0.127,0.0188,9.5464,-0.1503,-0.0155,9.8055,0.0028,0.0045,0.0906
114,46.573257,-1.116153,77.06,0.0,20.368,158.3,0 / 19,11429,2019-08-18 22:20:00:962,-0.1312,0.2433,9.8816,-0.1531,0.021,9.8054,0.0039,0.0034,0.0874
115,46.573257,-1.116153,77.06,0.0,20.368,158.3,0 / 19,11529,2019-08-18 22:20:01:062,0.3255,-0.0273,9.7697,-0.1541,0.0311,9.8054,-0.0036,0.0013,0.0842
116,46.573257,-1.116153,77.06,0.0,20.368,158.3,0 / 19,11628,2019-08-18 22:20:01:161,0.5063,-0.05,9.6793,-0.1273,0.0217,9.8058,-0.0089,-0.0094,0.0629
117,46.573257,-1.116153,77.06,0.0,20.368,158.3,0 / 19,11728,2019-08-18 22:20:01:261,1.0473,0.0224,9.9911,-0.0829,0.0201,9.8063,0.0039,-0.0169,0.0469
118,46.573257,-1.116153,77.06,0.0,20.368,158.3,0 / 19,11828,2019-08-18 22:20:01:361,1.3353,0.1158,9.8894,0.0031,0.0377,9.8066,0.0124,-0.0211,0.0341
119,46.573257,-1.116153,77.06,0.0,20.368,158.3,0 / 19,11928,2019-08-18 22:20:01:461,1.5639,0.1834,9.8469,0.065,0.0473,9.8063,0.0049,-0.0169,0.016
120,46.573257,-1.116153,77.06,0.0,20.368,158.3,0 / 19,12028,2019-08-18 22:20:01:561,1.7171,0.3163,9.8044,0.1621,0.0579,9.8051,-0.0004,-0.0073,-0.0053
121,46.573257,-1.116153,77.06,0.0,20.368,158.3,0 / 19,12128,2019-08-18 22:20:01:661,1.68,0.2864,9.7086,0.2164,0.0649,9.804,-0.0004,-0.0009,-0.0085
122,46.573257,-1.116153,77.06,0.0,20.368,158.3,0 / 19,12228,2019-08-18 22:20:01:761,1.6106,0.4133,9.8541,0.6506,0.1693,9.7836,0.0039,-0.0009,-0.0192
123,46.573257,-1.116153,77.06,0.0,20.368,158.3,0 / 19,12328,2019-08-18 22:20:01:861,1.6549,0.5982,9.8295,0.7811,0.2157,9.7731,0.0081,-0.0019,-0.0149
124,46.573257,-1.116153,77.06,0.0,20.368,158.3,0 / 19,12429,2019-08-18 22:20:01:962,1.8069,0.8915,9.8062,0.8283,0.25,9.7684,0.0049,-0.0051,0.0032
125,46.573257,-1.116153,77.06,0.0,20.368,158.3,0 / 19,12529,2019-08-18 22:20:02:062,1.9248,0.8388,9.8343,0.8655,0.2706,9.7646,0.0007,-0.0083,0.0117
126,46.573257,-1.116153,77.06,0.0,20.368,158.3,0 / 19,12629,2019-08-18 22:20:02:162,1.9643,0.9083,9.8337,1.0165,0.3535,9.7474,-0.0004,-0.0041,0.0362
127,46.573257,-1.116153,77.06,0.0,20.368,158.3,0 / 19,12729,2019-08-18 22:20:02:262,1.8111,0.8442,9.8636,1.2019,0.471,9.7213,-0.0025,-0.0009,0.0501
128,46.573257,-1.116153,77.06,0.0,20.368,158.3,0 / 19,12829,2019-08-18 22:20:02:362,1.9721,0.8167,9.978,1.4257,0.5653,9.686,-0.0057,-0.0062,0.0575
129,46.573257,-1.116153,77.06,0.0,20.368,158.3,0 / 19,12929,2019-08-18 22:20:02:462,1.868,0.9514,9.6955,1.5392,0.6299,9.6646,-0.0014,-0.0051,0.0724
130,46.573257,-1.116153,77.06,0.0,20.368,158.3,0 / 19,13029,2019-08-18 22:20:02:562,2.1032,1.2219,9.7775,1.6349,0.7155,9.6429,0.0135,0.0023,0.1087
131,46.573257,-1.116153,77.06,0.0,20.368,158.3,0 / 19,13129,2019-08-18 22:20:02:662,1.9739,1.2297,9.778,1.6517,0.7186,9.6398,-0.0004,-0.0009,0.1236
132,46.573257,-1.116153,77.06,0.0,20.368,158.3,0 / 19,13228,2019-08-18 22:20:02:761,1.1749,1.0741,9.8361,1.6387,0.7042,9.6431,-0.0132,0.0162,0.1385
133,46.573257,-1.116153,77.06,0.0,20.368,158.3,0 / 19,13328,2019-08-18 22:20:02:861,0.7331,1.1249,9.8092,1.6095,0.6915,9.6489,-0.0078,0.0194,0.1523
134,46.573257,-1.116153,77.06,0.0,20.368,158.3,Nov-19,13428,2019-08-18 22:20:02:961,0.3046,1.2279,9.6446,1.5391,0.6852,9.6609,0.006,0.0258,0.1886
135,46.573257,-1.116153,77.06,0.0,20.368,158.3,Nov-19,13529,2019-08-18 22:20:03:062,-0.3981,1.2147,9.5153,1.4614,0.6767,9.6735,-0.0046,0.0428,0.2003
136,46.573257,-1.116153,77.06,0.0,20.368,158.3,Nov-19,13629,2019-08-18 22:20:03:162,-0.7483,1.0908,9.8181,1.3352,0.649,9.6936,-0.0291,0.03,0.2152
137,46.573257,-1.116153,77.06,0.0,20.368,158.3,Nov-19,13729,2019-08-18 22:20:03:262,-0.6789,1.001,9.8954,1.2693,0.6114,9.7049,-0.0345,0.0119,0.2205
138,46.573257,-1.116153,77.06,0.0,20.368,158.3,Nov-19,13829,2019-08-18 22:20:03:362,-0.4634,0.6299,9.7367,1.1912,0.5653,9.7176,-0.0153,0.0066,0.2163
139,46.573257,-1.116153,77.06,0.0,20.368,158.3,Nov-19,13929,2019-08-18 22:20:03:462,-0.5275,0.6623,9.6972,1.1381,0.5443,9.7252,0.0018,0.0108,0.2109
140,46.573257,-1.116153,77.06,0.0,20.368,158.3,Nov-19,14029,2019-08-18 22:20:03:562,-0.5065,0.6982,9.8056,0.7627,0.5593,9.7609,0.0018,0.0087,0.2088
141,46.573257,-1.116153,77.06,0.0,20.368,158.3,Nov-19,14129,2019-08-18 22:20:03:662,-0.637,0.7131,9.7469,0.4754,0.5978,9.7769,-0.0004,0.0098,0.2067
142,46.573257,-1.116153,77.06,0.0,20.368,158.3,Nov-19,14229,2019-08-18 22:20:03:762,-0.774,0.5838,9.7667,0.133,0.6231,9.7859,-0.0164,0.0076,0.2024
143,46.573257,-1.116153,77.06,0.0,20.368,158.3,Nov-19,14329,2019-08-18 22:20:03:862,-0.7052,0.6682,9.7786,-0.0459,0.6303,9.7863,-0.0089,0.0045,0.1992
144,46.573257,-1.116153,77.06,0.0,20.368,158.3,Nov-19,14429,2019-08-18 22:20:03:962,-0.7196,0.5737,9.717,-0.2418,0.6075,9.7848,-0.027,0.014,0.1939
145,46.573257,-1.116153,77.06,0.0,20.368,158.3,Nov-19,14529,2019-08-18 22:20:04:062,-0.877,0.5216,10.0408,-0.2606,0.5981,9.7849,-0.0089,0.0066,0.1875
146,46.573257,-1.116153,77.06,0.0,20.368,158.3,Nov-19,14629,2019-08-18 22:20:04:162,-0.8129,0.3438,9.7014,-0.2749,0.5894,9.7851,-0.0068,-0.003,0.1843
147,46.573257,-1.116153,77.06,0.0,20.368,158.3,Nov-19,14729,2019-08-18 22:20:04:262,-0.9123,0.6293,9.6721,-0.2848,0.5871,9.7849,-0.01,-0.0041,0.18
148,46.573257,-1.116153,77.06,0.0,20.368,158.3,Nov-19,14828,2019-08-18 22:20:04:361,-0.8339,0.3283,9.647,-0.2993,0.5671,9.7857,-0.0217,-0.0009,0.1705
149,46.573257,-1.116153,77.06,0.0,20.368,158.3,Nov-19,14928,2019-08-18 22:20:04:461,-0.7639,-0.0602,9.7116,-0.3074,0.5408,9.7869,-0.0132,-0.0009,0.1396
150,46.573257,-1.116153,77.06,0.0,20.368,158.3,Nov-19,15028,2019-08-18 22:20:04:561,-0.7238,-0.074,9.8415,-0.3216,0.5112,9.788,-0.0025,0.0023,0.1257
151,46.573257,-1.116153,77.06,0.0,20.368,158.3,Nov-19,15128,2019-08-18 22:20:04:661,-0.7728,0.3498,9.8032,-0.4558,0.4295,9.7866,0.0081,0.0023,0.1193
152,46.573257,-1.116153,77.06,0.0,20.368,158.3,Nov-19,15228,2019-08-18 22:20:04:761,-0.5041,0.3414,9.8373,-0.4537,0.4329,9.7866,-0.0014,-0.003,0.1151
153,46.573257,-1.116153,77.06,0.0,20.368,158.3,Nov-19,15328,2019-08-18 22:20:04:861,-0.4855,0.3336,9.7218,-0.4491,0.4245,9.7872,-0.011,0.0023,0.1044
154,46.573257,-1.116153,77.06,0.0,20.368,158.3,Nov-19,15428,2019-08-18 22:20:04:961,-0.8495,0.2121,9.6464,-0.4884,0.4104,9.7859,-0.0046,0.0108,0.0991
155,46.573257,-1.116153,77.06,0.0,20.368,158.3,Nov-19,15529,2019-08-18 22:20:05:062,-0.7884,0.1828,9.8044,-0.5073,0.402,9.7853,-0.0046,0.0002,0.0991
156,46.573257,-1.116153,77.06,0.0,20.368,158.3,Nov-19,15629,2019-08-18 22:20:05:162,-0.6059,0.2912,9.7912,-0.507,0.403,9.7852,0.0039,-0.0051,0.0948
157,46.573257,-1.116153,77.06,0.0,20.368,158.3,Nov-19,15729,2019-08-18 22:20:05:262,-0.4149,0.2211,9.7128,-0.4956,0.4022,9.7859,0.0007,0.0013,0.0884
158,46.573257,-1.116153,77.06,0.0,20.368,158.3,Nov-19,15828,2019-08-18 22:20:05:361,-0.3455,0.3612,9.796,-0.4928,0.4021,9.786,-0.0046,0.0013,0.0863
159,46.573257,-1.116153,77.06,0.0,20.368,158.3,Nov-19,15928,2019-08-18 22:20:05:461,-0.4598,0.4174,9.8074,-0.4679,0.4099,9.7869,-0.0068,-0.0041,0.0874
160,46.573257,-1.116153,77.06,0.0,20.368,158.3,Nov-19,16028,2019-08-18 22:20:05:561,-0.3694,0.184,9.8056,-0.4583,0.3817,9.7885,-0.0078,-0.0009,0.0916
161,46.573257,-1.116153,77.06,0.0,20.368,158.3,Nov-19,16128,2019-08-18 22:20:05:661,-0.2695,0.2385,9.5602,-0.4432,0.3337,9.7909,-0.01,0.0045,0.0778
162,46.573257,-1.116153,77.06,0.0,20.368,158.3,Nov-19,16229,2019-08-18 22:20:05:762,-0.4975,0.2193,9.7367,-0.4405,0.311,9.7918,-0.0036,0.0013,0.0778
163,46.573257,-1.116153,77.06,0.0,20.368,158.3,Nov-19,16329,2019-08-18 22:20:05:862,-0.376,0.272,9.7673,-0.4333,0.3117,9.7921,-0.0025,-0.0041,0.0831
164,46.573257,-1.116153,77.06,0.0,20.368,158.3,Nov-19,16429,2019-08-18 22:20:05:962,-0.4299,0.3187,9.7577,-0.4331,0.3106,9.7922,-0.0057,-0.003,0.0746
165,46.573257,-1.116153,77.06,0.0,20.368,158.3,Nov-19,16529,2019-08-18 22:20:06:062,-0.4173,0.196,9.7421,-0.4195,0.2932,9.7933,-0.0036,-0.0009,0.0746
166,46.573257,-1.116153,77.06,0.0,20.368,158.3,Nov-19,16628,2019-08-18 22:20:06:161,-0.4544,0.3115,9.7529,-0.4229,0.2886,9.7933,-0.0057,0.0002,0.0757
167,46.573257,-1.116153,77.06,0.0,20.368,158.3,Nov-19,16728,2019-08-18 22:20:06:261,-0.3898,0.2056,9.8032,-0.422,0.2842,9.7934,-0.0078,-0.0041,0.0714
168,46.573257,-1.116153,77.06,0.0,20.368,158.3,Nov-19,16828,2019-08-18 22:20:06:361,-1.0135,0.1391,9.7643,-0.4324,0.2719,9.7933,-0.01,0.0045,0.0671
169,46.573257,-1.116153,77.06,0.0,20.368,158.3,Nov-19,16928,2019-08-18 22:20:06:461,-1.3798,0.1068,9.7834,-0.483,0.2597,9.7913,-0.0025,0.0066,0.0607
170,46.573257,-1.116153,77.06,0.0,20.368,158.3,Nov-19,17028,2019-08-18 22:20:06:561,-1.3355,0.0787,9.7738,-0.5124,0.2536,9.79,-0.0004,0.0002,0.0554
171,46.573257,-1.116153,77.06,0.0,20.368,158.3,Nov-19,17129,2019-08-18 22:20:06:662,-1.2726,-0.0285,9.7775,-0.6903,0.194,9.7804,-0.0036,-0.0019,0.0458
172,46.573257,-1.116153,77.06,0.0,20.368,158.3,Nov-19,17229,2019-08-18 22:20:06:762,-1.3235,-0.0171,9.8283,-0.8298,0.1507,9.7703,-0.0025,-0.0009,0.0405
173,46.573257,-1.116153,77.06,0.0,20.368,158.3,Nov-19,17328,2019-08-18 22:20:06:861,-1.3175,-0.0542,9.7948,-0.9798,0.1033,9.757,0.0007,-0.0009,0.0341
174,46.573257,-1.116153,77.06,0.0,20.368,158.3,Nov-19,17428,2019-08-18 22:20:06:961,-1.3295,0.0014,9.7541,-1.0531,0.0806,9.7496,-0.0014,-0.0009,0.0288
175,46.573257,-1.116153,77.06,0.0,20.368,158.3,Nov-19,17529,2019-08-18 22:20:07:062,-1.3893,-0.0674,9.7122,-1.1451,0.0524,9.7394,-0.0014,0.0013,0.0203
176,46.573257,-1.116153,77.06,0.0,20.368,158.3,Nov-19,17629,2019-08-18 22:20:07:162,-1.3738,-0.0824,9.7679,-1.1909,0.0295,9.734,-0.0004,0.0002,0.016
177,46.573257,-1.116153,77.06,0.0,20.368,158.3,Nov-19,17729,2019-08-18 22:20:07:262,-1.3762,-0.0829,9.7858,-1.2449,0.0084,9.7273,0.0007,-0.0019,0.0085
178,46.573257,-1.116153,77.06,0.0,20.368,158.3,Nov-19,17828,2019-08-18 22:20:07:361,-0.6394,0.0966,9.787,-1.2235,0.017,9.73,0.006,-0.0094,0.0096
179,46.573257,-1.116153,77.06,0.0,20.368,158.3,Nov-19,17928,2019-08-18 22:20:07:461,-0.3694,0.1625,9.6841,-1.1775,0.0223,9.7357,-0.0036,-0.0041,0.0032
180,46.573257,-1.116153,77.06,0.0,20.368,158.3,Nov-19,18028,2019-08-18 22:20:07:561,-0.4293,0.1637,9.7391,-1.1508,0.0239,9.7389,-0.0014,0.0002,0.0
181,46.573257,-1.116153,77.06,0.0,20.368,158.3,Nov-19,18128,2019-08-18 22:20:07:661,-0.3868,0.1942,9.7816,-0.9401,0.0567,9.7613,0.0018,-0.0009,0.0032
182,46.573257,-1.116153,77.06,0.0,20.368,158.3,Nov-19,18228,2019-08-18 22:20:07:761,-0.4107,0.1601,9.7344,-0.8206,0.091,9.7718,-0.0004,-0.0009,0.0
183,46.573257,-1.116153,77.06,0.0,20.368,158.3,Nov-19,18329,2019-08-18 22:20:07:862,-0.3958,0.1547,9.8116,-0.6875,0.1086,9.7819,-0.0014,0.0002,0.0011
184,46.573257,-1.116153,77.06,0.0,20.368,158.3,Nov-19,18429,2019-08-18 22:20:07:962,-0.2946,0.1984,9.8122,-0.6074,0.123,9.787,0.0018,-0.0019,0.0
185,46.573257,-1.116153,77.06,0.0,20.368,158.3,Nov-19,18529,2019-08-18 22:20:08:062,-0.1994,0.1427,9.7631,-0.5038,0.1365,9.7927,-0.0014,-0.0009,-0.0021
186,46.573257,-1.116153,77.06,0.0,20.368,158.3,Nov-19,18629,2019-08-18 22:20:08:162,-0.2683,0.1649,9.7894,-0.4503,0.1412,9.7953,0.0007,-0.0009,-0.0011
187,46.573257,-1.116153,77.06,0.0,20.368,158.3,Nov-19,18728,2019-08-18 22:20:08:261,-0.6112,0.1182,9.802,-0.4229,0.15,9.7964,0.0018,0.0045,-0.0042
188,46.573257,-1.116153,77.06,0.0,20.368,158.3,Nov-19,18828,2019-08-18 22:20:08:361,-0.5017,0.1667,9.5955,-0.4192,0.1501,9.7965,0.0018,0.0023,-0.0042
189,46.573257,-1.116153,77.06,0.0,20.368,158.3,Nov-19,18928,2019-08-18 22:20:08:461,-0.789,0.1307,9.8475,-0.4393,0.1476,9.7957,-0.0014,0.0045,-0.0042
190,46.573257,-1.116153,77.06,0.0,20.368,158.3,Nov-19,19028,2019-08-18 22:20:08:561,-0.7704,0.0547,9.705,-0.4659,0.1421,9.7945,-0.0025,0.0076,-0.0085
191,46.573257,-1.116153,77.06,0.0,20.368,158.3,Nov-19,19128,2019-08-18 22:20:08:661,-1.1386,0.1325,9.7816,-0.4923,0.1383,9.7933,-0.0014,0.0087,-0.0106
192,46.573257,-1.116153,77.06,0.0,20.368,158.3,Nov-19,19228,2019-08-18 22:20:08:761,-1.2098,0.0709,9.7439,-0.5333,0.1352,9.7912,0.0007,0.0055,-0.0085
193,46.573257,-1.116153,77.06,0.0,20.368,158.3,Nov-19,19328,2019-08-18 22:20:08:861,-1.2337,0.0906,9.7697,-0.626,0.1304,9.7858,-0.0004,0.0023,-0.0106
194,46.573257,-1.116153,77.06,0.0,20.368,158.3,Nov-19,19428,2019-08-18 22:20:08:961,-1.3241,0.1397,9.7631,-0.8193,0.1262,9.7716,-0.0004,0.0034,-0.0085
195,46.573257,-1.116153,77.06,0.0,20.368,158.3,Nov-19,19529,2019-08-18 22:20:09:062,-1.3331,0.1092,9.726,-0.9252,0.1247,9.7621,0.0007,0.0023,-0.0053
196,46.573257,-1.116153,77.06,0.0,20.368,158.3,Nov-19,19629,2019-08-18 22:20:09:162,-1.305,0.0535,9.6883,-1.0482,0.1026,9.7499,-0.0025,0.0034,-0.0096
197,46.573257,-1.116153,77.06,0.0,20.368,158.3,Nov-19,19728,2019-08-18 22:20:09:261,-1.2355,0.0865,9.7948,-1.0825,0.0882,9.7463,-0.0004,0.0002,-0.0096
198,46.573257,-1.116153,77.06,0.0,20.368,158.3,Nov-19,19828,2019-08-18 22:20:09:361,-0.8333,0.0415,9.7715,-1.0799,0.0783,9.7467,0.0028,-0.0041,-0.0128
199,46.573257,-1.116153,77.06,0.0,20.368,158.3,Nov-19,19929,2019-08-18 22:20:09:462,-0.6926,0.1146,9.7427,-1.0659,0.0809,9.7482,0.0049,-0.0062,-0.017
200,46.573257,-1.116153,77.06,0.0,20.368,158.3,Nov-19,20029,2019-08-18 22:20:09:562,-0.4604,0.0667,9.8146,-1.0293,0.0804,9.7522,0.0018,-0.0083,-0.0224
201,46.573257,-1.116153,77.06,0.0,20.368,158.3,Nov-19,20128,2019-08-18 22:20:09:661,-0.4179,0.172,9.8128,-1.0067,0.0845,9.7545,0.0071,-0.003,-0.0245
202,46.573257,-1.116153,77.06,0.0,20.368,158.3,Nov-19,20228,2019-08-18 22:20:09:761,-0.2467,0.1403,9.784,-0.8011,0.1194,9.7731,0.0071,-0.0009,-0.0277
203,46.573257,-1.116153,77.06,0.0,20.368,158.3,Nov-19,20328,2019-08-18 22:20:09:861,-0.3287,0.181,9.7738,-0.7023,0.1479,9.7804,0.0049,0.0002,-0.0266
204,46.573257,-1.116153,77.06,0.0,20.368,158.3,Nov-19,20428,2019-08-18 22:20:09:961,-0.3018,0.2032,9.7445,-0.5846,0.1796,9.7876,0.0007,0.0023,-0.0277
205,46.573257,-1.116153,77.06,0.0,20.368,158.3,Nov-19,20529,2019-08-18 22:20:10:062,-0.373,0.1924,9.8487,-0.5302,0.1887,9.7905,0.0007,0.0013,-0.0287
206,46.573257,-1.116153,77.06,0.0,20.368,158.3,Nov-19,20629,2019-08-18 22:20:10:162,-0.3269,0.2104,9.8086,-0.4591,0.1854,9.7941,0.0028,0.0002,-0.0309
207,46.573257,-1.116153,77.06,0.0,20.368,158.3,Nov-19,20729,2019-08-18 22:20:10:262,-0.197,0.1906,9.7775,-0.4265,0.1948,9.7954,0.0018,-0.0009,-0.033
208,46.573257,-1.116153,77.06,0.0,20.368,158.3,Nov-19,20828,2019-08-18 22:20:10:361,-0.2359,0.1708,9.6667,-0.3766,0.1935,9.7975,-0.0025,-0.0073,-0.0373
209,46.573257,-1.116153,77.06,0.0,20.368,158.3,Nov-19,20928,2019-08-18 22:20:10:461,-0.0989,0.278,9.7092,-0.3389,0.1984,9.7988,-0.0004,-0.0073,-0.0405
210,46.573257,-1.116153,77.06,0.0,20.368,158.3,Nov-19,21029,2019-08-18 22:20:10:562,0.2094,0.3522,9.8888,-0.2821,0.2105,9.8003,0.0113,-0.0041,-0.0341
211,46.573257,-1.116153,77.06,0.0,20.368,158.3,Nov-19,21129,2019-08-18 22:20:10:662,0.5553,0.3654,9.8738,-0.2549,0.2229,9.8008,0.0124,-0.0062,-0.0319
212,46.573257,-1.116153,77.06,0.0,20.368,158.3,Nov-19,21229,2019-08-18 22:20:10:762,0.6152,0.375,9.79,-0.21,0.2429,9.8014,0.0071,-0.0073,-0.0351
213,46.573257,-1.116153,77.06,0.0,20.368,158.3,Nov-19,21328,2019-08-18 22:20:10:861,1.0414,0.5108,9.8529,-0.1637,0.25,9.8021,-0.0014,-0.0126,-0.0287
214,46.573257,-1.116153,77.06,0.0,20.368,158.3,Nov-19,21429,2019-08-18 22:20:10:962,1.2299,0.4755,9.8032,-0.0881,0.2606,9.8028,-0.0057,-0.0073,-0.0245
215,46.573257,-1.116153,77.06,0.0,20.368,158.3,Nov-19,21529,2019-08-18 22:20:11:062,0.192,0.2097,9.6637,-0.0619,0.2568,9.8031,-0.01,0.0055,-0.0266
216,46.573257,-1.116153,77.06,0.0,20.368,158.3,Nov-19,21628,2019-08-18 22:20:11:161,-0.1887,0.2068,9.7242,-0.0675,0.2541,9.8031,0.0007,0.0087,-0.0255
217,46.573257,-1.116153,77.06,0.0,20.368,158.3,Nov-19,21728,2019-08-18 22:20:11:261,-0.2796,0.2385,9.8882,-0.0765,0.2539,9.8031,0.0028,0.0066,-0.0224
218,46.573257,-1.116153,77.06,0.0,20.368,158.3,Nov-19,21829,2019-08-18 22:20:11:362,-0.1875,0.2439,9.6865,-0.0908,0.2601,9.8028,-0.0004,-0.0009,-0.0245
219,46.573257,-1.116153,77.06,0.0,20.368,158.3,Nov-19,21929,2019-08-18 22:20:11:462,-0.1115,0.281,9.8163,-0.1187,0.2565,9.8026,-0.0014,-0.0041,-0.0234
220,46.573257,-1.116153,77.06,0.0,20.368,158.3,Nov-19,22029,2019-08-18 22:20:11:562,-0.1067,0.1864,9.7074,-0.1333,0.2447,9.8027,0.0039,-0.0009,-0.0245
221,46.573257,-1.116153,77.06,0.0,20.368,158.3,Nov-19,22128,2019-08-18 22:20:11:661,-0.1486,0.2002,9.8451,-0.1532,0.2393,9.8025,0.0039,0.0023,-0.0255
222,46.573257,-1.116153,77.06,0.0,20.368,158.3,Nov-19,22228,2019-08-18 22:20:11:761,-0.2479,0.3007,9.6715,-0.1715,0.2479,9.802,0.0039,-0.0009,-0.0245
223,46.573257,-1.116153,77.06,0.0,20.368,158.3,Nov-19,22328,2019-08-18 22:20:11:861,2.0577,0.5431,10.1635,-0.1114,0.2657,9.8024,0.0103,-0.0201,-0.0213
224,46.573257,-1.116153,77.06,0.0,20.368,158.3,Nov-19,22429,2019-08-18 22:20:11:962,1.8195,0.6263,9.8181,0.0013,0.2791,9.8027,-0.0014,-0.0211,-0.0149
225,46.573257,-1.116153,77.06,0.0,20.368,158.3,Nov-19,22529,2019-08-18 22:20:12:062,2.0487,0.5665,9.6494,0.0721,0.2883,9.8021,0.0007,-0.0094,-0.0149
226,46.573257,-1.116153,77.06,0.0,20.368,158.3,Nov-19,22629,2019-08-18 22:20:12:162,1.9075,0.6323,9.8116,0.1647,0.3029,9.8006,0.0018,0.0013,-0.0021
227,46.573257,-1.116153,77.06,0.0,20.368,158.3,Nov-19,22728,2019-08-18 22:20:12:261,0.3459,0.3169,9.4363,0.3722,0.3337,9.7939,-0.0004,0.0013,0.0022
228,46.573257,-1.116153,77.06,0.0,20.368,158.3,Nov-19,22829,2019-08-18 22:20:12:362,-1.0374,0.1379,9.6733,0.3233,0.3176,9.7962,-0.0121,0.0172,-0.0021
229,46.573257,-1.116153,77.06,0.0,20.368,158.3,Nov-19,22929,2019-08-18 22:20:12:462,0.2609,0.257,10.3533,0.2507,0.3065,9.7987,0.0028,0.0204,0.0011
230,46.573257,-1.116153,77.06,0.0,20.368,158.3,Nov-19,23029,2019-08-18 22:20:12:562,-0.0785,0.2121,10.0246,0.2363,0.3031,9.7991,-0.0004,0.0098,0.0011
231,46.573257,-1.116153,77.06,0.0,20.368,158.3,Nov-19,23128,2019-08-18 22:20:12:661,-0.1946,0.2265,9.6075,0.2078,0.3018,9.7998,0.0049,0.0066,-0.0042
232,46.573257,-1.116153,77.06,0.0,20.368,158.3,Nov-19,23228,2019-08-18 22:20:12:761,-0.2114,0.2834,9.5608,0.1903,0.3018,9.8002,0.0007,0.0045,0.0022
233,46.573257,-1.116153,77.06,0.0,20.368,158.3,Nov-19,23328,2019-08-18 22:20:12:861,-0.2186,0.1834,9.8636,0.1324,0.2887,9.8015,-0.0025,-0.0009,-0.0021
234,46.573257,-1.116153,77.06,0.0,20.368,158.3,Nov-19,23429,2019-08-18 22:20:12:962,-0.2617,0.1984,9.7888,0.0604,0.2661,9.8029,-0.0036,-0.0019,-0.0011
235,46.573257,-1.116153,77.06,0.0,20.368,158.3,Nov-19,23529,2019-08-18 22:20:13:062,0.1687,0.3085,9.8026,-0.0161,0.2496,9.8035,0.0028,-0.0019,0.0
236,46.573257,-1.116153,77.06,0.0,20.368,158.3,Nov-19,23628,2019-08-18 22:20:13:161,0.9372,0.4222,9.8499,0.0061,0.2576,9.8033,0.006,-0.0147,0.0
237,46.573257,-1.116153,77.06,0.0,20.368,158.3,Nov-19,23728,2019-08-18 22:20:13:261,1.2586,0.5318,9.9283,0.0946,0.2705,9.8025,-0.0004,-0.0382,0.0064
238,46.573257,-1.116153,77.06,0.0,20.368,158.3,Nov-19,23828,2019-08-18 22:20:13:361,1.5292,0.4534,9.8265,0.1608,0.2775,9.8014,0.0007,-0.0307,0.0085
239,46.573257,-1.116153,77.06,0.0,20.368,158.3,Nov-19,23928,2019-08-18 22:20:13:461,1.9793,0.4557,9.9085,0.2566,0.2876,9.7991,-0.0004,-0.0147,0.0139
240,46.573257,-1.116153,77.06,0.0,20.368,158.3,Nov-19,24029,2019-08-18 22:20:13:562,2.0409,0.457,9.8373,0.3227,0.2955,9.7969,0.0018,-0.0083,0.0171
241,46.573257,-1.116153,77.06,0.0,20.368,158.3,Nov-19,24128,2019-08-18 22:20:13:661,2.3336,0.5437,9.7769,0.4195,0.3095,9.7928,0.0028,-0.0041,0.0192
242,46.573257,-1.116153,77.06,0.0,20.368,158.3,Nov-19,24229,2019-08-18 22:20:13:762,2.2163,0.6479,9.8822,0.4832,0.3192,9.7895,0.0007,-0.003,0.0245
243,46.573257,-1.116153,77.06,0.0,20.368,158.3,Nov-19,24329,2019-08-18 22:20:13:862,2.4174,0.673,9.7613,1.0192,0.4192,9.7445,-0.0004,0.0034,0.0298
244,46.573257,-1.116153,77.06,0.0,20.368,158.3,Nov-19,24429,2019-08-18 22:20:13:962,2.4569,0.521,9.8972,1.2856,0.4543,9.7114,-0.0036,0.0045,0.0341
245,46.573257,-1.116153,77.06,0.0,20.368,158.3,Nov-19,24529,2019-08-18 22:20:14:062,2.4019,0.5689,9.8864,1.5893,0.461,9.666,-0.0025,0.0002,0.0341
246,46.573257,-1.116153,77.06,0.0,20.368,158.3,Nov-19,24629,2019-08-18 22:20:14:162,2.4312,0.5832,9.8098,1.7462,0.4605,9.6389,0.0049,-0.0009,0.0309
247,46.573257,-1.116153,77.06,0.0,20.368,158.3,Nov-19,24729,2019-08-18 22:20:14:262,2.5012,0.5443,9.6505,1.9363,0.4715,9.602,-0.0089,0.0002,0.0266
248,46.573257,-1.116153,77.06,0.0,20.368,158.3,Nov-19,24829,2019-08-18 22:20:14:362,2.6036,0.3073,9.8307,2.0539,0.4738,9.5774,-0.0195,-0.0115,0.0149
249,46.573257,-1.116153,77.06,0.0,20.368,158.3,Nov-19,24929,2019-08-18 22:20:14:462,2.6964,0.1726,9.8547,2.114,0.4311,9.5664,-0.0174,-0.0019,0.0075
250,46.573257,-1.116153,77.06,0.0,20.368,158.3,Nov-19,25028,2019-08-18 22:20:14:561,2.6892,0.3773,9.802,2.1325,0.4213,9.5627,0.0039,-0.003,-0.0074
251,46.573257,-1.116153,77.06,0.0,20.368,158.3,Nov-19,25129,2019-08-18 22:20:14:662,2.6407,0.6305,9.8559,2.1608,0.4356,9.5557,0.0081,-0.0083,-0.0011
252,46.573257,-1.116153,77.06,0.0,20.368,158.3,Nov-19,25228,2019-08-18 22:20:14:761,2.7317,0.4552,9.9163,2.1815,0.441,9.5508,-0.0004,-0.0105,-0.0011
253,46.573257,-1.116153,77.06,0.0,20.368,158.3,Nov-19,25329,2019-08-18 22:20:14:862,2.7598,0.1224,9.7589,2.2161,0.4272,9.5434,-0.0132,-0.0105,-0.0192
254,46.573257,-1.116153,77.06,0.0,20.368,158.3,Nov-19,25429,2019-08-18 22:20:14:962,2.6191,0.1349,9.7427,2.2362,0.4115,9.5394,-0.0164,-0.003,-0.0255
255,46.573257,-1.116153,77.06,0.0,20.368,158.3,Nov-19,25528,2019-08-18 22:20:15:061,1.9625,0.0972,9.9857,2.2276,0.4025,9.5418,0.0081,0.0162,-0.0351
256,46.573257,-1.116153,77.06,0.0,20.368,158.3,Nov-19,25628,2019-08-18 22:20:15:161,1.5651,0.43,10.1521,2.2015,0.4067,9.5477,0.0071,0.0119,-0.0394
257,46.573257,-1.116153,77.06,0.0,20.368,158.3,Nov-19,25728,2019-08-18 22:20:15:261,0.6248,0.2618,9.8259,2.1467,0.3974,9.5606,-0.0174,0.0194,-0.0383
258,46.573257,-1.116153,77.06,0.0,20.368,158.3,Nov-19,25829,2019-08-18 22:20:15:362,-0.7154,0.0068,9.7116,2.0447,0.3832,9.5835,-0.0185,0.0385,-0.0373
259,46.573257,-1.116153,77.06,0.0,20.368,158.3,Nov-19,25928,2019-08-18 22:20:15:461,-0.2168,-0.299,9.8343,1.9024,0.3675,9.6133,0.0081,0.0226,-0.0351
260,46.573257,-1.116153,77.06,0.0,20.368,158.3,Nov-19,26029,2019-08-18 22:20:15:562,-0.4706,0.0266,9.4794,1.8298,0.3652,9.6275,0.0103,-0.0041,-0.0362
261,46.573257,-1.116153,77.06,0.0,20.368,158.3,Nov-19,26128,2019-08-18 22:20:15:661,-0.291,-0.0237,10.0019,1.7434,0.377,9.6431,0.0209,-0.0137,-0.0373
262,46.573257,-1.116153,77.06,0.0,20.368,158.3,Nov-19,26229,2019-08-18 22:20:15:762,-0.4143,-0.0434,9.8678,1.6819,0.3743,9.6541,-0.0025,-0.0062,-0.0341
263,46.573257,-1.116153,77.06,0.0,20.368,158.3,Nov-19,26328,2019-08-18 22:20:15:861,-0.3479,0.0338,9.9947,1.3806,0.3397,9.703,-0.0164,0.0226,-0.0351
264,46.573257,-1.116153,77.06,0.0,20.368,158.3,Nov-19,26429,2019-08-18 22:20:15:962,-0.4167,-0.0901,9.6655,1.0002,0.2779,9.7515,-0.0153,0.0151,-0.0319
265,46.573257,-1.116153,77.06,0.0,20.368,158.3,Nov-19,26528,2019-08-18 22:20:16:061,-0.2958,-0.378,9.5662,0.9339,0.2349,9.7593,-0.0174,-0.0041,-0.0564
266,46.573257,-1.116153,77.06,0.0,20.368,158.3,Nov-19,26629,2019-08-18 22:20:16:162,-0.3078,-0.8299,9.5901,0.8974,0.2037,9.7634,-0.01,-0.0051,-0.0809
267,46.573257,-1.116153,77.06,0.0,20.368,158.3,Nov-19,26728,2019-08-18 22:20:16:261,-0.2892,-0.2027,9.6619,0.837,0.1784,9.7692,0.0135,0.0045,-0.0852
268,46.573257,-1.116153,77.06,0.0,20.368,158.3,Nov-19,26828,2019-08-18 22:20:16:361,-0.3042,-0.0087,9.6499,0.7821,0.208,9.7732,0.0465,0.0258,-0.0671
269,46.573257,-1.116153,77.06,0.0,20.368,158.3,Nov-19,26929,2019-08-18 22:20:16:462,-0.3114,-0.2404,9.8511,0.6986,0.207,9.7795,-0.0068,0.0247,-0.0767
270,46.573257,-1.116153,77.06,0.0,20.368,158.3,Nov-19,27029,2019-08-18 22:20:16:562,-0.3257,-0.4953,9.8074,0.6491,0.1825,9.7834,-0.0259,0.0119,-0.0991
271,46.573257,-1.116153,77.06,0.0,20.368,158.3,Nov-19,27129,2019-08-18 22:20:16:662,-0.3568,-0.8455,9.7254,0.5936,0.1155,9.788,-0.0164,0.0045,-0.114
272,46.573257,-1.116153,77.06,0.0,20.368,158.3,Nov-19,27228,2019-08-18 22:20:16:761,-0.3293,-0.9018,9.5703,0.5577,0.0829,9.7904,0.006,0.0066,-0.1289
273,46.573257,-1.116153,77.06,0.0,20.368,158.3,Nov-19,27328,2019-08-18 22:20:16:861,-0.315,-0.8569,9.7822,0.4922,0.0456,9.7942,-0.0068,0.0194,-0.1587
274,46.573257,-1.116153,77.06,0.0,20.368,158.3,Nov-19,27428,2019-08-18 22:20:16:961,-0.4125,-1.0837,9.6787,0.4398,0.0105,9.7968,0.006,0.0055,-0.1726
275,46.573257,-1.116153,77.06,0.0,20.368,158.3,Nov-19,27529,2019-08-18 22:20:17:062,-0.4424,-1.1825,10.0067,0.4137,-0.0217,9.7979,-0.0036,-0.0041,-0.1907
276,46.573257,-1.116153,77.06,0.0,20.368,158.3,Nov-19,27629,2019-08-18 22:20:17:162,-0.4221,-1.0933,10.0869,0.3771,-0.0409,9.7993,0.0124,-0.003,-0.2109
277,46.573257,-1.116153,77.06,0.0,20.368,158.3,Nov-19,27728,2019-08-18 22:20:17:261,-0.3174,-1.046,9.401,0.3539,-0.0494,9.8001,0.0337,-0.0009,-0.2216
278,46.573257,-1.116153,77.06,0.0,20.368,158.3,Nov-19,27828,2019-08-18 22:20:17:361,-0.3928,-0.8736,9.3381,0.3115,-0.0857,9.8013,-0.0153,0.0183,-0.2429
279,46.573257,-1.116153,77.06,0.0,20.368,158.3,Nov-19,27929,2019-08-18 22:20:17:462,-0.2868,-1.2765,9.4859,0.277,-0.1267,9.8019,-0.0238,0.0204,-0.261
280,46.573257,-1.116153,77.06,0.0,20.368,158.3,Nov-19,28028,2019-08-18 22:20:17:561,-0.3598,-1.3184,9.8199,0.2278,-0.205,9.8019,-0.01,0.0236,-0.2727
281,46.573257,-1.116153,77.06,0.0,20.368,158.3,Nov-19,28129,2019-08-18 22:20:17:662,-0.2928,-1.1591,9.7074,0.1963,-0.2215,9.8022,0.0231,0.0215,-0.2716
282,46.573257,-1.116153,77.06,0.0,20.368,158.3,Nov-19,28229,2019-08-18 22:20:17:762,-0.385,-0.9185,9.7715,0.1295,-0.2115,9.8035,0.0433,0.0471,-0.2674
283,46.573257,-1.116153,77.06,0.0,20.368,158.3,Nov-19,28329,2019-08-18 22:20:17:862,-0.1078,-0.5642,9.6039,0.0765,-0.2147,9.804,0.0135,0.0535,-0.2695
284,46.573257,-1.116153,77.06,0.0,20.368,158.3,Nov-19,28429,2019-08-18 22:20:17:962,0.1274,-1.1005,9.9037,0.0481,-0.2532,9.8033,-0.0228,0.0066,-0.2748
285,46.573257,-1.116153,77.06,0.0,20.368,158.3,Nov-19,28529,2019-08-18 22:20:18:062,0.1543,-1.0059,9.7385,0.0581,-0.2967,9.802,-0.0259,-0.003,-0.2706
286,46.573257,-1.116153,77.06,0.0,20.368,158.3,Nov-19,28629,2019-08-18 22:20:18:162,0.1956,-1.2771,9.5865,0.061,-0.3507,9.8002,0.0081,0.0183,-0.2738
287,46.573257,-1.116153,77.06,0.0,20.368,158.3,Nov-19,28729,2019-08-18 22:20:18:262,0.2327,-0.9317,9.887,0.0633,-0.4231,9.7973,0.0145,0.0332,-0.2652
288,46.573257,-1.116153,77.06,0.0,20.368,158.3,Nov-19,28829,2019-08-18 22:20:18:362,0.4434,-0.6911,9.7092,0.0822,-0.4754,9.7948,0.0252,-0.0009,-0.2493
289,46.573257,-1.116153,77.06,0.0,20.368,158.3,Nov-19,28929,2019-08-18 22:20:18:462,0.7271,-0.715,9.8463,0.1141,-0.4728,9.7946,0.0028,-0.0201,-0.2397
290,46.573257,-1.116153,77.06,0.0,20.368,158.3,Nov-19,29029,2019-08-18 22:20:18:562,0.6122,-0.5738,9.7529,0.1689,-0.4689,9.794,0.006,-0.0041,-0.2269
291,46.573257,-1.116153,77.06,0.0,20.368,158.3,Nov-19,29129,2019-08-18 22:20:18:662,0.6242,-0.466,9.8888,0.1912,-0.464,9.7938,0.0049,0.0076,-0.2066
292,46.573257,-1.116153,77.06,0.0,20.368,158.3,Nov-19,29228,2019-08-18 22:20:18:761,0.7798,-0.9616,10.0438,0.3204,-0.527,9.7872,-0.027,0.013,-0.2066
293,46.573257,-1.116153,77.06,0.0,20.368,158.3,Nov-19,29328,2019-08-18 22:20:18:861,0.8026,-1.1167,10.1683,0.3488,-0.5645,9.7842,-0.0366,-0.0158,-0.212
294,46.573257,-1.116153,77.06,0.0,20.368,158.3,Nov-19,29429,2019-08-18 22:20:18:962,0.8259,-1.3932,9.8403,0.4059,-0.5945,9.7802,0.0113,-0.0211,-0.2194
295,46.573257,-1.116153,77.06,0.0,20.368,158.3,Nov-19,29529,2019-08-18 22:20:19:062,0.8283,-1.3842,9.62,0.4468,-0.6146,9.7772,-0.01,-0.0232,-0.2311
296,46.573257,-1.116153,77.06,0.0,20.368,158.3,Nov-19,29628,2019-08-18 22:20:19:161,0.714,-2.1336,9.6464,0.5075,-0.6665,9.7708,-0.0238,-0.0147,-0.2663
297,46.573257,-1.116153,77.06,0.0,20.368,158.3,Nov-19,29729,2019-08-18 22:20:19:262,0.7589,-2.2647,10.0564,0.5485,-0.7299,9.7641,-0.0355,-0.0264,-0.3015
298,46.573257,-1.116153,77.06,0.0,20.368,158.3,Nov-19,29829,2019-08-18 22:20:19:362,0.8343,-2.3934,9.8427,0.6049,-0.7758,9.7572,0.0294,-0.0115,-0.3324
299,46.573257,-1.116153,77.06,0.0,20.368,158.3,Nov-19,29928,2019-08-18 22:20:19:461,0.8702,-1.9528,9.5662,0.6265,-0.7651,9.7567,0.0603,0.0151,-0.3366
300,46.573257,-1.116153,77.06,0.0,20.368,158.3,Nov-19,30028,2019-08-18 22:20:19:561,0.0406,-1.9504,9.4183,0.6169,-0.7294,9.76,0.0486,0.0353,-0.3398
301,46.573257,-1.116153,77.06,0.0,20.368,158.3,Nov-19,30129,2019-08-18 22:20:19:662,-0.5645,-2.1019,9.541,0.5844,-0.7084,9.7636,0.0529,0.0428,-0.3441
302,46.573257,-1.116153,77.06,0.0,20.368,158.3,Nov-19,30228,2019-08-18 22:20:19:761,-0.6412,-2.0378,10.1396,0.5217,-0.7149,9.7666,0.0433,0.0385,-0.3441
303,46.573257,-1.116153,77.06,0.0,20.368,158.3,Nov-19,30329,2019-08-18 22:20:19:862,-0.5897,-1.8828,10.2701,0.4921,-0.6931,9.7697,0.0582,0.0066,-0.3409
304,46.573257,-1.116153,77.06,0.0,20.368,158.3,Nov-19,30429,2019-08-18 22:20:19:962,-0.5951,-1.8535,9.9492,0.5005,-0.6967,9.7691,0.0305,-0.0446,-0.3473
305,46.573257,-1.116153,77.06,0.0,20.368,158.3,Nov-19,30529,2019-08-18 22:20:20:062,-0.5023,-2.0647,9.4746,0.5283,-0.6971,9.7676,0.0348,-0.0595,-0.3504
306,46.573257,-1.116153,77.06,0.0,20.368,158.3,Nov-19,30629,2019-08-18 22:20:20:162,-0.3676,-2.1767,9.5027,0.5746,-0.6881,9.7656,0.0486,-0.0499,-0.3473
307,46.573257,-1.116153,77.06,0.0,20.368,158.3,Nov-19,30729,2019-08-18 22:20:20:262,-0.4843,-1.717,9.8738,0.5847,-0.6688,9.7663,0.0657,-0.0264,-0.3462
308,46.573257,-1.116153,77.06,0.0,20.368,158.3,Nov-19,30828,2019-08-18 22:20:20:361,-0.2862,-1.5823,9.9492,0.5765,-0.6551,9.7677,0.0124,-0.0019,-0.3398
309,46.573257,-1.116153,77.06,0.0,20.368,158.3,Nov-19,30929,2019-08-18 22:20:20:462,-0.4604,-1.3405,9.7894,0.552,-0.6621,9.7687,-0.0057,0.0151,-0.343
310,46.573257,-1.116153,77.06,0.0,20.368,158.3,Nov-19,31029,2019-08-18 22:20:20:562,-0.4263,-1.4883,9.8666,0.5156,-0.6899,9.7688,-0.0004,0.0098,-0.3206
311,46.573257,-1.116153,77.06,0.0,20.368,158.3,Nov-19,31128,2019-08-18 22:20:20:661,0.0567,-1.5626,9.9863,0.5093,-0.6988,9.7685,0.006,-0.0094,-0.311
312,46.573257,-1.116153,77.06,0.0,20.368,158.3,Nov-19,31229,2019-08-18 22:20:20:762,0.1771,-1.3842,9.9857,0.5288,-0.6946,9.7677,0.0305,-0.0147,-0.3047
313,46.573257,-1.116153,77.06,0.0,20.368,158.3,Nov-19,31329,2019-08-18 22:20:20:862,0.3381,-1.3022,9.9313,0.5593,-0.6966,9.7659,0.0081,-0.0137,-0.3047
314,46.573257,-1.116153,77.06,0.0,20.368,158.3,Dec-20,31428,2019-08-18 22:20:20:961,-0.3569,-1.289,9.8828,0.5577,-0.6988,9.7658,0.0081,0.0023,-0.2972
315,46.573257,-1.116153,77.06,0.0,20.368,158.3,Dec-20,31529,2019-08-18 22:20:21:062,-0.0677,-1.1502,9.8463,0.5314,-0.7138,9.7662,-0.0046,0.0076,-0.2823
316,46.573257,-1.116153,77.06,0.0,20.368,158.3,Dec-20,31629,2019-08-18 22:20:21:162,0.0466,-1.1017,9.9001,0.5209,-0.7032,9.7675,0.0231,0.0023,-0.2663
317,46.573257,-1.116153,77.06,0.0,20.368,158.3,Dec-20,31728,2019-08-18 22:20:21:261,0.0358,-0.7677,9.9893,0.5243,-0.6772,9.7692,0.0305,-0.0073,-0.2375
318,46.573257,-1.116153,77.06,0.0,20.368,158.3,Dec-20,31829,2019-08-18 22:20:21:362,-0.0085,-0.387,9.629,0.5231,-0.6448,9.7714,0.0294,-0.0062,-0.213
319,46.573257,-1.116153,77.06,0.0,20.368,158.3,Dec-20,31929,2019-08-18 22:20:21:462,0.0035,-0.2027,9.6547,0.5196,-0.5869,9.7753,0.0241,-0.0083,-0.1726
320,46.573257,-1.116153,77.06,0.0,20.368,158.3,Dec-20,32029,2019-08-18 22:20:21:562,0.0681,0.029,9.7403,0.5122,-0.5446,9.7781,0.0241,-0.0062,-0.1438
321,46.573257,-1.116153,77.06,0.0,20.368,158.3,Dec-20,32129,2019-08-18 22:20:21:662,-0.2,0.1337,9.8696,0.4956,-0.488,9.782,0.0103,-0.003,-0.0991
322,46.573257,-1.116153,77.06,0.0,20.368,158.3,Dec-20,32229,2019-08-18 22:20:21:762,-0.3287,0.1774,9.7433,0.4072,-0.392,9.7903,0.0231,0.0087,-0.0831
323,46.573257,-1.116153,77.06,0.0,20.368,158.3,Dec-20,32328,2019-08-18 22:20:21:861,-0.4395,0.2373,9.9175,0.2989,-0.2906,9.7978,0.0081,0.0023,-0.0586
324,46.57317,-1.115956,83.75,5.97,6.432,158.3,0 / 20,32429,2019-08-18 22:20:21:962,-0.4191,-0.0417,9.7571,0.1592,-0.1726,9.8038,-0.0014,-0.003,-0.05
325,46.57317,-1.115956,83.75,5.97,6.432,158.3,0 / 20,32529,2019-08-18 22:20:22:062,-0.3616,-0.2823,9.5284,0.1328,-0.1656,9.8044,0.0018,0.0002,-0.0554
326,46.57317,-1.115956,83.75,5.97,6.432,158.3,0 / 20,32628,2019-08-18 22:20:22:161,-0.3413,0.0691,9.7828,0.1143,-0.1553,9.8048,0.0124,0.0055,-0.0543
327,46.57317,-1.115956,83.75,5.97,6.432,158.3,0 / 20,32729,2019-08-18 22:20:22:262,-0.3934,0.3779,9.796,0.0415,-0.1101,9.8059,0.0081,0.0013,-0.0405
328,46.57317,-1.115956,83.75,5.97,6.432,158.3,0 / 20,32828,2019-08-18 22:20:22:361,-0.4921,0.4869,9.62,0.0232,-0.0866,9.8062,0.0113,0.0055,-0.0287
329,46.57317,-1.115956,83.75,5.97,6.432,158.3,0 / 20,32929,2019-08-18 22:20:22:462,-0.3958,0.5102,9.8074,-0.0014,-0.0492,9.8065,0.006,-0.0019,-0.0042
330,46.57317,-1.115956,83.75,5.97,6.432,158.3,0 / 20,33029,2019-08-18 22:20:22:562,-0.4047,0.3941,9.7924,-0.096,0.0585,9.806,0.0018,0.0023,-0.0021
331,46.57317,-1.115956,83.75,5.97,6.432,158.3,0 / 20,33129,2019-08-18 22:20:22:662,-0.5406,0.3325,9.6751,-0.1503,0.106,9.8049,-0.0036,0.0055,0.0022
332,46.57317,-1.115956,83.75,5.97,6.432,158.3,0 / 20,33228,2019-08-18 22:20:22:761,-0.6172,0.3504,9.9049,-0.2012,0.133,9.8037,-0.0046,0.0023,0.0043
333,46.57317,-1.115956,83.75,5.97,6.432,158.3,0 / 20,33328,2019-08-18 22:20:22:861,-0.5849,0.3576,9.8487,-0.25,0.1425,9.8024,-0.0238,0.0013,0.0032
334,46.57317,-1.115956,83.75,5.97,6.432,158.3,0 / 20,33428,2019-08-18 22:20:22:961,-0.7142,0.3187,9.696,-0.3003,0.1511,9.8009,-0.0046,0.0055,0.0043
335,46.57317,-1.115956,83.75,5.97,6.432,158.3,0 / 20,33529,2019-08-18 22:20:23:062,-0.8644,0.175,9.8672,-0.3273,0.1508,9.8,0.0028,-0.0019,0.0043
336,46.57317,-1.115956,83.75,5.97,6.432,158.3,0 / 20,33628,2019-08-18 22:20:23:161,-0.9734,0.1541,9.6918,-0.3408,0.1576,9.7995,0.006,-0.0094,0.0011
337,46.57317,-1.115956,83.75,5.97,6.432,158.3,0 / 20,33728,2019-08-18 22:20:23:261,-1.2984,0.2104,9.9061,-0.3695,0.159,9.7984,-0.0046,0.0002,-0.0011
338,46.57317,-1.115956,83.75,5.97,6.432,158.3,0 / 20,33830,2019-08-18 22:20:23:363,-1.3229,0.0601,9.7768,-0.4015,0.155,9.7972,-0.0046,0.0023,-0.0021
339,46.57317,-1.115956,83.75,5.97,6.432,158.3,0 / 20,33929,2019-08-18 22:20:23:462,-2.0932,0.0338,9.723,-0.4676,0.1432,9.7944,-0.0078,0.0098,-0.0032
340,46.57317,-1.115956,83.75,5.97,6.432,158.3,0 / 20,34029,2019-08-18 22:20:23:562,-2.5416,0.09,9.8523,-0.5316,0.1311,9.7914,-0.0142,0.013,-0.0032
341,46.57317,-1.115956,83.75,5.97,6.432,158.3,0 / 20,34129,2019-08-18 22:20:23:662,-2.9061,-0.0698,9.7445,-0.6586,0.1213,9.7838,-0.0014,0.0162,0.0011
342,46.57317,-1.115956,83.75,5.97,6.432,158.3,0 / 20,34229,2019-08-18 22:20:23:762,-3.0455,-0.0171,9.7924,-0.74,0.1123,9.778,-0.0014,0.0076,0.0022
343,46.57317,-1.115956,83.75,5.97,6.432,158.3,0 / 20,34328,2019-08-18 22:20:23:861,-2.9612,0.0912,9.5793,-0.8471,0.1036,9.7694,-0.0036,-0.0083,0.0032
344,46.57317,-1.115956,83.75,5.97,6.432,158.3,0 / 20,34429,2019-08-18 22:20:23:962,-2.9713,0.1044,9.5428,-1.1105,0.0914,9.7431,-0.0057,-0.0062,0.0032
345,46.57317,-1.115956,83.75,5.97,6.432,158.3,0 / 20,34529,2019-08-18 22:20:24:062,-3.0647,0.1116,9.7685,-1.1973,0.0656,9.7331,-0.027,-0.0041,0.0011
346,46.57317,-1.115956,83.75,5.97,6.432,158.3,0 / 20,34629,2019-08-18 22:20:24:162,-2.9869,-0.1644,9.7978,-1.2527,0.058,9.7261,-0.0004,-0.0051,0.0053
347,46.57317,-1.115956,83.75,5.97,6.432,158.3,0 / 20,34728,2019-08-18 22:20:24:261,-2.9797,-0.0704,9.565,-1.4938,0.0279,9.6922,-0.0121,-0.0019,0.0053
348,46.57317,-1.115956,83.75,5.97,6.432,158.3,0 / 20,34828,2019-08-18 22:20:24:361,-3.0384,-0.0853,9.2711,-1.5459,0.0276,9.684,-0.0014,0.0055,0.0064
349,46.57317,-1.115956,83.75,5.97,6.432,158.3,0 / 20,34928,2019-08-18 22:20:24:461,-3.0659,-0.1117,9.4255,-1.633,0.0171,9.6697,-0.0036,0.0172,0.0064
350,46.57317,-1.115956,83.75,5.97,6.432,158.3,0 / 20,35029,2019-08-18 22:20:24:562,-3.1365,-0.0907,9.9109,-1.687,0.0135,9.6604,-0.0004,0.0098,0.0043
351,46.57317,-1.115956,83.75,5.97,6.432,158.3,0 / 20,35129,2019-08-18 22:20:24:662,-2.9869,-0.0626,9.4656,-1.76,0.0133,9.6474,0.006,0.0076,0.0043
352,46.57317,-1.115956,83.75,5.97,6.432,158.3,0 / 20,35229,2019-08-18 22:20:24:762,-3.1311,-0.0865,9.7511,-1.9437,0.0078,9.6121,0.0018,0.0066,0.0032
353,46.57317,-1.115956,83.75,5.97,6.432,158.3,0 / 20,35329,2019-08-18 22:20:24:862,-2.8576,0.0051,9.8074,-2.1615,-0.0052,9.5655,-0.0036,0.0034,0.0
354,46.57317,-1.115956,83.75,5.97,6.432,158.3,0 / 20,35428,2019-08-18 22:20:24:961,-3.1712,-0.1284,9.5464,-2.4121,-0.0264,9.5054,0.0028,0.0076,0.0032
355,46.57317,-1.115956,83.75,5.97,6.432,158.3,0 / 20,35529,2019-08-18 22:20:25:062,-3.1257,-0.1027,9.7421,-2.5486,-0.0469,9.4696,0.0007,0.0108,0.0022
356,46.57317,-1.115956,83.75,5.97,6.432,158.3,0 / 20,35629,2019-08-18 22:20:25:162,-3.106,-0.0423,9.7816,-2.6813,-0.0429,9.4329,0.0018,0.0055,0.0022
357,46.57317,-1.115956,83.75,5.97,6.432,158.3,0 / 20,35729,2019-08-18 22:20:25:262,-2.6308,-0.0129,9.6757,-2.7006,-0.0442,9.4274,0.0039,-0.0019,0.0022
358,46.57317,-1.115956,83.75,5.97,6.432,158.3,0 / 20,35828,2019-08-18 22:20:25:361,-1.6952,0.1343,9.7894,-2.659,-0.0416,9.4392,-0.0025,-0.0137,0.0
359,46.57317,-1.115956,83.75,5.97,6.432,158.3,0 / 20,35929,2019-08-18 22:20:25:462,-1.3307,0.105,9.8181,-2.6079,-0.0372,9.4534,-0.0036,-0.0158,0.0011
360,46.57317,-1.115956,83.75,5.97,6.432,158.3,0 / 20,36029,2019-08-18 22:20:25:562,-1.208,0.1583,9.6344,-2.5335,-0.0389,9.4737,-0.0068,-0.0041,0.0011
361,46.57317,-1.115956,83.75,5.97,6.432,158.3,0 / 20,36128,2019-08-18 22:20:25:661,-1.2666,0.0517,9.6895,-2.4961,-0.0374,9.4836,-0.0014,0.0055,-0.0021
362,46.57317,-1.115956,83.75,5.97,6.432,158.3,0 / 20,36229,2019-08-18 22:20:25:762,-1.2271,0.0062,9.7912,-2.1267,-0.0047,9.5733,0.0018,-0.0019,0.0011
363,46.57317,-1.115956,83.75,5.97,6.432,158.3,0 / 20,36329,2019-08-18 22:20:25:862,-0.9991,0.1918,9.7134,-1.9008,0.0293,9.6206,-0.0004,-0.003,0.0
364,46.57317,-1.115956,83.75,5.97,6.432,158.3,0 / 20,36428,2019-08-18 22:20:25:961,-1.0368,0.0398,9.7469,-1.638,0.0578,9.6687,-0.0025,0.0023,0.0011
365,46.57317,-1.115956,83.75,5.97,6.432,158.3,0 / 20,36529,2019-08-18 22:20:26:062,-0.9937,0.0996,9.8008,-1.5077,0.0689,9.6898,0.0007,0.0002,0.0011
366,46.57317,-1.115956,83.75,5.97,6.432,158.3,0 / 20,36629,2019-08-18 22:20:26:162,-1.0655,0.129,9.6954,-1.3698,0.079,9.7102,-0.0004,0.0013,-0.0011
367,46.57317,-1.115956,83.75,5.97,6.432,158.3,0 / 20,36728,2019-08-18 22:20:26:261,-1.0578,0.1313,9.7517,-1.3038,0.0872,9.7192,-0.0004,0.0002,0.0
368,46.57317,-1.115956,83.75,5.97,6.432,158.3,0 / 20,36828,2019-08-18 22:20:26:361,-1.123,0.211,9.7858,-1.2427,0.0982,9.7271,0.0018,-0.0009,-0.0011
369,46.57317,-1.115956,83.75,5.97,6.432,158.3,0 / 20,36928,2019-08-18 22:20:26:461,-0.5448,0.0691,9.8654,-1.1909,0.1017,9.7335,0.0028,-0.0041,-0.0021
370,46.57317,-1.115956,83.75,5.97,6.432,158.3,0 / 20,37029,2019-08-18 22:20:26:562,-0.0947,0.2576,9.7661,-1.1366,0.112,9.7399,0.0049,-0.0083,0.0022
371,46.57317,-1.115956,83.75,5.97,6.432,158.3,0 / 20,37129,2019-08-18 22:20:26:662,-0.1599,0.1864,9.778,-1.1004,0.1184,9.744,0.0028,-0.003,0.0
372,46.57317,-1.115956,83.75,5.97,6.432,158.3,0 / 20,37228,2019-08-18 22:20:26:761,-0.5484,0.2612,9.6942,-1.0726,0.1205,9.7471,-0.0025,0.0013,0.0
373,46.57317,-1.115956,83.75,5.97,6.432,158.3,0 / 20,37329,2019-08-18 22:20:26:862,-0.3024,0.1361,9.8726,-1.0485,0.1223,9.7497,-0.0004,-0.0019,0.0011
374,46.57317,-1.115956,83.75,5.97,6.432,158.3,0 / 20,37429,2019-08-18 22:20:26:962,-0.3874,0.2451,9.6488,-0.8997,0.1337,9.7644,-0.0004,0.0013,-0.0011
375,46.57317,-1.115956,83.75,5.97,6.432,158.3,0 / 20,37528,2019-08-18 22:20:27:061,-0.3694,0.1678,9.8469,-0.7979,0.1492,9.773,0.0007,-0.0009,0.0
376,46.57317,-1.115956,83.75,5.97,6.432,158.3,0 / 20,37628,2019-08-18 22:20:27:161,-0.4113,0.2175,9.7637,-0.6754,0.1637,9.782,-0.0014,-0.0009,-0.0011
377,46.57317,-1.115956,83.75,5.97,6.432,158.3,0 / 20,37728,2019-08-18 22:20:27:261,-0.3844,0.1032,9.7493,-0.6183,0.165,9.7857,-0.0004,0.0002,0.0
378,46.57317,-1.115956,83.75,5.97,6.432,158.3,0 / 20,37828,2019-08-18 22:20:27:361,-0.3622,0.2307,9.7128,-0.5463,0.175,9.7899,-0.0014,-0.0009,0.0011
379,46.57317,-1.115956,83.75,5.97,6.432,158.3,0 / 20,37929,2019-08-18 22:20:27:462,-0.3664,0.1655,9.7936,-0.508,0.1792,9.7918,-0.0014,0.0002,-0.0011
380,46.57317,-1.115956,83.75,5.97,6.432,158.3,0 / 20,38029,2019-08-18 22:20:27:562,-0.4041,0.2313,9.7356,-0.4755,0.1845,9.7934,0.0007,-0.0009,0.0011
381,46.57317,-1.115956,83.75,5.97,6.432,158.3,0 / 20,38129,2019-08-18 22:20:27:662,-0.376,0.1224,9.7936,-0.4577,0.1841,9.7942,-0.0004,0.0002,0.0
382,46.57317,-1.115956,83.75,5.97,6.432,158.3,0 / 20,38228,2019-08-18 22:20:27:761,-0.3916,0.2588,9.7062,-0.4389,0.1876,9.795,-0.0004,0.0002,0.0
383,46.57317,-1.115956,83.75,5.97,6.432,158.3,0 / 20,38329,2019-08-18 22:20:27:862,-0.3916,0.1678,9.7775,-0.4288,0.1872,9.7955,0.0007,0.0002,0.0
384,46.57317,-1.115956,83.75,5.97,6.432,158.3,0 / 20,38429,2019-08-18 22:20:27:962,-0.3868,0.2056,9.6685,-0.4164,0.1876,9.796,-0.0004,0.0002,0.0
385,46.57317,-1.115956,83.75,5.97,6.432,158.3,0 / 20,38529,2019-08-18 22:20:28:062,-0.3928,0.1948,9.7439,-0.4114,0.1872,9.7962,-0.0004,-0.0009,0.0
386,46.57317,-1.115956,83.75,5.97,6.432,158.3,0 / 20,38629,2019-08-18 22:20:28:162,-0.3772,0.2032,9.7523,-0.4018,0.19,9.7966,-0.0014,-0.0009,0.0
387,46.57317,-1.115956,83.75,5.97,6.432,158.3,0 / 20,38729,2019-08-18 22:20:28:262,-0.382,0.2079,9.8145,-0.398,0.1938,9.7967,0.0007,0.0002,0.0
388,46.57317,-1.115956,83.75,5.97,6.432,158.3,0 / 20,38829,2019-08-18 22:20:28:362,-0.4131,0.1673,9.8134,-0.3942,0.1918,9.7968,0.0007,-0.0009,0.0
389,46.57317,-1.115956,83.75,5.97,6.432,158.3,0 / 20,38929,2019-08-18 22:20:28:462,-0.3963,0.19,9.7607,-0.3942,0.1906,9.7969,-0.0004,-0.0009,-0.0011
390,46.57317,-1.115956,83.75,5.97,6.432,158.3,0 / 20,39028,2019-08-18 22:20:28:561,0.3051,0.2558,10.1007,-0.3682,0.1943,9.7978,0.0007,-0.0126,0.0011
391,46.57317,-1.115956,83.75,5.97,6.432,158.3,0 / 20,39128,2019-08-18 22:20:28:661,0.0825,0.2594,9.4854,-0.3366,0.1973,9.7989,-0.0004,-0.0126,0.0011
392,46.57317,-1.115956,83.75,5.97,6.432,158.3,0 / 20,39229,2019-08-18 22:20:28:762,0.5984,0.3827,9.9223,-0.2859,0.2033,9.8004,0.0007,-0.0094,0.0032
393,46.57317,-1.115956,83.75,5.97,6.432,158.3,0 / 20,39329,2019-08-18 22:20:28:862,0.766,0.3324,9.7715,-0.2495,0.2076,9.8013,0.0007,-0.0083,0.0043
394,46.57317,-1.115956,83.75,5.97,6.432,158.3,0 / 20,39428,2019-08-18 22:20:28:961,0.7834,0.3624,9.8744,-0.196,0.2162,9.8023,0.0007,-0.0019,0.0053
395,46.57317,-1.115956,83.75,5.97,6.432,158.3,0 / 20,39529,2019-08-18 22:20:29:062,0.7756,0.5168,9.7224,-0.0554,0.2507,9.8033,0.0007,-0.0009,0.016
396,46.57317,-1.115956,83.75,5.97,6.432,158.3,0 / 20,39628,2019-08-18 22:20:29:161,0.7313,0.5611,9.9073,0.1205,0.3122,9.8009,0.0018,-0.0019,0.0235
397,46.57317,-1.115956,83.75,5.97,6.432,158.3,0 / 20,39729,2019-08-18 22:20:29:262,0.7822,0.6192,9.8205,0.315,0.3984,9.7935,-0.0004,0.0002,0.0448
398,46.57317,-1.115956,83.75,5.97,6.432,158.3,0 / 20,39829,2019-08-18 22:20:29:362,0.787,0.7185,9.8469,0.4107,0.4654,9.787,-0.0014,-0.0019,0.0597
399,46.57317,-1.115956,83.75,5.97,6.432,158.3,0 / 20,39929,2019-08-18 22:20:29:462,0.8385,0.6736,9.7056,0.5354,0.529,9.7777,-0.0046,-0.003,0.0778
400,46.57317,-1.115956,83.75,5.97,6.432,158.3,0 / 20,40029,2019-08-18 22:20:29:562,0.8516,0.6796,9.7272,0.6055,0.5494,9.7725,-0.0025,-0.0019,0.0884
