,GPS LATITUDE (degrees),GPS LONGITUDE (degrees), GPS ALTITUDE (m),GPS SPEED (Kmh),GPS ACCURACY (m),GPS ORIENTATION (Â°), SATELLITES IN RANGE, TIME SINCE START (ms), DATE (YYYY-MO-DD HH-MI-SS_SSS),ACCELEROMETER X (m/s²) , ACCELEROMETER Y (m/s²), ACCELEROMETER Z (m/s²), GRAVITY X (m/s²), GRAVITY Y (m/s²), GRAVITY Z (m/s²), GYROSCOPE Yaw (rad/s), GYROSCOPE Pitch (rad/s), GYROSCOPE Roll (rad/s)
63268,45.760357,0.007687,137.69,19.66,16.08,82.2,0 / 18,6326746,2019-08-19 00:05:16:279,-0.3676,-0.5217,10.0109,-0.3238,0.2541,9.798,0.0135,0.0045,-0.0426
63269,45.760357,0.007687,137.69,19.66,16.08,82.2,0 / 18,6326846,2019-08-19 00:05:16:379,-0.561,-0.6354,9.7936,-0.3554,0.1719,9.7987,0.0188,0.0023,-0.0383
63270,45.760357,0.007687,137.69,19.66,16.08,82.2,0 / 18,6326945,2019-08-19 00:05:16:478,-0.522,-0.2242,9.7984,-0.3981,0.0732,9.7983,0.0135,0.0023,-0.0341
63271,45.760357,0.007687,137.69,19.66,16.08,82.2,0 / 18,6327045,2019-08-19 00:05:16:578,-0.5843,-0.4199,9.7751,-0.4565,-0.0499,9.7959,0.0081,-0.0094,-0.0362
63272,45.760357,0.007687,137.69,19.66,16.08,82.2,0 / 18,6327145,2019-08-19 00:05:16:678,-0.5951,-0.3026,9.7457,-0.4831,-0.0971,9.7943,0.0092,-0.003,-0.0351
63273,45.760357,0.007687,137.69,19.66,16.08,82.2,0 / 18,6327245,2019-08-19 00:05:16:778,-0.856,-0.2434,9.7218,-0.5446,-0.1454,9.7904,0.0135,0.013,-0.0319
63274,45.760357,0.007687,137.69,19.66,16.08,82.2,0 / 18,6327345,2019-08-19 00:05:16:878,-0.543,-0.1494,9.4123,-0.5943,-0.148,9.7875,0.0188,0.0226,-0.0277
63275,45.760357,0.007687,137.69,19.66,16.08,82.2,0 / 18,6327446,2019-08-19 00:05:16:979,-0.8303,-0.1374,9.4949,-0.623,-0.1459,9.7858,0.0231,0.014,-0.0298
63276,45.760357,0.007687,137.69,19.66,16.08,82.2,0 / 18,6327545,2019-08-19 00:05:17:078,-0.7238,-0.3104,9.4476,-0.6918,-0.1535,9.781,0.0337,0.0194,-0.0287
63277,45.760357,0.007687,137.69,19.66,16.08,82.2,0 / 18,6327645,2019-08-19 00:05:17:178,-0.8369,-0.0788,9.4028,-0.7165,-0.1403,9.7794,0.0081,0.0119,-0.0298
63278,45.760357,0.007687,137.69,19.66,16.08,82.2,0 / 18,6327746,2019-08-19 00:05:17:279,-0.9961,-0.1135,9.4291,-0.7499,-0.1326,9.777,0.006,0.0076,-0.0298
63279,45.760357,0.007687,137.69,19.66,16.08,82.2,0 / 18,6327846,2019-08-19 00:05:17:379,-0.6591,-0.1141,9.2657,-0.7711,-0.1273,9.7755,-0.0068,0.0066,-0.0309
63280,45.760357,0.007687,137.69,19.66,16.08,82.2,0 / 18,6327946,2019-08-19 00:05:17:479,-0.7621,-0.15,10.1025,-0.7966,-0.1419,9.7732,-0.0057,0.0119,-0.0298
63281,45.760357,0.007687,137.69,19.66,16.08,82.2,0 / 18,6328045,2019-08-19 00:05:17:578,-0.88,-0.2146,10.2036,-0.8039,-0.1538,9.7724,-0.0078,-0.0073,-0.0309
63282,45.760357,0.007687,137.69,19.66,16.08,82.2,0 / 18,6328145,2019-08-19 00:05:17:678,-0.8339,-0.2027,9.6021,-0.8002,-0.1766,9.7724,-0.01,0.0002,-0.0319
63283,45.760357,0.007687,137.69,19.66,16.08,82.2,0 / 18,6328245,2019-08-19 00:05:17:778,-0.8351,-0.4541,9.1807,-0.7951,-0.1964,9.7724,-0.0068,0.0162,-0.0319
63284,45.760357,0.007687,137.69,19.66,16.08,82.2,0 / 18,6328345,2019-08-19 00:05:17:878,-0.6813,-0.0883,10.048,-0.8009,-0.2069,9.7717,-0.0164,0.0119,-0.033
63285,45.760357,0.007687,137.69,19.66,16.08,82.2,0 / 18,6328446,2019-08-19 00:05:17:979,-0.5987,-0.4235,9.8451,-0.7977,-0.2159,9.7718,0.0007,0.0034,-0.033
63286,45.760357,0.007687,137.69,19.66,16.08,82.2,0 / 18,6328546,2019-08-19 00:05:18:079,-0.5352,-0.4433,9.231,-0.8076,-0.2245,9.7708,0.0028,0.0247,-0.0341
63287,45.760357,0.007687,137.69,19.66,16.08,82.2,0 / 18,6328646,2019-08-19 00:05:18:179,-0.5059,-0.2452,8.5845,-0.8191,-0.2278,9.7697,0.0007,0.0236,-0.0341
63288,45.760357,0.007687,137.69,19.66,16.08,82.2,0 / 18,6328746,2019-08-19 00:05:18:279,-0.5735,-0.4104,9.6679,-0.8213,-0.2142,9.7699,0.0199,0.0183,-0.0341
63289,45.760357,0.007687,137.69,19.66,16.08,82.2,0 / 18,6328846,2019-08-19 00:05:18:379,-0.1719,-0.3116,9.6098,-0.8265,-0.2014,9.7697,0.0241,0.0119,-0.0319
63290,45.760357,0.007687,137.69,19.66,16.08,82.2,0 / 18,6328946,2019-08-19 00:05:18:479,-0.3688,-0.1159,9.6607,-0.8108,-0.1777,9.7715,0.0263,-0.0009,-0.0341
63291,45.760357,0.007687,137.69,19.66,16.08,82.2,0 / 18,6329045,2019-08-19 00:05:18:578,-0.4179,-0.3541,9.951,-0.7913,-0.1659,9.7733,0.0209,-0.0115,-0.0351
63292,45.760357,0.007687,137.69,19.66,16.08,82.2,0 / 18,6329145,2019-08-19 00:05:18:678,-0.4873,-0.4056,9.6098,-0.7693,-0.1749,9.7749,-0.0014,0.0045,-0.0458
63293,45.760357,0.007687,137.69,19.66,16.08,82.2,0 / 18,6329246,2019-08-19 00:05:18:779,-0.3616,-0.1506,9.8798,-0.7283,-0.1996,9.7775,0.0018,0.0076,-0.05
63294,45.760357,0.007687,137.69,19.66,16.08,82.2,0 / 18,6329345,2019-08-19 00:05:18:878,-0.4233,-0.4193,9.5291,-0.7262,-0.2282,9.7771,-0.0132,0.0172,-0.049
63295,45.760357,0.007687,137.69,19.66,16.08,82.2,0 / 18,6329445,2019-08-19 00:05:18:978,-0.3215,-0.5552,9.2723,-0.7273,-0.2445,9.7766,-0.0025,0.0172,-0.0522
63296,45.760357,0.007687,137.69,19.66,16.08,82.2,0 / 18,6329546,2019-08-19 00:05:19:079,-0.5113,-0.6198,9.0963,-0.7367,-0.273,9.7751,-0.0004,0.0194,-0.0671
63297,45.760357,0.007687,137.69,19.66,16.08,82.2,0 / 18,6329646,2019-08-19 00:05:19:179,-0.3874,-0.9742,9.5374,-0.7416,-0.2985,9.774,0.0039,0.0172,-0.0735
63298,45.760357,0.007687,137.69,19.66,16.08,82.2,0 / 18,6329745,2019-08-19 00:05:19:278,-0.4981,-1.1298,9.6559,-0.7199,-0.3788,9.7729,0.0231,0.014,-0.0724
63299,45.760357,0.007687,137.69,19.66,16.08,82.2,0 / 18,6329846,2019-08-19 00:05:19:379,-0.5095,-0.8712,10.0043,-0.693,-0.4421,9.7721,0.0156,-0.0009,-0.0703
63300,45.760357,0.007687,137.69,19.66,16.08,82.2,0 / 18,6329946,2019-08-19 00:05:19:479,-0.6196,-0.6192,10.0426,-0.6739,-0.4489,9.7732,0.0103,-0.0094,-0.0692
63301,45.760357,0.007687,137.69,19.66,16.08,82.2,0 / 18,6330045,2019-08-19 00:05:19:578,-0.8393,-1.0269,9.9995,-0.6619,-0.4617,9.7734,0.0113,-0.0062,-0.0682
63302,45.760357,0.007687,137.69,19.66,16.08,82.2,0 / 18,6330145,2019-08-19 00:05:19:678,-0.9309,-0.736,9.9325,-0.6761,-0.4685,9.7721,0.0124,0.0076,-0.0692
63303,45.760357,0.007687,137.69,19.66,16.08,82.2,0 / 18,6330245,2019-08-19 00:05:19:778,-0.6513,-0.9844,9.8116,-0.6651,-0.468,9.7729,0.0231,-0.0147,-0.0692
63304,45.760357,0.007687,137.69,19.66,16.08,82.2,0 / 18,6330346,2019-08-19 00:05:19:879,-0.6244,-0.8192,10.0689,-0.6423,-0.5438,9.7705,0.0167,-0.003,-0.0682
63305,45.760357,0.007687,137.69,19.66,16.08,82.2,0 / 18,6330445,2019-08-19 00:05:19:978,-0.6196,-0.8665,9.8618,-0.6181,-0.619,9.7676,0.0252,0.0023,-0.0692
63306,45.760357,0.007687,137.69,19.66,16.08,82.2,0 / 18,6330545,2019-08-19 00:05:20:078,0.0591,-0.718,9.6811,-0.6015,-0.6261,9.7681,0.0231,0.0013,-0.0692
63307,45.760357,0.007687,137.69,19.66,16.08,82.2,0 / 18,6330645,2019-08-19 00:05:20:178,-0.6597,-0.6031,9.9702,-0.6071,-0.6116,9.7687,0.0273,0.014,-0.0714
63308,45.760357,0.007687,137.69,19.66,16.08,82.2,0 / 18,6330746,2019-08-19 00:05:20:279,-0.4353,-0.8778,9.6733,-0.5977,-0.6106,9.7694,0.0188,0.0023,-0.0692
63309,45.760357,0.007687,137.69,19.66,16.08,82.2,0 / 18,6330846,2019-08-19 00:05:20:379,-0.8752,-0.6516,9.6356,-0.5923,-0.5985,9.7704,0.0273,-0.0009,-0.0703
63310,45.760357,0.007687,137.69,19.66,16.08,82.2,0 / 18,6330945,2019-08-19 00:05:20:478,-0.4041,-0.6599,9.9091,-0.5759,-0.5914,9.7718,0.0092,-0.0105,-0.0703
63311,45.760357,0.007687,137.69,19.66,16.08,82.2,0 / 18,6331046,2019-08-19 00:05:20:579,-0.5669,-0.9107,9.9115,-0.5551,-0.6028,9.7724,0.0231,-0.0094,-0.0692
63312,45.760357,0.007687,137.69,19.66,16.08,82.2,0 / 18,6331145,2019-08-19 00:05:20:678,-0.4496,-0.5558,9.6128,-0.5513,-0.6276,9.771,0.0028,0.0002,-0.0714
63313,45.760357,0.007687,137.69,19.66,16.08,82.2,0 / 18,6331246,2019-08-19 00:05:20:779,-0.7956,-0.4367,9.6308,-0.591,-0.642,9.7678,0.0209,0.0279,-0.0692
63314,45.760357,0.007687,137.69,19.66,16.08,82.2,0 / 18,6331346,2019-08-19 00:05:20:879,-0.6549,-0.8539,9.4883,-0.6151,-0.6354,9.7667,0.0263,0.0215,-0.066
63315,45.760357,0.007687,137.69,19.66,16.08,82.2,Nov-18,6331445,2019-08-19 00:05:20:978,-0.555,-0.6354,9.7176,-0.6151,-0.6164,9.7679,0.0284,-0.0073,-0.0682
63316,45.760357,0.007687,137.69,19.66,16.08,82.2,Nov-18,6331546,2019-08-19 00:05:21:079,-0.8794,-0.8623,10.0109,-0.6,-0.5875,9.7706,0.0348,-0.0147,-0.0692
63317,45.760357,0.007687,137.69,19.66,16.08,82.2,Nov-18,6331645,2019-08-19 00:05:21:178,-0.6256,-0.6851,10.0809,-0.5759,-0.583,9.7723,0.0081,-0.0211,-0.0703
63318,45.760357,0.007687,137.69,19.66,16.08,82.2,Nov-18,6331746,2019-08-19 00:05:21:279,-0.6304,-0.6671,9.8996,-0.5702,-0.5953,9.7719,-0.0153,0.0013,-0.0692
63319,45.760357,0.007687,137.69,19.66,16.08,82.2,Nov-18,6331847,2019-08-19 00:05:21:380,-0.7028,-0.3355,9.553,-0.562,-0.6212,9.7708,-0.0313,-0.0115,-0.0703
63320,45.760357,0.007687,137.69,19.66,16.08,82.2,Nov-18,6331946,2019-08-19 00:05:21:479,-0.7076,-0.6599,9.8241,-0.5476,-0.6431,9.7702,-0.0217,-0.0243,-0.0692
63321,45.760357,0.007687,137.69,19.66,16.08,82.2,Nov-18,6332046,2019-08-19 00:05:21:579,-0.4652,-0.5181,9.7942,-0.5213,-0.6661,9.7701,-0.0291,-0.019,-0.0714
63322,45.760357,0.007687,137.69,19.66,16.08,82.2,Nov-18,6332146,2019-08-19 00:05:21:679,-0.4915,-1.0137,9.1346,-0.5155,-0.7149,9.767,-0.0345,0.0151,-0.0799
63323,45.760357,0.007687,137.69,19.66,16.08,82.2,Nov-18,6332245,2019-08-19 00:05:21:778,-0.1881,-1.1154,9.3525,-0.5331,-0.7529,9.7632,-0.0025,0.0311,-0.0852
63324,45.760357,0.007687,137.69,19.66,16.08,82.2,Nov-18,6332345,2019-08-19 00:05:21:878,-0.388,-1.2262,8.8808,-0.5477,-0.7637,9.7615,0.0145,0.0332,-0.0831
63325,45.760357,0.007687,137.69,19.66,16.08,82.2,Nov-18,6332447,2019-08-19 00:05:21:980,-0.3425,-1.0287,9.7918,-0.5409,-0.7608,9.7621,0.0252,-0.003,-0.082
63326,45.760357,0.007687,137.69,19.66,16.08,82.2,Nov-18,6332546,2019-08-19 00:05:22:079,-0.4532,-0.9742,10.0707,-0.5234,-0.7554,9.7635,0.0284,-0.0158,-0.0777
63327,45.760357,0.007687,137.69,19.66,16.08,82.2,Nov-18,6332646,2019-08-19 00:05:22:179,-0.4005,-0.8437,10.2808,-0.4919,-0.7309,9.767,0.0316,-0.0147,-0.0682
63328,45.760357,0.007687,137.69,19.66,16.08,82.2,Nov-18,6332746,2019-08-19 00:05:22:279,-0.5197,-0.5869,10.1348,-0.4804,-0.7209,9.7683,0.0113,-0.0051,-0.066
63329,45.760357,0.007687,137.69,19.66,16.08,82.2,Nov-18,6332845,2019-08-19 00:05:22:378,-0.4987,-0.7132,9.9492,-0.4568,-0.7059,9.7705,0.0124,-0.0222,-0.0692
63330,45.760357,0.007687,137.69,19.66,16.08,82.2,Nov-18,6332946,2019-08-19 00:05:22:479,-0.6071,-0.5444,9.9409,-0.4455,-0.7034,9.7712,-0.0004,-0.0126,-0.0703
63331,45.760357,0.007687,137.69,19.66,16.08,82.2,Nov-18,6333046,2019-08-19 00:05:22:579,-0.5508,-0.7288,9.978,-0.4309,-0.7128,9.7712,-0.0004,-0.0105,-0.0692
63332,45.760357,0.007687,137.69,19.66,16.08,82.2,Nov-18,6333146,2019-08-19 00:05:22:679,-0.5675,-1.0418,9.7326,-0.4584,-0.753,9.7669,-0.0164,-0.0009,-0.0692
63333,45.760357,0.007687,137.69,19.66,16.08,82.2,Nov-18,6333246,2019-08-19 00:05:22:779,-0.643,-0.7336,9.9486,-0.4673,-0.7709,9.7651,-0.0089,0.0066,-0.0692
63334,45.760357,0.007687,137.69,19.66,16.08,82.2,Nov-18,6333345,2019-08-19 00:05:22:878,-1.0051,-0.8599,9.4111,-0.4794,-0.7793,9.7639,-0.0004,0.0108,-0.0682
63335,45.760357,0.007687,137.69,19.66,16.08,82.2,Nov-18,6333445,2019-08-19 00:05:22:978,-0.6831,-0.9748,9.617,-0.4937,-0.7513,9.7654,0.0348,-0.0041,-0.0575
63336,45.760357,0.007687,137.69,19.66,16.08,82.2,Nov-18,6333546,2019-08-19 00:05:23:079,-0.8016,-0.572,10.0157,-0.4907,-0.7238,9.7676,0.038,-0.0105,-0.049
63337,45.760357,0.007687,137.69,19.66,16.08,82.2,Nov-18,6333646,2019-08-19 00:05:23:179,-0.7339,-0.5079,9.5919,-0.4952,-0.692,9.7697,0.0145,-0.0019,-0.0479
63338,45.760357,0.007687,137.69,19.66,16.08,82.2,Nov-18,6333745,2019-08-19 00:05:23:278,-0.8854,-0.3595,9.6948,-0.5066,-0.6739,9.7703,0.0103,0.0034,-0.049
63339,45.760357,0.007687,137.69,19.66,16.08,82.2,Nov-18,6333845,2019-08-19 00:05:23:378,-0.7914,-0.1153,9.8062,-0.5204,-0.6579,9.7707,-0.0025,-0.0009,-0.05
63340,45.760357,0.007687,137.69,19.66,16.08,82.2,Nov-18,6333946,2019-08-19 00:05:23:479,-0.9045,-0.3894,10.0312,-0.5829,-0.6005,9.7709,0.0039,-0.0115,-0.049
63341,45.760357,0.007687,137.69,19.66,16.08,82.2,Nov-18,6334046,2019-08-19 00:05:23:579,-0.8165,-0.5372,9.7308,-0.6013,-0.5517,9.7726,0.0167,-0.0115,-0.05
63342,45.760357,0.007687,137.69,19.66,16.08,82.2,Nov-18,6334145,2019-08-19 00:05:23:678,-0.9147,-0.2978,9.6913,-0.6118,-0.5429,9.7725,0.006,0.013,-0.049
63343,45.760357,0.007687,137.69,19.66,16.08,82.2,Nov-18,6334246,2019-08-19 00:05:23:779,-0.9237,-0.3894,9.2148,-0.6434,-0.5403,9.7706,-0.0004,0.0194,-0.0511
63344,45.760357,0.007687,137.69,19.66,16.08,82.2,Nov-18,6334345,2019-08-19 00:05:23:878,-0.8429,-0.3876,9.7733,-0.661,-0.5331,9.7698,0.0103,0.013,-0.0511
63345,45.760357,0.007687,137.69,19.66,16.08,82.2,Nov-18,6334446,2019-08-19 00:05:23:979,-0.862,-0.621,9.8571,-0.7193,-0.4947,9.7677,0.0071,-0.0009,-0.05
63346,45.760357,0.007687,137.69,19.66,16.08,82.2,Nov-18,6334545,2019-08-19 00:05:24:078,-1.0099,-0.7348,9.392,-0.7405,-0.4804,9.7668,0.022,-0.0051,-0.05
63347,45.760357,0.007687,137.69,19.66,16.08,82.2,Nov-18,6334645,2019-08-19 00:05:24:178,-0.8842,-0.2517,9.6182,-0.7743,-0.4605,9.7652,-0.0014,0.0013,-0.049
63348,45.760357,0.007687,137.69,19.66,16.08,82.2,Nov-18,6334745,2019-08-19 00:05:24:278,-0.9746,-0.1272,9.9803,-0.8194,-0.4469,9.7621,-0.011,-0.0019,-0.049
63349,45.760357,0.007687,137.69,19.66,16.08,82.2,Nov-18,6334845,2019-08-19 00:05:24:378,-1.0847,-0.2039,9.5464,-0.8169,-0.4405,9.7626,0.0071,-0.0094,-0.05
63350,45.760357,0.007687,137.69,19.66,16.08,82.2,Nov-18,6334946,2019-08-19 00:05:24:479,-1.2158,-0.3194,9.228,-0.8181,-0.435,9.7628,0.0113,-0.0105,-0.0447
63351,45.760357,0.007687,137.69,19.66,16.08,82.2,Nov-18,6335046,2019-08-19 00:05:24:579,-0.9644,-0.451,10.039,-0.8197,-0.4274,9.763,0.0092,-0.0062,-0.0437
63352,45.760357,0.007687,137.69,19.66,16.08,82.2,Nov-18,6335146,2019-08-19 00:05:24:679,-1.0129,-0.0093,9.5644,-0.8229,-0.4137,9.7633,0.0135,-0.0019,-0.0426
63353,45.760357,0.007687,137.69,19.66,16.08,82.2,Nov-18,6335246,2019-08-19 00:05:24:779,-1.2601,-0.2284,9.6901,-0.8565,-0.3845,9.7616,0.0177,-0.0009,-0.0415
63354,45.760357,0.007687,137.69,19.66,16.08,82.2,Nov-18,6335346,2019-08-19 00:05:24:879,-1.1392,-0.3541,10.0181,-0.9088,-0.3426,9.7584,0.0188,-0.0083,-0.0415
63355,45.760357,0.007687,137.69,19.66,16.08,82.2,Nov-18,6335446,2019-08-19 00:05:24:979,-1.0141,-0.2505,9.7978,-0.9323,-0.3155,9.7571,0.0156,-0.0126,-0.0405
63356,45.760357,0.007687,137.69,19.66,16.08,82.2,Nov-18,6335546,2019-08-19 00:05:25:079,-1.0602,-0.0153,10.0025,-0.9655,-0.271,9.7552,0.0028,-0.0062,-0.0383
63357,45.760357,0.007687,137.69,19.66,16.08,82.2,Nov-18,6335646,2019-08-19 00:05:25:179,-1.0727,-0.0518,9.5967,-0.9848,-0.2454,9.754,-0.0036,-0.0041,-0.0394
63358,45.760357,0.007687,137.69,19.66,16.08,82.2,Nov-18,6335746,2019-08-19 00:05:25:279,-0.95,-0.2164,9.881,-0.9916,-0.2252,9.7538,-0.0142,0.0023,-0.0405
63359,45.760357,0.007687,137.69,19.66,16.08,82.2,Nov-18,6335845,2019-08-19 00:05:25:378,-0.9027,0.1092,9.7475,-0.9732,-0.2008,9.7562,-0.0142,-0.0041,-0.0383
63360,45.760357,0.007687,137.69,19.66,16.08,82.2,Nov-18,6335946,2019-08-19 00:05:25:479,-0.9602,0.1044,9.2693,-0.9518,-0.1765,9.7588,-0.0121,-0.0062,-0.0362
63361,45.760357,0.007687,137.69,19.66,16.08,82.2,Nov-18,6336046,2019-08-19 00:05:25:579,-0.8447,-0.1111,9.6428,-0.9396,-0.1712,9.76,-0.0036,-0.0041,-0.0341
63362,45.760357,0.007687,137.69,19.66,16.08,82.2,Nov-18,6336146,2019-08-19 00:05:25:679,-1.0027,0.1176,10.2126,-0.9248,-0.1494,9.7618,-0.0057,-0.0115,-0.0287
63363,45.760357,0.007687,137.69,19.66,16.08,82.2,Nov-18,6336246,2019-08-19 00:05:25:779,-1.053,0.0266,9.8642,-0.9312,-0.1368,9.7614,0.0018,-0.0083,-0.0287
63364,45.760357,0.007687,137.69,19.66,16.08,82.2,Nov-18,6336345,2019-08-19 00:05:25:878,-1.0308,0.0541,9.6128,-0.9261,-0.1057,9.7623,0.006,-0.0158,-0.0287
63365,45.760357,0.007687,137.69,19.66,16.08,82.2,Nov-18,6336446,2019-08-19 00:05:25:979,-0.9931,0.1685,9.8547,-0.9271,-0.0599,9.7625,0.0135,-0.003,-0.0245
63366,45.760357,0.007687,137.69,19.66,16.08,82.2,Nov-18,6336545,2019-08-19 00:05:26:078,-1.053,0.1631,9.547,-0.9427,-0.0296,9.7612,0.0081,0.0066,-0.0234
63367,45.760357,0.007687,137.69,19.66,16.08,82.2,Nov-18,6336646,2019-08-19 00:05:26:179,-0.9416,0.1744,9.6278,-0.9514,-0.0201,9.7604,0.0071,0.0098,-0.0224
63368,45.760357,0.007687,137.69,19.66,16.08,82.2,Nov-18,6336746,2019-08-19 00:05:26:279,-0.9847,0.1397,9.7403,-0.9688,-0.0069,9.7587,0.0113,0.014,-0.0224
63369,45.760357,0.007687,137.69,19.66,16.08,82.2,Nov-18,6336846,2019-08-19 00:05:26:379,-0.9416,0.2642,9.7655,-0.9783,0.0299,9.7577,0.0177,0.0023,-0.0192
63370,45.760357,0.007687,137.69,19.66,16.08,82.2,Nov-18,6336946,2019-08-19 00:05:26:479,-1.0308,0.2433,10.23,-0.9877,0.1045,9.7562,0.0305,-0.0073,-0.016
63371,45.760357,0.007687,137.69,19.66,16.08,82.2,Nov-18,6337046,2019-08-19 00:05:26:579,-0.938,0.3163,9.5572,-0.9704,0.1366,9.7576,0.0231,-0.0211,-0.016
63372,45.760357,0.007687,137.69,19.66,16.08,82.2,Nov-18,6337145,2019-08-19 00:05:26:678,-0.8381,0.2852,10.0372,-0.9489,0.1567,9.7594,0.0049,-0.0094,-0.016
63373,45.760357,0.007687,137.69,19.66,16.08,82.2,Nov-18,6337245,2019-08-19 00:05:26:778,-0.9674,0.4725,10.1587,-0.9478,0.17,9.7593,0.0081,0.0002,-0.0149
63374,45.760357,0.007687,137.69,19.66,16.08,82.2,Nov-18,6337345,2019-08-19 00:05:26:878,-0.9434,0.4755,10.0594,-0.9503,0.2383,9.7576,0.0156,-0.0062,-0.0128
63375,45.760357,0.007687,137.69,19.66,16.08,82.2,Nov-18,6337445,2019-08-19 00:05:26:978,-1.0452,0.3103,10.2695,-0.9518,0.2639,9.7568,-0.0068,-0.0062,-0.016
63376,45.760357,0.007687,137.69,19.66,16.08,82.2,Nov-18,6337545,2019-08-19 00:05:27:078,-1.0195,0.2894,9.7337,-0.9569,0.2786,9.7559,-0.0174,-0.0094,-0.017
63377,45.760357,0.007687,137.69,19.66,16.08,82.2,Nov-18,6337645,2019-08-19 00:05:27:178,-1.0212,0.5797,9.5087,-0.9616,0.2915,9.755,-0.0462,-0.0041,-0.016
63378,45.760357,0.007687,137.69,19.66,16.08,82.2,Nov-18,6337745,2019-08-19 00:05:27:278,-0.871,0.3331,9.5943,-0.9632,0.2941,9.7548,-0.0302,-0.0094,-0.0149
63379,45.760357,0.007687,137.69,19.66,16.08,82.2,Nov-18,6337845,2019-08-19 00:05:27:378,-0.9955,0.1194,9.799,-0.9708,0.2895,9.7542,-0.011,-0.0041,-0.0128
63380,45.760357,0.007687,137.69,19.66,16.08,82.2,Nov-18,6337945,2019-08-19 00:05:27:478,-1.0254,0.3648,9.532,-0.9804,0.3086,9.7526,-0.0068,0.0023,-0.0042
63381,45.760357,0.007687,137.69,19.66,16.08,82.2,Nov-18,6338045,2019-08-19 00:05:27:578,-0.9315,0.3743,9.5003,-0.9937,0.3505,9.7499,-0.0068,0.0023,0.0022
63382,45.760357,0.007687,137.69,19.66,16.08,82.2,Nov-18,6338146,2019-08-19 00:05:27:679,-1.0075,0.6754,9.9223,-1.0141,0.4373,9.7443,0.0103,0.0119,0.0064
63383,45.760357,0.007687,137.69,19.66,16.08,82.2,Nov-18,6338246,2019-08-19 00:05:27:779,-1.0003,0.7814,9.7697,-1.0209,0.4617,9.7424,0.0039,-0.0051,0.0128
63384,45.760357,0.007687,137.69,19.66,16.08,82.2,Nov-18,6338346,2019-08-19 00:05:27:879,-0.9327,0.8017,9.9504,-1.011,0.4789,9.7426,-0.0036,-0.0051,0.0128
63385,45.760357,0.007687,137.69,19.66,16.08,82.2,Nov-18,6338445,2019-08-19 00:05:27:978,-1.2056,0.9741,9.7906,-1.0144,0.4872,9.7419,-0.0046,0.0055,0.0139
63386,45.760357,0.007687,137.69,19.66,16.08,82.2,Nov-18,6338545,2019-08-19 00:05:28:078,-1.0763,0.5503,9.5159,-1.0305,0.5689,9.7357,0.006,0.0055,0.0107
63387,45.760357,0.007687,137.69,19.66,16.08,82.2,Nov-18,6338645,2019-08-19 00:05:28:178,-1.108,0.4534,9.6613,-1.0272,0.602,9.7341,0.0018,-0.0126,0.0075
63388,45.760357,0.007687,137.69,19.66,16.08,82.2,Nov-18,6338746,2019-08-19 00:05:28:279,-1.0051,0.6772,9.5452,-1.0191,0.6151,9.7341,0.0145,-0.0083,0.0053
63389,45.760357,0.007687,137.69,19.66,16.08,82.2,Nov-18,6338845,2019-08-19 00:05:28:378,-0.9297,0.5114,9.3854,-1.0205,0.6184,9.7338,0.0007,0.0076,0.0053
63390,45.760357,0.007687,137.69,19.66,16.08,82.2,Nov-18,6338945,2019-08-19 00:05:28:478,-0.9704,0.4539,9.3992,-1.0341,0.6214,9.7322,0.0028,0.0098,0.0011
63391,45.760357,0.007687,137.69,19.66,16.08,82.2,Nov-18,6339045,2019-08-19 00:05:28:578,-0.9632,0.5976,9.5278,-1.0401,0.6052,9.7325,-0.0036,0.0076,-0.0032
63392,45.760357,0.007687,137.69,19.66,16.08,82.2,Nov-18,6339145,2019-08-19 00:05:28:678,-1.0117,0.2726,9.6589,-1.0441,0.5849,9.7334,0.0124,0.0076,-0.0064
63393,45.760357,0.007687,137.69,19.66,16.08,82.2,Nov-18,6339245,2019-08-19 00:05:28:778,-0.9524,0.3426,9.562,-1.0336,0.5414,9.737,-0.01,-0.0019,-0.0042
63394,45.760357,0.007687,137.69,19.66,16.08,82.2,Nov-18,6339345,2019-08-19 00:05:28:878,-1.196,0.4713,9.5799,-1.0359,0.5478,9.7364,-0.0068,0.0055,-0.0053
63395,45.760357,0.007687,137.69,19.66,16.08,82.2,Nov-18,6339445,2019-08-19 00:05:28:978,-0.9494,0.3582,9.5207,-1.0249,0.5248,9.7388,-0.0025,-0.0105,-0.0053
63396,45.760357,0.007687,137.69,19.66,16.08,82.2,Nov-18,6339546,2019-08-19 00:05:29:079,-0.9446,0.3504,10.0474,-1.0093,0.4977,9.7419,-0.0153,-0.0051,-0.0042
63397,45.760357,0.007687,137.69,19.66,16.08,82.2,Nov-18,6339646,2019-08-19 00:05:29:179,-1.0398,0.3851,9.4506,-1.0115,0.474,9.7428,-0.0057,0.0023,-0.0042
63398,45.760357,0.007687,137.69,19.66,16.08,82.2,Nov-18,6339745,2019-08-19 00:05:29:278,-1.0123,0.3498,9.4201,-1.0113,0.4504,9.744,-0.0185,0.0055,-0.0053
63399,45.760357,0.007687,137.69,19.66,16.08,82.2,Nov-18,6339846,2019-08-19 00:05:29:379,-0.9009,0.3007,10.1862,-1.011,0.4376,9.7446,-0.0121,-0.0051,-0.0053
63400,45.760357,0.007687,137.69,19.66,16.08,82.2,Nov-18,6339945,2019-08-19 00:05:29:478,-1.2427,0.3169,9.7481,-1.0263,0.4381,9.743,-0.01,-0.0115,-0.0042
63401,45.760357,0.007687,137.69,19.66,16.08,82.2,Nov-18,6340045,2019-08-19 00:05:29:578,-1.0805,0.1086,9.9211,-1.0251,0.4235,9.7437,-0.0078,-0.0083,-0.0042
63402,45.760357,0.007687,137.69,19.66,16.08,82.2,Nov-18,6340146,2019-08-19 00:05:29:679,-1.0242,0.0924,10.051,-1.012,0.425,9.745,0.0145,-0.0126,-0.0042
63403,45.760357,0.007687,137.69,19.66,16.08,82.2,Nov-18,6340245,2019-08-19 00:05:29:778,-1.1571,0.5024,10.1432,-0.9974,0.4196,9.7468,-0.0046,-0.0179,-0.0032
63404,45.760357,0.007687,137.69,19.66,16.08,82.2,Nov-18,6340345,2019-08-19 00:05:29:878,-1.0985,0.3408,10.039,-0.9927,0.4059,9.7478,-0.0185,-0.0051,-0.0042
63405,45.760357,0.007687,137.69,19.66,16.08,82.2,Oct-18,6340446,2019-08-19 00:05:29:979,-1.0853,0.4127,9.4931,-0.9949,0.3754,9.7488,-0.0355,-0.0019,-0.0064
63406,45.760357,0.007687,137.69,19.66,16.08,82.2,Oct-18,6340545,2019-08-19 00:05:30:078,-1.2469,0.3636,9.532,-1.0151,0.3757,9.7467,-0.0132,-0.0083,-0.0074
63407,45.760357,0.007687,137.69,19.66,16.08,82.2,Oct-18,6340645,2019-08-19 00:05:30:178,-0.9698,0.0212,9.6889,-1.019,0.3421,9.7476,-0.0132,-0.0094,-0.0064
63408,45.760357,0.007687,137.69,19.66,16.08,82.2,Oct-18,6340745,2019-08-19 00:05:30:278,-1.0548,0.187,10.0258,-1.0212,0.3237,9.748,0.0071,-0.0009,-0.0053
63409,45.760357,0.007687,137.69,19.66,16.08,82.2,Oct-18,6340845,2019-08-19 00:05:30:378,-1.105,0.2582,9.896,-1.0071,0.3252,9.7494,-0.0014,-0.0179,-0.0042
63410,45.760357,0.007687,137.69,19.66,16.08,82.2,Oct-18,6340945,2019-08-19 00:05:30:478,-1.0925,0.2923,9.9139,-1.001,0.3145,9.7504,-0.0153,-0.0115,-0.0053
63411,45.760357,0.007687,137.69,19.66,16.08,82.2,Oct-18,6341046,2019-08-19 00:05:30:579,-1.1134,0.363,10.0929,-1.0214,0.3057,9.7485,-0.01,-0.0019,-0.0053
63412,45.760357,0.007687,137.69,19.66,16.08,82.2,Oct-18,6341145,2019-08-19 00:05:30:678,-1.132,0.4222,9.6697,-1.0458,0.2991,9.7461,-0.0078,-0.0009,-0.0074
63413,45.760357,0.007687,137.69,19.66,16.08,82.2,Oct-18,6341246,2019-08-19 00:05:30:779,-0.968,-0.0201,9.7212,-1.0533,0.2777,9.746,0.0135,0.0013,-0.0042
63414,45.760357,0.007687,137.69,19.66,16.08,82.2,Oct-18,6341346,2019-08-19 00:05:30:879,-1.1314,0.129,9.8936,-1.0646,0.2667,9.745,0.0103,-0.0041,-0.0053
63415,45.759647,0.012069,138.19,18.79,12.864,116.0,0 / 18,6341445,2019-08-19 00:05:30:978,-1.1074,0.3085,9.5656,-1.0673,0.2671,9.7447,0.0209,0.0013,-0.0042
63416,45.759647,0.012069,138.19,18.79,12.864,116.0,0 / 18,6341545,2019-08-19 00:05:31:078,-0.8794,0.3462,10.0025,-1.0531,0.2726,9.7461,0.006,-0.0009,-0.0053
63417,45.759647,0.012069,138.19,18.79,12.864,116.0,0 / 18,6341646,2019-08-19 00:05:31:179,-0.9997,0.0876,9.5656,-1.0363,0.3126,9.7467,0.0465,0.0151,-0.0064
63418,45.759647,0.012069,138.19,18.79,12.864,116.0,0 / 18,6341746,2019-08-19 00:05:31:279,-0.8967,0.1439,9.5446,-1.0377,0.3414,9.7456,0.0422,0.0045,-0.0032
63419,45.759647,0.012069,138.19,18.79,12.864,116.0,0 / 18,6341846,2019-08-19 00:05:31:379,-0.9907,0.3223,10.0187,-1.0267,0.3949,9.7448,0.0412,-0.0094,-0.0042
63420,45.759647,0.012069,138.19,18.79,12.864,116.0,0 / 18,6341946,2019-08-19 00:05:31:479,-0.956,0.2702,10.0624,-1.015,0.4162,9.7451,0.0326,-0.0105,-0.0064
63421,45.759647,0.012069,138.19,18.79,12.864,116.0,0 / 18,6342045,2019-08-19 00:05:31:578,-1.0482,0.4689,9.9917,-0.9998,0.4278,9.7462,0.0028,-0.0105,-0.0085
63422,45.759647,0.012069,138.19,18.79,12.864,116.0,0 / 18,6342145,2019-08-19 00:05:31:678,-1.0667,0.4061,10.0851,-0.9911,0.4283,9.747,-0.0004,-0.0201,-0.0074
63423,45.759647,0.012069,138.19,18.79,12.864,116.0,0 / 18,6342245,2019-08-19 00:05:31:778,-0.7728,0.5815,9.8708,-0.9535,0.4354,9.7505,-0.0046,-0.0137,-0.0074
63424,45.759647,0.012069,138.19,18.79,12.864,116.0,0 / 18,6342346,2019-08-19 00:05:31:879,-0.8979,0.445,9.8014,-0.951,0.4324,9.7508,0.006,0.0002,-0.0064
63425,45.759647,0.012069,138.19,18.79,12.864,116.0,0 / 18,6342445,2019-08-19 00:05:31:978,-0.9291,0.5366,9.6362,-0.9572,0.4262,9.7505,-0.0121,0.0087,-0.0053
63426,45.759647,0.012069,138.19,18.79,12.864,116.0,0 / 18,6342545,2019-08-19 00:05:32:078,-0.9847,0.4049,9.447,-0.9594,0.4201,9.7506,-0.0036,0.0002,-0.0064
63427,45.759647,0.012069,138.19,18.79,12.864,116.0,0 / 18,6342646,2019-08-19 00:05:32:179,-0.9596,0.4617,10.027,-0.9343,0.4037,9.7537,-0.0473,-0.0243,-0.0074
63428,45.759647,0.012069,138.19,18.79,12.864,116.0,0 / 18,6342745,2019-08-19 00:05:32:278,-0.7148,0.1002,9.6212,-0.915,0.4106,9.7552,-0.01,-0.0009,-0.0053
63429,45.759647,0.012069,138.19,18.79,12.864,116.0,0 / 18,6342845,2019-08-19 00:05:32:378,-0.7513,0.3989,9.7601,-0.926,0.3949,9.7548,-0.0132,0.0194,-0.0032
63430,45.759647,0.012069,138.19,18.79,12.864,116.0,0 / 18,6342945,2019-08-19 00:05:32:478,-1.0895,0.2319,9.7242,-0.9281,0.3855,9.755,-0.0046,-0.0126,-0.0021
63431,45.759647,0.012069,138.19,18.79,12.864,116.0,0 / 18,6343046,2019-08-19 00:05:32:579,-1.0015,0.3349,10.3634,-0.908,0.3864,9.7569,0.0039,-0.0264,-0.0011
63432,45.759647,0.012069,138.19,18.79,12.864,116.0,0 / 18,6343146,2019-08-19 00:05:32:679,-0.9051,0.4953,10.3042,-0.8908,0.3925,9.7582,0.0103,-0.0179,-0.0011
63433,45.759647,0.012069,138.19,18.79,12.864,116.0,0 / 18,6343246,2019-08-19 00:05:32:779,-0.8165,0.3462,9.7469,-0.8579,0.4107,9.7604,0.0081,-0.0094,-0.0011
63434,45.759647,0.012069,138.19,18.79,12.864,116.0,0 / 18,6343346,2019-08-19 00:05:32:879,-0.6855,0.2594,9.3902,-0.8448,0.4325,9.7606,0.006,0.0066,0.0
63435,45.759647,0.012069,138.19,18.79,12.864,116.0,0 / 18,6343445,2019-08-19 00:05:32:978,-0.7226,0.5,9.9606,-0.8484,0.4427,9.7598,0.0188,0.0076,0.0
63436,45.759647,0.012069,138.19,18.79,12.864,116.0,0 / 18,6343545,2019-08-19 00:05:33:078,-1.0063,0.7059,9.6978,-0.8496,0.4631,9.7588,0.0199,-0.0009,0.0022
63437,45.759647,0.012069,138.19,18.79,12.864,116.0,0 / 18,6343646,2019-08-19 00:05:33:179,-0.6059,0.5737,9.5494,-0.8292,0.4762,9.7599,0.0231,-0.003,0.0053
63438,45.759647,0.012069,138.19,18.79,12.864,116.0,0 / 18,6343746,2019-08-19 00:05:33:279,-0.8626,0.688,9.9247,-0.826,0.5114,9.7584,0.0177,-0.0094,0.0085
63439,45.759647,0.012069,138.19,18.79,12.864,116.0,0 / 18,6343846,2019-08-19 00:05:33:379,-0.8555,0.8017,10.1396,-0.8185,0.5337,9.7578,0.0092,-0.0041,0.0085
63440,45.759647,0.012069,138.19,18.79,12.864,116.0,0 / 18,6343945,2019-08-19 00:05:33:478,-0.9452,0.8059,10.2509,-0.8345,0.6083,9.7521,0.0252,-0.0062,0.0139
63441,45.759647,0.012069,138.19,18.79,12.864,116.0,0 / 18,6344045,2019-08-19 00:05:33:578,-0.962,0.8245,10.1563,-0.8431,0.6601,9.748,0.0188,-0.0115,0.0171
63442,45.759647,0.012069,138.19,18.79,12.864,116.0,0 / 18,6344145,2019-08-19 00:05:33:678,-0.7609,1.1686,10.0558,-0.8437,0.7505,9.7414,0.0071,-0.0201,0.0171
63443,45.759647,0.012069,138.19,18.79,12.864,116.0,0 / 18,6344245,2019-08-19 00:05:33:778,-0.9542,1.022,9.9642,-0.8169,0.7847,9.741,-0.0078,-0.0222,0.016
63444,45.759647,0.012069,138.19,18.79,12.864,116.0,0 / 18,6344346,2019-08-19 00:05:33:879,-0.7238,1.11,10.0408,-0.7904,0.7958,9.7423,-0.0249,-0.019,0.016
63445,45.759647,0.012069,138.19,18.79,12.864,116.0,0 / 18,6344446,2019-08-19 00:05:33:979,-0.7507,0.7664,9.7302,-0.7805,0.8187,9.7412,-0.01,0.014,0.0149
63446,45.759647,0.012069,138.19,18.79,12.864,116.0,0 / 18,6344546,2019-08-19 00:05:34:079,-0.3359,0.864,9.3513,-0.7909,0.8103,9.7411,-0.0057,0.0108,0.0128
63447,45.759647,0.012069,138.19,18.79,12.864,116.0,0 / 18,6344646,2019-08-19 00:05:34:179,-0.8022,0.5294,9.8936,-0.7815,0.8052,9.7422,-0.0046,-0.0041,0.0043
63448,45.759647,0.012069,138.19,18.79,12.864,116.0,0 / 18,6344745,2019-08-19 00:05:34:278,-0.2934,0.5689,10.1833,-0.7494,0.7902,9.746,-0.0057,-0.0296,-0.0042
63449,45.759647,0.012069,138.19,18.79,12.864,116.0,0 / 18,6344846,2019-08-19 00:05:34:379,-0.704,0.4438,9.9444,-0.7263,0.7824,9.7484,-0.0025,-0.0201,-0.0032
63450,45.759647,0.012069,138.19,18.79,12.864,116.0,0 / 18,6344945,2019-08-19 00:05:34:478,-0.3987,0.3612,10.1587,-0.7068,0.7764,9.7503,0.0113,-0.0019,-0.0032
63451,45.759647,0.012069,138.19,18.79,12.864,116.0,0 / 18,6345045,2019-08-19 00:05:34:578,-0.4317,0.4749,9.7332,-0.7028,0.7725,9.7509,-0.0025,0.0013,-0.0021
63452,45.759647,0.012069,138.19,18.79,12.864,116.0,0 / 18,6345145,2019-08-19 00:05:34:678,-0.771,0.3636,10.0516,-0.6904,0.7808,9.7511,0.0252,-0.0147,-0.0021
63453,45.759647,0.012069,138.19,18.79,12.864,116.0,0 / 18,6345245,2019-08-19 00:05:34:778,-0.6609,0.3857,9.8415,-0.6631,0.7835,9.7528,0.0145,-0.0339,-0.0042
63454,45.759647,0.012069,138.19,18.79,12.864,116.0,0 / 18,6345345,2019-08-19 00:05:34:878,-0.3425,0.6042,9.9528,-0.6324,0.7815,9.755,0.0018,-0.0179,-0.0042
63455,45.759647,0.012069,138.19,18.79,12.864,116.0,0 / 18,6345446,2019-08-19 00:05:34:979,-0.628,0.8143,10.1593,-0.6097,0.7803,9.7565,0.0081,-0.0286,-0.0032
63456,45.759647,0.012069,138.19,18.79,12.864,116.0,0 / 18,6345545,2019-08-19 00:05:35:078,-0.4113,0.427,9.9612,-0.5889,0.7719,9.7585,0.0007,-0.0073,-0.0074
63457,45.759647,0.012069,138.19,18.79,12.864,116.0,0 / 18,6345645,2019-08-19 00:05:35:178,-0.5765,0.442,9.9187,-0.5874,0.7619,9.7593,-0.0025,0.0034,-0.0053
63458,45.759647,0.012069,138.19,18.79,12.864,116.0,0 / 18,6345746,2019-08-19 00:05:35:279,-0.5322,0.7036,9.647,-0.5853,0.748,9.7605,-0.0089,-0.0062,-0.0064
63459,45.759647,0.012069,138.19,18.79,12.864,116.0,0 / 18,6345846,2019-08-19 00:05:35:379,-0.5011,0.6784,9.8553,-0.5647,0.7266,9.7634,-0.0068,-0.019,-0.0064
63460,45.759647,0.012069,138.19,18.79,12.864,116.0,0 / 18,6345946,2019-08-19 00:05:35:479,-0.6154,0.4893,10.036,-0.5326,0.6526,9.7704,-0.0185,-0.0105,-0.0064
63461,45.759647,0.012069,138.19,18.79,12.864,116.0,0 / 18,6346046,2019-08-19 00:05:35:579,-0.4622,0.2732,9.8702,-0.5118,0.6263,9.7732,-0.011,0.0002,-0.0053
63462,45.759647,0.012069,138.19,18.79,12.864,116.0,0 / 18,6346145,2019-08-19 00:05:35:678,-0.637,0.5683,9.7625,-0.5031,0.5957,9.7756,0.0028,0.0002,-0.0042
63463,45.759647,0.012069,138.19,18.79,12.864,116.0,0 / 18,6346245,2019-08-19 00:05:35:778,-0.3718,0.3887,9.4153,-0.4881,0.5711,9.7778,0.0145,-0.0009,-0.0042
63464,45.759647,0.012069,138.19,18.79,12.864,116.0,0 / 18,6346345,2019-08-19 00:05:35:878,-0.5981,0.2259,10.1174,-0.5098,0.5438,9.7783,0.0209,0.0045,-0.0042
63465,45.759647,0.012069,138.19,18.79,12.864,116.0,0 / 18,6346445,2019-08-19 00:05:35:978,-0.7375,0.43,9.6589,-0.5382,0.5278,9.7776,0.0113,-0.0137,-0.0053
63466,45.759647,0.012069,138.19,18.79,12.864,116.0,0 / 18,6346545,2019-08-19 00:05:36:078,-0.7285,0.7473,9.532,-0.5435,0.5354,9.7769,-0.0014,-0.0083,-0.0053
63467,45.759647,0.012069,138.19,18.79,12.864,116.0,0 / 18,6346646,2019-08-19 00:05:36:179,-0.4891,0.6407,9.8577,-0.5748,0.5372,9.775,0.0039,-0.0041,-0.0042
63468,45.759647,0.012069,138.19,18.79,12.864,116.0,0 / 18,6346746,2019-08-19 00:05:36:279,-0.7004,0.6605,10.3132,-0.568,0.5209,9.7763,-0.0025,-0.0169,-0.0021
63469,45.759647,0.012069,138.19,18.79,12.864,116.0,0 / 18,6346846,2019-08-19 00:05:36:379,-0.7423,0.7724,10.0258,-0.5828,0.5439,9.7742,0.0039,-0.0232,0.0011
63470,45.759647,0.012069,138.19,18.79,12.864,116.0,0 / 18,6346945,2019-08-19 00:05:36:478,-0.6364,0.9813,10.3778,-0.5727,0.584,9.7725,0.006,-0.0243,0.016
63471,45.759647,0.012069,138.19,18.79,12.864,116.0,0 / 18,6347045,2019-08-19 00:05:36:578,-0.5448,1.013,9.7361,-0.5643,0.6031,9.7718,-0.0036,0.0023,0.0203
63472,45.759647,0.012069,138.19,18.79,12.864,116.0,0 / 18,6347146,2019-08-19 00:05:36:679,-0.561,1.1519,9.371,-0.5714,0.6085,9.7711,-0.0142,0.014,0.0181
63473,45.759647,0.012069,138.19,18.79,12.864,116.0,0 / 18,6347246,2019-08-19 00:05:36:779,-0.5831,0.9071,10.0354,-0.5856,0.627,9.7691,0.0135,0.0098,0.0224
63474,45.759647,0.012069,138.19,18.79,12.864,116.0,0 / 18,6347345,2019-08-19 00:05:36:878,-0.6334,0.8999,9.5733,-0.572,0.6901,9.7656,0.0188,-0.0073,0.0224
63475,45.759647,0.012069,138.19,18.79,12.864,116.0,0 / 18,6347446,2019-08-19 00:05:36:979,-0.3784,1.0148,9.6889,-0.5549,0.7474,9.7624,0.0263,-0.0179,0.0213
63476,45.759647,0.012069,138.19,18.79,12.864,116.0,0 / 18,6347546,2019-08-19 00:05:37:079,-0.4849,1.0555,9.6314,-0.5334,0.7736,9.7615,0.0081,-0.0083,0.0149
63477,45.759647,0.012069,138.19,18.79,12.864,116.0,0 / 18,6347646,2019-08-19 00:05:37:179,-0.5041,0.9771,9.9522,-0.5224,0.791,9.7607,-0.0004,0.0108,0.0053
63478,45.759647,0.012069,138.19,18.79,12.864,116.0,0 / 18,6347746,2019-08-19 00:05:37:279,-0.3766,0.7443,10.3006,-0.5095,0.8043,9.7603,0.0156,0.0023,0.0043
63479,45.759647,0.012069,138.19,18.79,12.864,116.0,0 / 18,6347845,2019-08-19 00:05:37:378,-0.3652,0.7377,9.4213,-0.5076,0.8124,9.7597,0.0039,0.013,0.0032
63480,45.759647,0.012069,138.19,18.79,12.864,116.0,0 / 18,6347945,2019-08-19 00:05:37:478,-0.364,0.9681,9.6619,-0.5067,0.8128,9.7598,0.0071,0.0045,0.0022
63481,45.759647,0.012069,138.19,18.79,12.864,116.0,0 / 18,6348045,2019-08-19 00:05:37:578,-0.388,0.7437,9.2453,-0.4892,0.8145,9.7605,0.0103,0.0013,0.0022
63482,45.759647,0.012069,138.19,18.79,12.864,116.0,0 / 18,6348145,2019-08-19 00:05:37:678,-0.3754,0.5443,9.978,-0.4714,0.8185,9.7611,0.022,-0.0041,0.0032
63483,45.759647,0.012069,138.19,18.79,12.864,116.0,0 / 18,6348245,2019-08-19 00:05:37:778,-0.3401,0.9801,10.0761,-0.4583,0.8241,9.7612,0.0018,-0.0062,0.0043
63484,45.759647,0.012069,138.19,18.79,12.864,116.0,0 / 18,6348346,2019-08-19 00:05:37:879,-0.2862,0.7143,9.9528,-0.4404,0.8194,9.7624,-0.0089,-0.0062,0.0032
63485,45.759647,0.012069,138.19,18.79,12.864,116.0,0 / 18,6348446,2019-08-19 00:05:37:979,-0.4107,0.8634,9.9875,-0.421,0.8033,9.7646,-0.0217,-0.0158,0.0011
63486,45.759647,0.012069,138.19,18.79,12.864,116.0,0 / 18,6348545,2019-08-19 00:05:38:078,-0.3994,0.6168,9.7421,-0.4093,0.7899,9.7662,-0.0323,-0.0147,-0.0021
63487,45.759647,0.012069,138.19,18.79,12.864,116.0,0 / 18,6348646,2019-08-19 00:05:38:179,-0.3215,0.6826,9.72,-0.3989,0.7354,9.7709,-0.0398,0.0045,-0.0085
63488,45.759647,0.012069,138.19,18.79,12.864,116.0,0 / 18,6348746,2019-08-19 00:05:38:279,-0.4341,0.4528,9.456,-0.4059,0.7007,9.7732,-0.0387,0.0108,-0.0096
63489,45.759647,0.012069,138.19,18.79,12.864,116.0,0 / 18,6348845,2019-08-19 00:05:38:378,-0.4389,0.5234,9.3752,-0.4112,0.6363,9.7773,-0.0291,0.0002,-0.0074
63490,45.759647,0.012069,138.19,18.79,12.864,116.0,0 / 18,6348945,2019-08-19 00:05:38:478,-0.315,0.4342,9.6015,-0.4061,0.5818,9.7809,-0.0281,0.0023,-0.0085
63491,45.759647,0.012069,138.19,18.79,12.864,116.0,0 / 18,6349045,2019-08-19 00:05:38:578,-0.3048,0.2511,9.7272,-0.4028,0.5184,9.7847,-0.0164,0.0002,-0.0074
63492,45.759647,0.012069,138.19,18.79,12.864,116.0,0 / 18,6349145,2019-08-19 00:05:38:678,-0.2946,0.2068,9.7792,-0.3939,0.4876,9.7866,-0.0078,0.0034,-0.0074
63493,45.759647,0.012069,138.19,18.79,12.864,116.0,0 / 18,6349245,2019-08-19 00:05:38:778,-0.3353,0.4929,9.6601,-0.3745,0.4638,9.7885,0.0135,0.0002,-0.0064
63494,45.759647,0.012069,138.19,18.79,12.864,116.0,0 / 18,6349346,2019-08-19 00:05:38:879,-0.4281,0.2846,9.4572,-0.3728,0.45,9.7892,0.0252,0.0087,-0.0064
63495,45.759647,0.012069,138.19,18.79,12.864,116.0,Sep-17,6349446,2019-08-19 00:05:38:979,-0.1821,0.4875,10.0312,-0.3617,0.4537,9.7895,0.0305,-0.0041,-0.0042
63496,45.759647,0.012069,138.19,18.79,12.864,116.0,Sep-17,6349546,2019-08-19 00:05:39:079,-0.1635,0.4983,10.0456,-0.3519,0.4671,9.7892,0.0316,-0.0062,-0.0042
63497,45.759647,0.012069,138.19,18.79,12.864,116.0,Sep-17,6349646,2019-08-19 00:05:39:179,-0.4837,0.5653,9.7786,-0.3551,0.4906,9.7879,0.0177,-0.0009,-0.0064
63498,45.759647,0.012069,138.19,18.79,12.864,116.0,Sep-17,6349745,2019-08-19 00:05:39:278,-0.5173,0.4557,9.8259,-0.3503,0.5143,9.7869,0.0124,-0.0009,-0.0053
63499,45.759647,0.012069,138.19,18.79,12.864,116.0,Sep-17,6349846,2019-08-19 00:05:39:379,-0.6142,0.6305,9.863,-0.3742,0.5206,9.7857,0.0028,0.0023,-0.0074
63500,45.759647,0.012069,138.19,18.79,12.864,116.0,Sep-17,6349946,2019-08-19 00:05:39:479,-0.725,0.5114,9.7284,-0.3812,0.5178,9.7855,-0.0089,-0.0051,-0.0074
63501,45.759647,0.012069,138.19,18.79,12.864,116.0,Sep-17,6350045,2019-08-19 00:05:39:578,-0.7573,0.5401,10.0354,-0.4324,0.5185,9.7834,0.0092,-0.0083,-0.0053
63502,45.759647,0.012069,138.19,18.79,12.864,116.0,Sep-17,6350146,2019-08-19 00:05:39:679,-0.7555,0.3486,9.8014,-0.4665,0.5019,9.7827,-0.0057,-0.0179,-0.0074
63503,45.759647,0.012069,138.19,18.79,12.864,116.0,Sep-17,6350246,2019-08-19 00:05:39:779,-0.6226,0.4348,9.8211,-0.5034,0.5116,9.7803,0.0049,0.0055,-0.0064
63504,45.759647,0.012069,138.19,18.79,12.864,116.0,Sep-17,6350345,2019-08-19 00:05:39:878,-0.4574,0.6461,9.6302,-0.5198,0.5205,9.779,0.0124,0.0183,-0.0074
63505,45.75905,0.014073,128.55,17.42,10.72,113.1,0 / 17,6350445,2019-08-19 00:05:39:978,-0.5059,0.3372,9.4518,-0.5392,0.5314,9.7774,0.0156,0.0076,-0.0053
63506,45.75905,0.014073,128.55,17.42,10.72,113.1,0 / 17,6350545,2019-08-19 00:05:40:078,-0.6609,0.5252,9.8074,-0.5343,0.5486,9.7767,0.022,-0.0126,-0.0042
63507,45.75905,0.014073,128.55,17.42,10.72,113.1,0 / 17,6350645,2019-08-19 00:05:40:178,-0.443,0.8107,10.4909,-0.5149,0.5584,9.7772,-0.0057,-0.0222,-0.0053
63508,45.75905,0.014073,128.55,17.42,10.72,113.1,0 / 17,6350747,2019-08-19 00:05:40:280,-0.5999,0.6581,9.6853,-0.4856,0.5511,9.7791,-0.0195,-0.0222,-0.0032
63509,45.75905,0.014073,128.55,17.42,10.72,113.1,0 / 17,6350846,2019-08-19 00:05:40:379,-0.5478,0.6078,9.9109,-0.4795,0.5368,9.7802,-0.0291,-0.003,-0.0042
63510,45.75905,0.014073,128.55,17.42,10.72,113.1,0 / 17,6350946,2019-08-19 00:05:40:479,-0.461,0.6886,9.9127,-0.4645,0.5646,9.7794,-0.0142,0.0002,0.0
63511,45.75905,0.014073,128.55,17.42,10.72,113.1,0 / 17,6351046,2019-08-19 00:05:40:579,-0.3521,0.8466,9.4722,-0.4635,0.5562,9.7799,-0.0174,0.0055,0.0
63512,45.75905,0.014073,128.55,17.42,10.72,113.1,0 / 17,6351146,2019-08-19 00:05:40:679,-0.3497,0.4905,9.4117,-0.4638,0.5552,9.7799,-0.0036,0.0034,0.0022
63513,45.75905,0.014073,128.55,17.42,10.72,113.1,0 / 17,6351246,2019-08-19 00:05:40:779,-0.3497,0.9855,9.8906,-0.4523,0.5528,9.7806,-0.0046,-0.0073,0.0022
63514,45.75905,0.014073,128.55,17.42,10.72,113.1,0 / 17,6351346,2019-08-19 00:05:40:879,-0.5376,0.6222,9.5679,-0.4336,0.5688,9.7805,0.0018,0.0045,0.0022
63515,45.75905,0.014073,128.55,17.42,10.72,113.1,0 / 17,6351446,2019-08-19 00:05:40:979,-0.3479,0.4839,9.729,-0.4398,0.5829,9.7794,0.0188,0.014,0.0022
63516,45.75905,0.014073,128.55,17.42,10.72,113.1,0 / 17,6351546,2019-08-19 00:05:41:079,-0.2491,0.5084,9.6781,-0.3987,0.5991,9.7802,0.0028,-0.0083,0.0032
63517,45.75905,0.014073,128.55,17.42,10.72,113.1,0 / 17,6351646,2019-08-19 00:05:41:179,-0.6184,0.5838,9.4387,-0.3991,0.6005,9.7801,-0.0046,-0.0041,0.0032
63518,45.75905,0.014073,128.55,17.42,10.72,113.1,0 / 17,6351746,2019-08-19 00:05:41:279,-0.5502,0.6467,9.8451,-0.4037,0.5952,9.7802,-0.011,-0.0051,0.0011
63519,45.75905,0.014073,128.55,17.42,10.72,113.1,0 / 17,6351846,2019-08-19 00:05:41:379,-0.5825,0.3624,9.6925,-0.4297,0.5794,9.7801,-0.0121,-0.0009,0.0
63520,45.75905,0.014073,128.55,17.42,10.72,113.1,0 / 17,6351945,2019-08-19 00:05:41:478,-0.719,0.4629,9.9187,-0.4771,0.5784,9.7779,-0.0014,0.0023,0.0
63521,45.75905,0.014073,128.55,17.42,10.72,113.1,0 / 17,6352045,2019-08-19 00:05:41:578,-0.7052,0.603,10.0306,-0.4732,0.5688,9.7787,-0.0078,-0.0169,0.0011
63522,45.75905,0.014073,128.55,17.42,10.72,113.1,0 / 17,6352146,2019-08-19 00:05:41:679,-0.6801,0.5671,9.6583,-0.5261,0.5504,9.777,-0.0185,-0.0105,0.0
63523,45.75905,0.014073,128.55,17.42,10.72,113.1,0 / 17,6352246,2019-08-19 00:05:41:779,-0.6441,0.6144,9.7733,-0.5537,0.5251,9.7769,-0.027,-0.0083,-0.0011
63524,45.75905,0.014073,128.55,17.42,10.72,113.1,0 / 17,6352346,2019-08-19 00:05:41:879,-0.3431,0.3719,9.7026,-0.5633,0.5186,9.7767,-0.0217,0.0023,0.0
63525,45.75905,0.014073,128.55,17.42,10.72,113.1,0 / 17,6352446,2019-08-19 00:05:41:979,-0.531,0.6371,9.7996,-0.5705,0.4864,9.7779,-0.027,0.0034,0.0
63526,45.75905,0.014073,128.55,17.42,10.72,113.1,0 / 17,6352546,2019-08-19 00:05:42:079,-0.5137,0.3582,9.8086,-0.5604,0.4731,9.7792,-0.01,-0.0083,-0.0021
63527,45.75905,0.014073,128.55,17.42,10.72,113.1,0 / 17,6352646,2019-08-19 00:05:42:179,-0.4658,0.536,9.8205,-0.5469,0.4641,9.7804,-0.0195,-0.0019,-0.0011
63528,45.75905,0.014073,128.55,17.42,10.72,113.1,0 / 17,6352745,2019-08-19 00:05:42:278,-0.3826,0.5988,9.6847,-0.5158,0.4425,9.7831,-0.0281,-0.0222,0.0022
63529,45.75905,0.014073,128.55,17.42,10.72,113.1,0 / 17,6352845,2019-08-19 00:05:42:378,-0.1749,0.2923,10.3257,-0.4873,0.4295,9.7851,-0.0217,-0.0339,0.0022
63530,45.75905,0.014073,128.55,17.42,10.72,113.1,0 / 17,6352945,2019-08-19 00:05:42:478,-0.358,0.3672,10.6322,-0.4331,0.403,9.7888,-0.0313,-0.0382,0.0011
63531,45.75905,0.014073,128.55,17.42,10.72,113.1,0 / 17,6353045,2019-08-19 00:05:42:578,-0.1342,0.4079,10.2281,-0.4117,0.3899,9.7902,-0.0164,-0.0094,0.0022
63532,45.75905,0.014073,128.55,17.42,10.72,113.1,0 / 17,6353146,2019-08-19 00:05:42:679,-0.0103,0.2828,9.7745,-0.3979,0.3919,9.7907,0.0135,0.0023,0.0043
63533,45.75905,0.014073,128.55,17.42,10.72,113.1,0 / 17,6353246,2019-08-19 00:05:42:779,-0.0187,0.4312,9.4267,-0.3871,0.4005,9.7908,0.0113,0.0023,0.0053
63534,45.75905,0.014073,128.55,17.42,10.72,113.1,0 / 17,6353345,2019-08-19 00:05:42:878,0.0968,0.3594,9.8822,-0.3698,0.4268,9.7904,0.0231,0.0002,0.0053
63535,45.75905,0.014073,128.55,17.42,10.72,113.1,0 / 17,6353446,2019-08-19 00:05:42:979,0.2339,0.5042,9.541,-0.3444,0.438,9.7908,0.0135,-0.0137,0.0043
63536,45.75905,0.014073,128.55,17.42,10.72,113.1,0 / 17,6353546,2019-08-19 00:05:43:079,0.2477,0.336,9.7182,-0.2686,0.4839,9.791,0.0273,0.0066,0.0053
63537,45.75905,0.014073,128.55,17.42,10.72,113.1,0 / 17,6353646,2019-08-19 00:05:43:179,0.1244,0.533,9.9331,-0.2176,0.5124,9.7908,0.0348,0.0034,0.0043
63538,45.75905,0.014073,128.55,17.42,10.72,113.1,0 / 17,6353746,2019-08-19 00:05:43:279,0.2279,0.5551,10.1264,-0.1758,0.5318,9.7906,0.0135,-0.0296,0.0053
63539,45.75905,0.014073,128.55,17.42,10.72,113.1,0 / 17,6353846,2019-08-19 00:05:43:379,0.1352,0.7616,10.7627,-0.1377,0.5336,9.7912,-0.0046,-0.036,0.0022
63540,45.75905,0.014073,128.55,17.42,10.72,113.1,0 / 17,6353946,2019-08-19 00:05:43:479,-0.1743,0.5575,9.6434,-0.1092,0.528,9.7918,-0.0142,0.0108,0.0011
63541,45.75905,0.014073,128.55,17.42,10.72,113.1,0 / 17,6354046,2019-08-19 00:05:43:579,-0.6382,0.4037,9.8134,-0.1412,0.5143,9.7921,-0.0089,0.03,-0.0011
63542,45.75905,0.014073,128.55,17.42,10.72,113.1,0 / 17,6354146,2019-08-19 00:05:43:679,-0.5454,0.266,9.9971,-0.1875,0.5037,9.7919,-0.0025,0.0087,-0.0021
63543,45.75905,0.014073,128.55,17.42,10.72,113.1,0 / 17,6354246,2019-08-19 00:05:43:779,-0.7136,0.5222,10.0001,-0.2412,0.4899,9.7914,0.0007,-0.0137,-0.0011
63544,45.75905,0.014073,128.55,17.42,10.72,113.1,0 / 17,6354345,2019-08-19 00:05:43:878,-0.6908,0.3642,10.0384,-0.272,0.4935,9.7905,0.0135,-0.0328,-0.0011
63545,45.75905,0.014073,128.55,17.42,10.72,113.1,0 / 17,6354447,2019-08-19 00:05:43:980,-0.4718,0.3881,9.8158,-0.2662,0.4836,9.7911,0.0028,-0.0083,-0.0011
63546,45.75905,0.014073,128.55,17.42,10.72,113.1,0 / 17,6354545,2019-08-19 00:05:44:078,-0.5107,0.7077,9.893,-0.3202,0.4671,9.7903,-0.0238,0.0023,-0.0042
63547,45.75905,0.014073,128.55,17.42,10.72,113.1,0 / 17,6354646,2019-08-19 00:05:44:179,-0.7046,0.2882,10.0947,-0.4111,0.4363,9.7883,-0.0153,-0.0147,-0.0011
63548,45.75905,0.014073,128.55,17.42,10.72,113.1,0 / 17,6354745,2019-08-19 00:05:44:278,-0.7776,0.6724,10.0127,-0.4634,0.4054,9.7873,-0.0068,-0.0073,-0.0021
63549,45.75905,0.014073,128.55,17.42,10.72,113.1,0 / 17,6354846,2019-08-19 00:05:44:379,-0.6334,-0.0363,9.6296,-0.4844,0.3917,9.7868,0.0018,-0.0019,-0.0053
63550,45.75905,0.014073,128.55,17.42,10.72,113.1,0 / 17,6354945,2019-08-19 00:05:44:478,-0.3981,0.1541,9.2789,-0.4957,0.4003,9.7859,0.0284,0.0087,-0.0064
63551,45.75905,0.014073,128.55,17.42,10.72,113.1,0 / 17,6355045,2019-08-19 00:05:44:578,0.3058,0.5815,10.3557,-0.4511,0.4104,9.7877,0.0028,-0.0531,-0.0042
63552,45.75905,0.014073,128.55,17.42,10.72,113.1,0 / 17,6355145,2019-08-19 00:05:44:678,0.3925,0.518,10.4424,-0.3722,0.4021,9.7913,-0.0121,-0.0765,-0.0032
63553,45.75905,0.014073,128.55,17.42,10.72,113.1,0 / 17,6355245,2019-08-19 00:05:44:778,0.1519,0.5276,10.1102,-0.3322,0.3882,9.7933,-0.01,0.0002,-0.0096
63554,45.75905,0.014073,128.55,17.42,10.72,113.1,0 / 17,6355346,2019-08-19 00:05:44:879,0.189,0.2313,10.0959,-0.3275,0.3743,9.794,-0.0164,0.0151,-0.0053
63555,45.75905,0.014073,128.55,17.42,10.72,113.1,0 / 17,6355445,2019-08-19 00:05:44:978,0.0232,0.3109,9.5967,-0.3312,0.3713,9.794,0.0039,0.0194,-0.0021
63556,45.75905,0.014073,128.55,17.42,10.72,113.1,0 / 17,6355545,2019-08-19 00:05:45:078,0.1819,0.5054,9.7978,-0.3151,0.3793,9.7942,0.0113,-0.0051,-0.0021
63557,45.75905,0.014073,128.55,17.42,10.72,113.1,0 / 17,6355646,2019-08-19 00:05:45:179,0.2148,0.3103,9.8098,-0.2781,0.3876,9.795,0.006,-0.0169,-0.0021
63558,45.75905,0.014073,128.55,17.42,10.72,113.1,0 / 17,6355746,2019-08-19 00:05:45:279,0.1573,0.4917,9.8319,-0.2533,0.3922,9.7955,0.006,-0.0137,-0.0042
63559,45.75905,0.014073,128.55,17.42,10.72,113.1,0 / 17,6355846,2019-08-19 00:05:45:379,0.2273,0.3486,9.8978,-0.2308,0.3936,9.796,0.0049,-0.0009,-0.0042
63560,45.75905,0.014073,128.55,17.42,10.72,113.1,0 / 17,6355945,2019-08-19 00:05:45:478,0.1896,0.3289,9.7445,-0.1594,0.3953,9.7974,-0.0078,-0.003,-0.0032
63561,45.75905,0.014073,128.55,17.42,10.72,113.1,0 / 17,6356046,2019-08-19 00:05:45:579,-0.0737,0.4851,10.1845,-0.117,0.3895,9.7982,0.0028,-0.0083,-0.0042
63562,45.75905,0.014073,128.55,17.42,10.72,113.1,0 / 17,6356146,2019-08-19 00:05:45:679,-0.0995,0.3576,9.7122,-0.0797,0.3679,9.7994,-0.01,-0.003,-0.0096
63563,45.75905,0.014073,128.55,17.42,10.72,113.1,0 / 17,6356246,2019-08-19 00:05:45:779,-0.1055,0.4899,9.7098,-0.0755,0.3693,9.7994,0.0007,-0.0041,-0.0096
63564,45.75905,0.014073,128.55,17.42,10.72,113.1,0 / 17,6356346,2019-08-19 00:05:45:879,-0.1851,0.2481,9.9265,-0.0743,0.3532,9.8,-0.0068,0.0002,-0.0085
63565,45.75905,0.014073,128.55,17.42,10.72,113.1,0 / 17,6356446,2019-08-19 00:05:45:979,-0.2377,0.3199,10.027,-0.0913,0.3275,9.8008,0.006,-0.0019,-0.0085
63566,45.75905,0.014073,128.55,17.42,10.72,113.1,0 / 17,6356545,2019-08-19 00:05:46:078,-0.5023,0.0625,10.1599,-0.0981,0.3204,9.8009,-0.01,-0.0009,-0.0085
63567,45.75905,0.014073,128.55,17.42,10.72,113.1,0 / 17,6356646,2019-08-19 00:05:46:179,-0.625,-0.0638,10.1048,-0.1201,0.2994,9.8013,-0.0206,-0.0019,-0.0192
63568,45.75905,0.014073,128.55,17.42,10.72,113.1,0 / 17,6356745,2019-08-19 00:05:46:278,-0.5233,-0.2697,9.7038,-0.1376,0.279,9.8017,-0.0036,0.0055,-0.0298
63569,45.75905,0.014073,128.55,17.42,10.72,113.1,0 / 17,6356845,2019-08-19 00:05:46:378,-0.4335,-0.2715,9.3728,-0.1652,0.252,9.802,0.0007,0.0076,-0.0287
63570,45.75905,0.014073,128.55,17.42,10.72,113.1,0 / 17,6356946,2019-08-19 00:05:46:479,-0.7106,-0.056,9.8361,-0.1834,0.2379,9.802,-0.0014,0.0034,-0.0234
63571,45.75905,0.014073,128.55,17.42,10.72,113.1,0 / 17,6357045,2019-08-19 00:05:46:578,-0.5675,-0.0309,9.969,-0.183,0.2215,9.8024,0.0028,-0.0222,-0.0213
63572,45.75905,0.014073,128.55,17.42,10.72,113.1,0 / 17,6357146,2019-08-19 00:05:46:679,-0.6274,-0.1638,9.7308,-0.1846,0.2062,9.8027,-0.0142,-0.0126,-0.0202
63573,45.75905,0.014073,128.55,17.42,10.72,113.1,0 / 17,6357245,2019-08-19 00:05:46:778,-0.537,-0.0542,9.5183,-0.2042,0.1933,9.8026,0.006,0.0098,-0.0181
63574,45.75905,0.014073,128.55,17.42,10.72,113.1,0 / 17,6357345,2019-08-19 00:05:46:878,-0.6077,0.105,9.0969,-0.2333,0.1861,9.8021,-0.0068,0.03,-0.0181
63575,45.75905,0.014073,128.55,17.42,10.72,113.1,0 / 17,6357446,2019-08-19 00:05:46:979,-0.1755,0.0882,9.6105,-0.2688,0.1801,9.8013,0.0039,0.013,-0.016
63576,45.75905,0.014073,128.55,17.42,10.72,113.1,0 / 17,6357545,2019-08-19 00:05:47:078,-0.4089,-0.1087,9.4321,-0.2721,0.1788,9.8012,0.0028,-0.0051,-0.016
63577,45.75905,0.014073,128.55,17.42,10.72,113.1,0 / 17,6357645,2019-08-19 00:05:47:178,-0.3449,0.2481,10.0935,-0.2621,0.189,9.8013,0.0177,-0.0126,-0.0128
63578,45.75905,0.014073,128.55,17.42,10.72,113.1,0 / 17,6357746,2019-08-19 00:05:47:279,-0.3239,0.3726,9.5925,-0.254,0.201,9.8013,0.0199,-0.0083,-0.0138
63579,45.75905,0.014073,128.55,17.42,10.72,113.1,0 / 17,6357845,2019-08-19 00:05:47:378,-0.2413,0.2852,9.7481,-0.248,0.2212,9.801,0.0177,0.0076,-0.0064
63580,45.75905,0.014073,128.55,17.42,10.72,113.1,0 / 17,6357945,2019-08-19 00:05:47:478,-0.1563,0.3989,9.5326,-0.2471,0.24,9.8006,0.0252,0.0034,-0.0042
63581,45.75905,0.014073,128.55,17.42,10.72,113.1,0 / 17,6358046,2019-08-19 00:05:47:579,-0.1707,0.506,9.3543,-0.2496,0.2676,9.7998,0.0124,0.0066,-0.0021
63582,45.75905,0.014073,128.55,17.42,10.72,113.1,0 / 17,6358146,2019-08-19 00:05:47:679,-0.1078,0.597,9.4207,-0.2563,0.2814,9.7993,0.0092,0.0172,-0.0021
63583,45.75905,0.014073,128.55,17.42,10.72,113.1,0 / 17,6358245,2019-08-19 00:05:47:778,-0.1516,0.5988,9.6972,-0.2239,0.308,9.7993,0.0018,-0.0094,-0.0021
63584,45.75905,0.014073,128.55,17.42,10.72,113.1,0 / 17,6358346,2019-08-19 00:05:47:879,-0.3431,0.8394,10.2814,-0.1904,0.2723,9.801,-0.0686,-0.0712,-0.0021
63585,45.75905,0.014073,128.55,17.42,10.72,113.1,Nov-17,6358445,2019-08-19 00:05:47:978,0.2513,0.6694,11.1912,-0.1153,0.2257,9.8034,-0.0494,-0.0584,0.0
63586,45.75905,0.014073,128.55,17.42,10.72,113.1,Nov-17,6358545,2019-08-19 00:05:48:078,0.0789,0.1876,10.5759,-0.0927,0.196,9.8043,-0.0494,-0.0094,0.0075
63587,45.75905,0.014073,128.55,17.42,10.72,113.1,Nov-17,6358646,2019-08-19 00:05:48:179,0.0603,0.4809,9.237,-0.1037,0.1791,9.8045,-0.0238,0.0119,0.0149
63588,45.75905,0.014073,128.55,17.42,10.72,113.1,Nov-17,6358745,2019-08-19 00:05:48:278,-0.0306,0.3678,9.3567,-0.0964,0.1896,9.8043,-0.0004,0.0023,0.0107
63589,45.75905,0.014073,128.55,17.42,10.72,113.1,Nov-17,6358845,2019-08-19 00:05:48:378,0.3931,0.6814,9.5225,-0.0931,0.1932,9.8043,-0.0142,0.0023,0.0107
63590,45.75905,0.014073,128.55,17.42,10.72,113.1,Nov-17,6358945,2019-08-19 00:05:48:478,-0.0199,0.4995,9.7804,-0.0886,0.2664,9.8026,0.0071,0.0055,0.0117
63591,45.75905,0.014073,128.55,17.42,10.72,113.1,Nov-17,6359046,2019-08-19 00:05:48:579,-0.066,0.418,9.5871,-0.0916,0.2781,9.8023,0.0124,0.0034,0.0107
63592,45.75905,0.014073,128.55,17.42,10.72,113.1,Nov-17,6359146,2019-08-19 00:05:48:679,0.0322,0.5563,9.8804,-0.0818,0.3104,9.8014,0.0092,0.0055,0.0107
63593,45.75905,0.014073,128.55,17.42,10.72,113.1,Nov-17,6359246,2019-08-19 00:05:48:779,-0.2533,0.4809,9.4866,-0.0738,0.3644,9.7996,0.0081,-0.0105,0.0107
63594,45.75905,0.014073,128.55,17.42,10.72,113.1,Nov-17,6359345,2019-08-19 00:05:48:878,0.1052,0.8502,10.8896,-0.0427,0.3736,9.7994,-0.0195,-0.0296,0.0107
63595,45.75833,0.016271,136.04,17.17,18.224,118.0,0 / 17,6359446,2019-08-19 00:05:48:979,-0.0701,0.4725,10.0677,-0.0279,0.3712,9.7996,-0.0121,-0.0169,0.0107
63596,45.75833,0.016271,136.04,17.17,18.224,118.0,0 / 17,6359545,2019-08-19 00:05:49:078,0.1262,0.5234,9.7475,-0.0241,0.3597,9.8,-0.0164,0.0066,0.0107
63597,45.75833,0.016271,136.04,17.17,18.224,118.0,0 / 17,6359646,2019-08-19 00:05:49:179,-0.039,0.5138,9.4004,-0.0337,0.3481,9.8004,-0.0259,0.0172,0.0107
63598,45.75833,0.016271,136.04,17.17,18.224,118.0,0 / 17,6359746,2019-08-19 00:05:49:279,-0.0043,0.6126,9.3208,-0.0467,0.3374,9.8007,-0.0164,0.0194,0.0107
63599,45.75833,0.016271,136.04,17.17,18.224,118.0,0 / 17,6359846,2019-08-19 00:05:49:379,-0.0414,0.4342,9.6984,-0.0541,0.338,9.8007,-0.0142,0.0108,0.0096
63600,45.75833,0.016271,136.04,17.17,18.224,118.0,0 / 17,6359945,2019-08-19 00:05:49:478,0.0226,0.2008,9.4931,-0.0575,0.3692,9.7995,0.0273,0.0055,0.0117
63601,45.75833,0.016271,136.04,17.17,18.224,118.0,0 / 17,6360045,2019-08-19 00:05:49:578,0.0885,0.1421,10.1378,-0.056,0.3959,9.7985,0.0369,0.0013,0.0128
63602,45.75833,0.016271,136.04,17.17,18.224,118.0,0 / 17,6360145,2019-08-19 00:05:49:678,-0.1318,0.3516,9.9055,-0.0565,0.4361,9.7968,0.0444,0.0013,0.0117
63603,45.75833,0.016271,136.04,17.17,18.224,118.0,0 / 17,6360245,2019-08-19 00:05:49:778,-0.0043,0.5473,9.9696,-0.0381,0.4606,9.7958,0.0124,-0.0041,0.0117
63604,45.75833,0.016271,136.04,17.17,18.224,118.0,0 / 17,6360345,2019-08-19 00:05:49:878,0.1064,0.5731,9.3333,-0.0406,0.4787,9.7949,0.0103,0.0055,0.0085
63605,45.75833,0.016271,136.04,17.17,18.224,118.0,0 / 17,6360445,2019-08-19 00:05:49:978,0.1022,0.3265,9.474,-0.0689,0.4998,9.7937,0.0167,0.0407,0.0064
63606,45.75833,0.016271,136.04,17.17,18.224,118.0,0 / 17,6360545,2019-08-19 00:05:50:078,-0.0235,0.4474,9.6817,-0.1009,0.527,9.792,0.0231,0.0268,0.0085
63607,45.75833,0.016271,136.04,17.17,18.224,118.0,0 / 17,6360645,2019-08-19 00:05:50:178,0.0017,0.6605,9.7068,-0.1051,0.545,9.7909,0.0241,0.0045,0.0107
63608,45.75833,0.016271,136.04,17.17,18.224,118.0,0 / 17,6360745,2019-08-19 00:05:50:278,-0.0366,0.6557,10.1013,-0.0975,0.5672,9.7897,0.0252,-0.0073,0.0064
63609,45.75833,0.016271,136.04,17.17,18.224,118.0,0 / 17,6360846,2019-08-19 00:05:50:379,-0.2539,0.3953,10.0857,-0.0879,0.5956,9.7882,0.0486,-0.0115,0.0075
63610,45.75833,0.016271,136.04,17.17,18.224,118.0,0 / 17,6360946,2019-08-19 00:05:50:479,-0.2665,0.4354,10.2192,-0.0855,0.6678,9.7835,0.0753,0.0023,0.0117
63611,45.75833,0.016271,136.04,17.17,18.224,118.0,0 / 17,6361046,2019-08-19 00:05:50:579,0.3195,0.6407,9.9241,-0.0664,0.682,9.7827,0.054,-0.0051,0.0107
63612,45.75833,0.016271,136.04,17.17,18.224,118.0,0 / 17,6361146,2019-08-19 00:05:50:679,0.0059,0.8634,10.0665,-0.0681,0.7196,9.78,0.0188,0.0151,0.0096
63613,45.75833,0.016271,136.04,17.17,18.224,118.0,0 / 17,6361246,2019-08-19 00:05:50:779,-0.2425,0.8011,9.6428,-0.064,0.7224,9.7798,-0.0121,-0.0126,0.0064
63614,45.75833,0.016271,136.04,17.17,18.224,118.0,0 / 17,6361346,2019-08-19 00:05:50:879,0.0196,0.9382,10.224,-0.0182,0.6961,9.7819,-0.0334,-0.0435,0.0075
63615,45.75833,0.016271,136.04,17.17,18.224,118.0,0 / 17,6361445,2019-08-19 00:05:50:978,-0.0229,0.937,9.7894,0.0081,0.6723,9.7836,-0.0409,-0.0328,0.0075
63616,45.75833,0.016271,136.04,17.17,18.224,118.0,0 / 17,6361545,2019-08-19 00:05:51:078,0.192,0.7311,10.218,0.0144,0.6412,9.7857,-0.0025,0.0076,0.0075
63617,45.75833,0.016271,136.04,17.17,18.224,118.0,0 / 17,6361645,2019-08-19 00:05:51:178,-0.1964,0.7048,9.4004,0.0133,0.6154,9.7873,-0.0398,-0.003,0.0075
63618,45.75833,0.016271,136.04,17.17,18.224,118.0,0 / 17,6361745,2019-08-19 00:05:51:278,-0.0402,0.849,9.9941,0.0261,0.5829,9.7893,-0.0334,-0.0126,0.0096
63619,45.75833,0.016271,136.04,17.17,18.224,118.0,0 / 17,6361845,2019-08-19 00:05:51:378,-0.2192,0.6102,9.8181,0.0336,0.5683,9.7901,-0.0259,-0.0105,0.0075
63620,45.75833,0.016271,136.04,17.17,18.224,118.0,0 / 17,6361945,2019-08-19 00:05:51:478,0.4404,0.7568,9.4297,0.0678,0.5457,9.7912,-0.0622,0.0162,0.0085
63621,45.75833,0.016271,136.04,17.17,18.224,118.0,0 / 17,6362045,2019-08-19 00:05:51:578,0.0627,0.5132,9.702,0.0491,0.5146,9.793,-0.0462,0.0236,0.0085
63622,45.75833,0.016271,136.04,17.17,18.224,118.0,0 / 17,6362146,2019-08-19 00:05:51:679,0.1501,0.5503,9.9277,0.0641,0.483,9.7945,-0.0121,-0.0232,0.0064
63623,45.75833,0.016271,136.04,17.17,18.224,118.0,0 / 17,6362246,2019-08-19 00:05:51:779,0.1501,0.2223,9.8319,0.0782,0.4794,9.7946,-0.0046,-0.0105,0.0096
63624,45.75833,0.016271,136.04,17.17,18.224,118.0,0 / 17,6362346,2019-08-19 00:05:51:879,0.2106,0.3576,8.9676,0.0477,0.4667,9.7954,-0.0068,0.0503,0.0085
63625,45.75833,0.016271,136.04,17.17,18.224,118.0,0 / 17,6362446,2019-08-19 00:05:51:979,0.0274,0.5042,9.5398,0.0162,0.455,9.7961,-0.0078,0.013,0.0043
63626,45.75833,0.016271,136.04,17.17,18.224,118.0,0 / 17,6362546,2019-08-19 00:05:52:079,-0.0199,0.3504,9.9456,0.0302,0.4567,9.796,0.0039,-0.0232,0.0053
63627,45.75833,0.016271,136.04,17.17,18.224,118.0,0 / 17,6362645,2019-08-19 00:05:52:178,0.1759,0.3223,9.863,0.0439,0.4683,9.7954,0.0305,0.0045,0.0032
63628,45.75833,0.016271,136.04,17.17,18.224,118.0,0 / 17,6362746,2019-08-19 00:05:52:279,0.1866,0.4731,9.7523,0.0414,0.4809,9.7948,0.0305,0.0119,0.0022
63629,45.75833,0.016271,136.04,17.17,18.224,118.0,0 / 17,6362845,2019-08-19 00:05:52:378,0.1004,0.3151,9.3926,0.0263,0.4881,9.7945,0.0092,0.0364,0.0032
63630,45.75833,0.016271,136.04,17.17,18.224,118.0,0 / 17,6362945,2019-08-19 00:05:52:478,0.1806,0.3881,9.2346,-0.0101,0.5262,9.7925,0.055,0.03,-0.0011
63631,45.75833,0.016271,136.04,17.17,18.224,118.0,0 / 17,6363045,2019-08-19 00:05:52:578,-0.0498,0.6461,10.461,0.0122,0.5628,9.7905,0.0305,-0.035,0.0032
63632,45.75833,0.016271,136.04,17.17,18.224,118.0,0 / 17,6363146,2019-08-19 00:05:52:679,-0.2994,0.5773,10.9273,0.0438,0.5815,9.7893,0.0231,-0.0446,0.0064
63633,45.75833,0.016271,136.04,17.17,18.224,118.0,0 / 17,6363246,2019-08-19 00:05:52:779,0.2722,0.3049,10.0749,0.0808,0.6046,9.7877,0.0188,-0.0243,-0.0011
63634,45.75833,0.016271,136.04,17.17,18.224,118.0,0 / 17,6363346,2019-08-19 00:05:52:879,0.2992,0.5904,9.8708,0.083,0.6095,9.7873,0.0049,0.0066,-0.0011
63635,45.75833,0.016271,136.04,17.17,18.224,118.0,0 / 17,6363446,2019-08-19 00:05:52:979,0.286,0.4127,9.8912,0.0744,0.6075,9.7875,0.0049,0.0151,0.0
63636,45.75833,0.016271,136.04,17.17,18.224,118.0,0 / 17,6363546,2019-08-19 00:05:53:079,0.1292,0.6114,9.6793,0.0805,0.5963,9.7882,-0.0057,-0.0105,0.0011
63637,45.75833,0.016271,136.04,17.17,18.224,118.0,0 / 17,6363645,2019-08-19 00:05:53:178,0.1017,0.6658,10.0217,0.1122,0.5843,9.7886,-0.0121,-0.0286,0.0
63638,45.75833,0.016271,136.04,17.17,18.224,118.0,0 / 17,6363746,2019-08-19 00:05:53:279,0.2034,0.3887,9.8397,0.1256,0.5744,9.789,-0.011,-0.0105,0.0011
63639,45.75833,0.016271,136.04,17.17,18.224,118.0,0 / 17,6363845,2019-08-19 00:05:53:378,0.2806,0.5084,9.9163,0.1436,0.5394,9.7908,-0.0228,0.0162,0.0
63640,45.75833,0.016271,136.04,17.17,18.224,118.0,0 / 17,6363945,2019-08-19 00:05:53:478,0.1382,0.694,9.6063,0.1315,0.5246,9.7917,-0.0228,0.0172,0.0011
63641,45.75833,0.016271,136.04,17.17,18.224,118.0,0 / 17,6364045,2019-08-19 00:05:53:578,0.204,0.2947,9.614,0.1276,0.5137,9.7924,-0.0078,0.0055,0.0
63642,45.75833,0.016271,136.04,17.17,18.224,118.0,0 / 17,6364145,2019-08-19 00:05:53:678,0.1238,0.3522,9.9385,0.1382,0.4893,9.7935,0.0049,-0.0009,-0.0011
63643,45.75833,0.016271,136.04,17.17,18.224,118.0,0 / 17,6364246,2019-08-19 00:05:53:779,0.1058,0.4899,9.7697,0.1536,0.4638,9.7945,-0.0014,-0.0041,-0.0011
63644,45.75833,0.016271,136.04,17.17,18.224,118.0,0 / 17,6364346,2019-08-19 00:05:53:879,0.1986,0.5545,9.7966,0.1618,0.4559,9.7947,-0.0046,-0.0094,0.0
63645,45.75833,0.016271,136.04,17.17,18.224,118.0,0 / 17,6364446,2019-08-19 00:05:53:979,0.2513,0.3977,9.7296,0.1636,0.4584,9.7946,0.0018,-0.0126,-0.0011
63646,45.75833,0.016271,136.04,17.17,18.224,118.0,0 / 17,6364546,2019-08-19 00:05:54:079,0.131,0.6317,10.0181,0.1659,0.4385,9.7954,-0.0036,-0.0009,0.0
63647,45.75833,0.016271,136.04,17.17,18.224,118.0,0 / 17,6364645,2019-08-19 00:05:54:178,0.1178,0.4809,9.8606,0.1717,0.4362,9.7954,-0.0185,-0.0062,0.0032
63648,45.75833,0.016271,136.04,17.17,18.224,118.0,0 / 17,6364745,2019-08-19 00:05:54:278,0.2531,0.4611,9.7254,0.1753,0.4482,9.7948,-0.01,0.0034,0.0053
63649,45.75833,0.016271,136.04,17.17,18.224,118.0,0 / 17,6364845,2019-08-19 00:05:54:378,-0.2802,0.6084,10.051,0.1408,0.4323,9.7961,-0.0377,0.0045,0.0053
63650,45.75833,0.016271,136.04,17.17,18.224,118.0,0 / 17,6364945,2019-08-19 00:05:54:478,-0.3724,0.4067,9.5045,0.1137,0.4188,9.797,-0.0228,0.0162,0.0043
63651,45.75833,0.016271,136.04,17.17,18.224,118.0,0 / 17,6365046,2019-08-19 00:05:54:579,-0.7513,0.4737,9.4345,0.0794,0.3909,9.7985,-0.0377,0.0119,0.0053
63652,45.75833,0.016271,136.04,17.17,18.224,118.0,0 / 17,6365146,2019-08-19 00:05:54:679,-0.5867,0.3809,9.5967,0.0416,0.3507,9.8003,-0.0345,0.0013,0.0064
