,GPS LATITUDE (degrees),GPS LONGITUDE (degrees), GPS ALTITUDE (m),GPS SPEED (Kmh),GPS ACCURACY (m),GPS ORIENTATION (Â°), SATELLITES IN RANGE, TIME SINCE START (ms), DATE (YYYY-MO-DD HH-MI-SS_SSS),ACCELEROMETER X (m/s²) , ACCELEROMETER Y (m/s²), ACCELEROMETER Z (m/s²), GRAVITY X (m/s²), GRAVITY Y (m/s²), GRAVITY Z (m/s²), GYROSCOPE Yaw (rad/s), GYROSCOPE Pitch (rad/s), GYROSCOPE Roll (rad/s)
21423,47.26664,-1.710376,117.26,29.93,3.216,136.7,18 / 23,2142310,2019-08-09 20:49:51:048,-0.5768,-0.1902,10.8161,-0.3938,-0.4616,9.7879,-0.0185,0.0483,0.0095
21424,47.26664,-1.710376,117.26,29.93,3.216,136.7,18 / 23,2142411,2019-08-09 20:49:51:149,-0.7959,-0.4817,9.5813,-0.4047,-0.4771,9.7867,0.0032,-0.01,0.0242
21425,47.26664,-1.710376,117.26,29.93,3.216,136.7,18 / 23,2142510,2019-08-09 20:49:51:248,-0.7325,-0.5823,9.0144,-0.3981,-0.4772,9.7869,0.0081,-0.0204,-0.0003
21426,47.26664,-1.710376,117.26,29.93,3.216,136.7,18 / 22,2142610,2019-08-09 20:49:51:348,-0.0603,-0.0304,9.8261,-0.3853,-0.4651,9.788,0.0022,0.0127,-0.0027
21427,47.26664,-1.710376,117.26,29.93,3.216,136.7,18 / 22,2142710,2019-08-09 20:49:51:448,-0.083,-0.4021,9.5005,-0.3806,-0.4599,9.7885,-0.0039,-0.0332,0.0161
21428,47.26664,-1.710376,117.26,29.93,3.216,136.7,18 / 22,2142810,2019-08-09 20:49:51:548,0.051,-0.6098,9.8985,-0.3806,-0.4634,9.7883,0.0,0.0018,-0.0138
21429,47.26664,-1.710376,117.26,29.93,3.216,136.7,18 / 22,2142910,2019-08-09 20:49:51:648,-0.1417,-0.5643,10.1948,-0.3959,-0.4613,9.7878,-0.0013,0.0387,0.0201
21430,47.26664,-1.710376,117.26,29.93,3.216,136.7,18 / 22,2143010,2019-08-09 20:49:51:748,0.0738,-0.2824,10.1505,-0.4315,-0.4556,9.7866,-0.0006,0.0213,0.0144
21431,47.26664,-1.710376,117.26,29.93,3.216,136.7,18 / 22,2143111,2019-08-09 20:49:51:849,0.5023,-0.7325,9.2155,-0.4264,-0.4529,9.7869,0.0107,-0.0455,0.0158
21432,47.26664,-1.710376,117.26,29.93,3.216,136.7,18 / 22,2143211,2019-08-09 20:49:51:949,0.1432,-0.0184,9.9817,-0.4262,-0.4361,9.7877,0.0013,0.0054,-0.0122
21433,47.26664,-1.710376,117.26,29.93,3.216,136.7,18 / 22,2143310,2019-08-09 20:49:52:048,-0.1956,-0.5105,9.8817,-0.4262,-0.4327,9.7878,-0.0025,-0.0105,0.0277
21434,47.26664,-1.710376,117.26,29.93,3.216,136.7,18 / 22,2143410,2019-08-09 20:49:52:148,0.3042,-0.6936,9.8662,-0.4282,-0.429,9.7879,0.0133,0.0012,0.0139
21435,47.26664,-1.710376,117.26,29.93,3.216,136.7,18 / 22,2143510,2019-08-09 20:49:52:248,0.0894,-0.5984,9.932,-0.4328,-0.4241,9.7879,-0.0012,-0.021,-0.0003
21436,47.26664,-1.710376,117.26,29.93,3.216,136.7,16 / 21,2143610,2019-08-09 20:49:52:348,-0.6499,-0.3907,9.1701,-0.4014,-0.4176,9.7895,0.0086,-0.0327,0.0247
21437,47.26664,-1.710376,117.26,29.93,3.216,136.7,16 / 21,2143711,2019-08-09 20:49:52:449,0.3455,-0.1705,9.2844,-0.3987,-0.411,9.7899,0.0101,-0.0114,-0.0096
21438,47.26664,-1.710376,117.26,29.93,3.216,136.7,16 / 21,2143810,2019-08-09 20:49:52:548,-0.2291,-0.2662,9.4759,-0.3995,-0.4165,9.7897,-0.0175,-0.0399,0.0025
21439,47.26664,-1.710376,117.26,29.93,3.216,136.7,16 / 21,2143910,2019-08-09 20:49:52:648,-0.0764,0.0079,10.1888,-0.425,-0.4199,9.7884,-0.0122,0.0231,-0.023
21440,47.26664,-1.710376,117.26,29.93,3.216,136.7,16 / 21,2144010,2019-08-09 20:49:52:748,-0.7145,-0.5583,10.6096,-0.4781,-0.4265,9.7857,-0.0167,-0.0644,0.0274
21441,47.26664,-1.710376,117.26,29.93,3.216,136.7,16 / 21,2144110,2019-08-09 20:49:52:848,-0.8773,-0.2555,9.5729,-0.4424,-0.4237,9.7875,-0.0262,0.0089,-0.0564
21442,47.26664,-1.710376,117.26,29.93,3.216,136.7,16 / 21,2144210,2019-08-09 20:49:52:948,-0.9833,-0.0083,9.8117,-0.4294,-0.4466,9.7871,-0.024,0.0463,-0.039
21443,47.26664,-1.710376,117.26,29.93,3.216,136.7,16 / 21,2144310,2019-08-09 20:49:53:048,-0.693,-0.6637,9.9769,-0.4427,-0.4511,9.7863,-0.0184,-0.0163,0.02
21444,47.26664,-1.710376,117.26,29.93,3.216,136.7,16 / 21,2144410,2019-08-09 20:49:53:148,-0.4781,-1.0162,9.9853,-0.4598,-0.4684,9.7847,0.0135,0.0112,-0.0043
21445,47.26664,-1.710376,117.26,29.93,3.216,136.7,16 / 21,2144510,2019-08-09 20:49:53:248,-0.5816,-0.4476,8.9492,-0.4686,-0.4587,9.7847,0.0353,-0.0304,0.0075
21446,47.26664,-1.710376,117.26,29.93,3.216,136.7,16 / 21,2144610,2019-08-09 20:49:53:348,-0.9725,-0.2184,9.1419,-0.4348,-0.4253,9.7878,0.0086,-0.0325,-0.0038
21447,47.26664,-1.710376,117.26,29.93,3.216,136.7,16 / 21,2144711,2019-08-09 20:49:53:449,-0.4913,-0.1435,10.1122,-0.4371,-0.4202,9.7879,-0.0049,0.0219,-0.0007
21448,47.26664,-1.710376,117.26,29.93,3.216,136.7,16 / 21,2144811,2019-08-09 20:49:53:549,-0.5966,-0.5302,9.5962,-0.4356,-0.4229,9.7878,0.006,-0.0021,0.0074
21449,47.26664,-1.710376,117.26,29.93,3.216,136.7,16 / 21,2144911,2019-08-09 20:49:53:649,-0.778,-0.4919,9.3526,-0.45,-0.4064,9.7879,0.0303,0.0175,-0.0026
21450,47.26664,-1.710376,117.26,29.93,3.216,136.7,16 / 21,2145011,2019-08-09 20:49:53:749,-1.5842,0.0737,10.1331,-0.4758,-0.3887,9.7874,0.0056,0.0163,0.0155
21451,47.26664,-1.710376,117.26,29.93,3.216,136.7,16 / 21,2145111,2019-08-09 20:49:53:849,-0.8354,-0.3417,10.0074,-0.4735,-0.3711,9.7882,0.0088,0.0082,-0.0057
21452,47.26664,-1.710376,117.26,29.93,3.216,136.7,16 / 21,2145210,2019-08-09 20:49:53:948,-0.5912,-0.1328,9.695,-0.4873,-0.3653,9.7877,0.0088,0.0082,-0.0057
21453,47.26664,-1.710376,117.26,29.93,3.216,136.7,16 / 21,2145310,2019-08-09 20:49:54:048,-0.7085,-0.1196,8.7559,-0.4731,-0.3535,9.7889,0.0006,-0.0577,0.0055
21454,47.26664,-1.710376,117.26,29.93,3.216,136.7,16 / 21,2145410,2019-08-09 20:49:54:148,-0.6918,0.0618,8.9402,-0.4664,-0.3456,9.7895,0.0126,-0.0302,-0.0055
21455,47.26664,-1.710376,117.26,29.93,3.216,136.7,16 / 21,2145511,2019-08-09 20:49:54:249,-0.8797,0.2048,10.3396,-0.4814,-0.3263,9.7894,0.0011,0.0549,-0.0184
21456,47.26664,-1.710376,117.26,29.93,3.216,136.7,18 / 23,2145616,2019-08-09 20:49:54:354,-0.8659,-0.3423,10.1463,-0.4957,-0.3262,9.7887,-0.0043,0.003,0.0093
21457,47.26664,-1.710376,117.26,29.93,3.216,136.7,18 / 23,2145710,2019-08-09 20:49:54:448,-0.8276,-0.3536,9.78,-0.5183,-0.3246,9.7876,0.0049,-0.0079,-0.0036
21458,47.26664,-1.710376,117.26,29.93,3.216,136.7,18 / 23,2145811,2019-08-09 20:49:54:549,-1.4579,0.0749,10.3277,-0.5236,-0.3192,9.7875,-0.0044,0.0302,-0.0056
21459,47.26664,-1.710376,117.26,29.93,3.216,136.7,18 / 23,2145910,2019-08-09 20:49:54:648,-1.416,-0.1549,9.1006,-0.51,-0.321,9.7881,0.0036,0.0024,0.003
21460,47.26664,-1.710376,117.26,29.93,3.216,136.7,18 / 23,2146010,2019-08-09 20:49:54:748,-1.1299,0.0917,10.2253,-0.5081,-0.3178,9.7883,-0.0094,0.0117,-0.0141
21461,47.26664,-1.710376,117.26,29.93,3.216,136.7,18 / 23,2146110,2019-08-09 20:49:54:848,-0.1674,-0.3877,10.5012,-0.5307,-0.3377,9.7865,-0.021,-0.0002,0.0197
21462,47.26664,-1.710376,117.26,29.93,3.216,136.7,18 / 23,2146210,2019-08-09 20:49:54:948,-2.1774,-0.8971,9.5777,-0.5314,-0.3486,9.786,0.0033,-0.0061,0.022
21463,47.26664,-1.710376,117.26,29.93,3.216,136.7,18 / 23,2146310,2019-08-09 20:49:55:048,-0.9318,0.0432,10.6646,-0.56,-0.3462,9.7845,-0.0147,0.0425,-0.0148
21464,47.26664,-1.710376,117.26,29.93,3.216,136.7,18 / 23,2146410,2019-08-09 20:49:55:148,-0.2057,-0.3788,10.3444,-0.5759,-0.358,9.7832,-0.0222,-0.0182,0.0538
21465,47.26664,-1.710376,117.26,29.93,3.216,136.7,18 / 23,2146510,2019-08-09 20:49:55:248,-0.6271,-0.6798,8.9648,-0.5323,-0.3795,9.7848,0.0024,-0.0504,0.0171
21466,47.26664,-1.710376,117.26,29.93,3.216,136.7,17 / 21,2146610,2019-08-09 20:49:55:348,0.4431,-0.5787,9.7776,-0.5182,-0.3821,9.7855,-0.0041,0.0012,0.0006
21467,47.26664,-1.710376,117.26,29.93,3.216,136.7,17 / 21,2146710,2019-08-09 20:49:55:448,-1.2263,-0.4009,9.8524,-0.5324,-0.3938,9.7843,-0.0099,-0.0129,0.0171
21468,47.26664,-1.710376,117.26,29.93,3.216,136.7,17 / 21,2146810,2019-08-09 20:49:55:548,-0.9659,-0.4147,9.1156,-0.5134,-0.395,9.7852,0.0039,-0.0239,0.0198
21469,47.26664,-1.710376,117.26,29.93,3.216,136.7,17 / 21,2146910,2019-08-09 20:49:55:648,0.3006,-0.3087,10.6138,-0.5397,-0.3979,9.7837,-0.0075,0.0353,0.0004
21470,47.26664,-1.710376,117.26,29.93,3.216,136.7,17 / 21,2147010,2019-08-09 20:49:55:748,0.0259,-0.963,9.1611,-0.5084,-0.4038,9.7851,-0.0006,-0.0503,0.0338
21471,47.26664,-1.710376,117.26,29.93,3.216,136.7,17 / 21,2147111,2019-08-09 20:49:55:849,1.5169,-0.6804,8.875,-0.5,-0.4092,9.7853,-0.0082,-0.0845,0.0084
21472,47.26664,-1.710376,117.26,29.93,3.216,136.7,17 / 21,2147211,2019-08-09 20:49:55:949,-0.1698,-0.6619,8.6056,-0.5315,-0.42,9.7832,-0.0227,-0.0612,0.0197
21473,47.26664,-1.710376,117.26,29.93,3.216,136.7,17 / 21,2147311,2019-08-09 20:49:56:049,-0.1369,-0.4733,9.3017,-0.5197,-0.4397,9.783,-0.0013,0.0339,-0.0035
21474,47.26664,-1.710376,117.26,29.93,3.216,136.7,17 / 21,2147410,2019-08-09 20:49:56:148,-0.3039,-0.3351,10.7101,-0.5507,-0.4452,9.781,-0.0092,0.0029,0.0125
21475,47.26664,-1.710376,117.26,29.93,3.216,136.7,17 / 21,2147510,2019-08-09 20:49:56:248,-1.1598,-1.0755,10.0912,-0.5567,-0.4505,9.7805,0.0201,-0.0397,0.0047
21476,47.265,-1.707932,115.92,28.9,3.216,133.3,16 / 21,2147611,2019-08-09 20:49:56:349,0.5329,-0.3656,10.0068,-0.5435,-0.442,9.7816,0.0314,0.0226,0.0002
21477,47.265,-1.707932,115.92,28.9,3.216,133.3,16 / 21,2147711,2019-08-09 20:49:56:449,-0.6391,-0.2471,9.7932,-0.5622,-0.4193,9.7815,-0.0043,-0.0286,0.0114
21478,47.265,-1.707932,115.92,28.9,3.216,133.3,16 / 21,2147810,2019-08-09 20:49:56:548,-0.3668,-0.7768,9.0719,-0.5357,-0.425,9.7828,0.0083,-0.0162,0.0284
21479,47.265,-1.707932,115.92,28.9,3.216,133.3,16 / 21,2147910,2019-08-09 20:49:56:648,-0.1824,-0.3584,10.0595,-0.5396,-0.4188,9.7828,-0.005,0.0256,-0.0032
21480,47.265,-1.707932,115.92,28.9,3.216,133.3,16 / 21,2148010,2019-08-09 20:49:56:748,-0.5212,-0.6445,10.1128,-0.5463,-0.4246,9.7822,-0.0112,-0.0014,0.0317
21481,47.265,-1.707932,115.92,28.9,3.216,133.3,16 / 21,2148111,2019-08-09 20:49:56:849,0.2079,-0.7271,9.7866,-0.5616,-0.4393,9.7807,-0.0024,-0.0015,0.0202
21482,47.265,-1.707932,115.92,28.9,3.216,133.3,16 / 21,2148211,2019-08-09 20:49:56:949,-0.2063,-0.6529,10.26,-0.5832,-0.4455,9.7792,0.0001,0.0031,0.0013
21483,47.265,-1.707932,115.92,28.9,3.216,133.3,16 / 21,2148310,2019-08-09 20:49:57:048,-0.5804,-0.1603,10.0685,-0.5945,-0.4483,9.7783,0.0131,-0.0209,0.0331
21484,47.265,-1.707932,115.92,28.9,3.216,133.3,16 / 21,2148410,2019-08-09 20:49:57:148,-0.1363,-0.3351,9.1862,-0.5668,-0.433,9.7807,0.0219,-0.0342,-0.0112
21485,47.265,-1.707932,115.92,28.9,3.216,133.3,16 / 21,2148510,2019-08-09 20:49:57:248,-0.1207,-0.1423,9.7273,-0.5657,-0.4191,9.7813,-0.0023,0.0085,-0.015
21486,47.265,-1.707932,115.92,28.9,3.216,133.3,17 / 22,2148610,2019-08-09 20:49:57:348,-0.6702,-0.7684,9.6244,-0.5518,-0.4194,9.7821,-0.0058,-0.0201,0.0329
21487,47.265,-1.707932,115.92,28.9,3.216,133.3,17 / 22,2148710,2019-08-09 20:49:57:448,-0.1465,-0.0801,9.7806,-0.5738,-0.4239,9.7807,-0.0102,-0.0065,-0.0134
21488,47.265,-1.707932,115.92,28.9,3.216,133.3,17 / 22,2148810,2019-08-09 20:49:57:548,-0.7223,-0.541,9.5286,-0.5744,-0.4291,9.7804,0.0045,-0.0182,-0.0034
21489,47.265,-1.707932,115.92,28.9,3.216,133.3,17 / 22,2148910,2019-08-09 20:49:57:648,-0.3398,-0.5637,9.8249,-0.5667,-0.4299,9.7808,0.0101,0.0245,-0.0119
21490,47.265,-1.707932,115.92,28.9,3.216,133.3,17 / 22,2149010,2019-08-09 20:49:57:748,-0.4487,-0.3441,9.5286,-0.5697,-0.4205,9.7811,-0.003,-0.0016,0.0034
21491,47.265,-1.707932,115.92,28.9,3.216,133.3,17 / 22,2149111,2019-08-09 20:49:57:849,-0.2255,-0.5907,9.3299,-0.5699,-0.4211,9.781,0.0005,-0.0138,0.017
21492,47.265,-1.707932,115.92,28.9,3.216,133.3,17 / 22,2149210,2019-08-09 20:49:57:948,-0.7414,-0.1591,9.2706,-0.5459,-0.4214,9.7824,0.0146,-0.0286,0.0293
21493,47.265,-1.707932,115.92,28.9,3.216,133.3,17 / 22,2149311,2019-08-09 20:49:58:049,-1.4561,0.0037,10.0655,-0.5393,-0.4156,9.783,0.0007,0.0353,-0.0157
21494,47.265,-1.707932,115.92,28.9,3.216,133.3,17 / 22,2149410,2019-08-09 20:49:58:148,-1.0216,-0.4913,9.9518,-0.5486,-0.4151,9.7825,-0.0034,0.0165,0.0011
21495,47.265,-1.707932,115.92,28.9,3.216,133.3,17 / 22,2149510,2019-08-09 20:49:58:248,-0.7337,-0.5847,9.9506,-0.5719,-0.4149,9.7812,0.003,0.0077,0.0221
21496,47.265,-1.707932,115.92,28.9,3.216,133.3,15 / 20,2149611,2019-08-09 20:49:58:349,-1.6099,-0.7517,9.3059,-0.5732,-0.4117,9.7812,0.018,-0.0473,0.0165
21497,47.265,-1.707932,115.92,28.9,3.216,133.3,15 / 20,2149710,2019-08-09 20:49:58:448,-0.4637,-0.1711,9.3532,-0.5614,-0.3974,9.7825,0.0151,-0.0082,0.0131
21498,47.265,-1.707932,115.92,28.9,3.216,133.3,15 / 20,2149810,2019-08-09 20:49:58:548,-1.1347,-0.2519,10.1241,-0.5654,-0.3793,9.783,0.0011,0.0314,-0.0012
21499,47.265,-1.707932,115.92,28.9,3.216,133.3,15 / 20,2149910,2019-08-09 20:49:58:648,-0.751,-0.5057,10.4911,-0.5696,-0.378,9.7828,0.0032,0.0199,0.0188
21500,47.265,-1.707932,115.92,28.9,3.216,133.3,15 / 20,2150010,2019-08-09 20:49:58:748,-1.3208,-0.5769,9.3041,-0.5771,-0.3678,9.7827,0.0179,-0.0114,0.0214
21501,47.265,-1.707932,115.92,28.9,3.216,133.3,15 / 20,2150111,2019-08-09 20:49:58:849,-0.9851,-0.3764,9.5477,-0.5878,-0.3609,9.7824,0.0149,-0.0127,0.0021
21502,47.265,-1.707932,115.92,28.9,3.216,133.3,15 / 20,2150211,2019-08-09 20:49:58:949,-0.5589,0.045,10.4186,-0.5861,-0.3532,9.7827,-0.0094,0.0122,0.0044
21503,47.265,-1.707932,115.92,28.9,3.216,133.3,15 / 20,2150310,2019-08-09 20:49:59:048,-1.2753,-0.6475,9.3891,-0.5758,-0.3632,9.783,-0.0078,-0.0242,0.0165
21504,47.265,-1.707932,115.92,28.9,3.216,133.3,15 / 20,2150411,2019-08-09 20:49:59:149,-0.0908,-0.5254,9.3915,-0.5817,-0.3675,9.7825,0.0089,0.0249,0.0064
21505,47.265,-1.707932,115.92,28.9,3.216,133.3,15 / 20,2150510,2019-08-09 20:49:59:248,-0.2788,-0.3728,10.0996,-0.5962,-0.3675,9.7816,-0.0042,-0.0435,0.0389
21506,47.265,-1.707932,115.92,28.9,3.216,133.3,15 / 22,2150610,2019-08-09 20:49:59:348,-0.4703,-0.6385,9.2802,-0.5684,-0.373,9.7831,-0.0017,-0.0439,0.0002
21507,47.265,-1.707932,115.92,28.9,3.216,133.3,15 / 22,2150710,2019-08-09 20:49:59:448,-0.8504,-0.1172,9.0988,-0.5461,-0.3751,9.7842,-0.004,-0.0053,0.0054
21508,47.265,-1.707932,115.92,28.9,3.216,133.3,15 / 22,2150810,2019-08-09 20:49:59:548,-1.1826,-0.2423,9.8356,-0.5403,-0.3891,9.784,-0.0178,-0.0093,0.0143
21509,47.265,-1.707932,115.92,28.9,3.216,133.3,15 / 22,2150910,2019-08-09 20:49:59:648,0.3395,-0.2998,10.2133,-0.55,-0.4005,9.783,-0.01,0.0518,0.0062
21510,47.265,-1.707932,115.92,28.9,3.216,133.3,15 / 22,2151010,2019-08-09 20:49:59:748,-0.7857,-0.4039,9.9913,-0.5667,-0.4045,9.7819,0.0096,-0.0304,0.0156
21511,47.265,-1.707932,115.92,28.9,3.216,133.3,15 / 22,2151110,2019-08-09 20:49:59:848,-0.7115,-0.5811,9.3053,-0.561,-0.3975,9.7825,0.0292,0.0208,0.0005
21512,47.265,-1.707932,115.92,28.9,3.216,133.3,15 / 22,2151211,2019-08-09 20:49:59:949,-0.4829,-0.2022,10.509,-0.5761,-0.3666,9.7828,0.0047,-0.0077,0.0057
21513,47.265,-1.707932,115.92,28.9,3.216,133.3,15 / 22,2151311,2019-08-09 20:50:00:049,-0.8654,-0.6248,9.2958,-0.5813,-0.3649,9.7826,0.0024,-0.0138,0.0143
21514,47.265,-1.707932,115.92,28.9,3.216,133.3,15 / 22,2151410,2019-08-09 20:50:00:148,-1.085,-0.1645,9.5076,-0.5674,-0.3479,9.784,0.0141,-0.0164,0.0118
21515,47.265,-1.707932,115.92,28.9,3.216,133.3,15 / 22,2151510,2019-08-09 20:50:00:248,-0.0381,0.3587,10.7113,-0.5799,-0.3439,9.7834,-0.0099,0.0773,-0.0196
21516,47.265,-1.707932,115.92,28.9,3.216,133.3,16 / 22,2151610,2019-08-09 20:50:00:348,-0.8923,-0.6409,9.2401,-0.5682,-0.3478,9.784,0.0042,0.0219,0.0101
21517,47.265,-1.707932,115.92,28.9,3.216,133.3,16 / 22,2151710,2019-08-09 20:50:00:448,-0.4679,-0.599,9.2425,-0.5544,-0.344,9.7849,0.0157,0.0117,-0.0089
21518,47.265,-1.707932,115.92,28.9,3.216,133.3,16 / 22,2151810,2019-08-09 20:50:00:548,0.3318,0.1713,9.8398,-0.5597,-0.3334,9.785,0.003,0.0127,0.0247
21519,47.265,-1.707932,115.92,28.9,3.216,133.3,16 / 22,2151910,2019-08-09 20:50:00:648,-0.4805,-0.1621,9.8374,-0.5465,-0.3261,9.786,-0.0022,-0.0292,-0.0046
21520,47.265,-1.707932,115.92,28.9,3.216,133.3,16 / 22,2152011,2019-08-09 20:50:00:749,0.6538,-0.298,9.9218,-0.5614,-0.3249,9.7852,-0.0084,-0.0095,0.0135
21521,47.265,-1.707932,115.92,28.9,3.216,133.3,16 / 22,2152110,2019-08-09 20:50:00:848,-1.1143,-0.3375,9.4328,-0.5493,-0.3328,9.7856,-0.0101,-0.0047,0.0074
21522,47.265,-1.707932,115.92,28.9,3.216,133.3,16 / 22,2152211,2019-08-09 20:50:00:949,-1.0623,-0.2585,9.5483,-0.5506,-0.3272,9.7857,0.0078,-0.0049,-0.0107
21523,47.265,-1.707932,115.92,28.9,3.216,133.3,16 / 22,2152313,2019-08-09 20:50:01:051,-0.4942,0.0606,9.856,-0.5552,-0.3187,9.7857,-0.0107,-0.0122,0.0125
21524,47.265,-1.707932,115.92,28.9,3.216,133.3,16 / 22,2152411,2019-08-09 20:50:01:149,-0.0519,-0.2016,9.8548,-0.5488,-0.3187,9.7861,-0.0137,0.0061,-0.0048
21525,47.265,-1.707932,115.92,28.9,3.216,133.3,16 / 22,2152511,2019-08-09 20:50:01:249,-0.0328,-0.1669,9.5268,-0.5316,-0.3287,9.7867,-0.0008,0.0163,-0.0089
21526,47.265,-1.707932,115.92,28.9,3.216,133.3,17 / 23,2152613,2019-08-09 20:50:01:351,0.1851,0.0372,10.09,-0.5476,-0.322,9.7861,-0.0132,-0.015,0.0215
21527,47.265,-1.707932,115.92,28.9,3.216,133.3,17 / 23,2152711,2019-08-09 20:50:01:449,-0.3979,-0.772,9.176,-0.5278,-0.3313,9.7868,-0.0082,-0.027,0.0015
21528,47.265,-1.707932,115.92,28.9,3.216,133.3,17 / 23,2152811,2019-08-09 20:50:01:549,0.2689,-0.1405,9.4089,-0.5296,-0.3347,9.7866,0.0026,-0.0142,0.0038
21529,47.265,-1.707932,115.92,28.9,3.216,133.3,17 / 23,2152911,2019-08-09 20:50:01:649,-0.1477,-0.6338,10.0775,-0.5186,-0.3303,9.7874,0.0006,0.0133,0.0269
21530,47.265,-1.707932,115.92,28.9,3.216,133.3,17 / 23,2153011,2019-08-09 20:50:01:749,-1.0305,-0.4602,8.6655,-0.4946,-0.3361,9.7884,0.0003,-0.0682,0.0064
21531,47.265,-1.707932,115.92,28.9,3.216,133.3,17 / 23,2153110,2019-08-09 20:50:01:848,-0.8785,-0.3895,9.4861,-0.4901,-0.33,9.7888,-0.0111,-0.0238,0.0309
21532,47.265,-1.707932,115.92,28.9,3.216,133.3,17 / 23,2153211,2019-08-09 20:50:01:949,0.0068,-0.5919,9.6776,-0.5041,-0.3509,9.7874,-0.0304,0.0242,0.0058
21533,47.265,-1.707932,115.92,28.9,3.216,133.3,17 / 23,2153312,2019-08-09 20:50:02:050,-0.7019,-0.696,10.3336,-0.5113,-0.393,9.7854,-0.0172,0.007,0.0379
21534,47.265,-1.707932,115.92,28.9,3.216,133.3,17 / 23,2153411,2019-08-09 20:50:02:149,-0.3907,-0.7918,10.0332,-0.5396,-0.402,9.7835,0.0013,-0.0336,0.0202
21535,47.265,-1.707932,115.92,28.9,3.216,133.3,17 / 23,2153512,2019-08-09 20:50:02:250,-0.4673,-0.8564,8.9684,-0.4983,-0.4053,9.7856,0.0137,-0.0341,0.0174
21536,47.265,-1.707932,115.92,28.9,3.216,133.3,16 / 21,2153611,2019-08-09 20:50:02:349,-0.3165,-0.4853,9.2179,-0.4856,-0.4027,9.7863,0.0102,-0.0204,0.0043
21537,47.265,-1.707932,115.92,28.9,3.216,133.3,16 / 21,2153710,2019-08-09 20:50:02:448,0.5855,0.3724,10.1487,-0.487,-0.4089,9.786,-0.0165,0.026,-0.0453
21538,47.265,-1.707932,115.92,28.9,3.216,133.3,16 / 21,2153810,2019-08-09 20:50:02:548,0.2031,-0.2321,9.6926,-0.4824,-0.4043,9.7864,0.0109,0.0372,-0.0048
21539,47.265,-1.707932,115.92,28.9,3.216,133.3,16 / 21,2153910,2019-08-09 20:50:02:648,-0.4972,-0.1519,10.0996,-0.5011,-0.3997,9.7857,-0.0013,-0.0336,0.0465
21540,47.265,-1.707932,115.92,28.9,3.216,133.3,16 / 21,2154010,2019-08-09 20:50:02:748,-0.3464,-0.6182,9.0144,-0.4866,-0.4021,9.7863,0.0044,-0.006,-0.0028
21541,47.265,-1.707932,115.92,28.9,3.216,133.3,16 / 21,2154111,2019-08-09 20:50:02:849,-0.1052,0.1611,10.2259,-0.4843,-0.3868,9.787,0.0124,0.035,-0.0165
21542,47.265,-1.707932,115.92,28.9,3.216,133.3,16 / 21,2154210,2019-08-09 20:50:02:948,-0.5194,-0.1567,9.9985,-0.4853,-0.3693,9.7877,0.0,0.0271,-0.0032
21543,47.265,-1.707932,115.92,28.9,3.216,133.3,16 / 21,2154310,2019-08-09 20:50:03:048,-0.3691,-0.6212,9.4502,-0.496,-0.3663,9.7872,0.0114,0.0022,-0.0143
21544,47.265,-1.707932,115.92,28.9,3.216,133.3,16 / 21,2154411,2019-08-09 20:50:03:149,-0.836,-0.0801,9.7842,-0.5219,-0.3576,9.7862,0.0103,0.0244,-0.0066
21545,47.265,-1.707932,115.92,28.9,3.216,133.3,16 / 21,2154511,2019-08-09 20:50:03:249,0.0552,0.2832,9.9446,-0.5112,-0.3502,9.7871,-0.018,-0.0298,0.0185
21546,47.265,-1.707932,115.92,28.9,3.216,133.3,19 / 23,2154611,2019-08-09 20:50:03:349,-0.6696,-0.219,9.6956,-0.4952,-0.3621,9.7874,-0.0121,0.001,-0.0085
21547,47.265,-1.707932,115.92,28.9,3.216,133.3,19 / 23,2154710,2019-08-09 20:50:03:448,-1.2376,-0.2549,9.8692,-0.4877,-0.354,9.7881,0.0111,0.0199,-0.0078
21548,47.265,-1.707932,115.92,28.9,3.216,133.3,19 / 23,2154811,2019-08-09 20:50:03:549,0.254,0.0773,10.2498,-0.4868,-0.3474,9.7884,0.0001,0.0238,-0.0047
21549,47.265,-1.707932,115.92,28.9,3.216,133.3,19 / 23,2154910,2019-08-09 20:50:03:648,-0.5834,0.03,10.0613,-0.4885,-0.3428,9.7885,-0.0079,0.0176,-0.0071
21550,47.265,-1.707932,115.92,28.9,3.216,133.3,19 / 23,2155010,2019-08-09 20:50:03:748,-0.2764,0.2114,9.7459,-0.4923,-0.3405,9.7884,0.0038,0.0,0.007
21551,47.265,-1.707932,115.92,28.9,3.216,133.3,19 / 23,2155111,2019-08-09 20:50:03:849,-0.8402,-0.2333,9.3484,-0.4942,-0.3341,9.7885,0.0069,-0.0118,0.0065
21552,47.265,-1.707932,115.92,28.9,3.216,133.3,19 / 23,2155211,2019-08-09 20:50:03:949,-0.6834,-0.4099,9.4125,-0.4858,-0.3248,9.7892,-0.0051,-0.0267,0.0128
21553,47.265,-1.707932,115.92,28.9,3.216,133.3,19 / 23,2155311,2019-08-09 20:50:04:049,-0.2895,-0.4709,9.6363,-0.4779,-0.3283,9.7895,0.0001,-0.0037,0.0203
21554,47.265,-1.707932,115.92,28.9,3.216,133.3,19 / 23,2155410,2019-08-09 20:50:04:148,0.7717,-0.0974,9.6818,-0.4878,-0.329,9.789,-0.0187,-0.0345,0.0095
21555,47.265,-1.707932,115.92,28.9,3.216,133.3,19 / 23,2155510,2019-08-09 20:50:04:248,-1.1646,-0.4769,10.0326,-0.468,-0.3398,9.7896,-0.0004,0.0492,0.0047
21556,47.265,-1.707932,115.92,28.9,3.216,133.3,19 / 23,2155611,2019-08-09 20:50:04:349,-0.7887,-0.7199,9.2359,-0.4768,-0.3329,9.7894,0.0133,-0.0111,-0.0024
21557,47.265,-1.707932,115.92,28.9,3.216,133.3,19 / 23,2155710,2019-08-09 20:50:04:448,-0.5762,-0.0819,9.9733,-0.4718,-0.3282,9.7898,0.0021,0.0178,-0.0169
21558,47.265,-1.707932,115.92,28.9,3.216,133.3,19 / 23,2155811,2019-08-09 20:50:04:549,0.3479,-0.0107,10.0499,-0.4815,-0.3061,9.79,0.0057,0.0071,0.0134
21559,47.265,-1.707932,115.92,28.9,3.216,133.3,19 / 23,2155911,2019-08-09 20:50:04:649,-0.0573,0.0737,10.2403,-0.5036,-0.3031,9.789,0.0084,0.0291,-0.0061
21560,47.265,-1.707932,115.92,28.9,3.216,133.3,19 / 23,2156011,2019-08-09 20:50:04:749,-0.6193,-0.2327,9.5029,-0.5041,-0.2782,9.7897,0.0273,-0.0285,-0.0139
21561,47.265,-1.707932,115.92,28.9,3.216,133.3,19 / 23,2156110,2019-08-09 20:50:04:848,-0.6421,0.0642,9.2772,-0.4999,-0.2623,9.7904,0.0179,0.0077,0.0026
21562,47.265,-1.707932,115.92,28.9,3.216,133.3,19 / 23,2156211,2019-08-09 20:50:04:949,-0.6732,0.2569,10.1559,-0.4963,-0.2435,9.7911,-0.0065,0.0212,0.0173
21563,47.265,-1.707932,115.92,28.9,3.216,133.3,19 / 23,2156311,2019-08-09 20:50:05:049,-0.8175,-0.2878,9.8093,-0.4836,-0.2472,9.7916,-0.0124,0.0322,-0.0121
21564,47.265,-1.707932,115.92,28.9,3.216,133.3,19 / 23,2156410,2019-08-09 20:50:05:148,-0.3829,-0.0184,10.4025,-0.5096,-0.2584,9.79,-0.0185,-0.0009,0.0201
21565,47.265,-1.707932,115.92,28.9,3.216,133.3,19 / 23,2156511,2019-08-09 20:50:05:249,-0.1531,-0.2632,9.5783,-0.5137,-0.2714,9.7894,-0.0138,0.0077,-0.0039
21566,47.263447,-1.705355,116.26,28.16,3.216,130.5,17 / 22,2156610,2019-08-09 20:50:05:348,-0.0477,0.1857,10.0469,-0.5064,-0.2755,9.7897,-0.0165,0.0145,-0.0067
21567,47.263447,-1.705355,116.26,28.16,3.216,130.5,17 / 22,2156710,2019-08-09 20:50:05:448,-0.1656,-0.2016,8.8319,-0.4564,-0.292,9.7917,-0.0228,-0.052,0.0087
21568,47.263447,-1.705355,116.26,28.16,3.216,130.5,17 / 22,2156810,2019-08-09 20:50:05:548,-0.4589,-0.5805,8.8642,-0.4566,-0.2996,9.7914,0.0043,0.0007,0.0258
21569,47.263447,-1.705355,116.26,28.16,3.216,130.5,17 / 22,2156911,2019-08-09 20:50:05:649,-0.2087,-0.2076,10.3911,-0.464,-0.3038,9.791,0.0018,0.0389,0.0423
21570,47.263447,-1.705355,116.26,28.16,3.216,130.5,17 / 22,2157010,2019-08-09 20:50:05:748,-0.2824,-0.4482,10.0607,-0.5028,-0.3053,9.789,-0.0051,0.0279,-0.0434
21571,47.263447,-1.705355,116.26,28.16,3.216,130.5,17 / 22,2157110,2019-08-09 20:50:05:848,0.9022,-0.5966,9.3017,-0.488,-0.2968,9.79,0.0149,-0.0255,-0.0287
21572,47.263447,-1.705355,116.26,28.16,3.216,130.5,17 / 22,2157210,2019-08-09 20:50:05:948,-0.3147,-0.4937,9.3592,-0.4574,-0.2746,9.7921,0.0043,-0.0215,-0.0067
21573,47.263447,-1.705355,116.26,28.16,3.216,130.5,17 / 22,2157310,2019-08-09 20:50:06:048,0.3982,-0.1639,9.9769,-0.4583,-0.2691,9.7922,0.0007,-0.006,0.0112
21574,47.263447,-1.705355,116.26,28.16,3.216,130.5,17 / 22,2157411,2019-08-09 20:50:06:149,-0.5858,-0.1783,9.926,-0.4538,-0.2757,9.7923,-0.0122,-0.0152,0.0077
21575,47.263447,-1.705355,116.26,28.16,3.216,130.5,17 / 22,2157511,2019-08-09 20:50:06:249,-0.1615,-0.5488,9.6106,-0.4503,-0.2841,9.7922,0.0019,0.0151,0.007
21576,47.263447,-1.705355,116.26,28.16,3.216,130.5,16 / 20,2157611,2019-08-09 20:50:06:349,-0.5373,-0.6732,9.7914,-0.4644,-0.2858,9.7915,0.0011,-0.013,-0.0007
21577,47.263447,-1.705355,116.26,28.16,3.216,130.5,16 / 20,2157710,2019-08-09 20:50:06:448,0.2438,-0.3201,9.9506,-0.4651,-0.2842,9.7915,-0.0067,-0.0096,0.006
21578,47.263447,-1.705355,116.26,28.16,3.216,130.5,16 / 20,2157810,2019-08-09 20:50:06:548,-1.4256,-0.3177,10.111,-0.4718,-0.3029,9.7906,-0.018,0.0385,0.0179
21579,47.263447,-1.705355,116.26,28.16,3.216,130.5,16 / 20,2157910,2019-08-09 20:50:06:648,-0.8031,-0.6559,9.4466,-0.4612,-0.3199,9.7906,0.0021,0.0031,0.0266
21580,47.263447,-1.705355,116.26,28.16,3.216,130.5,16 / 20,2158010,2019-08-09 20:50:06:748,-0.4086,-0.7146,9.5932,-0.4663,-0.3337,9.7899,-0.008,0.0272,-0.0124
21581,47.263447,-1.705355,116.26,28.16,3.216,130.5,16 / 20,2158110,2019-08-09 20:50:06:848,-0.3895,-0.4452,10.1026,-0.4815,-0.3399,9.7889,-0.0164,-0.0033,0.0277
21582,47.263447,-1.705355,116.26,28.16,3.216,130.5,16 / 20,2158210,2019-08-09 20:50:06:948,-1.7907,-1.1916,9.2634,-0.4708,-0.3645,9.7886,0.0051,-0.0528,0.0403
21583,47.263447,-1.705355,116.26,28.16,3.216,130.5,16 / 20,2158310,2019-08-09 20:50:07:048,-0.7337,-0.3668,9.5549,-0.4928,-0.364,9.7875,0.011,0.0214,-0.0116
21584,47.263447,-1.705355,116.26,28.16,3.216,130.5,16 / 20,2158410,2019-08-09 20:50:07:148,-1.1161,-0.4087,9.8763,-0.4667,-0.3558,9.7891,-0.0016,0.027,0.0046
21585,47.263447,-1.705355,116.26,28.16,3.216,130.5,16 / 20,2158510,2019-08-09 20:50:07:248,-0.2099,-0.8702,9.4628,-0.4556,-0.363,9.7893,0.0083,-0.0071,0.026
21586,47.263447,-1.705355,116.26,28.16,3.216,130.5,17 / 22,2158610,2019-08-09 20:50:07:348,-0.8468,-0.6721,9.4364,-0.4542,-0.367,9.7892,0.0078,0.009,-0.0063
21587,47.263447,-1.705355,116.26,28.16,3.216,130.5,17 / 22,2158710,2019-08-09 20:50:07:448,-0.4541,-0.2399,10.0224,-0.4515,-0.3681,9.7893,-0.02,0.0313,0.0259
21588,47.263447,-1.705355,116.26,28.16,3.216,130.5,17 / 22,2158810,2019-08-09 20:50:07:548,-0.7798,-0.7744,9.7453,-0.4711,-0.3844,9.7878,-0.0185,-0.0007,0.0203
21589,47.263447,-1.705355,116.26,28.16,3.216,130.5,17 / 22,2158910,2019-08-09 20:50:07:648,-0.5469,-0.7319,9.9978,-0.4959,-0.4041,9.7858,-0.0025,-0.0423,0.0056
21590,47.263447,-1.705355,116.26,28.16,3.216,130.5,17 / 22,2159010,2019-08-09 20:50:07:748,-0.7666,-0.7175,9.279,-0.4755,-0.4072,9.7866,0.0115,-0.0049,0.0122
21591,47.263447,-1.705355,116.26,28.16,3.216,130.5,17 / 22,2159110,2019-08-09 20:50:07:848,-0.2859,-0.1046,9.8153,-0.4792,-0.3988,9.7868,0.0,-0.01,0.017
21592,47.263447,-1.705355,116.26,28.16,3.216,130.5,17 / 22,2159211,2019-08-09 20:50:07:949,-0.8887,-0.2621,9.8781,-0.4641,-0.4014,9.7874,-0.009,0.0048,0.0032
21593,47.263447,-1.705355,116.26,28.16,3.216,130.5,17 / 22,2159311,2019-08-09 20:50:08:049,-0.7881,-0.2082,9.944,-0.497,-0.4113,9.7854,-0.0057,0.0308,-0.0002
21594,47.263447,-1.705355,116.26,28.16,3.216,130.5,17 / 22,2159411,2019-08-09 20:50:08:149,-1.0305,-0.0334,9.7177,-0.4917,-0.4136,9.7856,-0.0212,0.007,-0.0169
21595,47.263447,-1.705355,116.26,28.16,3.216,130.5,17 / 22,2159511,2019-08-09 20:50:08:249,-1.5686,-0.3405,9.6896,-0.5087,-0.4287,9.7841,-0.0029,0.0276,-0.0048
21596,47.263447,-1.705355,116.26,28.16,3.216,130.5,14 / 18,2159611,2019-08-09 20:50:08:349,-1.3029,-0.359,9.8261,-0.5113,-0.4274,9.784,0.0004,0.022,0.0065
21597,47.263447,-1.705355,116.26,28.16,3.216,130.5,14 / 18,2159711,2019-08-09 20:50:08:449,-0.6457,-0.4889,9.9075,-0.5221,-0.4184,9.7838,0.0132,-0.0245,0.0111
21598,47.263447,-1.705355,116.26,28.16,3.216,130.5,14 / 18,2159810,2019-08-09 20:50:08:548,-1.2694,-0.1896,10.3977,-0.5347,-0.4153,9.7833,0.0028,0.0546,-0.0237
21599,47.263447,-1.705355,116.26,28.16,3.216,130.5,14 / 18,2159911,2019-08-09 20:50:08:649,-0.4284,-0.7427,9.5765,-0.5382,-0.4029,9.7836,0.0042,-0.0098,0.0402
21600,47.263447,-1.705355,116.26,28.16,3.216,130.5,14 / 18,2160010,2019-08-09 20:50:08:748,-1.4549,-0.3363,9.0462,-0.522,-0.4039,9.7844,0.0058,-0.033,-0.0144
21601,47.263447,-1.705355,116.26,28.16,3.216,130.5,14 / 18,2160111,2019-08-09 20:50:08:849,-0.66,-0.1124,10.3468,-0.5438,-0.4015,9.7833,-0.0144,0.0226,-0.0012
21602,47.263447,-1.705355,116.26,28.16,3.216,130.5,14 / 18,2160210,2019-08-09 20:50:08:948,-1.3256,-0.5799,9.8279,-0.5342,-0.4144,9.7833,-0.0091,0.035,0.0122
21603,47.263447,-1.705355,116.26,28.16,3.216,130.5,14 / 18,2160310,2019-08-09 20:50:09:048,-0.3452,-0.6284,9.7638,-0.561,-0.4208,9.7815,0.0089,-0.0174,0.0132
21604,47.263447,-1.705355,116.26,28.16,3.216,130.5,14 / 18,2160411,2019-08-09 20:50:09:149,-0.5667,-0.3883,9.5902,-0.5608,-0.4166,9.7817,0.0044,-0.0285,0.0138
21605,47.263447,-1.705355,116.26,28.16,3.216,130.5,14 / 18,2160510,2019-08-09 20:50:09:248,-0.3045,-0.6008,9.4795,-0.5466,-0.4118,9.7827,0.0101,-0.0082,0.0047
21606,47.263447,-1.705355,116.26,28.16,3.216,130.5,16 / 19,2160610,2019-08-09 20:50:09:348,-0.262,-0.4021,9.5938,-0.5475,-0.4092,9.7828,0.0038,0.0255,0.0042
21607,47.263447,-1.705355,116.26,28.16,3.216,130.5,16 / 19,2160710,2019-08-09 20:50:09:448,-0.2171,-0.2513,9.8243,-0.5724,-0.4115,9.7813,-0.0078,0.0058,0.0365
21608,47.263447,-1.705355,116.26,28.16,3.216,130.5,16 / 19,2160810,2019-08-09 20:50:09:548,-0.8773,-0.6445,9.4759,-0.5625,-0.4183,9.7816,-0.0027,-0.0073,0.0051
21609,47.263447,-1.705355,116.26,28.16,3.216,130.5,16 / 19,2160910,2019-08-09 20:50:09:648,-0.6307,-0.5428,9.6411,-0.5728,-0.4259,9.7806,-0.0082,0.0284,0.0089
21610,47.263447,-1.705355,116.26,28.16,3.216,130.5,16 / 19,2161010,2019-08-09 20:50:09:748,0.2348,-0.7026,10.099,-0.5935,-0.4341,9.779,-0.0085,-0.0228,0.0311
21611,47.263447,-1.705355,116.26,28.16,3.216,130.5,16 / 19,2161111,2019-08-09 20:50:09:849,-0.9683,-0.778,10.0296,-0.6046,-0.4461,9.7778,0.0063,-0.0375,0.0107
21612,47.263447,-1.705355,116.26,28.16,3.216,130.5,16 / 19,2161211,2019-08-09 20:50:09:949,-1.2329,-0.6894,9.3293,-0.5905,-0.443,9.7788,0.0223,0.0054,0.0138
21613,47.263447,-1.705355,116.26,28.16,3.216,130.5,16 / 19,2161310,2019-08-09 20:50:10:048,-1.4872,-0.5248,9.3365,-0.5824,-0.4225,9.7802,0.012,0.018,0.0184
21614,47.263447,-1.705355,116.26,28.16,3.216,130.5,16 / 19,2161411,2019-08-09 20:50:10:149,-1.5064,-0.6284,9.7088,-0.576,-0.4218,9.7806,-0.005,0.0338,0.0027
21615,47.263447,-1.705355,116.26,28.16,3.216,130.5,16 / 19,2161511,2019-08-09 20:50:10:249,-1.0724,-0.3686,10.0613,-0.5981,-0.4268,9.7791,-0.003,0.0157,0.0251
21616,47.263447,-1.705355,116.26,28.16,3.216,130.5,18 / 22,2161610,2019-08-09 20:50:10:348,-0.7917,-0.3913,9.3897,-0.5938,-0.4279,9.7793,0.0021,-0.0201,-0.0018
21617,47.263447,-1.705355,116.26,28.16,3.216,130.5,18 / 22,2161710,2019-08-09 20:50:10:448,-1.346,-0.1268,9.7788,-0.6219,-0.4232,9.7778,0.0032,-0.007,-0.0023
21618,47.263447,-1.705355,116.26,28.16,3.216,130.5,18 / 22,2161810,2019-08-09 20:50:10:548,-0.678,-0.4003,9.8913,-0.6198,-0.4195,9.778,-0.0059,-0.0069,0.0163
21619,47.263447,-1.705355,116.26,28.16,3.216,130.5,18 / 22,2161910,2019-08-09 20:50:10:648,-1.3825,-0.6194,9.1485,-0.5938,-0.4209,9.7796,0.0175,-0.0201,0.0141
21620,47.263447,-1.705355,116.26,28.16,3.216,130.5,18 / 22,2162010,2019-08-09 20:50:10:748,-1.0449,-0.1968,9.9775,-0.5882,-0.4088,9.7805,-0.0107,-0.0199,0.0166
21621,47.263447,-1.705355,116.26,28.16,3.216,130.5,18 / 22,2162111,2019-08-09 20:50:10:849,-1.3735,-0.547,9.2694,-0.5765,-0.412,9.781,-0.0072,-0.0019,0.0267
21622,47.263447,-1.705355,116.26,28.16,3.216,130.5,18 / 22,2162210,2019-08-09 20:50:10:948,-0.5469,-0.2591,9.5424,-0.5749,-0.4172,9.7809,0.0091,-0.0026,0.0182
21623,47.263447,-1.705355,116.26,28.16,3.216,130.5,18 / 22,2162310,2019-08-09 20:50:11:048,-0.6475,-0.6487,9.8195,-0.5758,-0.4115,9.7811,0.0012,0.0224,-0.0051
21624,47.263447,-1.705355,116.26,28.16,3.216,130.5,18 / 22,2162410,2019-08-09 20:50:11:148,-0.587,-0.3752,10.1601,-0.5972,-0.408,9.7799,0.0091,0.0274,0.0125
21625,47.263447,-1.705355,116.26,28.16,3.216,130.5,18 / 22,2162510,2019-08-09 20:50:11:248,-1.012,-0.5069,9.8225,-0.6132,-0.4026,9.7792,0.0163,-0.0045,0.0189
21626,47.263447,-1.705355,116.26,28.16,3.216,130.5,17 / 22,2162610,2019-08-09 20:50:11:348,-1.6123,-0.1136,10.1355,-0.6246,-0.3865,9.7791,-0.0026,-0.0268,0.0166
21627,47.263447,-1.705355,116.26,28.16,3.216,130.5,17 / 22,2162710,2019-08-09 20:50:11:448,-0.7756,-0.4129,9.7997,-0.6349,-0.3902,9.7783,-0.0049,0.0012,0.0235
21628,47.263447,-1.705355,116.26,28.16,3.216,130.5,17 / 22,2162810,2019-08-09 20:50:11:548,-1.1933,-0.4464,9.379,-0.6089,-0.3865,9.7801,0.0087,-0.006,-0.002
21629,47.263447,-1.705355,116.26,28.16,3.216,130.5,17 / 22,2162910,2019-08-09 20:50:11:648,-1.1999,-0.5063,9.7123,-0.6343,-0.3851,9.7785,-0.0047,-0.0234,0.0278
21630,47.263447,-1.705355,116.26,28.16,3.216,130.5,17 / 22,2163010,2019-08-09 20:50:11:748,-1.2089,-0.8229,9.6411,-0.6181,-0.3872,9.7795,0.021,0.0054,0.0215
21631,47.263447,-1.705355,116.26,28.16,3.216,130.5,17 / 22,2163110,2019-08-09 20:50:11:848,-0.4278,-0.3447,10.2564,-0.6335,-0.3769,9.7789,0.0052,0.032,0.0016
21632,47.263447,-1.705355,116.26,28.16,3.216,130.5,17 / 22,2163210,2019-08-09 20:50:11:948,-1.0473,-0.3895,10.111,-0.6589,-0.3674,9.7776,-0.0016,0.0068,0.0134
21633,47.263447,-1.705355,116.26,28.16,3.216,130.5,17 / 22,2163310,2019-08-09 20:50:12:048,-1.0706,-0.8187,9.8656,-0.6682,-0.3669,9.777,0.0088,0.0017,0.0351
21634,47.263447,-1.705355,116.26,28.16,3.216,130.5,17 / 22,2163410,2019-08-09 20:50:12:148,-1.4238,-0.7349,9.2706,-0.6489,-0.3507,9.7789,0.0214,-0.0374,0.0365
21635,47.263447,-1.705355,116.26,28.16,3.216,130.5,17 / 22,2163510,2019-08-09 20:50:12:248,-1.0653,-0.5146,9.8865,-0.6571,-0.3478,9.7784,-0.0144,0.0097,0.0159
21636,47.263447,-1.705355,116.26,28.16,3.216,130.5,14 / 17,2163610,2019-08-09 20:50:12:348,-0.6678,-0.3943,10.4731,-0.6619,-0.3676,9.7774,-0.0201,-0.003,0.0346
21637,47.263447,-1.705355,116.26,28.16,3.216,130.5,14 / 17,2163710,2019-08-09 20:50:12:448,-0.7516,-0.4207,10.536,-0.7001,-0.378,9.7743,0.0011,-0.0215,0.0103
21638,47.263447,-1.705355,116.26,28.16,3.216,130.5,14 / 17,2163810,2019-08-09 20:50:12:548,-1.4711,-0.5619,10.0966,-0.7076,-0.3749,9.7739,0.0003,0.0174,-0.0155
21639,47.263447,-1.705355,116.26,28.16,3.216,130.5,14 / 17,2163910,2019-08-09 20:50:12:648,-1.1431,-0.1651,10.4731,-0.7205,-0.3743,9.773,-0.0039,-0.0156,0.0212
21640,47.263447,-1.705355,116.26,28.16,3.216,130.5,14 / 17,2164010,2019-08-09 20:50:12:748,-0.444,-0.6972,9.6333,-0.6606,-0.3815,9.7769,-0.0008,-0.0499,-0.0021
21641,47.263447,-1.705355,116.26,28.16,3.216,130.5,14 / 17,2164111,2019-08-09 20:50:12:849,0.169,-0.5434,9.4633,-0.6665,-0.3798,9.7766,0.0111,-0.0166,0.0278
21642,47.263447,-1.705355,116.26,28.16,3.216,130.5,14 / 17,2164211,2019-08-09 20:50:12:949,-0.7426,-0.2758,9.9985,-0.6541,-0.3802,9.7774,-0.0145,-0.0015,0.0024
21643,47.263447,-1.705355,116.26,28.16,3.216,130.5,14 / 17,2164310,2019-08-09 20:50:13:048,-0.666,-0.5936,10.2863,-0.658,-0.3853,9.777,-0.0032,0.0214,0.0383
21644,47.263447,-1.705355,116.26,28.16,3.216,130.5,14 / 17,2164410,2019-08-09 20:50:13:148,0.0133,-0.7828,9.7243,-0.6475,-0.3991,9.7771,-0.0099,-0.03,0.0115
21645,47.263447,-1.705355,116.26,28.16,3.216,130.5,14 / 17,2164510,2019-08-09 20:50:13:248,-0.7115,-0.6607,9.3676,-0.6397,-0.4077,9.7773,-0.0058,0.0219,0.0324
21646,47.263447,-1.705355,116.26,28.16,3.216,130.5,19 / 23,2164610,2019-08-09 20:50:13:348,-0.3063,-0.6619,10.1182,-0.6288,-0.4182,9.7775,-0.0044,0.0116,0.003
21647,47.263447,-1.705355,116.26,28.16,3.216,130.5,19 / 23,2164710,2019-08-09 20:50:13:448,-0.3171,-0.4392,10.1655,-0.6357,-0.4203,9.777,-0.0071,0.0117,0.0174
21648,47.263447,-1.705355,116.26,28.16,3.216,130.5,19 / 23,2164811,2019-08-09 20:50:13:549,-0.5774,-0.4847,9.5962,-0.6139,-0.4186,9.7785,0.0181,-0.0189,0.0189
21649,47.263447,-1.705355,116.26,28.16,3.216,130.5,19 / 23,2164910,2019-08-09 20:50:13:648,-0.5912,-0.1334,9.4095,-0.6038,-0.4034,9.7797,0.0221,-0.0228,-0.0205
21650,47.263447,-1.705355,116.26,28.16,3.216,130.5,19 / 23,2165010,2019-08-09 20:50:13:748,-0.1716,0.2228,9.7237,-0.5932,-0.3917,9.7809,-0.0108,-0.0257,-0.0143
21651,47.263447,-1.705355,116.26,28.16,3.216,130.5,19 / 23,2165110,2019-08-09 20:50:13:848,-0.8175,-0.5338,9.9608,-0.5732,-0.394,9.782,0.0018,0.0179,0.0156
21652,47.263447,-1.705355,116.26,28.16,3.216,130.5,19 / 23,2165210,2019-08-09 20:50:13:948,-1.7201,0.1534,9.5011,-0.5849,-0.3849,9.7816,-0.011,-0.0266,-0.0414
21653,47.263447,-1.705355,116.26,28.16,3.216,130.5,19 / 23,2165310,2019-08-09 20:50:14:048,-0.775,-0.0633,9.6357,-0.559,-0.3796,9.7833,-0.0004,0.0259,-0.0283
21654,47.263447,-1.705355,116.26,28.16,3.216,130.5,19 / 23,2165410,2019-08-09 20:50:14:148,-0.9599,0.2599,10.1876,-0.5674,-0.3717,9.7832,0.0031,0.0134,-0.0015
21655,47.263447,-1.705355,116.26,28.16,3.216,130.5,19 / 23,2165510,2019-08-09 20:50:14:248,-0.438,0.0833,10.1954,-0.5829,-0.3558,9.7828,-0.004,0.0228,-0.0341
21656,47.262043,-1.70272,115.0,28.32,3.216,126.1,16 / 21,2165610,2019-08-09 20:50:14:348,-0.8605,0.2527,10.0128,-0.5957,-0.3453,9.7825,0.0052,0.007,-0.0178
21657,47.262043,-1.70272,115.0,28.32,3.216,126.1,16 / 21,2165711,2019-08-09 20:50:14:449,-0.1172,0.4532,9.5208,-0.5893,-0.3155,9.7838,0.0182,0.0013,-0.035
21658,47.262043,-1.70272,115.0,28.32,3.216,126.1,16 / 21,2165811,2019-08-09 20:50:14:549,-1.6692,0.3227,9.3424,-0.5747,-0.2878,9.7856,0.017,-0.0064,-0.0316
21659,47.262043,-1.70272,115.0,28.32,3.216,126.1,16 / 21,2165911,2019-08-09 20:50:14:649,-0.7247,0.0636,9.5854,-0.5638,-0.2684,9.7868,-0.0065,0.0067,-0.0176
21660,47.262043,-1.70272,115.0,28.32,3.216,126.1,16 / 21,2166010,2019-08-09 20:50:14:748,-1.1305,0.3132,10.1858,-0.5757,-0.2627,9.7862,-0.0086,0.054,-0.0139
21661,47.262043,-1.70272,115.0,28.32,3.216,126.1,16 / 21,2166111,2019-08-09 20:50:14:849,-0.7265,0.4197,10.4486,-0.5989,-0.2578,9.785,-0.0157,-0.0084,0.0029
21662,47.262043,-1.70272,115.0,28.32,3.216,126.1,16 / 21,2166211,2019-08-09 20:50:14:949,-1.422,0.1767,9.2185,-0.5907,-0.2588,9.7854,0.0089,-0.0191,0.0025
21663,47.262043,-1.70272,115.0,28.32,3.216,126.1,16 / 21,2166311,2019-08-09 20:50:15:049,-0.6756,0.1569,9.4478,-0.5616,-0.2446,9.7875,-0.002,-0.0141,-0.0099
21664,47.262043,-1.70272,115.0,28.32,3.216,126.1,16 / 21,2166411,2019-08-09 20:50:15:149,-0.4278,-0.1046,9.8937,-0.5798,-0.2459,9.7864,-0.0208,-0.0155,0.0194
21665,47.262043,-1.70272,115.0,28.32,3.216,126.1,16 / 21,2166510,2019-08-09 20:50:15:248,-0.8384,-0.1513,9.8147,-0.5731,-0.2607,9.7864,-0.0139,0.0036,0.0046
21666,47.262043,-1.70272,115.0,28.32,3.216,126.1,17 / 23,2166610,2019-08-09 20:50:15:348,-0.7995,-0.1441,10.1254,-0.5828,-0.262,9.7858,0.0065,0.0068,-0.0076
21667,47.262043,-1.70272,115.0,28.32,3.216,126.1,17 / 23,2166710,2019-08-09 20:50:15:448,-0.5188,0.0169,9.9536,-0.5916,-0.2491,9.7856,-0.0145,-0.006,-0.0226
21668,47.262043,-1.70272,115.0,28.32,3.216,126.1,17 / 23,2166810,2019-08-09 20:50:15:548,0.1672,0.0313,9.7255,-0.5889,-0.2531,9.7857,-0.0145,-0.006,-0.0226
21669,47.262043,-1.70272,115.0,28.32,3.216,126.1,17 / 23,2166910,2019-08-09 20:50:15:648,-0.0046,-0.1507,9.3927,-0.5848,-0.2583,9.7858,-0.0081,-0.0064,0.0004
21670,47.262043,-1.70272,115.0,28.32,3.216,126.1,17 / 23,2167010,2019-08-09 20:50:15:748,0.4054,-0.0526,10.0984,-0.5866,-0.2581,9.7857,0.0046,-0.0016,0.0025
21671,47.262043,-1.70272,115.0,28.32,3.216,126.1,17 / 23,2167110,2019-08-09 20:50:15:848,-0.7492,0.0983,10.117,-0.5968,-0.2562,9.7851,-0.0197,-0.0124,0.0121
21672,47.262043,-1.70272,115.0,28.32,3.216,126.1,17 / 23,2167211,2019-08-09 20:50:15:949,-0.2165,-0.2142,9.619,-0.5902,-0.2712,9.7851,-0.0132,-0.0151,0.02
21673,47.262043,-1.70272,115.0,28.32,3.216,126.1,17 / 23,2167310,2019-08-09 20:50:16:048,-0.5325,-0.1262,9.8099,-0.5998,-0.2729,9.7845,0.0069,0.01,0.0041
21674,47.262043,-1.70272,115.0,28.32,3.216,126.1,17 / 23,2167411,2019-08-09 20:50:16:149,0.2378,0.036,10.202,-0.6104,-0.2696,9.7839,-0.0149,0.0064,-0.0019
21675,47.262043,-1.70272,115.0,28.32,3.216,126.1,17 / 23,2167510,2019-08-09 20:50:16:248,-0.7809,-0.6128,9.1647,-0.5882,-0.2828,9.7849,0.0038,-0.0062,0.0047
21676,47.262043,-1.70272,115.0,28.32,3.216,126.1,18 / 22,2167610,2019-08-09 20:50:16:348,-0.0597,-0.0753,9.4526,-0.5775,-0.2784,9.7857,0.007,-0.0122,-0.0118
21677,47.262043,-1.70272,115.0,28.32,3.216,126.1,18 / 22,2167710,2019-08-09 20:50:16:448,0.1648,-0.4907,9.7004,-0.5839,-0.2801,9.7852,-0.0069,0.0322,0.0019
21678,47.262043,-1.70272,115.0,28.32,3.216,126.1,18 / 22,2167810,2019-08-09 20:50:16:548,-1.1131,-0.9193,9.9129,-0.5808,-0.2818,9.7854,0.005,-0.0021,0.012
21679,47.262043,-1.70272,115.0,28.32,3.216,126.1,18 / 22,2167910,2019-08-09 20:50:16:648,-0.9126,-0.6481,9.4041,-0.5904,-0.2803,9.7849,0.011,0.0004,-0.0039
21680,47.262043,-1.70272,115.0,28.32,3.216,126.1,18 / 22,2168010,2019-08-09 20:50:16:748,-1.0156,-0.4805,9.595,-0.5912,-0.2716,9.785,0.0178,-0.0257,0.0284
21681,47.262043,-1.70272,115.0,28.32,3.216,126.1,18 / 22,2168110,2019-08-09 20:50:16:848,-0.0836,-0.2662,10.1517,-0.5975,-0.2699,9.7847,-0.0061,-0.0035,0.0162
21682,47.262043,-1.70272,115.0,28.32,3.216,126.1,18 / 22,2168210,2019-08-09 20:50:16:948,-0.4835,-0.6188,9.935,-0.5967,-0.2778,9.7845,0.0019,-0.0273,0.0152
21683,47.262043,-1.70272,115.0,28.32,3.216,126.1,18 / 22,2168310,2019-08-09 20:50:17:048,-0.2045,-0.5284,9.288,-0.5825,-0.2788,9.7854,0.0116,-0.0042,0.0066
21684,47.262043,-1.70272,115.0,28.32,3.216,126.1,18 / 22,2168411,2019-08-09 20:50:17:149,-0.2016,-0.2255,9.5873,-0.5802,-0.2747,9.7856,0.0072,-0.0018,-0.0016
21685,47.262043,-1.70272,115.0,28.32,3.216,126.1,18 / 22,2168511,2019-08-09 20:50:17:249,0.1342,-0.4835,9.853,-0.5746,-0.2802,9.7858,-0.0187,0.0043,0.0275
21686,47.262043,-1.70272,115.0,28.32,3.216,126.1,19 / 23,2168611,2019-08-09 20:50:17:349,0.142,-0.4123,9.7919,-0.5647,-0.309,9.7855,-0.0214,-0.0006,0.0144
21687,47.262043,-1.70272,115.0,28.32,3.216,126.1,19 / 23,2168710,2019-08-09 20:50:17:448,-0.8995,-0.5811,10.0433,-0.5707,-0.3177,9.7849,0.0004,-0.0163,0.0043
21688,47.262043,-1.70272,115.0,28.32,3.216,126.1,19 / 23,2168810,2019-08-09 20:50:17:548,0.3755,-0.1226,10.0733,-0.5731,-0.322,9.7846,-0.0158,-0.0069,-0.0243
21689,47.262043,-1.70272,115.0,28.32,3.216,126.1,19 / 23,2168910,2019-08-09 20:50:17:648,-1.5663,-0.383,10.351,-0.5799,-0.3272,9.784,-0.0131,0.0109,0.0158
21690,47.262043,-1.70272,115.0,28.32,3.216,126.1,19 / 23,2169011,2019-08-09 20:50:17:749,-0.2309,-0.6008,9.1359,-0.5513,-0.3302,9.7856,0.0165,-0.0249,-0.0182
21691,47.262043,-1.70272,115.0,28.32,3.216,126.1,19 / 23,2169111,2019-08-09 20:50:17:849,-0.3691,-0.1352,9.6716,-0.5345,-0.3199,9.7868,0.0119,-0.0037,-0.0028
21692,47.262043,-1.70272,115.0,28.32,3.216,126.1,19 / 23,2169210,2019-08-09 20:50:17:948,0.0588,-0.3794,10.0625,-0.5356,-0.3142,9.787,-0.0086,0.0142,0.0218
21693,47.262043,-1.70272,115.0,28.32,3.216,126.1,19 / 23,2169311,2019-08-09 20:50:18:049,-0.9683,-0.0484,9.7572,-0.5427,-0.3264,9.7862,-0.0208,0.017,-0.015
21694,47.262043,-1.70272,115.0,28.32,3.216,126.1,19 / 23,2169410,2019-08-09 20:50:18:148,0.0319,-0.2776,9.7542,-0.5576,-0.3424,9.7848,-0.0143,0.011,0.0059
21695,47.262043,-1.70272,115.0,28.32,3.216,126.1,19 / 23,2169510,2019-08-09 20:50:18:248,-0.839,-0.4841,9.9835,-0.5514,-0.3495,9.7849,0.0046,0.0124,0.0075
21696,47.262043,-1.70272,115.0,28.32,3.216,126.1,18 / 22,2169611,2019-08-09 20:50:18:349,0.239,-0.5643,9.4119,-0.5479,-0.3434,9.7853,0.0173,-0.0225,0.0108
21697,47.262043,-1.70272,115.0,28.32,3.216,126.1,18 / 22,2169710,2019-08-09 20:50:18:448,-0.3889,-0.3997,9.6962,-0.5661,-0.3328,9.7846,-0.0004,0.019,-0.0137
21698,47.262043,-1.70272,115.0,28.32,3.216,126.1,18 / 22,2169810,2019-08-09 20:50:18:548,-0.0034,-0.6541,8.5697,-0.5269,-0.3272,9.787,0.0142,0.0132,-0.0056
21699,47.262043,-1.70272,115.0,28.32,3.216,126.1,18 / 22,2169910,2019-08-09 20:50:18:648,-0.5445,-0.2908,9.349,-0.5351,-0.3222,9.7867,0.0142,0.0132,-0.0056
21700,47.262043,-1.70272,115.0,28.32,3.216,126.1,18 / 22,2170010,2019-08-09 20:50:18:748,-0.5349,-0.2237,10.1176,-0.534,-0.3221,9.7868,-0.0137,0.0249,0.0064
21701,47.262043,-1.70272,115.0,28.32,3.216,126.1,18 / 22,2170111,2019-08-09 20:50:18:849,-0.1417,-0.4931,9.6417,-0.5348,-0.3296,9.7865,-0.0015,0.006,0.0047
21702,47.262043,-1.70272,115.0,28.32,3.216,126.1,18 / 22,2170211,2019-08-09 20:50:18:949,-0.6684,-0.5386,9.8321,-0.5493,-0.3316,9.7856,0.0035,-0.0032,0.033
21703,47.262043,-1.70272,115.0,28.32,3.216,126.1,18 / 22,2170310,2019-08-09 20:50:19:048,-0.4152,-0.6296,9.7321,-0.5477,-0.3303,9.7858,-0.0049,-0.0058,0.0176
21704,47.262043,-1.70272,115.0,28.32,3.216,126.1,18 / 22,2170410,2019-08-09 20:50:19:148,-1.2873,-0.5541,9.6004,-0.5349,-0.3418,9.7861,-0.0007,0.0195,0.0324
21705,47.262043,-1.70272,115.0,28.32,3.216,126.1,18 / 22,2170510,2019-08-09 20:50:19:248,0.3802,-0.5936,9.8847,-0.5436,-0.3468,9.7854,-0.0102,-0.016,0.0226
21706,47.262043,-1.70272,115.0,28.32,3.216,126.1,18 / 22,2170611,2019-08-09 20:50:19:349,-0.6828,-0.8492,8.9809,-0.5156,-0.3659,9.7863,0.0092,0.0149,0.0286
21707,47.262043,-1.70272,115.0,28.32,3.216,126.1,18 / 22,2170710,2019-08-09 20:50:19:448,0.6275,-0.5398,9.8099,-0.5074,-0.3653,9.7867,0.0018,-0.0228,0.0177
21708,47.262043,-1.70272,115.0,28.32,3.216,126.1,18 / 22,2170810,2019-08-09 20:50:19:548,0.0211,-0.927,10.1259,-0.5034,-0.3865,9.7861,-0.0139,-0.0221,0.0148
21709,47.262043,-1.70272,115.0,28.32,3.216,126.1,18 / 22,2170910,2019-08-09 20:50:19:648,0.5784,-0.9444,10.1469,-0.5109,-0.3983,9.7852,0.0024,0.0405,0.0302
21710,47.262043,-1.70272,115.0,28.32,3.216,126.1,18 / 22,2171010,2019-08-09 20:50:19:748,-2.4731,-1.1533,10.2642,-0.5095,-0.4157,9.7846,-0.0082,-0.0104,0.0321
21711,47.262043,-1.70272,115.0,28.32,3.216,126.1,18 / 22,2171111,2019-08-09 20:50:19:849,0.7639,-0.7876,9.5597,-0.4962,-0.4255,9.7848,-0.0011,0.0151,0.0161
21712,47.262043,-1.70272,115.0,28.32,3.216,126.1,18 / 22,2171211,2019-08-09 20:50:19:949,-0.6696,-0.6074,9.8057,-0.5028,-0.4298,9.7843,0.0022,0.0376,-0.0043
21713,47.262043,-1.70272,115.0,28.32,3.216,126.1,18 / 22,2171311,2019-08-09 20:50:20:049,-0.2542,-0.4913,10.1116,-0.4836,-0.4313,9.7852,-0.007,0.0365,0.0047
21714,47.262043,-1.70272,115.0,28.32,3.216,126.1,18 / 22,2171411,2019-08-09 20:50:20:149,0.0882,-0.5164,10.0487,-0.4767,-0.4392,9.7852,0.0046,-0.0225,0.0313
21715,47.262043,-1.70272,115.0,28.32,3.216,126.1,18 / 22,2171511,2019-08-09 20:50:20:249,-0.116,-0.2836,8.951,-0.4624,-0.4345,9.7861,0.0017,-0.013,0.0004
21716,47.262043,-1.70272,115.0,28.32,3.216,126.1,18 / 23,2171616,2019-08-09 20:50:20:354,-0.505,-0.7954,9.1874,-0.4202,-0.4383,9.7878,-0.0077,-0.0354,-0.0075
21717,47.262043,-1.70272,115.0,28.32,3.216,126.1,18 / 23,2171710,2019-08-09 20:50:20:448,-0.3117,-0.9941,10.0763,-0.4332,-0.4425,9.7871,-0.0126,0.0274,0.0424
21718,47.262043,-1.70272,115.0,28.32,3.216,126.1,18 / 23,2171810,2019-08-09 20:50:20:548,0.5329,-0.7768,9.677,-0.4062,-0.4455,9.7881,0.0202,0.0069,0.0328
21719,47.262043,-1.70272,115.0,28.32,3.216,126.1,18 / 23,2171910,2019-08-09 20:50:20:648,-0.3213,-0.6098,9.5837,-0.4109,-0.4364,9.7883,0.0142,0.0081,0.005
21720,47.262043,-1.70272,115.0,28.32,3.216,126.1,18 / 23,2172011,2019-08-09 20:50:20:749,0.2019,-0.626,10.2307,-0.3868,-0.4365,9.7893,-0.0092,-0.0102,-0.0092
21721,47.262043,-1.70272,115.0,28.32,3.216,126.1,18 / 23,2172110,2019-08-09 20:50:20:848,-0.2728,-0.2483,9.9703,-0.3942,-0.4411,9.7888,-0.0157,-0.0128,0.0443
21722,47.262043,-1.70272,115.0,28.32,3.216,126.1,18 / 23,2172210,2019-08-09 20:50:20:948,-0.1052,-0.6026,9.4077,-0.3659,-0.4488,9.7895,-0.0171,0.0143,-0.0123
21723,47.262043,-1.70272,115.0,28.32,3.216,126.1,18 / 23,2172310,2019-08-09 20:50:21:048,-0.6325,-0.3183,10.424,-0.3959,-0.4637,9.7877,-0.0128,0.0231,0.0148
21724,47.262043,-1.70272,115.0,28.32,3.216,126.1,18 / 23,2172410,2019-08-09 20:50:21:148,0.0433,-0.5248,10.0416,-0.4102,-0.4684,9.7869,-0.0026,-0.0168,0.0204
21725,47.262043,-1.70272,115.0,28.32,3.216,126.1,18 / 23,2172510,2019-08-09 20:50:21:248,-1.2143,-0.5458,9.4322,-0.3979,-0.4777,9.7869,-0.0013,-0.0274,-0.0012
21726,47.262043,-1.70272,115.0,28.32,3.216,126.1,19 / 23,2172611,2019-08-09 20:50:21:349,0.2306,-0.7469,9.3251,-0.374,-0.4777,9.7879,0.002,-0.0153,0.0284
21727,47.262043,-1.70272,115.0,28.32,3.216,126.1,19 / 23,2172710,2019-08-09 20:50:21:448,0.2372,-0.5332,9.8506,-0.354,-0.4814,9.7884,-0.0108,-0.0003,0.0317
21728,47.262043,-1.70272,115.0,28.32,3.216,126.1,19 / 23,2172810,2019-08-09 20:50:21:548,0.4838,-0.4943,9.9625,-0.3473,-0.4907,9.7882,-0.0064,-0.0109,0.0121
21729,47.262043,-1.70272,115.0,28.32,3.216,126.1,19 / 23,2172910,2019-08-09 20:50:21:648,0.2498,-0.7151,9.5603,-0.3613,-0.4868,9.7879,0.0224,-0.0072,0.0005
21730,47.262043,-1.70272,115.0,28.32,3.216,126.1,19 / 23,2173011,2019-08-09 20:50:21:749,0.0702,-0.0711,10.254,-0.3561,-0.4623,9.7893,0.0108,0.0023,-0.0321
21731,47.262043,-1.70272,115.0,28.32,3.216,126.1,19 / 23,2173111,2019-08-09 20:50:21:849,-0.5014,-0.2363,9.9302,-0.3642,-0.4379,9.7901,0.0121,-0.027,0.0138
21732,47.262043,-1.70272,115.0,28.32,3.216,126.1,19 / 23,2173211,2019-08-09 20:50:21:949,0.2486,0.0887,9.3598,-0.3467,-0.43,9.7911,0.0075,0.0186,-0.0094
21733,47.262043,-1.70272,115.0,28.32,3.216,126.1,19 / 23,2173311,2019-08-09 20:50:22:049,-0.6008,-0.0735,9.9087,-0.3617,-0.4117,9.7913,0.0031,0.002,0.0012
21734,47.262043,-1.70272,115.0,28.32,3.216,126.1,19 / 23,2173411,2019-08-09 20:50:22:149,-1.0371,-0.0095,10.4869,-0.3573,-0.41,9.7916,-0.0166,0.0462,0.0052
21735,47.262043,-1.70272,115.0,28.32,3.216,126.1,19 / 23,2173510,2019-08-09 20:50:22:248,-0.5505,-0.1896,9.9685,-0.3888,-0.4168,9.7901,-0.0135,-0.0118,0.0193
21736,47.262043,-1.70272,115.0,28.32,3.216,126.1,17 / 21,2173610,2019-08-09 20:50:22:348,-0.6996,-0.4673,9.2114,-0.4115,-0.4214,9.7889,0.002,-0.0551,0.0361
21737,47.262043,-1.70272,115.0,28.32,3.216,126.1,17 / 21,2173710,2019-08-09 20:50:22:448,-0.1441,-0.8498,9.3586,-0.378,-0.4116,9.7907,0.0237,-0.035,0.0304
21738,47.262043,-1.70272,115.0,28.32,3.216,126.1,17 / 21,2173810,2019-08-09 20:50:22:548,-0.6696,0.1641,9.5424,-0.3612,-0.4062,9.7916,0.0087,0.0268,-0.0153
21739,47.262043,-1.70272,115.0,28.32,3.216,126.1,17 / 21,2173911,2019-08-09 20:50:22:649,0.1115,0.0127,9.7189,-0.3675,-0.3903,9.792,-0.0048,0.0372,0.007
21740,47.262043,-1.70272,115.0,28.32,3.216,126.1,17 / 21,2174010,2019-08-09 20:50:22:748,-0.2674,-0.7086,9.1946,-0.3939,-0.3922,9.7909,0.0083,-0.0296,0.0258
21741,47.262043,-1.70272,115.0,28.32,3.216,126.1,17 / 21,2174110,2019-08-09 20:50:22:848,-0.8731,0.4353,10.272,-0.3977,-0.3714,9.7915,0.0012,-0.0513,0.0315
21742,47.262043,-1.70272,115.0,28.32,3.216,126.1,17 / 21,2174211,2019-08-09 20:50:22:949,0.3222,0.2132,9.8069,-0.3907,-0.3689,9.7919,0.0005,0.0014,-0.0329
21743,47.262043,-1.70272,115.0,28.32,3.216,126.1,17 / 21,2174310,2019-08-09 20:50:23:048,0.3342,-0.1244,9.8452,-0.3764,-0.3548,9.793,-0.0006,-0.0004,-0.0087
21744,47.262043,-1.70272,115.0,28.32,3.216,126.1,17 / 21,2174410,2019-08-09 20:50:23:148,-0.693,-0.183,9.2437,-0.3572,-0.3478,9.794,0.0056,-0.0051,-0.0055
21745,47.262043,-1.70272,115.0,28.32,3.216,126.1,17 / 21,2174510,2019-08-09 20:50:23:248,0.3168,0.2629,9.7896,-0.3681,-0.3336,9.7941,-0.0009,0.0225,-0.0057
21746,47.260742,-1.700033,111.55,26.81,3.216,124.0,19 / 23,2174610,2019-08-09 20:50:23:348,-1.0174,-0.0945,9.5849,-0.3741,-0.3296,9.794,-0.0023,0.0098,-0.0167
21747,47.260742,-1.700033,111.55,26.81,3.216,124.0,19 / 23,2174710,2019-08-09 20:50:23:448,-0.1471,-0.0927,9.4238,-0.3547,-0.3181,9.7951,0.0124,-0.0455,-0.003
21748,47.260742,-1.700033,111.55,26.81,3.216,124.0,19 / 23,2174810,2019-08-09 20:50:23:548,0.0271,-0.3363,9.4939,-0.3515,-0.3052,9.7956,0.0123,-0.0068,0.0141
21749,47.260742,-1.700033,111.55,26.81,3.216,124.0,19 / 23,2174910,2019-08-09 20:50:23:648,-0.1327,0.1115,9.7722,-0.346,-0.2987,9.796,-0.0039,0.0113,-0.0187
21750,47.260742,-1.700033,111.55,26.81,3.216,124.0,19 / 23,2175010,2019-08-09 20:50:23:748,-0.1333,-0.0957,9.6465,-0.3359,-0.2962,9.7964,-0.0066,-0.0144,0.0062
21751,47.260742,-1.700033,111.55,26.81,3.216,124.0,19 / 23,2175110,2019-08-09 20:50:23:848,0.0768,-0.371,9.3879,-0.3396,-0.3008,9.7962,-0.0023,0.014,-0.0149
21752,47.260742,-1.700033,111.55,26.81,3.216,124.0,19 / 23,2175210,2019-08-09 20:50:23:948,0.1456,-0.0729,10.0996,-0.3486,-0.2964,9.796,-0.0052,0.0385,-0.0284
21753,47.260742,-1.700033,111.55,26.81,3.216,124.0,19 / 23,2175310,2019-08-09 20:50:24:048,0.1965,-0.1627,9.9661,-0.3654,-0.2964,9.7954,0.0027,0.0043,-0.0312
21754,47.260742,-1.700033,111.55,26.81,3.216,124.0,19 / 23,2175410,2019-08-09 20:50:24:148,-0.511,0.0899,9.6238,-0.3465,-0.2926,9.7962,0.0142,-0.0092,0.0178
21755,47.260742,-1.700033,111.55,26.81,3.216,124.0,19 / 23,2175510,2019-08-09 20:50:24:248,-0.6624,0.3251,10.503,-0.3592,-0.2813,9.796,-0.0026,-0.043,0.0321
21756,47.260742,-1.700033,111.55,26.81,3.216,124.0,19 / 23,2175610,2019-08-09 20:50:24:348,-0.0884,-0.3848,9.701,-0.3571,-0.2779,9.7962,0.0063,0.0047,-0.0107
21757,47.260742,-1.700033,111.55,26.81,3.216,124.0,19 / 23,2175710,2019-08-09 20:50:24:448,0.3581,-0.1699,9.8093,-0.3456,-0.2691,9.7969,0.0243,0.0233,0.002
21758,47.260742,-1.700033,111.55,26.81,3.216,124.0,19 / 23,2175811,2019-08-09 20:50:24:549,0.0259,0.0695,10.3444,-0.3684,-0.2408,9.7968,-0.0022,0.0263,-0.0004
21759,47.260742,-1.700033,111.55,26.81,3.216,124.0,19 / 23,2175910,2019-08-09 20:50:24:648,-0.1573,-0.0813,9.2754,-0.3401,-0.2416,9.7978,-0.0121,-0.0382,-0.0009
21760,47.260742,-1.700033,111.55,26.81,3.216,124.0,19 / 23,2176011,2019-08-09 20:50:24:749,0.0558,0.2078,9.0306,-0.3228,-0.2485,9.7982,-0.0073,0.0132,-0.0006
21761,47.260742,-1.700033,111.55,26.81,3.216,124.0,19 / 23,2176111,2019-08-09 20:50:24:849,-1.0838,-0.3381,9.9751,-0.3231,-0.2509,9.7981,-0.0009,0.0285,0.0303
21762,47.260742,-1.700033,111.55,26.81,3.216,124.0,19 / 23,2176211,2019-08-09 20:50:24:949,1.305,-0.9133,9.5711,-0.3028,-0.2584,9.7986,0.007,0.0093,-0.0132
21763,47.260742,-1.700033,111.55,26.81,3.216,124.0,19 / 23,2176310,2019-08-09 20:50:25:048,-0.0597,-0.4991,9.8781,-0.3439,-0.2584,9.7972,-0.0286,0.009,0.0101
21764,47.260742,-1.700033,111.55,26.81,3.216,124.0,19 / 23,2176410,2019-08-09 20:50:25:148,-1.4591,-0.9366,8.9731,-0.3185,-0.2897,9.7972,0.0012,-0.023,0.0495
21765,47.260742,-1.700033,111.55,26.81,3.216,124.0,19 / 23,2176510,2019-08-09 20:50:25:248,0.297,-0.6679,9.7351,-0.3217,-0.2937,9.797,0.0026,0.0164,0.0089
21766,47.260742,-1.700033,111.55,26.81,3.216,124.0,18 / 22,2176610,2019-08-09 20:50:25:348,-0.0274,-0.2267,11.2536,-0.337,-0.3061,9.7961,-0.0115,0.0581,0.0152
21767,47.260742,-1.700033,111.55,26.81,3.216,124.0,18 / 22,2176710,2019-08-09 20:50:25:448,-0.5511,-0.9223,9.9099,-0.3195,-0.3214,9.7962,0.0139,-0.0371,0.0279
21768,47.260742,-1.700033,111.55,26.81,3.216,124.0,18 / 22,2176810,2019-08-09 20:50:25:548,0.4748,-0.268,9.6962,-0.295,-0.3119,9.7972,0.0127,-0.054,0.0259
21769,47.260742,-1.700033,111.55,26.81,3.216,124.0,18 / 22,2176910,2019-08-09 20:50:25:648,-0.1064,-0.5781,8.9384,-0.2638,-0.3087,9.7982,-0.0035,-0.0027,0.0049
21770,47.260742,-1.700033,111.55,26.81,3.216,124.0,18 / 22,2177010,2019-08-09 20:50:25:748,-0.2291,-1.2485,9.0509,-0.2373,-0.3154,9.7987,-0.0015,0.0602,-0.0337
21771,47.260742,-1.700033,111.55,26.81,3.216,124.0,18 / 22,2177110,2019-08-09 20:50:25:848,0.4185,-0.8438,10.1026,-0.2712,-0.3114,9.798,0.0053,-0.0039,0.0374
21772,47.260742,-1.700033,111.55,26.81,3.216,124.0,18 / 22,2177210,2019-08-09 20:50:25:948,-0.8791,-0.7684,9.95,-0.2954,-0.3174,9.7971,0.0002,-0.0077,0.0214
21773,47.260742,-1.700033,111.55,26.81,3.216,124.0,18 / 22,2177310,2019-08-09 20:50:26:048,-0.0974,-0.298,9.8141,-0.3033,-0.324,9.7966,0.0009,0.0091,0.0187
21774,47.260742,-1.700033,111.55,26.81,3.216,124.0,18 / 22,2177410,2019-08-09 20:50:26:148,0.9261,-0.2537,9.8171,-0.3146,-0.3294,9.7961,-0.0035,0.0126,0.0066
21775,47.260742,-1.700033,111.55,26.81,3.216,124.0,18 / 22,2177510,2019-08-09 20:50:26:248,0.9213,-0.6427,10.0098,-0.325,-0.3332,9.7956,-0.0004,-0.0257,0.0185
21776,47.260742,-1.700033,111.55,26.81,3.216,124.0,18 / 22,2177610,2019-08-09 20:50:26:348,-0.8689,-0.5943,9.0061,-0.3211,-0.3399,9.7955,0.0089,-0.0009,0.0203
21777,47.260742,-1.700033,111.55,26.81,3.216,124.0,18 / 22,2177710,2019-08-09 20:50:26:448,0.084,-0.4518,8.8439,-0.3083,-0.343,9.7958,-0.0008,-0.062,0.0137
21778,47.260742,-1.700033,111.55,26.81,3.216,124.0,18 / 22,2177810,2019-08-09 20:50:26:548,-0.3542,-0.7265,8.681,-0.2544,-0.3624,9.7967,-0.0087,-0.0504,0.0221
21779,47.260742,-1.700033,111.55,26.81,3.216,124.0,18 / 22,2177910,2019-08-09 20:50:26:648,-0.1459,-0.2453,9.522,-0.2653,-0.3785,9.7958,-0.0226,-0.0175,-0.0117
21780,47.260742,-1.700033,111.55,26.81,3.216,124.0,18 / 22,2178011,2019-08-09 20:50:26:749,-0.0579,-0.3854,9.8985,-0.28,-0.4104,9.7941,-0.0286,0.0226,0.017
21781,47.260742,-1.700033,111.55,26.81,3.216,124.0,18 / 22,2178111,2019-08-09 20:50:26:849,0.1366,-0.5535,10.1678,-0.3236,-0.4249,9.7921,0.0118,0.0011,0.0218
21782,47.260742,-1.700033,111.55,26.81,3.216,124.0,18 / 22,2178211,2019-08-09 20:50:26:949,-1.1377,-0.2974,10.5264,-0.3589,-0.4106,9.7915,0.0092,0.0404,-0.0226
21783,47.260742,-1.700033,111.55,26.81,3.216,124.0,18 / 22,2178311,2019-08-09 20:50:27:049,-0.7606,-0.1747,11.098,-0.4015,-0.4018,9.7902,0.0042,0.0439,-0.0157
21784,47.260742,-1.700033,111.55,26.81,3.216,124.0,18 / 22,2178411,2019-08-09 20:50:27:149,-0.5158,0.0935,10.5443,-0.4504,-0.382,9.7889,0.0296,-0.0516,0.0401
21785,47.260742,-1.700033,111.55,26.81,3.216,124.0,18 / 22,2178510,2019-08-09 20:50:27:248,-2.1959,-0.9312,8.8163,-0.4276,-0.3656,9.7905,0.0295,-0.0346,-0.0511
21786,47.260742,-1.700033,111.55,26.81,3.216,124.0,18 / 21,2178610,2019-08-09 20:50:27:348,-1.1532,-0.7541,8.8732,-0.4127,-0.3477,9.7918,0.0207,-0.0378,-0.0048
21787,47.260742,-1.700033,111.55,26.81,3.216,124.0,18 / 21,2178711,2019-08-09 20:50:27:449,0.2144,0.042,9.7399,-0.3767,-0.3002,9.7948,0.0012,0.0333,-0.0188
21788,47.260742,-1.700033,111.55,26.81,3.216,124.0,18 / 21,2178811,2019-08-09 20:50:27:549,-0.9432,0.0821,9.8201,-0.3937,-0.3034,9.794,-0.0229,-0.0055,0.0207
21789,47.260742,-1.700033,111.55,26.81,3.216,124.0,18 / 21,2178911,2019-08-09 20:50:27:649,-0.7432,-0.4733,9.8183,-0.4293,-0.3308,9.7917,-0.0152,0.0177,0.0128
21790,47.260742,-1.700033,111.55,26.81,3.216,124.0,18 / 21,2179010,2019-08-09 20:50:27:748,-1.343,0.1073,9.7961,-0.4454,-0.338,9.7907,-0.0071,0.0033,-0.0043
21791,47.260742,-1.700033,111.55,26.81,3.216,124.0,18 / 21,2179110,2019-08-09 20:50:27:848,-0.6846,0.2719,10.439,-0.4728,-0.3441,9.7892,-0.0172,0.0084,0.0135
21792,47.260742,-1.700033,111.55,26.81,3.216,124.0,18 / 21,2179211,2019-08-09 20:50:27:949,-1.6961,-0.9354,10.6539,-0.442,-0.351,9.7904,0.0083,0.0383,0.0125
21793,47.260742,-1.700033,111.55,26.81,3.216,124.0,18 / 21,2179311,2019-08-09 20:50:28:049,-1.926,-0.183,9.7082,-0.4814,-0.3246,9.7894,0.0242,0.0234,0.0025
21794,47.260742,-1.700033,111.55,26.81,3.216,124.0,18 / 21,2179410,2019-08-09 20:50:28:148,-0.7361,0.2276,9.1246,-0.4688,-0.3201,9.7902,-0.0013,-0.0648,0.0001
21795,47.260742,-1.700033,111.55,26.81,3.216,124.0,18 / 21,2179510,2019-08-09 20:50:28:248,-1.8739,-0.2704,9.4735,-0.4598,-0.3088,9.791,0.0069,-0.0323,0.0067
21796,47.260742,-1.700033,111.55,26.81,3.216,124.0,18 / 22,2179610,2019-08-09 20:50:28:348,-0.7043,0.1396,9.5304,-0.4738,-0.3094,9.7903,-0.0182,0.0366,-0.0183
21797,47.260742,-1.700033,111.55,26.81,3.216,124.0,18 / 22,2179710,2019-08-09 20:50:28:448,-1.7261,-0.0909,10.175,-0.4674,-0.3193,9.7903,-0.0123,-0.022,0.0134
21798,47.260742,-1.700033,111.55,26.81,3.216,124.0,18 / 22,2179810,2019-08-09 20:50:28:548,-2.0702,-0.377,9.9099,-0.4921,-0.3239,9.7889,-0.0048,-0.0114,-0.0006
21799,47.260742,-1.700033,111.55,26.81,3.216,124.0,18 / 22,2179910,2019-08-09 20:50:28:648,-0.7349,-0.4183,9.8847,-0.4986,-0.3273,9.7885,-0.0108,-0.0123,-0.0052
21800,47.260742,-1.700033,111.55,26.81,3.216,124.0,18 / 22,2180010,2019-08-09 20:50:28:748,-1.1251,-0.2471,9.7513,-0.4975,-0.3366,9.7882,-0.0108,-0.0123,-0.0052
21801,47.260742,-1.700033,111.55,26.81,3.216,124.0,18 / 22,2180111,2019-08-09 20:50:28:849,-1.4627,-0.4847,9.4657,-0.4952,-0.3444,9.7881,-0.0121,0.0039,-0.007
21802,47.260742,-1.700033,111.55,26.81,3.216,124.0,18 / 22,2180211,2019-08-09 20:50:28:949,-0.1034,-0.3764,10.3307,-0.5016,-0.3518,9.7875,0.0005,0.0435,0.0062
