,GPS LATITUDE (degrees), GPS LONGITUDE (degrees), GPS ALTITUDE (m), GPS SPEED (Kmh), GPS ACCURACY (m), GPS ORIENTATION (Â°),GPS SATELLITES IN RANGE, TIME SINCE START (ms), DATE (YYYY-MO-DD HH-MI-SS_SSS), ACCELEROMETER X (m/s²) , ACCELEROMETER Y (m/s²), ACCELEROMETER Z (m/s²), GRAVITY X (m/s²), GRAVITY Y (m/s²), GRAVITY Z (m/s²), GYROSCOPE Yaw (rad/s), GYROSCOPE Pitch (rad/s), GYROSCOPE Roll (rad/s), MAGNETIC FIELD X (Î¼T), MAGNETIC FIELD Y (Î¼T), MAGNETIC FIELD Z (Î¼T), ORIENTATION (Yaw) (Â°), ORIENTATION (Pitch) (Â°), ORIENTATION (Roll ) (Â°)
2451,51.67624,-2.404066,84,25.37,10.0,17.2,Dec-22,245141,2019-08-31 09:54:25:220,-1.2417,0.3187,9.8561,-0.0974,-0.005,9.8062,0.0298,-0.0288,-0.0181,13.72,-5.59,-33.1,22.84,-3.64,1.33
2452,51.67624,-2.404066,84,25.37,10.0,17.2,Dec-22,245240,2019-08-31 09:54:25:319,0.0388,0.0408,9.5567,0.0015,0.0138,9.8066,0.0085,0.0181,-0.0149,14.09,-5.9,-33.54,22.87,-3.11,1.13
2453,51.67624,-2.404066,84,25.37,10.0,17.2,Dec-22,245341,2019-08-31 09:54:25:420,0.5771,0.0489,10.2098,0.0232,0.0225,9.8066,0.0224,0.0255,-0.016,14.09,-5.9,-33.54,22.87,-3.11,1.13
2454,51.67624,-2.404066,84,25.37,10.0,17.2,Dec-22,245441,2019-08-31 09:54:25:520,0.0381,0.2103,10.0556,0.0418,0.0171,9.8065,0.0224,-0.048,0.0117,13.41,-5.9,-33.54,24.02,-3.37,1.14
2455,51.67624,-2.404066,84,25.37,10.0,17.2,Dec-22,245541,2019-08-31 09:54:25:620,0.4767,-0.142,9.318,0.0166,-0.0076,9.8066,0.0277,-0.0043,0.0106,14.09,-5.9,-33.47,24.02,-3.37,1.14
2456,51.67624,-2.404066,84,25.37,10.0,17.2,Dec-22,245641,2019-08-31 09:54:25:720,-0.7275,-0.0084,9.4509,-0.0018,-0.0228,9.8066,0.0309,0.0308,-0.0128,13.41,-5.21,-33.91,21.04,-3.42,1.3
2457,51.67624,-2.404066,84,25.37,10.0,17.2,Dec-22,245742,2019-08-31 09:54:25:821,-0.0598,-0.1537,9.1498,-0.003,-0.0291,9.8066,-0.016,0.0521,0.0032,13.41,-5.21,-33.91,21.04,-3.42,1.3
2458,51.67624,-2.404066,84,25.37,10.0,17.2,Dec-22,245841,2019-08-31 09:54:25:920,-0.2109,0.2904,10.706,-0.0158,0.0006,9.8066,-0.0287,-0.0128,0.016,13.72,-5.59,-33.1,23.27,-3.34,1.45
2459,51.67624,-2.404066,84,25.37,10.0,17.2,Dec-22,245941,2019-08-31 09:54:26:020,-0.3521,0.1845,9.2246,0.0053,0.0184,9.8066,-0.0287,-0.0128,0.016,14.09,-5.59,-32.66,23.26,-3.26,1.41
2460,51.676456,-2.403971,84,25.04,10.0,16.8,Dec-22,246041,2019-08-31 09:54:26:120,-0.026,-0.0703,9.1266,0.0004,0.032,9.8066,-0.0341,0.001,0.0053,13.72,-5.59,-33.91,22.89,-3.33,1.24
2461,51.676456,-2.403971,84,25.04,10.0,16.8,Dec-22,246141,2019-08-31 09:54:26:220,-0.8076,0.275,9.7745,-0.0019,0.0209,9.8066,-0.0266,-0.0192,0.017,13.72,-5.59,-33.91,22.89,-3.33,1.24
2462,51.676456,-2.403971,84,25.04,10.0,16.8,Dec-22,246242,2019-08-31 09:54:26:321,0.4262,-0.1893,9.8216,-0.0061,0.0204,9.8066,-0.0096,-0.032,0.0117,13.41,-5.9,-33.1,24.02,-3.37,1.12
2463,51.676456,-2.403971,84,25.04,10.0,16.8,Dec-22,246341,2019-08-31 09:54:26:420,0.3444,0.0451,10.2916,-0.0086,0.0231,9.8066,0.0032,0.0415,-0.0053,13.72,-5.96,-33.1,22.41,-3.38,0.98
2464,51.676456,-2.403971,84,25.04,10.0,16.8,Dec-22,246442,2019-08-31 09:54:26:521,-0.1602,0.0068,9.551,-0.0258,0.0036,9.8066,0.0011,-0.0128,0.0106,13.72,-5.96,-33.1,22.41,-3.38,0.98
2465,51.676456,-2.403971,84,25.04,10.0,16.8,Dec-22,246541,2019-08-31 09:54:26:620,0.1394,0.2616,9.8198,-0.0033,0.0246,9.8066,-0.0287,-0.0192,0.0224,13.72,-5.9,-33.54,22.34,-3.25,0.9
2466,51.676456,-2.403971,84,25.04,10.0,16.8,Dec-22,246641,2019-08-31 09:54:26:720,0.5093,0.0453,8.8701,0.0235,0.0245,9.8066,0.0213,-0.016,0.0096,13.72,-5.96,-33.54,22.34,-3.25,0.9
2467,51.676456,-2.403971,84,25.04,10.0,16.8,Dec-22,246742,2019-08-31 09:54:26:821,0.0128,-0.0809,8.8998,0.0304,0.0118,9.8066,0.0213,-0.016,0.0096,13.72,-5.59,-33.16,22.24,-3.44,0.9
2468,51.676456,-2.403971,84,25.04,10.0,16.8,Dec-22,246841,2019-08-31 09:54:26:920,-0.1062,0.1295,9.4651,-0.0013,0.0062,9.8066,-0.0032,0.0138,0.0138,13.72,-5.96,-33.16,22.24,-3.44,0.9
2469,51.676456,-2.403971,84,25.04,10.0,16.8,Dec-22,246941,2019-08-31 09:54:27:020,0.4578,-0.0241,8.8934,-0.0163,0.0072,9.8066,0.0107,0.0298,-0.0149,13.72,-5.96,-33.16,22.24,-3.44,0.9
2470,51.676456,-2.403971,84,25.04,10.0,16.8,Oct-22,247041,2019-08-31 09:54:27:120,0.1705,0.0367,9.5335,-0.0173,0.0009,9.8066,-0.0181,-0.0363,0.0106,13.72,-5.96,-33.16,22.15,-3.36,0.83
2471,51.67669,-2.403857,84,25.91,10.0,16.3,Oct-22,247141,2019-08-31 09:54:27:220,0.0611,-0.2516,8.9537,-0.0283,-0.0012,9.8066,0.0245,0.0063,0.0234,14.09,-5.59,-33.54,22.13,-3.21,0.77
2472,51.67669,-2.403857,84,25.91,10.0,16.3,Oct-22,247241,2019-08-31 09:54:27:320,-0.4075,-0.0648,10.3466,0.0143,-0.0161,9.8066,-0.0053,0.0234,0.0,14.09,-5.59,-33.16,22.35,-3.25,0.89
2473,51.67669,-2.403857,84,25.91,10.0,16.3,Oct-22,247341,2019-08-31 09:54:27:420,0.0411,-0.0101,10.5298,-0.0043,0.0302,9.8066,-0.0394,0.0117,0.0405,14.09,-5.59,-33.16,22.35,-3.25,0.89
2474,51.67669,-2.403857,84,25.91,10.0,16.3,Oct-22,247441,2019-08-31 09:54:27:520,-0.4675,-0.0512,9.4424,0.0058,0.0027,9.8066,0.0043,-0.0501,-0.0032,14.09,-6.27,-33.54,21.97,-3.29,0.72
2475,51.67669,-2.403857,84,25.91,10.0,16.3,Oct-22,247540,2019-08-31 09:54:27:619,0.2541,-0.0505,10.2086,0.0027,0.0048,9.8066,0.0011,-0.0171,-0.0075,13.72,-5.59,-33.54,21.97,-3.29,0.72
2476,51.67669,-2.403857,84,25.91,10.0,16.3,Oct-22,247641,2019-08-31 09:54:27:720,0.2192,0.1665,9.1026,0.0018,0.0241,9.8066,0.0011,-0.0171,-0.0075,13.72,-5.59,-33.54,21.97,-3.29,0.72
2477,51.67669,-2.403857,84,25.91,10.0,16.3,Oct-22,247741,2019-08-31 09:54:27:820,0.0886,0.0317,10.6056,0.0027,0.0047,9.8066,-0.0064,0.0021,-0.0128,14.09,-5.59,-32.72,21.73,-3.36,0.59
2478,51.67669,-2.403857,84,25.91,10.0,16.3,Oct-22,247843,2019-08-31 09:54:27:922,-0.4026,0.2537,8.8776,-0.0263,-0.003,9.8066,0.0043,-0.0224,-0.0128,14.09,-5.9,-33.54,21.73,-3.21,0.55
2479,51.67669,-2.403857,84,25.91,10.0,16.3,Oct-22,247941,2019-08-31 09:54:28:020,-0.4206,0.1316,9.8054,-0.0137,0.0093,9.8066,0.0075,0.0031,0.0085,14.09,-5.9,-33.54,21.73,-3.21,0.55
2480,51.67691,-2.403753,84,25.7,10.0,16.2,Oct-22,248041,2019-08-31 09:54:28:120,0.1152,-0.3635,10.7468,0.0271,-0.0059,9.8066,0.0362,0.0415,0.0128,13.72,-5.9,-33.1,21.66,-3.15,0.47
2481,51.67691,-2.403753,84,25.7,10.0,16.2,Oct-22,248141,2019-08-31 09:54:28:220,-0.4482,-0.196,10.0687,0.0424,-0.0292,9.8065,0.0288,0.033,-0.0277,13.72,-5.59,-33.91,21.96,-3.32,0.72
2482,51.67691,-2.403753,84,25.7,10.0,16.2,Oct-22,248241,2019-08-31 09:54:28:320,0.3053,-0.628,10.232,-0.0117,-0.0371,9.8066,0.0288,0.033,-0.0277,13.72,-5.59,-33.91,21.96,-3.32,0.72
2483,51.67691,-2.403753,84,25.7,10.0,16.2,Oct-22,248341,2019-08-31 09:54:28:420,-0.0836,0.1782,9.056,-0.005,0.0046,9.8066,-0.0415,-0.0235,0.0319,13.72,-5.59,-33.47,22.41,-3.18,0.9
2484,51.67691,-2.403753,84,25.7,10.0,16.2,Oct-22,248441,2019-08-31 09:54:28:520,-0.1132,0.0767,10.0337,0.0041,-0.0019,9.8067,-0.0042,-0.0203,0.0032,14.09,-5.59,-33.47,22.36,-3.16,0.86
2485,51.67691,-2.403753,84,25.7,10.0,16.2,Oct-22,248541,2019-08-31 09:54:28:620,0.2738,0.2305,9.5044,-0.0105,0.013,9.8066,-0.0266,0.0149,0.0032,14.09,-5.59,-33.47,22.36,-3.16,0.86
2486,51.67691,-2.403753,84,25.7,10.0,16.2,Oct-22,248641,2019-08-31 09:54:28:720,0.509,0.243,10.1629,0.0026,0.0223,9.8066,0.0075,0.0287,0.0021,13.72,-5.59,-33.54,22.18,-3.13,0.77
2487,51.67691,-2.403753,84,25.7,10.0,16.2,Oct-22,248741,2019-08-31 09:54:28:820,0.0142,0.3606,9.6852,0.0125,0.0195,9.8066,0.0213,0.0372,-0.0181,13.41,-5.59,-33.54,23.24,-3.19,0.65
2488,51.67691,-2.403753,84,25.7,10.0,16.2,Oct-22,248840,2019-08-31 09:54:28:919,-0.0108,0.1924,9.6276,0.0142,0.0345,9.8066,-0.001,0.0255,-0.0064,13.72,-6.27,-33.1,21.57,-3.35,0.5
2489,51.67691,-2.403753,84,25.7,10.0,16.2,Oct-22,248941,2019-08-31 09:54:29:020,-0.2581,0.2343,9.0417,-0.0164,0.0063,9.8066,-0.001,0.0255,-0.0064,13.72,-6.27,-33.1,21.57,-3.35,0.5
2490,51.67691,-2.403753,84,25.7,10.0,16.2,Dec-22,249041,2019-08-31 09:54:29:120,0.177,-0.098,8.8092,-0.0376,-0.0114,9.8066,0.032,-0.0448,0.0074,14.09,-5.9,-33.47,21.7,-3.12,0.48
2491,51.677135,-2.403655,84,25.49,10.0,16.6,Dec-22,249141,2019-08-31 09:54:29:220,-0.0395,-0.3919,10.362,-0.0087,-0.0175,9.8066,0.0117,0.0095,0.0181,14.09,-5.59,-33.54,21.86,-3.04,0.56
2492,51.677135,-2.403655,84,25.49,10.0,16.6,Dec-22,249241,2019-08-31 09:54:29:320,0.3644,-0.4814,9.1363,-0.0021,-0.0241,9.8066,0.0235,0.0159,-0.0085,14.09,-5.59,-33.47,22.04,-3.1,0.66
2493,51.677135,-2.403655,84,25.49,10.0,16.6,Dec-22,249341,2019-08-31 09:54:29:420,-0.3776,-0.1433,10.6866,-0.0101,-0.0339,9.8066,0.0213,-0.0182,-0.0234,14.09,-5.59,-33.47,22.04,-3.1,0.66
2494,51.677135,-2.403655,84,25.49,10.0,16.6,Dec-22,249442,2019-08-31 09:54:29:521,0.0242,-0.4019,10.7567,-0.0012,-0.0288,9.8066,-0.0224,0.0681,-0.0043,14.09,-5.9,-33.47,22.04,-3.1,0.66
2495,51.677135,-2.403655,84,25.49,10.0,16.6,Dec-22,249541,2019-08-31 09:54:29:620,0.0437,-0.0441,10.0702,0.02,0.0212,9.8066,0.0139,0.0223,-0.0043,13.72,-5.59,-33.04,22.37,-3.03,0.82
2496,51.677135,-2.403655,84,25.49,10.0,16.6,Dec-22,249640,2019-08-31 09:54:29:719,-0.4107,0.3257,10.3456,0.0043,0.0072,9.8066,0.0139,0.0223,-0.0043,13.72,-5.21,-33.04,18.95,-3.19,0.75
2497,51.677135,-2.403655,84,25.49,10.0,16.6,Dec-22,249741,2019-08-31 09:54:29:820,0.3481,0.1301,9.1181,-0.0176,0.0111,9.8066,0.0128,-0.0331,-0.0139,13.72,-5.21,-33.04,18.95,-3.19,0.75
2498,51.677135,-2.403655,84,25.49,10.0,16.6,Dec-22,249841,2019-08-31 09:54:29:920,-0.5091,0.3599,10.6454,-0.0204,0.0151,9.8066,-0.0234,-0.0267,-0.0032,14.09,-5.9,-33.47,22.01,-3.11,0.65
2499,51.677135,-2.403655,84,25.49,10.0,16.6,Dec-22,249940,2019-08-31 09:54:30:019,-0.7033,0.396,10.0111,-0.0376,0.0313,9.8065,-0.0032,-0.0086,-0.0171,14.09,-5.9,-33.04,22.01,-3.11,0.65
2500,51.677364,-2.403541,84,25.66,10.0,16.3,Dec-22,250041,2019-08-31 09:54:30:120,-0.0732,0.0799,9.3099,-0.0168,0.0115,9.8066,-0.0096,0.0063,0.0,14.47,-5.21,-33.47,18.43,-2.98,0.4
2501,51.677364,-2.403541,84,25.66,10.0,16.3,Dec-22,250141,2019-08-31 09:54:30:220,0.2917,-0.3327,10.3771,-0.0138,0.0044,9.8066,0.0373,0.0117,0.0117,13.72,-5.9,-33.41,21.61,-2.91,0.35
2502,51.677364,-2.403541,84,25.66,10.0,16.3,Dec-22,250241,2019-08-31 09:54:30:320,0.5288,-0.3583,9.6092,0.0797,-0.0379,9.8063,-0.001,0.001,0.0064,14.09,-5.52,-33.85,21.61,-2.91,0.35
2503,51.677364,-2.403541,84,25.66,10.0,16.3,Dec-22,250341,2019-08-31 09:54:30:420,-0.14,-0.3451,10.3431,0.0171,-0.0069,9.8066,0.0192,-0.0288,-0.0107,13.72,-5.52,-33.47,22.05,-3.26,0.73
2504,51.677364,-2.403541,84,25.66,10.0,16.3,Dec-22,250441,2019-08-31 09:54:30:520,0.6855,-0.4866,9.364,0.008,-0.0101,9.8066,0.0192,-0.0288,-0.0107,13.72,-5.52,-33.47,22.05,-3.26,0.73
2505,51.677364,-2.403541,84,25.66,10.0,16.3,Dec-22,250540,2019-08-31 09:54:30:619,-0.7095,0.5198,8.5156,-0.0335,-0.0092,9.8066,-0.0309,-0.0373,-0.0011,14.09,-5.59,-33.47,22.16,-3.28,0.8
2506,51.677364,-2.403541,84,25.66,10.0,16.3,Dec-22,250641,2019-08-31 09:54:30:720,-0.4803,-0.2648,8.7629,-0.0756,0.0034,9.8064,-0.0415,0.0553,-0.0011,13.72,-5.9,-33.47,22.11,-2.88,0.61
2507,51.677364,-2.403541,84,25.66,10.0,16.3,Dec-22,250741,2019-08-31 09:54:30:820,0.5591,-0.3932,9.4617,-0.0344,0.0034,9.8066,0.0096,0.0212,-0.0107,14.09,-5.9,-32.6,22.11,-2.88,0.61
2508,51.677364,-2.403541,84,25.66,10.0,16.3,Dec-22,250841,2019-08-31 09:54:30:920,0.6098,0.1395,10.5211,-0.0046,0.0004,9.8067,0.0266,0.0798,0.0181,14.09,-5.52,-32.66,22.11,-2.85,0.6
2509,51.677364,-2.403541,84,25.66,10.0,16.3,Dec-22,250941,2019-08-31 09:54:31:020,-0.3775,0.1096,10.6087,0.0772,0.0109,9.8063,0.0203,0.0756,-0.0309,14.09,-5.52,-32.66,22.11,-2.85,0.6
2510,51.677586,-2.403437,84,25.58,11.0,16.3,Dec-22,251041,2019-08-31 09:54:31:120,0.3374,0.2277,9.5985,0.1328,0.0205,9.8057,0.033,-0.0661,0.0085,13.72,-6.27,-33.04,21.9,-3.62,0.78
2511,51.677586,-2.403437,84,25.58,11.0,16.3,Dec-22,251140,2019-08-31 09:54:31:219,0.3281,0.0716,8.4605,-0.0275,-0.0276,9.8066,0.033,-0.0661,0.0085,13.72,-5.52,-33.41,22.2,-3.41,0.87
2512,51.677586,-2.403437,84,25.58,11.0,16.3,Dec-22,251241,2019-08-31 09:54:31:320,0.095,0.1508,8.4344,-0.0769,-0.0058,9.8063,-0.017,-0.0384,0.0,14.09,-5.52,-33.04,22.2,-3.41,0.87
2513,51.677586,-2.403437,84,25.58,11.0,16.3,Dec-22,251342,2019-08-31 09:54:31:421,0.2252,-0.1714,9.4741,-0.0762,-0.0077,9.8064,-0.0298,0.0127,0.0106,14.09,-5.52,-33.04,22.2,-3.41,0.87
2514,51.677586,-2.403437,84,25.58,11.0,16.3,Dec-22,251441,2019-08-31 09:54:31:520,-0.1738,-0.2053,10.2209,-0.012,0.0007,9.8066,-0.0064,-0.0064,0.0096,14.09,-5.9,-33.04,22.28,-2.98,0.75
2515,51.677586,-2.403437,84,25.58,11.0,16.3,Dec-22,251541,2019-08-31 09:54:31:620,-0.3813,0.1305,10.5719,-0.0342,0.0044,9.8066,-0.0085,-0.0373,-0.0011,14.09,-5.52,-33.41,22.28,-2.98,0.75
2516,51.677586,-2.403437,84,25.58,11.0,16.3,Dec-22,251641,2019-08-31 09:54:31:720,-0.4291,0.0511,10.1805,-0.0127,0.0107,9.8066,-0.0138,0.0404,0.0373,14.09,-5.52,-33.41,22.28,-2.98,0.75
2517,51.677586,-2.403437,84,25.58,11.0,16.3,Dec-22,251741,2019-08-31 09:54:31:820,-0.4644,-0.0591,9.7088,0.0239,0.0041,9.8066,0.0075,0.0191,0.0,14.09,-5.52,-33.04,22.16,-2.93,0.66
2518,51.677586,-2.403437,84,25.58,11.0,16.3,Dec-22,251841,2019-08-31 09:54:31:920,-0.2959,-0.0451,9.115,0.0492,0.0002,9.8065,0.0075,0.0191,0.0,13.72,-5.15,-33.41,18.99,-3.2,0.77
2519,51.677586,-2.403437,84,25.58,11.0,16.3,Dec-22,251941,2019-08-31 09:54:32:020,0.3319,-0.3126,9.0348,-0.0275,0.0134,9.8066,-0.0394,-0.0501,0.0021,13.72,-5.15,-33.85,18.99,-3.2,0.77
2520,51.677586,-2.403437,84,25.58,11.0,16.3,Dec-22,252041,2019-08-31 09:54:32:120,-0.1143,0.0832,9.1397,-0.0416,0.0062,9.8066,-0.0085,-0.0469,0.0149,13.72,-5.9,-33.04,22.11,-2.98,0.65
2521,51.677814,-2.403335,84,26.29,11.0,15.6,Dec-22,252142,2019-08-31 09:54:32:221,-0.0361,0.1275,9.7163,-0.0133,-0.0017,9.8066,0.0064,0.0042,-0.0053,13.72,-5.9,-33.04,22.11,-2.98,0.65
2522,51.677814,-2.403335,84,26.29,11.0,15.6,Dec-22,252241,2019-08-31 09:54:32:320,-0.6936,0.3616,10.0169,-0.0144,0.0011,9.8066,0.0128,0.0564,-0.0192,13.72,-5.52,-33.47,22.13,-2.91,0.63
2523,51.677814,-2.403335,84,26.29,11.0,15.6,Dec-22,252341,2019-08-31 09:54:32:420,0.39,-0.09,10.6932,-0.0032,-0.0004,9.8067,0.0277,0.0053,0.0074,13.41,-5.9,-33.47,22.13,-2.91,0.63
2524,51.677814,-2.403335,84,26.29,11.0,15.6,Dec-22,252441,2019-08-31 09:54:32:520,0.2451,-0.3212,10.1485,0.0219,0.0044,9.8066,-0.0096,0.0404,0.0074,13.03,-5.9,-33.04,23.48,-2.89,0.63
2525,51.677814,-2.403335,84,26.29,11.0,15.6,Dec-22,252541,2019-08-31 09:54:32:620,-0.2436,-0.2676,10.7177,0.036,0.006,9.8066,0.0085,-0.016,-0.0011,11.91,-6.65,-32.22,23.48,-2.89,0.63
2526,51.677814,-2.403335,84,26.29,11.0,15.6,Dec-22,252640,2019-08-31 09:54:32:719,-0.4749,0.0102,9.7409,0.0209,-0.0099,9.8066,0.0085,-0.016,-0.0011,10.1,-11.64,-25.74,47.43,-2.98,0.73
2527,51.677814,-2.403335,84,26.29,11.0,15.6,Dec-22,252741,2019-08-31 09:54:32:820,-0.0136,-0.0319,9.653,-0.0028,-0.0079,9.8066,-0.016,-0.0682,-0.0043,10.1,-11.64,-25.74,47.43,-2.98,0.73
2528,51.677814,-2.403335,84,26.29,11.0,15.6,Dec-22,252841,2019-08-31 09:54:32:920,-0.1155,-0.0739,9.9638,0.0012,0.0179,9.8066,-0.0362,0.0308,0.0032,18.84,-7.02,-30.97,19.81,-2.93,0.75
2529,51.677814,-2.403335,84,26.29,11.0,15.6,Dec-22,252941,2019-08-31 09:54:33:020,0.3547,0.1451,10.2108,0.0016,0.0373,9.8066,-0.0362,-0.0448,-0.0117,15.97,-5.9,-33.04,19.81,-2.93,0.75
2530,51.677814,-2.403335,84,26.29,11.0,15.6,Dec-22,253043,2019-08-31 09:54:33:122,0.2627,0.4459,9.0674,-0.0302,0.0583,9.8064,-0.0373,-0.0235,0.0053,14.09,-5.9,-33.04,21.67,-2.88,0.37
2531,51.67805,-2.403222,84,26.3,10.0,15.6,Nov-21,253141,2019-08-31 09:54:33:220,0.3827,0.1674,8.5926,-0.0108,0.0064,9.8066,-0.0224,-0.0075,0.0373,13.72,-5.52,-33.04,21.59,-2.84,0.31
2532,51.67805,-2.403222,84,26.3,10.0,15.6,Nov-21,253241,2019-08-31 09:54:33:320,-0.346,0.2067,9.7521,0.0116,0.0189,9.8066,-0.0181,-0.0629,0.0053,13.72,-5.52,-33.04,21.59,-2.84,0.31
2533,51.67805,-2.403222,84,26.3,10.0,15.6,Nov-21,253341,2019-08-31 09:54:33:420,-0.276,0.5699,7.3672,-0.0118,0.0005,9.8066,-0.0181,-0.0629,0.0053,13.72,-5.9,-33.47,21.38,-2.94,0.23
2534,51.67805,-2.403222,84,26.3,10.0,15.6,Nov-21,253441,2019-08-31 09:54:33:520,0.1354,-0.1349,9.6781,-0.0211,0.0069,9.8066,0.0139,-0.0107,-0.0288,13.72,-5.52,-33.41,21.3,-2.84,0.15
2535,51.67805,-2.403222,84,26.3,10.0,15.6,Nov-21,253541,2019-08-31 09:54:33:620,0.0569,0.0526,9.7546,0.0168,-0.0009,9.8066,0.0011,-0.0203,-0.0043,13.72,-5.52,-33.41,21.3,-2.84,0.15
2536,51.67805,-2.403222,84,26.3,10.0,15.6,Nov-21,253641,2019-08-31 09:54:33:720,0.2685,-0.1374,9.9642,0.0301,-0.0235,9.8066,-0.0181,-0.0182,0.0224,13.72,-6.27,-33.41,21.3,-2.84,0.15
2537,51.67805,-2.403222,84,26.3,10.0,15.6,Nov-21,253740,2019-08-31 09:54:33:819,0.335,-0.2561,8.9597,-0.0031,-0.0148,9.8066,0.0309,0.0117,-0.0245,14.09,-5.52,-33.41,21.57,-2.95,0.34
2538,51.67805,-2.403222,84,26.3,10.0,15.6,Nov-21,253841,2019-08-31 09:54:33:920,-0.372,-0.1132,10.9305,0.0074,-0.0114,9.8066,-0.0224,0.0159,-0.0234,14.09,-5.52,-33.41,21.57,-2.95,0.34
2539,51.67805,-2.403222,84,26.3,10.0,15.6,Nov-21,253941,2019-08-31 09:54:34:020,0.3414,-0.2888,9.1386,0.0081,0.0116,9.8066,-0.0106,-0.0203,0.0192,13.72,-5.52,-33.04,21.7,-2.97,0.42
2540,51.67805,-2.403222,84,26.3,10.0,15.6,Dec-22,254041,2019-08-31 09:54:34:120,0.0396,0.0985,10.5214,0.0033,0.0331,9.8066,0.0128,0.0234,-0.0256,13.72,-5.15,-33.85,21.7,-2.97,0.42
2541,51.678284,-2.403105,83,26.05,10.0,15.8,Dec-22,254141,2019-08-31 09:54:34:220,0.046,0.0239,9.8658,-0.0046,0.0449,9.8065,0.0128,0.0234,-0.0256,13.72,-5.52,-33.41,21.19,-3.04,0.17
2542,51.678284,-2.403105,83,26.05,10.0,15.8,Dec-22,254241,2019-08-31 09:54:34:320,-0.6033,0.373,7.7062,-0.0108,-0.0017,9.8066,0.0245,-0.0192,0.0021,13.72,-5.52,-33.41,21.19,-3.04,0.17
2543,51.678284,-2.403105,83,26.05,10.0,15.8,Dec-22,254341,2019-08-31 09:54:34:420,0.0564,-0.4283,9.666,0.0081,0.0022,9.8066,0.0064,-0.0331,0.0213,14.09,-5.52,-33.41,21.2,-2.98,0.15
2544,51.678284,-2.403105,83,26.05,10.0,15.8,Dec-22,254441,2019-08-31 09:54:34:520,-0.524,0.4961,8.7643,0.0201,-0.0032,9.8066,0.0075,-0.0192,-0.0203,13.41,-5.9,-33.04,21.2,-2.98,0.15
2545,51.678284,-2.403105,83,26.05,10.0,15.8,Dec-22,254541,2019-08-31 09:54:34:620,0.7384,-0.57,7.918,-0.0286,-0.004,9.8066,-0.0405,-0.0555,0.0074,13.72,-5.9,-33.79,21.07,-3.06,0.14
2546,51.678284,-2.403105,83,26.05,10.0,15.8,Dec-22,254641,2019-08-31 09:54:34:720,-0.1883,0.3459,9.5946,0.0202,0.005,9.8066,-0.0224,0.0127,0.0298,13.72,-5.9,-32.97,21.17,-2.89,0.1
2547,51.678284,-2.403105,83,26.05,10.0,15.8,Dec-22,254741,2019-08-31 09:54:34:820,-0.0101,-0.0264,10.8652,0.0271,-0.0136,9.8066,-0.0074,-0.016,0.0149,13.72,-5.9,-32.97,21.17,-2.89,0.1
2548,51.678284,-2.403105,83,26.05,10.0,15.8,Dec-22,254841,2019-08-31 09:54:34:920,0.0878,0.1801,9.7375,0.0072,-0.0214,9.8066,-0.0256,0.0021,0.0117,14.09,-5.52,-32.6,21.33,-3.01,0.23
2549,51.678284,-2.403105,83,26.05,10.0,15.8,Dec-22,254941,2019-08-31 09:54:35:020,-0.232,-0.213,9.3548,0.0146,0.0137,9.8066,-0.0256,0.0021,0.0117,13.41,-5.15,-33.04,19.51,-3.01,0.37
2550,51.678284,-2.403105,83,26.05,10.0,15.8,14 / 22,255041,2019-08-31 09:54:35:120,-0.4949,0.293,9.3842,0.0092,0.0169,9.8066,-0.0106,0.0127,0.017,13.41,-5.52,-32.97,19.51,-3.01,0.37
2551,51.67853,-2.402993,81,26.44,11.0,15.8,14 / 22,255141,2019-08-31 09:54:35:220,0.0912,-0.423,10.6189,0.0113,0.0025,9.8066,-0.0032,0.0031,0.0309,13.72,-5.9,-33.04,21.54,-3.07,0.38
2552,51.67853,-2.402993,81,26.44,11.0,15.8,14 / 22,255241,2019-08-31 09:54:35:320,-0.0966,-0.0877,8.5609,-0.0107,-0.0306,9.8066,0.0032,-0.0022,-0.0256,13.72,-5.52,-32.97,21.54,-3.07,0.38
2553,51.67853,-2.402993,81,26.44,11.0,15.8,14 / 22,255340,2019-08-31 09:54:35:419,-0.5742,-0.2719,10.1213,-0.0122,-0.0202,9.8066,-0.0383,0.0596,-0.0096,14.09,-5.9,-33.41,21.77,-2.96,0.46
2554,51.67853,-2.402993,81,26.44,11.0,15.8,14 / 22,255441,2019-08-31 09:54:35:520,-0.341,0.1467,10.2163,-0.0045,0.014,9.8066,0.016,0.0447,-0.0011,14.09,-5.52,-32.97,21.77,-2.96,0.46
2555,51.67853,-2.402993,81,26.44,11.0,15.8,14 / 22,255541,2019-08-31 09:54:35:620,-0.2531,-0.1531,10.5265,-0.0002,0.0255,9.8066,-0.0149,-0.015,-0.0075,14.09,-5.52,-32.97,21.77,-2.96,0.46
2556,51.67853,-2.402993,81,26.44,11.0,15.8,14 / 22,255641,2019-08-31 09:54:35:720,-0.867,0.3206,10.3328,0.0078,0.0033,9.8066,-0.0149,-0.015,-0.0075,14.09,-6.27,-32.97,21.48,-3.02,0.32
2557,51.67853,-2.402993,81,26.44,11.0,15.8,14 / 22,255741,2019-08-31 09:54:35:820,-0.3975,0.1888,8.3338,0.0203,-0.0223,9.8066,0.0394,0.0181,-0.0245,14.09,-6.27,-32.97,21.48,-3.02,0.32
2558,51.67853,-2.402993,81,26.44,11.0,15.8,14 / 22,255841,2019-08-31 09:54:35:920,0.2953,-0.2303,8.5278,-0.0194,0.0044,9.8066,-0.0053,0.0063,-0.0096,13.72,-5.52,-32.97,21.73,-3.08,0.48
2559,51.67853,-2.402993,81,26.44,11.0,15.8,14 / 22,255940,2019-08-31 09:54:36:019,0.0642,0.0946,10.1512,-0.0129,0.006,9.8066,0.0128,0.0319,-0.0224,13.72,-5.9,-32.97,21.68,-2.98,0.42
2560,51.67853,-2.402993,81,26.44,11.0,15.8,14 / 22,256041,2019-08-31 09:54:36:120,-0.3568,0.0849,10.3839,-0.0091,0.0052,9.8066,-0.0106,-0.0299,0.0106,13.72,-5.9,-32.97,21.68,-2.98,0.42
2561,51.678764,-2.402894,82,26.35,11.0,15.5,14 / 22,256141,2019-08-31 09:54:36:220,0.0192,0.0172,10.3155,-0.0109,-0.0126,9.8066,-0.0245,-0.0064,-0.0011,13.72,-6.27,-32.97,21.62,-2.95,0.37
2562,51.678764,-2.402894,82,26.35,11.0,15.5,14 / 22,256240,2019-08-31 09:54:36:319,0.4311,-0.2337,9.2447,0.0018,-0.0008,9.8067,-0.0021,0.0159,-0.0021,13.72,-5.9,-33.41,21.62,-2.95,0.37
2563,51.678764,-2.402894,82,26.35,11.0,15.5,14 / 22,256341,2019-08-31 09:54:36:420,0.462,-0.3836,8.9054,0.032,0.0001,9.8066,-0.0021,0.0159,-0.0021,14.09,-5.52,-33.04,21.63,-2.95,0.38
2564,51.678764,-2.402894,82,26.35,11.0,15.5,14 / 22,256441,2019-08-31 09:54:36:520,-0.3378,-0.2731,9.3569,0.0042,-0.0122,9.8066,0.0107,-0.0033,0.0138,13.72,-5.9,-33.85,21.56,-3.2,0.46
2565,51.678764,-2.402894,82,26.35,11.0,15.5,14 / 22,256541,2019-08-31 09:54:36:620,-0.6388,0.3027,9.2823,-0.0034,-0.0329,9.8066,0.0139,-0.0278,0.0064,13.72,-5.9,-33.85,21.56,-3.2,0.46
2566,51.678764,-2.402894,82,26.35,11.0,15.5,14 / 22,256641,2019-08-31 09:54:36:720,0.0031,-0.2204,9.69,-0.0008,-0.0042,9.8066,-0.0192,0.0394,0.0202,14.09,-5.52,-33.41,21.98,-3.11,0.63
2567,51.678764,-2.402894,82,26.35,11.0,15.5,14 / 22,256741,2019-08-31 09:54:36:820,0.0792,-0.0054,10.2359,0.0003,0.0066,9.8066,-0.0213,-0.0288,0.0053,14.09,-5.52,-32.97,22.02,-3.1,0.65
2568,51.678764,-2.402894,82,26.35,11.0,15.5,14 / 22,256841,2019-08-31 09:54:36:920,0.1041,-0.1201,9.5389,0.0069,-0.0029,9.8066,0.0213,0.0436,-0.0043,14.09,-5.52,-33.41,22.02,-3.1,0.65
2569,51.678764,-2.402894,82,26.35,11.0,15.5,14 / 22,256941,2019-08-31 09:54:37:020,0.2341,0.1494,9.5667,-0.0013,0.0001,9.8067,-0.0106,0.0564,0.0085,14.09,-5.52,-33.41,22.02,-3.1,0.65
2570,51.678764,-2.402894,82,26.35,11.0,15.5,14 / 22,257041,2019-08-31 09:54:37:120,0.7827,0.0328,7.9901,-0.017,0.0106,9.8066,0.0149,-0.0086,0.0106,14.09,-6.27,-33.41,22.02,-3.09,0.65
2571,51.67897,-2.402787,81,25.63,11.0,16.2,14 / 22,257141,2019-08-31 09:54:37:220,0.0954,0.5185,9.1889,-0.024,-0.001,9.8066,0.0149,-0.0086,0.0106,14.09,-5.52,-33.41,22.03,-2.96,0.6
2572,51.67897,-2.402787,81,25.63,11.0,16.2,14 / 22,257241,2019-08-31 09:54:37:320,-0.5307,0.5707,10.4774,0.0299,-0.016,9.8066,0.032,0.0457,-0.0043,14.09,-5.52,-32.97,22.21,-3.09,0.75
2573,51.67897,-2.402787,81,25.63,11.0,16.2,14 / 22,257341,2019-08-31 09:54:37:420,0.4536,-0.7116,10.3466,0.0287,0.0075,9.8066,-0.0117,-0.0714,0.0447,14.09,-5.52,-32.97,22.21,-3.09,0.75
2574,51.67897,-2.402787,81,25.63,11.0,16.2,14 / 22,257441,2019-08-31 09:54:37:520,0.1664,-0.0525,8.1324,0.0491,0.0192,9.8065,-0.001,0.0031,-0.0021,14.09,-5.52,-33.41,22.0,-3.4,0.76
2575,51.67897,-2.402787,81,25.63,11.0,16.2,14 / 22,257541,2019-08-31 09:54:37:620,-0.7099,0.0446,9.6732,-0.0306,-0.0149,9.8066,0.0235,-0.0416,-0.0277,13.72,-5.52,-32.6,21.78,-3.5,0.67
2576,51.67897,-2.402787,81,25.63,11.0,16.2,14 / 22,257641,2019-08-31 09:54:37:720,-0.3975,-0.126,8.7176,-0.0738,-0.0348,9.8063,0.0043,-0.0214,-0.0075,14.09,-5.52,-32.97,22.17,-3.03,0.7
2577,51.67897,-2.402787,81,25.63,11.0,16.2,14 / 22,257741,2019-08-31 09:54:37:820,-0.4194,-0.0656,9.9248,-0.0044,0.0,9.8066,0.0032,0.0202,-0.0085,14.09,-5.52,-32.97,22.17,-3.03,0.7
2578,51.67897,-2.402787,81,25.63,11.0,16.2,14 / 22,257841,2019-08-31 09:54:37:920,-0.2623,-0.1209,10.208,0.0123,0.0108,9.8066,0.0032,0.0202,-0.0085,14.09,-5.52,-33.04,22.17,-3.0,0.69
2579,51.67897,-2.402787,81,25.63,11.0,16.2,14 / 22,257941,2019-08-31 09:54:38:020,-0.4747,0.0565,10.9713,0.0379,0.011,9.8066,0.0192,0.0426,-0.0085,13.72,-5.52,-31.72,22.08,-3.23,0.72
2580,51.67897,-2.402787,81,25.63,11.0,16.2,14 / 22,258041,2019-08-31 09:54:38:120,-0.0275,0.0749,9.2489,0.0395,0.0052,9.8066,-0.0085,0.0276,0.0053,13.72,-5.52,-31.72,22.08,-3.23,0.72
2581,51.67919,-2.402688,82,25.7,11.0,15.9,14 / 22,258141,2019-08-31 09:54:38:220,0.4875,-0.3282,9.3159,0.0676,0.0042,9.8064,0.0096,0.0106,0.0043,13.72,-5.15,-32.97,22.08,-3.23,0.72
2582,51.67919,-2.402688,82,25.7,11.0,15.9,14 / 22,258241,2019-08-31 09:54:38:320,0.2773,-0.1137,9.1373,0.0645,-0.0049,9.8064,0.0075,-0.0107,-0.0128,13.72,-5.15,-32.97,18.97,-3.57,0.88
2583,51.67919,-2.402688,82,25.7,11.0,15.9,14 / 22,258342,2019-08-31 09:54:38:421,-0.4906,0.0931,9.8131,-0.0331,-0.0173,9.8066,-0.0245,-0.048,0.0373,13.72,-5.15,-32.97,18.97,-3.57,0.88
2584,51.67919,-2.402688,82,25.7,11.0,15.9,14 / 22,258441,2019-08-31 09:54:38:520,0.4035,-0.2024,9.7915,-0.053,-0.0063,9.8065,-0.0319,0.0149,-0.0234,13.41,-5.52,-32.6,23.65,-3.35,0.92
2585,51.67919,-2.402688,82,25.7,11.0,15.9,14 / 22,258541,2019-08-31 09:54:38:620,-0.0025,0.2648,10.4198,0.021,0.0346,9.8066,-0.0287,0.0181,0.0138,13.72,-5.9,-32.22,22.33,-2.97,0.76
2586,51.67919,-2.402688,82,25.7,11.0,15.9,14 / 22,258641,2019-08-31 09:54:38:720,0.5782,-0.1596,9.2047,0.0155,0.0247,9.8066,-0.0287,0.0181,0.0138,14.09,-5.21,-33.85,18.7,-3.16,0.62
2587,51.67919,-2.402688,82,25.7,11.0,15.9,14 / 22,258741,2019-08-31 09:54:38:820,-0.2183,0.1922,9.3703,0.0116,0.0226,9.8066,-0.0032,-0.0107,0.0074,14.09,-5.21,-33.85,18.7,-3.16,0.62
2588,51.67919,-2.402688,82,25.7,11.0,15.9,14 / 22,258841,2019-08-31 09:54:38:920,0.2454,0.4203,8.7718,0.0069,0.0098,9.8066,0.0107,0.0436,0.0074,14.09,-5.52,-33.04,21.66,-3.27,0.51
2589,51.67919,-2.402688,82,25.7,11.0,15.9,14 / 22,258942,2019-08-31 09:54:39:021,0.004,-0.0792,9.2597,0.004,0.0093,9.8066,0.0203,-0.0235,0.0192,14.09,-5.9,-33.04,21.55,-3.33,0.48
2590,51.67919,-2.402688,82,25.7,11.0,15.9,14 / 22,259042,2019-08-31 09:54:39:121,0.1869,0.4606,9.1765,-0.0126,-0.0034,9.8066,0.0117,-0.0832,0.0011,13.41,-6.27,-32.66,22.89,-3.25,0.47
2591,51.679413,-2.402576,83,25.53,11.0,16.4,14 / 22,259141,2019-08-31 09:54:39:220,-0.2324,0.0007,9.5108,-0.0281,-0.0192,9.8066,-0.0319,-0.0544,0.0256,13.41,-6.27,-32.66,22.89,-3.25,0.47
2592,51.679413,-2.402576,83,25.53,11.0,16.4,14 / 22,259241,2019-08-31 09:54:39:320,0.0454,-0.2713,9.8842,0.0066,0.0097,9.8066,-0.0181,0.0021,-0.0032,13.72,-5.9,-33.1,21.79,-3.06,0.51
2593,51.679413,-2.402576,83,25.53,11.0,16.4,14 / 22,259341,2019-08-31 09:54:39:420,-0.5526,0.1241,10.5281,0.0321,0.0303,9.8066,-0.0181,0.0021,-0.0032,14.09,-5.9,-32.66,21.79,-3.06,0.51
2594,51.679413,-2.402576,83,25.53,11.0,16.4,14 / 22,259441,2019-08-31 09:54:39:520,-0.1354,0.0273,8.6719,0.0415,0.0354,9.8065,-0.0266,0.0085,0.0351,14.09,-5.21,-33.1,18.21,-3.36,0.41
2595,51.679413,-2.402576,83,25.53,11.0,16.4,14 / 22,259543,2019-08-31 09:54:39:622,-0.264,-0.2696,10.8062,0.0132,0.0145,9.8066,0.0117,0.0298,0.0043,14.09,-5.96,-33.16,21.51,-3.23,0.42
2596,51.679413,-2.402576,83,25.53,11.0,16.4,14 / 22,259641,2019-08-31 09:54:39:720,0.3728,0.4751,9.6147,0.0477,0.0096,9.8065,-0.0128,0.0692,0.0117,14.09,-5.96,-33.16,21.51,-3.23,0.42
2597,51.679413,-2.402576,83,25.53,11.0,16.4,14 / 22,259741,2019-08-31 09:54:39:820,0.2667,-0.3429,9.1543,-0.0124,-0.0058,9.8066,-0.0202,-0.0118,0.016,14.09,-6.27,-33.16,21.41,-3.51,0.47
2598,51.679413,-2.402576,83,25.53,11.0,16.4,14 / 22,259841,2019-08-31 09:54:39:920,-0.2295,0.3965,9.3967,-0.0434,-0.0194,9.8065,0.0043,-0.08,0.0053,13.72,-5.59,-32.72,21.63,-3.23,0.48
2599,51.679413,-2.402576,83,25.53,11.0,16.4,14 / 22,259941,2019-08-31 09:54:40:020,0.0256,0.1019,8.3968,-0.0099,0.0017,9.8066,0.0117,0.0074,-0.0277,13.72,-5.59,-32.72,21.63,-3.23,0.48
2600,51.679413,-2.402576,83,25.53,11.0,16.4,14 / 22,260041,2019-08-31 09:54:40:120,0.3116,0.1031,10.4544,0.0004,0.0138,9.8066,0.0298,0.0553,0.0043,13.72,-5.96,-33.16,21.6,-3.18,0.45
2601,51.679646,-2.402485,83,25.86,11.0,15.8,14 / 22,260141,2019-08-31 09:54:40:220,-0.871,0.118,10.801,0.0181,0.0132,9.8066,0.0298,0.0553,0.0043,14.47,-5.59,-32.72,21.6,-3.18,0.45
2602,51.679646,-2.402485,83,25.86,11.0,15.8,14 / 22,260241,2019-08-31 09:54:40:320,-0.3735,0.1488,10.2011,0.0127,0.0041,9.8066,-0.0064,0.0543,-0.0149,14.47,-5.59,-32.72,21.6,-3.18,0.45
2603,51.679646,-2.402485,83,25.86,11.0,15.8,14 / 22,260341,2019-08-31 09:54:40:420,-0.2517,-0.2452,9.4476,0.0072,-0.0078,9.8066,0.0128,0.0564,0.0074,13.72,-5.59,-33.6,21.51,-3.26,0.46
2604,51.679646,-2.402485,83,25.86,11.0,15.8,14 / 22,260441,2019-08-31 09:54:40:520,-0.1958,0.059,9.5634,0.0008,-0.0035,9.8067,-0.001,-0.0395,0.0064,13.72,-4.84,-34.04,18.33,-3.38,0.49
2605,51.679646,-2.402485,83,25.86,11.0,15.8,14 / 22,260541,2019-08-31 09:54:40:620,0.2114,-0.1652,8.779,-0.0255,-0.0254,9.8066,0.0021,-0.0096,0.0106,13.72,-5.96,-32.79,18.33,-3.38,0.49
2606,51.679646,-2.402485,83,25.86,11.0,15.8,14 / 22,260643,2019-08-31 09:54:40:722,0.1265,-0.0762,9.2046,-0.0395,-0.0244,9.8065,0.0096,0.017,-0.016,13.72,-5.96,-32.79,18.33,-3.38,0.49
2607,51.679646,-2.402485,83,25.86,11.0,15.8,14 / 22,260741,2019-08-31 09:54:40:820,0.0799,0.2038,9.5838,-0.0203,0.0123,9.8066,0.0032,0.0255,-0.0128,13.72,-5.59,-33.16,21.84,-3.12,0.56
2608,51.679646,-2.402485,83,25.86,11.0,15.8,14 / 22,260841,2019-08-31 09:54:40:920,-0.3275,0.0912,9.4258,-0.0425,0.0143,9.8065,0.0032,0.0255,-0.0128,14.09,-5.96,-33.22,21.67,-2.92,0.39
2609,51.679646,-2.402485,83,25.86,11.0,15.8,14 / 22,260941,2019-08-31 09:54:41:020,-0.0912,-0.0389,10.3658,-0.0259,0.0117,9.8066,-0.0117,-0.0203,0.0106,14.47,-5.59,-33.22,21.67,-2.92,0.39
2610,51.679646,-2.402485,83,25.86,11.0,15.8,Dec-22,261041,2019-08-31 09:54:41:120,0.7662,0.0624,10.1024,0.0082,0.0534,9.8065,-0.0224,0.0351,0.0149,14.09,-5.96,-33.22,21.06,-3.08,0.11
2611,51.67987,-2.402386,83,26.14,11.0,15.6,Dec-22,261141,2019-08-31 09:54:41:220,-0.0374,-0.1902,10.7844,0.0436,0.0155,9.8065,0.0501,0.1097,-0.0277,14.09,-5.96,-33.22,21.06,-3.08,0.11
2612,51.67987,-2.402386,83,26.14,11.0,15.6,Dec-22,261241,2019-08-31 09:54:41:320,-0.2548,0.2884,10.1433,0.0018,0.0016,9.8067,0.0053,0.0649,-0.0139,13.72,-5.96,-33.6,20.83,-3.35,0.12
2613,51.67987,-2.402386,83,26.14,11.0,15.6,Dec-22,261341,2019-08-31 09:54:41:420,-0.0818,-0.1269,9.1043,0.0095,-0.0085,9.8066,0.0405,-0.0033,-0.0096,13.72,-5.59,-33.22,20.83,-3.35,0.12
2614,51.67987,-2.402386,83,26.14,11.0,15.6,Dec-22,261441,2019-08-31 09:54:41:520,0.3871,-0.0337,9.684,0.0054,-0.0082,9.8066,-0.0266,-0.0214,0.0288,13.72,-5.21,-33.22,18.1,-3.26,0.32
2615,51.67987,-2.402386,83,26.14,11.0,15.6,Dec-22,261541,2019-08-31 09:54:41:620,0.2052,-0.2902,8.487,-0.0223,-0.0107,9.8066,-0.0192,0.0447,-0.0107,13.72,-5.59,-33.22,21.4,-3.28,0.37
2616,51.67987,-2.402386,83,26.14,11.0,15.6,Dec-22,261641,2019-08-31 09:54:41:720,-0.4747,-0.0542,10.4536,-0.0454,-0.018,9.8065,-0.0192,0.0447,-0.0107,13.72,-5.59,-33.22,21.4,-3.28,0.37
2617,51.67987,-2.402386,83,26.14,11.0,15.6,Dec-22,261741,2019-08-31 09:54:41:820,-0.3885,0.1793,9.6933,-0.0235,-0.0098,9.8066,0.0021,0.0511,0.0053,13.72,-5.59,-32.79,21.6,-2.99,0.37
2618,51.67987,-2.402386,83,26.14,11.0,15.6,Dec-22,261841,2019-08-31 09:54:41:920,-0.5197,-0.2865,10.694,0.0037,0.0069,9.8066,0.0117,0.0628,0.0096,14.47,-5.59,-33.22,21.71,-2.84,0.38
2619,51.67987,-2.402386,83,26.14,11.0,15.6,Dec-22,261942,2019-08-31 09:54:42:021,1.212,-0.549,8.9391,0.0322,0.0083,9.8066,-0.0085,-0.0565,0.0788,14.09,-5.21,-32.79,18.4,-3.03,0.4
2620,51.67987,-2.402386,83,26.14,11.0,15.6,Dec-22,262044,2019-08-31 09:54:42:123,-0.4351,0.4851,11.0234,0.0313,-0.0071,9.8066,-0.0138,0.001,0.0554,14.09,-5.21,-32.79,18.4,-3.03,0.4
2621,51.680107,-2.40228,84,26.05,11.0,15.8,Dec-22,262141,2019-08-31 09:54:42:220,0.3244,-0.078,10.0367,0.0564,0.0036,9.8065,-0.0138,0.0159,0.0309,14.09,-5.21,-32.79,18.36,-3.35,0.48
2622,51.680107,-2.40228,84,26.05,11.0,15.8,Dec-22,262241,2019-08-31 09:54:42:320,0.1484,-0.4832,9.4494,-0.0059,-0.0315,9.8066,-0.0373,-0.0416,0.0373,14.47,-5.59,-32.79,21.53,-3.57,0.56
2623,51.680107,-2.40228,84,26.05,11.0,15.8,Dec-22,262341,2019-08-31 09:54:42:420,0.1314,-0.3276,9.1283,-0.04,-0.0478,9.8065,0.0053,0.0021,-0.0053,14.47,-5.59,-32.79,21.53,-3.57,0.56
2624,51.680107,-2.40228,84,26.05,11.0,15.8,Dec-22,262441,2019-08-31 09:54:42:520,-0.0947,-0.1693,9.192,-0.09,-0.0449,9.8061,-0.0351,-0.0416,0.0032,14.09,-6.34,-32.41,21.53,-3.57,0.56
2625,51.680107,-2.40228,84,26.05,11.0,15.8,Dec-22,262540,2019-08-31 09:54:42:619,-0.7268,0.0208,9.7272,-0.0238,0.0066,9.8066,-0.0351,-0.0416,0.0032,14.47,-5.96,-33.6,22.0,-2.98,0.61
2626,51.680107,-2.40228,84,26.05,11.0,15.8,Dec-22,262641,2019-08-31 09:54:42:720,-0.1192,-0.1729,10.056,0.0166,0.0037,9.8066,0.0075,0.0447,0.0106,14.09,-5.96,-32.79,21.95,-2.87,0.52
2627,51.680107,-2.40228,84,26.05,11.0,15.8,Dec-22,262741,2019-08-31 09:54:42:820,0.2938,-0.0986,10.2924,0.014,0.0137,9.8066,-0.016,0.0212,0.0149,14.09,-6.65,-33.16,21.95,-2.87,0.52
2628,51.680107,-2.40228,84,26.05,11.0,15.8,Dec-22,262841,2019-08-31 09:54:42:920,-0.8739,0.5391,9.1743,0.0156,0.0235,9.8066,0.0394,0.0798,-0.0192,14.09,-6.65,-33.16,21.95,-2.87,0.52
2629,51.680107,-2.40228,84,26.05,11.0,15.8,Dec-22,262941,2019-08-31 09:54:43:020,0.4162,-0.2946,8.8025,0.0405,-0.0109,9.8066,0.0213,0.05,0.0011,13.72,-6.34,-33.6,21.64,-3.01,0.43
2630,51.680107,-2.40228,84,26.05,11.0,15.8,Dec-22,263041,2019-08-31 09:54:43:120,0.2383,-0.0651,9.2051,0.0516,-0.0144,9.8065,0.0107,0.0703,-0.0075,14.09,-5.59,-33.6,21.64,-3.01,0.43
2631,51.680336,-2.402184,84,25.96,11.0,16.3,Dec-22,263141,2019-08-31 09:54:43:220,-0.4416,0.1855,9.4943,-0.0084,-0.0083,9.8066,0.0405,-0.0288,-0.033,13.34,-5.96,-33.22,23.17,-3.25,0.62
2632,51.680336,-2.402184,84,25.96,11.0,16.3,Dec-22,263241,2019-08-31 09:54:43:320,0.0794,0.2963,9.6911,-0.0105,-0.0292,9.8066,0.0405,-0.0288,-0.033,13.34,-5.96,-33.6,23.49,-3.13,0.75
2633,51.680336,-2.402184,84,25.96,11.0,16.3,Dec-22,263341,2019-08-31 09:54:43:420,-0.0592,-0.0239,9.8012,-0.0288,-0.0196,9.8066,-0.016,-0.0128,0.0032,14.09,-5.59,-33.16,22.39,-2.93,0.79
2634,51.680336,-2.402184,84,25.96,11.0,16.3,Dec-22,263440,2019-08-31 09:54:43:519,0.171,-0.1291,10.0747,-0.0107,0.0183,9.8066,-0.016,-0.0001,0.0202,14.09,-5.59,-33.16,22.39,-2.93,0.79
2635,51.680336,-2.402184,84,25.96,11.0,16.3,Dec-22,263541,2019-08-31 09:54:43:620,-0.1992,0.0874,8.9641,-0.0132,-0.0046,9.8066,-0.001,-0.0064,-0.016,14.09,-5.96,-33.6,22.15,-2.91,0.67
2636,51.680336,-2.402184,84,25.96,11.0,16.3,Dec-22,263644,2019-08-31 09:54:43:723,-0.2403,-0.0812,9.6698,0.0118,0.0,9.8066,0.0149,-0.0075,0.0021,14.09,-5.96,-33.6,22.21,-2.83,0.66
2637,51.680336,-2.402184,84,25.96,11.0,16.3,Dec-22,263741,2019-08-31 09:54:43:820,-0.0773,-0.043,10.677,0.048,-0.0031,9.8065,0.0203,0.0244,-0.0128,14.09,-5.96,-33.6,22.21,-2.83,0.66
2638,51.680336,-2.402184,84,25.96,11.0,16.3,Dec-22,263840,2019-08-31 09:54:43:919,0.0412,-0.1188,9.7649,0.0075,0.0089,9.8066,0.0043,0.001,0.0021,14.09,-5.59,-33.6,22.25,-3.08,0.79
2639,51.680336,-2.402184,84,25.96,11.0,16.3,Dec-22,263941,2019-08-31 09:54:44:020,-0.0848,0.0484,9.5594,0.0094,0.0103,9.8066,0.0043,0.001,0.0021,13.72,-5.21,-33.16,22.25,-3.08,0.79
2640,51.680336,-2.402184,84,25.96,11.0,16.3,Dec-22,264042,2019-08-31 09:54:44:121,0.2195,-0.1468,8.3854,-0.0219,-0.0066,9.8066,-0.0224,-0.0022,0.0319,14.09,-5.96,-33.16,22.16,-3.16,0.75
2641,51.68057,-2.402077,84,25.92,10.0,15.8,Dec-22,264141,2019-08-31 09:54:44:220,-0.719,0.2096,9.7614,-0.0234,-0.0126,9.8066,0.0011,-0.0107,0.017,14.09,-5.96,-33.16,22.23,-3.03,0.74
2642,51.68057,-2.402077,84,25.92,10.0,15.8,Dec-22,264241,2019-08-31 09:54:44:320,0.0767,-0.069,9.0567,0.0051,-0.0372,9.8066,0.0021,-0.0064,0.0085,13.72,-5.59,-33.97,22.64,-2.97,0.95
2643,51.68057,-2.402077,84,25.92,10.0,15.8,Dec-22,264341,2019-08-31 09:54:44:420,-0.1325,0.0068,9.3761,0.0094,0.0043,9.8066,0.0021,-0.0064,0.0085,13.72,-5.59,-33.97,22.64,-2.97,0.95
2644,51.68057,-2.402077,84,25.92,10.0,15.8,Dec-22,264441,2019-08-31 09:54:44:520,0.3231,-0.1165,9.8252,-0.0111,0.0178,9.8066,-0.0053,0.0479,-0.0288,14.09,-5.59,-32.72,22.61,-3.03,0.95
2645,51.68057,-2.402077,84,25.92,10.0,15.8,Dec-22,264540,2019-08-31 09:54:44:619,-0.3552,0.061,10.3757,-0.0092,0.0203,9.8066,-0.0042,-0.0533,0.0106,13.34,-5.21,-32.72,22.61,-3.03,0.95
2646,51.68057,-2.402077,84,25.92,10.0,15.8,Dec-22,264641,2019-08-31 09:54:44:720,-0.4544,0.2438,9.9054,0.0081,0.0324,9.8066,0.0277,0.0319,-0.0043,14.09,-5.59,-32.35,22.27,-3.15,0.79
2647,51.68057,-2.402077,84,25.92,10.0,15.8,Dec-22,264741,2019-08-31 09:54:44:820,0.261,0.0071,10.0547,0.0075,0.0079,9.8066,0.0298,-0.0054,-0.0181,13.72,-5.59,-32.72,22.27,-3.15,0.79
2648,51.68057,-2.402077,84,25.92,10.0,15.8,Dec-22,264841,2019-08-31 09:54:44:920,0.2909,0.2527,9.2295,-0.0087,0.0006,9.8066,0.0032,-0.0171,-0.0107,13.72,-5.59,-32.72,22.27,-3.15,0.79
2649,51.68057,-2.402077,84,25.92,10.0,15.8,Dec-22,264941,2019-08-31 09:54:45:020,0.084,0.1567,9.8803,-0.0092,0.0008,9.8066,-0.0053,0.0415,0.0149,14.09,-5.59,-32.41,22.26,-3.1,0.77
2650,51.68057,-2.402077,84,25.92,10.0,15.8,Dec-22,265041,2019-08-31 09:54:45:120,0.0519,0.4527,8.7342,0.0125,0.0163,9.8066,-0.0053,0.0415,0.0149,14.09,-5.21,-31.97,22.26,-3.1,0.77
2651,51.680798,-2.401977,85,25.9,10.0,16.0,Dec-22,265141,2019-08-31 09:54:45:220,-0.1056,-0.2672,8.8072,-0.0211,-0.0067,9.8066,0.016,0.0521,-0.0128,13.72,-5.21,-32.79,18.9,-3.16,0.71
2652,51.680798,-2.401977,85,25.9,10.0,16.0,Dec-22,265241,2019-08-31 09:54:45:320,0.0105,0.1747,8.9499,-0.0403,-0.003,9.8066,-0.0426,-0.0214,0.0074,13.72,-5.21,-32.79,18.9,-3.16,0.71
2653,51.680798,-2.401977,85,25.9,10.0,16.0,Dec-22,265341,2019-08-31 09:54:45:420,0.4071,-0.0679,8.4489,-0.0002,0.0289,9.8066,-0.0202,-0.0107,0.0096,13.72,-5.59,-33.66,22.11,-2.93,0.65
2654,51.680798,-2.401977,85,25.9,10.0,16.0,Dec-22,265440,2019-08-31 09:54:45:519,0.1407,-0.1679,10.2959,0.0304,0.0084,9.8066,0.0235,0.0979,-0.0266,14.09,-5.21,-33.22,18.59,-2.99,0.49
2655,51.680798,-2.401977,85,25.9,10.0,16.0,Dec-22,265541,2019-08-31 09:54:45:620,-0.5038,0.2418,10.6974,0.0339,0.0114,9.8066,0.0043,-0.0001,-0.0053,13.72,-5.21,-33.29,18.46,-3.2,0.49
2656,51.680798,-2.401977,85,25.9,10.0,16.0,Dec-22,265641,2019-08-31 09:54:45:720,0.4153,-0.2646,10.3037,0.0112,0.0074,9.8066,0.0043,-0.0001,-0.0053,13.72,-5.21,-33.29,18.46,-3.2,0.49
2657,51.680798,-2.401977,85,25.9,10.0,16.0,Dec-22,265741,2019-08-31 09:54:45:820,-0.0666,0.1206,8.5085,0.0104,-0.0024,9.8066,-0.0053,-0.0139,0.0138,14.09,-5.96,-33.72,21.52,-3.28,0.47
2658,51.680798,-2.401977,85,25.9,10.0,16.0,Dec-22,265841,2019-08-31 09:54:45:920,0.0294,-0.0106,8.5787,-0.0038,-0.003,9.8066,-0.016,-0.0182,-0.0021,13.34,-5.59,-33.29,22.91,-3.25,0.48
2659,51.680798,-2.401977,85,25.9,10.0,16.0,Dec-22,265941,2019-08-31 09:54:46:020,0.1743,0.0033,8.9874,-0.0244,0.0076,9.8066,0.0266,-0.0618,-0.0117,13.72,-5.59,-33.72,21.46,-3.13,0.38
2660,51.680798,-2.401977,87,25.68,10.0,16.3,Dec-22,266041,2019-08-31 09:54:46:120,0.219,-0.1697,9.8358,-0.0174,-0.0139,9.8066,0.0277,0.0255,-0.0096,13.72,-5.59,-33.72,21.46,-3.13,0.38
2661,51.68102,-2.40188,87,25.68,10.0,16.3,Dec-22,266141,2019-08-31 09:54:46:220,-0.2207,0.1384,10.0753,-0.0188,0.0062,9.8066,-0.0245,-0.0331,0.0032,14.47,-5.59,-33.35,21.8,-2.8,0.41
2662,51.68102,-2.40188,87,25.68,10.0,16.3,Dec-22,266240,2019-08-31 09:54:46:319,0.1116,0.1037,9.6229,0.0045,0.004,9.8067,0.0117,-0.0459,0.0085,14.09,-5.21,-33.35,21.8,-2.8,0.41
2663,51.68102,-2.40188,87,25.68,10.0,16.3,Dec-22,266341,2019-08-31 09:54:46:420,0.1697,0.2152,9.9157,0.0546,0.0043,9.8065,0.0362,0.0181,0.0149,14.09,-5.96,-33.35,21.76,-3.1,0.51
2664,51.68102,-2.40188,87,25.68,10.0,16.3,Dec-22,266441,2019-08-31 09:54:46:520,-0.3824,-0.0997,9.4131,0.0427,-0.0123,9.8066,0.0139,-0.0341,0.0064,14.09,-5.96,-33.35,21.76,-3.1,0.51
2665,51.68102,-2.40188,87,25.68,10.0,16.3,Dec-22,266541,2019-08-31 09:54:46:620,-0.0012,-0.331,9.4015,-0.0088,-0.0284,9.8066,-0.0287,-0.0214,-0.0043,14.09,-5.59,-33.35,21.9,-3.31,0.67
2666,51.68102,-2.40188,87,25.68,10.0,16.3,Dec-22,266642,2019-08-31 09:54:46:721,0.0465,-0.4026,9.6956,-0.0168,-0.0229,9.8066,-0.0287,-0.0214,-0.0043,14.09,-5.59,-33.79,22.13,-3.17,0.75
2667,51.68102,-2.40188,87,25.68,10.0,16.3,Dec-22,266741,2019-08-31 09:54:46:820,-0.5697,-0.0798,10.5135,-0.0064,0.0204,9.8066,-0.0554,-0.0555,0.0128,14.09,-5.59,-33.79,22.13,-3.17,0.75
2668,51.68102,-2.40188,87,25.68,10.0,16.3,Dec-22,266841,2019-08-31 09:54:46:920,-0.3132,0.0385,10.6226,-0.0193,0.0245,9.8066,0.0032,-0.032,0.0011,13.72,-5.96,-33.35,22.13,-3.17,0.75
2669,51.68102,-2.40188,87,25.68,10.0,16.3,Dec-22,266941,2019-08-31 09:54:47:020,0.1957,-0.0721,10.0623,-0.0483,0.0001,9.8065,0.033,0.0031,-0.0234,13.72,-5.59,-33.79,22.12,-2.91,0.65
2670,51.681244,-2.401773,88,25.5,10.0,16.4,Dec-22,267041,2019-08-31 09:54:47:120,0.6146,0.0436,9.2698,-0.001,0.0138,9.8066,-0.0117,-0.0022,0.0064,13.72,-5.59,-34.16,22.12,-2.91,0.65
2671,51.681244,-2.401773,88,25.5,10.0,16.4,Dec-22,267141,2019-08-31 09:54:47:220,0.4303,0.1375,9.8118,0.0119,0.0185,9.8066,0.0053,-0.0064,-0.0128,14.09,-5.59,-33.79,21.96,-2.93,0.57
2672,51.681244,-2.401773,88,25.5,10.0,16.4,Dec-22,267241,2019-08-31 09:54:47:320,-0.0134,-0.1173,10.4561,0.0024,0.0155,9.8066,-0.0096,-0.0682,-0.0043,14.09,-5.59,-33.79,21.96,-2.93,0.57
2673,51.681244,-2.401773,88,25.5,10.0,16.4,Dec-22,267341,2019-08-31 09:54:47:420,0.1112,0.1707,9.0917,0.0052,0.021,9.8066,-0.0042,-0.0267,-0.016,13.34,-5.27,-32.97,19.77,-2.98,0.49
2674,51.681244,-2.401773,88,25.5,10.0,16.4,Dec-22,267440,2019-08-31 09:54:47:519,-0.0585,0.1907,9.156,-0.0012,0.0024,9.8067,-0.0042,-0.0267,-0.016,13.72,-5.59,-33.35,21.58,-3.05,0.39
2675,51.681244,-2.401773,88,25.5,10.0,16.4,Dec-22,267542,2019-08-31 09:54:47:621,0.187,0.0487,9.1055,-0.0041,-0.0125,9.8066,0.0,-0.0128,0.0074,13.72,-5.59,-33.35,21.58,-3.05,0.39
2676,51.681244,-2.401773,88,25.5,10.0,16.4,Dec-22,267641,2019-08-31 09:54:47:720,0.1268,-0.1039,10.0297,-0.011,-0.0352,9.8066,0.0586,0.0468,-0.0298,13.72,-5.59,-33.35,21.98,-2.91,0.55
2677,51.681244,-2.401773,88,25.5,10.0,16.4,Dec-22,267741,2019-08-31 09:54:47:820,0.01,-0.0079,9.3592,0.013,-0.0043,9.8066,-0.0042,-0.0288,-0.0075,13.72,-5.59,-33.35,21.98,-2.91,0.55
2678,51.681244,-2.401773,88,25.5,10.0,16.4,Dec-22,267841,2019-08-31 09:54:47:920,-0.4606,-0.1882,9.8765,-0.0005,0.0033,9.8067,-0.0256,-0.0118,0.016,14.09,-5.27,-33.79,18.8,-2.97,0.61
2679,51.681244,-2.401773,88,25.5,10.0,16.4,Dec-22,267941,2019-08-31 09:54:48:020,-0.048,-0.2639,10.0257,-0.0203,0.0117,9.8066,-0.033,-0.0022,0.0085,14.09,-5.96,-33.35,21.91,-2.88,0.5
2680,51.681244,-2.401773,88,25.5,10.0,16.4,Dec-22,268041,2019-08-31 09:54:48:120,-0.1007,-0.0959,9.5084,-0.0036,0.0057,9.8066,-0.0117,0.0511,0.0074,14.09,-5.96,-33.35,21.84,-2.88,0.46
2681,51.681473,-2.401659,89,25.77,10.0,16.3,Dec-22,268141,2019-08-31 09:54:48:220,-0.0615,0.101,11.3479,0.0107,0.0171,9.8066,-0.016,0.0607,0.0064,14.09,-5.96,-33.35,21.84,-2.88,0.46
2682,51.681473,-2.401659,89,25.77,10.0,16.3,Dec-22,268240,2019-08-31 09:54:48:319,0.2382,-0.0003,9.5887,0.0242,0.0284,9.8066,-0.016,0.0607,0.0064,13.72,-5.59,-33.35,21.52,-3.07,0.36
2683,51.681473,-2.401659,89,25.77,10.0,16.3,Dec-22,268341,2019-08-31 09:54:48:420,-0.0575,-0.4032,10.2771,-0.0077,-0.0096,9.8066,0.0085,0.0298,-0.0064,14.09,-5.96,-33.79,21.57,-3.07,0.41
2684,51.681473,-2.401659,89,25.77,10.0,16.3,Dec-22,268441,2019-08-31 09:54:48:520,0.6253,-0.0459,10.0986,0.0124,-0.0114,9.8066,-0.0128,0.082,0.0064,14.09,-5.96,-33.79,21.57,-3.07,0.41
2685,51.681473,-2.401659,89,25.77,10.0,16.3,Dec-22,268541,2019-08-31 09:54:48:620,0.1882,-0.2202,10.3914,0.0326,-0.0133,9.8066,0.0362,0.0543,0.0106,14.09,-5.59,-33.35,21.74,-3.11,0.5
2686,51.681473,-2.401659,89,25.77,10.0,16.3,Dec-22,268641,2019-08-31 09:54:48:720,0.4844,-0.17,8.6039,0.043,-0.0361,9.8065,-0.0138,0.0383,0.0011,13.72,-5.59,-33.35,22.16,-3.26,0.79
2687,51.681473,-2.401659,89,25.77,10.0,16.3,Dec-22,268741,2019-08-31 09:54:48:820,0.0424,0.1411,9.1982,-0.004,-0.0192,9.8066,-0.0405,-0.031,0.0256,13.72,-5.59,-33.35,22.16,-3.26,0.79
2688,51.681473,-2.401659,89,25.77,10.0,16.3,Dec-22,268841,2019-08-31 09:54:48:920,0.1929,-0.2539,9.2179,-0.0272,-0.0263,9.8066,-0.0192,-0.0235,0.0256,14.09,-5.59,-32.91,22.16,-3.26,0.79
2689,51.681473,-2.401659,89,25.77,10.0,16.3,Dec-22,268940,2019-08-31 09:54:49:019,-0.2977,0.0261,9.7234,-0.0135,-0.0046,9.8066,-0.0192,-0.0235,0.0256,14.47,-5.65,-33.41,22.45,-3.06,0.87
2690,51.681473,-2.401659,89,25.77,10.0,16.3,Dec-22,269042,2019-08-31 09:54:49:121,-0.1504,0.1484,9.4094,-0.0003,-0.0153,9.8066,0.0096,-0.0001,0.0053,14.47,-5.27,-33.35,19.45,-3.02,0.96
2691,51.68168,-2.401552,89,25.53,10.0,16.5,Dec-22,269141,2019-08-31 09:54:49:220,0.4504,-0.4361,11.0667,0.0235,-0.013,9.8066,0.0512,0.0468,-0.0117,14.47,-5.27,-33.35,19.45,-3.02,0.96
2692,51.68168,-2.401552,89,25.53,10.0,16.5,Dec-22,269240,2019-08-31 09:54:49:319,-0.7783,0.1452,9.5743,0.0336,0.0077,9.8066,0.0085,0.0031,0.0234,14.09,-4.9,-33.35,19.6,-3.13,1.07
2693,51.68168,-2.401552,89,25.53,10.0,16.5,Dec-22,269341,2019-08-31 09:54:49:420,0.375,-0.3646,9.4946,0.0627,0.0162,9.8064,0.0075,0.0532,-0.0213,14.09,-5.96,-33.79,22.53,-3.51,1.11
2694,51.68168,-2.401552,89,25.53,10.0,16.5,Dec-22,269441,2019-08-31 09:54:49:520,-0.0407,0.1925,8.8083,-0.0042,0.0027,9.8067,0.0096,0.0053,0.0138,14.09,-5.96,-33.79,22.53,-3.51,1.11
2695,51.68168,-2.401552,89,25.53,10.0,16.5,Dec-22,269541,2019-08-31 09:54:49:620,-0.1826,0.1281,9.9534,-0.0512,-0.0339,9.8065,-0.0074,-0.0416,-0.0277,13.72,-5.65,-32.97,22.52,-3.49,1.08
2696,51.68168,-2.401552,89,25.53,10.0,16.5,Dec-22,269642,2019-08-31 09:54:49:721,0.2637,0.3473,9.093,-0.0232,0.0119,9.8066,0.0053,0.0553,-0.0149,14.47,-5.96,-33.35,22.89,-3.14,1.15
2697,51.68168,-2.401552,89,25.53,10.0,16.5,Dec-22,269741,2019-08-31 09:54:49:820,-0.1126,0.2841,9.8339,-0.0241,0.0312,9.8066,0.0053,0.0553,-0.0149,14.09,-5.59,-33.35,22.54,-3.08,0.93
2698,51.68168,-2.401552,89,25.53,10.0,16.5,Dec-22,269841,2019-08-31 09:54:49:920,-0.5268,0.583,11.0352,-0.0038,0.0151,9.8066,0.0043,-0.0075,0.0128,14.09,-6.34,-32.97,22.36,-3.09,0.84
2699,51.68168,-2.401552,89,25.53,10.0,16.5,Dec-22,269941,2019-08-31 09:54:50:020,0.0899,-0.2128,9.6142,0.0112,-0.0164,9.8066,0.0309,-0.0118,-0.0192,14.09,-6.34,-32.97,22.36,-3.09,0.84
2700,51.68168,-2.401552,89,25.53,10.0,16.5,Dec-22,270041,2019-08-31 09:54:50:120,-0.2091,-0.0466,9.5321,0.0438,0.0037,9.8066,-0.0224,-0.0224,-0.0053,14.47,-5.59,-32.91,22.55,-3.12,0.95
2701,51.681908,-2.40145,90,26.0,10.0,16.0,Dec-22,270141,2019-08-31 09:54:50:220,-0.0896,-0.1141,9.8652,0.0613,0.0163,9.8064,-0.0224,-0.0246,0.0043,13.72,-5.96,-32.91,22.38,-3.48,1.0
2702,51.681908,-2.40145,90,26.0,10.0,16.0,Dec-22,270241,2019-08-31 09:54:50:320,-0.2558,-0.0266,9.8976,-0.0139,0.0079,9.8066,0.0213,0.0074,-0.0234,13.72,-5.96,-32.91,22.38,-3.48,1.0
2703,51.681908,-2.40145,90,26.0,10.0,16.0,Dec-22,270342,2019-08-31 09:54:50:421,-0.824,0.0278,10.3872,-0.0242,0.0167,9.8066,0.0075,0.0287,-0.0224,13.72,-6.34,-33.35,22.19,-3.39,0.86
2704,51.681908,-2.40145,90,26.0,10.0,16.0,Dec-22,270440,2019-08-31 09:54:50:519,-0.2625,-0.0572,9.0609,-0.0171,-0.0077,9.8066,0.0352,-0.0384,-0.0117,13.72,-5.96,-33.35,22.19,-3.39,0.86
2705,51.681908,-2.40145,90,26.0,10.0,16.0,Dec-22,270541,2019-08-31 09:54:50:620,-0.1661,0.1061,9.5743,-0.03,-0.0116,9.8066,0.0352,-0.0384,-0.0117,13.72,-5.59,-32.91,22.31,-3.2,0.85
2706,51.681908,-2.40145,90,26.0,10.0,16.0,Dec-22,270641,2019-08-31 09:54:50:720,0.2539,0.136,9.8968,-0.0167,0.0034,9.8066,-0.0096,-0.0384,-0.0021,13.72,-5.59,-32.91,22.31,-3.2,0.85
2707,51.681908,-2.40145,90,26.0,10.0,16.0,Dec-22,270741,2019-08-31 09:54:50:820,0.2555,0.2015,9.7711,-0.0092,0.0014,9.8066,0.0,-0.0001,-0.0064,14.47,-5.59,-32.54,22.27,-3.12,0.8
2708,51.681908,-2.40145,90,26.0,10.0,16.0,Dec-22,270841,2019-08-31 09:54:50:920,0.0519,0.2343,9.8815,-0.0116,0.0313,9.8066,-0.0074,0.0362,-0.0139,13.34,-5.21,-33.35,22.27,-3.12,0.8
2709,51.681908,-2.40145,90,26.0,10.0,16.0,Dec-22,270941,2019-08-31 09:54:51:020,0.3547,0.2225,9.7693,0.012,0.0514,9.8065,0.0107,0.0106,0.0085,13.72,-5.21,-32.91,18.51,-3.3,0.55
2710,51.681908,-2.40145,90,26.0,10.0,16.0,Dec-22,271041,2019-08-31 09:54:51:120,-0.0848,-0.075,10.4035,0.0021,-0.0049,9.8066,0.0288,0.0181,-0.0256,13.72,-5.21,-32.91,18.51,-3.3,0.55
2711,51.68213,-2.401343,90,25.7,10.0,16.2,Dec-22,271140,2019-08-31 09:54:51:219,0.2544,-0.2876,10.1797,-0.002,-0.017,9.8066,0.0117,-0.0448,0.0,14.09,-5.59,-32.91,18.51,-3.3,0.55
2712,51.68213,-2.401343,90,25.7,10.0,16.2,Dec-22,271241,2019-08-31 09:54:51:320,-0.6247,-0.026,10.2942,-0.0017,-0.014,9.8066,0.0075,0.0426,-0.0032,14.09,-5.21,-32.85,18.71,-3.25,0.64
2713,51.68213,-2.401343,90,25.7,10.0,16.2,Dec-22,271341,2019-08-31 09:54:51:420,-0.1446,-0.0979,9.2697,0.0065,-0.0122,9.8066,-0.0351,-0.031,0.0128,13.72,-5.59,-32.85,18.71,-3.25,0.64
2714,51.68213,-2.401343,90,25.7,10.0,16.2,Dec-22,271440,2019-08-31 09:54:51:519,-0.0267,-0.363,9.2884,-0.0102,-0.0095,9.8066,-0.0128,-0.0341,0.0,13.72,-5.96,-32.85,22.02,-3.27,0.72
2715,51.68213,-2.401343,90,25.7,10.0,16.2,Dec-22,271541,2019-08-31 09:54:51:620,-0.1352,-0.1697,10.044,-0.0095,0.0084,9.8066,-0.0128,-0.0341,0.0,13.72,-5.96,-33.29,22.13,-3.19,0.74
2716,51.68213,-2.401343,90,25.7,10.0,16.2,Dec-22,271641,2019-08-31 09:54:51:720,-0.1655,-0.0901,9.4338,-0.0092,0.0105,9.8066,0.0,0.0319,0.0032,13.34,-5.59,-32.85,22.13,-3.19,0.74
2717,51.68213,-2.401343,90,25.7,10.0,16.2,Dec-22,271740,2019-08-31 09:54:51:819,0.5852,-0.1344,10.5565,-0.0146,-0.003,9.8066,0.0192,-0.0171,-0.0053,13.34,-5.59,-32.85,22.13,-3.19,0.74
2718,51.68213,-2.401343,90,25.7,10.0,16.2,Dec-22,271841,2019-08-31 09:54:51:920,-0.1969,0.1726,9.5352,0.001,0.0043,9.8066,0.0139,0.0703,-0.0139,13.72,-5.59,-33.29,22.16,-3.11,0.73
2719,51.68213,-2.401343,90,25.7,10.0,16.2,Dec-22,271941,2019-08-31 09:54:52:020,-0.0386,0.2479,8.6751,0.0183,0.0078,9.8066,-0.0213,-0.0288,0.0021,13.72,-5.59,-33.29,22.11,-3.12,0.71
2720,51.68213,-2.401343,90,25.7,10.0,16.2,Dec-22,272040,2019-08-31 09:54:52:119,0.5145,0.0083,8.8279,0.014,0.0153,9.8066,-0.0309,-0.0597,0.0192,13.72,-5.59,-33.29,21.94,-3.23,0.66
2721,51.68235,-2.401252,90,26.06,10.0,16.1,Dec-22,272142,2019-08-31 09:54:52:221,-0.0117,0.1,8.4761,-0.036,-0.0116,9.8066,-0.0128,0.0127,-0.0043,13.72,-5.59,-33.29,21.94,-3.23,0.66
2722,51.68235,-2.401252,90,26.06,10.0,16.1,Dec-22,272241,2019-08-31 09:54:52:320,-0.0353,0.0635,9.0951,-0.0645,-0.009,9.8064,-0.0128,0.0127,-0.0043,14.09,-5.59,-32.85,22.03,-2.86,0.56
2723,51.68235,-2.401252,90,26.06,10.0,16.1,Dec-22,272341,2019-08-31 09:54:52:420,-0.1439,0.3217,11.9376,0.0151,0.0105,9.8066,-0.0032,0.0074,0.0288,14.09,-5.59,-32.85,22.03,-2.86,0.56
2724,51.68235,-2.401252,90,26.06,10.0,16.1,Dec-22,272441,2019-08-31 09:54:52:520,0.4643,0.1354,10.3035,0.0024,-0.0062,9.8066,-0.0213,-0.0416,0.0341,14.09,-5.96,-33.22,21.98,-3.07,0.62
2725,51.68235,-2.401252,90,26.06,10.0,16.1,Dec-22,272542,2019-08-31 09:54:52:621,-0.3228,0.2474,10.3148,0.001,-0.0165,9.8066,0.0458,0.0521,-0.0107,13.72,-5.96,-33.66,22.02,-3.07,0.66
2726,51.68235,-2.401252,90,26.06,10.0,16.1,Dec-22,272640,2019-08-31 09:54:52:719,-0.1594,-0.1846,9.7151,0.0121,-0.0116,9.8066,-0.0053,-0.0064,-0.0064,13.72,-5.96,-33.66,22.02,-3.07,0.66
2727,51.68235,-2.401252,90,26.06,10.0,16.1,Dec-22,272741,2019-08-31 09:54:52:820,-0.0123,-0.3574,9.0802,-0.0242,0.0097,9.8066,-0.0266,-0.0107,0.0011,14.09,-5.59,-32.85,22.19,-3.11,0.75
2728,51.68235,-2.401252,90,26.06,10.0,16.1,Dec-22,272841,2019-08-31 09:54:52:920,-0.4885,0.0542,9.0657,-0.0446,0.0209,9.8065,-0.0117,0.0319,-0.0139,13.72,-5.59,-32.85,21.94,-2.92,0.54
2729,51.68235,-2.401252,90,26.06,10.0,16.1,Dec-22,272941,2019-08-31 09:54:53:020,0.1321,0.2459,10.0117,-0.0031,0.0348,9.8066,0.0117,0.0308,-0.0011,13.72,-5.59,-32.85,21.94,-2.92,0.54
2730,51.68235,-2.401252,90,26.06,10.0,16.1,Dec-22,273040,2019-08-31 09:54:53:119,0.1632,0.262,9.374,0.0073,0.0054,9.8066,0.0117,0.0308,-0.0011,13.72,-5.96,-33.66,21.5,-2.98,0.34
2731,51.68258,-2.401143,90,25.72,10.0,16.4,Dec-22,273141,2019-08-31 09:54:53:220,0.6646,0.1036,8.4931,-0.0021,0.0046,9.8066,0.0288,0.0021,-0.0288,13.34,-5.96,-33.66,22.74,-3.03,0.33
2732,51.68258,-2.401143,90,25.72,10.0,16.4,Dec-22,273241,2019-08-31 09:54:53:320,0.4009,-0.4977,8.9368,-0.0077,0.0084,9.8066,0.0032,0.0394,-0.0032,13.34,-5.96,-33.66,22.74,-3.03,0.33
2733,51.68258,-2.401143,90,25.72,10.0,16.4,Dec-22,273341,2019-08-31 09:54:53:420,1.2396,-0.2405,7.5859,0.0116,-0.0064,9.8066,0.049,0.0319,-0.0021,14.09,-5.59,-33.29,21.38,-3.0,0.26
2734,51.68258,-2.401143,90,25.72,10.0,16.4,Dec-22,273441,2019-08-31 09:54:53:520,0.0956,-0.1704,10.7513,-0.0022,-0.0235,9.8066,0.016,-0.0331,-0.0032,14.09,-5.96,-33.66,21.61,-2.94,0.39
2735,51.68258,-2.401143,90,25.72,10.0,16.4,Dec-22,273540,2019-08-31 09:54:53:619,0.0051,0.2228,9.8552,-0.0003,-0.0112,9.8066,-0.0149,-0.0033,-0.0075,14.09,-5.59,-33.22,21.78,-2.92,0.45
2736,51.68258,-2.401143,90,25.72,10.0,16.4,Dec-22,273641,2019-08-31 09:54:53:720,0.1734,-0.1478,9.2323,0.0174,0.0163,9.8066,0.0288,0.0415,-0.0256,14.09,-5.59,-33.22,21.78,-2.92,0.45
2737,51.68258,-2.401143,90,25.72,10.0,16.4,Dec-22,273741,2019-08-31 09:54:53:820,-0.2458,0.092,9.6753,0.0126,0.0296,9.8066,0.0288,0.0415,-0.0256,13.34,-5.96,-33.22,22.75,-3.05,0.31
2738,51.68258,-2.401143,90,25.72,10.0,16.4,Dec-22,273841,2019-08-31 09:54:53:920,-0.2389,-0.0721,9.2865,-0.0061,-0.0002,9.8066,0.0128,-0.0459,-0.0149,13.72,-6.34,-32.79,22.75,-3.05,0.31
2739,51.68258,-2.401143,90,25.72,10.0,16.4,Dec-22,273941,2019-08-31 09:54:54:020,0.2214,-0.2714,9.8677,0.0108,0.0018,9.8066,-0.0202,-0.0107,0.0096,13.72,-5.96,-33.66,21.4,-3.02,0.3
2740,51.68258,-2.401143,90,25.72,10.0,16.4,Dec-22,274041,2019-08-31 09:54:54:120,0.1349,-0.2293,10.0512,-0.0046,0.0072,9.8066,-0.0064,0.0021,-0.0139,14.09,-5.96,-33.66,21.38,-3.08,0.31
2741,51.682796,-2.401049,90,25.37,10.0,16.5,Dec-22,274141,2019-08-31 09:54:54:220,-0.2176,0.2867,9.4392,-0.0176,-0.0071,9.8066,-0.0234,-0.0256,0.0149,14.09,-5.96,-33.66,21.38,-3.08,0.31
2742,51.682796,-2.401049,90,25.37,10.0,16.5,Dec-22,274240,2019-08-31 09:54:54:319,0.282,-0.0918,9.41,0.0051,-0.008,9.8066,0.0235,0.0212,-0.0181,14.09,-5.59,-33.22,21.51,-2.97,0.32
2743,51.682796,-2.401049,90,25.37,10.0,16.5,Dec-22,274341,2019-08-31 09:54:54:420,0.0951,0.2735,9.3453,0.0078,-0.0034,9.8066,0.0053,0.0553,-0.0181,13.72,-5.59,-33.66,21.5,-3.0,0.35
2744,51.682796,-2.401049,90,25.37,10.0,16.5,Dec-22,274441,2019-08-31 09:54:54:520,-0.013,0.0924,9.299,0.0096,-0.001,9.8066,0.0053,0.0553,-0.0181,13.72,-5.59,-33.66,21.5,-3.0,0.35
2745,51.682796,-2.401049,90,25.37,10.0,16.5,Dec-22,274541,2019-08-31 09:54:54:620,0.0317,-0.2074,9.5376,0.0097,-0.0001,9.8066,0.0139,0.017,-0.0107,13.34,-5.59,-33.22,22.87,-3.05,0.38
2746,51.682796,-2.401049,90,25.37,10.0,16.5,Dec-22,274641,2019-08-31 09:54:54:720,0.2391,-0.0995,10.6728,0.0118,0.0003,9.8066,-0.0032,-0.0246,0.0181,13.72,-5.59,-33.22,21.56,-3.12,0.4
2747,51.682796,-2.401049,90,25.37,10.0,16.5,Dec-22,274740,2019-08-31 09:54:54:819,0.0665,-0.1668,9.5081,0.0068,-0.009,9.8066,0.0171,-0.0086,0.0,13.72,-5.21,-33.22,21.56,-3.12,0.4
2748,51.682796,-2.401049,90,25.37,10.0,16.5,Dec-22,274841,2019-08-31 09:54:54:920,0.1111,-0.0213,9.7934,0.0083,-0.025,9.8066,0.0085,-0.0139,0.0,13.72,-5.21,-32.79,18.65,-3.11,0.56
2749,51.682796,-2.401049,90,25.37,10.0,16.5,Dec-22,274941,2019-08-31 09:54:55:020,0.2393,-0.2469,9.2793,0.0114,-0.0199,9.8066,-0.0074,-0.0235,0.0021,13.72,-5.21,-32.79,18.65,-3.11,0.56
2750,51.682796,-2.401049,90,25.37,10.0,16.5,Dec-22,275041,2019-08-31 09:54:55:120,-0.3333,-0.1672,9.466,-0.0086,0.0043,9.8066,-0.017,0.0042,0.0053,13.72,-5.59,-32.79,22.06,-3.13,0.69
2751,51.68301,-2.40095,90,26.28,10.0,16.4,13 / 22,275141,2019-08-31 09:54:55:220,-0.6147,0.0613,10.6382,-0.0203,0.0099,9.8066,-0.0021,-0.0192,-0.0032,13.72,-5.59,-32.79,22.06,-3.13,0.69
2752,51.68301,-2.40095,90,26.28,10.0,16.4,13 / 22,275241,2019-08-31 09:54:55:320,-0.1581,0.0147,9.9848,0.0166,0.0044,9.8066,0.0384,0.0756,-0.0171,13.72,-5.21,-33.6,18.72,-3.05,0.59
2753,51.68301,-2.40095,90,26.28,10.0,16.4,13 / 22,275340,2019-08-31 09:54:55:419,-0.4622,0.3277,10.1293,0.0417,0.0112,9.8066,0.0384,0.0756,-0.0171,13.72,-5.59,-32.79,18.72,-3.05,0.59
2754,51.68301,-2.40095,90,26.28,10.0,16.4,13 / 22,275441,2019-08-31 09:54:55:520,-0.2312,0.2295,10.0408,0.0565,0.0066,9.8065,-0.001,-0.0863,-0.0011,13.72,-5.59,-32.41,21.88,-3.37,0.66
2755,51.68301,-2.40095,90,26.28,10.0,16.4,13 / 22,275541,2019-08-31 09:54:55:620,0.6559,-0.4513,9.8085,-0.0288,0.0086,9.8066,-0.0202,-0.0469,0.0266,13.72,-5.59,-32.41,21.88,-3.37,0.66
2756,51.68301,-2.40095,90,26.28,10.0,16.4,13 / 22,275641,2019-08-31 09:54:55:720,0.295,0.2442,9.3351,-0.0222,-0.0025,9.8066,-0.016,-0.0512,0.0021,13.72,-5.59,-33.6,21.7,-3.23,0.55
2757,51.68301,-2.40095,90,26.28,10.0,16.4,13 / 22,275741,2019-08-31 09:54:55:820,-0.0921,0.1611,9.1404,-0.0364,0.0062,9.8066,0.0021,-0.0064,-0.0085,13.72,-5.59,-33.16,21.67,-3.05,0.44
2758,51.68301,-2.40095,90,26.28,10.0,16.4,13 / 22,275842,2019-08-31 09:54:55:921,-0.4835,0.0344,9.7426,-0.0041,-0.0101,9.8066,0.0245,0.0351,-0.0117,13.72,-5.59,-33.16,21.67,-3.05,0.44
2759,51.68301,-2.40095,90,26.28,10.0,16.4,13 / 22,275941,2019-08-31 09:54:56:020,0.1563,0.108,9.1455,0.0165,-0.0096,9.8066,0.0245,0.0351,-0.0117,13.34,-5.96,-32.79,23.11,-3.01,0.48
2760,51.683235,-2.400862,90,26.15,10.0,16.0,13 / 22,276043,2019-08-31 09:54:56:122,-0.1733,-0.1606,10.2543,0.0238,0.0106,9.8066,0.0043,0.0202,0.016,10.78,-7.4,-30.79,30.04,-3.07,0.57
2761,51.683235,-2.400862,90,26.15,10.0,16.0,13 / 22,276141,2019-08-31 09:54:56:220,0.307,-0.2911,10.1905,0.0481,0.007,9.8065,0.0235,0.033,0.0074,11.61,-11.88,-24.99,30.04,-3.07,0.57
2762,51.683235,-2.400862,90,26.15,10.0,16.0,13 / 22,276241,2019-08-31 09:54:56:320,-0.2967,0.0662,10.2786,0.0411,-0.0001,9.8066,-0.0224,-0.0693,0.0021,11.61,-11.88,-24.99,30.04,-3.07,0.57
2763,51.683235,-2.400862,90,26.15,10.0,16.0,13 / 22,276341,2019-08-31 09:54:56:420,-0.3818,0.1914,9.1663,-0.0314,-0.0049,9.8066,-0.0042,-0.032,-0.0096,17.41,-7.02,-31.97,21.45,-3.28,0.69
2764,51.683235,-2.400862,90,26.15,10.0,16.0,13 / 22,276443,2019-08-31 09:54:56:522,0.4488,-0.0364,8.3901,-0.0255,0.0104,9.8066,-0.017,0.0489,-0.0139,14.84,-6.34,-32.79,20.83,-3.1,0.65
2765,51.683235,-2.400862,90,26.15,10.0,16.0,13 / 22,276541,2019-08-31 09:54:56:620,-0.1697,0.2948,10.3252,-0.0169,0.0233,9.8066,0.0043,0.0266,0.0043,14.09,-5.96,-33.22,21.76,-3.05,0.49
2766,51.683235,-2.400862,90,26.15,10.0,16.0,13 / 22,276641,2019-08-31 09:54:56:720,0.1824,0.0519,9.7038,0.0168,0.0033,9.8066,0.0032,0.0244,0.0,14.09,-5.96,-33.22,21.76,-3.05,0.49
2767,51.683235,-2.400862,90,26.15,10.0,16.0,13 / 22,276742,2019-08-31 09:54:56:821,-0.0466,0.2296,9.645,-0.0066,0.0172,9.8066,0.0032,0.0244,0.0,14.09,-5.96,-33.16,21.67,-3.17,0.48
2768,51.683235,-2.400862,90,26.15,10.0,16.0,13 / 22,276841,2019-08-31 09:54:56:920,0.1251,-0.0331,8.9977,-0.0048,0.0045,9.8066,0.0085,-0.0064,-0.0107,14.09,-5.96,-33.22,21.47,-3.17,0.38
2769,51.683235,-2.400862,90,26.15,10.0,16.0,13 / 22,276940,2019-08-31 09:54:57:019,0.3323,-0.2325,8.6729,-0.0045,-0.015,9.8066,0.0043,0.0117,0.0149,13.72,-5.59,-33.6,21.6,-3.12,0.45
2770,51.683235,-2.400862,90,26.15,10.0,16.0,13 / 22,277041,2019-08-31 09:54:57:120,0.2884,-0.0064,8.8492,0.0017,-0.0075,9.8066,0.0032,-0.0405,0.0096,13.72,-5.59,-33.6,21.6,-3.12,0.45
2771,51.683235,-2.400862,90,26.15,10.0,16.0,13 / 22,277141,2019-08-31 09:54:57:220,-0.5828,-0.0913,9.913,-0.0165,-0.0048,9.8066,-0.0383,-0.0523,0.016,13.72,-5.59,-33.22,21.73,-3.11,0.49
2772,51.683464,-2.400755,90,25.96,10.0,15.9,13 / 22,277241,2019-08-31 09:54:57:320,0.367,-0.276,9.7738,-0.0042,0.0009,9.8066,0.0192,0.0596,-0.0085,13.72,-5.59,-33.16,21.78,-3.01,0.48
2773,51.683464,-2.400755,90,25.96,10.0,15.9,13 / 22,277344,2019-08-31 09:54:57:423,-0.0512,0.0169,9.6194,-0.0038,0.005,9.8066,0.0149,-0.0075,-0.0064,13.72,-5.21,-33.6,18.48,-3.0,0.45
2774,51.683464,-2.400755,90,25.96,10.0,15.9,13 / 22,277441,2019-08-31 09:54:57:520,0.383,-0.0283,9.3615,0.0158,0.0022,9.8066,-0.0053,-0.0022,-0.0149,13.72,-5.21,-33.6,18.48,-3.0,0.45
2775,51.683464,-2.400755,90,25.96,10.0,15.9,13 / 22,277541,2019-08-31 09:54:57:620,-0.2065,0.4579,10.0978,0.0158,0.0106,9.8066,-0.0053,-0.0022,-0.0149,14.09,-5.59,-33.22,21.59,-3.11,0.42
