,GPS LATITUDE (degrees),GPS LONGITUDE (degrees), GPS ALTITUDE (m),GPS SPEED (Kmh),GPS ACCURACY (m),GPS ORIENTATION (Â°), SATELLITES IN RANGE, TIME SINCE START (ms), DATE (YYYY-MO-DD HH-MI-SS_SSS),ACCELEROMETER X (m/s²) , ACCELEROMETER Y (m/s²), ACCELEROMETER Z (m/s²), GRAVITY X (m/s²), GRAVITY Y (m/s²), GRAVITY Z (m/s²), GYROSCOPE Yaw (rad/s), GYROSCOPE Pitch (rad/s), GYROSCOPE Roll (rad/s)
37446,45.962944,-0.546107,62.55,3.55,10.72,185.4,Nov-15,3744546,2019-08-18 23:22:14:079,-0.607,-0.3002,10.0857,-0.7929,-0.2467,9.7714,0.0039,-0.0307,-0.0341
37447,45.962944,-0.546107,62.55,3.55,10.72,185.4,Nov-15,3744646,2019-08-18 23:22:14:179,-0.54,-0.3984,9.8128,-0.7598,-0.2609,9.7737,-0.0174,-0.0296,-0.0373
37448,45.962944,-0.546107,62.55,3.55,10.72,185.4,Nov-15,3744746,2019-08-18 23:22:14:279,-0.44,-0.3391,9.7385,-0.7391,-0.2629,9.7752,0.006,-0.0105,-0.0309
37449,45.962944,-0.546107,62.55,3.55,10.72,185.4,Nov-15,3744845,2019-08-18 23:22:14:378,-0.5729,-0.4367,9.7457,-0.7401,-0.2685,9.775,-0.0004,0.0162,-0.0319
37450,45.962944,-0.546107,62.55,3.55,10.72,185.4,Nov-15,3744945,2019-08-18 23:22:14:478,-0.7256,-0.4433,9.4291,-0.7468,-0.277,9.7742,-0.0036,0.0066,-0.033
37451,45.962944,-0.546107,62.55,3.55,10.72,185.4,Nov-15,3745045,2019-08-18 23:22:14:578,-0.6328,-0.2009,9.547,-0.7209,-0.2951,9.7757,-0.027,-0.0094,-0.0319
37452,45.962944,-0.546107,62.55,3.55,10.72,185.4,Nov-15,3745145,2019-08-18 23:22:14:678,-0.5963,-0.3146,9.9504,-0.6918,-0.2896,9.7779,0.0028,-0.0201,-0.0319
37453,45.962944,-0.546107,62.55,3.55,10.72,185.4,Nov-15,3745245,2019-08-18 23:22:14:778,-0.7172,-0.5055,9.9774,-0.6742,-0.3106,9.7785,-0.0249,-0.0222,-0.0383
37454,45.962944,-0.546107,62.55,3.55,10.72,185.4,Nov-15,3745346,2019-08-18 23:22:14:879,-0.8908,-0.572,10.0085,-0.6981,-0.3671,9.7749,-0.0046,0.0002,-0.0405
37455,45.962944,-0.546107,62.55,3.55,10.72,185.4,Nov-15,3745445,2019-08-18 23:22:14:978,-1.1942,-0.5804,9.7757,-0.7222,-0.4055,9.7716,-0.0132,0.0055,-0.0479
37456,45.962944,-0.546107,62.55,3.55,10.72,185.4,Nov-15,3745546,2019-08-18 23:22:15:079,-1.1757,-0.903,9.5602,-0.7446,-0.4244,9.7691,0.0007,0.0013,-0.0533
37457,45.962944,-0.546107,62.55,3.55,10.72,185.4,Nov-15,3745646,2019-08-18 23:22:15:179,-1.1781,-0.6941,10.2886,-0.753,-0.4343,9.768,0.0039,-0.0083,-0.0575
37458,45.962944,-0.546107,62.55,3.55,10.72,185.4,Nov-15,3745746,2019-08-18 23:22:15:279,-1.3044,-0.888,9.7308,-0.7506,-0.4555,9.7673,0.0049,-0.0232,-0.0607
37459,45.962944,-0.546107,62.55,3.55,10.72,185.4,Nov-15,3745846,2019-08-18 23:22:15:379,-1.4965,-0.8545,9.4105,-0.7665,-0.4675,9.7655,0.0092,0.0055,-0.0639
37460,45.962944,-0.546107,62.55,3.55,10.72,185.4,Nov-15,3745945,2019-08-18 23:22:15:478,-1.4642,-0.985,10.0641,-0.8198,-0.4865,9.7602,0.0092,0.0226,-0.0692
37461,45.962944,-0.546107,62.55,3.55,10.72,185.4,Nov-15,3746045,2019-08-18 23:22:15:578,-1.5575,-0.9586,9.3094,-0.8435,-0.4979,9.7576,0.0124,-0.0041,-0.0682
37462,45.962944,-0.546107,62.55,3.55,10.72,185.4,Nov-15,3746145,2019-08-18 23:22:15:678,-1.5827,-0.8335,9.2992,-0.8815,-0.5093,9.7537,0.0103,0.0076,-0.0671
37463,45.962944,-0.546107,62.55,3.55,10.72,185.4,Nov-15,3746245,2019-08-18 23:22:15:778,-1.9089,-0.9263,9.632,-0.9235,-0.5159,9.7494,0.0113,0.0226,-0.0671
37464,45.962944,-0.546107,62.55,3.55,10.72,185.4,Nov-15,3746346,2019-08-18 23:22:15:879,-2.1627,-0.8228,9.9253,-0.9779,-0.5257,9.7436,0.0113,-0.0051,-0.0671
37465,45.962944,-0.546107,62.55,3.55,10.72,185.4,Nov-15,3746446,2019-08-18 23:22:15:979,-2.1627,-0.8365,9.8038,-0.9985,-0.5375,9.7409,-0.0004,-0.0158,-0.0671
37466,45.962944,-0.546107,62.55,3.55,10.72,185.4,Nov-15,3746545,2019-08-18 23:22:16:078,-2.2225,-0.7641,9.7314,-1.0466,-0.5558,9.7348,0.0007,0.0013,-0.0639
37467,45.962944,-0.546107,62.55,3.55,10.72,185.4,Nov-15,3746646,2019-08-18 23:22:16:179,-2.2477,-0.812,9.6541,-1.0883,-0.5701,9.7294,0.0007,0.013,-0.0671
37468,45.962944,-0.546107,62.55,3.55,10.72,185.4,Nov-15,3746746,2019-08-18 23:22:16:279,-2.2644,-1.0502,9.5997,-1.1584,-0.5785,9.7208,0.0156,0.0119,-0.0714
37469,45.962944,-0.546107,62.55,3.55,10.72,185.4,Nov-15,3746846,2019-08-18 23:22:16:379,-2.4709,-1.0107,9.9744,-1.2037,-0.5954,9.7143,0.0049,0.0087,-0.0767
37470,45.962944,-0.546107,62.55,3.55,10.72,185.4,Nov-15,3746945,2019-08-18 23:22:16:478,-2.4057,-0.9874,9.6033,-1.2604,-0.6147,9.7059,0.0103,-0.0041,-0.0777
37471,45.962944,-0.546107,62.55,3.55,10.72,185.4,Nov-15,3747046,2019-08-18 23:22:16:579,-2.3901,-1.1298,9.4698,-1.3003,-0.626,9.6999,0.0145,0.0066,-0.0788
37472,45.962944,-0.546107,62.55,3.55,10.72,185.4,Nov-15,3747146,2019-08-18 23:22:16:679,-2.4679,-1.049,9.6116,-1.4684,-0.6845,9.6719,0.0018,0.0076,-0.0873
37473,45.962944,-0.546107,62.55,3.55,10.72,185.4,Nov-15,3747246,2019-08-18 23:22:16:779,-2.4045,-1.1945,9.4219,-1.6001,-0.7173,9.6486,0.0156,0.0119,-0.0927
37474,45.962944,-0.546107,62.55,3.55,10.72,185.4,Nov-15,3747345,2019-08-18 23:22:16:878,-2.6319,-1.14,9.5835,-1.6435,-0.7587,9.6381,-0.0057,0.0066,-0.1054
37475,45.962944,-0.546107,62.55,3.55,10.72,185.4,Nov-15,3747446,2019-08-18 23:22:16:979,-1.8167,-1.3644,9.9636,-1.651,-0.8083,9.6328,-0.0014,-0.0115,-0.1193
37476,45.962944,-0.546107,62.55,3.55,10.72,185.4,Nov-15,3747545,2019-08-18 23:22:17:078,-1.2918,-1.565,9.7128,-1.6145,-0.8576,9.6347,-0.0164,-0.0307,-0.1353
37477,45.962944,-0.546107,62.55,3.55,10.72,185.4,Nov-15,3747645,2019-08-18 23:22:17:178,-0.9943,-1.8325,9.6344,-1.5601,-0.9459,9.6354,-0.0195,-0.0051,-0.1694
37478,45.962944,-0.546107,62.55,3.55,10.72,185.4,Nov-15,3747745,2019-08-18 23:22:17:278,-1.1721,-1.9289,9.7469,-1.5304,-1.0181,9.6328,-0.0174,-0.0041,-0.1875
37479,45.962944,-0.546107,62.55,3.55,10.72,185.4,Nov-15,3747845,2019-08-18 23:22:17:378,-0.9213,-2.1234,9.2693,-1.5065,-1.0659,9.6314,0.0177,0.0076,-0.1939
37480,45.962944,-0.546107,62.55,3.55,10.72,185.4,Nov-15,3747946,2019-08-18 23:22:17:479,-1.0356,-1.9834,9.4728,-1.4742,-1.1253,9.6297,0.0135,0.0045,-0.1928
37481,45.962944,-0.546107,62.55,3.55,10.72,185.4,Nov-15,3748045,2019-08-18 23:22:17:578,-1.1781,-1.7146,9.6254,-1.4414,-1.175,9.6287,0.0113,0.0055,-0.1896
37482,45.962944,-0.546107,62.55,3.55,10.72,185.4,Nov-15,3748146,2019-08-18 23:22:17:679,-0.6507,-1.8792,9.9235,-1.3915,-1.2122,9.6314,0.0039,-0.0201,-0.1875
37483,45.962944,-0.546107,62.55,3.55,10.72,185.4,Nov-15,3748245,2019-08-18 23:22:17:778,-0.6645,-1.8798,10.0211,-1.301,-1.2591,9.6381,0.0113,-0.0179,-0.1971
37484,45.962944,-0.546107,62.55,3.55,10.72,185.4,Nov-15,3748345,2019-08-18 23:22:17:878,-0.4945,-1.9199,9.4518,-1.2439,-1.2979,9.6405,0.0028,-0.0105,-0.2045
37485,45.962944,-0.546107,62.55,3.55,10.72,185.4,Oct-15,3748446,2019-08-18 23:22:17:979,-0.5017,-1.9618,9.6673,-1.1903,-1.3361,9.642,0.0124,-0.0094,-0.2109
37486,45.962944,-0.546107,62.55,3.55,10.72,185.4,Oct-15,3748545,2019-08-18 23:22:18:078,-0.5406,-2.2784,9.7409,-1.1293,-1.3739,9.644,0.0156,0.0076,-0.2152
37487,45.962944,-0.546107,62.55,3.55,10.72,185.4,Oct-15,3748645,2019-08-18 23:22:18:178,-0.9692,-1.8756,9.4644,-1.1024,-1.4237,9.6399,0.006,0.0183,-0.2173
37488,45.962944,-0.546107,62.55,3.55,10.72,185.4,Oct-15,3748745,2019-08-18 23:22:18:278,-1.2643,-1.9444,9.5135,-1.0961,-1.4628,9.6348,-0.0174,0.0172,-0.212
37489,45.962944,-0.546107,62.55,3.55,10.72,185.4,Oct-15,3748845,2019-08-18 23:22:18:378,-0.9656,-2.0091,10.0037,-1.0294,-1.4833,9.639,0.0497,-0.0435,-0.212
37490,45.962944,-0.546107,62.55,3.55,10.72,185.4,Oct-15,3748945,2019-08-18 23:22:18:478,0.2872,-2.115,9.96,-0.9289,-1.4622,9.6524,0.0827,-0.069,-0.2152
37491,45.962944,-0.546107,62.55,3.55,10.72,185.4,Oct-15,3749046,2019-08-18 23:22:18:579,-0.4837,-1.8624,9.4393,-0.8315,-1.4537,9.6626,0.0124,-0.0446,-0.2365
37492,45.962944,-0.546107,62.55,3.55,10.72,185.4,Oct-15,3749146,2019-08-18 23:22:18:679,0.1465,-1.6128,9.8421,-0.7314,-1.507,9.6625,-0.0281,-0.0051,-0.245
37493,45.962944,-0.546107,62.55,3.55,10.72,185.4,Oct-15,3749245,2019-08-18 23:22:18:778,-0.4784,-2.549,9.3944,-0.6861,-1.5904,9.6525,-0.0025,0.0322,-0.2439
37494,45.962944,-0.546107,62.55,3.55,10.72,185.4,Oct-15,3749346,2019-08-18 23:22:18:879,0.2291,-2.4748,8.4247,-0.6792,-1.6101,9.6497,0.0326,0.0694,-0.2461
37495,45.961533,-0.546307,62.22,8.88,8.576,208.2,0 / 15,3749445,2019-08-18 23:22:18:978,0.1202,-2.382,10.5807,-0.6548,-1.5656,9.6587,0.1019,0.0289,-0.2567
37496,45.961533,-0.546307,62.22,8.88,8.576,208.2,0 / 15,3749546,2019-08-18 23:22:19:079,-0.1462,-1.8894,10.4215,-0.5932,-1.5453,9.666,0.039,-0.035,-0.2663
37497,45.961533,-0.546307,62.22,8.88,8.576,208.2,0 / 15,3749645,2019-08-18 23:22:19:178,0.216,-1.4883,9.9863,-0.4085,-1.5748,9.6708,0.0018,-0.1181,-0.2631
37498,45.961533,-0.546307,62.22,8.88,8.576,208.2,0 / 15,3749746,2019-08-18 23:22:19:279,0.1986,-2.7088,9.556,-0.3006,-1.5707,9.6754,0.0497,-0.0701,-0.2429
37499,45.961533,-0.546307,62.22,8.88,8.576,208.2,0 / 15,3749845,2019-08-18 23:22:19:378,0.4536,-2.3562,9.8505,-0.2372,-1.5626,9.6785,0.0209,0.0364,-0.2556
37500,45.961533,-0.546307,62.22,8.88,8.576,208.2,0 / 15,3749946,2019-08-18 23:22:19:479,0.3004,-1.8241,10.109,-0.2215,-1.5608,9.6791,0.0263,0.0449,-0.2663
37501,45.961533,-0.546307,62.22,8.88,8.576,208.2,0 / 15,3750046,2019-08-18 23:22:19:579,0.1699,-2.282,9.2298,-0.1877,-1.5587,9.6802,0.0305,0.0194,-0.261
37502,45.961533,-0.546307,62.22,8.88,8.576,208.2,0 / 15,3750146,2019-08-18 23:22:19:679,0.2507,-2.0085,9.3028,-0.1578,-1.5764,9.6778,0.0018,0.0194,-0.2652
37503,45.961533,-0.546307,62.22,8.88,8.576,208.2,0 / 15,3750246,2019-08-18 23:22:19:779,0.0981,-2.0971,9.8421,-0.1174,-1.5932,9.6757,0.0103,0.0172,-0.2567
37504,45.961533,-0.546307,62.22,8.88,8.576,208.2,0 / 15,3750345,2019-08-18 23:22:19:878,0.1046,-1.9187,10.1671,-0.0851,-1.5797,9.6782,0.0454,0.0034,-0.2429
37505,45.961533,-0.546307,62.22,8.88,8.576,208.2,0 / 15,3750446,2019-08-18 23:22:19:979,0.0843,-1.6925,9.8894,-0.009,-1.5299,9.6866,0.055,-0.0275,-0.228
37506,45.961533,-0.546307,62.22,8.88,8.576,208.2,0 / 15,3750546,2019-08-18 23:22:20:079,0.2207,-1.0233,9.544,0.0314,-1.5003,9.6912,0.0273,-0.0083,-0.2088
37507,45.961533,-0.546307,62.22,8.88,8.576,208.2,0 / 15,3750646,2019-08-18 23:22:20:179,0.2004,-0.5486,9.6745,0.053,-1.4456,9.6994,0.0081,0.0236,-0.1608
37508,45.961533,-0.546307,62.22,8.88,8.576,208.2,0 / 15,3750746,2019-08-18 23:22:20:279,0.1495,-0.2918,9.7679,0.047,-1.4088,9.7048,0.0039,0.0322,-0.1299
37509,45.961533,-0.546307,62.22,8.88,8.576,208.2,0 / 15,3750845,2019-08-18 23:22:20:378,-0.0719,0.2151,9.6182,0.0364,-1.3203,9.7173,0.0273,0.0204,-0.0809
37510,45.961533,-0.546307,62.22,8.88,8.576,208.2,0 / 15,3750945,2019-08-18 23:22:20:478,0.034,0.6826,9.5913,0.0339,-1.2428,9.7275,0.0337,0.0034,-0.0437
37511,45.961533,-0.546307,62.22,8.88,8.576,208.2,0 / 15,3751046,2019-08-18 23:22:20:579,-0.039,0.9957,9.6176,0.0383,-1.1179,9.7427,0.0071,-0.0009,0.0064
37512,45.961533,-0.546307,62.22,8.88,8.576,208.2,0 / 15,3751145,2019-08-18 23:22:20:678,-0.1234,1.2806,9.3118,0.0204,-1.0544,9.7498,-0.0249,0.0226,0.0341
37513,45.961533,-0.546307,62.22,8.88,8.576,208.2,0 / 15,3751245,2019-08-18 23:22:20:778,-0.1611,1.2291,10.3317,-0.0266,-0.9266,9.7627,0.0231,0.0279,0.0735
37514,45.961533,-0.546307,62.22,8.88,8.576,208.2,0 / 15,3751346,2019-08-18 23:22:20:879,-0.3102,1.8306,9.7978,-0.0521,-0.7982,9.774,0.0092,-0.0126,0.1055
37515,45.961533,-0.546307,62.22,8.88,8.576,208.2,0 / 15,3751445,2019-08-18 23:22:20:978,-0.3293,2.164,10.042,-0.0513,-0.6884,9.7823,0.0156,-0.0201,0.1332
37516,45.961533,-0.546307,62.22,8.88,8.576,208.2,0 / 15,3751546,2019-08-18 23:22:21:079,-0.2341,2.6207,9.8032,-0.0639,-0.5862,9.7889,0.0071,-0.0041,0.1641
37517,45.961533,-0.546307,62.22,8.88,8.576,208.2,0 / 15,3751646,2019-08-18 23:22:21:179,-0.2832,2.9786,9.6583,-0.1163,-0.3892,9.7982,0.0241,0.0364,0.2088
37518,45.961533,-0.546307,62.22,8.88,8.576,208.2,0 / 15,3751745,2019-08-18 23:22:21:278,-0.6537,3.4641,9.4075,-0.2052,-0.198,9.8025,0.0167,0.0598,0.2536
37519,45.961533,-0.546307,62.22,8.88,8.576,208.2,0 / 15,3751845,2019-08-18 23:22:21:378,-0.6926,3.4623,8.8898,-0.2642,-0.0752,9.8028,-0.0195,0.046,0.2749
37520,45.961533,-0.546307,62.22,8.88,8.576,208.2,0 / 15,3751946,2019-08-18 23:22:21:479,-0.5574,3.6945,9.6458,-0.3055,0.0629,9.8017,-0.0345,0.0013,0.2749
37521,45.961533,-0.546307,62.22,8.88,8.576,208.2,0 / 15,3752045,2019-08-18 23:22:21:578,-0.6723,3.3228,9.623,-0.3024,0.1641,9.8006,-0.01,-0.0243,0.2855
37522,45.961533,-0.546307,62.22,8.88,8.576,208.2,0 / 15,3752145,2019-08-18 23:22:21:678,-0.5825,3.4545,9.5189,-0.3008,0.2485,9.7989,-0.0419,-0.0126,0.2791
37523,45.961533,-0.546307,62.22,8.88,8.576,208.2,0 / 15,3752246,2019-08-18 23:22:21:779,-0.8746,3.5999,9.7128,-0.3231,0.399,9.7932,-0.011,0.0183,0.294
37524,45.961533,-0.546307,62.22,8.88,8.576,208.2,0 / 15,3752346,2019-08-18 23:22:21:879,-1.0649,3.6759,9.9821,-0.3707,0.5207,9.7858,-0.043,0.0226,0.3089
37525,45.961533,-0.546307,62.22,8.88,8.576,208.2,0 / 15,3752446,2019-08-18 23:22:21:979,-1.1308,3.5419,9.392,-0.3949,0.6003,9.7803,-0.043,0.0172,0.3121
37526,45.961533,-0.546307,62.22,8.88,8.576,208.2,0 / 15,3752545,2019-08-18 23:22:22:078,-1.0835,3.3665,9.4632,-0.4232,0.6916,9.7731,0.0092,0.0343,0.3089
37527,45.961533,-0.546307,62.22,8.88,8.576,208.2,0 / 15,3752645,2019-08-18 23:22:22:178,-1.0033,3.4138,9.8331,-0.4681,0.8401,9.7594,-0.0217,0.0343,0.3057
37528,45.961533,-0.546307,62.22,8.88,8.576,208.2,0 / 15,3752745,2019-08-18 23:22:22:278,-1.0661,3.5311,9.7906,-0.4873,0.9173,9.7515,-0.0334,0.0204,0.3068
37529,45.961533,-0.546307,62.22,8.88,8.576,208.2,0 / 15,3752845,2019-08-18 23:22:22:378,-1.1799,3.6137,9.8098,-0.4853,1.0426,9.739,-0.0259,-0.0083,0.3153
37530,45.961533,-0.546307,62.22,8.88,8.576,208.2,0 / 15,3752945,2019-08-18 23:22:22:478,-1.1038,3.4389,9.617,-0.6308,1.7662,9.6256,0.0028,0.0066,0.3089
37531,45.961533,-0.546307,62.22,8.88,8.576,208.2,0 / 15,3753046,2019-08-18 23:22:22:579,-1.2493,3.3617,9.5308,-0.6901,2.0993,9.5544,-0.0281,0.0108,0.31
37532,45.961533,-0.546307,62.22,8.88,8.576,208.2,0 / 15,3753145,2019-08-18 23:22:22:678,-1.2834,3.6005,9.7792,-0.7693,2.5196,9.4462,-0.0057,0.0215,0.3143
37533,45.961533,-0.546307,62.22,8.88,8.576,208.2,0 / 15,3753245,2019-08-18 23:22:22:778,-1.1296,3.4838,9.48,-0.7657,2.6435,9.4126,-0.0217,0.0226,0.3164
37534,45.961533,-0.546307,62.22,8.88,8.576,208.2,0 / 15,3753346,2019-08-18 23:22:22:879,-0.8932,3.4742,9.7475,-0.7024,2.6983,9.4019,0.0081,0.014,0.3164
37535,45.961533,-0.546307,62.22,8.88,8.576,208.2,0 / 15,3753445,2019-08-18 23:22:22:978,-1.2517,3.667,9.6122,-0.6502,2.7266,9.3975,-0.027,0.0055,0.3164
37536,45.961533,-0.546307,62.22,8.88,8.576,208.2,0 / 15,3753545,2019-08-18 23:22:23:078,-1.0218,3.7023,9.6685,-0.5744,2.7632,9.3918,-0.0217,0.0045,0.3153
37537,45.961533,-0.546307,62.22,8.88,8.576,208.2,0 / 15,3753646,2019-08-18 23:22:23:179,-1.0272,3.5538,9.6206,-0.5992,2.9159,9.3439,-0.01,0.0098,0.3185
37538,45.961533,-0.546307,62.22,8.88,8.576,208.2,0 / 15,3753746,2019-08-18 23:22:23:279,-0.9057,3.7741,9.547,-0.6111,3.0638,9.2957,-0.0206,0.0151,0.3143
37539,45.961533,-0.546307,62.22,8.88,8.576,208.2,0 / 15,3753845,2019-08-18 23:22:23:378,-0.8489,3.4563,9.4201,-0.6139,3.1537,9.2654,-0.0185,0.0162,0.3153
37540,45.961533,-0.546307,62.22,8.88,8.576,208.2,0 / 15,3753945,2019-08-18 23:22:23:478,-0.877,3.5886,9.7337,-0.5777,3.2259,9.2428,0.0018,0.0172,0.3121
37541,45.961533,-0.546307,62.22,8.88,8.576,208.2,0 / 15,3754046,2019-08-18 23:22:23:579,-0.9033,3.8633,9.696,-0.5461,3.2439,9.2385,-0.0291,0.0215,0.3068
37542,45.961533,-0.546307,62.22,8.88,8.576,208.2,0 / 15,3754146,2019-08-18 23:22:23:679,-0.8878,3.743,9.9965,-0.4581,3.2408,9.2443,-0.0228,0.0087,0.3036
37543,45.961533,-0.546307,62.22,8.88,8.576,208.2,0 / 15,3754245,2019-08-18 23:22:23:778,-0.8201,3.2043,9.5608,-0.4012,3.2437,9.246,-0.0046,0.0119,0.3004
37544,45.961533,-0.546307,62.22,8.88,8.576,208.2,0 / 15,3754345,2019-08-18 23:22:23:878,-0.6902,3.4725,8.7575,-0.333,3.2457,9.248,-0.0206,0.0375,0.2919
37545,45.961533,-0.546307,62.22,8.88,8.576,208.2,0 / 15,3754445,2019-08-18 23:22:23:978,-0.7537,3.6185,8.973,-0.3102,3.2407,9.2505,-0.0334,0.0567,0.294
37546,45.961533,-0.546307,62.22,8.88,8.576,208.2,0 / 15,3754546,2019-08-18 23:22:24:079,-0.7728,3.4784,9.7954,-0.2704,3.2365,9.2532,-0.0238,0.0322,0.3015
37547,45.961533,-0.546307,62.22,8.88,8.576,208.2,0 / 15,3754646,2019-08-18 23:22:24:179,-0.7316,3.6305,9.6182,-0.2133,3.2286,9.2575,-0.0228,-0.0019,0.3089
37548,45.961533,-0.546307,62.22,8.88,8.576,208.2,0 / 15,3754745,2019-08-18 23:22:24:278,-0.5831,3.7538,9.4052,-0.1652,3.2739,9.2425,-0.0164,-0.0041,0.3089
37549,45.961533,-0.546307,62.22,8.88,8.576,208.2,0 / 15,3754846,2019-08-18 23:22:24:379,-0.7549,4.22,9.483,-0.1097,3.2756,9.2428,-0.027,0.0108,0.3121
37550,45.961533,-0.546307,62.22,8.88,8.576,208.2,0 / 15,3754945,2019-08-18 23:22:24:478,-0.7633,4.0608,9.5195,-0.0322,3.2699,9.2454,-0.0228,0.0204,0.3324
37551,45.961533,-0.546307,62.22,8.88,8.576,208.2,0 / 15,3755046,2019-08-18 23:22:24:579,-0.522,4.0273,9.4267,0.0171,3.2849,9.2401,-0.0068,0.0268,0.3452
37552,45.961533,-0.546307,62.22,8.88,8.576,208.2,0 / 15,3755146,2019-08-18 23:22:24:679,-0.7256,4.3523,9.5506,0.093,3.301,9.2339,-0.0164,0.0204,0.3494
37553,45.961533,-0.546307,62.22,8.88,8.576,208.2,0 / 15,3755245,2019-08-18 23:22:24:778,-0.6094,4.478,9.5135,0.1415,3.317,9.2276,-0.0089,0.0247,0.3548
37554,45.961533,-0.546307,62.22,8.88,8.576,208.2,0 / 15,3755345,2019-08-18 23:22:24:878,-0.7537,4.496,9.5961,0.2192,3.3412,9.2173,-0.0068,0.0215,0.3611
37555,45.961533,-0.546307,62.22,8.88,8.576,208.2,0 / 15,3755446,2019-08-18 23:22:24:979,-0.628,4.663,9.5452,0.2933,3.3465,9.2133,-0.0238,0.014,0.3665
37556,45.961533,-0.546307,62.22,8.88,8.576,208.2,0 / 15,3755545,2019-08-18 23:22:25:078,-0.7974,4.6612,9.5703,0.3475,3.36,9.2065,-0.01,0.0108,0.3771
37557,45.961533,-0.546307,62.22,8.88,8.576,208.2,0 / 15,3755645,2019-08-18 23:22:25:178,-0.7112,4.8371,9.644,0.4343,3.3692,9.1995,-0.0217,0.0066,0.3856
37558,45.961533,-0.546307,62.22,8.88,8.576,208.2,0 / 15,3755746,2019-08-18 23:22:25:279,-0.947,4.6648,9.4698,0.48,3.3781,9.1939,-0.0206,0.0215,0.3878
37559,45.961533,-0.546307,62.22,8.88,8.576,208.2,0 / 15,3755845,2019-08-18 23:22:25:378,-0.8686,4.8695,9.7068,0.5205,3.3932,9.1862,-0.0057,0.0279,0.3942
37560,45.961533,-0.546307,62.22,8.88,8.576,208.2,0 / 15,3755945,2019-08-18 23:22:25:478,-0.9428,4.6923,9.8253,0.5884,3.3986,9.1801,-0.0313,0.0076,0.3963
37561,45.961533,-0.546307,62.22,8.88,8.576,208.2,0 / 15,3756046,2019-08-18 23:22:25:579,-0.8285,4.8503,9.483,0.6708,3.4205,9.1663,0.0028,0.013,0.3942
37562,45.961533,-0.546307,62.22,8.88,8.576,208.2,0 / 15,3756146,2019-08-18 23:22:25:679,-0.6998,4.8389,9.7284,0.7106,3.4214,9.1629,-0.0259,0.0236,0.3888
37563,45.961533,-0.546307,62.22,8.88,8.576,208.2,0 / 15,3756245,2019-08-18 23:22:25:778,-0.8159,4.8826,9.6278,0.7546,3.4201,9.1599,-0.0281,0.0396,0.375
37564,45.961533,-0.546307,62.22,8.88,8.576,208.2,0 / 15,3756346,2019-08-18 23:22:25:879,-0.5256,4.3715,9.5973,0.7801,3.415,9.1597,-0.0121,0.0375,0.3643
37565,45.961533,-0.546307,62.22,8.88,8.576,208.2,0 / 15,3756446,2019-08-18 23:22:25:979,-0.7579,4.5576,9.5302,0.807,3.4152,9.1573,-0.0174,0.03,0.359
37566,45.961533,-0.546307,62.22,8.88,8.576,208.2,0 / 15,3756546,2019-08-18 23:22:26:079,-0.5957,4.5043,9.535,0.8577,3.3929,9.161,-0.0121,0.013,0.3494
37567,45.961533,-0.546307,62.22,8.88,8.576,208.2,0 / 15,3756645,2019-08-18 23:22:26:178,-0.3988,4.5457,9.5787,0.5447,3.5723,9.1166,-0.0291,0.0076,0.3398
37568,45.961533,-0.546307,62.22,8.88,8.576,208.2,0 / 15,3756745,2019-08-18 23:22:26:278,-0.6346,4.563,9.6206,0.4127,3.6752,9.0826,-0.01,0.0013,0.3377
37569,45.961533,-0.546307,62.22,8.88,8.576,208.2,0 / 15,3756846,2019-08-18 23:22:26:379,-0.4059,4.4553,9.4075,0.3902,3.7115,9.0688,-0.0132,0.0013,0.3377
37570,45.961533,-0.546307,62.22,8.88,8.576,208.2,0 / 15,3756946,2019-08-18 23:22:26:479,-0.4772,4.5594,9.6392,0.4092,3.7227,9.0634,-0.0345,0.013,0.3335
37571,45.961533,-0.546307,62.22,8.88,8.576,208.2,0 / 15,3757045,2019-08-18 23:22:26:578,-0.4413,4.3445,9.4901,0.4629,3.7186,9.0625,-0.0036,0.0268,0.3377
37572,45.961533,-0.546307,62.22,8.88,8.576,208.2,0 / 15,3757146,2019-08-18 23:22:26:679,-0.2054,4.8078,9.7517,0.5605,3.696,9.0662,-0.06,0.0002,0.3441
37573,45.961533,-0.546307,62.22,8.88,8.576,208.2,0 / 15,3757246,2019-08-18 23:22:26:779,-0.2126,4.7444,9.5572,0.6685,3.6621,9.0726,-0.027,-0.0094,0.3441
37574,45.961533,-0.546307,62.22,8.88,8.576,208.2,0 / 15,3757345,2019-08-18 23:22:26:878,-0.1073,5.0329,9.8445,0.7363,3.6277,9.0812,-0.0504,0.0013,0.343
37575,45.961533,-0.546307,62.22,8.88,8.576,208.2,14 / 15,3757445,2019-08-18 23:22:26:978,-0.4371,4.6959,9.7266,0.8379,3.6142,9.0778,-0.0142,-0.0009,0.3473
37576,45.961533,-0.546307,62.22,8.88,8.576,208.2,14 / 15,3757546,2019-08-18 23:22:27:079,-0.3844,4.8748,9.86,0.8926,3.6028,9.0771,-0.0121,0.0108,0.3462
37577,45.961533,-0.546307,62.22,8.88,8.576,208.2,14 / 15,3757645,2019-08-18 23:22:27:178,-0.2,4.5409,9.4883,0.9729,3.5844,9.0761,-0.0259,0.0119,0.3473
37578,45.961533,-0.546307,62.22,8.88,8.576,208.2,14 / 15,3757745,2019-08-18 23:22:27:278,-0.2755,4.4858,9.5578,1.0193,3.5795,9.073,0.0039,0.013,0.343
37579,45.961533,-0.546307,62.22,8.88,8.576,208.2,14 / 15,3757846,2019-08-18 23:22:27:379,-0.2072,4.3068,9.4686,1.0831,3.5531,9.0759,-0.0142,0.0162,0.3281
37580,45.961533,-0.546307,62.22,8.88,8.576,208.2,14 / 15,3757945,2019-08-18 23:22:27:478,-0.1569,4.4074,9.5961,0.8999,3.6593,9.0538,-0.01,0.0034,0.3207
37581,45.961533,-0.546307,62.22,8.88,8.576,208.2,14 / 15,3758045,2019-08-18 23:22:27:578,-0.0085,4.5008,9.3633,0.8677,3.6644,9.0548,-0.0334,0.0204,0.3026
37582,45.961533,-0.546307,62.22,8.88,8.576,208.2,14 / 15,3758145,2019-08-18 23:22:27:678,0.0095,4.3852,9.2417,0.9,3.6333,9.0642,-0.0259,0.0353,0.2972
37583,45.961533,-0.546307,62.22,8.88,8.576,208.2,14 / 15,3758245,2019-08-18 23:22:27:778,-0.1881,4.2697,9.2603,0.9568,3.5961,9.0732,-0.0302,-0.0019,0.2972
37584,45.961533,-0.546307,62.22,8.88,8.576,208.2,14 / 15,3758345,2019-08-18 23:22:27:878,-0.2575,4.4996,10.0079,1.013,3.5752,9.0753,-0.0014,-0.0222,0.2951
37585,45.96079,-0.546146,58.61,11.08,8.576,121.6,0 / 15,3758445,2019-08-18 23:22:27:978,-0.1953,4.2428,9.9534,0.9696,3.5777,9.0791,-0.0259,-0.0062,0.2813
37586,45.96079,-0.546146,58.61,11.08,8.576,121.6,0 / 15,3758545,2019-08-18 23:22:28:078,-0.625,3.8771,9.8253,0.7872,3.5995,9.0882,-0.0387,0.013,0.2706
37587,45.96079,-0.546146,58.61,11.08,8.576,121.6,0 / 15,3758645,2019-08-18 23:22:28:178,-0.8034,3.3575,9.6925,0.7894,3.5388,9.1117,-0.027,0.0311,0.2589
37588,45.96079,-0.546146,58.61,11.08,8.576,121.6,0 / 15,3758745,2019-08-18 23:22:28:278,-0.9153,3.3581,9.5889,0.786,3.5021,9.1262,-0.0185,0.0236,0.2472
37589,45.96079,-0.546146,58.61,11.08,8.576,121.6,0 / 15,3758845,2019-08-18 23:22:28:378,-0.8626,3.1361,9.2944,0.761,3.4682,9.1413,-0.0025,0.046,0.2258
37590,45.96079,-0.546146,58.61,11.08,8.576,121.6,0 / 15,3758945,2019-08-18 23:22:28:478,-1.1834,3.0714,9.6506,0.7382,3.4314,9.157,-0.0228,0.0364,0.2152
37591,45.96079,-0.546146,58.61,11.08,8.576,121.6,0 / 15,3759045,2019-08-18 23:22:28:578,-1.1206,3.0044,10.0929,0.7433,3.3439,9.1889,-0.0558,-0.0275,0.1939
37592,45.96079,-0.546146,58.61,11.08,8.576,121.6,0 / 15,3759145,2019-08-18 23:22:28:678,-0.692,2.179,9.8343,0.7593,3.217,9.2328,-0.0568,-0.0232,0.1332
37593,45.96079,-0.546146,58.61,11.08,8.576,121.6,0 / 15,3759245,2019-08-18 23:22:28:778,-0.5197,1.007,10.0941,0.7391,3.1272,9.2652,-0.043,0.0087,0.0927
37594,45.96079,-0.546146,58.61,11.08,8.576,121.6,0 / 15,3759345,2019-08-18 23:22:28:878,-0.8704,0.8496,9.4692,0.7052,2.987,9.314,-0.0195,-0.0041,0.0544
37595,45.96079,-0.546146,58.61,11.08,8.576,121.6,0 / 15,3759445,2019-08-18 23:22:28:978,-0.1671,0.3097,9.948,0.6889,2.9121,9.3389,0.0156,-0.0137,0.033
37596,45.96079,-0.546146,58.61,11.08,8.576,121.6,0 / 15,3759545,2019-08-18 23:22:29:078,0.2716,0.0439,9.7661,0.6725,2.8396,9.3624,0.0092,-0.0041,0.0064
37597,45.96079,-0.546146,58.61,11.08,8.576,121.6,0 / 15,3759645,2019-08-18 23:22:29:178,0.5727,0.0146,9.3148,0.6441,2.7096,9.4028,-0.0185,0.0268,-0.0277
37598,45.96079,-0.546146,58.61,11.08,8.576,121.6,0 / 15,3759745,2019-08-18 23:22:29:278,-0.6914,-0.3326,9.125,0.5778,2.5847,9.4422,0.0167,0.0513,-0.0511
37599,45.96079,-0.546146,58.61,11.08,8.576,121.6,0 / 15,3759845,2019-08-18 23:22:29:378,0.1148,-0.7635,9.793,0.5315,2.4753,9.4742,-0.0398,0.0098,-0.0724
37600,45.96079,-0.546146,58.61,11.08,8.576,121.6,0 / 15,3759945,2019-08-18 23:22:29:478,0.0202,-0.9478,9.9929,0.5008,2.2987,9.5203,-0.0281,-0.0147,-0.0927
37601,45.96079,-0.546146,58.61,11.08,8.576,121.6,0 / 15,3760045,2019-08-18 23:22:29:578,0.3465,-1.0544,9.9774,0.479,2.1876,9.5475,0.0071,-0.0083,-0.1086
37602,45.96079,-0.546146,58.61,11.08,8.576,121.6,0 / 15,3760145,2019-08-18 23:22:29:678,0.2758,-1.301,9.6296,0.4555,2.0832,9.572,-0.0121,-0.0019,-0.1161
37603,45.96079,-0.546146,58.61,11.08,8.576,121.6,0 / 15,3760245,2019-08-18 23:22:29:778,0.3638,-1.4219,9.5668,0.4155,1.8832,9.6152,-0.0462,0.0055,-0.1438
37604,45.96079,-0.546146,58.61,11.08,8.576,121.6,0 / 15,3760345,2019-08-18 23:22:29:878,0.3058,-2.3467,9.7769,0.3806,1.647,9.6599,-0.0504,0.0013,-0.1875
37605,45.96079,-0.546146,58.61,11.08,8.576,121.6,0 / 15,3760446,2019-08-18 23:22:29:979,0.2585,-2.8943,9.8858,0.3455,1.4843,9.6875,-0.0483,0.014,-0.2162
37606,45.96079,-0.546146,58.61,11.08,8.576,121.6,0 / 15,3760545,2019-08-18 23:22:30:078,0.3058,-2.9308,10.3443,0.3142,1.2235,9.7249,-0.0302,-0.0243,-0.2407
37607,45.96079,-0.546146,58.61,11.08,8.576,121.6,0 / 15,3760645,2019-08-18 23:22:30:178,0.5805,-3.3421,9.2292,0.3246,1.1046,9.7388,0.0337,-0.036,-0.2386
37608,45.96079,-0.546146,58.61,11.08,8.576,121.6,0 / 15,3760745,2019-08-18 23:22:30:278,0.6894,-3.0673,10.6513,0.3258,0.9715,9.753,-0.0068,-0.0094,-0.2407
37609,45.96079,-0.546146,58.61,11.08,8.576,121.6,0 / 15,3760845,2019-08-18 23:22:30:378,0.6954,-3.0691,11.2152,0.3493,0.7529,9.7715,-0.0195,-0.0605,-0.2535
37610,45.96079,-0.546146,58.61,11.08,8.576,121.6,0 / 15,3760945,2019-08-18 23:22:30:478,0.8492,-3.3522,10.1527,0.4245,0.571,9.7808,0.0049,-0.0531,-0.2514
37611,45.96079,-0.546146,58.61,11.08,8.576,121.6,0 / 15,3761045,2019-08-18 23:22:30:578,0.7457,-3.0697,9.8397,0.4258,0.4482,9.7871,-0.0153,0.0194,-0.2471
37612,45.96079,-0.546146,58.61,11.08,8.576,121.6,0 / 15,3761145,2019-08-18 23:22:30:678,0.6338,-3.4241,9.6559,0.3973,0.2926,9.7942,0.0273,0.0204,-0.2546
37613,45.96079,-0.546146,58.61,11.08,8.576,121.6,0 / 15,3761245,2019-08-18 23:22:30:778,0.8468,-3.4127,9.4925,0.4116,0.1944,9.7961,0.0049,-0.0169,-0.262
37614,45.96079,-0.546146,58.61,11.08,8.576,121.6,0 / 15,3761345,2019-08-18 23:22:30:878,0.9001,-3.3911,9.4494,0.4251,0.0366,9.7974,0.0081,0.014,-0.2567
37615,45.96079,-0.546146,58.61,11.08,8.576,121.6,0 / 15,3761445,2019-08-18 23:22:30:978,0.7636,-3.3929,9.8906,0.453,-0.3964,9.7882,-0.0057,0.0268,-0.2556
37616,45.96079,-0.546146,58.61,11.08,8.576,121.6,0 / 15,3761546,2019-08-18 23:22:31:079,0.8295,-3.5426,10.0564,0.5708,-1.2619,9.7083,0.0273,0.0215,-0.2599
37617,45.96079,-0.546146,58.61,11.08,8.576,121.6,0 / 15,3761645,2019-08-18 23:22:31:178,0.7307,-3.4151,9.8588,0.6295,-1.7078,9.6363,-0.0004,0.0183,-0.2652
37618,45.96079,-0.546146,58.61,11.08,8.576,121.6,0 / 15,3761746,2019-08-18 23:22:31:279,0.9061,-3.8903,9.6978,0.7012,-1.9085,9.5936,0.0348,0.0034,-0.2652
37619,45.96079,-0.546146,58.61,11.08,8.576,121.6,0 / 15,3761845,2019-08-18 23:22:31:378,0.8073,-3.7604,9.7278,0.7419,-1.9252,9.5872,0.0252,0.0045,-0.2642
37620,45.96079,-0.546146,58.61,11.08,8.576,121.6,0 / 15,3761945,2019-08-18 23:22:31:478,1.1958,-3.9622,10.0803,0.7954,-1.9387,9.5801,0.038,0.0002,-0.2631
37621,45.96079,-0.546146,58.61,11.08,8.576,121.6,0 / 15,3762045,2019-08-18 23:22:31:578,0.9911,-2.9452,9.1256,0.8418,-1.9437,9.5752,0.0263,-0.0169,-0.2578
37622,45.96079,-0.546146,58.61,11.08,8.576,121.6,0 / 15,3762145,2019-08-18 23:22:31:678,0.8863,-2.965,9.2405,0.8751,-1.9517,9.5706,0.0305,0.0385,-0.2248
37623,45.96079,-0.546146,58.61,11.08,8.576,121.6,0 / 15,3762245,2019-08-18 23:22:31:778,0.8606,-2.309,9.2262,0.8738,-1.9409,9.5729,0.0305,0.0396,-0.2066
37624,45.96079,-0.546146,58.61,11.08,8.576,121.6,0 / 15,3762345,2019-08-18 23:22:31:878,0.7211,-1.6823,9.9498,0.9085,-1.8909,9.5796,0.0294,-0.0073,-0.163
37625,45.96079,-0.546146,58.61,11.08,8.576,121.6,0 / 15,3762445,2019-08-18 23:22:31:978,0.6685,-1.3914,10.1312,0.9325,-1.842,9.5869,0.0337,-0.0169,-0.1182
37626,45.96079,-0.546146,58.61,11.08,8.576,121.6,0 / 15,3762545,2019-08-18 23:22:32:078,0.6954,-0.8533,10.1324,0.9528,-1.7386,9.6042,0.0401,-0.0126,-0.0777
37627,45.96079,-0.546146,58.61,11.08,8.576,121.6,0 / 15,3762645,2019-08-18 23:22:32:178,0.8445,-0.569,9.7374,0.9606,-1.6802,9.6138,0.0199,-0.0062,-0.0746
37628,45.96079,-0.546146,58.61,11.08,8.576,121.6,0 / 15,3762745,2019-08-18 23:22:32:278,0.6296,-0.5905,9.5117,0.9626,-1.6256,9.6229,-0.011,0.0119,-0.0735
37629,45.96079,-0.546146,58.61,11.08,8.576,121.6,0 / 15,3762845,2019-08-18 23:22:32:378,0.6086,-0.7497,9.4943,0.9599,-1.586,9.6298,0.0071,0.0066,-0.066
37630,45.96079,-0.546146,58.61,11.08,8.576,121.6,0 / 15,3762945,2019-08-18 23:22:32:478,0.6643,-0.4523,9.6398,0.9489,-1.5212,9.6414,-0.0004,0.014,-0.0554
37631,45.96079,-0.546146,58.61,11.08,8.576,121.6,0 / 15,3763045,2019-08-18 23:22:32:578,0.7169,-0.4109,9.7373,0.9409,-1.4814,9.6483,0.0071,0.0066,-0.0469
37632,45.96079,-0.546146,58.61,11.08,8.576,121.6,0 / 15,3763145,2019-08-18 23:22:32:678,0.8199,-0.3553,9.4494,0.9333,-1.3913,9.6625,0.0167,0.0119,-0.0394
37633,45.96079,-0.546146,58.61,11.08,8.576,121.6,0 / 15,3763245,2019-08-18 23:22:32:778,0.7732,-0.15,9.6422,0.9074,-1.2259,9.6873,0.0145,0.0215,-0.0394
37634,45.96079,-0.546146,58.61,11.08,8.576,121.6,0 / 15,3763345,2019-08-18 23:22:32:878,0.6781,-0.0835,9.5841,0.8809,-0.9737,9.7184,0.0092,0.0087,-0.0319
37635,45.96079,-0.546146,58.61,11.08,8.576,121.6,0 / 15,3763445,2019-08-18 23:22:32:978,0.8211,-0.0542,9.8936,0.855,-0.7396,9.7413,0.0145,-0.0147,-0.0298
37636,45.96079,-0.546146,58.61,11.08,8.576,121.6,0 / 15,3763545,2019-08-18 23:22:33:078,0.7271,-0.0393,10.2305,0.8691,-0.6983,9.7431,0.0177,-0.0232,-0.0277
37637,45.96079,-0.546146,58.61,11.08,8.576,121.6,0 / 15,3763645,2019-08-18 23:22:33:178,0.763,-0.0261,10.4113,0.8837,-0.6489,9.7452,0.0177,-0.0126,-0.0287
37638,45.96079,-0.546146,58.61,11.08,8.576,121.6,0 / 15,3763745,2019-08-18 23:22:33:278,0.8702,0.029,9.9031,0.8758,-0.5679,9.7509,-0.0025,-0.0073,-0.0277
37639,45.96079,-0.546146,58.61,11.08,8.576,121.6,0 / 15,3763846,2019-08-18 23:22:33:379,0.7217,-0.0357,9.2076,0.8702,-0.5408,9.753,0.0113,0.0045,-0.0266
37640,45.96079,-0.546146,58.61,11.08,8.576,121.6,0 / 15,3763945,2019-08-18 23:22:33:478,0.7086,0.1822,9.4231,0.8612,-0.5131,9.7553,-0.0046,0.0098,-0.0266
37641,45.96079,-0.546146,58.61,11.08,8.576,121.6,0 / 15,3764045,2019-08-18 23:22:33:578,0.693,-0.0973,9.614,0.8568,-0.4929,9.7567,-0.0195,-0.0062,-0.0266
37642,45.96079,-0.546146,58.61,11.08,8.576,121.6,0 / 15,3764145,2019-08-18 23:22:33:678,0.5559,0.2121,10.0941,0.8701,-0.4782,9.7563,-0.0046,-0.0232,-0.0245
37643,45.96079,-0.546146,58.61,11.08,8.576,121.6,0 / 15,3764245,2019-08-18 23:22:33:778,0.8319,0.0206,10.2742,0.8902,-0.4504,9.7558,-0.0004,-0.0201,-0.0255
37644,45.96079,-0.546146,58.61,11.08,8.576,121.6,0 / 15,3764345,2019-08-18 23:22:33:878,0.763,-0.0452,10.1785,0.8927,-0.4338,9.7563,0.0039,-0.0041,-0.0234
37645,45.96079,-0.546146,58.61,11.08,8.576,121.6,0 / 15,3764445,2019-08-18 23:22:33:978,0.6924,0.1864,9.3866,0.882,-0.4181,9.758,-0.0046,0.014,-0.0192
37646,45.96079,-0.546146,58.61,11.08,8.576,121.6,0 / 15,3764545,2019-08-18 23:22:34:078,0.8283,0.1559,9.6595,0.868,-0.392,9.7603,-0.0153,0.0066,-0.016
37647,45.96079,-0.546146,58.61,11.08,8.576,121.6,0 / 15,3764645,2019-08-18 23:22:34:178,0.632,0.2391,9.5147,0.859,-0.3303,9.7634,-0.0057,-0.0115,-0.016
37648,45.96079,-0.546146,58.61,11.08,8.576,121.6,0 / 15,3764745,2019-08-18 23:22:34:278,0.6643,0.2217,9.4494,0.8525,-0.2508,9.7663,-0.0206,0.0066,-0.017
37649,45.96079,-0.546146,58.61,11.08,8.576,121.6,0 / 15,3764845,2019-08-18 23:22:34:378,0.7918,-0.0147,9.6398,0.8234,-0.2394,9.7691,-0.0057,0.0332,-0.0138
37650,45.96079,-0.546146,58.61,11.08,8.576,121.6,0 / 15,3764945,2019-08-18 23:22:34:478,0.8822,0.1846,9.0029,0.802,-0.2312,9.7711,-0.0004,0.0311,-0.0149
37651,45.96079,-0.546146,58.61,11.08,8.576,121.6,0 / 15,3765045,2019-08-18 23:22:34:578,1.024,0.1266,9.6458,0.7802,-0.2083,9.7733,0.0156,0.0311,-0.0128
37652,45.96079,-0.546146,58.61,11.08,8.576,121.6,0 / 15,3765145,2019-08-18 23:22:34:678,0.8534,0.026,9.7098,0.7785,-0.171,9.7742,0.0305,-0.0105,-0.0064
37653,45.96079,-0.546146,58.61,11.08,8.576,121.6,0 / 15,3765245,2019-08-18 23:22:34:778,0.8043,0.3504,10.0779,0.8041,-0.1163,9.7729,0.0294,-0.019,0.0
37654,45.96079,-0.546146,58.61,11.08,8.576,121.6,0 / 15,3765345,2019-08-18 23:22:34:878,0.6715,0.4258,10.1498,0.7963,-0.0802,9.7739,0.0231,0.0204,-0.0021
37655,45.96079,-0.546146,58.61,11.08,8.576,121.6,0 / 15,3765446,2019-08-18 23:22:34:979,0.7122,0.3277,8.8126,0.7677,-0.0552,9.7764,0.0018,0.0183,-0.0021
37656,45.96079,-0.546146,58.61,11.08,8.576,121.6,0 / 15,3765546,2019-08-18 23:22:35:079,0.6242,0.4977,9.6302,0.7646,-0.0318,9.7767,0.0092,0.0013,-0.0011
37657,45.96079,-0.546146,58.61,11.08,8.576,121.6,0 / 15,3765646,2019-08-18 23:22:35:179,0.9288,0.3223,9.7918,0.7721,-0.0327,9.7762,-0.0323,-0.0105,-0.0053
37658,45.96079,-0.546146,58.61,11.08,8.576,121.6,0 / 15,3765745,2019-08-18 23:22:35:278,0.6188,0.603,10.5059,0.7858,-0.0154,9.7751,0.0156,-0.0254,-0.0032
37659,45.96079,-0.546146,58.61,11.08,8.576,121.6,0 / 15,3765845,2019-08-18 23:22:35:378,0.8846,0.4953,10.3114,0.8117,0.0291,9.773,0.039,-0.0147,0.0
37660,45.96079,-0.546146,58.61,11.08,8.576,121.6,0 / 15,3765946,2019-08-18 23:22:35:479,0.684,0.4713,9.9361,0.812,0.0702,9.7727,0.0454,0.0045,-0.0011
37661,45.96079,-0.546146,58.61,11.08,8.576,121.6,0 / 15,3766045,2019-08-18 23:22:35:578,0.8325,0.6838,9.4967,0.7997,0.1412,9.773,0.0145,0.013,-0.0011
37662,45.96079,-0.546146,58.61,11.08,8.576,121.6,0 / 15,3766145,2019-08-18 23:22:35:678,0.6846,0.6533,9.2274,0.7862,0.1567,9.7738,-0.0014,0.0247,-0.0011
37663,45.96079,-0.546146,58.61,11.08,8.576,121.6,0 / 15,3766246,2019-08-18 23:22:35:779,0.7337,0.6706,9.38,0.763,0.1644,9.7755,-0.0142,0.0204,-0.0021
37664,45.96079,-0.546146,58.61,11.08,8.576,121.6,0 / 15,3766345,2019-08-18 23:22:35:878,0.693,0.53,9.6368,0.764,0.1667,9.7754,-0.0164,-0.0062,0.0
37665,45.96079,-0.546146,58.61,11.08,8.576,121.6,14 / 16,3766445,2019-08-18 23:22:35:978,0.699,0.4827,10.1168,0.7883,0.1727,9.7734,-0.0057,-0.0254,-0.0021
37666,45.96079,-0.546146,58.61,11.08,8.576,121.6,14 / 16,3766546,2019-08-18 23:22:36:079,-0.1186,0.336,10.203,0.7855,0.1774,9.7735,-0.0025,0.0087,-0.0021
37667,45.96079,-0.546146,58.61,11.08,8.576,121.6,14 / 16,3766646,2019-08-18 23:22:36:179,-0.3185,0.1218,9.1651,0.6691,0.1889,9.782,0.0039,0.0684,-0.0032
37668,45.96079,-0.546146,58.61,11.08,8.576,121.6,14 / 16,3766745,2019-08-18 23:22:36:278,-0.8321,0.3444,9.3255,0.583,0.1905,9.7875,-0.0004,0.0524,-0.0042
37669,45.96079,-0.546146,58.61,11.08,8.576,121.6,14 / 16,3766845,2019-08-18 23:22:36:378,-0.8716,0.4204,9.7762,0.5109,0.1927,9.7914,-0.0068,-0.0105,-0.0042
37670,45.96079,-0.546146,58.61,11.08,8.576,121.6,14 / 16,3766947,2019-08-18 23:22:36:480,-0.7519,0.1655,9.7463,0.4866,0.1987,9.7926,0.0081,-0.0243,-0.0032
37671,45.96079,-0.546146,58.61,11.08,8.576,121.6,14 / 16,3767046,2019-08-18 23:22:36:579,-0.7758,0.4492,10.4131,0.4532,0.2017,9.7941,0.0028,-0.0211,-0.0042
37672,45.96079,-0.546146,58.61,11.08,8.576,121.6,14 / 16,3767146,2019-08-18 23:22:36:679,-0.7178,0.1714,10.0749,0.4117,0.2081,9.7958,-0.0014,-0.0073,-0.0042
37673,45.96079,-0.546146,58.61,11.08,8.576,121.6,14 / 16,3767245,2019-08-18 23:22:36:778,-0.5197,0.4121,9.653,0.3708,0.2057,9.7975,-0.0057,0.014,-0.0053
37674,45.96079,-0.546146,58.61,11.08,8.576,121.6,14 / 16,3767345,2019-08-18 23:22:36:878,-0.6723,0.3803,9.6955,0.3227,0.202,9.7993,-0.0089,0.0172,-0.0053
37675,45.96079,-0.546146,58.61,11.08,8.576,121.6,14 / 16,3767445,2019-08-18 23:22:36:978,-0.7812,0.1475,10.0576,0.2852,0.1969,9.8005,0.0007,-0.0222,-0.0021
37676,45.96079,-0.546146,58.61,11.08,8.576,121.6,14 / 16,3767545,2019-08-18 23:22:37:078,0.0514,0.1852,9.9402,0.2901,0.2025,9.8003,0.0071,-0.0243,-0.0032
37677,45.96079,-0.546146,58.61,11.08,8.576,121.6,14 / 16,3767645,2019-08-18 23:22:37:178,-0.0576,0.369,9.4895,0.2796,0.2032,9.8006,-0.0036,0.0066,-0.0032
37678,45.96079,-0.546146,58.61,11.08,8.576,121.6,14 / 16,3767746,2019-08-18 23:22:37:279,0.0047,0.2912,9.7721,0.2596,0.2038,9.8011,-0.0036,-0.0094,-0.0021
37679,45.96079,-0.546146,58.61,11.08,8.576,121.6,14 / 16,3767846,2019-08-18 23:22:37:379,0.0825,0.3103,9.6308,0.2542,0.2258,9.8008,0.0284,0.0013,-0.0021
37680,45.96079,-0.546146,58.61,11.08,8.576,121.6,14 / 16,3767946,2019-08-18 23:22:37:479,0.1711,0.351,9.2555,0.2304,0.2401,9.801,0.0177,0.0289,-0.0011
37681,45.96079,-0.546146,58.61,11.08,8.576,121.6,14 / 16,3768045,2019-08-18 23:22:37:578,0.1633,0.5767,8.8778,0.1952,0.2619,9.8012,0.0113,0.0204,-0.0021
37682,45.96079,-0.546146,58.61,11.08,8.576,121.6,14 / 16,3768145,2019-08-18 23:22:37:678,-0.1126,0.6515,11.2924,0.2134,0.2711,9.8006,-0.0206,-0.0435,-0.0021
37683,45.96079,-0.546146,58.61,11.08,8.576,121.6,14 / 16,3768245,2019-08-18 23:22:37:778,-0.0845,-0.0698,10.4341,0.222,0.3021,9.7995,0.0465,0.0002,-0.0042
37684,45.96079,-0.546146,58.61,11.08,8.576,121.6,14 / 16,3768345,2019-08-18 23:22:37:878,-0.2713,0.5844,8.2619,0.1945,0.3011,9.8001,-0.011,0.0439,-0.0021
37685,45.96079,-0.546146,58.61,11.08,8.576,121.6,14 / 16,3768445,2019-08-18 23:22:37:978,-0.0672,0.5629,9.0448,0.1431,0.2946,9.8012,-0.0164,0.0737,-0.0021
37686,45.96079,-0.546146,58.61,11.08,8.576,121.6,14 / 16,3768545,2019-08-18 23:22:38:078,0.0143,0.4037,9.2807,0.134,0.3022,9.8011,0.006,-0.0019,-0.0042
37687,45.96079,-0.546146,58.61,11.08,8.576,121.6,14 / 16,3768646,2019-08-18 23:22:38:179,0.0975,0.533,9.3411,0.1579,0.3033,9.8007,-0.01,-0.0211,-0.0011
37688,45.96079,-0.546146,58.61,11.08,8.576,121.6,14 / 16,3768745,2019-08-18 23:22:38:278,0.2285,0.7119,10.0025,0.1603,0.3003,9.8007,-0.011,0.0098,-0.0032
37689,45.96079,-0.546146,58.61,11.08,8.576,121.6,14 / 16,3768845,2019-08-18 23:22:38:378,-0.1623,0.0781,10.1222,0.151,0.2964,9.801,-0.0036,0.013,-0.0032
37690,45.96079,-0.546146,58.61,11.08,8.576,121.6,14 / 16,3768946,2019-08-18 23:22:38:479,-0.0785,0.4947,9.3232,0.1516,0.3085,9.8006,-0.0078,-0.0083,-0.0021
37691,45.96079,-0.546146,58.61,11.08,8.576,121.6,14 / 16,3769045,2019-08-18 23:22:38:578,0.0256,0.3785,9.6805,0.1582,0.3069,9.8006,-0.0068,-0.0062,-0.0021
37692,45.96079,-0.546146,58.61,11.08,8.576,121.6,14 / 16,3769146,2019-08-18 23:22:38:679,0.4021,0.3342,9.0694,0.1533,0.3081,9.8006,-0.01,0.0151,-0.0042
37693,45.96079,-0.546146,58.61,11.08,8.576,121.6,14 / 16,3769245,2019-08-18 23:22:38:778,0.1657,0.3318,9.0257,0.1235,0.3068,9.8011,0.0018,0.03,-0.0032
37694,45.96079,-0.546146,58.61,11.08,8.576,121.6,14 / 16,3769345,2019-08-18 23:22:38:878,0.1022,0.2798,9.726,0.1048,0.3038,9.8014,-0.0046,0.0066,-0.0021
37695,45.96079,-0.546146,58.61,11.08,8.576,121.6,14 / 16,3769446,2019-08-18 23:22:38:979,0.031,0.4605,10.1976,0.0994,0.2948,9.8017,-0.0217,0.0013,-0.0021
37696,45.96079,-0.546146,58.61,11.08,8.576,121.6,14 / 16,3769545,2019-08-18 23:22:39:078,-0.1911,0.2702,9.7517,0.0967,0.2901,9.8019,0.0028,-0.003,-0.0042
37697,45.96079,-0.546146,58.61,11.08,8.576,121.6,14 / 16,3769645,2019-08-18 23:22:39:178,-0.054,0.3797,9.6116,0.0975,0.2902,9.8019,-0.0025,-0.0019,-0.0042
37698,45.96079,-0.546146,58.61,11.08,8.576,121.6,14 / 16,3769745,2019-08-18 23:22:39:278,0.2249,0.2445,9.4961,0.0996,0.2933,9.8018,-0.0004,-0.0009,-0.0042
37699,45.96079,-0.546146,58.61,11.08,8.576,121.6,14 / 16,3769845,2019-08-18 23:22:39:378,0.1974,0.4151,9.7565,0.0963,0.2963,9.8017,0.0071,0.0034,-0.0042
37700,45.96079,-0.546146,58.61,11.08,8.576,121.6,14 / 16,3769945,2019-08-18 23:22:39:478,-0.0282,0.4115,10.1611,0.1028,0.2973,9.8016,-0.0078,-0.0147,-0.0032
37701,45.96079,-0.546146,58.61,11.08,8.576,121.6,14 / 16,3770045,2019-08-18 23:22:39:578,0.14,0.4982,10.2808,0.1081,0.2996,9.8015,0.0018,-0.0062,-0.0032
37702,45.96079,-0.546146,58.61,11.08,8.576,121.6,14 / 16,3770145,2019-08-18 23:22:39:678,0.1549,0.3983,10.5975,0.1106,0.3023,9.8014,-0.0004,-0.0041,-0.0021
37703,45.96079,-0.546146,58.61,11.08,8.576,121.6,14 / 16,3770245,2019-08-18 23:22:39:778,-0.0719,0.3588,9.3992,0.1093,0.3084,9.8012,-0.0004,-0.003,-0.0021
37704,45.96079,-0.546146,58.61,11.08,8.576,121.6,14 / 16,3770345,2019-08-18 23:22:39:878,-0.0145,0.2935,9.735,0.0988,0.3087,9.8013,0.006,-0.0009,-0.0021
37705,45.96079,-0.546146,58.61,11.08,8.576,121.6,14 / 16,3770445,2019-08-18 23:22:39:978,0.1094,0.0871,9.4411,0.093,0.3152,9.8011,0.0092,-0.0019,-0.0011
37706,45.96079,-0.546146,58.61,11.08,8.576,121.6,14 / 16,3770545,2019-08-18 23:22:40:078,-0.0582,0.3803,10.2006,0.0859,0.3298,9.8007,0.0145,-0.0105,0.0
37707,45.96079,-0.546146,58.61,11.08,8.576,121.6,14 / 16,3770645,2019-08-18 23:22:40:178,-0.0276,0.1469,10.4227,0.0943,0.3384,9.8004,0.0156,-0.0062,0.0
37708,45.96079,-0.546146,58.61,11.08,8.576,121.6,14 / 16,3770745,2019-08-18 23:22:40:278,-0.0887,0.4982,9.2513,0.0782,0.3474,9.8002,-0.0014,0.0162,-0.0011
37709,45.96079,-0.546146,58.61,11.08,8.576,121.6,14 / 16,3770846,2019-08-18 23:22:40:379,-0.206,0.3241,9.8828,0.0777,0.3461,9.8002,-0.0078,-0.0094,-0.0021
37710,45.96079,-0.546146,58.61,11.08,8.576,121.6,14 / 16,3770946,2019-08-18 23:22:40:479,-0.2707,0.506,10.3963,0.0898,0.3381,9.8004,-0.0057,-0.0147,-0.0011
37711,45.96079,-0.546146,58.61,11.08,8.576,121.6,14 / 16,3771045,2019-08-18 23:22:40:578,-0.0408,0.3827,9.7332,0.0753,0.3347,9.8006,-0.0078,0.0172,-0.0021
37712,45.96079,-0.546146,58.61,11.08,8.576,121.6,14 / 16,3771146,2019-08-18 23:22:40:679,-0.358,0.3767,9.2567,0.049,0.3363,9.8008,-0.0014,0.0023,-0.0011
37713,45.96079,-0.546146,58.61,11.08,8.576,121.6,14 / 16,3771246,2019-08-18 23:22:40:779,-0.1701,0.36,9.9145,0.0428,0.3389,9.8007,0.006,-0.0062,0.0
37714,45.96079,-0.546146,58.61,11.08,8.576,121.6,14 / 16,3771345,2019-08-18 23:22:40:878,-0.3862,0.3809,10.4239,0.0379,0.3465,9.8005,0.0113,-0.0083,-0.0011
37715,45.96079,-0.546146,58.61,11.08,8.576,121.6,14 / 16,3771445,2019-08-18 23:22:40:978,-0.218,0.3007,10.0779,0.0257,0.3544,9.8002,0.0049,0.0034,0.0
37716,45.96079,-0.546146,58.61,11.08,8.576,121.6,14 / 16,3771545,2019-08-18 23:22:41:078,-0.3251,0.2546,10.3024,0.0125,0.3601,9.8,0.0028,-0.0019,-0.0011
37717,45.96079,-0.546146,58.61,11.08,8.576,121.6,14 / 16,3771645,2019-08-18 23:22:41:178,-0.3263,0.6425,9.7751,0.0006,0.3621,9.8,-0.0014,0.0013,-0.0032
37718,45.96079,-0.546146,58.61,11.08,8.576,121.6,14 / 16,3771746,2019-08-18 23:22:41:279,-0.3437,0.3049,10.0097,-0.0749,0.3623,9.7997,-0.0078,-0.0105,-0.0011
37719,45.96079,-0.546146,58.61,11.08,8.576,121.6,14 / 16,3771846,2019-08-18 23:22:41:379,-0.2922,0.4677,9.7176,-0.1692,0.3672,9.7983,-0.0164,-0.0073,-0.0011
37720,45.96079,-0.546146,58.61,11.08,8.576,121.6,14 / 16,3771946,2019-08-18 23:22:41:479,-0.3018,0.5844,10.3078,-0.1994,0.3705,9.7976,-0.01,-0.0126,-0.0011
37721,45.96079,-0.546146,58.61,11.08,8.576,121.6,14 / 16,3772046,2019-08-18 23:22:41:579,-0.2449,-0.2003,10.3766,-0.1968,0.3646,9.7979,-0.0046,-0.0115,-0.0011
37722,45.96079,-0.546146,58.61,11.08,8.576,121.6,14 / 16,3772146,2019-08-18 23:22:41:679,-0.5251,0.5204,9.8265,-0.1965,0.3673,9.7978,0.0028,-0.0115,-0.0011
37723,45.96079,-0.546146,58.61,11.08,8.576,121.6,14 / 16,3772246,2019-08-18 23:22:41:779,-0.4706,0.2121,9.617,-0.2029,0.3604,9.7979,-0.011,0.0023,-0.0011
37724,45.96079,-0.546146,58.61,11.08,8.576,121.6,14 / 16,3772345,2019-08-18 23:22:41:878,-0.5041,0.7377,10.0067,-0.2393,0.371,9.7967,-0.0036,-0.0126,0.0022
37725,45.96079,-0.546146,58.61,11.08,8.576,121.6,14 / 16,3772446,2019-08-18 23:22:41:979,-0.4807,0.2115,9.6134,-0.2962,0.3824,9.7947,0.0039,0.0013,0.0043
37726,45.96079,-0.546146,58.61,11.08,8.576,121.6,14 / 16,3772546,2019-08-18 23:22:42:079,-0.1988,0.3696,9.9319,-0.329,0.3997,9.793,0.0145,0.013,0.0064
37727,45.96079,-0.546146,58.61,11.08,8.576,121.6,14 / 16,3772646,2019-08-18 23:22:42:179,-0.5723,0.515,10.3658,-0.3395,0.4063,9.7923,0.006,0.0076,0.0064
37728,45.96079,-0.546146,58.61,11.08,8.576,121.6,14 / 16,3772745,2019-08-18 23:22:42:278,-0.5017,0.3749,9.3758,-0.3413,0.4037,9.7924,-0.01,-0.0051,0.0064
37729,45.96079,-0.546146,58.61,11.08,8.576,121.6,14 / 16,3772846,2019-08-18 23:22:42:379,-0.8674,0.6234,9.064,-0.3498,0.3976,9.7923,-0.0132,0.0055,0.0043
37730,45.96079,-0.546146,58.61,11.08,8.576,121.6,14 / 16,3772945,2019-08-18 23:22:42:478,-0.5071,0.3672,9.7493,-0.3588,0.41,9.7915,0.0039,-0.0019,0.0064
37731,45.96079,-0.546146,58.61,11.08,8.576,121.6,14 / 16,3773046,2019-08-18 23:22:42:579,-0.5137,0.1876,10.5993,-0.3525,0.4236,9.7912,0.0113,-0.0211,0.0085
37732,45.96079,-0.546146,58.61,11.08,8.576,121.6,14 / 16,3773145,2019-08-18 23:22:42:678,-0.4927,0.7347,9.9241,-0.3484,0.4276,9.7911,-0.0046,-0.0073,0.0085
37733,45.96079,-0.546146,58.61,11.08,8.576,121.6,14 / 16,3773246,2019-08-18 23:22:42:779,-0.6753,0.5515,10.0163,-0.346,0.4247,9.7913,-0.0057,-0.0222,0.0043
37734,45.96079,-0.546146,58.61,11.08,8.576,121.6,14 / 16,3773346,2019-08-18 23:22:42:879,-0.1713,0.0888,9.5494,-0.335,0.4189,9.792,-0.0132,-0.0201,0.0043
37735,45.96079,-0.546146,58.61,11.08,8.576,121.6,14 / 16,3773445,2019-08-18 23:22:42:978,-0.3832,0.518,9.9229,-0.3401,0.4126,9.7921,-0.0014,0.0013,0.0011
37736,45.96079,-0.546146,58.61,11.08,8.576,121.6,14 / 16,3773545,2019-08-18 23:22:43:078,-0.3437,-0.0177,9.5027,-0.3492,0.4052,9.7921,-0.0121,0.0066,-0.0011
37737,45.96079,-0.546146,58.61,11.08,8.576,121.6,14 / 16,3773646,2019-08-18 23:22:43:179,-0.6956,0.0882,9.2358,-0.3578,0.3771,9.7929,-0.0195,0.0034,-0.0064
37738,45.96079,-0.546146,58.61,11.08,8.576,121.6,14 / 16,3773745,2019-08-18 23:22:43:278,-0.3832,0.2062,9.8283,-0.3638,0.3679,9.793,-0.0004,0.0013,-0.0074
37739,45.96079,-0.546146,58.61,11.08,8.576,121.6,14 / 16,3773845,2019-08-18 23:22:43:378,-0.7148,0.0709,9.6547,-0.3629,0.3676,9.793,0.0135,-0.003,-0.0053
37740,45.96079,-0.546146,58.61,11.08,8.576,121.6,14 / 16,3773945,2019-08-18 23:22:43:478,-0.561,0.2002,10.1737,-0.3647,0.3606,9.7932,-0.0025,0.0002,-0.0064
37741,45.96079,-0.546146,58.61,11.08,8.576,121.6,14 / 16,3774046,2019-08-18 23:22:43:579,-0.5203,0.2463,9.6948,-0.365,0.3534,9.7935,-0.0004,-0.0126,-0.0085
37742,45.96079,-0.546146,58.61,11.08,8.576,121.6,14 / 16,3774145,2019-08-18 23:22:43:678,-0.4269,0.2498,10.297,-0.3565,0.3498,9.7939,-0.0036,-0.0222,-0.0074
37743,45.96079,-0.546146,58.61,11.08,8.576,121.6,14 / 16,3774246,2019-08-18 23:22:43:779,-0.643,0.3456,10.0647,-0.344,0.3434,9.7946,0.0028,-0.0105,-0.0074
37744,45.96079,-0.546146,58.61,11.08,8.576,121.6,14 / 16,3774346,2019-08-18 23:22:43:879,-0.6807,0.1212,9.893,-0.3482,0.3559,9.794,0.0326,0.0002,-0.0074
37745,45.96079,-0.546146,58.61,11.08,8.576,121.6,14 / 16,3774445,2019-08-18 23:22:43:978,-0.3293,-0.138,9.2675,-0.3537,0.3572,9.7938,0.0028,0.0055,-0.0074
37746,45.96079,-0.546146,58.61,11.08,8.576,121.6,14 / 16,3774545,2019-08-18 23:22:44:078,-0.221,0.2576,9.4219,-0.3537,0.3438,9.7942,-0.0068,-0.0062,-0.0096
37747,45.96079,-0.546146,58.61,11.08,8.576,121.6,14 / 16,3774646,2019-08-18 23:22:44:179,-0.5873,0.0266,9.5997,-0.3469,0.3336,9.7948,0.0039,-0.0041,-0.0096
37748,45.96079,-0.546146,58.61,11.08,8.576,121.6,14 / 16,3774745,2019-08-18 23:22:44:278,-0.54,0.1678,9.881,-0.3457,0.3217,9.7953,-0.0121,-0.003,-0.0106
37749,45.96079,-0.546146,58.61,11.08,8.576,121.6,14 / 16,3774845,2019-08-18 23:22:44:378,-0.3245,0.1014,10.1713,-0.3386,0.295,9.7964,0.0007,-0.0051,-0.0149
37750,45.96079,-0.546146,58.61,11.08,8.576,121.6,14 / 16,3774945,2019-08-18 23:22:44:478,-0.5226,-0.1003,9.7415,-0.3261,0.2834,9.7971,0.0049,-0.0179,-0.0138
37751,45.96079,-0.546146,58.61,11.08,8.576,121.6,14 / 16,3775045,2019-08-18 23:22:44:578,-0.5376,0.0769,9.9708,-0.3018,0.2723,9.7982,-0.0004,-0.0222,-0.0128
37752,45.96079,-0.546146,58.61,11.08,8.576,121.6,14 / 16,3775145,2019-08-18 23:22:44:678,-0.2569,0.102,9.6386,-0.2898,0.2622,9.7989,-0.0046,-0.0094,-0.0138
37753,45.96079,-0.546146,58.61,11.08,8.576,121.6,14 / 16,3775246,2019-08-18 23:22:44:779,-0.0552,0.2187,10.1282,-0.2847,0.2475,9.7994,-0.0014,-0.0041,-0.0138
37754,45.96079,-0.546146,58.61,11.08,8.576,121.6,14 / 16,3775345,2019-08-18 23:22:44:878,-0.1216,-0.1099,9.5985,-0.276,0.212,9.8005,0.0007,-0.0115,-0.0138
37755,45.959217,-0.543024,54.19,22.44,5.36,130.9,Nov-15,3775446,2019-08-18 23:22:44:979,-0.1677,0.363,9.5416,-0.261,0.1781,9.8016,0.0103,0.0066,-0.0074
37756,45.959217,-0.543024,54.19,22.44,5.36,130.9,Nov-15,3775545,2019-08-18 23:22:45:078,-0.1869,0.776,9.4225,-0.2701,0.2181,9.8005,0.0263,0.0076,0.016
37757,45.959217,-0.543024,54.19,22.44,5.36,130.9,Nov-15,3775646,2019-08-18 23:22:45:179,-0.1587,0.7473,9.9438,-0.2739,0.2467,9.7997,0.0135,0.0066,0.0245
37758,45.959217,-0.543024,54.19,22.44,5.36,130.9,Nov-15,3775745,2019-08-18 23:22:45:278,-0.358,0.9304,10.2162,-0.2635,0.2901,9.7988,0.006,-0.0137,0.0213
37759,45.959217,-0.543024,54.19,22.44,5.36,130.9,Nov-15,3775846,2019-08-18 23:22:45:379,0.0166,1.0932,9.8307,-0.263,0.3073,9.7983,-0.0132,0.0119,0.0203
37760,45.959217,-0.543024,54.19,22.44,5.36,130.9,Nov-15,3775946,2019-08-18 23:22:45:479,-0.1288,0.934,9.9001,-0.2655,0.3203,9.7978,-0.0121,-0.003,0.0181
37761,45.959217,-0.543024,54.19,22.44,5.36,130.9,Nov-15,3776045,2019-08-18 23:22:45:578,-0.033,0.8658,10.0121,-0.251,0.3485,9.7972,0.0177,-0.0019,0.0203
37762,45.959217,-0.543024,54.19,22.44,5.36,130.9,Nov-15,3776145,2019-08-18 23:22:45:678,-0.0564,0.7281,10.2096,-0.2381,0.4013,9.7955,0.0273,-0.003,0.0235
37763,45.959217,-0.543024,54.19,22.44,5.36,130.9,Nov-15,3776246,2019-08-18 23:22:45:779,-0.0366,0.8843,9.7918,-0.2309,0.4227,9.7948,-0.0014,-0.0009,0.0235
37764,45.959217,-0.543024,54.19,22.44,5.36,130.9,Nov-15,3776346,2019-08-18 23:22:45:879,-0.1653,1.2542,9.2423,-0.23,0.4543,9.7934,-0.0036,0.0098,0.0192
37765,45.959217,-0.543024,54.19,22.44,5.36,130.9,Nov-15,3776445,2019-08-18 23:22:45:978,0.022,0.943,10.3473,-0.214,0.4711,9.793,0.0049,-0.0201,0.0203
37766,45.959217,-0.543024,54.19,22.44,5.36,130.9,Nov-15,3776546,2019-08-18 23:22:46:079,-0.2898,0.7185,10.6855,-0.1904,0.4809,9.793,-0.0078,-0.0264,0.0213
37767,45.959217,-0.543024,54.19,22.44,5.36,130.9,Nov-15,3776645,2019-08-18 23:22:46:178,-0.0366,0.8466,9.7924,-0.1643,0.498,9.7926,-0.0057,-0.0126,0.0213
37768,45.959217,-0.543024,54.19,22.44,5.36,130.9,Nov-15,3776745,2019-08-18 23:22:46:278,-0.5131,0.8885,9.945,-0.1547,0.5667,9.789,0.0103,-0.0094,0.0224
37769,45.959217,-0.543024,54.19,22.44,5.36,130.9,Nov-15,3776846,2019-08-18 23:22:46:379,-0.1497,0.8646,9.9061,-0.1423,0.5836,9.7882,0.0124,-0.0126,0.0213
37770,45.959217,-0.543024,54.19,22.44,5.36,130.9,Nov-15,3776945,2019-08-18 23:22:46:478,0.0867,0.8017,8.9389,-0.1328,0.602,9.7873,0.0018,0.0023,0.0139
37771,45.959217,-0.543024,54.19,22.44,5.36,130.9,Nov-15,3777045,2019-08-18 23:22:46:578,0.1376,1.1956,9.5446,-0.1294,0.5866,9.7882,-0.0323,-0.0009,0.0085
37772,45.959217,-0.543024,54.19,22.44,5.36,130.9,Nov-15,3777146,2019-08-18 23:22:46:679,-0.3718,0.7676,9.3908,-0.1152,0.5848,9.7885,-0.0046,-0.0179,0.0085
37773,45.959217,-0.543024,54.19,22.44,5.36,130.9,Nov-15,3777246,2019-08-18 23:22:46:779,-0.5292,0.846,10.4269,-0.1284,0.5884,9.7881,-0.0238,0.0289,0.0107
37774,45.959217,-0.543024,54.19,22.44,5.36,130.9,Nov-15,3777346,2019-08-18 23:22:46:879,0.1914,0.6916,9.5452,-0.1225,0.5752,9.789,-0.0057,-0.0094,0.0117
37775,45.959217,-0.543024,54.19,22.44,5.36,130.9,Nov-15,3777446,2019-08-18 23:22:46:979,-0.1575,0.9687,10.0151,-0.1262,0.572,9.7891,-0.0046,0.0045,0.0107
37776,45.959217,-0.543024,54.19,22.44,5.36,130.9,Nov-15,3777546,2019-08-18 23:22:47:079,0.4608,0.4713,10.5292,-0.1305,0.5726,9.789,-0.0121,0.0108,0.0053
37777,45.959217,-0.543024,54.19,22.44,5.36,130.9,Nov-15,3777645,2019-08-18 23:22:47:178,0.0963,0.7137,10.0989,-0.1286,0.5738,9.789,-0.0025,-0.0169,0.0064
37778,45.959217,-0.543024,54.19,22.44,5.36,130.9,Nov-15,3777745,2019-08-18 23:22:47:278,-0.0666,0.7712,9.632,-0.1147,0.5786,9.7889,0.0156,-0.0009,0.0075
37779,45.959217,-0.543024,54.19,22.44,5.36,130.9,Nov-15,3777845,2019-08-18 23:22:47:378,-0.2006,0.5018,9.2627,-0.1082,0.5858,9.7885,0.0071,0.0087,0.0085
37780,45.959217,-0.543024,54.19,22.44,5.36,130.9,Nov-15,3777946,2019-08-18 23:22:47:479,-0.2359,0.6551,9.5536,-0.1024,0.5845,9.7887,-0.0004,0.0045,0.0064
37781,45.959217,-0.543024,54.19,22.44,5.36,130.9,Nov-15,3778046,2019-08-18 23:22:47:579,-0.3024,0.4246,9.4297,-0.1023,0.5822,9.7888,-0.0025,0.0045,0.0053
37782,45.959217,-0.543024,54.19,22.44,5.36,130.9,Nov-15,3778146,2019-08-18 23:22:47:679,-0.0223,0.7293,9.4866,-0.099,0.5864,9.7886,-0.0036,-0.0073,0.0053
37783,45.959217,-0.543024,54.19,22.44,5.36,130.9,Nov-15,3778245,2019-08-18 23:22:47:778,-0.3138,0.6323,9.8301,-0.0931,0.5716,9.7895,-0.0313,-0.0041,0.0064
37784,45.959217,-0.543024,54.19,22.44,5.36,130.9,Nov-15,3778345,2019-08-18 23:22:47:878,-0.1456,0.3767,10.1132,-0.0967,0.5304,9.7918,-0.0249,-0.0019,0.0011
37785,45.959217,-0.543024,54.19,22.44,5.36,130.9,Nov-15,3778446,2019-08-18 23:22:47:979,-0.0917,0.7095,10.8111,-0.0771,0.5175,9.7927,-0.0036,-0.0414,0.0053
37786,45.959217,-0.543024,54.19,22.44,5.36,130.9,Nov-15,3778545,2019-08-18 23:22:48:078,-0.0797,0.1421,11.4546,-0.0251,0.5334,9.7921,0.0241,-0.0414,0.0075
37787,45.959217,-0.543024,54.19,22.44,5.36,130.9,Nov-15,3778646,2019-08-18 23:22:48:179,-0.3569,0.2217,10.1593,-0.0013,0.546,9.7914,0.0188,-0.0339,0.0053
37788,45.959217,-0.543024,54.19,22.44,5.36,130.9,Nov-15,3778746,2019-08-18 23:22:48:279,-0.5777,0.8346,8.5247,-0.0164,0.538,9.7919,-0.01,0.0385,0.0032
37789,45.959217,-0.543024,54.19,22.44,5.36,130.9,Nov-15,3778845,2019-08-18 23:22:48:378,-0.0223,0.5653,8.0913,-0.058,0.5237,9.7925,-0.0281,0.0652,0.0032
37790,45.959217,-0.543024,54.19,22.44,5.36,130.9,Nov-15,3778945,2019-08-18 23:22:48:478,0.192,0.3516,8.2649,-0.0993,0.5134,9.7927,-0.0025,0.0215,0.0064
37791,45.959217,-0.543024,54.19,22.44,5.36,130.9,Nov-15,3779046,2019-08-18 23:22:48:579,-0.0438,0.5485,9.2262,-0.0985,0.5276,9.792,0.0231,-0.0051,0.0085
37792,45.959217,-0.543024,54.19,22.44,5.36,130.9,Nov-15,3779145,2019-08-18 23:22:48:678,0.0035,0.6928,9.7242,-0.1068,0.5365,9.7914,-0.0089,0.0258,0.0064
37793,45.959217,-0.543024,54.19,22.44,5.36,130.9,Nov-15,3779246,2019-08-18 23:22:48:779,0.1489,0.7466,9.4872,-0.1674,0.5172,9.7916,-0.0195,0.0598,0.0011
37794,45.959217,-0.543024,54.19,22.44,5.36,130.9,Nov-15,3779346,2019-08-18 23:22:48:879,-0.2467,0.2511,10.2449,-0.1679,0.523,9.7913,0.0156,-0.0211,0.0053
37795,45.959217,-0.543024,54.19,22.44,5.36,130.9,Nov-15,3779445,2019-08-18 23:22:48:978,0.1004,0.5419,11.5462,-0.1203,0.5338,9.7914,0.0199,-0.0712,0.0085
37796,45.959217,-0.543024,54.19,22.44,5.36,130.9,Nov-15,3779545,2019-08-18 23:22:49:078,-0.0139,0.5114,10.3682,-0.0607,0.5443,9.7913,0.0092,-0.0318,0.0043
37797,45.959217,-0.543024,54.19,22.44,5.36,130.9,Nov-15,3779646,2019-08-18 23:22:49:179,0.0346,0.7305,9.7822,-0.0557,0.5424,9.7915,-0.0078,0.0002,0.0043
37798,45.959217,-0.543024,54.19,22.44,5.36,130.9,Nov-15,3779745,2019-08-18 23:22:49:278,-0.2731,0.6287,9.0831,-0.0747,0.531,9.792,-0.0142,0.0279,0.0064
37799,45.959217,-0.543024,54.19,22.44,5.36,130.9,Nov-15,3779845,2019-08-18 23:22:49:378,0.1902,0.5414,8.7839,-0.0996,0.5362,9.7915,0.0081,0.0247,0.0064
37800,45.959217,-0.543024,54.19,22.44,5.36,130.9,Nov-15,3779946,2019-08-18 23:22:49:479,-0.1474,0.4552,8.624,-0.1047,0.5386,9.7913,0.0007,0.0045,0.0085
37801,45.959217,-0.543024,54.19,22.44,5.36,130.9,Nov-15,3780045,2019-08-18 23:22:49:578,-0.2874,0.9298,9.7361,-0.0932,0.5582,9.7903,0.0231,-0.0137,0.0064
37802,45.959217,-0.543024,54.19,22.44,5.36,130.9,Nov-15,3780145,2019-08-18 23:22:49:678,-0.4526,0.4438,10.5095,-0.0968,0.5763,9.7892,0.0231,0.013,0.0085
37803,45.959217,-0.543024,54.19,22.44,5.36,130.9,Nov-15,3780245,2019-08-18 23:22:49:778,-0.5634,1.2955,6.7069,-0.1125,0.58,9.7888,-0.0217,0.0258,0.0107
37804,45.959217,-0.543024,54.19,22.44,5.36,130.9,Nov-15,3780345,2019-08-18 23:22:49:878,-0.813,0.6599,8.4151,-0.1636,0.5839,9.7879,-0.0057,0.0289,0.0149
37805,45.959217,-0.543024,54.19,22.44,5.36,130.9,Nov-15,3780445,2019-08-18 23:22:49:978,-0.218,0.6784,10.0654,-0.1161,0.6244,9.7861,0.039,-0.0627,0.0213
37806,45.959217,-0.543024,54.19,22.44,5.36,130.9,Nov-15,3780545,2019-08-18 23:22:50:078,-0.0384,1.1357,10.6603,-0.0802,0.6499,9.7848,0.0252,-0.0318,0.0203
37807,45.959217,-0.543024,54.19,22.44,5.36,130.9,Nov-15,3780646,2019-08-18 23:22:50:179,-0.039,0.7443,9.969,-0.0829,0.6652,9.7837,0.0071,0.0151,0.016
37808,45.959217,-0.543024,54.19,22.44,5.36,130.9,Nov-15,3780746,2019-08-18 23:22:50:279,0.1316,1.0184,9.1759,-0.1018,0.6706,9.7832,-0.0121,0.0119,0.0171
37809,45.959217,-0.543024,54.19,22.44,5.36,130.9,Nov-15,3780845,2019-08-18 23:22:50:378,-0.4628,1.0854,8.7575,-0.106,0.6764,9.7827,-0.01,0.0002,0.0192
37810,45.959217,-0.543024,54.19,22.44,5.36,130.9,Nov-15,3780945,2019-08-18 23:22:50:478,-0.1557,0.9436,9.3722,-0.1047,0.6949,9.7814,0.0028,0.0013,0.0235
37811,45.959217,-0.543024,54.19,22.44,5.36,130.9,Nov-15,3781045,2019-08-18 23:22:50:578,-0.1521,1.1195,9.5614,-0.1131,0.7051,9.7806,-0.0195,0.0045,0.0256
37812,45.959217,-0.543024,54.19,22.44,5.36,130.9,Nov-15,3781145,2019-08-18 23:22:50:678,-0.0606,1.0184,9.4482,-0.1154,0.7121,9.7801,-0.0164,0.0076,0.0245
37813,45.959217,-0.543024,54.19,22.44,5.36,130.9,Nov-15,3781245,2019-08-18 23:22:50:778,-0.4239,0.7802,10.1707,-0.103,0.719,9.7797,-0.0025,-0.0264,0.0288
37814,45.959217,-0.543024,54.19,22.44,5.36,130.9,Nov-15,3781345,2019-08-18 23:22:50:878,-0.1905,1.2231,11.3983,-0.074,0.7259,9.7795,-0.01,-0.0488,0.0341
37815,45.959217,-0.543024,54.19,22.44,5.36,130.9,Nov-15,3781446,2019-08-18 23:22:50:979,-0.045,1.45,11.0117,-0.0278,0.7295,9.7794,-0.0036,-0.019,0.032
37816,45.959217,-0.543024,54.19,22.44,5.36,130.9,Nov-15,3781546,2019-08-18 23:22:51:079,0.0466,1.0998,9.0347,-0.0269,0.7378,9.7788,-0.0142,0.0045,0.0352
37817,45.959217,-0.543024,54.19,22.44,5.36,130.9,Nov-15,3781646,2019-08-18 23:22:51:179,-0.139,1.1884,8.3804,-0.0419,0.7562,9.7774,-0.0004,0.014,0.0362
37818,45.959217,-0.543024,54.19,22.44,5.36,130.9,Nov-15,3781746,2019-08-18 23:22:51:279,0.2626,1.0256,8.979,-0.0618,0.7769,9.7756,0.0049,0.0428,0.0362
37819,45.959217,-0.543024,54.19,22.44,5.36,130.9,Nov-15,3781846,2019-08-18 23:22:51:379,0.034,1.116,8.7396,-0.0946,0.7987,9.7736,-0.0089,0.0194,0.0405
37820,45.959217,-0.543024,54.19,22.44,5.36,130.9,Nov-15,3781945,2019-08-18 23:22:51:478,0.1459,1.663,9.7523,-0.0879,0.8098,9.7728,-0.0206,0.0013,0.0405
37821,45.959217,-0.543024,54.19,22.44,5.36,130.9,Nov-15,3782045,2019-08-18 23:22:51:578,0.1172,1.3081,10.0007,-0.0954,0.8259,9.7713,0.0007,0.014,0.0341
37822,45.959217,-0.543024,54.19,22.44,5.36,130.9,Nov-15,3782145,2019-08-18 23:22:51:678,-0.0145,1.2285,9.5703,-0.098,0.8418,9.77,0.0124,0.0087,0.0309
37823,45.959217,-0.543024,54.19,22.44,5.36,130.9,Nov-15,3782245,2019-08-18 23:22:51:778,-0.0396,0.7598,9.6667,-0.098,0.8776,9.7668,0.0348,0.0087,0.0213
37824,45.959217,-0.543024,54.19,22.44,5.36,130.9,Nov-15,3782345,2019-08-18 23:22:51:878,-0.1306,0.91,9.6302,-0.0992,0.8945,9.7653,0.0135,0.0066,0.0203
37825,45.959217,-0.543024,54.19,22.44,5.36,130.9,Nov-15,3782445,2019-08-18 23:22:51:978,0.1813,1.08,9.5021,-0.0739,0.8829,9.7665,-0.0302,-0.0158,0.0181
37826,45.959217,-0.543024,54.19,22.44,5.36,130.9,Nov-15,3782546,2019-08-18 23:22:52:079,-0.1318,1.0717,9.3309,-0.0622,0.855,9.7691,-0.043,-0.0073,0.016
37827,45.959217,-0.543024,54.19,22.44,5.36,130.9,Nov-15,3782646,2019-08-18 23:22:52:179,0.0921,0.8855,9.7655,-0.0539,0.8144,9.7726,-0.0345,0.0002,0.016
37828,45.959217,-0.543024,54.19,22.44,5.36,130.9,Nov-15,3782745,2019-08-18 23:22:52:278,0.1651,0.6443,10.5065,-0.0415,0.7966,9.7742,-0.0185,-0.0094,0.0192
37829,45.959217,-0.543024,54.19,22.44,5.36,130.9,Nov-15,3782846,2019-08-18 23:22:52:379,0.0591,0.7269,10.1264,-0.0296,0.7929,9.7745,0.0018,0.0013,0.0224
37830,45.959217,-0.543024,54.19,22.44,5.36,130.9,Nov-15,3782946,2019-08-18 23:22:52:479,0.107,0.9166,9.8158,-0.0249,0.7872,9.775,-0.01,-0.0009,0.0203
37831,45.959217,-0.543024,54.19,22.44,5.36,130.9,Nov-15,3783045,2019-08-18 23:22:52:578,0.0005,0.5449,10.5184,-0.0058,0.785,9.7752,0.0007,-0.0254,0.0213
37832,45.959217,-0.543024,54.19,22.44,5.36,130.9,Nov-15,3783146,2019-08-18 23:22:52:679,0.1298,0.8334,9.9067,0.0057,0.8034,9.7737,0.0316,-0.0041,0.0213
