,GPS LATITUDE (degrees), GPS LONGITUDE (degrees), GPS ALTITUDE (m), GPS SPEED (Kmh), GPS ACCURACY (m), GPS ORIENTATION (Â°),GPS SATELLITES IN RANGE, TIME SINCE START (ms), DATE (YYYY-MO-DD HH-MI-SS_SSS), ACCELEROMETER X (m/s²) , ACCELEROMETER Y (m/s²), ACCELEROMETER Z (m/s²), GRAVITY X (m/s²), GRAVITY Y (m/s²), GRAVITY Z (m/s²), GYROSCOPE Yaw (rad/s), GYROSCOPE Pitch (rad/s), GYROSCOPE Roll (rad/s), MAGNETIC FIELD X (Î¼T), MAGNETIC FIELD Y (Î¼T), MAGNETIC FIELD Z (Î¼T), ORIENTATION (Yaw) (Â°), ORIENTATION (Pitch) (Â°), ORIENTATION (Roll ) (Â°)
44233,52.38674,-1.535683,150.31,0.0,6.0,118.77,21 / 21,710,2019-09-07 10:27:13:864,1.06,-0.6797,9.6991,0.0149,-0.0143,9.8066,0.0227,0.0109,0.0008,-41.0,-29.25,22.75,3.8,-87.99,-115.57
44234,52.38674,-1.535683,150.31,0.0,6.0,118.77,21 / 21,811,2019-09-07 10:27:13:965,0.8927,-0.5118,9.6457,0.0155,0.0023,9.8066,0.0,-0.0072,-0.0325,-41.37,-29.06,23.0,359.12,-87.94,-120.15
44235,52.38674,-1.535683,150.31,0.0,6.0,118.77,21 / 21,910,2019-09-07 10:27:14:064,1.0544,-0.7743,9.8208,0.0007,-0.0008,9.8066,0.0005,-0.0074,-0.0062,-41.44,-28.19,23.06,354.54,-88.0,-124.63
44236,52.38674,-1.535683,150.31,0.0,6.0,118.77,21 / 21,1011,2019-09-07 10:27:14:165,1.0926,-0.5641,9.7219,0.0032,-0.0162,9.8066,0.0316,-0.0517,0.0407,-41.5,-28.19,22.81,353.77,-87.89,-125.38
44237,52.38674,-1.535683,150.31,0.0,6.0,118.77,21 / 21,1110,2019-09-07 10:27:14:264,0.9333,-0.7698,9.6612,-0.0027,-0.016,9.8066,0.0068,-0.2052,0.2854,-41.62,-28.69,23.56,355.76,-87.55,-123.88
44238,52.38674,-1.535683,150.31,0.0,6.0,118.77,21 / 21,1211,2019-09-07 10:27:14:365,0.4986,-1.2449,9.0913,-0.0485,-0.1279,9.8057,0.045,-0.3093,0.2331,-41.5,-26.62,25.0,9.22,-86.11,-112.52
44239,52.38674,-1.535683,150.31,0.0,6.0,118.77,22 / 22,1310,2019-09-07 10:27:14:464,1.0814,-0.6625,9.746,0.0171,0.0208,9.8065,-0.0137,-0.0285,-0.0432,-41.94,-26.94,25.31,8.42,-85.2,-112.76
44240,52.38674,-1.535683,150.31,0.0,6.0,118.77,22 / 22,1411,2019-09-07 10:27:14:565,1.052,-0.7815,9.7936,0.008,0.0235,9.8066,-0.0164,-0.0525,-0.0769,-41.37,-27.25,25.06,6.86,-85.56,-114.83
44241,52.38674,-1.535683,150.31,0.0,6.0,118.77,22 / 22,1510,2019-09-07 10:27:14:664,1.0145,-0.7162,9.6939,0.0005,0.0029,9.8066,0.0032,0.0119,0.0173,-40.44,-27.62,25.0,6.47,-85.84,-115.83
44242,52.38674,-1.535683,150.31,0.0,6.0,118.77,22 / 22,1610,2019-09-07 10:27:14:764,1.056,-0.6295,9.8134,0.0013,0.0009,9.8066,0.0061,0.002,-0.0166,-41.44,-27.5,25.5,6.88,-85.83,-115.79
44243,52.38674,-1.535683,150.31,0.0,6.0,118.77,22 / 22,1710,2019-09-07 10:27:14:864,1.071,-0.8807,9.8053,-0.0012,-0.0013,9.8065,0.0127,0.0155,0.0087,-41.06,-27.37,26.0,6.54,-85.85,-116.12
44244,52.38674,-1.535683,150.31,0.0,6.0,118.77,22 / 22,1810,2019-09-07 10:27:14:964,1.0215,-0.7547,9.706,0.0008,0.0014,9.8066,-0.0064,-0.0007,-0.0098,-41.44,-27.06,25.19,5.05,-85.82,-116.54
44245,52.38674,-1.535683,150.31,0.0,6.0,118.77,22 / 22,1911,2019-09-07 10:27:15:065,1.0308,-0.6707,9.742,0.0026,0.0012,9.8066,0.0043,0.0067,0.0004,-41.19,-27.25,26.0,5.84,-85.83,-116.79
44246,52.38674,-1.535683,150.31,0.0,6.0,118.77,22 / 22,2010,2019-09-07 10:27:15:164,1.0853,-0.7831,9.8647,-0.0035,-0.0018,9.8066,-0.0018,0.0062,0.0073,-41.5,-27.06,25.5,5.87,-85.82,-116.76
44247,52.38674,-1.535683,150.31,0.0,6.0,118.77,22 / 22,2110,2019-09-07 10:27:15:264,1.0686,-0.681,9.7244,0.0066,0.0062,9.8066,-0.0018,-0.0034,-0.0029,-40.87,-27.75,24.81,4.34,-85.87,-117.23
44248,52.38674,-1.535683,150.31,0.0,6.0,118.77,22 / 22,2211,2019-09-07 10:27:15:365,1.0503,-0.7685,9.8393,0.0074,-0.0028,9.8066,0.0045,-0.0106,0.0119,-40.94,-27.5,25.69,4.56,-85.87,-118.02
44249,52.38674,-1.535683,150.31,0.0,6.0,118.77,23 / 23,2311,2019-09-07 10:27:15:465,1.0613,-0.8412,9.8019,0.0038,-0.0087,9.8066,0.0223,0.0059,0.0024,-41.31,-27.25,26.06,4.45,-85.84,-118.12
44250,52.38674,-1.535683,150.31,0.0,6.0,118.77,23 / 23,2410,2019-09-07 10:27:15:564,1.015,-0.7549,9.798,0.0161,-0.0186,9.8065,0.0389,-0.014,-0.0118,-41.81,-27.0,25.69,1.59,-85.63,-120.24
44251,52.38674,-1.535683,150.31,0.0,6.0,118.77,23 / 23,2510,2019-09-07 10:27:15:664,1.0693,-0.7272,9.7477,0.0165,-0.0141,9.8066,0.0228,0.0056,-0.0015,-41.19,-27.12,25.69,0.17,-85.53,-122.22
44252,52.38674,-1.535683,150.31,0.0,6.0,118.77,23 / 23,2610,2019-09-07 10:27:15:764,0.9813,-0.7582,9.9082,0.0022,-0.0027,9.8066,0.0096,0.0143,0.0001,-40.81,-26.87,25.69,358.28,-85.41,-124.02
44253,52.38674,-1.535683,150.31,0.0,6.0,118.77,23 / 23,2710,2019-09-07 10:27:15:864,1.1885,-0.9339,9.5557,0.0162,-0.0109,9.8066,0.0101,0.0141,-0.0066,-41.25,-26.81,26.69,358.13,-85.31,-125.15
44254,52.38674,-1.535683,150.31,0.0,6.0,118.77,23 / 23,2810,2019-09-07 10:27:15:964,1.0492,-0.6505,9.8146,0.0013,0.0004,9.8066,0.0044,0.0052,0.002,-41.0,-26.94,25.94,355.47,-85.25,-126.68
44255,52.38674,-1.535683,150.31,0.0,6.0,118.77,23 / 23,2911,2019-09-07 10:27:16:065,1.0609,-0.7427,9.8342,0.0035,-0.0034,9.8066,0.0005,0.0067,-0.001,-41.44,-26.75,26.25,355.24,-85.23,-126.91
44256,52.38674,-1.535683,150.31,0.0,6.0,118.77,23 / 23,3012,2019-09-07 10:27:16:166,0.9965,-0.8968,9.7282,0.0048,0.0013,9.8066,0.01,0.0064,-0.0145,-40.94,-26.56,26.13,354.5,-85.2,-127.6
44257,52.38674,-1.535683,150.31,0.0,6.0,118.77,23 / 23,3110,2019-09-07 10:27:16:264,1.0385,-0.7531,9.9441,0.0027,0.012,9.8066,-0.0414,0.0534,-0.0539,-41.62,-27.06,26.0,352.92,-85.28,-128.49
44258,52.38674,-1.535683,150.31,0.0,6.0,118.77,23 / 23,3210,2019-09-07 10:27:16:364,1.0109,-0.7393,9.7454,-0.0035,-0.0052,9.8066,-0.0022,0.0031,0.0107,-40.81,-26.81,26.44,354.08,-85.45,-128.02
44259,52.38674,-1.535683,150.31,0.0,6.0,118.77,21 / 22,3310,2019-09-07 10:27:16:464,1.0713,-0.6859,9.7591,0.0053,-0.0036,9.8066,0.0208,-0.0053,0.0057,-41.19,-26.87,26.69,354.97,-85.38,-128.16
44260,52.38674,-1.535683,150.31,0.0,6.0,118.77,21 / 22,3411,2019-09-07 10:27:16:565,0.9493,-0.8149,9.7454,0.002,0.0028,9.8066,0.0001,-0.0093,-0.0227,-41.12,-26.5,26.31,353.21,-85.3,-128.85
44261,52.38674,-1.535683,150.31,0.0,6.0,118.77,21 / 22,3510,2019-09-07 10:27:16:664,0.9377,-0.7109,9.8117,-0.0037,-0.0009,9.8066,0.011,0.0115,-0.0102,-41.37,-26.69,25.94,353.07,-85.33,-128.97
44262,52.38674,-1.535683,150.31,0.0,6.0,118.77,21 / 22,3610,2019-09-07 10:27:16:764,1.0498,-0.7384,9.8461,-0.0025,-0.0012,9.8066,-0.0201,0.0028,-0.0016,-41.5,-26.75,26.19,353.1,-85.28,-128.94
44263,52.38674,-1.535683,150.31,0.0,6.0,118.77,21 / 22,3710,2019-09-07 10:27:16:864,0.973,-0.7994,9.7675,0.0058,-0.001,9.8066,0.004,-0.0018,0.006,-41.37,-26.94,26.88,353.88,-85.27,-129.19
44264,52.38674,-1.535683,150.31,0.0,6.0,118.77,21 / 22,3810,2019-09-07 10:27:16:964,1.172,-0.631,9.6962,0.006,-0.0063,9.8065,0.0206,-0.0211,0.0105,-41.31,-26.75,25.81,352.45,-85.24,-129.56
44265,52.38674,-1.535683,150.31,0.0,6.0,118.77,21 / 22,3910,2019-09-07 10:27:17:064,0.9637,-0.828,9.7848,-0.0023,-0.0082,9.8066,-0.002,-0.001,0.0016,-41.19,-26.87,26.31,352.55,-84.99,-129.44
44266,52.38674,-1.535683,150.31,0.0,6.0,118.77,21 / 22,4010,2019-09-07 10:27:17:164,0.9586,-0.7182,9.7439,-0.0008,-0.0008,9.8065,-0.0109,0.0119,-0.0035,-41.37,-26.37,26.63,353.45,-84.97,-129.58
44267,52.38674,-1.535683,150.31,0.0,6.0,118.77,21 / 22,4110,2019-09-07 10:27:17:264,0.987,-0.7291,9.7962,0.0033,-0.0036,9.8066,0.0069,0.0071,-0.0016,-41.62,-26.56,26.63,352.48,-84.92,-129.87
44268,52.38674,-1.535683,150.31,0.0,6.0,118.77,21 / 22,4211,2019-09-07 10:27:17:365,1.0784,-0.7845,9.8328,0.0028,-0.0087,9.8066,0.0031,-0.0043,0.0119,-40.94,-26.94,25.81,351.69,-84.83,-130.24
44269,52.38674,-1.535683,150.31,0.0,6.0,118.77,21 / 22,4311,2019-09-07 10:27:17:465,0.9318,-0.6035,9.8378,0.0015,-0.0034,9.8066,0.009,0.0083,0.0006,-41.56,-26.81,26.56,352.22,-84.73,-130.1
44270,52.38674,-1.535683,150.31,0.0,6.0,118.77,21 / 22,4410,2019-09-07 10:27:17:564,0.9648,-0.7958,9.806,0.0042,-0.0058,9.8066,0.0097,0.0035,0.0079,-41.12,-26.56,26.19,351.15,-84.67,-130.73
44271,52.38674,-1.535683,150.31,0.0,6.0,118.77,21 / 22,4511,2019-09-07 10:27:17:665,0.8501,-0.618,9.749,0.0003,-0.0052,9.8066,0.0042,-0.0061,-0.0014,-41.5,-26.56,26.19,350.68,-84.58,-131.18
44272,52.38674,-1.535683,150.31,0.0,6.0,118.77,21 / 22,4610,2019-09-07 10:27:17:764,0.849,-0.5972,10.0649,0.0035,-0.0072,9.8065,0.0026,0.0094,0.0065,-40.81,-26.62,27.25,351.36,-84.51,-131.51
44273,52.38674,-1.535683,150.31,0.0,6.0,118.77,21 / 22,4710,2019-09-07 10:27:17:864,0.9162,-0.7648,9.7735,0.0037,0.0012,9.8066,-0.0016,-0.0147,-0.0108,-41.44,-26.75,27.19,350.8,-84.46,-132.04
44274,52.38674,-1.535683,150.31,0.0,6.0,118.77,21 / 22,4811,2019-09-07 10:27:17:965,1.0327,-0.7514,9.8827,0.0038,-0.0029,9.8066,0.0061,0.0072,0.0065,-42.19,-26.31,26.19,348.56,-84.45,-132.57
44275,52.38674,-1.535683,150.31,0.0,6.0,118.77,21 / 22,4911,2019-09-07 10:27:18:065,0.9317,-0.7285,9.7955,0.0032,-0.007,9.8066,0.0099,0.0065,0.0037,-41.75,-26.75,26.25,348.0,-84.32,-133.05
44276,52.38674,-1.535683,150.31,0.0,6.0,118.77,21 / 22,5010,2019-09-07 10:27:18:164,0.8487,-0.601,9.8361,0.0034,-0.0049,9.8066,0.0086,0.0024,0.0099,-41.25,-26.31,26.94,349.1,-84.26,-133.64
44277,52.38674,-1.535683,150.31,0.0,6.0,118.77,21 / 22,5110,2019-09-07 10:27:18:264,-0.6685,-0.1593,9.532,-0.0073,-0.0069,9.8066,-0.0066,-0.0637,-0.0047,-41.44,-26.37,26.06,348.34,-84.15,-133.35
44278,52.38674,-1.535683,150.31,0.0,6.0,118.77,21 / 22,5210,2019-09-07 10:27:18:364,0.9744,-0.6881,9.8544,-0.0001,0.0029,9.8066,-0.0088,0.0023,-0.0117,-41.12,-26.5,26.31,348.41,-84.17,-133.29
44279,52.38674,-1.535683,150.31,0.0,6.0,118.77,24 / 24,5310,2019-09-07 10:27:18:464,0.8827,-0.5857,9.8477,-0.0062,-0.014,9.8066,-0.0334,-0.0108,0.0819,-41.37,-26.25,26.88,350.2,-84.09,-132.58
44280,52.38674,-1.535683,150.31,0.0,6.0,118.77,24 / 24,5411,2019-09-07 10:27:18:565,0.7602,-0.6401,9.8165,-0.0148,-0.0152,9.8066,-0.0187,-0.0031,0.0416,-42.0,-26.06,26.31,351.82,-83.88,-129.43
44281,52.38674,-1.535683,150.31,0.0,6.0,118.77,24 / 24,5510,2019-09-07 10:27:18:664,0.8249,-0.9129,10.0813,-0.006,0.019,9.8066,0.0174,0.0503,-0.1136,-41.37,-25.94,26.31,354.31,-83.89,-127.72
44282,52.38674,-1.535683,150.31,0.0,6.0,118.77,24 / 24,5610,2019-09-07 10:27:18:764,-0.5042,-0.1042,9.8298,0.0002,0.0051,9.8066,-0.0055,0.0833,-0.0032,-41.19,-26.31,25.69,352.8,-84.21,-129.15
44283,52.38674,-1.535683,150.31,0.0,6.0,118.77,24 / 24,5710,2019-09-07 10:27:18:864,0.7119,-0.6417,9.769,-0.0035,0.0163,9.8066,-0.0296,-0.0123,-0.0071,-41.31,-26.62,26.19,352.56,-84.41,-129.38
44284,52.38674,-1.535683,150.31,0.0,6.0,118.77,24 / 24,5810,2019-09-07 10:27:18:964,0.8279,-0.524,9.7578,0.0004,-0.0009,9.8066,-0.003,0.0039,0.0073,-41.37,-26.69,25.56,352.8,-84.45,-129.16
44285,52.38674,-1.535683,150.31,0.0,6.0,118.77,24 / 24,5910,2019-09-07 10:27:19:064,0.8986,-0.8443,9.8714,-0.001,-0.0071,9.8066,0.0029,0.0824,0.0244,-41.44,-27.12,25.69,353.07,-84.36,-128.9
44286,52.38674,-1.535683,150.31,0.0,6.0,118.77,24 / 24,6010,2019-09-07 10:27:19:164,0.8649,-0.692,9.7609,0.0008,0.0013,9.8066,-0.0013,0.0254,0.0092,-41.75,-26.37,26.06,352.56,-84.39,-128.78
44287,52.38674,-1.535683,150.31,0.0,6.0,118.77,24 / 24,6110,2019-09-07 10:27:19:264,0.711,-0.577,9.7646,0.0014,0.0002,9.8066,0.0009,0.013,0.0047,-41.25,-26.31,25.75,353.02,-84.39,-128.96
44288,52.38674,-1.535683,150.31,0.0,6.0,118.77,24 / 24,6210,2019-09-07 10:27:19:364,1.0041,-0.681,9.9423,0.003,-0.0012,9.8066,-0.0021,-0.0036,-0.0059,-41.75,-26.44,25.31,350.96,-84.38,-129.29
44289,52.38674,-1.535683,150.31,0.0,6.0,118.77,22 / 23,6310,2019-09-07 10:27:19:464,0.7773,-0.4834,9.7359,0.002,-0.001,9.8066,-0.0097,-0.011,-0.0185,-41.0,-26.25,25.75,352.22,-84.37,-129.72
44290,52.38674,-1.535683,150.31,0.0,6.0,118.77,22 / 23,6411,2019-09-07 10:27:19:565,0.8351,-0.6417,9.8194,0.0019,-0.0021,9.8066,-0.0125,-0.0118,-0.0187,-41.25,-26.62,25.69,351.98,-84.35,-129.93
44291,52.38674,-1.535683,150.31,0.0,6.0,118.77,22 / 23,6511,2019-09-07 10:27:19:665,0.9118,-0.6953,9.8315,0.0033,-0.0029,9.8066,-0.0045,0.0064,-0.0076,-42.06,-26.75,25.31,349.83,-84.3,-130.32
44292,52.38674,-1.535683,150.31,0.0,6.0,118.77,22 / 23,6610,2019-09-07 10:27:19:764,0.7263,-0.5317,9.7276,0.003,-0.0029,9.8066,0.0034,0.0056,0.0029,-41.56,-26.81,25.75,350.55,-84.27,-130.65
44293,52.38674,-1.535683,150.31,0.0,6.0,118.77,22 / 23,6710,2019-09-07 10:27:19:864,0.7573,-0.5374,9.7939,0.0034,-0.0015,9.8066,0.0039,0.0239,0.0105,-41.62,-26.44,25.5,350.1,-84.23,-131.09
44294,52.38674,-1.535683,150.31,0.0,6.0,118.77,22 / 23,6810,2019-09-07 10:27:19:964,0.8978,-0.6428,9.9038,0.0035,-0.0006,9.8066,0.0025,0.0236,0.0077,-41.06,-26.62,24.94,349.05,-84.21,-131.65
44295,52.38674,-1.535683,150.31,0.0,6.0,118.77,22 / 23,6910,2019-09-07 10:27:20:064,0.6722,-0.4573,9.7225,0.0035,0.0004,9.8066,-0.0058,0.0086,-0.009,-41.44,-26.87,25.38,348.69,-84.2,-131.98
44296,52.38674,-1.535683,150.31,0.0,6.0,118.77,22 / 23,7010,2019-09-07 10:27:20:164,0.7156,-0.5285,9.7738,0.0024,-0.0015,9.8066,-0.0065,-0.0105,-0.012,-41.5,-26.69,25.5,349.44,-84.18,-132.3
44297,52.38674,-1.535683,150.31,0.0,6.0,118.77,22 / 23,7110,2019-09-07 10:27:20:264,0.871,-0.6369,9.8976,0.0022,-0.0006,9.8066,-0.0072,-0.0152,-0.0131,-41.56,-27.06,25.63,348.35,-84.15,-132.7
44298,52.38674,-1.535683,150.31,0.0,6.0,118.77,22 / 23,7210,2019-09-07 10:27:20:364,0.6982,-0.4492,9.7306,0.002,-0.0032,9.8065,-0.0042,0.0101,-0.0028,-40.87,-26.5,25.31,347.53,-84.09,-133.09
44299,52.38674,-1.535683,150.31,0.0,6.0,118.77,23 / 23,7311,2019-09-07 10:27:20:465,0.6816,-0.5359,9.8056,0.0023,-0.002,9.8066,0.0048,0.0164,0.0053,-41.37,-26.81,25.06,347.23,-84.06,-133.34
44300,52.38674,-1.535683,150.31,0.0,6.0,118.77,23 / 23,7410,2019-09-07 10:27:20:564,0.6351,-0.4938,9.7461,0.0059,-0.0039,9.8066,-0.009,0.0016,-0.0072,-41.44,-27.0,25.81,347.84,-84.02,-133.78
44301,52.38674,-1.535683,150.31,0.0,6.0,118.77,23 / 23,7510,2019-09-07 10:27:20:664,0.7017,-0.4381,9.7549,0.0042,-0.0044,9.8066,-0.0016,0.0189,0.0007,-40.56,-26.56,25.38,346.51,-83.99,-134.01
44302,52.38674,-1.535683,150.31,0.0,6.0,118.77,23 / 23,7611,2019-09-07 10:27:20:765,0.737,-0.5706,9.844,0.0029,-0.0017,9.8066,0.0036,0.0192,0.0109,-41.12,-26.56,25.56,347.1,-83.96,-134.46
44303,52.38674,-1.535683,150.31,0.0,6.0,118.77,23 / 23,7711,2019-09-07 10:27:20:865,0.8314,-0.4039,9.7994,0.0033,-0.0003,9.8065,-0.0067,0.0389,-0.021,-41.5,-26.81,25.69,346.78,-83.93,-134.75
44304,52.38674,-1.535683,150.31,0.0,6.0,118.77,23 / 23,7810,2019-09-07 10:27:20:964,0.6917,-0.4546,9.7475,0.0047,-0.0002,9.8065,-0.0071,-0.0247,-0.0185,-41.19,-26.94,25.63,346.38,-83.93,-135.14
44305,52.38674,-1.535683,150.31,0.0,6.0,118.77,23 / 23,7910,2019-09-07 10:27:21:064,0.808,-0.5549,9.9054,0.0041,0.0019,9.8066,-0.0091,-0.021,-0.0231,-41.25,-26.94,25.75,345.64,-83.93,-135.82
44306,52.38674,-1.535683,150.31,0.0,6.0,118.77,23 / 23,8010,2019-09-07 10:27:21:164,0.6634,-0.567,9.7318,0.0027,-0.0022,9.8066,0.0033,0.028,0.0106,-41.69,-26.87,25.63,344.46,-83.94,-136.33
44307,52.38674,-1.535683,150.31,0.0,6.0,118.77,23 / 23,8113,2019-09-07 10:27:21:267,0.5603,-0.511,9.7224,0.0007,-0.0035,9.8066,0.0024,0.0199,0.0092,-41.94,-27.12,25.56,344.12,-83.9,-136.64
44308,52.38674,-1.535683,150.31,0.0,6.0,118.77,23 / 23,8210,2019-09-07 10:27:21:364,0.6093,-0.5592,9.7373,0.0039,0.0,9.8066,-0.0003,0.0086,0.0015,-41.06,-26.87,25.38,343.07,-83.87,-137.21
44309,52.38674,-1.535683,150.31,0.0,6.0,118.77,21 / 23,8311,2019-09-07 10:27:21:465,0.8164,-0.5544,9.965,0.0024,-0.0015,9.8066,-0.0048,0.0098,-0.0086,-41.44,-26.81,25.25,342.94,-83.83,-137.32
44310,52.38674,-1.535683,150.31,0.0,6.0,118.77,21 / 23,8411,2019-09-07 10:27:21:565,0.6931,-0.6129,9.8349,0.0044,0.0003,9.8066,-0.0073,-0.0139,-0.0239,-41.37,-27.19,25.06,342.48,-83.8,-137.75
44311,52.38674,-1.535683,150.31,0.0,6.0,118.77,21 / 23,8510,2019-09-07 10:27:21:664,0.5943,-0.457,9.7611,0.0035,-0.0002,9.8066,-0.005,-0.0114,-0.0135,-41.44,-26.94,25.63,343.09,-83.81,-138.19
44312,52.38674,-1.535683,150.31,0.0,6.0,118.77,21 / 23,8611,2019-09-07 10:27:21:765,0.751,-0.4544,9.899,0.0022,-0.0038,9.8066,0.0157,0.0724,0.0458,-41.5,-26.81,25.06,341.44,-83.8,-138.72
44313,52.38674,-1.535683,150.31,0.0,6.0,118.77,21 / 23,8710,2019-09-07 10:27:21:864,0.9623,-0.6237,10.07,0.0032,0.0,9.8066,-0.0008,0.0151,-0.0004,-41.37,-26.69,25.56,343.41,-83.61,-137.86
44314,52.38674,-1.535683,150.31,0.0,6.0,118.77,21 / 23,8810,2019-09-07 10:27:21:964,0.6599,-0.4342,9.8117,0.0013,-0.0019,9.8066,-0.003,0.0086,-0.0021,-41.69,-26.56,25.5,342.42,-83.58,-138.17
44315,52.38674,-1.535683,150.31,0.0,6.0,118.77,21 / 23,8910,2019-09-07 10:27:22:064,0.646,-0.3955,9.7711,0.0023,-0.0014,9.8066,0.0072,0.0337,0.0149,-41.25,-26.62,25.63,342.96,-83.54,-138.27
44316,52.38674,-1.535683,150.31,0.0,6.0,118.77,21 / 23,9010,2019-09-07 10:27:22:164,0.6991,-0.4861,9.9064,0.0026,-0.0008,9.8066,0.0029,0.0217,0.0101,-40.81,-26.56,25.38,341.52,-83.51,-138.59
44317,52.38674,-1.535683,150.31,0.0,6.0,118.77,21 / 23,9110,2019-09-07 10:27:22:264,0.6006,-0.39,9.7542,0.0033,-0.0014,9.8066,0.0054,0.0087,0.0056,-41.69,-26.56,26.06,341.72,-83.5,-138.82
44318,52.38674,-1.535683,150.31,0.0,6.0,118.77,21 / 23,9211,2019-09-07 10:27:22:365,0.7511,-0.4732,9.9057,0.0012,0.0,9.8066,-0.0077,-0.0108,-0.0115,-41.44,-26.87,25.38,340.95,-83.48,-139.12
44319,52.38674,-1.535683,150.31,0.0,6.0,118.77,20 / 22,9310,2019-09-07 10:27:22:464,0.5208,-0.4302,9.7766,0.0014,-0.0014,9.8066,-0.0096,-0.0093,-0.0126,-41.44,-26.94,25.63,341.86,-83.46,-139.28
44320,52.38674,-1.535683,150.31,0.0,6.0,118.77,20 / 22,9410,2019-09-07 10:27:22:564,0.7014,-0.5029,9.9364,0.0023,-0.0003,9.8066,0.0038,0.0199,0.0104,-42.06,-26.56,25.88,340.98,-83.43,-139.5
44321,52.38674,-1.535683,150.31,0.0,6.0,118.77,20 / 22,9510,2019-09-07 10:27:22:664,0.7607,-0.5454,9.9478,0.0014,-0.0024,9.8066,-0.0053,0.0057,0.0005,-41.25,-26.44,25.75,341.51,-83.41,-139.63
44322,52.38674,-1.535683,150.31,0.0,6.0,118.77,20 / 22,9610,2019-09-07 10:27:22:764,0.5513,-0.3964,9.8267,0.0019,-0.0014,9.8066,-0.0039,-0.0037,-0.0078,-40.87,-26.75,25.31,340.32,-83.36,-139.68
44323,52.38674,-1.535683,150.31,0.0,6.0,118.77,20 / 22,9710,2019-09-07 10:27:22:864,0.6194,-0.4069,9.8508,0.0022,-0.0017,9.8066,-0.0075,-0.0115,-0.018,-41.75,-26.94,24.88,339.49,-83.33,-139.85
44324,52.38674,-1.535683,150.31,0.0,6.0,118.77,20 / 22,9811,2019-09-07 10:27:22:965,0.5073,-0.3826,9.7435,0.0019,-0.0015,9.8066,-0.004,-0.0046,-0.0104,-41.56,-26.62,25.69,340.45,-83.3,-139.97
44325,52.38674,-1.535683,150.31,0.0,6.0,118.77,20 / 22,9910,2019-09-07 10:27:23:064,0.7076,-0.495,9.9692,0.0018,-0.0009,9.8066,0.0002,0.0099,0.0014,-41.5,-26.5,25.56,340.93,-83.28,-140.16
44326,52.38674,-1.535683,150.31,0.0,6.0,118.77,20 / 22,10011,2019-09-07 10:27:23:165,0.4866,-0.3589,9.806,0.0028,-0.0013,9.8066,0.0048,0.0187,0.0107,-41.12,-27.5,25.38,339.45,-83.25,-140.47
44327,52.38674,-1.535683,150.31,0.0,6.0,118.77,20 / 22,10110,2019-09-07 10:27:23:264,0.7137,-0.4449,9.9715,0.0024,-0.0011,9.8066,0.0035,0.0175,0.0053,-41.94,-26.44,25.13,338.8,-83.23,-140.53
44328,52.38674,-1.535683,150.31,0.0,6.0,118.77,20 / 22,10210,2019-09-07 10:27:23:364,0.626,-0.4598,9.8449,0.0029,-0.0018,9.8066,0.0018,0.0118,0.003,-41.19,-26.69,25.81,340.24,-83.21,-140.74
44329,52.38674,-1.535683,150.31,0.0,6.0,118.77,21 / 24,10310,2019-09-07 10:27:23:464,0.7511,-0.549,9.9678,0.0006,-0.0006,9.8066,-0.0066,-0.0085,-0.0125,-41.31,-26.37,25.81,340.08,-83.15,-140.92
44330,52.38674,-1.535683,150.31,0.0,6.0,118.77,21 / 24,10410,2019-09-07 10:27:23:564,0.4798,-0.3611,9.73,0.0021,-0.0024,9.8066,-0.0091,-0.0122,-0.0134,-41.5,-26.94,25.13,338.79,-83.12,-141.04
44331,52.38674,-1.535683,150.31,0.0,6.0,118.77,21 / 24,10511,2019-09-07 10:27:23:665,0.669,-0.5003,9.9519,0.0027,-0.0006,9.8066,-0.0065,-0.001,-0.0077,-41.19,-26.87,25.88,339.75,-83.09,-141.17
44332,52.38674,-1.535683,150.31,0.0,6.0,118.77,21 / 24,10610,2019-09-07 10:27:23:764,0.7078,-0.501,10.0496,0.0012,-0.0011,9.8066,-0.0031,0.0177,-0.004,-41.75,-26.87,25.69,338.86,-83.07,-141.39
44333,52.38674,-1.535683,150.31,0.0,6.0,118.77,21 / 24,10710,2019-09-07 10:27:23:864,0.507,-0.3856,9.788,0.0014,0.0001,9.8066,0.004,0.0224,0.0086,-42.06,-26.44,25.56,338.68,-83.05,-141.61
44334,52.38674,-1.535683,150.31,0.0,6.0,118.77,21 / 24,10810,2019-09-07 10:27:23:964,0.5302,-0.4289,9.8742,0.0021,-0.0008,9.8066,0.0039,0.0294,0.0124,-41.31,-26.62,25.69,338.99,-83.04,-141.86
44335,52.38674,-1.535683,150.31,0.0,6.0,118.77,21 / 24,10910,2019-09-07 10:27:24:064,0.4143,-0.3635,9.7937,0.0017,-0.002,9.8066,0.0048,0.0186,0.0107,-41.25,-26.75,25.94,338.86,-83.02,-141.98
44336,52.38674,-1.535683,150.31,0.0,6.0,118.77,21 / 24,11010,2019-09-07 10:27:24:164,0.4416,-0.2934,9.7065,0.0017,-0.0016,9.8066,-0.0032,0.0039,-0.0062,-41.69,-26.44,25.56,338.1,-82.97,-142.13
44337,52.38674,-1.535683,150.31,0.0,6.0,118.77,21 / 24,11110,2019-09-07 10:27:24:264,0.631,-0.4949,9.8654,0.0014,-0.0006,9.8066,-0.0055,-0.0181,-0.015,-41.19,-26.31,25.44,337.48,-82.94,-142.28
44338,52.38674,-1.535683,150.31,0.0,6.0,118.77,21 / 24,11210,2019-09-07 10:27:24:364,0.3938,-0.3184,9.7615,0.0028,-0.0013,9.8066,-0.0073,-0.0146,-0.0157,-41.69,-26.0,25.25,336.67,-82.92,-142.45
44339,52.38674,-1.535683,150.31,0.0,6.0,118.77,22 / 23,11310,2019-09-07 10:27:24:464,0.6295,-0.4737,10.0108,0.0028,-0.0005,9.8066,-0.0046,0.0083,-0.0011,-41.37,-27.06,26.25,338.25,-82.9,-142.52
44340,52.38674,-1.535683,150.31,0.0,6.0,118.77,22 / 23,11410,2019-09-07 10:27:24:564,0.6359,-0.4703,9.8809,0.0022,-0.0014,9.8066,-0.0038,-0.0048,-0.0131,-41.25,-26.56,25.38,336.89,-82.88,-142.75
44341,52.38674,-1.535683,150.31,0.0,6.0,118.77,22 / 23,11510,2019-09-07 10:27:24:664,0.3911,-0.3194,9.7607,0.0019,-0.0031,9.8065,-0.0056,-0.011,-0.0121,-41.44,-27.19,26.06,337.85,-82.88,-142.89
44342,52.38674,-1.535683,150.31,0.0,6.0,118.77,22 / 23,11610,2019-09-07 10:27:24:764,0.5538,-0.3259,9.8749,-0.0008,-0.0076,9.8066,-0.0087,-0.0082,-0.0117,-41.44,-27.06,25.88,337.88,-82.81,-142.84
44343,52.38674,-1.535683,150.31,0.0,6.0,118.77,22 / 23,11710,2019-09-07 10:27:24:864,0.512,-0.4606,9.8016,0.0016,-0.0009,9.8066,-0.0075,-0.0075,-0.0152,-41.75,-26.75,24.94,336.03,-82.78,-142.95
44344,52.38674,-1.535683,150.31,0.0,6.0,118.77,22 / 23,11810,2019-09-07 10:27:24:964,0.419,-0.289,9.8595,0.0023,0.0021,9.8066,-0.0184,-0.0124,-0.01,-41.12,-26.75,25.25,336.45,-82.76,-143.13
44345,52.38674,-1.535683,150.31,0.0,6.0,118.77,22 / 23,11910,2019-09-07 10:27:25:064,0.8063,-0.4657,9.9608,-0.0213,0.0185,9.8066,-0.1145,-0.027,-0.0217,-41.12,-26.81,25.63,338.83,-83.06,-142.01
44346,52.38674,-1.535683,150.31,0.0,6.0,118.77,22 / 23,12010,2019-09-07 10:27:25:164,0.4052,-0.3111,9.9248,-0.0401,0.0314,9.8064,-0.0928,-0.0184,-0.0312,-41.75,-27.75,25.0,339.32,-83.48,-140.0
44347,52.38674,-1.535683,150.31,0.0,6.0,118.77,22 / 23,12110,2019-09-07 10:27:25:264,0.4746,-0.3108,9.9366,-0.0162,0.0129,9.8066,-0.0153,0.009,-0.0113,-41.12,-26.87,25.56,341.97,-83.72,-139.23
44348,52.38674,-1.535683,150.31,0.0,6.0,118.77,22 / 23,12210,2019-09-07 10:27:25:364,0.4938,-0.4363,9.8816,-0.0072,0.0055,9.8066,-0.0177,-0.0027,-0.0016,-41.06,-27.31,24.88,341.88,-83.87,-138.33
44349,52.38674,-1.535683,150.31,0.0,6.0,118.77,22 / 25,12310,2019-09-07 10:27:25:464,0.5359,-0.4459,9.9349,-0.0001,-0.003,9.8066,0.0001,0.0011,-0.0038,-41.69,-28.06,25.0,342.48,-83.97,-137.15
44350,52.38674,-1.535683,150.31,0.0,6.0,118.77,22 / 25,12410,2019-09-07 10:27:25:564,0.4708,-0.397,9.8207,0.0053,-0.0046,9.8066,0.0107,0.0114,-0.0005,-41.25,-27.25,24.63,342.76,-83.92,-137.51
44351,52.38674,-1.535683,150.31,0.0,6.0,118.77,22 / 25,12510,2019-09-07 10:27:25:664,0.7196,-0.3112,9.6381,0.0449,-0.0142,9.8065,0.1006,0.0731,0.0048,-41.56,-27.75,24.38,340.32,-83.85,-138.12
44352,52.38674,-1.535683,150.31,0.0,6.0,118.77,22 / 25,12610,2019-09-07 10:27:25:764,0.697,-0.4657,9.8934,0.0298,-0.0175,9.8065,0.0613,0.0153,0.0162,-41.62,-27.31,25.38,336.68,-83.33,-142.48
44353,52.38674,-1.535683,150.31,0.0,6.0,118.77,22 / 25,12710,2019-09-07 10:27:25:864,0.3603,-0.2868,9.7684,0.0042,-0.0016,9.8066,0.0113,0.0278,0.0129,-40.87,-27.5,24.75,336.65,-83.2,-143.07
44354,52.38674,-1.535683,150.31,0.0,6.0,118.77,22 / 25,12811,2019-09-07 10:27:25:965,0.551,-0.358,9.8712,0.0018,-0.0024,9.8066,0.0055,0.0227,0.0099,-41.44,-27.06,25.06,336.33,-83.16,-143.35
44355,52.38674,-1.535683,150.31,0.0,6.0,118.77,22 / 25,12910,2019-09-07 10:27:26:064,0.4208,-0.3381,9.7714,0.0023,-0.0022,9.8066,0.003,0.0157,0.005,-41.19,-27.06,25.06,336.17,-83.11,-143.48
44356,52.38674,-1.535683,150.31,0.0,6.0,118.77,22 / 25,13010,2019-09-07 10:27:26:164,0.2768,-0.1481,9.7726,0.0025,0.0027,9.8066,0.0016,-0.0106,-0.0094,-41.0,-27.31,24.88,335.93,-83.09,-143.7
44357,52.38674,-1.535683,150.31,0.0,6.0,118.77,22 / 25,13110,2019-09-07 10:27:26:264,0.5878,-0.449,9.9704,0.0006,-0.003,9.8066,-0.0012,0.0011,-0.0002,-41.44,-26.81,25.63,336.87,-82.99,-143.82
44358,52.38674,-1.535683,150.31,0.0,6.0,118.77,22 / 25,13210,2019-09-07 10:27:26:364,0.3858,-0.2589,9.7696,0.0028,-0.0009,9.8066,-0.0065,-0.0198,-0.0214,-41.06,-27.12,25.38,335.82,-82.94,-143.76
44359,52.38674,-1.535683,150.31,0.0,6.0,118.77,23 / 24,13310,2019-09-07 10:27:26:464,0.3253,-0.2987,9.7735,0.0008,-0.0017,9.8066,-0.0095,-0.0017,-0.0139,-41.25,-27.12,25.19,335.53,-82.91,-144.03
44360,52.38674,-1.535683,150.31,0.0,6.0,118.77,23 / 24,13411,2019-09-07 10:27:26:565,0.3758,-0.2343,9.692,0.0018,-0.0015,9.8066,-0.0023,-0.0066,-0.0138,-41.31,-27.44,25.56,336.51,-82.9,-144.14
44361,52.38674,-1.535683,150.31,0.0,6.0,118.77,23 / 24,13510,2019-09-07 10:27:26:664,0.3647,-0.2579,9.8382,0.0023,-0.0011,9.8066,-0.0047,-0.0184,-0.016,-41.31,-26.94,24.5,335.27,-82.88,-144.26
44362,52.38674,-1.535683,150.31,0.0,6.0,118.77,23 / 24,13611,2019-09-07 10:27:26:765,0.576,-0.389,9.9666,0.0022,0.0,9.8065,-0.0064,-0.0125,-0.0148,-40.75,-27.19,24.81,334.97,-82.85,-144.54
44363,52.38674,-1.535683,150.31,0.0,6.0,118.77,23 / 24,13710,2019-09-07 10:27:26:864,0.4166,-0.3514,9.8137,0.0016,-0.0009,9.8066,-0.005,0.0087,-0.0031,-40.69,-26.87,24.94,334.74,-82.82,-144.74
44364,52.38674,-1.535683,150.31,0.0,6.0,118.77,23 / 24,13810,2019-09-07 10:27:26:964,0.5752,-0.4401,9.9714,0.0023,-0.0005,9.8066,0.0013,0.0184,0.005,-41.31,-27.0,25.19,334.66,-82.82,-144.81
44365,52.38674,-1.535683,150.31,0.0,6.0,118.77,23 / 24,13910,2019-09-07 10:27:27:064,0.3725,-0.3282,9.7942,0.0026,-0.0007,9.8066,0.0042,0.019,0.011,-41.37,-26.44,25.5,335.57,-82.79,-145.05
44366,52.38674,-1.535683,150.31,0.0,6.0,118.77,23 / 24,14011,2019-09-07 10:27:27:165,0.3837,-0.2035,9.7628,0.002,-0.002,9.8066,0.0012,0.0102,0.0026,-40.62,-27.12,25.44,334.26,-82.78,-145.17
44367,52.38674,-1.535683,150.31,0.0,6.0,118.77,23 / 24,14110,2019-09-07 10:27:27:264,0.5105,-0.4252,9.9974,0.0022,-0.0024,9.8066,-0.0052,-0.0027,-0.0122,-40.94,-27.12,25.19,334.11,-82.73,-145.3
44368,52.38674,-1.535683,150.31,0.0,6.0,118.77,23 / 24,14211,2019-09-07 10:27:27:365,0.4202,-0.3295,9.8379,0.0014,-0.0016,9.8066,-0.0059,-0.0169,-0.0208,-41.62,-27.06,24.81,333.34,-82.72,-145.43
44369,52.38674,-1.535683,150.31,0.0,6.0,118.77,22 / 24,14310,2019-09-07 10:27:27:464,0.507,-0.3671,10.0178,0.0012,-0.0005,9.8066,-0.0015,0.0012,-0.0087,-41.69,-26.56,24.75,333.17,-82.7,-145.59
44370,52.38674,-1.535683,150.31,0.0,6.0,118.77,22 / 24,14410,2019-09-07 10:27:27:564,0.37,-0.3068,9.7862,0.0016,-0.0004,9.8066,0.0026,0.0115,0.0048,-41.44,-26.81,25.19,333.37,-82.69,-145.98
44371,52.38674,-1.535683,150.31,0.0,6.0,118.77,22 / 24,14511,2019-09-07 10:27:27:665,0.3831,-0.2616,9.8109,-0.0012,-0.0029,9.8066,0.0055,0.0359,0.0192,-41.94,-27.31,24.94,332.57,-82.68,-146.14
44372,52.38674,-1.535683,150.31,0.0,6.0,118.77,22 / 24,14610,2019-09-07 10:27:27:764,0.4456,-0.3847,9.9449,-0.0001,-0.0053,9.8066,-0.0038,0.004,-0.0012,-41.06,-26.87,25.38,333.22,-82.64,-146.1
44373,52.38674,-1.535683,150.31,0.0,6.0,118.77,22 / 24,14710,2019-09-07 10:27:27:864,0.3837,-0.2472,9.8154,0.0027,0.0013,9.8066,-0.0148,-0.0202,-0.0235,-41.5,-27.12,25.44,333.1,-82.6,-146.2
44374,52.38674,-1.535683,150.31,0.0,6.0,118.77,22 / 24,14810,2019-09-07 10:27:27:964,0.5134,-0.2334,9.8515,0.0093,0.007,9.8066,-0.0032,-0.0146,-0.0115,-41.69,-26.94,25.25,331.68,-82.49,-146.91
44375,52.38674,-1.535683,150.31,0.0,6.0,118.77,22 / 24,14910,2019-09-07 10:27:28:064,0.448,-0.3979,9.9982,-0.0006,-0.0099,9.8065,-0.0017,0.0071,-0.0014,-40.81,-26.69,25.13,331.77,-82.48,-147.4
44376,52.38674,-1.535683,150.31,0.0,6.0,118.77,22 / 24,15010,2019-09-07 10:27:28:164,0.4127,-0.379,9.8745,0.004,0.013,9.8065,-0.0222,-0.0558,-0.0464,-41.0,-27.19,25.0,331.98,-82.39,-147.17
44377,52.38674,-1.535683,150.31,0.0,6.0,118.77,22 / 24,15110,2019-09-07 10:27:28:264,0.4241,-0.0898,9.879,0.0102,-0.0069,9.8066,0.0222,0.0217,0.0241,-41.56,-26.94,25.75,331.29,-82.39,-148.26
44378,52.38674,-1.535683,150.31,0.0,6.0,118.77,22 / 24,15211,2019-09-07 10:27:28:365,0.7164,-0.8297,9.769,-0.0092,-0.008,9.8066,-0.0435,0.0543,0.0,-41.44,-27.25,25.31,331.28,-82.21,-147.76
44379,52.38674,-1.535683,150.31,0.0,6.0,118.77,22 / 25,15310,2019-09-07 10:27:28:464,0.5181,-0.3686,10.068,0.0011,0.0018,9.8066,-0.0065,-0.0015,-0.0098,-41.19,-27.12,25.81,332.99,-82.34,-147.25
44380,52.38674,-1.535683,150.31,0.0,6.0,118.77,22 / 25,15411,2019-09-07 10:27:28:565,0.2948,-0.2835,9.8034,0.0002,-0.0006,9.8065,-0.0077,-0.0066,-0.0121,-41.19,-26.87,25.31,331.84,-82.35,-147.29
44381,52.38674,-1.535683,150.31,0.0,6.0,118.77,22 / 25,15510,2019-09-07 10:27:28:664,0.2791,-0.1559,9.7483,0.0004,-0.0001,9.8066,-0.0059,-0.0126,-0.0142,-41.62,-26.94,25.31,331.24,-82.34,-147.28
44382,52.38674,-1.535683,150.31,0.0,6.0,118.77,22 / 25,15610,2019-09-07 10:27:28:764,0.2791,-0.1559,9.7483,0.0004,-0.0001,9.8066,-0.0093,-0.0213,-0.0179,-41.69,-27.0,25.25,331.24,-82.34,-147.28
44383,52.38674,-1.535683,150.31,0.0,6.0,118.77,22 / 25,15711,2019-09-07 10:27:28:865,0.4628,-0.3827,9.931,0.0012,-0.0008,9.8066,0.0068,0.0222,0.0103,-41.37,-26.75,25.25,331.55,-82.33,-147.56
44384,52.38674,-1.535683,150.31,0.0,6.0,118.77,22 / 25,15811,2019-09-07 10:27:28:965,0.2736,-0.1723,9.7076,0.0015,-0.0014,9.8066,0.0004,0.0075,0.002,-41.5,-26.44,25.25,331.55,-82.31,-147.63
44385,52.38674,-1.535683,150.31,0.0,6.0,118.77,22 / 25,15910,2019-09-07 10:27:29:064,0.3945,-0.3035,9.9861,0.0024,0.0016,9.8066,-0.0047,-0.0163,-0.015,-41.5,-27.12,25.44,331.35,-82.3,-147.74
44386,52.38674,-1.535683,150.31,0.0,6.0,118.77,22 / 25,16011,2019-09-07 10:27:29:165,0.4351,-0.3956,9.8821,0.0017,-0.0009,9.8065,-0.0047,-0.0156,-0.0156,-41.37,-26.75,25.13,331.24,-82.29,-147.83
44387,52.38674,-1.535683,150.31,0.0,6.0,118.77,22 / 25,16110,2019-09-07 10:27:29:264,0.3229,-0.2175,9.7495,0.0011,-0.0018,9.8066,-0.0096,-0.0042,-0.0127,-41.37,-26.87,25.06,331.1,-82.26,-147.95
44388,52.38674,-1.535683,150.31,0.0,6.0,118.77,22 / 25,16210,2019-09-07 10:27:29:364,0.1932,-0.2445,9.8361,-0.0012,-0.0005,9.8066,-0.0098,-0.001,-0.0071,-41.44,-26.19,25.13,331.27,-82.25,-147.87
44389,52.38674,-1.535683,150.31,0.0,6.0,118.77,23 / 23,16310,2019-09-07 10:27:29:464,0.4414,-0.3913,10.0191,-0.0001,-0.001,9.8066,0.0021,0.0183,0.0033,-41.25,-27.06,25.19,331.23,-82.24,-147.82
44390,52.38674,-1.535683,150.31,0.0,6.0,118.77,23 / 23,16414,2019-09-07 10:27:29:568,0.4481,-0.3319,9.9568,-0.0007,0.0011,9.8066,-0.0039,0.0286,0.0094,-41.56,-27.25,25.25,330.49,-82.22,-147.93
44391,52.38674,-1.535683,150.31,0.0,6.0,118.77,23 / 23,16510,2019-09-07 10:27:29:664,0.2362,-0.1884,9.7294,0.0016,-0.0002,9.8066,0.004,0.0186,0.0124,-41.37,-27.12,25.31,331.04,-82.22,-148.0
44392,52.38674,-1.535683,150.31,0.0,6.0,118.77,23 / 23,16610,2019-09-07 10:27:29:764,0.4142,-0.3863,10.0292,0.001,-0.0003,9.8066,-0.0002,0.0102,0.0002,-41.12,-26.25,25.56,331.99,-82.2,-148.21
44393,52.38674,-1.535683,150.31,0.0,6.0,118.77,23 / 23,16710,2019-09-07 10:27:29:864,0.3856,-0.3838,10.0103,0.0018,0.0008,9.8066,-0.0089,-0.0114,-0.009,-42.19,-27.12,25.38,330.03,-82.19,-148.35
44394,52.38674,-1.535683,150.31,0.0,6.0,118.77,23 / 23,16810,2019-09-07 10:27:29:964,0.2243,-0.19,9.7815,0.0008,-0.0014,9.8066,-0.0068,-0.0129,-0.0145,-41.44,-26.37,24.88,330.71,-82.19,-148.36
44395,52.38674,-1.535683,150.31,0.0,6.0,118.77,23 / 23,16910,2019-09-07 10:27:30:064,0.4428,-0.3267,9.948,0.0012,-0.0014,9.8066,-0.0023,0.0017,-0.0028,-41.06,-26.81,25.25,330.57,-82.16,-148.41
44396,52.38674,-1.535683,150.31,0.0,6.0,118.77,23 / 23,17010,2019-09-07 10:27:30:164,0.3697,-0.3448,9.9909,0.0008,-0.0022,9.8066,0.0007,0.0152,0.0041,-41.37,-26.87,25.44,330.57,-82.15,-148.4
44397,52.38674,-1.535683,150.31,0.0,6.0,118.77,23 / 23,17110,2019-09-07 10:27:30:264,0.1682,-0.2316,9.7812,0.0016,-0.0016,9.8066,0.0054,0.0248,0.0141,-41.62,-27.19,25.0,329.92,-82.11,-148.43
44398,52.38674,-1.535683,150.31,0.0,6.0,118.77,23 / 23,17210,2019-09-07 10:27:30:364,0.3773,-0.2662,9.9338,0.0011,-0.0007,9.8066,0.0044,0.0151,0.0089,-41.12,-27.12,25.19,330.47,-82.09,-148.48
44399,52.38674,-1.535683,150.31,0.0,6.0,118.77,24 / 24,17310,2019-09-07 10:27:30:464,0.3932,-0.3107,10.0527,0.0021,-0.0007,9.8066,0.003,0.0131,0.0037,-41.75,-26.5,25.13,329.83,-82.07,-148.57
44400,52.38674,-1.535683,150.31,0.0,6.0,118.77,24 / 24,17410,2019-09-07 10:27:30:564,0.2685,-0.2458,9.8424,0.0013,0.0003,9.8066,-0.0043,-0.0032,-0.0079,-41.69,-27.06,24.81,329.64,-82.07,-148.67
44401,52.38674,-1.535683,150.31,0.0,6.0,118.77,24 / 24,17510,2019-09-07 10:27:30:664,0.2341,-0.1618,9.7739,0.0003,0.0004,9.8066,-0.0097,-0.0127,-0.0212,-41.56,-26.56,24.94,329.56,-82.06,-148.74
44402,52.38674,-1.535683,150.31,0.0,6.0,118.77,24 / 24,17611,2019-09-07 10:27:30:765,0.1881,-0.168,9.7168,0.0003,0.0004,9.8066,-0.0097,-0.0127,-0.0212,-41.44,-26.44,25.13,330.24,-82.06,-148.76
44403,52.38674,-1.535683,150.31,0.0,6.0,118.77,24 / 24,17710,2019-09-07 10:27:30:864,0.135,-0.186,9.773,0.0013,-0.0008,9.8065,0.0022,0.0144,0.0014,-40.75,-27.56,25.13,329.93,-82.02,-148.87
44404,52.38674,-1.535683,150.31,0.0,6.0,118.77,24 / 24,17810,2019-09-07 10:27:30:964,0.3636,-0.2666,9.9469,0.0006,-0.0015,9.8066,-0.0077,-0.004,-0.0155,-41.37,-27.0,24.94,330.02,-82.0,-148.86
44405,52.38674,-1.535683,150.31,0.0,6.0,118.77,24 / 24,17911,2019-09-07 10:27:31:065,0.4532,-0.337,9.9104,0.0018,-0.0002,9.8066,-0.0089,-0.0154,-0.0216,-41.19,-26.87,25.44,329.94,-81.99,-148.93
44406,52.38674,-1.535683,150.31,0.0,6.0,118.77,24 / 24,18011,2019-09-07 10:27:31:165,0.2069,-0.2464,9.842,0.0007,-0.0006,9.8066,-0.0075,-0.0145,-0.0141,-41.19,-26.37,25.63,331.01,-81.98,-149.05
44407,52.38674,-1.535683,150.31,0.0,6.0,118.77,24 / 24,18111,2019-09-07 10:27:31:265,0.2065,-0.1719,9.7959,0.0009,-0.0002,9.8066,-0.0028,-0.0053,-0.0115,-41.06,-27.06,25.06,329.73,-81.97,-149.13
44408,52.38674,-1.535683,150.31,0.0,6.0,118.77,23 / 25,18210,2019-09-07 10:27:31:364,0.4293,-0.3589,9.9969,0.0014,-0.001,9.8066,-0.0007,0.0165,0.0076,-42.0,-26.94,25.13,329.02,-81.96,-149.21
44409,52.38674,-1.535683,150.31,0.0,6.0,118.77,23 / 25,18310,2019-09-07 10:27:31:464,0.3376,-0.3401,9.9082,0.0023,-0.0004,9.8066,0.0029,0.0297,0.0171,-41.44,-27.31,25.56,330.63,-81.94,-149.31
44410,52.38674,-1.535683,150.31,0.0,6.0,118.77,23 / 25,18410,2019-09-07 10:27:31:564,0.2047,-0.1241,9.7173,0.0009,-0.0017,9.8066,0.0029,0.0189,0.0047,-42.06,-26.75,25.31,328.91,-81.92,-149.3
44411,52.38674,-1.535683,150.31,0.0,6.0,118.77,23 / 25,18510,2019-09-07 10:27:31:664,0.4283,-0.3172,9.9952,0.0013,-0.0013,9.8066,0.0011,0.0112,0.0033,-41.12,-27.19,24.88,329.48,-81.89,-149.33
44412,52.38674,-1.535683,150.31,0.0,6.0,118.77,23 / 25,18610,2019-09-07 10:27:31:764,0.3812,-0.3068,9.9546,0.0005,-0.0016,9.8066,-0.0062,-0.0178,-0.0184,-41.19,-27.06,25.31,329.49,-81.88,-149.31
44413,52.38674,-1.535683,150.31,0.0,6.0,118.77,23 / 25,18710,2019-09-07 10:27:31:864,0.1665,-0.1184,9.7706,0.0006,0.0003,9.8066,-0.0099,-0.0062,-0.0176,-41.5,-27.06,25.13,329.43,-81.87,-149.37
44414,52.38674,-1.535683,150.31,0.0,6.0,118.77,23 / 25,18810,2019-09-07 10:27:31:964,0.3945,-0.2885,10.0085,0.0011,0.0,9.8066,-0.006,-0.004,-0.0083,-41.69,-26.87,25.19,328.77,-81.87,-149.41
44415,52.38674,-1.535683,150.31,0.0,6.0,118.77,23 / 25,18911,2019-09-07 10:27:32:065,0.2495,-0.2575,9.8355,0.0006,0.0007,9.8066,-0.0002,0.0147,0.0058,-41.69,-26.87,24.88,328.69,-81.86,-149.48
44416,52.38674,-1.535683,150.31,0.0,6.0,118.77,23 / 25,19010,2019-09-07 10:27:32:164,0.3056,-0.2244,9.9297,-0.0003,-0.0012,9.8066,0.0004,0.0215,0.0078,-41.5,-26.94,25.0,329.27,-81.86,-149.51
44417,52.38674,-1.535683,150.31,0.0,6.0,118.77,23 / 25,19110,2019-09-07 10:27:32:264,0.3613,-0.2749,9.9238,0.0018,-0.0004,9.8066,0.001,0.0124,0.0044,-42.19,-26.75,25.13,328.63,-81.84,-149.53
44418,52.38674,-1.535683,150.31,0.0,6.0,118.77,21 / 22,19210,2019-09-07 10:27:32:364,0.1899,-0.1916,9.7897,0.001,-0.001,9.8066,-0.014,0.0012,-0.0136,-41.19,-26.81,25.19,329.28,-81.82,-149.49
44419,52.38674,-1.535683,150.31,0.0,6.0,118.77,21 / 22,19310,2019-09-07 10:27:32:464,0.2857,-0.2219,9.9318,0.0012,-0.0004,9.8065,-0.0063,-0.0052,-0.0112,-41.62,-27.0,25.0,328.61,-81.81,-149.54
44420,52.38674,-1.535683,150.31,0.0,6.0,118.77,21 / 22,19410,2019-09-07 10:27:32:564,0.3158,-0.2904,9.8666,0.0018,0.0002,9.8066,-0.0053,0.0096,-0.0042,-41.56,-26.37,25.06,328.62,-81.8,-149.62
44421,52.38674,-1.535683,150.31,0.0,6.0,118.77,21 / 22,19510,2019-09-07 10:27:32:664,0.2407,-0.1079,9.7367,0.0013,0.0002,9.8066,0.0016,0.0167,0.0057,-41.87,-26.19,25.25,328.49,-81.8,-149.74
44422,52.38674,-1.535683,150.31,0.0,6.0,118.77,21 / 22,19610,2019-09-07 10:27:32:764,0.2476,-0.1786,9.8814,0.0001,-0.0014,9.8066,0.0039,0.0228,0.0113,-41.44,-26.62,25.06,329.01,-81.78,-149.72
44423,52.38674,-1.535683,150.31,0.0,6.0,118.77,21 / 22,19710,2019-09-07 10:27:32:864,0.3487,-0.339,9.9301,0.0005,-0.0012,9.8066,0.0025,0.0175,0.0061,-41.44,-27.19,25.0,329.0,-81.76,-149.73
44424,52.38674,-1.535683,150.31,0.0,6.0,118.77,21 / 22,19811,2019-09-07 10:27:32:965,0.1324,-0.1648,9.7796,0.0,-0.0017,9.8066,-0.0037,-0.0015,-0.0098,-41.62,-26.56,25.56,329.43,-81.74,-149.77
44425,52.38674,-1.535683,150.31,0.0,6.0,118.77,21 / 22,19910,2019-09-07 10:27:33:064,0.2164,-0.0811,9.7312,0.0011,-0.0006,9.8066,-0.0088,-0.0031,-0.0133,-41.19,-26.56,25.38,328.92,-81.72,-149.78
44426,52.38674,-1.535683,150.31,0.0,6.0,118.77,21 / 22,20010,2019-09-07 10:27:33:164,0.3632,-0.2536,10.0019,-0.0004,0.0,9.8066,-0.0147,-0.0135,-0.0231,-41.44,-26.94,24.88,328.92,-81.72,-149.78
44427,52.38674,-1.535683,150.31,0.0,6.0,118.77,21 / 22,20111,2019-09-07 10:27:33:265,0.1542,-0.1991,9.8445,0.0017,0.0003,9.8066,-0.0061,-0.0067,-0.011,-41.31,-27.0,25.31,328.87,-81.72,-149.83
44428,52.38674,-1.535683,150.31,0.0,6.0,118.77,21 / 22,20210,2019-09-07 10:27:33:364,0.3562,-0.3391,10.0508,0.0014,-0.0006,9.8065,-0.0036,0.0203,0.0048,-41.31,-26.62,24.81,328.82,-81.71,-149.88
44429,52.38674,-1.535683,150.31,0.0,6.0,118.77,21 / 23,20310,2019-09-07 10:27:33:464,0.2566,-0.2568,9.8801,0.0003,0.0001,9.8066,0.0057,0.0271,0.0137,-41.69,-27.0,25.81,329.3,-81.7,-149.88
44430,52.38674,-1.535683,150.31,0.0,6.0,118.77,21 / 23,20410,2019-09-07 10:27:33:564,0.388,-0.2117,9.9568,0.0009,-0.0007,9.8066,0.0062,0.0233,0.0088,-41.94,-27.0,25.25,328.16,-81.69,-149.91
44431,52.38674,-1.535683,150.31,0.0,6.0,118.77,21 / 23,20510,2019-09-07 10:27:33:664,0.311,-0.2578,9.8521,0.0014,-0.0011,9.8066,-0.0045,0.0163,0.0011,-40.87,-26.81,24.75,328.73,-81.67,-149.98
44432,52.38674,-1.535683,150.31,0.0,6.0,118.77,21 / 23,20610,2019-09-07 10:27:33:764,0.1282,-0.1493,9.7687,0.0016,-0.0002,9.8066,-0.0044,-0.0051,-0.0082,-41.69,-26.69,24.88,328.17,-81.66,-149.89
44433,52.38674,-1.535683,150.31,0.0,6.0,118.77,21 / 23,20710,2019-09-07 10:27:33:864,0.3207,-0.2341,9.8524,0.0014,0.0,9.8066,-0.0066,-0.0121,-0.0201,-41.0,-27.0,25.19,328.65,-81.65,-150.01
44434,52.38674,-1.535683,150.31,0.0,6.0,118.77,21 / 23,20811,2019-09-07 10:27:33:965,0.3032,-0.2546,9.8752,0.0001,0.0005,9.8066,-0.0059,0.005,-0.008,-41.37,-26.75,24.88,328.55,-81.64,-150.1
44435,52.38674,-1.535683,150.31,0.0,6.0,118.77,21 / 23,20910,2019-09-07 10:27:34:064,0.114,-0.1236,9.7188,0.0004,-0.0005,9.8066,0.0013,0.0125,0.0059,-41.31,-26.62,24.94,328.49,-81.65,-150.16
44436,52.38674,-1.535683,150.31,0.0,6.0,118.77,21 / 23,21010,2019-09-07 10:27:34:164,0.318,-0.1839,9.9451,0.0008,-0.0003,9.8066,0.0044,0.0214,0.0125,-41.37,-27.06,24.63,328.43,-81.64,-150.22
44437,52.38674,-1.535683,150.31,0.0,6.0,118.77,21 / 23,21114,2019-09-07 10:27:34:268,0.3042,-0.2689,9.9283,0.0007,-0.0011,9.8066,0.0019,0.0099,0.0035,-41.56,-26.62,25.19,327.77,-81.62,-150.25
44438,52.38674,-1.535683,150.31,0.0,6.0,118.77,21 / 23,21210,2019-09-07 10:27:34:364,0.0965,-0.1452,9.819,-0.0002,-0.001,9.8066,-0.0075,-0.0111,-0.014,-41.25,-26.69,25.5,329.52,-81.61,-150.23
44439,52.38674,-1.535683,150.31,0.0,6.0,118.77,22 / 22,21310,2019-09-07 10:27:34:464,0.2156,-0.2501,9.8509,0.0001,-0.0001,9.8065,-0.0103,-0.0025,-0.0108,-41.56,-26.37,25.06,327.92,-81.6,-150.19
44440,52.38674,-1.535683,150.31,0.0,6.0,118.77,22 / 22,21410,2019-09-07 10:27:34:564,0.1436,-0.1034,9.7087,0.0008,0.0,9.8066,-0.0038,0.0017,-0.0094,-41.06,-27.56,24.88,328.3,-81.6,-150.23
44441,52.38674,-1.535683,150.31,0.0,6.0,118.77,22 / 22,21510,2019-09-07 10:27:34:664,0.2724,-0.1761,9.9582,-0.0002,0.0002,9.8066,0.002,0.0156,0.0057,-41.37,-27.0,24.56,328.29,-81.6,-150.32
44442,52.38674,-1.535683,150.31,0.0,6.0,118.77,22 / 22,21610,2019-09-07 10:27:34:764,0.2283,-0.2738,9.9057,0.0008,0.0004,9.8066,0.0009,0.0249,0.0134,-41.25,-26.25,24.94,328.4,-81.59,-150.31
44443,52.38674,-1.535683,150.31,0.0,6.0,118.77,22 / 22,21710,2019-09-07 10:27:34:864,0.1369,-0.1388,9.7974,0.0002,-0.0013,9.8066,0.0034,0.0202,0.0101,-41.31,-27.06,25.31,328.3,-81.58,-150.31
44444,52.38674,-1.535683,150.31,0.0,6.0,118.77,22 / 22,21810,2019-09-07 10:27:34:964,0.1948,-0.1515,9.8075,0.0004,-0.0008,9.8066,-0.0039,0.0113,-0.0032,-42.0,-26.81,25.31,327.72,-81.57,-150.27
44445,52.38674,-1.535683,150.31,0.0,6.0,118.77,22 / 22,21910,2019-09-07 10:27:35:064,0.3349,-0.2943,9.9624,-0.0002,-0.0016,9.8065,-0.0065,-0.0097,-0.0137,-41.56,-26.87,25.13,327.74,-81.56,-150.26
44446,52.38674,-1.535683,150.31,0.0,6.0,118.77,22 / 22,22010,2019-09-07 10:27:35:164,0.2398,-0.2344,9.87,-0.0001,-0.001,9.8066,-0.0127,-0.0155,-0.0189,-41.44,-26.87,25.0,328.4,-81.55,-150.21
44447,52.38674,-1.535683,150.31,0.0,6.0,118.77,22 / 22,22113,2019-09-07 10:27:35:267,0.0889,-0.1152,9.7784,0.0009,0.0,9.8066,-0.0058,-0.0086,-0.0166,-41.19,-26.25,25.13,328.51,-81.55,-150.19
44448,52.38674,-1.535683,150.31,0.0,6.0,118.77,22 / 22,22210,2019-09-07 10:27:35:364,0.3353,-0.2901,10.056,0.0014,0.0006,9.8066,0.001,0.0089,0.0012,-41.94,-27.31,25.31,327.7,-81.55,-150.28
44449,52.38674,-1.535683,150.31,0.0,6.0,118.77,23 / 23,22311,2019-09-07 10:27:35:465,0.111,-0.1276,9.7806,0.0,0.0,9.8066,0.0042,0.0165,0.0043,-41.19,-27.12,25.13,328.2,-81.55,-150.39
44450,52.38674,-1.535683,150.31,0.0,6.0,118.77,23 / 23,22410,2019-09-07 10:27:35:564,0.2045,-0.1508,9.8063,0.0005,-0.0005,9.8066,0.0055,0.0326,0.0136,-41.94,-26.75,25.31,327.5,-81.54,-150.47
44451,52.38674,-1.535683,150.31,0.0,6.0,118.77,23 / 23,22510,2019-09-07 10:27:35:664,0.3057,-0.3155,9.9935,0.0005,-0.001,9.8066,0.0022,0.0199,0.0066,-41.75,-27.0,24.69,327.49,-81.53,-150.47
44452,52.38674,-1.535683,150.31,0.0,6.0,118.77,23 / 23,22611,2019-09-07 10:27:35:765,0.1449,-0.1747,9.8427,0.0013,-0.0025,9.8066,0.0001,0.0098,-0.0053,-41.5,-26.62,25.0,328.09,-81.51,-150.48
44453,52.38674,-1.535683,150.31,0.0,6.0,118.77,23 / 23,22710,2019-09-07 10:27:35:864,0.3211,-0.2915,9.9266,0.0007,0.001,9.8066,-0.0052,-0.0128,-0.016,-41.37,-26.75,24.81,327.92,-81.51,-150.63
44454,52.38674,-1.535683,150.31,0.0,6.0,118.77,23 / 23,22811,2019-09-07 10:27:35:965,0.1877,-0.2157,9.8708,0.0009,0.0004,9.8066,-0.009,-0.0109,-0.0173,-41.81,-26.12,25.31,327.36,-81.51,-150.68
44455,52.38674,-1.535683,150.31,0.0,6.0,118.77,23 / 23,22911,2019-09-07 10:27:36:065,0.0969,-0.1046,9.8228,0.0005,-0.0001,9.8066,-0.0073,-0.0087,-0.0144,-41.56,-26.62,24.38,326.12,-81.51,-150.69
44456,52.38674,-1.535683,150.31,0.0,6.0,118.77,23 / 23,23011,2019-09-07 10:27:36:165,0.3185,-0.2725,9.9727,-0.0004,-0.0009,9.8066,0.0003,0.0172,0.0049,-41.69,-26.69,24.94,327.24,-81.49,-150.69
44457,52.38674,-1.535683,150.31,0.0,6.0,118.77,23 / 23,23110,2019-09-07 10:27:36:264,0.2621,-0.3147,9.9155,-0.0004,-0.0007,9.8066,0.0014,0.0233,0.0072,-41.37,-26.0,24.56,327.89,-81.48,-150.75
44458,52.38674,-1.535683,150.31,0.0,6.0,118.77,23 / 23,23210,2019-09-07 10:27:36:364,0.048,-0.0601,9.7679,0.0011,-0.001,9.8066,0.0064,0.025,0.0114,-41.56,-26.69,25.25,327.21,-81.47,-150.71
44459,52.38674,-1.535683,150.31,0.0,6.0,118.77,23 / 25,23310,2019-09-07 10:27:36:464,0.3286,-0.2549,10.0261,0.0003,-0.0006,9.8066,0.0015,0.009,0.0009,-41.81,-26.31,24.81,327.22,-81.46,-150.79
44460,52.38674,-1.535683,150.31,0.0,6.0,118.77,23 / 25,23410,2019-09-07 10:27:36:564,0.0963,-0.0987,9.6696,0.0003,-0.0008,9.8066,-0.0027,-0.0142,-0.0164,-41.81,-26.75,25.19,327.1,-81.45,-150.81
44461,52.38674,-1.535683,150.31,0.0,6.0,118.77,23 / 25,23510,2019-09-07 10:27:36:664,0.1052,-0.1173,9.8282,-0.0011,0.0006,9.8066,-0.0098,-0.0186,-0.0187,-41.94,-26.44,24.13,325.97,-81.45,-150.91
44462,52.38674,-1.535683,150.31,0.0,6.0,118.77,23 / 25,23611,2019-09-07 10:27:36:765,0.3199,-0.2588,9.9995,0.0007,-0.0006,9.8066,-0.0092,-0.0138,-0.0196,-41.5,-26.62,24.25,326.41,-81.44,-150.95
44463,52.38674,-1.535683,150.31,0.0,6.0,118.77,23 / 25,23710,2019-09-07 10:27:36:864,0.1233,-0.1246,9.7098,0.0012,-0.0012,9.8065,-0.004,0.0,-0.008,-41.37,-25.75,24.69,327.64,-81.42,-150.96
44464,52.38674,-1.535683,150.31,0.0,6.0,118.77,23 / 25,23811,2019-09-07 10:27:36:965,0.0537,-0.0973,9.6717,0.0003,-0.001,9.8066,0.0004,0.0126,0.0027,-41.62,-26.5,24.31,325.95,-81.42,-150.91
44465,52.38674,-1.535683,150.31,0.0,6.0,118.77,23 / 25,23911,2019-09-07 10:27:37:065,0.3241,-0.2178,10.0421,-0.0001,-0.0004,9.8066,0.0034,0.0335,0.0153,-41.75,-26.31,24.5,327.06,-81.41,-150.92
44466,52.38674,-1.535683,150.31,0.0,6.0,118.77,23 / 25,24010,2019-09-07 10:27:37:164,0.166,-0.188,9.9104,0.0014,0.0002,9.8066,0.004,0.0205,0.0111,-41.62,-26.31,25.06,327.08,-81.41,-150.91
44467,52.38674,-1.535683,150.31,0.0,6.0,118.77,23 / 25,24110,2019-09-07 10:27:37:264,0.1107,-0.1552,9.8321,0.0003,-0.0005,9.8066,0.0018,0.0257,0.0107,-41.37,-26.44,25.06,327.6,-81.4,-150.99
44468,52.38674,-1.535683,150.31,0.0,6.0,118.77,23 / 25,24210,2019-09-07 10:27:37:364,0.199,-0.1448,9.8804,-0.0007,0.0008,9.8066,-0.004,0.0026,-0.0056,-42.12,-26.12,25.31,326.96,-81.4,-151.02
44469,52.38674,-1.535683,150.31,0.0,6.0,118.77,23 / 23,24311,2019-09-07 10:27:37:465,0.2798,-0.2503,9.9553,0.0,-0.0004,9.8066,-0.009,-0.0091,-0.0121,-41.75,-26.56,24.88,326.83,-81.4,-151.04
44470,52.38674,-1.535683,150.31,0.0,6.0,118.77,23 / 23,24410,2019-09-07 10:27:37:564,0.2523,-0.2318,9.8526,0.0021,0.0007,9.8066,-0.0129,-0.0292,-0.0243,-41.56,-26.31,24.69,326.78,-81.4,-151.18
44471,52.38674,-1.535683,150.31,0.0,6.0,118.77,23 / 23,24510,2019-09-07 10:27:37:664,0.0433,-0.0747,9.6709,-0.0003,0.0005,9.8066,-0.0116,-0.0045,-0.0175,-41.87,-26.31,24.88,326.79,-81.4,-151.17
44472,52.38674,-1.535683,150.31,0.0,6.0,118.77,23 / 23,24611,2019-09-07 10:27:37:765,0.1484,-0.1548,9.8589,0.0003,-0.0011,9.8066,-0.004,0.0024,-0.0061,-41.87,-26.81,24.75,326.71,-81.39,-151.14
44473,52.38674,-1.535683,150.31,0.0,6.0,118.77,23 / 23,24710,2019-09-07 10:27:37:864,0.3478,-0.3023,9.9957,0.0007,-0.0009,9.8066,0.0046,0.0182,0.008,-41.75,-26.31,25.0,326.83,-81.38,-151.12
44474,52.38674,-1.535683,150.31,0.0,6.0,118.77,23 / 23,24810,2019-09-07 10:27:37:964,0.059,-0.1028,9.7684,-0.0007,-0.001,9.8066,0.0041,0.0296,0.0139,-41.94,-26.81,24.81,326.82,-81.37,-151.03
44475,52.38674,-1.535683,150.31,0.0,6.0,118.77,23 / 23,24910,2019-09-07 10:27:38:064,0.2502,-0.2542,9.9653,-0.0001,0.0004,9.8066,0.0024,0.022,0.0098,-41.94,-26.31,25.25,326.95,-81.36,-151.01
44476,52.38674,-1.535683,150.31,0.0,6.0,118.77,23 / 23,25010,2019-09-07 10:27:38:164,0.2766,-0.2426,10.0278,0.0004,0.0005,9.8066,0.0004,-0.0062,-0.0062,-41.5,-26.37,24.88,327.55,-81.37,-151.03
44477,52.38674,-1.535683,150.31,0.0,6.0,118.77,23 / 23,25118,2019-09-07 10:27:38:272,0.0727,-0.1032,9.7104,0.0004,0.0012,9.8066,-0.0077,-0.0047,-0.0132,-41.62,-26.5,25.0,326.84,-81.36,-151.11
44478,52.38674,-1.535683,150.31,0.0,6.0,118.77,23 / 23,25210,2019-09-07 10:27:38:364,0.1936,-0.1988,9.9017,-0.0002,0.0,9.8066,-0.006,-0.0123,-0.0109,-41.94,-26.56,24.38,325.56,-81.37,-151.16
44479,52.38674,-1.535683,150.31,0.0,6.0,118.77,22 / 22,25310,2019-09-07 10:27:38:464,0.2987,-0.2643,9.9915,0.0015,-0.0016,9.8066,-0.0007,-0.0054,-0.0078,-41.94,-26.37,25.31,326.78,-81.34,-151.16
44480,52.38674,-1.535683,150.31,0.0,6.0,118.77,22 / 22,25411,2019-09-07 10:27:38:565,0.0896,-0.1357,9.7695,0.0005,-0.0012,9.8066,0.0036,0.016,0.0072,-41.87,-26.94,24.56,326.76,-81.33,-151.08
44481,52.38674,-1.535683,150.31,0.0,6.0,118.77,22 / 22,25510,2019-09-07 10:27:38:664,0.1483,-0.1459,9.9239,0.001,-0.0005,9.8066,0.004,0.0254,0.008,-41.94,-26.31,24.88,326.81,-81.32,-151.12
44482,52.38674,-1.535683,150.31,0.0,6.0,118.77,22 / 22,25611,2019-09-07 10:27:38:765,0.3034,-0.221,10.0193,0.0025,-0.0012,9.8066,-0.0004,0.0104,0.0038,-41.69,-25.87,25.06,326.68,-81.29,-151.23
44483,52.38674,-1.535683,150.31,0.0,6.0,118.77,22 / 22,25710,2019-09-07 10:27:38:864,0.107,-0.1762,9.7839,0.0017,0.0004,9.8066,-0.0028,-0.0149,-0.0122,-41.56,-26.12,24.69,326.61,-81.28,-151.29
44484,52.38674,-1.535683,150.31,0.0,6.0,118.77,22 / 22,25810,2019-09-07 10:27:38:964,0.0996,-0.1253,9.8195,-0.0004,-0.0006,9.8066,-0.0068,-0.0085,-0.015,-41.81,-26.5,25.06,326.55,-81.28,-151.35
44485,52.38674,-1.535683,150.31,0.0,6.0,118.77,22 / 22,25910,2019-09-07 10:27:39:064,0.2203,-0.1998,9.9901,0.0008,-0.0008,9.8066,-0.0101,-0.0119,-0.019,-42.19,-26.62,25.44,326.41,-81.26,-151.38
44486,52.38674,-1.535683,150.31,0.0,6.0,118.77,22 / 22,26010,2019-09-07 10:27:39:164,0.2325,-0.2375,9.8933,0.0005,-0.0015,9.8066,0.0024,0.0052,-0.0021,-41.81,-26.31,24.75,326.52,-81.25,-151.37
44487,52.38674,-1.535683,150.31,0.0,6.0,118.77,22 / 22,26111,2019-09-07 10:27:39:265,0.0764,-0.0681,9.774,0.0001,-0.0012,9.8066,0.0007,0.0189,0.0053,-41.56,-26.75,24.44,325.21,-81.23,-151.42
44488,52.38674,-1.535683,150.31,0.0,6.0,118.77,22 / 22,26210,2019-09-07 10:27:39:364,0.0883,-0.1224,9.8342,0.0016,-0.0019,9.8066,0.0066,0.0293,0.0141,-41.25,-26.31,24.94,327.12,-81.22,-151.37
44489,52.38674,-1.535683,150.31,0.0,6.0,118.77,22 / 23,26310,2019-09-07 10:27:39:464,0.0635,-0.1385,9.7796,0.0,0.0001,9.8066,0.0001,0.0256,0.0086,-42.25,-26.62,25.19,326.36,-81.19,-151.4
44490,52.38674,-1.535683,150.31,0.0,6.0,118.77,22 / 23,26410,2019-09-07 10:27:39:564,0.0331,-0.0711,9.815,0.0006,0.0007,9.8065,0.0028,0.0148,-0.0023,-41.94,-26.25,24.81,326.44,-81.19,-151.42
44491,52.38674,-1.535683,150.31,0.0,6.0,118.77,22 / 23,26510,2019-09-07 10:27:39:664,0.2719,-0.2242,9.9911,0.0009,-0.0008,9.8066,-0.0042,-0.0119,-0.0079,-42.06,-26.31,24.94,326.33,-81.17,-151.51
44492,52.38674,-1.535683,150.31,0.0,6.0,118.77,22 / 23,26610,2019-09-07 10:27:39:764,0.1654,-0.1968,9.9754,0.0006,0.0003,9.8066,-0.0094,-0.0139,-0.0181,-42.06,-26.25,25.44,326.32,-81.17,-151.52
44493,52.38674,-1.535683,150.31,0.0,6.0,118.77,22 / 23,26711,2019-09-07 10:27:39:865,0.0035,-0.134,9.7353,0.0006,-0.0015,9.8066,-0.0051,-0.0065,-0.0125,-41.87,-26.75,24.69,326.24,-81.15,-151.49
44494,52.38674,-1.535683,150.31,0.0,6.0,118.77,22 / 23,26811,2019-09-07 10:27:39:965,0.2437,-0.2591,10.0401,0.0005,-0.0019,9.8066,-0.0025,0.0095,-0.0011,-41.81,-26.62,24.94,326.27,-81.12,-151.45
44495,52.38674,-1.535683,150.31,0.0,6.0,118.77,22 / 23,26910,2019-09-07 10:27:40:064,0.2611,-0.1467,9.8973,-0.0004,-0.0019,9.8065,0.003,0.0184,0.0108,-41.81,-26.69,25.19,326.27,-81.12,-151.45
44496,52.38674,-1.535683,150.31,0.0,6.0,118.77,22 / 23,27010,2019-09-07 10:27:40:164,0.055,-0.0745,9.7388,0.0016,-0.0011,9.8066,0.0013,0.023,0.0107,-42.19,-26.62,24.88,326.27,-81.09,-151.44
44497,52.38674,-1.535683,150.31,0.0,6.0,118.77,22 / 23,27110,2019-09-07 10:27:40:264,0.2294,-0.2397,10.0643,0.0001,0.0,9.8066,-0.0017,0.013,-0.0006,-41.75,-26.62,24.81,326.26,-81.09,-151.45
44498,52.38674,-1.535683,150.31,0.0,6.0,118.77,22 / 23,27210,2019-09-07 10:27:40:364,0.086,-0.0584,9.7974,0.002,-0.0004,9.8066,-0.0076,-0.0054,-0.012,-41.75,-27.0,24.88,326.18,-81.08,-151.52
44499,52.38674,-1.535683,150.31,0.0,6.0,118.77,22 / 25,27311,2019-09-07 10:27:40:465,0.2136,-0.1417,9.8632,0.0012,-0.0005,9.8066,-0.007,-0.0119,-0.0173,-41.37,-26.44,24.81,326.86,-81.08,-151.56
44500,52.38674,-1.535683,150.31,0.0,6.0,118.77,22 / 25,27410,2019-09-07 10:27:40:564,-0.0109,-0.0841,9.7984,0.0007,-0.0013,9.8066,-0.0073,0.0102,-0.0056,-41.5,-26.94,24.5,326.69,-81.05,-151.6
44501,52.38674,-1.535683,150.31,0.0,6.0,118.77,22 / 25,27510,2019-09-07 10:27:40:664,0.1943,-0.1638,10.0325,-0.0002,-0.0004,9.8066,-0.0004,0.0191,0.002,-41.81,-26.87,24.69,326.08,-81.05,-151.6
44502,52.38674,-1.535683,150.31,0.0,6.0,118.77,22 / 25,27610,2019-09-07 10:27:40:764,0.191,-0.1799,9.8831,0.0004,-0.0005,9.8066,0.0017,0.0261,0.0094,-41.87,-25.87,24.88,326.26,-81.03,-151.53
44503,52.38674,-1.535683,150.31,0.0,6.0,118.77,22 / 25,27710,2019-09-07 10:27:40:864,0.0137,-0.058,9.814,0.0017,-0.0004,9.8066,0.0041,0.0129,0.0052,-41.56,-26.5,25.25,326.14,-81.02,-151.63
44504,52.38674,-1.535683,150.31,0.0,6.0,118.77,22 / 25,27814,2019-09-07 10:27:40:968,0.1867,-0.1187,9.9095,0.0007,-0.0002,9.8066,-0.0061,-0.0047,-0.0088,-41.69,-26.37,25.13,326.12,-81.01,-151.65
44505,52.38674,-1.535683,150.31,0.0,6.0,118.77,22 / 25,27910,2019-09-07 10:27:41:064,0.2507,-0.2239,9.8787,0.0001,-0.0016,9.8066,-0.0073,-0.0158,-0.0134,-41.94,-26.0,25.0,326.09,-81.01,-151.67
44506,52.38674,-1.535683,150.31,0.0,6.0,118.77,22 / 25,28010,2019-09-07 10:27:41:164,0.0571,-0.1081,9.8195,0.0011,-0.0009,9.8066,-0.0072,-0.0156,-0.0159,-42.37,-26.25,25.13,326.11,-80.99,-151.65
44507,52.38674,-1.535683,150.31,0.0,6.0,118.77,22 / 25,28110,2019-09-07 10:27:41:264,0.0535,-0.0193,9.8298,0.0001,-0.0012,9.8066,-0.0043,0.0008,-0.0068,-41.81,-26.56,24.38,324.83,-80.97,-151.68
44508,52.38674,-1.535683,150.31,0.0,6.0,118.77,22 / 25,28211,2019-09-07 10:27:41:365,0.299,-0.2165,9.9872,0.0004,-0.0005,9.8066,0.0022,0.0181,0.0041,-41.62,-26.62,25.38,325.95,-80.96,-151.68
44509,52.38674,-1.535683,150.31,0.0,6.0,118.77,23 / 24,28310,2019-09-07 10:27:41:464,0.0744,-0.0151,9.7357,0.0002,-0.001,9.8066,0.0055,0.0283,0.0142,-41.5,-26.31,25.06,326.68,-80.93,-151.67
44510,52.38674,-1.535683,150.31,0.0,6.0,118.77,23 / 24,28410,2019-09-07 10:27:41:564,0.1932,-0.1497,9.9462,0.0002,-0.0002,9.8066,0.0006,0.0232,0.0113,-41.81,-26.56,24.75,325.91,-80.93,-151.71
44511,52.38674,-1.535683,150.31,0.0,6.0,118.77,23 / 24,28510,2019-09-07 10:27:41:664,0.2085,-0.2032,9.8827,0.001,-0.0007,9.8066,0.0014,0.0092,0.0042,-41.87,-26.25,24.69,325.96,-80.93,-151.77
44512,52.38674,-1.535683,150.31,0.0,6.0,118.77,23 / 24,28610,2019-09-07 10:27:41:764,0.0099,-0.0253,9.7185,0.0015,0.0008,9.8066,-0.0077,-0.0082,-0.0108,-42.06,-26.81,25.63,326.86,-80.92,-151.86
44513,52.38674,-1.535683,150.31,0.0,6.0,118.77,23 / 24,28710,2019-09-07 10:27:41:864,0.0933,-0.0338,9.7954,0.0008,-0.0007,9.8066,-0.0081,-0.0168,-0.0149,-42.37,-26.69,25.13,325.71,-80.91,-151.88
44514,52.38674,-1.535683,150.31,0.0,6.0,118.77,23 / 24,28810,2019-09-07 10:27:41:964,0.2612,-0.2185,10.0018,0.0007,-0.0004,9.8066,-0.0075,-0.0186,-0.0227,-41.69,-26.19,24.81,325.75,-80.9,-151.95
44515,52.38674,-1.535683,150.31,0.0,6.0,118.77,23 / 24,28911,2019-09-07 10:27:42:065,-0.0006,-0.0601,9.7408,0.0017,-0.0017,9.8066,0.0003,-0.0095,-0.0068,-42.12,-26.19,24.94,325.67,-80.88,-152.01
44516,52.38674,-1.535683,150.31,0.0,6.0,118.77,23 / 24,29010,2019-09-07 10:27:42:164,0.0138,-0.001,9.6795,0.0004,-0.0008,9.8066,0.0012,0.0125,0.0065,-41.94,-25.94,24.31,324.51,-80.87,-152.03
44517,52.38674,-1.535683,150.31,0.0,6.0,118.77,23 / 24,29110,2019-09-07 10:27:42:264,0.217,-0.1895,10.0009,0.0007,-0.0006,9.8066,0.0059,0.0253,0.0132,-41.5,-26.56,24.69,326.18,-80.85,-151.99
44518,52.38674,-1.535683,150.31,0.0,6.0,118.77,23 / 24,29210,2019-09-07 10:27:42:364,0.1104,-0.1607,9.9072,-0.0002,-0.001,9.8066,0.0003,0.0234,0.0128,-41.44,-25.87,24.88,326.22,-80.83,-152.06
44519,52.38674,-1.535683,150.31,0.0,6.0,118.77,21 / 22,29310,2019-09-07 10:27:42:464,0.2028,-0.1843,10.0161,0.0015,-0.0004,9.8066,0.0023,0.0165,0.0091,-41.62,-26.62,25.44,325.49,-80.81,-152.05
44520,52.38674,-1.535683,150.31,0.0,6.0,118.77,21 / 22,29411,2019-09-07 10:27:42:565,0.2116,-0.2112,9.9488,0.0001,-0.0009,9.8065,-0.0012,0.0061,-0.0037,-41.44,-26.12,25.06,326.2,-80.81,-152.06
44521,52.38674,-1.535683,150.31,0.0,6.0,118.77,21 / 22,29510,2019-09-07 10:27:42:664,0.0462,-0.0908,9.8375,0.0006,-0.0002,9.8066,-0.0077,-0.0107,-0.0146,-41.75,-26.0,24.88,325.55,-80.81,-152.1
44522,52.38674,-1.535683,150.31,0.0,6.0,118.77,21 / 22,29610,2019-09-07 10:27:42:764,0.0842,-0.0737,9.8259,-0.0001,-0.0002,9.8066,-0.0099,-0.0119,-0.015,-42.06,-26.56,25.0,325.39,-80.8,-152.14
44523,52.38674,-1.535683,150.31,0.0,6.0,118.77,21 / 22,29710,2019-09-07 10:27:42:864,0.1898,-0.157,10.0238,-0.0007,-0.0004,9.8066,-0.011,0.0067,-0.0143,-41.75,-26.5,24.44,324.38,-80.79,-152.13
44524,52.38674,-1.535683,150.31,0.0,6.0,118.77,21 / 22,29810,2019-09-07 10:27:42:964,0.106,-0.1664,9.9804,0.0006,-0.0009,9.8066,-0.0021,0.0104,0.0034,-41.37,-26.81,25.0,326.05,-80.78,-152.08
44525,52.38674,-1.535683,150.31,0.0,6.0,118.77,21 / 22,29910,2019-09-07 10:27:43:064,-0.0111,-0.0476,9.6499,0.0004,-0.0007,9.8066,0.0023,0.0106,0.0117,-42.12,-26.81,25.06,325.48,-80.76,-152.04
44526,52.38674,-1.535683,150.31,0.0,6.0,118.77,21 / 22,30010,2019-09-07 10:27:43:164,0.1437,-0.092,9.9404,0.0013,-0.0002,9.8066,0.0072,0.0203,0.009,-41.62,-26.56,25.06,325.42,-80.75,-152.1
44527,52.38674,-1.535683,150.31,0.0,6.0,118.77,21 / 22,30111,2019-09-07 10:27:43:265,0.1792,-0.2111,9.9183,0.0011,0.001,9.8066,-0.0003,0.0099,-0.0007,-41.37,-26.31,24.44,324.9,-80.74,-152.17
44528,52.38674,-1.535683,150.31,0.0,6.0,118.77,21 / 22,30210,2019-09-07 10:27:43:364,-0.0412,-0.0245,9.7841,0.0006,0.0003,9.8066,-0.0034,-0.0044,-0.0101,-41.81,-26.25,25.44,325.39,-80.74,-152.23
44529,52.38674,-1.535683,150.31,0.0,6.0,118.77,23 / 23,30310,2019-09-07 10:27:43:464,0.014,0.0072,9.8847,0.0017,0.0011,9.8066,-0.0105,-0.0225,-0.0235,-41.87,-26.62,25.13,325.16,-80.74,-152.32
44530,52.38674,-1.535683,150.31,0.0,6.0,118.77,23 / 23,30410,2019-09-07 10:27:43:564,0.1772,-0.1952,9.9617,0.0003,-0.0013,9.8066,-0.0072,-0.0045,-0.0139,-41.81,-26.62,24.69,325.08,-80.74,-152.4
44531,52.38674,-1.535683,150.31,0.0,6.0,118.77,23 / 23,30510,2019-09-07 10:27:43:664,-0.0251,-0.0607,9.7377,-0.0013,-0.0007,9.8066,-0.0095,0.0086,-0.0073,-42.06,-26.56,24.31,323.94,-80.72,-152.39
44532,52.38674,-1.535683,150.31,0.0,6.0,118.77,23 / 23,30610,2019-09-07 10:27:43:764,-0.0678,-0.0047,9.7514,0.0002,-0.0012,9.8066,0.0031,0.026,0.0086,-41.44,-26.25,24.81,325.91,-80.71,-152.3
44533,52.38674,-1.535683,150.31,0.0,6.0,118.77,23 / 23,30710,2019-09-07 10:27:43:864,0.1974,-0.1573,9.9713,0.0006,-0.0012,9.8066,0.0034,0.013,0.0152,-41.75,-26.94,24.38,324.01,-80.7,-152.32
44534,52.38674,-1.535683,150.31,0.0,6.0,118.77,23 / 23,30810,2019-09-07 10:27:43:964,0.1097,-0.1392,9.7879,0.0003,-0.0006,9.8066,0.0025,0.0327,0.0143,-41.75,-26.5,24.75,325.25,-80.68,-152.33
44535,52.38674,-1.535683,150.31,0.0,6.0,118.77,23 / 23,30910,2019-09-07 10:27:44:064,-0.0952,-0.033,9.7072,0.0002,-0.0005,9.8066,-0.0017,0.0187,0.0058,-41.87,-26.87,24.81,325.17,-80.67,-152.3
44536,52.38674,-1.535683,150.31,0.0,6.0,118.77,23 / 23,31011,2019-09-07 10:27:44:165,0.1113,-0.0694,9.9592,0.0017,0.0004,9.8066,-0.0041,-0.0142,-0.0089,-42.0,-26.25,24.38,324.02,-80.65,-152.41
44537,52.38674,-1.535683,150.31,0.0,6.0,118.77,23 / 23,31111,2019-09-07 10:27:44:265,0.2208,-0.1865,9.9217,0.0009,0.0001,9.8065,-0.0084,-0.0119,-0.0159,-41.56,-26.06,24.94,325.05,-80.65,-152.5
44538,52.38674,-1.535683,150.31,0.0,6.0,118.77,23 / 23,31210,2019-09-07 10:27:44:364,0.0093,-0.0919,9.8528,-0.0004,0.0006,9.8066,-0.0081,-0.0138,-0.0161,-41.0,-26.56,24.69,325.51,-80.65,-152.53
44539,52.38674,-1.535683,150.31,0.0,6.0,118.77,23 / 23,31310,2019-09-07 10:27:44:464,0.1467,-0.1505,9.9649,-0.0002,-0.0013,9.8065,-0.0082,-0.0019,-0.0067,-42.19,-26.06,25.0,325.01,-80.64,-152.53
44540,52.38674,-1.535683,150.31,0.0,6.0,118.77,23 / 23,31410,2019-09-07 10:27:44:564,0.054,-0.0987,9.819,0.0007,-0.002,9.8066,-0.0005,0.0122,0.0067,-42.06,-25.62,25.0,325.06,-80.61,-152.48
44541,52.38674,-1.535683,150.31,0.0,6.0,118.77,23 / 23,31510,2019-09-07 10:27:44:664,0.0429,0.0097,9.7629,0.0005,-0.0021,9.8066,0.0074,0.0268,0.017,-41.44,-26.69,25.38,325.59,-80.6,-152.43
44542,52.38674,-1.535683,150.31,0.0,6.0,118.77,23 / 23,31610,2019-09-07 10:27:44:764,0.1564,-0.1108,10.014,0.0005,0.0002,9.8066,0.0015,0.0202,0.0074,-42.0,-26.75,24.31,323.85,-80.57,-152.42
