,GPS LATITUDE (degrees),GPS LONGITUDE (degrees), GPS ALTITUDE (m),GPS SPEED (Kmh),GPS ACCURACY (m),GPS ORIENTATION (Â°), SATELLITES IN RANGE, TIME SINCE START (ms), DATE (YYYY-MO-DD HH-MI-SS_SSS),ACCELEROMETER X (m/s²) , ACCELEROMETER Y (m/s²), ACCELEROMETER Z (m/s²), GRAVITY X (m/s²), GRAVITY Y (m/s²), GRAVITY Z (m/s²), GYROSCOPE Yaw (rad/s), GYROSCOPE Pitch (rad/s), GYROSCOPE Roll (rad/s)
63863,46.31149,-0.353204,132.88,32.54,27.872002,30.1,0 / 21,3206658,2019-08-12 11:18:09:148,0.5114,0.2067,9.6712,0.6423,-0.0575,9.7854,-0.0057,-0.0072,0.0004
63864,46.31149,-0.353204,132.88,32.54,27.872002,30.1,0 / 21,3206758,2019-08-12 11:18:09:248,0.5939,-0.0303,9.9011,0.6352,-0.0556,9.7859,0.0028,0.0014,-0.0007
63865,46.31149,-0.353204,132.88,32.54,27.872002,30.1,0 / 21,3206859,2019-08-12 11:18:09:349,0.4605,0.1858,9.9873,0.6314,-0.0618,9.7861,-0.0004,-0.0029,-0.0007
63866,46.31149,-0.353204,132.88,32.54,27.872002,30.1,0 / 21,3206958,2019-08-12 11:18:09:448,0.5197,0.0337,9.7945,0.6175,-0.0697,9.7869,-0.0025,0.0003,-0.0028
63867,46.31149,-0.353204,132.88,32.54,27.872002,30.1,0 / 21,3207058,2019-08-12 11:18:09:548,0.4868,-0.0686,9.5815,0.6204,-0.0734,9.7867,0.0039,0.0046,-0.0017
63868,46.31149,-0.353204,132.88,32.54,27.872002,30.1,0 / 21,3207158,2019-08-12 11:18:09:648,0.4922,0.1086,9.9657,0.6112,-0.0718,9.7873,-0.0036,0.0003,-0.0017
63869,46.31149,-0.353204,132.88,32.54,27.872002,30.1,0 / 21,3207258,2019-08-12 11:18:09:748,0.5413,0.1936,9.2965,0.6138,-0.0793,9.7871,0.0018,-0.0018,-0.0007
63870,46.31149,-0.353204,132.88,32.54,27.872002,30.1,0 / 21,3207358,2019-08-12 11:18:09:848,0.5945,0.0924,9.2714,0.6157,-0.0719,9.787,0.006,-0.0029,0.0025
63871,46.31149,-0.353204,132.88,32.54,27.872002,30.1,0 / 21,3207713,2019-08-12 11:18:10:203,0.5945,0.0924,9.2714,0.6157,-0.0719,9.787,0.006,-0.0029,0.0025
63872,46.31149,-0.353204,132.88,32.54,27.872002,30.1,0 / 21,3207713,2019-08-12 11:18:10:203,0.5945,0.0924,9.2714,0.6157,-0.0719,9.787,0.006,-0.0029,0.0025
63873,46.31149,-0.353204,132.88,32.54,27.872002,30.1,0 / 21,3207714,2019-08-12 11:18:10:204,0.5945,0.0924,9.2714,0.6157,-0.0719,9.787,0.006,-0.0029,0.0025
63874,46.31149,-0.353204,132.88,32.54,27.872002,30.1,0 / 21,3207751,2019-08-12 11:18:10:241,0.5945,0.0924,9.2714,0.6157,-0.0719,9.787,0.006,-0.0029,0.0025
63875,46.31149,-0.353204,132.88,32.54,27.872002,30.1,0 / 21,3207851,2019-08-12 11:18:10:341,0.5945,0.0924,9.2714,0.6157,-0.0719,9.787,0.006,-0.0029,0.0025
63876,46.31149,-0.353204,132.88,32.54,27.872002,30.1,0 / 21,3207951,2019-08-12 11:18:10:441,0.573,0.2133,10.1082,0.6476,0.0193,9.7852,0.0018,-0.004,0.0047
63877,46.31149,-0.353204,132.88,32.54,27.872002,30.1,0 / 21,3208050,2019-08-12 11:18:10:540,0.6466,0.3151,9.8352,0.6355,0.0227,9.786,0.0039,0.012,0.0004
63878,46.31149,-0.353204,132.88,32.54,27.872002,30.1,0 / 21,3208150,2019-08-12 11:18:10:640,0.6442,0.0373,10.3805,0.6228,0.0393,9.7868,0.0039,-0.0104,0.0057
63879,46.31149,-0.353204,132.88,32.54,27.872002,30.1,0 / 21,3208251,2019-08-12 11:18:10:741,0.4569,0.157,10.0729,0.6285,0.039,9.7864,-0.0014,-0.0061,0.0068
63880,46.31149,-0.353204,132.88,32.54,27.872002,30.1,0 / 21,3208351,2019-08-12 11:18:10:841,0.5012,0.3091,10.165,0.6019,0.062,9.788,-0.0025,0.0046,0.0079
63881,46.31149,-0.353204,132.88,32.54,27.872002,30.1,0 / 21,3208451,2019-08-12 11:18:10:941,0.4132,0.327,10.2788,0.5828,0.0903,9.7889,0.005,0.0024,0.0068
63882,46.31149,-0.353204,132.88,32.54,27.872002,30.1,0 / 21,3208551,2019-08-12 11:18:11:041,0.4,0.3833,9.9567,0.5514,0.1125,9.7905,-0.0078,0.0046,0.0057
63883,46.31149,-0.353204,132.88,32.54,27.872002,30.1,0 / 21,3208651,2019-08-12 11:18:11:141,0.3845,0.239,10.2261,0.5318,0.1226,9.7915,-0.0004,0.0003,0.0047
63884,46.31149,-0.353204,132.88,32.54,27.872002,30.1,0 / 21,3208751,2019-08-12 11:18:11:241,0.2396,0.0445,10.2464,0.5151,0.1243,9.7923,-0.0036,-0.004,0.0047
63885,46.31149,-0.353204,132.88,32.54,27.872002,30.1,0 / 21,3208852,2019-08-12 11:18:11:342,0.4359,0.1379,9.843,0.5065,0.1194,9.7928,-0.0057,-0.0029,0.0036
63886,46.31149,-0.353204,132.88,32.54,27.872002,30.1,0 / 21,3208951,2019-08-12 11:18:11:441,0.5981,-0.0417,10.1315,0.4927,0.0999,9.7938,-0.0014,0.0067,-0.0007
63887,46.31149,-0.353204,132.88,32.54,27.872002,30.1,0 / 21,3209051,2019-08-12 11:18:11:541,0.4904,-0.1267,10.4613,0.4883,0.0953,9.794,-0.0025,0.0035,-0.0028
63888,46.31149,-0.353204,132.88,32.54,27.872002,30.1,0 / 21,3209151,2019-08-12 11:18:11:641,0.4449,-0.0321,9.9262,0.4862,0.0598,9.7944,-0.0036,0.0003,-0.0049
63889,46.31149,-0.353204,132.88,32.54,27.872002,30.1,0 / 21,3209250,2019-08-12 11:18:11:740,0.3767,-0.1662,10.1237,0.4805,0.0122,9.7949,-0.0036,0.0067,-0.0028
63890,46.31149,-0.353204,132.88,32.54,27.872002,30.1,0 / 21,3209351,2019-08-12 11:18:11:841,0.3324,-0.1817,10.6511,0.4834,-0.0313,9.7947,-0.0014,-0.0082,-0.0017
63891,46.31149,-0.353204,132.88,32.54,27.872002,30.1,0 / 21,3209451,2019-08-12 11:18:11:941,0.5173,0.0236,10.0794,0.4943,-0.0415,9.7941,-0.0078,-0.0114,-0.0007
63892,46.31149,-0.353204,132.88,32.54,27.872002,30.1,0 / 21,3209551,2019-08-12 11:18:12:041,0.3857,-0.232,10.1261,0.4983,-0.0453,9.7939,0.0028,-0.0008,-0.0017
63893,46.31149,-0.353204,132.88,32.54,27.872002,30.1,0 / 21,3209650,2019-08-12 11:18:12:140,0.4593,-0.1411,10.1602,0.507,-0.0536,9.7934,-0.0057,-0.0061,-0.0007
63894,46.31149,-0.353204,132.88,32.54,27.872002,30.1,0 / 21,3209750,2019-08-12 11:18:12:240,0.5395,-0.144,9.9897,0.5198,-0.0534,9.7927,0.0028,0.0078,-0.0007
63895,46.31149,-0.353204,132.88,32.54,27.872002,30.1,0 / 21,3209850,2019-08-12 11:18:12:340,0.6335,-0.1393,10.6247,0.5423,-0.0603,9.7915,-0.0014,-0.0029,0.0015
63896,46.31149,-0.353204,132.88,32.54,27.872002,30.1,0 / 21,3209951,2019-08-12 11:18:12:441,0.6167,-0.0938,9.9849,0.5626,-0.0596,9.7903,0.005,0.0003,0.0015
63897,46.31149,-0.353204,132.88,32.54,27.872002,30.1,0 / 21,3210051,2019-08-12 11:18:12:541,0.6706,-0.2075,10.2003,0.5715,-0.0578,9.7898,-0.0014,-0.0029,0.0004
63898,46.31149,-0.353204,132.88,32.54,27.872002,30.1,0 / 21,3210151,2019-08-12 11:18:12:641,0.4988,-0.256,9.9861,0.5852,-0.0519,9.789,-0.0057,-0.0018,-0.0017
63899,46.31149,-0.353204,132.88,32.54,27.872002,30.1,0 / 21,3210252,2019-08-12 11:18:12:742,0.7077,-0.1542,10.1614,0.5991,-0.0739,9.7881,-0.0057,-0.0018,-0.0007
63900,46.31149,-0.353204,132.88,32.54,27.872002,30.1,0 / 21,3210351,2019-08-12 11:18:12:841,0.5449,-0.3505,9.9047,0.6106,-0.0869,9.7872,-0.0025,0.0003,-0.0007
63901,46.31149,-0.353204,132.88,32.54,27.872002,30.1,0 / 21,3210451,2019-08-12 11:18:12:941,0.576,-0.1015,9.9005,0.6184,-0.0965,9.7867,0.006,0.0014,-0.0017
63902,46.31149,-0.353204,132.88,32.54,27.872002,30.1,0 / 21,3210550,2019-08-12 11:18:13:040,0.5461,-0.3254,10.3763,0.6256,-0.1066,9.7861,-0.0046,0.0014,0.0004
63903,46.31149,-0.353204,132.88,32.54,27.872002,30.1,0 / 21,3210651,2019-08-12 11:18:13:141,0.591,-0.0489,9.7748,0.6294,-0.0946,9.786,0.0028,0.0056,0.0004
63904,46.31149,-0.353204,132.88,32.54,27.872002,30.1,0 / 21,3210750,2019-08-12 11:18:13:240,0.5945,-0.0632,10.1393,0.6315,-0.0779,9.786,-0.0057,0.0024,0.0036
63905,46.31149,-0.353204,132.88,32.54,27.872002,30.1,0 / 21,3210851,2019-08-12 11:18:13:341,0.7532,-0.171,9.7694,0.6391,-0.0544,9.7857,-0.0004,0.0003,0.0036
63906,46.31149,-0.353204,132.88,32.54,27.872002,30.1,0 / 21,3210951,2019-08-12 11:18:13:441,0.6388,-0.1656,9.9855,0.6309,-0.0602,9.7862,0.006,-0.004,0.0004
63907,46.31149,-0.353204,132.88,32.54,27.872002,30.1,0 / 21,3211051,2019-08-12 11:18:13:541,0.6364,-0.0387,9.7682,0.6287,-0.0478,9.7864,-0.0057,0.0056,0.0025
63908,46.31149,-0.353204,132.88,32.54,27.872002,30.1,0 / 21,3211150,2019-08-12 11:18:13:640,0.4593,-0.2661,9.9023,0.625,-0.049,9.7866,-0.0014,0.0014,0.0004
63909,46.31149,-0.353204,132.88,32.54,27.872002,30.1,0 / 21,3211251,2019-08-12 11:18:13:741,0.6275,-0.3092,9.8233,0.6306,-0.0669,9.7861,-0.0025,-0.0061,-0.0028
63910,46.31149,-0.353204,132.88,32.54,27.872002,30.1,0 / 21,3211351,2019-08-12 11:18:13:841,0.7747,-0.3033,9.9113,0.6209,-0.0814,9.7866,-0.0004,0.0003,-0.0038
63911,46.31149,-0.353204,132.88,32.54,27.872002,30.1,0 / 21,3211451,2019-08-12 11:18:13:941,0.6442,-0.2859,9.834,0.6131,-0.1041,9.7869,-0.0036,0.0141,-0.0049
63912,46.31149,-0.353204,132.88,32.54,27.872002,30.1,0 / 21,3211551,2019-08-12 11:18:14:041,0.6293,-0.162,10.0256,0.6052,-0.1261,9.7871,0.0018,0.0046,-0.0038
63913,46.31149,-0.353204,132.88,32.54,27.872002,30.1,0 / 21,3211651,2019-08-12 11:18:14:141,0.6807,-0.3757,10.3308,0.6063,-0.1481,9.7868,-0.0036,-0.004,-0.0028
63914,46.31149,-0.353204,132.88,32.54,27.872002,30.1,0 / 21,3211751,2019-08-12 11:18:14:241,0.5203,-0.1602,9.9017,0.61,-0.1467,9.7866,-0.0025,-0.0104,-0.0038
63915,46.31149,-0.353204,132.88,32.54,27.872002,30.1,0 / 21,3211853,2019-08-12 11:18:14:343,0.5664,-0.3829,10.347,0.627,-0.1517,9.7854,-0.0014,-0.0114,-0.0049
63916,46.31149,-0.353204,132.88,32.54,27.872002,30.1,0 / 21,3211951,2019-08-12 11:18:14:441,0.4473,-0.1297,9.609,0.639,-0.1622,9.7845,0.0018,0.0078,-0.0038
63917,46.31149,-0.353204,132.88,32.54,27.872002,30.1,0 / 21,3212051,2019-08-12 11:18:14:541,0.6568,-0.4517,10.5703,0.6283,-0.1578,9.7852,0.0071,0.0067,-0.0038
63918,46.31149,-0.353204,132.88,32.54,27.872002,30.1,0 / 21,3212151,2019-08-12 11:18:14:641,0.5119,-0.4068,9.6922,0.6303,-0.1667,9.785,0.0039,-0.0029,-0.006
63919,46.31149,-0.353204,132.88,32.54,27.872002,30.1,0 / 21,3212250,2019-08-12 11:18:14:740,0.7448,-0.1009,9.9011,0.638,-0.1811,9.7842,0.0028,-0.0061,-0.006
63920,46.31149,-0.353204,132.88,32.54,27.872002,30.1,0 / 21,3212565,2019-08-12 11:18:15:055,0.7448,-0.1009,9.9011,0.638,-0.1811,9.7842,0.0028,-0.0061,-0.006
63921,46.31149,-0.353204,132.88,32.54,27.872002,30.1,13 / 20,3212566,2019-08-12 11:18:15:056,0.7448,-0.1009,9.9011,0.638,-0.1811,9.7842,0.0028,-0.0061,-0.006
63922,46.31149,-0.353204,132.88,32.54,27.872002,30.1,13 / 20,3212566,2019-08-12 11:18:15:056,0.7448,-0.1009,9.9011,0.638,-0.1811,9.7842,0.0028,-0.0061,-0.006
63923,46.31149,-0.353204,132.88,32.54,27.872002,30.1,13 / 20,3212567,2019-08-12 11:18:15:057,0.7448,-0.1009,9.9011,0.638,-0.1811,9.7842,0.0028,-0.0061,-0.006
63924,46.31149,-0.353204,132.88,32.54,27.872002,30.1,13 / 20,3212567,2019-08-12 11:18:15:057,0.7448,-0.1009,9.9011,0.638,-0.1811,9.7842,0.0028,-0.0061,-0.006
63925,46.31149,-0.353204,132.88,32.54,27.872002,30.1,13 / 20,3212635,2019-08-12 11:18:15:125,0.7448,-0.1009,9.9011,0.638,-0.1811,9.7842,0.0028,-0.0061,-0.006
63926,46.31149,-0.353204,132.88,32.54,27.872002,30.1,0 / 21,3213076,2019-08-12 11:18:15:566,0.7448,-0.1009,9.9011,0.638,-0.1811,9.7842,0.0028,-0.0061,-0.006
63927,46.31149,-0.353204,132.88,32.54,27.872002,30.1,0 / 21,3213077,2019-08-12 11:18:15:567,0.7448,-0.1009,9.9011,0.638,-0.1811,9.7842,0.0028,-0.0061,-0.006
63928,46.31149,-0.353204,132.88,32.54,27.872002,30.1,0 / 21,3213077,2019-08-12 11:18:15:567,0.7448,-0.1009,9.9011,0.638,-0.1811,9.7842,0.0028,-0.0061,-0.006
63929,46.31149,-0.353204,132.88,32.54,27.872002,30.1,0 / 21,3213078,2019-08-12 11:18:15:568,0.7448,-0.1009,9.9011,0.638,-0.1811,9.7842,0.0028,-0.0061,-0.006
63930,46.31149,-0.353204,132.88,32.54,27.872002,30.1,0 / 21,3213078,2019-08-12 11:18:15:568,0.7448,-0.1009,9.9011,0.638,-0.1811,9.7842,0.0028,-0.0061,-0.006
63931,46.31149,-0.353204,132.88,32.54,27.872002,30.1,0 / 21,3213079,2019-08-12 11:18:15:569,0.7448,-0.1009,9.9011,0.638,-0.1811,9.7842,0.0028,-0.0061,-0.006
63932,46.31149,-0.353204,132.88,32.54,27.872002,30.1,0 / 21,3213080,2019-08-12 11:18:15:570,0.7448,-0.1009,9.9011,0.638,-0.1811,9.7842,0.0028,-0.0061,-0.006
63933,46.31149,-0.353204,132.88,32.54,27.872002,30.1,0 / 21,3213082,2019-08-12 11:18:15:572,0.7448,-0.1009,9.9011,0.638,-0.1811,9.7842,0.0028,-0.0061,-0.006
63934,46.31149,-0.353204,132.88,32.54,27.872002,30.1,0 / 21,3213084,2019-08-12 11:18:15:574,0.7448,-0.1009,9.9011,0.638,-0.1811,9.7842,0.0028,-0.0061,-0.006
63935,46.315765,-0.349315,124.12,32.21,9.648001,31.4,0 / 21,3213128,2019-08-12 11:18:15:618,0.7448,-0.1009,9.9011,0.638,-0.1811,9.7842,0.0028,-0.0061,-0.006
63936,46.315765,-0.349315,124.12,32.21,9.648001,31.4,0 / 21,3213228,2019-08-12 11:18:15:718,0.7448,-0.1009,9.9011,0.638,-0.1811,9.7842,0.0028,-0.0061,-0.006
63937,46.315765,-0.349315,124.12,32.21,9.648001,31.4,0 / 21,3213328,2019-08-12 11:18:15:818,0.576,-0.3332,10.0363,0.6466,-0.1137,9.7846,0.0028,-0.0072,-0.007
63938,46.315765,-0.349315,124.12,32.21,9.648001,31.4,0 / 21,3213428,2019-08-12 11:18:15:918,0.661,-0.1398,9.9089,0.6411,-0.1093,9.7851,0.0028,0.0141,0.0015
63939,46.315765,-0.349315,124.12,32.21,9.648001,31.4,0 / 21,3213528,2019-08-12 11:18:16:018,0.661,-0.1398,9.9089,0.6411,-0.1093,9.7851,0.0028,0.0141,0.0015
63940,46.315765,-0.349315,124.12,32.21,9.648001,31.4,0 / 21,3213628,2019-08-12 11:18:16:118,0.661,-0.1398,9.9089,0.6411,-0.1093,9.7851,0.0028,0.0141,0.0015
63941,46.315765,-0.349315,124.12,32.21,9.648001,31.4,0 / 21,3214030,2019-08-12 11:18:16:520,0.8423,-0.0135,10.4027,0.6488,-0.0653,9.7849,0.0007,-0.0072,0.0036
63942,46.315765,-0.349315,124.12,32.21,9.648001,31.4,0 / 21,3214031,2019-08-12 11:18:16:521,0.8423,-0.0135,10.4027,0.6488,-0.0653,9.7849,0.0007,-0.0072,0.0036
63943,46.315765,-0.349315,124.12,32.21,9.648001,31.4,0 / 21,3214031,2019-08-12 11:18:16:521,0.8423,-0.0135,10.4027,0.6488,-0.0653,9.7849,0.0007,-0.0072,0.0036
63944,46.315765,-0.349315,124.12,32.21,9.648001,31.4,0 / 21,3214032,2019-08-12 11:18:16:522,0.8423,-0.0135,10.4027,0.6488,-0.0653,9.7849,0.0007,-0.0072,0.0036
63945,46.315765,-0.349315,124.12,32.21,9.648001,31.4,0 / 21,3214032,2019-08-12 11:18:16:522,0.8423,-0.0135,10.4027,0.6488,-0.0653,9.7849,0.0007,-0.0072,0.0036
63946,46.315765,-0.349315,124.12,32.21,9.648001,31.4,0 / 21,3214034,2019-08-12 11:18:16:524,0.8423,-0.0135,10.4027,0.6488,-0.0653,9.7849,0.0007,-0.0072,0.0036
63947,46.315765,-0.349315,124.12,32.21,9.648001,31.4,0 / 21,3214034,2019-08-12 11:18:16:524,0.8423,-0.0135,10.4027,0.6488,-0.0653,9.7849,0.0007,-0.0072,0.0036
63948,46.315765,-0.349315,124.12,32.21,9.648001,31.4,0 / 21,3214035,2019-08-12 11:18:16:525,0.8423,-0.0135,10.4027,0.6488,-0.0653,9.7849,0.0007,-0.0072,0.0036
63949,46.315765,-0.349315,124.12,32.21,9.648001,31.4,0 / 21,3214036,2019-08-12 11:18:16:526,0.8423,-0.0135,10.4027,0.6488,-0.0653,9.7849,0.0007,-0.0072,0.0036
63950,46.315765,-0.349315,124.12,32.21,9.648001,31.4,0 / 21,3214037,2019-08-12 11:18:16:527,0.8423,-0.0135,10.4027,0.6488,-0.0653,9.7849,0.0007,-0.0072,0.0036
63951,46.315765,-0.349315,124.12,32.21,9.648001,31.4,0 / 21,3214037,2019-08-12 11:18:16:527,0.8423,-0.0135,10.4027,0.6488,-0.0653,9.7849,0.0007,-0.0072,0.0036
63952,46.315765,-0.349315,124.12,32.21,9.648001,31.4,0 / 21,3214038,2019-08-12 11:18:16:528,0.8423,-0.0135,10.4027,0.6488,-0.0653,9.7849,0.0007,-0.0072,0.0036
63953,46.315765,-0.349315,124.12,32.21,9.648001,31.4,0 / 21,3214038,2019-08-12 11:18:16:528,0.8423,-0.0135,10.4027,0.6488,-0.0653,9.7849,0.0007,-0.0072,0.0036
63954,46.315765,-0.349315,124.12,32.21,9.648001,31.4,0 / 21,3214038,2019-08-12 11:18:16:528,0.8423,-0.0135,10.4027,0.6488,-0.0653,9.7849,0.0007,-0.0072,0.0036
63955,46.315765,-0.349315,124.12,32.21,9.648001,31.4,0 / 21,3214039,2019-08-12 11:18:16:529,0.8423,-0.0135,10.4027,0.6488,-0.0653,9.7849,0.0007,-0.0072,0.0036
63956,46.315765,-0.349315,124.12,32.21,9.648001,31.4,0 / 21,3214040,2019-08-12 11:18:16:530,0.8423,-0.0135,10.4027,0.6488,-0.0653,9.7849,0.0007,-0.0072,0.0036
63957,46.315765,-0.349315,124.12,32.21,9.648001,31.4,0 / 21,3214042,2019-08-12 11:18:16:532,0.8423,-0.0135,10.4027,0.6488,-0.0653,9.7849,0.0007,-0.0072,0.0036
63958,46.315765,-0.349315,124.12,32.21,9.648001,31.4,0 / 21,3214044,2019-08-12 11:18:16:534,0.8423,-0.0135,10.4027,0.6488,-0.0653,9.7849,0.0007,-0.0072,0.0036
63959,46.315765,-0.349315,124.12,32.21,9.648001,31.4,0 / 21,3214046,2019-08-12 11:18:16:536,0.8423,-0.0135,10.4027,0.6488,-0.0653,9.7849,0.0007,-0.0072,0.0036
63960,46.315765,-0.349315,124.12,32.21,9.648001,31.4,0 / 21,3214047,2019-08-12 11:18:16:537,0.8423,-0.0135,10.4027,0.6488,-0.0653,9.7849,0.0007,-0.0072,0.0036
63961,46.315765,-0.349315,124.12,32.21,9.648001,31.4,0 / 21,3214048,2019-08-12 11:18:16:538,0.8423,-0.0135,10.4027,0.6488,-0.0653,9.7849,0.0007,-0.0072,0.0036
63962,46.315765,-0.349315,124.12,32.21,9.648001,31.4,0 / 21,3214048,2019-08-12 11:18:16:538,0.8423,-0.0135,10.4027,0.6488,-0.0653,9.7849,0.0007,-0.0072,0.0036
63963,46.315765,-0.349315,124.12,32.21,9.648001,31.4,0 / 21,3214049,2019-08-12 11:18:16:539,0.8423,-0.0135,10.4027,0.6488,-0.0653,9.7849,0.0007,-0.0072,0.0036
63964,46.315765,-0.349315,124.12,32.21,9.648001,31.4,0 / 21,3214049,2019-08-12 11:18:16:539,0.8423,-0.0135,10.4027,0.6488,-0.0653,9.7849,0.0007,-0.0072,0.0036
63965,46.315765,-0.349315,124.12,32.21,9.648001,31.4,0 / 21,3214049,2019-08-12 11:18:16:539,0.8423,-0.0135,10.4027,0.6488,-0.0653,9.7849,0.0007,-0.0072,0.0036
63966,46.315765,-0.349315,124.12,32.21,9.648001,31.4,0 / 21,3214050,2019-08-12 11:18:16:540,0.8423,-0.0135,10.4027,0.6488,-0.0653,9.7849,0.0007,-0.0072,0.0036
63967,46.315765,-0.349315,124.12,32.21,9.648001,31.4,0 / 21,3214050,2019-08-12 11:18:16:540,0.8423,-0.0135,10.4027,0.6488,-0.0653,9.7849,0.0007,-0.0072,0.0036
63968,46.315765,-0.349315,124.12,32.21,9.648001,31.4,0 / 21,3214053,2019-08-12 11:18:16:543,0.8423,-0.0135,10.4027,0.6488,-0.0653,9.7849,0.0007,-0.0072,0.0036
63969,46.315765,-0.349315,124.12,32.21,9.648001,31.4,0 / 21,3214086,2019-08-12 11:18:16:576,0.8423,-0.0135,10.4027,0.6488,-0.0653,9.7849,0.0007,-0.0072,0.0036
63970,46.315765,-0.349315,124.12,32.21,9.648001,31.4,0 / 21,3214186,2019-08-12 11:18:16:676,0.8423,-0.0135,10.4027,0.6488,-0.0653,9.7849,0.0007,-0.0072,0.0036
63971,46.315765,-0.349315,124.12,32.21,9.648001,31.4,0 / 21,3214286,2019-08-12 11:18:16:776,0.6568,-0.484,9.4109,0.6164,-0.4332,9.7777,0.0071,-0.005,0.0025
63972,46.315765,-0.349315,124.12,32.21,9.648001,31.4,0 / 21,3214386,2019-08-12 11:18:16:876,0.4904,-0.3751,9.418,0.6036,-0.4235,9.7789,0.0071,0.0088,0.0025
63973,46.315765,-0.349315,124.12,32.21,9.648001,31.4,0 / 21,3214486,2019-08-12 11:18:16:976,0.5066,-0.3637,9.33,0.595,-0.4019,9.7803,0.0007,0.0056,0.0068
63974,46.315765,-0.349315,124.12,32.21,9.648001,31.4,0 / 21,3214586,2019-08-12 11:18:17:076,0.7322,-0.1668,9.5036,0.6015,-0.3858,9.7806,0.0018,-0.0072,0.0047
63975,46.315765,-0.349315,124.12,32.21,9.648001,31.4,0 / 21,3214686,2019-08-12 11:18:17:176,0.7214,0.1253,9.7808,0.6318,-0.2896,9.782,-0.0036,-0.0157,0.0047
63976,46.315765,-0.349315,124.12,32.21,9.648001,31.4,0 / 21,3214786,2019-08-12 11:18:17:276,0.6023,-0.1171,9.5461,0.6381,-0.2402,9.7829,0.0028,0.0109,0.0036
63977,46.315765,-0.349315,124.12,32.21,9.648001,31.4,0 / 21,3214886,2019-08-12 11:18:17:376,0.397,-0.1291,9.6162,0.6321,-0.2289,9.7836,0.005,0.0014,0.0015
63978,46.315765,-0.349315,124.12,32.21,9.648001,31.4,0 / 21,3214987,2019-08-12 11:18:17:477,0.7071,-0.1961,9.5401,0.6367,-0.2293,9.7833,-0.0089,-0.0072,-0.0007
63979,46.315765,-0.349315,124.12,32.21,9.648001,31.4,0 / 21,3215086,2019-08-12 11:18:17:576,0.6891,-0.0818,9.7065,0.6412,-0.2041,9.7835,-0.0099,-0.0008,0.0004
63980,46.315765,-0.349315,124.12,32.21,9.648001,31.4,0 / 21,3215188,2019-08-12 11:18:17:678,0.5509,-0.1267,9.7245,0.6407,-0.1833,9.784,-0.0036,-0.0008,0.0025
63981,46.315765,-0.349315,124.12,32.21,9.648001,31.4,0 / 21,3215286,2019-08-12 11:18:17:776,0.7436,-0.2308,9.8909,0.6318,-0.1659,9.7849,-0.0014,0.0014,0.0015
63982,46.315765,-0.349315,124.12,32.21,9.648001,31.4,0 / 21,3215386,2019-08-12 11:18:17:876,0.6173,-0.2685,9.3839,0.6307,-0.1537,9.7851,-0.0046,0.0003,-0.0007
63983,46.315765,-0.349315,124.12,32.21,9.648001,31.4,0 / 21,3215487,2019-08-12 11:18:17:977,0.7579,-0.1668,9.7101,0.62,-0.1436,9.786,-0.0078,-0.005,-0.0007
63984,46.315765,-0.349315,124.12,32.21,9.648001,31.4,0 / 21,3215588,2019-08-12 11:18:18:078,0.7053,-0.1045,9.6257,0.6012,-0.1526,9.787,-0.0099,-0.0008,-0.0007
63985,46.315765,-0.349315,124.12,32.21,9.648001,31.4,0 / 21,3215686,2019-08-12 11:18:18:176,0.4994,-0.1919,9.6868,0.5947,-0.1561,9.7874,0.0007,0.0046,-0.0017
63986,46.315765,-0.349315,124.12,32.21,9.648001,31.4,0 / 21,3215786,2019-08-12 11:18:18:276,0.4371,-0.2979,9.585,0.5814,-0.1613,9.7881,0.0039,0.0088,-0.0007
63987,46.315765,-0.349315,124.12,32.21,9.648001,31.4,0 / 21,3215886,2019-08-12 11:18:18:376,0.4695,-0.2865,9.6287,0.5688,-0.1618,9.7888,-0.0004,-0.005,0.0004
63988,46.315765,-0.349315,124.12,32.21,9.648001,31.4,0 / 21,3215986,2019-08-12 11:18:18:476,0.5778,-0.2117,9.5581,0.5627,-0.1596,9.7892,-0.0046,-0.0008,-0.0007
63989,46.315765,-0.349315,124.12,32.21,9.648001,31.4,0 / 21,3216086,2019-08-12 11:18:18:576,0.6963,-0.1919,9.4689,0.5571,-0.1639,9.7894,0.0018,-0.0029,-0.0028
63990,46.315765,-0.349315,124.12,32.21,9.648001,31.4,0 / 21,3216186,2019-08-12 11:18:18:676,0.7071,-0.1913,10.0651,0.56,-0.1985,9.7886,0.0018,-0.005,-0.0049
63991,46.315765,-0.349315,124.12,32.21,9.648001,31.4,0 / 21,3216287,2019-08-12 11:18:18:777,0.5628,-0.2189,9.7449,0.5746,-0.1952,9.7879,0.0092,-0.0008,-0.0049
63992,46.315765,-0.349315,124.12,32.21,9.648001,31.4,0 / 21,3216386,2019-08-12 11:18:18:876,0.6143,-0.423,9.1331,0.57,-0.205,9.7879,0.0103,0.0141,-0.0038
63993,46.315765,-0.349315,124.12,32.21,9.648001,31.4,0 / 21,3216486,2019-08-12 11:18:18:976,0.6412,-0.2578,9.5557,0.5688,-0.2119,9.7878,0.0135,-0.0018,-0.0038
63994,46.315765,-0.349315,124.12,32.21,9.648001,31.4,0 / 21,3216587,2019-08-12 11:18:19:077,0.4766,-0.1985,9.7353,0.5659,-0.2246,9.7877,0.005,0.0014,-0.006
63995,46.315765,-0.349315,124.12,32.21,9.648001,31.4,0 / 21,3216686,2019-08-12 11:18:19:176,0.561,-0.3326,9.8269,0.5608,-0.2171,9.7882,0.0007,-0.0114,-0.006
63996,46.315765,-0.349315,124.12,32.21,9.648001,31.4,0 / 21,3216786,2019-08-12 11:18:19:276,0.5287,-0.2009,9.6928,0.5637,-0.2165,9.788,0.0028,-0.0008,-0.0049
63997,46.315765,-0.349315,124.12,32.21,9.648001,31.4,0 / 21,3216886,2019-08-12 11:18:19:376,0.4928,-0.4277,9.4587,0.5347,-0.1936,9.7902,0.0039,0.0056,-0.0017
63998,46.315765,-0.349315,124.12,32.21,9.648001,31.4,0 / 21,3216986,2019-08-12 11:18:19:476,0.4264,-0.1231,9.5617,0.5057,-0.188,9.7918,0.0028,0.0003,-0.0017
63999,46.315765,-0.349315,124.12,32.21,9.648001,31.4,0 / 21,3217086,2019-08-12 11:18:19:576,0.2498,-0.2781,9.4797,0.4598,-0.1672,9.7944,0.0028,0.0109,-0.0007
64000,46.315765,-0.349315,124.12,32.21,9.648001,31.4,0 / 21,3217187,2019-08-12 11:18:19:677,0.2258,-0.1788,9.6718,0.4479,-0.1619,9.7951,0.005,0.0046,-0.0007
64001,46.315765,-0.349315,124.12,32.21,9.648001,31.4,0 / 21,3217286,2019-08-12 11:18:19:776,0.0983,-0.1967,9.3342,0.4428,-0.1554,9.7954,0.0018,-0.0072,-0.0017
64002,46.315765,-0.349315,124.12,32.21,9.648001,31.4,0 / 21,3217386,2019-08-12 11:18:19:876,0.1953,-0.2141,10.2895,0.4399,-0.1499,9.7956,0.0028,-0.0061,-0.0007
64003,46.315765,-0.349315,124.12,32.21,9.648001,31.4,0 / 21,3217486,2019-08-12 11:18:19:976,0.4736,-0.1704,9.5761,0.4359,-0.15,9.7958,-0.0004,0.0014,-0.0017
64004,46.315765,-0.349315,124.12,32.21,9.648001,31.4,0 / 21,3217586,2019-08-12 11:18:20:076,0.3575,-0.1895,9.5042,0.4232,-0.1478,9.7964,0.005,0.0141,-0.0038
64005,46.315765,-0.349315,124.12,32.21,9.648001,31.4,0 / 21,3217686,2019-08-12 11:18:20:176,0.3312,-0.3607,10.0974,0.4096,-0.1516,9.7969,-0.0025,-0.0018,-0.0038
64006,46.315765,-0.349315,124.12,32.21,9.648001,31.4,0 / 21,3217786,2019-08-12 11:18:20:276,0.5102,-0.3709,9.6221,0.3901,-0.1577,9.7976,-0.0014,0.0035,-0.006
64007,46.315765,-0.349315,124.12,32.21,9.648001,31.4,0 / 21,3217887,2019-08-12 11:18:20:377,0.3623,-0.244,9.5372,0.3919,-0.1842,9.7971,-0.0025,-0.0061,-0.007
64008,46.315765,-0.349315,124.12,32.21,9.648001,31.4,0 / 21,3217987,2019-08-12 11:18:20:477,0.5287,-0.1794,9.5294,0.3914,-0.2141,9.7965,-0.0068,-0.0018,-0.007
64009,46.315765,-0.349315,124.12,32.21,9.648001,31.4,0 / 21,3218087,2019-08-12 11:18:20:577,0.3845,-0.338,9.7544,0.4218,-0.2386,9.7947,-0.0004,-0.0125,-0.0081
64010,46.315765,-0.349315,124.12,32.21,9.648001,31.4,0 / 21,3218186,2019-08-12 11:18:20:676,0.5754,-0.2135,10.0513,0.4385,-0.2626,9.7933,-0.0078,-0.0061,-0.0081
64011,46.315765,-0.349315,124.12,32.21,9.648001,31.4,0 / 21,3218286,2019-08-12 11:18:20:776,0.7616,-0.3188,9.6221,0.4692,-0.2971,9.7909,-0.0068,-0.0008,-0.0092
64012,46.315765,-0.349315,124.12,32.21,9.648001,31.4,0 / 21,3218386,2019-08-12 11:18:20:876,0.6568,-0.3847,9.606,0.4896,-0.3106,9.7895,-0.0014,0.0088,-0.0102
64013,46.315765,-0.349315,124.12,32.21,9.648001,31.4,0 / 21,3218487,2019-08-12 11:18:20:977,0.7011,-0.4391,9.5396,0.4885,-0.3144,9.7894,-0.0014,0.0078,-0.0113
64014,46.315765,-0.349315,124.12,32.21,9.648001,31.4,Nov-20,3218586,2019-08-12 11:18:21:076,0.6562,-0.2961,9.6802,0.5051,-0.3209,9.7884,-0.0068,-0.0157,-0.0113
64015,46.315765,-0.349315,124.12,32.21,9.648001,31.4,Nov-20,3218931,2019-08-12 11:18:21:421,0.6562,-0.2961,9.6802,0.5051,-0.3209,9.7884,-0.0068,-0.0157,-0.0113
64016,46.315765,-0.349315,124.12,32.21,9.648001,31.4,Nov-20,3218932,2019-08-12 11:18:21:422,0.6562,-0.2961,9.6802,0.5051,-0.3209,9.7884,-0.0068,-0.0157,-0.0113
64017,46.315765,-0.349315,124.12,32.21,9.648001,31.4,Nov-20,3218932,2019-08-12 11:18:21:422,0.6562,-0.2961,9.6802,0.5051,-0.3209,9.7884,-0.0068,-0.0157,-0.0113
64018,46.315765,-0.349315,124.12,32.21,9.648001,31.4,Nov-20,3218933,2019-08-12 11:18:21:423,0.6562,-0.2961,9.6802,0.5051,-0.3209,9.7884,-0.0068,-0.0157,-0.0113
64019,46.315765,-0.349315,124.12,32.21,9.648001,31.4,Nov-20,3218933,2019-08-12 11:18:21:423,0.6562,-0.2961,9.6802,0.5051,-0.3209,9.7884,-0.0068,-0.0157,-0.0113
64020,46.315765,-0.349315,124.12,32.21,9.648001,31.4,Nov-20,3218934,2019-08-12 11:18:21:424,0.6562,-0.2961,9.6802,0.5051,-0.3209,9.7884,-0.0068,-0.0157,-0.0113
64021,46.315765,-0.349315,124.12,32.21,9.648001,31.4,Nov-20,3218934,2019-08-12 11:18:21:424,0.6562,-0.2961,9.6802,0.5051,-0.3209,9.7884,-0.0068,-0.0157,-0.0113
64022,46.315765,-0.349315,124.12,32.21,9.648001,31.4,Nov-20,3218934,2019-08-12 11:18:21:424,0.6562,-0.2961,9.6802,0.5051,-0.3209,9.7884,-0.0068,-0.0157,-0.0113
64023,46.315765,-0.349315,124.12,32.21,9.648001,31.4,Nov-20,3218935,2019-08-12 11:18:21:425,0.6562,-0.2961,9.6802,0.5051,-0.3209,9.7884,-0.0068,-0.0157,-0.0113
64024,46.315765,-0.349315,124.12,32.21,9.648001,31.4,Nov-20,3218937,2019-08-12 11:18:21:427,0.6562,-0.2961,9.6802,0.5051,-0.3209,9.7884,-0.0068,-0.0157,-0.0113
64025,46.317978,-0.347379,135.16,32.16,9.648001,32.8,0 / 20,3218993,2019-08-12 11:18:21:483,0.6562,-0.2961,9.6802,0.5051,-0.3209,9.7884,-0.0068,-0.0157,-0.0113
64026,46.317978,-0.347379,135.16,32.16,9.648001,32.8,0 / 20,3219414,2019-08-12 11:18:21:904,0.6562,-0.2961,9.6802,0.5051,-0.3209,9.7884,-0.0068,-0.0157,-0.0113
64027,46.317978,-0.347379,135.16,32.16,9.648001,32.8,0 / 20,3219415,2019-08-12 11:18:21:905,0.6562,-0.2961,9.6802,0.5051,-0.3209,9.7884,-0.0068,-0.0157,-0.0113
64028,46.317978,-0.347379,135.16,32.16,9.648001,32.8,0 / 20,3219416,2019-08-12 11:18:21:906,0.6562,-0.2961,9.6802,0.5051,-0.3209,9.7884,-0.0068,-0.0157,-0.0113
64029,46.317978,-0.347379,135.16,32.16,9.648001,32.8,0 / 20,3219416,2019-08-12 11:18:21:906,0.6562,-0.2961,9.6802,0.5051,-0.3209,9.7884,-0.0068,-0.0157,-0.0113
64030,46.317978,-0.347379,135.16,32.16,9.648001,32.8,0 / 20,3219417,2019-08-12 11:18:21:907,0.6562,-0.2961,9.6802,0.5051,-0.3209,9.7884,-0.0068,-0.0157,-0.0113
64031,46.317978,-0.347379,135.16,32.16,9.648001,32.8,0 / 20,3219417,2019-08-12 11:18:21:907,0.6562,-0.2961,9.6802,0.5051,-0.3209,9.7884,-0.0068,-0.0157,-0.0113
64032,46.317978,-0.347379,135.16,32.16,9.648001,32.8,0 / 20,3219417,2019-08-12 11:18:21:907,0.6562,-0.2961,9.6802,0.5051,-0.3209,9.7884,-0.0068,-0.0157,-0.0113
64033,46.317978,-0.347379,135.16,32.16,9.648001,32.8,0 / 20,3219418,2019-08-12 11:18:21:908,0.6562,-0.2961,9.6802,0.5051,-0.3209,9.7884,-0.0068,-0.0157,-0.0113
64034,46.317978,-0.347379,135.16,32.16,9.648001,32.8,0 / 20,3219418,2019-08-12 11:18:21:908,0.6562,-0.2961,9.6802,0.5051,-0.3209,9.7884,-0.0068,-0.0157,-0.0113
64035,46.317978,-0.347379,135.16,32.16,9.648001,32.8,0 / 20,3219419,2019-08-12 11:18:21:909,0.6562,-0.2961,9.6802,0.5051,-0.3209,9.7884,-0.0068,-0.0157,-0.0113
64036,46.317978,-0.347379,135.16,32.16,9.648001,32.8,0 / 20,3219419,2019-08-12 11:18:21:909,0.6562,-0.2961,9.6802,0.5051,-0.3209,9.7884,-0.0068,-0.0157,-0.0113
64037,46.317978,-0.347379,135.16,32.16,9.648001,32.8,0 / 20,3219420,2019-08-12 11:18:21:910,0.6562,-0.2961,9.6802,0.5051,-0.3209,9.7884,-0.0068,-0.0157,-0.0113
64038,46.317978,-0.347379,135.16,32.16,9.648001,32.8,0 / 20,3219420,2019-08-12 11:18:21:910,0.6562,-0.2961,9.6802,0.5051,-0.3209,9.7884,-0.0068,-0.0157,-0.0113
64039,46.317978,-0.347379,135.16,32.16,9.648001,32.8,0 / 20,3219421,2019-08-12 11:18:21:911,0.6562,-0.2961,9.6802,0.5051,-0.3209,9.7884,-0.0068,-0.0157,-0.0113
64040,46.317978,-0.347379,135.16,32.16,9.648001,32.8,0 / 20,3219421,2019-08-12 11:18:21:911,0.6562,-0.2961,9.6802,0.5051,-0.3209,9.7884,-0.0068,-0.0157,-0.0113
64041,46.317978,-0.347379,135.16,32.16,9.648001,32.8,0 / 20,3219422,2019-08-12 11:18:21:912,0.6562,-0.2961,9.6802,0.5051,-0.3209,9.7884,-0.0068,-0.0157,-0.0113
64042,46.317978,-0.347379,135.16,32.16,9.648001,32.8,0 / 20,3219422,2019-08-12 11:18:21:912,0.6562,-0.2961,9.6802,0.5051,-0.3209,9.7884,-0.0068,-0.0157,-0.0113
64043,46.317978,-0.347379,135.16,32.16,9.648001,32.8,0 / 20,3219422,2019-08-12 11:18:21:912,0.6562,-0.2961,9.6802,0.5051,-0.3209,9.7884,-0.0068,-0.0157,-0.0113
64044,46.317978,-0.347379,135.16,32.16,9.648001,32.8,0 / 20,3219423,2019-08-12 11:18:21:913,0.6562,-0.2961,9.6802,0.5051,-0.3209,9.7884,-0.0068,-0.0157,-0.0113
64045,46.317978,-0.347379,135.16,32.16,9.648001,32.8,0 / 20,3219423,2019-08-12 11:18:21:913,0.6562,-0.2961,9.6802,0.5051,-0.3209,9.7884,-0.0068,-0.0157,-0.0113
64046,46.317978,-0.347379,135.16,32.16,9.648001,32.8,0 / 20,3219424,2019-08-12 11:18:21:914,0.6562,-0.2961,9.6802,0.5051,-0.3209,9.7884,-0.0068,-0.0157,-0.0113
64047,46.317978,-0.347379,135.16,32.16,9.648001,32.8,0 / 20,3219426,2019-08-12 11:18:21:916,0.6562,-0.2961,9.6802,0.5051,-0.3209,9.7884,-0.0068,-0.0157,-0.0113
64048,46.317978,-0.347379,135.16,32.16,9.648001,32.8,0 / 20,3219427,2019-08-12 11:18:21:917,0.6562,-0.2961,9.6802,0.5051,-0.3209,9.7884,-0.0068,-0.0157,-0.0113
64049,46.317978,-0.347379,135.16,32.16,9.648001,32.8,0 / 20,3219427,2019-08-12 11:18:21:917,0.6562,-0.2961,9.6802,0.5051,-0.3209,9.7884,-0.0068,-0.0157,-0.0113
64050,46.317978,-0.347379,135.16,32.16,9.648001,32.8,0 / 20,3219428,2019-08-12 11:18:21:918,0.6562,-0.2961,9.6802,0.5051,-0.3209,9.7884,-0.0068,-0.0157,-0.0113
64051,46.317978,-0.347379,135.16,32.16,9.648001,32.8,0 / 20,3219435,2019-08-12 11:18:21:925,0.6562,-0.2961,9.6802,0.5051,-0.3209,9.7884,-0.0068,-0.0157,-0.0113
64052,46.317978,-0.347379,135.16,32.16,9.648001,32.8,0 / 20,3219535,2019-08-12 11:18:22:025,0.6562,-0.2961,9.6802,0.5051,-0.3209,9.7884,-0.0068,-0.0157,-0.0113
64053,46.317978,-0.347379,135.16,32.16,9.648001,32.8,0 / 20,3219880,2019-08-12 11:18:22:370,0.6562,-0.2961,9.6802,0.5051,-0.3209,9.7884,-0.0068,-0.0157,-0.0113
64054,46.317978,-0.347379,135.16,32.16,9.648001,32.8,0 / 20,3219881,2019-08-12 11:18:22:371,0.6562,-0.2961,9.6802,0.5051,-0.3209,9.7884,-0.0068,-0.0157,-0.0113
64055,46.317978,-0.347379,135.16,32.16,9.648001,32.8,0 / 20,3219882,2019-08-12 11:18:22:372,0.6562,-0.2961,9.6802,0.5051,-0.3209,9.7884,-0.0068,-0.0157,-0.0113
64056,46.317978,-0.347379,135.16,32.16,9.648001,32.8,0 / 20,3219882,2019-08-12 11:18:22:372,0.6562,-0.2961,9.6802,0.5051,-0.3209,9.7884,-0.0068,-0.0157,-0.0113
64057,46.317978,-0.347379,135.16,32.16,9.648001,32.8,0 / 20,3219883,2019-08-12 11:18:22:373,0.6562,-0.2961,9.6802,0.5051,-0.3209,9.7884,-0.0068,-0.0157,-0.0113
64058,46.317978,-0.347379,135.16,32.16,9.648001,32.8,0 / 20,3219883,2019-08-12 11:18:22:373,0.6562,-0.2961,9.6802,0.5051,-0.3209,9.7884,-0.0068,-0.0157,-0.0113
64059,46.317978,-0.347379,135.16,32.16,9.648001,32.8,0 / 20,3219884,2019-08-12 11:18:22:374,0.6562,-0.2961,9.6802,0.5051,-0.3209,9.7884,-0.0068,-0.0157,-0.0113
64060,46.317978,-0.347379,135.16,32.16,9.648001,32.8,0 / 20,3219884,2019-08-12 11:18:22:374,0.6562,-0.2961,9.6802,0.5051,-0.3209,9.7884,-0.0068,-0.0157,-0.0113
64061,46.317978,-0.347379,135.16,32.16,9.648001,32.8,0 / 20,3219885,2019-08-12 11:18:22:375,0.6562,-0.2961,9.6802,0.5051,-0.3209,9.7884,-0.0068,-0.0157,-0.0113
64062,46.317978,-0.347379,135.16,32.16,9.648001,32.8,0 / 20,3219885,2019-08-12 11:18:22:375,0.6562,-0.2961,9.6802,0.5051,-0.3209,9.7884,-0.0068,-0.0157,-0.0113
64063,46.317978,-0.347379,135.16,32.16,9.648001,32.8,0 / 20,3219886,2019-08-12 11:18:22:376,0.6562,-0.2961,9.6802,0.5051,-0.3209,9.7884,-0.0068,-0.0157,-0.0113
64064,46.317978,-0.347379,135.16,32.16,9.648001,32.8,0 / 20,3219886,2019-08-12 11:18:22:376,0.6562,-0.2961,9.6802,0.5051,-0.3209,9.7884,-0.0068,-0.0157,-0.0113
64065,46.317978,-0.347379,135.16,32.16,9.648001,32.8,0 / 20,3219887,2019-08-12 11:18:22:377,0.6562,-0.2961,9.6802,0.5051,-0.3209,9.7884,-0.0068,-0.0157,-0.0113
64066,46.317978,-0.347379,135.16,32.16,9.648001,32.8,0 / 20,3219887,2019-08-12 11:18:22:377,0.6562,-0.2961,9.6802,0.5051,-0.3209,9.7884,-0.0068,-0.0157,-0.0113
64067,46.317978,-0.347379,135.16,32.16,9.648001,32.8,0 / 20,3219888,2019-08-12 11:18:22:378,0.6562,-0.2961,9.6802,0.5051,-0.3209,9.7884,-0.0068,-0.0157,-0.0113
64068,46.317978,-0.347379,135.16,32.16,9.648001,32.8,0 / 20,3219888,2019-08-12 11:18:22:378,0.6562,-0.2961,9.6802,0.5051,-0.3209,9.7884,-0.0068,-0.0157,-0.0113
64069,46.317978,-0.347379,135.16,32.16,9.648001,32.8,0 / 20,3219889,2019-08-12 11:18:22:379,0.6562,-0.2961,9.6802,0.5051,-0.3209,9.7884,-0.0068,-0.0157,-0.0113
64070,46.317978,-0.347379,135.16,32.16,9.648001,32.8,0 / 20,3219889,2019-08-12 11:18:22:379,0.6562,-0.2961,9.6802,0.5051,-0.3209,9.7884,-0.0068,-0.0157,-0.0113
64071,46.317978,-0.347379,135.16,32.16,9.648001,32.8,0 / 20,3219890,2019-08-12 11:18:22:380,0.6562,-0.2961,9.6802,0.5051,-0.3209,9.7884,-0.0068,-0.0157,-0.0113
64072,46.317978,-0.347379,135.16,32.16,9.648001,32.8,0 / 20,3219891,2019-08-12 11:18:22:381,0.6562,-0.2961,9.6802,0.5051,-0.3209,9.7884,-0.0068,-0.0157,-0.0113
64073,46.317978,-0.347379,135.16,32.16,9.648001,32.8,0 / 20,3219892,2019-08-12 11:18:22:382,0.6562,-0.2961,9.6802,0.5051,-0.3209,9.7884,-0.0068,-0.0157,-0.0113
64074,46.317978,-0.347379,135.16,32.16,9.648001,32.8,0 / 20,3219893,2019-08-12 11:18:22:383,0.6562,-0.2961,9.6802,0.5051,-0.3209,9.7884,-0.0068,-0.0157,-0.0113
64075,46.317978,-0.347379,135.16,32.16,9.648001,32.8,0 / 20,3219894,2019-08-12 11:18:22:384,0.6562,-0.2961,9.6802,0.5051,-0.3209,9.7884,-0.0068,-0.0157,-0.0113
64076,46.317978,-0.347379,135.16,32.16,9.648001,32.8,0 / 20,3219896,2019-08-12 11:18:22:386,0.6562,-0.2961,9.6802,0.5051,-0.3209,9.7884,-0.0068,-0.0157,-0.0113
64077,46.317978,-0.347379,135.16,32.16,9.648001,32.8,0 / 20,3219897,2019-08-12 11:18:22:387,0.6562,-0.2961,9.6802,0.5051,-0.3209,9.7884,-0.0068,-0.0157,-0.0113
64078,46.317978,-0.347379,135.16,32.16,9.648001,32.8,0 / 20,3219904,2019-08-12 11:18:22:394,0.6562,-0.2961,9.6802,0.5051,-0.3209,9.7884,-0.0068,-0.0157,-0.0113
64079,46.317978,-0.347379,135.16,32.16,9.648001,32.8,0 / 20,3220004,2019-08-12 11:18:22:494,0.6562,-0.2961,9.6802,0.5051,-0.3209,9.7884,-0.0068,-0.0157,-0.0113
64080,46.317978,-0.347379,135.16,32.16,9.648001,32.8,0 / 20,3220104,2019-08-12 11:18:22:594,0.3569,-0.6456,10.0818,0.6833,-0.3413,9.7769,-0.0025,-0.0146,-0.0102
64081,46.317978,-0.347379,135.16,32.16,9.648001,32.8,0 / 20,3220204,2019-08-12 11:18:22:694,0.6335,-0.8563,9.5815,0.6868,-0.3507,9.7763,0.006,-0.004,-0.0198
64082,46.317978,-0.347379,135.16,32.16,9.648001,32.8,0 / 20,3220307,2019-08-12 11:18:22:797,0.6867,-0.6714,9.5072,0.6873,-0.3631,9.7758,0.0028,0.0046,-0.0177
64083,46.317978,-0.347379,135.16,32.16,9.648001,32.8,0 / 20,3220404,2019-08-12 11:18:22:894,0.7256,-0.8868,9.6168,0.69,-0.3681,9.7754,0.0028,-0.004,-0.0156
64084,46.317978,-0.347379,135.16,32.16,9.648001,32.8,0 / 20,3220504,2019-08-12 11:18:22:994,0.5754,-0.6588,9.4121,0.6965,-0.3775,9.7746,-0.0025,-0.0029,-0.0145
64085,46.317978,-0.347379,135.16,32.16,9.648001,32.8,0 / 20,3220604,2019-08-12 11:18:23:094,0.7406,-0.5702,9.7927,0.7061,-0.4057,9.7728,-0.0025,-0.0029,-0.0134
64086,46.317978,-0.347379,135.16,32.16,9.648001,32.8,0 / 20,3220704,2019-08-12 11:18:23:194,0.7011,-0.5199,9.5192,0.7294,-0.4424,9.7695,-0.0004,-0.004,-0.0134
64087,46.317978,-0.347379,135.16,32.16,9.648001,32.8,0 / 20,3220804,2019-08-12 11:18:23:294,0.7753,-0.6624,9.7616,0.7472,-0.4698,9.7668,0.0018,-0.0008,-0.0134
64088,46.317978,-0.347379,135.16,32.16,9.648001,32.8,0 / 20,3220904,2019-08-12 11:18:23:394,0.7011,-0.5535,9.4264,0.7548,-0.4884,9.7654,-0.0046,-0.0008,-0.0124
64089,46.317978,-0.347379,135.16,32.16,9.648001,32.8,0 / 20,3221005,2019-08-12 11:18:23:495,0.6568,-0.4607,9.922,0.7519,-0.5112,9.7644,-0.0014,0.0024,-0.0124
64090,46.317978,-0.347379,135.16,32.16,9.648001,32.8,0 / 20,3221104,2019-08-12 11:18:23:594,0.7514,-0.56,9.7634,0.7508,-0.5058,9.7648,-0.0078,-0.004,-0.0102
64091,46.317978,-0.347379,135.16,32.16,9.648001,32.8,0 / 20,3221204,2019-08-12 11:18:23:694,0.7609,-0.4547,9.6844,0.7462,-0.4946,9.7657,0.0082,0.0014,-0.0102
64092,46.317978,-0.347379,135.16,32.16,9.648001,32.8,0 / 20,3221304,2019-08-12 11:18:23:794,0.6598,-0.5307,9.7407,0.7309,-0.4795,9.7676,0.0028,0.0046,-0.0092
64093,46.317978,-0.347379,135.16,32.16,9.648001,32.8,0 / 20,3221404,2019-08-12 11:18:23:894,0.7705,-0.5349,9.3109,0.7235,-0.4693,9.7687,-0.0068,-0.0018,-0.007
64094,46.317978,-0.347379,135.16,32.16,9.648001,32.8,0 / 20,3221504,2019-08-12 11:18:23:994,0.977,-0.5977,10.0681,0.722,-0.4384,9.7702,0.006,-0.0029,-0.0102
64095,46.317978,-0.347379,135.16,32.16,9.648001,32.8,0 / 20,3221604,2019-08-12 11:18:24:094,0.5892,-0.4936,9.5832,0.7391,-0.4211,9.7697,-0.0036,0.0003,-0.0092
64096,46.317978,-0.347379,135.16,32.16,9.648001,32.8,0 / 20,3221704,2019-08-12 11:18:24:194,0.8376,-0.3697,9.4115,0.7399,-0.406,9.7703,-0.0014,0.0003,-0.0092
64097,46.317978,-0.347379,135.16,32.16,9.648001,32.8,0 / 20,3221805,2019-08-12 11:18:24:295,0.7957,-0.42,9.8963,0.7379,-0.4123,9.7702,0.0028,0.0046,-0.0102
64098,46.317978,-0.347379,135.16,32.16,9.648001,32.8,0 / 20,3221904,2019-08-12 11:18:24:394,0.7406,-0.5026,10.0058,0.743,-0.4199,9.7694,-0.0089,-0.0018,-0.0092
64099,46.317978,-0.347379,135.16,32.16,9.648001,32.8,0 / 20,3222004,2019-08-12 11:18:24:494,0.7101,-0.5127,9.4037,0.7455,-0.4312,9.7688,-0.0099,-0.004,-0.0102
64100,46.317978,-0.347379,135.16,32.16,9.648001,32.8,0 / 20,3222104,2019-08-12 11:18:24:594,0.7729,-0.5134,9.4372,0.7415,-0.442,9.7686,-0.0025,-0.0072,-0.0102
64101,46.317978,-0.347379,135.16,32.16,9.648001,32.8,0 / 20,3222204,2019-08-12 11:18:24:694,0.7603,-0.6342,9.9065,0.7413,-0.4562,9.7679,0.0071,-0.005,-0.0124
64102,46.317978,-0.347379,135.16,32.16,9.648001,32.8,0 / 20,3222304,2019-08-12 11:18:24:794,0.6993,-0.5481,9.7484,0.7405,-0.4681,9.7674,-0.0036,0.0056,-0.0102
64103,46.317978,-0.347379,135.16,32.16,9.648001,32.8,0 / 20,3222404,2019-08-12 11:18:24:894,0.7065,-0.4762,9.703,0.7433,-0.4672,9.7673,-0.0014,-0.0018,-0.0102
64104,46.317978,-0.347379,135.16,32.16,9.648001,32.8,Oct-20,3222504,2019-08-12 11:18:24:994,0.9543,-0.4307,10.0938,0.7373,-0.4767,9.7673,-0.011,0.0024,-0.007
64105,46.317978,-0.347379,135.16,32.16,9.648001,32.8,Oct-20,3222604,2019-08-12 11:18:25:094,0.9866,-0.3829,9.7921,0.7389,-0.4764,9.7672,-0.0014,-0.0008,-0.0081
64106,46.317978,-0.347379,135.16,32.16,9.648001,32.8,Oct-20,3222704,2019-08-12 11:18:25:194,0.5533,-0.4487,9.5066,0.7241,-0.4706,9.7686,-0.0078,0.0003,-0.007
64107,46.317978,-0.347379,135.16,32.16,9.648001,32.8,Oct-20,3222804,2019-08-12 11:18:25:294,0.8489,-0.3128,9.2319,0.7101,-0.4658,9.7698,-0.0068,0.0014,-0.0081
64108,46.317978,-0.347379,135.16,32.16,9.648001,32.8,Oct-20,3222905,2019-08-12 11:18:25:395,0.7633,-0.2937,9.8304,0.6927,-0.452,9.7717,-0.0068,0.0056,-0.0092
64109,46.317978,-0.347379,135.16,32.16,9.648001,32.8,Oct-20,3223004,2019-08-12 11:18:25:494,0.7059,-0.4427,10.2776,0.6888,-0.4636,9.7714,-0.0099,-0.0008,-0.0092
64110,46.317978,-0.347379,135.16,32.16,9.648001,32.8,Oct-20,3223104,2019-08-12 11:18:25:594,0.6885,-0.5092,9.7191,0.6807,-0.4764,9.7714,-0.0099,0.0003,-0.0092
64111,46.317978,-0.347379,135.16,32.16,9.648001,32.8,Oct-20,3223204,2019-08-12 11:18:25:694,0.7951,-0.414,9.4641,0.6747,-0.4866,9.7713,-0.0099,0.0088,-0.0081
64112,46.317978,-0.347379,135.16,32.16,9.648001,32.8,Oct-20,3223304,2019-08-12 11:18:25:794,0.731,-0.4146,10.3219,0.6807,-0.4842,9.771,-0.0004,0.0014,-0.007
64113,46.317978,-0.347379,135.16,32.16,9.648001,32.8,Oct-20,3223404,2019-08-12 11:18:25:894,0.6185,-0.3021,10.2051,0.6766,-0.4796,9.7715,-0.0025,-0.0072,-0.0049
64114,46.320114,-0.345176,133.59,32.65,8.576,37.1,0 / 20,3223504,2019-08-12 11:18:25:994,0.6903,-0.4194,9.8849,0.6788,-0.4548,9.7726,0.0028,0.0003,-0.0028
64115,46.320114,-0.345176,133.59,32.65,8.576,37.1,0 / 20,3223604,2019-08-12 11:18:26:094,0.6532,-0.1482,10.2841,0.6716,-0.4332,9.774,0.006,-0.004,-0.0038
64116,46.320114,-0.345176,133.59,32.65,8.576,37.1,0 / 20,3223704,2019-08-12 11:18:26:194,0.7418,-0.2985,10.2422,0.6665,-0.387,9.7763,0.0028,0.0035,-0.0038
64117,46.320114,-0.345176,133.59,32.65,8.576,37.1,0 / 20,3223804,2019-08-12 11:18:26:294,0.6478,-0.2398,10.3769,0.6766,-0.3691,9.7763,-0.0078,-0.005,-0.0038
64118,46.320114,-0.345176,133.59,32.65,8.576,37.1,0 / 20,3223904,2019-08-12 11:18:26:394,0.634,-0.4589,9.7778,0.675,-0.3518,9.7771,0.0028,0.0056,-0.006
64119,46.320114,-0.345176,133.59,32.65,8.576,37.1,0 / 20,3224004,2019-08-12 11:18:26:494,0.6329,-0.2506,10.4374,0.6679,-0.3537,9.7775,0.0028,0.0067,-0.007
64120,46.320114,-0.345176,133.59,32.65,8.576,37.1,0 / 20,3224104,2019-08-12 11:18:26:594,0.6921,-0.2338,9.7,0.6448,-0.3497,9.7792,0.0039,-0.0029,-0.006
64121,46.320114,-0.345176,133.59,32.65,8.576,37.1,0 / 20,3224204,2019-08-12 11:18:26:694,0.6185,-0.593,10.2482,0.6509,-0.3505,9.7787,-0.0046,-0.0093,-0.006
64122,46.320114,-0.345176,133.59,32.65,8.576,37.1,0 / 20,3224304,2019-08-12 11:18:26:794,0.5592,-0.5265,9.8251,0.6363,-0.3592,9.7794,-0.0057,-0.0029,-0.007
64123,46.320114,-0.345176,133.59,32.65,8.576,37.1,0 / 20,3224403,2019-08-12 11:18:26:893,0.6257,-0.2769,10.0298,0.6265,-0.3635,9.7799,0.005,0.0024,-0.0092
64124,46.320114,-0.345176,133.59,32.65,8.576,37.1,0 / 20,3224504,2019-08-12 11:18:26:994,0.6023,-0.417,9.925,0.6112,-0.385,9.78,-0.0153,0.0014,-0.0049
64125,46.320114,-0.345176,133.59,32.65,8.576,37.1,0 / 20,3224604,2019-08-12 11:18:27:094,0.5491,-0.4936,9.6593,0.5979,-0.3796,9.781,-0.0132,0.0088,-0.0049
64126,46.320114,-0.345176,133.59,32.65,8.576,37.1,0 / 20,3224704,2019-08-12 11:18:27:194,0.5808,-0.3912,9.7933,0.5945,-0.3525,9.7823,0.0018,0.0014,-0.0007
64127,46.320114,-0.345176,133.59,32.65,8.576,37.1,0 / 20,3224805,2019-08-12 11:18:27:295,0.6293,-0.0884,9.9675,0.5965,-0.3375,9.7827,-0.0036,-0.0093,0.0047
64128,46.320114,-0.345176,133.59,32.65,8.576,37.1,0 / 20,3224905,2019-08-12 11:18:27:395,0.5778,-0.2087,9.8891,0.6106,-0.3265,9.7822,0.0039,-0.004,0.0036
64129,46.320114,-0.345176,133.59,32.65,8.576,37.1,0 / 20,3225004,2019-08-12 11:18:27:494,0.5969,0.011,9.7484,0.6091,-0.3171,9.7826,0.0007,0.0024,0.0025
64130,46.320114,-0.345176,133.59,32.65,8.576,37.1,0 / 20,3225106,2019-08-12 11:18:27:596,0.6065,-0.2183,9.4953,0.625,-0.256,9.7834,0.0071,0.0014,0.0004
64131,46.320114,-0.345176,133.59,32.65,8.576,37.1,0 / 20,3225204,2019-08-12 11:18:27:694,0.5251,-0.2877,9.7329,0.6388,-0.2307,9.7831,0.005,-0.004,-0.0007
64132,46.320114,-0.345176,133.59,32.65,8.576,37.1,0 / 20,3225304,2019-08-12 11:18:27:794,0.5413,-0.2757,9.8209,0.6473,-0.2197,9.7828,0.0071,0.0024,-0.0038
64133,46.320114,-0.345176,133.59,32.65,8.576,37.1,0 / 20,3225404,2019-08-12 11:18:27:894,0.3503,-0.2518,9.6922,0.6385,-0.2193,9.7834,0.005,-0.0008,-0.0049
64134,46.320114,-0.345176,133.59,32.65,8.576,37.1,0 / 20,3225506,2019-08-12 11:18:27:996,0.4204,-0.3098,9.7431,0.6264,-0.2312,9.7839,-0.0025,-0.0018,-0.0038
64135,46.320114,-0.345176,133.59,32.65,8.576,37.1,0 / 20,3225605,2019-08-12 11:18:28:095,0.4796,-0.3368,9.749,0.6139,-0.2452,9.7843,-0.0004,0.0003,-0.0038
64136,46.320114,-0.345176,133.59,32.65,8.576,37.1,0 / 20,3225705,2019-08-12 11:18:28:195,0.3372,-0.4523,9.2894,0.5989,-0.2539,9.7851,0.0007,0.0067,-0.0038
64137,46.320114,-0.345176,133.59,32.65,8.576,37.1,0 / 20,3225804,2019-08-12 11:18:28:294,0.2707,-0.244,9.6754,0.5637,-0.2623,9.7869,0.0028,0.0056,-0.0028
64138,46.320114,-0.345176,133.59,32.65,8.576,37.1,0 / 20,3225904,2019-08-12 11:18:28:394,0.4641,-0.1189,9.8215,0.5367,-0.2507,9.7887,0.0028,0.0024,-0.0038
64139,46.320114,-0.345176,133.59,32.65,8.576,37.1,0 / 20,3226004,2019-08-12 11:18:28:494,0.3731,-0.2769,9.6826,0.5302,-0.251,9.7891,-0.0036,-0.0008,-0.0028
64140,46.320114,-0.345176,133.59,32.65,8.576,37.1,0 / 20,3226104,2019-08-12 11:18:28:594,0.2851,-0.2356,9.5324,0.5147,-0.2546,9.7898,0.0039,0.0035,-0.0049
64141,46.320114,-0.345176,133.59,32.65,8.576,37.1,0 / 20,3226203,2019-08-12 11:18:28:693,0.3821,-0.2745,10.0316,0.4998,-0.2541,9.7906,0.0018,-0.0061,-0.0028
64142,46.320114,-0.345176,133.59,32.65,8.576,37.1,0 / 20,3226304,2019-08-12 11:18:28:794,0.4826,-0.3966,9.5216,0.501,-0.2511,9.7906,0.0071,-0.005,-0.0049
64143,46.320114,-0.345176,133.59,32.65,8.576,37.1,0 / 20,3226404,2019-08-12 11:18:28:894,0.3857,-0.3882,9.7526,0.4939,-0.2543,9.7909,-0.0057,0.0046,-0.0049
64144,46.320114,-0.345176,133.59,32.65,8.576,37.1,0 / 20,3226503,2019-08-12 11:18:28:993,0.3599,-0.5038,9.8394,0.4972,-0.2565,9.7907,-0.0004,-0.0072,-0.007
64145,46.320114,-0.345176,133.59,32.65,8.576,37.1,0 / 20,3226604,2019-08-12 11:18:29:094,0.3785,-0.2763,9.7395,0.5041,-0.2651,9.7901,-0.0046,-0.0018,-0.007
64146,46.320114,-0.345176,133.59,32.65,8.576,37.1,0 / 20,3226704,2019-08-12 11:18:29:194,0.2971,-0.4182,9.6688,0.5019,-0.2865,9.7896,-0.0089,0.0078,-0.0092
64147,46.320114,-0.345176,133.59,32.65,8.576,37.1,0 / 20,3226803,2019-08-12 11:18:29:293,0.3761,-0.6271,9.4761,0.4968,-0.3209,9.7888,-0.0004,0.0067,-0.0113
64148,46.320114,-0.345176,133.59,32.65,8.576,37.1,0 / 20,3226904,2019-08-12 11:18:29:394,0.4605,-0.669,9.761,0.5018,-0.36,9.7872,-0.0014,0.0014,-0.0124
64149,46.320114,-0.345176,133.59,32.65,8.576,37.1,0 / 20,3227004,2019-08-12 11:18:29:494,0.3964,-0.5116,9.3785,0.5075,-0.4307,9.784,0.0071,0.0024,-0.0134
64150,46.320114,-0.345176,133.59,32.65,8.576,37.1,0 / 20,3227104,2019-08-12 11:18:29:594,0.4425,-0.7731,10.0782,0.5296,-0.4703,9.781,0.0018,-0.0082,-0.0156
64151,46.320114,-0.345176,133.59,32.65,8.576,37.1,0 / 20,3227204,2019-08-12 11:18:29:694,0.5054,-0.5989,9.9669,0.5479,-0.5271,9.7771,-0.0014,-0.0061,-0.0156
64152,46.320114,-0.345176,133.59,32.65,8.576,37.1,0 / 20,3227304,2019-08-12 11:18:29:794,0.4126,-0.3685,9.2666,0.554,-0.543,9.7759,-0.0142,-0.0082,-0.0156
64153,46.320114,-0.345176,133.59,32.65,8.576,37.1,0 / 20,3227405,2019-08-12 11:18:29:895,0.5239,-0.7318,10.2039,0.5639,-0.5595,9.7744,0.0028,-0.0104,-0.0166
64154,46.320114,-0.345176,133.59,32.65,8.576,37.1,0 / 20,3227506,2019-08-12 11:18:29:996,0.6945,-0.9587,9.7449,0.5605,-0.556,9.7748,0.006,-0.0018,-0.0145
64155,46.320114,-0.345176,133.59,32.65,8.576,37.1,0 / 20,3227605,2019-08-12 11:18:30:095,0.3725,-0.909,9.5521,0.5521,-0.5508,9.7756,0.0071,0.0088,-0.0145
64156,46.320114,-0.345176,133.59,32.65,8.576,37.1,0 / 20,3227703,2019-08-12 11:18:30:193,0.506,-0.6061,9.4444,0.5436,-0.5567,9.7757,-0.0046,0.012,-0.0134
64157,46.320114,-0.345176,133.59,32.65,8.576,37.1,0 / 20,3227804,2019-08-12 11:18:30:294,0.1732,-0.9024,9.0362,0.5369,-0.5608,9.7759,-0.0078,0.0035,-0.0134
64158,46.320114,-0.345176,133.59,32.65,8.576,37.1,0 / 20,3227903,2019-08-12 11:18:30:393,0.6173,-0.7917,9.664,0.5411,-0.5672,9.7753,0.0145,-0.0072,-0.0177
64159,46.320114,-0.345176,133.59,32.65,8.576,37.1,0 / 20,3228004,2019-08-12 11:18:30:494,0.6406,-0.5439,9.9974,0.554,-0.5752,9.7741,-0.0068,-0.0157,-0.0113
64160,46.320114,-0.345176,133.59,32.65,8.576,37.1,0 / 20,3228104,2019-08-12 11:18:30:594,0.5299,-0.8617,10.1662,0.5613,-0.573,9.7738,0.0039,-0.005,-0.0124
64161,46.320114,-0.345176,133.59,32.65,8.576,37.1,0 / 20,3228204,2019-08-12 11:18:30:694,0.5149,-0.6618,9.5731,0.5648,-0.5711,9.7737,-0.0036,-0.0029,-0.0134
64162,46.320114,-0.345176,133.59,32.65,8.576,37.1,0 / 20,3228304,2019-08-12 11:18:30:794,0.5143,-0.6384,10.2704,0.5683,-0.5836,9.7728,-0.0195,0.0014,-0.0145
64163,46.320114,-0.345176,133.59,32.65,8.576,37.1,0 / 20,3228404,2019-08-12 11:18:30:894,0.4431,-0.6283,9.4414,0.5604,-0.6002,9.7722,-0.0099,0.0067,-0.0145
64164,46.320114,-0.345176,133.59,32.65,8.576,37.1,0 / 20,3228504,2019-08-12 11:18:30:994,0.6424,-0.9784,9.3552,0.552,-0.6039,9.7725,-0.0025,0.0141,-0.0124
64165,46.320114,-0.345176,133.59,32.65,8.576,37.1,0 / 20,3228606,2019-08-12 11:18:31:096,0.5969,-0.8,9.7095,0.5665,-0.6042,9.7716,-0.0046,-0.0029,-0.0113
64166,46.320114,-0.345176,133.59,32.65,8.576,37.1,0 / 20,3228704,2019-08-12 11:18:31:194,0.582,-0.4846,9.9543,0.583,-0.6035,9.7707,-0.0057,-0.0072,-0.0102
64167,46.320114,-0.345176,133.59,32.65,8.576,37.1,0 / 20,3228805,2019-08-12 11:18:31:295,0.4258,-0.8186,9.0601,0.5984,-0.5799,9.7712,0.0039,0.0088,-0.0113
64168,46.320114,-0.345176,133.59,32.65,8.576,37.1,0 / 20,3228906,2019-08-12 11:18:31:396,0.7783,-0.3757,9.512,0.6041,-0.5624,9.7719,0.0018,0.0024,-0.0081
64169,46.320114,-0.345176,133.59,32.65,8.576,37.1,0 / 20,3229004,2019-08-12 11:18:31:494,0.6322,-0.6558,9.746,0.6253,-0.5175,9.773,0.006,-0.0104,-0.0092
64170,46.320114,-0.345176,133.59,32.65,8.576,37.1,0 / 20,3229104,2019-08-12 11:18:31:594,0.6807,-0.578,10.2566,0.6389,-0.5085,9.7726,0.0092,-0.0178,-0.0081
64171,46.320114,-0.345176,133.59,32.65,8.576,37.1,0 / 20,3229205,2019-08-12 11:18:31:695,0.5682,-0.3446,9.9113,0.6522,-0.476,9.7734,0.0018,-0.0008,-0.0049
64172,46.320114,-0.345176,133.59,32.65,8.576,37.1,0 / 20,3229304,2019-08-12 11:18:31:794,0.2917,-0.2751,9.7921,0.6545,-0.4486,9.7745,0.0028,0.0067,-0.0038
64173,46.320114,-0.345176,133.59,32.65,8.576,37.1,0 / 20,3229404,2019-08-12 11:18:31:894,0.8729,-0.3206,9.7185,0.6478,-0.3937,9.7773,0.0039,0.0035,-0.007
64174,46.320114,-0.345176,133.59,32.65,8.576,37.1,0 / 20,3229504,2019-08-12 11:18:31:994,0.7502,-0.5139,9.615,0.6645,-0.3747,9.7769,0.0018,0.0046,-0.007
64175,46.320114,-0.345176,133.59,32.65,8.576,37.1,0 / 20,3229604,2019-08-12 11:18:32:094,0.6203,-0.581,9.7173,0.6617,-0.3543,9.7779,0.0018,0.0014,-0.006
64176,46.320114,-0.345176,133.59,32.65,8.576,37.1,0 / 20,3229704,2019-08-12 11:18:32:194,0.7214,-0.0327,9.9268,0.67,-0.3513,9.7774,0.0028,-0.0082,-0.007
64177,46.320114,-0.345176,133.59,32.65,8.576,37.1,0 / 20,3229805,2019-08-12 11:18:32:295,0.5886,-0.3841,10.1495,0.6784,-0.3541,9.7767,-0.0046,-0.0125,-0.0102
64178,46.320114,-0.345176,133.59,32.65,8.576,37.1,0 / 20,3229904,2019-08-12 11:18:32:394,0.6628,-0.3858,9.6958,0.6825,-0.369,9.7759,-0.0057,-0.0029,-0.0081
64179,46.320114,-0.345176,133.59,32.65,8.576,37.1,0 / 20,3230004,2019-08-12 11:18:32:494,0.5874,-0.3296,9.6174,0.6729,-0.3764,9.7763,-0.0014,0.0152,-0.0038
64180,46.320114,-0.345176,133.59,32.65,8.576,37.1,0 / 20,3230104,2019-08-12 11:18:32:594,0.6287,-0.0985,9.7682,0.6721,-0.3632,9.7768,0.0028,-0.0082,0.0036
64181,46.320114,-0.345176,133.59,32.65,8.576,37.1,0 / 20,3230204,2019-08-12 11:18:32:694,0.7238,-0.1716,9.6623,0.6738,-0.3511,9.7772,0.005,0.0035,0.0047
64182,46.320114,-0.345176,133.59,32.65,8.576,37.1,0 / 20,3230304,2019-08-12 11:18:32:794,0.6161,0.1307,9.8933,0.6618,-0.2798,9.7803,0.005,-0.0018,0.0036
64183,46.320114,-0.345176,133.59,32.65,8.576,37.1,0 / 20,3230403,2019-08-12 11:18:32:893,0.5377,-0.0555,9.4127,0.6624,-0.2235,9.7817,-0.0004,-0.0018,0.0036
64184,46.320114,-0.345176,133.59,32.65,8.576,37.1,0 / 20,3230504,2019-08-12 11:18:32:994,0.5616,-0.0519,9.5629,0.6584,-0.1505,9.7834,-0.0014,-0.0029,0.0004
64185,46.320114,-0.345176,133.59,32.65,8.576,37.1,0 / 20,3230603,2019-08-12 11:18:33:093,0.5383,0.069,9.4695,0.6509,-0.133,9.7841,-0.0025,0.0067,0.0004
64186,46.320114,-0.345176,133.59,32.65,8.576,37.1,0 / 20,3230703,2019-08-12 11:18:33:193,0.4509,-0.0405,9.922,0.6414,-0.1026,9.7851,0.0082,0.0109,0.0004
64187,46.320114,-0.345176,133.59,32.65,8.576,37.1,0 / 20,3230804,2019-08-12 11:18:33:294,0.4689,0.0224,9.8376,0.6286,-0.0939,9.786,0.0156,0.0152,0.0047
64188,46.320114,-0.345176,133.59,32.65,8.576,37.1,0 / 20,3230904,2019-08-12 11:18:33:394,0.4066,-0.1093,9.6365,0.6201,-0.0594,9.7868,0.006,-0.0104,0.0036
64189,46.320114,-0.345176,133.59,32.65,8.576,37.1,0 / 20,3231004,2019-08-12 11:18:33:494,0.5682,0.0607,9.5539,0.6301,-0.0489,9.7863,0.0007,-0.0125,0.0015
64190,46.320114,-0.345176,133.59,32.65,8.576,37.1,0 / 20,3231104,2019-08-12 11:18:33:594,0.6059,-0.1949,10.2297,0.6415,-0.0385,9.7856,0.0092,-0.0072,-0.0017
64191,46.320114,-0.345176,133.59,32.65,8.576,37.1,0 / 20,3231204,2019-08-12 11:18:33:694,0.5634,-0.092,9.8239,0.6408,-0.0412,9.7856,-0.0025,0.0046,0.0004
64192,46.320114,-0.345176,133.59,32.65,8.576,37.1,0 / 20,3231304,2019-08-12 11:18:33:794,0.4024,-0.0369,9.7892,0.6334,-0.0417,9.7861,0.005,0.0035,0.0015
64193,46.320114,-0.345176,133.59,32.65,8.576,37.1,0 / 20,3231403,2019-08-12 11:18:33:893,0.4126,-0.0279,9.3755,0.6296,-0.0478,9.7863,0.0007,-0.0061,0.0015
64194,46.320114,-0.345176,133.59,32.65,8.576,37.1,Oct-20,3231503,2019-08-12 11:18:33:993,0.5622,0.002,9.2798,0.6149,-0.0495,9.7872,0.0018,-0.004,-0.0017
64195,46.320114,-0.345176,133.59,32.65,8.576,37.1,Oct-20,3231604,2019-08-12 11:18:34:094,0.3988,0.1421,11.34,0.6174,-0.0456,9.7871,0.0071,-0.0061,-0.0049
64196,46.320114,-0.345176,133.59,32.65,8.576,37.1,Oct-20,3231705,2019-08-12 11:18:34:195,-0.1955,-0.0399,9.6257,0.6219,-0.0656,9.7867,-0.0238,-0.0072,-0.0038
64197,46.320114,-0.345176,133.59,32.65,8.576,37.1,Oct-20,3231803,2019-08-12 11:18:34:293,0.5437,0.2528,9.7856,0.6235,-0.0836,9.7865,-0.0206,-0.0029,-0.0028
64198,46.320114,-0.345176,133.59,32.65,8.576,37.1,Oct-20,3231905,2019-08-12 11:18:34:395,0.1522,-0.0207,9.2516,0.6119,-0.0952,9.7871,0.0039,0.0099,-0.0007
64199,46.320114,-0.345176,133.59,32.65,8.576,37.1,Oct-20,3232006,2019-08-12 11:18:34:496,0.5191,-0.2231,9.5198,0.6049,-0.0926,9.7875,0.0103,0.0046,-0.0007
64200,46.320114,-0.345176,133.59,32.65,8.576,37.1,Oct-20,3232104,2019-08-12 11:18:34:594,0.2833,-0.0423,9.7401,0.5888,-0.107,9.7884,0.0028,-0.005,-0.0017
64201,46.320114,-0.345176,133.59,32.65,8.576,37.1,Oct-20,3232206,2019-08-12 11:18:34:696,0.421,0.0607,9.4138,0.5846,-0.1116,9.7886,-0.0004,-0.0029,-0.0028
64202,46.320114,-0.345176,133.59,32.65,8.576,37.1,Oct-20,3232305,2019-08-12 11:18:34:795,0.5832,-0.2254,9.8927,0.5861,-0.1239,9.7883,-0.0036,0.0003,-0.0038
64203,46.320114,-0.345176,133.59,32.65,8.576,37.1,Oct-20,3232405,2019-08-12 11:18:34:895,0.3827,-0.0519,9.9394,0.5846,-0.1299,9.7883,-0.0068,0.0014,-0.0028
64204,46.32215,-0.342787,131.4,32.22,9.648001,40.3,0 / 20,3232504,2019-08-12 11:18:34:994,0.3653,0.102,9.4576,0.5959,-0.1513,9.7874,-0.0078,0.0046,0.0004
64205,46.32215,-0.342787,131.4,32.22,9.648001,40.3,0 / 20,3232604,2019-08-12 11:18:35:094,0.6083,-0.2769,9.7395,0.6152,-0.1523,9.7861,-0.0014,-0.0029,-0.0007
64206,46.32215,-0.342787,131.4,32.22,9.648001,40.3,0 / 20,3232704,2019-08-12 11:18:35:194,0.3348,-0.1291,9.5366,0.6359,-0.1563,9.7848,-0.0057,-0.0061,-0.0017
64207,46.32215,-0.342787,131.4,32.22,9.648001,40.3,0 / 20,3232804,2019-08-12 11:18:35:294,0.6173,-0.2512,9.9538,0.6534,-0.1668,9.7834,-0.0057,-0.0114,-0.0028
64208,46.32215,-0.342787,131.4,32.22,9.648001,40.3,0 / 20,3232904,2019-08-12 11:18:35:394,0.4718,-0.2709,9.752,0.6608,-0.183,9.7827,-0.0068,0.0056,-0.0038
64209,46.32215,-0.342787,131.4,32.22,9.648001,40.3,0 / 20,3233003,2019-08-12 11:18:35:493,0.4904,-0.3805,9.7215,0.6649,-0.2025,9.782,0.0007,0.0046,-0.006
64210,46.32215,-0.342787,131.4,32.22,9.648001,40.3,0 / 20,3233104,2019-08-12 11:18:35:594,0.4635,-0.3452,10.0124,0.6699,-0.2248,9.7812,-0.0014,0.0024,-0.007
64211,46.32215,-0.342787,131.4,32.22,9.648001,40.3,0 / 20,3233204,2019-08-12 11:18:35:694,0.4449,-0.557,9.7101,0.6667,-0.2689,9.7803,0.0028,-0.0029,-0.0102
64212,46.32215,-0.342787,131.4,32.22,9.648001,40.3,0 / 20,3233304,2019-08-12 11:18:35:794,0.5209,-0.5391,9.3792,0.6687,-0.3078,9.779,-0.0036,-0.005,-0.0102
64213,46.32215,-0.342787,131.4,32.22,9.648001,40.3,0 / 20,3233404,2019-08-12 11:18:35:894,0.47,-0.3847,10.0411,0.6648,-0.3447,9.778,-0.0046,0.0088,-0.0113
64214,46.32215,-0.342787,131.4,32.22,9.648001,40.3,0 / 20,3233504,2019-08-12 11:18:35:994,0.4222,-0.6229,9.5779,0.6581,-0.3717,9.7775,-0.0025,0.0024,-0.0113
64215,46.32215,-0.342787,131.4,32.22,9.648001,40.3,0 / 20,3233604,2019-08-12 11:18:36:094,0.5389,-0.3404,9.7006,0.6542,-0.4131,9.7761,-0.0068,0.0014,-0.0134
64216,46.32215,-0.342787,131.4,32.22,9.648001,40.3,0 / 20,3233704,2019-08-12 11:18:36:194,0.3192,-0.6259,9.9496,0.6537,-0.4404,9.7749,-0.0046,-0.0029,-0.0134
64217,46.32215,-0.342787,131.4,32.22,9.648001,40.3,0 / 20,3233804,2019-08-12 11:18:36:294,0.3671,-0.6025,9.6946,0.6443,-0.4754,9.7739,-0.0036,0.0024,-0.0134
64218,46.32215,-0.342787,131.4,32.22,9.648001,40.3,0 / 20,3233904,2019-08-12 11:18:36:394,0.6041,-0.3972,9.8089,0.6464,-0.4953,9.7728,-0.0046,0.0035,-0.0124
64219,46.32215,-0.342787,131.4,32.22,9.648001,40.3,0 / 20,3234004,2019-08-12 11:18:36:494,0.5526,-0.5355,9.5102,0.6413,-0.5115,9.7723,0.0039,0.0035,-0.0102
64220,46.32215,-0.342787,131.4,32.22,9.648001,40.3,0 / 20,3234105,2019-08-12 11:18:36:595,0.3719,-0.5421,9.9053,0.6378,-0.5077,9.7727,-0.0004,-0.0082,-0.0102
64221,46.32215,-0.342787,131.4,32.22,9.648001,40.3,0 / 20,3234205,2019-08-12 11:18:36:695,0.5335,-0.402,9.6742,0.6371,-0.5044,9.7729,0.0028,0.0014,-0.0113
64222,46.32215,-0.342787,131.4,32.22,9.648001,40.3,0 / 20,3234305,2019-08-12 11:18:36:795,0.5796,-0.4637,9.7502,0.6408,-0.5066,9.7726,-0.0089,-0.0018,-0.0102
64223,46.32215,-0.342787,131.4,32.22,9.648001,40.3,0 / 20,3234403,2019-08-12 11:18:36:893,0.5592,-0.3984,9.7652,0.641,-0.5058,9.7726,-0.0068,0.0078,-0.0113
64224,46.32215,-0.342787,131.4,32.22,9.648001,40.3,0 / 20,3234505,2019-08-12 11:18:36:995,0.4258,-0.5301,9.8646,0.6412,-0.5105,9.7723,0.0028,0.0067,-0.0113
64225,46.32215,-0.342787,131.4,32.22,9.648001,40.3,0 / 20,3234605,2019-08-12 11:18:37:095,0.4347,-0.557,9.6204,0.6536,-0.5154,9.7713,0.0028,-0.0072,-0.0113
64226,46.32215,-0.342787,131.4,32.22,9.648001,40.3,0 / 20,3235018,2019-08-12 11:18:37:508,0.6095,-0.4296,9.8394,0.6626,-0.5122,9.7708,0.0018,-0.0125,-0.0102
64227,46.32215,-0.342787,131.4,32.22,9.648001,40.3,0 / 20,3235019,2019-08-12 11:18:37:509,0.6095,-0.4296,9.8394,0.6626,-0.5122,9.7708,0.0018,-0.0125,-0.0102
64228,46.32215,-0.342787,131.4,32.22,9.648001,40.3,0 / 20,3235020,2019-08-12 11:18:37:510,0.6095,-0.4296,9.8394,0.6626,-0.5122,9.7708,0.0018,-0.0125,-0.0102
64229,46.32215,-0.342787,131.4,32.22,9.648001,40.3,0 / 20,3235020,2019-08-12 11:18:37:510,0.6095,-0.4296,9.8394,0.6626,-0.5122,9.7708,0.0018,-0.0125,-0.0102
64230,46.32215,-0.342787,131.4,32.22,9.648001,40.3,0 / 20,3235020,2019-08-12 11:18:37:510,0.6095,-0.4296,9.8394,0.6626,-0.5122,9.7708,0.0018,-0.0125,-0.0102
64231,46.32215,-0.342787,131.4,32.22,9.648001,40.3,0 / 20,3235021,2019-08-12 11:18:37:511,0.6095,-0.4296,9.8394,0.6626,-0.5122,9.7708,0.0018,-0.0125,-0.0102
64232,46.32215,-0.342787,131.4,32.22,9.648001,40.3,0 / 20,3235021,2019-08-12 11:18:37:511,0.6095,-0.4296,9.8394,0.6626,-0.5122,9.7708,0.0018,-0.0125,-0.0102
64233,46.32215,-0.342787,131.4,32.22,9.648001,40.3,0 / 20,3235021,2019-08-12 11:18:37:511,0.6095,-0.4296,9.8394,0.6626,-0.5122,9.7708,0.0018,-0.0125,-0.0102
64234,46.32215,-0.342787,131.4,32.22,9.648001,40.3,0 / 20,3235021,2019-08-12 11:18:37:511,0.6095,-0.4296,9.8394,0.6626,-0.5122,9.7708,0.0018,-0.0125,-0.0102
64235,46.32215,-0.342787,131.4,32.22,9.648001,40.3,0 / 20,3235022,2019-08-12 11:18:37:512,0.6095,-0.4296,9.8394,0.6626,-0.5122,9.7708,0.0018,-0.0125,-0.0102
64236,46.32215,-0.342787,131.4,32.22,9.648001,40.3,0 / 20,3235022,2019-08-12 11:18:37:512,0.6095,-0.4296,9.8394,0.6626,-0.5122,9.7708,0.0018,-0.0125,-0.0102
64237,46.32215,-0.342787,131.4,32.22,9.648001,40.3,0 / 20,3235023,2019-08-12 11:18:37:513,0.6095,-0.4296,9.8394,0.6626,-0.5122,9.7708,0.0018,-0.0125,-0.0102
64238,46.32215,-0.342787,131.4,32.22,9.648001,40.3,0 / 20,3235024,2019-08-12 11:18:37:514,0.6095,-0.4296,9.8394,0.6626,-0.5122,9.7708,0.0018,-0.0125,-0.0102
64239,46.32215,-0.342787,131.4,32.22,9.648001,40.3,0 / 20,3235024,2019-08-12 11:18:37:514,0.6095,-0.4296,9.8394,0.6626,-0.5122,9.7708,0.0018,-0.0125,-0.0102
64240,46.32215,-0.342787,131.4,32.22,9.648001,40.3,0 / 20,3235025,2019-08-12 11:18:37:515,0.6095,-0.4296,9.8394,0.6626,-0.5122,9.7708,0.0018,-0.0125,-0.0102
