,GPS LATITUDE (degrees), GPS LONGITUDE (degrees), GPS ALTITUDE (m), GPS SPEED (Kmh), GPS ACCURACY (m), GPS ORIENTATION (Â°),GPS SATELLITES IN RANGE, TIME SINCE START (ms), DATE (YYYY-MO-DD HH-MI-SS_SSS), ACCELEROMETER X (m/s²) , ACCELEROMETER Y (m/s²), ACCELEROMETER Z (m/s²), GRAVITY X (m/s²), GRAVITY Y (m/s²), GRAVITY Z (m/s²), GYROSCOPE Yaw (rad/s), GYROSCOPE Pitch (rad/s), GYROSCOPE Roll (rad/s), MAGNETIC FIELD X (Î¼T), MAGNETIC FIELD Y (Î¼T), MAGNETIC FIELD Z (Î¼T), ORIENTATION (Yaw) (Â°), ORIENTATION (Pitch) (Â°), ORIENTATION (Roll ) (Â°)
26348,51.53378,-2.592998,134,5.06,9,224.5,13 / 22,2634823,2019-08-16 13:33:08:603,0.1976,0.4179,10.0014,0.016,0.0385,9.8066,-0.0022,0.009,0.0091,-12.45,27.15,-2.83,244.34,15.18,3.88
26349,51.53378,-2.592998,134,5.06,9,224.5,13 / 22,2634923,2019-08-16 13:33:08:703,-0.1694,-0.0584,9.8696,0.0048,-0.0019,9.8066,-0.0054,0.0132,0.0027,-12.92,26.85,-3.51,242.16,15.43,3.9
26350,51.53378,-2.592998,134,5.06,9,224.5,13 / 22,2635023,2019-08-16 13:33:08:803,-0.4281,-0.3539,10.3282,-0.0022,-0.0169,9.8066,0.0032,0.0292,0.0037,-12.92,26.85,-3.51,242.16,15.43,3.9
26351,51.53378,-2.592998,134,5.06,9,224.5,13 / 22,2635123,2019-08-16 13:33:08:903,-0.1747,-0.2466,9.7454,-0.0001,0.0014,9.8067,-0.0181,0.0154,-0.0101,-13.84,26.31,-4.03,239.67,15.33,3.86
26352,51.53378,-2.592998,134,5.06,9,224.5,13 / 22,2635223,2019-08-16 13:33:09:003,-0.2539,-0.2224,9.3332,-0.0034,-0.0188,9.8066,0.0106,0.0569,-0.0133,-14.63,25.94,-3.63,238.09,15.34,3.87
26353,51.53378,-2.592998,134,5.06,9,224.5,13 / 22,2635323,2019-08-16 13:33:09:103,-0.4258,-0.3013,10.1547,-0.0103,-0.048,9.8065,-0.0235,-0.0081,0.008,-13.89,26.35,-3.6,239.71,15.07,3.77
26354,51.53378,-2.592998,134,5.06,9,224.5,13 / 22,2635423,2019-08-16 13:33:09:203,0.1172,-0.0939,10.3156,-0.0099,-0.0123,9.8066,0.0096,0.0111,-0.0059,-13.89,26.35,-3.6,239.71,15.07,3.77
26355,51.53378,-2.592998,134,5.06,9,224.5,13 / 22,2635524,2019-08-16 13:33:09:304,0.0144,-0.2324,9.3555,-0.0098,-0.0071,9.8066,0.0096,0.0111,-0.0059,-13.89,26.35,-3.6,239.71,15.01,3.79
26356,51.53378,-2.592998,134,5.06,9,224.5,13 / 22,2635623,2019-08-16 13:33:09:403,-0.4407,-0.5135,9.4649,-0.0242,-0.0272,9.8066,-0.0064,0.0207,0.0122,-13.85,26.26,-4.31,239.71,14.87,3.8
26357,51.53378,-2.592998,134,5.06,9,224.5,13 / 22,2635723,2019-08-16 13:33:09:503,-0.1945,-0.4112,9.7761,-0.0381,-0.0411,9.8065,-0.0043,0.0122,0.0048,-13.85,26.26,-4.31,239.71,14.87,3.8
26358,51.53375,-2.59304,135,4.06,9,224.6,13 / 22,2635823,2019-08-16 13:33:09:603,-0.3202,-0.5604,10.1956,-0.0475,-0.0677,9.8063,0.001,0.0345,-0.0027,-14.1,26.11,-4.39,239.71,14.87,3.8
26359,51.53375,-2.59304,135,4.06,9,224.6,13 / 22,2635923,2019-08-16 13:33:09:703,-0.1821,-0.3228,9.6178,-0.0126,-0.0422,9.8066,-0.0054,-0.0134,-0.0037,-13.04,26.51,-5.2,241.77,14.39,3.84
26360,51.53375,-2.59304,135,4.06,9,224.6,13 / 22,2636023,2019-08-16 13:33:09:803,-0.3924,-0.5204,10.1761,-0.0294,-0.0793,9.8063,0.0117,-0.0432,-0.0069,-13.43,26.67,-2.91,241.77,14.39,3.84
26361,51.53375,-2.59304,135,4.06,9,224.6,13 / 22,2636123,2019-08-16 13:33:09:903,-0.3143,-0.4758,9.243,-0.0358,-0.0915,9.8062,0.0085,0.0175,0.0037,-13.43,26.67,-2.91,241.77,14.39,3.84
26362,51.53375,-2.59304,135,4.06,9,224.6,13 / 22,2636222,2019-08-16 13:33:10:002,-0.1082,-0.2082,10.1834,-0.0107,-0.016,9.8066,-0.0096,0.0132,0.0005,-13.55,26.27,-5.15,239.32,13.82,3.77
26363,51.53375,-2.59304,135,4.06,9,224.6,13 / 22,2636324,2019-08-16 13:33:10:104,-0.3035,-0.3601,9.6849,-0.0196,-0.0281,9.8066,-0.0096,0.0132,0.0005,-13.14,26.71,-3.74,242.31,13.71,3.78
26364,51.53375,-2.59304,135,4.06,9,224.6,13 / 22,2636424,2019-08-16 13:33:10:204,-0.3212,-0.3779,10.2306,-0.0338,-0.0472,9.8065,0.001,-0.0294,0.0027,-13.55,26.31,-4.92,239.35,13.37,3.83
26365,51.53375,-2.59304,135,4.06,9,224.6,13 / 22,2636523,2019-08-16 13:33:10:303,0.0081,-0.2526,9.7727,-0.0079,-0.0198,9.8066,-0.0139,0.0409,0.0037,-13.49,26.15,-5.86,239.35,13.37,3.83
26366,51.53375,-2.59304,135,4.06,9,224.6,13 / 22,2636623,2019-08-16 13:33:10:403,-0.187,-0.3799,9.3456,-0.0212,-0.0473,9.8065,-0.0011,0.0431,0.0027,-13.43,26.04,-6.46,240.58,13.07,3.79
26367,51.53375,-2.59304,135,4.06,9,224.6,13 / 22,2636722,2019-08-16 13:33:10:502,-0.1638,-0.2877,10.0332,-0.0161,-0.0276,9.8066,0.0138,-0.04,-0.0016,-13.43,26.04,-6.46,240.58,13.07,3.79
26368,51.53373,-2.593077,135,3.44,9,224.6,13 / 22,2636823,2019-08-16 13:33:10:603,-0.204,-0.0968,10.2144,-0.0242,-0.0443,9.8065,-0.0043,0.0005,0.0027,-13.84,25.63,-7.18,238.56,12.77,3.79
26369,51.53373,-2.593077,135,3.44,9,224.6,13 / 22,2636923,2019-08-16 13:33:10:703,-0.1248,-0.2053,9.7788,-0.0209,-0.0217,9.8066,-0.0032,-0.0059,0.0005,-12.84,26.11,-7.32,240.19,12.7,3.82
26370,51.53373,-2.593077,135,3.44,9,224.6,13 / 22,2637023,2019-08-16 13:33:10:803,-0.1011,-0.3194,9.872,-0.0095,-0.0204,9.8066,-0.0032,-0.0059,0.0005,-13.9,25.75,-6.6,238.57,12.53,3.86
26371,51.53373,-2.593077,135,3.44,9,224.6,13 / 22,2637123,2019-08-16 13:33:10:903,-0.124,-0.0305,10.2016,-0.0147,-0.029,9.8066,-0.0054,-0.007,0.0037,-13.9,25.75,-6.6,238.57,12.53,3.86
26372,51.53373,-2.593077,135,3.44,9,224.6,13 / 22,2637223,2019-08-16 13:33:11:003,0.1137,-0.1698,9.726,-0.0077,-0.0283,9.8066,-0.0043,0.0005,-0.0123,-13.9,25.75,-6.6,238.61,12.34,3.85
26373,51.53373,-2.593077,135,3.44,9,224.6,13 / 22,2637323,2019-08-16 13:33:11:103,-0.5385,-0.3197,10.2181,-0.0124,-0.0464,9.8065,-0.0075,0.0324,-0.0016,-13.48,26.13,-5.96,240.73,12.07,3.77
26374,51.53373,-2.593077,135,3.44,9,224.6,13 / 22,2637423,2019-08-16 13:33:11:203,-0.249,-0.2361,10.1047,-0.018,-0.0112,9.8066,0.0085,0.0143,-0.0016,-13.48,26.13,-5.96,240.73,12.07,3.77
26375,51.53373,-2.593077,135,3.44,9,224.6,13 / 22,2637523,2019-08-16 13:33:11:303,-0.1383,-0.4154,9.7972,-0.0098,-0.0101,9.8066,0.0021,0.0164,0.0027,-13.9,25.75,-6.6,238.68,11.97,3.83
26376,51.53373,-2.593077,135,3.44,9,224.6,13 / 22,2637623,2019-08-16 13:33:11:403,-0.1113,-0.0365,10.1102,-0.0097,-0.0136,9.8066,-0.0139,-0.007,-0.0005,-13.97,25.88,-5.91,239.09,11.89,3.85
26377,51.53373,-2.593077,135,3.44,9,224.6,13 / 22,2637723,2019-08-16 13:33:11:503,-0.0242,0.1497,10.1366,-0.0119,-0.0242,9.8066,0.0032,0.0026,0.0059,-14.64,25.33,-6.65,239.09,11.89,3.85
26378,51.53372,-2.593109,134,3.28,9,224.7,13 / 22,2637822,2019-08-16 13:33:11:602,0.0474,-0.3134,9.1672,-0.0211,-0.041,9.8065,-0.0075,-0.0006,0.0133,-14.64,25.33,-6.65,239.09,11.89,3.85
26379,51.53372,-2.593109,134,3.28,9,224.7,13 / 22,2637923,2019-08-16 13:33:11:703,0.2039,-0.1207,9.9466,-0.0042,-0.0127,9.8066,-0.0075,-0.0006,0.0133,-14.28,25.82,-5.4,239.53,11.62,3.83
26380,51.53372,-2.593109,134,3.28,9,224.7,13 / 22,2638023,2019-08-16 13:33:11:803,0.0415,0.1834,9.4437,-0.0176,-0.0173,9.8066,0.0149,-0.0006,0.0016,-13.96,25.86,-6.01,239.53,11.62,3.83
26381,51.53372,-2.593109,134,3.28,9,224.7,13 / 22,2638123,2019-08-16 13:33:11:903,0.1356,0.0513,9.4688,-0.0007,-0.0025,9.8066,-0.0096,0.0431,0.0016,-13.66,25.91,-6.48,239.14,11.48,3.87
26382,51.53372,-2.593109,134,3.28,9,224.7,13 / 22,2638223,2019-08-16 13:33:12:003,0.1209,-0.2028,9.2897,-0.0154,-0.0169,9.8066,0.0032,0.0377,-0.0016,-13.83,25.61,-7.28,239.14,11.48,3.87
26383,51.53372,-2.593109,134,3.28,9,224.7,13 / 22,2638323,2019-08-16 13:33:12:103,0.0029,0.1669,10.1135,-0.0025,-0.0191,9.8066,0.0,-0.0432,-0.0016,-13.66,25.91,-6.48,239.15,11.35,3.89
26384,51.53372,-2.593109,134,3.28,9,224.7,13 / 22,2638423,2019-08-16 13:33:12:203,0.0355,-0.1246,9.9623,-0.006,-0.0241,9.8066,0.0202,-0.0262,-0.0091,-13.66,25.91,-6.48,239.15,11.35,3.89
26385,51.53372,-2.593109,134,3.28,9,224.7,13 / 22,2638523,2019-08-16 13:33:12:303,0.0784,0.0753,9.6145,-0.0037,-0.0107,9.8066,0.0138,0.0037,-0.0101,-14.26,25.9,-5.06,239.57,11.21,3.85
26386,51.53372,-2.593109,134,3.28,9,224.7,13 / 22,2638623,2019-08-16 13:33:12:403,-0.1151,0.0843,9.8448,-0.018,-0.016,9.8066,0.0053,0.0282,-0.0016,-14.77,25.73,-4.42,238.34,11.07,3.9
26387,51.53372,-2.593109,134,3.28,9,224.7,13 / 22,2638723,2019-08-16 13:33:12:503,-0.1689,0.2001,9.9112,-0.0017,-0.0086,9.8066,0.0053,0.0282,-0.0016,-14.77,25.73,-4.42,238.34,11.07,3.9
26388,51.533695,-2.593145,134,3.32,9,224.8,13 / 22,2638823,2019-08-16 13:33:12:603,-0.1068,-0.0785,9.7737,-0.0016,-0.004,9.8067,-0.0011,-0.0251,-0.0069,-15.08,25.65,-3.8,238.35,11.02,3.88
26389,51.533695,-2.593145,134,3.32,9,224.8,13 / 22,2638923,2019-08-16 13:33:12:703,-0.1775,-0.0735,9.8474,-0.0088,-0.0179,9.8066,0.0074,-0.024,-0.0048,-14.1,26.11,-4.4,238.35,11.02,3.88
26390,51.533695,-2.593145,134,3.32,9,224.8,13 / 22,2639023,2019-08-16 13:33:12:803,-0.0996,-0.0544,9.8162,-0.0159,-0.0354,9.8066,0.0074,0.0122,0.0059,-14.39,26.03,-3.88,239.99,10.8,3.85
26391,51.533695,-2.593145,134,3.32,9,224.8,13 / 22,2639123,2019-08-16 13:33:12:903,-0.1248,-0.4045,10.1185,-0.0358,-0.0407,9.8065,-0.0011,0.0399,0.0059,-14.2,25.79,-5.75,239.99,10.8,3.85
26392,51.533695,-2.593145,134,3.32,9,224.8,13 / 22,2639223,2019-08-16 13:33:13:003,-0.1386,-0.4307,10.1758,-0.0509,-0.0606,9.8063,0.0053,0.01,0.0005,-14.2,25.79,-5.75,239.99,10.8,3.85
26393,51.533695,-2.593145,134,3.32,9,224.8,13 / 22,2639323,2019-08-16 13:33:13:103,-0.0507,-0.2629,9.5823,-0.0149,-0.0223,9.8066,-0.016,-0.0219,-0.0059,-14.91,25.36,-5.89,236.66,10.35,3.93
26394,51.533695,-2.593145,134,3.32,9,224.8,13 / 22,2639422,2019-08-16 13:33:13:202,-0.3725,-0.305,9.7526,-0.0281,-0.0404,9.8065,-0.0043,-0.0102,-0.0016,-14.73,25.65,-5.01,238.07,10.06,3.94
26395,51.533695,-2.593145,134,3.32,9,224.8,13 / 22,2639523,2019-08-16 13:33:13:303,-0.3006,-0.3078,10.1334,-0.015,-0.0285,9.8066,-0.0043,-0.0102,-0.0016,-14.73,25.65,-5.01,238.07,10.06,3.94
26396,51.533695,-2.593145,134,3.32,9,224.8,13 / 22,2639623,2019-08-16 13:33:13:403,-0.4306,-0.4315,10.3893,-0.0154,-0.0267,9.8066,-0.0213,0.0207,0.0027,-14.0,25.92,-5.66,239.36,9.87,3.92
26397,51.533695,-2.593145,134,3.32,9,224.8,13 / 22,2639723,2019-08-16 13:33:13:503,-0.2425,-0.1065,9.6128,-0.0247,-0.052,9.8065,-0.0032,-0.0038,-0.0069,-14.03,25.98,-5.3,239.36,9.87,3.92
26398,51.53367,-2.593182,135,3.38,9,224.8,13 / 22,2639823,2019-08-16 13:33:13:603,-0.1336,-0.4033,9.4875,-0.043,-0.0735,9.8063,0.0042,0.0015,-0.0027,-14.52,25.89,-4.35,238.48,9.37,3.92
26399,51.53367,-2.593182,135,3.38,9,224.8,13 / 22,2639923,2019-08-16 13:33:13:703,0.044,0.0588,9.698,-0.0226,-0.0196,9.8066,0.0064,-0.0027,-0.0016,-14.92,25.37,-5.79,238.48,9.37,3.92
26400,51.53367,-2.593182,135,3.38,9,224.8,13 / 22,2640023,2019-08-16 13:33:13:803,0.0129,0.2988,9.0155,-0.0347,-0.0316,9.8065,0.0117,-0.0219,0.0037,-14.42,25.71,-5.6,239.46,9.11,4.0
26401,51.53367,-2.593182,135,3.38,9,224.8,13 / 22,2640123,2019-08-16 13:33:13:903,-0.3109,-0.4515,10.2342,-0.0174,-0.0444,9.8065,-0.0299,-0.0038,0.0069,-14.42,25.71,-5.6,239.46,9.11,4.0
26402,51.53367,-2.593182,135,3.38,9,224.8,13 / 22,2640224,2019-08-16 13:33:14:004,-0.1853,-0.3935,9.9543,-0.008,-0.0212,9.8066,0.0213,0.0196,-0.0069,-14.06,26.03,-4.99,239.83,8.83,3.95
26403,51.53367,-2.593182,135,3.38,9,224.8,13 / 22,2640323,2019-08-16 13:33:14:103,0.0012,0.2563,9.5757,-0.0133,-0.0108,9.8066,0.0213,0.0196,-0.0069,-14.2,25.79,-5.75,239.54,8.7,3.93
26404,51.53367,-2.593182,135,3.38,9,224.8,13 / 22,2640423,2019-08-16 13:33:14:203,0.026,0.0362,9.7783,-0.0212,-0.0204,9.8066,0.0202,-0.0059,-0.008,-15.23,25.49,-4.28,237.55,8.54,3.98
26405,51.53367,-2.593182,135,3.38,9,224.8,13 / 22,2640524,2019-08-16 13:33:14:304,-0.1718,-0.3774,9.9155,-0.011,-0.0084,9.8066,0.0021,0.0069,0.0101,-15.23,25.49,-4.28,237.55,8.54,3.98
26406,51.53367,-2.593182,135,3.38,9,224.8,13 / 22,2640623,2019-08-16 13:33:14:403,-0.1082,-0.3122,10.4538,-0.0122,-0.0129,9.8066,0.0053,-0.0091,-0.008,-14.2,25.79,-5.75,239.56,8.46,4.01
26407,51.53367,-2.593182,135,3.38,9,224.8,13 / 22,2640723,2019-08-16 13:33:14:503,0.1934,0.2651,10.0305,-0.0054,-0.0014,9.8066,-0.0032,-0.0198,-0.0091,-14.26,25.9,-5.06,239.88,8.36,4.03
26408,51.53365,-2.593235,134,3.48,9,225.0,13 / 22,2640823,2019-08-16 13:33:14:603,0.252,0.3093,9.6735,-0.0042,-0.0058,9.8066,0.0,0.01,-0.0005,-14.26,25.9,-5.06,239.88,8.36,4.03
26409,51.53365,-2.593235,134,3.48,9,225.0,13 / 22,2640922,2019-08-16 13:33:14:702,0.158,0.0206,9.7991,0.0006,-0.0064,9.8066,-0.0235,0.0111,-0.0005,-14.31,25.99,-4.47,240.2,8.33,4.01
26410,51.53365,-2.593235,134,3.48,9,225.0,13 / 22,2641023,2019-08-16 13:33:14:803,-0.2334,-0.0099,10.2881,0.0027,0.0031,9.8066,-0.0235,0.0111,-0.0005,-14.31,25.99,-4.47,240.2,8.33,4.01
26411,51.53365,-2.593235,134,3.48,9,225.0,13 / 22,2641123,2019-08-16 13:33:14:903,0.4141,0.1196,9.5346,0.0111,0.0188,9.8066,-0.0224,-0.0176,0.0037,-13.2,26.71,-3.52,242.76,8.43,4.02
26412,51.53365,-2.593235,134,3.48,9,225.0,13 / 22,2641223,2019-08-16 13:33:15:003,0.1907,0.1401,9.6269,0.0139,0.0297,9.8066,0.017,0.0346,-0.0091,-13.89,26.36,-3.5,240.48,8.62,4.03
26413,51.53365,-2.593235,134,3.48,9,225.0,13 / 22,2641323,2019-08-16 13:33:15:103,-0.099,-0.0635,9.6869,0.0032,0.013,9.8066,-0.0181,0.0058,-0.0005,-13.89,26.36,-3.5,240.48,8.62,4.03
26414,51.53365,-2.593235,134,3.48,9,225.0,13 / 22,2641423,2019-08-16 13:33:15:203,0.1361,0.4609,10.0193,0.0167,0.0368,9.8066,0.0053,0.0026,-0.0037,-13.69,26.56,-2.7,240.48,8.62,4.03
26415,51.53365,-2.593235,134,3.48,9,225.0,13 / 22,2641524,2019-08-16 13:33:15:304,0.1533,0.2157,9.6238,0.0075,0.0066,9.8066,0.0021,0.0111,-0.0027,-14.84,25.65,-4.7,238.18,8.85,4.05
26416,51.53365,-2.593235,134,3.48,9,225.0,13 / 22,2641623,2019-08-16 13:33:15:403,0.2662,0.313,10.101,0.0169,0.0174,9.8066,0.0,-0.0006,-0.0037,-14.84,25.65,-4.7,238.18,8.85,4.05
26417,51.53365,-2.593235,134,3.48,9,225.0,13 / 22,2641723,2019-08-16 13:33:15:503,0.0079,0.2467,9.6973,0.0007,-0.001,9.8066,0.0117,0.0015,-0.0069,-14.32,26.02,-4.19,240.13,8.99,4.02
26418,51.53363,-2.593286,133,3.65,9,225.3,13 / 22,2641823,2019-08-16 13:33:15:603,0.2182,0.4195,9.8549,0.007,0.0107,9.8066,0.0117,0.0015,-0.0069,-14.28,25.93,-4.86,239.79,9.07,4.01
26419,51.53363,-2.593286,133,3.65,9,225.3,13 / 22,2641923,2019-08-16 13:33:15:703,0.2121,-0.0209,9.8795,0.0048,0.0098,9.8066,-0.0054,0.0122,0.0048,-14.28,25.93,-4.86,239.79,9.07,4.01
26420,51.53363,-2.593286,133,3.65,9,225.3,13 / 22,2642024,2019-08-16 13:33:15:804,0.2099,0.1551,10.125,0.0004,-0.0014,9.8067,0.0032,0.0431,-0.008,-14.04,26.08,-4.78,239.77,9.2,4.01
26421,51.53363,-2.593286,133,3.65,9,225.3,13 / 22,2642123,2019-08-16 13:33:15:903,-0.2931,0.4723,10.0681,-0.007,0.0001,9.8066,-0.0341,-0.0262,0.0133,-14.48,25.84,-4.74,239.78,9.19,4.0
26422,51.53363,-2.593286,133,3.65,9,225.3,13 / 22,2642223,2019-08-16 13:33:16:003,0.0398,0.0918,9.7277,-0.0021,-0.0015,9.8066,0.0127,0.0516,-0.0091,-14.48,25.84,-4.74,239.78,9.19,4.0
26423,51.53363,-2.593286,133,3.65,9,225.3,13 / 22,2642323,2019-08-16 13:33:16:103,0.5041,-0.1327,9.7938,0.0113,-0.0179,9.8066,-0.0011,0.0218,-0.0027,-14.04,26.08,-4.78,239.78,9.18,4.01
26424,51.53363,-2.593286,133,3.65,9,225.3,13 / 22,2642423,2019-08-16 13:33:16:203,-0.162,-0.2598,10.2964,0.0018,-0.0233,9.8066,-0.0299,-0.0326,-0.0005,-14.09,26.17,-4.12,239.78,9.18,4.01
26425,51.53363,-2.593286,133,3.65,9,225.3,13 / 22,2642524,2019-08-16 13:33:16:304,-0.1113,0.2038,10.0409,0.0054,-0.0104,9.8066,0.0127,0.0047,-0.0037,-13.36,26.44,-4.74,241.49,9.07,3.93
26426,51.53363,-2.593286,133,3.65,9,225.3,13 / 22,2642624,2019-08-16 13:33:16:404,0.0916,0.1558,10.405,0.0134,-0.0033,9.8066,-0.0139,-0.0326,0.0059,-13.58,26.31,-4.82,239.82,9.09,3.85
26427,51.53363,-2.593286,133,3.65,9,225.3,13 / 22,2642724,2019-08-16 13:33:16:504,-0.0845,0.1445,9.9319,-0.002,0.017,9.8066,-0.0139,-0.0326,0.0059,-13.58,26.31,-4.82,239.82,9.09,3.85
26428,51.533596,-2.59334,133,3.88,9,225.4,13 / 22,2642823,2019-08-16 13:33:16:603,0.3705,0.1937,9.3452,-0.0023,0.032,9.8066,-0.0118,0.0037,-0.0048,-13.58,26.31,-4.82,239.78,9.24,3.96
26429,51.533596,-2.59334,133,3.88,9,225.4,13 / 22,2642923,2019-08-16 13:33:16:703,0.3165,0.1722,9.8503,0.0103,0.0093,9.8066,0.001,-0.0113,0.0016,-14.04,26.08,-4.78,239.78,9.32,3.93
26430,51.533596,-2.59334,133,3.88,9,225.4,13 / 22,2643023,2019-08-16 13:33:16:803,0.0854,0.0581,9.5757,0.0168,0.0157,9.8066,-0.0054,-0.0059,-0.0091,-14.04,26.08,-4.78,239.78,9.32,3.93
26431,51.533596,-2.59334,133,3.88,9,225.4,13 / 22,2643124,2019-08-16 13:33:16:904,0.1713,-0.0041,9.5739,0.0054,0.0006,9.8066,-0.0118,0.0388,-0.0016,-13.62,26.39,-4.25,240.11,9.45,3.89
26432,51.533596,-2.59334,133,3.88,9,225.4,13 / 22,2643223,2019-08-16 13:33:17:003,0.1166,0.1209,9.5634,0.0062,-0.0044,9.8066,0.001,-0.0677,-0.0048,-13.4,26.53,-4.09,240.11,9.45,3.89
26433,51.533596,-2.59334,133,3.88,9,225.4,13 / 22,2643323,2019-08-16 13:33:17:103,0.0,-0.086,9.8108,0.0077,0.0109,9.8066,0.0042,-0.0411,-0.0027,-14.04,26.08,-4.78,239.78,9.44,3.85
26434,51.533596,-2.59334,133,3.88,9,225.4,13 / 22,2643423,2019-08-16 13:33:17:203,0.1385,-0.2548,9.5942,0.0185,0.0124,9.8066,0.0042,-0.0411,-0.0027,-13.39,26.5,-4.27,242.68,9.56,3.79
26435,51.533596,-2.59334,133,3.88,9,225.4,13 / 22,2643523,2019-08-16 13:33:17:303,0.0978,0.1411,10.1754,-0.0041,0.0119,9.8066,-0.0086,0.0441,0.0101,-13.39,26.5,-4.27,242.68,9.56,3.79
26436,51.533596,-2.59334,133,3.88,9,225.4,13 / 22,2643623,2019-08-16 13:33:17:403,0.0361,0.2171,10.0272,-0.0045,0.009,9.8066,-0.0096,0.0431,-0.0027,-13.58,26.31,-4.82,239.76,9.6,3.84
26437,51.533596,-2.59334,133,3.88,9,225.4,13 / 22,2643723,2019-08-16 13:33:17:503,0.0316,-0.3229,9.3544,0.0075,0.0054,9.8066,0.0064,-0.0592,-0.0091,-13.58,26.31,-4.82,239.76,9.6,3.84
26438,51.53358,-2.593359,133,3.55,9,225.5,13 / 22,2643823,2019-08-16 13:33:17:603,0.1255,0.0095,9.6563,0.009,0.0234,9.8066,0.0053,0.0271,0.0048,-13.16,26.63,-4.2,242.67,9.65,3.82
26439,51.53358,-2.593359,133,3.55,9,225.5,13 / 22,2643923,2019-08-16 13:33:17:703,0.0427,0.0278,9.8182,0.0029,0.007,9.8066,-0.0032,0.01,-0.0037,-13.36,26.52,-4.26,242.65,9.79,3.83
26440,51.53358,-2.593359,133,3.55,9,225.5,13 / 22,2644023,2019-08-16 13:33:17:803,-0.0686,-0.0495,9.7635,-0.0006,0.0166,9.8066,-0.0096,0.0058,0.0016,-13.36,26.52,-4.26,242.65,9.79,3.83
26441,51.53358,-2.593359,133,3.55,9,225.5,13 / 22,2644123,2019-08-16 13:33:17:903,-0.0729,0.0744,9.9845,0.0108,-0.002,9.8066,0.0064,-0.0006,-0.0059,-13.59,26.32,-4.73,239.72,9.88,3.88
26442,51.53358,-2.593359,133,3.55,9,225.5,13 / 22,2644223,2019-08-16 13:33:18:003,0.1676,0.0699,10.2126,0.0075,-0.0073,9.8066,0.0064,-0.0006,-0.0059,-12.9,26.68,-4.69,242.3,9.86,3.82
26443,51.53358,-2.593359,133,3.55,9,225.5,13 / 22,2644323,2019-08-16 13:33:18:103,-0.1794,0.091,9.6213,0.0011,-0.0019,9.8067,0.001,0.0548,-0.0069,-12.94,26.76,-4.03,242.3,9.86,3.82
26444,51.53358,-2.593359,133,3.55,9,225.5,13 / 22,2644423,2019-08-16 13:33:18:203,0.1222,-0.0629,9.9156,0.0049,0.0022,9.8067,-0.015,0.0175,0.0027,-12.94,26.76,-4.03,242.3,9.86,3.82
26445,51.53358,-2.593359,133,3.55,9,225.5,13 / 22,2644523,2019-08-16 13:33:18:303,-0.1747,0.042,10.072,-0.0042,0.0039,9.8066,-0.0267,-0.0091,0.0027,-13.44,26.6,-3.43,243.0,9.88,3.8
26446,51.53358,-2.593359,133,3.55,9,225.5,13 / 22,2644623,2019-08-16 13:33:18:403,-0.4265,0.0144,9.9608,0.001,0.0125,9.8066,0.0362,-0.0017,-0.0112,-13.63,26.4,-4.16,243.0,9.88,3.8
26447,51.53358,-2.593359,133,3.55,9,225.5,13 / 22,2644723,2019-08-16 13:33:18:503,-0.0696,-0.1217,10.085,-0.0016,0.0,9.8067,0.017,0.0111,-0.008,-12.68,26.86,-4.23,242.63,9.92,3.88
26448,51.533546,-2.593401,134,3.72,9,225.7,13 / 22,2644823,2019-08-16 13:33:18:603,0.127,-0.0767,9.5623,0.0085,0.0051,9.8066,-0.0118,-0.04,-0.0059,-13.16,26.63,-4.2,242.63,9.92,3.88
26449,51.533546,-2.593401,134,3.72,9,225.7,13 / 22,2644923,2019-08-16 13:33:18:703,-0.0801,-0.3441,9.5259,0.0122,-0.0055,9.8066,0.0319,-0.0422,-0.0069,-12.94,26.76,-4.03,242.64,9.93,3.8
26450,51.533546,-2.593401,134,3.72,9,225.7,13 / 22,2645022,2019-08-16 13:33:18:802,0.055,0.3617,10.0096,-0.0043,0.0059,9.8066,0.0319,-0.0422,-0.0069,-12.94,26.76,-4.03,242.64,9.93,3.8
26451,51.533546,-2.593401,134,3.72,9,225.7,13 / 22,2645123,2019-08-16 13:33:18:903,-0.2591,0.0796,10.3831,-0.0051,0.0154,9.8066,-0.0011,0.0399,0.0059,-13.4,26.53,-4.09,242.63,9.95,3.84
26452,51.533546,-2.593401,134,3.72,9,225.7,13 / 22,2645223,2019-08-16 13:33:19:003,-0.1431,-0.3324,9.2841,-0.0053,0.0135,9.8066,-0.0256,0.0186,-0.0016,-12.72,26.88,-3.96,242.61,10.0,3.9
26453,51.533546,-2.593401,134,3.72,9,225.7,13 / 22,2645323,2019-08-16 13:33:19:103,0.2696,-0.1722,9.6729,-0.0011,-0.0075,9.8066,0.0064,-0.007,-0.0048,-12.72,26.88,-3.96,242.61,10.0,3.9
26454,51.533546,-2.593401,134,3.72,9,225.7,13 / 22,2645423,2019-08-16 13:33:19:203,0.2867,0.287,9.8683,-0.0069,-0.0152,9.8066,-0.0064,-0.0422,-0.0048,-12.68,26.86,-4.23,242.62,9.9,3.89
26455,51.533546,-2.593401,134,3.72,9,225.7,13 / 22,2645523,2019-08-16 13:33:19:303,0.0894,-0.0226,9.2803,0.0094,0.0023,9.8066,-0.0032,0.0068,-0.0005,-12.68,26.86,-4.23,242.62,9.9,3.89
26456,51.533546,-2.593401,134,3.72,9,225.7,13 / 22,2645623,2019-08-16 13:33:19:403,-0.0106,0.1217,9.685,-0.0039,0.0041,9.8067,0.0149,0.0175,-0.0027,-12.88,26.77,-4.2,242.63,9.94,3.85
26457,51.533546,-2.593401,134,3.72,9,225.7,13 / 22,2645723,2019-08-16 13:33:19:503,-0.0433,0.1492,9.9705,-0.0103,-0.0069,9.8066,0.0,0.0196,-0.0101,-12.97,26.83,-3.46,242.97,9.91,3.94
26458,51.53352,-2.59344,134,3.95,9,225.7,13 / 22,2645823,2019-08-16 13:33:19:603,-0.1844,-0.3231,9.6614,-0.0072,-0.0129,9.8066,0.0,0.0196,-0.0101,-12.94,26.75,-4.12,242.97,9.91,3.94
26459,51.53352,-2.59344,134,3.95,9,225.7,13 / 22,2645923,2019-08-16 13:33:19:703,-0.235,-0.1847,9.6682,-0.0176,-0.0334,9.8066,0.0064,0.0527,-0.0123,-12.94,26.75,-4.12,242.97,9.91,3.94
26460,51.53352,-2.59344,134,3.95,9,225.7,13 / 22,2646023,2019-08-16 13:33:19:803,0.2591,0.0758,9.7152,0.004,-0.0216,9.8066,-0.0203,0.0175,-0.0069,-12.68,26.86,-4.23,242.64,9.69,3.94
26461,51.53352,-2.59344,134,3.95,9,225.7,13 / 22,2646123,2019-08-16 13:33:19:903,-0.06,0.0325,10.0435,0.0005,-0.0256,9.8066,0.0277,-0.0219,-0.0016,-12.68,26.86,-4.23,242.67,9.56,3.87
26462,51.53352,-2.59344,134,3.95,9,225.7,13 / 22,2646223,2019-08-16 13:33:20:003,-0.0661,0.0574,9.9308,-0.005,0.0064,9.8066,0.0191,-0.0059,-0.008,-12.68,26.86,-4.23,242.65,9.58,3.91
26463,51.53352,-2.59344,134,3.95,9,225.7,13 / 22,2646323,2019-08-16 13:33:20:103,0.2146,0.2043,10.1165,-0.0077,-0.0063,9.8066,0.0181,-0.0283,-0.0037,-12.68,26.86,-4.23,242.65,9.58,3.91
26464,51.53352,-2.59344,134,3.95,9,225.7,13 / 22,2646423,2019-08-16 13:33:20:203,-0.0709,-0.0717,10.016,-0.0059,-0.0147,9.8066,-0.0086,0.0314,0.0005,-12.65,26.78,-4.81,242.31,9.53,3.93
26465,51.53352,-2.59344,134,3.95,9,225.7,13 / 22,2646523,2019-08-16 13:33:20:303,-0.4188,-0.0471,9.964,-0.0107,-0.0279,9.8066,-0.0032,0.0196,0.0069,-12.19,27.08,-4.27,244.38,9.36,3.91
26466,51.53352,-2.59344,134,3.95,9,225.7,13 / 22,2646623,2019-08-16 13:33:20:403,0.1779,-0.3545,9.0492,-0.0009,-0.0046,9.8066,-0.0192,-0.0411,-0.0101,-12.19,27.08,-4.27,244.38,9.36,3.91
26467,51.53352,-2.59344,134,3.95,9,225.7,13 / 22,2646723,2019-08-16 13:33:20:503,-0.2036,-0.1864,9.909,-0.0037,-0.0069,9.8066,-0.0192,-0.0411,-0.0101,-12.83,26.67,-4.88,242.36,9.33,3.86
26468,51.533497,-2.593477,133,3.83,9,225.9,13 / 22,2646823,2019-08-16 13:33:20:603,0.0219,-0.0955,9.9903,-0.0015,-0.0044,9.8067,0.0032,0.0143,-0.0101,-12.92,26.85,-3.51,242.7,9.28,3.86
26469,51.533497,-2.593477,133,3.83,9,225.9,13 / 22,2646923,2019-08-16 13:33:20:703,0.0824,0.0832,10.1198,0.0097,-0.0163,9.8066,0.017,-0.0326,-0.008,-12.83,26.67,-4.88,242.4,9.22,3.76
26470,51.533497,-2.593477,133,3.83,9,225.9,13 / 22,2647023,2019-08-16 13:33:20:803,-0.2017,-0.0557,9.8684,-0.004,-0.0035,9.8066,-0.0075,-0.0059,-0.0048,-12.83,26.67,-4.88,242.4,9.22,3.76
26471,51.533497,-2.593477,133,3.83,9,225.9,13 / 22,2647123,2019-08-16 13:33:20:903,0.2627,0.0368,9.7493,0.0068,0.0147,9.8066,-0.0054,-0.0123,0.0027,-12.87,26.76,-4.29,242.72,9.2,3.77
26472,51.533497,-2.593477,133,3.83,9,225.9,13 / 22,2647223,2019-08-16 13:33:21:003,0.358,0.6939,10.3454,0.006,0.0269,9.8066,0.0021,0.0409,-0.0016,-12.15,26.98,-4.94,244.06,9.35,3.82
26473,51.533497,-2.593477,133,3.83,9,225.9,13 / 22,2647323,2019-08-16 13:33:21:103,0.2245,0.0266,10.0119,0.0096,0.0242,9.8066,-0.0192,0.0292,0.0016,-12.15,26.98,-4.94,244.06,9.35,3.82
26474,51.533497,-2.593477,133,3.83,9,225.9,13 / 22,2647423,2019-08-16 13:33:21:203,0.4327,0.348,9.9481,0.0131,-0.0063,9.8066,-0.0192,0.0292,0.0016,-12.11,26.89,-5.52,243.69,9.5,3.83
26475,51.533497,-2.593477,133,3.83,9,225.9,13 / 22,2647523,2019-08-16 13:33:21:303,-0.4342,-0.2825,9.6731,0.0183,-0.0053,9.8066,0.0138,-0.0081,-0.0059,-12.33,26.88,-5.02,243.69,9.5,3.83
26476,51.533497,-2.593477,133,3.83,9,225.9,13 / 22,2647623,2019-08-16 13:33:21:403,0.0321,0.0781,9.6611,0.0293,0.0039,9.8066,-0.0107,-0.0251,0.0037,-13.06,26.55,-4.97,242.36,9.6,3.68
26477,51.533497,-2.593477,133,3.83,9,225.9,13 / 22,2647723,2019-08-16 13:33:21:503,0.3323,0.2869,9.9071,0.0041,0.0204,9.8066,0.0191,-0.0049,-0.0027,-13.06,26.55,-4.97,242.36,9.6,3.68
26478,51.53347,-2.593516,133,3.89,9,225.9,13 / 22,2647823,2019-08-16 13:33:21:603,0.0451,-0.128,9.3874,-0.0155,0.0152,9.8066,0.0063,0.0058,0.008,-11.83,27.12,-4.96,244.03,9.72,3.72
26479,51.53347,-2.593516,133,3.89,9,225.9,13 / 22,2647923,2019-08-16 13:33:21:703,0.1423,0.3542,10.2996,-0.0104,0.0166,9.8066,-0.0267,0.0527,-0.008,-12.11,26.89,-5.52,244.03,9.72,3.72
26480,51.53347,-2.593516,133,3.89,9,225.9,13 / 22,2648023,2019-08-16 13:33:21:803,0.1312,0.3998,10.2916,0.0135,0.0045,9.8066,-0.015,0.0622,-0.0016,-11.69,27.29,-4.3,244.35,9.78,3.82
26481,51.53347,-2.593516,133,3.89,9,225.9,13 / 22,2648123,2019-08-16 13:33:21:903,0.4351,0.2144,9.7205,0.02,0.0128,9.8066,0.0159,-0.0667,-0.0005,-12.12,27.01,-4.83,244.35,9.78,3.82
26482,51.53347,-2.593516,133,3.89,9,225.9,13 / 22,2648223,2019-08-16 13:33:22:003,0.1391,-0.3784,9.4513,0.009,0.0098,9.8066,0.0159,-0.0667,-0.0005,-13.32,26.44,-4.84,241.42,9.9,3.74
26483,51.53347,-2.593516,133,3.89,9,225.9,13 / 22,2648323,2019-08-16 13:33:22:103,0.1912,0.1557,9.6423,0.013,0.0181,9.8066,-0.0064,-0.0496,0.0016,-12.84,26.74,-4.49,242.65,10.02,3.73
26484,51.53347,-2.593516,133,3.89,9,225.9,13 / 22,2648423,2019-08-16 13:33:22:203,0.1668,0.0796,9.8622,-0.0128,0.0053,9.8066,0.0159,0.0377,0.0048,-12.84,26.74,-4.49,242.65,10.02,3.73
26485,51.53347,-2.593516,133,3.89,9,225.9,13 / 22,2648523,2019-08-16 13:33:22:303,-0.1499,-0.2523,9.4966,-0.0002,-0.0032,9.8066,-0.0054,-0.0294,-0.0016,-12.83,26.67,-4.88,242.28,10.02,3.81
26486,51.53347,-2.593516,133,3.89,9,225.9,13 / 22,2648622,2019-08-16 13:33:22:402,0.0595,-0.054,9.834,0.0028,-0.0073,9.8066,-0.0054,-0.0219,-0.0016,-12.65,26.78,-4.81,242.29,9.99,3.77
26487,51.53347,-2.593516,133,3.89,9,225.9,13 / 22,2648723,2019-08-16 13:33:22:503,0.2554,0.3979,10.2596,0.0002,0.0003,9.8067,-0.0032,0.0175,-0.0027,-13.11,26.63,-4.37,242.64,10.02,3.78
26488,51.533447,-2.593557,132,4.13,9,226.0,13 / 22,2648823,2019-08-16 13:33:22:603,0.3124,0.3381,9.7773,0.0006,0.0015,9.8067,0.0106,-0.0283,-0.0027,-12.51,26.66,-5.7,241.93,10.03,3.78
26489,51.533447,-2.593557,132,4.13,9,226.0,13 / 22,2648923,2019-08-16 13:33:22:703,0.0918,-0.1271,9.8539,0.0018,0.0001,9.8067,0.0074,-0.0667,-0.0048,-12.51,26.66,-5.7,241.93,10.03,3.78
26490,51.533447,-2.593557,132,4.13,9,226.0,13 / 22,2649023,2019-08-16 13:33:22:803,0.0765,-0.0342,9.836,0.004,0.0126,9.8066,0.0074,-0.0667,-0.0048,-13.06,26.55,-4.97,242.29,10.03,3.77
26491,51.533447,-2.593557,132,4.13,9,226.0,13 / 22,2649124,2019-08-16 13:33:22:904,0.095,-0.1899,9.3512,0.003,0.0186,9.8066,-0.0054,0.058,0.0016,-12.34,26.9,-4.92,243.95,10.14,3.81
26492,51.533447,-2.593557,132,4.13,9,226.0,13 / 22,2649223,2019-08-16 13:33:23:003,0.0575,0.1875,9.8148,0.0027,-0.0011,9.8066,0.0085,0.0292,0.0016,-12.34,26.9,-4.92,243.95,10.14,3.81
26493,51.533447,-2.593557,132,4.13,9,226.0,13 / 22,2649323,2019-08-16 13:33:23:103,-0.1248,-0.2073,9.7851,0.0047,0.002,9.8066,0.0074,-0.0145,-0.0016,-12.34,26.9,-4.92,243.95,10.14,3.81
26494,51.533447,-2.593557,132,4.13,9,226.0,13 / 22,2649423,2019-08-16 13:33:23:203,0.1129,0.3511,10.2402,-0.0035,0.0052,9.8066,-0.0192,0.0324,-0.0005,-13.32,26.44,-4.84,241.36,10.15,3.84
26495,51.533447,-2.593557,132,4.13,9,226.0,13 / 22,2649523,2019-08-16 13:33:23:303,0.2732,0.0337,10.1873,0.0035,0.0042,9.8066,-0.0011,-0.023,-0.0059,-13.32,26.44,-4.84,241.36,10.15,3.84
26496,51.533447,-2.593557,132,4.13,9,226.0,13 / 22,2649624,2019-08-16 13:33:23:404,0.024,0.024,9.9644,0.0015,-0.0179,9.8066,0.0191,0.0218,0.0005,-12.34,26.9,-4.92,243.94,10.19,3.84
26497,51.533447,-2.593557,132,4.13,9,226.0,13 / 22,2649723,2019-08-16 13:33:23:503,0.1442,-0.1119,9.7237,-0.002,0.013,9.8066,0.0191,0.0218,0.0005,-12.38,27.0,-4.23,244.32,10.1,3.78
26498,51.533424,-2.593598,131,4.06,9,226.2,13 / 22,2649823,2019-08-16 13:33:23:603,0.0486,-0.0341,10.0546,-0.0009,0.014,9.8066,-0.0107,0.0079,0.0016,-12.83,26.67,-4.88,244.32,10.1,3.78
26499,51.533424,-2.593598,131,4.06,9,226.2,13 / 22,2649923,2019-08-16 13:33:23:703,-0.0254,0.259,9.9508,-0.0056,0.017,9.8066,-0.0043,-0.0145,-0.0016,-13.32,26.44,-4.84,241.36,10.17,3.86
26500,51.533424,-2.593598,131,4.06,9,226.2,13 / 22,2650023,2019-08-16 13:33:23:803,-0.0073,0.0604,9.9471,0.0056,-0.0041,9.8066,-0.0128,0.0356,0.0059,-13.32,26.44,-4.84,241.36,10.17,3.86
26501,51.533424,-2.593598,131,4.06,9,226.2,13 / 22,2650122,2019-08-16 13:33:23:902,-0.2513,-0.2053,9.805,0.0011,0.0026,9.8067,0.0064,0.0633,0.0059,-13.06,26.55,-4.97,242.26,10.17,3.81
26502,51.533424,-2.593598,131,4.06,9,226.2,13 / 22,2650223,2019-08-16 13:33:24:003,0.1682,-0.2536,9.3917,0.0019,0.009,9.8066,0.0085,-0.0102,-0.0005,-13.36,26.54,-4.16,242.61,10.22,3.83
26503,51.533424,-2.593598,131,4.06,9,226.2,13 / 22,2650323,2019-08-16 13:33:24:103,0.1796,-0.0786,9.8319,0.0052,-0.0025,9.8066,-0.0128,0.0036,0.0069,-13.6,26.4,-4.23,242.61,10.22,3.83
26504,51.533424,-2.593598,131,4.06,9,226.2,13 / 22,2650423,2019-08-16 13:33:24:203,-0.3825,-0.1059,9.8769,-0.0082,0.0018,9.8066,0.0245,0.0388,-0.0048,-13.26,26.34,-5.51,240.98,10.2,3.88
26505,51.533424,-2.593598,131,4.06,9,226.2,13 / 22,2650523,2019-08-16 13:33:24:303,0.2455,-0.0247,10.2419,-0.0014,-0.0004,9.8066,0.0245,0.0388,-0.0048,-13.26,26.34,-5.51,240.98,10.2,3.88
26506,51.533424,-2.593598,131,4.06,9,226.2,13 / 22,2650623,2019-08-16 13:33:24:403,0.2585,-0.0172,9.8135,0.0025,0.0002,9.8067,-0.0043,-0.0145,-0.0027,-12.43,26.89,-4.72,243.92,10.2,3.88
26507,51.533424,-2.593598,131,4.06,9,226.2,13 / 22,2650723,2019-08-16 13:33:24:503,-0.313,-0.371,9.4211,-0.0066,-0.0026,9.8066,-0.0043,0.0164,-0.0037,-12.12,27.01,-4.83,243.93,10.21,3.87
26508,51.5334,-2.593639,131,3.81,9,226.3,13 / 22,2650823,2019-08-16 13:33:24:603,0.0021,-0.1069,9.6693,-0.0038,-0.0106,9.8066,0.0287,-0.0336,-0.0069,-13.21,26.24,-6.07,240.99,10.14,3.86
26509,51.5334,-2.593639,131,3.81,9,226.3,13 / 22,2650923,2019-08-16 13:33:24:703,0.0595,0.2616,10.42,0.0029,0.0131,9.8066,-0.0064,0.0431,0.0005,-13.21,26.24,-6.07,240.99,10.14,3.86
26510,51.5334,-2.593639,131,3.81,9,226.3,13 / 22,2651023,2019-08-16 13:33:24:803,-0.1839,0.0008,9.7205,0.0001,-0.0026,9.8067,0.0106,-0.0091,0.0016,-12.85,26.58,-5.34,242.24,10.22,3.89
26511,51.5334,-2.593639,131,3.81,9,226.3,13 / 22,2651123,2019-08-16 13:33:24:903,-0.1112,0.0477,9.9552,-0.0013,0.0003,9.8067,0.0032,-0.0326,-0.0005,-12.83,26.67,-4.88,242.23,10.21,3.89
26512,51.5334,-2.593639,131,3.81,9,226.3,13 / 22,2651224,2019-08-16 13:33:25:004,-0.0978,-0.0896,10.0828,-0.0013,0.0077,9.8066,0.0127,0.0143,-0.0016,-12.23,27.16,-3.58,244.27,10.25,3.92
26513,51.5334,-2.593639,131,3.81,9,226.3,13 / 22,2651323,2019-08-16 13:33:25:103,-0.3437,0.1077,10.2246,-0.0052,0.0009,9.8066,0.0127,0.0143,-0.0016,-12.23,27.16,-3.58,244.27,10.25,3.92
26514,51.5334,-2.593639,131,3.81,9,226.3,13 / 22,2651423,2019-08-16 13:33:25:203,-0.0496,-0.1283,9.4419,0.0023,0.0048,9.8067,-0.0064,0.0132,0.0016,-12.61,26.8,-4.79,242.22,10.24,3.95
26515,51.5334,-2.593639,131,3.81,9,226.3,13 / 22,2651523,2019-08-16 13:33:25:303,0.2116,0.0728,9.596,0.0013,0.0047,9.8067,0.0032,-0.0166,-0.0016,-13.49,26.71,-2.1,242.22,10.24,3.95
26516,51.5334,-2.593639,131,3.81,9,226.3,13 / 22,2651623,2019-08-16 13:33:25:403,0.0805,0.3439,10.2418,0.0027,0.0185,9.8066,0.0127,-0.0549,-0.0037,-13.49,26.71,-2.1,242.22,10.24,3.95
26517,51.5334,-2.593639,131,3.81,9,226.3,13 / 22,2651723,2019-08-16 13:33:25:503,0.2596,0.4474,9.7968,0.0135,0.0078,9.8066,0.0032,-0.0006,-0.0069,-12.94,26.76,-4.03,242.56,10.34,3.99
26518,51.533375,-2.593679,128,3.86,9,226.5,13 / 22,2651823,2019-08-16 13:33:25:603,0.215,-0.0613,9.787,0.0203,0.0148,9.8066,-0.0171,0.0367,0.0059,-13.4,26.6,-3.57,242.56,10.34,3.99
26519,51.533375,-2.593679,128,3.86,9,226.5,13 / 22,2651923,2019-08-16 13:33:25:703,0.0994,-0.1174,9.5029,0.0124,0.0124,9.8066,-0.0192,0.0324,0.0059,-13.17,26.74,-3.41,242.93,10.48,3.92
26520,51.533375,-2.593679,128,3.86,9,226.5,13 / 22,2652023,2019-08-16 13:33:25:803,0.2584,0.3302,9.9283,0.0263,0.0277,9.8066,-0.0192,0.0324,0.0059,-12.98,26.84,-3.37,242.93,10.48,3.92
26521,51.533375,-2.593679,128,3.86,9,226.5,13 / 22,2652125,2019-08-16 13:33:25:905,-0.1846,-0.0069,10.3465,0.0318,0.0475,9.8065,0.0138,-0.0358,-0.0016,-12.72,26.94,-3.55,242.54,10.81,3.88
26522,51.533375,-2.593679,128,3.86,9,226.5,13 / 22,2652223,2019-08-16 13:33:26:003,0.0031,0.4309,9.9074,0.0132,0.0221,9.8066,0.0032,0.0654,0.0027,-12.72,26.94,-3.55,242.54,10.81,3.88
26523,51.533375,-2.593679,128,3.86,9,226.5,13 / 22,2652323,2019-08-16 13:33:26:103,0.1623,0.2637,9.8843,0.0027,0.0157,9.8066,-0.0107,0.0175,0.0037,-13.2,26.8,-2.74,242.9,10.96,3.87
26524,51.533375,-2.593679,128,3.86,9,226.5,13 / 22,2652426,2019-08-16 13:33:26:206,0.0133,-0.208,9.3859,0.0083,0.0052,9.8066,0.0053,-0.0326,-0.0027,-12.65,26.89,-4.12,242.51,11.05,3.9
26525,51.533375,-2.593679,128,3.86,9,226.5,13 / 22,2652523,2019-08-16 13:33:26:303,-0.0748,0.1105,9.9647,0.0142,0.0111,9.8066,0.0021,0.0665,0.0037,-12.47,26.98,-4.06,244.19,11.14,3.86
26526,51.533375,-2.593679,128,3.86,9,226.5,13 / 22,2652623,2019-08-16 13:33:26:403,0.0595,0.0111,10.2483,-0.0016,0.0016,9.8067,-0.0032,-0.0283,-0.0027,-12.47,26.98,-4.06,244.19,11.14,3.86
26527,51.533375,-2.593679,128,3.86,9,226.5,13 / 22,2652723,2019-08-16 13:33:26:503,-0.058,-0.1702,10.003,0.0017,-0.0094,9.8066,-0.0032,-0.0283,-0.0027,-11.98,27.2,-4.09,244.19,11.15,3.87
26528,51.53335,-2.593721,128,3.92,9,226.5,13 / 22,2652823,2019-08-16 13:33:26:603,-0.1159,-0.1708,9.7989,0.007,-0.01,9.8066,-0.0011,0.0175,-0.0016,-13.17,26.74,-3.41,242.91,11.11,3.81
26529,51.53335,-2.593721,128,3.92,9,226.5,13 / 22,2652923,2019-08-16 13:33:26:703,-0.2308,0.1881,10.0884,0.0084,-0.0024,9.8066,-0.0096,0.0207,-0.0005,-12.47,26.98,-4.06,244.22,11.12,3.76
26530,51.53335,-2.593721,128,3.92,9,226.5,13 / 22,2653023,2019-08-16 13:33:26:803,0.1623,0.2417,10.0553,-0.0001,0.0034,9.8066,0.0042,-0.039,0.0037,-12.47,26.98,-4.06,244.22,11.12,3.76
26531,51.53335,-2.593721,128,3.92,9,226.5,13 / 22,2653125,2019-08-16 13:33:26:905,-0.007,-0.2144,9.647,0.0072,-0.0051,9.8066,0.0074,-0.0027,-0.0069,-12.42,27.08,-3.54,244.2,11.19,3.8
26532,51.53335,-2.593721,128,3.92,9,226.5,13 / 22,2653223,2019-08-16 13:33:27:003,-0.293,-0.1506,9.3378,0.001,0.0024,9.8067,0.0074,0.0175,-0.0016,-12.47,26.98,-4.06,244.2,11.21,3.81
26533,51.53335,-2.593721,128,3.92,9,226.5,13 / 22,2653323,2019-08-16 13:33:27:103,0.0874,0.2103,9.8959,0.0049,0.0031,9.8066,-0.0022,0.0164,-0.0037,-12.47,26.98,-4.06,244.2,11.21,3.81
26534,51.53335,-2.593721,128,3.92,9,226.5,13 / 22,2653423,2019-08-16 13:33:27:203,-0.0162,0.0191,9.617,0.0056,0.0019,9.8066,-0.0022,0.0164,-0.0037,-12.16,27.11,-4.16,244.2,11.24,3.79
26535,51.53335,-2.593721,128,3.92,9,226.5,13 / 22,2653522,2019-08-16 13:33:27:302,0.0727,-0.0587,9.9895,0.0045,-0.0012,9.8066,-0.0011,0.0079,0.0005,-12.16,27.11,-4.16,244.2,11.24,3.79
26536,51.53335,-2.593721,128,3.92,9,226.5,13 / 22,2653623,2019-08-16 13:33:27:403,0.2187,-0.0701,9.2638,-0.0075,-0.0034,9.8066,0.0106,-0.024,-0.0037,-13.4,26.61,-3.47,242.91,11.24,3.76
26537,51.53335,-2.593721,128,3.92,9,226.5,13 / 22,2653722,2019-08-16 13:33:27:502,-0.0127,0.0264,9.7329,-0.0113,-0.0035,9.8066,0.001,0.0218,0.0016,-12.98,26.84,-3.37,242.91,11.24,3.76
26538,51.533333,-2.593761,129,3.65,9,226.5,13 / 22,2653823,2019-08-16 13:33:27:603,0.0502,-0.169,9.4332,-0.0097,-0.0034,9.8066,0.0096,-0.0251,-0.0016,-13.13,26.66,-4.09,242.52,11.19,3.81
26539,51.533333,-2.593761,129,3.65,9,226.5,13 / 22,2653923,2019-08-16 13:33:27:703,0.0692,0.0357,9.9742,-0.0116,-0.0052,9.8066,0.0032,-0.0336,-0.0037,-12.47,26.98,-4.06,242.52,11.19,3.81
26540,51.533333,-2.593761,129,3.65,9,226.5,13 / 22,2654023,2019-08-16 13:33:27:803,0.0702,-0.1829,9.7501,0.0018,-0.0015,9.8066,0.0042,-0.0091,-0.0037,-11.52,27.49,-3.45,244.59,11.15,3.83
26541,51.533333,-2.593761,129,3.65,9,226.5,13 / 22,2654123,2019-08-16 13:33:27:903,0.3221,0.0654,9.7765,0.006,-0.0001,9.8066,0.0096,0.0303,-0.0016,-12.04,27.34,-2.74,244.59,11.15,3.83
26542,51.533333,-2.593761,129,3.65,9,226.5,13 / 22,2654223,2019-08-16 13:33:28:003,0.1726,-0.4199,9.3447,-0.0041,-0.0018,9.8066,0.0096,0.0303,-0.0016,-12.02,27.27,-3.42,244.6,11.16,3.8
26543,51.533333,-2.593761,129,3.65,9,226.5,13 / 22,2654323,2019-08-16 13:33:28:103,-0.1907,0.0178,9.4373,-0.0184,0.0002,9.8066,-0.0096,0.0026,-0.0016,-12.02,27.27,-3.42,244.6,11.16,3.8
26544,51.533333,-2.593761,129,3.65,9,226.5,13 / 22,2654424,2019-08-16 13:33:28:204,-0.0016,0.2338,10.2925,-0.0003,0.0102,9.8066,-0.0043,-0.0219,-0.0048,-13.01,26.9,-2.7,242.89,11.12,3.9
26545,51.533333,-2.593761,129,3.65,9,226.5,13 / 22,2654523,2019-08-16 13:33:28:303,-0.2157,-0.2435,9.3337,-0.0122,0.0032,9.8066,-0.0192,0.0356,-0.0027,-12.72,27.03,-2.76,242.89,11.12,3.9
26546,51.533333,-2.593761,129,3.65,9,226.5,13 / 22,2654623,2019-08-16 13:33:28:403,0.0543,-0.0259,10.0254,-0.0146,-0.0151,9.8066,-0.0256,0.025,-0.0016,-12.47,27.08,-3.38,244.58,11.0,3.93
26547,51.533333,-2.593761,129,3.65,9,226.5,13 / 22,2654723,2019-08-16 13:33:28:503,-0.1287,-0.1764,10.0621,0.0051,-0.0153,9.8066,0.0042,0.0388,0.0016,-12.47,27.08,-3.38,244.58,11.0,3.93
26548,51.533314,-2.593797,128,3.46,9,226.7,13 / 22,2654823,2019-08-16 13:33:28:603,-0.1196,-0.6408,9.4389,-0.0026,-0.0238,9.8066,0.017,-0.0422,-0.0048,-11.66,27.32,-4.19,244.22,10.87,3.89
26549,51.533314,-2.593797,128,3.46,9,226.7,13 / 22,2654923,2019-08-16 13:33:28:703,-0.1467,-0.0034,10.1234,-0.0051,-0.0099,9.8066,0.017,-0.0422,-0.0048,-12.57,26.71,-5.36,242.16,10.8,3.89
26550,51.533314,-2.593797,128,3.46,9,226.7,13 / 22,2655023,2019-08-16 13:33:28:803,0.0387,0.1442,9.7213,-0.0088,-0.0089,9.8066,0.0053,0.0218,-0.0059,-12.57,26.71,-5.36,242.16,10.8,3.89
26551,51.533314,-2.593797,128,3.46,9,226.7,13 / 22,2655123,2019-08-16 13:33:28:903,-0.1062,-0.276,9.5077,-0.0044,-0.0155,9.8066,-0.0181,0.0473,0.0059,-11.62,27.23,-4.87,243.84,10.73,3.91
26552,51.533314,-2.593797,128,3.46,9,226.7,13 / 22,2655223,2019-08-16 13:33:29:003,0.0653,-0.0974,9.7747,-0.0022,-0.0217,9.8066,0.0042,-0.0038,0.0027,-11.62,27.23,-4.87,243.84,10.73,3.91
26553,51.533314,-2.593797,128,3.46,9,226.7,13 / 22,2655323,2019-08-16 13:33:29:103,0.1119,-0.12,9.654,-0.0069,0.0002,9.8066,-0.0139,0.0367,0.0037,-11.62,27.24,-4.77,243.87,10.61,3.87
26554,51.533314,-2.593797,128,3.46,9,226.7,13 / 22,2655423,2019-08-16 13:33:29:203,0.025,-0.2264,9.5325,-0.001,-0.0101,9.8066,0.001,0.0399,-0.0037,-11.94,27.11,-4.76,243.86,10.6,3.9
26555,51.533314,-2.593797,128,3.46,9,226.7,13 / 22,2655523,2019-08-16 13:33:29:303,0.0281,0.0708,9.9999,-0.008,-0.0152,9.8066,-0.0054,0.0143,-0.0005,-11.94,27.11,-4.76,243.86,10.6,3.9
26556,51.533314,-2.593797,128,3.46,9,226.7,13 / 22,2655624,2019-08-16 13:33:29:404,-0.0718,-0.1797,9.492,-0.0027,-0.0089,9.8066,-0.0054,0.0143,-0.0005,-11.45,27.43,-4.02,245.99,10.5,3.91
26557,51.533314,-2.593797,128,3.46,9,226.7,13 / 22,2655724,2019-08-16 13:33:29:504,0.0262,0.1456,10.1836,-0.0055,-0.01,9.8066,-0.0011,-0.0272,0.0005,-11.94,27.11,-4.76,243.88,10.43,3.91
26558,51.533287,-2.593832,128,3.39,9,226.8,13 / 22,2655823,2019-08-16 13:33:29:603,-0.0299,-0.2758,9.6607,0.0029,-0.0073,9.8066,0.0042,0.0335,-0.0048,-11.94,27.11,-4.76,243.88,10.43,3.91
26559,51.533287,-2.593832,128,3.39,9,226.8,13 / 22,2655923,2019-08-16 13:33:29:703,0.0478,0.1951,10.3936,-0.0006,-0.0064,9.8066,0.0085,-0.0368,-0.0037,-11.45,27.43,-4.02,246.01,10.4,3.88
26560,51.533287,-2.593832,128,3.39,9,226.8,13 / 22,2656024,2019-08-16 13:33:29:804,-0.1389,0.0156,10.0556,-0.0062,-0.003,9.8066,-0.0128,0.0303,0.0016,-12.44,27.01,-3.96,244.27,10.34,3.88
26561,51.533287,-2.593832,128,3.39,9,226.8,13 / 22,2656123,2019-08-16 13:33:29:903,-0.1266,-0.1223,9.9734,-0.0228,-0.0127,9.8066,0.0191,0.0463,-0.0123,-12.44,27.01,-3.96,244.27,10.34,3.88
26562,51.533287,-2.593832,128,3.39,9,226.8,13 / 22,2656224,2019-08-16 13:33:30:004,0.0763,0.2066,10.3704,0.0054,-0.004,9.8066,-0.0075,0.0186,-0.0048,-11.73,27.21,-4.68,243.9,10.22,3.97
26563,51.533287,-2.593832,128,3.39,9,226.8,13 / 22,2656323,2019-08-16 13:33:30:103,-0.1929,-0.1681,9.3907,0.0084,0.0009,9.8066,-0.0075,0.0186,-0.0048,-11.52,27.49,-3.45,243.9,10.22,3.97
26564,51.533287,-2.593832,128,3.39,9,226.8,13 / 22,2656423,2019-08-16 13:33:30:203,-0.2025,-0.1448,9.8557,0.0055,-0.004,9.8066,-0.0075,-0.0251,-0.008,-11.94,27.11,-4.76,243.91,10.21,3.92
26565,51.533287,-2.593832,128,3.39,9,226.8,13 / 22,2656523,2019-08-16 13:33:30:303,0.1312,-0.2468,9.631,-0.0033,0.0041,9.8066,0.0149,0.0314,-0.008,-11.94,27.11,-4.76,243.91,10.21,3.92
26566,51.533287,-2.593832,128,3.39,9,226.8,13 / 22,2656623,2019-08-16 13:33:30:403,-0.0744,0.1282,9.9734,0.0009,-0.0121,9.8066,-0.0064,-0.0294,0.0005,-11.28,27.5,-4.05,246.76,10.22,3.95
26567,51.533287,-2.593832,128,3.39,9,226.8,13 / 22,2656723,2019-08-16 13:33:30:503,-0.2706,0.0723,10.25,-0.0026,-0.0199,9.8066,-0.0022,0.0132,0.0016,-11.31,27.58,-3.39,247.14,10.11,3.92
26568,51.53327,-2.593864,127,3.29,9,227.1,13 / 22,2656823,2019-08-16 13:33:30:603,-0.0037,0.03,9.6719,-0.0089,0.0032,9.8066,0.0064,0.0399,-0.0091,-11.31,27.58,-3.39,247.14,10.11,3.92
26569,51.53327,-2.593864,127,3.29,9,227.1,13 / 22,2656923,2019-08-16 13:33:30:703,0.3491,0.0551,9.9456,-0.0023,0.009,9.8066,0.0128,-0.0517,0.008,-11.24,27.41,-4.71,245.65,10.1,3.96
26570,51.53327,-2.593864,127,3.29,9,227.1,13 / 22,2657023,2019-08-16 13:33:30:803,0.1472,0.4482,10.015,-0.0114,0.0048,9.8066,-0.0075,-0.0166,0.0059,-11.24,27.41,-4.71,245.65,10.1,3.96
26571,51.53327,-2.593864,127,3.29,9,227.1,13 / 22,2657122,2019-08-16 13:33:30:902,0.0341,-0.1703,9.3508,-0.0016,-0.0048,9.8066,-0.0075,-0.0166,0.0059,-11.73,27.21,-4.68,243.9,10.1,4.03
26572,51.53327,-2.593864,127,3.29,9,227.1,13 / 22,2657223,2019-08-16 13:33:31:003,0.0301,-0.0286,9.7135,0.0024,0.008,9.8066,0.017,0.0292,-0.0027,-11.87,27.52,-1.44,246.12,10.07,4.03
26573,51.53327,-2.593864,127,3.29,9,227.1,13 / 22,2657322,2019-08-16 13:33:31:102,0.0175,0.0003,9.6018,0.0021,-0.0016,9.8067,-0.0054,-0.0304,0.0005,-10.64,27.92,-2.68,246.12,10.07,4.03
26574,51.53327,-2.593864,127,3.29,9,227.1,13 / 22,2657423,2019-08-16 13:33:31:203,0.0233,0.2504,10.1198,-0.0018,-0.0021,9.8067,-0.0032,0.0314,-0.0005,-11.47,27.72,-0.09,248.19,10.06,4.03
26575,51.53327,-2.593864,127,3.29,9,227.1,13 / 22,2657523,2019-08-16 13:33:31:303,-0.0756,-0.1118,9.0738,0.0025,-0.0002,9.8067,-0.0075,0.009,-0.0005,-11.47,27.72,-0.09,248.19,10.06,4.03
26576,51.53327,-2.593864,127,3.29,9,227.1,13 / 22,2657622,2019-08-16 13:33:31:402,0.1548,0.4783,9.9716,0.0088,0.0075,9.8066,-0.0011,0.0026,-0.0069,-11.17,27.81,-1.43,247.84,10.06,4.02
26577,51.53327,-2.593864,127,3.29,9,227.1,13 / 22,2657723,2019-08-16 13:33:31:503,0.0994,0.1668,9.8413,0.0247,0.049,9.8065,0.0021,0.0047,0.0069,-12.33,27.26,-2.2,247.84,10.06,4.02
26578,51.533253,-2.593898,127,3.27,9,227.3,13 / 22,2657823,2019-08-16 13:33:31:603,0.2082,0.394,9.9375,0.0468,0.0987,9.806,0.0021,0.0047,0.0069,-11.0,27.68,-3.57,246.7,10.7,3.98
26579,51.533253,-2.593898,127,3.27,9,227.3,13 / 22,2657923,2019-08-16 13:33:31:703,0.2338,0.4485,9.2655,0.0112,0.0342,9.8066,0.0053,-0.0006,-0.0016,-11.51,27.48,-3.54,244.18,10.94,3.99
26580,51.533253,-2.593898,127,3.27,9,227.3,13 / 22,2658023,2019-08-16 13:33:31:803,-0.0761,0.4834,10.3688,0.0235,0.0639,9.8064,0.0032,0.0175,-0.0059,-11.51,27.48,-3.54,244.18,10.94,3.99
26581,51.533253,-2.593898,127,3.27,9,227.3,13 / 22,2658123,2019-08-16 13:33:31:903,0.1732,0.3365,9.4511,0.0138,0.0219,9.8066,0.001,-0.0358,-0.0048,-11.33,27.63,-2.81,247.01,11.34,4.02
26582,51.533253,-2.593898,127,3.27,9,227.3,13 / 22,2658223,2019-08-16 13:33:32:003,-0.0114,0.1975,10.0018,0.0238,0.0517,9.8065,0.001,0.0122,-0.0101,-11.8,27.36,-3.46,244.51,11.67,4.01
26583,51.533253,-2.593898,127,3.27,9,227.3,13 / 22,2658323,2019-08-16 13:33:32:103,0.0679,0.3179,9.9735,0.0105,0.02,9.8066,-0.0032,0.0282,-0.0059,-11.35,27.68,-2.23,244.51,11.67,4.01
26584,51.533253,-2.593898,127,3.27,9,227.3,13 / 22,2658423,2019-08-16 13:33:32:203,0.2047,0.4183,9.7124,0.023,0.0465,9.8065,0.016,-0.0006,0.0016,-11.35,27.68,-2.23,244.51,11.67,4.01
26585,51.533253,-2.593898,127,3.27,9,227.3,13 / 22,2658523,2019-08-16 13:33:32:303,0.0233,0.3006,10.38,0.0117,0.0279,9.8066,0.016,-0.0006,0.0016,-11.27,27.48,-4.24,245.8,11.97,4.01
26586,51.533253,-2.593898,127,3.27,9,227.3,13 / 22,2658623,2019-08-16 13:33:32:403,0.0811,0.2218,9.9096,0.0177,0.043,9.8065,-0.0011,0.0154,0.0027,-11.82,27.42,-2.88,244.47,12.24,4.02
26587,51.533253,-2.593898,127,3.27,9,227.3,13 / 22,2658723,2019-08-16 13:33:32:503,0.2993,0.4034,10.1312,0.0045,0.0206,9.8066,-0.0032,-0.0145,-0.0016,-11.54,27.53,-2.96,245.24,12.36,4.05
26588,51.533234,-2.593932,128,3.15,9,227.4,13 / 22,2658823,2019-08-16 13:33:32:603,0.1154,0.2789,9.8729,0.04,0.0475,9.8065,-0.0054,0.0026,-0.0059,-11.54,27.53,-2.96,245.24,12.36,4.05
26589,51.533234,-2.593932,128,3.15,9,227.4,13 / 22,2658923,2019-08-16 13:33:32:703,0.0253,0.4212,10.2341,0.0069,0.0194,9.8066,-0.0107,0.0175,0.0123,-12.04,27.32,-2.94,244.46,12.71,3.95
26590,51.533234,-2.593932,128,3.15,9,227.4,13 / 22,2659023,2019-08-16 13:33:32:803,0.4211,0.2938,10.1444,0.0122,0.0362,9.8066,0.0192,-0.024,0.0016,-11.33,27.63,-2.91,246.9,12.94,3.98
26591,51.533234,-2.593932,128,3.15,9,227.4,13 / 22,2659123,2019-08-16 13:33:32:903,0.168,0.083,9.6838,0.0137,0.0204,9.8066,0.0,0.0069,-0.0048,-11.33,27.63,-2.91,246.9,12.94,3.98
26592,51.533234,-2.593932,128,3.15,9,227.4,13 / 22,2659223,2019-08-16 13:33:33:003,-0.1982,0.2922,10.2574,0.0144,0.0313,9.8066,-0.0085,0.0207,0.008,-11.47,27.38,-4.32,246.9,12.94,3.98
26593,51.533234,-2.593932,128,3.15,9,227.4,13 / 22,2659323,2019-08-16 13:33:33:103,0.0165,-0.0468,9.7203,0.0004,0.0152,9.8066,0.0053,0.0516,-0.0037,-11.5,27.45,-3.74,243.97,13.14,3.97
26594,51.533234,-2.593932,128,3.15,9,227.4,13 / 22,2659423,2019-08-16 13:33:33:203,0.3494,0.0284,10.0458,0.0065,0.0175,9.8066,0.0053,0.0516,-0.0037,-12.28,27.14,-3.52,243.96,13.25,3.98
26595,51.533234,-2.593932,128,3.15,9,227.4,13 / 22,2659524,2019-08-16 13:33:33:304,0.1696,0.2544,9.6018,0.0079,0.0088,9.8066,-0.0075,0.0037,0.0048,-12.28,27.14,-3.52,243.96,13.25,3.98
26596,51.533234,-2.593932,128,3.15,9,227.4,13 / 22,2659623,2019-08-16 13:33:33:403,0.0318,0.0026,9.9552,-0.0002,0.0065,9.8066,0.0085,-0.0347,-0.008,-12.3,27.2,-2.96,244.42,13.31,3.96
26597,51.533234,-2.593932,128,3.15,9,227.4,13 / 22,2659723,2019-08-16 13:33:33:503,0.196,-0.0648,9.4186,0.0019,0.003,9.8067,0.001,0.0047,-0.0037,-11.97,27.17,-4.29,243.94,13.44,4.01
26598,51.533215,-2.593962,128,2.58,9,227.5,13 / 22,2659823,2019-08-16 13:33:33:603,-0.024,-0.0242,9.3445,0.0008,0.0123,9.8066,0.0096,0.0282,-0.0048,-11.97,27.17,-4.29,243.94,13.44,4.01
26599,51.533215,-2.593962,128,2.58,9,227.5,13 / 22,2659923,2019-08-16 13:33:33:703,0.2121,-0.0541,10.0738,0.0064,0.0046,9.8066,-0.0192,0.0164,-0.0027,-12.01,27.25,-3.61,243.92,13.51,4.04
26600,51.533215,-2.593962,128,2.58,9,227.5,13 / 22,2660023,2019-08-16 13:33:33:803,-0.0959,-0.1123,9.6224,0.0134,0.0082,9.8066,-0.0096,-0.0102,-0.0005,-12.46,26.96,-4.25,243.93,13.58,3.98
26601,51.533215,-2.593962,128,2.58,9,227.5,13 / 22,2660123,2019-08-16 13:33:33:903,-0.0988,-0.1033,10.0981,0.0014,0.0057,9.8066,-0.0096,-0.0102,-0.0005,-11.82,27.42,-2.88,244.39,13.62,3.99
26602,51.533215,-2.593962,128,2.58,9,227.5,13 / 22,2660222,2019-08-16 13:33:34:002,0.1664,-0.098,9.6444,0.0028,0.0022,9.8067,0.0096,0.0079,0.0027,-11.82,27.42,-2.88,244.39,13.62,3.99
26603,51.533215,-2.593962,128,2.58,9,227.5,13 / 22,2660323,2019-08-16 13:33:34:103,0.0247,-0.2119,9.8384,0.0023,0.0068,9.8066,-0.0128,0.0505,0.0027,-12.01,27.25,-3.61,243.93,13.63,3.98
26604,51.533215,-2.593962,128,2.58,9,227.5,13 / 22,2660423,2019-08-16 13:33:34:203,-0.0086,0.0175,9.8687,-0.0044,0.0045,9.8066,-0.0011,0.0346,-0.0027,-12.03,27.31,-3.03,244.38,13.65,4.02
26605,51.533215,-2.593962,128,2.58,9,227.5,13 / 22,2660523,2019-08-16 13:33:34:303,-0.1549,-0.0849,9.9733,-0.0058,-0.0127,9.8066,-0.0149,-0.0134,0.0005,-11.51,27.46,-3.64,243.92,13.57,4.02
26606,51.533215,-2.593962,128,2.58,9,227.5,13 / 22,2660622,2019-08-16 13:33:34:402,-0.1444,-0.5282,9.473,-0.0099,-0.0456,9.8065,0.0064,-0.0102,0.0005,-11.51,27.46,-3.64,243.92,13.57,4.02
26607,51.533215,-2.593962,128,2.58,9,227.5,13 / 22,2660723,2019-08-16 13:33:34:503,-0.0428,-0.1817,10.0946,-0.0042,-0.0197,9.8066,-0.0096,0.0186,0.0037,-12.31,27.21,-2.86,244.42,13.3,3.95
26608,51.5332,-2.593984,128,2.04,9,227.5,13 / 22,2660823,2019-08-16 13:33:34:603,-0.1277,-0.2197,9.734,-0.0215,-0.0312,9.8066,0.0085,-0.0187,-0.0059,-12.22,27.14,-3.78,243.97,13.08,3.98
26609,51.5332,-2.593984,128,2.04,9,227.5,13 / 22,2660923,2019-08-16 13:33:34:703,-0.1917,0.0715,9.915,-0.0126,-0.0041,9.8066,-0.0011,-0.0464,-0.0048,-12.22,27.14,-3.78,243.97,13.08,3.98
26610,51.5332,-2.593984,128,2.04,9,227.5,13 / 22,2661023,2019-08-16 13:33:34:803,-0.1312,-0.2393,9.4931,-0.0161,-0.0196,9.8066,-0.0011,-0.0464,-0.0048,-11.53,27.53,-3.06,243.97,13.08,3.98
26611,51.5332,-2.593984,128,2.04,9,227.5,13 / 22,2661123,2019-08-16 13:33:34:903,-0.0016,-0.5776,9.5765,-0.0152,-0.0371,9.8066,-0.0022,-0.023,0.0027,-12.25,27.21,-3.09,244.44,12.85,3.97
26612,51.5332,-2.593984,128,2.04,9,227.5,13 / 22,2661223,2019-08-16 13:33:35:003,-0.1859,-0.3078,9.5908,-0.0167,-0.0415,9.8065,0.0106,0.0463,-0.0016,-12.25,27.21,-3.09,244.44,12.85,3.97
26613,51.5332,-2.593984,128,2.04,9,227.5,13 / 22,2661322,2019-08-16 13:33:35:102,-0.4436,-0.5058,9.3588,-0.02,-0.0333,9.8066,0.0224,-0.0251,-0.0101,-12.04,27.32,-2.94,244.46,12.59,3.95
26614,51.5332,-2.593984,128,2.04,9,227.5,13 / 22,2661423,2019-08-16 13:33:35:203,-0.3479,-0.5038,9.9109,-0.0182,-0.0314,9.8066,-0.0203,0.0218,0.0048,-11.82,27.42,-2.88,244.47,12.18,4.03
26615,51.5332,-2.593984,128,2.04,9,227.5,13 / 22,2661523,2019-08-16 13:33:35:303,-0.0678,-0.6877,9.7581,-0.0263,-0.0584,9.8064,0.0,0.0111,0.0059,-11.82,27.42,-2.88,244.47,12.18,4.03
26616,51.5332,-2.593984,128,2.04,9,227.5,13 / 22,2661623,2019-08-16 13:33:35:403,-0.1923,-0.4285,9.5333,-0.0068,-0.032,9.8066,0.0138,-0.0187,-0.0069,-11.47,27.38,-4.32,245.81,11.8,4.02
26617,51.5332,-2.593984,128,2.04,9,227.5,13 / 22,2661722,2019-08-16 13:33:35:502,-0.0948,-0.4074,9.9747,-0.0201,-0.0597,9.8065,-0.016,0.026,-0.0027,-11.47,27.38,-4.32,245.81,11.8,4.02
26618,51.53319,-2.594002,128,1.69,9,227.6,Dec-22,2661823,2019-08-16 13:33:35:603,-0.2589,-0.1717,10.0573,-0.0139,-0.0228,9.8066,-0.016,0.026,-0.0027,-11.33,27.63,-2.91,247.01,11.44,3.98
26619,51.53319,-2.594002,128,1.69,9,227.6,Dec-22,2661923,2019-08-16 13:33:35:703,0.0109,-0.2957,9.5136,-0.0289,-0.0526,9.8065,-0.0053,0.0005,0.0048,-12.52,27.1,-2.91,242.86,11.09,4.02
26620,51.53319,-2.594002,128,1.69,9,227.6,Dec-22,2662023,2019-08-16 13:33:35:803,-0.0175,-0.2954,9.7898,-0.0122,-0.0247,9.8066,0.017,-0.0443,-0.0048,-12.52,27.1,-2.91,242.86,11.09,4.02
26621,51.53319,-2.594002,128,1.69,9,227.6,Dec-22,2662122,2019-08-16 13:33:35:902,-0.1208,-0.3764,9.5185,-0.0155,-0.025,9.8066,0.0064,0.0015,0.0027,-12.01,27.25,-3.61,244.18,10.93,4.02
26622,51.53319,-2.594002,128,1.69,9,227.6,Dec-22,2662223,2019-08-16 13:33:36:003,-0.3089,-0.262,9.8526,-0.0319,-0.0514,9.8065,-0.0149,0.0346,0.0027,-12.04,27.32,-2.94,244.18,10.93,4.02
26623,51.53319,-2.594002,128,1.69,9,227.6,Dec-22,2662323,2019-08-16 13:33:36:103,-0.1393,-0.2114,9.8951,-0.0074,-0.0136,9.8066,0.0085,-0.0326,-0.0027,-12.03,27.31,-3.03,244.59,10.46,4.07
26624,51.53319,-2.594002,128,1.69,9,227.6,Dec-22,2662424,2019-08-16 13:33:36:204,-0.1301,-0.24,9.7149,-0.0052,-0.0143,9.8066,-0.0085,-0.0208,-0.0037,-12.04,27.32,-2.94,244.6,10.37,4.08
26625,51.53319,-2.594002,128,1.69,9,227.6,Dec-22,2662523,2019-08-16 13:33:36:303,-0.0121,-0.1287,9.9993,-0.0089,-0.0305,9.8066,0.0085,-0.0091,-0.0069,-12.04,27.32,-2.94,244.6,10.37,4.08
26626,51.53319,-2.594002,128,1.69,9,227.6,Dec-22,2662623,2019-08-16 13:33:36:403,0.0239,0.1067,10.0842,-0.0092,-0.0184,9.8066,0.0085,-0.0091,-0.0069,-12.75,26.93,-3.5,242.92,10.19,4.05
26627,51.53319,-2.594002,128,1.69,9,227.6,Dec-22,2662723,2019-08-16 13:33:36:503,-0.0533,0.0802,10.1863,-0.0091,-0.0171,9.8066,-0.0128,0.0495,-0.0005,-12.01,27.25,-3.61,244.27,10.07,4.05
26628,51.53318,-2.594019,128,1.78,9,227.7,Dec-22,2662823,2019-08-16 13:33:36:603,-0.0698,0.0476,9.4393,-0.0158,-0.0359,9.8066,0.0042,-0.0453,-0.0016,-12.01,27.26,-3.52,244.27,10.07,4.05
26629,51.53318,-2.594019,128,1.78,9,227.7,Dec-22,2662924,2019-08-16 13:33:36:704,-0.0116,-0.4075,9.4791,-0.0165,-0.0461,9.8065,0.0096,-0.0102,-0.0059,-12.5,27.05,-3.49,244.66,9.78,4.02
26630,51.53318,-2.594019,128,1.78,9,227.7,Dec-22,2663023,2019-08-16 13:33:36:803,-0.0296,-0.0967,9.6915,0.0003,0.005,9.8066,-0.0085,0.0463,0.0037,-12.5,27.05,-3.49,244.66,9.78,4.02
26631,51.53318,-2.594019,128,1.78,9,227.7,Dec-22,2663123,2019-08-16 13:33:36:903,0.0568,0.4352,10.1883,-0.0025,0.0063,9.8066,0.0042,-0.007,-0.0016,-12.52,27.1,-2.91,244.66,9.78,4.02
26632,51.53318,-2.594019,128,1.78,9,227.7,Dec-22,2663223,2019-08-16 13:33:37:003,0.0918,0.5085,10.1226,0.0112,0.0312,9.8066,0.0021,-0.0144,-0.0016,-12.01,27.26,-3.52,244.29,9.87,4.06
26633,51.53318,-2.594019,128,1.78,9,227.7,Dec-22,2663323,2019-08-16 13:33:37:103,0.2381,0.5381,9.7163,0.0282,0.0637,9.8064,0.001,-0.0219,-0.0037,-12.01,27.26,-3.52,244.29,9.87,4.06
26634,51.53318,-2.594019,128,1.78,9,227.7,Dec-22,2663423,2019-08-16 13:33:37:203,0.2839,0.4275,10.2542,0.0186,0.0213,9.8066,0.001,-0.0219,-0.0037,-12.31,27.21,-2.86,244.61,10.27,4.07
26635,51.53318,-2.594019,128,1.78,9,227.7,Dec-22,2663524,2019-08-16 13:33:37:304,0.2311,0.2208,10.0387,0.0167,0.0145,9.8066,0.0021,0.0292,-0.0005,-11.51,27.48,-3.54,244.23,10.43,4.02
26636,51.53318,-2.594019,128,1.78,9,227.7,Dec-22,2663623,2019-08-16 13:33:37:403,0.0758,0.1313,9.5847,0.0288,0.0342,9.8065,-0.016,-0.0208,0.0069,-12.31,27.22,-2.77,244.23,10.43,4.02
26637,51.53318,-2.594019,128,1.78,9,227.7,Dec-22,2663723,2019-08-16 13:33:37:503,0.1295,-0.0459,9.555,0.0307,0.0423,9.8065,0.0021,0.0164,0.0091,-12.31,27.22,-2.77,244.23,10.43,4.02
26638,51.53317,-2.594036,127,1.68,9,227.7,Dec-22,2663822,2019-08-16 13:33:37:602,0.0076,-0.1632,10.1331,-0.0041,0.0032,9.8066,0.0106,0.0079,-0.0048,-11.8,27.36,-3.46,244.59,10.73,3.97
26639,51.53317,-2.594036,127,1.68,9,227.7,Dec-22,2663923,2019-08-16 13:33:37:703,-0.1735,-0.0661,9.6338,-0.0121,0.0043,9.8066,-0.0022,0.0069,-0.0069,-12.33,27.26,-2.2,244.96,10.72,4.05
26640,51.53317,-2.594036,127,1.68,9,227.7,Dec-22,2664023,2019-08-16 13:33:37:803,-0.0749,0.049,9.9652,-0.0085,-0.0017,9.8066,-0.0022,-0.0187,0.0027,-12.33,27.26,-2.2,244.96,10.72,4.05
26641,51.53317,-2.594036,127,1.68,9,227.7,Dec-22,2664123,2019-08-16 13:33:37:903,-0.1135,0.1724,10.3041,0.0062,0.012,9.8066,-0.0107,0.0196,0.0005,-11.33,27.63,-2.91,247.05,10.71,4.09
26642,51.53317,-2.594036,127,1.68,9,227.7,Dec-22,2664224,2019-08-16 13:33:38:004,0.0935,0.3194,9.7647,0.013,0.0136,9.8066,-0.0107,0.0196,0.0005,-11.56,27.59,-2.27,247.05,10.71,4.09
26643,51.53317,-2.594036,127,1.68,9,227.7,Dec-22,2664323,2019-08-16 13:33:38:103,0.0481,0.2558,9.974,-0.0022,0.0027,9.8067,0.0202,0.0005,-0.0059,-11.54,27.54,-2.86,245.35,10.81,4.05
26644,51.53317,-2.594036,127,1.68,9,227.7,Dec-22,2664423,2019-08-16 13:33:38:203,-0.1741,-0.3135,9.7296,-0.0042,0.0014,9.8067,0.0042,-0.0038,0.0005,-10.5,27.94,-3.0,245.35,10.81,4.05
26645,51.53317,-2.594036,127,1.68,9,227.7,Dec-22,2664523,2019-08-16 13:33:38:303,-0.1774,-0.0389,10.391,-0.0072,-0.0051,9.8066,0.0117,-0.0347,-0.0027,-11.35,27.68,-2.23,247.43,10.81,4.08
26646,51.53317,-2.594036,127,1.68,9,227.7,Dec-22,2664623,2019-08-16 13:33:38:403,-0.1455,-0.084,9.6406,-0.01,-0.0124,9.8066,-0.0064,0.0207,-0.0037,-11.35,27.68,-2.23,247.42,10.72,4.1
26647,51.53317,-2.594036,127,1.68,9,227.7,Dec-22,2664723,2019-08-16 13:33:38:503,0.0569,-0.0536,9.8401,0.0015,-0.0173,9.8066,-0.0117,0.0324,-0.0005,-11.35,27.68,-2.23,247.42,10.72,4.1
26648,51.53316,-2.594051,126,1.51,9,227.8,Dec-22,2664823,2019-08-16 13:33:38:603,-0.145,-0.0206,9.7488,0.0009,-0.0314,9.8066,0.0192,-0.0272,-0.0069,-11.54,27.54,-2.86,245.38,10.55,4.03
26649,51.53316,-2.594051,126,1.51,9,227.8,Dec-22,2664923,2019-08-16 13:33:38:703,-0.2596,-0.4505,9.3045,-0.0069,-0.0146,9.8066,0.0096,-0.0208,0.0027,-11.75,27.45,-2.91,245.38,10.55,4.03
26650,51.53316,-2.594051,126,1.51,9,227.8,Dec-22,2665023,2019-08-16 13:33:38:803,-0.0605,-0.1234,9.7401,-0.0164,-0.016,9.8066,0.0096,-0.0208,0.0027,-12.26,27.23,-2.89,244.61,10.33,4.05
26651,51.53316,-2.594051,126,1.51,9,227.8,Dec-22,2665123,2019-08-16 13:33:38:903,-0.1628,-0.011,10.1898,-0.0265,-0.0308,9.8066,-0.0032,0.025,0.0048,-12.26,27.23,-2.89,244.61,10.33,4.05
26652,51.53316,-2.594051,126,1.51,9,227.8,Dec-22,2665223,2019-08-16 13:33:39:003,-0.1159,-0.0522,9.9775,-0.0077,-0.0096,9.8066,0.0064,0.0239,-0.0016,-12.06,27.38,-2.25,244.98,10.1,4.12
26653,51.53316,-2.594051,126,1.51,9,227.8,Dec-22,2665324,2019-08-16 13:33:39:104,-0.1263,-0.2073,9.8706,-0.0043,-0.013,9.8066,-0.0022,0.0015,-0.0005,-11.75,27.45,-2.91,244.61,10.03,4.13
26654,51.53316,-2.594051,126,1.51,9,227.8,Dec-22,2665423,2019-08-16 13:33:39:203,0.0105,0.0076,10.0563,-0.0052,-0.0289,9.8066,0.0064,-0.0453,-0.0037,-11.75,27.45,-2.91,244.61,10.03,4.13
26655,51.53316,-2.594051,126,1.51,9,227.8,Dec-22,2665523,2019-08-16 13:33:39:303,-0.1084,-0.0019,9.6935,0.0067,0.0005,9.8066,-0.0117,0.0346,0.0037,-12.41,27.07,-3.64,244.28,9.86,4.09
26656,51.53316,-2.594051,126,1.51,9,227.8,Dec-22,2665624,2019-08-16 13:33:39:404,-0.0377,0.0365,9.8988,0.0079,-0.0006,9.8066,-0.0011,0.0101,0.0059,-11.21,27.59,-3.64,246.78,9.88,4.04
26657,51.53316,-2.594051,126,1.51,9,227.8,Dec-22,2665723,2019-08-16 13:33:39:503,0.0228,-0.3027,9.5379,-0.007,-0.0073,9.8066,0.0128,-0.04,0.0016,-11.21,27.59,-3.64,246.78,9.88,4.04
26658,51.533154,-2.594066,125,1.42,9,227.9,Dec-22,2665823,2019-08-16 13:33:39:603,-0.2205,-0.2054,9.6131,-0.0127,-0.0146,9.8066,-0.0149,0.0463,0.0027,-12.41,27.07,-3.64,244.29,9.77,4.08
26659,51.533154,-2.594066,125,1.42,9,227.9,Dec-22,2665923,2019-08-16 13:33:39:703,-0.2051,0.0563,10.1914,-0.0106,-0.0009,9.8066,-0.0149,0.0463,0.0027,-13.18,26.79,-2.96,242.96,9.69,4.06
26660,51.533154,-2.594066,125,1.42,9,227.9,Dec-22,2666023,2019-08-16 13:33:39:803,-0.0097,-0.0637,10.0136,-0.0117,-0.0038,9.8066,-0.0075,0.0207,0.0005,-13.18,26.79,-2.96,242.96,9.69,4.06
26661,51.533154,-2.594066,125,1.42,9,227.9,Dec-22,2666122,2019-08-16 13:33:39:902,-0.0322,0.0842,9.9979,-0.0018,-0.0147,9.8066,0.0128,-0.0336,-0.0048,-14.89,25.77,-3.8,238.41,9.64,4.11
26662,51.533154,-2.594066,125,1.42,9,227.9,Dec-22,2666223,2019-08-16 13:33:40:003,0.0316,-0.1534,9.9254,-0.0092,-0.0251,9.8066,0.0032,0.0218,0.0016,-15.45,25.41,-3.94,238.41,9.64,4.11
26663,51.533154,-2.594066,125,1.42,9,227.9,Dec-22,2666323,2019-08-16 13:33:40:103,-0.1381,0.2486,9.77,-0.0133,-0.023,9.8066,-0.0043,0.009,0.0059,-14.32,26.21,-2.81,240.4,9.49,4.11
26664,51.533154,-2.594066,125,1.42,9,227.9,Dec-22,2666423,2019-08-16 13:33:40:203,0.0869,0.183,9.9962,-0.0055,0.0038,9.8066,0.0053,-0.0112,-0.0005,-14.32,26.21,-2.81,240.4,9.49,4.11
26665,51.533154,-2.594066,125,1.42,9,227.9,Dec-22,2666523,2019-08-16 13:33:40:303,0.2145,0.036,9.731,-0.0082,0.0078,9.8066,-0.0064,0.0207,0.0048,-9.07,28.57,-1.16,251.97,9.5,4.17
26666,51.533154,-2.594066,125,1.42,9,227.9,Dec-22,2666623,2019-08-16 13:33:40:403,-0.0385,0.4083,10.0352,0.0073,0.0082,9.8066,-0.0203,0.0154,0.0037,-4.75,29.58,-1.66,259.31,9.56,4.15
26667,51.533154,-2.594066,125,1.42,9,227.9,Dec-22,2666723,2019-08-16 13:33:40:503,-0.1013,0.3608,10.0702,0.0103,0.005,9.8066,0.0096,-0.0198,-0.0027,-4.75,29.58,-1.66,259.31,9.56,4.15
26668,51.533146,-2.59408,126,1.51,9,228.0,Dec-22,2666823,2019-08-16 13:33:40:603,0.1044,-0.0193,9.6757,0.0148,0.0156,9.8066,0.0096,-0.0198,-0.0027,-8.29,28.82,-0.79,253.77,9.67,4.08
26669,51.533146,-2.59408,126,1.51,9,228.0,Dec-22,2666923,2019-08-16 13:33:40:703,0.094,0.2786,10.1403,0.0114,0.0127,9.8066,-0.0011,-0.0102,0.0048,-10.57,28.05,-1.29,253.77,9.67,4.08
