,GPS LATITUDE (degrees), GPS LONGITUDE (degrees), GPS ALTITUDE (m), GPS SPEED (Kmh), GPS ACCURACY (m), GPS ORIENTATION (Â°),GPS SATELLITES IN RANGE, TIME SINCE START (ms), DATE (YYYY-MO-DD HH-MI-SS_SSS), ACCELEROMETER X (m/s²) , ACCELEROMETER Y (m/s²), ACCELEROMETER Z (m/s²), GRAVITY X (m/s²), GRAVITY Y (m/s²), GRAVITY Z (m/s²), GYROSCOPE Yaw (rad/s), GYROSCOPE Pitch (rad/s), GYROSCOPE Roll (rad/s), MAGNETIC FIELD X (Î¼T), MAGNETIC FIELD Y (Î¼T), MAGNETIC FIELD Z (Î¼T), ORIENTATION (Yaw) (Â°), ORIENTATION (Pitch) (Â°), ORIENTATION (Roll ) (Â°)
35915,52.40582,-1.519636,140.79,1.09,3,62.52,25 / 25,3405110,2019-09-08 13:03:44:349,-0.1786,-0.0616,9.9207,-0.0049,-0.0006,9.8066,0.0203,-0.0128,-0.0018,-28.5,-29.12,-0.81,274.96,-81.95,-164.56
35916,52.40582,-1.519636,140.79,1.09,3,62.52,25 / 25,3405210,2019-09-08 13:03:44:449,-0.1552,-0.0036,9.8234,0.0022,0.0018,9.8066,-0.0108,-0.003,0.0033,-28.25,-29.12,-0.69,274.9,-81.97,-164.65
35917,52.40582,-1.519636,140.79,1.09,3,62.52,25 / 25,3405310,2019-09-08 13:03:44:549,-0.223,-0.006,9.8223,0.0008,0.0003,9.8066,-0.0109,0.0039,-0.0004,-28.62,-29.0,-0.62,275.17,-81.97,-164.74
35918,52.40582,-1.519636,140.79,1.09,3,62.52,25 / 25,3405410,2019-09-08 13:03:44:649,-0.0397,0.0378,9.8908,-0.0014,0.0008,9.8066,0.0134,-0.0194,0.0042,-28.5,-29.12,-1.25,274.85,-82.0,-164.72
35919,52.40582,-1.519636,140.79,1.09,3,62.52,25 / 25,3405510,2019-09-08 13:03:44:749,-0.1493,-0.0698,9.8712,-0.0029,0.0006,9.8066,0.0094,-0.0062,0.014,-28.44,-29.0,-0.44,276.9,-82.03,-164.76
35920,52.40582,-1.519636,140.79,1.09,3,62.52,25 / 25,3405610,2019-09-08 13:03:44:849,0.1804,-0.0758,9.8494,-0.0012,-0.0001,9.8066,-0.0187,-0.015,-0.0098,-28.44,-29.19,-0.62,275.0,-82.05,-164.62
35921,52.40582,-1.519636,140.79,1.09,3,62.52,27 / 27,3405710,2019-09-08 13:03:44:949,-0.086,-0.0303,9.8604,-0.0019,0.0014,9.8066,-0.0137,-0.0045,0.0008,-28.75,-28.62,-0.56,275.37,-82.09,-164.66
35922,52.40582,-1.519636,140.79,1.09,3,62.52,27 / 27,3405809,2019-09-08 13:03:45:048,-0.1545,-0.0195,9.8965,-0.002,-0.0009,9.8066,0.0084,-0.0104,0.002,-28.87,-28.87,-0.75,275.44,-82.12,-164.62
35923,52.40582,-1.519636,140.79,1.09,3,62.52,27 / 27,3405910,2019-09-08 13:03:45:149,0.154,-0.0005,9.8793,-0.0028,0.0001,9.8066,0.0083,-0.0093,-0.0047,-28.75,-28.94,-0.81,275.53,-82.16,-164.57
35924,52.40582,-1.519636,140.79,1.09,3,62.52,27 / 27,3406010,2019-09-08 13:03:45:249,-0.3289,-0.0296,9.9345,-0.0014,-0.0008,9.8066,-0.0092,-0.0125,0.0044,-28.44,-29.12,-1.62,273.22,-82.19,-164.53
35925,52.40582,-1.519636,140.79,1.09,3,62.52,27 / 27,3406109,2019-09-08 13:03:45:348,-0.1764,0.0486,9.8091,-0.0001,0.0018,9.8066,-0.0118,-0.0145,0.0033,-28.69,-28.87,-0.81,275.58,-82.21,-164.57
35926,52.40582,-1.519636,140.79,1.09,3,62.52,27 / 27,3406210,2019-09-08 13:03:45:449,-0.1916,-0.0435,9.8696,-0.0038,-0.0016,9.8066,0.0115,0.0059,-0.0016,-29.0,-28.62,-1.12,275.62,-82.23,-164.56
35927,52.40582,-1.519636,140.79,1.09,3,62.52,27 / 27,3406310,2019-09-08 13:03:45:549,-0.2772,-0.029,9.9799,-0.0032,-0.0001,9.8066,0.0014,-0.0203,-0.0049,-28.75,-29.31,-1.31,275.73,-82.26,-164.48
35928,52.40582,-1.519636,140.79,1.09,3,62.52,27 / 27,3406410,2019-09-08 13:03:45:649,0.1646,0.0176,9.8642,-0.0026,0.0014,9.8066,0.0091,-0.0067,0.0071,-28.87,-28.62,-1.25,275.74,-82.3,-164.5
35929,52.40582,-1.519636,140.79,1.09,3,62.52,27 / 27,3406510,2019-09-08 13:03:45:749,0.1859,-0.0596,9.7897,-0.0012,0.0002,9.8066,0.0212,-0.019,0.0105,-29.25,-28.94,-1.31,275.73,-82.33,-164.55
35930,52.40582,-1.519636,140.79,1.09,3,62.52,27 / 27,3406610,2019-09-08 13:03:45:849,-0.018,-0.0428,9.8342,-0.0014,-0.0004,9.8066,-0.0028,-0.0033,0.0124,-28.56,-28.75,-1.44,275.8,-82.35,-164.49
35931,52.40582,-1.519636,140.79,1.09,3,62.52,27 / 28,3406709,2019-09-08 13:03:45:948,-0.0595,-0.08,9.9398,-0.0009,0.0001,9.8066,-0.0036,-0.0059,0.0035,-29.0,-29.0,-1.12,275.92,-82.36,-164.4
35932,52.40582,-1.519636,140.79,1.09,3,62.52,27 / 28,3406810,2019-09-08 13:03:46:049,0.2741,-0.0039,9.8468,-0.0013,0.0001,9.8066,0.0228,-0.0142,0.0124,-29.0,-29.31,-1.19,275.92,-82.39,-164.43
35933,52.40582,-1.519636,140.79,1.09,3,62.52,27 / 28,3406910,2019-09-08 13:03:46:149,-0.0704,-0.0862,9.8552,0.0038,0.0,9.8066,-0.0039,-0.0063,0.0038,-28.62,-29.19,-1.56,273.96,-82.39,-164.42
35934,52.40582,-1.519636,140.79,1.09,3,62.52,27 / 28,3407010,2019-09-08 13:03:46:249,0.0623,0.0057,9.8477,-0.005,-0.0004,9.8066,0.0111,-0.0235,0.0033,-28.81,-29.37,-0.81,275.95,-82.4,-164.4
35935,52.40582,-1.519636,140.79,1.09,3,62.52,27 / 28,3407110,2019-09-08 13:03:46:349,-0.0598,-0.075,9.8978,-0.0032,0.0003,9.8066,0.0208,-0.0067,0.006,-28.62,-28.56,-1.62,274.05,-82.44,-164.39
35936,52.40582,-1.519636,140.79,1.09,3,62.52,27 / 28,3407210,2019-09-08 13:03:46:449,-0.0237,0.0577,9.9176,-0.0038,-0.0017,9.8066,0.0125,-0.0168,-0.0067,-28.69,-29.0,-1.25,276.08,-82.46,-164.34
35937,52.40582,-1.519636,140.79,1.09,3,62.52,27 / 28,3407310,2019-09-08 13:03:46:549,-0.0059,-0.0433,9.9084,-0.0046,-0.0008,9.8066,0.0148,-0.0164,0.0018,-28.37,-29.81,-1.25,275.56,-82.49,-164.27
35938,52.40582,-1.519636,140.79,1.09,3,62.52,27 / 28,3407410,2019-09-08 13:03:46:649,-0.033,-0.0675,9.9033,-0.0001,-0.0004,9.8066,-0.005,-0.0096,0.011,-28.37,-29.19,-0.87,275.8,-82.5,-164.32
35939,52.40582,-1.519636,140.79,1.09,3,62.52,27 / 28,3407510,2019-09-08 13:03:46:749,0.2195,-0.0302,9.7838,-0.0025,-0.0012,9.8066,0.0095,-0.0122,0.0044,-28.56,-29.5,-1.31,276.27,-82.54,-164.22
35940,52.40582,-1.519636,140.79,1.09,3,62.52,27 / 28,3407610,2019-09-08 13:03:46:849,-0.0935,-0.0883,9.8674,-0.0028,-0.0014,9.8066,-0.0022,0.0025,0.0053,-28.56,-29.37,-1.44,276.29,-82.55,-164.22
35941,52.40582,-1.519636,140.79,1.09,3,62.52,27 / 28,3407710,2019-09-08 13:03:46:949,0.0317,-0.0163,9.8601,-0.0044,0.0001,9.8066,0.0032,-0.0012,0.0068,-28.44,-29.5,-1.69,274.07,-82.6,-164.12
35942,52.40582,-1.519636,140.79,1.09,3,62.52,27 / 28,3407810,2019-09-08 13:03:47:049,-0.1904,0.0384,9.912,0.0007,0.0,9.8066,0.0038,-0.0118,0.002,-28.12,-28.75,-0.75,276.23,-82.62,-164.02
35943,52.40582,-1.519636,140.79,1.09,3,62.52,27 / 28,3407910,2019-09-08 13:03:47:149,0.0423,0.0389,9.8998,-0.0006,0.0002,9.8066,-0.0044,0.0011,0.0053,-29.06,-29.31,-1.37,276.65,-82.65,-163.96
35944,52.40582,-1.519636,140.79,1.09,3,62.52,27 / 28,3408010,2019-09-08 13:03:47:249,-0.0372,-0.0811,9.9529,-0.0029,-0.0017,9.8066,0.007,-0.0202,0.0093,-28.75,-29.06,-1.25,276.66,-82.66,-163.97
35945,52.40582,-1.519636,140.79,1.09,3,62.52,27 / 28,3408110,2019-09-08 13:03:47:349,0.3415,-0.0609,9.8067,-0.0028,-0.0014,9.8066,0.0017,-0.019,-0.0009,-28.37,-29.5,-1.31,276.55,-82.69,-163.77
35946,52.40582,-1.519636,140.79,1.09,3,62.52,27 / 28,3408210,2019-09-08 13:03:47:449,0.2116,0.0228,9.9194,0.0022,0.0009,9.8066,0.0106,0.0001,0.0082,-28.5,-29.37,-1.5,276.54,-82.69,-163.78
35947,52.40582,-1.519636,140.79,1.09,3,62.52,27 / 28,3408310,2019-09-08 13:03:47:549,0.4613,-0.0551,9.6874,0.0058,0.001,9.8066,-0.0082,-0.006,0.0006,-28.94,-29.81,-1.06,276.58,-82.67,-163.8
35948,52.40582,-1.519636,140.79,1.09,3,62.52,27 / 28,3408410,2019-09-08 13:03:47:649,0.2939,0.0474,9.9487,-0.0064,0.0002,9.8066,0.0209,-0.0167,-0.0002,-29.0,-29.25,-1.12,276.82,-82.67,-163.81
35949,52.40582,-1.519636,140.79,1.09,3,62.52,27 / 28,3408510,2019-09-08 13:03:47:749,0.4057,0.0391,9.8437,-0.0058,-0.0013,9.8066,0.0315,-0.0117,0.0093,-28.12,-29.19,-1.37,276.58,-82.72,-163.78
35950,52.40582,-1.519636,140.79,1.09,3,62.52,27 / 28,3408610,2019-09-08 13:03:47:849,0.5931,0.0065,9.8674,0.0047,-0.0006,9.8066,-0.008,-0.0047,0.0026,-28.37,-29.25,-1.31,276.64,-82.72,-163.71
35951,52.40582,-1.519636,140.79,1.09,3,62.52,27 / 27,3408710,2019-09-08 13:03:47:949,0.5262,0.0898,9.8285,0.0006,0.0006,9.8066,-0.0103,-0.0047,-0.0007,-28.25,-29.37,-1.31,276.67,-82.72,-163.68
35952,52.40582,-1.519636,140.79,1.09,3,62.52,27 / 27,3408810,2019-09-08 13:03:48:049,0.2467,0.0589,9.8836,0.0011,0.0015,9.8066,-0.0175,-0.0065,-0.0039,-28.0,-29.69,-0.87,276.36,-82.72,-163.73
35953,52.40582,-1.519636,140.79,1.09,3,62.52,27 / 27,3408910,2019-09-08 13:03:48:149,0.7938,0.1262,9.824,-0.0038,-0.0012,9.8066,0.0302,-0.0022,0.0061,-28.62,-29.19,-2.0,275.06,-82.75,-163.69
35954,52.40582,-1.519636,140.79,1.09,3,62.52,27 / 27,3409010,2019-09-08 13:03:48:249,0.8573,0.0222,9.9022,-0.0018,-0.0003,9.8066,0.0148,-0.0197,0.0123,-28.19,-28.94,-1.69,274.69,-82.76,-163.67
35955,52.40582,-1.519636,140.79,1.09,3,62.52,27 / 27,3409110,2019-09-08 13:03:48:349,0.3906,0.026,9.8737,-0.0006,-0.0009,9.8066,0.0009,-0.0058,0.006,-27.81,-29.94,-1.94,274.54,-82.77,-163.58
35956,52.40582,-1.519636,140.79,1.09,3,62.52,27 / 27,3409210,2019-09-08 13:03:48:449,0.5549,-0.0742,9.8466,0.0018,0.0009,9.8065,0.0015,-0.0035,0.0033,-28.0,-29.56,-0.87,276.55,-82.76,-163.58
35957,52.40582,-1.519636,140.79,1.09,3,62.52,27 / 27,3409310,2019-09-08 13:03:48:549,0.6458,0.0835,9.7412,-0.0043,-0.0002,9.8066,0.022,-0.0036,0.0128,-28.5,-30.0,-1.5,276.64,-82.73,-163.47
35958,52.40582,-1.519636,140.79,1.09,3,62.52,27 / 27,3409410,2019-09-08 13:03:48:649,0.6441,-0.0302,9.7987,-0.0029,-0.0008,9.8066,0.0044,-0.0132,0.0046,-28.31,-29.75,-2.0,274.71,-82.72,-163.35
35959,52.40582,-1.519636,140.79,1.09,3,62.52,27 / 27,3409511,2019-09-08 13:03:48:750,0.6884,-0.125,9.9253,0.0018,-0.0023,9.8065,0.0134,-0.0115,0.0089,-28.44,-30.0,-2.25,274.77,-82.69,-163.25
35960,52.40582,-1.519636,140.79,1.09,3,62.52,27 / 27,3409610,2019-09-08 13:03:48:849,0.9108,0.1093,9.8553,0.0002,-0.0025,9.8066,0.012,0.0011,-0.0089,-28.06,-29.87,-2.31,274.85,-82.69,-163.16
35961,52.40582,-1.519636,140.79,1.09,3,62.52,27 / 27,3409710,2019-09-08 13:03:48:949,1.1546,0.0335,9.9643,0.0032,0.0001,9.8066,-0.0165,0.0039,-0.0103,-28.12,-30.19,-2.12,274.86,-82.7,-163.18
35962,52.40582,-1.519636,140.79,1.09,3,62.52,27 / 27,3409809,2019-09-08 13:03:49:048,0.9175,0.1068,9.7438,0.0058,0.0042,9.8066,-0.007,-0.026,0.013,-28.25,-30.69,-2.44,274.37,-82.68,-163.38
35963,52.40582,-1.519636,140.79,1.09,3,62.52,27 / 27,3409910,2019-09-08 13:03:49:149,1.501,-0.0293,9.7897,-0.0021,0.0031,9.8066,0.0178,0.0106,0.0033,-28.19,-30.75,-2.5,274.23,-82.68,-163.51
35964,52.40582,-1.519636,140.79,1.09,3,62.52,27 / 27,3410010,2019-09-08 13:03:49:249,1.0445,0.3582,10.0047,0.0001,-0.0006,9.8066,0.0294,-0.0036,-0.0061,-28.06,-30.69,-3.0,271.86,-82.66,-163.86
35965,52.40582,-1.519636,140.79,1.09,3,62.52,27 / 27,3410110,2019-09-08 13:03:49:349,1.04,0.2658,9.8421,0.014,0.0034,9.8066,-0.0271,-0.0089,-0.0047,-27.81,-31.5,-3.25,271.56,-82.54,-164.03
35966,52.40582,-1.519636,140.79,1.09,3,62.52,27 / 27,3410210,2019-09-08 13:03:49:449,1.3756,0.2242,9.698,0.0157,0.0012,9.8066,-0.0197,-0.0017,0.0195,-28.25,-31.56,-3.75,269.4,-82.5,-163.91
35967,52.40582,-1.519636,140.79,1.09,3,62.52,27 / 27,3410310,2019-09-08 13:03:49:549,1.3413,0.0502,9.7215,-0.0125,-0.0101,9.8066,0.0229,-0.0064,0.0021,-28.37,-32.0,-3.19,271.89,-82.52,-163.4
35968,52.40582,-1.519636,140.79,1.09,3,62.52,27 / 27,3410410,2019-09-08 13:03:49:649,1.8741,0.46,9.8125,-0.0092,-0.0059,9.8066,0.0101,-0.0143,0.0174,-27.81,-32.0,-3.62,270.9,-82.6,-162.51
35969,52.40582,-1.519636,140.79,1.09,3,62.52,27 / 27,3410510,2019-09-08 13:03:49:749,1.72,0.4981,9.7513,-0.0039,-0.0021,9.8066,-0.0079,-0.0106,0.0123,-28.25,-33.31,-3.81,270.98,-82.64,-162.21
35970,52.40582,-1.519636,140.79,1.09,3,62.52,27 / 27,3410610,2019-09-08 13:03:49:849,1.5462,0.0274,9.767,-0.0095,-0.0078,9.8066,0.0023,0.012,0.0207,-27.87,-33.44,-3.44,273.71,-82.71,-161.54
35971,52.40582,-1.519636,140.79,1.09,3,62.52,26 / 26,3410710,2019-09-08 13:03:49:949,1.082,0.1563,9.8009,-0.0018,-0.0042,9.8066,-0.019,0.0022,-0.0016,-27.56,-34.06,-2.94,273.99,-82.78,-161.09
35972,52.40582,-1.519636,140.79,1.09,3,62.52,26 / 26,3410809,2019-09-08 13:03:50:048,0.9567,0.0174,9.9038,-0.0007,0.0002,9.8066,-0.0364,-0.004,0.0155,-28.19,-34.12,-3.0,274.53,-82.86,-160.65
35973,52.40582,-1.519636,140.79,1.09,3,62.52,26 / 26,3410910,2019-09-08 13:03:50:149,0.1844,-0.0576,10.1162,-0.0073,0.0016,9.8066,0.0257,-0.0072,0.0104,-28.56,-35.62,-2.75,274.81,-82.96,-160.52
35974,52.40582,-1.519636,140.79,1.09,3,62.52,26 / 26,3411010,2019-09-08 13:03:50:249,-0.2651,0.1132,9.7224,0.0026,0.0096,9.8065,-0.0114,0.0263,-0.0261,-28.12,-35.25,-2.56,274.0,-83.08,-161.2
35975,52.40582,-1.519636,140.79,1.09,3,62.52,26 / 26,3411110,2019-09-08 13:03:50:349,-0.3192,0.2263,9.8697,-0.0189,0.0052,9.8066,0.0066,-0.0085,-0.0108,-29.75,-36.5,-1.75,275.89,-83.33,-162.25
35976,52.40582,-1.519636,140.79,1.09,3,62.52,26 / 26,3411210,2019-09-08 13:03:50:449,-0.0344,0.2146,9.5803,-0.0145,0.005,9.8066,0.0027,-0.021,0.0125,-29.06,-36.62,-1.12,276.91,-83.45,-162.72
35977,52.40582,-1.519636,140.79,1.09,3,62.52,26 / 26,3411310,2019-09-08 13:03:50:549,0.2609,0.1552,9.812,-0.002,-0.0057,9.8066,0.0503,0.0087,0.0113,-28.94,-36.44,-1.31,277.48,-83.49,-162.43
35978,52.40582,-1.519636,140.79,1.09,3,62.52,26 / 26,3411410,2019-09-08 13:03:50:649,-0.2458,0.0545,9.977,-0.0013,-0.0106,9.8065,0.0295,0.0018,0.0045,-28.69,-35.56,0.0,280.68,-83.49,-161.25
35979,52.40582,-1.519636,140.79,1.09,3,62.52,26 / 26,3411510,2019-09-08 13:03:50:749,-0.1216,-0.1312,9.73,-0.0009,-0.0038,9.8066,-0.0586,-0.0058,-0.0069,-29.06,-35.62,0.0,281.41,-83.46,-160.5
35980,52.40582,-1.519636,140.79,1.09,3,62.52,26 / 26,3411610,2019-09-08 13:03:50:849,-0.1792,-0.201,9.8108,-0.0044,-0.0018,9.8066,-0.0299,-0.0094,-0.0214,-29.37,-35.69,0.69,283.88,-83.44,-160.05
35981,52.40582,-1.519636,140.79,1.09,3,62.52,25 / 25,3411710,2019-09-08 13:03:50:949,-0.2726,-0.0146,9.9105,-0.0032,0.0075,9.8066,0.0263,-0.0084,0.0086,-29.0,-35.94,1.19,283.55,-83.43,-160.36
35982,52.40582,-1.519636,140.79,1.09,3,62.52,25 / 25,3411810,2019-09-08 13:03:51:049,0.0478,0.3664,9.8785,-0.0044,-0.0041,9.8066,0.0443,0.0195,0.0057,-29.44,-35.12,0.94,283.4,-83.47,-160.77
35983,52.40582,-1.519636,140.79,1.09,3,62.52,25 / 25,3411910,2019-09-08 13:03:51:149,-0.465,0.0566,9.6513,0.0033,-0.0034,9.8066,-0.0329,0.0069,0.007,-29.12,-34.06,1.19,284.12,-83.43,-160.25
35984,52.40582,-1.519636,140.79,1.09,3,62.52,25 / 25,3412010,2019-09-08 13:03:51:249,-0.6292,-0.3152,9.8428,0.0073,-0.0016,9.8066,-0.0401,0.0125,0.0191,-28.69,-33.87,1.63,286.28,-83.4,-160.1
35985,52.40582,-1.519636,140.79,1.09,3,62.52,25 / 25,3412110,2019-09-08 13:03:51:349,-0.7452,-0.1684,9.8721,-0.0029,0.0067,9.8066,0.0592,0.0117,-0.0075,-28.62,-33.25,1.25,284.61,-83.37,-159.93
35986,52.40582,-1.519636,140.79,1.09,3,62.52,25 / 25,3412210,2019-09-08 13:03:51:449,-0.1111,-0.2547,9.8912,0.0017,0.0113,9.8066,0.0383,-0.0004,-0.0319,-27.75,-32.94,1.13,283.15,-83.41,-161.19
35987,52.40582,-1.519636,140.79,1.09,3,62.52,25 / 25,3412310,2019-09-08 13:03:51:549,-0.6128,0.7214,9.7021,-0.0058,0.0089,9.8066,-0.0377,0.0055,-0.0302,-27.44,-33.5,1.81,284.0,-83.42,-162.3
35988,52.40582,-1.519636,140.79,1.09,3,62.52,25 / 25,3412410,2019-09-08 13:03:51:649,-0.6158,0.0643,9.8797,-0.0026,0.0092,9.8066,-0.0365,0.0048,-0.0147,-27.44,-32.94,1.06,280.89,-83.47,-163.28
35989,52.40582,-1.519636,140.79,1.09,3,62.52,25 / 25,3412510,2019-09-08 13:03:51:749,-0.1468,0.259,9.9141,0.0021,-0.0006,9.8066,0.0223,0.032,-0.0072,-27.19,-33.37,0.63,280.2,-83.46,-163.94
35990,52.40582,-1.519636,140.79,1.09,3,62.52,25 / 25,3412610,2019-09-08 13:03:51:849,-0.0897,-0.1784,10.0169,0.007,-0.0008,9.8066,0.0215,0.0043,0.0168,-27.44,-33.0,1.31,280.17,-83.43,-163.93
35991,52.40582,-1.519636,140.79,1.09,3,62.52,28 / 28,3412710,2019-09-08 13:03:51:949,-0.7086,-0.0124,9.7256,-0.0024,0.0042,9.8066,-0.0349,0.0187,-0.0043,-27.37,-33.87,0.81,279.65,-83.42,-164.19
35992,52.40582,-1.519636,140.79,1.09,3,62.52,28 / 28,3412810,2019-09-08 13:03:52:049,-0.5144,0.1608,9.9312,-0.0017,-0.0056,9.8066,0.0102,0.0294,-0.0179,-27.37,-33.37,0.94,279.85,-83.43,-164.24
35993,52.40582,-1.519636,140.79,1.09,3,62.52,28 / 28,3412909,2019-09-08 13:03:52:148,-0.3754,0.1729,9.7118,0.0125,0.0042,9.8066,-0.0612,0.0363,-0.0338,-26.31,-33.5,-0.06,277.06,-83.44,-164.57
35994,52.40582,-1.519636,140.79,1.09,3,62.52,28 / 28,3413010,2019-09-08 13:03:52:249,-1.1016,-0.0396,9.9179,0.0058,0.0051,9.8066,-0.0473,-0.0167,-0.0054,-26.44,-32.94,0.38,276.35,-83.37,-165.17
35995,52.40582,-1.519636,140.79,1.09,3,62.52,28 / 28,3413110,2019-09-08 13:03:52:349,-0.8091,0.2928,9.9996,-0.0075,-0.0028,9.8066,0.0152,0.0151,-0.0171,-27.12,-33.44,-0.25,276.83,-83.39,-165.04
35996,52.40582,-1.519636,140.79,1.09,3,62.52,28 / 28,3413210,2019-09-08 13:03:52:449,-0.5597,0.0947,9.7939,-0.0065,-0.0035,9.8066,0.0286,0.0128,0.016,-26.56,-33.0,0.19,276.92,-83.39,-164.95
35997,52.40582,-1.519636,140.79,1.09,3,62.52,28 / 28,3413310,2019-09-08 13:03:52:549,-0.1692,0.1853,9.675,0.0153,-0.0033,9.8066,-0.0487,0.0153,0.0425,-26.0,-32.94,0.0,277.01,-83.33,-164.47
35998,52.40582,-1.519636,140.79,1.09,3,62.52,28 / 28,3413410,2019-09-08 13:03:52:649,-0.4511,-0.188,9.6394,0.0133,-0.0048,9.8066,-0.0503,0.015,0.0222,-25.81,-32.56,0.13,277.54,-83.2,-163.78
35999,52.40582,-1.519636,140.79,1.09,3,62.52,28 / 28,3413510,2019-09-08 13:03:52:749,-0.8508,-0.1885,9.7992,-0.013,-0.0027,9.8066,0.0268,-0.0051,0.0139,-25.56,-32.81,0.13,277.92,-83.16,-163.36
36000,52.40582,-1.519636,140.79,1.09,3,62.52,28 / 28,3413610,2019-09-08 13:03:52:849,-1.0189,-0.0306,9.7747,-0.0148,-0.0021,9.8066,0.0328,0.0162,-0.0122,-25.69,-32.81,0.31,278.31,-83.25,-163.08
36001,52.405857,-1.519524,140.18,1.2,3,59.1,28 / 28,3413710,2019-09-08 13:03:52:949,-1.309,0.0343,9.7752,-0.0092,0.0037,9.8065,0.0198,0.0052,-0.0009,-26.06,-33.44,0.25,277.9,-83.2,-163.41
36002,52.405857,-1.519524,140.18,1.2,3,59.1,28 / 28,3413809,2019-09-08 13:03:53:048,-1.0752,-0.2747,9.9604,-0.0017,0.001,9.8066,-0.0195,0.0023,0.0254,-25.87,-32.37,0.0,277.68,-83.23,-163.94
36003,52.405857,-1.519524,140.18,1.2,3,59.1,28 / 28,3413910,2019-09-08 13:03:53:149,-1.3479,-0.229,9.8839,-0.0018,0.0042,9.8066,-0.0204,-0.0008,0.0035,-25.12,-33.0,0.0,276.65,-83.21,-164.33
36004,52.405857,-1.519524,140.18,1.2,3,59.1,28 / 28,3414010,2019-09-08 13:03:53:249,-1.2368,-0.2111,9.846,-0.0046,0.0017,9.8066,0.0179,0.0036,-0.0172,-25.19,-32.87,-0.19,276.22,-83.25,-164.8
36005,52.405857,-1.519524,140.18,1.2,3,59.1,28 / 28,3414110,2019-09-08 13:03:53:349,-0.7952,0.0358,9.9256,0.003,0.0011,9.8066,0.0105,0.0078,-0.0188,-25.62,-33.56,-0.06,275.98,-83.23,-165.1
36006,52.405857,-1.519524,140.18,1.2,3,59.1,28 / 28,3414210,2019-09-08 13:03:53:449,-0.6406,-0.129,9.916,0.0013,0.0005,9.8066,0.0129,-0.0069,0.0216,-25.19,-33.56,-0.56,273.22,-83.21,-165.17
36007,52.405857,-1.519524,140.18,1.2,3,59.1,28 / 28,3414310,2019-09-08 13:03:53:549,-0.4707,-0.1387,9.9187,0.0011,0.0021,9.8066,0.0022,-0.0051,0.0018,-25.87,-33.12,-0.56,273.85,-83.17,-165.2
36008,52.405857,-1.519524,140.18,1.2,3,59.1,28 / 28,3414410,2019-09-08 13:03:53:649,-0.2837,0.1102,9.8457,0.0024,0.0014,9.8066,0.0324,0.0058,-0.0083,-25.81,-33.06,-0.81,273.51,-83.13,-165.5
36009,52.405857,-1.519524,140.18,1.2,3,59.1,28 / 28,3414510,2019-09-08 13:03:53:749,-0.0283,0.0516,9.9875,0.0044,0.001,9.8066,0.0318,0.0008,0.0122,-25.25,-32.81,-0.69,272.98,-83.1,-165.54
36010,52.405857,-1.519524,140.18,1.2,3,59.1,28 / 28,3414610,2019-09-08 13:03:53:849,0.0469,-0.0289,9.8547,0.0036,0.0015,9.8066,-0.0145,-0.0024,0.0001,-26.06,-33.56,-0.56,272.86,-83.06,-165.78
36011,52.405857,-1.519524,140.18,1.2,3,59.1,27 / 28,3414710,2019-09-08 13:03:53:949,0.0309,0.0429,9.8916,0.004,0.0002,9.8066,0.004,-0.0087,-0.0015,-25.44,-33.25,-0.75,272.51,-83.03,-165.9
36012,52.405857,-1.519524,140.18,1.2,3,59.1,27 / 28,3414810,2019-09-08 13:03:54:049,0.1259,0.0387,9.7774,0.0032,0.0016,9.8066,0.0209,0.0059,0.0066,-25.94,-33.31,-0.12,275.0,-82.99,-166.01
36013,52.405857,-1.519524,140.18,1.2,3,59.1,27 / 28,3414910,2019-09-08 13:03:54:149,0.1463,0.0247,9.8582,0.0035,0.0029,9.8066,0.0152,0.0027,-0.0132,-25.0,-32.75,-0.19,274.29,-82.97,-166.33
36014,52.405857,-1.519524,140.18,1.2,3,59.1,27 / 28,3415010,2019-09-08 13:03:54:249,0.449,0.0826,9.8268,0.0061,0.0016,9.8066,-0.0181,0.0034,-0.0009,-24.81,-32.87,-0.81,271.58,-82.9,-166.66
36015,52.405857,-1.519524,140.18,1.2,3,59.1,27 / 28,3415110,2019-09-08 13:03:54:349,0.1884,-0.0096,9.7268,-0.0018,0.0007,9.8066,-0.005,-0.0011,0.0053,-24.87,-32.94,-0.19,273.72,-82.87,-166.77
36016,52.405857,-1.519524,140.18,1.2,3,59.1,27 / 28,3415210,2019-09-08 13:03:54:449,0.4295,-0.0653,9.8983,-0.0051,0.0015,9.8066,0.0195,0.0118,-0.0139,-25.19,-32.87,-0.69,271.21,-82.87,-167.0
36017,52.405857,-1.519524,140.18,1.2,3,59.1,27 / 28,3415310,2019-09-08 13:03:54:549,0.5477,0.0559,9.9353,0.0069,0.0032,9.8066,0.0208,0.0068,-0.0072,-25.62,-32.56,0.06,273.33,-82.83,-167.46
36018,52.405857,-1.519524,140.18,1.2,3,59.1,27 / 28,3415410,2019-09-08 13:03:54:649,0.3366,0.0059,9.8677,0.0076,0.0057,9.8066,0.0042,0.0023,0.0065,-25.19,-33.25,0.0,272.64,-82.81,-167.76
36019,52.405857,-1.519524,140.18,1.2,3,59.1,27 / 28,3415510,2019-09-08 13:03:54:749,0.5699,-0.0442,9.8123,0.0034,0.0038,9.8066,0.0149,0.0066,-0.0006,-24.81,-33.25,-0.44,272.23,-82.79,-168.15
36020,52.405857,-1.519524,140.18,1.2,3,59.1,27 / 28,3415610,2019-09-08 13:03:54:849,0.4638,0.0071,9.8172,0.0049,0.0039,9.8066,-0.001,0.0105,0.0,-25.25,-33.06,-0.62,269.38,-82.74,-168.66
36021,52.405857,-1.519524,140.18,1.2,3,59.1,26 / 26,3415711,2019-09-08 13:03:54:950,0.0858,0.2434,9.9143,-0.0031,0.0012,9.8066,-0.0045,0.0148,-0.0114,-25.12,-32.81,-0.62,269.14,-82.75,-168.92
36022,52.405857,-1.519524,140.18,1.2,3,59.1,26 / 26,3415810,2019-09-08 13:03:55:049,-0.095,-0.0379,9.9157,-0.0009,-0.0006,9.8066,-0.0346,0.0037,-0.0134,-24.56,-33.0,-0.31,271.5,-82.77,-168.85
36023,52.405857,-1.519524,140.18,1.2,3,59.1,26 / 26,3415910,2019-09-08 13:03:55:149,-0.3977,-0.2231,9.7706,-0.004,-0.0042,9.8066,-0.0441,-0.0044,0.0142,-24.31,-32.69,-0.69,268.89,-82.84,-168.79
36024,52.405857,-1.519524,140.18,1.2,3,59.1,26 / 26,3416010,2019-09-08 13:03:55:249,-0.0637,-0.1583,9.747,-0.0045,-0.0032,9.8066,0.0377,-0.0059,0.0009,-23.94,-32.75,-0.75,269.07,-82.84,-168.61
36025,52.405857,-1.519524,140.18,1.2,3,59.1,26 / 26,3416110,2019-09-08 13:03:55:349,-0.0277,-0.038,9.8071,0.0039,-0.0013,9.8066,0.0334,0.0049,0.0261,-24.62,-33.44,-0.75,269.54,-82.83,-168.62
36026,52.405857,-1.519524,140.18,1.2,3,59.1,26 / 26,3416210,2019-09-08 13:03:55:449,-0.4075,-0.0348,9.9599,-0.0022,0.0004,9.8066,-0.0104,0.0054,-0.0073,-24.44,-32.69,-0.31,271.53,-82.81,-168.47
36027,52.405857,-1.519524,140.18,1.2,3,59.1,26 / 26,3416310,2019-09-08 13:03:55:549,-0.379,-0.0158,9.7942,-0.004,0.0012,9.8066,-0.019,0.0149,-0.008,-23.25,-33.37,-0.62,268.61,-82.83,-168.52
36028,52.405857,-1.519524,140.18,1.2,3,59.1,26 / 26,3416410,2019-09-08 13:03:55:649,-0.1736,-0.0538,9.8036,-0.0067,-0.0009,9.8066,0.0221,-0.0122,-0.0098,-23.81,-33.0,-0.69,269.18,-82.86,-168.53
36029,52.405857,-1.519524,140.18,1.2,3,59.1,26 / 26,3416510,2019-09-08 13:03:55:749,-0.3277,-0.1614,9.8648,0.0074,0.0012,9.8066,0.0198,0.0068,0.0027,-23.94,-33.0,-0.69,269.09,-82.84,-168.58
36030,52.405857,-1.519524,140.18,1.2,3,59.1,26 / 26,3416610,2019-09-08 13:03:55:849,-0.4878,-0.1018,9.9835,0.0038,-0.0015,9.8066,0.0029,-0.0105,0.0,-23.5,-33.06,-0.69,268.84,-82.86,-168.34
36031,52.405857,-1.519524,140.18,1.2,3,59.1,28 / 28,3416710,2019-09-08 13:03:55:949,-0.5537,-0.166,9.7509,-0.0045,-0.0044,9.8066,0.0034,-0.001,-0.0009,-24.19,-33.0,-0.81,269.47,-82.86,-168.24
36032,52.405857,-1.519524,140.18,1.2,3,59.1,28 / 28,3416810,2019-09-08 13:03:56:049,-0.3223,-0.1491,9.8206,0.0002,-0.0014,9.8066,0.0075,0.0066,0.0187,-23.69,-33.25,-0.94,269.82,-82.87,-167.9
36033,52.405857,-1.519524,140.18,1.2,3,59.1,28 / 28,3416910,2019-09-08 13:03:56:149,-0.6841,-0.1977,9.9926,0.0001,0.0005,9.8066,0.009,-0.0075,0.0044,-23.19,-33.19,-1.0,269.36,-82.9,-167.87
36034,52.405857,-1.519524,140.18,1.2,3,59.1,28 / 28,3417010,2019-09-08 13:03:56:249,-0.624,-0.2317,9.8117,0.0014,0.0004,9.8066,-0.0162,0.0158,-0.0032,-23.5,-32.81,-1.0,269.38,-82.91,-167.86
36035,52.405857,-1.519524,140.18,1.2,3,59.1,28 / 28,3417110,2019-09-08 13:03:56:349,-0.613,0.0446,9.8711,-0.0041,-0.0014,9.8066,0.0031,-0.0053,0.0126,-23.37,-33.0,-0.81,269.52,-82.93,-167.76
36036,52.405857,-1.519524,140.18,1.2,3,59.1,28 / 28,3417210,2019-09-08 13:03:56:449,-0.6864,-0.0823,9.9317,-0.0042,0.001,9.8066,0.0041,-0.0089,-0.004,-23.44,-32.75,-0.75,269.42,-82.94,-167.87
36037,52.405857,-1.519524,140.18,1.2,3,59.1,28 / 28,3417310,2019-09-08 13:03:56:549,-0.351,-0.1466,9.8726,0.0036,-0.001,9.8066,0.0106,0.0041,0.012,-23.56,-32.69,-1.5,270.03,-82.94,-167.79
36038,52.405857,-1.519524,140.18,1.2,3,59.1,28 / 28,3417410,2019-09-08 13:03:56:649,-0.5885,-0.1605,9.9167,0.0017,0.0001,9.8066,-0.0099,-0.0138,0.0038,-23.69,-33.37,-1.06,270.12,-82.93,-167.68
36039,52.405857,-1.519524,140.18,1.2,3,59.1,28 / 28,3417510,2019-09-08 13:03:56:749,-0.4604,-0.0209,9.8294,-0.0045,-0.0002,9.8066,-0.0159,-0.0065,-0.0172,-24.12,-32.87,-0.25,272.37,-82.93,-167.81
36040,52.405857,-1.519524,140.18,1.2,3,59.1,28 / 28,3417610,2019-09-08 13:03:56:849,-0.1663,0.0066,9.949,-0.0036,-0.0031,9.8066,0.0186,-0.0094,0.0116,-23.94,-32.5,-1.37,270.44,-82.94,-167.68
36041,52.405857,-1.519524,140.18,1.2,3,59.1,26 / 26,3417710,2019-09-08 13:03:56:949,0.1205,0.147,10.0256,0.007,0.0028,9.8066,0.0106,-0.0019,0.0013,-23.69,-33.06,-0.44,272.45,-82.93,-167.73
36042,52.405857,-1.519524,140.18,1.2,3,59.1,26 / 26,3417810,2019-09-08 13:03:57:049,0.0509,-0.0545,9.6638,0.0113,-0.0004,9.8066,0.0171,-0.0109,-0.0038,-23.75,-33.0,-0.5,272.23,-82.85,-167.83
36043,52.405857,-1.519524,140.18,1.2,3,59.1,26 / 26,3417910,2019-09-08 13:03:57:149,-0.1353,-0.1508,9.9826,-0.005,-0.001,9.8066,0.0257,-0.014,0.0191,-23.37,-33.0,-1.12,269.45,-82.84,-167.69
36044,52.405857,-1.519524,140.18,1.2,3,59.1,26 / 26,3418010,2019-09-08 13:03:57:249,-0.0573,-0.1237,9.9051,-0.0066,0.0001,9.8066,-0.0163,0.0043,0.0003,-23.25,-33.19,-0.62,269.54,-82.91,-167.7
36045,52.405857,-1.519524,140.18,1.2,3,59.1,26 / 26,3418110,2019-09-08 13:03:57:349,0.2516,0.0452,9.7685,0.0021,0.0007,9.8066,-0.0026,-0.0129,-0.0033,-23.87,-33.5,-1.19,269.98,-82.91,-167.79
36046,52.405857,-1.519524,140.18,1.2,3,59.1,26 / 26,3418210,2019-09-08 13:03:57:449,-0.1472,0.0123,9.8239,0.0034,0.0025,9.8066,-0.0066,-0.0093,0.0017,-23.62,-32.87,-0.87,269.92,-82.91,-167.85
36047,52.405857,-1.519524,140.18,1.2,3,59.1,26 / 26,3418310,2019-09-08 13:03:57:549,-0.0746,0.0014,9.9067,-0.0043,-0.0008,9.8066,-0.0072,0.0076,-0.0008,-23.56,-32.25,-0.75,270.24,-82.92,-167.85
36048,52.405857,-1.519524,140.18,1.2,3,59.1,26 / 26,3418410,2019-09-08 13:03:57:649,0.0029,-0.1309,9.9129,-0.0037,-0.0005,9.8066,0.0087,-0.0191,0.004,-23.25,-33.25,-0.94,269.48,-82.95,-167.82
36049,52.405857,-1.519524,140.18,1.2,3,59.1,26 / 26,3418510,2019-09-08 13:03:57:749,0.1286,-0.0258,9.8429,0.0,0.0005,9.8066,0.0062,-0.0142,-0.0016,-23.75,-33.0,-0.75,270.0,-82.96,-167.85
36050,52.405857,-1.519524,140.18,1.2,3,59.1,26 / 26,3418611,2019-09-08 13:03:57:850,-0.1169,0.0215,9.8515,-0.0017,-0.0013,9.8066,-0.0054,-0.0053,0.0091,-23.69,-33.06,-0.69,270.06,-82.98,-167.82
36051,52.405857,-1.519524,140.18,1.2,3,59.1,27 / 28,3418710,2019-09-08 13:03:57:949,0.261,0.0127,9.7647,-0.0015,0.001,9.8066,0.0108,-0.0019,0.0064,-23.56,-33.19,-1.56,267.71,-83.0,-167.87
36052,52.405857,-1.519524,140.18,1.2,3,59.1,27 / 28,3418810,2019-09-08 13:03:58:049,-0.0999,-0.1057,9.891,-0.0012,0.0006,9.8065,-0.0012,0.0027,0.0161,-23.94,-33.19,-1.37,269.94,-83.02,-168.0
36053,52.405857,-1.519524,140.18,1.2,3,59.1,27 / 28,3418910,2019-09-08 13:03:58:149,0.2788,-0.0375,9.8326,0.0004,0.0008,9.8066,-0.0131,-0.0195,-0.0134,-23.87,-32.69,-0.75,270.05,-83.03,-167.9
36054,52.405857,-1.519524,140.18,1.2,3,59.1,27 / 28,3419010,2019-09-08 13:03:58:249,-0.2045,0.0467,9.9559,-0.001,0.0009,9.8066,0.009,-0.018,0.0032,-23.19,-33.06,-1.44,269.57,-83.07,-167.91
36055,52.405857,-1.519524,140.18,1.2,3,59.1,27 / 28,3419110,2019-09-08 13:03:58:349,0.1326,0.0102,9.8216,0.0012,-0.0007,9.8066,-0.0071,-0.0012,0.0078,-23.37,-33.19,-0.56,269.64,-83.09,-167.87
36056,52.405857,-1.519524,140.18,1.2,3,59.1,27 / 28,3419210,2019-09-08 13:03:58:449,-0.1549,0.0304,9.9788,-0.0009,-0.0008,9.8066,-0.0065,-0.0053,-0.0062,-23.5,-32.44,-1.0,270.02,-83.11,-167.81
36057,52.405857,-1.519524,140.18,1.2,3,59.1,27 / 28,3419310,2019-09-08 13:03:58:549,0.0265,-0.0293,9.7765,-0.0024,-0.0001,9.8066,0.0201,-0.0198,0.0048,-23.44,-32.94,-1.19,269.79,-83.13,-167.78
36058,52.405857,-1.519524,140.18,1.2,3,59.1,27 / 28,3419410,2019-09-08 13:03:58:649,0.0821,-0.0408,9.9589,-0.0013,0.0002,9.8066,0.0069,-0.0091,-0.0004,-23.5,-32.56,-1.19,269.88,-83.16,-167.73
36059,52.405857,-1.519524,140.18,1.2,3,59.1,27 / 28,3419510,2019-09-08 13:03:58:749,0.0114,0.0577,9.7925,-0.0022,-0.0006,9.8066,-0.0042,-0.003,0.0163,-23.37,-33.12,-1.06,269.8,-83.17,-167.83
36060,52.405857,-1.519524,140.18,1.2,3,59.1,27 / 28,3419610,2019-09-08 13:03:58:849,-0.0078,0.0144,9.8635,-0.0032,-0.0032,9.8066,-0.0049,-0.005,-0.0066,-23.62,-32.69,-0.94,270.56,-83.2,-167.61
36061,52.405857,-1.519524,140.18,1.2,3,59.1,26 / 26,3419710,2019-09-08 13:03:58:949,0.0235,-0.0875,9.8483,0.0002,0.0009,9.8066,0.0057,-0.0205,0.0005,-23.31,-32.69,-1.12,270.08,-83.21,-167.6
36062,52.405857,-1.519524,140.18,1.2,3,59.1,26 / 26,3419809,2019-09-08 13:03:59:048,0.1297,-0.0856,9.841,0.0001,0.0,9.8066,0.0141,-0.0139,0.004,-23.75,-32.87,-0.19,272.94,-83.23,-167.66
36063,52.405857,-1.519524,140.18,1.2,3,59.1,26 / 26,3419910,2019-09-08 13:03:59:149,-0.1404,-0.0016,9.9331,-0.0011,0.0018,9.8066,0.0182,-0.0065,0.0186,-23.25,-32.81,-1.06,270.08,-83.24,-167.65
36064,52.405857,-1.519524,140.18,1.2,3,59.1,26 / 26,3420010,2019-09-08 13:03:59:249,0.0891,-0.0493,9.7599,0.0012,-0.0005,9.8066,-0.0081,0.0056,0.0145,-23.19,-32.81,-1.19,269.96,-83.24,-167.77
36065,52.405857,-1.519524,140.18,1.2,3,59.1,26 / 26,3420110,2019-09-08 13:03:59:349,-0.0426,-0.0591,9.8889,-0.0045,-0.0017,9.8066,0.0093,-0.002,0.0021,-23.44,-32.62,-1.06,270.13,-83.27,-167.64
36066,52.405857,-1.519524,140.18,1.2,3,59.1,26 / 26,3420210,2019-09-08 13:03:59:449,-0.2103,0.0012,10.0562,-0.0026,-0.0007,9.8066,-0.0097,-0.0114,-0.0064,-23.25,-32.62,-0.75,270.1,-83.27,-167.67
36067,52.405857,-1.519524,140.18,1.2,3,59.1,26 / 26,3420310,2019-09-08 13:03:59:549,-0.0863,-0.0712,9.8954,0.0015,0.0008,9.8066,-0.0057,-0.0223,0.0002,-23.0,-32.81,-1.0,270.23,-83.29,-167.57
36068,52.405857,-1.519524,140.18,1.2,3,59.1,26 / 26,3420410,2019-09-08 13:03:59:649,0.1531,-0.0105,9.6978,0.0015,-0.0006,9.8066,-0.0096,-0.0182,-0.0118,-23.0,-33.12,-0.81,270.24,-83.29,-167.55
36069,52.405857,-1.519524,140.18,1.2,3,59.1,26 / 26,3420510,2019-09-08 13:03:59:749,-0.0207,0.0706,9.97,0.0002,0.0012,9.8066,0.0295,-0.0281,0.0075,-23.56,-32.75,-0.5,273.25,-83.32,-167.48
36070,52.405857,-1.519524,140.18,1.2,3,59.1,26 / 26,3420610,2019-09-08 13:03:59:849,-0.0825,0.0267,9.963,0.001,-0.0001,9.8066,0.0272,-0.0108,0.0024,-22.87,-33.12,-1.0,270.33,-83.33,-167.52
36071,52.405857,-1.519524,140.18,1.2,3,59.1,27 / 28,3420710,2019-09-08 13:03:59:949,0.2775,-0.0974,9.7007,-0.0035,0.001,9.8066,0.024,-0.0117,0.0282,-24.19,-32.75,-0.5,273.13,-83.36,-167.65
36072,52.405857,-1.519524,140.18,1.2,3,59.1,27 / 28,3420810,2019-09-08 13:04:00:049,-0.0302,0.0075,9.9806,-0.0014,-0.0011,9.8066,0.0127,0.0131,0.0186,-23.87,-32.87,-1.06,270.82,-83.35,-167.58
36073,52.405857,-1.519524,140.18,1.2,3,59.1,27 / 28,3420909,2019-09-08 13:04:00:148,0.0623,0.0407,9.8493,0.0027,0.0003,9.8066,-0.0097,0.0057,0.0157,-23.69,-32.5,-1.12,271.19,-83.36,-167.51
36074,52.405857,-1.519524,140.18,1.2,3,59.1,27 / 28,3421010,2019-09-08 13:04:00:249,0.008,-0.0073,9.7613,0.0019,-0.0002,9.8066,-0.0232,0.0059,0.0073,-23.94,-32.56,-0.69,270.91,-83.35,-167.49
36075,52.405857,-1.519524,140.18,1.2,3,59.1,27 / 28,3421110,2019-09-08 13:04:00:349,0.1072,0.0175,9.8865,-0.0038,-0.0005,9.8066,0.0033,-0.018,-0.002,-23.44,-33.12,-0.25,272.94,-83.35,-167.42
36076,52.405857,-1.519524,140.18,1.2,3,59.1,27 / 28,3421210,2019-09-08 13:04:00:449,0.0227,0.0113,9.9475,-0.0055,-0.0024,9.8066,0.0199,-0.0147,-0.015,-23.87,-32.62,-0.87,271.15,-83.38,-167.28
36077,52.405857,-1.519524,140.18,1.2,3,59.1,27 / 28,3421310,2019-09-08 13:04:00:549,0.045,0.017,9.7336,0.002,0.0,9.8066,0.002,-0.0202,-0.005,-23.75,-33.31,-1.25,271.14,-83.37,-167.29
36078,52.405857,-1.519524,140.18,1.2,3,59.1,27 / 28,3421410,2019-09-08 13:04:00:649,0.2221,0.0361,9.7741,-0.0018,-0.0001,9.8066,0.018,-0.0171,0.0,-23.87,-32.94,-1.44,271.23,-83.4,-167.22
36079,52.405857,-1.519524,140.18,1.2,3,59.1,27 / 28,3421510,2019-09-08 13:04:00:749,-0.042,-0.0523,9.9986,0.0016,-0.0001,9.8066,0.017,-0.0092,0.0047,-23.44,-32.75,-1.19,270.62,-83.39,-167.32
36080,52.405857,-1.519524,140.18,1.2,3,59.1,27 / 28,3421610,2019-09-08 13:04:00:849,-0.0316,0.0504,9.848,0.0011,-0.0013,9.8066,0.0095,-0.0017,0.0168,-23.69,-31.87,-1.44,271.49,-83.38,-167.22
36081,52.405857,-1.519524,140.18,1.2,3,59.1,26 / 26,3421710,2019-09-08 13:04:00:949,0.1734,-0.0046,9.7299,0.001,0.0013,9.8066,-0.0054,0.0194,0.0077,-23.06,-32.81,-0.75,270.63,-83.38,-167.3
36082,52.405857,-1.519524,140.18,1.2,3,59.1,26 / 26,3421810,2019-09-08 13:04:01:049,0.0425,-0.0338,10.0094,0.0007,-0.0006,9.8066,0.0061,-0.0018,0.013,-24.06,-32.44,-1.0,271.41,-83.38,-167.31
36083,52.405857,-1.519524,140.18,1.2,3,59.1,26 / 26,3421910,2019-09-08 13:04:01:149,-0.1512,0.0871,9.9701,0.0021,0.0013,9.8066,-0.0212,-0.0112,-0.0098,-23.5,-32.94,-1.0,270.56,-83.38,-167.37
36084,52.405857,-1.519524,140.18,1.2,3,59.1,26 / 26,3422010,2019-09-08 13:04:01:249,0.0452,-0.0681,9.7142,-0.0016,-0.0002,9.8066,-0.0214,-0.027,-0.0084,-23.56,-32.81,-0.62,270.91,-83.37,-167.51
36085,52.405857,-1.519524,140.18,1.2,3,59.1,26 / 26,3422110,2019-09-08 13:04:01:349,0.2177,-0.0628,9.8186,-0.0027,-0.0011,9.8066,0.0167,-0.0228,-0.0191,-23.75,-32.75,-1.0,270.86,-83.37,-167.56
36086,52.405857,-1.519524,140.18,1.2,3,59.1,26 / 26,3422211,2019-09-08 13:04:01:450,0.2044,-0.0221,9.9098,0.0041,0.0009,9.8066,0.0255,-0.0336,-0.0036,-23.56,-32.62,-1.44,270.8,-83.34,-167.58
36087,52.405857,-1.519524,140.18,1.2,3,59.1,26 / 26,3422310,2019-09-08 13:04:01:549,-0.2056,-0.0645,9.9947,0.0047,0.0016,9.8065,0.0157,-0.0233,-0.0079,-23.5,-33.0,-0.81,270.24,-83.34,-167.62
36088,52.405857,-1.519524,140.18,1.2,3,59.1,26 / 26,3422410,2019-09-08 13:04:01:649,0.1732,-0.0419,9.6685,-0.0035,-0.0012,9.8066,0.0197,-0.0174,0.0056,-23.81,-33.06,-1.12,270.74,-83.32,-167.62
36089,52.405857,-1.519524,140.18,1.2,3,59.1,26 / 26,3422510,2019-09-08 13:04:01:749,0.43,-0.0787,9.6703,-0.0013,-0.0006,9.8066,0.0401,-0.0139,0.0177,-23.81,-32.62,-1.25,270.77,-83.32,-167.59
36090,52.405857,-1.519524,140.18,1.2,3,59.1,26 / 26,3422610,2019-09-08 13:04:01:849,0.034,-0.0742,9.9841,0.0013,-0.0009,9.8066,0.017,0.0047,0.0225,-23.37,-33.06,-1.0,270.32,-83.32,-167.53
36091,52.405857,-1.519524,140.18,1.2,3,59.1,27 / 27,3422710,2019-09-08 13:04:01:949,0.0338,-0.0517,9.689,0.0023,0.0008,9.8067,0.0172,0.0046,0.025,-23.87,-32.94,-1.56,268.52,-83.32,-167.49
36092,52.405857,-1.519524,140.18,1.2,3,59.1,27 / 27,3422810,2019-09-08 13:04:02:049,0.1488,0.0386,9.8436,-0.001,0.0014,9.8066,0.0086,0.0129,0.0145,-23.56,-33.0,-0.56,270.77,-83.33,-167.59
36093,52.405857,-1.519524,140.18,1.2,3,59.1,27 / 27,3422909,2019-09-08 13:04:02:148,-0.0732,-0.1156,10.0246,0.0003,0.0001,9.8066,-0.046,0.0038,0.0111,-23.75,-32.44,-1.19,271.05,-83.32,-167.59
36094,52.405857,-1.519524,140.18,1.2,3,59.1,27 / 27,3423010,2019-09-08 13:04:02:249,-0.2057,0.0638,9.8398,-0.0019,-0.0001,9.8066,-0.0461,0.0051,-0.0091,-23.94,-33.25,-1.06,270.62,-83.33,-167.74
36095,52.405857,-1.519524,140.18,1.2,3,59.1,27 / 27,3423110,2019-09-08 13:04:02:349,0.2621,-0.0377,9.6506,-0.003,-0.0009,9.8066,0.0013,-0.0151,-0.0112,-23.37,-33.06,-1.06,270.2,-83.33,-167.66
36096,52.405857,-1.519524,140.18,1.2,3,59.1,27 / 27,3423210,2019-09-08 13:04:02:449,0.0491,-0.0685,9.974,0.0056,0.0006,9.8066,0.0172,-0.0232,-0.0162,-24.0,-32.75,-0.87,270.61,-83.32,-167.75
36097,52.405857,-1.519524,140.18,1.2,3,59.1,27 / 27,3423310,2019-09-08 13:04:02:549,-0.1974,0.0177,9.8201,0.0031,0.0008,9.8066,-0.009,-0.0249,-0.0122,-24.06,-33.12,-1.12,270.54,-83.29,-167.76
36098,52.405857,-1.519524,140.18,1.2,3,59.1,27 / 27,3423410,2019-09-08 13:04:02:649,0.2553,0.0002,9.7563,-0.0024,-0.0013,9.8066,0.0177,-0.0209,0.0006,-23.31,-32.62,-0.81,270.18,-83.3,-167.64
36099,52.405857,-1.519524,140.18,1.2,3,59.1,27 / 27,3423510,2019-09-08 13:04:02:749,-0.1078,-0.0511,10.0233,-0.004,-0.0008,9.8065,0.0199,0.0022,0.0112,-23.62,-33.0,-1.06,270.75,-83.31,-167.58
36100,52.405857,-1.519524,140.18,1.2,3,59.1,27 / 27,3423610,2019-09-08 13:04:02:849,-0.1685,0.0719,9.885,0.0024,-0.0001,9.8066,0.0151,0.0072,0.0192,-23.31,-33.31,-1.0,270.21,-83.31,-167.61
36101,52.405857,-1.519524,140.18,1.2,3,59.1,26 / 27,3423710,2019-09-08 13:04:02:949,0.1368,0.0368,9.7166,0.0015,0.0004,9.8066,-0.0051,0.0125,0.01,-23.69,-33.19,-0.87,270.73,-83.3,-167.59
36102,52.405857,-1.519524,140.18,1.2,3,59.1,26 / 27,3423810,2019-09-08 13:04:03:049,0.085,-0.0699,9.9597,0.0008,0.0002,9.8066,0.0033,-0.0045,0.0106,-23.81,-33.12,-1.0,270.65,-83.3,-167.67
36103,52.405857,-1.519524,140.18,1.2,3,59.1,26 / 27,3423910,2019-09-08 13:04:03:149,-0.0525,0.0342,9.935,-0.0004,0.0014,9.8066,-0.0129,-0.0096,-0.0065,-23.81,-32.94,-1.25,270.54,-83.3,-167.78
36104,52.405857,-1.519524,140.18,1.2,3,59.1,26 / 27,3424010,2019-09-08 13:04:03:249,0.2029,-0.0436,9.7233,0.0004,0.0,9.8066,-0.0041,-0.0287,-0.0058,-24.12,-32.87,-1.0,270.53,-83.3,-167.79
36105,52.405857,-1.519524,140.18,1.2,3,59.1,26 / 27,3424110,2019-09-08 13:04:03:349,0.1577,-0.05,9.8784,0.0004,-0.0001,9.8066,0.0168,-0.0307,-0.0108,-23.62,-32.62,-0.87,270.49,-83.3,-167.83
36106,52.405857,-1.519524,140.18,1.2,3,59.1,26 / 27,3424210,2019-09-08 13:04:03:449,-0.2243,0.0109,10.0779,0.0008,-0.001,9.8066,0.0227,-0.0267,-0.0002,-23.94,-32.69,-0.81,270.49,-83.28,-167.81
36107,52.405857,-1.519524,140.18,1.2,3,59.1,26 / 27,3424310,2019-09-08 13:04:03:549,0.5745,-0.1916,9.5709,0.002,-0.0005,9.8066,0.0432,-0.0203,0.0249,-23.69,-32.87,-0.37,272.92,-83.27,-167.74
36108,52.405857,-1.519524,140.18,1.2,3,59.1,26 / 27,3424410,2019-09-08 13:04:03:649,0.3863,-0.01,10.0018,-0.0054,-0.0011,9.8065,0.0348,0.0009,0.0151,-24.37,-32.25,-1.06,270.74,-83.24,-167.79
36109,52.405857,-1.519524,140.18,1.2,3,59.1,26 / 27,3424510,2019-09-08 13:04:03:749,-0.1198,0.0105,10.0547,-0.0026,-0.0003,9.8066,0.0318,0.0123,0.0277,-23.81,-33.0,-1.12,270.5,-83.25,-167.75
36110,52.405857,-1.519524,140.18,1.2,3,59.1,26 / 27,3424610,2019-09-08 13:04:03:849,0.296,-0.1044,9.867,0.0017,0.0034,9.8066,0.0294,-0.0077,0.0237,-24.12,-32.94,-0.87,270.47,-83.22,-167.74
36111,52.405857,-1.519524,140.18,1.2,3,59.1,24 / 26,3424710,2019-09-08 13:04:03:949,0.8426,0.0453,9.8031,0.0028,0.0003,9.8066,0.0017,-0.0202,-0.0005,-23.94,-32.62,-0.94,270.41,-83.23,-167.82
36112,52.405857,-1.519524,140.18,1.2,3,59.1,24 / 26,3424810,2019-09-08 13:04:04:049,0.5013,0.0041,9.886,-0.0009,-0.0018,9.8066,0.0109,-0.0078,0.0095,-23.62,-32.62,-0.62,270.47,-83.2,-167.7
36113,52.405857,-1.519524,140.18,1.2,3,59.1,24 / 26,3424909,2019-09-08 13:04:04:148,0.451,0.0728,9.9166,0.0007,-0.0006,9.8065,-0.0095,-0.0019,-0.0097,-23.94,-32.25,-0.87,270.92,-83.19,-167.54
36114,52.405857,-1.519524,140.18,1.2,3,59.1,24 / 26,3425010,2019-09-08 13:04:04:249,0.5489,0.1255,9.9085,0.0018,-0.0009,9.8066,0.0002,0.0023,0.0001,-23.5,-32.75,-1.0,270.21,-83.19,-167.44
36115,52.405857,-1.519524,140.18,1.2,3,59.1,24 / 26,3425110,2019-09-08 13:04:04:349,0.3453,-0.0055,9.9202,0.0038,0.0017,9.8066,0.0061,-0.0008,0.0033,-23.75,-33.0,-0.75,270.77,-83.16,-167.35
36116,52.405857,-1.519524,140.18,1.2,3,59.1,24 / 26,3425210,2019-09-08 13:04:04:449,0.4346,0.0706,9.782,-0.0037,-0.0007,9.8066,-0.0061,0.0172,-0.0012,-23.69,-33.25,-1.44,270.83,-83.16,-167.3
36117,52.405857,-1.519524,140.18,1.2,3,59.1,24 / 26,3425310,2019-09-08 13:04:04:549,0.7752,0.0749,9.7369,0.0001,0.0008,9.8065,-0.0072,-0.0045,-0.0105,-23.87,-33.0,-1.25,270.9,-83.15,-167.21
36118,52.405857,-1.519524,140.18,1.2,3,59.1,24 / 26,3425410,2019-09-08 13:04:04:649,0.4656,0.1506,9.8582,0.002,-0.0017,9.8066,0.0019,0.011,-0.0031,-24.12,-33.37,-1.06,270.97,-83.12,-167.1
36119,52.405857,-1.519524,140.18,1.2,3,59.1,24 / 26,3425510,2019-09-08 13:04:04:749,-0.077,-0.0968,9.8673,0.0003,-0.0001,9.8065,-0.0177,-0.0108,0.0025,-24.5,-32.94,-1.19,271.12,-83.09,-166.91
36120,52.405857,-1.519524,140.18,1.2,3,59.1,24 / 26,3425610,2019-09-08 13:04:04:849,0.1053,-0.0456,9.8486,-0.0025,-0.0013,9.8066,-0.0121,-0.0002,0.0115,-24.25,-33.06,-1.69,268.97,-83.09,-166.72
36121,52.405857,-1.519524,140.18,1.2,3,59.1,25 / 28,3425709,2019-09-08 13:04:04:948,-0.2863,-0.1425,10.0045,-0.0045,-0.0015,9.8066,0.0174,-0.0046,0.0063,-23.56,-32.75,-1.0,271.52,-83.13,-166.56
36122,52.405857,-1.519524,140.18,1.2,3,59.1,25 / 28,3425810,2019-09-08 13:04:05:049,-0.2087,0.1314,9.8319,0.0023,0.0001,9.8066,0.0073,0.0253,-0.0066,-23.75,-32.94,-1.75,269.07,-83.11,-166.65
36123,52.405857,-1.519524,140.18,1.2,3,59.1,25 / 28,3425910,2019-09-08 13:04:05:149,0.0379,-0.1118,9.7921,0.001,-0.002,9.8066,-0.0197,0.0107,-0.0001,-23.69,-32.81,-1.5,271.35,-83.09,-166.68
36124,52.405857,-1.519524,140.18,1.2,3,59.1,25 / 28,3426010,2019-09-08 13:04:05:249,-0.3832,-0.0906,9.9618,0.0004,-0.0007,9.8066,0.0035,0.0116,0.0211,-23.56,-33.06,-1.62,269.06,-83.09,-166.63
36125,52.405857,-1.519524,140.18,1.2,3,59.1,25 / 28,3426110,2019-09-08 13:04:05:349,-0.2935,0.001,9.9671,0.0014,-0.0016,9.8066,0.0151,-0.0049,0.003,-23.75,-33.94,-1.62,268.87,-83.09,-166.53
36126,52.405857,-1.519524,140.18,1.2,3,59.1,25 / 28,3426210,2019-09-08 13:04:05:449,-0.1558,-0.017,9.8923,0.0018,-0.0012,9.8066,0.011,0.0125,-0.0003,-23.81,-33.31,-1.37,271.66,-83.07,-166.33
36127,52.405857,-1.519524,140.18,1.2,3,59.1,25 / 28,3426311,2019-09-08 13:04:05:550,-0.3304,-0.188,9.8601,-0.0004,-0.0003,9.8066,-0.0051,-0.0142,0.0081,-24.12,-33.37,-1.75,269.27,-83.08,-166.4
36128,52.405857,-1.519524,140.18,1.2,3,59.1,25 / 28,3426410,2019-09-08 13:04:05:649,0.247,0.0374,9.826,0.0012,-0.0006,9.8066,0.0146,0.0015,0.0004,-23.5,-33.56,-1.06,270.77,-83.07,-166.39
36129,52.405857,-1.519524,140.18,1.2,3,59.1,25 / 28,3426510,2019-09-08 13:04:05:749,0.0907,-0.1394,9.8193,0.0034,-0.0018,9.8066,0.0113,0.0077,-0.0035,-23.5,-33.44,-1.25,270.91,-83.05,-166.52
36130,52.405857,-1.519524,140.18,1.2,3,59.1,25 / 28,3426609,2019-09-08 13:04:05:848,-0.0092,0.0079,9.9401,0.0046,-0.0004,9.8066,0.0174,-0.0198,0.0087,-24.12,-33.06,-1.37,271.58,-83.01,-166.32
36131,52.405857,-1.519524,140.18,1.2,3,59.1,26 / 27,3426710,2019-09-08 13:04:05:949,-0.3358,-0.0108,9.9177,0.0024,-0.0007,9.8066,0.0168,0.0061,0.022,-23.62,-32.81,-1.5,271.68,-83.0,-166.21
36132,52.405857,-1.519524,140.18,1.2,3,59.1,26 / 27,3426809,2019-09-08 13:04:06:048,-0.0135,0.0222,9.8758,-0.0016,0.0016,9.8066,0.0023,0.0117,-0.0056,-24.37,-33.56,-2.0,269.12,-82.99,-166.13
36133,52.405857,-1.519524,140.18,1.2,3,59.1,26 / 27,3426910,2019-09-08 13:04:06:149,-0.2211,-0.081,9.8347,0.0004,-0.0001,9.8066,-0.0084,-0.002,-0.0015,-23.5,-33.25,-1.94,268.71,-82.99,-166.22
36134,52.405857,-1.519524,140.18,1.2,3,59.1,26 / 27,3427010,2019-09-08 13:04:06:249,-0.1237,-0.1724,9.8422,-0.0006,-0.002,9.8066,-0.001,-0.0084,0.0202,-24.56,-33.0,-1.81,269.93,-83.0,-166.2
36135,52.405857,-1.519524,140.18,1.2,3,59.1,26 / 27,3427110,2019-09-08 13:04:06:349,-0.1905,-0.1005,9.8872,-0.0009,0.0004,9.8066,-0.0075,-0.0069,-0.0091,-23.87,-33.25,-1.44,271.76,-83.0,-166.14
36136,52.405857,-1.519524,140.18,1.2,3,59.1,26 / 27,3427210,2019-09-08 13:04:06:449,-0.5506,-0.053,9.928,0.0004,-0.0009,9.8065,0.0088,-0.0096,0.0075,-23.81,-33.44,-2.06,269.33,-83.0,-166.22
36137,52.405857,-1.519524,140.18,1.2,3,59.1,26 / 27,3427310,2019-09-08 13:04:06:549,-0.4661,-0.0986,9.918,-0.0015,-0.0001,9.8066,0.0043,-0.002,0.0041,-23.12,-33.31,-1.25,271.15,-83.02,-166.24
36138,52.405857,-1.519524,140.18,1.2,3,59.1,26 / 27,3427410,2019-09-08 13:04:06:649,-0.5181,-0.07,9.8687,0.0033,0.0017,9.8066,-0.0024,-0.0096,-0.0103,-23.5,-33.0,-1.62,268.72,-83.04,-166.27
36139,52.405857,-1.519524,140.18,1.2,3,59.1,26 / 27,3427510,2019-09-08 13:04:06:749,-0.4091,-0.1524,9.8879,0.0029,-0.0007,9.8066,0.0036,0.008,0.0062,-23.44,-33.44,-2.06,268.69,-83.01,-166.26
36140,52.405857,-1.519524,140.18,1.2,3,59.1,26 / 27,3427610,2019-09-08 13:04:06:849,-0.5129,-0.2689,9.8289,-0.002,-0.0001,9.8066,0.0099,-0.0128,0.0082,-23.75,-33.31,-2.37,269.34,-83.01,-166.22
36141,52.405857,-1.519524,140.18,1.2,3,59.1,26 / 27,3427710,2019-09-08 13:04:06:949,0.0881,-0.0996,9.9235,-0.0006,0.0,9.8066,-0.0087,-0.011,-0.0061,-23.94,-33.25,-1.75,269.25,-83.02,-166.34
36142,52.405857,-1.519524,140.18,1.2,3,59.1,26 / 27,3427809,2019-09-08 13:04:07:048,0.167,0.0519,9.8091,0.0018,0.0018,9.8065,0.0097,0.0039,0.0056,-23.69,-33.0,-1.62,269.14,-82.99,-166.41
36143,52.405857,-1.519524,140.18,1.2,3,59.1,26 / 27,3427910,2019-09-08 13:04:07:149,0.1834,0.0284,9.8003,0.0006,-0.0014,9.8066,0.0085,-0.0152,0.0062,-23.25,-33.12,-1.5,271.01,-82.97,-166.31
36144,52.405857,-1.519524,140.18,1.2,3,59.1,26 / 27,3428010,2019-09-08 13:04:07:249,-0.1378,-0.0605,9.9369,0.0022,0.0,9.8066,0.003,-0.0087,-0.0048,-23.94,-33.44,-2.0,269.36,-82.97,-166.16
36145,52.405857,-1.519524,140.18,1.2,3,59.1,26 / 27,3428110,2019-09-08 13:04:07:349,-0.0133,0.0011,9.9538,0.0032,0.0014,9.8066,-0.0003,-0.0017,0.0048,-23.69,-32.81,-1.87,269.26,-82.95,-166.22
36146,52.405857,-1.519524,140.18,1.2,3,59.1,26 / 27,3428210,2019-09-08 13:04:07:449,0.322,-0.0705,9.7795,0.0029,-0.0004,9.8066,0.0088,0.002,0.0125,-23.75,-32.87,-2.0,269.21,-82.94,-166.26
36147,52.405857,-1.519524,140.18,1.2,3,59.1,26 / 27,3428310,2019-09-08 13:04:07:549,-0.0027,-0.0388,9.6955,0.0004,-0.0004,9.8066,0.0052,-0.0136,0.0097,-23.5,-33.06,-2.06,268.51,-82.94,-166.33
36148,52.405857,-1.519524,140.18,1.2,3,59.1,26 / 27,3428410,2019-09-08 13:04:07:649,-0.1087,-0.0537,10.0155,0.0003,-0.0011,9.8066,0.0215,-0.0162,-0.0015,-23.31,-33.06,-1.69,268.58,-82.93,-166.26
36149,52.405857,-1.519524,140.18,1.2,3,59.1,26 / 27,3428510,2019-09-08 13:04:07:749,-0.0411,-0.0266,9.9034,0.0005,0.0004,9.8066,0.019,-0.0078,0.0078,-23.62,-33.69,-1.62,268.84,-82.92,-166.31
36150,52.405857,-1.519524,140.18,1.2,3,59.1,26 / 27,3428610,2019-09-08 13:04:07:849,0.1446,-0.0889,9.6756,-0.0005,-0.0009,9.8066,-0.0119,0.0071,-0.0051,-23.37,-33.44,-1.75,268.47,-82.91,-166.33
36151,52.405857,-1.519524,140.18,1.2,3,59.1,26 / 27,3428710,2019-09-08 13:04:07:949,-0.0488,-0.1261,10.0042,-0.0022,-0.0007,9.8066,0.0093,-0.0084,0.0062,-23.12,-33.31,-1.25,270.9,-82.92,-166.35
36152,52.405857,-1.519524,140.18,1.2,3,59.1,26 / 27,3428810,2019-09-08 13:04:08:049,-0.0573,0.0388,9.8588,0.0014,0.0002,9.8066,-0.0108,-0.0166,-0.0103,-23.94,-33.06,-2.0,268.96,-82.89,-166.45
36153,52.405857,-1.519524,140.18,1.2,3,59.1,26 / 27,3428910,2019-09-08 13:04:08:149,-0.0118,0.0107,9.7175,0.0006,0.0009,9.8066,0.0015,-0.0236,-0.0021,-24.12,-33.69,-1.87,268.66,-82.91,-166.47
36154,52.405857,-1.519524,140.18,1.2,3,59.1,26 / 27,3429010,2019-09-08 13:04:08:249,0.001,-0.0376,9.9343,0.0027,-0.0004,9.8066,0.0199,-0.0104,0.0061,-23.81,-33.87,-1.44,270.97,-82.91,-166.49
36155,52.405857,-1.519524,140.18,1.2,3,59.1,26 / 27,3429110,2019-09-08 13:04:08:349,-0.099,-0.042,9.8705,0.0015,0.0007,9.8066,0.0085,0.0012,0.009,-23.87,-33.12,-1.75,268.88,-82.87,-166.49
36156,52.405857,-1.519524,140.18,1.2,3,59.1,26 / 27,3429210,2019-09-08 13:04:08:449,-0.0138,-0.0514,9.6882,-0.0021,-0.0002,9.8065,-0.0048,0.0009,0.0075,-23.81,-33.31,-2.19,268.87,-82.88,-166.52
36157,52.405857,-1.519524,140.18,1.2,3,59.1,26 / 27,3429310,2019-09-08 13:04:08:549,0.0809,0.0056,9.9855,-0.0016,0.0011,9.8066,0.0141,-0.0029,0.0076,-23.69,-32.62,-1.62,268.78,-82.88,-166.62
36158,52.405857,-1.519524,140.18,1.2,3,59.1,26 / 27,3429410,2019-09-08 13:04:08:649,-0.1318,0.0068,9.9234,0.0028,-0.0008,9.8066,-0.0277,-0.0088,-0.0052,-23.75,-33.25,-2.06,268.79,-82.84,-166.55
36159,52.405857,-1.519524,140.18,1.2,3,59.1,26 / 27,3429510,2019-09-08 13:04:08:749,-0.1074,-0.0945,9.7187,0.0025,0.0001,9.8066,-0.014,-0.0238,-0.0086,-23.69,-33.25,-1.69,268.88,-82.86,-166.48
36160,52.405857,-1.519524,140.18,1.2,3,59.1,26 / 27,3429610,2019-09-08 13:04:08:849,0.1574,-0.145,9.9112,-0.0012,0.0001,9.8066,0.0229,-0.0252,-0.0238,-23.5,-33.44,-2.25,268.21,-82.84,-166.5
36161,52.405857,-1.519524,140.18,1.2,3,59.1,25 / 28,3429710,2019-09-08 13:04:08:949,0.0946,-0.0286,9.8967,-0.0026,0.0023,9.8065,0.0309,-0.0329,-0.0125,-23.81,-33.56,-1.31,270.68,-82.86,-166.71
36162,52.405857,-1.519524,140.18,1.2,3,59.1,25 / 28,3429810,2019-09-08 13:04:09:049,-0.2737,-0.0677,9.9067,-0.0009,-0.0009,9.8066,0.024,-0.0161,0.003,-23.94,-32.94,-1.69,268.55,-82.86,-166.81
36163,52.405857,-1.519524,140.18,1.2,3,59.1,25 / 28,3429910,2019-09-08 13:04:09:149,0.1272,-0.0651,9.7318,-0.0007,-0.0002,9.8066,0.0138,0.003,0.0208,-23.75,-33.0,-1.56,268.56,-82.85,-166.8
36164,52.405857,-1.519524,140.18,1.2,3,59.1,25 / 28,3430010,2019-09-08 13:04:09:249,0.2971,-0.1306,9.7618,0.0017,0.0017,9.8066,0.022,-0.0056,0.0234,-23.75,-33.19,-1.69,268.55,-82.84,-166.79
36165,52.405857,-1.519524,140.18,1.2,3,59.1,25 / 28,3430110,2019-09-08 13:04:09:349,-0.2879,-0.1352,10.0761,0.0035,-0.0004,9.8066,-0.0002,0.0027,0.0206,-23.75,-33.62,-2.12,268.23,-82.83,-166.79
36166,52.405857,-1.519524,140.18,1.2,3,59.1,25 / 28,3430210,2019-09-08 13:04:09:449,-0.2454,0.0204,9.8601,-0.0027,-0.0001,9.8066,0.0053,0.0062,0.0203,-24.06,-33.0,-2.44,268.48,-82.82,-166.83
36167,52.405857,-1.519524,140.18,1.2,3,59.1,25 / 28,3430310,2019-09-08 13:04:09:549,0.0927,-0.0663,9.7507,-0.0031,-0.0014,9.8066,-0.0059,0.0062,0.0109,-24.12,-33.19,-1.94,268.46,-82.83,-166.86
36168,52.405857,-1.519524,140.18,1.2,3,59.1,25 / 28,3430410,2019-09-08 13:04:09:649,0.3937,-0.0509,9.6863,0.0051,0.0002,9.8066,-0.0548,-0.0009,0.0068,-23.94,-32.75,-1.31,270.83,-82.82,-166.81
36169,52.405857,-1.519524,140.18,1.2,3,59.1,25 / 28,3430510,2019-09-08 13:04:09:749,-0.3548,-0.0535,10.1129,0.002,0.0002,9.8066,-0.0468,0.0005,-0.0087,-23.81,-33.31,-1.75,268.53,-82.79,-166.74
36170,52.405857,-1.519524,140.18,1.2,3,59.1,25 / 28,3430610,2019-09-08 13:04:09:849,-0.2906,-0.0271,9.8698,-0.0024,-0.0002,9.8066,-0.0308,-0.0017,-0.0099,-23.62,-33.19,-2.0,268.49,-82.8,-166.8
36171,52.405857,-1.519524,140.18,1.2,3,59.1,22 / 24,3430710,2019-09-08 13:04:09:949,0.1317,-0.1181,9.9405,-0.0014,-0.0005,9.8066,-0.0143,-0.0072,-0.0167,-24.06,-33.5,-1.56,268.54,-82.81,-166.76
36172,52.405857,-1.519524,140.18,1.2,3,59.1,22 / 24,3430810,2019-09-08 13:04:10:049,0.0575,-0.068,9.9411,0.0,-0.0003,9.8066,-0.0475,-0.0132,-0.0256,-24.12,-33.31,-1.5,270.84,-82.79,-166.76
36173,52.405857,-1.519524,140.18,1.2,3,59.1,22 / 24,3430909,2019-09-08 13:04:10:148,-0.6384,-0.1007,10.089,-0.0005,0.0008,9.8066,-0.0482,-0.0129,-0.018,-23.69,-33.5,-1.5,270.83,-82.8,-166.78
36174,52.405857,-1.519524,140.18,1.2,3,59.1,22 / 24,3431010,2019-09-08 13:04:10:249,-0.2947,0.0095,10.2241,-0.0001,0.0,9.8065,-0.0016,-0.0273,-0.0221,-23.56,-33.37,-1.12,270.88,-82.78,-166.71
36175,52.405857,-1.519524,140.18,1.2,3,59.1,22 / 24,3431110,2019-09-08 13:04:10:349,0.2897,-0.0683,9.6476,0.0032,0.0016,9.8066,-0.013,-0.0229,-0.0203,-23.94,-33.25,-1.12,270.79,-82.77,-166.78
36176,52.405857,-1.519524,140.18,1.2,3,59.1,22 / 24,3431210,2019-09-08 13:04:10:449,0.3617,-0.0546,9.684,-0.0023,0.0008,9.8066,-0.0065,-0.0327,-0.0188,-23.62,-33.37,-1.75,268.48,-82.79,-166.79
36177,52.405857,-1.519524,140.18,1.2,3,59.1,22 / 24,3431310,2019-09-08 13:04:10:549,-0.4798,-0.0567,10.1249,-0.0004,-0.0005,9.8066,-0.0119,-0.0261,-0.0216,-23.75,-33.06,-1.06,270.79,-82.77,-166.79
36178,52.405857,-1.519524,140.18,1.2,3,59.1,22 / 24,3431410,2019-09-08 13:04:10:649,-0.5025,0.0864,10.3251,0.0014,0.0017,9.8065,0.0321,-0.0341,-0.0038,-24.0,-33.12,-1.5,270.79,-82.78,-166.8
36179,52.405857,-1.519524,140.18,1.2,3,59.1,22 / 24,3431510,2019-09-08 13:04:10:749,0.0529,0.0891,9.851,0.003,-0.0002,9.8066,0.0299,-0.0194,-0.013,-24.19,-33.0,-1.31,270.76,-82.76,-166.79
36180,52.405857,-1.519524,140.18,1.2,3,59.1,22 / 24,3431610,2019-09-08 13:04:10:849,0.2308,-0.0453,9.6316,-0.0047,-0.0009,9.8066,0.0609,-0.0288,0.0105,-24.06,-33.06,-1.75,268.35,-82.75,-166.87
36181,52.405857,-1.519524,140.18,1.2,3,59.1,26 / 27,3431710,2019-09-08 13:04:10:949,0.9871,0.0951,9.4575,0.0002,0.0001,9.8065,0.042,-0.0172,-0.0006,-23.44,-33.56,-1.19,269.91,-82.76,-166.79
36182,52.405857,-1.519524,140.18,1.2,3,59.1,26 / 27,3431810,2019-09-08 13:04:11:049,0.0593,0.1453,10.1571,0.0045,0.0025,9.8065,0.0521,-0.004,0.0365,-23.31,-32.75,-1.81,267.51,-82.72,-167.04
36183,52.405857,-1.519524,140.18,1.2,3,59.1,26 / 27,3431910,2019-09-08 13:04:11:149,-0.031,-0.0231,10.0144,0.0051,-0.0003,9.8066,0.0529,0.0095,0.0284,-23.81,-32.94,-1.06,270.49,-82.71,-166.99
36184,52.405857,-1.519524,140.18,1.2,3,59.1,26 / 27,3432010,2019-09-08 13:04:11:249,0.7589,0.0328,9.7525,0.0001,-0.0007,9.8066,0.0149,0.0173,0.014,-23.25,-32.5,-1.31,270.17,-82.66,-167.03
36185,52.405857,-1.519524,140.18,1.2,3,59.1,26 / 27,3432110,2019-09-08 13:04:11:349,0.321,-0.1235,9.8245,-0.0015,-0.0002,9.8066,0.0084,-0.0187,0.0112,-23.56,-32.87,-1.25,270.42,-82.65,-166.98
36186,52.405857,-1.519524,140.18,1.2,3,59.1,26 / 27,3432209,2019-09-08 13:04:11:448,0.7114,-0.0659,9.93,0.0065,0.0017,9.8066,0.0053,-0.008,0.0058,-23.62,-33.12,-1.12,270.37,-82.63,-167.0
36187,52.405857,-1.519524,140.18,1.2,3,59.1,26 / 27,3432310,2019-09-08 13:04:11:549,0.6236,0.1929,9.843,0.0065,0.0031,9.8066,0.0094,0.0134,-0.0083,-23.19,-33.0,-1.31,269.48,-82.56,-167.25
36188,52.405857,-1.519524,140.18,1.2,3,59.1,26 / 27,3432410,2019-09-08 13:04:11:649,0.6444,0.0329,9.8051,-0.0037,-0.001,9.8066,0.0364,0.0162,-0.0022,-23.31,-33.06,-1.12,269.18,-82.54,-167.52
36189,52.405857,-1.519524,140.18,1.2,3,59.1,26 / 27,3432510,2019-09-08 13:04:11:749,1.2197,0.1802,10.0285,-0.0018,-0.0021,9.8066,0.036,0.0025,0.0072,-23.62,-32.75,-1.12,269.68,-82.48,-167.49
36190,52.405857,-1.519524,140.18,1.2,3,59.1,26 / 27,3432610,2019-09-08 13:04:11:849,1.104,0.0579,9.945,0.0083,0.0013,9.8065,0.0121,0.0071,0.0241,-23.31,-33.44,-1.12,269.22,-82.42,-167.3
36191,52.405857,-1.519524,140.18,1.2,3,59.1,25 / 27,3432710,2019-09-08 13:04:11:949,1.1209,0.2439,9.7543,0.0019,-0.0027,9.8066,-0.0014,0.0123,-0.0009,-23.37,-33.0,-0.5,271.78,-82.35,-167.1
36192,52.405857,-1.519524,140.18,1.2,3,59.1,25 / 27,3432810,2019-09-08 13:04:12:049,1.0308,0.2573,9.8707,-0.0046,-0.0042,9.8066,0.0182,0.0169,0.0149,-23.19,-32.81,-0.69,269.41,-82.31,-166.95
36193,52.405857,-1.519524,140.18,1.2,3,59.1,25 / 27,3432910,2019-09-08 13:04:12:149,0.8677,-0.0477,9.9475,-0.0087,-0.0042,9.8066,0.0064,0.0008,0.0213,-23.31,-33.25,-1.06,270.04,-82.35,-166.36
36194,52.405857,-1.519524,140.18,1.2,3,59.1,25 / 27,3433010,2019-09-08 13:04:12:249,0.5736,-0.1546,10.0307,0.0075,0.0024,9.8066,-0.0062,0.0218,-0.0081,-23.25,-33.37,-1.31,270.24,-82.33,-166.14
36195,52.405857,-1.519524,140.18,1.2,3,59.1,25 / 27,3433110,2019-09-08 13:04:12:349,0.413,-0.1152,9.7775,0.0052,0.0074,9.8066,-0.0077,0.0178,-0.0154,-22.44,-33.5,-1.0,269.33,-82.35,-166.47
36196,52.405857,-1.519524,140.18,1.2,3,59.1,25 / 27,3433210,2019-09-08 13:04:12:449,0.2256,-0.0893,9.6343,-0.0138,0.0076,9.8065,-0.0151,0.0519,-0.0269,-22.56,-33.81,-1.0,268.88,-82.38,-167.24
36197,52.405857,-1.519524,140.18,1.2,3,59.1,25 / 27,3433310,2019-09-08 13:04:12:549,-0.3131,0.3164,9.8726,-0.0127,0.0023,9.8066,-0.0199,0.03,-0.0005,-22.75,-33.62,-1.0,267.85,-82.5,-168.48
36198,52.405857,-1.519524,140.18,1.2,3,59.1,25 / 27,3433410,2019-09-08 13:04:12:649,-0.228,0.4199,9.8748,0.0021,0.0,9.8066,-0.0018,0.0259,0.0029,-22.94,-33.37,-1.19,268.12,-82.55,-168.62
36199,52.405857,-1.519524,140.18,1.2,3,59.1,25 / 27,3433510,2019-09-08 13:04:12:749,0.0433,-0.023,9.7953,0.005,-0.0044,9.8066,0.0195,0.0125,0.0331,-23.37,-33.75,-1.69,265.77,-82.55,-168.22
36200,52.405857,-1.519524,140.18,1.2,3,59.1,25 / 27,3433610,2019-09-08 13:04:12:849,-0.1687,-0.2215,9.8029,0.0021,-0.0073,9.8066,0.0003,0.0075,0.0202,-23.5,-33.87,-1.37,268.91,-82.52,-167.43
36201,52.405857,-1.519524,140.18,1.2,3,59.1,25 / 27,3433710,2019-09-08 13:04:12:949,-0.2995,0.1413,9.737,0.001,-0.0075,9.8066,0.0041,0.0291,0.0068,-22.94,-34.12,-1.31,269.74,-82.49,-166.54
36202,52.405857,-1.519524,140.18,1.2,3,59.1,25 / 27,3433810,2019-09-08 13:04:13:049,-0.1272,0.0704,9.8202,0.0035,-0.0037,9.8066,0.0156,0.0336,-0.0189,-23.19,-33.87,-1.56,267.83,-82.47,-165.99
36203,52.405857,-1.519524,140.18,1.2,3,59.1,25 / 27,3433910,2019-09-08 13:04:13:149,0.0076,-0.2446,9.8099,0.0064,0.0009,9.8066,0.0177,0.0242,-0.0084,-22.94,-34.06,-1.81,267.93,-82.45,-165.88
36204,52.405857,-1.519524,140.18,1.2,3,59.1,25 / 27,3434010,2019-09-08 13:04:13:249,-0.1367,-0.0416,9.9692,-0.0049,0.0082,9.8066,0.027,-0.001,-0.0003,-22.12,-33.69,-1.62,266.58,-82.5,-166.6
36205,52.405857,-1.519524,140.18,1.2,3,59.1,25 / 27,3434110,2019-09-08 13:04:13:349,0.0506,0.0882,9.9803,-0.0016,0.0084,9.8066,0.0332,0.0315,-0.0297,-22.31,-33.37,-1.56,266.0,-82.48,-167.49
36206,52.405857,-1.519524,140.18,1.2,3,59.1,25 / 27,3434210,2019-09-08 13:04:13:449,-0.2479,0.202,9.8347,0.0009,0.0111,9.8066,0.0173,0.0339,-0.0103,-22.12,-34.12,-2.0,264.54,-82.45,-168.59
36207,52.405857,-1.519524,140.18,1.2,3,59.1,25 / 27,3434310,2019-09-08 13:04:13:549,0.1526,0.3096,9.6792,-0.0008,0.0056,9.8066,0.0139,0.0172,0.0029,-22.19,-34.25,-1.94,263.39,-82.44,-169.76
36208,52.405857,-1.519524,140.18,1.2,3,59.1,25 / 27,3434410,2019-09-08 13:04:13:649,0.0859,0.1578,10.0512,-0.0011,-0.0001,9.8066,-0.0123,0.042,-0.0154,-21.5,-34.19,-2.75,259.93,-82.44,-169.94
36209,52.405857,-1.519524,140.18,1.2,3,59.1,25 / 27,3434510,2019-09-08 13:04:13:749,0.6989,-0.019,9.9956,-0.0011,0.0041,9.8066,0.0323,0.0363,-0.0095,-22.0,-33.87,-2.31,263.02,-82.47,-170.19
36210,52.405857,-1.519524,140.18,1.2,3,59.1,25 / 27,3434610,2019-09-08 13:04:13:849,0.5822,0.1882,9.8253,0.0,0.0138,9.8065,-0.0106,0.0284,-0.0193,-21.5,-33.69,-2.12,260.89,-82.45,-171.57
36211,52.405857,-1.519524,140.18,1.2,3,59.1,26 / 28,3434711,2019-09-08 13:04:13:950,0.8539,0.3311,9.8223,0.0032,0.0121,9.8066,0.0018,0.0767,-0.0575,-20.87,-34.25,-1.75,259.94,-82.41,-172.5
36212,52.405857,-1.519524,140.18,1.2,3,59.1,26 / 28,3434809,2019-09-08 13:04:14:048,1.5285,0.8729,10.0427,0.0085,0.0016,9.8066,0.047,0.0461,0.0241,-21.12,-33.94,-1.87,258.83,-82.37,-173.59
36213,52.405857,-1.519524,140.18,1.2,3,59.1,26 / 28,3434910,2019-09-08 13:04:14:149,2.5217,0.9953,10.0245,0.0064,-0.0111,9.8066,0.0702,0.0612,0.0169,-21.31,-34.31,-1.56,259.28,-82.24,-172.92
36214,52.405857,-1.519524,140.18,1.2,3,59.1,26 / 28,3435010,2019-09-08 13:04:14:249,2.4562,0.2796,9.7945,0.0205,-0.0013,9.8066,-0.0512,0.0869,0.0339,-21.25,-33.87,-2.0,259.66,-82.18,-172.42
36215,52.405857,-1.519524,140.18,1.2,3,59.1,26 / 28,3435109,2019-09-08 13:04:14:348,1.8049,0.838,10.0463,0.0232,-0.004,9.8066,-0.0299,0.1199,0.0324,-21.25,-34.62,-2.69,257.28,-81.95,-171.56
36216,52.405857,-1.519524,140.18,1.2,3,59.1,26 / 28,3435210,2019-09-08 13:04:14:449,2.3988,1.1737,10.0201,0.0109,-0.001,9.8066,0.0316,0.1199,-0.0217,-20.44,-33.94,-2.69,257.65,-81.87,-170.38
36217,52.405857,-1.519524,140.18,1.2,3,59.1,26 / 28,3435310,2019-09-08 13:04:14:549,2.0947,1.5985,9.7038,0.0062,-0.0072,9.8065,0.0441,0.1358,0.0245,-20.37,-34.56,-2.87,257.72,-81.88,-169.91
36218,52.405857,-1.519524,140.18,1.2,3,59.1,26 / 28,3435410,2019-09-08 13:04:14:649,2.1124,0.1051,9.6563,0.0029,0.0052,9.8066,-0.0119,0.2013,-0.0904,-20.62,-33.81,-3.37,260.01,-81.93,-169.04
36219,52.405857,-1.519524,140.18,1.2,3,59.1,26 / 28,3435510,2019-09-08 13:04:14:749,0.3979,1.8675,9.4813,-0.0151,0.0102,9.8065,-0.0525,0.155,0.0039,-19.56,-33.69,-3.44,257.27,-81.98,-170.97
36220,52.405857,-1.519524,140.18,1.2,3,59.1,26 / 28,3435610,2019-09-08 13:04:14:849,0.4839,1.5284,10.2616,-0.0185,0.0161,9.8066,0.0247,0.2148,-0.1484,-19.19,-35.19,-3.44,256.22,-81.95,-170.47
36221,52.405857,-1.519524,140.18,1.2,3,59.1,25 / 28,3435710,2019-09-08 13:04:14:949,1.1937,2.147,10.0203,0.0129,0.036,9.8066,0.1656,0.168,-0.0347,-18.19,-35.31,-4.0,248.98,-81.85,-174.0
36222,52.405857,-1.519524,140.18,1.2,3,59.1,25 / 28,3435809,2019-09-08 13:04:15:048,0.4813,1.3035,9.7892,0.0363,0.0099,9.8066,0.1828,0.1935,-0.0218,-17.12,-35.81,-3.56,245.36,-81.24,-174.91
36223,52.405857,-1.519524,140.18,1.2,3,59.1,25 / 28,3435910,2019-09-08 13:04:15:149,0.4893,2.6278,9.3429,0.0057,-0.0029,9.8066,-0.1254,0.2809,-0.0847,-16.12,-35.5,-4.12,244.4,-81.12,-174.48
36224,52.405857,-1.519524,140.18,1.2,3,59.1,25 / 28,3436010,2019-09-08 13:04:15:249,1.8145,0.7425,9.621,0.0073,-0.0161,9.8065,-0.0044,0.1486,0.0506,-15.87,-35.5,-3.37,248.82,-81.15,-172.64
36225,52.405857,-1.519524,140.18,1.2,3,59.1,25 / 28,3436110,2019-09-08 13:04:15:349,0.299,1.7588,9.3718,0.0256,0.0066,9.8066,0.101,0.2184,-0.0294,-14.94,-36.25,-3.87,244.6,-81.03,-171.5
