,GPS LATITUDE (degrees), GPS LONGITUDE (degrees), GPS ALTITUDE (m), GPS SPEED (Kmh), GPS ACCURACY (m), GPS ORIENTATION (Â°),GPS SATELLITES IN RANGE, TIME SINCE START (ms), DATE (YYYY-MO-DD HH-MI-SS_SSS), ACCELEROMETER X (m/s²) , ACCELEROMETER Y (m/s²), ACCELEROMETER Z (m/s²), GRAVITY X (m/s²), GRAVITY Y (m/s²), GRAVITY Z (m/s²), GYROSCOPE Yaw (rad/s), GYROSCOPE Pitch (rad/s), GYROSCOPE Roll (rad/s), MAGNETIC FIELD X (Î¼T), MAGNETIC FIELD Y (Î¼T), MAGNETIC FIELD Z (Î¼T), ORIENTATION (Yaw) (Â°), ORIENTATION (Pitch) (Â°), ORIENTATION (Roll ) (Â°)
27490,50.730587,-3.738366,208,24.62,11.0,289.3,Sep-18,2749139,2019-08-17 08:06:18:506,-0.0011,0.1837,9.2561,0.0109,-0.0701,9.8064,-0.0512,-0.0064,0.0469,0.23,23.67,-18.43,269.97,0.04,0.85
27491,50.730587,-3.738366,208,24.62,11.0,289.3,Sep-18,2749239,2019-08-17 08:06:18:606,-0.2272,-0.0028,10.6583,0.018,0.0282,9.8066,0.0362,-0.0692,0.0128,0.23,24.06,-17.92,269.97,0.04,0.85
27492,50.730587,-3.738366,208,24.62,11.0,289.3,Sep-18,2749340,2019-08-17 08:06:18:707,-0.2844,0.2735,10.0404,0.0215,0.0494,9.8065,-0.0064,0.0714,0.0107,0.23,24.06,-17.92,269.97,0.04,0.85
27493,50.730587,-3.738366,208,24.62,11.0,289.3,Sep-18,2749439,2019-08-17 08:06:18:806,-0.4182,-0.0113,10.4346,0.0015,-0.0174,9.8066,-0.0064,0.0714,0.0107,0.23,23.82,-18.23,269.75,0.33,0.73
27494,50.730663,-3.738725,209,25.07,11.0,288.0,Sep-18,2749539,2019-08-17 08:06:18:906,-0.3158,-0.0396,10.1932,-0.0003,-0.0198,9.8066,-0.032,0.0021,0.0203,0.23,23.91,-18.12,269.83,0.22,0.73
27495,50.730663,-3.738725,209,25.07,11.0,288.0,Sep-18,2749640,2019-08-17 08:06:19:007,0.0161,0.2705,10.2252,-0.0111,0.0039,9.8066,-0.016,-0.0053,0.0203,0.23,23.91,-18.12,269.83,0.22,0.73
27496,50.730663,-3.738725,209,25.07,11.0,288.0,Sep-18,2749739,2019-08-17 08:06:19:106,0.2625,-0.2342,9.5732,-0.0136,-0.0252,9.8066,-0.0469,0.0384,0.0384,-0.19,24.14,-17.81,269.82,0.24,0.79
27497,50.730663,-3.738725,209,25.07,11.0,288.0,Sep-18,2749840,2019-08-17 08:06:19:207,0.4283,-0.2182,11.2522,-0.0433,-0.0487,9.8064,0.0628,0.0373,0.0022,-0.61,24.48,-17.33,267.62,-0.05,1.05
27498,50.730663,-3.738725,209,25.07,11.0,288.0,Sep-18,2749939,2019-08-17 08:06:19:306,0.4917,-0.128,9.4463,-0.0296,-0.009,9.8066,0.0926,-0.0043,0.0054,-0.61,24.48,-17.33,267.62,-0.05,1.05
27499,50.730663,-3.738725,209,25.07,11.0,288.0,Sep-18,2750039,2019-08-17 08:06:19:406,0.1315,0.1418,8.8682,-0.0363,-0.006,9.8066,-0.0469,-0.0543,0.049,-0.59,25.2,-16.27,267.75,-0.11,1.22
27500,50.730663,-3.738725,209,25.07,11.0,288.0,Sep-18,2750140,2019-08-17 08:06:19:507,0.2686,0.5073,10.2703,-0.0407,0.0618,9.8064,0.0021,0.0,0.0032,-0.18,24.67,-17.07,269.83,0.24,1.47
27501,50.730663,-3.738725,209,25.07,11.0,288.0,Sep-18,2750239,2019-08-17 08:06:19:606,-0.1615,-0.2258,9.921,0.0114,0.0392,9.8066,0.0021,0.0,0.0032,-0.18,24.67,-17.07,269.83,0.24,1.47
27502,50.730663,-3.738725,209,25.07,11.0,288.0,Sep-18,2750339,2019-08-17 08:06:19:706,-0.2982,-0.0756,9.3115,0.0389,0.0155,9.8066,-0.0576,0.032,0.0352,1.02,24.47,-17.33,272.18,0.33,1.24
27503,50.730663,-3.738725,209,25.07,11.0,288.0,Sep-18,2750439,2019-08-17 08:06:19:806,-0.3691,-0.1414,11.8016,0.0154,-0.0449,9.8065,-0.0224,0.0597,0.0224,0.63,24.34,-17.53,272.18,0.33,1.24
27504,50.730732,-3.739015,209,24.22,12.0,287.5,Sep-17,2750540,2019-08-17 08:06:19:907,-0.2648,0.5167,11.9131,0.0034,0.0105,9.8066,0.0341,-0.0831,0.0203,1.06,24.04,-17.91,272.37,0.06,1.11
27505,50.730732,-3.739015,209,24.22,12.0,287.5,Sep-17,2750639,2019-08-17 08:06:20:006,-0.1992,-0.3446,10.4311,-0.0101,-0.0714,9.8064,0.033,0.0565,-0.001,1.06,24.04,-17.91,272.37,0.06,1.11
27506,50.730732,-3.739015,209,24.22,12.0,287.5,Sep-17,2750739,2019-08-17 08:06:20:106,0.1908,-0.3472,9.7691,-0.0028,-0.0489,9.8065,0.0032,-0.0192,0.0107,0.23,24.17,-17.77,270.27,-0.35,1.18
27507,50.730732,-3.739015,209,24.22,12.0,287.5,Sep-17,2750840,2019-08-17 08:06:20:207,0.0507,0.254,9.4225,0.0091,0.0546,9.8065,0.0117,-0.066,0.0224,-0.18,23.83,-18.23,270.5,-0.64,1.2
27508,50.730732,-3.739015,209,24.22,12.0,287.5,Sep-17,2750939,2019-08-17 08:06:20:306,0.3036,0.2199,8.2155,0.0086,0.0999,9.8061,-0.0107,-0.1204,0.0277,-0.19,24.06,-17.92,270.25,-0.32,1.15
27509,50.730732,-3.739015,209,24.22,12.0,287.5,Sep-17,2751039,2019-08-17 08:06:20:406,0.4906,0.0009,9.1729,0.0093,0.1507,9.8055,0.0383,0.0245,0.0288,-0.19,24.06,-17.92,270.25,-0.32,1.15
27510,50.730732,-3.739015,209,24.22,12.0,287.5,Sep-17,2751140,2019-08-17 08:06:20:507,0.2671,0.1113,11.9486,-0.0047,-0.027,9.8066,0.0383,0.0245,0.0288,0.64,24.2,-17.72,271.98,0.56,1.09
27511,50.730732,-3.739015,209,24.22,12.0,287.5,Sep-17,2751240,2019-08-17 08:06:20:607,0.0675,0.0108,10.4986,-0.0061,0.0073,9.8066,0.05,-0.0511,0.016,0.64,24.05,-17.92,272.1,0.41,1.12
27512,50.730732,-3.739015,209,24.22,12.0,287.5,Sep-17,2751339,2019-08-17 08:06:20:706,-0.0685,-0.0102,8.8262,-0.0031,-0.0149,9.8066,-0.0309,0.0032,0.0352,-0.18,23.83,-18.23,269.75,0.32,1.14
27513,50.730732,-3.739015,209,24.22,12.0,287.5,Sep-17,2751439,2019-08-17 08:06:20:806,0.0525,-0.0772,9.7042,-0.0041,-0.0464,9.8065,-0.0128,0.0437,0.0181,-0.18,23.83,-18.23,269.75,0.32,1.14
27514,50.730804,-3.739351,210,24.69,12.0,287.7,Sep-18,2751539,2019-08-17 08:06:20:906,-0.1097,-0.044,12.1279,-0.0011,-0.0069,9.8066,-0.0139,0.1001,0.0085,-0.18,24.2,-17.73,270.14,-0.18,1.14
27515,50.730804,-3.739351,210,24.69,12.0,287.7,Sep-18,2751640,2019-08-17 08:06:21:007,-0.3111,0.0147,9.7894,-0.011,0.0239,9.8066,-0.0064,-0.0224,0.0181,-1.0,23.96,-18.02,270.14,-0.18,1.14
27516,50.730804,-3.739351,210,24.69,12.0,287.7,Sep-18,2751739,2019-08-17 08:06:21:106,-0.3084,0.2234,8.8636,-0.0104,0.0265,9.8066,0.0191,-0.0128,0.0011,-0.18,24.2,-17.73,270.03,-0.04,1.2
27517,50.730804,-3.739351,210,24.69,12.0,287.7,Sep-18,2751840,2019-08-17 08:06:21:207,0.1634,-0.0157,9.8225,-0.0075,0.0504,9.8065,-0.032,-0.0032,0.0341,-0.59,24.2,-17.72,267.37,0.26,1.25
27518,50.730804,-3.739351,210,24.69,12.0,287.7,Sep-18,2751939,2019-08-17 08:06:21:306,0.2569,0.11,9.068,0.0063,0.0018,9.8066,-0.032,-0.0032,0.0341,-0.59,23.62,-18.48,267.37,0.27,1.21
27519,50.730804,-3.739351,210,24.69,12.0,287.7,Sep-18,2752040,2019-08-17 08:06:21:407,0.1375,-0.4144,9.8772,0.0008,0.0236,9.8066,0.0181,-0.0788,0.0224,-0.59,23.62,-18.48,267.37,0.27,1.21
27520,50.730804,-3.739351,210,24.69,12.0,287.7,Sep-18,2752139,2019-08-17 08:06:21:506,0.2269,0.0427,9.5658,-0.0059,-0.0122,9.8066,0.0341,-0.0341,0.0416,-0.58,23.78,-18.29,267.42,0.19,1.24
27521,50.730804,-3.739351,210,24.69,12.0,287.7,Sep-18,2752240,2019-08-17 08:06:21:607,-0.1264,-0.1616,10.0225,-0.0068,-0.0355,9.8066,0.0117,0.0107,0.0277,-0.18,24.17,-17.77,270.01,-0.01,1.27
27522,50.730804,-3.739351,210,24.69,12.0,287.7,Sep-18,2752340,2019-08-17 08:06:21:707,-0.3593,-0.1342,9.5554,-0.0109,-0.0163,9.8066,-0.0054,0.0011,0.0075,-0.18,24.17,-17.77,270.01,-0.01,1.27
27523,50.730804,-3.739351,210,24.69,12.0,287.7,Sep-18,2752439,2019-08-17 08:06:21:806,-0.2287,0.0621,9.5196,0.0138,-0.022,9.8066,-0.0267,0.032,0.0352,-0.6,24.05,-17.92,267.66,-0.11,1.33
27524,50.730877,-3.739706,210,24.95,12.0,287.6,Sep-18,2752539,2019-08-17 08:06:21:906,-0.3032,-0.0138,10.8139,-0.0074,0.0087,9.8066,-0.0075,-0.0043,0.0086,-0.19,23.73,-18.35,270.18,-0.23,1.25
27525,50.730877,-3.739706,210,24.95,12.0,287.6,Sep-18,2752640,2019-08-17 08:06:22:007,-0.2894,-0.1104,10.5885,-0.0066,0.0159,9.8066,0.0234,-0.065,0.0363,-0.19,23.67,-18.43,270.11,-0.14,1.29
27526,50.730877,-3.739706,210,24.95,12.0,287.6,Sep-18,2752739,2019-08-17 08:06:22:106,-0.1381,0.1038,9.2155,0.0169,0.0111,9.8066,0.0234,-0.065,0.0363,-0.19,23.67,-18.43,270.11,-0.14,1.29
27527,50.730877,-3.739706,210,24.95,12.0,287.6,Sep-18,2752839,2019-08-17 08:06:22:206,0.3749,0.0382,9.3082,0.0186,0.0259,9.8066,-0.0395,-0.0479,0.0288,-1.05,24.0,-17.97,270.11,-0.14,1.29
27528,50.730877,-3.739706,210,24.95,12.0,287.6,Sep-18,2752939,2019-08-17 08:06:22:306,0.1715,-0.028,10.9595,0.0197,-0.0173,9.8066,0.0085,0.0064,-0.0074,-1.03,23.89,-18.11,267.57,0.01,1.18
27529,50.730877,-3.739706,210,24.95,12.0,287.6,Sep-18,2753041,2019-08-17 08:06:22:408,0.3611,-0.0688,8.6349,0.0354,-0.0336,9.8065,-0.0118,0.0479,0.0213,-1.03,23.89,-18.11,267.72,-0.18,0.96
27530,50.730877,-3.739706,210,24.95,12.0,287.6,Sep-18,2753139,2019-08-17 08:06:22:506,0.3299,-0.2352,8.5069,0.0176,-0.0064,9.8066,0.0021,0.0085,-0.001,-1.03,23.89,-18.11,267.72,-0.18,0.96
27531,50.730877,-3.739706,210,24.95,12.0,287.6,Sep-18,2753240,2019-08-17 08:06:22:607,0.3438,-0.028,9.7116,0.0021,0.0022,9.8067,0.0266,-0.0341,0.0277,-1.39,23.75,-18.27,267.75,-0.21,0.86
27532,50.730877,-3.739706,210,24.95,12.0,287.6,Sep-18,2753340,2019-08-17 08:06:22:707,-0.1534,-0.1596,11.3004,-0.0011,0.0095,9.8066,-0.0064,0.0543,0.0,-1.39,24.5,-17.26,267.7,-0.16,0.87
27533,50.730877,-3.739706,210,24.95,12.0,287.6,Sep-18,2753440,2019-08-17 08:06:22:807,0.2494,0.1498,9.0654,0.0193,-0.0257,9.8066,-0.0181,-0.0288,0.0331,-1.37,23.91,-18.07,267.7,-0.15,0.81
27534,50.73095,-3.740022,209,24.86,11.0,287.8,Jul-18,2753541,2019-08-17 08:06:22:908,0.2768,0.2499,9.9055,0.0136,0.0023,9.8066,-0.0181,-0.0288,0.0331,-1.36,24.03,-17.9,267.82,-0.29,0.69
27535,50.73095,-3.740022,209,24.86,11.0,287.8,Jul-18,2753640,2019-08-17 08:06:23:007,0.1015,-0.0017,9.0822,0.0135,0.0093,9.8066,0.0277,0.0213,0.0181,-1.36,24.03,-17.9,267.82,-0.29,0.69
27536,50.73095,-3.740022,209,24.86,11.0,287.8,Jul-18,2753740,2019-08-17 08:06:23:107,-0.1351,-0.0244,9.687,-0.0089,0.007,9.8066,0.0106,0.0245,-0.0053,-1.01,24.19,-17.72,267.78,-0.24,0.61
27537,50.73095,-3.740022,209,24.86,11.0,287.8,Jul-18,2753840,2019-08-17 08:06:23:207,-0.2729,0.3938,10.5769,-0.0085,0.0004,9.8066,0.0234,-0.0011,0.0149,-0.99,23.77,-18.28,267.77,-0.24,0.66
27538,50.73095,-3.740022,209,24.86,11.0,287.8,Jul-18,2753940,2019-08-17 08:06:23:307,-0.0584,0.2969,9.4299,0.0081,-0.0016,9.8066,-0.0203,0.0341,0.0022,-0.99,24.14,-17.79,267.78,-0.24,0.61
27539,50.73095,-3.740022,209,24.86,11.0,287.8,Jul-18,2754039,2019-08-17 08:06:23:406,-0.3165,-0.1273,10.2916,0.0042,0.0038,9.8066,-0.0096,0.0384,0.0256,-0.99,24.14,-17.79,267.78,-0.24,0.61
27540,50.73095,-3.740022,209,24.86,11.0,287.8,Jul-18,2754139,2019-08-17 08:06:23:506,-0.0605,-0.0043,10.4441,0.0068,-0.0261,9.8066,0.0287,-0.0724,0.0054,-1.33,24.35,-17.47,267.88,-0.39,0.57
27541,50.73095,-3.740022,209,24.86,11.0,287.8,Jul-18,2754240,2019-08-17 08:06:23:607,0.1073,-0.1316,8.5241,0.0001,-0.0112,9.8066,-0.0107,0.0011,0.0384,-1.74,23.97,-17.96,265.62,-0.55,0.58
27542,50.73095,-3.740022,209,24.86,11.0,287.8,Jul-18,2754339,2019-08-17 08:06:23:706,0.3092,0.0937,8.487,0.0068,0.0173,9.8066,-0.0107,0.0011,0.0384,-1.77,24.39,-17.38,265.62,-0.55,0.58
27543,50.73095,-3.740022,209,24.86,11.0,287.8,Jul-18,2754440,2019-08-17 08:06:23:807,0.3501,0.0191,11.1729,0.0057,0.0365,9.8066,-0.0107,-0.0309,0.0139,-1.35,24.21,-17.66,267.85,-0.33,0.56
27544,50.731,-3.740386,209,24.84,11.0,284.1,Jul-18,2754539,2019-08-17 08:06:23:906,-0.1659,-0.0072,9.7351,0.0016,-0.0163,9.8066,-0.0086,0.0085,0.0075,-1.35,24.21,-17.66,267.85,-0.33,0.56
27545,50.731,-3.740386,209,24.84,11.0,284.1,Jul-18,2754639,2019-08-17 08:06:24:006,-0.048,0.0874,9.6854,0.017,-0.0037,9.8066,-0.0139,-0.0202,0.0384,-1.31,23.9,-18.08,267.92,-0.43,0.55
27546,50.731,-3.740386,209,24.84,11.0,284.1,Jul-18,2754739,2019-08-17 08:06:24:106,-0.1875,-0.0711,9.4895,0.0295,-0.0049,9.8066,0.0032,-0.1044,0.0597,-1.74,23.97,-17.96,265.55,-0.45,0.37
27547,50.731,-3.740386,209,24.84,11.0,284.1,Jul-18,2754839,2019-08-17 08:06:24:206,-0.0709,0.0008,10.1587,0.0107,0.0107,9.8066,-0.0288,0.0224,0.0043,-1.74,23.97,-17.96,265.55,-0.45,0.37
27548,50.731,-3.740386,209,24.84,11.0,284.1,Jul-18,2754939,2019-08-17 08:06:24:306,-0.4095,0.3457,11.1988,-0.0041,0.0146,9.8066,0.0383,0.0171,-0.0032,-1.77,24.39,-17.38,265.49,-0.38,0.32
27549,50.731,-3.740386,209,24.84,11.0,284.1,Jul-18,2755040,2019-08-17 08:06:24:407,0.0849,0.1448,7.6376,-0.0079,0.0136,9.8066,0.0223,0.0874,0.0075,-1.74,23.97,-17.96,265.45,-0.31,0.37
27550,50.731,-3.740386,209,24.84,11.0,284.1,Jul-18,2755140,2019-08-17 08:06:24:507,-0.2534,0.2141,9.8087,0.0034,0.0012,9.8066,0.0223,0.0874,0.0075,-1.74,23.97,-17.96,265.45,-0.31,0.37
27551,50.731,-3.740386,209,24.84,11.0,284.1,Jul-18,2755240,2019-08-17 08:06:24:607,0.0075,0.123,10.2381,0.0,-0.0337,9.8066,-0.0256,0.0778,-0.001,-1.36,24.03,-17.9,267.77,-0.22,0.4
27552,50.731,-3.740386,209,24.84,11.0,284.1,Jul-18,2755340,2019-08-17 08:06:24:707,0.4323,0.087,10.4512,0.0026,-0.0076,9.8066,0.0426,-0.0181,0.0128,-1.32,23.76,-18.27,267.92,-0.42,0.39
27553,50.731,-3.740386,209,24.84,11.0,284.1,Jul-18,2755440,2019-08-17 08:06:24:807,-0.1184,-0.3846,9.0517,-0.0237,-0.0099,9.8066,0.001,-0.0138,0.0075,-1.32,23.76,-18.27,267.92,-0.42,0.39
27554,50.73104,-3.74075,208,25.02,11.0,283.7,Jul-18,2755539,2019-08-17 08:06:24:906,0.019,-0.313,10.067,-0.0013,-0.0158,9.8066,0.0,0.0149,0.0096,-2.55,24.29,-17.42,263.17,-0.48,0.53
27555,50.73104,-3.74075,208,25.02,11.0,283.7,Jul-18,2755640,2019-08-17 08:06:25:007,0.2478,0.1747,8.9695,0.0024,-0.0051,9.8066,-0.0288,0.0096,0.0203,-2.13,23.72,-18.24,265.59,-0.51,0.51
27556,50.73104,-3.74075,208,25.02,11.0,283.7,Jul-18,2755739,2019-08-17 08:06:25:106,-0.1703,0.1459,8.1819,-0.0023,0.0316,9.8066,0.0021,-0.0234,0.0171,-2.13,23.72,-18.24,265.59,-0.51,0.51
27557,50.73104,-3.74075,208,25.02,11.0,283.7,Jul-18,2755841,2019-08-17 08:06:25:208,-0.2844,-0.0195,9.4453,-0.0041,0.0246,9.8066,0.0021,-0.0234,0.0171,-1.71,23.55,-18.51,265.46,-0.33,0.54
27558,50.73104,-3.74075,208,25.02,11.0,283.7,Jul-18,2755939,2019-08-17 08:06:25:306,-0.2931,0.1952,9.3006,-0.0115,0.0225,9.8066,0.0127,-0.0831,0.0256,-2.17,24.17,-17.63,265.35,-0.2,0.61
27559,50.73104,-3.74075,208,25.02,11.0,283.7,Jul-18,2756039,2019-08-17 08:06:25:406,-0.1593,0.3317,10.0054,0.0068,-0.02,9.8066,-0.0192,0.0192,0.0267,-2.16,24.51,-17.17,265.64,-0.35,0.6
27560,50.73104,-3.74075,208,25.02,11.0,283.7,Jul-18,2756139,2019-08-17 08:06:25:506,-0.0842,0.0232,10.4222,0.0043,0.001,9.8066,0.0213,-0.081,0.0171,-2.16,24.51,-17.17,265.64,-0.35,0.6
27561,50.73104,-3.74075,208,25.02,11.0,283.7,Jul-18,2756240,2019-08-17 08:06:25:607,0.0229,0.2003,8.8617,0.0007,-0.0035,9.8066,-0.0171,0.0192,0.0426,-1.72,24.11,-17.77,265.46,-0.35,0.58
27562,50.73104,-3.74075,208,25.02,11.0,283.7,Jul-18,2756339,2019-08-17 08:06:25:706,-0.1473,-0.036,10.9638,-0.0084,-0.0361,9.8066,-0.0395,0.0597,0.0128,-2.12,24.09,-17.75,265.48,-0.37,0.57
27563,50.73104,-3.74075,208,25.02,11.0,283.7,Jul-18,2756439,2019-08-17 08:06:25:806,0.2296,0.0829,10.4754,-0.0091,-0.0441,9.8065,0.0096,0.0128,-0.0138,-1.74,24.34,-17.46,265.65,-0.63,0.6
27564,50.73104,-3.74075,208,25.02,11.0,283.7,Jun-18,2756540,2019-08-17 08:06:25:907,0.2982,-0.0223,9.1921,-0.003,0.0129,9.8066,-0.0171,0.032,0.0235,-2.17,23.8,-18.14,265.65,-0.63,0.6
27565,50.73109,-3.741115,207,25.17,11.0,283.1,Jun-18,2756640,2019-08-17 08:06:26:007,0.4363,-0.0992,8.3199,0.0009,0.0148,9.8066,-0.0171,0.032,0.0235,-2.17,23.8,-18.14,265.65,-0.63,0.6
27566,50.73109,-3.741115,207,25.17,11.0,283.1,Jun-18,2756739,2019-08-17 08:06:26:106,0.4108,-0.0338,10.0885,-0.0168,-0.0008,9.8066,0.0351,-0.0202,0.0075,-2.15,23.95,-17.94,265.61,-0.54,0.6
27567,50.73109,-3.741115,207,25.17,11.0,283.1,Jun-18,2756839,2019-08-17 08:06:26:206,0.2786,-0.2234,9.7005,-0.0237,0.0137,9.8066,-0.0384,0.0096,0.0107,-2.58,23.77,-18.12,263.16,-0.47,0.75
27568,50.73109,-3.741115,207,25.17,11.0,283.1,Jun-18,2756939,2019-08-17 08:06:26:306,0.4681,0.2066,10.0459,-0.0006,0.0164,9.8066,-0.0331,-0.0117,0.0331,-2.15,23.95,-17.94,263.16,-0.47,0.75
27569,50.73109,-3.741115,207,25.17,11.0,283.1,Jun-18,2757040,2019-08-17 08:06:26:407,0.4865,0.0687,9.1909,0.0,0.0458,9.8065,0.0458,-0.081,0.0171,-2.15,23.95,-17.94,263.16,-0.47,0.75
27570,50.73109,-3.741115,207,25.17,11.0,283.1,Jun-18,2757140,2019-08-17 08:06:26:507,-0.4484,-0.2124,10.0894,0.0074,-0.0495,9.8065,-0.0224,0.0426,-0.0159,-2.52,24.07,-17.73,262.96,-0.2,0.78
27571,50.73109,-3.741115,207,25.17,11.0,283.1,Jun-18,2757239,2019-08-17 08:06:26:606,0.2917,0.4127,10.1783,0.0078,-0.0396,9.8066,-0.0448,0.0394,-0.0053,-2.98,24.12,-17.59,263.18,-0.49,0.7
27572,50.73109,-3.741115,207,25.17,11.0,283.1,Jun-18,2757339,2019-08-17 08:06:26:706,-0.4627,0.2692,10.0271,0.0311,-0.0221,9.8066,0.0532,-0.0692,0.0352,-2.98,24.12,-17.59,263.18,-0.49,0.7
27573,50.73109,-3.741115,207,25.17,11.0,283.1,Jun-18,2757442,2019-08-17 08:06:26:809,-0.6596,0.061,9.3849,-0.0225,0.0204,9.8066,0.0532,-0.0692,0.0352,-2.57,24.15,-17.62,263.27,-0.59,0.51
27574,50.73112,-3.741483,208,25.23,12.0,281.7,Jun-18,2757540,2019-08-17 08:06:26:907,-0.4075,0.0546,9.3783,-0.0636,0.0237,9.8064,0.0053,-0.033,0.0597,-2.55,24.29,-17.42,263.27,-0.59,0.51
27575,50.73112,-3.741483,208,25.23,12.0,281.7,Aug-18,2757640,2019-08-17 08:06:27:007,-0.1817,0.2657,10.1799,-0.0172,0.0035,9.8066,0.0298,-0.032,-0.0138,-2.52,24.43,-17.23,263.16,-0.5,0.89
27576,50.73112,-3.741483,208,25.23,12.0,281.7,Aug-18,2757739,2019-08-17 08:06:27:106,0.4264,0.1877,10.217,-0.004,0.0373,9.8066,0.001,-0.0415,0.0288,-2.14,24.22,-17.57,265.4,-0.29,0.94
27577,50.73112,-3.741483,208,25.23,12.0,281.7,Aug-18,2757840,2019-08-17 08:06:27:207,0.5479,-0.1291,8.1275,0.0055,0.0215,9.8066,-0.0256,0.0618,0.0107,-2.14,24.22,-17.57,265.4,-0.29,0.94
27578,50.73112,-3.741483,208,25.23,12.0,281.7,Aug-18,2757939,2019-08-17 08:06:27:306,0.4655,-0.0318,9.0386,0.0025,0.0031,9.8066,0.0181,0.0277,-0.017,-2.54,24.2,-17.55,262.99,-0.27,0.93
27579,50.73112,-3.741483,208,25.23,12.0,281.7,Aug-18,2758039,2019-08-17 08:06:27:406,0.5669,-0.1591,10.1333,0.0238,-0.0438,9.8065,-0.0118,0.0405,0.0256,-2.58,24.64,-16.92,262.99,-0.27,0.93
27580,50.73112,-3.741483,208,25.23,12.0,281.7,Aug-18,2758140,2019-08-17 08:06:27:507,0.4328,0.1527,8.4879,0.0133,-0.0037,9.8066,-0.0139,0.017,0.0245,-2.54,24.2,-17.55,263.19,-0.5,0.76
27581,50.73112,-3.741483,208,25.23,12.0,281.7,Aug-18,2758240,2019-08-17 08:06:27:607,-0.1257,-0.7483,10.4379,0.0012,-0.0636,9.8064,0.0277,0.0522,0.0181,-3.01,24.47,-17.09,263.19,-0.5,0.76
27582,50.73112,-3.741483,208,25.23,12.0,281.7,Aug-18,2758340,2019-08-17 08:06:27:707,0.2967,0.0468,9.5025,-0.0115,-0.1063,9.8061,0.0277,0.0522,0.0181,-3.01,24.47,-17.09,263.19,-0.5,0.76
27583,50.73112,-3.741483,208,25.23,12.0,281.7,Aug-18,2758439,2019-08-17 08:06:27:806,0.0175,0.4682,9.6089,-0.0465,0.034,9.8065,0.0319,0.0746,0.0448,-2.98,24.61,-16.9,263.88,-1.13,0.75
27584,50.73112,-3.741483,208,25.23,12.0,281.7,Aug-18,2758539,2019-08-17 08:06:27:906,-0.5342,-0.0516,9.9144,-0.0683,0.1233,9.8056,0.0245,-0.0384,-0.0522,-2.58,24.64,-16.92,263.38,-0.45,1.22
27585,50.73117,-3.741838,208,25.24,12.0,281.7,Aug-18,2758639,2019-08-17 08:06:28:006,-0.583,0.3405,9.5633,0.0128,0.0308,9.8066,-0.0608,-0.0085,0.0384,-2.58,24.64,-16.92,263.38,-0.45,1.22
27586,50.73117,-3.741838,208,25.24,12.0,281.7,Aug-18,2758739,2019-08-17 08:06:28:106,-0.2279,0.1842,11.1445,0.035,0.0179,9.8066,-0.0522,-0.0128,0.0437,-2.59,24.28,-17.43,263.02,-0.33,1.03
27587,50.73117,-3.741838,208,25.24,12.0,281.7,Aug-18,2758839,2019-08-17 08:06:28:206,-0.042,0.2023,10.5506,0.0398,0.0208,9.8065,0.0341,-0.0202,0.0,-2.59,24.28,-17.43,263.02,-0.33,1.03
27588,50.73117,-3.741838,208,25.24,12.0,281.7,Aug-18,2758939,2019-08-17 08:06:28:306,0.335,-0.3461,9.6602,-0.0165,-0.0828,9.8063,-0.0288,0.0692,0.0341,-3.02,24.11,-17.6,262.93,-0.18,0.82
27589,50.73117,-3.741838,208,25.24,12.0,281.7,Aug-18,2759040,2019-08-17 08:06:28:407,0.475,-0.1621,10.0506,0.0288,-0.0374,9.8065,-0.0288,0.0692,0.0341,-3.42,24.44,-17.06,263.28,-0.67,0.85
27590,50.73117,-3.741838,208,25.24,12.0,281.7,Aug-18,2759140,2019-08-17 08:06:28:507,0.7525,-0.0598,7.9634,0.055,-0.0327,9.8064,-0.015,-0.0362,0.0277,-3.42,24.44,-17.06,263.28,-0.67,0.85
27591,50.73117,-3.741838,208,25.24,12.0,281.7,Aug-18,2759239,2019-08-17 08:06:28:606,0.1773,-0.3875,10.9181,-0.0103,0.061,9.8065,0.0053,-0.0256,-0.0042,-3.81,24.75,-16.52,261.41,-0.82,0.51
27592,50.73117,-3.741838,208,25.24,12.0,281.7,Aug-18,2759339,2019-08-17 08:06:28:706,-0.0284,0.0262,9.8029,-0.0013,0.0896,9.8062,-0.0331,0.0362,0.032,-2.59,24.28,-17.43,263.04,-0.31,0.6
27593,50.73117,-3.741838,208,25.24,12.0,281.7,Aug-18,2759439,2019-08-17 08:06:28:806,0.2112,0.5098,10.375,0.0364,0.0306,9.8065,-0.0032,-0.0586,0.0075,-3.0,23.92,-17.86,263.04,-0.31,0.6
27594,50.73122,-3.742176,208,24.91,12.0,281.7,Aug-18,2759540,2019-08-17 08:06:28:907,-0.1176,0.2104,10.0797,0.0496,0.0321,9.8065,-0.015,0.0075,0.0299,-3.05,23.99,-17.76,262.91,-0.09,0.33
27595,50.73122,-3.742176,208,24.91,12.0,281.7,Aug-18,2759640,2019-08-17 08:06:29:007,-0.2359,-0.1886,10.1063,0.0004,-0.0077,9.8066,-0.0064,0.0916,0.0309,-3.05,23.99,-17.76,262.91,-0.09,0.33
27596,50.73122,-3.742176,208,24.91,12.0,281.7,Aug-18,2759740,2019-08-17 08:06:29:107,-0.4046,0.2809,11.2432,-0.0068,-0.0679,9.8064,0.0394,0.0234,0.0118,-2.99,24.25,-17.41,263.19,-0.48,0.32
27597,50.73122,-3.742176,208,24.91,12.0,281.7,Aug-18,2759840,2019-08-17 08:06:29:207,-0.2766,-0.1608,8.4151,0.009,-0.0011,9.8066,0.0394,0.0234,0.0118,-3.83,24.03,-17.54,260.86,-0.48,0.27
27598,50.73122,-3.742176,208,24.91,12.0,281.7,Aug-18,2759940,2019-08-17 08:06:29:307,-0.11,-0.0247,9.6579,-0.028,-0.0016,9.8066,0.0138,0.0266,0.032,-3.78,24.18,-17.35,260.98,-0.69,0.36
27599,50.73122,-3.742176,208,24.91,12.0,281.7,Aug-18,2760039,2019-08-17 08:06:29:406,0.0832,0.1004,10.1215,-0.0266,0.0332,9.8066,0.0234,-0.0394,-0.0042,-3.78,24.18,-17.35,260.98,-0.69,0.36
27600,50.73122,-3.742176,208,24.91,12.0,281.7,Aug-18,2760139,2019-08-17 08:06:29:506,0.3591,-0.1124,8.3871,0.0039,0.0198,9.8066,-0.0245,-0.0011,0.0181,-3.82,24.4,-17.04,260.84,-0.52,0.54
27601,50.73122,-3.742176,208,24.91,12.0,281.7,Aug-18,2760239,2019-08-17 08:06:29:606,0.1251,-0.2576,9.6547,0.0101,0.0294,9.8066,0.0074,-0.0373,0.0064,-4.14,23.92,-17.63,260.84,-0.52,0.54
27602,50.73122,-3.742176,208,24.91,12.0,281.7,Aug-18,2760340,2019-08-17 08:06:29:707,0.4498,-0.1338,9.5912,0.0168,0.0219,9.8066,0.0202,-0.0138,0.0,-3.81,24.75,-16.52,261.12,-0.38,0.47
27603,50.73122,-3.742176,208,24.91,12.0,281.7,Aug-18,2760439,2019-08-17 08:06:29:806,-0.0962,0.1964,10.1567,-0.0099,0.0268,9.8066,-0.0395,-0.0618,0.0469,-3.81,24.75,-16.52,261.12,-0.38,0.47
27604,50.73122,-3.742176,208,24.91,12.0,281.7,Jul-18,2760540,2019-08-17 08:06:29:907,-0.3278,0.1108,9.3628,-0.0131,0.0674,9.8064,-0.0096,0.0224,0.0149,-2.97,24.92,-16.44,263.11,0.0,0.6
27605,50.731247,-3.742489,209,24.21,13.0,280.9,Jul-18,2760640,2019-08-17 08:06:30:007,-0.3017,-0.3347,10.1826,0.0093,-0.0356,9.8066,-0.0096,0.0224,0.0149,-2.92,24.52,-17.03,263.11,0.0,0.6
27606,50.731247,-3.742489,209,24.21,13.0,280.9,Jul-18,2760739,2019-08-17 08:06:30:106,0.1384,0.0955,11.4427,0.0145,-0.1071,9.8061,0.0127,0.0767,0.0309,-2.92,24.52,-17.03,263.11,0.0,0.6
27607,50.731247,-3.742489,209,24.21,13.0,280.9,Jul-18,2760840,2019-08-17 08:06:30:207,-0.5157,-0.2248,12.0428,-0.0109,-0.0334,9.8066,0.0266,0.0565,-0.0138,-2.64,24.36,-17.3,263.27,-0.61,0.44
27608,50.731247,-3.742489,209,24.21,13.0,280.9,Jul-18,2760939,2019-08-17 08:06:30:306,-0.1967,-0.1097,8.5482,-0.0617,-0.0811,9.8061,0.0618,0.0181,-0.0053,-3.42,24.44,-17.06,263.27,-0.61,0.44
27609,50.731247,-3.742489,209,24.21,13.0,280.9,Jul-18,2761040,2019-08-17 08:06:30:407,-0.2194,0.0256,9.9893,0.0062,0.0244,9.8066,-0.0011,0.0043,0.0011,-4.22,24.35,-17.01,261.25,-1.12,0.75
27610,50.731247,-3.742489,209,24.21,13.0,280.9,Jul-18,2761139,2019-08-17 08:06:30:506,-0.0338,0.4258,9.6188,0.0398,0.0713,9.8063,-0.0586,-0.0756,0.0469,-3.9,24.11,-17.42,261.15,-0.98,0.73
27611,50.731247,-3.742489,209,24.21,13.0,280.9,Jul-18,2761239,2019-08-17 08:06:30:606,0.0875,0.4603,8.912,0.0573,0.1252,9.8057,0.0085,-0.0373,-0.001,-3.9,24.11,-17.42,261.15,-0.98,0.73
27612,50.731247,-3.742489,209,24.21,13.0,280.9,Jul-18,2761340,2019-08-17 08:06:30:707,0.1265,-0.1688,10.5069,-0.0007,-0.0228,9.8066,0.0159,0.0224,0.0288,-4.26,24.21,-17.19,260.62,-0.2,0.51
27613,50.731247,-3.742489,209,24.21,13.0,280.9,Jul-18,2761439,2019-08-17 08:06:30:806,0.2105,-0.4955,10.04,-0.0039,-0.0185,9.8066,-0.0118,0.0447,-0.0074,-4.25,24.54,-16.73,261.08,-0.34,0.5
27614,50.731262,-3.742893,211,25.26,13.0,279.3,Jul-18,2761539,2019-08-17 08:06:30:906,0.1698,-0.0722,9.6656,-0.0256,-0.0403,9.8065,-0.0118,0.0447,-0.0074,-4.14,24.27,-17.14,260.88,-0.59,0.61
27615,50.731262,-3.742893,211,25.26,13.0,279.3,Jul-18,2761640,2019-08-17 08:06:31:007,-0.226,-0.1359,10.2254,-0.0226,-0.0185,9.8066,0.0096,0.0181,0.0149,-4.14,24.27,-17.14,260.88,-0.59,0.61
27616,50.731262,-3.742893,211,25.26,13.0,279.3,Jul-18,2761739,2019-08-17 08:06:31:106,-0.1756,-0.4059,9.1247,-0.0023,-0.0292,9.8066,0.0,0.0234,0.0149,-4.18,24.13,-17.32,261.13,-0.94,0.65
27617,50.731262,-3.742893,211,25.26,13.0,279.3,Jul-18,2761839,2019-08-17 08:06:31:206,-0.4137,0.2455,10.7622,0.0106,0.0416,9.8066,0.0181,-0.0511,0.0043,-4.21,24.32,-17.05,261.25,-1.12,0.63
27618,50.731262,-3.742893,211,25.26,13.0,279.3,Jul-18,2761940,2019-08-17 08:06:31:307,-0.4794,0.6012,11.0816,0.021,0.0946,9.8062,-0.048,-0.0107,-0.0064,-4.26,24.21,-17.19,261.25,-1.12,0.63
27619,50.731262,-3.742893,211,25.26,13.0,279.3,Jul-18,2762041,2019-08-17 08:06:31:408,-0.5053,0.135,9.5876,0.0322,0.0975,9.8061,-0.015,-0.0522,0.0267,-3.77,24.5,-16.9,261.21,-0.52,0.54
27620,50.731262,-3.742893,211,25.26,13.0,279.3,Jul-18,2762139,2019-08-17 08:06:31:506,-0.4395,-0.0032,8.9095,0.0108,-0.0289,9.8066,-0.015,-0.0522,0.0267,-3.77,24.5,-16.9,261.21,-0.52,0.54
27621,50.731262,-3.742893,211,25.26,13.0,279.3,Jul-18,2762239,2019-08-17 08:06:31:606,-0.227,0.1175,11.7809,-0.0107,0.0111,9.8066,0.0138,0.0202,0.0522,-4.18,24.13,-17.32,260.96,-0.68,0.45
27622,50.731262,-3.742893,211,25.26,13.0,279.3,Jul-18,2762339,2019-08-17 08:06:31:706,-0.0118,-0.239,8.9128,-0.0342,0.02,9.8066,0.0064,-0.0032,0.0011,-4.18,24.13,-17.32,260.96,-0.68,0.45
27623,50.731262,-3.742893,211,25.26,13.0,279.3,Jul-18,2762439,2019-08-17 08:06:31:806,0.2233,-0.0933,8.3733,-0.0572,-0.014,9.8065,0.0372,0.0043,0.0022,-4.21,24.32,-17.05,261.03,-0.81,0.76
27624,50.731285,-3.743268,212,25.54,13.0,278.2,Jul-18,2762539,2019-08-17 08:06:31:906,0.3921,-0.0094,10.0101,-0.0173,-0.0282,9.8066,-0.0512,-0.0415,0.0639,-4.46,24.24,-17.11,261.03,-0.81,0.76
27625,50.731285,-3.743268,212,25.54,13.0,278.2,Jul-18,2762639,2019-08-17 08:06:32:006,0.0181,0.112,10.6652,-0.0256,0.0454,9.8065,0.0191,-0.0224,0.0,-4.46,24.24,-17.11,261.03,-0.81,0.76
27626,50.731285,-3.743268,212,25.54,13.0,278.2,Jul-18,2762739,2019-08-17 08:06:32:106,-0.1537,-0.1573,10.0653,0.0057,0.0008,9.8066,-0.0086,-0.0202,0.0235,-4.17,24.49,-16.82,260.84,-0.58,0.95
27627,50.731285,-3.743268,212,25.54,13.0,278.2,Jul-18,2762840,2019-08-17 08:06:32:207,-0.1154,-0.0793,9.2762,0.0182,-0.0132,9.8066,-0.0341,0.0916,0.0288,-4.51,24.09,-17.29,258.56,-0.63,0.84
27628,50.731285,-3.743268,212,25.54,13.0,278.2,Jul-18,2762940,2019-08-17 08:06:32:307,-0.5271,0.2109,10.4693,-0.0061,-0.0179,9.8066,0.0532,-0.0138,-0.0021,-4.51,24.09,-17.29,258.56,-0.63,0.84
27629,50.731285,-3.743268,212,25.54,13.0,278.2,Jul-18,2763041,2019-08-17 08:06:32:408,-0.4008,0.1449,10.1843,-0.0135,0.002,9.8066,0.0532,-0.0138,-0.0021,-4.17,24.49,-16.82,260.97,-0.74,0.85
27630,50.731285,-3.743268,212,25.54,13.0,278.2,Jul-18,2763139,2019-08-17 08:06:32:506,-0.3884,0.0476,8.7565,-0.0232,-0.003,9.8066,0.0,0.016,0.0192,-4.14,24.27,-17.14,260.98,-0.78,0.98
27631,50.731285,-3.743268,212,25.54,13.0,278.2,Jul-18,2763239,2019-08-17 08:06:32:606,-0.44,0.2477,9.0409,0.0082,-0.0212,9.8066,-0.0128,0.0138,0.0213,-4.14,24.27,-17.14,260.98,-0.78,0.98
27632,50.731285,-3.743268,212,25.54,13.0,278.2,Jul-18,2763339,2019-08-17 08:06:32:706,-0.1028,0.388,10.0629,0.0176,0.0416,9.8065,0.0053,-0.0501,0.0331,-4.43,24.05,-17.38,261.07,-0.9,0.92
27633,50.731285,-3.743268,212,25.54,13.0,278.2,Jul-18,2763439,2019-08-17 08:06:32:806,0.4479,0.2328,9.5938,0.0265,0.1106,9.806,-0.0032,0.0533,-0.001,-4.18,24.13,-17.32,260.6,-0.23,0.86
27634,50.731323,-3.743584,211,24.89,12.0,278.1,Jul-18,2763540,2019-08-17 08:06:32:907,0.1558,-0.159,9.5621,-0.0311,-0.0441,9.8065,0.0213,-0.0032,0.0128,-4.17,24.49,-16.82,260.6,-0.23,0.86
27635,50.731323,-3.743584,211,24.89,12.0,278.1,Jul-18,2763640,2019-08-17 08:06:33:007,-0.031,-0.3931,9.7356,-0.0684,-0.0957,9.8059,-0.0288,0.0192,0.0203,-4.17,24.49,-16.82,260.6,-0.23,0.86
27636,50.731323,-3.743584,211,24.89,12.0,278.1,Jul-18,2763739,2019-08-17 08:06:33:106,0.4829,0.0549,10.131,-0.0073,0.0439,9.8066,-0.0288,0.0192,0.0203,-4.46,24.24,-17.11,261.01,-0.85,1.17
27637,50.731323,-3.743584,211,24.89,12.0,278.1,Jul-18,2763840,2019-08-17 08:06:33:207,0.1193,-0.2813,8.787,-0.01,0.0741,9.8064,-0.0139,-0.0629,-0.0042,-4.58,24.5,-16.7,258.35,-0.43,1.29
27638,50.731323,-3.743584,211,24.89,12.0,278.1,Jul-18,2763939,2019-08-17 08:06:33:306,0.4534,-0.212,9.5837,-0.0043,-0.0336,9.8066,0.0255,0.033,-0.0021,-4.58,24.5,-16.7,258.35,-0.43,1.29
27639,50.731323,-3.743584,211,24.89,12.0,278.1,Jul-18,2764039,2019-08-17 08:06:33:406,0.1221,0.1901,10.2407,0.0136,-0.012,9.8066,-0.049,0.049,0.0384,-4.46,24.24,-17.11,260.84,-0.63,1.28
27640,50.731323,-3.743584,211,24.89,12.0,278.1,Jul-18,2764140,2019-08-17 08:06:33:507,0.1608,-0.0628,11.0296,0.0318,0.0132,9.8066,0.0074,-0.0256,0.0,-4.5,24.45,-16.79,260.78,-0.52,1.11
27641,50.731323,-3.743584,211,24.89,12.0,278.1,Jul-18,2764239,2019-08-17 08:06:33:606,0.058,-0.2167,8.7409,-0.0017,0.0047,9.8066,0.0245,0.0032,0.0277,-4.5,24.45,-16.79,260.78,-0.52,1.11
27642,50.731323,-3.743584,211,24.89,12.0,278.1,Jul-18,2764340,2019-08-17 08:06:33:707,-0.6535,-0.0702,10.1717,0.0129,-0.0214,9.8066,-0.0576,0.0234,0.0224,-4.5,24.45,-16.79,260.87,-0.64,1.01
27643,50.731323,-3.743584,211,24.89,12.0,278.1,Jul-18,2764440,2019-08-17 08:06:33:807,-0.0343,0.3092,10.7994,0.0042,0.0068,9.8066,0.0223,-0.0352,-0.0117,-4.43,24.05,-17.38,260.91,-0.68,0.94
27644,50.73136,-3.743849,211,24.12,12.0,278.4,Jul-18,2764540,2019-08-17 08:06:33:907,-0.1357,0.0362,10.3194,0.0021,0.0002,9.8067,0.0223,-0.0352,-0.0117,-4.46,24.24,-17.11,260.91,-0.67,0.92
27645,50.73136,-3.743849,211,24.12,12.0,278.4,Jul-18,2764639,2019-08-17 08:06:34:006,-0.123,-0.3201,10.1695,0.0032,-0.0162,9.8066,-0.0416,0.0181,0.049,-4.46,24.24,-17.11,260.91,-0.67,0.92
27646,50.73136,-3.743849,211,24.12,12.0,278.4,Jul-18,2764740,2019-08-17 08:06:34:107,-0.1823,0.2128,9.9872,0.0105,-0.0002,9.8066,-0.0064,-0.0224,0.0149,-4.86,23.86,-17.52,258.66,-0.76,0.89
27647,50.73136,-3.743849,211,24.12,12.0,278.4,Jul-18,2764840,2019-08-17 08:06:34:207,0.3943,0.2326,9.3857,0.0346,0.046,9.8065,0.0255,-0.082,0.0139,-4.46,24.24,-17.11,260.78,-0.46,0.75
27648,50.73136,-3.743849,211,24.12,12.0,278.4,Jul-18,2764940,2019-08-17 08:06:34:307,0.1317,0.0728,8.3902,0.0005,0.0064,9.8066,-0.0299,-0.0565,0.0394,-4.46,24.24,-17.11,260.78,-0.46,0.75
27649,50.73136,-3.743849,211,24.12,12.0,278.4,Jul-18,2765039,2019-08-17 08:06:34:406,0.5271,-0.069,9.8964,0.0068,-0.0214,9.8066,0.0234,0.0522,-0.0138,-4.89,24.4,-16.76,258.54,-0.58,0.69
27650,50.73136,-3.743849,211,24.12,12.0,278.4,Jul-18,2765139,2019-08-17 08:06:34:506,0.5339,-0.1519,9.1039,-0.0075,-0.0161,9.8066,-0.0299,0.0288,0.0192,-4.89,24.4,-16.76,258.54,-0.58,0.69
27651,50.73136,-3.743849,211,24.12,12.0,278.4,Jul-18,2765239,2019-08-17 08:06:34:606,0.2882,-0.4882,10.1851,-0.0068,-0.0164,9.8066,-0.0256,0.0245,-0.0202,-4.85,24.19,-17.08,258.6,-0.68,0.71
27652,50.73136,-3.743849,211,24.12,12.0,278.4,Jul-18,2765340,2019-08-17 08:06:34:707,0.1314,-0.2115,9.8028,0.0201,-0.0126,9.8066,-0.0256,0.0245,-0.0202,-4.85,24.19,-17.08,258.65,-0.73,0.58
27653,50.73136,-3.743849,211,24.12,12.0,278.4,Jul-18,2765439,2019-08-17 08:06:34:806,-0.2524,-0.2922,10.0506,-0.0151,-0.0161,9.8066,0.0703,-0.0884,-0.0245,-4.85,24.19,-17.08,258.65,-0.73,0.58
27654,50.731373,-3.744193,211,24.25,12.0,276.7,Jul-18,2765540,2019-08-17 08:06:34:907,-0.1018,0.2414,10.1953,-0.0002,0.0106,9.8066,-0.016,0.0213,0.0597,-4.85,24.19,-17.08,258.72,-0.84,0.65
27655,50.731373,-3.744193,211,24.25,12.0,276.7,Jul-18,2765640,2019-08-17 08:06:35:007,-0.5253,0.0148,10.7455,-0.0167,0.0071,9.8066,0.0394,0.0096,-0.0032,-5.34,24.2,-16.9,258.68,-0.78,0.66
27656,50.731373,-3.744193,211,24.25,12.0,276.7,Jul-18,2765739,2019-08-17 08:06:35:106,-0.495,0.1619,9.2734,-0.0207,0.0161,9.8066,0.0149,-0.0458,0.0458,-5.23,24.13,-17.04,258.61,-0.71,0.8
27657,50.731373,-3.744193,211,24.25,12.0,276.7,Jul-18,2765839,2019-08-17 08:06:35:206,-0.4155,-0.1216,9.2326,-0.0144,-0.001,9.8066,0.0149,-0.0607,0.0394,-5.23,24.13,-17.04,258.61,-0.71,0.8
27658,50.731373,-3.744193,211,24.25,12.0,276.7,Jul-18,2765939,2019-08-17 08:06:35:306,-0.3423,0.396,10.392,0.0021,0.0328,9.8066,0.0575,-0.0437,-0.0074,-5.32,24.55,-16.4,259.05,-0.73,0.88
27659,50.731373,-3.744193,211,24.25,12.0,276.7,Jul-18,2766040,2019-08-17 08:06:35:407,-0.3238,0.1317,10.3917,0.0089,0.047,9.8065,0.0575,-0.0437,-0.0074,-4.45,24.58,-16.61,261.12,-0.45,0.88
27660,50.731373,-3.744193,211,24.25,12.0,276.7,Jul-18,2766140,2019-08-17 08:06:35:507,-0.0209,0.0308,10.6804,0.0224,-0.0191,9.8066,-0.0948,0.0501,0.0352,-4.85,24.19,-17.08,261.12,-0.45,0.88
27661,50.731373,-3.744193,211,24.25,12.0,276.7,Jul-18,2766239,2019-08-17 08:06:35:606,-0.4752,-0.1795,9.5142,0.0394,-0.038,9.8065,0.0245,0.0533,-0.0128,-4.85,24.19,-17.08,261.12,-0.45,0.88
27662,50.731373,-3.744193,211,24.25,12.0,276.7,Jul-18,2766339,2019-08-17 08:06:35:706,-0.1511,-0.0655,8.7225,-0.0028,-0.0347,9.8066,-0.0075,0.0309,0.0054,-4.85,24.19,-17.08,258.71,-0.82,0.66
27663,50.731373,-3.744193,211,24.25,12.0,276.7,Jul-18,2766439,2019-08-17 08:06:35:806,0.0315,-0.0697,9.2335,-0.0109,0.001,9.8066,-0.0011,-0.0842,0.0288,-5.54,24.55,-16.33,257.05,-1.02,0.64
27664,50.731384,-3.744553,210,24.57,13.0,275.3,Jul-18,2766540,2019-08-17 08:06:35:907,0.2172,-0.0934,9.7949,-0.004,0.0181,9.8066,0.0127,-0.0309,0.0213,-5.54,24.55,-16.33,257.05,-1.02,0.64
27665,50.731384,-3.744553,210,24.57,13.0,275.3,Jul-18,2766639,2019-08-17 08:06:36:006,0.0032,-0.0744,9.1694,0.0147,0.033,9.8066,0.0127,-0.0309,0.0213,-5.52,23.69,-17.56,256.51,-0.93,0.68
27666,50.731384,-3.744553,210,24.57,13.0,275.3,Jul-18,2766740,2019-08-17 08:06:36:107,-0.1021,0.0856,11.127,0.0154,0.0542,9.8065,0.0106,0.0852,0.0032,-5.24,24.16,-16.99,258.55,-0.6,0.67
27667,50.731384,-3.744553,210,24.57,13.0,275.3,Jul-18,2766839,2019-08-17 08:06:36:206,-0.2078,-0.2841,9.5839,-0.009,-0.0196,9.8066,0.0287,-0.0362,0.0096,-5.24,24.16,-16.99,258.55,-0.6,0.67
27668,50.731384,-3.744553,210,24.57,13.0,275.3,Jul-18,2766940,2019-08-17 08:06:36:307,0.1215,-0.0233,10.985,-0.0166,-0.0579,9.8065,-0.0405,0.0884,0.0149,-5.29,23.99,-17.22,258.79,-0.95,0.7
27669,50.731384,-3.744553,210,24.57,13.0,275.3,Jul-18,2767039,2019-08-17 08:06:36:406,0.0863,0.0841,10.1882,0.0253,-0.0092,9.8066,-0.0416,-0.0682,0.0384,-5.68,23.96,-17.13,258.79,-0.95,0.7
27670,50.731384,-3.744553,210,24.57,13.0,275.3,Jul-18,2767140,2019-08-17 08:06:36:507,-0.3214,0.1635,9.4173,0.0338,-0.0022,9.8066,0.0298,-0.0117,0.0171,-5.68,23.96,-17.13,258.79,-0.95,0.7
27671,50.731384,-3.744553,210,24.57,13.0,275.3,Jul-18,2767239,2019-08-17 08:06:36:606,-0.5321,-0.0358,11.7427,-0.0017,-0.0122,9.8066,-0.015,-0.0788,0.0288,-5.99,24.01,-16.95,256.51,-0.92,0.5
27672,50.731384,-3.744553,210,24.57,13.0,275.3,Jul-18,2767339,2019-08-17 08:06:36:706,-0.074,0.1915,9.9071,0.0139,-0.0151,9.8066,0.017,-0.0117,-0.0181,-5.63,23.75,-17.44,256.56,-0.99,0.49
27673,50.731384,-3.744553,210,24.57,13.0,275.3,Jul-18,2767440,2019-08-17 08:06:36:807,-0.0541,0.2392,9.047,0.006,0.0051,9.8066,0.017,-0.0117,-0.0181,-5.66,24.28,-16.68,256.62,-1.06,0.39
27674,50.7314,-3.744953,211,25.52,13.0,275.0,Jul-18,2767540,2019-08-17 08:06:36:907,-0.5973,-0.2023,10.7002,-0.0097,-0.0065,9.8066,0.0341,-0.0053,0.0,-5.66,24.28,-16.68,256.62,-1.06,0.39
27675,50.7314,-3.744953,211,25.52,13.0,275.0,Jul-18,2767639,2019-08-17 08:06:37:006,1.022,-0.1079,7.8346,-0.0179,0.0151,9.8066,-0.0437,-0.0053,0.0331,-5.95,23.84,-17.22,256.65,-1.11,0.44
27676,50.7314,-3.744953,211,25.52,13.0,275.0,Jul-18,2767739,2019-08-17 08:06:37:106,0.9272,-0.2875,10.5435,-0.0327,0.0076,9.8066,0.0554,-0.032,-0.0138,-5.62,24.1,-16.95,256.62,-1.11,0.64
27677,50.7314,-3.744953,211,25.52,13.0,275.0,Jul-18,2767839,2019-08-17 08:06:37:206,0.4258,-0.2421,10.0052,0.0069,0.0252,9.8066,-0.0341,-0.0394,0.0448,-5.61,24.07,-17.0,256.51,-0.96,0.63
27678,50.7314,-3.744953,211,25.52,13.0,275.0,Jul-18,2767939,2019-08-17 08:06:37:306,0.4419,-0.2762,9.5615,-0.006,-0.0003,9.8066,-0.0011,0.0277,0.0064,-5.61,24.07,-17.0,256.51,-0.96,0.63
27679,50.7314,-3.744953,211,25.52,13.0,275.0,Jul-18,2768039,2019-08-17 08:06:37:406,0.4127,-0.0971,9.2472,-0.0151,-0.0045,9.8066,0.0341,-0.0224,0.0277,-5.62,24.1,-16.95,256.53,-1.0,0.71
27680,50.7314,-3.744953,211,25.52,13.0,275.0,Jul-18,2768140,2019-08-17 08:06:37:507,-0.1974,0.093,9.4235,0.0168,0.0105,9.8066,-0.0501,0.0075,0.0011,-5.6,24.42,-16.5,256.58,-1.06,0.68
27681,50.7314,-3.744953,211,25.52,13.0,275.0,Jul-18,2768239,2019-08-17 08:06:37:606,-0.4641,-0.1316,9.0097,0.0245,0.0146,9.8066,0.033,0.0043,0.0032,-5.61,24.45,-16.46,256.5,-0.98,0.6
27682,50.7314,-3.744953,211,25.52,13.0,275.0,Jul-18,2768339,2019-08-17 08:06:37:706,-0.2341,0.2808,9.2753,0.0359,0.0076,9.8066,0.033,0.0043,0.0032,-5.27,24.68,-16.22,256.5,-0.98,0.6
27683,50.7314,-3.744953,211,25.52,13.0,275.0,Jul-18,2768440,2019-08-17 08:06:37:807,-0.2637,-0.0339,12.8691,0.0338,-0.0081,9.8066,-0.0139,0.0799,0.0075,-5.27,24.68,-16.22,256.5,-0.98,0.6
27684,50.7314,-3.745345,212,25.72,12.0,272.1,Jul-18,2768539,2019-08-17 08:06:37:906,0.6493,0.15,9.3094,-0.028,-0.003,9.8066,-0.0086,0.0948,-0.0106,-5.22,24.48,-16.54,258.85,-0.98,0.39
27685,50.7314,-3.745345,212,25.72,12.0,272.1,Jul-18,2768639,2019-08-17 08:06:38:006,-0.1022,-0.5659,11.1761,-0.0261,-0.0492,9.8065,0.0202,0.0362,0.0,-5.98,24.36,-16.46,256.72,-1.29,0.49
27686,50.7314,-3.745345,212,25.72,12.0,272.1,Jul-18,2768739,2019-08-17 08:06:38:106,0.9497,-0.3359,7.81,-0.0056,-0.0198,9.8066,-0.0384,0.0458,-0.001,-5.98,24.36,-16.46,256.72,-1.29,0.49
27687,50.7314,-3.745345,212,25.72,12.0,272.1,Jul-18,2768840,2019-08-17 08:06:38:207,0.0049,-0.2109,9.6793,-0.0073,0.009,9.8066,0.0287,-0.1257,-0.0277,-5.99,24.01,-16.95,256.73,-1.25,0.54
27688,50.7314,-3.745345,212,25.72,12.0,272.1,Jul-18,2768939,2019-08-17 08:06:38:306,-0.1646,0.2777,10.11,0.038,0.0351,9.8065,-0.0469,-0.0554,0.0245,-5.47,23.83,-17.39,256.73,-1.25,0.54
27689,50.7314,-3.745345,212,25.72,12.0,272.1,Jul-18,2769040,2019-08-17 08:06:38:407,-0.0083,0.0698,9.1055,-0.0027,-0.0125,9.8066,-0.0118,0.0565,0.0437,-5.23,24.13,-17.04,258.6,-0.54,0.04
27690,50.7314,-3.745345,212,25.72,12.0,272.1,Jul-18,2769139,2019-08-17 08:06:38:506,-0.1893,-0.0458,12.4198,-0.0284,-0.036,9.8065,-0.0118,0.0565,0.0437,-5.72,24.11,-16.91,256.46,-0.78,0.16
27691,50.7314,-3.745345,212,25.72,12.0,272.1,Jul-18,2769239,2019-08-17 08:06:38:606,-0.405,0.1174,10.9893,-0.0233,-0.0506,9.8065,0.0575,0.0096,-0.0319,-5.72,24.11,-16.91,256.46,-0.78,0.16
27692,50.7314,-3.745345,212,25.72,12.0,272.1,Jul-18,2769339,2019-08-17 08:06:38:706,-0.7073,0.0544,12.4631,-0.017,-0.0251,9.8066,-0.0086,-0.0085,0.0363,-5.94,23.81,-17.26,256.67,-1.1,0.23
27693,50.7314,-3.745345,212,25.72,12.0,272.1,Jul-18,2769439,2019-08-17 08:06:38:806,-0.4565,-0.2323,9.7251,-0.0129,-0.0317,9.8066,-0.0107,-0.032,0.0086,-6.31,23.71,-17.26,256.8,-1.3,0.26
27694,50.731407,-3.745741,211,26.21,12.0,273.1,Jul-18,2769539,2019-08-17 08:06:38:906,0.304,-0.1678,9.8932,0.0094,-0.0183,9.8066,0.0181,0.0011,-0.0106,-6.31,23.71,-17.26,256.8,-1.3,0.26
27695,50.731407,-3.745741,211,26.21,12.0,273.1,Jul-18,2769640,2019-08-17 08:06:39:007,0.4612,-0.0559,9.9158,0.0203,0.0142,9.8066,-0.0395,-0.0288,0.0107,-5.94,23.78,-17.31,256.87,-1.39,0.18
27696,50.731407,-3.745741,211,26.21,12.0,273.1,Jul-18,2769739,2019-08-17 08:06:39:106,0.6695,-0.0381,10.3954,0.0133,0.0118,9.8066,0.0404,-0.0352,-0.0277,-6.0,23.26,-17.97,256.31,-1.28,0.08
27697,50.731407,-3.745741,211,26.21,12.0,273.1,Jul-18,2769840,2019-08-17 08:06:39:207,0.9908,-0.2484,7.9815,0.009,0.056,9.8065,0.017,-0.0607,0.0331,-5.67,23.9,-17.22,256.59,-0.95,0.11
27698,50.731407,-3.745741,211,26.21,12.0,273.1,Jul-18,2769939,2019-08-17 08:06:39:306,0.3259,-0.0886,9.8673,0.0294,0.0085,9.8066,-0.0395,0.0021,0.0363,-5.67,23.9,-17.22,256.59,-0.95,0.11
27699,50.731407,-3.745741,211,26.21,12.0,273.1,Jul-18,2770040,2019-08-17 08:06:39:407,-0.0212,0.2254,9.587,-0.0057,0.0119,9.8066,-0.0395,0.0021,0.0363,-5.99,23.98,-17.0,256.62,-0.94,-0.16
27700,50.731407,-3.745741,211,26.21,12.0,273.1,Jul-18,2770140,2019-08-17 08:06:39:507,-0.0896,-0.124,9.51,-0.0067,-0.0111,9.8066,0.0586,0.0234,0.0032,-5.92,24.09,-16.87,256.57,-0.88,-0.12
27701,50.731407,-3.745741,211,26.21,12.0,273.1,Jul-18,2770239,2019-08-17 08:06:39:606,-0.8028,0.0863,10.2192,-0.0136,-0.0049,9.8066,0.0245,0.0192,0.0213,-5.97,24.3,-16.55,256.59,-0.93,-0.04
27702,50.731407,-3.745741,211,26.21,12.0,273.1,Jul-18,2770340,2019-08-17 08:06:39:707,-0.4381,0.278,10.7226,-0.0095,0.0013,9.8066,-0.0416,-0.0447,0.0416,-5.97,24.3,-16.55,256.59,-0.93,-0.04
27703,50.731407,-3.745741,211,26.21,12.0,273.1,Jul-18,2770439,2019-08-17 08:06:39:806,-0.7103,-0.0388,9.4495,-0.0209,-0.0011,9.8066,0.0703,-0.0522,-0.033,-5.94,23.78,-17.31,256.59,-0.93,0.01
27704,50.73141,-3.746152,211,26.58,12.0,272.6,Aug-18,2770539,2019-08-17 08:06:39:906,-0.2445,-0.0081,8.0875,-0.049,0.0043,9.8065,-0.0011,-0.0543,0.0341,-5.92,24.09,-16.87,256.59,-0.93,0.01
27705,50.73141,-3.746152,211,26.58,12.0,272.6,Aug-18,2770639,2019-08-17 08:06:40:006,0.1793,-0.0572,9.1668,-0.0503,0.0314,9.8065,-0.0426,-0.0586,0.0256,-6.36,23.89,-17.0,256.46,-0.82,0.34
27706,50.73141,-3.746152,211,26.58,12.0,272.6,Aug-18,2770740,2019-08-17 08:06:40:107,0.1198,0.2771,9.2645,0.0278,0.0427,9.8065,0.0415,-0.0021,-0.0021,-6.43,23.77,-17.13,256.46,-0.82,0.34
27707,50.73141,-3.746152,211,26.58,12.0,272.6,Aug-18,2770839,2019-08-17 08:06:40:206,0.3893,-0.0809,9.8006,-0.0063,-0.0437,9.8066,0.0415,-0.0021,-0.0021,-6.04,23.81,-17.22,256.21,-0.4,0.14
27708,50.73141,-3.746152,211,26.58,12.0,272.6,Aug-18,2770939,2019-08-17 08:06:40:306,0.6547,-0.1888,10.125,-0.0084,-0.0891,9.8062,-0.0352,0.0533,0.0288,-6.04,23.81,-17.22,256.21,-0.4,0.14
27709,50.73141,-3.746152,211,26.58,12.0,272.6,Aug-18,2771039,2019-08-17 08:06:40:406,-0.0144,-0.3189,9.2393,-0.0106,-0.0412,9.8066,0.0372,0.0639,-0.0117,-6.0,23.63,-17.49,256.57,-0.92,0.06
27710,50.73141,-3.746152,211,26.58,12.0,272.6,Aug-18,2771139,2019-08-17 08:06:40:506,-0.3324,-0.1478,10.6913,-0.0132,-0.0361,9.8066,-0.032,-0.0298,0.0267,-6.36,23.92,-16.95,256.72,-1.14,0.09
27711,50.73141,-3.746152,211,26.58,12.0,272.6,Aug-18,2771239,2019-08-17 08:06:40:606,-0.6346,0.2866,9.6313,0.0059,0.0233,9.8066,-0.0043,-0.0852,0.0096,-6.36,23.92,-16.95,256.72,-1.14,0.09
27712,50.73141,-3.746152,211,26.58,12.0,272.6,Aug-18,2771339,2019-08-17 08:06:40:706,-0.127,0.3995,8.4531,0.0017,0.0372,9.8066,0.0351,0.0011,0.0128,-6.31,23.71,-17.26,256.72,-1.14,0.09
27713,50.73141,-3.746152,211,26.58,12.0,272.6,Aug-18,2771439,2019-08-17 08:06:40:806,-0.5123,0.0616,9.6852,-0.0102,0.0672,9.8064,-0.0363,-0.0341,0.0224,-6.41,24.1,-16.68,256.45,-0.77,0.24
27714,50.731426,-3.746555,213,26.6,12.0,272.4,Aug-18,2771539,2019-08-17 08:06:40:906,-0.1799,0.0736,9.6229,0.0066,0.0338,9.8066,-0.0363,-0.0341,0.0224,-6.41,24.1,-16.68,256.45,-0.77,0.24
27715,50.731426,-3.746555,213,26.6,12.0,272.4,Aug-18,2771640,2019-08-17 08:06:41:007,0.354,-0.1567,10.6152,-0.0154,0.0189,9.8066,0.0255,-0.0511,0.0309,-6.01,23.95,-17.03,256.31,-0.57,0.25
27716,50.731426,-3.746555,213,26.6,12.0,272.4,Aug-18,2771739,2019-08-17 08:06:41:106,0.194,-0.0907,10.3261,-0.0419,0.0123,9.8066,-0.032,0.0266,0.0288,-6.42,23.23,-17.87,256.31,-0.57,0.25
27717,50.731426,-3.746555,213,26.6,12.0,272.4,Aug-18,2771840,2019-08-17 08:06:41:207,0.4576,-0.4248,9.079,-0.0195,-0.0212,9.8066,0.049,-0.0075,-0.017,-6.08,23.84,-17.17,256.26,-0.56,0.5
27718,50.731426,-3.746555,213,26.6,12.0,272.4,Aug-18,2771940,2019-08-17 08:06:41:307,-0.0628,-0.2713,11.2693,0.0047,-0.0273,9.8066,0.0096,0.1012,0.0086,-6.0,24.33,-16.5,256.33,-0.71,0.58
27719,50.731426,-3.746555,213,26.6,12.0,272.4,Aug-18,2772040,2019-08-17 08:06:41:407,0.3884,0.3377,10.7857,0.0118,-0.0213,9.8066,-0.0767,0.0085,0.0671,-6.87,24.23,-16.3,254.16,-0.81,0.49
27720,50.731426,-3.746555,213,26.6,12.0,272.4,Aug-18,2772139,2019-08-17 08:06:41:506,0.9911,-0.2808,9.2129,0.0036,-0.0119,9.8066,-0.0171,0.0288,0.0394,-6.87,24.23,-16.3,254.16,-0.81,0.49
27721,50.731426,-3.746555,213,26.6,12.0,272.4,Aug-18,2772239,2019-08-17 08:06:41:606,0.3647,0.125,9.592,0.009,0.0265,9.8066,0.0234,0.0266,-0.0064,-6.75,24.19,-16.41,254.21,-0.87,0.45
27722,50.731426,-3.746555,213,26.6,12.0,272.4,Aug-18,2772340,2019-08-17 08:06:41:707,-0.0527,0.0305,9.7463,-0.0046,0.021,9.8066,-0.0107,-0.1001,0.0267,-6.44,24.09,-16.68,256.4,-0.76,0.51
27723,50.731426,-3.746555,213,26.6,12.0,272.4,Aug-18,2772440,2019-08-17 08:06:41:807,-0.1873,-0.1606,9.835,0.0184,0.0348,9.8066,-0.0107,-0.1001,0.0267,-5.95,24.12,-16.81,256.4,-0.76,0.51
27724,50.731438,-3.74697,215,26.54,11.0,271.6,Aug-18,2772540,2019-08-17 08:06:41:907,-0.116,0.4093,8.5943,0.0379,0.063,9.8064,0.0,-0.0213,0.0128,-6.13,24.05,-16.85,256.14,-0.35,0.38
27725,50.731438,-3.74697,215,26.54,11.0,271.6,Aug-18,2772639,2019-08-17 08:06:42:006,-0.0408,0.0229,11.2218,0.0165,-0.021,9.8066,-0.0437,0.0575,0.0341,-6.13,24.05,-16.85,256.14,-0.35,0.38
27726,50.731438,-3.74697,215,26.54,11.0,271.6,Aug-18,2772739,2019-08-17 08:06:42:106,0.1636,0.0624,10.6243,-0.0069,-0.0144,9.8066,0.0191,0.0682,0.0107,-6.39,23.92,-16.94,256.22,-0.45,0.26
27727,50.731438,-3.74697,215,26.54,11.0,271.6,Aug-18,2772839,2019-08-17 08:06:42:206,0.4344,-0.2178,10.1407,-0.0129,-0.0416,9.8066,0.0415,0.0107,0.0267,-6.39,23.92,-16.94,256.39,-0.7,0.27
27728,50.731438,-3.74697,215,26.54,11.0,271.6,Aug-18,2772940,2019-08-17 08:06:42:307,0.3037,-0.7806,9.8874,-0.0222,-0.0514,9.8065,-0.0054,0.0266,-0.0149,-6.39,23.92,-16.94,256.39,-0.7,0.27
27729,50.731438,-3.74697,215,26.54,11.0,271.6,Aug-18,2773040,2019-08-17 08:06:42:407,0.2661,-0.1799,9.0161,-0.0566,-0.0686,9.8062,0.0554,0.0884,-0.0277,-6.39,23.92,-16.94,256.39,-0.7,0.27
27730,50.731438,-3.74697,215,26.54,11.0,271.6,Aug-18,2773140,2019-08-17 08:06:42:507,0.894,-0.0938,9.268,-0.0001,0.0097,9.8066,-0.0533,-0.0277,0.0629,-6.31,24.39,-16.28,256.64,-1.17,0.5
27731,50.731438,-3.74697,215,26.54,11.0,271.6,Aug-18,2773239,2019-08-17 08:06:42:606,0.5555,0.2585,8.127,-0.0055,0.072,9.8064,-0.0533,-0.0277,0.0629,-6.69,23.99,-16.72,254.13,-0.77,0.63
27732,50.731438,-3.74697,215,26.54,11.0,271.6,Aug-18,2773340,2019-08-17 08:06:42:707,-0.3038,0.1006,8.699,0.0023,0.0546,9.8065,0.017,-0.1118,-0.0138,-6.69,23.99,-16.72,254.13,-0.77,0.63
27733,50.731438,-3.74697,215,26.54,11.0,271.6,Aug-18,2773439,2019-08-17 08:06:42:806,-0.1461,0.4677,8.5183,0.0208,0.0201,9.8066,0.001,0.0011,0.0192,-6.64,23.82,-16.99,253.91,-0.46,0.7
27734,50.73144,-3.747317,216,25.79,10.0,271.2,Aug-18,2773540,2019-08-17 08:06:42:907,-0.3322,0.3813,10.0819,-0.0075,0.0083,9.8066,-0.0735,0.0021,0.0405,-6.01,23.98,-16.99,256.01,-0.21,0.62
27735,50.73144,-3.747317,216,25.79,10.0,271.2,Aug-18,2773639,2019-08-17 08:06:43:006,0.1267,0.061,9.7958,0.0046,-0.053,9.8065,0.0287,0.0075,-0.0383,-6.01,23.98,-16.99,256.01,-0.21,0.62
27736,50.73144,-3.747317,216,25.79,10.0,271.2,Aug-18,2773739,2019-08-17 08:06:43:106,-0.2457,0.1762,9.0378,0.0188,-0.0187,9.8066,-0.0512,-0.0618,0.0533,-6.44,24.12,-16.63,256.22,-0.51,0.52
27737,50.73144,-3.747317,216,25.79,10.0,271.2,Aug-18,2773839,2019-08-17 08:06:43:206,-0.1032,-0.0546,10.4173,0.0252,-0.0287,9.8066,0.0649,-0.0021,-0.0064,-6.82,24.05,-16.58,256.22,-0.51,0.52
27738,50.73144,-3.747317,216,25.79,10.0,271.2,Aug-18,2773939,2019-08-17 08:06:43:306,0.0567,-0.2413,9.0598,-0.0387,-0.0094,9.8066,0.0649,-0.0021,-0.0064,-6.75,24.19,-16.41,254.08,-0.64,0.33
27739,50.73144,-3.747317,216,25.79,10.0,271.2,Aug-18,2774039,2019-08-17 08:06:43:406,0.207,-0.1755,9.7356,-0.0575,0.0017,9.8065,-0.0107,0.0171,0.0086,-6.31,24.39,-16.28,256.32,-0.72,0.66
27740,50.73144,-3.747317,216,25.79,10.0,271.2,Aug-18,2774140,2019-08-17 08:06:43:507,0.4772,0.002,10.0469,0.0012,0.042,9.8066,-0.0213,-0.1044,0.0107,-6.31,24.39,-16.28,256.32,-0.72,0.66
27741,50.73144,-3.747317,216,25.79,10.0,271.2,Aug-18,2774240,2019-08-17 08:06:43:607,0.4193,-0.2307,9.4886,0.0122,0.0539,9.8065,0.0575,-0.0213,-0.0096,-6.38,24.26,-16.45,256.16,-0.48,0.71
27742,50.73144,-3.747317,216,25.79,10.0,271.2,Aug-18,2774340,2019-08-17 08:06:43:707,0.3785,0.0892,9.3929,-0.0028,0.0515,9.8065,-0.0533,0.0384,0.016,-6.0,24.33,-16.5,255.96,-0.19,0.8
27743,50.73144,-3.747317,216,25.79,10.0,271.2,Aug-18,2774440,2019-08-17 08:06:43:807,-0.3345,-0.2138,11.1822,0.0007,-0.0179,9.8066,0.0223,0.0543,0.0043,-6.0,24.33,-16.5,255.96,-0.19,0.8
27744,50.731445,-3.747709,216,25.9,10.0,270.5,Aug-18,2774540,2019-08-17 08:06:43:907,-0.4159,0.1956,9.5492,0.0139,-0.0275,9.8066,-0.0512,0.0075,0.0363,-6.8,24.39,-16.09,253.82,-0.33,0.68
27745,50.731445,-3.747709,216,25.9,10.0,270.5,Aug-18,2774639,2019-08-17 08:06:44:006,-0.6967,0.1414,10.1529,-0.0004,0.0129,9.8066,-0.0512,0.0075,0.0363,-6.51,23.98,-16.81,253.77,-0.26,0.7
27746,50.731445,-3.747709,216,25.9,10.0,270.5,Aug-18,2774740,2019-08-17 08:06:44:107,-0.2016,0.1948,9.321,-0.0218,-0.0452,9.8065,0.0383,-0.0138,-0.017,-6.63,24.16,-16.51,253.77,-0.26,0.7
27747,50.731445,-3.747709,216,25.9,10.0,270.5,Aug-18,2774840,2019-08-17 08:06:44:207,-0.2493,0.2359,9.7499,-0.0067,-0.0192,9.8066,0.0074,-0.0085,0.0331,-6.63,24.16,-16.51,253.77,-0.26,0.7
27748,50.731445,-3.747709,216,25.9,10.0,270.5,Aug-18,2774940,2019-08-17 08:06:44:307,-0.4094,0.2678,9.5546,0.0046,0.0274,9.8066,-0.0256,-0.0511,0.0022,-7.04,24.25,-16.19,253.85,-0.37,0.71
27749,50.731445,-3.747709,216,25.9,10.0,270.5,Aug-18,2775040,2019-08-17 08:06:44:407,-0.3126,0.1453,9.2963,0.0171,0.0301,9.8066,0.0426,-0.0149,-0.0341,-6.4,23.95,-16.9,255.97,-0.18,0.66
27750,50.731445,-3.747709,216,25.9,10.0,270.5,Aug-18,2775139,2019-08-17 08:06:44:506,-0.2473,-0.0463,10.423,0.0111,-0.0096,9.8066,-0.0107,0.0053,0.0128,-6.4,23.95,-16.9,255.97,-0.18,0.66
27751,50.731445,-3.747709,216,25.9,10.0,270.5,Aug-18,2775239,2019-08-17 08:06:44:606,0.3766,-0.2333,10.238,0.0182,-0.0197,9.8066,-0.0022,-0.0138,0.0011,-6.78,23.53,-17.34,253.81,-0.26,0.53
27752,50.731445,-3.747709,216,25.9,10.0,270.5,Aug-18,2775340,2019-08-17 08:06:44:707,0.2599,-0.3844,10.2791,0.002,-0.0052,9.8066,0.0468,0.0011,0.0203,-6.78,23.53,-17.34,253.81,-0.26,0.53
27753,50.731445,-3.747709,216,25.9,10.0,270.5,Aug-18,2775439,2019-08-17 08:06:44:806,0.1448,-0.0236,9.7445,0.0042,-0.0081,9.8066,0.0468,0.0011,0.0203,-6.84,23.73,-17.03,253.83,-0.29,0.51
27754,50.731453,-3.748075,216,26.01,10.0,269.8,Aug-18,2775539,2019-08-17 08:06:44:906,0.144,0.0625,8.8004,0.0239,0.0235,9.8066,-0.0203,-0.0458,0.016,-6.78,23.53,-17.34,253.9,-0.36,0.42
27755,50.731453,-3.748075,216,26.01,10.0,269.8,Aug-18,2775640,2019-08-17 08:06:45:007,-0.1462,0.0944,8.6775,0.0073,0.0125,9.8066,0.0852,-0.0309,-0.0191,-6.46,23.8,-17.08,253.9,-0.36,0.42
27756,50.731453,-3.748075,216,26.01,10.0,269.8,Aug-18,2775740,2019-08-17 08:06:45:107,-0.6806,0.1985,10.0009,-0.0037,0.0295,9.8066,-0.0608,0.0043,0.0512,-6.46,23.8,-17.08,253.9,-0.36,0.42
27757,50.731453,-3.748075,216,26.01,10.0,269.8,Aug-18,2775839,2019-08-17 08:06:45:206,-0.5063,0.4117,9.9375,-0.005,0.01,9.8066,-0.0171,-0.0501,0.0075,-6.44,24.12,-16.63,256.02,-0.2,0.49
27758,50.731453,-3.748075,216,26.01,10.0,269.8,Aug-18,2775940,2019-08-17 08:06:45:307,-0.5189,-0.0383,10.639,-0.0083,-0.0015,9.8066,0.0127,0.0192,0.0213,-6.71,23.67,-17.16,253.74,-0.15,0.53
27759,50.731453,-3.748075,216,26.01,10.0,269.8,Aug-18,2776039,2019-08-17 08:06:45:406,0.2425,-0.1454,8.4655,-0.0029,0.0028,9.8067,-0.0544,-0.0373,0.0213,-7.16,23.09,-17.76,253.05,-0.14,0.55
27760,50.731453,-3.748075,216,26.01,10.0,269.8,Aug-18,2776139,2019-08-17 08:06:45:506,0.496,-0.0775,9.1369,0.0227,0.0003,9.8066,0.0309,-0.0117,-0.0159,-7.16,23.09,-17.76,253.05,-0.14,0.55
27761,50.731453,-3.748075,216,26.01,10.0,269.8,Aug-18,2776239,2019-08-17 08:06:45:606,0.6895,-0.2753,10.9515,0.0074,-0.006,9.8066,0.0309,-0.0117,-0.0159,-6.78,23.53,-17.34,253.72,-0.1,0.43
27762,50.731453,-3.748075,216,26.01,10.0,269.8,Aug-18,2776340,2019-08-17 08:06:45:707,0.6066,-0.0296,8.8534,-0.0005,-0.0075,9.8066,-0.0395,0.0224,0.0671,-6.39,23.92,-16.94,253.72,-0.1,0.43
27763,50.731453,-3.748075,216,26.01,10.0,269.8,Aug-18,2776440,2019-08-17 08:06:45:807,-0.1446,-0.2941,9.5199,0.007,0.0243,9.8066,0.0266,-0.016,0.0149,-6.84,23.73,-17.03,253.9,-0.37,0.46
27764,50.731453,-3.748439,218,25.87,10.0,269.4,Jun-18,2776540,2019-08-17 08:06:45:907,-0.2891,0.3081,9.2708,-0.0016,0.0616,9.8065,0.0351,-0.0746,0.0192,-6.78,23.53,-17.34,253.8,-0.23,0.46
27765,50.731453,-3.748439,218,25.87,10.0,269.4,Jun-18,2776639,2019-08-17 08:06:46:006,-0.5747,0.3701,9.3019,-0.0142,0.0925,9.8062,-0.0458,-0.0426,0.0245,-6.78,23.53,-17.34,253.8,-0.23,0.46
27766,50.731453,-3.748439,218,25.87,10.0,269.4,Jun-18,2776739,2019-08-17 08:06:46:106,-0.5548,0.1881,8.6054,-0.0199,-0.0149,9.8066,0.0628,0.0479,-0.0287,-6.67,23.14,-17.89,252.72,0.27,0.69
27767,50.731453,-3.748439,218,25.87,10.0,269.4,Jun-18,2776839,2019-08-17 08:06:46:206,-0.3268,0.0365,7.9195,-0.0058,-0.0337,9.8066,-0.0011,-0.0607,0.0118,-7.33,24.04,-16.38,253.5,0.15,0.78
27768,50.731453,-3.748439,218,25.87,10.0,269.4,Jun-18,2776939,2019-08-17 08:06:46:306,-0.4552,0.191,9.9581,0.0145,-0.0196,9.8066,-0.0054,-0.0756,0.0,-6.77,23.5,-17.38,252.89,0.07,0.66
27769,50.731453,-3.748439,218,25.87,10.0,269.4,Jun-18,2777040,2019-08-17 08:06:46:407,-0.3289,0.1025,10.1446,0.0124,0.014,9.8066,0.0266,0.0171,0.0086,-6.77,23.5,-17.38,252.89,0.07,0.66
27770,50.731453,-3.748439,218,25.87,10.0,269.4,Jun-18,2777139,2019-08-17 08:06:46:506,-0.2922,-0.2634,9.4007,0.0061,-0.0283,9.8066,0.0266,0.0171,0.0086,-6.82,24.05,-16.58,253.51,0.17,0.62
27771,50.731453,-3.748439,218,25.87,10.0,269.4,Jun-18,2777240,2019-08-17 08:06:46:607,0.0347,0.1854,10.6676,0.0086,-0.0592,9.8065,-0.0661,0.0575,0.0277,-6.7,24.02,-16.68,253.75,-0.15,0.47
27772,50.731453,-3.748439,218,25.87,10.0,269.4,Jun-18,2777339,2019-08-17 08:06:46:706,0.4336,-0.2501,9.9747,0.0044,0.0189,9.8066,0.0522,-0.0778,-0.0138,-6.7,24.02,-16.68,253.75,-0.15,0.47
27773,50.731453,-3.748439,218,25.87,10.0,269.4,Jun-18,2777440,2019-08-17 08:06:46:807,0.5145,0.0908,9.5874,0.0189,0.0331,9.8066,-0.0672,0.0128,0.0267,-7.14,23.81,-16.8,253.67,-0.04,0.48
27774,50.73145,-3.748792,219,25.75,10.0,268.8,Jul-18,2777540,2019-08-17 08:06:46:907,0.4242,-0.1199,10.9308,0.0232,0.0097,9.8066,0.0127,-0.0032,0.0043,-6.35,23.38,-17.69,255.16,0.18,0.43
27775,50.73145,-3.748792,219,25.75,10.0,268.8,Jul-18,2777639,2019-08-17 08:06:47:006,0.405,-0.3033,8.3562,0.0345,-0.0062,9.8066,-0.0267,-0.0394,0.0267,-6.35,23.38,-17.69,255.16,0.18,0.43
27776,50.73145,-3.748792,219,25.75,10.0,268.8,Jul-18,2777740,2019-08-17 08:06:47:107,-0.2275,0.0785,9.8228,-0.0023,-0.0192,9.8066,0.0149,0.0256,0.0043,-7.04,23.07,-17.84,252.88,0.19,0.22
27777,50.73145,-3.748792,219,25.75,10.0,268.8,Jul-18,2777839,2019-08-17 08:06:47:206,-0.3637,0.153,10.1141,0.0031,-0.0011,9.8067,0.033,-0.0501,-0.0021,-6.78,23.53,-17.34,253.65,0.08,0.2
27778,50.73145,-3.748792,219,25.75,10.0,268.8,Jul-18,2777940,2019-08-17 08:06:47:307,-0.3638,0.5359,9.5448,0.0052,-0.0038,9.8066,0.033,-0.0501,-0.0021,-6.64,23.82,-16.99,253.65,0.08,0.2
27779,50.73145,-3.748792,219,25.75,10.0,268.8,Jul-18,2778039,2019-08-17 08:06:47:406,-0.45,0.1758,9.4446,0.0195,0.0244,9.8066,-0.0576,-0.0021,0.0426,-6.64,23.82,-16.99,253.65,0.08,0.2
27780,50.73145,-3.748792,219,25.75,10.0,268.8,Jul-18,2778140,2019-08-17 08:06:47:507,-0.3786,0.3191,10.1874,0.0072,0.0135,9.8066,0.0511,-0.016,-0.001,-6.77,23.88,-16.85,253.55,0.25,0.13
27781,50.73145,-3.748792,219,25.75,10.0,268.8,Jul-18,2778241,2019-08-17 08:06:47:608,-0.1915,0.0712,11.7025,-0.0035,0.0115,9.8066,0.0522,0.0458,0.0032,-6.85,23.37,-17.52,252.81,0.31,0.17
27782,50.73145,-3.748792,219,25.75,10.0,268.8,Jul-18,2778339,2019-08-17 08:06:47:706,-0.3509,-0.0833,10.612,-0.0328,0.0095,9.8066,-0.0299,0.0277,0.0331,-6.85,23.37,-17.52,252.81,0.31,0.17
27783,50.73145,-3.748792,219,25.75,10.0,268.8,Jul-18,2778441,2019-08-17 08:06:47:808,0.2644,0.2119,8.4771,-0.0039,-0.0095,9.8066,0.0191,-0.0202,-0.0021,-7.14,23.81,-16.8,253.45,0.29,0.49
27784,50.73144,-3.749186,219,26.37,10.0,268.1,Jul-18,2778540,2019-08-17 08:06:47:907,0.4468,-0.1037,9.1803,-0.0017,0.0059,9.8066,-0.0086,-0.0266,0.0299,-7.14,23.81,-16.8,253.49,0.24,0.49
27785,50.73144,-3.749186,219,26.37,10.0,268.1,Jul-18,2778640,2019-08-17 08:06:48:007,-0.0436,0.2421,8.4195,0.0052,0.0094,9.8066,0.0053,-0.0841,0.0149,-7.14,23.81,-16.8,253.49,0.24,0.49
27786,50.73144,-3.749186,219,26.37,10.0,268.1,Jul-18,2778739,2019-08-17 08:06:48:106,-0.0546,0.5638,9.9366,0.0234,0.0136,9.8066,0.0053,-0.0841,0.0149,-6.65,23.85,-16.94,253.45,0.3,0.48
27787,50.73144,-3.749186,219,26.37,10.0,268.1,Jul-18,2778840,2019-08-17 08:06:48:207,-0.2525,0.5487,12.8535,0.0331,0.0384,9.8065,0.0053,0.0458,0.0022,-6.84,23.73,-17.03,253.3,0.57,0.36
27788,50.73144,-3.749186,219,26.37,10.0,268.1,Jul-18,2778939,2019-08-17 08:06:48:306,0.7526,0.1164,8.2762,-0.0558,0.0021,9.8065,-0.0011,0.1971,-0.0266,-6.77,23.88,-16.85,253.29,0.48,0.67
27789,50.73144,-3.749186,219,26.37,10.0,268.1,Jul-18,2779039,2019-08-17 08:06:48:406,-0.4401,-0.3186,9.8942,-0.0526,-0.0333,9.8065,0.0095,-0.0287,0.064,-6.77,23.88,-16.85,253.29,0.48,0.67
27790,50.73144,-3.749186,219,26.37,10.0,268.1,Jul-18,2779140,2019-08-17 08:06:48:507,0.2337,0.0856,10.172,-0.0683,-0.0587,9.8062,-0.0458,-0.0671,0.0394,-7.37,23.89,-16.59,253.53,0.04,0.96
27791,50.73144,-3.749186,219,26.37,10.0,268.1,Jul-18,2779239,2019-08-17 08:06:48:606,0.9414,0.2798,7.4609,0.0247,0.0797,9.8063,-0.0011,-0.0362,-0.0245,-7.14,23.81,-16.8,253.53,0.04,0.96
27792,50.73144,-3.749186,219,26.37,10.0,268.1,Jul-18,2779340,2019-08-17 08:06:48:707,0.6675,-0.1184,7.3349,-0.0069,-0.0379,9.8066,-0.0448,-0.1129,0.0224,-6.76,24.22,-16.36,253.1,0.82,0.69
27793,50.73144,-3.749186,219,26.37,10.0,268.1,Jul-18,2779440,2019-08-17 08:06:48:807,1.2366,0.6161,9.3005,0.0055,0.0266,9.8066,-0.0842,-0.18,0.0757,-6.76,24.22,-16.36,253.1,0.82,0.69
27794,50.731422,-3.749583,220,26.69,11.0,267.5,Jul-18,2779540,2019-08-17 08:06:48:907,1.0942,0.2746,8.2708,0.0164,0.0796,9.8063,-0.0842,-0.18,0.0757,-6.36,23.41,-17.64,254.51,0.98,0.71
27795,50.731422,-3.749583,220,26.69,11.0,267.5,Jul-18,2779640,2019-08-17 08:06:49:007,0.5549,-0.8103,9.3052,-0.024,-0.0811,9.8063,0.1076,0.0863,-0.0554,-6.77,23.88,-16.85,252.64,1.45,0.74
27796,50.731422,-3.749583,220,26.69,11.0,267.5,Jul-18,2779740,2019-08-17 08:06:49:107,0.2125,-0.7141,9.9025,-0.0422,-0.1936,9.8046,-0.049,0.0586,0.0267,-6.77,23.88,-16.85,252.64,1.45,0.74
27797,50.731422,-3.749583,220,26.69,11.0,267.5,Jul-18,2779840,2019-08-17 08:06:49:207,-0.1345,-0.2386,11.5191,-0.0038,-0.0021,9.8066,-0.0075,0.0298,0.0448,-6.7,24.02,-16.68,253.42,0.3,0.63
27798,50.731422,-3.749583,220,26.69,11.0,267.5,Jul-18,2779940,2019-08-17 08:06:49:307,-0.292,0.2788,8.2572,0.0172,0.0768,9.8063,0.0436,-0.0224,-0.0106,-6.77,23.88,-16.85,253.11,0.75,0.67
27799,50.731422,-3.749583,220,26.69,11.0,267.5,Jul-18,2780040,2019-08-17 08:06:49:407,-0.2618,0.1231,8.9717,-0.0129,0.0221,9.8066,-0.032,-0.0011,0.0118,-6.76,24.22,-16.36,253.06,0.86,0.78
27800,50.731422,-3.749583,220,26.69,11.0,267.5,Jul-18,2780140,2019-08-17 08:06:49:507,-0.1118,-0.2753,11.871,0.0102,-0.0079,9.8066,-0.0075,-0.0011,0.0192,-6.76,24.22,-16.36,253.06,0.86,0.78
27801,50.731422,-3.749583,220,26.69,11.0,267.5,Jul-18,2780240,2019-08-17 08:06:49:607,0.4834,-0.0752,10.3833,0.0339,0.0179,9.8066,-0.0277,-0.0756,0.0245,-6.96,24.15,-16.39,253.19,0.73,0.52
27802,50.731422,-3.749583,220,26.69,11.0,267.5,Jul-18,2780340,2019-08-17 08:06:49:707,0.5905,0.0522,8.255,0.0127,0.0447,9.8065,0.0287,0.0309,-0.0096,-7.21,23.66,-16.98,253.08,0.89,0.36
27803,50.731422,-3.749583,220,26.69,11.0,267.5,Jul-18,2780439,2019-08-17 08:06:49:806,0.3481,-0.2725,10.4329,0.0079,-0.0149,9.8066,0.0287,0.0309,-0.0096,-6.7,24.02,-16.68,252.91,1.16,0.37
27804,50.731407,-3.749944,220,26.25,11.0,267.1,Jul-18,2780541,2019-08-17 08:06:49:908,0.5117,0.0903,9.1793,-0.0023,-0.0552,9.8065,-0.0032,0.0181,0.016,-6.7,24.02,-16.68,252.91,1.16,0.37
27805,50.731407,-3.749944,220,26.25,11.0,267.1,Jul-18,2780639,2019-08-17 08:06:50:006,-0.0231,0.2242,9.5351,-0.0118,-0.006,9.8066,0.0159,-0.0202,0.0043,-6.77,23.88,-16.85,253.13,0.85,0.29
27806,50.731407,-3.749944,220,26.25,11.0,267.1,Jul-18,2780740,2019-08-17 08:06:50:107,-0.2424,0.0,9.8542,-0.0003,-0.0231,9.8066,-0.0181,0.1119,-0.001,-6.83,24.08,-16.54,253.13,0.85,0.29
