,GPS LATITUDE (degrees), GPS LONGITUDE (degrees), GPS ALTITUDE (m), GPS SPEED (Kmh), GPS ACCURACY (m), GPS ORIENTATION (Â°),GPS SATELLITES IN RANGE, TIME SINCE START (ms), DATE (YYYY-MO-DD HH-MI-SS_SSS), ACCELEROMETER X (m/s²) , ACCELEROMETER Y (m/s²), ACCELEROMETER Z (m/s²), GRAVITY X (m/s²), GRAVITY Y (m/s²), GRAVITY Z (m/s²), GYROSCOPE Yaw (rad/s), GYROSCOPE Pitch (rad/s), GYROSCOPE Roll (rad/s), MAGNETIC FIELD X (Î¼T), MAGNETIC FIELD Y (Î¼T), MAGNETIC FIELD Z (Î¼T), ORIENTATION (Yaw) (Â°), ORIENTATION (Pitch) (Â°), ORIENTATION (Roll ) (Â°)
73479,51.083225,-3.006069,70,20.92,9,194.2,Dec-22,7348272,2019-08-16 14:51:42:052,-0.1831,-0.3267,8.6717,-0.0215,-0.035,9.8066,-0.0032,0.0869,-0.007,-24.88,11.93,-11.78,204.14,7.81,0.77
73480,51.083225,-3.006069,70,20.92,9,194.2,Dec-22,7348373,2019-08-16 14:51:42:153,0.0481,-0.2473,9.6407,0.013,0.0063,9.8066,-0.0106,0.0592,-0.0038,-25.14,11.24,-11.9,202.38,7.62,0.63
73481,51.083225,-3.006069,70,20.92,9,194.2,Dec-22,7348472,2019-08-16 14:51:42:252,0.374,0.4887,9.4241,0.0147,0.0052,9.8066,0.032,-0.0633,0.008,-25.04,9.89,-13.23,200.38,7.7,0.64
73482,51.083225,-3.006069,70,20.92,9,194.2,Dec-22,7348572,2019-08-16 14:51:42:352,-0.3994,0.0064,9.712,0.0426,0.0301,9.8065,0.0415,-0.0047,0.0005,-25.04,9.89,-13.23,200.38,7.7,0.64
73483,51.083225,-3.006069,70,20.92,9,194.2,Dec-22,7348672,2019-08-16 14:51:42:452,-0.0496,0.5105,9.3316,-0.0332,-0.003,9.8066,-0.0234,-0.0697,-0.0038,-24.29,12.04,-12.84,204.82,7.99,0.72
73484,51.08304,-3.006151,70,20.94,10,194.3,Dec-22,7348773,2019-08-16 14:51:42:553,0.2633,-0.1127,10.4456,-0.0342,-0.0016,9.8066,0.0202,-0.0346,-0.024,-24.29,13.22,-11.63,206.78,7.81,0.79
73485,51.08304,-3.006151,70,20.94,10,194.3,Dec-22,7348873,2019-08-16 14:51:42:653,0.0373,-0.4099,8.8886,-0.0112,-0.0223,9.8066,0.0234,-0.009,-0.008,-24.86,12.72,-10.96,206.78,7.81,0.79
73486,51.08304,-3.006151,70,20.94,10,194.3,Dec-22,7348972,2019-08-16 14:51:42:752,-0.2503,-0.2167,9.1984,-0.0138,-0.0224,9.8066,0.0234,-0.009,-0.008,-24.86,12.72,-10.96,206.78,7.81,0.79
73487,51.08304,-3.006151,70,20.94,10,194.3,Dec-22,7349072,2019-08-16 14:51:42:852,0.4061,0.1244,9.8026,0.0065,-0.0378,9.8066,-0.0224,-0.0165,-0.008,-24.57,12.18,-12.17,204.22,7.74,0.57
73488,51.08304,-3.006151,70,20.94,10,194.3,Dec-22,7349172,2019-08-16 14:51:42:952,0.1481,-0.2901,9.6401,0.0288,-0.0172,9.8066,-0.0298,-0.0207,-0.0197,-25.65,11.91,-10.02,203.74,7.77,0.4
73489,51.08304,-3.006151,70,20.94,10,194.3,Dec-22,7349273,2019-08-16 14:51:43:053,-0.3037,-0.2591,9.3385,0.0403,-0.0454,9.8065,0.0202,-0.0122,-0.0229,-25.65,11.91,-10.02,203.74,7.77,0.4
73490,51.08304,-3.006151,70,20.94,10,194.3,Dec-22,7349374,2019-08-16 14:51:43:154,0.2977,0.6064,9.3735,0.0099,-0.005,9.8066,0.032,-0.0261,-0.0261,-24.34,12.87,-11.91,207.06,7.88,0.06
73491,51.08304,-3.006151,70,20.94,10,194.3,Dec-22,7349474,2019-08-16 14:51:43:254,-0.0108,-0.3583,10.401,0.0023,-0.0345,9.8066,0.0107,0.0187,-0.0165,-24.86,12.72,-10.96,206.38,7.8,-0.13
73492,51.08304,-3.006151,70,20.94,10,194.3,Dec-22,7349573,2019-08-16 14:51:43:353,0.0683,-0.0714,11.835,0.0022,-0.0127,9.8066,0.0362,-0.0229,-0.0165,-24.86,12.72,-10.96,206.38,7.8,-0.13
73493,51.08304,-3.006151,70,20.94,10,194.3,Dec-22,7349672,2019-08-16 14:51:43:452,0.1663,-0.1581,9.6745,0.001,-0.0194,9.8066,0.0362,-0.0229,-0.0165,-25.08,13.22,-9.8,206.52,7.78,-0.2
73494,51.08285,-3.006229,69,20.94,10,194.9,Dec-22,7349773,2019-08-16 14:51:43:553,0.2568,0.2946,9.6703,0.0122,-0.0316,9.8066,0.0075,0.0293,-0.0229,-25.06,12.81,-10.38,206.59,7.76,-0.4
73495,51.08285,-3.006229,69,20.94,10,194.9,Dec-22,7349872,2019-08-16 14:51:43:652,0.0187,0.2308,10.0349,-0.0004,-0.0034,9.8066,0.0714,-0.025,-0.0101,-24.59,12.96,-11.28,206.49,7.75,-0.42
73496,51.08285,-3.006229,69,20.94,10,194.9,Dec-22,7349973,2019-08-16 14:51:43:753,-0.5342,-0.3533,9.7346,0.0412,0.0156,9.8066,-0.0011,0.0123,-0.0304,-25.33,12.18,-10.49,206.49,7.75,-0.42
73497,51.08285,-3.006229,69,20.94,10,194.9,Dec-22,7350073,2019-08-16 14:51:43:853,-0.0697,-0.0444,9.5311,0.0603,-0.0091,9.8065,-0.0106,-0.0516,-0.0165,-25.33,12.18,-10.49,206.49,7.75,-0.42
73498,51.08285,-3.006229,69,20.94,10,194.9,Dec-22,7350173,2019-08-16 14:51:43:953,0.1195,0.0161,9.7377,-0.0038,-0.0157,9.8066,-0.0266,0.0826,-0.0091,-24.04,13.08,-12.29,207.32,8.04,-0.63
73499,51.08285,-3.006229,69,20.94,10,194.9,Dec-22,7350273,2019-08-16 14:51:44:053,0.0389,-0.1435,9.9322,0.0181,-0.0318,9.8066,0.0011,-0.0026,0.0112,-24.31,12.81,-12.04,207.32,8.04,-0.63
73500,51.08285,-3.006229,69,20.94,10,194.9,Dec-22,7350373,2019-08-16 14:51:44:153,0.1765,0.2212,10.7155,-0.0118,-0.0458,9.8065,-0.0032,0.0698,0.0122,-24.57,12.18,-12.16,204.77,7.86,-0.83
73501,51.08285,-3.006229,69,20.94,10,194.9,Dec-22,7350472,2019-08-16 14:51:44:252,-0.1184,-0.0376,11.3741,-0.0133,-0.0042,9.8066,-0.0032,0.0698,0.0122,-24.57,12.18,-12.16,204.77,7.86,-0.83
73502,51.08285,-3.006229,69,20.94,10,194.9,Dec-22,7350573,2019-08-16 14:51:44:353,-0.0175,-0.7826,8.718,-0.017,-0.0114,9.8066,-0.0288,0.0602,-0.0038,-24.03,12.71,-12.7,207.33,7.78,-0.82
73503,51.08285,-3.006229,69,20.94,10,194.9,Dec-22,7350673,2019-08-16 14:51:44:453,1.0647,0.3972,9.3814,0.0149,0.0069,9.8066,0.0107,-0.0623,-0.0176,-24.31,12.44,-12.43,205.61,7.87,-0.83
73504,51.08267,-3.006309,69,21.12,9,195.7,Nov-22,7350773,2019-08-16 14:51:44:553,-0.5219,-0.444,9.7635,0.0049,-0.0235,9.8066,0.0447,-0.0889,0.009,-24.34,12.87,-11.91,207.48,7.84,-0.97
73505,51.08267,-3.006309,69,21.12,9,195.7,Nov-22,7350872,2019-08-16 14:51:44:652,0.7459,0.3457,10.1192,0.0528,0.004,9.8065,0.0352,-0.0889,-0.041,-24.34,12.87,-11.91,207.48,7.84,-0.97
73506,51.08267,-3.006309,69,21.12,9,195.7,Nov-22,7350973,2019-08-16 14:51:44:753,0.2358,-0.3192,8.928,0.0105,-0.0165,9.8066,-0.0469,-0.0122,-0.0027,-24.3,13.67,-11.08,209.34,8.12,-1.09
73507,51.08267,-3.006309,69,21.12,9,195.7,Nov-22,7351072,2019-08-16 14:51:44:852,0.0061,0.0752,9.7305,-0.0089,-0.0094,9.8066,0.0181,0.073,-0.0027,-24.9,12.74,-10.85,206.73,8.13,-1.2
73508,51.08267,-3.006309,69,21.12,9,195.7,Nov-22,7351173,2019-08-16 14:51:44:953,0.637,-0.0284,9.5315,-0.0175,0.0018,9.8066,-0.0043,-0.0282,-0.007,-25.41,11.36,-11.21,203.13,8.04,-1.15
73509,51.08267,-3.006309,69,21.12,9,195.7,Nov-22,7351273,2019-08-16 14:51:45:053,0.0816,0.0331,8.5897,0.0072,0.0189,9.8066,0.0618,-0.0111,-0.0229,-24.88,13.16,-10.37,203.13,8.04,-1.15
73510,51.08267,-3.006309,69,21.12,9,195.7,Nov-22,7351373,2019-08-16 14:51:45:153,-0.3221,-0.0784,9.7826,-0.003,0.012,9.8066,0.0618,-0.0111,-0.0229,-24.88,13.16,-10.37,203.13,8.04,-1.15
73511,51.08267,-3.006309,69,21.12,9,195.7,Nov-22,7351473,2019-08-16 14:51:45:253,-0.3311,-0.2463,9.1344,-0.0211,0.0034,9.8066,-0.0245,-0.0261,-0.0048,-24.82,13.09,-10.61,206.69,8.05,-1.08
73512,51.08267,-3.006309,69,21.12,9,195.7,Nov-22,7351572,2019-08-16 14:51:45:352,-0.2413,0.1953,10.4224,-0.0481,0.0239,9.8065,0.0181,0.0656,-0.0112,-25.37,12.58,-9.91,206.69,8.05,-1.08
73513,51.08267,-3.006309,69,21.12,9,195.7,Nov-22,7351673,2019-08-16 14:51:45:453,-0.3664,-0.2839,9.5961,-0.0807,0.0456,9.8062,0.0011,-0.0218,-0.0112,-26.45,12.39,-6.84,204.34,7.75,-0.62
73514,51.08248,-3.006393,70,21.11,9,196.3,13 / 22,7351772,2019-08-16 14:51:45:552,0.2706,0.5925,9.6457,0.0141,0.0396,9.8066,-0.0437,-0.009,0.0058,-26.45,12.39,-6.84,204.34,7.75,-0.62
73515,51.08248,-3.006393,70,21.11,9,196.3,13 / 22,7351873,2019-08-16 14:51:45:653,0.4776,0.4539,9.6353,0.066,0.0674,9.8062,-0.0362,-0.0687,0.0229,-26.3,14.18,-2.72,204.34,7.75,-0.62
73516,51.08248,-3.006393,70,21.11,9,196.3,13 / 22,7351973,2019-08-16 14:51:45:753,0.6349,0.4965,10.0686,0.0331,-0.0092,9.8066,-0.0415,-0.0772,0.0005,-25.22,13.66,-8.78,208.39,8.27,-0.42
73517,51.08248,-3.006393,70,21.11,9,196.3,13 / 22,7352072,2019-08-16 14:51:45:852,-0.3162,0.0958,9.8474,0.0567,-0.0062,9.8065,0.0181,-0.0388,-0.0027,-25.22,13.66,-8.78,208.39,8.27,-0.42
73518,51.08248,-3.006393,70,21.11,9,196.3,13 / 22,7352173,2019-08-16 14:51:45:953,-0.3486,0.2195,10.2633,-0.0165,0.0154,9.8066,0.0181,-0.0388,-0.0027,-25.41,14.73,-6.08,210.48,8.54,-0.61
73519,51.08248,-3.006393,70,21.11,9,196.3,13 / 22,7352272,2019-08-16 14:51:46:052,-0.4154,0.0258,9.9254,-0.055,0.0179,9.8065,0.0384,0.0666,0.0133,-25.45,15.51,-3.46,212.51,8.5,-0.48
73520,51.08248,-3.006393,70,21.11,9,196.3,13 / 22,7352374,2019-08-16 14:51:46:154,-0.396,0.7975,10.9337,-0.1114,0.0192,9.806,0.0277,0.072,0.0037,-24.44,17.36,-1.1,215.42,8.01,-0.03
73521,51.08248,-3.006393,70,21.11,9,196.3,13 / 22,7352473,2019-08-16 14:51:46:253,0.4237,0.1499,10.0881,0.0039,0.0393,9.8066,-0.0607,-0.0218,0.009,-24.44,17.36,-1.1,215.42,8.01,-0.03
73522,51.08248,-3.006393,70,21.11,9,196.3,13 / 22,7352572,2019-08-16 14:51:46:352,0.2207,0.0342,8.6458,0.0159,0.003,9.8066,-0.0096,-0.025,-0.0176,-23.05,19.16,-1.27,219.66,8.17,0.14
73523,51.08248,-3.006393,70,21.11,9,196.3,13 / 22,7352673,2019-08-16 14:51:46:453,0.5187,0.1919,9.3333,0.0318,-0.0074,9.8066,-0.017,0.0293,0.0133,-24.95,15.84,-5.14,212.15,8.28,-0.01
73524,51.0823,-3.006485,69,21.49,10,196.5,13 / 22,7352773,2019-08-16 14:51:46:553,0.0209,-0.1147,10.3686,0.0227,-0.0034,9.8066,-0.017,0.0293,0.0133,-24.95,15.84,-5.14,212.15,8.28,-0.01
73525,51.0823,-3.006485,69,21.49,10,196.5,13 / 22,7352873,2019-08-16 14:51:46:653,0.0315,-0.091,9.4638,0.0184,0.0221,9.8066,-0.0075,0.0059,-0.0048,-25.02,15.43,-6.02,210.38,8.38,-0.1
73526,51.0823,-3.006485,69,21.49,10,196.5,13 / 22,7352973,2019-08-16 14:51:46:753,0.3437,0.3274,9.5355,0.022,0.0376,9.8066,-0.0266,0.0613,0.0207,-25.01,14.56,-7.9,210.06,8.61,0.03
73527,51.0823,-3.006485,69,21.49,10,196.5,13 / 22,7353073,2019-08-16 14:51:46:853,-0.2393,-0.2175,9.5311,-0.0372,-0.0008,9.8066,0.017,0.0134,0.0058,-25.7,13.18,-8.11,205.82,8.46,-0.07
73528,51.0823,-3.006485,69,21.49,10,196.5,13 / 22,7353172,2019-08-16 14:51:46:952,-0.3288,-0.0812,9.9059,-0.0359,0.007,9.8066,-0.0362,0.0155,-0.0038,-26.29,11.26,-9.05,205.82,8.46,-0.07
73529,51.0823,-3.006485,69,21.49,10,196.5,13 / 22,7353273,2019-08-16 14:51:47:053,-0.0596,0.6424,10.336,-0.0397,0.0249,9.8065,-0.0224,-0.0719,-0.0101,-25.18,12.48,-10.5,204.57,8.32,0.16
73530,51.0823,-3.006485,69,21.49,10,196.5,13 / 22,7353373,2019-08-16 14:51:47:153,-0.8707,-0.58,10.4381,0.0024,0.0074,9.8066,-0.0266,-0.0303,0.0058,-25.18,12.48,-10.5,204.57,8.32,0.16
73531,51.0823,-3.006485,69,21.49,10,196.5,13 / 22,7353473,2019-08-16 14:51:47:253,0.0793,-0.4741,11.1312,-0.0003,-0.015,9.8066,-0.0266,-0.0303,0.0058,-24.29,13.22,-11.63,206.94,8.35,0.2
73532,51.0823,-3.006485,69,21.49,10,196.5,13 / 22,7353572,2019-08-16 14:51:47:352,0.536,-0.3019,9.5314,0.0349,0.034,9.8065,-0.0458,-0.0186,-0.0123,-24.0,14.3,-10.94,208.88,8.31,0.12
73533,51.0823,-3.006485,69,21.49,10,196.5,13 / 22,7353673,2019-08-16 14:51:47:453,0.5195,-0.2259,9.4928,0.0485,0.0564,9.8064,0.0639,-0.0878,0.0005,-24.24,14.64,-9.91,208.88,8.31,0.12
73534,51.082115,-3.00656,69,21.25,10,196.3,13 / 22,7353773,2019-08-16 14:51:47:553,0.363,0.165,10.2775,0.0484,0.0449,9.8064,-0.0341,0.0048,0.041,-24.75,13.83,-9.8,208.03,8.68,0.21
73535,51.082115,-3.00656,69,21.25,10,196.3,13 / 22,7353872,2019-08-16 14:51:47:652,-0.4023,-0.1264,10.3084,-0.0057,0.0048,9.8066,0.0245,0.0485,-0.0091,-25.01,13.42,-9.72,208.03,8.68,0.21
73536,51.082115,-3.00656,69,21.25,10,196.3,13 / 22,7353973,2019-08-16 14:51:47:753,0.1474,0.0681,9.2737,-0.027,0.0298,9.8066,-0.0011,-0.091,-0.008,-25.01,13.42,-9.72,208.03,8.68,0.21
73537,51.082115,-3.00656,69,21.25,10,196.3,13 / 22,7354072,2019-08-16 14:51:47:852,-0.3787,0.0915,10.1082,-0.0264,0.0062,9.8066,0.032,0.0283,-0.0176,-24.55,14.02,-10.03,207.96,8.62,0.44
73538,51.082115,-3.00656,69,21.25,10,196.3,13 / 22,7354173,2019-08-16 14:51:47:953,-0.0766,-0.4276,10.0245,0.0015,0.0063,9.8066,0.033,0.056,0.008,-25.06,12.42,-10.84,204.3,8.46,0.5
73539,51.082115,-3.00656,69,21.25,10,196.3,13 / 22,7354272,2019-08-16 14:51:48:052,0.3705,0.3077,9.605,0.0013,0.0202,9.8066,0.033,0.056,0.008,-25.06,12.42,-10.84,204.3,8.46,0.5
73540,51.082115,-3.00656,69,21.25,10,196.3,13 / 22,7354373,2019-08-16 14:51:48:153,-0.8723,0.2119,9.8762,0.0078,0.0046,9.8066,-0.0064,-0.0058,-0.0059,-24.78,12.68,-11.2,206.03,8.51,0.61
73541,51.082115,-3.00656,69,21.25,10,196.3,13 / 22,7354473,2019-08-16 14:51:48:253,0.1759,0.625,10.0467,0.005,-0.0063,9.8066,-0.0405,0.008,-0.0059,-24.52,12.55,-11.88,205.88,8.57,0.61
73542,51.082115,-3.00656,69,21.25,10,196.3,13 / 22,7354576,2019-08-16 14:51:48:356,-0.8624,0.1242,9.7157,-0.003,-0.0092,9.8066,0.0437,-0.009,-0.0155,-24.52,12.55,-11.88,205.88,8.57,0.61
73543,51.082115,-3.00656,69,21.25,10,196.3,13 / 22,7354672,2019-08-16 14:51:48:452,0.0446,-0.7136,9.3504,0.0083,-0.0183,9.8066,0.0064,0.023,0.0016,-24.54,13.22,-11.09,206.05,8.53,0.57
73544,51.081936,-3.006656,69,21.21,9,196.3,13 / 22,7354773,2019-08-16 14:51:48:553,0.1183,-0.2112,10.836,0.0024,0.0005,9.8066,-0.0032,-0.0474,0.0197,-23.72,14.41,-11.4,208.73,8.52,0.45
73545,51.081936,-3.006656,69,21.21,9,196.3,13 / 22,7354872,2019-08-16 14:51:48:652,0.7876,-0.0131,10.3756,-0.0013,-0.0019,9.8066,-0.0075,-0.0058,-0.0293,-24.81,13.37,-10.27,206.24,8.51,0.45
73546,51.081936,-3.006656,69,21.21,9,196.3,13 / 22,7354973,2019-08-16 14:51:48:753,0.4032,-0.5264,9.7289,-0.0075,-0.0081,9.8066,-0.0064,0.0379,-0.0347,-24.25,13.85,-10.96,206.24,8.51,0.45
73547,51.081936,-3.006656,69,21.21,9,196.3,13 / 22,7355073,2019-08-16 14:51:48:853,0.5987,-0.4441,8.8246,0.0175,-0.0548,9.8065,-0.0064,0.0379,-0.0347,-24.25,13.85,-10.96,206.24,8.51,0.45
73548,51.081936,-3.006656,69,21.21,9,196.3,13 / 22,7355172,2019-08-16 14:51:48:952,0.3508,0.286,9.5446,0.012,0.0081,9.8066,0.0543,-0.0431,-0.0464,-24.54,13.22,-11.09,206.22,8.46,0.11
73549,51.081936,-3.006656,69,21.21,9,196.3,13 / 22,7355273,2019-08-16 14:51:49:053,-0.0264,-0.3952,10.8279,0.0218,-0.005,9.8066,0.0139,0.0272,-0.0048,-24.51,12.97,-11.45,206.24,8.56,0.03
73550,51.081936,-3.006656,69,21.21,9,196.3,13 / 22,7355372,2019-08-16 14:51:49:152,0.3521,-0.1247,10.0029,-0.0144,-0.0097,9.8066,-0.0011,0.0485,0.008,-24.51,12.97,-11.45,206.24,8.56,0.03
73551,51.081936,-3.006656,69,21.21,9,196.3,13 / 22,7355473,2019-08-16 14:51:49:253,-0.293,-0.1699,11.0604,-0.0331,-0.0074,9.8066,-0.0021,0.04,-0.0048,-24.51,13.56,-10.73,207.98,8.46,0.01
73552,51.081936,-3.006656,69,21.21,9,196.3,13 / 22,7355573,2019-08-16 14:51:49:353,-0.373,-0.0023,9.3004,-0.0613,-0.0045,9.8065,0.0117,-0.0633,-0.0197,-24.25,13.07,-11.88,206.99,8.13,0.16
73553,51.081936,-3.006656,69,21.21,9,196.3,13 / 22,7355673,2019-08-16 14:51:49:453,0.4421,0.4462,10.0833,0.0398,0.0099,9.8066,0.0224,-0.0804,-0.0325,-24.82,12.57,-11.22,206.99,8.13,0.16
73554,51.08176,-3.006737,70,21.04,9,196.7,13 / 22,7355772,2019-08-16 14:51:49:552,-0.1235,-0.8461,9.0394,0.051,-0.0114,9.8065,-0.0245,-0.0058,-0.0112,-24.82,12.57,-11.22,206.99,8.13,0.16
73555,51.08176,-3.006737,70,21.04,9,196.7,13 / 22,7355873,2019-08-16 14:51:49:653,-0.1159,-0.4649,9.9493,0.0623,-0.027,9.8064,0.016,-0.0058,-0.0208,-24.03,13.77,-11.54,208.83,8.39,-0.15
73556,51.08176,-3.006737,70,21.04,9,196.7,13 / 22,7355973,2019-08-16 14:51:49:753,0.3587,0.1737,9.6107,0.0238,-0.0335,9.8066,0.016,-0.0303,-0.0208,-24.25,13.07,-11.88,208.83,8.39,-0.15
73557,51.08176,-3.006737,70,21.04,9,196.7,13 / 22,7356073,2019-08-16 14:51:49:853,-0.2455,0.2276,10.1436,0.0238,-0.0335,9.8066,-0.0106,-0.0495,-0.0133,-24.15,11.97,-13.17,205.25,8.41,-0.39
73558,51.08176,-3.006737,70,21.04,9,196.7,13 / 22,7356172,2019-08-16 14:51:49:952,-0.7439,-0.4074,10.6385,-0.0212,-0.0221,9.8066,-0.0032,0.0538,0.0026,-24.22,12.4,-12.65,205.26,8.37,-0.4
73559,51.08176,-3.006737,70,21.04,9,196.7,13 / 22,7356273,2019-08-16 14:51:50:053,-0.0804,0.1175,10.5424,-0.0114,-0.0187,9.8066,0.0096,-0.0207,-0.0165,-24.22,12.4,-12.65,205.26,8.37,-0.4
73560,51.08176,-3.006737,70,21.04,9,196.7,13 / 22,7356374,2019-08-16 14:51:50:154,-0.1348,-0.0177,9.6471,0.0051,0.0058,9.8066,0.0288,0.0325,-0.008,-23.97,13.69,-11.74,208.98,8.26,-0.47
73561,51.08176,-3.006737,70,21.04,9,196.7,13 / 22,7356474,2019-08-16 14:51:50:254,-0.195,0.0412,9.8199,-0.004,0.0092,9.8066,0.0085,-0.0314,0.0144,-25.93,13.12,-7.45,206.04,8.3,-0.45
73562,51.08176,-3.006737,70,21.04,9,196.7,13 / 22,7356573,2019-08-16 14:51:50:353,0.4377,-0.1452,8.7728,-0.0383,0.0148,9.8066,-0.0224,-0.0069,-0.0315,-25.93,13.12,-7.45,206.04,8.3,-0.45
73563,51.08176,-3.006737,70,21.04,9,196.7,13 / 22,7356674,2019-08-16 14:51:50:454,0.6414,0.5855,8.7291,0.0076,0.0004,9.8066,-0.0224,-0.0069,-0.0315,-26.17,11.21,-9.45,202.24,8.14,-0.28
73564,51.081585,-3.006834,70,21.1,9,197.3,13 / 22,7356773,2019-08-16 14:51:50:553,0.97,0.1425,9.2666,0.0305,0.0087,9.8066,-0.0469,0.0421,-0.0261,-24.2,14.29,-10.49,209.16,8.32,-0.3
73565,51.081585,-3.006834,70,21.1,9,197.3,13 / 22,7356873,2019-08-16 14:51:50:653,0.4191,-0.469,8.7222,0.004,-0.0198,9.8066,-0.0053,0.024,-0.0219,-24.2,14.29,-10.49,209.16,8.32,-0.3
73566,51.081585,-3.006834,70,21.1,9,197.3,13 / 22,7356973,2019-08-16 14:51:50:753,-0.4815,0.0783,10.7377,-0.0073,-0.0247,9.8066,0.0064,0.0261,-0.0006,-23.39,14.59,-11.84,211.65,8.29,-0.41
73567,51.081585,-3.006834,70,21.1,9,197.3,13 / 22,7357072,2019-08-16 14:51:50:852,0.4831,0.2792,9.5085,-0.0244,-0.038,9.8065,-0.0202,0.0134,-0.0101,-24.27,13.51,-11.33,211.65,8.29,-0.41
73568,51.081585,-3.006834,70,21.1,9,197.3,13 / 22,7357173,2019-08-16 14:51:50:953,0.5617,-0.4011,9.6499,0.0121,0.0096,9.8066,-0.0021,0.057,-0.024,-24.23,14.17,-10.6,209.12,7.98,-0.42
73569,51.081585,-3.006834,70,21.1,9,197.3,13 / 22,7357272,2019-08-16 14:51:51:052,-0.1523,-0.2587,8.9635,0.0447,-0.0097,9.8065,-0.0373,-0.0218,-0.0187,-24.23,14.17,-10.6,209.12,7.98,-0.42
73570,51.081585,-3.006834,70,21.1,9,197.3,13 / 22,7357372,2019-08-16 14:51:51:152,0.2654,0.2522,10.1485,0.0108,-0.0285,9.8066,0.0533,-0.0655,-0.0101,-24.51,14.0,-10.15,208.34,8.18,-0.6
73571,51.081585,-3.006834,70,21.1,9,197.3,13 / 22,7357473,2019-08-16 14:51:51:253,0.3258,-0.3706,9.4616,0.0214,0.0043,9.8066,0.0692,0.0059,-0.0165,-24.79,12.94,-10.85,206.51,8.31,-0.64
73572,51.081585,-3.006834,70,21.1,9,197.3,13 / 22,7357573,2019-08-16 14:51:51:353,-0.1062,0.4507,10.175,-0.0119,0.0179,9.8066,0.0692,0.0059,-0.0165,-24.79,12.94,-10.85,206.51,8.31,-0.64
73573,51.081585,-3.006834,70,21.1,9,197.3,13 / 22,7357673,2019-08-16 14:51:51:453,-0.4045,-0.5801,10.5377,-0.0156,0.0123,9.8066,0.0256,0.008,-0.0187,-24.01,13.72,-11.63,208.99,8.29,-0.51
73574,51.08141,-3.006926,70,21.03,9,197.7,13 / 22,7357773,2019-08-16 14:51:51:553,-0.6604,-0.1014,9.373,-0.0219,0.0002,9.8066,-0.0085,0.024,-0.0038,-24.53,13.35,-10.95,206.46,8.18,-0.45
73575,51.08141,-3.006926,70,21.03,9,197.7,13 / 22,7357873,2019-08-16 14:51:51:653,-0.1422,0.127,10.0685,-0.0049,-0.0159,9.8066,0.0117,0.0421,-0.0165,-23.17,14.07,-12.86,209.87,8.11,-0.52
73576,51.08141,-3.006926,70,21.03,9,197.7,13 / 22,7357972,2019-08-16 14:51:51:752,0.6101,0.2432,10.3546,0.0008,-0.0059,9.8066,0.0309,0.0112,-0.0187,-23.17,14.07,-12.86,209.87,8.11,-0.52
73577,51.08141,-3.006926,70,21.03,9,197.7,13 / 22,7358072,2019-08-16 14:51:51:852,-0.2609,0.6133,11.5103,-0.0065,-0.0078,9.8066,-0.0256,0.1028,-0.0229,-24.03,13.77,-11.54,209.03,8.06,-0.54
73578,51.08141,-3.006926,70,21.03,9,197.7,13 / 22,7358174,2019-08-16 14:51:51:954,-0.1742,0.0273,9.6891,0.0352,0.0183,9.8066,-0.0043,0.0027,0.0026,-24.28,13.21,-11.66,209.03,8.06,-0.54
73579,51.08141,-3.006926,70,21.03,9,197.7,13 / 22,7358274,2019-08-16 14:51:52:054,-0.2467,0.0684,10.224,0.0173,0.0163,9.8066,0.0011,-0.025,0.009,-23.17,14.07,-12.86,209.85,8.29,-0.55
73580,51.08141,-3.006926,70,21.03,9,197.7,13 / 22,7358373,2019-08-16 14:51:52:153,-0.6245,-0.3434,9.7552,-0.0089,0.0361,9.8066,-0.0053,0.04,-0.0027,-23.17,14.07,-12.86,209.85,8.29,-0.55
73581,51.08141,-3.006926,70,21.03,9,197.7,13 / 22,7358473,2019-08-16 14:51:52:253,0.4022,0.5317,8.9903,-0.0336,-0.0128,9.8066,-0.0053,0.04,-0.0027,-23.43,14.62,-11.73,211.61,8.35,-0.34
73582,51.08141,-3.006926,70,21.03,9,197.7,13 / 22,7358573,2019-08-16 14:51:52:353,-1.005,-1.2977,10.7653,-0.0498,-0.0317,9.8065,-0.0778,-0.0878,0.0144,-23.45,14.16,-12.24,211.61,8.35,-0.34
73583,51.08141,-3.006926,70,21.03,9,197.7,13 / 22,7358673,2019-08-16 14:51:52:453,0.4678,0.3894,8.6332,0.0006,-0.0008,9.8066,0.1033,-0.1038,-0.0261,-25.02,12.03,-11.38,204.63,8.35,-0.35
73584,51.081226,-3.007022,70,21.06,9,198.2,13 / 22,7358772,2019-08-16 14:51:52:552,0.6713,0.6177,12.5617,-0.0053,-0.0318,9.8066,-0.0224,0.0581,-0.0421,-25.02,12.03,-11.38,204.63,8.35,-0.35
73585,51.081226,-3.007022,70,21.06,9,198.2,13 / 22,7358873,2019-08-16 14:51:52:653,-0.0669,0.245,10.649,0.0047,-0.0062,9.8066,0.0107,-0.0037,0.0197,-25.1,12.44,-10.74,204.7,8.24,-0.5
73586,51.081226,-3.007022,70,21.06,9,198.2,13 / 22,7358973,2019-08-16 14:51:52:753,0.0086,0.1419,9.4779,0.0207,-0.0068,9.8066,0.016,0.0443,0.0037,-24.26,14.04,-10.68,204.7,8.24,-0.5
73587,51.081226,-3.007022,70,21.06,9,198.2,13 / 22,7359073,2019-08-16 14:51:52:853,-0.113,0.071,9.3004,-0.022,-0.0006,9.8066,0.0213,0.0091,-0.007,-24.0,14.58,-10.56,210.77,8.29,-0.4
73588,51.081226,-3.007022,70,21.06,9,198.2,13 / 22,7359173,2019-08-16 14:51:52:953,-0.0958,0.1482,10.2171,-0.0195,0.0045,9.8066,0.0107,-0.0474,-0.0048,-24.0,14.58,-10.56,210.77,8.29,-0.4
73589,51.081226,-3.007022,70,21.06,9,198.2,13 / 22,7359273,2019-08-16 14:51:53:053,-0.01,0.1355,8.8734,0.0004,0.0197,9.8066,0.0107,-0.0474,-0.0048,-23.16,14.87,-11.93,211.62,8.21,-0.31
73590,51.081226,-3.007022,70,21.06,9,198.2,13 / 22,7359373,2019-08-16 14:51:53:153,0.4171,-0.2746,9.3372,-0.0128,0.0408,9.8066,0.0139,-0.0101,-0.0091,-23.16,14.87,-11.93,211.62,8.21,-0.31
73591,51.081226,-3.007022,70,21.06,9,198.2,13 / 22,7359473,2019-08-16 14:51:53:253,-0.0972,0.0422,9.4321,0.012,0.0103,9.8066,0.0288,0.0325,-0.0048,-23.07,15.94,-10.65,213.34,8.27,-0.07
73592,51.081226,-3.007022,70,21.06,9,198.2,13 / 22,7359573,2019-08-16 14:51:53:353,-0.1235,0.3249,9.8267,0.0228,0.0134,9.8066,-0.049,0.0432,0.0026,-23.13,15.2,-11.58,211.5,8.42,-0.08
73593,51.081226,-3.007022,70,21.06,9,198.2,13 / 22,7359672,2019-08-16 14:51:53:452,0.4828,-0.1864,10.0491,0.0099,-0.0167,9.8066,0.0011,-0.0165,-0.0165,-23.13,15.2,-11.58,211.5,8.42,-0.08
73594,51.08105,-3.00711,70,21.21,9,198.5,13 / 22,7359772,2019-08-16 14:51:53:552,-0.1763,-0.4535,10.0809,0.0008,-0.0497,9.8065,-0.0107,0.1103,-0.0112,-22.89,15.05,-12.23,211.62,8.27,-0.33
73595,51.08105,-3.00711,70,21.21,9,198.5,13 / 22,7359872,2019-08-16 14:51:53:652,0.1913,0.4303,10.9667,-0.0159,-0.0504,9.8065,-0.0053,0.072,0.0048,-23.47,14.64,-11.62,211.74,8.04,-0.53
73596,51.08105,-3.00711,70,21.21,9,198.5,13 / 22,7359972,2019-08-16 14:51:53:752,0.4435,-0.1214,9.2055,-0.0067,0.0239,9.8066,-0.0053,0.072,0.0048,-24.02,13.9,-11.4,211.74,8.04,-0.53
73597,51.08105,-3.00711,70,21.21,9,198.5,13 / 22,7360073,2019-08-16 14:51:53:853,0.2395,-0.3908,8.9493,-0.0243,0.0367,9.8066,-0.0107,-0.0165,0.0048,-24.02,13.9,-11.4,211.74,8.04,-0.53
73598,51.08105,-3.00711,70,21.21,9,198.5,13 / 22,7360173,2019-08-16 14:51:53:953,-0.5165,0.0601,10.064,0.026,0.0254,9.8066,0.0117,-0.0676,0.0112,-23.43,14.62,-11.73,211.64,8.03,-0.27
73599,51.08105,-3.00711,70,21.21,9,198.5,13 / 22,7360273,2019-08-16 14:51:54:053,-0.3407,-0.2052,9.2597,0.0444,0.0388,9.8065,0.0256,-0.0111,-0.0006,-23.18,14.47,-12.38,211.64,8.03,-0.27
73600,51.08105,-3.00711,70,21.21,9,198.5,13 / 22,7360373,2019-08-16 14:51:54:153,-0.642,0.2512,9.9156,0.0564,0.0732,9.8062,0.0384,-0.009,-0.0048,-23.18,14.47,-12.38,211.64,8.03,-0.27
73601,51.08105,-3.00711,70,21.21,9,198.5,13 / 22,7360473,2019-08-16 14:51:54:253,-0.2877,-0.3211,9.666,-0.0037,0.0151,9.8066,-0.0043,0.0347,-0.0048,-23.76,14.35,-11.38,208.92,8.54,-0.08
73602,51.08105,-3.00711,70,21.21,9,198.5,13 / 22,7360573,2019-08-16 14:51:54:353,-0.7027,0.0122,10.4057,-0.0049,0.0099,9.8066,-0.0138,0.0368,-0.0006,-23.96,14.95,-10.12,208.92,8.54,-0.08
73603,51.08105,-3.00711,70,21.21,9,198.5,13 / 22,7360672,2019-08-16 14:51:54:452,0.4396,0.0856,10.9918,-0.0156,-0.0044,9.8066,-0.0064,-0.0687,0.0112,-23.7,14.79,-10.94,210.63,8.44,-0.06
73604,51.08087,-3.007206,71,21.15,9,198.8,13 / 22,7360772,2019-08-16 14:51:54:552,-0.2041,-0.4874,9.8442,-0.0149,-0.0255,9.8066,-0.0064,-0.0687,0.0112,-23.7,14.79,-10.94,210.63,8.44,-0.06
73605,51.08087,-3.007206,71,21.15,9,198.8,13 / 22,7360873,2019-08-16 14:51:54:653,-0.2522,0.0491,9.4712,-0.0281,-0.0178,9.8066,0.0256,0.057,0.0005,-23.7,14.79,-10.94,210.68,8.29,-0.14
73606,51.08087,-3.007206,71,21.15,9,198.8,13 / 22,7360972,2019-08-16 14:51:54:752,0.4867,0.0129,9.5328,-0.033,-0.0007,9.8066,-0.0128,0.024,0.009,-23.43,14.62,-11.73,210.68,8.29,-0.14
73607,51.08087,-3.007206,71,21.15,9,198.8,13 / 22,7361073,2019-08-16 14:51:54:853,-0.5694,0.1139,10.354,0.0069,0.0143,9.8066,-0.0064,0.0016,-0.007,-24.24,14.64,-9.91,210.81,8.13,-0.05
73608,51.08087,-3.007206,71,21.15,9,198.8,13 / 22,7361172,2019-08-16 14:51:54:952,-0.0047,-0.7018,9.2302,0.0124,-0.0156,9.8066,-0.0021,-0.0186,0.0069,-23.11,15.97,-10.53,213.32,8.2,0.0
73609,51.08087,-3.007206,71,21.15,9,198.8,13 / 22,7361273,2019-08-16 14:51:55:053,-0.7503,0.0824,8.8111,-0.0054,0.0187,9.8066,0.0341,0.0315,-0.0133,-23.11,15.97,-10.53,213.32,8.2,0.0
73610,51.08087,-3.007206,71,21.15,9,198.8,13 / 22,7361373,2019-08-16 14:51:55:153,0.1918,1.184,10.2355,0.0257,0.0539,9.8065,-0.0479,0.0538,0.0112,-23.47,15.2,-10.89,211.6,8.24,0.11
73611,51.08087,-3.007206,71,21.15,9,198.8,13 / 22,7361473,2019-08-16 14:51:55:253,-0.6642,-0.4365,10.2481,-0.0171,-0.0138,9.8066,-0.0213,0.0592,0.0186,-23.2,14.76,-11.99,211.33,8.53,0.3
73612,51.08087,-3.007206,71,21.15,9,198.8,13 / 22,7361572,2019-08-16 14:51:55:352,-0.1617,0.3838,10.151,-0.0238,0.0052,9.8066,-0.0213,0.0592,0.0186,-23.47,13.86,-12.53,209.41,8.43,0.4
73613,51.08087,-3.007206,71,21.15,9,198.8,13 / 22,7361673,2019-08-16 14:51:55:453,0.3582,-0.5177,9.6346,-0.0148,-0.0248,9.8066,-0.0415,0.024,-0.0112,-23.47,13.86,-12.53,209.41,8.43,0.4
73614,51.08069,-3.0073,72,21.17,9,198.7,13 / 22,7361772,2019-08-16 14:51:55:552,-0.451,-0.1207,9.724,-0.0214,-0.0442,9.8065,0.0117,0.023,0.0154,-23.73,12.91,-13.04,206.81,8.19,0.24
73615,51.08069,-3.0073,72,21.17,9,198.7,13 / 22,7361874,2019-08-16 14:51:55:654,0.187,0.399,9.8908,-0.0034,0.0394,9.8066,0.0096,0.0134,0.0197,-23.96,14.28,-11.05,208.85,8.0,0.3
73616,51.08069,-3.0073,72,21.17,9,198.7,13 / 22,7361973,2019-08-16 14:51:55:753,0.2295,0.0678,9.8551,0.022,0.0441,9.8065,0.0032,0.0112,-0.0059,-22.87,15.21,-12.06,211.31,8.23,0.47
73617,51.08069,-3.0073,72,21.17,9,198.7,13 / 22,7362073,2019-08-16 14:51:55:853,-0.3827,-0.5595,8.2376,0.0109,-0.0037,9.8066,-0.0096,0.0847,-0.0027,-22.87,15.21,-12.06,211.31,8.23,0.47
73618,51.08069,-3.0073,72,21.17,9,198.7,13 / 22,7362173,2019-08-16 14:51:55:953,0.1954,0.2274,8.9089,0.0232,0.0161,9.8066,-0.0192,-0.0175,-0.0038,-22.92,14.71,-12.59,211.16,8.28,0.42
73619,51.08069,-3.0073,72,21.17,9,198.7,13 / 22,7362273,2019-08-16 14:51:56:053,0.2195,-0.4892,9.4207,0.0219,0.0277,9.8066,-0.0075,0.0102,-0.0144,-23.16,15.23,-11.47,211.16,8.28,0.42
73620,51.08069,-3.0073,72,21.17,9,198.7,13 / 22,7362373,2019-08-16 14:51:56:153,-0.091,-0.086,10.4172,0.0091,0.0293,9.8066,0.017,0.0592,-0.0219,-23.17,15.49,-11.1,211.42,8.41,0.54
73621,51.08069,-3.0073,72,21.17,9,198.7,13 / 22,7362472,2019-08-16 14:51:56:252,0.4047,0.3387,9.7364,-0.0086,-0.0139,9.8066,0.017,0.0592,-0.0219,-23.39,15.38,-10.79,211.42,8.41,0.54
73622,51.08069,-3.0073,72,21.17,9,198.7,13 / 22,7362573,2019-08-16 14:51:56:353,0.26,0.1174,9.8678,-0.0275,-0.0142,9.8066,0.0362,-0.0111,-0.0165,-23.93,15.22,-9.78,210.59,8.23,0.55
73623,51.08069,-3.0073,72,21.17,9,198.7,13 / 22,7362673,2019-08-16 14:51:56:453,0.4195,-0.5066,9.6876,0.003,-0.0074,9.8066,-0.0117,0.0432,-0.0208,-23.93,15.22,-9.78,210.59,8.23,0.55
73624,51.080513,-3.0074,72,21.11,10,198.9,13 / 22,7362773,2019-08-16 14:51:56:553,-0.0972,-0.0931,10.6955,0.0052,-0.0314,9.8066,-0.0053,0.0613,-0.024,-24.03,14.51,-10.6,210.59,8.23,0.55
73625,51.080513,-3.0074,72,21.11,10,198.9,13 / 22,7362873,2019-08-16 14:51:56:653,0.0762,0.3616,10.5836,0.0244,-0.021,9.8066,0.0181,-0.0143,-0.0229,-24.24,14.64,-9.91,210.66,8.16,0.38
73626,51.080513,-3.0074,72,21.11,10,198.9,13 / 22,7362973,2019-08-16 14:51:56:753,-0.2219,0.2608,10.1667,0.0299,-0.0337,9.8065,-0.0107,0.0112,-0.0091,-24.24,14.64,-9.91,210.66,8.16,0.38
73627,51.080513,-3.0074,72,21.11,10,198.9,13 / 22,7363073,2019-08-16 14:51:56:853,-0.2497,-0.5575,10.1908,0.0002,0.0017,9.8067,0.0107,0.0208,-0.0133,-23.96,14.95,-10.12,210.74,8.21,0.12
73628,51.080513,-3.0074,72,21.11,10,198.9,13 / 22,7363174,2019-08-16 14:51:56:954,0.7487,-0.3447,8.4306,-0.009,-0.002,9.8066,-0.0075,-0.0005,-0.0038,-24.24,14.64,-9.91,210.74,8.16,0.13
73629,51.080513,-3.0074,72,21.11,10,198.9,13 / 22,7363273,2019-08-16 14:51:57:053,-0.5396,-0.0605,9.5966,0.0127,0.0016,9.8066,-0.0075,-0.0005,-0.0038,-24.24,14.64,-9.91,210.74,8.16,0.13
73630,51.080513,-3.0074,72,21.11,10,198.9,13 / 22,7363374,2019-08-16 14:51:57:154,0.1995,0.3581,9.6318,0.0191,0.0131,9.8066,-0.0192,-0.0314,-0.008,-24.0,14.97,-10.0,210.74,8.23,0.1
73631,51.080513,-3.0074,72,21.11,10,198.9,13 / 22,7363473,2019-08-16 14:51:57:253,0.1479,-0.3509,10.2069,0.0128,-0.0222,9.8066,-0.0213,0.072,-0.0006,-23.71,15.22,-10.3,210.73,8.37,0.11
73632,51.080513,-3.0074,72,21.11,10,198.9,13 / 22,7363573,2019-08-16 14:51:57:353,0.4886,-0.3247,9.4286,0.0211,-0.0111,9.8066,-0.0107,-0.0207,-0.0038,-23.21,14.9,-11.82,211.47,8.44,-0.01
73633,51.080513,-3.0074,72,21.11,10,198.9,13 / 22,7363674,2019-08-16 14:51:57:454,0.21,-0.2407,9.9196,-0.0113,-0.0142,9.8066,-0.0224,0.0656,0.008,-23.21,14.9,-11.82,211.47,8.44,-0.01
73634,51.080334,-3.0075,71,21.1,10,199.2,13 / 22,7363772,2019-08-16 14:51:57:552,-0.099,-0.1873,9.2443,-0.0177,-0.0143,9.8066,0.0021,-0.0953,-0.0102,-23.46,14.38,-11.95,209.76,8.31,-0.03
73635,51.080334,-3.0075,71,21.1,10,199.2,13 / 22,7363872,2019-08-16 14:51:57:652,-0.3032,0.1154,9.8443,0.0191,-0.0132,9.8066,0.0021,-0.0953,-0.0102,-23.46,14.38,-11.95,209.78,8.25,-0.04
73636,51.080334,-3.0075,71,21.1,10,199.2,13 / 22,7363973,2019-08-16 14:51:57:753,0.2746,0.1837,9.1916,0.0187,-0.0246,9.8066,0.0032,-0.0058,-0.0133,-23.46,14.38,-11.95,209.78,8.25,-0.04
73637,51.080334,-3.0075,71,21.1,10,199.2,13 / 22,7364073,2019-08-16 14:51:57:853,-0.0208,-0.3141,9.8797,0.0091,0.019,9.8066,0.0021,0.0421,0.0175,-23.46,14.38,-11.95,209.85,8.27,-0.22
73638,51.080334,-3.0075,71,21.1,10,199.2,13 / 22,7364173,2019-08-16 14:51:57:953,-0.1222,0.4376,11.5476,-0.0183,0.0426,9.8065,0.0,0.0048,0.0271,-23.46,14.38,-11.95,209.85,8.27,-0.22
73639,51.080334,-3.0075,71,21.1,10,199.2,13 / 22,7364272,2019-08-16 14:51:58:052,0.1314,0.222,10.5577,0.0064,0.0301,9.8066,-0.0011,-0.0143,-0.0144,-22.02,15.42,-13.32,212.37,8.3,0.05
73640,51.080334,-3.0075,71,21.1,10,199.2,13 / 22,7364373,2019-08-16 14:51:58:153,-0.3824,0.33,10.659,-0.019,-0.0154,9.8066,-0.0543,0.0943,0.0143,-22.6,15.61,-12.07,213.07,8.43,0.18
73641,51.080334,-3.0075,71,21.1,10,199.2,13 / 22,7364473,2019-08-16 14:51:58:253,-0.897,-0.2247,10.7306,-0.0275,-0.0404,9.8065,-0.0224,0.0187,-0.0251,-22.79,16.51,-10.39,213.07,8.43,0.18
73642,51.080334,-3.0075,71,21.1,10,199.2,13 / 22,7364573,2019-08-16 14:51:58:353,-0.0824,0.4146,8.9611,-0.026,-0.041,9.8065,-0.0224,0.0187,-0.0251,-22.79,16.51,-10.39,213.07,8.43,0.18
73643,51.080334,-3.0075,71,21.1,10,199.2,13 / 22,7364673,2019-08-16 14:51:58:453,0.1427,-0.0332,10.1915,0.018,-0.0092,9.8066,-0.0064,-0.0399,-0.0059,-23.65,15.81,-9.54,212.42,8.17,0.06
73644,51.080154,-3.007598,71,21.02,10,199.5,13 / 22,7364772,2019-08-16 14:51:58:552,-0.0608,0.0833,10.4448,0.0234,0.0121,9.8066,-0.0245,0.008,0.0122,-23.69,15.07,-10.58,210.61,8.32,0.05
73645,51.080154,-3.007598,71,21.02,10,199.5,13 / 22,7364872,2019-08-16 14:51:58:652,-0.2817,0.1502,10.7432,0.0223,0.0035,9.8066,0.0309,-0.1305,-0.0197,-23.69,15.07,-10.58,210.61,8.32,0.05
73646,51.080154,-3.007598,71,21.02,10,199.5,13 / 22,7364973,2019-08-16 14:51:58:753,0.0747,0.3647,9.5846,0.0057,0.0044,9.8066,0.0416,0.0102,-0.024,-23.76,14.64,-11.02,210.61,8.44,0.0
73647,51.080154,-3.007598,71,21.02,10,199.5,13 / 22,7365072,2019-08-16 14:51:58:852,0.0989,-0.1194,10.3248,-0.0185,-0.015,9.8066,-0.0383,0.0155,0.0069,-23.76,14.35,-11.38,208.9,8.49,0.01
73648,51.080154,-3.007598,71,21.02,10,199.5,13 / 22,7365173,2019-08-16 14:51:58:953,0.5939,-0.2188,10.2649,-0.0058,-0.016,9.8066,0.0245,-0.009,-0.0112,-23.74,14.81,-10.82,210.63,8.35,-0.02
73649,51.080154,-3.007598,71,21.02,10,199.5,13 / 22,7365273,2019-08-16 14:51:59:053,-0.1195,-0.3866,8.8572,0.0041,-0.0112,9.8066,0.0139,0.0549,-0.0112,-23.74,14.81,-10.82,210.63,8.35,-0.02
73650,51.080154,-3.007598,71,21.02,10,199.5,13 / 22,7365373,2019-08-16 14:51:59:153,-0.1382,-0.0419,10.0062,-0.0086,-0.0111,9.8066,0.0139,0.0549,-0.0112,-23.74,14.81,-10.82,210.65,8.34,-0.09
73651,51.080154,-3.007598,71,21.02,10,199.5,13 / 22,7365473,2019-08-16 14:51:59:253,-0.7533,-0.2717,9.6039,-0.0171,0.0179,9.8066,0.0192,0.0261,0.008,-23.96,15.24,-9.66,210.75,8.3,0.05
73652,51.080154,-3.007598,71,21.02,10,199.5,13 / 22,7365573,2019-08-16 14:51:59:353,-0.2898,0.4128,10.6327,-0.0098,-0.0016,9.8066,-0.0053,-0.0452,-0.0006,-23.96,15.24,-9.66,210.75,8.3,0.05
73653,51.080154,-3.007598,71,21.02,10,199.5,13 / 22,7365673,2019-08-16 14:51:59:453,0.2907,0.2709,9.8106,0.0088,0.0247,9.8066,-0.0064,0.0059,-0.0251,-24.0,14.97,-10.0,210.75,8.25,0.08
73654,51.07998,-3.007705,72,21.01,10,199.9,Nov-22,7365773,2019-08-16 14:51:59:553,0.1928,0.2782,9.3245,0.0334,0.0078,9.8066,-0.0277,0.0975,-0.008,-23.16,15.67,-10.86,213.29,8.44,0.01
73655,51.07998,-3.007705,72,21.01,10,199.9,Nov-22,7365872,2019-08-16 14:51:59:652,0.001,-0.6856,9.7409,-0.0021,-0.0529,9.8065,0.0043,-0.0037,0.0069,-23.16,15.67,-10.86,213.29,8.44,0.01
73656,51.07998,-3.007705,72,21.01,10,199.9,Nov-22,7365973,2019-08-16 14:51:59:753,0.2961,0.1214,9.9206,-0.0024,0.0249,9.8066,0.0543,-0.0431,-0.0027,-23.67,15.56,-9.87,212.5,8.23,-0.22
73657,51.07998,-3.007705,72,21.01,10,199.9,Nov-22,7366073,2019-08-16 14:51:59:853,-0.472,0.1631,9.8709,-0.017,0.0479,9.8065,0.0309,0.0293,-0.0272,-21.69,16.74,-12.21,212.5,8.23,-0.22
73658,51.07998,-3.007705,72,21.01,10,199.9,Nov-22,7366172,2019-08-16 14:51:59:952,-0.118,0.1712,9.4995,-0.0131,0.0385,9.8066,-0.0075,-0.0186,-0.0102,-23.96,15.24,-9.66,210.77,8.29,0.01
73659,51.07998,-3.007705,72,21.01,10,199.9,Nov-22,7366272,2019-08-16 14:52:00:052,-0.0595,-0.1478,9.6275,0.0044,-0.0013,9.8066,-0.0075,-0.0186,-0.0102,-23.96,15.24,-9.66,210.77,8.29,0.01
73660,51.07998,-3.007705,72,21.01,10,199.9,Nov-22,7366374,2019-08-16 14:52:00:154,0.5395,0.2405,9.9351,0.0043,-0.0038,9.8066,0.0234,-0.0133,-0.0187,-23.67,15.56,-9.87,212.42,8.31,-0.01
73661,51.07998,-3.007705,72,21.01,10,199.9,Nov-22,7366473,2019-08-16 14:52:00:253,0.3008,0.1284,9.5834,0.0002,-0.0221,9.8066,0.0085,0.0421,-0.0091,-23.96,15.24,-9.66,210.82,8.24,-0.12
73662,51.07998,-3.007705,72,21.01,10,199.9,Nov-22,7366572,2019-08-16 14:52:00:352,-0.2392,0.0436,9.8334,-0.0201,-0.034,9.8066,0.0213,0.0379,0.0058,-23.96,15.24,-9.66,210.82,8.24,-0.12
73663,51.07998,-3.007705,72,21.01,10,199.9,Nov-22,7366673,2019-08-16 14:52:00:453,-0.2287,-0.4077,10.066,-0.0322,-0.0293,9.8066,-0.0437,0.0272,0.0314,-24.25,14.31,-10.36,209.15,7.99,-0.17
73664,51.079803,-3.007809,73,21.04,10,200.3,Nov-22,7366774,2019-08-16 14:52:00:554,-0.435,-0.4861,7.9802,-0.0025,-0.0121,9.8066,-0.0021,0.0794,-0.0112,-24.25,14.31,-10.36,209.15,7.99,-0.17
73665,51.079803,-3.007809,73,21.04,10,200.3,Nov-22,7366872,2019-08-16 14:52:00:652,0.0535,-0.3651,10.6841,0.0494,0.0316,9.8065,-0.032,0.0251,0.0005,-24.0,14.97,-10.0,210.89,8.09,-0.31
73666,51.079803,-3.007809,73,21.04,10,200.3,Nov-22,7366973,2019-08-16 14:52:00:753,0.9307,-0.4267,10.2236,-0.0001,-0.0058,9.8066,-0.032,0.0251,0.0005,-23.48,15.07,-11.01,211.73,8.43,-0.3
73667,51.079803,-3.007809,73,21.04,10,200.3,Nov-22,7367073,2019-08-16 14:52:00:853,0.5545,-0.0587,9.3187,-0.0174,-0.0132,9.8066,0.0202,-0.0005,0.025,-23.48,15.07,-11.01,211.73,8.43,-0.3
73668,51.079803,-3.007809,73,21.04,10,200.3,Nov-22,7367172,2019-08-16 14:52:00:952,0.0881,-0.0952,11.3217,-0.0175,0.0025,9.8066,0.0053,0.0485,-0.0027,-23.03,16.46,-9.93,213.57,8.31,-0.31
73669,51.079803,-3.007809,73,21.04,10,200.3,Nov-22,7367273,2019-08-16 14:52:01:053,-0.2673,-0.7839,8.9955,-0.0619,-0.017,9.8064,-0.0383,0.0805,-0.0016,-22.84,16.24,-10.71,213.57,8.31,-0.31
73670,51.079803,-3.007809,73,21.04,10,200.3,Nov-22,7367372,2019-08-16 14:52:01:152,-0.2138,0.147,10.7706,-0.0708,-0.015,9.8064,-0.0085,-0.0229,0.0037,-22.51,16.78,-10.56,215.03,7.91,-0.15
73671,51.079803,-3.007809,73,21.04,10,200.3,Nov-22,7367473,2019-08-16 14:52:01:253,0.4742,0.1239,10.6059,0.0275,-0.0064,9.8066,0.0554,-0.0868,-0.0187,-22.51,16.78,-10.56,215.03,7.91,-0.15
73672,51.079803,-3.007809,73,21.04,10,200.3,Nov-22,7367572,2019-08-16 14:52:01:352,0.252,-0.3714,9.1502,0.021,0.0398,9.8065,-0.0053,-0.0538,0.0048,-22.47,17.03,-10.24,216.35,8.02,-0.28
73673,51.079803,-3.007809,73,21.04,10,200.3,Nov-22,7367672,2019-08-16 14:52:01:452,-0.113,0.2923,10.3865,0.0062,0.0392,9.8066,-0.0053,-0.0538,0.0048,-23.03,16.46,-9.93,213.52,8.19,-0.11
73674,51.07963,-3.007919,73,20.89,10,200.7,Dec-22,7367772,2019-08-16 14:52:01:552,0.2461,0.3572,10.0289,-0.0155,-0.0128,9.8066,-0.0224,0.04,-0.0112,-23.03,16.46,-9.93,213.52,8.19,-0.11
73675,51.07963,-3.007919,73,20.89,10,200.7,Dec-22,7367873,2019-08-16 14:52:01:653,-0.1453,-0.1115,9.8,0.0009,0.0034,9.8067,-0.0138,0.0315,0.0005,-23.33,16.35,-9.41,213.69,8.1,-0.14
73676,51.07963,-3.007919,73,20.89,10,200.7,Dec-22,7367972,2019-08-16 14:52:01:752,-0.0557,-0.9889,8.1159,-0.0182,-0.0275,9.8066,-0.0011,-0.009,-0.0091,-22.86,15.79,-11.31,213.38,8.12,-0.13
73677,51.07963,-3.007919,73,20.89,10,200.7,Dec-22,7368073,2019-08-16 14:52:01:853,0.5793,0.5004,10.1911,-0.045,-0.0441,9.8064,0.017,-0.0463,-0.0102,-22.84,15.54,-11.7,213.32,7.76,-0.2
73678,51.07963,-3.007919,73,20.89,10,200.7,Dec-22,7368173,2019-08-16 14:52:01:953,0.0454,0.5232,10.0826,-0.0178,0.0139,9.8066,0.0309,0.0538,0.0165,-22.6,15.38,-12.36,211.61,7.71,-0.07
73679,51.07963,-3.007919,73,20.89,10,200.7,Dec-22,7368273,2019-08-16 14:52:02:053,-0.3121,0.6275,9.1314,0.0078,0.0473,9.8065,-0.033,0.0208,-0.0102,-22.6,15.38,-12.36,211.61,7.71,-0.07
73680,51.07963,-3.007919,73,20.89,10,200.7,Dec-22,7368373,2019-08-16 14:52:02:153,-0.7451,0.0931,10.1519,0.006,-0.0033,9.8066,-0.0256,0.0283,0.0026,-23.16,15.23,-11.47,211.64,7.9,0.14
73681,51.07963,-3.007919,73,20.89,10,200.7,Dec-22,7368472,2019-08-16 14:52:02:252,-0.0212,-0.1153,9.8615,0.0078,-0.002,9.8066,0.0,-0.0538,-0.008,-23.74,14.81,-10.82,210.64,7.93,0.11
73682,51.07963,-3.007919,73,20.89,10,200.7,Dec-22,7368573,2019-08-16 14:52:02:353,0.0241,-0.2665,8.4921,0.0082,-0.0028,9.8066,0.0,-0.0538,-0.008,-23.74,14.81,-10.82,210.64,7.93,0.11
73683,51.07963,-3.007919,73,20.89,10,200.7,Dec-22,7368673,2019-08-16 14:52:02:453,0.4757,0.2363,9.6894,0.0356,0.0089,9.8066,0.0149,0.0091,0.0016,-22.9,15.49,-11.66,211.49,8.14,0.04
73684,51.079445,-3.008024,74,20.95,10,200.8,Dec-22,7368773,2019-08-16 14:52:02:553,-0.6409,0.1445,10.734,-0.0336,0.0194,9.8066,0.0202,0.0027,-0.0016,-22.9,15.49,-11.66,211.49,8.14,0.04
73685,51.079445,-3.008024,74,20.95,10,200.8,Dec-22,7368873,2019-08-16 14:52:02:653,0.2874,0.567,10.1911,-0.0184,-0.002,9.8066,0.0011,0.056,-0.0187,-24.0,14.79,-10.25,210.72,8.03,0.24
73686,51.079445,-3.008024,74,20.95,10,200.8,Dec-22,7368972,2019-08-16 14:52:02:752,0.1401,0.4532,10.7143,-0.0068,-0.014,9.8066,-0.0202,-0.0122,-0.0027,-24.25,14.31,-10.36,209.01,7.93,0.29
73687,51.079445,-3.008024,74,20.95,10,200.8,Dec-22,7369073,2019-08-16 14:52:02:853,-0.5169,0.1063,10.2717,-0.0156,-0.0144,9.8066,0.0245,0.0091,0.0016,-24.53,14.15,-9.89,209.01,7.93,0.29
73688,51.079445,-3.008024,74,20.95,10,200.8,Dec-22,7369173,2019-08-16 14:52:02:953,-0.311,0.0027,9.5481,-0.0264,-0.0027,9.8066,0.0032,-0.0367,-0.0006,-24.53,14.15,-9.89,209.01,7.93,0.29
73689,51.079445,-3.008024,74,20.95,10,200.8,Dec-22,7369273,2019-08-16 14:52:03:053,0.0097,0.1463,9.374,0.0077,0.0101,9.8066,0.0032,-0.0367,-0.0006,-23.74,14.81,-10.82,210.57,7.79,0.35
73690,51.079445,-3.008024,74,20.95,10,200.8,Dec-22,7369373,2019-08-16 14:52:03:153,-0.0527,-0.1609,9.4434,0.0421,0.0418,9.8065,0.0032,-0.0463,0.0122,-23.09,16.18,-10.25,213.34,8.12,0.44
73691,51.079445,-3.008024,74,20.95,10,200.8,Dec-22,7369473,2019-08-16 14:52:03:253,-0.1879,0.1363,11.0304,0.0057,0.0081,9.8066,0.0128,-0.0431,0.009,-23.09,16.18,-10.25,213.34,8.12,0.44
73692,51.079445,-3.008024,74,20.95,10,200.8,Dec-22,7369572,2019-08-16 14:52:03:352,-0.0589,-0.3556,10.1485,0.0159,0.0045,9.8066,-0.0224,0.073,0.0058,-23.43,15.58,-10.41,213.34,8.21,0.41
73693,51.079445,-3.008024,74,20.95,10,200.8,Dec-22,7369673,2019-08-16 14:52:03:453,0.1126,-0.2421,9.9506,0.0052,-0.032,9.8066,-0.016,0.0304,-0.0091,-23.36,15.89,-10.08,213.36,8.19,0.37
73694,51.079273,-3.008138,74,20.98,10,201.0,Dec-22,7369773,2019-08-16 14:52:03:553,-0.2304,-0.012,10.7171,-0.0018,-0.0652,9.8064,-0.0309,0.0677,-0.0006,-23.39,15.38,-10.79,213.36,8.19,0.37
73695,51.079273,-3.008138,74,20.98,10,201.0,Dec-22,7369873,2019-08-16 14:52:03:653,-0.2024,-0.6052,9.9769,0.0003,-0.0872,9.8063,-0.0362,0.0112,-0.0112,-24.0,14.97,-10.0,210.84,7.91,-0.06
73696,51.079273,-3.008138,74,20.98,10,201.0,Dec-22,7369972,2019-08-16 14:52:03:752,-0.2843,-0.6545,9.5906,0.0082,-0.0099,9.8066,0.0139,-0.0292,-0.0038,-24.0,14.97,-10.0,210.84,7.91,-0.06
73697,51.079273,-3.008138,74,20.98,10,201.0,Dec-22,7370073,2019-08-16 14:52:03:853,-0.2185,-0.4282,9.4884,0.0173,-0.0029,9.8066,0.0139,-0.0292,-0.0038,-23.11,15.97,-10.53,213.41,7.92,-0.14
73698,51.079273,-3.008138,74,20.98,10,201.0,Dec-22,7370173,2019-08-16 14:52:03:953,-0.3479,-0.4245,9.0904,0.0109,-0.0152,9.8066,-0.0181,0.0741,-0.0048,-23.74,14.81,-10.82,210.74,8.0,-0.21
73699,51.079273,-3.008138,74,20.98,10,201.0,Dec-22,7370273,2019-08-16 14:52:04:053,0.0904,0.0708,9.359,0.0083,-0.0262,9.8066,0.0171,0.04,0.0048,-23.11,15.97,-10.53,213.49,7.96,-0.36
73700,51.079273,-3.008138,74,20.98,10,201.0,Dec-22,7370373,2019-08-16 14:52:04:153,0.1566,0.115,10.5736,0.0015,0.0097,9.8066,-0.0011,-0.0229,0.0005,-23.72,15.09,-10.46,213.49,7.96,-0.36
73701,51.079273,-3.008138,74,20.98,10,201.0,Dec-22,7370473,2019-08-16 14:52:04:253,0.5398,0.1819,9.073,0.0038,0.0069,9.8066,0.0192,-0.0069,-0.0283,-23.72,15.09,-10.46,213.49,7.96,-0.36
73702,51.079273,-3.008138,74,20.98,10,201.0,Dec-22,7370573,2019-08-16 14:52:04:353,-0.0157,0.9181,10.8138,0.003,0.0167,9.8066,0.0501,0.089,-0.0176,-23.5,15.22,-10.78,211.83,7.87,-0.36
73703,51.079273,-3.008138,74,20.98,10,201.0,Dec-22,7370672,2019-08-16 14:52:04:452,-0.039,-0.0051,10.4732,-0.0089,0.0004,9.8066,0.0117,-0.0175,-0.0016,-23.5,15.22,-10.78,211.83,7.87,-0.36
73704,51.079098,-3.008244,74,20.94,9,201.5,Dec-22,7370773,2019-08-16 14:52:04:553,-0.251,-0.0865,10.3496,0.0058,0.0085,9.8066,0.0565,0.0176,-0.0155,-23.43,15.13,-11.05,211.82,7.83,-0.33
73705,51.079098,-3.008244,74,20.94,9,201.5,Dec-22,7370872,2019-08-16 14:52:04:652,-0.2946,0.1429,9.3799,-0.0123,0.0252,9.8066,0.0565,0.0176,-0.0155,-22.58,15.01,-12.85,211.54,7.88,-0.31
73706,51.079098,-3.008244,74,20.94,9,201.5,Dec-22,7370973,2019-08-16 14:52:04:753,0.4999,0.6239,8.9662,-0.0138,0.0307,9.8066,-0.0075,-0.0047,-0.0229,-23.18,14.72,-12.09,211.54,7.88,-0.31
73707,51.079098,-3.008244,74,20.94,9,201.5,Dec-22,7371073,2019-08-16 14:52:04:853,0.3396,-0.1512,8.8168,0.0027,0.0403,9.8066,-0.0266,0.056,-0.0251,-22.93,15.08,-12.12,211.57,8.02,-0.11
73708,51.079098,-3.008244,74,20.94,9,201.5,Dec-22,7371173,2019-08-16 14:52:04:953,0.1777,-0.0837,11.2052,0.0068,-0.0012,9.8066,-0.0053,0.0272,-0.007,-22.93,15.08,-12.12,211.57,8.02,-0.11
73709,51.079098,-3.008244,74,20.94,9,201.5,Dec-22,7371272,2019-08-16 14:52:05:052,0.0294,-0.5285,9.6091,-0.0047,0.0183,9.8066,-0.0234,0.0368,-0.0112,-22.02,15.42,-13.32,212.5,8.05,-0.14
73710,51.079098,-3.008244,74,20.94,9,201.5,Dec-22,7371373,2019-08-16 14:52:05:153,-0.203,0.4408,10.624,-0.0307,0.0061,9.8066,-0.0011,0.0506,0.0048,-22.6,15.38,-12.36,212.5,8.05,-0.14
73711,51.079098,-3.008244,74,20.94,9,201.5,Dec-22,7371473,2019-08-16 14:52:05:253,0.2261,-0.1059,9.0218,-0.0461,-0.0055,9.8065,0.0213,0.0656,0.0005,-23.02,16.68,-9.59,215.16,7.81,-0.02
73712,51.079098,-3.008244,74,20.94,9,201.5,Dec-22,7371573,2019-08-16 14:52:05:353,-0.3763,0.207,9.3973,0.0305,0.0519,9.8065,-0.0106,-0.0932,0.0122,-23.02,16.68,-9.59,215.16,7.81,-0.02
73713,51.079098,-3.008244,74,20.94,9,201.5,Dec-22,7371672,2019-08-16 14:52:05:452,-0.2256,0.5375,10.641,-0.0112,0.0062,9.8066,-0.0106,-0.0932,0.0122,-21.89,17.17,-11.21,216.03,8.13,0.13
73714,51.078922,-3.008353,74,20.98,9,201.7,Nov-22,7371772,2019-08-16 14:52:05:552,0.1528,-0.3883,9.2676,-0.0004,-0.0122,9.8066,0.0043,-0.0644,-0.007,-23.02,16.68,-9.59,215.05,8.1,0.19
73715,51.078922,-3.008353,74,20.98,9,201.7,Nov-22,7371873,2019-08-16 14:52:05:653,0.101,0.323,8.5441,0.0325,0.0114,9.8066,0.0277,-0.0186,-0.0187,-23.02,16.68,-9.59,215.04,8.29,0.14
73716,51.078922,-3.008353,74,20.98,9,201.7,Nov-22,7371973,2019-08-16 14:52:05:753,-0.3085,0.5811,12.0571,-0.0256,-0.026,9.8066,-0.0309,0.1316,0.0325,-22.46,16.84,-10.59,215.04,8.29,0.14
73717,51.078922,-3.008353,74,20.98,9,201.7,Nov-22,7372073,2019-08-16 14:52:05:853,0.0927,0.3002,9.9942,-0.0381,-0.0249,9.8065,-0.0032,-0.074,0.0101,-22.46,16.84,-10.59,215.04,8.29,0.14
73718,51.078922,-3.008353,74,20.98,9,201.7,Nov-22,7372172,2019-08-16 14:52:05:952,0.8268,0.1754,10.0007,-0.025,-0.0225,9.8066,0.0064,-0.0729,-0.0378,-23.03,16.46,-9.93,213.45,8.02,0.15
73719,51.078922,-3.008353,74,20.98,9,201.7,Nov-22,7372273,2019-08-16 14:52:06:053,-0.2306,-0.2401,9.0089,-0.0075,-0.014,9.8066,-0.0149,-0.0452,-0.0283,-23.02,16.68,-9.59,215.1,7.94,0.1
73720,51.078922,-3.008353,74,20.98,9,201.7,Nov-22,7372372,2019-08-16 14:52:06:152,0.1896,-0.4176,9.8149,0.0172,-0.0106,9.8066,-0.0149,-0.0452,-0.0283,-23.02,16.68,-9.59,215.1,7.94,0.1
73721,51.078922,-3.008353,74,20.98,9,201.7,Nov-22,7372473,2019-08-16 14:52:06:253,0.4147,0.0725,9.5394,0.0591,-0.0186,9.8065,-0.0043,-0.025,-0.0251,-23.35,16.13,-9.73,213.55,8.16,-0.19
73722,51.078922,-3.008353,74,20.98,9,201.7,Nov-22,7372572,2019-08-16 14:52:06:352,0.3131,0.0084,10.1662,0.0195,-0.0215,9.8066,0.0021,-0.0186,-0.0038,-23.16,15.67,-10.86,213.45,8.19,-0.36
73723,51.078922,-3.008353,74,20.98,9,201.7,Nov-22,7372673,2019-08-16 14:52:06:453,0.6635,0.3059,10.2946,-0.0148,-0.0069,9.8066,0.0341,0.0954,0.0112,-23.16,15.67,-10.86,213.45,8.19,-0.36
73724,51.078747,-3.008465,74,20.98,9,202.1,13 / 21,7372773,2019-08-16 14:52:06:553,0.0957,0.3199,9.9018,-0.0132,0.0087,9.8066,-0.0032,0.0144,0.0005,-22.56,17.7,-8.82,216.93,8.09,-0.34
73725,51.078747,-3.008465,74,20.98,9,202.1,13 / 21,7372872,2019-08-16 14:52:06:652,-0.0982,-0.4139,9.6096,0.0071,0.0029,9.8066,-0.0181,0.008,-0.0059,-22.69,17.01,-9.79,215.2,8.06,-0.25
73726,51.078747,-3.008465,74,20.98,9,202.1,13 / 21,7372973,2019-08-16 14:52:06:753,-0.0679,-0.6132,8.7369,0.0056,0.0003,9.8067,0.0458,0.0016,-0.0219,-22.27,18.5,-7.87,215.2,8.06,-0.25
73727,51.078747,-3.008465,74,20.98,9,202.1,13 / 21,7373072,2019-08-16 14:52:06:852,-0.1729,0.1432,10.5133,0.0098,0.024,9.8066,0.0458,0.0016,-0.0219,-22.27,18.5,-7.87,219.75,8.09,-0.27
73728,51.078747,-3.008465,74,20.98,9,202.1,13 / 21,7373174,2019-08-16 14:52:06:954,0.2291,0.2521,10.2217,0.0179,0.0398,9.8066,-0.016,-0.0729,0.0154,-22.44,18.64,-7.01,219.75,8.09,-0.27
73729,51.078747,-3.008465,74,20.98,9,202.1,13 / 21,7373272,2019-08-16 14:52:07:052,0.4878,0.1009,8.4899,-0.0013,0.0412,9.8066,0.0075,0.0208,0.0239,-22.44,18.64,-7.01,219.75,8.09,-0.27
73730,51.078747,-3.008465,74,20.98,9,202.1,13 / 21,7373373,2019-08-16 14:52:07:153,0.1415,0.2359,9.7865,-0.0106,0.0158,9.8066,-0.0032,-0.0218,-0.0144,-21.92,18.34,-9.1,218.0,8.24,-0.08
73731,51.078747,-3.008465,74,20.98,9,202.1,13 / 21,7373473,2019-08-16 14:52:07:253,0.0138,0.1571,10.9962,-0.016,0.0015,9.8066,0.033,0.0176,-0.0187,-22.15,16.85,-11.21,216.07,8.17,-0.01
73732,51.078747,-3.008465,74,20.98,9,202.1,13 / 21,7373573,2019-08-16 14:52:07:353,0.3782,-0.0964,9.1298,-0.0112,-0.0153,9.8066,0.0064,0.0016,-0.0187,-21.92,16.57,-12.04,216.07,8.17,-0.01
73733,51.078747,-3.008465,74,20.98,9,202.1,13 / 21,7373673,2019-08-16 14:52:07:453,-0.4308,-0.504,9.5828,-0.0188,-0.0193,9.8066,0.0107,0.0538,-0.0048,-21.92,16.57,-12.04,216.07,8.17,-0.01
73734,51.07859,-3.008592,73,20.98,9,202.5,13 / 22,7373773,2019-08-16 14:52:07:553,0.8919,0.163,10.1319,-0.0242,-0.0007,9.8066,0.0501,-0.0335,-0.0208,-22.49,16.22,-11.44,214.43,8.05,0.07
73735,51.07859,-3.008592,73,20.98,9,202.5,13 / 22,7373872,2019-08-16 14:52:07:652,0.3934,0.0608,9.9467,0.0165,0.0112,9.8066,0.0501,-0.0335,-0.0208,-21.92,16.57,-12.04,215.88,8.05,0.12
73736,51.07859,-3.008592,73,20.98,9,202.5,13 / 22,7373973,2019-08-16 14:52:07:753,0.6809,-0.1179,9.9176,0.0144,0.0063,9.8066,-0.0053,0.0261,-0.0208,-21.92,16.57,-12.04,215.88,8.05,0.12
73737,51.07859,-3.008592,73,20.98,9,202.5,13 / 22,7374073,2019-08-16 14:52:07:853,-0.3073,0.0343,8.9799,0.0049,0.011,9.8066,-0.0256,-0.0218,-0.0165,-21.9,16.84,-11.7,215.87,8.14,0.1
73738,51.07859,-3.008592,73,20.98,9,202.5,13 / 22,7374172,2019-08-16 14:52:07:952,0.0055,0.0193,10.536,0.0076,-0.0028,9.8066,-0.0011,0.0251,0.0165,-23.21,16.49,-9.45,215.87,8.14,0.1
73739,51.07859,-3.008592,73,20.98,9,202.5,13 / 22,7374273,2019-08-16 14:52:08:053,-0.1205,0.4787,10.9048,0.0075,-0.0011,9.8066,0.033,-0.0346,-0.0229,-23.3,15.79,-10.38,213.46,8.17,0.06
73740,51.07859,-3.008592,73,20.98,9,202.5,13 / 22,7374372,2019-08-16 14:52:08:152,-0.2508,-0.1027,9.025,-0.0048,-0.0072,9.8066,0.0394,-0.0719,-0.0006,-23.42,16.41,-9.06,213.63,8.12,0.04
73741,51.07859,-3.008592,73,20.98,9,202.5,13 / 22,7374473,2019-08-16 14:52:08:253,-0.3071,0.0334,9.4755,-0.0217,0.0117,9.8066,-0.0053,0.0656,0.008,-22.86,16.8,-9.75,213.63,8.12,0.04
73742,51.07859,-3.008592,73,20.98,9,202.5,13 / 22,7374572,2019-08-16 14:52:08:352,0.801,0.5445,9.501,-0.0279,0.0231,9.8066,-0.0128,0.0475,-0.0368,-22.63,16.63,-10.55,214.87,8.06,0.25
73743,51.07859,-3.008592,73,20.98,9,202.5,13 / 22,7374673,2019-08-16 14:52:08:453,-0.0197,0.0274,9.8928,0.0147,0.0233,9.8066,-0.0128,0.0475,-0.0368,-22.63,16.63,-10.55,214.87,8.06,0.25
73744,51.07842,-3.008701,73,20.96,9,202.7,13 / 22,7374772,2019-08-16 14:52:08:552,-0.2538,0.0048,9.3278,0.027,0.0348,9.8066,-0.0181,-0.0516,-0.0251,-22.86,16.8,-9.75,214.87,8.06,0.25
73745,51.07842,-3.008701,73,20.96,9,202.7,13 / 22,7374873,2019-08-16 14:52:08:653,-0.1771,-0.0916,9.2842,-0.0009,-0.0133,9.8066,-0.0234,0.0602,0.0005,-22.89,16.51,-10.18,214.98,8.3,0.32
73746,51.07842,-3.008701,73,20.96,9,202.7,13 / 22,7374973,2019-08-16 14:52:08:753,-0.1662,-0.2184,9.6613,-0.0058,-0.024,9.8066,0.0011,-0.0282,-0.0027,-22.68,16.35,-10.88,214.98,8.3,0.32
73747,51.07842,-3.008701,73,20.96,9,202.7,13 / 22,7375072,2019-08-16 14:52:08:852,-0.3514,0.0361,8.8324,-0.0037,-0.0083,9.8066,-0.0096,0.0038,0.0154,-22.78,17.22,-9.2,215.19,8.2,0.23
73748,51.07842,-3.008701,73,20.96,9,202.7,13 / 22,7375173,2019-08-16 14:52:08:953,0.0935,0.1952,9.3414,-0.0178,0.0022,9.8066,0.0458,-0.0197,-0.0091,-22.78,17.22,-9.2,215.19,8.2,0.23
73749,51.07842,-3.008701,73,20.96,9,202.7,13 / 22,7375273,2019-08-16 14:52:09:053,0.1502,0.1515,11.4831,-0.0033,0.0118,9.8066,-0.0192,-0.0346,0.008,-22.55,17.05,-10.03,215.01,8.12,0.3
73750,51.07842,-3.008701,73,20.96,9,202.7,13 / 22,7375373,2019-08-16 14:52:09:153,0.3103,-0.1148,10.2099,-0.0054,0.0234,9.8066,0.0735,-0.0005,-0.008,-21.89,17.94,-9.95,217.69,8.14,0.37
73751,51.07842,-3.008701,73,20.96,9,202.7,13 / 22,7375473,2019-08-16 14:52:09:253,-0.4748,-0.9151,10.7226,-0.01,0.0242,9.8066,-0.0447,-0.0026,0.0144,-22.78,17.22,-9.2,215.1,8.18,0.52
73752,51.07842,-3.008701,73,20.96,9,202.7,13 / 22,7375573,2019-08-16 14:52:09:353,-0.0677,0.068,11.1006,0.005,-0.0203,9.8066,-0.0447,-0.0026,0.0144,-22.78,17.22,-9.2,215.1,8.18,0.52
73753,51.07842,-3.008701,73,20.96,9,202.7,13 / 22,7375673,2019-08-16 14:52:09:453,-0.3359,0.0561,9.3085,0.0414,0.0004,9.8066,-0.0149,0.0166,0.0026,-22.22,17.57,-9.88,217.68,8.14,0.4
73754,51.078247,-3.008818,73,20.88,9,202.6,13 / 22,7375773,2019-08-16 14:52:09:553,-0.1999,-0.6107,9.3118,0.0499,-0.01,9.8065,0.0064,-0.0367,0.0005,-21.61,17.57,-11.15,217.55,8.33,0.17
73755,51.078247,-3.008818,73,20.88,9,202.6,13 / 22,7375872,2019-08-16 14:52:09:652,0.2513,-0.0342,10.2356,-0.0123,-0.0191,9.8066,0.0096,-0.0506,0.009,-22.43,17.74,-9.06,217.89,8.47,0.18
73756,51.078247,-3.008818,73,20.88,9,202.6,13 / 22,7375973,2019-08-16 14:52:09:753,0.159,-0.4694,9.9017,-0.0392,-0.0268,9.8065,-0.0085,-0.009,0.0229,-22.43,17.74,-9.06,217.89,8.47,0.18
73757,51.078247,-3.008818,73,20.88,9,202.6,13 / 22,7376072,2019-08-16 14:52:09:852,0.1352,0.0967,10.566,-0.0175,0.0125,9.8066,-0.0075,-0.0069,-0.0016,-22.14,18.16,-8.94,217.92,8.2,0.2
73758,51.078247,-3.008818,73,20.88,9,202.6,13 / 22,7376173,2019-08-16 14:52:09:953,0.2746,0.0022,9.9714,-0.0173,-0.0026,9.8066,-0.0075,0.0389,-0.0091,-22.25,17.6,-9.76,217.92,8.2,0.2
73759,51.078247,-3.008818,73,20.88,9,202.6,13 / 22,7376273,2019-08-16 14:52:10:053,0.0694,0.2564,8.9697,0.0011,-0.0073,9.8066,0.0266,0.0496,-0.007,-22.25,17.6,-9.76,217.74,8.11,0.25
73760,51.078247,-3.008818,73,20.88,9,202.6,13 / 22,7376373,2019-08-16 14:52:10:153,0.1459,0.2099,9.8889,0.0061,-0.0074,9.8066,0.0266,0.0496,-0.007,-22.78,17.22,-9.2,215.21,8.11,0.19
73761,51.078247,-3.008818,73,20.88,9,202.6,13 / 22,7376473,2019-08-16 14:52:10:253,-0.09,-0.169,9.0112,0.0228,0.0109,9.8066,-0.0256,0.0176,-0.0187,-21.72,18.59,-9.09,219.43,8.26,0.17
73762,51.078247,-3.008818,73,20.88,9,202.6,13 / 22,7376573,2019-08-16 14:52:10:353,0.0516,0.2678,9.5638,0.0149,0.0238,9.8066,-0.016,-0.0143,0.0005,-21.72,18.59,-9.09,219.43,8.26,0.17
73763,51.078247,-3.008818,73,20.88,9,202.6,13 / 22,7376673,2019-08-16 14:52:10:453,0.1699,0.0972,9.5366,0.0279,0.0202,9.8066,0.0288,-0.0079,-0.0112,-22.25,17.6,-9.76,217.72,8.46,0.16
73764,51.078075,-3.008926,74,20.78,9,203.0,13 / 22,7376773,2019-08-16 14:52:10:553,0.1606,-0.0228,11.305,0.0035,0.0017,9.8067,0.0234,0.0208,-0.0197,-22.81,17.25,-9.08,215.2,8.27,0.15
73765,51.078075,-3.008926,74,20.78,9,203.0,13 / 22,7376873,2019-08-16 14:52:10:653,0.1607,-0.2578,9.0452,-0.0122,0.0056,9.8066,-0.0117,0.0602,0.0026,-22.81,17.25,-9.08,215.2,8.27,0.15
73766,51.078075,-3.008926,74,20.78,9,203.0,13 / 22,7376977,2019-08-16 14:52:10:757,-0.2811,-0.3682,9.3193,0.0028,0.0134,9.8066,-0.0245,0.0144,-0.0038,-22.43,17.57,-9.39,217.91,8.23,0.22
73767,51.078075,-3.008926,74,20.78,9,203.0,13 / 22,7377073,2019-08-16 14:52:10:853,-0.0953,0.6311,9.4365,-0.0075,-0.0237,9.8066,-0.0245,0.0144,-0.0038,-21.91,18.1,-9.61,217.7,8.29,0.27
73768,51.078075,-3.008926,74,20.78,9,203.0,13 / 22,7377173,2019-08-16 14:52:10:953,-0.1413,-0.2855,9.6294,0.0028,-0.0072,9.8066,-0.0064,0.0027,0.0058,-21.91,18.1,-9.61,217.7,8.29,0.27
73769,51.078075,-3.008926,74,20.78,9,203.0,13 / 22,7377273,2019-08-16 14:52:11:053,0.0869,0.1579,10.0899,0.0007,0.016,9.8066,0.0096,0.0176,0.0005,-21.57,17.06,-11.98,215.8,8.28,0.23
73770,51.078075,-3.008926,74,20.78,9,203.0,13 / 22,7377373,2019-08-16 14:52:11:153,-0.1964,-0.1467,8.9656,0.0216,0.024,9.8066,-0.032,-0.0058,-0.0038,-22.42,16.17,-11.67,214.11,8.46,0.27
73771,51.078075,-3.008926,74,20.78,9,203.0,13 / 22,7377472,2019-08-16 14:52:11:252,-0.2708,0.202,9.5231,-0.0089,-0.0114,9.8066,-0.0351,0.0123,-0.024,-22.42,16.17,-11.67,214.11,8.46,0.27
73772,51.078075,-3.008926,74,20.78,9,203.0,13 / 22,7377573,2019-08-16 14:52:11:353,0.3935,0.2764,10.181,0.0149,-0.0241,9.8066,0.0085,0.0123,-0.0272,-22.66,16.11,-11.26,213.21,8.38,0.24
73773,51.078075,-3.008926,74,20.78,9,203.0,13 / 22,7377672,2019-08-16 14:52:11:452,0.1109,-0.1808,9.5471,0.0224,-0.0613,9.8064,0.0245,-0.0069,-0.008,-22.4,15.12,-13.03,213.21,8.38,0.24
73774,51.0779,-3.009046,75,20.83,9,203.2,13 / 22,7377773,2019-08-16 14:52:11:553,0.0617,0.0944,9.1193,-0.0206,0.0272,9.8066,0.0426,0.0176,0.0005,-23.33,15.19,-11.19,211.73,8.17,-0.19
73775,51.0779,-3.009046,75,20.83,9,203.2,13 / 22,7377872,2019-08-16 14:52:11:652,-0.0518,0.0245,9.8187,-0.0223,0.0457,9.8065,0.0096,0.04,0.0144,-22.06,16.49,-11.9,214.27,8.15,0.01
73776,51.0779,-3.009046,75,20.83,9,203.2,13 / 22,7377973,2019-08-16 14:52:11:753,-0.0987,0.2307,9.2232,-0.0135,0.0681,9.8064,0.0096,0.04,0.0144,-21.75,17.84,-10.43,214.27,8.15,0.01
73777,51.0779,-3.009046,75,20.83,9,203.2,13 / 22,7378073,2019-08-16 14:52:11:853,0.0981,0.4697,9.6187,-0.0007,0.1016,9.8061,-0.0074,-0.0921,0.0005,-21.54,18.44,-9.8,217.6,8.48,0.5
73778,51.0779,-3.009046,75,20.83,9,203.2,13 / 22,7378172,2019-08-16 14:52:11:952,-0.5454,-0.1531,10.462,0.0096,-0.0312,9.8066,-0.0117,0.0134,0.0037,-21.54,18.44,-9.8,217.6,8.48,0.5
73779,51.0779,-3.009046,75,20.83,9,203.2,13 / 22,7378272,2019-08-16 14:52:12:052,-0.2258,-0.251,9.4162,0.0076,-0.0039,9.8066,-0.0213,-0.0346,0.0026,-21.66,17.75,-10.76,217.49,8.41,0.32
73780,51.0779,-3.009046,75,20.83,9,203.2,13 / 22,7378373,2019-08-16 14:52:12:153,-0.2871,0.1326,10.2106,-0.0068,-0.0477,9.8065,0.0458,-0.0122,-0.0144,-22.22,17.57,-9.88,217.49,8.41,0.32
73781,51.0779,-3.009046,75,20.83,9,203.2,13 / 22,7378473,2019-08-16 14:52:12:253,-0.1477,0.1678,9.9779,-0.0342,-0.0431,9.8065,0.0032,-0.0175,0.0069,-22.7,17.62,-8.62,216.75,8.1,0.24
73782,51.0779,-3.009046,75,20.83,9,203.2,13 / 22,7378572,2019-08-16 14:52:12:352,-0.1708,0.1236,11.0548,-0.0331,-0.0098,9.8066,-0.0703,0.0549,-0.007,-22.86,16.8,-9.75,215.03,7.91,0.32
73783,51.0779,-3.009046,75,20.83,9,203.2,13 / 22,7378673,2019-08-16 14:52:12:453,0.4261,0.2661,10.1298,0.0694,-0.0478,9.8063,-0.0458,-0.0356,0.0271,-22.86,16.8,-9.75,215.03,7.91,0.32
73784,51.077732,-3.009164,75,20.7,9,203.5,13 / 22,7378773,2019-08-16 14:52:12:553,-0.3613,-1.1132,9.3511,0.0026,-0.0091,9.8066,0.0288,-0.1209,0.008,-23.27,15.52,-10.85,213.4,8.08,-0.15
73785,51.077732,-3.009164,75,20.7,9,203.5,13 / 22,7378873,2019-08-16 14:52:12:653,-0.3319,-0.516,8.2785,0.0116,0.0225,9.8066,0.0288,-0.1209,0.008,-23.6,16.54,-8.33,213.4,8.08,-0.15
73786,51.077732,-3.009164,75,20.7,9,203.5,13 / 22,7378973,2019-08-16 14:52:12:753,0.0521,0.8348,10.4213,-0.0232,-0.0029,9.8066,0.0511,-0.0548,0.0048,-22.89,16.51,-10.18,215.12,8.21,-0.08
73787,51.077732,-3.009164,75,20.7,9,203.5,13 / 22,7379073,2019-08-16 14:52:12:853,-0.2071,0.2971,9.1012,-0.0016,0.0071,9.8066,-0.0565,0.0528,0.0154,-22.89,16.51,-10.18,215.12,8.21,-0.08
73788,51.077732,-3.009164,75,20.7,9,203.5,13 / 22,7379173,2019-08-16 14:52:12:953,0.2728,-0.308,11.1068,0.0036,-0.0237,9.8066,0.0096,0.0336,-0.0229,-23.12,16.68,-9.34,215.26,8.23,-0.04
73789,51.077732,-3.009164,75,20.7,9,203.5,13 / 22,7379273,2019-08-16 14:52:13:053,0.8866,-0.3482,10.5196,0.0153,-0.0711,9.8064,-0.0074,0.0166,0.0016,-22.21,17.22,-10.48,216.39,8.06,-0.43
73790,51.077732,-3.009164,75,20.7,9,203.5,13 / 22,7379373,2019-08-16 14:52:13:153,0.2666,-0.4887,11.6064,-0.0288,-0.0264,9.8066,0.0767,0.154,-0.0176,-22.21,17.22,-10.48,216.39,8.06,-0.43
73791,51.077732,-3.009164,75,20.7,9,203.5,13 / 22,7379473,2019-08-16 14:52:13:253,0.2191,0.3299,9.275,-0.0378,0.0048,9.8066,-0.0192,-0.1251,-0.0432,-22.25,17.6,-9.76,218.0,7.84,-0.46
73792,51.077732,-3.009164,75,20.7,9,203.5,13 / 22,7379574,2019-08-16 14:52:13:354,-0.2411,-0.6504,7.9733,-0.0168,0.0407,9.8066,-0.0064,-0.0655,-0.0187,-21.01,17.96,-11.67,218.8,7.9,-0.21
73793,51.077732,-3.009164,75,20.7,9,203.5,13 / 22,7379673,2019-08-16 14:52:13:453,0.1996,0.0159,9.683,0.0382,-0.0166,9.8066,-0.0064,-0.0655,-0.0187,-21.32,18.25,-10.6,218.95,8.16,-0.27
73794,51.077553,-3.009283,75,20.79,9,204.0,13 / 22,7379773,2019-08-16 14:52:13:553,0.6649,0.3367,10.3119,0.0336,-0.0146,9.8066,-0.0053,-0.0346,-0.0102,-21.61,17.57,-11.15,218.95,8.16,-0.27
73795,51.077553,-3.009283,75,20.79,9,204.0,13 / 22,7379873,2019-08-16 14:52:13:653,-0.1189,0.0649,10.2887,0.0184,-0.0186,9.8066,-0.0213,0.04,0.0048,-21.61,17.57,-11.15,218.95,8.16,-0.27
73796,51.077553,-3.009283,75,20.79,9,204.0,13 / 22,7379974,2019-08-16 14:52:13:754,0.3628,0.3493,10.395,-0.0458,-0.0142,9.8065,0.0298,0.089,-0.0027,-21.16,17.2,-12.5,217.09,8.17,-0.43
73797,51.077553,-3.009283,75,20.79,9,204.0,13 / 22,7380073,2019-08-16 14:52:13:853,-0.4589,-0.2547,11.0855,-0.0852,-0.0218,9.8063,0.0107,0.0208,-0.008,-22.23,17.42,-10.11,217.09,8.17,-0.43
73798,51.077553,-3.009283,75,20.79,9,204.0,13 / 22,7380174,2019-08-16 14:52:13:954,0.1703,0.0393,9.4548,0.0122,0.0197,9.8066,0.0362,0.0251,-0.0038,-21.45,17.58,-11.44,219.01,7.7,-0.23
73799,51.077553,-3.009283,75,20.79,9,204.0,13 / 22,7380272,2019-08-16 14:52:14:052,0.3709,-0.5778,9.6833,0.011,0.0413,9.8066,0.0043,0.0006,0.0271,-22.34,17.17,-10.29,216.3,7.9,-0.08
