,GPS LATITUDE (degrees),GPS LONGITUDE (degrees), GPS ALTITUDE (m),GPS SPEED (Kmh),GPS ACCURACY (m),GPS ORIENTATION (Â°), SATELLITES IN RANGE, TIME SINCE START (ms), DATE (YYYY-MO-DD HH-MI-SS_SSS),ACCELEROMETER X (m/s²) , ACCELEROMETER Y (m/s²), ACCELEROMETER Z (m/s²), GRAVITY X (m/s²), GRAVITY Y (m/s²), GRAVITY Z (m/s²), GYROSCOPE Yaw (rad/s), GYROSCOPE Pitch (rad/s), GYROSCOPE Roll (rad/s)
58082,48.223698,-2.112807,159.44,29.74,42.88,325.8,0 / 22,1797636,2019-08-12 17:02:38:078,0.0415,-0.4087,10.1141,-0.1016,-0.3872,9.7985,-0.0027,-0.0011,-0.0212
58083,48.223698,-2.112807,159.44,29.74,42.88,325.8,0 / 22,1797636,2019-08-12 17:02:38:078,0.0415,-0.4087,10.1141,-0.1016,-0.3872,9.7985,-0.0027,-0.0011,-0.0212
58084,48.223698,-2.112807,159.44,29.74,42.88,325.8,0 / 22,1797637,2019-08-12 17:02:38:079,0.0415,-0.4087,10.1141,-0.1016,-0.3872,9.7985,-0.0027,-0.0011,-0.0212
58085,48.223698,-2.112807,159.44,29.74,42.88,325.8,0 / 22,1797637,2019-08-12 17:02:38:079,0.0415,-0.4087,10.1141,-0.1016,-0.3872,9.7985,-0.0027,-0.0011,-0.0212
58086,48.223698,-2.112807,159.44,29.74,42.88,325.8,0 / 22,1797638,2019-08-12 17:02:38:080,0.0415,-0.4087,10.1141,-0.1016,-0.3872,9.7985,-0.0027,-0.0011,-0.0212
58087,48.223698,-2.112807,159.44,29.74,42.88,325.8,0 / 22,1797638,2019-08-12 17:02:38:080,0.0415,-0.4087,10.1141,-0.1016,-0.3872,9.7985,-0.0027,-0.0011,-0.0212
58088,48.223698,-2.112807,159.44,29.74,42.88,325.8,0 / 22,1797639,2019-08-12 17:02:38:081,0.0415,-0.4087,10.1141,-0.1016,-0.3872,9.7985,-0.0027,-0.0011,-0.0212
58089,48.223698,-2.112807,159.44,29.74,42.88,325.8,0 / 22,1797639,2019-08-12 17:02:38:081,0.0415,-0.4087,10.1141,-0.1016,-0.3872,9.7985,-0.0027,-0.0011,-0.0212
58090,48.223698,-2.112807,159.44,29.74,42.88,325.8,0 / 22,1797640,2019-08-12 17:02:38:082,0.0415,-0.4087,10.1141,-0.1016,-0.3872,9.7985,-0.0027,-0.0011,-0.0212
58091,48.223698,-2.112807,159.44,29.74,42.88,325.8,0 / 22,1797640,2019-08-12 17:02:38:082,0.0415,-0.4087,10.1141,-0.1016,-0.3872,9.7985,-0.0027,-0.0011,-0.0212
58092,48.223698,-2.112807,159.44,29.74,42.88,325.8,0 / 22,1797641,2019-08-12 17:02:38:083,0.0415,-0.4087,10.1141,-0.1016,-0.3872,9.7985,-0.0027,-0.0011,-0.0212
58093,48.223698,-2.112807,159.44,29.74,42.88,325.8,0 / 22,1797642,2019-08-12 17:02:38:084,0.0415,-0.4087,10.1141,-0.1016,-0.3872,9.7985,-0.0027,-0.0011,-0.0212
58094,48.223698,-2.112807,159.44,29.74,42.88,325.8,0 / 22,1797642,2019-08-12 17:02:38:084,0.0415,-0.4087,10.1141,-0.1016,-0.3872,9.7985,-0.0027,-0.0011,-0.0212
58095,48.223698,-2.112807,159.44,29.74,42.88,325.8,0 / 22,1797643,2019-08-12 17:02:38:085,0.0415,-0.4087,10.1141,-0.1016,-0.3872,9.7985,-0.0027,-0.0011,-0.0212
58096,48.223698,-2.112807,159.44,29.74,42.88,325.8,0 / 22,1797643,2019-08-12 17:02:38:085,0.0415,-0.4087,10.1141,-0.1016,-0.3872,9.7985,-0.0027,-0.0011,-0.0212
58097,48.223698,-2.112807,159.44,29.74,42.88,325.8,0 / 22,1797644,2019-08-12 17:02:38:086,0.0415,-0.4087,10.1141,-0.1016,-0.3872,9.7985,-0.0027,-0.0011,-0.0212
58098,48.223698,-2.112807,159.44,29.74,42.88,325.8,0 / 22,1797645,2019-08-12 17:02:38:087,0.0415,-0.4087,10.1141,-0.1016,-0.3872,9.7985,-0.0027,-0.0011,-0.0212
58099,48.223698,-2.112807,159.44,29.74,42.88,325.8,0 / 22,1797651,2019-08-12 17:02:38:093,0.0415,-0.4087,10.1141,-0.1016,-0.3872,9.7985,-0.0027,-0.0011,-0.0212
58100,48.223698,-2.112807,159.44,29.74,42.88,325.8,0 / 22,1797653,2019-08-12 17:02:38:095,0.0415,-0.4087,10.1141,-0.1016,-0.3872,9.7985,-0.0027,-0.0011,-0.0212
58101,48.223698,-2.112807,159.44,29.74,42.88,325.8,0 / 22,1797654,2019-08-12 17:02:38:096,0.0415,-0.4087,10.1141,-0.1016,-0.3872,9.7985,-0.0027,-0.0011,-0.0212
58102,48.223698,-2.112807,159.44,29.74,42.88,325.8,0 / 22,1797655,2019-08-12 17:02:38:097,0.0415,-0.4087,10.1141,-0.1016,-0.3872,9.7985,-0.0027,-0.0011,-0.0212
58103,48.223698,-2.112807,159.44,29.74,42.88,325.8,0 / 22,1797655,2019-08-12 17:02:38:097,0.0415,-0.4087,10.1141,-0.1016,-0.3872,9.7985,-0.0027,-0.0011,-0.0212
58104,48.223698,-2.112807,159.44,29.74,42.88,325.8,0 / 22,1797656,2019-08-12 17:02:38:098,0.0415,-0.4087,10.1141,-0.1016,-0.3872,9.7985,-0.0027,-0.0011,-0.0212
58105,48.223698,-2.112807,159.44,29.74,42.88,325.8,0 / 22,1797656,2019-08-12 17:02:38:098,0.0415,-0.4087,10.1141,-0.1016,-0.3872,9.7985,-0.0027,-0.0011,-0.0212
58106,48.223698,-2.112807,159.44,29.74,42.88,325.8,0 / 22,1797657,2019-08-12 17:02:38:099,0.0415,-0.4087,10.1141,-0.1016,-0.3872,9.7985,-0.0027,-0.0011,-0.0212
58107,48.223698,-2.112807,159.44,29.74,42.88,325.8,0 / 22,1797704,2019-08-12 17:02:38:146,0.0415,-0.4087,10.1141,-0.1016,-0.3872,9.7985,-0.0027,-0.0011,-0.0212
58108,48.223698,-2.112807,159.44,29.74,42.88,325.8,0 / 22,1798087,2019-08-12 17:02:38:529,0.0415,-0.4087,10.1141,-0.1016,-0.3872,9.7985,-0.0027,-0.0011,-0.0212
58109,48.223698,-2.112807,159.44,29.74,42.88,325.8,0 / 22,1798088,2019-08-12 17:02:38:530,0.0415,-0.4087,10.1141,-0.1016,-0.3872,9.7985,-0.0027,-0.0011,-0.0212
58110,48.223698,-2.112807,159.44,29.74,42.88,325.8,0 / 22,1798089,2019-08-12 17:02:38:531,0.0415,-0.4087,10.1141,-0.1016,-0.3872,9.7985,-0.0027,-0.0011,-0.0212
58111,48.223698,-2.112807,159.44,29.74,42.88,325.8,0 / 22,1798089,2019-08-12 17:02:38:531,0.0415,-0.4087,10.1141,-0.1016,-0.3872,9.7985,-0.0027,-0.0011,-0.0212
58112,48.223698,-2.112807,159.44,29.74,42.88,325.8,0 / 22,1798089,2019-08-12 17:02:38:531,0.0415,-0.4087,10.1141,-0.1016,-0.3872,9.7985,-0.0027,-0.0011,-0.0212
58113,48.223698,-2.112807,159.44,29.74,42.88,325.8,0 / 22,1798090,2019-08-12 17:02:38:532,0.0415,-0.4087,10.1141,-0.1016,-0.3872,9.7985,-0.0027,-0.0011,-0.0212
58114,48.223698,-2.112807,159.44,29.74,42.88,325.8,0 / 22,1798090,2019-08-12 17:02:38:532,0.0415,-0.4087,10.1141,-0.1016,-0.3872,9.7985,-0.0027,-0.0011,-0.0212
58115,48.223698,-2.112807,159.44,29.74,42.88,325.8,0 / 22,1798090,2019-08-12 17:02:38:532,0.0415,-0.4087,10.1141,-0.1016,-0.3872,9.7985,-0.0027,-0.0011,-0.0212
58116,48.223698,-2.112807,159.44,29.74,42.88,325.8,0 / 22,1798091,2019-08-12 17:02:38:533,0.0415,-0.4087,10.1141,-0.1016,-0.3872,9.7985,-0.0027,-0.0011,-0.0212
58117,48.223698,-2.112807,159.44,29.74,42.88,325.8,0 / 22,1798165,2019-08-12 17:02:38:607,0.0415,-0.4087,10.1141,-0.1016,-0.3872,9.7985,-0.0027,-0.0011,-0.0212
58118,48.223698,-2.112807,159.44,29.74,42.88,325.8,0 / 22,1798265,2019-08-12 17:02:38:707,0.0415,-0.4087,10.1141,-0.1016,-0.3872,9.7985,-0.0027,-0.0011,-0.0212
58119,48.223698,-2.112807,159.44,29.74,42.88,325.8,Aug-22,1798365,2019-08-12 17:02:38:807,0.2666,0.1623,9.9729,0.2906,0.2468,9.7992,0.0047,-0.0075,0.0001
58120,48.223698,-2.112807,159.44,29.74,42.88,325.8,Aug-22,1798678,2019-08-12 17:02:39:120,0.2666,0.1623,9.9729,0.2906,0.2468,9.7992,0.0047,-0.0075,0.0001
58121,48.223698,-2.112807,159.44,29.74,42.88,325.8,Aug-22,1798679,2019-08-12 17:02:39:121,0.2666,0.1623,9.9729,0.2906,0.2468,9.7992,0.0047,-0.0075,0.0001
58122,48.223698,-2.112807,159.44,29.74,42.88,325.8,Aug-22,1798679,2019-08-12 17:02:39:121,0.2666,0.1623,9.9729,0.2906,0.2468,9.7992,0.0047,-0.0075,0.0001
58123,48.223698,-2.112807,159.44,29.74,42.88,325.8,Aug-22,1798765,2019-08-12 17:02:39:207,0.2666,0.1623,9.9729,0.2906,0.2468,9.7992,0.0047,-0.0075,0.0001
58124,48.223698,-2.112807,159.44,29.74,42.88,325.8,Aug-22,1798865,2019-08-12 17:02:39:307,0.2666,0.1623,9.9729,0.2906,0.2468,9.7992,0.0047,-0.0075,0.0001
58125,48.223698,-2.112807,159.44,29.74,42.88,325.8,Aug-22,1799015,2019-08-12 17:02:39:457,0.342,-0.0112,10.271,0.259,0.1208,9.8025,0.0016,-0.0021,-0.0084
58126,48.223698,-2.112807,159.44,29.74,42.88,325.8,0 / 22,1799065,2019-08-12 17:02:39:507,0.342,-0.0112,10.271,0.259,0.1208,9.8025,0.0016,-0.0021,-0.0084
58127,48.223698,-2.112807,159.44,29.74,42.88,325.8,0 / 22,1799166,2019-08-12 17:02:39:608,0.342,-0.0112,10.271,0.259,0.1208,9.8025,0.0016,-0.0021,-0.0084
58128,48.223698,-2.112807,159.44,29.74,42.88,325.8,0 / 22,1799266,2019-08-12 17:02:39:708,0.4797,-0.1836,10.0267,0.2599,0.0466,9.8031,-0.0038,-0.0053,-0.0084
58129,48.223698,-2.112807,159.44,29.74,42.88,325.8,0 / 22,1799366,2019-08-12 17:02:39:808,0.4629,0.1348,9.6964,0.276,0.0383,9.8027,-0.0027,-0.0021,-0.0084
58130,48.223698,-2.112807,159.44,29.74,42.88,325.8,0 / 22,1799766,2019-08-12 17:02:40:208,0.2714,0.0139,9.6125,0.2775,0.0303,9.8027,-0.0059,-0.0043,-0.0084
58131,48.223698,-2.112807,159.44,29.74,42.88,325.8,0 / 22,1799766,2019-08-12 17:02:40:208,0.2714,0.0139,9.6125,0.2775,0.0303,9.8027,-0.0059,-0.0043,-0.0084
58132,48.223698,-2.112807,159.44,29.74,42.88,325.8,0 / 22,1799767,2019-08-12 17:02:40:209,0.2714,0.0139,9.6125,0.2775,0.0303,9.8027,-0.0059,-0.0043,-0.0084
58133,48.223698,-2.112807,159.44,29.74,42.88,325.8,0 / 22,1799767,2019-08-12 17:02:40:209,0.2714,0.0139,9.6125,0.2775,0.0303,9.8027,-0.0059,-0.0043,-0.0084
58134,48.223698,-2.112807,159.44,29.74,42.88,325.8,0 / 22,1799866,2019-08-12 17:02:40:308,0.2714,0.0139,9.6125,0.2775,0.0303,9.8027,-0.0059,-0.0043,-0.0084
58135,48.223698,-2.112807,159.44,29.74,42.88,325.8,0 / 22,1799965,2019-08-12 17:02:40:407,0.2714,0.0139,9.6125,0.2775,0.0303,9.8027,-0.0059,-0.0043,-0.0084
58136,48.223698,-2.112807,159.44,29.74,42.88,325.8,0 / 22,1800065,2019-08-12 17:02:40:507,0.5551,0.148,10.1931,0.2793,0.0324,9.8026,-0.0048,0.0043,-0.0063
58137,48.223698,-2.112807,159.44,29.74,42.88,325.8,0 / 22,1800165,2019-08-12 17:02:40:607,0.4246,0.0522,9.6305,0.2808,0.0345,9.8026,-0.008,0.0064,-0.0063
58138,48.223698,-2.112807,159.44,29.74,42.88,325.8,0 / 22,1800266,2019-08-12 17:02:40:708,0.1936,0.1121,9.5395,0.2775,0.0347,9.8027,0.0016,0.0064,-0.0084
58139,48.223698,-2.112807,159.44,29.74,42.88,325.8,0 / 22,1800366,2019-08-12 17:02:40:808,0.3085,0.1959,8.9015,0.2819,0.0277,9.8026,0.0016,0.0011,-0.0073
58140,48.223698,-2.112807,159.44,29.74,42.88,325.8,0 / 22,1800466,2019-08-12 17:02:40:908,0.2941,0.1983,9.3767,0.2851,0.0266,9.8025,-0.0006,0.0,-0.0063
58141,48.223698,-2.112807,159.44,29.74,42.88,325.8,0 / 22,1800566,2019-08-12 17:02:41:008,0.2486,-0.0831,9.7359,0.2878,0.0228,9.8024,0.0069,0.0085,-0.0073
58142,48.223698,-2.112807,159.44,29.74,42.88,325.8,0 / 22,1800666,2019-08-12 17:02:41:108,0.1505,-0.0364,10.2338,0.2649,0.0051,9.8031,0.0069,0.0128,-0.0084
58143,48.223698,-2.112807,159.44,29.74,42.88,325.8,0 / 22,1800765,2019-08-12 17:02:41:207,0.3181,0.0857,9.8927,0.2677,0.0218,9.803,0.0005,0.0064,-0.0084
58144,48.223698,-2.112807,159.44,29.74,42.88,325.8,0 / 22,1800865,2019-08-12 17:02:41:307,0.4497,-0.0089,10.0471,0.272,0.0267,9.8028,0.0016,-0.0011,-0.0094
58145,48.223698,-2.112807,159.44,29.74,42.88,325.8,0 / 22,1800965,2019-08-12 17:02:41:407,0.4497,-0.0089,10.0471,0.272,0.0267,9.8028,0.0016,-0.0011,-0.0094
58146,48.223698,-2.112807,159.44,29.74,42.88,325.8,0 / 22,1801065,2019-08-12 17:02:41:507,0.3348,-0.0687,9.8795,0.2466,0.0421,9.8035,-0.0016,-0.0075,-0.0073
58147,48.223698,-2.112807,159.44,29.74,42.88,325.8,0 / 22,1801165,2019-08-12 17:02:41:607,0.2642,0.3658,9.3923,0.2361,0.0704,9.8036,-0.0027,0.0064,-0.0031
58148,48.223698,-2.112807,159.44,29.74,42.88,325.8,0 / 22,1801265,2019-08-12 17:02:41:707,0.2031,0.2366,9.8687,0.2411,0.0781,9.8034,0.0026,0.0011,-0.0041
58149,48.223698,-2.112807,159.44,29.74,42.88,325.8,0 / 22,1801365,2019-08-12 17:02:41:807,0.2067,0.2342,9.591,0.2396,0.1009,9.8032,-0.0038,0.0032,-0.0041
58150,48.223698,-2.112807,159.44,29.74,42.88,325.8,0 / 22,1801465,2019-08-12 17:02:41:907,0.2355,0.057,10.1345,0.2327,0.1032,9.8033,-0.0038,0.0096,-0.0031
58151,48.223698,-2.112807,159.44,29.74,42.88,325.8,0 / 22,1801566,2019-08-12 17:02:42:008,0.2833,-0.0352,9.4509,0.2285,0.1043,9.8034,-0.0038,0.0064,-0.0031
58152,48.223698,-2.112807,159.44,29.74,42.88,325.8,0 / 22,1801666,2019-08-12 17:02:42:108,0.1289,0.1875,10.3931,0.224,0.1127,9.8034,-0.0059,-0.0043,-0.0031
58153,48.223698,-2.112807,159.44,29.74,42.88,325.8,0 / 22,1801765,2019-08-12 17:02:42:207,0.1552,0.1169,10.1991,0.2306,0.1129,9.8033,-0.0016,-0.0117,-0.002
58154,48.223698,-2.112807,159.44,29.74,42.88,325.8,0 / 22,1801865,2019-08-12 17:02:42:307,0.4174,0.3563,9.7933,0.2366,0.1141,9.8031,-0.0048,0.0043,-0.002
58155,48.223698,-2.112807,159.44,29.74,42.88,325.8,0 / 22,1801965,2019-08-12 17:02:42:407,0.184,0.221,9.6544,0.2272,0.1198,9.8033,0.0069,0.0117,-0.0009
58156,48.223698,-2.112807,159.44,29.74,42.88,325.8,0 / 22,1802066,2019-08-12 17:02:42:508,0.1852,0.1959,9.3755,0.2238,0.1243,9.8033,-0.0048,0.0032,-0.0009
58157,48.223698,-2.112807,159.44,29.74,42.88,325.8,0 / 22,1802166,2019-08-12 17:02:42:608,0.2522,0.3168,9.6197,0.2242,0.1352,9.8032,-0.0229,0.0053,0.0001
58158,48.223698,-2.112807,159.44,29.74,42.88,325.8,0 / 22,1802265,2019-08-12 17:02:42:707,0.2845,0.1983,9.9669,0.2285,0.1628,9.8026,-0.0102,0.0021,0.0012
58159,48.223698,-2.112807,159.44,29.74,42.88,325.8,0 / 22,1802365,2019-08-12 17:02:42:807,0.2043,0.0714,9.4689,0.2245,0.1677,9.8026,-0.008,0.0085,0.0012
58160,48.223698,-2.112807,159.44,29.74,42.88,325.8,0 / 22,1802465,2019-08-12 17:02:42:907,0.2079,0.0426,10.0327,0.2175,0.1718,9.8027,-0.0027,0.0043,-0.0009
58161,48.223698,-2.112807,159.44,29.74,42.88,325.8,0 / 22,1802565,2019-08-12 17:02:43:007,0.4952,0.294,9.7586,0.2198,0.1794,9.8025,-0.0038,0.0085,-0.0009
58162,48.223698,-2.112807,159.44,29.74,42.88,325.8,0 / 22,1802665,2019-08-12 17:02:43:107,0.4952,0.294,9.7586,0.2198,0.1794,9.8025,-0.0038,0.0085,-0.0009
58163,48.223698,-2.112807,159.44,29.74,42.88,325.8,0 / 22,1802765,2019-08-12 17:02:43:207,0.4952,0.294,9.7586,0.2198,0.1794,9.8025,-0.0038,0.0085,-0.0009
58164,48.223698,-2.112807,159.44,29.74,42.88,325.8,0 / 22,1802865,2019-08-12 17:02:43:307,0.1145,0.2916,9.6784,0.2031,0.1957,9.8026,-0.0006,-0.0021,-0.0009
58165,48.223698,-2.112807,159.44,29.74,42.88,325.8,0 / 22,1802966,2019-08-12 17:02:43:408,0.2151,0.3826,9.8843,0.2061,0.1969,9.8025,0.0016,-0.0064,0.0001
58166,48.223698,-2.112807,159.44,29.74,42.88,325.8,0 / 22,1803065,2019-08-12 17:02:43:507,0.0822,0.3108,9.4641,0.1956,0.195,9.8028,-0.0048,0.0117,0.0012
58167,48.223698,-2.112807,159.44,29.74,42.88,325.8,0 / 22,1803166,2019-08-12 17:02:43:608,0.1397,0.0821,9.8591,0.1846,0.1942,9.803,-0.0027,0.0128,0.0001
58168,48.223698,-2.112807,159.44,29.74,42.88,325.8,0 / 22,1803266,2019-08-12 17:02:43:708,0.196,0.1671,10.0866,0.1722,0.2015,9.8031,-0.0048,0.0053,0.0012
58169,48.223698,-2.112807,159.44,29.74,42.88,325.8,0 / 22,1803367,2019-08-12 17:02:43:809,0.3935,0.2402,10.0112,0.1632,0.2218,9.8028,-0.0016,0.0053,0.0001
58170,48.223698,-2.112807,159.44,29.74,42.88,325.8,0 / 22,1803466,2019-08-12 17:02:43:908,0.0703,0.2653,10.0064,0.1645,0.2354,9.8024,0.0026,-0.0053,0.0001
58171,48.223698,-2.112807,159.44,29.74,42.88,325.8,0 / 22,1803567,2019-08-12 17:02:44:009,0.1924,0.2629,9.8532,0.1623,0.2368,9.8024,0.0047,0.0032,0.0012
58172,48.223698,-2.112807,159.44,29.74,42.88,325.8,0 / 22,1803666,2019-08-12 17:02:44:108,0.1804,0.3682,9.4485,0.1599,0.2449,9.8023,-0.0006,-0.0011,0.0012
58173,48.223698,-2.112807,159.44,29.74,42.88,325.8,0 / 22,1803767,2019-08-12 17:02:44:209,-0.071,0.3491,9.3767,0.1584,0.2481,9.8022,-0.0048,0.0043,0.0001
58174,48.223698,-2.112807,159.44,29.74,42.88,325.8,0 / 22,1803865,2019-08-12 17:02:44:307,0.0463,0.2378,9.3552,0.1595,0.2316,9.8026,-0.0048,0.0074,-0.0052
58175,48.223698,-2.112807,159.44,29.74,42.88,325.8,0 / 22,1803967,2019-08-12 17:02:44:409,0.1062,-0.0244,9.6736,0.1546,0.2065,9.8033,-0.0091,0.0128,-0.0063
58176,48.228207,-2.116496,147.52,29.89,48.24,334.2,0 / 22,1804066,2019-08-12 17:02:44:508,0.2139,-0.0795,10.1058,0.1493,0.1593,9.8042,0.0026,0.0064,-0.0084
58177,48.228207,-2.116496,147.52,29.89,48.24,334.2,0 / 22,1804167,2019-08-12 17:02:44:609,0.2019,-0.1729,9.9669,0.1492,0.1203,9.8048,0.0005,0.0064,-0.0094
58178,48.228207,-2.116496,147.52,29.89,48.24,334.2,0 / 22,1804265,2019-08-12 17:02:44:707,0.2618,-0.1345,10.1225,0.1408,0.0575,9.8055,-0.0048,0.0043,-0.0116
58179,48.228207,-2.116496,147.52,29.89,48.24,334.2,0 / 22,1804367,2019-08-12 17:02:44:809,0.239,-0.034,9.9513,0.1443,0.0225,9.8056,-0.007,-0.0139,-0.0126
58180,48.228207,-2.116496,147.52,29.89,48.24,334.2,0 / 22,1804466,2019-08-12 17:02:44:908,0.3695,-0.0675,9.6054,0.1521,0.012,9.8055,-0.0027,0.0011,-0.0105
58181,48.228207,-2.116496,147.52,29.89,48.24,334.2,0 / 22,1804567,2019-08-12 17:02:45:009,0.0739,0.1468,9.5204,0.1459,-0.002,9.8056,-0.0016,0.0085,-0.0105
58182,48.228207,-2.116496,147.52,29.89,48.24,334.2,0 / 22,1804666,2019-08-12 17:02:45:108,0.0523,-0.1633,9.7071,0.1444,-0.0516,9.8055,-0.0048,0.0053,-0.0116
58183,48.228207,-2.116496,147.52,29.89,48.24,334.2,0 / 22,1804767,2019-08-12 17:02:45:209,0.1241,-0.1022,9.749,0.1517,-0.0772,9.8052,0.0005,-0.0053,-0.0094
58184,48.228207,-2.116496,147.52,29.89,48.24,334.2,0 / 22,1804866,2019-08-12 17:02:45:308,0.081,-0.2746,9.8244,0.1449,-0.087,9.8052,-0.0006,0.0096,-0.0105
58185,48.228207,-2.116496,147.52,29.89,48.24,334.2,0 / 22,1804966,2019-08-12 17:02:45:408,0.1169,-0.2399,10.3069,0.1433,-0.0975,9.8051,0.0016,0.0053,-0.0116
58186,48.228207,-2.116496,147.52,29.89,48.24,334.2,0 / 22,1805066,2019-08-12 17:02:45:508,0.1529,-0.2171,10.3727,0.1424,-0.0986,9.8051,-0.0059,-0.0085,-0.0116
58187,48.228207,-2.116496,147.52,29.89,48.24,334.2,0 / 22,1805166,2019-08-12 17:02:45:608,0.348,-0.1597,9.7011,0.1381,-0.0991,9.8052,-0.0048,0.0085,-0.0116
58188,48.228207,-2.116496,147.52,29.89,48.24,334.2,0 / 22,1805265,2019-08-12 17:02:45:707,0.0032,-0.046,9.6497,0.1239,-0.1109,9.8052,-0.0059,-0.0011,-0.0126
58189,48.228207,-2.116496,147.52,29.89,48.24,334.2,0 / 22,1805366,2019-08-12 17:02:45:808,0.0391,-0.0089,9.439,0.1138,-0.1197,9.8053,-0.007,0.0085,-0.0116
58190,48.228207,-2.116496,147.52,29.89,48.24,334.2,0 / 22,1805467,2019-08-12 17:02:45:909,0.093,-0.0914,9.5323,0.1157,-0.1243,9.8052,0.0037,-0.0011,-0.0126
58191,48.228207,-2.116496,147.52,29.89,48.24,334.2,0 / 22,1805566,2019-08-12 17:02:46:008,-0.0207,-0.0328,9.5623,0.1185,-0.1279,9.8051,-0.0038,-0.0043,-0.0084
58192,48.228207,-2.116496,147.52,29.89,48.24,334.2,0 / 22,1805666,2019-08-12 17:02:46:108,-0.0016,0.0019,9.5443,0.1099,-0.1274,9.8052,-0.0027,0.0053,-0.0073
58193,48.228207,-2.116496,147.52,29.89,48.24,334.2,0 / 22,1805767,2019-08-12 17:02:46:209,0.111,-0.0843,10.174,0.1097,-0.1237,9.8053,-0.0006,-0.0021,-0.0041
58194,48.228207,-2.116496,147.52,29.89,48.24,334.2,0 / 22,1805865,2019-08-12 17:02:46:307,0.2307,0.0402,10.1177,0.1029,-0.1145,9.8054,0.0026,0.0053,-0.0009
58195,48.228207,-2.116496,147.52,29.89,48.24,334.2,0 / 22,1806208,2019-08-12 17:02:46:650,0.2307,0.0402,10.1177,0.1029,-0.1145,9.8054,0.0026,0.0053,-0.0009
58196,48.228207,-2.116496,147.52,29.89,48.24,334.2,0 / 22,1806209,2019-08-12 17:02:46:651,0.2307,0.0402,10.1177,0.1029,-0.1145,9.8054,0.0026,0.0053,-0.0009
58197,48.228207,-2.116496,147.52,29.89,48.24,334.2,0 / 22,1806209,2019-08-12 17:02:46:651,0.2307,0.0402,10.1177,0.1029,-0.1145,9.8054,0.0026,0.0053,-0.0009
58198,48.228207,-2.116496,147.52,29.89,48.24,334.2,0 / 22,1806265,2019-08-12 17:02:46:707,0.2307,0.0402,10.1177,0.1029,-0.1145,9.8054,0.0026,0.0053,-0.0009
58199,48.228207,-2.116496,147.52,29.89,48.24,334.2,0 / 22,1806365,2019-08-12 17:02:46:807,0.2307,0.0402,10.1177,0.1029,-0.1145,9.8054,0.0026,0.0053,-0.0009
58200,48.228207,-2.116496,147.52,29.89,48.24,334.2,0 / 22,1806465,2019-08-12 17:02:46:907,0.0786,0.1803,9.439,0.0408,0.1265,9.8057,0.0058,0.0064,-0.0009
58201,48.228207,-2.116496,147.52,29.89,48.24,334.2,0 / 22,1806566,2019-08-12 17:02:47:008,0.105,0.1192,10.0806,0.0339,0.1504,9.8054,0.0016,-0.0021,-0.002
58202,48.228207,-2.116496,147.52,29.89,48.24,334.2,0 / 22,1806667,2019-08-12 17:02:47:109,-0.0064,0.069,10.0962,0.0274,0.1541,9.8054,0.0005,0.0021,-0.0009
58203,48.228207,-2.116496,147.52,29.89,48.24,334.2,0 / 22,1806766,2019-08-12 17:02:47:208,-0.144,0.2593,10.0974,0.012,0.1752,9.8051,0.0005,0.0032,0.0012
58204,48.228207,-2.116496,147.52,29.89,48.24,334.2,0 / 22,1806866,2019-08-12 17:02:47:308,0.0966,0.4077,9.6784,0.0124,0.1978,9.8046,-0.007,0.0085,0.0012
58205,48.228207,-2.116496,147.52,29.89,48.24,334.2,0 / 22,1806966,2019-08-12 17:02:47:408,0.0798,0.2689,9.8604,0.0132,0.2134,9.8043,0.0026,-0.0053,0.0012
58206,48.228207,-2.116496,147.52,29.89,48.24,334.2,Jun-22,1807067,2019-08-12 17:02:47:509,0.0619,0.233,9.3899,0.0196,0.2133,9.8043,0.0005,-0.0032,-0.0009
58207,48.228207,-2.116496,147.52,29.89,48.24,334.2,Jun-22,1807166,2019-08-12 17:02:47:608,0.002,0.464,9.7383,0.0292,0.2171,9.8042,-0.0102,0.0032,0.0012
58208,48.228207,-2.116496,147.52,29.89,48.24,334.2,Jun-22,1807267,2019-08-12 17:02:47:709,0.0726,0.3323,9.6568,0.0383,0.225,9.804,-0.0112,0.0,0.0033
58209,48.228207,-2.116496,147.52,29.89,48.24,334.2,Jun-22,1807366,2019-08-12 17:02:47:808,0.0224,0.1707,9.5479,0.0442,0.2239,9.804,-0.0059,0.0053,0.0023
58210,48.228207,-2.116496,147.52,29.89,48.24,334.2,Jun-22,1807465,2019-08-12 17:02:47:907,0.0583,0.1348,10.0231,0.0461,0.2248,9.804,-0.0102,0.0021,0.0055
58211,48.228207,-2.116496,147.52,29.89,48.24,334.2,Jun-22,1807567,2019-08-12 17:02:48:009,0.1552,0.1432,10.0722,0.0757,0.2546,9.8031,0.0016,0.0021,0.0012
58212,48.228207,-2.116496,147.52,29.89,48.24,334.2,Jun-22,1807666,2019-08-12 17:02:48:108,0.2929,0.2557,9.6532,0.0929,0.2543,9.8029,-0.0038,0.0021,0.0012
58213,48.228207,-2.116496,147.52,29.89,48.24,334.2,Jun-22,1807767,2019-08-12 17:02:48:209,0.087,0.2832,9.6209,0.1086,0.251,9.8028,-0.0006,-0.0011,0.0012
58214,48.228207,-2.116496,147.52,29.89,48.24,334.2,Jun-22,1807866,2019-08-12 17:02:48:308,0.16,0.2904,9.6281,0.1164,0.2524,9.8027,0.0016,0.0053,0.0023
58215,48.228207,-2.116496,147.52,29.89,48.24,334.2,Jun-22,1807966,2019-08-12 17:02:48:408,0.263,0.47,9.3875,0.1264,0.244,9.8028,0.0005,0.0128,0.0001
58216,48.228207,-2.116496,147.52,29.89,48.24,334.2,0 / 22,1808066,2019-08-12 17:02:48:508,0.0906,0.2593,9.7766,0.1216,0.2439,9.8029,0.0005,0.0032,0.0012
58217,48.228207,-2.116496,147.52,29.89,48.24,334.2,0 / 22,1808167,2019-08-12 17:02:48:609,0.0427,0.0929,9.6018,0.1301,0.2379,9.8029,-0.0038,-0.0053,0.0012
58218,48.228207,-2.116496,147.52,29.89,48.24,334.2,0 / 22,1808266,2019-08-12 17:02:48:708,0.1612,0.0702,10.1117,0.1346,0.2364,9.8029,0.0058,0.0074,0.0001
58219,48.228207,-2.116496,147.52,29.89,48.24,334.2,0 / 22,1808365,2019-08-12 17:02:48:807,0.2163,0.215,10.2925,0.1399,0.2337,9.8029,0.009,0.0021,0.0001
58220,48.228207,-2.116496,147.52,29.89,48.24,334.2,0 / 22,1808466,2019-08-12 17:02:48:908,0.1552,0.0773,10.5128,0.1453,0.2282,9.8029,0.0016,-0.0032,0.0001
58221,48.228207,-2.116496,147.52,29.89,48.24,334.2,0 / 22,1808566,2019-08-12 17:02:49:008,0.1181,0.1683,9.688,0.1384,0.2199,9.8032,0.0079,0.0064,0.0023
58222,48.228207,-2.116496,147.52,29.89,48.24,334.2,0 / 22,1808666,2019-08-12 17:02:49:108,0.2618,0.2413,9.2845,0.1282,0.2272,9.8032,0.0101,0.0128,-0.0009
58223,48.228207,-2.116496,147.52,29.89,48.24,334.2,0 / 22,1808767,2019-08-12 17:02:49:209,0.1229,0.4101,9.2905,0.1067,0.2351,9.8033,0.0069,0.0096,-0.0009
58224,48.228207,-2.116496,147.52,29.89,48.24,334.2,0 / 22,1808867,2019-08-12 17:02:49:309,0.0331,0.1719,9.3564,0.0969,0.2365,9.8033,0.0037,0.0096,-0.0009
58225,48.228207,-2.116496,147.52,29.89,48.24,334.2,0 / 22,1808966,2019-08-12 17:02:49:408,-0.0112,0.2426,9.9214,0.0929,0.2325,9.8035,-0.0016,0.0021,-0.002
58226,48.228207,-2.116496,147.52,29.89,48.24,334.2,0 / 22,1809066,2019-08-12 17:02:49:508,-0.0351,0.1157,9.8053,0.0929,0.2312,9.8035,-0.0006,-0.0032,-0.0009
58227,48.228207,-2.116496,147.52,29.89,48.24,334.2,0 / 22,1809166,2019-08-12 17:02:49:608,-0.0554,0.0594,10.1345,0.0809,0.211,9.804,-0.0144,-0.0011,-0.0031
58228,48.228207,-2.116496,147.52,29.89,48.24,334.2,0 / 22,1809265,2019-08-12 17:02:49:707,0.1313,-0.1705,10.1488,0.0712,0.2162,9.804,-0.0006,0.0053,-0.002
58229,48.228207,-2.116496,147.52,29.89,48.24,334.2,0 / 22,1809366,2019-08-12 17:02:49:808,0.1038,0.1097,10.4876,0.0654,0.1941,9.8045,0.0026,0.0,-0.0009
58230,48.228207,-2.116496,147.52,29.89,48.24,334.2,0 / 22,1809466,2019-08-12 17:02:49:908,0.0296,0.2797,9.992,0.0584,0.1922,9.8046,-0.0048,0.0085,0.0001
58231,48.228207,-2.116496,147.52,29.89,48.24,334.2,0 / 22,1809566,2019-08-12 17:02:50:008,0.0212,0.1635,9.3193,0.0472,0.1834,9.8048,-0.0059,0.0053,-0.0009
58232,48.228207,-2.116496,147.52,29.89,48.24,334.2,0 / 22,1809666,2019-08-12 17:02:50:108,0.0631,0.3515,9.8615,0.033,0.1824,9.8049,-0.0016,0.0053,0.0001
58233,48.228207,-2.116496,147.52,29.89,48.24,334.2,0 / 22,1809765,2019-08-12 17:02:50:207,-0.1428,0.2713,9.5838,0.0161,0.1836,9.8049,-0.0006,0.0085,0.0012
58234,48.228207,-2.116496,147.52,29.89,48.24,334.2,0 / 22,1809866,2019-08-12 17:02:50:308,-0.2961,0.1564,9.4629,-0.0093,0.1833,9.8049,0.0037,0.0074,-0.002
58235,48.228207,-2.116496,147.52,29.89,48.24,334.2,0 / 22,1809966,2019-08-12 17:02:50:408,-0.3775,0.0606,9.6365,-0.0462,0.1829,9.8048,-0.0016,0.0021,-0.0009
58236,48.228207,-2.116496,147.52,29.89,48.24,334.2,0 / 22,1810065,2019-08-12 17:02:50:507,-0.1596,0.0426,9.9956,-0.0545,0.1843,9.8048,0.0016,-0.0064,-0.0031
58237,48.228207,-2.116496,147.52,29.89,48.24,334.2,0 / 22,1810167,2019-08-12 17:02:50:609,-0.1871,0.0295,10.0447,-0.0693,0.1805,9.8047,-0.0038,0.0074,-0.0009
58238,48.228207,-2.116496,147.52,29.89,48.24,334.2,0 / 22,1810265,2019-08-12 17:02:50:707,0.002,0.1911,9.9154,-0.0775,0.1813,9.8047,0.0026,-0.0053,0.0001
58239,48.228207,-2.116496,147.52,29.89,48.24,334.2,0 / 22,1810366,2019-08-12 17:02:50:808,0.0427,0.3814,10.0196,-0.0893,0.1997,9.8042,0.0016,0.0107,0.0033
58240,48.228207,-2.116496,147.52,29.89,48.24,334.2,0 / 22,1810465,2019-08-12 17:02:50:907,-0.0471,0.4066,9.7562,-0.1042,0.202,9.804,-0.0038,0.016,0.0033
58241,48.228207,-2.116496,147.52,29.89,48.24,334.2,0 / 22,1810566,2019-08-12 17:02:51:008,-0.0614,0.3623,9.591,-0.1138,0.2095,9.8038,0.0069,0.0064,0.0023
58242,48.228207,-2.116496,147.52,29.89,48.24,334.2,0 / 22,1810665,2019-08-12 17:02:51:107,-0.253,0.3192,9.2498,-0.1204,0.2125,9.8036,-0.0016,0.0032,0.0012
58243,48.228207,-2.116496,147.52,29.89,48.24,334.2,0 / 22,1810766,2019-08-12 17:02:51:208,-0.4648,0.3886,9.5695,-0.135,0.2248,9.8031,0.0026,0.0011,0.0001
58244,48.228207,-2.116496,147.52,29.89,48.24,334.2,0 / 22,1810866,2019-08-12 17:02:51:308,-0.4134,0.1552,10.0196,-0.1364,0.2284,9.803,-0.0048,-0.0107,0.0001
58245,48.228207,-2.116496,147.52,29.89,48.24,334.2,0 / 22,1810966,2019-08-12 17:02:51:408,-0.1752,0.0283,9.8687,-0.1348,0.2329,9.803,-0.0027,0.0021,0.0001
58246,48.228207,-2.116496,147.52,29.89,48.24,334.2,0 / 22,1811066,2019-08-12 17:02:51:508,-0.2194,0.0354,10.2925,-0.1512,0.2412,9.8025,-0.0091,-0.0011,-0.0031
58247,48.228207,-2.116496,147.52,29.89,48.24,334.2,0 / 22,1811166,2019-08-12 17:02:51:608,-0.0459,0.2653,9.9453,-0.1509,0.2335,9.8027,-0.008,-0.0021,-0.0031
58248,48.228207,-2.116496,147.52,29.89,48.24,334.2,0 / 22,1811265,2019-08-12 17:02:51:707,-0.0195,0.312,10.0818,-0.1741,0.2163,9.8027,-0.0155,-0.0032,-0.002
58249,48.228207,-2.116496,147.52,29.89,48.24,334.2,0 / 22,1811366,2019-08-12 17:02:51:808,-0.2075,0.148,9.4198,-0.1877,0.1968,9.8029,-0.0059,0.0021,-0.0009
58250,48.228207,-2.116496,147.52,29.89,48.24,334.2,0 / 22,1811466,2019-08-12 17:02:51:908,-0.2721,0.3898,9.2857,-0.2119,0.175,9.8028,-0.008,0.0128,0.0001
58251,48.228207,-2.116496,147.52,29.89,48.24,334.2,0 / 22,1811566,2019-08-12 17:02:52:008,-0.2841,0.209,9.5443,-0.2204,0.1696,9.8027,0.0047,0.0064,-0.002
58252,48.228207,-2.116496,147.52,29.89,48.24,334.2,0 / 22,1811665,2019-08-12 17:02:52:107,-0.4194,0.1109,9.4868,-0.2254,0.1428,9.803,-0.008,-0.0021,0.0001
58253,48.228207,-2.116496,147.52,29.89,48.24,334.2,0 / 22,1811766,2019-08-12 17:02:52:208,-0.2973,-0.0783,10.0411,-0.2299,0.1435,9.8029,-0.0016,0.0064,0.0001
58254,48.228207,-2.116496,147.52,29.89,48.24,334.2,0 / 22,1811866,2019-08-12 17:02:52:308,-0.247,-0.028,9.8352,-0.2466,0.1405,9.8025,0.0016,0.0074,-0.002
58255,48.228207,-2.116496,147.52,29.89,48.24,334.2,0 / 22,1811967,2019-08-12 17:02:52:409,-0.0782,-0.0448,9.7167,-0.2575,0.1356,9.8023,0.0069,0.0181,-0.0041
58256,48.228207,-2.116496,147.52,29.89,48.24,334.2,0 / 22,1812067,2019-08-12 17:02:52:509,-0.217,0.1599,9.9872,-0.269,0.134,9.802,-0.0048,0.0,-0.002
58257,48.228207,-2.116496,147.52,29.89,48.24,334.2,0 / 22,1812165,2019-08-12 17:02:52:607,-0.2039,0.1647,9.7347,-0.2649,0.1314,9.8022,0.0005,-0.0053,-0.0031
58258,48.228207,-2.116496,147.52,29.89,48.24,334.2,0 / 22,1812265,2019-08-12 17:02:52:707,-0.1213,0.233,9.3923,-0.2647,0.1206,9.8023,-0.0006,-0.0011,-0.0031
58259,48.228207,-2.116496,147.52,29.89,48.24,334.2,0 / 22,1812366,2019-08-12 17:02:52:808,-0.2805,0.3671,9.4378,-0.2661,0.1195,9.8023,0.0058,0.0032,-0.002
58260,48.228207,-2.116496,147.52,29.89,48.24,334.2,0 / 22,1812467,2019-08-12 17:02:52:909,-0.3811,0.1875,9.4473,-0.2696,0.1259,9.8021,-0.0027,0.0032,-0.0009
58261,48.228207,-2.116496,147.52,29.89,48.24,334.2,0 / 22,1812567,2019-08-12 17:02:53:009,-0.4397,0.0618,9.4713,-0.2666,0.1253,9.8022,-0.0027,-0.0032,-0.002
58262,48.228207,-2.116496,147.52,29.89,48.24,334.2,0 / 22,1813009,2019-08-12 17:02:53:451,-0.2003,0.045,10.0076,-0.2483,0.1382,9.8025,0.0047,0.0021,-0.002
58263,48.228207,-2.116496,147.52,29.89,48.24,334.2,0 / 22,1813010,2019-08-12 17:02:53:452,-0.2003,0.045,10.0076,-0.2483,0.1382,9.8025,0.0047,0.0021,-0.002
58264,48.228207,-2.116496,147.52,29.89,48.24,334.2,0 / 22,1813011,2019-08-12 17:02:53:453,-0.2003,0.045,10.0076,-0.2483,0.1382,9.8025,0.0047,0.0021,-0.002
58265,48.228207,-2.116496,147.52,29.89,48.24,334.2,0 / 22,1813011,2019-08-12 17:02:53:453,-0.2003,0.045,10.0076,-0.2483,0.1382,9.8025,0.0047,0.0021,-0.002
58266,48.228207,-2.116496,147.52,29.89,48.24,334.2,0 / 22,1813012,2019-08-12 17:02:53:454,-0.2003,0.045,10.0076,-0.2483,0.1382,9.8025,0.0047,0.0021,-0.002
58267,48.228207,-2.116496,147.52,29.89,48.24,334.2,0 / 22,1813012,2019-08-12 17:02:53:454,-0.2003,0.045,10.0076,-0.2483,0.1382,9.8025,0.0047,0.0021,-0.002
58268,48.228207,-2.116496,147.52,29.89,48.24,334.2,0 / 22,1813012,2019-08-12 17:02:53:454,-0.2003,0.045,10.0076,-0.2483,0.1382,9.8025,0.0047,0.0021,-0.002
58269,48.228207,-2.116496,147.52,29.89,48.24,334.2,0 / 22,1813014,2019-08-12 17:02:53:456,-0.2003,0.045,10.0076,-0.2483,0.1382,9.8025,0.0047,0.0021,-0.002
58270,48.228207,-2.116496,147.52,29.89,48.24,334.2,0 / 22,1813015,2019-08-12 17:02:53:457,-0.2003,0.045,10.0076,-0.2483,0.1382,9.8025,0.0047,0.0021,-0.002
58271,48.228207,-2.116496,147.52,29.89,48.24,334.2,0 / 22,1813015,2019-08-12 17:02:53:457,-0.2003,0.045,10.0076,-0.2483,0.1382,9.8025,0.0047,0.0021,-0.002
58272,48.228207,-2.116496,147.52,29.89,48.24,334.2,0 / 22,1813016,2019-08-12 17:02:53:458,-0.2003,0.045,10.0076,-0.2483,0.1382,9.8025,0.0047,0.0021,-0.002
58273,48.228207,-2.116496,147.52,29.89,48.24,334.2,0 / 22,1813016,2019-08-12 17:02:53:458,-0.2003,0.045,10.0076,-0.2483,0.1382,9.8025,0.0047,0.0021,-0.002
58274,48.228207,-2.116496,147.52,29.89,48.24,334.2,0 / 22,1813017,2019-08-12 17:02:53:459,-0.2003,0.045,10.0076,-0.2483,0.1382,9.8025,0.0047,0.0021,-0.002
58275,48.228207,-2.116496,147.52,29.89,48.24,334.2,0 / 22,1813017,2019-08-12 17:02:53:459,-0.2003,0.045,10.0076,-0.2483,0.1382,9.8025,0.0047,0.0021,-0.002
58276,48.228207,-2.116496,147.52,29.89,48.24,334.2,0 / 22,1813017,2019-08-12 17:02:53:459,-0.2003,0.045,10.0076,-0.2483,0.1382,9.8025,0.0047,0.0021,-0.002
58277,48.228207,-2.116496,147.52,29.89,48.24,334.2,0 / 22,1813018,2019-08-12 17:02:53:460,-0.2003,0.045,10.0076,-0.2483,0.1382,9.8025,0.0047,0.0021,-0.002
58278,48.228207,-2.116496,147.52,29.89,48.24,334.2,0 / 22,1813018,2019-08-12 17:02:53:460,-0.2003,0.045,10.0076,-0.2483,0.1382,9.8025,0.0047,0.0021,-0.002
58279,48.228207,-2.116496,147.52,29.89,48.24,334.2,0 / 22,1813018,2019-08-12 17:02:53:460,-0.2003,0.045,10.0076,-0.2483,0.1382,9.8025,0.0047,0.0021,-0.002
58280,48.228207,-2.116496,147.52,29.89,48.24,334.2,0 / 22,1813019,2019-08-12 17:02:53:461,-0.2003,0.045,10.0076,-0.2483,0.1382,9.8025,0.0047,0.0021,-0.002
58281,48.228207,-2.116496,147.52,29.89,48.24,334.2,0 / 22,1813019,2019-08-12 17:02:53:461,-0.2003,0.045,10.0076,-0.2483,0.1382,9.8025,0.0047,0.0021,-0.002
58282,48.228207,-2.116496,147.52,29.89,48.24,334.2,0 / 22,1813019,2019-08-12 17:02:53:461,-0.2003,0.045,10.0076,-0.2483,0.1382,9.8025,0.0047,0.0021,-0.002
58283,48.228207,-2.116496,147.52,29.89,48.24,334.2,0 / 22,1813020,2019-08-12 17:02:53:462,-0.2003,0.045,10.0076,-0.2483,0.1382,9.8025,0.0047,0.0021,-0.002
58284,48.228207,-2.116496,147.52,29.89,48.24,334.2,0 / 22,1813020,2019-08-12 17:02:53:462,-0.2003,0.045,10.0076,-0.2483,0.1382,9.8025,0.0047,0.0021,-0.002
58285,48.228207,-2.116496,147.52,29.89,48.24,334.2,0 / 22,1813021,2019-08-12 17:02:53:463,-0.2003,0.045,10.0076,-0.2483,0.1382,9.8025,0.0047,0.0021,-0.002
58286,48.228207,-2.116496,147.52,29.89,48.24,334.2,0 / 22,1813022,2019-08-12 17:02:53:464,-0.2003,0.045,10.0076,-0.2483,0.1382,9.8025,0.0047,0.0021,-0.002
58287,48.228207,-2.116496,147.52,29.89,48.24,334.2,0 / 22,1813083,2019-08-12 17:02:53:525,-0.2003,0.045,10.0076,-0.2483,0.1382,9.8025,0.0047,0.0021,-0.002
58288,48.228207,-2.116496,147.52,29.89,48.24,334.2,0 / 22,1813475,2019-08-12 17:02:53:917,-0.2003,0.045,10.0076,-0.2483,0.1382,9.8025,0.0047,0.0021,-0.002
58289,48.228207,-2.116496,147.52,29.89,48.24,334.2,0 / 22,1813476,2019-08-12 17:02:53:918,-0.2003,0.045,10.0076,-0.2483,0.1382,9.8025,0.0047,0.0021,-0.002
58290,48.228207,-2.116496,147.52,29.89,48.24,334.2,0 / 22,1813476,2019-08-12 17:02:53:918,-0.2003,0.045,10.0076,-0.2483,0.1382,9.8025,0.0047,0.0021,-0.002
58291,48.228207,-2.116496,147.52,29.89,48.24,334.2,0 / 22,1813477,2019-08-12 17:02:53:919,-0.2003,0.045,10.0076,-0.2483,0.1382,9.8025,0.0047,0.0021,-0.002
58292,48.228207,-2.116496,147.52,29.89,48.24,334.2,0 / 22,1813477,2019-08-12 17:02:53:919,-0.2003,0.045,10.0076,-0.2483,0.1382,9.8025,0.0047,0.0021,-0.002
58293,48.228207,-2.116496,147.52,29.89,48.24,334.2,0 / 22,1813478,2019-08-12 17:02:53:920,-0.2003,0.045,10.0076,-0.2483,0.1382,9.8025,0.0047,0.0021,-0.002
58294,48.228207,-2.116496,147.52,29.89,48.24,334.2,0 / 22,1813478,2019-08-12 17:02:53:920,-0.2003,0.045,10.0076,-0.2483,0.1382,9.8025,0.0047,0.0021,-0.002
58295,48.228207,-2.116496,147.52,29.89,48.24,334.2,0 / 22,1813480,2019-08-12 17:02:53:922,-0.2003,0.045,10.0076,-0.2483,0.1382,9.8025,0.0047,0.0021,-0.002
58296,48.228207,-2.116496,147.52,29.89,48.24,334.2,Aug-22,1813550,2019-08-12 17:02:53:992,-0.2003,0.045,10.0076,-0.2483,0.1382,9.8025,0.0047,0.0021,-0.002
58297,48.228207,-2.116496,147.52,29.89,48.24,334.2,0 / 22,1813928,2019-08-12 17:02:54:370,-0.2003,0.045,10.0076,-0.2483,0.1382,9.8025,0.0047,0.0021,-0.002
58298,48.228207,-2.116496,147.52,29.89,48.24,334.2,0 / 22,1813929,2019-08-12 17:02:54:371,-0.2003,0.045,10.0076,-0.2483,0.1382,9.8025,0.0047,0.0021,-0.002
58299,48.228207,-2.116496,147.52,29.89,48.24,334.2,0 / 22,1813929,2019-08-12 17:02:54:371,-0.2003,0.045,10.0076,-0.2483,0.1382,9.8025,0.0047,0.0021,-0.002
58300,48.228207,-2.116496,147.52,29.89,48.24,334.2,0 / 22,1813932,2019-08-12 17:02:54:374,-0.2003,0.045,10.0076,-0.2483,0.1382,9.8025,0.0047,0.0021,-0.002
58301,48.228207,-2.116496,147.52,29.89,48.24,334.2,0 / 22,1813932,2019-08-12 17:02:54:374,-0.2003,0.045,10.0076,-0.2483,0.1382,9.8025,0.0047,0.0021,-0.002
58302,48.228207,-2.116496,147.52,29.89,48.24,334.2,0 / 22,1813933,2019-08-12 17:02:54:375,-0.2003,0.045,10.0076,-0.2483,0.1382,9.8025,0.0047,0.0021,-0.002
58303,48.228207,-2.116496,147.52,29.89,48.24,334.2,0 / 22,1813933,2019-08-12 17:02:54:375,-0.2003,0.045,10.0076,-0.2483,0.1382,9.8025,0.0047,0.0021,-0.002
58304,48.228207,-2.116496,147.52,29.89,48.24,334.2,0 / 22,1813933,2019-08-12 17:02:54:375,-0.2003,0.045,10.0076,-0.2483,0.1382,9.8025,0.0047,0.0021,-0.002
58305,48.228207,-2.116496,147.52,29.89,48.24,334.2,0 / 22,1813934,2019-08-12 17:02:54:376,-0.2003,0.045,10.0076,-0.2483,0.1382,9.8025,0.0047,0.0021,-0.002
58306,48.228207,-2.116496,147.52,29.89,48.24,334.2,0 / 22,1813934,2019-08-12 17:02:54:376,-0.2003,0.045,10.0076,-0.2483,0.1382,9.8025,0.0047,0.0021,-0.002
58307,48.23114,-2.11912,148.14,29.92,19.296,333.3,0 / 22,1813999,2019-08-12 17:02:54:441,-0.2003,0.045,10.0076,-0.2483,0.1382,9.8025,0.0047,0.0021,-0.002
58308,48.23114,-2.11912,148.14,29.92,19.296,333.3,0 / 22,1814391,2019-08-12 17:02:54:833,-0.2003,0.045,10.0076,-0.2483,0.1382,9.8025,0.0047,0.0021,-0.002
58309,48.23114,-2.11912,148.14,29.92,19.296,333.3,0 / 22,1814392,2019-08-12 17:02:54:834,-0.2003,0.045,10.0076,-0.2483,0.1382,9.8025,0.0047,0.0021,-0.002
58310,48.23114,-2.11912,148.14,29.92,19.296,333.3,0 / 22,1814392,2019-08-12 17:02:54:834,-0.2003,0.045,10.0076,-0.2483,0.1382,9.8025,0.0047,0.0021,-0.002
58311,48.23114,-2.11912,148.14,29.92,19.296,333.3,0 / 22,1814399,2019-08-12 17:02:54:841,-0.2003,0.045,10.0076,-0.2483,0.1382,9.8025,0.0047,0.0021,-0.002
58312,48.23114,-2.11912,148.14,29.92,19.296,333.3,0 / 22,1814499,2019-08-12 17:02:54:941,-0.2003,0.045,10.0076,-0.2483,0.1382,9.8025,0.0047,0.0021,-0.002
58313,48.23114,-2.11912,148.14,29.92,19.296,333.3,0 / 22,1814599,2019-08-12 17:02:55:041,-0.162,0.051,10.1943,-0.2483,0.1382,9.8025,0.0047,0.0021,-0.002
58314,48.23114,-2.11912,148.14,29.92,19.296,333.3,0 / 22,1814947,2019-08-12 17:02:55:389,-0.162,0.051,10.1943,-0.3267,0.3533,9.7948,-0.0027,0.0064,-0.002
58315,48.23114,-2.11912,148.14,29.92,19.296,333.3,0 / 22,1814947,2019-08-12 17:02:55:389,-0.162,0.051,10.1943,-0.3267,0.3533,9.7948,-0.0027,0.0064,-0.002
58316,48.23114,-2.11912,148.14,29.92,19.296,333.3,0 / 22,1814948,2019-08-12 17:02:55:390,-0.162,0.051,10.1943,-0.3267,0.3533,9.7948,-0.0027,0.0064,-0.002
58317,48.23114,-2.11912,148.14,29.92,19.296,333.3,0 / 22,1814949,2019-08-12 17:02:55:391,-0.162,0.051,10.1943,-0.3267,0.3533,9.7948,-0.0027,0.0064,-0.002
58318,48.23114,-2.11912,148.14,29.92,19.296,333.3,0 / 22,1814949,2019-08-12 17:02:55:391,-0.162,0.051,10.1943,-0.3267,0.3533,9.7948,-0.0027,0.0064,-0.002
58319,48.23114,-2.11912,148.14,29.92,19.296,333.3,0 / 22,1814949,2019-08-12 17:02:55:391,-0.162,0.051,10.1943,-0.3267,0.3533,9.7948,-0.0027,0.0064,-0.002
58320,48.23114,-2.11912,148.14,29.92,19.296,333.3,0 / 22,1814950,2019-08-12 17:02:55:392,-0.162,0.051,10.1943,-0.3267,0.3533,9.7948,-0.0027,0.0064,-0.002
58321,48.23114,-2.11912,148.14,29.92,19.296,333.3,0 / 22,1814950,2019-08-12 17:02:55:392,-0.162,0.051,10.1943,-0.3267,0.3533,9.7948,-0.0027,0.0064,-0.002
58322,48.23114,-2.11912,148.14,29.92,19.296,333.3,0 / 22,1814951,2019-08-12 17:02:55:393,-0.162,0.051,10.1943,-0.3267,0.3533,9.7948,-0.0027,0.0064,-0.002
58323,48.23114,-2.11912,148.14,29.92,19.296,333.3,0 / 22,1814951,2019-08-12 17:02:55:393,-0.162,0.051,10.1943,-0.3267,0.3533,9.7948,-0.0027,0.0064,-0.002
58324,48.23114,-2.11912,148.14,29.92,19.296,333.3,0 / 22,1814980,2019-08-12 17:02:55:422,-0.162,0.051,10.1943,-0.3267,0.3533,9.7948,-0.0027,0.0064,-0.002
58325,48.23114,-2.11912,148.14,29.92,19.296,333.3,0 / 22,1814980,2019-08-12 17:02:55:422,-0.162,0.051,10.1943,-0.3267,0.3533,9.7948,-0.0027,0.0064,-0.002
58326,48.23114,-2.11912,148.14,29.92,19.296,333.3,0 / 22,1814981,2019-08-12 17:02:55:423,-0.162,0.051,10.1943,-0.3267,0.3533,9.7948,-0.0027,0.0064,-0.002
58327,48.23114,-2.11912,148.14,29.92,19.296,333.3,0 / 22,1814981,2019-08-12 17:02:55:423,-0.162,0.051,10.1943,-0.3267,0.3533,9.7948,-0.0027,0.0064,-0.002
58328,48.23114,-2.11912,148.14,29.92,19.296,333.3,0 / 22,1814982,2019-08-12 17:02:55:424,-0.162,0.051,10.1943,-0.3267,0.3533,9.7948,-0.0027,0.0064,-0.002
58329,48.23114,-2.11912,148.14,29.92,19.296,333.3,0 / 22,1814982,2019-08-12 17:02:55:424,-0.162,0.051,10.1943,-0.3267,0.3533,9.7948,-0.0027,0.0064,-0.002
58330,48.23114,-2.11912,148.14,29.92,19.296,333.3,0 / 22,1814983,2019-08-12 17:02:55:425,-0.162,0.051,10.1943,-0.3267,0.3533,9.7948,-0.0027,0.0064,-0.002
58331,48.23114,-2.11912,148.14,29.92,19.296,333.3,0 / 22,1814983,2019-08-12 17:02:55:425,-0.162,0.051,10.1943,-0.3267,0.3533,9.7948,-0.0027,0.0064,-0.002
58332,48.23114,-2.11912,148.14,29.92,19.296,333.3,0 / 22,1814983,2019-08-12 17:02:55:425,-0.162,0.051,10.1943,-0.3267,0.3533,9.7948,-0.0027,0.0064,-0.002
58333,48.23114,-2.11912,148.14,29.92,19.296,333.3,0 / 22,1814984,2019-08-12 17:02:55:426,-0.162,0.051,10.1943,-0.3267,0.3533,9.7948,-0.0027,0.0064,-0.002
58334,48.23114,-2.11912,148.14,29.92,19.296,333.3,0 / 22,1814984,2019-08-12 17:02:55:426,-0.162,0.051,10.1943,-0.3267,0.3533,9.7948,-0.0027,0.0064,-0.002
58335,48.23114,-2.11912,148.14,29.92,19.296,333.3,0 / 22,1814985,2019-08-12 17:02:55:427,-0.162,0.051,10.1943,-0.3267,0.3533,9.7948,-0.0027,0.0064,-0.002
58336,48.23114,-2.11912,148.14,29.92,19.296,333.3,0 / 22,1814989,2019-08-12 17:02:55:431,-0.162,0.051,10.1943,-0.3267,0.3533,9.7948,-0.0027,0.0064,-0.002
58337,48.23114,-2.11912,148.14,29.92,19.296,333.3,0 / 22,1814989,2019-08-12 17:02:55:431,-0.162,0.051,10.1943,-0.3267,0.3533,9.7948,-0.0027,0.0064,-0.002
58338,48.23114,-2.11912,148.14,29.92,19.296,333.3,0 / 22,1814990,2019-08-12 17:02:55:432,-0.162,0.051,10.1943,-0.3267,0.3533,9.7948,-0.0027,0.0064,-0.002
58339,48.23114,-2.11912,148.14,29.92,19.296,333.3,0 / 22,1814990,2019-08-12 17:02:55:432,-0.162,0.051,10.1943,-0.3267,0.3533,9.7948,-0.0027,0.0064,-0.002
58340,48.23114,-2.11912,148.14,29.92,19.296,333.3,0 / 22,1814991,2019-08-12 17:02:55:433,-0.162,0.051,10.1943,-0.3267,0.3533,9.7948,-0.0027,0.0064,-0.002
58341,48.23114,-2.11912,148.14,29.92,19.296,333.3,0 / 22,1814991,2019-08-12 17:02:55:433,-0.162,0.051,10.1943,-0.3267,0.3533,9.7948,-0.0027,0.0064,-0.002
58342,48.23114,-2.11912,148.14,29.92,19.296,333.3,0 / 22,1814992,2019-08-12 17:02:55:434,-0.162,0.051,10.1943,-0.3267,0.3533,9.7948,-0.0027,0.0064,-0.002
58343,48.23114,-2.11912,148.14,29.92,19.296,333.3,0 / 22,1814992,2019-08-12 17:02:55:434,-0.162,0.051,10.1943,-0.3267,0.3533,9.7948,-0.0027,0.0064,-0.002
58344,48.23114,-2.11912,148.14,29.92,19.296,333.3,0 / 22,1814992,2019-08-12 17:02:55:434,-0.162,0.051,10.1943,-0.3267,0.3533,9.7948,-0.0027,0.0064,-0.002
58345,48.23114,-2.11912,148.14,29.92,19.296,333.3,0 / 22,1814993,2019-08-12 17:02:55:435,-0.162,0.051,10.1943,-0.3267,0.3533,9.7948,-0.0027,0.0064,-0.002
58346,48.23114,-2.11912,148.14,29.92,19.296,333.3,0 / 22,1814993,2019-08-12 17:02:55:435,-0.162,0.051,10.1943,-0.3267,0.3533,9.7948,-0.0027,0.0064,-0.002
58347,48.23114,-2.11912,148.14,29.92,19.296,333.3,0 / 22,1814994,2019-08-12 17:02:55:436,-0.162,0.051,10.1943,-0.3267,0.3533,9.7948,-0.0027,0.0064,-0.002
58348,48.23114,-2.11912,148.14,29.92,19.296,333.3,0 / 22,1814994,2019-08-12 17:02:55:436,-0.162,0.051,10.1943,-0.3267,0.3533,9.7948,-0.0027,0.0064,-0.002
58349,48.23114,-2.11912,148.14,29.92,19.296,333.3,0 / 22,1814994,2019-08-12 17:02:55:436,-0.162,0.051,10.1943,-0.3267,0.3533,9.7948,-0.0027,0.0064,-0.002
58350,48.23114,-2.11912,148.14,29.92,19.296,333.3,0 / 22,1814995,2019-08-12 17:02:55:437,-0.162,0.051,10.1943,-0.3267,0.3533,9.7948,-0.0027,0.0064,-0.002
58351,48.23114,-2.11912,148.14,29.92,19.296,333.3,0 / 22,1815004,2019-08-12 17:02:55:446,-0.162,0.051,10.1943,-0.3267,0.3533,9.7948,-0.0027,0.0064,-0.002
58352,48.23114,-2.11912,148.14,29.92,19.296,333.3,0 / 22,1815005,2019-08-12 17:02:55:447,-0.162,0.051,10.1943,-0.3267,0.3533,9.7948,-0.0027,0.0064,-0.002
58353,48.23114,-2.11912,148.14,29.92,19.296,333.3,0 / 22,1815005,2019-08-12 17:02:55:447,-0.162,0.051,10.1943,-0.3267,0.3533,9.7948,-0.0027,0.0064,-0.002
58354,48.23114,-2.11912,148.14,29.92,19.296,333.3,0 / 22,1815006,2019-08-12 17:02:55:448,-0.162,0.051,10.1943,-0.3267,0.3533,9.7948,-0.0027,0.0064,-0.002
58355,48.23114,-2.11912,148.14,29.92,19.296,333.3,0 / 22,1815006,2019-08-12 17:02:55:448,-0.162,0.051,10.1943,-0.3267,0.3533,9.7948,-0.0027,0.0064,-0.002
58356,48.23114,-2.11912,148.14,29.92,19.296,333.3,0 / 22,1815007,2019-08-12 17:02:55:449,-0.162,0.051,10.1943,-0.3267,0.3533,9.7948,-0.0027,0.0064,-0.002
58357,48.23114,-2.11912,148.14,29.92,19.296,333.3,0 / 22,1815007,2019-08-12 17:02:55:449,-0.162,0.051,10.1943,-0.3267,0.3533,9.7948,-0.0027,0.0064,-0.002
58358,48.23114,-2.11912,148.14,29.92,19.296,333.3,0 / 22,1815008,2019-08-12 17:02:55:450,-0.162,0.051,10.1943,-0.3267,0.3533,9.7948,-0.0027,0.0064,-0.002
58359,48.23114,-2.11912,148.14,29.92,19.296,333.3,0 / 22,1815008,2019-08-12 17:02:55:450,-0.162,0.051,10.1943,-0.3267,0.3533,9.7948,-0.0027,0.0064,-0.002
58360,48.23114,-2.11912,148.14,29.92,19.296,333.3,0 / 22,1815009,2019-08-12 17:02:55:451,-0.162,0.051,10.1943,-0.3267,0.3533,9.7948,-0.0027,0.0064,-0.002
58361,48.23114,-2.11912,148.14,29.92,19.296,333.3,0 / 22,1815009,2019-08-12 17:02:55:451,-0.162,0.051,10.1943,-0.3267,0.3533,9.7948,-0.0027,0.0064,-0.002
58362,48.23114,-2.11912,148.14,29.92,19.296,333.3,0 / 22,1815009,2019-08-12 17:02:55:451,-0.162,0.051,10.1943,-0.3267,0.3533,9.7948,-0.0027,0.0064,-0.002
58363,48.23114,-2.11912,148.14,29.92,19.296,333.3,0 / 22,1815010,2019-08-12 17:02:55:452,-0.162,0.051,10.1943,-0.3267,0.3533,9.7948,-0.0027,0.0064,-0.002
58364,48.23114,-2.11912,148.14,29.92,19.296,333.3,0 / 22,1815010,2019-08-12 17:02:55:452,-0.162,0.051,10.1943,-0.3267,0.3533,9.7948,-0.0027,0.0064,-0.002
58365,48.23114,-2.11912,148.14,29.92,19.296,333.3,0 / 22,1815011,2019-08-12 17:02:55:453,-0.162,0.051,10.1943,-0.3267,0.3533,9.7948,-0.0027,0.0064,-0.002
58366,48.23114,-2.11912,148.14,29.92,19.296,333.3,0 / 22,1815011,2019-08-12 17:02:55:453,-0.162,0.051,10.1943,-0.3267,0.3533,9.7948,-0.0027,0.0064,-0.002
58367,48.23114,-2.11912,148.14,29.92,19.296,333.3,0 / 22,1815011,2019-08-12 17:02:55:453,-0.162,0.051,10.1943,-0.3267,0.3533,9.7948,-0.0027,0.0064,-0.002
58368,48.23114,-2.11912,148.14,29.92,19.296,333.3,0 / 22,1815021,2019-08-12 17:02:55:463,-0.162,0.051,10.1943,-0.3267,0.3533,9.7948,-0.0027,0.0064,-0.002
58369,48.23114,-2.11912,148.14,29.92,19.296,333.3,0 / 22,1815021,2019-08-12 17:02:55:463,-0.162,0.051,10.1943,-0.3267,0.3533,9.7948,-0.0027,0.0064,-0.002
58370,48.23114,-2.11912,148.14,29.92,19.296,333.3,0 / 22,1815022,2019-08-12 17:02:55:464,-0.162,0.051,10.1943,-0.3267,0.3533,9.7948,-0.0027,0.0064,-0.002
58371,48.23114,-2.11912,148.14,29.92,19.296,333.3,0 / 22,1815023,2019-08-12 17:02:55:465,-0.162,0.051,10.1943,-0.3267,0.3533,9.7948,-0.0027,0.0064,-0.002
58372,48.23114,-2.11912,148.14,29.92,19.296,333.3,0 / 22,1815023,2019-08-12 17:02:55:465,-0.162,0.051,10.1943,-0.3267,0.3533,9.7948,-0.0027,0.0064,-0.002
58373,48.23114,-2.11912,148.14,29.92,19.296,333.3,0 / 22,1815023,2019-08-12 17:02:55:465,-0.162,0.051,10.1943,-0.3267,0.3533,9.7948,-0.0027,0.0064,-0.002
58374,48.23114,-2.11912,148.14,29.92,19.296,333.3,0 / 22,1815025,2019-08-12 17:02:55:467,-0.162,0.051,10.1943,-0.3267,0.3533,9.7948,-0.0027,0.0064,-0.002
58375,48.23114,-2.11912,148.14,29.92,19.296,333.3,0 / 22,1815026,2019-08-12 17:02:55:468,-0.162,0.051,10.1943,-0.3267,0.3533,9.7948,-0.0027,0.0064,-0.002
58376,48.23114,-2.11912,148.14,29.92,19.296,333.3,0 / 22,1815026,2019-08-12 17:02:55:468,-0.162,0.051,10.1943,-0.3267,0.3533,9.7948,-0.0027,0.0064,-0.002
58377,48.23114,-2.11912,148.14,29.92,19.296,333.3,0 / 22,1815036,2019-08-12 17:02:55:478,-0.162,0.051,10.1943,-0.3267,0.3533,9.7948,-0.0027,0.0064,-0.002
58378,48.23114,-2.11912,148.14,29.92,19.296,333.3,0 / 22,1815132,2019-08-12 17:02:55:574,-0.4241,0.7848,9.3899,-0.3267,0.3533,9.7948,0.0079,0.0138,0.0321
58379,48.23114,-2.11912,148.14,29.92,19.296,333.3,0 / 22,1815232,2019-08-12 17:02:55:674,-0.4337,0.6759,9.354,-0.5011,0.6787,9.7703,0.0069,0.0032,0.0321
58380,48.23114,-2.11912,148.14,29.92,19.296,333.3,0 / 22,1815332,2019-08-12 17:02:55:774,-0.5235,0.5406,9.7993,-0.4917,0.6785,9.7708,0.0175,-0.0117,0.0321
58381,48.23114,-2.11912,148.14,29.92,19.296,333.3,0 / 22,1815432,2019-08-12 17:02:55:874,-0.4301,0.6184,9.2905,-0.4915,0.6988,9.7694,0.0111,0.0149,0.0332
58382,48.23114,-2.11912,148.14,29.92,19.296,333.3,0 / 22,1815532,2019-08-12 17:02:55:974,-0.5594,0.561,9.8316,-0.5069,0.7153,9.7674,0.0186,0.0224,0.0332
58383,48.23114,-2.11912,148.14,29.92,19.296,333.3,0 / 22,1815631,2019-08-12 17:02:56:073,-0.5666,0.6244,10.083,-0.5051,0.7325,9.7662,0.0197,-0.0053,0.0332
58384,48.23114,-2.11912,148.14,29.92,19.296,333.3,0 / 22,1815732,2019-08-12 17:02:56:174,-0.581,0.7681,10.1644,-0.5012,0.7584,9.7644,0.0133,-0.0043,0.0353
58385,48.23114,-2.11912,148.14,29.92,19.296,333.3,0 / 22,1815832,2019-08-12 17:02:56:274,-0.4996,0.8842,9.7538,-0.4991,0.7922,9.7619,0.0175,0.0085,0.0342
58386,48.23114,-2.11912,148.14,29.92,19.296,333.3,Jun-22,1815932,2019-08-12 17:02:56:374,-0.3894,0.9369,9.737,-0.5033,0.8156,9.7597,0.0175,0.0117,0.0364
58387,48.23114,-2.11912,148.14,29.92,19.296,333.3,Jun-22,1816033,2019-08-12 17:02:56:475,-0.4433,1.0697,9.6772,-0.5128,0.8552,9.7558,0.0165,-0.0011,0.0374
58388,48.23114,-2.11912,148.14,29.92,19.296,333.3,Jun-22,1816132,2019-08-12 17:02:56:574,-0.4852,0.9285,9.4521,-0.5161,0.8685,9.7545,0.0143,0.0053,0.0374
58389,48.23114,-2.11912,148.14,29.92,19.296,333.3,Jun-22,1816232,2019-08-12 17:02:56:674,-0.575,0.9668,9.1564,-0.533,0.9058,9.7502,0.0101,0.0043,0.0374
58390,48.23114,-2.11912,148.14,29.92,19.296,333.3,Jun-22,1816331,2019-08-12 17:02:56:773,-0.557,0.9656,9.7514,-0.5339,0.9139,9.7494,0.0101,0.0011,0.0364
58391,48.23114,-2.11912,148.14,29.92,19.296,333.3,Jun-22,1816431,2019-08-12 17:02:56:873,-0.6839,0.7944,9.834,-0.5373,0.9301,9.7477,0.0133,0.0043,0.0353
58392,48.23114,-2.11912,148.14,29.92,19.296,333.3,Jun-22,1816533,2019-08-12 17:02:56:975,-0.6588,0.8567,10.1129,-0.5352,0.9473,9.7461,0.0186,-0.0021,0.0364
58393,48.23114,-2.11912,148.14,29.92,19.296,333.3,Jun-22,1816632,2019-08-12 17:02:57:074,-1.0251,1.0326,10.022,-0.5413,0.9584,9.7447,-0.0016,0.0032,0.0364
58394,48.23114,-2.11912,148.14,29.92,19.296,333.3,Jun-22,1816731,2019-08-12 17:02:57:173,-0.9221,0.9261,9.8963,-0.5637,0.9704,9.7422,0.0079,-0.0011,0.0364
58395,48.23114,-2.11912,148.14,29.92,19.296,333.3,Jun-22,1816833,2019-08-12 17:02:57:275,-0.6851,0.974,10.2614,-0.5839,0.976,9.7405,0.0154,0.0064,0.0342
58396,48.23114,-2.11912,148.14,29.92,19.296,333.3,0 / 22,1816932,2019-08-12 17:02:57:374,-0.7905,1.1057,10.1776,-0.5863,0.9839,9.7395,0.009,-0.0032,0.031
58397,48.23114,-2.11912,148.14,29.92,19.296,333.3,0 / 22,1817282,2019-08-12 17:02:57:724,-0.6444,1.0757,9.2403,-0.5897,0.9909,9.7386,0.0101,-0.0053,0.0321
58398,48.23114,-2.11912,148.14,29.92,19.296,333.3,0 / 22,1817283,2019-08-12 17:02:57:725,-0.6444,1.0757,9.2403,-0.5897,0.9909,9.7386,0.0101,-0.0053,0.0321
58399,48.23114,-2.11912,148.14,29.92,19.296,333.3,0 / 22,1817283,2019-08-12 17:02:57:725,-0.6444,1.0757,9.2403,-0.5897,0.9909,9.7386,0.0101,-0.0053,0.0321
58400,48.23114,-2.11912,148.14,29.92,19.296,333.3,0 / 22,1817287,2019-08-12 17:02:57:729,-0.6444,1.0757,9.2403,-0.5897,0.9909,9.7386,0.0101,-0.0053,0.0321
58401,48.23114,-2.11912,148.14,29.92,19.296,333.3,0 / 22,1817288,2019-08-12 17:02:57:730,-0.6444,1.0757,9.2403,-0.5897,0.9909,9.7386,0.0101,-0.0053,0.0321
58402,48.23114,-2.11912,148.14,29.92,19.296,333.3,0 / 22,1817289,2019-08-12 17:02:57:731,-0.6444,1.0757,9.2403,-0.5897,0.9909,9.7386,0.0101,-0.0053,0.0321
58403,48.23114,-2.11912,148.14,29.92,19.296,333.3,0 / 22,1817289,2019-08-12 17:02:57:731,-0.6444,1.0757,9.2403,-0.5897,0.9909,9.7386,0.0101,-0.0053,0.0321
58404,48.23114,-2.11912,148.14,29.92,19.296,333.3,0 / 22,1817290,2019-08-12 17:02:57:732,-0.6444,1.0757,9.2403,-0.5897,0.9909,9.7386,0.0101,-0.0053,0.0321
58405,48.23114,-2.11912,148.14,29.92,19.296,333.3,0 / 22,1817290,2019-08-12 17:02:57:732,-0.6444,1.0757,9.2403,-0.5897,0.9909,9.7386,0.0101,-0.0053,0.0321
58406,48.23114,-2.11912,148.14,29.92,19.296,333.3,0 / 22,1817290,2019-08-12 17:02:57:732,-0.6444,1.0757,9.2403,-0.5897,0.9909,9.7386,0.0101,-0.0053,0.0321
58407,48.23366,-2.121235,159.15,31.99,25.728,324.0,0 / 22,1817352,2019-08-12 17:02:57:794,-0.6444,1.0757,9.2403,-0.5897,0.9909,9.7386,0.0101,-0.0053,0.0321
58408,48.23366,-2.121235,159.15,31.99,25.728,324.0,0 / 22,1817452,2019-08-12 17:02:57:894,-0.6444,1.0757,9.2403,-0.5897,0.9909,9.7386,0.0101,-0.0053,0.0321
58409,48.23366,-2.121235,159.15,31.99,25.728,324.0,0 / 22,1817553,2019-08-12 17:02:57:995,-0.4888,0.5586,9.2367,-0.607,0.8096,9.7543,0.0069,0.0074,0.0119
58410,48.23366,-2.121235,159.15,31.99,25.728,324.0,0 / 22,1817653,2019-08-12 17:02:58:095,-0.8635,0.3407,9.6113,-0.6157,0.7322,9.7599,0.0058,0.0011,0.0087
58411,48.23366,-2.121235,159.15,31.99,25.728,324.0,0 / 22,1817754,2019-08-12 17:02:58:196,-0.6887,0.2629,9.7706,-0.6153,0.6861,9.7633,0.0037,0.0074,0.0097
58412,48.23366,-2.121235,159.15,31.99,25.728,324.0,0 / 22,1818156,2019-08-12 17:02:58:598,-0.7545,0.4113,10.5822,-0.5938,0.6324,9.7682,0.0143,-0.0171,0.0087
58413,48.23366,-2.121235,159.15,31.99,25.728,324.0,0 / 22,1818156,2019-08-12 17:02:58:598,-0.7545,0.4113,10.5822,-0.5938,0.6324,9.7682,0.0143,-0.0171,0.0087
58414,48.23366,-2.121235,159.15,31.99,25.728,324.0,0 / 22,1818157,2019-08-12 17:02:58:599,-0.7545,0.4113,10.5822,-0.5938,0.6324,9.7682,0.0143,-0.0171,0.0087
58415,48.23366,-2.121235,159.15,31.99,25.728,324.0,0 / 22,1818157,2019-08-12 17:02:58:599,-0.7545,0.4113,10.5822,-0.5938,0.6324,9.7682,0.0143,-0.0171,0.0087
58416,48.23366,-2.121235,159.15,31.99,25.728,324.0,0 / 22,1818158,2019-08-12 17:02:58:600,-0.7545,0.4113,10.5822,-0.5938,0.6324,9.7682,0.0143,-0.0171,0.0087
58417,48.23366,-2.121235,159.15,31.99,25.728,324.0,0 / 22,1818158,2019-08-12 17:02:58:600,-0.7545,0.4113,10.5822,-0.5938,0.6324,9.7682,0.0143,-0.0171,0.0087
58418,48.23366,-2.121235,159.15,31.99,25.728,324.0,0 / 22,1818158,2019-08-12 17:02:58:600,-0.7545,0.4113,10.5822,-0.5938,0.6324,9.7682,0.0143,-0.0171,0.0087
58419,48.23366,-2.121235,159.15,31.99,25.728,324.0,0 / 22,1818159,2019-08-12 17:02:58:601,-0.7545,0.4113,10.5822,-0.5938,0.6324,9.7682,0.0143,-0.0171,0.0087
58420,48.23366,-2.121235,159.15,31.99,25.728,324.0,0 / 22,1818159,2019-08-12 17:02:58:601,-0.7545,0.4113,10.5822,-0.5938,0.6324,9.7682,0.0143,-0.0171,0.0087
58421,48.23366,-2.121235,159.15,31.99,25.728,324.0,0 / 22,1818159,2019-08-12 17:02:58:601,-0.7545,0.4113,10.5822,-0.5938,0.6324,9.7682,0.0143,-0.0171,0.0087
58422,48.23366,-2.121235,159.15,31.99,25.728,324.0,0 / 22,1818164,2019-08-12 17:02:58:606,-0.7545,0.4113,10.5822,-0.5938,0.6324,9.7682,0.0143,-0.0171,0.0087
58423,48.23366,-2.121235,159.15,31.99,25.728,324.0,0 / 22,1818164,2019-08-12 17:02:58:606,-0.7545,0.4113,10.5822,-0.5938,0.6324,9.7682,0.0143,-0.0171,0.0087
58424,48.23366,-2.121235,159.15,31.99,25.728,324.0,0 / 22,1818164,2019-08-12 17:02:58:606,-0.7545,0.4113,10.5822,-0.5938,0.6324,9.7682,0.0143,-0.0171,0.0087
58425,48.23366,-2.121235,159.15,31.99,25.728,324.0,0 / 22,1818166,2019-08-12 17:02:58:608,-0.7545,0.4113,10.5822,-0.5938,0.6324,9.7682,0.0143,-0.0171,0.0087
58426,48.23366,-2.121235,159.15,31.99,25.728,324.0,0 / 22,1818167,2019-08-12 17:02:58:609,-0.7545,0.4113,10.5822,-0.5938,0.6324,9.7682,0.0143,-0.0171,0.0087
58427,48.23366,-2.121235,159.15,31.99,25.728,324.0,0 / 22,1818171,2019-08-12 17:02:58:613,-0.7545,0.4113,10.5822,-0.5938,0.6324,9.7682,0.0143,-0.0171,0.0087
58428,48.23366,-2.121235,159.15,31.99,25.728,324.0,0 / 22,1818173,2019-08-12 17:02:58:615,-0.7545,0.4113,10.5822,-0.5938,0.6324,9.7682,0.0143,-0.0171,0.0087
58429,48.23366,-2.121235,159.15,31.99,25.728,324.0,0 / 22,1818174,2019-08-12 17:02:58:616,-0.7545,0.4113,10.5822,-0.5938,0.6324,9.7682,0.0143,-0.0171,0.0087
58430,48.23366,-2.121235,159.15,31.99,25.728,324.0,0 / 22,1818174,2019-08-12 17:02:58:616,-0.7545,0.4113,10.5822,-0.5938,0.6324,9.7682,0.0143,-0.0171,0.0087
58431,48.23366,-2.121235,159.15,31.99,25.728,324.0,0 / 22,1818175,2019-08-12 17:02:58:617,-0.7545,0.4113,10.5822,-0.5938,0.6324,9.7682,0.0143,-0.0171,0.0087
58432,48.23366,-2.121235,159.15,31.99,25.728,324.0,0 / 22,1818175,2019-08-12 17:02:58:617,-0.7545,0.4113,10.5822,-0.5938,0.6324,9.7682,0.0143,-0.0171,0.0087
58433,48.23366,-2.121235,159.15,31.99,25.728,324.0,0 / 22,1818176,2019-08-12 17:02:58:618,-0.7545,0.4113,10.5822,-0.5938,0.6324,9.7682,0.0143,-0.0171,0.0087
58434,48.23366,-2.121235,159.15,31.99,25.728,324.0,0 / 22,1818176,2019-08-12 17:02:58:618,-0.7545,0.4113,10.5822,-0.5938,0.6324,9.7682,0.0143,-0.0171,0.0087
58435,48.23366,-2.121235,159.15,31.99,25.728,324.0,0 / 22,1818177,2019-08-12 17:02:58:619,-0.7545,0.4113,10.5822,-0.5938,0.6324,9.7682,0.0143,-0.0171,0.0087
58436,48.23366,-2.121235,159.15,31.99,25.728,324.0,0 / 22,1818178,2019-08-12 17:02:58:620,-0.7545,0.4113,10.5822,-0.5938,0.6324,9.7682,0.0143,-0.0171,0.0087
58437,48.23366,-2.121235,159.15,31.99,25.728,324.0,0 / 22,1818179,2019-08-12 17:02:58:621,-0.7545,0.4113,10.5822,-0.5938,0.6324,9.7682,0.0143,-0.0171,0.0087
58438,48.23366,-2.121235,159.15,31.99,25.728,324.0,0 / 22,1818180,2019-08-12 17:02:58:622,-0.7545,0.4113,10.5822,-0.5938,0.6324,9.7682,0.0143,-0.0171,0.0087
58439,48.23366,-2.121235,159.15,31.99,25.728,324.0,0 / 22,1818181,2019-08-12 17:02:58:623,-0.7545,0.4113,10.5822,-0.5938,0.6324,9.7682,0.0143,-0.0171,0.0087
58440,48.23366,-2.121235,159.15,31.99,25.728,324.0,0 / 22,1818181,2019-08-12 17:02:58:623,-0.7545,0.4113,10.5822,-0.5938,0.6324,9.7682,0.0143,-0.0171,0.0087
58441,48.23366,-2.121235,159.15,31.99,25.728,324.0,0 / 22,1818182,2019-08-12 17:02:58:624,-0.7545,0.4113,10.5822,-0.5938,0.6324,9.7682,0.0143,-0.0171,0.0087
58442,48.23366,-2.121235,159.15,31.99,25.728,324.0,0 / 22,1818183,2019-08-12 17:02:58:625,-0.7545,0.4113,10.5822,-0.5938,0.6324,9.7682,0.0143,-0.0171,0.0087
58443,48.23366,-2.121235,159.15,31.99,25.728,324.0,0 / 22,1818183,2019-08-12 17:02:58:625,-0.7545,0.4113,10.5822,-0.5938,0.6324,9.7682,0.0143,-0.0171,0.0087
58444,48.23366,-2.121235,159.15,31.99,25.728,324.0,0 / 22,1818184,2019-08-12 17:02:58:626,-0.7545,0.4113,10.5822,-0.5938,0.6324,9.7682,0.0143,-0.0171,0.0087
58445,48.23366,-2.121235,159.15,31.99,25.728,324.0,0 / 22,1818184,2019-08-12 17:02:58:626,-0.7545,0.4113,10.5822,-0.5938,0.6324,9.7682,0.0143,-0.0171,0.0087
58446,48.23366,-2.121235,159.15,31.99,25.728,324.0,0 / 22,1818185,2019-08-12 17:02:58:627,-0.7545,0.4113,10.5822,-0.5938,0.6324,9.7682,0.0143,-0.0171,0.0087
58447,48.23366,-2.121235,159.15,31.99,25.728,324.0,0 / 22,1818187,2019-08-12 17:02:58:629,-0.7545,0.4113,10.5822,-0.5938,0.6324,9.7682,0.0143,-0.0171,0.0087
58448,48.23366,-2.121235,159.15,31.99,25.728,324.0,0 / 22,1818187,2019-08-12 17:02:58:629,-0.7545,0.4113,10.5822,-0.5938,0.6324,9.7682,0.0143,-0.0171,0.0087
58449,48.23366,-2.121235,159.15,31.99,25.728,324.0,0 / 22,1818188,2019-08-12 17:02:58:630,-0.7545,0.4113,10.5822,-0.5938,0.6324,9.7682,0.0143,-0.0171,0.0087
58450,48.23366,-2.121235,159.15,31.99,25.728,324.0,0 / 22,1818188,2019-08-12 17:02:58:630,-0.7545,0.4113,10.5822,-0.5938,0.6324,9.7682,0.0143,-0.0171,0.0087
58451,48.23366,-2.121235,159.15,31.99,25.728,324.0,0 / 22,1818189,2019-08-12 17:02:58:631,-0.7545,0.4113,10.5822,-0.5938,0.6324,9.7682,0.0143,-0.0171,0.0087
58452,48.23366,-2.121235,159.15,31.99,25.728,324.0,0 / 22,1818189,2019-08-12 17:02:58:631,-0.7545,0.4113,10.5822,-0.5938,0.6324,9.7682,0.0143,-0.0171,0.0087
58453,48.23366,-2.121235,159.15,31.99,25.728,324.0,0 / 22,1818189,2019-08-12 17:02:58:631,-0.7545,0.4113,10.5822,-0.5938,0.6324,9.7682,0.0143,-0.0171,0.0087
58454,48.23366,-2.121235,159.15,31.99,25.728,324.0,0 / 22,1818190,2019-08-12 17:02:58:632,-0.7545,0.4113,10.5822,-0.5938,0.6324,9.7682,0.0143,-0.0171,0.0087
58455,48.23366,-2.121235,159.15,31.99,25.728,324.0,0 / 22,1818190,2019-08-12 17:02:58:632,-0.7545,0.4113,10.5822,-0.5938,0.6324,9.7682,0.0143,-0.0171,0.0087
58456,48.23366,-2.121235,159.15,31.99,25.728,324.0,0 / 22,1818190,2019-08-12 17:02:58:632,-0.7545,0.4113,10.5822,-0.5938,0.6324,9.7682,0.0143,-0.0171,0.0087
58457,48.23366,-2.121235,159.15,31.99,25.728,324.0,0 / 22,1818191,2019-08-12 17:02:58:633,-0.7545,0.4113,10.5822,-0.5938,0.6324,9.7682,0.0143,-0.0171,0.0087
58458,48.23366,-2.121235,159.15,31.99,25.728,324.0,0 / 22,1818191,2019-08-12 17:02:58:633,-0.7545,0.4113,10.5822,-0.5938,0.6324,9.7682,0.0143,-0.0171,0.0087
58459,48.23366,-2.121235,159.15,31.99,25.728,324.0,0 / 22,1818191,2019-08-12 17:02:58:633,-0.7545,0.4113,10.5822,-0.5938,0.6324,9.7682,0.0143,-0.0171,0.0087
58460,48.23366,-2.121235,159.15,31.99,25.728,324.0,0 / 22,1818192,2019-08-12 17:02:58:634,-0.7545,0.4113,10.5822,-0.5938,0.6324,9.7682,0.0143,-0.0171,0.0087
58461,48.23366,-2.121235,159.15,31.99,25.728,324.0,0 / 22,1818193,2019-08-12 17:02:58:635,-0.7545,0.4113,10.5822,-0.5938,0.6324,9.7682,0.0143,-0.0171,0.0087
58462,48.23366,-2.121235,159.15,31.99,25.728,324.0,0 / 22,1818193,2019-08-12 17:02:58:635,-0.7545,0.4113,10.5822,-0.5938,0.6324,9.7682,0.0143,-0.0171,0.0087
58463,48.23366,-2.121235,159.15,31.99,25.728,324.0,0 / 22,1818193,2019-08-12 17:02:58:635,-0.7545,0.4113,10.5822,-0.5938,0.6324,9.7682,0.0143,-0.0171,0.0087
58464,48.23366,-2.121235,159.15,31.99,25.728,324.0,0 / 22,1818194,2019-08-12 17:02:58:636,-0.7545,0.4113,10.5822,-0.5938,0.6324,9.7682,0.0143,-0.0171,0.0087
