,GPS LATITUDE (degrees),GPS LONGITUDE (degrees), GPS ALTITUDE (m),GPS SPEED (Kmh),GPS ACCURACY (m),GPS ORIENTATION (Â°), SATELLITES IN RANGE, TIME SINCE START (ms), DATE (YYYY-MO-DD HH-MI-SS_SSS),ACCELEROMETER X (m/s²) , ACCELEROMETER Y (m/s²), ACCELEROMETER Z (m/s²), GRAVITY X (m/s²), GRAVITY Y (m/s²), GRAVITY Z (m/s²), GYROSCOPE Yaw (rad/s), GYROSCOPE Pitch (rad/s), GYROSCOPE Roll (rad/s)
26161,48.187447,-1.970214,119.9,30.86,5.36,88.4,Dec-17,2616843,2019-08-18 15:57:19:380,-0.8894,-1.1127,9.3514,-0.2661,-0.7626,9.7733,-0.006,0.0065,-0.0183
26162,48.187447,-1.970214,119.9,30.86,5.36,88.4,Dec-17,2616944,2019-08-18 15:57:19:481,-0.9576,-0.7578,9.6806,-0.2804,-0.767,9.7726,-0.002,-0.0004,-0.0173
26163,48.187447,-1.970214,119.9,30.86,5.36,88.4,Dec-17,2617043,2019-08-18 15:57:19:580,-0.9139,-0.8996,9.8811,-0.2885,-0.7758,9.7717,0.0008,-0.0061,-0.0153
26164,48.187447,-1.970214,119.9,30.86,5.36,88.4,14 / 20,2617144,2019-08-18 15:57:19:681,-1.0624,-0.6219,10.026,-0.291,-0.777,9.7715,0.0022,-0.0132,-0.0157
26165,48.187447,-1.970214,119.9,30.86,5.36,88.4,14 / 20,2617243,2019-08-18 15:57:19:780,-0.8248,-0.2598,9.9679,-0.2922,-0.773,9.7718,0.0071,0.0039,-0.0108
26166,48.187447,-1.970214,119.9,30.86,5.36,88.4,14 / 20,2617344,2019-08-18 15:57:19:881,-0.2196,-0.483,9.2706,-0.3031,-0.7683,9.7718,0.0099,0.0113,-0.0097
26167,48.187447,-1.970214,119.9,30.86,5.36,88.4,14 / 20,2617443,2019-08-18 15:57:19:980,-0.7667,-0.6351,9.1252,-0.334,-0.7571,9.7717,-0.0001,0.0102,-0.0117
26168,48.187447,-1.970214,119.9,30.86,5.36,88.4,14 / 20,2617543,2019-08-18 15:57:20:080,-0.8032,-0.6931,9.4484,-0.3475,-0.758,9.7711,0.0001,0.0115,-0.012
26169,48.187447,-1.970214,119.9,30.86,5.36,88.4,14 / 20,2617643,2019-08-18 15:57:20:180,-1.0283,-0.6698,9.6327,-0.3608,-0.7512,9.7712,0.0076,-0.0061,-0.0117
26170,48.187447,-1.970214,119.9,30.86,5.36,88.4,14 / 20,2617744,2019-08-18 15:57:20:281,-1.1905,-0.7189,10.3815,-0.3662,-0.7478,9.7712,-0.0086,-0.0076,-0.0108
26171,48.187447,-1.970214,119.9,30.86,5.36,88.4,14 / 20,2617843,2019-08-18 15:57:20:380,-1.1647,-0.5507,9.9745,-0.371,-0.755,9.7705,-0.0074,-0.0135,-0.0114
26172,48.187447,-1.970214,119.9,30.86,5.36,88.4,14 / 20,2617943,2019-08-18 15:57:20:480,-1.1468,-0.4818,9.9452,-0.3669,-0.7604,9.7702,-0.0101,-0.0162,-0.0079
26173,48.187447,-1.970214,119.9,30.86,5.36,88.4,14 / 20,2618043,2019-08-18 15:57:20:580,-0.9235,-0.5549,10.0882,-0.3678,-0.7641,9.7699,-0.0085,-0.0233,-0.0077
26174,48.187447,-1.970214,119.9,30.86,5.36,88.4,Dec-18,2618144,2019-08-18 15:57:20:681,-0.8026,-0.8044,9.7045,-0.3763,-0.763,9.7697,-0.0033,0.0047,-0.0056
26175,48.187447,-1.970214,119.9,30.86,5.36,88.4,Dec-18,2618244,2019-08-18 15:57:20:781,-1.0265,-0.2083,10.3115,-0.4042,-0.7602,9.7688,-0.0019,0.002,-0.0023
26176,48.187447,-1.970214,119.9,30.86,5.36,88.4,Dec-18,2618344,2019-08-18 15:57:20:881,-1.2934,-0.3454,9.291,-0.4157,-0.7571,9.7685,-0.0056,0.0049,-0.0041
26177,48.187447,-1.970214,119.9,30.86,5.36,88.4,Dec-18,2618443,2019-08-18 15:57:20:980,-0.9205,-0.5842,9.6549,-0.4311,-0.7577,9.7678,-0.008,0.0046,-0.0029
26178,48.187447,-1.970214,119.9,30.86,5.36,88.4,Dec-18,2618544,2019-08-18 15:57:21:081,-1.0695,-0.3526,9.698,-0.4608,-0.7604,9.7663,-0.0029,0.0047,-0.0037
26179,48.187447,-1.970214,119.9,30.86,5.36,88.4,Dec-18,2618643,2019-08-18 15:57:21:180,-1.0085,-0.4842,10.1313,-0.4709,-0.7611,9.7657,-0.0009,-0.0079,-0.0035
26180,48.187447,-1.970214,119.9,30.86,5.36,88.4,Dec-18,2618743,2019-08-18 15:57:21:280,-0.6147,-0.4962,10.1983,-0.4834,-0.7505,9.7659,0.0005,-0.0027,-0.0038
26181,48.187447,-1.970214,119.9,30.86,5.36,88.4,Dec-18,2618843,2019-08-18 15:57:21:380,-0.9762,-0.9631,10.3629,-0.4908,-0.7473,9.7658,0.0053,0.0052,-0.0071
26182,48.187447,-1.970214,119.9,30.86,5.36,88.4,Dec-18,2618943,2019-08-18 15:57:21:480,-0.7894,-1.0151,10.3618,-0.5022,-0.7414,9.7657,-0.0089,-0.0048,-0.012
26183,48.187447,-1.970214,119.9,30.86,5.36,88.4,Dec-18,2619043,2019-08-18 15:57:21:580,-0.9798,-0.8966,10.2013,-0.4994,-0.7496,9.7652,-0.0126,-0.0189,-0.0132
26184,48.187447,-1.970214,119.9,30.86,5.36,88.4,14 / 18,2619143,2019-08-18 15:57:21:680,-1.1402,-0.835,9.7279,-0.5033,-0.7651,9.7638,-0.0054,0.003,-0.0191
26185,48.187447,-1.970214,119.9,30.86,5.36,88.4,14 / 18,2619244,2019-08-18 15:57:21:781,-1.0462,-0.7727,9.6016,-0.5088,-0.7688,9.7632,-0.0045,-0.0089,-0.0214
26186,48.187447,-1.970214,119.9,30.86,5.36,88.4,14 / 18,2619343,2019-08-18 15:57:21:880,-1.0223,-0.8248,9.4969,-0.5059,-0.7824,9.7623,-0.0015,-0.0012,-0.0186
26187,48.187447,-1.970214,119.9,30.86,5.36,88.4,14 / 18,2619443,2019-08-18 15:57:21:980,-0.8744,-0.8817,9.9332,-0.5078,-0.7879,9.7618,-0.0028,-0.0038,-0.0163
26188,48.187447,-1.970214,119.9,30.86,5.36,88.4,14 / 18,2619543,2019-08-18 15:57:22:080,-0.6859,-0.8727,9.1569,-0.5134,-0.7968,9.7607,-0.0165,-0.0016,-0.0151
26189,48.187447,-1.970214,119.9,30.86,5.36,88.4,14 / 18,2619644,2019-08-18 15:57:22:181,-0.5943,-0.8021,9.8446,-0.5269,-0.808,9.7591,-0.0084,0.0157,-0.0211
26190,48.187447,-1.970214,119.9,30.86,5.36,88.4,14 / 18,2619743,2019-08-18 15:57:22:280,-0.7834,-0.9786,9.9128,-0.5399,-0.8174,9.7576,-0.0018,-0.0046,-0.0165
26191,48.187447,-1.970214,119.9,30.86,5.36,88.4,14 / 18,2619843,2019-08-18 15:57:22:380,-0.7583,-0.8098,10.6353,-0.533,-0.8225,9.7575,-0.0202,-0.0321,-0.0185
26192,48.187447,-1.970214,119.9,30.86,5.36,88.4,14 / 18,2619944,2019-08-18 15:57:22:481,-0.8798,-0.9637,9.786,-0.513,-0.8477,9.7565,-0.018,-0.012,-0.0183
26193,48.187447,-1.970214,119.9,30.86,5.36,88.4,14 / 18,2620043,2019-08-18 15:57:22:580,-0.9666,-0.9966,9.4693,-0.5193,-0.8567,9.7553,0.003,0.0094,-0.0162
26194,48.187447,-1.970214,119.9,30.86,5.36,88.4,15 / 19,2620143,2019-08-18 15:57:22:680,-1.124,-0.9349,9.6908,-0.5422,-0.8534,9.7544,0.0119,0.005,-0.0152
26195,48.187447,-1.970214,119.9,30.86,5.36,88.4,15 / 19,2620243,2019-08-18 15:57:22:780,-0.9792,-0.8206,9.9751,-0.5498,-0.8477,9.7545,0.0119,0.005,-0.0152
26196,48.187447,-1.970214,119.9,30.86,5.36,88.4,15 / 19,2620343,2019-08-18 15:57:22:880,-0.644,-0.9726,9.9446,-0.5459,-0.8373,9.7556,0.006,-0.0107,-0.0166
26197,48.187447,-1.970214,119.9,30.86,5.36,88.4,15 / 19,2620443,2019-08-18 15:57:22:980,-0.6093,-0.6805,10.0062,-0.5428,-0.8356,9.7559,0.0023,-0.0037,-0.0161
26198,48.187447,-1.970214,119.9,30.86,5.36,88.4,15 / 19,2620544,2019-08-18 15:57:23:081,-0.6063,-0.8853,9.9787,-0.5543,-0.8393,9.7549,-0.0088,0.0023,-0.0142
26199,48.187447,-1.970214,119.9,30.86,5.36,88.4,15 / 19,2620643,2019-08-18 15:57:23:180,-0.9409,-0.9331,10.023,-0.5665,-0.8419,9.754,0.0016,0.0065,-0.0152
26200,48.187447,-1.970214,119.9,30.86,5.36,88.4,15 / 19,2620744,2019-08-18 15:57:23:281,-0.972,-0.8356,9.774,-0.5733,-0.8351,9.7542,0.0021,-0.0086,-0.0155
26201,48.187447,-1.970214,119.9,30.86,5.36,88.4,15 / 19,2620843,2019-08-18 15:57:23:380,-1.1552,-0.5495,9.7087,-0.5678,-0.8347,9.7545,-0.0023,-0.0183,-0.0162
26202,48.187447,-1.970214,119.9,30.86,5.36,88.4,15 / 19,2620943,2019-08-18 15:57:23:480,-1.0283,-0.7117,9.431,-0.5606,-0.8372,9.7548,-0.0059,0.0022,-0.0155
26203,48.187447,-1.970214,119.9,30.86,5.36,88.4,15 / 19,2621043,2019-08-18 15:57:23:580,-0.6207,-0.7266,9.7123,-0.5702,-0.8431,9.7537,-0.008,0.003,-0.016
26204,48.187447,-1.970214,119.9,30.86,5.36,88.4,17 / 21,2621143,2019-08-18 15:57:23:680,-0.7278,-0.8044,9.5663,-0.5823,-0.8589,9.7516,-0.0174,-0.0075,-0.0175
26205,48.187447,-1.970214,119.9,30.86,5.36,88.4,17 / 21,2621243,2019-08-18 15:57:23:780,-0.7565,-0.6279,9.8787,-0.5791,-0.8674,9.751,-0.0128,-0.0103,-0.0174
26206,48.187447,-1.970214,119.9,30.86,5.36,88.4,17 / 21,2621344,2019-08-18 15:57:23:881,-0.8451,-0.7715,9.78,-0.5596,-0.8872,9.7504,-0.0153,-0.0144,-0.0181
26207,48.187447,-1.970214,119.9,30.86,5.36,88.4,17 / 21,2621444,2019-08-18 15:57:23:981,-0.8092,-0.4507,9.5956,-0.5539,-0.8952,9.75,-0.015,-0.0098,-0.0197
26208,48.187447,-1.970214,119.9,30.86,5.36,88.4,17 / 21,2621544,2019-08-18 15:57:24:081,-0.4632,-0.3364,9.5441,-0.5522,-0.9044,9.7492,-0.0045,-0.0043,-0.0228
26209,48.187447,-1.970214,119.9,30.86,5.36,88.4,17 / 21,2621643,2019-08-18 15:57:24:180,-0.6661,-0.9092,9.112,-0.5429,-0.9096,9.7493,-0.0002,0.0046,-0.0248
26210,48.187447,-1.970214,119.9,30.86,5.36,88.4,17 / 21,2621743,2019-08-18 15:57:24:280,-0.316,-0.9619,9.4334,-0.545,-0.9107,9.749,-0.0017,0.0049,-0.0257
26211,48.187447,-1.970214,119.9,30.86,5.36,88.4,17 / 21,2621843,2019-08-18 15:57:24:380,-0.2424,-1.0606,10.2097,-0.5395,-0.918,9.7487,0.0008,0.0033,-0.0279
26212,48.187447,-1.970214,119.9,30.86,5.36,88.4,17 / 21,2621943,2019-08-18 15:57:24:480,-0.3842,-1.1905,10.3791,-0.5313,-0.9187,9.7491,0.0007,-0.0093,-0.0299
26213,48.187447,-1.970214,119.9,30.86,5.36,88.4,17 / 21,2622043,2019-08-18 15:57:24:580,-0.38,-0.9792,10.3749,-0.5037,-0.9103,9.7513,0.0076,-0.0169,-0.0273
26214,48.187447,-1.970214,119.9,30.86,5.36,88.4,15 / 20,2622144,2019-08-18 15:57:24:681,-0.5434,-0.5668,9.8326,-0.4929,-0.9064,9.7522,0.0092,-0.0072,-0.0278
26215,48.187447,-1.970214,119.9,30.86,5.36,88.4,15 / 20,2622243,2019-08-18 15:57:24:780,-0.5063,-0.9044,10.0379,-0.469,-0.9038,9.7536,-0.003,-0.0088,-0.0248
26216,48.187447,-1.970214,119.9,30.86,5.36,88.4,15 / 20,2622343,2019-08-18 15:57:24:880,-0.3166,-0.7883,9.7159,-0.4613,-0.9063,9.7538,-0.0066,-0.004,-0.0249
26217,48.187447,-1.970214,119.9,30.86,5.36,88.4,15 / 20,2622443,2019-08-18 15:57:24:980,-0.1173,-0.5746,9.6429,-0.4517,-0.9123,9.7537,-0.0015,-0.0077,-0.0237
26218,48.187447,-1.970214,119.9,30.86,5.36,88.4,15 / 20,2622543,2019-08-18 15:57:25:080,-0.1113,-0.917,10.0541,-0.4403,-0.9108,9.7543,0.0004,-0.0123,-0.0249
26219,48.187447,-1.970214,119.9,30.86,5.36,88.4,15 / 20,2622644,2019-08-18 15:57:25:181,-0.3806,-0.6931,9.7626,-0.4216,-0.9119,9.7551,-0.0047,-0.0017,-0.0223
26220,48.187447,-1.970214,119.9,30.86,5.36,88.4,15 / 20,2622743,2019-08-18 15:57:25:280,-0.4034,-0.7482,9.8901,-0.4148,-0.9161,9.755,-0.0101,-0.0032,-0.0219
26221,48.187447,-1.970214,119.9,30.86,5.36,88.4,15 / 20,2622843,2019-08-18 15:57:25:380,-0.48,-0.6805,9.8123,-0.4133,-0.916,9.755,-0.0026,0.0065,-0.0217
26222,48.187447,-1.970214,119.9,30.86,5.36,88.4,15 / 20,2622943,2019-08-18 15:57:25:480,-0.3974,-0.8469,9.7979,-0.4106,-0.9179,9.755,-0.0061,-0.0044,-0.0201
26223,48.187447,-1.970214,119.9,30.86,5.36,88.4,15 / 20,2623043,2019-08-18 15:57:25:580,-0.3585,-0.6901,9.5412,-0.4031,-0.9174,9.7553,-0.0031,-0.0023,-0.0184
26224,48.187447,-1.970214,119.9,30.86,5.36,88.4,16 / 21,2623145,2019-08-18 15:57:25:682,-0.2819,-0.7709,9.4675,-0.4086,-0.9152,9.7553,-0.0034,0.0098,-0.0178
26225,48.187447,-1.970214,119.9,30.86,5.36,88.4,16 / 21,2623244,2019-08-18 15:57:25:781,-0.4764,-0.7601,9.9416,-0.4142,-0.9137,9.7552,0.0051,-0.0012,-0.0175
26226,48.187447,-1.970214,119.9,30.86,5.36,88.4,16 / 21,2623343,2019-08-18 15:57:25:880,-0.5219,-0.6746,10.166,-0.4162,-0.9067,9.7558,0.0051,-0.0012,-0.0175
26227,48.187447,-1.970214,119.9,30.86,5.36,88.4,16 / 21,2623444,2019-08-18 15:57:25:981,-0.3531,-0.89,9.9302,-0.4239,-0.886,9.7573,0.0139,0.0054,-0.0153
26228,48.187447,-1.970214,119.9,30.86,5.36,88.4,16 / 21,2623543,2019-08-18 15:57:26:080,-0.7661,-0.3771,9.7387,-0.4286,-0.8797,9.7577,0.0125,0.011,-0.015
26229,48.187447,-1.970214,119.9,30.86,5.36,88.4,16 / 21,2623643,2019-08-18 15:57:26:180,-0.6703,-0.5309,9.7626,-0.4389,-0.8703,9.7581,0.0076,-0.001,-0.0168
26230,48.187447,-1.970214,119.9,30.86,5.36,88.4,16 / 21,2623743,2019-08-18 15:57:26:280,-0.632,-0.4848,10.0356,-0.4375,-0.8645,9.7587,0.0102,-0.0018,-0.016
26231,48.187447,-1.970214,119.9,30.86,5.36,88.4,16 / 21,2623843,2019-08-18 15:57:26:380,-0.5021,-0.9032,10.2229,-0.4441,-0.8433,9.7602,0.004,0.0034,-0.0156
26232,48.187447,-1.970214,119.9,30.86,5.36,88.4,16 / 21,2623943,2019-08-18 15:57:26:480,-0.4746,-0.6201,10.005,-0.4493,-0.8391,9.7603,0.0016,0.0072,-0.0144
26233,48.187447,-1.970214,119.9,30.86,5.36,88.4,16 / 21,2624043,2019-08-18 15:57:26:580,-0.7709,-0.5536,10.2977,-0.4547,-0.8334,9.7606,0.004,-0.0092,-0.0148
26234,48.187447,-1.970214,119.9,30.86,5.36,88.4,14 / 21,2624144,2019-08-18 15:57:26:681,-0.7523,-0.7153,10.0607,-0.4443,-0.8258,9.7617,0.0044,-0.0196,-0.0148
26235,48.187447,-1.970214,119.9,30.86,5.36,88.4,14 / 21,2624243,2019-08-18 15:57:26:780,-0.4566,-0.5686,9.5172,-0.431,-0.82,9.7628,-0.005,-0.0082,-0.0141
26236,48.187447,-1.970214,119.9,30.86,5.36,88.4,14 / 21,2624343,2019-08-18 15:57:26:880,-0.5578,-0.677,9.6351,-0.4284,-0.8181,9.7631,-0.0027,-0.0025,-0.013
26237,48.187447,-1.970214,119.9,30.86,5.36,88.4,14 / 21,2624443,2019-08-18 15:57:26:980,-0.6189,-0.4315,10.2408,-0.4317,-0.8136,9.7633,0.0016,-0.0028,-0.012
26238,48.187447,-1.970214,119.9,30.86,5.36,88.4,14 / 21,2624543,2019-08-18 15:57:27:080,-0.4399,-0.574,9.7871,-0.4292,-0.8023,9.7643,-0.0035,-0.0118,-0.014
26239,48.187447,-1.970214,119.9,30.86,5.36,88.4,14 / 21,2624643,2019-08-18 15:57:27:180,-0.4483,-0.6195,10.0726,-0.424,-0.7983,9.7649,-0.0035,-0.0118,-0.014
26240,48.187447,-1.970214,119.9,30.86,5.36,88.4,14 / 21,2624744,2019-08-18 15:57:27:281,-0.5422,-0.346,10.0775,-0.4017,-0.8037,9.7654,-0.018,-0.018,-0.0159
26241,48.187447,-1.970214,119.9,30.86,5.36,88.4,14 / 21,2624843,2019-08-18 15:57:27:380,-0.553,-0.4483,9.9978,-0.3973,-0.8064,9.7654,-0.0035,-0.0091,-0.0133
26242,48.187447,-1.970214,119.9,30.86,5.36,88.4,14 / 21,2624943,2019-08-18 15:57:27:480,-0.4243,-0.392,10.1475,-0.3749,-0.8005,9.7667,-0.0002,-0.021,-0.0135
26243,48.187447,-1.970214,119.9,30.86,5.36,88.4,14 / 21,2625043,2019-08-18 15:57:27:580,-0.5111,-0.2765,9.853,-0.3509,-0.8002,9.7676,-0.0229,-0.0255,-0.0146
26244,48.187355,-1.96659,114.41,29.85,4.288,96.4,Dec-17,2625144,2019-08-18 15:57:27:681,-0.2795,-0.4806,9.3275,-0.3311,-0.8173,9.7669,-0.0198,0.003,-0.0106
26245,48.187355,-1.96659,114.41,29.85,4.288,96.4,Dec-17,2625245,2019-08-18 15:57:27:782,-0.2334,-0.431,9.3215,-0.334,-0.8269,9.766,-0.0161,0.0105,-0.0088
26246,48.187355,-1.96659,114.41,29.85,4.288,96.4,Dec-17,2625344,2019-08-18 15:57:27:881,-0.4698,-0.4776,9.4729,-0.3445,-0.8359,9.7649,-0.0183,-0.0016,-0.0117
26247,48.187355,-1.96659,114.41,29.85,4.288,96.4,Dec-17,2625443,2019-08-18 15:57:27:980,-0.2902,-0.4297,10.1595,-0.3394,-0.8395,9.7648,-0.014,-0.0138,-0.0137
26248,48.187355,-1.96659,114.41,29.85,4.288,96.4,Dec-17,2625543,2019-08-18 15:57:28:080,-0.3351,-0.6297,10.1014,-0.3272,-0.8431,9.7649,-0.0091,0.0028,-0.0111
26249,48.187355,-1.96659,114.41,29.85,4.288,96.4,Dec-17,2625643,2019-08-18 15:57:28:180,-0.3944,-0.4274,9.7453,-0.3284,-0.8454,9.7646,-0.0088,0.0024,-0.0102
26250,48.187355,-1.96659,114.41,29.85,4.288,96.4,Dec-17,2625743,2019-08-18 15:57:28:280,-0.3914,-0.5321,10.1642,-0.3444,-0.8368,9.7648,-0.0049,0.0027,-0.0094
26251,48.187355,-1.96659,114.41,29.85,4.288,96.4,Dec-17,2625843,2019-08-18 15:57:28:380,-0.492,-0.4519,9.7147,-0.3462,-0.835,9.7649,-0.0057,-0.0039,-0.0112
26252,48.187355,-1.96659,114.41,29.85,4.288,96.4,Dec-17,2625943,2019-08-18 15:57:28:480,-0.3429,-0.7691,10.0667,-0.3498,-0.8314,9.7651,-0.0071,0.0011,-0.0117
26253,48.187355,-1.96659,114.41,29.85,4.288,96.4,Dec-17,2626043,2019-08-18 15:57:28:580,-0.5279,-0.656,10.0194,-0.3475,-0.8314,9.7652,0.0027,-0.008,-0.0112
26254,48.187355,-1.96659,114.41,29.85,4.288,96.4,Dec-17,2626143,2019-08-18 15:57:28:680,-0.5883,-0.5668,10.4982,-0.3489,-0.8229,9.7658,0.0061,-0.0031,-0.0157
26255,48.187355,-1.96659,114.41,29.85,4.288,96.4,Dec-17,2626243,2019-08-18 15:57:28:780,-0.4147,-0.8284,10.0439,-0.3498,-0.8164,9.7663,0.0039,-0.0043,-0.0203
26256,48.187355,-1.96659,114.41,29.85,4.288,96.4,Dec-17,2626344,2019-08-18 15:57:28:881,-0.3256,-0.9702,10.0792,-0.3437,-0.8171,9.7665,-0.0036,-0.0029,-0.0243
26257,48.187355,-1.96659,114.41,29.85,4.288,96.4,Dec-17,2626444,2019-08-18 15:57:28:981,-0.5919,-0.7859,9.5561,-0.3399,-0.8184,9.7665,0.0026,0.0028,-0.0279
26258,48.187355,-1.96659,114.41,29.85,4.288,96.4,Dec-17,2626543,2019-08-18 15:57:29:080,-0.4309,-1.069,9.3855,-0.3431,-0.8236,9.766,-0.0065,0.0067,-0.0258
26259,48.187355,-1.96659,114.41,29.85,4.288,96.4,Dec-17,2626643,2019-08-18 15:57:29:180,-0.3124,-0.8924,9.8943,-0.3434,-0.834,9.7651,-0.0045,-0.008,-0.0243
26260,48.187355,-1.96659,114.41,29.85,4.288,96.4,Dec-17,2626743,2019-08-18 15:57:29:280,-0.5692,-1.0379,10.3127,-0.3347,-0.8371,9.7651,0.0029,-0.006,-0.0233
26261,48.187355,-1.96659,114.41,29.85,4.288,96.4,Dec-17,2626843,2019-08-18 15:57:29:380,-0.6009,-0.7733,10.5952,-0.3317,-0.8391,9.7651,-0.0019,-0.0058,-0.019
26262,48.187355,-1.96659,114.41,29.85,4.288,96.4,Dec-17,2626943,2019-08-18 15:57:29:480,-0.793,-0.8056,9.7237,-0.3334,-0.8428,9.7647,0.0033,0.0029,-0.0159
26263,48.187355,-1.96659,114.41,29.85,4.288,96.4,Dec-17,2627043,2019-08-18 15:57:29:580,-0.7834,-0.8565,9.6507,-0.3387,-0.8417,9.7646,-0.0009,-0.0079,-0.0133
26264,48.187355,-1.96659,114.41,29.85,4.288,96.4,Dec-17,2627144,2019-08-18 15:57:29:681,-0.8684,-0.738,9.7584,-0.3492,-0.8327,9.765,0.0061,0.0019,-0.0104
26265,48.187355,-1.96659,114.41,29.85,4.288,96.4,Dec-17,2627244,2019-08-18 15:57:29:781,-0.8511,-0.559,9.2036,-0.3554,-0.8287,9.7651,0.0067,0.0022,-0.0089
26266,48.187355,-1.96659,114.41,29.85,4.288,96.4,Dec-17,2627343,2019-08-18 15:57:29:880,-0.8577,-0.3591,9.5615,-0.371,-0.8193,9.7653,0.0012,0.0069,-0.01
26267,48.187355,-1.96659,114.41,29.85,4.288,96.4,Dec-17,2627443,2019-08-18 15:57:29:980,-0.7194,-0.2903,9.2544,-0.381,-0.816,9.7652,-0.0043,0.0069,-0.0099
26268,48.187355,-1.96659,114.41,29.85,4.288,96.4,Dec-17,2627543,2019-08-18 15:57:30:080,-0.6398,-0.6105,9.835,-0.408,-0.8121,9.7644,-0.0006,0.0065,-0.0098
26269,48.187355,-1.96659,114.41,29.85,4.288,96.4,Dec-17,2627643,2019-08-18 15:57:30:180,-0.8469,-0.6859,10.2953,-0.4135,-0.8074,9.7646,0.0012,-0.0125,-0.0093
26270,48.187355,-1.96659,114.41,29.85,4.288,96.4,Dec-17,2627743,2019-08-18 15:57:30:280,-0.5345,-0.7841,10.6341,-0.3945,-0.7997,9.766,-0.0001,-0.0259,-0.0094
26271,48.187355,-1.96659,114.41,29.85,4.288,96.4,Dec-17,2627843,2019-08-18 15:57:30:380,-0.6452,-0.5567,9.7656,-0.3854,-0.8008,9.7663,-0.009,-0.015,-0.0121
26272,48.187355,-1.96659,114.41,29.85,4.288,96.4,Dec-17,2627943,2019-08-18 15:57:30:480,-0.4728,-0.6339,9.1281,-0.3902,-0.8028,9.7659,-0.0093,0.0096,-0.0205
26273,48.187355,-1.96659,114.41,29.85,4.288,96.4,Dec-17,2628043,2019-08-18 15:57:30:580,-0.4602,-0.7272,8.9414,-0.414,-0.8127,9.7641,-0.0116,0.0083,-0.0227
26274,48.187355,-1.96659,114.41,29.85,4.288,96.4,Dec-17,2628143,2019-08-18 15:57:30:680,-0.7272,-0.5082,9.3819,-0.4158,-0.8216,9.7633,-0.0133,-0.0025,-0.0235
26275,48.187355,-1.96659,114.41,29.85,4.288,96.4,Dec-17,2628243,2019-08-18 15:57:30:780,-0.544,-0.8823,10.2887,-0.4137,-0.8397,9.7619,-0.0164,-0.0135,-0.0193
26276,48.187355,-1.96659,114.41,29.85,4.288,96.4,Dec-17,2628343,2019-08-18 15:57:30:880,-0.453,-0.8775,9.8614,-0.4073,-0.8482,9.7614,-0.007,-0.0014,-0.0162
26277,48.187355,-1.96659,114.41,29.85,4.288,96.4,Dec-17,2628443,2019-08-18 15:57:30:980,-0.6661,-0.3519,9.8231,-0.4083,-0.8492,9.7613,0.0137,0.0149,-0.0071
26278,48.187355,-1.96659,114.41,29.85,4.288,96.4,Dec-17,2628543,2019-08-18 15:57:31:080,-1.1396,-0.6464,10.1068,-0.42,-0.8393,9.7616,0.0187,0.0103,-0.004
26279,48.187355,-1.96659,114.41,29.85,4.288,96.4,Dec-17,2628643,2019-08-18 15:57:31:180,-0.8535,-0.3873,10.1307,-0.4248,-0.7989,9.7648,0.0124,-0.0102,-0.0067
26280,48.187355,-1.96659,114.41,29.85,4.288,96.4,Dec-17,2628743,2019-08-18 15:57:31:280,-0.7062,-0.0976,9.9877,-0.4226,-0.79,9.7656,0.0123,-0.0189,-0.0075
26281,48.187355,-1.96659,114.41,29.85,4.288,96.4,Dec-17,2628843,2019-08-18 15:57:31:380,-0.5123,-0.1413,9.5034,-0.4037,-0.7585,9.7689,-0.0092,-0.0026,-0.0079
26282,48.187355,-1.96659,114.41,29.85,4.288,96.4,Dec-17,2628943,2019-08-18 15:57:31:480,-0.6051,-0.3771,9.2149,-0.408,-0.7588,9.7687,-0.017,0.0064,-0.0071
26283,48.187355,-1.96659,114.41,29.85,4.288,96.4,Dec-17,2629043,2019-08-18 15:57:31:580,-0.6763,-0.2502,9.2981,-0.4171,-0.7708,9.7674,-0.0125,-0.001,-0.0083
26284,48.187355,-1.96659,114.41,29.85,4.288,96.4,15 / 19,2629143,2019-08-18 15:57:31:680,-0.4554,-0.3118,10.1744,-0.4155,-0.7715,9.7674,-0.0073,-0.008,-0.0067
26285,48.187355,-1.96659,114.41,29.85,4.288,96.4,15 / 19,2629244,2019-08-18 15:57:31:781,-0.6099,-0.5459,10.0517,-0.4172,-0.7721,9.7673,-0.0224,-0.0006,-0.0059
26286,48.187355,-1.96659,114.41,29.85,4.288,96.4,15 / 19,2629343,2019-08-18 15:57:31:880,-0.7978,-0.6913,9.4071,-0.4315,-0.7843,9.7657,-0.004,0.0192,-0.0041
26287,48.187355,-1.96659,114.41,29.85,4.288,96.4,15 / 19,2629443,2019-08-18 15:57:31:980,-0.8744,-0.422,9.9895,-0.4735,-0.7828,9.7639,0.0017,0.0131,-0.0024
26288,48.187355,-1.96659,114.41,29.85,4.288,96.4,15 / 19,2629543,2019-08-18 15:57:32:080,-1.048,-0.1844,10.2971,-0.4863,-0.7729,9.764,0.0245,-0.0096,-0.0017
26289,48.187355,-1.96659,114.41,29.85,4.288,96.4,15 / 19,2629643,2019-08-18 15:57:32:180,-0.8936,-0.325,10.0278,-0.4836,-0.735,9.7671,0.0188,-0.0351,-0.0023
26290,48.187355,-1.96659,114.41,29.85,4.288,96.4,15 / 19,2629743,2019-08-18 15:57:32:280,-1.1695,-0.0994,9.9081,-0.4708,-0.7242,9.7685,-0.009,-0.023,-0.004
26291,48.187355,-1.96659,114.41,29.85,4.288,96.4,15 / 19,2629843,2019-08-18 15:57:32:380,-0.7428,-0.1838,9.5304,-0.4696,-0.7241,9.7686,-0.0125,-0.0008,-0.001
26292,48.187355,-1.96659,114.41,29.85,4.288,96.4,15 / 19,2629943,2019-08-18 15:57:32:480,-0.9858,-0.2424,8.9426,-0.482,-0.7253,9.7679,-0.0118,-0.0017,0.002
26293,48.187355,-1.96659,114.41,29.85,4.288,96.4,15 / 19,2630043,2019-08-18 15:57:32:580,-1.215,-0.2143,10.1193,-0.4925,-0.725,9.7674,-0.0041,-0.0031,0.0006
26294,48.187355,-1.96659,114.41,29.85,4.288,96.4,15 / 19,2630144,2019-08-18 15:57:32:681,-0.9648,-0.1778,9.9883,-0.4946,-0.7172,9.7679,0.003,-0.003,-0.0002
26295,48.187355,-1.96659,114.41,29.85,4.288,96.4,15 / 19,2630244,2019-08-18 15:57:32:781,-0.9229,-0.1311,10.1355,-0.4956,-0.7063,9.7686,-0.0101,-0.0023,-0.0009
26296,48.187355,-1.96659,114.41,29.85,4.288,96.4,15 / 19,2630344,2019-08-18 15:57:32:881,-0.7487,-0.1909,9.1084,-0.5032,-0.7051,9.7683,-0.0139,0.0033,-0.0037
26297,48.187355,-1.96659,114.41,29.85,4.288,96.4,15 / 19,2630444,2019-08-18 15:57:32:981,-0.6434,-0.437,9.6273,-0.5138,-0.7047,9.7678,-0.0105,0.0029,-0.0031
26298,48.187355,-1.96659,114.41,29.85,4.288,96.4,15 / 19,2630543,2019-08-18 15:57:33:080,-0.6081,-0.0676,9.3263,-0.5195,-0.7007,9.7678,0.0016,0.0017,-0.0048
26299,48.187355,-1.96659,114.41,29.85,4.288,96.4,15 / 19,2630643,2019-08-18 15:57:33:180,-0.717,-0.103,9.7141,-0.5166,-0.6893,9.7687,0.0064,-0.0094,-0.0049
26300,48.187355,-1.96659,114.41,29.85,4.288,96.4,15 / 19,2630743,2019-08-18 15:57:33:280,-0.6703,-0.1293,10.0936,-0.5154,-0.6682,9.7703,0.0075,-0.0054,-0.0026
26301,48.187355,-1.96659,114.41,29.85,4.288,96.4,15 / 19,2630843,2019-08-18 15:57:33:380,-0.4291,-0.6159,10.3378,-0.537,-0.6441,9.7707,0.0093,0.0119,-0.0009
26302,48.187355,-1.96659,114.41,29.85,4.288,96.4,15 / 19,2630944,2019-08-18 15:57:33:481,-1.0522,-0.4723,10.2097,-0.5497,-0.6358,9.7706,0.0074,0.0157,-0.0025
26303,48.187355,-1.96659,114.41,29.85,4.288,96.4,15 / 19,2631043,2019-08-18 15:57:33:580,-1.0851,-0.7069,10.2804,-0.5857,-0.612,9.77,0.0182,0.003,-0.0022
26304,48.187355,-1.96659,114.41,29.85,4.288,96.4,16 / 21,2631143,2019-08-18 15:57:33:680,-1.0294,-0.3184,10.1385,-0.5808,-0.6009,9.771,0.0077,-0.0296,-0.0033
26305,48.187355,-1.96659,114.41,29.85,4.288,96.4,16 / 21,2631243,2019-08-18 15:57:33:780,-1.0522,-0.5273,9.291,-0.5738,-0.6121,9.7707,-0.0256,0.0016,-0.006
26306,48.187355,-1.96659,114.41,29.85,4.288,96.4,16 / 21,2631343,2019-08-18 15:57:33:880,-1.1348,-0.2634,9.8865,-0.5848,-0.6181,9.7697,0.0026,0.0003,0.002
26307,48.187355,-1.96659,114.41,29.85,4.288,96.4,16 / 21,2631443,2019-08-18 15:57:33:980,-1.3162,-0.1077,10.2367,-0.597,-0.6059,9.7697,0.005,-0.0143,0.0049
26308,48.187355,-1.96659,114.41,29.85,4.288,96.4,16 / 21,2631544,2019-08-18 15:57:34:081,-1.1611,-0.3747,10.5976,-0.5947,-0.6014,9.7701,-0.0166,-0.026,0.0054
26309,48.187355,-1.96659,114.41,29.85,4.288,96.4,16 / 21,2631643,2019-08-18 15:57:34:180,-1.4012,-0.2819,9.8255,-0.5911,-0.6103,9.7698,-0.0267,-0.0128,0.0038
26310,48.187355,-1.96659,114.41,29.85,4.288,96.4,16 / 21,2631743,2019-08-18 15:57:34:280,-1.2024,-0.4938,10.0667,-0.6004,-0.621,9.7685,-0.0196,-0.0008,0.0056
26311,48.187355,-1.96659,114.41,29.85,4.288,96.4,16 / 21,2631843,2019-08-18 15:57:34:380,-0.9127,-0.1071,9.6393,-0.6064,-0.6265,9.7678,-0.0093,-0.0094,0.0051
26312,48.187355,-1.96659,114.41,29.85,4.288,96.4,16 / 21,2631943,2019-08-18 15:57:34:480,-1.0516,-0.2484,10.0338,-0.6134,-0.6213,9.7677,-0.005,0.0011,0.0019
26313,48.187355,-1.96659,114.41,29.85,4.288,96.4,16 / 21,2632043,2019-08-18 15:57:34:580,-0.7487,0.1359,9.6615,-0.6192,-0.6195,9.7675,-0.0109,-0.0067,0.0011
26314,48.187355,-1.96659,114.41,29.85,4.288,96.4,14 / 19,2632143,2019-08-18 15:57:34:680,-0.9091,-0.1048,9.3107,-0.6222,-0.6115,9.7678,0.0,-0.0031,0.0004
26315,48.187355,-1.96659,114.41,29.85,4.288,96.4,14 / 19,2632243,2019-08-18 15:57:34:780,-0.8092,-0.2059,9.3855,-0.6266,-0.6059,9.7678,-0.0157,0.0128,0.0008
26316,48.187355,-1.96659,114.41,29.85,4.288,96.4,14 / 19,2632343,2019-08-18 15:57:34:880,-1.0773,-0.4064,9.2155,-0.6458,-0.6135,9.7661,-0.017,0.0075,-0.0026
26317,48.187355,-1.96659,114.41,29.85,4.288,96.4,14 / 19,2632443,2019-08-18 15:57:34:980,-0.9636,-0.5692,10.09,-0.6557,-0.6213,9.765,-0.0048,-0.0057,-0.0022
26318,48.187355,-1.96659,114.41,29.85,4.288,96.4,14 / 19,2632543,2019-08-18 15:57:35:080,-1.1581,-0.5052,10.1229,-0.6673,-0.617,9.7644,0.0009,-0.0066,-0.0013
26319,48.187355,-1.96659,114.41,29.85,4.288,96.4,14 / 19,2632643,2019-08-18 15:57:35:180,-1.0803,-0.7159,10.4174,-0.6654,-0.6132,9.7648,0.0102,-0.008,0.0014
26320,48.187355,-1.96659,114.41,29.85,4.288,96.4,14 / 19,2632743,2019-08-18 15:57:35:280,-1.1976,-0.6063,10.1511,-0.6673,-0.5915,9.766,0.0113,-0.0031,0.0026
26321,48.187355,-1.96659,114.41,29.85,4.288,96.4,14 / 19,2632843,2019-08-18 15:57:35:380,-1.4371,-0.3076,10.6975,-0.6704,-0.5834,9.7663,0.0097,-0.011,-0.0003
26322,48.187355,-1.96659,114.41,29.85,4.288,96.4,14 / 19,2632943,2019-08-18 15:57:35:480,-1.0163,-0.2388,10.0302,-0.6711,-0.5654,9.7673,0.003,-0.0196,-0.0004
26323,48.187355,-1.96659,114.41,29.85,4.288,96.4,14 / 19,2633043,2019-08-18 15:57:35:580,-1.1767,-0.2544,9.8781,-0.6619,-0.5638,9.768,0.0006,-0.0139,-0.0006
26324,48.187355,-1.96659,114.41,29.85,4.288,96.4,14 / 20,2633143,2019-08-18 15:57:35:680,-1.1013,-0.3322,9.5603,-0.6595,-0.5664,9.768,-0.0106,-0.0169,0.0
26325,48.187355,-1.96659,114.41,29.85,4.288,96.4,14 / 20,2633244,2019-08-18 15:57:35:781,-1.3287,-0.1861,9.6285,-0.6611,-0.5708,9.7677,-0.0141,-0.0112,-0.0007
26326,48.187355,-1.96659,114.41,29.85,4.288,96.4,14 / 20,2633343,2019-08-18 15:57:35:880,-1.2108,-0.5764,9.9452,-0.6653,-0.5896,9.7663,-0.0212,-0.0066,-0.0013
26327,48.187355,-1.96659,114.41,29.85,4.288,96.4,14 / 20,2633443,2019-08-18 15:57:35:980,-1.1432,-0.2526,9.5016,-0.6683,-0.5962,9.7657,-0.0151,0.005,0.0005
26328,48.187355,-1.96659,114.41,29.85,4.288,96.4,14 / 20,2633544,2019-08-18 15:57:36:081,-1.0205,-0.0922,8.8444,-0.6922,-0.6091,9.7632,-0.0135,0.0134,-0.0003
26329,48.187355,-1.96659,114.41,29.85,4.288,96.4,14 / 20,2633643,2019-08-18 15:57:36:180,-1.1947,-0.5028,8.7457,-0.7081,-0.6142,9.7617,-0.0169,0.0051,0.0042
26330,48.187355,-1.96659,114.41,29.85,4.288,96.4,14 / 20,2633743,2019-08-18 15:57:36:280,-1.1689,-0.4345,9.665,-0.7308,-0.6222,9.7596,-0.0042,0.002,0.0057
26331,48.187355,-1.96659,114.41,29.85,4.288,96.4,14 / 20,2633843,2019-08-18 15:57:36:380,-1.3868,-0.1407,9.7129,-0.7398,-0.62,9.759,0.0024,0.0047,0.0067
26332,48.187355,-1.96659,114.41,29.85,4.288,96.4,14 / 20,2633943,2019-08-18 15:57:36:480,-1.2276,-0.2209,9.698,-0.7623,-0.6096,9.7579,-0.0122,0.0042,0.0071
26333,48.187355,-1.96659,114.41,29.85,4.288,96.4,14 / 20,2634044,2019-08-18 15:57:36:581,-1.1953,-0.1598,9.5477,-0.7698,-0.611,9.7573,-0.017,0.0033,0.0059
26334,48.186943,-1.962977,113.31,29.59,4.288,100.3,15 / 20,2634143,2019-08-18 15:57:36:680,-1.2886,-0.0581,9.7818,-0.788,-0.6189,9.7553,-0.0033,-0.0031,0.0056
26335,48.186943,-1.962977,113.31,29.59,4.288,100.3,15 / 20,2634243,2019-08-18 15:57:36:780,-1.0624,-0.0293,9.7488,-0.7896,-0.6115,9.7557,-0.0073,-0.0167,0.0058
26336,48.186943,-1.962977,113.31,29.59,4.288,100.3,15 / 20,2634343,2019-08-18 15:57:36:880,-0.9588,-0.0156,10.1942,-0.7812,-0.6068,9.7566,-0.004,-0.017,0.0043
26337,48.186943,-1.962977,113.31,29.59,4.288,100.3,15 / 20,2634443,2019-08-18 15:57:36:980,-0.7356,0.103,10.0445,-0.7733,-0.605,9.7574,-0.0077,-0.011,0.0053
26338,48.186943,-1.962977,113.31,29.59,4.288,100.3,15 / 20,2634543,2019-08-18 15:57:37:080,-1.0726,-0.3585,10.0415,-0.7699,-0.5996,9.758,-0.0122,-0.0123,0.0045
26339,48.186943,-1.962977,113.31,29.59,4.288,100.3,15 / 20,2634643,2019-08-18 15:57:37:180,-0.9349,0.0437,9.9595,-0.7687,-0.5975,9.7582,-0.0078,-0.0049,0.0061
26340,48.186943,-1.962977,113.31,29.59,4.288,100.3,15 / 20,2634743,2019-08-18 15:57:37:280,-0.7056,-0.5297,10.2899,-0.7722,-0.595,9.7581,-0.0088,-0.0042,0.006
26341,48.186943,-1.962977,113.31,29.59,4.288,100.3,15 / 20,2634843,2019-08-18 15:57:37:380,-1.048,-0.1987,10.3396,-0.7698,-0.593,9.7584,-0.012,-0.0187,-0.0011
26342,48.186943,-1.962977,113.31,29.59,4.288,100.3,15 / 20,2634943,2019-08-18 15:57:37:480,-0.6356,-0.6728,9.7363,-0.7537,-0.5944,9.7596,-0.0072,-0.0126,-0.004
26343,48.186943,-1.962977,113.31,29.59,4.288,100.3,15 / 20,2635043,2019-08-18 15:57:37:580,-0.717,-0.5243,9.5926,-0.7495,-0.5956,9.7598,-0.0097,-0.0064,-0.0062
26344,48.186943,-1.962977,113.31,29.59,4.288,100.3,13 / 19,2635144,2019-08-18 15:57:37:681,-0.823,-0.5141,10.2923,-0.7471,-0.5985,9.7598,-0.003,0.0022,-0.0062
26345,48.186943,-1.962977,113.31,29.59,4.288,100.3,13 / 19,2635243,2019-08-18 15:57:37:780,-0.6655,-0.5752,10.0278,-0.7482,-0.5943,9.76,0.0041,0.0004,-0.0034
26346,48.186943,-1.962977,113.31,29.59,4.288,100.3,13 / 19,2635343,2019-08-18 15:57:37:880,-0.6919,-0.5243,9.8434,-0.7494,-0.5882,9.7603,-0.0017,0.0028,-0.005
26347,48.186943,-1.962977,113.31,29.59,4.288,100.3,13 / 19,2635443,2019-08-18 15:57:37:980,-0.7469,-0.5255,9.5729,-0.7475,-0.5863,9.7605,-0.0042,0.0001,-0.0051
26348,48.186943,-1.962977,113.31,29.59,4.288,100.3,13 / 19,2635544,2019-08-18 15:57:38:081,-0.6542,-0.5525,9.8709,-0.7489,-0.5853,9.7605,0.0004,0.0006,-0.0037
26349,48.186943,-1.962977,113.31,29.59,4.288,100.3,13 / 19,2635643,2019-08-18 15:57:38:180,-0.8714,-0.2514,9.6465,-0.7447,-0.5825,9.761,-0.0034,-0.0093,-0.0037
26350,48.186943,-1.962977,113.31,29.59,4.288,100.3,13 / 19,2635743,2019-08-18 15:57:38:280,-0.6404,-0.3077,9.8297,-0.7397,-0.58,9.7615,0.001,-0.0057,-0.0025
26351,48.186943,-1.962977,113.31,29.59,4.288,100.3,13 / 19,2635843,2019-08-18 15:57:38:380,-0.7194,-0.1101,10.524,-0.7295,-0.5687,9.7629,0.0014,-0.0035,-0.0012
26352,48.186943,-1.962977,113.31,29.59,4.288,100.3,13 / 19,2635944,2019-08-18 15:57:38:481,-0.7146,-0.3089,9.7584,-0.7314,-0.5645,9.763,-0.0023,-0.0063,0.0015
26353,48.186943,-1.962977,113.31,29.59,4.288,100.3,13 / 19,2636043,2019-08-18 15:57:38:580,-0.7529,-0.2592,9.4849,-0.7315,-0.5527,9.7637,0.0089,0.0028,0.0012
26354,48.186943,-1.962977,113.31,29.59,4.288,100.3,15 / 21,2636143,2019-08-18 15:57:38:680,-0.7577,-0.0281,9.5848,-0.7318,-0.5427,9.7642,0.0059,-0.0025,0.0024
26355,48.186943,-1.962977,113.31,29.59,4.288,100.3,15 / 21,2636243,2019-08-18 15:57:38:780,-0.7038,0.0389,9.4645,-0.7339,-0.5209,9.7653,0.0051,0.0056,0.0026
26356,48.186943,-1.962977,113.31,29.59,4.288,100.3,15 / 21,2636343,2019-08-18 15:57:38:880,-0.7811,0.1455,9.3293,-0.7368,-0.514,9.7654,-0.0052,0.0065,0.0036
26357,48.186943,-1.962977,113.31,29.59,4.288,100.3,15 / 21,2636443,2019-08-18 15:57:38:980,-0.6877,-0.067,9.8332,-0.7398,-0.5068,9.7656,-0.0073,-0.0053,0.0002
26358,48.186943,-1.962977,113.31,29.59,4.288,100.3,15 / 21,2636543,2019-08-18 15:57:39:080,-0.7487,-0.1844,10.7574,-0.7365,-0.5029,9.766,-0.0014,-0.009,0.0006
26359,48.186943,-1.962977,113.31,29.59,4.288,100.3,15 / 21,2636643,2019-08-18 15:57:39:180,-0.726,-0.2472,10.1199,-0.7199,-0.4922,9.7678,-0.005,-0.0132,-0.0011
26360,48.186943,-1.962977,113.31,29.59,4.288,100.3,15 / 21,2636743,2019-08-18 15:57:39:280,-0.8248,-0.1688,9.9422,-0.7137,-0.4856,9.7686,0.001,-0.0035,0.0047
26361,48.186943,-1.962977,113.31,29.59,4.288,100.3,15 / 21,2636843,2019-08-18 15:57:39:380,-0.7523,-0.3238,10.2397,-0.7115,-0.4728,9.7694,-0.007,-0.0111,0.0033
26362,48.186943,-1.962977,113.31,29.59,4.288,100.3,15 / 21,2636943,2019-08-18 15:57:39:480,-0.8343,-0.1443,9.917,-0.706,-0.4699,9.7699,-0.0057,-0.0073,0.0039
26363,48.186943,-1.962977,113.31,29.59,4.288,100.3,15 / 21,2637043,2019-08-18 15:57:39:580,-0.5781,-0.4208,9.7542,-0.7017,-0.4675,9.7703,-0.0103,-0.0089,0.0015
26364,48.186943,-1.962977,113.31,29.59,4.288,100.3,15 / 20,2637143,2019-08-18 15:57:39:680,-0.7805,0.018,9.2485,-0.699,-0.4669,9.7706,-0.0079,0.0051,0.0024
26365,48.186943,-1.962977,113.31,29.59,4.288,100.3,15 / 20,2637246,2019-08-18 15:57:39:783,-0.7858,-0.0293,9.3251,-0.7009,-0.4634,9.7706,-0.0098,-0.0037,0.0006
26366,48.186943,-1.962977,113.31,29.59,4.288,100.3,15 / 20,2637343,2019-08-18 15:57:39:880,-0.8906,0.1556,9.6196,-0.698,-0.4631,9.7708,-0.0046,-0.0073,0.0032
26367,48.186943,-1.962977,113.31,29.59,4.288,100.3,15 / 20,2637443,2019-08-18 15:57:39:980,-0.2831,-0.0054,9.258,-0.6997,-0.4529,9.7712,-0.0082,0.0023,0.003
26368,48.186943,-1.962977,113.31,29.59,4.288,100.3,15 / 20,2637543,2019-08-18 15:57:40:080,-1.069,-0.0449,9.4801,-0.6988,-0.4523,9.7713,-0.0098,0.0146,0.0024
26369,48.186943,-1.962977,113.31,29.59,4.288,100.3,15 / 20,2637644,2019-08-18 15:57:40:181,-0.8607,0.0551,9.6399,-0.7095,-0.4487,9.7707,-0.0025,-0.0034,0.0022
26370,48.186943,-1.962977,113.31,29.59,4.288,100.3,15 / 20,2637743,2019-08-18 15:57:40:280,-0.9546,-0.3304,10.0948,-0.7055,-0.4462,9.7711,-0.0012,-0.0085,0.002
26371,48.186943,-1.962977,113.31,29.59,4.288,100.3,15 / 20,2637843,2019-08-18 15:57:40:380,-0.8924,-0.4058,10.333,-0.7028,-0.4422,9.7714,-0.0079,-0.0101,-0.0011
26372,48.186943,-1.962977,113.31,29.59,4.288,100.3,15 / 20,2637943,2019-08-18 15:57:40:480,-0.8816,-0.3645,10.3636,-0.6972,-0.446,9.7717,-0.0129,-0.0109,-0.0003
26373,48.186943,-1.962977,113.31,29.59,4.288,100.3,15 / 20,2638043,2019-08-18 15:57:40:580,-0.9079,-0.185,9.929,-0.6989,-0.4629,9.7708,-0.0137,0.0014,-0.0022
26374,48.186943,-1.962977,113.31,29.59,4.288,100.3,15 / 21,2638143,2019-08-18 15:57:40:680,-0.8044,-0.1586,9.3113,-0.709,-0.4654,9.7699,-0.0128,0.0002,0.0032
26375,48.186943,-1.962977,113.31,29.59,4.288,100.3,15 / 21,2638243,2019-08-18 15:57:40:780,-1.1282,0.0706,9.5064,-0.718,-0.4719,9.7689,-0.0044,0.0036,0.002
26376,48.186943,-1.962977,113.31,29.59,4.288,100.3,15 / 21,2638343,2019-08-18 15:57:40:880,-0.9678,-0.2418,9.5334,-0.7137,-0.473,9.7692,-0.007,-0.0142,0.0011
26377,48.186943,-1.962977,113.31,29.59,4.288,100.3,15 / 21,2638444,2019-08-18 15:57:40:981,-1.0007,-0.5261,10.0266,-0.6961,-0.479,9.7702,-0.0136,-0.0226,-0.0026
26378,48.186943,-1.962977,113.31,29.59,4.288,100.3,15 / 21,2638543,2019-08-18 15:57:41:080,-0.6129,-0.3717,9.9087,-0.6917,-0.4849,9.7702,-0.0124,-0.0051,-0.0018
26379,48.186943,-1.962977,113.31,29.59,4.288,100.3,15 / 21,2638644,2019-08-18 15:57:41:181,-1.3162,-0.2316,9.5202,-0.6858,-0.4914,9.7703,-0.0047,-0.0106,0.0024
26380,48.186943,-1.962977,113.31,29.59,4.288,100.3,15 / 21,2638743,2019-08-18 15:57:41:280,-0.8918,-0.4645,9.7333,-0.6848,-0.4901,9.7704,0.0001,-0.0038,0.0005
26381,48.186943,-1.962977,113.31,29.59,4.288,100.3,15 / 21,2638843,2019-08-18 15:57:41:380,-0.5967,-0.3142,9.9685,-0.6847,-0.4895,9.7705,0.0087,0.0002,0.0028
26382,48.186943,-1.962977,113.31,29.59,4.288,100.3,15 / 21,2638943,2019-08-18 15:57:41:480,-0.6757,0.0096,9.3077,-0.6917,-0.4744,9.7707,0.0105,0.004,-0.0019
26383,48.186943,-1.962977,113.31,29.59,4.288,100.3,15 / 21,2639043,2019-08-18 15:57:41:580,-0.799,-0.4621,9.938,-0.6952,-0.4629,9.771,0.0095,0.0016,0.0006
26384,48.186943,-1.962977,113.31,29.59,4.288,100.3,13 / 19,2639143,2019-08-18 15:57:41:680,-0.7978,-0.2879,9.862,-0.6952,-0.4626,9.771,-0.0101,-0.0075,-0.0033
26385,48.186943,-1.962977,113.31,29.59,4.288,100.3,13 / 19,2639243,2019-08-18 15:57:41:780,-0.6446,-0.4238,10.0403,-0.6915,-0.4672,9.7711,-0.0092,0.001,-0.0023
26386,48.186943,-1.962977,113.31,29.59,4.288,100.3,13 / 19,2639344,2019-08-18 15:57:41:881,-0.8654,-0.4375,10.0727,-0.6955,-0.478,9.7703,-0.0092,0.0071,-0.0048
26387,48.186943,-1.962977,113.31,29.59,4.288,100.3,13 / 19,2639444,2019-08-18 15:57:41:981,-1.0097,-0.2107,10.1684,-0.7035,-0.4796,9.7696,-0.0046,0.008,-0.0024
26388,48.186943,-1.962977,113.31,29.59,4.288,100.3,13 / 19,2639544,2019-08-18 15:57:42:081,-0.9217,-0.2556,10.4605,-0.7014,-0.4828,9.7696,-0.0019,-0.0203,-0.0047
26389,48.186943,-1.962977,113.31,29.59,4.288,100.3,13 / 19,2639643,2019-08-18 15:57:42:180,-1.2252,-0.6069,9.5501,-0.702,-0.4891,9.7693,-0.0168,0.008,-0.0063
26390,48.186943,-1.962977,113.31,29.59,4.288,100.3,13 / 19,2639743,2019-08-18 15:57:42:280,-0.8355,-0.6147,9.5633,-0.7057,-0.5115,9.7678,-0.0138,-0.0087,-0.0074
26391,48.186943,-1.962977,113.31,29.59,4.288,100.3,13 / 19,2639843,2019-08-18 15:57:42:380,-0.9379,-0.2861,10.2624,-0.6956,-0.5188,9.7682,-0.0116,-0.0192,-0.0065
26392,48.186943,-1.962977,113.31,29.59,4.288,100.3,13 / 19,2639943,2019-08-18 15:57:42:480,-0.8427,-0.4106,10.4258,-0.6728,-0.5348,9.7689,-0.0149,-0.0187,-0.0065
26393,48.186943,-1.962977,113.31,29.59,4.288,100.3,13 / 19,2640043,2019-08-18 15:57:42:580,-0.8158,-0.3172,9.534,-0.6662,-0.5428,9.7689,-0.0161,-0.0112,-0.0058
26394,48.186943,-1.962977,113.31,29.59,4.288,100.3,13 / 19,2640144,2019-08-18 15:57:42:681,-0.8924,-0.1436,9.5387,-0.6593,-0.5604,9.7684,-0.0163,-0.0025,-0.0044
26395,48.186943,-1.962977,113.31,29.59,4.288,100.3,13 / 19,2640244,2019-08-18 15:57:42:781,-0.7428,-0.483,9.5124,-0.6597,-0.5714,9.7677,-0.0172,-0.0016,-0.0038
26396,48.186943,-1.962977,113.31,29.59,4.288,100.3,13 / 19,2640343,2019-08-18 15:57:42:880,-0.905,-0.1784,9.7985,-0.6626,-0.575,9.7673,0.0007,-0.0061,-0.0029
26397,48.186943,-1.962977,113.31,29.59,4.288,100.3,13 / 19,2640443,2019-08-18 15:57:42:980,-0.6949,-0.3831,9.0695,-0.6608,-0.5711,9.7677,-0.0041,0.0078,-0.0021
26398,48.186943,-1.962977,113.31,29.59,4.288,100.3,13 / 19,2640543,2019-08-18 15:57:43:080,-0.9151,-0.3837,10.4551,-0.6831,-0.5577,9.7669,0.0234,0.021,0.0013
26399,48.186943,-1.962977,113.31,29.59,4.288,100.3,13 / 19,2640644,2019-08-18 15:57:43:181,-0.6057,-0.4764,10.4629,-0.6995,-0.5367,9.7669,0.022,-0.0083,0.0064
26400,48.186943,-1.962977,113.31,29.59,4.288,100.3,13 / 19,2640743,2019-08-18 15:57:43:280,-1.1875,-0.0748,10.515,-0.6994,-0.5007,9.7689,0.0101,-0.0184,0.0007
26401,48.186943,-1.962977,113.31,29.59,4.288,100.3,13 / 19,2640843,2019-08-18 15:57:43:380,-0.9648,-0.4603,10.0583,-0.6806,-0.4988,9.7703,-0.0317,-0.0286,-0.0087
26402,48.186943,-1.962977,113.31,29.59,4.288,100.3,13 / 19,2640944,2019-08-18 15:57:43:481,-0.823,-0.4669,10.0182,-0.6515,-0.523,9.771,-0.0238,-0.0131,-0.0026
26403,48.186943,-1.962977,113.31,29.59,4.288,100.3,13 / 19,2641043,2019-08-18 15:57:43:580,-0.8595,-0.5555,9.4035,-0.6493,-0.5299,9.7708,-0.0097,0.0004,-0.0004
26404,48.186943,-1.962977,113.31,29.59,4.288,100.3,13 / 19,2641144,2019-08-18 15:57:43:681,-0.3286,-0.5818,9.6369,-0.6628,-0.5136,9.7707,0.0107,0.0059,-0.0006
26405,48.186943,-1.962977,113.31,29.59,4.288,100.3,13 / 19,2641243,2019-08-18 15:57:43:780,-0.7918,0.3202,10.1846,-0.6588,-0.5156,9.7709,-0.0151,-0.0058,0.0024
26406,48.186943,-1.962977,113.31,29.59,4.288,100.3,13 / 19,2641344,2019-08-18 15:57:43:881,-0.6152,-0.246,9.8458,-0.6518,-0.5263,9.7708,-0.0102,0.0078,0.0039
26407,48.186943,-1.962977,113.31,29.59,4.288,100.3,13 / 19,2641443,2019-08-18 15:57:43:980,-0.638,-0.1443,9.7237,-0.6603,-0.5239,9.7704,-0.0007,0.0202,0.0055
26408,48.186943,-1.962977,113.31,29.59,4.288,100.3,13 / 19,2641543,2019-08-18 15:57:44:080,-1.0438,-0.2939,10.0176,-0.6832,-0.5071,9.7697,0.0124,0.0071,0.0047
26409,48.186943,-1.962977,113.31,29.59,4.288,100.3,13 / 19,2641643,2019-08-18 15:57:44:180,-0.9756,-0.0413,9.92,-0.6843,-0.4936,9.7703,0.0016,-0.0124,0.0028
26410,48.186943,-1.962977,113.31,29.59,4.288,100.3,13 / 19,2641744,2019-08-18 15:57:44:281,-0.8816,-0.343,10.3731,-0.6792,-0.489,9.7709,-0.0038,-0.0114,-0.0004
26411,48.186943,-1.962977,113.31,29.59,4.288,100.3,13 / 19,2641843,2019-08-18 15:57:44:380,-0.8271,-0.492,10.4467,-0.6718,-0.4873,9.7715,-0.0086,-0.009,0.0006
26412,48.186943,-1.962977,113.31,29.59,4.288,100.3,13 / 19,2641944,2019-08-18 15:57:44:481,-0.7128,-0.4238,9.7034,-0.6733,-0.4861,9.7714,-0.0013,0.0031,0.0005
26413,48.186943,-1.962977,113.31,29.59,4.288,100.3,13 / 19,2642043,2019-08-18 15:57:44:580,-0.5817,-0.2328,9.7824,-0.6825,-0.4799,9.7711,0.0161,0.016,0.0006
26414,48.186943,-1.962977,113.31,29.59,4.288,100.3,15 / 20,2642144,2019-08-18 15:57:44:681,-0.5434,-0.3484,8.9713,-0.6934,-0.4661,9.771,0.0247,0.0046,0.0022
26415,48.186943,-1.962977,113.31,29.59,4.288,100.3,15 / 20,2642243,2019-08-18 15:57:44:780,-1.0474,-0.091,9.7183,-0.6996,-0.4495,9.7713,-0.0151,-0.0053,-0.004
26416,48.186943,-1.962977,113.31,29.59,4.288,100.3,15 / 20,2642343,2019-08-18 15:57:44:880,-1.0085,-0.3316,9.9721,-0.7057,-0.4494,9.7709,0.0078,0.0069,-0.0035
26417,48.186943,-1.962977,113.31,29.59,4.288,100.3,15 / 20,2642444,2019-08-18 15:57:44:981,-0.7559,-0.3256,10.2594,-0.7135,-0.4491,9.7703,0.0014,0.0051,0.0001
26418,48.186943,-1.962977,113.31,29.59,4.288,100.3,15 / 20,2642543,2019-08-18 15:57:45:080,-0.9451,-0.1772,10.2355,-0.7186,-0.4414,9.7703,-0.0031,-0.0043,-0.0006
26419,48.186943,-1.962977,113.31,29.59,4.288,100.3,15 / 20,2642643,2019-08-18 15:57:45:180,-0.9941,0.0611,9.7674,-0.7171,-0.437,9.7706,-0.0011,-0.0076,0.0001
26420,48.186943,-1.962977,113.31,29.59,4.288,100.3,15 / 20,2642744,2019-08-18 15:57:45:281,-0.8553,-0.4435,9.7907,-0.71,-0.4361,9.7712,-0.0018,-0.0061,0.0007
26421,48.186943,-1.962977,113.31,29.59,4.288,100.3,15 / 20,2642844,2019-08-18 15:57:45:381,-0.9774,-0.3729,10.0122,-0.7133,-0.435,9.771,-0.0067,0.0012,-0.0003
26422,48.186943,-1.962977,113.31,29.59,4.288,100.3,15 / 20,2642943,2019-08-18 15:57:45:480,-1.0474,-0.3543,10.3594,-0.7202,-0.4356,9.7705,-0.0033,-0.0011,0.0003
26423,48.186943,-1.962977,113.31,29.59,4.288,100.3,15 / 20,2643043,2019-08-18 15:57:45:580,-0.6458,-0.3849,9.9117,-0.7272,-0.4352,9.77,-0.0027,-0.004,-0.0004
26424,48.186535,-1.95947,110.06,29.43,3.216,100.2,14 / 20,2643143,2019-08-18 15:57:45:680,-0.8978,-0.2526,9.8326,-0.7308,-0.4319,9.7698,0.004,0.0016,0.0028
26425,48.186535,-1.95947,110.06,29.43,3.216,100.2,14 / 20,2643244,2019-08-18 15:57:45:781,-1.0426,-0.1179,9.5555,-0.7341,-0.4161,9.7703,0.008,-0.0062,0.0003
26426,48.186535,-1.95947,110.06,29.43,3.216,100.2,14 / 20,2643343,2019-08-18 15:57:45:880,-0.9983,-0.1634,9.8237,-0.7426,-0.4161,9.7696,-0.0044,0.0008,-0.0015
26427,48.186535,-1.95947,110.06,29.43,3.216,100.2,14 / 20,2643443,2019-08-18 15:57:45:980,-1.0929,-0.316,10.102,-0.7515,-0.4162,9.769,-0.0051,-0.0125,-0.0007
26428,48.186535,-1.95947,110.06,29.43,3.216,100.2,14 / 20,2643543,2019-08-18 15:57:46:080,-1.0797,-0.2723,10.1983,-0.7506,-0.4194,9.7689,-0.0092,-0.0062,-0.0006
26429,48.186535,-1.95947,110.06,29.43,3.216,100.2,14 / 20,2643643,2019-08-18 15:57:46:180,-1.112,-0.4016,10.0613,-0.7597,-0.431,9.7677,-0.0117,0.0004,-0.0009
26430,48.186535,-1.95947,110.06,29.43,3.216,100.2,14 / 20,2643743,2019-08-18 15:57:46:280,-0.8984,-0.4513,10.1774,-0.7641,-0.4411,9.7669,-0.0126,-0.0089,-0.0034
26431,48.186535,-1.95947,110.06,29.43,3.216,100.2,14 / 20,2643843,2019-08-18 15:57:46:380,-1.0857,0.0533,9.5034,-0.7607,-0.4452,9.767,-0.0026,-0.0069,-0.0007
26432,48.186535,-1.95947,110.06,29.43,3.216,100.2,14 / 20,2643944,2019-08-18 15:57:46:481,-1.1366,-0.334,9.5555,-0.7599,-0.4467,9.767,-0.0082,-0.0056,-0.0022
26433,48.186535,-1.95947,110.06,29.43,3.216,100.2,14 / 20,2644045,2019-08-18 15:57:46:582,-1.0307,-0.167,9.176,-0.7639,-0.4605,9.766,-0.0141,0.0032,0.0015
26434,48.186535,-1.95947,110.06,29.43,3.216,100.2,15 / 21,2644144,2019-08-18 15:57:46:681,-0.486,0.0497,9.9021,-0.7674,-0.4658,9.7655,-0.002,-0.0048,0.0052
26435,48.186535,-1.95947,110.06,29.43,3.216,100.2,15 / 21,2644243,2019-08-18 15:57:46:780,-1.2294,-0.2586,9.7566,-0.7678,-0.4528,9.7661,0.0177,-0.0061,0.0034
26436,48.186535,-1.95947,110.06,29.43,3.216,100.2,15 / 21,2644344,2019-08-18 15:57:46:881,-0.7457,-0.1041,9.7758,-0.7686,-0.4414,9.7665,0.0097,0.0011,0.0041
26437,48.186535,-1.95947,110.06,29.43,3.216,100.2,15 / 21,2644443,2019-08-18 15:57:46:980,-1.069,-0.0892,9.7237,-0.7736,-0.4245,9.7669,-0.0051,-0.0007,0.0029
26438,48.186535,-1.95947,110.06,29.43,3.216,100.2,15 / 21,2644543,2019-08-18 15:57:47:080,-0.8876,-0.3777,9.4436,-0.779,-0.4189,9.7667,0.007,-0.002,0.0018
26439,48.186535,-1.95947,110.06,29.43,3.216,100.2,15 / 21,2644644,2019-08-18 15:57:47:181,-1.0432,0.0796,9.5561,-0.7774,-0.4107,9.7672,-0.007,-0.0006,0.0005
26440,48.186535,-1.95947,110.06,29.43,3.216,100.2,15 / 21,2644743,2019-08-18 15:57:47:280,-0.9487,-0.0826,10.0559,-0.7815,-0.4119,9.7668,-0.0116,-0.0115,0.0009
26441,48.186535,-1.95947,110.06,29.43,3.216,100.2,15 / 21,2644844,2019-08-18 15:57:47:381,-0.8649,0.2358,9.8434,-0.7763,-0.4142,9.7671,-0.0113,-0.0218,0.0017
26442,48.186535,-1.95947,110.06,29.43,3.216,100.2,15 / 21,2644943,2019-08-18 15:57:47:480,-0.9451,0.0635,9.665,-0.7569,-0.4147,9.7686,-0.0078,-0.0142,0.0011
26443,48.186535,-1.95947,110.06,29.43,3.216,100.2,15 / 21,2645044,2019-08-18 15:57:47:581,-0.7888,-0.1113,9.9709,-0.7505,-0.415,9.7691,-0.0088,-0.0116,0.0006
26444,48.186535,-1.95947,110.06,29.43,3.216,100.2,14 / 20,2645143,2019-08-18 15:57:47:680,-0.8301,-0.2292,10.0332,-0.7439,-0.4169,9.7695,-0.007,0.0008,0.0011
26445,48.186535,-1.95947,110.06,29.43,3.216,100.2,14 / 20,2645244,2019-08-18 15:57:47:781,-0.9516,-0.076,9.5974,-0.7464,-0.4173,9.7693,-0.0092,0.0045,0.0011
26446,48.186535,-1.95947,110.06,29.43,3.216,100.2,14 / 20,2645344,2019-08-18 15:57:47:881,-0.7547,-0.3334,10.2851,-0.7497,-0.4243,9.7687,-0.0045,-0.0004,0.0018
26447,48.186535,-1.95947,110.06,29.43,3.216,100.2,14 / 20,2645443,2019-08-18 15:57:47:980,-0.5446,-0.5555,10.3671,-0.7472,-0.422,9.769,0.0053,0.0055,0.0056
26448,48.186535,-1.95947,110.06,29.43,3.216,100.2,14 / 20,2645544,2019-08-18 15:57:48:081,-0.9259,-0.1221,9.6644,-0.7527,-0.4053,9.7693,0.003,0.0056,0.0042
26449,48.186535,-1.95947,110.06,29.43,3.216,100.2,14 / 20,2645643,2019-08-18 15:57:48:180,-0.9008,0.3214,9.4723,-0.7541,-0.3999,9.7694,-0.0089,-0.0107,0.0055
26450,48.186535,-1.95947,110.06,29.43,3.216,100.2,14 / 20,2645744,2019-08-18 15:57:48:281,-0.5931,-0.2263,9.9571,-0.7463,-0.3953,9.7702,-0.0078,-0.0092,0.0038
26451,48.186535,-1.95947,110.06,29.43,3.216,100.2,14 / 20,2645843,2019-08-18 15:57:48:380,-0.7691,0.0287,9.5423,-0.7467,-0.3911,9.7704,-0.0083,0.0032,0.0068
26452,48.186535,-1.95947,110.06,29.43,3.216,100.2,14 / 20,2645943,2019-08-18 15:57:48:480,-0.9163,0.0479,9.5477,-0.7528,-0.3845,9.7701,-0.0115,0.0039,0.0079
26453,48.186535,-1.95947,110.06,29.43,3.216,100.2,14 / 20,2646043,2019-08-18 15:57:48:580,-0.796,0.1652,9.917,-0.7525,-0.3837,9.7702,-0.0035,-0.0181,0.0051
26454,48.186535,-1.95947,110.06,29.43,3.216,100.2,13 / 19,2646143,2019-08-18 15:57:48:680,-0.7942,0.24,9.7195,-0.7405,-0.3728,9.7715,0.0005,-0.0073,0.0059
26455,48.186535,-1.95947,110.06,29.43,3.216,100.2,13 / 19,2646243,2019-08-18 15:57:48:780,-0.9792,0.1263,10.1738,-0.742,-0.3666,9.7717,0.0025,0.0076,0.0092
26456,48.186535,-1.95947,110.06,29.43,3.216,100.2,13 / 19,2646344,2019-08-18 15:57:48:881,-0.6943,-0.2418,9.6315,-0.7542,-0.3539,9.7712,-0.0067,0.0047,0.0028
26457,48.186535,-1.95947,110.06,29.43,3.216,100.2,13 / 19,2646443,2019-08-18 15:57:48:980,-0.9463,-0.34,9.8638,-0.7596,-0.3526,9.7708,0.0032,-0.0067,0.0052
26458,48.186535,-1.95947,110.06,29.43,3.216,100.2,13 / 19,2646543,2019-08-18 15:57:49:080,-0.9253,-0.0802,9.7788,-0.7521,-0.3407,9.7718,0.0004,-0.0111,0.0024
26459,48.186535,-1.95947,110.06,29.43,3.216,100.2,13 / 19,2646643,2019-08-18 15:57:49:180,-1.0785,-0.2328,10.0487,-0.7465,-0.3375,9.7724,-0.005,-0.0174,0.003
26460,48.186535,-1.95947,110.06,29.43,3.216,100.2,13 / 19,2646743,2019-08-18 15:57:49:280,-0.8625,-0.0976,9.8506,-0.7364,-0.3362,9.7732,-0.0092,-0.001,0.0011
26461,48.186535,-1.95947,110.06,29.43,3.216,100.2,13 / 19,2646843,2019-08-18 15:57:49:380,-0.6943,-0.1047,9.8715,-0.736,-0.3396,9.7731,-0.0103,-0.0104,0.0011
26462,48.186535,-1.95947,110.06,29.43,3.216,100.2,13 / 19,2646943,2019-08-18 15:57:49:480,-0.8349,-0.3107,10.4216,-0.7227,-0.3458,9.7739,-0.0113,-0.0091,0.0024
26463,48.186535,-1.95947,110.06,29.43,3.216,100.2,13 / 19,2647043,2019-08-18 15:57:49:580,-0.8361,-0.6512,10.1391,-0.7236,-0.3491,9.7737,-0.0074,-0.0051,0.0024
26464,48.186535,-1.95947,110.06,29.43,3.216,100.2,15 / 21,2647144,2019-08-18 15:57:49:681,-1.051,-0.0539,10.5138,-0.7013,-0.3558,9.7751,-0.0169,-0.0251,0.0004
26465,48.186535,-1.95947,110.06,29.43,3.216,100.2,15 / 21,2647244,2019-08-18 15:57:49:781,-0.8451,-0.1838,10.081,-0.6905,-0.3566,9.7758,-0.0017,-0.0207,-0.0007
26466,48.186535,-1.95947,110.06,29.43,3.216,100.2,15 / 21,2647343,2019-08-18 15:57:49:880,-0.7308,0.0647,10.0272,-0.6668,-0.3473,9.7778,-0.0005,-0.0124,0.0012
26467,48.186535,-1.95947,110.06,29.43,3.216,100.2,15 / 21,2647443,2019-08-18 15:57:49:980,-0.8481,0.1939,9.7836,-0.6634,-0.3463,9.7781,-0.0151,0.0008,0.0037
26468,48.186535,-1.95947,110.06,29.43,3.216,100.2,15 / 21,2647543,2019-08-18 15:57:50:080,-0.6458,-0.1041,9.4951,-0.67,-0.354,9.7773,-0.0069,0.0058,0.0027
26469,48.186535,-1.95947,110.06,29.43,3.216,100.2,15 / 21,2647643,2019-08-18 15:57:50:180,-0.9175,-0.1215,9.3113,-0.6723,-0.353,9.7772,-0.0042,0.0032,0.0026
26470,48.186535,-1.95947,110.06,29.43,3.216,100.2,15 / 21,2647743,2019-08-18 15:57:50:280,-0.7733,-0.1059,9.8051,-0.6802,-0.3534,9.7766,-0.0118,0.0011,0.0022
26471,48.186535,-1.95947,110.06,29.43,3.216,100.2,15 / 21,2647844,2019-08-18 15:57:50:381,-0.7631,-0.0993,10.3001,-0.6793,-0.3562,9.7766,-0.007,-0.003,-0.0003
26472,48.186535,-1.95947,110.06,29.43,3.216,100.2,15 / 21,2647944,2019-08-18 15:57:50:481,-0.4758,-0.0646,10.3408,-0.6678,-0.3447,9.7778,0.0048,-0.0104,0.0019
26473,48.186535,-1.95947,110.06,29.43,3.216,100.2,15 / 21,2648043,2019-08-18 15:57:50:580,-0.741,-0.103,10.1152,-0.6619,-0.3392,9.7784,-0.006,-0.013,-0.0021
26474,48.186535,-1.95947,110.06,29.43,3.216,100.2,15 / 21,2648143,2019-08-18 15:57:50:680,-0.6889,0.0066,10.1702,-0.6493,-0.3402,9.7792,-0.0018,-0.0027,-0.0044
26475,48.186535,-1.95947,110.06,29.43,3.216,100.2,15 / 21,2648244,2019-08-18 15:57:50:781,-0.6272,-0.4585,9.8638,-0.6494,-0.3403,9.7792,-0.0033,-0.0012,-0.0101
26476,48.186535,-1.95947,110.06,29.43,3.216,100.2,15 / 21,2648343,2019-08-18 15:57:50:880,-0.4955,-0.3274,10.357,-0.6392,-0.3449,9.7797,-0.0033,-0.007,-0.0117
26477,48.186535,-1.95947,110.06,29.43,3.216,100.2,15 / 21,2648443,2019-08-18 15:57:50:980,-0.7038,-0.4339,9.7159,-0.6332,-0.3511,9.7799,-0.0004,-0.0058,-0.0099
26478,48.186535,-1.95947,110.06,29.43,3.216,100.2,15 / 21,2648543,2019-08-18 15:57:51:080,-0.6536,-0.3669,10.333,-0.6142,-0.3542,9.781,0.0061,-0.0204,-0.0092
26479,48.186535,-1.95947,110.06,29.43,3.216,100.2,15 / 21,2648643,2019-08-18 15:57:51:180,-0.8942,-0.5034,9.8997,-0.603,-0.3506,9.7818,0.0046,-0.0063,-0.0101
26480,48.186535,-1.95947,110.06,29.43,3.216,100.2,15 / 21,2648743,2019-08-18 15:57:51:280,-0.5398,-0.7003,10.2121,-0.5969,-0.3543,9.7821,-0.0031,0.0025,-0.0082
26481,48.186535,-1.95947,110.06,29.43,3.216,100.2,15 / 21,2648843,2019-08-18 15:57:51:380,-0.6835,-0.8469,10.0254,-0.6073,-0.3618,9.7811,-0.0014,0.0092,-0.0062
26482,48.186535,-1.95947,110.06,29.43,3.216,100.2,15 / 21,2648943,2019-08-18 15:57:51:480,-0.7864,-0.3926,9.501,-0.616,-0.3652,9.7805,-0.0114,0.0077,-0.0066
26483,48.186535,-1.95947,110.06,29.43,3.216,100.2,15 / 21,2649043,2019-08-18 15:57:51:580,-0.7978,-0.0287,9.5765,-0.6361,-0.3814,9.7786,-0.0122,0.002,-0.0053
26484,48.186535,-1.95947,110.06,29.43,3.216,100.2,15 / 21,2649143,2019-08-18 15:57:51:680,-0.741,-0.4274,9.9715,-0.6419,-0.386,9.778,-0.0066,-0.003,-0.0041
26485,48.186535,-1.95947,110.06,29.43,3.216,100.2,15 / 21,2649243,2019-08-18 15:57:51:780,-0.9732,-0.5447,10.0116,-0.6487,-0.3948,9.7772,-0.0013,-0.0023,-0.0042
26486,48.186535,-1.95947,110.06,29.43,3.216,100.2,15 / 21,2649343,2019-08-18 15:57:51:880,-1.1204,-0.2969,9.8171,-0.6499,-0.3966,9.7771,-0.0002,-0.0079,-0.0028
26487,48.186535,-1.95947,110.06,29.43,3.216,100.2,15 / 21,2649443,2019-08-18 15:57:51:980,-1.0779,-0.3723,9.668,-0.6517,-0.4021,9.7767,-0.0127,-0.0083,-0.0038
26488,48.186535,-1.95947,110.06,29.43,3.216,100.2,15 / 21,2649543,2019-08-18 15:57:52:080,-1.3156,-0.3609,9.592,-0.6535,-0.4108,9.7762,-0.0099,0.0017,-0.0036
26489,48.186535,-1.95947,110.06,29.43,3.216,100.2,15 / 21,2649643,2019-08-18 15:57:52:180,-1.0259,-0.5064,9.8255,-0.67,-0.4243,9.7745,-0.0033,0.0033,-0.0015
26490,48.186535,-1.95947,110.06,29.43,3.216,100.2,15 / 21,2649743,2019-08-18 15:57:52:280,-0.9068,-0.3861,10.0008,-0.6739,-0.4279,9.7741,0.0041,-0.0117,-0.0015
26491,48.186535,-1.95947,110.06,29.43,3.216,100.2,15 / 21,2649843,2019-08-18 15:57:52:380,-1.0893,-0.3968,10.2307,-0.6754,-0.4225,9.7742,0.0102,-0.0013,-0.0011
26492,48.186535,-1.95947,110.06,29.43,3.216,100.2,15 / 21,2649943,2019-08-18 15:57:52:480,-0.9977,-0.6375,10.2061,-0.6809,-0.4173,9.7741,-0.0004,-0.0123,-0.0017
26493,48.186535,-1.95947,110.06,29.43,3.216,100.2,15 / 21,2650043,2019-08-18 15:57:52:580,-0.8367,-0.2173,10.3288,-0.6782,-0.411,9.7745,0.008,-0.0076,0.0025
26494,48.186535,-1.95947,110.06,29.43,3.216,100.2,14 / 20,2650143,2019-08-18 15:57:52:680,-0.9085,-0.425,10.2953,-0.6778,-0.4037,9.7749,0.0052,-0.0097,0.0017
26495,48.186535,-1.95947,110.06,29.43,3.216,100.2,14 / 20,2650243,2019-08-18 15:57:52:780,-0.7637,-0.2616,10.1056,-0.6796,-0.3946,9.7751,-0.0015,-0.0106,0.0022
26496,48.186535,-1.95947,110.06,29.43,3.216,100.2,14 / 20,2650343,2019-08-18 15:57:52:880,-0.96,-0.3364,9.6219,-0.6767,-0.3909,9.7755,0.0002,-0.0063,0.0001
26497,48.186535,-1.95947,110.06,29.43,3.216,100.2,14 / 20,2650444,2019-08-18 15:57:52:981,-1.1552,-0.2993,9.5519,-0.6788,-0.3835,9.7756,0.0003,-0.0041,0.0007
26498,48.186535,-1.95947,110.06,29.43,3.216,100.2,14 / 20,2650543,2019-08-18 15:57:53:080,-1.0468,-0.4154,10.0074,-0.6813,-0.3804,9.7756,-0.0011,-0.0043,0.0024
26499,48.186535,-1.95947,110.06,29.43,3.216,100.2,14 / 20,2650644,2019-08-18 15:57:53:181,-1.1988,-0.0371,9.8554,-0.6874,-0.375,9.7753,-0.0057,-0.0058,0.0033
26500,48.186535,-1.95947,110.06,29.43,3.216,100.2,14 / 20,2650743,2019-08-18 15:57:53:280,-0.9223,-0.1245,9.7506,-0.6843,-0.3765,9.7755,-0.0028,-0.0071,0.0004
26501,48.186535,-1.95947,110.06,29.43,3.216,100.2,14 / 20,2650843,2019-08-18 15:57:53:380,-0.784,-0.012,9.7285,-0.689,-0.3751,9.7752,-0.0029,0.0014,0.0005
26502,48.186535,-1.95947,110.06,29.43,3.216,100.2,14 / 20,2650943,2019-08-18 15:57:53:480,-0.6811,-0.4411,9.6076,-0.6937,-0.3742,9.7749,-0.0073,0.0047,-0.0001
26503,48.186535,-1.95947,110.06,29.43,3.216,100.2,14 / 20,2651043,2019-08-18 15:57:53:580,-0.7338,-0.1185,10.427,-0.7018,-0.3769,9.7742,-0.0073,-0.0089,0.0006
26504,48.186535,-1.95947,110.06,29.43,3.216,100.2,14 / 21,2651143,2019-08-18 15:57:53:680,-0.9055,0.106,10.0302,-0.6937,-0.3782,9.7748,-0.005,-0.0134,0.0025
26505,48.186535,-1.95947,110.06,29.43,3.216,100.2,14 / 21,2651243,2019-08-18 15:57:53:780,-0.8607,-0.067,10.0367,-0.6854,-0.3715,9.7756,0.0036,-0.0058,0.0036
26506,48.186535,-1.95947,110.06,29.43,3.216,100.2,14 / 21,2651343,2019-08-18 15:57:53:880,-0.9073,-0.1562,9.6507,-0.6825,-0.3685,9.7759,-0.0016,0.0048,0.0038
26507,48.186535,-1.95947,110.06,29.43,3.216,100.2,14 / 21,2651444,2019-08-18 15:57:53:981,-0.972,0.0323,9.7818,-0.6926,-0.3595,9.7756,-0.0004,0.0029,0.0032
26508,48.186535,-1.95947,110.06,29.43,3.216,100.2,14 / 21,2651543,2019-08-18 15:57:54:080,-0.8289,-0.1077,9.5232,-0.6849,-0.3572,9.7762,0.0044,-0.0125,0.002
26509,48.186535,-1.95947,110.06,29.43,3.216,100.2,14 / 21,2651644,2019-08-18 15:57:54:181,-0.8008,0.2137,9.5208,-0.6715,-0.3429,9.7776,0.0012,-0.0071,0.0024
26510,48.186535,-1.95947,110.06,29.43,3.216,100.2,14 / 21,2651744,2019-08-18 15:57:54:281,-0.4315,0.0976,9.9176,-0.6633,-0.3353,9.7784,-0.0061,-0.009,0.0042
26511,48.186535,-1.95947,110.06,29.43,3.216,100.2,14 / 21,2651843,2019-08-18 15:57:54:380,-0.8595,0.4046,10.1247,-0.6558,-0.333,9.779,-0.0031,-0.0083,0.0062
26512,48.186535,-1.95947,110.06,29.43,3.216,100.2,14 / 21,2651943,2019-08-18 15:57:54:480,-0.8678,0.24,10.0685,-0.6496,-0.3279,9.7796,-0.0006,-0.0118,0.0066
26513,48.186535,-1.95947,110.06,29.43,3.216,100.2,14 / 21,2652043,2019-08-18 15:57:54:580,-0.7954,0.1149,9.6201,-0.6344,-0.3166,9.781,-0.0118,-0.0009,0.0056
26514,48.18612,-1.95596,108.82,29.28,3.216,100.2,13 / 21,2652144,2019-08-18 15:57:54:681,-0.5722,0.1054,9.7459,-0.6341,-0.3155,9.781,-0.0108,-0.001,0.0042
26515,48.18612,-1.95596,108.82,29.28,3.216,100.2,13 / 21,2652244,2019-08-18 15:57:54:781,-0.5273,0.1215,9.8955,-0.6279,-0.3106,9.7816,-0.0037,-0.0028,0.0041
26516,48.18612,-1.95596,108.82,29.28,3.216,100.2,13 / 21,2652343,2019-08-18 15:57:54:880,-0.2621,0.2137,9.8656,-0.6253,-0.3064,9.7819,-0.0032,0.0008,0.0055
26517,48.18612,-1.95596,108.82,29.28,3.216,100.2,13 / 21,2652443,2019-08-18 15:57:54:980,-0.5644,0.0653,9.8973,-0.6262,-0.2994,9.7821,-0.0053,-0.0077,0.005
26518,48.18612,-1.95596,108.82,29.28,3.216,100.2,13 / 21,2652544,2019-08-18 15:57:55:081,-0.6081,-0.0455,9.7889,-0.6159,-0.2912,9.783,-0.0013,-0.0079,0.0049
26519,48.18612,-1.95596,108.82,29.28,3.216,100.2,13 / 21,2652644,2019-08-18 15:57:55:181,-0.4309,-0.1754,10.1487,-0.6095,-0.2815,9.7836,-0.0016,-0.0036,0.0051
26520,48.18612,-1.95596,108.82,29.28,3.216,100.2,13 / 21,2652744,2019-08-18 15:57:55:281,-0.6027,0.2807,9.8297,-0.5981,-0.2708,9.7846,-0.0053,-0.0052,0.0045
26521,48.18612,-1.95596,108.82,29.28,3.216,100.2,13 / 21,2652843,2019-08-18 15:57:55:380,-0.4884,0.018,10.2307,-0.6003,-0.2635,9.7847,-0.0041,-0.0031,0.0023
26522,48.18612,-1.95596,108.82,29.28,3.216,100.2,13 / 21,2652943,2019-08-18 15:57:55:480,-0.4501,0.3621,10.005,-0.5878,-0.2563,9.7857,-0.006,-0.0085,0.0024
26523,48.18612,-1.95596,108.82,29.28,3.216,100.2,13 / 21,2653043,2019-08-18 15:57:55:580,-0.2591,-0.0263,9.95,-0.5807,-0.2516,9.7862,-0.0079,-0.021,0.002
26524,48.18612,-1.95596,108.82,29.28,3.216,100.2,13 / 21,2653143,2019-08-18 15:57:55:680,-0.5787,0.2275,9.9919,-0.5528,-0.2476,9.7879,-0.0143,-0.01,0.0029
26525,48.18612,-1.95596,108.82,29.28,3.216,100.2,13 / 21,2653243,2019-08-18 15:57:55:780,-0.8756,0.0449,9.4993,-0.5488,-0.2484,9.7881,-0.0084,-0.0046,0.0038
26526,48.18612,-1.95596,108.82,29.28,3.216,100.2,13 / 21,2653343,2019-08-18 15:57:55:880,-0.5943,-0.0383,9.7021,-0.5513,-0.2531,9.7879,-0.0153,0.01,0.0008
26527,48.18612,-1.95596,108.82,29.28,3.216,100.2,13 / 21,2653444,2019-08-18 15:57:55:981,-0.8768,-0.3507,9.0677,-0.5617,-0.2583,9.7871,-0.0134,0.0132,0.0015
26528,48.18612,-1.95596,108.82,29.28,3.216,100.2,13 / 21,2653543,2019-08-18 15:57:56:080,-0.9624,-0.349,9.5741,-0.5888,-0.27,9.7852,-0.0108,0.0005,-0.001
26529,48.18612,-1.95596,108.82,29.28,3.216,100.2,13 / 21,2653644,2019-08-18 15:57:56:181,-0.8523,-0.3172,9.9212,-0.597,-0.2743,9.7846,-0.0117,-0.0028,-0.0016
26530,48.18612,-1.95596,108.82,29.28,3.216,100.2,13 / 21,2653744,2019-08-18 15:57:56:281,-0.8649,-0.4585,10.4964,-0.6005,-0.2917,9.7839,-0.0076,-0.0118,-0.0022
26531,48.18612,-1.95596,108.82,29.28,3.216,100.2,13 / 21,2653843,2019-08-18 15:57:56:380,-1.2587,-0.246,10.0026,-0.5993,-0.2972,9.7838,-0.0073,-0.0163,-0.0022
26532,48.18612,-1.95596,108.82,29.28,3.216,100.2,13 / 21,2653943,2019-08-18 15:57:56:480,-0.9307,-0.6015,10.0972,-0.6006,-0.3049,9.7835,-0.0099,-0.0093,-0.0035
26533,48.18612,-1.95596,108.82,29.28,3.216,100.2,13 / 21,2654043,2019-08-18 15:57:56:580,-0.957,-0.1736,9.7087,-0.5992,-0.3143,9.7833,-0.007,-0.0118,-0.003
26534,48.18612,-1.95596,108.82,29.28,3.216,100.2,Dec-20,2654144,2019-08-18 15:57:56:681,-0.711,-0.489,9.747,-0.5902,-0.3175,9.7837,-0.0024,-0.009,-0.0032
26535,48.18612,-1.95596,108.82,29.28,3.216,100.2,Dec-20,2654244,2019-08-18 15:57:56:781,-0.7027,-0.1167,9.7668,-0.5937,-0.3203,9.7834,-0.0053,-0.0012,-0.0028
26536,48.18612,-1.95596,108.82,29.28,3.216,100.2,Dec-20,2654343,2019-08-18 15:57:56:880,-0.6434,-0.1024,9.9482,-0.5967,-0.3288,9.783,-0.0099,-0.0117,-0.0023
26537,48.18612,-1.95596,108.82,29.28,3.216,100.2,Dec-20,2654443,2019-08-18 15:57:56:980,-0.6907,-0.2418,9.5076,-0.5923,-0.3354,9.783,-0.0137,-0.0007,-0.0027
26538,48.18612,-1.95596,108.82,29.28,3.216,100.2,Dec-20,2654544,2019-08-18 15:57:57:081,-0.7553,-0.2777,9.8189,-0.5989,-0.3473,9.7822,-0.0083,0.0026,-0.0011
