,GPS LATITUDE (degrees),GPS LONGITUDE (degrees), GPS ALTITUDE (m),GPS SPEED (Kmh),GPS ACCURACY (m),GPS ORIENTATION (Â°), SATELLITES IN RANGE, TIME SINCE START (ms), DATE (YYYY-MO-DD HH-MI-SS_SSS),ACCELEROMETER X (m/s²) , ACCELEROMETER Y (m/s²), ACCELEROMETER Z (m/s²), GRAVITY X (m/s²), GRAVITY Y (m/s²), GRAVITY Z (m/s²), GYROSCOPE Yaw (rad/s), GYROSCOPE Pitch (rad/s), GYROSCOPE Roll (rad/s)
20634,48.252903,-2.138332,138.92,30.19,4.288,153.1,Nov-19,2064143,2019-08-18 15:48:06:680,-0.8792,0.0395,9.3759,-0.6913,-0.2321,9.7795,-0.0132,0.0032,0.0044
20635,48.252903,-2.138332,138.92,30.19,4.288,153.1,Nov-19,2064243,2019-08-18 15:48:06:780,-0.8295,-0.182,9.1958,-0.6977,-0.2332,9.779,0.0039,-0.0002,0.0067
20636,48.252903,-2.138332,138.92,30.19,4.288,153.1,Nov-19,2064343,2019-08-18 15:48:06:880,-0.8966,-0.3328,9.9984,-0.6997,-0.227,9.779,0.0002,0.0042,0.0067
20637,48.252903,-2.138332,138.92,30.19,4.288,153.1,Nov-19,2064443,2019-08-18 15:48:06:980,-0.8044,0.0665,9.5795,-0.7036,-0.2228,9.7788,-0.0069,-0.0057,0.0052
20638,48.252903,-2.138332,138.92,30.19,4.288,153.1,Nov-19,2064544,2019-08-18 15:48:07:081,-0.82,0.1293,10.3163,-0.7018,-0.2219,9.779,-0.005,-0.0082,0.0056
20639,48.252903,-2.138332,138.92,30.19,4.288,153.1,Nov-19,2064643,2019-08-18 15:48:07:180,-0.4644,-0.0078,10.0912,-0.6925,-0.2125,9.7799,-0.0024,-0.0047,0.006
20640,48.252903,-2.138332,138.92,30.19,4.288,153.1,Nov-19,2064743,2019-08-18 15:48:07:280,-0.8798,0.0006,10.0445,-0.6957,-0.2152,9.7796,-0.0039,-0.0022,0.0078
20641,48.252903,-2.138332,138.92,30.19,4.288,153.1,Nov-19,2064844,2019-08-18 15:48:07:381,-0.7834,0.2783,9.8913,-0.6959,-0.21,9.7797,0.0045,-0.0118,0.0079
20642,48.252903,-2.138332,138.92,30.19,4.288,153.1,Nov-19,2064943,2019-08-18 15:48:07:480,-1.0211,0.1101,9.9458,-0.6929,-0.2011,9.7801,-0.0085,-0.0154,0.0081
20643,48.252903,-2.138332,138.92,30.19,4.288,153.1,Nov-19,2065044,2019-08-18 15:48:07:581,-0.7715,-0.0521,9.9937,-0.6852,-0.2057,9.7805,-0.0139,-0.0043,0.0061
20644,48.252903,-2.138332,138.92,30.19,4.288,153.1,13 / 21,2065143,2019-08-18 15:48:07:680,-0.9714,-0.0658,9.1802,-0.6874,-0.2088,9.7803,-0.0103,-0.0021,0.0076
20645,48.252903,-2.138332,138.92,30.19,4.288,153.1,13 / 21,2065243,2019-08-18 15:48:07:780,-0.8649,-0.015,9.7967,-0.6903,-0.2135,9.78,-0.0097,-0.0029,0.0068
20646,48.252903,-2.138332,138.92,30.19,4.288,153.1,13 / 21,2065344,2019-08-18 15:48:07:881,-0.6679,-0.1574,9.8284,-0.6908,-0.2148,9.7799,-0.0056,0.0014,0.007
20647,48.252903,-2.138332,138.92,30.19,4.288,153.1,13 / 21,2065444,2019-08-18 15:48:07:981,-0.7242,-0.021,9.9242,-0.7018,-0.2138,9.7792,-0.0045,0.0067,0.0065
20648,48.252903,-2.138332,138.92,30.19,4.288,153.1,13 / 21,2065543,2019-08-18 15:48:08:080,-0.6584,-0.0622,10.4809,-0.7084,-0.2137,9.7787,-0.0065,-0.0054,0.0058
20649,48.252903,-2.138332,138.92,30.19,4.288,153.1,13 / 21,2065643,2019-08-18 15:48:08:180,-1.0486,-0.0353,10.1606,-0.7058,-0.2114,9.7789,-0.003,-0.0062,0.0071
20650,48.252903,-2.138332,138.92,30.19,4.288,153.1,13 / 21,2065743,2019-08-18 15:48:08:280,-1.0193,-0.1018,9.4148,-0.7045,-0.2093,9.7791,-0.0007,-0.0024,0.0083
20651,48.252903,-2.138332,138.92,30.19,4.288,153.1,13 / 21,2065843,2019-08-18 15:48:08:380,-0.8128,0.2203,9.9769,-0.7109,-0.2074,9.7787,-0.0054,0.0032,0.007
20652,48.252903,-2.138332,138.92,30.19,4.288,153.1,13 / 21,2065943,2019-08-18 15:48:08:480,-0.8301,0.0102,9.7273,-0.7139,-0.2055,9.7785,0.0014,-0.0049,0.0074
20653,48.252903,-2.138332,138.92,30.19,4.288,153.1,13 / 21,2066044,2019-08-18 15:48:08:581,-0.8128,0.1048,10.1247,-0.7107,-0.1947,9.7789,0.0037,-0.0023,0.0078
20654,48.252903,-2.138332,138.92,30.19,4.288,153.1,Nov-20,2066143,2019-08-18 15:48:08:680,-0.7134,0.1999,9.9087,-0.711,-0.1892,9.779,0.0005,-0.0108,0.0051
20655,48.252903,-2.138332,138.92,30.19,4.288,153.1,Nov-20,2066243,2019-08-18 15:48:08:780,-0.7326,-0.1101,10.5258,-0.6982,-0.1814,9.7801,-0.0047,-0.0146,0.0042
20656,48.252903,-2.138332,138.92,30.19,4.288,153.1,Nov-20,2066343,2019-08-18 15:48:08:880,-0.8642,0.2658,9.7836,-0.6934,-0.1788,9.7805,-0.0028,-0.0089,0.0052
20657,48.252903,-2.138332,138.92,30.19,4.288,153.1,Nov-20,2066444,2019-08-18 15:48:08:981,-0.9726,0.0359,9.6734,-0.6913,-0.1813,9.7806,-0.0134,-0.0031,0.0053
20658,48.252903,-2.138332,138.92,30.19,4.288,153.1,Nov-20,2066543,2019-08-18 15:48:09:080,-0.7218,0.188,9.6974,-0.6905,-0.1833,9.7806,-0.0037,-0.0063,0.0069
20659,48.252903,-2.138332,138.92,30.19,4.288,153.1,Nov-20,2066643,2019-08-18 15:48:09:180,-0.9277,0.3867,9.5549,-0.6868,-0.1801,9.7809,-0.0053,-0.0048,0.0053
20660,48.252903,-2.138332,138.92,30.19,4.288,153.1,Nov-20,2066743,2019-08-18 15:48:09:280,-0.6063,0.2125,10.257,-0.6783,-0.1812,9.7815,-0.0074,-0.006,0.0046
20661,48.252903,-2.138332,138.92,30.19,4.288,153.1,Nov-20,2066844,2019-08-18 15:48:09:381,-0.8248,0.2251,9.938,-0.6721,-0.1823,9.7819,-0.007,-0.0084,0.0034
20662,48.252903,-2.138332,138.92,30.19,4.288,153.1,Nov-20,2066943,2019-08-18 15:48:09:480,-0.7577,0.1886,9.7931,-0.6619,-0.1843,9.7825,-0.0125,-0.0078,0.0047
20663,48.252903,-2.138332,138.92,30.19,4.288,153.1,Nov-20,2067043,2019-08-18 15:48:09:580,-0.7146,0.2125,9.3053,-0.6586,-0.1869,9.7827,-0.013,-0.0022,0.0051
20664,48.25073,-2.136593,138.14,30.63,4.288,150.4,Nov-21,2067144,2019-08-18 15:48:09:681,-0.7888,0.1556,9.701,-0.6584,-0.1906,9.7827,-0.0074,-0.0053,0.0077
20665,48.25073,-2.136593,138.14,30.63,4.288,150.4,Nov-21,2067244,2019-08-18 15:48:09:781,-0.556,0.3178,9.6423,-0.6555,-0.191,9.7829,-0.0056,-0.0103,0.0065
20666,48.25073,-2.136593,138.14,30.63,4.288,150.4,Nov-21,2067343,2019-08-18 15:48:09:880,-0.7685,0.094,9.8817,-0.6458,-0.1865,9.7836,-0.0123,-0.0033,0.007
20667,48.25073,-2.136593,138.14,30.63,4.288,150.4,Nov-21,2067443,2019-08-18 15:48:09:980,-0.6811,-0.0814,10.017,-0.6485,-0.1891,9.7834,-0.0063,0.0041,0.007
20668,48.25073,-2.136593,138.14,30.63,4.288,150.4,Nov-21,2067543,2019-08-18 15:48:10:080,-0.9109,0.2167,9.4735,-0.6541,-0.1888,9.783,-0.0089,-0.0044,0.0081
20669,48.25073,-2.136593,138.14,30.63,4.288,150.4,Nov-21,2067643,2019-08-18 15:48:10:180,-0.6961,-0.1975,10.0254,-0.6532,-0.1894,9.783,-0.002,0.002,0.006
20670,48.25073,-2.136593,138.14,30.63,4.288,150.4,Nov-21,2067743,2019-08-18 15:48:10:280,-0.7397,0.1868,9.8769,-0.6552,-0.1849,9.783,0.0052,-0.0029,0.0065
20671,48.25073,-2.136593,138.14,30.63,4.288,150.4,Nov-21,2067843,2019-08-18 15:48:10:380,-0.9492,0.0407,10.6149,-0.6519,-0.1782,9.7833,-0.005,-0.0166,0.0056
20672,48.25073,-2.136593,138.14,30.63,4.288,150.4,Nov-21,2067944,2019-08-18 15:48:10:481,-0.7625,-0.1736,9.9386,-0.6398,-0.172,9.7842,-0.0063,-0.0099,0.0056
20673,48.25073,-2.136593,138.14,30.63,4.288,150.4,Nov-21,2068043,2019-08-18 15:48:10:580,-0.8475,0.0096,9.5304,-0.6364,-0.173,9.7844,-0.0108,0.0009,0.0077
20674,48.25073,-2.136593,138.14,30.63,4.288,150.4,Dec-21,2068143,2019-08-18 15:48:10:680,-0.802,-0.0772,9.7674,-0.6414,-0.1777,9.784,-0.0094,0.0048,0.0077
20675,48.25073,-2.136593,138.14,30.63,4.288,150.4,Dec-21,2068243,2019-08-18 15:48:10:780,-0.7858,0.27,9.5806,-0.647,-0.1755,9.7837,-0.0029,0.0028,0.0074
20676,48.25073,-2.136593,138.14,30.63,4.288,150.4,Dec-21,2068343,2019-08-18 15:48:10:880,-0.8032,0.2263,9.1545,-0.647,-0.175,9.7837,-0.0055,0.0016,0.0074
20677,48.25073,-2.136593,138.14,30.63,4.288,150.4,Dec-21,2068444,2019-08-18 15:48:10:981,-0.705,-0.1317,9.8314,-0.6525,-0.1726,9.7834,-0.0036,-0.0026,0.0058
20678,48.25073,-2.136593,138.14,30.63,4.288,150.4,Dec-21,2068543,2019-08-18 15:48:11:080,-0.957,-0.076,9.7991,-0.6474,-0.1687,9.7838,-0.0016,-0.0072,0.0051
20679,48.25073,-2.136593,138.14,30.63,4.288,150.4,Dec-21,2068644,2019-08-18 15:48:11:181,-0.6985,-0.0724,9.9715,-0.6433,-0.168,9.7841,-0.0059,-0.013,0.0032
20680,48.25073,-2.136593,138.14,30.63,4.288,150.4,Dec-21,2068743,2019-08-18 15:48:11:280,-0.8918,-0.1826,10.3468,-0.6312,-0.1718,9.7848,-0.0043,-0.0087,0.0015
20681,48.25073,-2.136593,138.14,30.63,4.288,150.4,Dec-21,2068843,2019-08-18 15:48:11:380,-0.6937,-0.179,9.9146,-0.6303,-0.1715,9.7849,-0.0038,-0.0023,0.0034
20682,48.25073,-2.136593,138.14,30.63,4.288,150.4,Dec-21,2068943,2019-08-18 15:48:11:480,-0.6685,-0.0838,9.9458,-0.636,-0.1797,9.7844,-0.0129,0.0083,0.002
20683,48.25073,-2.136593,138.14,30.63,4.288,150.4,Dec-21,2069044,2019-08-18 15:48:11:581,-0.6152,-0.1969,10.0661,-0.643,-0.186,9.7838,-0.0116,0.005,0.0015
20684,48.25073,-2.136593,138.14,30.63,4.288,150.4,13 / 22,2069143,2019-08-18 15:48:11:680,-0.7457,-0.1592,9.8787,-0.6505,-0.1945,9.7831,-0.0061,-0.0083,0.0011
20685,48.25073,-2.136593,138.14,30.63,4.288,150.4,13 / 22,2069243,2019-08-18 15:48:11:780,-0.8056,0.103,10.0182,-0.6444,-0.1918,9.7836,0.001,-0.0168,0.0012
20686,48.25073,-2.136593,138.14,30.63,4.288,150.4,13 / 22,2069343,2019-08-18 15:48:11:880,-0.7727,-0.2939,9.5429,-0.6281,-0.1888,9.7847,0.0021,-0.0045,0.0029
20687,48.25073,-2.136593,138.14,30.63,4.288,150.4,13 / 22,2069443,2019-08-18 15:48:11:980,-0.7164,-0.0605,9.7201,-0.6253,-0.1887,9.7849,-0.0093,-0.0062,0.0026
20688,48.25073,-2.136593,138.14,30.63,4.288,150.4,13 / 22,2069544,2019-08-18 15:48:12:081,-0.5901,0.0257,9.1323,-0.6214,-0.193,9.785,-0.0048,0.0051,0.0035
20689,48.25073,-2.136593,138.14,30.63,4.288,150.4,13 / 22,2069643,2019-08-18 15:48:12:180,-0.8984,-0.0204,9.5429,-0.6267,-0.1953,9.7847,-0.0089,0.0052,0.0022
20690,48.25073,-2.136593,138.14,30.63,4.288,150.4,13 / 22,2069743,2019-08-18 15:48:12:280,-0.5608,0.2137,9.6214,-0.6318,-0.2028,9.7842,-0.0091,-0.0012,0.0024
20691,48.25073,-2.136593,138.14,30.63,4.288,150.4,13 / 22,2069843,2019-08-18 15:48:12:380,-0.6655,0.0904,10.0427,-0.6271,-0.2065,9.7844,-0.0116,-0.0153,0.0032
20692,48.25073,-2.136593,138.14,30.63,4.288,150.4,13 / 22,2069943,2019-08-18 15:48:12:480,-0.5213,-0.0096,10.4037,-0.6214,-0.2092,9.7847,-0.0124,-0.0187,0.0024
20693,48.25073,-2.136593,138.14,30.63,4.288,150.4,13 / 22,2070043,2019-08-18 15:48:12:580,-0.6817,-0.2041,9.7668,-0.6033,-0.2158,9.7857,0.0012,-0.0015,0.003
20694,48.25073,-2.136593,138.14,30.63,4.288,150.4,13 / 22,2070144,2019-08-18 15:48:12:681,-0.6326,-0.4615,9.701,-0.6053,-0.2079,9.7857,0.002,0.0065,0.0026
20695,48.25073,-2.136593,138.14,30.63,4.288,150.4,Dec-22,2070244,2019-08-18 15:48:12:781,-0.632,0.0838,9.619,-0.605,-0.206,9.7858,0.0003,-0.0025,0.002
20696,48.25073,-2.136593,138.14,30.63,4.288,150.4,Dec-22,2070343,2019-08-18 15:48:12:880,-0.7541,-0.0096,10.4174,-0.6049,-0.2016,9.7859,-0.0002,-0.0022,0.0025
20697,48.25073,-2.136593,138.14,30.63,4.288,150.4,Dec-22,2070443,2019-08-18 15:48:12:980,-0.4985,0.0718,9.7997,-0.6018,-0.1958,9.7862,-0.0024,0.0019,0.0039
20698,48.25073,-2.136593,138.14,30.63,4.288,150.4,Dec-22,2070543,2019-08-18 15:48:13:080,-0.7164,0.0275,9.3394,-0.6038,-0.1964,9.7861,-0.0083,0.019,0.0047
20699,48.25073,-2.136593,138.14,30.63,4.288,150.4,Dec-22,2070644,2019-08-18 15:48:13:181,-0.8092,-0.249,9.6543,-0.6275,-0.202,9.7845,-0.006,0.0128,0.0042
20700,48.25073,-2.136593,138.14,30.63,4.288,150.4,Dec-22,2070743,2019-08-18 15:48:13:280,-0.7439,0.2221,9.8991,-0.6335,-0.2026,9.7841,-0.0006,-0.0142,0.0032
20701,48.25073,-2.136593,138.14,30.63,4.288,150.4,Dec-22,2070843,2019-08-18 15:48:13:380,-0.723,-0.1544,10.4719,-0.6199,-0.1948,9.7851,0.0021,-0.0165,0.0033
20702,48.25073,-2.136593,138.14,30.63,4.288,150.4,Dec-22,2070943,2019-08-18 15:48:13:480,-0.5751,0.1095,10.3546,-0.6143,-0.1913,9.7855,-0.0044,-0.0163,0.003
20703,48.25073,-2.136593,138.14,30.63,4.288,150.4,Dec-22,2071043,2019-08-18 15:48:13:580,-0.6069,0.0766,10.1229,-0.6015,-0.189,9.7864,-0.008,0.0,0.0024
20704,48.25073,-2.136593,138.14,30.63,4.288,150.4,Nov-22,2071144,2019-08-18 15:48:13:681,-0.7415,-0.2269,10.0577,-0.6026,-0.1927,9.7862,-0.0156,-0.0079,0.0034
20705,48.25073,-2.136593,138.14,30.63,4.288,150.4,Nov-22,2071243,2019-08-18 15:48:13:780,-0.6476,-0.0048,10.4114,-0.5998,-0.2027,9.7862,-0.0056,-0.0038,0.0056
20706,48.25073,-2.136593,138.14,30.63,4.288,150.4,Nov-22,2071343,2019-08-18 15:48:13:880,-0.9121,-0.1891,9.5693,-0.5977,-0.2013,9.7864,-0.0015,-0.0113,0.0051
20707,48.25073,-2.136593,138.14,30.63,4.288,150.4,Nov-22,2071444,2019-08-18 15:48:13:981,-0.8289,-0.0377,9.8458,-0.5842,-0.1979,9.7872,-0.0033,-0.0093,0.0053
20708,48.25073,-2.136593,138.14,30.63,4.288,150.4,Nov-22,2071543,2019-08-18 15:48:14:080,-0.5757,-0.0401,9.6824,-0.5816,-0.1978,9.7874,-0.0096,0.0019,0.0049
20709,48.25073,-2.136593,138.14,30.63,4.288,150.4,Nov-22,2071643,2019-08-18 15:48:14:180,-0.875,-0.158,9.6495,-0.5845,-0.2029,9.7871,-0.0052,-0.0053,0.0058
20710,48.25073,-2.136593,138.14,30.63,4.288,150.4,Nov-22,2071744,2019-08-18 15:48:14:281,-0.8409,0.1736,9.501,-0.5818,-0.2028,9.7873,-0.0027,-0.0033,0.0065
20711,48.25073,-2.136593,138.14,30.63,4.288,150.4,Nov-22,2071843,2019-08-18 15:48:14:380,-0.7176,-0.1502,9.5693,-0.5828,-0.1965,9.7873,-0.0016,-0.0041,0.0069
20712,48.25073,-2.136593,138.14,30.63,4.288,150.4,Nov-22,2071943,2019-08-18 15:48:14:480,-0.8792,0.0826,9.9877,-0.5817,-0.1921,9.7875,-0.0008,-0.004,0.0068
20713,48.25073,-2.136593,138.14,30.63,4.288,150.4,Nov-22,2072043,2019-08-18 15:48:14:580,-0.7948,0.2191,9.4005,-0.5859,-0.1875,9.7873,-0.0121,0.0098,0.0065
20714,48.25073,-2.136593,138.14,30.63,4.288,150.4,Sep-21,2072143,2019-08-18 15:48:14:680,-1.0289,0.2053,9.5178,-0.5943,-0.1929,9.7867,-0.0104,0.0079,0.0068
20715,48.25073,-2.136593,138.14,30.63,4.288,150.4,Sep-21,2072244,2019-08-18 15:48:14:781,-0.6619,0.067,9.9739,-0.6041,-0.1907,9.7862,0.0014,-0.0035,0.0099
20716,48.25073,-2.136593,138.14,30.63,4.288,150.4,Sep-21,2072343,2019-08-18 15:48:14:880,-0.6835,0.0814,10.339,-0.6059,-0.1823,9.7862,0.0007,-0.0041,0.0081
20717,48.25073,-2.136593,138.14,30.63,4.288,150.4,Sep-21,2072443,2019-08-18 15:48:14:980,-0.8098,-0.0766,10.2558,-0.6008,-0.1704,9.7867,0.0062,-0.0076,0.0054
20718,48.25073,-2.136593,138.14,30.63,4.288,150.4,Sep-21,2072543,2019-08-18 15:48:15:080,-0.6973,-0.1024,10.6125,-0.5984,-0.1639,9.787,0.0038,-0.0082,0.0047
20719,48.25073,-2.136593,138.14,30.63,4.288,150.4,Sep-21,2072643,2019-08-18 15:48:15:180,-0.8894,0.2622,10.0828,-0.5917,-0.1542,9.7876,-0.0028,-0.01,0.0056
20720,48.25073,-2.136593,138.14,30.63,4.288,150.4,Sep-21,2072743,2019-08-18 15:48:15:280,-0.6757,-0.1006,10.0308,-0.5878,-0.1543,9.7878,-0.0091,-0.0117,0.0065
20721,48.25073,-2.136593,138.14,30.63,4.288,150.4,Sep-21,2072843,2019-08-18 15:48:15:380,-0.6548,0.1688,10.1247,-0.5882,-0.1561,9.7877,-0.0057,-0.0013,0.0083
20722,48.25073,-2.136593,138.14,30.63,4.288,150.4,Sep-21,2072943,2019-08-18 15:48:15:480,-0.5973,0.07,10.026,-0.5873,-0.1579,9.7878,-0.0129,-0.0089,0.0074
20723,48.25073,-2.136593,138.14,30.63,4.288,150.4,Sep-21,2073043,2019-08-18 15:48:15:580,-0.6667,0.1634,10.5635,-0.581,-0.1682,9.788,-0.0129,-0.0144,0.0052
20724,48.25073,-2.136593,138.14,30.63,4.288,150.4,Nov-21,2073143,2019-08-18 15:48:15:680,-0.638,-0.0413,10.2887,-0.574,-0.1714,9.7883,-0.0122,-0.0039,0.0028
20725,48.25073,-2.136593,138.14,30.63,4.288,150.4,Nov-21,2073243,2019-08-18 15:48:15:780,-0.7601,0.0108,10.2486,-0.5724,-0.1802,9.7883,-0.0083,-0.0016,0.0025
20726,48.25073,-2.136593,138.14,30.63,4.288,150.4,Nov-21,2073343,2019-08-18 15:48:15:880,-0.7218,0.0527,10.3827,-0.5725,-0.1816,9.7882,-0.007,-0.0072,0.0029
20727,48.25073,-2.136593,138.14,30.63,4.288,150.4,Nov-21,2073443,2019-08-18 15:48:15:980,-0.8068,-0.1191,9.7387,-0.5774,-0.1923,9.7878,-0.0125,0.003,0.0024
20728,48.25073,-2.136593,138.14,30.63,4.288,150.4,Nov-21,2073543,2019-08-18 15:48:16:080,-0.8517,-0.404,9.8015,-0.5839,-0.2017,9.7872,-0.0082,0.0065,0.0006
20729,48.25073,-2.136593,138.14,30.63,4.288,150.4,Nov-21,2073643,2019-08-18 15:48:16:180,-1.0187,-0.158,9.3682,-0.589,-0.2081,9.7867,-0.0056,0.0109,-0.0052
20730,48.25073,-2.136593,138.14,30.63,4.288,150.4,Nov-21,2073743,2019-08-18 15:48:16:280,-1.203,-0.5902,9.8111,-0.6115,-0.2317,9.7848,-0.0083,0.0011,-0.0067
20731,48.25073,-2.136593,138.14,30.63,4.288,150.4,Nov-21,2073843,2019-08-18 15:48:16:380,-1.1599,-0.8799,9.8907,-0.6186,-0.2399,9.7842,-0.001,-0.0047,-0.0055
20732,48.25073,-2.136593,138.14,30.63,4.288,150.4,Nov-21,2073943,2019-08-18 15:48:16:480,-0.7894,-0.2807,9.7548,-0.6208,-0.2521,9.7837,0.0036,-0.002,-0.0044
20733,48.25073,-2.136593,138.14,30.63,4.288,150.4,Nov-21,2074044,2019-08-18 15:48:16:581,-1.1845,-0.6297,10.1577,-0.624,-0.2532,9.7835,-0.002,-0.0061,-0.0049
20734,48.25073,-2.136593,138.14,30.63,4.288,150.4,Nov-21,2074143,2019-08-18 15:48:16:680,-1.3437,-0.4824,9.6686,-0.6325,-0.2639,9.7827,-0.0047,-0.0124,-0.0049
20735,48.25073,-2.136593,138.14,30.63,4.288,150.4,Dec-20,2074243,2019-08-18 15:48:16:780,-1.1611,-0.4854,10.415,-0.6305,-0.2731,9.7826,-0.0091,-0.0104,-0.0036
20736,48.25073,-2.136593,138.14,30.63,4.288,150.4,Dec-20,2074343,2019-08-18 15:48:16:880,-1.0229,-0.6692,9.8506,-0.6307,-0.2911,9.782,-0.0093,-0.0112,-0.0023
20737,48.25073,-2.136593,138.14,30.63,4.288,150.4,Dec-20,2074443,2019-08-18 15:48:16:980,-1.039,-0.4639,9.2904,-0.636,-0.3006,9.7814,0.0012,0.0085,0.0011
20738,48.25073,-2.136593,138.14,30.63,4.288,150.4,Dec-20,2074543,2019-08-18 15:48:17:080,-0.9947,-0.4154,9.6878,-0.6528,-0.3052,9.7801,-0.0015,0.0105,0.0006
20739,48.25073,-2.136593,138.14,30.63,4.288,150.4,Dec-20,2074643,2019-08-18 15:48:17:180,-0.9397,-0.252,9.9865,-0.6702,-0.3111,9.7788,0.003,0.0083,-0.0025
20740,48.25073,-2.136593,138.14,30.63,4.288,150.4,Dec-20,2074743,2019-08-18 15:48:17:280,-0.8397,-0.2963,9.8799,-0.6905,-0.3137,9.7773,-0.0038,0.0019,-0.001
20741,48.25073,-2.136593,138.14,30.63,4.288,150.4,Dec-20,2074843,2019-08-18 15:48:17:380,-1.4418,-0.7033,10.093,-0.6975,-0.3184,9.7766,0.0009,-0.0106,-0.0015
20742,48.25073,-2.136593,138.14,30.63,4.288,150.4,Dec-20,2074944,2019-08-18 15:48:17:481,-1.1234,-0.4723,9.9583,-0.6933,-0.3135,9.7771,0.0067,-0.0191,0.0006
20743,48.25073,-2.136593,138.14,30.63,4.288,150.4,Dec-20,2075044,2019-08-18 15:48:17:581,-1.2318,-0.4345,10.6012,-0.6891,-0.3093,9.7775,-0.0025,-0.0237,0.0002
20744,48.25073,-2.136593,138.14,30.63,4.288,150.4,13 / 21,2075143,2019-08-18 15:48:17:680,-0.8984,-0.2897,10.1391,-0.6696,-0.3147,9.7787,-0.0138,-0.0025,0.0026
20745,48.25073,-2.136593,138.14,30.63,4.288,150.4,13 / 21,2075243,2019-08-18 15:48:17:780,-0.9121,-0.1957,9.5352,-0.6726,-0.3203,9.7783,-0.0125,0.0088,0.0028
20746,48.25073,-2.136593,138.14,30.63,4.288,150.4,13 / 21,2075344,2019-08-18 15:48:17:881,-1.0402,-0.1568,9.2347,-0.6941,-0.3344,9.7763,-0.0069,0.0122,0.0032
20747,48.25073,-2.136593,138.14,30.63,4.288,150.4,13 / 21,2075444,2019-08-18 15:48:17:981,-0.8469,-0.3268,8.8995,-0.7059,-0.3358,9.7754,-0.0029,0.0087,0.0051
20748,48.25073,-2.136593,138.14,30.63,4.288,150.4,13 / 21,2075543,2019-08-18 15:48:18:080,-0.987,-0.2879,9.9769,-0.7215,-0.3355,9.7743,-0.0068,-0.007,0.0028
20749,48.25073,-2.136593,138.14,30.63,4.288,150.4,13 / 21,2075644,2019-08-18 15:48:18:181,-0.6877,-0.0993,10.0972,-0.7188,-0.3367,9.7745,-0.0049,-0.0071,0.0024
20750,48.25073,-2.136593,138.14,30.63,4.288,150.4,13 / 21,2075743,2019-08-18 15:48:18:280,-0.656,-0.076,9.8638,-0.7108,-0.3386,9.775,-0.0056,-0.0076,0.0027
20751,48.25073,-2.136593,138.14,30.63,4.288,150.4,13 / 21,2075843,2019-08-18 15:48:18:380,-0.6404,-0.3549,10.0679,-0.7056,-0.3393,9.7753,-0.0082,-0.0094,0.0019
20752,48.25073,-2.136593,138.14,30.63,4.288,150.4,13 / 21,2075943,2019-08-18 15:48:18:480,-0.9355,-0.2053,9.7698,-0.6946,-0.3348,9.7763,-0.0007,-0.0092,0.0011
20753,48.25073,-2.136593,138.14,30.63,4.288,150.4,13 / 21,2076043,2019-08-18 15:48:18:580,-0.6985,0.1048,9.7548,-0.6864,-0.3304,9.777,0.0006,-0.0189,0.0039
20754,48.248535,-2.134677,139.33,30.97,5.36,148.6,Dec-20,2076144,2019-08-18 15:48:18:681,-0.3429,0.0539,10.2295,-0.6666,-0.3176,9.7788,-0.0021,-0.0064,0.0028
20755,48.248535,-2.134677,139.33,30.97,5.36,148.6,Dec-20,2076244,2019-08-18 15:48:18:781,-0.3962,0.2305,9.9793,-0.661,-0.3171,9.7792,0.0005,-0.0087,0.002
20756,48.248535,-2.134677,139.33,30.97,5.36,148.6,Dec-20,2076343,2019-08-18 15:48:18:880,-0.3752,-0.0862,10.3444,-0.6498,-0.305,9.7803,-0.0011,-0.0035,0.0015
20757,48.248535,-2.134677,139.33,30.97,5.36,148.6,Dec-20,2076443,2019-08-18 15:48:18:980,-0.5105,0.3843,9.9254,-0.6447,-0.2998,9.7808,-0.0006,-0.024,-0.0002
20758,48.248535,-2.134677,139.33,30.97,5.36,148.6,Dec-20,2076544,2019-08-18 15:48:19:081,-0.6063,-0.3382,9.8231,-0.6067,-0.2919,9.7835,-0.0048,-0.019,0.0
20759,48.248535,-2.134677,139.33,30.97,5.36,148.6,Dec-20,2076643,2019-08-18 15:48:19:180,-0.304,0.0204,10.1451,-0.5971,-0.2924,9.7841,-0.007,-0.0113,-0.0008
20760,48.248535,-2.134677,139.33,30.97,5.36,148.6,Dec-20,2076743,2019-08-18 15:48:19:280,-0.304,0.1969,10.0571,-0.5825,-0.295,9.7849,-0.011,0.0011,-0.0022
20761,48.248535,-2.134677,139.33,30.97,5.36,148.6,Dec-20,2076843,2019-08-18 15:48:19:380,-0.3058,-0.2029,9.5681,-0.5755,-0.3003,9.7851,-0.0082,0.0034,-0.0027
20762,48.248535,-2.134677,139.33,30.97,5.36,148.6,Dec-20,2076943,2019-08-18 15:48:19:480,-0.3387,-0.2113,10.1014,-0.5695,-0.3037,9.7854,-0.0085,-0.0011,-0.0014
20763,48.248535,-2.134677,139.33,30.97,5.36,148.6,Dec-20,2077043,2019-08-18 15:48:19:580,-0.4836,-0.1245,10.3773,-0.5687,-0.2979,9.7856,0.0052,-0.01,-0.0031
20764,48.248535,-2.134677,139.33,30.97,5.36,148.6,Dec-20,2077144,2019-08-18 15:48:19:681,-0.1651,-0.0204,10.4922,-0.5433,-0.2827,9.7875,-0.0002,-0.0181,-0.0034
20765,48.248535,-2.134677,139.33,30.97,5.36,148.6,Dec-20,2077244,2019-08-18 15:48:19:781,-0.3351,-0.1556,10.0266,-0.5263,-0.2783,9.7886,-0.0042,-0.0096,-0.0025
20766,48.248535,-2.134677,139.33,30.97,5.36,148.6,Dec-20,2077344,2019-08-18 15:48:19:881,-0.307,-0.3292,9.7854,-0.5147,-0.2758,9.7893,0.0034,-0.0037,-0.0006
20767,48.248535,-2.134677,139.33,30.97,5.36,148.6,Dec-20,2077444,2019-08-18 15:48:19:981,-0.2154,-0.149,10.1846,-0.5067,-0.2698,9.7898,-0.0043,-0.0089,-0.0004
20768,48.248535,-2.134677,139.33,30.97,5.36,148.6,Dec-20,2077543,2019-08-18 15:48:20:080,-0.3806,-0.2849,10.3426,-0.4978,-0.2698,9.7903,0.0042,-0.008,-0.0022
20769,48.248535,-2.134677,139.33,30.97,5.36,148.6,Dec-20,2077643,2019-08-18 15:48:20:180,-0.2627,-0.2412,10.3971,-0.4812,-0.2595,9.7914,-0.0029,-0.0149,-0.0017
20770,48.248535,-2.134677,139.33,30.97,5.36,148.6,Dec-20,2077743,2019-08-18 15:48:20:280,-0.2879,-0.0964,10.2277,-0.4716,-0.2576,9.7919,-0.004,-0.0147,-0.0014
20771,48.248535,-2.134677,139.33,30.97,5.36,148.6,Dec-20,2077844,2019-08-18 15:48:20:381,-0.4177,0.0054,10.6042,-0.4579,-0.2511,9.7927,-0.0028,-0.0057,0.0012
20772,48.248535,-2.134677,139.33,30.97,5.36,148.6,Dec-20,2077943,2019-08-18 15:48:20:480,-0.1981,0.0066,10.6335,-0.4505,-0.2511,9.7931,-0.0014,-0.0174,0.0007
20773,48.248535,-2.134677,139.33,30.97,5.36,148.6,Dec-20,2078043,2019-08-18 15:48:20:580,-0.3956,0.1826,10.5204,-0.42,-0.2425,9.7946,-0.002,-0.0131,0.0015
20774,48.248535,-2.134677,139.33,30.97,5.36,148.6,Dec-21,2078143,2019-08-18 15:48:20:680,-0.2657,0.1868,10.4467,-0.4082,-0.2405,9.7952,-0.0078,-0.0184,0.002
20775,48.248535,-2.134677,139.33,30.97,5.36,148.6,Dec-21,2078243,2019-08-18 15:48:20:780,-0.0646,0.0778,10.0391,-0.393,-0.2472,9.7957,-0.0159,-0.0087,0.003
20776,48.248535,-2.134677,139.33,30.97,5.36,148.6,Dec-21,2078344,2019-08-18 15:48:20:881,-0.2412,0.41,9.9823,-0.3881,-0.2496,9.7958,-0.0138,-0.0085,0.0013
20777,48.248535,-2.134677,139.33,30.97,5.36,148.6,Dec-21,2078444,2019-08-18 15:48:20:981,-0.301,0.4645,9.5274,-0.3782,-0.254,9.7961,-0.0088,0.0023,0.0039
20778,48.248535,-2.134677,139.33,30.97,5.36,148.6,Dec-21,2078543,2019-08-18 15:48:21:080,-0.3669,0.349,9.5274,-0.3793,-0.2534,9.796,-0.0088,0.0023,0.0039
20779,48.248535,-2.134677,139.33,30.97,5.36,148.6,Dec-21,2078643,2019-08-18 15:48:21:180,-0.3555,0.2831,9.6549,-0.3729,-0.2547,9.7962,-0.0111,-0.0026,0.0033
20780,48.248535,-2.134677,139.33,30.97,5.36,148.6,Dec-21,2078744,2019-08-18 15:48:21:281,-0.1616,0.4094,9.8685,-0.3716,-0.2544,9.7963,-0.0042,-0.005,0.0039
20781,48.248535,-2.134677,139.33,30.97,5.36,148.6,Dec-21,2078843,2019-08-18 15:48:21:380,-0.3776,0.185,9.6333,-0.3654,-0.25,9.7966,-0.007,-0.007,0.0029
20782,48.248535,-2.134677,139.33,30.97,5.36,148.6,Dec-21,2078943,2019-08-18 15:48:21:480,-0.4525,0.3178,10.1541,-0.3613,-0.248,9.7969,-0.0038,-0.0119,0.0024
20783,48.248535,-2.134677,139.33,30.97,5.36,148.6,Dec-21,2079044,2019-08-18 15:48:21:581,-0.5662,0.1299,10.1391,-0.3401,-0.2405,9.7978,0.0001,-0.0166,0.0004
20784,48.248535,-2.134677,139.33,30.97,5.36,148.6,Dec-21,2079143,2019-08-18 15:48:21:680,-0.5183,0.1347,10.011,-0.3283,-0.2368,9.7983,-0.0074,-0.0134,-0.0004
20785,48.248535,-2.134677,139.33,30.97,5.36,148.6,Dec-21,2079243,2019-08-18 15:48:21:780,-0.4483,-0.0922,9.744,-0.3192,-0.2374,9.7986,-0.0041,-0.0064,-0.0036
20786,48.248535,-2.134677,139.33,30.97,5.36,148.6,Dec-21,2079343,2019-08-18 15:48:21:880,-0.1837,-0.1556,10.4426,-0.3127,-0.2391,9.7987,0.0007,-0.0135,-0.0046
20787,48.248535,-2.134677,139.33,30.97,5.36,148.6,Dec-21,2079444,2019-08-18 15:48:21:981,-0.0993,-0.1993,10.6443,-0.2957,-0.2349,9.7994,0.0025,-0.0171,-0.0049
20788,48.248535,-2.134677,139.33,30.97,5.36,148.6,Dec-21,2079543,2019-08-18 15:48:22:080,-0.4734,-0.2783,10.3228,-0.2828,-0.2342,9.7998,-0.0012,-0.0146,-0.004
20789,48.248535,-2.134677,139.33,30.97,5.36,148.6,Dec-21,2079643,2019-08-18 15:48:22:180,-0.3268,-0.4812,9.7016,-0.2665,-0.2353,9.8002,-0.007,-0.0021,-0.0054
20790,48.248535,-2.134677,139.33,30.97,5.36,148.6,Dec-21,2079743,2019-08-18 15:48:22:280,0.0426,-0.2221,9.5753,-0.2711,-0.2417,9.7999,-0.0072,0.0132,-0.006
20791,48.248535,-2.134677,139.33,30.97,5.36,148.6,Dec-21,2079843,2019-08-18 15:48:22:380,-0.3603,-0.6698,9.5076,-0.2822,-0.2465,9.7995,0.0013,0.0076,-0.0059
20792,48.248535,-2.134677,139.33,30.97,5.36,148.6,Dec-21,2079943,2019-08-18 15:48:22:480,-0.4261,-0.4597,9.9907,-0.2769,-0.246,9.7997,0.0044,-0.0141,-0.0076
20793,48.248535,-2.134677,139.33,30.97,5.36,148.6,Dec-21,2080043,2019-08-18 15:48:22:580,-0.3854,0.0347,10.2977,-0.2566,-0.2429,9.8003,0.0028,-0.0176,-0.0083
20794,48.248535,-2.134677,139.33,30.97,5.36,148.6,Dec-21,2080144,2019-08-18 15:48:22:681,-0.1999,-0.2622,10.5264,-0.249,-0.241,9.8005,0.0045,-0.0049,-0.0069
20795,48.248535,-2.134677,139.33,30.97,5.36,148.6,Dec-21,2080244,2019-08-18 15:48:22:781,-0.383,-0.407,10.172,-0.237,-0.2398,9.8009,-0.0039,-0.0132,-0.0073
20796,48.248535,-2.134677,139.33,30.97,5.36,148.6,Dec-21,2080343,2019-08-18 15:48:22:880,-0.2777,0.1886,9.8847,-0.2325,-0.2397,9.801,-0.0038,-0.0096,-0.0049
20797,48.248535,-2.134677,139.33,30.97,5.36,148.6,Dec-21,2080444,2019-08-18 15:48:22:981,-0.3208,-0.1203,9.6537,-0.2272,-0.2405,9.8011,-0.0097,0.0025,-0.004
20798,48.248535,-2.134677,139.33,30.97,5.36,148.6,Dec-21,2080544,2019-08-18 15:48:23:081,-0.4914,-0.5381,9.5723,-0.2294,-0.2513,9.8007,-0.0057,0.0093,-0.0016
20799,48.248535,-2.134677,139.33,30.97,5.36,148.6,Dec-21,2080643,2019-08-18 15:48:23:180,-0.5165,-0.2209,10.0343,-0.2408,-0.2523,9.8004,0.0072,0.0146,0.0024
20800,48.248535,-2.134677,139.33,30.97,5.36,148.6,Dec-21,2080743,2019-08-18 15:48:23:280,-0.823,-0.0814,9.8261,-0.2748,-0.2439,9.7998,0.007,0.0098,0.0035
20801,48.248535,-2.134677,139.33,30.97,5.36,148.6,Dec-21,2080846,2019-08-18 15:48:23:383,-0.7116,-0.3831,10.2169,-0.2858,-0.2409,9.7995,0.0027,-0.0032,0.001
20802,48.248535,-2.134677,139.33,30.97,5.36,148.6,Dec-21,2080943,2019-08-18 15:48:23:480,-0.6566,-0.6411,10.6347,-0.2983,-0.2403,9.7992,0.0043,-0.0037,0.0005
20803,48.248535,-2.134677,139.33,30.97,5.36,148.6,Dec-21,2081043,2019-08-18 15:48:23:580,-0.9636,-0.3118,10.0721,-0.3018,-0.2401,9.7991,-0.0022,-0.0113,-0.0004
20804,48.248535,-2.134677,139.33,30.97,5.36,148.6,13 / 22,2081143,2019-08-18 15:48:23:680,-0.8194,-0.4956,9.522,-0.3066,-0.2434,9.7988,-0.0046,-0.0087,-0.0005
20805,48.248535,-2.134677,139.33,30.97,5.36,148.6,13 / 22,2081243,2019-08-18 15:48:23:780,-0.5404,-0.331,9.9164,-0.316,-0.2493,9.7984,-0.0061,-0.0034,-0.004
20806,48.248535,-2.134677,139.33,30.97,5.36,148.6,13 / 22,2081343,2019-08-18 15:48:23:880,-0.8744,-0.3154,9.7231,-0.331,-0.2604,9.7976,-0.0016,-0.0039,-0.006
20807,48.248535,-2.134677,139.33,30.97,5.36,148.6,13 / 22,2081443,2019-08-18 15:48:23:980,-0.7607,-0.4705,9.9284,-0.3344,-0.2618,9.7975,0.0026,-0.0165,-0.0051
20808,48.248535,-2.134677,139.33,30.97,5.36,148.6,13 / 22,2081544,2019-08-18 15:48:24:081,-0.7942,-0.2765,9.9691,-0.329,-0.264,9.7976,0.004,-0.013,-0.003
20809,48.248535,-2.134677,139.33,30.97,5.36,148.6,13 / 22,2081644,2019-08-18 15:48:24:181,-0.8349,-0.3573,9.8991,-0.3279,-0.2625,9.7977,0.003,-0.005,-0.0045
20810,48.248535,-2.134677,139.33,30.97,5.36,148.6,13 / 22,2081743,2019-08-18 15:48:24:280,-0.7775,-0.489,10.1768,-0.3353,-0.2662,9.7973,-0.0046,-0.0062,-0.0042
20811,48.248535,-2.134677,139.33,30.97,5.36,148.6,13 / 22,2081843,2019-08-18 15:48:24:380,-0.8002,-0.2167,9.938,-0.3384,-0.2718,9.797,-0.0023,-0.0094,-0.0044
20812,48.248535,-2.134677,139.33,30.97,5.36,148.6,13 / 22,2081943,2019-08-18 15:48:24:480,-0.6811,-0.2795,9.5405,-0.3325,-0.2749,9.7972,0.0012,-0.005,-0.0048
20813,48.248535,-2.134677,139.33,30.97,5.36,148.6,13 / 22,2082043,2019-08-18 15:48:24:580,-0.4758,0.0138,9.7411,-0.3339,-0.2735,9.7971,-0.0036,0.0002,-0.004
20814,48.248535,-2.134677,139.33,30.97,5.36,148.6,Dec-19,2082143,2019-08-18 15:48:24:680,-0.4052,-0.064,10.172,-0.3367,-0.2749,9.797,-0.0015,-0.0164,-0.0043
20815,48.248535,-2.134677,139.33,30.97,5.36,148.6,Dec-19,2082244,2019-08-18 15:48:24:781,-0.4177,-0.1329,10.421,-0.3291,-0.2731,9.7973,-0.0008,-0.0278,-0.0038
20816,48.248535,-2.134677,139.33,30.97,5.36,148.6,Dec-19,2082344,2019-08-18 15:48:24:881,-0.5057,-0.2209,9.853,-0.2977,-0.2725,9.7983,-0.0088,-0.0223,-0.0044
20817,48.248535,-2.134677,139.33,30.97,5.36,148.6,Dec-19,2082443,2019-08-18 15:48:24:980,-0.3118,0.1155,9.9416,-0.2887,-0.2765,9.7985,-0.0104,-0.0108,-0.0041
20818,48.248535,-2.134677,139.33,30.97,5.36,148.6,Dec-19,2082544,2019-08-18 15:48:25:081,-0.1454,-0.0784,9.4238,-0.29,-0.2849,9.7982,-0.0088,0.0087,-0.0022
20819,48.248535,-2.134677,139.33,30.97,5.36,148.6,Dec-19,2082644,2019-08-18 15:48:25:181,-0.2088,-0.3304,9.8638,-0.2953,-0.2873,9.798,0.0015,-0.005,-0.0022
20820,48.248535,-2.134677,139.33,30.97,5.36,148.6,Dec-19,2082744,2019-08-18 15:48:25:281,-0.4189,0.0323,9.5555,-0.292,-0.2803,9.7983,0.0027,-0.0112,-0.0017
20821,48.248535,-2.134677,139.33,30.97,5.36,148.6,Dec-19,2082844,2019-08-18 15:48:25:381,-0.2154,0.1365,10.5497,-0.2868,-0.2745,9.7986,0.0069,-0.0062,-0.0017
20822,48.248535,-2.134677,139.33,30.97,5.36,148.6,Dec-19,2082944,2019-08-18 15:48:25:481,-0.2693,-0.3118,10.5671,-0.2748,-0.2612,9.7993,0.0056,-0.0112,-0.002
20823,48.248535,-2.134677,139.33,30.97,5.36,148.6,Dec-19,2083043,2019-08-18 15:48:25:580,-0.2825,0.1886,9.9003,-0.2694,-0.2577,9.7996,-0.0058,-0.0174,-0.0003
20824,48.248535,-2.134677,139.33,30.97,5.36,148.6,13 / 22,2083143,2019-08-18 15:48:25:680,-0.4842,-0.2514,10.1918,-0.2512,-0.2492,9.8003,-0.0029,-0.0106,-0.0004
20825,48.248535,-2.134677,139.33,30.97,5.36,148.6,13 / 22,2083243,2019-08-18 15:48:25:780,-0.1017,-0.1353,9.7453,-0.2492,-0.2486,9.8003,-0.0095,0.0122,-0.0015
20826,48.248535,-2.134677,139.33,30.97,5.36,148.6,13 / 22,2083343,2019-08-18 15:48:25:880,-0.4315,-0.1263,9.3765,-0.2691,-0.253,9.7997,-0.0092,0.0143,-0.0013
20827,48.248535,-2.134677,139.33,30.97,5.36,148.6,13 / 22,2083443,2019-08-18 15:48:25:980,-0.5374,-0.176,9.8919,-0.2816,-0.2541,9.7993,-0.0018,0.0029,-0.0017
20828,48.248535,-2.134677,139.33,30.97,5.36,148.6,13 / 22,2083544,2019-08-18 15:48:26:081,-0.6386,-0.2334,10.0631,-0.2834,-0.2474,9.7994,0.0033,-0.0067,-0.0031
20829,48.248535,-2.134677,139.33,30.97,5.36,148.6,13 / 22,2083644,2019-08-18 15:48:26:181,-0.4632,0.1389,10.181,-0.2775,-0.2497,9.7995,-0.0103,-0.0133,-0.0018
20830,48.248535,-2.134677,139.33,30.97,5.36,148.6,13 / 22,2083743,2019-08-18 15:48:26:280,-0.6051,-0.2568,9.9272,-0.2734,-0.2527,9.7996,0.0003,-0.0129,0.0004
20831,48.248535,-2.134677,139.33,30.97,5.36,148.6,13 / 22,2083844,2019-08-18 15:48:26:381,-0.6398,-0.3202,9.8207,-0.2726,-0.2497,9.7997,-0.0069,-0.0103,-0.0007
20832,48.248535,-2.134677,139.33,30.97,5.36,148.6,13 / 22,2083943,2019-08-18 15:48:26:480,-0.5668,-0.1269,9.5585,-0.2735,-0.2575,9.7995,-0.0105,0.0051,-0.0002
20833,48.248535,-2.134677,139.33,30.97,5.36,148.6,13 / 22,2084043,2019-08-18 15:48:26:580,-1.0636,-0.2634,9.3322,-0.2853,-0.2646,9.7989,-0.0149,0.0173,-0.0013
20834,48.248535,-2.134677,139.33,30.97,5.36,148.6,Dec-22,2084143,2019-08-18 15:48:26:680,-0.6081,-0.2657,9.841,-0.3261,-0.2847,9.7971,-0.0094,0.0092,-0.0038
20835,48.248535,-2.134677,139.33,30.97,5.36,148.6,Dec-22,2084244,2019-08-18 15:48:26:781,-1.1845,-0.5986,9.6387,-0.3377,-0.2919,9.7965,-0.0043,-0.0022,-0.0043
20836,48.248535,-2.134677,139.33,30.97,5.36,148.6,Dec-22,2084343,2019-08-18 15:48:26:880,-0.9983,-0.4292,9.8703,-0.3484,-0.3029,9.7958,-0.0043,-0.01,-0.0044
20837,48.248535,-2.134677,139.33,30.97,5.36,148.6,Dec-22,2084443,2019-08-18 15:48:26:980,-0.7146,-0.3513,10.3923,-0.352,-0.307,9.7955,-0.001,-0.0049,-0.0043
20838,48.248535,-2.134677,139.33,30.97,5.36,148.6,Dec-22,2084543,2019-08-18 15:48:27:080,-0.6937,-0.4513,10.0038,-0.359,-0.3124,9.7951,0.0025,0.0075,-0.0026
20839,48.248535,-2.134677,139.33,30.97,5.36,148.6,Dec-22,2084644,2019-08-18 15:48:27:181,-1.1552,-0.7159,9.8716,-0.3849,-0.317,9.794,-0.0005,0.0051,-0.0034
20840,48.248535,-2.134677,139.33,30.97,5.36,148.6,Dec-22,2084743,2019-08-18 15:48:27:280,-1.5406,-0.8116,9.7446,-0.3933,-0.3233,9.7934,-0.0077,-0.001,-0.0058
20841,48.248535,-2.134677,139.33,30.97,5.36,148.6,Dec-22,2084844,2019-08-18 15:48:27:381,-0.6296,-0.2149,9.6249,-0.4121,-0.3389,9.7921,-0.0066,0.0006,-0.0046
20842,48.248535,-2.134677,139.33,30.97,5.36,148.6,Dec-22,2084943,2019-08-18 15:48:27:480,-1.0438,-0.7907,9.7028,-0.4188,-0.3453,9.7916,-0.0057,-0.0071,-0.0035
20843,48.248535,-2.134677,139.33,30.97,5.36,148.6,Dec-22,2085043,2019-08-18 15:48:27:580,-0.8517,-0.6722,9.9673,-0.4384,-0.3602,9.7902,-0.0011,0.006,-0.0044
20844,48.246315,-2.132651,144.42,31.53,5.36,149.8,Dec-22,2085143,2019-08-18 15:48:27:680,-0.9905,-0.7224,9.7578,-0.4485,-0.3658,9.7896,-0.0041,0.0003,-0.0065
20845,48.246315,-2.132651,144.42,31.53,5.36,149.8,Dec-22,2085243,2019-08-18 15:48:27:780,-1.2551,-0.735,9.4328,-0.4743,-0.3799,9.7878,-0.005,0.0067,-0.0058
20846,48.246315,-2.132651,144.42,31.53,5.36,149.8,Dec-22,2085343,2019-08-18 15:48:27:880,-0.7984,-0.6416,9.9637,-0.486,-0.3857,9.787,-0.0018,0.0029,-0.0061
20847,48.246315,-2.132651,144.42,31.53,5.36,149.8,Dec-22,2085443,2019-08-18 15:48:27:980,-1.2168,-0.7356,10.0266,-0.5041,-0.3995,9.7855,0.0015,-0.0092,-0.0062
20848,48.246315,-2.132651,144.42,31.53,5.36,149.8,Dec-22,2085543,2019-08-18 15:48:28:080,-1.0588,-0.7739,9.8147,-0.5075,-0.4021,9.7853,0.0034,-0.0055,-0.0058
20849,48.246315,-2.132651,144.42,31.53,5.36,149.8,Dec-22,2085643,2019-08-18 15:48:28:180,-1.0947,-0.7608,10.4803,-0.5202,-0.4086,9.7843,-0.0033,-0.0071,-0.0086
20850,48.246315,-2.132651,144.42,31.53,5.36,149.8,Dec-22,2085743,2019-08-18 15:48:28:280,-1.1001,-0.6009,9.4915,-0.5249,-0.4154,9.7838,-0.0023,-0.005,-0.0108
20851,48.246315,-2.132651,144.42,31.53,5.36,149.8,Dec-22,2085843,2019-08-18 15:48:28:380,-1.121,-0.7661,9.6644,-0.5331,-0.4276,9.7828,-0.0039,0.0038,-0.0103
20852,48.246315,-2.132651,144.42,31.53,5.36,149.8,Dec-22,2085943,2019-08-18 15:48:28:480,-1.1569,-0.908,9.7357,-0.5495,-0.4361,9.7815,-0.0011,0.0145,-0.0102
20853,48.246315,-2.132651,144.42,31.53,5.36,149.8,Dec-22,2086044,2019-08-18 15:48:28:581,-1.1755,-0.8835,10.4156,-0.5707,-0.4489,9.7797,0.0039,-0.019,-0.0126
20854,48.246315,-2.132651,144.42,31.53,5.36,149.8,Nov-21,2086145,2019-08-18 15:48:28:682,-1.3042,-0.9691,9.7895,-0.5638,-0.454,9.7799,0.0057,-0.0196,-0.0129
20855,48.246315,-2.132651,144.42,31.53,5.36,149.8,Nov-21,2086243,2019-08-18 15:48:28:780,-1.3413,-0.9212,9.835,-0.5663,-0.4639,9.7793,0.0012,0.0008,-0.0139
20856,48.246315,-2.132651,144.42,31.53,5.36,149.8,Nov-21,2086343,2019-08-18 15:48:28:880,-1.1617,-1.1031,9.7925,-0.5773,-0.4696,9.7784,-0.0074,-0.0097,-0.013
20857,48.246315,-2.132651,144.42,31.53,5.36,149.8,Nov-21,2086443,2019-08-18 15:48:28:980,-1.282,-0.8583,9.5208,-0.5824,-0.4919,9.777,-0.0063,-0.0073,-0.0112
20858,48.246315,-2.132651,144.42,31.53,5.36,149.8,Nov-21,2086543,2019-08-18 15:48:29:080,-1.3275,-0.8134,9.7357,-0.5881,-0.5011,9.7762,-0.0127,-0.0092,-0.0135
20859,48.246315,-2.132651,144.42,31.53,5.36,149.8,Nov-21,2086644,2019-08-18 15:48:29:181,-1.0265,-0.7793,9.3568,-0.5927,-0.5269,9.7745,-0.0154,-0.0137,-0.014
20860,48.246315,-2.132651,144.42,31.53,5.36,149.8,Nov-21,2086743,2019-08-18 15:48:29:280,-0.7709,-0.9906,9.765,-0.5933,-0.5404,9.7738,-0.0108,0.0051,-0.0159
20861,48.246315,-2.132651,144.42,31.53,5.36,149.8,Nov-21,2086843,2019-08-18 15:48:29:380,-0.9103,-0.7314,10.1385,-0.6051,-0.5596,9.772,0.0018,0.0007,-0.0167
20862,48.246315,-2.132651,144.42,31.53,5.36,149.8,Nov-21,2086943,2019-08-18 15:48:29:480,-0.8852,-0.9601,9.8512,-0.5966,-0.5652,9.7722,-0.0078,-0.0248,-0.0173
20863,48.246315,-2.132651,144.42,31.53,5.36,149.8,Nov-21,2087043,2019-08-18 15:48:29:580,-1.0522,-0.7009,9.9613,-0.5834,-0.5754,9.7724,0.0027,-0.015,-0.0142
20864,48.246315,-2.132651,144.42,31.53,5.36,149.8,Dec-20,2087143,2019-08-18 15:48:29:680,-0.6697,-0.568,8.8672,-0.576,-0.5603,9.7737,0.0125,0.0146,-0.0076
20865,48.246315,-2.132651,144.42,31.53,5.36,149.8,Dec-20,2087244,2019-08-18 15:48:29:781,-0.7823,-0.3705,8.0268,-0.6122,-0.573,9.7707,-0.0305,0.0456,-0.0148
20866,48.246315,-2.132651,144.42,31.53,5.36,149.8,Dec-20,2087343,2019-08-18 15:48:29:880,-1.1282,-0.9469,8.2351,-0.6507,-0.6008,9.7666,-0.0185,0.0285,-0.0159
20867,48.246315,-2.132651,144.42,31.53,5.36,149.8,Dec-20,2087443,2019-08-18 15:48:29:980,-1.0259,-0.9978,10.6497,-0.6684,-0.6093,9.7649,0.0044,-0.0212,-0.0166
20868,48.246315,-2.132651,144.42,31.53,5.36,149.8,Dec-20,2087543,2019-08-18 15:48:30:080,-1.2012,-0.6967,11.6283,-0.6508,-0.6136,9.7658,-0.0061,-0.0371,-0.0149
20869,48.246315,-2.132651,144.42,31.53,5.36,149.8,Dec-20,2087643,2019-08-18 15:48:30:180,-1.1031,-0.5932,10.9986,-0.631,-0.6128,9.7671,0.0131,-0.0011,-0.0085
20870,48.246315,-2.132651,144.42,31.53,5.36,149.8,Dec-20,2087743,2019-08-18 15:48:30:280,-1.0803,-0.6488,9.5741,-0.6368,-0.6068,9.7671,0.0073,0.0051,-0.0042
20871,48.246315,-2.132651,144.42,31.53,5.36,149.8,Dec-20,2087844,2019-08-18 15:48:30:381,-0.7757,-0.3651,9.3855,-0.654,-0.5994,9.7664,0.0012,0.0023,-0.0002
20872,48.246315,-2.132651,144.42,31.53,5.36,149.8,Dec-20,2087943,2019-08-18 15:48:30:480,-0.8134,-0.2981,10.1313,-0.6566,-0.5947,9.7666,0.0043,-0.0144,0.0024
20873,48.246315,-2.132651,144.42,31.53,5.36,149.8,Dec-20,2088043,2019-08-18 15:48:30:580,-0.8595,-0.3412,10.0607,-0.6506,-0.5783,9.7679,0.0019,-0.0163,0.0029
20874,48.246315,-2.132651,144.42,31.53,5.36,149.8,Dec-20,2088143,2019-08-18 15:48:30:680,-1.1282,-0.5082,10.1978,-0.6483,-0.5743,9.7683,0.0002,-0.0094,0.0025
20875,48.246315,-2.132651,144.42,31.53,5.36,149.8,Dec-20,2088243,2019-08-18 15:48:30:780,-0.9906,-0.4369,10.0086,-0.6508,-0.5651,9.7687,0.0034,0.0049,0.0015
20876,48.246315,-2.132651,144.42,31.53,5.36,149.8,Dec-20,2088343,2019-08-18 15:48:30:880,-1.1198,-0.3029,9.6255,-0.6646,-0.5507,9.7686,-0.0003,0.0073,-0.0003
20877,48.246315,-2.132651,144.42,31.53,5.36,149.8,Dec-20,2088443,2019-08-18 15:48:30:980,-0.7056,-0.5956,9.4777,-0.6661,-0.5494,9.7686,-0.008,-0.0028,-0.005
20878,48.246315,-2.132651,144.42,31.53,5.36,149.8,Dec-20,2088544,2019-08-18 15:48:31:081,-0.723,-0.2376,10.1289,-0.6622,-0.5511,9.7687,-0.0011,-0.0183,-0.0089
20879,48.246315,-2.132651,144.42,31.53,5.36,149.8,Dec-20,2088643,2019-08-18 15:48:31:180,-0.6877,-0.2035,9.7961,-0.6506,-0.5467,9.7698,-0.0031,-0.0212,-0.0099
20880,48.246315,-2.132651,144.42,31.53,5.36,149.8,Dec-20,2088743,2019-08-18 15:48:31:280,-0.6314,-0.3412,10.087,-0.6234,-0.5497,9.7714,-0.0138,-0.0193,-0.0104
20881,48.246315,-2.132651,144.42,31.53,5.36,149.8,Dec-20,2088843,2019-08-18 15:48:31:380,-0.8696,-0.4292,9.6962,-0.6152,-0.5558,9.7715,-0.0161,-0.0065,-0.0092
20882,48.246315,-2.132651,144.42,31.53,5.36,149.8,Dec-20,2088944,2019-08-18 15:48:31:481,-0.5195,-0.343,9.7045,-0.6109,-0.5727,9.7708,-0.0055,0.005,-0.0065
20883,48.246315,-2.132651,144.42,31.53,5.36,149.8,Dec-20,2089043,2019-08-18 15:48:31:580,-0.5363,-0.5525,9.4268,-0.6176,-0.5712,9.7705,0.0003,0.01,-0.0061
20884,48.246315,-2.132651,144.42,31.53,5.36,149.8,13 / 22,2089143,2019-08-18 15:48:31:680,-0.4512,-0.2011,9.9039,-0.6276,-0.5621,9.7704,-0.0015,-0.0058,-0.0064
20885,48.246315,-2.132651,144.42,31.53,5.36,149.8,13 / 22,2089243,2019-08-18 15:48:31:780,-0.6063,-0.2598,9.8662,-0.621,-0.561,9.7709,-0.0043,-0.0124,-0.0099
20886,48.246315,-2.132651,144.42,31.53,5.36,149.8,13 / 22,2089343,2019-08-18 15:48:31:880,-0.4536,-0.3861,9.9853,-0.6059,-0.5587,9.772,-0.0031,-0.0013,-0.0093
20887,48.246315,-2.132651,144.42,31.53,5.36,149.8,13 / 22,2089443,2019-08-18 15:48:31:980,-0.5919,-0.3406,10.0308,-0.6048,-0.5586,9.772,-0.0109,-0.0045,-0.0097
20888,48.246315,-2.132651,144.42,31.53,5.36,149.8,13 / 22,2089543,2019-08-18 15:48:32:080,-0.5967,-0.3681,10.0583,-0.599,-0.564,9.7721,-0.0017,-0.0095,-0.0081
20889,48.246315,-2.132651,144.42,31.53,5.36,149.8,13 / 22,2089644,2019-08-18 15:48:32:181,-0.6446,-0.1694,9.8871,-0.5915,-0.5548,9.7731,0.0027,-0.0115,-0.0049
20890,48.246315,-2.132651,144.42,31.53,5.36,149.8,13 / 22,2089744,2019-08-18 15:48:32:281,-0.7727,-0.0652,10.1828,-0.5765,-0.5447,9.7745,0.0003,-0.0091,-0.0038
20891,48.246315,-2.132651,144.42,31.53,5.36,149.8,13 / 22,2089843,2019-08-18 15:48:32:380,-0.5985,-0.3112,9.9601,-0.5688,-0.5385,9.7753,-0.0054,-0.0121,-0.0044
20892,48.246315,-2.132651,144.42,31.53,5.36,149.8,13 / 22,2089943,2019-08-18 15:48:32:480,-0.7673,0.0216,10.366,-0.5485,-0.5321,9.7768,0.001,-0.0123,-0.0062
20893,48.246315,-2.132651,144.42,31.53,5.36,149.8,13 / 22,2090043,2019-08-18 15:48:32:580,-0.3573,-0.3729,9.8703,-0.5433,-0.5248,9.7775,-0.0107,0.0021,-0.0033
20894,48.246315,-2.132651,144.42,31.53,5.36,149.8,13 / 22,2090144,2019-08-18 15:48:32:681,-0.325,-0.0862,9.6752,-0.54,-0.5282,9.7775,-0.0119,-0.0008,-0.0031
20895,48.246315,-2.132651,144.42,31.53,5.36,149.8,13 / 22,2090243,2019-08-18 15:48:32:780,-0.5015,-0.2544,9.3017,-0.5411,-0.5275,9.7775,-0.0074,0.008,-0.0027
20896,48.246315,-2.132651,144.42,31.53,5.36,149.8,13 / 22,2090343,2019-08-18 15:48:32:880,-0.4052,-0.2933,9.6842,-0.5476,-0.5201,9.7775,0.0019,0.0026,-0.002
20897,48.246315,-2.132651,144.42,31.53,5.36,149.8,13 / 22,2090443,2019-08-18 15:48:32:980,-0.6817,-0.2538,9.4107,-0.5467,-0.5135,9.7779,0.0019,0.0026,-0.002
20898,48.246315,-2.132651,144.42,31.53,5.36,149.8,13 / 22,2090543,2019-08-18 15:48:33:080,-0.3752,-0.2107,9.4532,-0.5478,-0.4975,9.7787,-0.0019,0.0028,-0.0013
20899,48.246315,-2.132651,144.42,31.53,5.36,149.8,13 / 22,2090644,2019-08-18 15:48:33:181,-0.3375,-0.0251,10.1313,-0.5468,-0.4954,9.7789,-0.005,0.002,-0.0035
20900,48.246315,-2.132651,144.42,31.53,5.36,149.8,13 / 22,2090744,2019-08-18 15:48:33:281,-0.5231,-0.3543,10.6491,-0.5449,-0.4846,9.7795,0.0017,-0.0098,-0.003
20901,48.246315,-2.132651,144.42,31.53,5.36,149.8,13 / 22,2090843,2019-08-18 15:48:33:380,-0.3698,0.2053,10.0116,-0.5391,-0.4768,9.7802,0.0069,-0.012,-0.0017
20902,48.246315,-2.132651,144.42,31.53,5.36,149.8,13 / 22,2090943,2019-08-18 15:48:33:480,-0.5835,-0.1191,9.7273,-0.5233,-0.4586,9.7819,0.0063,-0.0031,-0.0037
20903,48.246315,-2.132651,144.42,31.53,5.36,149.8,13 / 22,2091043,2019-08-18 15:48:33:580,-0.5069,-0.1233,9.8332,-0.5152,-0.4465,9.7829,0.0,-0.0155,-0.005
20904,48.246315,-2.132651,144.42,31.53,5.36,149.8,13 / 22,2091143,2019-08-18 15:48:33:680,-0.477,-0.1472,9.9374,-0.4962,-0.4354,9.7844,-0.0003,-0.0106,-0.0036
20905,48.246315,-2.132651,144.42,31.53,5.36,149.8,13 / 22,2091243,2019-08-18 15:48:33:780,-0.3214,-0.0186,10.0367,-0.4902,-0.429,9.785,-0.0037,-0.0033,-0.004
20906,48.246315,-2.132651,144.42,31.53,5.36,149.8,13 / 22,2091343,2019-08-18 15:48:33:880,-0.3692,-0.1012,9.5962,-0.4922,-0.4271,9.785,-0.0061,0.0087,-0.0044
20907,48.246315,-2.132651,144.42,31.53,5.36,149.8,13 / 22,2091443,2019-08-18 15:48:33:980,-0.4118,0.1748,9.5507,-0.4999,-0.4258,9.7846,-0.002,0.0153,-0.0029
20908,48.246315,-2.132651,144.42,31.53,5.36,149.8,13 / 22,2091543,2019-08-18 15:48:34:080,-0.7146,-0.097,10.0703,-0.509,-0.4178,9.7845,-0.0026,-0.0016,-0.0051
20909,48.246315,-2.132651,144.42,31.53,5.36,149.8,13 / 22,2091644,2019-08-18 15:48:34:181,-0.726,-0.1706,10.1074,-0.5006,-0.4127,9.7852,0.0004,-0.0203,-0.0058
20910,48.246315,-2.132651,144.42,31.53,5.36,149.8,13 / 22,2091743,2019-08-18 15:48:34:280,-0.2938,-0.3017,9.7895,-0.4838,-0.4106,9.7861,-0.0212,-0.0056,-0.005
20911,48.246315,-2.132651,144.42,31.53,5.36,149.8,13 / 22,2091844,2019-08-18 15:48:34:381,-0.4913,-0.0832,8.9169,-0.4866,-0.4288,9.7852,-0.0088,0.0511,-0.0027
20912,48.246315,-2.132651,144.42,31.53,5.36,149.8,13 / 22,2091944,2019-08-18 15:48:34:481,-0.3603,0.155,9.7836,-0.5219,-0.4334,9.7832,0.0174,0.0299,-0.0024
20913,48.246315,-2.132651,144.42,31.53,5.36,149.8,13 / 22,2092043,2019-08-18 15:48:34:580,-1.1815,-0.3927,11.2075,-0.535,-0.4008,9.7838,0.013,-0.0306,-0.0062
20914,48.246315,-2.132651,144.42,31.53,5.36,149.8,Dec-22,2092144,2019-08-18 15:48:34:681,-0.8415,-0.1131,10.904,-0.5137,-0.386,9.7856,-0.017,-0.0544,-0.0096
20915,48.246315,-2.132651,144.42,31.53,5.36,149.8,Dec-22,2092244,2019-08-18 15:48:34:781,-0.5159,-0.6021,9.7446,-0.4694,-0.4021,9.7872,-0.0251,0.0102,-0.0088
20916,48.246315,-2.132651,144.42,31.53,5.36,149.8,Dec-22,2092343,2019-08-18 15:48:34:880,0.0019,-0.1095,8.605,-0.4778,-0.4223,9.7859,0.0068,0.0194,-0.001
20917,48.246315,-2.132651,144.42,31.53,5.36,149.8,Dec-22,2092443,2019-08-18 15:48:34:980,-0.6817,-0.3723,8.9665,-0.5062,-0.4102,9.785,0.0153,0.0237,-0.0013
20918,48.246315,-2.132651,144.42,31.53,5.36,149.8,Dec-22,2092543,2019-08-18 15:48:35:080,-0.7392,-0.2586,9.7021,-0.5182,-0.3961,9.7849,0.0253,-0.0046,-0.0023
20919,48.246315,-2.132651,144.42,31.53,5.36,149.8,Dec-22,2092643,2019-08-18 15:48:35:180,-0.7481,-0.0964,10.1888,-0.5148,-0.3583,9.7866,-0.0139,-0.0242,-0.0057
20920,48.246315,-2.132651,144.42,31.53,5.36,149.8,Dec-22,2092744,2019-08-18 15:48:35:281,-0.5548,-0.07,10.339,-0.5022,-0.3683,9.7869,-0.0356,-0.0174,-0.0084
20921,48.246315,-2.132651,144.42,31.53,5.36,149.8,Dec-22,2092843,2019-08-18 15:48:35:380,-0.8625,-0.3166,10.2349,-0.4952,-0.3949,9.7862,-0.0057,-0.0044,-0.0049
20922,48.246315,-2.132651,144.42,31.53,5.36,149.8,Dec-22,2092943,2019-08-18 15:48:35:480,-0.538,0.0467,9.8033,-0.4931,-0.3925,9.7864,0.0057,-0.0175,-0.0016
20923,48.246315,-2.132651,144.42,31.53,5.36,149.8,Dec-22,2093043,2019-08-18 15:48:35:580,-0.307,-0.2382,9.7357,-0.4745,-0.3805,9.7878,-0.0002,-0.0129,-0.0025
20924,48.246315,-2.132651,144.42,31.53,5.36,149.8,13 / 22,2093143,2019-08-18 15:48:35:680,-0.6578,-0.076,9.8284,-0.4713,-0.3788,9.788,-0.0148,-0.01,-0.0032
20925,48.246315,-2.132651,144.42,31.53,5.36,149.8,13 / 22,2093243,2019-08-18 15:48:35:780,-0.7422,-0.2532,9.9422,-0.4635,-0.3902,9.7879,-0.021,-0.0201,-0.0033
20926,48.246315,-2.132651,144.42,31.53,5.36,149.8,13 / 22,2093344,2019-08-18 15:48:35:881,-0.6482,-0.0186,9.7279,-0.4589,-0.3978,9.7878,-0.008,-0.0035,-0.0013
20927,48.246315,-2.132651,144.42,31.53,5.36,149.8,13 / 22,2093443,2019-08-18 15:48:35:980,-0.5955,0.1048,9.9805,-0.4651,-0.3967,9.7876,-0.011,-0.0044,-0.0008
20928,48.246315,-2.132651,144.42,31.53,5.36,149.8,13 / 22,2093543,2019-08-18 15:48:36:080,-0.9965,-0.0353,9.4561,-0.4664,-0.4018,9.7873,-0.0126,-0.0112,-0.0016
20929,48.246315,-2.132651,144.42,31.53,5.36,149.8,13 / 22,2093643,2019-08-18 15:48:36:180,-0.5781,-0.1885,9.9781,-0.466,-0.4075,9.7871,-0.016,-0.003,-0.0008
20930,48.246315,-2.132651,144.42,31.53,5.36,149.8,13 / 22,2093743,2019-08-18 15:48:36:280,-1.051,0.1143,9.3801,-0.4719,-0.4149,9.7865,-0.0102,0.0015,-0.0012
20931,48.246315,-2.132651,144.42,31.53,5.36,149.8,13 / 22,2093844,2019-08-18 15:48:36:381,-0.5249,-0.2233,10.1145,-0.4786,-0.4199,9.786,-0.0114,-0.0044,-0.0001
20932,48.246315,-2.132651,144.42,31.53,5.36,149.8,13 / 22,2093944,2019-08-18 15:48:36:481,-0.723,-0.0443,9.6752,-0.4755,-0.4205,9.7861,-0.0066,-0.0116,0.0011
20933,48.246315,-2.132651,144.42,31.53,5.36,149.8,13 / 22,2094044,2019-08-18 15:48:36:581,-0.6434,-0.1077,9.8787,-0.4771,-0.4155,9.7862,-0.0043,0.0012,0.0027
20934,48.244225,-2.130997,147.86,28.51,4.288,152.9,Dec-20,2094143,2019-08-18 15:48:36:680,-0.492,-0.1526,9.7776,-0.4797,-0.4135,9.7862,-0.0083,-0.0018,0.0011
20935,48.244225,-2.130997,147.86,28.51,4.288,152.9,Dec-20,2094243,2019-08-18 15:48:36:780,-0.4572,-0.0305,10.2307,-0.4828,-0.4113,9.7861,-0.009,-0.0078,0.0016
20936,48.244225,-2.130997,147.86,28.51,4.288,152.9,Dec-20,2094344,2019-08-18 15:48:36:881,-0.5811,0.1089,9.9248,-0.4811,-0.4086,9.7863,-0.0029,-0.0073,0.0011
20937,48.244225,-2.130997,147.86,28.51,4.288,152.9,Dec-20,2094444,2019-08-18 15:48:36:981,-0.3591,0.2741,9.7949,-0.4792,-0.4008,9.7867,-0.0037,-0.0058,0.0013
20938,48.244225,-2.130997,147.86,28.51,4.288,152.9,Dec-20,2094543,2019-08-18 15:48:37:080,-0.6572,0.0772,9.9075,-0.475,-0.3973,9.7871,-0.005,-0.0108,0.0011
20939,48.244225,-2.130997,147.86,28.51,4.288,152.9,Dec-20,2094643,2019-08-18 15:48:37:180,-0.6051,0.0413,10.0266,-0.4747,-0.3934,9.7873,-0.0107,-0.0001,0.0011
20940,48.244225,-2.130997,147.86,28.51,4.288,152.9,Dec-20,2094743,2019-08-18 15:48:37:280,-0.7164,0.0724,9.856,-0.4765,-0.3935,9.7872,0.0004,0.0006,0.002
20941,48.244225,-2.130997,147.86,28.51,4.288,152.9,Dec-20,2094843,2019-08-18 15:48:37:380,-0.4333,0.1975,9.9218,-0.4763,-0.3823,9.7876,-0.0006,-0.0035,0.0012
20942,48.244225,-2.130997,147.86,28.51,4.288,152.9,Dec-20,2094943,2019-08-18 15:48:37:480,-0.653,-0.2155,9.7614,-0.4759,-0.3774,9.7878,-0.0023,-0.0108,0.0011
20943,48.244225,-2.130997,147.86,28.51,4.288,152.9,Dec-20,2095043,2019-08-18 15:48:37:580,-0.5291,0.0455,10.2618,-0.4657,-0.3676,9.7887,0.0003,-0.0084,0.0014
20944,48.244225,-2.130997,147.86,28.51,4.288,152.9,14 / 21,2095143,2019-08-18 15:48:37:680,-0.407,-0.085,9.771,-0.467,-0.3594,9.7889,-0.0034,-0.0038,0.0006
20945,48.244225,-2.130997,147.86,28.51,4.288,152.9,14 / 21,2095244,2019-08-18 15:48:37:781,-0.4824,0.158,10.3408,-0.4602,-0.3547,9.7894,-0.0063,-0.0094,0.0016
20946,48.244225,-2.130997,147.86,28.51,4.288,152.9,14 / 21,2095343,2019-08-18 15:48:37:880,-0.7529,-0.0335,9.6782,-0.4577,-0.3508,9.7897,-0.0054,-0.0057,0.0015
20947,48.244225,-2.130997,147.86,28.51,4.288,152.9,14 / 21,2095443,2019-08-18 15:48:37:980,-0.5267,0.0006,9.9296,-0.4587,-0.3466,9.7898,-0.0003,-0.0026,0.0008
20948,48.244225,-2.130997,147.86,28.51,4.288,152.9,14 / 21,2095543,2019-08-18 15:48:38:080,-0.6613,-0.1628,9.8015,-0.4608,-0.3347,9.7901,0.0007,0.0033,0.0011
20949,48.244225,-2.130997,147.86,28.51,4.288,152.9,14 / 21,2095643,2019-08-18 15:48:38:180,-0.7086,-0.2484,9.8967,-0.4632,-0.3297,9.7902,-0.0027,-0.0093,0.0022
20950,48.244225,-2.130997,147.86,28.51,4.288,152.9,14 / 21,2095743,2019-08-18 15:48:38:280,-0.4393,-0.0557,9.8823,-0.4566,-0.3207,9.7908,-0.0027,-0.0031,0.0007
20951,48.244225,-2.130997,147.86,28.51,4.288,152.9,14 / 21,2095843,2019-08-18 15:48:38:380,-0.5039,-0.0383,10.0547,-0.4538,-0.3177,9.791,-0.0062,-0.0131,0.0015
20952,48.244225,-2.130997,147.86,28.51,4.288,152.9,14 / 21,2095943,2019-08-18 15:48:38:480,-0.4991,0.076,9.868,-0.4445,-0.3134,9.7916,-0.0003,-0.0022,0.002
20953,48.244225,-2.130997,147.86,28.51,4.288,152.9,14 / 21,2096043,2019-08-18 15:48:38:580,-0.6033,-0.085,9.774,-0.4452,-0.3072,9.7917,-0.0027,-0.0005,0.0033
20954,48.244225,-2.130997,147.86,28.51,4.288,152.9,13 / 21,2096144,2019-08-18 15:48:38:681,-0.7781,0.076,9.5597,-0.4474,-0.3053,9.7917,-0.0063,-0.0008,0.002
20955,48.244225,-2.130997,147.86,28.51,4.288,152.9,13 / 21,2096243,2019-08-18 15:48:38:780,-0.5674,-0.1718,9.8494,-0.4495,-0.3039,9.7916,-0.0076,-0.0031,0.0002
20956,48.244225,-2.130997,147.86,28.51,4.288,152.9,13 / 21,2096344,2019-08-18 15:48:38:881,-0.4315,0.0539,9.5004,-0.4559,-0.3036,9.7913,-0.0068,0.0034,0.0033
20957,48.244225,-2.130997,147.86,28.51,4.288,152.9,13 / 21,2096444,2019-08-18 15:48:38:981,-0.6955,-0.003,9.5423,-0.4624,-0.3037,9.791,-0.0112,-0.0007,0.0014
20958,48.244225,-2.130997,147.86,28.51,4.288,152.9,13 / 21,2096543,2019-08-18 15:48:39:080,-0.6637,-0.1634,10.2001,-0.4685,-0.3092,9.7906,-0.0096,-0.0085,0.0019
20959,48.244225,-2.130997,147.86,28.51,4.288,152.9,13 / 21,2096644,2019-08-18 15:48:39:181,-0.4064,0.1107,10.3139,-0.4582,-0.3087,9.7911,-0.021,-0.0295,-0.0001
20960,48.244225,-2.130997,147.86,28.51,4.288,152.9,13 / 21,2096743,2019-08-18 15:48:39:280,-0.3681,0.0569,9.5633,-0.4319,-0.3264,9.7917,-0.018,-0.0012,0.0002
20961,48.244225,-2.130997,147.86,28.51,4.288,152.9,13 / 21,2096844,2019-08-18 15:48:39:381,-0.3513,-0.0587,9.9021,-0.4335,-0.3346,9.7914,-0.0116,0.0024,0.003
20962,48.244225,-2.130997,147.86,28.51,4.288,152.9,13 / 21,2096943,2019-08-18 15:48:39:480,-0.5763,0.2149,9.8955,-0.4432,-0.3328,9.791,-0.0021,0.001,0.0029
20963,48.244225,-2.130997,147.86,28.51,4.288,152.9,13 / 21,2097043,2019-08-18 15:48:39:580,-0.4596,-0.0156,9.7482,-0.4426,-0.3308,9.7911,0.0005,-0.0059,0.0032
20964,48.244225,-2.130997,147.86,28.51,4.288,152.9,13 / 21,2097143,2019-08-18 15:48:39:680,-0.5692,-0.012,9.7405,-0.4334,-0.3188,9.7919,-0.0008,-0.0146,0.002
20965,48.244225,-2.130997,147.86,28.51,4.288,152.9,13 / 21,2097243,2019-08-18 15:48:39:780,-0.4626,-0.0126,9.7578,-0.4216,-0.3128,9.7926,-0.007,-0.0121,-0.0003
20966,48.244225,-2.130997,147.86,28.51,4.288,152.9,13 / 21,2097343,2019-08-18 15:48:39:880,-0.2699,0.158,9.5441,-0.4166,-0.3139,9.7928,-0.012,0.0014,-0.0007
20967,48.244225,-2.130997,147.86,28.51,4.288,152.9,13 / 21,2097443,2019-08-18 15:48:39:980,-0.2807,-0.003,9.8266,-0.4145,-0.3174,9.7927,-0.0096,-0.0013,-0.0021
20968,48.244225,-2.130997,147.86,28.51,4.288,152.9,13 / 21,2097543,2019-08-18 15:48:40:080,-0.559,-0.2813,9.8165,-0.4119,-0.3217,9.7927,-0.0135,-0.0066,-0.002
20969,48.244225,-2.130997,147.86,28.51,4.288,152.9,13 / 21,2097643,2019-08-18 15:48:40:180,-0.4177,-0.1137,9.847,-0.4063,-0.3275,9.7928,-0.0112,-0.0053,-0.0022
20970,48.244225,-2.130997,147.86,28.51,4.288,152.9,13 / 21,2097744,2019-08-18 15:48:40:281,-0.3393,-0.2346,9.5334,-0.3984,-0.3327,9.7929,-0.0067,-0.0081,-0.0023
20971,48.244225,-2.130997,147.86,28.51,4.288,152.9,13 / 21,2097843,2019-08-18 15:48:40:380,-0.3758,-0.067,9.3125,-0.3941,-0.3301,9.7932,-0.0048,-0.006,-0.0021
20972,48.244225,-2.130997,147.86,28.51,4.288,152.9,13 / 21,2097943,2019-08-18 15:48:40:480,-0.3992,0.3711,9.355,-0.3824,-0.3388,9.7933,-0.0088,-0.0027,-0.0014
20973,48.244225,-2.130997,147.86,28.51,4.288,152.9,13 / 21,2098043,2019-08-18 15:48:40:580,-0.4285,-0.3244,10.1146,-0.385,-0.3388,9.7932,0.0062,-0.0048,0.0015
20974,48.244225,-2.130997,147.86,28.51,4.288,152.9,14 / 22,2098143,2019-08-18 15:48:40:680,-0.398,-0.1239,9.4262,-0.3762,-0.3271,9.794,-0.002,-0.0021,-0.0016
20975,48.244225,-2.130997,147.86,28.51,4.288,152.9,14 / 22,2098243,2019-08-18 15:48:40:780,-0.058,-0.0952,9.6938,-0.376,-0.3306,9.7939,-0.0197,0.0089,-0.0103
20976,48.244225,-2.130997,147.86,28.51,4.288,152.9,14 / 22,2098343,2019-08-18 15:48:40:880,-0.1496,-0.1879,10.0703,-0.3787,-0.3485,9.7931,-0.0083,0.0015,-0.013
20977,48.244225,-2.130997,147.86,28.51,4.288,152.9,14 / 22,2098443,2019-08-18 15:48:40:980,-0.2352,-0.3484,10.2163,-0.3759,-0.3469,9.7933,0.0052,-0.0146,-0.0147
20978,48.244225,-2.130997,147.86,28.51,4.288,152.9,14 / 22,2098543,2019-08-18 15:48:41:080,-0.0646,-0.5884,10.0637,-0.3498,-0.3423,9.7944,0.0038,-0.0133,-0.0145
20979,48.244225,-2.130997,147.86,28.51,4.288,152.9,14 / 22,2098643,2019-08-18 15:48:41:180,-0.0143,-0.4429,9.947,-0.3449,-0.3399,9.7947,0.0007,0.0061,-0.0137
20980,48.244225,-2.130997,147.86,28.51,4.288,152.9,14 / 22,2098743,2019-08-18 15:48:41:280,-0.2711,-0.5483,9.7363,-0.3449,-0.3401,9.7947,0.0046,0.0107,-0.0125
20981,48.244225,-2.130997,147.86,28.51,4.288,152.9,14 / 22,2098843,2019-08-18 15:48:41:380,-0.0065,-0.2017,10.0912,-0.3448,-0.3325,9.7949,0.0109,-0.0041,-0.0122
20982,48.244225,-2.130997,147.86,28.51,4.288,152.9,14 / 22,2098943,2019-08-18 15:48:41:480,-0.1837,-0.3801,9.9649,-0.3413,-0.326,9.7953,0.01,-0.0085,-0.0131
20983,48.244225,-2.130997,147.86,28.51,4.288,152.9,14 / 22,2099043,2019-08-18 15:48:41:580,-0.2861,-0.3364,9.6459,-0.3254,-0.3113,9.7963,0.0059,-0.0006,-0.013
20984,48.244225,-2.130997,147.86,28.51,4.288,152.9,13 / 21,2099143,2019-08-18 15:48:41:680,-0.3728,-0.3729,10.3516,-0.3227,-0.3081,9.7965,-0.0016,0.0004,-0.0102
20985,48.244225,-2.130997,147.86,28.51,4.288,152.9,13 / 21,2099244,2019-08-18 15:48:41:781,-0.4243,-0.0239,9.6219,-0.3225,-0.3055,9.7966,0.0003,-0.0023,-0.0077
20986,48.244225,-2.130997,147.86,28.51,4.288,152.9,13 / 21,2099343,2019-08-18 15:48:41:880,-0.4602,-0.2394,9.4759,-0.3183,-0.3035,9.7968,-0.0079,-0.0003,-0.0032
20987,48.244225,-2.130997,147.86,28.51,4.288,152.9,13 / 21,2099443,2019-08-18 15:48:41:980,-0.3303,-0.0616,9.437,-0.3179,-0.3035,9.7968,-0.0048,0.0062,-0.0048
20988,48.244225,-2.130997,147.86,28.51,4.288,152.9,13 / 21,2099543,2019-08-18 15:48:42:080,-0.4093,0.021,9.9218,-0.3217,-0.3045,9.7966,-0.0057,-0.0047,-0.0057
20989,48.244225,-2.130997,147.86,28.51,4.288,152.9,13 / 21,2099643,2019-08-18 15:48:42:180,-0.1903,0.1287,10.0822,-0.3184,-0.3038,9.7968,-0.0082,-0.0141,-0.0045
20990,48.244225,-2.130997,147.86,28.51,4.288,152.9,13 / 21,2099743,2019-08-18 15:48:42:280,-0.3076,0.1682,9.9751,-0.309,-0.3058,9.797,-0.0152,-0.0049,-0.0054
20991,48.244225,-2.130997,147.86,28.51,4.288,152.9,13 / 21,2099843,2019-08-18 15:48:42:380,-0.4381,-0.0605,9.6956,-0.3042,-0.3147,9.7969,-0.0138,-0.0008,-0.0053
20992,48.244225,-2.130997,147.86,28.51,4.288,152.9,13 / 21,2099943,2019-08-18 15:48:42:480,-0.3405,-0.0383,9.9308,-0.3018,-0.3174,9.7969,-0.0099,-0.0062,-0.0039
20993,48.244225,-2.130997,147.86,28.51,4.288,152.9,13 / 21,2100043,2019-08-18 15:48:42:580,-0.2669,-0.0335,10.4635,-0.2876,-0.3134,9.7974,-0.0015,-0.0155,-0.0034
20994,48.244225,-2.130997,147.86,28.51,4.288,152.9,14 / 22,2100143,2019-08-18 15:48:42:680,-0.0442,0.1245,10.2247,-0.276,-0.3081,9.7979,0.0002,0.0082,-0.0033
20995,48.244225,-2.130997,147.86,28.51,4.288,152.9,14 / 22,2100243,2019-08-18 15:48:42:780,-0.3561,-0.0647,9.7961,-0.2878,-0.2991,9.7979,0.0007,0.0112,-0.002
20996,48.244225,-2.130997,147.86,28.51,4.288,152.9,14 / 22,2100343,2019-08-18 15:48:42:880,-0.4554,0.1401,9.9428,-0.2886,-0.2935,9.798,0.0067,-0.0107,-0.0013
20997,48.244225,-2.130997,147.86,28.51,4.288,152.9,14 / 22,2100443,2019-08-18 15:48:42:980,-0.4399,-0.3855,9.8979,-0.2737,-0.2707,9.7991,0.005,-0.0146,-0.0009
20998,48.244225,-2.130997,147.86,28.51,4.288,152.9,14 / 22,2100544,2019-08-18 15:48:43:081,-0.3621,0.0467,10.0391,-0.2672,-0.2655,9.7994,0.005,-0.0146,-0.0009
20999,48.244225,-2.130997,147.86,28.51,4.288,152.9,14 / 22,2100643,2019-08-18 15:48:43:180,-0.5608,0.0539,9.4466,-0.2894,-0.2635,9.7988,-0.0093,0.0134,-0.0015
21000,48.244225,-2.130997,147.86,28.51,4.288,152.9,14 / 22,2100743,2019-08-18 15:48:43:280,-0.4674,-0.1353,9.9715,-0.3029,-0.2707,9.7982,-0.0092,0.0121,-0.0036
21001,48.244225,-2.130997,147.86,28.51,4.288,152.9,14 / 22,2100843,2019-08-18 15:48:43:380,-0.8235,-0.0934,9.1688,-0.322,-0.2762,9.7975,-0.0072,0.0036,0.0
21002,48.244225,-2.130997,147.86,28.51,4.288,152.9,14 / 22,2100943,2019-08-18 15:48:43:480,-0.4632,0.0216,9.8769,-0.3286,-0.2789,9.7972,-0.0034,-0.0002,0.0009
21003,48.244225,-2.130997,147.86,28.51,4.288,152.9,14 / 22,2101043,2019-08-18 15:48:43:580,-0.5051,-0.064,10.0673,-0.3422,-0.2768,9.7968,-0.002,0.0061,0.0013
21004,48.244225,-2.130997,147.86,28.51,4.288,152.9,13 / 20,2101143,2019-08-18 15:48:43:680,-0.5291,0.1987,10.1187,-0.3508,-0.2749,9.7965,-0.0009,0.007,0.0019
21005,48.244225,-2.130997,147.86,28.51,4.288,152.9,13 / 20,2101243,2019-08-18 15:48:43:780,-0.7176,-0.1939,10.0278,-0.3719,-0.2704,9.7959,0.0016,0.0085,0.0011
21006,48.244225,-2.130997,147.86,28.51,4.288,152.9,13 / 20,2101343,2019-08-18 15:48:43:880,-0.6045,0.1125,10.166,-0.3794,-0.265,9.7957,0.0092,-0.0104,0.0008
21007,48.244225,-2.130997,147.86,28.51,4.288,152.9,13 / 20,2101443,2019-08-18 15:48:43:980,-0.468,0.0395,9.9541,-0.3784,-0.2501,9.7962,0.0066,-0.0099,-0.0025
21008,48.244225,-2.130997,147.86,28.51,4.288,152.9,13 / 20,2101543,2019-08-18 15:48:44:080,-0.3573,0.0652,9.9787,-0.373,-0.2417,9.7966,-0.0074,0.0019,-0.0033
21009,48.244225,-2.130997,147.86,28.51,4.288,152.9,13 / 20,2101643,2019-08-18 15:48:44:180,-0.7056,-0.0599,9.8751,-0.3755,-0.247,9.7963,-0.0085,-0.0022,-0.0038
21010,48.244225,-2.130997,147.86,28.51,4.288,152.9,13 / 20,2101743,2019-08-18 15:48:44:280,-0.3393,-0.1257,9.5381,-0.3765,-0.2485,9.7963,-0.0106,-0.0014,0.0
