,GPS LATITUDE (degrees),GPS LONGITUDE (degrees), GPS ALTITUDE (m),GPS SPEED (Kmh),GPS ACCURACY (m),GPS ORIENTATION (Â°), SATELLITES IN RANGE, TIME SINCE START (ms), DATE (YYYY-MO-DD HH-MI-SS_SSS),ACCELEROMETER X (m/s²) , ACCELEROMETER Y (m/s²), ACCELEROMETER Z (m/s²), GRAVITY X (m/s²), GRAVITY Y (m/s²), GRAVITY Z (m/s²), GYROSCOPE Yaw (rad/s), GYROSCOPE Pitch (rad/s), GYROSCOPE Roll (rad/s)
9769,47.34705,-2.076071,59.29,28.29,3.216,69.9,Dec-21,976910,2019-08-09 20:30:25:648,-1.2807,0.1516,9.3472,-0.5399,-0.115,9.7911,-0.0134,-0.0268,0.0015
9770,47.34705,-2.076071,59.29,28.29,3.216,69.9,Dec-21,977010,2019-08-09 20:30:25:748,1.4002,-0.0891,10.3983,-0.556,-0.1297,9.79,-0.0129,0.0413,0.0125
9771,47.34705,-2.076071,59.29,28.29,3.216,69.9,Dec-21,977110,2019-08-09 20:30:25:848,-0.2836,-0.5482,9.7183,-0.5642,-0.14,9.7894,-0.0019,0.0004,0.0349
9772,47.34705,-2.076071,59.29,28.29,3.216,69.9,Dec-21,977211,2019-08-09 20:30:25:949,-0.9126,-0.1118,9.677,-0.59,-0.1498,9.7877,0.0015,-0.0473,0.0538
9773,47.34705,-2.076071,59.29,28.29,3.216,69.9,Dec-21,977310,2019-08-09 20:30:26:048,-0.4356,0.1935,10.0451,-0.5521,-0.1506,9.7899,-0.0126,0.0324,-0.0277
9774,47.34705,-2.076071,59.29,28.29,3.216,69.9,Dec-21,977410,2019-08-09 20:30:26:148,0.1127,-0.2279,9.4047,-0.5486,-0.1617,9.79,-0.0012,0.0331,-0.0068
9775,47.34705,-2.076071,59.29,28.29,3.216,69.9,Dec-21,977510,2019-08-09 20:30:26:248,0.7035,-0.1328,9.6483,-0.5488,-0.1572,9.79,0.0023,-0.0467,0.0015
9776,47.34785,-2.072885,59.88,28.44,3.216,69.9,Dec-21,977611,2019-08-09 20:30:26:349,-2.3025,-0.6864,9.4765,-0.538,-0.1593,9.7906,0.0056,-0.0115,0.0006
9777,47.34785,-2.072885,59.88,28.44,3.216,69.9,Dec-21,977711,2019-08-09 20:30:26:449,0.2348,-0.0705,10.0529,-0.5761,-0.1607,9.7884,-0.0067,0.0259,-0.0226
9778,47.34785,-2.072885,59.88,28.44,3.216,69.9,Dec-21,977810,2019-08-09 20:30:26:548,-1.3981,-0.5769,9.4466,-0.5754,-0.1689,9.7883,0.0042,-0.0159,0.0228
9779,47.34785,-2.072885,59.88,28.44,3.216,69.9,Dec-21,977910,2019-08-09 20:30:26:648,-0.6648,-0.2986,9.4891,-0.5651,-0.1688,9.7889,0.0056,0.0281,0.0011
9780,47.34785,-2.072885,59.88,28.44,3.216,69.9,Dec-21,978010,2019-08-09 20:30:26:748,-0.2626,0.0229,10.351,-0.5918,-0.1638,9.7874,-0.0022,0.0721,-0.0047
9781,47.34785,-2.072885,59.88,28.44,3.216,69.9,Dec-21,978111,2019-08-09 20:30:26:849,-0.687,-0.2585,9.959,-0.5601,-0.1681,9.7892,-0.0021,0.0039,0.007
9782,47.34785,-2.072885,59.88,28.44,3.216,69.9,Dec-21,978211,2019-08-09 20:30:26:949,-0.7642,-0.538,9.2808,-0.5582,-0.1733,9.7892,0.0122,-0.0354,0.0047
9783,47.34785,-2.072885,59.88,28.44,3.216,69.9,Dec-21,978310,2019-08-09 20:30:27:048,0.0965,-0.013,9.2209,-0.566,-0.1678,9.7889,0.0077,-0.0354,0.0092
9784,47.34785,-2.072885,59.88,28.44,3.216,69.9,Dec-21,978410,2019-08-09 20:30:27:148,0.3437,-0.5745,9.3155,-0.5384,-0.1894,9.79,-0.0326,-0.0568,0.0125
9785,47.34785,-2.072885,59.88,28.44,3.216,69.9,Dec-21,978511,2019-08-09 20:30:27:249,-0.6169,-0.0304,9.3861,-0.5655,-0.2093,9.7881,-0.0332,0.009,-0.0269
9786,47.34785,-2.072885,59.88,28.44,3.216,69.9,13 / 20,978611,2019-08-09 20:30:27:349,2.1657,-0.1382,10.1834,-0.5667,-0.2374,9.7874,-0.0203,0.0211,-0.0238
9787,47.34785,-2.072885,59.88,28.44,3.216,69.9,13 / 20,978711,2019-08-09 20:30:27:449,0.4329,-0.0556,10.2205,-0.6032,-0.2323,9.7853,0.0135,-0.0149,0.0029
9788,47.34785,-2.072885,59.88,28.44,3.216,69.9,13 / 20,978811,2019-08-09 20:30:27:549,-1.5519,-0.2237,9.7339,-0.6257,-0.2218,9.7842,0.0103,0.0473,-0.0277
9789,47.34785,-2.072885,59.88,28.44,3.216,69.9,13 / 20,978910,2019-08-09 20:30:27:648,-3.7109,-0.5476,10.4797,-0.5767,-0.2166,9.7873,0.0206,0.234,0.0405
9790,47.34785,-2.072885,59.88,28.44,3.216,69.9,13 / 20,979011,2019-08-09 20:30:27:749,0.6831,-0.6104,10.5431,-0.6029,-0.2014,9.786,0.0085,0.0717,-0.0091
9791,47.34785,-2.072885,59.88,28.44,3.216,69.9,13 / 20,979111,2019-08-09 20:30:27:849,-1.9541,-0.62,9.0198,-0.5807,-0.1907,9.7876,0.0365,-0.0119,-0.018
9792,47.34785,-2.072885,59.88,28.44,3.216,69.9,13 / 20,979211,2019-08-09 20:30:27:949,-1.4848,-0.4368,8.0538,-0.6786,-0.1834,9.7814,-0.0052,0.0602,-0.028
9793,47.34785,-2.072885,59.88,28.44,3.216,69.9,13 / 20,979310,2019-08-09 20:30:28:048,2.289,0.0354,8.2351,-0.6011,-0.1612,9.7869,-0.0098,-0.129,0.0034
9794,47.34785,-2.072885,59.88,28.44,3.216,69.9,13 / 20,979410,2019-08-09 20:30:28:148,-1.9601,-0.1004,10.1768,-0.5385,-0.1688,9.7904,-0.009,0.0956,0.0035
9795,47.34785,-2.072885,59.88,28.44,3.216,69.9,13 / 20,979510,2019-08-09 20:30:28:248,-0.4308,-0.2447,10.205,-0.5526,-0.1955,9.7891,-0.0178,0.1072,0.0087
9796,47.34785,-2.072885,59.88,28.44,3.216,69.9,14 / 21,979611,2019-08-09 20:30:28:349,-1.9505,-0.7984,10.5431,-0.5839,-0.2047,9.7871,0.0034,0.1614,0.045
9797,47.34785,-2.072885,59.88,28.44,3.216,69.9,14 / 21,979710,2019-08-09 20:30:28:448,0.5502,0.2401,10.3947,-0.574,-0.2254,9.7872,0.0051,-0.0708,-0.0146
9798,47.34785,-2.072885,59.88,28.44,3.216,69.9,14 / 21,979811,2019-08-09 20:30:28:549,-0.283,0.1581,9.695,-0.6338,-0.2089,9.7839,0.0214,0.055,-0.0265
9799,47.34785,-2.072885,59.88,28.44,3.216,69.9,14 / 21,979910,2019-08-09 20:30:28:648,-1.4256,-0.2908,9.5495,-0.6157,-0.1642,9.7859,0.037,0.0308,-0.0132
9800,47.34785,-2.072885,59.88,28.44,3.216,69.9,14 / 21,980011,2019-08-09 20:30:28:749,0.6173,0.2994,9.2958,-0.5872,-0.1353,9.7881,0.0342,-0.0314,-0.0152
9801,47.34785,-2.072885,59.88,28.44,3.216,69.9,14 / 21,980111,2019-08-09 20:30:28:849,1.0003,0.145,9.0444,-0.5478,-0.1229,9.7906,-0.0141,-0.0073,-0.0103
9802,47.34785,-2.072885,59.88,28.44,3.216,69.9,14 / 21,980210,2019-08-09 20:30:28:948,0.8926,0.4023,9.7902,-0.5801,-0.1385,9.7885,-0.0513,0.0241,-0.0022
9803,47.34785,-2.072885,59.88,28.44,3.216,69.9,14 / 21,980310,2019-08-09 20:30:29:048,0.2707,-0.5452,10.5054,-0.5747,-0.1896,9.788,-0.0208,0.0071,0.006
9804,47.34785,-2.072885,59.88,28.44,3.216,69.9,14 / 21,980411,2019-08-09 20:30:29:149,-0.0735,-0.0591,9.8177,-0.6031,-0.1883,9.7863,-0.0161,-0.0293,-0.0467
9805,47.34785,-2.072885,59.88,28.44,3.216,69.9,14 / 21,980511,2019-08-09 20:30:29:249,-0.1567,-0.3967,9.461,-0.5753,-0.2118,9.7875,-0.0142,-0.0249,0.0047
9806,47.34785,-2.072885,59.88,28.44,3.216,69.9,14 / 20,980611,2019-08-09 20:30:29:349,-0.8187,-0.2064,9.5938,-0.5683,-0.2199,9.7877,-0.005,-0.0026,-0.0116
9807,47.34785,-2.072885,59.88,28.44,3.216,69.9,14 / 20,980711,2019-08-09 20:30:29:449,-1.6901,-0.0412,9.7614,-0.5778,-0.2195,9.7872,-0.0019,-0.0028,-0.0196
9808,47.34785,-2.072885,59.88,28.44,3.216,69.9,14 / 20,980810,2019-08-09 20:30:29:548,-0.3853,0.3054,9.8093,-0.5639,-0.2147,9.7881,-0.0208,0.0196,-0.0112
9809,47.34785,-2.072885,59.88,28.44,3.216,69.9,14 / 20,980911,2019-08-09 20:30:29:649,-0.778,-0.4997,8.6816,-0.5475,-0.2381,9.7885,-0.0268,0.0145,-0.0207
9810,47.34785,-2.072885,59.88,28.44,3.216,69.9,14 / 20,981011,2019-08-09 20:30:29:749,-0.7672,-0.4949,9.361,-0.5419,-0.2478,9.7885,-0.0126,-0.0184,0.0056
9811,47.34785,-2.072885,59.88,28.44,3.216,69.9,14 / 20,981111,2019-08-09 20:30:29:849,-2.8489,-0.3758,10.424,-0.5727,-0.2721,9.7861,-0.0357,0.0002,-0.0222
9812,47.34785,-2.072885,59.88,28.44,3.216,69.9,14 / 20,981210,2019-08-09 20:30:29:948,-3.7108,-0.9336,10.0757,-0.566,-0.2849,9.7862,-0.001,-0.007,0.0496
9813,47.34785,-2.072885,59.88,28.44,3.216,69.9,14 / 20,981310,2019-08-09 20:30:30:048,-1.7093,-0.3016,9.3736,-0.5603,-0.2793,9.7866,0.0221,-0.0436,-0.0131
9814,47.34785,-2.072885,59.88,28.44,3.216,69.9,14 / 20,981410,2019-08-09 20:30:30:148,0.5018,0.0085,9.5891,-0.5499,-0.2678,9.7876,0.0087,0.0576,-0.0097
9815,47.34785,-2.072885,59.88,28.44,3.216,69.9,14 / 20,981510,2019-08-09 20:30:30:248,-2.1456,-0.5667,9.8554,-0.5708,-0.2761,9.7861,-0.0046,0.0285,0.0369
9816,47.34785,-2.072885,59.88,28.44,3.216,69.9,14 / 19,981610,2019-08-09 20:30:30:348,-2.6005,-0.4488,10.1828,-0.5736,-0.2749,9.786,0.0157,0.0305,-0.0214
9817,47.34785,-2.072885,59.88,28.44,3.216,69.9,14 / 19,981710,2019-08-09 20:30:30:448,0.6711,0.3359,10.2995,-0.6178,-0.2521,9.7839,0.0016,0.0427,0.015
9818,47.34785,-2.072885,59.88,28.44,3.216,69.9,14 / 19,981810,2019-08-09 20:30:30:548,-0.8827,-0.1142,9.5867,-0.6082,-0.2559,9.7844,-0.0007,-0.038,-0.0178
9819,47.34785,-2.072885,59.88,28.44,3.216,69.9,14 / 19,981911,2019-08-09 20:30:30:649,1.0572,0.2006,9.0695,-0.5771,-0.2267,9.787,0.0173,-0.0489,-0.0239
9820,47.34785,-2.072885,59.88,28.44,3.216,69.9,14 / 19,982010,2019-08-09 20:30:30:748,-1.3801,-0.1555,9.607,-0.5911,-0.215,9.7865,0.0233,0.0038,-0.0092
9821,47.34785,-2.072885,59.88,28.44,3.216,69.9,14 / 19,982110,2019-08-09 20:30:30:848,-1.8637,-0.3955,10.0679,-0.568,-0.2065,9.788,-0.0011,-0.0183,-0.0021
9822,47.34785,-2.072885,59.88,28.44,3.216,69.9,14 / 19,982210,2019-08-09 20:30:30:948,0.254,-0.0077,9.5459,-0.5821,-0.2064,9.7872,-0.0013,-0.0304,0.0006
9823,47.34785,-2.072885,59.88,28.44,3.216,69.9,14 / 19,982311,2019-08-09 20:30:31:049,-1.9368,-0.784,9.3676,-0.5796,-0.1988,9.7875,0.0275,0.0142,0.0167
9824,47.34785,-2.072885,59.88,28.44,3.216,69.9,14 / 19,982411,2019-08-09 20:30:31:149,-2.0283,-0.1992,9.6914,-0.5715,-0.1784,9.7884,0.021,-0.0477,-0.0012
9825,47.34785,-2.072885,59.88,28.44,3.216,69.9,14 / 19,982510,2019-08-09 20:30:31:248,-1.3945,-0.0184,8.9163,-0.5636,-0.1647,9.7891,0.028,0.0607,-0.0171
9826,47.34785,-2.072885,59.88,28.44,3.216,69.9,15 / 20,982610,2019-08-09 20:30:31:348,-3.2973,0.2407,10.5611,-0.5856,-0.141,9.7881,0.0057,-0.1021,0.0317
9827,47.34785,-2.072885,59.88,28.44,3.216,69.9,15 / 20,982710,2019-08-09 20:30:31:448,-1.5094,0.3916,10.5814,-0.5732,-0.1322,9.789,-0.016,0.135,-0.0344
9828,47.34785,-2.072885,59.88,28.44,3.216,69.9,15 / 20,982810,2019-08-09 20:30:31:548,0.3371,0.0025,9.7734,-0.5759,-0.1377,9.7888,0.0003,0.0567,-0.0275
9829,47.34785,-2.072885,59.88,28.44,3.216,69.9,15 / 20,982910,2019-08-09 20:30:31:648,-0.2878,0.0917,9.3873,-0.5651,-0.1371,9.7894,-0.0074,-0.0318,-0.0015
9830,47.34785,-2.072885,59.88,28.44,3.216,69.9,15 / 20,983010,2019-08-09 20:30:31:748,-0.0896,0.1665,10.4516,-0.5851,-0.1588,9.7879,-0.0244,0.0191,0.032
9831,47.34785,-2.072885,59.88,28.44,3.216,69.9,15 / 20,983110,2019-08-09 20:30:31:848,-0.3009,-0.0286,11.2273,-0.5963,-0.171,9.787,0.0141,0.0294,0.0701
9832,47.34785,-2.072885,59.88,28.44,3.216,69.9,15 / 20,983210,2019-08-09 20:30:31:948,-0.7893,-0.5883,10.6994,-0.6586,-0.1782,9.7829,0.0203,0.0404,-0.0179
9833,47.34785,-2.072885,59.88,28.44,3.216,69.9,15 / 20,983310,2019-08-09 20:30:32:048,-0.2093,-0.2656,11.1525,-0.6759,-0.1585,9.782,0.0458,0.0618,0.0071
9834,47.34785,-2.072885,59.88,28.44,3.216,69.9,15 / 20,983410,2019-08-09 20:30:32:148,-4.9726,-0.775,9.5466,-0.6639,-0.0915,9.7837,0.0459,0.058,0.0326
9835,47.34785,-2.072885,59.88,28.44,3.216,69.9,15 / 20,983511,2019-08-09 20:30:32:249,1.2158,-0.7193,8.4835,-0.5563,-0.0878,9.7905,0.0136,0.0327,0.0497
9836,47.34785,-2.072885,59.88,28.44,3.216,69.9,16 / 21,983611,2019-08-09 20:30:32:349,-0.8121,0.1438,9.0072,-0.5618,-0.0847,9.7902,-0.0019,-0.0305,0.0134
9837,47.34785,-2.072885,59.88,28.44,3.216,69.9,16 / 21,983710,2019-08-09 20:30:32:448,-1.7877,-0.0137,7.7036,-0.5544,-0.0993,9.7905,-0.031,-0.1436,0.0436
9838,47.34785,-2.072885,59.88,28.44,3.216,69.9,16 / 21,983810,2019-08-09 20:30:32:548,7.0403,-0.2309,8.1196,-0.4671,-0.1358,9.7946,0.0053,-0.0775,0.0444
9839,47.34785,-2.072885,59.88,28.44,3.216,69.9,16 / 21,983910,2019-08-09 20:30:32:648,-5.5927,-1.1814,10.5797,-0.5546,-0.135,9.79,0.0005,0.0431,-0.0252
9840,47.34785,-2.072885,59.88,28.44,3.216,69.9,16 / 21,984010,2019-08-09 20:30:32:748,-1.2418,-0.6583,10.676,-0.5545,-0.1333,9.7901,0.0139,0.0274,-0.0056
9841,47.34785,-2.072885,59.88,28.44,3.216,69.9,16 / 21,984111,2019-08-09 20:30:32:849,0.1654,-0.8343,10.4396,-0.5633,-0.1333,9.7896,-0.0076,0.0244,0.0336
9842,47.34785,-2.072885,59.88,28.44,3.216,69.9,16 / 21,984211,2019-08-09 20:30:32:949,-0.5086,0.1162,10.7586,-0.5714,-0.1524,9.7888,0.0011,0.0027,0.0441
9843,47.34785,-2.072885,59.88,28.44,3.216,69.9,16 / 21,984311,2019-08-09 20:30:33:049,-0.7923,-0.3536,10.448,-0.6314,-0.1667,9.7849,0.0053,-0.0161,0.0118
9844,47.34785,-2.072885,59.88,28.44,3.216,69.9,16 / 21,984411,2019-08-09 20:30:33:149,1.7904,-0.4434,9.5645,-0.6092,-0.1537,9.7865,0.0085,-0.0913,0.0037
9845,47.34785,-2.072885,59.88,28.44,3.216,69.9,16 / 21,984511,2019-08-09 20:30:33:249,-2.8561,-0.3907,9.1976,-0.5666,-0.1571,9.789,0.0078,0.0621,0.0391
9846,47.34785,-2.072885,59.88,28.44,3.216,69.9,15 / 20,984613,2019-08-09 20:30:33:351,-2.4533,-0.9773,10.5461,-0.6039,-0.1592,9.7867,-0.0004,0.0435,-0.0007
9847,47.34785,-2.072885,59.88,28.44,3.216,69.9,15 / 20,984710,2019-08-09 20:30:33:448,-0.6846,-0.875,9.352,-0.6098,-0.1581,9.7864,0.0212,-0.0031,-0.0309
9848,47.34785,-2.072885,59.88,28.44,3.216,69.9,15 / 20,984810,2019-08-09 20:30:33:548,-1.3508,-0.2417,10.2283,-0.6062,-0.1414,9.7869,0.0292,0.0174,0.0329
9849,47.34785,-2.072885,59.88,28.44,3.216,69.9,15 / 20,984910,2019-08-09 20:30:33:648,0.491,-0.5601,9.4915,-0.5807,-0.1253,9.7886,0.0385,-0.0272,0.0138
9850,47.34785,-2.072885,59.88,28.44,3.216,69.9,15 / 20,985011,2019-08-09 20:30:33:749,-1.3185,-0.1675,8.878,-0.5598,-0.0905,9.7902,0.0274,-0.0516,0.0112
9851,47.34785,-2.072885,59.88,28.44,3.216,69.9,15 / 20,985111,2019-08-09 20:30:33:849,0.3282,-1.121,7.2601,-0.4619,-0.0627,9.7956,0.0446,-0.1437,0.11
9852,47.34785,-2.072885,59.88,28.44,3.216,69.9,15 / 20,985211,2019-08-09 20:30:33:949,-4.9852,-1.5064,8.5835,-0.5663,-0.0591,9.7901,0.0368,-0.092,0.0188
9853,47.34785,-2.072885,59.88,28.44,3.216,69.9,15 / 20,985311,2019-08-09 20:30:34:049,-1.5202,-0.6331,8.356,-0.5682,-0.0364,9.7901,-0.0245,0.0412,-0.0204
9854,47.34785,-2.072885,59.88,28.44,3.216,69.9,15 / 20,985411,2019-08-09 20:30:34:149,0.1905,-0.7541,9.5436,-0.5559,-0.0545,9.7907,0.0299,-0.0781,0.0701
9855,47.34785,-2.072885,59.88,28.44,3.216,69.9,15 / 20,985511,2019-08-09 20:30:34:249,0.6454,-2.2845,8.4117,-0.4635,-0.0079,9.7957,-0.0138,0.2362,-0.305
9856,47.34785,-2.072885,59.88,28.44,3.216,69.9,17 / 20,985611,2019-08-09 20:30:34:349,0.7202,-0.8414,8.298,-0.5351,-0.0316,9.792,-0.0395,0.2176,-0.0737
9857,47.34785,-2.072885,59.88,28.44,3.216,69.9,17 / 20,985710,2019-08-09 20:30:34:448,-3.381,-0.5045,11.5738,-0.6169,-0.0243,9.7872,0.0115,-0.0932,0.0434
9858,47.34785,-2.072885,59.88,28.44,3.216,69.9,17 / 20,985810,2019-08-09 20:30:34:548,-1.7093,-0.216,10.3528,-0.6014,-0.0062,9.7882,0.0328,-0.0668,-0.014
9859,47.34785,-2.072885,59.88,28.44,3.216,69.9,17 / 20,985911,2019-08-09 20:30:34:649,-3.3032,-0.1304,10.041,-0.5592,0.0174,9.7907,0.046,0.0326,-0.0039
9860,47.34785,-2.072885,59.88,28.44,3.216,69.9,17 / 20,986010,2019-08-09 20:30:34:748,2.4997,-0.2992,9.1545,-0.5795,0.0501,9.7894,0.0535,-0.0104,0.0342
9861,47.34785,-2.072885,59.88,28.44,3.216,69.9,17 / 20,986110,2019-08-09 20:30:34:848,-0.8252,0.0145,8.8678,-0.5362,0.0862,9.7916,0.0106,-0.0023,0.006
9862,47.34785,-2.072885,59.88,28.44,3.216,69.9,17 / 20,986210,2019-08-09 20:30:34:948,-0.9426,-0.3171,9.6746,-0.5783,0.0886,9.7892,-0.0052,-0.0195,0.0054
9863,47.34785,-2.072885,59.88,28.44,3.216,69.9,17 / 20,986310,2019-08-09 20:30:35:048,-0.6223,0.1827,10.02,-0.5702,0.0822,9.7897,-0.0123,0.021,0.0043
9864,47.34785,-2.072885,59.88,28.44,3.216,69.9,17 / 20,986410,2019-08-09 20:30:35:148,-0.3709,-0.2148,9.8739,-0.5707,0.0693,9.7898,-0.0316,-0.0363,0.0302
9865,47.34785,-2.072885,59.88,28.44,3.216,69.9,17 / 20,986511,2019-08-09 20:30:35:249,-0.7768,-0.4003,9.5064,-0.5587,0.027,9.7907,-0.0221,-0.0076,0.0111
9866,47.348656,-2.069697,59.09,28.55,3.216,68.0,17 / 21,986611,2019-08-09 20:30:35:349,-0.0627,0.3563,9.9877,-0.5484,0.0198,9.7913,0.0046,-0.0167,0.0519
9867,47.348656,-2.069697,59.09,28.55,3.216,68.0,17 / 21,986711,2019-08-09 20:30:35:449,-1.7314,-0.1507,10.4785,-0.584,0.0047,9.7892,-0.0059,0.053,-0.0054
9868,47.348656,-2.069697,59.09,28.55,3.216,68.0,17 / 21,986810,2019-08-09 20:30:35:548,0.1522,-0.514,10.0164,-0.5821,0.0032,9.7894,0.0038,-0.0035,0.0259
9869,47.348656,-2.069697,59.09,28.55,3.216,68.0,17 / 21,986910,2019-08-09 20:30:35:648,0.3336,-0.3925,9.8201,-0.5918,0.0166,9.7888,0.0196,0.0048,0.0431
9870,47.348656,-2.069697,59.09,28.55,3.216,68.0,17 / 21,987011,2019-08-09 20:30:35:749,-0.2165,-0.4374,8.7882,-0.5776,0.0163,9.7896,0.0106,-0.018,0.0361
9871,47.348656,-2.069697,59.09,28.55,3.216,68.0,17 / 21,987110,2019-08-09 20:30:35:848,0.4742,-0.1711,9.9625,-0.5876,0.0231,9.789,0.0192,0.0343,-0.003
9872,47.348656,-2.069697,59.09,28.55,3.216,68.0,17 / 21,987210,2019-08-09 20:30:35:948,-0.5625,-0.265,9.9745,-0.5935,0.037,9.7886,0.0172,0.0106,-0.0033
9873,47.348656,-2.069697,59.09,28.55,3.216,68.0,17 / 21,987311,2019-08-09 20:30:36:049,-2.6347,-0.2447,9.9212,-0.6025,0.049,9.788,0.0305,-0.0211,0.059
9874,47.348656,-2.069697,59.09,28.55,3.216,68.0,17 / 21,987410,2019-08-09 20:30:36:148,1.0165,-0.1992,9.6549,-0.5754,0.0612,9.7896,0.0142,-0.0106,-0.0121
9875,47.348656,-2.069697,59.09,28.55,3.216,68.0,17 / 21,987510,2019-08-09 20:30:36:248,-0.8139,0.1935,9.3598,-0.6117,0.069,9.7873,-0.0074,0.094,0.0596
9876,47.348656,-2.069697,59.09,28.55,3.216,68.0,15 / 18,987610,2019-08-09 20:30:36:348,-1.7231,0.0797,9.2287,-0.574,0.0735,9.7896,-0.016,-0.0321,-0.0411
9877,47.348656,-2.069697,59.09,28.55,3.216,68.0,15 / 18,987711,2019-08-09 20:30:36:449,-1.2819,-0.2082,9.6872,-0.6102,0.0515,9.7875,0.0038,-0.0109,0.0228
9878,47.348656,-2.069697,59.09,28.55,3.216,68.0,15 / 18,987810,2019-08-09 20:30:36:548,-0.9126,-0.0927,9.2592,-0.6242,0.0454,9.7867,-0.0166,-0.0209,0.0024
9879,47.348656,-2.069697,59.09,28.55,3.216,68.0,15 / 18,987911,2019-08-09 20:30:36:649,-0.0232,-0.2166,9.0707,-0.5914,0.0181,9.7888,-0.0132,-0.0354,0.0257
9880,47.348656,-2.069697,59.09,28.55,3.216,68.0,15 / 18,988011,2019-08-09 20:30:36:749,0.5754,-0.2956,9.0061,-0.5683,0.0118,9.7902,-0.015,-0.1166,-0.0124
9881,47.348656,-2.069697,59.09,28.55,3.216,68.0,15 / 18,988111,2019-08-09 20:30:36:849,1.8497,-0.7241,6.3994,-0.501,0.0236,9.7938,0.0866,0.1202,0.1822
9882,47.348656,-2.069697,59.09,28.55,3.216,68.0,15 / 18,988210,2019-08-09 20:30:36:948,-1.2855,-0.8839,9.0887,-0.546,-0.0036,9.7914,0.0001,-0.0697,-0.0851
9883,47.348656,-2.069697,59.09,28.55,3.216,68.0,15 / 18,988310,2019-08-09 20:30:37:048,2.2848,-0.9175,8.3608,-0.5352,0.0114,9.792,-0.0166,-0.1516,0.1293
9884,47.348656,-2.069697,59.09,28.55,3.216,68.0,15 / 18,988410,2019-08-09 20:30:37:148,0.1103,0.7154,11.9958,-0.6455,-0.0354,9.7853,-0.0531,0.1454,-0.0569
9885,47.348656,-2.069697,59.09,28.55,3.216,68.0,15 / 18,988510,2019-08-09 20:30:37:248,0.5526,-0.5996,10.6251,-0.6066,-0.0433,9.7878,0.0069,0.0372,0.034
9886,47.348656,-2.069697,59.09,28.55,3.216,68.0,15 / 19,988611,2019-08-09 20:30:37:349,-0.5409,-0.3069,10.2702,-0.5977,-0.052,9.7883,0.0015,0.003,0.0446
9887,47.348656,-2.069697,59.09,28.55,3.216,68.0,15 / 19,988711,2019-08-09 20:30:37:449,0.6376,-0.0256,9.6549,-0.6087,-0.0509,9.7876,0.0003,0.0401,0.0012
9888,47.348656,-2.069697,59.09,28.55,3.216,68.0,15 / 19,988810,2019-08-09 20:30:37:548,0.3192,0.1151,10.1942,-0.6147,-0.0497,9.7872,0.0194,0.0036,0.023
9889,47.348656,-2.069697,59.09,28.55,3.216,68.0,15 / 19,988911,2019-08-09 20:30:37:649,-1.8727,-0.1387,9.8446,-0.6158,-0.033,9.7872,0.0235,-0.058,0.0416
9890,47.348656,-2.069697,59.09,28.55,3.216,68.0,15 / 19,989010,2019-08-09 20:30:37:748,1.1841,-0.3662,9.1168,-0.5793,-0.0289,9.7895,0.0276,0.0265,0.0193
9891,47.348656,-2.069697,59.09,28.55,3.216,68.0,15 / 19,989110,2019-08-09 20:30:37:848,-0.0681,-0.4518,9.4454,-0.5764,-0.0025,9.7897,0.018,-0.023,0.0195
9892,47.348656,-2.069697,59.09,28.55,3.216,68.0,15 / 19,989211,2019-08-09 20:30:37:949,0.6364,0.0336,10.1385,-0.5718,0.0081,9.79,0.0142,0.0426,0.0072
9893,47.348656,-2.069697,59.09,28.55,3.216,68.0,15 / 19,989310,2019-08-09 20:30:38:048,0.8639,-0.2866,9.124,-0.5534,0.0175,9.791,0.0002,-0.0046,0.0127
9894,47.348656,-2.069697,59.09,28.55,3.216,68.0,15 / 19,989410,2019-08-09 20:30:38:148,-0.3578,-0.2626,9.0881,-0.5642,0.0176,9.7904,-0.006,0.0283,0.0112
9895,47.348656,-2.069697,59.09,28.55,3.216,68.0,15 / 19,989510,2019-08-09 20:30:38:248,-0.6678,-0.3213,9.6375,-0.6012,0.0068,9.7882,-0.0211,0.076,-0.0074
9896,47.348656,-2.069697,59.09,28.55,3.216,68.0,17 / 21,989610,2019-08-09 20:30:38:348,-0.4601,-0.2507,10.7131,-0.6088,-0.0169,9.7877,-0.0103,-0.0081,0.0378
9897,47.348656,-2.069697,59.09,28.55,3.216,68.0,17 / 21,989711,2019-08-09 20:30:38:449,-1.8039,0.5221,9.1066,-0.6407,-0.0279,9.7857,-0.0618,0.0068,0.0242
9898,47.348656,-2.069697,59.09,28.55,3.216,68.0,17 / 21,989810,2019-08-09 20:30:38:548,-1.3436,0.4347,8.043,-0.595,-0.0932,9.7881,-0.0473,-0.0987,0.0077
9899,47.348656,-2.069697,59.09,28.55,3.216,68.0,17 / 21,989910,2019-08-09 20:30:38:648,-4.0341,-1.7949,11.5176,-0.6375,-0.1005,9.7854,0.006,0.1723,0.1304
9900,47.348656,-2.069697,59.09,28.55,3.216,68.0,17 / 21,990011,2019-08-09 20:30:38:749,-2.6562,0.0247,10.1188,-0.6342,-0.131,9.7852,-0.0117,0.1497,0.0153
9901,47.348656,-2.069697,59.09,28.55,3.216,68.0,17 / 21,990111,2019-08-09 20:30:38:849,-2.4617,-0.3943,9.5124,-0.5212,-0.135,9.7919,0.0141,0.0925,0.0249
9902,47.348656,-2.069697,59.09,28.55,3.216,68.0,17 / 21,990210,2019-08-09 20:30:38:948,1.0614,-0.9492,9.2317,-0.5179,-0.1151,9.7923,0.0528,-0.1025,0.0501
9903,47.348656,-2.069697,59.09,28.55,3.216,68.0,17 / 21,990311,2019-08-09 20:30:39:049,0.2851,-0.86,10.2558,-0.61,-0.0834,9.7873,0.0872,-0.0673,0.0332
9904,47.348656,-2.069697,59.09,28.55,3.216,68.0,17 / 21,990410,2019-08-09 20:30:39:148,-1.9146,1.0841,11.7115,-0.6702,0.0103,9.7837,0.0577,-0.0529,0.0931
9905,47.348656,-2.069697,59.09,28.55,3.216,68.0,17 / 21,990510,2019-08-09 20:30:39:248,-3.6839,1.7826,10.1864,-0.6458,0.014,9.7854,-0.0949,0.1759,0.0115
9906,47.348656,-2.069697,59.09,28.55,3.216,68.0,15 / 18,990611,2019-08-09 20:30:39:349,0.6221,2.2351,8.869,-0.599,-0.0913,9.7879,-0.0451,0.104,0.2646
9907,47.348656,-2.069697,59.09,28.55,3.216,68.0,15 / 18,990711,2019-08-09 20:30:39:449,-6.7455,0.0342,8.2615,-0.6181,-0.1554,9.7859,-0.0421,-0.1086,-0.022
9908,47.348656,-2.069697,59.09,28.55,3.216,68.0,15 / 18,990810,2019-08-09 20:30:39:548,0.6675,-0.4278,8.8558,-0.6051,-0.1923,9.7861,-0.0332,-0.0918,0.0466
9909,47.348656,-2.069697,59.09,28.55,3.216,68.0,15 / 18,990910,2019-08-09 20:30:39:648,-0.8642,-0.7738,9.1335,-0.5774,-0.2108,9.7874,-0.0175,0.0215,0.0012
9910,47.348656,-2.069697,59.09,28.55,3.216,68.0,15 / 18,991010,2019-08-09 20:30:39:748,-0.0663,-0.6242,9.8279,-0.5747,-0.2226,9.7873,0.0096,-0.0058,-0.0369
9911,47.348656,-2.069697,59.09,28.55,3.216,68.0,15 / 18,991110,2019-08-09 20:30:39:848,-1.3047,-0.0909,10.0128,-0.5963,-0.209,9.7863,0.0263,0.0517,0.0524
9912,47.348656,-2.069697,59.09,28.55,3.216,68.0,15 / 18,991210,2019-08-09 20:30:39:948,-0.3302,-0.2429,10.9388,-0.6428,-0.2043,9.7834,-0.0066,0.0425,0.0114
9913,47.348656,-2.069697,59.09,28.55,3.216,68.0,15 / 18,991311,2019-08-09 20:30:40:049,-0.8564,-0.5619,11.1207,-0.6541,-0.2064,9.7826,0.0001,0.035,0.0399
9914,47.348656,-2.069697,59.09,28.55,3.216,68.0,15 / 18,991411,2019-08-09 20:30:40:149,-0.909,-0.8498,9.8099,-0.6619,-0.2045,9.7821,0.0089,-0.0012,0.0524
9915,47.348656,-2.069697,59.09,28.55,3.216,68.0,15 / 18,991511,2019-08-09 20:30:40:249,-1.41,-0.9133,9.7716,-0.6449,-0.21,9.7832,0.0202,0.0231,0.0383
9916,47.348656,-2.069697,59.09,28.55,3.216,68.0,17 / 21,991611,2019-08-09 20:30:40:349,-0.3117,-0.4171,9.4574,-0.6368,-0.1947,9.784,0.028,-0.0353,0.0524
9917,47.348656,-2.069697,59.09,28.55,3.216,68.0,17 / 21,991711,2019-08-09 20:30:40:449,-0.6026,-0.5978,9.2263,-0.651,-0.1891,9.7832,0.0362,-0.0305,0.0531
9918,47.348656,-2.069697,59.09,28.55,3.216,68.0,17 / 21,991810,2019-08-09 20:30:40:548,-0.7911,-0.3895,9.3945,-0.6244,-0.1631,9.7854,0.0206,-0.0037,-0.0005
9919,47.348656,-2.069697,59.09,28.55,3.216,68.0,17 / 21,991910,2019-08-09 20:30:40:648,-0.1327,-0.1226,9.209,-0.6054,-0.1578,9.7867,0.0128,-0.0293,0.0289
9920,47.348656,-2.069697,59.09,28.55,3.216,68.0,17 / 21,992011,2019-08-09 20:30:40:749,-0.5727,-0.4153,10.0176,-0.6224,-0.1638,9.7855,-0.0009,0.0188,0.0233
9921,47.348656,-2.069697,59.09,28.55,3.216,68.0,17 / 21,992111,2019-08-09 20:30:40:849,0.5251,-0.1112,9.9212,-0.6311,-0.1605,9.785,0.0182,0.0068,0.0421
9922,47.348656,-2.069697,59.09,28.55,3.216,68.0,17 / 21,992211,2019-08-09 20:30:40:949,-2.0116,-0.9456,10.3318,-0.6449,-0.162,9.7841,0.0135,0.0011,0.0205
9923,47.348656,-2.069697,59.09,28.55,3.216,68.0,17 / 21,992310,2019-08-09 20:30:41:048,-0.9761,-0.5045,10.0026,-0.6443,-0.1546,9.7842,0.0165,0.0328,0.0211
9924,47.348656,-2.069697,59.09,28.55,3.216,68.0,17 / 21,992411,2019-08-09 20:30:41:149,-0.9533,-0.1609,8.9348,-0.6256,-0.1521,9.7855,-0.016,0.0129,0.0181
9925,47.348656,-2.069697,59.09,28.55,3.216,68.0,17 / 21,992511,2019-08-09 20:30:41:249,-0.6738,-0.2184,9.1581,-0.601,-0.1617,9.7869,-0.0108,-0.0419,0.0433
9926,47.348656,-2.069697,59.09,28.55,3.216,68.0,17 / 21,992610,2019-08-09 20:30:41:348,-0.9899,-0.1687,9.8728,-0.6094,-0.1744,9.7861,-0.0043,-0.0028,0.0375
9927,47.348656,-2.069697,59.09,28.55,3.216,68.0,17 / 21,992711,2019-08-09 20:30:41:449,-0.8049,-0.1453,10.2133,-0.6259,-0.1948,9.7847,-0.0202,0.0225,0.0104
9928,47.348656,-2.069697,59.09,28.55,3.216,68.0,17 / 21,992811,2019-08-09 20:30:41:549,-0.9132,-0.183,10.2343,-0.6346,-0.2053,9.7839,-0.0271,-0.0213,0.0315
9929,47.348656,-2.069697,59.09,28.55,3.216,68.0,17 / 21,992910,2019-08-09 20:30:41:648,-1.4669,-0.3069,9.9248,-0.6359,-0.2373,9.7831,-0.0194,0.0108,0.0095
9930,47.348656,-2.069697,59.09,28.55,3.216,68.0,17 / 21,993010,2019-08-09 20:30:41:748,-0.6822,-0.3393,10.0829,-0.6062,-0.2491,9.7847,0.0001,0.0203,0.0184
9931,47.348656,-2.069697,59.09,28.55,3.216,68.0,17 / 21,993111,2019-08-09 20:30:41:849,-0.8306,-0.1106,9.4292,-0.6157,-0.2553,9.784,0.0033,0.0118,0.015
9932,47.348656,-2.069697,59.09,28.55,3.216,68.0,17 / 21,993211,2019-08-09 20:30:41:949,0.2264,0.1073,9.504,-0.6539,-0.2441,9.7818,0.0028,0.0107,-0.0025
9933,47.348656,-2.069697,59.09,28.55,3.216,68.0,17 / 21,993311,2019-08-09 20:30:42:049,-0.1315,-0.2501,9.1898,-0.6336,-0.228,9.7835,0.0039,0.0486,-0.0104
9934,47.348656,-2.069697,59.09,28.55,3.216,68.0,17 / 21,993410,2019-08-09 20:30:42:148,-0.0399,0.1019,10.3821,-0.6615,-0.2244,9.7817,0.0039,0.0486,-0.0104
9935,47.348656,-2.069697,59.09,28.55,3.216,68.0,17 / 21,993510,2019-08-09 20:30:42:248,-1.0766,0.5783,10.12,-0.6669,-0.2168,9.7815,-0.0189,0.0246,-0.0053
9936,47.348656,-2.069697,59.09,28.55,3.216,68.0,15 / 20,993610,2019-08-09 20:30:42:348,-0.9928,0.1659,10.0583,-0.6648,-0.2303,9.7814,-0.0436,0.0245,-0.0112
9937,47.348656,-2.069697,59.09,28.55,3.216,68.0,15 / 20,993711,2019-08-09 20:30:42:449,0.4521,-0.2513,9.4406,-0.665,-0.269,9.7804,-0.0715,0.0716,-0.073
9938,47.348656,-2.069697,59.09,28.55,3.216,68.0,15 / 20,993811,2019-08-09 20:30:42:549,0.9225,-0.3907,9.7171,-0.7078,-0.3028,9.7764,-0.0656,-0.0759,0.0655
9939,47.348656,-2.069697,59.09,28.55,3.216,68.0,15 / 20,993911,2019-08-09 20:30:42:649,-0.1363,-0.529,8.8049,-0.6538,-0.3877,9.7772,-0.0723,-0.0551,0.0028
9940,47.348656,-2.069697,59.09,28.55,3.216,68.0,15 / 20,994010,2019-08-09 20:30:42:748,-0.3991,0.3587,9.2892,-0.6389,-0.4334,9.7762,-0.0514,-0.0397,0.0374
9941,47.348656,-2.069697,59.09,28.55,3.216,68.0,15 / 20,994111,2019-08-09 20:30:42:849,-1.1341,-0.2998,8.9061,-0.5947,-0.487,9.7765,-0.0332,-0.0373,0.0043
9942,47.348656,-2.069697,59.09,28.55,3.216,68.0,15 / 20,994211,2019-08-09 20:30:42:949,-0.7462,0.1719,9.9254,-0.5934,-0.5082,9.7755,-0.0359,0.0352,-0.0229
9943,47.348656,-2.069697,59.09,28.55,3.216,68.0,15 / 20,994311,2019-08-09 20:30:43:049,-0.2207,-0.5302,10.0882,-0.6228,-0.5343,9.7723,-0.0196,0.0496,-0.0114
9944,47.348656,-2.069697,59.09,28.55,3.216,68.0,15 / 20,994410,2019-08-09 20:30:43:148,-1.258,-0.453,10.7748,-0.6593,-0.531,9.77,0.0058,0.0163,0.0001
9945,47.348656,-2.069697,59.09,28.55,3.216,68.0,15 / 20,994510,2019-08-09 20:30:43:248,-0.7157,-0.104,9.4783,-0.6446,-0.5176,9.7717,-0.0063,-0.0411,-0.0266
9946,47.348656,-2.069697,59.09,28.55,3.216,68.0,Dec-18,994610,2019-08-09 20:30:43:348,-2.1582,-0.2836,9.2365,-0.6246,-0.5118,9.7734,-0.0016,-0.0735,0.0582
9947,47.348656,-2.069697,59.09,28.55,3.216,68.0,Dec-18,994711,2019-08-09 20:30:43:449,-0.5918,-0.8648,9.2215,-0.5639,-0.5146,9.7769,0.0137,-0.0531,0.0537
9948,47.348656,-2.069697,59.09,28.55,3.216,68.0,Dec-18,994811,2019-08-09 20:30:43:549,-1.2771,-0.927,9.097,-0.6032,-0.5134,9.7746,0.0137,-0.0396,0.0159
9949,47.348656,-2.069697,59.09,28.55,3.216,68.0,Dec-18,994910,2019-08-09 20:30:43:648,-0.6852,-0.4446,9.1527,-0.6008,-0.4957,9.7757,0.0042,0.0505,-0.0179
9950,47.348656,-2.069697,59.09,28.55,3.216,68.0,Dec-18,995010,2019-08-09 20:30:43:748,-0.7935,-0.3746,9.6651,-0.5799,-0.4932,9.7771,-0.0049,-0.0386,0.0251
9951,47.348656,-2.069697,59.09,28.55,3.216,68.0,Dec-18,995110,2019-08-09 20:30:43:848,-1.0132,-0.6972,10.1086,-0.6128,-0.506,9.7744,-0.0017,0.0063,0.0233
9952,47.348656,-2.069697,59.09,28.55,3.216,68.0,Dec-18,995210,2019-08-09 20:30:43:948,0.2162,-0.3614,9.7279,-0.6386,-0.4974,9.7732,0.0228,-0.0058,0.0109
9953,47.348656,-2.069697,59.09,28.55,3.216,68.0,Dec-18,995310,2019-08-09 20:30:44:048,-1.2376,-0.216,9.4909,-0.6225,-0.4751,9.7753,-0.0004,-0.0306,-0.0232
9954,47.348656,-2.069697,59.09,28.55,3.216,68.0,Dec-18,995410,2019-08-09 20:30:44:148,0.1115,-0.6176,8.4231,-0.6042,-0.4863,9.7759,-0.044,-0.0667,0.0309
9955,47.348656,-2.069697,59.09,28.55,3.216,68.0,Dec-18,995510,2019-08-09 20:30:44:248,0.1965,-0.6505,9.4041,-0.5699,-0.544,9.7749,-0.0194,0.0486,0.0476
9956,47.34972,-2.066642,56.85,29.37,3.216,59.3,15 / 19,995610,2019-08-09 20:30:44:348,-0.1573,-0.8438,11.1854,-0.6431,-0.5614,9.7694,-0.0148,0.0364,0.0143
9957,47.34972,-2.066642,56.85,29.37,3.216,59.3,15 / 19,995710,2019-08-09 20:30:44:448,-0.8031,0.5047,13.4659,-0.7536,-0.5647,9.7613,0.0191,-0.0408,0.0579
9958,47.34972,-2.066642,56.85,29.37,3.216,59.3,15 / 19,995810,2019-08-09 20:30:44:548,-2.3617,-0.8965,9.9559,-0.7382,-0.5675,9.7623,-0.0591,-0.023,0.0052
9959,47.34972,-2.066642,56.85,29.37,3.216,59.3,15 / 19,995910,2019-08-09 20:30:44:648,-0.2093,-0.0089,8.1076,-0.6263,-0.6146,9.7673,-0.0162,-0.0367,0.093
9960,47.34972,-2.066642,56.85,29.37,3.216,59.3,15 / 19,996010,2019-08-09 20:30:44:748,0.9704,-0.8271,9.3257,-0.6506,-0.6372,9.7643,0.0009,0.0276,-0.014
9961,47.34972,-2.066642,56.85,29.37,3.216,59.3,15 / 19,996110,2019-08-09 20:30:44:848,-0.8875,-0.6804,9.2311,-0.6494,-0.6267,9.765,0.0237,-0.0117,0.0128
9962,47.34972,-2.066642,56.85,29.37,3.216,59.3,15 / 19,996210,2019-08-09 20:30:44:948,-1.0258,-0.1417,10.0062,-0.6782,-0.6003,9.7647,0.0117,-0.0139,0.0143
9963,47.34972,-2.066642,56.85,29.37,3.216,59.3,15 / 19,996311,2019-08-09 20:30:45:049,-0.7887,-0.3524,10.3313,-0.6542,-0.5905,9.767,0.0103,-0.0152,0.0286
9964,47.34972,-2.066642,56.85,29.37,3.216,59.3,15 / 19,996410,2019-08-09 20:30:45:148,-0.277,-0.6475,10.5892,-0.6745,-0.5811,9.7662,-0.0189,0.0307,0.0089
9965,47.34972,-2.066642,56.85,29.37,3.216,59.3,15 / 19,996511,2019-08-09 20:30:45:249,-0.4817,-0.7331,10.8376,-0.6904,-0.5857,9.7648,-0.0189,0.0307,0.0089
9966,47.34972,-2.066642,56.85,29.37,3.216,59.3,15 / 20,996610,2019-08-09 20:30:45:348,0.4964,-0.9079,9.5639,-0.6942,-0.6045,9.7633,-0.0161,-0.0041,0.0446
9967,47.34972,-2.066642,56.85,29.37,3.216,59.3,15 / 20,996710,2019-08-09 20:30:45:448,-0.7792,-0.7169,9.7566,-0.6937,-0.6216,9.7623,-0.0117,0.0341,0.0288
9968,47.34972,-2.066642,56.85,29.37,3.216,59.3,15 / 20,996810,2019-08-09 20:30:45:548,-1.1515,-1.1724,8.6631,-0.6728,-0.6405,9.7626,0.0077,-0.021,0.0237
9969,47.34972,-2.066642,56.85,29.37,3.216,59.3,15 / 20,996911,2019-08-09 20:30:45:649,-0.1495,-0.9749,8.8157,-0.6617,-0.6417,9.7632,0.0077,-0.021,0.0237
9970,47.34972,-2.066642,56.85,29.37,3.216,59.3,15 / 20,997011,2019-08-09 20:30:45:749,-0.493,-0.5601,8.5428,-0.6102,-0.6368,9.7669,0.0197,-0.0419,0.0003
9971,47.34972,-2.066642,56.85,29.37,3.216,59.3,15 / 20,997110,2019-08-09 20:30:45:848,-0.9079,-0.8301,9.9631,-0.6032,-0.6286,9.7679,0.0038,0.056,0.0163
9972,47.34972,-2.066642,56.85,29.37,3.216,59.3,15 / 20,997210,2019-08-09 20:30:45:948,0.1402,-0.617,11.1165,-0.6676,-0.6164,9.7645,0.014,0.0621,0.0183
9973,47.34972,-2.066642,56.85,29.37,3.216,59.3,15 / 20,997310,2019-08-09 20:30:46:048,-1.1718,-0.4955,11.1453,-0.6806,-0.6053,9.7643,0.01,0.0485,-0.0022
9974,47.34972,-2.066642,56.85,29.37,3.216,59.3,15 / 20,997410,2019-08-09 20:30:46:148,-0.9539,-0.9103,10.4168,-0.709,-0.5857,9.7634,0.0292,0.0225,0.0266
9975,47.34972,-2.066642,56.85,29.37,3.216,59.3,15 / 20,997510,2019-08-09 20:30:46:248,-1.1987,-0.4805,9.8345,-0.7112,-0.5742,9.764,0.0025,-0.0294,-0.0005
9976,47.34972,-2.066642,56.85,29.37,3.216,59.3,16 / 21,997610,2019-08-09 20:30:46:348,-0.5062,-0.2387,9.1012,-0.6901,-0.5501,9.7669,-0.0159,-0.0317,0.0073
9977,47.34972,-2.066642,56.85,29.37,3.216,59.3,16 / 21,997710,2019-08-09 20:30:46:448,-0.848,-0.2022,8.9965,-0.6791,-0.5606,9.767,-0.0333,-0.0136,0.0167
9978,47.34972,-2.066642,56.85,29.37,3.216,59.3,16 / 21,997811,2019-08-09 20:30:46:549,-1.2442,-0.4566,9.6878,-0.6687,-0.6089,9.7649,-0.0417,0.0018,0.0171
9979,47.34972,-2.066642,56.85,29.37,3.216,59.3,16 / 21,997911,2019-08-09 20:30:46:649,-0.584,-0.6128,9.3867,-0.6583,-0.6341,9.764,-0.0306,-0.0259,0.0202
9980,47.34972,-2.066642,56.85,29.37,3.216,59.3,16 / 21,998011,2019-08-09 20:30:46:749,-0.438,-0.8552,9.273,-0.6394,-0.6437,9.7646,0.0015,-0.0114,0.0215
9981,47.34972,-2.066642,56.85,29.37,3.216,59.3,16 / 21,998111,2019-08-09 20:30:46:849,-0.7756,-0.4584,9.7728,-0.6244,-0.6475,9.7653,-0.0102,0.0105,-0.0031
9982,47.34972,-2.066642,56.85,29.37,3.216,59.3,16 / 21,998211,2019-08-09 20:30:46:949,-0.2788,-0.2453,9.4071,-0.617,-0.6501,9.7656,-0.0108,-0.0114,0.0154
9983,47.34972,-2.066642,56.85,29.37,3.216,59.3,16 / 21,998310,2019-08-09 20:30:47:048,0.3671,-0.1783,9.8925,-0.6341,-0.6491,9.7646,0.022,0.0059,0.0219
9984,47.34972,-2.066642,56.85,29.37,3.216,59.3,16 / 21,998410,2019-08-09 20:30:47:148,-0.201,-0.6242,9.045,-0.608,-0.6067,9.769,0.0274,-0.0486,-0.0046
9985,47.34972,-2.066642,56.85,29.37,3.216,59.3,16 / 21,998510,2019-08-09 20:30:47:248,-0.754,0.2407,10.5138,-0.6578,-0.5892,9.7668,0.0264,0.0793,-0.0361
9986,47.34972,-2.066642,56.85,29.37,3.216,59.3,17 / 21,998610,2019-08-09 20:30:47:348,-0.836,-0.3027,10.8981,-0.6622,-0.5595,9.7683,-0.0029,0.0786,-0.0047
9987,47.34972,-2.066642,56.85,29.37,3.216,59.3,17 / 21,998710,2019-08-09 20:30:47:448,-0.3859,-0.3417,9.9368,-0.6733,-0.5557,9.7677,-0.0075,0.0068,-0.0077
9988,47.34972,-2.066642,56.85,29.37,3.216,59.3,17 / 21,998810,2019-08-09 20:30:47:548,-0.5876,-0.0113,9.8189,-0.6842,-0.5284,9.7685,0.0117,-0.0354,0.0072
9989,47.34972,-2.066642,56.85,29.37,3.216,59.3,17 / 21,998910,2019-08-09 20:30:47:648,-0.7432,0.0462,9.6585,-0.6598,-0.5194,9.7706,0.0071,0.0077,0.0091
9990,47.34972,-2.066642,56.85,29.37,3.216,59.3,17 / 21,999010,2019-08-09 20:30:47:748,-0.3326,-0.1729,9.9236,-0.6599,-0.508,9.7712,-0.0036,0.0094,0.0119
9991,47.34972,-2.066642,56.85,29.37,3.216,59.3,17 / 21,999110,2019-08-09 20:30:47:848,-2.0271,-0.3961,9.8512,-0.6594,-0.5017,9.7716,0.0069,0.0012,0.0129
9992,47.34972,-2.066642,56.85,29.37,3.216,59.3,17 / 21,999210,2019-08-09 20:30:47:948,-1.6854,-0.4033,9.7519,-0.6583,-0.4902,9.7722,0.0106,-0.037,0.0243
9993,47.34972,-2.066642,56.85,29.37,3.216,59.3,17 / 21,999310,2019-08-09 20:30:48:048,-0.353,-0.6715,9.6866,-0.673,-0.4848,9.7715,0.0099,0.0098,0.0084
9994,47.34972,-2.066642,56.85,29.37,3.216,59.3,17 / 21,999411,2019-08-09 20:30:48:149,-0.7103,-0.0053,9.2251,-0.64,-0.4658,9.7747,0.002,-0.038,0.0242
9995,47.34972,-2.066642,56.85,29.37,3.216,59.3,17 / 21,999511,2019-08-09 20:30:48:249,-0.745,0.0067,9.7812,-0.635,-0.4648,9.775,-0.0126,0.0247,-0.0224
9996,47.34972,-2.066642,56.85,29.37,3.216,59.3,15 / 20,999610,2019-08-09 20:30:48:348,-0.6086,0.0725,10.3737,-0.6413,-0.465,9.7746,-0.0058,0.0403,-0.034
9997,47.34972,-2.066642,56.85,29.37,3.216,59.3,15 / 20,999711,2019-08-09 20:30:48:449,-0.259,-0.4608,10.4641,-0.6808,-0.4579,9.7723,0.0081,0.0067,0.0185
9998,47.34972,-2.066642,56.85,29.37,3.216,59.3,15 / 20,999811,2019-08-09 20:30:48:549,0.4263,-0.1621,9.6986,-0.6703,-0.4545,9.7731,-0.0063,-0.0379,-0.0284
9999,47.34972,-2.066642,56.85,29.37,3.216,59.3,15 / 20,999911,2019-08-09 20:30:48:649,0.5939,-0.04,9.364,-0.6218,-0.4363,9.7772,0.0033,-0.0168,-0.0295
10000,47.34972,-2.066642,56.85,29.37,3.216,59.3,15 / 20,1000011,2019-08-09 20:30:48:749,-0.4583,-0.523,9.4532,-0.6187,-0.427,9.7778,0.0033,-0.0168,-0.0295
10001,47.34972,-2.066642,56.85,29.37,3.216,59.3,15 / 20,1000110,2019-08-09 20:30:48:848,-1.3442,-0.3776,10.2427,-0.65,-0.4087,9.7765,-0.001,0.0484,0.0004
10002,47.34972,-2.066642,56.85,29.37,3.216,59.3,15 / 20,1000210,2019-08-09 20:30:48:948,-0.8689,0.1875,10.4695,-0.6384,-0.4081,9.7773,0.0012,0.0499,-0.0131
10003,47.34972,-2.066642,56.85,29.37,3.216,59.3,15 / 20,1000310,2019-08-09 20:30:49:048,-1.7656,-0.1962,9.4915,-0.6502,-0.3942,9.7771,-0.0052,-0.0149,0.0108
10004,47.34972,-2.066642,56.85,29.37,3.216,59.3,15 / 20,1000410,2019-08-09 20:30:49:148,-1.5692,-0.1962,9.2724,-0.6175,-0.3857,9.7796,-0.0001,0.0116,-0.0205
10005,47.34972,-2.066642,56.85,29.37,3.216,59.3,15 / 20,1000510,2019-08-09 20:30:49:248,-0.8671,0.1168,9.5657,-0.6229,-0.3738,9.7797,0.0021,0.0336,-0.0039
10006,47.34972,-2.066642,56.85,29.37,3.216,59.3,15 / 20,1000611,2019-08-09 20:30:49:349,-0.1459,-0.3231,9.4729,-0.6264,-0.3647,9.7798,0.0035,-0.0198,0.0016
10007,47.34972,-2.066642,56.85,29.37,3.216,59.3,15 / 20,1000711,2019-08-09 20:30:49:449,0.1426,-0.1136,9.5082,-0.6123,-0.3589,9.7809,-0.0047,-0.0219,0.0025
10008,47.34972,-2.066642,56.85,29.37,3.216,59.3,15 / 20,1000810,2019-08-09 20:30:49:548,0.1977,-0.1621,10.0206,-0.622,-0.3612,9.7802,-0.0077,0.0095,0.0065
10009,47.34972,-2.066642,56.85,29.37,3.216,59.3,15 / 20,1000911,2019-08-09 20:30:49:649,-0.2195,-0.2818,9.9961,-0.6398,-0.3578,9.7792,-0.0042,0.011,0.0133
10010,47.34972,-2.066642,56.85,29.37,3.216,59.3,15 / 20,1001010,2019-08-09 20:30:49:748,-0.7516,0.1306,9.8195,-0.6632,-0.3551,9.7778,-0.0017,0.0031,-0.0217
10011,47.34972,-2.066642,56.85,29.37,3.216,59.3,15 / 20,1001110,2019-08-09 20:30:49:848,-1.7907,0.0923,9.2724,-0.64,-0.3468,9.7796,-0.0012,-0.0486,-0.0179
10012,47.34972,-2.066642,56.85,29.37,3.216,59.3,15 / 20,1001210,2019-08-09 20:30:49:948,-1.5082,-0.0208,9.4292,-0.6479,-0.3366,9.7794,0.002,-0.0119,0.0027
10013,47.34972,-2.066642,56.85,29.37,3.216,59.3,15 / 20,1001310,2019-08-09 20:30:50:048,-0.5116,0.1408,9.7848,-0.6386,-0.3332,9.7802,-0.0154,-0.0115,-0.0134
10014,47.34972,-2.066642,56.85,29.37,3.216,59.3,15 / 20,1001410,2019-08-09 20:30:50:148,-0.5421,-0.0639,9.5034,-0.6198,-0.3376,9.7812,-0.0035,-0.009,-0.0007
10015,47.34972,-2.066642,56.85,29.37,3.216,59.3,15 / 20,1001510,2019-08-09 20:30:50:248,0.2204,-0.2531,10.1463,-0.63,-0.3369,9.7806,0.0004,0.0275,0.0057
10016,47.34972,-2.066642,56.85,29.37,3.216,59.3,15 / 20,1001611,2019-08-09 20:30:50:349,-1.5034,-0.0244,10.1673,-0.6439,-0.3342,9.7798,-0.0019,0.0212,-0.0203
10017,47.34972,-2.066642,56.85,29.37,3.216,59.3,15 / 20,1001710,2019-08-09 20:30:50:448,-1.4208,-0.131,9.7536,-0.6378,-0.318,9.7807,0.0105,0.0135,-0.0013
10018,47.34972,-2.066642,56.85,29.37,3.216,59.3,15 / 20,1001810,2019-08-09 20:30:50:548,-0.5697,0.2162,10.114,-0.6555,-0.3102,9.7798,0.0056,0.0185,-0.0209
10019,47.34972,-2.066642,56.85,29.37,3.216,59.3,15 / 20,1001910,2019-08-09 20:30:50:648,-0.6445,0.0241,9.8075,-0.6805,-0.2836,9.7789,0.0055,-0.0252,-0.0297
10020,47.34972,-2.066642,56.85,29.37,3.216,59.3,15 / 20,1002010,2019-08-09 20:30:50:748,-0.9683,-0.1801,8.6798,-0.6828,-0.2766,9.7789,0.0137,-0.0627,0.0192
10021,47.34972,-2.066642,56.85,29.37,3.216,59.3,15 / 20,1002110,2019-08-09 20:30:50:848,-0.775,0.1216,9.4837,-0.6302,-0.2553,9.783,0.0019,-0.0418,0.0001
10022,47.34972,-2.066642,56.85,29.37,3.216,59.3,15 / 20,1002211,2019-08-09 20:30:50:949,-0.5379,0.1569,10.1828,-0.6367,-0.2549,9.7826,-0.0123,0.0253,-0.0102
10023,47.34972,-2.066642,56.85,29.37,3.216,59.3,15 / 20,1002311,2019-08-09 20:30:51:049,-0.8618,0.1569,9.6226,-0.6379,-0.2622,9.7824,-0.009,0.0013,-0.0019
10024,47.34972,-2.066642,56.85,29.37,3.216,59.3,15 / 20,1002411,2019-08-09 20:30:51:149,-0.0878,0.0642,9.8949,-0.6357,-0.2609,9.7825,-0.0103,0.0075,-0.0054
10025,47.34972,-2.066642,56.85,29.37,3.216,59.3,15 / 20,1002510,2019-08-09 20:30:51:248,0.1498,-0.0759,9.8003,-0.6348,-0.2656,9.7825,-0.0065,0.0104,-0.0066
10026,47.34972,-2.066642,56.85,29.37,3.216,59.3,16 / 21,1002610,2019-08-09 20:30:51:348,-0.7642,-0.1166,9.3011,-0.6401,-0.2683,9.7821,-0.0125,-0.0173,0.0034
10027,47.34972,-2.066642,56.85,29.37,3.216,59.3,16 / 21,1002710,2019-08-09 20:30:51:448,-0.6858,-0.0107,10.0194,-0.641,-0.2772,9.7818,-0.0137,-0.0302,0.0087
10028,47.34972,-2.066642,56.85,29.37,3.216,59.3,16 / 21,1002810,2019-08-09 20:30:51:548,-0.0645,-0.3698,9.847,-0.6261,-0.2816,9.7826,0.0017,0.0217,0.0083
10029,47.34972,-2.066642,56.85,29.37,3.216,59.3,16 / 21,1002911,2019-08-09 20:30:51:649,-0.5721,0.0342,10.3342,-0.6342,-0.2812,9.7821,-0.0096,0.0391,0.0
10030,47.34972,-2.066642,56.85,29.37,3.216,59.3,16 / 21,1003010,2019-08-09 20:30:51:748,-1.1676,-0.0813,10.0038,-0.6354,-0.2823,9.782,-0.0167,-0.0429,0.0123
10031,47.34972,-2.066642,56.85,29.37,3.216,59.3,16 / 21,1003111,2019-08-09 20:30:51:849,-0.7648,-0.1088,10.0637,-0.6549,-0.2896,9.7805,-0.0044,0.0228,-0.0003
10032,47.34972,-2.066642,56.85,29.37,3.216,59.3,16 / 21,1003212,2019-08-09 20:30:51:950,-0.6217,-0.0663,9.6531,-0.6449,-0.295,9.781,-0.0187,-0.015,0.0139
10033,47.34972,-2.066642,56.85,29.37,3.216,59.3,16 / 21,1003310,2019-08-09 20:30:52:048,-0.0633,0.039,9.3185,-0.6479,-0.3033,9.7805,-0.0218,0.0045,-0.0021
10034,47.34972,-2.066642,56.85,29.37,3.216,59.3,16 / 21,1003411,2019-08-09 20:30:52:149,0.3126,-0.2471,9.2215,-0.6164,-0.3114,9.7823,0.0136,-0.0429,0.0057
10035,47.34972,-2.066642,56.85,29.37,3.216,59.3,16 / 21,1003512,2019-08-09 20:30:52:250,0.2486,-0.0047,9.6351,-0.645,-0.2888,9.7812,0.0359,-0.0284,-0.0242
10036,47.34972,-2.066642,56.85,29.37,3.216,59.3,15 / 20,1003611,2019-08-09 20:30:52:349,-0.7379,-0.0986,9.6052,-0.6323,-0.2443,9.7832,0.0217,0.0094,-0.0089
10037,47.34972,-2.066642,56.85,29.37,3.216,59.3,15 / 20,1003710,2019-08-09 20:30:52:448,-1.0024,-0.3363,9.7159,-0.6127,-0.2294,9.7848,0.0189,0.007,0.0027
10038,47.34972,-2.066642,56.85,29.37,3.216,59.3,15 / 20,1003810,2019-08-09 20:30:52:548,0.0199,0.3431,10.0356,-0.6171,-0.2137,9.7849,-0.0164,0.0028,-0.0175
10039,47.34972,-2.066642,56.85,29.37,3.216,59.3,15 / 20,1003911,2019-08-09 20:30:52:649,-1.6895,-0.1316,9.7704,-0.6074,-0.2189,9.7854,-0.0148,0.0067,-0.0017
10040,47.34972,-2.066642,56.85,29.37,3.216,59.3,15 / 20,1004011,2019-08-09 20:30:52:749,-0.9467,-0.2728,9.4831,-0.61,-0.2281,9.785,0.0098,-0.0153,0.0013
10041,47.34972,-2.066642,56.85,29.37,3.216,59.3,15 / 20,1004110,2019-08-09 20:30:52:848,-1.7362,0.1144,9.759,-0.6323,-0.2229,9.7837,0.0026,0.0213,-0.0308
10042,47.34972,-2.066642,56.85,29.37,3.216,59.3,15 / 20,1004211,2019-08-09 20:30:52:949,0.2587,-0.3339,9.6441,-0.6186,-0.2251,9.7845,-0.0109,-0.0028,0.003
10043,47.34972,-2.066642,56.85,29.37,3.216,59.3,15 / 20,1004310,2019-08-09 20:30:53:048,1.5989,-0.1411,9.3784,-0.6127,-0.2251,9.7849,-0.0038,-0.0332,-0.0142
10044,47.34972,-2.066642,56.85,29.37,3.216,59.3,15 / 20,1004410,2019-08-09 20:30:53:148,1.2553,-0.9366,9.4705,-0.6129,-0.2208,9.785,0.0068,-0.0519,0.0508
10045,47.34972,-2.066642,56.85,29.37,3.216,59.3,15 / 20,1004510,2019-08-09 20:30:53:248,-0.7642,0.3802,10.5737,-0.6229,-0.232,9.7841,-0.0108,0.0918,-0.0433
10046,47.35102,-2.063659,55.39,30.2,3.216,56.7,15 / 20,1004611,2019-08-09 20:30:53:349,0.7531,-0.2339,9.9919,-0.6516,-0.2156,9.7826,0.025,0.0144,0.0342
10047,47.35102,-2.063659,55.39,30.2,3.216,56.7,15 / 20,1004711,2019-08-09 20:30:53:449,1.2158,-0.0897,10.1613,-0.6147,-0.2089,9.7851,0.0126,-0.0537,0.0265
10048,47.35102,-2.063659,55.39,30.2,3.216,56.7,15 / 20,1004810,2019-08-09 20:30:53:548,-2.6275,0.1958,9.03,-0.5994,-0.1959,9.7864,-0.0049,0.0293,0.0057
10049,47.35102,-2.063659,55.39,30.2,3.216,56.7,15 / 20,1004911,2019-08-09 20:30:53:649,-1.8937,0.2725,9.674,-0.6032,-0.2011,9.786,-0.0095,-0.0158,-0.0271
10050,47.35102,-2.063659,55.39,30.2,3.216,56.7,15 / 20,1005010,2019-08-09 20:30:53:748,-1.4076,-0.2986,9.5124,-0.5933,-0.2168,9.7863,-0.0135,0.0042,-0.0034
10051,47.35102,-2.063659,55.39,30.2,3.216,56.7,15 / 20,1005110,2019-08-09 20:30:53:848,0.3904,-0.3393,9.7937,-0.5985,-0.2214,9.7859,-0.0008,-0.0066,0.0079
10052,47.35102,-2.063659,55.39,30.2,3.216,56.7,15 / 20,1005211,2019-08-09 20:30:53:949,-0.2656,-0.3644,9.6746,-0.6053,-0.2307,9.7852,-0.0035,-0.0024,0.0156
10053,47.35102,-2.063659,55.39,30.2,3.216,56.7,15 / 20,1005310,2019-08-09 20:30:54:048,-0.2686,-0.4231,9.1425,-0.5947,-0.2298,9.7859,-0.0016,-0.0074,-0.0033
10054,47.35102,-2.063659,55.39,30.2,3.216,56.7,15 / 20,1005411,2019-08-09 20:30:54:149,-0.7067,-0.4272,9.689,-0.5986,-0.2304,9.7857,0.0078,0.0331,-0.0195
10055,47.35102,-2.063659,55.39,30.2,3.216,56.7,15 / 20,1005511,2019-08-09 20:30:54:249,-0.6493,0.2012,10.5324,-0.6271,-0.2293,9.7839,-0.0014,-0.008,0.022
10056,47.35102,-2.063659,55.39,30.2,3.216,56.7,16 / 20,1005611,2019-08-09 20:30:54:349,-1.5597,-0.2202,9.8925,-0.625,-0.2297,9.784,0.0079,-0.0318,0.0343
10057,47.35102,-2.063659,55.39,30.2,3.216,56.7,16 / 20,1005711,2019-08-09 20:30:54:449,-1.3921,0.1617,10.4809,-0.6191,-0.2297,9.7844,-0.0004,0.0579,-0.0284
10058,47.35102,-2.063659,55.39,30.2,3.216,56.7,16 / 20,1005811,2019-08-09 20:30:54:549,0.0205,-0.7235,9.4723,-0.6059,-0.2281,9.7853,0.0019,0.0065,-0.0259
10059,47.35102,-2.063659,55.39,30.2,3.216,56.7,16 / 20,1005910,2019-08-09 20:30:54:648,-0.5703,-0.2591,9.531,-0.6181,-0.2204,9.7847,0.019,-0.0131,0.0111
10060,47.35102,-2.063659,55.39,30.2,3.216,56.7,16 / 20,1006010,2019-08-09 20:30:54:748,0.0666,-0.1669,9.6453,-0.6169,-0.2184,9.7848,-0.0157,-0.0069,0.0136
10061,47.35102,-2.063659,55.39,30.2,3.216,56.7,16 / 20,1006110,2019-08-09 20:30:54:848,-1.4537,-0.1142,10.0823,-0.6342,-0.2243,9.7835,-0.0099,0.0241,-0.0187
10062,47.35102,-2.063659,55.39,30.2,3.216,56.7,16 / 20,1006211,2019-08-09 20:30:54:949,-0.8725,-0.0202,9.5477,-0.6243,-0.227,9.7841,-0.0002,-0.0051,-0.0023
10063,47.35102,-2.063659,55.39,30.2,3.216,56.7,16 / 20,1006311,2019-08-09 20:30:55:049,-0.6774,0.1881,10.1373,-0.6373,-0.2183,9.7835,0.0005,-0.0273,-0.0061
10064,47.35102,-2.063659,55.39,30.2,3.216,56.7,16 / 20,1006410,2019-08-09 20:30:55:148,-1.2029,-0.2363,9.5065,-0.6289,-0.2141,9.7841,-0.0017,-0.007,-0.0011
10065,47.35102,-2.063659,55.39,30.2,3.216,56.7,16 / 20,1006510,2019-08-09 20:30:55:248,-0.3584,0.1126,10.4875,-0.6441,-0.2096,9.7832,0.007,0.0418,-0.016
10066,47.35102,-2.063659,55.39,30.2,3.216,56.7,13 / 18,1006610,2019-08-09 20:30:55:348,-1.331,-0.2926,9.8506,-0.6197,-0.1995,9.785,0.0098,0.0356,0.0011
10067,47.35102,-2.063659,55.39,30.2,3.216,56.7,13 / 18,1006712,2019-08-09 20:30:55:450,-0.341,0.2491,9.4777,-0.6285,-0.1902,9.7846,-0.0004,-0.0165,-0.0334
10068,47.35102,-2.063659,55.39,30.2,3.216,56.7,13 / 18,1006811,2019-08-09 20:30:55:549,-0.271,-0.2028,9.206,-0.6095,-0.1866,9.7859,0.0039,0.0069,0.0114
10069,47.35102,-2.063659,55.39,30.2,3.216,56.7,13 / 18,1006910,2019-08-09 20:30:55:648,-0.9683,-0.5027,9.461,-0.6124,-0.1796,9.7859,0.0134,-0.0069,0.0256
10070,47.35102,-2.063659,55.39,30.2,3.216,56.7,13 / 18,1007010,2019-08-09 20:30:55:748,-0.0256,0.051,10.1008,-0.6179,-0.1745,9.7856,0.0086,-0.0191,-0.0336
10071,47.35102,-2.063659,55.39,30.2,3.216,56.7,13 / 18,1007111,2019-08-09 20:30:55:849,-0.2608,0.2036,9.5633,-0.6014,-0.1567,9.7869,0.0036,-0.0013,-0.0241
10072,47.35102,-2.063659,55.39,30.2,3.216,56.7,13 / 18,1007211,2019-08-09 20:30:55:949,-1.0575,0.3634,10.1487,-0.6064,-0.1458,9.7868,-0.0083,0.0246,-0.0323
10073,47.35102,-2.063659,55.39,30.2,3.216,56.7,13 / 18,1007311,2019-08-09 20:30:56:049,-0.757,-0.122,9.1264,-0.5921,-0.1587,9.7875,-0.0109,0.0022,-0.0073
10074,47.35102,-2.063659,55.39,30.2,3.216,56.7,13 / 18,1007410,2019-08-09 20:30:56:148,-0.8276,0.1462,9.6836,-0.5679,-0.1615,9.7889,-0.0093,-0.0129,-0.0048
10075,47.35102,-2.063659,55.39,30.2,3.216,56.7,13 / 18,1007510,2019-08-09 20:30:56:248,-0.4883,-0.1998,9.3987,-0.589,-0.1737,9.7874,-0.0144,-0.0344,0.0034
10076,47.35102,-2.063659,55.39,30.2,3.216,56.7,16 / 20,1007610,2019-08-09 20:30:56:348,-0.9198,-0.356,9.4203,-0.582,-0.1792,9.7877,0.0038,0.0016,-0.0034
10077,47.35102,-2.063659,55.39,30.2,3.216,56.7,16 / 20,1007711,2019-08-09 20:30:56:449,-0.4996,0.3652,10.1463,-0.5965,-0.1668,9.7871,-0.0018,0.015,-0.0112
10078,47.35102,-2.063659,55.39,30.2,3.216,56.7,16 / 20,1007811,2019-08-09 20:30:56:549,-1.9176,0.1318,10.6694,-0.6205,-0.1589,9.7857,0.0146,0.0435,-0.022
10079,47.35102,-2.063659,55.39,30.2,3.216,56.7,16 / 20,1007911,2019-08-09 20:30:56:649,0.497,0.3305,10.2085,-0.6466,-0.1259,9.7845,0.0179,-0.0197,-0.0061
10080,47.35102,-2.063659,55.39,30.2,3.216,56.7,16 / 20,1008011,2019-08-09 20:30:56:749,-0.3865,0.5041,9.7429,-0.6415,-0.1147,9.785,0.0128,0.0059,-0.0228
10081,47.35102,-2.063659,55.39,30.2,3.216,56.7,16 / 20,1008110,2019-08-09 20:30:56:848,-0.2847,0.7567,10.0242,-0.6471,-0.0977,9.7848,-0.0068,-0.0008,-0.0328
10082,47.35102,-2.063659,55.39,30.2,3.216,56.7,16 / 20,1008211,2019-08-09 20:30:56:949,-1.4669,0.0642,9.1844,-0.6205,-0.0961,9.7865,-0.0139,-0.0416,0.0263
10083,47.35102,-2.063659,55.39,30.2,3.216,56.7,16 / 20,1008311,2019-08-09 20:30:57:049,-0.5469,0.0139,9.1695,-0.6042,-0.1203,9.7873,-0.0189,-0.0105,-0.003
10084,47.35102,-2.063659,55.39,30.2,3.216,56.7,16 / 20,1008410,2019-08-09 20:30:57:148,0.91,-0.2375,9.7926,-0.6111,-0.1247,9.7868,-0.0085,0.0206,0.0128
10085,47.35102,-2.063659,55.39,30.2,3.216,56.7,16 / 20,1008511,2019-08-09 20:30:57:249,-1.5094,-0.6014,9.0964,-0.5781,-0.1304,9.7887,-0.0126,0.0858,-0.0225
10086,47.35102,-2.063659,55.39,30.2,3.216,56.7,14 / 19,1008610,2019-08-09 20:30:57:348,0.6382,-0.2076,9.8362,-0.603,-0.1365,9.7871,-0.0094,-0.0316,-0.0114
10087,47.35102,-2.063659,55.39,30.2,3.216,56.7,14 / 19,1008710,2019-08-09 20:30:57:448,0.1229,-0.462,9.0875,-0.6027,-0.1449,9.787,0.0111,0.0145,-0.0082
10088,47.35102,-2.063659,55.39,30.2,3.216,56.7,14 / 19,1008810,2019-08-09 20:30:57:548,-1.3556,-0.1531,9.8805,-0.6257,-0.1384,9.7857,0.0084,-0.0055,-0.0184
10089,47.35102,-2.063659,55.39,30.2,3.216,56.7,14 / 19,1008910,2019-08-09 20:30:57:648,-0.3638,0.033,10.0631,-0.6211,-0.1356,9.786,-0.0091,-0.0145,0.0079
10090,47.35102,-2.063659,55.39,30.2,3.216,56.7,14 / 19,1009011,2019-08-09 20:30:57:749,-0.4069,-0.4177,9.507,-0.6211,-0.1407,9.786,0.0006,-0.0232,0.0045
10091,47.35102,-2.063659,55.39,30.2,3.216,56.7,14 / 19,1009110,2019-08-09 20:30:57:848,-0.5481,0.1647,10.1984,-0.6405,-0.1318,9.7848,0.0049,0.0081,-0.0229
10092,47.35102,-2.063659,55.39,30.2,3.216,56.7,14 / 19,1009210,2019-08-09 20:30:57:948,-0.1279,-0.4943,9.777,-0.6337,-0.1231,9.7854,0.0135,-0.0232,0.0266
10093,47.35102,-2.063659,55.39,30.2,3.216,56.7,14 / 19,1009310,2019-08-09 20:30:58:048,0.1504,0.2114,10.1744,-0.646,-0.11,9.7847,0.0072,-0.0147,-0.0211
10094,47.35102,-2.063659,55.39,30.2,3.216,56.7,14 / 19,1009410,2019-08-09 20:30:58:148,-0.8971,-0.4416,9.6944,-0.6428,-0.1093,9.7849,-0.0042,-0.0016,0.0005
10095,47.35102,-2.063659,55.39,30.2,3.216,56.7,14 / 19,1009510,2019-08-09 20:30:58:248,-0.1184,0.0001,9.437,-0.6357,-0.114,9.7854,0.004,0.0137,-0.0046
10096,47.35102,-2.063659,55.39,30.2,3.216,56.7,14 / 19,1009610,2019-08-09 20:30:58:348,-0.2189,-0.1369,9.5735,-0.625,-0.1073,9.7861,0.0089,-0.0379,0.0125
10097,47.35102,-2.063659,55.39,30.2,3.216,56.7,14 / 19,1009710,2019-08-09 20:30:58:448,-0.5403,-0.4644,9.6776,-0.6495,-0.1059,9.7845,0.0045,-0.0217,0.026
10098,47.35102,-2.063659,55.39,30.2,3.216,56.7,14 / 19,1009810,2019-08-09 20:30:58:548,-0.1722,-0.3069,9.4161,-0.6288,-0.1034,9.7859,0.0095,-0.0228,0.0048
10099,47.35102,-2.063659,55.39,30.2,3.216,56.7,14 / 19,1009910,2019-08-09 20:30:58:648,0.0708,0.233,9.1521,-0.6195,-0.0965,9.7866,-0.0044,-0.0043,-0.0071
10100,47.35102,-2.063659,55.39,30.2,3.216,56.7,14 / 19,1010011,2019-08-09 20:30:58:749,-0.5409,-0.2441,9.4029,-0.5982,-0.1077,9.7878,-0.0117,0.0155,0.0274
10101,47.35102,-2.063659,55.39,30.2,3.216,56.7,14 / 19,1010110,2019-08-09 20:30:58:848,-0.5427,-0.4105,9.5735,-0.6151,-0.1145,9.7867,-0.0025,-0.0253,-0.0048
10102,47.35102,-2.063659,55.39,30.2,3.216,56.7,14 / 19,1010210,2019-08-09 20:30:58:948,-0.6493,-1.1264,9.0563,-0.6024,-0.1228,9.7874,-0.0053,-0.0438,-0.0177
10103,47.35102,-2.063659,55.39,30.2,3.216,56.7,14 / 19,1010311,2019-08-09 20:30:59:049,0.6765,-0.0861,9.8757,-0.6267,-0.1376,9.7856,0.0011,0.0275,0.0214
10104,47.35102,-2.063659,55.39,30.2,3.216,56.7,14 / 19,1010411,2019-08-09 20:30:59:149,-2.6921,-0.5392,10.8322,-0.6522,-0.1423,9.7839,-0.0003,-0.0838,0.0053
10105,47.35102,-2.063659,55.39,30.2,3.216,56.7,14 / 19,1010510,2019-08-09 20:30:59:248,-2.5257,-0.0885,9.6597,-0.6161,-0.1408,9.7863,0.0191,0.0408,-0.0171
10106,47.35102,-2.063659,55.39,30.2,3.216,56.7,16 / 21,1010610,2019-08-09 20:30:59:348,-1.2784,0.1432,10.4875,-0.6378,-0.1247,9.7851,-0.0051,0.048,-0.0177
10107,47.35102,-2.063659,55.39,30.2,3.216,56.7,16 / 21,1010711,2019-08-09 20:30:59:449,-0.7756,-0.7098,8.6721,-0.6182,-0.1284,9.7863,-0.0004,-0.0698,0.0488
10108,47.35102,-2.063659,55.39,30.2,3.216,56.7,16 / 21,1010811,2019-08-09 20:30:59:549,-0.6912,-0.3506,9.5005,-0.5934,-0.1291,9.7878,0.0106,0.0122,-0.0075
10109,47.35102,-2.063659,55.39,30.2,3.216,56.7,16 / 21,1010910,2019-08-09 20:30:59:648,-1.2885,-0.2405,9.6136,-0.6213,-0.129,9.7861,-0.0077,0.0157,-0.0074
10110,47.35102,-2.063659,55.39,30.2,3.216,56.7,16 / 21,1011011,2019-08-09 20:30:59:749,-0.6966,-0.2237,9.6782,-0.6032,-0.1319,9.7872,0.007,-0.0308,0.0141
10111,47.35102,-2.063659,55.39,30.2,3.216,56.7,16 / 21,1011111,2019-08-09 20:30:59:849,-0.0699,-0.0819,10.4156,-0.6318,-0.1339,9.7854,-0.0014,0.0488,-0.0168
10112,47.35102,-2.063659,55.39,30.2,3.216,56.7,16 / 21,1011210,2019-08-09 20:30:59:948,-0.6954,-0.2399,9.3813,-0.6288,-0.1394,9.7855,-0.007,-0.0283,0.0028
10113,47.35102,-2.063659,55.39,30.2,3.216,56.7,16 / 21,1011310,2019-08-09 20:31:00:048,-0.4655,-0.1334,9.4167,-0.6292,-0.1377,9.7855,0.0081,0.0,0.0011
10114,47.35102,-2.063659,55.39,30.2,3.216,56.7,16 / 21,1011410,2019-08-09 20:31:00:148,-0.2159,0.0528,9.1054,-0.5939,-0.1222,9.7879,0.0069,-0.0351,-0.014
10115,47.35102,-2.063659,55.39,30.2,3.216,56.7,16 / 21,1011511,2019-08-09 20:31:00:249,-1.4663,0.1109,9.7082,-0.6059,-0.1211,9.7872,-0.0097,-0.0786,0.0372
10116,47.35102,-2.063659,55.39,30.2,3.216,56.7,14 / 18,1011610,2019-08-09 20:31:00:348,-1.5633,-0.608,8.5649,-0.5858,-0.1329,9.7882,-0.0026,0.026,-0.026
10117,47.35102,-2.063659,55.39,30.2,3.216,56.7,14 / 18,1011711,2019-08-09 20:31:00:449,-2.5371,0.6711,10.4085,-0.5853,-0.1184,9.7885,-0.0114,0.1014,-0.0185
10118,47.35102,-2.063659,55.39,30.2,3.216,56.7,14 / 18,1011810,2019-08-09 20:31:00:548,-0.9803,0.1061,10.6748,-0.6466,-0.1338,9.7844,0.0005,-0.0082,0.0644
10119,47.35102,-2.063659,55.39,30.2,3.216,56.7,14 / 18,1011911,2019-08-09 20:31:00:649,-0.4912,-0.7325,9.343,-0.6378,-0.1331,9.785,-0.0052,0.0111,-0.0602
10120,47.35102,-2.063659,55.39,30.2,3.216,56.7,14 / 18,1012010,2019-08-09 20:31:00:748,-0.0316,-0.7894,7.8263,-0.5755,-0.1298,9.7889,-0.0235,0.1792,-0.0881
10121,47.35102,-2.063659,55.39,30.2,3.216,56.7,14 / 18,1012111,2019-08-09 20:31:00:849,-1.3933,-0.7098,10.084,-0.5917,-0.1223,9.788,0.0014,-0.1262,0.0269
10122,47.35102,-2.063659,55.39,30.2,3.216,56.7,14 / 18,1012210,2019-08-09 20:31:00:948,-0.0405,-0.3087,9.8919,-0.6152,-0.1355,9.7864,-0.0059,-0.0165,-0.0165
10123,47.35102,-2.063659,55.39,30.2,3.216,56.7,14 / 18,1012311,2019-08-09 20:31:01:049,0.3892,0.0372,9.6381,-0.6668,-0.1236,9.7832,0.0103,-0.0162,-0.0085
10124,47.35102,-2.063659,55.39,30.2,3.216,56.7,14 / 18,1012410,2019-08-09 20:31:01:148,-0.3835,-0.4308,9.2359,-0.6271,-0.11,9.786,0.0077,-0.0133,-0.0221
10125,47.35102,-2.063659,55.39,30.2,3.216,56.7,14 / 18,1012510,2019-08-09 20:31:01:248,-0.5709,-0.1471,9.9063,-0.6126,-0.1048,9.7869,0.0009,0.0104,0.008
10126,47.35102,-2.063659,55.39,30.2,3.216,56.7,15 / 20,1012610,2019-08-09 20:31:01:348,-1.2646,-0.377,9.868,-0.6209,-0.1191,9.7862,-0.0091,0.0049,0.0043
10127,47.35102,-2.063659,55.39,30.2,3.216,56.7,15 / 20,1012710,2019-08-09 20:31:01:448,-0.7259,-0.1208,10.2816,-0.6275,-0.1236,9.7858,-0.0044,0.022,0.011
10128,47.35102,-2.063659,55.39,30.2,3.216,56.7,15 / 20,1012810,2019-08-09 20:31:01:548,-1.0048,-0.222,10.1086,-0.6374,-0.136,9.785,-0.009,-0.0148,0.0045
10129,47.35102,-2.063659,55.39,30.2,3.216,56.7,15 / 20,1012911,2019-08-09 20:31:01:649,-0.6265,-0.5284,10.2289,-0.6644,-0.14,9.7831,-0.008,0.0291,0.0079
10130,47.35102,-2.063659,55.39,30.2,3.216,56.7,15 / 20,1013011,2019-08-09 20:31:01:749,0.1271,0.0803,10.1349,-0.6653,-0.1452,9.783,0.0169,0.0,0.0345
10131,47.35102,-2.063659,55.39,30.2,3.216,56.7,15 / 20,1013111,2019-08-09 20:31:01:849,-0.5858,0.0055,10.0601,-0.6691,-0.1357,9.7829,0.0078,0.0086,-0.0296
10132,47.35102,-2.063659,55.39,30.2,3.216,56.7,15 / 20,1013210,2019-08-09 20:31:01:948,-1.03,0.048,9.2688,-0.6532,-0.1278,9.784,0.0072,-0.0192,-0.0064
10133,47.35102,-2.063659,55.39,30.2,3.216,56.7,15 / 20,1013310,2019-08-09 20:31:02:048,-1.4442,-0.0322,9.6579,-0.6311,-0.121,9.7856,-0.0139,-0.007,-0.0095
10134,47.35102,-2.063659,55.39,30.2,3.216,56.7,15 / 20,1013410,2019-08-09 20:31:02:148,0.4958,-0.3267,9.3987,-0.6292,-0.1291,9.7856,-0.01,-0.0215,0.0349
10135,47.35102,-2.063659,55.39,30.2,3.216,56.7,15 / 20,1013511,2019-08-09 20:31:02:249,0.6227,-0.1824,9.7985,-0.6079,-0.1412,9.7868,-0.0064,0.0398,0.0094
10136,47.352394,-2.060582,53.26,31.13,3.216,56.9,14 / 18,1013610,2019-08-09 20:31:02:348,-0.2758,-0.1052,10.5,-0.6314,-0.149,9.7852,-0.0156,0.0291,0.0156
10137,47.352394,-2.060582,53.26,31.13,3.216,56.9,14 / 18,1013710,2019-08-09 20:31:02:448,-0.4344,-0.7098,10.3821,-0.67,-0.1622,9.7824,0.0135,0.024,0.0057
10138,47.352394,-2.060582,53.26,31.13,3.216,56.9,14 / 18,1013810,2019-08-09 20:31:02:548,-0.2524,-0.295,9.8764,-0.6825,-0.1584,9.7816,0.0199,-0.0109,0.0056
10139,47.352394,-2.060582,53.26,31.13,3.216,56.9,14 / 18,1013910,2019-08-09 20:31:02:648,-0.4398,-0.1364,9.6471,-0.6754,-0.1499,9.7822,-0.0029,-0.0208,0.0214
10140,47.352394,-2.060582,53.26,31.13,3.216,56.9,14 / 18,1014010,2019-08-09 20:31:02:748,-0.9019,0.0031,9.8404,-0.6695,-0.1532,9.7826,-0.01,0.0045,-0.0057
10141,47.352394,-2.060582,53.26,31.13,3.216,56.9,14 / 18,1014111,2019-08-09 20:31:02:849,-0.827,-0.28,9.5274,-0.6573,-0.1631,9.7832,0.0021,-0.0115,0.01
10142,47.352394,-2.060582,53.26,31.13,3.216,56.9,14 / 18,1014210,2019-08-09 20:31:02:948,-1.0724,-0.5224,9.3568,-0.6551,-0.1641,9.7834,-0.0035,-0.0632,0.0333
10143,47.352394,-2.060582,53.26,31.13,3.216,56.9,14 / 18,1014310,2019-08-09 20:31:03:048,-0.2949,-0.2375,9.3586,-0.647,-0.1743,9.7837,0.0001,0.027,-0.0033
10144,47.352394,-2.060582,53.26,31.13,3.216,56.9,14 / 18,1014410,2019-08-09 20:31:03:148,0.461,-0.3506,9.9009,-0.6425,-0.1764,9.784,-0.0049,0.0275,0.0002
10145,47.352394,-2.060582,53.26,31.13,3.216,56.9,14 / 18,1014511,2019-08-09 20:31:03:249,-0.9252,-0.4261,9.8003,-0.6589,-0.1837,9.7828,-0.0023,-0.0018,0.0197
10146,47.352394,-2.060582,53.26,31.13,3.216,56.9,16 / 20,1014610,2019-08-09 20:31:03:348,-1.0712,-0.5344,9.3299,-0.6593,-0.1778,9.7828,0.019,-0.0164,0.0224
10147,47.352394,-2.060582,53.26,31.13,3.216,56.9,16 / 20,1014710,2019-08-09 20:31:03:448,-1.4507,0.1677,9.6758,-0.6605,-0.1625,9.783,0.002,-0.0144,-0.0154
10148,47.352394,-2.060582,53.26,31.13,3.216,56.9,16 / 20,1014811,2019-08-09 20:31:03:549,-1.5375,-0.8372,10.0248,-0.6501,-0.1644,9.7837,0.0188,0.0045,0.0082
10149,47.352394,-2.060582,53.26,31.13,3.216,56.9,16 / 20,1014910,2019-08-09 20:31:03:648,-0.2878,0.2312,9.9991,-0.6606,-0.1561,9.7831,0.0005,0.0137,-0.0003
10150,47.352394,-2.060582,53.26,31.13,3.216,56.9,16 / 20,1015011,2019-08-09 20:31:03:749,-0.7899,-0.1723,10.1134,-0.6316,-0.1648,9.7849,-0.0052,0.0696,0.0024
10151,47.352394,-2.060582,53.26,31.13,3.216,56.9,16 / 20,1015111,2019-08-09 20:31:03:849,-0.2309,0.0079,10.6724,-0.6759,-0.1704,9.7818,-0.009,0.019,-0.0108
10152,47.352394,-2.060582,53.26,31.13,3.216,56.9,16 / 20,1015211,2019-08-09 20:31:03:949,-0.2854,-0.2734,9.2431,-0.6556,-0.1735,9.7832,0.0011,0.0082,0.0325
10153,47.352394,-2.060582,53.26,31.13,3.216,56.9,16 / 20,1015310,2019-08-09 20:31:04:048,0.0271,-0.7481,9.2066,-0.6552,-0.1729,9.7832,0.0014,0.0549,-0.0401
10154,47.352394,-2.060582,53.26,31.13,3.216,56.9,16 / 20,1015410,2019-08-09 20:31:04:148,-0.8983,-0.5745,8.9923,-0.6807,-0.174,9.7814,0.0095,-0.0511,0.0395
10155,47.352394,-2.060582,53.26,31.13,3.216,56.9,16 / 20,1015510,2019-08-09 20:31:04:248,-0.2841,-0.0801,9.7423,-0.6499,-0.1577,9.7838,0.0132,0.0053,-0.0073
