,GPS LATITUDE (degrees), GPS LONGITUDE (degrees), GPS ALTITUDE (m), GPS SPEED (Kmh), GPS ACCURACY (m), GPS ORIENTATION (Â°),GPS SATELLITES IN RANGE, TIME SINCE START (ms), DATE (YYYY-MO-DD HH-MI-SS_SSS), ACCELEROMETER X (m/s²) , ACCELEROMETER Y (m/s²), ACCELEROMETER Z (m/s²), GRAVITY X (m/s²), GRAVITY Y (m/s²), GRAVITY Z (m/s²), GYROSCOPE Yaw (rad/s), GYROSCOPE Pitch (rad/s), GYROSCOPE Roll (rad/s), MAGNETIC FIELD X (Î¼T), MAGNETIC FIELD Y (Î¼T), MAGNETIC FIELD Z (Î¼T), ORIENTATION (Yaw) (Â°), ORIENTATION (Pitch) (Â°), ORIENTATION (Roll ) (Â°)
70201,50.4254,-4.818753,203,7.98,10.0,198.1,Nov-20,6954341,2019-08-17 09:16:23:708,-0.7505,1.066,10.0351,-0.0379,0.0144,9.8066,-0.0271,-0.0054,-0.0846,-22.27,13.72,-14.69,217.59,-3.19,-9.96
70202,50.4254,-4.818753,203,7.98,10.0,198.1,Nov-20,6954441,2019-08-17 09:16:23:808,-0.834,1.0517,9.906,-0.0683,0.0606,9.8062,-0.0005,-0.0214,-0.074,-22.2,13.51,-14.99,217.59,-3.19,-9.96
70203,50.4254,-4.818753,203,7.98,10.0,198.1,Nov-20,6954541,2019-08-17 09:16:23:908,-0.9342,1.2995,10.2414,-0.0908,0.1109,9.8056,-0.0197,-0.0033,-0.0623,-22.24,13.95,-14.52,217.31,-3.21,-9.12
70204,50.4254,-4.818753,203,7.98,10.0,198.1,Nov-20,6954641,2019-08-17 09:16:24:008,-0.5984,1.2284,10.0762,-0.0162,0.0439,9.8065,-0.0293,0.0436,-0.0495,-21.71,13.89,-15.36,217.31,-3.21,-9.12
70205,50.425327,-4.818763,203,8.26,10.0,204.3,Nov-20,6954741,2019-08-17 09:16:24:108,-0.6941,1.3243,9.7535,-0.0523,0.0841,9.8062,-0.0293,0.0436,-0.0495,-21.71,13.89,-15.36,217.31,-3.21,-9.12
70206,50.425327,-4.818763,203,8.26,10.0,204.3,Nov-20,6954841,2019-08-17 09:16:24:208,-0.6361,1.2202,9.4379,-0.0488,0.0414,9.8064,0.0219,0.0404,-0.0431,-22.27,13.72,-14.69,217.08,-3.16,-8.54
70207,50.425327,-4.818763,203,8.26,10.0,204.3,Nov-20,6954941,2019-08-17 09:16:24:308,-0.9314,1.2524,9.6009,-0.0513,0.0476,9.8064,-0.0005,0.0138,-0.0143,-22.26,13.97,-14.47,216.66,-3.24,-8.18
70208,50.425327,-4.818763,203,8.26,10.0,204.3,Nov-20,6955041,2019-08-17 09:16:24:408,-0.6771,0.9707,9.3611,-0.0968,0.0991,9.8057,-0.0069,-0.0373,-0.0058,-22.41,13.64,-14.56,216.66,-3.24,-8.18
70209,50.425327,-4.818763,203,8.26,10.0,204.3,Nov-20,6955141,2019-08-17 09:16:24:508,-0.6321,1.0613,9.8917,-0.1466,0.1735,9.804,0.0283,0.05,0.0027,-22.26,13.97,-14.47,216.22,-3.32,-6.85
70210,50.425327,-4.818763,203,8.26,10.0,204.3,Nov-20,6955241,2019-08-17 09:16:24:608,-1.0885,1.373,9.7903,-0.0909,0.0432,9.8061,-0.0356,0.0681,0.0166,-22.49,14.69,-13.37,217.51,-3.5,-6.24
70211,50.425327,-4.818763,203,8.26,10.0,204.3,Nov-20,6955341,2019-08-17 09:16:24:708,-0.9937,0.9084,9.804,-0.1338,0.1021,9.8052,-0.0293,0.0276,0.0208,-22.49,14.69,-13.37,217.51,-3.5,-6.24
70212,50.425327,-4.818763,203,8.26,10.0,204.3,Nov-20,6955441,2019-08-17 09:16:24:808,-0.8266,0.8074,9.4892,-0.0528,0.0409,9.8064,-0.0378,0.0394,-0.0122,-22.62,13.93,-13.94,214.55,-3.75,-5.29
70213,50.425327,-4.818763,203,8.26,10.0,204.3,Nov-20,6955542,2019-08-17 09:16:24:909,-0.3956,0.463,8.8872,-0.0883,0.0472,9.8061,-0.0378,0.0394,-0.0122,-22.96,14.09,-13.2,214.2,-4.02,-4.77
70214,50.425327,-4.818763,203,8.26,10.0,204.3,Nov-20,6955641,2019-08-17 09:16:25:008,-0.3335,0.6238,10.4477,-0.0222,0.0147,9.8066,-0.0175,0.0479,0.0017,-22.96,14.09,-13.2,214.2,-4.02,-4.77
70215,50.425236,-4.818853,203,10.17,10.0,206.0,Nov-20,6955741,2019-08-17 09:16:25:108,-0.234,0.119,8.7002,0.0165,0.0162,9.8066,-0.058,-0.0054,-0.0058,-22.97,13.68,-13.61,214.4,-4.08,-4.63
70216,50.425236,-4.818853,203,10.17,10.0,206.0,Nov-20,6955841,2019-08-17 09:16:25:208,0.0549,0.4718,9.1492,0.0673,0.0484,9.8063,-0.057,-0.0864,0.0368,-23.26,13.68,-13.11,214.03,-3.6,-4.61
70217,50.425236,-4.818853,203,10.17,10.0,206.0,Nov-20,6955940,2019-08-17 09:16:25:307,-0.0696,0.104,9.2967,0.0552,0.0644,9.8063,0.0176,-0.0246,-0.0143,-23.26,13.68,-13.11,214.03,-3.6,-4.61
70218,50.425236,-4.818853,203,10.17,10.0,206.0,Nov-20,6956041,2019-08-17 09:16:25:408,0.1249,0.3879,9.3635,0.0149,0.0359,9.8066,0.0453,-0.0246,0.0134,-22.47,13.84,-14.26,215.29,-3.12,-4.48
70219,50.425236,-4.818853,203,10.17,10.0,206.0,Nov-20,6956141,2019-08-17 09:16:25:508,-0.2012,0.2494,9.5801,0.0172,0.091,9.8062,-0.0133,-0.0033,0.0134,-22.44,13.4,-14.73,215.29,-3.12,-4.48
70220,50.425236,-4.818853,203,10.17,10.0,206.0,Nov-20,6956241,2019-08-17 09:16:25:608,-0.34,0.0209,9.8073,0.0129,0.1433,9.8056,0.024,0.0212,0.0006,-22.59,13.53,-14.38,213.65,-2.57,-3.84
70221,50.425236,-4.818853,203,10.17,10.0,206.0,Nov-20,6956342,2019-08-17 09:16:25:709,-0.1436,0.3233,10.7273,-0.0872,0.0775,9.806,0.024,0.0212,0.0006,-22.76,13.64,-14.0,213.65,-2.57,-3.84
70222,50.425236,-4.818853,203,10.17,10.0,206.0,Nov-20,6956441,2019-08-17 09:16:25:808,-0.1925,-0.0029,9.4128,-0.0498,0.0346,9.8065,0.0368,0.0138,0.024,-22.79,14.08,-13.51,213.44,-2.75,-3.18
70223,50.425236,-4.818853,203,10.17,10.0,206.0,Nov-20,6956541,2019-08-17 09:16:25:908,-0.2633,0.1282,9.7687,-0.0908,0.0697,9.806,0.0219,0.017,0.0038,-22.77,13.39,-14.23,213.44,-2.75,-3.18
70224,50.42516,-4.818955,203,10.96,10.0,206.3,Nov-20,6956643,2019-08-17 09:16:26:010,-0.1771,0.5561,10.4763,-0.0935,0.1321,9.8053,0.0091,0.0053,0.0006,-22.77,13.39,-14.23,213.44,-2.75,-3.18
70225,50.42516,-4.818955,203,10.96,10.0,206.3,Nov-20,6956741,2019-08-17 09:16:26:108,-0.213,0.0729,8.6392,-0.0162,0.0484,9.8065,-0.009,-0.0022,-0.0005,-22.44,13.86,-14.29,214.28,-2.78,-2.24
70226,50.42516,-4.818955,203,10.96,10.0,206.3,Nov-20,6956841,2019-08-17 09:16:26:208,-0.2623,0.3108,9.8198,-0.0091,0.0405,9.8066,-0.0591,-0.0096,0.0251,-22.93,13.31,-14.03,211.11,-2.69,-2.01
70227,50.42516,-4.818955,203,10.96,10.0,206.3,Nov-20,6956941,2019-08-17 09:16:26:308,-0.3142,0.2605,10.3362,-0.0089,-0.0171,9.8066,-0.0335,-0.0096,0.0123,-22.93,13.31,-14.03,211.11,-2.69,-2.01
70228,50.42516,-4.818955,203,10.96,10.0,206.3,Nov-20,6957040,2019-08-17 09:16:26:407,-0.518,0.4335,9.326,0.0176,-0.0195,9.8066,-0.009,0.0234,-0.0271,-23.08,13.15,-13.93,211.17,-2.78,-2.07
70229,50.42516,-4.818955,203,10.96,10.0,206.3,Nov-20,6957141,2019-08-17 09:16:26:508,-0.5636,0.1081,10.1795,-0.0111,-0.0655,9.8064,-0.0048,0.0095,0.0027,-22.79,13.65,-13.94,211.17,-2.78,-2.07
70230,50.42516,-4.818955,203,10.96,10.0,206.3,Nov-20,6957241,2019-08-17 09:16:26:608,0.0163,0.2088,8.593,-0.0427,-0.0569,9.8064,-0.0048,0.0095,0.0027,-22.79,13.65,-13.94,213.19,-3.17,-2.23
70231,50.42516,-4.818955,203,10.96,10.0,206.3,Nov-20,6957341,2019-08-17 09:16:26:708,-0.2016,0.3443,9.2462,-0.0111,0.0402,9.8066,0.007,0.0575,-0.0431,-22.99,13.94,-13.31,212.94,-3.1,-1.99
70232,50.42516,-4.818955,203,10.96,10.0,206.3,Nov-20,6957441,2019-08-17 09:16:26:808,0.0058,0.4654,10.0949,0.0205,0.0747,9.8063,-0.0005,-0.0075,0.0198,-22.61,13.55,-14.33,212.94,-3.1,-1.99
70233,50.42516,-4.818955,203,10.96,10.0,206.3,Nov-20,6957541,2019-08-17 09:16:26:908,-0.1128,0.2814,9.562,-0.012,0.0913,9.8062,0.0112,0.0266,-0.0101,-22.61,13.55,-14.33,212.94,-3.1,-1.99
70234,50.42516,-4.818955,203,10.96,10.0,206.3,Nov-20,6957641,2019-08-17 09:16:27:008,-0.1235,0.0233,9.5981,0.0067,0.012,9.8066,-0.0239,-0.0128,0.0059,-22.93,13.31,-14.03,210.94,-2.86,-1.51
70235,50.425064,-4.819033,203,11.84,10.0,205.9,Nov-20,6957741,2019-08-17 09:16:27:108,-0.3844,-0.1027,9.0751,0.0116,-0.0143,9.8066,-0.0229,0.0063,-0.0229,-22.93,13.31,-14.03,210.94,-2.86,-1.51
70236,50.425064,-4.819033,203,11.84,10.0,205.9,Nov-20,6957841,2019-08-17 09:16:27:208,-0.1321,0.1255,9.895,-0.0274,-0.009,9.8066,-0.041,0.018,0.0315,-23.08,13.04,-14.05,210.99,-2.85,-1.61
70237,50.425064,-4.819033,203,11.84,10.0,205.9,Nov-20,6957940,2019-08-17 09:16:27:307,-0.1059,0.2953,9.8302,-0.0147,-0.0024,9.8066,0.0134,-0.0416,0.0123,-22.64,13.56,-14.27,210.99,-2.85,-1.61
70238,50.425064,-4.819033,203,11.84,10.0,205.9,Nov-20,6958041,2019-08-17 09:16:27:408,0.3884,0.1902,10.4854,0.0617,0.0256,9.8064,0.0134,-0.0416,0.0123,-22.93,13.08,-14.25,211.0,-2.93,-1.58
70239,50.425064,-4.819033,203,11.84,10.0,205.9,Nov-20,6958141,2019-08-17 09:16:27:508,0.3292,-0.1048,10.4257,0.0656,0.0513,9.8063,-0.0133,-0.015,0.0166,-22.96,13.54,-13.76,211.0,-2.93,-1.58
70240,50.425064,-4.819033,203,11.84,10.0,205.9,Nov-20,6958241,2019-08-17 09:16:27:608,-0.0859,0.1619,9.7089,0.0017,0.0458,9.8065,0.0464,0.0862,-0.009,-23.08,13.04,-14.05,210.86,-2.78,-1.36
70241,50.425064,-4.819033,203,11.84,10.0,205.9,Nov-20,6958341,2019-08-17 09:16:27:708,-0.4329,0.2862,9.9554,-0.061,-0.0283,9.8064,-0.0122,0.0756,-0.0154,-23.08,13.04,-14.05,210.86,-2.78,-1.36
70242,50.425064,-4.819033,203,11.84,10.0,205.9,Nov-20,6958441,2019-08-17 09:16:27:808,0.1007,0.1785,10.9091,-0.0336,-0.0057,9.8066,0.057,-0.032,-0.0324,-22.99,13.52,-13.74,212.81,-3.17,-1.31
70243,50.425064,-4.819033,203,11.84,10.0,205.9,Nov-20,6958540,2019-08-17 09:16:27:907,0.3335,-0.5536,9.0442,-0.0027,0.0258,9.8066,0.0059,0.0479,-0.0133,-22.99,13.52,-13.74,212.81,-3.17,-1.31
70244,50.424957,-4.819114,203,12.74,10.0,206.1,Nov-20,6958641,2019-08-17 09:16:28:008,0.6278,0.0416,9.794,0.029,0.0338,9.8065,-0.0186,-0.0246,-0.0143,-22.82,13.42,-14.12,210.85,-2.92,-1.24
70245,50.424957,-4.819114,203,12.74,10.0,206.1,Nov-20,6958741,2019-08-17 09:16:28:108,0.8516,-0.2869,10.0698,0.0879,0.0238,9.8062,-0.0005,-0.0416,-0.0314,-22.42,13.29,-14.86,212.02,-2.41,-1.38
70246,50.424957,-4.819114,203,12.74,10.0,206.1,Nov-20,6958841,2019-08-17 09:16:28:208,0.8018,0.1251,9.9085,0.1955,0.0273,9.8047,-0.0005,-0.0416,-0.0314,-22.42,13.29,-14.86,212.02,-2.41,-1.38
70247,50.424957,-4.819114,203,12.74,10.0,206.1,Nov-20,6958941,2019-08-17 09:16:28:308,1.1981,-0.2394,9.8974,0.0726,-0.0385,9.8063,-0.0239,0.0053,-0.0474,-22.18,12.97,-15.48,211.91,-1.36,-1.86
70248,50.424957,-4.819114,203,12.74,10.0,206.1,Nov-20,6959041,2019-08-17 09:16:28:408,1.0334,-0.4363,9.7356,0.1362,-0.0697,9.8055,0.007,0.0212,-0.0612,-21.84,13.46,-15.55,212.23,-0.9,-2.62
70249,50.424957,-4.819114,203,12.74,10.0,206.1,Nov-20,6959141,2019-08-17 09:16:28:508,1.0619,-0.5416,10.7148,0.0556,-0.0233,9.8065,0.0176,0.0436,-0.0782,-21.84,13.46,-15.55,212.23,-0.9,-2.62
70250,50.424957,-4.819114,203,12.74,10.0,206.1,Nov-20,6959241,2019-08-17 09:16:28:608,1.0897,-0.3886,10.4484,0.069,-0.0092,9.8064,0.0592,-0.0182,-0.1006,-22.06,13.59,-15.12,214.04,-0.7,-2.91
70251,50.424957,-4.819114,203,12.74,10.0,206.1,Nov-20,6959341,2019-08-17 09:16:28:708,0.9904,-0.5874,9.6424,0.0417,-0.0175,9.8065,0.0751,0.0212,-0.091,-21.58,14.08,-15.36,214.07,-0.39,-3.18
70252,50.424957,-4.819114,203,12.74,10.0,206.1,Nov-20,6959441,2019-08-17 09:16:28:808,0.4798,-0.6372,10.1136,0.051,-0.0434,9.8064,0.0134,0.0117,-0.0868,-21.69,13.9,-15.37,214.2,-0.29,-3.56
70253,50.424957,-4.819114,203,12.74,10.0,206.1,Nov-20,6959541,2019-08-17 09:16:28:908,0.2114,-0.0305,9.7744,0.0308,-0.0239,9.8066,0.0134,0.0117,-0.0868,-21.69,13.9,-15.37,214.2,-0.29,-3.56
70254,50.42486,-4.819202,203,13.29,9.0,210.2,Nov-20,6959641,2019-08-17 09:16:29:008,0.0851,-0.4264,9.0942,0.06,-0.0342,9.8064,0.0485,0.0244,-0.1145,-21.58,14.89,-14.59,216.04,-0.11,-3.92
70255,50.42486,-4.819202,203,13.29,9.0,210.2,Nov-20,6959741,2019-08-17 09:16:29:108,0.2288,-0.7397,10.0342,0.0661,-0.0582,9.8063,-0.0548,0.0031,-0.1166,-21.58,14.89,-14.59,216.04,-0.11,-3.92
70256,50.42486,-4.819202,203,13.29,9.0,210.2,Nov-20,6959841,2019-08-17 09:16:29:208,0.7862,-1.1798,8.9051,0.1364,-0.0769,9.8054,0.007,0.0053,-0.0953,-21.37,14.32,-15.44,215.74,0.0,-4.42
70257,50.42486,-4.819202,203,13.29,9.0,210.2,Nov-20,6959941,2019-08-17 09:16:29:308,0.2785,0.1164,10.2138,0.0402,0.0109,9.8066,0.0645,0.0255,-0.1262,-21.21,15.36,-14.63,217.72,0.39,-5.25
70258,50.42486,-4.819202,203,13.29,9.0,210.2,Nov-20,6960041,2019-08-17 09:16:29:408,0.2812,-0.6763,9.641,0.0116,-0.0106,9.8066,0.0368,0.0511,-0.0985,-20.51,16.0,-14.93,219.34,0.61,-5.35
70259,50.42486,-4.819202,203,13.29,9.0,210.2,Nov-20,6960141,2019-08-17 09:16:29:508,0.2855,-0.3303,9.9536,0.0028,0.0024,9.8067,0.0911,-0.0011,-0.1155,-20.51,16.0,-14.93,219.34,0.61,-5.35
70260,50.42486,-4.819202,203,13.29,9.0,210.2,Nov-20,6960241,2019-08-17 09:16:29:608,0.1373,-0.317,10.976,-0.0124,0.0189,9.8066,0.0666,0.0191,-0.1347,-20.52,16.43,-14.45,219.19,0.63,-5.34
70261,50.42486,-4.819202,203,13.29,9.0,210.2,Nov-20,6960341,2019-08-17 09:16:29:708,0.2696,-0.4411,9.6097,-0.0212,-0.0171,9.8066,0.0666,0.0191,-0.1347,-20.2,17.01,-14.22,219.19,0.63,-5.34
70262,50.42486,-4.819202,203,13.29,9.0,210.2,Nov-20,6960441,2019-08-17 09:16:29:808,0.2886,-0.6832,9.2326,-0.023,-0.0606,9.8064,0.0261,0.0266,-0.1177,-20.2,17.42,-13.73,222.32,0.3,-5.53
70263,50.42486,-4.819202,203,13.29,9.0,210.2,Nov-20,6960541,2019-08-17 09:16:29:908,0.2149,-0.6125,9.8405,0.0012,-0.0089,9.8066,0.0421,0.0159,-0.1358,-20.2,17.42,-13.73,222.32,0.3,-5.53
70264,50.42486,-4.819202,203,13.29,9.0,210.2,Nov-20,6960640,2019-08-17 09:16:30:007,0.5922,-0.5212,10.1355,0.0322,-0.0473,9.8065,-0.0026,-0.0043,-0.1539,-19.56,18.02,-13.87,223.86,0.27,-5.58
70265,50.424767,-4.819312,203,13.3,10.0,216.8,Nov-20,6960741,2019-08-17 09:16:30:108,0.4597,-0.7308,9.9052,0.0809,-0.1007,9.8058,0.0581,-0.0235,-0.1581,-19.4,18.29,-13.76,223.86,0.27,-5.58
70266,50.424767,-4.819312,203,13.3,10.0,216.8,Nov-20,6960841,2019-08-17 09:16:30:208,0.2523,-0.2761,9.8198,0.1068,-0.1324,9.8052,-0.0058,0.0425,-0.1688,-18.89,18.13,-14.66,225.82,0.19,-6.57
70267,50.424767,-4.819312,203,13.3,10.0,216.8,Nov-20,6960941,2019-08-17 09:16:30:308,0.9688,-1.0243,9.8228,0.0378,-0.0951,9.8061,-0.0197,-0.0192,-0.1539,-18.71,18.78,-14.04,227.31,-0.06,-7.11
70268,50.424767,-4.819312,203,13.3,10.0,216.8,Nov-20,6961041,2019-08-17 09:16:30:408,0.6531,-0.3804,10.0115,0.0669,-0.0767,9.8061,-0.0197,-0.0192,-0.1539,-18.3,19.19,-14.04,227.31,-0.06,-7.11
70269,50.424767,-4.819312,203,13.3,10.0,216.8,Nov-20,6961140,2019-08-17 09:16:30:507,0.2852,-0.2936,10.1955,0.1006,-0.127,9.8053,0.0091,0.0276,-0.1795,-18.3,19.19,-14.04,227.31,-0.06,-7.11
70270,50.424767,-4.819312,203,13.3,10.0,216.8,Nov-20,6961240,2019-08-17 09:16:30:607,0.4419,-0.8743,10.6306,0.1366,-0.1852,9.8039,0.024,0.0266,-0.1752,-17.93,19.26,-14.41,229.29,-0.31,-8.43
70271,50.424767,-4.819312,203,13.3,10.0,216.8,Nov-20,6961340,2019-08-17 09:16:30:707,0.584,-0.4633,10.0021,0.0209,-0.0183,9.8066,0.0421,0.0404,-0.189,-17.69,20.23,-13.33,230.43,-0.31,-8.6
70272,50.424767,-4.819312,203,13.3,10.0,216.8,Nov-20,6961441,2019-08-17 09:16:30:808,0.7327,-0.272,9.5018,0.0236,-0.0952,9.8062,-0.0218,0.0159,-0.1795,-17.69,20.23,-13.33,230.43,-0.31,-8.6
70273,50.424767,-4.819312,203,13.3,10.0,216.8,Nov-20,6961541,2019-08-17 09:16:30:908,0.4733,-0.0645,9.2495,0.0207,0.0014,9.8066,-0.0016,-0.0118,-0.1656,-17.16,20.58,-13.49,233.45,-0.65,-9.06
70274,50.424767,-4.819312,203,13.3,10.0,216.8,Nov-20,6961641,2019-08-17 09:16:31:008,0.1444,0.1427,10.2029,0.0342,0.0148,9.8066,-0.009,-0.0118,-0.1656,-16.6,21.24,-13.16,233.45,-0.57,-9.15
70275,50.42467,-4.819438,203,13.58,9.0,226.9,Nov-20,6961741,2019-08-17 09:16:31:108,0.8145,0.0051,10.0429,0.0859,-0.0076,9.8063,-0.0111,0.0149,-0.1624,-16.36,20.93,-13.94,233.45,-0.57,-9.15
70276,50.42467,-4.819438,203,13.58,9.0,226.9,Nov-20,6961841,2019-08-17 09:16:31:208,0.4598,0.6141,10.9483,0.112,-0.027,9.806,-0.0122,0.0191,-0.1475,-15.86,21.66,-13.39,236.27,-0.31,-9.77
70277,50.42467,-4.819438,203,13.58,9.0,226.9,Nov-20,6961941,2019-08-17 09:16:31:308,-0.0419,0.3543,10.2906,0.0016,-0.0212,9.8066,-0.0122,0.0191,-0.1475,-15.86,21.66,-13.39,236.27,-0.31,-9.77
70278,50.42467,-4.819438,203,13.58,9.0,226.9,Nov-20,6962040,2019-08-17 09:16:31:407,-0.4377,-0.3209,11.1444,-0.0067,-0.0557,9.8065,-0.0591,0.0255,-0.1645,-15.75,21.5,-13.77,236.51,-0.41,-9.85
70279,50.42467,-4.819438,203,13.58,9.0,226.9,Nov-20,6962141,2019-08-17 09:16:31:508,0.3814,0.0267,9.4257,-0.0003,-0.1242,9.8059,-0.0047,0.0905,-0.1763,-15.52,22.16,-12.96,236.51,-0.41,-9.85
70280,50.42467,-4.819438,203,13.58,9.0,226.9,Nov-20,6962242,2019-08-17 09:16:31:609,-0.2735,0.7741,11.0113,0.0166,-0.0373,9.8066,-0.0388,0.0457,-0.1571,-14.99,22.0,-13.83,238.45,-1.01,-10.24
70281,50.42467,-4.819438,203,13.58,9.0,226.9,Nov-20,6962341,2019-08-17 09:16:31:708,0.6369,-0.3431,9.4218,0.0586,-0.0518,9.8063,0.0198,-0.0118,-0.1486,-14.84,22.19,-13.69,238.45,-1.01,-10.24
70282,50.42467,-4.819438,203,13.58,9.0,226.9,Nov-20,6962441,2019-08-17 09:16:31:808,-0.5312,0.295,10.2654,0.0304,-0.015,9.8066,-0.0079,0.018,-0.1677,-14.54,22.36,-13.73,238.48,-0.87,-10.71
70283,50.42467,-4.819438,203,13.58,9.0,226.9,Nov-20,6962541,2019-08-17 09:16:31:908,0.4546,0.2119,9.9054,0.029,-0.0325,9.8066,0.0144,0.0639,-0.1731,-13.98,23.05,-13.16,241.02,-0.85,-10.9
70284,50.42459,-4.819582,204,13.88,9.0,236.1,Nov-20,6962641,2019-08-17 09:16:32:008,0.2712,0.083,10.4259,0.0236,-0.0214,9.8066,-0.0346,0.001,-0.1528,-13.98,23.05,-13.16,241.02,-0.85,-10.9
70285,50.42459,-4.819582,204,13.88,9.0,236.1,Nov-20,6962741,2019-08-17 09:16:32:108,0.0415,0.3895,10.1422,-0.0076,-0.0184,9.8066,-0.0346,0.001,-0.1528,-12.87,22.99,-14.35,243.03,-0.9,-11.08
70286,50.42459,-4.819582,204,13.88,9.0,236.1,Nov-20,6962841,2019-08-17 09:16:32:208,0.1688,0.2684,10.076,-0.0383,-0.0294,9.8065,-0.0079,0.1001,-0.1496,-13.3,23.03,-13.88,243.1,-1.15,-10.96
70287,50.42459,-4.819582,204,13.88,9.0,236.1,Nov-20,6962941,2019-08-17 09:16:32:308,-0.1413,0.268,10.0599,-0.0539,-0.0087,9.8065,0.0379,0.0702,-0.156,-13.3,23.03,-13.88,243.1,-1.15,-10.96
70288,50.42459,-4.819582,204,13.88,9.0,236.1,Nov-20,6963041,2019-08-17 09:16:32:408,-0.395,0.3738,10.1095,-0.0969,-0.0263,9.8061,0.0102,0.0138,-0.1273,-12.66,23.59,-13.53,244.02,-1.54,-10.53
70289,50.42459,-4.819582,204,13.88,9.0,236.1,Nov-20,6963141,2019-08-17 09:16:32:508,-0.7406,0.5987,9.9217,-0.0408,0.0138,9.8066,0.0027,0.0234,-0.1219,-12.52,23.75,-13.38,243.8,-1.58,-10.28
70290,50.42459,-4.819582,204,13.88,9.0,236.1,Nov-20,6963241,2019-08-17 09:16:32:608,-0.5763,0.3831,10.0221,-0.0405,0.0253,9.8065,0.0038,-0.0267,-0.1166,-11.65,24.48,-12.84,243.8,-1.58,-10.28
70291,50.42459,-4.819582,204,13.88,9.0,236.1,Nov-20,6963341,2019-08-17 09:16:32:708,-0.4968,0.843,9.3912,-0.0552,0.0626,9.8063,-0.0303,-0.0768,-0.1219,-11.65,24.48,-12.84,243.8,-1.58,-10.28
70292,50.42459,-4.819582,204,13.88,9.0,236.1,Nov-20,6963440,2019-08-17 09:16:32:807,-0.2155,0.5685,9.4728,0.0451,0.1081,9.806,-0.0303,-0.0768,-0.1219,-11.66,24.51,-12.79,246.3,-1.39,-9.83
70293,50.42459,-4.819582,204,13.88,9.0,236.1,Nov-20,6963541,2019-08-17 09:16:32:908,-0.4009,0.716,9.8975,0.0245,0.0245,9.8066,-0.0048,-0.0235,-0.1379,-11.34,24.3,-13.45,247.16,-0.71,-9.81
70294,50.42452,-4.819736,205,14.25,9.0,243.6,Nov-20,6963641,2019-08-17 09:16:33:008,-0.2363,0.2722,10.1153,-0.0105,-0.0058,9.8066,-0.0218,0.0447,-0.1219,-10.43,24.53,-13.77,249.86,-0.52,-9.89
70295,50.42452,-4.819736,205,14.25,9.0,243.6,Nov-20,6963741,2019-08-17 09:16:33:108,-0.5114,0.4498,10.4101,-0.0278,-0.0492,9.8065,-0.0037,0.0479,-0.1507,-10.27,24.16,-14.51,249.86,-0.52,-9.89
70296,50.42452,-4.819736,205,14.25,9.0,243.6,Nov-20,6963840,2019-08-17 09:16:33:207,0.2501,-0.1337,10.5463,-0.042,-0.0917,9.8061,-0.0133,0.0649,-0.1464,-10.17,24.48,-14.05,249.36,-1.11,-9.85
70297,50.42452,-4.819736,205,14.25,9.0,243.6,Nov-20,6963941,2019-08-17 09:16:33:308,0.0565,-0.0465,10.0182,0.0053,-0.0528,9.8065,-0.008,0.0426,-0.1613,-10.17,24.48,-14.05,249.36,-1.11,-9.85
70298,50.42452,-4.819736,205,14.25,9.0,243.6,Nov-20,6964041,2019-08-17 09:16:33:408,-0.037,-0.0621,10.5856,0.0146,-0.045,9.8065,-0.0452,0.033,-0.1603,-10.29,24.37,-14.15,249.46,-1.38,-9.98
70299,50.42452,-4.819736,205,14.25,9.0,243.6,Nov-20,6964140,2019-08-17 09:16:33:507,0.4076,0.1667,10.2908,0.0583,-0.0608,9.8063,-0.0591,-0.0246,-0.1528,-9.4,24.76,-14.09,252.14,-1.6,-10.43
70300,50.42452,-4.819736,205,14.25,9.0,243.6,Nov-20,6964241,2019-08-17 09:16:33:608,0.6156,0.4691,10.1347,0.0457,0.0186,9.8065,-0.0591,-0.0246,-0.1528,-8.74,24.81,-14.43,252.1,-1.41,-10.65
70301,50.42452,-4.819736,205,14.25,9.0,243.6,Nov-20,6964341,2019-08-17 09:16:33:708,0.3868,0.648,10.0258,0.039,0.028,9.8065,0.0048,-0.0299,-0.1624,-8.74,24.81,-14.43,252.1,-1.41,-10.65
70302,50.42452,-4.819736,205,14.25,9.0,243.6,Nov-20,6964441,2019-08-17 09:16:33:808,0.2,0.5146,9.9322,0.0013,0.0279,9.8066,0.0304,0.001,-0.1667,-8.2,25.08,-14.27,253.93,-1.02,-10.92
70303,50.42452,-4.819736,205,14.25,9.0,243.6,Nov-20,6964542,2019-08-17 09:16:33:909,0.3441,0.2622,9.6839,-0.0066,0.0046,9.8066,0.0197,0.0095,-0.1592,-7.79,25.07,-14.52,254.01,-0.87,-10.89
70304,50.42452,-4.819736,205,14.25,9.0,243.6,Nov-20,6964641,2019-08-17 09:16:34:008,-0.2338,0.5797,10.2615,-0.0192,-0.0237,9.8066,-0.009,0.0468,-0.1454,-7.55,25.23,-14.36,254.01,-0.87,-10.89
70305,50.424465,-4.819912,205,14.55,9.0,251.8,Nov-20,6964741,2019-08-17 09:16:34:108,-0.2617,-0.0231,9.7895,-0.0272,-0.0486,9.8065,-0.0069,0.0543,-0.1581,-7.55,25.23,-14.36,254.01,-0.87,-10.89
70306,50.424465,-4.819912,205,14.55,9.0,251.8,Nov-20,6964840,2019-08-17 09:16:34:207,-0.6625,-0.0152,10.2637,0.0089,-0.0398,9.8066,-0.0708,0.0287,-0.1549,-7.44,25.66,-13.65,256.4,-1.18,-10.81
70307,50.424465,-4.819912,205,14.55,9.0,251.8,Nov-20,6964941,2019-08-17 09:16:34:308,-0.1976,-0.2011,9.8823,0.0275,-0.0235,9.8066,-0.0388,-0.0192,-0.1571,-7.16,25.32,-14.41,256.01,-1.4,-10.92
70308,50.424465,-4.819912,205,14.55,9.0,251.8,Nov-20,6965041,2019-08-17 09:16:34:408,-0.2111,-0.0334,9.6828,0.062,-0.0267,9.8064,-0.0111,0.0031,-0.1592,-6.24,25.4,-14.7,258.18,-1.46,-11.31
70309,50.424465,-4.819912,205,14.55,9.0,251.8,Nov-20,6965141,2019-08-17 09:16:34:508,-0.1693,0.2363,9.7108,0.0186,0.0172,9.8066,-0.0111,0.0031,-0.1592,-6.24,25.4,-14.7,258.18,-1.46,-11.31
70310,50.424465,-4.819912,205,14.55,9.0,251.8,Nov-20,6965241,2019-08-17 09:16:34:608,0.0868,0.0189,10.005,0.0306,0.043,9.8065,0.0059,-0.0235,-0.1528,-5.5,25.42,-14.96,258.18,-1.46,-11.31
70311,50.424465,-4.819912,205,14.55,9.0,251.8,Nov-20,6965341,2019-08-17 09:16:34:708,-0.3577,0.6493,10.075,0.0247,0.0692,9.8064,-0.0261,0.0298,-0.1454,-5.55,25.62,-14.58,258.43,-1.03,-11.36
70312,50.424465,-4.819912,205,14.55,9.0,251.8,Nov-20,6965441,2019-08-17 09:16:34:808,0.007,0.197,9.6565,-0.0036,0.0006,9.8067,-0.057,-0.0086,-0.1358,-4.62,25.65,-14.85,260.37,-1.04,-11.34
70313,50.424465,-4.819912,205,14.55,9.0,251.8,Nov-20,6965542,2019-08-17 09:16:34:909,-0.5393,0.3877,10.6216,-0.003,-0.0284,9.8066,-0.0346,0.0916,-0.1315,-4.36,25.03,-15.96,260.37,-1.04,-11.34
70314,50.42443,-4.820108,205,14.83,9.0,260.0,Nov-20,6965641,2019-08-17 09:16:35:008,-0.4336,-0.1343,10.5544,-0.0264,-0.118,9.8059,-0.025,0.0511,-0.1411,-4.36,25.03,-15.96,260.37,-1.04,-11.34
70315,50.42443,-4.820108,205,14.83,9.0,260.0,Nov-20,6965741,2019-08-17 09:16:35:108,-0.0854,-0.3226,9.1898,0.0004,-0.0545,9.8065,-0.0431,-0.0001,-0.1347,-3.59,24.9,-16.35,262.44,-1.74,-11.31
70316,50.42443,-4.820108,205,14.83,9.0,260.0,Nov-20,6965841,2019-08-17 09:16:35:208,-0.4553,0.1987,10.2942,0.0051,-0.0213,9.8066,-0.0357,-0.0256,-0.1379,-3.65,25.32,-15.66,262.56,-2.06,-11.35
70317,50.42443,-4.820108,205,14.83,9.0,260.0,Nov-20,6965941,2019-08-17 09:16:35:308,-0.205,-0.2281,8.8548,-0.0025,0.0164,9.8066,-0.0357,-0.0256,-0.1379,-3.21,25.15,-16.04,264.65,-2.18,-11.4
70318,50.42443,-4.820108,205,14.83,9.0,260.0,Nov-20,6966041,2019-08-17 09:16:35:408,-0.3933,0.1377,9.7404,0.0079,0.0471,9.8065,-0.0357,-0.0757,-0.1475,-3.21,25.15,-16.04,264.65,-2.18,-11.4
70319,50.42443,-4.820108,205,14.83,9.0,260.0,Nov-20,6966140,2019-08-17 09:16:35:507,0.0698,0.097,9.6319,0.0246,0.0269,9.8066,-0.0495,-0.0065,-0.1262,-3.25,25.06,-16.17,264.54,-1.9,-11.42
70320,50.42443,-4.820108,205,14.83,9.0,260.0,Nov-20,6966241,2019-08-17 09:16:35:608,-0.8008,0.0962,10.4969,0.0269,0.038,9.8065,-0.0367,-0.016,-0.1166,-2.02,25.34,-15.93,266.51,-1.66,-11.55
70321,50.42443,-4.820108,205,14.83,9.0,260.0,Nov-20,6966341,2019-08-17 09:16:35:708,-0.3529,0.017,9.1265,0.0105,0.0074,9.8066,-0.0261,-0.0043,-0.1049,-2.02,25.34,-15.93,266.51,-1.66,-11.55
70322,50.42443,-4.820108,205,14.83,9.0,260.0,Nov-20,6966441,2019-08-17 09:16:35:808,-0.71,-0.0469,9.7877,-0.0195,0.0128,9.8066,-0.0207,0.0308,-0.0996,-1.61,25.04,-16.44,266.49,-1.61,-11.61
70323,50.42443,-4.820108,205,14.83,9.0,260.0,Nov-20,6966541,2019-08-17 09:16:35:908,-0.9869,-0.1238,10.0709,-0.0457,-0.0104,9.8065,-0.0143,0.0905,-0.1017,-1.61,25.04,-16.44,266.52,-1.69,-11.35
70324,50.42442,-4.820334,205,15.15,10.0,267.5,Nov-20,6966641,2019-08-17 09:16:36:008,-0.8985,0.2047,10.3964,-0.0376,-0.0165,9.8066,-0.0602,-0.0043,-0.0782,-1.64,25.49,-15.73,266.57,-1.8,-11.13
70325,50.42442,-4.820334,205,15.15,10.0,267.5,Nov-20,6966741,2019-08-17 09:16:36:108,-0.7208,-0.0252,9.9883,-0.0295,-0.0002,9.8066,-0.0602,-0.0043,-0.0782,-1.64,25.49,-15.73,266.57,-1.8,-11.13
70326,50.42442,-4.820334,205,15.15,10.0,267.5,Nov-20,6966841,2019-08-17 09:16:36:208,-0.7522,-0.1321,9.183,-0.0333,-0.0016,9.8066,-0.0303,-0.016,-0.0729,-0.34,25.27,-16.16,270.69,-1.7,-10.68
70327,50.42442,-4.820334,205,15.15,10.0,267.5,Nov-20,6966941,2019-08-17 09:16:36:308,-0.6773,-0.1631,9.7264,-0.04,-0.0032,9.8066,-0.0452,0.0383,-0.0974,0.45,25.53,-15.75,270.66,-1.72,-10.45
70328,50.42442,-4.820334,205,15.15,10.0,267.5,Nov-20,6967041,2019-08-17 09:16:36:408,-0.554,0.0721,9.5122,-0.0087,0.0332,9.8066,-0.0293,0.001,-0.0814,0.45,25.53,-15.75,270.66,-1.72,-10.45
70329,50.42442,-4.820334,205,15.15,10.0,267.5,Nov-20,6967141,2019-08-17 09:16:36:508,-0.6364,-0.1179,9.3719,-0.0268,0.0341,9.8066,-0.0357,-0.0565,-0.0569,-0.34,25.65,-15.56,270.59,-1.52,-10.4
70330,50.42442,-4.820334,205,15.15,10.0,267.5,Nov-20,6967241,2019-08-17 09:16:36:608,-0.7725,-0.1266,9.1457,-0.0611,0.0468,9.8064,-0.0388,-0.0203,-0.0729,-0.34,25.43,-15.92,270.59,-1.52,-10.4
70331,50.42442,-4.820334,205,15.15,10.0,267.5,Nov-20,6967341,2019-08-17 09:16:36:708,-0.954,0.016,10.0437,-0.0236,-0.0068,9.8066,-0.0165,0.0575,-0.0687,0.08,25.08,-16.46,270.52,-1.25,-10.04
70332,50.42442,-4.820334,205,15.15,10.0,267.5,Nov-20,6967441,2019-08-17 09:16:36:808,-0.3629,-0.0629,9.6536,-0.0761,-0.0175,9.8063,-0.0261,-0.0267,-0.0474,0.45,25.14,-16.36,270.57,-1.34,-9.6
70333,50.42442,-4.820334,205,15.15,10.0,267.5,Nov-20,6967542,2019-08-17 09:16:36:909,-0.8833,-0.0306,9.6679,-0.0544,0.0118,9.8065,-0.0431,-0.0192,-0.0442,0.45,25.14,-16.36,270.57,-1.34,-9.6
70334,50.42443,-4.820545,205,15.34,10.0,272.5,Nov-20,6967643,2019-08-17 09:16:37:010,-0.7175,-0.0065,9.2532,-0.0378,0.0199,9.8066,-0.0431,-0.0192,-0.0442,0.24,24.62,-17.14,270.59,-1.27,-9.28
70335,50.42443,-4.820545,205,15.34,10.0,272.5,Nov-20,6967741,2019-08-17 09:16:37:108,-0.7545,-0.4087,9.4251,-0.0705,0.0017,9.8064,-0.0207,0.0074,-0.0292,1.97,24.27,-17.52,274.9,-1.11,-8.85
70336,50.42443,-4.820545,205,15.34,10.0,272.5,Nov-20,6967841,2019-08-17 09:16:37:208,-1.2278,0.1778,9.5883,-0.1631,0.0386,9.8052,-0.0197,-0.0214,-0.041,1.97,24.27,-17.52,274.9,-1.11,-8.85
70337,50.42443,-4.820545,205,15.34,10.0,272.5,Nov-20,6967941,2019-08-17 09:16:37:308,-1.1473,0.2506,10.1856,-0.0906,0.0281,9.8062,-0.0048,-0.0192,-0.0069,1.91,24.33,-17.44,274.79,-0.8,-7.92
70338,50.42443,-4.820545,205,15.34,10.0,272.5,Nov-20,6968041,2019-08-17 09:16:37:408,-1.1602,-0.2691,10.0804,-0.1962,-0.003,9.8047,0.0059,0.0425,-0.0079,1.47,24.35,-17.46,272.61,-0.72,-6.77
70339,50.42443,-4.820545,205,15.34,10.0,272.5,Nov-20,6968141,2019-08-17 09:16:37:508,-1.0577,-0.0068,10.2963,-0.0921,-0.0678,9.806,0.0176,0.1384,-0.0079,1.47,24.35,-17.46,272.61,-0.72,-6.77
70340,50.42443,-4.820545,205,15.34,10.0,272.5,Nov-20,6968242,2019-08-17 09:16:37:609,-1.5844,-0.6743,11.2093,-0.1111,-0.0379,9.8059,-0.0112,0.0852,-0.0495,0.24,24.38,-17.48,270.61,-1.1,-6.22
70341,50.42443,-4.820545,205,15.34,10.0,272.5,Nov-20,6968341,2019-08-17 09:16:37:708,-0.0288,-0.2464,9.4659,-0.0647,-0.0301,9.8064,-0.0676,-0.1151,0.0528,0.24,24.71,-17.02,270.72,-1.31,-5.57
70342,50.42443,-4.820545,205,15.34,10.0,272.5,Nov-20,6968441,2019-08-17 09:16:37:808,-0.8374,0.3941,9.7265,-0.1168,0.0555,9.8058,-0.0921,-0.1226,0.0272,0.17,24.47,-17.36,270.72,-1.31,-5.57
70343,50.42443,-4.820545,205,15.34,10.0,272.5,Nov-20,6968541,2019-08-17 09:16:37:908,-1.0826,0.4525,8.8128,-0.1547,0.1872,9.8036,-0.0921,-0.1226,0.0272,1.49,24.53,-17.2,272.29,-0.21,-4.68
70344,50.424423,-4.820774,205,15.75,10.0,273.0,Nov-20,6968642,2019-08-17 09:16:38:009,-0.8518,0.2765,9.9224,-0.1493,0.0867,9.8051,0.0208,-0.0768,-0.0047,1.91,24.24,-17.57,272.29,-0.21,-4.68
70345,50.424423,-4.820774,205,15.75,10.0,273.0,Nov-20,6968740,2019-08-17 09:16:38:107,-0.5939,0.0468,10.2385,-0.1767,0.0414,9.805,-0.0144,0.0276,-0.0058,1.48,23.86,-18.12,272.23,0.08,-3.65
70346,50.424423,-4.820774,205,15.75,10.0,273.0,Nov-20,6968841,2019-08-17 09:16:38:208,-0.4775,-0.4722,10.7182,-0.0495,-0.1267,9.8057,0.0091,0.1768,0.008,1.48,23.86,-18.12,272.23,0.08,-3.65
70347,50.424423,-4.820774,205,15.75,10.0,273.0,Nov-20,6968941,2019-08-17 09:16:38:308,-0.7718,-0.2451,10.2036,-0.0605,-0.035,9.8064,0.007,0.0117,0.0016,0.6,24.67,-17.06,272.6,-0.65,-3.34
70348,50.424423,-4.820774,205,15.75,10.0,273.0,Nov-20,6969041,2019-08-17 09:16:38:408,-0.2827,0.1116,8.9002,-0.0399,0.054,9.8064,-0.0101,-0.0608,-0.0175,0.6,24.63,-17.11,272.72,-0.84,-2.97
70349,50.424423,-4.820774,205,15.75,10.0,273.0,Nov-20,6969141,2019-08-17 09:16:38:508,-0.1096,0.2178,9.0673,-0.0662,0.0961,9.806,-0.0239,-0.0331,0.0059,0.6,24.63,-17.11,272.72,-0.84,-2.97
70350,50.424423,-4.820774,205,15.75,10.0,273.0,Nov-20,6969241,2019-08-17 09:16:38:608,-0.0565,0.2233,9.5121,-0.0053,0.0618,9.8065,0.0208,-0.048,0.0176,0.6,24.25,-17.65,272.49,-0.26,-2.61
70351,50.424423,-4.820774,205,15.75,10.0,273.0,Nov-20,6969342,2019-08-17 09:16:38:709,0.0337,0.4746,9.0831,-0.0383,0.1329,9.8057,0.0208,-0.048,0.0176,1.47,24.22,-17.64,271.95,0.53,-2.42
70352,50.424423,-4.820774,205,15.75,10.0,273.0,Nov-20,6969441,2019-08-17 09:16:38:808,0.2434,0.3442,9.6733,-0.0734,0.1176,9.8057,-0.0143,-0.1279,0.0016,1.47,24.22,-17.64,271.95,0.53,-2.42
70353,50.424423,-4.820774,205,15.75,10.0,273.0,Nov-20,6969541,2019-08-17 09:16:38:908,-0.3998,0.1189,8.614,-0.0402,-0.0112,9.8066,0.0602,0.0756,-0.025,1.47,24.19,-17.68,271.23,1.56,-1.79
70354,50.424446,-4.820983,205,15.99,10.0,273.4,Nov-21,6969642,2019-08-17 09:16:39:009,-0.5454,-0.0061,10.6647,-0.0367,-0.0051,9.8066,-0.0207,0.0202,0.0166,1.47,23.79,-18.22,271.27,1.5,-1.55
70355,50.424446,-4.820983,205,15.99,10.0,273.4,Nov-21,6969740,2019-08-17 09:16:39:107,-0.2037,-0.3913,10.1888,-0.0606,-0.0582,9.8063,0.0144,0.0809,0.0027,0.61,24.02,-17.96,271.29,1.48,-1.34
70356,50.424446,-4.820983,205,15.99,10.0,273.4,Nov-21,6969841,2019-08-17 09:16:39:208,0.1796,-0.3895,9.659,-0.0824,-0.0997,9.8058,-0.0175,0.0468,-0.0165,0.61,24.02,-17.96,271.29,1.48,-1.34
70357,50.424446,-4.820983,205,15.99,10.0,273.4,Nov-21,6969941,2019-08-17 09:16:39:308,-0.0098,-0.5747,9.6449,-0.0069,0.0055,9.8066,-0.0474,-0.0054,0.007,1.03,24.17,-17.74,271.7,0.91,-0.84
70358,50.424446,-4.820983,205,15.99,10.0,273.4,Nov-21,6970041,2019-08-17 09:16:39:408,0.2207,0.4116,9.6288,-0.0189,0.0228,9.8066,0.0155,-0.0885,0.0219,1.04,23.98,-18.0,271.6,1.04,-0.74
70359,50.424446,-4.820983,205,15.99,10.0,273.4,Nov-21,6970141,2019-08-17 09:16:39:508,-0.124,0.1168,9.7973,-0.0456,0.1107,9.8059,0.0155,-0.0885,0.0219,1.04,23.98,-18.0,271.6,1.04,-0.74
70360,50.424446,-4.820983,205,15.99,10.0,273.4,Nov-21,6970241,2019-08-17 09:16:39:608,-0.0011,-0.137,8.8288,-0.0396,0.0714,9.8063,0.0006,-0.0437,-0.0079,1.48,23.97,-17.98,271.12,1.7,-0.49
70361,50.424446,-4.820983,205,15.99,10.0,273.4,Nov-21,6970341,2019-08-17 09:16:39:708,0.5231,0.0319,9.5665,-0.0362,0.061,9.8064,-0.0346,0.0585,0.0187,1.47,23.31,-18.83,270.8,2.06,-0.28
70362,50.424446,-4.820983,205,15.99,10.0,273.4,Nov-21,6970441,2019-08-17 09:16:39:808,-0.0966,0.0038,10.5635,-0.0117,-0.0242,9.8066,0.0133,0.0436,0.008,1.48,23.56,-18.52,270.8,2.06,-0.28
70363,50.424446,-4.820983,205,15.99,10.0,273.4,Nov-21,6970541,2019-08-17 09:16:39:908,0.1096,0.0036,9.0884,-0.037,0.0253,9.8065,-0.0048,-0.0033,0.0219,1.48,23.97,-17.98,270.98,1.88,-0.05
70364,50.424458,-4.821222,205,16.12,10.0,273.1,Nov-21,6970641,2019-08-17 09:16:40:008,-0.077,-0.2366,9.0921,-0.0616,0.0266,9.8064,0.024,0.0276,0.0102,1.48,23.97,-17.98,270.98,1.88,-0.05
70365,50.424458,-4.821222,205,16.12,10.0,273.1,Nov-21,6970741,2019-08-17 09:16:40:108,-0.2239,-0.2387,9.863,-0.0121,-0.0108,9.8066,0.0027,0.0095,0.0091,1.44,23.17,-19.0,270.8,2.04,0.31
70366,50.424458,-4.821222,205,16.12,10.0,273.1,Nov-21,6970841,2019-08-17 09:16:40:208,0.1584,-0.1591,9.6988,-0.018,0.0275,9.8066,0.0027,0.0095,0.0091,1.47,22.85,-19.39,270.85,1.98,0.38
70367,50.424458,-4.821222,205,16.12,10.0,273.1,Nov-21,6970941,2019-08-17 09:16:40:308,0.235,0.2831,9.2688,-0.0351,0.0733,9.8063,0.0336,-0.0118,-0.0058,1.47,22.85,-19.39,270.85,1.98,0.38
70368,50.424458,-4.821222,205,16.12,10.0,273.1,Nov-21,6971041,2019-08-17 09:16:40:408,0.4066,0.0016,9.6124,-0.0037,0.0338,9.8066,-0.042,-0.0512,0.008,1.48,23.46,-18.64,270.48,2.41,0.58
70369,50.424458,-4.821222,205,16.12,10.0,273.1,Nov-21,6971141,2019-08-17 09:16:40:508,0.2021,-0.3036,9.8789,-0.0225,0.016,9.8066,0.0474,0.066,0.0112,1.48,23.46,-18.64,270.39,2.5,0.71
70370,50.424458,-4.821222,205,16.12,10.0,273.1,Nov-21,6971241,2019-08-17 09:16:40:608,0.443,-0.3011,10.4787,-0.0282,0.0027,9.8066,0.0272,-0.0022,0.0176,1.48,23.46,-18.64,270.39,2.5,0.71
70371,50.424458,-4.821222,205,16.12,10.0,273.1,Nov-21,6971340,2019-08-17 09:16:40:707,-0.0402,-0.5223,10.1118,-0.0284,0.0096,9.8066,0.024,0.0489,0.0123,1.45,22.96,-19.25,270.37,2.52,0.88
70372,50.424458,-4.821222,205,16.12,10.0,273.1,Nov-21,6971442,2019-08-17 09:16:40:809,0.1221,-0.3207,10.2902,-0.0388,-0.0226,9.8065,-0.0239,0.0553,-0.0037,1.02,23.36,-18.8,270.48,2.39,1.1
70373,50.424458,-4.821222,205,16.12,10.0,273.1,Nov-21,6971541,2019-08-17 09:16:40:908,0.8024,0.009,10.2512,0.0037,-0.0171,9.8066,-0.0239,0.0553,-0.0037,1.02,23.36,-18.8,270.48,2.39,1.1
70374,50.424458,-4.821222,205,16.12,10.0,273.1,Nov-21,6971641,2019-08-17 09:16:41:008,0.4358,-0.2743,9.3938,0.0344,-0.0166,9.8066,-0.0378,-0.0874,-0.0218,1.01,23.15,-19.05,270.57,2.29,0.9
70375,50.42447,-4.821447,205,16.29,10.0,272.6,Nov-21,6971740,2019-08-17 09:16:41:107,0.0934,-0.6788,10.4105,0.0191,0.0168,9.8066,0.0208,-0.0299,0.0166,1.46,23.59,-18.48,270.57,2.39,0.79
70376,50.42447,-4.821447,205,16.29,10.0,272.6,Nov-21,6971841,2019-08-17 09:16:41:208,0.02,0.1054,9.6143,-0.0131,-0.0029,9.8066,0.0219,0.0117,0.0016,1.46,23.59,-18.48,270.57,2.39,0.79
70377,50.42447,-4.821447,205,16.29,10.0,272.6,Nov-21,6971941,2019-08-17 09:16:41:308,-0.0878,-0.3749,10.8683,-0.0191,0.0109,9.8066,0.0134,-0.0192,0.0123,1.44,23.14,-19.04,270.48,2.4,0.85
70378,50.42447,-4.821447,205,16.29,10.0,272.6,Nov-21,6972041,2019-08-17 09:16:41:408,-0.0091,-0.2639,9.3638,-0.0074,-0.0164,9.8066,-0.0175,0.018,0.0059,1.02,23.39,-18.75,270.42,2.47,0.96
70379,50.42447,-4.821447,205,16.29,10.0,272.6,Nov-21,6972141,2019-08-17 09:16:41:508,0.4595,-0.1561,9.9769,-0.0026,-0.0177,9.8066,-0.0069,-0.0128,0.007,1.47,23.62,-18.43,270.58,2.36,0.97
70380,50.42447,-4.821447,205,16.29,10.0,272.6,Nov-21,6972241,2019-08-17 09:16:41:608,0.1203,-0.5942,10.0776,0.0059,-0.0005,9.8066,0.008,-0.0054,0.0038,1.47,23.62,-18.43,270.58,2.36,0.97
70381,50.42447,-4.821447,205,16.29,10.0,272.6,Nov-21,6972341,2019-08-17 09:16:41:708,0.4076,-0.1031,9.0274,0.0048,-0.001,9.8066,0.008,-0.0054,0.0038,1.47,23.62,-18.43,270.59,2.36,0.94
70382,50.42447,-4.821447,205,16.29,10.0,272.6,Nov-21,6972442,2019-08-17 09:16:41:809,0.561,0.2537,8.6096,0.0018,-0.0011,9.8067,0.0006,-0.048,0.0187,1.47,23.62,-18.43,270.59,2.36,0.94
70383,50.42447,-4.821447,205,16.29,10.0,272.6,Nov-21,6972541,2019-08-17 09:16:41:908,0.0667,-0.1942,9.4684,-0.0259,-0.0117,9.8066,0.0229,0.033,0.0176,1.03,23.64,-18.44,270.59,2.35,0.93
70384,50.424496,-4.821674,203,16.4,10.0,272.6,Nov-21,6972641,2019-08-17 09:16:42:008,-0.2031,-0.5114,9.5917,-0.0293,-0.0277,9.8066,0.0347,0.034,-0.0026,1.47,23.62,-18.43,270.71,2.19,1.1
70385,50.424496,-4.821674,203,16.4,10.0,272.6,Nov-21,6972741,2019-08-17 09:16:42:108,0.1386,-0.3305,10.3691,-0.011,-0.0047,9.8066,0.0187,0.0234,0.0134,1.47,23.62,-18.43,270.71,2.19,1.1
70386,50.424496,-4.821674,203,16.4,10.0,272.6,Nov-21,6972841,2019-08-17 09:16:42:208,0.0684,-0.1729,9.9545,-0.0145,0.0053,9.8066,-0.0101,-0.0097,0.0198,1.03,23.64,-18.44,270.73,2.17,1.17
70387,50.424496,-4.821674,203,16.4,10.0,272.6,Nov-21,6972941,2019-08-17 09:16:42:308,-0.0504,-0.0664,10.0549,-0.0032,0.0078,9.8066,0.0187,-0.0107,0.0027,0.59,23.19,-19.02,270.64,2.2,1.25
70388,50.424496,-4.821674,203,16.4,10.0,272.6,Nov-21,6973040,2019-08-17 09:16:42:407,0.409,-0.2573,9.9714,0.0029,0.0013,9.8067,0.0197,0.0553,-0.0026,1.05,23.92,-18.08,270.64,2.2,1.25
70389,50.424496,-4.821674,203,16.4,10.0,272.6,Nov-21,6973141,2019-08-17 09:16:42:508,0.3374,0.2061,9.3483,-0.008,-0.015,9.8066,0.0197,0.0553,-0.0026,1.02,23.8,-18.24,270.7,2.21,1.23
70390,50.424496,-4.821674,203,16.4,10.0,272.6,Nov-21,6973241,2019-08-17 09:16:42:608,0.2973,-0.2067,9.8029,-0.0081,-0.039,9.8066,0.0112,0.0266,0.0038,0.6,24.09,-17.88,270.87,1.98,1.28
70391,50.424496,-4.821674,203,16.4,10.0,272.6,Nov-21,6973340,2019-08-17 09:16:42:707,0.5054,-0.0722,10.0539,0.0079,-0.0235,9.8066,-0.0026,-0.0097,0.0038,1.03,23.67,-18.4,270.87,1.98,1.28
70392,50.424496,-4.821674,203,16.4,10.0,272.6,Nov-21,6973441,2019-08-17 09:16:42:808,0.337,-0.0902,9.4941,0.0156,-0.0272,9.8066,0.0155,0.001,0.0059,1.03,23.67,-18.4,270.87,1.98,1.28
70393,50.424496,-4.821674,203,16.4,10.0,272.6,Nov-21,6973540,2019-08-17 09:16:42:907,0.5814,-0.0536,9.5698,0.0126,-0.0015,9.8066,0.0016,-0.0203,0.0059,1.01,23.99,-17.99,271.0,1.82,1.19
70394,50.42448,-4.821917,204,16.58,10.0,271.6,Nov-21,6973641,2019-08-17 09:16:43:008,-0.1605,-0.2475,10.2487,0.0279,0.0084,9.8066,0.0517,0.0266,0.0006,1.04,23.54,-18.57,270.89,1.86,1.03
70395,50.42448,-4.821917,204,16.58,10.0,271.6,Nov-21,6973741,2019-08-17 09:16:43:108,0.1728,-0.2522,9.4039,0.0156,0.0076,9.8066,-0.0261,-0.032,0.0134,1.01,23.19,-19.01,270.9,1.91,0.94
70396,50.42448,-4.821917,204,16.58,10.0,271.6,Nov-21,6973841,2019-08-17 09:16:43:208,-0.1951,-0.2428,10.2493,0.0119,0.004,9.8066,-0.0261,-0.032,0.0134,1.01,23.19,-19.01,270.9,1.91,0.94
70397,50.42448,-4.821917,204,16.58,10.0,271.6,Nov-21,6973941,2019-08-17 09:16:43:308,0.0606,-0.0904,9.5519,0.0099,0.0046,9.8066,-0.009,0.0053,0.0048,1.02,23.43,-18.71,270.87,1.93,0.88
70398,50.42448,-4.821917,204,16.58,10.0,271.6,Nov-21,6974041,2019-08-17 09:16:43:408,0.2734,-0.4025,9.9998,0.0027,-0.0061,9.8066,0.0027,0.0415,0.007,1.0,22.98,-19.26,270.87,1.93,0.88
70399,50.42448,-4.821917,204,16.58,10.0,271.6,Nov-21,6974141,2019-08-17 09:16:43:508,0.2297,-0.0689,9.3553,0.0177,-0.0033,9.8066,-0.0357,-0.0171,0.023,1.46,23.69,-18.35,270.94,1.91,0.78
70400,50.42448,-4.821917,204,16.58,10.0,271.6,Nov-21,6974240,2019-08-17 09:16:43:607,-0.0669,-0.0916,9.9804,0.0438,0.0006,9.8066,-0.0452,0.0202,0.0134,1.46,23.69,-18.35,270.94,1.91,0.78
70401,50.42448,-4.821917,204,16.58,10.0,271.6,Nov-21,6974341,2019-08-17 09:16:43:708,-0.0513,-0.4193,9.446,0.0148,-0.0168,9.8066,-0.0186,-0.0128,0.0187,1.03,23.29,-18.88,270.9,1.91,0.52
70402,50.42448,-4.821917,204,16.58,10.0,271.6,Nov-21,6974441,2019-08-17 09:16:43:808,0.7077,-0.3292,10.4468,0.0265,-0.0431,9.8065,-0.0154,-0.0448,0.0112,1.03,23.29,-18.88,270.9,1.91,0.52
70403,50.42448,-4.821917,204,16.58,10.0,271.6,Nov-21,6974541,2019-08-17 09:16:43:908,0.1949,-0.1047,9.426,0.0147,0.0019,9.8066,-0.0101,-0.0054,0.007,1.02,23.49,-18.63,271.12,1.66,0.37
70404,50.42449,-4.82214,204,16.68,9.0,271.5,Nov-21,6974641,2019-08-17 09:16:44:008,0.1691,0.0259,9.2381,0.0304,0.0021,9.8066,-0.009,-0.0107,-0.0015,1.05,23.15,-19.05,271.11,1.67,0.19
70405,50.42449,-4.82214,204,16.68,9.0,271.5,Nov-21,6974741,2019-08-17 09:16:44:108,0.1433,0.0355,9.9499,0.012,0.011,9.8066,-0.009,-0.0107,-0.0015,1.02,23.08,-19.14,271.06,1.73,0.12
70406,50.42449,-4.82214,204,16.68,9.0,271.5,Nov-21,6974841,2019-08-17 09:16:44:208,0.259,-0.0171,9.6494,0.0169,0.012,9.8066,0.0038,0.0042,-0.0005,1.02,23.08,-19.14,271.06,1.73,0.12
70407,50.42449,-4.82214,204,16.68,9.0,271.5,Nov-21,6974941,2019-08-17 09:16:44:308,0.4255,-0.0797,9.9674,-0.0093,-0.0199,9.8066,0.0197,-0.0224,0.0006,1.45,23.51,-18.58,270.95,1.81,0.0
70408,50.42449,-4.82214,204,16.68,9.0,271.5,Nov-21,6975042,2019-08-17 09:16:44:409,0.684,-0.2793,9.6497,-0.0066,-0.0143,9.8066,-0.0165,0.0063,0.0144,1.47,23.34,-18.79,271.09,1.69,0.06
70409,50.42449,-4.82214,204,16.68,9.0,271.5,Nov-21,6975142,2019-08-17 09:16:44:509,0.1272,0.0537,10.3732,-0.0214,-0.016,9.8066,0.0304,0.0276,-0.0111,1.47,23.34,-18.79,271.09,1.69,0.06
70410,50.42449,-4.82214,204,16.68,9.0,271.5,Nov-21,6975241,2019-08-17 09:16:44:608,0.1452,-0.1545,9.4942,-0.0026,0.0063,9.8066,0.0006,0.0159,0.0176,1.02,23.93,-18.06,271.18,1.6,0.18
70411,50.42449,-4.82214,204,16.68,9.0,271.5,Nov-21,6975341,2019-08-17 09:16:44:708,0.2003,0.0418,9.4767,0.0061,0.0059,9.8066,0.0155,0.0031,0.0176,1.88,23.49,-18.56,273.62,1.64,0.2
70412,50.42449,-4.82214,204,16.68,9.0,271.5,Nov-21,6975442,2019-08-17 09:16:44:809,-0.1335,-0.0492,9.2409,-0.0039,-0.0087,9.8066,0.0048,0.0266,0.0048,1.47,23.76,-18.26,273.62,1.64,0.2
70413,50.42449,-4.82214,204,16.68,9.0,271.5,Nov-21,6975541,2019-08-17 09:16:44:908,-0.0279,-0.2519,9.4856,-0.0052,0.0011,9.8066,-0.0112,-0.032,0.0016,1.0,23.45,-18.68,271.12,1.65,0.23
70414,50.42449,-4.82214,204,16.68,9.0,271.5,Nov-21,6975640,2019-08-17 09:16:45:007,-0.2404,0.1458,9.0925,0.0017,0.0118,9.8066,-0.0112,-0.032,0.0016,1.86,23.66,-18.35,273.48,1.72,0.22
70415,50.42451,-4.822391,204,17.18,9.0,271.5,Oct-21,6975741,2019-08-17 09:16:45:108,0.2674,-0.2656,9.3582,0.0209,0.0096,9.8066,-0.0399,0.0031,0.0166,1.86,23.66,-18.35,273.48,1.72,0.22
70416,50.42451,-4.822391,204,17.18,9.0,271.5,Oct-21,6975841,2019-08-17 09:16:45:208,-0.3978,-0.2755,9.6958,0.0135,-0.0173,9.8066,-0.0761,-0.0043,0.0336,1.02,23.53,-18.59,270.99,1.77,0.09
70417,50.42451,-4.822391,204,17.18,9.0,271.5,Oct-21,6975941,2019-08-17 09:16:45:308,0.3592,-0.0569,9.9811,0.0098,-0.0372,9.8066,0.0336,0.0191,0.0027,1.02,23.53,-18.59,271.16,1.55,0.04
70418,50.42451,-4.822391,204,17.18,9.0,271.5,Oct-21,6976041,2019-08-17 09:16:45:408,0.451,-0.2496,9.4092,-0.0043,-0.0086,9.8066,0.0133,0.05,0.0198,1.02,23.53,-18.59,271.16,1.55,0.04
70419,50.42451,-4.822391,204,17.18,9.0,271.5,Oct-21,6976141,2019-08-17 09:16:45:508,-0.2854,-0.0309,9.7903,-0.0044,-0.0034,9.8066,-0.0293,-0.0374,0.0155,1.05,23.61,-18.48,271.26,1.5,0.06
70420,50.42451,-4.822391,204,17.18,9.0,271.5,Oct-21,6976241,2019-08-17 09:16:45:608,-0.2637,-0.2589,10.1947,0.0074,-0.014,9.8066,-0.0293,-0.0374,0.0155,1.44,23.27,-18.88,271.26,1.5,0.06
70421,50.42451,-4.822391,204,17.18,9.0,271.5,Oct-21,6976341,2019-08-17 09:16:45:708,0.3668,-0.0125,9.8636,-0.0058,-0.0166,9.8066,0.0059,-0.0533,-0.0047,0.59,23.7,-18.39,271.33,1.4,0.1
70422,50.42451,-4.822391,204,17.18,9.0,271.5,Oct-21,6976441,2019-08-17 09:16:45:808,0.5054,-0.242,10.1042,0.0269,0.0109,9.8066,-0.0367,-0.0469,0.0155,1.45,23.51,-18.58,271.14,1.57,0.04
70423,50.42451,-4.822391,204,17.18,9.0,271.5,Oct-21,6976541,2019-08-17 09:16:45:908,0.088,-0.0099,10.2246,0.0431,-0.0012,9.8066,-0.0048,-0.0054,0.0027,1.45,23.51,-18.58,271.14,1.57,0.04
70424,50.42451,-4.822391,204,17.18,9.0,271.5,Oct-21,6976641,2019-08-17 09:16:46:008,0.1559,-0.0263,9.9811,0.0115,-0.0055,9.8066,0.0133,0.0159,-0.0037,1.05,23.64,-18.44,271.22,1.56,-0.21
70425,50.424503,-4.822625,204,17.25,9.0,270.9,Oct-21,6976741,2019-08-17 09:16:46:108,0.4743,-0.2585,9.2222,0.0183,0.0031,9.8066,-0.025,-0.016,0.0059,1.03,22.72,-19.56,271.16,1.53,-0.28
70426,50.424503,-4.822625,204,17.25,9.0,270.9,Oct-21,6976841,2019-08-17 09:16:46:208,0.2884,-0.3458,10.253,0.0271,-0.0023,9.8066,0.0378,0.0617,0.0027,1.01,23.72,-18.34,271.26,1.51,-0.44
70427,50.424503,-4.822625,204,17.25,9.0,270.9,Oct-21,6976941,2019-08-17 09:16:46:308,0.1095,0.0049,10.1253,0.0008,-0.0173,9.8066,0.0016,0.0244,0.0038,1.03,23.56,-18.54,271.26,1.51,-0.44
70428,50.424503,-4.822625,204,17.25,9.0,270.9,Oct-21,6977041,2019-08-17 09:16:46:408,0.1512,-0.0928,9.1233,-0.0178,-0.0207,9.8066,0.0016,0.0244,0.0038,1.03,23.56,-18.54,271.26,1.51,-0.44
70429,50.424503,-4.822625,204,17.25,9.0,270.9,Oct-21,6977141,2019-08-17 09:16:46:508,-0.1656,0.2179,9.4486,-0.0055,0.0105,9.8066,0.007,-0.0235,0.0027,1.49,23.66,-18.38,271.34,1.39,-0.33
70430,50.424503,-4.822625,204,17.25,9.0,270.9,Oct-21,6977241,2019-08-17 09:16:46:608,-0.2511,0.1624,9.6932,-0.0332,0.0026,9.8066,0.0592,-0.0054,-0.0047,1.47,23.83,-18.17,271.33,1.41,-0.14
70431,50.424503,-4.822625,204,17.25,9.0,270.9,Oct-21,6977341,2019-08-17 09:16:46:708,-0.1201,-0.0949,9.6696,-0.023,0.0311,9.8066,-0.0165,-0.0406,0.0155,1.47,23.83,-18.17,271.33,1.41,-0.14
70432,50.424503,-4.822625,204,17.25,9.0,270.9,Oct-21,6977441,2019-08-17 09:16:46:808,-0.1483,-0.066,9.1093,0.0033,-0.0036,9.8066,0.008,-0.0033,0.008,1.05,24.09,-17.85,271.19,1.6,-0.01
70433,50.424503,-4.822625,204,17.25,9.0,270.9,Oct-21,6977541,2019-08-17 09:16:46:908,-0.2248,0.1195,9.6809,-0.0223,-0.0164,9.8066,0.0006,-0.0256,0.0091,1.05,24.09,-17.85,271.19,1.6,-0.01
70434,50.424503,-4.822625,204,17.25,9.0,270.9,Oct-21,6977641,2019-08-17 09:16:47:008,-0.1269,-0.3459,9.6768,0.0057,0.0144,9.8066,-0.0186,-0.0299,-0.0016,1.04,23.84,-18.18,271.26,1.5,0.12
70435,50.4245,-4.822868,204,17.5,9.0,270.2,Oct-21,6977741,2019-08-17 09:16:47:108,-0.2374,-0.2204,9.2996,0.0199,-0.0057,9.8066,-0.0389,-0.0011,0.0315,1.44,23.34,-18.79,271.28,1.47,0.01
70436,50.4245,-4.822868,204,17.5,9.0,270.2,Oct-21,6977841,2019-08-17 09:16:47:208,-0.2394,-0.0491,10.1549,-0.0004,-0.0217,9.8066,-0.0389,-0.0011,0.0315,1.03,24.0,-17.97,271.28,1.47,0.01
70437,50.4245,-4.822868,204,17.5,9.0,270.2,Oct-21,6977941,2019-08-17 09:16:47:308,0.1982,-0.2784,10.183,-0.0063,-0.0248,9.8066,0.0112,-0.0001,0.007,1.04,23.84,-18.18,271.39,1.32,0.05
70438,50.4245,-4.822868,204,17.5,9.0,270.2,Oct-21,6978041,2019-08-17 09:16:47:408,0.1115,-0.0018,9.7827,-0.0044,-0.0031,9.8067,-0.0005,-0.0118,0.007,1.04,23.84,-18.18,271.39,1.32,0.05
70439,50.4245,-4.822868,204,17.5,9.0,270.2,Oct-21,6978141,2019-08-17 09:16:47:508,0.4677,-0.1973,9.3721,-0.0026,-0.0229,9.8066,0.0176,0.0553,0.0155,1.03,24.0,-17.97,271.49,1.19,0.07
70440,50.4245,-4.822868,204,17.5,9.0,270.2,Oct-21,6978241,2019-08-17 09:16:47:608,-0.1299,0.3047,9.5874,-0.0266,-0.0347,9.8066,0.0144,-0.0192,0.0208,1.03,24.0,-17.97,271.49,1.19,0.07
70441,50.4245,-4.822868,204,17.5,9.0,270.2,Oct-21,6978341,2019-08-17 09:16:47:708,-0.1201,-0.1948,9.3468,-0.0075,0.0474,9.8065,-0.0069,-0.0406,0.0123,1.02,23.79,-18.25,271.44,1.26,0.38
70442,50.4245,-4.822868,204,17.5,9.0,270.2,Oct-21,6978441,2019-08-17 09:16:47:808,-0.1229,-0.1376,9.7899,-0.0116,0.0639,9.8064,-0.0133,-0.031,0.0102,1.02,23.79,-18.25,271.44,1.26,0.38
70443,50.4245,-4.822868,204,17.5,9.0,270.2,Oct-21,6978541,2019-08-17 09:16:47:908,-0.1236,0.021,10.0668,0.0033,0.0051,9.8066,-0.0026,0.0425,0.0251,1.03,23.6,-18.5,271.15,1.64,0.44
70444,50.4245,-4.822868,204,17.5,9.0,270.2,Oct-21,6978642,2019-08-17 09:16:48:009,0.4296,0.2637,10.2107,0.0012,0.0124,9.8066,-0.0122,0.0116,0.0176,1.02,23.76,-18.29,271.15,1.64,0.44
70445,50.424496,-4.823105,203,17.61,9.0,269.4,Oct-20,6978741,2019-08-17 09:16:48:108,-0.1148,0.139,9.8127,-0.0116,0.0095,9.8066,-0.0122,0.0116,0.0176,1.91,23.43,-18.64,273.57,1.71,0.43
70446,50.424496,-4.823105,203,17.61,9.0,269.4,Oct-20,6978840,2019-08-17 09:16:48:207,0.0246,-0.3146,9.2499,-0.02,-0.0328,9.8066,-0.0048,0.0468,0.0219,1.04,24.24,-17.65,271.24,1.52,0.56
70447,50.424496,-4.823105,203,17.61,9.0,269.4,Oct-20,6978941,2019-08-17 09:16:48:308,-0.2819,-0.029,10.1114,-0.0176,-0.0468,9.8065,0.0474,0.0553,0.0187,1.04,24.24,-17.65,271.24,1.52,0.56
70448,50.424496,-4.823105,203,17.61,9.0,269.4,Oct-20,6979041,2019-08-17 09:16:48:408,-0.3389,0.0038,9.6864,-0.0344,-0.0127,9.8066,-0.0005,-0.0001,0.0315,0.59,23.56,-18.56,271.39,1.25,0.67
70449,50.424496,-4.823105,203,17.61,9.0,269.4,Oct-20,6979141,2019-08-17 09:16:48:508,-0.4142,-0.0186,9.4191,-0.0653,-0.0013,9.8064,0.0112,-0.0001,0.0144,1.03,24.03,-17.93,271.44,1.26,1.05
70450,50.424496,-4.823105,203,17.61,9.0,269.4,Oct-20,6979241,2019-08-17 09:16:48:608,-0.3426,-0.1878,9.8264,-0.0078,0.0039,9.8066,0.008,-0.0022,0.0006,1.03,24.03,-17.93,271.42,1.28,1.1
70451,50.424496,-4.823105,203,17.61,9.0,269.4,Oct-20,6979341,2019-08-17 09:16:48:708,0.2232,0.0052,10.1148,0.0015,-0.0028,9.8067,0.0144,-0.0363,0.008,1.03,24.03,-17.93,271.42,1.28,1.1
70452,50.424496,-4.823105,203,17.61,9.0,269.4,Oct-20,6979441,2019-08-17 09:16:48:808,-0.0981,0.3974,9.3195,-0.0029,0.0365,9.8066,0.0144,-0.0363,0.008,0.6,24.04,-17.93,271.37,1.35,1.06
70453,50.424496,-4.823105,203,17.61,9.0,269.4,Oct-20,6979541,2019-08-17 09:16:48:908,-0.178,0.2305,9.4655,-0.0119,0.0576,9.8065,-0.0069,-0.0427,0.0208,1.04,23.88,-18.14,271.11,1.68,1.12
70454,50.424496,-4.823105,203,17.61,9.0,269.4,Oct-20,6979641,2019-08-17 09:16:49:008,-0.0132,0.1274,10.2265,0.0072,0.0065,9.8066,-0.0048,-0.0299,0.0187,0.6,23.88,-18.14,271.11,1.68,1.12
70455,50.42448,-4.823364,204,17.93,9.0,268.1,Oct-21,6979741,2019-08-17 09:16:49:108,-0.0033,-0.1565,9.7545,0.0197,-0.0178,9.8066,-0.0389,0.0415,0.0251,0.6,23.88,-18.14,271.11,1.68,1.12
70456,50.42448,-4.823364,204,17.93,9.0,268.1,Oct-21,6979841,2019-08-17 09:16:49:208,0.2685,-0.1793,10.0004,0.0219,-0.0302,9.8066,-0.0069,0.0553,0.0027,1.04,23.88,-18.14,271.19,1.58,1.01
70457,50.42448,-4.823364,204,17.93,9.0,268.1,Oct-21,6979940,2019-08-17 09:16:49:307,0.3277,-0.3124,9.3487,0.0485,-0.0575,9.8064,-0.0175,0.0425,0.0112,1.04,23.88,-18.14,271.19,1.58,1.01
70458,50.42448,-4.823364,204,17.93,9.0,268.1,Oct-21,6980041,2019-08-17 09:16:49:408,0.0451,-0.1385,9.8001,0.0312,-0.0212,9.8066,-0.0143,-0.0395,0.0219,-0.2,23.48,-18.67,268.95,1.24,0.73
70459,50.42448,-4.823364,204,17.93,9.0,268.1,Oct-21,6980141,2019-08-17 09:16:49:508,0.2945,0.3547,9.4501,0.0456,-0.0025,9.8065,0.0485,-0.0182,-0.0037,0.17,23.64,-18.46,269.06,1.23,0.47
70460,50.42448,-4.823364,204,17.93,9.0,268.1,Oct-21,6980241,2019-08-17 09:16:49:608,0.4348,0.1045,9.4268,-0.0038,0.0602,9.8065,0.0485,-0.0182,-0.0037,0.17,23.64,-18.46,269.06,1.23,0.47
70461,50.42448,-4.823364,204,17.93,9.0,268.1,Oct-21,6980341,2019-08-17 09:16:49:708,-0.3114,0.2107,10.4052,-0.0009,0.0583,9.8065,0.0336,-0.0725,-0.0069,1.46,23.65,-18.4,271.2,1.58,0.49
70462,50.42448,-4.823364,204,17.93,9.0,268.1,Oct-21,6980441,2019-08-17 09:16:49:808,0.3623,0.414,10.0866,0.0145,0.0366,9.8066,-0.0186,-0.0043,0.0219,1.01,23.18,-19.02,270.89,1.92,0.49
70463,50.42448,-4.823364,204,17.93,9.0,268.1,Oct-21,6980541,2019-08-17 09:16:49:908,0.1249,0.4971,8.972,0.018,0.0907,9.8062,0.0336,0.0031,-0.0111,0.6,23.29,-18.9,270.89,1.92,0.49
70464,50.42448,-4.823364,204,17.93,9.0,268.1,Oct-21,6980641,2019-08-17 09:16:50:008,0.1414,0.6039,9.4242,0.0,0.0442,9.8066,0.0229,0.0287,0.008,1.01,23.18,-19.02,270.45,2.45,0.38
70465,50.42448,-4.823612,205,17.9,10.0,267.8,Oct-21,6980740,2019-08-17 09:16:50:107,-0.1586,0.5859,9.1435,0.0017,0.07,9.8064,-0.009,-0.0139,0.0155,1.02,23.01,-19.23,270.45,2.45,0.38
70466,50.42448,-4.823612,205,17.9,10.0,267.8,Oct-21,6980840,2019-08-17 09:16:50:207,0.1075,0.4588,10.1257,0.001,0.0994,9.8061,-0.009,-0.0139,0.0155,1.02,23.01,-19.23,270.45,2.45,0.38
70467,50.42448,-4.823612,205,17.9,10.0,267.8,Oct-21,6980941,2019-08-17 09:16:50:308,0.1245,0.5278,10.7031,-0.0063,0.0328,9.8066,0.0368,0.0053,0.0016,0.61,23.12,-19.11,269.97,3.03,0.37
70468,50.42448,-4.823612,205,17.9,10.0,267.8,Oct-21,6981041,2019-08-17 09:16:50:408,0.5236,0.3792,9.3992,0.026,0.0535,9.8065,-0.0399,-0.0331,0.0027,1.46,23.65,-18.4,269.87,3.34,0.22
70469,50.42448,-4.823612,205,17.9,10.0,267.8,Oct-21,6981141,2019-08-17 09:16:50:508,0.3357,0.5563,9.3716,0.0135,0.0184,9.8066,-0.0282,0.0287,0.0102,1.03,23.28,-18.89,269.63,3.45,0.14
70470,50.42448,-4.823612,205,17.9,10.0,267.8,Oct-21,6981242,2019-08-17 09:16:50:609,0.1977,0.1608,10.3536,0.0127,0.0082,9.8066,-0.025,-0.0246,0.0059,1.03,23.28,-18.89,269.63,3.45,0.14
70471,50.42448,-4.823612,205,17.9,10.0,267.8,Oct-21,6981341,2019-08-17 09:16:50:708,0.0838,-0.2271,9.8474,0.0297,0.029,9.8066,-0.0591,-0.0139,0.0176,1.46,22.88,-19.35,269.5,3.62,-0.03
70472,50.42448,-4.823612,205,17.9,10.0,267.8,Oct-21,6981441,2019-08-17 09:16:50:808,-0.2132,0.0971,9.8206,0.0328,0.0293,9.8066,0.0251,0.0031,-0.0058,1.48,23.51,-18.57,269.4,3.79,-0.22
70473,50.42448,-4.823612,205,17.9,10.0,267.8,Oct-21,6981541,2019-08-17 09:16:50:908,-0.0231,0.3926,9.4063,0.0264,0.016,9.8066,0.0293,-0.0139,-0.0069,1.04,23.11,-19.11,269.4,3.79,-0.22
70474,50.424488,-4.823842,203,18.0,10.0,267.9,Oct-21,6981641,2019-08-17 09:16:51:008,0.3608,0.2553,9.5647,0.0318,0.0441,9.8065,0.0293,-0.0139,-0.0069,1.48,23.09,-19.09,269.17,4.05,-0.41
70475,50.424488,-4.823842,203,18.0,10.0,267.9,Oct-21,6981741,2019-08-17 09:16:51:108,0.1356,0.2348,9.5132,0.0076,0.0535,9.8065,-0.0293,-0.0608,0.0155,1.48,23.09,-19.09,269.17,4.05,-0.41
70476,50.424488,-4.823842,203,18.0,10.0,267.9,Oct-21,6981841,2019-08-17 09:16:51:208,0.4309,0.0682,10.2506,0.0369,0.0674,9.8064,-0.0112,0.0244,0.0048,1.48,22.66,-19.61,269.17,4.05,-0.41
70477,50.424488,-4.823842,203,18.0,10.0,267.9,Oct-21,6981941,2019-08-17 09:16:51:308,0.2394,-0.0675,10.1359,-0.001,-0.0186,9.8066,0.0133,0.0319,-0.0037,1.51,23.2,-18.96,271.33,4.45,-0.62
70478,50.424488,-4.823842,203,18.0,10.0,267.9,Oct-21,6982042,2019-08-17 09:16:51:409,-0.1206,-0.1913,10.253,-0.0162,-0.0065,9.8066,0.0091,-0.0395,-0.0058,1.51,23.2,-18.96,271.33,4.45,-0.62
70479,50.424488,-4.823842,203,18.0,10.0,267.9,Oct-21,6982142,2019-08-17 09:16:51:509,-0.0268,-0.2918,9.1157,0.0278,0.0221,9.8066,-0.009,0.0276,0.0155,1.03,23.32,-18.85,268.89,4.41,-0.52
70480,50.424488,-4.823842,203,18.0,10.0,267.9,Oct-21,6982240,2019-08-17 09:16:51:607,0.5333,0.1216,9.4491,0.0225,-0.0061,9.8066,0.007,0.033,0.0006,1.46,22.88,-19.35,268.8,4.54,-0.68
70481,50.424488,-4.823842,203,18.0,10.0,267.9,Oct-21,6982341,2019-08-17 09:16:51:708,0.1168,0.1167,9.7318,0.0225,-0.0009,9.8066,0.0038,-0.0022,-0.0069,0.6,22.9,-19.37,268.81,4.54,-0.82
70482,50.424488,-4.823842,203,18.0,10.0,267.9,Oct-21,6982441,2019-08-17 09:16:51:808,0.0446,0.4547,9.4418,0.0027,0.0206,9.8066,0.0038,-0.0022,-0.0069,0.6,22.9,-19.37,268.81,4.54,-0.82
70483,50.424488,-4.823842,203,18.0,10.0,267.9,Oct-21,6982541,2019-08-17 09:16:51:908,0.1948,0.4004,9.0457,0.0016,0.024,9.8066,-0.0112,-0.0129,-0.0026,1.03,22.89,-19.36,268.72,4.66,-0.83
70484,50.42447,-4.824088,203,18.3,10.0,267.3,Oct-21,6982642,2019-08-17 09:16:52:009,-0.1143,-0.2252,9.6999,0.0064,0.0273,9.8066,0.0102,0.0191,0.008,1.46,22.88,-19.35,268.59,4.82,-0.86
70485,50.42447,-4.824088,203,18.3,10.0,267.3,Oct-21,6982741,2019-08-17 09:16:52:108,-0.173,0.2742,9.2576,-0.0325,0.0382,9.8065,0.0283,-0.0065,-0.0016,1.46,22.88,-19.35,268.59,4.82,-0.86
70486,50.42447,-4.824088,203,18.3,10.0,267.3,Oct-21,6982841,2019-08-17 09:16:52:208,0.1399,0.0511,9.567,-0.0042,0.0094,9.8066,0.008,-0.0065,0.008,1.03,22.89,-19.36,268.4,5.04,-0.67
70487,50.42447,-4.824088,203,18.3,10.0,267.3,Oct-21,6982941,2019-08-17 09:16:52:308,-0.3606,0.1639,10.2862,-0.0208,0.012,9.8066,-0.0026,0.0287,0.0251,1.03,22.89,-19.36,268.4,5.04,-0.67
70488,50.42447,-4.824088,203,18.3,10.0,267.3,Oct-21,6983041,2019-08-17 09:16:52:408,0.1113,-0.3913,10.5646,0.0108,-0.0034,9.8066,-0.0261,-0.0352,0.0198,1.45,22.63,-19.64,268.11,5.11,-0.54
70489,50.42447,-4.824088,203,18.3,10.0,267.3,Oct-21,6983141,2019-08-17 09:16:52:508,0.014,0.0901,9.8136,-0.0039,-0.0011,9.8067,-0.008,-0.0491,0.0219,1.04,22.71,-19.58,268.11,5.1,-0.52
70490,50.42447,-4.824088,203,18.3,10.0,267.3,Oct-21,6983242,2019-08-17 09:16:52:609,-0.04,-0.2128,10.4746,-0.0077,0.0165,9.8066,0.0006,-0.0246,0.0261,1.04,23.14,-19.06,268.25,5.2,-0.47
70491,50.42447,-4.824088,203,18.3,10.0,267.3,Oct-21,6983341,2019-08-17 09:16:52:708,-0.1048,-0.0451,9.1888,-0.0022,-0.005,9.8066,0.0006,-0.0246,0.0261,0.61,22.72,-19.58,268.25,5.2,-0.47
70492,50.42447,-4.824088,203,18.3,10.0,267.3,Oct-21,6983441,2019-08-17 09:16:52:808,0.3964,0.1161,9.7999,0.0006,-0.0202,9.8066,-0.0229,-0.0107,0.0144,0.61,22.72,-19.58,268.25,5.2,-0.47
70493,50.42447,-4.824088,203,18.3,10.0,267.3,Oct-21,6983541,2019-08-17 09:16:52:908,0.6012,0.0663,9.0541,-0.0198,0.0091,9.8066,0.0102,-0.0374,0.0166,1.04,23.14,-19.06,268.2,5.24,-0.35
70494,50.42447,-4.824088,203,18.3,10.0,267.3,Oct-21,6983641,2019-08-17 09:16:53:008,0.1712,-0.074,10.4792,0.0063,0.0379,9.8066,-0.0634,-0.0427,0.008,1.04,23.14,-19.06,268.2,5.24,-0.35
70495,50.424454,-4.824351,203,18.2,11.0,266.6,Oct-20,6983741,2019-08-17 09:16:53:108,0.485,0.3173,8.9664,0.008,0.0121,9.8066,0.0038,0.0489,0.0059,1.47,22.48,-19.81,267.68,5.47,-0.38
70496,50.424454,-4.824351,203,18.2,11.0,266.6,Oct-20,6983841,2019-08-17 09:16:53:208,0.565,-0.0255,9.6804,0.007,0.008,9.8066,0.0048,-0.0374,0.0155,1.88,22.21,-20.08,270.18,5.56,-0.43
70497,50.424454,-4.824351,203,18.2,11.0,266.6,Oct-20,6983941,2019-08-17 09:16:53:308,0.0173,-0.3421,9.5519,0.0038,-0.0019,9.8067,0.0378,-0.0075,0.0187,1.03,22.46,-19.86,267.57,5.61,-0.47
70498,50.424454,-4.824351,203,18.2,11.0,266.6,Oct-20,6984042,2019-08-17 09:16:53:409,0.4543,-0.283,9.2049,-0.0219,-0.0229,9.8066,0.0378,-0.0075,0.0187,1.03,22.46,-19.86,267.57,5.61,-0.47
70499,50.424454,-4.824351,203,18.2,11.0,266.6,Oct-20,6984142,2019-08-17 09:16:53:509,-0.1884,-0.073,9.6071,-0.0227,0.0017,9.8066,0.0283,0.0202,0.0134,0.6,22.94,-19.33,268.01,5.47,-0.35
70500,50.424454,-4.824351,203,18.2,11.0,266.6,Oct-20,6984241,2019-08-17 09:16:53:608,0.1954,0.2534,9.9481,0.003,0.0113,9.8066,-0.025,-0.0086,0.0027,1.45,22.67,-19.6,267.75,5.48,-0.22
70501,50.424454,-4.824351,203,18.2,11.0,266.6,Oct-20,6984341,2019-08-17 09:16:53:708,0.1351,-0.0428,10.2611,0.0276,0.0377,9.8065,0.0496,0.034,-0.0282,1.48,22.69,-19.56,267.58,5.7,-0.37
70502,50.424454,-4.824351,203,18.2,11.0,266.6,Oct-20,6984441,2019-08-17 09:16:53:808,0.634,0.0238,9.783,0.0198,-0.017,9.8066,-0.0538,0.0212,0.0144,1.48,22.69,-19.56,267.58,5.7,-0.37
70503,50.424454,-4.824351,203,18.2,11.0,266.6,Oct-20,6984541,2019-08-17 09:16:53:908,0.5681,0.2303,9.5373,0.0128,-0.016,9.8066,0.008,0.017,0.0038,0.61,22.27,-20.09,267.57,5.61,-0.49
70504,50.424454,-4.824351,203,18.2,11.0,266.6,Oct-21,6984641,2019-08-17 09:16:54:008,0.3108,0.2207,9.6869,0.0377,-0.0159,9.8066,0.0304,-0.0352,0.0006,1.03,22.49,-19.82,267.67,5.52,-0.72
70505,50.42444,-4.824618,203,18.14,11.0,266.1,Oct-21,6984741,2019-08-17 09:16:54:108,0.0641,0.1738,9.0967,0.013,0.0402,9.8066,0.0304,-0.0352,0.0006,1.03,22.49,-19.82,267.67,5.52,-0.72
70506,50.42444,-4.824618,203,18.14,11.0,266.1,Oct-21,6984841,2019-08-17 09:16:54:208,-0.0804,0.2877,9.1251,-0.0151,0.0133,9.8066,0.0229,-0.0459,-0.0079,1.04,22.74,-19.53,267.59,5.76,-0.78
70507,50.42444,-4.824618,203,18.14,11.0,266.1,Oct-21,6984941,2019-08-17 09:16:54:308,0.2821,-0.3553,10.3111,0.0057,0.0429,9.8066,0.0165,-0.0448,-0.0037,1.47,22.48,-19.81,267.4,5.84,-0.69
70508,50.42444,-4.824618,203,18.14,11.0,266.1,Oct-21,6985041,2019-08-17 09:16:54:408,-0.0549,-0.2148,9.6163,0.0071,0.0434,9.8066,-0.0229,-0.0235,0.0059,1.47,22.48,-19.81,267.4,5.84,-0.69
70509,50.42444,-4.824618,203,18.14,11.0,266.1,Oct-21,6985141,2019-08-17 09:16:54:508,-0.4236,-0.1321,10.5807,-0.0171,-0.0375,9.8066,0.0027,0.0532,0.0112,1.47,22.91,-19.31,267.56,6.09,-0.72
70510,50.42444,-4.824618,203,18.14,11.0,266.1,Oct-21,6985241,2019-08-17 09:16:54:608,-0.1458,-0.2679,9.6787,-0.0384,-0.0664,9.8064,0.0304,0.033,0.0048,1.04,22.53,-19.78,267.61,5.69,-0.51
70511,50.42444,-4.824618,203,18.14,11.0,266.1,Oct-21,6985341,2019-08-17 09:16:54:708,-0.4787,-0.0947,10.0128,-0.0188,-0.0162,9.8066,-0.0175,0.0095,0.0006,1.04,22.53,-19.78,267.61,5.69,-0.51
70512,50.42444,-4.824618,203,18.14,11.0,266.1,Oct-21,6985440,2019-08-17 09:16:54:807,-0.1771,0.0279,9.8272,-0.0148,-0.0199,9.8066,-0.0175,0.0095,0.0006,0.6,22.94,-19.33,267.92,5.59,-0.41
70513,50.42444,-4.824618,203,18.14,11.0,266.1,Oct-21,6985541,2019-08-17 09:16:54:908,-0.1063,-0.2455,9.7507,-0.0106,-0.0034,9.8066,-0.0165,-0.0065,0.0038,0.24,22.54,-19.79,267.92,5.59,-0.41
70514,50.42444,-4.824618,203,18.14,11.0,266.1,Oct-21,6985641,2019-08-17 09:16:55:008,-0.5164,-0.0176,9.5364,0.0182,0.0328,9.8066,-0.0527,-0.0139,0.0123,0.24,22.1,-20.29,265.02,5.57,-0.34
70515,50.424427,-4.824868,201,18.02,12.0,265.6,Oct-21,6985741,2019-08-17 09:16:55:108,0.4805,-0.3147,10.2094,0.0165,0.0206,9.8066,-0.0431,-0.0043,0.0123,1.02,21.83,-20.55,267.16,5.77,-0.43
70516,50.424427,-4.824868,201,18.02,12.0,265.6,Oct-21,6985841,2019-08-17 09:16:55:208,0.2786,0.4155,9.1803,0.0078,0.0235,9.8066,0.008,0.0234,0.0123,1.02,21.83,-20.55,267.16,5.77,-0.43
70517,50.424427,-4.824868,201,18.02,12.0,265.6,Oct-21,6985940,2019-08-17 09:16:55:307,-0.2072,0.1087,9.961,-0.0122,0.003,9.8066,0.0038,0.0031,0.0123,0.6,22.06,-20.33,267.3,5.91,-0.47
