,GPS LATITUDE (degrees), GPS LONGITUDE (degrees), GPS ALTITUDE (m), GPS SPEED (Kmh), GPS ACCURACY (m), GPS ORIENTATION (Â°),GPS SATELLITES IN RANGE, TIME SINCE START (ms), DATE (YYYY-MO-DD HH-MI-SS_SSS), ACCELEROMETER X (m/s²) , ACCELEROMETER Y (m/s²), ACCELEROMETER Z (m/s²), GRAVITY X (m/s²), GRAVITY Y (m/s²), GRAVITY Z (m/s²), GYROSCOPE Yaw (rad/s), GYROSCOPE Pitch (rad/s), GYROSCOPE Roll (rad/s), MAGNETIC FIELD X (Î¼T), MAGNETIC FIELD Y (Î¼T), MAGNETIC FIELD Z (Î¼T), ORIENTATION (Yaw) (Â°), ORIENTATION (Pitch) (Â°), ORIENTATION (Roll ) (Â°)
23115,52.004086,-2.054568,80,8.88,9.0,81.8,17 / 24,2311541,2019-08-31 10:28:51:620,-0.5217,-1.2924,10.2817,-0.0034,-0.0973,9.8062,-0.0085,0.0048,0.2029,-0.28,-18.02,-25.96,95.4,6.08,13.58
23116,52.004086,-2.054568,80,8.88,9.0,81.8,17 / 24,2311641,2019-08-31 10:28:51:720,-1.2275,-1.0716,11.0794,-0.0418,-0.0553,9.8064,-0.0075,-0.0058,0.2019,0.09,-18.33,-25.9,95.91,6.64,13.5
23117,52.004086,-2.054568,80,8.88,9.0,81.8,17 / 24,2311740,2019-08-31 10:28:51:819,-1.2906,-0.7366,10.1438,-0.0618,-0.0798,9.8061,0.0202,-0.009,0.1944,1.22,-17.64,-26.4,93.96,7.07,13.09
23118,52.004086,-2.054568,80,8.88,9.0,81.8,17 / 24,2311841,2019-08-31 10:28:51:920,-0.7722,-0.5905,9.7714,-0.0163,0.0002,9.8066,0.0106,0.0794,0.1955,1.22,-17.64,-26.4,93.96,7.07,13.09
23119,52.004086,-2.054568,80,8.88,9.0,81.8,17 / 24,2311940,2019-08-31 10:28:52:019,-1.1658,-0.5063,10.275,-0.0244,-0.016,9.8066,-0.0064,0.0176,0.1923,0.84,-17.64,-25.96,93.97,7.06,13.0
23120,52.004086,-2.054568,80,8.88,9.0,81.8,17 / 24,2312041,2019-08-31 10:28:52:120,-1.1404,-0.8549,9.6923,-0.068,-0.0608,9.8062,-0.0032,-0.0793,0.1635,1.53,-17.64,-26.4,91.91,7.39,12.57
23121,52.0041,-2.054471,81,7.05,9.0,68.7,17 / 24,2312140,2019-08-31 10:28:52:219,-0.961,-0.2191,9.4489,-0.0361,-0.0593,9.8064,0.0096,-0.0367,0.1507,1.53,-17.64,-26.4,91.91,7.39,12.57
23122,52.0041,-2.054471,81,7.05,9.0,68.7,17 / 24,2312241,2019-08-31 10:28:52:320,-2.2771,0.2206,8.9525,-0.0521,-0.0414,9.8064,0.0096,-0.0367,0.1507,2.66,-17.64,-25.08,89.48,7.73,12.35
23123,52.0041,-2.054471,81,7.05,9.0,68.7,17 / 24,2312341,2019-08-31 10:28:52:420,-1.8683,-0.3625,8.2628,-0.1626,-0.1649,9.8039,0.1992,-0.0996,0.1049,2.28,-17.27,-25.15,89.48,7.73,12.35
23124,52.0041,-2.054471,81,7.05,9.0,68.7,17 / 24,2312441,2019-08-31 10:28:52:520,-1.7675,-0.3969,8.662,-0.0624,-0.07,9.8062,-0.0128,-0.0207,0.1742,3.67,-16.92,-26.43,88.4,8.7,11.4
23125,52.0041,-2.054471,81,7.05,9.0,68.7,17 / 24,2312541,2019-08-31 10:28:52:620,-1.5303,-0.466,11.6847,-0.1248,-0.0789,9.8055,0.017,0.0069,0.1337,3.67,-16.92,-26.43,88.4,8.7,11.4
23126,52.0041,-2.054471,81,7.05,9.0,68.7,17 / 24,2312641,2019-08-31 10:28:52:720,-0.386,-1.121,11.5011,-0.0596,-0.008,9.8065,-0.0618,0.2126,0.1337,4.04,-16.54,-26.43,89.0,9.18,10.67
23127,52.0041,-2.054471,81,7.05,9.0,68.7,17 / 24,2312741,2019-08-31 10:28:52:820,-0.8594,-0.2831,9.2502,-0.1132,-0.0337,9.8059,-0.0224,-0.0101,0.1135,4.73,-16.17,-27.3,87.06,9.39,10.0
23128,52.0041,-2.054471,81,7.05,9.0,68.7,17 / 24,2312841,2019-08-31 10:28:52:920,-1.8131,1.6762,7.6535,-0.0958,-0.0114,9.8062,-0.0437,0.2733,0.0868,4.73,-16.17,-27.3,87.06,9.39,10.0
23129,52.0041,-2.054471,81,7.05,9.0,68.7,17 / 24,2312940,2019-08-31 10:28:53:019,-2.6935,0.9239,8.9473,-0.0889,0.003,9.8062,0.0937,-0.204,0.1135,4.73,-16.17,-26.49,86.75,9.48,9.44
23130,52.0041,-2.054471,81,7.05,9.0,68.7,17 / 24,2313041,2019-08-31 10:28:53:120,-1.6564,0.2894,10.801,-0.1575,-0.0272,9.8053,0.0937,-0.204,0.1135,5.1,-16.17,-26.49,87.09,9.69,8.52
23131,52.00412,-2.054406,81,4.92,9.0,61.1,17 / 24,2313141,2019-08-31 10:28:53:220,-1.152,0.0471,10.7357,-0.0356,-0.0084,9.8066,0.1332,-0.0996,0.0645,5.1,-16.17,-26.49,87.09,9.69,8.52
23132,52.00412,-2.054406,81,4.92,9.0,61.1,17 / 24,2313241,2019-08-31 10:28:53:320,-0.6347,-0.8716,10.5509,-0.0323,-0.0047,9.8066,0.0341,0.0283,0.0879,4.73,-15.86,-26.49,87.19,9.75,8.31
23133,52.00412,-2.054406,81,4.92,9.0,61.1,17 / 24,2313340,2019-08-31 10:28:53:419,-0.1313,0.1043,9.732,-0.097,0.007,9.8062,-0.0384,0.0144,0.0804,4.73,-15.86,-27.37,87.75,9.74,7.73
23134,52.00412,-2.054406,81,4.92,9.0,61.1,17 / 24,2313441,2019-08-31 10:28:53:520,-1.4521,1.5637,8.8013,-0.0738,0.1255,9.8056,0.0096,-0.1305,0.0687,4.73,-15.86,-27.37,87.75,9.74,7.73
23135,52.00412,-2.054406,81,4.92,9.0,61.1,17 / 24,2313541,2019-08-31 10:28:53:620,-0.9332,1.4029,9.0175,-0.1643,0.1608,9.804,-0.0224,0.0208,0.0868,5.48,-15.11,-27.37,86.54,8.84,6.73
23136,52.00412,-2.054406,81,4.92,9.0,61.1,17 / 24,2313641,2019-08-31 10:28:53:720,-0.547,1.1776,9.4279,-0.0237,0.067,9.8064,0.0192,0.0485,0.0762,6.23,-15.48,-27.43,82.86,8.44,6.27
23137,52.00412,-2.054406,81,4.92,9.0,61.1,17 / 24,2313741,2019-08-31 10:28:53:820,-0.7152,0.8895,9.2998,-0.0582,0.1302,9.8056,0.0245,0.0123,0.0772,6.23,-15.48,-27.43,82.86,8.44,6.27
23138,52.00412,-2.054406,81,4.92,9.0,61.1,17 / 24,2313841,2019-08-31 10:28:53:920,-0.3655,2.1789,10.2565,-0.0236,0.1387,9.8056,0.0447,-0.0239,0.0591,6.23,-15.48,-26.99,81.82,7.72,5.83
23139,52.00412,-2.054406,81,4.92,9.0,61.1,17 / 24,2313941,2019-08-31 10:28:54:020,-0.485,1.5533,9.65,-0.035,0.2766,9.8027,0.0447,-0.0239,0.0591,6.23,-15.48,-26.99,81.82,7.72,5.83
23140,52.00413,-2.054381,81,3.04,9.0,56.7,17 / 24,2314041,2019-08-31 10:28:54:120,-0.2846,1.955,10.0814,-0.0107,0.1555,9.8054,0.0032,0.0251,0.0762,5.85,-15.11,-27.93,79.9,6.15,5.4
23141,52.00413,-2.054381,81,3.04,9.0,56.7,17 / 24,2314141,2019-08-31 10:28:54:220,0.1287,2.4145,10.1204,-0.0265,0.3288,9.8011,-0.0021,0.0219,0.0719,5.85,-15.48,-27.05,76.73,4.29,4.91
23142,52.00413,-2.054381,81,3.04,9.0,56.7,17 / 24,2314241,2019-08-31 10:28:54:320,-0.0398,2.1084,8.6474,-0.0114,0.1457,9.8056,-0.0192,0.0027,0.0858,6.23,-14.73,-26.68,76.73,4.29,4.91
23143,52.00413,-2.054381,81,3.04,9.0,56.7,17 / 24,2314341,2019-08-31 10:28:54:420,0.0459,1.7546,10.0578,-0.0272,0.2923,9.8023,0.0,0.0123,0.0879,6.6,-14.79,-27.12,71.18,2.66,4.36
23144,52.00413,-2.054381,81,3.04,9.0,56.7,17 / 24,2314441,2019-08-31 10:28:54:520,0.5506,1.8967,9.248,0.0216,0.1494,9.8055,0.0277,0.0155,0.0772,6.6,-14.79,-27.12,71.18,2.66,4.36
23145,52.00413,-2.054381,81,3.04,9.0,56.7,17 / 24,2314541,2019-08-31 10:28:54:620,0.0984,1.5055,9.029,0.0307,0.1484,9.8055,-0.0075,-0.0005,0.0964,6.23,-14.79,-26.68,71.58,0.83,4.08
23146,52.00413,-2.054381,81,3.04,9.0,56.7,17 / 24,2314641,2019-08-31 10:28:54:720,0.6289,1.9271,8.9314,0.0347,0.163,9.8052,-0.0085,-0.0207,0.0932,6.23,-14.42,-27.55,69.26,-0.05,3.98
23147,52.00413,-2.054381,81,3.04,9.0,56.7,17 / 24,2314741,2019-08-31 10:28:54:820,-0.1796,1.5738,9.4648,0.0693,0.3086,9.8015,-0.0085,-0.0207,0.0932,6.23,-14.42,-27.55,69.26,-0.05,3.98
23148,52.00413,-2.054381,81,3.04,9.0,56.7,17 / 24,2314841,2019-08-31 10:28:54:920,0.5322,1.5838,10.117,0.0502,0.142,9.8055,0.0341,0.0304,0.0911,6.84,-14.43,-28.84,63.46,-1.88,3.72
23149,52.00413,-2.054381,81,3.04,9.0,56.7,17 / 24,2314942,2019-08-31 10:28:55:021,0.922,1.7946,9.1476,0.1161,0.2914,9.8016,0.0213,-0.0282,0.1007,6.84,-14.43,-28.9,63.46,-1.88,3.72
23150,52.00415,-2.054344,81,3.1,9.0,51.7,17 / 24,2315040,2019-08-31 10:28:55:119,0.3445,1.5385,9.3666,0.0721,0.1131,9.8057,0.0138,-0.0484,0.1284,6.84,-14.05,-28.46,60.93,-3.71,3.56
23151,52.00415,-2.054344,81,3.1,9.0,51.7,17 / 24,2315147,2019-08-31 10:28:55:226,0.6546,1.6804,9.3059,0.1263,0.2331,9.8031,0.0117,-0.0154,0.0868,7.16,-13.68,-28.53,58.82,-5.25,3.55
23152,52.00415,-2.054344,81,3.1,9.0,51.7,17 / 24,2315241,2019-08-31 10:28:55:320,0.8718,0.3781,9.4806,0.0674,0.1237,9.8056,0.0021,0.0091,0.1017,7.16,-13.68,-28.53,58.82,-5.25,3.55
23153,52.00415,-2.054344,81,3.1,9.0,51.7,17 / 24,2315341,2019-08-31 10:28:55:420,0.3392,1.4045,9.5193,0.0797,0.2253,9.8037,-0.0202,0.0123,0.0954,7.53,-14.43,-28.53,54.39,-6.62,3.26
23154,52.00415,-2.054344,81,3.1,9.0,51.7,17 / 24,2315441,2019-08-31 10:28:55:520,-0.1589,1.0119,9.0939,-0.012,0.1272,9.8058,0.0213,0.0027,0.0975,8.28,-13.74,-28.15,53.49,-7.18,2.77
23155,52.00415,-2.054344,81,3.1,9.0,51.7,17 / 24,2315541,2019-08-31 10:28:55:620,0.4562,0.3564,9.9716,0.0739,0.2365,9.8035,0.0213,0.0027,0.0975,8.28,-13.74,-28.15,53.49,-7.18,2.77
23156,52.00415,-2.054344,81,3.1,9.0,51.7,17 / 24,2315641,2019-08-31 10:28:55:720,0.1572,1.4383,10.1807,0.0816,0.0788,9.806,0.0309,-0.0335,0.1124,8.28,-13.74,-28.59,51.3,-8.55,2.29
23157,52.00415,-2.054344,81,3.1,9.0,51.7,17 / 24,2315741,2019-08-31 10:28:55:820,0.5697,0.4372,10.0965,0.1627,0.1534,9.8041,0.0309,0.0357,0.0858,8.28,-13.74,-28.59,51.3,-8.55,2.29
23158,52.00415,-2.054344,81,3.1,9.0,51.7,17 / 24,2315841,2019-08-31 10:28:55:920,0.7172,0.2921,9.2108,0.0486,0.0616,9.8063,-0.0011,-0.0176,0.0858,8.28,-13.36,-28.59,48.18,-9.85,2.47
23159,52.00415,-2.054344,81,3.1,9.0,51.7,17 / 24,2315941,2019-08-31 10:28:56:020,-0.6428,0.1047,9.7802,0.0283,0.0703,9.8064,-0.0693,-0.0985,0.1305,8.66,-13.74,-29.09,47.54,-10.3,2.44
23160,52.004177,-2.054295,81,4.08,9.0,46.4,17 / 24,2316040,2019-08-31 10:28:56:119,0.5237,0.7936,9.4379,0.0267,0.1459,9.8055,-0.0117,0.0325,0.0868,8.66,-14.11,-28.65,46.37,-11.04,1.97
23161,52.004177,-2.054295,81,4.08,9.0,46.4,17 / 24,2316141,2019-08-31 10:28:56:220,-0.1637,-0.0536,9.8644,-0.005,0.0569,9.8065,0.0415,-0.074,0.0581,8.66,-14.11,-28.65,46.37,-11.04,1.97
23162,52.004177,-2.054295,81,4.08,9.0,46.4,17 / 24,2316242,2019-08-31 10:28:56:321,-0.4557,0.5346,8.4665,0.0013,0.0289,9.8066,0.0415,-0.074,0.0581,9.41,-13.36,-29.09,43.89,-11.26,1.72
23163,52.004177,-2.054295,81,4.08,9.0,46.4,17 / 24,2316341,2019-08-31 10:28:56:420,0.0855,0.1968,10.1269,0.0431,0.0497,9.8064,0.0202,-0.0026,0.0804,9.03,-12.99,-29.09,43.89,-11.26,1.72
23164,52.004177,-2.054295,81,4.08,9.0,46.4,17 / 24,2316441,2019-08-31 10:28:56:520,-0.3076,0.1597,9.5901,0.0301,0.0473,9.8065,0.0117,0.0336,0.0346,9.41,-12.99,-29.53,43.08,-11.93,1.83
23165,52.004177,-2.054295,81,4.08,9.0,46.4,17 / 24,2316541,2019-08-31 10:28:56:620,-0.1748,0.352,9.8134,0.0473,0.1243,9.8057,-0.0128,0.0506,0.0112,9.41,-13.36,-29.09,43.08,-11.93,1.83
23166,52.004177,-2.054295,81,4.08,9.0,46.4,17 / 24,2316641,2019-08-31 10:28:56:720,0.0561,0.1986,9.9824,0.0567,0.1811,9.8048,0.0128,-0.0005,-0.0112,9.41,-13.36,-29.09,43.08,-11.93,1.83
23167,52.004177,-2.054295,81,4.08,9.0,46.4,17 / 24,2316741,2019-08-31 10:28:56:820,-0.2746,0.3325,10.2552,0.0266,0.0452,9.8065,0.0405,-0.0016,0.0037,9.41,-12.99,-29.15,41.94,-12.9,1.27
23168,52.004177,-2.054295,81,4.08,9.0,46.4,17 / 24,2316841,2019-08-31 10:28:56:920,0.9351,-0.1792,9.4455,0.0078,0.0021,9.8066,0.0224,-0.0271,0.0037,9.03,-12.99,-29.15,41.58,-13.19,1.17
23169,52.004177,-2.054295,81,4.08,9.0,46.4,17 / 24,2316941,2019-08-31 10:28:57:020,-1.0481,-0.2331,10.4242,0.0309,0.0048,9.8066,-0.0522,-0.0676,0.041,9.41,-12.24,-29.15,39.41,-13.34,1.28
23170,52.004177,-2.054295,81,4.08,9.0,46.4,17 / 24,2317042,2019-08-31 10:28:57:121,0.8339,-0.283,9.55,-0.0113,0.0153,9.8066,-0.0522,-0.0676,0.041,9.78,-12.61,-29.53,39.41,-13.34,1.28
23171,52.004215,-2.054233,80,6.17,9.0,44.7,17 / 24,2317141,2019-08-31 10:28:57:220,-2.0041,0.127,10.8243,-0.0249,0.0259,9.8066,-0.0352,-0.1177,0.0336,9.78,-12.61,-29.53,39.41,-13.34,1.28
23172,52.004215,-2.054233,80,6.17,9.0,44.7,17 / 24,2317241,2019-08-31 10:28:57:320,0.7257,0.0759,8.6525,-0.0197,0.0378,9.8066,0.0,-0.1262,-0.0048,9.41,-12.3,-29.15,39.06,-13.39,1.03
23173,52.004215,-2.054233,80,6.17,9.0,44.7,17 / 24,2317341,2019-08-31 10:28:57:420,-1.6588,-0.4014,10.3808,0.0024,-0.0021,9.8067,0.0341,-0.0335,-0.073,9.41,-12.24,-29.15,39.08,-13.4,1.04
23174,52.004215,-2.054233,80,6.17,9.0,44.7,17 / 24,2317440,2019-08-31 10:28:57:519,0.6399,0.4264,9.3577,0.0014,0.0195,9.8066,0.0213,0.139,-0.024,9.03,-12.24,-29.53,38.51,-13.61,1.03
23175,52.004215,-2.054233,80,6.17,9.0,44.7,17 / 24,2317541,2019-08-31 10:28:57:620,-0.548,-0.0538,10.4782,-0.0386,0.0406,9.8065,-0.0075,-0.0602,-0.0474,9.03,-12.24,-29.53,38.51,-13.61,1.03
23176,52.004215,-2.054233,80,6.17,9.0,44.7,17 / 24,2317641,2019-08-31 10:28:57:720,-1.2207,-0.0121,9.9873,-0.0264,0.036,9.8065,-0.0181,0.0698,-0.057,8.66,-12.61,-29.59,40.3,-13.58,0.7
23177,52.004215,-2.054233,80,6.17,9.0,44.7,17 / 24,2317741,2019-08-31 10:28:57:820,-0.8371,0.2776,9.6289,-0.0465,0.1012,9.806,-0.0181,0.0698,-0.057,8.28,-12.61,-29.59,41.16,-13.76,0.05
23178,52.004215,-2.054233,80,6.17,9.0,44.7,17 / 24,2317841,2019-08-31 10:28:57:920,-0.8737,0.3667,10.1261,-0.0487,0.0463,9.8064,-0.0234,0.0155,-0.0985,8.28,-12.61,-29.59,41.16,-13.76,0.05
23179,52.004215,-2.054233,80,6.17,9.0,44.7,17 / 24,2317941,2019-08-31 10:28:58:020,-1.3815,0.3167,10.0994,-0.14,0.0978,9.8052,-0.0213,-0.009,-0.123,8.28,-12.99,-29.96,41.16,-13.76,0.05
23180,52.004276,-2.054143,80,7.95,9.0,47.3,17 / 24,2318041,2019-08-31 10:28:58:120,-1.5021,0.5046,10.1977,-0.0902,0.0557,9.8061,-0.033,0.057,-0.1443,8.66,-12.99,-29.59,38.34,-13.51,-0.94
23181,52.004276,-2.054143,80,7.95,9.0,47.3,17 / 24,2318140,2019-08-31 10:28:58:219,-1.1985,0.4006,9.9756,-0.1577,0.1128,9.8047,-0.0298,0.0346,-0.1486,8.28,-12.99,-29.96,38.94,-13.2,-2.06
23182,52.004276,-2.054143,80,7.95,9.0,47.3,17 / 24,2318241,2019-08-31 10:28:58:320,-1.7831,0.3637,9.7077,-0.1409,0.1588,9.8044,-0.0693,0.0176,-0.1774,7.91,-13.36,-29.53,38.94,-13.2,-2.06
23183,52.004276,-2.054143,80,7.95,9.0,47.3,17 / 24,2318341,2019-08-31 10:28:58:420,-1.7825,0.7055,9.3937,-0.2088,0.2449,9.8014,-0.0256,-0.0112,-0.1933,7.91,-13.36,-29.53,38.94,-13.2,-2.06
23184,52.004276,-2.054143,80,7.95,9.0,47.3,17 / 24,2318441,2019-08-31 10:28:58:520,-1.7489,0.6896,10.2877,-0.0281,0.0599,9.8064,-0.0288,0.0027,-0.1475,7.16,-13.36,-29.53,38.2,-13.14,-3.99
23185,52.004276,-2.054143,80,7.95,9.0,47.3,17 / 24,2318541,2019-08-31 10:28:58:620,-1.3704,-0.009,10.2683,-0.0516,0.0372,9.8064,-0.0288,0.0027,-0.1475,6.78,-14.11,-28.65,40.65,-13.23,-4.38
23186,52.004276,-2.054143,80,7.95,9.0,47.3,17 / 24,2318642,2019-08-31 10:28:58:721,-1.6534,0.3764,10.3216,-0.1103,0.0812,9.8057,-0.0245,-0.0112,-0.1688,6.78,-14.11,-28.65,40.65,-13.23,-4.38
23187,52.004276,-2.054143,80,7.95,9.0,47.3,17 / 24,2318741,2019-08-31 10:28:58:820,-1.305,0.1553,9.4171,-0.063,0.0372,9.8064,0.0096,0.0123,-0.1997,6.09,-14.11,-28.21,42.57,-13.05,-5.18
23188,52.004276,-2.054143,80,7.95,9.0,47.3,17 / 24,2318841,2019-08-31 10:28:58:920,-1.3341,-0.0228,9.143,-0.1193,0.0615,9.8057,-0.0202,-0.0367,-0.1912,5.72,-14.11,-29.53,42.57,-13.05,-5.18
23189,52.004276,-2.054143,80,7.95,9.0,47.3,17 / 24,2318940,2019-08-31 10:28:59:019,-1.3979,0.2302,9.817,-0.182,0.0884,9.8046,-0.0213,-0.0112,-0.2434,5.34,-14.49,-29.46,42.99,-12.61,-6.31
23190,52.004276,-2.054143,80,7.95,9.0,47.3,17 / 24,2319041,2019-08-31 10:28:59:120,-0.9344,-0.1164,11.3046,-0.0859,0.0185,9.8063,-0.0426,-0.0005,-0.2104,5.34,-14.49,-29.46,42.99,-12.61,-6.31
23191,52.00433,-2.054032,80,9.27,9.0,58.1,17 / 24,2319141,2019-08-31 10:28:59:220,-1.0744,0.2788,8.7487,-0.0594,0.0664,9.8062,-0.0213,0.0144,-0.2253,4.97,-14.8,-29.46,44.89,-12.12,-7.14
23192,52.00433,-2.054032,80,9.27,9.0,58.1,17 / 24,2319241,2019-08-31 10:28:59:320,-1.5299,-0.1094,10.3289,-0.0749,0.0528,9.8062,-0.0714,-0.0122,-0.2223,4.22,-14.8,-28.21,47.57,-12.15,-7.67
23193,52.00433,-2.054032,80,9.27,9.0,58.1,17 / 24,2319341,2019-08-31 10:28:59:420,-0.8522,0.0793,9.8074,-0.1567,0.0994,9.8049,-0.0714,-0.0122,-0.2223,4.22,-14.8,-28.21,47.57,-12.15,-7.67
23194,52.00433,-2.054032,80,9.27,9.0,58.1,17 / 24,2319441,2019-08-31 10:28:59:520,-0.5918,-0.0378,9.6759,-0.0524,0.0239,9.8065,-0.0075,-0.0101,-0.2446,3.84,-15.55,-28.21,48.68,-11.95,-8.77
23195,52.00433,-2.054032,80,9.27,9.0,58.1,17 / 24,2319542,2019-08-31 10:28:59:621,-0.75,0.1347,9.9121,-0.1029,0.0705,9.8059,-0.0597,-0.0122,-0.1935,2.78,-15.55,-29.03,49.58,-11.87,-9.51
23196,52.00433,-2.054032,80,9.27,9.0,58.1,17 / 24,2319643,2019-08-31 10:28:59:722,-0.9467,-0.475,10.1172,-0.0525,0.0427,9.8064,-0.0714,-0.0218,-0.1903,2.99,-15.92,-30.04,49.58,-11.87,-9.51
23197,52.00433,-2.054032,80,9.27,9.0,58.1,17 / 24,2319740,2019-08-31 10:28:59:819,-0.4237,-0.2311,10.166,-0.1097,0.0665,9.8058,-0.0586,-0.0293,-0.202,2.99,-15.92,-30.04,49.58,-11.87,-9.51
23198,52.00433,-2.054032,80,9.27,9.0,58.1,17 / 24,2319841,2019-08-31 10:28:59:920,-0.6825,-0.3871,9.5925,-0.0583,0.0233,9.8065,-0.0607,0.0165,-0.1967,2.24,-15.92,-30.04,50.59,-11.74,-10.26
23199,52.00433,-2.054032,80,9.27,9.0,58.1,17 / 24,2319941,2019-08-31 10:29:00:020,-1.2572,-0.5581,10.4871,-0.1015,0.0802,9.8058,0.0074,0.0719,-0.1935,1.49,-16.67,-28.73,56.3,-11.73,-11.03
23200,52.004364,-2.053896,80,10.25,9.0,70.5,17 / 24,2320041,2019-08-31 10:29:00:120,-0.5551,-0.8894,11.0742,-0.0154,0.0354,9.8066,0.0074,0.0719,-0.1935,1.49,-16.67,-28.73,56.3,-11.73,-11.03
23201,52.004364,-2.053896,80,10.25,9.0,70.5,17 / 24,2320141,2019-08-31 10:29:00:220,0.2112,-0.9124,9.6132,0.0312,-0.04,9.8065,0.0501,0.0655,-0.1967,1.11,-16.67,-28.73,55.78,-11.85,-11.23
23202,52.004364,-2.053896,80,10.25,9.0,70.5,17 / 24,2320240,2019-08-31 10:29:00:319,0.4568,-0.6189,10.264,0.0319,-0.0789,9.8063,0.0192,0.0773,-0.169,0.74,-16.67,-30.42,55.78,-11.85,-11.23
23203,52.004364,-2.053896,80,10.25,9.0,70.5,17 / 24,2320341,2019-08-31 10:29:00:420,-0.1383,-1.5002,10.155,0.0446,-0.0676,9.8063,0.0245,0.0655,-0.1147,0.05,-17.36,-29.98,59.39,-11.57,-10.8
23204,52.004364,-2.053896,80,10.25,9.0,70.5,17 / 24,2320441,2019-08-31 10:29:00:520,1.6907,-0.8718,8.9129,0.0191,-0.0999,9.8061,-0.0352,-0.0698,-0.0561,0.05,-16.99,-29.98,60.45,-11.37,-10.37
23205,52.004364,-2.053896,80,10.25,9.0,70.5,17 / 24,2320542,2019-08-31 10:29:00:621,0.0174,-1.54,9.6812,0.0725,-0.1913,9.8045,0.0373,-0.0719,-0.0444,-0.33,-16.61,-29.11,64.33,-10.6,-9.44
23206,52.004364,-2.053896,80,10.25,9.0,70.5,17 / 24,2320641,2019-08-31 10:29:00:720,1.675,-1.4221,10.7065,0.1155,-0.1082,9.8054,-0.0192,-0.0122,-0.0327,-0.33,-16.61,-29.11,64.33,-10.6,-9.44
23207,52.004364,-2.053896,80,10.25,9.0,70.5,17 / 24,2320741,2019-08-31 10:29:00:820,2.1656,-0.3858,8.881,0.0958,-0.0403,9.8061,0.0021,0.0592,-0.0231,-0.33,-16.61,-29.11,65.91,-10.32,-8.54
23208,52.004364,-2.053896,80,10.25,9.0,70.5,17 / 24,2320841,2019-08-31 10:29:00:920,1.0786,-0.766,9.9477,0.1548,-0.0894,9.805,0.0021,0.0592,-0.0231,-0.7,-16.99,-30.79,69.24,-10.21,-7.48
23209,52.004364,-2.053896,80,10.25,9.0,70.5,17 / 24,2320943,2019-08-31 10:29:01:022,2.1,-0.785,9.2793,0.085,-0.0563,9.8061,0.0106,0.0027,0.011,-0.7,-16.61,-30.36,69.24,-10.21,-7.48
23210,52.00439,-2.053739,80,11.32,9.0,75.5,17 / 24,2321041,2019-08-31 10:29:01:120,1.3298,-1.6565,9.9057,0.2186,-0.1016,9.8037,-0.0171,-0.0303,0.0206,-0.33,-16.99,-29.92,68.0,-10.11,-6.06
23211,52.00439,-2.053739,80,11.32,9.0,75.5,17 / 24,2321140,2019-08-31 10:29:01:219,1.5078,-0.2313,8.706,0.1317,-0.1603,9.8045,-0.0597,-0.0378,0.0334,-0.33,-16.99,-29.92,68.0,-10.11,-6.06
23212,52.00439,-2.053739,80,11.32,9.0,75.5,17 / 24,2321241,2019-08-31 10:29:01:320,1.1073,-1.3263,10.1083,0.0934,-0.069,9.806,0.0106,0.0133,0.059,-0.7,-17.74,-29.04,75.27,-9.53,-4.98
23213,52.00439,-2.053739,80,11.32,9.0,75.5,17 / 24,2321342,2019-08-31 10:29:01:421,1.5046,-0.4457,8.9812,0.0514,-0.0851,9.8061,-0.032,-0.057,0.0877,-0.33,-16.99,-29.11,71.74,-9.27,-4.34
23214,52.00439,-2.053739,80,11.32,9.0,75.5,17 / 24,2321441,2019-08-31 10:29:01:520,1.4552,0.0656,8.9169,0.1312,-0.1108,9.8051,-0.0245,0.0677,0.0835,-0.33,-16.99,-30.73,71.91,-8.9,-3.4
23215,52.00439,-2.053739,80,11.32,9.0,75.5,17 / 24,2321541,2019-08-31 10:29:01:620,2.0433,-0.4584,9.9075,0.1021,-0.0272,9.8061,-0.0245,0.0677,0.0835,-0.33,-16.99,-30.73,71.91,-8.9,-3.4
23216,52.00439,-2.053739,80,11.32,9.0,75.5,17 / 24,2321640,2019-08-31 10:29:01:719,1.3793,-0.806,10.3171,0.0735,-0.0403,9.8063,-0.0479,-0.0442,0.0707,-0.33,-16.99,-29.92,72.89,-8.93,-2.77
23217,52.00439,-2.053739,80,11.32,9.0,75.5,17 / 24,2321741,2019-08-31 10:29:01:820,0.2787,-0.4825,9.505,0.0712,-0.0745,9.8061,-0.082,-0.0133,0.0398,0.05,-17.36,-30.36,72.89,-8.93,-2.77
23218,52.00439,-2.053739,80,11.32,9.0,75.5,17 / 24,2321841,2019-08-31 10:29:01:920,1.1145,-0.1122,9.4899,0.0937,-0.0975,9.8057,0.0117,-0.0335,0.0632,0.05,-17.74,-29.04,75.42,-8.55,-2.07
23219,52.00439,-2.053739,80,11.32,9.0,75.5,17 / 24,2321942,2019-08-31 10:29:02:021,1.198,-0.3975,10.3671,0.0984,-0.0042,9.8062,0.0447,0.0858,0.0654,0.05,-17.74,-29.04,75.42,-8.55,-2.07
23220,52.004425,-2.053572,80,12.06,9.0,73.0,17 / 24,2322041,2019-08-31 10:29:02:120,1.3357,-0.4919,9.6225,0.1049,-0.0315,9.806,-0.0107,-0.122,0.0813,0.05,-17.74,-29.86,75.06,-8.67,-1.51
23221,52.004425,-2.053572,80,12.06,9.0,73.0,17 / 24,2322141,2019-08-31 10:29:02:220,1.2361,-0.4174,9.3767,0.1809,-0.0972,9.8045,-0.0085,0.0357,0.0675,-0.33,-17.36,-29.04,75.06,-8.67,-1.51
23222,52.004425,-2.053572,80,12.06,9.0,73.0,17 / 24,2322241,2019-08-31 10:29:02:320,0.7467,-0.2524,10.1765,0.067,-0.0104,9.8064,0.0,0.0133,0.0909,0.8,-18.11,-30.29,73.59,-8.28,0.04
23223,52.004425,-2.053572,80,12.06,9.0,73.0,17 / 24,2322341,2019-08-31 10:29:02:420,0.9514,-0.2885,9.2248,0.123,-0.025,9.8058,0.0,0.0133,0.0909,0.8,-18.11,-29.86,73.59,-8.28,0.04
23224,52.004425,-2.053572,80,12.06,9.0,73.0,17 / 24,2322441,2019-08-31 10:29:02:520,0.9891,-0.7832,10.2475,0.0539,-0.0332,9.8064,0.0266,-0.0058,0.059,0.8,-17.74,-29.48,74.33,-8.34,0.78
23225,52.004425,-2.053572,80,12.06,9.0,73.0,17 / 24,2322541,2019-08-31 10:29:02:620,1.2815,0.1714,8.1906,0.0194,-0.0517,9.8065,-0.0756,-0.0697,0.1421,1.86,-17.36,-28.61,70.9,-8.24,1.14
23226,52.004425,-2.053572,80,12.06,9.0,73.0,17 / 24,2322641,2019-08-31 10:29:02:720,0.296,-0.5852,9.6453,0.0894,-0.1132,9.8056,0.0405,-0.0218,0.0504,1.86,-17.36,-28.61,70.9,-8.24,1.14
23227,52.004425,-2.053572,80,12.06,9.0,73.0,17 / 24,2322741,2019-08-31 10:29:02:820,1.6405,-0.2709,9.6561,0.0283,-0.0268,9.8066,-0.0128,-0.0463,0.0504,1.86,-17.74,-29.42,72.89,-7.78,1.85
23228,52.004425,-2.053572,80,12.06,9.0,73.0,17 / 24,2322841,2019-08-31 10:29:02:920,0.7764,0.1473,10.2984,0.0573,-0.0203,9.8065,-0.0053,-0.0186,0.0696,2.24,-17.74,-29.86,72.89,-7.78,1.85
23229,52.004425,-2.053572,80,12.06,9.0,73.0,17 / 24,2322941,2019-08-31 10:29:03:020,0.0521,-0.1862,10.7356,0.1016,-0.0332,9.8061,0.0053,0.0837,0.0472,1.86,-17.36,-30.29,72.02,-7.77,2.48
23230,52.004456,-2.053396,81,12.7,9.0,69.1,17 / 24,2323041,2019-08-31 10:29:03:120,0.4204,0.8569,7.3955,0.0297,0.0259,9.8066,0.0053,0.0837,0.0472,1.86,-17.36,-30.29,72.02,-7.77,2.48
23231,52.004456,-2.053396,81,12.7,9.0,69.1,17 / 24,2323140,2019-08-31 10:29:03:219,0.5783,0.5354,7.5347,0.0561,0.0524,9.8064,-0.0139,0.0389,0.0696,2.24,-18.11,-29.04,72.84,-8.16,2.7
23232,52.004456,-2.053396,81,12.7,9.0,69.1,17 / 24,2323241,2019-08-31 10:29:03:320,0.9742,-0.0335,9.6902,0.039,0.0063,9.8066,0.0383,-0.0154,0.0334,1.86,-18.05,-29.42,72.82,-8.27,2.91
23233,52.004456,-2.053396,81,12.7,9.0,69.1,17 / 24,2323340,2019-08-31 10:29:03:419,0.3307,0.0706,11.1479,0.0328,-0.0199,9.8066,0.0277,0.106,0.0078,2.24,-17.74,-28.98,73.15,-8.12,3.18
23234,52.004456,-2.053396,81,12.7,9.0,69.1,17 / 24,2323441,2019-08-31 10:29:03:520,0.321,0.4166,8.8286,0.0522,-0.0342,9.8065,0.0128,-0.0197,0.0611,2.24,-17.74,-28.98,73.15,-8.12,3.18
23235,52.004456,-2.053396,81,12.7,9.0,69.1,17 / 24,2323541,2019-08-31 10:29:03:620,0.6507,-0.084,9.3767,0.0144,-0.0129,9.8066,0.0501,-0.009,0.0185,2.61,-17.74,-30.67,70.26,-8.02,3.53
23236,52.004456,-2.053396,81,12.7,9.0,69.1,17 / 24,2323640,2019-08-31 10:29:03:719,0.6509,-0.1881,9.8117,0.0556,-0.0379,9.8064,0.0309,0.0165,0.0377,2.99,-17.74,-29.86,70.26,-8.02,3.53
23237,52.004456,-2.053396,81,12.7,9.0,69.1,17 / 24,2323741,2019-08-31 10:29:03:820,-0.05,-0.5687,10.24,0.0866,-0.057,9.8061,0.0053,-0.0112,0.0547,3.36,-17.36,-30.23,70.14,-7.88,4.12
23238,52.004456,-2.053396,81,12.7,9.0,69.1,17 / 24,2323841,2019-08-31 10:29:03:920,0.7493,0.102,9.4909,0.0314,-0.0358,9.8065,0.0053,-0.0112,0.0547,3.36,-17.36,-30.23,70.14,-7.88,4.12
23239,52.004456,-2.053396,81,12.7,9.0,69.1,17 / 24,2323941,2019-08-31 10:29:04:020,0.7484,0.2448,8.2876,0.0748,-0.0329,9.8063,-0.0288,-0.0239,0.0803,3.74,-17.36,-30.67,70.14,-7.88,4.12
23240,52.004498,-2.053212,81,13.51,9.0,65.7,17 / 24,2324042,2019-08-31 10:29:04:121,0.071,-0.3268,10.5458,0.0213,0.0657,9.8064,-0.0021,0.1156,0.0664,2.99,-17.36,-30.67,70.18,-7.85,4.6
23241,52.004498,-2.053212,81,13.51,9.0,65.7,17 / 24,2324140,2019-08-31 10:29:04:219,1.3008,1.8748,9.8596,0.0215,0.0107,9.8066,-0.0948,-0.0463,0.0941,2.61,-17.36,-30.23,69.8,-8.43,4.74
23242,52.004498,-2.053212,81,13.51,9.0,65.7,17 / 24,2324241,2019-08-31 10:29:04:320,-0.8586,0.3121,8.6681,0.0471,-0.0248,9.8065,0.0682,0.0336,0.0313,2.61,-17.36,-30.23,69.8,-8.43,4.74
23243,52.004498,-2.053212,81,13.51,9.0,65.7,17 / 24,2324341,2019-08-31 10:29:04:420,-0.2434,0.1343,9.4001,-0.0142,-0.0585,9.8065,-0.032,-0.0655,0.0962,2.99,-17.36,-30.61,69.75,-8.39,5.05
23244,52.004498,-2.053212,81,13.51,9.0,65.7,17 / 24,2324441,2019-08-31 10:29:04:520,0.192,-0.7167,10.5076,-0.0008,-0.1352,9.8057,0.0383,-0.0879,0.0707,4.11,-16.99,-30.67,69.75,-8.39,5.05
23245,52.004498,-2.053212,81,13.51,9.0,65.7,17 / 24,2324542,2019-08-31 10:29:04:621,0.2288,-0.6922,10.1874,0.0078,-0.1013,9.8061,0.016,-0.058,0.0813,4.11,-16.99,-30.23,68.58,-7.65,5.32
23246,52.004498,-2.053212,81,13.51,9.0,65.7,17 / 24,2324641,2019-08-31 10:29:04:720,0.6191,-0.0349,9.1886,0.0275,-0.1538,9.8054,0.016,-0.058,0.0813,4.8,-16.99,-30.67,67.15,-6.87,5.8
23247,52.004498,-2.053212,81,13.51,9.0,65.7,17 / 24,2324742,2019-08-31 10:29:04:821,-0.1796,-0.5636,10.337,0.0497,0.0776,9.8062,0.0064,0.0996,0.0835,4.8,-16.99,-30.67,67.15,-6.87,5.8
23248,52.004498,-2.053212,81,13.51,9.0,65.7,17 / 24,2324841,2019-08-31 10:29:04:920,-0.1852,-0.2182,10.7256,0.0188,0.0264,9.8066,0.0064,0.057,0.0675,4.49,-16.61,-30.61,69.0,-7.4,5.89
23249,52.004498,-2.053212,81,13.51,9.0,65.7,17 / 24,2324942,2019-08-31 10:29:05:021,-0.2279,0.3295,8.5252,0.0437,-0.0088,9.8065,-0.0288,0.0251,0.1197,4.49,-16.61,-30.61,69.1,-7.44,6.15
23250,52.00456,-2.053013,80,14.4,9.0,61.8,17 / 24,2325042,2019-08-31 10:29:05:121,-0.0714,0.066,10.2358,0.0214,0.0019,9.8066,0.033,0.0197,0.0536,4.49,-16.24,-30.61,68.09,-7.5,6.27
23251,52.00456,-2.053013,80,14.4,9.0,61.8,18 / 24,2325141,2019-08-31 10:29:05:220,-0.3076,0.0423,9.7511,0.0328,-0.0365,9.8065,-0.0373,-0.0495,0.0909,4.49,-16.24,-30.61,68.09,-7.5,6.27
23252,52.00456,-2.053013,80,14.4,9.0,61.8,18 / 24,2325241,2019-08-31 10:29:05:320,-0.2889,-0.3847,9.6556,-0.0184,-0.0707,9.8064,0.0117,-0.0815,0.0771,4.49,-16.61,-31.04,69.4,-7.37,6.53
23253,52.00456,-2.053013,80,14.4,9.0,61.8,18 / 24,2325342,2019-08-31 10:29:05:421,-0.0534,-0.5138,9.7115,-0.0403,-0.1462,9.8055,0.0032,-0.0452,0.0355,5.17,-15.86,-30.17,69.4,-7.37,6.53
23254,52.00456,-2.053013,80,14.4,9.0,61.8,18 / 24,2325441,2019-08-31 10:29:05:520,-0.2679,-0.2267,8.6787,-0.0561,-0.1381,9.8055,0.0032,-0.0452,0.0355,5.55,-15.86,-30.17,64.67,-6.5,6.5
23255,52.00456,-2.053013,80,14.4,9.0,61.8,18 / 24,2325542,2019-08-31 10:29:05:621,-0.4205,0.1362,10.4359,-0.0045,0.0031,9.8066,0.016,0.0496,0.0398,5.55,-16.99,-30.17,65.77,-6.51,6.47
23256,52.00456,-2.053013,80,14.4,9.0,61.8,18 / 24,2325641,2019-08-31 10:29:05:720,-0.543,0.2915,9.5628,0.0031,0.0215,9.8066,0.0149,0.0304,0.0536,5.55,-16.99,-30.17,65.77,-6.51,6.47
23257,52.00456,-2.053013,80,14.4,9.0,61.8,18 / 24,2325740,2019-08-31 10:29:05:819,-0.3261,0.2277,10.738,0.0135,0.0384,9.8066,0.0596,0.0091,0.0057,5.17,-16.61,-30.23,67.87,-6.74,6.45
23258,52.00456,-2.053013,80,14.4,9.0,61.8,18 / 24,2325841,2019-08-31 10:29:05:920,-0.3489,0.4186,8.9365,0.0232,0.0406,9.8065,0.0351,0.0101,0.0238,4.8,-15.86,-30.98,66.33,-7.01,6.49
23259,52.00456,-2.053013,80,14.4,9.0,61.8,18 / 24,2325941,2019-08-31 10:29:06:020,0.099,0.0396,9.6655,0.0303,0.0425,9.8065,0.0224,0.0496,-0.0082,4.8,-15.86,-30.98,66.33,-7.01,6.49
23260,52.004616,-2.052822,79,14.76,9.0,59.0,18 / 24,2326041,2019-08-31 10:29:06:120,-0.0288,0.2466,10.3152,-0.0501,0.0082,9.8065,-0.0064,-0.09,0.0547,5.17,-16.24,-30.54,66.01,-7.31,6.55
23261,52.004616,-2.052822,79,14.76,9.0,59.0,18 / 24,2326141,2019-08-31 10:29:06:220,-0.2354,0.1351,9.0207,-0.06,-0.0127,9.8065,0.0341,0.0101,0.0281,5.17,-15.86,-30.61,66.01,-7.31,6.55
23262,52.004616,-2.052822,79,14.76,9.0,59.0,18 / 24,2326242,2019-08-31 10:29:06:321,-0.311,0.2126,9.8954,-0.0244,-0.0315,9.8066,-0.0064,-0.0623,0.0472,5.55,-16.24,-30.61,63.66,-7.1,6.26
23263,52.004616,-2.052822,79,14.76,9.0,59.0,18 / 24,2326341,2019-08-31 10:29:06:420,-0.5325,0.1385,9.5884,-0.0299,-0.0529,9.8065,-0.0064,-0.0623,0.0472,5.92,-15.49,-30.11,62.8,-6.87,6.21
23264,52.004616,-2.052822,79,14.76,9.0,59.0,18 / 24,2326441,2019-08-31 10:29:06:520,-0.0709,0.0374,9.4854,-0.036,-0.0743,9.8063,0.016,-0.0421,0.0366,6.67,-15.86,-30.54,62.8,-6.87,6.21
23265,52.004616,-2.052822,79,14.76,9.0,59.0,18 / 24,2326541,2019-08-31 10:29:06:620,-0.3576,-0.1535,10.7496,-0.0559,-0.0386,9.8064,-0.0224,0.041,0.0227,6.67,-15.86,-30.54,62.8,-6.87,6.21
23266,52.004616,-2.052822,79,14.76,9.0,59.0,18 / 24,2326641,2019-08-31 10:29:06:720,-0.4449,0.2357,10.1398,-0.0388,0.0273,9.8065,0.0138,0.0219,0.0195,6.3,-15.49,-30.54,62.93,-6.52,6.02
23267,52.004616,-2.052822,79,14.76,9.0,59.0,18 / 24,2326741,2019-08-31 10:29:06:820,0.0851,0.1974,9.4924,-0.0307,0.0233,9.8066,0.0181,0.0101,0.0323,6.67,-15.49,-29.73,62.93,-6.52,6.02
23268,52.004616,-2.052822,79,14.76,9.0,59.0,18 / 24,2326841,2019-08-31 10:29:06:920,-0.5673,-0.2664,10.4877,-0.0341,0.0635,9.8064,-0.0373,-0.0069,0.0536,6.67,-15.86,-30.98,61.29,-6.76,5.67
23269,52.004616,-2.052822,79,14.76,9.0,59.0,18 / 24,2326941,2019-08-31 10:29:07:020,-0.3486,-0.124,9.3804,-0.0362,-0.0067,9.8066,-0.0213,-0.009,0.0334,6.3,-15.11,-30.54,62.07,-6.79,5.33
23270,52.00468,-2.052626,78,15.35,10.0,57.3,18 / 24,2327041,2019-08-31 10:29:07:120,-0.625,0.3421,9.1962,-0.0758,0.0026,9.8064,-0.0266,-0.009,0.0334,6.3,-15.11,-30.54,62.07,-6.79,5.33
23271,52.00468,-2.052626,78,15.35,10.0,57.3,18 / 24,2327141,2019-08-31 10:29:07:220,-0.7406,0.2624,9.492,-0.0403,0.0122,9.8066,-0.016,0.0059,0.0142,5.17,-13.99,-30.11,63.43,-6.6,4.93
23272,52.00468,-2.052626,78,15.35,10.0,57.3,18 / 24,2327241,2019-08-31 10:29:07:320,-0.2601,0.2656,9.8183,-0.071,0.0468,9.8063,-0.016,0.0059,0.0142,4.86,-16.92,-29.23,63.43,-6.6,4.93
23273,52.00468,-2.052626,78,15.35,10.0,57.3,18 / 24,2327341,2019-08-31 10:29:07:420,-0.158,0.4029,9.1555,-0.109,0.0474,9.8059,-0.0021,-0.0346,0.044,7.05,-16.92,-30.11,61.91,-6.56,4.23
23274,52.00468,-2.052626,78,15.35,10.0,57.3,18 / 24,2327441,2019-08-31 10:29:07:520,-0.1398,-0.1477,9.8422,-0.0289,-0.0368,9.8065,0.017,0.0176,0.0217,7.05,-16.24,-30.98,60.71,-6.29,4.19
23275,52.00468,-2.052626,78,15.35,10.0,57.3,18 / 24,2327541,2019-08-31 10:29:07:620,-0.1389,-0.0513,10.4104,-0.0218,0.0114,9.8066,-0.0085,0.0368,0.027,7.05,-16.24,-30.98,60.71,-6.29,4.19
23276,52.00468,-2.052626,78,15.35,10.0,57.3,18 / 24,2327641,2019-08-31 10:29:07:720,0.522,0.6146,10.5357,-0.0504,0.0453,9.8064,-0.0181,-0.0357,0.0259,6.67,-15.86,-30.11,60.71,-6.29,4.19
23277,52.00468,-2.052626,78,15.35,10.0,57.3,18 / 24,2327741,2019-08-31 10:29:07:820,-0.874,0.5429,10.0909,-0.0074,0.0465,9.8065,-0.0064,0.0155,0.044,6.67,-15.49,-30.17,59.04,-6.38,3.8
23278,52.00468,-2.052626,78,15.35,10.0,57.3,18 / 24,2327841,2019-08-31 10:29:07:920,-0.3208,0.1391,9.0138,-0.039,0.0321,9.8065,-0.0064,0.0155,0.044,6.81,-15.85,-31.41,60.01,-6.42,3.5
23279,52.00468,-2.052626,78,15.35,10.0,57.3,18 / 24,2327941,2019-08-31 10:29:08:020,0.2257,0.396,8.7848,-0.0532,0.0247,9.8065,-0.0053,0.0496,0.0078,6.81,-15.85,-31.41,60.01,-6.42,3.5
23280,52.00468,-2.052626,78,15.35,10.0,57.3,18 / 24,2328041,2019-08-31 10:29:08:120,-0.31,0.3382,9.8895,-0.0378,-0.0098,9.8066,-0.0213,-0.0484,0.0313,6.81,-16.22,-30.98,59.77,-6.39,3.16
23281,52.004765,-2.052432,79,16.16,10.0,56.4,18 / 24,2328141,2019-08-31 10:29:08:220,0.2546,-0.0674,9.4423,-0.0452,-0.0276,9.8065,-0.0085,-0.0879,0.0259,6.81,-16.22,-31.41,59.83,-6.23,3.0
23282,52.004765,-2.052432,79,16.16,10.0,56.4,18 / 24,2328241,2019-08-31 10:29:08:320,-0.5956,0.4857,9.2848,-0.0225,-0.0064,9.8066,0.0064,-0.0058,-0.0124,7.19,-15.47,-30.54,58.56,-5.96,2.85
23283,52.004765,-2.052432,79,16.16,10.0,56.4,18 / 24,2328341,2019-08-31 10:29:08:420,-0.4929,0.2234,10.7307,-0.0269,0.0345,9.8066,0.0043,0.0389,0.01,7.19,-15.47,-30.54,58.56,-5.96,2.85
23284,52.004765,-2.052432,79,16.16,10.0,56.4,18 / 24,2328441,2019-08-31 10:29:08:520,0.124,0.1652,9.967,-0.0059,0.0063,9.8066,0.0011,-0.0154,0.0217,6.44,-15.1,-31.41,60.81,-6.05,2.61
23285,52.004765,-2.052432,79,16.16,10.0,56.4,18 / 24,2328541,2019-08-31 10:29:08:620,0.0416,0.622,9.6234,-0.0126,0.0206,9.8066,0.0021,0.057,0.0323,6.81,-15.47,-30.98,58.03,-6.12,2.49
23286,52.004765,-2.052432,79,16.16,10.0,56.4,18 / 24,2328642,2019-08-31 10:29:08:721,0.036,0.074,9.2539,-0.001,0.021,9.8066,0.0,-0.0122,0.0313,6.81,-15.47,-30.98,58.03,-6.12,2.49
23287,52.004765,-2.052432,79,16.16,10.0,56.4,18 / 24,2328741,2019-08-31 10:29:08:820,0.1912,-0.1533,9.3211,-0.0005,0.0062,9.8066,0.0,-0.0122,0.0313,6.81,-15.47,-31.79,57.63,-6.22,2.42
23288,52.004765,-2.052432,79,16.16,10.0,56.4,18 / 24,2328841,2019-08-31 10:29:08:920,-0.2494,-0.3334,9.7039,-0.017,-0.0446,9.8065,0.0117,-0.0644,0.0291,7.19,-15.47,-31.41,58.24,-5.95,2.47
23289,52.004765,-2.052432,79,16.16,10.0,56.4,18 / 24,2328941,2019-08-31 10:29:09:020,0.2461,-0.1476,9.6896,-0.0149,-0.0405,9.8066,-0.0213,-0.0197,0.0494,7.19,-15.47,-31.41,58.24,-5.95,2.47
23290,52.004856,-2.052225,79,16.9,10.0,55.6,18 / 24,2329041,2019-08-31 10:29:09:120,0.2789,0.0105,9.6764,-0.0127,-0.0323,9.8066,0.0021,0.0123,0.0249,7.19,-15.1,-31.35,58.53,-5.75,2.51
23291,52.004856,-2.052225,79,16.9,10.0,55.6,18 / 24,2329141,2019-08-31 10:29:09:220,-0.0007,-0.1317,10.3842,0.0266,0.0228,9.8066,0.016,0.0229,0.0078,7.19,-15.47,-31.79,58.53,-5.75,2.51
23292,52.004856,-2.052225,79,16.9,10.0,55.6,18 / 24,2329240,2019-08-31 10:29:09:319,0.0331,-0.2037,10.1949,-0.0018,0.0174,9.8066,-0.032,-0.0207,0.0185,7.19,-15.1,-31.35,58.34,-5.94,2.57
23293,52.004856,-2.052225,79,16.9,10.0,55.6,18 / 24,2329341,2019-08-31 10:29:09:420,-0.4988,-0.0901,9.3767,-0.0086,0.043,9.8066,-0.032,-0.0207,0.0185,7.19,-15.85,-31.35,59.46,-6.13,2.4
23294,52.004856,-2.052225,79,16.9,10.0,55.6,18 / 24,2329441,2019-08-31 10:29:09:520,0.213,-0.0114,9.4727,-0.012,-0.0105,9.8066,0.0192,0.008,0.0068,7.19,-15.85,-31.35,59.46,-6.13,2.4
23295,52.004856,-2.052225,79,16.9,10.0,55.6,18 / 24,2329541,2019-08-31 10:29:09:620,0.1756,0.1163,8.9855,-0.0033,-0.01,9.8066,0.0138,0.0219,0.0057,7.19,-15.47,-31.35,58.02,-6.04,2.37
23296,52.004856,-2.052225,79,16.9,10.0,55.6,18 / 24,2329641,2019-08-31 10:29:09:720,-0.259,0.0486,9.6042,-0.0129,-0.0211,9.8066,-0.016,-0.0239,0.0259,7.19,-15.1,-31.35,58.21,-5.9,2.37
23297,52.004856,-2.052225,79,16.9,10.0,55.6,18 / 24,2329741,2019-08-31 10:29:09:820,-0.3379,-0.1324,9.6525,-0.0144,-0.0082,9.8066,0.0096,0.0251,0.027,7.56,-15.47,-30.91,55.81,-5.81,2.32
23298,52.004856,-2.052225,79,16.9,10.0,55.6,18 / 24,2329841,2019-08-31 10:29:09:920,0.0456,0.0455,9.8892,-0.0011,-0.0222,9.8066,-0.016,-0.0186,0.0355,7.56,-15.47,-30.91,55.81,-5.81,2.32
23299,52.004856,-2.052225,79,16.9,10.0,55.6,18 / 24,2329941,2019-08-31 10:29:10:020,-0.1149,-0.1616,9.8306,0.0096,-0.0161,9.8066,-0.0171,0.0048,0.0558,6.81,-15.47,-31.35,58.43,-5.77,2.42
23300,52.004856,-2.052225,79,16.9,10.0,55.6,18 / 24,2330041,2019-08-31 10:29:10:120,-0.1106,0.1448,9.9793,0.0072,0.0253,9.8066,-0.0245,0.0197,0.0441,7.19,-15.1,-31.73,58.43,-5.77,2.42
23301,52.004932,-2.052024,78,17.78,10.0,54.6,18 / 24,2330141,2019-08-31 10:29:10:220,-0.2476,0.129,10.1739,-0.0045,-0.006,9.8066,-0.0128,-0.0133,0.043,7.19,-15.1,-31.35,58.2,-5.91,2.38
23302,52.004932,-2.052024,78,17.78,10.0,54.6,18 / 24,2330241,2019-08-31 10:29:10:320,0.1687,0.0282,10.0423,-0.0084,-0.0088,9.8066,-0.0128,-0.0133,0.043,7.19,-15.1,-31.35,58.2,-5.91,2.38
23303,52.004932,-2.052024,78,17.78,10.0,54.6,18 / 24,2330341,2019-08-31 10:29:10:420,0.2366,0.1956,9.6685,-0.0122,0.0037,9.8066,-0.0043,-0.0005,0.0206,6.81,-15.47,-31.35,58.28,-5.84,2.36
23304,52.004932,-2.052024,78,17.78,10.0,54.6,18 / 24,2330441,2019-08-31 10:29:10:520,-0.533,-0.1322,9.8033,-0.0299,-0.0166,9.8066,0.0011,-0.0559,0.0217,7.19,-15.1,-31.35,58.28,-5.84,2.36
23305,52.004932,-2.052024,78,17.78,10.0,54.6,18 / 24,2330541,2019-08-31 10:29:10:620,0.3294,0.257,9.6575,0.0049,-0.018,9.8066,0.0128,0.0347,0.0206,7.56,-14.72,-31.29,55.94,-5.67,2.27
23306,52.004932,-2.052024,78,17.78,10.0,54.6,18 / 24,2330641,2019-08-31 10:29:10:720,0.3911,0.0411,9.3665,0.014,-0.014,9.8066,-0.0096,0.0006,0.0323,7.19,-15.47,-31.73,58.37,-5.65,2.38
23307,52.004932,-2.052024,78,17.78,10.0,54.6,18 / 24,2330741,2019-08-31 10:29:10:820,-0.3386,0.0849,10.5233,0.0,0.0098,9.8066,-0.0213,-0.0069,0.0313,7.19,-15.47,-31.35,58.46,-5.7,2.35
23308,52.004932,-2.052024,78,17.78,10.0,54.6,18 / 24,2330841,2019-08-31 10:29:10:920,-0.1301,0.204,10.3197,-0.0001,0.0011,9.8067,0.0128,-0.0101,0.0068,7.19,-15.47,-31.35,58.46,-5.7,2.35
23309,52.004932,-2.052024,78,17.78,10.0,54.6,18 / 24,2330941,2019-08-31 10:29:11:020,-0.4129,0.1319,9.8061,-0.0006,0.0109,9.8066,0.0053,0.0208,0.0441,7.56,-15.47,-31.35,56.0,-5.67,2.33
23310,52.00503,-2.051806,76,18.2,10.0,53.6,18 / 24,2331041,2019-08-31 10:29:11:120,-0.2465,0.1701,9.4489,0.0025,0.0084,9.8066,0.0085,-0.0186,0.0036,7.19,-15.47,-31.73,58.18,-5.72,2.29
23311,52.00503,-2.051806,76,18.2,10.0,53.6,18 / 24,2331141,2019-08-31 10:29:11:220,-0.511,0.2345,10.0177,-0.0065,0.0037,9.8066,0.0085,-0.0186,0.0036,7.19,-15.47,-31.73,58.18,-5.72,2.29
23312,52.00503,-2.051806,76,18.2,10.0,53.6,18 / 24,2331241,2019-08-31 10:29:11:320,0.2466,-0.0297,9.9633,0.014,-0.0078,9.8066,0.0,0.0048,0.0334,7.56,-15.1,-31.73,55.68,-5.72,2.25
23313,52.00503,-2.051806,76,18.2,10.0,53.6,18 / 24,2331342,2019-08-31 10:29:11:421,-0.3473,0.1088,9.2614,0.0107,-0.0082,9.8066,0.017,0.0464,0.0164,7.56,-15.1,-31.29,55.94,-5.71,2.33
23314,52.00503,-2.051806,76,18.2,10.0,53.6,18 / 24,2331441,2019-08-31 10:29:11:520,-0.4965,0.1507,9.1792,0.0085,0.0066,9.8066,0.0192,-0.0335,0.0057,7.56,-15.1,-31.29,55.94,-5.71,2.33
23315,52.00503,-2.051806,76,18.2,10.0,53.6,18 / 24,2331541,2019-08-31 10:29:11:620,-0.7129,-0.3035,9.3851,0.009,-0.0025,9.8066,-0.0352,-0.0804,0.0472,7.56,-15.1,-31.73,55.79,-5.73,2.38
23316,52.00503,-2.051806,76,18.2,10.0,53.6,18 / 24,2331641,2019-08-31 10:29:11:720,-0.2038,-0.0924,9.518,-0.0195,-0.018,9.8066,-0.033,0.0123,0.0366,7.56,-15.1,-32.16,55.95,-5.58,2.34
23317,52.00503,-2.051806,76,18.2,10.0,53.6,18 / 24,2331741,2019-08-31 10:29:11:820,0.07,0.3348,9.325,-0.0155,0.004,9.8066,-0.0032,0.0336,0.0334,7.56,-15.1,-31.35,55.95,-5.58,2.34
23318,52.00503,-2.051806,76,18.2,10.0,53.6,18 / 24,2331841,2019-08-31 10:29:11:920,-0.5292,-0.4216,9.8621,-0.0407,0.0026,9.8066,-0.0288,-0.0442,0.0472,7.56,-15.1,-31.35,55.95,-5.58,2.34
23319,52.00503,-2.051806,76,18.2,10.0,53.6,18 / 24,2331941,2019-08-31 10:29:12:020,0.1762,0.2245,8.8337,0.0029,-0.0024,9.8067,-0.0288,-0.0442,0.0472,7.56,-14.72,-31.29,56.08,-5.46,2.13
23320,52.005135,-2.051584,76,18.72,10.0,52.8,18 / 24,2332041,2019-08-31 10:29:12:120,0.405,0.1538,9.6778,-0.0012,0.0142,9.8066,-0.0032,0.0059,0.0195,7.94,-15.1,-31.73,55.93,-5.46,2.16
23321,52.005135,-2.051584,76,18.72,10.0,52.8,18 / 24,2332141,2019-08-31 10:29:12:220,-0.2377,-0.0079,9.8183,-0.0117,0.0343,9.8066,0.0021,0.0208,0.0153,7.94,-15.1,-31.73,55.93,-5.46,2.16
23322,52.005135,-2.051584,76,18.72,10.0,52.8,18 / 24,2332241,2019-08-31 10:29:12:320,0.1304,0.0643,9.3922,0.0003,-0.0062,9.8066,0.0138,-0.008,-0.0039,7.94,-14.72,-30.48,55.96,-5.58,1.99
23323,52.005135,-2.051584,76,18.72,10.0,52.8,18 / 24,2332342,2019-08-31 10:29:12:421,-0.5419,0.2661,8.8445,-0.0162,0.0002,9.8066,0.0181,0.0155,0.0068,8.31,-15.1,-30.41,55.95,-5.53,1.91
23324,52.005135,-2.051584,76,18.72,10.0,52.8,18 / 24,2332441,2019-08-31 10:29:12:520,0.361,-0.2937,9.3818,-0.0063,0.0045,9.8066,-0.0075,-0.0538,0.043,8.31,-15.1,-30.41,55.95,-5.53,1.91
23325,52.005135,-2.051584,76,18.72,10.0,52.8,18 / 24,2332541,2019-08-31 10:29:12:620,0.1092,-0.22,9.1672,0.0071,-0.0085,9.8066,-0.0075,-0.0538,0.043,7.94,-14.35,-30.91,53.98,-5.53,1.86
23326,52.005135,-2.051584,76,18.72,10.0,52.8,18 / 24,2332641,2019-08-31 10:29:12:720,-0.3663,-0.0599,10.1257,0.0092,-0.0232,9.8066,0.0128,0.0112,-0.0092,8.31,-14.72,-30.04,56.12,-5.46,1.99
23327,52.005135,-2.051584,76,18.72,10.0,52.8,18 / 24,2332741,2019-08-31 10:29:12:820,0.0126,0.3189,9.1252,-0.0089,-0.0084,9.8066,0.0138,-0.0357,0.0132,7.56,-14.35,-30.04,56.12,-5.46,1.99
23328,52.005135,-2.051584,76,18.72,10.0,52.8,18 / 24,2332841,2019-08-31 10:29:12:920,0.2126,0.0139,9.8689,-0.0035,0.0029,9.8066,0.0021,0.0347,0.0206,7.56,-14.35,-30.04,56.12,-5.46,1.99
23329,52.005135,-2.051584,76,18.72,10.0,52.8,18 / 24,2332941,2019-08-31 10:29:13:020,-0.3189,-0.0167,10.0855,-0.0055,-0.0004,9.8066,0.0064,-0.0271,0.0249,7.56,-14.72,-30.48,56.12,-5.44,1.96
23330,52.005257,-2.051371,74,19.46,10.0,51.9,18 / 24,2333041,2019-08-31 10:29:13:120,0.2316,-0.3965,9.3308,-0.0009,-0.0257,9.8066,0.0319,-0.0005,0.0004,8.25,-13.97,-30.54,56.12,-5.44,1.96
23331,52.005257,-2.051371,74,19.46,10.0,51.9,18 / 24,2333141,2019-08-31 10:29:13:220,-0.1107,-0.1905,9.0095,0.0035,-0.0359,9.8066,-0.0064,0.0016,0.0419,8.25,-13.6,-30.54,54.8,-5.13,2.15
23332,52.005257,-2.051371,74,19.46,10.0,51.9,18 / 24,2333241,2019-08-31 10:29:13:320,0.433,-0.0333,9.1802,-0.0045,-0.0637,9.8064,-0.0128,-0.0271,0.0483,8.25,-13.6,-30.54,54.8,-5.13,2.15
23333,52.005257,-2.051371,74,19.46,10.0,51.9,18 / 24,2333340,2019-08-31 10:29:13:419,0.1225,-0.5938,10.0808,-0.0021,-0.044,9.8066,-0.0128,-0.0271,0.0483,8.25,-13.97,-30.54,55.41,-4.81,2.35
23334,52.005257,-2.051371,74,19.46,10.0,51.9,18 / 24,2333441,2019-08-31 10:29:13:520,0.4316,-0.4479,9.4892,-0.0203,-0.0849,9.8063,0.0192,-0.0357,-0.0007,9.0,-13.28,-31.85,51.76,-4.34,2.53
23335,52.005257,-2.051371,74,19.46,10.0,51.9,18 / 24,2333541,2019-08-31 10:29:13:620,-0.5213,-0.1383,9.7087,-0.0101,0.0037,9.8066,0.0128,0.0219,0.0217,9.0,-13.28,-31.85,51.76,-4.34,2.53
23336,52.005257,-2.051371,74,19.46,10.0,51.9,18 / 24,2333641,2019-08-31 10:29:13:720,-0.0661,-0.3781,9.5278,-0.0121,-0.0084,9.8066,-0.032,-0.0314,0.06,8.63,-13.28,-31.41,51.82,-4.32,2.47
23337,52.005257,-2.051371,74,19.46,10.0,51.9,18 / 24,2333741,2019-08-31 10:29:13:820,0.1559,-0.02,9.8176,-0.0292,-0.0202,9.8066,0.0042,0.0485,0.0089,7.94,-13.28,-31.91,51.82,-4.32,2.47
23338,52.005257,-2.051371,74,19.46,10.0,51.9,18 / 24,2333841,2019-08-31 10:29:13:920,0.0975,-0.3338,9.7855,-0.0311,-0.012,9.8066,-0.0032,-0.0325,0.0132,7.94,-13.28,-31.04,54.5,-4.15,2.37
23339,52.005257,-2.051371,74,19.46,10.0,51.9,18 / 24,2333941,2019-08-31 10:29:14:020,0.1094,-0.0555,9.5034,-0.0114,0.0039,9.8066,-0.0117,-0.0325,0.0302,7.94,-13.28,-31.04,54.5,-4.15,2.37
23340,52.005257,-2.051371,74,19.46,10.0,51.9,18 / 24,2334041,2019-08-31 10:29:14:120,0.0494,0.1702,9.3514,-0.0172,-0.028,9.8066,-0.0043,0.0038,0.0409,7.19,-14.03,-31.1,58.95,-4.13,2.3
23341,52.005367,-2.051143,75,19.82,10.0,50.9,18 / 24,2334141,2019-08-31 10:29:14:220,0.0794,-0.2982,9.748,0.006,-0.0194,9.8066,-0.0043,0.0038,0.0409,7.94,-14.03,-30.66,56.54,-3.94,2.3
23342,52.005367,-2.051143,75,19.82,10.0,50.9,18 / 24,2334241,2019-08-31 10:29:14:320,0.4448,-0.3437,9.222,0.0189,-0.029,9.8066,0.0085,-0.008,0.011,7.94,-14.03,-30.66,56.54,-3.94,2.3
23343,52.005367,-2.051143,75,19.82,10.0,50.9,18 / 24,2334341,2019-08-31 10:29:14:420,0.0007,-0.0781,10.0539,0.0,-0.0195,9.8066,-0.0117,-0.0154,0.0259,8.25,-14.03,-30.66,56.83,-3.86,2.49
23344,52.005367,-2.051143,75,19.82,10.0,50.9,18 / 24,2334440,2019-08-31 10:29:14:519,0.2413,0.0189,10.4488,0.0002,-0.0092,9.8066,-0.0139,-0.008,0.0355,8.63,-13.66,-29.85,56.83,-3.86,2.49
23345,52.005367,-2.051143,75,19.82,10.0,50.9,18 / 24,2334541,2019-08-31 10:29:14:620,-0.4098,-0.1426,9.6226,-0.0008,0.0021,9.8067,0.0042,0.0102,0.0185,8.25,-14.41,-30.73,56.81,-3.86,2.48
23346,52.005367,-2.051143,75,19.82,10.0,50.9,18 / 24,2334641,2019-08-31 10:29:14:720,0.3189,-0.055,9.5346,0.0065,-0.0077,9.8066,-0.0021,-0.0282,0.0398,8.25,-14.41,-31.16,56.81,-3.86,2.48
23347,52.005367,-2.051143,75,19.82,10.0,50.9,18 / 24,2334741,2019-08-31 10:29:14:820,-0.0806,-0.1782,9.6403,0.0087,-0.0151,9.8066,-0.0011,0.0272,-0.0039,8.25,-14.41,-31.16,56.81,-3.86,2.48
23348,52.005367,-2.051143,75,19.82,10.0,50.9,18 / 24,2334841,2019-08-31 10:29:14:920,0.2082,0.1719,9.5843,-0.0128,-0.016,9.8066,-0.0011,0.0272,-0.0039,9.0,-14.41,-31.16,54.42,-3.82,2.57
23349,52.005367,-2.051143,75,19.82,10.0,50.9,18 / 24,2334941,2019-08-31 10:29:15:020,0.2079,0.3428,10.0457,-0.0224,-0.0161,9.8066,0.0011,-0.0048,0.0174,9.0,-14.41,-30.73,54.56,-3.66,2.52
23350,52.005367,-2.051143,75,19.82,10.0,50.9,18 / 24,2335041,2019-08-31 10:29:15:120,-0.2383,-0.2252,10.735,-0.0155,-0.0058,9.8066,-0.016,-0.0548,0.0302,9.0,-14.03,-30.35,54.55,-3.7,2.47
23351,52.005512,-2.050914,77,20.3,10.0,49.1,18 / 24,2335141,2019-08-31 10:29:15:220,-0.1148,0.2112,9.7913,-0.0053,0.0049,9.8066,-0.0203,0.0187,0.0462,9.0,-14.03,-30.35,54.55,-3.7,2.47
23352,52.005512,-2.050914,77,20.3,10.0,49.1,18 / 24,2335241,2019-08-31 10:29:15:320,0.2354,-0.1221,10.0722,0.0183,0.0147,9.8066,0.0032,0.007,0.0281,8.63,-14.41,-30.41,54.51,-3.71,2.43
23353,52.005512,-2.050914,77,20.3,10.0,49.1,18 / 24,2335340,2019-08-31 10:29:15:419,0.3541,0.0364,9.9089,0.0256,0.0076,9.8066,0.0415,-0.0197,-0.0018,8.63,-14.41,-30.85,54.51,-3.71,2.43
23354,52.005512,-2.050914,77,20.3,10.0,49.1,18 / 24,2335441,2019-08-31 10:29:15:520,0.0825,-0.0447,9.6297,0.0172,-0.0136,9.8066,0.0,-0.0197,0.0377,9.0,-14.03,-30.91,54.36,-3.83,2.52
23355,52.005512,-2.050914,77,20.3,10.0,49.1,18 / 24,2335541,2019-08-31 10:29:15:620,-0.1626,0.2742,9.8186,0.0274,-0.0166,9.8066,0.0,-0.0197,0.0377,9.75,-13.35,-29.6,54.36,-3.83,2.52
23356,52.005512,-2.050914,77,20.3,10.0,49.1,18 / 24,2335640,2019-08-31 10:29:15:719,-0.1797,0.0507,9.8581,0.0156,-0.0317,9.8066,-0.0234,-0.0271,0.0227,8.63,-13.72,-30.48,54.74,-3.73,2.7
23357,52.005512,-2.050914,77,20.3,10.0,49.1,18 / 24,2335741,2019-08-31 10:29:15:820,0.4107,0.1341,9.5029,-0.0222,-0.0144,9.8066,0.0128,0.0165,-0.0039,8.63,-13.72,-30.48,54.74,-3.73,2.7
23358,52.005512,-2.050914,77,20.3,10.0,49.1,18 / 24,2335840,2019-08-31 10:29:15:919,-0.0062,0.1828,8.8225,-0.0196,0.0053,9.8066,-0.0043,-0.0293,0.0036,9.38,-14.1,-31.35,54.79,-3.59,2.65
23359,52.005512,-2.050914,77,20.3,10.0,49.1,18 / 24,2335941,2019-08-31 10:29:16:020,-0.4753,-0.184,10.1545,-0.0011,0.0041,9.8067,-0.0075,-0.0133,0.0494,9.0,-14.47,-31.79,54.52,-3.65,2.52
23360,52.00563,-2.050685,77,20.67,10.0,48.0,18 / 24,2336044,2019-08-31 10:29:16:123,0.3029,0.3007,9.3653,0.0133,0.009,9.8066,-0.0203,-0.008,0.0249,9.0,-14.78,-31.35,54.52,-3.65,2.52
23361,52.00563,-2.050685,77,20.67,10.0,48.0,18 / 24,2336141,2019-08-31 10:29:16:220,-0.1336,-0.1508,10.0607,0.0079,0.0178,9.8066,-0.0021,0.0208,0.0195,9.0,-14.78,-31.35,54.52,-3.65,2.52
23362,52.00563,-2.050685,77,20.67,10.0,48.0,18 / 24,2336241,2019-08-31 10:29:16:320,-0.0273,0.1604,9.3679,-0.0098,0.0035,9.8066,-0.0021,0.0208,0.0195,9.38,-14.47,-31.41,54.43,-3.76,2.5
23363,52.00563,-2.050685,77,20.67,10.0,48.0,18 / 24,2336341,2019-08-31 10:29:16:420,-0.0798,0.1239,10.3789,-0.0199,-0.005,9.8066,-0.0203,-0.0367,0.0483,9.0,-14.1,-30.98,54.43,-3.76,2.5
23364,52.00563,-2.050685,77,20.67,10.0,48.0,18 / 24,2336441,2019-08-31 10:29:16:520,0.0073,-0.1072,9.5469,-0.0026,-0.0134,9.8066,-0.0032,-0.0175,0.0377,8.63,-14.1,-30.54,54.47,-3.67,2.42
23365,52.00563,-2.050685,77,20.67,10.0,48.0,18 / 24,2336541,2019-08-31 10:29:16:620,0.2785,-0.0532,9.4567,-0.0098,-0.0149,9.8066,0.0362,0.0315,-0.0081,9.38,-14.1,-31.48,54.47,-3.67,2.42
23366,52.00563,-2.050685,77,20.67,10.0,48.0,18 / 24,2336641,2019-08-31 10:29:16:720,-0.496,0.0686,10.774,-0.0093,-0.0207,9.8066,0.0106,-0.0069,0.0132,9.38,-14.47,-31.48,54.66,-3.54,2.45
23367,52.00563,-2.050685,77,20.67,10.0,48.0,18 / 24,2336741,2019-08-31 10:29:16:820,0.2615,-0.119,9.4242,-0.0048,-0.0155,9.8066,-0.0128,-0.0335,0.027,9.38,-14.47,-31.04,54.81,-3.45,2.48
23368,52.00563,-2.050685,77,20.67,10.0,48.0,18 / 24,2336841,2019-08-31 10:29:16:920,0.2113,0.03,9.7833,-0.0183,-0.0209,9.8066,-0.0064,-0.009,0.0387,9.38,-14.47,-31.48,54.81,-3.45,2.48
23369,52.00563,-2.050685,77,20.67,10.0,48.0,18 / 24,2336941,2019-08-31 10:29:17:020,-0.293,-0.1237,9.9436,-0.0261,-0.0334,9.8066,0.0149,0.0091,-0.0007,9.38,-14.47,-31.48,54.81,-3.45,2.48
23370,52.0058,-2.050445,77,21.33,10.0,46.4,18 / 24,2337040,2019-08-31 10:29:17:119,-0.0016,0.2596,10.3004,-0.0453,-0.038,9.8065,0.0149,0.0091,-0.0007,9.38,-14.1,-31.48,55.16,-3.11,2.39
23371,52.0058,-2.050445,77,21.33,10.0,46.4,18 / 24,2337141,2019-08-31 10:29:17:220,0.098,0.1542,9.7013,-0.0092,0.0026,9.8066,-0.0064,0.0176,0.0217,9.75,-14.1,-31.04,52.68,-3.09,2.34
23372,52.0058,-2.050445,77,21.33,10.0,46.4,18 / 24,2337241,2019-08-31 10:29:17:320,-0.3453,-0.2009,9.393,-0.0025,0.0052,9.8066,-0.0149,-0.0026,0.0281,9.75,-14.47,-31.04,52.62,-3.09,2.27
23373,52.0058,-2.050445,77,21.33,10.0,46.4,18 / 24,2337341,2019-08-31 10:29:17:420,0.1222,-0.1452,9.7106,-0.0358,-0.0025,9.8066,-0.0213,-0.0154,0.027,9.75,-14.47,-31.04,52.62,-3.09,2.27
23374,52.0058,-2.050445,77,21.33,10.0,46.4,18 / 24,2337441,2019-08-31 10:29:17:520,-0.184,0.0094,8.8486,-0.0198,-0.0207,9.8066,-0.0128,-0.0186,0.0377,9.38,-14.47,-31.48,55.1,-2.95,2.11
23375,52.0058,-2.050445,77,21.33,10.0,46.4,18 / 24,2337542,2019-08-31 10:29:17:621,-0.7345,-0.2553,10.0668,-0.0137,-0.0143,9.8066,0.0117,-0.0133,0.0441,9.38,-14.1,-31.85,55.24,-2.79,2.08
23376,52.0058,-2.050445,77,21.33,10.0,46.4,18 / 24,2337642,2019-08-31 10:29:17:721,-0.0784,0.1386,10.5911,-0.01,-0.0202,9.8066,-0.0096,-0.0389,0.0387,9.75,-14.47,-31.48,55.24,-2.79,2.08
23377,52.0058,-2.050445,77,21.33,10.0,46.4,18 / 24,2337741,2019-08-31 10:29:17:820,-0.3979,-0.0854,9.0823,-0.0035,-0.0268,9.8066,0.017,0.008,0.0441,9.75,-14.47,-31.48,55.24,-2.79,2.08
23378,52.0058,-2.050445,77,21.33,10.0,46.4,18 / 24,2337841,2019-08-31 10:29:17:920,0.1213,0.139,10.7826,0.0101,0.0005,9.8066,0.017,0.008,0.0441,9.75,-14.1,-31.48,53.06,-2.65,2.16
23379,52.0058,-2.050445,77,21.33,10.0,46.4,18 / 24,2337941,2019-08-31 10:29:18:020,-0.3364,-0.0992,10.1705,0.0271,-0.0119,9.8066,0.0266,-0.0282,0.0345,9.75,-14.1,-31.41,53.18,-2.69,2.33
23380,52.005905,-2.050225,76,21.23,10.0,46.0,18 / 24,2338040,2019-08-31 10:29:18:119,0.6729,-0.0658,10.1949,-0.0024,-0.0294,9.8066,0.0788,-0.0058,-0.0156,9.75,-13.72,-31.04,53.46,-2.54,2.42
23381,52.005905,-2.050225,76,21.23,10.0,46.0,18 / 24,2338141,2019-08-31 10:29:18:220,-0.4137,-0.3252,9.0868,0.0161,-0.0339,9.8066,0.0426,0.0219,-0.0018,9.75,-13.72,-31.04,53.46,-2.54,2.42
23382,52.005905,-2.050225,76,21.23,10.0,46.0,18 / 24,2338241,2019-08-31 10:29:18:320,0.436,-0.1518,9.3589,0.0052,-0.0179,9.8066,0.0064,-0.0037,0.0281,10.06,-13.72,-31.48,54.14,-2.25,2.75
23383,52.005905,-2.050225,76,21.23,10.0,46.0,18 / 24,2338341,2019-08-31 10:29:18:420,1.0009,-0.0514,10.1731,-0.0141,0.0018,9.8066,-0.0011,0.0378,0.0014,10.44,-13.35,-31.85,52.48,-2.19,2.84
23384,52.005905,-2.050225,76,21.23,10.0,46.0,18 / 24,2338442,2019-08-31 10:29:18:521,0.1419,0.4394,10.5671,-0.0167,0.0436,9.8065,-0.0021,0.0325,0.0078,10.56,-13.67,-32.19,51.93,-2.15,2.77
23385,52.005905,-2.050225,76,21.23,10.0,46.0,18 / 24,2338541,2019-08-31 10:29:18:620,0.2649,0.5122,10.8285,-0.0203,0.0903,9.8062,0.017,0.0687,0.0057,10.56,-13.67,-32.19,51.93,-2.15,2.77
23386,52.005905,-2.050225,76,21.23,10.0,46.0,18 / 24,2338641,2019-08-31 10:29:18:720,0.0712,0.3711,9.3348,0.0025,0.0213,9.8066,0.017,0.0687,0.0057,9.87,-14.05,-32.13,53.42,-2.49,2.35
23387,52.005905,-2.050225,76,21.23,10.0,46.0,18 / 24,2338741,2019-08-31 10:29:18:820,0.2694,0.0867,8.3493,0.0107,0.0181,9.8066,0.0181,0.057,0.0068,9.87,-14.05,-32.57,53.42,-2.49,2.35
23388,52.005905,-2.050225,76,21.23,10.0,46.0,18 / 24,2338841,2019-08-31 10:29:18:920,-0.6024,-0.142,9.9325,-0.0212,0.0068,9.8066,0.0106,0.0048,0.0195,10.25,-13.3,-32.13,51.37,-2.61,2.34
23389,52.005905,-2.050225,76,21.23,10.0,46.0,18 / 24,2338941,2019-08-31 10:29:19:020,-0.3201,0.2739,8.7308,-0.0152,-0.0207,9.8066,0.017,-0.0261,0.0302,9.87,-13.67,-32.13,53.45,-2.46,2.34
23390,52.006058,-2.05,77,21.54,10.0,44.7,18 / 24,2339041,2019-08-31 10:29:19:120,-0.4456,0.3833,5.6118,0.0222,-0.0448,9.8065,0.0714,-0.0634,0.0132,9.87,-13.67,-32.13,53.45,-2.46,2.34
23391,52.006058,-2.05,77,21.54,10.0,44.7,18 / 24,2339140,2019-08-31 10:29:19:219,-0.2605,0.2973,8.1474,0.0567,-0.1284,9.8056,0.0277,-0.0996,0.0366,10.56,-12.92,-32.07,50.49,-2.05,3.06
23392,52.006058,-2.05,77,21.54,10.0,44.7,18 / 24,2339241,2019-08-31 10:29:19:320,1.9041,0.1121,13.5897,-0.0194,-0.0146,9.8066,-0.0394,-0.0207,-0.0358,10.25,-12.92,-32.5,53.11,-1.97,3.15
23393,52.006058,-2.05,77,21.54,10.0,44.7,18 / 24,2339341,2019-08-31 10:29:19:420,0.9794,0.6885,7.616,-0.021,0.0621,9.8064,-0.0266,0.0922,0.01,10.25,-12.92,-32.5,53.11,-1.97,3.15
23394,52.006058,-2.05,77,21.54,10.0,44.7,18 / 24,2339440,2019-08-31 10:29:19:519,-0.1974,-0.13,9.1109,-0.0044,0.1177,9.8059,-0.0266,0.0922,0.01,10.25,-13.67,-32.57,54.29,-2.19,2.83
23395,52.006058,-2.05,77,21.54,10.0,44.7,18 / 24,2339541,2019-08-31 10:29:19:620,-0.1562,-0.0637,9.84,-0.0433,0.1421,9.8055,0.0011,-0.0197,0.0164,10.25,-13.67,-32.57,54.29,-2.19,2.83
23396,52.006058,-2.05,77,21.54,10.0,44.7,18 / 24,2339641,2019-08-31 10:29:19:720,0.1437,-0.0156,9.1225,0.0196,-0.135,9.8057,0.1193,-0.0761,-0.0039,10.25,-13.3,-32.5,50.98,-2.71,2.14
23397,52.006058,-2.05,77,21.54,10.0,44.7,18 / 24,2339741,2019-08-31 10:29:19:820,0.1711,-0.0307,8.9894,0.0446,-0.1611,9.8052,-0.0117,0.0421,-0.0028,10.56,-13.3,-31.63,50.24,-2.15,2.94
23398,52.006058,-2.05,77,21.54,10.0,44.7,18 / 24,2339841,2019-08-31 10:29:19:920,0.6974,0.3964,10.2762,-0.0194,0.0698,9.8064,-0.0511,0.0932,0.0004,10.56,-13.67,-32.07,50.24,-2.15,2.94
23399,52.006058,-2.05,77,21.54,10.0,44.7,18 / 24,2339941,2019-08-31 10:29:20:020,-0.464,0.1633,9.4865,-0.0577,0.106,9.8059,-0.032,0.0133,0.0291,10.25,-13.67,-32.88,53.43,-2.41,2.28
23400,52.00618,-2.04978,75,21.67,10.0,43.9,18 / 24,2340041,2019-08-31 10:29:20:120,0.0292,-0.3165,10.5887,-0.0529,-0.0265,9.8065,0.0128,0.0251,0.0536,10.25,-13.67,-32.88,53.43,-2.41,2.28
23401,52.00618,-2.04978,75,21.67,10.0,43.9,18 / 24,2340142,2019-08-31 10:29:20:221,0.3061,0.5417,9.5,0.0635,0.0359,9.8064,0.0628,0.1284,-0.0199,10.56,-13.67,-32.5,51.65,-1.97,2.28
23402,52.00618,-2.04978,75,21.67,10.0,43.9,18 / 24,2340241,2019-08-31 10:29:20:320,-0.3268,0.5384,13.4246,0.0577,0.0252,9.8064,0.0628,0.1284,-0.0199,10.93,-13.67,-32.44,51.34,-2.36,2.44
23403,52.00618,-2.04978,75,21.67,10.0,43.9,18 / 24,2340341,2019-08-31 10:29:20:420,0.9292,-0.5728,8.9995,0.0053,-0.0813,9.8063,0.1023,-0.057,0.0174,10.25,-12.92,-32.0,51.58,-2.69,2.61
23404,52.00618,-2.04978,75,21.67,10.0,43.9,18 / 24,2340441,2019-08-31 10:29:20:520,0.8462,0.1946,8.4804,0.0138,-0.1058,9.8061,-0.0043,-0.0783,0.0153,10.93,-12.92,-31.63,51.58,-2.69,2.61
23405,52.00618,-2.04978,75,21.67,10.0,43.9,18 / 24,2340541,2019-08-31 10:29:20:620,-0.2016,-0.2978,9.5018,0.0372,-0.0552,9.8064,-0.0565,0.0304,0.0366,10.93,-12.92,-31.63,51.58,-2.69,2.61
23406,52.00618,-2.04978,75,21.67,10.0,43.9,18 / 24,2340641,2019-08-31 10:29:20:720,-0.3754,0.1193,12.6638,-0.0037,0.0493,9.8065,0.0032,0.0592,-0.006,10.62,-13.61,-32.0,51.63,-2.57,2.99
23407,52.00618,-2.04978,75,21.67,10.0,43.9,18 / 24,2340741,2019-08-31 10:29:20:820,0.3189,0.1374,9.0684,-0.0434,-0.0045,9.8066,0.0277,-0.0687,0.011,10.62,-13.3,-32.38,51.63,-2.57,2.99
23408,52.00618,-2.04978,75,21.67,10.0,43.9,18 / 24,2340841,2019-08-31 10:29:20:920,1.0701,0.0475,8.7316,-0.0399,-0.0537,9.8064,-0.0245,-0.0239,0.0462,10.93,-13.23,-31.94,50.27,-2.18,3.0
23409,52.00618,-2.04978,75,21.67,10.0,43.9,18 / 24,2340941,2019-08-31 10:29:21:020,-0.4438,-0.1371,9.9784,0.0201,0.0217,9.8066,-0.0714,-0.0666,0.0185,10.93,-13.23,-31.94,50.27,-2.18,3.0
23410,52.00633,-2.049551,74,21.83,9.0,42.6,18 / 24,2341041,2019-08-31 10:29:21:120,0.6894,0.1597,10.2792,-0.0211,0.0641,9.8064,-0.0714,-0.0666,0.0185,10.25,-13.23,-32.38,52.02,-2.39,2.66
23411,52.00633,-2.049551,74,21.83,9.0,42.6,18 / 24,2341141,2019-08-31 10:29:21:220,-0.4301,0.1799,10.4323,-0.0415,0.0088,9.8066,-0.0511,-0.0697,0.0409,10.62,-13.23,-32.82,49.45,-2.35,2.45
23412,52.00633,-2.049551,74,21.83,9.0,42.6,18 / 24,2341241,2019-08-31 10:29:21:320,0.2093,0.398,10.3487,-0.0401,0.0636,9.8064,-0.0384,0.0251,0.0217,10.62,-13.23,-32.82,49.45,-2.35,2.45
23413,52.00633,-2.049551,74,21.83,9.0,42.6,18 / 24,2341341,2019-08-31 10:29:21:420,0.0987,0.1385,9.1348,0.0141,0.0443,9.8065,-0.033,0.0261,0.0366,10.62,-13.23,-31.94,48.83,-2.48,2.03
23414,52.00633,-2.049551,74,21.83,9.0,42.6,18 / 24,2341441,2019-08-31 10:29:21:520,0.4955,0.0821,10.5829,-0.0097,0.0235,9.8066,-0.0181,0.0048,0.0302,10.62,-13.61,-32.38,50.35,-2.73,1.92
23415,52.00633,-2.049551,74,21.83,9.0,42.6,18 / 24,2341542,2019-08-31 10:29:21:621,-0.5351,0.1291,8.9418,-0.0337,0.0097,9.8066,0.0277,0.0006,0.0281,10.25,-13.98,-31.94,52.59,-2.64,1.74
23416,52.00633,-2.049551,74,21.83,9.0,42.6,18 / 24,2341641,2019-08-31 10:29:21:720,-0.3016,0.1256,10.3132,0.0145,-0.0058,9.8066,0.0628,0.0027,0.0196,10.25,-13.98,-31.94,52.59,-2.64,1.74
23417,52.00633,-2.049551,74,21.83,9.0,42.6,18 / 24,2341741,2019-08-31 10:29:21:820,-0.1805,0.008,10.5784,0.024,-0.0035,9.8066,0.0543,-0.0016,0.0313,10.62,-13.23,-31.94,48.36,-2.67,1.82
23418,52.00633,-2.049551,74,21.83,9.0,42.6,18 / 24,2341842,2019-08-31 10:29:21:921,-0.4957,-0.1341,10.0611,0.0444,-0.0194,9.8065,0.0096,-0.0442,0.0206,10.62,-13.23,-31.94,48.56,-2.76,2.09
23419,52.00633,-2.049551,74,21.83,9.0,42.6,18 / 24,2341941,2019-08-31 10:29:22:020,-0.5488,-0.1746,9.7976,-0.0093,-0.0398,9.8066,0.0096,-0.0442,0.0206,10.62,-13.23,-31.94,48.56,-2.76,2.09
23420,52.006493,-2.049336,73,21.95,9.0,41.5,18 / 24,2342045,2019-08-31 10:29:22:124,0.6489,0.3714,9.9489,0.0257,0.0107,9.8066,0.0501,0.0687,-0.006,10.93,-12.86,-31.88,48.94,-2.55,2.21
23421,52.006493,-2.049336,73,21.95,9.0,41.5,18 / 24,2342141,2019-08-31 10:29:22:220,0.6351,0.2056,9.6606,0.0012,0.0049,9.8067,0.0319,0.089,0.0057,10.62,-12.86,-32.32,48.85,-2.69,2.28
23422,52.006493,-2.049336,73,21.95,9.0,41.5,18 / 24,2342241,2019-08-31 10:29:22:320,0.6338,0.3128,10.0868,0.016,0.0091,9.8066,0.0096,-0.0197,0.0153,10.62,-12.86,-32.32,48.85,-2.69,2.28
23423,52.006493,-2.049336,73,21.95,9.0,41.5,18 / 24,2342341,2019-08-31 10:29:22:420,-0.0369,0.2046,10.0656,-0.0135,0.0124,9.8066,-0.032,-0.0101,0.0089,10.25,-13.23,-31.5,51.11,-2.79,2.31
23424,52.006493,-2.049336,73,21.95,9.0,41.5,18 / 24,2342441,2019-08-31 10:29:22:520,-0.7654,-0.101,10.4404,-0.0324,0.0442,9.8065,-0.0192,-0.0293,0.0334,10.62,-12.86,-32.75,48.27,-2.88,2.0
23425,52.006493,-2.049336,73,21.95,9.0,41.5,18 / 24,2342542,2019-08-31 10:29:22:621,-0.2781,-0.1202,9.6776,-0.031,-0.0028,9.8066,0.016,-0.057,0.0185,10.62,-12.86,-32.75,48.27,-2.88,2.0
23426,52.006493,-2.049336,73,21.95,9.0,41.5,18 / 24,2342641,2019-08-31 10:29:22:720,-0.6176,-0.0753,9.2129,-0.0133,-0.0272,9.8066,0.0192,0.0123,0.0206,10.62,-12.86,-31.44,48.37,-2.74,1.88
23427,52.006493,-2.049336,73,21.95,9.0,41.5,18 / 24,2342741,2019-08-31 10:29:22:820,-0.2202,0.0803,9.5954,-0.0315,-0.0625,9.8064,0.0032,-0.0175,0.0196,11.31,-13.61,-31.88,50.88,-2.35,1.99
23428,52.006493,-2.049336,73,21.95,9.0,41.5,18 / 24,2342841,2019-08-31 10:29:22:920,0.1841,-0.1253,9.3631,0.0022,-0.0132,9.8066,0.0032,-0.0175,0.0196,11.31,-13.61,-31.88,50.88,-2.35,1.99
23429,52.006493,-2.049336,73,21.95,9.0,41.5,18 / 24,2342941,2019-08-31 10:29:23:020,-0.3192,-0.0664,9.9656,0.0055,-0.0067,9.8066,0.0138,-0.0495,0.0196,10.62,-12.86,-32.32,49.17,-2.24,2.07
23430,52.006638,-2.049113,72,22.16,10.0,40.8,18 / 24,2343045,2019-08-31 10:29:23:124,0.2063,0.2128,8.1249,-0.0131,0.0026,9.8066,-0.0053,-0.057,0.0238,10.93,-12.86,-32.32,49.23,-2.23,2.12
23431,52.006638,-2.049113,72,22.16,10.0,40.8,18 / 24,2343141,2019-08-31 10:29:23:220,0.5759,0.0292,9.2147,-0.028,0.0148,9.8066,-0.0511,0.0038,0.0355,10.93,-12.86,-32.32,49.23,-2.23,2.12
23432,52.006638,-2.049113,72,22.16,10.0,40.8,18 / 24,2343241,2019-08-31 10:29:23:320,0.1022,0.3614,8.8003,-0.0209,0.0078,9.8066,-0.0203,0.0336,0.0153,11.31,-12.48,-31.88,46.98,-2.19,1.94
23433,52.006638,-2.049113,72,22.16,10.0,40.8,18 / 24,2343341,2019-08-31 10:29:23:420,-0.3456,0.0272,10.2813,-0.0254,-0.0043,9.8066,0.0192,0.041,0.0046,11.31,-12.11,-30.57,46.92,-2.14,1.82
23434,52.006638,-2.049113,72,22.16,10.0,40.8,18 / 24,2343441,2019-08-31 10:29:23:520,0.2708,-0.1621,10.8347,-0.0258,-0.0084,9.8066,-0.0075,-0.0175,0.0196,10.93,-12.86,-31.88,49.1,-2.0,1.74
23435,52.006638,-2.049113,72,22.16,10.0,40.8,18 / 24,2343542,2019-08-31 10:29:23:621,0.1272,-0.1791,10.3099,-0.0091,0.005,9.8066,-0.0075,-0.0175,0.0196,10.93,-12.86,-31.88,49.1,-2.0,1.74
