,GPS LATITUDE (degrees), GPS LONGITUDE (degrees), GPS ALTITUDE (m), GPS SPEED (Kmh), GPS ACCURACY (m), GPS ORIENTATION (Â°),GPS SATELLITES IN RANGE, TIME SINCE START (ms), DATE (YYYY-MO-DD HH-MI-SS_SSS), ACCELEROMETER X (m/s²) , ACCELEROMETER Y (m/s²), ACCELEROMETER Z (m/s²), GRAVITY X (m/s²), GRAVITY Y (m/s²), GRAVITY Z (m/s²), GYROSCOPE Yaw (rad/s), GYROSCOPE Pitch (rad/s), GYROSCOPE Roll (rad/s), MAGNETIC FIELD X (Î¼T), MAGNETIC FIELD Y (Î¼T), MAGNETIC FIELD Z (Î¼T), ORIENTATION (Yaw) (Â°), ORIENTATION (Pitch) (Â°), ORIENTATION (Roll ) (Â°)
3080,52.554695,-1.463064,0,0,6,0,23 / 24,308020,2020-01-08 09:43:03:817,0.0365,-0.3878,9.9281,-0.0075,0.0048,9.8066,-0.0021,-0.0008,-0.0104,2.19,-29.25,31.88,346.17,-86.45,163.38
3081,52.554695,-1.463064,0,0,6,0,23 / 24,308119,2020-01-08 09:43:03:916,0.0615,-0.4211,9.8852,-0.0023,-0.0005,9.8066,0.0061,0.0113,0.0225,2.44,-29.37,32.63,345.33,-86.42,162.69
3082,52.554695,-1.463064,0,0,6,0,23 / 24,308219,2020-01-08 09:43:04:016,-0.3481,0.2246,9.8021,0.0025,0.0021,9.8066,0.006,0.0029,-0.0583,2.63,-29.19,32.06,347.65,-86.43,163.01
3083,52.554695,-1.463064,0,0,6,0,23 / 24,308318,2020-01-08 09:43:04:115,-0.1945,0.1613,9.761,-0.0002,0.0012,9.8066,-0.0019,0.0134,-0.0365,2.06,-28.5,31.69,345.86,-86.42,163.07
3084,52.554695,-1.463064,0,0,6,0,23 / 24,308419,2020-01-08 09:43:04:216,-0.1415,-0.3076,9.9191,-0.0002,0.0035,9.8066,-0.0012,0.0105,0.0133,2.13,-29.37,32.38,345.38,-86.43,162.64
3085,52.554695,-1.463064,0,0,6,0,23 / 24,308519,2020-01-08 09:43:04:316,0.2852,-0.0848,9.914,0.0086,-0.0023,9.8066,0.009,0.0085,-0.0215,1.88,-29.75,32.0,346.03,-86.44,163.28
3086,52.554695,-1.463064,0,0,6,0,23 / 24,308619,2020-01-08 09:43:04:416,0.1307,0.1034,9.9137,-0.005,0.004,9.8066,0.0198,0.0034,-0.0373,2.19,-29.62,32.0,345.86,-86.45,163.12
3087,52.554695,-1.463064,0,0,6,0,23 / 24,308719,2020-01-08 09:43:04:516,-0.0119,-0.3647,9.9484,-0.0018,-0.001,9.8066,0.0131,0.009,-0.0093,2.56,-28.81,32.31,347.37,-86.42,162.75
3088,52.554695,-1.463064,0,0,6,0,23 / 24,308819,2020-01-08 09:43:04:616,-0.117,0.0877,9.6902,0.0034,0.0019,9.8066,0.0061,0.0108,0.0103,1.69,-29.5,32.5,345.23,-86.42,162.59
3089,52.554695,-1.463064,0,0,6,0,23 / 24,308919,2020-01-08 09:43:04:716,-0.0719,0.0862,9.7943,0.0082,-0.0039,9.8066,0.0187,0.0069,-0.0207,2.13,-29.0,31.94,345.23,-86.39,162.52
3090,52.554695,-1.463064,0,0,6,0,23 / 24,309018,2020-01-08 09:43:04:815,-0.0953,-0.3167,9.7903,-0.0047,0.0033,9.8066,0.0141,0.0077,-0.0235,1.94,-28.94,31.94,345.85,-86.43,163.09
3091,52.554695,-1.463064,0,0,6,0,22 / 23,309119,2020-01-08 09:43:04:916,0.2918,-0.4666,10.0489,0.0023,-0.0044,9.8066,0.0009,0.0137,0.0227,2.31,-29.25,31.69,345.44,-86.42,162.71
3092,52.554695,-1.463064,0,0,6,0,22 / 23,309218,2020-01-08 09:43:05:015,-0.39,0.3922,9.6516,0.0063,0.0011,9.8065,0.0175,0.0147,0.0009,2.44,-29.12,31.75,345.39,-86.43,162.66
3093,52.554695,-1.463064,0,0,6,0,22 / 23,309319,2020-01-08 09:43:05:116,-0.1592,0.0324,9.7416,0.0012,-0.0026,9.8066,0.0208,0.0122,-0.0394,1.69,-29.37,32.81,345.96,-86.45,163.27
3094,52.554695,-1.463064,0,0,6,0,22 / 23,309419,2020-01-08 09:43:05:216,-0.1315,-0.214,9.8174,-0.0012,0.0042,9.8066,0.0163,0.0032,0.0152,1.44,-29.31,31.5,343.77,-86.45,162.91
3095,52.554695,-1.463064,0,0,6,0,22 / 23,309518,2020-01-08 09:43:05:315,0.1908,0.2264,9.8871,0.0081,-0.0027,9.8066,0.0131,-0.0053,0.037,1.75,-29.12,32.06,346.07,-86.46,163.29
3096,52.554695,-1.463064,0,0,6,0,22 / 23,309619,2020-01-08 09:43:05:416,0.1753,-0.2722,9.9286,-0.0021,0.0028,9.8066,0.0116,-0.0026,-0.0166,1.63,-29.25,32.06,345.84,-86.46,163.07
3097,52.554695,-1.463064,0,0,6,0,22 / 23,309719,2020-01-08 09:43:05:516,0.0316,-0.1816,9.9057,-0.001,-0.0023,9.8066,0.0099,-0.0013,-0.0117,1.56,-29.31,31.56,345.69,-86.46,162.93
3098,52.554695,-1.463064,0,0,6,0,22 / 23,309819,2020-01-08 09:43:05:616,-0.1525,0.321,9.6779,0.0037,0.0014,9.8066,-0.0058,-0.0199,0.0291,2.0,-29.37,32.13,345.62,-86.46,162.87
3099,52.554695,-1.463064,0,0,6,0,22 / 23,309919,2020-01-08 09:43:05:716,0.2855,0.1905,9.9504,0.0068,-0.0053,9.8066,0.003,-0.0267,0.0272,1.81,-29.12,31.63,345.98,-86.48,163.2
3100,52.554695,-1.463064,0,0,6,0,22 / 23,310019,2020-01-08 09:43:05:816,-0.0297,-0.0983,9.8152,-0.003,0.0039,9.8066,-0.0008,-0.0236,-0.0128,1.56,-29.31,32.19,345.87,-86.46,163.1
3101,52.554695,-1.463064,0,0,6,0,22 / 23,310118,2020-01-08 09:43:05:915,0.2423,-0.4198,10.0023,0.0014,-0.0054,9.8066,-0.005,-0.0257,0.0386,1.94,-29.19,32.44,345.48,-86.46,162.73
3102,52.554695,-1.463064,0,0,6,0,22 / 23,310218,2020-01-08 09:43:06:015,-0.3521,0.3715,9.6727,0.0052,0.0046,9.8066,-0.0027,-0.0219,0.0537,2.56,-29.12,32.25,347.36,-86.47,162.73
3103,52.554695,-1.463064,0,0,6,0,22 / 23,310319,2020-01-08 09:43:06:116,0.1378,0.1467,9.9421,-0.0002,-0.0018,9.8066,-0.0081,-0.0226,-0.0265,2.19,-29.12,32.19,345.88,-86.46,163.11
3104,52.554695,-1.463064,0,0,6,0,22 / 23,310419,2020-01-08 09:43:06:216,-0.2128,0.0493,9.9479,0.0006,0.0027,9.8066,-0.002,-0.023,-0.0016,1.81,-29.37,31.94,345.52,-86.46,162.77
3105,52.554695,-1.463064,0,0,6,0,22 / 23,310519,2020-01-08 09:43:06:316,0.3977,-0.4307,9.9117,0.0089,-0.0035,9.8065,-0.0117,-0.0172,0.0409,2.06,-29.44,32.44,345.93,-86.47,163.15
3106,52.554695,-1.463064,0,0,6,0,22 / 23,310618,2020-01-08 09:43:06:415,-0.2643,0.134,9.7257,-0.0049,0.0026,9.8066,-0.0088,-0.0268,0.0123,2.0,-29.0,32.13,346.01,-86.47,163.23
3107,52.554695,-1.463064,0,0,6,0,22 / 23,310718,2020-01-08 09:43:06:515,-0.0651,0.0213,10.0294,-0.0002,-0.0039,9.8066,-0.0249,-0.0293,0.0082,2.0,-28.94,32.13,345.57,-86.47,162.82
3108,52.554695,-1.463064,0,0,6,0,22 / 23,310818,2020-01-08 09:43:06:615,-0.0928,0.0322,9.9048,0.0048,0.0027,9.8066,-0.018,-0.0296,0.0494,2.13,-28.87,32.19,345.49,-86.48,162.74
3109,52.554695,-1.463064,0,0,6,0,22 / 23,310919,2020-01-08 09:43:06:716,0.0871,-0.3586,9.9876,0.0035,-0.0025,9.8066,-0.0189,-0.0326,0.0125,1.88,-28.56,32.13,346.26,-86.49,163.47
3110,52.554695,-1.463064,0,0,6,0,22 / 23,311019,2020-01-08 09:43:06:816,-0.0625,0.2017,9.6216,-0.0024,0.0023,9.8066,-0.022,-0.0353,-0.0106,2.06,-28.87,32.06,345.86,-86.5,163.08
3111,52.554695,-1.463064,0,0,6,0,22 / 23,311119,2020-01-08 09:43:06:916,0.2698,-0.0797,10.0205,0.0082,-0.0047,9.8066,-0.0285,-0.0316,0.0497,2.25,-29.25,32.25,346.25,-86.49,163.46
3112,52.554695,-1.463064,0,0,6,0,22 / 23,311220,2020-01-08 09:43:07:017,0.0838,0.1009,9.8294,-0.0028,0.0035,9.8066,-0.0282,-0.0337,0.0368,1.63,-28.75,31.88,346.21,-86.5,163.41
3113,52.554695,-1.463064,0,0,6,0,22 / 23,311318,2020-01-08 09:43:07:115,0.143,-0.4381,9.9762,0.0003,-0.0019,9.8066,-0.0228,-0.0341,0.0063,1.63,-29.12,32.44,346.21,-86.48,163.42
3114,52.554695,-1.463064,0,0,6,0,22 / 23,311418,2020-01-08 09:43:07:215,-0.2208,0.116,9.6888,0.0008,0.0027,9.8066,-0.0292,-0.0244,0.0186,2.06,-29.06,31.63,346.25,-86.5,163.45
3115,52.554695,-1.463064,0,0,6,0,22 / 23,311519,2020-01-08 09:43:07:316,0.2621,-0.2397,10.0162,0.0053,-0.0026,9.8066,-0.0294,-0.0246,0.0338,1.88,-29.12,32.06,346.55,-86.5,163.74
3116,52.554695,-1.463064,0,0,6,0,22 / 23,311619,2020-01-08 09:43:07:416,-0.1524,0.0175,9.733,-0.0051,0.0054,9.8066,-0.0242,-0.0291,0.0276,1.94,-29.12,32.13,346.32,-86.5,163.51
3117,52.554695,-1.463064,0,0,6,0,22 / 23,311718,2020-01-08 09:43:07:515,-0.0051,0.2801,9.6785,0.0011,-0.0017,9.8066,-0.0339,-0.031,-0.0027,1.88,-29.31,32.19,346.08,-86.49,163.29
3118,52.554695,-1.463064,0,0,6,0,22 / 23,311819,2020-01-08 09:43:07:616,-0.2579,-0.2468,9.9409,-0.0002,0.0053,9.8066,-0.0341,-0.0308,0.025,2.19,-28.94,31.94,346.13,-86.51,163.33
3119,52.554695,-1.463064,0,0,6,0,22 / 23,311918,2020-01-08 09:43:07:715,0.225,-0.2259,9.958,-0.0002,0.0007,9.8066,-0.0197,-0.0339,0.0283,2.0,-28.75,32.13,346.3,-86.49,163.5
3120,52.554695,-1.463064,0,0,6,0,22 / 23,312019,2020-01-08 09:43:07:816,-0.0123,-0.125,9.6896,-0.0021,0.0039,9.8066,-0.0262,-0.0327,-0.0117,2.19,-28.87,32.06,345.73,-86.48,162.96
3121,52.554695,-1.463064,0,0,6,0,21 / 22,312119,2020-01-08 09:43:07:916,-0.0661,0.41,9.672,0.0078,-0.0027,9.8065,-0.0297,-0.0376,0.0309,2.25,-29.06,31.63,345.83,-86.48,163.06
3122,52.554695,-1.463064,0,0,6,0,21 / 22,312219,2020-01-08 09:43:08:016,-0.2816,-0.2023,9.7299,-0.0079,0.0034,9.8066,-0.0247,-0.0256,0.0529,2.19,-29.25,31.63,346.73,-86.51,163.9
3123,52.554695,-1.463064,0,0,6,0,21 / 22,312319,2020-01-08 09:43:08:116,0.1321,-0.2214,9.9197,-0.0002,-0.0019,9.8066,-0.0326,-0.0368,-0.0132,1.81,-29.31,32.0,346.05,-86.5,163.26
3124,52.554695,-1.463064,0,0,6,0,21 / 22,312419,2020-01-08 09:43:08:216,-0.3674,-0.1572,9.7455,-0.0003,0.0038,9.8066,-0.0317,-0.0166,0.0081,2.25,-28.69,31.75,346.47,-86.51,163.66
3125,52.554695,-1.463064,0,0,6,0,21 / 22,312519,2020-01-08 09:43:08:316,-0.2033,0.4033,9.6813,0.0006,0.0001,9.8066,-0.0213,-0.0251,0.0372,1.94,-28.94,31.81,346.55,-86.5,163.74
3126,52.554695,-1.463064,0,0,6,0,21 / 22,312618,2020-01-08 09:43:08:415,-0.0461,-0.1332,9.8075,-0.0037,0.0058,9.8066,-0.0173,-0.0171,0.0164,1.94,-28.94,31.88,346.39,-86.51,163.58
3127,52.554695,-1.463064,0,0,6,0,21 / 22,312719,2020-01-08 09:43:08:516,0.2346,-0.3706,10.0412,0.0054,-0.0011,9.8066,-0.0219,-0.0205,0.0001,2.19,-28.62,32.0,346.18,-86.5,163.39
3128,52.554695,-1.463064,0,0,6,0,21 / 22,312819,2020-01-08 09:43:08:616,0.2149,0.2169,9.9415,-0.0056,0.0059,9.8066,-0.0305,-0.0029,0.0267,1.94,-28.5,32.06,346.73,-86.51,163.87
3129,52.554695,-1.463064,0,0,6,0,21 / 22,312919,2020-01-08 09:43:08:716,-0.0551,0.3676,9.6811,-0.0024,0.0021,9.8066,-0.0166,-0.0012,0.0126,2.38,-28.81,32.31,346.21,-86.49,163.41
3130,52.554695,-1.463064,0,0,6,0,21 / 22,313019,2020-01-08 09:43:08:816,-0.1859,0.1325,9.8663,-0.0048,0.0019,9.8066,-0.0121,-0.0029,-0.0137,1.5,-29.19,32.25,346.27,-86.48,163.48
3131,52.554695,-1.463064,0,0,6,0,21 / 23,313119,2020-01-08 09:43:08:916,0.0464,0.117,9.743,0.0046,-0.0067,9.8066,-0.0271,-0.0042,0.0212,2.06,-29.12,32.0,346.15,-86.47,163.36
3132,52.554695,-1.463064,0,0,6,0,21 / 23,313219,2020-01-08 09:43:09:016,-0.0702,-0.2516,9.8365,0.0029,-0.0016,9.8066,-0.021,-0.0036,0.0409,1.94,-29.06,32.31,346.44,-86.49,163.63
3133,52.554695,-1.463064,0,0,6,0,21 / 23,313319,2020-01-08 09:43:09:116,0.0072,0.1473,9.6522,-0.0009,-0.0059,9.8066,-0.0154,-0.0137,-0.009,2.25,-28.69,32.13,346.95,-86.47,164.12
3134,52.554695,-1.463064,0,0,6,0,21 / 23,313419,2020-01-08 09:43:09:216,0.2551,-0.2005,10.0084,-0.0031,-0.0023,9.8066,-0.0302,-0.0144,0.0276,2.44,-28.5,32.5,346.33,-86.48,163.59
3135,52.554695,-1.463064,0,0,6,0,21 / 23,313519,2020-01-08 09:43:09:316,0.2822,-0.3484,9.9664,0.0091,-0.0057,9.8066,-0.0187,-0.0133,0.0431,1.81,-28.5,31.63,346.46,-86.47,163.63
3136,52.554695,-1.463064,0,0,6,0,21 / 23,313618,2020-01-08 09:43:09:415,0.0069,-0.2922,10.133,0.0002,-0.0007,9.8066,-0.0183,-0.0069,-0.0252,2.31,-28.87,31.75,346.98,-86.48,164.14
3137,52.554695,-1.463064,0,0,6,0,21 / 23,313719,2020-01-08 09:43:09:516,0.044,0.4111,9.6141,0.0049,-0.0077,9.8066,-0.0275,-0.0183,-0.0164,1.94,-29.0,31.69,346.38,-86.45,163.59
3138,52.554695,-1.463064,0,0,6,0,21 / 23,313819,2020-01-08 09:43:09:616,0.3776,0.1303,9.8651,0.0119,-0.0057,9.8066,-0.0226,-0.0083,0.0652,2.06,-29.37,32.06,347.11,-86.51,164.26
3139,52.554695,-1.463064,0,0,6,0,21 / 23,313919,2020-01-08 09:43:09:716,-0.0678,-0.0243,9.905,-0.0026,-0.0057,9.8066,-0.0176,-0.0043,0.004,1.81,-28.75,32.63,347.1,-86.47,164.35
3140,52.554695,-1.463064,0,0,6,0,21 / 23,314019,2020-01-08 09:43:09:816,0.4322,-0.4986,10.0195,-0.0023,-0.0057,9.8066,-0.0253,-0.0222,0.0027,2.63,-28.87,31.56,348.05,-86.48,163.37
3141,52.554695,-1.463064,0,0,6,0,21 / 23,314119,2020-01-08 09:43:09:916,-0.4229,0.3828,9.6824,0.0111,-0.0035,9.8066,-0.0249,-0.0063,0.0571,1.88,-28.81,32.38,346.47,-86.46,163.67
3142,52.554695,-1.463064,0,0,6,0,21 / 23,314219,2020-01-08 09:43:10:016,0.1239,0.1254,9.8513,0.0019,-0.0051,9.8066,-0.0188,-0.0038,-0.0033,2.13,-28.87,32.63,347.0,-86.5,164.25
3143,52.554695,-1.463064,0,0,6,0,22 / 23,314319,2020-01-08 09:43:10:116,-0.0319,0.3635,9.5962,0.0025,-0.0028,9.8066,-0.0089,-0.0036,-0.0364,2.06,-29.0,32.5,346.55,-86.48,163.82
3144,52.554695,-1.463064,0,0,6,0,22 / 23,314418,2020-01-08 09:43:10:215,0.4157,0.0496,9.9497,-0.0123,0.006,9.8066,-0.0173,-0.0071,0.0483,2.13,-29.5,32.44,346.26,-86.45,163.47
3145,52.554695,-1.463064,0,0,6,0,22 / 23,314519,2020-01-08 09:43:10:316,0.0342,-0.2533,9.6933,-0.0051,0.0047,9.8066,-0.0162,0.0041,0.0486,1.81,-29.0,32.38,346.39,-86.47,163.59
3146,52.554695,-1.463064,0,0,6,0,22 / 23,314619,2020-01-08 09:43:10:416,0.3096,-0.4245,9.9539,-0.0006,0.0031,9.8066,-0.01,0.0033,-0.0331,2.44,-29.0,32.13,347.11,-86.48,164.27
3147,52.554695,-1.463064,0,0,6,0,22 / 23,314719,2020-01-08 09:43:10:516,0.3784,-0.1064,9.9883,-0.0026,-0.0027,9.8066,-0.0042,0.0066,0.0063,1.81,-28.94,31.94,346.72,-86.48,163.89
3148,52.554695,-1.463064,0,0,6,0,22 / 23,314819,2020-01-08 09:43:10:616,0.2098,0.1657,9.9736,-0.0014,0.0014,9.8066,-0.0099,0.0041,0.0337,2.31,-29.0,31.94,346.56,-86.47,163.75
3149,52.554695,-1.463064,0,0,6,0,22 / 23,314919,2020-01-08 09:43:10:716,0.0009,0.2053,9.6759,0.001,0.0025,9.8066,-0.0071,0.0195,-0.0001,1.81,-29.25,32.31,346.85,-86.49,164.02
3150,52.554695,-1.463064,0,0,6,0,22 / 23,315019,2020-01-08 09:43:10:816,-0.1104,0.1121,9.9465,-0.0071,0.003,9.8065,-0.011,0.0118,-0.0134,1.88,-29.69,32.19,347.36,-86.5,164.52
3151,52.554695,-1.463064,0,0,6,0,22 / 23,315118,2020-01-08 09:43:10:915,-0.2863,0.2388,9.7178,-0.01,0.0053,9.8066,-0.0068,0.0048,0.0261,2.44,-29.62,32.19,347.15,-86.51,164.33
3152,52.554695,-1.463064,0,0,6,0,22 / 23,315219,2020-01-08 09:43:11:016,0.0191,-0.4082,9.9685,0.0033,0.0001,9.8066,-0.0034,0.0175,0.0092,1.94,-29.31,32.25,347.05,-86.49,164.2
3153,52.554695,-1.463064,0,0,6,0,22 / 23,315319,2020-01-08 09:43:11:116,-0.2189,0.1873,9.6575,-0.0012,0.0027,9.8066,0.0034,0.0205,-0.0337,2.06,-29.31,31.56,347.25,-86.5,164.39
3154,52.554695,-1.463064,0,0,6,0,22 / 23,315419,2020-01-08 09:43:11:216,0.1615,0.1199,9.9029,-0.0067,0.0019,9.8066,0.0036,0.014,0.006,1.63,-29.06,31.75,347.31,-86.5,164.45
3155,52.554695,-1.463064,0,0,6,0,22 / 23,315518,2020-01-08 09:43:11:315,0.0593,-0.2832,9.7887,-0.0016,0.0032,9.8066,0.004,0.014,0.0329,1.75,-28.94,32.31,346.82,-86.48,163.99
3156,52.554695,-1.463064,0,0,6,0,22 / 23,315619,2020-01-08 09:43:11:416,0.0591,0.0167,9.9659,-0.0022,0.002,9.8066,0.0128,0.0208,-0.0359,2.25,-29.12,31.75,347.35,-86.49,164.49
3157,52.554695,-1.463064,0,0,6,0,22 / 23,315719,2020-01-08 09:43:11:516,-0.4142,0.164,9.7112,-0.0099,0.0039,9.8065,-0.0042,0.0254,-0.0448,2.13,-28.75,31.69,346.99,-86.46,164.16
3158,52.554695,-1.463064,0,0,6,0,22 / 23,315819,2020-01-08 09:43:11:616,0.1551,0.0119,9.9334,0.002,-0.0017,9.8066,0.0003,0.0135,0.0415,2.13,-29.31,32.13,347.02,-86.46,164.18
3159,52.554695,-1.463064,0,0,6,0,22 / 23,315919,2020-01-08 09:43:11:716,0.1432,0.3301,9.6488,0.0041,0.0022,9.8066,0.0017,0.0134,0.0163,1.94,-28.94,32.0,347.59,-86.46,164.72
3160,52.554695,-1.463064,0,0,6,0,22 / 23,316019,2020-01-08 09:43:11:816,0.3496,-0.4456,9.8895,-0.009,0.0009,9.8066,0.0088,0.0124,-0.0487,1.88,-29.31,31.88,346.87,-86.44,164.05
3161,52.554695,-1.463064,0,0,6,0,22 / 23,316119,2020-01-08 09:43:11:916,-0.2523,0.2242,9.7258,-0.0081,0.0034,9.8066,0.003,0.0106,-0.0117,2.0,-29.06,32.06,346.65,-86.46,164.54
3162,52.554695,-1.463064,0,0,6,0,22 / 23,316218,2020-01-08 09:43:12:015,0.0173,0.2472,9.9318,0.0043,-0.0011,9.8066,0.0034,0.0077,0.0123,1.88,-29.0,32.13,347.02,-86.43,164.2
3163,52.554695,-1.463064,0,0,6,0,22 / 23,316319,2020-01-08 09:43:12:116,0.0189,0.2834,9.6576,-0.0013,0.0024,9.8066,0.0,0.0108,-0.0244,2.38,-29.25,31.94,347.37,-86.43,164.52
3164,52.554695,-1.463064,0,0,6,0,22 / 23,316418,2020-01-08 09:43:12:215,0.0024,-0.3823,9.8819,-0.0042,-0.0011,9.8066,-0.0021,0.0061,-0.0249,1.81,-29.19,32.0,347.03,-86.42,164.21
3165,52.554695,-1.463064,0,0,6,0,22 / 23,316519,2020-01-08 09:43:12:316,0.062,0.1278,9.7343,0.0005,0.0021,9.8066,0.0022,0.0,0.0206,1.94,-29.25,31.88,346.9,-86.41,164.09
3166,52.554695,-1.463064,0,0,6,0,22 / 23,316618,2020-01-08 09:43:12:415,-0.0563,0.2565,9.9382,-0.0032,-0.0005,9.8066,-0.0035,0.0035,-0.0242,2.31,-29.12,32.0,347.37,-86.43,164.52
3167,52.554695,-1.463064,0,0,6,0,22 / 23,316719,2020-01-08 09:43:12:516,-0.1014,-0.294,9.933,-0.0079,0.0009,9.8066,-0.0059,0.0133,-0.0241,1.5,-29.56,32.19,347.34,-86.42,164.52
3168,52.554695,-1.463064,0,0,6,0,22 / 23,316818,2020-01-08 09:43:12:615,0.0236,-0.0652,9.9515,0.0041,-0.001,9.8066,0.0017,0.0039,0.0101,2.13,-29.0,32.31,346.72,-86.4,163.92
3169,52.554695,-1.463064,0,0,6,0,22 / 23,316918,2020-01-08 09:43:12:715,-0.0972,-0.0813,9.756,0.0002,0.0021,9.8066,0.0109,0.0183,-0.0209,2.25,-28.87,32.31,347.09,-86.4,164.27
3170,52.554695,-1.463064,0,0,6,0,22 / 23,317019,2020-01-08 09:43:12:816,0.1864,0.1607,9.9279,-0.0057,0.0007,9.8066,0.0094,0.0204,-0.0584,2.06,-28.81,31.94,346.55,-86.39,163.76
3171,52.554695,-1.463064,0,0,6,0,22 / 23,317119,2020-01-08 09:43:12:916,-0.235,0.2998,9.7526,-0.0103,0.0038,9.8066,0.015,0.0114,0.0161,2.56,-28.75,32.25,348.11,-86.38,163.45
3172,52.554695,-1.463064,0,0,6,0,22 / 23,317219,2020-01-08 09:43:13:016,0.2719,-0.0838,9.7854,-0.002,-0.005,9.8066,0.0226,0.0114,0.0172,2.25,-29.0,32.31,346.86,-86.39,164.05
3173,52.554695,-1.463064,0,0,6,0,22 / 23,317319,2020-01-08 09:43:13:116,-0.4251,-0.249,9.8439,0.0069,0.0028,9.8066,0.0068,0.0114,-0.0713,2.13,-28.87,31.88,346.84,-86.43,164.02
3174,52.554695,-1.463064,0,0,6,0,22 / 23,317419,2020-01-08 09:43:13:216,0.3058,0.0562,9.9122,0.0012,-0.0029,9.8066,0.0078,0.0101,-0.0228,2.69,-29.19,31.94,349.26,-86.43,164.53
3175,52.554695,-1.463064,0,0,6,0,22 / 23,317519,2020-01-08 09:43:13:316,-0.2653,0.0864,9.9262,0.0003,0.0028,9.8066,0.0186,0.0133,0.0001,1.94,-29.87,32.63,346.54,-86.42,163.86
3176,52.554695,-1.463064,0,0,6,0,22 / 23,317618,2020-01-08 09:43:13:415,0.172,-0.0225,9.7648,0.0116,-0.0046,9.8066,0.0111,0.0173,-0.0611,2.0,-29.06,32.06,346.55,-86.39,163.76
3177,52.554695,-1.463064,0,0,6,0,22 / 23,317718,2020-01-08 09:43:13:515,0.1673,-0.0209,9.8496,-0.006,0.0028,9.8066,0.0162,0.0167,-0.0144,2.5,-29.12,32.5,349.27,-86.43,164.67
3178,52.554695,-1.463064,0,0,6,0,22 / 23,317818,2020-01-08 09:43:13:615,0.1514,0.0018,9.7846,-0.0006,-0.0036,9.8065,0.0168,0.0043,0.0094,2.19,-28.44,32.38,347.14,-86.43,164.28
3179,52.554695,-1.463064,0,0,6,0,22 / 23,317919,2020-01-08 09:43:13:716,-0.1963,-0.0614,9.9078,0.0056,0.0018,9.8066,0.0221,0.0157,-0.0412,2.0,-28.94,32.38,346.97,-86.43,164.14
3180,52.554695,-1.463064,0,0,6,0,22 / 23,318019,2020-01-08 09:43:13:816,0.0868,0.0818,9.9122,0.0061,-0.0045,9.8066,0.0167,0.0198,-0.0482,1.88,-29.12,32.5,347.51,-86.45,164.74
3181,52.554695,-1.463064,0,0,6,0,22 / 23,318119,2020-01-08 09:43:13:916,-0.0247,-0.0836,9.8945,-0.0026,0.0038,9.8066,0.0129,0.0143,-0.0007,1.94,-29.37,32.0,347.11,-86.44,164.28
3182,52.554695,-1.463064,0,0,6,0,22 / 23,318218,2020-01-08 09:43:14:015,0.2835,-0.3725,9.9997,0.0009,-0.0026,9.8066,0.0132,0.0066,-0.005,2.38,-28.94,32.19,347.25,-86.42,164.41
3183,52.554695,-1.463064,0,0,6,0,22 / 23,318319,2020-01-08 09:43:14:116,-0.278,0.3985,9.6242,-0.0077,0.0037,9.8066,0.0232,0.0122,-0.0376,2.63,-28.87,32.44,348.74,-86.4,164.04
3184,52.554695,-1.463064,0,0,6,0,22 / 23,318419,2020-01-08 09:43:14:216,-0.0222,-0.0561,9.8614,0.0037,-0.0017,9.8066,0.0078,0.0127,-0.0319,2.0,-28.69,32.5,346.83,-86.42,164.11
3185,52.554695,-1.463064,0,0,6,0,22 / 23,318518,2020-01-08 09:43:14:315,-0.2269,0.0378,9.8974,-0.001,0.0034,9.8066,0.0102,0.0141,0.0233,2.31,-29.06,31.94,347.27,-86.4,164.43
3186,52.554695,-1.463064,0,0,6,0,22 / 23,318619,2020-01-08 09:43:14:416,0.1317,0.1461,9.7117,-0.0032,-0.0027,9.8066,0.0243,0.0095,-0.0082,2.0,-29.37,32.38,347.09,-86.4,164.27
3187,52.554695,-1.463064,0,0,6,0,22 / 23,318719,2020-01-08 09:43:14:516,0.1301,0.1206,9.8205,-0.0026,0.0029,9.8066,0.01,0.003,-0.0304,2.13,-28.75,31.88,346.76,-86.4,163.95
3188,52.554695,-1.463064,0,0,6,0,22 / 23,318819,2020-01-08 09:43:14:616,0.1739,-0.4734,10.0413,-0.0017,-0.0006,9.8066,0.0052,0.0141,0.0242,2.0,-28.81,32.0,347.41,-86.42,164.56
3189,52.554695,-1.463064,0,0,6,0,22 / 23,318919,2020-01-08 09:43:14:716,-0.386,-0.1403,9.7994,-0.0104,0.0053,9.8066,0.0256,0.0032,-0.012,2.25,-28.44,31.94,347.75,-86.43,164.86
3190,52.554695,-1.463064,0,0,6,0,22 / 23,319019,2020-01-08 09:43:14:816,0.0774,-0.3895,9.9465,0.0066,-0.0041,9.8066,0.0252,0.0137,-0.0482,2.0,-28.5,31.56,346.62,-86.4,163.8
3191,52.554695,-1.463064,0,0,6,0,22 / 23,319118,2020-01-08 09:43:14:915,-0.0161,0.1334,9.6513,0.0014,0.0034,9.8066,0.0171,0.0159,0.0131,1.5,-29.19,32.13,347.5,-86.41,164.65
3192,52.554695,-1.463064,0,0,6,0,22 / 23,319219,2020-01-08 09:43:15:016,0.0134,0.1506,9.697,-0.0037,-0.0045,9.8066,0.0268,0.015,0.0238,2.0,-28.94,32.13,347.26,-86.41,164.42
3193,52.554695,-1.463064,0,0,6,0,22 / 23,319318,2020-01-08 09:43:15:115,-0.0548,-0.2871,9.8702,-0.0051,0.0053,9.8066,0.0255,0.0101,-0.0319,2.25,-29.12,32.19,347.48,-86.45,164.62
3194,52.554695,-1.463064,0,0,6,0,22 / 23,319418,2020-01-08 09:43:15:215,0.0944,-0.0108,9.9596,-0.0002,0.0,9.8066,0.019,0.0192,-0.0132,2.13,-28.62,31.94,347.07,-86.42,164.24
3195,52.554695,-1.463064,0,0,6,0,22 / 23,319518,2020-01-08 09:43:15:315,-0.0649,0.1121,9.9268,0.0005,0.0031,9.8066,0.011,0.0139,0.0173,1.31,-29.25,31.75,345.17,-86.45,164.23
3196,52.554695,-1.463064,0,0,6,0,22 / 23,319619,2020-01-08 09:43:15:416,0.156,-0.4356,9.8784,0.0045,-0.0015,9.8066,0.0216,0.0066,0.0025,2.31,-29.37,32.19,347.49,-86.44,164.63
3197,52.554695,-1.463064,0,0,6,0,22 / 23,319719,2020-01-08 09:43:15:516,-0.1321,0.0006,9.7987,-0.0053,0.0056,9.8066,0.0244,0.0098,-0.0262,2.38,-29.5,32.5,347.2,-86.45,164.45
3198,52.554695,-1.463064,0,0,6,0,22 / 23,319819,2020-01-08 09:43:15:616,0.1136,0.1586,9.7322,0.0014,-0.0019,9.8066,0.0111,0.0023,-0.0027,1.88,-29.69,32.19,347.04,-86.43,164.24
3199,52.554695,-1.463064,0,0,6,0,22 / 23,319919,2020-01-08 09:43:15:716,-0.3546,-0.2363,9.8998,0.0018,0.0043,9.8066,0.0157,0.0084,0.0353,2.25,-28.94,32.31,347.15,-86.44,164.31
3200,52.554695,-1.463064,0,0,6,0,22 / 23,320019,2020-01-08 09:43:15:816,0.2381,-0.1502,9.9284,-0.0016,0.0002,9.8066,0.025,-0.003,-0.0119,2.06,-29.25,32.44,347.33,-86.41,164.49
3201,52.554695,-1.463064,0,0,6,0,22 / 23,320119,2020-01-08 09:43:15:916,0.019,-0.1129,9.7079,0.0004,0.0039,9.8066,0.0087,-0.0049,0.0046,1.69,-28.81,31.75,346.76,-86.43,163.94
3202,52.554695,-1.463064,0,0,6,0,22 / 23,320219,2020-01-08 09:43:16:016,-0.0494,0.3509,9.6601,0.0104,-0.002,9.8066,0.0081,0.0001,0.0344,1.63,-29.31,32.44,346.6,-86.41,163.8
3203,52.554695,-1.463064,0,0,6,0,22 / 23,320319,2020-01-08 09:43:16:116,-0.0026,-0.275,9.8765,-0.0098,0.0059,9.8066,0.0118,0.0015,-0.0105,1.88,-29.19,32.25,347.56,-86.44,164.7
3204,52.554695,-1.463064,0,0,6,0,22 / 23,320418,2020-01-08 09:43:16:215,0.0073,-0.3577,9.9176,-0.0032,0.0002,9.8066,0.0117,-0.0077,-0.035,1.5,-28.69,32.13,346.68,-86.41,163.88
3205,52.554695,-1.463064,0,0,6,0,22 / 23,320519,2020-01-08 09:43:16:316,-0.361,-0.154,9.8796,0.0035,0.0024,9.8066,-0.0053,-0.0171,0.0501,2.0,-29.06,31.75,347.32,-86.42,164.47
3206,52.554695,-1.463064,0,0,6,0,22 / 23,320619,2020-01-08 09:43:16:416,0.4006,-0.2767,9.9231,0.0023,0.0005,9.8066,0.0082,-0.0127,-0.0073,2.13,-29.06,32.25,347.64,-86.42,164.78
3207,52.554695,-1.463064,0,0,6,0,22 / 23,320719,2020-01-08 09:43:16:516,0.0008,0.2503,9.9134,-0.0051,0.0041,9.8066,0.0037,-0.0146,-0.0369,1.5,-28.69,32.31,347.12,-86.42,164.29
3208,52.554695,-1.463064,0,0,6,0,22 / 23,320819,2020-01-08 09:43:16:616,0.305,-0.4099,9.8318,0.0067,-0.0006,9.8066,-0.0086,-0.0216,0.053,2.06,-29.0,32.13,346.69,-86.39,163.89
3209,52.554695,-1.463064,0,0,6,0,22 / 23,320919,2020-01-08 09:43:16:716,-0.4099,-0.0532,9.7919,-0.0054,0.0041,9.8066,-0.0094,-0.0195,0.0487,2.63,-28.94,31.63,349.64,-86.43,164.88
3210,52.554695,-1.463064,0,0,6,0,22 / 23,321019,2020-01-08 09:43:16:816,0.0613,-0.1326,9.9544,-0.0035,0.0013,9.8066,0.0059,-0.0233,-0.0182,2.25,-29.25,32.19,347.19,-86.4,164.36
3211,52.554695,-1.463064,0,0,6,0,22 / 23,321119,2020-01-08 09:43:16:916,-0.0591,-0.0892,9.7883,-0.0022,-0.0003,9.8066,-0.0065,-0.0218,-0.0006,2.0,-29.19,32.31,347.52,-86.39,164.67
3212,52.554695,-1.463064,0,0,6,0,22 / 23,321218,2020-01-08 09:43:17:015,0.2499,-0.2599,9.9721,-0.0003,-0.0029,9.8066,-0.0249,-0.0233,0.0417,2.06,-29.06,31.88,347.32,-86.38,164.48
3213,52.554695,-1.463064,0,0,6,0,22 / 23,321319,2020-01-08 09:43:17:116,-0.2086,-0.109,9.8547,0.0008,0.0005,9.8066,-0.0119,-0.0228,0.026,2.25,-28.81,32.06,347.17,-86.39,164.34
3214,52.554695,-1.463064,0,0,6,0,22 / 23,321419,2020-01-08 09:43:17:216,0.0576,-0.2159,10.0012,0.0035,-0.0019,9.8066,-0.0172,-0.035,-0.0191,1.63,-29.25,31.63,347.55,-86.41,164.69
3215,52.554695,-1.463064,0,0,6,0,22 / 23,321519,2020-01-08 09:43:17:316,-0.0344,0.2366,9.9297,-0.008,0.0016,9.8066,-0.0209,-0.0235,0.0249,2.31,-28.94,32.06,347.01,-86.39,164.2
3216,52.554695,-1.463064,0,0,6,0,22 / 23,321619,2020-01-08 09:43:17:416,-0.0059,-0.2052,9.8716,0.0079,-0.0041,9.8066,-0.0206,-0.0247,0.034,1.63,-29.62,32.75,346.78,-86.39,164.08
3217,52.554695,-1.463064,0,0,6,0,22 / 23,321719,2020-01-08 09:43:17:516,0.0529,-0.2201,9.7554,0.0034,0.0005,9.8066,-0.0136,-0.027,-0.0097,2.0,-29.44,32.44,347.61,-86.41,164.75
3218,52.554695,-1.463064,0,0,6,0,22 / 23,321819,2020-01-08 09:43:17:616,0.2633,-0.4457,10.0197,-0.0042,-0.004,9.8066,-0.0269,-0.0439,0.0185,1.94,-29.75,31.94,347.46,-86.39,164.64
3219,52.554695,-1.463064,0,0,6,0,22 / 23,321919,2020-01-08 09:43:17:716,-0.4402,-0.1185,9.8411,-0.005,0.0004,9.8066,-0.0334,-0.0312,0.0719,2.56,-28.37,32.13,349.17,-86.39,164.42
3220,52.554695,-1.463064,0,0,6,0,22 / 23,322019,2020-01-08 09:43:17:816,-0.0645,-0.3987,9.9885,0.009,-0.0047,9.8066,-0.0212,-0.0232,-0.013,2.13,-28.87,32.13,347.23,-86.4,164.4
3221,52.554695,-1.463064,0,0,6,0,22 / 23,322119,2020-01-08 09:43:17:916,-0.0884,-0.1957,9.7931,-0.0047,-0.0004,9.8066,-0.0221,-0.0322,-0.0376,2.44,-28.81,32.0,347.5,-86.41,164.65
3222,52.554695,-1.463064,0,0,6,0,22 / 23,322220,2020-01-08 09:43:18:017,0.4768,-0.4008,9.8532,0.0065,-0.0056,9.8066,-0.0195,-0.0391,0.071,1.94,-28.94,32.38,346.72,-86.39,163.92
3223,52.554695,-1.463064,0,0,6,0,22 / 23,322319,2020-01-08 09:43:18:116,0.0808,-0.2556,9.7586,0.0103,-0.0006,9.8066,-0.0203,-0.0233,0.0499,2.0,-29.37,32.69,347.71,-86.42,164.93
3224,52.554695,-1.463064,0,0,6,0,22 / 23,322418,2020-01-08 09:43:18:215,0.0884,-0.4594,9.9303,-0.0045,-0.0048,9.8066,-0.0318,-0.0311,-0.0267,2.44,-29.31,32.38,347.76,-86.41,164.89
3225,52.554695,-1.463064,0,0,6,0,22 / 23,322519,2020-01-08 09:43:18:316,-0.3686,-0.2499,9.9414,-0.0029,-0.0018,9.8065,-0.0236,-0.0261,0.0358,2.31,-28.81,32.06,346.86,-86.43,164.04
3226,52.554695,-1.463064,0,0,6,0,22 / 23,322619,2020-01-08 09:43:18:416,-0.0045,-0.3644,9.9064,0.0101,-0.0063,9.8066,-0.0216,-0.0316,0.0265,2.31,-29.19,32.06,347.0,-86.4,164.18
3227,52.554695,-1.463064,0,0,6,0,22 / 23,322719,2020-01-08 09:43:18:516,-0.126,0.1209,9.985,-0.0017,0.0002,9.8066,-0.0238,-0.0267,-0.0207,1.81,-29.19,31.81,347.33,-86.42,164.49
3228,52.554695,-1.463064,0,0,6,0,22 / 23,322819,2020-01-08 09:43:18:616,0.0802,0.2453,9.7056,0.0025,-0.0056,9.8066,-0.0323,-0.0266,0.0307,1.88,-28.87,31.63,346.82,-86.4,164.02
3229,52.554695,-1.463064,0,0,6,0,22 / 23,322919,2020-01-08 09:43:18:716,-0.0379,-0.2573,9.8265,0.0077,-0.0028,9.8066,-0.0282,-0.0292,0.0673,2.44,-29.56,32.0,347.16,-86.44,164.35
3230,52.554695,-1.463064,0,0,6,0,22 / 23,323019,2020-01-08 09:43:18:816,0.0261,-0.3207,9.9471,-0.0014,-0.0058,9.8066,-0.0261,-0.0191,-0.0164,1.75,-28.75,32.56,347.17,-86.44,164.42
3231,52.554695,-1.463064,0,0,6,0,22 / 23,323119,2020-01-08 09:43:18:916,-0.4523,-0.0702,9.855,-0.0061,-0.0022,9.8066,-0.0262,-0.0231,-0.0226,2.38,-28.69,32.19,347.28,-86.42,164.44
3232,52.554695,-1.463064,0,0,6,0,22 / 23,323218,2020-01-08 09:43:19:015,-0.3932,0.0108,9.7458,0.0116,-0.006,9.8066,-0.0325,-0.0233,0.0589,1.88,-28.69,31.56,346.6,-86.4,163.81
3233,52.554695,-1.463064,0,0,6,0,22 / 23,323319,2020-01-08 09:43:19:116,0.0408,0.2906,9.9477,0.004,-0.0039,9.8066,-0.0304,-0.0099,-0.013,2.19,-29.0,32.38,347.37,-86.44,164.52
3234,52.554695,-1.463064,0,0,6,0,22 / 23,323419,2020-01-08 09:43:19:216,0.2592,-0.0228,9.7886,-0.0001,-0.0049,9.8066,-0.0331,-0.0179,-0.018,2.06,-29.19,32.06,347.04,-86.4,164.22
3235,52.554695,-1.463064,0,0,6,0,22 / 23,323518,2020-01-08 09:43:19:315,-0.108,0.0465,9.8991,0.0061,-0.005,9.8066,-0.0272,-0.0086,0.0629,1.94,-29.5,32.38,347.01,-86.45,164.18
3236,52.554695,-1.463064,0,0,6,0,22 / 23,323619,2020-01-08 09:43:19:416,-0.1729,0.1107,9.8457,0.0022,-0.003,9.8066,-0.0286,-0.0202,0.025,2.38,-29.06,31.94,347.11,-86.41,164.28
3237,52.554695,-1.463064,0,0,6,0,22 / 23,323719,2020-01-08 09:43:19:516,-0.1854,0.2425,9.9397,-0.0013,-0.007,9.8066,-0.04,-0.0267,-0.0023,2.13,-29.0,32.13,346.52,-86.43,163.72
3238,52.554695,-1.463064,0,0,6,0,22 / 23,323819,2020-01-08 09:43:19:616,-0.3086,-0.2078,9.845,0.0096,-0.0029,9.8066,-0.0334,-0.0278,0.039,2.19,-29.12,32.25,346.21,-86.4,163.44
3239,52.554695,-1.463064,0,0,6,0,22 / 23,323919,2020-01-08 09:43:19:716,-0.0146,-0.3676,9.965,0.0092,-0.0056,9.8066,-0.0213,-0.0265,0.0234,2.19,-28.75,31.94,347.25,-86.44,164.41
3240,52.554695,-1.463064,0,0,6,0,22 / 23,324019,2020-01-08 09:43:19:816,-0.0191,0.1034,9.6253,-0.0033,-0.0005,9.8066,-0.0272,-0.0241,-0.0223,2.25,-28.75,32.0,346.31,-86.42,163.52
3241,52.554695,-1.463064,0,0,6,0,22 / 23,324119,2020-01-08 09:43:19:916,-0.0012,0.1596,10.0079,0.0063,-0.0067,9.8066,-0.0305,-0.0287,0.0486,2.19,-29.31,31.88,346.31,-86.44,163.52
3242,52.554695,-1.463064,0,0,6,0,22 / 23,324219,2020-01-08 09:43:20:016,-0.2338,0.0418,9.7656,0.0001,0.0024,9.8066,-0.0244,-0.0193,0.0629,2.13,-29.44,31.81,346.75,-86.44,163.94
3243,52.554695,-1.463064,0,0,6,0,22 / 23,324318,2020-01-08 09:43:20:115,-0.0325,-0.1596,10.0921,-0.0042,-0.0058,9.8066,-0.0261,-0.0153,-0.0306,1.81,-29.12,32.38,346.32,-86.44,163.53
3244,52.554695,-1.463064,0,0,6,0,22 / 23,324419,2020-01-08 09:43:20:216,-0.0386,0.3831,9.6418,0.0094,-0.0016,9.8066,-0.0265,-0.0236,0.0081,1.88,-29.06,32.19,346.12,-86.42,163.35
3245,52.554695,-1.463064,0,0,6,0,22 / 23,324519,2020-01-08 09:43:20:316,-0.0159,-0.3384,9.8866,0.0095,-0.0056,9.8066,-0.0257,-0.0203,0.0528,1.69,-28.87,32.5,347.04,-86.46,164.3
3246,52.554695,-1.463064,0,0,6,0,22 / 23,324618,2020-01-08 09:43:20:415,-0.0191,-0.0811,9.7028,-0.0049,0.0017,9.8066,-0.0236,-0.0142,0.0145,1.63,-29.75,31.25,346.83,-86.45,163.94
3247,52.554695,-1.463064,0,0,6,0,22 / 23,324719,2020-01-08 09:43:20:516,0.3192,-0.387,10.0389,0.0029,-0.0056,9.8066,-0.0323,-0.0154,-0.0011,2.0,-29.5,32.19,346.43,-86.46,163.63
3248,52.554695,-1.463064,0,0,6,0,22 / 23,324819,2020-01-08 09:43:20:616,-0.3939,-0.1975,9.7901,0.0049,0.0022,9.8066,-0.0296,-0.0106,0.0434,1.44,-29.5,31.69,344.77,-86.46,163.85
3249,52.554695,-1.463064,0,0,6,0,22 / 23,324919,2020-01-08 09:43:20:716,0.0279,-0.3214,10.0326,-0.0009,-0.0046,9.8066,-0.019,-0.0135,0.0083,1.5,-29.75,31.81,346.89,-86.43,164.09
3250,52.554695,-1.463064,0,0,6,0,22 / 23,325019,2020-01-08 09:43:20:816,-0.2418,-0.1414,9.7282,-0.0031,0.0007,9.8066,-0.026,-0.0048,-0.0232,1.5,-29.12,32.13,346.69,-86.45,163.88
3251,52.554695,-1.463064,0,0,6,0,22 / 23,325118,2020-01-08 09:43:20:915,0.3845,0.17,9.9282,-0.0026,-0.0031,9.8066,-0.0251,-0.0021,0.0549,1.81,-28.87,32.75,346.13,-86.44,163.44
3252,52.554695,-1.463064,0,0,6,0,22 / 23,325219,2020-01-08 09:43:21:016,0.1431,-0.26,9.8813,0.0021,0.0003,9.8066,-0.0149,-0.0005,0.0464,1.31,-29.06,32.44,344.7,-86.44,163.79
3253,52.554695,-1.463064,0,0,6,0,22 / 23,325319,2020-01-08 09:43:21:116,0.2078,-0.2227,9.9539,-0.0025,-0.0006,9.8066,-0.001,0.0047,-0.0308,2.06,-29.19,32.56,346.89,-86.45,164.15
3254,52.554695,-1.463064,0,0,6,0,22 / 23,325419,2020-01-08 09:43:21:216,0.1407,-0.1735,9.8054,0.0047,-0.0054,9.8066,-0.0042,0.0215,0.0061,1.63,-29.19,32.38,346.18,-86.42,163.41
3255,52.554695,-1.463064,0,0,6,0,22 / 23,325519,2020-01-08 09:43:21:316,0.1252,-0.3625,10.0118,0.0032,-0.003,9.8066,-0.0227,0.0058,0.0268,1.06,-28.94,32.0,344.61,-86.41,163.71
3256,52.554695,-1.463064,0,0,6,0,22 / 23,325619,2020-01-08 09:43:21:416,-0.1433,0.2458,9.7652,-0.0009,-0.001,9.8066,-0.0062,0.0012,0.0187,1.19,-28.87,33.0,344.69,-86.43,163.81
3257,52.554695,-1.463064,0,0,6,0,22 / 23,325719,2020-01-08 09:43:21:516,0.2666,-0.5217,9.9445,-0.0032,0.0009,9.8066,0.0115,0.0128,-0.0237,0.88,-28.37,32.25,345.12,-86.44,164.16
3258,52.554695,-1.463064,0,0,6,0,22 / 23,325819,2020-01-08 09:43:21:616,-0.3904,0.3112,9.7393,-0.0086,0.0033,9.8066,0.0013,0.0154,-0.0287,1.81,-28.37,32.19,347.31,-86.45,164.44
3259,52.554695,-1.463064,0,0,6,0,22 / 23,325919,2020-01-08 09:43:21:716,0.1143,0.2911,9.7736,0.002,-0.0019,9.8066,-0.0086,0.0037,0.0202,1.81,-28.37,32.13,346.61,-86.43,163.78
3260,52.554695,-1.463064,0,0,6,0,22 / 23,326020,2020-01-08 09:43:21:817,0.0124,0.3947,9.6856,0.0038,-0.0005,9.8066,-0.0015,0.0147,0.0203,1.5,-29.0,32.06,347.03,-86.44,164.2
3261,52.554695,-1.463064,0,0,6,0,22 / 23,326119,2020-01-08 09:43:21:916,-0.3623,-0.3307,9.9863,-0.0095,0.0013,9.8066,-0.0035,0.0081,-0.0592,1.13,-28.81,31.81,345.4,-86.43,164.45
3262,52.554695,-1.463064,0,0,6,0,22 / 23,326219,2020-01-08 09:43:22:016,-0.3022,0.2914,9.839,0.01,-0.0022,9.8066,-0.0028,0.0082,-0.0179,1.38,-28.75,32.5,344.21,-86.43,163.36
3263,52.554695,-1.463064,0,0,6,0,22 / 23,326318,2020-01-08 09:43:22:115,-0.2439,0.3991,9.8839,0.0033,0.0022,9.8065,0.0192,0.0115,0.0119,2.06,-28.87,32.13,346.81,-86.44,164.0
3264,52.554695,-1.463064,0,0,6,0,22 / 23,326419,2020-01-08 09:43:22:216,-0.065,0.4442,9.6661,-0.0106,0.0024,9.8066,0.0118,0.0191,-0.0627,1.88,-28.5,32.19,347.73,-86.43,164.84
3265,52.554695,-1.463064,0,0,6,0,22 / 23,326519,2020-01-08 09:43:22:316,0.1507,-0.0887,9.9787,0.0031,0.0009,9.8066,0.0098,0.0136,0.0036,1.63,-28.81,32.5,346.48,-86.41,163.77
3266,52.554695,-1.463064,0,0,6,0,22 / 23,326618,2020-01-08 09:43:22:415,0.044,0.1103,9.7106,0.0039,0.0023,9.8066,0.0033,0.0042,0.0367,1.56,-28.69,31.69,347.21,-86.42,164.37
3267,52.554695,-1.463064,0,0,6,0,22 / 23,326719,2020-01-08 09:43:22:516,0.4176,0.0267,9.9147,-0.0084,0.0015,9.8066,0.0077,0.006,-0.0641,1.88,-28.81,32.69,347.16,-86.43,164.41
3268,52.554695,-1.463064,0,0,6,0,22 / 23,326819,2020-01-08 09:43:22:616,-0.2161,0.2775,9.7181,-0.0063,0.0023,9.8066,0.0057,0.0142,0.0004,1.44,-29.0,32.38,344.23,-86.41,163.36
3269,52.554695,-1.463064,0,0,6,0,22 / 23,326918,2020-01-08 09:43:22:715,0.0255,-0.2961,9.8188,-0.0023,0.0003,9.8066,-0.0098,-0.0021,0.019,1.63,-28.56,32.13,346.89,-86.44,164.07
3270,52.554695,-1.463064,0,0,6,0,22 / 23,327019,2020-01-08 09:43:22:816,-0.1634,0.3879,9.7001,0.003,0.001,9.8066,0.0097,0.0193,-0.0142,1.31,-29.19,32.88,344.66,-86.44,163.78
3271,52.554695,-1.463064,0,0,6,0,22 / 23,327118,2020-01-08 09:43:22:915,0.0835,-0.0103,9.9639,0.0065,-0.0056,9.8066,0.0157,0.0259,-0.0385,1.75,-28.37,31.94,347.03,-86.46,164.17
3272,52.554695,-1.463064,0,0,6,0,22 / 23,327219,2020-01-08 09:43:23:016,-0.1735,-0.027,9.8086,0.0,0.0004,9.8066,0.0072,0.0186,-0.0087,1.44,-28.94,32.94,345.2,-86.44,164.29
3273,52.554695,-1.463064,0,0,6,0,22 / 23,327319,2020-01-08 09:43:23:116,0.1637,-0.1916,9.9279,-0.003,0.0006,9.8066,0.0072,0.0176,0.0238,1.63,-29.06,32.69,346.7,-86.45,163.97
3274,52.554695,-1.463064,0,0,6,0,22 / 23,327419,2020-01-08 09:43:23:216,-0.4527,0.1822,9.8184,0.0085,-0.0043,9.8066,0.0212,0.0316,-0.0293,1.44,-28.87,32.75,344.58,-86.42,163.71
3275,52.554695,-1.463064,0,0,6,0,22 / 23,327519,2020-01-08 09:43:23:316,0.3116,0.159,9.8372,0.0105,-0.004,9.8066,0.0216,0.0222,-0.0471,1.56,-28.87,32.31,347.54,-86.46,164.68
3276,52.554695,-1.463064,0,0,6,0,22 / 23,327619,2020-01-08 09:43:23:416,0.0757,-0.4853,9.8729,-0.0031,0.0013,9.8066,0.0043,0.0079,0.0301,1.63,-28.31,32.44,347.12,-86.44,164.26
3277,52.554695,-1.463064,0,0,6,0,22 / 23,327719,2020-01-08 09:43:23:516,-0.0918,0.259,9.7818,0.0068,0.0,9.8066,0.0038,-0.0078,0.0383,1.25,-28.81,32.06,345.4,-86.44,164.45
3278,52.554695,-1.463064,0,0,6,0,22 / 23,327818,2020-01-08 09:43:23:615,-0.3835,0.4538,9.7116,0.0084,-0.0033,9.8066,0.0156,-0.0182,-0.014,1.31,-28.87,32.31,344.84,-86.42,163.93
3279,52.554695,-1.463064,0,0,6,0,22 / 23,327919,2020-01-08 09:43:23:716,0.1235,-0.3222,9.8971,0.0049,-0.0019,9.8066,0.0141,-0.0161,-0.0196,1.13,-29.06,32.44,345.53,-86.44,164.57
3280,52.554695,-1.463064,0,0,6,0,22 / 23,328019,2020-01-08 09:43:23:816,0.2081,-0.0063,9.9065,-0.002,0.0009,9.8066,-0.0109,-0.0421,0.0218,1.63,-29.12,32.94,346.86,-86.42,164.13
3281,52.554695,-1.463064,0,0,6,0,22 / 23,328119,2020-01-08 09:43:23:916,0.2962,-0.1985,9.8785,-0.0048,0.0034,9.8066,-0.0158,-0.0446,0.0557,1.81,-29.12,32.56,347.33,-86.44,164.57
3282,52.554695,-1.463064,0,0,6,0,22 / 23,328220,2020-01-08 09:43:24:017,0.2192,0.326,9.8,0.0047,-0.0023,9.8066,-0.007,-0.0318,0.0134,1.31,-29.12,31.94,345.26,-86.42,164.32
3283,52.554695,-1.463064,0,0,6,0,22 / 23,328319,2020-01-08 09:43:24:116,0.1255,0.4364,9.7742,-0.0019,0.0043,9.8066,0.0081,-0.02,0.0036,1.81,-29.0,32.75,346.99,-86.41,164.26
3284,52.554695,-1.463064,0,0,6,0,22 / 23,328419,2020-01-08 09:43:24:216,0.2484,0.007,9.8516,0.0039,0.0014,9.8066,-0.0027,-0.0107,0.0109,1.56,-28.44,32.06,347.08,-86.44,164.22
3285,52.554695,-1.463064,0,0,6,0,22 / 23,328519,2020-01-08 09:43:24:316,0.0253,-0.1663,9.9783,-0.0003,0.0009,9.8066,-0.0091,-0.0139,0.0287,1.75,-29.12,32.63,347.41,-86.45,164.64
3286,52.554695,-1.463064,0,0,6,0,22 / 23,328619,2020-01-08 09:43:24:416,-0.0172,0.0988,9.7659,0.0008,0.0035,9.8066,-0.0042,-0.0193,0.0176,1.25,-28.94,32.19,345.59,-86.43,164.63
3287,52.554695,-1.463064,0,0,6,0,22 / 23,328719,2020-01-08 09:43:24:516,-0.192,-0.0729,9.8287,0.0008,-0.0001,9.8066,-0.0063,-0.0114,-0.0141,1.44,-28.94,32.19,345.17,-86.43,164.24
3288,52.554695,-1.463064,0,0,6,0,22 / 23,328819,2020-01-08 09:43:24:616,0.0907,-0.2636,9.8666,0.0087,0.0,9.8066,-0.0023,0.0126,-0.0143,1.75,-29.5,32.25,347.65,-86.44,164.79
3289,52.554695,-1.463064,0,0,6,0,22 / 23,328918,2020-01-08 09:43:24:715,-0.1182,-0.1016,9.8726,0.0022,0.0012,9.8066,-0.0037,0.0171,0.0033,1.75,-28.69,32.19,347.18,-86.44,164.35
3290,52.554695,-1.463064,0,0,6,0,22 / 23,329019,2020-01-08 09:43:24:816,-0.0103,-0.2273,9.7664,-0.0027,0.0023,9.8066,0.0011,0.0417,-0.005,1.5,-29.31,31.81,347.05,-86.42,164.22
3291,52.554695,-1.463064,0,0,6,0,22 / 23,329119,2020-01-08 09:43:24:916,0.0326,0.0361,9.8352,0.0053,-0.0014,9.8066,0.0164,0.0428,-0.0181,1.44,-29.06,32.75,344.9,-86.41,164.01
3292,52.554695,-1.463064,0,0,6,0,22 / 23,329219,2020-01-08 09:43:25:016,-0.3218,0.1037,9.8064,0.0021,-0.0011,9.8065,0.0106,0.012,-0.0411,1.38,-28.94,31.81,344.92,-86.42,164.0
3293,52.554695,-1.463064,0,0,6,0,22 / 23,329319,2020-01-08 09:43:25:116,-0.0764,0.0246,9.823,0.0031,-0.0008,9.8066,0.0002,0.0029,-0.0204,1.69,-29.5,32.25,346.98,-86.44,164.16
3294,52.554695,-1.463064,0,0,6,0,22 / 23,329419,2020-01-08 09:43:25:216,-0.1064,0.4161,9.7632,-0.0017,0.0,9.8066,-0.0091,-0.0167,0.0053,1.31,-29.31,32.0,345.33,-86.44,164.39
3295,52.554695,-1.463064,0,0,6,0,22 / 23,329519,2020-01-08 09:43:25:316,0.2826,-0.2787,9.8634,-0.0018,0.0005,9.8066,-0.0061,-0.0041,0.0201,1.81,-29.0,32.13,347.16,-86.44,164.32
3296,52.554695,-1.463064,0,0,6,0,22 / 23,329618,2020-01-08 09:43:25:415,-0.213,-0.2085,9.8551,-0.0044,-0.001,9.8066,0.0193,0.002,0.0102,1.69,-28.81,32.13,346.89,-86.44,164.07
3297,52.554695,-1.463064,0,0,6,0,22 / 23,329719,2020-01-08 09:43:25:516,0.0741,-0.1089,9.8622,0.0019,-0.0015,9.8066,0.0175,0.0043,-0.0086,1.5,-28.56,32.0,347.08,-86.45,164.25
3298,52.554695,-1.463064,0,0,6,0,22 / 23,329819,2020-01-08 09:43:25:616,-0.3354,-0.2475,9.8466,-0.0009,-0.0007,9.8066,-0.0074,-0.0242,0.0216,1.44,-29.0,32.0,345.52,-86.45,164.56
3299,52.554695,-1.463064,0,0,6,0,22 / 23,329919,2020-01-08 09:43:25:716,0.254,0.1301,9.8169,-0.0069,0.0011,9.8066,-0.0077,-0.0301,0.0311,1.94,-29.06,32.19,347.56,-86.44,164.7
3300,52.554695,-1.463064,0,0,6,0,22 / 23,330019,2020-01-08 09:43:25:816,-0.0321,0.3592,9.8006,-0.0011,0.0008,9.8066,0.0008,-0.0282,-0.0085,1.13,-29.31,32.44,345.32,-86.43,164.38
3301,52.554695,-1.463064,0,0,6,0,22 / 23,330119,2020-01-08 09:43:25:916,-0.1674,-0.3974,9.8527,-0.0008,-0.0034,9.8066,0.0211,0.0294,-0.0136,1.88,-28.81,32.13,347.53,-86.44,164.67
3302,52.554695,-1.463064,0,0,6,0,22 / 23,330219,2020-01-08 09:43:26:016,0.0406,0.4695,9.7502,0.0058,-0.002,9.8066,0.009,0.0225,-0.0262,2.13,-28.94,32.56,346.89,-86.44,164.15
3303,52.554695,-1.463064,0,0,6,0,22 / 23,330319,2020-01-08 09:43:26:116,-0.0306,-0.2828,9.9066,-0.0045,0.0006,9.8066,-0.0086,0.0224,0.0194,1.94,-29.06,31.44,347.77,-86.45,164.8
3304,52.554695,-1.463064,0,0,6,0,22 / 23,330419,2020-01-08 09:43:26:216,0.0333,-0.2567,9.9207,-0.0026,0.0029,9.8066,-0.0048,0.0217,0.0258,1.5,-28.25,31.94,347.33,-86.42,164.46
3305,52.554695,-1.463064,0,0,6,0,22 / 23,330519,2020-01-08 09:43:26:316,0.0305,0.2957,9.8523,0.0089,-0.0041,9.8066,0.0115,0.0004,-0.037,1.31,-29.56,32.0,345.06,-86.43,164.16
3306,52.554695,-1.463064,0,0,6,0,22 / 23,330619,2020-01-08 09:43:26:416,0.1136,-0.3217,9.8606,0.0055,-0.0024,9.8066,0.0058,0.0023,-0.0325,1.38,-28.87,32.13,345.95,-86.46,164.96
3307,52.554695,-1.463064,0,0,6,0,22 / 23,330719,2020-01-08 09:43:26:516,0.0728,0.0231,9.8907,-0.0017,0.0032,9.8066,-0.0111,-0.0103,0.0184,1.38,-29.06,31.75,345.64,-86.45,164.68
3308,52.554695,-1.463064,0,0,6,0,22 / 23,330818,2020-01-08 09:43:26:615,-0.2454,0.1181,9.7585,-0.0039,0.0029,9.8066,-0.0173,-0.014,0.0232,1.94,-29.31,32.25,347.43,-86.46,164.57
3309,52.554695,-1.463064,0,0,6,0,22 / 23,330919,2020-01-08 09:43:26:716,0.0847,0.4892,9.7454,0.0028,-0.003,9.8066,0.0091,-0.0091,0.0162,1.44,-29.19,31.88,345.37,-86.43,164.42
3310,52.554695,-1.463064,0,0,6,0,22 / 23,331019,2020-01-08 09:43:26:816,-0.0094,0.1581,9.8,0.0016,-0.0039,9.8065,0.0182,0.0022,0.0066,1.06,-28.62,32.44,345.55,-86.45,164.59
3311,52.554695,-1.463064,0,0,6,0,22 / 23,331119,2020-01-08 09:43:26:916,-0.1079,-0.1181,9.7679,0.0008,0.0,9.8066,0.0098,-0.0073,-0.0036,1.31,-29.19,32.06,345.54,-86.42,164.59
3312,52.554695,-1.463064,0,0,6,0,22 / 23,331219,2020-01-08 09:43:27:016,-0.1899,0.092,9.8196,0.0047,-0.0027,9.8066,0.0081,-0.0106,0.0144,1.81,-28.44,32.44,347.51,-86.42,164.63
3313,52.554695,-1.463064,0,0,6,0,22 / 23,331319,2020-01-08 09:43:27:116,0.1355,0.3164,9.8208,0.0015,0.0004,9.8066,0.0187,-0.0025,0.0055,1.63,-29.0,32.13,347.68,-86.43,164.82
3314,52.554695,-1.463064,0,0,6,0,22 / 23,331419,2020-01-08 09:43:27:216,-0.1564,0.3443,9.6838,0.0041,-0.0046,9.8066,0.0144,-0.0033,-0.0322,1.56,-28.94,32.13,347.23,-86.39,164.4
3315,52.554695,-1.463064,0,0,6,0,22 / 23,331519,2020-01-08 09:43:27:316,0.0436,-0.3721,9.9461,0.0095,-0.0039,9.8066,-0.0085,0.0002,0.0038,1.94,-29.06,31.56,347.71,-86.43,164.85
3316,52.554695,-1.463064,0,0,6,0,22 / 23,331619,2020-01-08 09:43:27:416,-0.1079,0.2761,9.7172,0.0013,-0.0006,9.8066,-0.0121,0.003,0.0301,1.69,-29.0,32.44,347.67,-86.43,164.81
3317,52.554695,-1.463064,0,0,6,0,22 / 23,331719,2020-01-08 09:43:27:516,-0.0326,-0.0769,9.9666,-0.0035,-0.003,9.8066,-0.0008,0.0169,-0.0476,1.44,-28.75,32.38,345.31,-86.42,164.37
3318,52.554695,-1.463064,0,0,6,0,22 / 23,331819,2020-01-08 09:43:27:616,-0.2618,0.0046,9.6972,0.0117,-0.0037,9.8065,0.0038,0.0181,-0.0537,1.5,-29.12,32.5,346.76,-86.4,164.04
3319,52.554695,-1.463064,0,0,6,0,22 / 23,331919,2020-01-08 09:43:27:716,0.0625,0.1694,9.7383,0.008,-0.0046,9.8066,-0.014,0.0155,0.0043,1.94,-29.0,32.75,347.97,-86.44,165.17
3320,52.554695,-1.463064,0,0,6,0,22 / 23,332019,2020-01-08 09:43:27:816,-0.1322,0.1901,9.7956,-0.0007,0.0009,9.8066,-0.0208,0.015,0.0064,1.44,-29.31,32.69,345.71,-86.44,164.77
3321,52.554695,-1.463064,0,0,6,0,22 / 23,332119,2020-01-08 09:43:27:916,0.3058,0.0014,9.9085,-0.0031,-0.0004,9.8066,0.0078,0.0481,-0.0379,1.75,-28.81,32.25,347.4,-86.43,164.55
3322,52.554695,-1.463064,0,0,6,0,22 / 23,332219,2020-01-08 09:43:28:016,-0.0827,-0.3556,9.7495,0.0089,-0.0035,9.8066,0.0103,0.0439,-0.0499,1.56,-28.81,32.31,347.16,-86.42,164.33
3323,52.554695,-1.463064,0,0,6,0,22 / 23,332319,2020-01-08 09:43:28:116,-0.0067,-0.351,9.9248,0.0036,-0.0042,9.8066,-0.0048,0.0353,0.0136,1.75,-29.0,31.75,347.9,-86.45,165.02
3324,52.554695,-1.463064,0,0,6,0,22 / 23,332418,2020-01-08 09:43:28:215,0.3577,0.2288,9.8122,-0.0036,0.0016,9.8066,0.0032,0.0293,0.0276,1.69,-29.31,31.56,347.68,-86.43,164.81
3325,52.554695,-1.463064,0,0,6,0,22 / 23,332519,2020-01-08 09:43:28:316,0.2246,-0.2514,9.966,-0.0061,-0.0034,9.8066,0.0277,0.0215,-0.0427,1.69,-28.69,31.63,347.11,-86.42,164.28
3326,52.554695,-1.463064,0,0,6,0,22 / 23,332619,2020-01-08 09:43:28:416,0.0511,0.0077,9.8148,0.0074,-0.0011,9.8066,0.0154,0.0107,-0.0424,1.56,-29.19,32.38,347.5,-86.42,164.64
3327,52.554695,-1.463064,0,0,6,0,22 / 23,332719,2020-01-08 09:43:28:516,-0.4191,-0.032,9.9174,-0.0064,-0.0007,9.8066,0.0055,-0.0106,0.0437,1.31,-29.19,32.38,346.21,-86.43,165.22
3328,52.554695,-1.463064,0,0,6,0,22 / 23,332818,2020-01-08 09:43:28:615,0.3835,0.2035,9.8597,-0.0007,0.0008,9.8066,0.0025,-0.0257,0.02,1.38,-29.31,31.81,345.52,-86.42,164.57
3329,52.554695,-1.463064,0,0,6,0,22 / 23,332918,2020-01-08 09:43:28:715,-0.2167,0.2954,9.748,-0.0026,-0.001,9.8066,0.01,-0.0409,-0.0042,1.94,-28.69,32.63,347.36,-86.43,164.6
3330,52.554695,-1.463064,0,0,6,0,22 / 23,333019,2020-01-08 09:43:28:816,0.0229,0.1914,9.8614,-0.002,-0.0013,9.8066,-0.0009,-0.0376,0.0063,1.75,-29.12,32.25,347.68,-86.43,164.82
3331,52.554695,-1.463064,0,0,6,0,22 / 23,333119,2020-01-08 09:43:28:916,-0.0576,0.0205,9.7178,-0.0065,0.0041,9.8066,-0.0165,-0.045,0.0401,1.63,-28.69,32.5,347.36,-86.41,164.6
3332,52.554695,-1.463064,0,0,6,0,22 / 23,333218,2020-01-08 09:43:29:015,0.2053,-0.0487,9.9138,-0.0039,-0.0015,9.8066,-0.0086,-0.0449,0.0389,1.38,-29.25,32.0,345.92,-86.41,164.95
3333,52.554695,-1.463064,0,0,6,0,22 / 23,333319,2020-01-08 09:43:29:116,0.1201,-0.178,9.8348,0.0002,0.0016,9.8066,-0.0036,-0.0446,-0.0184,2.19,-28.25,32.25,347.8,-86.43,164.91
3334,52.554695,-1.463064,0,0,6,0,22 / 23,333419,2020-01-08 09:43:29:216,0.541,-0.2547,9.8767,-0.0082,0.0028,9.8066,-0.021,-0.0258,0.0519,1.63,-29.25,32.19,347.87,-86.42,164.99
3335,52.554695,-1.463064,0,0,6,0,22 / 23,333519,2020-01-08 09:43:29:316,-0.3912,0.3037,9.7872,-0.0096,0.0025,9.8066,-0.0132,-0.0189,0.0575,1.38,-28.81,32.19,345.61,-86.44,164.65
3336,52.554695,-1.463064,0,0,6,0,22 / 23,333619,2020-01-08 09:43:29:416,-0.1227,-0.2916,9.8794,0.0003,0.0024,9.8066,-0.0085,0.0008,-0.0271,1.63,-29.19,31.75,347.95,-86.46,165.07
3337,52.554695,-1.463064,0,0,6,0,22 / 23,333719,2020-01-08 09:43:29:516,-0.4147,0.2904,9.7431,0.0022,0.0033,9.8066,-0.0075,0.007,-0.0087,1.81,-28.81,32.38,348.33,-86.45,165.43
3338,52.554695,-1.463064,0,0,6,0,22 / 23,333819,2020-01-08 09:43:29:616,0.3711,0.0496,9.9443,-0.011,0.0037,9.8066,-0.0116,0.0138,0.0345,1.81,-28.81,32.69,348.3,-86.48,165.48
3339,52.554695,-1.463064,0,0,6,0,22 / 23,333918,2020-01-08 09:43:29:715,-0.1189,0.2811,9.6818,-0.0018,0.0047,9.8066,-0.0019,0.016,0.0148,1.88,-28.94,32.38,347.93,-86.43,165.05
3340,52.554695,-1.463064,0,0,6,0,22 / 23,334021,2020-01-08 09:43:29:818,-0.1626,0.0932,9.9424,-0.0008,0.0019,9.8066,0.0064,0.0251,-0.0374,1.38,-28.69,31.63,346.18,-86.46,165.18
3341,52.554695,-1.463064,0,0,6,0,22 / 23,334119,2020-01-08 09:43:29:916,0.3737,-0.4727,9.8204,0.0086,-0.0039,9.8066,-0.0061,0.0253,-0.0161,2.0,-29.06,32.0,347.51,-86.44,164.65
3342,52.554695,-1.463064,0,0,6,0,22 / 23,334219,2020-01-08 09:43:30:016,0.1316,0.3379,9.9051,0.0049,-0.0016,9.8066,0.0019,0.0213,0.0188,1.88,-29.06,32.44,348.44,-86.47,165.52
3343,52.554695,-1.463064,0,0,6,0,22 / 23,334319,2020-01-08 09:43:30:116,0.243,-0.0019,9.7038,-0.0013,-0.0041,9.8066,0.0064,0.026,-0.0186,1.63,-28.56,32.44,348.24,-86.45,165.34
3344,52.554695,-1.463064,0,0,6,0,22 / 23,334419,2020-01-08 09:43:30:216,-0.346,-0.2887,9.9303,-0.001,-0.0033,9.8066,-0.0029,0.0157,-0.0284,1.38,-29.0,32.06,345.92,-86.46,164.94
3345,52.554695,-1.463064,0,0,6,0,22 / 23,334519,2020-01-08 09:43:30:316,0.0894,-0.3003,9.9259,0.0061,-0.0052,9.8066,0.0038,0.0149,0.0127,1.63,-29.19,32.06,348.59,-86.48,165.66
3346,52.554695,-1.463064,0,0,6,0,22 / 23,334618,2020-01-08 09:43:30:415,-0.1633,-0.3098,9.804,-0.0042,0.0002,9.8066,0.0076,0.0126,-0.0249,1.69,-28.87,31.94,348.62,-86.46,165.69
3347,52.554695,-1.463064,0,0,6,0,22 / 23,334719,2020-01-08 09:43:30:516,-0.2438,0.3999,9.6395,0.0042,-0.0056,9.8066,0.0109,0.0121,-0.0457,1.88,-29.31,31.56,347.93,-86.43,165.06
3348,52.554695,-1.463064,0,0,6,0,22 / 23,334819,2020-01-08 09:43:30:616,0.184,0.1183,9.9341,0.0032,-0.0031,9.8066,-0.001,0.0128,-0.0085,1.44,-29.31,31.94,346.57,-86.45,165.55
3349,52.554695,-1.463064,0,0,6,0,22 / 23,334919,2020-01-08 09:43:30:716,0.1021,-0.406,9.8893,0.001,-0.0016,9.8065,-0.0025,-0.0058,0.0026,1.63,-28.69,32.0,348.49,-86.45,165.57
3350,52.554695,-1.463064,0,0,6,0,22 / 23,335019,2020-01-08 09:43:30:816,-0.2474,-0.2886,9.8633,-0.0069,0.0012,9.8066,0.0128,0.0188,-0.0239,2.06,-29.37,32.88,348.16,-86.44,165.35
3351,52.554695,-1.463064,0,0,6,0,22 / 23,335119,2020-01-08 09:43:30:916,0.3232,0.1949,9.8985,0.0051,-0.0027,9.8066,0.0206,0.0271,-0.0307,1.75,-28.87,32.06,348.25,-86.43,165.36
3352,52.554695,-1.463064,0,0,6,0,22 / 23,335219,2020-01-08 09:43:31:016,-0.1735,0.4295,9.7258,-0.0013,-0.0016,9.8066,0.0103,0.0226,-0.0126,1.88,-29.0,32.19,348.57,-86.43,165.65
3353,52.554695,-1.463064,0,0,6,0,22 / 23,335319,2020-01-08 09:43:31:116,0.2231,-0.1295,9.9369,-0.002,0.0016,9.8066,0.0118,0.0144,0.0098,2.38,-28.69,32.38,348.59,-86.45,165.67
3354,52.554695,-1.463064,0,0,6,0,22 / 23,335419,2020-01-08 09:43:31:216,-0.3357,0.0669,9.7855,0.0034,0.0003,9.8066,0.0149,0.0184,0.0086,2.13,-29.44,32.06,348.89,-86.44,165.95
3355,52.554695,-1.463064,0,0,6,0,22 / 23,335519,2020-01-08 09:43:31:316,0.2369,0.0359,9.879,0.0011,-0.0013,9.8066,0.0161,0.0016,-0.0152,1.13,-28.37,32.44,346.67,-86.43,165.62
3356,52.554695,-1.463064,0,0,6,0,22 / 23,335619,2020-01-08 09:43:31:416,-0.1338,0.3183,9.6947,0.0003,0.0005,9.8066,-0.0073,-0.0177,0.0183,1.25,-29.31,32.63,346.67,-86.42,165.68
3357,52.554695,-1.463064,0,0,6,0,22 / 23,335719,2020-01-08 09:43:31:516,0.4589,0.0219,9.8951,-0.0073,0.0003,9.8066,0.0013,-0.02,0.0472,1.44,-29.12,32.31,346.32,-86.41,165.32
3358,52.554695,-1.463064,0,0,6,0,22 / 23,335820,2020-01-08 09:43:31:617,-0.2884,0.3622,9.7035,-0.0067,0.0027,9.8066,0.0039,-0.0236,-0.0039,2.0,-28.44,32.88,348.13,-86.41,165.31
3359,52.554695,-1.463064,0,0,6,0,22 / 23,335918,2020-01-08 09:43:31:715,0.2043,-0.3779,9.9129,-0.0018,0.0018,9.8066,0.0047,-0.0396,-0.0083,1.5,-29.37,32.0,348.62,-86.42,165.7
3360,52.554695,-1.463064,0,0,6,0,22 / 23,336019,2020-01-08 09:43:31:816,-0.2412,0.4042,9.6343,0.0063,-0.0025,9.8066,-0.0139,-0.0423,0.0369,1.0,-29.19,32.13,346.98,-86.43,165.95
3361,52.554695,-1.463064,0,0,6,0,22 / 23,336118,2020-01-08 09:43:31:915,0.3513,0.2763,9.8709,0.0083,-0.0041,9.8066,-0.0072,-0.0371,0.0464,1.38,-29.62,32.19,346.25,-86.4,165.29
3362,52.554695,-1.463064,0,0,6,0,22 / 23,336219,2020-01-08 09:43:32:016,0.0489,0.0825,9.7965,0.0006,-0.0036,9.8066,-0.0177,-0.048,-0.0131,2.06,-29.19,31.81,348.96,-86.41,166.02
3363,52.554695,-1.463064,0,0,6,0,22 / 23,336319,2020-01-08 09:43:32:116,-0.1693,-0.064,9.9816,0.0017,-0.0053,9.8066,-0.0264,-0.0448,0.0187,1.69,-29.0,32.38,348.49,-86.44,165.58
3364,52.554695,-1.463064,0,0,6,0,22 / 23,336419,2020-01-08 09:43:32:216,-0.2906,0.4274,9.7038,0.0071,-0.0016,9.8066,-0.0245,-0.0389,0.0413,1.88,-29.31,31.88,348.82,-86.42,165.89
3365,52.554695,-1.463064,0,0,6,0,22 / 23,336519,2020-01-08 09:43:32:316,0.0176,-0.0363,9.9729,0.0003,-0.0073,9.8066,-0.0171,-0.0379,-0.0034,2.13,-28.87,32.63,348.76,-86.45,165.92
3366,52.554695,-1.463064,0,0,6,0,22 / 23,336619,2020-01-08 09:43:32:416,-0.287,-0.1295,9.8025,0.0042,0.0004,9.8066,-0.009,-0.0192,0.0184,1.69,-28.56,31.88,348.72,-86.4,165.8
3367,52.554695,-1.463064,0,0,6,0,22 / 23,336718,2020-01-08 09:43:32:515,-0.206,-0.2578,9.7552,0.0035,-0.0049,9.8066,-0.0262,-0.0228,0.0169,2.19,-28.44,32.06,349.07,-86.42,166.11
3368,52.554695,-1.463064,0,0,6,0,22 / 23,336819,2020-01-08 09:43:32:616,0.2732,-0.1547,9.8172,0.0048,-0.001,9.8066,-0.0124,-0.0147,0.0278,1.69,-28.62,32.0,348.77,-86.41,165.85
3369,52.554695,-1.463064,0,0,6,0,22 / 23,336919,2020-01-08 09:43:32:716,0.1094,-0.0688,9.9687,0.0001,-0.0007,9.8066,-0.0094,-0.0035,-0.0172,1.44,-29.19,32.13,347.09,-86.41,166.05
3370,52.554695,-1.463064,0,0,6,0,22 / 23,337018,2020-01-08 09:43:32:815,-0.0472,0.2857,9.6354,0.0051,-0.0037,9.8066,-0.0139,-0.0064,-0.013,1.75,-29.06,32.5,348.25,-86.4,165.45
3371,52.554695,-1.463064,0,0,6,0,22 / 23,337119,2020-01-08 09:43:32:916,-0.3307,-0.1221,9.8508,-0.009,0.0015,9.8066,-0.0085,0.0051,0.052,1.88,-28.87,31.94,349.05,-86.42,166.11
3372,52.554695,-1.463064,0,0,6,0,22 / 23,337219,2020-01-08 09:43:33:016,0.0668,0.1939,9.7335,-0.0004,0.0029,9.8066,-0.0095,0.0113,0.0143,1.75,-28.81,32.13,348.46,-86.4,165.56
3373,52.554695,-1.463064,0,0,6,0,22 / 23,337319,2020-01-08 09:43:33:116,-0.0248,0.2136,9.9342,-0.0038,0.002,9.8066,-0.0027,0.0126,-0.0242,1.5,-29.19,32.13,349.12,-86.42,166.18
3374,52.554695,-1.463064,0,0,6,0,22 / 23,337419,2020-01-08 09:43:33:216,0.0672,-0.366,9.8631,-0.0078,0.0055,9.8066,0.0006,0.0124,0.0193,1.81,-28.69,32.44,348.67,-86.4,165.75
3375,52.554695,-1.463064,0,0,6,0,22 / 23,337518,2020-01-08 09:43:33:315,0.0363,0.1982,9.973,-0.0003,-0.0004,9.8066,-0.002,0.0095,0.0061,1.5,-28.87,32.19,348.7,-86.41,165.78
3376,52.554695,-1.463064,0,0,6,0,22 / 23,337618,2020-01-08 09:43:33:415,0.1465,0.3239,9.6649,0.0035,0.0028,9.8066,0.0072,0.0212,-0.0292,1.63,-29.06,32.5,348.6,-86.42,165.78
3377,52.554695,-1.463064,0,0,6,0,22 / 23,337719,2020-01-08 09:43:33:516,-0.179,-0.2125,9.9479,-0.0093,0.0021,9.8066,-0.0008,0.0155,0.0019,2.31,-29.44,33.25,349.36,-86.42,166.49
3378,52.554695,-1.463064,0,0,6,0,22 / 23,337819,2020-01-08 09:43:33:616,-0.0609,-0.3799,9.8965,-0.0055,0.0035,9.8066,0.0033,0.0195,0.0276,1.5,-28.62,32.0,349.06,-86.43,166.12
3379,52.554695,-1.463064,0,0,6,0,22 / 23,337919,2020-01-08 09:43:33:716,0.17,0.0397,9.9815,0.0006,0.002,9.8066,0.0126,0.0199,-0.0404,1.69,-29.06,32.25,349.09,-86.41,166.15
3380,52.554695,-1.463064,0,0,6,0,22 / 23,338019,2020-01-08 09:43:33:816,-0.1309,0.2698,9.7003,-0.0012,0.0028,9.8065,0.0136,0.027,-0.0502,1.56,-29.69,32.25,349.34,-86.41,166.4
3381,52.554695,-1.463064,0,0,6,0,22 / 23,338119,2020-01-08 09:43:33:916,-0.199,0.0004,9.7665,-0.0064,0.0029,9.8066,0.0061,0.0225,0.0192,1.5,-29.31,32.31,348.61,-86.38,165.7
3382,52.554695,-1.463064,0,0,6,0,22 / 23,338219,2020-01-08 09:43:34:016,0.1816,-0.3186,9.9226,0.0035,0.0018,9.8066,0.0104,0.0107,0.0126,1.56,-29.31,32.38,349.12,-86.4,166.18
3383,52.554695,-1.463064,0,0,6,0,22 / 23,338318,2020-01-08 09:43:34:115,-0.368,-0.2597,9.9344,-0.0073,0.0035,9.8066,0.006,0.0171,-0.0568,1.56,-29.06,32.38,349.09,-86.39,166.15
3384,52.554695,-1.463064,0,0,6,0,22 / 23,338419,2020-01-08 09:43:34:216,-0.0162,-0.2884,9.8579,-0.0077,0.0042,9.8066,-0.0013,0.0018,-0.0294,1.25,-28.94,31.81,347.05,-86.38,166.02
3385,52.554695,-1.463064,0,0,6,0,22 / 23,338519,2020-01-08 09:43:34:316,0.0093,-0.2357,9.8293,0.0022,0.0022,9.8066,0.0099,0.0035,0.0201,1.31,-29.5,32.0,347.02,-86.39,165.99
3386,52.554695,-1.463064,0,0,6,0,22 / 23,338619,2020-01-08 09:43:34:416,-0.3889,0.1368,9.7436,0.0036,0.0037,9.8066,-0.0007,0.0025,-0.0393,1.94,-29.06,31.94,349.88,-86.4,166.89
3387,52.554695,-1.463064,0,0,6,0,22 / 23,338718,2020-01-08 09:43:34:515,0.2395,0.1516,9.8949,-0.0074,0.0012,9.8066,0.0109,0.0164,-0.0111,1.69,-28.56,32.63,349.43,-86.39,166.56
3388,52.554695,-1.463064,0,0,6,0,22 / 23,338819,2020-01-08 09:43:34:616,0.1587,-0.4046,9.8,0.001,0.0039,9.8066,0.0152,0.0076,0.0059,1.75,-28.56,32.56,349.09,-86.38,166.25
3389,52.554695,-1.463064,0,0,6,0,22 / 23,338919,2020-01-08 09:43:34:716,-0.2659,-0.0353,9.8337,-0.006,0.0026,9.8066,0.0089,0.0035,-0.0433,1.94,-29.19,32.06,349.7,-86.38,166.73
3390,52.554695,-1.463064,0,0,6,0,22 / 23,339018,2020-01-08 09:43:34:815,0.233,-0.2151,9.9287,0.0065,-0.0054,9.8066,0.0042,0.0131,-0.0331,1.81,-28.62,32.0,349.09,-86.36,166.16
3391,52.554695,-1.463064,0,0,6,0,22 / 23,339119,2020-01-08 09:43:34:916,0.0606,-0.2644,9.8991,0.004,-0.0039,9.8066,0.0035,-0.001,-0.0075,1.94,-29.0,32.88,349.28,-86.38,166.42
3392,52.554695,-1.463064,0,0,6,0,22 / 23,339219,2020-01-08 09:43:35:016,-0.1506,0.1841,9.755,0.0008,-0.0034,9.8066,-0.003,0.0028,-0.0106,1.81,-29.0,32.38,349.21,-86.35,166.27
3393,52.554695,-1.463064,0,0,6,0,22 / 23,339319,2020-01-08 09:43:35:116,0.1115,0.1546,9.9053,0.0004,-0.0053,9.8066,0.0187,0.0094,-0.0243,2.31,-29.06,32.5,348.98,-86.36,166.14
3394,52.554695,-1.463064,0,0,6,0,22 / 23,339419,2020-01-08 09:43:35:216,0.0982,-0.1187,9.7995,0.0069,-0.0035,9.8066,-0.0061,0.0173,-0.0421,2.25,-28.81,32.13,348.96,-86.31,166.05
3395,52.554695,-1.463064,0,0,6,0,22 / 23,339519,2020-01-08 09:43:35:316,0.1513,-0.3168,10.1327,0.0012,-0.0048,9.8066,0.0208,0.0196,0.0032,1.88,-29.19,32.75,349.39,-86.34,166.53
3396,52.554695,-1.463064,0,0,6,0,22 / 23,339618,2020-01-08 09:43:35:415,-0.4117,-0.2037,9.7889,0.0062,-0.0038,9.8066,0.0194,0.0271,-0.0193,1.81,-28.62,32.38,349.01,-86.3,166.1
3397,52.554695,-1.463064,0,0,6,0,22 / 23,339719,2020-01-08 09:43:35:516,0.4267,0.2365,9.8758,0.0112,-0.0047,9.8066,0.0024,0.0151,-0.0508,1.88,-28.62,32.31,349.68,-86.34,166.72
3398,52.554695,-1.463064,0,0,6,0,22 / 23,339819,2020-01-08 09:43:35:616,0.0108,-0.0153,9.8104,-0.0001,0.0038,9.8066,0.0111,0.009,0.0109,1.81,-29.06,32.06,349.24,-86.32,166.3
3399,52.554695,-1.463064,0,0,6,0,22 / 23,339918,2020-01-08 09:43:35:715,0.2444,0.2103,9.9178,-0.0081,0.0023,9.8065,0.0084,0.0238,-0.0354,2.06,-29.19,32.0,350.05,-86.34,167.07
3400,52.554695,-1.463064,0,0,6,0,22 / 23,340019,2020-01-08 09:43:35:816,-0.1363,0.0373,9.8518,-0.0088,0.0036,9.8066,0.002,0.0113,-0.0612,2.06,-29.31,32.88,348.77,-86.33,165.95
3401,52.554695,-1.463064,0,0,6,0,22 / 23,340118,2020-01-08 09:43:35:915,0.2527,-0.4325,9.9718,-0.0002,0.0046,9.8066,0.0162,0.013,0.0051,1.88,-29.31,32.06,349.51,-86.35,166.56
3402,52.554695,-1.463064,0,0,6,0,22 / 23,340219,2020-01-08 09:43:36:016,-0.1948,0.4186,9.635,-0.0042,0.0045,9.8066,0.023,0.0221,-0.0328,1.38,-29.0,32.44,347.44,-86.35,166.4
3403,52.554695,-1.463064,0,0,6,0,22 / 23,340319,2020-01-08 09:43:36:116,0.1291,-0.0528,9.9416,-0.0073,0.0026,9.8066,0.0218,0.0182,-0.0428,1.75,-29.5,31.94,349.59,-86.37,166.63
3404,52.554695,-1.463064,0,0,6,0,22 / 23,340418,2020-01-08 09:43:36:215,-0.0617,-0.2004,9.7335,-0.0018,0.0043,9.8066,0.0107,0.0171,0.0132,1.94,-29.0,31.88,349.31,-86.35,166.36
3405,52.554695,-1.463064,0,0,6,0,22 / 23,340519,2020-01-08 09:43:36:316,0.1724,0.1178,9.9317,-0.0046,0.0028,9.8066,0.0251,0.0188,0.0172,1.94,-28.94,32.06,349.99,-86.38,167.0
3406,52.554695,-1.463064,0,0,6,0,22 / 23,340619,2020-01-08 09:43:36:416,-0.1103,0.1219,9.816,-0.0113,0.0051,9.8066,0.0195,-0.0003,-0.0528,2.0,-29.06,31.94,349.0,-86.34,166.08
3407,52.554695,-1.463064,0,0,6,0,22 / 23,340718,2020-01-08 09:43:36:515,0.0312,0.1246,9.8347,0.0043,0.0015,9.8066,0.0108,0.0181,-0.0072,1.69,-29.06,32.13,349.25,-86.36,166.31
3408,52.554695,-1.463064,0,0,6,0,22 / 23,340819,2020-01-08 09:43:36:616,0.282,0.0742,9.7147,0.0007,0.0044,9.8066,0.0174,0.0148,0.012,1.94,-29.06,32.19,349.9,-86.36,166.92
3409,52.554695,-1.463064,0,0,6,0,22 / 23,340919,2020-01-08 09:43:36:716,0.1136,0.1677,9.8341,-0.0061,-0.0001,9.8066,0.018,0.0051,-0.0361,1.56,-28.75,32.25,349.67,-86.36,166.7
3410,52.554695,-1.463064,0,0,6,0,22 / 23,341019,2020-01-08 09:43:36:816,-0.1036,-0.2292,9.757,0.002,0.0025,9.8066,0.0215,0.0145,0.0179,1.5,-29.56,32.44,349.64,-86.36,166.7
3411,52.554695,-1.463064,0,0,6,0,22 / 23,341119,2020-01-08 09:43:36:916,0.3705,-0.5042,9.9669,-0.0044,0.0038,9.8066,0.0054,0.0112,0.0111,1.56,-29.0,31.88,349.67,-86.37,166.71
3412,52.554695,-1.463064,0,0,6,0,22 / 23,341219,2020-01-08 09:43:37:016,-0.1932,0.1175,9.6769,-0.0051,0.0032,9.8066,0.0128,-0.001,-0.0147,1.88,-29.44,32.06,349.12,-86.37,166.19
3413,52.554695,-1.463064,0,0,6,0,22 / 23,341319,2020-01-08 09:43:37:116,-0.0206,0.0988,9.9272,-0.0021,0.0019,9.8066,0.0169,0.0027,0.0006,2.44,-29.44,32.06,349.59,-86.38,166.62
3414,52.554695,-1.463064,0,0,6,0,22 / 23,341419,2020-01-08 09:43:37:216,-0.0368,0.0884,9.7545,-0.0052,0.0055,9.8066,0.0067,0.0008,-0.0209,2.25,-29.06,32.13,349.18,-86.38,166.24
3415,52.554695,-1.463064,0,0,6,0,22 / 23,341519,2020-01-08 09:43:37:316,0.2337,-0.5697,10.0689,-0.0001,0.0016,9.8066,0.0134,0.0076,-0.0099,2.06,-28.62,31.31,349.37,-86.4,166.32
3416,52.554695,-1.463064,0,0,6,0,22 / 23,341618,2020-01-08 09:43:37:415,-0.2319,0.0883,9.7177,-0.0054,0.0039,9.8066,0.007,0.0066,-0.0245,1.94,-29.06,32.44,349.15,-86.38,166.21
