,GPS LATITUDE (degrees), GPS LONGITUDE (degrees), GPS ALTITUDE (m), GPS SPEED (Kmh), GPS ACCURACY (m), GPS ORIENTATION (Â°),GPS SATELLITES IN RANGE, TIME SINCE START (ms), DATE (YYYY-MO-DD HH-MI-SS_SSS), ACCELEROMETER X (m/s²) , ACCELEROMETER Y (m/s²), ACCELEROMETER Z (m/s²), GRAVITY X (m/s²), GRAVITY Y (m/s²), GRAVITY Z (m/s²), GYROSCOPE Yaw (rad/s), GYROSCOPE Pitch (rad/s), GYROSCOPE Roll (rad/s), MAGNETIC FIELD X (Î¼T), MAGNETIC FIELD Y (Î¼T), MAGNETIC FIELD Z (Î¼T), ORIENTATION (Yaw) (Â°), ORIENTATION (Pitch) (Â°), ORIENTATION (Roll ) (Â°),Unnamed: 24
13559,52.021267,-2.016099,85,17.65,10.0,245.6,,17 / 25,1355945,2019-08-16 11:52:00:314,-0.0866,0.1914,8.934,-0.0383,-0.0077,9.8066,-0.017,-0.0465,0.0383,-7.92,20.9,-20.01,245.39,3.91,1.46
13560,52.021267,-2.016099,85,17.65,10.0,245.6,,17 / 25,1356046,2019-08-16 11:52:00:415,-0.4137,0.213,9.6044,-0.0066,0.0483,9.8065,-0.0074,-0.0114,0.032,-7.39,21.0,-20.11,245.39,3.91,1.46
13561,52.021267,-2.016099,85,17.65,10.0,245.6,,17 / 25,1356145,2019-08-16 11:52:00:514,0.5064,0.582,9.6624,0.0036,0.111,9.806,-0.0383,-0.0114,0.0181,-7.39,21.0,-20.11,245.39,3.91,1.46
13562,52.0212,-2.016338,85,17.99,10.0,244.3,,17 / 25,1356245,2019-08-16 11:52:00:614,-0.0718,-0.1065,9.6873,0.0004,-0.0215,9.8066,-0.0319,0.0494,0.0256,-7.28,20.69,-20.47,247.13,4.51,1.72
13563,52.0212,-2.016338,85,17.99,10.0,244.3,,17 / 25,1356345,2019-08-16 11:52:00:714,-0.2126,-0.0462,10.2531,-0.0138,-0.0148,9.8066,0.0234,0.0068,0.0415,-6.51,21.08,-20.33,247.25,4.39,1.66
13564,52.0212,-2.016338,85,17.99,10.0,244.3,,17 / 25,1356445,2019-08-16 11:52:00:814,-0.2076,-0.0316,10.0166,-0.0382,-0.0058,9.8066,0.0234,0.0068,0.0415,-6.51,21.08,-20.33,247.25,4.39,1.66
13565,52.0212,-2.016338,85,17.99,10.0,244.3,,17 / 25,1356545,2019-08-16 11:52:00:914,-0.2017,-0.0043,9.3778,-0.0131,0.0035,9.8066,0.0032,-0.0082,0.0213,-7.76,19.38,-21.54,242.13,4.28,1.86
13566,52.0212,-2.016338,85,17.99,10.0,244.3,,17 / 25,1356645,2019-08-16 11:52:01:014,-0.1348,0.1589,9.7057,-0.041,0.0173,9.8065,0.0053,0.0302,0.0277,-7.17,19.83,-21.34,245.9,4.25,2.12
13567,52.0212,-2.016338,85,17.99,10.0,244.3,,17 / 25,1356745,2019-08-16 11:52:01:114,0.0729,0.1997,9.1956,-0.0531,0.0307,9.8065,-0.0266,0.0291,0.0511,-8.19,19.64,-21.14,243.26,4.29,2.47
13568,52.0212,-2.016338,85,17.99,10.0,244.3,,17 / 25,1356846,2019-08-16 11:52:01:215,1.7318,0.738,10.6408,-0.0075,-0.0015,9.8066,0.0362,0.0568,0.0511,-8.19,19.64,-21.14,243.26,4.29,2.47
13569,52.0212,-2.016338,85,17.99,10.0,244.3,,17 / 25,1356945,2019-08-16 11:52:01:314,0.0404,0.2952,11.3756,-0.0068,0.0279,9.8066,-0.0351,0.0408,0.0138,-8.13,20.39,-20.45,243.33,4.42,2.58
13570,52.0212,-2.016338,85,17.99,10.0,244.3,,17 / 25,1357045,2019-08-16 11:52:01:414,-0.0953,0.1235,9.673,-0.0412,0.0098,9.8066,0.0448,0.01,0.0277,-8.46,20.83,-19.86,244.39,4.5,2.62
13571,52.0212,-2.016338,85,17.99,10.0,244.3,,17 / 25,1357146,2019-08-16 11:52:01:515,-0.0303,0.3006,9.0488,-0.0656,0.0073,9.8064,-0.0011,-0.0412,0.0309,-8.46,20.83,-19.86,244.39,4.5,2.62
13572,52.02113,-2.016579,85,18.06,10.0,242.8,,17 / 25,1357245,2019-08-16 11:52:01:614,-0.2147,0.0593,9.5669,-0.002,0.0071,9.8066,-0.0011,-0.0412,0.0309,-7.9,20.39,-20.54,242.91,4.37,2.98
13573,52.02113,-2.016579,85,18.06,10.0,242.8,,17 / 25,1357345,2019-08-16 11:52:01:714,-0.089,0.0344,9.7633,-0.0138,0.0332,9.8066,-0.0011,-0.0156,0.049,-8.01,20.08,-20.8,242.71,4.51,3.14
13574,52.02113,-2.016579,85,18.06,10.0,242.8,,17 / 25,1357445,2019-08-16 11:52:01:814,0.023,-0.1369,9.9531,0.016,0.0208,9.8066,-0.0426,-0.0593,0.0277,-8.01,20.08,-20.8,242.71,4.51,3.14
13575,52.02113,-2.016579,85,18.06,10.0,242.8,,17 / 25,1357545,2019-08-16 11:52:01:914,0.167,-0.1462,9.2623,0.0277,0.0108,9.8066,-0.0469,-0.0103,0.0373,-7.3,20.73,-20.42,246.39,4.66,3.12
13576,52.02113,-2.016579,85,18.06,10.0,242.8,,17 / 25,1357646,2019-08-16 11:52:02:015,0.1306,-0.1411,9.8397,0.0337,0.0046,9.8066,-0.0319,0.0025,0.0426,-7.76,19.48,-21.46,241.31,4.76,2.95
13577,52.02113,-2.016579,85,18.06,10.0,242.8,,17 / 25,1357745,2019-08-16 11:52:02:114,0.5046,0.1076,9.7559,0.0145,-0.009,9.8066,-0.0213,0.0078,0.0394,-7.8,20.69,-20.28,241.31,4.76,2.95
13578,52.02113,-2.016579,85,18.06,10.0,242.8,,17 / 25,1357845,2019-08-16 11:52:02:214,-0.0191,-0.2594,9.8003,0.0175,-0.0137,9.8066,-0.0298,0.0217,0.033,-8.56,21.09,-19.54,241.83,4.74,2.82
13579,52.02113,-2.016579,85,18.06,10.0,242.8,,17 / 25,1357945,2019-08-16 11:52:02:314,0.1219,-0.1855,10.2699,0.0204,-0.0288,9.8066,-0.0202,0.0089,0.0202,-8.67,20.89,-19.7,241.83,4.74,2.82
13580,52.02113,-2.016579,85,18.06,10.0,242.8,,17 / 25,1358045,2019-08-16 11:52:02:414,0.3528,-0.1844,9.9201,0.0105,-0.0023,9.8066,0.0064,0.01,0.0383,-8.77,19.97,-20.6,240.53,4.65,2.63
13581,52.02113,-2.016579,85,18.06,10.0,242.8,,17 / 25,1358146,2019-08-16 11:52:02:515,0.6799,0.1335,10.1973,0.0107,0.0102,9.8066,0.0064,0.01,0.0383,-8.77,19.97,-20.6,240.53,4.65,2.63
13582,52.021053,-2.016807,86,18.37,10.0,241.2,,17 / 25,1358245,2019-08-16 11:52:02:614,0.6575,0.2593,9.2779,-0.0103,0.0081,9.8066,0.0043,-0.0028,0.0458,-8.67,20.89,-19.7,241.94,4.73,2.61
13583,52.021053,-2.016807,86,18.37,10.0,241.2,,17 / 25,1358345,2019-08-16 11:52:02:714,-0.309,-0.1402,10.0757,-0.0451,0.0117,9.8065,0.0288,0.0313,0.0511,-8.13,20.39,-20.45,241.94,4.73,2.61
13584,52.021053,-2.016807,86,18.37,10.0,241.2,,17 / 25,1358445,2019-08-16 11:52:02:814,-0.2255,-0.0267,10.1967,-0.0798,0.0242,9.8063,0.0426,0.0153,0.0341,-8.79,20.59,-19.97,241.78,4.64,3.09
13585,52.021053,-2.016807,86,18.37,10.0,241.2,,17 / 25,1358545,2019-08-16 11:52:02:914,-0.3373,-0.4223,10.2528,-0.0194,0.006,9.8066,-0.0032,-0.0571,0.0639,-9.45,20.01,-20.25,241.78,4.64,3.09
13586,52.021053,-2.016807,86,18.37,10.0,241.2,,17 / 25,1358645,2019-08-16 11:52:03:014,-0.2448,-0.2379,8.4972,-0.025,-0.0082,9.8066,0.0234,0.0835,0.0362,-9.45,20.01,-20.25,241.78,4.64,3.09
13587,52.021053,-2.016807,86,18.37,10.0,241.2,,17 / 25,1358745,2019-08-16 11:52:03:114,0.9331,-0.0957,10.2422,0.0077,-0.0122,9.8066,-0.0106,-0.0476,0.0138,-9.82,20.21,-19.88,238.33,4.53,3.19
13588,52.021053,-2.016807,86,18.37,10.0,241.2,,17 / 25,1358845,2019-08-16 11:52:03:214,-0.0637,-0.0626,10.17,0.0296,0.0086,9.8066,-0.0106,-0.0476,0.0138,-9.06,20.38,-20.06,240.53,4.66,3.07
13589,52.021053,-2.016807,86,18.37,10.0,241.2,,17 / 25,1358945,2019-08-16 11:52:03:314,0.5925,0.1619,10.2969,0.0269,0.0266,9.8066,0.0011,0.0089,0.0373,-8.64,20.14,-20.48,240.53,4.66,3.07
13590,52.021053,-2.016807,86,18.37,10.0,241.2,,17 / 25,1359045,2019-08-16 11:52:03:414,0.1237,0.2711,9.9876,0.0251,0.0223,9.8066,0.0117,0.0057,0.0106,-8.64,20.14,-20.48,240.53,4.66,3.07
13591,52.021053,-2.016807,86,18.37,10.0,241.2,,17 / 25,1359145,2019-08-16 11:52:03:514,-0.1849,0.1068,10.7782,-0.0169,-0.0122,9.8066,0.0256,0.0046,0.0245,-9.16,20.03,-20.37,240.41,4.85,3.01
13592,52.02097,-2.017027,86,18.08,10.0,239.2,,17 / 25,1359246,2019-08-16 11:52:03:615,0.2273,-0.02,9.2918,-0.0167,0.0074,9.8066,-0.0011,-0.0124,0.0458,-8.89,19.44,-21.05,238.74,4.84,3.11
13593,52.02097,-2.017027,86,18.08,10.0,239.2,,17 / 25,1359345,2019-08-16 11:52:03:714,0.0325,-0.1613,9.4573,-0.0229,-0.0206,9.8066,-0.0224,0.0227,0.0501,-8.51,20.41,-20.27,238.74,4.84,3.11
13594,52.02097,-2.017027,86,18.08,10.0,239.2,,17 / 25,1359446,2019-08-16 11:52:03:815,0.1458,-0.0157,9.7762,-0.0358,-0.0362,9.8065,0.0213,-0.0209,0.0405,-8.51,20.41,-20.27,238.74,4.84,3.11
13595,52.02097,-2.017027,86,18.08,10.0,239.2,,17 / 25,1359545,2019-08-16 11:52:03:914,-0.21,0.0277,9.3786,-0.0133,0.0175,9.8066,0.0213,-0.0209,0.0405,-9.0,19.69,-20.77,240.31,4.55,3.18
13596,52.02097,-2.017027,86,18.08,10.0,239.2,,17 / 25,1359645,2019-08-16 11:52:04:014,0.7359,0.1305,10.1429,-0.0008,0.0478,9.8065,-0.0234,-0.0454,0.0405,-9.75,19.5,-20.6,237.79,4.79,3.33
13597,52.02097,-2.017027,86,18.08,10.0,239.2,,17 / 25,1359745,2019-08-16 11:52:04:114,-0.2471,-0.1956,9.6248,0.0133,0.0183,9.8066,-0.0138,-0.0305,0.0394,-9.75,19.5,-20.6,237.79,4.79,3.33
13598,52.02097,-2.017027,86,18.08,10.0,239.2,,17 / 25,1359846,2019-08-16 11:52:04:215,0.1469,0.0065,9.6333,0.0024,0.0,9.8067,0.0117,0.0792,0.0202,-9.38,19.93,-20.37,240.19,4.92,3.32
13599,52.02097,-2.017027,86,18.08,10.0,239.2,,17 / 25,1359946,2019-08-16 11:52:04:315,-0.05,-0.1546,10.5288,-0.0161,0.0002,9.8066,0.0085,0.0142,0.033,-9.46,18.92,-21.28,238.62,4.79,3.38
13600,52.02097,-2.017027,86,18.08,10.0,239.2,,17 / 25,1360046,2019-08-16 11:52:04:415,-0.1652,-0.1163,9.1176,-0.0391,-0.0279,9.8065,-0.0053,0.0281,0.0383,-9.46,18.92,-21.28,238.62,4.79,3.38
13601,52.02097,-2.017027,86,18.08,10.0,239.2,,17 / 25,1360145,2019-08-16 11:52:04:514,0.0293,-0.0252,9.661,-0.0283,-0.0116,9.8066,0.0171,0.0153,0.0181,-9.73,19.46,-20.65,236.48,4.53,3.49
13602,52.020866,-2.017251,87,17.98,10.0,236.7,,17 / 25,1360245,2019-08-16 11:52:04:614,-0.2103,0.0405,9.8321,-0.0094,0.0163,9.8066,-0.017,-0.0113,0.0373,-9.93,18.77,-21.2,236.54,4.38,3.59
13603,52.020866,-2.017251,87,17.98,10.0,236.7,,17 / 25,1360345,2019-08-16 11:52:04:714,0.0597,-0.1729,9.5675,0.004,0.0251,9.8066,-0.017,-0.0113,0.0373,-10.5,19.26,-20.47,236.66,4.52,3.66
13604,52.020866,-2.017251,87,17.98,10.0,236.7,,17 / 25,1360445,2019-08-16 11:52:04:814,0.5776,0.1869,9.8968,0.0268,0.0151,9.8066,0.0085,0.0334,0.0,-10.5,19.26,-20.47,236.66,4.52,3.66
13605,52.020866,-2.017251,87,17.98,10.0,236.7,,17 / 25,1360545,2019-08-16 11:52:04:914,-0.3741,-0.2237,9.8768,0.0112,0.0024,9.8066,0.0064,0.0036,0.0138,-10.58,19.5,-20.2,234.39,4.68,3.57
13606,52.020866,-2.017251,87,17.98,10.0,236.7,,17 / 25,1360645,2019-08-16 11:52:05:014,0.0195,0.0047,9.8499,0.0179,0.0069,9.8066,0.0043,0.0227,0.0298,-10.16,18.63,-21.21,236.26,4.77,3.51
13607,52.020866,-2.017251,87,17.98,10.0,236.7,,17 / 25,1360745,2019-08-16 11:52:05:114,0.0144,-0.2099,9.6524,-0.0072,-0.006,9.8066,0.0117,0.0227,0.032,-10.81,18.79,-20.73,234.12,4.72,3.53
13608,52.020866,-2.017251,87,17.98,10.0,236.7,,17 / 25,1360846,2019-08-16 11:52:05:215,-0.2136,-0.2123,10.5796,-0.0391,-0.0071,9.8066,0.0053,-0.0028,0.0383,-10.81,18.79,-20.73,234.12,4.72,3.53
13609,52.020866,-2.017251,87,17.98,10.0,236.7,,17 / 25,1360946,2019-08-16 11:52:05:315,-0.0706,-0.005,9.7997,-0.0129,-0.0013,9.8066,0.0053,-0.0028,0.0383,-11.66,20.48,-18.56,234.09,4.55,3.69
13610,52.020866,-2.017251,87,17.98,10.0,236.7,,17 / 25,1361046,2019-08-16 11:52:05:415,-0.1339,-0.3236,9.681,0.0099,-0.0235,9.8066,-0.0298,0.0036,0.033,-11.1,19.45,-19.96,234.55,4.47,3.56
13611,52.020866,-2.017251,87,17.98,10.0,236.7,,17 / 25,1361146,2019-08-16 11:52:05:515,0.251,0.2066,9.9868,0.0135,0.0083,9.8066,0.0064,-0.0092,0.0394,-11.77,19.5,-19.52,233.93,4.56,3.52
13612,52.02077,-2.017449,87,17.75,9.0,234.8,,19 / 25,1361246,2019-08-16 11:52:05:615,0.0247,-0.1896,10.5926,0.0157,-0.0124,9.8066,-0.0096,-0.0657,0.0522,-11.77,19.5,-19.52,233.93,4.56,3.52
13613,52.02077,-2.017449,87,17.75,9.0,234.8,,19 / 25,1361346,2019-08-16 11:52:05:715,1.152,0.0437,9.399,0.0185,0.0016,9.8066,-0.0756,0.0142,0.0202,-12.26,19.35,-19.37,232.76,4.56,3.41
13614,52.02077,-2.017449,87,17.75,9.0,234.8,,19 / 25,1361446,2019-08-16 11:52:05:815,0.1281,-0.2469,10.6315,0.0318,0.0038,9.8066,-0.0138,0.0174,0.0043,-11.41,19.3,-19.93,234.57,4.69,3.27
13615,52.02077,-2.017449,87,17.75,9.0,234.8,,19 / 25,1361546,2019-08-16 11:52:05:915,0.7782,0.3064,10.2269,0.005,-0.004,9.8066,0.0384,0.0164,0.033,-11.41,19.3,-19.93,234.57,4.69,3.27
13616,52.02077,-2.017449,87,17.75,9.0,234.8,,19 / 25,1361645,2019-08-16 11:52:06:014,-0.0232,0.0999,9.1863,-0.0113,-0.0037,9.8066,-0.0288,-0.0071,0.0543,-11.9,19.11,-19.83,232.53,4.68,3.23
13617,52.02077,-2.017449,87,17.75,9.0,234.8,,19 / 25,1361745,2019-08-16 11:52:06:114,0.2204,-0.0207,10.2593,-0.0102,-0.029,9.8066,-0.0288,-0.0071,0.0543,-12.24,19.31,-19.43,232.93,4.51,3.18
13618,52.02077,-2.017449,87,17.75,9.0,234.8,,19 / 25,1361845,2019-08-16 11:52:06:214,-0.1204,0.0715,9.9,-0.0525,-0.0193,9.8065,0.0266,0.0718,0.0426,-12.21,18.68,-20.05,232.93,4.51,3.18
13619,52.02077,-2.017449,87,17.75,9.0,234.8,,19 / 25,1361945,2019-08-16 11:52:06:314,0.7352,0.4621,9.9534,0.0007,0.044,9.8066,0.0426,-0.038,0.0352,-12.51,18.84,-19.71,230.79,4.24,3.36
13620,52.02077,-2.017449,87,17.75,9.0,234.8,,19 / 25,1362046,2019-08-16 11:52:06:415,1.3602,-0.1359,9.4915,0.0657,0.0794,9.8061,-0.017,-0.0188,0.065,-12.51,18.84,-19.71,230.79,4.24,3.36
13621,52.02077,-2.017449,87,17.75,9.0,234.8,,19 / 25,1362145,2019-08-16 11:52:06:514,-0.5444,-0.2047,10.6892,-0.0177,0.0096,9.8066,0.0629,0.0728,0.0447,-12.02,18.71,-20.13,232.34,4.84,3.35
13622,52.02068,-2.017665,85,18.14,9.0,233.0,,19 / 25,1362245,2019-08-16 11:52:06:614,1.8833,0.1358,11.4571,-0.0611,-0.028,9.8064,0.048,0.0622,0.0352,-12.39,18.96,-19.67,232.28,4.82,3.47
13623,52.02068,-2.017665,85,18.14,9.0,233.0,,19 / 25,1362346,2019-08-16 11:52:06:715,-0.4155,-0.018,9.7729,-0.0612,-0.0295,9.8064,0.0064,0.0206,0.0479,-13.56,19.43,-18.4,229.07,4.47,3.65
13624,52.02068,-2.017665,85,18.14,9.0,233.0,,19 / 25,1362445,2019-08-16 11:52:06:814,-0.2031,0.3854,9.5571,0.0004,0.0029,9.8067,0.0064,0.0206,0.0479,-13.56,19.43,-18.4,229.07,4.47,3.65
13625,52.02068,-2.017665,85,18.14,9.0,233.0,,19 / 25,1362545,2019-08-16 11:52:06:914,0.9475,0.2675,9.2357,0.0374,0.0198,9.8066,-0.0469,-0.0433,0.0064,-12.69,19.12,-19.33,230.68,4.48,3.66
13626,52.02068,-2.017665,85,18.14,9.0,233.0,,19 / 25,1362645,2019-08-16 11:52:07:014,0.4351,-0.176,9.253,0.0917,0.0315,9.8062,-0.0447,-0.0763,0.0096,-12.55,19.21,-19.33,230.68,4.48,3.66
13627,52.02068,-2.017665,85,18.14,9.0,233.0,,19 / 25,1362746,2019-08-16 11:52:07:115,0.1178,-0.3134,9.6942,-0.0106,-0.0246,9.8066,-0.0202,0.044,0.0501,-12.34,18.88,-19.78,232.18,5.22,3.18
13628,52.02068,-2.017665,85,18.14,9.0,233.0,,19 / 25,1362846,2019-08-16 11:52:07:215,-0.0385,0.0549,10.5772,-0.0679,-0.0525,9.8063,0.0298,0.0877,0.0501,-12.34,18.88,-19.78,232.18,5.22,3.18
13629,52.02068,-2.017665,85,18.14,9.0,233.0,,19 / 25,1362946,2019-08-16 11:52:07:315,-0.1589,0.0604,11.0534,-0.0252,0.0307,9.8066,-0.0053,-0.0199,0.0533,-13.32,18.61,-19.4,230.73,4.73,3.31
13630,52.02068,-2.017665,85,18.14,9.0,233.0,,19 / 25,1363045,2019-08-16 11:52:07:414,-0.2369,0.1426,9.7036,-0.0191,0.0229,9.8066,-0.0245,0.0291,0.0554,-13.32,18.61,-19.4,230.73,4.73,3.31
13631,52.02068,-2.017665,85,18.14,9.0,233.0,,19 / 25,1363145,2019-08-16 11:52:07:514,-0.279,0.0156,9.3143,-0.0231,0.0029,9.8066,0.0,0.0377,0.033,-13.18,19.56,-18.53,232.22,4.66,3.42
13632,52.020596,-2.017875,85,18.09,9.0,231.4,,19 / 25,1363245,2019-08-16 11:52:07:614,-0.2768,-0.1971,9.8208,-0.02,-0.0204,9.8066,0.0,0.0377,0.033,-13.18,19.56,-18.53,232.22,4.66,3.42
13633,52.020596,-2.017875,85,18.09,9.0,231.4,,19 / 25,1363345,2019-08-16 11:52:07:714,0.7851,0.4067,10.9702,-0.0294,-0.0173,9.8066,0.0032,0.011,0.0565,-14.03,17.73,-19.72,227.03,4.47,3.5
13634,52.020596,-2.017875,85,18.09,9.0,231.4,,19 / 25,1363446,2019-08-16 11:52:07:815,-0.3232,0.1694,9.4582,0.0299,0.0414,9.8065,-0.0224,-0.0742,0.033,-13.04,19.05,-19.16,227.03,4.47,3.5
13635,52.020596,-2.017875,85,18.09,9.0,231.4,,19 / 25,1363545,2019-08-16 11:52:07:914,-0.0814,0.3306,8.4229,0.0358,0.0397,9.8065,-0.0213,0.0377,0.033,-13.04,19.05,-19.16,227.03,4.47,3.5
13636,52.020596,-2.017875,85,18.09,9.0,231.4,,19 / 25,1363645,2019-08-16 11:52:08:014,0.1673,0.1041,10.7633,0.0224,-0.0028,9.8066,-0.0032,-0.0241,0.0341,-13.35,17.62,-20.28,228.7,4.79,3.5
13637,52.020596,-2.017875,85,18.09,9.0,231.4,,19 / 25,1363745,2019-08-16 11:52:08:114,-0.7378,0.3459,9.7471,-0.0109,0.0222,9.8066,0.0543,-0.0465,0.0586,-13.16,18.13,-19.95,228.72,4.86,3.39
13638,52.020596,-2.017875,85,18.09,9.0,231.4,,19 / 25,1363846,2019-08-16 11:52:08:215,0.0061,-0.0377,8.9136,-0.0163,-0.0172,9.8066,0.016,0.0036,0.0565,-13.43,18.31,-19.61,228.59,4.92,3.52
13639,52.020596,-2.017875,85,18.09,9.0,231.4,,19 / 25,1363945,2019-08-16 11:52:08:314,-0.0851,0.0538,9.5284,-0.0513,-0.0277,9.8065,-0.017,0.0153,0.0192,-13.43,18.31,-19.61,228.59,4.92,3.52
13640,52.020596,-2.017875,85,18.09,9.0,231.4,,19 / 25,1364046,2019-08-16 11:52:08:415,-0.071,-0.0592,9.2715,0.0055,-0.0058,9.8066,-0.0373,-0.0572,0.0565,-13.35,17.62,-20.28,228.73,4.6,3.64
13641,52.020596,-2.017875,85,18.09,9.0,231.4,,19 / 25,1364145,2019-08-16 11:52:08:514,0.1937,-0.1048,9.7128,0.0298,0.0145,9.8066,-0.0373,-0.0572,0.0565,-14.07,18.38,-19.09,227.05,4.78,3.57
13642,52.020496,-2.01806,83,18.13,10.0,229.1,,19 / 25,1364245,2019-08-16 11:52:08:614,0.4258,-0.0227,9.7018,0.0099,-0.0042,9.8066,0.0,0.0195,0.0256,-14.07,18.38,-19.09,227.05,4.78,3.57
13643,52.020496,-2.01806,83,18.13,10.0,229.1,,19 / 25,1364346,2019-08-16 11:52:08:715,0.375,-0.1486,9.7122,0.025,-0.011,9.8066,-0.0138,0.011,0.065,-13.98,17.18,-20.23,225.07,4.8,3.51
13644,52.020496,-2.01806,83,18.13,10.0,229.1,,19 / 25,1364445,2019-08-16 11:52:08:814,-0.1375,-0.2217,9.8593,0.0375,-0.0297,9.8065,0.0096,0.0707,0.0469,-13.56,18.0,-19.8,225.07,4.8,3.51
13645,52.020496,-2.01806,83,18.13,10.0,229.1,,19 / 25,1364545,2019-08-16 11:52:08:914,0.0666,-0.024,10.284,0.0265,-0.0465,9.8065,-0.0117,-0.0018,0.0266,-11.42,17.61,-21.44,232.76,4.71,3.21
13646,52.020496,-2.01806,83,18.13,10.0,229.1,,19 / 25,1364645,2019-08-16 11:52:09:014,0.1177,-0.3611,9.1942,0.0559,-0.0398,9.8064,-0.0266,0.0515,0.0213,-11.42,17.61,-21.44,232.76,4.71,3.21
13647,52.020496,-2.01806,83,18.13,10.0,229.1,,19 / 25,1364745,2019-08-16 11:52:09:114,-0.3249,-0.4145,10.4335,0.0033,-0.0232,9.8066,-0.0181,0.0291,0.0106,-12.09,13.29,-24.02,220.18,4.73,2.8
13648,52.020496,-2.01806,83,18.13,10.0,229.1,,19 / 25,1364846,2019-08-16 11:52:09:215,-0.1145,-0.3082,9.5902,0.0033,-0.0133,9.8066,-0.0181,0.0291,0.0106,-17.09,15.68,-19.03,219.14,4.65,2.69
13649,52.020496,-2.01806,83,18.13,10.0,229.1,,19 / 25,1364946,2019-08-16 11:52:09:315,-0.1485,-0.0502,9.3208,0.0155,-0.0253,9.8066,0.0117,0.0004,0.0128,-15.06,16.5,-20.02,224.09,4.63,2.52
13650,52.020496,-2.01806,83,18.13,10.0,229.1,,19 / 25,1365045,2019-08-16 11:52:09:414,0.1697,-0.319,9.8936,0.0355,-0.0036,9.8066,-0.0128,-0.0337,0.033,-14.65,17.28,-19.66,224.09,4.63,2.52
13651,52.020496,-2.01806,83,18.13,10.0,229.1,,19 / 25,1365146,2019-08-16 11:52:09:515,0.9751,-0.0405,10.3157,0.0574,-0.0034,9.8065,-0.0202,0.0355,0.0288,-14.65,17.28,-19.66,224.09,4.63,2.52
13652,52.020386,-2.018262,83,18.13,10.0,227.6,,19 / 25,1365245,2019-08-16 11:52:09:614,0.5575,-0.081,9.4304,0.0181,0.0144,9.8066,0.0,-0.0284,0.0021,-14.36,17.05,-20.08,225.89,4.86,2.27
13653,52.020386,-2.018262,83,18.13,10.0,227.6,,19 / 25,1365345,2019-08-16 11:52:09:714,1.3442,0.4762,10.9011,0.0532,0.0273,9.8065,-0.0138,0.0281,-0.0384,-13.79,16.96,-20.55,225.54,5.19,2.15
13654,52.020386,-2.018262,83,18.13,10.0,227.6,,19 / 25,1365446,2019-08-16 11:52:09:815,-1.0792,0.3301,10.5886,0.0226,-0.016,9.8066,-0.0501,-0.0337,0.0554,-13.48,16.73,-20.94,227.38,5.43,1.93
13655,52.020386,-2.018262,83,18.13,10.0,227.6,,19 / 25,1365546,2019-08-16 11:52:09:915,1.3329,0.4459,11.4958,0.0046,-0.0698,9.8064,-0.0053,0.1048,0.0362,-14.32,16.41,-20.63,227.38,5.43,1.93
13656,52.020386,-2.018262,83,18.13,10.0,227.6,,19 / 25,1365645,2019-08-16 11:52:10:014,1.2912,0.0375,11.4385,-0.0357,-0.1381,9.8056,-0.0053,0.1048,0.0362,-14.32,16.41,-20.63,227.38,5.43,1.93
13657,52.020386,-2.018262,83,18.13,10.0,227.6,,19 / 25,1365745,2019-08-16 11:52:10:114,-0.0255,-0.4319,10.7914,-0.0413,-0.0749,9.8063,-0.0234,0.1378,-0.0117,-15.01,16.51,-20.05,224.71,4.69,1.53
13658,52.020386,-2.018262,83,18.13,10.0,227.6,,19 / 25,1365846,2019-08-16 11:52:10:215,0.2333,0.2982,8.5147,-0.0056,0.0076,9.8066,-0.0533,0.0409,0.0383,-15.26,16.12,-20.18,223.3,4.21,1.39
13659,52.020386,-2.018262,83,18.13,10.0,227.6,,19 / 25,1365945,2019-08-16 11:52:10:314,-0.12,0.1655,9.3282,0.0501,0.0248,9.8065,-0.0021,-0.0582,0.0138,-14.5,15.35,-21.31,222.87,4.53,1.3
13660,52.020386,-2.018262,83,18.13,10.0,227.6,,19 / 25,1366045,2019-08-16 11:52:10:414,0.2722,-0.1246,8.529,0.0443,-0.0066,9.8065,-0.017,-0.0092,0.0256,-14.5,15.35,-21.31,222.87,4.53,1.3
13661,52.020386,-2.018262,83,18.13,10.0,227.6,,19 / 25,1366146,2019-08-16 11:52:10:515,0.6433,-0.1998,10.4123,0.0032,-0.0239,9.8066,0.0234,0.043,0.0469,-15.02,15.88,-20.55,223.06,4.69,1.09
13662,52.020275,-2.018456,83,18.12,10.0,226.4,,19 / 25,1366245,2019-08-16 11:52:10:614,0.293,-0.175,10.8716,-0.0218,-0.0184,9.8066,0.0405,0.0238,0.0383,-15.33,15.01,-20.97,223.06,4.69,1.09
13663,52.020275,-2.018456,83,18.12,10.0,226.4,,19 / 25,1366345,2019-08-16 11:52:10:714,-0.075,0.114,10.4921,-0.0821,-0.0174,9.8063,0.0405,0.0238,0.0383,-14.97,15.86,-20.6,223.13,4.27,1.35
13664,52.020275,-2.018456,83,18.12,10.0,226.4,,19 / 25,1366446,2019-08-16 11:52:10:815,-0.0338,-0.0303,9.8316,-0.0194,-0.0163,9.8066,-0.016,0.0409,0.0149,-15.93,16.2,-19.59,221.7,4.04,1.42
13665,52.020275,-2.018456,83,18.12,10.0,226.4,,19 / 25,1366545,2019-08-16 11:52:10:914,-0.0207,-0.2072,10.6986,-0.0131,0.0057,9.8066,0.0096,0.0185,0.0352,-15.53,16.37,-19.77,221.78,3.89,1.42
13666,52.020275,-2.018456,83,18.12,10.0,226.4,,19 / 25,1366645,2019-08-16 11:52:11:014,0.0977,0.0072,10.1048,0.0095,0.0573,9.8065,0.0256,-0.0188,0.0192,-16.17,16.45,-19.18,221.78,3.89,1.42
13667,52.020275,-2.018456,83,18.12,10.0,226.4,,19 / 25,1366745,2019-08-16 11:52:11:114,-0.3438,-0.0666,8.7027,0.0074,0.0861,9.8063,0.0341,-0.0753,0.0309,-16.17,16.45,-19.18,221.78,3.89,1.42
13668,52.020275,-2.018456,83,18.12,10.0,226.4,,19 / 25,1366846,2019-08-16 11:52:11:215,-0.3285,0.2215,10.4414,-0.0142,-0.0002,9.8066,0.0117,0.0973,0.0437,-15.76,16.62,-19.38,223.31,4.26,1.77
13669,52.020275,-2.018456,83,18.12,10.0,226.4,,19 / 25,1366945,2019-08-16 11:52:11:314,-1.2392,0.1213,10.632,-0.0382,-0.0089,9.8066,0.0128,0.0483,0.0479,-15.63,17.65,-18.55,224.99,4.2,1.82
13670,52.020275,-2.018456,83,18.12,10.0,226.4,,19 / 25,1367045,2019-08-16 11:52:11:414,-0.6705,0.5397,9.5609,-0.0342,-0.0286,9.8066,0.016,-0.0561,0.0298,-15.59,17.02,-19.17,223.43,3.94,1.85
13671,52.020275,-2.018456,83,18.12,10.0,226.4,,19 / 25,1367145,2019-08-16 11:52:11:514,-0.5731,0.3009,9.5773,-0.0002,-0.0093,9.8066,-0.0639,-0.0209,0.0213,-15.64,17.74,-18.46,223.43,3.94,1.85
13672,52.02016,-2.018656,83,18.19,10.0,225.1,,19 / 25,1367246,2019-08-16 11:52:11:615,-0.3631,0.1355,9.1002,0.0145,-0.0135,9.8066,-0.0639,-0.0209,0.0213,-15.64,17.74,-18.46,223.43,3.94,1.85
13673,52.02016,-2.018656,83,18.19,10.0,225.1,,19 / 25,1367345,2019-08-16 11:52:11:714,0.3451,0.0184,9.3594,0.0199,-0.0278,9.8066,-0.0533,0.0036,0.0405,-15.77,16.66,-19.33,223.56,3.91,1.65
13674,52.02016,-2.018656,83,18.19,10.0,225.1,,19 / 25,1367445,2019-08-16 11:52:11:814,0.239,-0.2486,10.5094,-0.0182,0.0505,9.8065,0.0522,0.0334,0.0021,-15.77,16.66,-19.33,223.56,3.91,1.65
13675,52.02016,-2.018656,83,18.19,10.0,225.1,,19 / 25,1367545,2019-08-16 11:52:11:914,-0.3743,-0.5188,10.2508,-0.1199,-0.0346,9.8059,0.0884,0.1293,0.049,-16.63,17.09,-18.21,221.89,4.04,1.94
13676,52.02016,-2.018656,83,18.19,10.0,225.1,,19 / 25,1367645,2019-08-16 11:52:12:014,0.1044,0.2473,9.7856,-0.1827,-0.0152,9.8049,0.0352,0.0249,0.0298,-17.1,17.44,-17.42,221.89,4.04,1.94
13677,52.02016,-2.018656,83,18.19,10.0,225.1,,19 / 25,1367745,2019-08-16 11:52:12:114,-0.0496,0.4731,8.9154,-0.0113,0.0624,9.8064,0.0213,-0.1125,0.0288,-16.87,17.79,-17.29,223.78,3.18,2.58
13678,52.02016,-2.018656,83,18.19,10.0,225.1,,19 / 25,1367845,2019-08-16 11:52:12:214,0.9578,0.1631,10.3503,0.0069,0.1129,9.806,0.0107,-0.055,0.0288,-16.87,17.79,-17.29,223.78,3.18,2.58
13679,52.02016,-2.018656,83,18.19,10.0,225.1,,19 / 25,1367945,2019-08-16 11:52:12:314,0.0412,-0.1809,9.2545,0.0809,0.0432,9.8062,0.0107,-0.055,0.0288,-16.66,17.6,-17.68,223.12,3.67,3.03
13680,52.02016,-2.018656,83,18.19,10.0,225.1,,19 / 25,1368045,2019-08-16 11:52:12:414,0.2867,-0.0818,9.7262,0.0081,-0.0017,9.8066,0.0128,0.0249,0.0309,-16.49,18.02,-17.41,224.76,4.19,2.89
13681,52.02016,-2.018656,83,18.19,10.0,225.1,,19 / 25,1368146,2019-08-16 11:52:12:515,-0.2092,0.2343,10.8528,-0.0288,-0.002,9.8066,0.0586,0.0632,0.0149,-16.04,17.58,-18.26,224.76,4.19,2.89
13682,52.020042,-2.018823,83,18.11,10.0,223.6,,19 / 25,1368245,2019-08-16 11:52:12:614,-0.3339,0.3487,11.0263,-0.079,0.0746,9.806,0.0032,0.0249,0.0266,-16.68,18.23,-17.01,222.8,4.17,3.53
13683,52.020042,-2.018823,83,18.11,10.0,223.6,,19 / 25,1368346,2019-08-16 11:52:12:715,0.0863,-0.3384,10.4556,0.0148,-0.0119,9.8066,-0.0032,0.0728,0.0298,-17.1,17.44,-17.42,222.8,4.17,3.53
13684,52.020042,-2.018823,83,18.11,10.0,223.6,,19 / 25,1368445,2019-08-16 11:52:12:814,0.1395,-0.2161,9.8753,-0.0545,-0.0168,9.8065,0.0426,0.0558,0.0383,-17.49,18.42,-15.96,223.2,3.99,3.33
13685,52.020042,-2.018823,83,18.11,10.0,223.6,,19 / 25,1368546,2019-08-16 11:52:12:915,0.1246,-0.0134,10.2258,-0.0734,0.0172,9.8064,0.0053,-0.0316,0.0192,-17.49,18.42,-15.96,223.2,3.99,3.33
13686,52.020042,-2.018823,83,18.11,10.0,223.6,,19 / 25,1368646,2019-08-16 11:52:13:015,1.259,0.2471,9.9366,0.0457,0.0545,9.8064,0.0,0.0025,0.0107,-16.92,18.43,-16.56,222.9,3.75,3.7
13687,52.020042,-2.018823,83,18.11,10.0,223.6,,19 / 25,1368745,2019-08-16 11:52:13:114,0.5582,-0.5146,9.2508,0.0844,0.0276,9.8062,0.0,0.0025,0.0107,-16.92,18.43,-16.56,222.81,4.22,3.48
13688,52.020042,-2.018823,83,18.11,10.0,223.6,,19 / 25,1368845,2019-08-16 11:52:13:214,0.075,-0.4552,10.3853,-0.0246,-0.0241,9.8066,-0.0064,0.0345,0.0298,-16.92,18.43,-16.56,222.81,4.22,3.48
13689,52.020042,-2.018823,83,18.11,10.0,223.6,,19 / 25,1368945,2019-08-16 11:52:13:314,-0.2902,0.0838,10.1,-0.0613,-0.0191,9.8064,0.0384,0.0238,0.0298,-17.3,19.37,-15.01,224.95,4.02,3.48
13690,52.020042,-2.018823,83,18.11,10.0,223.6,,19 / 25,1369045,2019-08-16 11:52:13:414,-0.2356,0.1242,9.8998,-0.0823,-0.0154,9.8063,-0.0117,0.0281,-0.0021,-17.52,18.45,-15.89,224.95,4.02,3.48
13691,52.020042,-2.018823,83,18.11,10.0,223.6,,19 / 25,1369146,2019-08-16 11:52:13:515,-0.2773,-0.0649,8.7511,-0.0529,-0.0252,9.8065,-0.0011,-0.0199,0.0149,-17.52,18.45,-15.89,224.95,4.02,3.48
13692,52.019924,-2.019022,85,18.34,11.0,223.1,,19 / 25,1369245,2019-08-16 11:52:13:614,-0.2624,0.0384,9.2665,0.0104,-0.029,9.8066,0.0149,0.0398,0.0032,-17.31,18.23,-16.37,223.2,3.69,3.59
13693,52.019924,-2.019022,85,18.34,11.0,223.1,,19 / 25,1369345,2019-08-16 11:52:13:714,0.2843,-0.1471,10.6608,0.0842,-0.0485,9.8062,-0.0096,-0.0284,0.0032,-17.51,17.85,-16.57,223.2,3.69,3.59
13694,52.019924,-2.019022,85,18.34,11.0,223.1,,19 / 25,1369445,2019-08-16 11:52:13:814,-0.097,-0.0834,10.0335,0.0427,-0.0198,9.8065,-0.0682,-0.0167,0.0096,-17.34,18.89,-15.57,225.03,3.86,3.05
13695,52.019924,-2.019022,85,18.34,11.0,223.1,,19 / 25,1369545,2019-08-16 11:52:13:914,0.0139,-0.5642,9.9648,0.0209,-0.0769,9.8063,-0.0682,-0.0167,0.0096,-17.33,17.67,-16.96,223.32,3.95,2.79
13696,52.019924,-2.019022,85,18.34,11.0,223.1,,19 / 25,1369646,2019-08-16 11:52:14:015,0.4813,-0.8709,9.9822,-0.0162,-0.1636,9.8053,0.0,0.0739,0.0181,-17.33,17.67,-16.96,223.32,3.95,2.79
13697,52.019924,-2.019022,85,18.34,11.0,223.1,,19 / 25,1369745,2019-08-16 11:52:14:114,0.0711,-0.1493,10.7174,-0.0361,-0.0401,9.8065,0.0373,0.0441,-0.0032,-17.69,18.02,-16.19,222.59,3.23,2.16
13698,52.019924,-2.019022,85,18.34,11.0,223.1,,19 / 25,1369845,2019-08-16 11:52:14:214,0.093,-0.164,9.3797,-0.0388,-0.0456,9.8065,0.0362,0.0121,-0.0043,-17.34,18.26,-16.31,224.32,2.88,2.11
13699,52.019924,-2.019022,85,18.34,11.0,223.1,,19 / 25,1369946,2019-08-16 11:52:14:315,1.1034,0.4296,9.7172,0.0406,0.0096,9.8066,-0.0213,-0.0081,0.0149,-17.34,18.26,-16.31,224.32,2.88,2.11
13700,52.019924,-2.019022,85,18.34,11.0,223.1,,19 / 25,1370045,2019-08-16 11:52:14:414,0.1691,0.2046,9.8767,0.0461,0.0244,9.8065,0.065,-0.0156,-0.0096,-16.72,18.17,-17.03,224.15,3.09,1.99
13701,52.019924,-2.019022,85,18.34,11.0,223.1,,19 / 25,1370146,2019-08-16 11:52:14:515,0.5664,0.0513,10.1188,0.0768,0.0586,9.8062,0.0384,-0.0167,-0.0117,-16.93,18.39,-16.58,223.93,3.65,1.92
13702,52.019794,-2.019205,86,18.47,10.0,223.3,,19 / 25,1370246,2019-08-16 11:52:14:615,0.5265,-0.3094,10.4495,0.052,0.0357,9.8064,0.0448,0.0505,0.0096,-16.93,18.39,-16.58,223.93,3.65,1.92
13703,52.019794,-2.019205,86,18.47,10.0,223.3,,19 / 25,1370345,2019-08-16 11:52:14:714,0.8434,-0.1426,9.9798,-0.0272,-0.0109,9.8066,0.0448,0.0505,0.0096,-17.25,18.23,-16.43,224.0,3.94,1.83
13704,52.019794,-2.019205,86,18.47,10.0,223.3,,19 / 25,1370445,2019-08-16 11:52:14:814,-0.0442,0.0714,9.7241,-0.0297,-0.0156,9.8066,0.0192,0.0941,0.0011,-17.25,18.23,-16.43,224.0,3.94,1.83
13705,52.019794,-2.019205,86,18.47,10.0,223.3,,19 / 25,1370545,2019-08-16 11:52:14:914,0.412,0.4839,8.8538,0.037,0.0195,9.8066,0.0192,0.043,-0.0043,-16.74,18.74,-16.39,225.65,3.76,1.88
13706,52.019794,-2.019205,86,18.47,10.0,223.3,,19 / 25,1370645,2019-08-16 11:52:15:014,0.0043,-0.0678,9.1357,0.0244,0.0182,9.8066,0.0384,-0.0529,-0.0202,-17.25,18.8,-15.78,225.58,3.99,1.81
13707,52.019794,-2.019205,86,18.47,10.0,223.3,,19 / 25,1370745,2019-08-16 11:52:15:114,0.031,-0.2861,9.1462,0.0366,0.0026,9.8066,0.016,-0.0092,0.0,-17.34,18.84,-15.63,225.59,4.15,1.66
13708,52.019794,-2.019205,86,18.47,10.0,223.3,,19 / 25,1370846,2019-08-16 11:52:15:215,-0.2147,-0.1954,9.3294,-0.0004,-0.001,9.8067,-0.0415,0.0057,0.0043,-17.34,18.84,-15.63,225.59,4.15,1.66
13709,52.019794,-2.019205,86,18.47,10.0,223.3,,19 / 25,1370946,2019-08-16 11:52:15:315,0.4106,-0.1075,9.8458,0.0127,-0.015,9.8066,-0.0234,0.0078,-0.0011,-16.93,18.96,-15.92,225.59,4.14,1.66
13710,52.019794,-2.019205,86,18.47,10.0,223.3,,19 / 25,1371045,2019-08-16 11:52:15:414,0.0059,-0.1063,9.3296,0.0392,-0.0163,9.8066,-0.0224,0.0132,-0.0181,-16.93,18.39,-16.58,223.92,4.24,1.43
13711,52.019794,-2.019205,86,18.47,10.0,223.3,,19 / 25,1371145,2019-08-16 11:52:15:514,0.4379,0.1385,10.5159,0.0089,-0.0271,9.8066,-0.0224,0.0132,-0.0181,-16.93,18.39,-16.58,223.92,4.24,1.43
13712,52.019672,-2.019411,86,18.43,10.0,224.4,,19 / 25,1371245,2019-08-16 11:52:15:614,0.0724,-0.0224,9.136,0.0211,0.0015,9.8066,0.0203,-0.0113,-0.0149,-17.28,18.83,-15.71,225.76,4.16,1.28
13713,52.019672,-2.019411,86,18.43,10.0,224.4,,19 / 25,1371346,2019-08-16 11:52:15:715,-0.0718,0.0924,10.1216,0.0277,-0.0018,9.8066,-0.0256,-0.0284,0.0011,-16.75,18.2,-16.97,224.08,4.23,1.15
13714,52.019672,-2.019411,86,18.43,10.0,224.4,,19 / 25,1371445,2019-08-16 11:52:15:814,0.0934,0.4801,9.0013,0.0339,0.0283,9.8066,-0.0106,-0.0007,-0.0107,-16.74,18.74,-16.39,225.81,4.34,1.03
13715,52.019672,-2.019411,86,18.43,10.0,224.4,,19 / 25,1371545,2019-08-16 11:52:15:914,0.2415,0.4522,9.7928,0.0478,0.0239,9.8065,0.0139,-0.0007,-0.0309,-17.08,18.61,-16.18,225.81,4.34,1.03
13716,52.019672,-2.019411,86,18.43,10.0,224.4,,19 / 25,1371645,2019-08-16 11:52:16:014,0.2635,-0.0476,8.6502,0.0704,0.0398,9.8063,0.0586,-0.0539,-0.0298,-17.54,17.98,-16.4,222.61,4.79,0.89
13717,52.019672,-2.019411,86,18.43,10.0,224.4,,19 / 25,1371745,2019-08-16 11:52:16:114,-0.4533,-0.2658,9.1695,-0.0054,0.0122,9.8066,0.0586,-0.0539,-0.0298,-17.54,17.98,-16.4,222.61,4.79,0.89
13718,52.019672,-2.019411,86,18.43,10.0,224.4,,19 / 25,1371846,2019-08-16 11:52:16:215,-0.8255,0.1339,10.393,-0.0042,-0.0049,9.8066,-0.0437,0.0803,-0.0075,-15.97,19.17,-16.67,227.08,4.82,0.97
13719,52.019672,-2.019411,86,18.43,10.0,224.4,,19 / 25,1371945,2019-08-16 11:52:16:314,-0.7792,-0.4226,10.3681,-0.0118,-0.0132,9.8066,0.0171,0.0036,-0.0565,-16.92,19.52,-15.25,227.33,4.72,0.96
13720,52.019672,-2.019411,86,18.43,10.0,224.4,,19 / 25,1372045,2019-08-16 11:52:16:414,1.0364,-0.063,11.3563,-0.0064,-0.0036,9.8066,0.0064,-0.0529,-0.0032,-16.92,19.52,-15.25,227.33,4.72,0.96
13721,52.019672,-2.019411,86,18.43,10.0,224.4,,19 / 25,1372145,2019-08-16 11:52:16:514,-0.4454,-0.3468,9.5524,-0.0076,-0.0095,9.8066,0.0075,-0.1562,-0.0309,-16.76,19.33,-15.67,225.72,4.64,0.96
13722,52.01955,-2.019572,86,18.25,10.0,225.1,,19 / 25,1372246,2019-08-16 11:52:16:615,-0.2988,0.5928,9.0107,-0.0243,0.0179,9.8066,0.0575,-0.0955,-0.033,-16.4,19.47,-15.88,227.25,4.62,1.14
13723,52.01955,-2.019572,86,18.25,10.0,225.1,,19 / 25,1372345,2019-08-16 11:52:16:714,-0.0176,0.3382,9.6457,0.0828,0.1123,9.8057,0.0213,-0.0603,-0.0181,-16.37,19.53,-15.83,227.25,4.62,1.14
13724,52.01955,-2.019572,86,18.25,10.0,225.1,,19 / 25,1372446,2019-08-16 11:52:16:815,0.4922,0.3065,10.4639,0.1185,0.1127,9.8053,0.0213,-0.0603,-0.0181,-14.9,20.04,-16.63,229.82,5.57,1.07
13725,52.01955,-2.019572,86,18.25,10.0,225.1,,19 / 25,1372545,2019-08-16 11:52:16:914,-0.5179,0.0543,10.2939,-0.0137,-0.0236,9.8066,0.0171,0.0323,0.0149,-14.9,20.04,-16.63,229.82,5.57,1.07
13726,52.01955,-2.019572,86,18.25,10.0,225.1,,19 / 25,1372645,2019-08-16 11:52:17:014,-0.2724,-0.4347,11.2217,-0.0178,-0.0251,9.8066,0.0522,0.0259,-0.0021,-15.8,20.34,-15.38,228.62,5.42,1.05
13727,52.01955,-2.019572,86,18.25,10.0,225.1,,19 / 25,1372745,2019-08-16 11:52:17:114,1.6693,-0.0705,9.9656,-0.0146,-0.027,9.8066,0.0139,-0.0369,-0.0298,-15.8,20.34,-15.38,228.62,5.42,1.05
13728,52.01955,-2.019572,86,18.25,10.0,225.1,,19 / 25,1372845,2019-08-16 11:52:17:214,-0.1373,0.1206,9.7743,0.0001,-0.0056,9.8066,-0.0032,0.0281,-0.0128,-15.74,20.59,-15.11,230.1,5.24,1.0
13729,52.01955,-2.019572,86,18.25,10.0,225.1,,19 / 25,1372945,2019-08-16 11:52:17:314,-0.0219,-0.0927,9.6809,-0.0281,-0.009,9.8066,0.0107,-0.0156,-0.0341,-16.17,20.42,-14.89,228.72,5.1,1.1
13730,52.01955,-2.019572,86,18.25,10.0,225.1,,19 / 25,1373046,2019-08-16 11:52:17:415,0.3345,0.2302,9.2142,0.0094,0.002,9.8066,-0.0011,0.0004,-0.0256,-15.99,20.2,-15.37,228.72,5.14,1.06
13731,52.01955,-2.019572,86,18.25,10.0,225.1,,19 / 25,1373146,2019-08-16 11:52:17:515,0.1443,0.2579,9.2674,0.0213,0.0032,9.8066,-0.0202,-0.0188,-0.0256,-15.7,21.11,-14.42,228.72,5.14,1.06
13732,52.019432,-2.019774,87,18.06,10.0,226.6,,19 / 25,1373245,2019-08-16 11:52:17:614,0.5529,0.3067,9.5006,0.0542,0.0044,9.8065,0.0107,0.0206,-0.0384,-15.7,21.11,-14.42,228.72,5.14,1.06
13733,52.019432,-2.019774,87,18.06,10.0,226.6,,19 / 25,1373345,2019-08-16 11:52:17:714,0.0424,0.2371,10.4713,-0.0006,0.018,9.8066,0.0107,0.0206,-0.0384,-15.41,20.16,-16.0,230.21,5.37,0.84
13734,52.019432,-2.019774,87,18.06,10.0,226.6,,19 / 25,1373445,2019-08-16 11:52:17:814,-0.256,0.2373,9.3416,-0.0016,0.0075,9.8066,0.0394,-0.0284,-0.016,-14.98,20.88,-15.47,231.71,5.45,0.91
13735,52.019432,-2.019774,87,18.06,10.0,226.6,,19 / 25,1373546,2019-08-16 11:52:17:915,-0.7647,-0.1223,9.9317,-0.0046,-0.005,9.8066,-0.0192,0.0249,-0.0256,-14.98,20.88,-15.47,231.71,5.45,0.91
13736,52.019432,-2.019774,87,18.06,10.0,226.6,,19 / 25,1373646,2019-08-16 11:52:18:015,-0.2468,0.0655,9.4833,-0.0031,-0.0285,9.8066,-0.0149,0.0238,-0.0128,-15.91,20.82,-14.61,230.07,5.41,0.92
13737,52.019432,-2.019774,87,18.06,10.0,226.6,,19 / 25,1373746,2019-08-16 11:52:18:115,0.2861,0.0584,9.9026,0.0084,-0.0323,9.8066,0.0011,-0.0081,-0.0149,-14.72,20.75,-15.89,231.66,5.3,0.76
13738,52.019432,-2.019774,87,18.06,10.0,226.6,,19 / 25,1373846,2019-08-16 11:52:18:215,-0.2956,0.2201,9.7198,0.0093,0.0083,9.8066,0.0107,0.0004,-0.0128,-14.98,20.88,-15.47,231.81,5.37,0.74
13739,52.019432,-2.019774,87,18.06,10.0,226.6,,19 / 25,1373946,2019-08-16 11:52:18:315,-0.3406,-0.0193,10.0035,0.0178,0.0122,9.8066,0.0064,0.0153,-0.0352,-14.98,20.88,-15.47,231.81,5.37,0.74
13740,52.019432,-2.019774,87,18.06,10.0,226.6,,19 / 25,1374045,2019-08-16 11:52:18:414,-0.2346,-0.2159,10.0432,-0.008,-0.0095,9.8066,0.0064,0.0153,-0.0352,-14.56,21.08,-15.62,231.63,5.5,0.64
13741,52.019432,-2.019774,87,18.06,10.0,226.6,,19 / 25,1374145,2019-08-16 11:52:18:514,-0.5596,-0.4087,9.5546,0.0002,-0.0158,9.8066,-0.0085,-0.0135,-0.0352,-14.37,21.36,-15.41,233.56,5.42,0.65
13742,52.01932,-2.019969,88,18.14,10.0,228.1,,19 / 25,1374245,2019-08-16 11:52:18:614,-0.2649,-0.5119,9.5669,-0.0132,-0.0336,9.8066,0.0277,0.027,-0.0202,-14.81,20.65,-15.94,233.56,5.42,0.65
13743,52.01932,-2.019969,88,18.14,10.0,228.1,,19 / 25,1374345,2019-08-16 11:52:18:714,-0.8276,-0.0145,10.0517,-0.042,-0.0568,9.8064,0.016,-0.0508,-0.0107,-14.81,20.65,-15.94,233.56,5.42,0.65
13744,52.01932,-2.019969,88,18.14,10.0,228.1,,19 / 25,1374445,2019-08-16 11:52:18:814,-0.5036,0.1141,10.7226,-0.0091,-0.0049,9.8066,-0.0501,0.043,-0.0703,-14.63,20.93,-15.74,231.84,5.01,0.65
13745,52.01932,-2.019969,88,18.14,10.0,228.1,,19 / 25,1374545,2019-08-16 11:52:18:914,0.611,0.2994,9.9464,-0.0035,0.0041,9.8066,-0.0256,-0.0454,-0.0245,-14.93,21.36,-14.86,231.84,5.01,0.65
13746,52.01932,-2.019969,88,18.14,10.0,228.1,,19 / 25,1374645,2019-08-16 11:52:19:014,-0.2636,-0.0674,10.4604,0.0045,0.0101,9.8066,-0.0032,0.0451,-0.0447,-14.52,21.59,-14.93,233.26,5.07,0.66
13747,52.01932,-2.019969,88,18.14,10.0,228.1,,19 / 25,1374745,2019-08-16 11:52:19:114,-0.1301,-0.0253,9.2532,0.0166,0.0003,9.8066,0.0011,-0.0273,-0.016,-14.2,21.66,-15.14,234.98,5.13,0.59
13748,52.01932,-2.019969,88,18.14,10.0,228.1,,19 / 25,1374845,2019-08-16 11:52:19:214,-0.3038,0.0058,9.5357,0.0153,0.031,9.8066,0.0011,-0.0273,-0.016,-14.2,21.66,-15.14,234.98,5.13,0.59
13749,52.01932,-2.019969,88,18.14,10.0,228.1,,19 / 25,1374945,2019-08-16 11:52:19:314,-0.0211,0.2124,9.5712,0.0251,0.0522,9.8065,-0.0032,-0.0145,-0.0288,-14.52,21.59,-14.93,233.18,5.33,0.62
13750,52.01932,-2.019969,88,18.14,10.0,228.1,,19 / 25,1375045,2019-08-16 11:52:19:414,-0.1654,0.3288,9.6058,0.0068,0.0299,9.8066,0.0181,0.0174,-0.0202,-13.62,21.6,-15.74,233.18,5.33,0.62
13751,52.01932,-2.019969,88,18.14,10.0,228.1,,19 / 25,1375145,2019-08-16 11:52:19:514,-0.2212,0.0184,10.6147,-0.0092,-0.044,9.8065,-0.0053,0.0654,-0.0181,-14.09,21.79,-15.06,234.79,5.5,0.69
13752,52.01922,-2.020159,87,17.75,10.0,229.5,,19 / 25,1375245,2019-08-16 11:52:19:614,-0.4706,-0.1068,9.0807,0.0039,-0.057,9.8065,-0.0138,-0.0124,-0.0245,-13.8,21.34,-15.95,234.79,5.5,0.69
13753,52.01922,-2.020159,87,17.75,10.0,229.5,,19 / 25,1375345,2019-08-16 11:52:19:714,0.1501,-0.1863,9.478,0.0126,-0.0754,9.8064,0.016,0.0302,-0.0117,-13.8,21.34,-15.95,234.79,5.5,0.69
13754,52.01922,-2.020159,87,17.75,10.0,229.5,,19 / 25,1375445,2019-08-16 11:52:19:814,-0.1358,-0.6512,10.9155,0.004,-0.0289,9.8066,0.0043,0.011,-0.0224,-13.77,21.85,-15.27,235.05,5.18,0.37
13755,52.01922,-2.020159,87,17.75,10.0,229.5,,19 / 25,1375546,2019-08-16 11:52:19:915,0.3222,0.0918,10.5995,0.0348,-0.0171,9.8066,0.0256,-0.0646,-0.0384,-13.93,21.54,-15.55,234.96,5.21,0.15
13756,52.01922,-2.020159,87,17.75,10.0,229.5,,19 / 25,1375645,2019-08-16 11:52:20:014,-0.2534,0.2099,9.6466,0.0295,0.0235,9.8066,0.0256,-0.0646,-0.0384,-13.93,21.54,-15.55,234.96,5.21,0.15
13757,52.01922,-2.020159,87,17.75,10.0,229.5,,19 / 25,1375745,2019-08-16 11:52:20:114,-0.6382,0.0881,10.2218,0.0189,0.0156,9.8066,0.0213,-0.0422,-0.0202,-13.23,21.68,-15.97,236.66,5.42,0.09
13758,52.01922,-2.020159,87,17.75,10.0,229.5,,19 / 25,1375845,2019-08-16 11:52:20:214,0.0274,-0.0296,9.6822,0.035,-0.0156,9.8066,-0.0362,0.0259,-0.0234,-13.67,21.46,-15.9,236.66,5.42,0.09
13759,52.01922,-2.020159,87,17.75,10.0,229.5,,19 / 25,1375945,2019-08-16 11:52:20:314,0.5946,-0.0301,9.9469,0.0264,-0.0455,9.8065,-0.0437,0.011,-0.0352,-13.64,21.98,-15.19,235.23,5.39,-0.34
13760,52.01922,-2.020159,87,17.75,10.0,229.5,,19 / 25,1376046,2019-08-16 11:52:20:415,0.1009,-0.1328,10.707,0.0242,-0.0384,9.8065,-0.0543,0.0568,-0.0117,-13.98,21.06,-16.16,233.99,5.26,-0.62
13761,52.01922,-2.020159,87,17.75,10.0,229.5,,19 / 25,1376145,2019-08-16 11:52:20:514,-0.2598,-0.0994,9.5673,0.0414,-0.1026,9.806,-0.0224,0.0291,-0.0384,-13.98,21.06,-16.16,233.99,5.26,-0.62
13762,52.0191,-2.020351,86,17.73,10.0,230.8,,19 / 25,1376245,2019-08-16 11:52:20:614,0.1452,0.0709,10.9293,0.025,-0.0258,9.8066,-0.0032,0.0014,-0.0192,-12.91,21.16,-16.9,236.04,4.92,-1.17
13763,52.0191,-2.020351,86,17.73,10.0,230.8,,19 / 25,1376346,2019-08-16 11:52:20:715,-0.3734,0.099,9.9469,0.0148,0.0347,9.8066,-0.0053,0.0121,-0.0288,-13.71,20.95,-16.52,234.35,4.88,-1.38
13764,52.0191,-2.020351,86,17.73,10.0,230.8,,19 / 25,1376445,2019-08-16 11:52:20:814,-0.1758,0.2131,10.0998,0.0164,0.052,9.8065,0.0,-0.0156,-0.0181,-12.94,21.58,-16.33,237.31,5.18,-1.28
13765,52.0191,-2.020351,86,17.73,10.0,230.8,,19 / 25,1376545,2019-08-16 11:52:20:914,-0.0858,0.126,9.7132,0.0144,0.031,9.8066,0.0,-0.0156,-0.0181,-12.94,21.58,-16.33,237.31,5.18,-1.28
13766,52.0191,-2.020351,86,17.73,10.0,230.8,,19 / 25,1376645,2019-08-16 11:52:21:014,0.0735,0.3816,9.6578,0.0136,0.0605,9.8065,0.0181,-0.0039,-0.0341,-13.23,21.68,-15.97,237.11,5.52,-1.16
13767,52.0191,-2.020351,86,17.73,10.0,230.8,,19 / 25,1376746,2019-08-16 11:52:21:115,-0.5112,-0.0784,10.5517,-0.0372,-0.0211,9.8066,0.0171,0.0313,-0.0479,-12.77,21.47,-16.61,237.11,5.52,-1.16
13768,52.0191,-2.020351,86,17.73,10.0,230.8,,19 / 25,1376845,2019-08-16 11:52:21:214,-0.1324,-0.1477,9.212,-0.1098,-0.0271,9.806,-0.0138,0.0526,-0.0139,-12.77,21.47,-16.61,237.11,5.52,-1.16
13769,52.0191,-2.020351,86,17.73,10.0,230.8,,19 / 25,1376945,2019-08-16 11:52:21:314,-0.1246,0.0696,9.6197,-0.012,-0.0125,9.8066,0.0171,-0.0007,-0.0064,-13.23,21.68,-15.97,237.15,5.04,-0.7
13770,52.0191,-2.020351,86,17.73,10.0,230.8,,19 / 25,1377045,2019-08-16 11:52:21:414,-0.0112,0.383,9.7435,-0.0273,0.0146,9.8066,0.0128,0.0291,-0.0117,-13.2,22.2,-15.25,237.33,4.94,-0.68
13771,52.0191,-2.020351,86,17.73,10.0,230.8,,19 / 25,1377145,2019-08-16 11:52:21:514,-0.3085,-0.0878,10.2605,-0.0432,0.0449,9.8065,0.0181,-0.0188,0.0011,-13.2,22.2,-15.25,237.33,4.94,-0.68
13772,52.019,-2.020544,84,17.6,10.0,232.2,,19 / 25,1377246,2019-08-16 11:52:21:615,0.0019,0.4292,10.6144,-0.0029,0.0193,9.8066,0.0256,-0.022,-0.0139,-13.05,21.95,-15.75,237.01,5.02,-0.33
13773,52.019,-2.020544,84,17.6,10.0,232.2,,19 / 25,1377346,2019-08-16 11:52:21:715,0.6862,-0.2757,7.3838,-0.0412,0.0386,9.8065,-0.114,0.1602,0.032,-13.05,21.95,-15.75,236.86,5.08,0.0
13774,52.019,-2.020544,84,17.6,10.0,232.2,,19 / 25,1377445,2019-08-16 11:52:21:814,0.0988,0.4536,10.2747,-0.0191,-0.0026,9.8066,-0.114,0.1602,0.032,-12.42,22.42,-15.58,236.86,5.08,0.0
13775,52.019,-2.020544,84,17.6,10.0,232.2,,19 / 25,1377545,2019-08-16 11:52:21:914,-0.753,0.352,9.0288,-0.0631,-0.0267,9.8064,0.0181,0.222,-0.0394,-12.42,22.42,-15.58,236.86,5.08,0.0
13776,52.019,-2.020544,84,17.6,10.0,232.2,,19 / 25,1377645,2019-08-16 11:52:22:014,-0.2531,0.015,10.4622,0.0052,0.0676,9.8064,-0.0085,0.0419,-0.0032,-13.07,21.42,-16.44,235.69,4.75,0.22
13777,52.019,-2.020544,84,17.6,10.0,232.2,,19 / 25,1377745,2019-08-16 11:52:22:114,0.5387,0.4018,11.2273,0.0044,0.0811,9.8063,0.0245,0.0089,-0.0266,-12.26,22.13,-16.13,238.49,5.15,0.47
13778,52.019,-2.020544,84,17.6,10.0,232.2,,19 / 25,1377846,2019-08-16 11:52:22:215,0.3013,0.2261,10.6405,0.0179,0.0293,9.8066,-0.0287,-0.0412,-0.0149,-11.95,22.04,-16.48,238.39,5.35,0.47
13779,52.019,-2.020544,84,17.6,10.0,232.2,,19 / 25,1377946,2019-08-16 11:52:22:315,0.3131,-0.0831,8.3093,-0.0158,-0.071,9.8064,-0.0149,0.0771,0.0,-11.95,22.04,-16.48,238.39,5.35,0.47
13780,52.019,-2.020544,84,17.6,10.0,232.2,,19 / 25,1378045,2019-08-16 11:52:22:414,-0.931,-0.3371,10.0587,-0.0157,0.0018,9.8066,0.0032,-0.0369,-0.0139,-11.84,21.26,-17.55,237.1,4.95,0.33
13781,52.019,-2.020544,84,17.6,10.0,232.2,,19 / 25,1378146,2019-08-16 11:52:22:515,-0.0653,-0.1007,9.0342,-0.0058,0.0328,9.8066,0.0032,-0.0369,-0.0139,-12.15,21.81,-16.64,238.35,5.09,0.46
13782,52.018913,-2.020766,85,17.59,9.0,233.2,,19 / 25,1378246,2019-08-16 11:52:22:615,0.0116,-0.2028,8.8881,-0.0309,-0.0002,9.8066,-0.0021,-0.0209,-0.0053,-12.15,21.81,-16.64,238.35,5.09,0.46
13783,52.018913,-2.020766,85,17.59,9.0,233.2,,19 / 25,1378345,2019-08-16 11:52:22:714,-0.5967,-0.5392,9.7802,-0.0544,-0.022,9.8065,0.0266,0.0462,-0.0043,-12.15,21.81,-16.64,238.33,5.0,0.62
13784,52.018913,-2.020766,85,17.59,9.0,233.2,,19 / 25,1378447,2019-08-16 11:52:22:816,-0.9944,-0.2382,9.556,-0.0816,-0.0025,9.8063,0.0075,-0.0252,0.017,-11.99,21.53,-17.1,238.31,4.74,1.02
13785,52.018913,-2.020766,85,17.59,9.0,233.2,,19 / 25,1378546,2019-08-16 11:52:22:915,0.2773,0.2305,9.3388,0.0067,0.0643,9.8064,0.0171,0.0132,-0.0256,-11.99,21.53,-17.1,238.31,4.74,1.02
13786,52.018913,-2.020766,85,17.59,9.0,233.2,,19 / 25,1378645,2019-08-16 11:52:23:014,-0.1631,-0.0178,9.5654,0.0014,0.0907,9.8062,-0.0096,-0.0017,-0.0021,-12.3,21.64,-16.74,237.94,5.19,1.29
13787,52.018913,-2.020766,85,17.59,9.0,233.2,,19 / 25,1378745,2019-08-16 11:52:23:114,-1.2088,-0.0551,10.2529,-0.0254,0.0,9.8066,0.0405,0.0835,0.0309,-12.3,21.64,-16.74,237.94,5.19,1.29
13788,52.018913,-2.020766,85,17.59,9.0,233.2,,19 / 25,1378846,2019-08-16 11:52:23:215,0.3685,0.327,10.1165,-0.0491,0.0049,9.8065,0.0405,0.0835,0.0309,-12.28,22.16,-16.06,238.13,5.11,1.42
13789,52.018913,-2.020766,85,17.59,9.0,233.2,,19 / 25,1378946,2019-08-16 11:52:23:315,-0.4417,-0.0689,10.6251,-0.016,-0.0005,9.8066,0.0085,0.0142,-0.0021,-12.12,22.34,-15.93,238.09,4.99,1.68
13790,52.018913,-2.020766,85,17.59,9.0,233.2,,19 / 25,1379045,2019-08-16 11:52:23:414,-0.1849,0.0528,9.6964,-0.0264,-0.0146,9.8066,-0.0011,-0.0167,0.0,-12.57,22.68,-15.09,237.59,4.93,1.76
13791,52.018913,-2.020766,85,17.59,9.0,233.2,,19 / 25,1379145,2019-08-16 11:52:23:514,-0.262,-0.27,10.123,-0.055,-0.0379,9.8064,-0.0096,0.0057,-0.0245,-12.57,22.68,-15.09,237.59,4.93,1.76
13792,52.018826,-2.020976,85,17.55,10.0,233.6,,19 / 25,1379246,2019-08-16 11:52:23:615,0.3643,-0.1204,9.8959,-0.0042,-0.016,9.8066,-0.016,0.076,0.0277,-12.92,21.73,-16.15,236.33,4.57,1.91
13793,52.018826,-2.020976,85,17.55,10.0,233.6,,19 / 25,1379345,2019-08-16 11:52:23:714,-0.1516,-0.1333,9.6925,0.0125,0.01,9.8066,0.0288,-0.0177,0.0341,-13.37,21.55,-16.02,236.33,4.57,1.91
13794,52.018826,-2.020976,85,17.55,10.0,233.6,,19 / 25,1379445,2019-08-16 11:52:23:814,-0.1939,-0.1092,10.0867,0.0113,0.0445,9.8065,0.016,-0.0209,0.0075,-12.63,21.63,-16.51,235.97,4.83,2.0
13795,52.018826,-2.020976,85,17.55,10.0,233.6,,19 / 25,1379545,2019-08-16 11:52:23:914,-0.0079,0.0408,9.9769,-0.0168,0.0198,9.8066,0.0011,0.0068,-0.0288,-12.42,22.42,-15.58,235.97,4.83,2.0
13796,52.018826,-2.020976,85,17.55,10.0,233.6,,19 / 25,1379645,2019-08-16 11:52:24:014,-0.4259,-0.0224,10.3216,-0.0192,0.0352,9.8066,0.0011,0.0068,-0.0288,-12.42,22.42,-15.58,235.97,4.83,2.0
13797,52.018826,-2.020976,85,17.55,10.0,233.6,,19 / 25,1379745,2019-08-16 11:52:24:114,0.13,0.2681,9.2652,-0.0337,0.043,9.8065,0.0085,0.0164,-0.0043,-11.78,22.84,-15.48,239.24,4.93,2.3
13798,52.018826,-2.020976,85,17.55,10.0,233.6,,19 / 25,1379845,2019-08-16 11:52:24:214,-0.0462,-0.2484,9.7233,-0.0005,-0.0179,9.8066,-0.0032,0.06,0.0128,-12.12,22.34,-15.93,237.9,4.8,2.38
13799,52.018826,-2.020976,85,17.55,10.0,233.6,,19 / 25,1379945,2019-08-16 11:52:24:314,0.188,0.2126,10.266,-0.0197,-0.0175,9.8066,0.0085,0.0089,-0.0075,-12.42,22.42,-15.58,237.9,4.8,2.38
13800,52.018826,-2.020976,85,17.55,10.0,233.6,,19 / 25,1380045,2019-08-16 11:52:24:414,-0.6573,0.0722,10.1493,-0.0079,-0.0145,9.8066,0.0458,0.027,0.0288,-12.42,22.42,-15.58,237.9,4.8,2.38
13801,52.018826,-2.020976,85,17.55,10.0,233.6,,19 / 25,1380145,2019-08-16 11:52:24:514,-0.2888,-0.049,9.0134,0.0002,0.0081,9.8066,0.0203,0.0196,-0.0139,-12.9,22.69,-14.8,237.47,4.7,2.37
13802,52.01873,-2.021176,85,17.3,10.0,233.8,,19 / 25,1380245,2019-08-16 11:52:24:614,-0.1606,-0.0551,9.7861,-0.0133,0.0198,9.8066,-0.0256,-0.006,-0.0149,-12.75,22.43,-15.31,237.47,4.7,2.37
13803,52.01873,-2.021176,85,17.3,10.0,233.8,,19 / 25,1380345,2019-08-16 11:52:24:714,-0.2054,-0.3401,11.2572,-0.0222,0.0319,9.8066,-0.0256,-0.006,-0.0149,-12.75,22.43,-15.31,237.47,4.7,2.37
13804,52.01873,-2.021176,85,17.3,10.0,233.8,,19 / 25,1380445,2019-08-16 11:52:24:814,-0.1028,-0.0512,10.4129,0.013,-0.0217,9.8066,-0.0437,-0.0252,-0.0043,-12.6,22.17,-15.81,235.94,4.79,2.58
13805,52.01873,-2.021176,85,17.3,10.0,233.8,,19 / 25,1380545,2019-08-16 11:52:24:914,-0.0853,-0.1527,8.895,0.012,-0.0501,9.8065,-0.017,0.0462,-0.0032,-12.75,21.94,-15.99,236.14,4.58,2.36
13806,52.01873,-2.021176,85,17.3,10.0,233.8,,19 / 25,1380645,2019-08-16 11:52:25:014,-0.3457,-0.2281,10.6669,-0.0145,-0.0274,9.8066,-0.0085,0.0909,-0.0298,-12.75,21.94,-15.99,236.14,4.58,2.36
13807,52.01873,-2.021176,85,17.3,10.0,233.8,,19 / 25,1380745,2019-08-16 11:52:25:114,0.4817,0.0286,7.4883,0.013,-0.0215,9.8066,-0.0437,-0.0529,0.0149,-12.75,21.94,-15.99,236.24,4.4,2.34
13808,52.01873,-2.021176,85,17.3,10.0,233.8,,19 / 25,1380845,2019-08-16 11:52:25:214,0.6293,-0.4929,9.726,0.0453,-0.0303,9.8065,0.0469,0.0931,-0.1225,-12.16,21.94,-16.45,238.22,4.34,2.2
13809,52.01873,-2.021176,85,17.3,10.0,233.8,,19 / 25,1380945,2019-08-16 11:52:25:314,-0.7668,0.3297,10.4913,0.0039,0.046,9.8065,0.0213,-0.0955,-0.0362,-12.16,21.94,-16.45,238.22,4.34,2.2
13810,52.01873,-2.021176,85,17.3,10.0,233.8,,19 / 25,1381045,2019-08-16 11:52:25:414,-1.6685,-1.2243,6.1281,0.0288,-0.1038,9.8061,-0.0415,-0.0944,0.032,-12.93,21.28,-16.73,234.67,4.58,2.33
13811,52.01873,-2.021176,85,17.3,10.0,233.8,,19 / 25,1381147,2019-08-16 11:52:25:516,1.4142,-1.1702,9.3689,0.0799,-0.1288,9.8055,-0.0415,-0.0944,0.032,-12.3,21.72,-16.64,238.38,4.24,1.51
13812,52.018665,-2.021346,85,16.53,10.0,234.3,,19 / 25,1381245,2019-08-16 11:52:25:614,0.4101,-0.4047,9.8979,-0.0497,-0.0167,9.8065,-0.033,0.0451,0.0224,-12.46,21.45,-16.87,238.38,4.24,1.51
13813,52.018665,-2.021346,85,16.53,10.0,234.3,,19 / 25,1381345,2019-08-16 11:52:25:714,-0.4929,-0.4031,9.6363,-0.1049,0.001,9.8061,0.0139,0.0004,0.0117,-12.46,21.45,-16.87,238.38,4.24,1.51
13814,52.018665,-2.021346,85,16.53,10.0,234.3,,19 / 25,1381446,2019-08-16 11:52:25:815,-0.2679,1.2606,9.773,-0.1224,-0.0024,9.8059,0.0021,-0.0838,-0.0405,-12.89,22.25,-15.46,236.79,3.85,2.11
13815,52.018665,-2.021346,85,16.53,10.0,234.3,,19 / 25,1381545,2019-08-16 11:52:25:914,-0.1166,0.3647,8.7814,0.1053,0.085,9.8057,0.1087,0.0142,-0.0011,-12.11,22.43,-15.82,238.21,4.6,1.87
13816,52.018665,-2.021346,85,16.53,10.0,234.3,,19 / 25,1381646,2019-08-16 11:52:26:015,-0.2443,0.2347,10.0673,-0.0726,-0.0206,9.8064,0.0746,0.0632,0.0266,-12.11,22.43,-15.82,238.21,4.6,1.87
13817,52.018665,-2.021346,85,16.53,10.0,234.3,,19 / 25,1381745,2019-08-16 11:52:26:114,-1.0038,0.1769,10.7998,-0.0292,0.0305,9.8066,0.033,0.0142,0.0256,-12.42,22.4,-15.63,238.27,4.28,2.17
13818,52.018665,-2.021346,85,16.53,10.0,234.3,,19 / 25,1381845,2019-08-16 11:52:26:214,-0.0609,-0.0938,8.9226,-0.0579,0.0118,9.8065,0.033,0.0142,0.0256,-12.27,22.71,-15.29,239.55,4.16,2.49
13819,52.018665,-2.021346,85,16.53,10.0,234.3,,19 / 25,1381945,2019-08-16 11:52:26:314,-0.0249,-0.1227,10.0531,-0.0042,-0.0096,9.8066,-0.0138,0.0078,-0.0053,-12.27,22.71,-15.29,239.55,4.16,2.49
13820,52.018665,-2.021346,85,16.53,10.0,234.3,,19 / 25,1382045,2019-08-16 11:52:26:414,-0.1688,0.0324,9.5299,-0.0069,0.0036,9.8066,0.0181,0.0078,-0.0213,-12.16,21.94,-16.45,238.24,4.1,2.48
13821,52.018665,-2.021346,85,16.53,10.0,234.3,,19 / 25,1382145,2019-08-16 11:52:26:514,-0.0039,0.0828,9.6536,0.0,0.0007,9.8066,-0.0501,-0.0412,-0.0075,-10.93,23.91,-14.45,242.73,4.1,2.49
13822,52.01858,-2.021517,84,16.56,10.0,234.7,,19 / 25,1382245,2019-08-16 11:52:26:614,0.2668,0.1388,9.3491,0.0491,0.0114,9.8065,-0.0224,-0.0167,-0.016,-13.72,22.87,-13.74,242.73,4.1,2.49
13823,52.01858,-2.021517,84,16.56,10.0,234.7,,19 / 25,1382346,2019-08-16 11:52:26:715,0.5583,0.0012,9.518,0.0824,0.0357,9.8062,-0.0074,0.0196,-0.0192,-13.72,22.87,-13.74,242.73,4.1,2.49
13824,52.01858,-2.021517,84,16.56,10.0,234.7,,19 / 25,1382445,2019-08-16 11:52:26:814,-0.068,-0.4476,10.0315,0.0964,0.0233,9.8061,0.0,-0.0145,-0.0117,-11.56,21.64,-17.27,238.01,4.48,2.05
13825,52.01858,-2.021517,84,16.56,10.0,234.7,,19 / 25,1382545,2019-08-16 11:52:26:914,-0.2663,-0.3973,9.7211,-0.0208,-0.0423,9.8065,0.0,-0.0145,-0.0117,-11.56,21.64,-17.27,238.01,4.48,2.05
13826,52.01858,-2.021517,84,16.56,10.0,234.7,,19 / 25,1382646,2019-08-16 11:52:27:015,-0.1315,-0.7005,9.1732,-0.0173,-0.0401,9.8066,0.0117,0.0291,0.0053,-11.43,20.79,-18.37,238.76,4.21,2.02
13827,52.01858,-2.021517,84,16.56,10.0,234.7,,19 / 25,1382745,2019-08-16 11:52:27:114,0.0534,0.0732,10.0148,-0.0339,-0.0631,9.8064,-0.0085,0.0185,-0.0011,-13.34,21.12,-16.62,238.76,4.21,2.02
13828,52.01858,-2.021517,84,16.56,10.0,234.7,,19 / 25,1382846,2019-08-16 11:52:27:215,0.5384,0.2014,10.4896,0.0025,0.036,9.8066,0.0277,-0.0113,-0.0043,-13.87,21.86,-15.16,235.03,3.79,2.0
13829,52.01858,-2.021517,84,16.56,10.0,234.7,,19 / 25,1382946,2019-08-16 11:52:27:315,0.3369,0.1723,9.8466,0.0205,0.0664,9.8064,0.0171,-0.0252,-0.0501,-12.57,22.68,-15.09,237.81,4.17,2.12
13830,52.01858,-2.021517,84,16.56,10.0,234.7,,19 / 25,1383046,2019-08-16 11:52:27:415,-0.0066,0.2041,8.9611,0.0364,0.056,9.8064,-0.0064,-0.0018,-0.0181,-12.57,22.68,-15.09,237.81,4.17,2.12
13831,52.01858,-2.021517,84,16.56,10.0,234.7,,19 / 25,1383146,2019-08-16 11:52:27:515,-0.0965,-0.0766,9.7497,-0.0141,-0.0162,9.8066,-0.0181,0.0142,0.0085,-11.97,22.64,-15.63,239.29,4.56,2.12
13832,52.01848,-2.021746,84,17.33,10.0,235.1,,19 / 25,1383245,2019-08-16 11:52:27:614,-0.6654,-0.2368,9.9519,-0.0227,-0.0422,9.8065,0.0128,0.0217,0.0202,-12.11,22.9,-15.14,239.29,4.56,2.12
13833,52.01848,-2.021746,84,17.33,10.0,235.1,,19 / 25,1383345,2019-08-16 11:52:27:714,-0.3319,-0.4465,11.2186,0.0066,-0.0246,9.8066,0.0128,0.0217,0.0202,-11.86,23.56,-14.28,240.87,4.28,2.1
13834,52.01848,-2.021746,84,17.33,10.0,235.1,,19 / 25,1383446,2019-08-16 11:52:27:815,-0.2821,-0.3004,10.0074,-0.0032,-0.0765,9.8064,-0.016,0.0696,-0.0362,-12.98,23.43,-13.51,238.19,3.89,1.9
13835,52.01848,-2.021746,84,17.33,10.0,235.1,,19 / 25,1383546,2019-08-16 11:52:27:915,0.0966,0.0988,8.952,0.0211,0.0127,9.8066,0.0107,-0.0113,-0.0043,-12.98,23.43,-13.51,238.19,3.89,1.9
13836,52.01848,-2.021746,84,17.33,10.0,235.1,,19 / 25,1383646,2019-08-16 11:52:28:015,1.871,0.9385,10.035,0.0246,0.0392,9.8065,-0.0351,-0.038,0.0288,-12.39,22.92,-14.87,239.89,3.92,1.86
13837,52.01848,-2.021746,84,17.33,10.0,235.1,,19 / 25,1383745,2019-08-16 11:52:28:114,-0.0014,0.6328,9.3914,0.0244,0.0952,9.8062,0.0171,0.0014,0.0138,-12.11,22.9,-15.14,239.89,3.92,1.86
13838,52.01848,-2.021746,84,17.33,10.0,235.1,,19 / 25,1383846,2019-08-16 11:52:28:215,-0.4997,0.2369,9.7288,-0.007,0.0149,9.8066,0.0085,0.0132,0.033,-10.74,23.41,-15.39,241.49,4.48,2.01
13839,52.01848,-2.021746,84,17.33,10.0,235.1,,19 / 25,1383945,2019-08-16 11:52:28:314,-0.2575,0.3925,9.0421,-0.0135,0.0191,9.8066,-0.0128,0.0014,-0.0085,-8.08,23.32,-17.05,247.22,4.54,2.14
13840,52.01848,-2.021746,84,17.33,10.0,235.1,,19 / 25,1384045,2019-08-16 11:52:28:414,0.034,-0.3005,9.7625,-0.01,-0.0282,9.8066,-0.0298,0.0398,0.0032,-7.32,21.18,-19.95,247.22,4.54,2.14
13841,52.01848,-2.021746,84,17.33,10.0,235.1,,19 / 25,1384146,2019-08-16 11:52:28:515,-0.0798,-0.243,10.3631,-0.0295,-0.0832,9.8063,0.0266,0.0409,0.0128,-13.65,20.79,-16.78,233.24,4.02,2.11
13842,52.018375,-2.021972,82,17.86,10.0,235.2,,19 / 25,1384245,2019-08-16 11:52:28:614,0.504,0.1444,6.8802,-0.0227,0.004,9.8066,-0.0085,-0.0422,-0.0341,-14.03,21.95,-14.88,233.24,4.02,2.11
13843,52.018375,-2.021972,82,17.86,10.0,235.2,,19 / 25,1384346,2019-08-16 11:52:28:715,-0.2463,-0.059,9.5777,-0.0493,0.0203,9.8065,-0.0085,-0.0422,-0.0341,-14.03,21.95,-14.88,233.24,4.02,2.11
13844,52.018375,-2.021972,82,17.86,10.0,235.2,,19 / 25,1384446,2019-08-16 11:52:28:815,-0.5312,-0.0937,8.7318,-0.019,-0.0032,9.8066,0.033,-0.0678,-0.0384,-12.69,22.9,-14.65,237.72,4.12,2.43
13845,52.018375,-2.021972,82,17.86,10.0,235.2,,19 / 25,1384546,2019-08-16 11:52:28:915,0.2097,0.2125,9.831,0.0493,0.0183,9.8065,-0.0213,-0.0369,0.033,-12.19,23.12,-14.73,239.59,4.04,2.52
13846,52.018375,-2.021972,82,17.86,10.0,235.2,,19 / 25,1384645,2019-08-16 11:52:29:014,-0.1239,0.0357,9.2405,0.0745,0.0623,9.8062,0.0171,0.0259,0.0149,-12.19,23.12,-14.73,239.59,4.04,2.52
13847,52.018375,-2.021972,82,17.86,10.0,235.2,,19 / 25,1384745,2019-08-16 11:52:29:114,0.0142,-0.0004,9.7758,0.0045,0.016,9.8066,0.0171,0.0334,0.0128,-11.83,23.5,-14.41,240.67,4.58,2.33
13848,52.018375,-2.021972,82,17.86,10.0,235.2,,19 / 25,1384845,2019-08-16 11:52:29:214,-0.4129,0.4989,8.8419,-0.0238,0.0549,9.8065,0.033,0.0366,0.0202,-12.53,22.61,-15.23,240.67,4.58,2.33
13849,52.018375,-2.021972,82,17.86,10.0,235.2,,19 / 25,1384946,2019-08-16 11:52:29:315,-0.6282,-0.518,10.2268,-0.0952,0.0411,9.8061,-0.0064,0.109,0.0298,-11.99,23.24,-14.7,239.2,4.51,2.93
13850,52.018375,-2.021972,82,17.86,10.0,235.2,,19 / 25,1385045,2019-08-16 11:52:29:414,0.4744,-0.0444,7.3716,-0.0274,-0.0122,9.8066,-0.0042,-0.0987,-0.0021,-11.99,23.24,-14.7,239.2,4.51,2.93
13851,52.018375,-2.021972,82,17.86,10.0,235.2,,19 / 25,1385145,2019-08-16 11:52:29:514,-0.6667,0.4232,9.6779,0.0019,0.0114,9.8066,-0.0042,-0.0987,-0.0021,-11.87,23.02,-15.13,239.24,4.37,3.03
13852,52.018284,-2.022198,82,17.68,10.0,235.3,,19 / 25,1385245,2019-08-16 11:52:29:614,-0.344,-0.2323,9.9728,0.0354,0.0447,9.8065,-0.0256,0.0387,0.0288,-11.48,22.62,-16.01,240.8,4.7,2.99
13853,52.018284,-2.022198,82,17.68,10.0,235.3,,19 / 25,1385345,2019-08-16 11:52:29:714,0.3702,-0.8201,10.6706,0.0001,0.0006,9.8067,-0.0554,0.0984,0.0192,-11.93,22.0,-16.54,240.8,4.7,2.99
13854,52.018284,-2.022198,82,17.68,10.0,235.3,,19 / 25,1385445,2019-08-16 11:52:29:814,-0.1123,-0.1459,9.8536,0.011,-0.0503,9.8065,0.0075,0.0334,-0.0085,-12.52,22.02,-16.08,236.01,4.47,2.79
13855,52.018284,-2.022198,82,17.68,10.0,235.3,,19 / 25,1385545,2019-08-16 11:52:29:914,0.149,-0.3925,9.7737,-0.001,-0.0188,9.8066,0.0565,0.0142,0.0149,-11.67,21.89,-16.88,237.77,4.38,2.73
13856,52.018284,-2.022198,82,17.68,10.0,235.3,,19 / 25,1385646,2019-08-16 11:52:30:015,-0.0719,-0.0488,10.0782,-0.0301,-0.004,9.8066,0.0298,-0.0465,-0.0021,-11.67,21.89,-16.88,237.77,4.38,2.73
13857,52.018284,-2.022198,82,17.68,10.0,235.3,,19 / 25,1385745,2019-08-16 11:52:30:114,-0.1365,0.0609,9.8631,-0.0462,0.0338,9.8065,-0.0277,-0.0646,0.0,-11.04,22.76,-16.13,240.94,4.4,3.07
13858,52.018284,-2.022198,82,17.68,10.0,235.3,,19 / 25,1385845,2019-08-16 11:52:30:214,0.4726,0.064,9.876,0.0072,0.0301,9.8066,-0.033,-0.0156,-0.0096,-11.04,22.76,-16.13,240.94,4.4,3.07
13859,52.018284,-2.022198,82,17.68,10.0,235.3,,19 / 25,1385946,2019-08-16 11:52:30:315,0.1065,-0.2712,9.8164,0.0315,0.0079,9.8066,-0.033,-0.0156,-0.0096,-11.35,22.27,-16.58,239.46,4.58,3.12
13860,52.018284,-2.022198,82,17.68,10.0,235.3,,19 / 25,1386046,2019-08-16 11:52:30:415,-0.1506,0.0732,9.6998,0.0464,-0.0018,9.8065,0.0181,0.0217,0.0032,-11.29,22.71,-16.02,239.46,4.58,3.12
13861,52.018284,-2.022198,82,17.68,10.0,235.3,,19 / 25,1386145,2019-08-16 11:52:30:514,0.0508,-0.0019,9.1306,0.0464,-0.0018,9.8065,0.0107,-0.0156,0.0021,-11.45,22.47,-16.25,239.71,4.7,2.88
13862,52.018185,-2.02244,82,17.6,10.0,235.4,,19 / 25,1386245,2019-08-16 11:52:30:614,-0.0007,-0.3557,10.1063,-0.0048,-0.022,9.8066,0.0032,0.0441,-0.0064,-11.02,22.18,-16.93,239.58,4.58,2.83
13863,52.018185,-2.02244,82,17.6,10.0,235.4,,19 / 25,1386346,2019-08-16 11:52:30:715,-0.0085,-0.0953,10.3086,0.0072,-0.0194,9.8066,-0.0053,0.0121,-0.0075,-11.02,22.18,-16.93,239.58,4.58,2.83
13864,52.018185,-2.02244,82,17.6,10.0,235.4,,19 / 25,1386445,2019-08-16 11:52:30:814,-0.2285,-0.4212,9.6151,0.0269,-0.0098,9.8066,-0.0021,-0.0348,0.0,-11.5,22.03,-16.81,239.67,4.5,2.74
13865,52.018185,-2.02244,82,17.6,10.0,235.4,,19 / 25,1386546,2019-08-16 11:52:30:915,0.8019,0.2069,9.865,0.0324,-0.0167,9.8066,-0.0426,0.0483,-0.0107,-11.72,23.01,-15.28,239.33,4.53,2.58
13866,52.018185,-2.02244,82,17.6,10.0,235.4,,19 / 25,1386645,2019-08-16 11:52:31:014,0.7033,0.2296,9.7728,0.0522,-0.0169,9.8065,0.0,-0.0039,-0.0298,-11.72,23.01,-15.28,239.33,4.53,2.58
13867,52.018185,-2.02244,82,17.6,10.0,235.4,,19 / 25,1386745,2019-08-16 11:52:31:114,-0.2205,0.1342,8.9681,0.0311,0.0091,9.8066,0.0053,-0.0081,-0.0298,-11.89,22.77,-15.5,239.41,4.6,2.26
13868,52.018185,-2.02244,82,17.6,10.0,235.4,,19 / 25,1386845,2019-08-16 11:52:31:214,0.0103,0.0164,9.2118,0.0581,0.0275,9.8064,-0.0128,0.011,0.0021,-11.69,22.93,-15.42,239.33,4.91,2.05
13869,52.018185,-2.02244,82,17.6,10.0,235.4,,19 / 25,1386946,2019-08-16 11:52:31:315,0.1434,-0.0573,9.8921,0.0094,0.0053,9.8066,-0.0128,0.011,0.0021,-11.69,22.93,-15.42,239.33,4.91,2.05
13870,52.018185,-2.02244,82,17.6,10.0,235.4,,19 / 25,1387045,2019-08-16 11:52:31:414,0.1593,0.134,10.2558,0.0091,0.0037,9.8066,-0.0011,0.0132,-0.0053,-11.25,22.64,-16.15,241.03,4.97,2.02
13871,52.018185,-2.02244,82,17.6,10.0,235.4,,19 / 25,1387145,2019-08-16 11:52:31:514,0.0139,0.1703,9.7324,0.0224,0.01,9.8066,-0.0245,0.0313,-0.0021,-11.05,22.83,-16.03,241.03,4.97,2.02
13872,52.018093,-2.022643,83,17.69,10.0,235.9,,19 / 25,1387245,2019-08-16 11:52:31:614,0.1848,0.0232,10.1661,0.0151,-0.0158,9.8066,-0.016,0.0387,0.0043,-9.86,23.33,-16.07,243.08,5.01,1.8
13873,52.018093,-2.022643,83,17.69,10.0,235.9,,19 / 25,1387345,2019-08-16 11:52:31:714,0.059,-0.1479,9.9691,0.0164,-0.0285,9.8066,-0.0011,0.0142,-0.0085,-12.06,23.31,-14.53,243.08,5.01,1.8
