,GPS LATITUDE (degrees),GPS LONGITUDE (degrees), GPS ALTITUDE (m),GPS SPEED (Kmh),GPS ACCURACY (m),GPS ORIENTATION (Â°), SATELLITES IN RANGE, TIME SINCE START (ms), DATE (YYYY-MO-DD HH-MI-SS_SSS),ACCELEROMETER X (m/s²) , ACCELEROMETER Y (m/s²), ACCELEROMETER Z (m/s²), GRAVITY X (m/s²), GRAVITY Y (m/s²), GRAVITY Z (m/s²), GYROSCOPE Yaw (rad/s), GYROSCOPE Pitch (rad/s), GYROSCOPE Roll (rad/s)
53574,46.12456,-0.53137,101.61,8.68,11.792,13.2,Dec-19,2652228,2019-08-12 11:08:54:718,-0.6091,0.0116,9.8005,-0.7622,0.0456,9.7769,0.0007,-0.0008,0.0015
53575,46.12456,-0.53137,101.61,8.68,11.792,13.2,Dec-19,2652229,2019-08-12 11:08:54:719,-0.6091,0.0116,9.8005,-0.7622,0.0456,9.7769,0.0007,-0.0008,0.0015
53576,46.12456,-0.53137,101.61,8.68,11.792,13.2,Dec-19,2652298,2019-08-12 11:08:54:788,-0.6091,0.0116,9.8005,-0.7622,0.0456,9.7769,0.0007,-0.0008,0.0015
53577,46.12456,-0.53137,101.61,8.68,11.792,13.2,Dec-19,2652692,2019-08-12 11:08:55:182,-0.6091,0.0116,9.8005,-0.7622,0.0456,9.7769,0.0007,-0.0008,0.0015
53578,46.12456,-0.53137,101.61,8.68,11.792,13.2,Dec-19,2652693,2019-08-12 11:08:55:183,-0.6091,0.0116,9.8005,-0.7622,0.0456,9.7769,0.0007,-0.0008,0.0015
53579,46.12456,-0.53137,101.61,8.68,11.792,13.2,Dec-19,2652694,2019-08-12 11:08:55:184,-0.6091,0.0116,9.8005,-0.7622,0.0456,9.7769,0.0007,-0.0008,0.0015
53580,46.12456,-0.53137,101.61,8.68,11.792,13.2,Dec-19,2652694,2019-08-12 11:08:55:184,-0.6091,0.0116,9.8005,-0.7622,0.0456,9.7769,0.0007,-0.0008,0.0015
53581,46.12456,-0.53137,101.61,8.68,11.792,13.2,Dec-19,2652694,2019-08-12 11:08:55:184,-0.6091,0.0116,9.8005,-0.7622,0.0456,9.7769,0.0007,-0.0008,0.0015
53582,46.12456,-0.53137,101.61,8.68,11.792,13.2,Dec-19,2652695,2019-08-12 11:08:55:185,-0.6091,0.0116,9.8005,-0.7622,0.0456,9.7769,0.0007,-0.0008,0.0015
53583,46.12456,-0.53137,101.61,8.68,11.792,13.2,Dec-19,2652695,2019-08-12 11:08:55:185,-0.6091,0.0116,9.8005,-0.7622,0.0456,9.7769,0.0007,-0.0008,0.0015
53584,46.12456,-0.53137,101.61,8.68,11.792,13.2,Dec-19,2652697,2019-08-12 11:08:55:187,-0.6091,0.0116,9.8005,-0.7622,0.0456,9.7769,0.0007,-0.0008,0.0015
53585,46.12456,-0.53137,101.61,8.68,11.792,13.2,Dec-19,2652796,2019-08-12 11:08:55:286,-0.6091,0.0116,9.8005,-0.7622,0.0456,9.7769,0.0007,-0.0008,0.0015
53586,46.12456,-0.53137,101.61,8.68,11.792,13.2,Dec-19,2652896,2019-08-12 11:08:55:386,-0.6091,0.0116,9.8005,-0.7622,0.0456,9.7769,0.0007,-0.0008,0.0015
53587,46.12456,-0.53137,101.61,8.68,11.792,13.2,Dec-19,2652996,2019-08-12 11:08:55:486,-1.0976,-0.0267,9.8921,-0.7889,0.017,9.7749,0.0039,-0.0061,-0.0007
53588,46.12456,-0.53137,101.61,8.68,11.792,13.2,Dec-19,2653097,2019-08-12 11:08:55:587,-0.7702,-0.0315,9.7688,-0.8546,0.0085,9.7693,-0.0014,0.0056,-0.0017
53589,46.12456,-0.53137,101.61,8.68,11.792,13.2,Dec-19,2653197,2019-08-12 11:08:55:687,-1.0365,-0.0309,10.0585,-0.8739,0.0092,9.7676,0.0018,0.0003,-0.0017
53590,46.12456,-0.53137,101.61,8.68,11.792,13.2,Dec-19,2653297,2019-08-12 11:08:55:787,-1.1035,0.0547,9.9418,-0.8853,0.0038,9.7666,-0.0036,0.0035,-0.0028
53591,46.12456,-0.53137,101.61,8.68,11.792,13.2,Dec-19,2653398,2019-08-12 11:08:55:888,-1.1844,-0.0608,9.8005,-0.8944,0.0048,9.7658,-0.0004,0.0003,0.0004
53592,46.12456,-0.53137,101.61,8.68,11.792,13.2,Dec-19,2653498,2019-08-12 11:08:55:988,-1.1233,-0.0447,9.8616,-0.9747,-0.0078,9.7581,-0.0068,-0.0008,-0.0049
53593,46.12456,-0.53137,101.61,8.68,11.792,13.2,Dec-19,2653598,2019-08-12 11:08:56:088,-1.1233,-0.1057,9.9232,-1.0127,-0.0217,9.7542,0.005,0.0024,-0.0092
53594,46.12456,-0.53137,101.61,8.68,11.792,13.2,Dec-19,2653697,2019-08-12 11:08:56:187,-0.9982,0.0445,9.8885,-1.043,-0.0346,9.751,-0.0068,-0.005,-0.0092
53595,46.12456,-0.53137,101.61,8.68,11.792,13.2,Dec-19,2653799,2019-08-12 11:08:56:289,-0.6127,0.0289,9.8502,-1.0353,-0.0253,9.7518,0.0007,-0.0082,-0.006
53596,46.12456,-0.53137,101.61,8.68,11.792,13.2,Dec-19,2653898,2019-08-12 11:08:56:388,-0.4493,-0.0519,9.8023,-1.0046,-0.0238,9.755,0.0018,0.0003,-0.0017
53597,46.12456,-0.53137,101.61,8.68,11.792,13.2,Dec-19,2653996,2019-08-12 11:08:56:486,-0.4314,0.0152,9.7856,-0.9841,-0.025,9.7571,-0.0046,-0.0018,-0.0007
53598,46.12456,-0.53137,101.61,8.68,11.792,13.2,Dec-19,2654098,2019-08-12 11:08:56:588,-0.4427,-0.0423,9.7239,-0.8218,-0.0259,9.7721,-0.0025,-0.0008,-0.0028
53599,46.12456,-0.53137,101.61,8.68,11.792,13.2,Dec-19,2654197,2019-08-12 11:08:56:687,-0.414,0.0254,9.7874,-0.7386,-0.0298,9.7787,-0.0099,0.0003,-0.0028
53600,46.12456,-0.53137,101.61,8.68,11.792,13.2,Dec-19,2654296,2019-08-12 11:08:56:786,-0.4769,-0.062,9.7467,-0.6471,-0.0242,9.7852,-0.0014,-0.0029,0.0015
53601,46.12456,-0.53137,101.61,8.68,11.792,13.2,Dec-19,2654397,2019-08-12 11:08:56:887,-0.4433,0.026,9.8077,-0.6026,-0.0316,9.7881,-0.0004,-0.0008,-0.0017
53602,46.12456,-0.53137,101.61,8.68,11.792,13.2,Dec-19,2654498,2019-08-12 11:08:56:988,-0.4553,-0.0112,9.6227,-0.5564,-0.0285,9.7908,0.0039,0.0003,-0.0007
53603,46.12456,-0.53137,101.61,8.68,11.792,13.2,Dec-19,2654598,2019-08-12 11:08:57:088,-0.4481,-0.001,9.998,-0.5345,-0.0264,9.792,-0.0025,0.0046,-0.0017
53604,46.12456,-0.53137,101.61,8.68,11.792,13.2,Dec-19,2654697,2019-08-12 11:08:57:187,-0.4649,-0.0321,10.1698,-0.5144,-0.0199,9.7931,-0.0004,-0.0029,-0.0017
53605,46.12456,-0.53137,101.61,8.68,11.792,13.2,Dec-19,2654797,2019-08-12 11:08:57:287,-0.4469,-0.0968,9.7401,-0.5024,-0.0221,9.7938,-0.0025,0.0014,0.0015
53606,46.12456,-0.53137,101.61,8.68,11.792,13.2,Dec-19,2654897,2019-08-12 11:08:57:387,-0.4547,-0.0698,9.9627,-0.4929,-0.0297,9.7942,-0.0004,0.0014,-0.0007
53607,46.12456,-0.53137,101.61,8.68,11.792,13.2,Dec-19,2654997,2019-08-12 11:08:57:487,-0.4601,-0.0249,9.7796,-0.4852,-0.0316,9.7946,0.0007,-0.0029,0.0004
53608,46.12456,-0.53137,101.61,8.68,11.792,13.2,Dec-19,2655097,2019-08-12 11:08:57:587,-0.4763,-0.0387,9.8472,-0.484,-0.0352,9.7946,-0.0046,0.0067,-0.0007
53609,46.12456,-0.53137,101.61,8.68,11.792,13.2,Dec-19,2655196,2019-08-12 11:08:57:686,-0.4882,-0.0566,9.9346,-0.4825,-0.0256,9.7947,0.0028,-0.0082,0.0015
53610,46.12456,-0.53137,101.61,8.68,11.792,13.2,Dec-19,2655297,2019-08-12 11:08:57:787,-0.4499,0.002,9.8508,-0.4763,-0.0256,9.795,0.0007,-0.004,0.0004
53611,46.12456,-0.53137,101.61,8.68,11.792,13.2,Dec-19,2655397,2019-08-12 11:08:57:887,-0.4613,0.0295,9.6982,-0.4787,-0.0178,9.7949,-0.0004,0.0046,-0.0007
53612,46.12456,-0.53137,101.61,8.68,11.792,13.2,Dec-19,2655496,2019-08-12 11:08:57:986,-0.5044,-0.0285,9.9316,-0.4776,-0.0218,9.795,0.0028,-0.0018,0.0015
53613,46.12456,-0.53137,101.61,8.68,11.792,13.2,Dec-19,2655596,2019-08-12 11:08:58:086,-0.4781,-0.0578,9.9657,-0.4785,-0.0296,9.7949,-0.0089,0.0003,-0.0007
53614,46.12456,-0.53137,101.61,8.68,11.792,13.2,Dec-19,2655696,2019-08-12 11:08:58:186,-0.4068,-0.0686,9.7622,-0.4735,-0.0205,9.7952,0.0018,-0.0008,0.0004
53615,46.12456,-0.53137,101.61,8.68,11.792,13.2,Dec-19,2655797,2019-08-12 11:08:58:287,-0.3769,-0.1512,9.8209,-0.4464,-0.0374,9.7964,0.0018,-0.0072,0.0015
53616,46.12456,-0.53137,101.61,8.68,11.792,13.2,Dec-19,2655897,2019-08-12 11:08:58:387,-0.3685,0.0403,9.6862,-0.4314,-0.0332,9.7971,-0.0004,0.0014,-0.0017
53617,46.12456,-0.53137,101.61,8.68,11.792,13.2,Dec-19,2655997,2019-08-12 11:08:58:487,-0.3979,-0.0435,9.9298,-0.4165,-0.0263,9.7978,0.0039,-0.0008,0.0004
53618,46.12456,-0.53137,101.61,8.68,11.792,13.2,Dec-19,2656096,2019-08-12 11:08:58:586,-0.3595,0.0307,9.6832,-0.405,-0.0284,9.7982,-0.011,-0.0008,-0.0017
53619,46.12456,-0.53137,101.61,8.68,11.792,13.2,Dec-19,2656197,2019-08-12 11:08:58:687,-0.353,-0.089,9.858,-0.3887,-0.0272,9.7989,0.0018,-0.0029,0.0004
53620,46.12456,-0.53137,101.61,8.68,11.792,13.2,Dec-19,2656296,2019-08-12 11:08:58:786,-0.3392,-0.1213,9.7598,-0.381,-0.0353,9.7992,0.005,0.0003,0.0004
53621,46.12456,-0.53137,101.61,8.68,11.792,13.2,Dec-19,2656397,2019-08-12 11:08:58:887,-0.3679,0.0056,9.861,-0.3739,-0.0355,9.7995,-0.0036,-0.0018,-0.0017
53622,46.12456,-0.53137,101.61,8.68,11.792,13.2,Dec-19,2656497,2019-08-12 11:08:58:987,-0.3877,-0.0004,9.7299,-0.3697,-0.0297,9.7996,0.0039,0.0014,-0.0007
53623,46.12456,-0.53137,101.61,8.68,11.792,13.2,Dec-19,2656597,2019-08-12 11:08:59:087,-0.496,-0.0854,9.7826,-0.3871,-0.0372,9.7989,-0.0089,0.0078,-0.0007
53624,46.12456,-0.53137,101.61,8.68,11.792,13.2,Dec-19,2656697,2019-08-12 11:08:59:187,-0.7037,-0.1219,9.9166,-0.4102,-0.0309,9.798,0.0039,0.0014,-0.0007
53625,46.12456,-0.53137,101.61,8.68,11.792,13.2,Dec-19,2656797,2019-08-12 11:08:59:287,-1.0551,0.0194,9.6832,-0.4345,-0.028,9.797,0.006,0.0078,0.0004
53626,46.12456,-0.53137,101.61,8.68,11.792,13.2,Dec-19,2656897,2019-08-12 11:08:59:387,-1.1939,-0.0088,9.828,-0.4654,-0.0236,9.7956,0.0039,0.012,-0.0007
53627,46.12456,-0.53137,101.61,8.68,11.792,13.2,Dec-19,2656997,2019-08-12 11:08:59:487,-1.2699,0.0176,9.691,-0.4965,-0.0216,9.7941,0.0028,0.0078,-0.0007
53628,46.12456,-0.53137,101.61,8.68,11.792,13.2,Dec-19,2657097,2019-08-12 11:08:59:587,-0.1848,0.0397,9.9202,-0.6622,-0.0117,9.7843,-0.0078,-0.0125,-0.0007
53629,46.12456,-0.53137,101.61,8.68,11.792,13.2,Dec-19,2657197,2019-08-12 11:08:59:687,0.8866,-0.0806,9.6802,-0.6006,-0.0196,9.7882,-0.0046,-0.0423,-0.0017
53630,46.12456,-0.53137,101.61,8.68,11.792,13.2,Dec-19,2657612,2019-08-12 11:09:00:102,0.8765,-0.0405,10.5499,-0.5187,-0.026,9.7929,-0.0025,-0.0434,-0.0007
53631,46.12456,-0.53137,101.61,8.68,11.792,13.2,Dec-19,2657612,2019-08-12 11:09:00:102,0.8765,-0.0405,10.5499,-0.5187,-0.026,9.7929,-0.0025,-0.0434,-0.0007
53632,46.12456,-0.53137,101.61,8.68,11.792,13.2,Dec-19,2657613,2019-08-12 11:09:00:103,0.8765,-0.0405,10.5499,-0.5187,-0.026,9.7929,-0.0025,-0.0434,-0.0007
53633,46.12456,-0.53137,101.61,8.68,11.792,13.2,Dec-19,2657613,2019-08-12 11:09:00:103,0.8765,-0.0405,10.5499,-0.5187,-0.026,9.7929,-0.0025,-0.0434,-0.0007
53634,46.12456,-0.53137,101.61,8.68,11.792,13.2,Dec-19,2657613,2019-08-12 11:09:00:103,0.8765,-0.0405,10.5499,-0.5187,-0.026,9.7929,-0.0025,-0.0434,-0.0007
53635,46.12456,-0.53137,101.61,8.68,11.792,13.2,Dec-19,2657614,2019-08-12 11:09:00:104,0.8765,-0.0405,10.5499,-0.5187,-0.026,9.7929,-0.0025,-0.0434,-0.0007
53636,46.12456,-0.53137,101.61,8.68,11.792,13.2,Dec-19,2657614,2019-08-12 11:09:00:104,0.8765,-0.0405,10.5499,-0.5187,-0.026,9.7929,-0.0025,-0.0434,-0.0007
53637,46.12456,-0.53137,101.61,8.68,11.792,13.2,Dec-19,2657614,2019-08-12 11:09:00:104,0.8765,-0.0405,10.5499,-0.5187,-0.026,9.7929,-0.0025,-0.0434,-0.0007
53638,46.12456,-0.53137,101.61,8.68,11.792,13.2,Dec-19,2657615,2019-08-12 11:09:00:105,0.8765,-0.0405,10.5499,-0.5187,-0.026,9.7929,-0.0025,-0.0434,-0.0007
53639,46.12456,-0.53137,101.61,8.68,11.792,13.2,Dec-19,2657615,2019-08-12 11:09:00:105,0.8765,-0.0405,10.5499,-0.5187,-0.026,9.7929,-0.0025,-0.0434,-0.0007
53640,46.12456,-0.53137,101.61,8.68,11.792,13.2,Dec-19,2657616,2019-08-12 11:09:00:106,0.8765,-0.0405,10.5499,-0.5187,-0.026,9.7929,-0.0025,-0.0434,-0.0007
53641,46.12456,-0.53137,101.61,8.68,11.792,13.2,Dec-19,2657616,2019-08-12 11:09:00:106,0.8765,-0.0405,10.5499,-0.5187,-0.026,9.7929,-0.0025,-0.0434,-0.0007
53642,46.12456,-0.53137,101.61,8.68,11.792,13.2,Dec-19,2657617,2019-08-12 11:09:00:107,0.8765,-0.0405,10.5499,-0.5187,-0.026,9.7929,-0.0025,-0.0434,-0.0007
53643,46.12456,-0.53137,101.61,8.68,11.792,13.2,Dec-19,2657617,2019-08-12 11:09:00:107,0.8765,-0.0405,10.5499,-0.5187,-0.026,9.7929,-0.0025,-0.0434,-0.0007
53644,46.12456,-0.53137,101.61,8.68,11.792,13.2,Dec-19,2657617,2019-08-12 11:09:00:107,0.8765,-0.0405,10.5499,-0.5187,-0.026,9.7929,-0.0025,-0.0434,-0.0007
53645,46.12456,-0.53137,101.61,8.68,11.792,13.2,Dec-19,2657618,2019-08-12 11:09:00:108,0.8765,-0.0405,10.5499,-0.5187,-0.026,9.7929,-0.0025,-0.0434,-0.0007
53646,46.12456,-0.53137,101.61,8.68,11.792,13.2,Dec-19,2657618,2019-08-12 11:09:00:108,0.8765,-0.0405,10.5499,-0.5187,-0.026,9.7929,-0.0025,-0.0434,-0.0007
53647,46.12456,-0.53137,101.61,8.68,11.792,13.2,Dec-19,2657619,2019-08-12 11:09:00:109,0.8765,-0.0405,10.5499,-0.5187,-0.026,9.7929,-0.0025,-0.0434,-0.0007
53648,46.12456,-0.53137,101.61,8.68,11.792,13.2,Dec-19,2657619,2019-08-12 11:09:00:109,0.8765,-0.0405,10.5499,-0.5187,-0.026,9.7929,-0.0025,-0.0434,-0.0007
53649,46.12456,-0.53137,101.61,8.68,11.792,13.2,Dec-19,2657620,2019-08-12 11:09:00:110,0.8765,-0.0405,10.5499,-0.5187,-0.026,9.7929,-0.0025,-0.0434,-0.0007
53650,46.12456,-0.53137,101.61,8.68,11.792,13.2,Dec-19,2657620,2019-08-12 11:09:00:110,0.8765,-0.0405,10.5499,-0.5187,-0.026,9.7929,-0.0025,-0.0434,-0.0007
53651,46.12456,-0.53137,101.61,8.68,11.792,13.2,Dec-19,2657620,2019-08-12 11:09:00:110,0.8765,-0.0405,10.5499,-0.5187,-0.026,9.7929,-0.0025,-0.0434,-0.0007
53652,46.12456,-0.53137,101.61,8.68,11.792,13.2,Dec-19,2657621,2019-08-12 11:09:00:111,0.8765,-0.0405,10.5499,-0.5187,-0.026,9.7929,-0.0025,-0.0434,-0.0007
53653,46.12456,-0.53137,101.61,8.68,11.792,13.2,Dec-19,2657621,2019-08-12 11:09:00:111,0.8765,-0.0405,10.5499,-0.5187,-0.026,9.7929,-0.0025,-0.0434,-0.0007
53654,46.12456,-0.53137,101.61,8.68,11.792,13.2,Dec-19,2657622,2019-08-12 11:09:00:112,0.8765,-0.0405,10.5499,-0.5187,-0.026,9.7929,-0.0025,-0.0434,-0.0007
53655,46.12456,-0.53137,101.61,8.68,11.792,13.2,Dec-19,2657623,2019-08-12 11:09:00:113,0.8765,-0.0405,10.5499,-0.5187,-0.026,9.7929,-0.0025,-0.0434,-0.0007
53656,46.12456,-0.53137,101.61,8.68,11.792,13.2,Dec-19,2657692,2019-08-12 11:09:00:182,0.8765,-0.0405,10.5499,-0.5187,-0.026,9.7929,-0.0025,-0.0434,-0.0007
53657,46.12456,-0.53137,101.61,8.68,11.792,13.2,Dec-19,2657829,2019-08-12 11:09:00:319,0.8765,-0.0405,10.5499,-0.5187,-0.026,9.7929,-0.0025,-0.0434,-0.0007
53658,46.12456,-0.53137,101.61,8.68,11.792,13.2,Dec-19,2657892,2019-08-12 11:09:00:382,0.8765,-0.0405,10.5499,-0.5187,-0.026,9.7929,-0.0025,-0.0434,-0.0007
53659,46.12456,-0.53137,101.61,8.68,11.792,13.2,Dec-19,2657992,2019-08-12 11:09:00:482,0.8765,-0.0405,10.5499,-0.5187,-0.026,9.7929,-0.0025,-0.0434,-0.0007
53660,46.12456,-0.53137,101.61,8.68,11.792,13.2,Dec-19,2658092,2019-08-12 11:09:00:582,1.0842,-0.2799,9.4342,0.8058,-0.0609,9.7733,0.0103,-0.004,-0.0017
53661,46.12456,-0.53137,101.61,8.68,11.792,13.2,Dec-19,2658191,2019-08-12 11:09:00:681,-0.1806,0.1385,9.6856,0.7732,-0.0491,9.776,0.0082,0.0333,0.0047
53662,46.12456,-0.53137,101.61,8.68,11.792,13.2,Dec-19,2658292,2019-08-12 11:09:00:782,0.6245,-0.0034,10.2716,0.7098,-0.049,9.7808,-0.0078,0.0099,0.0025
53663,46.12456,-0.53137,101.61,8.68,11.792,13.2,Dec-19,2658393,2019-08-12 11:09:00:883,0.7705,-0.1327,9.8083,0.7211,-0.0519,9.78,-0.0036,-0.0231,0.0015
53664,46.12456,-0.53137,101.61,8.68,11.792,13.2,Dec-19,2658492,2019-08-12 11:09:00:982,0.5455,0.1092,9.5988,0.737,-0.0537,9.7788,-0.0004,-0.0093,0.0057
53665,46.125336,-0.531273,115.31,6.29,7.504,9.3,Sep-19,2658593,2019-08-12 11:09:01:083,0.7795,-0.0435,9.9316,0.7358,-0.0534,9.7789,0.0007,-0.0029,0.0036
53666,46.125336,-0.531273,115.31,6.29,7.504,9.3,Sep-19,2658691,2019-08-12 11:09:01:181,0.7065,-0.0106,10.1004,0.7395,-0.0511,9.7786,0.0039,-0.004,0.0036
53667,46.125336,-0.531273,115.31,6.29,7.504,9.3,Sep-19,2658791,2019-08-12 11:09:01:281,0.734,0.087,9.6419,0.7273,-0.0402,9.7796,-0.0025,0.0046,0.0057
53668,46.125336,-0.531273,115.31,6.29,7.504,9.3,Sep-19,2658891,2019-08-12 11:09:01:381,0.5844,-0.1351,9.9741,0.7099,-0.039,9.7808,-0.0089,0.0046,0.0015
53669,46.125336,-0.531273,115.31,6.29,7.504,9.3,Sep-19,2658992,2019-08-12 11:09:01:482,0.6155,-0.083,10.016,0.7083,-0.0409,9.781,0.005,-0.0061,-0.0007
53670,46.125336,-0.531273,115.31,6.29,7.504,9.3,Sep-19,2659092,2019-08-12 11:09:01:582,0.6855,-0.0692,9.7257,0.7082,-0.0486,9.7809,-0.0068,0.0014,-0.0007
53671,46.125336,-0.531273,115.31,6.29,7.504,9.3,Sep-19,2659192,2019-08-12 11:09:01:682,0.6598,-0.2254,9.7826,0.7053,-0.0502,9.7811,-0.0004,0.0014,-0.0017
53672,46.125336,-0.531273,115.31,6.29,7.504,9.3,Sep-19,2659292,2019-08-12 11:09:01:782,0.7526,-0.083,10.0543,0.709,-0.0474,9.7809,0.0007,-0.005,0.0015
53673,46.125336,-0.531273,115.31,6.29,7.504,9.3,Sep-19,2659393,2019-08-12 11:09:01:883,0.6508,-0.1345,9.6964,0.7045,-0.0498,9.7812,-0.0036,0.0046,0.0004
53674,46.125336,-0.531273,115.31,6.29,7.504,9.3,Sep-19,2659491,2019-08-12 11:09:01:981,0.5874,0.0451,10.0471,0.7,-0.0502,9.7815,0.005,-0.004,-0.0017
53675,46.125336,-0.531273,115.31,6.29,7.504,9.3,Sep-19,2659593,2019-08-12 11:09:02:083,0.5622,-0.2213,9.9986,0.6904,-0.0567,9.7822,-0.0004,-0.0029,0.0015
53676,46.125336,-0.531273,115.31,6.29,7.504,9.3,Sep-19,2659692,2019-08-12 11:09:02:182,0.6508,0.0762,9.6407,0.6776,-0.0519,9.7831,-0.0004,0.0078,-0.0007
53677,46.125336,-0.531273,115.31,6.29,7.504,9.3,Sep-19,2659793,2019-08-12 11:09:02:283,0.5975,-0.1584,9.9226,0.6754,-0.0485,9.7832,0.0071,-0.005,0.0015
53678,46.125336,-0.531273,115.31,6.29,7.504,9.3,Sep-19,2660238,2019-08-12 11:09:02:728,0.5341,-0.0082,9.6048,0.6763,-0.0485,9.7832,-0.0046,0.0003,0.0015
53679,46.125336,-0.531273,115.31,6.29,7.504,9.3,Sep-19,2660239,2019-08-12 11:09:02:729,0.5341,-0.0082,9.6048,0.6763,-0.0485,9.7832,-0.0046,0.0003,0.0015
53680,46.125336,-0.531273,115.31,6.29,7.504,9.3,Sep-19,2660240,2019-08-12 11:09:02:730,0.5341,-0.0082,9.6048,0.6763,-0.0485,9.7832,-0.0046,0.0003,0.0015
53681,46.125336,-0.531273,115.31,6.29,7.504,9.3,Sep-19,2660240,2019-08-12 11:09:02:730,0.5341,-0.0082,9.6048,0.6763,-0.0485,9.7832,-0.0046,0.0003,0.0015
53682,46.125336,-0.531273,115.31,6.29,7.504,9.3,Sep-19,2660241,2019-08-12 11:09:02:731,0.5341,-0.0082,9.6048,0.6763,-0.0485,9.7832,-0.0046,0.0003,0.0015
53683,46.125336,-0.531273,115.31,6.29,7.504,9.3,Sep-19,2660241,2019-08-12 11:09:02:731,0.5341,-0.0082,9.6048,0.6763,-0.0485,9.7832,-0.0046,0.0003,0.0015
53684,46.125336,-0.531273,115.31,6.29,7.504,9.3,Sep-19,2660241,2019-08-12 11:09:02:731,0.5341,-0.0082,9.6048,0.6763,-0.0485,9.7832,-0.0046,0.0003,0.0015
53685,46.125336,-0.531273,115.31,6.29,7.504,9.3,Sep-19,2660241,2019-08-12 11:09:02:731,0.5341,-0.0082,9.6048,0.6763,-0.0485,9.7832,-0.0046,0.0003,0.0015
53686,46.125336,-0.531273,115.31,6.29,7.504,9.3,Sep-19,2660243,2019-08-12 11:09:02:733,0.5341,-0.0082,9.6048,0.6763,-0.0485,9.7832,-0.0046,0.0003,0.0015
53687,46.125336,-0.531273,115.31,6.29,7.504,9.3,Sep-19,2660243,2019-08-12 11:09:02:733,0.5341,-0.0082,9.6048,0.6763,-0.0485,9.7832,-0.0046,0.0003,0.0015
53688,46.125336,-0.531273,115.31,6.29,7.504,9.3,Sep-19,2660244,2019-08-12 11:09:02:734,0.5341,-0.0082,9.6048,0.6763,-0.0485,9.7832,-0.0046,0.0003,0.0015
53689,46.125336,-0.531273,115.31,6.29,7.504,9.3,Sep-19,2660244,2019-08-12 11:09:02:734,0.5341,-0.0082,9.6048,0.6763,-0.0485,9.7832,-0.0046,0.0003,0.0015
53690,46.125336,-0.531273,115.31,6.29,7.504,9.3,Sep-19,2660245,2019-08-12 11:09:02:735,0.5341,-0.0082,9.6048,0.6763,-0.0485,9.7832,-0.0046,0.0003,0.0015
53691,46.125336,-0.531273,115.31,6.29,7.504,9.3,Sep-19,2660245,2019-08-12 11:09:02:735,0.5341,-0.0082,9.6048,0.6763,-0.0485,9.7832,-0.0046,0.0003,0.0015
53692,46.125336,-0.531273,115.31,6.29,7.504,9.3,Sep-19,2660246,2019-08-12 11:09:02:736,0.5341,-0.0082,9.6048,0.6763,-0.0485,9.7832,-0.0046,0.0003,0.0015
53693,46.125336,-0.531273,115.31,6.29,7.504,9.3,Sep-19,2660246,2019-08-12 11:09:02:736,0.5341,-0.0082,9.6048,0.6763,-0.0485,9.7832,-0.0046,0.0003,0.0015
53694,46.125336,-0.531273,115.31,6.29,7.504,9.3,Sep-19,2660247,2019-08-12 11:09:02:737,0.5341,-0.0082,9.6048,0.6763,-0.0485,9.7832,-0.0046,0.0003,0.0015
53695,46.125336,-0.531273,115.31,6.29,7.504,9.3,Sep-19,2660247,2019-08-12 11:09:02:737,0.5341,-0.0082,9.6048,0.6763,-0.0485,9.7832,-0.0046,0.0003,0.0015
53696,46.125336,-0.531273,115.31,6.29,7.504,9.3,Sep-19,2660247,2019-08-12 11:09:02:737,0.5341,-0.0082,9.6048,0.6763,-0.0485,9.7832,-0.0046,0.0003,0.0015
53697,46.125336,-0.531273,115.31,6.29,7.504,9.3,Sep-19,2660248,2019-08-12 11:09:02:738,0.5341,-0.0082,9.6048,0.6763,-0.0485,9.7832,-0.0046,0.0003,0.0015
53698,46.125336,-0.531273,115.31,6.29,7.504,9.3,Sep-19,2660248,2019-08-12 11:09:02:738,0.5341,-0.0082,9.6048,0.6763,-0.0485,9.7832,-0.0046,0.0003,0.0015
53699,46.125336,-0.531273,115.31,6.29,7.504,9.3,Sep-19,2660256,2019-08-12 11:09:02:746,0.5341,-0.0082,9.6048,0.6763,-0.0485,9.7832,-0.0046,0.0003,0.0015
53700,46.125336,-0.531273,115.31,6.29,7.504,9.3,Sep-19,2660258,2019-08-12 11:09:02:748,0.5341,-0.0082,9.6048,0.6763,-0.0485,9.7832,-0.0046,0.0003,0.0015
53701,46.125336,-0.531273,115.31,6.29,7.504,9.3,Sep-19,2660259,2019-08-12 11:09:02:749,0.5341,-0.0082,9.6048,0.6763,-0.0485,9.7832,-0.0046,0.0003,0.0015
53702,46.125336,-0.531273,115.31,6.29,7.504,9.3,Sep-19,2660260,2019-08-12 11:09:02:750,0.5341,-0.0082,9.6048,0.6763,-0.0485,9.7832,-0.0046,0.0003,0.0015
53703,46.125336,-0.531273,115.31,6.29,7.504,9.3,Sep-19,2660320,2019-08-12 11:09:02:810,0.5341,-0.0082,9.6048,0.6763,-0.0485,9.7832,-0.0046,0.0003,0.0015
53704,46.125336,-0.531273,115.31,6.29,7.504,9.3,Sep-19,2660420,2019-08-12 11:09:02:910,0.5341,-0.0082,9.6048,0.6763,-0.0485,9.7832,-0.0046,0.0003,0.0015
53705,46.125336,-0.531273,115.31,6.29,7.504,9.3,Sep-19,2660520,2019-08-12 11:09:03:010,-0.3919,0.0756,10.1106,-0.1073,-0.0483,9.8059,-0.0036,0.0046,-0.0017
53706,46.125336,-0.531273,115.31,6.29,7.504,9.3,Sep-19,2660621,2019-08-12 11:09:03:111,-0.3595,0.0206,9.9699,-0.1604,-0.0408,9.8053,0.0028,-0.0018,-0.0007
53707,46.125336,-0.531273,115.31,6.29,7.504,9.3,Sep-19,2660721,2019-08-12 11:09:03:211,-0.511,-0.0956,9.6515,-0.2337,-0.0364,9.8038,-0.0078,0.0046,0.0004
53708,46.125336,-0.531273,115.31,6.29,7.504,9.3,Sep-19,2660821,2019-08-12 11:09:03:311,-0.8438,-0.0058,9.8747,-0.3024,-0.032,9.8019,0.005,0.0067,-0.0007
53709,46.125336,-0.531273,115.31,6.29,7.504,9.3,Sep-19,2660921,2019-08-12 11:09:03:411,-0.7797,-0.0201,9.8622,-0.3281,-0.0335,9.8011,-0.0057,0.0024,0.0004
53710,46.125336,-0.531273,115.31,6.29,7.504,9.3,Sep-19,2661021,2019-08-12 11:09:03:511,-0.569,-0.0878,9.9741,-0.3552,-0.0332,9.8002,0.0028,-0.004,-0.0007
53711,46.125336,-0.531273,115.31,6.29,7.504,9.3,Sep-19,2661121,2019-08-12 11:09:03:611,-0.8246,-0.0213,9.4276,-0.4163,-0.0282,9.7978,-0.0046,0.0078,0.0015
53712,46.125336,-0.531273,115.31,6.29,7.504,9.3,Sep-19,2661221,2019-08-12 11:09:03:711,-0.6289,-0.0926,10.0417,-0.45,-0.0281,9.7963,0.0018,0.0046,-0.0007
53713,46.125336,-0.531273,115.31,6.29,7.504,9.3,Sep-19,2661322,2019-08-12 11:09:03:812,-0.7384,0.0421,9.6664,-0.4534,-0.0176,9.7961,0.0018,-0.0008,0.0068
53714,46.125336,-0.531273,115.31,6.29,7.504,9.3,Sep-19,2661422,2019-08-12 11:09:03:912,-0.602,0.2636,9.7867,-0.4634,-0.0128,9.7957,0.0018,0.0046,0.0089
53715,46.125336,-0.531273,115.31,6.29,7.504,9.3,Sep-19,2661522,2019-08-12 11:09:04:012,-0.5535,0.0385,9.9699,-0.4889,0.0084,9.7945,-0.0025,-0.004,0.0068
53716,46.125336,-0.531273,115.31,6.29,7.504,9.3,Sep-19,2661622,2019-08-12 11:09:04:112,-0.7576,0.0972,9.6395,-0.5121,0.0114,9.7933,-0.0046,0.0067,0.0057
53717,46.125336,-0.531273,115.31,6.29,7.504,9.3,Sep-19,2661723,2019-08-12 11:09:04:213,-0.6445,-0.0231,10.0561,-0.5204,0.0193,9.7928,0.0007,-0.005,0.0068
53718,46.125336,-0.531273,115.31,6.29,7.504,9.3,Sep-19,2661822,2019-08-12 11:09:04:312,-0.6109,0.0547,9.6018,-0.5254,0.0154,9.7926,-0.0068,0.0046,0.0057
53719,46.125336,-0.531273,115.31,6.29,7.504,9.3,Sep-19,2661923,2019-08-12 11:09:04:413,-0.6283,-0.074,10.1369,-0.5471,0.018,9.7914,0.0071,-0.004,0.0047
53720,46.125336,-0.531273,115.31,6.29,7.504,9.3,Sep-19,2662022,2019-08-12 11:09:04:512,-0.7289,-0.0309,9.6413,-0.5646,0.021,9.7904,-0.0025,-0.0008,0.0068
53721,46.125336,-0.531273,115.31,6.29,7.504,9.3,Sep-19,2662123,2019-08-12 11:09:04:613,-0.681,-0.0776,9.6718,-0.6053,0.0202,9.7879,0.0039,0.0003,0.0047
53722,46.125336,-0.531273,115.31,6.29,7.504,9.3,Sep-19,2662221,2019-08-12 11:09:04:711,-0.7073,0.0385,9.7951,-0.6147,0.0288,9.7873,0.006,-0.0018,0.0057
53723,46.125336,-0.531273,115.31,6.29,7.504,9.3,Sep-19,2662321,2019-08-12 11:09:04:811,-0.6989,0.1726,9.9077,-0.6359,0.0303,9.786,-0.0036,0.0014,0.0036
53724,46.125336,-0.531273,115.31,6.29,7.504,9.3,Sep-19,2662422,2019-08-12 11:09:04:912,-0.6612,-0.0453,9.7131,-0.641,0.0398,9.7856,0.006,-0.0061,0.0047
53725,46.125336,-0.531273,115.31,6.29,7.504,9.3,Sep-19,2662521,2019-08-12 11:09:05:011,-0.6899,0.005,9.3899,-0.6487,0.0301,9.7851,-0.0099,0.0056,0.0047
53726,46.125336,-0.531273,115.31,6.29,7.504,9.3,Sep-19,2662621,2019-08-12 11:09:05:111,-0.6534,0.0421,9.8454,-0.6558,0.0494,9.7846,0.005,-0.0029,0.0068
53727,46.125336,-0.531273,115.31,6.29,7.504,9.3,Sep-19,2662721,2019-08-12 11:09:05:211,-0.7737,0.1109,9.7407,-0.6541,0.0412,9.7847,-0.0057,0.0035,0.0047
53728,46.125336,-0.531273,115.31,6.29,7.504,9.3,Sep-19,2662821,2019-08-12 11:09:05:311,-0.6654,0.0649,9.9442,-0.669,0.0408,9.7837,0.0018,-0.0072,0.0036
53729,46.125336,-0.531273,115.31,6.29,7.504,9.3,Sep-19,2662921,2019-08-12 11:09:05:411,-0.2865,0.0122,9.676,-0.6519,0.0405,9.7849,-0.0036,-0.0072,0.0047
53730,46.125336,-0.531273,115.31,6.29,7.504,9.3,Sep-19,2663021,2019-08-12 11:09:05:511,-0.356,-0.0118,9.9298,-0.6344,0.0382,9.786,0.0039,-0.0018,0.0047
53731,46.125336,-0.531273,115.31,6.29,7.504,9.3,Sep-19,2663121,2019-08-12 11:09:05:611,-0.3847,-0.0004,9.9783,-0.6201,0.0387,9.7869,0.0007,-0.0072,0.0047
53732,46.125336,-0.531273,115.31,6.29,7.504,9.3,Sep-19,2663221,2019-08-12 11:09:05:711,-0.2051,0.0224,9.7874,-0.55,0.0205,9.7912,-0.0057,-0.0008,0.0015
53733,46.125336,-0.531273,115.31,6.29,7.504,9.3,Sep-19,2663321,2019-08-12 11:09:05:811,-0.2859,-0.0668,10.0531,-0.5335,0.0193,9.7921,0.0018,-0.004,-0.0007
53734,46.125336,-0.531273,115.31,6.29,7.504,9.3,Sep-19,2663421,2019-08-12 11:09:05:911,-0.3278,0.0409,9.8448,-0.4944,0.0069,9.7942,-0.0014,0.0088,0.0004
53735,46.125336,-0.531273,115.31,6.29,7.504,9.3,Sep-19,2663521,2019-08-12 11:09:06:011,-0.3165,-0.0321,9.9388,-0.4675,0.0021,9.7955,0.0039,0.0035,-0.0007
53736,46.125336,-0.531273,115.31,6.29,7.504,9.3,Sep-19,2663621,2019-08-12 11:09:06:111,-0.3183,0.0074,9.767,-0.4281,-0.0032,9.7973,-0.0036,-0.0018,0.0015
53737,46.125336,-0.531273,115.31,6.29,7.504,9.3,Sep-19,2663721,2019-08-12 11:09:06:211,-0.3392,0.0559,9.7951,-0.4136,-0.0068,9.7979,-0.0036,0.0046,-0.0007
53738,46.125336,-0.531273,115.31,6.29,7.504,9.3,Sep-19,2663820,2019-08-12 11:09:06:310,-0.3979,-0.0267,9.9232,-0.3973,-0.0047,9.7986,0.0018,-0.0061,0.0025
53739,46.125336,-0.531273,115.31,6.29,7.504,9.3,Sep-19,2663921,2019-08-12 11:09:06:411,-0.6008,0.1409,9.7658,-0.3928,-0.014,9.7988,-0.0046,0.0056,0.0004
53740,46.125336,-0.531273,115.31,6.29,7.504,9.3,Sep-19,2664021,2019-08-12 11:09:06:511,-0.8462,0.0158,9.9621,-0.4157,-0.0044,9.7978,0.0114,0.0014,0.0025
53741,46.125336,-0.531273,115.31,6.29,7.504,9.3,Sep-19,2664122,2019-08-12 11:09:06:612,-0.3985,-0.0513,9.6808,-0.4154,-0.002,9.7978,-0.0004,-0.0061,0.0036
53742,46.125336,-0.531273,115.31,6.29,7.504,9.3,Sep-19,2664222,2019-08-12 11:09:06:712,-0.3637,-0.0201,9.7389,-0.4103,-0.0023,9.7981,0.0071,-0.0018,0.0015
53743,46.125336,-0.531273,115.31,6.29,7.504,9.3,Sep-19,2664321,2019-08-12 11:09:06:811,-0.3829,-0.0106,9.8424,-0.4055,0.0037,9.7983,0.005,-0.004,0.0036
53744,46.125336,-0.531273,115.31,6.29,7.504,9.3,Sep-19,2664421,2019-08-12 11:09:06:911,-0.3141,0.1199,9.785,-0.3929,0.0028,9.7988,-0.0025,0.0035,0.0015
53745,46.125336,-0.531273,115.31,6.29,7.504,9.3,Sep-19,2664521,2019-08-12 11:09:07:011,-0.3129,0.02,10.08,-0.3846,0.0099,9.7991,0.006,-0.0029,0.0036
53746,46.125336,-0.531273,115.31,6.29,7.504,9.3,Sep-19,2664620,2019-08-12 11:09:07:110,-0.3961,0.0062,9.7754,-0.3753,0.0046,9.7995,-0.0046,0.0035,0.0025
53747,46.125336,-0.531273,115.31,6.29,7.504,9.3,Sep-19,2664721,2019-08-12 11:09:07:211,-0.344,0.087,9.9879,-0.3685,0.0136,9.7997,0.006,0.0003,0.0015
53748,46.125336,-0.531273,115.31,6.29,7.504,9.3,Sep-19,2665150,2019-08-12 11:09:07:640,-0.3362,0.0535,9.8328,-0.3368,0.017,9.8009,0.0007,-0.004,0.0036
53749,46.125336,-0.531273,115.31,6.29,7.504,9.3,Sep-19,2665150,2019-08-12 11:09:07:640,-0.3362,0.0535,9.8328,-0.3368,0.017,9.8009,0.0007,-0.004,0.0036
53750,46.125336,-0.531273,115.31,6.29,7.504,9.3,Sep-19,2665151,2019-08-12 11:09:07:641,-0.3362,0.0535,9.8328,-0.3368,0.017,9.8009,0.0007,-0.004,0.0036
53751,46.125336,-0.531273,115.31,6.29,7.504,9.3,Sep-19,2665151,2019-08-12 11:09:07:641,-0.3362,0.0535,9.8328,-0.3368,0.017,9.8009,0.0007,-0.004,0.0036
53752,46.125336,-0.531273,115.31,6.29,7.504,9.3,Sep-19,2665152,2019-08-12 11:09:07:642,-0.3362,0.0535,9.8328,-0.3368,0.017,9.8009,0.0007,-0.004,0.0036
53753,46.125336,-0.531273,115.31,6.29,7.504,9.3,Sep-19,2665152,2019-08-12 11:09:07:642,-0.3362,0.0535,9.8328,-0.3368,0.017,9.8009,0.0007,-0.004,0.0036
53754,46.125336,-0.531273,115.31,6.29,7.504,9.3,Sep-19,2665153,2019-08-12 11:09:07:643,-0.3362,0.0535,9.8328,-0.3368,0.017,9.8009,0.0007,-0.004,0.0036
53755,46.125336,-0.531273,115.31,6.29,7.504,9.3,Sep-19,2665153,2019-08-12 11:09:07:643,-0.3362,0.0535,9.8328,-0.3368,0.017,9.8009,0.0007,-0.004,0.0036
53756,46.12605,-0.531064,93.83,8.25,7.504,8.0,Nov-19,2665213,2019-08-12 11:09:07:703,-0.3362,0.0535,9.8328,-0.3368,0.017,9.8009,0.0007,-0.004,0.0036
53757,46.12605,-0.531064,93.83,8.25,7.504,8.0,Nov-19,2665313,2019-08-12 11:09:07:803,-0.3362,0.0535,9.8328,-0.3368,0.017,9.8009,0.0007,-0.004,0.0036
53758,46.12605,-0.531064,93.83,8.25,7.504,8.0,Nov-19,2665633,2019-08-12 11:09:08:123,-0.3362,0.0535,9.8328,-0.3368,0.017,9.8009,0.0007,-0.004,0.0036
53759,46.12605,-0.531064,93.83,8.25,7.504,8.0,Nov-19,2665633,2019-08-12 11:09:08:123,-0.3362,0.0535,9.8328,-0.3368,0.017,9.8009,0.0007,-0.004,0.0036
53760,46.12605,-0.531064,93.83,8.25,7.504,8.0,Nov-19,2665634,2019-08-12 11:09:08:124,-0.3362,0.0535,9.8328,-0.3368,0.017,9.8009,0.0007,-0.004,0.0036
53761,46.12605,-0.531064,93.83,8.25,7.504,8.0,Nov-19,2665634,2019-08-12 11:09:08:124,-0.3362,0.0535,9.8328,-0.3368,0.017,9.8009,0.0007,-0.004,0.0036
53762,46.12605,-0.531064,93.83,8.25,7.504,8.0,Nov-19,2665635,2019-08-12 11:09:08:125,-0.3362,0.0535,9.8328,-0.3368,0.017,9.8009,0.0007,-0.004,0.0036
53763,46.12605,-0.531064,93.83,8.25,7.504,8.0,Nov-19,2665635,2019-08-12 11:09:08:125,-0.3362,0.0535,9.8328,-0.3368,0.017,9.8009,0.0007,-0.004,0.0036
53764,46.12605,-0.531064,93.83,8.25,7.504,8.0,Nov-19,2665635,2019-08-12 11:09:08:125,-0.3362,0.0535,9.8328,-0.3368,0.017,9.8009,0.0007,-0.004,0.0036
53765,46.12605,-0.531064,93.83,8.25,7.504,8.0,Nov-19,2665636,2019-08-12 11:09:08:126,-0.3362,0.0535,9.8328,-0.3368,0.017,9.8009,0.0007,-0.004,0.0036
53766,46.12605,-0.531064,93.83,8.25,7.504,8.0,Nov-19,2665636,2019-08-12 11:09:08:126,-0.3362,0.0535,9.8328,-0.3368,0.017,9.8009,0.0007,-0.004,0.0036
53767,46.12605,-0.531064,93.83,8.25,7.504,8.0,Nov-19,2665639,2019-08-12 11:09:08:129,-0.3362,0.0535,9.8328,-0.3368,0.017,9.8009,0.0007,-0.004,0.0036
53768,46.12605,-0.531064,93.83,8.25,7.504,8.0,Nov-19,2665640,2019-08-12 11:09:08:130,-0.3362,0.0535,9.8328,-0.3368,0.017,9.8009,0.0007,-0.004,0.0036
53769,46.12605,-0.531064,93.83,8.25,7.504,8.0,Nov-19,2665640,2019-08-12 11:09:08:130,-0.3362,0.0535,9.8328,-0.3368,0.017,9.8009,0.0007,-0.004,0.0036
53770,46.12605,-0.531064,93.83,8.25,7.504,8.0,Nov-19,2665641,2019-08-12 11:09:08:131,-0.3362,0.0535,9.8328,-0.3368,0.017,9.8009,0.0007,-0.004,0.0036
53771,46.12605,-0.531064,93.83,8.25,7.504,8.0,Nov-19,2665642,2019-08-12 11:09:08:132,-0.3362,0.0535,9.8328,-0.3368,0.017,9.8009,0.0007,-0.004,0.0036
53772,46.12605,-0.531064,93.83,8.25,7.504,8.0,Nov-19,2665643,2019-08-12 11:09:08:133,-0.3362,0.0535,9.8328,-0.3368,0.017,9.8009,0.0007,-0.004,0.0036
53773,46.12605,-0.531064,93.83,8.25,7.504,8.0,Nov-19,2665704,2019-08-12 11:09:08:194,-0.3362,0.0535,9.8328,-0.3368,0.017,9.8009,0.0007,-0.004,0.0036
53774,46.12605,-0.531064,93.83,8.25,7.504,8.0,Nov-19,2665803,2019-08-12 11:09:08:293,-0.3362,0.0535,9.8328,-0.3368,0.017,9.8009,0.0007,-0.004,0.0036
53775,46.12605,-0.531064,93.83,8.25,7.504,8.0,Nov-19,2666156,2019-08-12 11:09:08:646,-0.7217,0.0289,9.5815,-0.3368,0.017,9.8009,0.0007,-0.004,0.0036
53776,46.12605,-0.531064,93.83,8.25,7.504,8.0,Nov-19,2666157,2019-08-12 11:09:08:647,-0.7217,0.0289,9.5815,-0.3368,0.017,9.8009,0.0007,-0.004,0.0036
53777,46.12605,-0.531064,93.83,8.25,7.504,8.0,Nov-19,2666157,2019-08-12 11:09:08:647,-0.7217,0.0289,9.5815,-0.3368,0.017,9.8009,-0.0046,0.0024,0.0015
53778,46.12605,-0.531064,93.83,8.25,7.504,8.0,Nov-19,2666158,2019-08-12 11:09:08:648,-0.7217,0.0289,9.5815,-0.3368,0.017,9.8009,-0.0046,0.0024,0.0015
53779,46.12605,-0.531064,93.83,8.25,7.504,8.0,Nov-19,2666158,2019-08-12 11:09:08:648,-0.7217,0.0289,9.5815,-0.3368,0.017,9.8009,-0.0046,0.0024,0.0015
53780,46.12605,-0.531064,93.83,8.25,7.504,8.0,Nov-19,2666159,2019-08-12 11:09:08:649,-0.7217,0.0289,9.5815,-0.3368,0.017,9.8009,-0.0046,0.0024,0.0015
53781,46.12605,-0.531064,93.83,8.25,7.504,8.0,Nov-19,2666159,2019-08-12 11:09:08:649,-0.7217,0.0289,9.5815,-0.3368,0.017,9.8009,-0.0046,0.0024,0.0015
53782,46.12605,-0.531064,93.83,8.25,7.504,8.0,Nov-19,2666159,2019-08-12 11:09:08:649,-0.7217,0.0289,9.5815,-0.3368,0.017,9.8009,-0.0046,0.0024,0.0015
53783,46.12605,-0.531064,93.83,8.25,7.504,8.0,Nov-19,2666160,2019-08-12 11:09:08:650,-0.7217,0.0289,9.5815,-0.3368,0.017,9.8009,-0.0046,0.0024,0.0015
53784,46.12605,-0.531064,93.83,8.25,7.504,8.0,Nov-19,2666160,2019-08-12 11:09:08:650,-0.7217,0.0289,9.5815,-0.3368,0.017,9.8009,-0.0046,0.0024,0.0015
53785,46.12605,-0.531064,93.83,8.25,7.504,8.0,Nov-19,2666161,2019-08-12 11:09:08:651,-0.7217,0.0289,9.5815,-0.3368,0.017,9.8009,-0.0046,0.0024,0.0015
53786,46.12605,-0.531064,93.83,8.25,7.504,8.0,Nov-19,2666161,2019-08-12 11:09:08:651,-0.7217,0.0289,9.5815,-0.3368,0.017,9.8009,-0.0046,0.0024,0.0015
53787,46.12605,-0.531064,93.83,8.25,7.504,8.0,Nov-19,2666161,2019-08-12 11:09:08:651,-0.7217,0.0289,9.5815,-0.3368,0.017,9.8009,-0.0046,0.0024,0.0015
53788,46.12605,-0.531064,93.83,8.25,7.504,8.0,Nov-19,2666162,2019-08-12 11:09:08:652,-0.7217,0.0289,9.5815,-0.6582,-0.0104,9.7845,-0.0046,0.0024,0.0015
53789,46.12605,-0.531064,93.83,8.25,7.504,8.0,Nov-19,2666166,2019-08-12 11:09:08:656,-0.7217,0.0289,9.5815,-0.6582,-0.0104,9.7845,-0.0046,0.0024,0.0015
53790,46.12605,-0.531064,93.83,8.25,7.504,8.0,Nov-19,2666166,2019-08-12 11:09:08:656,-0.7217,0.0289,9.5815,-0.6582,-0.0104,9.7845,-0.0046,0.0024,0.0015
53791,46.12605,-0.531064,93.83,8.25,7.504,8.0,Nov-19,2666166,2019-08-12 11:09:08:656,-0.7217,0.0289,9.5815,-0.6582,-0.0104,9.7845,-0.0046,0.0024,0.0015
53792,46.12605,-0.531064,93.83,8.25,7.504,8.0,Nov-19,2666167,2019-08-12 11:09:08:657,-0.7217,0.0289,9.5815,-0.6582,-0.0104,9.7845,-0.0046,0.0024,0.0015
53793,46.12605,-0.531064,93.83,8.25,7.504,8.0,Nov-19,2666167,2019-08-12 11:09:08:657,-0.7217,0.0289,9.5815,-0.6582,-0.0104,9.7845,-0.0046,0.0024,0.0015
53794,46.12605,-0.531064,93.83,8.25,7.504,8.0,Nov-19,2666167,2019-08-12 11:09:08:657,-0.7217,0.0289,9.5815,-0.6582,-0.0104,9.7845,-0.0046,0.0024,0.0015
53795,46.12605,-0.531064,93.83,8.25,7.504,8.0,Nov-19,2666168,2019-08-12 11:09:08:658,-0.7217,0.0289,9.5815,-0.6582,-0.0104,9.7845,-0.0046,0.0024,0.0015
53796,46.12605,-0.531064,93.83,8.25,7.504,8.0,Nov-19,2666170,2019-08-12 11:09:08:660,-0.7217,0.0289,9.5815,-0.6582,-0.0104,9.7845,-0.0046,0.0024,0.0015
53797,46.12605,-0.531064,93.83,8.25,7.504,8.0,Nov-19,2666171,2019-08-12 11:09:08:661,-0.7217,0.0289,9.5815,-0.6582,-0.0104,9.7845,-0.0046,0.0024,0.0015
53798,46.12605,-0.531064,93.83,8.25,7.504,8.0,Nov-19,2666172,2019-08-12 11:09:08:662,-0.7217,0.0289,9.5815,-0.6582,-0.0104,9.7845,-0.0046,0.0024,0.0015
53799,46.12605,-0.531064,93.83,8.25,7.504,8.0,Nov-19,2666173,2019-08-12 11:09:08:663,-0.7217,0.0289,9.5815,-0.6582,-0.0104,9.7845,-0.0046,0.0024,0.0015
53800,46.12605,-0.531064,93.83,8.25,7.504,8.0,Nov-19,2666176,2019-08-12 11:09:08:666,-0.7217,0.0289,9.5815,-0.6582,-0.0104,9.7845,-0.0046,0.0024,0.0015
53801,46.12605,-0.531064,93.83,8.25,7.504,8.0,Nov-19,2666177,2019-08-12 11:09:08:667,-0.7217,0.0289,9.5815,-0.6582,-0.0104,9.7845,-0.0046,0.0024,0.0015
53802,46.12605,-0.531064,93.83,8.25,7.504,8.0,Nov-19,2666177,2019-08-12 11:09:08:667,-0.7217,0.0289,9.5815,-0.6582,-0.0104,9.7845,-0.0046,0.0024,0.0015
53803,46.12605,-0.531064,93.83,8.25,7.504,8.0,Nov-19,2666178,2019-08-12 11:09:08:668,-0.7217,0.0289,9.5815,-0.6582,-0.0104,9.7845,-0.0046,0.0024,0.0015
53804,46.12605,-0.531064,93.83,8.25,7.504,8.0,Nov-19,2666178,2019-08-12 11:09:08:668,-0.7217,0.0289,9.5815,-0.6582,-0.0104,9.7845,-0.0046,0.0024,0.0015
53805,46.12605,-0.531064,93.83,8.25,7.504,8.0,Nov-19,2666178,2019-08-12 11:09:08:668,-0.7217,0.0289,9.5815,-0.6582,-0.0104,9.7845,-0.0046,0.0024,0.0015
53806,46.12605,-0.531064,93.83,8.25,7.504,8.0,Nov-19,2666198,2019-08-12 11:09:08:688,-0.7217,0.0289,9.5815,-0.6582,-0.0104,9.7845,-0.0046,0.0024,0.0015
53807,46.12605,-0.531064,93.83,8.25,7.504,8.0,Nov-19,2666298,2019-08-12 11:09:08:788,-0.5044,-0.0884,9.8358,-0.6582,-0.0104,9.7845,-0.0014,0.0014,-0.0017
53808,46.12605,-0.531064,93.83,8.25,7.504,8.0,Nov-19,2666399,2019-08-12 11:09:08:889,-0.5337,0.0822,9.952,-0.5305,-0.0211,9.7923,0.0028,-0.0018,-0.0028
53809,46.12605,-0.531064,93.83,8.25,7.504,8.0,Nov-19,2666497,2019-08-12 11:09:08:987,-0.675,-0.0453,9.9089,-0.5428,-0.0218,9.7916,-0.0025,-0.005,0.0004
53810,46.12605,-0.531064,93.83,8.25,7.504,8.0,Nov-19,2666597,2019-08-12 11:09:09:087,-0.5152,-0.0968,9.9747,-0.5645,-0.0262,9.7904,0.0028,0.0067,-0.0028
53811,46.12605,-0.531064,93.83,8.25,7.504,8.0,Nov-19,2666698,2019-08-12 11:09:09:188,-0.4697,-0.1297,9.9855,-0.5646,-0.0309,9.7903,-0.0004,-0.0061,-0.0017
53812,46.12605,-0.531064,93.83,8.25,7.504,8.0,Nov-19,2666798,2019-08-12 11:09:09:288,-0.4014,-0.0399,9.6706,-0.5509,-0.0361,9.7911,-0.0025,-0.004,-0.0007
53813,46.12605,-0.531064,93.83,8.25,7.504,8.0,Nov-19,2666898,2019-08-12 11:09:09:388,-0.3027,-0.0399,10.0369,-0.547,-0.0396,9.7913,-0.0078,0.0056,-0.0017
53814,46.12605,-0.531064,93.83,8.25,7.504,8.0,Nov-19,2666998,2019-08-12 11:09:09:488,-0.2111,-0.0776,9.8939,-0.5319,-0.0409,9.7921,0.0114,-0.0072,-0.0017
53815,46.12605,-0.531064,93.83,8.25,7.504,8.0,Nov-19,2667098,2019-08-12 11:09:09:588,-0.2153,-0.1351,9.7359,-0.5186,-0.0378,9.7929,0.0028,-0.0008,0.0015
53816,46.12605,-0.531064,93.83,8.25,7.504,8.0,Nov-19,2667198,2019-08-12 11:09:09:688,-0.2225,-0.0267,9.7927,-0.511,-0.0365,9.7933,0.0082,0.0056,-0.0038
53817,46.12605,-0.531064,93.83,8.25,7.504,8.0,Nov-19,2667297,2019-08-12 11:09:09:787,-0.2363,-0.0135,9.9831,-0.5,-0.0412,9.7938,-0.0036,-0.0072,-0.0028
53818,46.12605,-0.531064,93.83,8.25,7.504,8.0,Nov-19,2667398,2019-08-12 11:09:09:888,-0.241,-0.0519,9.703,-0.4767,-0.0416,9.795,-0.0025,-0.0008,0.0004
53819,46.12605,-0.531064,93.83,8.25,7.504,8.0,Nov-19,2667498,2019-08-12 11:09:09:988,-0.0681,-0.1045,9.7939,-0.4709,-0.042,9.7952,0.0028,0.0056,-0.0017
53820,46.12605,-0.531064,93.83,8.25,7.504,8.0,Nov-19,2667598,2019-08-12 11:09:10:088,-0.0555,-0.062,10.1231,-0.4521,-0.0406,9.7961,0.0082,-0.0082,-0.0017
53821,46.12605,-0.531064,93.83,8.25,7.504,8.0,Nov-19,2667697,2019-08-12 11:09:10:187,-0.1668,-0.0088,9.8209,-0.4385,-0.0383,9.7968,-0.0004,-0.0008,0.0004
53822,46.12605,-0.531064,93.83,8.25,7.504,8.0,Nov-19,2667798,2019-08-12 11:09:10:288,-0.0567,-0.0411,9.7377,-0.4285,-0.0382,9.7972,-0.0036,0.0067,-0.0028
53823,46.12605,-0.531064,93.83,8.25,7.504,8.0,Nov-19,2667898,2019-08-12 11:09:10:388,-0.1094,-0.0614,10.0136,-0.396,-0.0405,9.7986,0.0039,-0.0029,-0.0017
53824,46.12605,-0.531064,93.83,8.25,7.504,8.0,Nov-19,2667999,2019-08-12 11:09:10:489,-0.107,-0.0519,9.7556,-0.3758,-0.0339,9.7994,-0.0036,-0.0029,0.0004
53825,46.12605,-0.531064,93.83,8.25,7.504,8.0,Nov-19,2668099,2019-08-12 11:09:10:589,-0.1243,0.0068,9.6658,-0.3706,-0.0369,9.7996,-0.0014,0.0056,-0.0028
53826,46.12605,-0.531064,93.83,8.25,7.504,8.0,Nov-19,2668199,2019-08-12 11:09:10:689,-0.1183,-0.0884,9.9442,-0.3597,-0.0382,9.8,0.0018,-0.0072,0.0004
53827,46.12605,-0.531064,93.83,8.25,7.504,8.0,Nov-19,2668298,2019-08-12 11:09:10:788,-0.1177,-0.083,9.7275,-0.3466,-0.0337,9.8005,0.006,-0.005,-0.0007
53828,46.12605,-0.531064,93.83,8.25,7.504,8.0,Nov-19,2668400,2019-08-12 11:09:10:890,-0.0495,0.0439,9.943,-0.3409,-0.0369,9.8007,-0.0078,0.0078,-0.0028
53829,46.12605,-0.531064,93.83,8.25,7.504,8.0,Nov-19,2668499,2019-08-12 11:09:10:989,-0.1189,0.0134,10.0788,-0.3336,-0.0388,9.8009,0.0007,-0.005,-0.0007
53830,46.12605,-0.531064,93.83,8.25,7.504,8.0,Nov-19,2668598,2019-08-12 11:09:11:088,-0.2201,-0.0836,9.6102,-0.2923,-0.0289,9.8023,-0.0036,0.0035,0.0015
53831,46.12605,-0.531064,93.83,8.25,7.504,8.0,Nov-19,2668699,2019-08-12 11:09:11:189,-0.3177,-0.0447,9.9831,-0.2988,-0.0276,9.8021,0.0028,0.0067,-0.0017
53832,46.12605,-0.531064,93.83,8.25,7.504,8.0,Nov-19,2668799,2019-08-12 11:09:11:289,-0.326,-0.1045,10.019,-0.2943,-0.0252,9.8022,0.0071,-0.0082,-0.0007
53833,46.12605,-0.531064,93.83,8.25,7.504,8.0,Nov-19,2668898,2019-08-12 11:09:11:388,-0.3039,0.0116,9.597,-0.294,-0.0225,9.8022,-0.0068,-0.0008,0.0004
53834,46.12605,-0.531064,93.83,8.25,7.504,8.0,Nov-19,2668999,2019-08-12 11:09:11:489,-0.2781,0.0206,9.9939,-0.2957,-0.0234,9.8022,-0.0068,0.0035,-0.0007
53835,46.12605,-0.531064,93.83,8.25,7.504,8.0,Nov-19,2669099,2019-08-12 11:09:11:589,-0.2123,-0.1057,10.0196,-0.2861,-0.0264,9.8024,0.005,-0.0082,0.0004
53836,46.12605,-0.531064,93.83,8.25,7.504,8.0,Nov-19,2669199,2019-08-12 11:09:11:689,-0.168,0.0607,9.7048,-0.2749,-0.0243,9.8028,-0.0004,-0.0018,0.0004
53837,46.12605,-0.531064,93.83,8.25,7.504,8.0,Nov-19,2669298,2019-08-12 11:09:11:788,-0.2255,0.0122,9.9262,-0.2784,-0.0254,9.8027,-0.0025,0.0088,-0.0007
53838,46.12605,-0.531064,93.83,8.25,7.504,8.0,Nov-19,2669398,2019-08-12 11:09:11:888,-0.1626,-0.0896,10.0657,-0.2671,-0.0245,9.803,0.005,-0.0114,-0.0007
53839,46.12605,-0.531064,93.83,8.25,7.504,8.0,Nov-19,2669498,2019-08-12 11:09:11:988,-0.1058,0.0026,9.5401,-0.2596,-0.0236,9.8032,-0.0014,-0.0008,-0.0007
53840,46.12605,-0.531064,93.83,8.25,7.504,8.0,Nov-19,2669598,2019-08-12 11:09:12:088,-0.1644,-0.013,9.8616,-0.2583,-0.0257,9.8032,0.0007,0.0056,-0.0017
53841,46.12605,-0.531064,93.83,8.25,7.504,8.0,Nov-19,2669697,2019-08-12 11:09:12:187,-0.1147,0.017,9.7131,-0.2262,-0.0238,9.804,0.0028,-0.0072,0.0004
53842,46.12605,-0.531064,93.83,8.25,7.504,8.0,Nov-19,2669798,2019-08-12 11:09:12:288,0.0265,0.0218,9.6455,-0.1898,-0.0226,9.8048,0.0007,0.0014,0.0004
53843,46.12605,-0.531064,93.83,8.25,7.504,8.0,Nov-19,2669898,2019-08-12 11:09:12:388,-0.0968,-0.0926,9.9298,-0.1443,-0.0288,9.8055,-0.0046,-0.0018,-0.0017
53844,46.12605,-0.531064,93.83,8.25,7.504,8.0,Nov-19,2669998,2019-08-12 11:09:12:488,0.017,-0.0477,9.7963,-0.1169,-0.0289,9.8059,0.0071,-0.0093,-0.0007
53845,46.126537,-0.530951,92.97,6.16,6.432,8.6,Oct-19,2670098,2019-08-12 11:09:12:588,0.0056,-0.0938,9.6377,-0.1006,-0.0343,9.8061,-0.0036,0.0056,-0.0028
53846,46.126537,-0.530951,92.97,6.16,6.432,8.6,Oct-19,2670198,2019-08-12 11:09:12:688,-0.013,-0.0854,10.0627,-0.0996,-0.0367,9.8061,-0.0014,-0.0008,-0.0028
53847,46.126537,-0.530951,92.97,6.16,6.432,8.6,Oct-19,2670298,2019-08-12 11:09:12:788,-0.013,-0.101,9.7407,-0.0879,-0.0327,9.8062,0.0018,-0.0018,-0.0007
53848,46.126537,-0.530951,92.97,6.16,6.432,8.6,Oct-19,2670398,2019-08-12 11:09:12:888,0.0361,-0.0309,9.5683,-0.0892,-0.0352,9.8062,-0.0025,0.0067,-0.0017
53849,46.126537,-0.530951,92.97,6.16,6.432,8.6,Oct-19,2670497,2019-08-12 11:09:12:987,-0.0076,-0.0297,9.9041,-0.084,-0.034,9.8062,0.006,-0.0072,-0.0028
53850,46.126537,-0.530951,92.97,6.16,6.432,8.6,Oct-19,2670598,2019-08-12 11:09:13:088,0.0588,-0.0046,9.6228,-0.0759,-0.0327,9.8063,-0.0004,-0.0061,0.0004
53851,46.126537,-0.530951,92.97,6.16,6.432,8.6,Oct-19,2670698,2019-08-12 11:09:13:188,-0.0058,-0.0201,9.6126,-0.0733,-0.0343,9.8063,-0.0025,0.0046,-0.0017
53852,46.126537,-0.530951,92.97,6.16,6.432,8.6,Oct-19,2670798,2019-08-12 11:09:13:288,0.0349,-0.0531,10.1698,-0.068,-0.0329,9.8064,0.005,-0.0061,-0.0017
53853,46.126537,-0.530951,92.97,6.16,6.432,8.6,Oct-19,2670897,2019-08-12 11:09:13:387,0.0768,0.0714,9.6491,-0.0375,-0.0302,9.8065,-0.0014,-0.005,-0.0007
53854,46.126537,-0.530951,92.97,6.16,6.432,8.6,Oct-19,2670999,2019-08-12 11:09:13:489,0.078,0.0008,9.5922,-0.0187,-0.0315,9.8066,-0.0025,0.0056,-0.0028
53855,46.126537,-0.530951,92.97,6.16,6.432,8.6,Oct-19,2671097,2019-08-12 11:09:13:587,-0.0166,0.0104,10.1196,-0.0237,-0.0175,9.8066,0.0018,-0.0061,-0.0007
53856,46.126537,-0.530951,92.97,6.16,6.432,8.6,Oct-19,2671199,2019-08-12 11:09:13:689,-0.0681,-0.1883,9.5767,-0.0209,-0.0181,9.8066,-0.0004,-0.0018,0.0004
53857,46.126537,-0.530951,92.97,6.16,6.432,8.6,Oct-19,2671297,2019-08-12 11:09:13:787,-0.177,-0.0489,9.6802,-0.0349,-0.0207,9.8066,-0.0025,0.0099,-0.0028
53858,46.126537,-0.530951,92.97,6.16,6.432,8.6,Oct-19,2671398,2019-08-12 11:09:13:888,-0.0962,-0.0201,9.9771,-0.0354,-0.0159,9.8066,0.006,-0.0061,-0.0007
53859,46.126537,-0.530951,92.97,6.16,6.432,8.6,Oct-19,2671498,2019-08-12 11:09:13:988,-0.1644,-0.0453,9.5964,-0.041,-0.0195,9.8065,-0.0025,0.0046,-0.0017
53860,46.126537,-0.530951,92.97,6.16,6.432,8.6,Oct-19,2671598,2019-08-12 11:09:14:088,-0.1058,-0.0351,9.7993,-0.048,-0.0189,9.8065,0.0018,0.0056,-0.0028
53861,46.126537,-0.530951,92.97,6.16,6.432,8.6,Oct-19,2671698,2019-08-12 11:09:14:188,-0.3835,-0.0106,9.8137,-0.0597,-0.0167,9.8065,-0.0004,0.0003,-0.0007
53862,46.126537,-0.530951,92.97,6.16,6.432,8.6,Oct-19,2671798,2019-08-12 11:09:14:288,-0.4828,-0.0004,9.7538,-0.0747,-0.0169,9.8064,0.0018,0.0088,-0.0017
53863,46.126537,-0.530951,92.97,6.16,6.432,8.6,Oct-19,2671898,2019-08-12 11:09:14:388,-0.4697,0.0499,9.9705,-0.0962,-0.0148,9.8062,0.0028,-0.004,-0.0017
53864,46.126537,-0.530951,92.97,6.16,6.432,8.6,Oct-19,2671998,2019-08-12 11:09:14:488,-0.4134,-0.0213,9.6186,-0.1037,-0.0128,9.8061,0.0018,-0.0029,0.0004
53865,46.126537,-0.530951,92.97,6.16,6.432,8.6,Oct-19,2672097,2019-08-12 11:09:14:587,-0.3889,0.0218,9.8077,-0.1227,-0.0153,9.8059,-0.0046,0.0067,-0.0017
53866,46.126537,-0.530951,92.97,6.16,6.432,8.6,Oct-19,2672199,2019-08-12 11:09:14:689,-0.432,0.0056,10.0812,-0.1311,-0.0134,9.8058,0.006,-0.004,-0.0007
53867,46.126537,-0.530951,92.97,6.16,6.432,8.6,Oct-19,2672298,2019-08-12 11:09:14:788,-0.408,0.09,9.6527,-0.1455,-0.0128,9.8056,-0.0036,0.0056,0.0004
53868,46.126537,-0.530951,92.97,6.16,6.432,8.6,Oct-19,2672397,2019-08-12 11:09:14:887,-0.5685,0.0714,9.9777,-0.1645,-0.015,9.8053,-0.0068,0.0099,-0.0007
53869,46.126537,-0.530951,92.97,6.16,6.432,8.6,Oct-19,2672498,2019-08-12 11:09:14:988,-0.5774,-0.0022,9.9615,-0.1852,-0.0098,9.8049,0.0071,-0.0018,0.0025
53870,46.126537,-0.530951,92.97,6.16,6.432,8.6,Oct-19,2672598,2019-08-12 11:09:15:088,-0.5104,-0.0028,9.5431,-0.2006,-0.0083,9.8046,0.0018,0.0014,0.0004
53871,46.126537,-0.530951,92.97,6.16,6.432,8.6,Oct-19,2672697,2019-08-12 11:09:15:187,-0.3727,-0.0016,9.7957,-0.2122,-0.0119,9.8043,-0.0036,-0.0018,-0.0007
53872,46.126537,-0.530951,92.97,6.16,6.432,8.6,Oct-19,2672798,2019-08-12 11:09:15:288,-0.3703,-0.0016,9.9244,-0.2136,-0.0053,9.8043,0.0092,-0.004,0.0015
53873,46.126537,-0.530951,92.97,6.16,6.432,8.6,Oct-19,2672898,2019-08-12 11:09:15:388,-0.259,-0.0237,9.8298,-0.2323,-0.0058,9.8039,0.0007,0.0035,-0.0007
53874,46.126537,-0.530951,92.97,6.16,6.432,8.6,Oct-19,2672998,2019-08-12 11:09:15:488,-0.2069,0.0744,10.1788,-0.2474,-0.0081,9.8035,-0.0036,-0.004,0.0004
53875,46.126537,-0.530951,92.97,6.16,6.432,8.6,Oct-19,2673097,2019-08-12 11:09:15:587,-0.1698,0.0481,9.691,-0.2376,-0.0072,9.8038,0.0007,-0.0029,0.0015
53876,46.126537,-0.530951,92.97,6.16,6.432,8.6,Oct-19,2673198,2019-08-12 11:09:15:688,-0.2823,-0.0399,9.6844,-0.2385,-0.0084,9.8037,-0.0025,0.0035,0.0004
53877,46.126537,-0.530951,92.97,6.16,6.432,8.6,Oct-19,2673298,2019-08-12 11:09:15:788,-0.0717,-0.0082,10.1369,-0.2297,-0.0086,9.804,0.0082,-0.0114,-0.0007
53878,46.126537,-0.530951,92.97,6.16,6.432,8.6,Oct-19,2673397,2019-08-12 11:09:15:887,-0.095,-0.0273,9.8059,-0.2209,-0.0035,9.8042,0.0039,-0.0029,0.0015
53879,46.126537,-0.530951,92.97,6.16,6.432,8.6,Oct-19,2673498,2019-08-12 11:09:15:988,-0.0998,0.0194,9.6084,-0.2226,-0.0042,9.8041,-0.0025,0.0078,-0.0007
53880,46.126537,-0.530951,92.97,6.16,6.432,8.6,Oct-19,2673598,2019-08-12 11:09:16:088,-0.0507,0.081,9.9418,-0.2113,-0.0003,9.8044,0.0071,-0.0104,0.0025
53881,46.126537,-0.530951,92.97,6.16,6.432,8.6,Oct-19,2673697,2019-08-12 11:09:16:187,-0.0956,-0.0243,9.6096,-0.2038,-0.0005,9.8045,-0.0025,0.0003,0.0025
53882,46.126537,-0.530951,92.97,6.16,6.432,8.6,Oct-19,2673798,2019-08-12 11:09:16:288,-0.1034,0.0966,9.8993,-0.2023,-0.0026,9.8046,-0.0004,0.0014,-0.0007
53883,46.126537,-0.530951,92.97,6.16,6.432,8.6,Oct-19,2673898,2019-08-12 11:09:16:388,0.0002,0.008,9.928,-0.1891,0.0007,9.8048,0.006,-0.0114,0.0025
53884,46.126537,-0.530951,92.97,6.16,6.432,8.6,Oct-19,2673997,2019-08-12 11:09:16:487,0.0385,0.0331,9.8789,-0.165,0.0037,9.8053,-0.0014,0.0024,0.0004
53885,46.126537,-0.530951,92.97,6.16,6.432,8.6,Oct-19,2674098,2019-08-12 11:09:16:588,0.0804,0.09,9.9771,-0.1292,0.0072,9.8058,-0.0057,-0.0008,0.0004
53886,46.126537,-0.530951,92.97,6.16,6.432,8.6,Oct-19,2674198,2019-08-12 11:09:16:688,-0.0016,-0.0076,9.5647,-0.1012,0.011,9.8061,0.0007,-0.0018,0.0036
53887,46.126537,-0.530951,92.97,6.16,6.432,8.6,Oct-19,2674299,2019-08-12 11:09:16:789,0.0541,0.0301,9.5827,-0.0766,0.0028,9.8064,-0.0004,0.0035,0.0004
53888,46.126537,-0.530951,92.97,6.16,6.432,8.6,Oct-19,2674397,2019-08-12 11:09:16:887,0.0535,0.0559,9.9142,-0.0556,0.0047,9.8065,0.0018,-0.004,0.0015
53889,46.126537,-0.530951,92.97,6.16,6.432,8.6,Oct-19,2674497,2019-08-12 11:09:16:987,0.072,0.017,9.852,-0.0257,0.0051,9.8066,0.006,-0.0008,0.0036
53890,46.126537,-0.530951,92.97,6.16,6.432,8.6,Oct-19,2674601,2019-08-12 11:09:17:091,0.1277,0.1098,10.0375,0.0053,0.0039,9.8066,-0.0089,-0.0008,0.0004
53891,46.126537,-0.530951,92.97,6.16,6.432,8.6,Oct-19,2674698,2019-08-12 11:09:17:188,0.2623,-0.0686,9.9909,0.0284,0.0116,9.8066,0.0071,-0.0082,0.0015
53892,46.126537,-0.530951,92.97,6.16,6.432,8.6,Oct-19,2674798,2019-08-12 11:09:17:288,0.1815,0.0756,9.7227,0.0707,0.0077,9.8064,-0.0025,0.0046,0.0025
53893,46.126537,-0.530951,92.97,6.16,6.432,8.6,Oct-19,2674897,2019-08-12 11:09:17:387,0.2564,0.0302,10.1944,0.0734,0.0082,9.8064,0.0028,-0.0008,0.0004
53894,46.126537,-0.530951,92.97,6.16,6.432,8.6,Oct-19,2674997,2019-08-12 11:09:17:487,0.2324,0.0038,10.0256,0.0887,0.0097,9.8062,0.0007,-0.005,0.0025
53895,46.126537,-0.530951,92.97,6.16,6.432,8.6,Oct-19,2675097,2019-08-12 11:09:17:587,0.1259,-0.0165,9.5473,0.0884,0.0085,9.8062,-0.0046,0.0067,0.0025
53896,46.126537,-0.530951,92.97,6.16,6.432,8.6,Oct-19,2675198,2019-08-12 11:09:17:688,0.2294,0.0128,10.1417,0.0942,0.008,9.8062,0.006,-0.0082,0.0004
53897,46.126537,-0.530951,92.97,6.16,6.432,8.6,Oct-19,2675298,2019-08-12 11:09:17:788,0.1839,-0.1237,10.0052,0.1068,0.0064,9.8061,-0.0057,-0.0104,0.0047
53898,46.126537,-0.530951,92.97,6.16,6.432,8.6,Oct-19,2675397,2019-08-12 11:09:17:887,0.181,-0.0004,9.849,0.1079,0.0084,9.8061,0.0007,0.0046,0.0015
53899,46.126537,-0.530951,92.97,6.16,6.432,8.6,Oct-19,2675497,2019-08-12 11:09:17:987,0.0966,-0.0094,9.858,0.1117,0.0076,9.806,0.0007,-0.004,0.0025
53900,46.126537,-0.530951,92.97,6.16,6.432,8.6,Oct-19,2675598,2019-08-12 11:09:18:088,0.1283,0.1187,9.6898,0.108,0.0167,9.806,-0.0046,0.0056,0.0025
53901,46.126537,-0.530951,92.97,6.16,6.432,8.6,Oct-19,2675698,2019-08-12 11:09:18:188,0.1396,-0.0028,10.0286,0.1019,0.0177,9.8061,0.0028,0.0067,0.0004
53902,46.126537,-0.530951,92.97,6.16,6.432,8.6,Oct-19,2675798,2019-08-12 11:09:18:288,-0.071,-0.1225,9.7472,0.0802,0.014,9.8063,0.0028,-0.0008,0.0036
53903,46.126537,-0.530951,92.97,6.16,6.432,8.6,Oct-19,2675899,2019-08-12 11:09:18:389,0.002,0.0295,9.591,0.0631,0.0066,9.8064,-0.0014,0.0067,0.0004
53904,46.126537,-0.530951,92.97,6.16,6.432,8.6,Oct-19,2676000,2019-08-12 11:09:18:490,-0.0668,0.1109,10.0483,0.0616,0.0036,9.8065,0.0007,-0.0104,0.0047
53905,46.126537,-0.530951,92.97,6.16,6.432,8.6,Oct-19,2676099,2019-08-12 11:09:18:589,-0.0471,-0.0291,9.5982,0.0629,0.0042,9.8064,-0.0057,-0.0018,0.0036
53906,46.126537,-0.530951,92.97,6.16,6.432,8.6,Oct-19,2676199,2019-08-12 11:09:18:689,-0.0399,0.0068,9.9328,0.0498,0.0051,9.8065,0.0071,0.0003,0.0004
53907,46.126537,-0.530951,92.97,6.16,6.432,8.6,Oct-19,2676298,2019-08-12 11:09:18:788,-0.0854,0.0732,9.9053,0.0531,0.0045,9.8065,-0.0025,-0.0072,0.0025
53908,46.126537,-0.530951,92.97,6.16,6.432,8.6,Oct-19,2676398,2019-08-12 11:09:18:888,-0.2512,0.1289,9.6988,0.0363,-0.0014,9.8066,-0.0089,0.0131,0.0015
53909,46.126537,-0.530951,92.97,6.16,6.432,8.6,Oct-19,2676498,2019-08-12 11:09:18:988,-0.2249,-0.0764,9.9663,0.0231,-0.0022,9.8066,0.0018,0.0024,0.0025
53910,46.126537,-0.530951,92.97,6.16,6.432,8.6,Oct-19,2676598,2019-08-12 11:09:19:088,-0.3649,-0.0094,9.7969,-0.0265,-0.0113,9.8066,-0.0078,-0.0008,-0.0017
53911,46.126537,-0.530951,92.97,6.16,6.432,8.6,Oct-19,2676698,2019-08-12 11:09:19:188,-0.4954,0.0373,9.7089,-0.0979,-0.0206,9.8061,-0.0014,0.0046,-0.006
53912,46.126537,-0.530951,92.97,6.16,6.432,8.6,Oct-19,2676798,2019-08-12 11:09:19:288,-0.8947,-0.1003,9.7526,-0.163,-0.0122,9.8053,0.006,0.0067,0.0004
53913,46.126537,-0.530951,92.97,6.16,6.432,8.6,Oct-19,2676897,2019-08-12 11:09:19:387,-0.4475,-0.0207,9.7951,-0.1776,-0.0126,9.805,-0.0036,0.0003,-0.0028
53914,46.126537,-0.530951,92.97,6.16,6.432,8.6,Oct-19,2676998,2019-08-12 11:09:19:488,-0.1375,0.0876,9.837,-0.1769,-0.0138,9.805,0.006,-0.0104,-0.0017
53915,46.126537,-0.530951,92.97,6.16,6.432,8.6,Oct-19,2677097,2019-08-12 11:09:19:587,-0.0615,-0.0112,9.9693,-0.1668,-0.0146,9.8052,-0.0057,-0.0061,0.0015
53916,46.126537,-0.530951,92.97,6.16,6.432,8.6,Oct-19,2677198,2019-08-12 11:09:19:688,-0.1507,-0.0447,9.9621,-0.1724,-0.0154,9.8051,0.005,0.0024,-0.0028
53917,46.126537,-0.530951,92.97,6.16,6.432,8.6,Oct-19,2677298,2019-08-12 11:09:19:788,-0.007,-0.0459,9.7921,-0.1625,-0.0146,9.8053,0.0028,-0.0114,0.0004
53918,46.126537,-0.530951,92.97,6.16,6.432,8.6,Oct-19,2677398,2019-08-12 11:09:19:888,-0.153,0.011,9.5204,-0.1558,-0.0124,9.8054,-0.0025,0.0078,-0.0007
53919,46.126537,-0.530951,92.97,6.16,6.432,8.6,Oct-19,2677498,2019-08-12 11:09:19:988,-0.0004,-0.0435,9.8915,-0.1589,-0.0119,9.8054,0.0018,0.0024,-0.0017
53920,46.126537,-0.530951,92.97,6.16,6.432,8.6,Oct-19,2677598,2019-08-12 11:09:20:088,-0.098,-0.0201,9.6724,-0.1462,-0.0104,9.8056,-0.0014,0.0003,0.0015
53921,46.126537,-0.530951,92.97,6.16,6.432,8.6,Oct-19,2677698,2019-08-12 11:09:20:188,0.0499,0.0014,9.9466,-0.1428,-0.0094,9.8056,0.0007,-0.0029,-0.0007
53922,46.126537,-0.530951,92.97,6.16,6.432,8.6,Oct-19,2677798,2019-08-12 11:09:20:288,0.166,0.0044,10.0369,-0.1266,-0.0057,9.8058,0.005,-0.0125,0.0015
53923,46.126537,-0.530951,92.97,6.16,6.432,8.6,Oct-19,2677898,2019-08-12 11:09:20:388,0.1157,0.0367,9.7048,-0.1181,-0.0063,9.8059,-0.0046,0.0046,0.0015
53924,46.126537,-0.530951,92.97,6.16,6.432,8.6,Oct-19,2677998,2019-08-12 11:09:20:488,0.2091,-0.0507,10.0094,-0.1093,-0.0065,9.806,0.0028,-0.004,0.0004
53925,46.126537,-0.530951,92.97,6.16,6.432,8.6,Oct-19,2678098,2019-08-12 11:09:20:588,0.0936,0.0104,9.8448,-0.09,-0.0053,9.8062,-0.0046,0.0024,0.0025
53926,46.126537,-0.530951,92.97,6.16,6.432,8.6,Oct-19,2678198,2019-08-12 11:09:20:688,0.2743,-0.0154,9.8867,-0.0517,-0.0031,9.8065,0.0007,0.0024,-0.0007
53927,46.126537,-0.530951,92.97,6.16,6.432,8.6,Oct-19,2678298,2019-08-12 11:09:20:788,0.1588,0.0804,9.7215,0.0182,0.0005,9.8066,-0.0025,-0.004,0.0036
53928,46.126537,-0.530951,92.97,6.16,6.432,8.6,Oct-19,2678398,2019-08-12 11:09:20:888,0.2749,-0.0297,9.4629,0.065,-0.0006,9.8064,-0.0014,0.0046,0.0004
53929,46.126537,-0.530951,92.97,6.16,6.432,8.6,Oct-19,2678497,2019-08-12 11:09:20:987,0.4347,-0.0237,10.0256,0.1367,-0.0039,9.8057,0.0028,-0.0072,0.0025
53930,46.126537,-0.530951,92.97,6.16,6.432,8.6,Oct-19,2678598,2019-08-12 11:09:21:088,0.4168,-0.0668,9.6934,0.1748,-0.0064,9.8051,-0.0014,-0.0008,0.0025
53931,46.126537,-0.530951,92.97,6.16,6.432,8.6,Oct-19,2678698,2019-08-12 11:09:21:188,0.4838,0.0595,9.9436,0.1877,-0.0074,9.8049,0.005,-0.0061,0.0015
53932,46.126537,-0.530951,92.97,6.16,6.432,8.6,Oct-19,2678798,2019-08-12 11:09:21:288,0.4234,0.1594,9.7167,0.1991,-0.0048,9.8046,0.0018,-0.0029,0.0036
53933,46.126537,-0.530951,92.97,6.16,6.432,8.6,Oct-19,2678898,2019-08-12 11:09:21:388,0.5622,-0.0471,10.0166,0.2383,-0.0071,9.8038,-0.0014,-0.0018,0.0004
53934,46.126537,-0.530951,92.97,6.16,6.432,8.6,Oct-19,2678998,2019-08-12 11:09:21:488,0.5012,-0.086,10.0238,0.2789,-0.0012,9.8027,0.005,-0.0093,0.0036
53935,46.126537,-0.530951,92.97,6.16,6.432,8.6,Oct-19,2679098,2019-08-12 11:09:21:588,0.5347,-0.0399,9.8436,0.293,-0.0062,9.8023,-0.0057,0.0003,-0.0007
53936,46.126537,-0.530951,92.97,6.16,6.432,8.6,Oct-19,2679521,2019-08-12 11:09:22:011,0.7304,-0.0968,10.1668,0.3103,-0.0046,9.8017,0.005,-0.0104,0.0004
53937,46.126537,-0.530951,92.97,6.16,6.432,8.6,Oct-19,2679522,2019-08-12 11:09:22:012,0.7304,-0.0968,10.1668,0.3103,-0.0046,9.8017,0.005,-0.0104,0.0004
53938,46.126537,-0.530951,92.97,6.16,6.432,8.6,Oct-19,2679523,2019-08-12 11:09:22:013,0.7304,-0.0968,10.1668,0.3103,-0.0046,9.8017,0.005,-0.0104,0.0004
53939,46.126537,-0.530951,92.97,6.16,6.432,8.6,Oct-19,2679523,2019-08-12 11:09:22:013,0.7304,-0.0968,10.1668,0.3103,-0.0046,9.8017,0.005,-0.0104,0.0004
53940,46.126537,-0.530951,92.97,6.16,6.432,8.6,Oct-19,2679523,2019-08-12 11:09:22:013,0.7304,-0.0968,10.1668,0.3103,-0.0046,9.8017,0.005,-0.0104,0.0004
53941,46.126537,-0.530951,92.97,6.16,6.432,8.6,0 / 19,2679524,2019-08-12 11:09:22:014,0.7304,-0.0968,10.1668,0.3103,-0.0046,9.8017,0.005,-0.0104,0.0004
53942,46.126537,-0.530951,92.97,6.16,6.432,8.6,0 / 19,2679524,2019-08-12 11:09:22:014,0.7304,-0.0968,10.1668,0.3103,-0.0046,9.8017,0.005,-0.0104,0.0004
53943,46.126537,-0.530951,92.97,6.16,6.432,8.6,0 / 19,2679524,2019-08-12 11:09:22:014,0.7304,-0.0968,10.1668,0.3103,-0.0046,9.8017,0.005,-0.0104,0.0004
53944,46.126537,-0.530951,92.97,6.16,6.432,8.6,0 / 19,2679525,2019-08-12 11:09:22:015,0.7304,-0.0968,10.1668,0.3103,-0.0046,9.8017,0.005,-0.0104,0.0004
53945,46.126537,-0.530951,92.97,6.16,6.432,8.6,0 / 19,2679532,2019-08-12 11:09:22:022,0.7304,-0.0968,10.1668,0.3103,-0.0046,9.8017,0.005,-0.0104,0.0004
53946,46.127213,-0.530785,90.77,8.86,6.432,9.8,0 / 19,2679589,2019-08-12 11:09:22:079,0.7304,-0.0968,10.1668,0.3103,-0.0046,9.8017,0.005,-0.0104,0.0004
53947,46.127213,-0.530785,90.77,8.86,6.432,9.8,0 / 19,2679688,2019-08-12 11:09:22:178,0.7304,-0.0968,10.1668,0.3103,-0.0046,9.8017,0.005,-0.0104,0.0004
53948,46.127213,-0.530785,90.77,8.86,6.432,9.8,0 / 19,2679789,2019-08-12 11:09:22:279,1.5498,-0.0938,9.9645,1.4114,-0.059,9.7044,0.0039,-0.0135,0.0015
53949,46.127213,-0.530785,90.77,8.86,6.432,9.8,0 / 19,2679889,2019-08-12 11:09:22:379,1.4541,0.0589,9.9962,1.4256,-0.064,9.7023,-0.0025,0.012,0.0015
53950,46.127213,-0.530785,90.77,8.86,6.432,9.8,0 / 19,2679989,2019-08-12 11:09:22:479,1.4541,0.0589,9.9962,1.4256,-0.064,9.7023,-0.0025,0.012,0.0015
53951,46.127213,-0.530785,90.77,8.86,6.432,9.8,0 / 19,2680089,2019-08-12 11:09:22:579,-0.4116,-0.0267,9.5773,1.1989,-0.0629,9.7329,-0.0089,0.0333,0.0025
53952,46.127213,-0.530785,90.77,8.86,6.432,9.8,0 / 19,2680457,2019-08-12 11:09:22:947,-0.4116,-0.0267,9.5773,1.1989,-0.0629,9.7329,-0.0089,0.0333,0.0025
53953,46.127213,-0.530785,90.77,8.86,6.432,9.8,0 / 19,2680458,2019-08-12 11:09:22:948,-0.4116,-0.0267,9.5773,1.1989,-0.0629,9.7329,-0.0089,0.0333,0.0025
53954,46.127213,-0.530785,90.77,8.86,6.432,9.8,0 / 19,2680459,2019-08-12 11:09:22:949,-0.4116,-0.0267,9.5773,1.1989,-0.0629,9.7329,-0.0089,0.0333,0.0025
53955,46.127213,-0.530785,90.77,8.86,6.432,9.8,0 / 19,2680459,2019-08-12 11:09:22:949,-0.4116,-0.0267,9.5773,1.1989,-0.0629,9.7329,-0.0089,0.0333,0.0025
53956,46.127213,-0.530785,90.77,8.86,6.432,9.8,0 / 19,2680461,2019-08-12 11:09:22:951,-0.4116,-0.0267,9.5773,1.1989,-0.0629,9.7329,-0.0089,0.0333,0.0025
53957,46.127213,-0.530785,90.77,8.86,6.432,9.8,0 / 19,2680463,2019-08-12 11:09:22:953,-0.4116,-0.0267,9.5773,1.1989,-0.0629,9.7329,-0.0089,0.0333,0.0025
53958,46.127213,-0.530785,90.77,8.86,6.432,9.8,0 / 19,2680468,2019-08-12 11:09:22:958,-0.4116,-0.0267,9.5773,1.1989,-0.0629,9.7329,-0.0089,0.0333,0.0025
53959,46.127213,-0.530785,90.77,8.86,6.432,9.8,0 / 19,2680470,2019-08-12 11:09:22:960,-0.4116,-0.0267,9.5773,1.1989,-0.0629,9.7329,-0.0089,0.0333,0.0025
53960,46.127213,-0.530785,90.77,8.86,6.432,9.8,0 / 19,2680471,2019-08-12 11:09:22:961,-0.4116,-0.0267,9.5773,1.1989,-0.0629,9.7329,-0.0089,0.0333,0.0025
53961,46.127213,-0.530785,90.77,8.86,6.432,9.8,0 / 19,2680471,2019-08-12 11:09:22:961,-0.4116,-0.0267,9.5773,1.1989,-0.0629,9.7329,-0.0089,0.0333,0.0025
53962,46.127213,-0.530785,90.77,8.86,6.432,9.8,0 / 19,2680472,2019-08-12 11:09:22:962,-0.4116,-0.0267,9.5773,1.1989,-0.0629,9.7329,-0.0089,0.0333,0.0025
53963,46.127213,-0.530785,90.77,8.86,6.432,9.8,0 / 19,2680473,2019-08-12 11:09:22:963,-0.4116,-0.0267,9.5773,1.1989,-0.0629,9.7329,-0.0089,0.0333,0.0025
