,GPS LATITUDE (degrees), GPS LONGITUDE (degrees), GPS ALTITUDE (m), GPS SPEED (Kmh), GPS ACCURACY (m), GPS ORIENTATION (Â°),GPS SATELLITES IN RANGE, TIME SINCE START (ms), DATE (YYYY-MO-DD HH-MI-SS_SSS), ACCELEROMETER X (m/s²) , ACCELEROMETER Y (m/s²), ACCELEROMETER Z (m/s²), GRAVITY X (m/s²), GRAVITY Y (m/s²), GRAVITY Z (m/s²), GYROSCOPE Yaw (rad/s), GYROSCOPE Pitch (rad/s), GYROSCOPE Roll (rad/s), MAGNETIC FIELD X (Î¼T), MAGNETIC FIELD Y (Î¼T), MAGNETIC FIELD Z (Î¼T), ORIENTATION (Yaw) (Â°), ORIENTATION (Pitch) (Â°), ORIENTATION (Roll ) (Â°)
92894,52.461132,-1.401482,182.7,21.64,4.0,208.34,22 / 22,4868075,2019-09-07 11:48:21:229,-0.1549,-0.3533,10.7199,0.0293,-0.0002,9.8066,0.0609,0.0606,-0.0025,-21.31,-27.25,31.81,338.04,-82.57,-166.56
92895,52.461132,-1.401482,182.7,21.64,4.0,208.34,22 / 22,4868175,2019-09-07 11:48:21:329,-0.2977,0.1787,9.6113,0.0149,0.0035,9.8066,0.0298,0.0293,-0.0128,-21.69,-27.75,32.5,334.57,-82.43,-169.25
92896,52.461132,-1.401482,182.7,21.64,4.0,208.34,22 / 22,4868276,2019-09-07 11:48:21:430,-0.7262,0.2092,8.6887,0.0065,0.0105,9.8066,-0.0026,0.0286,0.0035,-20.81,-27.5,32.81,334.5,-82.44,-170.59
92897,52.461132,-1.401482,182.7,21.64,4.0,208.34,22 / 22,4868375,2019-09-07 11:48:21:529,-0.9912,0.3418,9.15,0.0023,0.0143,9.8066,0.0223,0.0949,0.065,-21.19,-27.69,32.06,332.6,-82.55,-171.42
92898,52.461132,-1.401482,182.7,21.64,4.0,208.34,22 / 22,4868476,2019-09-07 11:48:21:630,-0.6421,-0.0428,10.4373,-0.0008,-0.0018,9.8066,-0.0012,-0.0029,0.0059,-20.62,-27.81,31.63,332.5,-82.6,-171.53
92899,52.461132,-1.401482,182.7,21.64,4.0,208.34,22 / 22,4868575,2019-09-07 11:48:21:729,-0.6505,0.4786,9.6376,0.0018,-0.0053,9.8066,-0.0077,-0.036,-0.0127,-20.56,-28.06,31.56,332.85,-82.52,-171.18
92900,52.461132,-1.401482,182.7,21.64,4.0,208.34,22 / 22,4868675,2019-09-07 11:48:21:829,-1.2585,0.5746,10.7322,-0.0045,-0.0016,9.8066,-0.0258,-0.0471,-0.0163,-20.81,-27.69,31.69,332.9,-82.49,-171.12
92901,52.461132,-1.401482,182.7,21.64,4.0,208.34,22 / 22,4868776,2019-09-07 11:48:21:930,0.0398,-0.0309,9.7357,-0.0025,0.0054,9.8066,-0.0169,0.0156,0.044,-21.0,-27.06,31.94,333.33,-82.57,-170.85
92902,52.461132,-1.401482,182.7,21.64,4.0,208.34,22 / 22,4868875,2019-09-07 11:48:22:029,-0.826,0.5488,9.4967,-0.0131,-0.0025,9.8066,-0.0038,0.0442,0.05,-20.94,-27.75,31.5,335.09,-82.66,-169.2
92903,52.461132,-1.401482,182.7,21.64,4.0,208.34,22 / 22,4868975,2019-09-07 11:48:22:129,-0.273,0.2529,10.1945,-0.0124,0.0004,9.8066,-0.0054,0.0219,0.0078,-21.12,-27.75,31.44,335.13,-82.74,-168.3
92904,52.461132,-1.401482,182.7,21.64,4.0,208.34,22 / 22,4869075,2019-09-07 11:48:22:229,-1.4773,-0.1996,9.8331,-0.0088,0.0012,9.8066,-0.0216,0.0101,0.0034,-21.62,-27.75,31.56,335.7,-82.78,-167.48
92905,52.461132,-1.401482,182.7,21.64,4.0,208.34,22 / 22,4869175,2019-09-07 11:48:22:329,-0.9063,0.5194,10.3052,-0.0065,0.0004,9.8066,-0.0286,-0.0195,0.0294,-21.5,-27.37,31.5,338.57,-82.82,-166.16
92906,52.461132,-1.401482,182.7,21.64,4.0,208.34,22 / 22,4869275,2019-09-07 11:48:22:429,-0.4917,0.1218,9.6999,-0.0042,-0.0054,9.8066,0.0214,-0.015,-0.0174,-21.44,-27.69,32.5,341.03,-82.81,-164.69
92907,52.461132,-1.401482,182.7,21.64,4.0,208.34,22 / 22,4869376,2019-09-07 11:48:22:530,-1.1005,0.3528,10.3241,0.0046,-0.0044,9.8066,0.0487,0.0376,0.001,-21.56,-27.87,31.81,339.08,-82.67,-164.37
92908,52.461132,-1.401482,182.7,21.64,4.0,208.34,22 / 22,4869475,2019-09-07 11:48:22:629,-0.7069,0.2774,8.7886,0.0035,-0.0079,9.8066,0.0232,0.0473,0.02,-21.81,-27.75,31.94,338.86,-82.47,-164.51
92909,52.461132,-1.401482,182.7,21.64,4.0,208.34,22 / 22,4869575,2019-09-07 11:48:22:729,-0.0828,-0.0799,10.6833,-0.0066,-0.0048,9.8066,0.0049,0.021,0.0236,-21.81,-28.12,31.56,339.28,-82.42,-164.11
92910,52.461132,-1.401482,182.7,21.64,4.0,208.34,22 / 22,4869676,2019-09-07 11:48:22:830,-0.5561,-0.0645,9.6699,-0.0108,-0.0006,9.8066,-0.0362,-0.0336,-0.0188,-22.31,-27.81,32.0,340.26,-82.36,-163.21
92911,52.461132,-1.401482,182.7,21.64,4.0,208.34,22 / 22,4869776,2019-09-07 11:48:22:930,-0.5802,0.0265,8.5991,0.001,0.0025,9.8066,0.0134,0.0341,0.0153,-22.37,-27.19,31.94,341.4,-82.39,-162.25
92912,52.461132,-1.401482,182.7,21.64,4.0,208.34,22 / 22,4869876,2019-09-07 11:48:23:030,-1.1416,-0.1884,9.4727,0.0,0.019,9.8066,-0.0179,0.0663,-0.0015,-22.5,-27.69,31.56,341.62,-82.41,-162.0
92913,52.461132,-1.401482,182.7,21.64,4.0,208.34,22 / 22,4869976,2019-09-07 11:48:23:130,-0.7142,-0.3271,11.09,0.009,0.0062,9.8066,0.0029,0.0542,0.0318,-22.12,-27.81,31.69,340.82,-82.57,-162.76
92914,52.461132,-1.401482,182.7,21.64,4.0,208.34,22 / 22,4870076,2019-09-07 11:48:23:230,0.8092,0.7662,10.1302,-0.0112,-0.0109,9.8066,-0.0154,-0.0626,-0.038,-21.44,-28.0,31.5,343.17,-82.53,-161.84
92915,52.461132,-1.401482,182.7,21.64,4.0,208.34,22 / 22,4870176,2019-09-07 11:48:23:330,0.6795,-0.3104,12.4548,-0.0115,-0.0103,9.8065,-0.0315,-0.0979,-0.0551,-22.06,-27.94,31.56,342.78,-82.49,-160.97
92916,52.461132,-1.401482,182.7,21.64,4.0,208.34,21 / 21,4870275,2019-09-07 11:48:23:429,-0.3997,0.3357,10.3056,-0.0109,-0.0126,9.8066,-0.0317,-0.0833,-0.0335,-22.31,-27.75,31.63,343.94,-82.37,-159.89
92917,52.461132,-1.401482,182.7,21.64,4.0,208.34,21 / 21,4870376,2019-09-07 11:48:23:530,-0.2683,0.14,9.4958,-0.0105,0.0033,9.8066,-0.0189,0.014,0.0241,-21.75,-27.94,31.94,345.44,-82.33,-158.54
92918,52.461132,-1.401482,182.7,21.64,4.0,208.34,21 / 21,4870475,2019-09-07 11:48:23:629,-0.4453,0.2933,9.8973,-0.0058,-0.002,9.8066,0.0017,0.0233,0.0342,-22.62,-27.81,31.63,345.62,-82.35,-157.2
92919,52.461132,-1.401482,182.7,21.64,4.0,208.34,21 / 21,4870575,2019-09-07 11:48:23:729,0.4121,0.1265,9.4259,-0.0073,0.0041,9.8066,0.0093,0.0653,0.0268,-22.81,-28.31,31.13,345.36,-82.38,-156.55
92920,52.461132,-1.401482,182.7,21.64,4.0,208.34,21 / 21,4870675,2019-09-07 11:48:23:829,-0.1542,0.319,10.158,-0.0156,0.0031,9.8066,-0.0468,-0.0439,-0.0449,-22.5,-28.0,31.63,348.63,-82.42,-155.69
92921,52.461132,-1.401482,182.7,21.64,4.0,208.34,21 / 21,4870775,2019-09-07 11:48:23:929,-0.1546,0.2653,9.6746,-0.0093,0.0064,9.8066,-0.0341,-0.0501,-0.0414,-22.56,-27.62,31.63,349.06,-82.49,-154.13
92922,52.461132,-1.401482,182.7,21.64,4.0,208.34,21 / 21,4870875,2019-09-07 11:48:24:029,0.1639,-0.0517,10.7532,-0.0097,-0.005,9.8066,-0.0399,-0.0455,-0.0278,-22.69,-27.94,31.0,348.34,-82.6,-153.91
92923,52.461132,-1.401482,182.7,21.64,4.0,208.34,21 / 21,4870976,2019-09-07 11:48:24:130,-0.6699,0.1688,10.2183,0.0014,0.0071,9.8066,0.0031,-0.0012,-0.0162,-22.56,-28.12,30.63,348.71,-82.69,-153.59
92924,52.461132,-1.401482,182.7,21.64,4.0,208.34,21 / 21,4871075,2019-09-07 11:48:24:229,-0.4069,-0.2697,10.6591,0.0045,0.0026,9.8066,0.0369,0.1016,0.0682,-22.69,-27.5,30.56,348.15,-82.71,-154.13
92925,52.461132,-1.401482,182.7,21.64,4.0,208.34,21 / 21,4871175,2019-09-07 11:48:24:329,-1.4695,0.3723,10.4631,0.0004,-0.0046,9.8066,0.0359,0.0837,0.0375,-23.25,-27.81,31.19,348.41,-82.65,-153.85
92926,52.459496,-1.402418,182.46,20.72,4.0,194.92,22 / 22,4871276,2019-09-07 11:48:24:430,-1.0568,0.4637,9.6462,0.0011,0.0072,9.8065,-0.0106,0.0529,0.017,-22.56,-27.87,31.13,348.35,-82.64,-153.91
92927,52.459496,-1.402418,182.46,20.72,4.0,194.92,22 / 22,4871375,2019-09-07 11:48:24:529,-1.2289,0.5856,9.5786,-0.0015,0.0215,9.8066,-0.0161,0.0261,-0.012,-22.75,-28.0,31.19,348.37,-82.81,-153.92
92928,52.459496,-1.402418,182.46,20.72,4.0,194.92,22 / 22,4871476,2019-09-07 11:48:24:630,-0.7523,0.3479,8.2021,0.0111,0.012,9.8066,0.0079,0.0408,-0.0128,-22.94,-28.19,31.5,348.68,-82.95,-154.55
92929,52.459496,-1.402418,182.46,20.72,4.0,194.92,22 / 22,4871575,2019-09-07 11:48:24:729,0.0314,0.5824,9.6684,0.0149,0.0053,9.8065,0.018,0.0359,-0.0303,-21.94,-28.12,31.38,346.62,-83.08,-156.75
92930,52.459496,-1.402418,182.46,20.72,4.0,194.92,22 / 22,4871675,2019-09-07 11:48:24:829,-0.0841,0.1713,9.7903,0.0131,0.0033,9.8066,0.0366,0.059,0.014,-22.0,-27.94,31.44,344.2,-83.07,-158.94
92931,52.459496,-1.402418,182.46,20.72,4.0,194.92,22 / 22,4871775,2019-09-07 11:48:24:929,0.0799,0.0559,9.6979,0.0005,0.0028,9.8066,-0.0027,0.0372,0.0111,-22.94,-27.69,31.5,343.66,-83.06,-159.13
92932,52.459496,-1.402418,182.46,20.72,4.0,194.92,22 / 22,4871875,2019-09-07 11:48:25:029,-1.1378,-0.1743,9.5964,-0.0048,0.0052,9.8066,-0.0309,-0.0165,-0.0268,-22.44,-27.94,31.06,344.72,-83.11,-158.48
92933,52.459496,-1.402418,182.46,20.72,4.0,194.92,22 / 22,4871975,2019-09-07 11:48:25:129,-1.293,0.1239,9.0561,-0.0024,0.0013,9.8066,-0.0205,-0.0512,-0.0349,-22.62,-27.81,31.81,344.92,-83.17,-158.01
92934,52.459496,-1.402418,182.46,20.72,4.0,194.92,22 / 22,4872075,2019-09-07 11:48:25:229,-0.3412,1.0828,11.2187,0.0002,-0.0016,9.8066,0.0366,0.0327,0.0221,-21.87,-27.94,31.44,345.54,-83.11,-157.74
92935,52.459496,-1.402418,182.46,20.72,4.0,194.92,22 / 22,4872175,2019-09-07 11:48:25:329,-0.3675,-0.1375,9.8224,-0.0024,-0.0075,9.8066,0.0096,-0.0165,0.001,-21.81,-27.37,30.81,345.62,-83.02,-157.68
92936,52.459496,-1.402418,182.46,20.72,4.0,194.92,22 / 22,4872275,2019-09-07 11:48:25:429,-0.286,0.4782,9.9164,-0.006,-0.0077,9.8066,0.0216,0.0319,0.0462,-22.31,-27.75,31.44,346.2,-82.94,-157.1
92937,52.459496,-1.402418,182.46,20.72,4.0,194.92,22 / 22,4872375,2019-09-07 11:48:25:529,-0.5377,0.6896,9.9523,-0.0011,-0.0021,9.8066,-0.0158,-0.0133,0.0005,-22.06,-28.06,31.38,346.34,-82.88,-156.96
92938,52.459496,-1.402418,182.46,20.72,4.0,194.92,22 / 22,4872476,2019-09-07 11:48:25:630,-0.3608,0.4518,10.4444,-0.0066,-0.0043,9.8066,0.0027,0.0077,0.0035,-22.56,-27.75,31.31,345.85,-82.89,-156.22
92939,52.459496,-1.402418,182.46,20.72,4.0,194.92,22 / 22,4872575,2019-09-07 11:48:25:729,-0.399,0.5972,8.8097,-0.0103,-0.0004,9.8066,-0.0164,0.0145,0.0177,-22.06,-28.31,31.56,349.67,-82.89,-154.82
92940,52.459496,-1.402418,182.46,20.72,4.0,194.92,22 / 22,4872675,2019-09-07 11:48:25:829,-0.8165,0.4548,10.1762,-0.0122,-0.0049,9.8066,-0.0021,0.0299,0.0369,-22.94,-28.37,31.44,348.58,-82.93,-153.74
92941,52.459496,-1.402418,182.46,20.72,4.0,194.92,22 / 22,4872775,2019-09-07 11:48:25:929,-1.5605,1.1594,9.7874,-0.0073,-0.0026,9.8066,0.0335,0.0577,0.0283,-22.69,-28.56,31.63,350.94,-82.91,-152.47
92942,52.459496,-1.402418,182.46,20.72,4.0,194.92,22 / 22,4872875,2019-09-07 11:48:26:029,-0.612,0.5448,9.6695,-0.0004,-0.0002,9.8066,-0.0077,-0.0391,-0.0254,-22.25,-27.94,31.56,352.06,-82.88,-152.66
92943,52.459496,-1.402418,182.46,20.72,4.0,194.92,22 / 22,4872975,2019-09-07 11:48:26:129,-0.3713,-0.2581,8.5749,-0.0055,-0.0023,9.8066,-0.046,-0.0817,-0.0416,-22.94,-27.81,30.81,350.27,-82.83,-152.21
92944,52.459496,-1.402418,182.46,20.72,4.0,194.92,22 / 22,4873075,2019-09-07 11:48:26:229,-0.5954,-0.1585,10.1394,-0.0135,-0.0044,9.8066,-0.014,0.0305,0.0506,-22.75,-27.81,30.63,352.06,-82.77,-150.58
92945,52.459496,-1.402418,182.46,20.72,4.0,194.92,22 / 22,4873175,2019-09-07 11:48:26:329,-0.9149,-0.4053,9.5479,-0.0156,0.0026,9.8065,-0.0168,0.018,0.0294,-22.56,-28.12,31.13,354.52,-82.81,-148.37
92946,52.459496,-1.402418,182.46,20.72,4.0,194.92,22 / 22,4873275,2019-09-07 11:48:26:429,-1.7431,-0.1212,10.3465,0.007,-0.0011,9.8066,0.0248,0.0149,-0.0028,-23.12,-28.31,31.31,355.23,-82.8,-147.73
92947,52.459496,-1.402418,182.46,20.72,4.0,194.92,22 / 22,4873376,2019-09-07 11:48:26:530,-1.2521,0.0892,11.7295,0.0023,-0.0041,9.8066,0.016,-0.0219,-0.043,-23.5,-28.0,31.44,354.58,-82.75,-148.31
92948,52.459496,-1.402418,182.46,20.72,4.0,194.92,22 / 22,4873475,2019-09-07 11:48:26:629,-0.006,0.3275,8.9541,0.0069,0.0039,9.8066,0.0289,0.0489,0.0184,-22.62,-28.06,31.44,353.51,-82.66,-149.26
92949,52.459496,-1.402418,182.46,20.72,4.0,194.92,22 / 22,4873575,2019-09-07 11:48:26:729,0.3696,0.304,10.2381,0.0021,-0.0001,9.8066,0.0074,-0.0663,-0.0283,-22.87,-27.62,31.25,352.88,-82.63,-149.82
92950,52.459496,-1.402418,182.46,20.72,4.0,194.92,22 / 22,4873675,2019-09-07 11:48:26:829,-0.697,-0.257,9.3884,-0.0153,-0.0089,9.8065,-0.0419,-0.0457,0.0028,-22.94,-27.62,31.31,353.37,-82.55,-149.38
92951,52.459496,-1.402418,182.46,20.72,4.0,194.92,22 / 22,4873775,2019-09-07 11:48:26:929,-0.8729,0.3289,9.4134,-0.0217,-0.0025,9.8066,-0.0295,0.0135,0.056,-23.56,-27.62,31.0,355.04,-82.47,-146.71
92952,52.459496,-1.402418,182.46,20.72,4.0,194.92,22 / 22,4873875,2019-09-07 11:48:27:029,-1.0292,0.0312,10.7358,-0.0077,0.0008,9.8066,-0.013,-0.0218,0.02,-23.37,-28.06,31.63,359.07,-82.48,-145.13
92953,52.459496,-1.402418,182.46,20.72,4.0,194.92,22 / 22,4873975,2019-09-07 11:48:27:129,-0.9529,-0.0124,10.6383,0.0058,-0.009,9.8066,0.022,0.0117,-0.0138,-23.06,-28.25,31.0,358.23,-82.38,-145.01
92954,52.459496,-1.402418,182.46,20.72,4.0,194.92,22 / 22,4874075,2019-09-07 11:48:27:229,-1.0614,0.6272,11.232,0.0082,0.0031,9.8066,0.005,-0.0011,-0.0191,-23.06,-28.5,31.56,358.41,-82.34,-145.72
92955,52.459496,-1.402418,182.46,20.72,4.0,194.92,22 / 22,4874175,2019-09-07 11:48:27:329,0.1524,0.0984,10.7834,0.0059,0.0113,9.8066,-0.0236,-0.0234,-0.0152,-23.12,-28.0,31.5,357.91,-82.48,-146.17
92956,52.459496,-1.402418,182.46,20.72,4.0,194.92,21 / 22,4874275,2019-09-07 11:48:27:429,-0.985,0.1833,9.5453,0.0093,0.0133,9.8065,-0.0061,-0.0183,-0.0388,-22.62,-28.12,31.31,357.5,-82.49,-145.67
92957,52.459496,-1.402418,182.46,20.72,4.0,194.92,21 / 22,4874376,2019-09-07 11:48:27:530,-0.5776,-0.1663,9.5086,0.0061,0.0089,9.8066,-0.0026,0.013,-0.0209,-23.31,-28.0,31.06,356.3,-82.69,-146.75
92958,52.459496,-1.402418,182.46,20.72,4.0,194.92,21 / 22,4874475,2019-09-07 11:48:27:629,-0.1232,0.5385,8.1477,0.0045,-0.0003,9.8066,0.0147,-0.0125,-0.0134,-22.75,-27.5,30.88,355.63,-82.75,-147.37
92959,52.459496,-1.402418,182.46,20.72,4.0,194.92,21 / 22,4874575,2019-09-07 11:48:27:729,-0.493,-0.0863,9.1497,-0.001,-0.0003,9.8066,-0.0221,-0.0221,-0.0108,-23.19,-27.81,30.5,355.27,-82.74,-147.69
92960,52.459496,-1.402418,182.46,20.72,4.0,194.92,21 / 22,4874676,2019-09-07 11:48:27:830,-0.2129,-0.1212,9.8924,-0.0185,-0.0055,9.8066,-0.0357,-0.0083,0.0123,-23.06,-28.31,31.25,356.84,-82.77,-146.27
92961,52.459496,-1.402418,182.46,20.72,4.0,194.92,21 / 22,4874776,2019-09-07 11:48:27:930,-0.9132,-0.1902,9.3209,-0.018,-0.0011,9.8065,-0.0113,0.0492,0.0314,-23.12,-28.19,31.13,358.52,-82.76,-144.76
92962,52.459496,-1.402418,182.46,20.72,4.0,194.92,21 / 22,4874875,2019-09-07 11:48:28:029,-0.5989,0.1325,10.4431,0.0061,-0.0108,9.8066,0.0194,-0.0244,-0.0289,-23.12,-28.44,31.0,359.13,-82.78,-144.21
92963,52.459496,-1.402418,182.46,20.72,4.0,194.92,21 / 22,4874976,2019-09-07 11:48:28:130,0.1696,0.1253,9.5013,0.006,-0.0048,9.8066,-0.0134,-0.0218,-0.035,-23.31,-27.56,31.06,358.08,-82.67,-145.16
92964,52.459496,-1.402418,182.46,20.72,4.0,194.92,21 / 22,4875075,2019-09-07 11:48:28:229,-0.5412,-0.0167,8.7433,-0.0098,0.0092,9.8066,-0.0101,0.0543,0.0359,-23.37,-28.44,31.13,358.48,-82.62,-144.8
92965,52.459496,-1.402418,182.46,20.72,4.0,194.92,21 / 22,4875175,2019-09-07 11:48:28:329,-0.1178,0.7899,8.9094,-0.004,0.0108,9.8066,-0.043,-0.0186,-0.0459,-23.12,-28.44,31.0,359.59,-82.74,-143.8
92966,52.459496,-1.402418,182.46,20.72,4.0,194.92,21 / 22,4875275,2019-09-07 11:48:28:429,-1.1323,0.035,9.5629,0.0038,0.0121,9.8066,-0.0502,-0.0571,-0.0852,-23.25,-28.19,31.38,359.46,-82.96,-143.92
92967,52.459496,-1.402418,182.46,20.72,4.0,194.92,21 / 22,4875375,2019-09-07 11:48:28:529,0.7013,0.4487,10.0578,0.0115,0.013,9.8066,0.0104,0.1051,0.0419,-23.19,-28.25,31.19,358.92,-83.04,-144.4
92968,52.459496,-1.402418,182.46,20.72,4.0,194.92,21 / 22,4875475,2019-09-07 11:48:28:629,-0.59,1.1173,9.7836,0.0173,0.0092,9.8066,0.0406,0.0238,-0.016,-22.87,-27.87,31.0,358.53,-83.1,-144.75
92969,52.459496,-1.402418,182.46,20.72,4.0,194.92,21 / 22,4875575,2019-09-07 11:48:28:729,-0.6399,0.1952,11.5749,0.0013,-0.0168,9.8066,-0.0157,-0.0192,-0.0112,-22.75,-28.44,31.06,357.03,-83.05,-146.11
92970,52.459496,-1.402418,182.46,20.72,4.0,194.92,21 / 22,4875676,2019-09-07 11:48:28:830,0.3765,0.0321,9.7689,-0.0112,-0.0143,9.8066,-0.009,-0.0371,-0.0146,-22.75,-28.56,31.63,357.61,-83.07,-146.45
92971,52.459496,-1.402418,182.46,20.72,4.0,194.92,21 / 22,4875776,2019-09-07 11:48:28:930,-0.1495,1.1813,9.444,-0.011,0.0087,9.8066,-0.0294,-0.0053,0.0053,-23.19,-27.94,31.13,358.55,-83.01,-144.74
92972,52.459496,-1.402418,182.46,20.72,4.0,194.92,21 / 22,4875876,2019-09-07 11:48:29:030,-0.6369,1.1121,9.9073,-0.0054,0.0126,9.8066,-0.0515,-0.049,-0.0342,-22.94,-28.81,30.81,359.8,-83.13,-143.61
92973,52.459496,-1.402418,182.46,20.72,4.0,194.92,21 / 22,4875976,2019-09-07 11:48:29:130,0.1043,0.3896,8.9083,-0.0017,-0.0162,9.8066,0.0455,0.0685,0.0622,-22.81,-28.87,30.88,0.78,-83.01,-142.73
92974,52.459496,-1.402418,182.46,20.72,4.0,194.92,21 / 22,4876076,2019-09-07 11:48:29:230,-0.8284,-0.2296,10.9296,-0.0085,0.0089,9.8066,0.0015,0.065,0.0539,-22.87,-28.37,31.0,1.34,-82.93,-142.22
92975,52.459496,-1.402418,182.46,20.72,4.0,194.92,21 / 22,4876175,2019-09-07 11:48:29:329,-1.5501,0.8488,9.7844,-0.003,0.0164,9.8065,-0.027,0.0415,0.0048,-23.25,-28.44,30.38,1.38,-83.2,-141.27
92976,52.459496,-1.402418,182.46,20.72,4.0,194.92,21 / 21,4876275,2019-09-07 11:48:29:429,-2.5236,1.4504,9.5851,0.0163,0.0171,9.8066,0.025,0.016,-0.0342,-22.37,-27.87,30.75,4.32,-83.35,-140.72
92977,52.459496,-1.402418,182.46,20.72,4.0,194.92,21 / 21,4876376,2019-09-07 11:48:29:530,0.9353,-0.1392,9.0002,0.016,0.0101,9.8066,-0.0409,-0.115,-0.1251,-22.75,-28.44,30.69,0.34,-83.54,-143.12
92978,52.459496,-1.402418,182.46,20.72,4.0,194.92,21 / 21,4876475,2019-09-07 11:48:29:629,0.3087,-0.9253,7.9412,-0.009,-0.0032,9.8066,0.0019,0.0687,0.0441,-22.87,-28.56,30.75,0.05,-83.59,-143.38
92979,52.459496,-1.402418,182.46,20.72,4.0,194.92,21 / 21,4876575,2019-09-07 11:48:29:729,-1.5584,-0.5778,9.6954,-0.0177,0.0134,9.8066,-0.0478,0.0128,-0.044,-22.37,-28.62,30.5,2.59,-83.73,-142.28
92980,52.459496,-1.402418,182.46,20.72,4.0,194.92,21 / 21,4876675,2019-09-07 11:48:29:829,-0.4805,2.412,7.2226,-0.0371,-0.0125,9.8065,-0.0554,-0.0994,0.0197,-22.56,-28.5,30.0,0.54,-84.03,-142.03
92981,52.459496,-1.402418,182.46,20.72,4.0,194.92,21 / 21,4876775,2019-09-07 11:48:29:929,-0.7696,1.9314,8.1626,-0.0103,0.0009,9.8066,0.1283,0.1489,0.0667,-22.75,-29.25,30.0,6.44,-83.91,-136.64
92982,52.459496,-1.402418,182.46,20.72,4.0,194.92,21 / 21,4876875,2019-09-07 11:48:30:029,-2.5967,2.5364,11.4144,0.0444,0.0281,9.8064,-0.0561,-0.1747,-0.2629,-22.5,-28.87,30.63,4.85,-83.82,-140.21
92983,52.459496,-1.402418,182.46,20.72,4.0,194.92,21 / 21,4876975,2019-09-07 11:48:30:129,-0.9244,2.2943,7.7539,0.0099,0.0146,9.8066,0.0823,0.1261,0.0534,-22.44,-28.81,30.81,359.69,-84.04,-144.92
92984,52.459496,-1.402418,182.46,20.72,4.0,194.92,21 / 21,4877075,2019-09-07 11:48:30:229,0.0941,2.7391,10.4953,0.0114,0.0273,9.8066,-0.0029,0.0774,0.0259,-22.81,-27.56,30.5,355.58,-84.18,-147.5
92985,52.459496,-1.402418,182.46,20.72,4.0,194.92,21 / 21,4877175,2019-09-07 11:48:30:329,-0.7633,0.8076,9.1261,-0.024,-0.0059,9.8065,0.0046,0.1048,0.1149,-23.0,-27.56,30.31,356.34,-84.11,-145.89
92986,52.459496,-1.402418,182.46,20.72,4.0,194.92,21 / 22,4877275,2019-09-07 11:48:30:429,-0.4779,0.9702,8.5827,-0.0138,-0.0017,9.8066,0.0148,0.0902,0.1329,-22.56,-27.81,30.5,358.96,-84.06,-144.38
92987,52.459496,-1.402418,182.46,20.72,4.0,194.92,21 / 22,4877375,2019-09-07 11:48:30:529,-1.1292,0.816,8.8157,-0.019,-0.0071,9.8066,-0.0241,0.0202,0.0338,-22.69,-28.94,30.5,1.83,-83.99,-141.75
92988,52.459496,-1.402418,182.46,20.72,4.0,194.92,21 / 22,4877476,2019-09-07 11:48:30:630,-0.337,0.0474,10.022,-0.0066,0.0054,9.8066,-0.0215,0.0415,0.0465,-22.81,-28.37,30.31,3.21,-83.98,-139.58
92989,52.459496,-1.402418,182.46,20.72,4.0,194.92,21 / 22,4877575,2019-09-07 11:48:30:729,-0.8,0.7319,9.2795,-0.0082,-0.0018,9.8066,-0.0019,0.0627,0.0576,-23.25,-28.12,30.06,4.92,-84.02,-138.01
92990,52.459496,-1.402418,182.46,20.72,4.0,194.92,21 / 22,4877675,2019-09-07 11:48:30:829,-1.0315,0.5968,9.8228,0.0051,-0.0053,9.8066,0.0671,0.0794,0.0518,-23.31,-28.75,30.38,6.08,-83.98,-136.97
92991,52.459496,-1.402418,182.46,20.72,4.0,194.92,21 / 22,4877776,2019-09-07 11:48:30:930,0.1742,0.5369,10.0029,0.0041,-0.0043,9.8066,0.0407,0.0428,0.0139,-23.25,-28.37,30.56,6.44,-83.86,-137.52
92992,52.459496,-1.402418,182.46,20.72,4.0,194.92,21 / 22,4877875,2019-09-07 11:48:31:029,-0.9293,0.5465,9.2512,0.0051,0.0185,9.8065,0.0026,0.0778,0.0031,-23.12,-29.12,29.94,5.02,-83.81,-137.94
92993,52.459496,-1.402418,182.46,20.72,4.0,194.92,21 / 22,4877976,2019-09-07 11:48:31:130,-1.8635,0.8495,9.3373,0.0044,0.0109,9.8066,-0.0319,-0.0167,-0.0733,-22.94,-28.69,30.13,4.07,-84.07,-138.8
92994,52.459496,-1.402418,182.46,20.72,4.0,194.92,21 / 22,4878075,2019-09-07 11:48:31:229,-0.1816,1.0471,10.5025,0.0203,0.016,9.8066,0.0365,0.0776,0.0174,-22.69,-28.81,30.31,2.42,-84.24,-140.3
92995,52.459496,-1.402418,182.46,20.72,4.0,194.92,21 / 22,4878175,2019-09-07 11:48:31:329,-0.5643,0.5546,10.0226,0.0119,-0.0099,9.8066,0.0301,0.0538,0.0331,-22.06,-28.75,29.81,1.03,-84.26,-142.8
92996,52.459496,-1.402418,182.46,20.72,4.0,194.92,21 / 21,4878276,2019-09-07 11:48:31:430,-1.0705,0.7364,10.4563,-0.0093,0.0008,9.8066,-0.0211,-0.0267,-0.0048,-22.81,-28.56,30.13,0.18,-84.24,-142.35
92997,52.459496,-1.402418,182.46,20.72,4.0,194.92,21 / 21,4878376,2019-09-07 11:48:31:530,-1.2665,0.3035,10.5924,-0.0036,0.0101,9.8066,-0.0335,-0.0226,-0.0108,-21.94,-28.31,30.25,2.41,-84.26,-141.53
92998,52.459496,-1.402418,182.46,20.72,4.0,194.92,21 / 21,4878475,2019-09-07 11:48:31:629,-1.3077,-0.4771,10.6793,0.0036,-0.0005,9.8066,0.0156,-0.0288,-0.0305,-22.81,-28.19,29.88,1.44,-84.3,-141.19
92999,52.459496,-1.402418,182.46,20.72,4.0,194.92,21 / 21,4878575,2019-09-07 11:48:31:729,-0.5634,1.2554,9.6217,0.012,0.0023,9.8066,0.0066,-0.0725,-0.0783,-22.37,-28.62,29.31,0.22,-84.3,-142.61
93000,52.459496,-1.402418,182.46,20.72,4.0,194.92,21 / 21,4878675,2019-09-07 11:48:31:829,-0.7759,0.6332,8.9988,0.0091,0.0118,9.8066,-0.0547,-0.0307,-0.0583,-22.5,-28.25,30.06,359.08,-84.25,-144.59
93001,52.459496,-1.402418,182.46,20.72,4.0,194.92,21 / 21,4878775,2019-09-07 11:48:31:929,-0.199,1.0076,8.9756,0.007,0.0207,9.8065,-0.0167,0.0217,-0.0152,-22.19,-28.44,30.25,357.49,-84.53,-146.07
93002,52.459496,-1.402418,182.46,20.72,4.0,194.92,21 / 21,4878875,2019-09-07 11:48:32:029,-0.7626,1.2946,10.6506,0.0054,-0.0076,9.8066,0.0394,0.0289,0.0027,-21.94,-28.44,30.38,356.72,-84.6,-146.78
93003,52.459496,-1.402418,182.46,20.72,4.0,194.92,21 / 21,4878975,2019-09-07 11:48:32:129,-0.7892,-0.4585,9.9224,0.0055,-0.0446,9.8065,0.0922,0.0579,0.0762,-22.31,-28.19,30.81,356.7,-84.26,-147.68
93004,52.459496,-1.402418,182.46,20.72,4.0,194.92,21 / 21,4879075,2019-09-07 11:48:32:229,-1.0253,0.8683,10.2502,0.0019,-0.0056,9.8066,-0.0131,-0.0561,-0.0233,-22.12,-28.5,30.94,355.82,-83.98,-148.47
93005,52.459496,-1.402418,182.46,20.72,4.0,194.92,21 / 21,4879175,2019-09-07 11:48:32:329,-0.1596,0.3928,7.7921,-0.0084,0.0087,9.8066,-0.0562,-0.0206,-0.0244,-22.19,-28.25,30.25,356.33,-83.98,-147.1
93006,52.459496,-1.402418,182.46,20.72,4.0,194.92,21 / 22,4879275,2019-09-07 11:48:32:429,-1.3647,0.6212,9.288,-0.0023,0.016,9.8065,-0.046,-0.0305,-0.0506,-22.06,-28.62,30.06,357.0,-84.22,-146.49
93007,52.459496,-1.402418,182.46,20.72,4.0,194.92,21 / 22,4879376,2019-09-07 11:48:32:530,-0.386,0.3845,9.4442,0.0125,0.0262,9.8066,-0.0042,-0.0021,-0.0518,-21.94,-28.62,30.19,355.91,-84.54,-147.52
93008,52.459496,-1.402418,182.46,20.72,4.0,194.92,21 / 22,4879475,2019-09-07 11:48:32:629,-0.7414,0.6167,10.0256,0.0076,0.0138,9.8066,-0.0097,0.024,-0.0186,-21.75,-28.69,29.88,354.02,-84.79,-149.28
93009,52.459496,-1.402418,182.46,20.72,4.0,194.92,21 / 22,4879575,2019-09-07 11:48:32:729,-0.3606,0.7557,9.333,0.0111,-0.0077,9.8066,0.0468,0.0079,0.0203,-21.25,-28.81,30.25,353.8,-84.77,-150.73
93010,52.459496,-1.402418,182.46,20.72,4.0,194.92,21 / 22,4879675,2019-09-07 11:48:32:829,-1.2041,0.0151,10.5375,0.0042,-0.0139,9.8066,0.0259,-0.0872,-0.0174,-22.0,-28.62,30.44,352.13,-84.58,-151.01
93011,52.459496,-1.402418,182.46,20.72,4.0,194.92,21 / 22,4879775,2019-09-07 11:48:32:929,-1.227,-0.6219,9.1584,-0.0114,-0.0135,9.8066,-0.0232,-0.0114,0.0333,-21.25,-28.12,29.88,354.74,-84.29,-149.84
93012,52.459496,-1.402418,182.46,20.72,4.0,194.92,21 / 22,4879875,2019-09-07 11:48:33:029,-1.4283,-0.3862,8.7505,-0.0183,0.0145,9.8066,-0.0609,-0.0267,0.0182,-20.87,-28.37,30.19,356.22,-84.39,-148.49
93013,52.459496,-1.402418,182.46,20.72,4.0,194.92,21 / 22,4879975,2019-09-07 11:48:33:129,-0.8721,0.0855,9.4641,-0.0033,0.0218,9.8065,-0.0547,-0.0468,-0.0394,-22.0,-28.75,29.69,356.84,-84.74,-146.66
93014,52.459496,-1.402418,182.46,20.72,4.0,194.92,21 / 22,4880076,2019-09-07 11:48:33:230,-1.14,-0.415,10.5948,0.0128,0.0115,9.8066,0.0017,-0.0035,-0.0222,-21.25,-28.94,29.56,357.33,-85.02,-147.48
93015,52.459496,-1.402418,182.46,20.72,4.0,194.92,21 / 22,4880175,2019-09-07 11:48:33:329,-1.1254,0.4286,10.0586,0.0149,-0.0015,9.8066,0.0216,-0.0326,-0.0341,-21.12,-28.69,29.69,354.92,-85.09,-149.73
93016,52.457993,-1.403088,181.92,16.69,4.0,196.99,21 / 21,4880275,2019-09-07 11:48:33:429,-0.9995,0.4835,9.1249,0.0169,0.0062,9.8066,0.0186,-0.0461,-0.0221,-21.5,-28.69,29.69,352.36,-85.1,-152.1
93017,52.457993,-1.403088,181.92,16.69,4.0,196.99,21 / 21,4880375,2019-09-07 11:48:33:529,-0.7957,-0.226,9.3878,0.0114,-0.0039,9.8066,0.0051,-0.038,0.0043,-21.06,-28.56,30.0,350.93,-85.03,-153.43
93018,52.457993,-1.403088,181.92,16.69,4.0,196.99,21 / 21,4880476,2019-09-07 11:48:33:630,-1.4524,-0.7315,9.8821,-0.0038,0.0128,9.8066,-0.0509,-0.0367,-0.0308,-20.06,-28.81,29.69,352.82,-85.1,-152.98
93019,52.457993,-1.403088,181.92,16.69,4.0,196.99,21 / 21,4880575,2019-09-07 11:48:33:729,-1.4,-0.0406,11.6399,-0.0081,0.0213,9.8065,-0.031,-0.0633,-0.0437,-20.75,-28.5,29.38,350.98,-85.45,-152.52
93020,52.457993,-1.403088,181.92,16.69,4.0,196.99,21 / 21,4880675,2019-09-07 11:48:33:829,-1.5161,-0.0375,9.7057,0.014,0.0071,9.8066,0.0316,-0.0485,-0.0363,-20.44,-28.94,29.13,351.32,-85.56,-153.51
93021,52.457993,-1.403088,181.92,16.69,4.0,196.99,21 / 21,4880775,2019-09-07 11:48:33:929,-1.6177,0.7134,10.3023,0.0107,-0.0041,9.8066,0.0377,-0.0573,-0.02,-20.19,-29.06,30.06,349.41,-85.48,-156.2
93022,52.457993,-1.403088,181.92,16.69,4.0,196.99,21 / 21,4880875,2019-09-07 11:48:34:029,-1.4162,-0.1952,9.9662,0.0085,-0.0116,9.8066,0.02,-0.0794,-0.0298,-20.0,-28.19,30.0,346.95,-85.31,-158.49
93023,52.457993,-1.403088,181.92,16.69,4.0,196.99,21 / 21,4880975,2019-09-07 11:48:34:129,-1.8838,-0.0441,11.3222,0.0074,-0.0034,9.8066,-0.004,-0.0883,-0.0228,-19.5,-28.75,30.38,346.93,-85.26,-159.8
93024,52.457993,-1.403088,181.92,16.69,4.0,196.99,21 / 21,4881075,2019-09-07 11:48:34:229,-1.9716,-0.0583,9.8751,0.0071,0.0123,9.8066,0.0011,0.0072,0.0491,-19.69,-28.69,29.75,344.6,-85.3,-160.66
93025,52.457993,-1.403088,181.92,16.69,4.0,196.99,21 / 21,4881175,2019-09-07 11:48:34:329,-1.3961,-0.354,9.4056,0.0081,0.0023,9.8066,0.0177,-0.0223,0.0068,-19.12,-28.56,29.81,344.39,-85.41,-162.21
93026,52.457993,-1.403088,181.92,16.69,4.0,196.99,21 / 21,4881276,2019-09-07 11:48:34:430,-1.7093,-0.183,11.2713,0.0121,-0.0021,9.8066,-0.0087,-0.0649,-0.03,-19.44,-29.0,29.56,342.55,-85.42,-163.92
93027,52.457993,-1.403088,181.92,16.69,4.0,196.99,21 / 21,4881375,2019-09-07 11:48:34:529,-1.5055,-0.7556,9.7986,0.0154,0.0077,9.8066,0.0334,-0.0151,0.017,-19.12,-28.31,30.13,339.44,-85.45,-166.9
93028,52.457993,-1.403088,181.92,16.69,4.0,196.99,21 / 21,4881476,2019-09-07 11:48:34:630,-0.7874,0.0089,10.479,0.0111,-0.0078,9.8066,0.0234,-0.0279,0.0497,-18.81,-27.87,29.75,336.57,-85.32,-169.55
93029,52.457993,-1.403088,181.92,16.69,4.0,196.99,21 / 21,4881575,2019-09-07 11:48:34:729,-1.5416,-1.1745,9.7317,-0.0169,-0.0012,9.8066,-0.0672,-0.139,-0.0137,-18.94,-27.94,29.75,338.34,-85.33,-167.89
93030,52.457993,-1.403088,181.92,16.69,4.0,196.99,21 / 21,4881675,2019-09-07 11:48:34:829,-1.7894,-0.8229,10.4383,-0.0191,-0.0073,9.8066,-0.0146,-0.0982,0.0151,-18.12,-28.75,29.06,340.3,-85.59,-166.56
93031,52.457993,-1.403088,181.92,16.69,4.0,196.99,21 / 21,4881776,2019-09-07 11:48:34:930,-0.7826,-0.562,8.9043,-0.0006,-0.0094,9.8066,0.0562,-0.0429,0.0699,-19.0,-28.06,28.75,341.78,-85.51,-163.8
93032,52.457993,-1.403088,181.92,16.69,4.0,196.99,21 / 21,4881875,2019-09-07 11:48:35:029,-1.5279,-1.6869,9.6815,0.0056,-0.0139,9.8066,0.0325,-0.0786,-0.0061,-18.69,-28.31,29.38,343.54,-85.11,-162.05
93033,52.457993,-1.403088,181.92,16.69,4.0,196.99,21 / 21,4881975,2019-09-07 11:48:35:129,-1.0544,-1.0223,9.4523,0.0015,0.008,9.8066,-0.0258,-0.0358,0.011,-18.44,-28.56,29.75,345.37,-85.1,-162.59
93034,52.457993,-1.403088,181.92,16.69,4.0,196.99,21 / 21,4882075,2019-09-07 11:48:35:229,-1.6644,-0.4961,9.6632,-0.0056,0.0317,9.8065,-0.0591,-0.1038,-0.0578,-18.25,-28.5,28.75,344.89,-85.35,-162.24
93035,52.457993,-1.403088,181.92,16.69,4.0,196.99,21 / 21,4882175,2019-09-07 11:48:35:329,-1.4057,-0.2324,9.781,0.0034,0.0246,9.8066,-0.0101,-0.0794,-0.0149,-17.87,-28.62,28.44,342.04,-85.8,-164.05
93036,52.457993,-1.403088,181.92,16.69,4.0,196.99,21 / 21,4882276,2019-09-07 11:48:35:430,-0.6724,0.0845,9.6722,0.0161,-0.0105,9.8066,0.0541,-0.0583,0.0346,-18.06,-28.69,28.38,340.2,-85.64,-165.73
93037,52.457993,-1.403088,181.92,16.69,4.0,196.99,21 / 21,4882375,2019-09-07 11:48:35:529,-1.2568,-1.4062,9.7282,-0.0008,-0.0175,9.8066,0.0172,-0.0679,0.0416,-17.69,-28.5,29.25,341.66,-85.46,-165.28
93038,52.457993,-1.403088,181.92,16.69,4.0,196.99,21 / 21,4882475,2019-09-07 11:48:35:629,-0.9423,-0.5958,8.355,-0.0148,0.007,9.8066,-0.0383,-0.0787,0.0208,-17.75,-29.06,28.88,342.69,-85.4,-164.27
93039,52.457993,-1.403088,181.92,16.69,4.0,196.99,21 / 21,4882576,2019-09-07 11:48:35:730,-1.1399,-0.9792,8.8612,-0.0091,0.0145,9.8065,-0.0474,-0.0542,0.0388,-17.06,-28.56,29.13,346.49,-85.62,-162.21
93040,52.457993,-1.403088,181.92,16.69,4.0,196.99,21 / 21,4882675,2019-09-07 11:48:35:829,-1.4117,-0.2816,8.7166,-0.0121,0.0094,9.8066,-0.0307,-0.0783,0.0182,-17.44,-28.75,28.38,347.69,-85.91,-160.24
93041,52.457993,-1.403088,181.92,16.69,4.0,196.99,21 / 21,4882775,2019-09-07 11:48:35:929,-1.5862,0.1559,10.0285,-0.0119,0.0022,9.8066,-0.0249,-0.1104,0.0042,-17.12,-28.81,28.56,350.58,-86.0,-158.45
93042,52.457993,-1.403088,181.92,16.69,4.0,196.99,21 / 21,4882875,2019-09-07 11:48:36:029,-0.9424,-1.0764,8.7063,-0.0156,-0.0147,9.8066,-0.0057,-0.1238,0.018,-17.44,-29.37,28.0,351.81,-86.04,-156.41
93043,52.457993,-1.403088,181.92,16.69,4.0,196.99,21 / 21,4882975,2019-09-07 11:48:36:129,-1.5211,-1.0457,10.5028,-0.0203,-0.0168,9.8065,0.0006,-0.0546,0.0929,-17.31,-28.75,28.25,356.67,-85.8,-151.84
93044,52.457993,-1.403088,181.92,16.69,4.0,196.99,21 / 21,4883075,2019-09-07 11:48:36:229,-2.3011,-1.3566,11.9757,-0.0201,-0.0067,9.8066,-0.0358,-0.1042,0.0699,-17.12,-29.19,27.75,0.2,-85.64,-148.55
93045,52.457993,-1.403088,181.92,16.69,4.0,196.99,21 / 21,4883175,2019-09-07 11:48:36:329,-2.6276,-0.7724,10.8372,-0.0112,-0.0134,9.8066,0.0276,-0.0649,0.0516,-17.12,-28.81,28.25,4.48,-85.5,-144.58
93046,52.457993,-1.403088,181.92,16.69,4.0,196.99,21 / 21,4883275,2019-09-07 11:48:36:429,-1.9299,-0.7981,10.2791,0.0013,-0.0101,9.8066,-0.0104,-0.1299,-0.0297,-16.94,-29.12,27.75,5.39,-85.32,-143.76
93047,52.457993,-1.403088,181.92,16.69,4.0,196.99,21 / 21,4883375,2019-09-07 11:48:36:529,-1.0421,-1.793,8.0196,0.0047,0.0029,9.8066,-0.0051,-0.112,-0.0427,-17.0,-28.94,28.0,4.45,-85.34,-144.62
93048,52.457993,-1.403088,181.92,16.69,4.0,196.99,21 / 21,4883475,2019-09-07 11:48:36:629,-1.352,-0.395,9.3216,-0.001,0.0138,9.8066,-0.0122,-0.0507,0.0128,-16.94,-28.81,27.81,3.5,-85.43,-145.5
93049,52.457993,-1.403088,181.92,16.69,4.0,196.99,21 / 21,4883575,2019-09-07 11:48:36:729,-1.8799,-1.1925,9.8123,-0.0018,0.001,9.8066,-0.0122,-0.1314,-0.0151,-16.06,-28.69,28.06,5.27,-85.56,-145.36
93050,52.457993,-1.403088,181.92,16.69,4.0,196.99,21 / 21,4883676,2019-09-07 11:48:36:830,-2.0635,-0.2077,10.6816,-0.0098,-0.0196,9.8066,0.0186,-0.1052,0.045,-15.94,-29.0,27.63,6.17,-85.53,-144.54
93051,52.457993,-1.403088,181.92,16.69,4.0,196.99,21 / 21,4883776,2019-09-07 11:48:36:930,-1.5597,-1.3722,9.8233,-0.0188,-0.0119,9.8066,0.0319,-0.0364,0.1125,-16.19,-28.94,27.56,8.77,-85.24,-142.16
93052,52.457993,-1.403088,181.92,16.69,4.0,196.99,21 / 21,4883876,2019-09-07 11:48:37:030,-3.0819,-0.7581,9.1486,-0.0343,0.0103,9.8065,-0.0795,-0.2216,-0.0205,-16.31,-29.25,27.13,15.16,-85.17,-135.41
93053,52.457993,-1.403088,181.92,16.69,4.0,196.99,21 / 21,4883976,2019-09-07 11:48:37:130,-1.4418,-1.2372,9.3562,-0.0007,0.0068,9.8066,-0.0327,-0.1796,-0.0302,-15.87,-28.69,27.38,16.61,-85.2,-134.06
93054,52.457993,-1.403088,181.92,16.69,4.0,196.99,21 / 21,4884076,2019-09-07 11:48:37:230,-2.3946,-0.2269,8.2265,-0.0092,-0.008,9.8066,0.0313,-0.1043,0.0643,-16.12,-29.31,27.31,16.45,-85.22,-134.21
93055,52.457993,-1.403088,181.92,16.69,4.0,196.99,21 / 21,4884176,2019-09-07 11:48:37:330,-2.4202,-1.6451,9.0077,-0.0128,-0.0291,9.8065,0.0715,-0.1101,0.0513,-16.31,-29.75,26.69,17.67,-84.86,-133.23
93056,52.457993,-1.403088,181.92,16.69,4.0,196.99,21 / 21,4884276,2019-09-07 11:48:37:430,-2.5974,-1.6599,10.2639,-0.0236,-0.007,9.8066,-0.0349,-0.0966,0.0751,-16.06,-29.56,26.94,19.25,-84.51,-131.9
93057,52.457993,-1.403088,181.92,16.69,4.0,196.99,21 / 21,4884376,2019-09-07 11:48:37:530,-1.7183,-0.0534,9.9708,-0.0208,0.0107,9.8066,-0.1339,-0.2565,-0.082,-16.44,-29.31,27.69,23.65,-84.44,-128.7
93058,52.457993,-1.403088,181.92,16.69,4.0,196.99,21 / 21,4884475,2019-09-07 11:48:37:629,-2.1835,-0.7957,9.744,-0.0001,0.009,9.8065,-0.031,-0.1224,-0.0637,-15.44,-29.62,26.25,25.95,-84.73,-126.47
93059,52.457993,-1.403088,181.92,16.69,4.0,196.99,21 / 21,4884575,2019-09-07 11:48:37:729,-2.4708,-0.2176,10.0746,0.0146,-0.0181,9.8066,-0.0442,-0.319,-0.2276,-15.5,-29.75,26.44,23.54,-84.82,-128.63
93060,52.457993,-1.403088,181.92,16.69,4.0,196.99,21 / 21,4884675,2019-09-07 11:48:37:829,0.283,-0.0699,9.4229,0.0632,0.0158,9.8064,0.0979,0.0735,-0.0154,-15.44,-29.19,26.56,18.96,-85.07,-133.55
93061,52.457993,-1.403088,181.92,16.69,4.0,196.99,21 / 21,4884775,2019-09-07 11:48:37:929,-0.3186,-0.3635,12.0446,0.0284,0.0073,9.8065,0.0187,-0.0304,-0.0196,-14.56,-28.81,26.63,9.52,-85.33,-142.18
93062,52.457993,-1.403088,181.92,16.69,4.0,196.99,21 / 21,4884875,2019-09-07 11:48:38:029,-0.7803,-0.8134,10.6699,0.0077,0.0006,9.8066,-0.0058,-0.1287,-0.0348,-14.69,-29.5,26.5,6.5,-85.38,-144.96
93063,52.457993,-1.403088,181.92,16.69,4.0,196.99,21 / 21,4884975,2019-09-07 11:48:38:129,-1.0433,-0.3873,11.083,0.0108,0.0033,9.8066,0.0215,-0.0593,-0.0145,-14.0,-28.87,26.88,6.68,-85.39,-146.45
93064,52.457993,-1.403088,181.92,16.69,4.0,196.99,21 / 21,4885075,2019-09-07 11:48:38:229,-1.4648,-0.4397,9.8615,0.0058,-0.0014,9.8066,-0.0242,-0.1078,-0.0754,-14.12,-28.81,26.63,6.06,-85.37,-147.02
93065,52.457993,-1.403088,181.92,16.69,4.0,196.99,21 / 21,4885175,2019-09-07 11:48:38:329,-0.067,0.0165,11.5243,0.0231,0.0164,9.8066,-0.0305,-0.1222,-0.0901,-13.94,-28.5,25.75,1.76,-85.54,-150.08
93066,52.457993,-1.403088,181.92,16.69,4.0,196.99,20 / 21,4885276,2019-09-07 11:48:38:430,-0.7462,-0.282,8.4954,0.0211,0.0045,9.8066,0.0044,-0.0448,-0.066,-12.69,-28.25,25.94,1.97,-85.53,-151.62
93067,52.457993,-1.403088,181.92,16.69,4.0,196.99,20 / 21,4885376,2019-09-07 11:48:38:530,-0.2838,0.3563,10.4472,0.023,0.0053,9.8066,-0.014,-0.1163,-0.1126,-13.12,-28.56,26.19,356.63,-85.59,-156.54
93068,52.457993,-1.403088,181.92,16.69,4.0,196.99,20 / 21,4885475,2019-09-07 11:48:38:629,-0.4426,-1.0058,10.107,0.0125,-0.0043,9.8065,-0.0019,-0.0811,-0.0697,-13.37,-28.5,26.0,352.84,-85.57,-160.05
93069,52.457993,-1.403088,181.92,16.69,4.0,196.99,20 / 21,4885576,2019-09-07 11:48:38:730,0.2978,0.2042,10.3871,0.005,-0.0111,9.8066,0.0459,0.0184,0.025,-12.31,-27.19,25.56,354.16,-85.48,-160.61
93070,52.457993,-1.403088,181.92,16.69,4.0,196.99,20 / 21,4885676,2019-09-07 11:48:38:830,0.3771,-0.4912,9.3102,-0.0091,-0.0132,9.8066,-0.0011,-0.0554,0.0026,-13.31,-27.06,24.31,349.6,-85.33,-161.09
93071,52.457993,-1.403088,181.92,16.69,4.0,196.99,20 / 21,4885775,2019-09-07 11:48:38:929,-1.0195,-0.1096,9.6473,-0.0046,-0.0162,9.8066,0.008,-0.0482,0.0483,-15.44,-27.44,25.75,349.97,-85.05,-159.23
93072,52.457993,-1.403088,181.92,16.69,4.0,196.99,20 / 21,4885875,2019-09-07 11:48:39:029,-0.8768,-1.0021,8.7738,-0.0062,-0.0116,9.8066,0.0194,-0.038,0.0448,-14.56,-27.44,27.0,353.28,-84.92,-157.12
93073,52.457993,-1.403088,181.92,16.69,4.0,196.99,20 / 21,4885975,2019-09-07 11:48:39:129,-1.1047,0.0084,9.6389,-0.0092,-0.0085,9.8066,0.0534,-0.0666,0.0627,-13.69,-28.19,27.0,356.4,-84.74,-155.88
93074,52.457993,-1.403088,181.92,16.69,4.0,196.99,20 / 21,4886075,2019-09-07 11:48:39:229,0.2504,-0.8491,10.0042,-0.0137,-0.0259,9.8065,0.0426,-0.017,0.0776,-13.06,-28.44,27.0,1.21,-84.24,-153.2
93075,52.457993,-1.403088,181.92,16.69,4.0,196.99,20 / 21,4886175,2019-09-07 11:48:39:329,-0.6648,-1.2896,10.6678,-0.0275,-0.0302,9.8065,-0.013,-0.1476,0.0291,-13.12,-28.25,26.38,2.6,-83.95,-151.12
93076,52.457993,-1.403088,181.92,16.69,4.0,196.99,20 / 21,4886275,2019-09-07 11:48:39:429,-2.118,-0.6114,11.7361,-0.0094,-0.0053,9.8066,-0.0163,-0.0945,0.0368,-13.06,-28.81,27.06,5.84,-83.7,-149.1
93077,52.457993,-1.403088,181.92,16.69,4.0,196.99,20 / 21,4886375,2019-09-07 11:48:39:529,-1.6663,-0.9045,10.2296,-0.0056,-0.0004,9.8066,0.0209,-0.0272,0.0628,-13.19,-28.12,26.75,7.64,-83.64,-147.49
93078,52.457993,-1.403088,181.92,16.69,4.0,196.99,20 / 21,4886476,2019-09-07 11:48:39:630,-1.5579,-0.2459,10.217,0.0055,-0.0144,9.8066,0.0454,-0.0215,0.0273,-12.94,-28.19,25.94,7.26,-83.51,-147.01
93079,52.457993,-1.403088,181.92,16.69,4.0,196.99,20 / 21,4886575,2019-09-07 11:48:39:729,-1.8068,-0.8511,10.1785,0.0138,-0.0069,9.8066,0.0095,-0.1679,-0.0747,-13.19,-28.56,26.25,5.42,-83.36,-148.68
93080,52.457993,-1.403088,181.92,16.69,4.0,196.99,20 / 21,4886675,2019-09-07 11:48:39:829,-1.9345,-0.7957,10.3192,0.011,-0.0115,9.8066,0.0187,-0.128,-0.0411,-12.44,-28.06,26.0,5.13,-83.17,-150.73
93081,52.457993,-1.403088,181.92,16.69,4.0,196.99,20 / 21,4886775,2019-09-07 11:48:39:929,-1.3541,-0.956,10.5033,0.0106,-0.0081,9.8066,0.0136,-0.1065,-0.0232,-11.87,-28.19,25.5,3.76,-83.05,-151.93
93082,52.457993,-1.403088,181.92,16.69,4.0,196.99,20 / 21,4886875,2019-09-07 11:48:40:029,-1.7161,-0.4545,10.0187,0.0107,-0.0114,9.8065,0.0245,-0.0866,-0.0097,-10.25,-28.31,26.94,7.54,-82.98,-153.09
93083,52.457993,-1.403088,181.92,16.69,4.0,196.99,20 / 21,4886975,2019-09-07 11:48:40:129,-1.4655,0.3792,10.5658,0.0169,-0.0098,9.8065,0.0224,-0.1043,0.0076,-11.81,-28.19,27.0,1.12,-82.81,-155.06
93084,52.457993,-1.403088,181.92,16.69,4.0,196.99,20 / 21,4887075,2019-09-07 11:48:40:229,-1.4991,0.4386,10.1705,0.0086,-0.0088,9.8065,0.0177,-0.1056,-0.0106,-11.94,-28.44,26.44,359.4,-82.66,-155.75
93085,52.457993,-1.403088,181.92,16.69,4.0,196.99,20 / 21,4887175,2019-09-07 11:48:40:329,-1.728,0.3989,9.3631,-0.0022,-0.0039,9.8066,0.0299,-0.068,0.0338,-12.37,-28.69,26.38,358.84,-82.61,-156.23
93086,52.457993,-1.403088,181.92,16.69,4.0,196.99,21 / 21,4887276,2019-09-07 11:48:40:430,-1.2517,0.2706,10.1092,0.001,-0.0206,9.8066,0.0384,-0.1179,0.0199,-11.81,-27.94,26.81,359.43,-82.41,-156.53
93087,52.457993,-1.403088,181.92,16.69,4.0,196.99,21 / 21,4887375,2019-09-07 11:48:40:529,-1.7051,-0.3393,10.9675,-0.011,-0.0367,9.8065,0.053,-0.0787,0.0678,-11.94,-28.25,26.5,0.2,-82.03,-155.86
93088,52.457993,-1.403088,181.92,16.69,4.0,196.99,21 / 21,4887476,2019-09-07 11:48:40:630,-1.8881,-0.2737,11.0215,-0.0124,-0.016,9.8065,0.0125,-0.1192,0.039,-12.19,-28.31,26.69,0.95,-81.65,-155.23
93089,52.457993,-1.403088,181.92,16.69,4.0,196.99,21 / 21,4887575,2019-09-07 11:48:40:729,-1.4938,-0.2934,10.8692,-0.0158,-0.0156,9.8066,0.0177,-0.083,0.0465,-11.94,-28.62,26.69,2.86,-81.31,-153.63
93090,52.457993,-1.403088,181.92,16.69,4.0,196.99,21 / 21,4887675,2019-09-07 11:48:40:829,-1.2643,-0.1445,10.0719,-0.0013,-0.0126,9.8065,0.0051,-0.091,0.0084,-12.06,-28.31,26.56,3.49,-81.16,-153.1
93091,52.457993,-1.403088,181.92,16.69,4.0,196.99,21 / 21,4887775,2019-09-07 11:48:40:929,-0.9517,-0.4806,10.108,0.0027,-0.0125,9.8066,0.021,-0.0838,0.0001,-12.31,-28.87,26.69,3.72,-80.93,-152.94
93092,52.457993,-1.403088,181.92,16.69,4.0,196.99,21 / 21,4887875,2019-09-07 11:48:41:029,-0.9636,-0.1625,10.6773,-0.0066,-0.0047,9.8066,-0.0036,-0.0753,0.0035,-11.81,-28.62,26.81,4.07,-80.8,-152.65
93093,52.457993,-1.403088,181.92,16.69,4.0,196.99,21 / 21,4887975,2019-09-07 11:48:41:129,-0.9601,0.417,9.624,-0.0017,-0.0034,9.8066,-0.0048,-0.0767,-0.0077,-11.56,-28.0,26.38,3.19,-80.77,-152.57
93094,52.457993,-1.403088,181.92,16.69,4.0,196.99,21 / 21,4888076,2019-09-07 11:48:41:230,-1.2321,-0.4035,10.0386,-0.0045,-0.0008,9.8066,-0.0221,-0.1021,-0.009,-11.44,-28.56,26.69,6.1,-80.76,-152.79
93095,52.457993,-1.403088,181.92,16.69,4.0,196.99,21 / 21,4888175,2019-09-07 11:48:41:329,-1.3663,0.5103,10.1733,0.0016,0.0023,9.8066,-0.0133,-0.0855,0.009,-11.37,-28.75,26.44,5.47,-80.74,-152.57
93096,52.457993,-1.403088,181.92,16.69,4.0,196.99,21 / 21,4888275,2019-09-07 11:48:41:429,-1.1124,0.1583,10.5575,-0.0037,-0.0064,9.8066,0.0068,-0.0338,0.0247,-11.37,-28.56,26.13,5.77,-80.7,-152.33
93097,52.457993,-1.403088,181.92,16.69,4.0,196.99,21 / 21,4888375,2019-09-07 11:48:41:529,-0.4032,-0.2143,10.1998,-0.0078,-0.0012,9.8066,0.0175,-0.0161,0.0369,-11.5,-28.69,26.06,6.22,-80.64,-151.97
93098,52.457993,-1.403088,181.92,16.69,4.0,196.99,21 / 21,4888476,2019-09-07 11:48:41:630,-0.1392,0.0034,9.3166,-0.007,0.0007,9.8066,-0.0009,-0.0272,0.0338,-11.31,-28.19,26.06,7.09,-80.57,-151.22
93099,52.457993,-1.403088,181.92,16.69,4.0,196.99,21 / 21,4888576,2019-09-07 11:48:41:730,-0.4321,0.1382,9.5662,-0.0091,-0.0021,9.8066,-0.0053,0.0058,0.0428,-11.62,-28.44,25.44,4.57,-80.58,-150.6
93100,52.457993,-1.403088,181.92,16.69,4.0,196.99,21 / 21,4888675,2019-09-07 11:48:41:829,-0.478,-0.001,11.6584,-0.0064,-0.0096,9.8066,0.0122,-0.0213,0.0135,-11.37,-28.87,25.25,7.74,-80.56,-149.96
93101,52.457993,-1.403088,181.92,16.69,4.0,196.99,21 / 21,4888776,2019-09-07 11:48:41:930,-0.8535,-0.0742,10.5588,-0.0089,-0.0146,9.8065,0.0093,-0.0005,0.0559,-11.25,-28.5,25.94,9.46,-80.34,-149.31
93102,52.457993,-1.403088,181.92,16.69,4.0,196.99,21 / 21,4888875,2019-09-07 11:48:42:029,0.0035,0.345,10.6146,-0.0105,-0.0004,9.8066,-0.0221,-0.0479,0.0309,-11.75,-28.69,25.63,8.08,-80.22,-148.65
93103,52.457993,-1.403088,181.92,16.69,4.0,196.99,21 / 21,4888975,2019-09-07 11:48:42:129,-0.4176,-0.2234,10.6366,-0.016,-0.0069,9.8066,0.0113,0.0101,0.0506,-11.37,-28.44,25.63,11.73,-80.09,-147.5
93104,52.457993,-1.403088,181.92,16.69,4.0,196.99,21 / 21,4889076,2019-09-07 11:48:42:230,-0.3198,0.7771,9.9287,-0.0061,-0.0103,9.8065,0.0212,0.017,0.0466,-12.5,-29.0,25.25,9.49,-79.97,-146.74
93105,52.457993,-1.403088,181.92,16.69,4.0,196.99,21 / 21,4889175,2019-09-07 11:48:42:329,-0.5485,0.176,10.1697,-0.0048,-0.0019,9.8065,-0.038,-0.0559,-0.0084,-12.31,-29.19,25.5,11.07,-79.95,-146.27
93106,52.45698,-1.404305,178.01,15.49,4.0,236.66,21 / 21,4889277,2019-09-07 11:48:42:431,-0.7157,0.1951,9.8442,-0.0106,-0.0032,9.8066,-0.0096,-0.0066,-0.0086,-11.81,-28.75,25.38,10.85,-79.92,-145.65
93107,52.45698,-1.404305,178.01,15.49,4.0,236.66,21 / 21,4889375,2019-09-07 11:48:42:529,0.7622,-0.7692,9.4346,-0.0055,0.0077,9.8066,-0.0396,0.0141,0.0027,-11.69,-29.06,25.63,11.78,-79.96,-145.69
93108,52.45698,-1.404305,178.01,15.49,4.0,236.66,21 / 21,4889476,2019-09-07 11:48:42:630,-0.2545,0.898,9.5717,-0.0105,0.0093,9.8066,-0.023,0.0,0.0062,-11.69,-28.87,24.63,11.96,-80.09,-144.71
93109,52.45698,-1.404305,178.01,15.49,4.0,236.66,21 / 21,4889576,2019-09-07 11:48:42:730,0.3419,0.0979,9.396,-0.0091,-0.0004,9.8066,-0.0169,-0.0301,-0.0109,-11.75,-29.19,24.94,12.6,-80.1,-144.19
93110,52.45698,-1.404305,178.01,15.49,4.0,236.66,21 / 21,4889675,2019-09-07 11:48:42:829,0.3837,0.6208,9.7674,0.0022,0.0004,9.8066,0.0095,0.0063,0.0134,-11.94,-29.12,24.44,12.08,-80.05,-143.77
93111,52.45698,-1.404305,178.01,15.49,4.0,236.66,21 / 21,4889776,2019-09-07 11:48:42:930,0.0867,0.5613,10.4295,-0.0012,-0.0034,9.8066,0.0158,0.006,0.0039,-12.25,-28.69,25.25,13.48,-79.92,-143.53
93112,52.45698,-1.404305,178.01,15.49,4.0,236.66,21 / 21,4889875,2019-09-07 11:48:43:029,0.512,0.8705,8.0629,-0.0101,-0.0062,9.8066,-0.0107,0.0083,-0.0012,-12.31,-29.19,25.31,13.66,-79.84,-143.41
93113,52.45698,-1.404305,178.01,15.49,4.0,236.66,21 / 21,4889975,2019-09-07 11:48:43:129,0.0575,0.4244,10.3034,-0.0058,0.0085,9.8066,-0.0274,0.0171,0.0002,-11.94,-28.81,24.81,14.38,-79.83,-142.82
93114,52.45698,-1.404305,178.01,15.49,4.0,236.66,21 / 21,4890075,2019-09-07 11:48:43:229,-0.3906,1.2581,9.6916,-0.0037,-0.0068,9.8066,-0.0298,-0.0309,-0.0383,-12.25,-29.12,25.06,14.88,-79.88,-142.41
93115,52.45698,-1.404305,178.01,15.49,4.0,236.66,21 / 21,4890175,2019-09-07 11:48:43:329,-0.2592,1.4824,10.0038,0.0046,0.0065,9.8066,-0.0409,0.015,-0.0072,-11.94,-28.81,24.81,14.65,-79.89,-142.59
93116,52.45698,-1.404305,178.01,15.49,4.0,236.66,20 / 21,4890275,2019-09-07 11:48:43:429,0.5526,0.6427,9.5897,0.0021,0.0122,9.8066,-0.0143,0.0397,-0.0209,-11.87,-29.12,24.5,14.65,-80.01,-142.55
93117,52.45698,-1.404305,178.01,15.49,4.0,236.66,20 / 21,4890375,2019-09-07 11:48:43:529,0.1615,1.001,10.2303,0.0047,0.0091,9.8066,-0.0306,-0.009,-0.0413,-12.5,-29.12,25.06,14.92,-80.18,-142.28
93118,52.45698,-1.404305,178.01,15.49,4.0,236.66,20 / 21,4890476,2019-09-07 11:48:43:630,-0.0589,1.0725,10.3005,-0.002,0.0095,9.8065,-0.0248,-0.0056,-0.0202,-12.12,-28.94,25.06,14.8,-80.34,-142.33
93119,52.45698,-1.404305,178.01,15.49,4.0,236.66,20 / 21,4890575,2019-09-07 11:48:43:729,0.2896,0.9514,9.442,0.0029,0.0129,9.8066,-0.0422,0.0065,-0.0175,-11.56,-29.25,25.13,15.05,-80.47,-142.09
93120,52.45698,-1.404305,178.01,15.49,4.0,236.66,20 / 21,4890675,2019-09-07 11:48:43:829,0.2267,0.2999,9.4523,-0.0103,0.0031,9.8066,-0.0094,0.0319,0.0202,-12.31,-29.19,24.75,15.66,-80.51,-141.57
93121,52.45698,-1.404305,178.01,15.49,4.0,236.66,20 / 21,4890775,2019-09-07 11:48:43:929,0.3203,0.292,9.3802,-0.0083,0.0046,9.8066,-0.0214,0.0354,-0.0034,-11.44,-29.62,24.44,18.16,-80.57,-140.78
93122,52.45698,-1.404305,178.01,15.49,4.0,236.66,20 / 21,4890876,2019-09-07 11:48:44:030,-0.018,0.8604,9.8049,-0.0006,0.0047,9.8066,0.0044,0.035,0.0021,-11.69,-29.31,24.5,17.36,-80.62,-140.14
93123,52.45698,-1.404305,178.01,15.49,4.0,236.66,20 / 21,4890975,2019-09-07 11:48:44:129,0.1398,1.0602,9.1483,-0.0133,0.0103,9.8066,-0.0072,-0.0056,-0.0047,-12.31,-28.87,25.19,17.54,-80.65,-139.98
93124,52.45698,-1.404305,178.01,15.49,4.0,236.66,20 / 21,4891075,2019-09-07 11:48:44:229,0.2552,1.0889,9.7723,-0.0142,0.0158,9.8065,-0.0305,0.0268,0.0093,-11.5,-29.19,24.38,21.11,-80.73,-138.18
93125,52.45698,-1.404305,178.01,15.49,4.0,236.66,20 / 21,4891175,2019-09-07 11:48:44:329,-0.3604,1.0855,10.4497,-0.0181,-0.0066,9.8066,-0.0252,-0.0063,0.0063,-12.12,-29.12,23.88,20.67,-80.65,-136.58
93126,52.45698,-1.404305,178.01,15.49,4.0,236.66,21 / 21,4891275,2019-09-07 11:48:44:429,0.4529,-0.0288,10.1638,-0.0034,-0.0068,9.8066,0.0004,0.0149,0.0034,-12.12,-29.44,24.44,20.82,-80.55,-136.49
93127,52.45698,-1.404305,178.01,15.49,4.0,236.66,21 / 21,4891376,2019-09-07 11:48:44:530,0.5631,0.7084,10.0776,-0.0038,0.0042,9.8066,-0.0243,-0.0214,-0.0213,-12.25,-29.56,24.13,21.63,-80.5,-135.98
93128,52.45698,-1.404305,178.01,15.49,4.0,236.66,21 / 21,4891476,2019-09-07 11:48:44:630,0.0479,0.7328,9.289,-0.0077,0.0128,9.8066,-0.0331,0.0314,0.0209,-12.37,-29.06,23.81,22.49,-80.6,-135.09
93129,52.45698,-1.404305,178.01,15.49,4.0,236.66,21 / 21,4891575,2019-09-07 11:48:44:729,-0.0144,0.6578,9.5079,-0.0016,0.011,9.8065,-0.0193,0.0148,-0.0097,-12.31,-29.5,24.13,23.0,-80.69,-134.63
93130,52.45698,-1.404305,178.01,15.49,4.0,236.66,21 / 21,4891675,2019-09-07 11:48:44:829,0.48,0.2865,9.4375,-0.0022,0.0011,9.8066,0.0,0.0519,0.0345,-11.81,-28.87,23.88,23.52,-80.76,-134.16
93131,52.45698,-1.404305,178.01,15.49,4.0,236.66,21 / 21,4891775,2019-09-07 11:48:44:929,0.5705,0.6526,10.209,-0.0024,0.0008,9.8066,-0.0075,0.0235,-0.0008,-12.19,-29.62,24.19,24.38,-80.76,-133.6
93132,52.45698,-1.404305,178.01,15.49,4.0,236.66,21 / 21,4891875,2019-09-07 11:48:45:029,0.3969,0.4184,10.146,-0.0076,0.0018,9.8066,-0.0219,0.0054,0.0217,-12.75,-29.94,24.69,23.82,-80.74,-132.96
93133,52.45698,-1.404305,178.01,15.49,4.0,236.66,21 / 21,4891975,2019-09-07 11:48:45:129,0.1936,0.6525,10.228,-0.001,-0.0051,9.8066,0.0083,0.0217,0.0023,-12.44,-29.37,24.31,25.23,-80.74,-132.75
93134,52.45698,-1.404305,178.01,15.49,4.0,236.66,21 / 21,4892075,2019-09-07 11:48:45:229,0.1328,0.7964,9.3981,-0.0028,0.0062,9.8066,-0.0066,0.0494,0.0352,-12.56,-29.19,24.0,23.12,-80.75,-132.55
93135,52.45698,-1.404305,178.01,15.49,4.0,236.66,21 / 21,4892175,2019-09-07 11:48:45:329,0.6212,-0.2327,10.2782,0.0005,0.0077,9.8066,-0.02,0.0325,0.0084,-12.44,-29.31,24.38,26.07,-80.75,-132.05
93136,52.45698,-1.404305,178.01,15.49,4.0,236.66,21 / 21,4892276,2019-09-07 11:48:45:430,1.1279,-0.1007,9.5625,0.0006,-0.0003,9.8066,-0.0068,-0.0004,-0.0227,-12.94,-29.94,24.0,23.7,-80.79,-132.2
93137,52.45698,-1.404305,178.01,15.49,4.0,236.66,21 / 21,4892375,2019-09-07 11:48:45:529,0.5882,0.1098,9.8623,0.0024,-0.0013,9.8066,0.0042,0.0733,0.0177,-12.56,-29.5,23.88,23.67,-80.79,-132.08
93138,52.45698,-1.404305,178.01,15.49,4.0,236.66,21 / 21,4892476,2019-09-07 11:48:45:630,0.5722,1.0228,11.3501,-0.0007,-0.0062,9.8066,0.0227,-0.0001,-0.0105,-13.0,-29.19,23.63,23.51,-80.75,-132.24
93139,52.45698,-1.404305,178.01,15.49,4.0,236.66,21 / 21,4892576,2019-09-07 11:48:45:730,0.8008,0.4984,9.2005,-0.0039,-0.01,9.8065,-0.027,-0.0311,-0.0098,-12.62,-29.06,24.44,23.52,-80.57,-132.31
93140,52.45698,-1.404305,178.01,15.49,4.0,236.66,21 / 21,4892675,2019-09-07 11:48:45:829,0.4788,0.8553,7.8654,-0.004,0.013,9.8065,0.0072,0.0709,0.0321,-12.62,-29.06,24.13,24.2,-80.53,-131.76
93141,52.45698,-1.404305,178.01,15.49,4.0,236.66,21 / 21,4892775,2019-09-07 11:48:45:929,-0.2917,0.4695,10.1027,0.0021,0.016,9.8066,-0.0058,0.0702,-0.0069,-12.81,-30.06,24.0,25.04,-80.71,-131.12
93142,52.45698,-1.404305,178.01,15.49,4.0,236.66,21 / 21,4892875,2019-09-07 11:48:46:029,-0.3554,0.8907,10.4218,0.0023,0.0029,9.8066,-0.0142,-0.0136,-0.0297,-12.56,-28.87,24.06,24.85,-80.87,-131.05
93143,52.45698,-1.404305,178.01,15.49,4.0,236.66,21 / 21,4892975,2019-09-07 11:48:46:129,0.7526,0.8549,11.6829,0.0075,0.0003,9.8066,0.0269,0.0823,0.0239,-12.5,-29.69,24.44,26.57,-80.94,-131.69
93144,52.45698,-1.404305,178.01,15.49,4.0,236.66,21 / 21,4893075,2019-09-07 11:48:46:229,0.3742,0.5675,9.2191,-0.0069,-0.0092,9.8065,-0.0033,-0.0192,-0.012,-12.31,-29.62,24.13,26.84,-80.85,-131.51
93145,52.45698,-1.404305,178.01,15.49,4.0,236.66,21 / 21,4893175,2019-09-07 11:48:46:329,0.1075,-0.0705,9.8814,0.0014,-0.0015,9.8066,-0.0262,0.0129,0.0062,-13.0,-29.87,24.13,24.0,-80.79,-131.95
93146,52.45698,-1.404305,178.01,15.49,4.0,236.66,21 / 21,4893275,2019-09-07 11:48:46:429,-0.07,1.0649,8.6019,-0.0065,0.012,9.8066,-0.0382,0.0158,-0.0176,-12.56,-29.44,24.5,25.52,-80.84,-131.34
93147,52.45698,-1.404305,178.01,15.49,4.0,236.66,21 / 21,4893376,2019-09-07 11:48:46:530,0.0081,0.7206,9.6237,-0.005,0.0142,9.8065,-0.0336,0.0073,0.0018,-12.0,-29.12,24.06,28.02,-81.02,-130.26
93148,52.45698,-1.404305,178.01,15.49,4.0,236.66,21 / 21,4893475,2019-09-07 11:48:46:629,0.2508,0.5714,9.7408,0.0009,0.0067,9.8066,-0.0064,-0.0092,-0.0198,-12.69,-29.75,24.06,26.35,-81.1,-129.82
93149,52.45698,-1.404305,178.01,15.49,4.0,236.66,21 / 21,4893575,2019-09-07 11:48:46:729,0.328,0.8915,10.3375,0.0089,-0.007,9.8066,0.0279,0.0097,-0.0051,-12.81,-29.62,24.44,25.76,-81.08,-130.33
93150,52.45698,-1.404305,178.01,15.49,4.0,236.66,21 / 21,4893675,2019-09-07 11:48:46:829,0.6128,0.1438,9.2086,0.0049,-0.0107,9.8066,0.0217,0.0093,-0.0154,-13.31,-29.25,23.88,24.3,-80.99,-131.46
93151,52.45698,-1.404305,178.01,15.49,4.0,236.66,21 / 21,4893775,2019-09-07 11:48:46:929,-0.2524,0.8396,9.3311,-0.0048,-0.0008,9.8066,-0.0058,0.0206,0.0019,-13.5,-29.31,24.5,25.32,-80.95,-131.46
93152,52.45698,-1.404305,178.01,15.49,4.0,236.66,21 / 21,4893875,2019-09-07 11:48:47:029,0.6695,0.9178,9.7865,-0.0027,0.0016,9.8066,-0.0121,0.0212,0.0002,-13.44,-29.12,24.13,24.77,-80.96,-131.08
93153,52.45698,-1.404305,178.01,15.49,4.0,236.66,21 / 21,4893975,2019-09-07 11:48:47:129,-0.0548,1.229,9.8998,-0.0044,0.0014,9.8066,0.0128,-0.0024,-0.0053,-13.06,-29.19,24.38,24.67,-81.02,-131.13
93154,52.45698,-1.404305,178.01,15.49,4.0,236.66,21 / 21,4894075,2019-09-07 11:48:47:229,0.2757,0.3494,10.208,0.0011,0.0061,9.8066,-0.0119,-0.0315,-0.0438,-13.37,-29.06,24.31,24.87,-81.04,-130.96
93155,52.45698,-1.404305,178.01,15.49,4.0,236.66,21 / 21,4894175,2019-09-07 11:48:47:329,0.2758,0.3494,9.7826,0.0027,0.003,9.8066,-0.0336,-0.0393,-0.0316,-12.62,-28.94,24.75,25.97,-81.05,-130.86
93156,52.45698,-1.404305,178.01,15.49,4.0,236.66,21 / 21,4894275,2019-09-07 11:48:47:429,0.5691,0.6462,8.6463,0.0027,0.0083,9.8066,0.0165,0.0387,0.008,-12.56,-29.31,24.69,25.85,-81.13,-130.92
93157,52.45698,-1.404305,178.01,15.49,4.0,236.66,21 / 21,4894376,2019-09-07 11:48:47:530,-0.1426,1.096,9.9389,0.0082,0.0102,9.8066,0.0192,0.0445,0.0176,-12.5,-30.25,24.63,28.53,-81.22,-130.65
93158,52.45698,-1.404305,178.01,15.49,4.0,236.66,21 / 21,4894475,2019-09-07 11:48:47:629,0.0363,1.1579,9.9451,0.0106,-0.0044,9.8066,-0.0033,-0.0179,-0.0417,-12.5,-29.25,25.13,27.15,-81.38,-131.58
93159,52.45698,-1.404305,178.01,15.49,4.0,236.66,21 / 21,4894576,2019-09-07 11:48:47:730,0.1906,0.7427,10.584,0.0013,-0.0076,9.8065,0.014,-0.0011,0.0055,-13.0,-28.94,24.5,23.57,-81.33,-132.76
93160,52.45698,-1.404305,178.01,15.49,4.0,236.66,21 / 21,4894675,2019-09-07 11:48:47:829,0.1104,0.8351,8.8368,-0.0048,-0.0068,9.8066,-0.0173,-0.0352,-0.026,-11.94,-29.37,24.38,24.81,-81.27,-132.83
93161,52.45698,-1.404305,178.01,15.49,4.0,236.66,21 / 21,4894776,2019-09-07 11:48:47:930,0.373,0.762,10.145,0.0065,0.0069,9.8066,-0.0115,0.0129,-0.0061,-12.62,-29.12,24.0,22.43,-81.31,-132.88
93162,52.45698,-1.404305,178.01,15.49,4.0,236.66,21 / 21,4894875,2019-09-07 11:48:48:029,-0.0616,0.4246,10.838,0.0046,-0.0021,9.8066,0.001,-0.0249,-0.0245,-12.25,-29.44,24.38,24.12,-81.38,-133.36
93163,52.45698,-1.404305,178.01,15.49,4.0,236.66,21 / 21,4894976,2019-09-07 11:48:48:130,0.1693,0.3158,9.5288,0.0098,-0.0075,9.8066,0.0285,0.0005,-0.0019,-11.87,-28.69,25.0,24.52,-81.32,-133.85
93164,52.45698,-1.404305,178.01,15.49,4.0,236.66,21 / 21,4895075,2019-09-07 11:48:48:229,-0.3713,0.9638,9.4539,-0.0026,-0.003,9.8066,0.0101,0.0387,0.0157,-11.87,-29.06,24.38,22.65,-81.28,-134.64
93165,52.45698,-1.404305,178.01,15.49,4.0,236.66,21 / 21,4895176,2019-09-07 11:48:48:330,-0.2225,0.7163,9.2353,0.007,0.0062,9.8066,-0.0263,-0.0677,-0.0474,-12.31,-29.06,25.19,23.24,-81.49,-134.86
93166,52.45698,-1.404305,178.01,15.49,4.0,236.66,21 / 21,4895275,2019-09-07 11:48:48:429,-0.4545,0.7355,9.8806,0.0015,-0.0076,9.8066,0.0226,0.0008,0.0183,-12.06,-29.12,25.13,22.65,-81.48,-135.36
93167,52.45698,-1.404305,178.01,15.49,4.0,236.66,21 / 21,4895376,2019-09-07 11:48:48:530,-0.6349,0.4152,9.9465,-0.0022,-0.0014,9.8066,-0.0021,-0.024,0.0237,-11.94,-29.12,24.06,21.62,-81.41,-135.45
93168,52.45698,-1.404305,178.01,15.49,4.0,236.66,21 / 21,4895475,2019-09-07 11:48:48:629,-0.1272,0.701,10.9199,-0.0043,0.0137,9.8066,-0.0334,-0.0486,0.0086,-12.5,-29.62,24.25,22.77,-81.46,-134.58
93169,52.45698,-1.404305,178.01,15.49,4.0,236.66,21 / 21,4895575,2019-09-07 11:48:48:729,-0.1046,0.2693,10.6399,0.0036,0.0002,9.8066,0.013,0.0097,0.0188,-12.0,-28.94,24.44,23.03,-81.5,-134.22
93170,52.45698,-1.404305,178.01,15.49,4.0,236.66,21 / 21,4895675,2019-09-07 11:48:48:829,0.5203,0.79,9.1531,0.0127,-0.01,9.8066,0.0119,-0.06,-0.0222,-11.5,-29.37,24.19,23.84,-81.49,-135.54
93171,52.45698,-1.404305,178.01,15.49,4.0,236.66,21 / 21,4895775,2019-09-07 11:48:48:929,-0.6397,0.4884,10.9333,-0.002,-0.009,9.8066,0.0249,-0.0021,0.0468,-11.5,-29.0,24.06,23.41,-81.28,-136.01
93172,52.45698,-1.404305,178.01,15.49,4.0,236.66,21 / 21,4895875,2019-09-07 11:48:49:029,-0.5436,0.313,9.784,0.0052,-0.0003,9.8065,-0.0303,-0.0864,-0.0354,-12.0,-28.5,24.38,20.5,-81.31,-136.32
93173,52.45698,-1.404305,178.01,15.49,4.0,236.66,21 / 21,4895975,2019-09-07 11:48:49:129,-0.198,0.7599,9.4454,-0.0089,0.0045,9.8066,-0.0241,-0.0146,0.0225,-12.06,-29.0,24.69,21.96,-81.33,-136.01
93174,52.45698,-1.404305,178.01,15.49,4.0,236.66,21 / 21,4896076,2019-09-07 11:48:49:230,-0.7405,0.6298,9.7399,-0.0074,0.0032,9.8066,-0.0028,-0.0454,0.0061,-11.87,-28.44,24.25,21.96,-81.39,-135.05
93175,52.45698,-1.404305,178.01,15.49,4.0,236.66,21 / 21,4896176,2019-09-07 11:48:49:330,-0.016,1.0199,9.4098,0.0076,-0.008,9.8066,0.0202,-0.0393,-0.0113,-11.62,-28.12,24.31,21.97,-81.39,-135.05
93176,52.45698,-1.404305,178.01,15.49,4.0,236.66,21 / 21,4896276,2019-09-07 11:48:49:430,-0.4822,0.6116,10.918,-0.0024,-0.0042,9.8065,-0.0395,-0.0718,-0.0112,-11.06,-27.31,24.69,24.75,-81.27,-135.36
93177,52.45698,-1.404305,178.01,15.49,4.0,236.66,21 / 21,4896378,2019-09-07 11:48:49:532,-0.5786,1.4405,10.2881,-0.0132,0.0099,9.8066,-0.0627,-0.0816,-0.026,-11.06,-27.37,23.75,25.44,-81.37,-133.98
93178,52.45698,-1.404305,178.01,15.49,4.0,236.66,21 / 21,4896475,2019-09-07 11:48:49:629,-1.4601,1.3494,9.9417,-0.0062,-0.002,9.8066,0.0655,-0.0319,0.0113,-11.81,-28.0,23.5,24.36,-81.35,-133.03
93179,52.45698,-1.404305,178.01,15.49,4.0,236.66,21 / 21,4896575,2019-09-07 11:48:49:729,0.3523,-0.2877,11.0338,0.0128,-0.0571,9.8064,0.1343,-0.0381,0.0107,-11.5,-27.56,23.88,24.14,-81.21,-135.3
93180,52.45698,-1.404305,178.01,15.49,4.0,236.66,21 / 21,4896675,2019-09-07 11:48:49:829,-0.2276,-0.2465,10.5522,0.0112,-0.017,9.8065,0.0269,0.0446,0.0518,-11.25,-28.06,24.06,20.75,-80.73,-138.35
93181,52.45698,-1.404305,178.01,15.49,4.0,236.66,21 / 21,4896775,2019-09-07 11:48:49:929,-0.4241,1.4405,10.282,0.0021,0.0095,9.8065,-0.0199,-0.0615,-0.0134,-10.87,-27.31,23.88,19.65,-80.91,-139.08
93182,52.45698,-1.404305,178.01,15.49,4.0,236.66,21 / 21,4896875,2019-09-07 11:48:50:029,-0.4164,0.6185,10.1909,0.0005,0.0065,9.8066,-0.0082,-0.0295,0.0039,-11.5,-27.56,22.56,19.07,-81.01,-138.81
93183,52.45698,-1.404305,178.01,15.49,4.0,236.66,21 / 21,4896975,2019-09-07 11:48:50:129,-0.7384,0.9967,9.1404,-0.0014,-0.0029,9.8066,-0.0126,-0.0248,0.0182,-12.81,-27.81,22.25,13.01,-81.04,-138.77
93184,52.45698,-1.404305,178.01,15.49,4.0,236.66,21 / 21,4897075,2019-09-07 11:48:50:229,-1.1247,1.4198,9.6402,0.0041,0.0015,9.8066,0.0241,0.0038,0.0196,-13.44,-28.19,23.44,14.64,-81.01,-138.45
93185,52.45698,-1.404305,178.01,15.49,4.0,236.66,21 / 21,4897175,2019-09-07 11:48:50:329,-0.6071,1.1928,9.4238,0.0042,-0.0034,9.8065,0.0156,-0.02,0.0433,-12.62,-28.37,23.81,15.27,-80.97,-138.9
93186,52.45698,-1.404305,178.01,15.49,4.0,236.66,21 / 21,4897275,2019-09-07 11:48:50:429,-0.7533,1.0695,10.3235,0.0048,-0.0024,9.8066,-0.001,-0.0541,-0.0153,-12.12,-29.0,23.69,18.06,-80.86,-138.65
93187,52.45698,-1.404305,178.01,15.49,4.0,236.66,21 / 21,4897376,2019-09-07 11:48:50:530,-0.8821,1.0833,9.4097,-0.0008,0.0027,9.8066,-0.0161,-0.0296,0.0256,-11.5,-28.44,24.31,19.99,-80.91,-138.91
93188,52.45698,-1.404305,178.01,15.49,4.0,236.66,21 / 21,4897475,2019-09-07 11:48:50:629,-0.6089,1.1594,10.0556,-0.0083,0.0043,9.8066,-0.0294,-0.0646,0.032,-10.87,-28.44,24.13,20.51,-80.92,-138.47
93189,52.45698,-1.404305,178.01,15.49,4.0,236.66,21 / 21,4897576,2019-09-07 11:48:50:730,-0.6005,1.0029,9.6391,-0.0023,0.0074,9.8066,0.0141,-0.0275,0.025,-11.44,-27.81,23.06,20.67,-80.98,-137.5
93190,52.45698,-1.404305,178.01,15.49,4.0,236.66,21 / 21,4897676,2019-09-07 11:48:50:830,-1.3831,1.4038,10.8771,0.0016,-0.0115,9.8066,0.0257,-0.0672,-0.0241,-11.87,-26.81,23.31,17.67,-80.91,-137.85
93191,52.45698,-1.404305,178.01,15.49,4.0,236.66,21 / 21,4897775,2019-09-07 11:48:50:929,-0.088,0.3217,9.098,0.0228,-0.0106,9.8066,0.0177,-0.0888,-0.0521,-12.0,-26.75,23.38,15.76,-80.87,-139.45
93192,52.45698,-1.404305,178.01,15.49,4.0,236.66,21 / 21,4897875,2019-09-07 11:48:51:029,-1.0662,1.0625,10.3222,-0.0078,0.0096,9.8066,-0.0784,-0.1131,-0.0216,-11.94,-26.87,23.63,16.3,-80.88,-139.89
93193,52.45698,-1.404305,178.01,15.49,4.0,236.66,21 / 21,4897975,2019-09-07 11:48:51:129,-1.698,2.156,9.0455,-0.0065,0.0293,9.8065,-0.0646,-0.0208,0.0283,-10.87,-27.31,22.56,19.35,-81.18,-138.39
93194,52.45698,-1.404305,178.01,15.49,4.0,236.66,21 / 21,4898075,2019-09-07 11:48:51:229,-1.2172,2.1817,9.318,-0.0082,-0.0006,9.8065,0.0048,-0.0198,0.0541,-11.19,-27.75,21.56,19.34,-81.33,-137.56
93195,52.45698,-1.404305,178.01,15.49,4.0,236.66,21 / 21,4898175,2019-09-07 11:48:51:329,-1.8432,1.6007,9.5605,-0.0082,-0.0082,9.8066,0.0314,-0.0307,0.0598,-11.31,-27.06,21.31,18.93,-81.21,-136.87
