,GPS LATITUDE (degrees), GPS LONGITUDE (degrees), GPS ALTITUDE (m), GPS SPEED (Kmh), GPS ACCURACY (m), GPS ORIENTATION (Â°),GPS SATELLITES IN RANGE, TIME SINCE START (ms), DATE (YYYY-MO-DD HH-MI-SS_SSS), ACCELEROMETER X (m/s²) , ACCELEROMETER Y (m/s²), ACCELEROMETER Z (m/s²), GRAVITY X (m/s²), GRAVITY Y (m/s²), GRAVITY Z (m/s²), GYROSCOPE Yaw (rad/s), GYROSCOPE Pitch (rad/s), GYROSCOPE Roll (rad/s), MAGNETIC FIELD X (Î¼T), MAGNETIC FIELD Y (Î¼T), MAGNETIC FIELD Z (Î¼T), ORIENTATION (Yaw) (Â°), ORIENTATION (Pitch) (Â°), ORIENTATION (Roll ) (Â°)
5818,52.399296,-1.243194,183.72,6.04,4,98.77,17 / 18,1058207,2019-09-04 20:24:10:320,0.7154,0.3594,9.6559,0.0005,-0.0069,9.8066,-0.0003,-0.0018,0.0165,-21.25,-28.44,4.25,74.5,-84.24,-33.67
5819,52.399296,-1.243194,183.72,6.04,4,98.77,17 / 18,1058308,2019-09-04 20:24:10:421,0.5559,-0.0528,9.8288,-0.0031,-0.008,9.8066,-0.0065,-0.0069,0.0019,-20.62,-28.25,4.25,73.38,-84.17,-34.84
5820,52.399296,-1.243194,183.72,6.04,4,98.77,17 / 18,1058408,2019-09-04 20:24:10:521,0.653,-0.1636,9.9133,-0.003,-0.0021,9.8066,-0.011,0.0001,0.0113,-21.25,-28.37,4.06,73.31,-84.14,-34.96
5821,52.399296,-1.243194,183.72,6.04,4,98.77,17 / 18,1058507,2019-09-04 20:24:10:620,0.1903,0.3679,9.9355,-0.0013,-0.0071,9.8066,0.0057,-0.0066,0.006,-20.75,-28.75,4.56,75.74,-84.1,-35.46
5822,52.399296,-1.243194,183.72,6.04,4,98.77,17 / 18,1058608,2019-09-04 20:24:10:721,-0.1675,0.277,9.5469,0.0053,-0.0049,9.8066,0.0083,-0.0002,0.007,-21.62,-28.81,4.38,71.58,-84.12,-36.08
5823,52.399296,-1.243194,183.72,6.04,4,98.77,17 / 18,1058708,2019-09-04 20:24:10:821,0.6315,0.0065,10.0175,-0.0016,-0.0073,9.8066,-0.0099,0.0013,0.018,-20.87,-28.94,4.25,71.42,-84.1,-37.08
5824,52.399296,-1.243194,183.72,6.04,4,98.77,17 / 18,1058807,2019-09-04 20:24:10:920,-0.0419,0.0251,9.7831,-0.0084,0.0023,9.8066,-0.0272,0.0072,-0.0014,-21.75,-29.75,4.5,73.13,-84.04,-37.39
5825,52.399296,-1.243194,183.72,6.04,4,98.77,17 / 18,1058908,2019-09-04 20:24:11:021,0.2406,0.5661,9.5212,-0.0076,0.0025,9.8066,-0.0268,-0.0004,0.0332,-21.5,-29.31,4.56,74.97,-83.94,-36.42
5826,52.399296,-1.243194,183.72,6.04,4,98.77,17 / 18,1059007,2019-09-04 20:24:11:120,0.3287,0.1215,10.3707,-0.0046,-0.0083,9.8066,-0.0049,0.0048,0.0164,-21.81,-29.44,3.88,70.72,-83.74,-37.41
5827,52.399296,-1.243194,183.72,6.04,4,98.77,17 / 18,1059108,2019-09-04 20:24:11:221,0.0155,0.1002,10.0941,0.0106,0.0025,9.8065,0.038,0.0084,-0.0124,-21.81,-29.31,3.88,70.32,-83.81,-37.7
5828,52.399296,-1.243194,183.72,6.04,4,98.77,17 / 18,1059208,2019-09-04 20:24:11:321,0.3778,0.2342,9.7204,0.0181,-0.0026,9.8066,0.0452,0.0078,-0.0086,-21.19,-29.31,4.19,70.04,-84.0,-38.55
5829,52.399296,-1.243194,183.72,6.04,4,98.77,16 / 17,1059308,2019-09-04 20:24:11:421,0.4285,0.1241,9.8119,0.0178,-0.005,9.8065,0.0268,0.0034,-0.0059,-22.12,-28.75,5.44,69.4,-84.27,-40.43
5830,52.399296,-1.243194,183.72,6.04,4,98.77,16 / 17,1059407,2019-09-04 20:24:11:520,0.2375,-0.1686,9.7089,0.0056,0.0001,9.8066,0.008,0.0076,-0.0072,-21.31,-28.81,4.75,69.39,-84.39,-41.18
5831,52.399296,-1.243194,183.72,6.04,4,98.77,16 / 17,1059507,2019-09-04 20:24:11:620,-0.2363,0.0581,10.3194,0.0031,0.0078,9.8066,0.0054,0.0098,-0.0387,-21.94,-28.75,5.31,68.78,-84.47,-40.77
5832,52.399296,-1.243194,183.72,6.04,4,98.77,16 / 17,1059608,2019-09-04 20:24:11:721,0.3726,0.3809,9.5529,0.0042,-0.0046,9.8066,0.0095,-0.0064,0.0093,-20.75,-28.5,4.75,69.6,-84.62,-40.44
5833,52.399296,-1.243194,183.72,6.04,4,98.77,16 / 17,1059708,2019-09-04 20:24:11:821,-0.2207,0.2887,9.5436,0.0021,-0.004,9.8065,0.0044,-0.0116,0.0027,-21.87,-29.37,5.19,68.06,-84.62,-41.27
5834,52.399296,-1.243194,183.72,6.04,4,98.77,16 / 17,1059807,2019-09-04 20:24:11:920,-0.2547,-0.1941,10.1506,-0.0032,-0.0018,9.8066,-0.0135,-0.0104,-0.0003,-21.31,-29.0,5.31,68.47,-84.61,-41.77
5835,52.399296,-1.243194,183.72,6.04,4,98.77,16 / 17,1059908,2019-09-04 20:24:12:021,-0.2636,0.1716,10.1267,-0.0037,0.0031,9.8066,-0.0095,-0.0297,0.0085,-21.06,-29.19,4.69,69.05,-84.57,-41.27
5836,52.399296,-1.243194,183.72,6.04,4,98.77,16 / 17,1060008,2019-09-04 20:24:12:121,-0.6678,-0.0804,9.4631,-0.0014,0.0012,9.8066,-0.007,-0.0434,-0.0067,-21.5,-28.75,4.94,68.82,-84.53,-41.54
5837,52.399296,-1.243194,183.72,6.04,4,98.77,16 / 17,1060107,2019-09-04 20:24:12:220,-0.3209,-0.556,9.7373,0.0008,-0.0056,9.8066,-0.0065,-0.0615,-0.0043,-20.62,-29.0,5.44,68.36,-84.51,-42.02
5838,52.399296,-1.243194,183.72,6.04,4,98.77,16 / 17,1060208,2019-09-04 20:24:12:321,-0.6375,-0.8352,9.8347,0.0012,0.0021,9.8066,-0.008,-0.0785,-0.0166,-21.69,-29.31,5.31,67.37,-84.51,-42.07
5839,52.399296,-1.243194,183.72,6.04,4,98.77,16 / 18,1060308,2019-09-04 20:24:12:421,-0.556,-0.8288,9.9412,-0.0015,-0.0008,9.8066,-0.008,-0.1071,-0.0146,-21.19,-28.94,5.44,68.33,-84.52,-42.03
5840,52.399296,-1.243194,183.72,6.04,4,98.77,16 / 18,1060408,2019-09-04 20:24:12:521,-0.7463,-0.4683,10.4832,0.0084,0.0019,9.8066,0.0128,-0.1209,-0.0227,-21.31,-28.81,5.38,68.46,-84.54,-41.87
5841,52.399296,-1.243194,183.72,6.04,4,98.77,16 / 18,1060507,2019-09-04 20:24:12:620,-0.3559,-1.2328,9.2614,0.0105,-0.0056,9.8066,-0.0042,-0.143,-0.0431,-20.87,-29.0,5.63,69.44,-84.69,-43.21
5842,52.399296,-1.243194,183.72,6.04,4,98.77,16 / 18,1060608,2019-09-04 20:24:12:721,-1.1519,-1.0271,10.4739,-0.0078,-0.0254,9.8065,-0.0031,-0.1534,0.0452,-20.94,-29.25,6.0,69.6,-84.74,-42.99
5843,52.399296,-1.243194,183.72,6.04,4,98.77,16 / 18,1060707,2019-09-04 20:24:12:820,-0.5344,-0.6125,10.2337,-0.0058,-0.0077,9.8065,-0.0271,-0.1801,-0.0047,-20.75,-29.12,6.5,69.95,-84.53,-45.33
5844,52.399296,-1.243194,183.72,6.04,4,98.77,16 / 18,1060808,2019-09-04 20:24:12:921,-1.9335,-1.6913,9.9043,-0.0068,-0.0021,9.8066,-0.0168,-0.1859,-0.0153,-20.25,-29.06,6.94,71.2,-84.38,-45.49
5845,52.399296,-1.243194,183.72,6.04,4,98.77,16 / 18,1060908,2019-09-04 20:24:13:021,-0.7957,-1.4877,9.2768,0.0075,0.0057,9.8066,-0.0224,-0.1942,0.0225,-20.81,-28.56,6.81,70.1,-84.5,-45.22
5846,52.399296,-1.243194,183.72,6.04,4,98.77,16 / 18,1061007,2019-09-04 20:24:13:120,-0.6747,-1.2378,9.5759,-0.0081,-0.0141,9.8066,-0.0203,-0.1985,0.0276,-19.94,-28.81,7.25,70.44,-84.41,-46.18
5847,52.399296,-1.243194,183.72,6.04,4,98.77,16 / 18,1061107,2019-09-04 20:24:13:220,-1.1762,-1.5092,10.0365,-0.0095,-0.0111,9.8065,-0.0261,-0.1975,0.0031,-20.25,-28.25,7.69,71.35,-84.17,-47.76
5848,52.399296,-1.243194,183.72,6.04,4,98.77,16 / 18,1061207,2019-09-04 20:24:13:320,-1.1922,-0.8695,10.2761,-0.0015,-0.0022,9.8066,-0.0103,-0.2002,-0.0096,-20.31,-28.06,7.69,71.34,-84.1,-47.86
5849,52.399296,-1.243194,183.72,6.04,4,98.77,19 / 19,1061308,2019-09-04 20:24:13:421,-0.565,-1.3832,9.7669,0.0071,-0.0007,9.8066,0.0067,-0.1989,-0.024,-20.0,-28.25,8.0,70.82,-84.13,-48.33
5850,52.399296,-1.243194,183.72,6.04,4,98.77,19 / 19,1061408,2019-09-04 20:24:13:521,-0.7556,-0.8387,9.6337,0.0067,-0.0068,9.8066,0.0067,-0.2186,-0.0018,-21.0,-28.62,8.38,68.2,-84.27,-49.65
5851,52.399296,-1.243194,183.72,6.04,4,98.77,19 / 19,1061507,2019-09-04 20:24:13:620,-0.751,-1.1073,9.716,0.0032,-0.0062,9.8066,-0.0088,-0.2062,-0.0126,-20.06,-28.5,8.69,70.53,-84.29,-50.69
5852,52.399296,-1.243194,183.72,6.04,4,98.77,19 / 19,1061607,2019-09-04 20:24:13:720,-1.18,-1.3215,9.8159,0.0046,0.0032,9.8065,-0.0211,-0.2105,-0.0363,-20.25,-28.81,8.5,70.56,-84.31,-50.89
5853,52.399296,-1.243194,183.72,6.04,4,98.77,19 / 19,1061707,2019-09-04 20:24:13:820,-1.0004,-0.8689,9.8656,0.0017,0.0038,9.8066,-0.0182,-0.2125,-0.0314,-20.44,-28.75,8.56,70.61,-84.34,-50.81
5854,52.399296,-1.243194,183.72,6.04,4,98.77,19 / 19,1061807,2019-09-04 20:24:13:920,-1.114,-0.8144,9.9776,0.0074,0.0106,9.8066,-0.0118,-0.2101,-0.0473,-20.56,-29.0,9.69,72.58,-84.5,-49.53
5855,52.399296,-1.243194,183.72,6.04,4,98.77,19 / 19,1061907,2019-09-04 20:24:14:020,-1.2417,-0.6922,9.7364,0.0075,0.0038,9.8066,-0.0021,-0.2168,-0.021,-20.06,-29.06,10.13,74.24,-84.61,-49.15
5856,52.399296,-1.243194,183.72,6.04,4,98.77,19 / 19,1062007,2019-09-04 20:24:14:120,-1.1927,-0.6591,9.7531,0.0047,-0.0053,9.8066,-0.0024,-0.2306,-0.0195,-19.62,-29.0,10.63,75.72,-84.67,-49.74
5857,52.399296,-1.243194,183.72,6.04,4,98.77,19 / 19,1062108,2019-09-04 20:24:14:221,-0.9344,-0.8962,10.1461,0.0125,0.0026,9.8065,0.0115,-0.224,-0.0466,-19.62,-29.25,10.75,74.85,-84.81,-50.41
5858,52.399296,-1.243194,183.72,6.04,4,98.77,19 / 19,1062208,2019-09-04 20:24:14:321,-0.7706,-0.8518,9.5229,0.0093,0.0019,9.8066,-0.0017,-0.2173,-0.0236,-19.06,-29.5,11.38,76.0,-84.99,-50.57
5859,52.399296,-1.243194,183.72,6.04,4,98.77,19 / 19,1062308,2019-09-04 20:24:14:421,-0.9531,-0.9,9.9329,0.0044,0.0012,9.8065,-0.005,-0.2255,-0.0159,-19.19,-29.75,10.88,76.03,-85.1,-50.61
5860,52.399185,-1.242334,183.58,7.57,4,115.75,18 / 19,1062407,2019-09-04 20:24:14:520,-1.0478,-1.2363,10.1111,0.0091,0.0057,9.8066,-0.0156,-0.2115,-0.0361,-19.0,-29.44,12.19,77.97,-85.18,-50.46
5861,52.399185,-1.242334,183.58,7.57,4,115.75,18 / 19,1062508,2019-09-04 20:24:14:621,-1.2452,-0.6528,9.9984,0.0132,0.0094,9.8065,0.0054,-0.2147,-0.0516,-18.12,-29.75,12.19,81.0,-85.38,-49.07
5862,52.399185,-1.242334,183.58,7.57,4,115.75,18 / 19,1062608,2019-09-04 20:24:14:721,-0.9563,-0.7652,9.9805,0.0151,0.0002,9.8065,0.0108,-0.2276,-0.037,-18.31,-29.56,12.44,80.78,-85.57,-49.03
5863,52.399185,-1.242334,183.58,7.57,4,115.75,18 / 19,1062708,2019-09-04 20:24:14:821,-1.1354,-1.2407,9.6916,0.0152,-0.0004,9.8066,0.012,-0.2118,-0.0461,-17.75,-29.75,12.75,82.1,-85.74,-49.48
5864,52.399185,-1.242334,183.58,7.57,4,115.75,18 / 19,1062808,2019-09-04 20:24:14:921,-1.2554,-1.066,9.4913,0.0138,0.0072,9.8066,-0.0092,-0.2091,-0.0569,-17.19,-29.69,13.0,83.88,-86.01,-49.12
5865,52.399185,-1.242334,183.58,7.57,4,115.75,18 / 19,1062908,2019-09-04 20:24:15:021,-0.6877,-0.5277,9.7815,0.0064,0.0159,9.8065,-0.0285,-0.1954,-0.0395,-17.5,-29.94,13.13,86.12,-86.17,-46.66
5866,52.399185,-1.242334,183.58,7.57,4,115.75,18 / 19,1063008,2019-09-04 20:24:15:121,-0.9199,-0.4702,10.0363,0.0016,0.0173,9.8066,-0.0321,-0.1995,-0.0505,-17.12,-30.37,13.38,90.19,-86.24,-42.5
5867,52.399185,-1.242334,183.58,7.57,4,115.75,18 / 19,1063108,2019-09-04 20:24:15:221,-0.5139,-0.4686,10.3797,0.0034,-0.0027,9.8066,0.0081,-0.1946,0.0048,-17.19,-29.87,13.0,92.25,-86.33,-40.31
5868,52.399185,-1.242334,183.58,7.57,4,115.75,18 / 19,1063208,2019-09-04 20:24:15:321,-0.9605,-1.0972,8.9449,0.0124,-0.0053,9.8066,0.0326,-0.193,-0.0694,-16.87,-30.62,13.5,92.87,-86.41,-41.66
5869,52.399185,-1.242334,183.58,7.57,4,115.75,17 / 18,1063308,2019-09-04 20:24:15:421,-1.1001,-1.507,9.7322,0.0145,0.0003,9.8066,-0.0003,-0.1925,-0.0687,-17.37,-30.56,13.94,92.9,-86.67,-41.26
5870,52.399185,-1.242334,183.58,7.57,4,115.75,17 / 18,1063408,2019-09-04 20:24:15:521,-0.0493,-0.8022,9.1473,0.0067,0.0091,9.8066,-0.0224,-0.2032,-0.0102,-17.62,-30.12,15.5,96.87,-86.87,-38.63
5871,52.399185,-1.242334,183.58,7.57,4,115.75,17 / 18,1063508,2019-09-04 20:24:15:621,-1.0339,-0.8466,9.9398,-0.0198,0.0211,9.8066,-0.0892,-0.2071,-0.0247,-17.44,-30.56,16.63,103.6,-86.57,-35.68
5872,52.399185,-1.242334,183.58,7.57,4,115.75,17 / 18,1063608,2019-09-04 20:24:15:721,-0.7752,-0.8518,10.2225,-0.0152,0.0114,9.8065,-0.0484,-0.2026,0.0103,-16.19,-29.81,17.25,107.77,-86.34,-33.41
5873,52.399185,-1.242334,183.58,7.57,4,115.75,17 / 18,1063708,2019-09-04 20:24:15:821,-1.235,-0.5293,9.6941,-0.0022,-0.0058,9.8065,0.0228,-0.1909,-0.0133,-15.94,-30.5,17.5,108.74,-86.16,-34.13
5874,52.399185,-1.242334,183.58,7.57,4,115.75,17 / 18,1063807,2019-09-04 20:24:15:920,-0.3104,-0.7166,10.1531,0.0135,-0.0152,9.8066,0.0432,-0.16,-0.0036,-14.06,-29.37,16.94,108.78,-86.33,-36.3
5875,52.399185,-1.242334,183.58,7.57,4,115.75,17 / 18,1063908,2019-09-04 20:24:16:021,-0.5479,-1.3985,10.1208,0.0046,-0.0245,9.8065,0.0286,-0.1823,-0.0016,-13.87,-30.5,17.0,104.87,-86.47,-40.29
5876,52.399185,-1.242334,183.58,7.57,4,115.75,17 / 18,1064008,2019-09-04 20:24:16:121,-0.9123,-0.9325,10.1103,0.0064,-0.0039,9.8066,0.0023,-0.1756,-0.0253,-14.12,-30.62,16.75,101.37,-86.62,-43.81
5877,52.399185,-1.242334,183.58,7.57,4,115.75,17 / 18,1064108,2019-09-04 20:24:16:221,-0.7038,-0.8649,10.4404,0.0069,0.0034,9.8066,-0.0086,-0.1669,-0.0279,-13.69,-30.37,17.5,103.41,-86.68,-42.95
5878,52.399185,-1.242334,183.58,7.57,4,115.75,17 / 18,1064208,2019-09-04 20:24:16:321,-1.0283,-0.563,10.035,0.0021,0.0024,9.8066,0.0016,-0.165,-0.0283,-13.5,-30.69,17.19,104.95,-86.71,-42.24
5879,52.399185,-1.242334,183.58,7.57,4,115.75,17 / 18,1064307,2019-09-04 20:24:16:420,-0.1335,-0.2462,10.128,0.0149,-0.0033,9.8066,0.0211,-0.1416,-0.0312,-13.25,-30.56,17.63,107.19,-86.85,-41.16
5880,52.399185,-1.242334,183.58,7.57,4,115.75,17 / 18,1064408,2019-09-04 20:24:16:521,-0.1718,-0.0922,10.1452,0.008,-0.0091,9.8066,0.0276,-0.1197,-0.0185,-12.81,-30.75,17.81,106.02,-87.07,-42.06
5881,52.399185,-1.242334,183.58,7.57,4,115.75,17 / 18,1064507,2019-09-04 20:24:16:620,-0.4606,-0.5932,9.4499,0.0088,-0.0037,9.8066,0.0085,-0.1083,-0.0244,-12.75,-30.62,17.38,102.33,-87.2,-44.22
5882,52.399185,-1.242334,183.58,7.57,4,115.75,17 / 18,1064608,2019-09-04 20:24:16:721,-0.0192,0.2039,9.8034,0.0041,0.0021,9.8066,-0.0143,-0.096,-0.0211,-12.94,-31.06,17.44,102.56,-87.32,-43.82
5883,52.399185,-1.242334,183.58,7.57,4,115.75,17 / 18,1064708,2019-09-04 20:24:16:821,0.3272,-0.101,10.0516,-0.0098,-0.001,9.8066,-0.0273,-0.0833,0.0202,-12.44,-30.31,18.25,105.74,-87.22,-44.27
5884,52.399185,-1.242334,183.58,7.57,4,115.75,17 / 18,1064808,2019-09-04 20:24:16:921,-0.5125,0.0162,9.8238,-0.0143,-0.0067,9.8066,-0.0028,-0.0663,0.0257,-13.06,-30.94,17.81,102.26,-87.06,-45.9
5885,52.399185,-1.242334,183.58,7.57,4,115.75,17 / 18,1064908,2019-09-04 20:24:17:021,-0.2732,0.1522,9.7284,-0.0073,-0.0064,9.8066,0.0016,-0.0628,0.0161,-12.06,-30.81,18.0,102.58,-86.98,-47.94
5886,52.399185,-1.242334,183.58,7.57,4,115.75,17 / 18,1065008,2019-09-04 20:24:17:121,0.055,0.0932,9.7959,-0.0104,-0.007,9.8066,-0.0116,-0.0478,0.0215,-13.12,-31.19,18.0,97.76,-86.85,-50.76
5887,52.399185,-1.242334,183.58,7.57,4,115.75,17 / 18,1065108,2019-09-04 20:24:17:221,0.0767,0.2092,9.8025,-0.0118,-0.0005,9.8066,-0.0196,-0.0404,0.0133,-12.44,-31.0,17.75,99.17,-86.72,-51.78
5888,52.399185,-1.242334,183.58,7.57,4,115.75,17 / 18,1065208,2019-09-04 20:24:17:321,0.5029,0.5101,10.0067,-0.004,0.0019,9.8066,-0.0103,-0.0259,0.0007,-12.94,-30.94,18.31,96.88,-86.6,-51.99
5889,52.399185,-1.242334,183.58,7.57,4,115.75,17 / 18,1065308,2019-09-04 20:24:17:421,0.0874,0.428,9.8742,-0.0057,-0.0014,9.8066,-0.01,-0.0132,-0.0029,-12.75,-31.12,17.75,96.85,-86.51,-52.16
5890,52.399185,-1.242334,183.58,7.57,4,115.75,17 / 18,1065407,2019-09-04 20:24:17:520,0.247,0.4514,9.5831,-0.0017,-0.0023,9.8066,-0.0016,-0.0008,-0.0056,-12.87,-30.56,18.31,96.41,-86.45,-52.68
5891,52.399185,-1.242334,183.58,7.57,4,115.75,17 / 18,1065509,2019-09-04 20:24:17:622,0.0898,0.6704,9.6836,-0.0061,-0.0021,9.8066,-0.0075,0.0194,0.0034,-12.62,-31.12,17.88,96.64,-86.44,-52.46
5892,52.399185,-1.242334,183.58,7.57,4,115.75,17 / 18,1065608,2019-09-04 20:24:17:721,0.5286,0.8876,9.9709,-0.005,-0.0011,9.8066,-0.0084,0.0283,-0.0046,-13.06,-30.62,17.81,96.22,-86.34,-53.01
5893,52.399185,-1.242334,183.58,7.57,4,115.75,17 / 18,1065707,2019-09-04 20:24:17:820,0.5451,0.8263,9.6811,-0.0002,0.0009,9.8066,-0.0101,0.0476,-0.0175,-13.0,-31.56,18.31,96.53,-86.3,-52.93
5894,52.399185,-1.242334,183.58,7.57,4,115.75,17 / 18,1065808,2019-09-04 20:24:17:921,0.7705,1.1763,9.9156,-0.0035,-0.0001,9.8066,-0.0099,0.0621,0.0081,-12.94,-31.25,17.88,96.8,-86.29,-52.51
5895,52.399185,-1.242334,183.58,7.57,4,115.75,17 / 18,1065908,2019-09-04 20:24:18:021,1.0954,1.1988,10.0878,-0.0027,0.0,9.8066,-0.0005,0.0805,0.002,-13.44,-31.62,18.38,97.13,-86.22,-52.43
5896,52.399185,-1.242334,183.58,7.57,4,115.75,17 / 18,1066007,2019-09-04 20:24:18:120,0.3724,0.9658,9.5241,-0.0027,-0.0052,9.8066,0.0049,0.0904,-0.0022,-13.19,-31.06,17.81,96.36,-86.17,-53.11
5897,52.399185,-1.242334,183.58,7.57,4,115.75,17 / 18,1066108,2019-09-04 20:24:18:221,1.3923,1.2038,10.3484,-0.0017,-0.0013,9.8065,0.0002,0.1028,0.0119,-13.19,-31.12,17.69,96.44,-86.18,-53.02
5898,52.399185,-1.242334,183.58,7.57,4,115.75,17 / 18,1066208,2019-09-04 20:24:18:321,0.9031,1.2684,9.6677,-0.0023,-0.0032,9.8066,0.0073,0.1167,-0.0016,-13.19,-31.5,17.88,95.9,-86.13,-53.63
5899,52.399185,-1.242334,183.58,7.57,4,115.75,17 / 18,1066308,2019-09-04 20:24:18:421,0.9592,1.5186,9.6718,-0.0003,0.002,9.8066,-0.0013,0.1436,-0.0021,-13.5,-30.94,17.5,95.69,-86.14,-53.84
5900,52.399185,-1.242334,183.58,7.57,4,115.75,17 / 18,1066407,2019-09-04 20:24:18:520,1.6747,1.7778,9.6539,0.0068,0.0047,9.8065,0.0016,0.154,-0.0175,-13.94,-31.37,17.81,94.05,-86.17,-53.27
5901,52.399185,-1.242334,183.58,7.57,4,115.75,17 / 18,1066508,2019-09-04 20:24:18:621,1.3861,1.8888,9.3803,-0.0032,0.0061,9.8065,-0.0032,0.1696,0.0013,-14.06,-31.0,17.5,94.89,-86.16,-52.44
5902,52.399185,-1.242334,183.58,7.57,4,115.75,17 / 18,1066607,2019-09-04 20:24:18:720,1.2945,1.7634,10.1175,-0.0044,0.0036,9.8066,0.0048,0.173,-0.0015,-14.37,-31.31,16.75,94.6,-86.09,-51.41
5903,52.399185,-1.242334,183.58,7.57,4,115.75,17 / 18,1066708,2019-09-04 20:24:18:821,1.1804,1.6512,9.3644,-0.0035,-0.0004,9.8066,0.0113,0.1824,0.0048,-14.12,-31.0,16.38,93.01,-86.05,-51.57
5904,52.399185,-1.242334,183.58,7.57,4,115.75,17 / 18,1066808,2019-09-04 20:24:18:921,1.1392,1.8986,10.1021,-0.0033,-0.0049,9.8066,0.0124,0.1919,0.019,-13.75,-31.37,15.88,92.39,-86.01,-52.25
5905,52.399185,-1.242334,183.58,7.57,4,115.75,17 / 18,1066907,2019-09-04 20:24:19:020,1.4593,2.0568,9.4229,0.0012,-0.0024,9.8065,0.0134,0.2003,0.0054,-14.75,-31.12,16.19,89.38,-85.99,-53.16
5906,52.399185,-1.242334,183.58,7.57,4,115.75,17 / 18,1067008,2019-09-04 20:24:19:121,0.7068,1.7793,9.7177,-0.005,-0.0046,9.8066,0.015,0.2194,0.0198,-15.44,-30.81,16.31,88.96,-85.94,-53.64
5907,52.399185,-1.242334,183.58,7.57,4,115.75,17 / 18,1067108,2019-09-04 20:24:19:221,1.5512,1.95,9.7096,-0.0086,-0.0022,9.8066,-0.0013,0.2172,0.022,-15.37,-30.75,15.38,86.92,-85.91,-54.08
5908,52.399185,-1.242334,183.58,7.57,4,115.75,17 / 18,1067208,2019-09-04 20:24:19:321,1.4505,2.0665,9.9913,-0.0091,0.0019,9.8066,-0.0046,0.2236,0.022,-15.44,-30.81,15.5,88.87,-85.75,-54.0
5909,52.399185,-1.242334,183.58,7.57,4,115.75,17 / 18,1067307,2019-09-04 20:24:19:420,0.6138,2.1583,9.5221,-0.0108,0.0002,9.8066,-0.004,0.2237,0.0147,-15.94,-30.37,14.56,85.54,-85.65,-53.57
5910,52.399185,-1.242334,183.58,7.57,4,115.75,16 / 17,1067407,2019-09-04 20:24:19:520,1.346,1.9839,9.9811,-0.0081,0.0,9.8066,-0.0032,0.2277,0.0216,-16.19,-30.44,15.0,86.14,-85.5,-53.2
5911,52.399185,-1.242334,183.58,7.57,4,115.75,16 / 17,1067508,2019-09-04 20:24:19:621,1.1798,2.1274,9.2442,-0.009,0.003,9.8066,0.0011,0.2437,0.0099,-16.87,-30.75,14.56,85.24,-85.35,-52.56
5912,52.399185,-1.242334,183.58,7.57,4,115.75,16 / 17,1067607,2019-09-04 20:24:19:720,1.1879,2.4297,9.4322,-0.011,0.0072,9.8066,-0.0251,0.2455,0.0131,-17.12,-30.31,13.63,84.34,-85.26,-51.6
5913,52.399185,-1.242334,183.58,7.57,4,115.75,16 / 17,1067708,2019-09-04 20:24:19:821,0.7255,2.1285,9.8089,-0.0128,0.0083,9.8066,-0.0187,0.2392,0.0144,-17.19,-31.12,13.63,86.32,-85.1,-50.08
5914,52.399185,-1.242334,183.58,7.57,4,115.75,16 / 17,1067808,2019-09-04 20:24:19:921,0.347,2.3349,9.1349,-0.007,0.0104,9.8066,-0.0197,0.2503,0.0079,-18.0,-30.31,12.25,82.78,-84.94,-47.93
5915,52.399185,-1.242334,183.58,7.57,4,115.75,16 / 17,1067908,2019-09-04 20:24:20:021,1.3683,2.1077,10.1575,-0.0083,0.0036,9.8066,-0.0067,0.2428,0.0195,-17.37,-30.44,13.13,87.71,-84.84,-46.97
5916,52.399185,-1.242334,183.58,7.57,4,115.75,16 / 17,1068008,2019-09-04 20:24:20:121,0.3822,2.5224,9.8032,-0.007,0.0032,9.8066,0.0095,0.2414,0.0147,-17.62,-30.94,11.69,85.09,-84.71,-46.22
5917,52.399185,-1.242334,183.58,7.57,4,115.75,16 / 17,1068108,2019-09-04 20:24:20:221,0.988,2.2553,9.2138,-0.0042,-0.001,9.8066,0.0009,0.2307,0.0397,-18.37,-30.44,12.63,87.07,-84.64,-46.05
5918,52.399185,-1.242334,183.58,7.57,4,115.75,16 / 17,1068208,2019-09-04 20:24:20:321,0.878,2.0296,9.4504,-0.0135,-0.0044,9.8066,-0.0072,0.2265,0.0361,-18.37,-31.06,11.56,85.17,-84.49,-46.46
5919,52.399185,-1.242334,183.58,7.57,4,115.75,16 / 17,1068308,2019-09-04 20:24:20:421,0.0222,2.1279,9.3612,-0.0063,0.0008,9.8066,-0.0066,0.2101,0.0351,-18.56,-29.75,10.81,81.63,-84.34,-46.18
5920,52.399185,-1.242334,183.58,7.57,4,115.75,17 / 18,1068407,2019-09-04 20:24:20:520,0.0313,2.2549,10.0081,-0.0143,-0.0021,9.8066,-0.0105,0.2099,0.0503,-18.44,-30.12,10.88,83.79,-84.07,-46.11
5921,52.399185,-1.242334,183.58,7.57,4,115.75,17 / 18,1068507,2019-09-04 20:24:20:620,-0.0187,2.0497,9.7594,-0.007,0.0031,9.8066,0.0007,0.1977,0.0097,-19.37,-30.19,10.13,80.29,-83.95,-45.92
5922,52.399185,-1.242334,183.58,7.57,4,115.75,17 / 18,1068608,2019-09-04 20:24:20:721,0.0948,2.4608,9.9603,-0.002,-0.0022,9.8066,0.0171,0.1902,0.0279,-19.44,-30.06,10.75,82.69,-83.94,-45.69
5923,52.399185,-1.242334,183.58,7.57,4,115.75,17 / 18,1068708,2019-09-04 20:24:20:821,-0.2854,2.0513,9.8204,-0.0059,-0.0077,9.8066,0.0215,0.1897,0.0305,-19.5,-30.0,10.31,79.89,-83.86,-46.43
5924,52.399185,-1.242334,183.58,7.57,4,115.75,17 / 18,1068807,2019-09-04 20:24:20:920,-0.7768,2.1167,9.611,-0.0046,-0.003,9.8066,0.0105,0.1808,0.0338,-20.37,-29.87,9.19,76.11,-83.85,-46.42
5925,52.399185,-1.242334,183.58,7.57,4,115.75,17 / 18,1068908,2019-09-04 20:24:21:021,-0.9776,2.1411,9.6849,-0.0031,-0.0035,9.8066,0.0171,0.1582,0.0384,-19.56,-29.81,9.69,77.95,-83.76,-46.93
5926,52.399185,-1.242334,183.58,7.57,4,115.75,17 / 18,1069008,2019-09-04 20:24:21:121,-1.1691,2.3131,9.6716,-0.0053,0.0052,9.8066,-0.0091,0.1433,0.0047,-20.0,-29.81,9.25,75.97,-83.67,-46.8
5927,52.399185,-1.242334,183.58,7.57,4,115.75,17 / 18,1069108,2019-09-04 20:24:21:221,-1.5945,2.2121,9.2065,-0.0055,0.0065,9.8066,0.003,0.1448,0.0058,-19.56,-29.56,9.25,76.86,-83.64,-45.98
5928,52.399185,-1.242334,183.58,7.57,4,115.75,17 / 18,1069208,2019-09-04 20:24:21:321,-1.5359,2.0368,9.9203,-0.0132,0.0017,9.8066,-0.0151,0.1361,0.0088,-19.62,-29.94,8.88,77.57,-83.55,-45.42
5929,52.399185,-1.242334,183.58,7.57,4,115.75,17 / 18,1069308,2019-09-04 20:24:21:421,-1.0069,2.1316,10.2128,-0.007,0.0092,9.8066,-0.0113,0.1205,0.001,-20.37,-30.12,7.88,76.76,-83.41,-44.13
5930,52.399185,-1.242334,183.58,7.57,4,115.75,17 / 18,1069408,2019-09-04 20:24:21:521,-0.9134,1.2663,9.8822,-0.0005,0.0079,9.8066,-0.0003,0.1233,-0.0173,-20.0,-30.06,7.63,77.99,-83.39,-42.97
5931,52.399185,-1.242334,183.58,7.57,4,115.75,17 / 18,1069507,2019-09-04 20:24:21:620,-0.3192,1.4215,9.6647,0.0031,0.0108,9.8066,-0.0008,0.1096,-0.0074,-19.75,-29.81,8.0,78.99,-83.45,-41.91
5932,52.399185,-1.242334,183.58,7.57,4,115.75,17 / 18,1069607,2019-09-04 20:24:21:720,0.3381,0.9578,9.5393,0.0087,0.0108,9.8066,0.0207,0.0986,-0.0224,-19.62,-30.19,7.56,79.81,-83.51,-41.02
5933,52.399185,-1.242334,183.58,7.57,4,115.75,17 / 18,1069708,2019-09-04 20:24:21:821,0.2219,0.9523,10.4501,0.0057,0.005,9.8066,0.0071,0.099,-0.0173,-20.44,-30.12,6.94,78.2,-83.67,-40.0
5934,52.399185,-1.242334,183.58,7.57,4,115.75,17 / 18,1069808,2019-09-04 20:24:21:921,-0.065,0.3552,9.9489,0.0102,0.0048,9.8066,0.0233,0.0941,-0.0272,-19.87,-29.81,7.69,81.14,-83.78,-39.34
5935,52.399185,-1.242334,183.58,7.57,4,115.75,17 / 18,1069908,2019-09-04 20:24:22:021,0.5174,0.6256,10.1302,0.0096,0.0022,9.8066,0.0239,0.0874,0.0007,-19.81,-30.06,7.63,81.49,-83.98,-38.7
5936,52.399185,-1.242334,183.58,7.57,4,115.75,17 / 18,1070008,2019-09-04 20:24:22:121,0.731,0.9066,9.433,0.0075,0.0002,9.8066,0.0213,0.0778,0.0032,-20.0,-29.62,7.25,78.65,-84.12,-38.92
5937,52.399185,-1.242334,183.58,7.57,4,115.75,17 / 18,1070108,2019-09-04 20:24:22:221,0.6157,0.7375,9.3352,0.0012,-0.0009,9.8066,0.0015,0.0656,0.002,-19.87,-29.69,7.0,78.32,-84.16,-39.19
5938,52.399185,-1.242334,183.58,7.57,4,115.75,17 / 18,1070208,2019-09-04 20:24:22:321,-0.0614,-0.0084,9.1197,-0.0129,0.0026,9.8066,-0.0373,0.0744,-0.0114,-19.75,-29.87,6.75,78.11,-84.08,-39.5
5939,52.399185,-1.242334,183.58,7.57,4,115.75,17 / 18,1070308,2019-09-04 20:24:22:421,0.2762,1.2654,9.7792,-0.0117,0.0203,9.8065,-0.051,0.0629,-0.0082,-20.37,-30.0,6.0,78.43,-83.93,-36.94
5940,52.399185,-1.242334,183.58,7.57,4,115.75,18 / 18,1070408,2019-09-04 20:24:22:521,0.5282,1.7378,10.653,-0.0227,0.0156,9.8066,-0.0557,0.0584,0.0104,-20.19,-29.62,5.88,80.89,-83.7,-34.87
5941,52.399185,-1.242334,183.58,7.57,4,115.75,18 / 18,1070507,2019-09-04 20:24:22:620,0.4564,0.7651,9.7714,-0.0188,0.0007,9.8066,-0.0216,0.0551,0.0295,-19.5,-29.75,5.19,81.83,-83.36,-33.09
5942,52.399185,-1.242334,183.58,7.57,4,115.75,18 / 18,1070608,2019-09-04 20:24:22:721,0.4302,0.208,10.1778,-0.004,-0.0134,9.8066,0.0035,0.0648,0.0331,-20.81,-29.37,5.69,80.8,-83.21,-34.18
5943,52.399185,-1.242334,183.58,7.57,4,115.75,18 / 18,1070708,2019-09-04 20:24:22:821,0.5653,0.5213,9.4042,0.0053,-0.0074,9.8065,0.023,0.0645,0.0194,-21.31,-29.31,5.13,77.47,-83.21,-34.99
5944,52.399185,-1.242334,183.58,7.57,4,115.75,18 / 18,1070808,2019-09-04 20:24:22:921,0.5772,0.0826,9.2511,0.0083,0.0016,9.8066,0.0177,0.0761,-0.019,-20.69,-29.12,5.38,77.04,-83.29,-35.3
5945,52.399185,-1.242334,183.58,7.57,4,115.75,18 / 18,1070908,2019-09-04 20:24:23:021,0.8701,0.9995,10.0884,-0.0013,0.0072,9.8066,-0.0012,0.0723,-0.0089,-21.94,-29.25,5.38,76.69,-83.39,-34.54
5946,52.399185,-1.242334,183.58,7.57,4,115.75,18 / 18,1071007,2019-09-04 20:24:23:120,1.3561,1.0068,9.7646,0.0034,0.0017,9.8066,0.0158,0.0595,0.0043,-22.56,-28.69,6.06,78.33,-83.42,-34.28
5947,52.399185,-1.242334,183.58,7.57,4,115.75,18 / 18,1071107,2019-09-04 20:24:23:220,1.088,0.3655,9.6848,-0.0077,-0.0072,9.8066,0.0001,0.0705,0.0382,-21.81,-28.87,6.13,78.98,-83.4,-34.65
5948,52.399185,-1.242334,183.58,7.57,4,115.75,18 / 18,1071208,2019-09-04 20:24:23:321,1.4804,-0.0313,9.4578,0.0018,-0.0028,9.8066,0.0092,0.0743,0.0114,-21.81,-28.25,7.19,80.32,-83.37,-35.39
5949,52.399185,-1.242334,183.58,7.57,4,115.75,17 / 18,1071308,2019-09-04 20:24:23:421,2.1788,0.1628,9.1646,0.0037,0.003,9.8066,-0.0102,0.079,0.0099,-21.37,-28.5,7.38,81.51,-83.42,-35.28
5950,52.39885,-1.241562,183.22,5.64,4,96.72,17 / 18,1071407,2019-09-04 20:24:23:520,1.0082,0.3527,9.5297,-0.0209,0.0256,9.8066,-0.0343,0.0794,-0.0138,-20.5,-28.44,6.94,82.99,-83.38,-35.1
5951,52.39885,-1.241562,183.22,5.64,4,96.72,17 / 18,1071508,2019-09-04 20:24:23:621,0.9892,0.5419,9.5186,-0.0098,0.0126,9.8066,-0.0466,0.0948,0.0008,-19.0,-28.44,6.13,84.87,-83.2,-32.3
5952,52.39885,-1.241562,183.22,5.64,4,96.72,17 / 18,1071607,2019-09-04 20:24:23:720,1.2125,0.1299,9.9996,-0.0071,0.0067,9.8066,-0.0196,0.0663,0.0011,-19.25,-29.0,5.13,83.75,-83.07,-31.32
5953,52.39885,-1.241562,183.22,5.64,4,96.72,17 / 18,1071708,2019-09-04 20:24:23:821,0.9431,0.2875,9.9149,-0.0028,-0.0032,9.8066,0.0126,0.0536,0.0337,-19.06,-27.87,4.13,81.25,-82.98,-30.8
5954,52.39885,-1.241562,183.22,5.64,4,96.72,17 / 18,1071807,2019-09-04 20:24:23:920,0.7869,-0.0536,9.6089,0.0089,0.0026,9.8066,0.0068,0.0681,-0.0084,-19.75,-27.94,4.0,79.56,-83.08,-31.24
5955,52.39885,-1.241562,183.22,5.64,4,96.72,17 / 18,1071908,2019-09-04 20:24:24:021,0.9103,-0.1259,9.9418,0.0052,0.0121,9.8066,-0.0082,0.0604,-0.0141,-20.44,-27.75,3.69,80.42,-83.16,-30.29
5956,52.39885,-1.241562,183.22,5.64,4,96.72,17 / 18,1072008,2019-09-04 20:24:24:121,1.2232,0.9432,10.1785,-0.0023,-0.0046,9.8066,-0.0166,0.0557,0.0323,-20.44,-28.5,3.31,78.5,-83.17,-29.45
5957,52.39885,-1.241562,183.22,5.64,4,96.72,17 / 18,1072107,2019-09-04 20:24:24:220,1.0701,0.4627,9.9106,-0.007,-0.0031,9.8066,-0.0202,0.0453,0.025,-21.37,-27.75,3.88,79.89,-83.06,-29.99
5958,52.39885,-1.241562,183.22,5.64,4,96.72,17 / 18,1072208,2019-09-04 20:24:24:321,0.974,0.2121,10.0629,-0.0056,0.0002,9.8066,0.0006,0.0476,0.0098,-21.69,-27.94,3.69,79.1,-82.99,-29.99
5959,52.39885,-1.241562,183.22,5.64,4,96.72,18 / 18,1072308,2019-09-04 20:24:24:421,1.6208,0.2115,10.1302,-0.0019,0.0012,9.8066,-0.0071,0.0402,-0.0025,-21.19,-28.94,4.38,80.64,-82.93,-29.76
5960,52.39885,-1.241562,183.22,5.64,4,96.72,18 / 18,1072408,2019-09-04 20:24:24:521,1.5497,0.139,10.1201,-0.0094,-0.0006,9.8066,-0.03,0.0431,0.0069,-21.12,-28.69,4.0,80.88,-82.82,-29.69
5961,52.39885,-1.241562,183.22,5.64,4,96.72,18 / 18,1072507,2019-09-04 20:24:24:620,1.1854,0.3357,9.7806,-0.0026,0.0077,9.8066,-0.0133,0.0386,0.0056,-20.56,-28.12,4.19,81.39,-82.79,-28.89
5962,52.39885,-1.241562,183.22,5.64,4,96.72,18 / 18,1072608,2019-09-04 20:24:24:721,0.8695,-0.0565,9.8768,-0.0023,-0.0012,9.8066,-0.0178,0.0461,0.0086,-20.44,-28.19,3.5,82.33,-82.76,-28.99
5963,52.39885,-1.241562,183.22,5.64,4,96.72,18 / 18,1072708,2019-09-04 20:24:24:821,0.3781,-0.0809,9.1053,0.0001,0.0067,9.8066,0.0018,0.0188,-0.0105,-20.75,-28.06,3.44,79.12,-82.74,-28.6
5964,52.39885,-1.241562,183.22,5.64,4,96.72,18 / 18,1072808,2019-09-04 20:24:24:921,0.8115,0.3412,9.7776,0.0025,0.0039,9.8066,0.0043,0.0075,0.0059,-20.44,-26.87,3.13,79.88,-82.81,-28.28
5965,52.39885,-1.241562,183.22,5.64,4,96.72,18 / 18,1072908,2019-09-04 20:24:25:021,1.019,0.0483,9.7793,0.0015,0.0084,9.8066,-0.0091,0.0193,-0.021,-21.31,-27.25,2.88,79.56,-82.84,-27.7
5966,52.39885,-1.241562,183.22,5.64,4,96.72,18 / 18,1073008,2019-09-04 20:24:25:121,0.4062,-0.1173,9.8114,-0.0024,0.0016,9.8065,0.0005,0.0042,0.0036,-21.25,-27.69,3.38,80.67,-82.87,-26.9
5967,52.39885,-1.241562,183.22,5.64,4,96.72,18 / 18,1073108,2019-09-04 20:24:25:221,0.9794,0.345,9.8512,0.0066,0.0076,9.8066,0.0066,0.0039,-0.0377,-20.87,-28.0,4.38,83.67,-82.93,-26.45
5968,52.39885,-1.241562,183.22,5.64,4,96.72,18 / 18,1073207,2019-09-04 20:24:25:320,0.7353,-0.6483,10.2643,0.009,0.0026,9.8066,0.0158,0.004,-0.022,-20.19,-27.62,4.19,85.25,-83.02,-25.73
5969,52.39885,-1.241562,183.22,5.64,4,96.72,19 / 19,1073308,2019-09-04 20:24:25:421,0.658,0.0218,9.3546,0.011,0.0041,9.8065,0.0165,-0.0158,-0.0132,-19.31,-28.25,3.94,86.63,-83.21,-25.16
5970,52.39885,-1.241562,183.22,5.64,4,96.72,19 / 19,1073407,2019-09-04 20:24:25:520,0.3206,-0.0095,9.8208,0.0026,0.0109,9.8066,-0.0061,-0.0152,-0.0335,-19.94,-27.75,3.88,85.56,-83.28,-25.07
5971,52.39885,-1.241562,183.22,5.64,4,96.72,19 / 19,1073508,2019-09-04 20:24:25:621,1.1261,1.2953,10.1885,0.005,0.0099,9.8066,-0.0032,0.0098,0.0132,-18.75,-27.81,2.25,82.42,-83.37,-23.36
5972,52.39885,-1.241562,183.22,5.64,4,96.72,19 / 19,1073607,2019-09-04 20:24:25:720,0.7549,0.145,9.9263,-0.0031,-0.0053,9.8066,-0.0026,-0.0054,0.0159,-19.62,-27.81,2.38,80.8,-83.32,-24.24
5973,52.39885,-1.241562,183.22,5.64,4,96.72,19 / 19,1073707,2019-09-04 20:24:25:820,0.2777,-0.1102,9.7363,0.0074,-0.0014,9.8066,0.0146,-0.0245,0.0061,-21.06,-27.94,1.81,79.77,-83.36,-24.48
5974,52.39885,-1.241562,183.22,5.64,4,96.72,19 / 19,1073807,2019-09-04 20:24:25:920,-0.3164,0.0014,9.1257,0.005,0.0006,9.8066,-0.0105,-0.0082,0.0058,-20.56,-28.62,2.38,79.73,-83.44,-24.71
5975,52.39885,-1.241562,183.22,5.64,4,96.72,19 / 19,1073908,2019-09-04 20:24:26:021,0.2609,0.5808,9.6628,0.0006,0.0034,9.8066,-0.0072,-0.0192,-0.0127,-21.87,-29.0,3.19,81.75,-83.47,-24.57
5976,52.39885,-1.241562,183.22,5.64,4,96.72,19 / 19,1074008,2019-09-04 20:24:26:121,0.3278,0.9077,9.6699,-0.001,0.0024,9.8066,-0.0094,-0.0021,0.0146,-21.06,-28.94,3.31,82.64,-83.47,-24.46
5977,52.39885,-1.241562,183.22,5.64,4,96.72,19 / 19,1074108,2019-09-04 20:24:26:221,1.0706,-0.1444,9.9884,-0.0005,0.003,9.8066,-0.0024,-0.0186,-0.0007,-21.06,-28.25,3.88,85.1,-83.45,-24.33
5978,52.39885,-1.241562,183.22,5.64,4,96.72,19 / 19,1074208,2019-09-04 20:24:26:321,1.4332,0.411,9.4587,0.0021,0.0021,9.8066,-0.012,-0.0141,-0.0098,-21.5,-28.0,3.69,85.05,-83.53,-24.28
5979,52.39885,-1.241562,183.22,5.64,4,96.72,19 / 19,1074308,2019-09-04 20:24:26:421,0.1729,-0.9387,9.2442,-0.0059,-0.0074,9.8066,-0.0119,-0.0169,0.0027,-21.12,-28.06,3.63,84.79,-83.49,-24.59
5980,52.39885,-1.241562,183.22,5.64,4,96.72,18 / 20,1074408,2019-09-04 20:24:26:521,1.0176,0.4135,11.0657,-0.0008,0.0074,9.8066,-0.019,-0.0101,-0.0177,-21.75,-28.37,3.94,85.06,-83.45,-23.5
5981,52.39885,-1.241562,183.22,5.64,4,96.72,18 / 20,1074507,2019-09-04 20:24:26:620,1.8309,-0.0497,10.7128,-0.0015,-0.0015,9.8066,-0.0077,-0.0022,0.0154,-21.0,-28.81,3.88,86.69,-83.43,-23.09
5982,52.39885,-1.241562,183.22,5.64,4,96.72,18 / 20,1074608,2019-09-04 20:24:26:721,-0.3282,0.2557,9.6507,-0.0003,-0.0005,9.8065,-0.0037,-0.005,0.0098,-21.87,-28.19,4.5,87.32,-83.45,-23.68
5983,52.39885,-1.241562,183.22,5.64,4,96.72,18 / 20,1074708,2019-09-04 20:24:26:821,0.3503,-0.1542,10.5016,0.0034,0.0048,9.8066,0.0127,-0.0045,-0.0035,-21.62,-28.44,4.31,85.1,-83.48,-23.43
5984,52.39885,-1.241562,183.22,5.64,4,96.72,18 / 20,1074808,2019-09-04 20:24:26:921,0.5114,0.6379,9.6152,0.0123,0.0037,9.8066,0.0286,-0.0057,-0.0225,-21.44,-29.19,4.19,86.39,-83.66,-23.07
5985,52.39885,-1.241562,183.22,5.64,4,96.72,18 / 20,1074908,2019-09-04 20:24:27:021,-0.3532,1.4339,9.4473,0.0088,-0.0048,9.8066,0.0275,0.0015,0.0126,-20.81,-29.94,5.13,88.65,-83.79,-23.45
5986,52.39885,-1.241562,183.22,5.64,4,96.72,18 / 20,1075009,2019-09-04 20:24:27:122,0.6871,0.0398,9.4732,0.0021,0.0019,9.8066,-0.0027,-0.0202,-0.0073,-20.12,-29.25,5.19,88.23,-83.93,-24.42
5987,52.39885,-1.241562,183.22,5.64,4,96.72,18 / 20,1075108,2019-09-04 20:24:27:221,-0.4138,-0.03,9.911,-0.0097,0.0041,9.8066,-0.0397,-0.0079,-0.0263,-20.62,-29.75,4.94,87.85,-83.85,-24.16
5988,52.39885,-1.241562,183.22,5.64,4,96.72,18 / 20,1075207,2019-09-04 20:24:27:320,-0.8392,0.2444,10.1522,-0.0033,0.0011,9.8066,-0.0009,-0.0012,-0.0032,-20.12,-29.75,3.88,87.37,-83.77,-23.19
5989,52.39885,-1.241562,183.22,5.64,4,96.72,18 / 20,1075308,2019-09-04 20:24:27:421,0.0443,0.0072,10.2486,0.0082,0.0017,9.8066,0.0373,-0.006,-0.0164,-20.87,-29.56,4.56,89.1,-83.8,-22.97
5990,52.39885,-1.241562,183.22,5.64,4,96.72,18 / 20,1075408,2019-09-04 20:24:27:521,-0.402,-0.6008,9.0582,0.0137,-0.0095,9.8066,0.0376,-0.0076,0.0098,-19.81,-29.69,4.31,86.28,-84.08,-23.8
5991,52.39885,-1.241562,183.22,5.64,4,96.72,18 / 20,1075507,2019-09-04 20:24:27:620,-0.5394,0.0284,9.3359,0.0034,0.0078,9.8066,-0.0284,0.0054,-0.0301,-20.81,-30.0,4.38,85.6,-84.18,-23.41
5992,52.39885,-1.241562,183.22,5.64,4,96.72,18 / 20,1075608,2019-09-04 20:24:27:721,-0.0244,-0.3493,10.6305,-0.0189,0.0021,9.8066,-0.057,-0.0084,0.0034,-20.37,-29.75,4.13,87.73,-84.05,-22.4
5993,52.39885,-1.241562,183.22,5.64,4,96.72,18 / 20,1075707,2019-09-04 20:24:27:820,-0.0533,0.0916,10.2091,-0.0136,0.0028,9.8066,-0.0235,-0.0152,-0.017,-19.94,-29.5,4.38,88.5,-83.75,-21.78
5994,52.39885,-1.241562,183.22,5.64,4,96.72,18 / 20,1075808,2019-09-04 20:24:27:921,-0.7488,0.5011,9.1992,0.0098,0.0074,9.8066,0.0121,-0.0125,-0.0327,-20.06,-29.56,3.56,89.7,-83.73,-20.91
5995,52.39885,-1.241562,183.22,5.64,4,96.72,18 / 20,1075908,2019-09-04 20:24:28:021,-0.6886,-0.2801,10.3543,0.0072,-0.0119,9.8066,0.02,-0.0056,-0.0183,-19.75,-29.31,4.19,89.0,-83.9,-21.06
5996,52.39885,-1.241562,183.22,5.64,4,96.72,18 / 20,1076008,2019-09-04 20:24:28:121,-0.3137,0.254,10.3872,0.0117,0.0023,9.8066,0.0196,-0.017,-0.0171,-20.06,-29.69,4.44,89.36,-84.1,-20.7
5997,52.39885,-1.241562,183.22,5.64,4,96.72,18 / 20,1076108,2019-09-04 20:24:28:221,-0.0265,-0.5817,9.4287,0.0055,-0.0042,9.8066,0.0079,-0.0157,-0.0075,-19.56,-29.31,4.63,91.31,-84.2,-20.93
5998,52.39885,-1.241562,183.22,5.64,4,96.72,18 / 20,1076207,2019-09-04 20:24:28:320,0.7252,0.4245,9.217,0.0101,0.0162,9.8066,0.0086,-0.0137,-0.0435,-19.94,-29.87,4.56,92.02,-84.29,-20.36
5999,52.39885,-1.241562,183.22,5.64,4,96.72,18 / 20,1076308,2019-09-04 20:24:28:421,0.5012,0.6136,9.8961,-0.0024,0.0018,9.8066,-0.032,-0.0184,0.0482,-20.37,-30.12,3.81,90.66,-84.37,-18.98
6000,52.39885,-1.241562,183.22,5.64,4,96.72,18 / 20,1076408,2019-09-04 20:24:28:521,1.5086,-0.5793,10.7669,-0.0225,-0.0115,9.8066,-0.055,-0.0176,0.05,-20.0,-30.19,4.06,89.86,-84.15,-20.12
6001,52.39885,-1.241562,183.22,5.64,4,96.72,18 / 20,1076507,2019-09-04 20:24:28:620,-0.3427,0.5525,9.3483,-0.0189,-0.0006,9.8066,-0.0517,-0.015,0.0054,-20.62,-29.69,4.0,88.28,-83.74,-21.36
6002,52.39885,-1.241562,183.22,5.64,4,96.72,18 / 20,1076607,2019-09-04 20:24:28:720,0.2744,-0.5398,9.2879,-0.0103,-0.0006,9.8065,-0.0183,-0.0156,0.0058,-19.94,-29.81,4.38,89.75,-83.49,-21.22
6003,52.39885,-1.241562,183.22,5.64,4,96.72,18 / 20,1076707,2019-09-04 20:24:28:820,-0.0361,-0.136,9.7309,-0.011,-0.0029,9.8066,-0.0014,0.0013,0.0005,-20.69,-30.37,4.13,88.64,-83.33,-21.6
6004,52.39885,-1.241562,183.22,5.64,4,96.72,18 / 20,1076807,2019-09-04 20:24:28:920,1.1079,0.5164,9.408,0.0003,-0.0129,9.8066,0.0087,-0.0018,0.0359,-20.31,-30.0,4.13,89.31,-83.35,-21.87
6005,52.39885,-1.241562,183.22,5.64,4,96.72,18 / 20,1076908,2019-09-04 20:24:29:021,-0.2757,1.0319,9.6031,-0.001,0.0025,9.8066,-0.0041,0.0215,-0.0194,-20.62,-29.69,3.81,87.26,-83.34,-22.96
6006,52.39885,-1.241562,183.22,5.64,4,96.72,18 / 20,1077008,2019-09-04 20:24:29:121,0.1977,-0.026,9.8109,0.0014,0.006,9.8066,0.0074,0.015,-0.0097,-20.62,-29.44,4.19,87.75,-83.39,-22.09
6007,52.39885,-1.241562,183.22,5.64,4,96.72,18 / 20,1077107,2019-09-04 20:24:29:220,-0.4848,0.3015,9.7481,0.0031,0.0082,9.8066,0.0008,0.0358,-0.005,-20.0,-29.81,3.69,90.1,-83.43,-20.96
6008,52.39885,-1.241562,183.22,5.64,4,96.72,18 / 20,1077208,2019-09-04 20:24:29:321,0.3519,1.5502,9.7105,0.0079,0.0102,9.8066,0.0094,0.0441,-0.0297,-20.69,-29.75,3.5,90.07,-83.53,-19.88
6009,52.39885,-1.241562,183.22,5.64,4,96.72,18 / 20,1077308,2019-09-04 20:24:29:421,0.4315,-0.0565,9.3208,0.003,-0.0059,9.8066,0.0017,0.0193,-0.0108,-19.81,-29.94,4.31,90.89,-83.61,-19.9
6010,52.39885,-1.241562,183.22,5.64,4,96.72,17 / 19,1077408,2019-09-04 20:24:29:521,0.0477,1.1378,9.8588,0.0089,0.0066,9.8065,0.014,0.0299,-0.0173,-21.12,-29.56,4.19,90.23,-83.63,-19.57
6011,52.39885,-1.241562,183.22,5.64,4,96.72,17 / 19,1077508,2019-09-04 20:24:29:621,0.7818,0.693,9.6845,0.0048,-0.0179,9.8066,-0.0062,0.0197,0.0288,-20.12,-29.69,3.56,89.98,-83.74,-20.61
6012,52.39885,-1.241562,183.22,5.64,4,96.72,17 / 19,1077607,2019-09-04 20:24:29:720,-0.1228,0.3115,9.302,-0.0077,-0.0075,9.8066,-0.0109,0.0219,0.0301,-21.06,-30.25,3.94,87.93,-83.68,-21.79
6013,52.39885,-1.241562,183.22,5.64,4,96.72,17 / 19,1077709,2019-09-04 20:24:29:822,-0.1715,0.5254,10.0544,-0.0078,0.0028,9.8066,-0.0219,0.0193,0.0159,-20.75,-29.25,4.25,87.19,-83.57,-22.4
6014,52.39885,-1.241562,183.22,5.64,4,96.72,17 / 19,1077808,2019-09-04 20:24:29:921,0.5667,0.5747,10.5064,-0.0118,-0.0032,9.8066,-0.0295,0.0189,0.013,-21.06,-28.87,3.81,86.53,-83.35,-23.36
6015,52.39885,-1.241562,183.22,5.64,4,96.72,17 / 19,1077907,2019-09-04 20:24:30:020,-0.1627,-0.0613,9.768,-0.0001,-0.0072,9.8066,0.0022,0.0134,0.0313,-21.19,-28.37,3.0,83.36,-83.31,-23.65
6016,52.39885,-1.241562,183.22,5.64,4,96.72,17 / 19,1078007,2019-09-04 20:24:30:120,0.5615,-0.1505,9.9757,0.0011,-0.0123,9.8065,0.0111,0.0164,0.0319,-20.19,-28.0,2.56,83.0,-83.27,-24.9
6017,52.39885,-1.241562,183.22,5.64,4,96.72,17 / 19,1078108,2019-09-04 20:24:30:221,-0.9911,0.6426,9.6589,0.0017,0.0008,9.8066,0.0072,-0.0083,0.0067,-20.06,-28.94,3.0,82.54,-83.29,-25.67
6018,52.39885,-1.241562,183.22,5.64,4,96.72,17 / 19,1078208,2019-09-04 20:24:30:321,-0.1256,-0.0158,9.8166,-0.0008,-0.0028,9.8066,0.0066,-0.0057,0.024,-19.94,-29.25,3.0,82.42,-83.28,-25.8
6019,52.39885,-1.241562,183.22,5.64,4,96.72,17 / 19,1078309,2019-09-04 20:24:30:422,0.4015,1.3676,9.6882,0.0038,-0.0486,9.8065,0.0196,-0.0132,0.0156,-21.0,-29.37,3.5,81.74,-83.26,-28.23
6020,52.39885,-1.241562,183.22,5.64,4,96.72,17 / 19,1078407,2019-09-04 20:24:30:520,0.46,0.0334,9.6912,0.0075,-0.0095,9.8065,0.0294,-0.0048,0.0123,-21.12,-29.37,3.88,79.87,-83.34,-29.96
6021,52.39885,-1.241562,183.22,5.64,4,96.72,17 / 19,1078508,2019-09-04 20:24:30:621,-0.577,0.2408,9.8342,0.0036,-0.0044,9.8065,-0.0204,-0.008,-0.0072,-20.94,-29.06,3.81,78.93,-83.37,-30.83
6022,52.39885,-1.241562,183.22,5.64,4,96.72,17 / 19,1078607,2019-09-04 20:24:30:720,0.2954,0.8308,9.8443,-0.0071,0.0038,9.8066,-0.0184,-0.0093,-0.0052,-21.06,-29.25,3.63,79.14,-83.33,-30.68
6023,52.39885,-1.241562,183.22,5.64,4,96.72,17 / 19,1078708,2019-09-04 20:24:30:821,-0.408,-0.0203,9.7779,-0.0025,0.001,9.8066,0.0013,-0.0064,-0.0093,-20.31,-29.37,3.06,77.66,-83.25,-30.49
6024,52.39885,-1.241562,183.22,5.64,4,96.72,17 / 19,1078808,2019-09-04 20:24:30:921,-0.324,1.1974,9.6322,0.0046,0.0002,9.8066,0.0194,0.0135,-0.0073,-21.25,-29.94,4.13,79.83,-83.23,-30.46
6025,52.39885,-1.241562,183.22,5.64,4,96.72,17 / 19,1078907,2019-09-04 20:24:31:020,0.1462,0.5812,9.6835,0.0047,-0.0004,9.8066,-0.006,0.0134,0.0148,-21.12,-29.56,3.31,77.03,-83.33,-30.45
6026,52.39885,-1.241562,183.22,5.64,4,96.72,17 / 19,1079008,2019-09-04 20:24:31:121,0.3072,0.3126,10.3086,-0.0001,0.0062,9.8066,0.003,0.0284,-0.0166,-21.31,-29.87,3.06,77.05,-83.32,-30.45
6027,52.39885,-1.241562,183.22,5.64,4,96.72,17 / 19,1079107,2019-09-04 20:24:31:220,-0.2337,0.3879,9.8613,0.0004,0.0003,9.8066,0.0112,0.0621,0.0137,-21.25,-29.37,3.44,77.11,-83.33,-30.06
6028,52.39885,-1.241562,183.22,5.64,4,96.72,17 / 19,1079208,2019-09-04 20:24:31:321,0.5431,1.3901,9.8134,0.0057,-0.0022,9.8066,0.0126,0.0931,0.0143,-20.94,-29.31,3.38,76.9,-83.37,-30.21
6029,52.39885,-1.241562,183.22,5.64,4,96.72,17 / 19,1079308,2019-09-04 20:24:31:421,-0.6041,1.0618,9.6965,0.014,0.0099,9.8066,0.037,0.079,-0.0279,-21.44,-29.44,3.13,76.58,-83.55,-30.28
6030,52.39885,-1.241562,183.22,5.64,4,96.72,17 / 19,1079408,2019-09-04 20:24:31:521,0.8028,0.2988,9.0669,0.002,-0.0017,9.8066,0.0105,0.1062,0.0182,-20.12,-29.75,3.44,78.02,-83.74,-29.74
6031,52.39885,-1.241562,183.22,5.64,4,96.72,17 / 19,1079508,2019-09-04 20:24:31:621,0.2374,1.5952,9.499,-0.0064,0.0122,9.8066,-0.0253,0.141,0.0065,-21.31,-29.12,3.06,78.04,-83.7,-28.65
6032,52.39885,-1.241562,183.22,5.64,4,96.72,17 / 19,1079607,2019-09-04 20:24:31:720,0.6478,1.9664,10.4175,-0.0055,0.01,9.8066,-0.0172,0.1577,-0.0074,-21.0,-29.19,2.69,79.15,-83.59,-27.72
6033,52.39885,-1.241562,183.22,5.64,4,96.72,17 / 19,1079708,2019-09-04 20:24:31:821,0.4383,2.2094,10.1611,-0.005,0.017,9.8066,0.0188,0.1752,-0.0144,-20.81,-29.12,2.44,78.73,-83.53,-25.57
6034,52.39885,-1.241562,183.22,5.64,4,96.72,17 / 19,1079807,2019-09-04 20:24:31:920,0.3287,2.0195,9.4611,0.013,0.0063,9.8066,0.0446,0.1912,-0.0037,-20.25,-29.37,1.5,80.23,-83.66,-24.63
6035,52.39885,-1.241562,183.22,5.64,4,96.72,17 / 19,1079908,2019-09-04 20:24:32:021,0.2443,1.5781,9.5959,0.0042,0.0035,9.8066,-0.0055,0.2212,-0.0295,-19.5,-29.25,1.44,78.26,-83.83,-24.11
6036,52.39885,-1.241562,183.22,5.64,4,96.72,17 / 19,1080008,2019-09-04 20:24:32:121,0.6944,2.8032,10.4263,-0.0029,0.0241,9.8065,-0.0194,0.2452,-0.0335,-20.5,-29.37,0.88,81.12,-83.87,-20.63
6037,52.39885,-1.241562,183.22,5.64,4,96.72,17 / 19,1080108,2019-09-04 20:24:32:221,0.0196,1.5093,9.7206,-0.0006,0.007,9.8066,0.0105,0.2037,-0.0119,-19.0,-28.37,1.0,82.55,-83.88,-19.51
6038,52.39885,-1.241562,183.22,5.64,4,96.72,17 / 19,1080208,2019-09-04 20:24:32:321,0.4779,2.5262,9.8981,0.0103,0.0103,9.8066,0.0254,0.2379,-0.0041,-19.44,-28.56,0.25,80.85,-83.95,-18.39
6039,52.39885,-1.241562,183.22,5.64,4,96.72,17 / 19,1080308,2019-09-04 20:24:32:421,0.4442,3.2266,9.4436,0.0124,0.0068,9.8066,0.0455,0.2554,0.0337,-19.75,-28.69,0.0,81.06,-84.15,-17.42
6040,52.39882,-1.240556,182.43,7.6,3,81.04,17 / 19,1080407,2019-09-04 20:24:32:520,0.0663,1.8207,8.9413,-0.002,-0.0077,9.8066,-0.0297,0.2551,-0.0053,-19.12,-28.62,-0.06,80.57,-84.27,-18.17
6041,52.39882,-1.240556,182.43,7.6,3,81.04,17 / 19,1080508,2019-09-04 20:24:32:621,-0.4111,2.5373,9.6796,-0.0224,0.0295,9.8065,-0.0779,0.2711,-0.0116,-19.25,-28.94,-0.56,80.4,-84.08,-15.6
6042,52.39882,-1.240556,182.43,7.6,3,81.04,17 / 19,1080608,2019-09-04 20:24:32:721,-0.0641,2.0452,10.067,-0.0269,-0.0131,9.8066,-0.0547,0.2257,0.0458,-19.19,-28.19,-0.81,81.23,-83.58,-15.23
6043,52.39882,-1.240556,182.43,7.6,3,81.04,17 / 19,1080708,2019-09-04 20:24:32:821,0.0414,1.1617,9.9784,-0.0132,-0.0023,9.8066,-0.0039,0.2224,0.0396,-19.62,-28.12,-1.5,81.19,-83.37,-15.24
6044,52.39882,-1.240556,182.43,7.6,3,81.04,17 / 19,1080808,2019-09-04 20:24:32:921,-0.4862,1.2395,9.2625,0.0146,0.0064,9.8066,0.0344,0.2187,0.0015,-19.37,-28.56,-2.81,75.07,-83.36,-15.81
6045,52.39882,-1.240556,182.43,7.6,3,81.04,17 / 19,1080907,2019-09-04 20:24:33:020,-0.1125,1.3299,9.1815,0.0046,-0.0056,9.8066,-0.0014,0.203,0.055,-19.06,-28.31,-2.62,74.3,-83.54,-15.95
6046,52.39882,-1.240556,182.43,7.6,3,81.04,17 / 19,1081008,2019-09-04 20:24:33:121,-0.3812,0.9092,9.4542,-0.0082,-0.0079,9.8066,-0.0206,0.2041,0.0425,-19.19,-27.87,-4.06,70.67,-83.49,-16.49
6047,52.39882,-1.240556,182.43,7.6,3,81.04,17 / 19,1081107,2019-09-04 20:24:33:220,0.671,1.9711,10.3404,-0.0037,-0.0029,9.8066,-0.0092,0.1711,0.0409,-18.69,-28.06,-4.12,70.37,-83.34,-16.98
6048,52.39882,-1.240556,182.43,7.6,3,81.04,17 / 19,1081208,2019-09-04 20:24:33:321,0.3103,0.703,9.9813,0.0062,-0.0155,9.8066,0.0166,0.1304,0.0358,-19.0,-28.75,-4.25,68.59,-83.31,-19.04
6049,52.39882,-1.240556,182.43,7.6,3,81.04,17 / 19,1081307,2019-09-04 20:24:33:420,0.5791,1.2166,9.0827,0.0072,-0.0057,9.8066,0.0103,0.1232,0.0366,-18.94,-28.69,-4.37,68.06,-83.32,-19.52
6050,52.39882,-1.240556,182.43,7.6,3,81.04,16 / 18,1081408,2019-09-04 20:24:33:521,0.0449,0.6813,9.5158,-0.0017,-0.0151,9.8066,-0.0269,0.1213,0.056,-19.5,-28.12,-4.12,65.46,-83.27,-21.69
6051,52.39882,-1.240556,182.43,7.6,3,81.04,16 / 18,1081507,2019-09-04 20:24:33:620,-0.7051,0.2733,9.7715,-0.0044,-0.019,9.8066,-0.023,0.0812,0.0404,-19.12,-28.31,-4.62,61.37,-83.06,-22.81
6052,52.39882,-1.240556,182.43,7.6,3,81.04,16 / 18,1081608,2019-09-04 20:24:33:721,-0.5794,0.5296,9.6873,-0.004,-0.0075,9.8066,0.0098,0.0728,0.0232,-19.5,-28.06,-4.62,60.34,-82.87,-24.0
6053,52.39882,-1.240556,182.43,7.6,3,81.04,16 / 18,1081708,2019-09-04 20:24:33:821,-0.2706,0.4241,9.5895,0.0122,-0.0064,9.8066,0.0326,0.0605,0.0317,-20.12,-27.69,-5.44,59.66,-82.92,-24.85
6054,52.39882,-1.240556,182.43,7.6,3,81.04,16 / 18,1081808,2019-09-04 20:24:33:921,0.5288,0.5706,9.5858,0.0125,-0.0028,9.8066,0.0213,0.0429,0.0164,-19.12,-27.87,-5.31,57.34,-83.07,-26.48
6055,52.39882,-1.240556,182.43,7.6,3,81.04,16 / 18,1081908,2019-09-04 20:24:34:021,0.5888,0.6668,9.5877,-0.0127,-0.0009,9.8066,-0.0424,0.0419,0.0087,-20.12,-28.56,-5.19,58.33,-83.0,-26.26
6056,52.39882,-1.240556,182.43,7.6,3,81.04,16 / 18,1082007,2019-09-04 20:24:34:120,-0.3314,0.3614,9.7407,-0.0205,-0.0058,9.8065,-0.0632,0.0387,-0.0054,-20.06,-28.19,-5.94,55.81,-82.79,-25.74
6057,52.39882,-1.240556,182.43,7.6,3,81.04,16 / 18,1082108,2019-09-04 20:24:34:221,-0.3355,0.0823,9.9129,-0.0123,0.0012,9.8066,-0.0212,0.0328,-0.0101,-20.06,-28.12,-5.12,60.04,-82.6,-24.9
6058,52.39882,-1.240556,182.43,7.6,3,81.04,16 / 18,1082208,2019-09-04 20:24:34:321,0.2459,0.6462,9.8905,0.0032,0.0073,9.8066,0.0294,0.0309,-0.0116,-19.5,-27.94,-6.12,57.57,-82.56,-24.01
6059,52.39882,-1.240556,182.43,7.6,3,81.04,16 / 18,1082307,2019-09-04 20:24:34:420,0.7125,0.1142,9.5953,0.0136,0.0038,9.8066,0.0213,0.0374,-0.0094,-19.62,-27.56,-5.87,57.75,-82.71,-24.08
6060,52.39882,-1.240556,182.43,7.6,3,81.04,17 / 19,1082407,2019-09-04 20:24:34:520,0.1453,0.2439,9.8275,0.0084,0.0051,9.8066,0.0215,0.0166,-0.0053,-19.06,-28.31,-5.62,56.92,-82.92,-24.15
6061,52.39882,-1.240556,182.43,7.6,3,81.04,17 / 19,1082508,2019-09-04 20:24:34:621,0.7482,0.334,10.0553,0.0028,-0.0057,9.8066,-0.007,0.0151,0.0131,-19.56,-27.75,-5.69,56.75,-82.99,-24.65
6062,52.39882,-1.240556,182.43,7.6,3,81.04,17 / 19,1082607,2019-09-04 20:24:34:720,0.3145,0.0364,9.7738,-0.0007,-0.0001,9.8066,0.0039,0.0327,-0.0025,-19.69,-28.37,-5.31,59.42,-82.97,-25.0
6063,52.39882,-1.240556,182.43,7.6,3,81.04,17 / 19,1082710,2019-09-04 20:24:34:823,-0.339,0.6035,9.9455,-0.0015,0.0025,9.8066,-0.0009,0.0239,-0.0002,-19.44,-28.56,-5.06,59.83,-83.04,-24.56
6064,52.39882,-1.240556,182.43,7.6,3,81.04,17 / 19,1082811,2019-09-04 20:24:34:924,-0.1764,-0.0828,9.7902,-0.0001,0.0048,9.8066,0.0017,0.0096,-0.0143,-20.06,-28.37,-5.06,59.94,-83.03,-24.46
6065,52.39882,-1.240556,182.43,7.6,3,81.04,17 / 19,1082908,2019-09-04 20:24:35:021,0.3147,0.1389,9.9562,0.0034,0.0086,9.8065,0.0044,0.0128,-0.0119,-19.37,-29.06,-5.81,57.39,-83.13,-23.74
6066,52.39882,-1.240556,182.43,7.6,3,81.04,17 / 19,1083008,2019-09-04 20:24:35:121,0.1244,0.2256,9.5831,0.0045,0.0044,9.8066,0.0078,-0.0024,-0.0128,-19.5,-28.12,-4.75,60.5,-83.19,-23.44
6067,52.39882,-1.240556,182.43,7.6,3,81.04,17 / 19,1083107,2019-09-04 20:24:35:220,-0.2063,-0.1636,9.99,-0.0014,0.0033,9.8066,-0.0021,-0.0002,-0.021,-19.75,-28.81,-5.62,58.57,-83.24,-22.97
6068,52.39882,-1.240556,182.43,7.6,3,81.04,17 / 19,1083207,2019-09-04 20:24:35:320,0.2626,0.0167,10.4094,0.0051,0.0109,9.8066,0.0217,-0.0156,-0.0322,-19.5,-28.5,-5.31,61.72,-83.29,-22.18
6069,52.39882,-1.240556,182.43,7.6,3,81.04,17 / 18,1083307,2019-09-04 20:24:35:420,0.4118,0.051,9.5622,0.0047,0.0141,9.8066,0.0102,-0.0042,-0.0102,-19.25,-28.87,-5.0,63.3,-83.48,-20.77
6070,52.39882,-1.240556,182.43,7.6,3,81.04,17 / 18,1083407,2019-09-04 20:24:35:520,0.2789,0.1442,9.8043,-0.0002,0.0089,9.8066,-0.0044,-0.0133,-0.0271,-18.87,-28.12,-5.69,60.43,-83.58,-20.1
6071,52.39882,-1.240556,182.43,7.6,3,81.04,17 / 18,1083508,2019-09-04 20:24:35:621,0.3402,-0.3029,10.4101,-0.0014,0.0,9.8066,-0.0273,-0.0305,-0.0059,-19.44,-29.12,-5.06,64.37,-83.56,-19.66
6072,52.39882,-1.240556,182.43,7.6,3,81.04,17 / 18,1083608,2019-09-04 20:24:35:721,-0.1248,0.0285,9.5607,-0.0094,0.0085,9.8066,-0.0225,-0.0291,-0.0174,-18.87,-28.62,-5.62,62.19,-83.51,-18.84
6073,52.39882,-1.240556,182.43,7.6,3,81.04,17 / 18,1083708,2019-09-04 20:24:35:821,-0.2623,-0.3308,9.3872,-0.0089,-0.0017,9.8066,-0.0224,-0.0471,-0.0189,-20.0,-28.44,-4.87,66.11,-83.39,-18.26
6074,52.39882,-1.240556,182.43,7.6,3,81.04,17 / 18,1083808,2019-09-04 20:24:35:921,0.1805,-0.2905,9.8711,-0.0104,-0.0073,9.8065,-0.0224,-0.0466,0.0135,-19.12,-28.75,-5.81,63.71,-83.32,-17.7
6075,52.39882,-1.240556,182.43,7.6,3,81.04,17 / 18,1083907,2019-09-04 20:24:36:020,-0.7078,-0.5941,9.6138,-0.0079,0.0016,9.8066,-0.007,-0.0589,-0.0091,-18.94,-27.62,-5.69,63.79,-83.17,-17.51
6076,52.39882,-1.240556,182.43,7.6,3,81.04,17 / 18,1084007,2019-09-04 20:24:36:120,-0.3101,-0.4111,9.9009,0.0052,-0.0049,9.8066,0.0121,-0.0723,0.0121,-19.12,-28.0,-5.5,66.54,-83.17,-17.86
6077,52.39882,-1.240556,182.43,7.6,3,81.04,17 / 18,1084108,2019-09-04 20:24:36:221,-0.4558,-1.0072,9.7125,0.0088,-0.008,9.8066,0.0269,-0.0667,0.0002,-19.19,-27.37,-6.0,61.75,-83.23,-19.02
6078,52.39882,-1.240556,182.43,7.6,3,81.04,17 / 18,1084209,2019-09-04 20:24:36:322,0.8251,-0.3014,10.4733,0.008,0.0059,9.8066,0.0151,-0.0922,-0.0168,-20.25,-26.56,-5.62,61.69,-83.34,-19.4
6079,52.39882,-1.240556,182.43,7.6,3,81.04,17 / 18,1084308,2019-09-04 20:24:36:421,-0.138,-0.7146,9.655,0.0071,-0.0029,9.8066,0.001,-0.0897,-0.0099,-20.44,-27.0,-5.44,64.1,-83.47,-19.76
6080,52.39882,-1.240556,182.43,7.6,3,81.04,17 / 18,1084407,2019-09-04 20:24:36:520,-0.0599,-0.9894,10.3998,0.0002,-0.0061,9.8066,-0.0094,-0.0922,0.0098,-22.0,-27.69,-5.0,64.78,-83.5,-19.9
6081,52.39882,-1.240556,182.43,7.6,3,81.04,17 / 18,1084507,2019-09-04 20:24:36:620,-0.5403,-0.6741,9.9582,0.0022,-0.0039,9.8065,-0.0011,-0.1077,0.0121,-21.56,-28.56,-4.81,64.23,-83.47,-20.72
6082,52.39882,-1.240556,182.43,7.6,3,81.04,17 / 18,1084608,2019-09-04 20:24:36:721,-0.5878,-1.0072,9.5227,0.0051,0.0019,9.8066,0.0064,-0.1115,-0.0188,-22.06,-28.31,-3.5,68.57,-83.5,-21.46
6083,52.39882,-1.240556,182.43,7.6,3,81.04,17 / 18,1084707,2019-09-04 20:24:36:820,-0.7931,-1.1769,9.344,0.004,-0.0099,9.8065,-0.0102,-0.1132,0.0123,-21.69,-29.37,-2.62,67.94,-83.54,-22.3
6084,52.39882,-1.240556,182.43,7.6,3,81.04,17 / 18,1084808,2019-09-04 20:24:36:921,-0.5239,-0.7761,10.3169,-0.0056,-0.0059,9.8066,-0.019,-0.1446,0.0024,-21.25,-29.44,-2.31,70.01,-83.5,-23.13
6085,52.39882,-1.240556,182.43,7.6,3,81.04,17 / 18,1084907,2019-09-04 20:24:37:020,-1.0584,-1.1499,10.0811,-0.0118,-0.0049,9.8066,-0.0396,-0.1514,0.0261,-21.25,-28.37,-2.81,66.75,-83.31,-23.43
6086,52.39882,-1.240556,182.43,7.6,3,81.04,17 / 18,1085007,2019-09-04 20:24:37:120,-1.6274,-0.6891,10.4815,-0.0013,-0.018,9.8066,-0.0034,-0.1604,0.0227,-20.94,-28.25,-2.31,68.5,-83.16,-24.71
6087,52.39882,-1.240556,182.43,7.6,3,81.04,17 / 18,1085108,2019-09-04 20:24:37:221,-0.3884,-1.7991,10.3602,0.0092,-0.0075,9.8066,0.0151,-0.1679,-0.019,-21.31,-27.06,-2.31,65.95,-83.15,-26.83
6088,52.39882,-1.240556,182.43,7.6,3,81.04,17 / 18,1085207,2019-09-04 20:24:37:320,-1.238,-1.3018,9.2952,0.01,0.0138,9.8066,0.0155,-0.1694,-0.0597,-21.25,-28.31,-1.69,66.0,-83.38,-26.78
6089,52.39882,-1.240556,182.43,7.6,3,81.04,16 / 18,1085308,2019-09-04 20:24:37:421,-1.2831,-0.8136,9.7947,0.0061,0.0166,9.8066,-0.0058,-0.1682,-0.055,-20.12,-28.75,-1.69,67.45,-83.52,-25.67
6090,52.39882,-1.240556,182.43,7.6,3,81.04,16 / 18,1085407,2019-09-04 20:24:37:520,-1.1382,-0.5904,10.3824,-0.0002,0.0042,9.8066,-0.0075,-0.1651,-0.0247,-20.56,-29.0,-1.19,71.35,-83.59,-24.47
6091,52.39882,-1.240556,182.43,7.6,3,81.04,16 / 18,1085508,2019-09-04 20:24:37:621,-1.1325,-0.8064,9.9303,0.0027,-0.008,9.8066,0.0035,-0.1571,0.004,-20.31,-29.19,-1.31,71.3,-83.62,-24.76
6092,52.39882,-1.240556,182.43,7.6,3,81.04,16 / 18,1085608,2019-09-04 20:24:37:721,-1.0402,-0.9489,9.8232,0.0039,0.002,9.8066,0.006,-0.155,-0.0275,-20.94,-28.69,-0.44,72.95,-83.66,-25.58
6093,52.39882,-1.240556,182.43,7.6,3,81.04,16 / 18,1085707,2019-09-04 20:24:37:820,-0.9899,-0.9137,9.5417,0.0032,0.0083,9.8066,-0.0113,-0.1445,-0.0378,-21.0,-28.75,-1.0,70.88,-83.73,-24.73
6094,52.39882,-1.240556,182.43,7.6,3,81.04,16 / 18,1085807,2019-09-04 20:24:37:920,-0.8756,-0.6093,9.8142,-0.0032,0.0052,9.8066,-0.0145,-0.1368,-0.0209,-20.5,-28.87,-0.06,74.98,-83.74,-23.95
6095,52.39882,-1.240556,182.43,7.6,3,81.04,16 / 18,1085907,2019-09-04 20:24:38:020,-1.0226,-0.6218,9.9854,-0.0071,0.0002,9.8066,-0.0131,-0.1288,-0.0101,-21.25,-29.06,0.25,75.31,-83.67,-23.3
6096,52.39882,-1.240556,182.43,7.6,3,81.04,16 / 18,1086008,2019-09-04 20:24:38:121,-1.0448,-0.2608,9.5224,-0.0003,0.0029,9.8066,-0.0049,-0.1159,-0.0242,-20.81,-28.75,-0.06,75.3,-83.63,-23.36
6097,52.39882,-1.240556,182.43,7.6,3,81.04,16 / 18,1086108,2019-09-04 20:24:38:221,-1.1291,-0.3555,9.8576,-0.0024,-0.0039,9.8065,-0.0153,-0.1142,-0.0062,-20.87,-29.06,-0.31,75.27,-83.62,-23.4
6098,52.39882,-1.240556,182.43,7.6,3,81.04,16 / 18,1086207,2019-09-04 20:24:38:320,-1.2111,-0.2416,9.922,-0.0039,0.0026,9.8066,-0.0122,-0.1128,-0.0186,-21.06,-28.75,0.06,75.56,-83.56,-23.21
6099,52.39882,-1.240556,182.43,7.6,3,81.04,16 / 18,1086308,2019-09-04 20:24:38:421,-1.186,-0.1061,10.0375,0.0008,0.0039,9.8066,0.0036,-0.0865,-0.0138,-21.0,-29.37,0.25,75.99,-83.57,-22.78
6100,52.39882,-1.240556,182.43,7.6,3,81.04,15 / 18,1086408,2019-09-04 20:24:38:521,-1.2204,0.047,9.9915,0.0021,0.0036,9.8066,0.0043,-0.078,-0.0221,-20.5,-28.81,0.94,79.48,-83.59,-22.65
6101,52.39882,-1.240556,182.43,7.6,3,81.04,15 / 18,1086507,2019-09-04 20:24:38:620,-1.3686,0.1663,9.8203,0.0034,0.01,9.8066,0.013,-0.0626,-0.0345,-21.06,-29.12,0.56,79.83,-83.66,-21.63
6102,52.39882,-1.240556,182.43,7.6,3,81.04,15 / 18,1086607,2019-09-04 20:24:38:720,-1.0759,0.4958,9.927,0.0092,0.0074,9.8065,0.0209,-0.0475,-0.0253,-21.06,-29.5,0.69,80.44,-83.78,-20.87
6103,52.39882,-1.240556,182.43,7.6,3,81.04,15 / 18,1086708,2019-09-04 20:24:38:821,-1.2298,0.3552,10.0725,0.0095,0.0033,9.8066,0.0248,-0.0281,-0.0361,-20.62,-29.06,0.88,80.74,-83.95,-20.33
6104,52.39882,-1.240556,182.43,7.6,3,81.04,15 / 18,1086808,2019-09-04 20:24:38:921,-1.4705,0.8029,10.2243,0.0165,0.0208,9.8066,0.0389,-0.0069,-0.0662,-21.12,-29.75,1.19,82.99,-84.21,-18.03
6105,52.39882,-1.240556,182.43,7.6,3,81.04,15 / 18,1086907,2019-09-04 20:24:39:020,-1.2404,0.8199,9.7551,0.0186,0.0161,9.8066,0.0315,0.0104,-0.0379,-20.19,-30.25,0.94,85.26,-84.45,-15.96
6106,52.39882,-1.240556,182.43,7.6,3,81.04,15 / 18,1087007,2019-09-04 20:24:39:120,-0.9311,1.4901,9.4111,0.0052,0.0108,9.8066,0.0084,0.0369,-0.023,-20.06,-29.5,1.31,86.11,-84.61,-14.6
6107,52.39882,-1.240556,182.43,7.6,3,81.04,15 / 18,1087108,2019-09-04 20:24:39:221,-0.8349,1.3447,9.2752,-0.0076,-0.005,9.8066,-0.028,0.059,0.0485,-20.25,-29.69,1.25,86.96,-84.61,-14.03
6108,52.39882,-1.240556,182.43,7.6,3,81.04,15 / 18,1087208,2019-09-04 20:24:39:321,-0.997,0.7045,10.3018,-0.0091,-0.0039,9.8066,-0.0141,0.0728,0.0141,-20.81,-29.62,1.25,85.24,-84.44,-15.47
6109,52.39882,-1.240556,182.43,7.6,3,81.04,15 / 18,1087308,2019-09-04 20:24:39:421,-0.6623,0.5817,10.4758,-0.0041,0.0093,9.8066,-0.004,0.1061,-0.0358,-20.25,-29.62,1.44,86.51,-84.33,-14.9
6110,52.39882,-1.240556,182.43,7.6,3,81.04,16 / 18,1087407,2019-09-04 20:24:39:520,-0.407,1.2328,9.7556,0.0043,0.0162,9.8065,0.0079,0.1308,-0.029,-20.0,-28.87,1.25,88.14,-84.35,-12.97
6111,52.39882,-1.240556,182.43,7.6,3,81.04,16 / 18,1087508,2019-09-04 20:24:39:621,-0.3429,2.0057,9.5,0.0046,0.0212,9.8066,0.0129,0.1617,-0.0286,-20.25,-28.94,0.75,91.35,-84.43,-9.62
6112,52.39882,-1.240556,182.43,7.6,3,81.04,16 / 18,1087608,2019-09-04 20:24:39:721,-0.3508,2.2375,9.7564,0.0052,0.003,9.8066,0.0208,0.1955,0.0101,-20.69,-29.37,0.94,92.41,-84.47,-7.98
6113,52.39882,-1.240556,182.43,7.6,3,81.04,16 / 18,1087708,2019-09-04 20:24:39:821,-0.0978,1.8026,9.656,0.0124,-0.0059,9.8065,0.0345,0.2216,0.0303,-20.19,-29.0,0.94,92.31,-84.63,-8.36
6114,52.39882,-1.240556,182.43,7.6,3,81.04,16 / 18,1087808,2019-09-04 20:24:39:921,0.2747,1.3646,9.9443,0.0086,-0.0061,9.8066,0.0258,0.2638,0.0318,-20.19,-29.25,0.56,90.82,-84.81,-9.6
6115,52.39882,-1.240556,182.43,7.6,3,81.04,16 / 18,1087907,2019-09-04 20:24:40:020,-0.0963,1.8738,9.5914,-0.0004,0.0088,9.8066,-0.0164,0.3104,-0.0155,-19.81,-28.69,0.13,88.53,-84.83,-9.01
6116,52.39882,-1.240556,182.43,7.6,3,81.04,16 / 18,1088008,2019-09-04 20:24:40:121,-0.2876,2.7221,9.9171,-0.0051,0.021,9.8066,-0.0153,0.3383,-0.0208,-20.5,-28.94,0.38,90.93,-84.78,-6.67
6117,52.39882,-1.240556,182.43,7.6,3,81.04,16 / 18,1088109,2019-09-04 20:24:40:222,-0.352,3.333,9.7227,-0.0053,0.0157,9.8066,-0.0221,0.4243,0.0306,-19.94,-28.81,-0.81,91.69,-84.67,-3.2
6118,52.39882,-1.240556,182.43,7.6,3,81.04,16 / 18,1088207,2019-09-04 20:24:40:320,-0.7092,3.7549,9.4946,-0.0102,0.0073,9.8065,-0.0253,0.4304,0.0282,-19.12,-28.44,-1.12,92.89,-84.57,-2.11
6119,52.39882,-1.240556,182.43,7.6,3,81.04,16 / 18,1088308,2019-09-04 20:24:40:421,-1.02,3.472,9.6265,-0.0165,-0.0095,9.8066,-0.0408,0.4661,0.0954,-20.25,-27.69,-1.62,89.57,-84.35,-2.64
6120,52.39882,-1.240556,182.43,7.6,3,81.04,15 / 18,1088407,2019-09-04 20:24:40:520,-1.4906,2.6115,10.3655,-0.0121,-0.0209,9.8065,-0.0188,0.4787,0.1007,-19.87,-27.69,-2.81,84.81,-84.12,-4.85
6121,52.39882,-1.240556,182.43,7.6,3,81.04,15 / 18,1088508,2019-09-04 20:24:40:621,-0.4731,2.0525,9.5121,-0.0047,-0.0108,9.8066,-0.0028,0.5359,0.069,-18.94,-28.69,-4.56,76.64,-83.93,-7.47
6122,52.39882,-1.240556,182.43,7.6,3,81.04,15 / 18,1088607,2019-09-04 20:24:40:720,-0.7406,1.963,9.6418,-0.0151,0.0107,9.8066,-0.0193,0.5437,0.0191,-18.25,-28.44,-6.56,69.76,-83.85,-7.52
6123,52.39882,-1.240556,182.43,7.6,3,81.04,15 / 18,1088708,2019-09-04 20:24:40:821,-1.0537,2.1144,9.8299,-0.0136,0.017,9.8065,-0.0101,0.5342,0.0024,-18.06,-28.0,-6.69,72.98,-83.69,-4.68
6124,52.39882,-1.240556,182.43,7.6,3,81.04,15 / 18,1088808,2019-09-04 20:24:40:921,-1.5843,2.5407,9.8267,-0.0079,0.0118,9.8066,-0.0053,0.5335,0.0267,-17.44,-28.69,-8.31,72.6,-83.61,-1.79
6125,52.39882,-1.240556,182.43,7.6,3,81.04,15 / 18,1088907,2019-09-04 20:24:41:020,-1.5508,2.3843,9.9428,0.0011,0.0009,9.8066,0.0063,0.5328,0.0683,-16.69,-29.0,-9.31,69.92,-83.6,-1.43
6126,52.39882,-1.240556,182.43,7.6,3,81.04,15 / 18,1089007,2019-09-04 20:24:41:120,-1.2997,1.685,9.684,0.0036,-0.0059,9.8066,0.0062,0.5317,0.0767,-16.25,-28.69,-11.06,62.49,-83.6,-1.69
6127,52.39882,-1.240556,182.43,7.6,3,81.04,15 / 18,1089107,2019-09-04 20:24:41:220,-1.068,1.3419,9.8927,0.0022,0.0071,9.8066,0.0184,0.5314,0.0332,-15.31,-28.62,-11.31,60.65,-83.63,-1.96
6128,52.39882,-1.240556,182.43,7.6,3,81.04,15 / 18,1089208,2019-09-04 20:24:41:321,-1.1895,1.1503,9.6131,-0.0024,0.0082,9.8066,0.0131,0.5137,0.0021,-14.06,-28.44,-11.12,60.33,-83.71,-0.3
6129,52.39882,-1.240556,182.43,7.6,3,81.04,15 / 18,1089307,2019-09-04 20:24:41:420,-1.1668,1.2427,9.7751,-0.0113,0.0255,9.8065,0.0009,0.5095,-0.0141,-14.19,-29.0,-12.37,60.28,-83.76,2.17
6130,52.399006,-1.239713,181.03,4.35,4,38.23,15 / 18,1089407,2019-09-04 20:24:41:520,-1.0943,0.7455,10.2571,-0.0187,0.0297,9.8065,0.0085,0.4686,0.0004,-12.69,-28.5,-13.06,58.37,-83.77,5.1
6131,52.399006,-1.239713,181.03,4.35,4,38.23,15 / 18,1089508,2019-09-04 20:24:41:621,-1.2835,0.5085,10.6248,-0.0091,0.0266,9.8065,0.0295,0.4437,-0.0258,-12.12,-28.19,-13.31,61.09,-83.82,9.62
