,GPS LATITUDE (degrees), GPS LONGITUDE (degrees), GPS ALTITUDE (m), GPS SPEED (Kmh), GPS ACCURACY (m), GPS ORIENTATION (Â°),GPS SATELLITES IN RANGE, TIME SINCE START (ms), DATE (YYYY-MO-DD HH-MI-SS_SSS), ACCELEROMETER X (m/s²) , ACCELEROMETER Y (m/s²), ACCELEROMETER Z (m/s²), GRAVITY X (m/s²), GRAVITY Y (m/s²), GRAVITY Z (m/s²), GYROSCOPE Yaw (rad/s), GYROSCOPE Pitch (rad/s), GYROSCOPE Roll (rad/s), MAGNETIC FIELD X (Î¼T), MAGNETIC FIELD Y (Î¼T), MAGNETIC FIELD Z (Î¼T), ORIENTATION (Yaw) (Â°), ORIENTATION (Pitch) (Â°), ORIENTATION (Roll ) (Â°)
0,52.024853,-0.733924,129.85,14.46,3,239.69,17 / 20,5293310,2020-01-08 11:43:59:984,2.1311,-1.2336,10.7365,0.0412,-0.0107,9.8065,0.1151,0.3872,-0.3853,2.69,-33.37,24.94,38.44,-82.24,-155.0
1,52.024853,-0.733924,129.85,14.46,3,239.69,17 / 20,5293411,2020-01-08 11:44:00:085,-2.3611,-1.4869,9.8826,0.0404,-0.0455,9.8064,-0.1452,0.0143,-0.0908,2.63,-33.12,24.94,36.14,-82.36,-156.86
2,52.024853,-0.733924,129.85,14.46,3,239.69,17 / 20,5293511,2020-01-08 11:44:00:185,-0.6974,-0.2799,8.6478,0.016,0.046,9.8065,-0.0948,0.2649,-0.0289,2.75,-33.75,25.06,36.96,-82.31,-156.39
3,52.024853,-0.733924,129.85,14.46,3,239.69,17 / 20,5293611,2020-01-08 11:44:00:285,-0.2336,-0.4261,8.7795,0.0153,0.0039,9.8066,-0.2157,-0.0324,0.0542,3.0,-33.56,25.06,35.79,-82.47,-157.25
4,52.024853,-0.733924,129.85,14.46,3,239.69,17 / 20,5293711,2020-01-08 11:44:00:385,0.2293,-0.4335,9.3232,-0.0026,0.0573,9.8064,-0.1502,0.0841,0.0524,2.25,-33.44,25.19,33.7,-82.61,-156.5
5,52.024853,-0.733924,129.85,14.46,3,239.69,17 / 20,5293811,2020-01-08 11:44:00:485,2.049,-1.8197,9.7896,0.0127,0.027,9.8065,0.0306,-0.3459,0.1873,3.0,-33.75,25.13,34.94,-82.64,-157.83
6,52.024853,-0.733924,129.85,14.46,3,239.69,17 / 20,5293910,2020-01-08 11:44:00:584,0.9898,-1.2489,9.9217,-0.0408,-0.0042,9.8065,-0.0521,-0.2654,0.1419,2.38,-33.37,24.38,30.97,-82.65,-159.19
7,52.024853,-0.733924,129.85,14.46,3,239.69,17 / 20,5294010,2020-01-08 11:44:00:684,2.8558,-1.1546,10.1814,-0.0243,-0.0034,9.8065,-0.0204,-0.1899,0.1616,2.75,-33.62,24.88,33.26,-82.56,-159.32
8,52.024853,-0.733924,129.85,14.46,3,239.69,17 / 20,5294110,2020-01-08 11:44:00:784,-0.4518,1.8852,10.245,-0.0331,-0.0248,9.8065,0.0352,-0.132,0.1403,2.31,-33.69,25.5,28.45,-82.65,-160.71
9,52.024853,-0.733924,129.85,14.46,3,239.69,17 / 20,5294210,2020-01-08 11:44:00:884,2.2809,-0.9294,9.7263,-0.0071,0.0036,9.8066,-0.0334,-0.1258,0.1913,2.63,-33.75,25.69,30.91,-82.45,-160.93
10,52.024853,-0.733924,129.85,14.46,3,239.69,17 / 21,5294311,2020-01-08 11:44:00:985,-0.1868,-1.4695,9.9226,-0.0034,-0.0005,9.8066,-0.0077,-0.066,-0.0987,2.25,-33.44,26.0,28.61,-82.47,-160.56
11,52.024853,-0.733924,129.85,14.46,3,239.69,17 / 21,5294410,2020-01-08 11:44:01:084,0.8172,0.4606,8.8386,0.0039,-0.0155,9.8066,-0.0618,0.0204,-0.019,2.88,-33.44,25.75,31.19,-82.48,-160.52
12,52.024853,-0.733924,129.85,14.46,3,239.69,17 / 21,5294511,2020-01-08 11:44:01:185,-0.4257,0.0923,10.6777,0.0064,0.0048,9.8066,0.1094,-0.0642,0.0456,3.31,-32.62,26.0,30.83,-82.63,-160.73
13,52.024853,-0.733924,129.85,14.46,3,239.69,17 / 21,5294612,2020-01-08 11:44:01:286,1.856,1.5177,8.4497,-0.0048,-0.006,9.8065,0.2013,-0.0393,0.0615,3.13,-33.0,25.25,30.33,-82.72,-161.54
14,52.024853,-0.733924,129.85,14.46,3,239.69,17 / 21,5294711,2020-01-08 11:44:01:385,0.671,-0.3804,10.8315,-0.0087,-0.0441,9.8065,0.0648,-0.0047,-0.0598,3.06,-32.94,25.19,29.45,-82.75,-162.26
15,52.024853,-0.733924,129.85,14.46,3,239.69,17 / 21,5294811,2020-01-08 11:44:01:485,0.9503,0.4264,9.5843,-0.0171,0.0008,9.8066,-0.0113,0.0408,-0.2077,2.94,-33.31,25.44,31.31,-82.8,-160.64
16,52.024853,-0.733924,129.85,14.46,3,239.69,17 / 21,5294910,2020-01-08 11:44:01:584,-1.51,1.5807,9.3687,-0.012,-0.0156,9.8066,0.0528,0.0034,0.2276,3.25,-33.44,25.63,30.88,-82.94,-160.47
17,52.024853,-0.733924,129.85,14.46,3,239.69,17 / 21,5295011,2020-01-08 11:44:01:685,-0.3517,0.3652,10.2516,0.0075,-0.0025,9.8066,0.0665,0.4355,-0.2236,2.5,-32.56,25.44,31.02,-82.97,-160.76
18,52.024853,-0.733924,129.85,14.46,3,239.69,17 / 21,5295111,2020-01-08 11:44:01:785,2.0879,-0.1173,8.3656,0.0595,0.0013,9.8065,-0.1261,-0.1575,0.0233,3.25,-33.44,25.88,31.31,-82.93,-160.1
19,52.024853,-0.733924,129.85,14.46,3,239.69,18 / 20,5295213,2020-01-08 11:44:01:887,2.3855,-0.705,10.8351,-0.084,0.0495,9.8061,-0.127,0.1545,0.235,2.5,-33.44,26.06,35.26,-82.77,-156.81
20,52.024853,-0.733924,129.85,14.46,3,239.69,18 / 20,5295311,2020-01-08 11:44:01:985,0.5623,1.7751,8.8186,-0.0292,0.055,9.8064,-0.313,0.2034,-0.0945,2.25,-33.19,25.63,29.81,-82.97,-159.2
21,52.024853,-0.733924,129.85,14.46,3,239.69,18 / 20,5295410,2020-01-08 11:44:02:084,-1.6076,-0.1123,10.5886,0.0492,0.0411,9.8063,-0.0176,-0.3212,0.0238,3.38,-33.31,25.88,30.18,-82.93,-161.08
22,52.024853,-0.733924,129.85,14.46,3,239.69,18 / 20,5295511,2020-01-08 11:44:02:185,1.1882,0.7716,9.8922,-0.0444,0.0231,9.8065,-0.0806,-0.2887,0.3206,2.44,-33.31,25.63,30.31,-82.7,-158.95
23,52.024853,-0.733924,129.85,14.46,3,239.69,18 / 20,5295610,2020-01-08 11:44:02:284,3.4327,-0.2289,10.3215,-0.0607,0.0251,9.8064,-0.0665,-0.2367,0.4928,1.88,-33.31,26.19,29.4,-82.86,-159.63
24,52.024853,-0.733924,129.85,14.46,3,239.69,18 / 20,5295711,2020-01-08 11:44:02:385,-0.7132,1.4812,8.437,-0.0234,0.0367,9.8065,-0.2053,-0.3368,-0.0472,2.38,-33.44,26.25,28.23,-83.03,-160.51
25,52.024853,-0.733924,129.85,14.46,3,239.69,18 / 20,5295810,2020-01-08 11:44:02:484,0.6087,0.0867,10.4767,-0.0256,0.0342,9.8065,-0.0409,0.0097,-0.2023,2.5,-32.94,25.5,32.28,-82.84,-159.33
26,52.024853,-0.733924,129.85,14.46,3,239.69,18 / 20,5295911,2020-01-08 11:44:02:585,-1.8196,1.3424,9.2343,-0.0282,-0.029,9.8066,0.0582,-0.2576,0.3362,2.38,-33.81,25.75,27.83,-82.92,-161.06
27,52.024853,-0.733924,129.85,14.46,3,239.69,18 / 20,5296011,2020-01-08 11:44:02:685,3.2038,0.2103,9.4114,-0.0352,0.0038,9.8065,0.103,0.0092,-0.0823,2.5,-33.31,26.0,31.01,-82.77,-160.47
28,52.024853,-0.733924,129.85,14.46,3,239.69,18 / 20,5296111,2020-01-08 11:44:02:785,0.0034,0.872,10.4604,-0.0058,-0.0172,9.8065,-0.0017,-0.313,0.2668,2.81,-32.81,25.63,32.25,-82.81,-159.38
29,52.024853,-0.733924,129.85,14.46,3,239.69,19 / 20,5296212,2020-01-08 11:44:02:886,1.5793,-0.1143,10.3872,-0.05,0.0104,9.8065,0.0209,0.3312,-0.0186,1.81,-33.0,26.38,30.94,-82.78,-158.36
30,52.024853,-0.733924,129.85,14.46,3,239.69,19 / 20,5296311,2020-01-08 11:44:02:985,3.2111,-0.5637,9.138,0.0212,-0.0024,9.8066,0.0234,-0.3196,0.3154,2.88,-32.87,26.5,33.16,-82.66,-158.28
31,52.024853,-0.733924,129.85,14.46,3,239.69,19 / 20,5296411,2020-01-08 11:44:03:085,3.8015,-0.1435,9.4847,-0.0173,0.0104,9.8066,0.0227,0.124,0.0205,1.94,-33.44,25.81,33.25,-82.45,-156.62
32,52.024853,-0.733924,129.85,14.46,3,239.69,19 / 20,5296511,2020-01-08 11:44:03:185,-0.1456,0.5162,10.5581,0.0234,0.0056,9.8065,-0.056,-0.2451,0.0682,2.06,-33.44,25.69,32.84,-82.44,-156.98
33,52.024853,-0.733924,129.85,14.46,3,239.69,19 / 20,5296610,2020-01-08 11:44:03:284,-2.3073,0.9904,9.9442,-0.0148,0.0168,9.8066,-0.0395,-0.2004,0.1839,1.63,-33.75,25.81,35.6,-82.39,-154.82
34,52.024853,-0.733924,129.85,14.46,3,239.69,19 / 20,5296711,2020-01-08 11:44:03:385,3.1332,1.2148,10.0525,-0.0531,0.0047,9.8065,0.0781,-0.0995,0.2233,0.81,-33.94,25.94,34.34,-82.33,-153.76
35,52.024853,-0.733924,129.85,14.46,3,239.69,19 / 20,5296811,2020-01-08 11:44:03:485,-0.543,0.475,10.0991,-0.0324,-0.0213,9.8065,0.0591,-0.2207,0.0731,0.38,-33.62,26.0,29.63,-82.23,-155.62
36,52.024853,-0.733924,129.85,14.46,3,239.69,19 / 20,5296910,2020-01-08 11:44:03:584,-1.2695,1.629,10.2013,-0.0043,-0.0078,9.8066,-0.0186,-0.0425,-0.1947,0.69,-33.75,26.44,33.09,-81.93,-155.14
37,52.024853,-0.733924,129.85,14.46,3,239.69,19 / 20,5297012,2020-01-08 11:44:03:686,1.2361,0.6586,8.1455,-0.012,0.0117,9.8066,0.0769,0.1614,-0.1787,0.13,-33.0,25.81,30.58,-81.87,-154.93
38,52.024853,-0.733924,129.85,14.46,3,239.69,19 / 20,5297111,2020-01-08 11:44:03:785,-1.6072,2.1975,10.0966,-0.0301,-0.0006,9.8066,0.0104,-0.0521,-0.2154,0.06,-33.19,26.56,27.96,-82.06,-156.81
39,52.024853,-0.733924,129.85,14.46,3,239.69,20 / 21,5297210,2020-01-08 11:44:03:884,2.8236,0.9534,8.6096,0.0237,0.0153,9.8066,0.0923,-0.252,0.0757,0.19,-32.56,26.25,25.24,-82.29,-159.13
40,52.024853,-0.733924,129.85,14.46,3,239.69,20 / 21,5297311,2020-01-08 11:44:03:985,-3.1671,0.8886,9.6598,0.0877,-0.0142,9.8062,-0.1084,-0.147,0.2494,0.81,-31.87,25.44,25.38,-82.35,-161.3
41,52.024853,-0.733924,129.85,14.46,3,239.69,20 / 21,5297411,2020-01-08 11:44:04:085,-0.4197,1.6791,10.1253,-0.0048,-0.0451,9.8064,-0.0928,0.041,-0.2084,0.94,-34.62,23.63,25.47,-82.16,-162.04
42,52.024853,-0.733924,129.85,14.46,3,239.69,20 / 21,5297510,2020-01-08 11:44:04:184,2.6543,0.0721,10.6432,0.0306,-0.0688,9.8063,-0.1675,-0.3319,0.2771,0.5,-38.62,24.63,21.99,-82.29,-164.98
43,52.024853,-0.733924,129.85,14.46,3,239.69,20 / 21,5297611,2020-01-08 11:44:04:285,-1.0733,1.7367,8.4774,0.033,0.0221,9.8065,0.1337,0.0416,0.1809,1.63,-38.19,30.06,24.93,-82.22,-163.23
44,52.024853,-0.733924,129.85,14.46,3,239.69,20 / 21,5297710,2020-01-08 11:44:04:384,-2.0527,1.5211,8.456,0.0292,-0.0289,9.8066,-0.154,-0.254,0.0923,0.0,-34.19,31.19,20.59,-82.2,-162.59
45,52.024853,-0.733924,129.85,14.46,3,239.69,20 / 21,5297811,2020-01-08 11:44:04:485,2.5148,1.2845,10.5017,-0.009,-0.0031,9.8066,-0.017,0.1642,-0.2403,-1.25,-32.62,30.75,17.83,-82.35,-162.96
46,52.024853,-0.733924,129.85,14.46,3,239.69,20 / 21,5297911,2020-01-08 11:44:04:585,-2.5701,0.8311,10.687,0.0568,-0.004,9.8064,0.034,-0.2386,0.1857,-1.94,-30.56,29.94,12.83,-82.44,-165.19
47,52.024853,-0.733924,129.85,14.46,3,239.69,20 / 21,5298011,2020-01-08 11:44:04:685,-0.4249,1.3333,9.5935,-0.0049,-0.0002,9.8066,0.0967,0.2161,-0.0641,-2.5,-30.94,28.06,12.67,-82.32,-165.21
48,52.024853,-0.733924,129.85,14.46,3,239.69,20 / 21,5298111,2020-01-08 11:44:04:785,-1.1433,1.5764,9.1116,0.0139,-0.0033,9.8065,0.0361,-0.0789,0.0219,-3.0,-31.87,25.88,9.32,-82.15,-165.73
49,52.024853,-0.733924,129.85,14.46,3,239.69,20 / 21,5298211,2020-01-08 11:44:04:885,-0.3746,0.9839,9.873,-0.0431,0.0307,9.8064,0.1062,0.2824,-0.1725,-2.12,-35.37,25.75,14.7,-82.22,-163.67
50,52.024853,-0.733924,129.85,14.46,3,239.69,17 / 20,5298311,2020-01-08 11:44:04:985,3.5357,0.856,10.6419,0.0202,-0.0077,9.8066,0.0429,0.2116,-0.1295,-1.69,-36.75,29.69,14.45,-82.15,-164.27
51,52.024853,-0.733924,129.85,14.46,3,239.69,17 / 20,5298411,2020-01-08 11:44:05:085,-0.4884,0.2999,9.6208,0.0083,-0.0007,9.8066,0.0322,0.1026,-0.1008,-1.44,-33.19,31.69,17.45,-82.13,-163.34
52,52.024853,-0.733924,129.85,14.46,3,239.69,17 / 20,5298510,2020-01-08 11:44:05:184,0.6708,1.2257,9.135,-0.002,0.0055,9.8066,-0.043,0.1305,0.0033,-0.19,-30.87,29.19,21.2,-82.19,-161.99
53,52.024853,-0.733924,129.85,14.46,3,239.69,17 / 20,5298611,2020-01-08 11:44:05:285,0.3055,3.9512,8.8845,0.005,0.0202,9.8066,0.2013,0.0711,-0.0253,-0.12,-31.94,27.88,21.79,-82.3,-161.65
54,52.024853,-0.733924,129.85,14.46,3,239.69,17 / 20,5298711,2020-01-08 11:44:05:385,1.9477,-0.2086,12.2244,0.0492,-0.0739,9.8062,0.238,0.0339,-0.1829,0.31,-31.37,27.25,19.54,-82.04,-163.68
55,52.024853,-0.733924,129.85,14.46,3,239.69,17 / 20,5298811,2020-01-08 11:44:05:485,-0.3103,2.6926,9.0313,0.0077,-0.0443,9.8065,0.2534,-0.1,-0.1945,0.69,-32.62,27.94,22.91,-82.24,-162.88
56,52.024853,-0.733924,129.85,14.46,3,239.69,17 / 20,5298911,2020-01-08 11:44:05:585,-0.7793,1.356,9.9799,0.02,-0.0815,9.8063,0.3437,-0.0602,0.0761,1.06,-32.62,27.94,18.61,-82.16,-166.54
57,52.024853,-0.733924,129.85,14.46,3,239.69,17 / 20,5299011,2020-01-08 11:44:05:685,0.9688,0.5228,8.7424,-0.0018,-0.0503,9.8064,0.0779,0.2931,-0.2323,1.69,-32.5,28.44,20.1,-82.19,-167.21
58,52.024853,-0.733924,129.85,14.46,3,239.69,17 / 20,5299111,2020-01-08 11:44:05:785,2.8617,0.1127,10.3508,0.0406,-0.0172,9.8065,0.0573,-0.031,-0.0126,2.69,-31.75,28.88,20.99,-82.38,-168.08
59,52.024853,-0.733924,129.85,14.46,3,239.69,18 / 19,5299211,2020-01-08 11:44:05:885,-0.1769,1.5725,9.8638,-0.0265,0.0111,9.8066,0.0475,0.2656,-0.1007,2.38,-32.0,28.31,20.9,-82.55,-166.37
60,52.024853,-0.733924,129.85,14.46,3,239.69,18 / 19,5299311,2020-01-08 11:44:05:985,0.6246,0.5193,10.699,0.0098,-0.0034,9.8066,-0.0118,0.0188,0.0255,2.63,-31.62,27.94,22.67,-82.48,-166.91
61,52.024853,-0.733924,129.85,14.46,3,239.69,18 / 19,5299410,2020-01-08 11:44:06:084,-0.9659,0.6285,8.5603,-0.0096,-0.0237,9.8066,-0.1198,0.0232,0.182,2.25,-32.44,27.75,19.68,-82.26,-167.54
62,52.024853,-0.733924,129.85,14.46,3,239.69,18 / 19,5299510,2020-01-08 11:44:06:184,-0.6843,1.4781,9.1028,-0.0239,0.0226,9.8065,0.0833,0.1933,-0.1518,2.06,-32.56,27.38,20.58,-82.42,-167.07
63,52.024853,-0.733924,129.85,14.46,3,239.69,18 / 19,5299610,2020-01-08 11:44:06:284,-1.2123,2.3884,9.6538,0.0226,0.0139,9.8066,-0.2018,-0.2938,0.1656,1.81,-32.56,27.94,19.19,-82.45,-167.97
64,52.024853,-0.733924,129.85,14.46,3,239.69,18 / 19,5299711,2020-01-08 11:44:06:385,0.6518,1.9743,10.5514,-0.0299,0.0574,9.8064,-0.2026,-0.3164,0.2337,1.5,-32.5,28.06,18.99,-82.39,-168.07
65,52.024853,-0.733924,129.85,14.46,3,239.69,18 / 19,5299811,2020-01-08 11:44:06:485,3.2421,1.0001,10.1555,-0.0025,-0.0291,9.8065,0.0849,0.111,0.0812,1.19,-32.56,28.69,14.49,-82.16,-169.84
66,52.024853,-0.733924,129.85,14.46,3,239.69,18 / 19,5299911,2020-01-08 11:44:06:585,-6.0959,2.9212,9.4438,0.0858,-0.0142,9.8062,0.1333,0.3099,-0.1027,1.06,-33.31,28.5,15.01,-82.4,-169.32
67,52.024853,-0.733924,129.85,14.46,3,239.69,18 / 19,5300011,2020-01-08 11:44:06:685,3.9891,0.906,10.8028,0.0151,-0.0203,9.8066,0.1348,1.0165,-0.5393,0.69,-32.81,29.0,18.87,-82.38,-166.06
68,52.024853,-0.733924,129.85,14.46,3,239.69,18 / 19,5300111,2020-01-08 11:44:06:785,-5.9207,2.3939,9.6597,0.1122,-0.031,9.8059,0.0872,-0.1609,0.1428,0.63,-33.25,28.81,16.78,-82.53,-167.78
69,52.024853,-0.733924,129.85,14.46,3,239.69,18 / 19,5300211,2020-01-08 11:44:06:885,5.7615,-0.2597,11.22,-0.0007,-0.0179,9.8066,0.1519,0.6428,-0.3514,0.0,-32.75,28.19,18.54,-82.61,-164.37
70,52.024853,-0.733924,129.85,14.46,3,239.69,18 / 19,5300310,2020-01-08 11:44:06:984,-2.0504,2.2721,9.5652,0.062,-0.0241,9.8064,0.0959,-0.2724,0.3599,0.25,-33.31,29.69,16.1,-82.65,-166.27
71,52.024853,-0.733924,129.85,14.46,3,239.69,18 / 19,5300411,2020-01-08 11:44:07:085,-1.7785,3.2134,9.8178,-0.0217,-0.0056,9.8065,0.0289,0.1096,-0.201,0.19,-33.44,29.75,17.65,-82.59,-164.95
72,52.024853,-0.733924,129.85,14.46,3,239.69,18 / 19,5300510,2020-01-08 11:44:07:184,-2.7277,4.8228,8.0506,-0.0071,-0.0398,9.8065,-0.175,-0.3995,0.5053,0.69,-33.19,29.88,20.2,-82.45,-164.73
73,52.024853,-0.733924,129.85,14.46,3,239.69,18 / 19,5300611,2020-01-08 11:44:07:285,1.6625,0.6765,10.9292,-0.0863,0.0145,9.8062,0.1749,0.0022,-0.0541,0.06,-33.0,29.94,14.5,-82.68,-167.62
74,52.024853,-0.733924,129.85,14.46,3,239.69,18 / 19,5300711,2020-01-08 11:44:07:385,1.6493,1.1776,7.8648,0.0301,-0.0455,9.8064,-0.2204,-0.6727,0.4199,-0.19,-33.37,29.56,16.32,-82.55,-166.1
75,52.024853,-0.733924,129.85,14.46,3,239.69,18 / 19,5300810,2020-01-08 11:44:07:484,-5.414,2.364,9.0807,-0.1172,0.0383,9.8058,0.206,-0.0129,0.2409,-0.5,-33.19,29.56,16.03,-82.57,-166.35
76,52.024853,-0.733924,129.85,14.46,3,239.69,18 / 19,5300911,2020-01-08 11:44:07:585,0.6138,2.3319,9.0902,-0.0061,-0.0075,9.8066,-0.1394,-0.2328,0.3208,-0.37,-32.62,29.63,19.47,-82.61,-163.38
77,52.024853,-0.733924,129.85,14.46,3,239.69,18 / 19,5301011,2020-01-08 11:44:07:685,1.2012,1.6243,9.0294,-0.0121,0.0119,9.8066,-0.0074,-0.4022,0.083,-0.5,-33.69,30.31,21.85,-82.65,-161.41
78,52.024853,-0.733924,129.85,14.46,3,239.69,18 / 19,5301111,2020-01-08 11:44:07:785,-1.8353,1.5331,11.4683,-0.072,-0.0183,9.8063,-0.1714,0.0452,-0.0125,-0.25,-32.87,30.0,25.08,-82.6,-158.56
79,52.024853,-0.733924,129.85,14.46,3,239.69,19 / 21,5301211,2020-01-08 11:44:07:885,-1.9784,1.0796,11.0225,-0.0813,0.0595,9.8061,-0.1107,-0.3998,0.453,-0.75,-33.19,30.88,19.95,-82.71,-160.99
80,52.024853,-0.733924,129.85,14.46,3,239.69,19 / 21,5301310,2020-01-08 11:44:07:984,3.394,0.6908,10.6776,-0.058,0.0133,9.8064,-0.041,0.5404,-0.1173,-1.12,-33.0,30.94,21.53,-82.83,-159.57
81,52.024853,-0.733924,129.85,14.46,3,239.69,19 / 21,5301411,2020-01-08 11:44:08:085,6.658,0.3226,8.5039,0.0866,0.0212,9.8062,0.0839,-0.5069,0.4538,-0.75,-33.0,30.19,17.59,-82.93,-162.97
82,52.024853,-0.733924,129.85,14.46,3,239.69,19 / 21,5301510,2020-01-08 11:44:08:184,3.6461,1.5019,9.5853,0.0042,0.0794,9.8063,0.0787,0.0324,-0.0395,-1.0,-33.12,30.81,20.81,-83.1,-160.08
83,52.024853,-0.733924,129.85,14.46,3,239.69,19 / 21,5301611,2020-01-08 11:44:08:285,3.2698,1.2423,9.3589,0.0179,0.0207,9.8065,-0.0385,-0.1185,0.0939,-0.81,-32.94,30.63,21.56,-83.35,-159.32
84,52.024853,-0.733924,129.85,14.46,3,239.69,19 / 21,5301711,2020-01-08 11:44:08:385,1.7922,1.4012,11.1747,-0.0034,0.0362,9.8065,0.0824,0.003,0.015,-0.5,-33.06,30.75,23.66,-83.51,-159.25
85,52.024853,-0.733924,129.85,14.46,3,239.69,19 / 21,5301811,2020-01-08 11:44:08:485,3.3373,1.7078,10.2563,0.0277,-0.0418,9.8064,-0.0843,-0.1374,0.1535,-1.87,-33.31,31.06,19.56,-83.56,-159.15
86,52.024853,-0.733924,129.85,14.46,3,239.69,19 / 21,5301911,2020-01-08 11:44:08:585,-2.157,1.3161,9.4231,0.032,-0.0245,9.8065,-0.0182,-0.2388,0.2671,-2.0,-33.31,31.31,18.23,-83.23,-160.45
87,52.024853,-0.733924,129.85,14.46,3,239.69,19 / 21,5302011,2020-01-08 11:44:08:685,-0.3747,1.2954,9.6711,0.0209,-0.0041,9.8065,0.1147,0.5504,-0.2483,-2.06,-32.75,31.31,18.86,-82.96,-160.0
88,52.024853,-0.733924,129.85,14.46,3,239.69,19 / 21,5302110,2020-01-08 11:44:08:784,-4.1451,1.4756,9.4128,0.0636,-0.0133,9.8064,-0.0402,0.2028,-0.0152,-1.56,-32.75,31.0,17.91,-83.09,-160.77
89,52.024853,-0.733924,129.85,14.46,3,239.69,18 / 21,5302211,2020-01-08 11:44:08:885,4.6393,-0.141,10.2668,0.0336,0.0022,9.8065,0.0539,0.5217,-0.3353,-2.19,-33.5,31.38,20.69,-83.22,-158.29
90,52.024185,-0.735306,130.37,8.96,3,213.63,18 / 21,5302311,2020-01-08 11:44:08:985,-0.6292,1.1402,10.031,0.0544,0.0008,9.8064,0.0029,0.0885,0.01,-2.06,-33.31,31.56,19.35,-83.47,-159.42
91,52.024185,-0.735306,130.37,8.96,3,213.63,18 / 21,5302410,2020-01-08 11:44:09:084,3.3902,0.1268,9.7686,-0.0024,-0.0126,9.8066,0.0225,0.416,-0.2271,-1.94,-32.81,31.5,19.77,-83.37,-159.08
92,52.024185,-0.735306,130.37,8.96,3,213.63,18 / 21,5302510,2020-01-08 11:44:09:184,-2.5613,0.8502,10.274,0.0419,0.0015,9.8065,0.0747,-0.0551,0.0925,-2.25,-33.25,32.19,17.99,-83.23,-160.7
93,52.024185,-0.735306,130.37,8.96,3,213.63,18 / 21,5302611,2020-01-08 11:44:09:285,3.245,0.4009,9.4334,0.0035,-0.0004,9.8066,-0.0268,0.3565,-0.2269,-2.69,-33.5,32.25,15.76,-83.0,-160.94
94,52.024185,-0.735306,130.37,8.96,3,213.63,18 / 21,5302710,2020-01-08 11:44:09:384,-0.9164,0.5873,9.5242,0.0346,0.0152,9.8066,0.0337,-0.3053,0.2079,-2.31,-32.44,32.44,16.44,-83.08,-162.05
95,52.024185,-0.735306,130.37,8.96,3,213.63,18 / 21,5302811,2020-01-08 11:44:09:485,1.108,0.6501,9.8444,-0.0556,-0.004,9.8065,0.016,0.1442,-0.0066,-2.62,-33.12,32.31,13.52,-83.27,-162.83
96,52.024185,-0.735306,130.37,8.96,3,213.63,18 / 21,5302911,2020-01-08 11:44:09:585,4.662,1.637,8.6257,0.0238,0.0028,9.8066,0.1095,-0.407,0.2301,-2.87,-32.44,32.56,13.94,-83.38,-162.49
97,52.024185,-0.735306,130.37,8.96,3,213.63,18 / 21,5303010,2020-01-08 11:44:09:684,2.2115,0.9321,9.9742,-0.0543,-0.0262,9.8064,0.1261,-0.2229,0.1996,-2.69,-32.81,32.13,15.51,-83.25,-161.09
98,52.024185,-0.735306,130.37,8.96,3,213.63,18 / 21,5303111,2020-01-08 11:44:09:785,3.7681,2.8327,8.0044,-0.0326,-0.0402,9.8064,0.1715,-0.1038,0.218,-3.0,-32.56,32.56,13.93,-83.3,-162.57
99,52.024185,-0.735306,130.37,8.96,3,213.63,18 / 21,5303211,2020-01-08 11:44:09:885,-1.7079,0.5496,10.5793,-0.0097,-0.0251,9.8065,0.1792,-0.2931,0.0739,-2.56,-33.37,32.69,12.5,-83.34,-163.82
100,52.024185,-0.735306,130.37,8.96,3,213.63,18 / 20,5303311,2020-01-08 11:44:09:985,3.5891,2.2595,8.9093,-0.0201,-0.0254,9.8066,-0.0704,0.3008,-0.149,-3.87,-32.19,32.63,11.8,-83.29,-162.69
101,52.024185,-0.735306,130.37,8.96,3,213.63,18 / 20,5303411,2020-01-08 11:44:10:085,-1.8807,1.632,10.2221,0.021,0.0208,9.8065,-0.0282,0.0176,0.0767,-3.62,-32.06,32.88,11.11,-83.6,-163.23
102,52.024185,-0.735306,130.37,8.96,3,213.63,18 / 20,5303511,2020-01-08 11:44:10:185,1.2941,1.1711,10.4613,-0.0101,0.0141,9.8066,-0.0005,0.4892,-0.2404,-4.06,-32.31,32.44,10.96,-83.65,-163.18
103,52.024185,-0.735306,130.37,8.96,3,213.63,18 / 20,5303612,2020-01-08 11:44:10:286,3.8938,0.4337,9.3858,0.054,0.0039,9.8065,-0.0372,0.1316,-0.0785,-3.44,-32.12,33.06,13.71,-83.57,-165.37
104,52.024185,-0.735306,130.37,8.96,3,213.63,18 / 20,5303711,2020-01-08 11:44:10:385,4.1062,-0.2165,10.2871,-0.0099,0.0191,9.8066,0.0664,0.5032,-0.2565,-3.94,-32.37,33.25,10.2,-83.53,-164.05
105,52.024185,-0.735306,130.37,8.96,3,213.63,18 / 20,5303810,2020-01-08 11:44:10:484,0.4581,2.0647,8.1116,0.0356,0.0037,9.8065,-0.1533,0.1538,-0.0192,-4.31,-32.25,33.88,11.39,-83.31,-163.21
106,52.024185,-0.735306,130.37,8.96,3,213.63,18 / 20,5303911,2020-01-08 11:44:10:585,-2.0636,1.1554,10.5038,-0.0396,0.0556,9.8063,0.0258,0.3122,-0.2979,-4.12,-32.19,33.75,13.65,-83.35,-161.19
107,52.024185,-0.735306,130.37,8.96,3,213.63,18 / 20,5304011,2020-01-08 11:44:10:685,-0.4357,0.9949,8.1582,0.0227,-0.0021,9.8065,-0.123,0.0257,0.1708,-4.69,-32.31,32.94,8.6,-83.41,-163.78
108,52.024185,-0.735306,130.37,8.96,3,213.63,18 / 20,5304111,2020-01-08 11:44:10:785,4.7484,1.0126,9.7791,-0.0436,0.0266,9.8064,0.0896,0.2156,-0.04,-4.87,-31.75,33.19,8.1,-83.65,-164.19
109,52.024185,-0.735306,130.37,8.96,3,213.63,19 / 19,5304211,2020-01-08 11:44:10:885,-0.0959,0.5334,10.1649,-0.0262,-0.0035,9.8065,-0.0254,-0.1129,0.2038,-4.87,-32.37,33.69,11.49,-83.65,-161.38
110,52.024185,-0.735306,130.37,8.96,3,213.63,19 / 19,5304310,2020-01-08 11:44:10:984,-0.3529,0.0684,10.2143,-0.0524,-0.0075,9.8065,0.0409,0.0387,-0.0003,-5.5,-31.69,33.19,16.59,-83.49,-156.68
111,52.024185,-0.735306,130.37,8.96,3,213.63,19 / 19,5304410,2020-01-08 11:44:11:084,-1.5029,-0.4904,10.3411,0.0136,-0.0259,9.8066,0.0141,-0.3077,0.166,-4.56,-32.56,33.69,15.5,-83.43,-157.91
112,52.024185,-0.735306,130.37,8.96,3,213.63,19 / 19,5304511,2020-01-08 11:44:11:185,-2.9941,-0.0681,9.7878,-0.032,-0.0185,9.8065,0.0152,0.2797,-0.1617,-6.0,-32.37,33.5,11.06,-83.29,-160.2
113,52.024185,-0.735306,130.37,8.96,3,213.63,19 / 19,5304611,2020-01-08 11:44:11:285,2.9365,-0.728,9.1048,0.0204,0.0341,9.8065,-0.1256,-0.1703,0.122,-5.25,-32.0,33.81,10.65,-83.25,-162.21
114,52.024185,-0.735306,130.37,8.96,3,213.63,19 / 19,5304710,2020-01-08 11:44:11:384,1.225,-1.6829,10.3168,-0.0323,0.029,9.8065,-0.0256,0.0229,-0.053,-5.06,-32.31,34.13,10.07,-83.54,-162.67
115,52.024185,-0.735306,130.37,8.96,3,213.63,19 / 19,5304811,2020-01-08 11:44:11:485,-3.3254,0.1417,9.4328,0.0145,0.0268,9.8065,-0.1388,-0.2562,0.1056,-5.31,-32.19,33.81,5.94,-83.55,-166.35
116,52.024185,-0.735306,130.37,8.96,3,213.63,19 / 19,5304910,2020-01-08 11:44:11:584,2.5011,-1.6903,10.6748,0.0053,0.0369,9.8066,0.0203,0.2101,-0.314,-5.06,-32.87,33.56,2.28,-83.96,-169.6
117,52.024185,-0.735306,130.37,8.96,3,213.63,19 / 19,5305011,2020-01-08 11:44:11:685,-3.3246,-0.8929,8.1679,0.0617,-0.0038,9.8064,-0.1348,-0.1154,0.0968,-4.75,-32.62,34.06,354.95,-83.74,-176.12
118,52.024185,-0.735306,130.37,8.96,3,213.63,19 / 19,5305110,2020-01-08 11:44:11:784,3.0462,0.8433,11.052,-0.0322,0.0527,9.8064,0.0846,0.2802,-0.2056,-4.31,-32.31,33.5,354.55,-83.59,-178.14
119,52.024185,-0.735306,130.37,8.96,3,213.63,19 / 20,5305211,2020-01-08 11:44:11:885,-4.1588,-0.0684,9.5592,0.0408,0.0037,9.8065,-0.0664,-0.1315,0.0221,-4.81,-31.37,34.25,350.23,-84.07,179.55
120,52.024185,-0.735306,130.37,8.96,3,213.63,19 / 20,5305311,2020-01-08 11:44:11:985,1.6376,-1.926,11.3954,-0.0116,0.0306,9.8065,0.0635,0.2448,-0.2791,-4.44,-32.12,33.81,353.25,-84.39,-179.39
121,52.024185,-0.735306,130.37,8.96,3,213.63,19 / 20,5305411,2020-01-08 11:44:12:085,-1.5914,-0.267,8.76,0.0117,0.0001,9.8066,-0.1131,-0.0592,0.1758,-4.37,-32.06,33.5,354.12,-84.31,-178.6
122,52.024185,-0.735306,130.37,8.96,3,213.63,19 / 20,5305511,2020-01-08 11:44:12:185,-0.1149,-0.3954,9.488,-0.0409,0.0269,9.8065,0.1385,-0.0978,0.0372,-3.56,-32.0,34.19,354.96,-84.22,-177.83
123,52.024185,-0.735306,130.37,8.96,3,213.63,19 / 20,5305610,2020-01-08 11:44:12:284,0.0595,-2.4308,10.6154,0.0078,-0.0137,9.8066,-0.1254,-0.3988,0.1912,-3.87,-32.37,34.44,355.7,-83.98,-177.15
124,52.024185,-0.735306,130.37,8.96,3,213.63,19 / 20,5305711,2020-01-08 11:44:12:385,-2.3795,-1.3412,8.4355,-0.0445,0.0274,9.8064,0.0828,-0.1886,0.0239,-3.5,-31.94,34.56,357.6,-84.03,-177.26
125,52.024185,-0.735306,130.37,8.96,3,213.63,19 / 20,5305811,2020-01-08 11:44:12:485,2.0977,-1.1187,9.8953,-0.002,0.0179,9.8066,-0.1019,-0.4543,0.2618,-2.69,-31.94,34.44,357.21,-84.04,-177.46
126,52.024185,-0.735306,130.37,8.96,3,213.63,19 / 20,5305910,2020-01-08 11:44:12:584,0.031,-2.1207,10.6875,-0.0499,0.0276,9.8064,-0.0108,-0.0863,0.0312,-3.5,-32.5,33.5,359.18,-84.09,-175.69
127,52.024185,-0.735306,130.37,8.96,3,213.63,19 / 20,5306011,2020-01-08 11:44:12:685,-3.2061,1.199,8.2572,-0.0012,0.0217,9.8065,-0.2022,-0.2637,0.1116,-2.75,-32.12,33.31,357.89,-83.98,-176.69
128,52.024185,-0.735306,130.37,8.96,3,213.63,19 / 20,5306111,2020-01-08 11:44:12:785,-1.1675,-0.9642,10.4171,-0.0168,0.0453,9.8065,0.1684,-0.5843,0.2682,-2.31,-31.37,32.94,357.49,-84.1,-178.78
129,52.024185,-0.735306,130.37,8.96,3,213.63,19 / 21,5306210,2020-01-08 11:44:12:884,-2.7967,-0.1417,10.1345,-0.023,-0.0404,9.8065,0.0797,-0.4107,0.0226,-1.94,-31.69,33.13,354.32,-83.88,178.4
130,52.024185,-0.735306,130.37,8.96,3,213.63,19 / 21,5306311,2020-01-08 11:44:12:985,0.5721,0.2004,9.3853,-0.0007,-0.0064,9.8066,-0.132,-0.4611,-0.0032,-1.94,-32.19,32.88,352.39,-84.05,176.66
131,52.024185,-0.735306,130.37,8.96,3,213.63,19 / 21,5306411,2020-01-08 11:44:13:085,-4.7535,0.3068,11.0182,-0.0366,0.0412,9.8065,-0.0011,-0.6433,0.3686,-1.37,-32.31,32.5,351.42,-84.29,174.02
132,52.024185,-0.735306,130.37,8.96,3,213.63,19 / 21,5306511,2020-01-08 11:44:13:185,0.8918,-0.4922,10.0202,0.03,0.0002,9.8065,-0.1808,-0.0727,-0.0802,-1.12,-32.19,31.88,350.57,-84.71,173.27
133,52.024185,-0.735306,130.37,8.96,3,213.63,19 / 21,5306611,2020-01-08 11:44:13:285,-3.3145,0.3583,9.8855,0.0467,-0.0188,9.8065,0.1357,-0.2757,-0.0252,-0.37,-33.0,32.56,348.16,-84.65,169.31
134,52.024185,-0.735306,130.37,8.96,3,213.63,19 / 21,5306711,2020-01-08 11:44:13:385,-2.4154,0.5304,10.5228,0.0238,-0.0274,9.8065,0.0986,-0.1953,0.0117,0.0,-32.37,31.88,349.72,-84.46,170.75
135,52.024185,-0.735306,130.37,8.96,3,213.63,19 / 21,5306811,2020-01-08 11:44:13:485,-0.4126,0.38,9.527,-0.0147,-0.0173,9.8065,0.01,-0.3023,0.1907,-0.25,-33.12,32.44,347.99,-84.17,169.3
136,52.024185,-0.735306,130.37,8.96,3,213.63,19 / 21,5306911,2020-01-08 11:44:13:585,-1.7773,-0.7582,9.7863,-0.021,0.0029,9.8065,-0.0421,-0.3286,-0.007,0.44,-32.87,31.63,345.26,-84.01,166.91
137,52.024185,-0.735306,130.37,8.96,3,213.63,19 / 21,5307011,2020-01-08 11:44:13:685,-0.3116,-1.174,10.3973,-0.0069,0.0264,9.8066,-0.0755,-0.3511,0.0666,0.44,-31.62,31.88,345.44,-84.04,167.01
138,52.024185,-0.735306,130.37,8.96,3,213.63,19 / 21,5307111,2020-01-08 11:44:13:785,-5.1157,0.6718,9.7608,-0.0365,0.0078,9.8065,-0.0018,-0.3253,0.1735,1.38,-32.25,31.25,347.0,-84.13,166.58
139,52.024185,-0.735306,130.37,8.96,3,213.63,19 / 21,5307211,2020-01-08 11:44:13:885,1.779,-1.2142,9.7675,-0.0118,-0.0097,9.8066,-0.1041,-0.6763,0.3249,1.25,-31.62,30.69,345.03,-84.05,164.85
140,52.024185,-0.735306,130.37,8.96,3,213.63,20 / 21,5307311,2020-01-08 11:44:13:985,-6.1044,0.2719,9.0415,-0.0555,0.0337,9.8064,-0.019,-0.5286,0.2006,1.94,-32.5,30.44,349.18,-84.25,166.56
141,52.024185,-0.735306,130.37,8.96,3,213.63,20 / 21,5307411,2020-01-08 11:44:14:085,-0.3367,-0.8881,10.4432,-0.0267,0.0177,9.8065,-0.176,-0.4013,0.1069,1.63,-32.44,29.63,347.74,-84.31,165.27
142,52.024185,-0.735306,130.37,8.96,3,213.63,20 / 21,5307510,2020-01-08 11:44:14:184,-3.5899,0.7927,9.9427,-0.0366,0.0487,9.8064,-0.112,-0.4492,0.2347,2.38,-33.19,29.81,346.11,-84.52,163.8
143,52.024185,-0.735306,130.37,8.96,3,213.63,20 / 21,5307610,2020-01-08 11:44:14:284,-1.2066,-0.033,10.1993,-0.0205,0.0318,9.8065,-0.0192,-0.148,-0.0406,2.13,-32.75,29.06,348.56,-84.95,165.79
144,52.024185,-0.735306,130.37,8.96,3,213.63,20 / 21,5307710,2020-01-08 11:44:14:384,-4.954,-0.6916,9.3369,0.0332,0.0,9.8066,-0.0695,-0.5523,0.1105,2.75,-32.31,28.75,349.91,-85.07,164.99
145,52.024185,-0.735306,130.37,8.96,3,213.63,20 / 21,5307810,2020-01-08 11:44:14:484,-2.5423,-0.341,8.5394,-0.05,0.0144,9.8065,0.1517,-0.1932,0.0161,3.31,-32.31,28.5,351.98,-85.28,166.82
146,52.024185,-0.735306,130.37,8.96,3,213.63,20 / 21,5307911,2020-01-08 11:44:14:585,-2.6742,0.5147,10.377,-0.0088,-0.0047,9.8066,-0.024,-0.3639,0.09,3.69,-32.94,27.5,353.37,-85.24,165.9
147,52.024185,-0.735306,130.37,8.96,3,213.63,20 / 21,5308011,2020-01-08 11:44:14:685,-1.1357,1.3171,8.3076,-0.0236,0.0044,9.8066,-0.0663,-0.1959,-0.0684,3.94,-32.44,27.06,355.85,-85.48,167.82
148,52.024185,-0.735306,130.37,8.96,3,213.63,20 / 21,5308111,2020-01-08 11:44:14:785,-3.1496,-0.0263,10.4902,-0.033,0.0342,9.8064,-0.0236,-0.373,0.2124,3.81,-32.56,27.19,358.05,-85.7,169.8
149,52.024185,-0.735306,130.37,8.96,3,213.63,21 / 21,5308211,2020-01-08 11:44:14:885,-1.3625,0.327,10.7762,-0.0257,-0.0058,9.8066,-0.0182,-0.3484,0.1377,4.0,-33.06,26.19,0.11,-85.35,171.35
150,52.024185,-0.735306,130.37,8.96,3,213.63,21 / 21,5308311,2020-01-08 11:44:14:985,-4.4912,-2.0178,9.4605,-0.0296,0.0029,9.8066,-0.0187,-0.4778,0.1917,4.75,-32.75,26.56,7.28,-85.01,176.0
151,52.024185,-0.735306,130.37,8.96,3,213.63,21 / 21,5308411,2020-01-08 11:44:15:085,-1.5278,0.6729,9.5692,-0.0566,0.033,9.8064,-0.1321,-0.3916,0.143,4.5,-32.62,24.69,11.99,-85.14,179.33
152,52.024185,-0.735306,130.37,8.96,3,213.63,21 / 21,5308511,2020-01-08 11:44:15:185,-5.5491,0.3845,10.6362,-0.0293,0.0218,9.8065,-0.0059,-0.6346,0.2005,4.81,-33.0,25.19,13.92,-85.46,-178.85
153,52.024185,-0.735306,130.37,8.96,3,213.63,21 / 21,5308611,2020-01-08 11:44:15:285,-1.5689,-2.8074,8.2643,-0.0647,-0.0211,9.8063,-0.1837,-0.3444,0.0149,4.44,-33.19,24.06,18.99,-85.24,-172.63
154,52.024185,-0.735306,130.37,8.96,3,213.63,21 / 21,5308711,2020-01-08 11:44:15:385,-4.4068,0.6346,9.8146,-0.0379,0.0791,9.8062,-0.2502,-0.6165,0.4145,4.44,-33.31,24.44,18.38,-85.11,-173.23
155,52.024185,-0.735306,130.37,8.96,3,213.63,21 / 21,5308811,2020-01-08 11:44:15:485,0.2504,-5.0546,11.1808,-0.0503,0.08,9.8061,-0.1302,-0.2074,0.0714,4.88,-33.56,23.19,27.39,-85.66,-167.82
156,52.024185,-0.735306,130.37,8.96,3,213.63,21 / 21,5308910,2020-01-08 11:44:15:584,-2.5538,-0.0933,9.4184,-0.0049,0.008,9.8066,-0.1119,-0.5439,0.2273,4.63,-33.87,22.63,28.94,-85.64,-166.44
157,52.024185,-0.735306,130.37,8.96,3,213.63,21 / 21,5309011,2020-01-08 11:44:15:685,-3.4893,0.5905,9.7215,-0.0639,0.0159,9.8063,0.0301,-0.0528,0.0188,5.06,-34.06,21.88,32.11,-85.36,-164.5
158,52.024185,-0.735306,130.37,8.96,3,213.63,21 / 21,5309110,2020-01-08 11:44:15:784,-3.1725,-1.6764,9.1658,-0.0036,0.0128,9.8065,-0.1219,-0.3308,0.1202,5.31,-34.12,22.0,28.89,-85.13,-166.9
159,52.024185,-0.735306,130.37,8.96,3,213.63,20 / 22,5309211,2020-01-08 11:44:15:885,1.5401,-0.0945,10.5391,-0.0301,0.0517,9.8064,-0.0893,-0.0644,-0.0018,5.31,-34.25,21.31,32.44,-85.16,-165.14
160,52.024185,-0.735306,130.37,8.96,3,213.63,20 / 22,5309311,2020-01-08 11:44:15:985,-1.2141,-1.9885,9.7323,-0.0227,0.0326,9.8065,-0.115,-0.1782,0.2214,5.06,-34.25,21.5,33.35,-85.22,-163.51
161,52.024185,-0.735306,130.37,8.96,3,213.63,20 / 22,5309410,2020-01-08 11:44:16:084,-0.524,-2.5649,10.2778,-0.0134,0.0253,9.8065,-0.0674,0.045,-0.0099,5.75,-33.87,21.0,41.32,-85.32,-159.54
162,52.024185,-0.735306,130.37,8.96,3,213.63,20 / 22,5309511,2020-01-08 11:44:16:185,1.8531,-0.1834,9.4085,-0.0023,0.0084,9.8066,-0.0393,0.2031,-0.0183,4.94,-33.87,20.81,41.49,-85.23,-156.98
163,52.024185,-0.735306,130.37,8.96,3,213.63,20 / 22,5309611,2020-01-08 11:44:16:285,-1.8116,-0.621,9.5231,0.0299,0.0291,9.8066,0.2211,0.1139,-0.0519,5.0,-33.94,20.75,44.05,-85.12,-154.81
164,52.024185,-0.735306,130.37,8.96,3,213.63,20 / 22,5309710,2020-01-08 11:44:16:384,-0.0267,-1.2606,9.2074,0.0073,-0.0728,9.8063,0.0588,0.2631,-0.178,4.56,-34.0,22.0,46.44,-85.14,-151.78
165,52.024185,-0.735306,130.37,8.96,3,213.63,20 / 22,5309811,2020-01-08 11:44:16:485,-3.7288,-0.3615,10.225,0.014,-0.0276,9.8065,0.2223,0.3339,-0.1381,4.13,-33.62,21.94,41.85,-84.69,-153.98
166,52.024185,-0.735306,130.37,8.96,3,213.63,20 / 22,5309911,2020-01-08 11:44:16:585,3.7491,-3.3205,8.6738,0.0358,-0.0602,9.8063,0.019,0.4847,-0.3598,4.63,-34.0,22.06,45.14,-84.44,-153.75
167,52.024185,-0.735306,130.37,8.96,3,213.63,20 / 22,5310011,2020-01-08 11:44:16:685,-1.7502,-0.8096,8.5989,0.0597,0.0154,9.8064,0.0937,0.0841,-0.1358,3.69,-34.69,21.94,39.82,-84.54,-156.09
168,52.024185,-0.735306,130.37,8.96,3,213.63,20 / 22,5310111,2020-01-08 11:44:16:785,-0.1471,-0.5061,9.6053,0.0127,-0.0058,9.8066,0.0456,0.3469,-0.1391,4.88,-34.0,22.0,44.5,-84.68,-154.06
169,52.024185,-0.735306,130.37,8.96,3,213.63,20 / 22,5310211,2020-01-08 11:44:16:885,-1.5898,0.8933,10.7501,0.0305,-0.026,9.8065,0.0876,0.1958,0.021,4.75,-34.0,22.0,43.88,-84.79,-154.5
170,52.024185,-0.735306,130.37,8.96,3,213.63,20 / 22,5310312,2020-01-08 11:44:16:986,4.5554,-1.2855,9.9774,0.0367,-0.0241,9.8065,0.0277,0.4344,-0.3924,4.69,-33.69,21.88,46.51,-84.49,-152.46
171,52.024185,-0.735306,130.37,8.96,3,213.63,20 / 22,5310411,2020-01-08 11:44:17:085,-1.8483,-1.6844,10.8247,0.0496,-0.0136,9.8065,-0.0402,0.0919,-0.0932,4.94,-33.75,22.13,45.11,-84.19,-154.05
172,52.024185,-0.735306,130.37,8.96,3,213.63,20 / 22,5310511,2020-01-08 11:44:17:185,0.6616,-1.6523,10.3889,-0.0348,0.0036,9.8065,0.049,0.5496,-0.014,4.19,-33.62,23.13,41.49,-83.9,-154.44
173,52.024185,-0.735306,130.37,8.96,3,213.63,20 / 22,5310611,2020-01-08 11:44:17:285,-3.8035,1.1869,8.0204,0.0608,-0.0365,9.8063,-0.2546,-0.0278,0.2018,4.06,-34.75,22.38,43.35,-84.06,-153.51
174,52.024185,-0.735306,130.37,8.96,3,213.63,20 / 22,5310710,2020-01-08 11:44:17:384,2.6842,-2.164,10.7466,0.0155,0.0284,9.8065,0.0892,0.4957,-0.1437,4.31,-34.06,22.5,45.89,-84.33,-150.06
175,52.024185,-0.735306,130.37,8.96,3,213.63,20 / 22,5310811,2020-01-08 11:44:17:485,5.5615,-2.566,8.3734,0.0381,-0.0379,9.8064,0.1141,-0.3508,0.4261,4.69,-33.44,22.5,47.1,-84.46,-151.01
176,52.024185,-0.735306,130.37,8.96,3,213.63,20 / 22,5310911,2020-01-08 11:44:17:585,3.9144,-4.1829,11.3591,-0.0542,-0.037,9.8064,0.2504,-0.0879,-0.0801,4.44,-33.62,22.81,41.18,-84.39,-154.22
177,52.024185,-0.735306,130.37,8.96,3,213.63,20 / 22,5311011,2020-01-08 11:44:17:685,5.0615,-2.4366,8.4666,-0.0259,-0.0679,9.8063,-0.0971,-0.3446,0.3685,4.0,-33.19,23.19,39.48,-83.86,-156.07
178,52.024185,-0.735306,130.37,8.96,3,213.63,20 / 22,5311111,2020-01-08 11:44:17:785,-0.9656,-1.0483,10.5843,-0.0685,0.0132,9.8063,0.1924,-0.0435,0.0397,4.5,-34.31,24.38,38.04,-83.97,-159.04
179,52.024185,-0.735306,130.37,8.96,3,213.63,20 / 22,5311211,2020-01-08 11:44:17:885,2.8367,-0.6666,8.1778,-0.0074,-0.058,9.8065,-0.1946,-0.0728,0.0367,3.94,-33.19,25.19,36.83,-83.54,-157.5
180,52.023693,-0.736072,131.14,11.23,3,243.87,20 / 20,5311311,2020-01-08 11:44:17:985,-1.5955,-2.8709,10.8491,-0.0361,0.0146,9.8065,0.1009,-0.0648,0.2803,3.75,-33.56,25.13,40.13,-83.35,-154.92
181,52.023693,-0.736072,131.14,11.23,3,243.87,20 / 20,5311410,2020-01-08 11:44:18:084,4.8626,-1.8925,9.8269,-0.0233,0.0025,9.8066,0.0476,0.2543,0.0352,3.5,-33.37,25.25,37.55,-83.51,-156.88
182,52.023693,-0.736072,131.14,11.23,3,243.87,20 / 20,5311511,2020-01-08 11:44:18:185,0.8669,0.5595,9.3123,0.0213,-0.0003,9.8066,-0.0852,0.0684,0.0204,2.75,-33.81,25.88,34.49,-83.5,-157.06
183,52.023693,-0.736072,131.14,11.23,3,243.87,20 / 20,5311611,2020-01-08 11:44:18:285,5.065,-2.4467,10.0777,-0.0158,0.0041,9.8065,0.12,0.3171,-0.3049,3.19,-33.56,26.31,33.47,-83.47,-157.97
184,52.023693,-0.736072,131.14,11.23,3,243.87,20 / 20,5311711,2020-01-08 11:44:18:385,1.8003,-3.0144,10.5984,-0.0072,-0.0319,9.8065,0.1086,0.1226,0.2842,3.25,-32.81,26.69,32.32,-83.12,-158.67
185,52.023693,-0.736072,131.14,11.23,3,243.87,20 / 20,5311811,2020-01-08 11:44:18:485,2.9705,-1.758,9.5919,-0.0213,0.0008,9.8066,-0.0037,0.2487,0.0316,2.44,-32.94,27.5,27.96,-83.24,-160.01
186,52.023693,-0.736072,131.14,11.23,3,243.87,20 / 20,5311911,2020-01-08 11:44:18:585,2.0026,0.386,6.467,0.0062,0.1032,9.806,-0.3825,0.2457,0.0664,2.88,-32.62,27.63,32.74,-83.62,-157.58
187,52.023693,-0.736072,131.14,11.23,3,243.87,20 / 20,5312011,2020-01-08 11:44:18:685,0.6984,-1.2027,10.7972,0.003,0.0939,9.8062,-0.2683,-0.1947,0.1876,2.38,-32.31,27.69,28.57,-83.6,-159.15
188,52.023693,-0.736072,131.14,11.23,3,243.87,20 / 20,5312111,2020-01-08 11:44:18:785,7.8438,-1.8669,7.8802,-0.0945,0.0686,9.8059,-0.3556,0.5406,0.2312,2.06,-32.56,28.06,24.53,-83.44,-162.9
189,52.023693,-0.736072,131.14,11.23,3,243.87,19 / 21,5312211,2020-01-08 11:44:18:885,-0.2561,-2.3926,12.0625,0.054,0.0545,9.8063,0.1365,-0.0686,0.4551,2.38,-32.5,29.38,24.19,-83.41,-162.87
190,52.023693,-0.736072,131.14,11.23,3,243.87,19 / 21,5312311,2020-01-08 11:44:18:985,3.131,-1.584,10.4032,0.0051,-0.0222,9.8066,-0.1822,0.505,-0.518,1.44,-32.44,28.88,23.01,-83.09,-162.09
191,52.023693,-0.736072,131.14,11.23,3,243.87,19 / 21,5312411,2020-01-08 11:44:19:085,1.6803,-0.924,10.3683,0.0437,0.0111,9.8065,0.1583,-0.1204,-0.0638,1.38,-32.12,29.13,24.18,-83.13,-161.05
192,52.023693,-0.736072,131.14,11.23,3,243.87,19 / 21,5312511,2020-01-08 11:44:19:185,4.8395,-2.5044,8.5392,-0.0446,-0.0597,9.8063,0.1967,0.2628,0.1504,1.63,-32.12,30.38,24.91,-83.29,-162.06
193,52.023693,-0.736072,131.14,11.23,3,243.87,19 / 21,5312611,2020-01-08 11:44:19:285,-0.1584,-0.5709,8.4083,0.0351,-0.0351,9.8064,0.1623,0.1454,0.1939,1.19,-31.75,30.5,19.21,-83.13,-165.1
194,52.023693,-0.736072,131.14,11.23,3,243.87,19 / 21,5312710,2020-01-08 11:44:19:384,2.2802,-1.1449,11.0803,0.0195,-0.0291,9.8066,0.1892,0.5059,-0.3626,1.06,-31.87,30.63,18.49,-83.2,-165.7
195,52.023693,-0.736072,131.14,11.23,3,243.87,19 / 21,5312811,2020-01-08 11:44:19:485,-0.1955,-0.4845,9.2867,0.0414,-0.06,9.8063,-0.0756,0.0248,0.1653,0.88,-31.75,29.94,17.06,-83.12,-167.12
196,52.023693,-0.736072,131.14,11.23,3,243.87,19 / 21,5312911,2020-01-08 11:44:19:585,3.701,-0.9384,10.5514,-0.0105,0.0022,9.8066,0.102,0.3206,-0.1397,0.69,-31.81,31.0,15.73,-82.89,-168.22
197,52.023693,-0.736072,131.14,11.23,3,243.87,19 / 21,5313011,2020-01-08 11:44:19:685,2.6347,-1.3172,9.3028,0.0181,-0.0255,9.8065,-0.1481,-0.1093,0.19,1.06,-31.12,31.06,14.43,-82.68,-169.35
198,52.023693,-0.736072,131.14,11.23,3,243.87,19 / 21,5313110,2020-01-08 11:44:19:784,1.1016,-0.8073,8.5885,-0.0081,0.0372,9.8065,0.0979,-0.1277,0.0021,-0.19,-31.87,31.63,14.18,-82.86,-167.67
199,52.023693,-0.736072,131.14,11.23,3,243.87,19 / 21,5313211,2020-01-08 11:44:19:885,1.4534,-0.4891,6.1327,-0.0459,-0.0533,9.8063,-0.3611,-0.0051,0.1825,0.0,-32.12,31.75,15.66,-82.59,-166.46
200,52.023693,-0.736072,131.14,11.23,3,243.87,19 / 22,5313311,2020-01-08 11:44:19:985,2.9369,-1.3985,12.511,-0.0675,0.087,9.806,0.0714,0.1392,0.019,0.0,-32.0,31.13,18.32,-82.95,-164.09
201,52.023693,-0.736072,131.14,11.23,3,243.87,19 / 22,5313411,2020-01-08 11:44:20:085,-0.2115,0.2068,9.9405,0.0225,-0.0221,9.8065,-0.276,-0.1066,0.0944,-0.19,-32.37,31.5,16.99,-82.7,-165.27
202,52.023693,-0.736072,131.14,11.23,3,243.87,19 / 22,5313511,2020-01-08 11:44:20:185,-3.0867,0.7106,8.8065,-0.0565,0.0532,9.8063,-0.0445,0.0754,0.2162,-0.44,-31.87,31.63,19.33,-82.55,-163.28
203,52.023693,-0.736072,131.14,11.23,3,243.87,19 / 22,5313610,2020-01-08 11:44:20:284,3.731,-2.1094,10.1429,-0.0223,0.004,9.8065,-0.0405,-0.2263,0.4394,-0.94,-32.19,31.81,19.98,-82.62,-160.9
204,52.023693,-0.736072,131.14,11.23,3,243.87,19 / 22,5313711,2020-01-08 11:44:20:385,-1.8226,-1.1738,9.4968,-0.0153,0.036,9.8065,-0.245,-0.1462,-0.1349,-0.56,-32.0,32.44,20.56,-82.45,-160.46
205,52.023693,-0.736072,131.14,11.23,3,243.87,19 / 22,5313811,2020-01-08 11:44:20:485,2.7409,0.1343,9.3458,-0.0525,0.0621,9.8062,-0.1785,-0.3438,-0.0335,-0.31,-32.06,31.81,27.62,-82.55,-156.03
206,52.023693,-0.736072,131.14,11.23,3,243.87,19 / 22,5313911,2020-01-08 11:44:20:585,-5.6992,0.7401,10.9004,-0.0801,0.0098,9.8063,0.0028,-0.4891,0.6287,-0.87,-31.62,32.0,23.75,-82.63,-157.6
207,52.023693,-0.736072,131.14,11.23,3,243.87,19 / 22,5314010,2020-01-08 11:44:20:684,2.2283,-1.6009,11.7003,-0.0636,-0.0304,9.8064,-0.2369,0.1069,0.0946,-1.31,-31.69,31.44,25.69,-82.34,-156.08
208,52.023693,-0.736072,131.14,11.23,3,243.87,19 / 22,5314111,2020-01-08 11:44:20:785,1.7324,-1.3286,8.8683,0.0003,0.0499,9.8064,-0.0904,-0.2069,0.1221,-1.75,-32.19,31.75,24.27,-82.33,-155.49
209,52.023693,-0.736072,131.14,11.23,3,243.87,18 / 21,5314211,2020-01-08 11:44:20:885,0.766,-0.7762,8.9781,-0.0298,-0.0066,9.8066,-0.1139,0.0297,0.0761,-1.69,-32.19,32.06,23.73,-82.12,-156.06
210,52.023693,-0.736072,131.14,11.23,3,243.87,18 / 21,5314310,2020-01-08 11:44:20:984,0.3067,0.475,9.9314,-0.0158,0.035,9.8065,-0.0116,0.0549,0.012,-1.19,-32.94,31.75,25.65,-82.39,-156.15
211,52.023693,-0.736072,131.14,11.23,3,243.87,18 / 21,5314411,2020-01-08 11:44:21:085,0.2529,-0.487,9.7336,0.0305,-0.0027,9.8065,-0.0798,-0.1703,0.0504,-1.25,-32.31,31.69,23.35,-82.46,-158.03
212,52.023693,-0.736072,131.14,11.23,3,243.87,18 / 21,5314511,2020-01-08 11:44:21:185,2.8001,-0.7629,9.7023,-0.0053,-0.012,9.8066,0.0751,0.215,-0.0579,-1.12,-32.31,31.75,22.38,-82.72,-158.76
213,52.023693,-0.736072,131.14,11.23,3,243.87,18 / 21,5314611,2020-01-08 11:44:21:285,-2.9589,-0.7337,9.2129,0.07,-0.0146,9.8063,-0.1861,-0.0992,-0.0002,-1.44,-32.06,31.81,18.54,-82.87,-162.06
214,52.023693,-0.736072,131.14,11.23,3,243.87,18 / 21,5314711,2020-01-08 11:44:21:385,0.4532,-0.7662,11.7082,0.0145,0.0312,9.8066,0.1784,0.0454,-0.1162,-0.44,-32.06,31.69,20.41,-82.77,-162.26
215,52.023693,-0.736072,131.14,11.23,3,243.87,18 / 21,5314811,2020-01-08 11:44:21:485,0.982,-1.9278,11.8055,-0.0006,-0.0331,9.8065,-0.2983,-0.0294,0.0999,-0.87,-32.75,31.44,17.22,-82.82,-163.32
216,52.023693,-0.736072,131.14,11.23,3,243.87,18 / 21,5314910,2020-01-08 11:44:21:584,0.4294,-0.6727,9.6506,-0.0151,0.0552,9.8064,-0.1784,-0.0348,0.0197,0.0,-32.56,32.13,19.8,-82.83,-162.84
217,52.023693,-0.736072,131.14,11.23,3,243.87,18 / 21,5315010,2020-01-08 11:44:21:684,-0.9158,-0.079,9.7072,-0.0292,0.0342,9.8065,-0.0961,-0.323,0.4082,-0.5,-32.94,32.06,22.77,-83.04,-160.16
218,52.023693,-0.736072,131.14,11.23,3,243.87,18 / 21,5315111,2020-01-08 11:44:21:785,2.637,-0.3483,9.9016,-0.0623,0.0015,9.8064,-0.0182,0.2056,-0.1832,-1.0,-32.69,30.81,18.52,-83.17,-162.06
219,52.023693,-0.736072,131.14,11.23,3,243.87,19 / 20,5315211,2020-01-08 11:44:21:885,-2.2117,0.8467,8.9103,0.0713,-0.0355,9.8063,0.0105,-0.3062,0.1439,-1.12,-32.94,31.38,19.29,-82.99,-161.46
220,52.023693,-0.736072,131.14,11.23,3,243.87,19 / 20,5315311,2020-01-08 11:44:21:985,-0.2259,-0.0068,10.8297,-0.0043,-0.0194,9.8065,0.1642,0.2654,-0.1591,0.0,-32.87,32.25,21.15,-82.78,-161.68
221,52.023693,-0.736072,131.14,11.23,3,243.87,19 / 20,5315410,2020-01-08 11:44:22:084,-1.7498,-0.4479,9.7859,-0.015,0.0022,9.8066,-0.0146,0.0855,-0.1039,-0.87,-32.06,31.38,20.14,-82.78,-160.72
222,52.023693,-0.736072,131.14,11.23,3,243.87,19 / 20,5315511,2020-01-08 11:44:22:185,0.8257,-0.6265,10.8516,-0.0305,0.0456,9.8064,0.2265,-0.0996,-0.1563,-0.25,-32.56,31.25,20.31,-82.88,-162.46
223,52.023693,-0.736072,131.14,11.23,3,243.87,19 / 20,5315610,2020-01-08 11:44:22:284,-1.3983,0.5789,8.1754,-0.0186,0.0273,9.8066,0.0577,0.2118,-0.0699,-0.5,-32.69,31.25,18.67,-82.89,-163.88
224,52.023693,-0.736072,131.14,11.23,3,243.87,19 / 20,5315711,2020-01-08 11:44:22:385,1.3212,0.2298,9.6913,-0.0044,0.0622,9.8064,0.0937,-0.252,-0.0192,0.0,-32.31,31.5,18.46,-82.83,-163.94
225,52.023693,-0.736072,131.14,11.23,3,243.87,19 / 20,5315811,2020-01-08 11:44:22:485,0.6093,0.0832,9.0959,-0.0289,-0.011,9.8066,-0.0038,-0.0868,0.0593,-0.12,-32.5,31.44,16.38,-82.64,-165.88
226,52.023693,-0.736072,131.14,11.23,3,243.87,19 / 20,5315911,2020-01-08 11:44:22:585,3.0102,-2.2702,10.3863,0.0011,0.0168,9.8066,0.0037,-0.0205,-0.2147,0.25,-32.25,32.0,15.27,-82.8,-166.74
227,52.023693,-0.736072,131.14,11.23,3,243.87,19 / 20,5316011,2020-01-08 11:44:22:685,-5.5982,0.0248,10.368,0.0282,0.0264,9.8065,-0.1537,-0.4493,0.3325,0.13,-32.25,31.81,15.49,-82.69,-166.58
228,52.023693,-0.736072,131.14,11.23,3,243.87,19 / 20,5316111,2020-01-08 11:44:22:785,2.322,-0.2469,10.3386,-0.0624,0.0075,9.8064,-0.0254,0.1869,-0.0612,-0.12,-32.06,31.31,14.91,-82.79,-167.11
229,52.023693,-0.736072,131.14,11.23,3,243.87,19 / 20,5316213,2020-01-08 11:44:22:887,-0.2184,0.5037,9.6058,-0.0027,0.0076,9.8066,-0.077,-0.1182,0.1017,-0.25,-32.0,31.0,12.35,-82.75,-169.35
230,52.023693,-0.736072,131.14,11.23,3,243.87,18 / 21,5316311,2020-01-08 11:44:22:985,0.9786,-1.3569,9.7541,0.0053,0.0019,9.8066,-0.0608,0.1663,-0.0658,0.19,-32.37,31.63,10.77,-82.72,-170.67
231,52.023693,-0.736072,131.14,11.23,3,243.87,18 / 21,5316410,2020-01-08 11:44:23:084,-0.9568,0.2214,8.4457,0.0451,0.0191,9.8065,-0.1657,-0.1108,-0.0453,0.25,-32.44,31.25,10.38,-82.64,-171.07
232,52.023693,-0.736072,131.14,11.23,3,243.87,18 / 21,5316511,2020-01-08 11:44:23:185,-2.1429,0.2387,10.5434,-0.027,0.0418,9.8065,-0.0063,0.4306,-0.2379,0.69,-31.94,32.0,11.48,-82.79,-171.83
233,52.023693,-0.736072,131.14,11.23,3,243.87,18 / 21,5316611,2020-01-08 11:44:23:285,-2.8566,0.8399,8.8711,0.0487,-0.0069,9.8065,-0.1317,-0.0701,0.0317,0.06,-32.19,31.56,7.92,-82.77,-173.14
234,52.023693,-0.736072,131.14,11.23,3,243.87,18 / 21,5316711,2020-01-08 11:44:23:385,0.3397,-1.9532,11.7197,-0.0219,0.0686,9.8063,0.0473,0.3203,-0.0453,1.0,-32.06,32.0,7.73,-82.99,-175.06
235,52.023693,-0.736072,131.14,11.23,3,243.87,18 / 21,5316811,2020-01-08 11:44:23:485,1.2227,1.1077,7.9776,0.044,0.003,9.8065,-0.2927,0.4472,-0.3056,0.63,-32.12,31.31,6.46,-82.73,-176.28
236,52.023693,-0.736072,131.14,11.23,3,243.87,18 / 21,5316910,2020-01-08 11:44:23:584,-2.5523,-2.3391,11.8933,0.0684,0.062,9.8061,0.046,-0.0301,-0.2695,0.88,-31.69,31.75,3.56,-82.92,-178.7
237,52.023693,-0.736072,131.14,11.23,3,243.87,18 / 21,5317011,2020-01-08 11:44:23:685,-1.0521,-0.5294,9.5718,0.0071,-0.0093,9.8065,-0.0996,0.2001,0.1223,1.25,-31.62,31.38,4.81,-82.73,-177.7
238,52.023693,-0.736072,131.14,11.23,3,243.87,18 / 21,5317110,2020-01-08 11:44:23:784,3.46,-0.4425,9.1461,-0.0075,0.0313,9.8066,0.0054,-0.4677,0.3139,0.81,-31.94,31.69,2.37,-82.73,-179.74
239,52.023693,-0.736072,131.14,11.23,3,243.87,18 / 21,5317211,2020-01-08 11:44:23:885,4.1115,-0.7503,8.5946,-0.0711,0.0054,9.8064,-0.1261,-0.0167,0.0515,1.13,-32.19,31.94,3.37,-82.67,-178.88
240,52.023693,-0.736072,131.14,11.23,3,243.87,18 / 20,5317311,2020-01-08 11:44:23:985,0.7737,0.2917,9.9251,0.0133,0.0158,9.8066,0.1199,-0.3303,0.1455,1.19,-32.12,31.94,0.02,-82.64,178.23
241,52.023693,-0.736072,131.14,11.23,3,243.87,18 / 20,5317410,2020-01-08 11:44:24:084,-2.1732,-1.1177,11.5231,-0.0096,-0.0637,9.8064,0.1326,-0.2563,0.0573,1.69,-32.69,31.75,1.5,-82.91,177.72
242,52.023693,-0.736072,131.14,11.23,3,243.87,18 / 20,5317511,2020-01-08 11:44:24:185,-0.5862,-0.204,10.5554,-0.0265,-0.0221,9.8066,0.1783,-0.2973,0.2328,0.88,-32.0,30.63,0.16,-82.74,178.29
243,52.023693,-0.736072,131.14,11.23,3,243.87,18 / 20,5317610,2020-01-08 11:44:24:284,-1.9675,1.3541,8.8203,-0.0177,-0.0084,9.8066,-0.1338,-0.49,0.1314,1.19,-32.12,31.38,357.59,-82.94,176.07
244,52.023693,-0.736072,131.14,11.23,3,243.87,18 / 20,5317711,2020-01-08 11:44:24:385,4.5231,-0.9185,9.7609,-0.0531,0.0137,9.8065,-0.1233,-0.0847,0.0914,0.81,-31.75,31.44,359.65,-82.9,177.85
245,52.023693,-0.736072,131.14,11.23,3,243.87,18 / 20,5317811,2020-01-08 11:44:24:485,-2.9933,0.8764,9.2003,-0.0346,0.0304,9.8065,0.0283,-0.5387,0.3081,1.5,-31.69,31.38,1.03,-82.8,177.2
246,52.023693,-0.736072,131.14,11.23,3,243.87,18 / 20,5317911,2020-01-08 11:44:24:585,-1.4182,-1.4191,12.9101,-0.0805,-0.0116,9.8062,-0.3267,-0.1727,0.229,1.5,-31.19,31.44,2.18,-82.59,178.19
247,52.023693,-0.736072,131.14,11.23,3,243.87,18 / 20,5318010,2020-01-08 11:44:24:684,-0.0306,0.1381,8.774,-0.0652,0.1207,9.8056,-0.5015,-0.2599,0.2393,1.44,-31.94,30.88,359.26,-83.08,177.51
248,52.023693,-0.736072,131.14,11.23,3,243.87,18 / 20,5318110,2020-01-08 11:44:24:784,0.1815,0.1046,11.2405,-0.0104,0.1048,9.806,-0.1081,0.0102,-0.0516,0.81,-32.12,30.94,357.64,-82.29,176.14
249,52.023693,-0.736072,131.14,11.23,3,243.87,19 / 20,5318211,2020-01-08 11:44:24:885,0.5717,-0.9214,10.447,-0.0164,-0.0448,9.8064,0.1015,0.1204,0.0094,1.0,-32.0,31.25,359.19,-82.59,177.46
250,52.023693,-0.736072,131.14,11.23,3,243.87,19 / 20,5318311,2020-01-08 11:44:24:985,-1.8746,0.5902,7.9703,0.036,-0.0248,9.8065,0.1727,-0.1345,-0.1182,1.13,-31.94,30.63,357.89,-82.78,176.33
251,52.023693,-0.736072,131.14,11.23,3,243.87,19 / 20,5318411,2020-01-08 11:44:25:085,-1.1294,-0.1913,10.4775,0.0012,-0.0155,9.8066,0.2673,0.1936,-0.0205,1.06,-32.19,30.94,359.09,-82.92,177.37
252,52.023693,-0.736072,131.14,11.23,3,243.87,19 / 20,5318511,2020-01-08 11:44:25:185,-2.3247,1.1785,7.9384,0.0367,-0.0705,9.8062,-0.1671,-0.1941,0.1858,1.06,-32.44,30.56,356.47,-82.87,175.1
253,52.023693,-0.736072,131.14,11.23,3,243.87,19 / 20,5318611,2020-01-08 11:44:25:285,-1.0446,0.491,9.7516,0.0024,0.0222,9.8065,0.011,-0.1629,-0.0754,1.56,-32.31,29.88,357.95,-83.03,174.42
254,52.023693,-0.736072,131.14,11.23,3,243.87,19 / 20,5318711,2020-01-08 11:44:25:385,1.8921,-0.5894,10.4376,-0.0206,0.0013,9.8066,0.0006,-0.0499,0.0613,1.88,-32.0,30.44,358.03,-82.99,174.48
255,52.023693,-0.736072,131.14,11.23,3,243.87,19 / 20,5318811,2020-01-08 11:44:25:485,-2.6208,0.6451,9.6536,-0.0083,0.0192,9.8065,-0.1261,-0.2501,0.1612,1.88,-31.87,30.69,356.74,-82.86,173.49
256,52.023693,-0.736072,131.14,11.23,3,243.87,19 / 20,5318911,2020-01-08 11:44:25:585,0.821,-1.6983,11.1057,-0.0292,0.0088,9.8065,-0.2107,-0.0916,0.1089,1.75,-32.06,31.25,357.01,-82.82,173.73
257,52.023693,-0.736072,131.14,11.23,3,243.87,19 / 20,5319011,2020-01-08 11:44:25:685,-0.2372,-0.5459,9.6228,-0.0117,0.0099,9.8066,0.0943,-0.1164,-0.0166,2.06,-31.69,30.81,355.29,-82.7,172.25
258,52.023693,-0.736072,131.14,11.23,3,243.87,19 / 20,5319111,2020-01-08 11:44:25:785,-1.06,-0.8548,10.4624,0.0126,-0.029,9.8065,-0.0962,0.1439,-0.0743,1.75,-32.0,30.94,355.38,-82.57,172.34
259,52.023693,-0.736072,131.14,11.23,3,243.87,19 / 20,5319210,2020-01-08 11:44:25:884,-0.305,0.0039,10.1305,0.0192,0.0128,9.8066,-0.0498,0.0182,-0.0542,1.75,-31.69,31.0,355.86,-82.63,172.75
260,52.023693,-0.736072,131.14,11.23,3,243.87,19 / 20,5319310,2020-01-08 11:44:25:984,-0.2146,0.5048,9.5474,-0.0105,0.0119,9.8066,-0.1295,-0.0212,0.1251,2.06,-31.56,30.5,355.72,-82.67,172.62
261,52.023693,-0.736072,131.14,11.23,3,243.87,19 / 20,5319411,2020-01-08 11:44:26:085,-1.2515,1.213,9.3209,-0.024,0.0179,9.8065,0.0707,-0.0639,-0.0716,1.13,-31.81,30.75,352.84,-82.65,171.99
262,52.023693,-0.736072,131.14,11.23,3,243.87,19 / 20,5319511,2020-01-08 11:44:26:185,-1.8565,0.0359,10.4737,0.0059,-0.0182,9.8066,-0.113,0.2544,-0.1873,1.88,-31.37,30.44,356.45,-82.69,173.13
263,52.023693,-0.736072,131.14,11.23,3,243.87,19 / 20,5319611,2020-01-08 11:44:26:285,-3.1036,0.4017,10.5081,0.036,0.0205,9.8065,-0.0696,-0.0693,0.1819,2.38,-32.0,30.69,356.7,-82.81,173.46
264,52.023693,-0.736072,131.14,11.23,3,243.87,19 / 20,5319711,2020-01-08 11:44:26:385,-0.8458,0.832,9.224,-0.0323,-0.0082,9.8065,-0.0281,0.1007,0.14,1.44,-31.69,30.44,355.1,-82.68,173.89
265,52.023693,-0.736072,131.14,11.23,3,243.87,19 / 20,5319811,2020-01-08 11:44:26:485,2.3004,1.3963,9.0003,0.0147,0.0217,9.8065,-0.13,0.1987,-0.2755,1.81,-31.62,30.44,356.0,-82.62,172.77
266,52.023693,-0.736072,131.14,11.23,3,243.87,19 / 20,5319911,2020-01-08 11:44:26:585,-4.3033,1.162,10.505,0.0329,0.0085,9.8066,-0.0649,0.3296,-0.4079,1.31,-31.69,30.56,354.55,-82.58,173.47
267,52.023693,-0.736072,131.14,11.23,3,243.87,19 / 20,5320011,2020-01-08 11:44:26:685,0.3902,-0.9324,10.3591,0.0272,0.0009,9.8066,0.1322,0.2964,-0.0007,1.44,-32.0,30.69,354.61,-82.54,173.53
268,52.023693,-0.736072,131.14,11.23,3,243.87,19 / 20,5320110,2020-01-08 11:44:26:784,-4.6577,1.9016,8.5343,0.0423,-0.0341,9.8064,-0.0493,0.039,0.0697,1.5,-32.06,30.94,355.62,-82.49,172.55
269,52.023693,-0.736072,131.14,11.23,3,243.87,19 / 19,5320211,2020-01-08 11:44:26:885,4.0831,0.4429,10.6257,0.0219,0.0038,9.8065,0.0902,0.4941,-0.3964,1.88,-32.12,31.13,356.26,-82.68,173.09
270,52.0228,-0.737353,132.8,15.6,3,219.87,19 / 19,5320311,2020-01-08 11:44:26:985,0.2874,-0.7647,10.5093,0.0538,-0.0272,9.8064,-0.0829,-0.3713,0.2772,1.44,-32.69,30.5,353.15,-82.57,172.3
271,52.0228,-0.737353,132.8,15.6,3,219.87,19 / 19,5320410,2020-01-08 11:44:27:084,4.6927,-0.5686,9.0923,-0.0549,0.0243,9.8064,-0.1006,0.1597,-0.1347,1.44,-33.0,30.88,356.03,-82.82,174.74
272,52.0228,-0.737353,132.8,15.6,3,219.87,19 / 19,5320511,2020-01-08 11:44:27:185,0.7048,-0.8795,10.3732,-0.0048,0.0121,9.8066,0.0674,-0.5016,0.2762,1.38,-32.81,30.75,357.52,-82.81,176.02
273,52.0228,-0.737353,132.8,15.6,3,219.87,19 / 19,5320611,2020-01-08 11:44:27:285,-5.8119,0.1767,10.2645,-0.0774,-0.0072,9.8062,-0.0498,-0.3191,0.3631,1.5,-32.69,30.5,1.78,-82.82,177.83
274,52.0228,-0.737353,132.8,15.6,3,219.87,19 / 19,5320711,2020-01-08 11:44:27:385,-1.7818,-0.4235,10.4404,-0.0516,0.0129,9.8064,0.0585,-0.5324,0.4889,1.63,-32.44,30.25,5.35,-82.89,-179.21
275,52.0228,-0.737353,132.8,15.6,3,219.87,19 / 19,5320811,2020-01-08 11:44:27:485,-2.5402,0.3488,10.4727,-0.0386,0.0031,9.8065,-0.03,-0.7315,0.2274,1.25,-31.75,30.13,1.55,-82.85,179.42
276,52.0228,-0.737353,132.8,15.6,3,219.87,19 / 19,5320911,2020-01-08 11:44:27:585,7.0742,0.2425,9.1793,-0.0921,-0.0204,9.8062,-0.2083,-0.2778,0.1614,1.06,-32.19,30.31,4.92,-82.61,-177.7
277,52.0228,-0.737353,132.8,15.6,3,219.87,19 / 19,5321011,2020-01-08 11:44:27:685,-4.9787,2.4336,7.875,-0.0958,0.0797,9.8058,-0.1477,-0.5725,0.6332,1.5,-32.37,30.94,2.87,-82.36,178.76
278,52.0228,-0.737353,132.8,15.6,3,219.87,19 / 19,5321111,2020-01-08 11:44:27:785,0.1697,-1.2786,12.3909,-0.0654,0.0329,9.8063,-0.3137,0.18,0.0874,0.81,-33.0,30.75,4.55,-82.61,-177.96
279,52.0228,-0.737353,132.8,15.6,3,219.87,19 / 19,5321211,2020-01-08 11:44:27:885,-4.6218,0.893,10.1267,0.0115,0.1131,9.8059,-0.3851,-0.3607,0.1685,0.88,-33.37,30.25,5.81,-82.44,-176.99
280,52.0228,-0.737353,132.8,15.6,3,219.87,19 / 19,5321311,2020-01-08 11:44:27:985,1.0487,-0.2288,10.8104,-0.0833,0.078,9.8059,-0.1587,0.0352,0.1034,0.81,-32.37,30.31,9.61,-82.93,-173.62
281,52.0228,-0.737353,132.8,15.6,3,219.87,19 / 19,5321410,2020-01-08 11:44:28:084,-0.6522,0.4057,10.0295,-0.047,0.0096,9.8065,-0.1188,-0.1287,0.2143,1.13,-33.25,30.5,11.35,-82.91,-172.06
282,52.0228,-0.737353,132.8,15.6,3,219.87,19 / 19,5321511,2020-01-08 11:44:28:185,0.5046,-0.8721,10.4132,0.0293,0.0057,9.8065,-0.1121,0.7034,-0.2934,1.19,-33.25,30.0,10.62,-82.87,-172.81
283,52.0228,-0.737353,132.8,15.6,3,219.87,19 / 19,5321611,2020-01-08 11:44:28:285,4.5649,-1.6931,8.2691,0.1046,0.0331,9.806,-0.1425,0.5272,-0.3452,0.63,-32.25,29.56,16.72,-82.56,-167.6
284,52.0228,-0.737353,132.8,15.6,3,219.87,19 / 19,5321710,2020-01-08 11:44:28:384,-6.2182,1.5373,9.1654,0.0076,0.0345,9.8065,-0.0197,0.2785,0.2204,0.44,-32.87,30.56,13.43,-82.95,-168.4
285,52.0228,-0.737353,132.8,15.6,3,219.87,19 / 19,5321811,2020-01-08 11:44:28:485,0.1237,2.086,8.4119,0.0144,0.0428,9.8065,-0.1936,0.2789,-0.4694,0.81,-32.94,29.63,16.88,-83.25,-167.29
286,52.0228,-0.737353,132.8,15.6,3,219.87,19 / 19,5321911,2020-01-08 11:44:28:585,1.1572,-0.1811,12.1804,0.0278,-0.0159,9.8065,-0.022,-0.1424,0.1486,1.06,-33.06,29.75,17.96,-82.83,-166.5
287,52.0228,-0.737353,132.8,15.6,3,219.87,19 / 19,5322011,2020-01-08 11:44:28:685,1.251,-1.3782,10.0165,-0.0114,-0.0211,9.8065,0.0408,0.0438,-0.2314,1.44,-32.81,30.5,15.25,-82.38,-168.85
288,52.0228,-0.737353,132.8,15.6,3,219.87,19 / 19,5322111,2020-01-08 11:44:28:785,-1.222,-0.0519,9.7042,0.0369,0.0053,9.8065,-0.0357,-0.1085,-0.0051,1.38,-32.75,30.0,14.09,-82.3,-170.0
289,52.0228,-0.737353,132.8,15.6,3,219.87,19 / 20,5322211,2020-01-08 11:44:28:885,-1.4629,-0.5596,10.7457,0.0086,-0.0214,9.8066,0.1328,-0.0473,-0.0227,1.06,-33.06,30.44,14.93,-82.53,-169.21
290,52.0228,-0.737353,132.8,15.6,3,219.87,19 / 20,5322311,2020-01-08 11:44:28:985,-0.855,0.7824,8.0171,0.0298,-0.0497,9.8064,0.1487,-0.0568,-0.0773,0.81,-33.0,29.38,12.07,-82.52,-171.77
291,52.0228,-0.737353,132.8,15.6,3,219.87,19 / 20,5322410,2020-01-08 11:44:29:084,-0.2734,0.5518,9.1778,0.0401,-0.0231,9.8065,0.126,-0.1956,-0.059,1.38,-32.62,29.38,10.84,-82.72,-172.77
292,52.0228,-0.737353,132.8,15.6,3,219.87,19 / 20,5322511,2020-01-08 11:44:29:185,0.1489,0.9337,9.7639,-0.0033,-0.0178,9.8066,0.0387,0.1278,0.0798,2.0,-32.31,29.31,9.26,-82.74,-176.04
293,52.0228,-0.737353,132.8,15.6,3,219.87,19 / 20,5322610,2020-01-08 11:44:29:284,0.119,0.7435,9.7186,0.0265,-0.0057,9.8066,0.0097,-0.1208,-0.1869,2.19,-32.37,29.13,7.14,-82.87,-177.83
294,52.0228,-0.737353,132.8,15.6,3,219.87,19 / 20,5322711,2020-01-08 11:44:29:385,-1.2147,0.1805,9.5218,-0.0183,0.001,9.8066,0.054,0.072,-0.1464,2.0,-33.19,29.13,8.28,-82.84,-176.89
295,52.0228,-0.737353,132.8,15.6,3,219.87,19 / 20,5322812,2020-01-08 11:44:29:486,1.7192,-1.4546,10.6943,0.0121,-0.0143,9.8066,-0.0417,-0.088,0.0804,2.31,-33.19,29.44,6.62,-82.89,-178.3
296,52.0228,-0.737353,132.8,15.6,3,219.87,19 / 20,5322911,2020-01-08 11:44:29:585,-1.693,-0.3687,11.0137,0.0178,0.0424,9.8065,-0.0356,0.2678,-0.2867,2.5,-32.56,29.69,7.84,-83.11,-178.95
297,52.0228,-0.737353,132.8,15.6,3,219.87,19 / 20,5323011,2020-01-08 11:44:29:685,1.7302,1.7347,8.2801,0.0254,0.0126,9.8066,-0.1923,0.2863,-0.0682,2.44,-32.69,29.44,4.33,-83.06,179.76
298,52.0228,-0.737353,132.8,15.6,3,219.87,19 / 20,5323111,2020-01-08 11:44:29:785,-1.6738,-0.4111,10.48,0.0349,0.0439,9.8064,0.0608,-0.2802,0.1177,2.56,-32.37,28.5,3.39,-83.29,177.03
299,52.0228,-0.737353,132.8,15.6,3,219.87,19 / 20,5323211,2020-01-08 11:44:29:885,-0.0622,-0.6668,11.0798,-0.039,-0.0316,9.8064,0.1213,0.0154,0.0137,2.63,-32.56,28.81,2.56,-83.3,176.3
300,52.0228,-0.737353,132.8,15.6,3,219.87,20 / 20,5323313,2020-01-08 11:44:29:987,1.8108,1.2114,8.7546,0.0072,-0.0389,9.8065,0.1168,-0.2289,0.0907,3.06,-32.12,28.69,3.66,-83.02,177.24
301,52.0228,-0.737353,132.8,15.6,3,219.87,20 / 20,5323412,2020-01-08 11:44:30:086,-3.1037,0.93,9.474,-0.0063,-0.0505,9.8065,0.0701,-0.6138,0.1531,2.44,-32.69,29.38,3.0,-82.89,178.61
302,52.0228,-0.737353,132.8,15.6,3,219.87,20 / 20,5323511,2020-01-08 11:44:30:185,8.706,1.0079,7.002,-0.1128,-0.0258,9.8059,0.1219,-0.0084,-0.0598,2.88,-33.0,29.06,9.38,-83.01,-177.88
303,52.0228,-0.737353,132.8,15.6,3,219.87,20 / 20,5323611,2020-01-08 11:44:30:285,1.8054,-0.464,9.8968,0.0078,0.0115,9.8065,0.1267,-0.5361,0.3591,2.5,-32.81,29.0,4.45,-83.1,177.91
304,52.0228,-0.737353,132.8,15.6,3,219.87,20 / 20,5323710,2020-01-08 11:44:30:384,0.2956,-0.4233,11.1359,-0.0238,-0.0205,9.8066,-0.1829,0.9192,-0.6189,2.63,-32.81,29.44,3.7,-83.1,177.27
305,52.0228,-0.737353,132.8,15.6,3,219.87,20 / 20,5323811,2020-01-08 11:44:30:485,0.6913,1.22,8.7811,0.0293,-0.0434,9.8064,-0.2181,0.204,0.0128,2.94,-32.44,29.31,359.65,-82.98,173.79
306,52.0228,-0.737353,132.8,15.6,3,219.87,20 / 20,5323911,2020-01-08 11:44:30:585,-4.9375,2.2566,10.2848,-0.0491,-0.0001,9.8065,0.0853,0.662,-0.3186,2.81,-32.12,29.06,0.35,-83.0,174.4
307,52.0228,-0.737353,132.8,15.6,3,219.87,20 / 20,5324011,2020-01-08 11:44:30:685,1.6761,0.8243,7.5678,-0.0305,-0.0407,9.8064,-0.0235,0.5837,-0.3446,2.81,-32.19,28.44,2.31,-82.74,175.85
308,52.0228,-0.737353,132.8,15.6,3,219.87,20 / 20,5324111,2020-01-08 11:44:30:785,-1.7524,1.8412,9.8641,-0.0396,0.0816,9.8061,0.1729,0.1394,-0.11,2.06,-32.25,28.44,359.96,-83.11,175.88
309,52.0228,-0.737353,132.8,15.6,3,219.87,20 / 20,5324211,2020-01-08 11:44:30:885,2.0643,-0.0269,10.1462,-0.0512,0.0195,9.8065,0.0961,0.3704,-0.3184,2.88,-32.75,28.94,1.76,-82.96,175.6
310,52.0228,-0.737353,132.8,15.6,3,219.87,19 / 21,5324311,2020-01-08 11:44:30:985,-1.702,1.1984,9.782,-0.0349,0.0216,9.8065,0.0618,-0.1343,-0.0742,2.63,-32.75,28.38,1.99,-82.99,175.58
311,52.0228,-0.737353,132.8,15.6,3,219.87,19 / 21,5324411,2020-01-08 11:44:31:085,-2.5725,1.4983,11.4146,-0.0194,0.03,9.8065,0.2247,0.1843,0.0764,2.81,-33.0,28.88,2.2,-83.01,175.97
312,52.0228,-0.737353,132.8,15.6,3,219.87,19 / 21,5324511,2020-01-08 11:44:31:185,0.0777,3.0517,6.8959,0.0321,-0.0382,9.8065,-0.3842,-0.0831,0.1338,2.38,-33.06,28.69,2.57,-83.03,178.26
313,52.0228,-0.737353,132.8,15.6,3,219.87,19 / 21,5324610,2020-01-08 11:44:31:284,0.2578,2.6098,9.3663,-0.0023,-0.0087,9.8066,-0.0892,0.0459,0.0689,1.69,-33.81,27.75,0.86,-82.93,176.64
