,GPS LATITUDE (degrees), GPS LONGITUDE (degrees), GPS ALTITUDE (m), GPS SPEED (Kmh), GPS ACCURACY (m), GPS ORIENTATION (Â°),GPS SATELLITES IN RANGE, TIME SINCE START (ms), DATE (YYYY-MO-DD HH-MI-SS_SSS), ACCELEROMETER X (m/s²) , ACCELEROMETER Y (m/s²), ACCELEROMETER Z (m/s²), GRAVITY X (m/s²), GRAVITY Y (m/s²), GRAVITY Z (m/s²), GYROSCOPE Yaw (rad/s), GYROSCOPE Pitch (rad/s), GYROSCOPE Roll (rad/s), MAGNETIC FIELD X (Î¼T), MAGNETIC FIELD Y (Î¼T), MAGNETIC FIELD Z (Î¼T), ORIENTATION (Yaw) (Â°), ORIENTATION (Pitch) (Â°), ORIENTATION (Roll ) (Â°)
0,52.7604,-1.679327,118.64,7.44,8,319.84,20 / 23,2683922,2019-11-06 11:26:31:265,-0.7051,-3.3675,9.1395,0.0002,-0.0139,9.8065,-0.1068,0.2033,-0.1724,-3.56,-36.75,-1.56,174.79,-81.21,104.83
1,52.760456,-1.679398,118.13,5.22,6,319.47,20 / 23,2684020,2019-11-06 11:26:31:363,-0.5147,-0.6964,9.7976,-0.0366,-0.008,9.8066,0.0057,0.2644,-0.0492,-2.94,-36.81,-1.56,174.79,-81.21,104.83
2,52.760456,-1.679398,118.13,5.22,6,319.47,20 / 23,2684119,2019-11-06 11:26:31:462,-2.588,-0.4131,9.6361,-0.0636,-0.0004,9.8064,-0.0753,-0.1448,0.1564,-3.44,-36.5,-0.62,177.8,-81.18,102.42
3,52.760456,-1.679398,118.13,5.22,6,319.47,20 / 23,2684220,2019-11-06 11:26:31:563,-1.8539,-2.6064,10.0556,-0.0658,-0.0273,9.8064,0.0249,-0.2293,0.0062,-4.25,-35.75,-1.31,178.18,-81.31,99.83
4,52.760456,-1.679398,118.13,5.22,6,319.47,20 / 23,2684320,2019-11-06 11:26:31:663,-1.424,-3.7328,10.3426,-0.027,0.0532,9.8064,0.0342,-0.0474,0.0744,-4.12,-35.75,-1.62,178.18,-81.31,99.83
5,52.760456,-1.679398,118.13,5.22,6,319.47,20 / 23,2684420,2019-11-06 11:26:31:763,-0.5185,-1.4524,9.2009,0.0161,-0.0108,9.8065,0.0207,0.0578,-0.1124,-5.0,-36.12,-1.31,178.84,-80.99,98.89
6,52.760456,-1.679398,118.13,5.22,6,319.47,20 / 23,2684519,2019-11-06 11:26:31:862,-1.9153,0.2706,9.2805,0.0244,-0.0185,9.8066,-0.1406,0.2538,-0.0784,-5.0,-36.19,-1.31,179.55,-81.15,100.37
7,52.760456,-1.679398,118.13,5.22,6,319.47,20 / 23,2684620,2019-11-06 11:26:31:963,-1.6844,0.2751,8.5046,0.0481,-0.0186,9.8064,0.1589,-0.192,0.0817,-5.0,-36.37,-1.06,180.44,-81.26,102.21
8,52.760456,-1.679398,118.13,5.22,6,319.47,20 / 23,2684720,2019-11-06 11:26:32:063,-4.6777,-2.1169,7.709,0.0,-0.019,9.8066,-0.0732,-0.2497,0.2487,-5.06,-36.44,-0.94,180.44,-81.26,102.21
9,52.760456,-1.679398,118.13,5.22,6,319.47,20 / 23,2684820,2019-11-06 11:26:32:163,-0.4208,-12.0548,10.5339,-0.0754,-0.0153,9.8063,-0.1264,0.0322,0.261,-5.69,-36.87,-0.56,181.81,-81.71,102.83
10,52.760456,-1.679398,118.13,5.22,6,319.47,20 / 23,2684920,2019-11-06 11:26:32:263,-2.1257,-4.4633,9.4337,-0.0444,0.0341,9.8065,0.1729,0.4696,-0.3015,-5.5,-37.06,-1.87,173.2,-81.96,98.54
11,52.760494,-1.679452,117.76,4.54,6,320.21,20 / 23,2685020,2019-11-06 11:26:32:363,-3.1103,0.5794,8.5015,-0.0378,0.0397,9.8064,-0.1573,-0.0345,0.1147,-5.12,-36.37,-2.25,173.2,-81.96,98.54
12,52.760494,-1.679452,117.76,4.54,6,320.21,20 / 23,2685120,2019-11-06 11:26:32:463,-1.687,-3.7883,9.2882,-0.0251,0.0947,9.8061,0.0987,0.1549,-0.253,-5.25,-36.62,-1.0,173.74,-81.67,99.37
13,52.760494,-1.679452,117.76,4.54,6,320.21,20 / 23,2685220,2019-11-06 11:26:32:563,-0.6266,-6.568,8.426,0.0341,-0.0682,9.8063,0.0593,-0.6014,0.4045,-5.81,-36.44,-1.06,180.03,-80.77,99.53
14,52.760494,-1.679452,117.76,4.54,6,320.21,20 / 23,2685320,2019-11-06 11:26:32:663,-4.1865,2.1924,9.7547,0.0638,-0.1788,9.8047,0.2845,-0.4073,0.2252,-5.75,-35.87,-0.87,181.47,-81.81,102.15
15,52.760494,-1.679452,117.76,4.54,6,320.21,20 / 23,2685420,2019-11-06 11:26:32:763,-0.234,-0.6181,9.8771,0.1568,-0.1593,9.804,0.0774,0.3041,-0.1984,-6.25,-37.0,0.13,181.47,-81.81,102.15
16,52.760494,-1.679452,117.76,4.54,6,320.21,20 / 23,2685520,2019-11-06 11:26:32:863,-0.5435,-3.639,8.451,-0.0225,0.089,9.8062,-0.2878,1.0739,-0.5438,-5.75,-36.69,-0.37,191.53,-82.45,110.76
17,52.760494,-1.679452,117.76,4.54,6,320.21,20 / 23,2685620,2019-11-06 11:26:32:963,0.1849,-7.5295,8.5654,-0.049,0.1657,9.8051,0.023,0.407,-0.4145,-6.19,-36.69,-0.19,189.25,-81.55,107.53
18,52.760494,-1.679452,117.76,4.54,6,320.21,20 / 23,2685720,2019-11-06 11:26:33:063,0.1859,0.8418,9.2484,-0.0214,0.0694,9.8064,0.0855,-0.7003,0.3065,-5.62,-36.81,-1.06,189.25,-81.55,107.53
19,52.760494,-1.679452,117.76,4.54,6,320.21,20 / 23,2685820,2019-11-06 11:26:33:163,-4.0573,3.3102,8.8725,0.0217,-0.042,9.8065,0.188,-0.3647,0.2222,-5.06,-35.94,-0.87,182.41,-81.17,106.3
20,52.760494,-1.679452,117.76,4.54,6,320.21,20 / 23,2685920,2019-11-06 11:26:33:263,-0.7737,0.1512,9.5647,0.0178,-0.0676,9.8064,-0.1063,0.1636,-0.1109,-5.62,-36.0,-0.81,184.13,-81.56,107.13
21,52.760532,-1.679493,117.74,4.18,6,320.49,20 / 24,2686020,2019-11-06 11:26:33:363,0.806,-5.599,9.1331,-0.048,0.0172,9.8064,-0.0342,0.4878,-0.2417,-4.87,-36.12,-1.06,184.13,-81.56,107.13
22,52.760532,-1.679493,117.74,4.18,6,320.49,20 / 24,2686120,2019-11-06 11:26:33:463,0.4886,-5.4918,8.9947,-0.0098,-0.0717,9.8064,0.0332,-0.0786,0.0986,-5.81,-36.75,-1.37,181.91,-81.47,105.19
23,52.760532,-1.679493,117.74,4.18,6,320.49,20 / 24,2686220,2019-11-06 11:26:33:563,-0.8244,-1.2089,9.6201,0.0084,0.0342,9.8065,0.0772,-0.2821,0.053,-5.87,-36.94,-1.25,183.14,-81.73,105.32
24,52.760532,-1.679493,117.74,4.18,6,320.49,20 / 24,2686320,2019-11-06 11:26:33:663,-0.465,1.2332,10.0698,0.0048,0.0364,9.8065,-0.0002,-0.137,0.0873,-5.31,-36.5,-1.0,182.05,-81.33,105.51
25,52.760532,-1.679493,117.74,4.18,6,320.49,20 / 24,2686420,2019-11-06 11:26:33:763,-1.739,-0.3793,10.0081,0.0007,0.054,9.8064,0.0567,0.1506,-0.1485,-4.56,-36.19,-0.81,182.05,-81.33,105.51
26,52.760532,-1.679493,117.74,4.18,6,320.49,20 / 24,2686520,2019-11-06 11:26:33:863,0.2351,-2.5928,10.4209,-0.0063,-0.0023,9.8066,-0.0799,0.1249,-0.017,-4.81,-36.12,-1.75,182.09,-80.88,105.72
27,52.760532,-1.679493,117.74,4.18,6,320.49,20 / 24,2686621,2019-11-06 11:26:33:964,-0.3901,-2.1036,9.624,-0.0107,-0.0093,9.8066,-0.0016,-0.1296,0.0784,-4.94,-37.0,-2.0,176.58,-80.91,104.71
28,52.760532,-1.679493,117.74,4.18,6,320.49,20 / 24,2686720,2019-11-06 11:26:34:063,0.2116,-1.478,9.9634,0.0013,-0.0291,9.8065,0.0564,-0.165,0.1262,-4.81,-37.12,-1.87,176.58,-80.91,104.71
29,52.760532,-1.679493,117.74,4.18,6,320.49,20 / 24,2686820,2019-11-06 11:26:34:163,0.181,-0.3419,9.8549,0.0,-0.0151,9.8065,0.0096,-0.0423,0.0323,-5.12,-36.62,-2.19,174.77,-81.08,104.69
30,52.760532,-1.679493,117.74,4.18,6,320.49,20 / 24,2686920,2019-11-06 11:26:34:263,0.4061,-1.1899,9.6867,-0.0093,0.0149,9.8065,0.0083,0.1639,-0.1392,-4.56,-36.81,-1.81,176.51,-81.18,104.67
31,52.76056,-1.679527,117.71,3.92,6,320.49,21 / 23,2687020,2019-11-06 11:26:34:363,0.5584,-2.1044,9.2596,-0.0055,0.0329,9.8066,0.0391,0.1211,-0.0682,-5.0,-36.62,-1.56,176.48,-80.98,104.54
32,52.76056,-1.679527,117.71,3.92,6,320.49,21 / 23,2687120,2019-11-06 11:26:34:463,-0.7628,-1.3494,9.6471,-0.0004,0.0291,9.8066,-0.0194,-0.0237,-0.02,-5.0,-36.5,-1.19,176.48,-80.98,104.54
33,52.76056,-1.679527,117.71,3.92,6,320.49,21 / 23,2687220,2019-11-06 11:26:34:563,0.2208,-0.8165,9.9132,0.0038,0.0143,9.8066,0.0483,-0.0837,0.1114,-4.62,-37.31,-1.06,181.6,-80.9,104.72
34,52.76056,-1.679527,117.71,3.92,6,320.49,21 / 23,2687320,2019-11-06 11:26:34:663,1.3234,-1.2907,9.4467,-0.0307,-0.0259,9.8065,-0.0303,-0.1022,0.066,-4.5,-36.19,-1.19,179.81,-81.05,103.59
35,52.76056,-1.679527,117.71,3.92,6,320.49,21 / 23,2687420,2019-11-06 11:26:34:763,1.3541,-2.1815,9.1255,-0.0311,-0.0169,9.8065,-0.0362,0.0326,-0.0393,-4.62,-36.19,-0.62,179.81,-81.05,103.59
36,52.76056,-1.679527,117.71,3.92,6,320.49,21 / 23,2687520,2019-11-06 11:26:34:863,0.0313,-2.1022,9.9341,-0.0281,0.0056,9.8066,-0.0489,0.1909,-0.1888,-4.87,-37.0,-1.0,180.53,-81.15,102.41
37,52.76056,-1.679527,117.71,3.92,6,320.49,21 / 23,2687621,2019-11-06 11:26:34:964,-0.3949,-1.6925,10.0109,-0.0379,0.0258,9.8065,-0.0329,0.0926,-0.0413,-3.69,-36.75,-1.44,178.52,-81.02,100.51
38,52.76056,-1.679527,117.71,3.92,6,320.49,21 / 23,2687720,2019-11-06 11:26:35:063,-0.9833,-0.3602,10.1611,-0.0737,0.0803,9.806,0.0278,-0.0907,0.0708,-4.12,-36.37,-1.62,171.96,-80.53,97.97
39,52.76056,-1.679527,117.71,3.92,6,320.49,21 / 23,2687819,2019-11-06 11:26:35:162,0.4236,-1.5495,9.3124,-0.0124,0.003,9.8066,-0.0204,-0.0427,-0.0124,-3.81,-36.37,-1.94,171.96,-80.53,97.97
40,52.76056,-1.679527,117.71,3.92,6,320.49,21 / 23,2687920,2019-11-06 11:26:35:263,0.2159,-3.1231,9.7674,0.0091,0.0121,9.8065,-0.006,0.0854,-0.0728,-4.25,-36.06,-2.12,171.77,-80.47,97.45
41,52.760597,-1.679567,117.39,4.5,6,321.0,21 / 22,2688020,2019-11-06 11:26:35:363,0.4744,-0.9894,9.7807,-0.0029,0.0247,9.8065,-0.0191,0.2267,-0.1332,-3.44,-35.62,-2.31,170.31,-80.28,97.65
42,52.760597,-1.679567,117.39,4.5,6,321.0,21 / 22,2688120,2019-11-06 11:26:35:463,0.5253,-3.2162,9.4403,0.0028,0.046,9.8065,-0.0055,-0.0965,0.0732,-3.5,-35.75,-1.94,170.31,-80.28,97.65
43,52.760597,-1.679567,117.39,4.5,6,321.0,21 / 22,2688220,2019-11-06 11:26:35:563,0.5376,-0.055,9.7631,-0.0026,0.0347,9.8065,0.0403,-0.175,0.0778,-3.5,-35.31,-1.5,170.77,-79.8,98.13
44,52.760597,-1.679567,117.39,4.5,6,321.0,21 / 22,2688320,2019-11-06 11:26:35:663,0.2599,2.118,9.6851,-0.0065,0.016,9.8066,-0.0279,-0.0256,0.0316,-3.06,-35.5,-2.06,170.61,-79.7,98.0
45,52.760597,-1.679567,117.39,4.5,6,321.0,21 / 22,2688420,2019-11-06 11:26:35:763,-1.3846,0.4416,10.4349,-0.0353,-0.0141,9.8065,-0.0309,0.1513,0.0304,-2.75,-35.94,-1.87,170.61,-79.7,98.0
46,52.760597,-1.679567,117.39,4.5,6,321.0,21 / 22,2688520,2019-11-06 11:26:35:863,-0.3906,-1.3941,9.2031,-0.0407,-0.0302,9.8064,-0.0602,0.2147,-0.0234,-2.31,-34.87,-1.81,170.33,-79.75,96.78
47,52.760597,-1.679567,117.39,4.5,6,321.0,21 / 22,2688620,2019-11-06 11:26:35:963,1.2707,-0.379,9.41,-0.0267,-0.0083,9.8066,-0.1062,0.0625,-0.0133,-3.25,-34.69,-1.56,169.52,-79.88,95.28
48,52.760597,-1.679567,117.39,4.5,6,321.0,21 / 22,2688720,2019-11-06 11:26:36:063,1.0148,0.8332,9.9611,-0.1218,-0.0358,9.8058,-0.0837,-0.0406,0.0829,-2.62,-34.94,-1.5,174.07,-79.93,91.06
49,52.760597,-1.679567,117.39,4.5,6,321.0,21 / 22,2688820,2019-11-06 11:26:36:163,0.4256,-0.005,10.3466,-0.0937,-0.0273,9.8061,-0.1184,-0.0547,0.0868,-2.31,-34.75,-1.69,174.07,-79.93,91.06
50,52.760597,-1.679567,117.39,4.5,6,321.0,21 / 22,2688920,2019-11-06 11:26:36:263,-0.0182,-1.8793,10.1139,-0.0221,-0.0273,9.8066,-0.0149,0.1397,-0.0568,-2.94,-33.87,-1.12,172.94,-80.01,87.82
51,52.760643,-1.679611,116.95,4.89,4,316.61,19 / 22,2689020,2019-11-06 11:26:36:363,0.0274,-1.1236,9.8236,0.0065,-0.0057,9.8065,-0.0293,0.2216,0.0031,-3.12,-34.12,-1.5,172.3,-80.28,86.77
52,52.760643,-1.679611,116.95,4.89,4,316.61,19 / 22,2689120,2019-11-06 11:26:36:463,-0.462,0.659,10.1571,0.0182,-0.0122,9.8066,-0.0341,0.0399,0.089,-3.62,-34.69,-1.12,172.3,-80.28,86.77
53,52.760643,-1.679611,116.95,4.89,4,316.61,19 / 22,2689220,2019-11-06 11:26:36:563,-0.7927,-0.2718,10.4407,0.0153,0.0099,9.8066,0.0005,0.0411,0.0143,-2.81,-33.69,-1.06,172.93,-80.37,87.29
54,52.760643,-1.679611,116.95,4.89,4,316.61,19 / 22,2689323,2019-11-06 11:26:36:666,-0.1641,-0.5458,9.9296,0.0213,0.0038,9.8066,0.0495,0.1361,0.0066,-3.5,-33.94,-0.56,173.03,-80.34,88.93
55,52.760643,-1.679611,116.95,4.89,4,316.61,19 / 22,2689420,2019-11-06 11:26:36:763,-0.3885,-0.5502,9.8222,0.0381,-0.0051,9.8065,-0.0213,0.1993,-0.0195,-3.25,-33.94,-0.06,173.03,-80.34,88.93
56,52.760643,-1.679611,116.95,4.89,4,316.61,19 / 22,2689520,2019-11-06 11:26:36:863,-0.6056,-0.2854,10.1024,0.0037,-0.0364,9.8065,-0.0222,0.1758,0.028,-3.25,-33.94,0.38,180.1,-80.4,90.23
57,52.760643,-1.679611,116.95,4.89,4,316.61,19 / 22,2689620,2019-11-06 11:26:36:963,-0.9722,-0.3079,9.939,0.0041,-0.0123,9.8066,-0.0355,0.2007,0.0031,-2.94,-34.31,0.81,186.87,-80.71,90.34
58,52.760643,-1.679611,116.95,4.89,4,316.61,19 / 22,2689720,2019-11-06 11:26:37:063,-0.3442,0.6401,10.1749,0.0207,-0.0107,9.8065,0.0503,0.2458,-0.0328,-2.94,-34.44,2.25,193.8,-80.76,91.13
59,52.760643,-1.679611,116.95,4.89,4,316.61,19 / 22,2689820,2019-11-06 11:26:37:163,-0.8835,0.2832,9.9358,-0.0096,-0.0093,9.8065,-0.0417,0.3544,-0.1096,-2.12,-35.25,1.88,193.8,-80.76,91.13
60,52.760643,-1.679611,116.95,4.89,4,316.61,19 / 22,2689920,2019-11-06 11:26:37:263,-0.4835,-0.1681,9.84,0.0127,0.0253,9.8065,-0.0151,0.2626,-0.023,-0.25,-35.62,1.81,188.6,-80.82,90.88
61,52.760666,-1.679654,116.68,4.51,6,307.12,20 / 22,2690020,2019-11-06 11:26:37:363,0.3151,0.4635,9.6617,0.0093,0.0129,9.8066,-0.0271,0.2402,0.048,0.0,-35.75,1.69,199.16,-80.74,91.14
62,52.760666,-1.679654,116.68,4.51,6,307.12,20 / 22,2690119,2019-11-06 11:26:37:462,0.1398,0.781,10.0017,-0.0193,-0.0578,9.8064,-0.0502,0.1817,0.0558,-0.75,-35.62,2.06,199.16,-80.74,91.14
63,52.760666,-1.679654,116.68,4.51,6,307.12,20 / 22,2690219,2019-11-06 11:26:37:562,-0.0021,-0.2756,10.1651,0.0172,-0.0631,9.8064,-0.009,0.2159,0.0078,-0.06,-36.31,3.0,208.55,-81.1,91.17
64,52.760666,-1.679654,116.68,4.51,6,307.12,20 / 22,2690320,2019-11-06 11:26:37:663,-0.6568,-0.213,9.7068,0.0323,-0.0754,9.8062,-0.0076,0.2462,0.0228,0.0,-36.5,3.5,217.83,-81.38,93.68
65,52.760666,-1.679654,116.68,4.51,6,307.12,20 / 22,2690420,2019-11-06 11:26:37:763,-0.7155,1.1381,9.3892,0.002,-0.0084,9.8066,-0.0241,0.2453,-0.0326,0.31,-36.0,3.13,210.07,-81.42,93.94
66,52.760666,-1.679654,116.68,4.51,6,307.12,20 / 22,2690520,2019-11-06 11:26:37:863,-0.4407,1.241,9.7109,-0.0178,-0.0318,9.8065,-0.025,0.2302,0.0556,0.44,-36.37,4.31,210.07,-81.42,93.94
67,52.760666,-1.679654,116.68,4.51,6,307.12,20 / 22,2690620,2019-11-06 11:26:37:963,-1.0059,0.3655,10.0872,-0.0214,-0.0385,9.8065,-0.0193,0.2546,0.0434,0.25,-36.56,4.19,217.97,-81.63,93.96
68,52.760666,-1.679654,116.68,4.51,6,307.12,20 / 22,2690720,2019-11-06 11:26:38:063,-1.9679,-1.384,10.1263,-0.0655,-0.1113,9.8057,0.0271,0.1322,0.112,-0.31,-36.37,4.75,228.75,-82.38,94.7
69,52.760666,-1.679654,116.68,4.51,6,307.12,20 / 22,2690820,2019-11-06 11:26:38:163,-1.7274,-0.4165,9.6327,-0.05,-0.0326,9.8065,-0.055,0.1331,0.0384,0.19,-36.12,4.94,228.75,-82.38,94.7
70,52.760666,-1.679654,116.68,4.51,6,307.12,20 / 22,2690920,2019-11-06 11:26:38:263,-1.4667,0.6281,10.0837,-0.0283,-0.0139,9.8066,-0.0053,0.0999,0.1057,0.31,-36.5,5.63,229.97,-82.72,94.32
71,52.76068,-1.679702,116.43,4.26,6,294.07,21 / 22,2691020,2019-11-06 11:26:38:363,-0.7726,1.2856,10.0947,-0.0148,-0.0256,9.8065,-0.0165,0.1583,0.0246,-0.37,-36.44,6.31,237.19,-83.07,94.68
72,52.76068,-1.679702,116.43,4.26,6,294.07,21 / 22,2691120,2019-11-06 11:26:38:463,-0.8715,0.3354,9.7105,-0.0306,-0.0716,9.8063,0.0064,0.0012,0.1419,-1.06,-36.69,6.06,233.52,-83.45,96.91
73,52.76068,-1.679702,116.43,4.26,6,294.07,21 / 22,2691220,2019-11-06 11:26:38:563,-2.8709,-1.2066,9.9445,-0.075,-0.0311,9.8063,0.0153,-0.089,0.1102,-1.19,-36.5,6.44,233.52,-83.45,96.91
74,52.76068,-1.679702,116.43,4.26,6,294.07,21 / 22,2691320,2019-11-06 11:26:38:663,-1.8748,-0.797,9.8431,-0.0378,-0.0025,9.8065,0.0255,0.0203,0.0694,-1.87,-36.12,7.06,233.86,-84.08,94.08
75,52.76068,-1.679702,116.43,4.26,6,294.07,21 / 22,2691421,2019-11-06 11:26:38:764,0.0119,-0.651,9.8499,-0.0761,0.0127,9.8063,-0.0476,0.1345,-0.0237,-1.75,-36.12,6.56,232.37,-84.38,90.79
76,52.76068,-1.679702,116.43,4.26,6,294.07,21 / 22,2691519,2019-11-06 11:26:38:862,-0.5343,0.2879,9.5811,-0.0888,0.0018,9.8062,0.0558,-0.0819,0.0231,-2.0,-36.12,5.69,232.37,-84.38,90.79
77,52.76068,-1.679702,116.43,4.26,6,294.07,21 / 22,2691619,2019-11-06 11:26:38:962,-3.067,-1.2976,9.0404,-0.0138,-0.0083,9.8066,-0.0332,-0.2361,0.2286,-1.69,-35.62,5.94,226.7,-84.78,87.21
78,52.76068,-1.679702,116.43,4.26,6,294.07,21 / 22,2691720,2019-11-06 11:26:39:063,-3.4716,-0.3471,9.4961,-0.0124,-0.0345,9.8065,0.0706,-0.2157,0.1098,-1.87,-35.81,5.81,227.43,-85.02,87.15
79,52.76068,-1.679702,116.43,4.26,6,294.07,21 / 22,2691820,2019-11-06 11:26:39:163,-0.6896,-0.1563,9.4036,0.0025,-0.0655,9.8064,-0.0656,0.0716,-0.037,-2.31,-37.25,5.81,230.41,-85.26,90.69
80,52.76068,-1.679702,116.43,4.26,6,294.07,21 / 22,2691920,2019-11-06 11:26:39:263,-0.0964,-0.31,9.6556,0.0127,-0.0046,9.8066,0.0729,0.0809,-0.1105,-2.25,-36.69,5.81,230.41,-85.26,90.69
81,52.760693,-1.679759,116.28,3.96,6,292.65,21 / 22,2692020,2019-11-06 11:26:39:363,-1.2617,0.3587,9.889,0.0191,-0.0128,9.8065,-0.0176,-0.0604,0.0505,-2.19,-36.0,5.56,231.9,-85.22,92.23
82,52.760693,-1.679759,116.28,3.96,6,292.65,21 / 22,2692119,2019-11-06 11:26:39:462,-1.253,-0.4617,10.0869,-0.0707,0.0065,9.8064,-0.1525,-0.1148,0.0958,-2.44,-36.56,5.63,229.74,-85.51,88.59
83,52.760693,-1.679759,116.28,3.96,6,292.65,21 / 22,2692220,2019-11-06 11:26:39:563,-2.5442,-0.2648,10.7333,-0.0401,-0.0257,9.8065,-0.0562,-0.1363,-0.0146,-3.37,-36.75,4.56,229.74,-85.51,88.59
84,52.760693,-1.679759,116.28,3.96,6,292.65,21 / 22,2692320,2019-11-06 11:26:39:663,-1.9059,-1.5072,10.3129,-0.0017,0.0165,9.8066,-0.0218,-0.1349,0.0526,-2.75,-36.69,4.81,214.04,-85.78,88.09
85,52.760693,-1.679759,116.28,3.96,6,292.65,21 / 22,2692420,2019-11-06 11:26:39:763,-2.1873,-0.8941,9.9758,0.008,0.0294,9.8066,0.0824,-0.1733,-0.0908,-2.75,-36.25,3.88,212.96,-85.62,87.15
86,52.760693,-1.679759,116.28,3.96,6,292.65,21 / 22,2692520,2019-11-06 11:26:39:863,-1.7087,0.2863,10.2251,0.0187,0.0608,9.8064,-0.1009,-0.07,0.0225,-2.62,-35.69,4.31,211.2,-85.27,85.92
87,52.760693,-1.679759,116.28,3.96,6,292.65,21 / 22,2692619,2019-11-06 11:26:39:962,-2.251,1.1341,10.2335,-0.007,0.0051,9.8066,0.0111,-0.0421,-0.073,-3.0,-36.69,3.56,211.2,-85.27,85.92
88,52.760693,-1.679759,116.28,3.96,6,292.65,21 / 22,2692719,2019-11-06 11:26:40:062,-1.5529,0.3557,10.1528,-0.0132,-0.0118,9.8065,-0.0273,-0.0656,0.06,-2.56,-37.19,3.5,210.09,-85.31,84.54
89,52.760693,-1.679759,116.28,3.96,6,292.65,21 / 22,2692820,2019-11-06 11:26:40:163,-2.3238,-1.4898,10.2204,0.0044,-0.0249,9.8066,0.0431,-0.1971,0.0383,-3.0,-37.19,3.81,210.37,-85.57,83.98
90,52.760693,-1.679759,116.28,3.96,6,292.65,21 / 22,2692920,2019-11-06 11:26:40:263,-1.883,-0.7628,10.0354,0.0026,-0.025,9.8065,0.0415,-0.1834,0.0573,-2.56,-37.19,3.81,210.37,-85.57,83.98
91,52.760708,-1.679816,116.27,2.79,6,297.15,20 / 22,2693020,2019-11-06 11:26:40:363,-1.3785,0.224,10.0592,-0.0033,0.0246,9.8066,-0.0911,-0.0682,0.0001,-2.37,-36.75,4.25,216.8,-85.61,84.95
92,52.760708,-1.679816,116.27,2.79,6,297.15,20 / 22,2693120,2019-11-06 11:26:40:463,-0.8153,0.4278,10.0284,0.0051,0.0094,9.8066,-0.05,-0.067,0.0337,-2.0,-36.69,4.06,214.41,-85.37,83.09
93,52.760708,-1.679816,116.27,2.79,6,297.15,20 / 22,2693220,2019-11-06 11:26:40:563,-1.6768,-0.811,10.1729,0.0094,0.0079,9.8066,0.0184,-0.1328,-0.0158,-2.75,-36.81,3.44,202.5,-85.3,83.32
94,52.760708,-1.679816,116.27,2.79,6,297.15,20 / 22,2693320,2019-11-06 11:26:40:663,-2.0293,-0.681,10.1992,0.0019,0.0148,9.8066,0.019,-0.1216,0.0164,-2.44,-37.06,3.44,202.5,-85.3,83.32
95,52.760708,-1.679816,116.27,2.79,6,297.15,20 / 22,2693420,2019-11-06 11:26:40:763,-1.7595,-1.0261,9.9874,0.011,-0.0043,9.8066,0.0084,-0.0123,-0.0326,-3.0,-37.0,3.81,208.7,-85.2,82.79
96,52.760708,-1.679816,116.27,2.79,6,297.15,20 / 22,2693520,2019-11-06 11:26:40:863,-0.8369,-1.1429,9.4888,0.0141,0.0057,9.8066,-0.0134,0.0157,0.0069,-2.62,-37.19,3.44,202.25,-85.13,83.45
97,52.760708,-1.679816,116.27,2.79,6,297.15,20 / 22,2693620,2019-11-06 11:26:40:963,-1.5311,-1.0459,9.2806,-0.0054,0.0183,9.8065,0.0139,0.0019,-0.096,-2.37,-37.25,3.81,202.25,-85.13,83.45
98,52.760708,-1.679816,116.27,2.79,6,297.15,20 / 22,2693719,2019-11-06 11:26:41:062,-2.2008,-0.826,9.1636,-0.0523,0.0129,9.8064,-0.0204,-0.0828,0.0016,-2.75,-36.62,3.56,201.6,-85.04,82.64
99,52.760708,-1.679816,116.27,2.79,6,297.15,20 / 22,2693819,2019-11-06 11:26:41:162,-1.2888,-0.1531,9.4537,-0.0638,0.0052,9.8063,-0.0425,-0.1979,0.1129,-3.25,-36.87,3.5,205.79,-85.14,78.42
100,52.760708,-1.679816,116.27,2.79,6,297.15,20 / 22,2693919,2019-11-06 11:26:41:262,-0.7502,-0.3069,9.705,-0.0187,-0.0166,9.8066,-0.0072,-0.031,-0.0424,-3.0,-37.31,3.0,199.16,-85.27,77.74
101,52.76071,-1.679828,116.25,0.0,6,301.7,20 / 23,2694020,2019-11-06 11:26:41:363,-0.7077,-0.7048,9.9059,-0.0129,0.0045,9.8066,-0.0376,0.0625,-0.0809,-2.94,-36.44,2.69,199.16,-85.27,77.74
102,52.76071,-1.679828,116.25,0.0,6,301.7,20 / 23,2694120,2019-11-06 11:26:41:463,-1.2165,-1.7014,9.609,-0.004,0.022,9.8066,0.0012,-0.0232,-0.0915,-3.0,-36.81,2.75,198.41,-85.29,76.42
103,52.76071,-1.679828,116.25,0.0,6,301.7,20 / 23,2694219,2019-11-06 11:26:41:562,-1.5731,-1.3672,9.4594,0.0062,0.0119,9.8066,0.0269,-0.1337,-0.0215,-2.87,-37.0,2.06,190.31,-85.09,75.62
104,52.76071,-1.679828,116.25,0.0,6,301.7,20 / 23,2694320,2019-11-06 11:26:41:663,-0.6464,-0.5374,9.3832,0.0058,0.0367,9.8066,0.013,-0.1225,-0.0246,-2.56,-36.81,1.94,190.31,-85.09,75.62
105,52.76071,-1.679828,116.25,0.0,6,301.7,20 / 23,2694420,2019-11-06 11:26:41:763,-1.2819,0.1232,9.9433,-0.0016,0.0175,9.8065,-0.0234,-0.0753,-0.0628,-2.62,-36.06,2.0,190.06,-84.75,75.52
106,52.76071,-1.679828,116.25,0.0,6,301.7,20 / 23,2694520,2019-11-06 11:26:41:863,-1.3836,-0.2294,10.1184,-0.0085,0.0037,9.8066,0.0155,-0.0805,0.0097,-2.31,-36.44,2.19,193.37,-84.6,74.39
107,52.76071,-1.679828,116.25,0.0,6,301.7,20 / 23,2694620,2019-11-06 11:26:41:963,-1.6205,-1.1064,9.9082,-0.0132,-0.0031,9.8066,-0.0323,-0.0147,-0.0509,-3.06,-36.31,1.88,188.98,-84.64,73.63
108,52.76071,-1.679828,116.25,0.0,6,301.7,20 / 23,2694720,2019-11-06 11:26:42:063,-1.9055,-0.5629,9.8117,-0.0094,-0.0058,9.8066,-0.0227,-0.1308,-0.007,-2.75,-35.62,1.5,188.98,-84.64,73.63
109,52.76071,-1.679828,116.25,0.0,6,301.7,20 / 23,2694819,2019-11-06 11:26:42:162,-1.7582,-0.1129,9.6289,-0.0129,0.0015,9.8066,0.022,-0.1211,0.0195,-2.37,-35.94,1.0,183.5,-84.71,72.11
110,52.76071,-1.679828,116.25,0.0,6,301.7,20 / 23,2694919,2019-11-06 11:26:42:262,-1.1586,-0.2126,9.798,-0.0218,0.0082,9.8065,-0.0074,-0.0785,-0.0025,-2.12,-35.25,1.19,182.97,-84.67,70.71
111,52.76071,-1.679828,116.25,0.0,6,301.7,20 / 23,2695019,2019-11-06 11:26:42:362,-1.1057,-0.5721,10.072,-0.0187,0.0077,9.8066,0.036,-0.0598,-0.0262,-2.25,-35.87,1.25,182.97,-84.67,70.71
112,52.76071,-1.679828,116.25,0.0,6,301.7,20 / 23,2695120,2019-11-06 11:26:42:463,-0.926,-0.4546,10.2498,-0.0212,-0.0042,9.8065,0.0312,-0.0746,-0.0339,-3.19,-36.19,1.31,179.01,-84.63,69.52
113,52.76071,-1.679828,116.25,0.0,6,301.7,20 / 23,2695220,2019-11-06 11:26:42:563,-0.8188,-0.7213,10.2043,-0.0248,-0.0102,9.8066,0.0301,-0.0384,-0.0142,-3.0,-35.87,2.25,186.06,-84.69,67.94
114,52.76071,-1.679828,116.25,0.0,6,301.7,20 / 23,2695320,2019-11-06 11:26:42:663,-0.584,-0.7946,9.9662,-0.0073,0.0045,9.8066,-0.0304,-0.0215,-0.0104,-2.94,-35.81,1.31,178.0,-84.67,67.45
115,52.76071,-1.679828,116.25,0.0,6,301.7,20 / 23,2695424,2019-11-06 11:26:42:767,-0.6289,-0.5696,9.8255,-0.0172,0.0019,9.8066,0.0117,-0.0205,-0.0336,-3.12,-35.87,1.19,178.0,-84.67,67.45
116,52.76071,-1.679828,116.25,0.0,6,301.7,20 / 23,2695520,2019-11-06 11:26:42:863,-0.4991,-0.6482,9.7703,-0.0027,0.0035,9.8066,-0.0016,-0.0284,-0.0213,-3.0,-36.0,1.25,177.48,-84.65,66.37
117,52.76071,-1.679828,116.25,0.0,6,301.7,20 / 23,2695620,2019-11-06 11:26:42:963,-0.9062,-0.7286,9.6995,-0.0103,-0.0014,9.8066,0.0191,-0.0111,-0.014,-3.12,-35.94,1.19,177.16,-84.66,65.72
118,52.76071,-1.679828,116.25,0.0,6,301.7,20 / 23,2695720,2019-11-06 11:26:43:063,-1.0477,-0.4193,9.7975,-0.012,-0.0074,9.8066,-0.0279,-0.0304,-0.0052,-3.0,-35.81,1.81,177.16,-84.66,65.72
119,52.76071,-1.679828,116.25,0.0,6,301.7,20 / 23,2695820,2019-11-06 11:26:43:163,-0.7777,-0.3388,9.803,-0.0072,0.001,9.8066,0.0118,-0.0574,0.0099,-3.56,-36.25,1.44,184.5,-84.7,64.94
120,52.76071,-1.679828,116.25,0.0,6,301.7,20 / 23,2695920,2019-11-06 11:26:43:263,-0.7098,-0.5908,9.7301,-0.0063,0.0038,9.8066,-0.0047,0.011,-0.0238,-3.62,-36.62,1.56,180.3,-84.68,63.96
121,52.760727,-1.67986,116.21,0.0,6,309.68,20 / 22,2696020,2019-11-06 11:26:43:363,-0.8249,-0.8458,9.8616,-0.0065,-0.0042,9.8066,-0.0112,0.0147,-0.0192,-3.94,-36.69,1.06,173.02,-84.64,63.17
122,52.760727,-1.67986,116.21,0.0,6,309.68,20 / 22,2696121,2019-11-06 11:26:43:464,-0.6914,-0.8351,9.8874,-0.0159,-0.0048,9.8065,0.0042,-0.0083,-0.0243,-3.37,-36.5,1.06,173.02,-84.64,63.17
123,52.760727,-1.67986,116.21,0.0,6,309.68,20 / 22,2696220,2019-11-06 11:26:43:563,-0.3468,-0.5011,9.8876,-0.0081,-0.0047,9.8066,0.0066,-0.0328,0.0022,-3.69,-36.5,1.0,172.05,-84.66,61.59
124,52.760727,-1.67986,116.21,0.0,6,309.68,20 / 22,2696320,2019-11-06 11:26:43:663,-0.474,-0.5165,9.8261,-0.0172,-0.0104,9.8066,0.0093,-0.035,0.002,-4.06,-36.12,1.31,171.37,-84.7,60.42
125,52.760727,-1.67986,116.21,0.0,6,309.68,20 / 22,2696420,2019-11-06 11:26:43:763,-0.6057,-0.7108,9.7337,-0.0182,-0.005,9.8066,-0.0234,-0.0133,-0.0044,-3.75,-36.37,1.44,171.37,-84.7,60.42
126,52.760727,-1.67986,116.21,0.0,6,309.68,20 / 22,2696520,2019-11-06 11:26:43:863,-0.6894,-0.7282,9.7201,-0.0206,-0.0046,9.8066,0.005,0.0124,-0.0115,-3.25,-36.56,0.75,177.58,-84.71,59.23
127,52.760727,-1.67986,116.21,0.0,6,309.68,20 / 22,2696620,2019-11-06 11:26:43:963,-0.7793,-0.4624,9.7338,-0.0298,-0.0076,9.8065,0.0018,0.0193,-0.0217,-3.0,-37.12,0.63,173.1,-84.75,57.31
128,52.760727,-1.67986,116.21,0.0,6,309.68,20 / 22,2696720,2019-11-06 11:26:44:063,-0.5561,-0.5062,9.7846,-0.0217,-0.0065,9.8066,0.0095,-0.0358,-0.0099,-3.56,-36.75,0.69,168.92,-84.77,55.88
129,52.760727,-1.67986,116.21,0.0,6,309.68,20 / 22,2696820,2019-11-06 11:26:44:163,-0.8843,-0.6747,9.7412,-0.0199,-0.0062,9.8065,-0.0079,-0.0281,0.0183,-3.62,-37.37,0.5,168.92,-84.77,55.88
130,52.760727,-1.67986,116.21,0.0,6,309.68,20 / 22,2696921,2019-11-06 11:26:44:264,-0.6491,-0.8416,9.7801,-0.0112,-0.0024,9.8065,-0.0025,-0.0067,0.0106,-4.06,-36.94,0.81,168.17,-84.78,54.55
131,52.760735,-1.679874,116.19,0.0,6,310.98,21 / 22,2697020,2019-11-06 11:26:44:363,-0.2996,-0.6704,9.8314,-0.0266,-0.0105,9.8065,0.0127,-0.011,-0.0026,-3.75,-36.25,0.0,159.35,-84.81,52.72
132,52.760735,-1.679874,116.19,0.0,6,310.98,21 / 22,2697120,2019-11-06 11:26:44:463,0.0907,-0.7097,9.8876,-0.0136,-0.0116,9.8066,0.0123,0.0304,-0.0245,-3.81,-36.5,0.63,159.35,-84.81,52.72
133,52.760735,-1.679874,116.19,0.0,6,310.98,21 / 22,2697220,2019-11-06 11:26:44:563,-0.17,-0.7541,9.87,-0.0064,-0.0024,9.8066,-0.0126,0.015,-0.0047,-3.94,-36.25,0.75,166.49,-84.84,51.63
134,52.760735,-1.679874,116.19,0.0,6,310.98,21 / 22,2697320,2019-11-06 11:26:44:663,-0.1339,-0.8873,9.8166,-0.007,0.0013,9.8066,-0.0029,-0.005,-0.0074,-3.56,-36.5,0.69,165.91,-84.85,50.92
135,52.760735,-1.679874,116.19,0.0,6,310.98,21 / 22,2697420,2019-11-06 11:26:44:763,-0.381,-0.6388,9.8285,-0.0251,-0.0001,9.8066,0.0,-0.0223,0.0105,-3.25,-36.94,0.56,169.19,-84.81,49.35
136,52.760735,-1.679874,116.19,0.0,6,310.98,21 / 22,2697520,2019-11-06 11:26:44:863,-0.303,-0.7298,9.9271,-0.0116,-0.007,9.8066,-0.0122,0.0009,0.0149,-3.87,-36.81,0.44,169.19,-84.81,49.35
137,52.760735,-1.679874,116.19,0.0,6,310.98,21 / 22,2697620,2019-11-06 11:26:44:963,-0.1164,-0.8115,9.8963,-0.0085,-0.0016,9.8066,0.0051,0.008,-0.0241,-4.0,-37.0,0.69,164.32,-84.85,47.75
138,52.760735,-1.679874,116.19,0.0,6,310.98,21 / 22,2697720,2019-11-06 11:26:45:063,-0.2072,-0.6889,9.8201,-0.0078,0.0004,9.8066,-0.001,0.0251,-0.0046,-3.44,-36.31,-0.19,159.24,-84.83,46.74
139,52.760735,-1.679874,116.19,0.0,6,310.98,21 / 22,2697820,2019-11-06 11:26:45:163,-0.0131,-0.6353,9.8222,-0.014,-0.0016,9.8066,-0.0101,0.0173,-0.0261,-4.25,-35.87,0.56,159.24,-84.83,46.74
140,52.760735,-1.679874,116.19,0.0,6,310.98,21 / 22,2697920,2019-11-06 11:26:45:263,0.3642,-0.6264,9.8352,-0.0084,-0.0052,9.8066,-0.0028,-0.0177,0.005,-3.75,-35.62,0.19,155.2,-84.81,45.3
141,52.76074,-1.67988,116.19,0.0,6,311.23,21 / 22,2698020,2019-11-06 11:26:45:363,-0.1261,-0.8397,9.8201,-0.0043,0.003,9.8066,0.0198,-0.0186,0.0183,-3.69,-36.37,0.56,162.15,-84.84,44.23
142,52.76074,-1.67988,116.19,0.0,6,311.23,21 / 22,2698120,2019-11-06 11:26:45:463,0.1478,-1.2614,9.926,-0.0128,-0.0048,9.8066,-0.0105,0.0468,-0.0226,-3.81,-36.5,0.0,154.03,-84.84,43.34
143,52.76074,-1.67988,116.19,0.0,6,311.23,21 / 22,2698220,2019-11-06 11:26:45:563,0.1455,-0.7222,9.8547,-0.0091,0.0001,9.8066,0.0005,0.0221,-0.0063,-3.87,-36.56,0.5,154.03,-84.84,43.34
144,52.76074,-1.67988,116.19,0.0,6,311.23,21 / 22,2698319,2019-11-06 11:26:45:662,0.3713,-0.5349,9.829,-0.0062,-0.0008,9.8066,-0.0057,-0.0156,-0.0034,-3.75,-36.37,0.31,153.64,-84.81,42.5
145,52.76074,-1.67988,116.19,0.0,6,311.23,21 / 22,2698419,2019-11-06 11:26:45:762,0.348,-0.6606,9.8191,-0.0131,-0.0042,9.8066,-0.0029,0.0043,-0.0205,-4.31,-36.81,0.31,153.52,-84.79,41.62
146,52.76074,-1.67988,116.19,0.0,6,311.23,21 / 22,2698520,2019-11-06 11:26:45:863,0.1178,-0.8913,9.8794,-0.0106,-0.0067,9.8065,-0.0178,0.0285,-0.0042,-3.87,-36.37,0.5,153.52,-84.79,41.62
147,52.76074,-1.67988,116.19,0.0,6,311.23,21 / 22,2698620,2019-11-06 11:26:45:963,0.3032,-0.9765,9.9213,-0.0116,-0.0053,9.8066,-0.0041,0.0228,-0.0046,-4.12,-36.25,0.19,152.7,-84.8,40.82
148,52.76074,-1.67988,116.19,0.0,6,311.23,21 / 22,2698720,2019-11-06 11:26:46:063,0.1696,-0.7762,9.8364,-0.0162,-0.0049,9.8066,0.0068,-0.0029,-0.0142,-4.0,-36.06,0.69,159.7,-84.78,39.75
149,52.76074,-1.67988,116.19,0.0,6,311.23,21 / 22,2698820,2019-11-06 11:26:46:163,0.2317,-0.7246,9.7291,-0.0124,-0.0022,9.8065,0.0094,0.0083,-0.0096,-3.94,-36.56,0.5,159.54,-84.77,38.95
150,52.76074,-1.67988,116.19,0.0,6,311.23,21 / 22,2698920,2019-11-06 11:26:46:263,0.0163,-0.7055,9.792,-0.0112,-0.0054,9.8065,-0.0076,0.0221,-0.0045,-3.81,-37.31,0.56,159.54,-84.77,38.95
151,52.76074,-1.67988,116.19,0.0,6,311.23,18 / 21,2699021,2019-11-06 11:26:46:364,-0.0325,-0.7651,9.7732,-0.0056,-0.004,9.8066,-0.0136,0.0135,-0.0174,-4.25,-37.31,0.81,159.09,-84.77,38.16
152,52.76074,-1.67988,116.19,0.0,6,311.23,18 / 21,2699120,2019-11-06 11:26:46:463,-0.0539,-0.9884,9.7609,-0.017,-0.0059,9.8066,0.0099,0.021,-0.0123,-4.06,-36.19,0.0,150.64,-84.77,37.0
153,52.76074,-1.67988,116.19,0.0,6,311.23,18 / 21,2699220,2019-11-06 11:26:46:563,0.0084,-0.9495,9.7354,-0.0095,-0.0019,9.8066,0.0205,-0.0223,-0.0025,-4.19,-36.94,0.38,150.64,-84.77,37.0
154,52.76074,-1.67988,116.19,0.0,6,311.23,18 / 21,2699320,2019-11-06 11:26:46:663,0.1637,-0.8801,9.7515,-0.0031,-0.0012,9.8066,-0.0016,0.0131,-0.011,-3.81,-36.69,0.56,157.88,-84.75,36.41
155,52.76074,-1.67988,116.19,0.0,6,311.23,18 / 21,2699420,2019-11-06 11:26:46:763,0.2427,-0.4614,9.7754,-0.0028,-0.0004,9.8066,-0.0123,0.0524,-0.0188,-4.0,-36.69,0.44,150.48,-84.75,35.93
156,52.76074,-1.67988,116.19,0.0,6,311.23,18 / 21,2699519,2019-11-06 11:26:46:862,0.3364,-0.8392,9.8562,-0.0111,-0.0044,9.8065,0.0008,0.0287,-0.0271,-3.62,-36.31,0.38,149.69,-84.74,35.17
157,52.76074,-1.67988,116.19,0.0,6,311.23,18 / 21,2699619,2019-11-06 11:26:46:962,0.0823,-1.0096,9.9013,-0.0056,-0.0028,9.8066,0.0125,-0.0258,0.0219,-4.12,-36.0,0.31,149.69,-84.74,35.17
158,52.76074,-1.67988,116.19,0.0,6,311.23,18 / 21,2699719,2019-11-06 11:26:47:062,0.1713,-1.1174,9.9018,-0.0025,0.002,9.8066,0.0025,-0.0179,0.0028,-4.12,-36.5,0.69,156.85,-84.75,34.58
159,52.76074,-1.67988,116.19,0.0,6,311.23,18 / 21,2699820,2019-11-06 11:26:47:163,0.412,-0.4559,9.8686,-0.0023,0.0014,9.8066,-0.0112,0.0138,-0.0021,-4.69,-37.0,0.63,153.15,-84.72,34.37
160,52.76074,-1.67988,116.19,0.0,6,311.23,18 / 21,2699920,2019-11-06 11:26:47:263,0.5559,-0.4601,9.9083,-0.0072,0.0026,9.8066,-0.0043,0.0497,-0.0481,-4.06,-36.87,0.75,153.15,-84.72,34.37
161,52.760742,-1.679886,116.18,0.0,6,311.14,18 / 21,2700020,2019-11-06 11:26:47:363,0.1311,-0.9419,9.8841,-0.006,-0.0029,9.8066,-0.0097,0.0036,-0.0014,-3.69,-36.69,1.38,156.67,-84.71,33.61
162,52.760742,-1.679886,116.18,0.0,6,311.14,18 / 21,2700120,2019-11-06 11:26:47:463,0.1491,-1.1061,9.8915,-0.0016,0.002,9.8066,0.012,-0.0344,0.0141,-3.87,-36.75,0.44,148.9,-84.71,32.85
163,52.760742,-1.679886,116.18,0.0,6,311.14,18 / 21,2700220,2019-11-06 11:26:47:563,0.3477,-0.9025,9.8906,-0.0038,0.004,9.8065,-0.0089,-0.0422,0.0133,-4.12,-36.5,0.31,148.9,-84.71,32.85
164,52.760742,-1.679886,116.18,0.0,6,311.14,18 / 21,2700320,2019-11-06 11:26:47:663,0.2493,-0.4706,9.8821,-0.0087,0.0004,9.8066,-0.0064,-0.0056,0.0078,-3.81,-35.94,0.81,155.98,-84.68,32.78
165,52.760742,-1.679886,116.18,0.0,6,311.14,18 / 21,2700420,2019-11-06 11:26:47:763,0.1439,-0.9152,9.8546,-0.0037,-0.002,9.8066,0.0018,0.0526,-0.0082,-3.81,-36.19,0.94,155.53,-84.66,31.91
166,52.760742,-1.679886,116.18,0.0,6,311.14,18 / 21,2700520,2019-11-06 11:26:47:863,0.1296,-1.0572,9.9237,-0.0079,-0.0057,9.8066,-0.011,0.0249,-0.0132,-3.44,-36.81,0.94,160.71,-84.67,31.31
167,52.760742,-1.679886,116.18,0.0,6,311.14,18 / 21,2700620,2019-11-06 11:26:47:963,0.0144,-0.7975,9.8804,-0.0036,0.0009,9.8066,0.0075,0.0036,-0.0062,-3.69,-36.69,0.81,160.71,-84.67,31.31
168,52.760742,-1.679886,116.18,0.0,6,311.14,18 / 21,2700720,2019-11-06 11:26:48:063,0.2208,-0.645,9.7641,-0.0028,-0.0025,9.8066,0.0023,-0.0266,-0.0003,-3.81,-36.94,0.63,155.08,-84.66,31.11
169,52.760742,-1.679886,116.18,0.0,6,311.14,18 / 21,2700822,2019-11-06 11:26:48:165,0.2885,-0.6703,9.8594,-0.0042,-0.0012,9.8066,-0.0045,0.0289,-0.0034,-4.31,-37.0,0.94,155.09,-84.68,30.59
170,52.760742,-1.679886,116.18,0.0,6,311.14,18 / 21,2700920,2019-11-06 11:26:48:263,0.035,-0.7847,9.8571,-0.0071,-0.0011,9.8066,-0.0109,0.0327,-0.0233,-4.12,-36.81,1.19,155.09,-84.68,30.59
171,52.760742,-1.679886,116.18,0.0,6,311.14,21 / 22,2701022,2019-11-06 11:26:48:365,0.1014,-0.8957,9.7407,-0.001,-0.0022,9.8066,-0.002,0.0448,0.0022,-4.0,-36.12,0.56,147.57,-84.66,30.16
172,52.760742,-1.679886,116.18,0.0,6,311.14,21 / 22,2701120,2019-11-06 11:26:48:463,0.3007,-0.801,9.7884,-0.0055,-0.003,9.8066,-0.0113,0.0231,-0.0005,-3.69,-36.37,-0.25,146.75,-84.68,29.61
173,52.760742,-1.679886,116.18,0.0,6,311.14,21 / 22,2701220,2019-11-06 11:26:48:563,0.2879,-0.5526,9.838,-0.0003,0.0004,9.8066,0.0052,-0.0036,0.0119,-4.0,-35.75,0.13,146.52,-84.68,29.19
174,52.760742,-1.679886,116.18,0.0,6,311.14,21 / 22,2701319,2019-11-06 11:26:48:662,0.2022,-0.7203,9.7775,0.001,-0.0004,9.8065,0.0015,-0.0111,-0.0086,-3.69,-36.12,0.31,146.52,-84.68,29.19
175,52.760742,-1.679886,116.18,0.0,6,311.14,21 / 22,2701419,2019-11-06 11:26:48:762,0.4686,-0.9935,9.9453,0.0016,-0.0017,9.8066,-0.0008,0.0076,-0.0264,-4.0,-36.62,0.88,146.38,-84.69,29.02
176,52.760742,-1.679886,116.18,0.0,6,311.14,21 / 22,2701520,2019-11-06 11:26:48:863,0.2246,-0.9615,9.9037,-0.0007,-0.002,9.8066,-0.0079,-0.004,-0.0146,-3.87,-36.62,0.75,154.0,-84.71,28.8
177,52.760742,-1.679886,116.18,0.0,6,311.14,21 / 22,2701620,2019-11-06 11:26:48:963,0.1925,-0.7224,9.7959,-0.0027,-0.0062,9.8066,0.0,-0.0059,0.0196,-4.19,-37.37,0.31,154.0,-84.71,28.8
178,52.760742,-1.679886,116.18,0.0,6,311.14,21 / 22,2701720,2019-11-06 11:26:49:063,0.6821,-0.942,9.8899,-0.0006,-0.0032,9.8066,-0.0266,-0.011,0.0028,-3.94,-35.87,0.88,153.42,-84.74,28.47
179,52.760742,-1.679886,116.18,0.0,6,311.14,21 / 22,2701820,2019-11-06 11:26:49:163,0.5873,-0.8886,9.8859,0.0034,-0.0013,9.8066,0.0122,0.0238,0.0018,-3.75,-36.19,0.13,145.82,-84.75,28.31
180,52.760742,-1.679886,116.18,0.0,6,311.14,21 / 22,2701920,2019-11-06 11:26:49:263,0.4297,-0.8834,9.8138,0.0037,-0.004,9.8066,-0.0186,0.0249,-0.0152,-3.69,-36.5,0.5,153.27,-84.78,28.36
181,52.760742,-1.679886,116.18,0.0,6,311.14,20 / 22,2702020,2019-11-06 11:26:49:363,0.6045,-1.0023,9.815,0.0034,-0.0098,9.8066,0.0108,-0.0127,-0.0032,-3.94,-36.12,1.13,153.27,-84.78,28.36
182,52.760742,-1.679886,116.18,0.0,6,311.14,20 / 22,2702119,2019-11-06 11:26:49:462,0.2527,-1.1283,9.8431,-0.0008,-0.0036,9.8066,0.0108,0.0011,-0.0005,-3.81,-36.69,0.69,153.07,-84.84,28.27
183,52.760742,-1.679886,116.18,0.0,6,311.14,20 / 22,2702219,2019-11-06 11:26:49:562,0.6607,-1.0085,9.7496,-0.0014,-0.0052,9.8066,-0.0012,0.0386,-0.0052,-4.19,-37.06,1.0,153.23,-84.86,28.04
184,52.760742,-1.679886,116.18,0.0,6,311.14,20 / 22,2702319,2019-11-06 11:26:49:662,0.4866,-0.7834,9.8095,-0.0009,-0.0058,9.8066,-0.0188,0.0117,-0.0158,-3.75,-36.75,0.75,153.23,-84.86,28.04
185,52.760742,-1.679886,116.18,0.0,6,311.14,20 / 22,2702419,2019-11-06 11:26:49:762,0.4231,-0.8933,9.8664,-0.002,-0.0025,9.8066,-0.0042,-0.0114,0.0029,-4.06,-36.44,0.69,153.03,-84.89,27.81
186,52.760742,-1.679886,116.18,0.0,6,311.14,20 / 22,2702519,2019-11-06 11:26:49:862,0.0259,-0.9026,9.8601,-0.0021,-0.0034,9.8066,-0.0139,-0.0233,0.0196,-4.56,-36.44,0.38,141.21,-84.9,27.62
187,52.760742,-1.679886,116.18,0.0,6,311.14,20 / 22,2702620,2019-11-06 11:26:49:963,0.1846,-0.8476,9.8233,-0.0082,-0.0076,9.8066,-0.0062,-0.0367,0.0046,-3.81,-35.56,0.81,152.12,-84.9,26.89
188,52.760742,-1.679886,116.18,0.0,6,311.14,20 / 22,2702720,2019-11-06 11:26:50:063,0.2137,-0.3373,9.8431,-0.0027,0.0013,9.8066,0.0056,0.0062,-0.0066,-4.19,-36.31,1.25,152.12,-84.9,26.89
189,52.760742,-1.679886,116.18,0.0,6,311.14,20 / 22,2702820,2019-11-06 11:26:50:163,0.1707,-0.6159,9.8365,0.0016,0.0001,9.8066,-0.0197,0.0325,-0.0066,-3.62,-36.25,0.0,152.09,-84.89,26.77
190,52.760742,-1.679886,116.18,0.0,6,311.14,20 / 22,2702920,2019-11-06 11:26:50:263,0.0338,-0.839,9.8411,-0.0001,-0.0027,9.8066,0.0046,-0.0042,-0.0201,-4.06,-36.81,1.25,152.33,-84.9,26.61
191,52.760742,-1.679886,116.18,0.0,6,311.14,21 / 22,2703023,2019-11-06 11:26:50:366,-0.2803,-0.7855,9.8105,-0.0009,-0.0076,9.8066,-0.0091,-0.0186,0.0287,-4.62,-36.5,0.44,152.33,-84.9,26.61
192,52.760742,-1.679886,116.18,0.0,6,311.14,21 / 22,2703119,2019-11-06 11:26:50:462,0.1281,-0.5024,9.8382,0.0002,0.0009,9.8066,-0.0031,-0.0188,0.0016,-3.75,-36.12,0.5,144.55,-84.93,26.33
193,52.760742,-1.679886,116.18,0.0,6,311.14,21 / 22,2703220,2019-11-06 11:26:50:563,0.1397,-0.3072,9.8624,0.0039,-0.0001,9.8066,0.0064,0.028,-0.0216,-3.44,-36.5,0.38,149.24,-84.94,26.55
194,52.760742,-1.679886,116.18,0.0,6,311.14,21 / 22,2703320,2019-11-06 11:26:50:663,0.1453,-0.6988,9.9293,0.0014,-0.0047,9.8066,-0.0012,0.0567,-0.0335,-3.69,-36.37,0.75,151.94,-84.97,26.85
195,52.760742,-1.679886,116.18,0.0,6,311.14,21 / 22,2703420,2019-11-06 11:26:50:763,-0.1316,-0.9518,9.9047,0.0016,-0.0103,9.8066,-0.0296,0.0249,-0.0114,-4.12,-36.5,1.0,151.94,-84.97,26.85
196,52.760742,-1.679886,116.18,0.0,6,311.14,21 / 22,2703519,2019-11-06 11:26:50:862,0.0731,-0.8244,9.9177,-0.0011,-0.0031,9.8066,0.0093,-0.0191,0.0064,-3.69,-36.37,0.44,151.48,-85.04,26.39
197,52.760742,-1.679886,116.18,0.0,6,311.14,21 / 22,2703620,2019-11-06 11:26:50:963,0.3034,-0.1867,9.8924,0.0031,0.0022,9.8066,-0.0049,-0.0158,0.0236,-3.81,-36.06,0.0,143.63,-85.06,26.36
198,52.760742,-1.679886,116.18,0.0,6,311.14,21 / 22,2703719,2019-11-06 11:26:51:062,0.3347,-0.5721,9.8769,0.0057,0.0034,9.8066,0.0005,0.0094,-0.0271,-3.75,-36.44,0.0,143.63,-85.06,26.36
199,52.760742,-1.679886,116.18,0.0,6,311.14,21 / 22,2703820,2019-11-06 11:26:51:163,-0.0111,-0.847,9.8858,0.0018,-0.0065,9.8066,0.0036,0.0523,-0.0168,-4.5,-36.75,0.88,144.36,-85.07,26.81
200,52.760742,-1.679886,116.18,0.0,6,311.14,21 / 22,2703920,2019-11-06 11:26:51:263,0.2653,-1.1292,9.7863,0.0004,-0.0058,9.8066,-0.006,0.0593,-0.0441,-3.69,-36.87,1.0,151.57,-85.14,26.37
201,52.760742,-1.679886,116.18,0.0,6,311.14,19 / 21,2704021,2019-11-06 11:26:51:364,0.3149,-0.4009,9.8558,0.002,-0.0073,9.8066,-0.0082,-0.0338,0.0082,-3.87,-36.25,0.88,151.03,-85.18,26.25
202,52.760742,-1.679886,116.18,0.0,6,311.14,19 / 21,2704120,2019-11-06 11:26:51:463,0.4406,-0.3722,9.9006,0.0058,0.0018,9.8066,0.0024,-0.0346,0.0295,-3.81,-36.31,0.56,151.03,-85.18,26.25
203,52.760742,-1.679886,116.18,0.0,6,311.14,19 / 21,2704220,2019-11-06 11:26:51:563,0.1217,-0.7656,9.831,0.0045,-0.0015,9.8066,-0.0082,0.0013,0.0047,-3.87,-36.37,0.81,143.37,-85.19,26.66
204,52.760742,-1.679886,116.18,0.0,6,311.14,19 / 21,2704320,2019-11-06 11:26:51:663,0.1405,-1.0618,9.7813,0.0055,-0.0074,9.8066,0.0005,0.0254,-0.012,-4.0,-37.0,0.63,151.46,-85.24,26.66
205,52.760742,-1.679886,116.18,0.0,6,311.14,19 / 21,2704420,2019-11-06 11:26:51:763,0.1294,-0.7482,9.826,0.0009,-0.0059,9.8066,-0.0073,0.0524,-0.0128,-3.81,-37.0,0.56,151.46,-85.24,26.66
206,52.760742,-1.679886,116.18,0.0,6,311.14,19 / 21,2704519,2019-11-06 11:26:51:862,0.4718,-0.4064,9.8543,0.0046,0.0022,9.8066,-0.0142,-0.006,-0.0037,-3.75,-36.37,0.81,151.29,-85.28,26.52
207,52.760742,-1.679886,116.18,0.0,6,311.14,19 / 21,2704620,2019-11-06 11:26:51:963,0.0881,-0.677,9.8,0.0041,-0.0028,9.8066,0.0061,-0.0411,0.0217,-4.12,-36.56,0.31,143.66,-85.28,26.88
208,52.760742,-1.679886,116.18,0.0,6,311.14,19 / 21,2704720,2019-11-06 11:26:52:063,0.1364,-1.051,9.7893,0.007,-0.0116,9.8066,-0.0056,-0.0307,0.0198,-3.87,-36.87,0.69,151.23,-85.36,26.79
209,52.760742,-1.679886,116.18,0.0,6,311.14,19 / 21,2704819,2019-11-06 11:26:52:162,0.0128,-0.6896,9.7437,0.0002,-0.0064,9.8065,0.005,0.0352,-0.0304,-4.31,-36.37,0.19,151.23,-85.36,26.79
210,52.760742,-1.679886,116.18,0.0,6,311.14,19 / 21,2704920,2019-11-06 11:26:52:263,0.4882,-0.3387,9.8117,0.0047,0.0002,9.8066,-0.0148,0.0471,-0.0288,-3.87,-36.69,1.25,142.59,-85.39,26.57
211,52.760742,-1.679886,116.18,0.0,6,311.14,19 / 21,2705020,2019-11-06 11:26:52:363,0.3792,-0.5015,9.8131,0.0036,-0.0023,9.8065,0.0056,0.0401,-0.015,-3.87,-35.75,0.88,150.86,-85.42,27.03
212,52.760742,-1.679886,116.18,0.0,6,311.14,19 / 21,2705120,2019-11-06 11:26:52:463,-0.0102,-0.8652,9.774,0.0051,-0.0061,9.8066,0.0049,0.0403,-0.0041,-4.0,-36.25,0.25,150.86,-85.42,27.03
213,52.760742,-1.679886,116.18,0.0,6,311.14,19 / 21,2705220,2019-11-06 11:26:52:563,0.0403,-0.7059,9.7902,0.0021,-0.0051,9.8066,-0.012,-0.0074,0.0127,-3.94,-36.37,1.19,142.66,-85.46,27.14
214,52.760742,-1.679886,116.18,0.0,6,311.14,19 / 21,2705319,2019-11-06 11:26:52:662,0.209,-0.6347,9.8651,0.0037,-0.0004,9.8066,0.0098,-0.0328,0.0017,-4.12,-37.31,0.94,150.97,-85.51,27.07
215,52.760742,-1.679886,116.18,0.0,6,311.14,19 / 21,2705420,2019-11-06 11:26:52:763,0.1706,-0.4736,9.8103,0.0013,0.0001,9.8066,-0.0146,-0.0169,0.0139,-4.25,-36.56,1.19,151.19,-85.53,27.51
216,52.760742,-1.679886,116.18,0.0,6,311.14,19 / 21,2705520,2019-11-06 11:26:52:863,0.0066,-0.6935,9.72,0.0019,-0.0021,9.8066,0.0096,0.0275,0.0058,-4.19,-36.87,0.56,151.19,-85.53,27.51
217,52.760742,-1.679886,116.18,0.0,6,311.14,19 / 21,2705620,2019-11-06 11:26:52:963,0.038,-0.6253,9.7636,0.0024,-0.0022,9.8066,-0.0066,0.0251,-0.0289,-3.87,-36.62,0.75,142.94,-85.57,27.46
218,52.760742,-1.679886,116.18,0.0,6,311.14,19 / 21,2705720,2019-11-06 11:26:53:063,0.2891,-0.6529,9.8552,0.0014,0.002,9.8066,-0.0073,0.0127,0.0037,-3.69,-36.56,0.31,142.88,-85.6,27.57
219,52.760742,-1.679886,116.18,0.0,6,311.14,19 / 21,2705820,2019-11-06 11:26:53:163,0.1298,-0.5929,9.7648,0.0041,0.0042,9.8066,0.003,-0.0014,-0.0233,-3.37,-36.31,-0.19,142.88,-85.6,27.57
220,52.760742,-1.679886,116.18,0.0,6,311.14,19 / 21,2705919,2019-11-06 11:26:53:262,0.2347,-0.7049,9.7477,0.0055,-0.0043,9.8066,-0.0185,-0.0056,-0.0018,-3.81,-36.0,0.56,150.98,-85.59,28.01
221,52.760742,-1.679886,116.18,0.0,6,311.14,17 / 20,2706020,2019-11-06 11:26:53:363,0.233,-0.851,9.8134,0.0045,-0.0035,9.8066,0.0159,0.0047,-0.0157,-3.5,-36.25,1.06,156.69,-85.66,28.36
222,52.760742,-1.679886,116.18,0.0,6,311.14,17 / 20,2706119,2019-11-06 11:26:53:462,0.3905,-1.1274,9.8344,0.0107,-0.0055,9.8066,0.0027,0.0234,-0.0071,-4.12,-36.31,1.5,158.32,-85.71,28.96
223,52.760742,-1.679886,116.18,0.0,6,311.14,17 / 20,2706220,2019-11-06 11:26:53:563,0.1439,-0.8479,9.7924,0.0083,-0.0065,9.8066,-0.0115,0.0008,0.0014,-3.62,-36.81,1.06,158.32,-85.71,28.96
224,52.760742,-1.679886,116.18,0.0,6,311.14,17 / 20,2706319,2019-11-06 11:26:53:662,0.8287,-0.8761,9.7811,0.0019,-0.0026,9.8066,0.0036,-0.0108,0.0028,-3.75,-36.62,0.75,151.68,-85.77,29.37
225,52.760742,-1.679886,116.18,0.0,6,311.14,17 / 20,2706420,2019-11-06 11:26:53:763,0.5804,-0.7023,9.8485,-0.0007,0.0005,9.8066,-0.004,0.026,-0.0155,-3.69,-36.25,0.44,142.88,-85.79,29.44
226,52.760742,-1.679886,116.18,0.0,6,311.14,17 / 20,2706520,2019-11-06 11:26:53:863,0.6261,-0.897,9.8888,0.0044,0.0036,9.8066,-0.0043,0.0324,-0.0253,-3.81,-36.0,0.31,142.88,-85.79,29.44
227,52.760742,-1.679886,116.18,0.0,6,311.14,17 / 20,2706620,2019-11-06 11:26:53:963,0.6521,-1.3016,9.8453,0.0032,0.0,9.8066,-0.0091,0.0132,-0.0155,-3.31,-35.87,0.5,151.62,-85.79,29.89
228,52.760742,-1.679886,116.18,0.0,6,311.14,17 / 20,2706720,2019-11-06 11:26:54:063,0.5367,-0.8342,9.8663,0.0027,-0.0053,9.8066,0.0035,-0.0372,0.0105,-3.5,-36.19,0.44,147.93,-85.81,30.2
229,52.760742,-1.679886,116.18,0.0,6,311.14,17 / 20,2706819,2019-11-06 11:26:54:162,0.691,-0.5488,9.7291,-0.0002,-0.0033,9.8066,0.0008,-0.0246,0.0106,-3.75,-36.31,0.75,151.57,-85.85,30.09
230,52.760742,-1.679886,116.18,0.0,6,311.14,17 / 20,2706920,2019-11-06 11:26:54:263,0.8029,-0.9027,9.7152,0.0021,-0.0048,9.8066,-0.0106,0.0094,-0.0124,-3.44,-36.31,0.88,151.57,-85.85,30.09
231,52.760742,-1.679886,116.18,0.0,6,311.14,19 / 24,2707020,2019-11-06 11:26:54:363,0.3609,-0.9874,9.8775,0.0011,-0.0039,9.8066,-0.0095,0.0039,-0.0072,-4.19,-36.31,0.06,157.33,-85.89,30.08
232,52.760742,-1.679886,116.18,0.0,6,311.14,19 / 24,2707120,2019-11-06 11:26:54:463,0.3054,-0.9362,9.7853,0.0024,-0.0009,9.8066,0.0053,-0.0204,0.0123,-3.62,-36.12,0.25,142.79,-85.92,30.06
233,52.760742,-1.679886,116.18,0.0,6,311.14,19 / 24,2707220,2019-11-06 11:26:54:563,0.7572,-1.2031,9.8195,0.0036,-0.0048,9.8066,-0.0035,-0.0098,-0.0081,-3.44,-36.25,0.88,142.79,-85.92,30.06
234,52.760742,-1.679886,116.18,0.0,6,311.14,19 / 24,2707320,2019-11-06 11:26:54:663,0.9506,-1.0526,9.7384,0.0019,-0.0099,9.8065,-0.0027,0.0347,-0.011,-3.44,-35.69,0.88,151.27,-85.96,30.06
235,52.760742,-1.679886,116.18,0.0,6,311.14,19 / 24,2707420,2019-11-06 11:26:54:763,1.1391,-0.8203,9.701,0.0003,-0.0074,9.8066,-0.0162,0.0153,-0.0225,-3.31,-35.62,0.38,146.57,-86.07,29.65
236,52.760742,-1.679886,116.18,0.0,6,311.14,19 / 24,2707520,2019-11-06 11:26:54:863,1.4479,-0.8794,9.7046,0.0036,-0.0125,9.8066,0.0016,-0.0424,0.0262,-3.81,-35.62,1.25,150.26,-86.14,29.31
237,52.760742,-1.679886,116.18,0.0,6,311.14,19 / 24,2707620,2019-11-06 11:26:54:963,0.944,-1.3329,9.9067,0.0078,-0.0024,9.8066,0.0138,-0.0243,0.0057,-3.44,-36.37,0.88,150.26,-86.14,29.31
238,52.760742,-1.679886,116.18,0.0,6,311.14,19 / 24,2707719,2019-11-06 11:26:55:062,0.5345,-1.6588,9.9736,0.0067,0.0037,9.8066,0.0026,0.0077,-0.0341,-3.5,-35.69,1.0,156.11,-86.17,29.8
239,52.760742,-1.679886,116.18,0.0,6,311.14,19 / 24,2707820,2019-11-06 11:26:55:163,0.6447,-1.0361,9.9452,0.0064,-0.0005,9.8066,-0.0371,0.0378,-0.0243,-4.12,-36.37,1.06,150.75,-86.19,30.3
240,52.760742,-1.679886,116.18,0.0,6,311.14,19 / 24,2707920,2019-11-06 11:26:55:263,1.1872,-1.0421,9.8447,0.0028,-0.0132,9.8066,0.0336,-0.0441,0.0236,-3.87,-36.37,1.13,150.75,-86.19,30.3
241,52.760742,-1.679886,116.18,0.0,6,311.14,19 / 21,2708020,2019-11-06 11:26:55:363,1.4966,-0.9493,9.8037,0.0047,-0.0055,9.8065,0.0078,-0.0573,0.0121,-3.94,-35.06,0.63,150.3,-86.27,29.94
242,52.760742,-1.679886,116.18,0.0,6,311.14,19 / 21,2708120,2019-11-06 11:26:55:463,0.5745,-1.4079,9.8668,-0.0016,-0.0089,9.8066,0.0427,-0.0415,0.0527,-4.25,-35.25,0.63,149.94,-86.31,30.06
243,52.760742,-1.679886,116.18,0.0,6,311.14,19 / 21,2708219,2019-11-06 11:26:55:562,0.3962,-1.6355,9.8056,0.0126,-0.0249,9.8066,0.0098,0.0265,-0.0609,-3.56,-35.5,0.69,149.35,-86.47,29.91
244,52.760742,-1.679886,116.18,0.0,6,311.14,19 / 21,2708319,2019-11-06 11:26:55:662,1.8056,-1.9077,9.618,0.013,-0.0087,9.8066,0.0092,0.0167,-0.0335,-4.0,-35.12,0.44,149.35,-86.47,29.91
245,52.760742,-1.679886,116.18,0.0,6,311.14,19 / 21,2708419,2019-11-06 11:26:55:762,2.4735,-0.9505,9.7776,0.0085,-0.0043,9.8066,-0.0091,-0.0564,-0.0177,-3.75,-35.75,0.06,144.54,-86.55,30.57
246,52.760742,-1.679886,116.18,0.0,6,311.14,19 / 21,2708520,2019-11-06 11:26:55:863,1.41,-1.0816,9.9091,0.0051,0.0093,9.8066,-0.0096,-0.0755,0.0341,-3.87,-35.87,-0.12,141.05,-86.55,31.19
247,52.760742,-1.679886,116.18,0.0,6,311.14,19 / 21,2708620,2019-11-06 11:26:55:963,2.4577,-1.9666,9.6807,0.0099,0.0249,9.8066,-0.006,-0.1161,0.0322,-2.94,-35.81,-0.12,141.05,-86.55,31.19
248,52.760742,-1.679886,116.18,0.0,6,311.14,19 / 21,2708720,2019-11-06 11:26:56:063,1.4175,-1.4965,9.6942,0.0076,-0.0031,9.8066,-0.0238,0.0161,-0.0416,-2.62,-35.06,0.5,146.64,-86.47,33.41
249,52.760742,-1.679886,116.18,0.0,6,311.14,19 / 21,2708821,2019-11-06 11:26:56:164,1.2627,-0.5962,9.7556,0.0035,0.0032,9.8066,-0.0033,0.0722,-0.0701,-3.31,-34.37,0.38,146.11,-86.55,33.76
250,52.760742,-1.679886,116.18,0.0,6,311.14,19 / 21,2708921,2019-11-06 11:26:56:264,1.4394,-0.304,9.7114,-0.0137,0.0181,9.8066,-0.0644,-0.011,-0.0323,-3.12,-34.56,-0.12,147.56,-86.5,35.14
251,52.760742,-1.679891,116.13,0.0,6,315.26,19 / 21,2709020,2019-11-06 11:26:56:363,0.4147,-1.1038,9.7049,-0.0309,0.0386,9.8065,-0.0315,-0.0821,0.0089,-3.0,-34.75,-0.69,147.56,-86.5,35.14
252,52.760742,-1.679891,116.13,0.0,6,315.26,19 / 21,2709119,2019-11-06 11:26:56:462,0.1734,-1.4554,9.848,-0.0189,0.016,9.8066,-0.0278,-0.0329,-0.004,-4.06,-35.25,-1.12,135.12,-86.08,35.0
253,52.760742,-1.679891,116.13,0.0,6,315.26,19 / 21,2709219,2019-11-06 11:26:56:562,-0.4255,-0.9284,10.0777,-0.0091,-0.0098,9.8066,-0.0312,0.0447,-0.0302,-3.62,-36.06,-1.25,135.72,-85.89,33.93
254,52.760742,-1.679891,116.13,0.0,6,315.26,19 / 21,2709320,2019-11-06 11:26:56:663,-0.3905,-0.1386,9.9672,-0.0202,-0.018,9.8065,-0.0261,0.0279,-0.046,-3.81,-35.69,-0.75,135.72,-85.89,33.93
255,52.760742,-1.679891,116.13,0.0,6,315.26,19 / 21,2709420,2019-11-06 11:26:56:763,0.0097,-1.0408,9.6093,-0.0213,0.0099,9.8066,-0.0105,0.0262,-0.0368,-3.94,-35.44,-1.94,133.75,-85.88,31.72
256,52.760742,-1.679891,116.13,0.0,6,315.26,19 / 21,2709520,2019-11-06 11:26:56:863,-0.118,-1.6951,9.8444,-0.0093,0.0059,9.8066,0.0145,-0.1138,0.026,-3.56,-35.75,-1.56,124.77,-85.65,31.25
257,52.760742,-1.679891,116.13,0.0,6,315.26,19 / 21,2709620,2019-11-06 11:26:56:963,-0.0257,-0.2373,9.9181,-0.005,0.0091,9.8065,-0.0003,-0.1595,0.0484,-4.12,-34.81,-2.0,124.65,-85.6,31.6
258,52.760742,-1.679891,116.13,0.0,6,315.26,19 / 21,2709720,2019-11-06 11:26:57:063,-0.7266,0.7659,9.9021,0.0033,-0.0104,9.8066,0.0136,-0.0573,0.0209,-4.75,-35.19,-1.69,124.65,-85.6,31.6
259,52.760742,-1.679891,116.13,0.0,6,315.26,19 / 21,2709820,2019-11-06 11:26:57:163,-0.7119,0.2451,9.8741,0.0087,-0.0115,9.8066,0.0094,0.038,-0.0615,-4.75,-35.62,-1.69,124.11,-85.65,31.09
260,52.760742,-1.679891,116.13,0.0,6,315.26,19 / 21,2709920,2019-11-06 11:26:57:263,-1.072,-1.7121,9.5077,0.0174,-0.0102,9.8066,0.0203,-0.0074,-0.0642,-4.62,-35.69,-2.37,123.64,-85.76,31.2
261,52.760742,-1.679891,116.13,0.0,6,315.26,20 / 21,2710020,2019-11-06 11:26:57:363,-1.4303,-1.1748,9.7741,0.0062,0.0136,9.8066,-0.0592,-0.0886,0.0446,-4.69,-36.12,-2.12,123.64,-85.76,31.2
262,52.760742,-1.679891,116.13,0.0,6,315.26,20 / 21,2710120,2019-11-06 11:26:57:463,-0.983,-0.2492,9.7921,-0.0121,0.0119,9.8066,-0.013,-0.1351,0.014,-4.94,-36.5,-2.44,125.14,-85.75,32.36
263,52.760742,-1.679891,116.13,0.0,6,315.26,20 / 21,2710221,2019-11-06 11:26:57:564,-1.2192,0.5318,9.9512,-0.0076,-0.0038,9.8066,0.0205,-0.0988,0.0429,-4.81,-36.69,-2.06,125.75,-85.65,32.57
264,52.760742,-1.679891,116.13,0.0,6,315.26,20 / 21,2710319,2019-11-06 11:26:57:662,-1.6703,-0.5001,9.7767,-0.0109,0.0177,9.8066,0.0397,0.027,-0.0346,-4.75,-36.06,-1.5,134.76,-85.54,33.17
265,52.760742,-1.679891,116.13,0.0,6,315.26,20 / 21,2710419,2019-11-06 11:26:57:762,-1.4135,-0.9904,9.789,0.0037,0.0148,9.8066,-0.0192,0.0054,-0.0725,-5.69,-35.94,-2.06,134.76,-85.54,33.17
266,52.760742,-1.679891,116.13,0.0,6,315.26,20 / 21,2710520,2019-11-06 11:26:57:863,-1.0814,-0.5465,10.0308,-0.007,0.0014,9.8066,-0.0108,-0.0086,0.0198,-5.5,-35.94,-2.19,119.16,-85.49,34.15
267,52.760742,-1.679891,116.13,0.0,6,315.26,20 / 21,2710620,2019-11-06 11:26:57:963,-0.8593,-0.0098,9.8945,-0.0013,0.0041,9.8066,0.0171,-0.0291,-0.0594,-5.37,-36.25,-2.56,118.7,-85.43,34.12
268,52.760742,-1.679891,116.13,0.0,6,315.26,20 / 21,2710720,2019-11-06 11:26:58:063,-0.6665,0.0049,9.9146,-0.0032,0.0133,9.8066,-0.0012,-0.0193,-0.0291,-5.56,-37.0,-2.06,118.7,-85.43,34.12
269,52.760742,-1.679891,116.13,0.0,6,315.26,20 / 21,2710820,2019-11-06 11:26:58:163,0.1036,-0.3341,10.0938,0.0005,-0.0003,9.8066,0.0135,0.0262,-0.0032,-6.31,-36.94,-1.75,128.14,-85.38,34.85
270,52.760742,-1.679891,116.13,0.0,6,315.26,20 / 21,2710920,2019-11-06 11:26:58:263,0.0701,-0.9274,10.0227,0.002,-0.0055,9.8066,-0.0086,-0.0161,0.0084,-6.0,-37.19,-1.87,128.01,-85.4,34.8
271,52.76077,-1.679922,116.13,0.0,6,320.55,20 / 23,2711020,2019-11-06 11:26:58:363,0.1198,-0.7472,9.7683,0.0034,-0.0066,9.8066,0.0017,-0.0397,0.0129,-5.94,-37.12,-1.25,134.69,-85.48,34.3
272,52.76077,-1.679922,116.13,0.0,6,320.55,20 / 23,2711120,2019-11-06 11:26:58:463,0.2006,-0.6203,9.8203,0.0063,-0.0112,9.8066,0.009,-0.0568,-0.0313,-5.62,-37.75,-2.31,134.69,-85.48,34.3
273,52.76077,-1.679922,116.13,0.0,6,320.55,20 / 23,2711219,2019-11-06 11:26:58:562,0.3904,-1.0736,9.8852,0.0094,0.0042,9.8066,0.0184,-0.0323,0.0344,-5.94,-36.94,-1.19,134.21,-85.6,34.19
274,52.76077,-1.679922,116.13,0.0,6,320.55,20 / 23,2711319,2019-11-06 11:26:58:662,0.8697,-1.0302,9.7472,0.0192,0.0074,9.8065,0.0148,-0.0433,-0.0345,-5.94,-37.31,-1.19,135.12,-85.65,35.63
275,52.76077,-1.679922,116.13,0.0,6,320.55,20 / 23,2711420,2019-11-06 11:26:58:763,1.3581,-0.3363,9.5829,0.0106,0.0109,9.8066,0.0127,-0.0012,-0.0041,-6.31,-37.19,-1.0,135.12,-85.65,35.63
276,52.76077,-1.679922,116.13,0.0,6,320.55,20 / 23,2711520,2019-11-06 11:26:58:863,0.8436,-0.6316,9.7073,-0.0053,-0.0125,9.8066,0.0101,-0.0625,0.0192,-6.31,-36.81,-0.87,135.99,-85.65,36.8
277,52.76077,-1.679922,116.13,0.0,6,320.55,20 / 23,2711620,2019-11-06 11:26:58:963,0.6182,-1.0149,9.6808,-0.0124,-0.025,9.8066,-0.0108,-0.0996,0.0093,-6.37,-37.37,-0.81,134.3,-85.7,34.75
278,52.76077,-1.679922,116.13,0.0,6,320.55,20 / 23,2711720,2019-11-06 11:26:59:063,0.6373,-1.3693,9.8659,-0.0064,-0.0078,9.8066,-0.0108,-0.0891,0.0089,-6.94,-37.75,-1.12,132.93,-85.7,33.96
279,52.76077,-1.679922,116.13,0.0,6,320.55,20 / 23,2711820,2019-11-06 11:26:59:163,1.466,-1.0644,9.686,0.0095,0.005,9.8066,0.0006,-0.0795,-0.0287,-6.81,-37.94,-1.5,132.93,-85.7,33.96
280,52.76077,-1.679922,116.13,0.0,6,320.55,20 / 23,2711920,2019-11-06 11:26:59:263,1.2219,-0.6224,9.4843,0.0032,-0.0039,9.8066,0.0238,-0.1523,-0.0018,-6.75,-37.62,-1.56,126.9,-85.72,34.76
281,52.76078,-1.679931,116.15,0.0,6,324.36,20 / 22,2712020,2019-11-06 11:26:59:363,2.6446,-1.0829,9.5845,0.006,-0.0424,9.8065,0.0332,-0.1633,-0.0091,-7.06,-37.0,-1.19,130.62,-85.9,32.28
282,52.76078,-1.679931,116.15,0.0,6,324.36,20 / 22,2712120,2019-11-06 11:26:59:463,1.9935,-1.3271,10.1769,0.0361,-0.0121,9.8065,0.0724,-0.2304,0.0113,-7.25,-37.69,-0.87,130.62,-85.9,32.28
283,52.76078,-1.679931,116.15,0.0,6,324.36,20 / 22,2712220,2019-11-06 11:26:59:563,1.9064,-1.9294,9.8534,0.0531,-0.0299,9.8064,0.0776,-0.2025,0.0382,-8.44,-37.62,-1.56,130.37,-86.37,34.73
284,52.76078,-1.679931,116.15,0.0,6,324.36,20 / 22,2712320,2019-11-06 11:26:59:663,5.0645,-2.8659,8.2278,0.0092,-0.0314,9.8065,0.0534,-0.2144,-0.033,-8.75,-37.81,-1.56,123.16,-87.0,35.32
285,52.76078,-1.679931,116.15,0.0,6,324.36,20 / 22,2712420,2019-11-06 11:26:59:763,5.4568,-3.581,8.7888,-0.0155,-0.0801,9.8063,-0.0827,-0.3685,0.016,-9.31,-39.62,-1.81,123.16,-87.0,35.32
286,52.76078,-1.679931,116.15,0.0,6,324.36,20 / 22,2712520,2019-11-06 11:26:59:863,0.1301,-2.0864,9.9566,-0.1265,-0.0424,9.8057,-0.0685,-0.4921,-0.1134,-9.69,-38.31,-2.5,114.88,-87.15,26.42
287,52.76078,-1.679931,116.15,0.0,6,324.36,20 / 22,2712621,2019-11-06 11:26:59:964,0.8611,-3.2851,10.0473,-0.0413,-0.0251,9.8064,-0.1207,-0.6493,0.1346,-10.44,-37.19,-3.25,101.44,-86.19,14.78
288,52.76078,-1.679931,116.15,0.0,6,324.36,20 / 22,2712719,2019-11-06 11:27:00:062,1.3092,-3.8946,10.6141,-0.0511,-0.0346,9.8064,0.0347,-0.7635,0.0191,-11.06,-36.44,-3.87,93.78,-85.93,11.16
289,52.76078,-1.679931,116.15,0.0,6,324.36,20 / 22,2712820,2019-11-06 11:27:00:163,2.1192,-1.5626,10.3409,0.0302,0.0007,9.8065,-0.0111,-0.61,0.0187,-12.06,-36.75,-4.37,93.78,-85.93,11.16
290,52.76078,-1.679931,116.15,0.0,6,324.36,20 / 22,2712919,2019-11-06 11:27:00:262,1.942,-1.2558,9.8891,0.0135,-0.0753,9.8063,0.0226,-0.5,-0.0881,-13.25,-35.94,-5.0,94.62,-86.1,11.38
291,52.760864,-1.680033,116.16,4.59,6,349.59,21 / 23,2713020,2019-11-06 11:27:00:363,2.3648,-2.4514,10.4094,0.0158,-0.1173,9.8058,-0.102,-0.4993,-0.0277,-14.25,-36.12,-4.94,80.68,-86.19,1.16
292,52.760864,-1.680033,116.16,4.59,6,349.59,21 / 23,2713119,2019-11-06 11:27:00:462,1.5772,-3.5327,9.2416,0.0038,-0.1199,9.8059,-0.0652,-0.5936,0.0346,-14.81,-35.81,-5.19,80.68,-86.19,1.16
293,52.760864,-1.680033,116.16,4.59,6,349.59,21 / 23,2713219,2019-11-06 11:27:00:562,1.6672,-3.8432,9.5337,0.0273,-0.0427,9.8065,0.009,-0.8264,0.1898,-17.62,-37.12,-5.56,67.73,-86.04,-8.95
294,52.760864,-1.680033,116.16,4.59,6,349.59,21 / 23,2713319,2019-11-06 11:27:00:662,2.1904,-3.2991,9.5113,0.0332,-0.0322,9.8065,0.0438,-0.7718,0.0585,-18.75,-36.94,-5.69,60.33,-86.22,-18.31
295,52.760864,-1.680033,116.16,4.59,6,349.59,21 / 23,2713420,2019-11-06 11:27:00:763,1.1908,-2.7967,9.7855,0.115,-0.1006,9.8054,0.0325,-0.6859,0.0671,-19.5,-36.94,-5.12,60.33,-86.22,-18.31
296,52.760864,-1.680033,116.16,4.59,6,349.59,21 / 23,2713520,2019-11-06 11:27:00:863,1.0545,-1.941,9.2877,0.0152,0.0243,9.8066,-0.032,-0.5384,-0.1771,-20.75,-36.87,-4.94,48.96,-86.41,-31.92
297,52.760864,-1.680033,116.16,4.59,6,349.59,21 / 23,2713620,2019-11-06 11:27:00:963,1.4068,-3.0361,10.2017,0.0189,0.022,9.8065,-0.007,-0.5319,-0.1353,-21.31,-37.19,-5.0,50.37,-86.78,-30.54
298,52.760864,-1.680033,116.16,4.59,6,349.59,21 / 23,2713720,2019-11-06 11:27:01:063,2.327,-1.049,10.0182,0.0167,0.0239,9.8065,0.0221,-0.5584,-0.0328,-22.75,-36.62,-4.06,55.14,-87.13,-28.76
299,52.760864,-1.680033,116.16,4.59,6,349.59,21 / 23,2713820,2019-11-06 11:27:01:163,0.707,-0.0028,9.6959,0.025,0.0344,9.8065,0.025,-0.5428,0.0032,-23.44,-36.81,-3.31,55.14,-87.13,-28.76
300,52.760864,-1.680033,116.16,4.59,6,349.59,21 / 23,2713920,2019-11-06 11:27:01:263,1.9612,-2.1303,10.2691,0.02,-0.0336,9.8066,0.008,-0.5813,0.0736,-24.31,-37.31,-3.37,55.75,-87.34,-30.52
301,52.76089,-1.680005,116.17,5.3,6,25.81,20 / 22,2714020,2019-11-06 11:27:01:363,2.0209,-1.9533,9.8692,-0.0049,0.0264,9.8066,-0.0299,-0.3329,-0.0744,-24.75,-36.87,-2.81,48.89,-87.35,-37.23
302,52.76089,-1.680005,116.17,5.3,6,25.81,20 / 22,2714120,2019-11-06 11:27:01:463,1.9045,-2.2195,9.7095,-0.0104,0.0453,9.8065,-0.0682,-0.2133,-0.0608,-25.0,-37.06,-2.62,48.89,-87.35,-37.23
303,52.76089,-1.680005,116.17,5.3,6,25.81,20 / 22,2714220,2019-11-06 11:27:01:563,1.2982,-0.1985,9.7513,0.0073,0.0135,9.8066,0.0248,-0.279,-0.0874,-26.75,-36.62,-1.19,56.75,-87.47,-31.8
304,52.76089,-1.680005,116.17,5.3,6,25.81,20 / 22,2714320,2019-11-06 11:27:01:663,1.6484,0.7393,9.8789,0.0295,-0.0083,9.8065,0.0612,-0.4158,0.0619,-26.37,-36.56,-1.62,55.08,-87.61,-33.33
305,52.76089,-1.680005,116.17,5.3,6,25.81,20 / 22,2714420,2019-11-06 11:27:01:763,2.4669,-0.985,10.0824,0.0667,-0.0314,9.8063,0.0402,-0.3894,0.0648,-27.37,-36.5,-0.56,46.98,-87.79,-43.07
306,52.76089,-1.680005,116.17,5.3,6,25.81,20 / 22,2714520,2019-11-06 11:27:01:863,2.4474,-2.5643,10.3795,0.0245,-0.0183,9.8066,-0.0317,-0.2533,0.018,-27.62,-37.12,-0.06,46.98,-87.79,-43.07
307,52.76089,-1.680005,116.17,5.3,6,25.81,20 / 22,2714620,2019-11-06 11:27:01:963,1.9998,-1.7729,9.8932,-0.0106,-0.0682,9.8063,-0.0016,-0.1989,0.0581,-28.87,-36.69,0.44,46.47,-87.81,-47.69
308,52.76089,-1.680005,116.17,5.3,6,25.81,20 / 22,2714721,2019-11-06 11:27:02:064,1.6804,-2.5394,9.5019,-0.0025,-0.121,9.8059,0.024,-0.3452,0.0382,-28.87,-35.87,0.69,35.69,-87.27,-58.29
309,52.76089,-1.680005,116.17,5.3,6,25.81,20 / 22,2714819,2019-11-06 11:27:02:162,1.1667,-3.0635,9.9663,0.0143,-0.0776,9.8062,-0.0434,-0.1888,-0.0161,-29.56,-36.06,1.13,35.69,-87.27,-58.29
310,52.76089,-1.680005,116.17,5.3,6,25.81,20 / 22,2714921,2019-11-06 11:27:02:264,1.4376,-1.3611,9.8796,0.0164,-0.0205,9.8066,-0.0177,-0.1682,-0.1443,-30.12,-36.5,1.81,29.22,-86.93,-64.52
311,52.760914,-1.679957,116.37,5.35,6,44.55,21 / 23,2715019,2019-11-06 11:27:02:362,1.8774,-3.8491,10.3192,0.0096,-0.0041,9.8066,-0.0679,-0.1199,-0.0714,-30.0,-36.37,2.25,28.52,-86.87,-67.12
312,52.760914,-1.679957,116.37,5.35,6,44.55,21 / 23,2715121,2019-11-06 11:27:02:464,1.4231,-2.9499,10.4921,-0.0055,0.0126,9.8066,-0.0783,-0.234,-0.0929,-31.06,-36.19,3.81,33.4,-86.92,-65.94
313,52.760914,-1.679957,116.37,5.35,6,44.55,21 / 23,2715220,2019-11-06 11:27:02:563,1.086,-0.8268,9.8273,0.0414,-0.0459,9.8064,0.0674,-0.5593,0.1326,-31.0,-36.31,3.5,33.4,-86.92,-65.94
314,52.760914,-1.679957,116.37,5.35,6,44.55,21 / 23,2715324,2019-11-06 11:27:02:667,1.0383,-0.7463,9.849,0.0348,-0.0144,9.8065,-0.0467,-0.3001,0.1043,-31.94,-35.75,4.75,26.81,-86.81,-72.24
315,52.760914,-1.679957,116.37,5.35,6,44.55,21 / 23,2715419,2019-11-06 11:27:02:762,2.2322,-0.722,10.2994,0.0248,-0.0029,9.8066,0.0268,-0.09,-0.2063,-32.37,-35.12,5.44,20.82,-86.87,-79.3
