,GPS LATITUDE (degrees),GPS LONGITUDE (degrees), GPS ALTITUDE (m),GPS SPEED (Kmh),GPS ACCURACY (m),GPS ORIENTATION (Â°), SATELLITES IN RANGE, TIME SINCE START (ms), DATE (YYYY-MO-DD HH-MI-SS_SSS),ACCELEROMETER X (m/s²) , ACCELEROMETER Y (m/s²), ACCELEROMETER Z (m/s²), GRAVITY X (m/s²), GRAVITY Y (m/s²), GRAVITY Z (m/s²), GYROSCOPE Yaw (rad/s), GYROSCOPE Pitch (rad/s), GYROSCOPE Roll (rad/s)
47194,46.892178,-1.297192,120.76,35.35,3.216,151.2,17 / 21,4719410,2019-08-09 21:32:48:148,-1.161,-0.2704,9.6202,-0.5708,-0.0073,9.79,-0.0085,-0.0055,0.0059
47195,46.892178,-1.297192,120.76,35.35,3.216,151.2,17 / 21,4719512,2019-08-09 21:32:48:250,-1.6668,-0.4751,9.4065,-0.5555,-0.0215,9.7909,-0.0004,0.0054,-0.0173
47196,46.892178,-1.297192,120.76,35.35,3.216,151.2,17 / 21,4719611,2019-08-09 21:32:48:349,-2.0924,-0.0693,9.9105,-0.5727,-0.0231,9.7899,-0.0038,0.026,0.0095
47197,46.892178,-1.297192,120.76,35.35,3.216,151.2,17 / 21,4719711,2019-08-09 21:32:48:449,0.2976,-0.3447,9.9446,-0.574,-0.0316,9.7898,0.0027,0.0117,0.0004
47198,46.892178,-1.297192,120.76,35.35,3.216,151.2,17 / 21,4719811,2019-08-09 21:32:48:549,-0.168,0.0642,9.9368,-0.5835,-0.0312,9.7892,0.0018,0.0152,-0.0213
47199,46.892178,-1.297192,120.76,35.35,3.216,151.2,17 / 21,4719911,2019-08-09 21:32:48:649,-0.4895,-0.1124,9.5801,-0.5726,-0.0344,9.7899,-0.0006,-0.0002,-0.0111
47200,46.892178,-1.297192,120.76,35.35,3.216,151.2,17 / 21,4720011,2019-08-09 21:32:48:749,-0.3231,0.2551,9.9847,-0.5783,-0.0367,9.7895,-0.0052,0.0118,-0.0084
47201,46.892178,-1.297192,120.76,35.35,3.216,151.2,17 / 21,4720111,2019-08-09 21:32:48:849,-1.1329,0.1492,10.1403,-0.5873,-0.0498,9.7889,-0.0197,0.0114,0.0003
47202,46.892178,-1.297192,120.76,35.35,3.216,151.2,17 / 21,4720210,2019-08-09 21:32:48:948,-0.9336,-0.2567,9.6028,-0.5735,-0.0649,9.7897,-0.0087,-0.0061,-0.0064
47203,46.892178,-1.297192,120.76,35.35,3.216,151.2,17 / 21,4720311,2019-08-09 21:32:49:049,-0.4512,0.0402,10.4498,-0.5975,-0.0749,9.7881,-0.0024,0.0365,-0.0159
47204,46.892178,-1.297192,120.76,35.35,3.216,151.2,17 / 21,4720410,2019-08-09 21:32:49:148,-1.2365,-0.4213,10.0194,-0.5906,-0.0784,9.7885,-0.0081,0.0056,0.0154
47205,46.892178,-1.297192,120.76,35.35,3.216,151.2,17 / 21,4720511,2019-08-09 21:32:49:249,-1.4681,-0.3057,9.0132,-0.5648,-0.0777,9.7901,0.0154,-0.0186,0.0109
47206,46.88964,-1.295324,124.04,34.88,3.216,153.6,17 / 21,4720610,2019-08-09 21:32:49:348,-1.0611,-0.0555,9.7531,-0.5692,-0.0742,9.7898,-0.0053,-0.0048,-0.0027
47207,46.88964,-1.295324,124.04,34.88,3.216,153.6,17 / 21,4720711,2019-08-09 21:32:49:449,0.6005,-0.052,9.9308,-0.5742,-0.0774,9.7895,-0.0184,0.0244,-0.0079
47208,46.88964,-1.295324,124.04,34.88,3.216,153.6,17 / 21,4720810,2019-08-09 21:32:49:548,0.3629,-0.3165,10.2085,-0.5892,-0.0916,9.7885,0.0037,-0.0021,0.0226
47209,46.88964,-1.295324,124.04,34.88,3.216,153.6,17 / 21,4720910,2019-08-09 21:32:49:648,0.4832,-0.1842,9.1533,-0.5822,-0.0882,9.789,0.0321,-0.0485,-0.0219
47210,46.88964,-1.295324,124.04,34.88,3.216,153.6,17 / 21,4721013,2019-08-09 21:32:49:751,-1.4411,0.1492,9.1054,-0.5594,-0.0614,9.7905,0.0184,0.019,-0.0047
47211,46.88964,-1.295324,124.04,34.88,3.216,153.6,17 / 21,4721111,2019-08-09 21:32:49:849,-1.3178,0.2078,9.8225,-0.5603,-0.0512,9.7905,-0.007,-0.0141,-0.008
47212,46.88964,-1.295324,124.04,34.88,3.216,153.6,17 / 21,4721210,2019-08-09 21:32:49:948,-1.2269,-0.201,9.8159,-0.5651,-0.0636,9.7901,-0.0124,0.0172,0.0041
47213,46.88964,-1.295324,124.04,34.88,3.216,153.6,17 / 21,4721310,2019-08-09 21:32:50:048,-0.0675,-0.0585,9.7405,-0.573,-0.0676,9.7897,0.0049,-0.0074,-0.0016
47214,46.88964,-1.295324,124.04,34.88,3.216,153.6,17 / 21,4721411,2019-08-09 21:32:50:149,-0.1555,0.051,9.698,-0.5741,-0.0612,9.7896,0.0033,-0.0164,0.0023
47215,46.88964,-1.295324,124.04,34.88,3.216,153.6,17 / 21,4721511,2019-08-09 21:32:50:249,-0.5361,-0.1382,9.707,-0.5709,-0.0587,9.7898,0.0008,-0.0152,-0.0025
47216,46.88964,-1.295324,124.04,34.88,3.216,153.6,16 / 20,4721611,2019-08-09 21:32:50:349,-0.2997,-0.2573,9.9446,-0.5656,-0.0562,9.7902,0.0058,0.0142,-0.0173
47217,46.88964,-1.295324,124.04,34.88,3.216,153.6,16 / 20,4721711,2019-08-09 21:32:50:449,-0.0531,0.0785,9.9494,-0.5717,-0.0551,9.7898,-0.0069,-0.0079,0.001
47218,46.88964,-1.295324,124.04,34.88,3.216,153.6,16 / 20,4721810,2019-08-09 21:32:50:548,0.5856,0.2683,9.7554,-0.5962,-0.0617,9.7883,0.0064,-0.0336,0.0286
47219,46.88964,-1.295324,124.04,34.88,3.216,153.6,16 / 20,4721910,2019-08-09 21:32:50:648,-1.7662,-0.8127,9.5316,-0.5824,-0.0555,9.7892,0.0064,-0.0336,0.0286
47220,46.88964,-1.295324,124.04,34.88,3.216,153.6,16 / 20,4722010,2019-08-09 21:32:50:748,-1.7296,-0.2207,9.4837,-0.5626,-0.0599,9.7903,0.0054,0.0053,0.0143
47221,46.88964,-1.295324,124.04,34.88,3.216,153.6,16 / 20,4722110,2019-08-09 21:32:50:848,-1.2137,-0.2662,10.0697,-0.5626,-0.0688,9.7903,-0.0232,0.0151,0.009
47222,46.88964,-1.295324,124.04,34.88,3.216,153.6,16 / 20,4722211,2019-08-09 21:32:50:949,0.2432,-0.4739,9.6651,-0.5656,-0.0958,9.7899,0.0013,0.0156,-0.0017
47223,46.88964,-1.295324,124.04,34.88,3.216,153.6,16 / 20,4722310,2019-08-09 21:32:51:048,-0.022,-0.3572,9.4418,-0.5764,-0.1003,9.7892,0.0013,-0.0228,0.0124
47224,46.88964,-1.295324,124.04,34.88,3.216,153.6,16 / 20,4722411,2019-08-09 21:32:51:149,-0.7839,-0.5966,9.5699,-0.5588,-0.1063,9.7901,0.0163,-0.0031,0.0079
47225,46.88964,-1.295324,124.04,34.88,3.216,153.6,16 / 20,4722511,2019-08-09 21:32:51:249,-0.4745,-0.3105,9.6262,-0.5538,-0.1016,9.7905,0.0134,-0.0226,-0.0123
47226,46.88964,-1.295324,124.04,34.88,3.216,153.6,17 / 21,4722610,2019-08-09 21:32:51:348,-0.1531,-0.2393,9.3556,-0.533,-0.0967,9.7917,0.0009,0.0476,0.0023
47227,46.88964,-1.295324,124.04,34.88,3.216,153.6,17 / 21,4722710,2019-08-09 21:32:51:448,-0.2028,-0.3285,9.6992,-0.5515,-0.1021,9.7906,-0.0074,-0.0162,0.0004
47228,46.88964,-1.295324,124.04,34.88,3.216,153.6,17 / 21,4722810,2019-08-09 21:32:51:548,-0.7929,-0.4099,9.1749,-0.532,-0.1074,9.7916,0.0143,-0.0105,-0.0042
47229,46.88964,-1.295324,124.04,34.88,3.216,153.6,17 / 21,4722910,2019-08-09 21:32:51:648,-1.0922,0.0989,10.1595,-0.5474,-0.1014,9.7908,0.0004,0.0308,-0.0192
47230,46.88964,-1.295324,124.04,34.88,3.216,153.6,17 / 21,4723010,2019-08-09 21:32:51:748,-1.8775,-0.4668,10.0152,-0.5606,-0.1163,9.7899,-0.0162,-0.0077,0.0081
47231,46.88964,-1.295324,124.04,34.88,3.216,153.6,17 / 21,4723110,2019-08-09 21:32:51:848,0.0259,-0.7822,9.3065,-0.5407,-0.118,9.791,0.0139,-0.0036,0.0177
47232,46.88964,-1.295324,124.04,34.88,3.216,153.6,17 / 21,4723211,2019-08-09 21:32:51:949,0.418,-0.4973,8.4716,-0.5352,-0.112,9.7914,0.0126,-0.0272,0.0008
47233,46.88964,-1.295324,124.04,34.88,3.216,153.6,17 / 21,4723311,2019-08-09 21:32:52:049,0.9752,-0.1878,9.8566,-0.5242,-0.1166,9.7919,-0.03,-0.0003,-0.0085
47234,46.88964,-1.295324,124.04,34.88,3.216,153.6,17 / 21,4723411,2019-08-09 21:32:52:149,-0.9342,-0.1824,9.2503,-0.5463,-0.1492,9.7903,-0.0314,0.0345,0.03
47235,46.88964,-1.295324,124.04,34.88,3.216,153.6,17 / 21,4723510,2019-08-09 21:32:52:248,-0.3937,-0.5751,11.6959,-0.5963,-0.1645,9.7871,-0.0208,0.0884,0.0063
47236,46.88964,-1.295324,124.04,34.88,3.216,153.6,16 / 20,4723610,2019-08-09 21:32:52:348,-0.6427,-0.4787,9.7788,-0.6276,-0.1628,9.7852,0.0203,-0.0445,0.0134
47237,46.88964,-1.295324,124.04,34.88,3.216,153.6,16 / 20,4723710,2019-08-09 21:32:52:448,-0.3159,-0.5039,9.7453,-0.6309,-0.1523,9.7851,0.0253,-0.006,-0.0013
47238,46.88964,-1.295324,124.04,34.88,3.216,153.6,16 / 20,4723810,2019-08-09 21:32:52:548,-0.6223,-0.3411,8.5428,-0.5408,-0.1315,9.7908,-0.006,-0.0306,-0.0053
47239,46.88964,-1.295324,124.04,34.88,3.216,153.6,16 / 20,4723911,2019-08-09 21:32:52:649,-0.7462,-0.5128,8.6373,-0.5255,-0.1322,9.7917,-0.0007,-0.0193,0.0076
47240,46.88964,-1.295324,124.04,34.88,3.216,153.6,16 / 20,4724011,2019-08-09 21:32:52:749,0.8627,0.1037,9.3233,-0.5116,-0.1395,9.7923,-0.0173,-0.0029,-0.0095
47241,46.88964,-1.295324,124.04,34.88,3.216,153.6,16 / 20,4724111,2019-08-09 21:32:52:849,-0.0136,-0.265,10.5042,-0.5543,-0.1509,9.7898,0.0026,0.0335,0.0331
47242,46.88964,-1.295324,124.04,34.88,3.216,153.6,16 / 20,4724211,2019-08-09 21:32:52:949,-0.7043,-0.2938,10.8029,-0.5716,-0.1505,9.7888,0.0107,0.0418,-0.0201
47243,46.88964,-1.295324,124.04,34.88,3.216,153.6,16 / 20,4724311,2019-08-09 21:32:53:049,-0.4697,-0.0789,10.0374,-0.5787,-0.1251,9.7888,0.0283,0.0113,0.0009
47244,46.88964,-1.295324,124.04,34.88,3.216,153.6,16 / 20,4724411,2019-08-09 21:32:53:149,-0.4883,-0.122,10.2002,-0.5823,-0.1057,9.7888,0.0331,0.0214,-0.0125
47245,46.88964,-1.295324,124.04,34.88,3.216,153.6,16 / 20,4724511,2019-08-09 21:32:53:249,-0.9132,-0.1358,9.2455,-0.5718,-0.0697,9.7897,0.0171,-0.0052,0.0019
47246,46.88964,-1.295324,124.04,34.88,3.216,153.6,17 / 21,4724611,2019-08-09 21:32:53:349,-0.283,-0.3123,9.0563,-0.5586,-0.0714,9.7905,-0.0015,-0.0186,0.0117
47247,46.88964,-1.295324,124.04,34.88,3.216,153.6,17 / 21,4724710,2019-08-09 21:32:53:448,-1.4932,-0.2752,10.348,-0.5822,-0.0768,9.7891,-0.0012,0.0412,0.0402
47248,46.88964,-1.295324,124.04,34.88,3.216,153.6,17 / 21,4724810,2019-08-09 21:32:53:548,-1.4196,-0.6224,10.2983,-0.5604,-0.0865,9.7902,-0.006,0.0326,0.0063
47249,46.88964,-1.295324,124.04,34.88,3.216,153.6,17 / 21,4724910,2019-08-09 21:32:53:648,-0.9563,-0.7409,9.8434,-0.5858,-0.1005,9.7886,0.0199,-0.0228,0.016
47250,46.88964,-1.295324,124.04,34.88,3.216,153.6,17 / 21,4725010,2019-08-09 21:32:53:748,-0.4236,-0.6691,9.376,-0.578,-0.103,9.7891,0.0199,-0.0228,0.016
47251,46.88964,-1.295324,124.04,34.88,3.216,153.6,17 / 21,4725111,2019-08-09 21:32:53:849,-0.4218,-0.1417,9.5052,-0.5556,-0.0928,9.7905,0.0114,-0.0098,-0.0012
47252,46.88964,-1.295324,124.04,34.88,3.216,153.6,17 / 21,4725211,2019-08-09 21:32:53:949,-1.103,-0.4464,9.203,-0.5372,-0.0972,9.7914,-0.0122,-0.0224,0.0135
47253,46.88964,-1.295324,124.04,34.88,3.216,153.6,17 / 21,4725311,2019-08-09 21:32:54:049,0.9489,-0.3907,9.8913,-0.5434,-0.1268,9.7908,-0.016,0.0485,0.0037
47254,46.88964,-1.295324,124.04,34.88,3.216,153.6,17 / 21,4725411,2019-08-09 21:32:54:149,0.6933,-0.5715,10.0541,-0.5369,-0.1373,9.791,-0.0106,0.0469,0.017
47255,46.88964,-1.295324,124.04,34.88,3.216,153.6,17 / 21,4725511,2019-08-09 21:32:54:249,0.2318,-0.444,10.2953,-0.5572,-0.1566,9.7896,-0.003,0.0159,0.0001
47256,46.88964,-1.295324,124.04,34.88,3.216,153.6,16 / 20,4725610,2019-08-09 21:32:54:348,-1.6333,-0.3758,9.8303,-0.568,-0.1619,9.7888,0.0053,-0.0273,0.0135
47257,46.88964,-1.295324,124.04,34.88,3.216,153.6,16 / 20,4725710,2019-08-09 21:32:54:448,-0.6636,-0.1358,9.0545,-0.5349,-0.162,9.7907,-0.008,0.0381,-0.0045
47258,46.88964,-1.295324,124.04,34.88,3.216,153.6,16 / 20,4725810,2019-08-09 21:32:54:548,-0.423,-0.1262,10.0368,-0.5445,-0.1705,9.79,-0.0208,-0.0142,0.0051
47259,46.88964,-1.295324,124.04,34.88,3.216,153.6,16 / 20,4725910,2019-08-09 21:32:54:648,-1.0677,0.1731,9.9015,-0.5357,-0.1858,9.7902,-0.0047,-0.0417,0.0095
47260,46.88964,-1.295324,124.04,34.88,3.216,153.6,16 / 20,4726010,2019-08-09 21:32:54:748,0.2402,0.7992,10.925,-0.5694,-0.1885,9.7883,-0.011,0.0613,-0.0475
47261,46.88964,-1.295324,124.04,34.88,3.216,153.6,16 / 20,4726111,2019-08-09 21:32:54:849,-0.6193,-0.1974,9.4484,-0.5658,-0.1882,9.7885,0.0058,-0.0369,0.0022
47262,46.88964,-1.295324,124.04,34.88,3.216,153.6,16 / 20,4726211,2019-08-09 21:32:54:949,-0.4703,0.1599,9.6489,-0.5589,-0.1805,9.789,0.0121,0.0138,-0.0232
47263,46.88964,-1.295324,124.04,34.88,3.216,153.6,16 / 20,4726311,2019-08-09 21:32:55:049,-0.4829,0.3479,10.0541,-0.5594,-0.1663,9.7893,-0.0051,0.0097,-0.0089
47264,46.88964,-1.295324,124.04,34.88,3.216,153.6,16 / 20,4726411,2019-08-09 21:32:55:149,-0.7971,-0.1495,9.8847,-0.5487,-0.163,9.7899,0.0053,-0.0268,0.0122
47265,46.88964,-1.295324,124.04,34.88,3.216,153.6,16 / 20,4726511,2019-08-09 21:32:55:249,-0.1686,-0.2668,9.1132,-0.5546,-0.1571,9.7897,0.0061,0.0222,-0.0079
47266,46.88964,-1.295324,124.04,34.88,3.216,153.6,17 / 21,4726611,2019-08-09 21:32:55:349,-0.6858,-0.0974,9.5579,-0.5508,-0.1591,9.7899,-0.01,-0.0199,0.0052
47267,46.88964,-1.295324,124.04,34.88,3.216,153.6,17 / 21,4726710,2019-08-09 21:32:55:448,-0.2722,-0.3267,9.8644,-0.5437,-0.1577,9.7903,0.0013,0.0234,-0.0069
47268,46.88964,-1.295324,124.04,34.88,3.216,153.6,17 / 21,4726810,2019-08-09 21:32:55:548,-0.7432,0.2587,9.7483,-0.5416,-0.1634,9.7903,-0.0107,0.0013,-0.0291
47269,46.88964,-1.295324,124.04,34.88,3.216,153.6,17 / 21,4726910,2019-08-09 21:32:55:648,-0.9683,0.0474,10.1804,-0.5639,-0.1774,9.7888,-0.0227,0.0115,-0.0178
47270,46.88964,-1.295324,124.04,34.88,3.216,153.6,17 / 21,4727011,2019-08-09 21:32:55:749,-0.7708,-0.0573,9.7237,-0.5551,-0.1803,9.7893,0.0163,0.0014,0.0
47271,46.88964,-1.295324,124.04,34.88,3.216,153.6,17 / 21,4727110,2019-08-09 21:32:55:848,-0.4182,0.0157,9.865,-0.564,-0.1603,9.7891,0.0105,-0.0168,-0.0005
47272,46.88964,-1.295324,124.04,34.88,3.216,153.6,17 / 21,4727210,2019-08-09 21:32:55:948,-0.0788,0.1641,9.3885,-0.5539,-0.1517,9.7898,0.0104,-0.0223,-0.0021
47273,46.88964,-1.295324,124.04,34.88,3.216,153.6,17 / 21,4727310,2019-08-09 21:32:56:048,-0.6301,0.1456,9.5729,-0.5506,-0.1411,9.7902,0.0052,0.0125,0.006
47274,46.88964,-1.295324,124.04,34.88,3.216,153.6,17 / 21,4727410,2019-08-09 21:32:56:148,-0.8306,0.1055,9.8512,-0.5463,-0.1353,9.7905,-0.0101,0.0015,-0.0067
47275,46.88964,-1.295324,124.04,34.88,3.216,153.6,17 / 21,4727511,2019-08-09 21:32:56:249,-0.3201,-0.0472,9.9763,-0.5556,-0.1413,9.7899,-0.0179,0.004,0.0126
47276,46.88964,-1.295324,124.04,34.88,3.216,153.6,17 / 21,4727610,2019-08-09 21:32:56:348,0.5838,-0.2231,9.3526,-0.5526,-0.1563,9.7898,0.0027,-0.0138,0.0031
47277,46.88964,-1.295324,124.04,34.88,3.216,153.6,17 / 21,4727710,2019-08-09 21:32:56:448,-1.8452,0.0289,10.0014,-0.5628,-0.1545,9.7893,0.0059,0.0061,-0.0192
47278,46.88964,-1.295324,124.04,34.88,3.216,153.6,17 / 21,4727811,2019-08-09 21:32:56:549,-0.748,-0.1334,10.2929,-0.5697,-0.1456,9.789,0.0022,-0.0059,-0.0151
47279,46.88964,-1.295324,124.04,34.88,3.216,153.6,17 / 21,4727911,2019-08-09 21:32:56:649,-0.7504,-0.0705,9.6046,-0.5591,-0.1402,9.7897,0.009,-0.0052,-0.0248
47280,46.88964,-1.295324,124.04,34.88,3.216,153.6,17 / 21,4728010,2019-08-09 21:32:56:748,-0.1285,0.0145,9.8662,-0.5716,-0.1193,9.7893,0.0108,-0.0082,0.0181
47281,46.88964,-1.295324,124.04,34.88,3.216,153.6,17 / 21,4728110,2019-08-09 21:32:56:848,-0.2943,-0.2297,9.5029,-0.5775,-0.1209,9.7889,-0.0003,0.0186,-0.0007
47282,46.88964,-1.295324,124.04,34.88,3.216,153.6,17 / 21,4728211,2019-08-09 21:32:56:949,-0.4739,0.118,9.7542,-0.5677,-0.1106,9.7896,-0.0051,0.0186,-0.0277
47283,46.88964,-1.295324,124.04,34.88,3.216,153.6,17 / 21,4728311,2019-08-09 21:32:57:049,0.0433,-0.0783,9.756,-0.5568,-0.1114,9.7902,-0.0017,-0.0079,0.0049
47284,46.88964,-1.295324,124.04,34.88,3.216,153.6,17 / 21,4728411,2019-08-09 21:32:57:149,-0.2177,0.1222,10.0314,-0.5729,-0.1131,9.7893,-0.0057,0.0348,-0.0068
47285,46.88964,-1.295324,124.04,34.88,3.216,153.6,17 / 21,4728510,2019-08-09 21:32:57:248,0.0732,-0.1208,9.528,-0.5426,-0.1131,9.791,0.001,0.0191,0.0063
47286,46.88964,-1.295324,124.04,34.88,3.216,153.6,17 / 21,4728611,2019-08-09 21:32:57:349,-0.4559,0.1276,10.1457,-0.5337,-0.1081,9.7915,-0.0019,0.0242,-0.026
47287,46.88964,-1.295324,124.04,34.88,3.216,153.6,17 / 21,4728710,2019-08-09 21:32:57:448,-0.8468,0.1863,9.9751,-0.5456,-0.1097,9.7908,-0.0097,0.0176,0.0128
47288,46.88964,-1.295324,124.04,34.88,3.216,153.6,17 / 21,4728810,2019-08-09 21:32:57:548,-0.7361,-0.0861,9.9996,-0.5645,-0.1219,9.7896,-0.0056,-0.001,0.0014
47289,46.88964,-1.295324,124.04,34.88,3.216,153.6,17 / 21,4728910,2019-08-09 21:32:57:648,-0.0884,0.0726,9.9171,-0.544,-0.1221,9.7908,-0.0002,-0.0123,-0.015
47290,46.88964,-1.295324,124.04,34.88,3.216,153.6,17 / 21,4729011,2019-08-09 21:32:57:749,-0.6822,-0.0909,9.7495,-0.5508,-0.1308,9.7903,-0.0073,0.0106,0.0126
47291,46.88964,-1.295324,124.04,34.88,3.216,153.6,17 / 21,4729110,2019-08-09 21:32:57:848,0.0217,-0.3447,10.0487,-0.5596,-0.135,9.7897,-0.0114,-0.0029,-0.0003
47292,46.88964,-1.295324,124.04,34.88,3.216,153.6,17 / 21,4729210,2019-08-09 21:32:57:948,-0.7618,-0.2477,9.6339,-0.5581,-0.1323,9.7899,0.0175,0.0245,-0.0168
47293,46.88964,-1.295324,124.04,34.88,3.216,153.6,17 / 21,4729310,2019-08-09 21:32:58:048,0.57,-0.2722,9.2197,-0.5543,-0.1283,9.7901,0.0117,-0.029,-0.0008
47294,46.88964,-1.295324,124.04,34.88,3.216,153.6,17 / 21,4729410,2019-08-09 21:32:58:148,-0.104,-0.5404,9.349,-0.5277,-0.1259,9.7916,-0.0029,0.0169,-0.0038
47295,46.88964,-1.295324,124.04,34.88,3.216,153.6,17 / 21,4729510,2019-08-09 21:32:58:248,-0.9072,-0.5242,9.6501,-0.5492,-0.1372,9.7903,-0.0173,-0.0003,-0.0021
47296,46.887123,-1.293544,125.55,34.46,3.216,153.5,16 / 21,4729610,2019-08-09 21:32:58:348,0.1337,-0.2375,9.8009,-0.5435,-0.1554,9.7903,-0.0118,0.029,-0.0056
47297,46.887123,-1.293544,125.55,34.46,3.216,153.5,16 / 21,4729710,2019-08-09 21:32:58:448,-0.092,-0.2459,9.543,-0.5411,-0.1594,9.7904,-0.0051,-0.0257,0.0094
47298,46.887123,-1.293544,125.55,34.46,3.216,153.5,16 / 21,4729810,2019-08-09 21:32:58:548,0.0319,0.1869,9.9823,-0.5416,-0.1558,9.7904,0.0167,0.0162,-0.0236
47299,46.887123,-1.293544,125.55,34.46,3.216,153.5,16 / 21,4729910,2019-08-09 21:32:58:648,-1.3526,0.0971,9.8584,-0.543,-0.1507,9.7904,0.003,-0.0035,-0.0085
47300,46.887123,-1.293544,125.55,34.46,3.216,153.5,16 / 21,4730010,2019-08-09 21:32:58:748,-1.9385,-0.1603,9.7459,-0.5524,-0.1518,9.7899,0.0048,-0.0018,-0.0001
47301,46.887123,-1.293544,125.55,34.46,3.216,153.5,16 / 21,4730110,2019-08-09 21:32:58:848,-0.8246,-0.0496,9.795,-0.5495,-0.147,9.7901,-0.001,-0.0171,-0.0086
47302,46.887123,-1.293544,125.55,34.46,3.216,153.5,16 / 21,4730210,2019-08-09 21:32:58:948,-0.4272,-0.1465,9.4358,-0.5229,-0.1417,9.7917,0.01,-0.0128,0.0162
47303,46.887123,-1.293544,125.55,34.46,3.216,153.5,16 / 21,4730311,2019-08-09 21:32:59:049,-0.7277,-0.1405,9.6513,-0.5394,-0.1393,9.7908,-0.0029,0.0059,-0.0096
47304,46.887123,-1.293544,125.55,34.46,3.216,153.5,16 / 21,4730410,2019-08-09 21:32:59:148,-1.0545,-0.4464,9.7872,-0.5409,-0.1425,9.7907,-0.0009,-0.0246,-0.0034
47305,46.887123,-1.293544,125.55,34.46,3.216,153.5,16 / 21,4730511,2019-08-09 21:32:59:249,0.6849,-0.0436,9.7866,-0.5495,-0.1475,9.7901,0.0075,-0.0295,0.0139
47306,46.887123,-1.293544,125.55,34.46,3.216,153.5,16 / 21,4730611,2019-08-09 21:32:59:349,0.7903,-0.0873,9.9697,-0.535,-0.1433,9.791,-0.0082,0.0149,0.0139
47307,46.887123,-1.293544,125.55,34.46,3.216,153.5,16 / 21,4730710,2019-08-09 21:32:59:448,0.3791,-0.2603,9.4909,-0.5466,-0.1459,9.7903,-0.0038,-0.0298,-0.0101
47308,46.887123,-1.293544,125.55,34.46,3.216,153.5,16 / 21,4730810,2019-08-09 21:32:59:548,-0.4062,-0.0226,9.9763,-0.5363,-0.1468,9.7909,-0.0047,-0.0166,-0.0017
47309,46.887123,-1.293544,125.55,34.46,3.216,153.5,16 / 21,4730910,2019-08-09 21:32:59:648,-0.3566,-0.3105,9.9805,-0.5559,-0.1462,9.7898,-0.0026,-0.003,0.0126
47310,46.887123,-1.293544,125.55,34.46,3.216,153.5,16 / 21,4731010,2019-08-09 21:32:59:748,-0.1112,-0.1519,10.111,-0.5341,-0.1501,9.7909,0.0154,-0.015,-0.0114
47311,46.887123,-1.293544,125.55,34.46,3.216,153.5,16 / 21,4731110,2019-08-09 21:32:59:848,-1.0018,0.1318,9.7902,-0.5744,-0.1312,9.7889,0.0077,0.0217,-0.012
47312,46.887123,-1.293544,125.55,34.46,3.216,153.5,16 / 21,4731211,2019-08-09 21:32:59:949,-0.8372,-0.2399,9.3754,-0.5491,-0.1267,9.7904,-0.0001,-0.0458,0.0137
47313,46.887123,-1.293544,125.55,34.46,3.216,153.5,16 / 21,4731311,2019-08-09 21:33:00:049,-1.8715,0.0576,10.1667,-0.5522,-0.1186,9.7904,-0.0001,0.0385,-0.0035
47314,46.887123,-1.293544,125.55,34.46,3.216,153.5,16 / 21,4731410,2019-08-09 21:33:00:148,-0.1148,-0.031,9.616,-0.5473,-0.1292,9.7905,-0.0206,-0.0384,-0.0092
47315,46.887123,-1.293544,125.55,34.46,3.216,153.5,16 / 21,4731510,2019-08-09 21:33:00:248,-0.4194,0.0223,10.1631,-0.5678,-0.1369,9.7892,0.0031,0.0018,0.0096
47316,46.887123,-1.293544,125.55,34.46,3.216,153.5,16 / 21,4731610,2019-08-09 21:33:00:348,-0.7899,-0.3614,9.5986,-0.565,-0.1424,9.7893,-0.0114,-0.0114,-0.0035
47317,46.887123,-1.293544,125.55,34.46,3.216,153.5,16 / 21,4731710,2019-08-09 21:33:00:448,-0.596,-0.0867,10.2498,-0.5697,-0.1589,9.7888,-0.0087,0.0384,0.0036
47318,46.887123,-1.293544,125.55,34.46,3.216,153.5,16 / 21,4731810,2019-08-09 21:33:00:548,0.057,-0.6595,9.9458,-0.5451,-0.1655,9.7901,0.0009,0.0085,-0.0051
47319,46.887123,-1.293544,125.55,34.46,3.216,153.5,16 / 21,4731910,2019-08-09 21:33:00:648,-0.1998,-0.1316,9.9272,-0.5704,-0.172,9.7885,0.0002,-0.0557,0.0053
47320,46.887123,-1.293544,125.55,34.46,3.216,153.5,16 / 21,4732011,2019-08-09 21:33:00:749,-0.2033,-0.4925,9.1461,-0.5399,-0.1704,9.7903,0.0002,-0.0557,0.0053
47321,46.887123,-1.293544,125.55,34.46,3.216,153.5,16 / 21,4732111,2019-08-09 21:33:00:849,-0.2566,-0.4069,9.6046,-0.5521,-0.1669,9.7897,0.0048,-0.0105,-0.0015
47322,46.887123,-1.293544,125.55,34.46,3.216,153.5,16 / 21,4732211,2019-08-09 21:33:00:949,-0.4027,-0.3177,9.3556,-0.5456,-0.1641,9.7901,0.0153,0.0163,-0.0126
47323,46.887123,-1.293544,125.55,34.46,3.216,153.5,16 / 21,4732311,2019-08-09 21:33:01:049,0.2593,0.2605,9.9865,-0.5468,-0.1486,9.7903,-0.0099,0.0022,0.0036
47324,46.887123,-1.293544,125.55,34.46,3.216,153.5,16 / 21,4732411,2019-08-09 21:33:01:149,-0.2776,-0.4709,9.8117,-0.5605,-0.1569,9.7894,-0.0056,-0.0099,0.0232
47325,46.887123,-1.293544,125.55,34.46,3.216,153.5,16 / 21,4732511,2019-08-09 21:33:01:249,-1.0108,-0.0137,9.4352,-0.5539,-0.1633,9.7896,-0.0015,-0.0327,0.0249
47326,46.887123,-1.293544,125.55,34.46,3.216,153.5,16 / 21,4732611,2019-08-09 21:33:01:349,-0.1004,0.0701,9.7782,-0.555,-0.165,9.7895,-0.0024,0.0339,-0.0038
47327,46.887123,-1.293544,125.55,34.46,3.216,153.5,16 / 21,4732710,2019-08-09 21:33:01:448,-1.6931,-0.21,10.4432,-0.5707,-0.1654,9.7886,-0.0046,-0.0262,-0.0099
47328,46.887123,-1.293544,125.55,34.46,3.216,153.5,16 / 21,4732810,2019-08-09 21:33:01:548,-1.5447,-0.2543,9.5795,-0.5636,-0.1627,9.7891,0.0069,0.0272,0.0049
47329,46.887123,-1.293544,125.55,34.46,3.216,153.5,16 / 21,4732910,2019-08-09 21:33:01:648,-0.6235,0.1234,9.7387,-0.567,-0.153,9.789,0.0089,-0.0018,-0.0108
47330,46.887123,-1.293544,125.55,34.46,3.216,153.5,16 / 21,4733010,2019-08-09 21:33:01:748,-0.8905,0.0055,10.0595,-0.5536,-0.1517,9.7898,0.0001,0.0231,0.0063
47331,46.887123,-1.293544,125.55,34.46,3.216,153.5,16 / 21,4733110,2019-08-09 21:33:01:848,-0.6451,-0.1382,9.6058,-0.5615,-0.1554,9.7893,-0.0058,-0.0005,0.013
47332,46.887123,-1.293544,125.55,34.46,3.216,153.5,16 / 21,4733210,2019-08-09 21:33:01:948,-0.4781,-0.0963,9.5603,-0.5575,-0.1565,9.7895,0.0008,0.0205,-0.0224
47333,46.887123,-1.293544,125.55,34.46,3.216,153.5,16 / 21,4733310,2019-08-09 21:33:02:048,0.0008,-0.0172,9.455,-0.5553,-0.1516,9.7897,0.0049,-0.0237,0.0065
47334,46.887123,-1.293544,125.55,34.46,3.216,153.5,16 / 21,4733410,2019-08-09 21:33:02:148,0.1139,-0.2411,9.5873,-0.5669,-0.1514,9.7891,0.0049,-0.0213,0.0163
47335,46.887123,-1.293544,125.55,34.46,3.216,153.5,16 / 21,4733510,2019-08-09 21:33:02:248,0.5443,-0.1585,9.5274,-0.5676,-0.1446,9.7891,0.0112,0.0032,-0.0082
47336,46.887123,-1.293544,125.55,34.46,3.216,153.5,16 / 20,4733610,2019-08-09 21:33:02:348,-1.0114,-0.289,9.5789,-0.5575,-0.1341,9.7899,0.0163,-0.0089,0.0191
47337,46.887123,-1.293544,125.55,34.46,3.216,153.5,16 / 20,4733710,2019-08-09 21:33:02:448,-2.0487,-0.632,9.3394,-0.5401,-0.1389,9.7908,-0.0004,-0.0007,-0.0055
47338,46.887123,-1.293544,125.55,34.46,3.216,153.5,16 / 20,4733811,2019-08-09 21:33:02:549,-2.558,-0.1824,10.1918,-0.5736,-0.146,9.7888,-0.0119,-0.0164,0.0006
47339,46.887123,-1.293544,125.55,34.46,3.216,153.5,16 / 20,4733910,2019-08-09 21:33:02:648,-2.172,-0.2938,10.2971,-0.5654,-0.1671,9.7889,0.0007,-0.04,0.0311
47340,46.887123,-1.293544,125.55,34.46,3.216,153.5,16 / 20,4734010,2019-08-09 21:33:02:748,0.3587,-0.7193,9.6525,-0.5615,-0.1687,9.7891,0.0022,0.0181,-0.0052
47341,46.887123,-1.293544,125.55,34.46,3.216,153.5,16 / 20,4734111,2019-08-09 21:33:02:849,0.1253,-0.6182,9.2233,-0.5611,-0.1679,9.7891,-0.0011,0.0239,-0.0192
47342,46.887123,-1.293544,125.55,34.46,3.216,153.5,16 / 20,4734211,2019-08-09 21:33:02:949,-0.3871,-0.2513,9.9482,-0.5649,-0.1727,9.7888,-0.0135,0.0112,0.0127
47343,46.887123,-1.293544,125.55,34.46,3.216,153.5,16 / 20,4734311,2019-08-09 21:33:03:049,-0.918,-0.6254,9.4454,-0.5519,-0.1839,9.7894,0.0043,0.0159,-0.0111
47344,46.887123,-1.293544,125.55,34.46,3.216,153.5,16 / 20,4734411,2019-08-09 21:33:03:149,1.0686,-0.4404,9.3712,-0.5399,-0.1896,9.7899,0.0145,-0.0086,0.0046
47345,46.887123,-1.293544,125.55,34.46,3.216,153.5,16 / 20,4734510,2019-08-09 21:33:03:248,0.9997,-0.2926,9.7662,-0.5491,-0.1925,9.7894,-0.0088,-0.016,0.0263
47346,46.887123,-1.293544,125.55,34.46,3.216,153.5,17 / 21,4734610,2019-08-09 21:33:03:348,0.0726,-0.6595,9.8369,-0.5455,-0.2013,9.7894,0.0017,0.0059,-0.011
47347,46.887123,-1.293544,125.55,34.46,3.216,153.5,17 / 21,4734710,2019-08-09 21:33:03:448,-0.4937,-0.2549,9.7022,-0.5515,-0.2049,9.789,0.0017,0.0059,-0.011
47348,46.887123,-1.293544,125.55,34.46,3.216,153.5,17 / 21,4734810,2019-08-09 21:33:03:548,-0.2494,-0.5877,9.3975,-0.5449,-0.2074,9.7893,0.001,0.0046,0.0132
47349,46.887123,-1.293544,125.55,34.46,3.216,153.5,17 / 21,4734910,2019-08-09 21:33:03:648,-0.019,-0.195,9.7794,-0.5398,-0.2103,9.7895,-0.0081,0.021,-0.0042
47350,46.887123,-1.293544,125.55,34.46,3.216,153.5,17 / 21,4735010,2019-08-09 21:33:03:748,-1.9613,-0.2812,10.2283,-0.557,-0.2211,9.7883,-0.0123,0.006,0.0172
47351,46.887123,-1.293544,125.55,34.46,3.216,153.5,17 / 21,4735110,2019-08-09 21:33:03:848,-1.8984,-0.6888,9.5603,-0.5588,-0.2301,9.788,0.0081,-0.0193,0.0124
47352,46.887123,-1.293544,125.55,34.46,3.216,153.5,17 / 21,4735210,2019-08-09 21:33:03:948,-1.082,-0.1669,9.3353,-0.5363,-0.2241,9.7894,0.0095,0.0122,0.0
47353,46.887123,-1.293544,125.55,34.46,3.216,153.5,17 / 21,4735310,2019-08-09 21:33:04:048,-0.5074,0.1133,9.9847,-0.5419,-0.2188,9.7892,0.0003,-0.0146,0.0007
47354,46.887123,-1.293544,125.55,34.46,3.216,153.5,17 / 21,4735410,2019-08-09 21:33:04:148,-0.6564,-0.3069,10.1535,-0.5448,-0.2175,9.7891,-0.0024,0.0024,-0.011
47355,46.887123,-1.293544,125.55,34.46,3.216,153.5,17 / 21,4735511,2019-08-09 21:33:04:249,-1.2119,-0.292,10.117,-0.5439,-0.2194,9.7891,0.0011,0.0205,0.0077
47356,46.887123,-1.293544,125.55,34.46,3.216,153.5,17 / 21,4735610,2019-08-09 21:33:04:348,0.0798,-0.2136,9.4448,-0.5393,-0.2144,9.7895,0.0151,-0.0126,0.0095
47357,46.887123,-1.293544,125.55,34.46,3.216,153.5,17 / 21,4735710,2019-08-09 21:33:04:448,0.2318,-0.052,9.5968,-0.5442,-0.2077,9.7893,0.0022,0.0038,-0.0087
47358,46.887123,-1.293544,125.55,34.46,3.216,153.5,17 / 21,4735810,2019-08-09 21:33:04:548,0.1869,-0.1753,9.6974,-0.5346,-0.2115,9.7898,-0.011,0.0104,0.0049
47359,46.887123,-1.293544,125.55,34.46,3.216,153.5,17 / 21,4735910,2019-08-09 21:33:04:648,-0.5487,-0.1262,9.8746,-0.5281,-0.2211,9.7899,-0.0191,0.0258,-0.0176
47360,46.887123,-1.293544,125.55,34.46,3.216,153.5,17 / 21,4736010,2019-08-09 21:33:04:748,0.0493,-0.3818,9.7207,-0.5436,-0.2367,9.7887,-0.002,0.0519,-0.0134
47361,46.887123,-1.293544,125.55,34.46,3.216,153.5,17 / 21,4736110,2019-08-09 21:33:04:848,0.4209,-0.2207,10.5808,-0.5344,-0.2341,9.7893,-0.0026,-0.0247,-0.0007
47362,46.887123,-1.293544,125.55,34.46,3.216,153.5,17 / 21,4736210,2019-08-09 21:33:04:948,-0.7971,-0.5464,9.2431,-0.5376,-0.2319,9.7892,0.0095,0.0091,-0.0052
47363,46.887123,-1.293544,125.55,34.46,3.216,153.5,17 / 21,4736310,2019-08-09 21:33:05:048,-1.3256,-0.2782,9.0617,-0.5225,-0.2254,9.7901,0.0122,-0.0241,0.0023
47364,46.887123,-1.293544,125.55,34.46,3.216,153.5,17 / 21,4736410,2019-08-09 21:33:05:148,-1.4435,-0.2698,9.1527,-0.5166,-0.2212,9.7905,-0.0032,-0.0268,0.0123
47365,46.887123,-1.293544,125.55,34.46,3.216,153.5,17 / 21,4736510,2019-08-09 21:33:05:248,0.473,-0.1393,9.9075,-0.5252,-0.2217,9.7901,-0.0031,0.0108,-0.011
47366,46.887123,-1.293544,125.55,34.46,3.216,153.5,17 / 21,4736610,2019-08-09 21:33:05:348,-0.4547,-0.3231,10.0775,-0.519,-0.2293,9.7902,-0.0092,-0.0324,0.027
47367,46.887123,-1.293544,125.55,34.46,3.216,153.5,17 / 21,4736710,2019-08-09 21:33:05:448,-1.3208,-0.3943,9.7279,-0.5169,-0.2323,9.7903,0.0108,0.018,-0.0018
47368,46.887123,-1.293544,125.55,34.46,3.216,153.5,17 / 21,4736810,2019-08-09 21:33:05:548,-0.4176,-0.2531,10.2397,-0.5141,-0.2295,9.7905,0.0026,-0.0028,0.0057
47369,46.887123,-1.293544,125.55,34.46,3.216,153.5,17 / 21,4736910,2019-08-09 21:33:05:648,-0.338,-0.3099,9.8542,-0.5177,-0.2335,9.7902,-0.0033,-0.0175,-0.0076
47370,46.887123,-1.293544,125.55,34.46,3.216,153.5,17 / 21,4737010,2019-08-09 21:33:05:748,0.0918,-0.1788,10.172,-0.5186,-0.2406,9.79,-0.0076,-0.0042,0.0055
47371,46.887123,-1.293544,125.55,34.46,3.216,153.5,17 / 21,4737111,2019-08-09 21:33:05:849,-1.5417,-0.3417,9.7716,-0.5072,-0.2429,9.7905,0.003,-0.0561,0.0098
47372,46.887123,-1.293544,125.55,34.46,3.216,153.5,17 / 21,4737211,2019-08-09 21:33:05:949,0.1163,-0.1382,10.2546,-0.5191,-0.2408,9.7899,-0.0016,0.0072,0.0012
47373,46.887123,-1.293544,125.55,34.46,3.216,153.5,17 / 21,4737311,2019-08-09 21:33:06:049,1.0536,-0.3758,9.8644,-0.5303,-0.2405,9.7893,0.0003,-0.0012,0.0075
47374,46.887123,-1.293544,125.55,34.46,3.216,153.5,17 / 21,4737410,2019-08-09 21:33:06:148,-1.7578,-0.2094,9.3257,-0.5142,-0.2254,9.7906,0.0124,0.0035,-0.0245
47375,46.887123,-1.293544,125.55,34.46,3.216,153.5,17 / 21,4737510,2019-08-09 21:33:06:248,-1.3089,0.1174,9.959,-0.5262,-0.2169,9.7901,-0.0014,0.0093,-0.0041
47376,46.887123,-1.293544,125.55,34.46,3.216,153.5,15 / 17,4737610,2019-08-09 21:33:06:348,-0.4769,-0.0538,9.179,-0.5053,-0.2148,9.7913,0.0025,0.0154,-0.0127
47377,46.887123,-1.293544,125.55,34.46,3.216,153.5,15 / 17,4737711,2019-08-09 21:33:06:449,0.3192,0.4233,9.6399,-0.5201,-0.2097,9.7906,-0.0089,0.0037,-0.0124
47378,46.887123,-1.293544,125.55,34.46,3.216,153.5,15 / 17,4737810,2019-08-09 21:33:06:548,-0.4182,-0.031,9.5753,-0.5057,-0.2091,9.7914,-0.0132,-0.0119,-0.0031
47379,46.887123,-1.293544,125.55,34.46,3.216,153.5,15 / 17,4737910,2019-08-09 21:33:06:648,-1.3226,-0.0274,9.6172,-0.5012,-0.2021,9.7917,0.0091,0.0254,-0.0206
47380,46.887123,-1.293544,125.55,34.46,3.216,153.5,15 / 17,4738010,2019-08-09 21:33:06:748,0.4198,-0.0316,9.1749,-0.4949,-0.187,9.7924,0.0147,-0.0399,-0.0132
47381,46.887123,-1.293544,125.55,34.46,3.216,153.5,15 / 17,4738110,2019-08-09 21:33:06:848,-0.1573,0.3844,9.9362,-0.5147,-0.176,9.7916,-0.0099,0.021,-0.0318
47382,46.887123,-1.293544,125.55,34.46,3.216,153.5,15 / 17,4738211,2019-08-09 21:33:06:949,-1.4573,-0.2124,9.5076,-0.513,-0.1733,9.7917,0.0048,-0.0115,0.0033
47383,46.887123,-1.293544,125.55,34.46,3.216,153.5,15 / 17,4738310,2019-08-09 21:33:07:048,-1.902,0.0534,9.7058,-0.4892,-0.1608,9.7931,0.0083,0.0474,-0.0065
47384,46.887123,-1.293544,125.55,34.46,3.216,153.5,15 / 17,4738410,2019-08-09 21:33:07:148,0.491,0.2533,10.0392,-0.5105,-0.1519,9.7922,-0.0086,-0.0049,-0.0191
47385,46.887123,-1.293544,125.55,34.46,3.216,153.5,15 / 17,4738511,2019-08-09 21:33:07:249,-0.2375,-0.1322,9.5472,-0.4991,-0.153,9.7927,0.0013,0.0331,-0.0095
47386,46.884636,-1.291736,126.08,34.12,3.216,153.6,16 / 19,4738610,2019-08-09 21:33:07:348,-0.696,0.1216,9.9817,-0.5211,-0.1505,9.7916,0.0082,-0.0057,-0.0112
47387,46.884636,-1.291736,126.08,34.12,3.216,153.6,16 / 19,4738710,2019-08-09 21:33:07:448,-0.9839,0.0169,9.7261,-0.4966,-0.1419,9.793,0.0022,-0.0595,0.0
47388,46.884636,-1.291736,126.08,34.12,3.216,153.6,16 / 19,4738811,2019-08-09 21:33:07:549,-0.3602,-0.0047,9.759,-0.4875,-0.1436,9.7935,0.0044,0.0195,-0.0052
47389,46.884636,-1.291736,126.08,34.12,3.216,153.6,16 / 19,4738910,2019-08-09 21:33:07:648,-0.5128,0.3479,10.2516,-0.5045,-0.1457,9.7926,-0.0301,0.0001,-0.0151
47390,46.884636,-1.291736,126.08,34.12,3.216,153.6,16 / 19,4739010,2019-08-09 21:33:07:748,0.4221,-0.4656,9.9446,-0.505,-0.1616,9.7923,-0.0219,0.0085,0.0315
47391,46.884636,-1.291736,126.08,34.12,3.216,153.6,16 / 19,4739110,2019-08-09 21:33:07:848,-0.1417,-0.6403,9.3634,-0.5148,-0.169,9.7917,0.0391,-0.0091,-0.0023
47392,46.884636,-1.291736,126.08,34.12,3.216,153.6,16 / 19,4739211,2019-08-09 21:33:07:949,-1.1748,-0.0627,9.7656,-0.5316,-0.1432,9.7912,0.048,-0.0277,-0.0242
47393,46.884636,-1.291736,126.08,34.12,3.216,153.6,16 / 19,4739310,2019-08-09 21:33:08:048,-0.4278,0.0013,9.2485,-0.4951,-0.1091,9.7935,0.0047,-0.0606,-0.0006
47394,46.884636,-1.291736,126.08,34.12,3.216,153.6,16 / 19,4739410,2019-08-09 21:33:08:148,-0.0322,0.1719,10.2091,-0.4823,-0.1107,9.7942,-0.0348,-0.0083,0.0017
47395,46.884636,-1.291736,126.08,34.12,3.216,153.6,16 / 19,4739510,2019-08-09 21:33:08:248,-0.7271,-0.1112,9.774,-0.4961,-0.1396,9.7931,-0.0236,0.0316,0.0144
47396,46.884636,-1.291736,126.08,34.12,3.216,153.6,15 / 19,4739610,2019-08-09 21:33:08:348,-1.3921,-0.2489,10.5605,-0.5086,-0.1522,9.7923,-0.0144,0.0484,-0.0141
47397,46.884636,-1.291736,126.08,34.12,3.216,153.6,15 / 19,4739710,2019-08-09 21:33:08:448,-1.6303,-0.4278,10.0427,-0.5366,-0.1436,9.7909,0.0175,0.0285,-0.0011
47398,46.884636,-1.291736,126.08,34.12,3.216,153.6,15 / 19,4739810,2019-08-09 21:33:08:548,-0.8917,-0.2896,8.8061,-0.4903,-0.1376,9.7934,0.0196,-0.0709,-0.0017
47399,46.884636,-1.291736,126.08,34.12,3.216,153.6,15 / 19,4739910,2019-08-09 21:33:08:648,-0.8965,0.2258,9.5406,-0.4944,-0.1317,9.7933,-0.0085,0.0149,-0.0061
47400,46.884636,-1.291736,126.08,34.12,3.216,153.6,15 / 19,4740010,2019-08-09 21:33:08:748,-0.9815,-0.2118,10.287,-0.4886,-0.1389,9.7935,-0.0145,0.0129,-0.0056
47401,46.884636,-1.291736,126.08,34.12,3.216,153.6,15 / 19,4740111,2019-08-09 21:33:08:849,-0.599,-0.3746,9.7417,-0.508,-0.1572,9.7922,-0.001,0.0199,0.0045
47402,46.884636,-1.291736,126.08,34.12,3.216,153.6,15 / 19,4740211,2019-08-09 21:33:08:949,-0.9288,-0.1543,9.3107,-0.4995,-0.155,9.7927,-0.0055,-0.0186,-0.0106
47403,46.884636,-1.291736,126.08,34.12,3.216,153.6,15 / 19,4740310,2019-08-09 21:33:09:048,-0.508,0.1773,9.9176,-0.4985,-0.1707,9.7925,-0.0125,-0.0145,0.036
47404,46.884636,-1.291736,126.08,34.12,3.216,153.6,15 / 19,4740410,2019-08-09 21:33:09:148,0.2019,-0.7265,10.1259,-0.5075,-0.1807,9.7918,-0.012,0.0435,-0.0105
47405,46.884636,-1.291736,126.08,34.12,3.216,153.6,15 / 19,4740510,2019-08-09 21:33:09:248,-0.5757,-1.124,9.3879,-0.5127,-0.185,9.7915,0.0135,0.0161,-0.0241
47406,46.884636,-1.291736,126.08,34.12,3.216,153.6,15 / 19,4740610,2019-08-09 21:33:09:348,-0.5146,-0.6882,9.1892,-0.5061,-0.1775,9.792,0.0114,-0.0355,0.0305
47407,46.884636,-1.291736,126.08,34.12,3.216,153.6,15 / 19,4740710,2019-08-09 21:33:09:448,0.063,-0.3381,9.1575,-0.4853,-0.1836,9.7929,-0.0069,-0.0092,0.0032
47408,46.884636,-1.291736,126.08,34.12,3.216,153.6,15 / 19,4740810,2019-08-09 21:33:09:548,0.3174,-0.5829,9.9182,-0.4892,-0.2111,9.7922,-0.0139,-0.0262,0.0491
47409,46.884636,-1.291736,126.08,34.12,3.216,153.6,15 / 19,4740910,2019-08-09 21:33:09:648,0.7041,-0.5529,9.6615,-0.4833,-0.2249,9.7921,0.0035,0.0112,-0.0009
47410,46.884636,-1.291736,126.08,34.12,3.216,153.6,15 / 19,4741010,2019-08-09 21:33:09:748,-0.5583,-0.3692,10.1577,-0.5096,-0.2353,9.7906,-0.0056,0.0238,0.0203
47411,46.884636,-1.291736,126.08,34.12,3.216,153.6,15 / 19,4741110,2019-08-09 21:33:09:848,-0.942,-0.7385,9.7249,-0.5064,-0.2402,9.7906,0.012,0.0022,-0.0028
47412,46.884636,-1.291736,126.08,34.12,3.216,153.6,15 / 19,4741211,2019-08-09 21:33:09:949,-0.0812,-0.5272,9.7854,-0.5146,-0.2357,9.7903,0.0076,0.0122,0.0108
47413,46.884636,-1.291736,126.08,34.12,3.216,153.6,15 / 19,4741311,2019-08-09 21:33:10:049,-1.5692,-0.7882,9.0144,-0.4949,-0.2379,9.7913,0.0048,-0.0394,0.011
47414,46.884636,-1.291736,126.08,34.12,3.216,153.6,15 / 19,4741410,2019-08-09 21:33:10:148,-1.3382,-0.4177,9.9039,-0.5009,-0.2419,9.7909,0.0005,0.0142,0.0076
47415,46.884636,-1.291736,126.08,34.12,3.216,153.6,15 / 19,4741511,2019-08-09 21:33:10:249,-2.0146,-0.6954,9.8476,-0.5324,-0.2452,9.7891,0.0075,-0.0552,0.0182
47416,46.884636,-1.291736,126.08,34.12,3.216,153.6,16 / 19,4741610,2019-08-09 21:33:10:348,-0.3865,-0.6427,8.9983,-0.4998,-0.242,9.7909,0.0197,-0.0236,0.0085
47417,46.884636,-1.291736,126.08,34.12,3.216,153.6,16 / 19,4741710,2019-08-09 21:33:10:448,-0.3632,-0.0358,8.2279,-0.4609,-0.2348,9.793,-0.0106,-0.02,-0.0028
47418,46.884636,-1.291736,126.08,34.12,3.216,153.6,16 / 19,4741811,2019-08-09 21:33:10:549,-0.5056,0.0863,10.2169,-0.4762,-0.2628,9.7916,-0.0316,0.0447,0.0079
47419,46.884636,-1.291736,126.08,34.12,3.216,153.6,16 / 19,4741911,2019-08-09 21:33:10:649,-0.7528,-0.1998,10.2247,-0.4841,-0.2791,9.7907,-0.0073,0.0668,-0.0061
47420,46.884636,-1.291736,126.08,34.12,3.216,153.6,16 / 19,4742010,2019-08-09 21:33:10:748,-1.2742,-0.1465,10.2253,-0.5396,-0.2684,9.7881,0.0245,0.047,-0.0214
47421,46.884636,-1.291736,126.08,34.12,3.216,153.6,16 / 19,4742110,2019-08-09 21:33:10:848,-1.261,0.0995,9.5034,-0.5451,-0.2492,9.7883,0.0276,-0.0446,-0.0166
47422,46.884636,-1.291736,126.08,34.12,3.216,153.6,16 / 19,4742211,2019-08-09 21:33:10:949,-1.5632,0.1091,8.9648,-0.5125,-0.2017,9.7912,0.0269,-0.0353,0.0029
47423,46.884636,-1.291736,126.08,34.12,3.216,153.6,16 / 19,4742311,2019-08-09 21:33:11:049,-0.5427,0.1671,9.0533,-0.5067,-0.1859,9.7918,0.0079,-0.028,-0.0105
47424,46.884636,-1.291736,126.08,34.12,3.216,153.6,16 / 19,4742411,2019-08-09 21:33:11:149,-0.5379,0.4059,9.7782,-0.5007,-0.1823,9.7922,-0.0215,0.0119,0.0013
47425,46.884636,-1.291736,126.08,34.12,3.216,153.6,16 / 19,4742510,2019-08-09 21:33:11:248,-1.1293,-0.098,10.0523,-0.5144,-0.1877,9.7913,-0.0266,0.0222,-0.0028
47426,46.884636,-1.291736,126.08,34.12,3.216,153.6,16 / 20,4742610,2019-08-09 21:33:11:348,0.0594,-0.1591,10.1822,-0.5329,-0.211,9.7899,-0.0094,0.0077,-0.013
47427,46.884636,-1.291736,126.08,34.12,3.216,153.6,16 / 20,4742710,2019-08-09 21:33:11:448,0.0846,-0.429,9.8973,-0.5394,-0.2106,9.7895,0.0022,-0.0149,0.0137
47428,46.884636,-1.291736,126.08,34.12,3.216,153.6,16 / 20,4742810,2019-08-09 21:33:11:548,0.1295,-0.2453,9.5825,-0.5491,-0.1993,9.7892,0.0175,-0.0336,0.0085
47429,46.884636,-1.291736,126.08,34.12,3.216,153.6,16 / 20,4742910,2019-08-09 21:33:11:648,-0.8217,-0.1633,9.0126,-0.5189,-0.1852,9.7912,0.0199,-0.0168,-0.0131
47430,46.884636,-1.291736,126.08,34.12,3.216,153.6,16 / 20,4743010,2019-08-09 21:33:11:748,-0.013,0.1462,9.9302,-0.5385,-0.1675,9.7904,0.0001,0.0122,-0.0057
47431,46.884636,-1.291736,126.08,34.12,3.216,153.6,16 / 20,4743110,2019-08-09 21:33:11:848,0.5951,-0.2172,9.5005,-0.5391,-0.1716,9.7903,-0.0026,0.0036,0.0062
47432,46.884636,-1.291736,126.08,34.12,3.216,153.6,16 / 20,4743210,2019-08-09 21:33:11:948,-1.0329,-0.2112,9.923,-0.5447,-0.1699,9.79,0.0011,0.0076,-0.0078
47433,46.884636,-1.291736,126.08,34.12,3.216,153.6,16 / 20,4743311,2019-08-09 21:33:12:049,-0.76,-0.2429,9.8404,-0.5576,-0.1647,9.7894,-0.0003,-0.0239,-0.0046
47434,46.884636,-1.291736,126.08,34.12,3.216,153.6,16 / 20,4743411,2019-08-09 21:33:12:149,-0.4182,-0.028,9.5549,-0.5518,-0.1578,9.7898,0.0076,0.0291,-0.0171
47435,46.884636,-1.291736,126.08,34.12,3.216,153.6,16 / 20,4743510,2019-08-09 21:33:12:248,-0.8342,0.1007,10.0009,-0.5618,-0.1508,9.7894,0.0036,-0.0221,-0.0006
47436,46.884636,-1.291736,126.08,34.12,3.216,153.6,16 / 21,4743610,2019-08-09 21:33:12:348,-1.2149,0.3658,9.7058,-0.5617,-0.1405,9.7895,-0.0005,-0.0111,0.0036
47437,46.884636,-1.291736,126.08,34.12,3.216,153.6,16 / 21,4743710,2019-08-09 21:33:12:448,-1.6285,0.0857,9.5286,-0.5527,-0.1356,9.7901,0.0004,-0.0194,-0.0128
47438,46.884636,-1.291736,126.08,34.12,3.216,153.6,16 / 21,4743810,2019-08-09 21:33:12:548,-0.9228,0.303,9.7872,-0.5611,-0.1315,9.7897,-0.0149,0.0154,-0.018
47439,46.884636,-1.291736,126.08,34.12,3.216,153.6,16 / 21,4743910,2019-08-09 21:33:12:648,-1.3388,0.1007,10.3001,-0.5786,-0.1351,9.7886,-0.0109,0.0169,0.0033
47440,46.884636,-1.291736,126.08,34.12,3.216,153.6,16 / 21,4744012,2019-08-09 21:33:12:750,-1.6716,0.0462,9.379,-0.5736,-0.1258,9.7891,0.0185,0.0277,-0.0287
47441,46.884636,-1.291736,126.08,34.12,3.216,153.6,16 / 21,4744110,2019-08-09 21:33:12:848,-0.3314,0.1552,9.3802,-0.5665,-0.1053,9.7897,0.013,-0.0205,-0.008
47442,46.884636,-1.291736,126.08,34.12,3.216,153.6,16 / 21,4744210,2019-08-09 21:33:12:948,-1.3645,0.1402,9.3969,-0.5736,-0.1,9.7894,-0.0011,-0.0269,-0.0019
47443,46.884636,-1.291736,126.08,34.12,3.216,153.6,16 / 21,4744310,2019-08-09 21:33:13:048,-1.1024,0.2964,10.1996,-0.5764,-0.101,9.7892,-0.0137,0.0044,-0.0146
47444,46.884636,-1.291736,126.08,34.12,3.216,153.6,16 / 21,4744410,2019-08-09 21:33:13:148,-0.7067,-0.2812,9.7261,-0.589,-0.1066,9.7884,-0.0071,-0.0454,0.0146
47445,46.884636,-1.291736,126.08,34.12,3.216,153.6,16 / 21,4744510,2019-08-09 21:33:13:248,-1.5549,-0.3447,9.6124,-0.587,-0.1135,9.7884,0.009,0.006,-0.0002
47446,46.884636,-1.291736,126.08,34.12,3.216,153.6,17 / 21,4744610,2019-08-09 21:33:13:348,-1.8996,-0.1148,9.6908,-0.579,-0.1087,9.7889,-0.0053,-0.0281,0.0099
47447,46.884636,-1.291736,126.08,34.12,3.216,153.6,17 / 21,4744710,2019-08-09 21:33:13:448,-1.9284,-0.3656,9.8626,-0.5782,-0.1201,9.7889,-0.0173,0.0041,0.0014
47448,46.884636,-1.291736,126.08,34.12,3.216,153.6,17 / 21,4744811,2019-08-09 21:33:13:549,-0.2644,-0.101,10.1655,-0.5889,-0.1363,9.788,-0.0173,0.0041,0.0014
47449,46.884636,-1.291736,126.08,34.12,3.216,153.6,17 / 21,4744911,2019-08-09 21:33:13:649,-0.1345,-0.4733,9.692,-0.5828,-0.1542,9.7881,-0.0079,-0.0213,0.0118
47450,46.884636,-1.291736,126.08,34.12,3.216,153.6,17 / 21,4745010,2019-08-09 21:33:13:748,-0.7001,0.0217,10.5066,-0.5936,-0.1608,9.7873,-0.0054,0.0285,-0.0177
47451,46.884636,-1.291736,126.08,34.12,3.216,153.6,17 / 21,4745110,2019-08-09 21:33:13:848,-0.5816,0.0414,9.5854,-0.5987,-0.1663,9.7869,0.0108,-0.0062,-0.0079
47452,46.884636,-1.291736,126.08,34.12,3.216,153.6,17 / 21,4745211,2019-08-09 21:33:13:949,-0.1752,-0.0029,9.7848,-0.6012,-0.1637,9.7868,0.02,0.0162,-0.0122
47453,46.884636,-1.291736,126.08,34.12,3.216,153.6,17 / 21,4745311,2019-08-09 21:33:14:049,-0.2608,-0.0681,9.3101,-0.5895,-0.1419,9.7879,0.0159,-0.03,0.0168
47454,46.884636,-1.291736,126.08,34.12,3.216,153.6,17 / 21,4745410,2019-08-09 21:33:14:148,-0.356,0.0749,9.601,-0.5907,-0.1384,9.7879,-0.0083,0.0349,-0.0403
47455,46.884636,-1.291736,126.08,34.12,3.216,153.6,17 / 21,4745511,2019-08-09 21:33:14:249,-0.0298,0.0695,9.6034,-0.5958,-0.1495,9.7874,-0.0147,0.0126,0.0091
47456,46.884636,-1.291736,126.08,34.12,3.216,153.6,15 / 19,4745610,2019-08-09 21:33:14:348,0.0612,-0.0029,10.0362,-0.5966,-0.152,9.7873,-0.0124,0.0194,-0.0183
47457,46.884636,-1.291736,126.08,34.12,3.216,153.6,15 / 19,4745710,2019-08-09 21:33:14:448,-0.9037,-0.6846,9.285,-0.5924,-0.1632,9.7874,0.0006,0.0013,-0.0114
47458,46.884636,-1.291736,126.08,34.12,3.216,153.6,15 / 19,4745810,2019-08-09 21:33:14:548,-0.6684,-0.2004,9.4089,-0.5764,-0.1598,9.7884,0.0038,0.0082,-0.0051
47459,46.884636,-1.291736,126.08,34.12,3.216,153.6,15 / 19,4745910,2019-08-09 21:33:14:648,-0.8821,-0.2471,9.9859,-0.5997,-0.1762,9.7867,-0.0188,0.0195,0.0076
47460,46.884636,-1.291736,126.08,34.12,3.216,153.6,15 / 19,4746011,2019-08-09 21:33:14:749,-0.7001,-0.5948,9.5747,-0.5902,-0.1818,9.7872,-0.0051,-0.0347,0.0131
47461,46.884636,-1.291736,126.08,34.12,3.216,153.6,15 / 19,4746112,2019-08-09 21:33:14:850,-0.2794,-0.1387,10.0421,-0.6083,-0.186,9.786,-0.0012,-0.0153,0.0077
47462,46.884636,-1.291736,126.08,34.12,3.216,153.6,15 / 19,4746210,2019-08-09 21:33:14:948,-0.4607,-0.4542,9.3418,-0.6018,-0.1908,9.7863,0.0048,0.0161,-0.01
47463,46.884636,-1.291736,126.08,34.12,3.216,153.6,15 / 19,4746310,2019-08-09 21:33:15:048,-1.1149,0.0163,10.1379,-0.5966,-0.1909,9.7866,-0.0029,-0.0264,0.0078
47464,46.884636,-1.291736,126.08,34.12,3.216,153.6,15 / 19,4746410,2019-08-09 21:33:15:148,-0.1597,-0.2088,10.0882,-0.6115,-0.1966,9.7856,-0.0064,0.0208,-0.0051
47465,46.884636,-1.291736,126.08,34.12,3.216,153.6,15 / 19,4746511,2019-08-09 21:33:15:249,0.1313,0.0366,10.2451,-0.6085,-0.2,9.7857,-0.0004,0.0168,-0.007
47466,46.884636,-1.291736,126.08,34.12,3.216,153.6,17 / 21,4746610,2019-08-09 21:33:15:348,-0.3638,-0.3895,9.513,-0.606,-0.2052,9.7858,-0.0069,-0.0323,0.0011
47467,46.884636,-1.291736,126.08,34.12,3.216,153.6,17 / 21,4746710,2019-08-09 21:33:15:448,-0.8049,-0.3596,9.9374,-0.617,-0.2078,9.785,0.0055,-0.0062,-0.0014
47468,46.884636,-1.291736,126.08,34.12,3.216,153.6,17 / 21,4746811,2019-08-09 21:33:15:549,-0.6415,-0.3105,9.9757,-0.6149,-0.2036,9.7852,0.009,-0.0143,-0.0071
47469,46.884636,-1.291736,126.08,34.12,3.216,153.6,17 / 21,4746911,2019-08-09 21:33:15:649,-0.5966,-0.1812,9.2257,-0.5972,-0.1937,9.7865,0.0058,-0.0213,-0.0214
47470,46.884636,-1.291736,126.08,34.12,3.216,153.6,17 / 21,4747011,2019-08-09 21:33:15:749,-0.9312,-0.0669,9.6938,-0.5961,-0.1897,9.7867,0.0049,-0.0134,0.0027
47471,46.884636,-1.291736,126.08,34.12,3.216,153.6,17 / 21,4747111,2019-08-09 21:33:15:849,-1.0623,-0.4123,9.2916,-0.5915,-0.1812,9.7871,0.0053,0.0037,-0.0228
47472,46.884636,-1.291736,126.08,34.12,3.216,153.6,17 / 21,4747210,2019-08-09 21:33:15:948,-0.8097,-0.1202,10.0529,-0.5961,-0.1789,9.7869,0.0008,0.0367,0.0034
47473,46.884636,-1.291736,126.08,34.12,3.216,153.6,17 / 21,4747311,2019-08-09 21:33:16:049,-0.4063,0.0462,9.2569,-0.5843,-0.1786,9.7876,0.0022,0.0284,-0.0087
47474,46.884636,-1.291736,126.08,34.12,3.216,153.6,17 / 21,4747410,2019-08-09 21:33:16:148,-1.1066,0.2174,10.1272,-0.596,-0.1771,9.7869,-0.0056,0.0057,-0.0073
47475,46.884636,-1.291736,126.08,34.12,3.216,153.6,17 / 21,4747510,2019-08-09 21:33:16:248,-1.4328,0.06,9.4472,-0.591,-0.1736,9.7873,-0.0015,-0.0055,-0.0031
47476,46.88216,-1.289922,125.8,34.35,3.216,153.9,16 / 21,4747610,2019-08-09 21:33:16:348,-0.3578,-0.0071,9.9356,-0.6021,-0.1659,9.7867,0.0103,-0.0095,-0.0181
47477,46.88216,-1.289922,125.8,34.35,3.216,153.9,16 / 21,4747711,2019-08-09 21:33:16:449,-0.4637,0.4041,10.2588,-0.6058,-0.1527,9.7867,0.004,-0.0106,-0.0116
47478,46.88216,-1.289922,125.8,34.35,3.216,153.9,16 / 21,4747810,2019-08-09 21:33:16:548,-0.8217,0.1288,9.9811,-0.6179,-0.1399,9.7862,0.0016,-0.0126,0.0047
47479,46.88216,-1.289922,125.8,34.35,3.216,153.9,16 / 21,4747910,2019-08-09 21:33:16:648,-1.5321,-0.0729,9.6974,-0.6015,-0.1398,9.7872,0.0016,-0.0126,0.0047
47480,46.88216,-1.289922,125.8,34.35,3.216,153.9,16 / 21,4748011,2019-08-09 21:33:16:749,-0.0519,0.1067,9.6986,-0.6025,-0.1182,9.7874,0.0145,0.0029,-0.0168
47481,46.88216,-1.289922,125.8,34.35,3.216,153.9,16 / 21,4748111,2019-08-09 21:33:16:849,0.2587,-0.0567,9.9769,-0.6047,-0.1136,9.7873,-0.0119,0.0236,0.006
47482,46.88216,-1.289922,125.8,34.35,3.216,153.9,16 / 21,4748211,2019-08-09 21:33:16:949,-1.5818,-0.3183,9.1054,-0.5745,-0.1198,9.7891,0.0008,-0.0552,-0.0006
47483,46.88216,-1.289922,125.8,34.35,3.216,153.9,16 / 21,4748310,2019-08-09 21:33:17:048,-1.0922,0.0139,9.4789,-0.6057,-0.1163,9.7872,-0.0014,0.0001,-0.0012
47484,46.88216,-1.289922,125.8,34.35,3.216,153.9,16 / 21,4748411,2019-08-09 21:33:17:149,-0.0082,-0.3279,9.0557,-0.5849,-0.1131,9.7885,0.001,0.0362,-0.009
47485,46.88216,-1.289922,125.8,34.35,3.216,153.9,16 / 21,4748511,2019-08-09 21:33:17:249,0.0504,0.1013,10.4198,-0.6088,-0.1147,9.7871,-0.0004,-0.026,-0.008
47486,46.88216,-1.289922,125.8,34.35,3.216,153.9,15 / 19,4748611,2019-08-09 21:33:17:349,-0.8204,-0.0831,9.6172,-0.5937,-0.1063,9.7881,0.014,-0.0323,-0.0039
47487,46.88216,-1.289922,125.8,34.35,3.216,153.9,15 / 19,4748711,2019-08-09 21:33:17:449,-0.435,0.3174,9.7961,-0.6242,-0.0932,9.7863,0.0117,0.0199,-0.0332
47488,46.88216,-1.289922,125.8,34.35,3.216,153.9,15 / 19,4748810,2019-08-09 21:33:17:548,0.2677,-0.0789,9.2096,-0.5827,-0.0661,9.7891,0.0118,-0.0262,-0.013
47489,46.88216,-1.289922,125.8,34.35,3.216,153.9,15 / 19,4748910,2019-08-09 21:33:17:648,0.479,0.4933,9.9961,-0.5664,-0.0572,9.7901,-0.0051,0.0453,-0.035
47490,46.88216,-1.289922,125.8,34.35,3.216,153.9,15 / 19,4749010,2019-08-09 21:33:17:748,0.3635,0.3156,10.1738,-0.5814,-0.0713,9.7891,-0.0237,0.0081,-0.0283
47491,46.88216,-1.289922,125.8,34.35,3.216,153.9,15 / 19,4749111,2019-08-09 21:33:17:849,-1.4687,-0.4147,9.2054,-0.5705,-0.0667,9.7898,0.0128,-0.0168,0.0221
47492,46.88216,-1.289922,125.8,34.35,3.216,153.9,15 / 19,4749211,2019-08-09 21:33:17:949,-1.4447,0.124,10.1756,-0.5869,-0.0467,9.789,0.0104,0.014,-0.0132
47493,46.88216,-1.289922,125.8,34.35,3.216,153.9,15 / 19,4749311,2019-08-09 21:33:18:049,-1.17,-0.2046,9.674,-0.5651,-0.0441,9.7903,0.0025,-0.0266,0.0043
47494,46.88216,-1.289922,125.8,34.35,3.216,153.9,15 / 19,4749410,2019-08-09 21:33:18:148,-0.6469,-0.1256,10.4587,-0.5804,-0.0347,9.7894,0.0004,0.0123,0.0182
47495,46.88216,-1.289922,125.8,34.35,3.216,153.9,15 / 19,4749510,2019-08-09 21:33:18:248,-1.2957,-0.0202,10.2044,-0.621,-0.038,9.7869,-0.0062,0.0192,-0.0111
47496,46.88216,-1.289922,125.8,34.35,3.216,153.9,16 / 21,4749610,2019-08-09 21:33:18:348,-1.3203,0.5173,8.3668,-0.5684,-0.0233,9.7901,0.0077,-0.0868,-0.0247
47497,46.88216,-1.289922,125.8,34.35,3.216,153.9,16 / 21,4749710,2019-08-09 21:33:18:448,-0.2614,0.1264,9.0958,-0.5598,-0.0203,9.7906,-0.0125,0.0048,0.0017
47498,46.88216,-1.289922,125.8,34.35,3.216,153.9,16 / 21,4749810,2019-08-09 21:33:18:548,-0.7199,0.4347,10.3791,-0.5756,-0.0327,9.7897,-0.0238,0.0322,-0.0098
47499,46.88216,-1.289922,125.8,34.35,3.216,153.9,16 / 21,4749910,2019-08-09 21:33:18:648,-1.3771,0.1665,10.3205,-0.61,-0.0418,9.7876,-0.0007,-0.0159,0.0063
47500,46.88216,-1.289922,125.8,34.35,3.216,153.9,16 / 21,4750010,2019-08-09 21:33:18:748,-0.9222,0.5891,10.1265,-0.6122,-0.0297,9.7875,0.009,0.0054,-0.0194
47501,46.88216,-1.289922,125.8,34.35,3.216,153.9,16 / 21,4750111,2019-08-09 21:33:18:849,0.0415,0.0576,9.8488,-0.6045,-0.0145,9.788,-0.0069,-0.0064,-0.0301
47502,46.88216,-1.289922,125.8,34.35,3.216,153.9,16 / 21,4750211,2019-08-09 21:33:18:949,0.4862,0.0396,9.5783,-0.6263,-0.0135,9.7866,0.0052,0.0177,-0.0135
47503,46.88216,-1.289922,125.8,34.35,3.216,153.9,16 / 21,4750311,2019-08-09 21:33:19:049,-0.0669,0.3832,9.4753,-0.5955,0.0,9.7886,0.0131,-0.0173,-0.0243
47504,46.88216,-1.289922,125.8,34.35,3.216,153.9,16 / 21,4750410,2019-08-09 21:33:19:148,-0.5331,0.2348,9.3897,-0.6105,0.016,9.7876,-0.0064,0.0299,-0.0089
47505,46.88216,-1.289922,125.8,34.35,3.216,153.9,16 / 21,4750510,2019-08-09 21:33:19:248,-0.3494,0.0067,9.2024,-0.6009,0.0159,9.7882,-0.0094,-0.0527,0.0051
47506,46.88216,-1.289922,125.8,34.35,3.216,153.9,15 / 20,4750610,2019-08-09 21:33:19:348,-0.1483,0.4012,9.1707,-0.5928,0.0169,9.7887,0.0007,-0.0029,-0.0277
47507,46.88216,-1.289922,125.8,34.35,3.216,153.9,15 / 20,4750710,2019-08-09 21:33:19:448,-1.5896,0.4448,10.3821,-0.6202,0.0224,9.787,-0.0102,0.0127,-0.0096
47508,46.88216,-1.289922,125.8,34.35,3.216,153.9,15 / 20,4750810,2019-08-09 21:33:19:548,-1.9427,0.1905,10.0278,-0.6172,0.0258,9.7872,0.006,-0.0031,-0.0241
47509,46.88216,-1.289922,125.8,34.35,3.216,153.9,15 / 20,4750910,2019-08-09 21:33:19:648,-1.2472,0.5047,9.7423,-0.6469,0.035,9.7852,0.0112,0.0141,-0.0279
47510,46.88216,-1.289922,125.8,34.35,3.216,153.9,15 / 20,4751010,2019-08-09 21:33:19:748,-0.8282,0.5185,10.1792,-0.6374,0.0493,9.7858,0.0155,0.0129,-0.0133
47511,46.88216,-1.289922,125.8,34.35,3.216,153.9,15 / 20,4751110,2019-08-09 21:33:19:848,-0.8923,0.6071,9.8614,-0.6342,0.0838,9.7858,0.0209,0.0215,-0.0302
47512,46.88216,-1.289922,125.8,34.35,3.216,153.9,15 / 20,4751211,2019-08-09 21:33:19:949,-0.7989,0.6124,9.9985,-0.6151,0.098,9.7869,-0.0046,0.0075,-0.0182
47513,46.88216,-1.289922,125.8,34.35,3.216,153.9,15 / 20,4751310,2019-08-09 21:33:20:048,-0.0076,0.8267,9.9757,-0.6385,0.1028,9.7853,-0.0191,0.0363,-0.0176
47514,46.88216,-1.289922,125.8,34.35,3.216,153.9,15 / 20,4751410,2019-08-09 21:33:20:148,-0.1154,0.1749,9.7686,-0.6216,0.0982,9.7864,0.0092,0.0475,-0.0221
47515,46.88216,-1.289922,125.8,34.35,3.216,153.9,15 / 20,4751510,2019-08-09 21:33:20:248,-0.1058,0.4556,9.7267,-0.6396,0.1168,9.7851,0.0077,-0.011,-0.0113
47516,46.88216,-1.289922,125.8,34.35,3.216,153.9,16 / 21,4751611,2019-08-09 21:33:20:349,-0.2854,0.4353,9.3442,-0.6347,0.1246,9.7853,-0.0026,-0.0076,-0.0192
47517,46.88216,-1.289922,125.8,34.35,3.216,153.9,16 / 21,4751711,2019-08-09 21:33:20:449,-0.4619,0.2581,9.3347,-0.6169,0.1283,9.7864,-0.0002,0.0235,-0.0094
47518,46.88216,-1.289922,125.8,34.35,3.216,153.9,16 / 21,4751810,2019-08-09 21:33:20:548,-0.5367,0.3102,9.7375,-0.6298,0.1291,9.7856,-0.009,0.005,-0.0069
47519,46.88216,-1.289922,125.8,34.35,3.216,153.9,16 / 21,4751910,2019-08-09 21:33:20:648,-1.3927,0.1378,9.5459,-0.6269,0.1252,9.7858,-0.0004,-0.0025,-0.0085
47520,46.88216,-1.289922,125.8,34.35,3.216,153.9,16 / 21,4752010,2019-08-09 21:33:20:748,-1.5848,0.4574,10.5467,-0.6431,0.1209,9.7848,-0.0064,0.0369,-0.0178
47521,46.88216,-1.289922,125.8,34.35,3.216,153.9,16 / 21,4752110,2019-08-09 21:33:20:848,-1.3232,-0.2483,9.3849,-0.6332,0.1144,9.7855,0.0049,-0.0453,0.0023
47522,46.88216,-1.289922,125.8,34.35,3.216,153.9,16 / 21,4752210,2019-08-09 21:33:20:948,-0.5565,0.1049,9.6052,-0.6314,0.1166,9.7856,0.0075,0.0449,-0.0192
47523,46.88216,-1.289922,125.8,34.35,3.216,153.9,16 / 21,4752310,2019-08-09 21:33:21:048,-0.6229,0.0193,9.9386,-0.6359,0.1104,9.7854,-0.0173,0.0227,0.0014
47524,46.88216,-1.289922,125.8,34.35,3.216,153.9,16 / 21,4752410,2019-08-09 21:33:21:148,-0.447,-0.0436,10.032,-0.6257,0.0935,9.7862,-0.0104,-0.0036,0.0047
47525,46.88216,-1.289922,125.8,34.35,3.216,153.9,16 / 21,4752510,2019-08-09 21:33:21:248,-0.0651,-0.1908,9.8883,-0.6552,0.0789,9.7844,-0.0017,-0.0292,0.0035
47526,46.88216,-1.289922,125.8,34.35,3.216,153.9,16 / 21,4752610,2019-08-09 21:33:21:348,-0.942,-0.3027,9.1198,-0.6493,0.0786,9.7848,0.0131,-0.0273,0.009
47527,46.88216,-1.289922,125.8,34.35,3.216,153.9,16 / 21,4752710,2019-08-09 21:33:21:448,-0.247,-0.1058,8.9959,-0.6284,0.0898,9.7861,0.0061,-0.0476,0.0114
47528,46.88216,-1.289922,125.8,34.35,3.216,153.9,16 / 21,4752810,2019-08-09 21:33:21:548,0.1432,-0.134,9.534,-0.6305,0.0899,9.786,0.0001,0.0295,0.0128
47529,46.88216,-1.289922,125.8,34.35,3.216,153.9,16 / 21,4752910,2019-08-09 21:33:21:648,-0.5762,-0.1872,9.5136,-0.618,0.0806,9.7868,-0.0089,-0.0333,0.0064
47530,46.88216,-1.289922,125.8,34.35,3.216,153.9,16 / 21,4753010,2019-08-09 21:33:21:748,-0.3296,-0.0484,9.4304,-0.6248,0.077,9.7864,0.0024,0.017,-0.0259
47531,46.88216,-1.289922,125.8,34.35,3.216,153.9,16 / 21,4753110,2019-08-09 21:33:21:848,-0.1525,-0.0998,9.8015,-0.6345,0.0672,9.7859,-0.0065,0.0131,0.0229
47532,46.88216,-1.289922,125.8,34.35,3.216,153.9,16 / 21,4753210,2019-08-09 21:33:21:948,-1.2233,-0.2686,9.68,-0.6404,0.0625,9.7855,-0.0065,0.0131,0.0229
47533,46.88216,-1.289922,125.8,34.35,3.216,153.9,16 / 21,4753310,2019-08-09 21:33:22:048,-0.6576,0.1156,10.0924,-0.6476,0.0564,9.7851,0.0053,0.0469,-0.0237
47534,46.88216,-1.289922,125.8,34.35,3.216,153.9,16 / 21,4753410,2019-08-09 21:33:22:148,-1.4555,0.1282,10.108,-0.6387,0.0531,9.7857,-0.0034,0.0062,-0.0188
47535,46.88216,-1.289922,125.8,34.35,3.216,153.9,16 / 21,4753510,2019-08-09 21:33:22:248,-0.7301,0.0318,10.3486,-0.6565,0.0429,9.7846,-0.0047,-0.0309,0.0098
47536,46.88216,-1.289922,125.8,34.35,3.216,153.9,14 / 20,4753610,2019-08-09 21:33:22:348,-0.5074,-0.1118,9.7716,-0.6455,0.0413,9.7853,0.0148,0.0152,-0.0119
47537,46.88216,-1.289922,125.8,34.35,3.216,153.9,14 / 20,4753710,2019-08-09 21:33:22:448,0.0079,0.0719,9.68,-0.64,0.0606,9.7856,0.012,0.0068,-0.0248
47538,46.88216,-1.289922,125.8,34.35,3.216,153.9,14 / 20,4753810,2019-08-09 21:33:22:548,-1.3496,0.2796,9.6579,-0.6377,0.0635,9.7857,0.0013,-0.022,0.0089
47539,46.88216,-1.289922,125.8,34.35,3.216,153.9,14 / 20,4753910,2019-08-09 21:33:22:648,-0.5996,-0.2028,9.273,-0.6093,0.0593,9.7875,-0.0011,0.0141,-0.0092
47540,46.88216,-1.289922,125.8,34.35,3.216,153.9,14 / 20,4754010,2019-08-09 21:33:22:748,-1.1377,-0.0998,9.7836,-0.6319,0.0495,9.7861,-0.0096,0.0125,0.0108
47541,46.88216,-1.289922,125.8,34.35,3.216,153.9,14 / 20,4754111,2019-08-09 21:33:22:849,0.1893,0.0139,9.7818,-0.6206,0.0411,9.7869,-0.002,0.0041,-0.0043
47542,46.88216,-1.289922,125.8,34.35,3.216,153.9,14 / 20,4754210,2019-08-09 21:33:22:948,-0.0663,0.2383,9.7602,-0.6451,0.038,9.7853,0.0017,0.0077,-0.0253
47543,46.88216,-1.289922,125.8,34.35,3.216,153.9,14 / 20,4754310,2019-08-09 21:33:23:048,-0.1261,0.1923,9.6022,-0.6383,0.04,9.7858,-0.0057,-0.0151,-0.0204
47544,46.88216,-1.289922,125.8,34.35,3.216,153.9,14 / 20,4754410,2019-08-09 21:33:23:148,-0.7289,-0.0555,10.5276,-0.6604,0.0426,9.7843,0.0053,0.0389,-0.0114
47545,46.88216,-1.289922,125.8,34.35,3.216,153.9,14 / 20,4754510,2019-08-09 21:33:23:248,-1.8129,0.1593,9.8177,-0.6339,0.0495,9.786,0.0235,-0.01,-0.0059
47546,46.88216,-1.289922,125.8,34.35,3.216,153.9,16 / 21,4754611,2019-08-09 21:33:23:349,0.0439,0.5663,9.9913,-0.6607,0.076,9.7841,0.0095,0.0444,-0.0233
47547,46.88216,-1.289922,125.8,34.35,3.216,153.9,16 / 21,4754710,2019-08-09 21:33:23:448,-0.5559,-0.0005,9.877,-0.623,0.0733,9.7866,-0.0013,0.0481,0.015
47548,46.88216,-1.289922,125.8,34.35,3.216,153.9,16 / 21,4754810,2019-08-09 21:33:23:548,-0.6732,0.0941,10.196,-0.6433,0.078,9.7852,0.005,0.0099,-0.001
47549,46.88216,-1.289922,125.8,34.35,3.216,153.9,16 / 21,4754910,2019-08-09 21:33:23:648,-0.0573,0.1156,9.0827,-0.6278,0.0789,9.7862,-0.0005,0.0014,-0.0129
47550,46.88216,-1.289922,125.8,34.35,3.216,153.9,16 / 21,4755011,2019-08-09 21:33:23:749,-0.2279,-0.0992,9.2155,-0.6158,0.0778,9.787,-0.0026,0.0566,-0.0164
47551,46.88216,-1.289922,125.8,34.35,3.216,153.9,16 / 21,4755110,2019-08-09 21:33:23:848,-0.6792,0.048,9.6824,-0.634,0.0747,9.7859,-0.0033,-0.0186,-0.0033
47552,46.88216,-1.289922,125.8,34.35,3.216,153.9,16 / 21,4755211,2019-08-09 21:33:23:949,-0.4302,0.1725,9.8207,-0.6385,0.074,9.7856,-0.0006,0.0337,-0.0042
47553,46.88216,-1.289922,125.8,34.35,3.216,153.9,16 / 21,4755310,2019-08-09 21:33:24:048,-0.7576,0.0624,9.5633,-0.6507,0.0772,9.7847,0.0066,-0.0241,-0.0092
47554,46.88216,-1.289922,125.8,34.35,3.216,153.9,16 / 21,4755410,2019-08-09 21:33:24:148,-1.425,0.4311,9.6842,-0.6371,0.0905,9.7855,0.0078,-0.0171,-0.0148
47555,46.88216,-1.289922,125.8,34.35,3.216,153.9,16 / 21,4755510,2019-08-09 21:33:24:248,-0.162,0.1791,10.0278,-0.6471,0.102,9.7847,0.0057,0.0059,0.0011
47556,46.88216,-1.289922,125.8,34.35,3.216,153.9,16 / 22,4755610,2019-08-09 21:33:24:348,-0.2033,0.1941,9.5998,-0.6306,0.1105,9.7857,0.0063,-0.0026,-0.0082
47557,46.88216,-1.289922,125.8,34.35,3.216,153.9,16 / 22,4755710,2019-08-09 21:33:24:448,0.2563,0.4113,10.0936,-0.6249,0.1125,9.7861,-0.0047,-0.0071,-0.0157
47558,46.88216,-1.289922,125.8,34.35,3.216,153.9,16 / 22,4755810,2019-08-09 21:33:24:548,-1.3975,0.452,9.6752,-0.6258,0.1101,9.786,-0.0041,-0.0047,-0.0044
47559,46.88216,-1.289922,125.8,34.35,3.216,153.9,16 / 22,4755910,2019-08-09 21:33:24:648,-0.1537,0.1671,9.877,-0.6338,0.1129,9.7855,-0.0027,0.0018,-0.0185
47560,46.88216,-1.289922,125.8,34.35,3.216,153.9,16 / 22,4756010,2019-08-09 21:33:24:748,-0.2351,0.5047,9.6609,-0.6365,0.1228,9.7852,0.0065,0.0057,-0.0198
47561,46.88216,-1.289922,125.8,34.35,3.216,153.9,16 / 22,4756110,2019-08-09 21:33:24:848,-0.4829,0.4832,9.4771,-0.6275,0.1323,9.7857,0.0049,-0.0246,-0.0223
47562,46.88216,-1.289922,125.8,34.35,3.216,153.9,16 / 22,4756211,2019-08-09 21:33:24:949,-0.6068,0.2312,9.2592,-0.6291,0.1447,9.7854,0.0026,-0.0088,-0.0159
47563,46.88216,-1.289922,125.8,34.35,3.216,153.9,16 / 22,4756310,2019-08-09 21:33:25:048,-1.2406,0.2461,9.37,-0.6347,0.1475,9.785,-0.0043,0.0404,-0.011
47564,46.88216,-1.289922,125.8,34.35,3.216,153.9,16 / 22,4756410,2019-08-09 21:33:25:148,-1.4136,0.3066,9.698,-0.621,0.1507,9.7858,-0.0018,0.0528,-0.0123
47565,46.88216,-1.289922,125.8,34.35,3.216,153.9,16 / 22,4756511,2019-08-09 21:33:25:249,0.163,0.233,9.6746,-0.6513,0.1527,9.7838,0.0035,-0.0427,-0.0072
47566,46.879623,-1.288265,126.97,34.63,3.216,158.4,15 / 21,4756611,2019-08-09 21:33:25:349,0.0558,0.3287,9.1294,-0.6114,0.1622,9.7862,-0.0007,0.0221,-0.0201
47567,46.879623,-1.288265,126.97,34.63,3.216,158.4,15 / 21,4756710,2019-08-09 21:33:25:448,-0.8354,0.4436,9.1671,-0.6289,0.1655,9.7851,-0.0091,-0.0491,-0.0082
47568,46.879623,-1.288265,126.97,34.63,3.216,158.4,15 / 21,4756810,2019-08-09 21:33:25:548,-0.6379,0.0612,10.1301,-0.603,0.1543,9.7869,-0.0172,-0.0036,-0.0228
47569,46.879623,-1.288265,126.97,34.63,3.216,158.4,15 / 21,4756910,2019-08-09 21:33:25:648,-0.0411,-0.1256,9.9895,-0.6227,0.1491,9.7857,-0.0135,0.0045,0.0104
47570,46.879623,-1.288265,126.97,34.63,3.216,158.4,15 / 21,4757010,2019-08-09 21:33:25:748,0.3174,-0.0968,9.9332,-0.6341,0.1284,9.7853,-0.0042,-0.0236,-0.0033
47571,46.879623,-1.288265,126.97,34.63,3.216,158.4,15 / 21,4757110,2019-08-09 21:33:25:848,-1.3071,-0.2249,9.7507,-0.6291,0.125,9.7857,0.0185,0.0152,0.0042
