,GPS LATITUDE (degrees), GPS LONGITUDE (degrees), GPS ALTITUDE (m), GPS SPEED (Kmh), GPS ACCURACY (m), GPS ORIENTATION (Â°),GPS SATELLITES IN RANGE, TIME SINCE START (ms), DATE (YYYY-MO-DD HH-MI-SS_SSS), ACCELEROMETER X (m/s²) , ACCELEROMETER Y (m/s²), ACCELEROMETER Z (m/s²), GRAVITY X (m/s²), GRAVITY Y (m/s²), GRAVITY Z (m/s²), GYROSCOPE Yaw (rad/s), GYROSCOPE Pitch (rad/s), GYROSCOPE Roll (rad/s), MAGNETIC FIELD X (Î¼T), MAGNETIC FIELD Y (Î¼T), MAGNETIC FIELD Z (Î¼T), ORIENTATION (Yaw) (Â°), ORIENTATION (Pitch) (Â°), ORIENTATION (Roll ) (Â°)
47566,52.405354,-1.573814,169.72,2.01,2,71.18,26 / 27,4759521,2019-09-08 11:27:06:145,-0.5444,0.1861,9.7488,-0.0116,-0.0068,9.8065,-0.0828,0.0226,0.0395,-27.06,-28.87,7.5,288.9,-82.82,-170.42
47567,52.405354,-1.573814,169.72,2.01,2,71.18,26 / 27,4759621,2019-09-08 11:27:06:245,-1.1795,0.4053,9.173,-0.0155,-0.0133,9.8066,-0.0123,0.0128,-0.0154,-27.44,-29.0,6.94,287.52,-82.72,-169.61
47568,52.405354,-1.573814,169.72,2.01,2,71.18,26 / 27,4759722,2019-09-08 11:27:06:346,-0.5093,-0.4219,10.2842,0.0243,-0.0205,9.8066,0.1523,0.0269,-0.0256,-27.5,-28.75,7.38,288.34,-82.67,-168.77
47569,52.405354,-1.573814,169.72,2.01,2,71.18,26 / 27,4759821,2019-09-08 11:27:06:445,0.832,-0.9291,10.7036,0.0185,-0.0042,9.8065,0.1123,-0.0021,0.044,-27.0,-28.19,8.56,292.98,-82.41,-168.36
47570,52.405354,-1.573814,169.72,2.01,2,71.18,26 / 26,4759922,2019-09-08 11:27:06:546,-0.2494,-0.3042,10.5899,0.0107,0.0102,9.8065,-0.2041,0.0066,-0.0163,-27.19,-29.12,8.44,289.86,-82.36,-169.02
47571,52.405354,-1.573814,169.72,2.01,2,71.18,26 / 26,4760021,2019-09-08 11:27:06:645,-1.2716,0.3171,10.171,0.0128,0.0085,9.8066,-0.1269,-0.0057,-0.0185,-27.56,-28.87,7.88,288.75,-82.46,-169.88
47572,52.405354,-1.573814,169.72,2.01,2,71.18,26 / 26,4760121,2019-09-08 11:27:06:745,-0.2673,0.9716,9.6935,-0.0151,0.0183,9.8066,0.1274,-0.0147,0.006,-27.06,-29.12,8.0,287.94,-82.51,-171.02
47573,52.405354,-1.573814,169.72,2.01,2,71.18,26 / 26,4760221,2019-09-08 11:27:06:845,-0.3772,-0.1255,9.7659,0.0066,-0.0179,9.8066,0.0676,-0.0399,0.0519,-27.44,-28.56,8.0,287.84,-82.43,-171.03
47574,52.405354,-1.573814,169.72,2.01,2,71.18,26 / 26,4760321,2019-09-08 11:27:06:945,-1.1516,0.8686,9.501,-0.0094,0.0016,9.8066,-0.0228,0.0474,-0.0144,-27.25,-29.19,7.94,288.31,-82.37,-170.52
47575,52.405354,-1.573814,169.72,2.01,2,71.18,26 / 26,4760421,2019-09-08 11:27:07:045,-0.1142,-0.6553,9.4699,-0.0152,0.006,9.8065,0.0388,-0.07,0.0945,-27.56,-29.25,7.88,287.91,-82.48,-170.71
47576,52.405354,-1.573814,169.72,2.01,2,71.18,26 / 26,4760521,2019-09-08 11:27:07:145,-0.7111,0.2897,10.4332,-0.0087,0.0159,9.8066,0.0492,-0.0754,-0.0139,-26.56,-28.69,7.75,288.36,-82.48,-170.58
47577,52.405354,-1.573814,169.72,2.01,2,71.18,26 / 26,4760621,2019-09-08 11:27:07:245,-1.0657,0.6869,10.5224,-0.0069,0.031,9.8065,0.0704,-0.0073,-0.0367,-26.5,-29.69,7.81,286.69,-82.61,-172.41
47578,52.405354,-1.573814,169.72,2.01,2,71.18,26 / 26,4760722,2019-09-08 11:27:07:346,-0.0367,0.0399,10.3508,0.0484,-0.0059,9.8065,-0.0355,0.0027,0.0121,-26.69,-29.62,7.63,285.37,-82.68,-173.44
47579,52.405354,-1.573814,169.72,2.01,2,71.18,27 / 27,4760822,2019-09-08 11:27:07:446,1.0485,0.4824,9.2491,0.0494,-0.0114,9.8065,-0.147,0.0402,-0.0401,-26.5,-29.87,8.69,287.32,-82.53,-173.8
47580,52.405354,-1.573814,169.72,2.01,2,71.18,27 / 27,4760922,2019-09-08 11:27:07:546,-1.4648,0.7678,9.2614,-0.03,-0.0077,9.8066,0.1602,-0.0379,0.0095,-26.56,-29.69,8.69,286.84,-82.1,-173.41
47581,52.405354,-1.573814,169.72,2.01,2,71.18,27 / 27,4761021,2019-09-08 11:27:07:645,0.3538,-0.5142,9.0043,-0.0108,0.0131,9.8066,0.0434,-0.0921,0.0624,-27.06,-30.0,9.13,287.41,-82.1,-172.85
47582,52.405354,-1.573814,169.72,2.01,2,71.18,27 / 27,4761122,2019-09-08 11:27:07:746,0.0006,0.3882,10.1099,-0.0186,0.0144,9.8065,-0.0082,-0.0431,-0.0101,-26.87,-29.87,9.0,287.64,-82.08,-172.61
47583,52.405354,-1.573814,169.72,2.01,2,71.18,27 / 27,4761222,2019-09-08 11:27:07:846,-0.1522,0.5742,10.6337,-0.0175,-0.0129,9.8066,0.0388,0.0188,-0.0366,-26.5,-30.0,9.31,289.24,-82.11,-171.5
47584,52.405354,-1.573814,169.72,2.01,2,71.18,27 / 27,4761321,2019-09-08 11:27:07:945,-0.3768,-0.0664,9.8477,0.0276,-0.0068,9.8066,-0.063,0.0195,0.0313,-26.69,-29.69,9.06,288.67,-82.36,-171.92
47585,52.405354,-1.573814,169.72,2.01,2,71.18,27 / 27,4761422,2019-09-08 11:27:08:046,-0.231,0.5481,9.6793,0.0055,-0.0037,9.8065,-0.0367,-0.0586,0.0644,-27.06,-29.87,8.56,288.67,-82.31,-171.87
47586,52.405354,-1.573814,169.72,2.01,2,71.18,27 / 27,4761521,2019-09-08 11:27:08:145,-0.8102,0.2612,9.5802,-0.0079,0.0025,9.8066,0.022,-0.0313,0.0223,-27.31,-30.25,9.13,288.72,-82.37,-171.87
47587,52.405354,-1.573814,169.72,2.01,2,71.18,27 / 27,4761621,2019-09-08 11:27:08:245,0.1007,0.7941,9.5132,-0.0061,0.0064,9.8066,0.0091,0.0084,0.0357,-26.87,-30.19,9.0,288.62,-82.38,-171.99
47588,52.405354,-1.573814,169.72,2.01,2,71.18,27 / 27,4761721,2019-09-08 11:27:08:345,-0.2153,0.2454,10.0104,-0.0226,0.0001,9.8066,0.0022,0.0119,-0.0136,-27.44,-30.06,8.63,289.83,-82.4,-170.85
47589,52.405354,-1.573814,169.72,2.01,2,71.18,27 / 27,4761821,2019-09-08 11:27:08:445,-0.8008,-0.0375,10.3659,-0.0103,-0.0138,9.8066,0.042,0.0024,-0.0415,-27.37,-30.06,8.38,288.49,-82.33,-170.04
47590,52.405354,-1.573814,169.72,2.01,2,71.18,28 / 28,4761921,2019-09-08 11:27:08:545,0.0814,0.0863,9.6699,0.0194,-0.0066,9.8066,-0.0406,-0.0297,0.0231,-27.44,-30.25,8.06,288.35,-82.33,-170.17
47591,52.405354,-1.573814,169.72,2.01,2,71.18,28 / 28,4762021,2019-09-08 11:27:08:645,-0.5437,-0.5342,9.5837,0.0196,-0.0045,9.8066,-0.0966,-0.0294,0.0346,-27.19,-30.75,9.31,290.04,-82.12,-170.09
47592,52.405354,-1.573814,169.72,2.01,2,71.18,28 / 28,4762122,2019-09-08 11:27:08:746,-0.3625,0.8431,10.0983,-0.0098,0.0107,9.8066,0.1551,-0.0467,0.0608,-28.06,-30.44,8.13,287.05,-82.26,-171.06
47593,52.405354,-1.573814,169.72,2.01,2,71.18,28 / 28,4762222,2019-09-08 11:27:08:846,0.6423,0.9578,9.6429,-0.0145,0.0154,9.8065,0.0702,0.0348,-0.0543,-27.44,-30.44,8.88,289.02,-82.38,-171.6
47594,52.405354,-1.573814,169.72,2.01,2,71.18,28 / 28,4762322,2019-09-08 11:27:08:946,-0.1847,0.0708,10.6194,-0.0079,0.0036,9.8065,-0.0943,-0.004,0.0103,-26.94,-30.12,9.13,289.07,-82.41,-171.59
47595,52.405354,-1.573814,169.72,2.01,2,71.18,28 / 28,4762421,2019-09-08 11:27:09:045,-0.6906,0.2008,9.1703,-0.0014,0.0022,9.8066,-0.0966,0.0138,0.0327,-28.12,-30.62,9.13,288.42,-82.5,-171.7
47596,52.405354,-1.573814,169.72,2.01,2,71.18,28 / 28,4762522,2019-09-08 11:27:09:146,-0.2629,-0.1823,10.107,0.0044,-0.0007,9.8066,0.0556,0.01,-0.0165,-27.69,-29.94,8.94,289.4,-82.53,-171.03
47597,52.405354,-1.573814,169.72,2.01,2,71.18,28 / 28,4762622,2019-09-08 11:27:09:246,0.3218,0.5361,9.2677,-0.0079,0.0106,9.8066,0.0526,0.0386,-0.0102,-27.37,-30.81,8.69,289.01,-82.57,-171.56
47598,52.405354,-1.573814,169.72,2.01,2,71.18,28 / 28,4762722,2019-09-08 11:27:09:346,-0.331,0.4777,9.4392,-0.0129,0.0116,9.8066,-0.0665,-0.0232,0.0078,-26.87,-30.37,8.63,289.12,-82.55,-171.69
47599,52.405354,-1.573814,169.72,2.01,2,71.18,28 / 28,4762822,2019-09-08 11:27:09:446,-1.5908,-0.0031,10.3539,-0.0137,-0.0067,9.8066,-0.0405,-0.0209,-0.0156,-27.44,-30.25,7.63,287.49,-82.68,-171.39
47600,52.405354,-1.573814,169.72,2.01,2,71.18,27 / 28,4762921,2019-09-08 11:27:09:545,-0.8095,0.3471,10.0605,-0.0087,0.006,9.8066,0.0913,-0.0101,0.0276,-27.06,-30.87,8.5,288.8,-82.76,-171.98
47601,52.405354,-1.573814,169.72,2.01,2,71.18,27 / 28,4763022,2019-09-08 11:27:09:646,-0.4652,0.3716,10.4228,0.0025,0.0044,9.8065,0.1339,0.0028,-0.001,-26.87,-30.75,9.0,288.16,-82.72,-172.55
47602,52.405354,-1.573814,169.72,2.01,2,71.18,27 / 28,4763122,2019-09-08 11:27:09:746,-0.4704,-0.3734,9.3963,0.0093,-0.0021,9.8066,-0.028,-0.0542,0.0131,-27.0,-30.75,8.38,285.92,-82.59,-172.54
47603,52.405354,-1.573814,169.72,2.01,2,71.18,27 / 28,4763222,2019-09-08 11:27:09:846,-1.3514,0.2146,9.4412,-0.0073,0.0053,9.8066,0.0134,-0.0311,0.0322,-27.25,-30.5,8.88,288.1,-82.57,-172.69
47604,52.405354,-1.573814,169.72,2.01,2,71.18,27 / 28,4763321,2019-09-08 11:27:09:945,-0.4298,-0.5613,10.3264,0.029,-0.0109,9.8065,0.0219,0.0085,-0.0262,-27.31,-30.62,9.06,287.85,-82.38,-172.47
47605,52.405354,-1.573814,169.72,2.01,2,71.18,27 / 28,4763421,2019-09-08 11:27:10:045,-0.9397,-0.0739,10.0493,0.0225,0.0014,9.8066,0.016,-0.0034,-0.0215,-26.69,-30.06,9.63,289.24,-82.12,-173.1
47606,52.405354,-1.573814,169.72,2.01,2,71.18,27 / 28,4763521,2019-09-08 11:27:10:145,-0.8029,0.317,9.6181,-0.0119,0.0316,9.8065,-0.0286,0.0124,-0.086,-26.94,-30.69,9.63,287.54,-82.12,-174.47
47607,52.405354,-1.573814,169.72,2.01,2,71.18,27 / 28,4763621,2019-09-08 11:27:10:245,-0.838,0.421,10.0643,-0.0004,0.0163,9.8066,-0.0089,-0.0683,0.0013,-27.25,-30.87,9.13,282.84,-82.28,-177.21
47608,52.405354,-1.573814,169.72,2.01,2,71.18,27 / 28,4763721,2019-09-08 11:27:10:345,-0.7015,0.7838,9.5601,-0.0056,0.0097,9.8066,0.0317,-0.0117,0.0214,-27.06,-31.5,9.06,281.94,-82.33,-178.14
47609,52.405354,-1.573814,169.72,2.01,2,71.18,27 / 28,4763821,2019-09-08 11:27:10:445,-0.4128,1.0742,9.648,-0.004,-0.0083,9.8066,-0.0122,0.0289,0.0434,-26.56,-30.75,8.44,280.13,-82.32,-177.88
47610,52.405376,-1.573214,172.66,5.04,3,84.54,27 / 27,4763921,2019-09-08 11:27:10:545,-0.4177,-0.0977,9.3445,-0.012,-0.0254,9.8066,-0.0472,-0.0153,0.0311,-27.0,-30.62,9.0,283.18,-82.35,-176.96
47611,52.405376,-1.573214,172.66,5.04,3,84.54,27 / 27,4764021,2019-09-08 11:27:10:645,-0.5548,-0.7104,9.6143,-0.0201,0.0045,9.8065,0.1082,-0.0219,-0.0017,-27.37,-31.44,8.06,282.99,-82.47,-175.26
47612,52.405376,-1.573214,172.66,5.04,3,84.54,27 / 27,4764122,2019-09-08 11:27:10:746,-0.4767,0.3879,10.3388,0.0303,0.013,9.8065,-0.1108,0.0474,-0.0487,-26.75,-31.44,8.25,281.01,-82.32,-177.02
47613,52.405376,-1.573214,172.66,5.04,3,84.54,27 / 27,4764222,2019-09-08 11:27:10:846,-1.0409,0.8409,9.7577,0.0169,0.0054,9.8066,-0.0346,0.0419,-0.0352,-25.87,-30.44,8.31,280.25,-82.41,-178.46
47614,52.405376,-1.573214,172.66,5.04,3,84.54,27 / 27,4764321,2019-09-08 11:27:10:945,-1.4478,0.8716,10.4231,-0.0018,0.0073,9.8066,0.0919,0.0836,-0.0119,-26.25,-31.19,8.56,281.3,-82.47,-179.3
47615,52.405376,-1.573214,172.66,5.04,3,84.54,27 / 27,4764421,2019-09-08 11:27:11:045,-0.6758,2.4108,9.8774,-0.0065,-0.0013,9.8066,0.0948,0.0329,0.0964,-26.5,-31.25,8.19,278.52,-82.42,-179.89
47616,52.405376,-1.573214,172.66,5.04,3,84.54,27 / 27,4764521,2019-09-08 11:27:11:145,-0.588,1.3043,9.767,0.0109,-0.0146,9.8066,-0.0085,0.1485,-0.0652,-26.25,-30.56,8.56,282.8,-82.26,-177.6
47617,52.405376,-1.573214,172.66,5.04,3,84.54,27 / 27,4764621,2019-09-08 11:27:11:245,-1.1846,0.6667,9.0574,0.0152,0.0058,9.8066,0.0363,0.0834,-0.0158,-25.75,-30.44,7.94,280.85,-82.15,-177.56
47618,52.405376,-1.573214,172.66,5.04,3,84.54,27 / 27,4764722,2019-09-08 11:27:11:346,-0.5885,0.7008,9.0499,-0.0139,0.0147,9.8066,0.0201,0.0955,-0.0248,-26.12,-30.31,7.88,280.04,-82.2,-178.42
47619,52.405376,-1.573214,172.66,5.04,3,84.54,28 / 28,4764821,2019-09-08 11:27:11:445,-1.2555,0.9758,9.9623,-0.005,0.0073,9.8066,-0.0171,0.1173,-0.0294,-26.56,-30.94,8.31,278.97,-82.26,-178.95
47620,52.405376,-1.573214,172.66,5.04,3,84.54,28 / 28,4764922,2019-09-08 11:27:11:546,-1.5539,1.3806,10.9168,-0.0016,0.0007,9.8066,0.0003,0.1367,0.0109,-26.31,-30.62,7.38,277.33,-82.33,-178.83
47621,52.405376,-1.573214,172.66,5.04,3,84.54,28 / 28,4765021,2019-09-08 11:27:11:645,-1.0805,1.1431,10.4624,-0.0025,-0.0044,9.8066,0.0194,0.1951,-0.0187,-25.94,-30.81,7.19,277.56,-82.43,-178.72
47622,52.405376,-1.573214,172.66,5.04,3,84.54,28 / 28,4765121,2019-09-08 11:27:11:745,-1.4013,0.8217,9.7278,-0.0008,0.0052,9.8066,-0.034,0.1822,-0.0364,-26.12,-30.5,7.13,278.02,-82.51,-178.63
47623,52.405376,-1.573214,172.66,5.04,3,84.54,28 / 28,4765221,2019-09-08 11:27:11:845,-1.2871,1.6145,9.5701,-0.0024,0.0056,9.8066,0.0435,0.143,-0.0022,-26.44,-31.0,6.81,277.06,-82.57,-179.38
47624,52.405376,-1.573214,172.66,5.04,3,84.54,28 / 28,4765321,2019-09-08 11:27:11:945,-2.134,0.2289,10.3524,0.0005,0.012,9.8066,0.0217,0.1865,-0.104,-26.69,-31.31,7.19,277.31,-82.4,-178.7
47625,52.405376,-1.573214,172.66,5.04,3,84.54,28 / 28,4765421,2019-09-08 11:27:12:045,-1.2403,1.2608,9.3519,0.0154,0.0107,9.8066,0.0431,0.2056,-0.0434,-26.06,-31.5,6.38,272.89,-82.26,178.99
47626,52.405376,-1.573214,172.66,5.04,3,84.54,28 / 28,4765522,2019-09-08 11:27:12:146,-0.836,0.9412,9.4132,0.0083,-0.0022,9.8066,-0.0237,0.1977,-0.0468,-25.62,-30.87,6.0,272.63,-82.1,178.93
47627,52.405376,-1.573214,172.66,5.04,3,84.54,28 / 28,4765622,2019-09-08 11:27:12:246,-1.2039,0.8668,9.7941,0.0021,-0.0051,9.8066,-0.0914,0.184,0.0184,-24.81,-31.0,5.69,273.14,-82.09,179.3
47628,52.405376,-1.573214,172.66,5.04,3,84.54,28 / 28,4765722,2019-09-08 11:27:12:346,-1.9535,0.369,10.1236,-0.0173,-0.0102,9.8065,0.0115,0.1642,0.0012,-25.69,-31.37,5.19,273.0,-82.36,-178.84
47629,52.405376,-1.573214,172.66,5.04,3,84.54,28 / 28,4765822,2019-09-08 11:27:12:446,-1.9067,0.4205,9.9095,-0.0077,-0.0021,9.8066,-0.0095,0.2043,-0.0292,-25.56,-31.75,5.69,275.56,-82.41,-178.24
47630,52.405376,-1.573214,172.66,5.04,3,84.54,27 / 27,4765921,2019-09-08 11:27:12:545,-1.8272,-0.4676,9.757,-0.0057,-0.0036,9.8066,0.0148,0.1837,-0.0467,-25.31,-31.81,4.63,273.44,-82.43,-178.26
47631,52.405376,-1.573214,172.66,5.04,3,84.54,27 / 27,4766021,2019-09-08 11:27:12:645,-1.8353,0.3295,9.7337,-0.013,0.0037,9.8066,-0.0019,0.112,0.0077,-25.25,-30.81,3.81,271.42,-82.54,-178.43
47632,52.405376,-1.573214,172.66,5.04,3,84.54,27 / 27,4766122,2019-09-08 11:27:12:746,-2.2282,0.0625,9.8962,-0.0054,-0.0005,9.8066,-0.0309,0.1312,-0.0324,-25.69,-31.94,4.69,274.28,-82.65,-177.62
47633,52.405376,-1.573214,172.66,5.04,3,84.54,27 / 27,4766221,2019-09-08 11:27:12:845,-2.0583,-0.1975,10.0133,0.0052,-0.001,9.8066,-0.0154,0.1603,-0.025,-25.37,-31.62,3.44,269.98,-82.76,-177.57
47634,52.405376,-1.573214,172.66,5.04,3,84.54,27 / 27,4766321,2019-09-08 11:27:12:945,-2.0403,-0.1706,9.7257,-0.0141,0.0081,9.8066,0.0107,0.1329,-0.0325,-24.62,-31.19,3.13,269.88,-82.91,-178.15
47635,52.405376,-1.573214,172.66,5.04,3,84.54,27 / 27,4766422,2019-09-08 11:27:13:046,-1.9518,-0.053,9.6696,-0.0116,0.0108,9.8066,0.0284,0.1122,0.0042,-24.62,-30.75,3.63,271.34,-82.95,-179.04
47636,52.405376,-1.573214,172.66,5.04,3,84.54,27 / 27,4766521,2019-09-08 11:27:13:145,-1.885,0.2511,9.8329,0.0055,0.0014,9.8066,-0.0087,0.1141,-0.008,-24.94,-31.06,3.44,268.48,-82.97,-179.64
47637,52.405376,-1.573214,172.66,5.04,3,84.54,27 / 27,4766621,2019-09-08 11:27:13:245,-1.5883,0.1499,9.8516,0.0093,0.0001,9.8066,-0.0132,0.092,-0.0186,-25.06,-31.44,3.75,270.67,-82.94,-179.69
47638,52.405376,-1.573214,172.66,5.04,3,84.54,27 / 27,4766722,2019-09-08 11:27:13:346,-1.2687,0.2765,9.6911,-0.0121,0.0016,9.8066,0.0583,0.0743,0.0093,-25.25,-31.12,3.81,270.49,-82.94,-179.88
47639,52.405376,-1.573214,172.66,5.04,3,84.54,27 / 27,4766821,2019-09-08 11:27:13:445,-0.6469,-0.0585,9.7434,-0.0069,0.0019,9.8066,0.0415,0.0819,-0.0237,-25.25,-32.0,3.31,267.86,-82.97,-179.99
47640,52.405376,-1.573214,172.66,5.04,3,84.54,25 / 26,4766921,2019-09-08 11:27:13:545,-0.3714,0.1743,9.818,0.006,0.0105,9.8066,-0.0088,0.072,-0.0156,-25.06,-31.31,3.0,267.34,-82.92,179.27
47641,52.405376,-1.573214,172.66,5.04,3,84.54,25 / 26,4767021,2019-09-08 11:27:13:645,-0.2058,0.3278,9.9309,0.0095,0.0079,9.8065,0.0095,0.0923,-0.0311,-24.81,-32.19,2.38,263.46,-82.83,178.01
47642,52.405376,-1.573214,172.66,5.04,3,84.54,25 / 26,4767121,2019-09-08 11:27:13:745,0.1726,0.6246,10.0035,0.017,-0.0003,9.8066,-0.0021,0.0922,-0.0013,-24.87,-32.25,2.13,263.14,-82.78,177.75
47643,52.405376,-1.573214,172.66,5.04,3,84.54,25 / 26,4767221,2019-09-08 11:27:13:845,0.1772,0.4015,9.6967,0.006,-0.0075,9.8066,0.0379,0.127,-0.0124,-24.31,-32.12,2.63,265.8,-82.65,178.43
47644,52.405376,-1.573214,172.66,5.04,3,84.54,25 / 26,4767321,2019-09-08 11:27:13:945,0.5347,0.1305,9.583,-0.0041,-0.0071,9.8066,0.004,0.1166,0.0046,-24.44,-31.87,2.31,264.28,-82.64,179.3
47645,52.405376,-1.573214,172.66,5.04,3,84.54,25 / 26,4767421,2019-09-08 11:27:14:045,0.75,0.0737,9.8226,-0.0003,-0.0029,9.8066,0.0139,0.1378,-0.0026,-24.5,-31.81,2.38,264.68,-82.63,179.72
47646,52.405376,-1.573214,172.66,5.04,3,84.54,25 / 26,4767521,2019-09-08 11:27:14:145,0.225,0.448,10.2209,0.0048,0.0089,9.8065,0.0255,0.1396,-0.0325,-24.19,-32.37,2.13,264.4,-82.58,179.51
47647,52.405376,-1.573214,172.66,5.04,3,84.54,25 / 26,4767621,2019-09-08 11:27:14:245,0.6505,0.9855,9.9264,0.0075,0.0141,9.8066,0.0387,0.1712,-0.0386,-24.0,-31.44,2.44,263.19,-82.44,178.13
47648,52.405376,-1.573214,172.66,5.04,3,84.54,25 / 26,4767721,2019-09-08 11:27:14:345,0.6945,0.67,9.9252,0.0127,0.0083,9.8066,0.0311,0.1839,-0.0661,-24.56,-31.62,2.25,262.09,-82.32,177.26
47649,52.405376,-1.573214,172.66,5.04,3,84.54,25 / 26,4767821,2019-09-08 11:27:14:445,1.4412,0.9141,9.6752,0.0037,0.0096,9.8066,0.0136,0.2074,-0.0605,-23.81,-31.81,2.31,260.58,-82.13,176.16
47650,52.405376,-1.573214,172.66,5.04,3,84.54,27 / 27,4767922,2019-09-08 11:27:14:546,1.5965,1.1445,9.7282,0.0127,0.0036,9.8066,0.0093,0.2311,-0.0348,-22.56,-31.87,2.88,261.86,-81.93,175.52
47651,52.405376,-1.573214,172.66,5.04,3,84.54,27 / 27,4768021,2019-09-08 11:27:14:645,0.9294,1.1178,9.7768,0.0169,0.0049,9.8066,-0.0227,0.2553,-0.0413,-22.56,-32.12,1.94,259.22,-81.8,175.45
47652,52.405376,-1.573214,172.66,5.04,3,84.54,27 / 27,4768121,2019-09-08 11:27:14:745,1.0499,1.1337,9.9033,-0.0031,0.0049,9.8066,0.0186,0.2519,-0.0412,-22.56,-32.94,1.44,256.19,-81.69,175.28
47653,52.405376,-1.573214,172.66,5.04,3,84.54,27 / 27,4768221,2019-09-08 11:27:14:845,1.2834,1.2664,10.2558,0.0094,0.0046,9.8066,0.054,0.3203,-0.1026,-22.0,-32.81,0.19,253.05,-81.62,175.07
47654,52.405376,-1.573214,172.66,5.04,3,84.54,27 / 27,4768322,2019-09-08 11:27:14:946,1.6507,1.5303,10.1347,0.0143,0.0127,9.8066,-0.0037,0.3233,-0.0865,-21.5,-33.12,0.06,251.32,-81.49,173.98
47655,52.405376,-1.573214,172.66,5.04,3,84.54,27 / 27,4768421,2019-09-08 11:27:15:045,0.7495,1.5658,10.2346,0.0107,0.0118,9.8065,-0.0127,0.3501,-0.0627,-21.69,-32.56,0.0,250.76,-81.28,173.07
47656,52.405376,-1.573214,172.66,5.04,3,84.54,27 / 27,4768522,2019-09-08 11:27:15:146,-0.1565,0.9753,9.9112,-0.0125,-0.0157,9.8066,-0.1027,0.3715,-0.0231,-21.12,-32.37,-0.69,248.49,-81.36,173.39
47657,52.405376,-1.573214,172.66,5.04,3,84.54,27 / 27,4768622,2019-09-08 11:27:15:246,-0.1731,1.2872,9.86,-0.0152,-0.0079,9.8066,-0.0843,0.3646,-0.0599,-20.5,-32.12,-1.12,248.47,-81.57,173.82
47658,52.405376,-1.573214,172.66,5.04,3,84.54,27 / 27,4768721,2019-09-08 11:27:15:345,1.3492,1.9744,9.8931,0.0125,-0.0053,9.8065,0.133,0.434,-0.0821,-19.62,-32.56,-0.81,248.05,-81.57,173.76
47659,52.405376,-1.573214,172.66,5.04,3,84.54,27 / 27,4768822,2019-09-08 11:27:15:446,1.1801,1.6451,9.963,0.0124,-0.0012,9.8066,0.111,0.4014,-0.0185,-18.94,-33.12,-0.87,247.7,-81.26,174.73
47660,52.405376,-1.573214,172.66,5.04,3,84.54,27 / 27,4768921,2019-09-08 11:27:15:545,0.5029,1.9506,9.8228,0.0107,0.0127,9.8066,-0.0098,0.4587,-0.0582,-18.87,-33.44,-2.19,244.54,-80.9,174.7
47661,52.405376,-1.573214,172.66,5.04,3,84.54,27 / 27,4769022,2019-09-08 11:27:15:646,0.696,2.4753,9.9288,-0.0077,0.016,9.8065,0.0093,0.4779,-0.1017,-18.56,-32.75,-2.25,243.71,-80.93,173.71
47662,52.405376,-1.573214,172.66,5.04,3,84.54,27 / 27,4769121,2019-09-08 11:27:15:745,0.497,2.1695,9.9605,0.0007,0.0073,9.8066,0.0632,0.4834,-0.1037,-17.37,-32.81,-3.37,237.66,-80.84,172.37
47663,52.405376,-1.573214,172.66,5.04,3,84.54,27 / 27,4769222,2019-09-08 11:27:15:846,-0.5802,2.0211,9.6619,0.0139,0.0036,9.8066,0.0253,0.4768,-0.0457,-16.06,-32.37,-3.06,236.31,-80.69,172.07
47664,52.405376,-1.573214,172.66,5.04,3,84.54,27 / 27,4769322,2019-09-08 11:27:15:946,-0.7887,0.8271,10.327,-0.0028,-0.0145,9.8066,0.005,0.4485,-0.0467,-16.19,-33.31,-4.06,233.98,-80.71,172.93
47665,52.405376,-1.573214,172.66,5.04,3,84.54,27 / 27,4769422,2019-09-08 11:27:16:046,-1.4916,1.8758,9.8118,0.0004,-0.0104,9.8066,0.0478,0.4804,-0.1281,-16.12,-33.06,-4.75,232.05,-80.8,173.52
47666,52.405376,-1.573214,172.66,5.04,3,84.54,27 / 27,4769522,2019-09-08 11:27:16:146,0.5012,1.6663,10.004,0.0189,-0.0004,9.8066,0.0257,0.4714,-0.0844,-15.12,-33.25,-4.19,233.61,-80.51,174.71
47667,52.405376,-1.573214,172.66,5.04,3,84.54,27 / 27,4769621,2019-09-08 11:27:16:245,-0.196,2.2836,10.082,0.0126,0.0043,9.8066,0.0573,0.4546,-0.058,-14.0,-33.0,-5.0,229.05,-80.23,174.95
47668,52.405376,-1.573214,172.66,5.04,3,84.54,27 / 27,4769722,2019-09-08 11:27:16:346,1.5627,1.9683,10.4043,0.0167,0.0002,9.8066,-0.0131,0.4584,-0.1107,-13.81,-34.37,-4.31,231.46,-80.05,175.56
47669,52.405376,-1.573214,172.66,5.04,3,84.54,27 / 27,4769821,2019-09-08 11:27:16:445,-1.2161,1.317,10.1342,0.0032,0.0104,9.8065,-0.0341,0.4168,-0.0563,-12.87,-34.75,-4.25,229.22,-80.06,175.72
47670,52.405376,-1.573214,172.66,5.04,3,84.54,25 / 26,4769922,2019-09-08 11:27:16:546,0.1196,1.6352,9.5455,-0.0147,-0.0064,9.8066,0.1353,0.4112,-0.0075,-12.06,-34.75,-4.06,226.56,-79.98,175.19
47671,52.405376,-1.573214,172.66,5.04,3,84.54,25 / 26,4770021,2019-09-08 11:27:16:645,1.0124,3.2207,9.7952,-0.0093,-0.0109,9.8066,0.14,0.4179,-0.038,-10.5,-33.94,-4.44,221.91,-79.99,174.94
47672,52.405376,-1.573214,172.66,5.04,3,84.54,25 / 26,4770122,2019-09-08 11:27:16:746,-0.4577,2.1329,10.3276,0.0169,0.0033,9.8066,-0.0263,0.3653,-0.0302,-10.25,-34.44,-3.56,222.26,-79.81,175.84
47673,52.405376,-1.573214,172.66,5.04,3,84.54,25 / 26,4770221,2019-09-08 11:27:16:845,0.191,1.9155,9.976,0.0239,0.0062,9.8065,-0.0591,0.3587,-0.0522,-9.81,-34.37,-3.87,222.65,-79.69,176.67
47674,52.405376,-1.573214,172.66,5.04,3,84.54,25 / 26,4770322,2019-09-08 11:27:16:946,0.2876,1.1786,9.8351,0.0174,-0.0024,9.8066,0.0599,0.2835,-0.0118,-8.87,-34.44,-3.31,223.0,-79.57,177.43
47675,52.405376,-1.573214,172.66,5.04,3,84.54,25 / 26,4770421,2019-09-08 11:27:17:045,0.4281,1.7781,9.6353,0.0111,0.0016,9.8066,0.0085,0.2607,-0.0449,-8.31,-33.44,-2.87,220.69,-79.4,178.58
47676,52.405376,-1.573214,172.66,5.04,3,84.54,25 / 26,4770522,2019-09-08 11:27:17:146,0.0913,1.4958,10.2538,-0.0013,0.0079,9.8065,-0.0222,0.2488,-0.0347,-8.37,-33.81,-3.25,220.32,-79.4,178.89
47677,52.405376,-1.573214,172.66,5.04,3,84.54,25 / 26,4770622,2019-09-08 11:27:17:246,-0.2304,1.5881,10.0825,0.0004,0.0087,9.8066,-0.0217,0.2382,-0.0341,-7.69,-33.69,-3.19,219.94,-79.38,178.31
47678,52.405376,-1.573214,172.66,5.04,3,84.54,25 / 26,4770721,2019-09-08 11:27:17:345,-0.3411,1.4376,9.595,-0.0007,-0.0052,9.8066,0.0288,0.1846,-0.0113,-7.25,-33.81,-3.5,216.36,-79.4,178.41
47679,52.405376,-1.573214,172.66,5.04,3,84.54,27 / 27,4770823,2019-09-08 11:27:17:447,0.1623,1.0323,9.9055,0.0017,-0.0037,9.8066,0.0369,0.1986,-0.055,-7.44,-34.56,-3.62,213.24,-79.35,178.76
47680,52.405376,-1.573214,172.66,5.04,3,84.54,27 / 27,4770921,2019-09-08 11:27:17:545,0.068,1.5358,10.0153,-0.0004,0.002,9.8066,0.0091,0.1456,0.0043,-7.12,-34.44,-3.87,213.62,-79.28,178.8
47681,52.405376,-1.573214,172.66,5.04,3,84.54,27 / 27,4771021,2019-09-08 11:27:17:645,0.0885,1.4237,9.8426,0.0011,-0.0061,9.8066,-0.0136,0.1614,-0.0194,-6.44,-34.0,-3.44,212.24,-79.21,178.92
47682,52.405376,-1.573214,172.66,5.04,3,84.54,27 / 27,4771122,2019-09-08 11:27:17:746,1.5872,1.3915,10.4875,0.0287,0.024,9.8065,-0.0218,0.0809,0.0133,-6.69,-34.5,-2.56,216.61,-79.29,179.19
47683,52.405376,-1.573214,172.66,5.04,3,84.54,27 / 27,4771221,2019-09-08 11:27:17:845,0.9134,1.4415,10.0216,0.0222,0.0288,9.8065,-0.0593,0.1007,-0.0137,-6.5,-34.5,-3.56,209.85,-79.04,179.7
47684,52.405376,-1.573214,172.66,5.04,3,84.54,27 / 27,4771321,2019-09-08 11:27:17:945,2.3029,1.3119,10.1356,-0.0042,-0.0201,9.8065,-0.0193,0.0869,-0.0341,-6.62,-34.19,-3.0,216.92,-79.2,-179.98
47685,52.405376,-1.573214,172.66,5.04,3,84.54,27 / 27,4771421,2019-09-08 11:27:18:045,0.6213,0.6404,9.1559,-0.0075,-0.0013,9.8066,-0.1045,0.0265,-0.0136,-6.56,-33.81,-3.31,216.64,-79.07,179.9
47686,52.405376,-1.573214,172.66,5.04,3,84.54,27 / 27,4771522,2019-09-08 11:27:18:146,0.9806,0.6248,9.6575,-0.0159,-0.016,9.8066,0.1463,0.0167,-0.0233,-6.81,-33.81,-3.44,216.33,-78.96,179.69
47687,52.405376,-1.573214,172.66,5.04,3,84.54,27 / 27,4771622,2019-09-08 11:27:18:246,1.2683,0.3707,10.32,-0.0138,-0.006,9.8066,0.1963,-0.0016,0.0047,-6.37,-33.87,-3.5,212.11,-79.03,179.22
47688,52.405376,-1.573214,172.66,5.04,3,84.54,27 / 27,4771722,2019-09-08 11:27:18:346,0.4438,0.7093,9.7731,-0.0054,0.0094,9.8066,-0.1146,0.0331,-0.0213,-6.0,-33.81,-3.44,211.41,-78.92,178.19
47689,52.405376,-1.573214,172.66,5.04,3,84.54,23 / 23,4771822,2019-09-08 11:27:18:446,0.9319,0.6665,9.5308,-0.003,0.0,9.8066,-0.0219,-0.0226,0.0338,-6.12,-34.0,-2.75,211.09,-78.92,177.55
47690,52.405376,-1.573214,172.66,5.04,3,84.54,23 / 23,4771921,2019-09-08 11:27:18:545,0.7092,0.3815,9.96,0.0077,0.0017,9.8066,0.0584,0.0165,-0.0542,-6.19,-34.5,-3.37,211.13,-78.85,177.83
47691,52.405376,-1.573214,172.66,5.04,3,84.54,23 / 23,4772022,2019-09-08 11:27:18:646,0.7287,0.9837,10.1391,0.0065,0.0097,9.8066,0.0233,0.0106,0.0197,-6.75,-34.0,-3.25,214.99,-78.78,177.77
47692,52.405376,-1.573214,172.66,5.04,3,84.54,23 / 23,4772121,2019-09-08 11:27:18:745,0.5217,0.2523,9.9759,0.004,0.0068,9.8066,0.0118,0.0047,0.0068,-6.81,-34.56,-2.94,214.43,-78.71,177.9
47693,52.405376,-1.573214,172.66,5.04,3,84.54,23 / 23,4772221,2019-09-08 11:27:18:845,0.7947,0.5921,9.4469,0.0052,0.0112,9.8066,-0.0237,0.039,0.0037,-6.12,-33.75,-3.19,210.64,-78.54,177.78
47694,52.405376,-1.573214,172.66,5.04,3,84.54,23 / 23,4772321,2019-09-08 11:27:18:945,0.3424,0.2442,10.0345,-0.0013,-0.0084,9.8066,0.0219,-0.0013,-0.0355,-6.31,-34.94,-2.69,210.17,-78.51,177.9
47695,52.405376,-1.573214,172.66,5.04,3,84.54,23 / 23,4772422,2019-09-08 11:27:19:046,-0.0332,0.5023,9.8479,-0.0105,-0.0062,9.8066,-0.0574,-0.0168,-0.0232,-6.31,-34.44,-3.31,210.66,-78.55,177.76
47696,52.405376,-1.573214,172.66,5.04,3,84.54,23 / 23,4772521,2019-09-08 11:27:19:145,-0.36,-0.5148,10.0597,0.013,0.0135,9.8066,0.0571,0.002,0.0232,-6.25,-34.25,-2.56,210.58,-78.42,177.97
47697,52.405376,-1.573214,172.66,5.04,3,84.54,23 / 23,4772621,2019-09-08 11:27:19:245,0.7164,0.6084,9.4817,0.0125,0.025,9.8065,0.0571,0.0018,0.0269,-5.94,-34.06,-3.31,210.51,-78.32,178.13
47698,52.405376,-1.573214,172.66,5.04,3,84.54,23 / 23,4772721,2019-09-08 11:27:19:345,1.1443,-0.4306,9.6186,0.0011,-0.0189,9.8065,-0.0273,0.0516,-0.0422,-6.56,-34.37,-3.06,214.45,-78.27,178.21
47699,52.405376,-1.573214,172.66,5.04,3,84.54,23 / 23,4772821,2019-09-08 11:27:19:445,0.493,0.5574,10.1083,-0.0102,-0.002,9.8065,-0.0842,0.0065,0.0189,-5.62,-34.37,-2.81,210.63,-78.38,178.2
47700,52.405605,-1.57305,172.58,8.2,3,351.45,26 / 27,4772921,2019-09-08 11:27:19:545,0.8459,0.5369,10.1284,-0.0022,-0.0051,9.8066,-0.0109,0.0131,-0.0191,-5.56,-33.75,-3.25,210.66,-78.43,178.12
47701,52.405605,-1.57305,172.58,8.2,3,351.45,26 / 27,4773022,2019-09-08 11:27:19:646,0.886,0.21,9.9112,-0.0076,0.0035,9.8066,-0.0447,0.0391,-0.0752,-6.37,-33.87,-3.12,210.49,-78.52,177.51
47702,52.405605,-1.57305,172.58,8.2,3,351.45,26 / 27,4773121,2019-09-08 11:27:19:745,0.346,0.6249,9.5007,-0.0089,0.0053,9.8066,-0.0732,-0.0128,-0.0366,-6.12,-33.69,-3.12,210.21,-78.51,176.99
47703,52.405605,-1.57305,172.58,8.2,3,351.45,26 / 27,4773221,2019-09-08 11:27:19:845,-0.3397,-0.107,8.8277,-0.0142,-0.0101,9.8066,-0.0261,0.0629,0.0223,-5.87,-34.31,-3.12,210.0,-78.48,176.63
47704,52.405605,-1.57305,172.58,8.2,3,351.45,26 / 27,4773322,2019-09-08 11:27:19:946,-0.3755,-0.0125,8.7632,-0.0152,-0.0233,9.8065,-0.1105,-0.022,0.0899,-5.62,-34.44,-3.25,209.98,-78.57,176.33
47705,52.405605,-1.57305,172.58,8.2,3,351.45,26 / 27,4773422,2019-09-08 11:27:20:046,1.0088,0.7029,10.45,0.0299,0.0261,9.8065,0.0266,-0.0195,-0.0231,-6.19,-34.19,-3.31,210.24,-78.7,176.5
47706,52.405605,-1.57305,172.58,8.2,3,351.45,26 / 27,4773522,2019-09-08 11:27:20:146,-0.5757,-0.2289,10.7674,0.0152,0.0113,9.8066,0.056,-0.0424,-0.0447,-6.0,-33.75,-3.25,210.3,-78.53,177.1
47707,52.405605,-1.57305,172.58,8.2,3,351.45,26 / 27,4773622,2019-09-08 11:27:20:246,1.6502,1.0111,9.6369,0.0139,0.0041,9.8066,0.0881,0.0719,0.0085,-6.06,-34.25,-3.62,207.91,-78.51,177.33
47708,52.405605,-1.57305,172.58,8.2,3,351.45,26 / 27,4773722,2019-09-08 11:27:20:346,1.2974,0.3804,9.9378,0.017,0.0114,9.8066,0.0715,0.0083,0.049,-6.44,-34.69,-2.5,212.59,-78.36,177.7
47709,52.405605,-1.57305,172.58,8.2,3,351.45,26 / 27,4773821,2019-09-08 11:27:20:445,1.3719,-1.1804,9.9552,0.0132,-0.011,9.8065,0.0133,0.0559,-0.0831,-6.44,-34.75,-3.25,209.79,-78.27,177.81
47710,52.405605,-1.57305,172.58,8.2,3,351.45,25 / 25,4773922,2019-09-08 11:27:20:546,0.0495,-1.1547,9.917,0.0167,0.0335,9.8065,-0.2259,-0.1083,0.073,-6.44,-34.5,-3.75,207.77,-78.14,177.92
47711,52.405605,-1.57305,172.58,8.2,3,351.45,25 / 25,4774021,2019-09-08 11:27:20:645,0.5721,-0.602,10.3663,-0.009,-0.0071,9.8066,0.1252,-0.0566,-0.0512,-5.69,-33.5,-3.31,210.8,-78.19,178.06
47712,52.405605,-1.57305,172.58,8.2,3,351.45,25 / 25,4774121,2019-09-08 11:27:20:745,0.8043,0.2152,10.1582,0.0077,0.0218,9.8066,0.0068,-0.0724,0.0379,-6.37,-34.25,-3.31,210.13,-78.16,177.84
47713,52.405605,-1.57305,172.58,8.2,3,351.45,25 / 25,4774222,2019-09-08 11:27:20:846,0.3065,0.4568,9.9516,-0.0042,-0.0111,9.8066,0.0241,-0.0487,0.0273,-6.56,-33.94,-3.75,211.6,-78.07,178.15
47714,52.405605,-1.57305,172.58,8.2,3,351.45,25 / 25,4774321,2019-09-08 11:27:20:945,0.9119,-0.3984,10.1832,0.0112,0.0032,9.8066,0.0399,0.0661,-0.009,-6.87,-34.56,-3.5,213.92,-78.14,178.58
47715,52.405605,-1.57305,172.58,8.2,3,351.45,25 / 25,4774421,2019-09-08 11:27:21:045,1.4824,0.1198,9.6719,-0.0002,-0.0047,9.8066,-0.0446,0.0097,0.04,-6.5,-34.5,-3.56,208.3,-78.24,178.71
47716,52.405605,-1.57305,172.58,8.2,3,351.45,25 / 25,4774522,2019-09-08 11:27:21:146,0.0866,0.7891,9.5774,0.0091,-0.0113,9.8065,-0.0203,0.053,-0.0433,-6.12,-33.87,-3.37,210.94,-78.3,179.07
47717,52.405605,-1.57305,172.58,8.2,3,351.45,25 / 25,4774621,2019-09-08 11:27:21:245,1.317,-0.5684,9.0921,-0.0112,-0.0386,9.8065,0.1719,0.0605,-0.0237,-6.37,-33.81,-3.75,208.28,-78.21,178.77
47718,52.405605,-1.57305,172.58,8.2,3,351.45,25 / 25,4774722,2019-09-08 11:27:21:346,1.2764,0.303,10.1048,-0.0103,-0.02,9.8066,0.1248,-0.0331,-0.0039,-6.69,-34.31,-4.19,212.41,-78.35,178.95
47719,52.405605,-1.57305,172.58,8.2,3,351.45,25 / 25,4774821,2019-09-08 11:27:21:445,0.0421,1.4614,10.1154,0.0068,0.0187,9.8066,-0.0894,-0.0577,0.051,-6.5,-34.94,-3.56,208.0,-78.36,178.71
47720,52.405605,-1.57305,172.58,8.2,3,351.45,27 / 28,4774921,2019-09-08 11:27:21:545,0.1099,-1.0185,10.0466,-0.0224,-0.0127,9.8066,0.1439,-0.014,0.0363,-5.75,-34.31,-3.19,210.84,-78.41,178.54
47721,52.405605,-1.57305,172.58,8.2,3,351.45,27 / 28,4775022,2019-09-08 11:27:21:646,1.2707,-0.6048,10.0918,0.0006,0.006,9.8066,-0.0774,-0.0009,-0.0279,-6.37,-34.5,-2.87,210.61,-78.33,178.31
47722,52.405605,-1.57305,172.58,8.2,3,351.45,27 / 28,4775121,2019-09-08 11:27:21:745,-0.8969,0.0174,9.5344,0.0013,0.0066,9.8066,-0.0774,0.0791,-0.0847,-6.69,-34.0,-2.75,214.33,-78.32,177.83
47723,52.405605,-1.57305,172.58,8.2,3,351.45,27 / 28,4775222,2019-09-08 11:27:21:846,1.0532,-0.7549,9.4127,-0.0036,-0.0089,9.8066,0.158,0.0961,-0.0694,-7.12,-33.75,-2.5,216.65,-78.21,177.03
47724,52.405605,-1.57305,172.58,8.2,3,351.45,27 / 28,4775321,2019-09-08 11:27:21:945,1.9896,-1.4186,10.5769,-0.0163,-0.0028,9.8065,0.1308,-0.1743,0.1045,-7.56,-32.37,-2.87,218.18,-78.16,176.75
47725,52.405605,-1.57305,172.58,8.2,3,351.45,27 / 28,4775422,2019-09-08 11:27:22:046,0.339,2.4377,9.6755,0.0306,0.0349,9.8065,-0.2693,-0.0306,0.085,-6.56,-33.62,-2.37,216.67,-78.28,176.84
47726,52.405605,-1.57305,172.58,8.2,3,351.45,27 / 28,4775522,2019-09-08 11:27:22:146,-0.5943,-0.0801,10.1786,0.0461,0.0188,9.8065,-0.2631,0.0757,-0.026,-6.31,-32.5,-3.25,211.44,-78.16,178.34
47727,52.405605,-1.57305,172.58,8.2,3,351.45,27 / 28,4775621,2019-09-08 11:27:22:245,0.549,-0.1567,9.922,-0.0348,-0.0626,9.8063,0.2232,-0.0472,0.1262,-6.75,-33.19,-4.25,213.58,-78.75,179.19
47728,52.405605,-1.57305,172.58,8.2,3,351.45,27 / 28,4775721,2019-09-08 11:27:22:345,2.3282,0.7538,10.6802,0.0056,-0.0255,9.8066,0.129,-0.0546,0.1164,-6.5,-33.37,-4.31,209.81,-78.52,-179.94
47729,52.405605,-1.57305,172.58,8.2,3,351.45,27 / 27,4775822,2019-09-08 11:27:22:446,0.6534,0.7281,10.1535,0.0031,-0.001,9.8066,0.1466,0.0222,0.0845,-6.5,-33.5,-3.81,209.63,-78.18,-179.46
47730,52.405605,-1.57305,172.58,8.2,3,351.45,27 / 27,4775921,2019-09-08 11:27:22:545,0.8696,-0.047,10.5082,0.0176,0.019,9.8066,-0.1838,-0.0823,0.046,-6.25,-34.56,-4.37,208.85,-77.98,-178.65
47731,52.405605,-1.57305,172.58,8.2,3,351.45,27 / 27,4776021,2019-09-08 11:27:22:645,0.2369,-0.1346,8.7566,0.0016,0.016,9.8066,-0.167,-0.0315,-0.0503,-6.81,-33.31,-3.75,214.06,-78.17,-178.53
47732,52.405605,-1.57305,172.58,8.2,3,351.45,27 / 27,4776122,2019-09-08 11:27:22:746,-0.353,-1.0453,9.6219,-0.0338,-0.0438,9.8065,0.2183,0.0126,-0.0283,-7.44,-33.37,-3.44,216.62,-78.29,-178.86
47733,52.405605,-1.57305,172.58,8.2,3,351.45,27 / 27,4776222,2019-09-08 11:27:22:846,-1.1217,-0.5952,10.3038,-0.033,-0.0279,9.8065,0.1838,-0.0368,0.077,-7.56,-33.31,-4.12,217.87,-78.66,-179.45
47734,52.405605,-1.57305,172.58,8.2,3,351.45,27 / 27,4776322,2019-09-08 11:27:22:946,-0.5014,-0.2211,9.7763,0.0162,0.0286,9.8066,-0.0803,-0.036,0.0964,-7.0,-33.75,-4.06,213.61,-78.55,-179.39
47735,52.405605,-1.57305,172.58,8.2,3,351.45,27 / 27,4776422,2019-09-08 11:27:23:046,-0.4272,0.5191,9.1027,0.0343,0.0117,9.8066,-0.0752,0.076,-0.0532,-6.75,-34.31,-4.19,213.71,-78.23,-178.41
47736,52.405605,-1.57305,172.58,8.2,3,351.45,27 / 27,4776521,2019-09-08 11:27:23:145,0.9713,-0.4807,9.2899,-0.0028,-0.0309,9.8066,0.0895,0.0213,-0.0097,-6.94,-34.25,-4.0,214.33,-78.38,-177.65
47737,52.405605,-1.57305,172.58,8.2,3,351.45,27 / 27,4776622,2019-09-08 11:27:23:246,-0.0603,0.3414,9.4842,-0.0189,-0.028,9.8065,0.0174,0.022,-0.0029,-7.69,-34.19,-4.5,218.36,-78.49,-177.33
47738,52.405605,-1.57305,172.58,8.2,3,351.45,27 / 27,4776721,2019-09-08 11:27:23:345,0.2377,-1.0987,9.5889,0.0064,-0.0138,9.8066,-0.0458,0.0127,0.0204,-7.25,-33.87,-3.94,214.82,-78.62,-177.39
47739,52.405605,-1.57305,172.58,8.2,3,351.45,27 / 27,4776822,2019-09-08 11:27:23:446,-0.4031,-1.6736,9.6661,-0.0066,-0.0302,9.8065,0.1092,-0.0109,0.0018,-6.75,-33.44,-4.0,216.02,-78.77,-176.6
47740,52.405605,-1.57305,172.58,8.2,3,351.45,25 / 26,4776921,2019-09-08 11:27:23:545,0.0955,-0.9491,10.2942,0.0198,0.0407,9.8065,-0.059,-0.0177,-0.0276,-7.0,-34.06,-3.81,215.48,-78.75,-176.59
47741,52.405605,-1.57305,172.58,8.2,3,351.45,25 / 26,4777021,2019-09-08 11:27:23:645,0.3456,-0.7533,9.9724,0.0146,0.0333,9.8065,0.0464,-0.0709,0.0633,-7.19,-33.0,-3.87,215.35,-78.46,-176.96
47742,52.405605,-1.57305,172.58,8.2,3,351.45,25 / 26,4777122,2019-09-08 11:27:23:746,-0.2004,-1.141,9.5021,-0.0061,-0.0122,9.8066,-0.0051,-0.0257,0.0124,-7.62,-33.62,-3.81,218.75,-78.5,-176.68
47743,52.405605,-1.57305,172.58,8.2,3,351.45,25 / 26,4777221,2019-09-08 11:27:23:845,-0.477,-1.1575,9.4554,-0.011,-0.0216,9.8065,-0.0705,0.0259,-0.0085,-7.37,-34.19,-4.12,215.06,-78.51,-176.68
47744,52.405605,-1.57305,172.58,8.2,3,351.45,25 / 26,4777321,2019-09-08 11:27:23:945,0.3026,-1.4463,10.0318,-0.0043,-0.0007,9.8066,0.1144,-0.0268,-0.0008,-7.06,-34.06,-4.44,215.28,-78.6,-176.53
47745,52.405605,-1.57305,172.58,8.2,3,351.45,25 / 26,4777421,2019-09-08 11:27:24:045,0.6742,-2.196,9.843,-0.0303,-0.0409,9.8065,0.2133,-0.0533,0.0698,-7.06,-33.87,-4.31,215.41,-78.82,-176.89
47746,52.405605,-1.57305,172.58,8.2,3,351.45,25 / 26,4777522,2019-09-08 11:27:24:146,0.0595,0.6642,10.0694,0.0306,0.0606,9.8064,-0.254,-0.0224,0.0272,-7.06,-34.31,-4.94,213.11,-78.83,-176.98
47747,52.405605,-1.57305,172.58,8.2,3,351.45,25 / 26,4777622,2019-09-08 11:27:24:246,-0.7093,-2.418,8.626,0.0278,0.0513,9.8064,-0.2063,-0.0155,-0.0159,-7.19,-34.12,-5.31,212.6,-78.52,-177.16
47748,52.405605,-1.57305,172.58,8.2,3,351.45,25 / 26,4777721,2019-09-08 11:27:24:345,-1.4514,-1.6396,9.2754,-0.03,-0.0425,9.8065,0.0993,-0.0103,0.0484,-6.25,-33.69,-3.56,211.21,-78.99,-177.6
47749,52.405605,-1.57305,172.58,8.2,3,351.45,26 / 26,4777822,2019-09-08 11:27:24:446,-0.4679,-0.9343,9.3414,-0.0259,-0.0341,9.8065,0.0792,-0.025,0.0345,-8.25,-32.37,-3.37,223.13,-79.04,-177.45
47750,52.405605,-1.57305,172.58,8.2,3,351.45,26 / 26,4777921,2019-09-08 11:27:24:545,-0.0087,-1.8448,10.0589,0.0124,0.0013,9.8066,0.0243,-0.0091,0.0109,-8.81,-33.56,-4.12,222.54,-79.03,-177.42
47751,52.405605,-1.57305,172.58,8.2,3,351.45,26 / 26,4778021,2019-09-08 11:27:24:645,0.1256,-1.0408,9.8167,-0.0003,-0.0038,9.8066,0.0743,0.0151,0.0142,-7.87,-33.56,-5.31,216.78,-78.97,-177.17
47752,52.405605,-1.57305,172.58,8.2,3,351.45,26 / 26,4778121,2019-09-08 11:27:24:745,-0.396,-0.5941,9.8251,0.0085,0.0199,9.8066,-0.0455,-0.0443,0.0551,-7.75,-34.12,-5.19,216.64,-78.88,-177.2
47753,52.405605,-1.57305,172.58,8.2,3,351.45,26 / 26,4778222,2019-09-08 11:27:24:846,-0.2439,-1.225,9.7874,0.0096,0.0146,9.8065,-0.0515,0.0031,-0.0385,-7.19,-34.06,-4.94,212.78,-78.67,-177.19
47754,52.405605,-1.57305,172.58,8.2,3,351.45,26 / 26,4778321,2019-09-08 11:27:24:945,0.4176,-1.1684,9.3688,-0.0105,-0.0048,9.8066,0.023,0.0488,-0.05,-7.81,-34.06,-5.12,216.06,-78.68,-177.68
47755,52.405605,-1.57305,172.58,8.2,3,351.45,26 / 26,4778421,2019-09-08 11:27:25:045,-0.3795,-0.6546,9.9988,0.0008,0.0052,9.8066,-0.0245,0.0515,-0.0425,-7.81,-33.87,-4.44,218.1,-78.62,-178.08
47756,52.405605,-1.57305,172.58,8.2,3,351.45,26 / 26,4778522,2019-09-08 11:27:25:146,0.1291,-1.1544,10.2616,0.0003,0.01,9.8066,-0.0082,-0.0108,-0.0316,-6.75,-34.06,-5.12,212.0,-78.73,-178.65
47757,52.405605,-1.57305,172.58,8.2,3,351.45,26 / 26,4778621,2019-09-08 11:27:25:245,-0.1799,-1.1109,9.9389,-0.0112,-0.0011,9.8066,0.014,-0.0319,0.0258,-6.94,-33.81,-4.69,211.64,-78.79,-179.41
47758,52.405605,-1.57305,172.58,8.2,3,351.45,26 / 26,4778721,2019-09-08 11:27:25:345,-0.2445,-0.4325,10.0061,0.0232,0.033,9.8065,-0.0885,-0.0054,-0.0036,-6.62,-34.0,-4.5,214.25,-78.9,-179.14
47759,52.405605,-1.57305,172.58,8.2,3,351.45,26 / 26,4778821,2019-09-08 11:27:25:445,-0.7042,-0.75,9.9723,0.0179,0.0193,9.8066,-0.064,0.0477,-0.0257,-7.56,-34.37,-4.94,215.27,-78.67,-178.96
47760,52.405605,-1.57305,172.58,8.2,3,351.45,27 / 27,4778921,2019-09-08 11:27:25:545,-0.2449,-1.5812,9.5262,0.0046,-0.0151,9.8065,0.0874,-0.0193,0.001,-7.5,-33.69,-4.5,214.37,-78.76,-178.57
47761,52.405605,-1.57305,172.58,8.2,3,351.45,27 / 27,4779021,2019-09-08 11:27:25:645,0.3378,-0.7106,10.1557,0.0218,0.0049,9.8065,-0.0339,0.0035,-0.0458,-7.56,-34.12,-4.62,215.89,-78.63,-177.86
47762,52.405605,-1.57305,172.58,8.2,3,351.45,27 / 27,4779121,2019-09-08 11:27:25:745,-0.8252,-1.6093,9.516,-0.0164,-0.0235,9.8065,0.0453,0.0176,-0.0106,-7.87,-34.0,-4.31,218.44,-78.61,-177.49
47763,52.405605,-1.57305,172.58,8.2,3,351.45,27 / 27,4779221,2019-09-08 11:27:25:845,-0.7102,-1.0014,10.4921,0.0035,-0.0135,9.8066,0.1041,-0.0006,0.0141,-7.75,-34.19,-4.62,216.49,-78.73,-177.09
47764,52.405605,-1.57305,172.58,8.2,3,351.45,27 / 27,4779321,2019-09-08 11:27:25:945,-0.3515,-0.0023,10.5813,0.0307,0.0314,9.8064,-0.2598,-0.0186,0.0375,-8.25,-34.25,-4.06,219.4,-78.86,-176.56
47765,52.405605,-1.57305,172.58,8.2,3,351.45,27 / 27,4779421,2019-09-08 11:27:26:045,-1.0876,-0.4632,8.5216,0.0285,0.0329,9.8065,-0.1922,0.0508,-0.0043,-7.56,-34.12,-4.69,216.97,-78.68,-176.2
47766,52.405605,-1.57305,172.58,8.2,3,351.45,27 / 27,4779521,2019-09-08 11:27:26:145,-1.8568,-3.5959,8.2199,-0.0398,-0.0786,9.8062,0.1478,0.0145,-0.0126,-7.5,-33.94,-4.69,214.5,-79.14,-175.34
47767,52.405605,-1.57305,172.58,8.2,3,351.45,27 / 27,4779621,2019-09-08 11:27:26:245,-0.3301,-1.2853,9.3571,-0.0328,-0.061,9.8063,0.1346,0.0286,-0.0175,-7.69,-34.31,-4.31,220.72,-79.14,-175.12
47768,52.405605,-1.57305,172.58,8.2,3,351.45,27 / 27,4779722,2019-09-08 11:27:26:346,-0.2395,-1.6291,10.1698,0.0257,0.0195,9.8066,-0.1373,0.0485,-0.0296,-7.44,-34.06,-3.94,217.04,-79.16,-174.97
47769,52.405605,-1.57305,172.58,8.2,3,351.45,27 / 27,4779822,2019-09-08 11:27:26:446,-0.9236,-1.9057,9.7719,0.0058,0.0021,9.8066,-0.0751,0.0488,0.0433,-7.87,-33.56,-5.25,218.6,-79.13,-174.61
47770,52.405605,-1.57305,172.58,8.2,3,351.45,27 / 27,4779921,2019-09-08 11:27:26:545,-0.5232,-1.4522,9.8639,0.0131,0.0085,9.8065,-0.0041,-0.0027,-0.0013,-7.94,-33.94,-4.25,221.28,-79.17,-174.31
47771,52.405605,-1.57305,172.58,8.2,3,351.45,27 / 27,4780021,2019-09-08 11:27:26:645,-0.2604,-1.6216,10.016,0.0061,0.0231,9.8066,-0.0192,-0.0123,0.0194,-8.25,-34.06,-4.5,221.03,-79.06,-174.4
47772,52.405605,-1.57305,172.58,8.2,3,351.45,27 / 27,4780121,2019-09-08 11:27:26:745,-1.1246,-1.7086,9.7516,-0.0066,-0.0136,9.8066,0.0474,0.0108,0.0132,-7.75,-34.12,-5.06,218.69,-79.1,-174.41
47773,52.405605,-1.57305,172.58,8.2,3,351.45,27 / 27,4780221,2019-09-08 11:27:26:845,-0.5837,-2.0462,9.586,-0.0053,-0.0172,9.8066,0.0564,0.0026,0.0397,-8.25,-33.81,-4.19,221.11,-79.02,-174.17
47774,52.405605,-1.57305,172.58,8.2,3,351.45,27 / 27,4780321,2019-09-08 11:27:26:945,0.1358,-1.0286,10.0299,0.0314,0.0248,9.8065,-0.0116,0.0178,0.0354,-8.31,-34.25,-4.37,221.0,-78.9,-174.01
47775,52.405605,-1.57305,172.58,8.2,3,351.45,27 / 27,4780422,2019-09-08 11:27:27:046,-0.4209,-1.341,9.6905,0.0272,0.0209,9.8066,-0.0411,-0.0286,0.0074,-8.0,-34.25,-4.81,218.61,-78.58,-173.27
47776,52.405605,-1.57305,172.58,8.2,3,351.45,27 / 27,4780521,2019-09-08 11:27:27:145,-1.3579,-1.3891,9.0969,-0.0122,-0.0311,9.8065,0.0865,-0.0661,0.0514,-8.06,-33.62,-3.94,221.34,-78.66,-172.79
47777,52.405605,-1.57305,172.58,8.2,3,351.45,27 / 27,4780621,2019-09-08 11:27:27:245,-1.3715,-1.883,9.4255,-0.0302,-0.0472,9.8064,0.0358,-0.004,-0.0435,-8.25,-33.81,-4.75,220.09,-78.96,-171.82
47778,52.405605,-1.57305,172.58,8.2,3,351.45,27 / 27,4780722,2019-09-08 11:27:27:346,-0.7933,-0.9506,9.9758,-0.0013,0.0148,9.8066,0.0005,-0.0253,0.0329,-8.56,-33.56,-5.25,223.06,-78.86,-172.35
47779,52.405605,-1.57305,172.58,8.2,3,351.45,27 / 27,4780823,2019-09-08 11:27:27:447,-1.0104,-1.4694,9.7752,0.0046,0.0023,9.8066,0.0021,-0.0108,0.0089,-8.56,-34.0,-4.75,223.09,-78.82,-172.21
47780,52.405605,-1.57305,172.58,8.2,3,351.45,26 / 27,4780922,2019-09-08 11:27:27:546,-1.0477,-0.9225,9.1479,-0.002,-0.0132,9.8066,0.0574,-0.0218,0.011,-8.19,-33.94,-4.56,219.75,-78.76,-171.88
47781,52.405605,-1.57305,172.58,8.2,3,351.45,26 / 27,4781021,2019-09-08 11:27:27:645,-0.9279,-1.8197,9.4645,-0.0185,-0.0204,9.8066,-0.0277,-0.0093,-0.0421,-8.56,-33.62,-4.5,225.62,-78.73,-171.83
47782,52.405605,-1.57305,172.58,8.2,3,351.45,26 / 27,4781121,2019-09-08 11:27:27:745,-1.3257,-1.3426,9.8366,-0.0102,-0.0036,9.8066,-0.0299,-0.0512,0.0329,-7.62,-33.69,-5.12,220.08,-79.03,-172.02
47783,52.405605,-1.57305,172.58,8.2,3,351.45,26 / 27,4781222,2019-09-08 11:27:27:846,-0.5785,-1.5807,10.1305,0.0097,0.0074,9.8066,-0.0184,-0.0252,0.0564,-8.25,-34.06,-4.19,222.8,-79.17,-171.87
47784,52.405605,-1.57305,172.58,8.2,3,351.45,26 / 27,4781322,2019-09-08 11:27:27:946,-0.0375,-1.4941,9.6706,-0.0022,-0.004,9.8066,0.0313,-0.018,0.0047,-8.19,-34.62,-5.06,220.17,-79.25,-171.61
47785,52.405605,-1.57305,172.58,8.2,3,351.45,26 / 27,4781422,2019-09-08 11:27:28:046,-1.1597,-1.1948,9.5978,0.0002,-0.009,9.8066,0.0454,0.0324,-0.0483,-8.06,-34.25,-4.69,220.71,-79.21,-171.49
47786,52.405605,-1.57305,172.58,8.2,3,351.45,26 / 27,4781521,2019-09-08 11:27:28:145,-1.2742,-2.0002,9.8376,0.0028,0.0058,9.8066,-0.0267,-0.0064,0.0023,-8.37,-34.44,-4.62,220.67,-79.23,-171.58
47787,52.405605,-1.57305,172.58,8.2,3,351.45,26 / 27,4781621,2019-09-08 11:27:28:245,-1.9169,-1.8359,9.1998,0.0051,0.0235,9.8066,-0.143,0.0316,-0.0329,-8.25,-33.75,-4.69,220.37,-79.18,-171.92
47788,52.405605,-1.57305,172.58,8.2,3,351.45,26 / 27,4781722,2019-09-08 11:27:28:346,-2.1754,-2.5633,9.6016,-0.0218,-0.0285,9.8065,0.1314,0.0552,-0.0138,-8.31,-33.81,-4.56,220.46,-79.22,-171.89
47789,52.405605,-1.57305,172.58,8.2,3,351.45,26 / 27,4781821,2019-09-08 11:27:28:445,-1.763,-1.0622,9.4837,-0.0161,-0.0177,9.8066,0.1251,0.0021,0.0396,-8.06,-33.69,-4.81,220.79,-79.49,-172.07
47790,52.40635,-1.573353,173.46,6.3,3,348.68,27 / 27,4781921,2019-09-08 11:27:28:545,-1.7942,-1.995,8.8151,-0.007,0.0054,9.8066,-0.1449,0.0645,-0.0144,-7.5,-33.69,-4.87,217.15,-79.55,-171.95
47791,52.40635,-1.573353,173.46,6.3,3,348.68,27 / 27,4782022,2019-09-08 11:27:28:646,-2.9351,-1.7378,9.5874,-0.0159,-0.0248,9.8066,-0.0647,0.105,-0.0609,-7.5,-33.75,-4.94,217.19,-79.72,-172.31
47792,52.40635,-1.573353,173.46,6.3,3,348.68,27 / 27,4782121,2019-09-08 11:27:28:745,-2.6382,-1.9152,9.6603,-0.0077,0.0096,9.8066,0.0513,0.2798,-0.0961,-6.94,-34.25,-4.56,216.77,-79.77,-173.13
47793,52.40635,-1.573353,173.46,6.3,3,348.68,27 / 27,4782221,2019-09-08 11:27:28:845,-1.9007,0.0841,11.2708,0.0059,-0.0224,9.8066,0.2391,0.2272,-0.0868,-7.06,-33.94,-3.87,219.37,-79.87,-173.07
47794,52.40635,-1.573353,173.46,6.3,3,348.68,27 / 27,4782321,2019-09-08 11:27:28:945,-2.5069,-0.5017,10.4555,0.0346,0.0418,9.8064,-0.2504,0.2739,-0.0468,-7.19,-34.0,-3.69,219.5,-79.93,-173.03
47795,52.40635,-1.573353,173.46,6.3,3,348.68,27 / 27,4782421,2019-09-08 11:27:29:045,-2.4117,-1.1784,10.1475,0.0393,0.0575,9.8064,-0.2119,0.261,-0.0184,-6.37,-34.0,-4.12,214.71,-79.54,-172.7
47796,52.40635,-1.573353,173.46,6.3,3,348.68,27 / 27,4782521,2019-09-08 11:27:29:145,-2.2784,-1.5652,9.5128,-0.0067,-0.0267,9.8065,0.1325,0.2668,0.0111,-5.75,-33.69,-3.75,214.83,-79.53,-172.47
47797,52.40635,-1.573353,173.46,6.3,3,348.68,27 / 27,4782621,2019-09-08 11:27:29:245,-2.4794,0.4104,10.0372,0.0025,-0.0332,9.8066,0.1636,0.2931,-0.0569,-5.62,-34.0,-3.56,215.56,-79.63,-171.44
47798,52.40635,-1.573353,173.46,6.3,3,348.68,27 / 27,4782721,2019-09-08 11:27:29:345,-1.2886,-0.37,10.5512,0.0246,0.0363,9.8065,-0.0661,0.4015,-0.0784,-4.87,-34.31,-3.0,212.65,-79.2,-170.53
47799,52.40635,-1.573353,173.46,6.3,3,348.68,27 / 27,4782822,2019-09-08 11:27:29:446,-1.7758,0.0849,9.7547,0.0266,0.0471,9.8065,-0.0603,0.3645,-0.0393,-4.25,-34.0,-3.06,207.23,-79.09,-170.08
47800,52.40635,-1.573353,173.46,6.3,3,348.68,27 / 28,4782921,2019-09-08 11:27:29:545,-3.3919,-0.5878,9.1528,-0.0142,-0.0324,9.8066,0.1178,0.4156,-0.0832,-4.25,-33.31,-2.12,209.67,-79.09,-170.21
47801,52.40635,-1.573353,173.46,6.3,3,348.68,27 / 28,4783022,2019-09-08 11:27:29:646,-3.0803,-0.553,9.5561,-0.0067,-0.0245,9.8065,0.0873,0.4092,-0.0515,-3.56,-34.5,-1.56,209.48,-79.26,-169.96
47802,52.40635,-1.573353,173.46,6.3,3,348.68,27 / 28,4783121,2019-09-08 11:27:29:745,-2.012,-1.2041,9.9023,0.0074,0.029,9.8066,-0.0434,0.473,-0.1401,-3.19,-33.81,-1.69,203.14,-79.21,-169.46
47803,52.40635,-1.573353,173.46,6.3,3,348.68,27 / 28,4783221,2019-09-08 11:27:29:845,-2.1198,-1.3015,9.8799,0.0,0.0218,9.8065,-0.0384,0.4073,-0.0773,-2.69,-33.75,-1.56,202.73,-79.05,-170.01
47804,52.40635,-1.573353,173.46,6.3,3,348.68,27 / 28,4783321,2019-09-08 11:27:29:945,-3.2652,-0.7898,9.7994,-0.0052,0.0002,9.8066,0.0112,0.4456,-0.06,-1.31,-33.69,-0.37,188.99,-79.16,-170.11
47805,52.40635,-1.573353,173.46,6.3,3,348.68,27 / 28,4783421,2019-09-08 11:27:30:045,-1.8966,-1.0791,10.4512,0.0052,0.0091,9.8066,0.0784,0.5009,-0.1513,-0.5,-33.75,0.0,180.0,-79.1,-169.71
47806,52.40635,-1.573353,173.46,6.3,3,348.68,27 / 28,4783521,2019-09-08 11:27:30:145,-3.9383,-1.2458,9.8868,-0.0051,0.0043,9.8066,-0.0736,0.5338,-0.1527,-0.19,-34.44,0.19,180.0,-79.03,-170.73
47807,52.40635,-1.573353,173.46,6.3,3,348.68,27 / 28,4783621,2019-09-08 11:27:30:245,-0.9219,-2.4612,9.4199,-0.0238,0.0111,9.8065,-0.1252,0.4006,-0.0937,0.75,-33.44,1.75,164.07,-78.99,-171.48
47808,52.40635,-1.573353,173.46,6.3,3,348.68,27 / 28,4783721,2019-09-08 11:27:30:345,-2.6426,-2.94,9.1486,-0.0138,-0.0164,9.8065,0.1222,0.4882,-0.077,1.69,-33.31,1.81,153.77,-79.08,-172.17
47809,52.40635,-1.573353,173.46,6.3,3,348.68,27 / 28,4783821,2019-09-08 11:27:30:445,-2.5351,-2.2662,9.7188,0.024,-0.0019,9.8065,0.1136,0.5589,-0.0663,1.5,-33.5,2.56,146.28,-79.12,-172.27
47810,52.40635,-1.573353,173.46,6.3,3,348.68,27 / 27,4783922,2019-09-08 11:27:30:546,-2.561,-1.39,9.8726,-0.0002,0.0098,9.8065,0.0284,0.5837,-0.094,1.75,-33.19,3.63,136.56,-78.96,-171.02
47811,52.40635,-1.573353,173.46,6.3,3,348.68,27 / 27,4784021,2019-09-08 11:27:30:645,-0.4863,-2.3893,9.7359,0.0096,0.0124,9.8065,0.0058,0.5772,-0.0568,3.13,-32.37,4.69,115.19,-78.95,-170.43
47812,52.40635,-1.573353,173.46,6.3,3,348.68,27 / 27,4784121,2019-09-08 11:27:30:745,-0.155,-2.1102,9.825,-0.0102,-0.0016,9.8066,0.0287,0.5503,-0.0878,3.31,-32.87,5.06,116.76,-79.08,-169.93
47813,52.40635,-1.573353,173.46,6.3,3,348.68,27 / 27,4784221,2019-09-08 11:27:30:845,0.2117,-2.5841,9.8569,-0.0119,0.0005,9.8066,0.008,0.5421,-0.0621,3.31,-33.12,6.13,103.74,-79.03,-170.33
47814,52.40635,-1.573353,173.46,6.3,3,348.68,27 / 27,4784322,2019-09-08 11:27:30:946,0.4175,-3.1593,9.8276,0.0145,0.0142,9.8066,0.0427,0.5384,-0.0541,4.0,-32.56,7.19,92.16,-79.05,-169.87
47815,52.40635,-1.573353,173.46,6.3,3,348.68,27 / 27,4784421,2019-09-08 11:27:31:045,0.3297,-2.9861,9.7714,0.0139,0.013,9.8066,0.0304,0.56,-0.0666,4.5,-32.12,8.06,83.37,-79.19,-168.77
47816,52.40635,-1.573353,173.46,6.3,3,348.68,27 / 27,4784521,2019-09-08 11:27:31:145,0.8795,-2.8405,9.8799,-0.0173,0.0132,9.8066,0.0032,0.5846,-0.049,3.94,-32.44,9.31,73.31,-79.11,-167.65
47817,52.40635,-1.573353,173.46,6.3,3,348.68,27 / 27,4784621,2019-09-08 11:27:31:245,0.481,-2.9381,9.7794,-0.0073,0.0162,9.8066,0.0582,0.5555,-0.0169,3.5,-32.81,9.69,68.66,-79.16,-166.54
47818,52.40635,-1.573353,173.46,6.3,3,348.68,27 / 27,4784722,2019-09-08 11:27:31:346,-0.157,-2.6867,10.2727,-0.0078,0.0165,9.8065,0.0435,0.4846,-0.0292,4.0,-32.19,10.81,63.07,-79.15,-165.06
47819,52.40635,-1.573353,173.46,6.3,3,348.68,26 / 26,4784822,2019-09-08 11:27:31:446,1.3986,-0.7369,9.8116,-0.004,0.0085,9.8066,0.0404,0.4667,-0.0322,4.38,-31.87,12.44,59.72,-79.17,-163.74
47820,52.40635,-1.573353,173.46,6.3,3,348.68,26 / 26,4784921,2019-09-08 11:27:31:545,1.4463,-1.6502,9.7359,0.0028,0.0043,9.8066,0.0373,0.3926,-0.0046,4.0,-32.37,12.63,56.2,-79.14,-163.29
47821,52.40635,-1.573353,173.46,6.3,3,348.68,26 / 26,4785021,2019-09-08 11:27:31:645,1.6601,-1.8224,10.536,0.0037,0.0045,9.8066,0.0982,0.4044,-0.0547,4.56,-32.25,14.06,57.24,-79.13,-163.12
47822,52.40635,-1.573353,173.46,6.3,3,348.68,26 / 26,4785122,2019-09-08 11:27:31:746,1.6515,-2.0461,9.0109,-0.0011,-0.005,9.8066,-0.035,0.3359,-0.0316,4.13,-32.12,14.69,49.68,-79.06,-163.32
47823,52.40635,-1.573353,173.46,6.3,3,348.68,26 / 26,4785221,2019-09-08 11:27:31:845,0.934,-1.2405,9.4272,0.007,0.0055,9.8066,-0.0261,0.3351,-0.0788,4.44,-32.25,15.06,49.58,-79.08,-163.35
47824,52.40635,-1.573353,173.46,6.3,3,348.68,26 / 26,4785322,2019-09-08 11:27:31:946,1.0372,-0.7951,9.9362,0.0021,-0.0121,9.8065,0.0069,0.2833,-0.066,4.56,-32.5,15.38,53.31,-79.1,-163.72
47825,52.40635,-1.573353,173.46,6.3,3,348.68,26 / 26,4785422,2019-09-08 11:27:32:046,0.8525,0.1451,9.9843,0.0051,-0.0027,9.8065,-0.0971,0.2263,-0.0751,4.75,-31.56,15.88,50.02,-79.2,-163.93
47826,52.40635,-1.573353,173.46,6.3,3,348.68,26 / 26,4785522,2019-09-08 11:27:32:146,1.2057,-0.4403,9.7959,0.0095,0.0114,9.8066,-0.0172,0.1596,-0.0421,4.88,-31.31,16.38,49.72,-79.32,-163.44
47827,52.40635,-1.573353,173.46,6.3,3,348.68,26 / 26,4785621,2019-09-08 11:27:32:245,-0.5576,-0.7022,9.3116,0.0092,0.0047,9.8066,0.0255,0.1708,-0.0372,4.69,-31.44,16.81,47.37,-79.44,-163.27
47828,52.40635,-1.573353,173.46,6.3,3,348.68,26 / 26,4785721,2019-09-08 11:27:32:345,-0.2291,-1.0373,9.6236,-0.0129,-0.0232,9.8065,-0.0384,0.1594,-0.0143,3.94,-31.0,17.13,43.48,-79.39,-163.36
47829,52.40635,-1.573353,173.46,6.3,3,348.68,26 / 26,4785821,2019-09-08 11:27:32:445,-0.7739,-0.7672,9.78,-0.0057,-0.0066,9.8065,-0.0467,0.0734,0.069,4.0,-31.56,17.25,44.16,-79.29,-163.43
47830,52.40635,-1.573353,173.46,6.3,3,348.68,27 / 27,4785921,2019-09-08 11:27:32:545,-0.5878,-1.078,10.0604,0.0071,0.0189,9.8066,0.0129,0.0535,0.012,4.19,-31.19,17.5,42.71,-79.41,-162.5
47831,52.40635,-1.573353,173.46,6.3,3,348.68,27 / 27,4786021,2019-09-08 11:27:32:645,-0.5937,-1.3407,9.9301,0.0092,0.019,9.8065,0.0289,0.053,0.0062,4.06,-31.62,17.81,43.48,-79.53,-162.17
47832,52.40635,-1.573353,173.46,6.3,3,348.68,27 / 27,4786121,2019-09-08 11:27:32:745,0.0161,-0.5553,10.0015,0.0016,-0.0038,9.8065,0.0264,0.0162,0.0275,3.94,-32.0,18.25,43.61,-79.47,-162.14
47833,52.40635,-1.573353,173.46,6.3,3,348.68,27 / 27,4786221,2019-09-08 11:27:32:845,0.2635,-0.8544,9.7915,0.0179,0.0176,9.8066,0.1741,0.026,-0.0031,4.25,-31.31,17.63,42.58,-79.5,-162.48
47834,52.40635,-1.573353,173.46,6.3,3,348.68,27 / 27,4786321,2019-09-08 11:27:32:945,-0.6441,-1.8275,9.8378,-0.0193,-0.0319,9.8065,-0.1136,0.0183,0.004,4.31,-31.94,17.5,42.86,-79.38,-162.83
47835,52.40635,-1.573353,173.46,6.3,3,348.68,27 / 27,4786422,2019-09-08 11:27:33:046,0.7803,0.7195,9.8195,-0.0205,-0.0218,9.8066,-0.1415,0.0218,-0.0146,4.06,-31.87,17.5,43.52,-79.15,-162.63
47836,52.40635,-1.573353,173.46,6.3,3,348.68,27 / 27,4786522,2019-09-08 11:27:33:146,-0.8749,-0.1723,10.1291,0.0071,0.0239,9.8065,0.0247,0.0313,-0.0179,3.75,-31.62,17.69,44.42,-79.33,-161.72
47837,52.40635,-1.573353,173.46,6.3,3,348.68,27 / 27,4786622,2019-09-08 11:27:33:246,-1.0782,-0.4994,9.7771,-0.0052,-0.0142,9.8065,0.0019,0.0112,-0.0237,3.81,-32.69,17.94,44.86,-79.27,-161.89
47838,52.40635,-1.573353,173.46,6.3,3,348.68,27 / 27,4786722,2019-09-08 11:27:33:346,-0.01,-0.3666,9.4249,0.0156,0.0136,9.8065,0.0645,0.0058,-0.0049,3.13,-31.5,18.19,39.18,-79.19,-162.48
47839,52.40635,-1.573353,173.46,6.3,3,348.68,27 / 27,4786822,2019-09-08 11:27:33:446,-0.0868,-0.9281,9.1791,0.0104,0.0151,9.8065,0.0279,-0.0001,0.0172,2.38,-31.25,18.88,33.07,-79.21,-162.99
47840,52.40635,-1.573353,173.46,6.3,3,348.68,28 / 28,4786921,2019-09-08 11:27:33:545,-0.8789,-0.6513,10.1049,-0.0046,-0.0261,9.8065,-0.0697,0.0063,-0.0288,3.19,-32.25,18.19,38.96,-79.18,-163.04
47841,52.40635,-1.573353,173.46,6.3,3,348.68,28 / 28,4787022,2019-09-08 11:27:33:646,-0.3023,-0.69,9.9691,-0.0037,-0.0279,9.8065,-0.0914,0.0298,0.0178,3.31,-31.56,18.56,36.38,-79.12,-163.89
47842,52.40635,-1.573353,173.46,6.3,3,348.68,28 / 28,4787122,2019-09-08 11:27:33:746,-0.7351,0.2758,9.9892,0.0113,0.0282,9.8065,0.1163,-0.0175,-0.0187,3.56,-32.12,18.38,41.95,-79.38,-163.51
47843,52.40635,-1.573353,173.46,6.3,3,348.68,28 / 28,4787222,2019-09-08 11:27:33:846,-0.8714,-0.8828,10.0198,0.0193,0.0194,9.8066,0.1452,-0.0216,-0.0125,3.5,-31.75,18.44,41.28,-79.36,-164.04
47844,52.40635,-1.573353,173.46,6.3,3,348.68,28 / 28,4787321,2019-09-08 11:27:33:945,-0.6966,-1.3046,10.4823,-0.0077,-0.0314,9.8065,-0.0078,-0.0023,0.0333,3.44,-32.06,18.88,35.26,-79.24,-164.58
47845,52.40635,-1.573353,173.46,6.3,3,348.68,28 / 28,4787421,2019-09-08 11:27:34:045,-1.5018,-3.2148,10.2874,-0.0222,-0.0492,9.8065,-0.1186,0.0078,-0.0408,3.88,-31.44,18.69,38.0,-78.86,-165.44
47846,52.40635,-1.573353,173.46,6.3,3,348.68,28 / 28,4787521,2019-09-08 11:27:34:145,0.0224,0.6055,9.5882,0.0207,0.0515,9.8064,0.1289,0.0124,-0.005,4.06,-31.62,18.0,39.76,-78.85,-165.8
47847,52.40635,-1.573353,173.46,6.3,3,348.68,28 / 28,4787621,2019-09-08 11:27:34:245,-0.666,-1.5444,10.7319,0.0251,0.0459,9.8064,0.1462,-0.0212,-0.0474,3.81,-31.69,18.0,39.9,-79.28,-165.16
47848,52.40635,-1.573353,173.46,6.3,3,348.68,28 / 28,4787721,2019-09-08 11:27:34:345,-0.4321,0.4889,10.2535,-0.0112,-0.0294,9.8065,-0.2444,0.0327,-0.0272,3.63,-31.31,18.38,38.76,-79.09,-165.85
47849,52.40635,-1.573353,173.46,6.3,3,348.68,28 / 28,4787822,2019-09-08 11:27:34:446,-0.777,-0.2487,9.4847,-0.0041,-0.0321,9.8065,-0.2101,-0.0395,-0.0074,3.88,-31.56,18.13,38.51,-79.05,-166.46
47850,52.40635,-1.573353,173.46,6.3,3,348.68,25 / 26,4787922,2019-09-08 11:27:34:546,-1.6306,-0.391,9.5546,-0.0115,-0.0148,9.8066,0.0239,-0.0278,-0.0589,3.56,-31.75,18.19,38.23,-79.07,-166.63
47851,52.40635,-1.573353,173.46,6.3,3,348.68,25 / 26,4788021,2019-09-08 11:27:34:645,-1.3269,-1.1898,9.836,-0.0046,-0.0072,9.8065,-0.04,0.0015,-0.0318,3.81,-31.62,18.19,38.41,-78.99,-166.6
47852,52.40635,-1.573353,173.46,6.3,3,348.68,25 / 26,4788121,2019-09-08 11:27:34:745,-1.0283,-0.502,9.7908,0.0068,0.0143,9.8066,-0.0508,-0.0322,0.0084,3.63,-31.69,18.19,38.04,-79.04,-166.81
47853,52.40635,-1.573353,173.46,6.3,3,348.68,25 / 26,4788221,2019-09-08 11:27:34:845,-0.5867,0.6164,9.7075,0.0081,0.0201,9.8066,0.0073,-0.0606,0.0125,4.0,-31.87,18.0,38.11,-79.22,-166.55
47854,52.40635,-1.573353,173.46,6.3,3,348.68,25 / 26,4788321,2019-09-08 11:27:34:945,-0.5638,0.0303,10.2597,-0.0155,-0.0247,9.8065,-0.1163,-0.0525,0.0048,3.63,-31.81,18.38,38.6,-79.05,-166.39
47855,52.40635,-1.573353,173.46,6.3,3,348.68,25 / 26,4788421,2019-09-08 11:27:35:045,-0.1311,0.7857,9.6693,-0.0133,-0.0233,9.8066,-0.0834,-0.0435,0.0113,3.56,-31.81,17.75,38.87,-79.0,-166.26
47856,52.40635,-1.573353,173.46,6.3,3,348.68,25 / 26,4788521,2019-09-08 11:27:35:145,-0.8526,0.5601,9.6378,0.0031,0.012,9.8066,0.033,-0.0361,-0.0032,3.75,-31.75,17.94,39.21,-78.93,-166.1
47857,52.40635,-1.573353,173.46,6.3,3,348.68,25 / 26,4788621,2019-09-08 11:27:35:245,-0.8715,0.1316,9.7113,0.003,0.0018,9.8066,0.0049,-0.0228,0.0061,3.56,-32.12,18.38,39.19,-78.91,-166.13
47858,52.40635,-1.573353,173.46,6.3,3,348.68,25 / 26,4788721,2019-09-08 11:27:35:345,-0.6241,0.4678,9.801,-0.0012,0.0037,9.8066,-0.0354,-0.0154,0.0103,3.63,-31.87,17.69,39.14,-78.89,-166.2
47859,52.40635,-1.573353,173.46,6.3,3,348.68,27 / 27,4788821,2019-09-08 11:27:35:445,-0.6825,-0.0779,9.8805,0.0089,0.0099,9.8066,-0.035,-0.0335,0.01,3.69,-32.31,17.69,39.06,-78.98,-166.14
47860,52.40635,-1.573353,173.46,6.3,3,348.68,27 / 27,4788921,2019-09-08 11:27:35:545,-1.4427,0.6245,10.4081,-0.014,-0.0047,9.8065,-0.0553,0.0043,-0.0279,3.25,-32.19,17.56,35.44,-78.97,-165.81
47861,52.40635,-1.573353,173.46,6.3,3,348.68,27 / 27,4789021,2019-09-08 11:27:35:645,-0.5041,0.9052,9.8319,0.0087,-0.01,9.8066,-0.0372,-0.042,-0.0046,3.69,-31.87,17.63,39.07,-78.97,-166.14
47862,52.40635,-1.573353,173.46,6.3,3,348.68,27 / 27,4789122,2019-09-08 11:27:35:746,-0.317,0.2412,9.8826,0.0004,-0.0208,9.8065,0.0141,-0.0669,-0.0161,3.25,-32.12,17.0,36.18,-78.82,-166.68
47863,52.40635,-1.573353,173.46,6.3,3,348.68,27 / 27,4789222,2019-09-08 11:27:35:846,-0.6004,-0.2346,9.487,0.0199,-0.0072,9.8066,0.0363,-0.1184,0.0564,4.31,-31.75,17.31,39.14,-78.68,-167.88
47864,52.40635,-1.573353,173.46,6.3,3,348.68,27 / 27,4789321,2019-09-08 11:27:35:945,-1.5659,0.5747,9.9747,-0.002,0.0039,9.8066,-0.1182,-0.0456,0.0063,4.06,-32.56,17.0,40.13,-78.67,-167.63
47865,52.40635,-1.573353,173.46,6.3,3,348.68,27 / 27,4789421,2019-09-08 11:27:36:045,-0.2656,0.8559,9.7183,0.0078,0.0034,9.8066,-0.1049,-0.0143,-0.0488,3.69,-31.87,16.88,39.09,-78.88,-167.65
47866,52.40635,-1.573353,173.46,6.3,3,348.68,27 / 27,4789521,2019-09-08 11:27:36:145,0.0344,0.8374,9.8906,0.0057,-0.01,9.8066,0.0452,-0.0551,0.003,3.88,-32.31,16.5,37.65,-79.01,-168.51
47867,52.40635,-1.573353,173.46,6.3,3,348.68,27 / 27,4789621,2019-09-08 11:27:36:245,-0.6315,-0.414,10.0381,-0.0012,-0.0121,9.8066,0.0739,-0.0297,0.0212,4.13,-32.31,17.13,37.22,-78.86,-168.99
47868,52.40635,-1.573353,173.46,6.3,3,348.68,27 / 27,4789722,2019-09-08 11:27:36:346,-1.4637,0.6116,9.9135,0.005,0.002,9.8066,0.0306,-0.004,-0.028,3.81,-31.81,16.44,39.83,-78.62,-169.07
47869,52.40635,-1.573353,173.46,6.3,3,348.68,27 / 27,4789823,2019-09-08 11:27:36:447,-0.49,0.5099,9.503,0.006,-0.0008,9.8066,-0.014,-0.0134,-0.0021,3.38,-31.94,16.69,32.07,-78.57,-169.76
47870,52.40635,-1.573353,173.46,6.3,3,348.68,25 / 25,4789921,2019-09-08 11:27:36:545,-0.2473,0.2919,9.7547,0.0081,-0.0019,9.8066,-0.0061,-0.0241,0.016,3.25,-32.31,16.94,31.57,-78.61,-170.05
47871,52.40635,-1.573353,173.46,6.3,3,348.68,25 / 25,4790021,2019-09-08 11:27:36:645,-1.1948,1.073,9.2824,0.0005,-0.0023,9.8066,-0.098,-0.0892,0.082,4.06,-32.06,16.56,35.7,-78.6,-170.36
47872,52.40635,-1.573353,173.46,6.3,3,348.68,25 / 25,4790121,2019-09-08 11:27:36:745,-0.7987,1.1867,9.2578,-0.0021,-0.0069,9.8066,0.0378,-0.0706,0.0051,4.19,-32.0,17.0,36.05,-78.65,-170.07
47873,52.40635,-1.573353,173.46,6.3,3,348.68,25 / 25,4790221,2019-09-08 11:27:36:845,-1.1839,1.5859,10.4119,-0.0033,-0.0021,9.8066,0.0251,-0.1361,0.0783,4.19,-32.06,15.69,38.19,-78.69,-170.11
47874,52.40635,-1.573353,173.46,6.3,3,348.68,25 / 25,4790321,2019-09-08 11:27:36:945,-1.5812,0.5661,10.4826,-0.0147,-0.0193,9.8066,-0.1718,-0.1386,-0.017,3.56,-32.0,15.13,41.65,-78.87,-169.28
47875,52.40635,-1.573353,173.46,6.3,3,348.68,25 / 25,4790421,2019-09-08 11:27:37:045,-0.8773,1.1253,9.3677,0.0017,-0.0172,9.8065,-0.123,0.013,-0.0727,4.06,-31.75,15.81,38.34,-78.82,-169.82
47876,52.40635,-1.573353,173.46,6.3,3,348.68,25 / 25,4790522,2019-09-08 11:27:37:146,-1.1698,0.9748,10.2508,0.0002,0.0163,9.8065,0.1616,-0.038,0.0241,3.69,-32.69,15.5,39.1,-78.75,-169.85
