,GPS LATITUDE (degrees), GPS LONGITUDE (degrees), GPS ALTITUDE (m), GPS SPEED (Kmh), GPS ACCURACY (m), GPS ORIENTATION (Â°),GPS SATELLITES IN RANGE, TIME SINCE START (ms), DATE (YYYY-MO-DD HH-MI-SS_SSS), ACCELEROMETER X (m/s²) , ACCELEROMETER Y (m/s²), ACCELEROMETER Z (m/s²), GRAVITY X (m/s²), GRAVITY Y (m/s²), GRAVITY Z (m/s²), GYROSCOPE Yaw (rad/s), GYROSCOPE Pitch (rad/s), GYROSCOPE Roll (rad/s), MAGNETIC FIELD X (Î¼T), MAGNETIC FIELD Y (Î¼T), MAGNETIC FIELD Z (Î¼T), ORIENTATION (Yaw) (Â°), ORIENTATION (Pitch) (Â°), ORIENTATION (Roll ) (Â°)
21744,53.118767,-1.396328,179.36,15.44,3,114.43,24 / 24,3647014,2019-11-06 17:07:07:476,-0.1414,1.0631,10.332,-0.0034,0.0005,9.8066,-0.031,0.2023,-0.0887,-24.31,-35.06,26.63,338.54,-87.23,-158.82
21745,53.118767,-1.396328,179.36,15.44,3,114.43,24 / 24,3647114,2019-11-06 17:07:07:576,-2.9843,0.1041,10.7153,0.021,0.0033,9.8066,0.0626,0.1609,-0.0842,-24.31,-36.0,24.0,335.6,-87.1,-158.11
21746,53.118767,-1.396328,179.36,15.44,3,114.43,24 / 24,3647214,2019-11-06 17:07:07:676,3.3078,0.2348,9.5622,0.0251,0.0128,9.8066,0.0677,0.1213,-0.1318,-24.75,-36.75,23.19,331.34,-86.68,-159.5
21747,53.118767,-1.396328,179.36,15.44,3,114.43,24 / 24,3647314,2019-11-06 17:07:07:776,0.4134,1.1192,9.2914,0.0036,0.0142,9.8066,-0.026,0.2815,-0.1588,-24.81,-36.5,23.5,331.6,-86.68,-160.54
21748,53.118767,-1.396328,179.36,15.44,3,114.43,24 / 24,3647413,2019-11-06 17:07:07:875,1.0715,0.0961,9.4012,0.0162,0.023,9.8066,-0.0017,0.0921,-0.0687,-24.5,-36.06,23.31,334.14,-86.73,-158.07
21749,53.118767,-1.396328,179.36,15.44,3,114.43,24 / 24,3647513,2019-11-06 17:07:07:975,-0.9928,-0.177,9.5835,-0.0241,-0.0032,9.8066,-0.032,0.0618,0.0377,-24.5,-35.81,25.88,340.42,-86.88,-155.79
21750,53.118767,-1.396328,179.36,15.44,3,114.43,24 / 24,3647613,2019-11-06 17:07:08:075,0.9851,-0.8222,10.274,-0.0197,-0.0087,9.8065,-0.045,-0.0094,0.0068,-26.0,-35.62,44.94,357.38,-86.98,-152.5
21751,53.118767,-1.396328,179.36,15.44,3,114.43,24 / 24,3647713,2019-11-06 17:07:08:175,-0.5546,0.5888,10.0486,0.0143,-0.0196,9.8066,0.039,-0.098,0.04,-43.37,-40.5,33.56,333.13,-86.71,-154.08
21752,53.118767,-1.396328,179.36,15.44,3,114.43,24 / 24,3647813,2019-11-06 17:07:08:275,-0.3941,-2.2116,10.1795,0.0035,-0.0187,9.8066,-0.0024,-0.1731,0.044,-29.69,-37.25,21.63,328.41,-86.76,-156.12
21753,53.118767,-1.396328,179.36,15.44,3,114.43,23 / 23,3647913,2019-11-06 17:07:08:375,-0.0203,1.3855,10.3372,-0.0388,-0.0101,9.8065,-0.0024,-0.2638,0.056,-26.44,-36.81,21.19,335.06,-86.93,-152.4
21754,53.118767,-1.396328,179.36,15.44,3,114.43,23 / 23,3648013,2019-11-06 17:07:08:475,-2.8095,-3.5845,10.8149,-0.0173,-0.0397,9.8065,0.0948,-0.5257,0.2716,-26.87,-37.06,21.56,333.39,-87.09,-154.37
21755,53.118767,-1.396328,179.36,15.44,3,114.43,23 / 23,3648113,2019-11-06 17:07:08:575,4.0721,1.274,9.9041,0.0055,-0.0501,9.8065,0.0709,-0.1605,0.0801,-28.12,-37.62,21.19,328.86,-86.74,-156.14
21756,53.118767,-1.396328,179.36,15.44,3,114.43,23 / 23,3648214,2019-11-06 17:07:08:676,0.3704,-1.903,9.9661,-0.0192,0.0073,9.8066,-0.0097,-0.3112,0.1812,-34.94,-39.12,22.88,319.99,-86.55,-161.2
21757,53.118767,-1.396328,179.36,15.44,3,114.43,23 / 23,3648314,2019-11-06 17:07:08:776,1.7571,0.5506,8.7223,-0.0366,-0.0097,9.8065,-0.1256,-0.1204,0.1562,-39.0,-39.31,51.88,339.93,-86.72,-162.5
21758,53.118767,-1.396328,179.36,15.44,3,114.43,23 / 23,3648414,2019-11-06 17:07:08:876,-0.2602,0.6364,8.1149,-0.0415,0.0281,9.8065,-0.1125,0.0793,-0.0394,-24.0,-34.87,33.25,339.13,-87.19,-163.96
21759,53.118767,-1.396328,179.36,15.44,3,114.43,23 / 23,3648514,2019-11-06 17:07:08:976,-1.6863,-1.8145,9.4364,0.005,0.0262,9.8065,-0.0025,-0.1585,0.102,-24.37,-35.62,24.25,335.37,-87.66,-158.58
21760,53.118767,-1.396328,179.36,15.44,3,114.43,23 / 23,3648614,2019-11-06 17:07:09:076,0.4205,0.6531,9.2028,-0.0171,-0.0412,9.8065,0.0016,0.0686,0.053,-24.31,-36.75,22.94,339.43,-87.63,-153.41
21761,53.118767,-1.396328,179.36,15.44,3,114.43,23 / 23,3648714,2019-11-06 17:07:09:176,3.418,1.4324,9.9559,-0.0328,0.0065,9.8066,0.0249,-0.5438,0.4452,-25.0,-36.06,21.81,344.0,-87.41,-146.56
21762,53.118767,-1.396328,179.36,15.44,3,114.43,23 / 23,3648814,2019-11-06 17:07:09:276,2.6665,2.8013,10.7127,-0.0297,-0.0803,9.8063,0.0568,-0.0649,-0.0255,-25.56,-36.19,21.69,348.41,-86.87,-141.14
21763,53.118767,-1.396328,179.36,15.44,3,114.43,23 / 24,3648914,2019-11-06 17:07:09:376,0.9201,1.8257,10.5393,0.0352,-0.0132,9.8065,0.247,-0.7464,0.2915,-24.31,-35.06,24.75,349.86,-86.89,-145.74
21764,53.118767,-1.396328,179.36,15.44,3,114.43,23 / 24,3649013,2019-11-06 17:07:09:475,-6.9902,-3.0699,10.0997,-0.0486,-0.0457,9.8064,-0.0531,-0.4755,0.1536,-24.31,-34.5,30.19,351.28,-87.01,-149.65
21765,53.118767,-1.396328,179.36,15.44,3,114.43,23 / 24,3649114,2019-11-06 17:07:09:576,1.5969,3.3458,6.2441,-0.0569,-0.07,9.8062,-0.1569,-0.6346,0.324,-35.12,-39.12,49.31,0.82,-86.87,-143.68
21766,53.118767,-1.396328,179.36,15.44,3,114.43,23 / 24,3649214,2019-11-06 17:07:09:676,-3.4462,-10.4505,12.2588,-0.0428,-0.1345,9.8055,0.4354,-1.3674,0.7535,-32.62,-38.0,21.56,347.14,-86.56,-135.8
21767,53.118767,-1.396328,179.36,15.44,3,114.43,23 / 24,3649314,2019-11-06 17:07:09:776,6.5168,5.9036,7.6689,-0.041,-0.1508,9.8053,0.0019,-0.1381,-0.1283,-28.5,-37.31,20.38,356.22,-86.6,-129.07
21768,53.118767,-1.396328,179.36,15.44,3,114.43,23 / 24,3649414,2019-11-06 17:07:09:876,-7.9207,-13.0524,13.8401,-0.0103,0.0772,9.8063,0.0539,-1.4178,0.852,-27.62,-36.69,20.81,2.52,-86.4,-124.52
21769,53.118767,-1.396328,179.36,15.44,3,114.43,23 / 24,3649514,2019-11-06 17:07:09:976,8.0199,10.8324,7.7919,-0.0409,-0.225,9.804,-0.0929,1.126,-0.4466,-28.06,-36.56,20.63,359.68,-85.67,-127.16
21770,53.118767,-1.396328,179.36,15.44,3,114.43,23 / 24,3649614,2019-11-06 17:07:10:076,4.6672,6.1085,10.1739,0.0633,0.16,9.805,0.1712,-0.7927,0.1807,-30.31,-36.69,22.13,352.12,-85.55,-133.5
21771,53.118767,-1.396328,179.36,15.44,3,114.43,23 / 24,3649714,2019-11-06 17:07:10:176,8.2761,9.4752,7.7847,0.0204,-0.0489,9.8065,-0.2336,1.7452,-1.0584,-41.5,-39.37,30.19,345.89,-86.12,-139.54
21772,53.118767,-1.396328,179.36,15.44,3,114.43,23 / 24,3649814,2019-11-06 17:07:10:276,2.8683,2.0232,6.682,0.1309,0.1422,9.8047,-0.1495,0.3574,-0.1418,-24.81,-33.62,41.31,4.38,-87.24,-144.4
21773,53.118767,-1.396328,179.36,15.44,3,114.43,23 / 23,3649914,2019-11-06 17:07:10:376,-6.9907,-6.5186,11.5921,-0.0769,0.0236,9.8063,-0.2315,1.2243,-0.5227,-25.69,-34.44,28.13,9.88,-86.77,-127.75
21774,53.118767,-1.396328,179.36,15.44,3,114.43,23 / 23,3650015,2019-11-06 17:07:10:477,-0.7839,-1.9158,10.9873,-0.015,0.1147,9.8059,-0.274,0.7996,-0.1903,-25.69,-35.12,23.44,6.47,-86.02,-125.49
21775,53.118767,-1.396328,179.36,15.44,3,114.43,23 / 23,3650114,2019-11-06 17:07:10:576,-3.5299,-6.182,11.9325,0.0245,0.0856,9.8062,-0.1286,0.49,-0.2602,-25.81,-35.87,23.0,6.32,-86.28,-125.61
21776,53.118767,-1.396328,179.36,15.44,3,114.43,23 / 23,3650214,2019-11-06 17:07:10:676,5.2337,5.5045,9.4702,0.0314,0.1021,9.806,-0.1243,0.9761,-0.5452,-25.87,-35.94,22.44,1.06,-86.77,-129.24
21777,53.118767,-1.396328,179.36,15.44,3,114.43,23 / 23,3650314,2019-11-06 17:07:10:776,-2.2874,-3.7492,8.2885,0.0667,0.1319,9.8055,0.0263,0.5529,-0.1907,-25.25,-35.81,22.94,358.58,-87.2,-133.96
21778,53.118767,-1.396328,179.36,15.44,3,114.43,23 / 23,3650413,2019-11-06 17:07:10:875,3.5699,4.168,8.0687,0.0835,0.1169,9.8056,-0.0246,1.1549,-0.7511,-24.69,-35.19,25.06,8.49,-86.91,-126.98
21779,53.118767,-1.396328,179.36,15.44,3,114.43,23 / 23,3650513,2019-11-06 17:07:10:975,-4.8295,-2.5994,11.3193,0.0859,0.0396,9.8061,0.1218,0.4409,-0.2841,-24.44,-34.56,41.06,13.75,-87.17,-136.42
21780,53.118767,-1.396328,179.36,15.44,3,114.43,23 / 23,3650613,2019-11-06 17:07:11:075,5.6117,3.2215,9.723,0.0835,0.0655,9.806,-0.0168,0.6488,-0.4598,-44.69,-41.06,37.5,349.92,-86.62,-139.84
21781,53.118767,-1.396328,179.36,15.44,3,114.43,23 / 23,3650714,2019-11-06 17:07:11:176,-1.5409,-1.9878,10.3055,0.0109,0.1052,9.8061,-0.0802,0.2089,-0.1652,-29.37,-37.06,21.5,331.8,-86.74,-153.78
21782,53.118767,-1.396328,179.36,15.44,3,114.43,23 / 23,3650814,2019-11-06 17:07:11:276,1.6383,2.4652,6.9972,-0.0133,0.0626,9.8064,-0.1699,0.3519,-0.2837,-27.19,-37.19,21.0,329.59,-87.19,-156.72
21783,53.118114,-1.39407,179.65,21.12,4,116.38,23 / 24,3650914,2019-11-06 17:07:11:376,0.8504,-0.7186,10.1658,-0.049,0.0609,9.8062,-0.0949,-0.1212,0.1273,-26.75,-37.06,20.31,330.84,-87.13,-154.12
21784,53.118114,-1.39407,179.65,21.12,4,116.38,23 / 24,3651013,2019-11-06 17:07:11:475,-2.5849,-4.7814,10.3986,-0.0513,-0.0353,9.8064,-0.2974,0.2823,-0.0245,-27.87,-37.87,20.25,335.62,-87.57,-148.79
21785,53.118114,-1.39407,179.65,21.12,4,116.38,23 / 24,3651114,2019-11-06 17:07:11:576,-2.058,-5.8008,10.1022,-0.012,0.0251,9.8065,-0.0957,-0.6326,0.4088,-32.44,-38.25,21.5,328.49,-87.61,-154.77
21786,53.118114,-1.39407,179.65,21.12,4,116.38,23 / 24,3651214,2019-11-06 17:07:11:676,1.21,1.7625,8.6972,-0.0761,-0.054,9.8062,-0.0979,0.2335,-0.0695,-42.19,-40.87,48.25,330.24,-87.67,-167.81
21787,53.118114,-1.39407,179.65,21.12,4,116.38,23 / 24,3651314,2019-11-06 17:07:11:776,4.7221,2.3291,9.0501,0.0431,0.0456,9.8064,-0.0762,-0.1425,0.0968,-24.62,-34.75,31.56,332.37,-87.87,-168.76
21788,53.118114,-1.39407,179.65,21.12,4,116.38,23 / 24,3651415,2019-11-06 17:07:11:877,4.4638,4.7438,9.2964,-0.0135,-0.1247,9.8058,-0.2491,0.9697,-0.3562,-23.94,-35.44,24.5,324.86,-87.98,-170.11
21789,53.118114,-1.39407,179.65,21.12,4,116.38,23 / 24,3651514,2019-11-06 17:07:11:976,0.3741,1.3981,11.1251,0.0267,-0.0476,9.8065,-0.0778,0.2412,-0.032,-24.56,-36.31,22.94,330.33,-87.24,-160.81
21790,53.118114,-1.39407,179.65,21.12,4,116.38,23 / 24,3651614,2019-11-06 17:07:12:076,-3.6502,-4.7963,11.6371,-0.0054,-0.0837,9.8062,-0.2241,0.817,-0.2999,-24.62,-36.37,22.06,336.59,-86.84,-153.37
21791,53.118114,-1.39407,179.65,21.12,4,116.38,23 / 24,3651713,2019-11-06 17:07:12:175,-1.5809,-2.5029,9.3497,-0.0253,-0.0278,9.8065,0.0817,0.2823,-0.2824,-24.37,-36.0,22.31,334.41,-87.04,-156.66
21792,53.118114,-1.39407,179.65,21.12,4,116.38,23 / 24,3651813,2019-11-06 17:07:12:275,-2.74,-2.4426,10.1455,-0.0707,-0.0546,9.8062,0.1011,0.6817,-0.3989,-24.06,-36.44,23.31,328.04,-87.16,-164.08
21793,53.118114,-1.39407,179.65,21.12,4,116.38,23 / 24,3651913,2019-11-06 17:07:12:375,2.4996,2.6566,7.3194,0.0149,-0.0749,9.8063,-0.3557,0.5353,-0.1174,-24.06,-35.19,29.94,341.87,-86.92,-158.58
21794,53.118114,-1.39407,179.65,21.12,4,116.38,23 / 24,3652013,2019-11-06 17:07:12:475,-3.4969,-4.0095,11.7758,0.0012,-0.0695,9.8064,-0.2677,0.6306,-0.1526,-33.81,-38.62,48.94,351.46,-87.34,-153.52
21795,53.118114,-1.39407,179.65,21.12,4,116.38,23 / 24,3652113,2019-11-06 17:07:12:575,0.4311,0.9513,10.5136,-0.0133,-0.049,9.8065,-0.1825,0.5069,-0.2495,-36.81,-39.12,24.13,332.0,-87.16,-149.76
21796,53.118114,-1.39407,179.65,21.12,4,116.38,23 / 24,3652214,2019-11-06 17:07:12:676,-2.8023,-3.1819,10.2344,0.0331,-0.0125,9.8066,-0.0469,0.3124,-0.1099,-27.37,-37.87,20.56,332.93,-87.45,-153.63
21797,53.118114,-1.39407,179.65,21.12,4,116.38,23 / 24,3652314,2019-11-06 17:07:12:776,3.6621,1.1446,10.6669,-0.0075,-0.0505,9.8064,0.1443,0.4271,-0.4007,-26.44,-37.31,20.63,326.48,-87.29,-160.76
21798,53.118114,-1.39407,179.65,21.12,4,116.38,23 / 24,3652414,2019-11-06 17:07:12:876,0.6823,0.337,11.2021,-0.0437,-0.0273,9.8065,0.04,0.0672,-0.2552,-26.19,-37.69,21.13,313.03,-87.1,-173.45
21799,53.118114,-1.39407,179.65,21.12,4,116.38,23 / 24,3652513,2019-11-06 17:07:12:975,1.4034,1.0342,6.7613,0.0096,-0.0009,9.8066,-0.2539,0.2061,0.1714,-28.81,-37.87,20.38,313.1,-87.47,-169.48
21800,53.118114,-1.39407,179.65,21.12,4,116.38,23 / 24,3652613,2019-11-06 17:07:13:075,1.3795,-0.7221,8.242,-0.0162,-0.0089,9.8066,-0.1479,-0.1985,0.1947,-40.06,-40.31,27.19,329.76,-87.81,-153.33
21801,53.118114,-1.39407,179.65,21.12,4,116.38,23 / 24,3652713,2019-11-06 17:07:13:175,4.1165,1.9473,7.5575,-0.0605,-0.0287,9.8063,-0.066,0.3632,-0.007,-32.0,-37.75,50.81,16.39,-87.89,-131.89
21802,53.118114,-1.39407,179.65,21.12,4,116.38,23 / 24,3652813,2019-11-06 17:07:13:275,-2.5606,-1.7866,8.6772,-0.0149,0.0314,9.8066,0.0906,-0.4289,0.1537,-24.31,-35.25,26.94,20.1,-87.93,-118.97
21803,53.118114,-1.39407,179.65,21.12,4,116.38,23 / 24,3652913,2019-11-06 17:07:13:375,-0.9981,-1.1561,10.7466,-0.0116,-0.0169,9.8066,0.015,0.2113,-0.1355,-24.75,-35.94,22.94,12.75,-87.87,-120.37
21804,53.118114,-1.39407,179.65,21.12,4,116.38,23 / 24,3653013,2019-11-06 17:07:13:475,-1.8919,-3.1999,12.4651,0.0599,0.0425,9.8063,0.0682,-0.2399,0.0674,-24.31,-36.62,21.0,0.71,-88.07,-130.5
21805,53.118114,-1.39407,179.65,21.12,4,116.38,23 / 24,3653113,2019-11-06 17:07:13:575,2.5435,-0.9906,10.9747,0.0187,-0.0105,9.8066,-0.0167,0.0357,-0.2081,-24.31,-37.5,21.44,335.95,-88.35,-154.45
21806,53.118114,-1.39407,179.65,21.12,4,116.38,23 / 24,3653214,2019-11-06 17:07:13:676,1.1858,0.7463,10.6896,0.0258,0.0207,9.8065,-0.0156,-0.0701,0.0747,-23.62,-36.56,21.75,319.72,-88.54,-171.71
21807,53.118114,-1.39407,179.65,21.12,4,116.38,23 / 24,3653314,2019-11-06 17:07:13:776,0.5459,0.8283,8.9224,0.0189,-0.0113,9.8065,-0.1041,-0.0113,-0.0515,-22.87,-36.56,23.19,313.44,-88.55,179.65
21808,53.118114,-1.39407,179.65,21.12,4,116.38,23 / 24,3653414,2019-11-06 17:07:13:876,1.9884,-1.0209,9.2221,0.0055,-0.0038,9.8066,0.0065,0.0597,0.0658,-22.87,-34.31,35.06,323.67,-88.65,177.64
21809,53.118114,-1.39407,179.65,21.12,4,116.38,23 / 24,3653514,2019-11-06 17:07:13:976,-0.3692,-0.4144,9.3159,0.0025,-0.0148,9.8066,-0.0472,-0.0906,-0.0245,-42.12,-41.56,42.25,316.54,-88.58,-177.76
21810,53.118114,-1.39407,179.65,21.12,4,116.38,23 / 24,3653614,2019-11-06 17:07:14:076,0.8589,0.1413,9.307,0.039,0.0122,9.8065,-0.0386,-0.0357,0.0474,-29.87,-38.44,21.06,301.9,-88.57,178.17
21811,53.118114,-1.39407,179.65,21.12,4,116.38,23 / 24,3653714,2019-11-06 17:07:14:176,0.8393,0.7631,10.5326,-0.0012,0.0253,9.8065,0.0683,-0.0207,0.0093,-25.75,-37.62,19.69,293.55,-88.46,167.63
21812,53.118114,-1.39407,179.65,21.12,4,116.38,23 / 24,3653814,2019-11-06 17:07:14:276,1.507,0.0016,8.6849,-0.0174,0.0021,9.8066,0.0286,-0.0752,0.0697,-25.81,-37.62,19.63,297.32,-88.39,171.42
21813,53.118114,-1.39407,179.65,21.12,4,116.38,23 / 24,3653914,2019-11-06 17:07:14:376,0.3185,0.3805,9.905,-0.0443,-0.0156,9.8065,0.0215,0.1232,-0.0713,-26.06,-37.81,19.44,307.72,-88.55,-177.08
21814,53.118114,-1.39407,179.65,21.12,4,116.38,23 / 24,3654014,2019-11-06 17:07:14:476,-0.0205,0.3277,9.5905,-0.0157,-0.0165,9.8066,-0.0262,0.0655,-0.1097,-29.56,-38.62,20.0,303.85,-88.64,-178.62
21815,53.118114,-1.39407,179.65,21.12,4,116.38,23 / 24,3654114,2019-11-06 17:07:14:576,0.9029,0.3788,9.3019,-0.0011,-0.0041,9.8066,-0.0084,0.0543,-0.0157,-40.25,-40.87,48.44,322.23,-88.65,-177.42
21816,53.118114,-1.39407,179.65,21.12,4,116.38,23 / 24,3654214,2019-11-06 17:07:14:676,2.086,-1.0489,10.3804,0.0109,-0.0113,9.8066,-0.0443,-0.0352,0.0752,-23.69,-34.81,33.81,330.41,-88.62,-173.79
21817,53.118114,-1.39407,179.65,21.12,4,116.38,23 / 24,3654314,2019-11-06 17:07:14:776,2.3056,-0.4663,10.3648,0.0147,-0.0201,9.8066,0.0099,0.0765,-0.0424,-23.31,-36.0,24.94,327.29,-88.34,-169.13
21818,53.118114,-1.39407,179.65,21.12,4,116.38,23 / 24,3654414,2019-11-06 17:07:14:876,-2.128,0.9824,10.3966,0.0101,0.0084,9.8066,0.0117,0.0101,-0.0776,-23.75,-37.12,22.06,316.14,-88.09,-174.85
21819,53.118114,-1.39407,179.65,21.12,4,116.38,23 / 24,3654514,2019-11-06 17:07:14:976,-1.0717,0.3466,9.3577,0.003,0.0277,9.8066,-0.0559,-0.0676,0.0013,-24.06,-36.62,21.0,304.7,-88.15,175.3
21820,53.118114,-1.39407,179.65,21.12,4,116.38,23 / 24,3654613,2019-11-06 17:07:15:075,0.649,0.1814,9.9735,0.0145,0.0352,9.8066,0.0947,-0.1038,-0.0065,-23.56,-37.31,20.81,298.56,-88.29,169.13
21821,53.118114,-1.39407,179.65,21.12,4,116.38,23 / 24,3654713,2019-11-06 17:07:15:175,0.3672,-0.2127,8.9364,0.0369,0.0026,9.8065,-0.0573,0.0067,0.0016,-23.12,-37.19,21.94,290.37,-88.02,158.82
21822,53.118114,-1.39407,179.65,21.12,4,116.38,23 / 24,3654816,2019-11-06 17:07:15:278,1.2317,0.6974,10.5227,0.0277,0.0018,9.8065,-0.1277,0.0264,0.0302,-22.75,-36.25,26.19,291.09,-87.99,154.54
21823,53.118114,-1.39407,179.65,21.12,4,116.38,24 / 24,3654914,2019-11-06 17:07:15:376,0.1635,0.7758,10.7558,0.0023,0.0017,9.8066,0.0278,0.0084,0.0373,-24.56,-36.75,44.25,301.71,-88.07,152.53
21824,53.118114,-1.39407,179.65,21.12,4,116.38,24 / 24,3655013,2019-11-06 17:07:15:475,-0.6354,1.2917,9.2529,0.0119,0.0074,9.8066,0.0515,0.0714,-0.0344,-41.75,-41.25,30.31,279.47,-88.04,155.47
21825,53.118114,-1.39407,179.65,21.12,4,116.38,24 / 24,3655114,2019-11-06 17:07:15:576,0.6385,1.4358,11.2576,0.0022,0.0051,9.8066,0.0963,0.0497,-0.0245,-26.44,-38.81,19.88,278.05,-87.75,153.14
21826,53.118114,-1.39407,179.65,21.12,4,116.38,24 / 24,3655216,2019-11-06 17:07:15:678,1.0306,0.1301,11.3437,-0.0168,-0.0235,9.8065,0.0941,0.1208,-0.0612,-25.25,-38.25,19.63,281.33,-87.55,155.53
21827,53.118114,-1.39407,179.65,21.12,4,116.38,24 / 24,3655314,2019-11-06 17:07:15:776,-0.3549,0.1232,9.2558,0.0241,-0.0403,9.8064,-0.0761,0.0431,-0.0258,-25.31,-38.0,20.0,288.42,-87.38,162.73
21828,53.118114,-1.39407,179.65,21.12,4,116.38,24 / 24,3655414,2019-11-06 17:07:15:876,0.7234,-0.2534,9.8193,0.0142,0.0133,9.8066,-0.1062,0.0516,0.0582,-27.12,-38.19,19.5,283.3,-87.45,159.59
21829,53.118114,-1.39407,179.65,21.12,4,116.38,24 / 24,3655514,2019-11-06 17:07:15:976,1.1651,-0.7001,9.8895,0.0056,-0.0102,9.8066,0.0936,0.0291,-0.1296,-36.19,-40.62,23.13,280.07,-87.48,159.89
21830,53.118114,-1.39407,179.65,21.12,4,116.38,24 / 24,3655613,2019-11-06 17:07:16:075,-1.5197,-0.1683,9.9034,-0.0206,-0.0126,9.8066,0.0792,0.0934,-0.1713,-33.56,-39.19,51.25,299.31,-87.21,154.58
21831,53.118114,-1.39407,179.65,21.12,4,116.38,24 / 24,3655713,2019-11-06 17:07:16:175,-0.4665,0.9895,10.0349,0.0098,-0.0042,9.8066,-0.0243,0.115,-0.024,-22.56,-35.56,27.0,290.42,-87.12,153.61
21832,53.118114,-1.39407,179.65,21.12,4,116.38,24 / 24,3655813,2019-11-06 17:07:16:275,-1.928,0.0059,10.3186,0.0117,0.0152,9.8066,0.0686,-0.1737,0.0396,-22.69,-36.75,23.44,284.71,-87.18,152.84
21833,53.118114,-1.39407,179.65,21.12,4,116.38,23 / 24,3655914,2019-11-06 17:07:16:376,-0.9242,1.4299,10.6346,-0.0091,0.0161,9.8066,0.0494,-0.1162,0.0319,-22.87,-37.19,21.25,277.69,-87.06,148.76
21834,53.118114,-1.39407,179.65,21.12,4,116.38,23 / 24,3656014,2019-11-06 17:07:16:476,-0.1565,1.3028,9.6568,0.0177,0.0327,9.8065,-0.0122,-0.1445,0.1875,-23.19,-37.69,20.31,276.5,-87.15,149.03
21835,53.118114,-1.39407,179.65,21.12,4,116.38,23 / 24,3656113,2019-11-06 17:07:16:575,0.417,0.2699,10.5354,0.0066,-0.0196,9.8066,0.1304,-0.0077,-0.1147,-23.0,-37.69,21.13,278.4,-87.02,149.61
21836,53.118114,-1.39407,179.65,21.12,4,116.38,23 / 24,3656214,2019-11-06 17:07:16:676,0.9223,-1.546,9.8988,0.0179,0.0037,9.8066,0.1068,-0.3184,0.1096,-22.37,-36.62,22.94,284.45,-86.61,152.02
21837,53.118114,-1.39407,179.65,21.12,4,116.38,23 / 24,3656314,2019-11-06 17:07:16:776,-2.0304,1.4749,10.5286,0.018,0.0156,9.8066,0.0125,-0.0791,0.1427,-23.12,-35.31,28.94,291.4,-86.43,153.0
21838,53.118114,-1.39407,179.65,21.12,4,116.38,23 / 24,3656413,2019-11-06 17:07:16:875,1.1765,0.8477,9.2793,0.0229,0.0217,9.8065,0.0071,-0.1065,0.0806,-41.25,-41.87,41.94,286.0,-86.46,152.77
21839,53.118114,-1.39407,179.65,21.12,4,116.38,23 / 24,3656513,2019-11-06 17:07:16:975,-1.2569,0.5369,9.1409,-0.0179,0.011,9.8066,0.1622,-0.1181,-0.0137,-28.62,-38.56,20.0,272.56,-86.4,151.96
21840,53.118114,-1.39407,179.65,21.12,4,116.38,23 / 24,3656613,2019-11-06 17:07:17:075,0.2248,1.5785,11.9685,-0.0019,0.0134,9.8066,0.0611,-0.2269,-0.0135,-25.62,-38.25,19.75,274.79,-86.16,151.68
21841,53.118114,-1.39407,179.65,21.12,4,116.38,23 / 24,3656713,2019-11-06 17:07:17:175,-2.867,-1.0059,9.2916,0.0545,0.0172,9.8064,-0.1142,-0.2383,0.2755,-24.69,-38.5,20.0,273.56,-86.1,149.55
21842,53.118114,-1.39407,179.65,21.12,4,116.38,23 / 24,3656813,2019-11-06 17:07:17:275,-1.0671,1.7449,8.8693,0.034,0.0135,9.8065,-0.122,0.0274,0.0559,-25.56,-37.94,19.81,275.24,-86.32,151.94
21843,53.118114,-1.39407,179.65,21.12,4,116.38,23 / 23,3656914,2019-11-06 17:07:17:376,-0.8041,-0.5095,11.3704,-0.0392,0.0173,9.8065,0.1737,-0.1749,-0.0536,-28.56,-38.31,20.06,270.54,-86.28,149.97
21844,53.118114,-1.39407,179.65,21.12,4,116.38,23 / 23,3657014,2019-11-06 17:07:17:476,-3.2046,0.0493,9.4531,-0.0327,-0.0315,9.8065,0.2067,0.1727,-0.1996,-40.69,-42.12,45.5,289.12,-86.24,153.3
21845,53.118114,-1.39407,179.65,21.12,4,116.38,23 / 23,3657114,2019-11-06 17:07:17:576,-1.9704,-0.4349,8.1231,0.0476,-0.0066,9.8065,-0.0421,-0.0859,0.0842,-22.87,-35.12,37.06,296.9,-85.88,151.78
21846,53.118114,-1.39407,179.65,21.12,4,116.38,23 / 23,3657214,2019-11-06 17:07:17:676,0.2468,1.0514,10.644,0.0236,-0.0098,9.8066,-0.0801,0.0408,0.0255,-22.44,-36.0,26.5,287.64,-85.82,150.98
21847,53.118114,-1.39407,179.65,21.12,4,116.38,23 / 23,3657313,2019-11-06 17:07:17:775,-0.7098,2.7691,8.0922,0.0134,0.0021,9.8066,-0.0752,-0.0324,0.0626,-22.31,-37.12,22.06,280.5,-85.88,150.36
21848,53.118114,-1.39407,179.65,21.12,4,116.38,23 / 23,3657414,2019-11-06 17:07:17:876,-1.5827,1.2289,10.5058,-0.0043,-0.0261,9.8066,0.0419,0.1062,-0.0296,-23.0,-37.37,21.63,281.57,-85.95,152.49
21849,53.118114,-1.39407,179.65,21.12,4,116.38,23 / 23,3657514,2019-11-06 17:07:17:976,1.0545,1.5158,10.4905,-0.012,-0.0216,9.8066,0.044,0.1588,-0.0791,-22.87,-37.44,21.38,284.36,-85.9,156.73
21850,53.118114,-1.39407,179.65,21.12,4,116.38,23 / 23,3657614,2019-11-06 17:07:18:076,0.0422,0.9886,9.3061,-0.0064,-0.0036,9.8066,-0.0254,-0.1111,0.117,-22.81,-37.06,22.69,289.3,-85.91,158.75
21851,53.118114,-1.39407,179.65,21.12,4,116.38,23 / 23,3657713,2019-11-06 17:07:18:175,-0.2607,2.3172,9.9196,-0.0297,-0.0148,9.8066,-0.0427,0.1369,-0.0201,-22.87,-36.12,25.38,295.46,-86.16,161.81
21852,53.118114,-1.39407,179.65,21.12,4,116.38,23 / 23,3657813,2019-11-06 17:07:18:275,-2.7833,-0.2997,9.5378,0.0062,0.0146,9.8066,0.1351,-0.0936,-0.0202,-22.31,-35.75,37.69,310.23,-86.22,162.73
21853,53.118114,-1.39407,179.65,21.12,4,116.38,22 / 23,3657914,2019-11-06 17:07:18:376,-0.2881,-0.0557,9.9395,0.0063,-0.0146,9.8065,0.0086,0.1418,-0.1517,-38.31,-40.06,27.13,281.35,-85.93,159.42
21854,53.118114,-1.39407,179.65,21.12,4,116.38,22 / 23,3658014,2019-11-06 17:07:18:476,0.109,-1.2642,8.668,0.0253,0.0474,9.8065,0.0028,-0.3675,0.1739,-26.69,-38.31,20.19,277.82,-85.74,156.1
21855,53.118114,-1.39407,179.65,21.12,4,116.38,22 / 23,3658114,2019-11-06 17:07:18:576,-2.1505,1.5569,8.6423,0.0044,0.0079,9.8066,-0.1031,-0.0984,0.0765,-24.56,-38.06,19.63,276.26,-85.74,152.65
21856,53.118114,-1.39407,179.65,21.12,4,116.38,22 / 23,3658213,2019-11-06 17:07:18:675,1.2186,3.9698,9.6151,0.0281,0.0229,9.8066,0.0016,-0.4146,0.3496,-24.94,-38.25,19.81,276.17,-85.82,152.47
21857,53.118114,-1.39407,179.65,21.12,4,116.38,22 / 23,3658313,2019-11-06 17:07:18:775,0.9541,0.8048,9.9512,-0.0247,-0.0186,9.8065,0.1505,-0.2783,0.0801,-26.12,-39.0,19.38,280.3,-85.94,159.02
21858,53.118114,-1.39407,179.65,21.12,4,116.38,22 / 23,3658414,2019-11-06 17:07:18:876,-0.0515,1.8091,8.9394,-0.0351,0.0453,9.8064,0.0663,-0.3744,0.1629,-31.87,-39.81,20.06,280.57,-85.92,162.85
21859,53.118114,-1.39407,179.65,21.12,4,116.38,22 / 23,3658513,2019-11-06 17:07:18:975,-1.3694,-0.6687,8.7094,0.0066,0.0258,9.8066,-0.1274,-0.2321,0.0779,-34.0,-38.94,51.88,304.91,-86.31,160.05
21860,53.118114,-1.39407,179.65,21.12,4,116.38,22 / 23,3658613,2019-11-06 17:07:19:075,-0.9288,1.2219,8.7677,-0.0001,0.0246,9.8065,-0.0707,-0.1715,0.0847,-22.56,-35.56,30.06,297.06,-86.69,157.39
21861,53.118114,-1.39407,179.65,21.12,4,116.38,22 / 23,3658713,2019-11-06 17:07:19:175,-2.5022,0.2367,9.0768,0.0166,0.0219,9.8066,-0.0483,-0.23,0.1544,-22.37,-36.75,23.63,288.75,-86.86,154.67
21862,53.118114,-1.39407,179.65,21.12,4,116.38,22 / 23,3658813,2019-11-06 17:07:19:275,0.9826,2.7445,10.1619,0.0234,0.0149,9.8066,-0.0275,-0.2432,0.129,-22.44,-37.31,21.56,286.13,-86.87,154.73
21863,53.118114,-1.39407,179.65,21.12,4,116.38,23 / 24,3658913,2019-11-06 17:07:19:375,0.1742,0.5567,11.2509,0.0208,0.0142,9.8066,0.061,-0.2004,0.1783,-23.12,-37.25,20.88,286.41,-86.83,157.66
21864,53.118114,-1.39407,179.65,21.12,4,116.38,23 / 24,3659014,2019-11-06 17:07:19:476,-0.9345,1.3995,9.8797,0.0198,0.0408,9.8064,0.0015,-0.4311,0.1607,-23.0,-37.94,20.44,288.17,-86.71,161.1
21865,53.118114,-1.39407,179.65,21.12,4,116.38,23 / 24,3659114,2019-11-06 17:07:19:576,-3.1705,-1.1894,9.7185,-0.0074,0.0486,9.8064,0.0358,-0.2801,0.0977,-22.12,-37.06,22.75,286.03,-86.82,153.33
21866,53.118114,-1.39407,179.65,21.12,4,116.38,23 / 24,3659214,2019-11-06 17:07:19:676,0.1028,2.5727,9.6343,-0.0043,0.0177,9.8066,0.0787,-0.117,0.0361,-22.56,-35.81,27.06,288.32,-86.9,151.76
21867,53.118114,-1.39407,179.65,21.12,4,116.38,23 / 24,3659314,2019-11-06 17:07:19:776,-1.8291,-0.5065,10.4204,0.0096,0.0098,9.8066,0.1243,-0.3036,0.1475,-29.37,-38.0,47.44,299.32,-86.87,152.91
21868,53.118114,-1.39407,179.65,21.12,4,116.38,23 / 24,3659414,2019-11-06 17:07:19:876,0.7632,1.5302,10.046,-0.0049,-0.0042,9.8066,0.0576,-0.123,-0.0002,-31.69,-38.5,20.94,279.22,-86.8,159.11
21869,53.118114,-1.39407,179.65,21.12,4,116.38,23 / 24,3659514,2019-11-06 17:07:19:976,-2.0077,-1.8304,9.6169,0.0263,0.051,9.8064,-0.0031,-0.44,0.2459,-26.5,-37.75,19.19,281.5,-86.71,159.17
21870,53.118114,-1.39407,179.65,21.12,4,116.38,23 / 24,3659614,2019-11-06 17:07:20:076,-0.5226,1.2428,8.4692,0.0088,0.0353,9.8065,-0.06,-0.0161,0.0039,-25.56,-37.5,19.31,282.09,-86.86,159.48
21871,53.118114,-1.39407,179.65,21.12,4,116.38,23 / 24,3659714,2019-11-06 17:07:20:176,-1.7204,0.0088,10.2752,-0.0096,0.0379,9.8065,0.0586,-0.1604,-0.0299,-24.87,-37.75,19.06,273.59,-87.01,149.98
21872,53.118114,-1.39407,179.65,21.12,4,116.38,23 / 24,3659814,2019-11-06 17:07:20:276,-0.3388,1.7442,11.7664,0.026,0.0033,9.8066,0.1343,-0.079,-0.0004,-26.44,-38.62,19.19,268.6,-86.87,146.23
21873,53.11729,-1.391359,180.14,21.84,3,116.13,23 / 24,3659915,2019-11-06 17:07:20:377,-1.0064,1.2052,10.8331,-0.011,-0.015,9.8066,0.081,-0.0225,0.0083,-36.62,-40.37,23.56,270.77,-86.4,151.07
21874,53.11729,-1.391359,180.14,21.84,3,116.13,23 / 24,3660015,2019-11-06 17:07:20:477,-0.4426,-1.3601,9.5354,-0.0223,0.0035,9.8065,-0.0136,-0.1655,0.0955,-27.94,-37.37,48.19,303.82,-86.53,156.05
21875,53.11729,-1.391359,180.14,21.84,3,116.13,23 / 24,3660113,2019-11-06 17:07:20:575,-1.2852,-0.8377,9.103,-0.0411,-0.0098,9.8065,-0.0998,0.1656,-0.0828,-23.44,-35.69,28.13,295.39,-86.96,157.56
21876,53.11729,-1.391359,180.14,21.84,3,116.13,23 / 24,3660214,2019-11-06 17:07:20:676,-1.8382,-0.2283,9.7352,0.0026,0.0251,9.8066,-0.0687,-0.0403,0.062,-23.5,-36.25,22.69,290.58,-87.47,158.22
21877,53.11729,-1.391359,180.14,21.84,3,116.13,23 / 24,3660314,2019-11-06 17:07:20:776,-1.2921,1.3386,9.5695,0.0482,-0.0024,9.8065,-0.0337,0.2164,-0.0804,-23.19,-37.25,21.38,284.97,-87.5,155.46
21878,53.11729,-1.391359,180.14,21.84,3,116.13,23 / 24,3660414,2019-11-06 17:07:20:876,1.0108,1.3273,10.9351,0.023,0.0272,9.8066,0.1008,-0.046,-0.1939,-22.75,-37.25,20.88,277.91,-86.82,149.28
21879,53.11729,-1.391359,180.14,21.84,3,116.13,23 / 24,3660514,2019-11-06 17:07:20:976,-0.3122,0.0041,10.3321,0.0011,0.0108,9.8066,-0.0712,0.1516,-0.1319,-21.94,-37.0,21.44,269.92,-86.48,140.54
21880,53.11729,-1.391359,180.14,21.84,3,116.13,23 / 24,3660613,2019-11-06 17:07:21:075,0.1941,0.1039,10.8905,0.0059,0.0218,9.8065,0.0044,-0.0397,0.0862,-21.62,-36.87,23.38,268.4,-86.52,136.18
21881,53.11729,-1.391359,180.14,21.84,3,116.13,23 / 24,3660713,2019-11-06 17:07:21:175,-0.2721,0.4862,9.139,-0.0334,-0.0254,9.8065,0.0601,0.2382,-0.1039,-22.44,-35.19,28.81,276.65,-86.66,137.04
21882,53.11729,-1.391359,180.14,21.84,3,116.13,23 / 24,3660813,2019-11-06 17:07:21:275,2.6085,1.3255,10.1845,-0.0321,-0.0008,9.8065,-0.008,0.1887,-0.0229,-41.5,-42.0,41.38,274.54,-86.91,141.78
21883,53.11729,-1.391359,180.14,21.84,3,116.13,22 / 22,3660914,2019-11-06 17:07:21:376,1.7443,1.3376,10.3353,-0.0253,-0.033,9.8065,0.0435,0.1912,-0.1637,-29.06,-38.37,19.5,265.78,-87.02,144.39
21884,53.11729,-1.391359,180.14,21.84,3,116.13,22 / 22,3661013,2019-11-06 17:07:21:475,-0.2861,1.2421,8.4592,0.0195,0.0103,9.8065,-0.1463,0.1397,0.1312,-26.25,-38.87,18.75,268.85,-87.17,146.12
21885,53.11729,-1.391359,180.14,21.84,3,116.13,22 / 22,3661114,2019-11-06 17:07:21:576,-1.4096,-1.1718,9.8884,-0.0292,-0.0315,9.8065,-0.0873,0.2208,-0.0351,-25.19,-38.31,18.69,277.7,-87.67,153.27
21886,53.11729,-1.391359,180.14,21.84,3,116.13,22 / 22,3661214,2019-11-06 17:07:21:676,0.075,-0.8501,9.2375,-0.0402,-0.0253,9.8065,0.0567,0.1426,-0.1261,-25.94,-38.0,18.81,277.66,-87.93,153.93
21887,53.11729,-1.391359,180.14,21.84,3,116.13,22 / 22,3661314,2019-11-06 17:07:21:776,0.2736,-1.4955,9.9375,-0.0043,0.0192,9.8065,-0.0245,0.1303,-0.1046,-28.25,-38.75,19.0,273.09,-87.84,151.41
21888,53.11729,-1.391359,180.14,21.84,3,116.13,22 / 22,3661413,2019-11-06 17:07:21:875,1.4374,2.4156,8.8565,0.0144,0.0123,9.8066,-0.0586,0.2997,-0.1977,-42.0,-42.5,43.88,275.07,-87.78,140.27
21889,53.11729,-1.391359,180.14,21.84,3,116.13,22 / 22,3661513,2019-11-06 17:07:21:975,1.4111,0.4592,9.6889,-0.025,-0.0325,9.8065,0.0259,0.0745,-0.1036,-23.06,-35.44,34.94,278.52,-87.64,133.78
21890,53.11729,-1.391359,180.14,21.84,3,116.13,22 / 22,3661613,2019-11-06 17:07:22:075,-0.6342,-1.1676,10.7308,-0.0072,-0.0113,9.8066,0.0623,-0.171,0.1064,-22.62,-36.06,25.38,277.77,-87.69,142.81
21891,53.11729,-1.391359,180.14,21.84,3,116.13,22 / 22,3661713,2019-11-06 17:07:22:175,-0.0293,-0.5994,10.5024,-0.0071,-0.0186,9.8066,-0.0022,0.0429,-0.0231,-23.19,-37.12,21.25,281.53,-87.86,151.63
21892,53.11729,-1.391359,180.14,21.84,3,116.13,22 / 22,3661813,2019-11-06 17:07:22:275,-0.2218,0.0733,8.9761,0.005,0.0236,9.8065,-0.006,-0.0718,0.1322,-23.44,-37.19,20.06,279.53,-88.0,150.92
21893,53.11729,-1.391359,180.14,21.84,3,116.13,23 / 23,3661915,2019-11-06 17:07:22:377,0.7032,0.186,9.7062,0.0015,0.0032,9.8066,-0.05,-0.0282,0.0927,-24.06,-37.0,20.19,283.34,-88.31,155.5
21894,53.11729,-1.391359,180.14,21.84,3,116.13,23 / 23,3662013,2019-11-06 17:07:22:475,-0.5961,-0.0865,10.0043,-0.0384,0.006,9.8065,0.0532,-0.032,0.0409,-24.06,-36.87,20.38,287.98,-88.66,159.69
21895,53.11729,-1.391359,180.14,21.84,3,116.13,23 / 23,3662113,2019-11-06 17:07:22:575,-1.85,0.0216,9.5281,-0.0296,-0.0021,9.8065,0.0396,0.0987,-0.065,-23.44,-35.19,24.19,300.38,-88.77,165.28
21896,53.11729,-1.391359,180.14,21.84,3,116.13,23 / 23,3662214,2019-11-06 17:07:22:676,-0.0936,0.3694,9.5709,-0.0103,0.0009,9.8066,0.0237,0.0718,-0.0414,-22.81,-34.56,32.44,311.23,-88.9,167.68
21897,53.11729,-1.391359,180.14,21.84,3,116.13,23 / 23,3662314,2019-11-06 17:07:22:776,0.8147,0.513,10.9689,0.0178,0.0098,9.8066,0.0684,-0.0424,0.026,-43.0,-41.25,31.81,286.96,-88.68,161.28
21898,53.11729,-1.391359,180.14,21.84,3,116.13,23 / 23,3662414,2019-11-06 17:07:22:876,0.8671,0.1276,8.7291,0.0247,0.0075,9.8065,-0.0423,-0.013,0.034,-29.0,-37.75,18.88,283.4,-88.57,161.7
21899,53.11729,-1.391359,180.14,21.84,3,116.13,23 / 23,3662514,2019-11-06 17:07:22:976,0.0827,0.5316,8.6977,0.0227,-0.0012,9.8066,-0.0649,0.0803,0.015,-26.37,-37.31,18.19,284.46,-88.6,161.36
21900,53.11729,-1.391359,180.14,21.84,3,116.13,23 / 23,3662614,2019-11-06 17:07:23:076,2.4971,0.1395,10.1305,-0.0285,-0.0097,9.8065,0.0845,0.0981,-0.1155,-26.5,-36.87,18.69,287.03,-88.54,162.48
21901,53.11729,-1.391359,180.14,21.84,3,116.13,23 / 23,3662714,2019-11-06 17:07:23:176,-3.3612,-0.1581,7.8224,-0.0627,0.0132,9.8064,0.1755,0.1937,-0.2476,-27.37,-37.19,18.06,281.21,-88.43,159.28
21902,53.11729,-1.391359,180.14,21.84,3,116.13,23 / 23,3662814,2019-11-06 17:07:23:276,-3.0169,-3.212,7.7945,0.0468,0.0357,9.8064,-0.2098,-0.1468,-0.0139,-29.62,-38.0,18.63,260.95,-88.43,140.25
21903,53.11729,-1.391359,180.14,21.84,3,116.13,22 / 23,3662914,2019-11-06 17:07:23:376,1.9919,1.2233,9.9423,0.0491,-0.0267,9.8064,-0.1865,0.3402,0.0364,-42.0,-40.44,46.38,269.58,-88.17,133.15
21904,53.11729,-1.391359,180.14,21.84,3,116.13,22 / 23,3663014,2019-11-06 17:07:23:476,2.1827,0.575,9.9521,-0.0156,-0.014,9.8066,0.097,0.0916,-0.0733,-23.06,-34.69,34.44,282.94,-88.46,138.3
21905,53.11729,-1.391359,180.14,21.84,3,116.13,22 / 23,3663114,2019-11-06 17:07:23:576,1.069,-0.0771,10.6885,-0.0404,-0.0367,9.8064,0.1316,0.2024,-0.1667,-22.87,-34.81,25.19,282.75,-88.28,147.11
21906,53.11729,-1.391359,180.14,21.84,3,116.13,22 / 23,3663213,2019-11-06 17:07:23:675,-1.0854,-1.257,10.8588,-0.0014,-0.0041,9.8066,0.1042,-0.0614,-0.0761,-23.5,-35.87,21.13,285.43,-88.09,155.17
21907,53.11729,-1.391359,180.14,21.84,3,116.13,22 / 23,3663314,2019-11-06 17:07:23:776,-2.4214,-2.4166,9.0943,-0.0401,-0.0264,9.8064,-0.0129,0.4291,-0.2669,-24.12,-36.94,19.5,276.15,-87.95,148.76
21908,53.11729,-1.391359,180.14,21.84,3,116.13,22 / 23,3663413,2019-11-06 17:07:23:875,-0.8497,0.374,8.6407,0.0127,0.0059,9.8066,-0.2116,0.228,-0.1061,-24.12,-37.31,19.5,272.32,-88.23,144.61
21909,53.11729,-1.391359,180.14,21.84,3,116.13,22 / 23,3663514,2019-11-06 17:07:23:976,0.1531,0.7323,8.3142,-0.003,-0.0303,9.8066,-0.1343,0.1203,-0.0199,-23.69,-36.69,20.19,269.44,-88.53,141.38
21910,53.11729,-1.391359,180.14,21.84,3,116.13,22 / 23,3663614,2019-11-06 17:07:24:076,1.0213,1.236,11.0232,-0.0257,-0.0021,9.8066,0.142,0.0553,-0.0533,-23.19,-36.25,22.94,279.45,-88.7,145.87
21911,53.11729,-1.391359,180.14,21.84,3,116.13,22 / 23,3663714,2019-11-06 17:07:24:176,2.1663,-0.2778,11.1735,-0.0352,-0.05,9.8064,0.0565,0.3283,-0.2433,-23.37,-34.81,30.31,291.35,-88.46,150.16
21912,53.11729,-1.391359,180.14,21.84,3,116.13,22 / 23,3663813,2019-11-06 17:07:24:275,0.528,1.9183,10.1783,0.0027,-0.0172,9.8066,-0.0867,0.3374,-0.0247,-43.81,-41.81,37.63,290.59,-88.35,160.9
21913,53.11729,-1.391359,180.14,21.84,3,116.13,22 / 22,3663914,2019-11-06 17:07:24:376,0.1646,-2.5011,10.2236,0.0014,-0.0282,9.8066,-0.0887,0.0884,-0.1159,-29.87,-38.62,19.06,282.52,-88.41,161.88
21914,53.11729,-1.391359,180.14,21.84,3,116.13,22 / 22,3664013,2019-11-06 17:07:24:475,1.8261,1.5219,8.6985,-0.0199,-0.0073,9.8066,0.0398,0.2545,-0.1087,-26.0,-38.56,18.88,286.14,-88.42,161.83
21915,53.11729,-1.391359,180.14,21.84,3,116.13,22 / 22,3664113,2019-11-06 17:07:24:575,-0.7166,-1.3277,9.6758,-0.0049,0.0013,9.8066,0.0246,-0.0763,0.0232,-25.5,-38.19,18.63,282.46,-88.33,157.2
21916,53.11729,-1.391359,180.14,21.84,3,116.13,22 / 22,3664214,2019-11-06 17:07:24:676,-0.3007,0.3404,9.0875,-0.0024,-0.0333,9.8065,-0.099,0.2178,-0.0953,-25.56,-38.87,18.06,283.84,-88.29,161.21
21917,53.11729,-1.391359,180.14,21.84,3,116.13,22 / 22,3664313,2019-11-06 17:07:24:775,-2.6466,-1.1791,10.0666,-0.007,-0.0093,9.8066,-0.0559,-0.1227,0.1125,-29.06,-38.94,18.75,279.5,-88.37,158.08
21918,53.11729,-1.391359,180.14,21.84,3,116.13,22 / 22,3664413,2019-11-06 17:07:24:875,0.8115,2.0635,9.5528,-0.0243,-0.0379,9.8064,-0.0479,0.1848,-0.0678,-43.0,-41.87,42.94,303.71,-88.52,169.57
21919,53.11729,-1.391359,180.14,21.84,3,116.13,22 / 22,3664514,2019-11-06 17:07:24:976,2.9823,-0.2848,10.2105,0.0239,-0.0009,9.8066,-0.0325,-0.3498,0.184,-24.06,-34.75,36.06,321.04,-88.54,175.48
21920,53.11729,-1.391359,180.14,21.84,3,116.13,22 / 22,3664614,2019-11-06 17:07:25:076,1.5273,0.3679,10.0535,-0.0174,0.0067,9.8066,0.0434,-0.0911,0.1449,-23.62,-35.62,25.38,316.7,-88.62,-178.47
21921,53.11729,-1.391359,180.14,21.84,3,116.13,22 / 22,3664714,2019-11-06 17:07:25:176,-1.84,0.905,10.1931,-0.0255,-0.0091,9.8065,0.1443,-0.0536,-0.007,-23.81,-36.37,21.06,331.91,-88.62,-158.54
21922,53.11729,-1.391359,180.14,21.84,3,116.13,22 / 22,3664814,2019-11-06 17:07:25:276,-0.0857,-0.5657,10.641,0.0047,-0.0272,9.8066,-0.0256,-0.0326,0.086,-24.25,-36.69,20.06,330.72,-88.39,-158.14
21923,53.11729,-1.391359,180.14,21.84,3,116.13,23 / 24,3664916,2019-11-06 17:07:25:378,-1.2795,0.0863,10.5205,0.0322,0.005,9.8065,-0.0742,-0.1671,0.1863,-24.87,-36.25,20.06,338.57,-88.25,-149.36
21924,53.11729,-1.391359,180.14,21.84,3,116.13,23 / 24,3665014,2019-11-06 17:07:25:476,-0.9652,-0.7151,10.9708,-0.0005,-0.0088,9.8066,0.0117,-0.1206,0.1585,-24.94,-35.81,20.94,343.6,-88.12,-145.84
21925,53.11729,-1.391359,180.14,21.84,3,116.13,23 / 24,3665114,2019-11-06 17:07:25:576,1.0934,1.7553,9.7784,-0.0001,0.0054,9.8066,0.068,-0.2228,0.0851,-24.25,-36.31,22.94,351.92,-87.9,-141.53
21926,53.11729,-1.391359,180.14,21.84,3,116.13,23 / 24,3665215,2019-11-06 17:07:25:677,-1.3171,-0.6188,9.1289,0.0101,-0.0051,9.8066,-0.0632,-0.1663,0.2296,-24.87,-34.81,29.94,2.16,-87.68,-138.11
21927,53.11729,-1.391359,180.14,21.84,3,116.13,23 / 24,3665314,2019-11-06 17:07:25:776,-0.8906,-0.0977,9.0606,-0.0008,-0.0202,9.8065,-0.1076,-0.1203,0.1563,-45.0,-40.44,37.69,2.99,-87.33,-127.29
21928,53.11729,-1.391359,180.14,21.84,3,116.13,23 / 24,3665413,2019-11-06 17:07:25:875,-1.8421,-0.9811,10.207,-0.0284,-0.0038,9.8066,0.1389,-0.0142,-0.022,-30.81,-37.31,19.25,0.99,-87.17,-120.57
21929,53.11729,-1.391359,180.14,21.84,3,116.13,23 / 24,3665513,2019-11-06 17:07:25:975,-0.9224,1.5466,9.3012,-0.0221,0.0143,9.8065,0.0824,0.0335,-0.0817,-27.87,-37.31,17.88,0.51,-87.19,-122.26
21930,53.11729,-1.391359,180.14,21.84,3,116.13,23 / 24,3665613,2019-11-06 17:07:26:075,-0.9679,-0.5339,10.2266,-0.0307,0.0083,9.8065,0.0953,-0.15,-0.0187,-27.56,-36.62,18.81,0.89,-87.23,-123.32
21931,53.11729,-1.391359,180.14,21.84,3,116.13,23 / 24,3665713,2019-11-06 17:07:26:175,-1.2622,0.1489,9.2708,-0.0239,0.0177,9.8066,0.232,0.0665,-0.1437,-28.37,-37.75,18.69,0.26,-87.11,-123.92
21932,53.11729,-1.391359,180.14,21.84,3,116.13,23 / 24,3665814,2019-11-06 17:07:26:276,0.0027,-1.4718,8.5846,0.0559,0.0281,9.8064,-0.0133,0.0793,-0.0841,-32.25,-37.94,18.69,350.11,-87.24,-130.09
21933,53.11729,-1.391359,180.14,21.84,3,116.13,22 / 23,3665915,2019-11-06 17:07:26:377,4.655,2.44,12.3947,0.0608,-0.0172,9.8064,-0.4011,-0.1777,-0.083,-44.56,-41.56,39.94,358.72,-87.47,-132.87
21934,53.11729,-1.391359,180.14,21.84,3,116.13,22 / 23,3666014,2019-11-06 17:07:26:476,-5.8882,1.1283,12.3238,0.0973,0.0567,9.806,0.1856,-0.7233,0.6203,-25.19,-34.69,40.56,10.03,-87.71,-138.9
21935,53.11729,-1.391359,180.14,21.84,3,116.13,22 / 23,3666114,2019-11-06 17:07:26:576,2.1565,2.7575,7.9906,0.0671,-0.0111,9.8064,-0.0632,0.1926,0.0325,-25.12,-35.31,25.19,352.82,-87.17,-141.82
21936,53.11729,-1.391359,180.14,21.84,3,116.13,22 / 23,3666213,2019-11-06 17:07:26:675,0.0529,-0.6086,10.2041,-0.0562,0.0646,9.8062,0.2222,-0.2161,-0.1129,-24.56,-36.37,22.44,351.07,-87.31,-139.82
21937,53.11729,-1.391359,180.14,21.84,3,116.13,22 / 23,3666313,2019-11-06 17:07:26:775,-3.5865,1.0939,7.3031,-0.0775,0.0034,9.8063,0.1866,0.2724,-0.279,-24.87,-36.94,20.38,345.17,-87.45,-142.72
21938,53.11729,-1.391359,180.14,21.84,3,116.13,22 / 23,3666413,2019-11-06 17:07:26:875,-3.3997,-3.674,9.9477,0.0425,0.0568,9.8063,0.0978,-0.2741,0.0467,-25.31,-36.75,20.63,342.77,-87.62,-146.45
21939,53.11729,-1.391359,180.14,21.84,3,116.13,22 / 23,3666513,2019-11-06 17:07:26:975,0.3176,2.8136,11.2444,0.0504,-0.0236,9.8064,0.0533,0.3661,-0.2731,-24.06,-36.19,20.75,331.5,-87.29,-158.2
21940,53.11729,-1.391359,180.14,21.84,3,116.13,22 / 23,3666614,2019-11-06 17:07:27:076,0.4581,5.7783,9.6521,0.0375,0.0325,9.8065,-0.0809,0.0857,-0.0091,-23.62,-36.25,22.81,321.26,-86.94,-170.4
21941,53.11729,-1.391359,180.14,21.84,3,116.13,22 / 23,3666713,2019-11-06 17:07:27:175,0.2495,0.171,9.5877,-0.035,-0.0312,9.8065,0.0588,0.161,-0.0767,-23.69,-34.62,33.81,337.65,-86.86,-166.1
21942,53.11729,-1.391359,180.14,21.84,3,116.13,22 / 23,3666814,2019-11-06 17:07:27:276,-0.7541,2.0841,9.4448,-0.031,-0.003,9.8066,0.0176,0.0709,-0.0804,-42.12,-41.0,43.75,329.76,-86.78,-165.44
21943,53.11729,-1.391359,180.14,21.84,3,116.13,23 / 23,3666915,2019-11-06 17:07:27:377,-4.7243,-1.1135,10.0637,-0.0428,-0.0421,9.8064,0.0289,0.2693,-0.3016,-32.12,-38.31,20.25,313.32,-86.73,-166.24
21944,53.11729,-1.391359,180.14,21.84,3,116.13,23 / 23,3667013,2019-11-06 17:07:27:475,-2.4838,-0.2138,9.792,0.0515,0.0115,9.8065,-0.1618,0.1413,-0.004,-27.62,-37.81,19.88,317.48,-86.83,-165.65
21945,53.11729,-1.391359,180.14,21.84,3,116.13,23 / 23,3667113,2019-11-06 17:07:27:575,-1.2332,-0.8878,11.2409,0.0569,-0.0174,9.8064,-0.1645,0.1104,0.103,-26.5,-37.0,20.69,317.72,-86.76,-168.75
21946,53.11729,-1.391359,180.14,21.84,3,116.13,23 / 23,3667214,2019-11-06 17:07:27:676,-1.6415,0.3164,9.4938,-0.0092,-0.0403,9.8065,-0.0936,0.2258,-0.1771,-26.69,-37.69,20.06,317.02,-86.65,-166.88
21947,53.11729,-1.391359,180.14,21.84,3,116.13,23 / 23,3667314,2019-11-06 17:07:27:776,-1.7949,-1.0089,8.8502,0.0226,-0.0138,9.8066,-0.0643,0.1461,-0.1123,-30.5,-38.06,19.88,309.59,-86.78,-171.43
21948,53.11729,-1.391359,180.14,21.84,3,116.13,23 / 23,3667414,2019-11-06 17:07:27:876,1.5933,2.4172,10.2786,-0.016,-0.0089,9.8066,0.0772,0.3549,-0.2064,-42.87,-41.62,33.44,309.0,-86.86,-176.57
21949,53.11729,-1.391359,180.14,21.84,3,116.13,23 / 23,3667514,2019-11-06 17:07:27:976,-2.6138,1.0491,9.8748,-0.0209,0.0123,9.8065,0.109,0.0402,-0.1326,-27.25,-35.62,46.5,328.12,-86.72,179.19
21950,53.11729,-1.391359,180.14,21.84,3,116.13,23 / 23,3667614,2019-11-06 17:07:28:076,1.493,2.9122,8.6165,0.0183,-0.0431,9.8065,-0.1301,0.3699,-0.1509,-23.5,-35.5,26.06,312.51,-86.59,176.59
21951,53.11729,-1.391359,180.14,21.84,3,116.13,23 / 23,3667714,2019-11-06 17:07:28:176,0.5901,0.002,10.2632,0.0077,0.0476,9.8064,-0.0646,-0.0656,-0.0114,-23.25,-36.62,22.5,303.2,-86.58,171.51
21952,53.11729,-1.391359,180.14,21.84,3,116.13,23 / 23,3667814,2019-11-06 17:07:28:276,-0.952,2.7012,8.0998,0.0098,-0.0063,9.8065,-0.2587,0.5452,-0.0942,-23.62,-37.12,20.31,291.35,-86.86,165.04
21953,53.11729,-1.391359,180.14,21.84,3,116.13,23 / 24,3667914,2019-11-06 17:07:28:376,-4.3373,-1.3463,8.3781,0.0281,-0.0122,9.8066,-0.1118,-0.2984,0.4096,-23.87,-36.44,20.94,295.24,-86.95,167.21
21954,53.11729,-1.391359,180.14,21.84,3,116.13,23 / 24,3668014,2019-11-06 17:07:28:476,0.9779,-0.6217,10.4802,-0.0716,-0.0559,9.8061,0.1033,0.0126,-0.0876,-23.44,-36.56,21.06,311.26,-87.1,-178.51
21955,53.11729,-1.391359,180.14,21.84,3,116.13,23 / 24,3668114,2019-11-06 17:07:28:576,-1.1727,0.9842,9.373,-0.013,0.0296,9.8065,0.1212,-0.1467,0.039,-23.5,-37.19,21.31,312.04,-87.0,-177.67
21956,53.11729,-1.391359,180.14,21.84,3,116.13,23 / 24,3668213,2019-11-06 17:07:28:675,1.6374,2.729,9.6992,0.0252,-0.0017,9.8065,-0.1274,0.103,-0.0505,-23.25,-35.94,29.0,317.17,-87.17,177.49
21957,53.11729,-1.391359,180.14,21.84,3,116.13,23 / 24,3668314,2019-11-06 17:07:28:776,1.9845,2.1649,8.8381,0.0253,0.0648,9.8063,0.0646,-0.4177,0.148,-34.31,-40.06,49.06,318.31,-87.44,174.24
21958,53.11729,-1.391359,180.14,21.84,3,116.13,23 / 24,3668414,2019-11-06 17:07:28:876,-0.2844,-2.5973,10.085,0.0096,0.0279,9.8065,0.0445,-0.4932,0.1662,-35.19,-40.19,22.25,284.96,-87.55,165.12
21959,53.11729,-1.391359,180.14,21.84,3,116.13,23 / 24,3668514,2019-11-06 17:07:28:976,0.0951,-0.1674,9.2289,-0.0101,0.0273,9.8065,-0.0159,-0.3769,0.1874,-26.5,-38.0,18.56,288.78,-87.82,165.06
21960,53.11729,-1.391359,180.14,21.84,3,116.13,23 / 24,3668614,2019-11-06 17:07:29:076,-3.0119,-5.615,7.5876,0.038,0.1016,9.806,-0.2683,-0.8163,0.3294,-24.94,-37.56,18.63,281.94,-88.17,156.88
21961,53.11729,-1.391359,180.14,21.84,3,116.13,23 / 24,3668714,2019-11-06 17:07:29:176,5.8579,-0.9222,11.4613,0.0656,-0.0432,9.8063,-0.1618,0.0142,-0.2027,-25.87,-37.75,18.44,271.28,-88.42,148.49
21962,53.11729,-1.391359,180.14,21.84,3,116.13,23 / 24,3668814,2019-11-06 17:07:29:276,-1.7823,-6.8474,11.1208,0.0501,0.1254,9.8057,0.2878,-1.0076,0.6358,-27.31,-38.37,18.88,274.22,-87.8,151.61
21963,53.116447,-1.388615,179.32,22.81,3,116.99,23 / 23,3668914,2019-11-06 17:07:29:376,-4.2571,-6.342,11.55,-0.0237,-0.0095,9.8066,-0.0494,0.3676,-0.3014,-31.69,-39.19,20.0,281.84,-87.72,162.15
21964,53.116447,-1.388615,179.32,22.81,3,116.99,23 / 23,3669014,2019-11-06 17:07:29:476,-5.5496,-3.4257,10.3909,0.0598,0.0807,9.806,0.0859,-0.4463,0.2513,-31.31,-38.44,51.56,303.15,-87.79,155.13
21965,53.116447,-1.388615,179.32,22.81,3,116.99,23 / 23,3669114,2019-11-06 17:07:29:576,1.4368,2.7926,10.4029,-0.0209,-0.0396,9.8065,0.0102,0.4903,-0.3428,-23.19,-35.06,29.63,297.71,-87.67,157.11
21966,53.116447,-1.388615,179.32,22.81,3,116.99,23 / 23,3669214,2019-11-06 17:07:29:676,1.3886,3.3888,11.0515,0.0524,0.0335,9.8064,0.0857,-0.1865,0.1039,-23.0,-35.87,23.88,291.38,-87.31,157.9
21967,53.116447,-1.388615,179.32,22.81,3,116.99,23 / 23,3669313,2019-11-06 17:07:29:775,3.6716,2.5041,10.4461,-0.0124,-0.0641,9.8064,0.012,0.8015,-0.382,-23.62,-37.06,21.56,295.8,-86.99,166.4
21968,53.116447,-1.388615,179.32,22.81,3,116.99,23 / 23,3669413,2019-11-06 17:07:29:875,-1.0848,3.8395,8.2279,0.0141,-0.0248,9.8066,-0.1218,0.3658,-0.2561,-23.19,-37.31,21.75,292.24,-86.77,162.03
21969,53.116447,-1.388615,179.32,22.81,3,116.99,23 / 23,3669513,2019-11-06 17:07:29:975,-3.0847,-4.5656,8.5034,-0.0489,-0.0437,9.8064,-0.0948,0.6975,-0.3346,-23.31,-37.87,21.5,284.58,-86.86,154.5
21970,53.116447,-1.388615,179.32,22.81,3,116.99,23 / 23,3669613,2019-11-06 17:07:30:075,-1.3236,-0.6723,9.4111,-0.0123,-0.0159,9.8065,-0.0488,0.3376,-0.2551,-22.25,-36.62,22.13,286.21,-87.11,154.53
21971,53.116447,-1.388615,179.32,22.81,3,116.99,23 / 23,3669713,2019-11-06 17:07:30:175,-2.3485,-1.7888,10.105,-0.0192,-0.051,9.8065,0.0036,0.5041,-0.1609,-22.06,-35.81,25.44,286.9,-86.95,151.42
21972,53.116447,-1.388615,179.32,22.81,3,116.99,23 / 23,3669814,2019-11-06 17:07:30:276,2.4815,1.7147,10.4363,-0.0331,-0.0504,9.8064,0.0098,0.4229,-0.2513,-23.0,-35.87,41.13,308.24,-86.79,159.5
21973,53.116447,-1.388615,179.32,22.81,3,116.99,23 / 23,3669914,2019-11-06 17:07:30:376,0.9203,1.4071,10.7776,-0.0119,-0.0333,9.8066,0.0123,0.3099,-0.2076,-37.06,-39.87,24.19,282.58,-86.63,162.62
21974,53.116447,-1.388615,179.32,22.81,3,116.99,23 / 23,3670013,2019-11-06 17:07:30:475,-0.7314,0.7407,9.0655,-0.002,0.0064,9.8066,-0.0948,0.1775,-0.099,-27.75,-38.25,19.63,280.76,-86.57,158.96
21975,53.116447,-1.388615,179.32,22.81,3,116.99,23 / 23,3670113,2019-11-06 17:07:30:575,-1.17,-0.8874,10.6585,0.0183,-0.0216,9.8066,-0.1473,0.2577,-0.1623,-24.94,-37.31,19.69,279.18,-86.59,154.44
21976,53.116447,-1.388615,179.32,22.81,3,116.99,23 / 23,3670213,2019-11-06 17:07:30:675,-0.5496,0.8096,9.7304,0.0071,0.019,9.8066,-0.0568,0.0612,0.0471,-24.75,-37.5,19.94,277.54,-86.56,152.84
21977,53.116447,-1.388615,179.32,22.81,3,116.99,23 / 23,3670314,2019-11-06 17:07:30:776,-1.7329,1.0603,8.1022,-0.0198,0.0123,9.8065,0.0239,0.1469,-0.1,-25.94,-37.94,19.38,273.61,-86.71,151.34
21978,53.116447,-1.388615,179.32,22.81,3,116.99,23 / 23,3670413,2019-11-06 17:07:30:875,0.6197,1.5945,10.9845,-0.0203,0.0013,9.8065,0.098,0.1341,-0.1572,-30.25,-38.69,19.81,268.59,-86.71,148.47
21979,53.116447,-1.388615,179.32,22.81,3,116.99,23 / 23,3670513,2019-11-06 17:07:30:975,-0.0242,0.2494,11.3624,-0.0349,-0.0028,9.8066,0.1473,0.0088,-0.0588,-36.62,-39.94,52.19,290.58,-86.73,147.96
21980,53.116447,-1.388615,179.32,22.81,3,116.99,23 / 23,3670613,2019-11-06 17:07:31:075,-0.1847,1.4958,10.2735,-0.0015,-0.0343,9.8066,-0.0719,0.0859,0.0668,-22.75,-35.0,33.06,293.61,-86.59,151.24
21981,53.116447,-1.388615,179.32,22.81,3,116.99,23 / 23,3670713,2019-11-06 17:07:31:175,0.3386,0.0396,10.8141,0.0046,-0.0175,9.8065,-0.0598,-0.0465,0.0824,-22.06,-36.25,25.63,292.8,-86.74,156.26
21982,53.116447,-1.388615,179.32,22.81,3,116.99,23 / 23,3670813,2019-11-06 17:07:31:275,-2.7338,1.5839,8.2626,-0.0222,-0.0073,9.8066,0.0278,-0.0897,0.0866,-23.44,-36.12,21.31,290.1,-86.83,161.17
21983,53.116447,-1.388615,179.32,22.81,3,116.99,24 / 24,3670914,2019-11-06 17:07:31:376,1.0022,1.1281,7.6747,-0.0291,0.0095,9.8066,-0.0527,-0.1892,0.2442,-23.75,-36.87,21.06,295.07,-87.0,167.07
21984,53.116447,-1.388615,179.32,22.81,3,116.99,24 / 24,3671014,2019-11-06 17:07:31:476,-2.53,-0.8343,11.3283,-0.0594,-0.0187,9.8064,0.1385,-0.1919,0.0787,-24.25,-37.06,21.13,308.74,-87.41,179.92
21985,53.116447,-1.388615,179.32,22.81,3,116.99,24 / 24,3671114,2019-11-06 17:07:31:576,-0.0571,1.2076,12.0889,-0.0066,-0.0025,9.8066,0.1785,0.0179,-0.0964,-23.81,-36.25,21.81,315.27,-87.21,-175.03
21986,53.116447,-1.388615,179.32,22.81,3,116.99,24 / 24,3671214,2019-11-06 17:07:31:676,-1.0321,0.0267,9.029,0.0686,-0.0003,9.8063,-0.0952,0.0405,0.0356,-23.37,-35.5,24.63,314.6,-86.76,179.64
21987,53.116447,-1.388615,179.32,22.81,3,116.99,24 / 24,3671314,2019-11-06 17:07:31:776,1.1864,0.7038,9.8336,0.0341,0.0262,9.8065,-0.1759,0.0161,0.0532,-23.0,-34.81,32.56,319.54,-86.93,176.19
21988,53.116447,-1.388615,179.32,22.81,3,116.99,24 / 24,3671414,2019-11-06 17:07:31:876,0.4065,0.5625,9.4589,0.0045,0.0301,9.8066,0.0163,-0.0131,-0.0073,-43.87,-42.0,35.5,296.65,-87.21,169.23
21989,53.116447,-1.388615,179.32,22.81,3,116.99,24 / 24,3671513,2019-11-06 17:07:31:975,-1.5136,0.5306,9.3694,-0.01,-0.0172,9.8066,0.1012,0.2027,-0.0695,-29.75,-38.19,19.38,287.25,-87.25,167.74
21990,53.116447,-1.388615,179.32,22.81,3,116.99,24 / 24,3671613,2019-11-06 17:07:32:075,0.0697,2.384,11.2953,-0.0021,-0.0341,9.8065,0.064,0.0993,-0.0772,-26.62,-38.0,19.19,294.55,-87.0,172.59
21991,53.116447,-1.388615,179.32,22.81,3,116.99,24 / 24,3671713,2019-11-06 17:07:32:175,0.8736,1.703,11.4993,-0.014,-0.0324,9.8065,0.0603,0.0839,-0.1033,-26.19,-37.56,19.25,301.19,-86.77,178.34
21992,53.116447,-1.388615,179.32,22.81,3,116.99,24 / 24,3671813,2019-11-06 17:07:32:275,-0.0142,-1.134,9.6191,0.0281,0.0092,9.8065,-0.0833,-0.113,0.1362,-26.81,-37.5,19.31,299.56,-86.67,177.72
21993,53.116447,-1.388615,179.32,22.81,3,116.99,22 / 24,3671914,2019-11-06 17:07:32:376,-0.9655,-0.7254,9.8937,-0.019,-0.0219,9.8065,-0.0482,0.1352,-0.1469,-29.19,-38.44,19.63,302.75,-86.89,-178.98
21994,53.116447,-1.388615,179.32,22.81,3,116.99,22 / 24,3672014,2019-11-06 17:07:32:476,-0.6835,-1.1155,8.7332,0.0214,0.0058,9.8066,-0.0163,-0.151,0.2215,-42.81,-40.81,33.38,310.48,-86.9,-175.2
21995,53.116447,-1.388615,179.32,22.81,3,116.99,22 / 24,3672114,2019-11-06 17:07:32:576,0.2979,0.8668,8.8838,0.0034,-0.0164,9.8066,-0.1127,0.0556,0.0351,-24.12,-35.25,36.69,336.61,-86.81,-169.38
21996,53.116447,-1.388615,179.32,22.81,3,116.99,22 / 24,3672213,2019-11-06 17:07:32:675,1.9352,-0.8499,10.727,-0.0111,0.0205,9.8066,0.0172,0.0498,-0.0045,-24.37,-34.94,26.75,329.8,-87.0,-167.07
21997,53.116447,-1.388615,179.32,22.81,3,116.99,22 / 24,3672313,2019-11-06 17:07:32:775,-2.6899,-2.3355,9.3814,-0.0214,-0.0043,9.8065,0.0148,0.3663,-0.2271,-23.37,-35.81,23.13,325.03,-87.03,-168.05
21998,53.116447,-1.388615,179.32,22.81,3,116.99,22 / 24,3672414,2019-11-06 17:07:32:876,-2.4503,1.1677,8.6193,-0.0283,-0.0089,9.8065,-0.0563,0.2608,-0.2515,-24.19,-36.87,20.81,317.31,-87.34,-171.75
21999,53.116447,-1.388615,179.32,22.81,3,116.99,22 / 24,3672514,2019-11-06 17:07:32:976,-0.7641,-0.2192,10.9317,-0.0132,-0.0388,9.8065,0.0215,0.2768,-0.1342,-24.87,-37.19,20.69,311.31,-87.53,-176.59
22000,53.116447,-1.388615,179.32,22.81,3,116.99,22 / 24,3672613,2019-11-06 17:07:33:075,0.6341,2.2574,9.9089,0.0263,-0.0434,9.8065,-0.079,0.3054,-0.0763,-23.94,-35.75,21.0,318.16,-87.26,-170.93
22001,53.116447,-1.388615,179.32,22.81,3,116.99,22 / 24,3672713,2019-11-06 17:07:33:175,-1.053,-1.7349,9.9605,0.0339,-0.0516,9.8064,-0.0792,0.0769,0.0708,-23.94,-36.31,24.13,323.56,-86.81,-169.39
22002,53.116447,-1.388615,179.32,22.81,3,116.99,22 / 24,3672815,2019-11-06 17:07:33:277,2.3825,0.3423,10.5263,-0.0354,-0.0219,9.8066,-0.0043,0.1953,-0.1564,-24.12,-35.19,30.19,333.68,-86.87,-166.36
22003,53.116447,-1.388615,179.32,22.81,3,116.99,23 / 23,3672915,2019-11-06 17:07:33:377,-1.854,-0.2476,8.8949,0.0082,0.0195,9.8066,0.0715,0.0189,-0.0757,-36.44,-39.94,49.69,331.88,-86.98,-171.41
22004,53.116447,-1.388615,179.32,22.81,3,116.99,23 / 23,3673013,2019-11-06 17:07:33:475,0.3311,1.1969,7.5579,0.0571,0.0303,9.8064,0.0589,0.1972,-0.2527,-34.0,-38.62,21.13,307.79,-87.17,-171.69
22005,53.116447,-1.388615,179.32,22.81,3,116.99,23 / 23,3673113,2019-11-06 17:07:33:575,-0.0348,0.3689,9.2385,-0.0009,0.0307,9.8066,0.061,-0.2001,-0.0181,-26.69,-37.56,19.56,303.58,-87.17,179.75
22006,53.116447,-1.388615,179.32,22.81,3,116.99,23 / 23,3673214,2019-11-06 17:07:33:676,1.492,1.7986,9.9217,-0.0335,0.0346,9.8065,-0.094,0.17,0.0116,-26.44,-37.69,19.19,300.27,-87.08,177.12
22007,53.116447,-1.388615,179.32,22.81,3,116.99,23 / 23,3673314,2019-11-06 17:07:33:776,-1.0767,-1.2392,10.689,0.007,-0.0045,9.8066,0.0803,-0.3233,0.1229,-26.0,-37.81,18.88,301.06,-87.43,177.52
22008,53.116447,-1.388615,179.32,22.81,3,116.99,23 / 23,3673414,2019-11-06 17:07:33:876,-2.0125,0.1264,11.9669,-0.0457,-0.025,9.8065,0.1011,0.1164,0.0127,-28.44,-37.94,19.13,304.52,-87.37,-177.18
22009,53.116447,-1.388615,179.32,22.81,3,116.99,23 / 23,3673514,2019-11-06 17:07:33:976,-0.7837,-2.8335,11.5064,-0.0181,-0.0021,9.8065,0.158,-0.1692,0.0884,-36.25,-39.37,22.25,307.16,-87.07,-172.07
22010,53.116447,-1.388615,179.32,22.81,3,116.99,23 / 23,3673614,2019-11-06 17:07:34:076,-0.1884,3.719,8.5653,-0.0105,-0.0515,9.8064,-0.0399,0.2993,-0.1007,-29.5,-36.69,49.38,339.49,-86.8,-169.13
22011,53.116447,-1.388615,179.32,22.81,3,116.99,23 / 23,3673714,2019-11-06 17:07:34:176,1.5157,0.2647,7.9445,-0.0328,0.0106,9.8066,0.0417,-0.2031,0.0967,-24.06,-34.75,29.38,331.3,-86.84,-167.64
22012,53.116447,-1.388615,179.32,22.81,3,116.99,23 / 23,3673814,2019-11-06 17:07:34:276,-2.1115,0.232,8.6211,-0.0038,-0.0279,9.8066,0.0327,-0.067,-0.0166,-24.94,-35.44,23.88,329.67,-86.77,-162.47
22013,53.116447,-1.388615,179.32,22.81,3,116.99,23 / 23,3673914,2019-11-06 17:07:34:376,0.7005,-0.2324,10.6323,-0.0194,0.0035,9.8066,-0.0171,-0.1655,-0.0549,-24.44,-35.81,21.13,326.42,-86.89,-162.79
22014,53.116447,-1.388615,179.32,22.81,3,116.99,23 / 23,3674014,2019-11-06 17:07:34:476,-2.0591,-2.1736,9.5432,0.0355,0.0314,9.8065,-0.0596,-0.2037,0.2623,-24.87,-36.0,20.69,322.41,-87.01,-165.57
22015,53.116447,-1.388615,179.32,22.81,3,116.99,23 / 23,3674114,2019-11-06 17:07:34:576,-2.2576,2.007,8.9599,0.0148,0.0429,9.8065,-0.1382,-0.1269,0.1296,-24.75,-37.19,21.13,327.32,-87.16,-160.94
22016,53.116447,-1.388615,179.32,22.81,3,116.99,23 / 23,3674213,2019-11-06 17:07:34:675,0.8166,-0.3347,12.4976,-0.0254,0.0236,9.8065,0.2375,-0.1049,-0.0307,-24.12,-36.06,21.13,326.28,-87.45,-163.28
22017,53.116447,-1.388615,179.32,22.81,3,116.99,23 / 23,3674313,2019-11-06 17:07:34:775,1.394,-0.0172,8.6731,-0.0228,-0.002,9.8065,0.2395,-0.048,-0.097,-24.12,-35.56,25.44,326.39,-86.99,-168.02
22018,53.116447,-1.388615,179.32,22.81,3,116.99,23 / 23,3674413,2019-11-06 17:07:34:875,-3.335,1.2133,7.9236,0.0156,-0.0126,9.8066,-0.1335,-0.1388,0.0774,-23.56,-35.19,37.38,338.9,-86.78,-167.18
22019,53.116447,-1.388615,179.32,22.81,3,116.99,23 / 23,3674513,2019-11-06 17:07:34:975,0.6255,2.9487,11.4434,0.0227,-0.0236,9.8066,-0.0484,0.1663,-0.0013,-41.5,-39.87,27.0,319.41,-86.76,-162.2
22020,53.116447,-1.388615,179.32,22.81,3,116.99,23 / 23,3674613,2019-11-06 17:07:35:075,-2.3691,-0.6982,8.6359,0.0844,0.012,9.8062,-0.0589,-0.2312,0.1741,-29.5,-37.25,19.75,318.55,-86.49,-163.55
22021,53.116447,-1.388615,179.32,22.81,3,116.99,23 / 23,3674714,2019-11-06 17:07:35:176,-1.2725,0.9573,8.2923,0.0545,0.026,9.8064,-0.2116,0.0089,0.0734,-27.25,-37.25,19.94,319.44,-86.51,-164.53
22022,53.116447,-1.388615,179.32,22.81,3,116.99,23 / 23,3674814,2019-11-06 17:07:35:276,0.9272,0.8608,10.197,-0.0595,0.0259,9.8063,0.1005,-0.0414,-0.1366,-26.75,-37.44,19.56,316.66,-86.88,-167.47
22023,53.116447,-1.388615,179.32,22.81,3,116.99,22 / 24,3674914,2019-11-06 17:07:35:376,-1.4501,1.8523,7.4024,-0.071,0.0025,9.8064,0.1751,-0.2485,-0.0802,-27.19,-37.87,18.81,312.65,-86.98,-169.88
22024,53.116447,-1.388615,179.32,22.81,3,116.99,22 / 24,3675014,2019-11-06 17:07:35:476,-2.2175,-2.8649,8.519,-0.0013,0.0047,9.8066,-0.1818,-0.212,0.2574,-31.06,-38.31,19.63,317.69,-87.27,-163.21
22025,53.116447,-1.388615,179.32,22.81,3,116.99,22 / 24,3675114,2019-11-06 17:07:35:576,-0.6303,-0.6775,11.1864,-0.0482,0.0135,9.8064,-0.1602,0.2648,-0.0534,-42.56,-40.25,47.38,332.38,-87.21,-164.33
22026,53.116447,-1.388615,179.32,22.81,3,116.99,22 / 24,3675214,2019-11-06 17:07:35:676,-0.6292,2.8123,9.6214,-0.0019,0.0352,9.8065,-0.0766,-0.1328,-0.0203,-24.25,-34.44,35.5,337.64,-87.19,-167.81
22027,53.116447,-1.388615,179.32,22.81,3,116.99,22 / 24,3675314,2019-11-06 17:07:35:776,6.3924,2.2704,9.7291,-0.0319,-0.0575,9.8064,0.0731,0.3404,-0.1498,-24.5,-35.37,26.38,333.32,-87.07,-162.64
22028,53.116447,-1.388615,179.32,22.81,3,116.99,22 / 24,3675413,2019-11-06 17:07:35:875,-0.6451,0.9989,7.9368,-0.0313,0.0105,9.8065,-0.1781,-0.0071,0.1376,-24.62,-36.31,21.63,331.61,-87.02,-158.18
22029,53.116447,-1.388615,179.32,22.81,3,116.99,22 / 24,3675514,2019-11-06 17:07:35:976,-3.5993,-0.1412,10.7243,-0.0721,0.004,9.8063,-0.0795,0.2627,-0.2043,-25.19,-36.06,19.94,342.87,-87.06,-144.8
22030,53.116447,-1.388615,179.32,22.81,3,116.99,22 / 24,3675614,2019-11-06 17:07:36:076,-2.7066,-1.4704,11.7472,0.0081,0.014,9.8066,0.0481,-0.0321,0.1312,-25.44,-37.0,20.25,342.85,-87.03,-144.78
22031,53.116447,-1.388615,179.32,22.81,3,116.99,22 / 24,3675714,2019-11-06 17:07:36:176,-0.0224,0.1427,11.404,0.0129,0.014,9.8065,-0.0071,0.2602,-0.2501,-24.75,-36.31,20.88,336.95,-87.03,-151.77
22032,53.116447,-1.388615,179.32,22.81,3,116.99,22 / 24,3675814,2019-11-06 17:07:36:276,1.9537,2.1214,10.1587,0.05,0.0367,9.8064,0.0757,0.1169,-0.0271,-23.81,-35.81,23.25,330.73,-86.85,-161.35
22033,53.116447,-1.388615,179.32,22.81,3,116.99,23 / 23,3675914,2019-11-06 17:07:36:376,1.0584,0.4011,9.3917,-0.01,0.0177,9.8065,-0.0457,0.107,-0.0252,-24.06,-34.81,29.81,330.33,-86.99,-169.62
22034,53.116447,-1.388615,179.32,22.81,3,116.99,23 / 23,3676014,2019-11-06 17:07:36:476,-0.301,-1.2525,8.8275,-0.0013,-0.0014,9.8066,0.0425,-0.0456,0.028,-43.87,-41.69,42.13,328.72,-87.19,-163.91
22035,53.116447,-1.388615,179.32,22.81,3,116.99,23 / 23,3676113,2019-11-06 17:07:36:575,-1.5143,-0.1643,8.6244,-0.0209,0.0063,9.8066,0.0127,0.1188,-0.0948,-31.56,-38.25,19.63,319.11,-87.28,-161.07
22036,53.116447,-1.388615,179.32,22.81,3,116.99,23 / 23,3676213,2019-11-06 17:07:36:675,-1.7125,1.4589,9.3304,0.0072,0.0255,9.8065,-0.1026,0.1192,-0.0651,-28.06,-37.5,18.75,325.05,-87.43,-157.47
22037,53.116447,-1.388615,179.32,22.81,3,116.99,23 / 23,3676313,2019-11-06 17:07:36:775,-0.441,0.6706,10.1782,0.0051,-0.006,9.8065,0.011,-0.1269,0.0889,-26.87,-37.56,19.19,321.55,-87.46,-161.74
22038,53.116447,-1.388615,179.32,22.81,3,116.99,23 / 23,3676415,2019-11-06 17:07:36:877,-1.7159,0.5441,11.0916,-0.016,-0.0316,9.8065,0.0903,0.0798,-0.0449,-27.0,-37.62,18.81,314.22,-87.3,-168.66
22039,53.116447,-1.388615,179.32,22.81,3,116.99,23 / 23,3676513,2019-11-06 17:07:36:975,-3.4855,0.2696,11.8875,0.0561,0.0062,9.8065,0.0661,-0.1176,0.1091,-29.06,-38.44,19.31,309.89,-86.78,-170.58
22040,53.116447,-1.388615,179.32,22.81,3,116.99,23 / 23,3676614,2019-11-06 17:07:37:076,-0.8391,-0.9355,11.4037,0.0385,-0.012,9.8065,-0.0495,0.2952,-0.1685,-41.81,-41.0,28.63,309.72,-86.44,-172.65
22041,53.116447,-1.388615,179.32,22.81,3,116.99,23 / 23,3676714,2019-11-06 17:07:37:176,-0.5252,1.0321,8.4557,0.0175,-0.0066,9.8066,-0.0286,0.173,-0.0222,-30.37,-37.56,50.13,329.93,-86.18,-177.8
22042,53.116447,-1.388615,179.32,22.81,3,116.99,23 / 23,3676814,2019-11-06 17:07:37:276,-1.3766,1.1318,8.4748,-0.023,0.0161,9.8065,0.0086,-0.0756,0.0205,-24.37,-35.06,26.94,319.82,-86.36,-176.21
22043,53.116447,-1.388615,179.32,22.81,3,116.99,24 / 24,3676913,2019-11-06 17:07:37:375,-0.1849,2.9536,8.2819,-0.0164,-0.0083,9.8066,-0.1428,0.1877,-0.0441,-24.12,-35.5,22.69,316.54,-86.44,-174.61
22044,53.116447,-1.388615,179.32,22.81,3,116.99,24 / 24,3677014,2019-11-06 17:07:37:476,-1.0827,-0.1525,9.9498,-0.0155,-0.0117,9.8066,-0.03,0.034,0.0886,-24.56,-36.81,21.06,317.23,-86.73,-170.24
22045,53.116447,-1.388615,179.32,22.81,3,116.99,24 / 24,3677114,2019-11-06 17:07:37:576,0.3597,2.0363,10.3111,-0.0184,-0.0486,9.8065,-0.0367,0.2932,-0.0646,-25.31,-36.62,20.44,324.14,-86.7,-162.23
22046,53.116447,-1.388615,179.32,22.81,3,116.99,24 / 24,3677213,2019-11-06 17:07:37:675,0.4201,-1.1786,10.2786,0.0024,-0.0073,9.8066,-0.0037,0.15,-0.0304,-25.31,-36.94,20.5,327.94,-86.62,-160.02
22047,53.116447,-1.388615,179.32,22.81,3,116.99,24 / 24,3677313,2019-11-06 17:07:37:775,-0.9084,1.2898,10.2268,-0.0259,-0.0296,9.8065,0.1833,0.1325,-0.1789,-24.06,-36.31,21.81,331.3,-86.32,-159.21
22048,53.116447,-1.388615,179.32,22.81,3,116.99,24 / 24,3677413,2019-11-06 17:07:37:875,1.4457,2.1431,8.4468,-0.0749,0.0209,9.8063,0.1889,-0.1507,-0.0719,-24.25,-35.0,27.81,342.77,-86.53,-155.62
22049,53.116447,-1.388615,179.32,22.81,3,116.99,24 / 24,3677513,2019-11-06 17:07:37:975,-1.4658,0.156,10.7571,0.0211,-0.0033,9.8066,0.0142,-0.2399,0.197,-27.31,-35.69,46.63,354.09,-86.2,-155.76
