,GPS LATITUDE (degrees), GPS LONGITUDE (degrees), GPS ALTITUDE (m), GPS SPEED (Kmh), GPS ACCURACY (m), GPS ORIENTATION (Â°),GPS SATELLITES IN RANGE, TIME SINCE START (ms), DATE (YYYY-MO-DD HH-MI-SS_SSS), ACCELEROMETER X (m/s²) , ACCELEROMETER Y (m/s²), ACCELEROMETER Z (m/s²), GRAVITY X (m/s²), GRAVITY Y (m/s²), GRAVITY Z (m/s²), GYROSCOPE Yaw (rad/s), GYROSCOPE Pitch (rad/s), GYROSCOPE Roll (rad/s), MAGNETIC FIELD X (Î¼T), MAGNETIC FIELD Y (Î¼T), MAGNETIC FIELD Z (Î¼T), ORIENTATION (Yaw) (Â°), ORIENTATION (Pitch) (Â°), ORIENTATION (Roll ) (Â°)
3528,51.625553,-0.840763,280,33.3,19,103.7,Jul-18,1763166,2019-02-27 10:45:14:686,-0.105,1.0013,10.0174,0.0056,-0.0169,9.8066,0.0581,0.033,-0.0069,-12.61,-16.32,-31.76,130.91,0.15,-1.6
3529,51.625553,-0.840763,280,33.3,19,103.7,Jul-18,1763667,2019-02-27 10:45:15:187,0.0498,-0.1148,11.1373,0.0097,-0.0417,9.8066,0.0624,0.0894,-0.0218,-12.24,-16.7,-32.63,126.82,0.06,-1.59
3530,51.625553,-0.840763,280,33.3,19,103.7,Jul-18,1764166,2019-02-27 10:45:15:686,-0.0089,-0.1285,8.7276,0.0368,0.0312,9.8065,-0.0261,-0.1279,0.0133,-11.55,-15.95,-32.63,129.07,0.22,-1.82
3531,51.625553,-0.840763,280,33.3,19,103.7,Jul-18,1764667,2019-02-27 10:45:16:187,0.1589,-0.6362,9.6287,-0.05,-0.0346,9.8065,0.0059,0.0138,-0.0005,-12.24,-16.32,-33.01,128.75,0.22,-1.54
3532,51.625553,-0.840763,280,33.3,19,103.7,Jul-18,1765166,2019-02-27 10:45:16:686,-0.5657,0.7767,9.096,-0.002,-0.0078,9.8066,-0.025,-0.0395,0.0006,-12.24,-17.07,-31.76,127.49,0.28,-2.03
3533,51.625553,-0.840763,280,33.3,19,103.7,Jul-18,1765667,2019-02-27 10:45:17:187,0.3363,-0.5527,10.5539,0.0392,0.0245,9.8065,0.007,0.0127,-0.0069,-11.86,-16.32,-32.13,129.38,0.31,-2.07
3534,51.625553,-0.840763,280,33.3,19,103.7,Jul-18,1766166,2019-02-27 10:45:17:686,0.0637,-0.2803,10.1277,-0.0158,-0.0605,9.8065,0.0208,0.0287,-0.0037,-12.24,-16.7,-32.13,127.92,0.58,-2.08
3535,51.625553,-0.840763,280,33.3,19,103.7,Jul-18,1766666,2019-02-27 10:45:18:186,-0.1427,0.5392,9.7959,0.0207,-0.0072,9.8066,0.0219,-0.0214,-0.0048,-12.24,-15.95,-32.57,129.9,0.68,-2.01
3536,51.625553,-0.840763,280,33.3,19,103.7,Jul-18,1767167,2019-02-27 10:45:18:687,0.1236,-0.2656,9.4101,0.0047,-0.0369,9.8066,-0.0101,0.0138,-0.0016,-12.24,-15.95,-32.95,130.35,0.85,-2.23
3537,51.625553,-0.840763,280,33.3,19,103.7,Jul-18,1767666,2019-02-27 10:45:19:186,0.0764,-0.2661,9.3044,0.0478,0.0608,9.8063,0.0027,0.0053,0.0016,-11.86,-16.32,-32.13,130.32,0.8,-2.35
3538,51.625553,-0.840763,280,33.3,19,103.7,Jul-18,1768166,2019-02-27 10:45:19:686,0.3514,-0.1582,8.8779,0.0322,-0.0137,9.8066,-0.0026,0.0042,-0.0016,-12.61,-16.32,-31.76,132.04,0.89,-1.82
3539,51.625553,-0.840763,280,33.3,19,103.7,Jul-18,1768667,2019-02-27 10:45:20:187,0.1782,-0.0058,10.2127,0.0117,-0.0359,9.8066,-0.0389,-0.1183,0.0219,-12.24,-14.82,-31.32,131.89,0.79,-2.08
3540,51.625553,-0.840763,280,33.3,19,103.7,Jul-18,1769166,2019-02-27 10:45:20:686,0.4654,-0.2773,9.9106,0.026,0.0413,9.8065,0.0325,0.0159,-0.0069,-11.55,-15.95,-31.76,129.96,0.9,-1.9
3541,51.625553,-0.840763,280,33.3,19,103.7,Jul-18,1769667,2019-02-27 10:45:21:187,0.3812,0.7066,10.0347,-0.0357,-0.0193,9.8066,-0.0431,0.0074,0.0091,-11.55,-17.01,-32.13,128.41,1.15,-1.85
3542,51.625553,-0.840763,280,33.3,19,103.7,Jul-18,1770167,2019-02-27 10:45:21:687,-0.2317,0.2312,8.6727,-0.0056,0.0096,9.8066,0.0261,0.0308,-0.0026,-11.55,-15.57,-31.32,130.22,1.05,-2.07
3543,51.625553,-0.840763,280,33.3,19,103.7,Jul-18,1770666,2019-02-27 10:45:22:186,0.0007,-0.3,9.7123,-0.0203,-0.0539,9.8065,0.0751,-0.0235,-0.0005,-11.86,-15.57,-32.57,130.69,1.0,-2.34
3544,51.625553,-0.840763,280,33.3,19,103.7,Jul-18,1771166,2019-02-27 10:45:22:686,-0.1867,0.3647,10.3301,0.0337,0.0117,9.8066,-0.0101,-0.0054,0.0059,-11.55,-15.57,-32.57,131.11,1.24,-2.44
3545,51.625553,-0.840763,280,33.3,19,103.7,Jul-18,1771667,2019-02-27 10:45:23:187,-0.1927,-0.5004,9.9773,0.0213,-0.0571,9.8065,0.0144,-0.0693,-0.0005,-11.86,-16.32,-32.57,130.64,0.98,-2.33
3546,51.625553,-0.840763,280,33.3,19,103.7,Jul-18,1772166,2019-02-27 10:45:23:686,0.3491,0.594,10.0517,-0.0032,0.0734,9.8064,-0.0484,-0.0171,0.0133,-12.24,-16.32,-32.95,130.71,1.26,-2.07
3547,51.625553,-0.840763,280,33.3,19,103.7,Jul-18,1772666,2019-02-27 10:45:24:186,-0.3148,-0.3724,10.0161,0.0217,0.0263,9.8066,-0.0058,-0.0278,-0.0165,-11.55,-15.95,-32.95,130.45,1.23,-1.87
3548,51.625553,-0.840763,280,33.3,19,103.7,Jul-18,1773166,2019-02-27 10:45:24:686,0.1676,0.2679,9.1163,-0.0329,0.0017,9.8066,0.0176,0.0649,-0.0122,-11.17,-16.7,-32.13,126.18,0.9,-2.23
3549,51.625553,-0.840763,280,33.3,19,103.7,Jul-18,1773667,2019-02-27 10:45:25:187,-0.3119,0.5585,9.38,-0.0736,0.059,9.8062,-0.0207,-0.0278,0.0016,-11.55,-15.95,-32.95,129.89,0.37,-2.38
3550,51.625553,-0.840763,280,33.3,19,103.7,Jul-18,1774166,2019-02-27 10:45:25:686,0.2214,-0.8594,9.9966,-0.0269,0.0287,9.8066,0.04,0.0457,-0.0069,-11.55,-16.32,-32.82,128.83,-0.19,-2.12
3551,51.625553,-0.840763,280,33.3,19,103.7,Jul-18,1774667,2019-02-27 10:45:26:187,0.1715,0.5398,9.128,0.0442,-0.0348,9.8065,-0.0229,0.0575,-0.0037,-11.17,-16.76,-32.82,125.01,0.13,-2.04
3552,51.625553,-0.840763,280,33.3,19,103.7,Jul-18,1775167,2019-02-27 10:45:26:687,0.5257,-0.0174,8.2828,0.0108,-0.0676,9.8064,0.0102,-0.0437,-0.009,-11.92,-16.07,-32.63,128.99,0.11,-1.89
3553,51.625553,-0.840763,280,33.3,19,103.7,Jul-18,1775667,2019-02-27 10:45:27:187,0.5665,-1.2153,9.083,0.023,0.0038,9.8066,-0.0154,0.0415,-0.0048,-11.55,-16.13,-32.38,129.94,0.7,-2.13
3554,51.625553,-0.840763,280,33.3,19,103.7,Jul-18,1776167,2019-02-27 10:45:27:687,0.1066,-0.2744,8.8387,0.0494,0.0111,9.8065,-0.009,-0.016,0.0016,-11.55,-16.13,-32.82,130.0,0.76,-2.01
3555,51.625553,-0.840763,280,33.3,19,103.7,Jul-18,1776667,2019-02-27 10:45:28:187,0.1574,-0.2991,8.8132,0.1611,0.0341,9.8053,-0.008,-0.0757,0.0176,-11.55,-16.13,-32.45,129.39,1.31,-0.88
3556,51.625553,-0.840763,280,33.3,19,103.7,Jul-18,1777167,2019-02-27 10:45:28:687,0.2268,-0.4051,10.474,0.069,0.0492,9.8063,-0.0687,-0.0512,0.0314,-11.55,-16.13,-32.07,128.93,1.35,-0.38
3557,51.625553,-0.840763,280,33.3,19,103.7,Jul-18,1777667,2019-02-27 10:45:29:187,0.199,0.8584,9.5488,0.0514,0.0298,9.8065,-0.0048,-0.0768,0.0123,-11.17,-16.13,-32.95,126.52,1.49,0.02
3558,51.625553,-0.840763,280,33.3,19,103.7,Jul-18,1778167,2019-02-27 10:45:29:687,-0.0658,-0.324,9.4979,-0.0191,0.0077,9.8066,-0.0239,-0.0278,0.0123,-11.17,-16.13,-32.88,126.15,1.43,0.3
3559,51.625553,-0.840763,280,33.3,19,103.7,Jul-18,1778666,2019-02-27 10:45:30:186,0.2398,-0.2274,8.8086,0.0009,-0.066,9.8064,-0.0389,0.0489,-0.009,-10.8,-16.51,-33.32,124.77,1.37,-0.05
3560,51.625553,-0.840763,280,33.3,19,103.7,Jul-18,1779166,2019-02-27 10:45:30:686,-0.388,-0.0872,10.3129,-0.0706,-0.0627,9.8062,0.0336,0.017,0.0005,-10.42,-16.13,-32.51,125.33,1.75,-0.81
3561,51.625553,-0.840763,280,33.3,19,103.7,Jul-18,1779667,2019-02-27 10:45:31:187,-0.1215,-0.7666,9.7333,-0.0832,-0.0458,9.8062,-0.0037,0.0937,-0.0112,-10.42,-16.88,-32.95,124.19,1.88,-1.17
3562,51.625553,-0.840763,280,33.3,19,103.7,Jul-18,1780166,2019-02-27 10:45:31:686,-0.089,0.3696,8.6519,-0.0597,0.006,9.8065,0.056,0.0564,-0.0165,-11.17,-16.88,-32.51,127.55,1.96,-2.08
3563,51.625553,-0.840763,280,33.3,19,103.7,Jul-18,1780667,2019-02-27 10:45:32:187,-0.5535,-0.0267,12.4213,-0.0583,-0.0688,9.8062,0.0634,-0.0182,-0.0144,-11.55,-16.51,-32.95,130.43,1.83,-2.85
3564,51.625553,-0.840763,280,33.3,19,103.7,Jul-18,1781167,2019-02-27 10:45:32:687,0.0469,0.1349,9.8292,-0.0231,-0.0468,9.8065,-0.0357,-0.0714,-0.0016,-11.17,-16.13,-32.57,129.87,1.38,-3.18
3565,51.625553,-0.840763,280,33.3,19,103.7,Jul-18,1781666,2019-02-27 10:45:33:186,-0.3045,-0.4433,10.5221,-0.0006,0.0113,9.8066,-0.0783,-0.1162,0.0176,-11.17,-16.51,-33.01,128.44,1.51,-3.46
3566,51.625553,-0.840763,280,33.3,19,103.7,Jul-18,1782166,2019-02-27 10:45:33:686,0.1089,0.3022,10.9088,-0.0284,-0.0193,9.8066,0.0155,0.0511,-0.0154,-11.55,-16.51,-32.13,130.41,1.42,-3.44
3567,51.625553,-0.840763,280,33.3,19,103.7,Jul-18,1782667,2019-02-27 10:45:34:187,0.103,0.5521,12.1604,0.0369,0.0583,9.8064,-0.1166,-0.0938,0.0123,-11.55,-16.51,-32.57,130.78,1.4,-3.64
3568,51.625553,-0.840763,280,33.3,19,103.7,Jul-18,1783167,2019-02-27 10:45:34:687,0.1188,-0.3858,8.863,0.0404,0.0145,9.8066,0.0219,-0.0075,0.0069,-11.17,-16.13,-32.95,129.71,1.37,-3.07
3569,51.625553,-0.840763,280,33.3,19,103.7,Jul-18,1783667,2019-02-27 10:45:35:187,0.3338,-0.2863,10.02,0.0126,0.0396,9.8066,-0.0282,-0.0022,-0.0016,-11.55,-16.13,-32.95,131.61,1.24,-2.87
3570,51.625553,-0.840763,280,33.3,19,103.7,Jul-18,1784167,2019-02-27 10:45:35:687,0.1149,-0.5081,8.7961,-0.0309,0.0047,9.8066,0.0197,0.0532,-0.0058,-10.8,-16.13,-32.95,129.7,1.32,-3.11
3571,51.625553,-0.840763,280,33.3,19,103.7,Jul-18,1784666,2019-02-27 10:45:36:186,-0.0156,-0.2061,8.6745,0.0352,-0.0001,9.8066,-0.0293,-0.0214,-0.0005,-11.17,-16.13,-32.57,129.67,1.33,-3.08
3572,51.625553,-0.840763,280,33.3,19,103.7,Jul-18,1785167,2019-02-27 10:45:36:687,-0.3611,0.828,10.3139,0.0034,0.0326,9.8066,-0.0058,0.0841,-0.0005,-11.17,-16.13,-32.13,129.15,1.19,-2.93
3573,51.625553,-0.840763,280,33.3,19,103.7,Jul-18,1785666,2019-02-27 10:45:37:186,0.2613,0.1892,9.5165,0.0326,-0.0051,9.8066,-0.0026,-0.0246,-0.0069,-11.17,-16.13,-33.01,129.0,1.19,-2.67
3574,51.625553,-0.840763,280,33.3,19,103.7,Jul-18,1786167,2019-02-27 10:45:37:687,0.2691,0.0927,10.4426,0.0345,0.0406,9.8065,0.0091,0.0212,0.0048,-11.17,-16.51,-32.95,127.22,1.3,-2.6
3575,51.625553,-0.840763,280,33.3,19,103.7,Jul-18,1786666,2019-02-27 10:45:38:186,0.2866,0.2785,9.4373,0.0061,0.0155,9.8066,0.0538,0.0053,-0.0101,-11.17,-16.13,-32.57,128.63,1.23,-2.29
3576,51.625553,-0.840763,280,33.3,19,103.7,Jul-18,1787166,2019-02-27 10:45:38:686,-0.1525,1.0901,10.0591,0.0014,0.0554,9.8065,-0.0016,-0.0128,0.0059,-11.55,-16.51,-32.95,129.09,1.29,-2.24
3577,51.625553,-0.840763,280,33.3,19,103.7,Jul-18,1787666,2019-02-27 10:45:39:186,-0.1064,0.0606,10.4852,0.0235,-0.0447,9.8065,-0.0389,-0.0853,0.0016,-11.17,-16.13,-32.57,128.07,1.04,-2.03
3578,51.625553,-0.840763,280,33.3,19,103.7,Jul-18,1788169,2019-02-27 10:45:39:689,0.1934,0.2457,8.9358,0.0155,0.0036,9.8066,-0.0303,0.0458,-0.0069,-11.55,-16.13,-33.45,130.63,1.2,-2.06
3579,51.625553,-0.840763,280,33.3,19,103.7,Jul-18,1788666,2019-02-27 10:45:40:186,0.1775,-0.753,8.5356,-0.0355,-0.0516,9.8065,0.0038,0.0308,-0.0176,-11.17,-16.13,-33.01,128.86,1.3,-2.41
3580,51.625553,-0.840763,280,33.3,19,103.7,Jul-18,1789166,2019-02-27 10:45:40:686,-0.2427,-0.3378,9.9743,-0.064,-0.0175,9.8064,0.0038,0.0127,-0.0048,-11.55,-16.51,-33.01,129.58,1.14,-2.87
3581,51.625553,-0.840763,280,33.3,19,103.7,Jul-18,1789666,2019-02-27 10:45:41:186,0.0118,0.3343,9.9072,-0.004,0.0337,9.8066,-0.0516,-0.0086,0.0069,-11.92,-16.51,-32.63,129.45,1.27,-2.59
3582,51.625553,-0.840763,280,33.3,19,103.7,Jul-18,1790166,2019-02-27 10:45:41:686,0.0201,0.2187,10.2957,0.0626,-0.002,9.8064,0.0016,0.0074,0.0059,-11.17,-16.51,-30.95,126.59,1.11,-2.49
3583,51.625553,-0.840763,280,33.3,19,103.7,Jul-18,1790666,2019-02-27 10:45:42:186,-0.1115,0.5253,9.3078,0.0044,-0.0245,9.8066,-0.0399,0.034,-0.0037,-12.67,-15.76,-33.01,132.53,0.97,-2.08
3584,51.625553,-0.840763,280,33.3,19,103.7,Jul-18,1791166,2019-02-27 10:45:42:686,0.1248,0.7547,9.5474,-0.0112,0.0025,9.8066,-0.0069,0.0085,0.0048,-11.92,-16.51,-32.57,128.76,1.1,-2.15
3585,51.625553,-0.840763,280,33.3,19,103.7,Jul-18,1791667,2019-02-27 10:45:43:187,0.0128,0.0262,9.1111,0.0029,0.0185,9.8066,-0.0506,-0.0342,-0.009,-11.55,-16.13,-32.57,130.4,0.92,-2.18
3586,51.625553,-0.840763,280,33.3,19,103.7,Jul-18,1792166,2019-02-27 10:45:43:686,0.3678,0.1813,10.4915,0.0124,0.0045,9.8066,0.007,-0.0075,0.0133,-11.55,-15.76,-33.01,130.35,0.95,-2.11
3587,51.625553,-0.840763,280,33.3,19,103.7,Jul-18,1792666,2019-02-27 10:45:44:186,0.0949,-0.4499,9.8824,-0.0298,-0.0311,9.8066,-0.0538,-0.0523,0.0059,-11.55,-16.51,-33.01,128.52,1.02,-2.03
3588,51.625553,-0.840763,280,33.3,19,103.7,Jul-18,1793166,2019-02-27 10:45:44:686,0.0554,-0.3033,9.6347,0.0185,0.0309,9.8066,0.0464,0.017,-0.0037,-11.17,-15.76,-32.57,128.03,0.97,-2.08
3589,51.625553,-0.840763,280,33.3,19,103.7,Jul-18,1793666,2019-02-27 10:45:45:186,-0.5475,0.3385,12.2434,0.0266,-0.0404,9.8065,0.04,0.0905,-0.0122,-11.17,-15.76,-32.57,127.7,0.87,-1.92
3590,51.625553,-0.840763,280,33.3,19,103.7,Jul-18,1794166,2019-02-27 10:45:45:686,0.4504,-0.6087,7.9579,0.0087,0.0307,9.8066,0.0272,-0.0501,-0.0026,-11.17,-15.76,-32.95,127.81,1.05,-1.79
3591,51.625553,-0.840763,280,33.3,19,103.7,Jul-18,1794667,2019-02-27 10:45:46:187,-0.2576,-0.3238,9.8421,-0.0091,-0.0094,9.8066,0.0155,-0.081,0.0091,-11.55,-15.76,-32.95,130.22,1.06,-1.86
3592,51.625553,-0.840763,280,33.3,19,103.7,Jul-18,1795166,2019-02-27 10:45:46:686,0.1578,-0.0315,10.4635,-0.019,-0.0028,9.8066,0.0016,0.0074,-0.0144,-10.8,-16.13,-32.57,127.95,1.19,-1.74
3593,51.625553,-0.840763,280,33.3,19,103.7,Jul-18,1795666,2019-02-27 10:45:47:186,0.116,-0.0308,10.6952,0.0389,0.0014,9.8066,0.0347,0.0894,-0.0048,-11.55,-15.38,-32.2,132.12,1.27,-1.66
3594,51.625553,-0.840763,280,33.3,19,103.7,Jul-18,1796167,2019-02-27 10:45:47:687,0.1967,0.1431,9.2403,0.0473,0.0194,9.8065,0.008,0.0223,0.0144,-11.17,-15.01,-32.57,130.04,1.36,-1.67
3595,51.625553,-0.840763,280,33.3,19,103.7,Jul-18,1796667,2019-02-27 10:45:48:187,0.4126,0.5593,8.9046,0.022,0.0247,9.8066,0.0165,0.0873,-0.0026,-11.17,-15.76,-33.01,127.68,1.42,-1.2
3596,51.625553,-0.840763,280,33.3,19,103.7,Jul-18,1797167,2019-02-27 10:45:48:687,0.2316,-0.7328,9.9123,-0.01,-0.0209,9.8066,-0.0207,-0.081,0.0048,-11.55,-16.51,-32.57,128.54,1.47,-1.49
3597,51.625553,-0.840763,280,33.3,19,103.7,Jul-18,1797667,2019-02-27 10:45:49:187,-0.1641,0.3448,9.4034,-0.0384,0.0126,9.8066,-0.0016,-0.0501,0.0037,-10.8,-16.51,-32.57,126.17,1.27,-1.62
3598,51.625553,-0.840763,280,33.3,19,103.7,Jul-18,1798167,2019-02-27 10:45:49:687,0.1094,-0.3577,10.9772,-0.0239,0.0068,9.8066,-0.0634,-0.0725,-0.008,-11.55,-15.76,-32.2,130.43,1.44,-1.71
3599,51.625553,-0.840763,280,33.3,19,103.7,Jul-18,1798666,2019-02-27 10:45:50:186,-0.0209,-0.2002,8.8304,-0.0118,0.0092,9.8066,0.0133,-0.0235,0.0027,-11.55,-16.51,-32.57,128.98,1.52,-1.85
3600,51.625553,-0.840763,280,33.3,19,103.7,Jul-18,1799166,2019-02-27 10:45:50:686,0.3868,-0.8734,10.2807,-0.0091,-0.035,9.8066,0.008,-0.1226,0.0112,-11.55,-16.13,-32.57,130.71,1.43,-1.87
3601,51.625553,-0.840763,280,33.3,19,103.7,Jul-18,1799667,2019-02-27 10:45:51:187,-0.0109,-0.5639,10.1918,-0.003,-0.0081,9.8066,0.0155,-0.0086,-0.0016,-10.8,-15.76,-33.01,129.0,1.55,-2.23
3602,51.625553,-0.840763,280,33.3,19,103.7,Jul-18,1800166,2019-02-27 10:45:51:686,0.1851,0.3558,9.2103,0.0078,0.0413,9.8066,0.0357,-0.0267,-0.0048,-11.17,-16.88,-32.95,127.25,1.58,-2.27
3603,51.625553,-0.840763,280,33.3,19,103.7,Jul-18,1800666,2019-02-27 10:45:52:186,-0.1838,-0.3287,10.9912,-0.0395,-0.009,9.8066,-0.0442,-0.0065,0.0059,-11.17,-16.51,-32.63,127.5,1.52,-2.57
3604,51.625553,-0.840763,280,33.3,19,103.7,Jul-18,1801166,2019-02-27 10:45:52:686,-0.3722,0.4891,9.2533,-0.0014,0.0206,9.8066,0.0549,0.1022,-0.0069,-10.8,-15.76,-32.95,129.14,1.42,-2.51
3605,51.625553,-0.840763,280,33.3,19,103.7,Jul-18,1801666,2019-02-27 10:45:53:186,-0.1487,0.1221,10.0324,0.0017,-0.0073,9.8066,-0.0474,-0.0256,0.008,-11.17,-16.51,-32.13,127.07,1.44,-2.41
3606,51.625553,-0.840763,280,33.3,19,103.7,Jul-18,1802166,2019-02-27 10:45:53:686,0.198,-0.2144,9.8155,0.0681,0.0511,9.8063,0.0208,-0.0544,0.0016,-11.17,-16.51,-33.01,127.37,1.38,-2.64
3607,51.625553,-0.840763,280,33.3,19,103.7,Jul-18,1802667,2019-02-27 10:45:54:187,-0.8338,0.998,11.4573,-0.0437,-0.0113,9.8065,-0.0112,-0.0597,0.0006,-11.17,-16.88,-33.01,126.85,1.39,-2.14
3608,51.625553,-0.840763,280,33.3,19,103.7,Jul-18,1803166,2019-02-27 10:45:54:686,0.271,0.118,10.5908,0.0579,0.0087,9.8065,0.0016,-0.0661,-0.0026,-10.8,-16.13,-32.57,128.76,1.31,-2.31
3609,51.625553,-0.840763,280,33.3,19,103.7,Jul-18,1803666,2019-02-27 10:45:55:186,0.6996,-1.7629,9.7682,0.0772,-0.0147,9.8063,-0.0442,-0.1354,0.0027,-11.17,-16.51,-32.57,127.1,1.66,-2.02
3610,51.625553,-0.840763,280,33.3,19,103.7,Jul-18,1804166,2019-02-27 10:45:55:686,-0.0852,0.0432,9.8437,0.016,0.0289,9.8066,-0.0591,0.0383,0.0059,-11.17,-16.51,-32.57,126.42,1.08,-2.12
3611,51.625553,-0.840763,280,33.3,19,103.7,Jul-18,1804666,2019-02-27 10:45:56:186,-0.1729,0.054,9.865,-0.0529,0.0498,9.8064,-0.008,0.0212,-0.0016,-11.17,-15.38,-32.63,129.35,0.58,-2.01
3612,51.625553,-0.840763,280,33.3,19,103.7,Jul-18,1805166,2019-02-27 10:45:56:686,0.0242,0.481,9.9039,0.0026,0.0451,9.8065,0.0197,-0.016,-0.0026,-11.17,-16.51,-32.63,125.56,0.3,-2.35
3613,51.625553,-0.840763,280,33.3,19,103.7,Jan-18,1805666,2019-02-27 10:45:57:186,0.1679,-0.0952,10.1014,0.0148,0.0141,9.8066,-0.0005,0.0617,-0.0048,-10.8,-16.13,-32.76,126.74,0.08,-2.07
3614,51.625553,-0.840763,280,33.3,19,103.7,Jan-18,1806167,2019-02-27 10:45:57:687,-0.1765,-0.1538,8.8785,0.0085,0.0155,9.8066,0.0325,0.034,-0.008,-10.8,-16.13,-33.13,126.51,0.02,-1.94
3615,51.625553,-0.840763,280,33.3,19,103.7,May-18,1806666,2019-02-27 10:45:58:186,0.2614,-0.5012,8.9664,0.025,-0.0114,9.8066,-0.0399,-0.0214,-0.0016,-11.17,-15.82,-32.76,126.16,-0.04,-1.7
3616,51.625553,-0.840763,280,33.3,19,103.7,May-18,1807166,2019-02-27 10:45:58:686,0.1276,-0.2264,9.0365,-0.0452,-0.0616,9.8064,0.0261,0.0149,-0.0069,-11.17,-15.45,-33.13,128.87,0.23,-2.04
3617,51.61414,-0.800403,172,32.54,12,124.5,Jun-18,1807666,2019-02-27 10:45:59:186,-0.1763,0.4663,8.8571,-0.0549,0.1042,9.8059,-0.0026,0.0351,0.0059,-11.55,-15.45,-32.76,130.2,-0.23,-1.66
3618,51.61414,-0.800403,172,32.54,12,124.5,Jun-18,1808167,2019-02-27 10:45:59:687,-0.0516,-0.0641,10.7208,-0.0603,0.0236,9.8064,-0.009,-0.0437,-0.0005,-10.8,-15.45,-33.13,126.25,-1.23,-1.7
3619,51.61414,-0.800403,172,32.54,12,124.5,Jun-18,1808666,2019-02-27 10:46:00:186,-0.4915,-0.4323,11.4805,-0.1468,-0.0287,9.8055,-0.0974,-0.0139,-0.0026,-11.55,-15.45,-33.95,128.71,-1.55,-2.0
3620,51.61414,-0.800403,172,32.54,12,124.5,Jun-18,1809166,2019-02-27 10:46:00:686,-0.1472,0.3534,9.3618,-0.0494,-0.0217,9.8065,0.0144,0.0425,-0.0016,-11.55,-16.13,-32.32,127.0,-1.95,-2.77
3621,51.61414,-0.800403,172,32.54,12,124.5,Apr-18,1809666,2019-02-27 10:46:01:186,0.6225,-0.7575,10.0034,0.2336,-0.3191,9.7987,-0.0016,0.0298,-0.0069,-11.55,-15.76,-33.95,130.75,0.29,-3.12
3622,51.61414,-0.800403,172,32.54,12,124.5,Apr-18,1810166,2019-02-27 10:46:01:686,0.4387,-0.9909,10.636,0.0973,-0.1047,9.8056,-0.0665,-0.0086,-0.008,-10.8,-16.51,-33.51,127.64,1.12,-3.09
3623,51.61414,-0.800403,172,32.54,12,124.5,Apr-18,1810667,2019-02-27 10:46:02:187,0.5622,-0.5222,10.0655,0.0455,-0.084,9.8062,-0.0165,-0.081,0.008,-11.17,-16.51,-32.7,129.36,2.37,-3.24
3624,51.61414,-0.800403,172,32.54,12,124.5,Apr-18,1811167,2019-02-27 10:46:02:687,-0.018,0.4752,8.6276,0.0559,-0.0559,9.8063,0.0517,0.0692,0.0006,-11.55,-16.13,-33.13,134.07,2.75,-3.33
3625,51.61414,-0.800403,172,32.54,12,124.5,Apr-18,1811666,2019-02-27 10:46:03:186,0.5519,-0.4523,10.3134,0.1281,0.009,9.8058,-0.0506,-0.0672,0.0037,-10.8,-16.13,-33.07,132.49,3.21,-3.32
3626,51.61414,-0.800403,172,32.54,12,124.5,Apr-18,1812167,2019-02-27 10:46:03:687,0.3236,-0.6343,9.1712,0.0433,-0.0257,9.8065,-0.0154,-0.0086,0.0006,-11.17,-16.13,-32.63,132.93,3.97,-2.9
3627,51.61414,-0.800403,172,32.54,12,124.5,Apr-18,1812666,2019-02-27 10:46:04:186,-0.1428,0.6224,10.6265,0.0634,-0.0263,9.8064,0.0027,-0.0501,0.0048,-10.8,-16.13,-33.13,133.18,4.34,-2.73
3628,51.61414,-0.800403,172,32.54,12,124.5,Apr-18,1813166,2019-02-27 10:46:04:686,-0.0204,-0.3178,9.6675,0.0905,0.041,9.8061,-0.0761,-0.0555,0.0229,-10.8,-15.76,-32.63,131.93,4.35,-1.66
3629,51.61414,-0.800403,172,32.54,12,124.5,Apr-18,1813666,2019-02-27 10:46:05:186,0.1114,0.4099,10.0447,-0.0152,-0.0334,9.8066,0.0325,-0.0278,0.0112,-10.8,-16.13,-32.63,132.26,4.44,-1.86
3630,51.61414,-0.800403,172,32.54,12,124.5,Apr-18,1814166,2019-02-27 10:46:05:686,-0.066,-0.1217,10.2161,0.0231,0.0085,9.8066,-0.0314,0.0074,0.0123,-10.8,-16.13,-32.63,131.64,4.44,-1.31
3631,51.61414,-0.800403,172,32.54,12,124.5,Apr-18,1814667,2019-02-27 10:46:06:187,0.1314,0.61,9.7742,0.0168,0.0306,9.8066,0.0112,0.0308,0.0006,-10.8,-15.76,-33.07,131.15,4.42,-0.9
3632,51.61414,-0.800403,172,32.54,12,124.5,Apr-18,1815166,2019-02-27 10:46:06:686,0.0805,0.4475,10.5765,0.0148,0.0226,9.8066,0.0219,0.0117,0.0112,-10.8,-16.13,-33.07,130.86,4.35,-0.71
3633,51.61414,-0.800403,172,32.54,12,124.5,Apr-18,1815666,2019-02-27 10:46:07:186,-0.0665,-0.2508,8.6263,-0.0179,0.0179,9.8066,0.0304,0.018,0.0027,-10.11,-16.13,-32.63,128.43,4.2,-0.64
3634,51.61414,-0.800403,172,32.54,12,124.5,Apr-18,1816166,2019-02-27 10:46:07:686,-0.3128,-0.2596,8.4691,-0.0419,-0.0477,9.8064,-0.009,-0.015,-0.0037,-10.49,-16.13,-32.63,128.91,4.26,-1.01
3635,51.61414,-0.800403,172,32.54,12,124.5,Apr-18,1816666,2019-02-27 10:46:08:186,-0.6858,1.0217,9.9758,-0.1408,0.1275,9.8048,0.0091,0.0457,-0.0101,-10.49,-16.51,-32.63,127.41,4.02,-1.54
3636,51.61414,-0.800403,172,32.54,12,124.5,Apr-18,1817166,2019-02-27 10:46:08:686,-0.3091,0.6722,9.3159,-0.0533,0.0713,9.8062,0.0229,0.0713,-0.0069,-10.8,-16.51,-32.7,127.77,2.41,-1.73
3637,51.61414,-0.800403,172,32.54,12,124.5,Apr-18,1817667,2019-02-27 10:46:09:187,-0.1978,0.9374,9.2749,-0.0502,0.1263,9.8057,0.0112,0.0468,-0.0058,-10.8,-16.13,-32.26,128.95,1.82,-2.0
3638,51.61414,-0.800403,172,32.54,12,124.5,Apr-18,1818167,2019-02-27 10:46:09:687,-0.0335,-0.7739,9.5278,0.1058,-0.079,9.8058,-0.008,0.0244,0.0048,-10.11,-16.88,-31.38,123.41,1.06,-1.76
3639,51.61414,-0.800403,172,32.54,12,124.5,Apr-18,1818666,2019-02-27 10:46:10:186,0.8623,-1.2623,9.3654,0.1206,-0.0504,9.8058,-0.0037,-0.1545,0.0144,-10.11,-16.51,-31.82,124.75,2.44,-1.1
3640,51.61414,-0.800403,172,32.54,12,124.5,Apr-18,1819167,2019-02-27 10:46:10:687,0.2439,0.036,8.7526,0.0245,0.0732,9.8063,0.0176,0.0202,0.0229,-10.49,-16.51,-32.63,124.3,2.31,-0.68
3641,51.61414,-0.800403,172,32.54,12,124.5,Apr-18,1819666,2019-02-27 10:46:11:186,-0.1388,-0.0266,9.9642,0.0703,0.0621,9.8062,-0.0154,-0.065,0.0336,-10.11,-16.51,-32.2,122.92,1.96,0.22
3642,51.61414,-0.800403,172,32.54,12,124.5,Apr-18,1820166,2019-02-27 10:46:11:686,-0.1656,0.2245,10.4348,0.0214,0.0131,9.8066,-0.0197,0.018,0.0293,-10.11,-16.88,-32.63,122.48,2.13,1.06
3643,51.61414,-0.800403,172,32.54,12,124.5,Apr-18,1820666,2019-02-27 10:46:12:186,0.0845,0.4093,9.8714,0.0635,0.0575,9.8063,0.0091,0.0415,0.0208,-9.36,-16.51,-33.07,119.99,2.14,1.21
3644,51.61414,-0.800403,172,32.54,12,124.5,Apr-18,1821167,2019-02-27 10:46:12:687,0.441,-0.0399,9.8479,0.0638,-0.0239,9.8064,0.0474,0.0127,0.0165,-9.74,-17.26,-32.63,121.98,2.33,1.95
3645,51.61414,-0.800403,172,32.54,12,124.5,Apr-18,1821666,2019-02-27 10:46:13:186,0.1878,-0.6233,9.5601,0.0379,-0.0794,9.8063,-0.0793,-0.0757,0.0187,-9.36,-17.26,-32.63,120.38,2.85,1.89
3646,51.61414,-0.800403,172,32.54,12,124.5,Apr-18,1822168,2019-02-27 10:46:13:688,-0.3536,-0.2305,10.706,0.0347,-0.0472,9.8065,0.007,-0.0001,0.0432,-8.99,-17.63,-33.07,119.58,3.31,1.97
3647,51.61414,-0.800403,172,32.54,12,124.5,Apr-18,1822666,2019-02-27 10:46:14:186,0.7232,0.1808,11.4812,0.0097,-0.0358,9.8066,0.0634,-0.0661,0.0251,-8.24,-17.26,-32.63,118.29,3.43,2.49
3648,51.61414,-0.800403,172,32.54,12,124.5,Apr-18,1823166,2019-02-27 10:46:14:686,-0.318,-0.2981,10.7092,-0.0097,-0.0142,9.8066,-0.0229,-0.0576,0.0283,-8.61,-17.63,-32.26,119.54,3.64,2.44
3649,51.61414,-0.800403,172,32.54,12,124.5,Apr-18,1823666,2019-02-27 10:46:15:186,0.1952,-0.1028,9.1345,0.0227,-0.0755,9.8063,0.0112,-0.0065,0.0229,-8.24,-17.26,-32.63,118.27,3.44,2.53
3650,51.61414,-0.800403,172,32.54,12,124.5,Apr-18,1824166,2019-02-27 10:46:15:686,-0.1412,-0.2649,10.6417,-0.0074,0.0122,9.8066,-0.0357,-0.0256,0.0219,-8.24,-17.26,-32.26,118.84,3.89,2.44
3651,51.61414,-0.800403,172,32.54,12,124.5,Apr-18,1824666,2019-02-27 10:46:16:186,-0.3061,-0.0568,10.638,-0.0601,-0.008,9.8065,-0.0421,-0.0054,0.024,-7.86,-17.95,-32.2,117.53,3.61,2.0
3652,51.61414,-0.800403,172,32.54,12,124.5,Apr-18,1825167,2019-02-27 10:46:16:687,-0.0939,-0.0481,10.2073,0.0105,0.0318,9.8066,0.0016,-0.0246,0.0304,-7.86,-17.63,-31.38,117.16,3.47,2.14
3653,51.61414,-0.800403,172,32.54,12,124.5,Apr-18,1825666,2019-02-27 10:46:17:186,0.085,0.1736,9.1318,-0.0047,-0.0002,9.8066,0.0038,0.0244,0.0272,-7.55,-17.26,-30.95,118.04,3.29,2.35
3654,51.61414,-0.800403,172,32.54,12,124.5,Apr-18,1826166,2019-02-27 10:46:17:686,-0.6185,-0.532,10.4219,-0.0699,-0.025,9.8064,-0.0378,-0.0704,0.0272,-6.8,-18.01,-32.32,114.07,3.01,2.39
3655,51.61414,-0.800403,172,32.54,12,124.5,Apr-18,1826666,2019-02-27 10:46:18:186,-0.3264,0.4907,10.6464,-0.0564,0.0101,9.8065,0.0123,0.0617,0.0123,-7.86,-18.7,-32.32,115.58,2.98,1.96
3656,51.61414,-0.800403,172,32.54,12,124.5,Apr-18,1827166,2019-02-27 10:46:18:686,0.0688,-0.0667,9.0161,-0.023,-0.0138,9.8066,0.0059,-0.0214,0.0293,-7.55,-18.38,-32.32,116.45,2.62,1.72
3657,51.61414,-0.800403,172,32.54,12,124.5,Apr-18,1827667,2019-02-27 10:46:19:187,-0.0217,0.2242,9.5802,-0.0581,0.0171,9.8065,-0.0112,-0.0001,0.0197,-7.55,-18.38,-32.38,116.32,2.38,1.46
3658,51.61414,-0.800403,172,32.54,12,124.5,Apr-18,1828166,2019-02-27 10:46:19:686,-0.0119,-0.0451,10.5404,0.0341,0.0298,9.8065,-0.0335,-0.0469,0.0261,-6.79,-18.03,-32.85,113.95,2.44,1.51
3659,51.61414,-0.800403,172,32.54,12,124.5,Apr-18,1828667,2019-02-27 10:46:20:187,0.0979,0.0356,10.0171,0.043,0.0208,9.8065,-0.0026,-0.0097,0.024,-6.79,-19.47,-32.85,112.4,2.34,2.04
3660,51.61414,-0.800403,172,32.54,12,124.5,Apr-18,1829166,2019-02-27 10:46:20:686,-0.0367,-0.2738,9.9069,0.001,0.0421,9.8066,-0.0239,-0.032,0.0293,-6.79,-19.47,-32.41,112.13,2.15,1.97
3661,51.61414,-0.800403,172,32.54,12,124.5,Apr-18,1829666,2019-02-27 10:46:21:186,-0.1467,-0.4128,9.29,-0.0343,0.0254,9.8066,-0.0122,-0.048,0.024,-6.79,-18.78,-32.78,111.6,1.71,1.94
3662,51.61414,-0.800403,172,32.54,12,124.5,Apr-18,1830166,2019-02-27 10:46:21:686,-0.4315,0.7808,9.1015,-0.0291,0.036,9.8065,-0.0111,-0.0906,0.0336,-6.41,-19.1,-32.78,109.16,1.72,1.85
3663,51.61414,-0.800403,172,32.54,12,124.5,Apr-18,1830667,2019-02-27 10:46:22:187,-0.3387,0.3677,11.0086,-0.0398,0.0069,9.8066,-0.0506,-0.1013,0.0283,-6.04,-18.41,-32.78,109.6,1.35,1.73
3664,51.61414,-0.800403,172,32.54,12,124.5,Apr-18,1831167,2019-02-27 10:46:22:687,0.2622,0.6307,10.6143,0.0048,0.0118,9.8066,0.0464,-0.0107,0.0155,-6.04,-19.1,-32.78,108.52,1.18,1.58
3665,51.61414,-0.800403,172,32.54,12,124.5,Apr-18,1831667,2019-02-27 10:46:23:187,0.5668,-0.5409,8.6546,0.0132,0.0205,9.8066,-0.0495,0.0383,0.0208,-6.04,-19.1,-33.22,108.69,1.29,1.56
3666,51.61414,-0.800403,172,32.54,12,124.5,Apr-18,1832166,2019-02-27 10:46:23:686,0.3488,0.3063,9.1128,0.0194,0.0418,9.8065,0.0517,0.0436,0.0101,-5.66,-19.1,-32.78,108.13,1.01,1.85
3667,51.61414,-0.800403,172,32.54,12,124.5,Apr-18,1832667,2019-02-27 10:46:24:187,0.1818,0.1867,10.9566,-0.0109,-0.0077,9.8066,0.0176,-0.0235,0.0229,-5.29,-18.72,-32.78,105.45,1.04,2.12
3668,51.61414,-0.800403,172,32.54,12,124.5,Apr-18,1833167,2019-02-27 10:46:24:687,0.0342,0.4553,9.9298,-0.0052,0.0133,9.8066,-0.0101,0.0042,0.0229,-5.66,-19.1,-33.16,108.12,1.07,2.05
3669,51.61414,-0.800403,172,32.54,12,124.5,Apr-18,1833666,2019-02-27 10:46:25:186,0.1171,0.1728,9.7663,0.0386,-0.0084,9.8066,0.0357,0.0191,0.0304,-4.97,-19.85,-32.78,104.74,0.98,1.94
3670,51.61414,-0.800403,172,32.54,12,124.5,Apr-18,1834166,2019-02-27 10:46:25:686,0.2478,-0.336,10.055,0.0339,-0.0125,9.8066,-0.009,-0.0288,0.0229,-4.6,-19.47,-32.78,105.41,0.99,2.04
3671,51.61414,-0.800403,172,32.54,12,124.5,Apr-18,1834666,2019-02-27 10:46:26:186,-0.0501,0.5255,10.48,0.0258,0.044,9.8065,-0.0058,-0.0022,0.0325,-4.97,-19.1,-32.78,105.13,0.91,2.42
3672,51.61414,-0.800403,172,32.54,12,124.5,Apr-18,1835167,2019-02-27 10:46:26:687,-0.0114,-0.0891,9.5514,0.0013,0.0276,9.8066,0.0048,-0.0086,0.0314,-4.97,-19.47,-33.16,105.34,0.95,2.09
3673,51.61414,-0.800403,172,32.54,12,124.5,Apr-18,1835666,2019-02-27 10:46:27:186,0.1581,0.2375,10.1141,-0.0452,-0.0218,9.8065,0.0219,-0.0011,0.0229,-4.22,-19.1,-32.78,102.41,0.8,2.14
3674,51.61414,-0.800403,172,32.54,12,124.5,Apr-18,1836167,2019-02-27 10:46:27:687,0.0075,0.2786,10.1046,-0.0305,-0.0096,9.8066,-0.0048,0.0074,0.0304,-4.22,-19.47,-32.78,102.71,0.88,1.66
3675,51.61414,-0.800403,172,32.54,12,124.5,Apr-18,1836666,2019-02-27 10:46:28:186,-0.2598,-0.2371,8.6082,-0.0364,0.0057,9.8066,-0.0175,0.001,0.0283,-4.97,-20.22,-32.35,104.65,0.8,1.46
3676,51.61414,-0.800403,172,32.54,12,124.5,Apr-18,1837167,2019-02-27 10:46:28:687,-0.0231,-0.0115,9.3154,-0.0032,-0.0043,9.8066,0.007,0.0053,0.0219,-3.85,-19.47,-32.72,102.41,0.66,1.54
3677,51.61414,-0.800403,172,32.54,12,124.5,Apr-18,1837668,2019-02-27 10:46:29:188,0.0144,0.0623,8.6069,-0.0751,0.0377,9.8063,-0.0016,0.0362,0.0048,-3.83,-19.86,-33.27,101.49,0.35,1.15
3678,51.61414,-0.800403,172,32.54,12,124.5,Apr-18,1838166,2019-02-27 10:46:29:686,0.2389,-0.2288,9.1552,0.0392,0.0253,9.8065,-0.0303,0.0159,0.0219,-3.45,-19.48,-33.59,99.63,0.63,1.42
3679,51.61414,-0.800403,172,32.54,12,124.5,Apr-18,1838667,2019-02-27 10:46:30:187,-0.0846,-0.4671,10.1139,0.068,-0.0205,9.8064,-0.0218,-0.0256,0.0197,-3.08,-19.48,-33.59,99.56,0.61,1.56
3680,51.61414,-0.800403,172,32.54,12,124.5,Apr-18,1839166,2019-02-27 10:46:30:686,-0.2325,-0.1362,9.9448,-0.0139,-0.0435,9.8065,0.0464,0.083,0.0229,-3.08,-19.48,-33.21,99.73,0.79,1.93
3681,51.61414,-0.800403,172,32.54,12,124.5,Apr-18,1839666,2019-02-27 10:46:31:186,0.0199,-0.0684,10.0668,0.021,-0.0049,9.8066,0.0027,-0.0086,0.024,-2.7,-19.48,-33.21,100.11,1.09,2.24
3682,51.61414,-0.800403,172,32.54,12,124.5,Apr-18,1840167,2019-02-27 10:46:31:687,0.078,0.5416,9.4817,0.0221,-0.0203,9.8066,0.007,0.0383,0.0197,-2.7,-19.48,-33.21,100.33,1.28,2.46
3683,51.61414,-0.800403,172,32.54,12,124.5,Apr-18,1840666,2019-02-27 10:46:32:186,0.4447,0.0782,8.9719,0.0201,-0.0207,9.8066,0.0304,0.0095,0.0187,-2.33,-19.48,-33.59,97.8,1.34,2.18
3684,51.61414,-0.800403,172,32.54,12,124.5,Apr-18,1841166,2019-02-27 10:46:32:686,0.0182,-0.2037,10.901,0.011,-0.0018,9.8066,-0.0527,-0.0065,0.0197,-2.33,-19.48,-33.15,97.95,1.49,2.34
3685,51.61414,-0.800403,172,32.54,12,124.5,Apr-18,1841667,2019-02-27 10:46:33:187,-0.2101,0.2499,10.2802,-0.0145,-0.0189,9.8066,0.0187,-0.031,0.0165,-2.33,-19.86,-33.21,97.67,1.53,2.16
3686,51.61414,-0.800403,172,32.54,12,124.5,Apr-18,1842166,2019-02-27 10:46:33:686,0.0393,-0.436,10.129,-0.0386,-0.0207,9.8066,0.0048,0.1224,0.024,-2.02,-19.48,-33.21,98.22,1.63,2.06
3687,51.61414,-0.800403,172,32.54,12,124.5,Apr-18,1842666,2019-02-27 10:46:34:186,-0.2892,-0.2336,9.1685,0.0382,-0.0126,9.8066,0.0368,-0.0075,0.0293,-2.02,-19.86,-33.21,98.13,1.82,2.03
3688,51.61414,-0.800403,172,32.54,12,124.5,Apr-18,1843167,2019-02-27 10:46:34:687,0.0124,0.028,8.8849,-0.0065,0.0042,9.8066,0.0251,-0.0395,0.0251,-1.64,-19.48,-33.21,98.26,1.71,2.45
3689,51.61414,-0.800403,172,32.54,12,124.5,Apr-18,1843666,2019-02-27 10:46:35:186,0.1498,-0.3048,9.7144,0.0006,-0.0278,9.8066,-0.0346,0.0372,0.0261,-1.27,-19.86,-33.21,95.44,1.84,2.4
3690,51.61414,-0.800403,172,32.54,12,124.5,Apr-18,1844166,2019-02-27 10:46:35:686,-0.2453,-0.3189,9.3521,-0.0099,-0.0117,9.8066,0.0261,0.0287,0.0155,-0.89,-19.86,-33.21,95.06,1.57,2.24
3691,51.61414,-0.800403,172,32.54,12,124.5,Apr-18,1844667,2019-02-27 10:46:36:187,0.0831,-0.237,8.9078,0.0234,-0.0036,9.8066,-0.0048,0.0042,0.0219,-0.89,-20.23,-33.59,95.23,1.64,2.17
3692,51.61414,-0.800403,172,32.54,12,124.5,Apr-18,1845167,2019-02-27 10:46:36:687,-0.0756,0.1021,9.764,-0.0423,0.0312,9.8065,-0.0112,0.0649,0.0187,-0.52,-19.86,-33.59,94.98,1.47,2.08
3693,51.61414,-0.800403,172,32.54,12,124.5,Apr-18,1845667,2019-02-27 10:46:37:187,-0.3862,-0.075,9.9594,-0.0379,0.0207,9.8066,0.0048,0.0255,0.0197,-0.52,-19.86,-33.59,94.8,1.33,1.87
3694,51.61414,-0.800403,172,32.54,12,124.5,Apr-18,1846166,2019-02-27 10:46:37:686,-0.1394,0.3917,10.074,0.0104,0.0134,9.8066,0.0112,-0.0342,0.024,-0.52,-19.48,-32.34,94.58,1.08,1.64
3695,51.61414,-0.800403,172,32.54,12,124.5,Apr-18,1846666,2019-02-27 10:46:38:186,0.2285,-0.1529,7.7004,-0.0021,0.0356,9.8066,-0.0122,-0.015,0.0251,-0.52,-20.23,-33.21,94.29,0.99,1.42
3696,51.61414,-0.800403,172,32.54,12,124.5,Apr-18,1847166,2019-02-27 10:46:38:686,0.1291,0.2201,11.1333,-0.0473,-0.0127,9.8065,-0.041,0.0053,0.0251,-0.14,-19.5,-33.66,91.25,0.78,1.42
3697,51.61414,-0.800403,172,32.54,12,124.5,Apr-18,1847667,2019-02-27 10:46:39:187,0.4205,0.4727,10.0006,0.0051,0.0284,9.8066,-0.0314,-0.0416,0.0389,0.24,-20.63,-33.72,91.04,0.66,0.79
3698,51.61414,-0.800403,172,32.54,12,124.5,0 / 18,1848167,2019-02-27 10:46:39:687,0.4144,0.5678,8.7409,0.0245,0.0414,9.8065,-0.0506,-0.0565,0.0176,0.55,-19.88,-33.28,87.88,0.42,0.94
3699,51.61414,-0.800403,172,32.54,12,124.5,Mar-18,1848667,2019-02-27 10:46:40:187,-0.214,-0.158,9.5778,0.0048,0.0017,9.8066,0.0165,0.0351,0.0251,0.93,-20.25,-33.34,87.73,0.33,0.86
3700,51.61414,-0.800403,172,32.54,12,124.5,Mar-18,1849166,2019-02-27 10:46:40:686,0.2923,0.0152,9.361,0.0417,0.0296,9.8065,-0.0165,-0.0342,0.0251,0.93,-19.88,-34.16,87.46,0.15,1.1
3701,51.61414,-0.800403,172,32.54,12,124.5,Mar-18,1849666,2019-02-27 10:46:41:186,-0.0142,-0.3755,10.8145,0.0193,-0.0189,9.8066,0.0006,0.0681,0.0293,1.3,-20.25,-33.34,87.48,0.16,1.17
3702,51.61414,-0.800403,172,32.54,12,124.5,Jul-18,1850166,2019-02-27 10:46:41:686,-0.3827,-0.282,10.0897,-0.0721,0.0063,9.8064,0.024,0.0319,0.0144,1.3,-20.25,-32.91,87.28,0.03,1.25
3703,51.61414,-0.800403,172,32.54,12,124.5,Jul-18,1850666,2019-02-27 10:46:42:186,-0.4571,0.3702,9.8915,0.0364,0.0113,9.8066,0.0645,-0.0256,0.0165,0.93,-20.25,-33.72,87.23,0.01,0.82
3704,51.61414,-0.800403,172,32.54,12,124.5,Jul-18,1851166,2019-02-27 10:46:42:686,-0.3833,0.2029,9.5735,0.0262,0.0099,9.8066,0.0442,-0.0299,0.0208,1.68,-19.88,-33.72,84.27,-0.13,1.18
3705,51.61414,-0.800403,172,32.54,12,124.5,Jul-18,1851667,2019-02-27 10:46:43:187,-0.236,-0.1516,10.2702,-0.0053,0.0022,9.8066,0.0379,0.0298,0.0123,2.05,-19.5,-32.47,84.26,-0.14,1.15
3706,51.61414,-0.800403,172,32.54,12,124.5,Jul-18,1852166,2019-02-27 10:46:43:686,0.568,0.1082,10.1273,0.0448,0.0178,9.8065,-0.0314,-0.0065,0.0325,2.05,-20.25,-33.28,84.26,-0.15,1.33
3707,51.61414,-0.800403,172,32.54,12,124.5,Aug-18,1852667,2019-02-27 10:46:44:187,-0.1151,0.0676,9.348,-0.0016,-0.007,9.8066,0.0155,0.0116,0.0144,2.43,-19.56,-33.41,84.16,-0.24,1.57
3708,51.61414,-0.800403,172,32.54,12,124.5,Aug-18,1853166,2019-02-27 10:46:44:686,-0.2609,-0.4629,9.1094,-0.007,0.0088,9.8066,0.0229,0.0329,0.0304,2.43,-20.25,-32.97,84.25,-0.2,1.75
3709,51.61414,-0.800403,172,32.54,12,124.5,Aug-18,1853666,2019-02-27 10:46:45:186,-0.3476,0.0472,10.1167,0.0218,-0.0089,9.8066,0.0102,0.0468,0.0219,2.43,-19.19,-33.84,84.03,-0.16,1.7
3710,51.61414,-0.800403,172,32.54,12,124.5,Aug-18,1854166,2019-02-27 10:46:45:686,0.3854,-0.0106,9.8653,0.0143,0.0111,9.8066,-0.0506,-0.0171,0.0346,2.8,-19.56,-33.84,81.53,-0.23,1.78
3711,51.61414,-0.800403,172,32.54,12,124.5,Aug-18,1854667,2019-02-27 10:46:46:187,0.3843,0.6488,10.2585,-0.0563,0.0105,9.8065,-0.074,-0.0448,0.0208,2.8,-19.56,-33.09,81.36,-0.29,1.42
3712,51.61414,-0.800403,172,32.54,12,124.5,Aug-18,1855167,2019-02-27 10:46:46:687,-0.2967,0.6205,10.5708,-0.1031,0.0295,9.8061,0.0102,-0.0363,0.0101,2.8,-19.94,-33.41,80.98,-0.38,0.47
3713,51.61414,-0.800403,172,32.54,12,124.5,Aug-18,1855666,2019-02-27 10:46:47:186,-0.429,-0.2482,10.7624,-0.0288,-0.01,9.8066,0.0442,0.0457,0.0197,2.8,-19.56,-33.84,80.98,-0.31,0.09
3714,51.61414,-0.800403,172,32.54,12,124.5,Aug-18,1856166,2019-02-27 10:46:47:686,-0.1299,0.1601,9.7686,-0.0283,0.0247,9.8066,-0.0303,-0.0161,0.0069,3.11,-19.56,-33.78,80.84,-0.34,-0.26
3715,51.61414,-0.800403,172,32.54,12,124.5,Aug-18,1856667,2019-02-27 10:46:48:187,0.1317,0.0495,9.2985,-0.0066,-0.0136,9.8066,-0.0335,-0.047,0.0048,2.8,-19.19,-33.41,80.17,-0.43,-0.42
3716,51.61414,-0.800403,172,32.54,12,124.5,Aug-18,1857167,2019-02-27 10:46:48:687,0.1957,-0.0419,10.0246,-0.0731,0.0017,9.8064,-0.0367,0.0074,0.0069,3.49,-19.56,-32.97,80.64,-0.37,-0.84
3717,51.61414,-0.800403,172,32.54,12,124.5,Aug-18,1857666,2019-02-27 10:46:49:186,-0.0379,0.3834,10.2829,-0.0289,0.0233,9.8066,0.0123,-0.0225,0.0091,3.49,-19.19,-36.28,79.63,-0.49,-1.43
3718,51.61414,-0.800403,172,32.54,12,124.5,Aug-18,1858167,2019-02-27 10:46:49:687,-0.0882,-0.2173,9.8959,-0.0195,0.0132,9.8066,0.0102,0.0393,0.0037,2.05,-19.19,-33.78,82.89,-0.41,-1.71
3719,51.61414,-0.800403,172,32.54,12,124.5,Aug-18,1858666,2019-02-27 10:46:50:186,-0.595,0.1404,10.2013,-0.0925,0.0237,9.8062,0.0368,0.0095,-0.0069,3.11,-18.81,-33.34,79.39,-0.51,-2.38
3720,51.61414,-0.800403,172,32.54,12,124.5,Aug-18,1859166,2019-02-27 10:46:50:686,-0.403,0.0406,9.1301,-0.0249,-0.0117,9.8066,-0.0058,-0.0278,0.0059,3.49,-18.81,-33.34,79.47,-0.5,-2.21
3721,51.61414,-0.800403,172,32.54,12,124.5,Aug-18,1859667,2019-02-27 10:46:51:187,0.5055,-0.0809,9.7725,0.0421,0.0091,9.8066,0.0272,0.0244,0.0123,3.11,-18.81,-33.34,79.6,-0.4,-2.34
3722,51.61414,-0.800403,172,32.54,12,124.5,Aug-18,1860167,2019-02-27 10:46:51:687,0.8251,-0.1265,9.5366,0.0921,-0.0175,9.8062,0.0144,-0.0001,0.0176,3.86,-19.5,-32.91,76.77,-0.61,-2.49
3723,51.61414,-0.800403,172,32.54,12,124.5,Aug-18,1860667,2019-02-27 10:46:52:187,-0.1462,-0.4705,11.5564,0.0903,-0.0128,9.8062,0.0091,0.0617,-0.0271,3.18,-19.88,-33.28,79.82,-0.66,-1.96
3724,51.61414,-0.800403,172,32.54,12,124.5,Aug-18,1861166,2019-02-27 10:46:52:686,-0.3101,0.0466,9.176,0.0212,-0.0276,9.8066,0.0389,-0.0075,-0.0058,3.49,-19.13,-33.72,78.7,-0.92,-2.01
3725,51.61414,-0.800403,172,32.54,12,124.5,Aug-18,1861666,2019-02-27 10:46:53:186,0.1894,-0.3546,9.9949,0.0323,0.0008,9.8066,-0.0325,0.002,-0.0005,3.18,-19.88,-33.66,79.27,-0.96,-1.83
3726,51.61414,-0.800403,172,32.54,12,124.5,Aug-18,1862167,2019-02-27 10:46:53:687,0.4157,0.039,8.2447,0.0846,-0.0035,9.8063,-0.0751,-0.1279,0.0187,2.8,-19.5,-33.72,79.28,-0.92,-2.0
3727,51.61414,-0.800403,172,32.54,12,124.5,Aug-18,1862666,2019-02-27 10:46:54:186,0.194,-0.0969,9.9121,-0.0141,-0.0136,9.8066,-0.0463,-0.0704,-0.0005,3.49,-19.5,-32.84,79.42,-0.95,-1.64
3728,51.61414,-0.800403,172,32.54,12,124.5,Aug-18,1863166,2019-02-27 10:46:54:686,0.1624,0.6803,10.1313,-0.0307,0.0005,9.8066,-0.0016,-0.0416,0.0006,3.49,-18.75,-33.66,78.93,-0.86,-1.71
3729,51.61414,-0.800403,172,32.54,12,124.5,Aug-18,1863667,2019-02-27 10:46:55:187,0.0635,0.0676,9.6609,-0.0462,-0.0242,9.8065,0.0229,-0.0342,-0.0101,3.49,-19.13,-33.72,78.97,-0.67,-2.53
3730,51.61414,-0.800403,172,32.54,12,124.5,Aug-18,1864168,2019-02-27 10:46:55:688,0.283,0.0741,10.8146,0.0196,0.0116,9.8066,-0.0506,0.0745,0.0037,3.49,-19.13,-33.22,78.91,-0.76,-2.43
3731,51.61414,-0.800403,172,32.54,12,124.5,Aug-18,1864666,2019-02-27 10:46:56:186,-0.1986,0.1299,9.6328,0.0631,-0.0211,9.8064,0.0283,-0.0459,0.0005,3.86,-19.13,-33.22,75.74,-0.74,-2.65
3732,51.61414,-0.800403,172,32.54,12,124.5,Aug-18,1865167,2019-02-27 10:46:56:687,0.534,-0.2364,11.2677,0.0175,-0.0268,9.8066,-0.0452,0.0148,0.0091,3.49,-19.13,-33.66,79.29,-0.58,-2.12
3733,51.61414,-0.800403,172,32.54,12,124.5,Aug-18,1865666,2019-02-27 10:46:57:186,0.3397,-0.1813,10.022,0.0434,-0.0209,9.8065,0.0144,0.0042,0.0059,3.18,-19.5,-33.66,79.71,-0.65,-2.2
3734,51.61414,-0.800403,172,32.54,12,124.5,Aug-18,1866167,2019-02-27 10:46:57:687,0.3228,-0.0374,10.0384,0.0315,-0.0074,9.8066,-0.0133,0.0063,0.0069,3.49,-19.13,-33.59,79.37,-0.57,-2.0
3735,51.61414,-0.800403,172,32.54,12,124.5,Aug-18,1866666,2019-02-27 10:46:58:186,0.195,0.5664,10.5761,0.022,-0.0054,9.8066,0.0123,-0.0576,-0.0026,3.18,-19.13,-34.09,79.43,-0.56,-1.87
3736,51.61414,-0.800403,172,32.54,12,124.5,Aug-18,1867166,2019-02-27 10:46:58:686,0.2161,-0.0565,9.3737,-0.0113,-0.0091,9.8066,-0.058,-0.0054,0.0027,3.49,-18.75,-33.66,79.33,-0.55,-2.16
3737,51.61414,-0.800403,172,32.54,12,124.5,Aug-18,1867666,2019-02-27 10:46:59:186,-0.101,0.1592,9.9671,-0.0135,-0.0136,9.8066,0.0389,0.0191,-0.0048,3.49,-18.75,-33.66,79.59,-0.4,-2.28
3738,51.61414,-0.800403,172,32.54,12,124.5,Aug-18,1868166,2019-02-27 10:46:59:686,0.1774,0.506,9.8708,-0.013,0.0296,9.8066,-0.0335,-0.0683,0.0048,3.49,-19.13,-34.03,79.75,-0.38,-1.9
3739,51.61414,-0.800403,172,32.54,12,124.5,Aug-18,1868667,2019-02-27 10:47:00:187,0.4063,-0.0424,9.6015,0.0116,-0.0316,9.8066,-0.0367,-0.0129,0.0048,2.8,-19.5,-33.66,80.3,-0.37,-1.9
3740,51.61414,-0.800403,172,32.54,12,124.5,Aug-18,1869167,2019-02-27 10:47:00:687,0.1834,0.0872,9.9302,0.0438,-0.012,9.8065,-0.008,0.001,0.0027,3.49,-19.88,-33.66,80.58,-0.21,-1.91
3741,51.61414,-0.800403,172,32.54,12,124.5,Aug-18,1869667,2019-02-27 10:47:01:187,0.0039,-0.0355,11.0738,0.0484,-0.0036,9.8065,0.0123,0.002,0.008,3.49,-19.13,-33.66,80.11,-0.24,-1.63
3742,51.61414,-0.800403,172,32.54,12,124.5,Aug-18,1870167,2019-02-27 10:47:01:687,-0.343,-0.2902,9.096,-0.0317,-0.0056,9.8066,0.0059,-0.0214,0.0027,3.86,-19.13,-34.03,77.16,-0.15,-1.77
3743,51.61414,-0.800403,172,32.54,12,124.5,Aug-18,1870666,2019-02-27 10:47:02:186,-0.2281,-0.1247,10.2275,-0.0488,0.019,9.8065,-0.0101,0.0447,-0.0048,3.49,-19.13,-34.03,80.29,-0.15,-1.59
3744,51.61414,-0.800403,172,32.54,12,124.5,Aug-18,1871166,2019-02-27 10:47:02:686,0.0198,0.1802,9.3143,-0.0184,-0.0102,9.8066,-0.0058,-0.0193,-0.0026,3.18,-18.75,-33.59,80.19,-0.13,-1.99
3745,51.61414,-0.800403,172,32.54,12,124.5,Aug-18,1871666,2019-02-27 10:47:03:186,0.0833,0.1449,9.9185,0.039,0.0082,9.8066,-0.0271,-0.0533,0.0101,3.49,-19.13,-33.66,79.99,-0.18,-2.28
3746,51.61414,-0.800403,172,32.54,12,124.5,Aug-18,1872167,2019-02-27 10:47:03:687,0.0315,-0.1973,9.8871,-0.0112,-0.0312,9.8066,0.0091,0.0532,0.008,3.49,-19.5,-33.59,80.43,-0.27,-2.06
3747,51.61414,-0.800403,172,32.54,12,124.5,Aug-18,1872666,2019-02-27 10:47:04:186,0.2313,-0.0903,9.3722,-0.0016,-0.0052,9.8066,-0.0293,0.0095,-0.0037,3.86,-18.75,-32.78,76.88,-0.26,-2.05
3748,51.61223,-0.777002,0,0.0,1100,0.0,Aug-18,1873166,2019-02-27 10:47:04:686,-0.1052,0.2795,9.1454,-0.026,-0.0302,9.8066,0.0283,-0.0534,-0.0026,3.86,-18.75,-33.66,77.18,-0.05,-2.16
3749,51.61223,-0.777002,0,0.0,1100,0.0,Aug-18,1873666,2019-02-27 10:47:05:186,-0.4925,-0.5549,8.3204,-0.0399,-0.0168,9.8066,0.0219,-0.0054,-0.0037,3.11,-19.19,-33.34,80.63,0.18,-2.48
3750,51.61223,-0.777002,0,0.0,1100,0.0,Aug-18,1874166,2019-02-27 10:47:05:686,0.1207,0.5367,10.3534,-0.0341,-0.0906,9.8062,0.0016,-0.0054,0.0016,3.49,-19.56,-33.41,81.2,0.22,-2.48
3751,51.61223,-0.777002,0,0.0,1100,0.0,Aug-18,1874666,2019-02-27 10:47:06:186,0.2061,-0.281,10.3338,0.0255,-0.0265,9.8066,-0.0058,-0.0715,0.0048,3.49,-20.25,-33.78,82.19,0.77,-2.59
3752,51.61223,-0.777002,0,0.0,1100,0.0,Aug-18,1875166,2019-02-27 10:47:06:686,0.4762,-0.1261,9.3141,0.0057,-0.0791,9.8063,-0.0378,-0.0502,0.0069,3.49,-19.19,-33.78,82.77,1.24,-2.07
3753,51.61223,-0.777002,0,0.0,1100,0.0,Aug-18,1875667,2019-02-27 10:47:07:187,-0.027,-0.3954,9.5471,-0.0039,-0.1671,9.8052,0.0048,0.0074,0.0091,3.86,-19.19,-33.72,81.5,2.21,-1.97
3754,51.61223,-0.777002,0,0.0,1100,0.0,Aug-18,1876167,2019-02-27 10:47:07:687,0.5448,0.1313,7.7062,0.0089,-0.0598,9.8065,-0.0612,-0.145,-0.0048,3.86,-18.81,-33.78,81.98,2.45,-1.9
3755,51.61223,-0.777002,0,0.0,1100,0.0,Aug-18,1876666,2019-02-27 10:47:08:186,-0.015,-0.6454,11.2478,-0.0495,-0.0583,9.8064,-0.0111,0.1022,-0.009,3.86,-19.5,-33.72,83.68,3.16,-2.04
3756,51.61223,-0.777002,0,0.0,1100,0.0,Aug-18,1877166,2019-02-27 10:47:08:686,0.2142,0.3806,9.7369,-0.0243,-0.0128,9.8066,-0.0271,-0.0161,0.0027,3.49,-19.5,-33.72,87.17,3.41,-2.09
3757,51.61223,-0.777002,0,0.0,1100,0.0,Aug-18,1877667,2019-02-27 10:47:09:187,0.1991,0.0512,10.0124,-0.0267,-0.0084,9.8066,-0.0474,0.0553,0.008,3.49,-18.81,-33.72,87.27,3.55,-2.27
3758,51.61223,-0.777002,0,0.0,1100,0.0,Aug-18,1878166,2019-02-27 10:47:09:686,-0.2094,-0.7203,10.6517,-0.0148,-0.0239,9.8066,0.0229,0.1533,0.0016,3.86,-19.88,-33.34,84.28,3.61,-2.42
3759,51.61223,-0.777002,0,0.0,1100,0.0,Aug-18,1878666,2019-02-27 10:47:10:186,-0.5861,-0.1708,9.486,-0.002,0.0016,9.8067,0.0411,0.0329,0.0091,4.24,-19.5,-33.72,84.74,3.75,-2.15
3760,51.61223,-0.777002,0,0.0,1100,0.0,Aug-18,1879167,2019-02-27 10:47:10:687,-0.1137,-0.0743,8.8227,0.0378,0.0821,9.8062,-0.008,0.0148,0.0048,3.49,-19.5,-33.72,86.85,3.24,-1.99
3761,51.61223,-0.777002,0,0.0,1100,0.0,Aug-18,1879667,2019-02-27 10:47:11:187,0.032,0.1026,9.2526,-0.0493,0.0227,9.8065,-0.0442,-0.0342,0.0059,3.49,-19.13,-34.09,86.21,3.01,-2.17
3762,51.61223,-0.777002,0,0.0,1100,0.0,Aug-18,1880167,2019-02-27 10:47:11:687,-0.0176,0.5843,9.7597,-0.0626,0.0039,9.8065,-0.0133,-0.0129,-0.0165,3.18,-19.5,-34.53,86.35,2.92,-2.83
3763,51.61223,-0.777002,0,0.0,1100,0.0,Aug-18,1880666,2019-02-27 10:47:12:186,-0.2612,0.7836,9.7807,-0.0917,0.157,9.805,0.0016,0.0276,-0.0176,3.49,-19.5,-33.66,84.49,2.05,-3.19
3764,51.61223,-0.777002,0,0.0,1100,0.0,Aug-18,1881166,2019-02-27 10:47:12:686,0.0036,0.7539,9.6494,-0.0493,0.1739,9.805,0.0102,-0.0171,-0.0058,2.43,-19.13,-34.09,85.65,1.19,-3.81
3765,51.61223,-0.777002,0,0.0,1100,0.0,Aug-18,1881666,2019-02-27 10:47:13:186,0.3189,0.3715,9.3,0.0415,0.1746,9.805,0.0059,0.0074,-0.0133,2.05,-19.13,-33.66,78.69,-2.11,-4.18
3766,51.61223,-0.777002,0,0.0,1100,0.0,Aug-18,1882166,2019-02-27 10:47:13:686,-0.0797,0.4731,9.715,0.0147,0.0999,9.8061,0.0229,0.0266,-0.0239,3.18,-18.81,-32.47,74.15,-2.99,-4.09
3767,51.61223,-0.777002,0,0.0,1100,0.0,Aug-18,1882666,2019-02-27 10:47:14:186,0.0661,0.5392,9.348,0.0764,0.1386,9.8054,0.0048,-0.0086,-0.0005,0.93,-19.88,-29.09,79.35,-4.49,-4.01
3768,51.61223,-0.777002,0,0.0,1100,0.0,Aug-18,1883168,2019-02-27 10:47:14:688,0.298,-0.0496,9.1208,0.0931,0.0219,9.8062,0.0283,-0.0363,0.0091,2.05,-18.44,-31.59,73.03,-5.01,-3.55
3769,51.61223,-0.777002,0,0.0,1100,0.0,Aug-18,1883667,2019-02-27 10:47:15:187,0.8635,-0.2308,9.7614,0.0592,-0.0745,9.8062,-0.0506,-0.015,0.0059,2.05,-18.06,-34.09,72.13,-5.29,-3.07
3770,51.61223,-0.777002,0,0.0,1100,0.0,Aug-18,1884166,2019-02-27 10:47:15:686,0.4058,-0.4995,10.2482,0.0638,-0.1702,9.805,0.0197,-0.0054,0.0037,3.18,-19.13,-33.28,73.17,-3.97,-2.36
3771,51.61223,-0.777002,0,0.0,1100,0.0,Aug-18,1884667,2019-02-27 10:47:16:187,-0.3229,-0.8983,10.8857,0.0608,-0.327,9.801,0.0304,0.0511,0.0027,3.49,-19.5,-33.22,77.31,-2.25,-1.47
3772,51.61223,-0.777002,0,0.0,1100,0.0,Aug-18,1885166,2019-02-27 10:47:16:686,0.3943,-0.1576,9.3308,0.0187,-0.0528,9.8065,-0.0154,-0.0171,0.0176,3.18,-19.5,-34.09,78.79,-1.47,-0.71
3773,51.61223,-0.777002,0,0.0,1100,0.0,Aug-18,1885667,2019-02-27 10:47:17:187,0.3005,0.393,10.9579,0.0366,-0.0132,9.8066,0.0187,0.0106,0.0027,3.86,-18.75,-33.22,76.3,-1.03,-0.25
3774,51.61223,-0.777002,0,0.0,1100,0.0,Aug-18,1886166,2019-02-27 10:47:17:686,-0.0933,-0.2261,9.1687,0.0425,-0.0446,9.8065,-0.0293,-0.0235,0.0155,3.49,-18.44,-33.22,78.74,-1.01,-0.03
3775,51.61223,-0.777002,0,0.0,1100,0.0,Aug-18,1886666,2019-02-27 10:47:18:186,0.0493,-0.074,9.82,0.006,-0.0003,9.8066,-0.041,0.0319,0.0112,1.3,-16.56,-32.78,85.0,-0.85,0.06
3776,51.61223,-0.777002,0,0.0,1100,0.0,Aug-18,1887167,2019-02-27 10:47:18:687,-0.2025,-0.2993,9.4621,-0.049,0.0042,9.8065,0.0123,0.0372,-0.0016,4.61,-17.69,-32.78,73.09,-0.85,0.1
3777,51.61223,-0.777002,0,0.0,1100,0.0,Aug-18,1887666,2019-02-27 10:47:19:186,-0.0433,0.0788,9.5891,-0.0248,-0.0137,9.8066,-0.025,-0.031,-0.009,4.24,-19.5,-33.22,77.31,-0.76,-0.49
3778,51.61223,-0.777002,0,0.0,1100,0.0,Aug-18,1888167,2019-02-27 10:47:19:687,-0.6675,-0.5525,9.5617,-0.0787,0.0103,9.8063,0.0283,0.0372,-0.0048,3.86,-18.75,-32.78,76.53,-0.72,-0.96
3779,51.61223,-0.777002,0,0.0,1100,0.0,Aug-18,1888667,2019-02-27 10:47:20:187,0.1244,0.2921,8.8511,-0.0227,0.0082,9.8066,-0.0325,-0.0544,-0.0016,3.86,-19.5,-33.28,77.03,-0.78,-1.13
3780,51.61223,-0.777002,0,0.0,1100,0.0,Aug-18,1889167,2019-02-27 10:47:20:687,-0.1334,-0.148,9.5077,-0.0821,0.0064,9.8063,-0.0122,-0.0224,-0.0016,3.86,-19.13,-32.78,76.19,-0.72,-1.75
3781,51.61223,-0.777002,0,0.0,1100,0.0,Aug-18,1889666,2019-02-27 10:47:21:186,0.0935,-0.0307,9.9517,-0.0386,-0.0078,9.8066,-0.0079,0.0159,0.0006,3.86,-19.5,-32.41,77.08,-0.64,-1.76
3782,51.61223,-0.777002,0,0.0,1100,0.0,Aug-18,1890166,2019-02-27 10:47:21:686,-0.3,-0.1513,9.8061,-0.0367,-0.043,9.8065,-0.0048,-0.0065,-0.0069,3.86,-19.13,-32.78,76.84,-0.26,-2.13
3783,51.61223,-0.777002,0,0.0,1100,0.0,Aug-18,1890666,2019-02-27 10:47:22:186,0.2058,0.1248,9.4294,-0.0058,-0.0098,9.8066,0.0421,0.034,-0.0026,3.86,-19.13,-33.22,76.95,-0.19,-2.15
3784,51.61223,-0.777002,0,0.0,1100,0.0,Aug-18,1891167,2019-02-27 10:47:22:687,0.128,-0.0777,9.441,0.0301,-0.0268,9.8066,-0.0079,0.0159,-0.0026,4.61,-19.88,-33.28,74.84,-0.1,-2.29
3785,51.61223,-0.777002,0,0.0,1100,0.0,Aug-18,1891666,2019-02-27 10:47:23:186,-0.3055,-0.2537,9.2561,-0.0121,0.0057,9.8066,-0.041,-0.015,0.0016,4.24,-19.13,-33.66,77.25,-0.01,-2.15
3786,51.61223,-0.777002,0,0.0,1100,0.0,Aug-18,1892167,2019-02-27 10:47:23:687,-0.3288,-0.3005,9.4555,-0.0181,-0.0039,9.8066,-0.0037,-0.0161,-0.0112,3.86,-19.5,-33.22,77.89,0.02,-2.41
3787,51.61223,-0.777002,0,0.0,1100,0.0,Aug-18,1892666,2019-02-27 10:47:24:186,0.258,0.5099,10.0925,0.0041,-0.0129,9.8066,0.0155,0.0159,0.0069,3.49,-19.5,-33.22,81.05,0.13,-2.47
3788,51.61223,-0.777002,0,0.0,1100,0.0,Aug-18,1893167,2019-02-27 10:47:24:687,0.5365,0.3556,8.7963,0.0596,-0.022,9.8064,-0.0037,0.0074,0.0123,4.24,-19.13,-33.66,77.63,0.21,-2.26
3789,51.61223,-0.777002,0,0.0,1100,0.0,Aug-18,1893667,2019-02-27 10:47:25:187,0.4371,0.009,10.0768,0.0267,-0.04,9.8065,-0.0271,-0.0469,0.008,3.86,-19.13,-33.59,78.11,0.34,-1.66
3790,51.61223,-0.777002,0,0.0,1100,0.0,Aug-18,1894167,2019-02-27 10:47:25:687,-0.1705,-0.3697,9.8015,0.0434,-0.0121,9.8065,-0.0378,-0.0512,0.0133,4.61,-19.13,-34.03,75.69,0.56,-1.2
3791,51.61223,-0.777002,0,0.0,1100,0.0,Aug-18,1894666,2019-02-27 10:47:26:186,0.0888,0.2906,10.2549,0.0405,0.0098,9.8066,-0.0026,-0.031,0.0208,3.86,-19.13,-33.22,79.14,0.81,-1.03
3792,51.61223,-0.777002,0,0.0,1100,0.0,Aug-18,1895167,2019-02-27 10:47:26:687,-0.1107,0.1833,9.2581,0.0372,0.0019,9.8066,0.0315,0.0159,0.0048,4.61,-19.5,-32.78,76.76,0.65,-0.6
3793,51.61223,-0.777002,0,0.0,1100,0.0,Aug-18,1895667,2019-02-27 10:47:27:187,-0.024,0.254,9.3265,0.0475,0.0669,9.8063,-0.0058,-0.0043,0.0059,5.04,-19.16,-34.02,75.68,0.29,-0.15
3794,51.61223,-0.777002,0,0.0,1100,0.0,Aug-18,1896166,2019-02-27 10:47:27:686,-0.0709,0.7314,10.7543,-0.0115,0.112,9.806,0.0155,-0.0331,0.0027,5.04,-19.53,-33.64,75.72,-0.16,0.03
3795,51.61223,-0.777002,0,0.0,1100,0.0,Aug-18,1896666,2019-02-27 10:47:28:186,-0.4434,0.6562,9.874,-0.0368,0.2043,9.8045,-0.0058,-0.0129,-0.0058,4.67,-19.91,-33.64,71.35,-2.61,-0.96
3796,51.61223,-0.777002,0,0.0,1100,0.0,Aug-18,1897166,2019-02-27 10:47:28:686,-0.4512,0.5997,8.963,-0.0446,0.1606,9.8052,0.0283,-0.0086,-0.0112,4.67,-19.16,-33.64,68.73,-3.41,-1.5
3797,51.61223,-0.777002,0,0.0,1100,0.0,Aug-18,1897666,2019-02-27 10:47:29:186,-0.0172,0.3747,9.0222,-0.0013,0.0703,9.8064,0.007,0.0084,-0.0058,4.67,-19.53,-33.58,68.34,-4.02,-2.19
3798,51.61223,-0.777002,0,0.0,1100,0.0,Aug-18,1898167,2019-02-27 10:47:29:687,-0.3155,-0.6053,8.0824,-0.0883,-0.0852,9.8059,0.024,0.0734,-0.0186,5.42,-19.53,-34.02,67.54,-4.21,-2.87
3799,51.61223,-0.777002,0,0.0,1100,0.0,Aug-18,1898666,2019-02-27 10:47:30:186,-0.5261,-0.7627,9.3821,-0.0599,-0.0969,9.806,-0.0655,-0.0906,0.0037,2.86,-19.53,-34.02,74.07,-3.55,-3.16
3800,51.61223,-0.777002,0,0.0,1100,0.0,Aug-18,1899166,2019-02-27 10:47:30:686,-0.4206,-0.9351,10.2887,-0.1324,-0.3803,9.7984,0.0293,0.0244,-0.0112,4.67,-19.91,-33.2,73.56,-0.56,-3.28
3801,51.61223,-0.777002,0,0.0,1100,0.0,Aug-18,1899666,2019-02-27 10:47:31:186,0.1208,-0.5266,9.7757,-0.0634,-0.1601,9.8051,0.0006,0.0223,-0.0048,4.67,-19.16,-33.64,74.43,0.44,-3.37
3802,51.61223,-0.777002,0,0.0,1100,0.0,Aug-18,1900167,2019-02-27 10:47:31:687,-0.0005,-0.2895,9.902,-0.0192,-0.1161,9.8059,-0.0133,0.0202,0.0037,4.67,-19.53,-34.08,77.07,1.44,-3.41
3803,51.61223,-0.777002,0,0.0,1100,0.0,Aug-18,1900666,2019-02-27 10:47:32:186,-0.0808,-0.1175,9.2682,-0.0538,-0.0883,9.8061,0.0102,-0.0043,-0.0005,4.67,-19.53,-33.2,79.28,2.69,-3.57
3804,51.61223,-0.777002,0,0.0,1100,0.0,Aug-18,1901166,2019-02-27 10:47:32:686,0.1213,0.3361,10.0432,0.0169,-0.0531,9.8065,-0.0026,0.0543,-0.0058,3.92,-19.16,-34.08,82.98,3.09,-3.11
3805,51.61223,-0.777002,0,0.0,1100,0.0,Aug-18,1901667,2019-02-27 10:47:33:187,-0.4263,-0.0712,10.1005,-0.0136,-0.04,9.8066,-0.042,0.0159,0.0048,5.04,-19.53,-34.08,81.33,3.63,-3.01
3806,51.61223,-0.777002,0,0.0,1100,0.0,Aug-18,1902166,2019-02-27 10:47:33:686,-0.2961,-0.2525,9.345,0.0593,-0.0329,9.8064,-0.0143,0.0042,0.0037,4.67,-19.91,-33.64,81.8,3.89,-3.08
3807,51.61223,-0.777002,0,0.0,1100,0.0,Aug-18,1902666,2019-02-27 10:47:34:186,-0.0362,0.1256,8.7304,0.0306,-0.0112,9.8066,0.0251,-0.0139,-0.0048,4.67,-19.53,-33.64,82.68,4.3,-2.49
3808,51.61223,-0.777002,0,0.0,1100,0.0,Aug-18,1903167,2019-02-27 10:47:34:687,0.0471,-0.1664,10.5986,0.0216,0.0015,9.8066,-0.0356,-0.0587,-0.0016,4.67,-20.66,-33.64,83.14,4.31,-2.18
3809,51.61223,-0.777002,0,0.0,1100,0.0,Aug-18,1903667,2019-02-27 10:47:35:187,0.0853,0.2166,9.5317,0.0046,-0.0206,9.8066,0.0304,0.018,-0.0218,4.29,-20.28,-33.2,85.59,4.33,-2.31
3810,51.61223,-0.777002,0,0.0,1100,0.0,Aug-18,1904166,2019-02-27 10:47:35:686,0.3747,0.368,10.4924,0.0683,0.0479,9.8063,-0.0335,-0.0267,0.0091,3.92,-18.78,-33.64,85.23,4.14,-1.9
3811,51.61223,-0.777002,0,0.0,1100,0.0,Aug-18,1904666,2019-02-27 10:47:36:186,-0.1765,0.2067,10.3481,0.0391,-0.0528,9.8064,-0.0079,0.0042,-0.0026,4.29,-19.16,-34.02,85.18,4.11,-1.92
3812,51.61223,-0.777002,0,0.0,1100,0.0,Aug-18,1905167,2019-02-27 10:47:36:687,0.3588,0.1741,10.2767,0.036,0.0602,9.8064,-0.0016,-0.0086,-0.0026,4.67,-18.78,-33.64,82.61,4.4,-1.67
3813,51.61223,-0.777002,0,0.0,1100,0.0,Aug-18,1905666,2019-02-27 10:47:37:186,0.2534,0.29,11.1369,0.0114,0.0144,9.8066,0.0283,0.0095,-0.0154,4.67,-19.16,-34.08,81.67,3.9,-1.62
3814,51.61223,-0.777002,0,0.0,1100,0.0,Aug-18,1906166,2019-02-27 10:47:37:686,0.5537,0.229,9.3211,0.0218,0.0687,9.8064,-0.0197,-0.0043,0.0059,5.04,-18.78,-34.39,82.09,4.12,-1.54
3815,51.61223,-0.777002,0,0.0,1100,0.0,Aug-18,1906667,2019-02-27 10:47:38:187,-0.1116,0.0127,9.7856,-0.0148,-0.0161,9.8066,0.0272,-0.0288,-0.0016,4.29,-19.53,-34.08,84.91,3.81,-1.54
3816,51.61223,-0.777002,0,0.0,1100,0.0,Aug-18,1907166,2019-02-27 10:47:38:686,0.0267,-0.0121,9.841,-0.0235,0.0449,9.8065,-0.0122,-0.0054,0.0048,4.67,-19.53,-33.64,82.02,3.83,-1.38
3817,51.61223,-0.777002,0,0.0,1100,0.0,Aug-18,1907667,2019-02-27 10:47:39:187,0.2072,0.2199,10.1867,-0.0132,-0.0074,9.8066,0.0368,-0.0075,-0.0005,4.67,-19.16,-34.45,81.1,3.59,-1.55
3818,51.61223,-0.777002,0,0.0,1100,0.0,Aug-18,1908166,2019-02-27 10:47:39:686,-0.5682,0.1596,9.3164,-0.026,0.0286,9.8066,-0.0207,-0.0427,0.0165,5.04,-19.16,-34.39,81.36,3.75,-1.77
3819,51.61223,-0.777002,0,0.0,1100,0.0,Aug-18,1908667,2019-02-27 10:47:40:187,0.3223,0.4343,9.7079,-0.0379,0.0588,9.8064,0.0272,0.0511,-0.0122,4.67,-19.53,-33.64,81.2,3.45,-2.04
3820,51.61223,-0.777002,0,0.0,1100,0.0,Aug-18,1909166,2019-02-27 10:47:40:686,-0.3473,0.007,10.3018,-0.0015,0.007,9.8066,-0.0048,-0.0278,0.0112,4.67,-19.53,-34.02,81.14,3.44,-2.29
3821,51.61223,-0.777002,0,0.0,1100,0.0,Aug-18,1909667,2019-02-27 10:47:41:187,-0.354,-0.3647,9.8614,0.0102,-0.006,9.8066,-0.0506,-0.0619,0.0048,4.67,-19.53,-33.58,81.2,3.47,-2.23
3822,51.61223,-0.777002,0,0.0,1100,0.0,Aug-18,1910166,2019-02-27 10:47:41:686,0.4086,0.8543,8.6009,0.0514,0.2655,9.8029,0.0336,0.0532,-0.0165,4.67,-19.16,-34.02,80.51,3.35,-2.12
3823,51.61223,-0.777002,0,0.0,1100,0.0,Aug-18,1910667,2019-02-27 10:47:42:187,0.3582,0.4856,9.1842,0.0771,0.2151,9.804,0.0517,0.0202,-0.0016,4.29,-19.53,-33.64,78.81,0.51,-2.25
3824,51.61223,-0.777002,0,0.0,1100,0.0,Aug-18,1911166,2019-02-27 10:47:42:686,-0.3723,0.1816,10.0421,-0.0031,0.1497,9.8055,-0.0048,-0.0416,0.0091,4.67,-19.16,-33.58,72.84,-0.81,-2.06
3825,51.61223,-0.777002,0,0.0,1100,0.0,Aug-18,1911666,2019-02-27 10:47:43:186,-0.7642,-0.8785,9.9597,0.0361,-0.2849,9.8024,0.0656,-0.0011,0.0016,4.67,-19.16,-33.95,74.31,-0.09,-1.68
3826,51.61223,-0.777002,0,0.0,1100,0.0,Aug-18,1912166,2019-02-27 10:47:43:686,0.2344,-0.2029,10.1805,0.0456,-0.1468,9.8054,-0.0133,-0.0576,0.0091,5.04,-19.91,-33.58,76.58,0.66,-1.19
3827,51.61223,-0.777002,0,0.0,1100,0.0,Aug-18,1912667,2019-02-27 10:47:44:187,-0.131,0.6265,10.5534,0.0406,0.0843,9.8062,0.0219,0.0596,-0.0122,5.04,-19.16,-34.02,77.26,1.4,-1.01
3828,51.61223,-0.777002,0,0.0,1100,0.0,Aug-18,1913166,2019-02-27 10:47:44:686,-0.5865,-0.1313,9.5509,-0.0249,0.0768,9.8063,-0.0122,0.0319,-0.0037,4.67,-18.78,-34.02,75.54,0.45,-1.11
3829,51.61223,-0.777002,0,0.0,1100,0.0,Aug-18,1913666,2019-02-27 10:47:45:186,0.2261,0.2364,9.7107,0.0372,0.0852,9.8062,0.0027,0.0297,0.0037,4.67,-18.41,-33.95,73.83,0.03,-1.36
3830,51.61223,-0.777002,0,0.0,1100,0.0,Aug-18,1914166,2019-02-27 10:47:45:686,-0.49,0.0307,9.7368,-0.0145,0.1018,9.8061,0.0293,0.0063,-0.0101,3.92,-18.41,-34.39,74.81,-1.07,-1.51
3831,51.61223,-0.777002,0,0.0,1100,0.0,Aug-18,1914667,2019-02-27 10:47:46:187,0.5169,0.6524,11.2623,0.0728,0.2461,9.8033,-0.0069,0.0127,-0.0069,3.92,-18.03,-33.95,72.07,-2.57,-1.48
3832,51.61223,-0.777002,0,0.0,1100,0.0,Aug-18,1915166,2019-02-27 10:47:46:686,0.1918,0.234,9.2049,0.0666,0.066,9.8062,0.0134,0.002,-0.0016,3.92,-17.35,-34.02,69.83,-3.28,-1.3
3833,51.61223,-0.777002,0,0.0,1100,0.0,Aug-18,1915667,2019-02-27 10:47:47:187,-0.2637,-0.1936,10.0114,-0.0132,-0.0074,9.8066,-0.0005,-0.0107,-0.0101,4.29,-17.66,-34.89,70.06,-3.71,-1.12
3834,51.61223,-0.777002,0,0.0,1100,0.0,Aug-18,1916166,2019-02-27 10:47:47:686,-0.671,-0.4817,9.997,-0.0425,-0.0479,9.8064,0.0421,0.0564,-0.0367,4.29,-17.22,-34.89,69.22,-3.5,-1.28
3835,51.61223,-0.777002,0,0.0,1100,0.0,Aug-18,1916667,2019-02-27 10:47:48:187,-0.1104,-0.3806,10.3032,-0.0439,-0.0564,9.8064,-0.009,0.0479,-0.0133,3.92,-17.53,-35.02,71.51,-2.75,-1.55
3836,51.61223,-0.777002,0,0.0,1100,0.0,Aug-18,1917166,2019-02-27 10:47:48:686,-0.247,-0.1935,10.3058,-0.076,-0.0399,9.8063,0.0251,0.0606,-0.0389,3.23,-17.53,-34.58,74.75,-2.54,-1.99
3837,51.61223,-0.777002,0,0.0,1100,0.0,Aug-18,1917666,2019-02-27 10:47:49:186,-0.0858,0.0141,9.6634,-0.0533,-0.0364,9.8064,0.0016,0.0106,-0.0314,3.23,-15.72,-34.95,73.79,-1.91,-2.6
3838,51.61223,-0.777002,0,0.0,1100,0.0,Aug-18,1918167,2019-02-27 10:47:49:687,0.6025,0.0193,9.5863,-0.0068,-0.0111,9.8066,-0.0463,-0.031,-0.008,3.23,-16.78,-34.89,75.13,-1.73,-2.65
3839,51.61223,-0.777002,0,0.0,1100,0.0,Aug-18,1918666,2019-02-27 10:47:50:186,-0.2395,-0.1796,10.2211,-0.0122,-0.0133,9.8066,0.007,0.0202,-0.0165,3.23,-17.53,-34.83,76.73,-1.41,-2.52
3840,51.61223,-0.777002,0,0.0,1100,0.0,Aug-18,1919166,2019-02-27 10:47:50:686,0.2335,0.0641,9.5439,-0.0349,-0.0149,9.8066,-0.0388,-0.0054,-0.0165,2.11,-17.16,-36.08,79.52,-1.32,-2.57
3841,51.61223,-0.777002,0,0.0,1100,0.0,Aug-18,1919666,2019-02-27 10:47:51:186,-0.3423,-0.0043,10.1298,-0.0715,-0.0215,9.8064,0.0187,0.0074,-0.0197,2.11,-16.78,-35.58,79.81,-1.12,-2.96
3842,51.61223,-0.777002,0,0.0,1100,0.0,Aug-18,1920166,2019-02-27 10:47:51:686,0.0182,0.1993,9.2375,-0.0558,-0.0067,9.8065,0.0347,0.0788,-0.0367,0.67,-13.47,-35.58,81.8,-0.91,-3.17
3843,51.61223,-0.777002,0,0.0,1100,0.0,Aug-18,1920666,2019-02-27 10:47:52:186,1.1857,-0.0179,10.9033,0.0048,0.0048,9.8066,0.0229,-0.0715,-0.0218,4.29,-16.41,-35.58,72.4,-0.51,-3.69
3844,51.61223,-0.777002,0,0.0,1100,0.0,Aug-18,1921166,2019-02-27 10:47:52:686,0.1475,-0.0342,8.9546,-0.023,-0.0337,9.8066,-0.0474,0.0042,-0.0314,2.48,-17.85,-33.95,82.13,-0.28,-3.76
3845,51.61223,-0.777002,0,0.0,1100,0.0,Aug-18,1921667,2019-02-27 10:47:53:187,0.0006,-0.4178,8.9174,0.0329,-0.0332,9.8065,-0.0207,0.0138,-0.0293,1.73,-17.16,-33.95,81.63,-0.19,-4.31
3846,51.61223,-0.777002,0,0.0,1100,0.0,Aug-18,1922167,2019-02-27 10:47:53:687,0.3888,-0.306,9.5958,0.0178,-0.0028,9.8066,0.0166,0.0638,-0.0208,0.29,-17.47,-34.33,89.94,-0.03,-3.99
3847,51.61223,-0.777002,0,0.0,1100,0.0,Aug-18,1922666,2019-02-27 10:47:54:186,0.0827,0.4659,10.129,0.0167,0.011,9.8066,-0.0037,-0.0054,-0.0261,-0.08,-17.85,-34.77,90.13,0.06,-3.98
3848,51.61223,-0.777002,0,0.0,1100,0.0,Aug-18,1923166,2019-02-27 10:47:54:686,0.1707,0.0483,9.706,0.0344,-0.0056,9.8066,-0.0101,-0.0224,-0.0154,1.4,-17.53,-36.48,86.37,0.01,-3.68
3849,51.61223,-0.777002,0,0.0,1100,0.0,Aug-18,1923666,2019-02-27 10:47:55:186,0.1707,0.0483,9.706,0.0344,-0.0056,9.8066,-0.0101,-0.0224,-0.0154,1.4,-17.53,-36.48,86.37,0.01,-3.68
3850,51.61223,-0.777002,0,0.0,1100,0.0,Aug-18,1924166,2019-02-27 10:47:55:686,0.0805,-0.3543,10.7447,0.0536,-0.0338,9.8064,-0.0069,-0.0246,-0.0026,0.71,-17.22,-36.48,86.12,0.01,-3.68
