,GPS LATITUDE (degrees), GPS LONGITUDE (degrees), GPS ALTITUDE (m), GPS SPEED (Kmh), GPS ACCURACY (m), GPS ORIENTATION (Â°),GPS SATELLITES IN RANGE, TIME SINCE START (ms), DATE (YYYY-MO-DD HH-MI-SS_SSS), ACCELEROMETER X (m/s²) , ACCELEROMETER Y (m/s²), ACCELEROMETER Z (m/s²), GRAVITY X (m/s²), GRAVITY Y (m/s²), GRAVITY Z (m/s²), GYROSCOPE Yaw (rad/s), GYROSCOPE Pitch (rad/s), GYROSCOPE Roll (rad/s), MAGNETIC FIELD X (Î¼T), MAGNETIC FIELD Y (Î¼T), MAGNETIC FIELD Z (Î¼T), ORIENTATION (Yaw) (Â°), ORIENTATION (Pitch) (Â°), ORIENTATION (Roll ) (Â°)
22570,52.74667,-1.692319,108.07,19.71,4,181.42,23 / 23,2257020,2019-11-06 11:19:24:363,-0.6371,-0.6912,9.9216,0.0048,-0.0299,9.8066,0.0117,-0.0322,0.1441,-14.44,-36.25,35.25,250.71,-82.1,99.53
22571,52.74667,-1.692319,108.07,19.71,4,181.42,23 / 23,2257120,2019-11-06 11:19:24:463,-1.4181,-0.814,9.1382,-0.0509,-0.0258,9.8064,0.0591,0.1622,-0.1357,-14.25,-36.87,35.56,253.1,-82.22,101.39
22572,52.74667,-1.692319,108.07,19.71,4,181.42,23 / 23,2257220,2019-11-06 11:19:24:563,1.9539,1.5287,9.2791,-0.0968,-0.0284,9.8061,-0.0604,0.4484,-0.1968,-14.44,-36.62,35.44,253.1,-82.22,101.39
22573,52.74667,-1.692319,108.07,19.71,4,181.42,23 / 23,2257320,2019-11-06 11:19:24:663,-2.2441,-0.5858,8.8656,0.0041,0.0167,9.8066,-0.0803,0.355,-0.1909,-15.0,-36.5,34.56,251.33,-82.85,101.02
22574,52.74667,-1.692319,108.07,19.71,4,181.42,23 / 23,2257420,2019-11-06 11:19:24:763,-3.1759,-2.0544,9.0221,0.0045,0.0196,9.8066,-0.0239,-0.3182,0.2082,-14.69,-36.25,34.81,249.89,-82.74,99.43
22575,52.74667,-1.692319,108.07,19.71,4,181.42,23 / 23,2257520,2019-11-06 11:19:24:863,-3.7267,0.3595,10.0362,0.0118,0.0287,9.8065,0.1056,-0.2536,0.1567,-15.0,-36.44,35.5,249.89,-82.74,99.43
22576,52.74667,-1.692319,108.07,19.71,4,181.42,23 / 23,2257620,2019-11-06 11:19:24:963,2.1243,1.6238,9.2424,-0.0065,-0.0331,9.8066,0.038,0.2064,-0.083,-15.19,-36.31,35.19,248.62,-82.62,98.38
22577,52.74667,-1.692319,108.07,19.71,4,181.42,23 / 23,2257720,2019-11-06 11:19:25:063,3.662,2.9071,9.0015,-0.0272,0.0351,9.8064,-0.1962,0.636,-0.3619,-15.0,-36.19,35.06,249.22,-82.95,98.54
22578,52.74667,-1.692319,108.07,19.71,4,181.42,23 / 23,2257820,2019-11-06 11:19:25:163,-1.4192,-0.6108,9.2457,-0.006,0.0685,9.8063,-0.0017,-0.12,0.0383,-14.19,-35.94,35.44,247.44,-82.83,95.44
22579,52.74667,-1.692319,108.07,19.71,4,181.42,23 / 23,2257920,2019-11-06 11:19:25:263,-4.8545,-1.2658,9.8154,0.0583,0.0362,9.8063,0.046,-0.3821,0.2779,-13.75,-36.31,34.94,247.44,-82.83,95.44
22580,52.746487,-1.692325,107.93,19.47,4,180.41,24 / 24,2258020,2019-11-06 11:19:25:363,-4.0673,0.5813,10.3658,-0.0208,-0.0573,9.8064,0.1313,-0.2128,0.0699,-13.81,-36.0,35.63,246.09,-82.44,94.95
22581,52.746487,-1.692325,107.93,19.47,4,180.41,24 / 24,2258120,2019-11-06 11:19:25:463,1.6392,1.3406,9.6351,0.024,-0.0811,9.8062,0.0135,0.1927,-0.0635,-14.19,-36.69,35.38,250.07,-82.49,98.7
22582,52.746487,-1.692325,107.93,19.47,4,180.41,24 / 24,2258220,2019-11-06 11:19:25:563,-2.9159,0.7928,9.5977,-0.0303,-0.0033,9.8065,0.0083,0.2607,-0.1419,-14.44,-35.81,35.19,250.07,-82.49,98.7
22583,52.746487,-1.692325,107.93,19.47,4,180.41,24 / 24,2258319,2019-11-06 11:19:25:662,-1.1326,-0.0792,9.1339,0.0132,0.0357,9.8065,-0.0588,-0.0272,-0.0192,-14.69,-36.37,35.75,249.51,-82.66,98.37
22584,52.746487,-1.692325,107.93,19.47,4,180.41,24 / 24,2258420,2019-11-06 11:19:25:763,-0.5224,-0.4256,9.3234,-0.0046,0.0048,9.8066,0.0067,-0.1993,0.1486,-14.56,-35.87,35.19,247.47,-82.51,97.07
22585,52.746487,-1.692325,107.93,19.47,4,180.41,24 / 24,2258520,2019-11-06 11:19:25:863,-0.1826,-0.969,9.1248,-0.0334,0.0188,9.8065,0.0677,-0.1081,0.0292,-14.12,-36.0,35.44,247.53,-82.65,95.7
22586,52.746487,-1.692325,107.93,19.47,4,180.41,24 / 24,2258620,2019-11-06 11:19:25:963,1.0918,-1.563,9.9641,-0.0387,0.0503,9.8064,-0.1153,-0.0335,0.0149,-14.81,-36.19,35.25,247.53,-82.65,95.7
22587,52.746487,-1.692325,107.93,19.47,4,180.41,24 / 24,2258719,2019-11-06 11:19:26:062,-0.0596,-0.5229,9.4998,-0.0258,0.0233,9.8065,0.0007,-0.1242,0.0491,-14.37,-36.69,35.38,244.19,-82.74,92.87
22588,52.746487,-1.692325,107.93,19.47,4,180.41,24 / 24,2258819,2019-11-06 11:19:26:162,-1.9199,-1.5062,9.6751,-0.0116,0.0022,9.8066,-0.0089,-0.157,0.107,-14.12,-36.12,34.75,242.6,-82.85,90.31
22589,52.746487,-1.692325,107.93,19.47,4,180.41,24 / 24,2258919,2019-11-06 11:19:26:262,-0.8111,-1.5412,9.1521,-0.0044,0.0147,9.8066,0.0254,0.1054,-0.1315,-14.0,-36.69,35.69,242.6,-82.85,90.31
22590,52.746304,-1.69233,107.79,19.59,4,180.55,23 / 24,2259020,2019-11-06 11:19:26:363,-1.1833,-0.0451,9.281,0.0084,0.0266,9.8065,-0.0317,0.1354,-0.0293,-13.37,-36.44,34.75,240.66,-82.84,89.6
22591,52.746304,-1.69233,107.79,19.59,4,180.55,23 / 24,2259120,2019-11-06 11:19:26:463,-0.2287,-1.085,10.7659,0.0572,-0.0318,9.8064,0.0539,0.0603,-0.0854,-14.0,-36.25,35.31,241.33,-82.6,89.16
22592,52.746304,-1.69233,107.79,19.59,4,180.55,23 / 24,2259220,2019-11-06 11:19:26:563,0.3116,-3.2739,10.387,0.101,-0.0715,9.8058,0.0352,-0.0522,0.0613,-14.44,-36.31,35.81,246.29,-82.26,93.99
22593,52.746304,-1.69233,107.79,19.59,4,180.55,23 / 24,2259320,2019-11-06 11:19:26:663,-0.3622,-2.4785,9.8725,0.0309,-0.0468,9.8065,0.0887,-0.1185,0.0755,-14.37,-36.37,35.69,246.29,-82.26,93.99
22594,52.746304,-1.69233,107.79,19.59,4,180.55,23 / 24,2259420,2019-11-06 11:19:26:763,-1.434,-1.4359,10.3039,-0.0282,-0.0694,9.8063,-0.0455,0.0699,0.0913,-14.19,-36.37,35.25,247.81,-82.2,96.37
22595,52.746304,-1.69233,107.79,19.59,4,180.55,23 / 24,2259520,2019-11-06 11:19:26:863,0.9197,-0.0051,11.0329,-0.0338,-0.0983,9.806,0.0956,-0.0074,-0.0538,-14.31,-36.44,35.13,251.49,-82.58,99.91
22596,52.746304,-1.69233,107.79,19.59,4,180.55,23 / 24,2259620,2019-11-06 11:19:26:963,2.5233,0.4288,10.0513,-0.0111,0.0027,9.8066,0.0077,-0.1767,0.179,-15.37,-36.25,35.44,251.49,-82.58,99.91
22597,52.746304,-1.69233,107.79,19.59,4,180.55,23 / 24,2259720,2019-11-06 11:19:27:063,-0.1309,-1.2071,9.4742,0.0271,-0.035,9.8065,0.0242,-0.1325,0.1161,-14.75,-35.81,35.13,250.71,-82.64,99.63
22598,52.746304,-1.69233,107.79,19.59,4,180.55,23 / 24,2259820,2019-11-06 11:19:27:163,-2.043,0.1281,10.4768,-0.0157,0.0103,9.8066,0.0775,-0.0877,-0.0041,-14.37,-35.87,34.88,253.01,-82.55,101.53
22599,52.746304,-1.69233,107.79,19.59,4,180.55,23 / 24,2259919,2019-11-06 11:19:27:262,-2.2419,-0.2575,11.1935,-0.0328,0.0039,9.8065,-0.0034,0.4202,-0.1998,-14.44,-36.0,34.88,252.57,-82.73,100.91
22600,52.746128,-1.692332,107.61,19.5,4,179.42,23 / 24,2260020,2019-11-06 11:19:27:363,1.5321,-0.1765,11.4484,0.0228,-0.0109,9.8066,0.0863,0.1392,-0.1852,-15.06,-35.94,35.19,252.57,-82.73,100.91
22601,52.746128,-1.692332,107.61,19.5,4,179.42,23 / 24,2260120,2019-11-06 11:19:27:463,-4.2261,-0.6918,9.7931,-0.0057,0.0021,9.8066,0.046,-0.3456,0.1218,-15.0,-36.44,35.19,253.31,-82.48,102.5
22602,52.746128,-1.692332,107.61,19.5,4,179.42,23 / 24,2260220,2019-11-06 11:19:27:563,2.7969,2.5863,8.8656,0.0094,0.0349,9.8065,-0.0408,-0.5731,0.3756,-14.56,-36.31,35.5,252.18,-82.21,101.55
22603,52.746128,-1.692332,107.61,19.5,4,179.42,23 / 24,2260320,2019-11-06 11:19:27:663,3.9025,1.8068,9.0661,-0.0144,0.043,9.8065,-0.0231,0.198,-0.1512,-14.44,-36.12,35.88,252.18,-82.21,101.55
22604,52.746128,-1.692332,107.61,19.5,4,179.42,23 / 24,2260420,2019-11-06 11:19:27:763,0.1016,-1.8805,9.5769,-0.0617,-0.0157,9.8064,-0.075,0.267,-0.083,-14.44,-36.56,35.13,250.87,-82.21,99.59
22605,52.746128,-1.692332,107.61,19.5,4,179.42,23 / 24,2260520,2019-11-06 11:19:27:863,0.338,0.0295,10.5505,0.0161,0.0015,9.8066,-0.0128,0.1887,-0.1053,-14.87,-36.56,35.06,249.87,-82.68,99.64
22606,52.746128,-1.692332,107.61,19.5,4,179.42,23 / 24,2260620,2019-11-06 11:19:27:963,-0.889,-0.1835,10.7576,-0.0041,-0.0105,9.8066,0.0354,-0.0165,0.0634,-15.5,-35.87,34.94,250.45,-82.72,100.03
22607,52.746128,-1.692332,107.61,19.5,4,179.42,23 / 24,2260720,2019-11-06 11:19:28:063,-1.9807,-1.7809,9.4721,-0.0288,-0.0213,9.8065,0.0509,0.3101,-0.1164,-15.31,-36.56,35.94,250.45,-82.72,100.03
22608,52.746128,-1.692332,107.61,19.5,4,179.42,23 / 24,2260820,2019-11-06 11:19:28:163,0.4338,-0.2377,9.4234,0.0288,0.0087,9.8065,-0.0603,0.1282,-0.1169,-15.75,-35.69,35.44,251.79,-82.92,100.53
22609,52.746128,-1.692332,107.61,19.5,4,179.42,23 / 24,2260920,2019-11-06 11:19:28:263,3.0293,1.3271,10.069,0.0635,0.0168,9.8064,-0.1218,-0.3201,0.2624,-15.25,-36.5,35.75,251.65,-82.54,100.7
22610,52.745956,-1.692328,107.46,19.46,4,177.75,23 / 23,2261020,2019-11-06 11:19:28:363,0.8125,1.5164,11.14,0.0162,-0.0283,9.8066,0.1099,-0.4535,0.2414,-15.19,-36.25,35.44,251.65,-82.54,100.7
22611,52.745956,-1.692328,107.46,19.46,4,177.75,23 / 23,2261120,2019-11-06 11:19:28:463,-4.1648,-2.7908,10.1561,-0.0036,-0.0171,9.8066,-0.1702,0.4029,-0.101,-14.75,-36.0,35.63,251.03,-82.5,102.13
22612,52.745956,-1.692328,107.46,19.46,4,177.75,23 / 23,2261220,2019-11-06 11:19:28:563,-2.6646,-2.7135,9.6533,0.0251,0.0148,9.8065,0.009,0.6552,-0.3825,-14.75,-35.69,36.0,253.67,-82.55,102.81
22613,52.745956,-1.692328,107.46,19.46,4,177.75,23 / 23,2261320,2019-11-06 11:19:28:663,2.4764,3.4526,10.6187,0.0531,0.0185,9.8065,0.0961,0.4875,-0.3196,-15.69,-36.06,35.5,252.07,-82.22,102.69
22614,52.745956,-1.692328,107.46,19.46,4,177.75,23 / 23,2261420,2019-11-06 11:19:28:763,2.2933,0.5289,10.8324,-0.0633,-0.107,9.8058,-0.1185,-0.0123,0.1764,-15.0,-35.69,35.63,252.07,-82.22,102.69
22615,52.745956,-1.692328,107.46,19.46,4,177.75,23 / 23,2261520,2019-11-06 11:19:28:863,-1.8298,-1.5553,9.7078,-0.0579,-0.007,9.8064,0.0235,-0.4959,0.3026,-16.81,-36.0,35.38,255.44,-82.75,106.5
22616,52.745956,-1.692328,107.46,19.46,4,177.75,23 / 23,2261620,2019-11-06 11:19:28:963,-3.1532,-2.765,9.3334,-0.0097,0.0545,9.8064,-0.1127,-0.0673,0.1381,-16.19,-35.81,35.06,253.93,-83.24,104.51
22617,52.745956,-1.692328,107.46,19.46,4,177.75,23 / 23,2261720,2019-11-06 11:19:29:063,1.9873,0.306,9.7548,0.025,0.1272,9.8057,0.0866,0.47,-0.2957,-15.62,-36.75,35.0,253.93,-83.24,104.51
22618,52.745956,-1.692328,107.46,19.46,4,177.75,23 / 23,2261820,2019-11-06 11:19:29:163,4.7342,2.4417,9.5246,-0.0013,0.0244,9.8066,-0.1022,0.7694,-0.4658,-15.62,-35.87,35.75,249.14,-82.86,99.08
22619,52.745956,-1.692328,107.46,19.46,4,177.75,23 / 23,2261920,2019-11-06 11:19:29:263,-1.3493,0.9613,9.5082,-0.0587,-0.002,9.8064,0.134,-0.1479,0.1137,-15.69,-36.25,35.38,247.1,-82.72,97.82
22620,52.74578,-1.692315,107.32,19.39,4,175.7,23 / 24,2262020,2019-11-06 11:19:29:363,-0.7535,-0.9344,8.5887,-0.004,-0.0337,9.8065,-0.1464,-0.6012,0.5702,-16.62,-35.75,35.56,248.09,-83.14,99.01
22621,52.74578,-1.692315,107.32,19.39,4,175.7,23 / 24,2262120,2019-11-06 11:19:29:463,3.5207,3.0502,8.8695,-0.012,-0.043,9.8065,0.1063,-0.5309,0.3184,-16.69,-35.81,35.44,248.09,-83.14,99.01
22622,52.74578,-1.692315,107.32,19.39,4,175.7,23 / 24,2262220,2019-11-06 11:19:29:563,1.1843,1.6252,9.3444,-0.0703,-0.0063,9.8064,-0.0484,-0.0865,0.2145,-17.12,-36.12,35.25,248.48,-83.57,99.82
22623,52.74578,-1.692315,107.32,19.39,4,175.7,23 / 24,2262320,2019-11-06 11:19:29:663,-2.7684,-1.1848,9.3856,-0.0064,-0.015,9.8066,0.0981,0.4631,-0.2391,-17.25,-36.12,35.56,248.73,-84.26,98.77
22624,52.74578,-1.692315,107.32,19.39,4,175.7,23 / 24,2262420,2019-11-06 11:19:29:763,1.9716,0.2546,8.9476,0.0277,-0.0189,9.8065,-0.1199,0.4738,-0.2527,-16.94,-35.94,35.69,248.73,-84.26,98.77
22625,52.74578,-1.692315,107.32,19.39,4,175.7,23 / 24,2262520,2019-11-06 11:19:29:863,3.8083,0.3821,10.207,0.1107,0.0166,9.8059,0.0286,0.1826,-0.0868,-17.06,-36.25,36.25,249.46,-84.15,100.35
22626,52.74578,-1.692315,107.32,19.39,4,175.7,23 / 24,2262620,2019-11-06 11:19:29:963,1.8187,1.4666,10.143,0.0314,0.012,9.8066,0.0132,-0.2088,0.1101,-16.81,-36.06,35.44,250.09,-83.51,101.56
22627,52.74578,-1.692315,107.32,19.39,4,175.7,23 / 24,2262720,2019-11-06 11:19:30:063,-3.8809,-0.2808,10.3385,0.0734,0.0108,9.8063,-0.0104,-0.103,0.2114,-17.44,-36.0,35.56,251.17,-83.08,102.28
22628,52.74578,-1.692315,107.32,19.39,4,175.7,23 / 24,2262820,2019-11-06 11:19:30:163,-3.0211,-1.3975,10.5128,-0.0466,-0.0575,9.8063,-0.0768,0.432,-0.1286,-18.06,-35.69,36.0,251.17,-83.08,102.28
22629,52.74578,-1.692315,107.32,19.39,4,175.7,23 / 24,2262920,2019-11-06 11:19:30:263,1.2258,2.2048,10.3766,-0.0505,-0.0235,9.8065,-0.0802,0.5993,-0.2,-18.06,-35.87,35.56,251.63,-83.45,104.3
22630,52.74561,-1.692282,107.18,19.27,6,170.77,22 / 23,2263027,2019-11-06 11:19:30:370,3.7981,2.2908,9.7466,0.0155,-0.007,9.8066,0.0057,0.5298,-0.2701,-18.37,-35.44,35.94,252.67,-83.99,104.16
22631,52.74561,-1.692282,107.18,19.27,6,170.77,22 / 23,2263120,2019-11-06 11:19:30:463,0.2206,-0.9445,9.4208,0.0456,0.0009,9.8065,0.0446,-0.5922,0.4342,-18.75,-35.69,35.5,252.67,-83.99,104.16
22632,52.74561,-1.692282,107.18,19.27,6,170.77,22 / 23,2263220,2019-11-06 11:19:30:563,-3.8464,-3.0321,10.1597,-0.0001,0.008,9.8066,0.1761,-0.7355,0.3005,-18.37,-36.0,36.25,251.07,-83.73,104.84
22633,52.74561,-1.692282,107.18,19.27,6,170.77,22 / 23,2263320,2019-11-06 11:19:30:663,6.0566,4.5131,10.5787,-0.0036,-0.0088,9.8066,0.0075,-0.1751,0.1946,-18.44,-35.69,35.63,254.09,-83.78,105.94
22634,52.74561,-1.692282,107.18,19.27,6,170.77,22 / 23,2263420,2019-11-06 11:19:30:763,8.2684,5.2188,10.1587,0.0458,0.0442,9.8063,-0.0952,0.5961,-0.3153,-18.69,-36.69,35.69,252.49,-83.56,105.83
22635,52.74561,-1.692282,107.18,19.27,6,170.77,22 / 23,2263520,2019-11-06 11:19:30:863,-1.422,-1.6742,10.1051,0.0891,0.0739,9.8059,-0.1217,1.0605,-0.5717,-18.87,-35.75,35.69,252.49,-83.56,105.83
22636,52.74561,-1.692282,107.18,19.27,6,170.77,22 / 23,2263620,2019-11-06 11:19:30:963,-6.1142,-4.0156,8.4831,-0.0141,-0.0694,9.8064,0.1082,0.1834,-0.1254,-19.0,-36.06,35.81,251.28,-82.54,104.06
22637,52.74561,-1.692282,107.18,19.27,6,170.77,22 / 23,2263720,2019-11-06 11:19:31:063,1.2723,0.0387,7.6978,-0.0924,-0.0302,9.8061,-0.0669,-1.1747,0.7617,-19.31,-35.19,36.0,255.63,-83.21,109.04
22638,52.74561,-1.692282,107.18,19.27,6,170.77,22 / 23,2263820,2019-11-06 11:19:31:163,10.5728,6.0529,9.5561,-0.1012,0.0188,9.806,0.0177,-1.3039,0.8564,-19.25,-36.0,35.56,255.63,-83.21,109.04
22639,52.74561,-1.692282,107.18,19.27,6,170.77,22 / 23,2263920,2019-11-06 11:19:31:263,-4.4074,-3.1578,9.0576,0.082,0.1348,9.8053,-0.0439,0.4801,-0.2272,-19.19,-36.25,35.31,252.89,-83.75,106.72
22640,52.745445,-1.692222,107.04,19.37,6,163.86,20 / 20,2264020,2019-11-06 11:19:31:363,-5.1494,-4.0723,9.5205,-0.08,-0.0632,9.8061,-0.0689,0.9205,-0.4241,-19.62,-36.06,34.63,246.23,-83.2,101.41
22641,52.745445,-1.692222,107.04,19.37,6,163.86,20 / 20,2264120,2019-11-06 11:19:31:463,2.9648,3.8595,11.1654,-0.156,-0.1561,9.8041,-0.0012,0.8581,-0.2227,-20.94,-36.5,34.69,250.62,-84.38,106.19
22642,52.745445,-1.692222,107.04,19.37,6,163.86,20 / 20,2264220,2019-11-06 11:19:31:563,0.8743,-1.5669,11.776,-0.0088,-0.081,9.8063,0.0445,0.381,-0.1954,-20.75,-36.0,34.94,250.62,-84.38,106.19
22643,52.745445,-1.692222,107.04,19.37,6,163.86,20 / 20,2264320,2019-11-06 11:19:31:663,-1.513,-1.7081,11.9502,0.0369,-0.0219,9.8065,-0.2405,0.5163,-0.3423,-21.25,-35.69,34.38,255.18,-84.57,110.73
22644,52.745445,-1.692222,107.04,19.37,6,163.86,20 / 20,2264420,2019-11-06 11:19:31:763,9.2002,5.3859,9.605,-0.0031,-0.0446,9.8065,0.2122,-0.0675,0.1357,-22.0,-35.87,33.94,255.9,-84.65,113.38
22645,52.745445,-1.692222,107.04,19.37,6,163.86,20 / 20,2264520,2019-11-06 11:19:31:863,7.9281,4.4771,11.1369,-0.1457,-0.01,9.8055,-0.1719,-0.4714,0.532,-22.31,-35.81,34.25,255.9,-84.65,113.38
22646,52.745445,-1.692222,107.04,19.37,6,163.86,20 / 20,2264620,2019-11-06 11:19:31:963,3.4041,-2.1226,12.825,0.0004,-0.0604,9.8064,0.2394,-0.1097,0.3627,-22.25,-36.06,34.44,253.63,-85.49,111.47
22647,52.745445,-1.692222,107.04,19.37,6,163.86,20 / 20,2264720,2019-11-06 11:19:32:063,-0.9731,-4.5922,14.0664,0.0219,0.0077,9.8066,-0.3399,0.5123,-0.2124,-22.12,-36.06,33.94,259.11,-85.57,115.86
22648,52.745445,-1.692222,107.04,19.37,6,163.86,20 / 20,2264822,2019-11-06 11:19:32:165,-1.1399,-3.9879,13.1927,0.1854,0.0409,9.8047,-0.1077,0.097,-0.1217,-21.06,-36.25,34.94,259.81,-84.46,115.56
22649,52.745445,-1.692222,107.04,19.37,6,163.86,20 / 20,2264920,2019-11-06 11:19:32:263,-0.7325,-2.0927,13.0917,0.109,0.0345,9.8059,0.4054,-0.5119,-0.036,-20.94,-36.06,34.69,259.81,-84.46,115.56
22650,52.74528,-1.692135,106.88,19.68,6,160.97,23 / 24,2265020,2019-11-06 11:19:32:363,7.4957,1.1542,12.066,0.0535,-0.0052,9.8064,-0.2336,-0.4775,0.6104,-21.19,-36.25,34.56,258.62,-83.8,114.76
22651,52.74528,-1.692135,106.88,19.68,6,160.97,23 / 24,2265120,2019-11-06 11:19:32:463,3.9108,1.0826,11.2722,0.0134,0.0377,9.8065,-0.1068,-0.1588,0.1295,-21.06,-36.44,34.13,257.48,-83.22,115.1
22652,52.74528,-1.692135,106.88,19.68,6,160.97,23 / 24,2265220,2019-11-06 11:19:32:563,0.5499,-1.1153,12.2671,-0.0226,0.0487,9.8065,0.2773,0.2398,-0.3664,-21.25,-36.31,34.25,257.48,-83.22,115.1
22653,52.74528,-1.692135,106.88,19.68,6,160.97,23 / 24,2265320,2019-11-06 11:19:32:663,-0.7009,-0.9664,11.5926,-0.0263,-0.0515,9.8064,-0.1272,0.1674,0.1553,-21.37,-36.0,34.5,255.0,-83.28,112.48
22654,52.74528,-1.692135,106.88,19.68,6,160.97,23 / 24,2265420,2019-11-06 11:19:32:763,-1.6992,-3.127,10.9602,0.0535,0.0113,9.8064,0.1416,-0.1594,0.0863,-21.56,-36.25,34.25,257.71,-83.48,116.24
22655,52.74528,-1.692135,106.88,19.68,6,160.97,23 / 24,2265520,2019-11-06 11:19:32:863,-0.1678,-2.5924,11.2161,0.0137,0.0327,9.8065,-0.2526,0.1645,-0.044,-22.06,-36.06,34.5,258.46,-82.82,116.69
22656,52.74528,-1.692135,106.88,19.68,6,160.97,23 / 24,2265620,2019-11-06 11:19:32:963,5.4507,3.5623,10.8265,-0.0181,0.0311,9.8066,0.0183,0.7029,-0.2308,-21.37,-36.69,34.31,258.46,-82.82,116.69
22657,52.74528,-1.692135,106.88,19.68,6,160.97,23 / 24,2265720,2019-11-06 11:19:33:063,-1.2897,-1.1111,9.7311,0.0003,0.0482,9.8065,-0.1212,0.9621,-0.5699,-21.31,-36.62,34.0,255.17,-83.25,114.72
22658,52.74528,-1.692135,106.88,19.68,6,160.97,23 / 24,2265820,2019-11-06 11:19:33:163,-4.3532,-2.8884,8.6648,0.0348,0.0424,9.8065,0.1602,-0.8494,0.4452,-21.25,-36.81,33.75,255.32,-82.95,113.27
22659,52.74528,-1.692135,106.88,19.68,6,160.97,23 / 24,2265920,2019-11-06 11:19:33:263,-6.9647,-3.5936,9.299,0.0536,0.0471,9.8064,0.0142,-0.8946,0.4652,-21.94,-36.69,34.44,255.32,-82.95,113.27
22660,52.74512,-1.69204,106.7,19.4,6,159.21,23 / 24,2266020,2019-11-06 11:19:33:363,2.8166,3.2261,10.1588,0.0292,0.0363,9.8065,0.016,-0.1942,0.0064,-20.44,-36.31,33.75,253.58,-82.35,110.66
22661,52.74512,-1.69204,106.7,19.4,6,159.21,23 / 24,2266120,2019-11-06 11:19:33:463,2.1193,1.572,10.5279,0.0305,0.0075,9.8065,0.0049,0.3533,-0.1843,-21.06,-36.31,33.88,253.58,-82.35,110.66
22662,52.74512,-1.69204,106.7,19.4,6,159.21,23 / 24,2266220,2019-11-06 11:19:33:563,-6.2694,-2.6889,10.9701,-0.0693,-0.0413,9.8063,-0.1625,0.2453,-0.0381,-20.94,-35.87,33.44,252.56,-82.56,110.75
22663,52.74512,-1.69204,106.7,19.4,6,159.21,23 / 24,2266320,2019-11-06 11:19:33:663,-2.2697,-2.4439,9.8364,-0.0113,-0.0316,9.8065,-0.0381,-0.1809,0.2116,-21.31,-35.87,34.25,254.85,-83.18,112.42
22664,52.74512,-1.69204,106.7,19.4,6,159.21,23 / 24,2266420,2019-11-06 11:19:33:763,0.4219,0.3382,10.0047,0.008,-0.0352,9.8065,0.1325,-0.4285,0.1679,-21.56,-36.0,34.5,254.85,-83.18,112.42
22665,52.74512,-1.69204,106.7,19.4,6,159.21,23 / 24,2266520,2019-11-06 11:19:33:863,3.6411,2.6273,10.8046,0.0476,-0.0032,9.8065,0.0247,-0.3948,0.2916,-21.12,-36.37,34.5,256.33,-83.18,114.2
22666,52.74512,-1.69204,106.7,19.4,6,159.21,23 / 24,2266619,2019-11-06 11:19:33:962,-0.5149,0.963,11.3085,-0.026,-0.0361,9.8065,-0.144,0.7773,-0.4862,-20.69,-36.44,34.13,257.47,-82.87,115.39
22667,52.74512,-1.69204,106.7,19.4,6,159.21,23 / 24,2266720,2019-11-06 11:19:34:063,-4.8105,-4.2793,9.5604,-0.0688,-0.0536,9.8062,-0.1563,0.3211,-0.0432,-21.62,-35.87,34.63,259.44,-83.33,117.27
22668,52.74512,-1.69204,106.7,19.4,6,159.21,23 / 24,2266820,2019-11-06 11:19:34:163,-4.4163,-2.8227,7.7054,-0.0191,0.0817,9.8062,-0.0595,-0.5296,0.1899,-21.44,-36.31,34.06,259.44,-83.33,117.27
22669,52.74512,-1.69204,106.7,19.4,6,159.21,23 / 24,2266920,2019-11-06 11:19:34:263,4.3843,3.1567,9.0606,0.0055,0.0569,9.8064,0.0758,-0.8244,0.6669,-22.31,-35.94,34.06,254.5,-83.33,113.05
22670,52.744953,-1.691944,106.52,19.1,6,161.21,23 / 23,2267021,2019-11-06 11:19:34:364,5.8139,6.739,10.6393,0.0184,0.0375,9.8065,0.246,-1.0126,0.592,-21.5,-35.87,34.38,253.97,-83.17,111.52
22671,52.744953,-1.691944,106.52,19.1,6,161.21,23 / 23,2267120,2019-11-06 11:19:34:463,-3.04,-2.5245,11.2922,-0.0264,-0.0132,9.8066,-0.1653,1.4282,-0.8703,-21.0,-36.12,34.13,253.97,-83.17,111.52
22672,52.744953,-1.691944,106.52,19.1,6,161.21,23 / 23,2267220,2019-11-06 11:19:34:563,-8.687,-4.051,10.042,0.0952,0.0561,9.806,-0.0415,0.9237,-0.5114,-20.75,-36.31,34.19,254.38,-83.34,111.79
22673,52.744953,-1.691944,106.52,19.1,6,161.21,23 / 23,2267320,2019-11-06 11:19:34:663,-3.4794,-0.4242,10.1447,0.1582,0.1021,9.8048,-0.0435,-0.2881,0.0932,-21.0,-36.62,34.25,251.02,-82.28,109.37
22674,52.744953,-1.691944,106.52,19.1,6,161.21,23 / 23,2267420,2019-11-06 11:19:34:763,4.7222,6.7183,9.6364,0.0375,-0.0249,9.8065,0.1664,-0.8285,0.4019,-20.87,-36.31,34.13,251.02,-82.28,109.37
22675,52.744953,-1.691944,106.52,19.1,6,161.21,23 / 23,2267519,2019-11-06 11:19:34:862,-0.6446,2.208,8.5666,-0.083,-0.1098,9.8056,-0.163,0.2819,0.003,-22.0,-36.37,33.63,252.34,-82.12,110.89
22676,52.744953,-1.691944,106.52,19.1,6,161.21,23 / 23,2267620,2019-11-06 11:19:34:963,-5.1185,-3.3079,8.549,-0.0326,-0.0222,9.8065,-0.0431,1.0987,-0.6095,-21.0,-35.81,33.94,256.59,-82.76,114.58
22677,52.744953,-1.691944,106.52,19.1,6,161.21,23 / 23,2267720,2019-11-06 11:19:35:063,-7.2432,-2.9606,8.227,-0.0228,0.0422,9.8065,-0.0135,0.8741,-0.5973,-21.12,-36.06,34.13,254.56,-82.83,112.41
22678,52.744953,-1.691944,106.52,19.1,6,161.21,23 / 23,2267822,2019-11-06 11:19:35:165,-0.869,1.6552,8.8393,0.0225,0.046,9.8065,0.1692,-0.6337,0.3603,-22.0,-36.56,34.25,254.56,-82.83,112.41
22679,52.744953,-1.691944,106.52,19.1,6,161.21,23 / 23,2267919,2019-11-06 11:19:35:262,0.9813,3.9227,9.0108,0.0048,-0.0054,9.8066,0.0459,-0.3511,0.1672,-21.5,-36.81,33.88,252.54,-82.63,110.67
22680,52.744797,-1.691848,106.35,18.63,6,159.02,23 / 24,2268021,2019-11-06 11:19:35:364,1.507,1.67,8.6311,-0.0185,0.029,9.8065,-0.1869,0.346,-0.188,-21.37,-36.25,33.31,252.78,-82.74,111.55
22681,52.744797,-1.691848,106.35,18.63,6,159.02,23 / 24,2268120,2019-11-06 11:19:35:463,-1.2561,-0.971,9.4839,0.0033,0.0623,9.8064,0.062,0.5251,-0.3645,-21.37,-36.37,33.19,252.78,-82.74,111.55
22682,52.744797,-1.691848,106.35,18.63,6,159.02,23 / 24,2268221,2019-11-06 11:19:35:564,-4.4609,-3.7784,11.2529,0.0094,-0.0211,9.8066,0.1537,-0.5875,0.346,-22.12,-35.94,33.56,249.93,-82.6,108.89
22683,52.744797,-1.691848,106.35,18.63,6,159.02,23 / 24,2268319,2019-11-06 11:19:35:662,-5.6018,-3.7216,10.4162,-0.0345,0.0049,9.8065,0.089,-0.4268,0.3206,-22.19,-36.0,33.88,250.92,-82.59,109.94
22684,52.744797,-1.691848,106.35,18.63,6,159.02,23 / 24,2268420,2019-11-06 11:19:35:763,2.8754,2.4744,8.9457,-0.1513,-0.0444,9.8053,-0.1834,0.4653,-0.1513,-21.94,-36.62,34.56,251.96,-83.51,109.55
22685,52.744797,-1.691848,106.35,18.63,6,159.02,23 / 24,2268520,2019-11-06 11:19:35:863,5.8065,5.8872,10.3002,-0.0984,-0.0781,9.8058,-0.0754,1.0716,-0.5146,-21.75,-36.06,33.81,251.96,-83.51,109.55
22686,52.744797,-1.691848,106.35,18.63,6,159.02,23 / 24,2268620,2019-11-06 11:19:35:963,-3.2692,-3.029,10.6845,0.072,0.0642,9.8061,-0.1812,-0.0033,-0.0236,-21.75,-36.81,33.81,254.26,-84.2,112.08
22687,52.744797,-1.691848,106.35,18.63,6,159.02,23 / 24,2268720,2019-11-06 11:19:36:063,-7.382,-6.1777,10.3085,0.0597,0.0415,9.8064,0.1764,-0.9663,0.5109,-22.12,-37.06,33.69,248.91,-83.23,107.48
22688,52.744797,-1.691848,106.35,18.63,6,159.02,23 / 24,2268820,2019-11-06 11:19:36:163,-0.1025,2.9985,10.3851,0.0871,-0.0375,9.8061,0.3185,-1.0971,0.5777,-21.75,-36.5,33.69,248.91,-83.23,107.48
22689,52.744797,-1.691848,106.35,18.63,6,159.02,23 / 24,2268920,2019-11-06 11:19:36:263,2.3991,3.1414,8.4685,0.0583,-0.0239,9.8063,0.1791,-0.5072,0.0744,-21.75,-36.44,33.94,251.72,-82.82,110.59
22690,52.74464,-1.691751,106.19,18.28,6,158.8,21 / 22,2269020,2019-11-06 11:19:36:363,-2.945,-3.1802,11.8584,0.0294,0.0284,9.8065,-0.3796,0.1437,-0.0546,-21.81,-36.69,33.63,252.99,-82.29,112.53
22691,52.74464,-1.691751,106.19,18.28,6,158.8,21 / 22,2269119,2019-11-06 11:19:36:462,-4.3765,-2.7146,9.634,-0.0262,0.0126,9.8066,-0.0571,0.6058,-0.2754,-21.5,-36.37,34.44,251.15,-82.23,109.36
22692,52.74464,-1.691751,106.19,18.28,6,158.8,21 / 22,2269219,2019-11-06 11:19:36:562,2.0996,3.793,7.917,-0.0407,0.0175,9.8065,-0.2289,0.5248,-0.4843,-21.37,-36.5,33.75,251.15,-82.23,109.36
22693,52.74464,-1.691751,106.19,18.28,6,158.8,21 / 22,2269319,2019-11-06 11:19:36:662,1.4322,0.9426,10.1812,-0.0242,0.0166,9.8066,-0.0787,-0.1541,0.2013,-21.0,-36.56,34.0,249.12,-82.51,107.18
22694,52.74464,-1.691751,106.19,18.28,6,158.8,21 / 22,2269420,2019-11-06 11:19:36:763,-0.2535,0.0697,9.1675,0.0042,0.0153,9.8066,0.0484,-0.5754,0.3586,-21.25,-36.62,33.81,247.89,-82.51,105.89
22695,52.74464,-1.691751,106.19,18.28,6,158.8,21 / 22,2269520,2019-11-06 11:19:36:863,-5.9133,-4.0074,9.6922,-0.0237,0.004,9.8065,-0.0297,0.0445,0.0201,-21.31,-36.44,34.0,247.89,-82.51,105.89
22696,52.74464,-1.691751,106.19,18.28,6,158.8,21 / 22,2269620,2019-11-06 11:19:36:963,1.6105,1.0729,10.3156,-0.0059,0.0143,9.8066,-0.0736,0.2128,-0.2247,-21.0,-36.31,34.38,246.38,-82.63,105.32
22697,52.74464,-1.691751,106.19,18.28,6,158.8,21 / 22,2269720,2019-11-06 11:19:37:063,2.0883,2.1614,10.9131,0.0423,0.0172,9.8065,-0.0424,0.5988,-0.2776,-20.75,-36.87,34.38,246.56,-82.58,104.43
22698,52.74464,-1.691751,106.19,18.28,6,158.8,21 / 22,2269820,2019-11-06 11:19:37:163,-6.2752,-5.2642,9.5861,0.1355,0.0721,9.8054,0.012,0.3083,-0.273,-20.25,-36.56,34.56,247.31,-81.69,103.94
22699,52.74464,-1.691751,106.19,18.28,6,158.8,21 / 22,2269920,2019-11-06 11:19:37:263,-6.2472,-4.85,10.2861,0.0837,0.028,9.8062,0.2533,-0.8721,0.4784,-20.06,-36.12,34.38,247.31,-81.69,103.94
22700,52.74448,-1.691659,106.04,17.99,6,159.69,23 / 23,2270020,2019-11-06 11:19:37:363,1.6265,0.5692,10.4373,-0.107,-0.0783,9.8057,0.0482,-1.3311,0.7885,-20.94,-36.12,33.81,246.11,-81.83,104.38
22701,52.74448,-1.691659,106.04,17.99,6,159.69,23 / 23,2270120,2019-11-06 11:19:37:463,2.9843,5.029,9.8662,-0.2313,-0.1082,9.8033,-0.0508,-0.9872,0.704,-21.0,-36.81,34.13,247.34,-83.32,104.64
22702,52.74448,-1.691659,106.04,17.99,6,159.69,23 / 23,2270220,2019-11-06 11:19:37:563,-9.089,-5.9346,8.17,0.0756,0.031,9.8062,-0.0242,0.8608,-0.6576,-21.19,-36.62,34.0,247.34,-83.32,104.64
22703,52.74448,-1.691659,106.04,17.99,6,159.69,23 / 23,2270320,2019-11-06 11:19:37:663,-7.5331,-5.9773,8.1386,0.1356,0.1283,9.8048,-0.0171,0.669,-0.6673,-20.44,-36.19,34.69,247.15,-82.84,104.66
22704,52.74448,-1.691659,106.04,17.99,6,159.69,23 / 23,2270420,2019-11-06 11:19:37:763,-2.5817,2.008,8.7796,0.135,0.1344,9.8048,-0.1443,0.0474,0.1069,-20.31,-36.56,33.88,244.51,-81.8,101.74
22705,52.74448,-1.691659,106.04,17.99,6,159.69,23 / 23,2270520,2019-11-06 11:19:37:863,-2.6048,0.3981,8.6926,0.0061,-0.0294,9.8066,0.1279,-0.1787,0.2638,-20.56,-36.0,34.88,245.59,-81.84,102.94
22706,52.74448,-1.691659,106.04,17.99,6,159.69,23 / 23,2270620,2019-11-06 11:19:37:963,-0.6667,0.6012,9.5797,-0.1159,-0.0712,9.8057,-0.1122,0.6077,-0.1808,-21.0,-35.69,35.31,245.59,-81.84,102.94
22707,52.74448,-1.691659,106.04,17.99,6,159.69,23 / 23,2270720,2019-11-06 11:19:38:063,2.4881,3.534,10.1006,-0.0267,-0.0413,9.8064,-0.1729,0.3612,-0.3958,-20.62,-36.06,35.5,247.69,-82.63,103.71
22708,52.74448,-1.691659,106.04,17.99,6,159.69,23 / 23,2270820,2019-11-06 11:19:38:163,-6.8816,-4.5464,9.6571,0.0489,0.0223,9.8064,0.171,-0.6432,0.3247,-20.25,-36.12,34.88,247.66,-82.31,103.62
22709,52.74448,-1.691659,106.04,17.99,6,159.69,23 / 23,2270920,2019-11-06 11:19:38:263,-9.1048,-5.5985,9.2663,0.1353,0.067,9.8054,0.1049,-1.1429,0.4558,-20.19,-35.94,35.13,247.66,-82.31,103.62
22710,52.74432,-1.691605,105.92,17.48,4,163.68,24 / 24,2271020,2019-11-06 11:19:38:363,-2.0674,0.2909,10.2235,0.02,-0.0175,9.8066,0.0432,0.2912,-0.3529,-19.87,-36.25,35.0,246.62,-81.43,103.21
22711,52.74432,-1.691605,105.92,17.48,4,163.68,24 / 24,2271120,2019-11-06 11:19:38:463,3.7793,1.8554,10.5942,-0.0391,-0.0388,9.8065,-0.0272,0.6925,-0.3525,-19.81,-36.06,35.63,249.37,-81.43,105.29
22712,52.74432,-1.691605,105.92,17.48,4,163.68,24 / 24,2271219,2019-11-06 11:19:38:562,0.7172,-0.2752,9.8105,-0.084,-0.0517,9.8061,-0.1222,0.3273,-0.1836,-19.81,-36.37,35.81,250.55,-81.99,106.08
22713,52.74432,-1.691605,105.92,17.48,4,163.68,24 / 24,2271319,2019-11-06 11:19:38:662,-6.892,-2.4037,9.1115,-0.001,0.0087,9.8066,0.0238,-0.1194,0.0962,-19.37,-35.75,35.56,250.55,-81.99,106.08
22714,52.74432,-1.691605,105.92,17.48,4,163.68,24 / 24,2271420,2019-11-06 11:19:38:763,-2.9052,-0.2812,9.3528,0.0079,0.012,9.8066,-0.0124,-0.3679,0.1836,-19.19,-35.87,35.81,250.66,-81.9,105.11
22715,52.74432,-1.691605,105.92,17.48,4,163.68,24 / 24,2271520,2019-11-06 11:19:38:863,-1.1732,-0.8402,9.8228,0.0082,0.0247,9.8065,0.0087,-0.0476,-0.0348,-19.62,-36.44,35.13,248.13,-81.77,104.54
22716,52.74432,-1.691605,105.92,17.48,4,163.68,24 / 24,2271620,2019-11-06 11:19:38:963,-1.4472,-1.1064,10.2418,0.0255,0.0208,9.8065,-0.0331,0.0465,-0.162,-18.94,-36.12,34.81,248.13,-81.77,104.54
22717,52.74432,-1.691605,105.92,17.48,4,163.68,24 / 24,2271720,2019-11-06 11:19:39:063,0.2199,-1.2768,11.1421,0.0476,-0.0253,9.8064,0.0846,0.0176,-0.0116,-18.69,-35.87,35.75,247.83,-81.34,103.41
22718,52.74432,-1.691605,105.92,17.48,4,163.68,24 / 24,2271820,2019-11-06 11:19:39:163,2.9063,-1.0365,10.4534,-0.0239,-0.0211,9.8065,-0.0214,0.2271,-0.1842,-18.94,-35.69,36.25,251.85,-81.37,106.8
22719,52.74432,-1.691605,105.92,17.48,4,163.68,24 / 24,2271920,2019-11-06 11:19:39:263,-2.1965,-2.2328,7.1368,-0.0214,-0.0107,9.8066,-0.2342,0.4387,-0.2552,-18.87,-36.12,36.38,252.09,-81.51,106.94
22720,52.74416,-1.691551,105.9,17.76,4,167.81,23 / 23,2272020,2019-11-06 11:19:39:363,-2.3138,-3.508,7.9231,-0.1114,0.1059,9.8054,-0.1381,0.1068,0.0394,-18.69,-35.94,35.06,252.09,-81.51,106.94
22721,52.74416,-1.691551,105.9,17.76,4,167.81,23 / 23,2272120,2019-11-06 11:19:39:463,1.0609,0.5514,10.1894,-0.0197,-0.0168,9.8066,0.0953,0.2611,-0.2892,-18.87,-36.0,35.31,243.75,-82.06,98.5
22722,52.74416,-1.691551,105.9,17.76,4,167.81,23 / 23,2272220,2019-11-06 11:19:39:563,1.4674,-1.5262,12.3901,0.0324,-0.0156,9.8065,-0.1783,-0.3194,0.3848,-18.62,-36.25,36.56,246.27,-81.93,99.68
22723,52.74416,-1.691551,105.9,17.76,4,167.81,23 / 23,2272320,2019-11-06 11:19:39:663,0.8877,-2.7586,10.5078,0.0515,-0.0256,9.8064,-0.0503,-0.2971,-0.1279,-18.69,-35.75,36.44,246.27,-81.93,99.68
22724,52.74416,-1.691551,105.9,17.76,4,167.81,23 / 23,2272420,2019-11-06 11:19:39:763,0.7162,-2.036,8.3861,0.0035,0.0801,9.8063,-0.0123,0.0718,0.0189,-17.81,-36.06,35.0,248.18,-81.71,101.48
22725,52.74416,-1.691551,105.9,17.76,4,167.81,23 / 23,2272520,2019-11-06 11:19:39:863,-0.7364,-1.1834,9.3269,-0.0101,0.1547,9.8053,-0.2137,-0.0011,-0.0947,-17.81,-36.44,35.38,241.78,-81.39,95.71
22726,52.74416,-1.691551,105.9,17.76,4,167.81,23 / 23,2272620,2019-11-06 11:19:39:963,-2.9028,-0.2541,9.0407,-0.0034,0.0807,9.8063,0.0286,-0.2508,0.0758,-17.5,-36.19,34.81,240.19,-81.17,92.94
22727,52.74416,-1.691551,105.9,17.76,4,167.81,23 / 23,2272720,2019-11-06 11:19:40:063,-1.3856,1.5467,10.747,0.0092,-0.0381,9.8066,0.0482,-0.1341,0.0633,-17.06,-36.62,35.0,240.19,-81.17,92.94
22728,52.74416,-1.691551,105.9,17.76,4,167.81,23 / 23,2272820,2019-11-06 11:19:40:163,-7.2485,-3.5095,10.5406,0.0041,-0.0353,9.8065,0.0628,-0.4633,0.3035,-17.19,-36.12,35.25,241.58,-81.23,94.39
22729,52.74416,-1.691551,105.9,17.76,4,167.81,23 / 23,2272920,2019-11-06 11:19:40:263,-5.784,-2.6374,8.1682,-0.0027,-0.0443,9.8065,0.0557,-0.7648,0.3455,-17.31,-36.75,35.25,242.85,-81.37,95.85
22730,52.744007,-1.691504,105.81,17.77,6,169.42,23 / 23,2273020,2019-11-06 11:19:40:363,4.2793,1.7552,9.9118,-0.0889,0.0262,9.8062,-0.1566,0.7184,-0.4047,-17.56,-36.31,35.25,242.85,-81.37,95.85
22731,52.744007,-1.691504,105.81,17.77,6,169.42,23 / 23,2273119,2019-11-06 11:19:40:462,4.6154,4.6038,9.8961,0.1559,0.1347,9.8044,-0.134,1.1566,-0.6977,-17.56,-36.25,34.88,240.89,-81.75,93.25
22732,52.744007,-1.691504,105.81,17.77,6,169.42,23 / 23,2273223,2019-11-06 11:19:40:566,-3.7391,-3.2964,8.5705,0.0946,0.0867,9.8057,0.0197,0.7638,-0.5783,-17.25,-36.75,35.44,239.16,-81.02,92.14
22733,52.744007,-1.691504,105.81,17.77,6,169.42,23 / 23,2273320,2019-11-06 11:19:40:663,-8.5094,-5.3588,9.7769,0.0555,-0.0341,9.8064,0.0187,-0.3467,0.2016,-17.56,-36.0,35.19,240.04,-80.84,94.26
22734,52.744007,-1.691504,105.81,17.77,6,169.42,23 / 23,2273420,2019-11-06 11:19:40:763,-1.979,-2.9894,9.0784,-0.0997,-0.0959,9.8056,0.1808,-1.1325,0.7497,-17.75,-35.94,35.56,240.04,-80.84,94.26
22735,52.744007,-1.691504,105.81,17.77,6,169.42,23 / 23,2273520,2019-11-06 11:19:40:863,3.5331,1.8469,9.1793,-0.0458,-0.016,9.8065,-0.0221,-0.1668,0.207,-18.44,-35.62,35.75,244.26,-82.3,96.86
22736,52.744007,-1.691504,105.81,17.77,6,169.42,23 / 23,2273620,2019-11-06 11:19:40:963,3.3687,0.3727,9.4746,-0.0341,0.0497,9.8064,-0.1114,0.718,-0.3818,-18.12,-36.06,35.56,242.46,-82.77,94.6
22737,52.744007,-1.691504,105.81,17.77,6,169.42,23 / 23,2273720,2019-11-06 11:19:41:063,-5.3171,-2.0331,9.4618,-0.0736,0.1046,9.8058,-0.1444,0.6191,-0.4877,-18.25,-36.31,35.5,242.46,-82.77,94.6
22738,52.744007,-1.691504,105.81,17.77,6,169.42,23 / 23,2273820,2019-11-06 11:19:41:163,-4.7702,-2.8249,9.8225,0.0113,-0.0191,9.8066,0.1351,-0.3946,0.2256,-18.19,-35.19,35.13,235.99,-82.97,88.36
22739,52.744007,-1.691504,105.81,17.77,6,169.42,23 / 23,2273920,2019-11-06 11:19:41:263,-1.7677,-3.5601,10.8674,0.0479,-0.0198,9.8065,-0.0391,-0.1883,0.1004,-18.44,-35.12,35.81,240.4,-82.95,92.13
22740,52.74385,-1.691466,105.75,17.97,6,171.84,22 / 22,2274020,2019-11-06 11:19:41:363,4.6292,0.3891,11.3408,0.0834,-0.0317,9.8062,0.1155,0.4592,-0.3325,-18.19,-35.19,35.88,240.4,-82.95,92.13
22741,52.74385,-1.691466,105.75,17.97,6,171.84,22 / 22,2274120,2019-11-06 11:19:41:463,-0.2129,-1.6513,8.7347,0.0199,-0.0024,9.8066,-0.0148,0.3445,-0.2545,-17.19,-35.87,35.75,242.96,-82.61,95.25
22742,52.74385,-1.691466,105.75,17.97,6,171.84,22 / 22,2274220,2019-11-06 11:19:41:563,-3.4528,-3.711,8.9527,-0.0469,0.0246,9.8064,0.0257,-0.1603,0.0006,-17.19,-36.12,35.88,243.19,-82.49,94.36
22743,52.74385,-1.691466,105.75,17.97,6,171.84,22 / 22,2274320,2019-11-06 11:19:41:663,-0.7253,-1.2595,10.5414,-0.074,0.028,9.8062,0.011,-0.255,0.1259,-17.62,-36.25,35.81,239.69,-82.79,91.65
22744,52.74385,-1.691466,105.75,17.97,6,171.84,22 / 22,2274419,2019-11-06 11:19:41:762,0.069,-1.239,10.7805,0.0111,-0.0137,9.8066,-0.0235,-0.1896,0.1107,-17.31,-36.31,35.25,239.69,-82.79,91.65
22745,52.74385,-1.691466,105.75,17.97,6,171.84,22 / 22,2274522,2019-11-06 11:19:41:865,0.7032,-1.6696,11.0406,0.0377,0.0244,9.8064,0.1155,0.0298,-0.16,-17.25,-36.31,35.81,241.59,-82.77,92.46
22746,52.74385,-1.691466,105.75,17.97,6,171.84,22 / 22,2274620,2019-11-06 11:19:41:963,0.3468,-0.4749,9.9977,0.0235,0.008,9.8066,0.0227,-0.3308,0.219,-17.37,-36.56,35.88,241.52,-82.63,92.65
22747,52.74385,-1.691466,105.75,17.97,6,171.84,22 / 22,2274721,2019-11-06 11:19:42:064,-2.0316,-3.0282,10.5831,-0.0186,0.0088,9.8066,0.1719,-0.3737,0.1714,-17.94,-36.0,35.13,241.52,-82.63,92.65
22748,52.74385,-1.691466,105.75,17.97,6,171.84,22 / 22,2274820,2019-11-06 11:19:42:163,-4.4121,-3.9437,9.704,-0.0662,-0.0169,9.8063,-0.2708,0.2096,0.1041,-17.62,-36.31,35.44,240.28,-82.7,91.88
22749,52.74385,-1.691466,105.75,17.97,6,171.84,22 / 22,2274920,2019-11-06 11:19:42:263,-0.1871,-2.2012,11.2779,-0.0705,-0.0224,9.8063,-0.0808,0.3845,-0.1881,-17.19,-35.56,35.5,240.44,-83.08,91.0
22750,52.74369,-1.691434,105.76,18.46,6,173.8,22 / 23,2275020,2019-11-06 11:19:42:363,0.4168,-1.7506,12.7575,-0.1429,-0.028,9.8055,0.3089,0.0168,-0.3057,-17.62,-36.0,36.19,240.44,-83.08,91.0
22751,52.74369,-1.691434,105.76,18.46,6,173.8,22 / 23,2275120,2019-11-06 11:19:42:463,-4.3427,-4.6678,10.1523,0.0055,-0.0444,9.8065,0.0332,0.3758,-0.2233,-17.81,-36.0,36.0,236.71,-83.88,88.47
22752,52.74369,-1.691434,105.76,18.46,6,173.8,22 / 23,2275221,2019-11-06 11:19:42:564,0.0344,-0.8712,9.5968,-0.0626,-0.0303,9.8063,-0.1623,-0.1099,0.0331,-17.62,-36.12,36.44,239.63,-84.0,90.71
22753,52.74369,-1.691434,105.76,18.46,6,173.8,22 / 23,2275320,2019-11-06 11:19:42:663,-0.3914,-1.9929,10.2496,-0.0421,-0.0128,9.8065,0.022,-0.6889,0.4301,-17.62,-35.44,35.88,239.35,-84.25,90.11
22754,52.74369,-1.691434,105.76,18.46,6,173.8,22 / 23,2275420,2019-11-06 11:19:42:763,-1.4706,-4.2317,10.222,-0.013,0.0101,9.8066,0.2222,-0.4697,0.0537,-17.5,-36.0,36.06,239.35,-84.25,90.11
22755,52.74369,-1.691434,105.76,18.46,6,173.8,22 / 23,2275520,2019-11-06 11:19:42:863,-0.9759,-3.2716,10.5968,-0.0517,-0.0305,9.8064,-0.1697,-0.485,0.0325,-17.19,-35.81,35.81,238.41,-84.28,89.21
22756,52.74369,-1.691434,105.76,18.46,6,173.8,22 / 23,2275620,2019-11-06 11:19:42:963,4.0097,-0.0622,9.4476,0.065,0.0409,9.8063,0.1899,0.093,0.1304,-17.12,-36.12,36.69,239.44,-84.53,88.18
22757,52.74369,-1.691434,105.76,18.46,6,173.8,22 / 23,2275720,2019-11-06 11:19:43:063,4.8765,1.923,9.6356,0.186,0.0633,9.8047,-0.194,1.0788,-0.6739,-17.06,-35.5,36.0,239.44,-84.53,88.18
22758,52.74369,-1.691434,105.76,18.46,6,173.8,22 / 23,2275820,2019-11-06 11:19:43:163,-8.4098,-6.0105,9.5728,-0.0254,0.028,9.8065,-0.2995,0.6441,-0.341,-17.0,-36.06,36.25,239.21,-83.4,90.22
22759,52.74369,-1.691434,105.76,18.46,6,173.8,22 / 23,2275920,2019-11-06 11:19:43:263,-7.7328,-4.2508,8.7421,-0.1093,-0.0225,9.806,0.1787,-1.5266,0.7925,-17.0,-36.06,36.38,237.36,-83.56,87.4
22760,52.743523,-1.691411,105.8,19.02,6,176.08,24 / 24,2276020,2019-11-06 11:19:43:363,2.3724,4.6302,9.5717,-0.0485,-0.0236,9.8064,0.3201,-1.3433,0.6632,-16.81,-35.87,36.0,234.09,-84.62,83.2
22761,52.743523,-1.691411,105.8,19.02,6,176.08,24 / 24,2276121,2019-11-06 11:19:43:464,7.8455,5.6409,12.3511,0.0227,-0.0586,9.8064,-0.0402,1.4932,-1.04,-17.0,-35.5,36.25,234.09,-84.62,83.2
22762,52.743523,-1.691411,105.8,19.02,6,176.08,24 / 24,2276219,2019-11-06 11:19:43:562,-7.6809,-7.504,11.0801,0.1015,-0.014,9.8061,0.1146,0.7533,-0.5102,-17.06,-35.06,36.81,242.74,-84.06,91.85
22763,52.743523,-1.691411,105.8,19.02,6,176.08,24 / 24,2276320,2019-11-06 11:19:43:663,-12.9154,-9.961,8.2269,0.0119,-0.0514,9.8065,-0.1233,-1.0835,0.5908,-17.31,-35.44,37.25,245.59,-84.13,94.77
22764,52.743523,-1.691411,105.8,19.02,6,176.08,24 / 24,2276420,2019-11-06 11:19:43:763,-3.1005,-0.3933,6.9443,-0.0008,0.0868,9.8062,0.0887,-0.6965,0.1818,-16.94,-35.75,36.31,245.59,-84.13,94.77
22765,52.743523,-1.691411,105.8,19.02,6,176.08,24 / 24,2276520,2019-11-06 11:19:43:863,7.9236,6.2043,7.9489,-0.1017,0.0535,9.8059,-0.0821,0.6113,-0.2086,-17.0,-36.12,35.69,240.44,-83.9,90.4
22766,52.743523,-1.691411,105.8,19.02,6,176.08,24 / 24,2276620,2019-11-06 11:19:43:963,5.8779,2.6356,8.782,-0.0234,0.0144,9.8066,-0.1809,1.4518,-1.0618,-17.12,-36.31,35.13,234.63,-84.24,84.76
22767,52.743523,-1.691411,105.8,19.02,6,176.08,24 / 24,2276720,2019-11-06 11:19:44:063,-10.9562,-7.9751,10.0079,0.0661,0.1233,9.8056,-0.1376,1.0588,-0.6174,-16.56,-35.87,35.31,231.12,-83.5,81.55
22768,52.743523,-1.691411,105.8,19.02,6,176.08,24 / 24,2276820,2019-11-06 11:19:44:163,-2.1645,-4.6423,10.6673,0.1821,0.0632,9.8047,0.2377,-1.7517,1.1008,-16.69,-36.19,34.94,231.12,-83.5,81.55
22769,52.743523,-1.691411,105.8,19.02,6,176.08,24 / 24,2276920,2019-11-06 11:19:44:263,2.6789,-0.0658,11.8487,-0.0367,-0.0632,9.8063,-0.1787,-0.7257,0.6875,-16.31,-36.12,36.06,235.01,-82.43,84.43
22770,52.74336,-1.691395,105.78,19.1,6,175.31,23 / 23,2277020,2019-11-06 11:19:44:363,5.0161,1.3276,12.3568,-0.0228,-0.0174,9.8065,0.3201,0.009,-0.4126,-16.0,-36.0,35.38,236.16,-82.8,86.13
22771,52.74336,-1.691395,105.78,19.1,6,175.31,23 / 23,2277120,2019-11-06 11:19:44:463,-5.8833,-4.8304,9.6871,-0.0436,0.0196,9.8065,-0.1004,0.6067,-0.0268,-16.0,-36.31,35.31,236.16,-82.8,86.13
22772,52.74336,-1.691395,105.78,19.1,6,175.31,23 / 23,2277220,2019-11-06 11:19:44:563,-7.7255,-4.0626,8.1823,-0.1836,-0.0309,9.8048,0.1727,0.451,-0.384,-16.81,-35.87,35.38,233.26,-82.95,84.2
22773,52.74336,-1.691395,105.78,19.1,6,175.31,23 / 23,2277320,2019-11-06 11:19:44:663,-2.1208,-0.3773,8.9294,-0.0191,-0.0364,9.8065,-0.1107,-0.7922,0.7499,-17.06,-35.56,35.56,231.58,-84.27,80.78
22774,52.74336,-1.691395,105.78,19.1,6,175.31,23 / 23,2277420,2019-11-06 11:19:44:763,5.9845,5.6266,10.1355,0.0354,-0.033,9.8065,0.1289,-1.052,0.7091,-17.56,-36.31,36.0,233.0,-84.22,83.56
22775,52.74336,-1.691395,105.78,19.1,6,175.31,23 / 23,2277520,2019-11-06 11:19:44:863,4.1189,1.8168,9.7048,0.0623,0.0704,9.8062,0.2209,-0.1541,-0.0894,-16.81,-36.75,35.56,233.0,-84.22,83.56
22776,52.74336,-1.691395,105.78,19.1,6,175.31,23 / 23,2277620,2019-11-06 11:19:44:963,-1.6468,1.6251,6.8438,-0.1143,0.152,9.8048,-0.0022,0.6093,-0.2728,-16.69,-36.37,35.25,232.89,-83.68,82.57
22777,52.74336,-1.691395,105.78,19.1,6,175.31,23 / 23,2277720,2019-11-06 11:19:45:063,-3.8799,-0.4791,8.9876,-0.1947,0.0994,9.8041,0.1237,0.0778,-0.0553,-17.37,-36.44,35.31,221.88,-84.12,71.27
22778,52.74336,-1.691395,105.78,19.1,6,175.31,23 / 23,2277820,2019-11-06 11:19:45:163,-3.988,-3.0531,9.336,-0.0439,-0.0887,9.8061,-0.0535,-0.5774,0.5479,-17.62,-36.0,35.25,221.88,-84.12,71.27
22779,52.74336,-1.691395,105.78,19.1,6,175.31,23 / 23,2277921,2019-11-06 11:19:45:264,-0.2439,-1.0974,10.7418,0.0313,-0.0028,9.8065,0.0346,-0.4544,0.2423,-17.25,-36.0,35.88,223.75,-84.68,72.94
22780,52.743187,-1.69138,105.85,19.02,6,176.58,23 / 23,2278020,2019-11-06 11:19:45:363,1.4184,-0.7339,11.9675,0.0507,0.0048,9.8064,0.1181,0.4699,-0.4784,-17.31,-36.06,36.38,225.77,-84.56,74.45
22781,52.743187,-1.69138,105.85,19.02,6,176.58,23 / 23,2278119,2019-11-06 11:19:45:462,5.2817,1.0793,10.5427,0.084,0.0536,9.8061,0.0054,-0.6042,0.502,-16.56,-36.25,36.13,226.51,-83.99,75.58
22782,52.743187,-1.69138,105.85,19.02,6,176.58,23 / 23,2278220,2019-11-06 11:19:45:563,-0.5515,-0.3854,9.5095,-0.0023,-0.0014,9.8066,0.1353,-0.4701,0.2137,-17.25,-35.87,35.69,226.51,-83.99,75.58
22783,52.743187,-1.69138,105.85,19.02,6,176.58,23 / 23,2278319,2019-11-06 11:19:45:662,-6.9123,-3.3629,8.9504,-0.0366,-0.0399,9.8065,0.1649,0.1576,-0.3881,-17.06,-36.06,35.25,225.84,-84.63,75.19
22784,52.743187,-1.69138,105.85,19.02,6,176.58,23 / 23,2278420,2019-11-06 11:19:45:763,-5.1435,-1.6188,7.7931,-0.034,0.0264,9.8065,-0.0103,-0.2715,0.346,-17.44,-35.81,35.81,224.0,-84.65,72.52
22785,52.743187,-1.69138,105.85,19.02,6,176.58,23 / 23,2278520,2019-11-06 11:19:45:863,0.677,-0.6888,10.0158,-0.018,0.021,9.8066,-0.0243,0.0027,0.1618,-17.37,-35.69,36.0,224.0,-84.65,72.52
22786,52.743187,-1.69138,105.85,19.02,6,176.58,23 / 23,2278620,2019-11-06 11:19:45:963,0.1896,-0.7418,10.8688,0.0106,0.0269,9.8066,-0.0042,0.0957,-0.1587,-16.94,-36.44,35.5,221.19,-84.64,70.8
22787,52.743187,-1.69138,105.85,19.02,6,176.58,23 / 23,2278720,2019-11-06 11:19:46:063,-2.3663,-1.2156,10.6676,0.0301,0.0202,9.8065,0.0753,0.2479,-0.2218,-17.0,-36.5,35.81,222.79,-84.43,71.36
22788,52.743187,-1.69138,105.85,19.02,6,176.58,23 / 23,2278820,2019-11-06 11:19:46:163,-4.2777,-1.7159,9.0958,0.0323,0.0352,9.8065,0.0225,0.0988,-0.1905,-16.75,-35.75,35.94,222.63,-84.15,71.35
22789,52.743187,-1.69138,105.85,19.02,6,176.58,23 / 23,2278921,2019-11-06 11:19:46:264,-0.1477,0.9945,7.8087,-0.0003,0.0661,9.8064,0.1525,-0.3555,0.1392,-16.87,-36.19,35.19,222.63,-84.15,71.35
22790,52.743,-1.691366,106.0,19.37,6,176.76,23 / 23,2279020,2019-11-06 11:19:46:363,1.1499,0.3614,8.252,-0.0082,0.0025,9.8066,0.0175,-0.2822,0.1195,-16.5,-36.0,35.5,221.38,-83.86,68.89
22791,52.743,-1.691366,106.0,19.37,6,176.76,23 / 23,2279120,2019-11-06 11:19:46:463,-1.6799,-0.4334,9.8194,-0.0194,-0.0152,9.8066,-0.0559,0.0125,-0.0352,-17.06,-36.37,35.75,220.03,-84.01,68.64
22792,52.743,-1.691366,106.0,19.37,6,176.76,23 / 23,2279220,2019-11-06 11:19:46:563,-1.2405,-3.5445,10.3086,0.1603,-0.0014,9.8053,0.1474,0.2509,-0.3879,-16.62,-35.69,35.5,220.03,-84.01,68.64
22793,52.743,-1.691366,106.0,19.37,6,176.76,23 / 23,2279320,2019-11-06 11:19:46:663,2.1405,-1.0859,9.967,0.1117,0.0562,9.8058,0.0943,0.1739,-0.6108,-15.62,-35.94,35.31,226.18,-83.37,74.91
22794,52.743,-1.691366,106.0,19.37,6,176.76,23 / 23,2279421,2019-11-06 11:19:46:764,8.1951,0.0556,10.5069,-0.0465,0.0259,9.8065,-0.1582,-0.3456,0.6023,-16.06,-36.5,34.63,226.74,-82.3,76.31
22795,52.743,-1.691366,106.0,19.37,6,176.76,23 / 23,2279520,2019-11-06 11:19:46:863,0.0557,-4.1753,12.0934,-0.3209,-0.0367,9.8013,-0.2912,-0.7182,0.4054,-16.94,-36.75,35.13,216.64,-83.71,65.96
22796,52.743,-1.691366,106.0,19.37,6,176.76,23 / 23,2279620,2019-11-06 11:19:46:963,-0.6988,-5.7907,12.4907,-0.0722,-0.0387,9.8063,0.4928,-0.3039,0.2369,-16.5,-35.94,34.75,216.64,-83.71,65.96
22797,52.743,-1.691366,106.0,19.37,6,176.76,23 / 23,2279721,2019-11-06 11:19:47:064,-1.5808,-3.4599,13.4146,0.0394,-0.0063,9.8065,-0.1469,0.2732,-0.011,-16.81,-35.37,34.69,215.02,-84.3,63.74
22798,52.743,-1.691366,106.0,19.37,6,176.76,23 / 23,2279820,2019-11-06 11:19:47:163,1.1811,-2.0119,12.682,0.0884,-0.004,9.8062,0.2556,0.1338,-0.3521,-16.37,-36.0,35.25,221.11,-83.86,69.3
22799,52.743,-1.691366,106.0,19.37,6,176.76,23 / 23,2279920,2019-11-06 11:19:47:263,1.3928,-3.3008,12.0653,0.1337,0.0099,9.8056,-0.1341,-0.0077,-0.0691,-15.87,-36.5,36.06,221.11,-83.86,69.3
22800,52.742817,-1.691354,106.12,19.66,6,177.55,23 / 23,2280020,2019-11-06 11:19:47:363,2.7956,-1.2033,9.0247,-0.0246,0.0485,9.8064,-0.1222,-0.1873,0.2852,-15.56,-36.5,35.81,225.56,-82.98,73.9
22801,52.742817,-1.691354,106.12,19.66,6,177.55,23 / 23,2280120,2019-11-06 11:19:47:463,-1.4119,0.4041,9.273,-0.098,0.0323,9.806,-0.0181,0.1626,0.0919,-15.69,-36.06,35.25,224.45,-82.88,71.46
22802,52.742817,-1.691354,106.12,19.66,6,177.55,23 / 23,2280220,2019-11-06 11:19:47:563,-0.4847,-0.4303,9.1661,-0.0262,-0.0038,9.8066,0.011,-0.0672,0.0341,-15.69,-36.75,35.06,218.45,-83.12,66.93
22803,52.742817,-1.691354,106.12,19.66,6,177.55,23 / 23,2280320,2019-11-06 11:19:47:663,-1.0009,-0.2351,10.8239,-0.0261,-0.0367,9.8065,0.0386,0.0679,-0.0433,-16.06,-36.06,35.31,218.79,-83.39,67.06
22804,52.742817,-1.691354,106.12,19.66,6,177.55,23 / 23,2280420,2019-11-06 11:19:47:763,-2.7861,-0.7437,11.2755,0.0618,-0.0304,9.8063,0.1378,0.1311,-0.1727,-16.0,-36.0,35.56,218.79,-83.39,67.06
22805,52.742817,-1.691354,106.12,19.66,6,177.55,23 / 23,2280520,2019-11-06 11:19:47:863,-2.3982,-1.3549,10.8775,0.0593,-0.0095,9.8064,-0.1107,-0.1341,0.0991,-15.62,-36.31,35.5,221.85,-83.29,70.42
22806,52.742817,-1.691354,106.12,19.66,6,177.55,23 / 23,2280620,2019-11-06 11:19:47:963,0.4141,-0.5148,9.7172,0.0158,-0.0029,9.8065,0.2019,-0.2907,0.1745,-15.69,-35.81,35.81,226.0,-82.94,74.4
22807,52.742817,-1.691354,106.12,19.66,6,177.55,23 / 23,2280720,2019-11-06 11:19:48:063,1.9526,-0.4557,9.5906,-0.0413,0.0113,9.8065,-0.2166,-0.2558,0.079,-15.87,-35.69,35.38,226.0,-82.94,74.4
22808,52.742817,-1.691354,106.12,19.66,6,177.55,23 / 23,2280820,2019-11-06 11:19:48:163,-1.452,-2.3484,9.0881,-0.0677,-0.0236,9.8063,0.0292,-0.0517,0.3446,-16.37,-36.31,35.31,224.99,-83.07,72.62
22809,52.742817,-1.691354,106.12,19.66,6,177.55,23 / 23,2280920,2019-11-06 11:19:48:263,-2.7034,-2.0554,8.6023,-0.018,0.017,9.8066,-0.1308,0.3314,0.0204,-16.12,-36.62,35.25,221.5,-83.44,70.07
22810,52.742626,-1.691342,106.26,19.98,6,177.14,24 / 24,2281020,2019-11-06 11:19:48:363,1.0914,0.3151,8.9686,0.0166,0.0027,9.8066,-0.0665,-0.0227,-0.062,-16.31,-36.75,34.94,219.43,-83.3,67.9
22811,52.742626,-1.691342,106.26,19.98,6,177.14,24 / 24,2281120,2019-11-06 11:19:48:463,0.5765,0.3951,10.2044,0.0529,-0.0213,9.8064,0.1324,-0.0683,0.0683,-16.25,-35.69,35.25,219.43,-83.3,67.9
22812,52.742626,-1.691342,106.26,19.98,6,177.14,24 / 24,2281219,2019-11-06 11:19:48:562,0.7772,-1.2572,9.4339,0.0279,-0.0144,9.8065,0.0708,-0.12,-0.0797,-16.56,-36.19,35.25,221.9,-83.18,71.83
22813,52.742626,-1.691342,106.26,19.98,6,177.14,24 / 24,2281319,2019-11-06 11:19:48:662,0.5371,-1.537,7.3781,-0.0028,0.063,9.8064,-0.0245,0.0957,-0.2413,-16.19,-36.44,34.88,224.11,-83.1,72.97
22814,52.742626,-1.691342,106.26,19.98,6,177.14,24 / 24,2281420,2019-11-06 11:19:48:763,-1.518,-1.798,8.72,-0.0242,0.0924,9.8062,-0.0726,0.2031,-0.015,-15.56,-36.31,35.5,224.11,-83.1,72.97
22815,52.742626,-1.691342,106.26,19.98,6,177.14,24 / 24,2281520,2019-11-06 11:19:48:863,-2.0052,-3.1454,9.5678,-0.0171,0.0011,9.8066,0.0515,-0.3664,0.1377,-16.62,-36.62,35.06,219.28,-82.68,67.96
22816,52.742626,-1.691342,106.26,19.98,6,177.14,24 / 24,2281620,2019-11-06 11:19:48:963,1.2076,-0.2324,10.8262,-0.0124,-0.0156,9.8066,0.016,-0.2996,0.2665,-16.12,-36.5,35.38,218.82,-82.9,67.34
22817,52.742626,-1.691342,106.26,19.98,6,177.14,24 / 24,2281720,2019-11-06 11:19:49:063,1.2195,0.0456,11.4501,-0.029,-0.0503,9.8064,0.1824,0.2112,-0.1742,-16.37,-36.44,35.63,220.04,-83.23,67.79
22818,52.742626,-1.691342,106.26,19.98,6,177.14,24 / 24,2281820,2019-11-06 11:19:49:163,-1.6881,-4.5788,11.5846,0.0041,-0.0258,9.8066,-0.0957,0.7135,-0.4559,-16.12,-36.06,35.5,220.04,-83.23,67.79
22819,52.742626,-1.691342,106.26,19.98,6,177.14,24 / 24,2281920,2019-11-06 11:19:49:263,0.2593,-3.0537,12.5753,0.0763,0.0297,9.8062,-0.3502,0.4809,-0.1587,-15.87,-35.69,35.31,221.28,-83.13,69.89
22820,52.74244,-1.691328,106.4,20.16,6,176.35,23 / 23,2282020,2019-11-06 11:19:49:363,3.445,-0.4416,12.6392,0.1176,0.0649,9.8056,0.1638,0.3707,-0.3205,-15.56,-35.94,35.5,223.4,-82.39,71.9
22821,52.74244,-1.691328,106.4,20.16,6,176.35,23 / 23,2282120,2019-11-06 11:19:49:463,5.9457,-1.3266,12.9525,0.0513,-0.0699,9.8062,-0.4526,-0.4805,0.7116,-15.62,-36.06,35.31,223.4,-82.39,71.9
22822,52.74244,-1.691328,106.4,20.16,6,176.35,23 / 23,2282219,2019-11-06 11:19:49:562,-0.6433,-3.7782,12.126,-0.0737,-0.0134,9.8063,0.1972,-0.5508,0.2641,-15.56,-36.12,35.81,227.35,-82.46,75.7
22823,52.74244,-1.691328,106.4,20.16,6,176.35,23 / 23,2282320,2019-11-06 11:19:49:663,-5.2668,-5.7146,11.3782,-0.1139,-0.0245,9.8059,0.2037,-0.2912,0.2214,-15.69,-35.94,35.44,222.55,-83.29,71.17
22824,52.74244,-1.691328,106.4,20.16,6,176.35,23 / 23,2282420,2019-11-06 11:19:49:763,-1.0635,-3.692,11.3638,-0.1867,-0.011,9.8048,-0.375,0.4002,-0.0056,-17.19,-36.12,35.69,215.57,-84.03,63.85
22825,52.74244,-1.691328,106.4,20.16,6,176.35,23 / 23,2282520,2019-11-06 11:19:49:863,3.6466,-1.8192,11.3327,0.0429,0.0109,9.8065,0.1047,0.2368,-0.3834,-16.81,-36.06,35.25,215.57,-84.03,63.85
22826,52.74244,-1.691328,106.4,20.16,6,176.35,23 / 23,2282620,2019-11-06 11:19:49:963,4.1489,-0.9027,11.5079,0.0682,0.0022,9.8063,-0.2012,-0.2539,0.283,-16.25,-36.56,34.94,219.6,-83.43,68.01
22827,52.74244,-1.691328,106.4,20.16,6,176.35,23 / 23,2282720,2019-11-06 11:19:50:063,-1.792,-4.6007,11.4469,0.0327,0.0005,9.8066,0.2986,-0.4878,-0.0792,-16.0,-36.5,35.19,223.56,-82.88,72.51
22828,52.74244,-1.691328,106.4,20.16,6,176.35,23 / 23,2282820,2019-11-06 11:19:50:163,0.4121,-1.8847,10.4501,0.0498,-0.0028,9.8064,0.1331,-0.5448,0.3053,-15.62,-36.0,35.69,223.56,-82.88,72.51
22829,52.74244,-1.691328,106.4,20.16,6,176.35,23 / 23,2282920,2019-11-06 11:19:50:263,2.0531,-1.0884,10.0301,0.006,-0.0176,9.8066,0.0911,0.4616,-0.2534,-15.25,-36.44,35.31,226.8,-82.53,74.92
22830,52.742256,-1.691315,106.49,20.25,6,176.64,24 / 24,2283020,2019-11-06 11:19:50:363,-1.471,-0.7637,9.8693,-0.0511,-0.0051,9.8065,-0.1879,0.5354,-0.2235,-15.56,-36.19,35.25,226.54,-82.56,75.93
22831,52.742256,-1.691315,106.49,20.25,6,176.64,24 / 24,2283120,2019-11-06 11:19:50:463,-3.8832,-3.1478,9.9787,-0.0949,-0.0199,9.8062,-0.0287,0.1884,0.016,-16.25,-36.12,34.88,224.54,-83.04,73.48
22832,52.742256,-1.691315,106.49,20.25,6,176.64,24 / 24,2283220,2019-11-06 11:19:50:563,-0.8392,-0.7691,10.4485,-0.0809,-0.0514,9.8061,0.1003,-0.0918,-0.0064,-16.75,-36.37,35.25,224.54,-83.04,73.48
22833,52.742256,-1.691315,106.49,20.25,6,176.64,24 / 24,2283320,2019-11-06 11:19:50:663,3.1236,-0.5596,11.0453,0.0079,-0.0195,9.8066,-0.0543,-0.2609,0.136,-16.5,-36.5,35.31,224.28,-83.7,72.8
22834,52.742256,-1.691315,106.49,20.25,6,176.64,24 / 24,2283420,2019-11-06 11:19:50:763,-0.785,-1.7399,11.3223,0.015,-0.0182,9.8066,0.14,0.0369,-0.0915,-16.75,-36.5,35.44,224.24,-83.71,74.04
22835,52.742256,-1.691315,106.49,20.25,6,176.64,24 / 24,2283519,2019-11-06 11:19:50:862,0.4838,-1.4537,10.4955,0.001,0.0268,9.8065,-0.037,-0.0529,-0.1009,-16.06,-36.06,35.56,224.24,-83.71,74.04
22836,52.742256,-1.691315,106.49,20.25,6,176.64,24 / 24,2283620,2019-11-06 11:19:50:963,2.9269,-0.0799,11.25,0.0416,0.014,9.8065,-0.1256,-0.0892,0.2228,-16.62,-36.44,34.69,224.5,-83.59,73.1
22837,52.742256,-1.691315,106.49,20.25,6,176.64,24 / 24,2283720,2019-11-06 11:19:51:063,-3.0314,-3.2665,11.6677,0.034,-0.0133,9.8066,-0.103,0.1956,0.0119,-16.69,-35.75,35.31,224.87,-83.51,74.84
22838,52.742256,-1.691315,106.49,20.25,6,176.64,24 / 24,2283820,2019-11-06 11:19:51:163,-1.8542,-3.2494,10.7922,-0.0519,-0.041,9.8064,-0.0817,0.3031,-0.1858,-16.5,-36.06,35.44,225.89,-83.89,74.41
22839,52.742256,-1.691315,106.49,20.25,6,176.64,24 / 24,2283920,2019-11-06 11:19:51:263,1.8353,2.0563,10.6502,0.0489,-0.0025,9.8065,0.0888,0.4919,-0.2485,-16.62,-36.19,35.0,225.89,-83.89,74.41
22840,52.742073,-1.691304,106.55,20.08,6,176.85,22 / 22,2284020,2019-11-06 11:19:51:363,0.4509,0.4306,9.828,0.0752,0.0436,9.8062,-0.0845,0.4983,-0.401,-16.25,-36.12,35.06,227.55,-83.69,76.31
22841,52.742073,-1.691304,106.55,20.08,6,176.85,22 / 22,2284120,2019-11-06 11:19:51:463,2.3777,0.3463,8.776,0.1112,0.0541,9.8058,0.075,0.0622,0.0045,-16.37,-35.75,35.44,228.7,-83.0,78.0
22842,52.742073,-1.691304,106.55,20.08,6,176.85,22 / 22,2284219,2019-11-06 11:19:51:562,-5.1127,-3.2539,9.8363,-0.0376,-0.0458,9.8065,0.1567,-0.3391,0.003,-16.0,-36.12,35.31,228.7,-83.0,78.0
22843,52.742073,-1.691304,106.55,20.08,6,176.85,22 / 22,2284320,2019-11-06 11:19:51:663,0.9862,-0.652,10.671,0.0335,-0.0377,9.8065,-0.0132,-0.7105,0.5146,-15.44,-35.69,35.88,230.59,-83.34,78.48
22844,52.742073,-1.691304,106.55,20.08,6,176.85,22 / 22,2284419,2019-11-06 11:19:51:762,2.4089,0.2986,10.8735,0.0374,-0.0053,9.8065,0.05,0.1782,-0.2435,-15.94,-35.87,36.0,234.33,-82.96,83.34
22845,52.742073,-1.691304,106.55,20.08,6,176.85,22 / 22,2284519,2019-11-06 11:19:51:862,0.0514,-0.5237,7.4486,0.0017,-0.0265,9.8065,-0.2699,0.5103,0.0364,-15.56,-34.87,36.19,234.33,-82.96,83.34
22846,52.742073,-1.691304,106.55,20.08,6,176.85,22 / 22,2284619,2019-11-06 11:19:51:962,-5.9978,-0.6251,6.3928,-0.0576,0.0195,9.8064,0.1259,0.3544,-0.4047,-16.0,-35.94,35.5,236.75,-83.04,84.42
22847,52.742073,-1.691304,106.55,20.08,6,176.85,22 / 22,2284719,2019-11-06 11:19:52:062,-4.7525,-1.4231,6.9052,0.001,0.0212,9.8065,0.0466,-0.0527,-0.0233,-15.62,-35.87,34.69,230.55,-83.3,79.78
22848,52.742073,-1.691304,106.55,20.08,6,176.85,22 / 22,2284820,2019-11-06 11:19:52:163,1.3393,1.4131,7.9003,0.0484,0.0316,9.8065,0.2476,-0.4638,0.0357,-15.06,-36.87,35.63,230.65,-82.9,78.28
22849,52.742073,-1.691304,106.55,20.08,6,176.85,22 / 22,2284920,2019-11-06 11:19:52:263,1.0304,0.8155,9.4146,0.0895,0.0316,9.8061,0.0565,-0.1181,0.1878,-15.75,-36.62,35.25,230.65,-82.9,78.28
22850,52.74188,-1.691315,106.63,20.21,4,177.41,22 / 22,2285020,2019-11-06 11:19:52:363,-0.0434,0.3596,9.9068,0.0009,-0.0151,9.8066,-0.1248,0.3708,-0.224,-16.25,-35.94,35.31,230.53,-82.35,80.39
22851,52.74188,-1.691315,106.63,20.21,4,177.41,22 / 22,2285120,2019-11-06 11:19:52:463,0.5296,-0.6326,11.1628,0.0236,-0.0135,9.8066,0.1065,-0.4332,0.3051,-15.75,-35.69,35.44,231.06,-82.4,80.93
22852,52.74188,-1.691315,106.63,20.21,4,177.41,22 / 22,2285220,2019-11-06 11:19:52:563,-0.0775,-2.4935,10.944,-0.0502,-0.1092,9.8058,0.0565,-0.2309,0.1958,-16.12,-35.69,36.0,234.52,-83.02,83.5
22853,52.74188,-1.691315,106.63,20.21,4,177.41,22 / 22,2285320,2019-11-06 11:19:52:663,-0.4285,-0.5997,10.1587,0.034,0.0339,9.8065,-0.1488,0.1427,-0.0897,-15.94,-36.5,35.75,234.52,-83.02,83.5
22854,52.74188,-1.691315,106.63,20.21,4,177.41,22 / 22,2285420,2019-11-06 11:19:52:763,1.6203,0.1352,9.8513,0.0098,0.0161,9.8066,-0.0488,0.1034,0.0211,-16.12,-36.06,35.0,234.01,-82.74,83.14
22855,52.74188,-1.691315,106.63,20.21,4,177.41,22 / 22,2285520,2019-11-06 11:19:52:863,-1.3604,-0.8049,9.7469,-0.0409,0.0028,9.8065,0.0801,0.04,-0.0204,-15.94,-35.81,35.0,232.49,-82.45,82.45
22856,52.74188,-1.691315,106.63,20.21,4,177.41,22 / 22,2285620,2019-11-06 11:19:52:963,-1.3061,-1.4463,10.0698,-0.0962,-0.0219,9.8061,-0.1343,0.0626,-0.0129,-16.06,-36.12,35.44,232.49,-82.45,82.45
22857,52.74188,-1.691315,106.63,20.21,4,177.41,22 / 22,2285720,2019-11-06 11:19:53:063,-2.6261,-1.6031,11.2253,-0.0002,-0.0237,9.8066,0.0545,-0.1202,0.0329,-16.0,-35.94,35.06,231.67,-82.97,80.48
22858,52.74188,-1.691315,106.63,20.21,4,177.41,22 / 22,2285820,2019-11-06 11:19:53:163,-1.6112,-1.1094,11.0036,-0.0046,-0.0149,9.8066,-0.0861,0.2057,0.0533,-15.94,-35.62,35.94,232.79,-83.21,81.51
22859,52.74188,-1.691315,106.63,20.21,4,177.41,22 / 22,2285920,2019-11-06 11:19:53:263,0.5525,-1.0353,9.3238,0.0022,0.0131,9.8066,-0.0369,0.3332,-0.3092,-16.62,-35.75,35.88,231.69,-83.42,81.47
22860,52.741703,-1.691302,106.72,20.15,6,176.44,22 / 23,2286021,2019-11-06 11:19:53:364,1.4875,-1.5209,8.3396,-0.0037,0.0039,9.8066,-0.0892,0.0187,0.1841,-16.37,-36.56,35.94,231.69,-83.42,81.47
22861,52.741703,-1.691302,106.72,20.15,6,176.44,22 / 23,2286119,2019-11-06 11:19:53:462,-2.9889,-0.2774,8.1212,-0.0322,-0.0085,9.8065,0.0264,-0.1177,0.148,-17.0,-36.25,35.63,230.17,-83.39,78.6
22862,52.741703,-1.691302,106.72,20.15,6,176.44,22 / 23,2286220,2019-11-06 11:19:53:563,-1.6919,1.4772,8.9995,0.0295,-0.002,9.8066,-0.1571,0.029,0.0304,-16.94,-36.06,35.13,227.65,-83.63,77.75
22863,52.741703,-1.691302,106.72,20.15,6,176.44,22 / 23,2286319,2019-11-06 11:19:53:662,1.4709,0.1524,9.2888,0.0603,-0.0213,9.8064,0.1268,-0.2273,0.0389,-16.25,-36.25,35.56,227.65,-83.63,77.75
22864,52.741703,-1.691302,106.72,20.15,6,176.44,22 / 23,2286420,2019-11-06 11:19:53:763,-0.5466,1.2271,8.9821,0.0051,0.0154,9.8066,-0.0878,-0.0452,0.0393,-16.25,-35.87,35.81,232.23,-83.44,80.63
22865,52.741703,-1.691302,106.72,20.15,6,176.44,22 / 23,2286520,2019-11-06 11:19:53:863,0.4665,1.3657,9.531,-0.0444,0.0154,9.8065,0.001,-0.3189,0.2019,-16.31,-36.19,34.81,229.14,-83.5,78.13
22866,52.741703,-1.691302,106.72,20.15,6,176.44,22 / 23,2286620,2019-11-06 11:19:53:963,-0.0413,-0.1024,10.0931,-0.0994,0.0146,9.8061,-0.1639,-0.0678,0.2005,-17.06,-36.69,34.81,224.16,-83.87,73.97
22867,52.741703,-1.691302,106.72,20.15,6,176.44,22 / 23,2286720,2019-11-06 11:19:54:063,-2.2686,-2.6917,10.4226,-0.0092,-0.0469,9.8065,0.1934,0.1208,-0.2175,-17.0,-36.19,35.69,224.16,-83.87,73.97
22868,52.741703,-1.691302,106.72,20.15,6,176.44,22 / 23,2286820,2019-11-06 11:19:54:163,-2.4866,-3.955,11.4675,0.1001,-0.0191,9.806,0.0156,0.3483,-0.3004,-16.37,-36.31,36.5,226.45,-84.1,75.45
22869,52.741703,-1.691302,106.72,20.15,6,176.44,22 / 23,2286920,2019-11-06 11:19:54:263,1.6309,0.4862,9.8454,0.1655,0.0076,9.8052,0.1127,0.0334,-0.1616,-16.37,-36.81,36.0,232.19,-83.34,80.92
22870,52.741524,-1.691286,106.82,20.18,6,176.6,22 / 23,2287020,2019-11-06 11:19:54:363,1.5243,0.0621,8.6022,-0.0325,0.0611,9.8064,-0.0272,-0.0823,0.1163,-16.44,-35.75,34.88,232.19,-83.34,80.92
22871,52.741524,-1.691286,106.82,20.18,6,176.6,22 / 23,2287120,2019-11-06 11:19:54:463,-3.3842,-0.6667,9.1795,-0.1566,-0.0084,9.8053,-0.0951,-0.2027,0.1897,-16.81,-36.0,35.0,228.42,-83.26,77.52
22872,52.741524,-1.691286,106.82,20.18,6,176.6,22 / 23,2287220,2019-11-06 11:19:54:563,-1.5129,-0.4257,9.8904,-0.0367,-0.0174,9.8065,0.0059,-0.2107,0.1347,-16.56,-36.31,35.38,222.56,-83.95,72.1
22873,52.741524,-1.691286,106.82,20.18,6,176.6,22 / 23,2287320,2019-11-06 11:19:54:663,-1.1741,0.8553,10.3651,-0.0621,-0.0611,9.8062,0.082,-0.0563,-0.0263,-17.12,-35.94,34.94,222.59,-84.46,71.84
22874,52.741524,-1.691286,106.82,20.18,6,176.6,22 / 23,2287420,2019-11-06 11:19:54:763,-1.3616,-0.8763,9.9257,-0.0375,-0.0375,9.8065,-0.0589,-0.0383,0.1095,-16.69,-36.12,35.25,222.59,-84.46,71.84
22875,52.741524,-1.691286,106.82,20.18,6,176.6,22 / 23,2287520,2019-11-06 11:19:54:863,0.3368,0.2191,8.6194,-0.0304,0.0259,9.8065,-0.035,-0.1614,0.0908,-17.94,-36.75,34.5,222.02,-84.77,71.69
22876,52.741524,-1.691286,106.82,20.18,6,176.6,22 / 23,2287620,2019-11-06 11:19:54:963,-2.7277,-0.0697,8.7002,-0.0377,0.0004,9.8066,0.0683,-0.1805,0.0608,-17.62,-36.25,34.31,216.16,-84.83,66.81
22877,52.741524,-1.691286,106.82,20.18,6,176.6,22 / 23,2287720,2019-11-06 11:19:55:063,-1.9271,-1.2465,10.3956,0.0071,-0.0219,9.8065,0.0914,-0.0947,-0.0261,-17.5,-36.69,34.69,216.16,-84.83,66.81
