,GPS LATITUDE (degrees),GPS LONGITUDE (degrees), GPS ALTITUDE (m),GPS SPEED (Kmh),GPS ACCURACY (m),GPS ORIENTATION (Â°), SATELLITES IN RANGE, TIME SINCE START (ms), DATE (YYYY-MO-DD HH-MI-SS_SSS),ACCELEROMETER X (m/s²) , ACCELEROMETER Y (m/s²), ACCELEROMETER Z (m/s²), GRAVITY X (m/s²), GRAVITY Y (m/s²), GRAVITY Z (m/s²), GYROSCOPE Yaw (rad/s), GYROSCOPE Pitch (rad/s), GYROSCOPE Roll (rad/s)
26260,46.84439,-1.257137,108.6,35.44,17.152,283.6,0 / 23,1428381,2019-08-12 13:43:33:817,-1.4351,-0.3722,9.3091,-1.8604,-0.1573,9.6273,-0.0013,0.0057,-0.0019
26261,46.84439,-1.257137,108.6,35.44,17.152,283.6,0 / 23,1428382,2019-08-12 13:43:33:818,-1.4351,-0.3722,9.3091,-1.8604,-0.1573,9.6273,-0.0013,0.0057,-0.0019
26262,46.84439,-1.257137,108.6,35.44,17.152,283.6,0 / 23,1428382,2019-08-12 13:43:33:818,-1.4351,-0.3722,9.3091,-1.8604,-0.1573,9.6273,-0.0013,0.0057,-0.0019
26263,46.84439,-1.257137,108.6,35.44,17.152,283.6,0 / 23,1428382,2019-08-12 13:43:33:818,-1.4351,-0.3722,9.3091,-1.8604,-0.1573,9.6273,-0.0013,0.0057,-0.0019
26264,46.84439,-1.257137,108.6,35.44,17.152,283.6,0 / 23,1428386,2019-08-12 13:43:33:822,-1.4351,-0.3722,9.3091,-1.8604,-0.1573,9.6273,-0.0013,0.0057,-0.0019
26265,46.84439,-1.257137,108.6,35.44,17.152,283.6,0 / 23,1428386,2019-08-12 13:43:33:822,-1.4351,-0.3722,9.3091,-1.8604,-0.1573,9.6273,-0.0013,0.0057,-0.0019
26266,46.84439,-1.257137,108.6,35.44,17.152,283.6,0 / 23,1428387,2019-08-12 13:43:33:823,-1.4351,-0.3722,9.3091,-1.8604,-0.1573,9.6273,-0.0013,0.0057,-0.0019
26267,46.84439,-1.257137,108.6,35.44,17.152,283.6,0 / 23,1428387,2019-08-12 13:43:33:823,-1.4351,-0.3722,9.3091,-1.8604,-0.1573,9.6273,-0.0013,0.0057,-0.0019
26268,46.84439,-1.257137,108.6,35.44,17.152,283.6,0 / 23,1428387,2019-08-12 13:43:33:823,-1.4351,-0.3722,9.3091,-1.8604,-0.1573,9.6273,-0.0013,0.0057,-0.0019
26269,46.84439,-1.257137,108.6,35.44,17.152,283.6,0 / 23,1428389,2019-08-12 13:43:33:825,-1.4351,-0.3722,9.3091,-1.8604,-0.1573,9.6273,-0.0013,0.0057,-0.0019
26270,46.84439,-1.257137,108.6,35.44,17.152,283.6,0 / 23,1428390,2019-08-12 13:43:33:826,-1.4351,-0.3722,9.3091,-1.8604,-0.1573,9.6273,-0.0013,0.0057,-0.0019
26271,46.84439,-1.257137,108.6,35.44,17.152,283.6,0 / 23,1428391,2019-08-12 13:43:33:827,-1.4351,-0.3722,9.3091,-1.8604,-0.1573,9.6273,-0.0013,0.0057,-0.0019
26272,46.84439,-1.257137,108.6,35.44,17.152,283.6,0 / 23,1428392,2019-08-12 13:43:33:828,-1.4351,-0.3722,9.3091,-1.8604,-0.1573,9.6273,-0.0013,0.0057,-0.0019
26273,46.84439,-1.257137,108.6,35.44,17.152,283.6,0 / 23,1428393,2019-08-12 13:43:33:829,-1.4351,-0.3722,9.3091,-1.8604,-0.1573,9.6273,-0.0013,0.0057,-0.0019
26274,46.84439,-1.257137,108.6,35.44,17.152,283.6,0 / 23,1428394,2019-08-12 13:43:33:830,-1.4351,-0.3722,9.3091,-1.8604,-0.1573,9.6273,-0.0013,0.0057,-0.0019
26275,46.84439,-1.257137,108.6,35.44,17.152,283.6,0 / 23,1428394,2019-08-12 13:43:33:830,-1.4351,-0.3722,9.3091,-1.8604,-0.1573,9.6273,-0.0013,0.0057,-0.0019
26276,46.84439,-1.257137,108.6,35.44,17.152,283.6,0 / 23,1428395,2019-08-12 13:43:33:831,-1.4351,-0.3722,9.3091,-1.8604,-0.1573,9.6273,-0.0013,0.0057,-0.0019
26277,46.84439,-1.257137,108.6,35.44,17.152,283.6,0 / 23,1428396,2019-08-12 13:43:33:832,-1.4351,-0.3722,9.3091,-1.8604,-0.1573,9.6273,-0.0013,0.0057,-0.0019
26278,46.84439,-1.257137,108.6,35.44,17.152,283.6,0 / 23,1428397,2019-08-12 13:43:33:833,-1.4351,-0.3722,9.3091,-1.8604,-0.1573,9.6273,-0.0013,0.0057,-0.0019
26279,46.84439,-1.257137,108.6,35.44,17.152,283.6,0 / 23,1428397,2019-08-12 13:43:33:833,-1.4351,-0.3722,9.3091,-1.8604,-0.1573,9.6273,-0.0013,0.0057,-0.0019
26280,46.84439,-1.257137,108.6,35.44,17.152,283.6,0 / 23,1428398,2019-08-12 13:43:33:834,-1.4351,-0.3722,9.3091,-1.8604,-0.1573,9.6273,-0.0013,0.0057,-0.0019
26281,46.84439,-1.257137,108.6,35.44,17.152,283.6,0 / 23,1428398,2019-08-12 13:43:33:834,-1.4351,-0.3722,9.3091,-1.8604,-0.1573,9.6273,-0.0013,0.0057,-0.0019
26282,46.84439,-1.257137,108.6,35.44,17.152,283.6,0 / 23,1428398,2019-08-12 13:43:33:834,-1.4351,-0.3722,9.3091,-1.8604,-0.1573,9.6273,-0.0013,0.0057,-0.0019
26283,46.84439,-1.257137,108.6,35.44,17.152,283.6,0 / 23,1428399,2019-08-12 13:43:33:835,-1.4351,-0.3722,9.3091,-1.8604,-0.1573,9.6273,-0.0013,0.0057,-0.0019
26284,46.84439,-1.257137,108.6,35.44,17.152,283.6,0 / 23,1428399,2019-08-12 13:43:33:835,-1.4351,-0.3722,9.3091,-1.8604,-0.1573,9.6273,-0.0013,0.0057,-0.0019
26285,46.84439,-1.257137,108.6,35.44,17.152,283.6,0 / 23,1428400,2019-08-12 13:43:33:836,-1.4351,-0.3722,9.3091,-1.8604,-0.1573,9.6273,-0.0013,0.0057,-0.0019
26286,46.84439,-1.257137,108.6,35.44,17.152,283.6,0 / 23,1428400,2019-08-12 13:43:33:836,-1.4351,-0.3722,9.3091,-1.8604,-0.1573,9.6273,-0.0013,0.0057,-0.0019
26287,46.84439,-1.257137,108.6,35.44,17.152,283.6,0 / 23,1428400,2019-08-12 13:43:33:836,-1.4351,-0.3722,9.3091,-1.8604,-0.1573,9.6273,-0.0013,0.0057,-0.0019
26288,46.84439,-1.257137,108.6,35.44,17.152,283.6,0 / 23,1428401,2019-08-12 13:43:33:837,-1.4351,-0.3722,9.3091,-1.8604,-0.1573,9.6273,-0.0013,0.0057,-0.0019
26289,46.84439,-1.257137,108.6,35.44,17.152,283.6,0 / 23,1428402,2019-08-12 13:43:33:838,-1.4351,-0.3722,9.3091,-1.8604,-0.1573,9.6273,-0.0013,0.0057,-0.0019
26290,46.84439,-1.257137,108.6,35.44,17.152,283.6,0 / 23,1428403,2019-08-12 13:43:33:839,-1.4351,-0.3722,9.3091,-1.8604,-0.1573,9.6273,-0.0013,0.0057,-0.0019
26291,46.84439,-1.257137,108.6,35.44,17.152,283.6,0 / 23,1428403,2019-08-12 13:43:33:839,-1.4351,-0.3722,9.3091,-1.8604,-0.1573,9.6273,-0.0013,0.0057,-0.0019
26292,46.84439,-1.257137,108.6,35.44,17.152,283.6,0 / 23,1428403,2019-08-12 13:43:33:839,-1.4351,-0.3722,9.3091,-1.8604,-0.1573,9.6273,-0.0013,0.0057,-0.0019
26293,46.84439,-1.257137,108.6,35.44,17.152,283.6,0 / 23,1428404,2019-08-12 13:43:33:840,-1.4351,-0.3722,9.3091,-1.8604,-0.1573,9.6273,-0.0013,0.0057,-0.0019
26294,46.84439,-1.257137,108.6,35.44,17.152,283.6,0 / 23,1428404,2019-08-12 13:43:33:840,-1.4351,-0.3722,9.3091,-1.8604,-0.1573,9.6273,-0.0013,0.0057,-0.0019
26295,46.84439,-1.257137,108.6,35.44,17.152,283.6,0 / 23,1428405,2019-08-12 13:43:33:841,-1.4351,-0.3722,9.3091,-1.8604,-0.1573,9.6273,-0.0013,0.0057,-0.0019
26296,46.84439,-1.257137,108.6,35.44,17.152,283.6,0 / 23,1428405,2019-08-12 13:43:33:841,-1.4351,-0.3722,9.3091,-1.8604,-0.1573,9.6273,-0.0013,0.0057,-0.0019
26297,46.84439,-1.257137,108.6,35.44,17.152,283.6,0 / 23,1428427,2019-08-12 13:43:33:863,-1.4351,-0.3722,9.3091,-1.8604,-0.1573,9.6273,-0.0013,0.0057,-0.0019
26298,46.84439,-1.257137,108.6,35.44,17.152,283.6,0 / 23,1428527,2019-08-12 13:43:33:963,-1.4351,-0.3722,9.3091,-1.8604,-0.1573,9.6273,-0.0013,0.0057,-0.0019
26299,46.84439,-1.257137,108.6,35.44,17.152,283.6,0 / 23,1428841,2019-08-12 13:43:34:277,-1.4351,-0.3722,9.3091,-1.8604,-0.1573,9.6273,-0.0013,0.0057,-0.0019
26300,46.84439,-1.257137,108.6,35.44,17.152,283.6,0 / 23,1428844,2019-08-12 13:43:34:280,-1.4351,-0.3722,9.3091,-1.8604,-0.1573,9.6273,-0.0013,0.0057,-0.0019
26301,46.84439,-1.257137,108.6,35.44,17.152,283.6,0 / 23,1428846,2019-08-12 13:43:34:282,-1.4351,-0.3722,9.3091,-1.8604,-0.1573,9.6273,-0.0013,0.0057,-0.0019
26302,46.84439,-1.257137,108.6,35.44,17.152,283.6,0 / 23,1428846,2019-08-12 13:43:34:282,-1.4351,-0.3722,9.3091,-1.8604,-0.1573,9.6273,-0.0013,0.0057,-0.0019
26303,46.84439,-1.257137,108.6,35.44,17.152,283.6,0 / 23,1428911,2019-08-12 13:43:34:347,-1.4351,-0.3722,9.3091,-1.8604,-0.1573,9.6273,-0.0013,0.0057,-0.0019
26304,46.84439,-1.257137,108.6,35.44,17.152,283.6,0 / 23,1429014,2019-08-12 13:43:34:450,-1.4351,-0.3722,9.3091,-1.8604,-0.1573,9.6273,-0.0013,0.0057,-0.0019
26305,46.84439,-1.257137,108.6,35.44,17.152,283.6,0 / 23,1429118,2019-08-12 13:43:34:554,-1.9133,-0.7068,9.0218,-2.0416,-0.6811,9.5676,0.0083,0.0057,-0.0147
26306,46.84439,-1.257137,108.6,35.44,17.152,283.6,0 / 23,1429212,2019-08-12 13:43:34:648,-1.9846,-0.2746,9.433,-2.0467,-0.6766,9.5668,-0.0013,0.0132,-0.0062
26307,46.84439,-1.257137,108.6,35.44,17.152,283.6,Nov-23,1429311,2019-08-12 13:43:34:747,-2.2025,-0.2782,9.5551,-2.0646,-0.6669,9.5636,-0.0002,0.0185,-0.003
26308,46.84439,-1.257137,108.6,35.44,17.152,283.6,Nov-23,1429412,2019-08-12 13:43:34:848,-2.233,-0.341,9.4821,-2.0744,-0.6623,9.5618,0.0009,0.01,-0.0083
26309,46.84439,-1.257137,108.6,35.44,17.152,283.6,Nov-23,1429512,2019-08-12 13:43:34:948,-2.1246,-0.4596,9.8909,-2.0721,-0.6628,9.5623,-0.0023,-0.0113,-0.0115
26310,46.84439,-1.257137,108.6,35.44,17.152,283.6,Nov-23,1429612,2019-08-12 13:43:35:048,-1.8649,-0.6822,9.8352,-2.0642,-0.6623,9.564,0.003,-0.0124,-0.0104
26311,46.84439,-1.257137,108.6,35.44,17.152,283.6,Nov-23,1429711,2019-08-12 13:43:35:147,-2.0037,-0.702,10.274,-2.0593,-0.658,9.5654,0.003,-0.006,-0.0083
26312,46.84439,-1.257137,108.6,35.44,17.152,283.6,Nov-23,1429812,2019-08-12 13:43:35:248,-2.0312,-0.8648,9.5934,-2.0574,-0.6541,9.5661,0.0019,-0.0017,-0.0051
26313,46.84439,-1.257137,108.6,35.44,17.152,283.6,Nov-23,1429912,2019-08-12 13:43:35:348,-2.057,-0.2273,8.9523,-2.0618,-0.6442,9.5658,0.003,0.0068,-0.004
26314,46.84439,-1.257137,108.6,35.44,17.152,283.6,Nov-23,1430013,2019-08-12 13:43:35:449,-2.2737,-0.2554,9.8526,-2.0623,-0.6361,9.5662,0.0041,-0.0049,-0.0062
26315,46.84439,-1.257137,108.6,35.44,17.152,283.6,Nov-23,1430111,2019-08-12 13:43:35:547,-2.3365,-0.4931,9.664,-2.0514,-0.5916,9.5714,0.0062,-0.007,-0.0094
26316,46.84439,-1.257137,108.6,35.44,17.152,283.6,0 / 23,1430211,2019-08-12 13:43:35:647,-2.0319,-0.596,9.8711,-2.0553,-0.5654,9.5722,-0.0013,-0.0007,-0.0115
26317,46.84533,-1.261088,112.58,35.44,11.792,290.9,0 / 23,1430312,2019-08-12 13:43:35:748,-1.9415,-0.8917,10.0124,-2.0333,-0.5798,9.576,0.0009,-0.0092,-0.0115
26318,46.84533,-1.261088,112.58,35.44,11.792,290.9,0 / 23,1430413,2019-08-12 13:43:35:849,-1.8888,-0.7594,9.8071,-2.0204,-0.5798,9.5787,0.0051,-0.0134,-0.0094
26319,46.84533,-1.261088,112.58,35.44,11.792,290.9,0 / 23,1430512,2019-08-12 13:43:35:948,-1.6392,-0.7762,9.0984,-2.0164,-0.585,9.5793,-0.0045,0.01,-0.0094
26320,46.84533,-1.261088,112.58,35.44,11.792,290.9,0 / 23,1430613,2019-08-12 13:43:36:049,-1.8325,-0.6098,9.6892,-2.0156,-0.5864,9.5793,0.0009,-0.0028,-0.0083
26321,46.84533,-1.261088,112.58,35.44,11.792,290.9,0 / 23,1430713,2019-08-12 13:43:36:149,-2.0851,-0.2489,9.9669,-1.9818,-0.585,9.5865,-0.0023,-0.0102,-0.0104
26322,46.84533,-1.261088,112.58,35.44,11.792,290.9,0 / 23,1430813,2019-08-12 13:43:36:249,-2.2473,-0.5254,10.0016,-1.9683,-0.5786,9.5897,-0.0034,-0.0017,-0.0094
26323,46.84533,-1.261088,112.58,35.44,11.792,290.9,0 / 23,1430913,2019-08-12 13:43:36:349,-2.0845,-0.5404,9.9106,-1.9559,-0.561,9.5932,-0.0045,-0.0049,-0.0104
26324,46.84533,-1.261088,112.58,35.44,11.792,290.9,0 / 23,1431012,2019-08-12 13:43:36:448,-1.7793,-0.6313,9.7059,-1.9603,-0.5661,9.592,-0.0055,0.0132,-0.0072
26325,46.84533,-1.261088,112.58,35.44,11.792,290.9,0 / 23,1431112,2019-08-12 13:43:36:548,-1.799,-0.7271,9.4707,-1.9727,-0.5645,9.5896,0.0051,0.0047,-0.0083
26326,46.84533,-1.261088,112.58,35.44,11.792,290.9,0 / 23,1431212,2019-08-12 13:43:36:648,-1.7649,-0.7127,9.7311,-1.9607,-0.5678,9.5919,-0.0013,-0.0145,-0.0126
26327,46.84533,-1.261088,112.58,35.44,11.792,290.9,0 / 23,1431312,2019-08-12 13:43:36:748,-1.8996,-0.5894,10.4332,-1.9343,-0.5739,9.5968,0.0009,-0.0188,-0.0136
26328,46.84533,-1.261088,112.58,35.44,11.792,290.9,0 / 23,1431412,2019-08-12 13:43:36:848,-2.1605,-0.5374,9.9525,-1.9248,-0.5789,9.5985,0.0041,-0.0038,-0.0136
26329,46.84533,-1.261088,112.58,35.44,11.792,290.9,0 / 23,1431512,2019-08-12 13:43:36:948,-1.9792,-0.4578,9.6945,-1.9159,-0.606,9.5986,-0.0045,0.0143,-0.0147
26330,46.84533,-1.261088,112.58,35.44,11.792,290.9,0 / 23,1431611,2019-08-12 13:43:37:047,-2.0462,-0.9049,10.0028,-1.9116,-0.6294,9.5979,0.0009,0.0036,-0.0136
26331,46.84533,-1.261088,112.58,35.44,11.792,290.9,0 / 23,1431712,2019-08-12 13:43:37:148,-1.8307,-0.8642,9.7388,-1.8886,-0.6572,9.6006,-0.0034,-0.0102,-0.0136
26332,46.84533,-1.261088,112.58,35.44,11.792,290.9,0 / 23,1431812,2019-08-12 13:43:37:248,-1.7817,-1.091,9.4803,-1.8704,-0.6816,9.6025,-0.0023,-0.007,-0.0136
26333,46.84533,-1.261088,112.58,35.44,11.792,290.9,0 / 23,1431911,2019-08-12 13:43:37:347,-1.7134,-0.8318,9.4204,-1.8648,-0.6982,9.6024,-0.0002,-0.0017,-0.0157
26334,46.84533,-1.261088,112.58,35.44,11.792,290.9,0 / 23,1432012,2019-08-12 13:43:37:448,-1.9265,-0.4985,10.1512,-1.8546,-0.7162,9.603,-0.0002,-0.0028,-0.0179
26335,46.84533,-1.261088,112.58,35.44,11.792,290.9,0 / 23,1432112,2019-08-12 13:43:37:548,-1.9965,-0.7828,10.2213,-1.8515,-0.7367,9.6021,-0.0077,0.0025,-0.0147
26336,46.84533,-1.261088,112.58,35.44,11.792,290.9,0 / 23,1432212,2019-08-12 13:43:37:648,-2.1641,-0.7744,9.661,-1.8695,-0.7492,9.5976,0.0051,0.0089,-0.0126
26337,46.84533,-1.261088,112.58,35.44,11.792,290.9,0 / 23,1432312,2019-08-12 13:43:37:748,-1.987,-0.8313,9.2456,-1.9137,-0.7528,9.5886,0.0062,0.01,-0.0136
26338,46.84533,-1.261088,112.58,35.44,11.792,290.9,0 / 23,1432412,2019-08-12 13:43:37:848,-1.9804,-0.9198,9.3432,-1.9351,-0.7535,9.5843,-0.0045,0.0025,-0.0168
26339,46.84533,-1.261088,112.58,35.44,11.792,290.9,0 / 23,1432511,2019-08-12 13:43:37:947,-1.9355,-0.7834,9.8017,-1.9414,-0.7916,9.5799,0.0126,-0.006,-0.0157
26340,46.84533,-1.261088,112.58,35.44,11.792,290.9,0 / 23,1432612,2019-08-12 13:43:38:048,-1.9175,-0.7331,9.8041,-1.9299,-0.7927,9.5822,0.0019,-0.0188,-0.0157
26341,46.84533,-1.261088,112.58,35.44,11.792,290.9,0 / 23,1432712,2019-08-12 13:43:38:148,-1.8607,-0.599,9.6975,-1.9189,-0.7928,9.5844,0.0062,-0.0017,-0.0126
26342,46.84533,-1.261088,112.58,35.44,11.792,290.9,0 / 23,1432812,2019-08-12 13:43:38:248,-2.1348,-0.7912,10.0369,-1.9236,-0.7933,9.5834,0.003,-0.0049,-0.0126
26343,46.84533,-1.261088,112.58,35.44,11.792,290.9,0 / 23,1432911,2019-08-12 13:43:38:347,-2.0426,-0.6726,9.676,-1.9384,-0.7872,9.5809,-0.0002,0.0047,-0.0115
26344,46.84533,-1.261088,112.58,35.44,11.792,290.9,0 / 23,1433012,2019-08-12 13:43:38:448,-2.2958,-0.8037,9.9388,-1.948,-0.7851,9.5791,0.0019,0.0143,-0.0104
26345,46.84533,-1.261088,112.58,35.44,11.792,290.9,0 / 23,1433111,2019-08-12 13:43:38:547,-1.963,-1.0659,8.9709,-1.9533,-0.778,9.5786,0.003,-0.006,-0.0104
26346,46.84533,-1.261088,112.58,35.44,11.792,290.9,0 / 23,1433211,2019-08-12 13:43:38:647,-2.0803,-0.5811,9.4863,-1.9543,-0.7806,9.5782,-0.0023,0.0025,-0.0104
26347,46.84533,-1.261088,112.58,35.44,11.792,290.9,0 / 23,1433311,2019-08-12 13:43:38:747,-2.0199,-0.5344,10.3811,-1.9547,-0.7762,9.5785,0.0073,-0.0049,-0.0094
26348,46.84533,-1.261088,112.58,35.44,11.792,290.9,0 / 23,1433412,2019-08-12 13:43:38:848,-1.9128,-0.45,9.6389,-1.9413,-0.7735,9.5814,-0.0087,-0.0081,-0.0126
26349,46.84533,-1.261088,112.58,35.44,11.792,290.9,0 / 23,1433826,2019-08-12 13:43:39:262,-1.9487,-0.5428,9.9322,-1.9387,-0.7745,9.5819,-0.0108,-0.0081,-0.0126
26350,46.84533,-1.261088,112.58,35.44,11.792,290.9,0 / 23,1433827,2019-08-12 13:43:39:263,-1.9487,-0.5428,9.9322,-1.9387,-0.7745,9.5819,-0.0108,-0.0081,-0.0126
26351,46.84533,-1.261088,112.58,35.44,11.792,290.9,0 / 23,1433827,2019-08-12 13:43:39:263,-1.9487,-0.5428,9.9322,-1.9387,-0.7745,9.5819,-0.0108,-0.0081,-0.0126
26352,46.84533,-1.261088,112.58,35.44,11.792,290.9,0 / 23,1433828,2019-08-12 13:43:39:264,-1.9487,-0.5428,9.9322,-1.9387,-0.7745,9.5819,-0.0108,-0.0081,-0.0126
26353,46.84533,-1.261088,112.58,35.44,11.792,290.9,0 / 23,1433828,2019-08-12 13:43:39:264,-1.9487,-0.5428,9.9322,-1.9387,-0.7745,9.5819,-0.0108,-0.0081,-0.0126
26354,46.84533,-1.261088,112.58,35.44,11.792,290.9,0 / 23,1433828,2019-08-12 13:43:39:264,-1.9487,-0.5428,9.9322,-1.9387,-0.7745,9.5819,-0.0108,-0.0081,-0.0126
26355,46.84533,-1.261088,112.58,35.44,11.792,290.9,0 / 23,1433831,2019-08-12 13:43:39:267,-1.9487,-0.5428,9.9322,-1.9387,-0.7745,9.5819,-0.0108,-0.0081,-0.0126
26356,46.84533,-1.261088,112.58,35.44,11.792,290.9,0 / 23,1433831,2019-08-12 13:43:39:267,-1.9487,-0.5428,9.9322,-1.9387,-0.7745,9.5819,-0.0108,-0.0081,-0.0126
26357,46.84533,-1.261088,112.58,35.44,11.792,290.9,0 / 23,1433901,2019-08-12 13:43:39:337,-1.9487,-0.5428,9.9322,-1.9387,-0.7745,9.5819,-0.0108,-0.0081,-0.0126
26358,46.84533,-1.261088,112.58,35.44,11.792,290.9,0 / 23,1434000,2019-08-12 13:43:39:436,-1.9487,-0.5428,9.9322,-1.9387,-0.7745,9.5819,-0.0108,-0.0081,-0.0126
26359,46.84533,-1.261088,112.58,35.44,11.792,290.9,0 / 23,1434100,2019-08-12 13:43:39:536,-2.0121,-0.6828,10.1207,-1.9023,-0.7333,9.5924,-0.0141,-0.007,-0.0126
26360,46.84533,-1.261088,112.58,35.44,11.792,290.9,0 / 23,1434201,2019-08-12 13:43:39:637,-1.7841,-0.541,8.4035,-1.9476,-0.7903,9.5788,-0.0375,0.0068,-0.0264
26361,46.84533,-1.261088,112.58,35.44,11.792,290.9,0 / 23,1434301,2019-08-12 13:43:39:737,-1.9588,-0.8426,9.43,-1.9444,-0.8065,9.5781,-0.0055,0.0015,-0.0179
26362,46.84533,-1.261088,112.58,35.44,11.792,290.9,0 / 23,1434401,2019-08-12 13:43:39:837,-2.2844,-0.9462,10.766,-1.9378,-0.8034,9.5797,0.0062,-0.0124,-0.0126
26363,46.84533,-1.261088,112.58,35.44,11.792,290.9,0 / 23,1434501,2019-08-12 13:43:39:937,-2.306,-1.1509,11.6476,-1.917,-0.8109,9.5832,-0.0055,-0.0369,-0.0157
26364,46.84533,-1.261088,112.58,35.44,11.792,290.9,0 / 23,1434601,2019-08-12 13:43:40:037,-2.1402,-1.0946,10.2925,-1.892,-0.795,9.5895,0.0286,-0.006,-0.0083
26365,46.84533,-1.261088,112.58,35.44,11.792,290.9,0 / 23,1434700,2019-08-12 13:43:40:136,-1.9181,-0.8845,8.9093,-1.8948,-0.7816,9.5901,0.0147,0.0057,-0.0115
26366,46.84533,-1.261088,112.58,35.44,11.792,290.9,0 / 23,1434801,2019-08-12 13:43:40:237,-1.8744,-0.7774,8.9135,-1.8997,-0.7856,9.5888,-0.0002,-0.0081,-0.019
26367,46.84533,-1.261088,112.58,35.44,11.792,290.9,0 / 23,1434901,2019-08-12 13:43:40:337,-2.1097,-0.6319,9.9843,-1.8883,-0.7953,9.5902,-0.0108,-0.0198,-0.02
26368,46.84533,-1.261088,112.58,35.44,11.792,290.9,0 / 23,1435001,2019-08-12 13:43:40:437,-1.9666,-0.5793,9.6563,-1.8723,-0.8128,9.5919,-0.0172,-0.0028,-0.0179
26369,46.84533,-1.261088,112.58,35.44,11.792,290.9,0 / 23,1435101,2019-08-12 13:43:40:537,-1.951,-1.0599,9.597,-1.8893,-0.8224,9.5877,-0.0077,0.026,-0.0126
26370,46.84533,-1.261088,112.58,35.44,11.792,290.9,0 / 23,1435202,2019-08-12 13:43:40:638,-1.8038,-0.8708,8.2108,-1.9306,-0.821,9.5796,0.0073,0.0356,-0.0115
26371,46.84533,-1.261088,112.58,35.44,11.792,290.9,0 / 23,1435302,2019-08-12 13:43:40:738,-1.8469,-0.6756,8.9122,-1.9479,-0.8245,9.5758,-0.0002,0.0111,-0.0168
26372,46.84533,-1.261088,112.58,35.44,11.792,290.9,0 / 23,1435402,2019-08-12 13:43:40:838,-2.039,-0.9671,9.9902,-1.9332,-0.8355,9.5778,-0.0098,-0.0251,-0.0179
26373,46.84533,-1.261088,112.58,35.44,11.792,290.9,0 / 23,1435502,2019-08-12 13:43:40:938,-2.6208,-0.9941,11.1909,-1.9105,-0.837,9.5823,0.0083,-0.0284,-0.0126
26374,46.84533,-1.261088,112.58,35.44,11.792,290.9,0 / 23,1435602,2019-08-12 13:43:41:038,-1.9684,-1.0599,10.3703,-1.8983,-0.8208,9.5861,0.0232,0.0036,-0.0126
26375,46.84533,-1.261088,112.58,35.44,11.792,290.9,0 / 23,1435702,2019-08-12 13:43:41:138,-2.0827,-0.8307,9.9848,-1.9046,-0.819,9.585,0.0051,0.0143,-0.0211
26376,46.84533,-1.261088,112.58,35.44,11.792,290.9,0 / 23,1435802,2019-08-12 13:43:41:238,-1.8984,-0.8079,9.5479,-1.9137,-0.8245,9.5827,0.0115,0.01,-0.0168
26377,46.84533,-1.261088,112.58,35.44,11.792,290.9,0 / 23,1435902,2019-08-12 13:43:41:338,-1.6039,-0.8474,7.8265,-1.9169,-0.8107,9.5833,0.0264,-0.0038,-0.0104
26378,46.84533,-1.261088,112.58,35.44,11.792,290.9,0 / 23,1436003,2019-08-12 13:43:41:439,-1.9002,-0.8947,9.1517,-1.9251,-0.7861,9.5837,0.0296,-0.0038,-0.0083
26379,46.84533,-1.261088,112.58,35.44,11.792,290.9,0 / 23,1436102,2019-08-12 13:43:41:538,-2.2994,-0.8265,10.4601,-1.9061,-0.7792,9.588,0.0019,-0.0273,-0.0115
26380,46.84533,-1.261088,112.58,35.44,11.792,290.9,0 / 23,1436202,2019-08-12 13:43:41:638,-2.0013,-0.7666,10.5008,-1.8977,-0.7627,9.591,0.0201,0.0047,-0.0072
26381,46.84533,-1.261088,112.58,35.44,11.792,290.9,0 / 23,1436301,2019-08-12 13:43:41:737,-1.9648,-0.7008,9.7466,-1.9049,-0.7416,9.5912,0.0232,0.0143,-0.003
26382,46.84533,-1.261088,112.58,35.44,11.792,290.9,0 / 23,1436401,2019-08-12 13:43:41:837,-2.0361,-0.5296,9.6299,-1.9097,-0.731,9.5911,-0.013,-0.0134,-0.0104
26383,46.84533,-1.261088,112.58,35.44,11.792,290.9,0 / 23,1436500,2019-08-12 13:43:41:936,-2.0456,-0.4619,10.0441,-1.8985,-0.7485,9.592,-0.0194,-0.0145,-0.0136
26384,46.84533,-1.261088,112.58,35.44,11.792,290.9,0 / 23,1436601,2019-08-12 13:43:42:037,-1.9122,-0.7349,8.8051,-1.8973,-0.7381,9.593,0.0019,-0.006,-0.0072
26385,46.84533,-1.261088,112.58,35.44,11.792,290.9,0 / 23,1436700,2019-08-12 13:43:42:136,-1.9097,-0.5607,9.3031,-1.9117,-0.7374,9.5902,-0.0087,0.0143,-0.0083
26386,46.84533,-1.261088,112.58,35.44,11.792,290.9,0 / 23,1436801,2019-08-12 13:43:42:237,-1.881,-0.5912,9.4156,-1.9253,-0.7367,9.5875,-0.0045,0.0132,-0.0094
26387,46.84533,-1.261088,112.58,35.44,11.792,290.9,0 / 23,1436901,2019-08-12 13:43:42:337,-2.0001,-0.52,9.8777,-1.9198,-0.731,9.5891,0.0009,-0.0177,-0.0115
26388,46.84533,-1.261088,112.58,35.44,11.792,290.9,0 / 23,1437001,2019-08-12 13:43:42:437,-2.1635,-0.6655,10.4146,-1.9062,-0.7303,9.5918,-0.0045,-0.0188,-0.0115
26389,46.84533,-1.261088,112.58,35.44,11.792,290.9,0 / 23,1437101,2019-08-12 13:43:42:537,-2.0612,-0.7642,9.5335,-1.9011,-0.7375,9.5923,-0.0066,0.0004,-0.0126
26390,46.84533,-1.261088,112.58,35.44,11.792,290.9,0 / 23,1437201,2019-08-12 13:43:42:637,-1.7799,-0.7702,9.4066,-1.9052,-0.7392,9.5913,-0.0023,0.0057,-0.0126
26391,46.84533,-1.261088,112.58,35.44,11.792,290.9,0 / 23,1437301,2019-08-12 13:43:42:737,-1.6278,-0.7917,9.2403,-1.9073,-0.7248,9.592,0.0009,-0.006,-0.0104
26392,46.84533,-1.261088,112.58,35.44,11.792,290.9,0 / 23,1437400,2019-08-12 13:43:42:836,-1.9193,-0.8223,9.6574,-1.8972,-0.7237,9.5941,0.0009,-0.0145,-0.0104
26393,46.84533,-1.261088,112.58,35.44,11.792,290.9,0 / 23,1437501,2019-08-12 13:43:42:937,-1.7769,-0.3961,9.2929,-1.8977,-0.7225,9.5941,0.0041,0.0132,-0.0083
26394,46.84533,-1.261088,112.58,35.44,11.792,290.9,0 / 23,1437601,2019-08-12 13:43:43:037,-2.0797,-0.3943,10.1417,-1.9024,-0.7107,9.5941,0.0094,-0.0049,-0.0104
26395,46.84533,-1.261088,112.58,35.44,11.792,290.9,0 / 23,1437700,2019-08-12 13:43:43:136,-1.9445,-0.5691,9.8017,-1.9017,-0.6807,9.5964,-0.0002,-0.0038,-0.0126
26396,46.84533,-1.261088,112.58,35.44,11.792,290.9,0 / 23,1437801,2019-08-12 13:43:43:237,-2.0163,-0.699,9.7784,-1.8916,-0.6871,9.5979,0.0115,-0.0092,-0.0115
26397,46.84533,-1.261088,112.58,35.44,11.792,290.9,Dec-23,1437901,2019-08-12 13:43:43:337,-1.8002,-0.8193,9.3935,-1.8808,-0.6928,9.5996,0.0019,-0.0134,-0.0104
26398,46.84533,-1.261088,112.58,35.44,11.792,290.9,Dec-23,1438001,2019-08-12 13:43:43:437,-1.8445,-0.5864,9.7059,-1.8748,-0.6868,9.6012,0.0009,-0.006,-0.0094
26399,46.84533,-1.261088,112.58,35.44,11.792,290.9,Dec-23,1438104,2019-08-12 13:43:43:540,-1.6715,-0.6152,9.5988,-1.8789,-0.6745,9.6013,0.0105,0.0047,-0.0062
26400,46.84533,-1.261088,112.58,35.44,11.792,290.9,Dec-23,1438201,2019-08-12 13:43:43:637,-1.7655,-0.5242,9.7861,-1.8814,-0.6645,9.6015,0.0105,0.0025,-0.0072
26401,46.84533,-1.261088,112.58,35.44,11.792,290.9,Dec-23,1438300,2019-08-12 13:43:43:736,-1.9439,-0.5272,9.916,-1.8834,-0.635,9.6031,0.0073,-0.0007,-0.0094
26402,46.84533,-1.261088,112.58,35.44,11.792,290.9,Dec-23,1438401,2019-08-12 13:43:43:837,-2.0378,-0.7139,9.3683,-1.8902,-0.5973,9.6042,0.0041,0.0015,-0.0083
26403,46.84533,-1.261088,112.58,35.44,11.792,290.9,Dec-23,1438500,2019-08-12 13:43:43:936,-2.0594,-0.5499,9.5431,-1.9115,-0.5916,9.6003,-0.0002,-0.0049,-0.0104
26404,46.84533,-1.261088,112.58,35.44,11.792,290.9,Dec-23,1438601,2019-08-12 13:43:44:037,-1.9804,-0.7475,9.4438,-1.9047,-0.5928,9.6016,0.0019,-0.0081,-0.0115
26405,46.84533,-1.261088,112.58,35.44,11.792,290.9,Dec-23,1438701,2019-08-12 13:43:44:137,-1.656,-0.672,9.5796,-1.8983,-0.6037,9.6022,0.0019,-0.0007,-0.0115
26406,46.84533,-1.261088,112.58,35.44,11.792,290.9,Dec-23,1438801,2019-08-12 13:43:44:237,-1.5405,-0.8534,9.8843,-1.894,-0.6126,9.6025,0.0019,0.0004,-0.0115
26407,46.84642,-1.264823,118.28,34.05,12.864,294.5,0 / 23,1438901,2019-08-12 13:43:44:337,-1.8212,-0.4661,10.0734,-1.8688,-0.6257,9.6066,0.0051,-0.0102,-0.0115
26408,46.84642,-1.264823,118.28,34.05,12.864,294.5,0 / 23,1439000,2019-08-12 13:43:44:436,-2.0354,-0.629,9.9872,-1.8626,-0.6225,9.608,0.0083,-0.0081,-0.0104
26409,46.84642,-1.264823,118.28,34.05,12.864,294.5,0 / 23,1439100,2019-08-12 13:43:44:536,-2.0432,-0.6948,9.6048,-1.8774,-0.6235,9.605,0.0019,0.0004,-0.0104
26410,46.84642,-1.264823,118.28,34.05,12.864,294.5,0 / 23,1439201,2019-08-12 13:43:44:637,-2.1396,-0.7732,9.4049,-1.8761,-0.6207,9.6055,0.0062,-0.0081,-0.0094
26411,46.84642,-1.264823,118.28,34.05,12.864,294.5,0 / 23,1439301,2019-08-12 13:43:44:737,-1.8714,-0.7498,9.0924,-1.8788,-0.6167,9.6052,0.003,0.0036,-0.0104
26412,46.84642,-1.264823,118.28,34.05,12.864,294.5,0 / 23,1439401,2019-08-12 13:43:44:837,-1.8331,-0.6744,9.2534,-1.8801,-0.6171,9.6049,0.0009,0.0036,-0.0126
26413,46.84642,-1.264823,118.28,34.05,12.864,294.5,0 / 23,1439500,2019-08-12 13:43:44:936,-1.4806,-0.4362,9.9813,-1.882,-0.6052,9.6053,-0.0077,-0.0049,-0.0104
26414,46.84642,-1.264823,118.28,34.05,12.864,294.5,0 / 23,1439601,2019-08-12 13:43:45:037,-2.0217,-0.6637,9.8729,-1.8626,-0.6015,9.6093,0.0009,0.0036,-0.0104
26415,46.84642,-1.264823,118.28,34.05,12.864,294.5,0 / 23,1439701,2019-08-12 13:43:45:137,-1.793,-0.6714,9.5683,-1.8674,-0.6126,9.6077,-0.0023,0.0025,-0.0115
26416,46.84642,-1.264823,118.28,34.05,12.864,294.5,0 / 23,1439801,2019-08-12 13:43:45:237,-2.4179,-0.4769,9.8113,-1.8639,-0.6154,9.6082,0.0041,-0.007,-0.0115
26417,46.84642,-1.264823,118.28,34.05,12.864,294.5,0 / 23,1439900,2019-08-12 13:43:45:336,-2.0642,-0.681,9.2283,-1.8682,-0.6317,9.6063,0.0009,0.0015,-0.0136
26418,46.84642,-1.264823,118.28,34.05,12.864,294.5,0 / 23,1440001,2019-08-12 13:43:45:437,-2.0157,-0.7912,9.0697,-1.8699,-0.6312,9.606,0.0073,0.0025,-0.0115
26419,46.84642,-1.264823,118.28,34.05,12.864,294.5,0 / 23,1440101,2019-08-12 13:43:45:537,-1.6063,-0.7079,9.4384,-1.8646,-0.645,9.6061,0.0062,-0.0017,-0.0115
26420,46.84642,-1.264823,118.28,34.05,12.864,294.5,0 / 23,1440201,2019-08-12 13:43:45:637,-1.5129,-0.5481,9.9711,-1.8561,-0.6318,9.6087,-0.0045,-0.0049,-0.0126
26421,46.84642,-1.264823,118.28,34.05,12.864,294.5,0 / 23,1440301,2019-08-12 13:43:45:737,-1.6212,-0.5314,10.1261,-1.8355,-0.6376,9.6122,0.0062,-0.0017,-0.0115
26422,46.84642,-1.264823,118.28,34.05,12.864,294.5,0 / 23,1440401,2019-08-12 13:43:45:837,-2.0779,-0.7397,10.3428,-1.8249,-0.6367,9.6143,0.0062,-0.0038,-0.0104
26423,46.84642,-1.264823,118.28,34.05,12.864,294.5,0 / 23,1440500,2019-08-12 13:43:45:936,-2.212,-0.5607,9.3109,-1.8267,-0.6328,9.6142,0.0073,-0.0038,-0.0104
26424,46.84642,-1.264823,118.28,34.05,12.864,294.5,0 / 23,1440601,2019-08-12 13:43:46:037,-2.0025,-0.6876,9.0679,-1.8333,-0.6253,9.6135,-0.0002,0.0004,-0.0104
26425,46.84642,-1.264823,118.28,34.05,12.864,294.5,0 / 23,1440702,2019-08-12 13:43:46:138,-1.8038,-0.5176,9.2827,-1.8386,-0.6138,9.6132,0.0009,-0.0007,-0.0083
26426,46.84642,-1.264823,118.28,34.05,12.864,294.5,0 / 23,1440801,2019-08-12 13:43:46:237,-1.7661,-0.4823,10.1722,-1.8266,-0.6258,9.6147,-0.0013,-0.0156,-0.0126
26427,46.84642,-1.264823,118.28,34.05,12.864,294.5,0 / 23,1440900,2019-08-12 13:43:46:336,-1.7128,-0.4727,10.2704,-1.8169,-0.6346,9.6159,-0.0055,0.0015,-0.0157
26428,46.84642,-1.264823,118.28,34.05,12.864,294.5,0 / 23,1441001,2019-08-12 13:43:46:437,-1.6398,-0.7313,9.8131,-1.8062,-0.6467,9.6172,-0.0034,0.0025,-0.0179
26429,46.84642,-1.264823,118.28,34.05,12.864,294.5,0 / 23,1441102,2019-08-12 13:43:46:538,-1.8864,-0.7995,9.1684,-1.8066,-0.6818,9.6147,-0.0077,0.0047,-0.019
26430,46.84642,-1.264823,118.28,34.05,12.864,294.5,0 / 23,1441201,2019-08-12 13:43:46:637,-2.0803,-0.9013,9.682,-1.8104,-0.7134,9.6116,-0.0002,0.0079,-0.0179
26431,46.84642,-1.264823,118.28,34.05,12.864,294.5,0 / 23,1441302,2019-08-12 13:43:46:738,-1.9558,-0.7516,8.9703,-1.8053,-0.715,9.6125,0.0115,-0.0049,-0.0168
26432,46.84642,-1.264823,118.28,34.05,12.864,294.5,0 / 23,1441401,2019-08-12 13:43:46:837,-1.5835,-1.0563,9.7436,-1.7798,-0.7143,9.6173,0.0147,-0.0251,-0.0168
26433,46.84642,-1.264823,118.28,34.05,12.864,294.5,0 / 23,1441501,2019-08-12 13:43:46:937,-1.6392,-0.6523,9.931,-1.7643,-0.7123,9.6203,0.0105,-0.0092,-0.0136
26434,46.84642,-1.264823,118.28,34.05,12.864,294.5,0 / 23,1441601,2019-08-12 13:43:47:037,-1.6865,-0.7397,10.0782,-1.7707,-0.7176,9.6187,-0.0034,0.01,-0.0157
26435,46.84642,-1.264823,118.28,34.05,12.864,294.5,0 / 23,1441701,2019-08-12 13:43:47:137,-1.6835,-0.7953,9.3456,-1.7759,-0.7246,9.6172,-0.0034,0.01,-0.0168
26436,46.84642,-1.264823,118.28,34.05,12.864,294.5,0 / 23,1441800,2019-08-12 13:43:47:236,-1.8637,-0.7433,9.1265,-1.7728,-0.748,9.616,0.003,-0.0017,-0.0179
26437,46.84642,-1.264823,118.28,34.05,12.864,294.5,0 / 23,1441901,2019-08-12 13:43:47:337,-2.0528,-0.9007,9.8214,-1.7762,-0.7617,9.6143,0.0041,-0.0092,-0.0147
26438,46.84642,-1.264823,118.28,34.05,12.864,294.5,0 / 23,1442001,2019-08-12 13:43:47:437,-1.814,-1.0683,9.9429,-1.7808,-0.7852,9.6116,0.0041,-0.006,-0.0179
26439,46.84642,-1.264823,118.28,34.05,12.864,294.5,0 / 23,1442101,2019-08-12 13:43:47:537,-1.5602,-0.7187,9.655,-1.7937,-0.8185,9.6064,0.0041,-0.0038,-0.019
26440,46.84642,-1.264823,118.28,34.05,12.864,294.5,0 / 23,1442201,2019-08-12 13:43:47:637,-1.899,-0.8372,10.0782,-1.7971,-0.8288,9.6049,-0.0023,0.0068,-0.019
26441,46.84642,-1.264823,118.28,34.05,12.864,294.5,0 / 23,1442303,2019-08-12 13:43:47:739,-1.8655,-0.9378,9.819,-1.7993,-0.8339,9.604,-0.0013,0.0004,-0.019
26442,46.84642,-1.264823,118.28,34.05,12.864,294.5,0 / 23,1442402,2019-08-12 13:43:47:838,-1.8804,-0.9827,9.4114,-1.8027,-0.8339,9.6034,0.0073,-0.0049,-0.0168
26443,46.84642,-1.264823,118.28,34.05,12.864,294.5,0 / 23,1442500,2019-08-12 13:43:47:936,-2.0881,-1.091,9.4372,-1.8079,-0.8429,9.6016,-0.0034,-0.007,-0.0157
26444,46.84642,-1.264823,118.28,34.05,12.864,294.5,0 / 23,1442601,2019-08-12 13:43:48:037,-2.042,-0.8929,9.8035,-1.8053,-0.8388,9.6025,0.0168,-0.006,-0.0157
26445,46.84642,-1.264823,118.28,34.05,12.864,294.5,0 / 23,1442702,2019-08-12 13:43:48:138,-1.5626,-0.8163,9.0733,-1.8295,-0.8535,9.5966,0.0083,0.0089,-0.0168
26446,46.84642,-1.264823,118.28,34.05,12.864,294.5,0 / 23,1442802,2019-08-12 13:43:48:238,-1.7499,-0.7552,10.1183,-1.8321,-0.8621,9.5953,-0.0077,-0.0017,-0.02
26447,46.84642,-1.264823,118.28,34.05,12.864,294.5,0 / 23,1442902,2019-08-12 13:43:48:338,-2.0091,-0.5924,10.0938,-1.8289,-0.8613,9.596,0.0062,-0.0028,-0.0136
26448,46.84642,-1.264823,118.28,34.05,12.864,294.5,0 / 23,1443001,2019-08-12 13:43:48:437,-2.069,-0.6074,9.7849,-1.8259,-0.8479,9.5978,0.0083,-0.0049,-0.0083
26449,46.84642,-1.264823,118.28,34.05,12.864,294.5,0 / 23,1443101,2019-08-12 13:43:48:537,-2.1318,-0.696,9.6964,-1.8317,-0.8394,9.5974,0.003,0.0047,-0.0104
26450,46.84642,-1.264823,118.28,34.05,12.864,294.5,0 / 23,1443201,2019-08-12 13:43:48:637,-1.793,-0.9049,9.2504,-1.848,-0.7973,9.5979,0.0115,0.0025,-0.0115
26451,46.84642,-1.264823,118.28,34.05,12.864,294.5,0 / 23,1443300,2019-08-12 13:43:48:736,-1.7793,-0.6403,9.7251,-1.8531,-0.7572,9.6002,0.0137,0.0025,-0.0083
26452,46.84642,-1.264823,118.28,34.05,12.864,294.5,0 / 23,1443401,2019-08-12 13:43:48:837,-1.7469,-0.7271,9.5886,-1.8453,-0.7308,9.6037,0.003,-0.007,-0.0094
26453,46.84642,-1.264823,118.28,34.05,12.864,294.5,0 / 23,1443501,2019-08-12 13:43:48:937,-1.7374,-0.4991,10.074,-1.8278,-0.7004,9.6093,0.003,-0.006,-0.0104
26454,46.84642,-1.264823,118.28,34.05,12.864,294.5,0 / 23,1443600,2019-08-12 13:43:49:036,-2.1198,-0.5703,10.1602,-1.8141,-0.6556,9.6151,-0.0023,0.0025,-0.0083
26455,46.84642,-1.264823,118.28,34.05,12.864,294.5,0 / 23,1443701,2019-08-12 13:43:49:137,-1.8271,-0.45,9.4396,-1.8069,-0.6294,9.6182,-0.0119,-0.0038,-0.0115
26456,46.84642,-1.264823,118.28,34.05,12.864,294.5,0 / 23,1443801,2019-08-12 13:43:49:237,-1.7847,-0.6912,9.4917,-1.7893,-0.6221,9.6219,-0.0066,0.0004,-0.0094
26457,46.84642,-1.264823,118.28,34.05,12.864,294.5,0 / 23,1443900,2019-08-12 13:43:49:336,-1.4782,-0.5457,9.09,-1.7885,-0.618,9.6223,0.0019,0.0047,-0.0083
26458,46.84642,-1.264823,118.28,34.05,12.864,294.5,0 / 23,1444002,2019-08-12 13:43:49:438,-1.4728,-0.4051,9.4994,-1.7765,-0.5934,9.6261,-0.0045,-0.0049,-0.0083
26459,46.84642,-1.264823,118.28,34.05,12.864,294.5,0 / 23,1444101,2019-08-12 13:43:49:537,-1.5632,-0.4141,10.259,-1.7636,-0.5923,9.6286,-0.0013,-0.0177,-0.0083
26460,46.84642,-1.264823,118.28,34.05,12.864,294.5,0 / 23,1444201,2019-08-12 13:43:49:637,-1.7505,-0.453,10.1926,-1.7359,-0.575,9.6347,0.0041,-0.0038,-0.0062
26461,46.84642,-1.264823,118.28,34.05,12.864,294.5,0 / 23,1444300,2019-08-12 13:43:49:736,-1.9367,-0.5152,9.7263,-1.717,-0.5475,9.6396,0.0041,-0.0049,-0.0051
26462,46.84642,-1.264823,118.28,34.05,12.864,294.5,0 / 23,1444401,2019-08-12 13:43:49:837,-1.7966,-0.4554,9.2654,-1.7109,-0.5359,9.6414,-0.0013,0.01,-0.0072
26463,46.84642,-1.264823,118.28,34.05,12.864,294.5,0 / 23,1444501,2019-08-12 13:43:49:937,-1.6434,-0.5404,9.5605,-1.7057,-0.5278,9.6427,-0.0002,-0.0017,-0.0104
26464,46.84642,-1.264823,118.28,34.05,12.864,294.5,0 / 23,1444600,2019-08-12 13:43:50:036,-1.5207,-0.5392,9.6682,-1.6913,-0.5375,9.6447,0.0041,0.0036,-0.0115
26465,46.84642,-1.264823,118.28,34.05,12.864,294.5,0 / 23,1444701,2019-08-12 13:43:50:137,-1.3016,-0.4021,9.439,-1.6855,-0.5382,9.6457,0.003,-0.006,-0.0136
26466,46.84642,-1.264823,118.28,34.05,12.864,294.5,0 / 23,1444801,2019-08-12 13:43:50:237,-1.577,-0.6152,10.2273,-1.6768,-0.5446,9.6469,0.003,-0.0038,-0.0126
26467,46.84642,-1.264823,118.28,34.05,12.864,294.5,0 / 23,1444901,2019-08-12 13:43:50:337,-1.8894,-0.7469,9.3929,-1.6623,-0.5716,9.6478,0.0009,-0.0038,-0.0115
26468,46.84642,-1.264823,118.28,34.05,12.864,294.5,0 / 23,1445003,2019-08-12 13:43:50:439,-1.9786,-0.7163,9.685,-1.6603,-0.5826,9.6475,0.0019,-0.0028,-0.0126
26469,46.84642,-1.264823,118.28,34.05,12.864,294.5,0 / 23,1445373,2019-08-12 13:43:50:809,-1.9098,-0.7995,8.9829,-1.6616,-0.5837,9.6472,0.0019,0.0047,-0.0126
26470,46.84642,-1.264823,118.28,34.05,12.864,294.5,0 / 23,1445374,2019-08-12 13:43:50:810,-1.9098,-0.7995,8.9829,-1.6616,-0.5837,9.6472,0.0019,0.0047,-0.0126
26471,46.84642,-1.264823,118.28,34.05,12.864,294.5,0 / 23,1445375,2019-08-12 13:43:50:811,-1.9098,-0.7995,8.9829,-1.6616,-0.5837,9.6472,0.0019,0.0047,-0.0126
26472,46.84642,-1.264823,118.28,34.05,12.864,294.5,0 / 23,1445375,2019-08-12 13:43:50:811,-1.9098,-0.7995,8.9829,-1.6616,-0.5837,9.6472,0.0019,0.0047,-0.0126
26473,46.84642,-1.264823,118.28,34.05,12.864,294.5,0 / 23,1445376,2019-08-12 13:43:50:812,-1.9098,-0.7995,8.9829,-1.6616,-0.5837,9.6472,0.0019,0.0047,-0.0126
26474,46.84642,-1.264823,118.28,34.05,12.864,294.5,0 / 23,1445376,2019-08-12 13:43:50:812,-1.9098,-0.7995,8.9829,-1.6616,-0.5837,9.6472,0.0019,0.0047,-0.0126
26475,46.84642,-1.264823,118.28,34.05,12.864,294.5,0 / 23,1445376,2019-08-12 13:43:50:812,-1.9098,-0.7995,8.9829,-1.6616,-0.5837,9.6472,0.0019,0.0047,-0.0126
26476,46.84642,-1.264823,118.28,34.05,12.864,294.5,0 / 23,1445378,2019-08-12 13:43:50:814,-1.9098,-0.7995,8.9829,-1.6616,-0.5837,9.6472,0.0019,0.0047,-0.0126
26477,46.84642,-1.264823,118.28,34.05,12.864,294.5,0 / 23,1445413,2019-08-12 13:43:50:849,-1.9098,-0.7995,8.9829,-1.6616,-0.5837,9.6472,0.0019,0.0047,-0.0126
26478,46.84642,-1.264823,118.28,34.05,12.864,294.5,0 / 23,1445514,2019-08-12 13:43:50:950,-1.9098,-0.7995,8.9829,-1.6616,-0.5837,9.6472,0.0019,0.0047,-0.0126
26479,46.84642,-1.264823,118.28,34.05,12.864,294.5,0 / 23,1445614,2019-08-12 13:43:51:050,-1.9098,-0.7995,8.9829,-1.6616,-0.5837,9.6472,0.0019,0.0047,-0.0126
26480,46.84642,-1.264823,118.28,34.05,12.864,294.5,0 / 23,1445714,2019-08-12 13:43:51:150,-1.6248,-0.7409,9.2851,-1.8336,-0.6504,9.6117,-0.0013,0.0068,-0.0115
26481,46.84642,-1.264823,118.28,34.05,12.864,294.5,0 / 23,1445814,2019-08-12 13:43:51:250,-1.9235,-0.8055,9.7137,-1.8705,-0.6612,9.6039,-0.0023,-0.0038,-0.0126
26482,46.84642,-1.264823,118.28,34.05,12.864,294.5,0 / 23,1445914,2019-08-12 13:43:51:350,-1.7272,-0.6732,9.7957,-1.8876,-0.6703,9.5999,-0.0023,0.0079,-0.0136
26483,46.84642,-1.264823,118.28,34.05,12.864,294.5,0 / 23,1446013,2019-08-12 13:43:51:449,-1.7649,-0.4751,9.8861,-1.9055,-0.6779,9.5958,0.0009,-0.006,-0.0115
26484,46.84642,-1.264823,118.28,34.05,12.864,294.5,0 / 23,1446113,2019-08-12 13:43:51:549,-2.1534,-0.9288,10.1812,-1.8986,-0.6818,9.5969,-0.0002,-0.0081,-0.0104
26485,46.84642,-1.264823,118.28,34.05,12.864,294.5,0 / 23,1446214,2019-08-12 13:43:51:650,-2.154,-0.9552,9.0733,-1.9033,-0.687,9.5956,-0.0013,0.0025,-0.0126
26486,46.84642,-1.264823,118.28,34.05,12.864,294.5,Nov-23,1446314,2019-08-12 13:43:51:750,-2.1252,-0.7121,9.2037,-1.9115,-0.6968,9.5933,-0.0013,0.0004,-0.0115
26487,46.84642,-1.264823,118.28,34.05,12.864,294.5,Nov-23,1446414,2019-08-12 13:43:51:850,-1.9666,-0.6451,9.4958,-1.8988,-0.6908,9.5962,0.0051,-0.0049,-0.0104
26488,46.84642,-1.264823,118.28,34.05,12.864,294.5,Nov-23,1446514,2019-08-12 13:43:51:950,-1.404,-0.5769,9.5413,-1.8947,-0.6853,9.5974,0.0062,-0.007,-0.0083
26489,46.84642,-1.264823,118.28,34.05,12.864,294.5,Nov-23,1446614,2019-08-12 13:43:52:050,-1.4668,-0.4608,10.0238,-1.8836,-0.6571,9.6016,-0.0002,0.0132,-0.0072
26490,46.84642,-1.264823,118.28,34.05,12.864,294.5,Nov-23,1446714,2019-08-12 13:43:52:150,-1.7469,-0.7726,10.0884,-1.8776,-0.6443,9.6036,0.0009,0.0057,-0.0072
26491,46.84642,-1.264823,118.28,34.05,12.864,294.5,Nov-23,1446813,2019-08-12 13:43:52:249,-2.0875,-0.4883,9.0918,-1.8637,-0.6414,9.6065,0.003,-0.007,-0.0126
26492,46.84642,-1.264823,118.28,34.05,12.864,294.5,Nov-23,1446914,2019-08-12 13:43:52:350,-2.1588,-0.5595,9.3743,-1.864,-0.6429,9.6064,-0.0034,0.0079,-0.0126
26493,46.84642,-1.264823,118.28,34.05,12.864,294.5,Nov-23,1447014,2019-08-12 13:43:52:450,-1.6512,-0.6439,9.5599,-1.8545,-0.6451,9.6081,-0.0045,-0.006,-0.0115
26494,46.84642,-1.264823,118.28,34.05,12.864,294.5,Nov-23,1447115,2019-08-12 13:43:52:551,-1.6015,-0.5051,10.0166,-1.8411,-0.6279,9.6118,0.0019,-0.0028,-0.0062
26495,46.84642,-1.264823,118.28,34.05,12.864,294.5,Nov-23,1447215,2019-08-12 13:43:52:651,-1.5315,-0.4853,10.0555,-1.838,-0.6217,9.6128,0.0041,0.0025,-0.0051
26496,46.84642,-1.264823,118.28,34.05,12.864,294.5,0 / 23,1447314,2019-08-12 13:43:52:750,-1.8158,-0.6457,9.9615,-1.838,-0.6038,9.6139,0.0041,0.0057,-0.0062
26497,46.8479,-1.268452,120.0,35.62,16.08,302.0,0 / 23,1447413,2019-08-12 13:43:52:849,-2.2533,-0.523,9.1846,-1.8436,-0.5855,9.614,0.0051,-0.0049,-0.0104
26498,46.8479,-1.268452,120.0,35.62,16.08,302.0,0 / 23,1447514,2019-08-12 13:43:52:950,-2.2952,-0.4554,9.0774,-1.8525,-0.5853,9.6123,-0.0045,0.0015,-0.0126
26499,46.8479,-1.268452,120.0,35.62,16.08,302.0,0 / 23,1447615,2019-08-12 13:43:53:051,-1.7691,-0.7343,9.0996,-1.861,-0.5934,9.6101,-0.0013,-0.0007,-0.0104
26500,46.8479,-1.268452,120.0,35.62,16.08,302.0,0 / 23,1447715,2019-08-12 13:43:53:151,-1.7601,-0.5038,9.843,-1.8638,-0.5963,9.6094,-0.0013,0.0025,-0.0104
26501,46.8479,-1.268452,120.0,35.62,16.08,302.0,0 / 23,1447814,2019-08-12 13:43:53:250,-1.6578,-0.8336,10.0956,-1.8843,-0.6389,9.6027,-0.0002,0.0015,-0.0126
26502,46.8479,-1.268452,120.0,35.62,16.08,302.0,0 / 23,1447914,2019-08-12 13:43:53:350,-1.7308,-0.8432,9.6365,-1.8997,-0.6555,9.5985,0.0083,0.0079,-0.0126
26503,46.8479,-1.268452,120.0,35.62,16.08,302.0,0 / 23,1448014,2019-08-12 13:43:53:450,-2.2982,-0.7935,9.3719,-1.9162,-0.6815,9.5934,0.003,-0.0081,-0.0136
26504,46.8479,-1.268452,120.0,35.62,16.08,302.0,0 / 23,1448113,2019-08-12 13:43:53:549,-2.121,-0.7109,9.1367,-1.9213,-0.6907,9.5918,0.003,-0.0038,-0.0147
26505,46.8479,-1.268452,120.0,35.62,16.08,302.0,0 / 23,1448214,2019-08-12 13:43:53:650,-1.96,-0.6319,9.5365,-1.9319,-0.702,9.5888,-0.0034,-0.0092,-0.0115
26506,46.8479,-1.268452,120.0,35.62,16.08,302.0,0 / 23,1448314,2019-08-12 13:43:53:750,-1.7577,-0.6487,9.758,-1.9023,-0.6967,9.5951,0.0041,-0.0028,-0.0094
26507,46.8479,-1.268452,120.0,35.62,16.08,302.0,0 / 23,1448413,2019-08-12 13:43:53:849,-1.5722,-0.6122,9.6604,-1.8908,-0.6874,9.5981,0.0009,0.0025,-0.0104
26508,46.8479,-1.268452,120.0,35.62,16.08,302.0,0 / 23,1448514,2019-08-12 13:43:53:950,-1.6835,-0.5769,9.8376,-1.86,-0.6618,9.6059,-0.0023,0.0068,-0.0104
26509,46.8479,-1.268452,120.0,35.62,16.08,302.0,0 / 23,1448613,2019-08-12 13:43:54:049,-2.0851,-0.6427,9.5156,-1.8521,-0.6482,9.6083,0.0062,0.0015,-0.0094
26510,46.8479,-1.268452,120.0,35.62,16.08,302.0,0 / 23,1448714,2019-08-12 13:43:54:150,-1.8254,-0.4667,8.9482,-1.8406,-0.6475,9.6106,-0.0023,-0.0081,-0.0094
26511,46.8479,-1.268452,120.0,35.62,16.08,302.0,0 / 23,1448814,2019-08-12 13:43:54:250,-1.9026,-0.5691,9.8777,-1.8414,-0.6457,9.6105,-0.0023,0.0015,-0.0072
26512,46.8479,-1.268452,120.0,35.62,16.08,302.0,0 / 23,1448913,2019-08-12 13:43:54:349,-1.6201,-0.2153,9.7999,-1.8446,-0.6394,9.6104,-0.0034,0.0015,-0.0072
26513,46.8479,-1.268452,120.0,35.62,16.08,302.0,0 / 23,1449014,2019-08-12 13:43:54:450,-1.5913,-0.5098,10.2704,-1.8467,-0.6387,9.61,0.0009,-0.0038,-0.0083
26514,46.8479,-1.268452,120.0,35.62,16.08,302.0,0 / 23,1449115,2019-08-12 13:43:54:551,-1.9708,-0.711,10.0962,-1.8393,-0.636,9.6116,0.0019,-0.0038,-0.0115
26515,46.8479,-1.268452,120.0,35.62,16.08,302.0,0 / 23,1449214,2019-08-12 13:43:54:650,-1.7912,-0.8307,9.2923,-1.8514,-0.6545,9.608,-0.0098,-0.0017,-0.0157
26516,46.8479,-1.268452,120.0,35.62,16.08,302.0,0 / 23,1449315,2019-08-12 13:43:54:751,-2.0582,-0.5721,9.4491,-1.8661,-0.6711,9.604,0.0019,0.0025,-0.0126
26517,46.8479,-1.268452,120.0,35.62,16.08,302.0,0 / 23,1449414,2019-08-12 13:43:54:850,-2.118,-0.7552,9.2516,-1.8744,-0.6732,9.6023,0.0009,0.01,-0.0104
26518,46.8479,-1.268452,120.0,35.62,16.08,302.0,0 / 23,1449514,2019-08-12 13:43:54:950,-1.7194,-0.7127,9.7664,-1.8873,-0.6746,9.5996,0.0041,0.0025,-0.0115
26519,46.8479,-1.268452,120.0,35.62,16.08,302.0,0 / 23,1449614,2019-08-12 13:43:55:050,-1.8224,-0.7504,9.7574,-1.8842,-0.6726,9.6004,0.0083,-0.0081,-0.0104
26520,46.8479,-1.268452,120.0,35.62,16.08,302.0,0 / 23,1449714,2019-08-12 13:43:55:150,-1.875,-0.7684,9.6706,-1.8971,-0.6723,9.5979,0.0041,-0.0049,-0.0115
26521,46.8479,-1.268452,120.0,35.62,16.08,302.0,0 / 23,1449814,2019-08-12 13:43:55:250,-2.145,-0.6319,9.4785,-1.9222,-0.6917,9.5915,0.0019,-0.0017,-0.0147
26522,46.8479,-1.268452,120.0,35.62,16.08,302.0,0 / 23,1449913,2019-08-12 13:43:55:349,-1.9421,-0.7487,9.2624,-1.9373,-0.7067,9.5874,-0.0002,0.0089,-0.0157
26523,46.8479,-1.268452,120.0,35.62,16.08,302.0,0 / 23,1450349,2019-08-12 13:43:55:785,-1.9798,-0.5757,9.4635,-1.938,-0.7144,9.5867,-0.0077,-0.007,-0.0168
26524,46.8479,-1.268452,120.0,35.62,16.08,302.0,0 / 23,1450349,2019-08-12 13:43:55:785,-1.9798,-0.5757,9.4635,-1.938,-0.7144,9.5867,-0.0077,-0.007,-0.0168
26525,46.8479,-1.268452,120.0,35.62,16.08,302.0,0 / 23,1450350,2019-08-12 13:43:55:786,-1.9798,-0.5757,9.4635,-1.938,-0.7144,9.5867,-0.0077,-0.007,-0.0168
26526,46.8479,-1.268452,120.0,35.62,16.08,302.0,0 / 23,1450350,2019-08-12 13:43:55:786,-1.9798,-0.5757,9.4635,-1.938,-0.7144,9.5867,-0.0077,-0.007,-0.0168
26527,46.8479,-1.268452,120.0,35.62,16.08,302.0,0 / 23,1450351,2019-08-12 13:43:55:787,-1.9798,-0.5757,9.4635,-1.938,-0.7144,9.5867,-0.0077,-0.007,-0.0168
26528,46.8479,-1.268452,120.0,35.62,16.08,302.0,0 / 23,1450351,2019-08-12 13:43:55:787,-1.9798,-0.5757,9.4635,-1.938,-0.7144,9.5867,-0.0077,-0.007,-0.0168
26529,46.8479,-1.268452,120.0,35.62,16.08,302.0,0 / 23,1450352,2019-08-12 13:43:55:788,-1.9798,-0.5757,9.4635,-1.938,-0.7144,9.5867,-0.0077,-0.007,-0.0168
26530,46.8479,-1.268452,120.0,35.62,16.08,302.0,0 / 23,1450352,2019-08-12 13:43:55:788,-1.9798,-0.5757,9.4635,-1.938,-0.7144,9.5867,-0.0077,-0.007,-0.0168
26531,46.8479,-1.268452,120.0,35.62,16.08,302.0,0 / 23,1450353,2019-08-12 13:43:55:789,-1.9798,-0.5757,9.4635,-1.938,-0.7144,9.5867,-0.0077,-0.007,-0.0168
26532,46.8479,-1.268452,120.0,35.62,16.08,302.0,0 / 23,1450353,2019-08-12 13:43:55:789,-1.9798,-0.5757,9.4635,-1.938,-0.7144,9.5867,-0.0077,-0.007,-0.0168
26533,46.8479,-1.268452,120.0,35.62,16.08,302.0,0 / 23,1450353,2019-08-12 13:43:55:789,-1.9798,-0.5757,9.4635,-1.938,-0.7144,9.5867,-0.0077,-0.007,-0.0168
26534,46.8479,-1.268452,120.0,35.62,16.08,302.0,0 / 23,1450356,2019-08-12 13:43:55:792,-1.9798,-0.5757,9.4635,-1.938,-0.7144,9.5867,-0.0077,-0.007,-0.0168
26535,46.8479,-1.268452,120.0,35.62,16.08,302.0,0 / 23,1450357,2019-08-12 13:43:55:793,-1.9798,-0.5757,9.4635,-1.938,-0.7144,9.5867,-0.0077,-0.007,-0.0168
26536,46.8479,-1.268452,120.0,35.62,16.08,302.0,0 / 23,1450357,2019-08-12 13:43:55:793,-1.9798,-0.5757,9.4635,-1.938,-0.7144,9.5867,-0.0077,-0.007,-0.0168
26537,46.8479,-1.268452,120.0,35.62,16.08,302.0,0 / 23,1450358,2019-08-12 13:43:55:794,-1.9798,-0.5757,9.4635,-1.938,-0.7144,9.5867,-0.0077,-0.007,-0.0168
26538,46.8479,-1.268452,120.0,35.62,16.08,302.0,0 / 23,1450358,2019-08-12 13:43:55:794,-1.9798,-0.5757,9.4635,-1.938,-0.7144,9.5867,-0.0077,-0.007,-0.0168
26539,46.8479,-1.268452,120.0,35.62,16.08,302.0,0 / 23,1450359,2019-08-12 13:43:55:795,-1.9798,-0.5757,9.4635,-1.938,-0.7144,9.5867,-0.0077,-0.007,-0.0168
26540,46.8479,-1.268452,120.0,35.62,16.08,302.0,0 / 23,1450359,2019-08-12 13:43:55:795,-1.9798,-0.5757,9.4635,-1.938,-0.7144,9.5867,-0.0077,-0.007,-0.0168
26541,46.8479,-1.268452,120.0,35.62,16.08,302.0,0 / 23,1450360,2019-08-12 13:43:55:796,-1.9798,-0.5757,9.4635,-1.938,-0.7144,9.5867,-0.0077,-0.007,-0.0168
26542,46.8479,-1.268452,120.0,35.62,16.08,302.0,0 / 23,1450360,2019-08-12 13:43:55:796,-1.9798,-0.5757,9.4635,-1.938,-0.7144,9.5867,-0.0077,-0.007,-0.0168
26543,46.8479,-1.268452,120.0,35.62,16.08,302.0,0 / 23,1450408,2019-08-12 13:43:55:844,-1.9798,-0.5757,9.4635,-1.938,-0.7144,9.5867,-0.0077,-0.007,-0.0168
26544,46.8479,-1.268452,120.0,35.62,16.08,302.0,0 / 23,1450508,2019-08-12 13:43:55:944,-1.9798,-0.5757,9.4635,-1.938,-0.7144,9.5867,-0.0077,-0.007,-0.0168
26545,46.8479,-1.268452,120.0,35.62,16.08,302.0,0 / 23,1450607,2019-08-12 13:43:56:043,-1.7739,-0.7864,9.4575,-1.6069,-0.7818,9.6425,-0.0034,-0.0092,-0.0147
26546,46.8479,-1.268452,120.0,35.62,16.08,302.0,0 / 23,1450707,2019-08-12 13:43:56:143,-1.8361,-0.8887,9.248,-1.6172,-0.7706,9.6416,0.0115,0.0079,-0.0104
26547,46.8479,-1.268452,120.0,35.62,16.08,302.0,0 / 23,1450807,2019-08-12 13:43:56:243,-1.7667,-0.8199,9.5144,-1.6092,-0.7716,9.6429,0.0115,-0.0081,-0.0136
26548,46.8479,-1.268452,120.0,35.62,16.08,302.0,0 / 23,1450907,2019-08-12 13:43:56:343,-1.3022,-0.9264,9.8113,-1.5889,-0.7667,9.6466,0.0019,-0.0113,-0.0168
26549,46.8479,-1.268452,120.0,35.62,16.08,302.0,0 / 23,1451007,2019-08-12 13:43:56:443,-1.2118,-0.7498,10.3996,-1.5752,-0.7743,9.6483,-0.0066,-0.0007,-0.0157
26550,46.8479,-1.268452,120.0,35.62,16.08,302.0,0 / 23,1451107,2019-08-12 13:43:56:543,-1.7326,-0.7534,9.582,-1.5769,-0.7732,9.6481,0.0019,0.0153,-0.0115
26551,46.8479,-1.268452,120.0,35.62,16.08,302.0,0 / 23,1451207,2019-08-12 13:43:56:643,-1.7511,-0.9288,9.7173,-1.5847,-0.7692,9.6471,0.0073,-0.0007,-0.0104
26552,46.8479,-1.268452,120.0,35.62,16.08,302.0,0 / 23,1451308,2019-08-12 13:43:56:744,-1.7775,-0.7355,8.5675,-1.586,-0.7609,9.6476,0.0051,-0.007,-0.0126
26553,46.8479,-1.268452,120.0,35.62,16.08,302.0,0 / 23,1451407,2019-08-12 13:43:56:843,-1.146,-0.7271,10.3152,-1.5863,-0.7558,9.6479,-0.0023,0.0004,-0.0126
26554,46.8479,-1.268452,120.0,35.62,16.08,302.0,0 / 23,1451507,2019-08-12 13:43:56:943,-0.9132,-0.7175,9.5904,-1.5874,-0.7502,9.6482,0.0094,0.0068,-0.0104
26555,46.8479,-1.268452,120.0,35.62,16.08,302.0,0 / 23,1451608,2019-08-12 13:43:57:044,-1.3573,-0.5841,9.9633,-1.5873,-0.7317,9.6496,0.0105,-0.0017,-0.0104
26556,46.8479,-1.268452,120.0,35.62,16.08,302.0,0 / 23,1451707,2019-08-12 13:43:57:143,-1.787,-0.7056,9.4677,-1.579,-0.7252,9.6515,0.0051,-0.0134,-0.0094
26557,46.8479,-1.268452,120.0,35.62,16.08,302.0,0 / 23,1451808,2019-08-12 13:43:57:244,-1.9427,-0.6798,9.3989,-1.5799,-0.7125,9.6523,0.0126,0.0047,-0.0072
26558,46.8479,-1.268452,120.0,35.62,16.08,302.0,0 / 23,1451908,2019-08-12 13:43:57:344,-1.5387,-0.5876,9.5934,-1.5819,-0.7011,9.6528,0.0051,0.0004,-0.0094
26559,46.8479,-1.268452,120.0,35.62,16.08,302.0,0 / 23,1452007,2019-08-12 13:43:57:443,-1.061,-0.3961,10.0824,-1.5831,-0.6755,9.6544,-0.0013,-0.0017,-0.0083
26560,46.8479,-1.268452,120.0,35.62,16.08,302.0,0 / 23,1452107,2019-08-12 13:43:57:543,-1.2561,-0.4548,10.0537,-1.5861,-0.6363,9.6566,-0.0055,0.0025,-0.0072
26561,46.8479,-1.268452,120.0,35.62,16.08,302.0,0 / 23,1452208,2019-08-12 13:43:57:644,-1.7302,-0.52,9.4114,-1.6021,-0.5997,9.6563,-0.0023,0.0025,-0.0094
26562,46.8479,-1.268452,120.0,35.62,16.08,302.0,0 / 23,1452308,2019-08-12 13:43:57:744,-1.8385,-0.6505,9.1367,-1.6035,-0.5841,9.657,0.0009,-0.0049,-0.0126
26563,46.8479,-1.268452,120.0,35.62,16.08,302.0,0 / 23,1452407,2019-08-12 13:43:57:843,-1.5033,-0.6295,9.4066,-1.6057,-0.5984,9.6558,-0.0055,-0.0017,-0.0168
26564,46.8479,-1.268452,120.0,35.62,16.08,302.0,0 / 23,1452507,2019-08-12 13:43:57:943,-1.2071,-0.9216,9.4803,-1.6038,-0.6107,9.6553,-0.0045,-0.0028,-0.0211
26565,46.8479,-1.268452,120.0,35.62,16.08,302.0,0 / 23,1452608,2019-08-12 13:43:58:044,-2.0025,-1.0288,10.2189,-1.6133,-0.6331,9.6523,0.0019,-0.0038,-0.0211
26566,46.8479,-1.268452,120.0,35.62,16.08,302.0,0 / 23,1452708,2019-08-12 13:43:58:144,-2.233,-0.8271,9.4462,-1.6344,-0.6447,9.648,0.0041,0.0164,-0.019
26567,46.8479,-1.268452,120.0,35.62,16.08,302.0,0 / 23,1452807,2019-08-12 13:43:58:243,-2.5478,-1.0521,9.3821,-1.6677,-0.6633,9.641,-0.0034,0.0015,-0.02
26568,46.8479,-1.268452,120.0,35.62,16.08,302.0,0 / 23,1452907,2019-08-12 13:43:58:343,-1.969,-0.9486,9.4707,-1.6853,-0.675,9.6371,0.0073,-0.0038,-0.0157
26569,46.8479,-1.268452,120.0,35.62,16.08,302.0,0 / 23,1453007,2019-08-12 13:43:58:443,-1.8529,-0.9468,9.5988,-1.7307,-0.6784,9.6289,0.0158,0.0143,-0.0115
26570,46.8479,-1.268452,120.0,35.62,16.08,302.0,0 / 23,1453107,2019-08-12 13:43:58:543,-2.1564,-1.0114,9.9801,-1.8182,-0.6978,9.6113,0.0137,0.0047,-0.0126
26571,46.8479,-1.268452,120.0,35.62,16.08,302.0,0 / 23,1453208,2019-08-12 13:43:58:644,-2.403,-0.7822,9.2959,-1.9851,-0.7284,9.576,0.0062,0.0068,-0.0157
26572,46.8479,-1.268452,120.0,35.62,16.08,302.0,0 / 23,1453308,2019-08-12 13:43:58:744,-2.616,-0.8007,8.8847,-2.0674,-0.7584,9.5562,0.0041,-0.006,-0.0168
26573,46.8479,-1.268452,120.0,35.62,16.08,302.0,0 / 23,1453408,2019-08-12 13:43:58:844,-2.7381,-1.1084,9.2337,-2.1733,-0.786,9.5304,-0.0013,0.0015,-0.019
26574,46.8479,-1.268452,120.0,35.62,16.08,302.0,0 / 23,1453508,2019-08-12 13:43:58:944,-2.4371,-0.9821,9.2175,-2.2466,-0.8061,9.5118,-0.0034,0.0057,-0.019
26575,46.8479,-1.268452,120.0,35.62,16.08,302.0,0 / 23,1453607,2019-08-12 13:43:59:043,-1.9762,-0.9138,9.7622,-2.2919,-0.8306,9.4988,0.0041,-0.0092,-0.0157
26576,46.8479,-1.268452,120.0,35.62,16.08,302.0,Sep-23,1453707,2019-08-12 13:43:59:143,-2.5514,-0.9593,9.9789,-2.2908,-0.831,9.4991,0.0062,-0.0038,-0.0136
26577,46.8479,-1.268452,120.0,35.62,16.08,302.0,Sep-23,1453807,2019-08-12 13:43:59:243,-2.5867,-0.623,9.0792,-2.3006,-0.8291,9.4969,0.0009,-0.0028,-0.0147
26578,46.8479,-1.268452,120.0,35.62,16.08,302.0,Sep-23,1453907,2019-08-12 13:43:59:343,-2.9824,-0.7337,9.017,-2.3164,-0.8324,9.4927,-0.0013,0.0111,-0.0136
26579,46.8479,-1.268452,120.0,35.62,16.08,302.0,Sep-23,1454008,2019-08-12 13:43:59:444,-2.9608,-0.869,9.5335,-2.3367,-0.8369,9.4873,-0.0034,-0.0038,-0.0147
26580,46.8479,-1.268452,120.0,35.62,16.08,302.0,Sep-23,1454107,2019-08-12 13:43:59:543,-2.6071,-0.8402,9.6556,-2.3435,-0.8401,9.4854,-0.0055,-0.0102,-0.0136
26581,46.8479,-1.268452,120.0,35.62,16.08,302.0,Sep-23,1454207,2019-08-12 13:43:59:643,-2.4496,-0.6816,9.9034,-2.4379,-0.8059,9.4645,-0.0055,-0.0092,-0.0104
26582,46.8479,-1.268452,120.0,35.62,16.08,302.0,Sep-23,1454308,2019-08-12 13:43:59:744,-2.5975,-0.7912,9.4785,-2.4796,-0.7907,9.455,-0.0055,0.0068,-0.0072
26583,46.8479,-1.268452,120.0,35.62,16.08,302.0,Sep-23,1454407,2019-08-12 13:43:59:843,-2.9219,-0.611,9.1391,-2.5065,-0.7906,9.4479,-0.0002,0.0079,-0.0083
26584,46.8479,-1.268452,120.0,35.62,16.08,302.0,Sep-23,1454508,2019-08-12 13:43:59:944,-3.0183,-0.7498,9.16,-2.5454,-0.7925,9.4373,0.0041,0.0015,-0.0136
26585,46.8479,-1.268452,120.0,35.62,16.08,302.0,Sep-23,1454607,2019-08-12 13:44:00:043,-3.0213,-0.9761,9.1415,-2.5801,-0.8124,9.4262,0.0062,-0.007,-0.0179
26586,46.8479,-1.268452,120.0,35.62,16.08,302.0,Sep-23,1454707,2019-08-12 13:44:00:143,-2.9512,-0.8283,9.1469,-2.6325,-0.816,9.4114,0.0051,-0.0007,-0.0157
26587,46.84959,-1.271765,107.41,35.06,11.792,309.2,0 / 23,1454808,2019-08-12 13:44:00:244,-2.7142,-0.9516,9.1678,-2.6911,-0.8491,9.3919,0.0126,0.0111,-0.0126
26588,46.84959,-1.271765,107.41,35.06,11.792,309.2,0 / 23,1454907,2019-08-12 13:44:00:343,-2.6466,-1.0138,9.6485,-2.6988,-0.845,9.39,0.0126,-0.0007,-0.0136
26589,46.84959,-1.271765,107.41,35.06,11.792,309.2,0 / 23,1455008,2019-08-12 13:44:00:444,-2.7525,-0.6822,9.9142,-2.7284,-0.8409,9.3819,-0.0002,-0.0049,-0.0126
26590,46.84959,-1.271765,107.41,35.06,11.792,309.2,0 / 23,1455108,2019-08-12 13:44:00:544,-2.8776,-0.939,9.8107,-2.7793,-0.8295,9.3679,0.0019,-0.0007,-0.0126
26591,46.84959,-1.271765,107.41,35.06,11.792,309.2,0 / 23,1455208,2019-08-12 13:44:00:644,-3.047,-0.8115,9.3887,-2.8128,-0.8197,9.3588,0.0009,0.0015,-0.0126
26592,46.84959,-1.271765,107.41,35.06,11.792,309.2,0 / 23,1455307,2019-08-12 13:44:00:743,-3.1063,-0.9306,9.5635,-2.8493,-0.8216,9.3475,-0.0045,-0.0081,-0.0168
26593,46.84959,-1.271765,107.41,35.06,11.792,309.2,0 / 23,1455407,2019-08-12 13:44:00:843,-3.2433,-0.8283,9.0134,-2.8716,-0.8226,9.3407,-0.0055,0.0057,-0.0179
26594,46.84959,-1.271765,107.41,35.06,11.792,309.2,0 / 23,1455508,2019-08-12 13:44:00:944,-3.2643,-1.0168,9.275,-2.9057,-0.8383,9.3287,0.0009,-0.0007,-0.0136
26595,46.84959,-1.271765,107.41,35.06,11.792,309.2,0 / 23,1455609,2019-08-12 13:44:01:045,-3.2703,-0.7074,9.2959,-2.9328,-0.8374,9.3203,0.0062,0.01,-0.0104
26596,46.84959,-1.271765,107.41,35.06,11.792,309.2,0 / 23,1455708,2019-08-12 13:44:01:144,-3.0296,-0.754,9.2887,-2.9563,-0.8393,9.3127,0.0019,-0.0038,-0.0104
26597,46.84959,-1.271765,107.41,35.06,11.792,309.2,0 / 23,1455807,2019-08-12 13:44:01:243,-2.9632,-0.7139,9.2289,-2.9641,-0.8334,9.3108,0.0073,0.0036,-0.0126
26598,46.84959,-1.271765,107.41,35.06,11.792,309.2,0 / 23,1455908,2019-08-12 13:44:01:344,-3.0302,-0.7912,9.5431,-2.9684,-0.8249,9.3101,0.0009,-0.0007,-0.0147
26599,46.84959,-1.271765,107.41,35.06,11.792,309.2,0 / 23,1456008,2019-08-12 13:44:01:444,-2.734,-0.6487,9.3528,-2.9644,-0.8243,9.3115,0.0019,-0.0081,-0.0136
26600,46.84959,-1.271765,107.41,35.06,11.792,309.2,0 / 23,1456107,2019-08-12 13:44:01:543,-2.7483,-0.7193,9.1235,-2.9607,-0.8146,9.3135,0.0073,-0.0049,-0.0072
26601,46.84959,-1.271765,107.41,35.06,11.792,309.2,0 / 23,1456208,2019-08-12 13:44:01:644,-2.7429,-0.6984,9.3833,-2.9608,-0.797,9.315,0.0094,-0.007,-0.004
26602,46.84959,-1.271765,107.41,35.06,11.792,309.2,0 / 23,1456308,2019-08-12 13:44:01:744,-2.7992,-0.7864,9.6048,-2.9733,-0.7855,9.312,0.0073,0.0111,-0.0072
26603,46.84959,-1.271765,107.41,35.06,11.792,309.2,0 / 23,1456407,2019-08-12 13:44:01:843,-2.707,-0.7834,9.6431,-2.9732,-0.7805,9.3124,0.0041,-0.0028,-0.0115
26604,46.84959,-1.271765,107.41,35.06,11.792,309.2,0 / 23,1456508,2019-08-12 13:44:01:944,-2.7765,-0.8522,9.4982,-2.9795,-0.761,9.312,0.003,0.0089,-0.0126
26605,46.84959,-1.271765,107.41,35.06,11.792,309.2,0 / 23,1456608,2019-08-12 13:44:02:044,-2.7304,-0.8504,10.1871,-2.9684,-0.7619,9.3155,-0.0023,-0.0102,-0.0147
26606,46.84959,-1.271765,107.41,35.06,11.792,309.2,0 / 23,1456707,2019-08-12 13:44:02:143,-2.5167,-0.7349,9.7538,-2.9439,-0.7608,9.3234,0.0009,-0.0081,-0.0104
26607,46.84959,-1.271765,107.41,35.06,11.792,309.2,0 / 23,1456808,2019-08-12 13:44:02:244,-2.4371,-0.7115,9.8083,-2.9282,-0.7604,9.3283,-0.0034,-0.0092,-0.0094
26608,46.84959,-1.271765,107.41,35.06,11.792,309.2,0 / 23,1456908,2019-08-12 13:44:02:344,-2.4257,-0.8456,10.0519,-2.858,-0.7299,9.3525,0.0051,0.0036,-0.0072
26609,46.84959,-1.271765,107.41,35.06,11.792,309.2,0 / 23,1457008,2019-08-12 13:44:02:444,-2.2838,-0.6894,9.7293,-2.7895,-0.7014,9.3753,0.0126,-0.0017,-0.0072
26610,46.84959,-1.271765,107.41,35.06,11.792,309.2,0 / 23,1457107,2019-08-12 13:44:02:543,-2.2342,-0.6673,9.5982,-2.7819,-0.691,9.3784,0.0041,0.01,-0.0104
26611,46.84959,-1.271765,107.41,35.06,11.792,309.2,0 / 23,1457207,2019-08-12 13:44:02:643,-2.2515,-0.672,9.6563,-2.7744,-0.6892,9.3807,-0.0023,0.0015,-0.0115
26612,46.84959,-1.271765,107.41,35.06,11.792,309.2,0 / 23,1457308,2019-08-12 13:44:02:744,-2.2755,-0.6523,10.0854,-2.6803,-0.6496,9.4109,0.003,-0.0102,-0.0104
26613,46.84959,-1.271765,107.41,35.06,11.792,309.2,0 / 23,1457408,2019-08-12 13:44:02:844,-2.1049,-0.6852,9.2881,-2.6645,-0.6468,9.4156,0.003,-0.0081,-0.0094
26614,46.84959,-1.271765,107.41,35.06,11.792,309.2,0 / 23,1457508,2019-08-12 13:44:02:944,-2.1187,-0.6445,9.776,-2.65,-0.6462,9.4197,0.0019,0.0036,-0.0115
26615,46.84959,-1.271765,107.41,35.06,11.792,309.2,0 / 23,1457608,2019-08-12 13:44:03:044,-2.1821,-0.7792,9.9992,-2.6396,-0.647,9.4225,0.0051,0.0015,-0.0136
26616,46.84959,-1.271765,107.41,35.06,11.792,309.2,0 / 23,1457708,2019-08-12 13:44:03:144,-2.3269,-0.7319,9.5329,-2.5039,-0.6592,9.4587,0.003,-0.0007,-0.0168
26617,46.84959,-1.271765,107.41,35.06,11.792,309.2,0 / 23,1457807,2019-08-12 13:44:03:243,-1.9193,-0.6325,9.8609,-2.5001,-0.66,9.4596,-0.0002,-0.007,-0.0147
26618,46.84959,-1.271765,107.41,35.06,11.792,309.2,0 / 23,1457907,2019-08-12 13:44:03:343,-2.1097,-0.6307,9.8903,-2.4245,-0.6561,9.4795,0.0083,-0.0081,-0.0083
26619,46.84959,-1.271765,107.41,35.06,11.792,309.2,0 / 23,1458008,2019-08-12 13:44:03:444,-1.9798,-0.6906,9.8604,-2.3719,-0.6491,9.4933,0.0019,-0.0007,-0.0072
26620,46.84959,-1.271765,107.41,35.06,11.792,309.2,0 / 23,1458132,2019-08-12 13:44:03:568,-2.0851,-0.7097,9.6682,-2.3473,-0.6473,9.4996,0.0083,0.0015,-0.0083
26621,46.84959,-1.271765,107.41,35.06,11.792,309.2,0 / 23,1458208,2019-08-12 13:44:03:644,-2.0851,-0.7097,9.6682,-2.3473,-0.6473,9.4996,0.0083,0.0015,-0.0083
26622,46.84959,-1.271765,107.41,35.06,11.792,309.2,0 / 23,1458308,2019-08-12 13:44:03:744,-2.0851,-0.7097,9.6682,-2.3473,-0.6473,9.4996,0.0083,0.0015,-0.0083
26623,46.84959,-1.271765,107.41,35.06,11.792,309.2,0 / 23,1458407,2019-08-12 13:44:03:843,-2.1468,-0.5571,9.7484,-2.2384,-0.5751,9.5304,0.0041,0.0015,-0.004
26624,46.84959,-1.271765,107.41,35.06,11.792,309.2,0 / 23,1458508,2019-08-12 13:44:03:944,-2.2982,-0.4937,9.7101,-2.186,-0.5429,9.5445,-0.0002,-0.0028,-0.0062
26625,46.84959,-1.271765,107.41,35.06,11.792,309.2,0 / 23,1458608,2019-08-12 13:44:04:044,-2.2126,-0.4015,9.4821,-2.1727,-0.4987,9.5499,0.003,0.0025,-0.0051
26626,46.84959,-1.271765,107.41,35.06,11.792,309.2,0 / 23,1458708,2019-08-12 13:44:04:144,-2.1558,-0.0376,9.6748,-2.143,-0.4572,9.5587,-0.0066,0.0004,-0.0051
26627,46.84959,-1.271765,107.41,35.06,11.792,309.2,0 / 23,1458807,2019-08-12 13:44:04:243,-2.3,-0.5835,9.1158,-2.1263,-0.4516,9.5627,-0.0002,0.0068,-0.0094
26628,46.84959,-1.271765,107.41,35.06,11.792,309.2,0 / 23,1458907,2019-08-12 13:44:04:343,-2.3419,-0.3165,9.4964,-2.1286,-0.45,9.5623,0.0094,0.0079,-0.0072
26629,46.84959,-1.271765,107.41,35.06,11.792,309.2,0 / 23,1459008,2019-08-12 13:44:04:444,-2.2737,-0.4679,9.4671,-2.1136,-0.4483,9.5657,-0.0002,-0.0198,-0.0083
26630,46.84959,-1.271765,107.41,35.06,11.792,309.2,0 / 23,1459108,2019-08-12 13:44:04:544,-2.3072,-0.593,9.582,-2.0947,-0.4483,9.5698,0.0019,-0.0156,-0.0072
26631,46.84959,-1.271765,107.41,35.06,11.792,309.2,0 / 23,1459207,2019-08-12 13:44:04:643,-2.1767,-0.4039,9.3037,-2.0726,-0.438,9.5751,0.0041,0.0025,-0.004
26632,46.84959,-1.271765,107.41,35.06,11.792,309.2,0 / 23,1459308,2019-08-12 13:44:04:744,-2.039,-0.4518,9.3169,-2.06,-0.422,9.5786,0.0083,0.0047,-0.004
26633,46.84959,-1.271765,107.41,35.06,11.792,309.2,0 / 23,1459408,2019-08-12 13:44:04:844,-1.9534,-0.2465,9.5365,-2.0603,-0.4096,9.579,0.0062,0.0047,-0.004
26634,46.84959,-1.271765,107.41,35.06,11.792,309.2,0 / 23,1459508,2019-08-12 13:44:04:944,-2.1534,-0.4153,9.6532,-2.0526,-0.3881,9.5816,0.0105,-0.006,-0.0051
26635,46.84959,-1.271765,107.41,35.06,11.792,309.2,0 / 23,1459607,2019-08-12 13:44:05:043,-2.1755,-0.3129,9.8179,-2.052,-0.384,9.5819,-0.013,-0.007,-0.0094
26636,46.84959,-1.271765,107.41,35.06,11.792,309.2,0 / 23,1459708,2019-08-12 13:44:05:144,-2.0977,-0.277,9.7556,-2.0463,-0.3958,9.5826,-0.0119,-0.0028,-0.0094
26637,46.84959,-1.271765,107.41,35.06,11.792,309.2,0 / 23,1459807,2019-08-12 13:44:05:243,-1.8882,-0.3698,9.573,-2.0482,-0.3983,9.5821,0.0009,0.0079,-0.0062
