,GPS LATITUDE (degrees), GPS LONGITUDE (degrees), GPS ALTITUDE (m), GPS SPEED (Kmh), GPS ACCURACY (m), GPS ORIENTATION (Â°),GPS SATELLITES IN RANGE, TIME SINCE START (ms), DATE (YYYY-MO-DD HH-MI-SS_SSS), ACCELEROMETER X (m/s²) , ACCELEROMETER Y (m/s²), ACCELEROMETER Z (m/s²), GRAVITY X (m/s²), GRAVITY Y (m/s²), GRAVITY Z (m/s²), GYROSCOPE Yaw (rad/s), GYROSCOPE Pitch (rad/s), GYROSCOPE Roll (rad/s), MAGNETIC FIELD X (Î¼T), MAGNETIC FIELD Y (Î¼T), MAGNETIC FIELD Z (Î¼T), ORIENTATION (Yaw) (Â°), ORIENTATION (Pitch) (Â°), ORIENTATION (Roll ) (Â°),Unnamed: 24
4734,52.11496,-1.940938,81,6.5,13.0,191.9,,13 / 25,473445,2019-08-16 11:37:17:814,-0.0141,-0.072,10.13,-0.0019,-0.0038,9.8066,-0.016,0.0089,-0.0085,-23.84,1.04,-18.19,182.36,8.2,-0.27
4735,52.11496,-1.940938,81,6.5,13.0,191.9,,13 / 25,473547,2019-08-16 11:37:17:916,-0.0435,-0.0411,10.2934,0.0039,-0.0027,9.8066,-0.0107,0.0004,-0.0085,-24.19,-0.05,-17.74,180.19,8.21,-0.28
4736,52.11496,-1.940938,81,6.5,13.0,191.9,,13 / 25,473645,2019-08-16 11:37:18:014,0.0055,0.1698,10.5409,0.0133,0.0088,9.8066,0.0,-0.0071,-0.0075,-24.19,-0.05,-17.74,180.19,8.21,-0.28
4737,52.11496,-1.940938,81,6.5,13.0,191.9,,13 / 25,473745,2019-08-16 11:37:18:114,0.1834,-0.0748,10.1481,0.0106,0.0036,9.8066,0.001,-0.006,-0.0011,-24.08,0.5,-17.89,180.15,8.29,-0.22
4738,52.11496,-1.940938,81,6.5,13.0,191.9,,13 / 25,473845,2019-08-16 11:37:18:214,0.1525,0.0947,10.1759,0.0156,-0.0034,9.8066,-0.0022,-0.0049,0.0011,-24.37,0.96,-17.46,182.34,8.38,-0.24
4739,52.11496,-1.940938,81,6.5,13.0,191.9,,13 / 25,473945,2019-08-16 11:37:18:314,0.1477,0.0428,9.7176,0.0037,-0.0046,9.8066,-0.0022,-0.0049,0.0011,-24.37,0.96,-17.46,182.34,8.38,-0.24
4740,52.11496,-1.940938,81,6.5,13.0,191.9,,13 / 25,474046,2019-08-16 11:37:18:415,0.2934,-0.0651,10.0895,0.0091,-0.0042,9.8066,-0.0064,0.0004,-0.0096,-24.18,0.98,-17.73,182.36,8.4,-0.27
4741,52.11496,-1.940938,81,6.5,13.0,191.9,,13 / 25,474145,2019-08-16 11:37:18:514,-0.0134,0.104,9.5777,0.0138,0.0025,9.8066,0.0031,0.0025,0.0011,-24.07,0.95,-17.88,182.35,8.48,-0.26
4742,52.11495,-1.940926,80,5.18,13.0,191.3,,13 / 25,474245,2019-08-16 11:37:18:614,0.196,-0.0483,10.1497,-0.0068,0.0123,9.8066,0.0319,0.0078,0.0138,-23.75,1.48,-18.27,182.35,8.48,-0.26
4743,52.11495,-1.940926,80,5.18,13.0,191.3,,13 / 25,474345,2019-08-16 11:37:18:714,-0.0506,0.0147,9.9398,-0.0127,0.0281,9.8066,-0.0139,0.0174,-0.0107,-23.62,2.1,-18.38,184.4,8.41,-0.09
4744,52.11495,-1.940926,80,5.18,13.0,191.3,,13 / 25,474445,2019-08-16 11:37:18:814,0.1195,0.1368,10.2505,0.0048,0.0143,9.8066,0.0042,-0.0018,0.0,-23.62,2.1,-18.38,184.4,8.41,-0.09
4745,52.11495,-1.940926,80,5.18,13.0,191.3,,13 / 25,474546,2019-08-16 11:37:18:915,0.3028,-0.1404,9.8228,0.0178,-0.0037,9.8066,-0.0118,-0.0081,-0.0085,-24.5,0.52,-17.3,182.11,8.45,-0.01
4746,52.11495,-1.940926,80,5.18,13.0,191.3,,13 / 25,474645,2019-08-16 11:37:19:014,0.2674,-0.2021,9.8112,0.0537,-0.0109,9.8065,0.0063,-0.0252,0.0117,-24.95,0.52,-16.65,182.11,8.45,-0.01
4747,52.11495,-1.940926,80,5.18,13.0,191.3,,13 / 25,474745,2019-08-16 11:37:19:114,0.4729,-0.09,9.9221,0.0473,-0.0005,9.8065,0.0063,-0.0252,0.0117,-24.11,1.04,-17.82,182.22,8.76,-0.09
4748,52.11495,-1.940926,80,5.18,13.0,191.3,,13 / 25,474845,2019-08-16 11:37:19:214,0.4904,-0.126,9.3845,0.0975,-0.0035,9.8062,-0.0118,-0.006,-0.0064,-23.96,1.56,-17.98,184.39,9.33,-0.13
4749,52.11495,-1.940926,80,5.18,13.0,191.3,,13 / 25,474945,2019-08-16 11:37:19:314,0.3667,0.0194,10.0671,0.0288,0.0112,9.8066,0.0021,0.011,0.0,-23.96,1.56,-17.98,184.39,9.33,-0.13
4750,52.11495,-1.940926,80,5.18,13.0,191.3,,13 / 25,475045,2019-08-16 11:37:19:414,0.4113,0.3115,10.0522,0.029,0.0158,9.8066,0.017,-0.0018,0.0138,-23.69,1.54,-18.34,184.34,9.5,-0.08
4751,52.11495,-1.940926,80,5.18,13.0,191.3,,13 / 25,475145,2019-08-16 11:37:19:514,-0.0954,0.1843,9.4761,0.0579,0.0242,9.8065,-0.0107,0.0121,-0.0043,-24.49,1.09,-17.29,182.13,9.85,0.04
4752,52.11491,-1.94095,79,4.74,13.0,191.4,,13 / 25,475245,2019-08-16 11:37:19:614,0.4159,-0.1026,10.2028,0.0347,0.0091,9.8066,0.0,0.0014,-0.0011,-23.85,1.52,-18.13,182.13,9.85,0.04
4753,52.11491,-1.94095,79,4.74,13.0,191.4,,13 / 25,475345,2019-08-16 11:37:19:714,0.1678,0.0209,9.6989,0.0638,0.0115,9.8064,-0.0182,-0.0007,-0.017,-24.21,1.54,-17.65,184.2,10.22,0.1
4754,52.11491,-1.94095,79,4.74,13.0,191.4,,13 / 25,475445,2019-08-16 11:37:19:814,0.443,0.0748,10.3967,0.0761,0.0099,9.8064,-0.0011,-0.0092,0.0011,-24.21,1.54,-17.65,184.2,10.22,0.1
4755,52.11491,-1.94095,79,4.74,13.0,191.4,,13 / 25,475545,2019-08-16 11:37:19:914,0.3756,-0.1363,10.3183,0.0338,0.0065,9.8066,-0.0086,-0.0018,-0.0128,-22.98,1.46,-19.24,182.1,10.67,0.12
4756,52.11491,-1.94095,79,4.74,13.0,191.4,,13 / 25,475645,2019-08-16 11:37:20:014,0.2329,0.044,10.1253,0.0306,-0.0017,9.8066,-0.0086,-0.0018,-0.0128,-24.1,1.5,-17.81,182.02,10.87,0.15
4757,52.11491,-1.94095,79,4.74,13.0,191.4,,13 / 25,475745,2019-08-16 11:37:20:114,-0.1437,0.1761,9.4791,0.0552,0.0015,9.8065,0.0042,-0.005,-0.0043,-24.36,1.51,-17.45,182.02,10.87,0.15
4758,52.11491,-1.94095,79,4.74,13.0,191.4,,13 / 25,475846,2019-08-16 11:37:20:215,0.0858,0.0367,10.1011,0.0627,0.0005,9.8065,0.0074,-0.0028,0.0096,-24.36,1.51,-17.45,182.02,10.87,0.15
4759,52.11491,-1.94095,79,4.74,13.0,191.4,,13 / 25,475945,2019-08-16 11:37:20:314,-0.167,0.0775,9.7981,-0.0027,0.0007,9.8066,0.017,-0.005,0.017,-23.83,2.07,-18.11,184.14,11.23,0.14
4760,52.11491,-1.94095,79,4.74,13.0,191.4,,13 / 25,476045,2019-08-16 11:37:20:414,-0.2389,0.0742,10.1234,-0.0104,-0.0064,9.8066,0.001,0.0025,0.0043,-24.47,1.56,-17.28,184.14,11.23,0.14
4761,52.11491,-1.94095,79,4.74,13.0,191.4,,13 / 25,476145,2019-08-16 11:37:20:514,-0.1221,-0.0986,9.7404,-0.0135,-0.0003,9.8066,0.001,-0.0039,0.0021,-24.05,1.5,-17.87,182.02,11.16,0.15
4762,52.11492,-1.940925,78,3.37,13.0,190.6,,13 / 25,476245,2019-08-16 11:37:20:614,-0.2039,0.1412,9.476,-0.0055,-0.0052,9.8066,-0.0224,0.0046,-0.0107,-23.56,0.95,-18.55,182.02,11.16,0.15
4763,52.11492,-1.940925,78,3.37,13.0,190.6,,13 / 25,476345,2019-08-16 11:37:20:714,0.1313,-0.2834,10.1801,-0.0043,0.0026,9.8067,0.0085,-0.0145,0.0075,-23.56,0.95,-18.55,182.05,11.07,0.08
4764,52.11492,-1.940925,78,3.37,13.0,190.6,,13 / 25,476445,2019-08-16 11:37:20:814,-0.0763,0.0425,10.024,-0.0041,-0.0114,9.8066,0.0085,-0.0145,0.0075,-24.45,0.99,-17.36,182.05,11.07,0.08
4765,52.11492,-1.940925,78,3.37,13.0,190.6,,13 / 25,476545,2019-08-16 11:37:20:914,-0.0923,-0.0367,10.117,-0.0053,-0.0141,9.8066,-0.0075,-0.0082,0.0021,-24.25,2.15,-17.53,184.24,11.04,0.0
4766,52.11492,-1.940925,78,3.37,13.0,190.6,,13 / 25,476645,2019-08-16 11:37:21:014,-0.2377,0.2018,10.0518,-0.0064,0.0027,9.8066,-0.0086,0.0057,-0.0107,-24.25,2.15,-17.53,184.24,11.04,0.0
4767,52.11492,-1.940925,78,3.37,13.0,190.6,,13 / 25,476745,2019-08-16 11:37:21:114,0.0723,-0.0115,10.1938,-0.0071,-0.0059,9.8066,-0.0011,0.0004,-0.0011,-24.87,1.62,-16.7,184.11,11.0,0.02
4768,52.11492,-1.940925,78,3.37,13.0,190.6,,13 / 25,476845,2019-08-16 11:37:21:214,-0.2231,-0.0132,9.5336,-0.0194,-0.0072,9.8066,-0.0107,0.0025,-0.0085,-24.28,1.58,-17.55,184.11,11.0,0.02
4769,52.11492,-1.940925,78,3.37,13.0,190.6,,13 / 25,476945,2019-08-16 11:37:21:314,-0.1457,-0.3005,10.0759,-0.0393,-0.0043,9.8066,0.0053,-0.005,0.0,-24.28,1.58,-17.55,184.11,11.0,0.02
4770,52.11492,-1.940925,78,3.37,13.0,190.6,,13 / 25,477046,2019-08-16 11:37:21:415,-0.3634,0.0035,9.6866,-0.0181,-0.0046,9.8066,-0.0064,0.0036,-0.0021,-25.07,1.01,-16.45,182.07,10.77,0.01
4771,52.11492,-1.940925,78,3.37,13.0,190.6,,13 / 25,477146,2019-08-16 11:37:21:515,-0.3991,-0.0916,9.9066,-0.0358,-0.0052,9.8066,-0.0054,-0.0007,-0.0011,-24.43,1.55,-17.34,184.29,10.56,-0.01
4772,52.1149,-1.940939,78,2.78,13.0,190.5,,13 / 25,477245,2019-08-16 11:37:21:614,-0.2277,-0.1819,9.4675,-0.0099,-0.0014,9.8066,-0.0054,-0.0007,-0.0011,-23.87,0.97,-18.14,184.29,10.56,-0.01
4773,52.1149,-1.940939,78,2.78,13.0,190.5,,13 / 25,477345,2019-08-16 11:37:21:714,-0.3516,0.0768,10.1026,-0.0374,-0.0022,9.8066,0.0074,-0.0028,0.0085,-23.87,0.97,-18.14,184.29,10.56,-0.01
4774,52.1149,-1.940939,78,2.78,13.0,190.5,,13 / 25,477445,2019-08-16 11:37:21:814,-0.0996,-0.1971,10.0793,-0.0137,-0.003,9.8066,0.0106,-0.006,0.0075,-24.71,2.14,-16.88,184.14,10.34,-0.01
4775,52.1149,-1.940939,78,2.78,13.0,190.5,,13 / 25,477545,2019-08-16 11:37:21:914,-0.2765,0.1122,9.6117,-0.0155,-0.0017,9.8066,-0.0096,0.0025,-0.0107,-24.32,2.21,-17.42,184.31,10.26,-0.02
4776,52.1149,-1.940939,78,2.78,13.0,190.5,,13 / 25,477645,2019-08-16 11:37:22:014,-0.1484,-0.2515,9.9716,-0.0326,-0.0031,9.8066,0.0,-0.0028,-0.0011,-24.91,1.62,-16.63,184.31,10.26,-0.02
4777,52.1149,-1.940939,78,2.78,13.0,190.5,,13 / 25,477745,2019-08-16 11:37:22:114,-0.2832,0.0018,9.9888,-0.0503,-0.0107,9.8065,-0.0043,0.0004,0.0011,-24.71,2.14,-16.88,184.19,9.97,-0.06
4778,52.1149,-1.940939,78,2.78,13.0,190.5,,13 / 25,477845,2019-08-16 11:37:22:214,-0.1618,-0.0937,9.6317,-0.0152,0.0012,9.8066,-0.0043,0.0004,0.0011,-24.71,2.14,-16.88,184.19,9.97,-0.06
4779,52.1149,-1.940939,78,2.78,13.0,190.5,,13 / 25,477945,2019-08-16 11:37:22:314,-0.2687,0.1153,10.222,-0.0142,-0.0036,9.8066,-0.0032,-0.0028,-0.0064,-24.78,1.58,-16.83,184.18,9.88,-0.05
4780,52.1149,-1.940939,78,2.78,13.0,190.5,,13 / 25,478045,2019-08-16 11:37:22:414,-0.0401,-0.2187,9.9856,-0.0322,-0.0063,9.8066,0.0074,-0.005,0.0064,-24.43,1.55,-17.34,184.36,9.69,-0.07
4781,52.1149,-1.940939,78,2.78,13.0,190.5,,13 / 25,478145,2019-08-16 11:37:22:514,-0.3782,-0.0876,9.5456,-0.0175,-0.0012,9.8066,0.0031,-0.0018,0.0011,-24.43,1.55,-17.34,184.36,9.69,-0.07
4782,52.114887,-1.94095,77,2.14,13.0,190.4,,13 / 25,478246,2019-08-16 11:37:22:615,-0.3483,-0.0043,10.084,-0.0153,-0.0029,9.8066,0.0085,-0.0082,0.0075,-24.84,2.21,-16.68,184.23,9.47,-0.11
4783,52.114887,-1.94095,77,2.14,13.0,190.4,,13 / 25,478345,2019-08-16 11:37:22:714,-0.2582,-0.2836,10.0191,-0.0544,-0.0079,9.8065,-0.015,0.0099,-0.0085,-24.57,1.02,-17.18,182.17,9.14,-0.13
4784,52.114887,-1.94095,77,2.14,13.0,190.4,,13 / 25,478445,2019-08-16 11:37:22:814,-0.8746,-0.2137,9.8532,-0.0819,-0.0121,9.8063,-0.0011,-0.0018,-0.0032,-24.57,1.02,-17.18,182.17,9.14,-0.13
4785,52.114887,-1.94095,77,2.14,13.0,190.4,,13 / 25,478545,2019-08-16 11:37:22:914,-1.1218,0.0106,9.9896,-0.0596,-0.0072,9.8065,0.0053,-0.0337,0.0,-24.74,1.57,-16.9,184.31,8.66,-0.18
4786,52.114887,-1.94095,77,2.14,13.0,190.4,,13 / 25,478646,2019-08-16 11:37:23:015,-0.3867,0.108,9.4748,-0.0793,-0.0088,9.8063,0.0053,-0.0337,0.0,-24.45,2.12,-17.26,184.31,8.66,-0.18
4787,52.114887,-1.94095,77,2.14,13.0,190.4,,13 / 25,478745,2019-08-16 11:37:23:114,-0.7283,0.0433,10.1942,-0.1147,-0.0134,9.806,0.0031,0.0185,-0.0032,-24.45,2.12,-17.26,184.31,8.66,-0.18
4788,52.114887,-1.94095,77,2.14,13.0,190.4,,13 / 25,478845,2019-08-16 11:37:23:214,-0.5381,-0.0318,9.5104,-0.0479,-0.0105,9.8065,-0.0096,0.011,0.0011,-24.01,1.56,-17.92,184.5,7.99,-0.21
4789,52.114887,-1.94095,77,2.14,13.0,190.4,,13 / 25,478945,2019-08-16 11:37:23:314,-0.1639,-0.0517,10.0004,-0.1001,-0.0173,9.8061,0.0053,-0.0114,-0.0011,-24.47,1.56,-17.28,184.57,7.4,-0.26
4790,52.114887,-1.94095,77,2.14,13.0,190.4,,13 / 25,479045,2019-08-16 11:37:23:414,-0.1992,-0.2115,9.8636,-0.0331,-0.003,9.8066,0.0127,-0.006,0.0043,-24.47,1.56,-17.28,184.57,7.4,-0.26
4791,52.114887,-1.94095,77,2.14,13.0,190.4,,13 / 25,479145,2019-08-16 11:37:23:514,-0.2751,-0.0613,9.5991,-0.0599,-0.0102,9.8065,-0.0064,0.0131,0.0032,-23.69,1.54,-18.34,184.57,7.21,-0.27
4792,52.11492,-1.940921,76,0.0,13.0,190.2,,13 / 25,479245,2019-08-16 11:37:23:614,-0.2556,-0.0974,10.1801,-0.0292,0.0015,9.8066,0.0053,0.0078,0.0,-24.49,1.09,-17.29,182.41,6.85,-0.3
4793,52.11492,-1.940921,76,0.0,13.0,190.2,,13 / 25,479345,2019-08-16 11:37:23:714,-0.3205,-0.1739,9.3064,-0.0248,-0.0025,9.8066,0.0106,0.0121,-0.0064,-23.79,1.48,-18.21,182.4,6.68,-0.28
4794,52.11492,-1.940921,76,0.0,13.0,190.2,,13 / 25,479445,2019-08-16 11:37:23:814,0.0436,-0.1056,9.8466,-0.0476,-0.0072,9.8065,0.0106,0.0121,-0.0064,-24.37,1.06,-17.46,182.4,6.68,-0.28
4795,52.11492,-1.940921,76,0.0,13.0,190.2,,13 / 25,479546,2019-08-16 11:37:23:915,-0.0991,-0.0835,9.5276,-0.0783,-0.009,9.8063,0.0053,-0.0071,-0.0011,-24.07,2.04,-17.79,184.65,6.22,-0.32
4796,52.11492,-1.940921,76,0.0,13.0,190.2,,13 / 25,479645,2019-08-16 11:37:24:014,-0.1675,0.0994,9.9295,-0.0205,-0.0023,9.8066,0.0053,-0.0135,0.0011,-24.07,2.04,-17.79,184.65,6.22,-0.32
4797,52.11492,-1.940921,76,0.0,13.0,190.2,,13 / 25,479745,2019-08-16 11:37:24:114,-0.2999,0.0812,9.6654,-0.0211,-0.005,9.8066,0.0138,-0.0167,0.0,-24.18,1.07,-17.73,182.44,6.1,-0.32
4798,52.11492,-1.940921,76,0.0,13.0,190.2,,13 / 25,479845,2019-08-16 11:37:24:214,-0.0253,-0.0111,9.7483,-0.0408,-0.0057,9.8066,-0.015,0.0227,0.0032,-24.47,1.56,-17.28,182.44,6.1,-0.32
4799,52.11492,-1.940921,76,0.0,13.0,190.2,,13 / 25,479945,2019-08-16 11:37:24:314,-0.0477,0.0806,10.2021,-0.0547,0.0004,9.8065,-0.0256,0.0121,0.0032,-24.47,1.56,-17.28,184.67,5.78,-0.3
4800,52.11492,-1.940921,76,0.0,13.0,190.2,,13 / 25,480046,2019-08-16 11:37:24:415,-0.0433,-0.0342,9.7102,-0.0577,-0.0158,9.8065,-0.0022,0.0334,-0.0021,-25.36,2.66,-15.81,184.67,5.78,-0.3
4801,52.11492,-1.940921,76,0.0,13.0,190.0,,13 / 25,480145,2019-08-16 11:37:24:514,-0.2177,-0.0099,9.7989,-0.1229,-0.0308,9.8058,-0.015,0.0174,0.0032,-25.36,2.66,-15.81,184.67,5.78,-0.3
4802,52.11493,-1.940905,76,0.0,13.0,190.0,,13 / 25,480245,2019-08-16 11:37:24:614,-0.1314,0.0007,9.6969,0.0054,0.0033,9.8066,-0.015,0.0174,0.0032,-25.31,3.22,-15.78,186.76,5.05,-0.42
4803,52.11493,-1.940905,76,0.0,13.0,190.0,,13 / 25,480345,2019-08-16 11:37:24:714,-0.0506,0.1857,9.9664,-0.0182,-0.0131,9.8066,-0.0203,-0.021,0.0096,-25.07,2.63,-16.27,186.81,4.94,-0.49
4804,52.11493,-1.940905,76,0.0,13.0,190.0,,13 / 25,480445,2019-08-16 11:37:24:814,-0.2092,-0.1479,9.7786,-0.0045,-0.0061,9.8066,-0.0224,0.0078,0.0075,-25.07,2.63,-16.27,186.81,4.94,-0.49
4805,52.11493,-1.940905,76,0.0,13.0,190.0,,13 / 25,480545,2019-08-16 11:37:24:914,0.0861,-0.2758,9.8021,0.0031,-0.001,9.8067,-0.0118,-0.0412,0.0224,-24.77,2.6,-16.72,186.82,4.91,-0.52
4806,52.11493,-1.940905,76,0.0,13.0,190.0,,13 / 25,480645,2019-08-16 11:37:25:014,-0.1562,0.3408,9.8579,-0.021,0.0181,9.8066,0.001,0.0302,0.0032,-25.1,2.08,-16.29,184.67,4.92,-0.53
4807,52.11493,-1.940905,76,0.0,13.0,190.0,,13 / 25,480745,2019-08-16 11:37:25:114,0.2632,-0.1457,9.9468,-0.0106,-0.0073,9.8066,-0.0118,0.0195,-0.0011,-25.1,2.08,-16.29,184.67,4.92,-0.53
4808,52.11493,-1.940905,76,0.0,13.0,190.0,,13 / 25,480845,2019-08-16 11:37:25:214,-0.0934,0.0615,9.7759,-0.013,0.0026,9.8066,0.0575,-0.0273,-0.0064,-24.93,2.11,-16.55,184.7,4.86,-0.57
4809,52.11493,-1.940905,76,0.0,13.0,190.0,,13 / 25,480945,2019-08-16 11:37:25:314,0.2753,0.2865,9.9075,0.0178,0.0323,9.8066,0.0575,-0.0273,-0.0064,-24.4,1.52,-17.39,184.76,4.98,-0.39
4810,52.11493,-1.940905,76,0.0,13.0,189.8,,13 / 25,481045,2019-08-16 11:37:25:414,0.1001,0.0215,10.1019,-0.0287,-0.0276,9.8066,0.0511,-0.0465,0.0213,-24.4,1.52,-17.39,184.76,4.98,-0.39
4811,52.11493,-1.940905,76,0.0,13.0,189.8,,13 / 25,481145,2019-08-16 11:37:25:514,0.018,0.0265,10.0029,-0.05,0.0035,9.8065,-0.0384,0.0568,0.0032,-25.1,2.08,-16.29,184.68,4.8,-0.53
4812,52.11493,-1.940905,76,0.0,13.0,189.8,,13 / 25,481245,2019-08-16 11:37:25:614,-0.0176,0.0847,9.9559,-0.0211,0.0099,9.8066,0.0053,0.0472,0.0085,-24.73,3.14,-16.69,186.89,4.34,-0.57
4813,52.11493,-1.940905,76,0.0,13.0,189.8,,13 / 25,481345,2019-08-16 11:37:25:714,-0.0446,-0.1194,9.5351,-0.0377,0.011,9.8066,0.0031,-0.0391,0.0053,-24.73,3.14,-16.69,186.89,4.34,-0.57
4814,52.11493,-1.940905,76,0.0,13.0,189.8,,13 / 25,481445,2019-08-16 11:37:25:814,0.1093,0.0255,10.1062,0.0447,0.0067,9.8065,-0.0032,-0.0423,0.0298,-25.07,2.63,-16.27,186.85,4.13,-0.48
4815,52.11493,-1.940905,76,0.0,13.0,189.8,,13 / 25,481545,2019-08-16 11:37:25:914,0.1667,0.0086,9.6545,0.057,0.0063,9.8065,-0.0075,0.0174,0.0032,-25.23,2.14,-16.08,184.66,4.46,-0.48
4816,52.11493,-1.940905,76,0.0,13.0,189.8,,13 / 25,481645,2019-08-16 11:37:26:014,0.0616,-0.0323,10.1545,0.0013,0.0013,9.8066,-0.0075,0.0174,0.0032,-25.23,2.14,-16.08,184.66,4.46,-0.48
4817,52.11493,-1.940905,76,0.0,13.0,189.8,,13 / 25,481745,2019-08-16 11:37:26:114,0.1042,-0.2171,9.5155,-0.0039,0.0005,9.8066,0.0,-0.021,0.0011,-25.1,2.08,-16.29,184.66,4.47,-0.48
4818,52.11493,-1.940905,76,0.0,13.0,189.8,,13 / 25,481845,2019-08-16 11:37:26:214,0.2038,-0.0593,9.9116,-0.0084,-0.0022,9.8066,-0.0011,-0.0146,0.0032,-25.1,2.08,-16.29,184.66,4.47,-0.48
4819,52.11493,-1.940905,76,0.0,13.0,189.6,,13 / 25,481946,2019-08-16 11:37:26:315,0.0354,-0.1621,9.9082,-0.0104,-0.0034,9.8066,-0.0032,-0.0082,0.0021,-24.63,2.09,-17.0,184.68,4.41,-0.49
4820,52.11493,-1.940905,76,0.0,13.0,189.6,,13 / 25,482046,2019-08-16 11:37:26:415,0.0406,0.0878,9.6454,-0.004,0.0046,9.8066,-0.0192,0.0131,0.0064,-24.04,2.58,-17.77,187.09,4.39,-0.46
4821,52.11493,-1.940905,76,0.0,13.0,189.6,,13 / 25,482145,2019-08-16 11:37:26:514,0.1459,0.2032,9.9114,-0.0008,-0.0001,9.8067,0.0031,0.0089,-0.0021,-24.81,2.06,-16.74,187.09,4.39,-0.46
4822,52.11493,-1.940905,76,0.0,13.0,189.6,,13 / 25,482245,2019-08-16 11:37:26:614,0.1596,0.1919,9.9564,-0.0005,-0.0002,9.8067,0.0074,-0.0114,-0.0011,-24.81,2.06,-16.74,187.09,4.39,-0.46
4823,52.11493,-1.940905,76,0.0,13.0,189.6,,13 / 25,482345,2019-08-16 11:37:26:714,-0.002,0.1536,9.9329,-0.0031,-0.0027,9.8067,0.0074,-0.0114,-0.0011,-24.85,3.23,-16.49,186.83,4.37,-0.48
4824,52.11493,-1.940905,76,0.0,13.0,189.6,,13 / 25,482445,2019-08-16 11:37:26:814,0.0987,0.1589,9.6713,0.0,-0.0012,9.8067,-0.0171,0.0078,0.0043,-24.28,1.58,-17.55,184.85,4.37,-0.47
4825,52.11493,-1.940905,76,0.0,13.0,189.6,,13 / 25,482545,2019-08-16 11:37:26:914,0.0437,0.1562,9.9016,-0.0061,-0.004,9.8066,0.0106,0.0025,-0.0021,-23.83,2.07,-18.11,184.85,4.37,-0.47
4826,52.11493,-1.940905,76,0.0,13.0,189.6,,13 / 25,482645,2019-08-16 11:37:27:014,-0.285,0.105,10.0558,-0.0237,-0.0077,9.8066,0.0117,-0.0114,-0.0128,-23.83,2.07,-18.11,184.85,4.37,-0.47
4827,52.11493,-1.940905,76,0.0,13.0,189.6,,13 / 25,482746,2019-08-16 11:37:27:115,0.1661,-0.152,9.502,-0.0142,-0.0012,9.8066,-0.0139,-0.0018,0.0138,-25.4,2.11,-15.83,184.69,4.23,-0.5
4828,52.11493,-1.940905,76,0.0,13.0,189.6,,13 / 25,482846,2019-08-16 11:37:27:215,-0.3797,-0.0507,10.3251,-0.0448,-0.002,9.8065,0.0042,0.0185,0.0021,-25.4,2.11,-15.83,184.69,4.23,-0.5
4829,52.11493,-1.940905,76,0.0,13.0,189.4,,13 / 25,482945,2019-08-16 11:37:27:314,-0.113,-0.172,9.4186,-0.0192,-0.0006,9.8066,0.0074,-0.021,-0.0011,-25.07,2.63,-16.27,186.87,3.97,-0.49
4830,52.11493,-1.940905,76,0.0,13.0,189.4,,13 / 25,483045,2019-08-16 11:37:27:414,-0.0824,-0.1384,9.4395,-0.0427,-0.0057,9.8066,0.0,-0.0071,0.0032,-25.53,2.08,-15.62,184.53,3.71,-0.5
4831,52.11493,-1.940905,76,0.0,13.0,189.4,,13 / 25,483145,2019-08-16 11:37:27:514,-0.0545,-0.023,10.0106,-0.015,-0.0036,9.8066,0.0,-0.0071,0.0032,-25.36,2.1,-15.9,184.53,3.71,-0.5
4832,52.114937,-1.940888,76,0.0,13.0,189.4,,13 / 25,483245,2019-08-16 11:37:27:614,-0.1937,-0.128,9.8493,-0.0334,-0.0075,9.8066,0.001,0.011,-0.0021,-25.36,2.1,-15.9,184.53,3.71,-0.5
4833,52.114937,-1.940888,76,0.0,13.0,189.4,,13 / 25,483345,2019-08-16 11:37:27:714,-0.0058,-0.1528,9.5255,-0.0376,-0.0053,9.8066,0.0127,-0.006,0.0,-25.75,2.77,-15.15,186.66,3.52,-0.52
4834,52.114937,-1.940888,76,0.0,13.0,189.4,,13 / 25,483445,2019-08-16 11:37:27:814,-0.1307,-0.0025,10.0991,-0.0513,-0.005,9.8065,-0.0118,0.011,0.0064,-24.98,2.75,-16.39,186.66,3.52,-0.52
4835,52.114937,-1.940888,76,0.0,13.0,189.4,,13 / 25,483545,2019-08-16 11:37:27:914,-0.1206,-0.0966,9.6273,-0.0175,-0.0051,9.8066,0.0032,-0.0156,-0.0043,-25.7,3.34,-15.12,186.67,3.22,-0.52
4836,52.114937,-1.940888,76,0.0,13.0,189.4,,13 / 25,483645,2019-08-16 11:37:28:014,0.0639,-0.0259,9.7823,-0.0258,-0.0082,9.8066,-0.0011,0.0099,0.0021,-25.05,3.82,-16.06,189.14,3.06,-0.55
4837,52.114937,-1.940888,76,0.0,13.0,189.4,,13 / 25,483745,2019-08-16 11:37:28:114,-0.0906,-0.0167,9.9614,-0.0083,-0.0019,9.8066,0.0032,-0.021,-0.0021,-25.05,3.82,-16.06,189.14,3.06,-0.55
4838,52.114937,-1.940888,76,0.0,13.0,189.4,,13 / 25,483846,2019-08-16 11:37:28:215,0.0981,0.0282,9.959,-0.0112,-0.003,9.8066,0.0042,-0.0135,0.0032,-25.95,3.37,-14.68,186.7,3.01,-0.55
4839,52.114937,-1.940888,76,0.0,13.0,189.4,,13 / 25,483945,2019-08-16 11:37:28:314,-0.053,-0.0439,9.7748,-0.0145,-0.005,9.8066,0.0042,-0.0135,0.0032,-25.91,3.22,-14.77,186.72,2.92,-0.57
4840,52.114937,-1.940888,76,0.0,13.0,189.3,,13 / 25,484045,2019-08-16 11:37:28:414,0.1424,0.0368,9.6329,-0.0061,-0.0031,9.8066,-0.0086,0.011,0.0032,-25.91,3.22,-14.77,186.72,2.92,-0.57
4841,52.114937,-1.940888,76,0.0,13.0,189.3,,13 / 25,484145,2019-08-16 11:37:28:514,0.1703,-0.0004,9.5723,-0.011,-0.0044,9.8066,-0.0011,-0.0103,0.0,-25.9,3.37,-14.75,186.73,2.86,-0.59
4842,52.114937,-1.940888,76,0.0,13.0,189.3,,13 / 25,484245,2019-08-16 11:37:28:614,0.0552,0.0906,10.0321,-0.003,-0.0027,9.8066,0.0063,-0.0167,-0.0011,-25.61,3.33,-15.26,186.72,2.86,-0.57
4843,52.114937,-1.940888,76,0.0,13.0,189.3,,13 / 25,484345,2019-08-16 11:37:28:714,-0.0322,0.0955,10.1776,-0.0009,-0.001,9.8066,-0.0086,-0.0092,0.0011,-24.98,2.81,-16.38,186.99,2.86,-0.57
4844,52.114937,-1.940888,76,0.0,13.0,189.3,,13 / 25,484446,2019-08-16 11:37:28:815,0.1048,-0.058,9.6502,0.0021,-0.001,9.8066,0.0063,-0.022,0.0,-25.72,3.32,-15.08,186.99,2.86,-0.57
4845,52.114937,-1.940888,76,0.0,13.0,189.3,,13 / 25,484545,2019-08-16 11:37:28:914,0.1507,0.1591,9.9964,-0.0042,-0.0013,9.8066,0.0117,-0.0124,0.0032,-25.72,3.32,-15.08,186.99,2.86,-0.57
4846,52.114937,-1.940888,76,0.0,13.0,189.3,,13 / 25,484645,2019-08-16 11:37:29:014,0.1504,0.0898,9.5293,0.0003,0.0058,9.8066,0.0117,-0.0124,0.0032,-25.11,3.24,-16.09,187.0,2.83,-0.58
4847,52.114937,-1.940888,76,0.0,13.0,189.3,,13 / 25,484745,2019-08-16 11:37:29:114,-0.0009,0.1966,10.1386,-0.0045,0.0048,9.8066,-0.0086,-0.0007,0.0,-25.29,2.62,-15.93,186.98,2.81,-0.55
4848,52.114937,-1.940888,76,0.0,13.0,189.3,,13 / 25,484845,2019-08-16 11:37:29:214,0.1668,0.0493,9.5544,-0.0004,-0.0003,9.8067,-0.0054,-0.0167,0.0,-25.29,2.62,-15.93,186.98,2.81,-0.55
4849,52.114937,-1.940888,76,0.0,13.0,189.3,,13 / 25,484945,2019-08-16 11:37:29:314,0.4303,0.0692,9.7007,0.0139,-0.0002,9.8066,0.0095,-0.021,0.0,-25.07,2.66,-16.25,186.98,2.8,-0.55
4850,52.114937,-1.940888,76,0.0,13.0,189.3,,13 / 25,485045,2019-08-16 11:37:29:414,0.3247,0.0073,10.0792,0.0413,0.0029,9.8066,0.0032,-0.006,0.0053,-24.95,2.59,-16.46,186.97,3.05,-0.56
4851,52.114937,-1.940888,76,0.0,13.0,189.2,,13 / 25,485145,2019-08-16 11:37:29:514,0.5838,-0.0372,9.5643,0.0663,0.013,9.8064,-0.0086,0.011,0.0053,-24.72,3.19,-16.69,186.97,3.05,-0.56
4852,52.114937,-1.94088,78,0.0,13.0,189.2,,13 / 25,485245,2019-08-16 11:37:29:614,0.6572,0.0978,9.9207,0.1006,0.0213,9.8061,-0.0011,0.0099,-0.0021,-24.72,3.19,-16.69,186.97,3.05,-0.56
4853,52.114937,-1.94088,78,0.0,13.0,189.2,,13 / 25,485345,2019-08-16 11:37:29:714,0.359,-0.0244,9.7012,0.039,0.0085,9.8066,0.001,-0.022,-0.0011,-25.03,2.65,-16.32,186.9,3.65,-0.51
4854,52.114937,-1.94088,78,0.0,13.0,189.2,,13 / 25,485446,2019-08-16 11:37:29:815,0.5582,0.0705,9.771,0.0368,0.0041,9.8066,0.001,-0.0135,-0.0011,-23.92,2.72,-17.9,187.14,3.88,-0.49
4855,52.114937,-1.94088,78,0.0,13.0,189.2,,13 / 25,485545,2019-08-16 11:37:29:914,0.6022,0.1343,9.8889,0.0791,0.0074,9.8063,0.001,-0.0135,-0.0011,-23.92,2.72,-17.9,187.14,3.88,-0.49
4856,52.114937,-1.94088,78,0.0,13.0,189.2,,13 / 25,485645,2019-08-16 11:37:30:014,0.3236,-0.017,10.0723,0.0395,0.0029,9.8066,-0.0022,0.0089,0.0021,-23.44,2.18,-18.59,185.08,4.34,-0.5
4857,52.114937,-1.94088,78,0.0,13.0,189.2,,13 / 25,485746,2019-08-16 11:37:30:115,0.4235,-0.0299,9.6874,0.0681,0.0036,9.8064,0.0117,-0.0274,0.0,-23.71,2.21,-18.25,185.08,4.34,-0.5
4858,52.114937,-1.94088,78,0.0,13.0,189.2,,13 / 25,485845,2019-08-16 11:37:30:214,0.4695,0.1492,9.9492,0.0948,0.0079,9.8062,0.001,-0.0039,0.0032,-23.9,3.25,-17.83,187.08,4.9,-0.5
4859,52.114937,-1.94088,78,0.0,13.0,189.2,,13 / 25,485945,2019-08-16 11:37:30:314,0.2196,0.0581,9.813,0.0253,0.0069,9.8066,0.0053,0.0142,-0.0043,-23.32,2.72,-18.68,187.08,4.9,-0.5
4860,52.114937,-1.94088,78,0.0,13.0,188.1,,13 / 25,486045,2019-08-16 11:37:30:414,0.3639,0.1444,9.7713,0.049,0.0118,9.8065,-0.0064,0.0206,0.0032,-23.32,2.72,-18.68,187.08,4.9,-0.5
4861,52.114937,-1.94088,78,0.0,13.0,188.1,,13 / 25,486145,2019-08-16 11:37:30:514,0.229,0.0532,10.055,0.0679,0.0133,9.8064,0.0,-0.0103,-0.0021,-23.56,2.14,-18.44,184.81,5.3,-0.48
4862,52.114952,-1.940863,78,0.0,13.0,188.1,,14 / 25,486245,2019-08-16 11:37:30:614,0.2427,0.0095,9.6217,0.0194,0.0009,9.8066,0.0085,0.0025,0.0,-23.5,3.13,-18.39,187.3,5.41,-0.48
4863,52.114952,-1.940863,78,0.0,13.0,188.1,,14 / 25,486345,2019-08-16 11:37:30:714,0.2341,0.1351,10.0238,0.0323,0.0074,9.8066,-0.0086,0.0163,0.0011,-23.5,3.13,-18.39,187.3,5.41,-0.48
4864,52.114952,-1.940863,78,0.0,13.0,188.1,,14 / 25,486445,2019-08-16 11:37:30:814,0.1855,-0.0346,9.8301,0.0143,0.0038,9.8066,-0.0075,-0.0039,0.0011,-23.41,2.14,-18.64,184.97,5.61,-0.46
4865,52.114952,-1.940863,78,0.0,13.0,188.1,,14 / 25,486545,2019-08-16 11:37:30:914,0.28,-0.0449,9.8163,0.0267,0.0042,9.8066,-0.0075,-0.0039,0.0011,-23.45,2.58,-18.53,187.24,5.76,-0.45
4866,52.114952,-1.940863,78,0.0,13.0,188.1,,14 / 25,486645,2019-08-16 11:37:31:014,0.1247,-0.1221,10.0038,-0.002,-0.0029,9.8067,-0.0107,-0.0178,0.0021,-23.45,2.58,-18.53,187.24,5.76,-0.45
4867,52.114952,-1.940863,78,0.0,13.0,188.1,,14 / 25,486745,2019-08-16 11:37:31:114,-0.1004,-0.1083,9.6719,-0.0246,-0.0036,9.8066,-0.0043,0.0227,-0.0032,-24.06,2.65,-17.72,186.98,5.75,-0.47
4868,52.114952,-1.940863,78,0.0,13.0,188.1,,14 / 25,486845,2019-08-16 11:37:31:214,-0.201,-0.2003,9.4584,-0.0487,-0.0041,9.8065,0.0063,0.0131,0.0,-24.08,3.28,-17.59,187.0,5.46,-0.46
4869,52.114952,-1.940863,78,0.0,13.0,188.1,,14 / 25,486946,2019-08-16 11:37:31:315,-0.0574,-0.061,9.8115,-0.013,-0.0014,9.8066,-0.0118,-0.0146,0.0032,-24.08,3.28,-17.59,187.0,5.46,-0.46
4870,52.114952,-1.940863,78,0.0,13.0,188.1,,14 / 25,487046,2019-08-16 11:37:31:415,-0.2781,-0.1298,9.9654,-0.0078,-0.0023,9.8066,0.0117,-0.0167,-0.0032,-24.47,3.18,-17.07,187.01,5.39,-0.45
4871,52.114952,-1.940863,78,0.0,13.0,188.1,,14 / 25,487145,2019-08-16 11:37:31:514,-0.0647,-0.0375,9.6666,-0.0215,-0.0086,9.8066,0.0042,0.0003,-0.0011,-24.67,3.76,-16.65,187.01,5.39,-0.45
4872,52.114952,-1.940863,78,0.0,13.0,188.1,,14 / 25,487246,2019-08-16 11:37:31:615,-0.1002,-0.0581,10.0046,-0.0086,-0.0023,9.8066,-0.0182,-0.0061,0.0053,-23.55,3.27,-18.3,187.05,5.2,-0.51
4873,52.114952,-1.940863,78,0.0,13.0,188.0,,14 / 25,487345,2019-08-16 11:37:31:714,-0.088,-0.1241,9.6334,-0.0205,-0.0058,9.8066,0.0063,-0.0231,-0.0011,-23.89,3.18,-17.87,187.05,5.2,-0.51
4874,52.114952,-1.940863,78,0.0,13.0,188.0,,14 / 25,487446,2019-08-16 11:37:31:815,0.107,-0.0534,9.5984,-0.0044,0.0007,9.8066,0.0063,-0.0231,-0.0011,-24.49,3.26,-17.01,187.08,5.07,-0.53
4875,52.114952,-1.940863,78,0.0,13.0,188.0,,14 / 25,487546,2019-08-16 11:37:31:915,0.0594,-0.0433,10.0566,0.0028,0.0,9.8067,0.0032,-0.0124,0.0032,-23.72,2.67,-18.17,187.08,5.07,-0.53
4876,52.114952,-1.940863,78,0.0,13.0,188.0,,14 / 25,487646,2019-08-16 11:37:32:015,0.2279,-0.0171,9.6353,0.0231,-0.0002,9.8066,0.0021,0.0142,0.0011,-23.72,2.67,-18.17,187.08,5.07,-0.53
4877,52.114952,-1.940863,78,0.0,13.0,188.0,,14 / 25,487746,2019-08-16 11:37:32:115,0.0582,-0.062,10.0274,0.015,0.0015,9.8066,-0.015,0.0195,0.0021,-23.89,3.09,-17.88,187.08,5.21,-0.54
4878,52.114952,-1.940863,78,0.0,13.0,188.0,,14 / 25,487845,2019-08-16 11:37:32:214,0.1866,-0.0374,9.7066,0.0245,0.0003,9.8066,0.0053,-0.0103,-0.0011,-24.12,2.59,-17.64,187.08,5.21,-0.54
4879,52.114952,-1.940863,78,0.0,13.0,188.0,,14 / 25,487946,2019-08-16 11:37:32:315,0.2243,0.0625,10.0263,0.0337,-0.0006,9.8066,-0.0128,0.0035,0.0021,-23.15,3.12,-18.82,187.36,5.4,-0.57
4880,52.114952,-1.940863,78,0.0,13.0,188.0,,14 / 25,488045,2019-08-16 11:37:32:414,0.2832,0.0393,9.695,0.0147,0.0043,9.8066,-0.0054,-0.0093,0.0021,-23.15,3.12,-18.82,187.36,5.4,-0.57
4881,52.114952,-1.940863,78,0.0,13.0,188.0,,14 / 25,488145,2019-08-16 11:37:32:514,0.1336,-0.0072,10.0566,0.0248,0.0058,9.8066,0.0,-0.0124,0.0011,-24.35,3.07,-17.26,187.07,5.55,-0.56
4882,52.114952,-1.940863,78,0.0,13.0,188.0,,14 / 25,488245,2019-08-16 11:37:32:614,0.1441,-0.0788,9.737,0.0247,0.0035,9.8066,0.0,-0.0124,0.0011,-24.15,3.12,-17.52,187.07,5.55,-0.56
4883,52.114952,-1.940863,78,0.0,13.0,188.0,,14 / 25,488345,2019-08-16 11:37:32:714,0.2718,0.0704,9.9262,0.032,0.0043,9.8066,-0.0022,0.0216,-0.0011,-23.06,3.04,-18.94,187.32,5.74,-0.56
4884,52.114952,-1.940863,78,0.0,13.0,188.0,,14 / 25,488445,2019-08-16 11:37:32:814,0.0091,-0.0514,9.9498,0.009,0.0034,9.8066,-0.0086,0.0025,0.0032,-23.06,3.04,-18.94,187.32,5.74,-0.56
4885,52.114952,-1.940863,78,0.0,13.0,188.0,,14 / 25,488546,2019-08-16 11:37:32:915,0.1255,0.0741,9.6448,0.0065,0.0024,9.8066,0.0021,-0.0093,0.0,-24.07,2.04,-17.79,184.83,5.79,-0.54
4886,52.114952,-1.940863,78,0.0,13.0,188.0,,14 / 25,488645,2019-08-16 11:37:33:014,0.0832,0.1155,10.0896,0.0059,-0.0021,9.8066,0.0063,-0.022,0.0,-24.3,3.07,-17.32,187.03,5.83,-0.53
4887,52.114952,-1.940863,78,0.0,13.0,187.9,,14 / 25,488746,2019-08-16 11:37:33:115,-0.0112,0.026,9.8733,0.0153,-0.0022,9.8066,-0.0107,-0.0029,0.0032,-24.3,3.07,-17.32,187.03,5.83,-0.53
4888,52.114952,-1.940863,78,0.0,13.0,187.9,,14 / 25,488846,2019-08-16 11:37:33:215,0.1429,0.1364,9.7069,0.0047,-0.0001,9.8066,0.001,0.0089,0.0,-23.94,3.15,-17.8,187.03,5.92,-0.55
4889,52.114952,-1.940863,78,0.0,13.0,187.9,,14 / 25,488945,2019-08-16 11:37:33:314,-0.0606,0.0699,9.7185,0.0093,0.0002,9.8066,0.0106,-0.0093,-0.0011,-24.2,2.57,-17.55,187.03,5.92,-0.55
4890,52.114952,-1.940863,78,0.0,13.0,187.9,,14 / 25,489047,2019-08-16 11:37:33:416,0.0536,0.1217,9.9036,0.0156,0.0044,9.8066,0.0,-0.0114,0.0011,-24.25,3.19,-17.36,187.02,6.01,-0.54
4891,52.114952,-1.940863,78,0.0,13.0,187.9,,14 / 25,489146,2019-08-16 11:37:33:515,-0.0716,-0.1036,9.8637,0.0082,0.001,9.8066,0.0,-0.0114,0.0011,-24.25,3.19,-17.36,187.02,6.01,-0.54
4892,52.114952,-1.940863,78,0.0,13.0,187.9,,14 / 25,489245,2019-08-16 11:37:33:614,0.0322,-0.1251,9.7031,0.0058,-0.0004,9.8066,-0.0032,0.0078,0.0021,-23.59,2.5,-18.37,187.01,6.06,-0.54
4893,52.114952,-1.940863,78,0.0,13.0,187.9,,14 / 25,489345,2019-08-16 11:37:33:714,-0.036,-0.0206,9.9827,-0.0003,0.0,9.8066,0.0053,-0.0135,0.0011,-23.06,3.04,-18.94,187.01,6.06,-0.54
4894,52.114952,-1.940863,78,0.0,13.0,187.9,,14 / 25,489445,2019-08-16 11:37:33:814,-0.2338,-0.2012,9.7395,-0.0177,-0.0008,9.8066,-0.0128,0.0184,0.0075,-24.2,2.57,-17.55,187.02,5.96,-0.53
4895,52.114952,-1.940863,78,0.0,13.0,187.9,,14 / 25,489546,2019-08-16 11:37:33:915,-0.2755,-0.115,10.0895,-0.0228,-0.0045,9.8066,0.0032,-0.0114,-0.0021,-24.69,2.56,-16.85,186.78,5.82,-0.54
4896,52.114952,-1.940863,78,0.0,13.0,187.9,,14 / 25,489645,2019-08-16 11:37:34:014,-0.0939,-0.1005,10.0676,-0.0065,0.0013,9.8066,0.0106,-0.021,-0.0011,-24.69,2.56,-16.85,186.78,5.82,-0.54
4897,52.114952,-1.940863,78,0.0,13.0,187.9,,14 / 25,489745,2019-08-16 11:37:34:114,0.008,-0.0228,9.798,0.0007,0.0011,9.8066,-0.015,-0.0018,0.0032,-23.41,2.53,-18.59,187.3,5.79,-0.53
4898,52.114952,-1.940863,78,0.0,13.0,187.8,,14 / 25,489845,2019-08-16 11:37:34:214,-0.15,-0.1761,10.0056,-0.0047,-0.0006,9.8066,0.0042,0.0078,-0.0032,-24.35,3.07,-17.26,187.04,5.76,-0.53
4899,52.114952,-1.940863,78,0.0,13.0,187.8,,14 / 25,489945,2019-08-16 11:37:34:314,-0.027,0.0023,9.749,-0.0108,-0.0029,9.8066,0.0042,0.0078,-0.0032,-24.13,2.51,-17.65,187.04,5.76,-0.53
4900,52.114952,-1.940863,78,0.0,13.0,187.8,,14 / 25,490045,2019-08-16 11:37:34:414,-0.2661,-0.155,10.0079,-0.0069,-0.0011,9.8066,0.0106,0.0003,-0.0021,-24.05,3.04,-17.68,187.05,5.62,-0.54
4901,52.114952,-1.940863,78,0.0,13.0,187.8,,14 / 25,490145,2019-08-16 11:37:34:514,-0.0744,-0.1424,9.5858,-0.0066,0.0023,9.8066,-0.0171,0.011,0.0043,-24.05,3.04,-17.68,187.05,5.62,-0.54
4902,52.114952,-1.940863,78,0.0,13.0,187.8,,14 / 25,490245,2019-08-16 11:37:34:614,0.026,-0.0643,9.8833,-0.0054,-0.002,9.8066,-0.0022,0.0089,-0.0011,-24.2,2.57,-17.55,187.04,5.58,-0.52
4903,52.114952,-1.940863,78,0.0,13.0,187.8,,14 / 25,490345,2019-08-16 11:37:34:714,-0.0013,-0.0552,9.6984,-0.012,-0.0029,9.8066,0.0,-0.0071,0.0,-23.72,2.57,-18.19,187.04,5.58,-0.52
4904,52.114952,-1.940863,78,0.0,13.0,187.8,,14 / 25,490445,2019-08-16 11:37:34:814,-0.1118,-0.0237,10.1183,-0.0191,-0.0055,9.8066,-0.0139,0.0099,0.0032,-23.72,2.57,-18.19,187.04,5.58,-0.52
4905,52.114952,-1.940863,78,0.0,13.0,187.8,,14 / 25,490545,2019-08-16 11:37:34:914,0.052,-0.0677,9.7576,-0.0055,-0.0019,9.8066,0.0053,0.0078,-0.0032,-23.93,2.63,-17.9,187.06,5.47,-0.54
4906,52.114952,-1.940863,78,0.0,13.0,187.8,,14 / 25,490645,2019-08-16 11:37:35:014,-0.1051,-0.0422,10.1639,-0.0071,-0.0025,9.8066,-0.0011,0.0003,0.0021,-24.19,2.66,-17.54,187.07,5.43,-0.55
4907,52.114952,-1.940863,78,0.0,13.0,187.8,,14 / 25,490745,2019-08-16 11:37:35:114,-0.0163,-0.025,9.7247,-0.0047,-0.002,9.8066,-0.0011,0.0003,0.0021,-23.93,2.63,-17.9,187.07,5.43,-0.55
4908,52.114952,-1.940863,78,0.0,13.0,187.8,,14 / 25,490845,2019-08-16 11:37:35:214,0.0464,0.0587,9.974,-0.0104,-0.0045,9.8066,-0.0128,0.0014,0.0043,-23.62,2.6,-18.31,187.09,5.36,-0.57
4909,52.114952,-1.940863,78,0.0,13.0,187.8,,14 / 25,490945,2019-08-16 11:37:35:314,0.0135,-0.0506,9.7045,-0.0013,-0.001,9.8067,0.0042,0.0089,-0.0032,-23.62,2.6,-18.31,187.09,5.36,-0.57
4910,52.114952,-1.940863,78,0.0,13.0,187.8,,14 / 25,491045,2019-08-16 11:37:35:414,-0.1295,-0.0103,9.9279,-0.0033,0.0002,9.8066,0.0106,-0.0188,0.0011,-23.89,3.09,-17.88,187.09,5.35,-0.57
4911,52.114952,-1.940863,78,0.0,13.0,187.8,,14 / 25,491145,2019-08-16 11:37:35:514,-0.0199,0.0207,9.7252,-0.0084,0.0008,9.8066,-0.0182,0.0195,0.0043,-24.42,2.63,-17.22,187.09,5.35,-0.57
4912,52.11495,-1.940857,78,0.0,12.0,187.7,,14 / 25,491245,2019-08-16 11:37:35:614,-0.0304,0.0282,10.0397,-0.0038,0.0005,9.8066,0.0021,0.0014,-0.0021,-24.27,2.11,-17.51,184.87,5.28,-0.56
4913,52.11495,-1.940857,78,0.0,12.0,187.7,,14 / 25,491346,2019-08-16 11:37:35:715,-0.2639,-0.0217,9.7536,-0.0179,0.0002,9.8066,0.0063,0.0046,0.0053,-23.93,2.63,-17.9,184.87,5.28,-0.56
4914,52.11495,-1.940857,78,0.0,12.0,187.7,,14 / 25,491445,2019-08-16 11:37:35:814,-0.1665,-0.0464,9.6667,-0.0278,-0.0058,9.8066,-0.0128,0.0365,0.0043,-24.28,2.67,-17.42,187.09,5.18,-0.55
4915,52.11495,-1.940857,78,0.0,12.0,187.7,,14 / 25,491545,2019-08-16 11:37:35:914,-0.5302,-0.0538,10.2466,-0.0669,-0.0134,9.8064,-0.0128,0.0365,0.0043,-24.28,2.67,-17.42,187.14,4.78,-0.58
4916,52.11495,-1.940857,78,0.0,12.0,187.7,,14 / 25,491645,2019-08-16 11:37:36:014,-0.4093,-0.139,9.4634,-0.0378,-0.005,9.8066,-0.0022,-0.0135,0.0011,-24.28,2.67,-17.42,187.14,4.78,-0.58
4917,52.11495,-1.940857,78,0.0,12.0,187.7,,14 / 25,491745,2019-08-16 11:37:36:114,-0.2112,0.0467,10.0822,-0.0218,-0.0056,9.8066,-0.0011,0.027,0.0021,-23.46,2.64,-18.51,187.45,4.56,-0.58
4918,52.11495,-1.940857,78,0.0,12.0,187.7,,14 / 25,491845,2019-08-16 11:37:36:214,-0.4639,0.0119,9.9876,-0.0506,-0.0088,9.8065,-0.0086,0.0057,-0.0011,-24.5,2.08,-17.19,187.45,4.56,-0.58
4919,52.11495,-1.940857,78,0.0,12.0,187.7,,14 / 25,491946,2019-08-16 11:37:36:315,-0.294,0.1059,10.0819,-0.0723,-0.0104,9.8064,0.0032,-0.0114,-0.0032,-24.59,1.47,-17.12,182.57,4.13,-0.59
4920,52.11495,-1.940857,78,0.0,12.0,187.7,,14 / 25,492045,2019-08-16 11:37:36:414,-0.2572,-0.0331,9.7159,-0.0231,-0.0022,9.8066,-0.0011,0.0088,0.0021,-24.47,2.63,-17.16,187.21,4.0,-0.6
4921,52.11495,-1.940857,78,0.0,12.0,187.7,,14 / 25,492145,2019-08-16 11:37:36:514,-0.0929,0.0218,9.971,-0.0211,-0.0104,9.8066,-0.0128,0.0131,0.0011,-24.47,2.63,-17.16,187.21,4.0,-0.6
4922,52.11495,-1.940857,78,0.0,12.0,187.7,,14 / 25,492245,2019-08-16 11:37:36:614,-0.0972,-0.0797,9.6636,-0.0044,-0.0015,9.8066,0.001,0.0003,-0.0032,-24.13,3.14,-17.55,187.25,3.87,-0.64
4923,52.11495,-1.940857,78,0.0,12.0,187.7,,14 / 25,492345,2019-08-16 11:37:36:714,-0.0118,0.0277,9.8096,-0.0081,-0.0003,9.8066,0.001,0.0003,-0.0032,-24.35,2.56,-17.33,187.25,3.84,-0.65
4924,52.11495,-1.940857,78,0.0,12.0,187.9,,14 / 25,492445,2019-08-16 11:37:36:814,-0.1123,-0.0784,10.057,-0.0156,-0.0039,9.8066,0.0032,-0.0039,0.0011,-24.35,2.56,-17.33,187.25,3.84,-0.65
4925,52.11495,-1.940857,78,0.0,12.0,187.9,,14 / 25,492545,2019-08-16 11:37:36:914,0.0584,-0.1597,9.5856,-0.002,-0.0016,9.8066,-0.0128,0.0163,0.0064,-24.37,3.72,-17.09,189.5,3.75,-0.66
4926,52.11495,-1.940857,78,0.0,12.0,187.9,,14 / 25,492645,2019-08-16 11:37:37:014,0.1432,0.0045,9.9196,-0.0024,0.0006,9.8067,0.0042,0.0142,-0.0021,-23.87,2.57,-17.99,187.28,3.73,-0.66
4927,52.11495,-1.940857,78,0.0,12.0,187.9,,14 / 25,492745,2019-08-16 11:37:37:114,0.0586,-0.0513,9.6133,-0.0061,0.0022,9.8066,0.0032,-0.0061,-0.0064,-23.61,2.54,-18.33,187.27,3.7,-0.65
4928,52.11495,-1.940857,78,0.0,12.0,187.9,,14 / 25,492845,2019-08-16 11:37:37:214,-0.3501,-0.0356,10.127,-0.0152,-0.001,9.8066,-0.0128,0.0333,0.0053,-23.61,2.54,-18.33,187.27,3.7,-0.65
4929,52.11495,-1.940857,78,0.0,12.0,187.9,,14 / 25,492945,2019-08-16 11:37:37:314,-0.0131,-0.1185,9.5952,-0.0044,-0.0025,9.8066,-0.0043,0.0238,-0.0032,-23.87,3.1,-17.9,187.29,3.45,-0.64
4930,52.11495,-1.940857,78,0.0,12.0,187.9,,14 / 25,493045,2019-08-16 11:37:37:414,0.0451,-0.0553,9.6702,-0.0121,-0.0042,9.8066,0.0064,-0.0189,-0.0021,-23.87,3.1,-17.9,187.29,3.45,-0.64
4931,52.11495,-1.940857,78,0.0,12.0,187.9,,14 / 25,493146,2019-08-16 11:37:37:515,-0.243,-0.0062,10.1269,-0.0148,-0.0044,9.8066,-0.0022,-0.0167,0.0,-23.1,2.54,-18.97,187.61,3.38,-0.66
4932,52.11495,-1.940857,78,0.0,12.0,187.9,,14 / 25,493245,2019-08-16 11:37:37:614,0.01,-0.1098,9.4935,-0.0244,-0.0057,9.8066,0.0053,0.0025,0.0032,-23.15,2.55,-18.91,187.61,3.38,-0.66
4933,52.11495,-1.940857,78,0.0,12.0,187.9,,14 / 25,493345,2019-08-16 11:37:37:714,-0.2606,-0.0213,9.8926,-0.0362,-0.006,9.8066,0.0053,0.0025,0.0032,-23.15,2.55,-18.91,187.61,3.38,-0.66
4934,52.11495,-1.940857,78,0.0,12.0,187.9,,14 / 25,493446,2019-08-16 11:37:37:815,-0.2141,-0.0837,9.8398,-0.0114,-0.0036,9.8066,-0.0032,0.027,0.0011,-23.69,2.02,-18.3,185.06,3.16,-0.66
4935,52.11495,-1.940857,78,0.0,12.0,187.9,,14 / 25,493545,2019-08-16 11:37:37:914,-0.0755,0.0264,10.1496,-0.0171,-0.0055,9.8066,0.001,-0.0093,-0.0032,-23.74,2.07,-18.22,185.08,3.06,-0.69
4936,52.11495,-1.940857,78,0.0,12.0,187.9,,14 / 25,493645,2019-08-16 11:37:38:014,0.0714,0.0162,9.6289,-0.0088,-0.0053,9.8066,-0.0011,0.0088,0.0021,-24.06,3.06,-17.65,185.08,3.06,-0.69
4937,52.11495,-1.940857,78,0.0,12.0,187.9,,14 / 25,493745,2019-08-16 11:37:38:114,0.0988,0.0874,9.9374,-0.0138,-0.0081,9.8066,0.0021,0.0099,0.0021,-24.02,2.64,-17.78,187.39,2.98,-0.73
4938,52.11495,-1.940857,78,0.0,12.0,187.9,,14 / 25,493845,2019-08-16 11:37:38:214,-0.1308,0.0257,9.9289,-0.0006,0.0014,9.8067,-0.0011,-0.0007,-0.0011,-24.02,2.64,-17.78,187.39,2.98,-0.73
4939,52.11495,-1.940857,78,0.0,12.0,187.9,,14 / 25,493945,2019-08-16 11:37:38:314,0.1441,0.0458,9.5807,-0.0014,0.0004,9.8067,-0.0043,-0.0199,0.0021,-23.87,3.1,-17.9,187.39,2.94,-0.72
4940,52.11495,-1.940857,78,0.0,12.0,187.9,,14 / 25,494045,2019-08-16 11:37:38:414,0.0685,0.0787,10.0093,0.0025,0.0019,9.8067,0.0117,-0.0135,-0.0011,-24.4,2.57,-17.27,187.37,2.93,-0.72
4941,52.11495,-1.940857,78,0.0,12.0,187.9,,14 / 25,494145,2019-08-16 11:37:38:514,0.1216,0.0708,9.8834,-0.0032,0.0007,9.8067,0.0117,-0.0135,-0.0011,-24.4,2.57,-17.27,187.37,2.93,-0.72
4942,52.114967,-1.940815,78,0.56,12.0,187.9,,13 / 25,494246,2019-08-16 11:37:38:615,0.0108,0.1029,10.1468,0.0015,0.0012,9.8067,0.0021,0.0035,0.0032,-23.59,3.28,-18.24,187.38,2.91,-0.71
4943,52.114967,-1.940815,78,0.56,12.0,187.9,,13 / 25,494345,2019-08-16 11:37:38:714,-0.0107,0.0578,10.0331,0.0002,0.0008,9.8067,-0.0022,-0.0146,0.0064,-23.71,2.61,-18.19,187.38,2.92,-0.71
4944,52.114967,-1.940815,78,0.56,12.0,187.9,,13 / 25,494445,2019-08-16 11:37:38:814,-0.0201,-0.0843,9.7856,-0.0016,0.0007,9.8066,0.0074,0.0238,0.0,-23.19,3.16,-18.76,187.38,2.92,-0.71
4945,52.114967,-1.940815,78,0.56,12.0,187.9,,13 / 25,494545,2019-08-16 11:37:38:914,0.062,-0.0388,9.7129,-0.0023,0.0019,9.8066,0.0021,0.0067,-0.0011,-23.15,3.7,-18.72,190.02,2.91,-0.69
4946,52.114967,-1.940815,78,0.56,12.0,187.9,,13 / 25,494645,2019-08-16 11:37:39:014,0.0031,0.0778,10.0272,-0.001,0.0025,9.8067,-0.0022,-0.0103,0.0075,-23.15,3.7,-18.72,190.02,2.91,-0.69
4947,52.114967,-1.940815,78,0.56,12.0,187.9,,13 / 25,494745,2019-08-16 11:37:39:114,0.0648,-0.0937,9.6029,-0.004,0.0013,9.8066,-0.0022,0.0163,0.0011,-23.11,3.07,-18.88,187.67,2.91,-0.68
4948,52.114967,-1.940815,78,0.56,12.0,187.9,,13 / 25,494845,2019-08-16 11:37:39:214,0.2067,-0.1086,9.6533,-0.0032,0.0018,9.8066,-0.0011,0.0035,-0.0011,-23.41,3.11,-18.5,187.67,2.91,-0.68
4949,52.114967,-1.940815,78,0.56,12.0,187.9,,13 / 25,494945,2019-08-16 11:37:39:314,0.0382,-0.0613,10.1056,0.002,-0.0042,9.8066,-0.0011,0.0035,-0.0011,-23.24,2.62,-18.8,187.68,2.89,-0.68
4950,52.114967,-1.940815,78,0.56,12.0,187.9,,13 / 25,495045,2019-08-16 11:37:39:414,0.1463,-0.0786,9.6418,0.0056,0.0039,9.8066,-0.0064,-0.0274,0.0021,-23.36,3.64,-18.46,190.03,2.9,-0.71
4951,52.114967,-1.940815,78,0.56,12.0,187.9,,13 / 25,495145,2019-08-16 11:37:39:514,0.137,0.0977,9.9714,0.0066,0.0058,9.8066,0.0159,-0.0167,-0.0043,-23.36,3.64,-18.46,190.03,2.9,-0.71
4952,52.114895,-1.940832,80,0.88,11.0,187.9,,Dec-24,495245,2019-08-16 11:37:39:614,0.1375,0.0749,9.9215,0.0013,-0.0013,9.8066,0.0085,0.0056,-0.0032,-23.71,3.15,-18.1,187.36,2.94,-0.68
4953,52.114895,-1.940832,80,0.88,11.0,187.9,,Dec-24,495346,2019-08-16 11:37:39:715,-0.0586,-0.0387,9.8596,0.0076,0.0,9.8066,0.001,0.0142,0.0021,-23.41,3.11,-18.5,187.67,2.99,-0.68
4954,52.114895,-1.940832,80,0.88,11.0,187.9,,Dec-24,495446,2019-08-16 11:37:39:815,0.2294,-0.0141,9.6747,-0.0028,-0.004,9.8066,0.0085,-0.0082,-0.0032,-23.41,3.11,-18.5,187.67,2.99,-0.68
4955,52.114895,-1.940832,80,0.88,11.0,187.9,,Dec-24,495546,2019-08-16 11:37:39:915,0.1093,0.0258,10.1245,0.0045,-0.0016,9.8066,0.0085,-0.0082,-0.0032,-23.41,3.11,-18.5,187.69,2.97,-0.71
4956,52.114895,-1.940832,80,0.88,11.0,187.9,,Dec-24,495645,2019-08-16 11:37:40:014,0.0459,-0.0687,9.7636,0.0067,-0.0033,9.8066,-0.0022,-0.0082,0.0011,-23.24,2.62,-18.8,187.69,2.97,-0.71
4957,52.114895,-1.940832,80,0.88,11.0,187.9,,Dec-24,495745,2019-08-16 11:37:40:114,0.2305,0.0406,9.6811,0.0086,-0.0014,9.8066,0.0085,-0.0018,-0.0021,-23.45,2.58,-18.53,187.7,3.02,-0.72
4958,52.114895,-1.940832,80,0.88,11.0,187.9,,Dec-24,495845,2019-08-16 11:37:40:214,0.012,0.1753,10.1405,-0.0004,0.0032,9.8067,0.0127,-0.0242,0.0021,-23.45,2.58,-18.53,187.7,3.02,-0.72
4959,52.114895,-1.940832,80,0.88,11.0,187.9,,Dec-24,495945,2019-08-16 11:37:40:314,0.0287,0.0169,9.8035,0.0039,0.0091,9.8066,-0.0022,-0.0093,0.0064,-23.15,3.08,-18.83,187.68,3.02,-0.7
4960,52.114895,-1.940832,80,0.88,11.0,187.9,,Dec-24,496045,2019-08-16 11:37:40:414,0.0502,-0.0154,9.7251,0.0065,0.013,9.8066,0.0021,-0.0039,-0.0043,-22.85,3.04,-19.2,187.62,3.06,-0.63
4961,52.114895,-1.940832,80,0.88,11.0,187.9,,Dec-24,496145,2019-08-16 11:37:40:514,0.0543,0.1403,9.9586,0.0036,0.0014,9.8067,0.0127,-0.0082,0.0011,-22.94,1.47,-19.27,182.88,3.09,-0.63
4962,52.114883,-1.940839,81,1.02,11.0,188.0,,13 / 25,496245,2019-08-16 11:37:40:614,0.0055,0.0677,10.0679,-0.0044,0.0007,9.8066,-0.0096,0.0025,0.0085,-22.94,1.47,-19.27,182.88,3.09,-0.63
4963,52.114883,-1.940839,81,1.02,11.0,188.0,,13 / 25,496345,2019-08-16 11:37:40:714,-0.0039,-0.0476,9.7458,-0.0307,-0.007,9.8066,-0.0096,0.0025,0.0085,-23.7,2.55,-18.22,182.88,3.09,-0.63
4964,52.114883,-1.940839,81,1.02,11.0,188.0,,13 / 25,496445,2019-08-16 11:37:40:814,-0.0631,-0.1965,9.2654,-0.0191,0.0005,9.8066,0.0021,-0.0189,0.0053,-23.97,3.74,-17.65,189.6,2.9,-0.66
4965,52.114883,-1.940839,81,1.02,11.0,188.0,,13 / 25,496545,2019-08-16 11:37:40:914,-0.3158,-0.0422,10.5288,-0.0182,-0.0034,9.8066,-0.0032,0.0291,0.0021,-23.71,3.15,-18.1,187.34,2.79,-0.64
4966,52.114883,-1.940839,81,1.02,11.0,188.0,,13 / 25,496645,2019-08-16 11:37:41:014,-0.2212,0.0237,10.0099,-0.0337,-0.0089,9.8066,-0.0032,0.0195,0.0053,-23.66,3.08,-18.19,187.34,2.79,-0.64
4967,52.114883,-1.940839,81,1.02,11.0,188.0,,13 / 25,496745,2019-08-16 11:37:41:114,-0.0154,-0.0117,9.3595,-0.0418,-0.0106,9.8066,-0.0022,-0.0199,-0.0043,-24.25,2.61,-17.46,187.37,2.54,-0.67
4968,52.114883,-1.940839,81,1.02,11.0,188.0,,13 / 25,496846,2019-08-16 11:37:41:215,-0.0011,-0.0233,9.2981,-0.0098,-0.0023,9.8066,-0.0043,-0.0071,0.0021,-24.25,2.61,-17.46,187.37,2.54,-0.67
4969,52.114883,-1.940839,81,1.02,11.0,188.0,,13 / 25,496945,2019-08-16 11:37:41:314,0.0742,-0.0795,9.4673,-0.0085,-0.0019,9.8066,-0.0011,-0.0146,0.0064,-23.95,2.58,-17.88,187.39,2.49,-0.67
4970,52.114883,-1.940839,81,1.02,11.0,188.0,,13 / 25,497045,2019-08-16 11:37:41:414,-0.246,-0.0221,10.2817,-0.0217,-0.0071,9.8066,0.0095,0.0025,0.0,-23.45,3.12,-18.45,187.73,2.36,-0.7
4971,52.114883,-1.940839,81,1.02,11.0,188.0,,13 / 25,497145,2019-08-16 11:37:41:514,-0.2205,-0.042,9.9832,-0.0124,-0.0026,9.8066,0.0095,0.0025,0.0,-23.45,3.12,-18.45,187.73,2.36,-0.7
4972,52.11489,-1.940838,79,1.15,11.0,188.1,,14 / 25,497245,2019-08-16 11:37:41:614,0.0735,0.0639,9.4384,-0.0067,0.0075,9.8066,0.0127,0.0184,-0.0011,-23.76,3.16,-18.05,187.43,2.28,-0.7
4973,52.11489,-1.940838,79,1.15,11.0,188.1,,14 / 25,497346,2019-08-16 11:37:41:715,-0.0734,-0.0202,10.1253,-0.0105,0.0072,9.8066,0.0053,-0.0167,0.0032,-23.75,2.61,-18.14,187.43,2.28,-0.7
4974,52.11489,-1.940838,79,1.15,11.0,188.1,,14 / 25,497445,2019-08-16 11:37:41:814,0.298,0.1252,9.8031,0.0104,0.0007,9.8066,-0.0075,0.0078,0.0,-23.8,2.62,-18.08,187.4,2.23,-0.65
4975,52.11489,-1.940838,79,1.15,11.0,188.1,,14 / 25,497545,2019-08-16 11:37:41:914,0.4101,0.0735,9.6766,0.0311,-0.0001,9.8066,0.0021,-0.0242,0.0064,-23.45,3.12,-18.45,187.71,2.41,-0.68
4976,52.11489,-1.940838,79,1.15,11.0,188.1,,14 / 25,497645,2019-08-16 11:37:42:014,0.3654,0.1078,9.6404,0.0375,0.0066,9.8066,0.0106,-0.0039,0.0011,-23.45,3.12,-18.45,187.71,2.41,-0.68
4977,52.11489,-1.940838,79,1.15,11.0,188.1,,14 / 25,497745,2019-08-16 11:37:42:114,0.4621,0.0379,9.532,0.0577,0.0205,9.8065,0.0053,-0.005,0.0053,-22.85,2.46,-19.28,185.26,2.76,-0.6
4978,52.11489,-1.940838,79,1.15,11.0,188.1,,14 / 25,497845,2019-08-16 11:37:42:214,0.4339,0.014,9.89,0.0245,0.0146,9.8066,0.0085,-0.0039,-0.0011,-22.4,2.52,-19.79,187.89,2.91,-0.53
4979,52.11489,-1.940838,79,1.15,11.0,188.1,,14 / 25,497946,2019-08-16 11:37:42:315,0.1824,-0.0588,9.9218,0.0265,0.0066,9.8066,-0.016,-0.0029,0.0053,-22.4,2.52,-19.79,187.89,2.91,-0.53
4980,52.11489,-1.940838,79,1.15,11.0,188.1,,14 / 25,498045,2019-08-16 11:37:42:414,0.4311,-0.0368,9.5686,0.0165,0.0009,9.8066,-0.016,-0.0029,0.0053,-22.98,3.13,-19.04,187.55,3.17,-0.55
4981,52.11489,-1.940838,79,1.15,11.0,188.1,,14 / 25,498145,2019-08-16 11:37:42:514,0.3075,0.0621,9.9952,0.0264,-0.0026,9.8066,0.001,0.0142,0.0021,-22.85,3.04,-19.2,187.55,3.17,-0.55
4982,52.1149,-1.940834,80,1.2,11.0,188.1,,14 / 25,498245,2019-08-16 11:37:42:614,0.1095,-0.0943,9.9371,0.0201,0.0053,9.8066,-0.0075,-0.0039,0.0032,-22.89,3.05,-19.15,187.56,3.32,-0.58
4983,52.1149,-1.940834,80,1.2,11.0,188.1,,14 / 25,498345,2019-08-16 11:37:42:714,0.0687,0.0386,9.9981,0.0382,0.0121,9.8066,0.0053,-0.021,-0.0021,-23.65,3.61,-18.1,187.56,3.32,-0.58
4984,52.1149,-1.940834,80,1.2,11.0,188.1,,14 / 25,498446,2019-08-16 11:37:42:815,0.2633,0.0702,9.8144,0.0549,0.0146,9.8065,-0.0118,-0.0221,0.0064,-23.5,3.13,-18.39,187.49,3.65,-0.54
4985,52.1149,-1.940834,80,1.2,11.0,188.1,,14 / 25,498545,2019-08-16 11:37:42:914,0.09,-0.1088,9.534,0.0142,0.0007,9.8066,0.0042,0.0131,0.0,-24.25,3.15,-17.37,187.49,3.65,-0.54
4986,52.1149,-1.940834,80,1.2,11.0,188.1,,14 / 25,498645,2019-08-16 11:37:43:014,0.195,-0.0025,9.8623,0.0209,0.0017,9.8066,0.0074,0.0024,-0.0021,-24.25,3.15,-17.37,187.49,3.65,-0.54
4987,52.1149,-1.940834,80,1.2,11.0,188.1,,14 / 25,498746,2019-08-16 11:37:43:115,-0.0152,0.0761,10.1874,0.0075,0.0042,9.8066,0.001,-0.0093,0.0075,-23.95,3.65,-17.69,189.42,3.77,-0.54
4988,52.1149,-1.940834,80,1.2,11.0,188.1,,14 / 25,498846,2019-08-16 11:37:43:215,0.2698,0.0251,9.642,0.0113,0.0029,9.8066,0.001,-0.0093,0.0075,-24.01,3.75,-17.59,189.41,3.84,-0.54
4989,52.1149,-1.940834,80,1.2,11.0,188.1,,14 / 25,498945,2019-08-16 11:37:43:314,0.0602,0.0845,10.0375,0.0126,0.0087,9.8066,-0.0043,0.0014,0.0032,-24.01,3.75,-17.59,189.41,3.84,-0.54
4990,52.1149,-1.940834,80,1.2,11.0,188.1,,14 / 25,499045,2019-08-16 11:37:43:414,0.0385,0.0717,9.9618,0.0043,0.0045,9.8066,0.0106,0.0003,-0.0021,-23.85,4.47,-17.65,189.38,3.92,-0.5
4991,52.1149,-1.940834,80,1.2,11.0,188.1,,14 / 25,499145,2019-08-16 11:37:43:514,0.0127,0.2158,10.1148,0.0151,0.0046,9.8066,-0.0064,-0.0306,-0.0021,-24.37,2.22,-17.35,184.87,3.95,-0.48
4992,52.114864,-1.940864,79,1.9,11.0,188.1,,14 / 25,499246,2019-08-16 11:37:43:615,0.0357,0.0602,9.7063,0.0254,0.0037,9.8066,-0.0043,0.0174,0.0021,-24.37,2.22,-17.35,184.87,3.95,-0.48
4993,52.114864,-1.940864,79,1.9,11.0,188.1,,14 / 25,499345,2019-08-16 11:37:43:714,0.1741,0.0436,9.6589,0.0079,-0.0104,9.8066,0.0042,0.0195,0.0021,-23.85,1.62,-18.12,184.87,4.1,-0.47
4994,52.114864,-1.940864,79,1.9,11.0,188.1,,14 / 25,499445,2019-08-16 11:37:43:814,-0.0654,-0.1425,10.0364,0.0206,-0.0105,9.8066,-0.0054,-0.0135,0.0043,-24.32,2.16,-17.43,184.87,4.1,-0.47
4995,52.114864,-1.940864,79,1.9,11.0,188.1,,14 / 25,499545,2019-08-16 11:37:43:914,0.0011,-0.172,9.6735,0.025,-0.0146,9.8066,0.0159,-0.0199,0.0021,-23.49,2.59,-18.48,187.46,4.24,-0.57
4996,52.114864,-1.940864,79,1.9,11.0,188.1,,14 / 25,499646,2019-08-16 11:37:44:015,0.0653,0.0735,9.8893,-0.0036,0.0064,9.8066,-0.0011,0.0152,0.0011,-23.49,2.59,-18.48,187.46,4.24,-0.57
4997,52.114864,-1.940864,79,1.9,11.0,188.1,,14 / 25,499745,2019-08-16 11:37:44:114,-0.0792,-0.036,10.0981,-0.0053,0.014,9.8066,-0.0011,0.0152,0.0011,-23.7,3.08,-18.13,187.11,4.22,-0.48
4998,52.114864,-1.940864,79,1.9,11.0,188.1,,14 / 25,499846,2019-08-16 11:37:44:215,0.0599,-0.0234,9.6281,0.0093,-0.0075,9.8066,-0.0128,-0.0114,0.0075,-23.74,2.55,-18.16,187.11,4.22,-0.48
4999,52.114864,-1.940864,79,1.9,11.0,188.1,,14 / 25,499945,2019-08-16 11:37:44:314,0.1697,-0.0855,9.6995,0.0144,-0.0075,9.8066,0.0042,0.0301,0.0021,-23.75,3.71,-17.95,189.36,4.3,-0.54
5000,52.114864,-1.940864,79,1.9,11.0,188.1,,14 / 25,500046,2019-08-16 11:37:44:415,0.1414,0.0599,9.8865,0.0045,0.0017,9.8067,0.0042,-0.0008,-0.0021,-23.75,3.71,-17.95,189.36,4.3,-0.54
5001,52.114864,-1.940864,79,1.9,11.0,188.1,,14 / 25,500146,2019-08-16 11:37:44:515,-0.1369,0.0663,9.9199,0.011,0.0054,9.8066,0.0,-0.0103,0.0011,-23.85,3.56,-17.85,189.36,4.3,-0.54
5002,52.114834,-1.940884,77,2.37,10.0,188.1,,14 / 25,500245,2019-08-16 11:37:44:614,0.0361,0.0183,9.6505,0.005,-0.0017,9.8067,-0.0022,0.011,0.0032,-23.23,2.56,-18.81,187.41,4.37,-0.51
5003,52.114834,-1.940884,77,2.37,10.0,188.1,,14 / 25,500345,2019-08-16 11:37:44:714,-0.0676,-0.0341,9.9563,0.0062,-0.0057,9.8066,0.0064,-0.0135,0.0011,-23.02,2.59,-19.07,187.44,4.4,-0.55
5004,52.114834,-1.940884,77,2.37,10.0,188.1,,14 / 25,500446,2019-08-16 11:37:44:815,-0.086,-0.0158,9.9031,0.0035,-0.0009,9.8067,0.0042,-0.0253,0.0053,-23.02,2.59,-19.07,187.44,4.4,-0.55
5005,52.114834,-1.940884,77,2.37,10.0,188.1,,14 / 25,500545,2019-08-16 11:37:44:914,0.0021,-0.0198,9.6704,0.0027,0.0066,9.8066,0.0042,-0.0253,0.0053,-23.44,2.52,-18.55,187.44,4.42,-0.56
5006,52.114834,-1.940884,77,2.37,10.0,188.1,,14 / 25,500646,2019-08-16 11:37:45:015,-0.0589,-0.0525,9.7425,0.0029,0.009,9.8066,-0.0086,0.0046,0.0,-23.54,3.76,-18.21,189.33,4.44,-0.51
5007,52.114834,-1.940884,77,2.37,10.0,188.1,,14 / 25,500745,2019-08-16 11:37:45:114,-0.0901,-0.1343,9.8238,0.0034,-0.0076,9.8066,-0.0075,0.0014,0.0011,-23.54,2.59,-18.42,187.12,4.46,-0.53
5008,52.114834,-1.940884,77,2.37,10.0,188.1,,14 / 25,500845,2019-08-16 11:37:45:214,0.0247,-0.1358,9.703,0.0071,-0.0109,9.8066,0.0085,-0.0029,-0.0011,-23.54,2.59,-18.42,187.12,4.46,-0.53
5009,52.114834,-1.940884,77,2.37,10.0,188.1,,14 / 25,500945,2019-08-16 11:37:45:314,0.002,0.1809,10.0522,-0.0028,0.0114,9.8066,0.0053,0.0184,0.0064,-23.23,2.56,-18.81,187.46,4.49,-0.6
5010,52.114834,-1.940884,77,2.37,10.0,188.1,,14 / 25,501045,2019-08-16 11:37:45:414,-0.1777,0.1353,9.8123,-0.001,0.0211,9.8066,-0.0054,-0.0061,-0.0011,-23.23,2.56,-18.81,187.37,4.5,-0.47
5011,52.114834,-1.940884,77,2.37,10.0,188.1,,14 / 25,501145,2019-08-16 11:37:45:514,0.1249,0.2081,9.7077,0.0043,0.0029,9.8067,-0.0277,-0.0348,0.0085,-23.23,2.56,-18.81,187.37,4.5,-0.47
5012,52.114807,-1.940892,78,2.33,10.0,188.0,,14 / 25,501246,2019-08-16 11:37:45:615,-0.1004,0.0612,10.1034,0.0065,-0.0047,9.8066,0.0085,-0.0103,0.0032,-23.36,2.97,-18.59,187.35,4.53,-0.46
5013,52.114807,-1.940892,78,2.33,10.0,188.0,,14 / 25,501346,2019-08-16 11:37:45:715,0.0933,0.1103,9.9771,0.0029,-0.0089,9.8066,0.001,-0.0082,0.0011,-22.93,2.52,-19.18,187.35,4.53,-0.46
5014,52.114807,-1.940892,78,2.33,10.0,188.0,,14 / 25,501445,2019-08-16 11:37:45:814,-0.125,0.0357,10.046,0.0001,-0.0084,9.8066,0.001,-0.0082,0.0011,-23.65,3.61,-18.1,189.32,4.53,-0.51
5015,52.114807,-1.940892,78,2.33,10.0,188.0,,14 / 25,501545,2019-08-16 11:37:45:914,0.0933,0.0822,9.9941,-0.005,0.0061,9.8066,-0.0022,0.0131,0.0021,-23.45,3.66,-18.35,189.67,4.5,-0.47
5016,52.114807,-1.940892,78,2.33,10.0,188.0,,14 / 25,501645,2019-08-16 11:37:46:014,0.1159,-0.1487,9.654,-0.0031,-0.0056,9.8066,-0.0032,0.0078,0.0043,-23.5,3.13,-18.39,189.67,4.5,-0.47
5017,52.114807,-1.940892,78,2.33,10.0,188.0,,14 / 25,501746,2019-08-16 11:37:46:115,-0.1163,0.0182,10.0879,-0.0026,-0.0157,9.8066,-0.0086,0.0163,0.0032,-23.5,3.13,-18.39,189.67,4.5,-0.47
5018,52.114807,-1.940892,78,2.33,10.0,188.0,,14 / 25,501845,2019-08-16 11:37:46:214,-0.0081,0.0595,9.5676,0.0049,-0.0009,9.8066,-0.0043,-0.0327,0.0011,-23.8,3.17,-17.99,187.19,4.45,-0.61
5019,52.114807,-1.940892,78,2.33,10.0,188.0,,14 / 25,501946,2019-08-16 11:37:46:315,0.0356,0.07,10.0045,0.009,0.0106,9.8066,0.0181,0.0131,-0.0064,-23.8,3.17,-17.99,187.19,4.45,-0.61
5020,52.114807,-1.940892,78,2.33,10.0,188.0,,14 / 25,502045,2019-08-16 11:37:46:414,-0.0723,-0.2204,10.056,0.0032,0.0009,9.8066,0.0181,0.0131,-0.0064,-23.54,2.59,-18.42,187.14,4.51,-0.56
5021,52.114807,-1.940892,78,2.33,10.0,188.0,,14 / 25,502146,2019-08-16 11:37:46:515,0.0607,0.0529,9.7351,-0.0014,0.0018,9.8067,0.0032,-0.0157,0.0064,-23.44,2.52,-18.55,187.43,4.53,-0.56
5022,52.114807,-1.940892,78,2.33,10.0,188.0,,14 / 25,502245,2019-08-16 11:37:46:614,-0.0751,-0.1055,9.3537,-0.0039,-0.0031,9.8067,-0.0171,0.0035,0.0053,-23.74,2.55,-18.16,187.43,4.53,-0.56
5023,52.114807,-1.940892,78,2.33,10.0,188.0,,14 / 25,502345,2019-08-16 11:37:46:714,0.0733,-0.0463,9.7622,-0.0114,-0.0108,9.8066,0.0,-0.0093,0.0011,-23.23,2.56,-18.81,187.48,4.46,-0.61
5024,52.114807,-1.940892,78,2.33,10.0,188.0,,14 / 25,502445,2019-08-16 11:37:46:814,-0.1172,0.0658,10.047,-0.0001,0.0005,9.8067,0.0181,-0.0029,-0.0032,-23.23,2.56,-18.81,187.48,4.46,-0.61
5025,52.114807,-1.940892,78,2.33,10.0,188.0,,14 / 25,502545,2019-08-16 11:37:46:914,-0.0947,-0.0082,9.68,0.0005,0.0077,9.8066,0.0106,0.0035,-0.0011,-23.7,3.08,-18.13,187.18,4.46,-0.61
5026,52.114807,-1.940892,78,2.33,10.0,188.0,,14 / 25,502645,2019-08-16 11:37:47:014,-0.0281,-0.001,9.9138,0.0012,0.0157,9.8066,0.0127,-0.004,0.0032,-24.22,2.64,-17.5,187.12,4.47,-0.52
5027,52.114807,-1.940892,78,2.33,10.0,188.0,,14 / 25,502745,2019-08-16 11:37:47:114,-0.1153,0.0898,9.6685,0.0054,0.0054,9.8066,-0.0256,-0.0295,0.0,-23.32,2.72,-18.68,187.37,4.51,-0.48
5028,52.114807,-1.940892,78,2.33,10.0,188.0,,14 / 25,502846,2019-08-16 11:37:47:215,0.2269,0.244,9.6632,0.0143,0.0018,9.8066,-0.016,-0.0221,0.0043,-23.32,2.72,-18.68,187.37,4.51,-0.48
5029,52.114807,-1.940892,78,2.33,10.0,188.0,,14 / 25,502945,2019-08-16 11:37:47:314,0.1239,0.0673,10.0583,0.0053,-0.0114,9.8066,-0.016,-0.0221,0.0043,-23.32,2.63,-18.68,187.36,4.6,-0.48
5030,52.114807,-1.940892,78,2.33,10.0,188.0,,14 / 25,503046,2019-08-16 11:37:47:415,0.0887,-0.2715,9.3924,0.0164,-0.025,9.8066,-0.0128,0.0195,0.0053,-23.32,2.63,-18.68,187.47,4.67,-0.63
5031,52.114807,-1.940892,78,2.33,10.0,188.0,,14 / 25,503145,2019-08-16 11:37:47:514,-0.0963,-0.1308,9.9109,-0.0027,-0.0061,9.8066,0.001,-0.0263,0.0053,-23.32,2.63,-18.68,187.47,4.67,-0.63
5032,52.114807,-1.940892,78,2.33,10.0,188.0,,14 / 25,503246,2019-08-16 11:37:47:615,-0.0671,0.1499,9.8557,-0.0058,0.0121,9.8066,0.0032,-0.0093,0.0064,-23.5,3.13,-18.39,187.5,4.65,-0.67
5033,52.114758,-1.940907,78,2.89,11.0,187.6,,14 / 25,503345,2019-08-16 11:37:47:714,-0.1836,0.0733,9.8063,-0.0148,0.0225,9.8066,-0.0032,0.0099,0.0128,-23.23,2.56,-18.81,187.5,4.65,-0.67
5034,52.114758,-1.940907,78,2.89,11.0,187.6,,14 / 25,503446,2019-08-16 11:37:47:815,-0.1705,0.0603,9.6599,-0.0152,0.024,9.8066,-0.0096,0.0067,-0.0021,-24.15,2.66,-17.6,187.11,4.58,-0.52
5035,52.114758,-1.940907,78,2.89,11.0,187.6,,14 / 25,503545,2019-08-16 11:37:47:914,0.071,-0.0457,9.8285,0.0018,-0.0108,9.8066,0.0032,-0.0274,0.0096,-23.27,2.65,-18.75,187.44,4.59,-0.58
5036,52.114758,-1.940907,78,2.89,11.0,187.6,,14 / 25,503645,2019-08-16 11:37:48:014,-0.0322,-0.0276,9.7916,0.0389,-0.0085,9.8066,0.0053,0.0078,-0.0011,-23.27,2.65,-18.75,187.44,4.59,-0.58
5037,52.114758,-1.940907,78,2.89,11.0,187.6,,14 / 25,503746,2019-08-16 11:37:48:115,-0.1609,0.2523,9.8037,-0.0048,0.0066,9.8066,0.0053,0.0078,-0.0011,-22.98,3.13,-19.04,187.48,4.8,-0.66
5038,52.114758,-1.940907,78,2.89,11.0,187.6,,14 / 25,503845,2019-08-16 11:37:48:214,-0.159,0.301,10.3253,-0.0125,0.0062,9.8066,0.0394,0.011,-0.0107,-23.45,3.66,-18.35,189.75,4.78,-0.62
5039,52.114758,-1.940907,78,2.89,11.0,187.6,,14 / 25,503945,2019-08-16 11:37:48:314,-0.0042,0.2196,9.8377,-0.0167,0.0046,9.8066,-0.0086,0.0184,-0.0011,-23.45,3.66,-18.35,189.75,4.78,-0.62
5040,52.114758,-1.940907,78,2.89,11.0,187.6,,14 / 25,504045,2019-08-16 11:37:48:414,-0.0383,0.1031,9.8773,-0.0096,0.0026,9.8066,0.0021,0.0333,-0.0032,-22.71,3.09,-19.35,187.43,4.69,-0.57
5041,52.114758,-1.940907,78,2.89,11.0,187.6,,14 / 25,504145,2019-08-16 11:37:48:514,-0.0135,-0.0299,9.5874,-0.0042,-0.0042,9.8066,0.0127,0.0035,-0.0085,-23.87,2.17,-18.04,184.9,4.64,-0.55
5042,52.114735,-1.940912,78,2.12,10.0,187.6,,14 / 25,504245,2019-08-16 11:37:48:614,-0.2282,-0.0479,10.1481,0.0056,-0.0101,9.8066,-0.0086,-0.0242,0.0085,-23.54,2.59,-18.42,187.17,4.66,-0.61
5043,52.114735,-1.940912,78,2.12,10.0,187.6,,14 / 25,504345,2019-08-16 11:37:48:714,-0.1218,-0.0077,9.5382,0.0153,-0.0078,9.8066,-0.015,-0.0285,0.0107,-23.54,2.59,-18.42,187.17,4.66,-0.61
5044,52.114735,-1.940912,78,2.12,10.0,187.6,,14 / 25,504445,2019-08-16 11:37:48:814,-0.098,-0.0468,9.7242,-0.0021,0.0064,9.8066,-0.0011,-0.0423,0.0149,-23.84,2.62,-18.02,187.2,4.81,-0.67
5045,52.114735,-1.940912,78,2.12,10.0,187.6,,14 / 25,504546,2019-08-16 11:37:48:915,-0.3123,0.0149,10.0396,-0.0058,-0.001,9.8066,-0.0011,-0.0423,0.0149,-23.81,3.8,-17.86,189.38,4.81,-0.63
5046,52.114735,-1.940912,78,2.12,10.0,187.6,,14 / 25,504647,2019-08-16 11:37:49:016,0.2303,-0.107,9.7369,0.0017,0.0017,9.8067,0.0085,-0.0114,0.0064,-23.81,3.8,-17.86,189.38,4.81,-0.63
5047,52.114735,-1.940912,78,2.12,10.0,187.6,,14 / 25,504746,2019-08-16 11:37:49:115,0.313,0.062,9.8634,-0.0054,-0.002,9.8066,0.0074,0.0451,-0.0011,-23.32,2.63,-18.68,187.45,4.82,-0.62
5048,52.114735,-1.940912,78,2.12,10.0,187.6,,14 / 25,504845,2019-08-16 11:37:49:214,0.1749,0.0581,9.7004,-0.0077,-0.0055,9.8066,-0.0054,0.0355,0.0085,-23.63,2.66,-18.28,187.17,4.78,-0.63
5049,52.114735,-1.940912,78,2.12,10.0,187.6,,14 / 25,504945,2019-08-16 11:37:49:314,-0.0607,0.0198,9.7612,-0.0166,-0.0124,9.8066,-0.0011,0.0024,0.0064,-23.87,2.17,-18.04,184.99,4.68,-0.69
5050,52.114735,-1.940912,78,2.12,10.0,187.6,,14 / 25,505045,2019-08-16 11:37:49:414,-0.0911,0.1283,9.7074,-0.0051,-0.0043,9.8066,0.0191,0.0046,-0.0032,-23.87,2.17,-18.04,184.99,4.68,-0.69
5051,52.114735,-1.940912,78,2.12,10.0,187.6,,14 / 25,505146,2019-08-16 11:37:49:515,-0.1781,0.0262,9.8787,0.0034,0.0036,9.8067,0.0064,-0.0029,-0.0032,-23.86,3.25,-17.9,187.24,4.65,-0.71
5052,52.11472,-1.940915,80,2.05,11.0,187.6,,14 / 25,505245,2019-08-16 11:37:49:614,0.2024,-0.1661,9.674,0.0081,0.0039,9.8066,-0.016,-0.0103,0.0043,-23.59,2.66,-18.34,187.22,4.7,-0.7
5053,52.11472,-1.940915,80,2.05,11.0,187.6,,14 / 25,505345,2019-08-16 11:37:49:714,-0.1217,0.1397,9.96,0.0018,-0.0019,9.8067,-0.016,-0.0103,0.0043,-23.45,3.12,-18.45,187.52,4.71,-0.71
5054,52.11472,-1.940915,80,2.05,11.0,187.6,,14 / 25,505445,2019-08-16 11:37:49:814,0.165,-0.0695,9.9968,0.0115,-0.0068,9.8066,-0.0054,0.0056,0.0075,-23.45,3.12,-18.45,187.52,4.71,-0.71
