,GPS LATITUDE (degrees), GPS LONGITUDE (degrees), GPS ALTITUDE (m), GPS SPEED (Kmh), GPS ACCURACY (m), GPS ORIENTATION (Â°),GPS SATELLITES IN RANGE, TIME SINCE START (ms), DATE (YYYY-MO-DD HH-MI-SS_SSS), ACCELEROMETER X (m/s²) , ACCELEROMETER Y (m/s²), ACCELEROMETER Z (m/s²), GRAVITY X (m/s²), GRAVITY Y (m/s²), GRAVITY Z (m/s²), GYROSCOPE Yaw (rad/s), GYROSCOPE Pitch (rad/s), GYROSCOPE Roll (rad/s), MAGNETIC FIELD X (Î¼T), MAGNETIC FIELD Y (Î¼T), MAGNETIC FIELD Z (Î¼T), ORIENTATION (Yaw) (Â°), ORIENTATION (Pitch) (Â°), ORIENTATION (Roll ) (Â°)
41902,51.480618,-2.702411,54,20.6,10,224.6,13 / 21,4190223,2019-08-16 13:59:04:003,-0.0397,0.1355,9.6756,0.0049,0.012,9.8066,0.0011,0.0325,-0.0229,-11.1,27.68,-3.24,247.86,11.09,1.9
41903,51.480618,-2.702411,54,20.6,10,224.6,13 / 21,4190323,2019-08-16 13:59:04:103,-0.406,-0.1896,10.4221,-0.0085,0.0086,9.8066,-0.0085,-0.0314,-0.0208,-10.48,27.91,-3.31,249.23,11.12,1.97
41904,51.480618,-2.702411,54,20.6,10,224.6,13 / 21,4190423,2019-08-16 13:59:04:203,-0.2817,0.1771,9.4584,-0.0085,-0.0315,9.8066,-0.0085,-0.0314,-0.0208,-10.48,27.91,-3.31,249.23,11.12,1.97
41905,51.480618,-2.702411,54,20.6,10,224.6,13 / 21,4190525,2019-08-16 13:59:04:305,0.3114,-0.7845,10.1989,-0.0285,-0.0685,9.8064,-0.0277,0.0474,-0.0069,-11.3,27.77,-1.14,248.21,10.68,1.98
41906,51.480618,-2.702411,54,20.6,10,224.6,13 / 21,4190623,2019-08-16 13:59:04:403,-0.0725,0.0005,9.8771,-0.0152,-0.0121,9.8066,0.0437,0.0006,-0.0336,-11.3,27.77,-1.14,248.21,10.68,1.98
41907,51.480618,-2.702411,54,20.6,10,224.6,13 / 21,4190724,2019-08-16 13:59:04:504,-0.1822,-0.2438,10.0158,-0.0033,-0.0079,9.8066,0.0448,-0.0602,-0.0229,-11.51,27.7,-0.45,246.82,10.59,2.04
41908,51.480488,-2.702614,54,20.32,10,225.3,13 / 21,4190823,2019-08-16 13:59:04:603,-0.2938,-0.3262,8.3933,-0.024,-0.0215,9.8066,0.0128,0.0783,-0.0197,-10.57,28.02,-1.81,247.84,10.47,2.11
41909,51.480488,-2.702614,54,20.32,10,225.3,13 / 21,4190924,2019-08-16 13:59:04:704,-0.0926,-0.0303,10.3159,-0.0384,-0.0206,9.8066,0.0298,-0.0218,-0.0186,-10.97,27.86,-1.88,247.84,10.47,2.11
41910,51.480488,-2.702614,54,20.32,10,225.3,13 / 21,4191023,2019-08-16 13:59:04:803,-0.2742,-0.7906,10.0124,-0.0307,-0.0059,9.8066,0.0512,-0.025,-0.0037,-10.53,28.03,-1.89,247.81,10.27,2.27
41911,51.480488,-2.702614,54,20.32,10,225.3,13 / 21,4191123,2019-08-16 13:59:04:903,-0.1958,0.3955,9.7137,-0.0735,0.0141,9.8064,0.0512,-0.025,-0.0037,-10.53,28.03,-1.89,247.81,10.27,2.27
41912,51.480488,-2.702614,54,20.32,10,225.3,13 / 21,4191223,2019-08-16 13:59:05:003,-0.2959,0.2305,9.2742,-0.0205,-0.0353,9.8066,0.0117,0.0229,-0.0069,-10.51,27.98,-2.6,247.39,10.19,2.71
41913,51.480488,-2.702614,54,20.32,10,225.3,13 / 21,4191322,2019-08-16 13:59:05:102,-0.4372,0.076,10.0503,-0.0356,-0.0839,9.8062,-0.0128,0.0389,-0.025,-9.98,28.23,-1.9,249.51,9.66,2.71
41914,51.480488,-2.702614,54,20.32,10,225.3,13 / 21,4191423,2019-08-16 13:59:05:203,0.0407,-0.1612,9.58,-0.0064,-0.0251,9.8066,0.0011,-0.0186,-0.008,-10.29,28.0,-3.15,249.51,9.66,2.71
41915,51.480488,-2.702614,54,20.32,10,225.3,13 / 21,4191523,2019-08-16 13:59:05:303,-0.0904,-0.2614,9.2273,-0.0167,-0.0318,9.8066,0.0043,0.0112,-0.0272,-10.29,28.0,-3.15,249.51,9.66,2.71
41916,51.480488,-2.702614,54,20.32,10,225.3,13 / 21,4191624,2019-08-16 13:59:05:404,-0.3892,-0.3065,11.2021,-0.0154,-0.0687,9.8064,0.0021,-0.0026,-0.0133,-11.09,27.85,-1.12,248.1,9.25,2.65
41917,51.480488,-2.702614,54,20.32,10,225.3,13 / 21,4191724,2019-08-16 13:59:05:504,0.0126,-0.4581,9.2835,0.0043,-0.0308,9.8066,0.0021,-0.0026,-0.0133,-11.8,27.56,-1.13,248.1,9.25,2.65
41918,51.48036,-2.702816,52,20.37,10,226.1,13 / 21,4191823,2019-08-16 13:59:05:603,0.0074,-0.38,9.4734,-0.0024,-0.0195,9.8066,-0.0085,0.008,-0.0325,-10.19,28.2,-0.82,249.88,9.09,2.56
41919,51.48036,-2.702816,52,20.37,10,226.1,13 / 21,4191923,2019-08-16 13:59:05:703,0.1757,-0.3848,9.0253,-0.0068,-0.0228,9.8066,0.0405,0.0006,-0.0091,-10.5,28.06,-1.56,249.58,8.98,2.54
41920,51.48036,-2.702816,52,20.37,10,226.1,13 / 21,4192023,2019-08-16 13:59:05:803,0.0957,-0.3673,9.2206,-0.0062,-0.014,9.8066,0.0043,-0.0495,-0.0197,-9.92,28.23,-2.13,249.58,8.98,2.54
41921,51.48036,-2.702816,52,20.37,10,226.1,13 / 21,4192123,2019-08-16 13:59:05:903,-0.116,0.3073,10.6897,-0.0113,0.0096,9.8066,0.0437,0.0101,-0.024,-10.13,28.23,-0.86,249.87,9.01,2.62
41922,51.48036,-2.702816,52,20.37,10,226.1,13 / 21,4192224,2019-08-16 13:59:06:004,-0.0563,-0.0084,10.1788,-0.0171,0.0015,9.8066,0.0064,-0.0144,-0.0282,-9.94,28.3,-0.74,249.87,9.01,2.62
41923,51.48036,-2.702816,52,20.37,10,226.1,13 / 21,4192323,2019-08-16 13:59:06:103,0.3079,-0.1572,10.9545,-0.0449,-0.0613,9.8064,0.0,0.0922,-0.0037,-9.94,28.3,-0.74,249.87,9.01,2.62
41924,51.48036,-2.702816,52,20.37,10,226.1,13 / 21,4192423,2019-08-16 13:59:06:203,0.1449,0.0823,10.7334,-0.0125,-0.0746,9.8064,-0.0224,0.0442,-0.0059,-10.19,28.2,-0.82,249.86,8.58,2.74
41925,51.48036,-2.702816,52,20.37,10,226.1,13 / 21,4192522,2019-08-16 13:59:06:302,-0.001,-0.4418,10.7643,-0.0224,-0.1127,9.806,-0.0224,0.0442,-0.0059,-10.19,28.2,-0.82,249.86,8.58,2.74
41926,51.48036,-2.702816,52,20.37,10,226.1,13 / 21,4192623,2019-08-16 13:59:06:403,0.4567,-0.2637,9.6305,0.0018,-0.0333,9.8066,-0.0266,-0.0208,-0.0261,-11.01,27.91,-0.13,248.4,7.92,2.64
41927,51.48036,-2.702816,52,20.37,10,226.1,13 / 21,4192723,2019-08-16 13:59:06:503,0.3511,-0.0499,9.3735,0.0167,-0.0505,9.8065,-0.0202,-0.0538,-0.0122,-11.21,27.83,-0.14,248.4,7.92,2.64
41928,51.480236,-2.703029,52,20.52,10,227.2,13 / 21,4192823,2019-08-16 13:59:06:603,-0.0264,-0.5848,9.6469,0.0058,0.0799,9.8063,-0.0021,-0.0506,-0.0197,-10.51,28.09,0.44,248.45,7.79,2.31
41929,51.480236,-2.703029,52,20.52,10,227.2,13 / 21,4192922,2019-08-16 13:59:06:702,0.6114,0.1366,9.6917,0.0141,0.1364,9.8057,0.0192,-0.1124,-0.0399,-10.51,28.09,0.44,248.45,7.79,2.31
41930,51.480236,-2.703029,52,20.52,10,227.2,13 / 21,4193023,2019-08-16 13:59:06:803,0.2261,-0.369,9.1954,-0.0129,-0.0351,9.8066,-0.0373,0.1454,0.0101,-9.83,28.33,-0.79,249.9,8.56,2.53
41931,51.480236,-2.703029,52,20.52,10,227.2,13 / 21,4193123,2019-08-16 13:59:06:903,-0.052,0.6303,11.5666,-0.0336,-0.0416,9.8065,0.0139,0.0986,-0.0091,-9.56,28.36,-2.05,249.61,8.34,2.53
41932,51.480236,-2.703029,52,20.52,10,227.2,13 / 21,4193222,2019-08-16 13:59:07:002,0.2559,-0.4182,10.1836,-0.0676,-0.0677,9.8062,0.0139,0.0986,-0.0091,-9.39,28.42,-2.02,251.41,7.83,2.76
41933,51.480236,-2.703029,52,20.52,10,227.2,13 / 21,4193323,2019-08-16 13:59:07:103,0.1075,-0.6237,9.2101,-0.0326,-0.0738,9.8063,0.0011,-0.0165,-0.0059,-7.98,28.89,-1.41,254.09,7.36,2.8
41934,51.480236,-2.703029,52,20.52,10,227.2,13 / 21,4193423,2019-08-16 13:59:07:203,0.0571,0.0469,10.1056,-0.0018,-0.0235,9.8066,-0.0671,0.008,-0.0091,-7.98,28.89,-1.41,254.09,7.36,2.8
41935,51.480236,-2.703029,52,20.52,10,227.2,13 / 21,4193523,2019-08-16 13:59:07:303,0.3432,-0.0613,9.2303,0.0293,-0.0224,9.8066,-0.0266,0.0101,-0.0229,-9.21,28.48,-2.1,251.45,7.23,2.78
41936,51.480236,-2.703029,52,20.52,10,227.2,13 / 21,4193623,2019-08-16 13:59:07:403,0.0881,0.579,9.2666,0.0735,0.0155,9.8064,-0.033,-0.0708,-0.0144,-9.06,28.6,-0.14,252.6,7.45,2.4
41937,51.480236,-2.703029,52,20.52,10,227.2,13 / 21,4193723,2019-08-16 13:59:07:503,0.2588,-0.2223,10.1823,0.0511,0.1008,9.806,0.0352,-0.0325,-0.0293,-9.06,28.6,-0.14,252.6,7.45,2.4
41938,51.48011,-2.703251,50,21.11,10,227.9,13 / 21,4193823,2019-08-16 13:59:07:603,0.3852,0.2721,10.2654,0.0029,0.0118,9.8066,0.0213,0.0357,-0.0154,-9.4,28.49,-0.14,252.04,8.1,2.29
41939,51.48011,-2.703251,50,21.11,10,227.9,13 / 21,4193923,2019-08-16 13:59:07:703,0.0576,0.1364,9.9894,-0.0096,-0.0102,9.8066,0.0298,0.1177,-0.008,-9.75,28.36,-0.82,249.94,8.17,2.29
41940,51.48011,-2.703251,50,21.11,10,227.9,13 / 21,4194023,2019-08-16 13:59:07:803,-0.1951,-0.2027,11.0986,-0.0108,-0.0101,9.8066,-0.0532,0.0251,-0.0027,-9.75,28.36,-0.82,249.94,8.17,2.29
41941,51.48011,-2.703251,50,21.11,10,227.9,13 / 21,4194123,2019-08-16 13:59:07:903,0.206,0.0599,9.5961,0.029,-0.0055,9.8066,-0.0532,0.0251,-0.0027,-9.21,28.48,-2.1,251.47,8.09,2.33
41942,51.48011,-2.703251,50,21.11,10,227.9,13 / 21,4194223,2019-08-16 13:59:08:003,-0.1386,0.0215,8.6319,0.0107,-0.0035,9.8066,0.0139,-0.0474,-0.0304,-8.85,28.63,-1.45,252.36,8.12,2.16
41943,51.48011,-2.703251,50,21.11,10,227.9,13 / 21,4194323,2019-08-16 13:59:08:103,-0.1148,0.3674,10.4418,0.0197,0.0317,9.8066,-0.0042,-0.1017,-0.0112,-9.03,28.6,-0.87,252.36,8.33,2.1
41944,51.48011,-2.703251,50,21.11,10,227.9,13 / 21,4194423,2019-08-16 13:59:08:203,0.1667,-0.2217,10.248,0.0085,0.0476,9.8065,0.0405,-0.0154,-0.0336,-9.03,28.6,-0.87,252.36,8.33,2.1
41945,51.48011,-2.703251,50,21.11,10,227.9,13 / 21,4194523,2019-08-16 13:59:08:303,0.0286,0.181,11.1508,0.0243,0.0744,9.8063,0.0021,-0.0218,-0.0304,-9.39,28.45,-1.45,252.36,8.33,2.1
41946,51.48011,-2.703251,50,21.11,10,227.9,13 / 21,4194624,2019-08-16 13:59:08:404,0.3483,0.1226,9.6793,0.0223,0.0785,9.8063,-0.0096,0.041,-0.0229,-9.22,28.51,-1.42,252.35,8.8,2.12
41947,51.48011,-2.703251,50,21.11,10,227.9,13 / 21,4194723,2019-08-16 13:59:08:503,0.0941,0.0905,9.3287,-0.0149,-0.0174,9.8066,0.0085,-0.0282,-0.0091,-9.22,28.51,-1.42,252.35,8.8,2.12
41948,51.479984,-2.703483,50,20.87,10,229.0,13 / 21,4194823,2019-08-16 13:59:08:603,-0.1618,0.5323,10.4744,0.0103,0.0263,9.8066,0.0139,-0.0282,-0.0229,-9.83,28.34,-0.13,250.25,8.68,2.17
41949,51.479984,-2.703483,50,20.87,10,229.0,13 / 21,4194923,2019-08-16 13:59:08:703,-0.1155,0.1978,9.2946,0.0169,0.0422,9.8065,-0.0277,-0.008,0.008,-9.94,28.3,-0.74,250.25,8.68,2.17
41950,51.479984,-2.703483,50,20.87,10,229.0,13 / 21,4195023,2019-08-16 13:59:08:803,-0.4505,0.6239,10.3519,0.0054,0.0006,9.8066,-0.0277,-0.008,0.008,-9.41,28.49,-0.13,252.07,8.95,2.16
41951,51.479984,-2.703483,50,20.87,10,229.0,13 / 21,4195123,2019-08-16 13:59:08:903,0.3825,0.3967,10.2673,-0.0204,0.0213,9.8066,-0.0309,0.0613,-0.0016,-9.57,28.4,-1.38,249.95,8.96,2.13
41952,51.479984,-2.703483,50,20.87,10,229.0,13 / 21,4195223,2019-08-16 13:59:09:003,0.5722,-0.1647,10.2441,-0.0204,0.037,9.8066,0.0181,-0.0293,-0.0112,-9.57,28.4,-1.38,249.95,8.96,2.13
41953,51.479984,-2.703483,50,20.87,10,229.0,13 / 21,4195323,2019-08-16 13:59:09:103,-0.219,0.5044,10.2506,-0.0102,0.0058,9.8066,0.0149,-0.0548,-0.0186,-8.46,28.78,-0.15,254.41,9.12,2.32
41954,51.479984,-2.703483,50,20.87,10,229.0,13 / 21,4195423,2019-08-16 13:59:09:203,0.149,-0.0019,9.98,-0.0179,0.0082,9.8066,0.0107,0.0176,-0.0037,-8.41,28.71,-2.21,254.41,9.12,2.32
41955,51.479984,-2.703483,50,20.87,10,229.0,13 / 21,4195523,2019-08-16 13:59:09:303,0.4093,-0.2325,9.3774,-0.0207,0.0213,9.8066,0.0394,-0.0751,-0.0154,-8.83,28.59,-2.16,251.97,9.21,2.47
41956,51.479984,-2.703483,50,20.87,10,229.0,13 / 21,4195623,2019-08-16 13:59:09:403,0.403,0.2353,10.2103,0.0016,0.0365,9.8066,0.0149,-0.0239,-0.0101,-8.67,28.64,-2.12,251.97,9.21,2.47
41957,51.479984,-2.703483,50,20.87,10,229.0,13 / 21,4195723,2019-08-16 13:59:09:503,0.1524,-0.0466,10.4892,-0.0084,0.0077,9.8066,0.0224,0.0847,-0.0154,-9.39,28.45,-1.45,251.68,9.67,2.54
41958,51.479877,-2.703705,48,20.7,10,229.9,13 / 21,4195823,2019-08-16 13:59:09:603,0.0087,0.4879,10.3503,-0.0179,0.0233,9.8066,0.0224,0.0847,-0.0154,-9.39,28.45,-1.45,251.68,9.67,2.54
41959,51.479877,-2.703705,48,20.7,10,229.9,13 / 21,4195923,2019-08-16 13:59:09:703,0.2982,0.248,10.3461,-0.018,0.0107,9.8066,0.0107,0.0528,-0.0059,-9.94,28.3,-0.74,249.85,9.76,2.68
41960,51.479877,-2.703705,48,20.7,10,229.9,13 / 21,4196023,2019-08-16 13:59:09:803,-0.0147,0.2719,9.1268,-0.037,0.0155,9.8066,-0.0032,0.041,-0.0176,-9.76,28.36,-0.73,249.85,9.76,2.68
41961,51.479877,-2.703705,48,20.7,10,229.9,13 / 21,4196124,2019-08-16 13:59:09:904,0.0387,0.1129,10.2026,0.0123,-0.0121,9.8066,-0.0053,-0.0122,-0.0229,-9.76,28.36,0.55,250.49,9.77,2.92
41962,51.479877,-2.703705,48,20.7,10,229.9,13 / 21,4196223,2019-08-16 13:59:10:003,0.1541,-0.0466,8.7901,0.0343,0.0069,9.8066,-0.017,-0.0548,-0.0091,-9.21,28.48,-2.1,251.29,9.88,2.74
41963,51.479877,-2.703705,48,20.7,10,229.9,13 / 21,4196323,2019-08-16 13:59:10:103,0.0912,0.0696,10.0683,0.015,0.04,9.8066,-0.0021,-0.0229,-0.025,-9.21,28.48,-2.1,251.29,9.88,2.74
41964,51.479877,-2.703705,48,20.7,10,229.9,13 / 21,4196423,2019-08-16 13:59:10:203,0.868,0.4828,9.0433,0.0309,0.0592,9.8064,-0.0245,0.0144,0.0027,-8.42,28.75,-1.49,254.0,10.13,2.73
41965,51.479877,-2.703705,48,20.7,10,229.9,13 / 21,4196523,2019-08-16 13:59:10:303,-0.1472,0.4837,10.2188,0.0256,0.0598,9.8064,-0.0064,0.0528,-0.0112,-8.02,28.9,-0.79,254.0,10.51,2.69
41966,51.479877,-2.703705,48,20.7,10,229.9,13 / 21,4196623,2019-08-16 13:59:10:403,0.0203,0.0683,9.6046,0.0011,-0.0359,9.8066,-0.0064,0.0528,-0.0112,-8.02,28.9,-0.79,254.0,10.51,2.69
41967,51.479877,-2.703705,48,20.7,10,229.9,13 / 21,4196724,2019-08-16 13:59:10:504,-0.0463,0.0886,10.0008,0.0024,-0.0096,9.8066,0.0011,-0.0165,-0.008,-7.86,28.87,-2.23,253.66,10.31,2.62
41968,51.47976,-2.70395,46,20.81,10,230.8,13 / 21,4196823,2019-08-16 13:59:10:603,0.3879,-0.0741,8.9549,0.0431,-0.0263,9.8065,-0.0309,0.0346,-0.0442,-7.57,28.99,-1.44,253.66,10.31,2.62
41969,51.47976,-2.70395,46,20.81,10,230.8,13 / 21,4196923,2019-08-16 13:59:10:703,-0.0064,-0.6822,9.891,0.0171,0.0004,9.8066,-0.0064,0.0783,-0.0122,-7.16,29.12,-0.7,255.89,10.23,2.33
41970,51.47976,-2.70395,46,20.81,10,230.8,13 / 21,4197023,2019-08-16 13:59:10:803,0.0226,0.1911,9.4083,0.0159,0.0252,9.8066,0.0075,-0.0239,-0.0005,-7.16,29.12,-0.7,255.9,10.26,2.23
41971,51.47976,-2.70395,46,20.81,10,230.8,13 / 21,4197123,2019-08-16 13:59:10:903,-0.1675,0.0378,9.584,0.0126,0.0787,9.8063,0.033,-0.0239,-0.0122,-5.97,29.4,-0.13,255.9,10.26,2.23
41972,51.47976,-2.70395,46,20.81,10,230.8,13 / 21,4197224,2019-08-16 13:59:11:004,-0.0254,0.1602,9.0926,-0.0019,0.102,9.8061,0.016,-0.0506,-0.0282,-7.03,29.16,0.52,256.6,10.83,2.39
41973,51.47976,-2.70395,46,20.81,10,230.8,13 / 21,4197323,2019-08-16 13:59:11:103,0.3918,-0.1089,10.5839,-0.0297,0.0002,9.8066,0.016,-0.0506,-0.0282,-7.03,29.16,0.52,256.6,10.83,2.39
41974,51.47976,-2.70395,46,20.81,10,230.8,13 / 21,4197423,2019-08-16 13:59:11:203,0.1077,0.2194,10.1052,-0.0158,-0.0186,9.8066,0.0064,0.0751,-0.0218,-7.3,29.09,-0.72,255.82,10.79,2.56
41975,51.47976,-2.70395,46,20.81,10,230.8,13 / 21,4197523,2019-08-16 13:59:11:303,0.3812,-0.1659,9.6425,-0.018,-0.0349,9.8066,0.0064,0.0133,-0.0197,-7.29,29.07,-1.39,255.82,10.79,2.56
41976,51.47976,-2.70395,46,20.81,10,230.8,13 / 21,4197624,2019-08-16 13:59:11:404,-0.1565,-0.0825,10.2618,-0.0059,-0.0447,9.8065,-0.0287,0.0432,-0.0218,-7.44,29.06,-0.14,256.2,10.53,2.53
41977,51.47976,-2.70395,46,20.81,10,230.8,13 / 21,4197724,2019-08-16 13:59:11:504,0.3704,0.125,10.3825,0.0048,-0.0278,9.8066,0.0224,0.0187,0.0208,-7.44,29.06,-0.14,256.2,10.53,2.53
41978,51.47965,-2.704177,46,20.8,10,231.6,13 / 21,4197823,2019-08-16 13:59:11:603,-0.1415,0.2095,10.1096,-0.0002,0.0291,9.8066,0.0011,0.0389,-0.0293,-7.43,29.03,-1.42,255.85,10.48,2.49
41979,51.47965,-2.704177,46,20.8,10,231.6,13 / 21,4197923,2019-08-16 13:59:11:703,-0.0622,-0.1004,9.5337,0.0005,0.044,9.8066,0.0032,0.0016,-0.0091,-8.22,28.84,-0.7,255.85,10.48,2.49
41980,51.47965,-2.704177,46,20.8,10,231.6,13 / 21,4198023,2019-08-16 13:59:11:803,-0.3808,-0.1457,9.8297,-0.0166,0.0238,9.8066,0.0075,0.0251,-0.0197,-8.07,28.86,-1.33,254.02,10.73,2.55
41981,51.47965,-2.704177,46,20.8,10,231.6,13 / 21,4198123,2019-08-16 13:59:11:903,-0.3726,0.264,9.3904,-0.0305,0.0338,9.8065,0.0075,0.0251,-0.0197,-7.68,28.94,1.84,255.08,10.87,2.78
41982,51.47965,-2.704177,46,20.8,10,231.6,13 / 21,4198223,2019-08-16 13:59:12:003,-0.1924,-0.0654,10.2976,-0.0045,0.0291,9.8066,-0.0117,0.0176,-0.0261,-7.42,29.05,1.14,256.52,11.03,2.85
41983,51.47965,-2.704177,46,20.8,10,231.6,13 / 21,4198323,2019-08-16 13:59:12:103,-0.0429,-0.2803,10.1438,0.0036,-0.011,9.8066,-0.0096,0.0197,-0.0367,-7.42,29.05,1.14,256.52,11.03,2.85
41984,51.47965,-2.704177,46,20.8,10,231.6,13 / 21,4198423,2019-08-16 13:59:12:203,-0.0368,0.3721,10.7245,0.0006,-0.0258,9.8066,-0.0117,-0.0698,-0.0069,-7.69,28.97,1.18,256.52,11.03,2.85
41985,51.47965,-2.704177,46,20.8,10,231.6,13 / 21,4198524,2019-08-16 13:59:12:304,0.2623,-0.1827,9.8737,0.0021,-0.0252,9.8066,0.0075,-0.0026,-0.0069,-6.39,29.31,-0.13,257.99,10.89,2.8
41986,51.47965,-2.704177,46,20.8,10,231.6,13 / 21,4198623,2019-08-16 13:59:12:403,-0.0437,-0.0185,10.4342,0.004,-0.0126,9.8066,-0.0085,-0.0516,-0.024,-7.29,29.09,-0.81,257.99,10.89,2.8
41987,51.47965,-2.704177,46,20.8,10,231.6,13 / 21,4198723,2019-08-16 13:59:12:503,-0.1237,-0.5732,10.1002,0.0044,-0.0172,9.8066,0.0021,0.0272,0.0027,-7.29,29.09,-0.81,257.99,10.89,2.8
41988,51.47955,-2.704385,46,19.92,10,232.5,13 / 21,4198823,2019-08-16 13:59:12:603,0.0593,-0.363,10.0455,-0.0011,0.0022,9.8067,0.0021,0.0272,0.0027,-7.95,28.79,-2.77,253.24,10.79,2.75
41989,51.47955,-2.704385,46,19.92,10,232.5,13 / 21,4198923,2019-08-16 13:59:12:703,0.2368,0.5148,10.6615,0.0086,0.0114,9.8066,0.0245,0.0006,-0.0399,-7.42,28.99,-2.1,255.42,10.87,2.73
41990,51.47955,-2.704385,46,19.92,10,232.5,13 / 21,4199023,2019-08-16 13:59:12:803,0.2799,0.3868,9.8046,-0.0055,0.0233,9.8066,0.0075,0.0485,-0.0282,-7.42,28.99,-2.1,255.42,10.87,2.73
41991,51.47955,-2.704385,46,19.92,10,232.5,13 / 21,4199123,2019-08-16 13:59:12:903,0.0106,-0.1897,8.7951,-0.005,-0.0098,9.8066,-0.0074,-0.0527,-0.0091,-7.69,28.96,-1.45,253.96,10.99,2.79
41992,51.47955,-2.704385,46,19.92,10,232.5,13 / 21,4199222,2019-08-16 13:59:13:002,0.0249,-0.2046,10.4538,0.0096,-0.0213,9.8066,-0.0234,0.0325,-0.0154,-7.3,29.1,-0.23,256.15,10.93,2.8
41993,51.47955,-2.704385,46,19.92,10,232.5,13 / 21,4199324,2019-08-16 13:59:13:104,-0.1856,-0.0005,10.5913,0.0228,-0.0216,9.8066,-0.0319,-0.0453,-0.0229,-7.3,29.1,-0.23,256.15,10.93,2.8
41994,51.47955,-2.704385,46,19.92,10,232.5,13 / 21,4199423,2019-08-16 13:59:13:203,0.3446,0.0154,10.2853,0.0448,-0.0133,9.8065,0.0085,-0.0154,-0.0282,-7.84,28.96,-0.23,254.36,10.84,2.64
41995,51.47955,-2.704385,46,19.92,10,232.5,13 / 21,4199523,2019-08-16 13:59:13:303,0.7321,-0.3466,9.8061,0.092,-0.0025,9.8062,-0.0426,-0.0516,-0.024,-7.83,28.92,-1.57,253.73,10.97,2.11
41996,51.47955,-2.704385,46,19.92,10,232.5,13 / 21,4199623,2019-08-16 13:59:13:403,0.2128,-0.1347,8.5665,0.0149,0.0146,9.8066,-0.0426,-0.0516,-0.024,-7.43,29.02,-1.61,253.73,10.97,2.11
41997,51.47955,-2.704385,46,19.92,10,232.5,13 / 21,4199724,2019-08-16 13:59:13:504,0.0567,-0.1392,9.8165,0.0138,0.0364,9.8066,0.0,-0.0229,0.0048,-6.3,29.24,-2.32,257.37,11.2,2.09
41998,51.479427,-2.704617,47,19.83,9,233.2,13 / 21,4199823,2019-08-16 13:59:13:603,0.1177,-0.4504,9.1404,0.0081,-0.0042,9.8066,0.0288,0.0176,-0.0304,-6.3,29.24,-2.32,257.37,11.2,2.09
41999,51.479427,-2.704617,47,19.83,9,233.2,13 / 21,4199923,2019-08-16 13:59:13:703,0.1916,0.4573,8.4989,0.0068,-0.0229,9.8066,-0.0128,0.1358,-0.0165,-6.56,29.23,-1.69,255.55,11.08,2.02
42000,51.479427,-2.704617,47,19.83,9,233.2,13 / 21,4200023,2019-08-16 13:59:13:803,0.4541,-0.1354,9.2062,0.0012,-0.0422,9.8066,0.0298,0.0283,-0.0037,-7.13,29.04,-2.4,255.58,10.84,1.95
42001,51.479427,-2.704617,47,19.83,9,233.2,13 / 21,4200123,2019-08-16 13:59:13:903,0.0631,-0.0516,10.611,0.012,0.0165,9.8066,0.0107,-0.0112,0.0027,-7.13,29.04,-2.4,255.58,10.84,1.95
42002,51.479427,-2.704617,47,19.83,9,233.2,13 / 21,4200223,2019-08-16 13:59:14:003,-0.2318,0.0072,9.6366,0.0047,0.0063,9.8066,0.0096,-0.0335,-0.0133,-7.0,29.12,-1.65,255.58,10.95,1.91
42003,51.479427,-2.704617,47,19.83,9,233.2,13 / 21,4200323,2019-08-16 13:59:14:103,0.0101,-0.3344,9.5577,0.015,-0.013,9.8066,0.0096,-0.0335,-0.0133,-7.29,29.08,-1.0,255.97,10.9,1.8
42004,51.479427,-2.704617,47,19.83,9,233.2,13 / 21,4200424,2019-08-16 13:59:14:204,-0.288,-0.2587,10.8064,0.0,0.0116,9.8066,0.0171,-0.0431,-0.0037,-6.88,29.2,-0.34,255.97,10.9,1.8
42005,51.479427,-2.704617,47,19.83,9,233.2,13 / 21,4200524,2019-08-16 13:59:14:304,-0.0629,-0.4597,9.3404,0.0083,-0.0079,9.8066,0.0043,0.041,-0.0261,-6.88,29.2,-0.34,255.97,10.9,1.8
42006,51.479427,-2.704617,47,19.83,9,233.2,13 / 21,4200623,2019-08-16 13:59:14:403,-0.2668,0.0515,9.7042,-0.0079,-0.0388,9.8066,0.0256,0.0069,-0.0325,-6.19,29.34,-1.01,257.83,10.86,1.74
42007,51.479427,-2.704617,47,19.83,9,233.2,13 / 21,4200723,2019-08-16 13:59:14:503,-0.0654,-0.8721,10.6833,-0.0102,-0.0877,9.8063,-0.0149,0.0314,-0.008,-6.19,29.34,-1.01,257.85,10.35,1.69
42008,51.47933,-2.704859,44,19.75,10,234.4,13 / 21,4200823,2019-08-16 13:59:14:603,-0.1422,-0.7581,11.3176,-0.0045,-0.0415,9.8066,0.0064,-0.0208,-0.0357,-6.19,29.34,-1.01,257.85,10.35,1.69
42009,51.47933,-2.704859,44,19.75,10,234.4,13 / 21,4200923,2019-08-16 13:59:14:703,-0.1656,-0.602,9.8717,-0.0117,-0.0294,9.8066,-0.016,-0.0048,-0.0229,-6.3,29.28,-1.72,257.51,10.11,1.67
42010,51.47933,-2.704859,44,19.75,10,234.4,13 / 21,4201023,2019-08-16 13:59:14:803,-0.2826,0.1654,9.7314,-0.0095,-0.0322,9.8066,-0.016,-0.0048,-0.0229,-5.74,29.43,-0.94,257.86,9.93,1.7
42011,51.47933,-2.704859,44,19.75,10,234.4,13 / 21,4201123,2019-08-16 13:59:14:903,0.0843,-0.1798,9.5563,0.0052,-0.0122,9.8066,-0.0224,0.0538,-0.0133,-6.88,29.18,-1.03,256.01,9.73,1.7
42012,51.47933,-2.704859,44,19.75,10,234.4,13 / 21,4201223,2019-08-16 13:59:15:003,0.1978,0.5318,10.0062,0.007,0.0002,9.8066,-0.001,0.0016,-0.0218,-6.88,29.18,-1.03,256.01,9.73,1.7
42013,51.47933,-2.704859,44,19.75,10,234.4,13 / 21,4201324,2019-08-16 13:59:15:104,0.6078,-0.2957,9.8904,-0.0047,-0.002,9.8066,-0.017,0.0101,-0.0367,-6.62,29.24,-0.99,256.02,9.74,1.66
42014,51.47933,-2.704859,44,19.75,10,234.4,13 / 21,4201424,2019-08-16 13:59:15:204,0.2665,0.0866,9.4159,-0.0273,-0.0441,9.8065,0.0053,0.0677,-0.024,-6.62,29.26,-0.32,256.33,9.45,1.75
42015,51.47933,-2.704859,44,19.75,10,234.4,13 / 21,4201523,2019-08-16 13:59:15:303,-0.3852,-0.5849,11.0508,-0.0293,-0.0584,9.8064,0.0309,0.0133,-0.0027,-6.62,29.26,-0.32,256.33,9.45,1.75
42016,51.47933,-2.704859,44,19.75,10,234.4,13 / 21,4201623,2019-08-16 13:59:15:403,0.1559,-0.4487,10.2032,-0.0326,-0.0491,9.8065,-0.001,0.0197,-0.0176,-7.29,29.09,-0.91,256.0,9.08,1.84
42017,51.47933,-2.704859,44,19.75,10,234.4,13 / 21,4201723,2019-08-16 13:59:15:503,-0.2421,0.1221,10.0894,-0.0573,-0.0714,9.8062,-0.001,0.0197,-0.0176,-7.05,29.12,-1.53,255.69,8.59,2.07
42018,51.479225,-2.705083,44,19.53,10,235.2,13 / 21,4201823,2019-08-16 13:59:15:603,-0.1535,-0.8299,9.4121,-0.0223,-0.022,9.8066,0.0032,-0.0026,-0.0091,-7.05,29.12,-1.53,255.69,8.59,2.07
42019,51.479225,-2.705083,44,19.53,10,235.2,13 / 21,4201922,2019-08-16 13:59:15:702,-0.0828,-0.0684,9.2469,-0.0257,-0.0214,9.8066,0.0139,-0.0133,-0.025,-6.62,29.24,-0.99,255.97,8.43,2.18
42020,51.479225,-2.705083,44,19.53,10,235.2,13 / 21,4202023,2019-08-16 13:59:15:803,0.1064,-0.6012,9.5032,-0.0141,0.0031,9.8066,0.0192,-0.0474,-0.0208,-6.62,29.24,1.01,255.97,8.43,2.18
42021,51.479225,-2.705083,44,19.53,10,235.2,13 / 21,4202123,2019-08-16 13:59:15:903,-0.197,-0.3662,7.0313,-0.0096,0.0348,9.8066,-0.001,0.0559,-0.008,-5.44,29.5,0.34,260.29,8.53,2.37
42022,51.479225,-2.705083,44,19.53,10,235.2,13 / 21,4202223,2019-08-16 13:59:16:003,-1.856,-0.8319,12.1443,-0.0284,0.0283,9.8066,0.0149,0.0091,0.0666,-5.44,29.5,0.34,260.29,8.53,2.37
42023,51.479225,-2.705083,44,19.53,10,235.2,13 / 21,4202324,2019-08-16 13:59:16:104,-1.45,-1.0017,12.8655,-0.0264,-0.0386,9.8065,-0.0607,0.4213,-0.0186,-5.63,29.46,0.35,258.06,8.66,2.57
42024,51.479225,-2.705083,44,19.53,10,235.2,13 / 21,4202424,2019-08-16 13:59:16:204,-0.6219,0.7743,9.8042,-0.036,-0.0889,9.8062,0.13,-0.0506,0.0506,-5.63,29.46,0.35,258.06,8.66,2.57
42025,51.479225,-2.705083,44,19.53,10,235.2,13 / 21,4202524,2019-08-16 13:59:16:304,-0.5034,-0.0558,10.1048,-0.0336,0.0234,9.8066,0.13,-0.0506,0.0506,-5.87,29.4,0.98,258.34,8.11,2.67
42026,51.479225,-2.705083,44,19.53,10,235.2,13 / 21,4202623,2019-08-16 13:59:16:403,0.3276,0.2266,9.86,-0.0683,0.0226,9.8064,0.0235,-0.0293,-0.0016,-6.41,29.31,0.33,257.99,8.16,3.09
42027,51.479225,-2.705083,44,19.53,10,235.2,13 / 21,4202723,2019-08-16 13:59:16:503,-0.4921,-0.2527,10.2581,-0.0015,0.0118,9.8066,0.0266,-0.0218,-0.0282,-6.41,29.31,0.33,257.99,8.16,3.09
42028,51.479122,-2.705325,45,19.63,10,235.8,13 / 21,4202823,2019-08-16 13:59:16:603,-0.0857,-0.3304,9.2932,0.0183,-0.0011,9.8066,-0.0405,-0.0005,-0.0325,-6.41,29.31,-0.31,257.98,8.23,3.11
42029,51.479122,-2.705325,45,19.63,10,235.8,13 / 21,4202924,2019-08-16 13:59:16:704,0.4106,0.3287,8.6928,0.0372,-0.0674,9.8063,-0.0575,0.0325,-0.0176,-6.51,29.24,-1.63,255.62,7.89,2.81
42030,51.479122,-2.705325,45,19.63,10,235.8,13 / 21,4203024,2019-08-16 13:59:16:804,0.0601,-0.1248,9.844,0.05,0.0242,9.8065,0.0139,-0.0559,-0.008,-6.51,29.24,-1.63,255.62,7.89,2.81
42031,51.479122,-2.705325,45,19.63,10,235.8,13 / 21,4203124,2019-08-16 13:59:16:904,0.0343,0.0967,9.2444,0.0197,0.0483,9.8065,0.0053,-0.0303,-0.008,-5.54,29.47,-1.0,257.77,8.27,2.58
42032,51.479122,-2.705325,45,19.63,10,235.8,13 / 21,4203223,2019-08-16 13:59:17:003,-0.1598,0.0611,8.4202,-0.0149,-0.0281,9.8066,0.0021,0.0783,-0.0037,-5.62,29.42,-1.7,257.47,8.57,2.53
42033,51.479122,-2.705325,45,19.63,10,235.8,13 / 21,4203323,2019-08-16 13:59:17:103,-0.2694,0.2364,11.0247,-0.0418,-0.093,9.8061,0.0021,0.0783,-0.0037,-5.62,29.42,-1.7,257.47,8.57,2.53
42034,51.479122,-2.705325,45,19.63,10,235.8,13 / 21,4203423,2019-08-16 13:59:17:203,0.253,0.3453,10.7874,-0.0027,0.0071,9.8066,-0.016,-0.057,0.0069,-6.64,29.24,-1.09,255.91,7.99,2.65
42035,51.479122,-2.705325,45,19.63,10,235.8,13 / 21,4203523,2019-08-16 13:59:17:303,0.5513,-0.836,9.99,-0.0249,-0.0232,9.8066,0.0352,0.0325,-0.0101,-6.52,29.26,-1.07,255.91,7.82,2.76
42036,51.479122,-2.705325,45,19.63,10,235.8,13 / 21,4203623,2019-08-16 13:59:17:403,0.006,0.2512,11.0717,-0.0041,-0.0451,9.8065,-0.0042,-0.0186,-0.025,-6.52,29.26,-1.07,255.91,7.82,2.76
42037,51.479122,-2.705325,45,19.63,10,235.8,13 / 21,4203723,2019-08-16 13:59:17:503,0.0685,0.2623,10.1489,-0.0004,-0.0121,9.8066,0.0053,0.024,-0.0059,-6.41,29.31,0.15,258.05,7.56,2.72
42038,51.47903,-2.705555,45,19.57,10,236.6,13 / 21,4203823,2019-08-16 13:59:17:603,0.0804,-0.0454,10.234,-0.0027,-0.0011,9.8067,0.0,-0.073,-0.0165,-6.81,29.22,0.14,258.05,7.56,2.72
42039,51.47903,-2.705555,45,19.57,10,236.6,13 / 21,4203922,2019-08-16 13:59:17:702,0.3261,-0.2225,9.1227,-0.0021,0.0628,9.8064,-0.0192,-0.0506,-0.0229,-5.87,29.4,-1.05,257.75,7.92,2.8
42040,51.47903,-2.705555,45,19.57,10,236.6,13 / 21,4204023,2019-08-16 13:59:17:803,-0.2102,0.3987,9.6747,0.0003,0.0075,9.8066,-0.0319,0.0432,-0.0208,-5.07,29.55,-1.1,257.75,7.92,2.8
42041,51.47903,-2.705555,45,19.57,10,236.6,13 / 21,4204124,2019-08-16 13:59:17:904,0.6272,-0.3499,9.962,0.001,-0.0072,9.8066,-0.0319,0.0432,-0.0208,-5.08,29.56,-0.43,260.24,7.88,2.79
42042,51.47903,-2.705555,45,19.57,10,236.6,13 / 21,4204223,2019-08-16 13:59:18:003,0.3304,0.1405,9.5714,-0.0122,-0.0201,9.8066,0.0181,-0.0122,-0.0186,-5.08,29.56,-0.43,260.24,7.88,2.79
42043,51.47903,-2.705555,45,19.57,10,236.6,13 / 21,4204323,2019-08-16 13:59:18:103,-0.156,0.0023,9.8931,-0.0034,-0.0371,9.8066,0.0107,-0.0005,-0.0176,-5.63,29.46,-0.43,258.03,7.75,2.84
42044,51.47903,-2.705555,45,19.57,10,236.6,13 / 21,4204423,2019-08-16 13:59:18:203,-0.2876,-0.2611,9.3117,-0.0199,-0.1075,9.806,0.0117,0.0357,-0.0069,-4.98,29.56,-1.08,258.03,7.75,2.84
42045,51.47903,-2.705555,45,19.57,10,236.6,13 / 21,4204523,2019-08-16 13:59:18:303,-0.1004,-0.163,9.9927,-0.0055,-0.0341,9.8066,0.0,-0.0389,-0.008,-6.1,29.37,-0.42,258.05,7.11,2.82
42046,51.47903,-2.705555,45,19.57,10,236.6,13 / 21,4204623,2019-08-16 13:59:18:403,0.0389,0.0434,9.574,0.0024,-0.0192,9.8066,-0.0202,0.0165,-0.0176,-6.1,29.37,-0.42,258.05,7.11,2.82
42047,51.47903,-2.705555,45,19.57,10,236.6,13 / 21,4204724,2019-08-16 13:59:18:504,0.4918,-0.0648,8.3061,0.0187,0.0019,9.8066,-0.0469,0.0836,-0.0027,-6.09,29.35,-1.09,257.81,7.0,2.79
42048,51.478928,-2.705801,45,19.76,9,237.1,13 / 21,4204823,2019-08-16 13:59:18:603,0.3098,0.5423,9.8009,0.049,0.0085,9.8065,-0.0032,0.0868,-0.0144,-6.4,29.27,-1.6,257.81,7.0,2.79
42049,51.478928,-2.705801,45,19.76,9,237.1,13 / 21,4204923,2019-08-16 13:59:18:703,0.2418,0.6164,11.0275,0.0584,-0.0086,9.8065,-0.0032,0.0868,-0.0144,-5.87,29.38,-1.61,257.6,7.03,2.44
42050,51.478928,-2.705801,45,19.76,9,237.1,13 / 21,4205023,2019-08-16 13:59:18:803,0.5602,0.1222,10.5335,0.0066,0.0428,9.8065,0.0426,-0.073,0.0005,-5.87,29.38,-1.61,257.6,7.03,2.44
42051,51.478928,-2.705801,45,19.76,9,237.1,13 / 21,4205123,2019-08-16 13:59:18:903,0.4977,-0.4586,10.204,-0.0344,-0.0508,9.8065,0.0394,0.0187,-0.0133,-5.08,29.56,-0.43,260.29,7.3,2.52
42052,51.478928,-2.705801,45,19.76,9,237.1,13 / 21,4205223,2019-08-16 13:59:19:003,-0.289,0.0812,9.2563,-0.0656,-0.0915,9.806,0.0437,-0.0325,0.0005,-5.17,29.5,-1.71,260.29,7.3,2.52
42053,51.478928,-2.705801,45,19.76,9,237.1,13 / 21,4205323,2019-08-16 13:59:19:103,0.1306,0.1579,9.1012,-0.017,0.0223,9.8066,-0.0032,-0.0303,-0.025,-5.87,29.38,-1.61,257.58,6.71,2.81
42054,51.478928,-2.705801,45,19.76,9,237.1,13 / 21,4205423,2019-08-16 13:59:19:203,0.1479,-0.0876,7.2926,-0.0008,0.0527,9.8065,0.033,-0.0804,-0.0101,-5.67,29.46,-0.39,258.04,7.01,2.89
42055,51.478928,-2.705801,45,19.76,9,237.1,13 / 21,4205523,2019-08-16 13:59:19:303,-0.2183,-0.2122,10.0002,0.0106,0.0453,9.8065,-0.0287,-0.0016,-0.0378,-5.67,29.46,-0.39,258.04,7.01,2.89
42056,51.478928,-2.705801,45,19.76,9,237.1,13 / 21,4205624,2019-08-16 13:59:19:404,0.5389,0.5759,9.0382,0.0321,0.0483,9.8065,-0.0287,-0.0016,-0.0378,-4.89,29.59,0.8,260.5,7.28,2.88
42057,51.478928,-2.705801,45,19.76,9,237.1,13 / 21,4205723,2019-08-16 13:59:19:503,0.3774,0.7384,8.442,0.0548,0.0808,9.8062,-0.0405,-0.0197,-0.0091,-5.98,29.39,-0.42,260.5,7.28,2.88
42058,51.478844,-2.706019,45,19.93,9,237.9,13 / 21,4205823,2019-08-16 13:59:19:603,-0.4172,0.3638,11.0561,0.0707,0.1134,9.8057,-0.0117,0.0069,0.0048,-5.44,29.5,-0.42,259.95,8.0,2.58
42059,51.478844,-2.706019,45,19.93,9,237.9,13 / 21,4205923,2019-08-16 13:59:19:703,0.2904,-0.187,10.6294,0.0184,0.0029,9.8066,0.0075,0.0155,-0.0037,-4.43,29.65,-1.08,261.86,8.04,2.47
42060,51.478844,-2.706019,45,19.93,9,237.9,13 / 21,4206023,2019-08-16 13:59:19:803,-0.1737,0.2976,9.5708,0.0055,-0.0141,9.8066,0.0181,0.0773,-0.0133,-4.51,29.61,-1.68,261.86,8.04,2.47
42061,51.478844,-2.706019,45,19.93,9,237.9,13 / 21,4206122,2019-08-16 13:59:19:902,0.31,0.4207,9.3923,0.0176,0.0073,9.8066,0.0032,-0.0218,-0.0112,-4.51,29.61,-1.68,261.86,8.04,2.47
42062,51.478844,-2.706019,45,19.93,9,237.9,13 / 21,4206223,2019-08-16 13:59:20:003,0.736,0.818,9.1072,0.0159,0.0881,9.8062,0.0256,-0.0005,-0.0197,-5.07,29.55,-1.1,260.02,8.09,2.38
42063,51.478844,-2.706019,45,19.93,9,237.9,13 / 21,4206323,2019-08-16 13:59:20:103,0.6549,0.2422,8.607,0.0078,0.0563,9.8065,-0.0064,-0.0378,-0.008,-4.89,29.58,-1.06,260.0,8.62,2.38
42064,51.478844,-2.706019,45,19.93,9,237.9,13 / 21,4206423,2019-08-16 13:59:20:203,-0.2676,0.283,8.7257,0.0111,0.118,9.8059,-0.0064,-0.0378,-0.008,-4.34,29.66,-1.06,260.0,8.62,2.38
42065,51.478844,-2.706019,45,19.93,9,237.9,13 / 21,4206523,2019-08-16 13:59:20:303,-0.1962,0.3875,10.2421,0.0141,0.1321,9.8058,0.0384,0.0506,-0.0421,-4.34,29.66,-1.06,260.0,8.62,2.38
42066,51.478844,-2.706019,45,19.93,9,237.9,13 / 21,4206623,2019-08-16 13:59:20:403,0.0749,-0.0429,10.4534,-0.0019,-0.0081,9.8066,-0.0138,0.0112,-0.0048,-4.27,29.69,-0.4,262.11,9.39,2.43
42067,51.478844,-2.706019,45,19.93,9,237.9,13 / 21,4206723,2019-08-16 13:59:20:503,-0.2964,-0.1172,10.0921,-0.0123,-0.0315,9.8066,0.0032,-0.0048,-0.0101,-4.89,29.6,0.24,260.26,9.2,2.48
42068,51.478745,-2.706264,45,19.78,9,238.8,13 / 21,4206823,2019-08-16 13:59:20:603,-0.1904,-0.3034,9.2987,-0.0042,-0.0002,9.8066,0.0171,0.0655,-0.0037,-4.89,29.6,0.24,260.26,9.2,2.48
42069,51.478745,-2.706264,45,19.78,9,238.8,13 / 21,4206924,2019-08-16 13:59:20:704,-0.09,0.1759,8.9831,0.0163,0.0266,9.8066,-0.0202,-0.0463,-0.0122,-4.52,29.65,-0.7,259.95,9.19,2.5
42070,51.478745,-2.706264,45,19.78,9,238.8,13 / 21,4207024,2019-08-16 13:59:20:804,-0.1946,-0.1974,9.1228,0.0257,0.065,9.8064,-0.0042,-0.0186,-0.0069,-3.45,29.8,-0.16,259.95,9.19,2.5
42071,51.478745,-2.706264,45,19.78,9,238.8,13 / 21,4207123,2019-08-16 13:59:20:903,0.0743,0.4784,10.8186,0.0348,0.1092,9.806,-0.0042,-0.0186,-0.0069,-4.14,29.71,-0.16,262.1,9.86,2.41
42072,51.478745,-2.706264,45,19.78,9,238.8,13 / 21,4207223,2019-08-16 13:59:21:003,-0.1165,0.6821,9.5969,0.019,0.0517,9.8065,-0.0415,-0.0602,0.0027,-3.58,29.79,-0.16,262.1,9.86,2.41
42073,51.478745,-2.706264,45,19.78,9,238.8,13 / 21,4207324,2019-08-16 13:59:21:104,-0.309,-0.2981,11.2071,0.0171,-0.0237,9.8066,-0.0192,0.0037,-0.0186,-4.22,29.7,-0.17,262.11,10.17,2.34
42074,51.478745,-2.706264,45,19.78,9,238.8,13 / 21,4207423,2019-08-16 13:59:21:203,0.0541,-0.1436,10.4578,0.0027,0.0041,9.8066,0.0075,-0.0048,-0.0293,-4.52,29.65,-0.7,259.96,10.05,2.22
42075,51.478745,-2.706264,45,19.78,9,238.8,13 / 21,4207523,2019-08-16 13:59:21:303,-0.0316,-0.443,9.5205,-0.0222,-0.0141,9.8066,0.0085,0.0155,0.0069,-4.52,29.65,-0.7,259.96,10.05,2.22
42076,51.478745,-2.706264,45,19.78,9,238.8,13 / 21,4207623,2019-08-16 13:59:21:403,-0.1807,0.3311,10.0923,-0.0181,0.0009,9.8066,0.0394,-0.0303,-0.0229,-5.15,29.55,0.5,260.28,9.94,2.34
42077,51.478745,-2.706264,45,19.78,9,238.8,13 / 21,4207724,2019-08-16 13:59:21:504,-0.1559,-0.01,10.4076,-0.0191,0.0573,9.8065,-0.0181,-0.009,-0.0197,-4.61,29.64,0.49,260.26,9.93,2.44
42078,51.47865,-2.706511,45,19.68,9,239.4,13 / 21,4207823,2019-08-16 13:59:21:603,0.4346,0.3448,9.602,-0.0119,0.0866,9.8063,0.0107,-0.008,-0.0091,-4.61,29.64,-0.07,260.22,10.42,2.6
42079,51.47865,-2.706511,45,19.68,9,239.4,13 / 21,4207923,2019-08-16 13:59:21:703,-0.0446,0.068,9.4444,-0.0032,0.0039,9.8067,0.0053,0.0219,0.0101,-4.61,29.64,-0.07,260.22,10.42,2.6
42080,51.47865,-2.706511,45,19.68,9,239.4,13 / 21,4208023,2019-08-16 13:59:21:803,-0.2521,0.048,9.1254,-0.0258,-0.0031,9.8066,0.0053,0.0219,0.0101,-3.51,29.78,-0.81,261.68,10.37,2.75
42081,51.47865,-2.706511,45,19.68,9,239.4,13 / 21,4208124,2019-08-16 13:59:21:904,-0.2705,0.0277,10.0448,-0.0387,-0.0033,9.8066,0.0394,0.04,-0.0133,-3.51,29.78,-0.72,261.68,10.37,2.75
42082,51.47865,-2.706511,45,19.68,9,239.4,13 / 21,4208223,2019-08-16 13:59:22:003,0.0358,-0.558,10.5368,-0.0123,-0.0429,9.8066,0.0203,0.024,-0.0059,-2.96,29.84,-0.72,263.5,10.19,2.99
42083,51.47865,-2.706511,45,19.68,9,239.4,13 / 21,4208323,2019-08-16 13:59:22:103,-0.1511,-0.2732,10.3968,-0.0122,-0.0458,9.8065,-0.0277,0.008,-0.0208,-4.52,29.65,-0.7,259.82,9.91,3.03
42084,51.47865,-2.706511,45,19.68,9,239.4,13 / 21,4208423,2019-08-16 13:59:22:203,-0.4512,-0.7475,10.2615,0.0186,-0.0165,9.8066,-0.0564,0.0101,-0.0304,-4.52,29.65,-0.7,259.82,9.91,3.03
42085,51.47865,-2.706511,45,19.68,9,239.4,13 / 21,4208523,2019-08-16 13:59:22:303,0.3758,-0.4886,10.6774,0.0427,-0.0192,9.8065,-0.0074,0.0165,0.0016,-3.99,29.73,-0.7,261.68,9.84,2.9
42086,51.47865,-2.706511,45,19.68,9,239.4,13 / 21,4208623,2019-08-16 13:59:22:403,-0.0599,-0.5918,10.5949,0.0715,-0.0565,9.8062,0.0064,0.0069,-0.0399,-3.99,29.73,-0.7,261.68,9.84,2.9
42087,51.47865,-2.706511,45,19.68,9,239.4,13 / 21,4208723,2019-08-16 13:59:22:503,0.1245,-0.6593,10.478,0.0145,-0.015,9.8066,0.0064,0.0069,-0.0399,-4.06,29.72,-0.07,262.1,9.57,2.44
42088,51.478554,-2.706757,46,19.49,9,240.1,13 / 21,4208823,2019-08-16 13:59:22:603,0.091,-0.3507,9.9882,0.0373,-0.0277,9.8065,-0.0106,-0.0058,-0.0218,-4.13,29.68,-1.39,261.83,9.44,2.2
42089,51.478554,-2.706757,46,19.49,9,240.1,13 / 21,4208924,2019-08-16 13:59:22:704,-0.1909,-0.0116,8.6595,0.0097,-0.0004,9.8066,0.0288,0.0155,-0.0122,-4.69,29.6,-1.29,260.0,9.45,2.14
42090,51.478554,-2.706757,46,19.49,9,240.1,13 / 21,4209023,2019-08-16 13:59:22:803,0.126,0.3597,9.2219,0.0043,0.047,9.8065,-0.001,-0.0101,-0.0154,-4.69,29.6,-1.29,260.0,9.45,2.14
42091,51.478554,-2.706757,46,19.49,9,240.1,13 / 21,4209123,2019-08-16 13:59:22:903,0.5863,0.3995,10.0256,-0.015,0.0405,9.8066,0.0117,-0.123,-0.0176,-3.06,29.83,-0.75,263.68,9.72,2.16
42092,51.478554,-2.706757,46,19.49,9,240.1,13 / 21,4209223,2019-08-16 13:59:23:003,-0.1029,0.1377,9.8106,-0.022,0.0085,9.8066,-0.0042,0.0389,-0.0016,-2.45,29.87,-1.31,265.48,10.28,2.34
42093,51.478554,-2.706757,46,19.49,9,240.1,13 / 21,4209323,2019-08-16 13:59:23:103,0.0107,-0.3469,10.8785,-0.023,-0.0427,9.8065,-0.001,0.0687,-0.0304,-3.57,29.78,-0.73,265.48,10.28,2.34
42094,51.478554,-2.706757,46,19.49,9,240.1,13 / 21,4209423,2019-08-16 13:59:23:203,-0.07,-0.5028,11.2984,-0.0104,-0.0899,9.8062,0.0192,-0.0037,-0.0186,-4.06,29.72,-0.07,262.09,10.02,2.46
42095,51.478554,-2.706757,46,19.49,9,240.1,13 / 21,4209523,2019-08-16 13:59:23:303,0.031,-0.7463,9.8582,-0.0288,-0.1419,9.8056,0.0192,-0.0037,-0.0186,-4.06,29.72,-0.07,262.09,10.02,2.46
42096,51.478554,-2.706757,46,19.49,9,240.1,13 / 21,4209622,2019-08-16 13:59:23:402,-0.2959,-0.5336,9.5622,0.0076,0.0277,9.8066,0.0075,-0.0261,-0.0272,-4.06,29.72,0.58,262.41,9.18,2.51
42097,51.478554,-2.706757,46,19.49,9,240.1,13 / 21,4209723,2019-08-16 13:59:23:503,-0.1411,0.7021,8.5689,0.0203,0.0854,9.8063,-0.0277,-0.0442,-0.0304,-4.06,29.7,1.23,262.41,9.18,2.51
42098,51.478474,-2.706996,46,19.29,9,240.8,13 / 21,4209823,2019-08-16 13:59:23:603,0.222,0.5303,10.5702,0.0024,0.0571,9.8065,0.0181,-0.0431,-0.0229,-2.9,29.76,2.4,264.61,9.69,2.46
42099,51.478474,-2.706996,46,19.29,9,240.8,13 / 21,4209924,2019-08-16 13:59:23:704,0.3472,0.3938,8.8221,0.0108,0.1062,9.8061,0.0043,0.04,-0.0101,-3.27,29.8,1.15,264.29,10.31,2.45
42100,51.478474,-2.706996,46,19.29,9,240.8,13 / 21,4210024,2019-08-16 13:59:23:804,0.274,-0.1045,11.4588,0.0122,-0.0399,9.8066,-0.0117,0.0197,-0.0005,-3.27,29.8,1.15,264.29,10.31,2.45
42101,51.478474,-2.706996,46,19.29,9,240.8,13 / 21,4210123,2019-08-16 13:59:23:903,-0.0073,0.4357,10.4616,0.0135,-0.0717,9.8064,-0.0117,0.0197,-0.0005,-3.02,29.85,-0.07,263.97,9.9,2.33
42102,51.478474,-2.706996,46,19.29,9,240.8,13 / 21,4210223,2019-08-16 13:59:24:003,0.1037,-0.0689,9.5216,0.0004,0.0065,9.8066,-0.0128,-0.0271,-0.008,-3.02,29.85,-0.07,263.97,9.94,2.33
42103,51.478474,-2.706996,46,19.29,9,240.8,13 / 21,4210323,2019-08-16 13:59:24:103,-0.0745,-0.0809,10.4234,0.007,-0.0076,9.8066,-0.0469,0.0133,-0.0101,-2.96,29.84,-0.72,263.97,9.94,2.33
42104,51.478474,-2.706996,46,19.29,9,240.8,13 / 21,4210423,2019-08-16 13:59:24:203,0.1316,0.1594,10.4126,0.0255,-0.0614,9.8064,0.0298,0.0922,-0.0091,-2.96,29.84,-0.72,263.97,9.94,2.33
42105,51.478474,-2.706996,46,19.29,9,240.8,13 / 21,4210523,2019-08-16 13:59:24:303,0.3269,-0.2662,9.9461,-0.0186,0.048,9.8065,0.0181,-0.0367,-0.0048,-3.51,29.79,-0.07,262.15,9.6,2.14
42106,51.478474,-2.706996,46,19.29,9,240.8,13 / 21,4210623,2019-08-16 13:59:24:403,-0.0939,0.121,9.0821,0.0065,0.0549,9.8065,-0.0053,-0.0176,-0.0261,-3.51,29.79,-0.07,262.12,9.86,2.29
42107,51.478474,-2.706996,46,19.29,9,240.8,13 / 21,4210724,2019-08-16 13:59:24:504,-0.1898,0.1653,9.6088,0.0214,0.0553,9.8065,0.0128,0.0261,-0.0101,-3.45,29.8,-0.16,262.12,9.86,2.29
42108,51.478382,-2.707243,47,19.15,9,241.7,13 / 21,4210822,2019-08-16 13:59:24:602,0.1636,0.175,10.4727,0.0089,0.0399,9.8066,0.0128,0.0261,-0.0101,-3.45,29.8,-0.16,262.12,9.86,2.29
42109,51.478382,-2.707243,47,19.15,9,241.7,13 / 21,4210923,2019-08-16 13:59:24:703,-0.1284,0.1877,9.2886,-0.029,0.0134,9.8066,0.0235,0.0378,-0.0005,-3.45,29.8,0.57,264.32,10.1,2.27
42110,51.478382,-2.707243,47,19.15,9,241.7,13 / 21,4211023,2019-08-16 13:59:24:803,-0.2159,-0.6413,8.911,-0.0465,-0.0099,9.8065,0.0224,0.0133,0.0133,-2.91,29.85,-0.8,264.32,10.1,2.27
42111,51.478382,-2.707243,47,19.15,9,241.7,13 / 21,4211124,2019-08-16 13:59:24:904,-0.1379,-0.6956,10.3108,-0.0166,-0.0704,9.8064,0.0288,0.0698,-0.0059,-2.85,29.85,-0.79,263.6,10.01,2.54
42112,51.478382,-2.707243,47,19.15,9,241.7,13 / 21,4211224,2019-08-16 13:59:25:004,-0.1873,-0.2858,9.583,-0.0191,-0.0807,9.8063,0.0021,-0.0612,0.0005,-4.06,29.72,-0.16,262.08,9.53,2.6
42113,51.478382,-2.707243,47,19.15,9,241.7,13 / 21,4211323,2019-08-16 13:59:25:103,0.0174,-0.2766,9.8512,0.0051,0.0411,9.8066,-0.016,-0.0346,-0.041,-4.06,29.72,-0.16,262.08,9.53,2.6
42114,51.478382,-2.707243,47,19.15,9,241.7,13 / 21,4211423,2019-08-16 13:59:25:203,-0.2981,0.011,9.9131,0.0265,-0.0084,9.8066,-0.0394,0.0346,-0.0229,-2.91,29.86,-0.25,263.97,9.93,2.37
42115,51.478382,-2.707243,47,19.15,9,241.7,13 / 21,4211523,2019-08-16 13:59:25:303,0.2008,-0.6335,9.8705,0.0316,-0.064,9.8064,-0.0064,-0.0303,-0.0091,-3.99,29.73,-0.16,263.97,9.93,2.37
42116,51.478382,-2.707243,47,19.15,9,241.7,13 / 21,4211623,2019-08-16 13:59:25:403,0.2366,-0.066,10.6412,0.0119,0.001,9.8066,-0.0064,-0.0303,-0.0091,-3.38,29.77,1.55,264.65,9.57,2.14
42117,51.478382,-2.707243,47,19.15,9,241.7,13 / 21,4211722,2019-08-16 13:59:25:502,-0.1996,-0.3811,9.2536,-0.0172,-0.0185,9.8066,0.0064,-0.0154,0.0112,-4.36,29.64,1.6,262.78,9.46,2.23
42118,51.47831,-2.707478,47,18.92,9,242.3,13 / 21,4211823,2019-08-16 13:59:25:603,-0.2561,0.1694,8.9688,-0.0296,-0.0585,9.8064,0.0458,0.0101,-0.0069,-3.85,29.74,0.99,262.43,9.09,2.36
42119,51.47831,-2.707478,47,18.92,9,242.3,13 / 21,4211924,2019-08-16 13:59:25:704,-0.0025,0.5918,8.9928,-0.0171,0.0045,9.8066,0.0277,-0.0485,-0.0218,-3.85,29.74,0.99,262.43,9.09,2.36
42120,51.47831,-2.707478,47,18.92,9,242.3,13 / 21,4212023,2019-08-16 13:59:25:803,-0.0123,-0.3248,10.4404,-0.0101,0.0034,9.8066,-0.0138,0.0474,-0.0016,-3.27,29.82,0.37,263.97,9.11,2.47
42121,51.47831,-2.707478,47,18.92,9,242.3,13 / 21,4212123,2019-08-16 13:59:25:903,-0.1202,-0.2437,10.7971,-0.0099,-0.0022,9.8066,-0.0277,-0.0218,-0.0016,-2.91,29.86,-0.25,263.96,9.09,2.52
42122,51.47831,-2.707478,47,18.92,9,242.3,13 / 21,4212223,2019-08-16 13:59:26:003,0.398,-0.2549,9.0284,0.0118,0.0199,9.8066,0.016,0.0251,-0.0059,-2.36,29.91,-0.25,263.96,9.09,2.52
42123,51.47831,-2.707478,47,18.92,9,242.3,13 / 21,4212324,2019-08-16 13:59:26:104,-0.2413,0.182,9.1361,0.0001,0.0109,9.8066,0.0085,0.0187,0.0048,-2.85,29.86,-0.25,263.96,9.15,2.53
42124,51.47831,-2.707478,47,18.92,9,242.3,13 / 21,4212424,2019-08-16 13:59:26:204,-0.5367,-0.0319,9.4623,-0.0054,-0.0262,9.8066,0.0085,0.0187,0.0048,-2.85,29.86,-0.25,263.96,9.15,2.53
42125,51.47831,-2.707478,47,18.92,9,242.3,13 / 21,4212523,2019-08-16 13:59:26:303,-0.3264,-0.1738,9.0847,0.0008,-0.0027,9.8067,0.0032,0.0027,0.0101,-2.76,29.87,-0.24,263.96,9.0,2.55
42126,51.47831,-2.707478,47,18.92,9,242.3,13 / 21,4212623,2019-08-16 13:59:26:403,-0.0752,0.3349,9.7233,0.0166,-0.0048,9.8066,-0.0128,0.0336,-0.0272,-2.75,29.86,0.98,263.96,9.0,2.55
42127,51.47831,-2.707478,47,18.92,9,242.3,13 / 21,4212723,2019-08-16 13:59:26:503,0.2339,-0.1245,8.7286,0.0327,-0.0072,9.8066,-0.0128,-0.0399,-0.0122,-2.27,29.87,1.62,266.45,8.98,2.44
42128,51.47823,-2.707716,48,18.87,9,242.8,13 / 21,4212823,2019-08-16 13:59:26:603,0.2036,0.0003,8.5855,0.0606,-0.0355,9.8064,-0.0042,0.0144,0.0048,-2.27,29.87,1.62,266.45,8.98,2.44
42129,51.47823,-2.707716,48,18.87,9,242.8,13 / 21,4212923,2019-08-16 13:59:26:703,-0.3753,0.5475,9.5463,-0.02,0.029,9.8066,0.0021,-0.0144,-0.025,-2.75,29.86,0.98,264.33,8.79,2.07
42130,51.47823,-2.707716,48,18.87,9,242.8,13 / 21,4213023,2019-08-16 13:59:26:803,-0.2363,-0.0573,8.8509,0.0016,0.0589,9.8065,-0.0266,-0.0101,-0.008,-2.28,29.9,-0.77,265.59,8.95,2.21
42131,51.47823,-2.707716,48,18.87,9,242.8,13 / 21,4213123,2019-08-16 13:59:26:903,-0.0556,0.37,10.4456,0.0079,0.0686,9.8064,0.0043,0.0762,0.008,-1.24,29.96,-0.79,267.45,9.35,2.19
42132,51.47823,-2.707716,48,18.87,9,242.8,13 / 21,4213223,2019-08-16 13:59:27:003,0.2164,-0.2948,10.8387,-0.0011,-0.0229,9.8066,0.0043,0.0762,0.008,-1.24,29.96,-0.79,267.45,9.35,2.19
42133,51.47823,-2.707716,48,18.87,9,242.8,13 / 21,4213323,2019-08-16 13:59:27:103,-0.2759,0.1191,11.0153,-0.0245,-0.0196,9.8066,0.0671,0.0581,-0.0186,-0.71,29.99,0.3,267.75,9.03,2.31
42134,51.47823,-2.707716,48,18.87,9,242.8,13 / 21,4213424,2019-08-16 13:59:27:204,0.3318,-0.0651,8.9287,-0.0071,-0.0484,9.8065,-0.0245,0.0666,-0.0208,-1.78,29.94,0.39,267.75,9.03,2.31
42135,51.47823,-2.707716,48,18.87,9,242.8,13 / 21,4213523,2019-08-16 13:59:27:303,-0.4809,-0.0999,9.3069,0.0066,0.0011,9.8066,-0.0085,-0.009,-0.0144,-2.8,29.87,-0.24,264.0,8.74,2.34
42136,51.47823,-2.707716,48,18.87,9,242.8,13 / 21,4213623,2019-08-16 13:59:27:403,0.3948,0.1342,8.4236,0.023,0.016,9.8066,0.0085,-0.0069,-0.0048,-2.28,29.91,0.38,265.88,8.75,2.3
42137,51.47823,-2.707716,48,18.87,9,242.8,13 / 21,4213722,2019-08-16 13:59:27:502,0.5495,-0.1034,9.2259,0.0323,0.0577,9.8064,0.0416,-0.0314,-0.0282,-1.78,29.93,1.02,266.2,9.1,2.13
42138,51.478146,-2.707958,49,18.84,9,243.4,13 / 21,4213823,2019-08-16 13:59:27:603,0.4063,-0.2509,9.3135,0.0008,-0.003,9.8067,0.016,0.0197,-0.0165,-1.78,29.93,1.02,266.2,9.1,2.13
42139,51.478146,-2.707958,49,18.84,9,243.4,13 / 21,4213922,2019-08-16 13:59:27:702,-0.0494,0.2311,9.0151,-0.0171,0.0043,9.8066,0.0224,-0.0069,-0.0048,-1.75,29.93,1.0,266.18,9.12,2.23
42140,51.478146,-2.707958,49,18.84,9,243.4,13 / 21,4214023,2019-08-16 13:59:27:803,-0.4317,0.119,10.3724,-0.019,-0.0132,9.8066,0.0224,-0.0069,-0.0048,-1.26,29.97,-0.16,267.75,9.04,2.34
42141,51.478146,-2.707958,49,18.84,9,243.4,13 / 21,4214123,2019-08-16 13:59:27:903,0.0788,0.0691,9.6782,-0.0114,-0.0278,9.8066,-0.0106,0.0442,0.0112,-1.26,29.97,-0.16,267.75,9.04,2.34
42142,51.478146,-2.707958,49,18.84,9,243.4,13 / 21,4214223,2019-08-16 13:59:28:003,-0.0276,-0.047,8.9412,-0.0012,-0.0318,9.8066,-0.0202,-0.0133,-0.0165,-1.85,29.94,-0.16,265.86,8.87,2.4
42143,51.478146,-2.707958,49,18.84,9,243.4,13 / 21,4214323,2019-08-16 13:59:28:103,0.105,0.0621,8.6734,0.0072,-0.0163,9.8066,0.0011,0.0069,-0.0154,-1.29,29.97,-0.16,267.75,8.69,2.4
42144,51.478146,-2.707958,49,18.84,9,243.4,13 / 21,4214423,2019-08-16 13:59:28:203,0.2339,-0.1309,9.3763,0.015,-0.0181,9.8066,-0.0085,0.0453,0.0027,-1.26,29.97,-0.16,267.75,8.69,2.4
42145,51.478146,-2.707958,49,18.84,9,243.4,13 / 21,4214523,2019-08-16 13:59:28:303,-0.2933,0.0981,10.7595,0.013,-0.0163,9.8066,-0.033,0.0101,-0.0144,-1.26,29.97,-0.16,267.75,8.69,2.4
42146,51.478146,-2.707958,49,18.84,9,243.4,13 / 21,4214623,2019-08-16 13:59:28:403,0.1534,-0.0386,10.0045,0.0,-0.0086,9.8066,0.0117,-0.0229,-0.0176,-1.75,29.93,1.09,266.17,8.59,2.31
42147,51.478146,-2.707958,49,18.84,9,243.4,13 / 21,4214723,2019-08-16 13:59:28:503,0.1455,-0.5972,9.8361,0.0097,-0.0343,9.8066,-0.0053,0.0123,-0.0176,-2.36,29.89,1.13,266.18,8.4,2.24
42148,51.478073,-2.70821,48,18.81,9,244.0,13 / 21,4214823,2019-08-16 13:59:28:603,0.5461,-0.3973,9.7702,0.019,-0.005,9.8066,-0.0053,0.0123,-0.0176,-2.36,29.89,1.13,266.18,8.4,2.24
42149,51.478073,-2.70821,48,18.81,9,244.0,13 / 21,4214923,2019-08-16 13:59:28:703,0.3051,-0.5281,10.046,0.0263,0.0187,9.8066,0.0117,-0.008,-0.0314,-1.81,29.94,-0.16,265.91,8.38,2.13
42150,51.478073,-2.70821,48,18.81,9,244.0,13 / 21,4215023,2019-08-16 13:59:28:803,0.3937,0.0782,10.369,0.0517,0.0378,9.8064,0.0053,-0.0037,-0.0016,-1.24,29.97,-0.07,265.91,8.38,2.13
42151,51.478073,-2.70821,48,18.81,9,244.0,13 / 21,4215123,2019-08-16 13:59:28:903,0.6564,0.1189,10.304,0.004,-0.0299,9.8066,0.0181,-0.0218,-0.0197,-0.74,29.99,-0.07,267.86,8.56,1.69
42152,51.478073,-2.70821,48,18.81,9,244.0,13 / 21,4215223,2019-08-16 13:59:29:003,0.4541,-0.3104,10.3667,0.0096,-0.0468,9.8065,-0.0224,0.0219,-0.0208,-1.31,29.97,0.5,267.86,8.56,1.69
42153,51.478073,-2.70821,48,18.81,9,244.0,13 / 21,4215323,2019-08-16 13:59:29:103,-0.059,0.0906,10.2134,0.0035,-0.0806,9.8063,0.0235,0.0581,-0.0367,-1.31,29.97,0.5,267.86,8.56,1.69
42154,51.478073,-2.70821,48,18.81,9,244.0,13 / 21,4215423,2019-08-16 13:59:29:203,0.0746,-0.0154,9.423,0.0033,-0.0055,9.8066,0.0011,0.0378,-0.0346,-1.85,29.94,-0.16,265.99,8.09,1.65
42155,51.478073,-2.70821,48,18.81,9,244.0,13 / 21,4215523,2019-08-16 13:59:29:303,0.1543,0.7005,10.0498,0.0141,-0.0273,9.8066,-0.0351,0.0272,-0.0218,-1.78,29.95,-0.07,266.01,7.93,1.55
42156,51.478073,-2.70821,48,18.81,9,244.0,13 / 21,4215623,2019-08-16 13:59:29:403,0.2469,-0.1761,9.2244,0.0207,0.018,9.8066,-0.0351,0.0272,-0.0218,-1.81,29.94,0.58,266.01,7.93,1.55
42157,51.478073,-2.70821,48,18.81,9,244.0,13 / 21,4215723,2019-08-16 13:59:29:503,0.3484,0.2312,9.0261,0.0397,0.037,9.8065,0.0,0.0251,-0.0378,-1.26,29.97,0.58,268.19,8.17,1.33
42158,51.477997,-2.708461,49,18.88,9,245.3,13 / 21,4215823,2019-08-16 13:59:29:603,0.3895,0.3427,9.0726,0.0109,0.0213,9.8066,0.0213,-0.0325,-0.0165,-1.26,29.97,0.58,268.19,8.17,1.33
42159,51.477997,-2.708461,49,18.88,9,245.3,13 / 21,4215923,2019-08-16 13:59:29:703,-0.4477,0.1881,10.4614,0.0029,0.042,9.8066,-0.0106,0.0101,-0.0112,-0.7,29.99,0.57,268.2,8.41,1.32
42160,51.477997,-2.708461,49,18.88,9,245.3,13 / 21,4216023,2019-08-16 13:59:29:803,-0.7675,0.2151,8.8395,-0.0114,-0.0149,9.8066,0.0224,0.0421,-0.0154,-0.71,29.98,-0.71,267.63,8.48,1.36
42161,51.477997,-2.708461,49,18.88,9,245.3,13 / 21,4216123,2019-08-16 13:59:29:903,-0.1409,0.9652,7.5769,-0.014,-0.0288,9.8066,0.0085,-0.0644,-0.0261,-0.71,29.99,-0.07,267.9,8.39,1.42
42162,51.477997,-2.708461,49,18.88,9,245.3,13 / 21,4216223,2019-08-16 13:59:30:003,-0.9282,-0.0586,10.6849,-0.0474,-0.0555,9.8064,0.0053,0.1156,-0.0293,-0.71,29.99,-0.07,267.9,8.39,1.42
42163,51.477997,-2.708461,49,18.88,9,245.3,13 / 21,4216323,2019-08-16 13:59:30:103,-0.196,0.965,9.3475,-0.0216,0.01,9.8066,0.0203,-0.0335,-0.0261,-0.71,29.99,-0.16,267.87,8.06,1.69
42164,51.477997,-2.708461,49,18.88,9,245.3,13 / 21,4216423,2019-08-16 13:59:30:203,-0.2536,0.0908,8.963,-0.024,0.0179,9.8066,-0.0021,0.0272,0.0069,-0.71,29.99,-0.16,267.87,8.06,1.69
42165,51.477997,-2.708461,49,18.88,9,245.3,13 / 21,4216523,2019-08-16 13:59:30:303,-0.4357,0.4275,9.6984,-0.0098,0.0114,9.8066,-0.0021,0.0272,0.0069,-1.26,29.97,-0.71,267.58,8.15,1.83
42166,51.477997,-2.708461,49,18.88,9,245.3,13 / 21,4216623,2019-08-16 13:59:30:403,0.6359,0.7073,10.2131,-0.0166,0.0289,9.8066,-0.0128,-0.0208,-0.008,-1.22,29.97,0.56,268.11,8.32,1.94
42167,51.477997,-2.708461,49,18.88,9,245.3,13 / 21,4216723,2019-08-16 13:59:30:503,0.3183,-0.497,11.546,0.0057,0.0217,9.8066,0.0341,-0.0101,-0.0282,-1.22,29.97,0.56,268.11,8.32,1.94
42168,51.477932,-2.708716,49,19.06,10,246.3,13 / 21,4216822,2019-08-16 13:59:30:602,-0.0948,-0.0107,10.1851,0.0054,0.028,9.8066,-0.001,-0.0144,0.0059,-1.22,29.97,0.56,268.11,8.45,1.91
42169,51.477932,-2.708716,49,19.06,10,246.3,13 / 21,4216923,2019-08-16 13:59:30:703,0.3015,-0.5084,10.3199,-0.0241,0.0123,9.8066,0.0085,0.0943,-0.0048,-0.15,29.99,0.55,269.98,8.51,2.06
42170,51.477932,-2.708716,49,19.06,10,246.3,13 / 21,4217023,2019-08-16 13:59:30:803,-0.3134,0.2903,11.1127,-0.0562,-0.0211,9.8065,-0.0074,-0.0048,-0.0069,-0.15,29.99,0.55,269.98,8.51,2.06
42171,51.477932,-2.708716,49,19.06,10,246.3,13 / 21,4217123,2019-08-16 13:59:30:903,-0.1816,0.0939,9.9501,-0.0273,0.0053,9.8066,0.0267,0.0091,-0.0176,-0.16,29.99,-0.7,269.37,8.39,2.39
42172,51.477932,-2.708716,49,19.06,10,246.3,13 / 21,4217223,2019-08-16 13:59:31:003,-0.197,-0.0724,9.1445,-0.046,0.0133,9.8065,0.0043,0.0325,0.0101,-0.69,29.99,0.56,269.37,8.39,2.39
42173,51.477932,-2.708716,49,19.06,10,246.3,13 / 21,4217323,2019-08-16 13:59:31:103,-0.2875,-0.2444,10.8819,-0.0232,-0.0271,9.8066,0.0107,-0.0165,-0.0122,-0.16,30.0,-0.07,269.61,8.47,2.66
42174,51.477932,-2.708716,49,19.06,10,246.3,13 / 21,4217423,2019-08-16 13:59:31:203,0.1086,0.0309,9.6808,-0.0533,-0.0109,9.8065,0.0107,-0.0165,-0.0122,-0.16,30.0,-0.07,269.61,8.47,2.66
42175,51.477932,-2.708716,49,19.06,10,246.3,13 / 21,4217523,2019-08-16 13:59:31:303,0.0049,0.0156,8.5483,0.0076,0.019,9.8066,-0.0245,-0.0144,-0.0176,-0.67,29.99,-0.06,267.67,8.4,2.97
42176,51.477932,-2.708716,49,19.06,10,246.3,13 / 21,4217623,2019-08-16 13:59:31:403,-0.2369,0.6805,8.9115,0.0214,-0.0073,9.8066,-0.0383,-0.0389,0.0048,-0.67,29.99,0.55,267.96,8.51,2.93
42177,51.477932,-2.708716,49,19.06,10,246.3,13 / 21,4217723,2019-08-16 13:59:31:503,0.1333,-0.7149,10.1684,0.0371,-0.0074,9.8066,-0.0298,-0.0016,0.0016,-0.69,29.97,1.09,267.96,8.51,2.93
42178,51.47787,-2.708971,47,18.83,10,246.9,13 / 21,4217823,2019-08-16 13:59:31:603,-0.0762,-0.1048,9.5199,0.0571,-0.0157,9.8065,0.0288,-0.0133,-0.0261,-0.69,29.97,1.18,268.01,8.43,2.59
42179,51.47787,-2.708971,47,18.83,10,246.9,13 / 21,4217923,2019-08-16 13:59:31:703,-0.1979,-0.1648,9.8553,0.0102,0.0072,9.8066,-0.0255,-0.0176,0.0059,-1.22,29.95,1.18,268.02,8.48,2.53
42180,51.47787,-2.708971,47,18.83,10,246.9,13 / 21,4218022,2019-08-16 13:59:31:802,0.4914,0.626,10.4991,0.0042,0.0038,9.8066,0.0426,-0.0335,-0.0197,-1.22,29.95,1.18,268.02,8.48,2.53
42181,51.47787,-2.708971,47,18.83,10,246.9,13 / 21,4218123,2019-08-16 13:59:31:903,0.904,-0.0466,9.5027,0.0019,0.0089,9.8066,-0.0192,-0.0314,-0.0261,0.3,29.99,-0.7,269.35,8.54,2.47
42182,51.47787,-2.708971,47,18.83,10,246.9,13 / 21,4218223,2019-08-16 13:59:32:003,0.032,-0.0522,8.4779,0.0066,0.011,9.8066,0.0373,0.0645,-0.0314,0.3,29.99,-0.7,269.35,8.54,2.47
42183,51.47787,-2.708971,47,18.83,10,246.9,13 / 21,4218323,2019-08-16 13:59:32:103,-0.0607,0.493,10.0672,-0.0218,0.0155,9.8066,0.0373,0.0645,-0.0314,0.85,29.98,-0.71,271.24,8.61,2.44
42184,51.47787,-2.708971,47,18.83,10,246.9,13 / 21,4218423,2019-08-16 13:59:32:203,0.0576,-0.0775,10.6519,-0.0248,0.0009,9.8066,0.0011,0.04,-0.0016,0.3,29.97,-1.24,269.32,8.7,2.56
42185,51.47787,-2.708971,47,18.83,10,246.9,13 / 21,4218523,2019-08-16 13:59:32:303,-0.3772,-0.1701,9.8167,-0.0448,-0.0252,9.8065,0.0085,0.0027,0.0005,0.3,29.97,-1.24,269.32,8.7,2.56
42186,51.47787,-2.708971,47,18.83,10,246.9,13 / 21,4218622,2019-08-16 13:59:32:402,-0.3301,-0.3295,10.5525,-0.0256,-0.0179,9.8066,0.0053,0.0091,-0.0101,-0.69,29.99,-0.06,267.69,8.55,2.82
42187,51.47787,-2.708971,47,18.83,10,246.9,13 / 21,4218723,2019-08-16 13:59:32:503,0.2052,-0.0072,9.7842,-0.032,-0.0281,9.8066,-0.0543,0.0421,-0.0048,-1.22,29.97,0.56,267.95,8.38,3.01
42188,51.477802,-2.709229,47,18.77,10,247.4,13 / 21,4218823,2019-08-16 13:59:32:603,-0.2016,-0.8901,9.987,0.0194,-0.0197,9.8066,-0.0287,-0.0538,-0.0197,-1.22,29.97,0.56,267.95,8.38,3.01
42189,51.477802,-2.709229,47,18.77,10,247.4,13 / 21,4218923,2019-08-16 13:59:32:703,-0.2161,0.245,10.3894,0.0096,0.0135,9.8066,0.0043,-0.0804,-0.0336,-0.69,29.99,-0.06,267.69,8.27,2.89
42190,51.477802,-2.709229,47,18.77,10,247.4,13 / 21,4219023,2019-08-16 13:59:32:803,-0.3226,-0.069,9.3849,0.0406,0.1048,9.806,0.0171,-0.058,-0.0357,-0.69,29.99,0.56,267.69,8.27,2.89
42191,51.477802,-2.709229,47,18.77,10,247.4,13 / 21,4219124,2019-08-16 13:59:32:904,0.0993,0.2031,9.1061,0.0209,0.0016,9.8066,0.0171,-0.058,-0.0357,-0.67,29.99,0.02,267.7,8.89,2.67
42192,51.477802,-2.709229,47,18.77,10,247.4,13 / 21,4219223,2019-08-16 13:59:33:003,0.0752,0.7522,9.6984,-0.0015,0.0073,9.8066,0.0043,0.0133,-0.024,0.3,29.99,-0.61,269.31,8.9,2.55
42193,51.477802,-2.709229,47,18.77,10,247.4,13 / 21,4219323,2019-08-16 13:59:33:103,-0.1323,0.5106,10.3444,0.0022,-0.0027,9.8066,0.0128,0.0165,-0.0112,0.3,29.99,-0.61,269.31,8.9,2.55
42194,51.477802,-2.709229,47,18.77,10,247.4,13 / 21,4219424,2019-08-16 13:59:33:204,0.0714,-0.0621,9.1787,-0.0143,-0.0357,9.8066,0.0586,0.089,-0.0027,0.3,30.0,0.03,269.61,8.89,2.54
42195,51.477802,-2.709229,47,18.77,10,247.4,13 / 21,4219523,2019-08-16 13:59:33:303,-0.0631,-0.3029,9.5294,-0.0266,-0.0252,9.8066,0.0203,0.0314,0.0176,0.3,29.99,0.58,269.89,8.68,2.62
42196,51.477802,-2.709229,47,18.77,10,247.4,13 / 21,4219623,2019-08-16 13:59:33:403,-0.2153,0.0247,9.5849,-0.0552,-0.0425,9.8064,-0.0373,0.0261,-0.0154,-0.15,30.0,0.02,269.57,8.43,2.95
42197,51.477802,-2.709229,47,18.77,10,247.4,13 / 21,4219723,2019-08-16 13:59:33:503,-0.506,0.2561,9.6139,-0.0085,0.0313,9.8066,-0.001,-0.0538,0.0027,-0.15,29.99,0.63,269.84,8.61,3.0
42198,51.477737,-2.709484,48,18.87,9,247.9,13 / 20,4219823,2019-08-16 13:59:33:603,-0.0347,0.4641,9.6401,0.0023,0.0189,9.8066,-0.001,-0.0538,0.0027,-0.15,29.99,0.63,269.84,8.61,3.0
42199,51.477737,-2.709484,48,18.87,9,247.9,13 / 20,4219923,2019-08-16 13:59:33:703,-0.1608,0.5962,9.0457,-0.001,0.0114,9.8066,0.0256,0.0283,-0.024,0.29,29.99,0.55,269.83,8.68,3.0
42200,51.477737,-2.709484,48,18.87,9,247.9,13 / 20,4220023,2019-08-16 13:59:33:803,-0.174,0.6124,9.742,0.0061,-0.0206,9.8066,0.0139,0.0155,-0.0069,-0.15,29.99,0.63,269.84,8.87,2.94
42201,51.477737,-2.709484,48,18.87,9,247.9,13 / 20,4220123,2019-08-16 13:59:33:903,-0.2638,-0.3604,10.0386,0.0057,-0.0169,9.8066,-0.0266,0.0549,-0.0218,-0.15,29.99,0.63,269.84,8.87,2.94
42202,51.477737,-2.709484,48,18.87,9,247.9,13 / 20,4220223,2019-08-16 13:59:34:003,-0.0398,-0.0884,8.741,0.009,-0.0278,9.8066,-0.0064,0.0538,-0.0016,0.29,30.0,0.02,269.84,8.87,2.94
42203,51.477737,-2.709484,48,18.87,9,247.9,13 / 20,4220323,2019-08-16 13:59:34:103,0.1902,0.3127,9.4313,-0.0101,-0.0085,9.8066,-0.0074,0.0016,-0.0229,0.84,29.99,0.02,271.45,8.71,2.89
42204,51.477737,-2.709484,48,18.87,9,247.9,13 / 20,4220423,2019-08-16 13:59:34:203,-0.1655,-0.1563,9.6806,-0.0039,0.0177,9.8066,0.0032,0.0421,-0.0229,0.3,29.99,-0.61,269.27,8.66,2.95
42205,51.477737,-2.709484,48,18.87,9,247.9,13 / 20,4220523,2019-08-16 13:59:34:303,-0.1368,0.241,9.2486,0.0061,0.0152,9.8066,-0.0149,-0.0016,-0.0122,0.85,29.98,0.58,269.27,8.66,2.95
42206,51.477737,-2.709484,48,18.87,9,247.9,13 / 20,4220623,2019-08-16 13:59:34:403,0.0877,0.1729,9.2613,0.0242,0.0241,9.8066,-0.0096,-0.0197,0.0144,0.85,29.98,0.58,269.27,8.66,2.95
42207,51.477737,-2.709484,48,18.87,9,247.9,13 / 20,4220724,2019-08-16 13:59:34:504,0.0769,-0.0417,8.3998,0.0095,-0.01,9.8066,-0.0096,-0.0197,0.0144,0.3,29.99,-0.61,269.28,8.8,2.81
42208,51.477676,-2.709726,48,18.66,10,248.4,13 / 21,4220823,2019-08-16 13:59:34:603,-0.2287,-0.6016,9.2836,0.0105,-0.0071,9.8066,-0.0181,0.0069,-0.0069,-0.16,30.0,0.02,269.6,8.74,2.62
42209,51.477676,-2.709726,48,18.66,10,248.4,13 / 21,4220922,2019-08-16 13:59:34:702,-0.1365,0.1296,10.0168,0.0287,-0.0032,9.8066,0.0139,0.0783,-0.0165,-0.16,29.99,0.66,269.6,8.74,2.62
42210,51.477676,-2.709726,48,18.66,10,248.4,13 / 21,4221023,2019-08-16 13:59:34:803,0.3643,0.4385,9.7317,0.0181,0.026,9.8066,0.0043,-0.0431,-0.008,0.29,30.0,0.02,269.63,8.72,2.45
42211,51.477676,-2.709726,48,18.66,10,248.4,13 / 21,4221123,2019-08-16 13:59:34:903,0.0241,0.488,9.5679,0.0321,0.0564,9.8064,0.0107,0.0091,-0.0101,0.29,30.0,0.02,269.63,8.72,2.45
42212,51.477676,-2.709726,48,18.66,10,248.4,13 / 21,4221228,2019-08-16 13:59:35:008,0.1775,0.0941,9.414,0.0033,0.0431,9.8066,-0.0224,-0.0016,-0.0133,0.29,29.99,-0.6,269.34,9.05,2.26
42213,51.477676,-2.709726,48,18.66,10,248.4,13 / 21,4221322,2019-08-16 13:59:35:102,0.0034,-0.0157,10.0865,0.014,0.0237,9.8066,0.0192,0.0368,-0.0357,0.85,29.98,-0.62,271.22,9.3,2.24
42214,51.477676,-2.709726,48,18.66,10,248.4,13 / 21,4221423,2019-08-16 13:59:35:203,0.2038,0.0118,10.5541,0.0359,0.0387,9.8065,0.0011,-0.0357,-0.0304,0.84,29.98,0.66,271.86,9.52,2.02
42215,51.477676,-2.709726,48,18.66,10,248.4,13 / 21,4221523,2019-08-16 13:59:35:303,0.197,0.5782,10.1001,0.0254,0.0234,9.8066,0.0011,0.0474,-0.0314,1.43,29.96,-0.53,271.86,9.52,2.02
42216,51.477676,-2.709726,48,18.66,10,248.4,13 / 21,4221623,2019-08-16 13:59:35:403,0.0908,0.3888,10.1658,0.0188,0.0255,9.8066,0.0011,0.0474,-0.0314,1.43,29.96,-0.53,271.86,9.52,2.02
42217,51.477676,-2.709726,48,18.66,10,248.4,13 / 21,4221724,2019-08-16 13:59:35:504,-0.063,-0.0709,10.5696,0.0053,0.0097,9.8066,0.0267,0.0197,-0.0389,1.38,29.97,0.02,271.58,9.75,1.78
42218,51.477615,-2.709972,49,18.57,10,249.5,13 / 21,4221823,2019-08-16 13:59:35:603,0.0932,-0.2338,9.9945,0.026,0.0248,9.8066,-0.001,0.0538,-0.0186,-0.15,29.71,4.17,271.58,9.75,1.78
42219,51.477615,-2.709972,49,18.57,10,249.5,13 / 21,4221923,2019-08-16 13:59:35:703,-0.0582,0.8367,9.6558,0.0441,0.1362,9.8056,-0.0309,-0.0783,-0.0101,0.28,29.9,2.37,270.42,10.53,1.49
42220,51.477615,-2.709972,49,18.57,10,249.5,13 / 21,4222024,2019-08-16 13:59:35:804,-0.5407,1.1601,9.4851,-0.0032,0.1223,9.8059,-0.0415,0.0442,-0.0101,0.28,29.9,2.37,270.42,10.53,1.49
42221,51.477615,-2.709972,49,18.57,10,249.5,13 / 21,4222123,2019-08-16 13:59:35:903,-0.0803,0.7833,9.5384,-0.011,0.1331,9.8057,0.0267,0.0314,-0.0005,0.29,29.9,2.41,270.45,11.25,1.51
42222,51.477615,-2.709972,49,18.57,10,249.5,13 / 21,4222223,2019-08-16 13:59:36:003,-0.2823,0.3077,11.1122,-0.0368,0.0475,9.8065,-0.0064,0.0165,-0.0197,0.29,29.95,1.77,270.47,12.03,1.57
42223,51.477615,-2.709972,49,18.57,10,249.5,13 / 21,4222323,2019-08-16 13:59:36:103,0.5225,1.1082,10.4466,-0.053,0.1028,9.806,0.0064,0.0751,-0.0282,0.84,29.98,0.66,271.87,12.63,1.88
42224,51.477615,-2.709972,49,18.57,10,249.5,13 / 21,4222423,2019-08-16 13:59:36:203,0.1591,1.5588,8.8485,-0.0008,0.0855,9.8063,0.0064,0.0751,-0.0282,0.84,29.98,0.66,271.87,12.63,1.88
