,GPS LATITUDE (degrees), GPS LONGITUDE (degrees), GPS ALTITUDE (m), GPS SPEED (Kmh), GPS ACCURACY (m), GPS ORIENTATION (Â°),GPS SATELLITES IN RANGE, TIME SINCE START (ms), DATE (YYYY-MO-DD HH-MI-SS_SSS), ACCELEROMETER X (m/s²) , ACCELEROMETER Y (m/s²), ACCELEROMETER Z (m/s²), GRAVITY X (m/s²), GRAVITY Y (m/s²), GRAVITY Z (m/s²), GYROSCOPE Yaw (rad/s), GYROSCOPE Pitch (rad/s), GYROSCOPE Roll (rad/s), MAGNETIC FIELD X (Î¼T), MAGNETIC FIELD Y (Î¼T), MAGNETIC FIELD Z (Î¼T), ORIENTATION (Yaw) (Â°), ORIENTATION (Pitch) (Â°), ORIENTATION (Roll ) (Â°)
71029,51.12849,-2.968246,53,24.04,4,188.6,15 / 23,7103272,2019-08-16 14:47:37:052,0.0528,-0.1209,9.6825,0.025,0.0149,9.8066,-0.0085,0.0229,-0.0133,-26.23,11.56,-8.86,203.27,8.51,2.13
71030,51.12849,-2.968246,53,24.04,4,188.6,15 / 23,7103373,2019-08-16 14:47:37:153,-0.2306,-0.0796,10.2701,0.0012,0.0,9.8067,0.0053,-0.0144,-0.0027,-26.03,11.47,-9.53,203.27,8.51,2.13
71031,51.12849,-2.968246,53,24.04,4,188.6,15 / 23,7103472,2019-08-16 14:47:37:252,0.0845,0.3852,9.9645,-0.0185,0.0028,9.8066,-0.0043,0.04,0.0027,-25.9,11.32,-10.04,201.28,8.42,2.19
71032,51.12849,-2.968246,53,24.04,4,188.6,15 / 23,7103572,2019-08-16 14:47:37:352,-0.452,0.0029,9.346,-0.0335,-0.0104,9.8066,-0.0043,0.04,0.0027,-25.9,11.32,-10.04,201.28,8.42,2.19
71033,51.12849,-2.968246,53,24.04,4,188.6,15 / 23,7103673,2019-08-16 14:47:37:453,-0.2204,0.0276,9.9807,-0.0051,-0.0013,9.8066,-0.0011,-0.0101,-0.0144,-25.7,11.58,-10.27,203.09,8.21,2.2
71034,51.12828,-2.968313,53,24.48,4,189.1,15 / 23,7103772,2019-08-16 14:47:37:552,-0.1179,0.4061,9.6163,0.0189,0.003,9.8066,0.0,-0.0058,-0.0027,-25.7,11.58,-10.27,203.09,8.32,2.18
71035,51.12828,-2.968313,53,24.48,4,189.1,15 / 23,7103873,2019-08-16 14:47:37:653,0.1061,-0.1175,8.8364,0.0262,0.0078,9.8066,-0.0064,-0.0293,-0.0197,-25.7,11.58,-10.27,203.09,8.32,2.18
71036,51.12828,-2.968313,53,24.48,4,189.1,15 / 23,7103973,2019-08-16 14:47:37:753,-0.3433,-0.1868,10.4575,-0.0131,-0.0078,9.8066,0.016,0.041,-0.0197,-25.7,11.58,-10.27,203.08,8.48,2.16
71037,51.12828,-2.968313,53,24.48,4,189.1,15 / 23,7104073,2019-08-16 14:47:37:853,-0.3173,0.0419,10.49,-0.0074,-0.0121,9.8066,-0.016,-0.0101,-0.0187,-25.68,11.99,-9.83,203.1,8.41,2.11
71038,51.12828,-2.968313,53,24.48,4,189.1,15 / 23,7104173,2019-08-16 14:47:37:953,-0.0116,-0.2877,10.1141,0.0276,-0.0152,9.8066,-0.0352,0.0016,-0.0187,-25.15,13.23,-9.62,203.1,8.41,2.11
71039,51.12828,-2.968313,53,24.48,4,189.1,15 / 23,7104273,2019-08-16 14:47:38:053,0.1824,-0.0846,10.1451,0.0025,-0.0486,9.8065,-0.0032,0.0485,-0.0155,-24.87,13.09,-10.5,205.6,8.62,1.75
71040,51.12828,-2.968313,53,24.48,4,189.1,15 / 23,7104373,2019-08-16 14:47:38:153,0.6232,-0.2639,10.1773,-0.0171,-0.0639,9.8064,-0.0032,0.0485,-0.0155,-24.87,13.09,-10.5,205.6,8.62,1.75
71041,51.12828,-2.968313,53,24.48,4,189.1,15 / 23,7104472,2019-08-16 14:47:38:252,-0.1077,-0.4548,10.1087,-0.025,-0.0134,9.8066,-0.0032,0.0442,-0.0069,-25.08,13.61,-9.25,207.82,8.37,1.45
71042,51.12828,-2.968313,53,24.48,4,189.1,15 / 23,7104573,2019-08-16 14:47:38:353,-0.468,-0.244,10.0988,-0.0083,0.0049,9.8066,0.0128,-0.0186,-0.0101,-25.34,13.34,-8.94,206.09,8.2,1.45
71043,51.12828,-2.968313,53,24.48,4,189.1,15 / 23,7104673,2019-08-16 14:47:38:453,0.1886,-0.0361,8.8798,0.0211,0.0252,9.8066,0.0085,-0.0495,-0.0304,-25.1,13.83,-8.86,207.79,8.38,1.53
71044,51.128063,-2.968377,54,24.62,4,189.9,15 / 23,7104773,2019-08-16 14:47:38:553,-0.253,0.015,9.7829,0.0284,-0.012,9.8066,-0.0298,0.0442,-0.0314,-25.1,13.83,-8.86,207.79,8.38,1.53
71045,51.128063,-2.968377,54,24.62,4,189.9,15 / 23,7104873,2019-08-16 14:47:38:653,-0.1189,-0.4732,10.4448,0.0304,-0.0351,9.8065,-0.0437,-0.0389,-0.0123,-24.4,13.86,-10.62,208.38,8.49,1.39
71046,51.128063,-2.968377,54,24.62,4,189.9,15 / 23,7104972,2019-08-16 14:47:38:752,-0.2387,-0.0577,10.0958,0.0604,-0.0639,9.8063,0.0224,0.0091,-0.0016,-24.72,12.67,-11.33,205.92,8.63,0.89
71047,51.128063,-2.968377,54,24.62,4,189.9,15 / 23,7105073,2019-08-16 14:47:38:853,-0.0621,-0.4237,9.6004,-0.0081,0.0138,9.8066,0.0309,0.0698,-0.0144,-25.44,12.24,-10.16,204.26,8.62,0.98
71048,51.128063,-2.968377,54,24.62,4,189.9,15 / 23,7105173,2019-08-16 14:47:38:953,-0.1427,0.1613,9.9147,-0.0772,0.0126,9.8063,0.0085,0.0133,-0.0261,-25.44,12.24,-10.16,204.26,8.62,0.98
71049,51.128063,-2.968377,54,24.62,4,189.9,15 / 23,7105273,2019-08-16 14:47:39:053,-0.2026,0.1403,10.2351,0.0117,-0.0099,9.8066,0.0085,0.0133,-0.0261,-25.2,12.9,-9.94,205.99,8.24,1.24
71050,51.128063,-2.968377,54,24.62,4,189.9,15 / 23,7105373,2019-08-16 14:47:39:153,-0.111,0.2734,8.998,0.0323,-0.0102,9.8066,-0.0139,-0.0612,-0.0133,-24.67,13.38,-10.61,205.99,8.24,1.24
71051,51.128063,-2.968377,54,24.62,4,189.9,15 / 23,7105472,2019-08-16 14:47:39:252,0.2444,-0.1629,9.3913,0.0349,0.0176,9.8066,0.0149,0.0346,0.0005,-24.43,13.88,-10.51,208.44,8.47,1.24
71052,51.128063,-2.968377,54,24.62,4,189.9,15 / 23,7105573,2019-08-16 14:47:39:353,-0.1862,0.234,9.5717,0.0028,0.0219,9.8066,-0.0394,0.0133,-0.0112,-24.64,13.99,-9.85,208.44,8.47,1.24
71053,51.128063,-2.968377,54,24.62,4,189.9,15 / 23,7105673,2019-08-16 14:47:39:453,0.0785,0.4898,10.2311,0.0082,0.026,9.8066,-0.0245,-0.0378,-0.008,-24.87,14.13,-9.05,207.83,8.58,1.35
71054,51.127853,-2.968457,53,24.6,4,190.4,15 / 23,7105773,2019-08-16 14:47:39:553,-0.2807,-0.3317,10.3554,0.0115,-0.0071,9.8066,-0.0075,-0.0165,-0.0059,-24.87,14.13,-9.05,207.83,8.58,1.35
71055,51.127853,-2.968457,53,24.6,4,190.4,15 / 23,7105872,2019-08-16 14:47:39:652,0.3081,0.0059,9.3597,0.0161,0.0011,9.8066,-0.0266,-0.0005,-0.0229,-24.57,14.71,-8.94,209.52,8.67,1.31
71056,51.127853,-2.968457,53,24.6,4,190.4,15 / 23,7105973,2019-08-16 14:47:39:753,-0.1454,0.149,9.3918,-0.0062,-0.0149,9.8066,-0.0224,0.0559,-0.0101,-24.87,14.13,-9.05,209.52,8.67,1.31
71057,51.127853,-2.968457,53,24.6,4,190.4,15 / 23,7106074,2019-08-16 14:47:39:854,0.0207,0.3383,10.9654,-0.02,-0.0363,9.8066,-0.0224,0.0559,-0.0101,-24.87,14.13,-9.05,209.52,8.67,1.31
71058,51.127853,-2.968457,53,24.6,4,190.4,15 / 23,7106174,2019-08-16 14:47:39:954,-0.5519,-0.4952,10.7847,-0.0183,-0.0216,9.8066,-0.0554,0.0368,0.0165,-25.1,13.43,-9.45,206.15,8.46,1.18
71059,51.127853,-2.968457,53,24.6,4,190.4,15 / 23,7106273,2019-08-16 14:47:40:053,0.549,0.1035,9.814,-0.0238,0.0341,9.8066,0.0533,-0.0154,0.0282,-24.14,14.14,-10.84,208.46,8.29,1.24
71060,51.127853,-2.968457,53,24.6,4,190.4,15 / 23,7106373,2019-08-16 14:47:40:153,0.3357,0.0559,9.7185,-0.0205,0.061,9.8064,-0.0117,0.0485,-0.0027,-24.12,14.89,-9.81,208.46,8.29,1.24
71061,51.127853,-2.968457,53,24.6,4,190.4,15 / 23,7106473,2019-08-16 14:47:40:253,-0.0753,-0.2109,9.3353,0.0139,0.0716,9.8064,-0.0117,-0.008,-0.0176,-24.12,14.89,-9.81,208.46,8.29,1.24
71062,51.127853,-2.968457,53,24.6,4,190.4,15 / 23,7106573,2019-08-16 14:47:40:353,0.2575,0.2563,8.7689,0.0224,0.0137,9.8066,-0.0064,-0.0122,-0.0144,-24.12,14.59,-10.27,210.21,8.56,1.57
71063,51.127853,-2.968457,53,24.6,4,190.4,15 / 23,7106673,2019-08-16 14:47:40:453,-0.0355,0.0431,9.1993,0.0176,0.0105,9.8066,-0.0096,0.0048,-0.0144,-24.15,14.61,-10.15,210.21,8.56,1.57
71064,51.127636,-2.968529,53,24.72,4,191.5,15 / 23,7106772,2019-08-16 14:47:40:552,-0.4699,0.274,9.8623,-0.0025,0.0069,9.8066,-0.0096,0.0048,-0.0144,-23.03,15.87,-10.85,212.68,8.56,1.62
71065,51.127636,-2.968529,53,24.72,4,191.5,15 / 23,7106873,2019-08-16 14:47:40:653,-0.3393,-0.0632,10.4876,0.0081,-0.0173,9.8066,0.0043,0.0101,-0.0378,-23.03,15.87,-10.85,212.68,8.56,1.62
71066,51.127636,-2.968529,53,24.72,4,191.5,15 / 23,7106972,2019-08-16 14:47:40:752,-0.0903,0.0264,10.3025,-0.0016,-0.033,9.8066,-0.0256,0.0101,-0.0272,-24.09,14.87,-9.93,210.23,8.55,1.5
71067,51.127636,-2.968529,53,24.72,4,191.5,15 / 23,7107072,2019-08-16 14:47:40:852,-0.1147,-0.3989,10.007,-0.0175,-0.0509,9.8065,-0.0011,0.0464,-0.0197,-23.62,14.86,-11.01,210.23,8.55,1.5
71068,51.127636,-2.968529,53,24.72,4,191.5,15 / 23,7107172,2019-08-16 14:47:40:952,-0.1299,-0.0624,9.8772,-0.0088,-0.0136,9.8066,0.0085,-0.025,-0.0304,-23.51,16.0,-9.56,211.99,8.31,1.3
71069,51.127636,-2.968529,53,24.72,4,191.5,15 / 23,7107273,2019-08-16 14:47:41:053,0.3743,0.0298,9.8693,0.013,-0.0061,9.8066,0.0032,-0.0559,-0.0176,-24.82,14.54,-8.53,209.57,8.36,1.23
71070,51.127636,-2.968529,53,24.72,4,191.5,15 / 23,7107373,2019-08-16 14:47:41:153,0.1506,0.4167,10.1322,0.049,0.0518,9.8064,-0.0149,0.0123,0.0112,-24.82,14.54,-8.53,209.57,8.36,1.23
71071,51.127636,-2.968529,53,24.72,4,191.5,15 / 23,7107473,2019-08-16 14:47:41:253,-0.3405,0.7583,10.2597,-0.0135,-0.0144,9.8066,-0.0224,0.0421,-0.0346,-23.5,15.94,-9.69,212.95,8.75,1.35
71072,51.127636,-2.968529,53,24.72,4,191.5,15 / 23,7107573,2019-08-16 14:47:41:353,-0.0605,0.147,8.997,-0.025,-0.0363,9.8066,-0.0224,0.0421,-0.0346,-21.08,15.95,-14.19,214.43,8.52,1.25
71073,51.127636,-2.968529,53,24.72,4,191.5,15 / 23,7107673,2019-08-16 14:47:41:453,-0.3495,-0.0714,9.782,0.0294,0.0038,9.8066,-0.0533,0.0101,-0.0016,-21.91,13.25,-15.64,214.43,8.52,1.25
71074,51.127422,-2.968598,53,24.83,4,191.9,15 / 23,7107773,2019-08-16 14:47:41:553,0.7704,-0.0238,10.2526,0.0663,-0.0359,9.8064,-0.0565,0.0037,-0.0048,-21.91,13.25,-15.64,214.43,8.52,1.25
71075,51.127422,-2.968598,53,24.83,4,191.9,15 / 23,7107872,2019-08-16 14:47:41:652,-0.0061,-0.6123,11.2569,-0.0457,0.0101,9.8065,0.0245,0.0602,-0.0016,-25.9,12.24,-8.9,203.65,8.72,0.85
71076,51.127422,-2.968598,53,24.83,4,191.9,15 / 23,7107973,2019-08-16 14:47:41:753,-0.7187,-0.2717,10.4524,-0.1034,0.0644,9.8059,0.1023,-0.0431,0.0048,-25.9,12.24,-8.9,203.65,8.72,0.85
71077,51.127422,-2.968598,53,24.83,4,191.9,15 / 23,7108072,2019-08-16 14:47:41:852,0.438,0.045,9.6143,-0.0311,0.0472,9.8065,-0.0043,0.0272,-0.0027,-24.54,14.69,-9.05,209.51,8.32,1.45
71078,51.127422,-2.968598,53,24.83,4,191.9,15 / 23,7108173,2019-08-16 14:47:41:953,0.2572,-0.4228,8.1909,-0.0263,0.0936,9.8062,-0.0437,-0.0495,-0.008,-24.32,15.01,-9.13,210.28,8.45,2.0
71079,51.127422,-2.968598,53,24.83,4,191.9,15 / 23,7108273,2019-08-16 14:47:42:053,-0.1254,0.285,10.0569,0.0665,0.0272,9.8064,-0.0181,-0.0506,-0.0027,-24.32,15.01,-9.13,210.28,8.45,2.0
71080,51.127422,-2.968598,53,24.83,4,191.9,15 / 23,7108373,2019-08-16 14:47:42:153,-0.5718,0.5193,9.8047,-0.0537,0.0424,9.8064,-0.0181,-0.0506,-0.0027,-23.29,15.61,-10.67,212.51,8.87,1.94
71081,51.127422,-2.968598,53,24.83,4,191.9,15 / 23,7108473,2019-08-16 14:47:42:253,-0.3961,0.3167,10.0202,-0.0493,0.0084,9.8065,0.0085,0.073,-0.0187,-23.82,15.46,-9.69,209.93,8.73,2.33
71082,51.127422,-2.968598,53,24.83,4,191.9,15 / 23,7108573,2019-08-16 14:47:42:353,-0.2926,0.8233,9.5507,-0.0403,0.0119,9.8066,0.0064,0.0517,-0.0261,-23.69,16.12,-8.89,209.93,8.73,2.33
71083,51.127422,-2.968598,53,24.83,4,191.9,15 / 23,7108673,2019-08-16 14:47:42:453,0.1879,-0.0828,9.7492,-0.0167,0.0095,9.8066,-0.0309,-0.0548,-0.0016,-23.69,16.12,-8.89,209.93,8.73,2.33
71084,51.12721,-2.968677,53,24.61,4,192.7,15 / 23,7108773,2019-08-16 14:47:42:553,0.2671,-0.1393,10.201,0.0152,-0.0048,9.8066,0.0032,0.0251,-0.0133,-24.15,15.94,-7.92,212.01,8.68,2.42
71085,51.12721,-2.968677,53,24.61,4,192.7,15 / 23,7108872,2019-08-16 14:47:42:652,0.076,0.17,8.8023,-0.0202,0.0041,9.8066,-0.0192,0.0346,-0.0187,-23.78,15.69,-9.38,211.8,8.74,2.35
71086,51.12721,-2.968677,53,24.61,4,192.7,15 / 23,7108973,2019-08-16 14:47:42:753,-0.0828,-0.3807,9.555,-0.0111,0.0097,9.8066,-0.0565,0.0006,-0.0101,-23.78,15.69,-9.38,211.8,8.74,2.35
71087,51.12721,-2.968677,53,24.61,4,192.7,15 / 23,7109073,2019-08-16 14:47:42:853,-0.4151,-0.2275,9.5589,0.0302,-0.0241,9.8066,-0.0565,0.0006,-0.0101,-23.34,15.15,-11.22,210.66,8.71,2.44
71088,51.12721,-2.968677,53,24.61,4,192.7,15 / 23,7109173,2019-08-16 14:47:42:953,-0.0915,0.1959,9.1674,0.0181,-0.0374,9.8066,0.0032,-0.0154,0.0027,-24.17,14.16,-10.73,208.05,8.69,2.19
71089,51.12721,-2.968677,53,24.61,4,192.7,15 / 23,7109273,2019-08-16 14:47:43:053,0.2683,0.1554,9.7168,-0.0352,0.0164,9.8066,0.0415,0.0282,-0.0048,-23.65,14.71,-11.14,208.05,8.69,2.19
71090,51.12721,-2.968677,53,24.61,4,192.7,15 / 23,7109373,2019-08-16 14:47:43:153,0.0314,0.3378,9.2181,-0.0445,0.0509,9.8064,-0.0139,0.0549,-0.0037,-23.53,15.77,-9.89,211.52,8.6,2.58
71091,51.12721,-2.968677,53,24.61,4,192.7,15 / 23,7109472,2019-08-16 14:47:43:252,0.2007,0.2467,9.0118,0.0171,0.0124,9.8066,-0.0107,-0.0154,-0.0155,-23.53,15.77,-9.89,211.52,8.6,2.58
71092,51.12721,-2.968677,53,24.61,4,192.7,15 / 23,7109572,2019-08-16 14:47:43:352,-0.3437,-0.2193,9.9628,0.0043,-0.029,9.8066,-0.016,0.0133,-0.0165,-23.6,15.04,-10.81,209.65,8.78,2.46
71093,51.12721,-2.968677,53,24.61,4,192.7,15 / 23,7109674,2019-08-16 14:47:43:454,-0.7979,-0.0625,10.6108,-0.0227,0.0111,9.8066,0.049,0.0346,-0.0059,-23.58,15.31,-10.47,209.94,8.72,2.3
71094,51.127003,-2.968778,53,24.46,4,193.6,15 / 23,7109772,2019-08-16 14:47:43:552,-0.3544,-0.0451,9.8311,-0.0624,0.0214,9.8064,0.049,0.0346,-0.0059,-23.51,16.0,-9.56,211.53,8.47,2.59
71095,51.127003,-2.968778,53,24.46,4,193.6,15 / 23,7109873,2019-08-16 14:47:43:653,-0.642,-0.2004,9.2427,-0.0105,0.009,9.8066,-0.0032,0.0059,-0.0069,-23.48,16.21,-9.26,211.53,8.47,2.59
71096,51.127003,-2.968778,53,24.46,4,193.6,15 / 23,7109973,2019-08-16 14:47:43:753,-0.2223,0.4458,9.6431,-0.0111,0.0142,9.8066,0.0075,0.0464,-0.0155,-23.48,16.21,-9.26,211.53,8.47,2.59
71097,51.127003,-2.968778,53,24.46,4,193.6,15 / 23,7110073,2019-08-16 14:47:43:853,-0.1943,0.0202,9.2993,0.0158,0.0306,9.8066,0.0138,0.0037,-0.024,-23.45,16.19,-9.37,212.76,8.46,2.7
71098,51.127003,-2.968778,53,24.46,4,193.6,15 / 23,7110174,2019-08-16 14:47:43:954,0.1087,0.3682,10.1757,0.0353,0.039,9.8065,-0.0362,0.0187,-0.0059,-23.45,16.19,-9.37,212.76,8.46,2.7
71099,51.127003,-2.968778,53,24.46,4,193.6,15 / 23,7110272,2019-08-16 14:47:44:052,0.0632,-0.2214,9.603,0.015,-0.0065,9.8066,0.0277,0.0325,-0.0133,-23.88,16.26,-8.08,211.9,8.75,2.78
71100,51.127003,-2.968778,53,24.46,4,193.6,15 / 23,7110372,2019-08-16 14:47:44:152,0.0075,0.1278,10.7618,-0.0063,-0.0277,9.8066,0.016,0.0485,0.0154,-23.64,17.17,-6.81,211.9,8.75,2.78
71101,51.127003,-2.968778,53,24.46,4,193.6,15 / 23,7110472,2019-08-16 14:47:44:252,-0.4784,0.0761,9.3194,-0.0339,-0.0113,9.8066,0.0,-0.0485,-0.0165,-23.6,16.59,-8.25,213.51,8.55,2.83
71102,51.127003,-2.968778,53,24.46,4,193.6,15 / 23,7110573,2019-08-16 14:47:44:353,-0.0903,0.1655,9.759,-0.0014,0.0036,9.8067,0.0,-0.0485,-0.0165,-23.35,16.87,-8.39,214.56,8.53,2.92
71103,51.127003,-2.968778,53,24.46,4,193.6,15 / 23,7110673,2019-08-16 14:47:44:453,0.6569,0.1796,9.0767,0.002,0.0087,9.8066,0.016,-0.0058,-0.0027,-23.35,16.87,-8.39,214.56,8.53,2.92
71104,51.126797,-2.968872,53,24.53,4,193.9,15 / 23,7110772,2019-08-16 14:47:44:552,-0.2522,0.0289,9.5936,0.002,0.0087,9.8066,-0.0096,0.0229,0.0058,-23.26,17.11,-8.13,214.54,8.57,2.96
71105,51.126797,-2.968872,53,24.53,4,193.9,15 / 23,7110873,2019-08-16 14:47:44:653,-0.114,-0.0254,10.0335,-0.0033,0.0266,9.8066,-0.0075,-0.0037,-0.0197,-23.35,16.87,-8.39,214.54,8.57,2.96
71106,51.126797,-2.968872,53,24.53,4,193.9,15 / 23,7110973,2019-08-16 14:47:44:753,0.0615,-0.085,9.5722,-0.0066,0.0489,9.8065,-0.0181,0.0027,-0.0304,-23.04,15.44,-11.43,210.35,8.7,3.22
71107,51.126797,-2.968872,53,24.53,4,193.9,15 / 23,7111073,2019-08-16 14:47:44:853,-0.1169,-0.0469,10.4476,0.0128,-0.0519,9.8065,-0.0384,0.041,-0.0005,-23.04,15.44,-11.43,210.35,8.7,3.22
71108,51.126797,-2.968872,53,24.53,4,193.9,15 / 23,7111173,2019-08-16 14:47:44:953,0.1309,-0.2259,9.7333,-0.0045,0.0065,9.8066,0.0075,0.0133,0.008,-24.05,15.13,-9.61,209.73,8.61,2.92
71109,51.126797,-2.968872,53,24.53,4,193.9,15 / 23,7111272,2019-08-16 14:47:45:052,0.6111,-0.0023,9.4722,0.0047,0.0153,9.8066,0.0277,0.0027,-0.0176,-23.47,15.98,-9.68,212.4,8.6,2.96
71110,51.126797,-2.968872,53,24.53,4,193.9,15 / 23,7111373,2019-08-16 14:47:45:153,0.2152,-0.2857,9.8759,0.0033,0.0007,9.8067,0.0277,0.0027,-0.0176,-23.34,16.62,-8.88,214.29,8.62,2.96
71111,51.126797,-2.968872,53,24.53,4,193.9,15 / 23,7111473,2019-08-16 14:47:45:253,0.5265,-0.1433,8.8866,-0.0125,-0.0226,9.8066,-0.0085,0.0421,-0.0101,-23.34,16.62,-8.88,214.29,8.62,2.96
71112,51.126797,-2.968872,53,24.53,4,193.9,15 / 23,7111572,2019-08-16 14:47:45:352,0.451,-0.0768,10.4255,0.0064,-0.0144,9.8066,0.0128,0.008,0.0154,-23.34,16.62,-8.88,214.33,8.49,2.89
71113,51.126797,-2.968872,53,24.53,4,193.9,15 / 23,7111673,2019-08-16 14:47:45:453,0.914,-0.4988,10.4652,0.039,-0.0215,9.8066,-0.0075,-0.0463,0.008,-24.1,15.9,-8.15,211.95,8.61,2.65
71114,51.12659,-2.968969,54,24.66,4,194.1,15 / 23,7111772,2019-08-16 14:47:45:552,0.3248,-0.1081,9.1283,-0.0048,0.0113,9.8066,0.0021,0.0304,-0.0208,-22.51,17.29,-9.7,214.12,8.62,2.72
71115,51.12659,-2.968969,54,24.66,4,194.1,15 / 23,7111872,2019-08-16 14:47:45:652,-0.0101,-0.2946,9.5133,-0.0026,-0.0191,9.8066,-0.0469,-0.0687,-0.0187,-22.51,17.29,-9.7,214.12,8.62,2.72
71116,51.12659,-2.968969,54,24.66,4,194.1,15 / 23,7111973,2019-08-16 14:47:45:753,0.526,0.2509,10.6474,-0.0087,-0.0377,9.8066,0.0106,-0.0825,-0.0165,-23.22,15.56,-10.89,212.34,8.45,2.57
71117,51.12659,-2.968969,54,24.66,4,194.1,15 / 23,7112073,2019-08-16 14:47:45:853,0.0358,-0.7124,9.5779,0.0254,0.0046,9.8066,0.0128,-0.058,-0.0101,-22.97,15.39,-11.65,210.45,8.56,2.44
71118,51.12659,-2.968969,54,24.66,4,194.1,15 / 23,7112172,2019-08-16 14:47:45:952,0.1702,0.0245,9.7015,-0.0052,-0.0062,9.8066,0.0128,-0.058,-0.0101,-22.97,15.39,-11.65,210.45,8.56,2.44
71119,51.12659,-2.968969,54,24.66,4,194.1,15 / 23,7112273,2019-08-16 14:47:46:053,0.0554,-0.2708,10.6058,-0.0114,-0.0405,9.8066,-0.0288,0.0176,-0.0282,-23.46,15.73,-10.11,212.61,8.52,2.42
71120,51.12659,-2.968969,54,24.66,4,194.1,15 / 23,7112373,2019-08-16 14:47:46:153,0.3819,-0.1244,9.2901,0.0391,-0.0052,9.8066,-0.0192,0.0016,-0.0325,-23.51,15.26,-10.68,209.79,8.33,2.25
71121,51.12659,-2.968969,54,24.66,4,194.1,15 / 23,7112473,2019-08-16 14:47:46:253,0.2693,-0.013,8.3086,0.0748,-0.002,9.8064,0.0064,-0.0197,-0.0378,-23.51,15.26,-10.68,209.79,8.33,2.25
71122,51.12659,-2.968969,54,24.66,4,194.1,15 / 23,7112572,2019-08-16 14:47:46:352,-0.2179,-0.3694,10.1009,0.0884,-0.0214,9.8062,-0.0085,0.0304,-0.0101,-23.43,15.7,-10.23,212.77,8.72,1.88
71123,51.12659,-2.968969,54,24.66,4,194.1,15 / 23,7112673,2019-08-16 14:47:46:453,-0.2404,-0.2723,11.3895,-0.0015,-0.0099,9.8066,-0.0011,0.0219,-0.0144,-23.43,15.7,-10.23,212.77,8.72,1.88
71124,51.126377,-2.969065,55,24.72,4,194.7,15 / 23,7112773,2019-08-16 14:47:46:553,-0.1505,-0.6383,10.1464,-0.0192,-0.0207,9.8066,0.0064,0.0325,-0.0165,-23.31,16.6,-8.99,214.64,8.68,1.84
71125,51.126377,-2.969065,55,24.72,4,194.7,15 / 23,7112873,2019-08-16 14:47:46:653,-0.404,-0.215,9.8673,-0.0224,-0.0287,9.8066,0.0266,0.0197,-0.0027,-23.93,16.52,-7.36,214.64,8.68,1.84
71126,51.126377,-2.969065,55,24.72,4,194.7,15 / 23,7112974,2019-08-16 14:47:46:754,-0.2085,-0.0842,10.0296,-0.0357,-0.0257,9.8066,0.0266,0.0197,-0.0027,-23.05,17.02,-8.89,214.67,8.43,1.83
71127,51.126377,-2.969065,55,24.72,4,194.7,15 / 23,7113073,2019-08-16 14:47:46:853,-0.2465,0.0174,8.5269,0.0228,0.0368,9.8066,0.0256,-0.073,-0.024,-23.05,17.02,-8.89,214.67,8.43,1.83
71128,51.126377,-2.969065,55,24.72,4,194.7,15 / 23,7113173,2019-08-16 14:47:46:953,-0.0189,0.1002,8.6566,0.0265,0.0055,9.8066,-0.0181,0.0101,-0.0133,-23.34,16.71,-8.73,214.61,8.66,1.94
71129,51.126377,-2.969065,55,24.72,4,194.7,15 / 23,7113273,2019-08-16 14:47:47:053,-0.2074,0.4313,9.9774,0.0505,0.0076,9.8065,-0.0139,-0.0208,-0.0272,-21.82,17.36,-11.07,214.61,8.66,1.94
71130,51.126377,-2.969065,55,24.72,4,194.7,15 / 23,7113372,2019-08-16 14:47:47:152,-0.0483,0.2775,10.2177,0.0446,0.0161,9.8065,0.0011,0.0325,-0.024,-22.98,15.64,-11.29,212.53,8.92,1.87
71131,51.126377,-2.969065,55,24.72,4,194.7,15 / 23,7113475,2019-08-16 14:47:47:255,0.286,0.0334,10.9598,-0.0289,-0.0215,9.8066,-0.016,0.0432,-0.0133,-22.65,16.36,-10.92,212.53,8.92,1.87
71132,51.126377,-2.969065,55,24.72,4,194.7,15 / 23,7113573,2019-08-16 14:47:47:353,-0.392,-0.3061,10.2275,-0.0711,-0.0503,9.8063,0.0213,0.0155,-0.0123,-22.65,16.36,-10.92,212.53,8.92,1.87
71133,51.126377,-2.969065,55,24.72,4,194.7,15 / 23,7113673,2019-08-16 14:47:47:453,-0.506,-0.1502,10.1493,-0.0197,-0.0056,9.8066,0.0213,0.0155,-0.0123,-23.22,15.8,-10.55,212.62,8.42,1.84
71134,51.12616,-2.969163,56,24.73,4,195.4,14 / 23,7113772,2019-08-16 14:47:47:552,-0.2255,0.2085,10.1794,-0.0151,-0.0073,9.8066,-0.017,0.0176,-0.0187,-23.11,16.25,-10.09,212.84,8.32,1.85
71135,51.12616,-2.969163,56,24.73,4,195.4,14 / 23,7113873,2019-08-16 14:47:47:653,0.2138,0.0311,8.5849,0.0273,0.006,9.8066,0.0011,-0.024,-0.008,-23.11,16.25,-10.09,212.84,8.47,1.79
71136,51.12616,-2.969163,56,24.73,4,195.4,14 / 23,7113973,2019-08-16 14:47:47:753,0.0293,0.3702,10.0581,0.019,0.0164,9.8066,-0.0021,0.0133,-0.0112,-22.26,17.45,-9.99,215.55,8.62,1.81
71137,51.12616,-2.969163,56,24.73,4,195.4,14 / 23,7114073,2019-08-16 14:47:47:853,-0.0656,0.0984,9.8058,-0.0045,0.0124,9.8066,-0.0021,-0.009,-0.0155,-22.26,17.45,-9.99,215.55,8.62,1.81
71138,51.12616,-2.969163,56,24.73,4,195.4,14 / 23,7114173,2019-08-16 14:47:47:953,-0.2072,0.1079,9.8686,-0.0139,-0.0044,9.8066,-0.0043,0.025,-0.0069,-23.31,16.6,-8.99,214.63,8.64,1.89
71139,51.12616,-2.969163,56,24.73,4,195.4,14 / 23,7114272,2019-08-16 14:47:48:052,-0.0824,0.1189,9.1894,-0.0145,-0.0198,9.8066,-0.0085,-0.0016,-0.0133,-23.18,17.24,-8.09,214.87,8.5,1.84
71140,51.12616,-2.969163,56,24.73,4,195.4,14 / 23,7114372,2019-08-16 14:47:48:152,-0.4138,-0.1197,9.8477,-0.002,0.0051,9.8066,0.0277,0.0474,-0.0027,-23.18,17.24,-8.09,214.87,8.5,1.84
71141,51.12616,-2.969163,56,24.73,4,195.4,14 / 23,7114475,2019-08-16 14:47:48:255,0.3631,0.1518,8.6243,0.0101,0.0346,9.8066,0.0277,0.0474,-0.0027,-23.47,16.92,-7.94,214.86,8.51,1.87
71142,51.12616,-2.969163,56,24.73,4,195.4,14 / 23,7114573,2019-08-16 14:47:48:353,0.0064,0.1328,10.3186,-0.0264,0.0308,9.8066,0.0394,-0.0026,-0.0112,-23.05,17.02,-8.89,214.58,8.49,2.11
71143,51.12616,-2.969163,56,24.73,4,195.4,14 / 23,7114673,2019-08-16 14:47:48:453,-0.4192,-0.1218,10.4762,-0.0378,-0.0034,9.8066,0.0458,-0.0016,-0.0219,-23.05,17.02,-8.89,214.58,8.49,2.11
71144,51.125942,-2.969242,54,24.75,4,196.0,13 / 23,7114773,2019-08-16 14:47:48:553,-0.7424,0.1866,7.9481,-0.0198,-0.033,9.8066,0.0,-0.0495,-0.025,-22.51,17.29,-9.7,214.34,8.29,2.22
71145,51.125942,-2.969242,54,24.75,4,196.0,13 / 23,7114873,2019-08-16 14:47:48:653,0.035,-0.0399,9.9095,0.0128,-0.0146,9.8066,0.065,-0.0325,-0.0357,-22.24,17.56,-9.85,217.09,8.31,2.11
71146,51.125942,-2.969242,54,24.75,4,196.0,13 / 23,7114973,2019-08-16 14:47:48:753,-0.1842,-0.2096,9.6411,0.0276,0.0043,9.8066,0.0234,0.0581,-0.0304,-22.89,16.54,-10.14,217.09,8.31,2.11
71147,51.125942,-2.969242,54,24.75,4,196.0,13 / 23,7115073,2019-08-16 14:47:48:853,-0.3917,0.3176,10.1902,0.027,0.0352,9.8065,0.0511,-0.0527,-0.0357,-22.89,16.54,-10.14,217.09,8.31,2.11
71148,51.125942,-2.969242,54,24.75,4,196.0,13 / 23,7115173,2019-08-16 14:47:48:953,-0.703,-0.536,10.1446,-0.0093,-0.0128,9.8066,0.0511,-0.0527,-0.0357,-22.56,17.06,-10.0,214.32,8.56,2.18
71149,51.125942,-2.969242,54,24.75,4,196.0,13 / 23,7115273,2019-08-16 14:47:49:053,-0.3236,0.8445,10.8735,-0.0094,-0.0073,9.8066,0.0053,-0.0271,-0.0176,-22.04,17.53,-10.34,217.04,8.49,2.17
71150,51.125942,-2.969242,54,24.75,4,196.0,13 / 23,7115373,2019-08-16 14:47:49:153,-0.5018,-0.0857,10.1197,0.0226,-0.0115,9.8066,0.0266,-0.0485,-0.0314,-22.04,17.53,-10.34,217.04,8.49,2.17
71151,51.125942,-2.969242,54,24.75,4,196.0,13 / 23,7115473,2019-08-16 14:47:49:253,-0.3904,-0.3244,10.5079,-0.0205,-0.0336,9.8066,-0.0245,0.0123,0.0037,-21.94,17.94,-9.84,217.07,8.55,2.04
71152,51.125942,-2.969242,54,24.75,4,196.0,13 / 23,7115573,2019-08-16 14:47:49:353,0.0065,-0.2772,9.7371,-0.0897,-0.0786,9.8059,0.0138,-0.0101,-0.0005,-23.34,16.71,-8.73,214.69,7.86,1.99
71153,51.125942,-2.969242,54,24.75,4,196.0,13 / 23,7115673,2019-08-16 14:47:49:453,0.097,0.4015,9.6678,-0.0092,0.009,9.8066,0.0117,-0.0112,-0.0293,-23.34,16.71,-8.73,214.69,7.86,1.99
71154,51.125736,-2.969352,53,24.65,5,197.0,14 / 23,7115773,2019-08-16 14:47:49:553,0.2528,0.2452,8.6804,0.0527,0.0332,9.8065,-0.0479,-0.0165,-0.0101,-22.73,17.51,-8.77,216.22,8.22,1.97
71155,51.125736,-2.969352,53,24.65,5,197.0,14 / 23,7115872,2019-08-16 14:47:49:652,0.0579,-0.1806,9.8141,0.0451,-0.015,9.8065,-0.0021,0.0272,-0.0037,-22.22,17.67,-9.7,217.2,8.38,1.74
71156,51.125736,-2.969352,53,24.65,5,197.0,14 / 23,7115973,2019-08-16 14:47:49:753,0.3876,0.1831,10.8181,0.012,-0.0076,9.8066,0.0043,-0.0495,-0.0059,-22.82,16.98,-9.53,214.53,8.36,1.64
71157,51.125736,-2.969352,53,24.65,5,197.0,14 / 23,7116073,2019-08-16 14:47:49:853,0.5143,0.2761,9.4405,0.0244,0.01,9.8066,0.0202,0.0155,-0.0069,-22.82,16.98,-9.53,214.53,8.36,1.64
71158,51.125736,-2.969352,53,24.65,5,197.0,14 / 23,7116172,2019-08-16 14:47:49:952,-0.2954,-0.0495,9.8533,-0.0226,-0.0051,9.8066,0.0202,0.0155,-0.0069,-22.02,17.39,-10.62,215.43,8.52,1.61
71159,51.125736,-2.969352,53,24.65,5,197.0,14 / 23,7116272,2019-08-16 14:47:50:052,0.3167,0.4066,10.2721,-0.0536,-0.0056,9.8065,0.0,0.0378,0.0005,-22.74,17.34,-9.06,214.71,8.24,1.76
71160,51.125736,-2.969352,53,24.65,5,197.0,14 / 23,7116373,2019-08-16 14:47:50:153,-0.1933,0.0651,9.4368,-0.0277,0.0127,9.8066,0.0064,0.0336,0.008,-22.62,16.82,-10.27,214.71,8.24,1.76
71161,51.125736,-2.969352,53,24.65,5,197.0,14 / 23,7116472,2019-08-16 14:47:50:252,-0.3455,-0.0046,9.4304,-0.0308,0.0377,9.8065,-0.0149,0.0208,-0.0016,-22.62,16.82,-10.27,214.71,8.24,1.76
71162,51.125736,-2.969352,53,24.65,5,197.0,14 / 23,7116572,2019-08-16 14:47:50:352,-0.0636,0.184,8.95,0.0011,0.0308,9.8066,0.0043,-0.0804,-0.0187,-22.24,17.56,-9.85,217.12,8.22,2.05
71163,51.125736,-2.969352,53,24.65,5,197.0,14 / 23,7116672,2019-08-16 14:47:50:452,-0.6212,0.0375,10.1562,0.0105,0.0568,9.8065,0.0266,-0.0421,-0.0282,-22.35,17.05,-10.48,215.41,8.47,2.28
71164,51.125526,-2.969464,53,24.59,5,197.9,14 / 23,7116773,2019-08-16 14:47:50:553,-0.2906,0.1405,9.7999,0.0011,0.0022,9.8066,0.0085,0.0165,-0.0197,-22.25,17.69,-9.59,217.0,8.48,2.29
71165,51.125526,-2.969464,53,24.59,5,197.9,14 / 23,7116872,2019-08-16 14:47:50:652,-0.5229,-0.0192,9.715,-0.0206,0.0065,9.8066,-0.0171,-0.0069,-0.0123,-22.25,17.69,-9.59,217.0,8.48,2.29
71166,51.125526,-2.969464,53,24.59,5,197.9,14 / 23,7116973,2019-08-16 14:47:50:753,-0.4181,-0.2325,9.5452,-0.0239,-0.0068,9.8066,-0.0171,-0.0069,-0.0123,-22.41,17.97,-8.65,217.21,8.41,2.39
71167,51.125526,-2.969464,53,24.59,5,197.9,14 / 23,7117073,2019-08-16 14:47:50:853,-0.4292,0.2467,9.4124,-0.0434,0.0055,9.8066,0.0075,0.0645,-0.008,-22.44,17.99,-8.54,217.21,8.41,2.39
71168,51.125526,-2.969464,53,24.59,5,197.9,14 / 23,7117172,2019-08-16 14:47:50:952,-0.6938,-0.0824,9.9717,0.0098,0.0402,9.8066,0.0138,0.0229,-0.0016,-22.44,17.99,-8.54,217.18,8.22,2.57
71169,51.125526,-2.969464,53,24.59,5,197.9,14 / 23,7117273,2019-08-16 14:47:51:053,-0.0422,0.2886,9.3405,0.0238,0.0586,9.8064,0.0128,-0.0335,-0.0069,-22.12,18.31,-8.69,217.08,8.54,2.76
71170,51.125526,-2.969464,53,24.59,5,197.9,14 / 23,7117373,2019-08-16 14:47:51:153,-0.0579,-0.0439,9.6566,-0.004,0.0055,9.8066,-0.0032,0.0208,-0.0069,-22.12,18.31,-8.69,217.08,8.54,2.76
71171,51.125526,-2.969464,53,24.59,5,197.9,14 / 23,7117473,2019-08-16 14:47:51:253,-0.1024,0.3001,10.2984,-0.0036,0.001,9.8067,-0.016,0.0442,-0.0219,-21.61,18.6,-9.32,218.59,8.54,2.8
71172,51.125526,-2.969464,53,24.59,5,197.9,14 / 23,7117573,2019-08-16 14:47:51:353,-0.6897,-0.4155,10.3272,-0.0169,-0.0321,9.8066,-0.0075,0.0346,0.0208,-22.04,17.53,-10.34,218.59,8.54,2.8
71173,51.125526,-2.969464,53,24.59,5,197.9,14 / 23,7117672,2019-08-16 14:47:51:452,0.1745,0.4655,9.8397,-0.0293,-0.0254,9.8066,0.0021,-0.0048,-0.008,-21.97,17.96,-9.73,216.85,8.32,2.79
71174,51.12531,-2.96957,53,24.78,5,197.9,14 / 23,7117773,2019-08-16 14:47:51:553,0.0093,0.1132,8.9826,-0.0186,0.0315,9.8066,0.0021,-0.0048,-0.008,-21.97,17.96,-9.73,216.85,8.32,2.79
71175,51.12531,-2.96957,53,24.78,5,197.9,14 / 23,7117873,2019-08-16 14:47:51:653,-0.0551,0.2039,9.1111,0.0205,0.0251,9.8066,0.0181,-0.0325,-0.0229,-22.11,18.2,-8.93,217.02,8.34,3.01
71176,51.12531,-2.96957,53,24.78,5,197.9,14 / 23,7117972,2019-08-16 14:47:51:752,0.1257,0.0662,9.1231,0.0247,-0.0258,9.8066,-0.0309,0.0005,-0.0208,-22.44,17.84,-8.84,216.98,8.52,3.05
71177,51.12531,-2.96957,53,24.78,5,197.9,14 / 23,7118072,2019-08-16 14:47:51:852,0.1358,0.2177,11.4736,0.01,-0.0864,9.8063,-0.0778,0.0836,0.0208,-22.3,17.12,-10.48,215.33,8.27,2.61
71178,51.12531,-2.96957,53,24.78,5,197.9,14 / 23,7118173,2019-08-16 14:47:51:953,0.1603,-0.3052,8.9846,-0.0002,0.0456,9.8065,0.0362,-0.123,-0.024,-22.3,17.12,-10.48,215.33,8.27,2.61
71179,51.12531,-2.96957,53,24.78,5,197.9,14 / 23,7118273,2019-08-16 14:47:52:053,0.6826,0.7833,10.9277,-0.0255,-0.0274,9.8066,0.0128,-0.2146,0.0272,-22.12,18.43,-8.44,217.32,8.42,2.83
71180,51.12531,-2.96957,53,24.78,5,197.9,14 / 23,7118373,2019-08-16 14:47:52:153,-0.0213,-0.4811,9.6392,-0.004,-0.0241,9.8066,-0.0341,0.0783,0.0069,-21.93,18.15,-9.47,217.12,8.31,2.73
71181,51.12531,-2.96957,53,24.78,5,197.9,14 / 23,7118473,2019-08-16 14:47:52:253,0.6095,-0.1078,10.0933,-0.0049,-0.003,9.8066,0.0096,0.0357,-0.0133,-21.93,18.15,-9.47,217.12,8.31,2.73
71182,51.12531,-2.96957,53,24.78,5,197.9,14 / 23,7118573,2019-08-16 14:47:52:353,0.087,0.1321,9.1443,0.0095,0.0087,9.8066,-0.0234,-0.0208,-0.0112,-22.09,19.0,-7.14,219.14,8.28,2.73
71183,51.12531,-2.96957,53,24.78,5,197.9,14 / 23,7118673,2019-08-16 14:47:52:453,-0.1294,-0.3126,9.6296,-0.0053,0.0085,9.8066,-0.0234,-0.0208,-0.0112,-22.6,17.96,-8.16,216.21,8.47,2.67
71184,51.125088,-2.969665,54,24.94,10,198.0,14 / 23,7118773,2019-08-16 14:47:52:553,0.289,0.1087,10.019,-0.0053,0.0085,9.8066,-0.0085,0.0037,-0.0016,-21.33,18.86,-9.47,216.21,8.47,2.67
71185,51.125088,-2.969665,54,24.94,10,198.0,14 / 23,7118873,2019-08-16 14:47:52:653,0.0659,-0.2671,10.1535,-0.0384,-0.0036,9.8066,0.0192,-0.0026,-0.025,-21.33,18.86,-9.47,216.21,8.47,2.67
71186,51.125088,-2.969665,54,24.94,10,198.0,14 / 23,7118973,2019-08-16 14:47:52:753,0.2504,-0.2748,9.4225,-0.0114,-0.0135,9.8066,0.0202,0.0325,-0.0187,-22.44,17.98,-8.56,217.1,8.28,2.79
71187,51.125088,-2.969665,54,24.94,10,198.0,14 / 23,7119073,2019-08-16 14:47:52:853,0.4394,0.0438,9.2013,-0.002,-0.0255,9.8066,-0.0107,-0.009,-0.025,-22.11,18.19,-8.95,217.1,8.28,2.79
71188,51.125088,-2.969665,54,24.94,10,198.0,14 / 23,7119173,2019-08-16 14:47:52:953,0.4013,0.0911,9.8783,0.0398,-0.0035,9.8066,0.0,-0.0644,-0.0197,-22.44,17.71,-9.08,217.15,8.18,2.68
71189,51.125088,-2.969665,54,24.94,10,198.0,14 / 23,7119272,2019-08-16 14:47:53:052,0.4417,-0.1501,9.1486,0.0775,-0.0014,9.8063,0.032,0.0368,-0.0133,-22.26,17.4,-10.09,215.36,8.54,2.39
71190,51.125088,-2.969665,54,24.94,10,198.0,14 / 23,7119373,2019-08-16 14:47:53:153,-0.1513,-0.6328,9.6878,0.0185,0.0176,9.8066,0.032,0.0368,-0.0133,-22.26,17.4,-10.09,215.36,8.54,2.39
71191,51.125088,-2.969665,54,24.94,10,198.0,14 / 23,7119473,2019-08-16 14:47:53:253,0.3642,0.2419,10.0599,-0.0125,0.0187,9.8066,0.0256,-0.0005,-0.0069,-21.76,17.78,-10.51,216.68,8.68,2.41
71192,51.125088,-2.969665,54,24.94,10,198.0,14 / 23,7119573,2019-08-16 14:47:53:353,0.0671,0.1506,10.5061,-0.0286,0.0099,9.8066,0.0405,0.024,-0.0133,-21.51,19.02,-8.71,216.68,8.68,2.41
71193,51.125088,-2.969665,54,24.94,10,198.0,14 / 23,7119673,2019-08-16 14:47:53:453,-0.1597,-0.1329,9.9525,-0.0383,-0.0016,9.8066,-0.0096,0.0261,-0.0091,-21.93,18.15,-9.47,217.15,8.5,2.54
71194,51.12488,-2.969779,54,24.82,10,198.8,14 / 23,7119773,2019-08-16 14:47:53:553,0.3457,-0.1071,9.7994,0.0081,-0.0389,9.8066,-0.0064,0.0389,-0.0272,-21.96,18.89,-7.81,218.97,8.34,2.44
71195,51.12488,-2.969779,54,24.82,10,198.8,14 / 23,7119872,2019-08-16 14:47:53:652,0.6198,-0.049,9.6295,0.0145,-0.042,9.8065,-0.016,-0.0389,-0.0197,-21.96,18.89,-7.81,218.97,8.34,2.44
71196,51.12488,-2.969779,54,24.82,10,198.8,14 / 23,7119973,2019-08-16 14:47:53:753,0.4593,-0.0949,8.95,0.0293,0.0309,9.8066,0.0351,-0.0335,-0.0218,-22.7,17.6,-8.66,216.15,8.25,2.19
71197,51.12488,-2.969779,54,24.82,10,198.8,14 / 23,7120073,2019-08-16 14:47:53:853,0.4739,0.2082,10.3386,0.0689,0.0316,9.8064,-0.0245,-0.0357,-0.0229,-21.79,18.75,-8.58,218.79,8.69,2.1
71198,51.12488,-2.969779,54,24.82,10,198.8,14 / 23,7120172,2019-08-16 14:47:53:952,0.0967,0.1536,9.7316,0.0231,-0.0052,9.8066,-0.0245,-0.0357,-0.0229,-21.79,18.75,-8.58,218.79,8.69,2.1
71199,51.12488,-2.969779,54,24.82,10,198.8,14 / 23,7120272,2019-08-16 14:47:54:052,0.163,0.4021,9.7497,-0.0014,-0.0111,9.8066,0.0181,0.0123,-0.0272,-20.99,19.2,-9.52,219.79,8.77,1.99
71200,51.12488,-2.969779,54,24.82,10,198.8,14 / 23,7120372,2019-08-16 14:47:54:152,0.1254,-0.0286,10.8205,-0.0048,-0.0187,9.8066,0.0074,0.0623,-0.0101,-21.29,18.74,-9.78,219.83,8.68,1.93
71201,51.12488,-2.969779,54,24.82,10,198.8,14 / 23,7120473,2019-08-16 14:47:54:253,-0.2182,0.1485,9.9002,-0.0269,-0.0209,9.8066,-0.0021,-0.0101,-0.0048,-21.29,18.74,-9.78,219.83,8.68,1.93
71202,51.12488,-2.969779,54,24.82,10,198.8,14 / 23,7120572,2019-08-16 14:47:54:352,-0.3624,0.2058,10.0387,-0.0365,-0.0045,9.8066,0.0224,0.0357,-0.0027,-22.29,18.34,-8.15,217.58,8.48,1.93
71203,51.12488,-2.969779,54,24.82,10,198.8,14 / 23,7120673,2019-08-16 14:47:54:453,-0.4604,0.022,10.0947,-0.0681,0.0119,9.8064,0.0298,-0.0218,-0.0069,-21.48,18.91,-9.0,220.04,8.21,2.24
71204,51.124672,-2.969897,55,24.48,10,200.3,14 / 23,7120773,2019-08-16 14:47:54:553,0.1145,0.4018,8.9781,-0.0022,0.0196,9.8066,0.0032,-0.024,-0.0368,-21.48,18.91,-9.0,220.04,8.21,2.24
71205,51.124672,-2.969897,55,24.48,10,200.3,14 / 23,7120872,2019-08-16 14:47:54:652,-0.0592,-0.071,8.8566,0.0108,0.0194,9.8066,0.0032,-0.024,-0.0368,-21.45,19.01,-8.86,219.93,8.51,2.45
71206,51.124672,-2.969897,55,24.48,10,200.3,14 / 23,7120973,2019-08-16 14:47:54:753,0.0237,0.1546,9.3858,0.0048,-0.0031,9.8066,-0.0213,0.0133,0.0282,-20.99,19.2,-9.52,219.64,8.63,2.5
71207,51.124672,-2.969897,55,24.48,10,200.3,14 / 23,7121073,2019-08-16 14:47:54:853,0.4533,-0.0291,9.1621,0.009,-0.0077,9.8066,0.0149,-0.0005,-0.0048,-20.99,19.2,-9.52,219.64,8.63,2.5
71208,51.124672,-2.969897,55,24.48,10,200.3,14 / 23,7121173,2019-08-16 14:47:54:953,-0.2374,0.0522,9.7361,-0.0294,0.0031,9.8066,-0.0064,-0.0122,0.0367,-21.01,19.99,-7.68,221.64,8.64,2.43
71209,51.124672,-2.969897,55,24.48,10,200.3,14 / 23,7121272,2019-08-16 14:47:55:052,0.2099,-0.1092,12.1661,-0.06,0.0006,9.8065,0.0351,0.0655,-0.0325,-21.95,19.41,-6.44,219.4,8.38,2.67
71210,51.124672,-2.969897,55,24.48,10,200.3,14 / 23,7121373,2019-08-16 14:47:55:153,-0.6776,-0.5112,9.7311,-0.0333,0.0039,9.8066,0.0074,0.0123,-0.0069,-22.24,19.05,-6.52,219.12,8.25,2.81
71211,51.124672,-2.969897,55,24.48,10,200.3,14 / 23,7121473,2019-08-16 14:47:55:253,-0.213,-0.0179,9.6075,-0.0152,-0.006,9.8066,-0.0352,0.008,0.0176,-22.24,19.05,-6.52,219.12,8.25,2.81
71212,51.124672,-2.969897,55,24.48,10,200.3,14 / 23,7121573,2019-08-16 14:47:55:353,0.0099,-0.2152,9.1282,0.0088,0.013,9.8066,-0.0352,0.008,0.0176,-21.68,19.16,-7.93,218.88,8.16,2.84
71213,51.124672,-2.969897,55,24.48,10,200.3,14 / 23,7121673,2019-08-16 14:47:55:453,0.2609,0.0884,9.4076,0.0387,0.037,9.8065,-0.0107,-0.0335,0.008,-21.34,19.58,-7.81,218.88,8.16,2.84
71214,51.12446,-2.970017,56,24.56,10,200.6,14 / 23,7121773,2019-08-16 14:47:55:553,-0.0195,-0.0794,9.3594,0.0068,-0.0042,9.8066,-0.0043,0.0112,-0.0059,-21.96,18.8,-8.03,218.81,8.67,2.85
71215,51.12446,-2.970017,56,24.56,10,200.6,14 / 23,7121875,2019-08-16 14:47:55:655,0.2779,-0.3731,10.2668,-0.0162,-0.0263,9.8066,-0.0032,0.0272,0.0027,-22.33,18.23,-8.32,217.3,8.69,2.8
71216,51.12446,-2.970017,56,24.56,10,200.6,14 / 23,7121973,2019-08-16 14:47:55:753,0.1846,-0.203,10.284,-0.0231,-0.0527,9.8065,0.0181,0.0219,-0.0123,-22.33,18.23,-8.32,217.3,8.69,2.8
71217,51.12446,-2.970017,56,24.56,10,200.6,14 / 23,7122072,2019-08-16 14:47:55:852,-0.3457,-0.1708,10.0603,-0.0145,-0.0114,9.8066,0.0202,0.0123,-0.0101,-22.14,18.21,-8.84,217.14,8.39,2.64
71218,51.12446,-2.970017,56,24.56,10,200.6,14 / 23,7122173,2019-08-16 14:47:55:953,-0.4697,-0.129,9.1508,-0.0121,-0.0005,9.8066,-0.0011,-0.0069,0.0058,-21.95,18.69,-8.31,217.14,8.39,2.64
71219,51.12446,-2.970017,56,24.56,10,200.6,14 / 23,7122273,2019-08-16 14:47:56:053,-0.2649,-0.0433,9.8311,0.0044,-0.0084,9.8066,-0.0245,-0.0293,0.0101,-21.84,18.58,-8.84,218.68,8.39,2.58
71220,51.12446,-2.970017,56,24.56,10,200.6,14 / 23,7122373,2019-08-16 14:47:56:153,0.1943,0.0376,9.8419,0.0392,-0.0141,9.8066,-0.0139,-0.0303,0.0016,-21.84,18.58,-8.84,218.68,8.39,2.58
71221,51.12446,-2.970017,56,24.56,10,200.6,14 / 23,7122473,2019-08-16 14:47:56:253,-0.1795,-0.6251,10.7884,0.0846,-0.0243,9.8063,0.0224,0.1049,-0.0229,-21.34,19.58,-7.81,221.72,8.68,2.16
71222,51.12446,-2.970017,56,24.56,10,200.6,14 / 23,7122573,2019-08-16 14:47:56:353,0.5769,0.1479,10.6418,0.0026,-0.0253,9.8066,0.0224,0.1049,-0.0229,-21.62,19.84,-6.22,220.99,8.6,2.04
71223,51.12446,-2.970017,56,24.56,10,200.6,14 / 23,7122672,2019-08-16 14:47:56:452,0.5271,-0.2331,10.1318,-0.0176,-0.0405,9.8066,-0.0373,0.0378,-0.0005,-21.62,19.84,-6.22,220.99,8.6,2.04
71224,51.124256,-2.970155,56,24.61,10,201.0,15 / 23,7122773,2019-08-16 14:47:56:553,0.1352,-0.0715,10.6142,0.0091,0.0011,9.8066,0.0064,-0.0069,-0.0187,-21.95,19.41,-6.44,219.6,8.2,1.87
71225,51.124256,-2.970155,56,24.61,10,201.0,15 / 23,7122872,2019-08-16 14:47:56:652,0.3536,-0.0425,9.3862,0.0193,0.0074,9.8066,0.0405,-0.0229,-0.0101,-21.62,19.84,-6.22,219.6,8.2,1.87
71226,51.124256,-2.970155,56,24.61,10,201.0,15 / 23,7122973,2019-08-16 14:47:56:753,-0.2435,0.4367,9.6181,0.0052,-0.0122,9.8066,-0.0085,0.0219,-0.0016,-21.62,19.84,-6.22,221.06,8.31,1.83
71227,51.124256,-2.970155,56,24.61,10,201.0,15 / 23,7123073,2019-08-16 14:47:56:853,0.1134,-0.0365,10.1437,0.0422,-0.0057,9.8066,-0.0202,-0.0218,-0.0101,-21.62,19.84,-6.22,221.06,8.31,1.83
71228,51.124256,-2.970155,56,24.61,10,201.0,15 / 23,7123172,2019-08-16 14:47:56:952,0.104,0.141,9.4729,0.0628,0.0256,9.8064,0.0096,-0.0272,-0.0176,-20.84,19.84,-8.47,221.89,8.48,1.64
71229,51.124256,-2.970155,56,24.61,10,201.0,15 / 23,7123273,2019-08-16 14:47:57:053,-0.6364,-0.13,10.0448,0.0782,0.0326,9.8063,0.0277,0.0836,-0.0048,-20.55,20.2,-8.35,221.89,8.48,1.64
71230,51.124256,-2.970155,56,24.61,10,201.0,15 / 23,7123373,2019-08-16 14:47:57:153,-0.2681,-0.2485,11.0146,0.0203,0.0101,9.8066,0.0277,0.0836,-0.0048,-20.95,20.58,-6.15,223.76,8.6,1.6
71231,51.124256,-2.970155,56,24.61,10,201.0,15 / 23,7123473,2019-08-16 14:47:57:253,-0.3331,0.2383,9.94,-0.041,-0.0189,9.8065,0.0106,0.0144,-0.0218,-20.01,21.25,-6.91,224.85,8.35,1.69
71232,51.124256,-2.970155,56,24.61,10,201.0,15 / 23,7123573,2019-08-16 14:47:57:353,-0.7964,0.022,9.5595,-0.0039,0.0109,9.8066,-0.0043,0.0016,-0.0346,-20.01,21.25,-6.91,224.85,8.35,1.69
71233,51.124256,-2.970155,56,24.61,10,201.0,15 / 23,7123673,2019-08-16 14:47:57:453,-0.5135,0.3502,9.564,0.015,0.0112,9.8066,-0.0139,0.0219,-0.0325,-18.8,22.53,-6.24,229.09,8.37,1.69
71234,51.124046,-2.970287,57,24.55,9,202.0,15 / 23,7123773,2019-08-16 14:47:57:553,-0.417,0.0563,9.8954,0.0048,-0.0133,9.8066,-0.0234,0.0282,-0.0005,-17.49,24.14,-3.38,234.01,8.47,1.66
71235,51.124046,-2.970287,57,24.55,9,202.0,15 / 23,7123872,2019-08-16 14:47:57:652,-0.2505,-0.6417,9.4234,0.0087,0.003,9.8066,0.0096,0.0485,-0.0165,-17.49,24.14,-3.38,234.01,8.47,1.66
71236,51.124046,-2.970287,57,24.55,9,202.0,15 / 23,7123973,2019-08-16 14:47:57:753,0.0146,0.6053,9.998,-0.0016,0.0308,9.8066,0.0021,-0.0303,0.0197,-16.27,25.14,-1.79,236.95,8.52,1.63
71237,51.124046,-2.970287,57,24.55,9,202.0,15 / 23,7124073,2019-08-16 14:47:57:853,0.3566,0.4614,8.1953,-0.0152,-0.0003,9.8066,-0.0309,0.0304,-0.0101,-13.65,26.7,-0.84,242.36,8.66,1.74
71238,51.124046,-2.970287,57,24.55,9,202.0,15 / 23,7124173,2019-08-16 14:47:57:953,-0.3056,0.2696,9.7631,-0.0038,0.0042,9.8066,-0.0309,0.0304,-0.0101,-9.24,28.53,-0.93,252.4,8.67,1.77
71239,51.124046,-2.970287,57,24.55,9,202.0,15 / 23,7124273,2019-08-16 14:47:58:053,0.2319,0.3403,8.9684,0.0065,0.0119,9.8066,0.0351,0.0197,-0.04,-4.71,29.61,-1.0,260.09,8.75,1.75
71240,51.124046,-2.970287,57,24.55,9,202.0,15 / 23,7124372,2019-08-16 14:47:58:152,-0.0332,0.154,10.7389,0.0189,-0.0029,9.8066,-0.0139,-0.0527,-0.025,-4.71,29.61,-1.0,260.09,8.75,1.75
71241,51.124046,-2.970287,57,24.55,9,202.0,15 / 23,7124473,2019-08-16 14:47:58:253,0.1193,-0.1265,10.1928,0.035,-0.0221,9.8066,0.0181,0.0272,-0.0016,2.01,28.16,-10.16,270.74,8.66,1.53
71242,51.124046,-2.970287,57,24.55,9,202.0,15 / 23,7124572,2019-08-16 14:47:58:352,0.273,0.4401,10.5451,-0.0482,0.0125,9.8065,0.0884,0.0016,-0.0144,-4.93,11.58,-27.23,231.1,8.55,1.75
71243,51.124046,-2.970287,57,24.55,9,202.0,15 / 23,7124673,2019-08-16 14:47:58:453,-0.2169,0.0614,9.8308,-0.0705,0.0263,9.8064,0.033,-0.0058,-0.0059,-13.07,3.58,-26.76,231.1,8.55,1.75
71244,51.123844,-2.970417,58,24.35,10,202.3,15 / 23,7124772,2019-08-16 14:47:58:552,0.1486,0.1043,8.4926,-0.0839,0.0375,9.8062,-0.0139,-0.0058,0.0037,-13.07,3.58,-26.76,231.1,8.55,1.75
71245,51.123844,-2.970417,58,24.35,10,202.3,15 / 23,7124873,2019-08-16 14:47:58:653,0.123,0.1324,9.6318,0.0287,0.0061,9.8066,0.0106,-0.0517,-0.008,-19.17,1.02,-23.05,180.22,8.41,2.28
71246,51.123844,-2.970417,58,24.35,10,202.3,15 / 23,7124973,2019-08-16 14:47:58:753,0.6074,0.0643,9.4537,0.0635,-0.0037,9.8064,-0.0245,-0.0612,-0.0197,-25.74,0.79,-15.39,180.81,8.58,2.31
71247,51.123844,-2.970417,58,24.35,10,202.3,15 / 23,7125073,2019-08-16 14:47:58:853,0.2966,0.2308,10.4188,0.0851,-0.0228,9.8063,-0.0245,-0.0612,-0.0197,-28.42,3.47,-8.96,185.22,9.08,2.17
71248,51.123844,-2.970417,58,24.35,10,202.3,15 / 23,7125173,2019-08-16 14:47:58:953,-0.2982,-0.0731,9.497,-0.0143,-0.0244,9.8066,-0.0117,0.0219,-0.0112,-28.77,6.83,-5.07,185.22,9.08,2.17
71249,51.123844,-2.970417,58,24.35,10,202.3,15 / 23,7125274,2019-08-16 14:47:59:054,-0.6057,0.0477,11.1409,-0.0491,-0.0308,9.8065,0.0138,0.0623,-0.0059,-28.77,6.83,-5.07,185.22,9.08,2.17
71250,51.123844,-2.970417,58,24.35,10,202.3,15 / 23,7125373,2019-08-16 14:47:59:153,-0.3482,0.0296,10.2616,-0.0303,0.0154,9.8066,0.0213,0.0069,-0.0059,-27.74,11.09,-2.7,201.12,8.78,2.02
71251,51.123844,-2.970417,58,24.35,10,202.3,15 / 23,7125473,2019-08-16 14:47:59:253,-0.674,-0.1334,9.4156,-0.0096,-0.0113,9.8066,-0.0107,0.0123,-0.0091,-26.53,13.88,-1.93,207.2,8.63,2.22
71252,51.123844,-2.970417,58,24.35,10,202.3,15 / 23,7125572,2019-08-16 14:47:59:352,0.1383,0.1489,10.2483,0.0002,-0.0081,9.8066,-0.0053,-0.0229,-0.0091,-26.53,13.88,-1.93,207.2,8.63,2.22
71253,51.123844,-2.970417,58,24.35,10,202.3,15 / 23,7125673,2019-08-16 14:47:59:453,0.2123,-0.011,9.3922,0.0212,0.0263,9.8066,-0.0171,-0.0197,-0.0101,-25.7,15.31,-2.22,209.75,8.61,2.17
71254,51.12363,-2.970554,58,24.82,10,202.4,15 / 23,7125773,2019-08-16 14:47:59:553,0.0743,0.1404,10.0855,0.0298,0.0266,9.8066,-0.0107,0.0219,-0.0069,-24.49,16.93,-3.7,214.57,8.84,2.22
71255,51.12363,-2.970554,58,24.82,10,202.4,15 / 23,7125872,2019-08-16 14:47:59:652,0.0807,0.18,9.8949,-0.0112,-0.0344,9.8066,-0.0107,0.0219,-0.0069,-24.49,16.93,-3.7,214.57,8.84,2.22
71256,51.12363,-2.970554,58,24.82,10,202.4,15 / 23,7125973,2019-08-16 14:47:59:753,-0.5164,0.1371,9.3581,-0.0066,-0.0068,9.8066,-0.0149,0.0346,0.0144,-23.27,18.37,-4.58,217.05,8.67,2.09
71257,51.12363,-2.970554,58,24.82,10,202.4,15 / 23,7126073,2019-08-16 14:47:59:853,-0.198,0.2508,9.864,-0.0171,0.0106,9.8066,0.0288,0.0421,-0.0016,-23.22,17.97,-6.17,216.79,8.62,2.2
71258,51.12363,-2.970554,58,24.82,10,202.4,15 / 23,7126173,2019-08-16 14:47:59:953,-0.4342,0.0185,9.5126,-0.0034,0.0144,9.8066,-0.0085,-0.0112,-0.0133,-23.22,17.97,-6.17,216.79,8.62,2.2
71259,51.12363,-2.970554,58,24.82,10,202.4,15 / 23,7126273,2019-08-16 14:48:00:053,-0.1209,0.0035,9.5296,-0.0009,0.0035,9.8066,-0.0032,0.0006,-0.0165,-22.22,19.3,-5.83,219.49,8.63,2.22
71260,51.12363,-2.970554,58,24.82,10,202.4,15 / 23,7126373,2019-08-16 14:48:00:153,-0.3635,-0.0686,10.0871,-0.0027,-0.0109,9.8066,0.0021,-0.0005,-0.0133,-21.78,19.44,-6.92,219.26,8.58,2.18
71261,51.12363,-2.970554,58,24.82,10,202.4,15 / 23,7126473,2019-08-16 14:48:00:253,-0.5576,-0.0395,9.775,-0.0014,0.0149,9.8066,0.0288,0.0283,-0.025,-21.78,19.44,-6.92,219.26,8.58,2.18
71262,51.12363,-2.970554,58,24.82,10,202.4,15 / 23,7126573,2019-08-16 14:48:00:353,-0.3729,-0.073,9.4695,-0.0141,-0.0205,9.8066,-0.0224,0.0006,-0.0176,-21.12,20.23,-6.71,221.95,8.63,2.26
71263,51.12363,-2.970554,58,24.82,10,202.4,15 / 23,7126673,2019-08-16 14:48:00:453,-0.4968,-0.3204,9.6751,-0.0001,-0.0299,9.8066,-0.0224,0.0006,-0.0176,-21.44,19.84,-6.81,221.97,8.49,2.22
71264,51.123425,-2.970684,59,24.75,10,203.2,15 / 23,7126773,2019-08-16 14:48:00:553,-0.3267,-0.0862,9.2605,-0.0095,-0.0301,9.8066,0.0202,-0.0144,-0.0176,-21.14,20.27,-6.5,222.01,8.33,2.13
71265,51.123425,-2.970684,59,24.75,10,203.2,15 / 23,7126873,2019-08-16 14:48:00:653,0.0144,0.0711,8.8756,-0.0154,0.0191,9.8066,0.0405,0.0133,-0.0144,-21.14,20.27,-6.5,222.01,8.33,2.13
71266,51.123425,-2.970684,59,24.75,10,203.2,15 / 23,7126972,2019-08-16 14:48:00:752,-0.208,0.5154,9.7568,-0.0114,0.0375,9.8066,-0.033,0.0091,-0.0304,-21.42,20.52,-4.48,222.01,8.33,2.13
71267,51.123425,-2.970684,59,24.75,10,203.2,15 / 23,7127072,2019-08-16 14:48:00:852,0.5806,0.386,9.1924,0.024,0.029,9.8066,-0.0405,-0.0005,0.0197,-20.82,20.5,-6.8,221.95,8.43,2.34
71268,51.123425,-2.970684,59,24.75,10,203.2,15 / 23,7127173,2019-08-16 14:48:00:953,-0.5488,-0.0529,10.1723,0.0412,0.024,9.8065,0.0224,0.0378,-0.025,-20.12,21.19,-6.8,221.95,8.43,2.34
71269,51.123425,-2.970684,59,24.75,10,203.2,15 / 23,7127273,2019-08-16 14:48:01:053,-0.6393,-0.2202,10.1056,0.0325,0.0025,9.8066,0.0106,0.0357,-0.0101,-19.96,20.34,-9.37,222.76,8.58,2.22
71270,51.123425,-2.970684,59,24.75,10,203.2,15 / 23,7127373,2019-08-16 14:48:01:153,-0.5546,-0.0746,9.7223,-0.0483,-0.0194,9.8065,0.0192,0.0442,-0.0293,-19.96,20.34,-9.37,222.76,8.58,2.22
71271,51.123425,-2.970684,59,24.75,10,203.2,15 / 23,7127473,2019-08-16 14:48:01:253,-0.9635,-0.1553,10.4168,-0.0248,0.0038,9.8066,0.0192,0.0442,-0.0293,-20.46,20.12,-8.75,222.77,8.29,2.33
71272,51.123425,-2.970684,59,24.75,10,203.2,15 / 23,7127573,2019-08-16 14:48:01:353,-0.6936,-0.1459,9.8601,-0.0072,-0.0109,9.8066,0.0096,0.0645,-0.0229,-18.91,20.92,-10.24,225.27,8.26,2.43
71273,51.123425,-2.970684,59,24.75,10,203.2,15 / 23,7127673,2019-08-16 14:48:01:453,-0.3349,-0.2315,9.1209,-0.0195,-0.0239,9.8066,0.0053,-0.0176,-0.0059,-18.24,20.1,-12.78,225.27,8.26,2.43
71274,51.123226,-2.970823,59,24.57,10,204.4,15 / 23,7127773,2019-08-16 14:48:01:553,-0.1311,-0.0236,9.9008,-0.0153,-0.006,9.8066,0.0064,0.0101,-0.0165,-18.24,20.1,-12.78,225.27,8.26,2.43
71275,51.123226,-2.970823,59,24.57,10,204.4,15 / 23,7127873,2019-08-16 14:48:01:653,-0.002,0.5064,9.1377,0.0257,0.0498,9.8065,-0.0011,-0.0271,-0.0272,-22.41,18.89,-6.38,219.46,8.17,2.47
71276,51.123226,-2.970823,59,24.57,10,204.4,15 / 23,7127972,2019-08-16 14:48:01:752,0.1217,-0.3197,8.593,0.0515,0.0401,9.8064,-0.0394,0.0602,0.0027,-20.71,19.83,-8.83,221.39,8.55,2.46
71277,51.123226,-2.970823,59,24.57,10,204.4,15 / 23,7128072,2019-08-16 14:48:01:852,0.5413,0.198,10.177,0.0046,-0.0151,9.8066,0.0213,0.0027,-0.0005,-20.71,19.83,-8.83,221.39,8.55,2.46
71278,51.123226,-2.970823,59,24.57,10,204.4,15 / 23,7128173,2019-08-16 14:48:01:953,0.322,0.1826,10.1871,-0.0288,0.0037,9.8066,0.0213,0.0261,0.0048,-20.86,19.98,-8.1,221.68,8.51,2.38
71279,51.123226,-2.970823,59,24.57,10,204.4,15 / 23,7128273,2019-08-16 14:48:02:053,-0.0784,0.2115,10.0548,-0.0714,0.0201,9.8064,0.0213,0.0261,0.0048,-20.88,20.0,-8.0,221.6,8.28,2.74
71280,51.123226,-2.970823,59,24.57,10,204.4,15 / 23,7128373,2019-08-16 14:48:02:153,-0.5301,0.057,10.296,-0.0474,-0.011,9.8065,0.0106,0.0197,-0.0048,-20.88,20.0,-8.0,221.59,8.03,2.88
71281,51.123226,-2.970823,59,24.57,10,204.4,15 / 23,7128474,2019-08-16 14:48:02:254,-0.2202,0.3111,9.5641,-0.0337,-0.0224,9.8066,-0.0213,-0.0112,0.0016,-20.98,20.1,-7.47,221.59,8.03,2.88
71282,51.123226,-2.970823,59,24.57,10,204.4,15 / 23,7128572,2019-08-16 14:48:02:352,-0.0341,0.248,9.0077,-0.0219,-0.0127,9.8066,-0.0192,-0.0623,-0.0144,-20.98,20.1,-7.47,221.59,8.03,2.88
71283,51.123226,-2.970823,59,24.57,10,204.4,15 / 23,7128673,2019-08-16 14:48:02:453,0.0122,0.3739,8.6441,0.0363,0.0205,9.8066,-0.0256,-0.0239,-0.008,-19.87,21.01,-7.98,224.31,8.23,2.81
71284,51.123028,-2.970963,59,24.27,9,206.1,15 / 23,7128772,2019-08-16 14:48:02:552,0.0083,-0.1959,10.2337,0.045,0.0108,9.8065,-0.0032,0.0474,0.0154,-20.05,20.43,-8.98,224.31,8.23,2.81
71285,51.123028,-2.970963,59,24.27,9,206.1,15 / 23,7128872,2019-08-16 14:48:02:652,0.7239,0.3456,10.07,0.0277,0.0125,9.8066,0.0394,0.0123,-0.0272,-19.66,20.75,-9.12,224.04,8.4,2.75
71286,51.123028,-2.970963,59,24.27,9,206.1,15 / 23,7128973,2019-08-16 14:48:02:753,0.1089,-0.0311,10.3052,-0.0279,0.0055,9.8066,0.0394,0.0123,-0.0272,-19.66,20.75,-9.12,224.04,8.4,2.75
71287,51.123028,-2.970963,59,24.27,9,206.1,15 / 23,7129073,2019-08-16 14:48:02:853,-0.4159,-0.1449,10.5211,-0.0191,-0.0259,9.8066,-0.0213,0.0709,-0.0112,-20.28,20.67,-7.83,224.28,8.3,2.88
71288,51.123028,-2.970963,59,24.27,9,206.1,15 / 23,7129173,2019-08-16 14:48:02:953,-0.2587,-0.2913,10.3616,-0.0117,-0.0169,9.8066,0.0043,0.024,-0.008,-19.8,20.89,-8.47,224.31,8.12,2.85
71289,51.123028,-2.970963,59,24.27,9,206.1,15 / 23,7129273,2019-08-16 14:48:03:053,0.2579,0.1389,9.9411,-0.0346,-0.0322,9.8065,0.0266,0.0442,-0.0048,-20.12,20.51,-8.61,224.31,8.12,2.85
71290,51.123028,-2.970963,59,24.27,9,206.1,15 / 23,7129373,2019-08-16 14:48:03:153,0.4531,0.0386,9.101,-0.0375,-0.0134,9.8066,-0.0288,-0.0314,-0.0101,-20.12,20.51,-8.61,224.31,8.12,2.85
71291,51.123028,-2.970963,59,24.27,9,206.1,15 / 23,7129473,2019-08-16 14:48:03:253,-0.0011,0.1792,9.6712,0.0205,0.0077,9.8066,-0.0245,-0.0069,-0.0272,-19.57,21.29,-7.97,224.32,7.9,2.95
71292,51.123028,-2.970963,59,24.27,9,206.1,15 / 23,7129573,2019-08-16 14:48:03:353,0.3586,0.0097,9.6292,0.0441,0.0161,9.8065,0.016,0.0283,-0.0037,-19.87,20.93,-8.21,224.31,8.15,2.84
71293,51.123028,-2.970963,59,24.27,9,206.1,15 / 23,7129673,2019-08-16 14:48:03:453,0.8285,-0.1008,9.9635,0.0267,0.0069,9.8066,0.016,0.0283,-0.0037,-19.87,20.93,-8.21,224.31,8.15,2.84
71294,51.122833,-2.971117,59,24.53,9,205.8,15 / 23,7129773,2019-08-16 14:48:03:553,0.5237,0.0772,9.5838,-0.0384,0.0147,9.8066,0.0074,0.0112,-0.0101,-20.33,20.71,-7.58,224.32,8.29,2.76
71295,51.122833,-2.971117,59,24.53,9,205.8,15 / 23,7129872,2019-08-16 14:48:03:652,0.0207,0.2396,10.4939,-0.0218,-0.0023,9.8066,0.017,-0.009,-0.0059,-19.93,20.96,-7.96,224.27,8.19,2.98
71296,51.122833,-2.971117,59,24.53,9,205.8,15 / 23,7129973,2019-08-16 14:48:03:753,0.5697,0.157,9.2966,-0.0129,-0.0036,9.8066,-0.0288,0.0432,-0.0112,-19.43,21.14,-8.7,224.27,8.19,2.98
71297,51.122833,-2.971117,59,24.53,9,205.8,15 / 23,7130073,2019-08-16 14:48:03:853,0.128,-0.0022,10.0169,0.0003,-0.0192,9.8066,-0.0053,-0.009,-0.0176,-19.43,21.14,-8.7,224.27,8.19,2.98
71298,51.122833,-2.971117,59,24.53,9,205.8,15 / 23,7130173,2019-08-16 14:48:03:953,0.46,-0.1872,9.866,0.0085,-0.0102,9.8066,0.0043,0.0123,-0.0016,-19.34,21.11,-8.97,225.41,8.12,2.89
71299,51.122833,-2.971117,59,24.53,9,205.8,15 / 23,7130273,2019-08-16 14:48:04:053,0.5337,0.2378,9.8098,-0.0071,-0.0001,9.8066,0.0341,0.0229,0.0016,-19.54,21.38,-7.82,224.3,8.09,2.92
71300,51.122833,-2.971117,59,24.53,9,205.8,15 / 23,7130373,2019-08-16 14:48:04:153,0.2208,-0.4072,9.5076,-0.0056,0.0074,9.8066,0.0011,-0.0346,0.0186,-19.54,21.38,-7.82,224.3,8.09,2.92
71301,51.122833,-2.971117,59,24.53,9,205.8,15 / 23,7130473,2019-08-16 14:48:04:253,0.7791,0.1338,9.6952,0.0088,0.0459,9.8065,-0.0224,0.008,-0.0091,-19.76,21.63,-6.44,226.1,8.31,3.08
71302,51.122833,-2.971117,59,24.53,9,205.8,15 / 23,7130573,2019-08-16 14:48:04:353,0.723,-0.0617,10.8626,0.0264,-0.0176,9.8066,-0.0224,0.008,-0.0091,-18.88,22.2,-7.12,227.21,8.37,3.07
71303,51.122833,-2.971117,59,24.53,9,205.8,15 / 23,7130673,2019-08-16 14:48:04:453,0.5122,-0.253,9.3015,0.0259,-0.0421,9.8065,-0.016,0.041,0.0112,-18.88,22.2,-7.12,227.21,8.37,3.07
71304,51.12264,-2.971274,59,24.49,9,205.8,15 / 23,7130772,2019-08-16 14:48:04:552,-0.0468,-0.1565,9.3697,-0.0184,0.0005,9.8066,0.0011,0.0155,0.009,-19.29,21.74,-7.44,227.3,8.3,2.79
71305,51.12264,-2.971274,59,24.49,9,205.8,15 / 23,7130872,2019-08-16 14:48:04:652,-0.371,0.0735,9.8416,-0.0376,0.0126,9.8066,0.0192,0.0112,-0.0048,-19.61,21.4,-7.57,224.26,8.2,3.0
71306,51.12264,-2.971274,59,24.49,9,205.8,15 / 23,7130972,2019-08-16 14:48:04:752,-0.0159,-0.0498,10.0451,0.0121,-0.004,9.8066,-0.0309,-0.0229,-0.0101,-19.61,21.4,-7.57,224.26,8.2,3.0
71307,51.12264,-2.971274,59,24.49,9,205.8,15 / 23,7131073,2019-08-16 14:48:04:853,-0.0393,0.108,9.3357,-0.0114,-0.0199,9.8066,0.0213,0.0187,-0.0048,-19.22,21.58,-8.05,226.99,8.23,2.94
71308,51.12264,-2.971274,59,24.49,9,205.8,15 / 23,7131173,2019-08-16 14:48:04:953,-0.2127,0.0499,10.0253,-0.0146,-0.0139,9.8066,0.0096,-0.0048,-0.0197,-19.18,21.71,-7.8,227.02,8.1,2.91
71309,51.12264,-2.971274,59,24.49,9,205.8,15 / 23,7131273,2019-08-16 14:48:05:053,-0.0571,0.0636,9.1893,0.0049,0.0067,9.8066,0.0096,-0.0048,-0.0197,-19.18,21.71,-7.8,227.02,8.1,2.91
71310,51.12264,-2.971274,59,24.49,9,205.8,15 / 23,7131372,2019-08-16 14:48:05:152,0.1805,-0.0294,8.7639,0.0271,0.0163,9.8066,-0.0139,0.0006,-0.0091,-19.13,21.56,-8.3,227.01,8.15,2.91
71311,51.12264,-2.971274,59,24.49,9,205.8,15 / 23,7131472,2019-08-16 14:48:05:252,-0.1062,-0.3665,9.5175,0.0402,0.0148,9.8066,-0.0245,-0.0229,-0.0037,-18.82,21.89,-8.17,227.01,8.38,2.8
71312,51.12264,-2.971274,59,24.49,9,205.8,15 / 23,7131572,2019-08-16 14:48:05:352,0.129,-0.201,9.5756,0.0134,-0.0058,9.8066,-0.0075,0.0368,-0.0133,-18.82,21.89,-8.17,227.01,8.38,2.8
71313,51.12264,-2.971274,59,24.49,9,205.8,15 / 23,7131673,2019-08-16 14:48:05:453,0.1077,0.1485,9.8816,-0.0045,0.0148,9.8066,0.0394,0.0059,0.0101,-19.04,21.55,-8.57,226.74,8.49,2.75
71314,51.122448,-2.971433,60,24.56,9,206.5,15 / 23,7131772,2019-08-16 14:48:05:552,0.2136,-0.0724,10.3233,-0.0228,-0.0132,9.8066,0.0085,-0.0101,-0.0005,-19.59,21.38,-7.68,224.26,8.53,2.83
71315,51.122448,-2.971433,60,24.56,9,206.5,15 / 23,7131872,2019-08-16 14:48:05:652,-0.2105,-0.2885,10.6641,-0.0442,-0.0491,9.8064,0.0,-0.0112,-0.0197,-19.59,21.38,-7.68,224.26,8.53,2.83
71316,51.122448,-2.971433,60,24.56,9,206.5,15 / 23,7131973,2019-08-16 14:48:05:753,0.1131,-0.1926,9.8273,0.011,-0.0151,9.8066,0.0,-0.0112,-0.0197,-19.16,21.69,-7.91,227.05,8.15,2.8
71317,51.122448,-2.971433,60,24.56,9,206.5,15 / 23,7132074,2019-08-16 14:48:05:854,-0.0265,-0.1363,9.7781,0.0314,-0.0067,9.8066,-0.0139,0.0069,-0.0133,-19.43,21.2,-8.55,225.47,8.24,2.64
71318,51.122448,-2.971433,60,24.56,9,206.5,15 / 23,7132173,2019-08-16 14:48:05:953,0.4596,-0.0176,9.3907,0.0174,0.0038,9.8066,0.0075,-0.0367,-0.0165,-19.43,21.2,-8.55,225.47,8.24,2.64
71319,51.122448,-2.971433,60,24.56,9,206.5,15 / 23,7132273,2019-08-16 14:48:06:053,0.4742,-0.253,9.6945,0.0125,0.009,9.8066,0.0053,-0.0399,-0.0272,-19.49,21.77,-6.81,227.35,8.33,2.58
71320,51.122448,-2.971433,60,24.56,9,206.5,15 / 23,7132373,2019-08-16 14:48:06:153,0.2871,-0.0408,9.1954,0.0274,0.0266,9.8066,-0.0085,0.0336,-0.0101,-18.89,21.96,-7.8,227.35,8.33,2.58
71321,51.122448,-2.971433,60,24.56,9,206.5,15 / 23,7132472,2019-08-16 14:48:06:252,0.1213,0.2706,9.8844,0.0354,0.0229,9.8066,0.017,0.0197,-0.0123,-18.75,21.8,-8.55,226.79,8.57,2.52
71322,51.122448,-2.971433,60,24.56,9,206.5,15 / 23,7132573,2019-08-16 14:48:06:353,-0.1403,-0.0572,10.307,-0.0024,-0.0209,9.8066,0.0106,0.008,-0.0187,-19.3,21.64,-7.68,226.79,8.57,2.52
71323,51.122448,-2.971433,60,24.56,9,206.5,15 / 23,7132673,2019-08-16 14:48:06:453,0.0712,0.1169,10.0793,-0.0168,-0.0026,9.8066,0.0106,0.0261,-0.0197,-19.0,22.09,-7.13,227.38,8.39,2.42
71324,51.122253,-2.971595,60,24.64,9,207.1,15 / 23,7132773,2019-08-16 14:48:06:553,-0.1853,-0.215,10.1904,-0.0138,-0.0005,9.8066,0.0106,0.0261,-0.0197,-19.0,22.09,-7.13,227.38,8.39,2.42
71325,51.122253,-2.971595,60,24.64,9,207.1,15 / 23,7132873,2019-08-16 14:48:06:653,-0.0218,-0.1543,9.014,0.0063,-0.0018,9.8066,-0.0053,0.0144,-0.0037,-18.41,21.96,-8.87,228.28,8.34,2.48
71326,51.122253,-2.971595,60,24.64,9,207.1,15 / 23,7132973,2019-08-16 14:48:06:753,-0.0059,0.1149,9.8432,0.0094,0.0017,9.8066,0.017,-0.0218,-0.0069,-18.29,21.95,-9.14,228.28,8.34,2.48
71327,51.122253,-2.971595,60,24.64,9,207.1,15 / 23,7133073,2019-08-16 14:48:06:853,-0.3619,-0.1023,10.5133,-0.0045,0.0225,9.8066,0.0288,-0.0282,-0.0165,-18.64,21.79,-8.83,226.85,8.38,2.44
71328,51.122253,-2.971595,60,24.64,9,207.1,15 / 23,7133173,2019-08-16 14:48:06:953,-0.2612,0.1769,9.9055,-0.0058,0.0152,9.8066,-0.0202,0.0112,-0.0027,-18.64,21.79,-8.83,226.85,8.38,2.44
71329,51.122253,-2.971595,60,24.64,9,207.1,15 / 23,7133273,2019-08-16 14:48:07:053,0.1821,0.1925,9.3241,-0.0137,-0.014,9.8066,-0.0085,0.0293,-0.0048,-18.73,22.02,-8.03,227.08,8.42,2.53
71330,51.122253,-2.971595,60,24.64,9,207.1,15 / 23,7133374,2019-08-16 14:48:07:154,0.4119,-0.0119,9.1834,-0.0184,-0.0153,9.8066,-0.0021,-0.0016,0.0005,-19.02,21.32,-9.16,225.49,8.28,2.55
71331,51.122253,-2.971595,60,24.64,9,207.1,15 / 23,7133473,2019-08-16 14:48:07:253,0.5309,-0.0803,8.7876,0.0225,0.0085,9.8066,0.0,-0.0005,0.0027,-18.44,22.12,-8.41,228.53,8.41,2.49
71332,51.122253,-2.971595,60,24.64,9,207.1,15 / 23,7133572,2019-08-16 14:48:07:352,0.0437,-0.1061,9.8356,0.016,0.0101,9.8066,0.0,-0.0005,0.0027,-18.44,22.12,-8.41,228.53,8.41,2.49
71333,51.122253,-2.971595,60,24.64,9,207.1,15 / 23,7133673,2019-08-16 14:48:07:453,-0.0949,0.1105,9.6521,0.0129,-0.0039,9.8066,-0.0213,0.0016,-0.0123,-18.6,21.63,-9.29,226.84,8.54,2.39
71334,51.12204,-2.971754,60,24.68,9,207.4,15 / 23,7133772,2019-08-16 14:48:07:552,-0.084,0.1191,9.571,0.0124,-0.0035,9.8066,0.0043,0.0165,-0.0027,-18.99,21.97,-7.55,226.84,8.54,2.39
71335,51.12204,-2.971754,60,24.68,9,207.4,15 / 23,7133873,2019-08-16 14:48:07:653,-0.1264,0.0676,9.2013,-0.0074,-0.0051,9.8066,0.0181,-0.025,-0.0133,-19.09,22.09,-6.91,227.39,8.58,2.32
71336,51.12204,-2.971754,60,24.68,9,207.4,15 / 23,7133973,2019-08-16 14:48:07:753,0.1153,0.3507,9.5024,-0.0204,-0.0133,9.8066,-0.0085,0.0251,-0.0155,-18.67,22.41,-7.01,227.39,8.58,2.32
71337,51.12204,-2.971754,60,24.68,9,207.4,15 / 23,7134073,2019-08-16 14:48:07:853,-0.2186,-0.2728,8.0982,0.0013,0.0095,9.8066,-0.0085,-0.0431,-0.0165,-18.67,22.41,-7.01,227.39,8.44,2.35
71338,51.12204,-2.971754,60,24.68,9,207.4,15 / 23,7134173,2019-08-16 14:48:07:953,-0.2244,0.3091,9.8864,0.001,-0.0059,9.8066,0.0437,-0.0335,-0.0304,-18.6,21.63,-9.29,226.85,8.49,2.39
71339,51.12204,-2.971754,60,24.68,9,207.4,15 / 23,7134273,2019-08-16 14:48:08:053,0.2028,0.158,9.7065,0.004,0.0076,9.8066,0.016,0.0038,0.0048,-18.6,21.63,-9.29,226.84,8.53,2.4
71340,51.12204,-2.971754,60,24.68,9,207.4,15 / 23,7134373,2019-08-16 14:48:08:153,-0.1081,0.0808,9.8782,-0.0038,0.0118,9.8066,0.0181,0.0208,0.0016,-18.85,21.81,-8.29,226.84,8.53,2.4
71341,51.12204,-2.971754,60,24.68,9,207.4,15 / 23,7134472,2019-08-16 14:48:08:252,0.1126,0.1491,9.6336,-0.0162,0.002,9.8066,0.0181,0.0208,0.0016,-18.85,21.81,-8.29,226.84,8.53,2.4
71342,51.12204,-2.971754,60,24.68,9,207.4,15 / 23,7134573,2019-08-16 14:48:08:353,0.0328,0.146,9.8247,-0.0137,-0.0223,9.8066,-0.0107,-0.0037,-0.0123,-18.31,22.12,-8.68,228.3,8.38,2.37
71343,51.12204,-2.971754,60,24.68,9,207.4,15 / 23,7134672,2019-08-16 14:48:08:452,0.0677,-0.3075,9.5984,0.0125,0.0024,9.8066,-0.0149,-0.0058,-0.0123,-18.13,22.02,-9.29,228.34,8.39,2.23
71344,51.12184,-2.971917,60,24.76,9,207.8,15 / 23,7134773,2019-08-16 14:48:08:553,-0.0618,0.3667,9.6092,-0.0038,0.015,9.8066,0.0117,-0.0016,-0.0027,-18.13,22.02,-9.29,228.34,8.39,2.23
71345,51.12184,-2.971917,60,24.76,9,207.8,15 / 23,7134873,2019-08-16 14:48:08:653,-0.2371,0.1467,9.9849,-0.0328,0.0196,9.8066,0.0288,-0.0016,-0.0037,-18.19,21.96,-9.32,228.31,8.44,2.31
71346,51.12184,-2.971917,60,24.76,9,207.8,15 / 23,7134973,2019-08-16 14:48:08:753,-0.1036,0.1245,9.0424,-0.0213,0.0164,9.8066,0.0032,-0.0527,-0.0112,-18.0,22.43,-8.53,228.25,8.4,2.53
71347,51.12184,-2.971917,60,24.76,9,207.8,15 / 23,7135072,2019-08-16 14:48:08:852,-0.4298,0.3914,9.4358,-0.0276,0.0432,9.8065,-0.033,-0.0261,-0.0197,-18.87,21.84,-8.19,228.25,8.4,2.53
71348,51.12184,-2.971917,60,24.76,9,207.8,15 / 23,7135172,2019-08-16 14:48:08:952,-0.1723,0.5793,9.6721,-0.0291,0.0479,9.8065,-0.033,-0.0261,-0.0197,-18.87,21.84,-8.19,228.25,8.4,2.53
71349,51.12184,-2.971917,60,24.76,9,207.8,15 / 23,7135273,2019-08-16 14:48:09:053,-0.0794,-0.3804,9.8511,0.0028,-0.0111,9.8066,0.0192,-0.0229,-0.0261,-18.67,22.41,-7.01,227.26,8.49,2.85
