,GPS LATITUDE (degrees), GPS LONGITUDE (degrees), GPS ALTITUDE (m), GPS SPEED (Kmh), GPS ACCURACY (m), GPS ORIENTATION (Â°),GPS SATELLITES IN RANGE, TIME SINCE START (ms), DATE (YYYY-MO-DD HH-MI-SS_SSS), ACCELEROMETER X (m/s²) , ACCELEROMETER Y (m/s²), ACCELEROMETER Z (m/s²), GRAVITY X (m/s²), GRAVITY Y (m/s²), GRAVITY Z (m/s²), GYROSCOPE Yaw (rad/s), GYROSCOPE Pitch (rad/s), GYROSCOPE Roll (rad/s), MAGNETIC FIELD X (Î¼T), MAGNETIC FIELD Y (Î¼T), MAGNETIC FIELD Z (Î¼T), ORIENTATION (Yaw) (Â°), ORIENTATION (Pitch) (Â°), ORIENTATION (Roll ) (Â°)
23688,52.44438,-1.542424,190.04,12.69,3.0,319.14,21 / 22,2373028,2019-09-07 09:52:58:307,-0.4793,-0.9659,9.5167,-0.0041,-0.0186,9.8066,-0.0189,0.0348,-0.0058,-3.81,-37.19,-0.06,224.79,-82.1,-161.36
23689,52.44438,-1.542424,190.04,12.69,3.0,319.14,23 / 23,2373127,2019-09-07 09:52:58:406,-0.3873,-0.8802,10.2046,0.0198,0.0085,9.8066,-0.0238,0.0631,-0.0977,-3.94,-37.12,0.0,225.27,-82.16,-160.79
23690,52.44438,-1.542424,190.04,12.69,3.0,319.14,23 / 23,2373227,2019-09-07 09:52:58:506,-0.664,-0.9915,9.7302,-0.012,0.0093,9.8065,-0.0212,-0.0124,0.0051,-3.56,-37.06,1.5,239.08,-82.17,-160.9
23691,52.44438,-1.542424,190.04,12.69,3.0,319.14,23 / 23,2373327,2019-09-07 09:52:58:606,0.5372,-1.7197,9.7627,-0.0067,-0.0054,9.8066,-0.0017,0.0235,0.0428,-3.5,-36.5,0.0,216.03,-82.19,-160.13
23692,52.44438,-1.542424,190.04,12.69,3.0,319.14,23 / 23,2373427,2019-09-07 09:52:58:706,0.0958,-0.5331,9.542,0.009,-0.0093,9.8066,0.0271,0.0239,0.031,-3.62,-36.81,0.38,225.93,-82.25,-160.12
23693,52.44438,-1.542424,190.04,12.69,3.0,319.14,23 / 23,2373527,2019-09-07 09:52:58:806,-0.7532,-1.5857,9.9757,-0.0002,-0.0002,9.8066,0.0032,-0.0021,-0.0437,-4.0,-36.87,-0.19,225.96,-82.23,-159.75
23694,52.44438,-1.542424,190.04,12.69,3.0,319.14,23 / 23,2373627,2019-09-07 09:52:58:906,-0.5825,-1.466,10.032,-0.0045,0.0131,9.8066,-0.0146,-0.0931,0.0185,-3.62,-37.12,0.13,226.05,-82.26,-159.94
23695,52.44438,-1.542424,190.04,12.69,3.0,319.14,23 / 23,2373727,2019-09-07 09:52:59:006,-0.3828,-1.7836,9.6999,-0.0277,0.0094,9.8066,0.0007,-0.0258,-0.0035,-3.69,-37.25,-0.37,225.83,-82.22,-159.94
23696,52.44438,-1.542424,190.04,12.69,3.0,319.14,23 / 23,2373827,2019-09-07 09:52:59:106,-0.0517,-1.0957,9.6467,0.0053,0.0132,9.8066,0.0221,0.0569,-0.0135,-3.75,-37.0,0.0,225.16,-82.21,-161.78
23697,52.44438,-1.542424,190.04,12.69,3.0,319.14,23 / 23,2373928,2019-09-07 09:52:59:207,-1.0637,-0.7729,9.8108,-0.0166,-0.0432,9.8065,0.1831,0.107,-0.0808,-3.25,-36.62,-0.25,215.49,-82.37,-162.19
23698,52.44438,-1.542424,190.04,12.69,3.0,319.14,23 / 23,2374027,2019-09-07 09:52:59:306,-0.1527,-0.8536,10.0873,-0.001,-0.0497,9.8065,0.1653,0.0073,0.0781,-3.5,-37.06,0.0,215.38,-82.34,-162.24
23699,52.44438,-1.542424,190.04,12.69,3.0,319.14,23 / 23,2374128,2019-09-07 09:52:59:407,-1.4544,-2.2174,10.3562,0.0058,0.0045,9.8066,-0.0001,-0.0641,0.0173,-3.62,-36.37,0.44,226.31,-82.19,-161.31
23700,52.44438,-1.542424,190.04,12.69,3.0,319.14,23 / 23,2374227,2019-09-07 09:52:59:506,-1.6473,-0.291,8.9617,0.0139,0.0025,9.8066,0.0131,0.0489,-0.0497,-3.87,-36.81,0.0,224.68,-82.03,-160.56
23701,52.44438,-1.542424,190.04,12.69,3.0,319.14,23 / 23,2374327,2019-09-07 09:52:59:606,0.2885,-2.0814,9.4697,0.013,-0.0258,9.8066,0.0184,-0.0243,-0.0005,-4.44,-36.56,0.19,224.64,-81.96,-159.69
23702,52.44438,-1.542424,190.04,12.69,3.0,319.14,23 / 23,2374427,2019-09-07 09:52:59:706,0.3819,-2.747,9.9403,-0.0016,-0.0359,9.8065,-0.0246,-0.0195,0.0339,-3.81,-37.0,-0.12,226.28,-82.14,-157.19
23703,52.44438,-1.542424,190.04,12.69,3.0,319.14,23 / 23,2374527,2019-09-07 09:52:59:806,-0.5757,-2.0881,9.9204,-0.0066,-0.0015,9.8066,-0.0543,-0.022,0.0042,-4.44,-36.56,-0.19,227.71,-82.32,-155.76
23704,52.44438,-1.542424,190.04,12.69,3.0,319.14,23 / 23,2374627,2019-09-07 09:52:59:906,-0.9215,-1.2484,9.9177,0.0086,0.0014,9.8066,-0.0099,0.0362,-0.0057,-3.81,-36.12,-0.06,228.78,-82.28,-155.37
23705,52.44438,-1.542424,190.04,12.69,3.0,319.14,23 / 23,2374728,2019-09-07 09:53:00:007,-0.4835,-0.7666,9.587,0.0095,0.0082,9.8066,0.0221,0.0459,0.0273,-4.56,-36.75,0.13,236.77,-82.18,-155.55
23706,52.44438,-1.542424,190.04,12.69,3.0,319.14,23 / 23,2374828,2019-09-07 09:53:00:107,-0.3172,-1.004,10.0957,0.0068,0.0073,9.8066,-0.0337,0.0022,0.0463,-4.06,-36.87,0.31,226.07,-82.01,-155.57
23707,52.44438,-1.542424,190.04,12.69,3.0,319.14,23 / 23,2374927,2019-09-07 09:53:00:206,-1.1434,-0.6432,9.8838,-0.0083,0.0022,9.8066,-0.0043,0.0119,0.0068,-4.94,-36.75,0.69,242.28,-82.01,-155.17
23708,52.44438,-1.542424,190.04,12.69,3.0,319.14,23 / 23,2375027,2019-09-07 09:53:00:306,-1.7272,-1.1991,9.6872,-0.0069,-0.004,9.8066,0.0094,0.093,-0.0514,-4.31,-36.56,0.88,231.88,-82.11,-155.42
23709,52.44438,-1.542424,190.04,12.69,3.0,319.14,23 / 23,2375127,2019-09-07 09:53:00:406,-1.7637,-0.5029,9.543,-0.0147,-0.0049,9.8066,0.026,0.109,-0.0842,-4.44,-36.25,0.63,234.3,-82.25,-155.87
23710,52.44438,-1.542424,190.04,12.69,3.0,319.14,23 / 23,2375227,2019-09-07 09:53:00:506,-1.5849,-0.6504,9.9079,-0.015,0.0038,9.8066,-0.0569,0.0687,0.0041,-4.12,-36.25,1.44,234.56,-82.33,-157.03
23711,52.44438,-1.542424,190.04,12.69,3.0,319.14,23 / 23,2375327,2019-09-07 09:53:00:606,-2.1843,-1.0889,9.665,-0.0155,-0.0054,9.8066,0.0195,0.1284,-0.0014,-4.0,-37.37,0.75,233.9,-82.44,-156.75
23712,52.44438,-1.542424,190.04,12.69,3.0,319.14,23 / 23,2375427,2019-09-07 09:53:00:706,-2.0803,0.2158,9.6304,-0.0132,-0.015,9.8066,0.0421,0.2368,-0.1031,-3.62,-36.81,0.81,235.42,-82.66,-157.24
23713,52.44438,-1.542424,190.04,12.69,3.0,319.14,23 / 23,2375527,2019-09-07 09:53:00:806,-1.6675,-0.0486,9.7527,0.0045,0.0141,9.8066,-0.0524,0.2203,-0.0784,-2.81,-36.75,1.69,230.19,-82.78,-158.26
23714,52.44438,-1.542424,190.04,12.69,3.0,319.14,23 / 23,2375627,2019-09-07 09:53:00:906,-2.2451,-0.2366,9.8381,-0.0126,0.0214,9.8066,-0.0183,0.1933,-0.0626,-2.94,-37.06,1.75,230.92,-82.83,-159.99
23715,52.44438,-1.542424,190.04,12.69,3.0,319.14,23 / 23,2375727,2019-09-07 09:53:01:006,-2.1447,-0.8266,9.8125,-0.0283,-0.0283,9.8065,0.0832,0.1955,-0.044,-1.87,-36.44,1.69,215.59,-83.14,-162.14
23716,52.44438,-1.542424,190.04,12.69,3.0,319.14,23 / 23,2375827,2019-09-07 09:53:01:106,-1.7183,-2.4896,9.9649,-0.0218,-0.0157,9.8066,0.0131,0.2367,-0.0662,-1.5,-37.06,2.69,184.71,-83.14,-163.47
23717,52.44438,-1.542424,190.04,12.69,3.0,319.14,23 / 23,2375928,2019-09-07 09:53:01:207,-3.1544,1.025,9.7665,-0.0025,0.0259,9.8065,0.0021,0.2022,0.0141,-1.94,-36.25,2.5,233.83,-83.23,-165.21
23718,52.44438,-1.542424,190.04,12.69,3.0,319.14,23 / 23,2376028,2019-09-07 09:53:01:307,-2.556,-1.4571,9.9533,-0.0031,0.0086,9.8066,0.0053,0.3154,-0.1024,-0.94,-36.44,3.06,193.69,-83.19,-166.6
23719,52.44438,-1.542424,190.04,12.69,3.0,319.14,24 / 24,2376127,2019-09-07 09:53:01:406,0.5089,-1.62,9.8166,-0.0187,-0.0322,9.8065,-0.0454,0.3577,-0.1298,-0.25,-36.75,3.69,120.55,-83.19,-167.65
23720,52.44438,-1.542424,190.04,12.69,3.0,319.14,24 / 24,2376227,2019-09-07 09:53:01:506,-0.3692,-4.0173,9.3172,-0.0074,-0.0099,9.8066,-0.0108,0.4111,-0.1208,0.38,-35.94,4.31,119.84,-83.2,-171.72
23721,52.44438,-1.542424,190.04,12.69,3.0,319.14,24 / 24,2376327,2019-09-07 09:53:01:606,1.3342,-2.7855,9.7884,-0.0014,-0.0058,9.8066,0.0572,0.3793,-0.1108,0.81,-36.06,4.69,73.47,-83.08,-173.19
23722,52.44438,-1.542424,190.04,12.69,3.0,319.14,24 / 24,2376428,2019-09-07 09:53:01:707,1.2346,-2.0423,10.5175,0.0211,0.0006,9.8066,0.0933,0.3758,-0.0283,0.56,-36.25,5.31,68.62,-83.2,-174.43
23723,52.44438,-1.542424,190.04,12.69,3.0,319.14,24 / 24,2376528,2019-09-07 09:53:01:807,2.0669,-0.3227,9.7911,-0.0127,-0.0264,9.8066,-0.1168,0.4552,-0.1252,1.0,-36.25,5.88,41.0,-83.35,-175.47
23724,52.44438,-1.542424,190.04,12.69,3.0,319.14,24 / 24,2376627,2019-09-07 09:53:01:906,2.1346,-1.4321,9.4193,-0.0073,-0.016,9.8066,-0.0518,0.4777,-0.0679,1.56,-35.12,6.81,41.18,-83.31,-176.68
23725,52.44438,-1.542424,190.04,12.69,3.0,319.14,24 / 24,2376728,2019-09-07 09:53:02:007,2.8903,-1.2804,9.6783,0.0073,0.0111,9.8066,-0.0629,0.5321,-0.0959,1.5,-35.62,7.19,43.19,-83.35,-176.08
23726,52.44438,-1.542424,190.04,12.69,3.0,319.14,24 / 24,2376827,2019-09-07 09:53:02:106,2.5871,0.2183,9.9122,0.0025,-0.0122,9.8066,-0.0811,0.415,0.0387,1.63,-35.81,7.5,34.07,-83.37,-176.59
23727,52.44438,-1.542424,190.04,12.69,3.0,319.14,24 / 24,2376927,2019-09-07 09:53:02:206,2.517,-0.8584,9.9427,0.0108,0.0055,9.8066,0.1235,0.4456,-0.0354,2.38,-35.31,9.0,27.42,-83.4,-176.88
23728,52.44438,-1.542424,190.04,12.69,3.0,319.14,24 / 24,2377027,2019-09-07 09:53:02:306,3.2403,-0.9423,9.7178,-0.0026,0.0077,9.8066,0.0006,0.4975,-0.0604,2.13,-35.62,10.5,21.7,-83.31,-176.71
23729,52.44438,-1.542424,190.04,12.69,3.0,319.14,24 / 24,2377127,2019-09-07 09:53:02:406,1.8764,-0.4738,9.8698,-0.0221,-0.014,9.8066,-0.0129,0.4408,0.0408,3.31,-34.81,10.81,29.67,-83.2,-176.14
23730,52.44438,-1.542424,190.04,12.69,3.0,319.14,24 / 24,2377227,2019-09-07 09:53:02:506,2.9638,-1.3148,9.9164,-0.0082,-0.0196,9.8066,-0.0509,0.4806,-0.0478,2.81,-34.5,12.31,27.13,-83.0,-175.88
23731,52.44438,-1.542424,190.04,12.69,3.0,319.14,24 / 24,2377327,2019-09-07 09:53:02:606,3.0894,0.2695,9.6619,0.0082,0.0212,9.8066,-0.1485,0.4796,-0.0144,2.5,-34.81,12.25,26.68,-83.12,-176.29
23732,52.44438,-1.542424,190.04,12.69,3.0,319.14,24 / 24,2377427,2019-09-07 09:53:02:706,3.5069,-0.2261,9.4676,0.0095,0.0157,9.8066,0.0943,0.4879,-0.0755,2.81,-34.87,12.56,24.14,-83.18,-176.33
23733,52.44438,-1.542424,190.04,12.69,3.0,319.14,24 / 24,2377527,2019-09-07 09:53:02:806,2.8454,-0.068,9.4895,-0.0032,0.0051,9.8066,-0.0062,0.4856,-0.0072,3.31,-34.19,12.81,22.23,-83.28,-177.38
23734,52.44438,-1.542424,190.04,12.69,3.0,319.14,24 / 24,2377628,2019-09-07 09:53:02:907,2.9749,-0.3033,10.0788,-0.012,0.0133,9.8066,0.0592,0.5162,0.0587,3.63,-35.31,14.0,27.51,-83.31,-176.03
23735,52.44438,-1.542424,190.04,12.69,3.0,319.14,24 / 24,2377727,2019-09-07 09:53:03:006,2.4131,-0.0274,9.6507,-0.0056,-0.0086,9.8066,0.0301,0.4964,-0.0177,3.13,-35.0,14.94,21.45,-83.31,-175.59
23736,52.44438,-1.542424,190.04,12.69,3.0,319.14,24 / 24,2377827,2019-09-07 09:53:03:106,2.0666,-0.8591,9.9943,-0.006,-0.0184,9.8066,0.0075,0.4961,-0.0581,2.88,-34.94,16.56,19.22,-83.21,-175.44
23737,52.44438,-1.542424,190.04,12.69,3.0,319.14,24 / 24,2377927,2019-09-07 09:53:03:206,2.3144,-0.456,10.0626,-0.0091,-0.0031,9.8066,0.0097,0.4981,-0.0439,3.44,-35.62,17.25,20.44,-83.14,-174.69
23738,52.44438,-1.542424,190.04,12.69,3.0,319.14,24 / 24,2378027,2019-09-07 09:53:03:306,2.0853,-0.9947,9.6272,-0.0018,-0.0001,9.8066,0.0698,0.467,-0.0234,2.75,-34.87,17.75,19.4,-83.1,-174.59
23739,52.444935,-1.543338,192.14,6.31,3.0,253.67,22 / 23,2378127,2019-09-07 09:53:03:406,3.3877,-0.2101,9.6909,0.0048,-0.0002,9.8066,0.0149,0.4501,0.0137,2.5,-34.62,18.94,18.2,-83.01,-174.87
23740,52.444935,-1.543338,192.14,6.31,3.0,253.67,22 / 23,2378227,2019-09-07 09:53:03:506,3.0259,-0.9482,9.8781,0.0047,-0.0104,9.8066,0.1009,0.5602,-0.1022,2.19,-34.06,20.63,13.11,-82.86,-175.03
23741,52.444935,-1.543338,192.14,6.31,3.0,253.67,22 / 23,2378327,2019-09-07 09:53:03:606,2.312,-0.9429,9.9785,0.0189,-0.0205,9.8065,-0.0282,0.5364,-0.0939,1.0,-34.5,20.56,8.23,-82.72,-176.24
23742,52.444935,-1.543338,192.14,6.31,3.0,253.67,22 / 23,2378427,2019-09-07 09:53:03:706,2.7648,-0.0413,9.3451,0.0126,0.032,9.8066,-0.1291,0.4661,-0.0259,1.31,-34.19,21.94,6.57,-82.85,-177.34
23743,52.444935,-1.543338,192.14,6.31,3.0,253.67,22 / 23,2378527,2019-09-07 09:53:03:806,3.1276,-0.2377,10.2463,0.0026,0.0204,9.8066,0.1184,0.5846,-0.0994,1.31,-34.56,22.38,5.64,-82.74,-178.14
23744,52.444935,-1.543338,192.14,6.31,3.0,253.67,22 / 23,2378627,2019-09-07 09:53:03:906,3.0476,0.128,10.2579,0.0121,-0.0299,9.8065,0.1702,0.5756,-0.0716,0.31,-34.44,23.44,0.25,-82.74,-179.8
23745,52.444935,-1.543338,192.14,6.31,3.0,253.67,22 / 23,2378727,2019-09-07 09:53:04:006,1.4474,-1.5324,9.4849,0.0145,-0.0142,9.8065,-0.0261,0.6556,-0.1668,1.38,-33.62,23.81,1.3,-82.46,178.66
23746,52.444935,-1.543338,192.14,6.31,3.0,253.67,22 / 23,2378827,2019-09-07 09:53:04:106,2.6984,-1.6864,9.2319,-0.0174,-0.0473,9.8064,0.0429,0.4583,0.0899,-0.06,-34.0,25.06,356.66,-82.41,177.29
23747,52.444935,-1.543338,192.14,6.31,3.0,253.67,22 / 23,2378927,2019-09-07 09:53:04:206,0.2492,-1.219,9.2011,-0.0047,-0.0447,9.8065,-0.2789,0.5299,-0.13,-0.31,-33.94,25.5,359.45,-82.11,179.56
23748,52.444935,-1.543338,192.14,6.31,3.0,253.67,22 / 23,2379027,2019-09-07 09:53:04:306,1.3265,-0.1849,9.2156,0.0262,0.0677,9.8063,-0.2849,0.6222,-0.2027,-0.37,-33.81,26.0,358.81,-82.81,179.01
23749,52.444935,-1.543338,192.14,6.31,3.0,253.67,23 / 23,2379133,2019-09-07 09:53:04:412,4.3765,2.2853,9.8457,-0.0109,0.0924,9.8061,0.1233,0.5069,-0.0624,-1.75,-34.06,26.19,351.15,-82.9,177.03
23750,52.444935,-1.543338,192.14,6.31,3.0,253.67,23 / 23,2379227,2019-09-07 09:53:04:506,3.7637,1.4031,10.3251,-0.0156,0.0587,9.8064,0.0576,0.4813,-0.1734,-0.87,-33.87,26.25,354.86,-83.54,177.85
23751,52.444935,-1.543338,192.14,6.31,3.0,253.67,23 / 23,2379327,2019-09-07 09:53:04:606,1.0442,-0.6608,10.0982,0.0187,-0.043,9.8064,0.1031,0.3255,-0.0608,-2.19,-33.31,27.19,352.15,-83.04,177.6
23752,52.444935,-1.543338,192.14,6.31,3.0,253.67,23 / 23,2379428,2019-09-07 09:53:04:707,3.025,-1.0402,9.7618,0.0149,-0.0267,9.8065,0.0496,0.3704,0.0242,-2.25,-33.62,27.81,351.09,-82.6,176.63
23753,52.444935,-1.543338,192.14,6.31,3.0,253.67,23 / 23,2379528,2019-09-07 09:53:04:807,0.0677,-1.3122,10.3578,-0.0086,-0.0082,9.8066,0.094,0.3821,-0.0402,-2.5,-32.31,28.56,351.71,-82.25,176.96
23754,52.444935,-1.543338,192.14,6.31,3.0,253.67,23 / 23,2379628,2019-09-07 09:53:04:907,1.79,-2.317,10.081,0.0009,0.0088,9.8066,0.0562,0.2493,-0.0319,-3.12,-33.31,28.5,348.76,-82.27,176.47
23755,52.444935,-1.543338,192.14,6.31,3.0,253.67,23 / 23,2379727,2019-09-07 09:53:05:006,2.0272,-0.9015,10.0676,0.0189,0.0172,9.8066,-0.0111,0.3065,-0.0923,-2.69,-32.19,28.63,347.01,-82.43,174.89
23756,52.444935,-1.543338,192.14,6.31,3.0,253.67,23 / 23,2379828,2019-09-07 09:53:05:107,0.8115,-0.4478,10.0063,0.0124,-0.0024,9.8066,0.0358,0.1789,-0.0399,-3.06,-32.31,28.25,345.01,-82.35,173.5
23757,52.444935,-1.543338,192.14,6.31,3.0,253.67,23 / 23,2379927,2019-09-07 09:53:05:206,2.5388,0.5042,9.517,0.0083,0.0097,9.8066,0.0218,0.183,0.0437,-1.87,-31.44,28.13,346.94,-82.28,173.06
23758,52.444935,-1.543338,192.14,6.31,3.0,253.67,23 / 23,2380028,2019-09-07 09:53:05:307,1.2927,-0.5567,9.8016,-0.0138,-0.0007,9.8065,0.0491,0.2401,0.0237,-2.0,-31.0,28.69,347.87,-82.27,173.65
23759,52.444935,-1.543338,192.14,6.31,3.0,253.67,22 / 23,2380128,2019-09-07 09:53:05:407,1.2005,-1.7896,10.0138,-0.0213,-0.0022,9.8066,-0.0604,0.2361,-0.0681,-2.94,-31.62,29.75,348.2,-82.25,175.69
23760,52.444935,-1.543338,192.14,6.31,3.0,253.67,22 / 23,2380227,2019-09-07 09:53:05:506,0.1733,0.5829,10.2278,0.0022,-0.0178,9.8065,-0.0077,0.1702,0.0377,-4.25,-32.25,30.5,347.2,-82.21,176.43
23761,52.444935,-1.543338,192.14,6.31,3.0,253.67,22 / 23,2380327,2019-09-07 09:53:05:606,0.4363,-1.2156,9.7238,-0.0109,-0.0085,9.8066,0.034,0.1338,0.0493,-4.81,-33.19,30.31,345.56,-82.13,177.28
23762,52.444935,-1.543338,192.14,6.31,3.0,253.67,22 / 23,2380427,2019-09-07 09:53:05:706,-0.5147,-1.6914,9.6214,0.0014,-0.0143,9.8066,0.043,0.0354,0.0629,-5.44,-33.06,29.94,346.91,-81.97,178.46
23763,52.444935,-1.543338,192.14,6.31,3.0,253.67,22 / 23,2380527,2019-09-07 09:53:05:806,-0.0709,0.5099,10.056,-0.0061,0.0049,9.8066,-0.0311,0.032,-0.0194,-5.62,-32.94,29.75,345.92,-81.84,179.5
23764,52.444935,-1.543338,192.14,6.31,3.0,253.67,22 / 23,2380627,2019-09-07 09:53:05:906,-0.4271,-0.8465,10.2148,-0.0115,0.0025,9.8065,-0.0208,0.0152,-0.0041,-5.62,-33.37,30.44,347.24,-81.86,-179.39
23765,52.444935,-1.543338,192.14,6.31,3.0,253.67,22 / 23,2380727,2019-09-07 09:53:06:006,-0.2688,-0.955,9.7271,0.0011,-0.0159,9.8065,-0.0219,-0.0202,0.0794,-5.69,-33.12,29.94,347.53,-81.77,-179.12
23766,52.444935,-1.543338,192.14,6.31,3.0,253.67,22 / 23,2380827,2019-09-07 09:53:06:106,-0.084,-0.9377,9.5638,0.0061,-0.0207,9.8066,-0.0493,0.0366,0.0256,-5.56,-33.56,29.56,348.09,-81.7,-178.58
23767,52.444935,-1.543338,192.14,6.31,3.0,253.67,22 / 23,2380927,2019-09-07 09:53:06:206,-0.3709,-0.6762,9.696,-0.0136,0.0198,9.8066,0.0137,0.0467,0.0416,-5.94,-32.81,29.81,348.97,-81.65,-177.89
23768,52.444935,-1.543338,192.14,6.31,3.0,253.67,22 / 23,2381027,2019-09-07 09:53:06:306,-1.3042,-0.1803,10.0141,-0.0055,-0.0064,9.8066,-0.0894,-0.0162,0.0134,-6.37,-33.19,29.69,350.07,-81.65,-176.97
23769,52.444935,-1.543338,192.14,6.31,3.0,253.67,22 / 23,2381128,2019-09-07 09:53:06:407,0.0738,-0.4995,9.0899,0.0049,0.0173,9.8066,0.0617,-0.0107,0.0137,-5.94,-32.87,29.63,350.27,-81.59,-176.79
23770,52.444935,-1.543338,192.14,6.31,3.0,253.67,22 / 23,2381227,2019-09-07 09:53:06:506,0.0257,-0.5832,9.7793,-0.0031,0.0261,9.8066,0.068,0.002,0.0367,-6.25,-33.5,29.81,349.67,-81.66,-177.3
23771,52.444935,-1.543338,192.14,6.31,3.0,253.67,22 / 23,2381327,2019-09-07 09:53:06:606,0.4957,-2.0715,9.9093,-0.001,-0.0237,9.8066,-0.0731,0.009,-0.0185,-6.31,-33.25,29.94,349.62,-81.51,-177.31
23772,52.444935,-1.543338,192.14,6.31,3.0,253.67,22 / 23,2381427,2019-09-07 09:53:06:706,0.8155,-1.9403,9.9558,-0.0062,-0.0121,9.8066,0.0697,0.0621,-0.0565,-6.31,-33.37,30.13,350.56,-81.6,-176.55
23773,52.444935,-1.543338,192.14,6.31,3.0,253.67,22 / 23,2381527,2019-09-07 09:53:06:806,-0.3277,0.0389,10.2966,-0.0042,0.0157,9.8066,-0.0025,0.0365,0.0062,-5.87,-33.37,30.38,350.86,-81.59,-176.29
23774,52.444935,-1.543338,192.14,6.31,3.0,253.67,22 / 23,2381627,2019-09-07 09:53:06:906,-0.4438,0.1721,10.3645,-0.0036,0.0074,9.8066,-0.0336,0.0242,0.0392,-6.19,-33.06,29.38,350.47,-81.6,-176.2
23775,52.444935,-1.543338,192.14,6.31,3.0,253.67,22 / 23,2381727,2019-09-07 09:53:07:006,-0.1292,0.2019,9.725,0.0,-0.0218,9.8066,0.0241,-0.0291,0.0231,-6.25,-33.37,29.63,351.39,-81.53,-175.84
23776,52.444935,-1.543338,192.14,6.31,3.0,253.67,22 / 23,2381827,2019-09-07 09:53:07:106,-0.4665,0.0859,9.868,0.0043,-0.0165,9.8065,-0.0545,0.0167,-0.0169,-6.62,-33.69,30.5,350.17,-81.33,-175.42
23777,52.444935,-1.543338,192.14,6.31,3.0,253.67,22 / 23,2381927,2019-09-07 09:53:07:206,0.2278,-0.2477,9.7161,-0.009,0.0159,9.8066,0.0174,0.1131,-0.0706,-6.75,-33.75,29.69,349.93,-81.44,-175.18
23778,52.444935,-1.543338,192.14,6.31,3.0,253.67,22 / 23,2382028,2019-09-07 09:53:07:307,-0.6666,0.3955,9.929,0.0056,-0.0003,9.8066,0.0075,0.017,0.0237,-6.62,-33.19,30.31,350.29,-81.31,-174.9
23779,52.444935,-1.543338,192.14,6.31,3.0,253.67,22 / 23,2382129,2019-09-07 09:53:07:408,-0.186,-0.6516,9.9975,-0.0023,-0.0164,9.8065,-0.0274,-0.0022,0.0107,-6.69,-33.5,30.38,350.34,-81.18,-174.83
23780,52.444935,-1.543338,192.14,6.31,3.0,253.67,22 / 23,2382227,2019-09-07 09:53:07:506,-0.2124,-0.4693,9.7766,-0.009,-0.0102,9.8066,-0.0205,-0.0066,-0.0061,-6.5,-33.19,30.81,353.24,-81.12,-174.64
23781,52.444935,-1.543338,192.14,6.31,3.0,253.67,22 / 23,2382328,2019-09-07 09:53:07:607,0.0836,0.8606,10.4516,-0.0055,0.0086,9.8066,0.1501,-0.0615,0.0145,-6.62,-33.25,30.31,350.57,-81.19,-174.65
23782,52.444935,-1.543338,192.14,6.31,3.0,253.67,22 / 23,2382427,2019-09-07 09:53:07:706,-0.9467,-0.3259,10.6822,-0.0005,0.0287,9.8065,0.1319,-0.0498,0.0227,-6.44,-33.44,30.06,353.34,-81.34,-174.2
23783,52.444935,-1.543338,192.14,6.31,3.0,253.67,22 / 23,2382527,2019-09-07 09:53:07:806,0.0905,0.5875,9.4959,0.0035,-0.0336,9.8066,-0.1709,0.0567,-0.0305,-6.62,-33.69,30.25,351.59,-81.36,-173.79
23784,52.444935,-1.543338,192.14,6.31,3.0,253.67,22 / 23,2382627,2019-09-07 09:53:07:906,-0.4724,0.7137,9.2342,0.0026,-0.0067,9.8066,-0.1844,0.0263,0.0421,-6.12,-34.06,29.63,353.95,-81.14,-173.63
23785,52.444935,-1.543338,192.14,6.31,3.0,253.67,22 / 23,2382728,2019-09-07 09:53:08:007,-1.6569,0.9539,9.9008,-0.0103,0.0342,9.8066,0.1694,0.1081,-0.0174,-7.12,-33.62,29.38,351.61,-81.32,-173.29
23786,52.444935,-1.543338,192.14,6.31,3.0,253.67,22 / 23,2382827,2019-09-07 09:53:08:106,-0.6494,-0.093,10.1693,0.001,0.0264,9.8065,0.1418,0.011,-0.0272,-6.75,-33.31,29.63,351.47,-81.29,-173.92
23787,52.444935,-1.543338,192.14,6.31,3.0,253.67,22 / 23,2382927,2019-09-07 09:53:08:206,-0.5972,-0.2317,9.9179,0.0195,-0.0161,9.8066,-0.0486,0.021,-0.0387,-6.31,-33.44,29.69,352.22,-81.23,-175.1
23788,52.444935,-1.543338,192.14,6.31,3.0,253.67,22 / 23,2383027,2019-09-07 09:53:08:306,-0.5904,0.2636,9.7346,0.0145,-0.0047,9.8065,0.0008,0.052,-0.0439,-6.25,-33.5,30.25,349.66,-81.04,-177.18
23789,52.444935,-1.543338,192.14,6.31,3.0,253.67,23 / 25,2383127,2019-09-07 09:53:08:406,-0.9838,0.2029,10.1366,0.008,-0.0079,9.8066,0.0223,0.0139,0.043,-6.62,-33.87,30.06,346.6,-81.04,-177.82
23790,52.444935,-1.543338,192.14,6.31,3.0,253.67,23 / 25,2383227,2019-09-07 09:53:08:506,-0.6121,0.733,9.7546,0.0022,0.0004,9.8066,0.0467,0.0557,0.0388,-6.37,-33.69,29.63,348.5,-81.03,-178.08
23791,52.444935,-1.543338,192.14,6.31,3.0,253.67,23 / 25,2383327,2019-09-07 09:53:08:606,-1.0831,0.4025,10.1597,0.0116,-0.0152,9.8066,0.0049,0.0179,-0.0179,-6.31,-33.12,29.75,347.94,-80.96,-178.57
23792,52.444935,-1.543338,192.14,6.31,3.0,253.67,23 / 25,2383427,2019-09-07 09:53:08:706,-0.2563,0.0412,10.1597,0.0017,-0.012,9.8066,-0.0058,-0.0176,0.0126,-6.12,-33.37,30.0,347.6,-80.85,-178.82
23793,52.444935,-1.543338,192.14,6.31,3.0,253.67,23 / 25,2383527,2019-09-07 09:53:08:806,-0.7683,0.644,9.7235,0.0016,-0.0032,9.8066,0.0377,-0.0225,0.0359,-6.31,-33.12,29.5,347.54,-80.79,-178.86
23794,52.444935,-1.543338,192.14,6.31,3.0,253.67,23 / 25,2383627,2019-09-07 09:53:08:906,-0.8634,-0.5828,10.0662,-0.0059,-0.0046,9.8065,-0.0116,0.0123,0.0126,-6.75,-33.31,29.81,345.86,-80.75,-178.42
23795,52.444935,-1.543338,192.14,6.31,3.0,253.67,23 / 25,2383727,2019-09-07 09:53:09:006,-1.2278,0.6266,10.0209,-0.005,0.0149,9.8066,0.0497,0.0048,0.0339,-6.69,-33.69,29.81,346.23,-80.79,-178.05
23796,52.444935,-1.543338,192.14,6.31,3.0,253.67,23 / 25,2383827,2019-09-07 09:53:09:106,-0.9474,0.4201,9.6761,0.0054,-0.0169,9.8066,0.0303,-0.0127,0.0044,-7.12,-33.81,29.88,346.63,-80.72,-177.71
23797,52.444935,-1.543338,192.14,6.31,3.0,253.67,23 / 25,2383927,2019-09-07 09:53:09:206,-0.9269,0.1894,9.5319,0.0031,-0.0079,9.8066,-0.0119,-0.0335,-0.0177,-6.0,-33.44,30.25,348.72,-80.6,-177.84
23798,52.444935,-1.543338,192.14,6.31,3.0,253.67,23 / 25,2384027,2019-09-07 09:53:09:306,-0.9293,-0.0165,9.7974,0.0046,-0.0064,9.8066,0.041,-0.028,-0.058,-6.75,-33.06,29.81,346.06,-80.52,-178.18
23799,52.444935,-1.543338,192.14,6.31,3.0,253.67,24 / 25,2384129,2019-09-07 09:53:09:408,-1.1556,0.9593,9.4687,0.0153,-0.0136,9.8066,-0.0769,-0.0356,0.0176,-6.31,-34.19,30.13,347.52,-80.45,-178.71
23800,52.444935,-1.543338,192.14,6.31,3.0,253.67,24 / 25,2384227,2019-09-07 09:53:09:506,-1.1048,0.9872,9.4668,-0.0073,0.0271,9.8065,-0.0871,0.0216,-0.0054,-6.94,-34.25,30.25,344.48,-80.37,-179.34
23801,52.444935,-1.543338,192.14,6.31,3.0,253.67,24 / 25,2384327,2019-09-07 09:53:09:606,-0.7485,0.1059,10.0516,0.0041,0.0384,9.8065,0.1216,-0.0066,-0.0143,-6.06,-33.81,29.56,346.1,-80.56,-179.9
23802,52.444935,-1.543338,192.14,6.31,3.0,253.67,24 / 25,2384427,2019-09-07 09:53:09:706,-0.829,0.6182,9.7982,0.0083,-0.029,9.8066,0.0853,-0.0402,0.0137,-6.25,-33.62,29.75,345.3,-80.53,179.46
23803,52.444935,-1.543338,192.14,6.31,3.0,253.67,24 / 25,2384527,2019-09-07 09:53:09:806,-0.7324,-0.2277,9.5171,0.0154,-0.0169,9.8065,-0.0523,-0.0117,-0.0048,-6.37,-32.81,29.56,344.57,-80.34,178.85
23804,52.444935,-1.543338,192.14,6.31,3.0,253.67,24 / 25,2384627,2019-09-07 09:53:09:906,-1.1673,0.5694,9.4603,-0.0008,0.0259,9.8066,-0.0816,-0.0281,-0.0086,-6.69,-32.94,29.88,341.72,-80.45,178.29
23805,52.444935,-1.543338,192.14,6.31,3.0,253.67,24 / 25,2384728,2019-09-07 09:53:10:007,-1.5259,-0.0291,10.106,0.0008,0.023,9.8065,0.0854,0.0125,-0.0733,-6.37,-33.87,30.06,343.26,-80.45,177.83
23806,52.444935,-1.543338,192.14,6.31,3.0,253.67,24 / 25,2384827,2019-09-07 09:53:10:106,-1.0287,0.0938,9.8192,0.0107,-0.025,9.8066,0.0686,-0.0294,0.0431,-6.19,-33.62,29.63,343.24,-80.46,177.81
23807,52.444935,-1.543338,192.14,6.31,3.0,253.67,24 / 25,2384928,2019-09-07 09:53:10:207,-1.4123,1.7817,9.6806,0.0169,-0.0167,9.8065,-0.0333,0.0219,-0.0161,-5.81,-33.62,29.06,341.69,-80.26,177.12
23808,52.444935,-1.543338,192.14,6.31,3.0,253.67,24 / 25,2385027,2019-09-07 09:53:10:306,-0.4878,0.6696,9.7609,0.0051,0.0099,9.8066,0.0354,0.0168,-0.0175,-5.81,-34.0,30.44,341.83,-80.22,176.77
23809,52.444935,-1.543338,192.14,6.31,3.0,253.67,22 / 24,2385127,2019-09-07 09:53:10:406,-0.7802,-0.096,9.4865,0.0049,0.0065,9.8066,-0.0869,0.0093,-0.0246,-5.87,-33.75,29.94,340.99,-80.25,176.08
23810,52.444935,-1.543338,192.14,6.31,3.0,253.67,22 / 24,2385227,2019-09-07 09:53:10:506,-1.5655,1.438,9.9503,-0.0109,0.0252,9.8065,-0.1143,-0.047,-0.0128,-6.25,-33.37,29.38,340.01,-80.4,175.6
23811,52.444935,-1.543338,192.14,6.31,3.0,253.67,22 / 24,2385327,2019-09-07 09:53:10:606,-1.1395,1.4308,9.5495,-0.0047,0.02,9.8066,0.129,0.0191,-0.0216,-6.19,-33.75,29.63,340.28,-80.39,175.44
23812,52.444935,-1.543338,192.14,6.31,3.0,253.67,22 / 24,2385427,2019-09-07 09:53:10:706,-1.3373,1.5084,9.7806,-0.004,0.0033,9.8066,0.1623,-0.0216,0.0149,-5.87,-33.62,29.69,340.43,-80.21,175.64
23813,52.444935,-1.543338,192.14,6.31,3.0,253.67,22 / 24,2385527,2019-09-07 09:53:10:806,-0.7569,0.6257,9.5514,0.0006,0.0088,9.8066,-0.076,-0.0102,0.004,-6.0,-33.37,29.56,340.33,-80.18,175.46
23814,52.444935,-1.543338,192.14,6.31,3.0,253.67,22 / 24,2385627,2019-09-07 09:53:10:906,-0.3643,0.9094,9.8654,-0.0057,0.0245,9.8066,-0.1091,0.0131,-0.0307,-6.25,-33.62,29.69,340.32,-80.1,175.6
23815,52.444935,-1.543338,192.14,6.31,3.0,253.67,22 / 24,2385727,2019-09-07 09:53:11:006,-0.6005,0.8587,9.5969,-0.0058,0.0245,9.8065,0.0869,-0.0321,0.0228,-5.44,-33.62,29.63,342.52,-80.31,175.46
23816,52.444935,-1.543338,192.14,6.31,3.0,253.67,22 / 24,2385828,2019-09-07 09:53:11:107,-1.2121,0.8431,9.9229,0.009,-0.0203,9.8066,0.0399,-0.019,-0.0307,-6.06,-33.19,29.0,339.26,-80.18,175.1
23817,52.444935,-1.543338,192.14,6.31,3.0,253.67,22 / 24,2385927,2019-09-07 09:53:11:206,-1.026,1.0747,10.1395,0.0109,-0.0287,9.8066,-0.0082,-0.0002,0.0076,-6.19,-33.19,29.81,339.44,-80.1,174.77
23818,52.444935,-1.543338,192.14,6.31,3.0,253.67,22 / 24,2386027,2019-09-07 09:53:11:306,-0.6307,0.6577,9.9036,0.0029,0.0056,9.8066,0.0143,0.0016,-0.0116,-5.69,-33.19,29.44,338.28,-80.08,174.34
23819,52.444935,-1.543338,192.14,6.31,3.0,253.67,25 / 25,2386127,2019-09-07 09:53:11:406,-0.7061,0.2884,9.6784,0.0059,-0.0002,9.8066,-0.0486,0.0018,-0.0183,-5.87,-32.75,29.13,337.78,-80.05,173.96
23820,52.444935,-1.543338,192.14,6.31,3.0,253.67,25 / 25,2386227,2019-09-07 09:53:11:506,-0.7983,0.5686,9.4562,0.007,0.0011,9.8066,0.0034,-0.013,-0.0055,-6.19,-33.37,29.69,338.06,-80.09,173.65
23821,52.444935,-1.543338,192.14,6.31,3.0,253.67,25 / 25,2386327,2019-09-07 09:53:11:606,-0.9383,0.5458,10.176,-0.0011,-0.0135,9.8066,0.063,-0.0021,0.0477,-6.0,-33.12,29.81,337.85,-80.1,173.47
23822,52.444935,-1.543338,192.14,6.31,3.0,253.67,25 / 25,2386427,2019-09-07 09:53:11:706,-0.0472,0.264,9.9323,0.012,-0.002,9.8065,0.0599,-0.0019,-0.0257,-5.62,-33.37,30.19,337.26,-80.06,173.02
23823,52.444935,-1.543338,192.14,6.31,3.0,253.67,25 / 25,2386527,2019-09-07 09:53:11:806,-1.0876,1.4488,9.9693,0.0028,-0.0172,9.8066,-0.015,-0.0158,-0.0236,-5.81,-33.06,29.75,337.41,-79.94,173.2
23824,52.444935,-1.543338,192.14,6.31,3.0,253.67,25 / 25,2386627,2019-09-07 09:53:11:906,-0.7079,1.2995,9.9144,-0.0028,-0.0037,9.8066,0.0167,0.0189,-0.0168,-5.12,-32.87,30.06,339.79,-79.87,173.33
23825,52.444935,-1.543338,192.14,6.31,3.0,253.67,25 / 25,2386728,2019-09-07 09:53:12:007,-0.9005,-0.1432,9.8048,0.0004,-0.0043,9.8066,-0.0461,0.0264,-0.0152,-5.44,-33.56,30.06,340.03,-79.79,173.67
23826,52.444935,-1.543338,192.14,6.31,3.0,253.67,25 / 25,2386827,2019-09-07 09:53:12:106,-0.3677,-0.9987,10.0978,-0.0116,-0.0009,9.8066,-0.0104,-0.0183,0.0995,-5.56,-33.56,30.06,338.34,-79.83,174.12
23827,52.444935,-1.543338,192.14,6.31,3.0,253.67,25 / 25,2386928,2019-09-07 09:53:12:207,-0.2709,0.5955,9.7337,-0.0055,-0.0011,9.8066,0.0008,0.0355,-0.0276,-5.94,-33.25,30.06,339.37,-79.83,174.83
23828,52.444935,-1.543338,192.14,6.31,3.0,253.67,25 / 25,2387027,2019-09-07 09:53:12:306,-1.0986,0.2263,10.09,-0.0237,0.01,9.8066,-0.0587,-0.0049,0.066,-6.0,-32.87,30.25,340.87,-79.92,176.01
23829,52.444218,-1.543897,193.14,12.63,3.0,202.55,24 / 25,2387127,2019-09-07 09:53:12:406,-1.0963,-0.2507,10.2546,-0.0083,0.0052,9.8066,-0.0464,0.0125,0.0177,-6.06,-33.0,30.31,341.56,-79.83,176.6
23830,52.444218,-1.543897,193.14,12.63,3.0,202.55,24 / 25,2387227,2019-09-07 09:53:12:506,-0.1522,0.7168,9.5124,-0.0021,-0.0145,9.8066,-0.0531,-0.022,0.0665,-5.94,-33.19,30.63,342.66,-79.86,177.02
23831,52.444218,-1.543897,193.14,12.63,3.0,202.55,24 / 25,2387327,2019-09-07 09:53:12:606,-1.3014,-0.7073,9.8548,0.0001,-0.0047,9.8066,-0.0243,-0.0449,0.0402,-6.25,-33.94,30.06,342.73,-79.78,177.66
23832,52.444218,-1.543897,193.14,12.63,3.0,202.55,24 / 25,2387427,2019-09-07 09:53:12:706,-0.443,-1.5044,9.9541,0.0019,0.0123,9.8065,0.0694,-0.0305,-0.0243,-6.06,-33.56,30.06,343.01,-79.83,177.87
23833,52.444218,-1.543897,193.14,12.63,3.0,202.55,24 / 25,2387527,2019-09-07 09:53:12:806,0.1657,-0.5042,9.6755,-0.0061,-0.0004,9.8066,0.0449,0.0101,0.014,-5.69,-33.19,30.81,343.87,-79.8,178.02
23834,52.444218,-1.543897,193.14,12.63,3.0,202.55,24 / 25,2387627,2019-09-07 09:53:12:906,-1.1974,-1.2214,9.7606,-0.0127,0.0052,9.8065,-0.048,0.0539,-0.0037,-6.37,-33.12,29.94,343.39,-79.81,178.08
23835,52.444218,-1.543897,193.14,12.63,3.0,202.55,24 / 25,2387727,2019-09-07 09:53:13:006,-1.4173,-0.6235,10.0625,-0.0079,-0.0013,9.8066,-0.0423,0.0555,-0.0693,-6.06,-33.5,30.56,344.62,-79.86,178.61
23836,52.444218,-1.543897,193.14,12.63,3.0,202.55,24 / 25,2387828,2019-09-07 09:53:13:107,0.2935,-0.2256,9.7467,0.0012,-0.0064,9.8066,-0.004,0.0219,-0.0127,-6.37,-33.62,30.13,344.48,-79.91,179.01
23837,52.444218,-1.543897,193.14,12.63,3.0,202.55,24 / 25,2387928,2019-09-07 09:53:13:207,-1.1882,0.0222,9.8464,0.0024,-0.0049,9.8066,-0.0024,-0.0602,0.0434,-5.81,-33.25,30.13,344.87,-79.89,179.24
23838,52.444218,-1.543897,193.14,12.63,3.0,202.55,24 / 25,2388028,2019-09-07 09:53:13:307,-1.1667,-0.0293,10.0804,-0.0081,0.0158,9.8066,0.0296,-0.044,0.0312,-5.81,-33.69,30.19,345.59,-80.01,179.86
23839,52.444218,-1.543897,193.14,12.63,3.0,202.55,25 / 25,2388127,2019-09-07 09:53:13:406,-0.5186,-0.3278,10.1873,-0.0081,0.0197,9.8065,0.0167,-0.0248,0.0061,-6.25,-33.37,29.63,346.26,-80.02,-179.68
23840,52.444218,-1.543897,193.14,12.63,3.0,202.55,25 / 25,2388227,2019-09-07 09:53:13:506,-1.0143,-0.1029,10.2094,0.0025,-0.0136,9.8066,0.0267,-0.0388,-0.0171,-6.25,-33.44,29.75,346.75,-80.02,-179.29
23841,52.444218,-1.543897,193.14,12.63,3.0,202.55,25 / 25,2388327,2019-09-07 09:53:13:606,-0.4137,-0.1318,9.52,-0.0049,-0.0044,9.8065,0.0499,0.0531,-0.0857,-6.25,-33.25,30.38,346.82,-79.91,-179.2
23842,52.444218,-1.543897,193.14,12.63,3.0,202.55,25 / 25,2388427,2019-09-07 09:53:13:706,-1.1445,-0.5151,10.0731,-0.0148,0.0147,9.8066,0.007,0.0383,-0.0734,-6.19,-33.31,30.13,346.89,-79.88,-179.14
23843,52.444218,-1.543897,193.14,12.63,3.0,202.55,25 / 25,2388527,2019-09-07 09:53:13:806,-0.2876,0.0981,9.4623,0.0014,0.0188,9.8066,-0.0013,0.0004,0.0131,-6.62,-33.0,30.0,344.71,-80.1,-179.15
23844,52.444218,-1.543897,193.14,12.63,3.0,202.55,25 / 25,2388627,2019-09-07 09:53:13:906,-0.7465,0.6403,9.6737,-0.0082,0.0022,9.8065,-0.0274,0.0234,0.0169,-5.81,-33.37,29.56,347.58,-80.17,-178.66
23845,52.444218,-1.543897,193.14,12.63,3.0,202.55,25 / 25,2388727,2019-09-07 09:53:14:006,-1.729,-0.3149,10.1739,-0.0092,0.0017,9.8066,-0.0387,-0.0677,0.0103,-6.12,-33.44,29.94,348.18,-80.23,-178.19
23846,52.444218,-1.543897,193.14,12.63,3.0,202.55,25 / 25,2388828,2019-09-07 09:53:14:107,-0.3648,0.1038,10.0746,-0.0024,-0.0057,9.8066,0.0325,-0.0703,0.0189,-6.5,-33.31,30.06,349.25,-80.23,-177.33
23847,52.444218,-1.543897,193.14,12.63,3.0,202.55,25 / 25,2388927,2019-09-07 09:53:14:206,-0.4123,-0.0551,9.8184,-0.0086,0.0099,9.8066,0.0894,0.0106,-0.0195,-6.19,-33.37,29.88,350.05,-80.24,-176.69
23848,52.444218,-1.543897,193.14,12.63,3.0,202.55,25 / 25,2389028,2019-09-07 09:53:14:307,-0.5454,0.634,9.5902,-0.0034,0.0105,9.8066,-0.0487,-0.0028,-0.0113,-6.5,-33.56,30.06,350.44,-80.17,-176.31
23849,52.444218,-1.543897,193.14,12.63,3.0,202.55,23 / 25,2389127,2019-09-07 09:53:14:406,-0.9481,0.2018,9.5845,-0.0032,0.0023,9.8066,-0.0259,-0.0144,-0.005,-6.69,-33.75,29.94,348.58,-80.2,-175.99
23850,52.444218,-1.543897,193.14,12.63,3.0,202.55,23 / 25,2389227,2019-09-07 09:53:14:506,-0.8318,0.1863,10.0397,-0.0098,0.0126,9.8066,0.0924,-0.0245,0.007,-6.5,-33.62,30.31,351.64,-80.29,-175.37
23851,52.444218,-1.543897,193.14,12.63,3.0,202.55,23 / 25,2389327,2019-09-07 09:53:14:606,-0.6919,0.8886,9.7182,-0.0149,0.0105,9.8066,0.0101,-0.0088,0.0293,-6.37,-33.31,30.06,352.39,-80.35,-174.82
23852,52.444218,-1.543897,193.14,12.63,3.0,202.55,23 / 25,2389428,2019-09-07 09:53:14:707,-0.5386,0.7368,10.2662,-0.0106,0.0065,9.8066,0.0157,-0.0051,0.0254,-6.19,-33.0,29.69,353.07,-80.41,-174.28
23853,52.444218,-1.543897,193.14,12.63,3.0,202.55,23 / 25,2389527,2019-09-07 09:53:14:806,-0.878,0.43,10.0552,-0.0075,0.0173,9.8066,0.0084,-0.039,0.0191,-6.62,-33.12,30.13,351.96,-80.44,-173.37
23854,52.444218,-1.543897,193.14,12.63,3.0,202.55,23 / 25,2389627,2019-09-07 09:53:14:906,-1.1202,0.4901,9.9014,-0.0079,-0.0166,9.8066,-0.0115,-0.0184,-0.0113,-7.06,-33.81,29.69,352.43,-80.43,-172.95
23855,52.444218,-1.543897,193.14,12.63,3.0,202.55,23 / 25,2389727,2019-09-07 09:53:15:006,-0.4787,1.4178,10.3075,-0.011,-0.0025,9.8066,0.104,-0.0047,-0.0005,-6.75,-33.5,30.69,354.4,-80.43,-171.83
23856,52.444218,-1.543897,193.14,12.63,3.0,202.55,23 / 25,2389827,2019-09-07 09:53:15:106,-1.2799,0.0021,9.8453,0.0051,-0.0291,9.8065,-0.0989,0.0118,-0.0297,-6.69,-33.81,30.19,353.88,-80.3,-171.76
23857,52.444218,-1.543897,193.14,12.63,3.0,202.55,23 / 25,2389927,2019-09-07 09:53:15:206,-0.6188,0.6143,9.4781,0.0092,-0.017,9.8066,-0.0798,-0.0162,0.0005,-6.62,-34.0,30.31,353.55,-80.34,-172.03
23858,52.444218,-1.543897,193.14,12.63,3.0,202.55,23 / 25,2390027,2019-09-07 09:53:15:306,-0.2857,1.0987,9.8137,-0.0062,0.0455,9.8065,0.0598,-0.0069,-0.0083,-6.81,-34.19,29.56,353.69,-80.33,-171.92
23859,52.444218,-1.543897,193.14,12.63,3.0,202.55,25 / 26,2390127,2019-09-07 09:53:15:406,-0.6,0.4184,9.7097,-0.0014,0.0256,9.8066,0.0489,0.0068,-0.0242,-6.56,-33.31,29.63,353.35,-80.61,-172.27
23860,52.444218,-1.543897,193.14,12.63,3.0,202.55,25 / 26,2390228,2019-09-07 09:53:15:507,-1.055,1.1941,10.035,0.002,0.0067,9.8066,0.0403,0.0156,-0.0099,-6.44,-33.56,29.75,355.05,-80.6,-172.67
23861,52.444218,-1.543897,193.14,12.63,3.0,202.55,25 / 26,2390327,2019-09-07 09:53:15:606,-0.5304,0.9703,9.9762,0.0033,0.0128,9.8065,0.0249,-0.0401,0.0652,-6.25,-33.12,29.38,353.98,-80.67,-173.17
23862,52.444218,-1.543897,193.14,12.63,3.0,202.55,25 / 26,2390427,2019-09-07 09:53:15:706,-1.0603,0.9019,9.9226,0.0104,0.0037,9.8065,0.0162,-0.0212,0.011,-4.5,-33.06,29.94,358.52,-80.71,-173.6
23863,52.444218,-1.543897,193.14,12.63,3.0,202.55,25 / 26,2390528,2019-09-07 09:53:15:807,-0.5409,0.5509,9.3135,0.005,0.0111,9.8066,0.0505,-0.0341,0.0072,-5.44,-32.62,30.94,355.98,-80.8,-174.13
23864,52.444218,-1.543897,193.14,12.63,3.0,202.55,25 / 26,2390627,2019-09-07 09:53:15:906,-1.1572,1.6976,9.6357,0.003,0.0088,9.8066,-0.0441,-0.0431,0.0315,-6.06,-32.94,30.0,353.69,-80.83,-173.84
23865,52.444218,-1.543897,193.14,12.63,3.0,202.55,25 / 26,2390727,2019-09-07 09:53:16:006,-0.7296,1.1167,9.9278,-0.011,-0.002,9.8066,-0.0253,0.0148,-0.0136,-6.37,-33.62,30.06,354.3,-80.92,-173.32
23866,52.444218,-1.543897,193.14,12.63,3.0,202.55,25 / 26,2390828,2019-09-07 09:53:16:107,-1.4324,1.5327,9.8302,-0.0047,0.0072,9.8066,0.0053,0.0065,-0.0437,-6.44,-33.87,29.75,354.71,-80.89,-172.99
23867,52.444218,-1.543897,193.14,12.63,3.0,202.55,25 / 26,2390928,2019-09-07 09:53:16:207,-1.0826,1.1582,9.9051,-0.0054,0.0128,9.8066,0.0653,-0.0332,-0.0169,-6.19,-33.62,29.81,354.82,-80.88,-172.89
23868,52.444218,-1.543897,193.14,12.63,3.0,202.55,25 / 26,2391028,2019-09-07 09:53:16:307,-0.7472,0.5976,10.2069,-0.0042,-0.0136,9.8065,0.0027,-0.0215,-0.0289,-5.69,-33.62,30.31,355.2,-80.73,-172.57
23869,52.444218,-1.543897,193.14,12.63,3.0,202.55,25 / 25,2391127,2019-09-07 09:53:16:406,-1.1929,0.5061,9.9221,0.003,0.002,9.8066,-0.0172,-0.0757,0.0146,-6.12,-33.44,30.19,355.33,-80.81,-172.5
23870,52.444218,-1.543897,193.14,12.63,3.0,202.55,25 / 25,2391227,2019-09-07 09:53:16:506,-0.9544,0.8366,9.1181,0.0005,0.012,9.8066,-0.0577,0.0098,-0.0032,-6.0,-33.31,29.81,355.69,-80.9,-172.21
23871,52.444218,-1.543897,193.14,12.63,3.0,202.55,25 / 25,2391327,2019-09-07 09:53:16:606,-0.5413,0.6748,9.0124,-0.0038,0.0003,9.8065,0.0268,-0.0115,-0.0146,-6.0,-34.19,29.88,355.63,-81.0,-172.25
23872,52.444218,-1.543897,193.14,12.63,3.0,202.55,25 / 25,2391427,2019-09-07 09:53:16:706,-0.971,1.2698,9.6898,-0.0049,0.012,9.8066,-0.0667,-0.0408,-0.0467,-5.87,-33.31,29.94,355.9,-81.04,-172.05
23873,52.444218,-1.543897,193.14,12.63,3.0,202.55,25 / 25,2391527,2019-09-07 09:53:16:806,-0.1321,2.1429,9.4948,-0.0013,0.0163,9.8066,-0.0621,0.0233,-0.0588,-6.0,-33.69,29.81,355.83,-81.12,-172.09
23874,52.444218,-1.543897,193.14,12.63,3.0,202.55,25 / 25,2391628,2019-09-07 09:53:16:907,-0.4172,-0.0424,10.1304,-0.0004,-0.0056,9.8066,0.1339,-0.0015,0.0075,-5.87,-33.5,30.25,355.84,-81.0,-172.1
23875,52.444218,-1.543897,193.14,12.63,3.0,202.55,25 / 25,2391727,2019-09-07 09:53:17:006,-0.6949,0.4631,9.8726,-0.0029,-0.0205,9.8065,0.0224,-0.0026,0.0335,-6.06,-33.5,30.06,356.12,-80.82,-171.85
23876,52.444218,-1.543897,193.14,12.63,3.0,202.55,25 / 25,2391827,2019-09-07 09:53:17:106,-0.4472,0.7268,10.1871,0.0039,0.016,9.8066,0.0152,-0.022,-0.0054,-6.06,-33.37,29.94,356.55,-80.76,-171.5
23877,52.444218,-1.543897,193.14,12.63,3.0,202.55,25 / 25,2391927,2019-09-07 09:53:17:206,-0.3575,0.0872,9.8413,0.0002,0.0102,9.8065,0.0047,0.0374,-0.0335,-5.81,-33.37,29.69,356.3,-80.87,-171.71
23878,52.444218,-1.543897,193.14,12.63,3.0,202.55,25 / 25,2392027,2019-09-07 09:53:17:306,-0.0703,0.6419,9.7075,0.0016,0.0012,9.8066,0.064,0.0348,-0.0001,-6.12,-33.44,29.69,355.34,-80.84,-172.49
23879,52.444218,-1.543897,193.14,12.63,3.0,202.55,25 / 26,2392127,2019-09-07 09:53:17:406,-1.9627,0.8806,9.9072,-0.0052,0.0066,9.8066,0.0275,-0.0872,0.0685,-5.81,-33.0,29.81,355.6,-80.91,-172.29
23880,52.444218,-1.543897,193.14,12.63,3.0,202.55,25 / 26,2392227,2019-09-07 09:53:17:506,0.4129,0.8791,9.3082,0.0046,0.0079,9.8065,-0.0427,-0.0538,0.0612,-6.12,-33.37,29.94,355.19,-81.07,-172.64
23881,52.444218,-1.543897,193.14,12.63,3.0,202.55,25 / 26,2392327,2019-09-07 09:53:17:606,0.2359,-0.1427,10.3088,-0.0071,-0.0018,9.8066,0.0302,0.0497,-0.0183,-6.37,-33.56,28.94,355.41,-81.14,-172.04
23882,52.444218,-1.543897,193.14,12.63,3.0,202.55,25 / 26,2392427,2019-09-07 09:53:17:706,-1.3333,0.9148,10.4399,-0.0013,-0.0228,9.8066,0.0014,0.0823,-0.0925,-6.12,-33.25,29.38,355.58,-81.21,-171.93
23883,52.444218,-1.543897,193.14,12.63,3.0,202.55,25 / 26,2392527,2019-09-07 09:53:17:806,-0.5783,0.1636,9.7911,-0.0004,-0.0199,9.8065,-0.0008,0.0141,0.007,-5.94,-33.5,29.81,355.81,-81.01,-172.13
23884,52.444218,-1.543897,193.14,12.63,3.0,202.55,25 / 26,2392628,2019-09-07 09:53:17:907,-1.1319,0.2752,9.8808,0.0021,-0.0041,9.8066,-0.0032,-0.0619,0.0591,-5.75,-32.37,29.88,356.33,-81.0,-171.71
23885,52.444218,-1.543897,193.14,12.63,3.0,202.55,25 / 26,2392727,2019-09-07 09:53:18:006,-0.2926,1.8303,9.7408,0.0036,-0.0216,9.8066,-0.0556,0.0556,-0.032,-5.37,-32.94,30.0,358.81,-80.95,-171.51
23886,52.444218,-1.543897,193.14,12.63,3.0,202.55,25 / 26,2392828,2019-09-07 09:53:18:107,-1.0207,1.8796,9.7861,-0.0081,0.0276,9.8066,0.0702,0.0125,-0.0554,-6.06,-32.87,29.69,356.67,-81.08,-171.42
23887,52.444218,-1.543897,193.14,12.63,3.0,202.55,25 / 26,2392927,2019-09-07 09:53:18:206,-0.0808,1.1163,9.5844,0.0055,0.0152,9.8066,0.0174,-0.06,0.0052,-5.81,-33.37,30.13,356.37,-81.02,-171.67
23888,52.444218,-1.543897,193.14,12.63,3.0,202.55,25 / 26,2393027,2019-09-07 09:53:18:306,-1.0418,1.2968,10.3521,-0.001,0.004,9.8066,-0.0005,0.0299,-0.0434,-5.56,-33.31,30.25,356.2,-81.04,-171.8
23889,52.444218,-1.543897,193.14,12.63,3.0,202.55,25 / 25,2393127,2019-09-07 09:53:18:406,-0.5724,0.6883,9.5953,-0.006,0.0328,9.8066,0.078,-0.017,0.0117,-6.06,-33.31,30.06,356.07,-81.19,-171.93
23890,52.444218,-1.543897,193.14,12.63,3.0,202.55,25 / 25,2393227,2019-09-07 09:53:18:506,-0.7218,-0.4591,10.3584,0.0043,-0.0279,9.8065,-0.043,-0.029,-0.0199,-5.62,-33.06,29.5,356.65,-81.18,-171.44
23891,52.444218,-1.543897,193.14,12.63,3.0,202.55,25 / 25,2393327,2019-09-07 09:53:18:606,-1.3373,1.0549,10.1153,0.0123,-0.0231,9.8065,0.0121,-0.03,-0.0072,-5.75,-33.69,29.19,355.35,-81.03,-172.07
23892,52.444218,-1.543897,193.14,12.63,3.0,202.55,25 / 25,2393427,2019-09-07 09:53:18:706,-0.6485,0.1165,9.5314,0.0111,-0.0127,9.8066,-0.0494,-0.0328,0.0106,-5.75,-34.44,29.19,354.72,-80.79,-172.56
23893,52.444218,-1.543897,193.14,12.63,3.0,202.55,25 / 25,2393527,2019-09-07 09:53:18:806,-1.0298,-0.1271,9.5991,0.0011,-0.022,9.8066,-0.0498,-0.0066,-0.0201,-5.56,-34.87,29.94,355.44,-80.77,-172.36
23894,52.444218,-1.543897,193.14,12.63,3.0,202.55,25 / 25,2393627,2019-09-07 09:53:18:906,-0.1336,0.0067,9.5779,-0.0059,0.0326,9.8065,0.0283,0.0486,-0.059,-5.69,-34.37,29.81,355.11,-80.91,-172.66
23895,52.444218,-1.543897,193.14,12.63,3.0,202.55,25 / 25,2393728,2019-09-07 09:53:19:007,-0.2959,0.6992,9.7695,0.0089,0.0102,9.8066,-0.0209,0.0168,0.0188,-5.69,-34.25,29.94,354.28,-81.18,-173.37
23896,52.444218,-1.543897,193.14,12.63,3.0,202.55,25 / 25,2393827,2019-09-07 09:53:19:106,-0.6001,0.8085,9.3914,-0.0054,-0.0038,9.8066,0.0126,0.024,-0.0106,-6.06,-33.56,29.44,353.34,-81.26,-173.74
23897,52.444218,-1.543897,193.14,12.63,3.0,202.55,25 / 25,2393928,2019-09-07 09:53:19:207,-0.2327,1.2964,9.9007,-0.003,-0.004,9.8065,0.0066,-0.0203,0.0489,-7.0,-33.81,29.88,352.31,-81.2,-173.17
23898,52.444218,-1.543897,193.14,12.63,3.0,202.55,25 / 25,2394027,2019-09-07 09:53:19:306,-0.2934,-0.2789,9.8295,-0.0012,-0.0016,9.8066,-0.0468,0.0132,0.0313,-5.37,-34.19,30.25,357.42,-81.15,-172.64
23899,52.444218,-1.543897,193.14,12.63,3.0,202.55,24 / 24,2394128,2019-09-07 09:53:19:407,-0.7947,0.3369,10.1274,-0.0002,-0.0064,9.8066,-0.0848,0.0068,0.0528,-5.62,-33.75,30.44,355.51,-81.1,-172.35
23900,52.444218,-1.543897,193.14,12.63,3.0,202.55,24 / 24,2394227,2019-09-07 09:53:19:506,-1.0765,0.5492,9.7391,-0.0011,-0.0034,9.8066,0.0074,-0.0075,0.0167,-5.69,-33.25,31.0,356.37,-81.16,-172.05
23901,52.444218,-1.543897,193.14,12.63,3.0,202.55,24 / 24,2394327,2019-09-07 09:53:19:606,-0.7458,0.7674,10.0332,-0.0035,0.0023,9.8066,0.022,-0.0009,-0.0058,-5.94,-33.19,30.69,356.63,-81.23,-171.84
23902,52.444218,-1.543897,193.14,12.63,3.0,202.55,24 / 24,2394427,2019-09-07 09:53:19:706,-0.1121,0.731,9.3491,0.0087,0.0107,9.8066,0.0258,-0.0094,0.0237,-5.69,-32.75,30.38,355.71,-81.25,-172.22
23903,52.444218,-1.543897,193.14,12.63,3.0,202.55,24 / 24,2394527,2019-09-07 09:53:19:806,-0.7092,-0.1331,9.5652,-0.0038,0.0045,9.8065,0.0064,0.0162,0.0134,-5.81,-33.0,30.5,355.85,-81.35,-172.5
23904,52.444218,-1.543897,193.14,12.63,3.0,202.55,24 / 24,2394627,2019-09-07 09:53:19:906,-0.0434,0.4135,9.8661,0.0013,0.0026,9.8066,-0.0143,-0.0449,0.0572,-5.5,-33.31,29.94,357.83,-81.44,-172.33
23905,52.444218,-1.543897,193.14,12.63,3.0,202.55,24 / 24,2394727,2019-09-07 09:53:20:006,-0.2368,1.089,9.7702,-0.0008,-0.0029,9.8066,-0.0743,0.0401,-0.0131,-6.0,-33.5,30.13,355.9,-81.43,-172.08
23906,52.444218,-1.543897,193.14,12.63,3.0,202.55,24 / 24,2394827,2019-09-07 09:53:20:106,-0.1722,-0.9725,9.7922,-0.0057,-0.0006,9.8066,0.0308,0.0069,0.0121,-5.87,-33.19,29.75,356.21,-81.38,-171.83
23907,52.444218,-1.543897,193.14,12.63,3.0,202.55,24 / 24,2394927,2019-09-07 09:53:20:206,-1.7174,0.3911,10.5548,-0.007,0.0075,9.8065,0.0437,-0.0677,0.0744,-5.31,-33.12,30.38,359.39,-81.48,-171.04
23908,52.444218,-1.543897,193.14,12.63,3.0,202.55,24 / 24,2395027,2019-09-07 09:53:20:306,-0.4142,-0.8998,9.8311,0.0057,-0.0156,9.8066,-0.0416,0.0061,0.0031,-5.62,-32.87,30.13,357.85,-81.57,-170.48
23909,52.444218,-1.543897,193.14,12.63,3.0,202.55,25 / 26,2395127,2019-09-07 09:53:20:406,-0.841,0.5235,9.7492,-0.0012,-0.0174,9.8066,-0.0497,-0.0024,-0.0198,-5.62,-33.25,30.0,357.9,-81.49,-170.43
23910,52.444218,-1.543897,193.14,12.63,3.0,202.55,25 / 26,2395227,2019-09-07 09:53:20:506,-0.4975,1.1418,9.5173,-0.0005,0.0019,9.8065,-0.063,0.0212,0.036,-5.94,-33.06,29.5,358.4,-81.64,-170.02
23911,52.444218,-1.543897,193.14,12.63,3.0,202.55,25 / 26,2395327,2019-09-07 09:53:20:606,-0.948,0.4896,9.9969,-0.0053,-0.0008,9.8066,-0.0596,-0.0337,0.0443,-5.69,-33.56,29.94,358.96,-81.64,-169.55
23912,52.444218,-1.543897,193.14,12.63,3.0,202.55,25 / 26,2395427,2019-09-07 09:53:20:706,-0.7624,0.2024,10.4776,-0.0016,-0.0158,9.8066,-0.0898,-0.0081,0.0487,-5.87,-33.12,29.94,359.79,-81.63,-168.87
23913,52.444218,-1.543897,193.14,12.63,3.0,202.55,25 / 26,2395527,2019-09-07 09:53:20:806,-1.0205,0.2879,9.9998,-0.0062,0.0088,9.8066,0.0485,-0.0209,0.0464,-5.81,-33.56,29.81,0.53,-81.6,-168.25
23914,52.444218,-1.543897,193.14,12.63,3.0,202.55,25 / 26,2395627,2019-09-07 09:53:20:906,-0.9231,-0.4468,9.538,-0.0103,-0.0087,9.8066,-0.0262,0.0509,-0.0172,-6.06,-33.31,29.56,1.81,-81.53,-167.19
23915,52.444218,-1.543897,193.14,12.63,3.0,202.55,25 / 26,2395727,2019-09-07 09:53:21:006,-0.512,1.0675,10.1163,0.0011,0.0089,9.8066,-0.0435,0.0315,0.0141,-5.94,-34.37,29.56,1.95,-81.59,-167.08
23916,52.444218,-1.543897,193.14,12.63,3.0,202.55,25 / 26,2395828,2019-09-07 09:53:21:107,-0.7889,0.141,10.2785,-0.0088,-0.0098,9.8066,0.043,0.0266,0.0022,-5.5,-33.62,29.69,4.4,-81.68,-166.89
23917,52.444218,-1.543897,193.14,12.63,3.0,202.55,25 / 26,2395928,2019-09-07 09:53:21:207,-0.9936,-0.7792,10.0464,-0.0043,0.0132,9.8066,0.1414,-0.0177,0.0268,-5.5,-33.5,29.94,5.01,-81.67,-166.37
23918,52.444218,-1.543897,193.14,12.63,3.0,202.55,25 / 26,2396027,2019-09-07 09:53:21:306,-0.2757,0.3799,9.4137,0.0011,-0.0125,9.8066,-0.1153,-0.027,-0.0339,-5.62,-33.31,29.81,2.76,-81.67,-166.39
23919,52.44311,-1.544675,193.14,16.13,3.0,204.9,25 / 26,2396128,2019-09-07 09:53:21:407,-1.0517,-0.02,9.8818,-0.0024,-0.011,9.8066,-0.0777,-0.0656,0.0225,-5.06,-32.81,29.19,4.77,-81.63,-166.27
23920,52.44311,-1.544675,193.14,16.13,3.0,204.9,25 / 26,2396227,2019-09-07 09:53:21:506,-0.3926,0.639,10.3249,0.0042,-0.0017,9.8066,-0.0467,0.0584,0.0048,-3.87,-32.94,30.06,7.71,-81.69,-165.98
23921,52.44311,-1.544675,193.14,16.13,3.0,204.9,25 / 26,2396327,2019-09-07 09:53:21:606,-0.7476,-0.2608,10.0029,-0.0068,0.0027,9.8066,0.1182,0.023,-0.0517,-5.31,-32.19,30.5,5.47,-81.67,-166.23
23922,52.44311,-1.544675,193.14,16.13,3.0,204.9,25 / 26,2396427,2019-09-07 09:53:21:706,-1.1911,-0.2798,10.0181,0.005,0.0316,9.8065,0.1351,-0.0747,0.037,-5.5,-32.81,30.44,4.89,-81.77,-166.46
23923,52.44311,-1.544675,193.14,16.13,3.0,204.9,25 / 26,2396528,2019-09-07 09:53:21:807,-0.402,0.8021,9.8973,0.0091,-0.0241,9.8066,-0.1179,-0.0283,-0.0669,-5.44,-33.69,29.75,4.8,-81.64,-166.56
23924,52.44311,-1.544675,193.14,16.13,3.0,204.9,25 / 26,2396628,2019-09-07 09:53:21:907,-0.0672,0.5545,9.8999,0.0032,-0.0268,9.8066,-0.0547,-0.0063,-0.11,-5.0,-33.5,29.63,4.76,-81.65,-166.58
23925,52.44311,-1.544675,193.14,16.13,3.0,204.9,25 / 26,2396727,2019-09-07 09:53:22:006,0.0245,0.2062,9.7479,0.0109,0.0131,9.8065,-0.04,0.0247,-0.0454,-5.87,-33.06,29.75,1.5,-81.71,-167.44
23926,52.44311,-1.544675,193.14,16.13,3.0,204.9,25 / 26,2396827,2019-09-07 09:53:22:106,-0.2013,1.4635,9.7451,0.0105,-0.0099,9.8066,-0.0639,-0.0246,0.0382,-5.31,-33.25,29.75,2.44,-81.76,-168.5
23927,52.44311,-1.544675,193.14,16.13,3.0,204.9,25 / 26,2396927,2019-09-07 09:53:22:206,-1.4414,-0.2643,10.2499,-0.007,0.0109,9.8066,0.0632,0.0349,-0.0416,-5.12,-33.56,29.94,2.46,-81.84,-168.49
23928,52.44311,-1.544675,193.14,16.13,3.0,204.9,25 / 26,2397027,2019-09-07 09:53:22:306,0.5623,0.6591,9.7486,-0.0018,0.0187,9.8065,0.0618,0.0483,-0.0305,-5.25,-33.12,29.56,2.3,-82.03,-168.61
23929,52.44311,-1.544675,193.14,16.13,3.0,204.9,23 / 26,2397127,2019-09-07 09:53:22:406,-0.1133,0.6138,9.9908,-0.0042,0.0008,9.8066,-0.0158,-0.0381,-0.0017,-5.56,-33.12,29.44,359.6,-82.01,-168.65
23930,52.44311,-1.544675,193.14,16.13,3.0,204.9,23 / 26,2397227,2019-09-07 09:53:22:506,-0.2159,-0.137,9.3068,0.0001,0.0163,9.8066,0.0399,0.0233,-0.0343,-5.12,-32.94,29.56,2.55,-82.15,-168.39
23931,52.44311,-1.544675,193.14,16.13,3.0,204.9,23 / 26,2397327,2019-09-07 09:53:22:606,-1.0493,1.3339,10.0366,0.0015,0.0097,9.8066,-0.0395,0.0374,-0.0158,-5.12,-33.06,29.56,2.61,-82.17,-168.33
23932,52.44311,-1.544675,193.14,16.13,3.0,204.9,23 / 26,2397427,2019-09-07 09:53:22:706,0.1428,0.3086,10.1413,-0.002,0.0124,9.8066,0.0045,0.0598,-0.0156,-5.31,-33.06,29.63,2.14,-82.31,-168.73
23933,52.44311,-1.544675,193.14,16.13,3.0,204.9,23 / 26,2397528,2019-09-07 09:53:22:807,0.3623,0.1232,9.1971,0.0058,0.0081,9.8066,-0.0033,0.0205,-0.0122,-5.19,-33.25,29.5,1.0,-82.43,-169.69
23934,52.44311,-1.544675,193.14,16.13,3.0,204.9,23 / 26,2397628,2019-09-07 09:53:22:907,-0.6114,0.3055,9.8336,0.0031,-0.0044,9.8066,-0.0395,-0.0365,0.0025,-5.06,-33.19,29.63,0.98,-82.46,-169.71
23935,52.44311,-1.544675,193.14,16.13,3.0,204.9,23 / 26,2397727,2019-09-07 09:53:23:006,-0.7471,0.7,10.2282,0.0,-0.0039,9.8066,0.0068,-0.0056,-0.0029,-5.25,-33.37,29.81,0.85,-82.56,-169.81
23936,52.44311,-1.544675,193.14,16.13,3.0,204.9,23 / 26,2397827,2019-09-07 09:53:23:106,0.5376,1.4706,9.3106,0.0007,-0.0358,9.8065,-0.0844,0.0982,-0.0914,-5.37,-33.56,29.88,0.55,-82.37,-170.07
23937,52.44311,-1.544675,193.14,16.13,3.0,204.9,23 / 26,2397928,2019-09-07 09:53:23:207,-0.2008,-0.0135,10.124,-0.0088,0.0492,9.8065,0.1343,-0.0758,0.0131,-4.75,-33.75,29.81,0.03,-82.31,-170.51
23938,52.44311,-1.544675,193.14,16.13,3.0,204.9,23 / 26,2398027,2019-09-07 09:53:23:306,-1.192,1.3667,9.7518,-0.0028,0.0742,9.8063,0.1238,-0.0386,0.0062,-5.5,-33.12,29.81,0.52,-82.7,-170.1
23939,52.44311,-1.544675,193.14,16.13,3.0,204.9,25 / 26,2398127,2019-09-07 09:53:23:406,0.2284,-0.5306,10.4062,0.0034,-0.0214,9.8066,0.0894,-0.022,0.0295,-5.81,-33.37,29.44,357.13,-82.47,-170.74
23940,52.44311,-1.544675,193.14,16.13,3.0,204.9,25 / 26,2398227,2019-09-07 09:53:23:506,-0.3952,0.8096,9.9535,0.0003,-0.0037,9.8066,0.1144,-0.0204,0.0049,-5.44,-33.12,30.44,0.53,-82.44,-170.09
23941,52.44311,-1.544675,193.14,16.13,3.0,204.9,25 / 26,2398328,2019-09-07 09:53:23:607,0.2157,0.0196,9.691,-0.0027,-0.0089,9.8066,-0.0945,0.0114,0.0135,-5.44,-33.56,29.44,0.57,-82.48,-169.74
23942,52.44311,-1.544675,193.14,16.13,3.0,204.9,25 / 26,2398427,2019-09-07 09:53:23:706,0.0053,0.1181,9.5586,-0.009,-0.0088,9.8066,-0.0804,0.0276,-0.0114,-5.37,-33.12,29.63,2.17,-82.44,-168.7
23943,52.44311,-1.544675,193.14,16.13,3.0,204.9,25 / 26,2398527,2019-09-07 09:53:23:806,-0.1521,0.8807,9.9204,-0.0013,0.014,9.8066,0.0242,0.0004,-0.0273,-5.5,-33.31,29.81,2.59,-82.5,-168.33
23944,52.44311,-1.544675,193.14,16.13,3.0,204.9,25 / 26,2398627,2019-09-07 09:53:23:906,-0.6832,0.8776,9.7046,-0.0041,0.0166,9.8065,0.0217,-0.0485,0.0006,-5.69,-33.62,30.0,0.55,-82.63,-168.22
23945,52.44311,-1.544675,193.14,16.13,3.0,204.9,25 / 26,2398727,2019-09-07 09:53:24:006,-0.8557,1.2496,9.8076,0.0072,-0.0124,9.8065,-0.0603,-0.0229,0.0164,-5.25,-33.5,30.0,2.45,-82.67,-168.45
23946,52.44311,-1.544675,193.14,16.13,3.0,204.9,25 / 26,2398827,2019-09-07 09:53:24:106,0.2572,0.4225,9.4516,0.0007,0.003,9.8066,0.0153,0.0544,-0.0379,-5.0,-33.62,29.56,2.46,-82.8,-168.44
23947,52.44311,-1.544675,193.14,16.13,3.0,204.9,25 / 26,2398927,2019-09-07 09:53:24:206,-0.4375,0.9319,10.026,-0.0069,0.0174,9.8066,0.0209,0.037,-0.0217,-5.37,-34.12,29.88,2.38,-82.83,-168.5
23948,52.44311,-1.544675,193.14,16.13,3.0,204.9,25 / 26,2399027,2019-09-07 09:53:24:306,-0.6626,0.3116,10.4366,0.0051,0.0083,9.8066,0.0027,-0.0196,0.0132,-4.37,-34.62,29.44,4.48,-82.92,-168.36
23949,52.44311,-1.544675,193.14,16.13,3.0,204.9,24 / 25,2399128,2019-09-07 09:53:24:407,-0.1993,-0.2333,9.896,0.0027,-0.0167,9.8065,0.0217,0.0089,-0.0215,-5.06,-33.81,29.06,1.95,-82.9,-168.56
23950,52.44311,-1.544675,193.14,16.13,3.0,204.9,24 / 25,2399227,2019-09-07 09:53:24:506,0.2071,0.1929,9.6184,-0.0102,0.0034,9.8066,0.022,0.0232,-0.0084,-5.25,-33.5,29.38,2.09,-82.8,-168.44
23951,52.44311,-1.544675,193.14,16.13,3.0,204.9,24 / 25,2399327,2019-09-07 09:53:24:606,-0.3115,-0.0783,9.8784,-0.0054,0.0109,9.8066,-0.0633,0.0272,-0.0057,-5.31,-34.19,29.75,2.92,-82.82,-168.04
23952,52.44311,-1.544675,193.14,16.13,3.0,204.9,24 / 25,2399428,2019-09-07 09:53:24:707,0.2103,-0.4055,9.3228,-0.0009,0.0054,9.8066,-0.0552,-0.0124,0.0583,-5.31,-33.44,29.25,3.07,-82.91,-167.59
23953,52.44311,-1.544675,193.14,16.13,3.0,204.9,24 / 25,2399527,2019-09-07 09:53:24:806,-0.5488,-0.9118,9.8078,-0.0035,-0.0144,9.8065,-0.0271,0.0464,-0.032,-5.12,-33.06,29.5,4.25,-82.92,-166.88
23954,52.44311,-1.544675,193.14,16.13,3.0,204.9,24 / 25,2399627,2019-09-07 09:53:24:906,-0.1642,-0.2067,9.9632,-0.0034,-0.0188,9.8066,0.0357,-0.0073,0.0175,-5.81,-33.56,30.06,2.47,-82.85,-166.58
23955,52.44311,-1.544675,193.14,16.13,3.0,204.9,24 / 25,2399727,2019-09-07 09:53:25:006,0.4978,0.0546,9.9814,-0.0017,-0.0143,9.8066,-0.03,0.0311,-0.0152,-5.69,-33.25,29.75,3.01,-82.74,-166.11
23956,52.44311,-1.544675,193.14,16.13,3.0,204.9,24 / 25,2399827,2019-09-07 09:53:25:106,-0.3077,0.4797,9.9271,0.0015,-0.0123,9.8066,-0.0234,-0.0232,0.0267,-5.69,-33.25,30.06,3.48,-82.73,-165.71
23957,52.44311,-1.544675,193.14,16.13,3.0,204.9,24 / 25,2399927,2019-09-07 09:53:25:206,-0.1369,0.0197,9.274,-0.0141,0.0206,9.8066,0.0056,-0.0531,0.0143,-5.69,-33.06,29.88,4.39,-82.73,-164.94
23958,52.44311,-1.544675,193.14,16.13,3.0,204.9,24 / 25,2400027,2019-09-07 09:53:25:306,0.0055,1.2632,9.3885,-0.0142,0.0284,9.8066,-0.0196,-0.0075,-0.0265,-5.81,-33.62,29.94,6.42,-82.85,-163.21
23959,52.44311,-1.544675,193.14,16.13,3.0,204.9,26 / 26,2400127,2019-09-07 09:53:25:406,0.2388,-0.3756,9.9261,0.0001,0.0167,9.8066,0.0266,-0.0034,0.0616,-5.69,-33.0,30.31,6.74,-82.85,-162.9
23960,52.44311,-1.544675,193.14,16.13,3.0,204.9,26 / 26,2400227,2019-09-07 09:53:25:506,-0.6508,-0.4089,10.0025,-0.0108,-0.0245,9.8065,0.0602,0.0107,0.0275,-5.5,-33.56,29.94,9.97,-82.73,-162.05
23961,52.44311,-1.544675,193.14,16.13,3.0,204.9,26 / 26,2400327,2019-09-07 09:53:25:606,-0.7482,0.3484,9.8697,-0.0105,0.0272,9.8065,-0.0071,0.0019,0.0051,-6.19,-33.81,29.69,8.89,-82.71,-161.12
23962,52.44311,-1.544675,193.14,16.13,3.0,204.9,26 / 26,2400427,2019-09-07 09:53:25:706,-1.276,0.1825,10.2599,-0.004,0.0216,9.8066,0.0506,-0.054,0.0815,-6.06,-33.31,30.31,9.84,-82.88,-160.23
23963,52.44311,-1.544675,193.14,16.13,3.0,204.9,26 / 26,2400527,2019-09-07 09:53:25:806,0.0209,-0.1075,9.5503,0.0033,-0.033,9.8066,-0.083,-0.031,0.0532,-6.37,-33.12,30.06,10.34,-82.9,-159.8
23964,52.44311,-1.544675,193.14,16.13,3.0,204.9,26 / 26,2400627,2019-09-07 09:53:25:906,-0.5256,1.7159,9.9284,-0.0012,-0.0175,9.8065,-0.0406,0.0301,-0.0299,-5.94,-33.44,29.75,10.37,-82.74,-159.81
23965,52.44311,-1.544675,193.14,16.13,3.0,204.9,26 / 26,2400727,2019-09-07 09:53:26:006,-0.6255,1.3252,9.9371,-0.0046,0.0224,9.8066,0.0608,0.0174,-0.0397,-6.5,-32.94,29.94,10.67,-82.93,-159.51
23966,52.44311,-1.544675,193.14,16.13,3.0,204.9,26 / 26,2400828,2019-09-07 09:53:26:107,-0.992,0.606,9.7579,-0.0013,0.0282,9.8066,-0.0149,-0.0675,0.0672,-6.87,-32.62,30.19,8.18,-82.98,-159.82
23967,52.44311,-1.544675,193.14,16.13,3.0,204.9,26 / 26,2400927,2019-09-07 09:53:26:206,-0.1038,0.7007,10.025,-0.0015,0.0,9.8066,0.001,0.0223,-0.0112,-7.0,-32.37,30.0,9.35,-82.99,-158.77
23968,52.44311,-1.544675,193.14,16.13,3.0,204.9,26 / 26,2401027,2019-09-07 09:53:26:306,-0.0621,0.6737,9.3336,-0.0003,0.0138,9.8066,-0.0006,0.0333,-0.0135,-5.94,-30.87,28.56,11.47,-83.1,-158.35
23969,52.44311,-1.544675,193.14,16.13,3.0,204.9,26 / 26,2401128,2019-09-07 09:53:26:407,-0.6234,-0.2513,8.9771,0.0036,0.003,9.8066,-0.1647,0.0299,-0.0294,-5.37,-31.94,29.13,13.99,-83.15,-158.12
23970,52.44311,-1.544675,193.14,16.13,3.0,204.9,26 / 26,2401227,2019-09-07 09:53:26:506,-0.5007,1.0187,10.1317,0.0021,-0.0074,9.8066,-0.0864,-0.0059,-0.0111,-5.69,-33.44,29.88,11.96,-83.28,-158.31
23971,52.44311,-1.544675,193.14,16.13,3.0,204.9,26 / 26,2401327,2019-09-07 09:53:26:606,-0.9212,0.3591,9.9539,0.0118,0.0067,9.8066,0.039,-0.013,0.0064,-6.44,-33.44,29.25,11.18,-83.44,-158.61
23972,52.44311,-1.544675,193.14,16.13,3.0,204.9,26 / 26,2401427,2019-09-07 09:53:26:706,0.0082,-0.0048,9.4357,0.0061,0.0123,9.8066,0.0557,0.0144,-0.0223,-5.75,-33.56,29.31,9.37,-83.55,-160.2
23973,52.44311,-1.544675,193.14,16.13,3.0,204.9,26 / 26,2401527,2019-09-07 09:53:26:806,-0.2098,-0.5615,10.027,0.0062,0.0045,9.8066,0.0653,0.0135,0.0065,-5.69,-33.69,29.88,8.19,-83.53,-161.57
23974,52.44311,-1.544675,193.14,16.13,3.0,204.9,26 / 26,2401628,2019-09-07 09:53:26:907,-0.814,0.5567,9.9196,0.0099,0.0151,9.8066,0.0683,-0.051,0.026,-5.94,-33.44,29.69,6.97,-83.63,-162.59
23975,52.44311,-1.544675,193.14,16.13,3.0,204.9,26 / 26,2401728,2019-09-07 09:53:27:007,-0.209,-0.587,10.1129,0.0068,-0.0138,9.8066,0.0066,0.0058,-0.0111,-5.69,-33.31,29.81,6.13,-83.58,-163.34
23976,52.44311,-1.544675,193.14,16.13,3.0,204.9,26 / 26,2401828,2019-09-07 09:53:27:107,-0.5106,0.0863,9.9971,0.0015,-0.0107,9.8066,-0.0554,-0.0011,0.0232,-5.5,-33.44,29.56,8.05,-83.56,-163.51
23977,52.44311,-1.544675,193.14,16.13,3.0,204.9,26 / 26,2401928,2019-09-07 09:53:27:207,0.2752,0.423,9.4129,0.0061,0.0017,9.8065,-0.0188,0.0062,-0.0095,-5.62,-33.31,29.63,6.05,-83.6,-163.4
23978,52.44311,-1.544675,193.14,16.13,3.0,204.9,26 / 26,2402027,2019-09-07 09:53:27:306,-0.3104,-0.8626,9.6176,0.0062,-0.011,9.8066,-0.0055,0.0033,-0.0063,-5.25,-33.44,29.06,7.05,-83.62,-164.09
23979,52.44311,-1.544675,193.14,16.13,3.0,204.9,26 / 26,2402127,2019-09-07 09:53:27:406,-0.5414,0.0341,9.3412,-0.0026,0.0206,9.8066,0.0355,-0.0173,-0.0118,-5.5,-33.31,29.63,7.13,-83.76,-164.29
23980,52.44311,-1.544675,193.14,16.13,3.0,204.9,26 / 26,2402227,2019-09-07 09:53:27:506,-0.9165,-0.7552,9.9202,0.0039,0.0365,9.8065,0.0752,-0.0408,0.0395,-5.37,-33.75,29.38,6.12,-83.81,-164.9
23981,52.44311,-1.544675,193.14,16.13,3.0,204.9,26 / 26,2402327,2019-09-07 09:53:27:606,0.2995,-0.2257,9.9548,0.0051,-0.0197,9.8066,0.0502,0.0154,-0.0322,-5.12,-33.44,29.44,5.65,-83.76,-165.29
23982,52.44311,-1.544675,193.14,16.13,3.0,204.9,26 / 26,2402429,2019-09-07 09:53:27:708,-0.6742,0.0514,9.6141,-0.0041,-0.0105,9.8066,-0.0787,-0.0478,0.0417,-5.0,-33.75,30.06,6.18,-83.65,-165.16
23983,52.44311,-1.544675,193.14,16.13,3.0,204.9,26 / 26,2402527,2019-09-07 09:53:27:806,-0.0219,0.0534,9.8843,-0.0059,0.0145,9.8066,-0.0759,0.0097,-0.0141,-5.87,-32.94,29.44,3.91,-83.67,-164.91
23984,52.44311,-1.544675,193.14,16.13,3.0,204.9,26 / 26,2402627,2019-09-07 09:53:27:906,-0.8307,-0.0254,10.2945,0.0039,0.0216,9.8065,0.1134,-0.0029,-0.022,-5.5,-33.37,29.25,6.97,-83.86,-164.12
23985,52.44311,-1.544675,193.14,16.13,3.0,204.9,26 / 26,2402727,2019-09-07 09:53:28:006,-0.5842,0.2333,9.6891,-0.0004,0.0092,9.8066,0.0094,-0.0318,0.0179,-5.44,-33.19,29.19,7.57,-83.93,-163.59
23986,52.44311,-1.544675,193.14,16.13,3.0,204.9,26 / 26,2402828,2019-09-07 09:53:28:107,-0.2854,-0.6565,10.238,0.0014,-0.0063,9.8066,-0.0608,0.0005,-0.0367,-5.69,-33.06,29.94,5.44,-83.89,-163.9
23987,52.44311,-1.544675,193.14,16.13,3.0,204.9,26 / 26,2402928,2019-09-07 09:53:28:207,0.8406,-0.4362,9.9218,0.0101,0.0027,9.8066,-0.0661,0.0524,-0.0703,-4.75,-32.87,29.38,6.24,-83.86,-164.76
23988,52.44311,-1.544675,193.14,16.13,3.0,204.9,26 / 26,2403028,2019-09-07 09:53:28:307,-0.2347,-0.7113,10.0056,-0.0051,-0.0059,9.8066,-0.0061,-0.0366,0.0371,-5.12,-33.44,30.13,6.54,-83.75,-164.81
23989,52.44311,-1.544675,193.14,16.13,3.0,204.9,24 / 25,2403127,2019-09-07 09:53:28:406,-0.7261,-0.0939,10.1604,-0.0113,0.0085,9.8066,-0.0312,-0.051,0.0158,-5.62,-33.69,29.88,4.83,-83.67,-164.48
23990,52.44311,-1.544675,193.14,16.13,3.0,204.9,24 / 25,2403227,2019-09-07 09:53:28:506,-0.3142,0.1004,9.5961,-0.0048,0.0055,9.8066,-0.0147,0.0345,-0.0293,-5.31,-33.31,29.75,7.94,-83.68,-163.59
23991,52.44311,-1.544675,193.14,16.13,3.0,204.9,24 / 25,2403327,2019-09-07 09:53:28:606,-0.6741,0.0223,9.4951,-0.0086,0.0036,9.8066,-0.0038,0.0055,-0.0092,-4.87,-33.37,29.44,9.17,-83.67,-162.23
23992,52.44311,-1.544675,193.14,16.13,3.0,204.9,24 / 25,2403427,2019-09-07 09:53:28:706,-0.7762,-0.007,9.5183,-0.0115,-0.0002,9.8066,0.0123,0.0134,0.0015,-5.69,-33.5,29.38,8.47,-83.73,-160.91
