,GPS LATITUDE (degrees), GPS LONGITUDE (degrees), GPS ALTITUDE (m), GPS SPEED (Kmh), GPS ACCURACY (m), GPS ORIENTATION (Â°),GPS SATELLITES IN RANGE, TIME SINCE START (ms), DATE (YYYY-MO-DD HH-MI-SS_SSS), ACCELEROMETER X (m/s²) , ACCELEROMETER Y (m/s²), ACCELEROMETER Z (m/s²), GRAVITY X (m/s²), GRAVITY Y (m/s²), GRAVITY Z (m/s²), GYROSCOPE Yaw (rad/s), GYROSCOPE Pitch (rad/s), GYROSCOPE Roll (rad/s), MAGNETIC FIELD X (Î¼T), MAGNETIC FIELD Y (Î¼T), MAGNETIC FIELD Z (Î¼T), ORIENTATION (Yaw) (Â°), ORIENTATION (Pitch) (Â°), ORIENTATION (Roll ) (Â°)
6147,52.796795,-1.392227,140.52,27.11,4,64.18,24 / 26,614738,2019-11-08 10:07:32:349,-2.1169,-1.0987,9.4921,-0.0288,-0.0128,9.8066,0.1061,-1.0714,0.7221,-24.37,-43.0,42.13,335.3,-81.41,-171.52
6148,52.796795,-1.392227,140.52,27.11,4,64.18,24 / 26,614838,2019-11-08 10:07:32:449,-8.2568,-4.9471,11.5865,-0.0838,-0.1045,9.8057,0.057,-0.9648,0.6107,-24.37,-43.31,42.0,332.68,-81.48,-173.85
6149,52.796795,-1.392227,140.52,27.11,4,64.18,24 / 26,614938,2019-11-08 10:07:32:549,-0.874,-0.8489,9.5878,0.0333,0.082,9.8062,-0.0093,-0.1985,0.1281,-23.94,-42.69,41.63,337.29,-81.05,-169.65
6150,52.796795,-1.392227,140.52,27.11,4,64.18,24 / 26,615038,2019-11-08 10:07:32:649,-8.4671,-4.9123,11.7904,-0.0182,-0.0138,9.8066,-0.0878,0.1493,-0.1594,-24.81,-43.31,41.69,336.41,-81.2,-169.49
6151,52.796795,-1.392227,140.52,27.11,4,64.18,24 / 26,615139,2019-11-08 10:07:32:750,4.3443,3.9605,9.3205,0.084,0.1249,9.8054,-0.2307,0.979,-0.6132,-24.06,-43.06,41.56,339.29,-81.07,-167.93
6152,52.796795,-1.392227,140.52,27.11,4,64.18,24 / 26,615238,2019-11-08 10:07:32:849,-9.4444,-5.5618,11.5499,0.0661,0.0943,9.8059,-0.2017,1.2262,-0.7626,-24.56,-42.94,42.38,333.02,-81.47,-172.56
6153,52.796795,-1.392227,140.52,27.11,4,64.18,24 / 26,615338,2019-11-08 10:07:32:949,4.0062,2.3451,10.0242,0.0486,0.0301,9.8064,-0.1183,1.0494,-0.6151,-23.94,-44.12,41.25,335.76,-81.33,-170.36
6154,52.796795,-1.392227,140.52,27.11,4,64.18,24 / 26,615438,2019-11-08 10:07:33:049,5.7613,7.1006,7.9626,0.0759,0.1246,9.8055,-0.047,0.6619,-0.43,-24.69,-43.06,41.31,336.33,-81.05,-168.82
6155,52.796795,-1.392227,140.52,27.11,4,64.18,23 / 25,615551,2019-11-08 10:07:33:162,1.172,1.2013,9.9431,-0.0422,-0.0784,9.8061,0.0434,-0.37,0.2551,-24.44,-43.87,41.25,335.3,-80.88,-170.56
6156,52.796795,-1.392227,140.52,27.11,4,64.18,23 / 25,615639,2019-11-08 10:07:33:250,6.5593,5.9148,8.2666,0.089,0.1236,9.8054,0.1566,-0.8131,0.5743,-24.06,-44.37,41.44,336.73,-80.67,-169.24
6157,52.796795,-1.392227,140.52,27.11,4,64.18,23 / 25,615739,2019-11-08 10:07:33:350,-4.2944,-2.6624,9.6576,0.0449,0.0558,9.8064,0.1189,-1.225,0.7824,-24.56,-42.94,42.56,333.17,-81.08,-172.89
6158,52.796795,-1.392227,140.52,27.11,4,64.18,23 / 25,615839,2019-11-08 10:07:33:450,7.8699,6.5301,8.2046,0.0493,0.076,9.8061,0.072,-0.7307,0.4018,-24.94,-43.31,41.0,333.98,-81.06,-170.87
6159,52.796795,-1.392227,140.52,27.11,4,64.18,23 / 25,615938,2019-11-08 10:07:33:549,-1.8004,-0.1989,9.7125,0.0878,0.1116,9.8056,-0.0086,-0.265,0.114,-24.62,-42.81,42.0,336.31,-81.1,-169.53
6160,52.796795,-1.392227,140.52,27.11,4,64.18,23 / 25,616039,2019-11-08 10:07:33:650,-8.372,-4.8247,11.1688,-0.0312,-0.0595,9.8063,-0.1581,0.7172,-0.4511,-24.44,-43.37,41.88,333.49,-81.43,-173.11
6161,52.796795,-1.392227,140.52,27.11,4,64.18,23 / 25,616139,2019-11-08 10:07:33:750,0.0066,2.1586,9.4991,0.0197,0.0286,9.8066,-0.1656,1.0539,-0.6663,-24.75,-42.75,42.0,333.09,-81.34,-172.44
6162,52.796795,-1.392227,140.52,27.11,4,64.18,23 / 25,616239,2019-11-08 10:07:33:850,-8.3377,-5.2047,11.9602,-0.0734,-0.1262,9.8055,-0.1162,0.9113,-0.5961,-24.25,-43.06,42.63,333.11,-81.32,-174.03
6163,52.796795,-1.392227,140.52,27.11,4,64.18,23 / 25,616339,2019-11-08 10:07:33:950,0.3615,0.8451,9.6608,-0.0354,-0.084,9.8062,-0.1185,0.6194,-0.3582,-24.37,-43.5,41.19,332.38,-81.17,-173.3
6164,52.796795,-1.392227,140.52,27.11,4,64.18,23 / 25,616438,2019-11-08 10:07:34:049,-6.2619,-4.1936,10.8923,-0.0264,-0.0261,9.8065,0.0763,-0.3658,0.1766,-23.81,-42.81,42.38,334.18,-80.94,-172.29
6165,52.796795,-1.392227,140.52,27.11,4,64.18,25 / 26,616538,2019-11-08 10:07:34:149,-3.6268,-0.8561,10.0245,-0.0405,-0.0808,9.8062,0.1102,-0.7063,0.3738,-25.12,-43.0,41.81,335.18,-80.78,-170.38
6166,52.796795,-1.392227,140.52,27.11,4,64.18,25 / 26,616638,2019-11-08 10:07:34:249,5.0772,4.9536,9.2894,0.0727,0.0661,9.8061,0.0862,-0.7571,0.491,-24.75,-43.44,41.88,335.47,-80.84,-170.15
6167,52.796795,-1.392227,140.52,27.11,4,64.18,25 / 26,616738,2019-11-08 10:07:34:349,-3.9907,-2.3126,10.0508,0.0083,0.0233,9.8065,0.0902,-0.5469,0.3232,-24.87,-43.12,42.19,332.47,-80.87,-172.76
6168,52.796795,-1.392227,140.52,27.11,4,64.18,25 / 26,616839,2019-11-08 10:07:34:450,2.3051,2.2317,9.4665,0.02,0.0265,9.8066,-0.0039,0.1577,-0.0769,-24.94,-43.5,41.63,333.52,-80.73,-171.78
6169,52.796795,-1.392227,140.52,27.11,4,64.18,25 / 26,616939,2019-11-08 10:07:34:550,-0.5837,-0.2185,9.417,0.0459,0.0214,9.8065,-0.0476,0.2904,-0.189,-24.5,-43.19,41.56,335.86,-80.73,-170.75
6170,52.796795,-1.392227,140.52,27.11,4,64.18,25 / 26,617039,2019-11-08 10:07:34:650,-3.5045,-0.5966,11.0542,0.0056,-0.0175,9.8065,-0.0868,0.2949,-0.2186,-23.94,-43.56,41.56,333.85,-80.57,-172.32
6171,52.796795,-1.392227,140.52,27.11,4,64.18,25 / 26,617139,2019-11-08 10:07:34:750,0.1861,1.4586,9.3034,0.0236,0.0056,9.8066,0.0197,0.2054,-0.1619,-24.5,-43.87,41.19,331.58,-80.34,-173.48
6172,52.796795,-1.392227,140.52,27.11,4,64.18,25 / 26,617239,2019-11-08 10:07:34:850,-0.0882,0.3952,10.2397,-0.0027,-0.0068,9.8066,-0.0694,0.0247,0.0224,-24.37,-43.12,41.31,332.07,-80.44,-173.21
6173,52.796795,-1.392227,140.52,27.11,4,64.18,25 / 26,617338,2019-11-08 10:07:34:949,0.137,0.5472,9.7896,-0.019,0.005,9.8066,-0.0755,0.0742,0.0179,-24.31,-43.81,41.63,334.06,-80.58,-172.15
6174,52.796795,-1.392227,140.52,27.11,4,64.18,25 / 26,617438,2019-11-08 10:07:35:049,-1.9865,-0.9174,10.3845,-0.0258,-0.0129,9.8066,-0.0357,0.2066,-0.1307,-24.19,-43.69,42.5,334.61,-80.49,-172.28
6175,52.796795,-1.392227,140.52,27.11,4,64.18,26 / 26,617539,2019-11-08 10:07:35:150,0.3366,0.9155,10.4019,-0.0082,0.0105,9.8066,-0.0266,0.1442,-0.0733,-23.25,-44.31,42.0,335.89,-80.44,-171.52
6176,52.796795,-1.392227,140.52,27.11,4,64.18,26 / 26,617638,2019-11-08 10:07:35:249,-4.5977,-1.0997,9.74,0.02,0.0182,9.8065,-0.0901,-0.0851,0.1412,-22.81,-43.62,43.25,336.21,-80.42,-171.87
6177,52.796795,-1.392227,140.52,27.11,4,64.18,26 / 26,617739,2019-11-08 10:07:35:350,-0.4417,-0.5472,10.901,-0.0385,-0.0457,9.8064,0.0875,-0.3404,0.2224,-22.94,-43.5,42.88,338.46,-80.21,-169.96
6178,52.796795,-1.392227,140.52,27.11,4,64.18,26 / 26,617839,2019-11-08 10:07:35:450,-1.5197,0.6922,10.2611,-0.0023,0.0295,9.8065,0.1015,-0.2713,0.0321,-22.62,-43.5,42.25,337.39,-80.19,-170.23
6179,52.796795,-1.392227,140.52,27.11,4,64.18,26 / 26,617938,2019-11-08 10:07:35:549,-1.3986,-0.4755,9.0345,0.0312,-0.0232,9.8065,0.1384,-0.0988,-0.019,-23.31,-43.5,41.5,336.57,-80.2,-170.93
6180,52.796795,-1.392227,140.52,27.11,4,64.18,26 / 26,618038,2019-11-08 10:07:35:649,0.5949,1.6335,10.0309,0.053,-0.0134,9.8065,0.1895,0.1461,-0.1306,-24.44,-43.12,41.63,335.13,-80.33,-171.2
6181,52.796795,-1.392227,140.52,27.11,4,64.18,26 / 26,618138,2019-11-08 10:07:35:749,-2.3641,-1.0058,11.3256,0.0215,0.0381,9.8065,0.0195,0.2661,-0.2316,-24.62,-42.94,43.81,333.94,-80.42,-172.57
6182,52.796795,-1.392227,140.52,27.11,4,64.18,26 / 26,618238,2019-11-08 10:07:35:849,1.0925,-0.0752,9.7723,0.0502,-0.0066,9.8064,-0.02,-0.0415,-0.0012,-23.87,-42.87,43.94,335.87,-80.28,-171.8
6183,52.796795,-1.392227,140.52,27.11,4,64.18,26 / 26,618339,2019-11-08 10:07:35:950,-1.4511,2.4369,9.4863,-0.0336,0.0098,9.8066,-0.1473,0.1313,0.1202,-23.69,-42.56,43.75,334.52,-80.03,-172.86
6184,52.796795,-1.392227,140.52,27.11,4,64.18,26 / 26,618439,2019-11-08 10:07:36:050,-0.2006,0.3485,9.7977,-0.0172,0.0001,9.8066,-0.0313,-0.0139,-0.0095,-23.12,-42.81,43.25,334.33,-79.81,-173.29
6185,52.796795,-1.392227,140.52,27.11,4,64.18,26 / 26,618538,2019-11-08 10:07:36:149,-1.2115,0.6862,9.816,0.005,0.0017,9.8066,-0.0141,0.009,-0.03,-23.75,-42.87,42.06,333.21,-79.89,-172.64
6186,52.796795,-1.392227,140.52,27.11,4,64.18,26 / 26,618638,2019-11-08 10:07:36:249,-1.436,-0.3039,10.3512,-0.0023,-0.0055,9.8066,-0.0065,0.0367,-0.0171,-25.5,-43.5,42.38,331.94,-80.05,-172.83
6187,52.796795,-1.392227,140.52,27.11,4,64.18,26 / 26,618738,2019-11-08 10:07:36:349,0.4084,0.1758,10.8136,0.0028,0.0263,9.8066,-0.0386,-0.0291,0.0119,-25.31,-42.69,43.19,332.33,-80.17,-173.21
6188,52.796795,-1.392227,140.52,27.11,4,64.18,26 / 26,618839,2019-11-08 10:07:36:450,-2.763,0.8857,10.0816,-0.0026,-0.0129,9.8066,-0.0229,-0.1907,0.0882,-24.5,-42.81,42.88,332.5,-80.07,-173.98
6189,52.796795,-1.392227,140.52,27.11,4,64.18,26 / 26,618938,2019-11-08 10:07:36:549,-0.4005,-0.4904,10.2519,0.0071,-0.0212,9.8065,0.0242,-0.0135,-0.0101,-23.75,-42.62,42.31,330.93,-80.03,-174.65
6190,52.796795,-1.392227,140.52,27.11,4,64.18,26 / 26,619039,2019-11-08 10:07:36:650,0.3965,1.397,9.4937,0.0045,0.0101,9.8066,0.0442,0.1662,-0.0641,-24.0,-42.31,42.44,331.86,-80.03,-173.95
6191,52.796795,-1.392227,140.52,27.11,4,64.18,26 / 26,619139,2019-11-08 10:07:36:750,-1.5301,0.338,9.31,-0.0123,0.0105,9.8066,0.0381,0.1018,-0.0972,-24.62,-42.81,42.44,331.98,-80.26,-172.89
6192,52.796795,-1.392227,140.52,27.11,4,64.18,26 / 26,619240,2019-11-08 10:07:36:851,-2.7117,1.0406,9.909,-0.0074,-0.0203,9.8065,0.0216,-0.1452,0.0928,-24.31,-42.69,42.38,333.68,-80.28,-172.42
6193,52.796795,-1.392227,140.52,27.11,4,64.18,26 / 26,619338,2019-11-08 10:07:36:949,-1.237,1.6757,9.4672,0.0328,-0.0146,9.8065,0.1137,-0.0429,-0.0581,-24.56,-43.0,43.06,332.19,-80.05,-173.27
6194,52.796795,-1.392227,140.52,27.11,4,64.18,26 / 26,619439,2019-11-08 10:07:37:050,0.7646,1.3719,10.8945,0.0388,-0.0046,9.8065,0.1121,0.0615,-0.1325,-24.25,-43.0,42.19,331.96,-80.07,-173.79
6195,52.796795,-1.392227,140.52,27.11,4,64.18,26 / 26,619539,2019-11-08 10:07:37:150,-0.3696,1.3214,9.6382,0.0035,0.0082,9.8066,-0.0317,0.0063,0.011,-24.25,-42.75,42.56,331.7,-79.94,-174.6
6196,52.796795,-1.392227,140.52,27.11,4,64.18,26 / 26,619639,2019-11-08 10:07:37:250,-1.6099,0.4144,8.6148,-0.0249,0.004,9.8066,-0.1136,-0.0861,0.1027,-23.81,-43.0,42.81,331.29,-79.87,-174.91
6197,52.796795,-1.392227,140.52,27.11,4,64.18,26 / 26,619739,2019-11-08 10:07:37:350,-0.3782,1.6353,8.5971,-0.0121,0.0243,9.8066,0.0585,-0.1669,0.0999,-23.37,-43.12,42.06,333.39,-79.91,-173.5
6198,52.796795,-1.392227,140.52,27.11,4,64.18,26 / 26,619839,2019-11-08 10:07:37:450,-0.4152,0.5505,10.773,-0.004,0.0205,9.8065,0.0757,-0.0227,-0.0458,-23.5,-43.5,43.38,334.22,-79.99,-173.46
6199,52.796795,-1.392227,140.52,27.11,4,64.18,26 / 26,619939,2019-11-08 10:07:37:550,-2.8678,0.4021,8.8291,-0.0296,-0.0055,9.8066,0.1066,0.1988,-0.1939,-22.81,-43.37,42.56,334.05,-79.96,-173.6
6200,52.796795,-1.392227,140.52,27.11,4,64.18,26 / 26,620039,2019-11-08 10:07:37:650,-0.8517,1.1604,8.8539,0.0259,-0.0144,9.8066,0.0705,0.0688,-0.1878,-22.94,-42.69,43.88,335.1,-80.07,-173.36
6201,52.796795,-1.392227,140.52,27.11,4,64.18,26 / 26,620138,2019-11-08 10:07:37:749,0.5301,1.0659,10.7585,0.0212,-0.012,9.8066,0.0344,0.0619,-0.1093,-22.87,-42.81,43.19,333.13,-79.95,-174.38
6202,52.796795,-1.392227,140.52,27.11,4,64.18,26 / 26,620238,2019-11-08 10:07:37:849,0.1176,0.6723,9.0901,0.0336,-0.0031,9.8066,-0.0182,0.1399,-0.0997,-22.44,-43.06,42.94,333.13,-79.87,-175.34
6203,52.796795,-1.392227,140.52,27.11,4,64.18,26 / 26,620338,2019-11-08 10:07:37:949,-1.866,0.8888,10.0385,0.0057,-0.0226,9.8065,-0.073,0.1222,0.0026,-22.56,-42.12,41.94,331.6,-79.91,-175.11
6204,52.796795,-1.392227,140.52,27.11,4,64.18,26 / 26,620438,2019-11-08 10:07:38:049,1.2047,2.1778,9.3971,-0.0123,-0.0264,9.8066,0.0074,-0.0116,0.0434,-23.0,-42.56,42.44,331.72,-79.7,-174.81
6205,52.797623,-1.389128,136.86,23.14,4,69.69,26 / 26,620538,2019-11-08 10:07:38:149,-0.5899,0.1299,9.9091,0.0048,0.0036,9.8066,0.0331,-0.2156,0.1056,-23.19,-42.0,42.5,332.0,-79.76,-175.34
6206,52.797623,-1.389128,136.86,23.14,4,69.69,26 / 26,620638,2019-11-08 10:07:38:249,-0.2075,0.1371,9.7381,-0.0004,-0.0121,9.8065,0.0712,-0.2609,0.172,-23.56,-42.94,42.44,329.94,-79.72,-175.33
6207,52.797623,-1.389128,136.86,23.14,4,69.69,26 / 26,620739,2019-11-08 10:07:38:350,-0.0164,1.3008,9.1544,-0.0017,0.0204,9.8065,0.1084,-0.1544,0.1062,-23.37,-42.87,42.5,332.73,-79.62,-174.55
6208,52.797623,-1.389128,136.86,23.14,4,69.69,26 / 26,620838,2019-11-08 10:07:38:449,-0.4098,1.8161,9.0756,-0.0006,-0.0013,9.8066,0.0575,-0.1462,0.0295,-23.56,-43.19,41.88,331.63,-79.61,-173.85
6209,52.797623,-1.389128,136.86,23.14,4,69.69,26 / 26,620938,2019-11-08 10:07:38:549,0.8241,1.427,10.325,-0.0121,0.01,9.8066,0.0304,-0.1543,0.0414,-24.44,-42.31,42.75,332.71,-79.57,-173.66
6210,52.797623,-1.389128,136.86,23.14,4,69.69,26 / 26,621038,2019-11-08 10:07:38:649,-1.9825,0.2805,9.9753,-0.0189,-0.0238,9.8065,-0.025,-0.0175,0.0364,-24.31,-43.0,43.19,331.93,-79.44,-174.16
6211,52.797623,-1.389128,136.86,23.14,4,69.69,26 / 26,621138,2019-11-08 10:07:38:749,0.3397,1.6993,10.0216,-0.0235,-0.0069,9.8065,0.0039,0.0816,-0.0964,-24.31,-42.94,43.19,333.1,-79.38,-173.15
6212,52.797623,-1.389128,136.86,23.14,4,69.69,26 / 26,621239,2019-11-08 10:07:38:850,0.0088,-0.7762,9.8364,-0.0123,-0.0172,9.8066,-0.0393,0.041,-0.0522,-23.81,-43.25,43.31,332.11,-79.34,-173.96
6213,52.797623,-1.389128,136.86,23.14,4,69.69,26 / 26,621338,2019-11-08 10:07:38:949,-0.4904,1.5648,9.2364,0.0165,-0.0092,9.8065,-0.0246,0.0172,0.0197,-24.0,-42.69,42.94,332.11,-79.1,-173.85
6214,52.797623,-1.389128,136.86,23.14,4,69.69,26 / 26,621438,2019-11-08 10:07:39:049,-2.2217,0.3948,9.6487,0.0054,-0.0106,9.8066,-0.0398,0.0701,-0.0462,-24.0,-43.12,43.88,333.14,-79.16,-173.64
6215,52.797623,-1.389128,136.86,23.14,4,69.69,25 / 25,621538,2019-11-08 10:07:39:149,-1.1908,0.8285,9.8945,-0.018,-0.0153,9.8066,0.0234,0.0176,-0.0882,-24.12,-43.0,43.06,332.42,-79.07,-173.57
6216,52.797623,-1.389128,136.86,23.14,4,69.69,25 / 25,621639,2019-11-08 10:07:39:250,0.7057,1.0375,9.9063,0.0044,0.014,9.8065,0.0052,-0.083,0.0539,-24.56,-43.19,43.06,330.79,-79.06,-173.98
6217,52.797623,-1.389128,136.86,23.14,4,69.69,25 / 25,621739,2019-11-08 10:07:39:350,-1.2682,-0.2967,10.2056,0.0166,-0.0054,9.8066,0.0015,0.0316,0.0096,-24.0,-43.12,42.94,331.85,-79.0,-174.01
6218,52.797623,-1.389128,136.86,23.14,4,69.69,25 / 25,621839,2019-11-08 10:07:39:450,-1.5289,0.3026,10.2084,0.0171,-0.0105,9.8066,-0.0149,-0.0338,-0.0318,-24.19,-42.81,43.38,331.96,-79.01,-173.93
6219,52.797623,-1.389128,136.86,23.14,4,69.69,25 / 25,621938,2019-11-08 10:07:39:549,-0.7343,-0.2611,9.4116,0.0054,0.0004,9.8066,-0.0159,-0.0235,-0.0032,-24.19,-43.25,42.88,330.67,-78.98,-175.0
6220,52.797623,-1.389128,136.86,23.14,4,69.69,25 / 25,622038,2019-11-08 10:07:39:649,1.1981,0.2714,10.3491,0.0251,0.0091,9.8066,-0.0153,-0.141,0.112,-23.81,-42.81,42.44,329.84,-78.97,-175.03
6221,52.797623,-1.389128,136.86,23.14,4,69.69,25 / 25,622139,2019-11-08 10:07:39:750,0.1163,1.1317,9.4813,0.0025,0.0117,9.8066,0.0155,-0.1079,0.0881,-23.87,-43.37,42.88,330.82,-78.91,-174.84
6222,52.797623,-1.389128,136.86,23.14,4,69.69,25 / 25,622238,2019-11-08 10:07:39:849,-0.5043,-1.105,9.9987,-0.0045,0.0041,9.8066,0.0582,0.0252,-0.0507,-23.94,-43.37,43.0,330.82,-78.9,-174.83
6223,52.797623,-1.389128,136.86,23.14,4,69.69,25 / 25,622339,2019-11-08 10:07:39:950,0.3929,-0.3633,10.2937,-0.0176,0.0106,9.8066,0.0502,0.1024,-0.1363,-23.5,-43.62,42.88,333.06,-79.0,-173.88
6224,52.797623,-1.389128,136.86,23.14,4,69.69,25 / 25,622439,2019-11-08 10:07:40:050,-0.4093,0.991,9.7078,-0.0034,0.0048,9.8066,-0.0269,0.0271,0.0365,-23.37,-43.19,42.94,332.82,-79.02,-174.19
6225,52.797623,-1.389128,136.86,23.14,4,69.69,25 / 25,622539,2019-11-08 10:07:40:150,1.6603,0.58,9.4457,0.0033,0.0104,9.8066,-0.0263,0.119,-0.0321,-22.87,-43.69,42.81,332.69,-79.09,-174.24
6226,52.797623,-1.389128,136.86,23.14,4,69.69,25 / 25,622638,2019-11-08 10:07:40:249,-1.9722,-0.1078,9.405,-0.0168,-0.0245,9.8065,0.0399,0.2964,-0.2067,-23.25,-43.06,43.38,332.55,-79.17,-174.49
6227,52.797623,-1.389128,136.86,23.14,4,69.69,25 / 25,622738,2019-11-08 10:07:40:349,2.1371,1.4953,11.3562,-0.0514,0.0025,9.8064,0.1264,0.1869,-0.2043,-22.31,-42.94,43.63,333.61,-78.98,-175.13
6228,52.797623,-1.389128,136.86,23.14,4,69.69,25 / 25,622838,2019-11-08 10:07:40:449,0.9099,0.3637,8.4337,-0.0431,0.0217,9.8064,0.1498,-0.0947,-0.036,-22.37,-43.62,43.75,334.48,-79.07,-174.34
6229,52.797623,-1.389128,136.86,23.14,4,69.69,25 / 25,622938,2019-11-08 10:07:40:549,-0.2755,0.2683,8.8121,-0.0103,0.004,9.8066,0.1103,-0.0836,0.0479,-21.94,-43.87,43.88,335.92,-79.3,-173.25
6230,52.797623,-1.389128,136.86,23.14,4,69.69,25 / 25,623039,2019-11-08 10:07:40:650,-0.1874,0.4471,10.0405,-0.0111,0.0036,9.8066,0.0406,0.1192,-0.1182,-22.06,-42.87,44.25,336.17,-79.4,-173.17
6231,52.797623,-1.389128,136.86,23.14,4,69.69,25 / 25,623139,2019-11-08 10:07:40:750,1.079,-0.0473,10.1572,0.0396,-0.0197,9.8065,0.0134,0.0009,-0.0702,-21.81,-43.25,45.31,336.03,-79.43,-173.88
6232,52.797623,-1.389128,136.86,23.14,4,69.69,25 / 25,623239,2019-11-08 10:07:40:850,1.0423,1.0245,10.3348,0.0381,-0.0134,9.8065,-0.012,-0.128,0.1001,-22.0,-42.44,45.5,337.25,-79.57,-173.54
6233,52.797623,-1.389128,136.86,23.14,4,69.69,25 / 25,623339,2019-11-08 10:07:40:950,-0.9111,0.2251,10.0745,0.0193,0.0025,9.8066,-0.007,-0.0449,0.0817,-22.25,-42.37,45.94,336.88,-79.4,-173.79
6234,52.797623,-1.389128,136.86,23.14,4,69.69,25 / 25,623438,2019-11-08 10:07:41:049,1.4587,-0.5914,9.0057,0.0023,0.0071,9.8066,-0.0716,0.1286,-0.0531,-22.94,-43.12,45.94,334.63,-79.25,-174.57
6235,52.797623,-1.389128,136.86,23.14,4,69.69,25 / 25,623540,2019-11-08 10:07:41:151,1.7439,1.1536,10.5357,-0.0153,0.0403,9.8065,-0.0412,0.1944,-0.1126,-23.31,-42.37,47.13,334.96,-79.37,-174.98
6236,52.797623,-1.389128,136.86,23.14,4,69.69,25 / 25,623639,2019-11-08 10:07:41:250,0.805,-0.027,10.1099,-0.0368,0.0256,9.8065,0.1945,0.1315,-0.1276,-24.31,-41.81,46.56,333.01,-79.07,-175.57
6237,52.797623,-1.389128,136.86,23.14,4,69.69,25 / 25,623738,2019-11-08 10:07:41:349,2.3611,0.6266,10.4065,0.003,-0.0139,9.8066,0.1234,0.0851,-0.0749,-25.31,-41.81,47.06,332.14,-79.2,-175.45
6238,52.797623,-1.389128,136.86,23.14,4,69.69,25 / 25,623838,2019-11-08 10:07:41:449,0.3416,0.2305,8.4768,-0.0229,0.0071,9.8065,0.1085,-0.0132,-0.0887,-25.62,-41.62,46.44,330.37,-79.16,-175.46
6239,52.797623,-1.389128,136.86,23.14,4,69.69,25 / 25,623938,2019-11-08 10:07:41:549,-1.7542,0.5716,8.4774,0.0401,-0.0225,9.8065,0.1957,-0.0211,-0.1232,-26.87,-41.81,45.75,329.73,-79.11,-175.09
6240,52.797623,-1.389128,136.86,23.14,4,69.69,25 / 25,624038,2019-11-08 10:07:41:649,0.3747,-0.5708,10.4582,0.0198,-0.0166,9.8065,0.0722,0.0487,0.0224,-26.31,-41.62,45.31,331.3,-79.11,-174.02
6241,52.797623,-1.389128,136.86,23.14,4,69.69,25 / 25,624138,2019-11-08 10:07:41:749,0.5426,0.5382,9.8982,-0.0035,-0.0208,9.8065,-0.0141,0.0237,0.0591,-27.0,-41.56,44.94,330.42,-78.96,-173.8
6242,52.797623,-1.389128,136.86,23.14,4,69.69,25 / 25,624238,2019-11-08 10:07:41:849,-1.2771,-0.6961,10.5813,-0.0067,-0.0107,9.8066,0.069,-0.1839,0.0331,-27.06,-42.0,45.0,330.61,-79.03,-173.67
6243,52.797623,-1.389128,136.86,23.14,4,69.69,25 / 25,624338,2019-11-08 10:07:41:949,-1.6553,-0.1206,8.8044,0.0121,-0.0339,9.8065,0.0642,-0.2498,0.1285,-26.94,-42.12,44.06,330.65,-79.08,-173.01
6244,52.797623,-1.389128,136.86,23.14,4,69.69,25 / 25,624439,2019-11-08 10:07:42:050,2.5023,0.3905,10.8458,0.0373,0.013,9.8065,-0.0729,-0.131,0.0753,-26.56,-42.31,43.56,330.97,-79.05,-172.73
6245,52.797623,-1.389128,136.86,23.14,4,69.69,25 / 25,624540,2019-11-08 10:07:42:151,-0.5285,-0.4041,11.0526,-0.0046,0.0306,9.8066,-0.1156,0.1066,-0.0253,-26.25,-42.44,43.38,329.4,-79.09,-174.34
6246,52.797623,-1.389128,136.86,23.14,4,69.69,25 / 25,624639,2019-11-08 10:07:42:250,-0.0224,0.0951,8.7323,-0.0154,0.0188,9.8066,-0.0188,0.0142,-0.0129,-26.25,-42.69,43.38,328.28,-78.89,-175.08
6247,52.797623,-1.389128,136.86,23.14,4,69.69,25 / 25,624739,2019-11-08 10:07:42:350,-0.0624,0.8384,9.4971,-0.023,0.0013,9.8066,-0.0415,0.0069,0.0974,-25.94,-42.62,42.75,328.34,-78.94,-175.06
6248,52.797623,-1.389128,136.86,23.14,4,69.69,25 / 25,624838,2019-11-08 10:07:42:449,-0.3073,0.2569,9.29,-0.0162,0.001,9.8066,-0.1111,0.0235,0.0505,-25.62,-42.81,43.25,328.6,-79.03,-174.88
6249,52.797623,-1.389128,136.86,23.14,4,69.69,25 / 25,624939,2019-11-08 10:07:42:550,-1.4311,-0.9083,10.5788,0.0172,0.0006,9.8066,-0.0302,-0.0273,-0.0756,-26.0,-42.87,42.88,328.28,-78.95,-175.11
6250,52.797623,-1.389128,136.86,23.14,4,69.69,25 / 25,625039,2019-11-08 10:07:42:650,1.5859,-0.9135,10.1997,0.019,0.0041,9.8065,0.0556,0.1003,-0.0339,-24.81,-43.81,43.25,329.44,-78.88,-174.91
6251,52.797623,-1.389128,136.86,23.14,4,69.69,25 / 25,625139,2019-11-08 10:07:42:750,-1.2271,-1.2258,9.6008,0.0049,0.0143,9.8066,-0.0557,0.1682,-0.0204,-25.62,-43.5,43.44,327.59,-78.92,-175.68
6252,52.797623,-1.389128,136.86,23.14,4,69.69,25 / 25,625238,2019-11-08 10:07:42:849,-1.5045,0.2717,10.0802,-0.0059,-0.0022,9.8066,0.0221,-0.0681,-0.0504,-25.69,-43.62,44.19,328.62,-78.95,-175.37
6253,52.797623,-1.389128,136.86,23.14,4,69.69,25 / 25,625338,2019-11-08 10:07:42:949,0.9545,0.3256,9.6731,0.0011,-0.0206,9.8066,0.0832,-0.1613,0.0811,-26.25,-43.5,44.19,328.95,-78.97,-175.21
6254,52.797623,-1.389128,136.86,23.14,4,69.69,25 / 25,625438,2019-11-08 10:07:43:049,-1.2474,-0.3979,9.5556,-0.0221,-0.0098,9.8065,-0.0931,-0.1031,0.1575,-25.37,-42.69,44.69,330.58,-78.83,-175.32
6255,52.797623,-1.389128,136.86,23.14,4,69.69,25 / 25,625538,2019-11-08 10:07:43:149,-1.2088,-0.5334,10.0886,0.0095,-0.0151,9.8066,-0.008,-0.0436,0.0084,-25.25,-42.81,44.44,330.38,-78.78,-174.84
6256,52.797623,-1.389128,136.86,23.14,4,69.69,25 / 25,625638,2019-11-08 10:07:43:249,1.0588,-0.2753,10.38,0.022,0.0015,9.8066,0.074,0.0336,-0.0654,-25.19,-42.19,45.31,331.3,-78.86,-174.83
6257,52.797623,-1.389128,136.86,23.14,4,69.69,25 / 25,625738,2019-11-08 10:07:43:349,-1.1325,-0.7344,9.6387,0.024,-0.0102,9.8065,0.0589,0.1179,-0.0773,-25.37,-43.0,45.31,329.84,-78.82,-175.94
6258,52.797623,-1.389128,136.86,23.14,4,69.69,25 / 25,625838,2019-11-08 10:07:43:449,0.368,0.2656,9.8854,0.0213,-0.0011,9.8065,-0.0149,-0.0128,-0.0787,-25.25,-43.19,44.94,329.66,-78.93,-176.15
6259,52.797623,-1.389128,136.86,23.14,4,69.69,25 / 25,625939,2019-11-08 10:07:43:550,0.4371,0.561,10.5473,-0.0077,0.0104,9.8066,-0.111,-0.0637,0.0909,-25.37,-43.56,44.81,329.14,-78.89,-176.46
6260,52.797623,-1.389128,136.86,23.14,4,69.69,25 / 25,626038,2019-11-08 10:07:43:649,-0.5357,-0.3379,10.5169,-0.0291,-0.005,9.8065,-0.1301,-0.091,0.1346,-26.25,-42.25,44.13,327.06,-78.91,-176.91
6261,52.797623,-1.389128,136.86,23.14,4,69.69,25 / 25,626138,2019-11-08 10:07:43:749,0.5087,0.7832,10.1504,-0.0088,-0.0155,9.8066,0.0515,0.0028,0.0046,-25.75,-43.37,44.31,328.21,-78.9,-175.81
6262,52.797623,-1.389128,136.86,23.14,4,69.69,25 / 25,626239,2019-11-08 10:07:43:850,1.5247,1.6388,9.6188,-0.0207,-0.0251,9.8065,-0.0351,0.1751,-0.0928,-25.69,-43.44,43.44,328.58,-78.83,-174.79
6263,52.797623,-1.389128,136.86,23.14,4,69.69,25 / 25,626338,2019-11-08 10:07:43:949,-2.5224,-0.7779,9.1924,-0.0213,0.0069,9.8066,-0.0057,0.2479,-0.1503,-24.94,-43.37,42.56,330.31,-78.74,-174.21
6264,52.797623,-1.389128,136.86,23.14,4,69.69,25 / 25,626438,2019-11-08 10:07:44:049,-0.352,0.3368,10.5745,-0.0305,0.0041,9.8066,0.0539,0.1769,-0.072,-24.62,-43.37,43.31,330.07,-78.72,-174.41
6265,52.797623,-1.389128,136.86,23.14,4,69.69,25 / 25,626538,2019-11-08 10:07:44:149,-1.7407,-2.0706,10.1393,-0.015,0.0082,9.8066,0.0784,-0.0804,0.0718,-23.87,-43.62,43.75,331.7,-78.69,-174.52
6266,52.797623,-1.389128,136.86,23.14,4,69.69,25 / 25,626638,2019-11-08 10:07:44:249,-0.6958,1.4264,8.9925,-0.0211,-0.0165,9.8065,-0.0066,-0.1682,0.1004,-23.0,-43.62,43.56,333.24,-78.84,-174.28
6267,52.797623,-1.389128,136.86,23.14,4,69.69,25 / 25,626739,2019-11-08 10:07:44:350,2.1591,2.0184,9.7737,0.0165,0.022,9.8065,-0.0228,-0.3519,0.2144,-23.31,-43.5,44.44,333.54,-79.04,-174.22
6268,52.797623,-1.389128,136.86,23.14,4,69.69,25 / 25,626839,2019-11-08 10:07:44:450,-1.3988,-0.054,9.8909,-0.0049,0.0043,9.8066,-0.0143,-0.3169,0.2273,-23.87,-44.0,45.38,333.4,-79.21,-173.96
6269,52.797623,-1.389128,136.86,23.14,4,69.69,25 / 25,626939,2019-11-08 10:07:44:550,0.9776,2.9485,8.8258,-0.0023,0.0306,9.8065,-0.0056,-0.0112,-0.0246,-24.19,-43.25,44.5,334.09,-79.15,-173.44
6270,52.797623,-1.389128,136.86,23.14,4,69.69,25 / 25,627038,2019-11-08 10:07:44:649,1.7979,1.3404,9.9519,0.0278,0.0323,9.8065,0.062,0.2324,-0.2108,-24.44,-42.31,44.69,334.8,-79.15,-172.93
6271,52.797623,-1.389128,136.86,23.14,4,69.69,25 / 25,627140,2019-11-08 10:07:44:751,1.2381,0.7782,9.3618,0.0288,0.0141,9.8065,-0.0302,0.35,-0.2016,-24.56,-43.0,45.0,332.6,-79.28,-173.82
6272,52.797623,-1.389128,136.86,23.14,4,69.69,25 / 25,627239,2019-11-08 10:07:44:850,1.1307,0.7383,10.3518,0.0028,0.0116,9.8066,-0.0102,0.3037,-0.1601,-24.75,-43.19,45.38,332.53,-79.34,-173.91
6273,52.797623,-1.389128,136.86,23.14,4,69.69,25 / 25,627338,2019-11-08 10:07:44:949,-3.3564,-1.1451,10.0736,-0.0305,-0.0166,9.8065,0.0338,-0.0073,0.0327,-24.94,-43.5,45.25,331.83,-79.31,-174.49
6274,52.797623,-1.389128,136.86,23.14,4,69.69,25 / 25,627438,2019-11-08 10:07:45:049,-0.8349,-0.595,10.6811,-0.016,-0.0266,9.8065,0.07,-0.2578,0.1056,-24.56,-43.12,45.0,332.5,-79.29,-173.91
6275,52.797623,-1.389128,136.86,23.14,4,69.69,25 / 25,627539,2019-11-08 10:07:45:150,-0.686,-0.7076,10.7876,-0.014,0.004,9.8066,0.1245,-0.2556,0.09,-24.37,-42.62,44.69,333.29,-79.43,-174.25
6276,52.797623,-1.389128,136.86,23.14,4,69.69,25 / 25,627639,2019-11-08 10:07:45:250,-2.5114,0.8713,9.3541,0.0171,-0.0126,9.8065,0.1412,-0.2304,-0.0026,-24.19,-43.12,44.81,334.02,-79.64,-173.72
6277,52.797623,-1.389128,136.86,23.14,4,69.69,25 / 25,627739,2019-11-08 10:07:45:350,1.097,0.8491,9.4731,0.014,0.0095,9.8066,0.0853,0.0214,-0.044,-24.75,-42.75,44.63,333.11,-79.73,-173.59
6278,52.797623,-1.389128,136.86,23.14,4,69.69,25 / 25,627839,2019-11-08 10:07:45:450,-1.656,-0.9318,10.4673,0.0086,0.0223,9.8066,0.0107,0.1101,-0.1299,-24.44,-42.62,45.0,334.32,-79.89,-173.57
6279,52.797623,-1.389128,136.86,23.14,4,69.69,25 / 25,627939,2019-11-08 10:07:45:550,0.5518,0.619,9.7177,0.013,0.0122,9.8065,-0.0622,0.1254,-0.0268,-25.31,-43.19,45.63,334.65,-79.77,-172.88
6280,52.797623,-1.389128,136.86,23.14,4,69.69,25 / 25,628039,2019-11-08 10:07:45:650,0.6185,1.1749,9.8373,-0.001,0.002,9.8066,-0.0265,0.0999,0.0109,-25.0,-43.25,45.38,333.11,-79.7,-173.58
6281,52.797623,-1.389128,136.86,23.14,4,69.69,25 / 25,628141,2019-11-08 10:07:45:752,-0.7135,1.0423,9.3705,0.0053,-0.0054,9.8066,-0.0305,-0.0261,-0.0345,-24.81,-42.5,45.81,333.61,-79.64,-173.81
6282,52.797623,-1.389128,136.86,23.14,4,69.69,25 / 25,628239,2019-11-08 10:07:45:850,-0.4357,0.5361,9.5296,-0.001,-0.0027,9.8065,-0.0204,-0.0843,0.0056,-25.06,-42.5,45.5,333.49,-79.53,-173.86
6283,52.797623,-1.389128,136.86,23.14,4,69.69,25 / 25,628339,2019-11-08 10:07:45:950,1.3395,0.5915,9.7038,0.0167,0.0131,9.8066,0.0569,0.0433,-0.0626,-24.94,-42.5,45.06,332.75,-79.51,-173.89
6284,52.797623,-1.389128,136.86,23.14,4,69.69,25 / 25,628439,2019-11-08 10:07:46:050,-0.8056,-0.6422,10.1877,0.0097,0.0074,9.8066,0.0589,0.1157,-0.109,-24.75,-42.75,45.44,332.28,-79.69,-174.28
6285,52.797623,-1.389128,136.86,23.14,4,69.69,26 / 26,628538,2019-11-08 10:07:46:149,-0.778,0.6533,9.3794,-0.0096,0.0048,9.8066,-0.093,0.0485,0.0196,-25.31,-42.56,45.69,333.17,-79.72,-174.13
6286,52.797623,-1.389128,136.86,23.14,4,69.69,26 / 26,628639,2019-11-08 10:07:46:250,0.3591,1.3618,10.6541,0.0065,-0.0039,9.8065,-0.1098,0.0034,0.036,-25.12,-42.75,45.81,332.98,-79.64,-174.26
6287,52.797623,-1.389128,136.86,23.14,4,69.69,26 / 26,628738,2019-11-08 10:07:46:349,-1.9716,0.1667,9.7088,-0.0321,0.0039,9.8066,-0.1036,-0.1317,0.109,-24.5,-42.44,45.31,333.29,-79.7,-174.46
6288,52.797623,-1.389128,136.86,23.14,4,69.69,26 / 26,628838,2019-11-08 10:07:46:449,1.9122,0.3119,9.7488,-0.0274,0.0089,9.8065,-0.1756,-0.1536,0.2057,-24.69,-43.25,46.0,332.4,-79.68,-174.77
6289,52.797623,-1.389128,136.86,23.14,4,69.69,26 / 26,628938,2019-11-08 10:07:46:549,-0.4307,-0.0028,9.8841,-0.0062,0.0039,9.8066,0.0198,-0.1129,0.0333,-25.12,-42.87,45.94,333.26,-79.96,-174.16
6290,52.797623,-1.389128,136.86,23.14,4,69.69,26 / 26,629038,2019-11-08 10:07:46:649,-1.0835,-0.9087,10.8017,0.0106,-0.031,9.8066,-0.0402,0.1671,-0.0604,-24.75,-41.81,46.13,332.79,-79.8,-174.58
6291,52.797623,-1.389128,136.86,23.14,4,69.69,26 / 26,629139,2019-11-08 10:07:46:750,2.2459,-0.5815,10.8831,0.0164,0.0054,9.8066,-0.0031,0.1751,-0.1088,-25.5,-42.56,46.06,332.13,-79.68,-175.01
6292,52.797623,-1.389128,136.86,23.14,4,69.69,26 / 26,629239,2019-11-08 10:07:46:850,-1.6848,-0.5903,10.2878,0.0107,-0.0179,9.8066,-0.0438,0.2272,-0.1055,-25.5,-42.5,46.38,332.76,-79.57,-174.51
6293,52.797623,-1.389128,136.86,23.14,4,69.69,26 / 26,629338,2019-11-08 10:07:46:949,-0.8426,1.1,9.1322,0.0042,0.0159,9.8065,-0.1206,0.2879,-0.0723,-25.81,-42.31,46.25,332.72,-79.46,-173.57
6294,52.797623,-1.389128,136.86,23.14,4,69.69,26 / 26,629439,2019-11-08 10:07:47:050,-1.334,-0.8651,9.9553,0.0195,0.0304,9.8065,-0.026,-0.1259,0.0753,-26.06,-41.87,46.13,333.56,-79.38,-172.82
6295,52.798233,-1.386064,134.09,25.35,4,74.83,25 / 25,629539,2019-11-08 10:07:47:150,-2.623,-0.8644,9.7828,-0.0152,-0.003,9.8066,-0.0383,-0.1901,0.1368,-25.94,-41.81,46.44,332.63,-79.49,-173.66
6296,52.798233,-1.386064,134.09,25.35,4,74.83,25 / 25,629638,2019-11-08 10:07:47:249,2.4914,1.4365,9.0815,0.0238,0.0018,9.8066,0.0677,-0.3813,0.1789,-26.5,-41.31,45.63,332.23,-79.46,-174.09
6297,52.798233,-1.386064,134.09,25.35,4,74.83,25 / 25,629738,2019-11-08 10:07:47:349,-0.7109,0.0305,10.2406,-0.0159,-0.0378,9.8065,0.0723,-0.3146,0.1471,-26.0,-41.56,46.69,332.42,-79.62,-174.49
6298,52.798233,-1.386064,134.09,25.35,4,74.83,25 / 25,629839,2019-11-08 10:07:47:450,2.1249,1.5502,9.8841,-0.0177,-0.0346,9.8065,0.0357,0.0653,0.022,-26.69,-41.56,45.31,330.49,-79.37,-173.94
6299,52.798233,-1.386064,134.09,25.35,4,74.83,25 / 25,629938,2019-11-08 10:07:47:549,0.7586,-0.9241,9.5011,-0.0007,0.0058,9.8066,0.0429,0.1228,-0.1088,-27.0,-41.31,46.19,331.36,-79.38,-173.9
6300,52.798233,-1.386064,134.09,25.35,4,74.83,25 / 25,630038,2019-11-08 10:07:47:649,-1.839,-2.5999,10.6598,-0.0419,-0.0016,9.8065,-0.133,0.3264,-0.1507,-27.62,-41.44,46.0,329.3,-79.32,-174.78
6301,52.798233,-1.386064,134.09,25.35,4,74.83,25 / 25,630138,2019-11-08 10:07:47:749,2.4871,0.3931,10.5289,-0.0035,0.0371,9.8065,-0.2337,0.2436,-0.0683,-26.94,-40.94,45.19,330.08,-79.42,-174.42
6302,52.798233,-1.386064,134.09,25.35,4,74.83,25 / 25,630238,2019-11-08 10:07:47:849,-2.408,-0.002,9.7811,0.039,-0.0007,9.8065,-0.0765,-0.0377,0.1342,-27.31,-41.31,45.0,329.31,-79.57,-175.15
6303,52.798233,-1.386064,134.09,25.35,4,74.83,25 / 25,630338,2019-11-08 10:07:47:949,-1.5724,-0.4864,10.1231,0.0353,-0.0027,9.8065,-0.0467,-0.1169,0.2042,-27.56,-41.12,43.69,329.18,-79.76,-173.82
6304,52.798233,-1.386064,134.09,25.35,4,74.83,25 / 25,630439,2019-11-08 10:07:48:050,-1.3411,-0.1307,9.9221,0.0113,0.0313,9.8066,0.2146,-0.3124,0.0999,-26.62,-41.94,42.69,329.52,-79.89,-173.72
6305,52.798233,-1.386064,134.09,25.35,4,74.83,24 / 25,630538,2019-11-08 10:07:48:149,-1.0195,0.0679,10.1453,-0.0099,-0.0058,9.8066,0.2836,-0.2446,0.0491,-26.62,-41.06,42.94,330.34,-79.86,-173.1
6306,52.798233,-1.386064,134.09,25.35,4,74.83,24 / 25,630639,2019-11-08 10:07:48:250,2.2063,2.2237,10.3166,-0.0423,0.0308,9.8064,0.1636,-0.0846,-0.1032,-25.87,-41.94,42.0,331.23,-79.84,-172.48
6307,52.798233,-1.386064,134.09,25.35,4,74.83,24 / 25,630739,2019-11-08 10:07:48:350,0.6251,-0.3447,8.7477,-0.0697,-0.0088,9.8063,-0.0023,0.1107,-0.1914,-25.56,-41.25,41.44,329.46,-79.82,-173.4
6308,52.798233,-1.386064,134.09,25.35,4,74.83,24 / 25,630838,2019-11-08 10:07:48:449,3.325,1.8202,9.6241,-0.0295,-0.0198,9.8066,-0.0697,0.4252,-0.219,-23.81,-42.62,41.25,333.33,-80.05,-171.95
6309,52.798233,-1.386064,134.09,25.35,4,74.83,24 / 25,630938,2019-11-08 10:07:48:549,0.1445,0.5768,9.7221,-0.0062,0.0133,9.8065,-0.0732,0.4044,-0.2986,-23.12,-41.94,41.63,334.23,-80.11,-172.96
6310,52.798233,-1.386064,134.09,25.35,4,74.83,24 / 25,631038,2019-11-08 10:07:48:649,-2.0874,-2.2857,11.8211,0.0018,-0.0491,9.8065,-0.1777,0.3153,-0.1085,-21.56,-41.87,42.31,334.39,-80.32,-173.94
6311,52.798233,-1.386064,134.09,25.35,4,74.83,24 / 25,631138,2019-11-08 10:07:48:749,2.0968,-0.4992,10.0419,0.0351,0.006,9.8066,-0.0584,0.0328,-0.0082,-21.5,-42.56,42.94,338.03,-80.18,-172.36
6312,52.798233,-1.386064,134.09,25.35,4,74.83,24 / 25,631238,2019-11-08 10:07:48:849,-3.7658,-2.0415,9.9541,-0.004,0.0196,9.8066,0.1013,-0.0425,0.0526,-22.0,-42.62,43.81,337.21,-80.3,-172.66
6313,52.798233,-1.386064,134.09,25.35,4,74.83,24 / 25,631338,2019-11-08 10:07:48:949,1.1861,0.8868,9.9259,0.0412,0.0443,9.8064,0.0933,-0.1859,0.0485,-21.12,-43.0,44.31,338.02,-80.09,-172.91
6314,52.798233,-1.386064,134.09,25.35,4,74.83,24 / 25,631438,2019-11-08 10:07:49:049,-2.5253,-2.9865,10.6849,0.0116,0.0408,9.8065,0.1064,-0.5234,0.1635,-21.31,-42.12,46.06,336.16,-80.13,-175.68
6315,52.798233,-1.386064,134.09,25.35,4,74.83,26 / 26,631539,2019-11-08 10:07:49:150,-0.2231,0.7001,8.8321,-0.0127,0.0282,9.8065,0.0523,-0.5818,0.3451,-21.56,-42.87,45.88,335.18,-80.23,-175.49
6316,52.798233,-1.386064,134.09,25.35,4,74.83,26 / 26,631638,2019-11-08 10:07:49:249,5.0764,2.7454,10.0342,0.0454,0.0298,9.8064,-0.0481,-0.1662,0.0729,-22.0,-42.5,45.75,337.08,-80.4,-173.99
6317,52.798233,-1.386064,134.09,25.35,4,74.83,26 / 26,631738,2019-11-08 10:07:49:349,-3.5447,-1.6502,10.1778,-0.0339,-0.0483,9.8064,-0.0685,0.1157,-0.0326,-21.75,-42.0,46.31,334.69,-80.44,-176.08
6318,52.798233,-1.386064,134.09,25.35,4,74.83,26 / 26,631838,2019-11-08 10:07:49:449,2.5478,1.1782,10.4348,-0.0113,-0.0052,9.8066,-0.0122,0.3333,-0.2196,-22.44,-42.69,46.5,336.93,-80.33,-174.56
6319,52.798233,-1.386064,134.09,25.35,4,74.83,26 / 26,631938,2019-11-08 10:07:49:549,-3.3716,-2.2811,9.2226,-0.0491,-0.0325,9.8065,-0.0187,0.434,-0.2685,-23.25,-42.5,46.06,335.2,-80.36,-174.63
6320,52.798233,-1.386064,134.09,25.35,4,74.83,26 / 26,632038,2019-11-08 10:07:49:649,0.3865,0.5497,9.6362,-0.0434,-0.0266,9.8064,-0.0571,0.5304,-0.4014,-23.94,-43.69,46.19,333.83,-80.38,-174.7
6321,52.798233,-1.386064,134.09,25.35,4,74.83,26 / 26,632138,2019-11-08 10:07:49:749,-6.3264,-3.4785,11.1771,-0.0364,-0.0433,9.8064,-0.1089,0.6435,-0.3475,-23.5,-43.87,47.38,336.89,-80.45,-173.6
6322,52.798233,-1.386064,134.09,25.35,4,74.83,26 / 26,632238,2019-11-08 10:07:49:849,-2.9133,-0.8849,9.9741,-0.0354,-0.0799,9.8062,-0.1005,0.0942,0.0113,-23.69,-43.94,47.44,337.86,-80.21,-171.72
6323,52.798233,-1.386064,134.09,25.35,4,74.83,26 / 26,632338,2019-11-08 10:07:49:949,3.8706,3.0999,10.0961,-0.0471,-0.055,9.8063,0.0461,-0.2965,0.1668,-23.56,-43.81,47.44,336.58,-80.13,-172.79
6324,52.798233,-1.386064,134.09,25.35,4,74.83,26 / 26,632438,2019-11-08 10:07:50:049,-1.4911,-0.5458,9.8993,-0.0108,-0.0232,9.8066,0.0433,-0.4869,0.3339,-24.12,-42.94,47.25,335.82,-80.05,-173.49
6325,52.798233,-1.386064,134.09,25.35,4,74.83,25 / 25,632539,2019-11-08 10:07:50:150,2.8089,1.6815,8.3034,-0.0505,-0.0579,9.8063,0.1449,-0.7352,0.4087,-24.19,-43.0,46.94,336.75,-79.99,-172.67
6326,52.798233,-1.386064,134.09,25.35,4,74.83,25 / 25,632638,2019-11-08 10:07:50:249,0.3637,-0.3809,9.8714,0.0473,0.0405,9.8064,0.104,-0.6332,0.3892,-24.37,-43.06,47.19,338.19,-80.15,-171.5
6327,52.798233,-1.386064,134.09,25.35,4,74.83,25 / 25,632738,2019-11-08 10:07:50:349,-2.6163,-0.9753,9.8632,0.0441,0.0294,9.8064,0.0689,-0.1088,0.1073,-24.37,-42.5,47.06,337.55,-80.22,-172.14
6328,52.798233,-1.386064,134.09,25.35,4,74.83,25 / 25,632838,2019-11-08 10:07:50:449,-5.549,-2.3911,10.9413,0.057,0.0481,9.8063,-0.0912,-0.0091,-0.04,-24.44,-43.06,47.0,334.62,-80.17,-174.58
6329,52.798233,-1.386064,134.09,25.35,4,74.83,25 / 25,632939,2019-11-08 10:07:50:550,-3.0004,-0.7993,10.5823,-0.0251,-0.031,9.8065,-0.0358,0.5324,-0.4668,-24.37,-42.25,46.81,335.07,-79.96,-174.18
6330,52.798233,-1.386064,134.09,25.35,4,74.83,25 / 25,633038,2019-11-08 10:07:50:649,6.4879,3.7284,9.205,0.0559,0.0415,9.8063,-0.1146,0.7765,-0.5731,-24.75,-42.31,47.31,332.74,-79.85,-175.22
6331,52.798233,-1.386064,134.09,25.35,4,74.83,25 / 25,633139,2019-11-08 10:07:50:750,-3.6566,-2.1532,9.6497,-0.0547,-0.0326,9.8064,-0.0242,0.7752,-0.3468,-24.31,-42.56,46.94,334.32,-79.94,-174.74
6332,52.798233,-1.386064,134.09,25.35,4,74.83,25 / 25,633239,2019-11-08 10:07:50:850,5.8652,3.7424,10.2311,-0.0349,-0.0211,9.8065,0.0109,0.5116,-0.4264,-24.69,-42.31,47.06,332.82,-79.99,-175.22
6333,52.798233,-1.386064,134.09,25.35,4,74.83,25 / 25,633339,2019-11-08 10:07:50:950,-0.1216,0.3583,8.8589,-0.062,-0.06,9.8062,0.1251,0.1255,-0.0873,-24.19,-41.94,46.5,332.56,-79.94,-176.34
6334,52.798233,-1.386064,134.09,25.35,4,74.83,25 / 25,633439,2019-11-08 10:07:51:050,5.358,6.0299,7.5297,-0.0463,-0.082,9.8061,0.2121,-0.317,0.0875,-24.62,-43.0,46.25,333.05,-79.72,-174.23
6335,52.798233,-1.386064,134.09,25.35,4,74.83,26 / 26,633538,2019-11-08 10:07:51:149,2.6505,2.2125,9.857,-0.0165,-0.0587,9.8064,0.1518,-0.9211,0.5683,-25.25,-42.81,46.25,332.46,-79.8,-174.78
6336,52.798233,-1.386064,134.09,25.35,4,74.83,26 / 26,633644,2019-11-08 10:07:51:255,-5.8269,-3.1453,10.1561,-0.0352,-0.0395,9.8065,0.102,-0.8236,0.5063,-25.0,-42.94,46.38,332.93,-79.82,-174.38
6337,52.798233,-1.386064,134.09,25.35,4,74.83,26 / 26,633739,2019-11-08 10:07:51:350,4.7577,2.9404,9.8843,0.0716,0.0453,9.8062,-0.0102,-0.4485,0.3158,-24.81,-42.12,46.75,334.25,-79.85,-173.91
6338,52.798233,-1.386064,134.09,25.35,4,74.83,26 / 26,633838,2019-11-08 10:07:51:449,-2.5621,-1.442,10.336,0.0053,0.001,9.8066,-0.0706,-0.2847,0.2067,-24.62,-42.37,46.94,332.85,-79.88,-175.14
6339,52.798233,-1.386064,134.09,25.35,4,74.83,26 / 26,633938,2019-11-08 10:07:51:549,6.3298,3.4177,9.9129,0.07,0.0741,9.8061,-0.1675,0.1356,-0.0868,-24.94,-42.37,46.13,333.73,-79.95,-173.84
6340,52.798233,-1.386064,134.09,25.35,4,74.83,26 / 26,634038,2019-11-08 10:07:51:649,1.3715,0.9444,9.2155,0.0303,0.0699,9.8062,-0.1397,0.4047,-0.215,-24.12,-42.56,46.75,332.58,-80.24,-176.37
6341,52.798233,-1.386064,134.09,25.35,4,74.83,26 / 26,634138,2019-11-08 10:07:51:749,6.5202,3.8498,9.4558,0.0661,0.0136,9.8063,-0.1013,0.6877,-0.4896,-25.19,-42.56,46.06,332.2,-80.12,-175.15
6342,52.798233,-1.386064,134.09,25.35,4,74.83,26 / 26,634238,2019-11-08 10:07:51:849,-0.1895,1.4714,7.9,0.0526,0.0749,9.8061,-0.1425,0.7846,-0.4779,-24.87,-42.19,46.31,333.06,-80.09,-174.47
6343,52.798233,-1.386064,134.09,25.35,4,74.83,26 / 26,634338,2019-11-08 10:07:51:949,-3.9434,-3.9661,11.7911,-0.003,-0.0211,9.8065,-0.1643,0.8129,-0.4811,-25.12,-42.69,46.25,331.45,-80.33,-175.89
6344,52.798233,-1.386064,134.09,25.35,4,74.83,26 / 26,634438,2019-11-08 10:07:52:049,0.2919,0.1075,10.7537,0.0574,0.0303,9.8064,-0.1118,0.5899,-0.3871,-25.37,-42.44,46.31,331.63,-80.18,-175.75
6345,52.798233,-1.386064,134.09,25.35,4,74.83,25 / 25,634539,2019-11-08 10:07:52:150,-5.3625,-3.6296,11.9645,-0.0596,-0.0735,9.8062,-0.0495,-0.1325,0.0877,-25.25,-42.31,46.94,333.05,-80.03,-175.03
6346,52.798233,-1.386064,134.09,25.35,4,74.83,25 / 25,634638,2019-11-08 10:07:52:249,3.1141,1.3333,9.4048,-0.0411,-0.0115,9.8065,-0.0193,-0.2702,0.2963,-25.37,-42.87,47.56,336.58,-80.01,-172.44
6347,52.798233,-1.386064,134.09,25.35,4,74.83,25 / 25,634738,2019-11-08 10:07:52:349,-0.5213,0.3222,9.4522,-0.0525,-0.0582,9.8063,0.1125,-0.6359,0.3413,-24.69,-42.44,47.19,334.14,-80.23,-174.17
6348,52.798233,-1.386064,134.09,25.35,4,74.83,25 / 25,634838,2019-11-08 10:07:52:449,4.735,3.0106,10.1299,-0.031,-0.0422,9.8065,0.0128,-0.5787,0.3669,-24.87,-42.62,46.81,334.15,-80.3,-174.11
6349,52.798233,-1.386064,134.09,25.35,4,74.83,25 / 25,634939,2019-11-08 10:07:52:550,-2.0069,-0.5998,8.5872,-0.0467,0.0044,9.8065,-0.0571,-0.6778,0.4131,-23.75,-42.75,47.0,334.32,-80.13,-174.82
6350,52.798233,-1.386064,134.09,25.35,4,74.83,25 / 25,635039,2019-11-08 10:07:52:650,3.7712,1.7041,8.8248,-0.0462,-0.0793,9.8061,-0.0133,-0.4921,0.4377,-24.5,-42.31,45.88,335.25,-79.99,-173.48
6351,52.798233,-1.386064,134.09,25.35,4,74.83,25 / 25,635139,2019-11-08 10:07:52:750,-2.7449,-1.2581,10.0778,-0.016,-0.0047,9.8066,0.0045,-0.2729,0.1695,-24.5,-42.75,46.38,334.19,-79.94,-174.29
6352,52.798233,-1.386064,134.09,25.35,4,74.83,25 / 25,635239,2019-11-08 10:07:52:850,-1.7951,-0.5907,10.3625,-0.0366,-0.0365,9.8065,-0.0066,-0.2,0.1243,-24.75,-42.69,47.13,333.72,-79.92,-174.32
6353,52.798233,-1.386064,134.09,25.35,4,74.83,25 / 25,635338,2019-11-08 10:07:52:949,2.0737,3.9262,9.0805,0.0273,0.0115,9.8065,-0.0686,0.0552,-0.052,-25.06,-42.75,46.94,335.11,-79.82,-173.08
6354,52.798233,-1.386064,134.09,25.35,4,74.83,25 / 25,635438,2019-11-08 10:07:53:049,-0.8897,0.2962,10.5668,-0.0285,-0.0067,9.8065,-0.089,0.3552,-0.2155,-24.87,-42.75,46.94,335.13,-79.85,-173.08
6355,52.798233,-1.386064,134.09,25.35,4,74.83,25 / 25,635539,2019-11-08 10:07:53:150,3.2571,2.6638,9.6262,-0.0417,-0.0443,9.8064,-0.0729,0.3527,-0.2541,-25.0,-42.19,45.44,333.74,-79.8,-173.17
6356,52.798233,-1.386064,134.09,25.35,4,74.83,25 / 25,635639,2019-11-08 10:07:53:250,-3.2893,-0.4413,9.5249,-0.0117,0.0195,9.8066,-0.0797,0.4311,-0.3002,-25.69,-42.69,46.56,333.13,-79.78,-173.86
6357,52.798233,-1.386064,134.09,25.35,4,74.83,25 / 25,635738,2019-11-08 10:07:53:349,3.9513,1.0646,8.7925,0.0331,0.0476,9.8064,-0.0245,0.4367,-0.3396,-25.31,-43.12,47.19,334.77,-79.68,-173.31
6358,52.798233,-1.386064,134.09,25.35,4,74.83,25 / 25,635838,2019-11-08 10:07:53:449,-3.7272,0.6725,8.6165,0.0148,0.023,9.8065,0.1174,0.2203,-0.0865,-25.19,-42.19,47.0,335.66,-79.84,-172.7
6359,52.798233,-1.386064,134.09,25.35,4,74.83,25 / 25,635938,2019-11-08 10:07:53:549,-3.7014,0.8133,11.9952,0.0545,-0.0212,9.8064,0.1164,0.0294,-0.093,-24.69,-42.0,46.69,335.75,-80.14,-172.73
6360,52.798233,-1.386064,134.09,25.35,4,74.83,25 / 25,636038,2019-11-08 10:07:53:649,-4.0234,0.0468,7.8619,0.0435,0.0361,9.8064,0.4221,-0.2583,0.1426,-25.37,-42.56,46.63,333.76,-80.08,-174.35
6361,52.798233,-1.386064,134.09,25.35,4,74.83,25 / 25,636138,2019-11-08 10:07:53:749,1.7689,-0.239,10.5245,0.0722,-0.0628,9.8061,0.2132,-0.2899,-0.0711,-25.69,-41.75,46.38,334.36,-80.32,-172.52
6362,52.798233,-1.386064,134.09,25.35,4,74.83,25 / 25,636239,2019-11-08 10:07:53:850,-1.392,0.822,8.1727,-0.0288,0.0823,9.8062,0.1373,-0.1485,-0.1884,-25.37,-42.12,47.38,335.5,-80.27,-173.0
6363,52.798233,-1.386064,134.09,25.35,4,74.83,25 / 25,636338,2019-11-08 10:07:53:949,3.8392,0.9717,9.8998,-0.0297,-0.0292,9.8065,0.0372,-0.37,0.3465,-25.25,-42.06,47.13,333.86,-79.98,-174.31
6364,52.798233,-1.386064,134.09,25.35,4,74.83,25 / 25,636438,2019-11-08 10:07:54:049,0.6464,2.5484,8.6549,0.0413,0.057,9.8063,0.0447,-0.5748,0.4506,-25.25,-42.31,46.88,335.91,-80.0,-172.54
6365,52.798233,-1.386064,134.09,25.35,4,74.83,24 / 25,636539,2019-11-08 10:07:54:150,-6.8253,0.9312,9.1914,0.059,0.0473,9.8063,-0.0665,-0.5416,0.4091,-25.44,-42.0,47.0,334.11,-80.29,-174.22
6366,52.798233,-1.386064,134.09,25.35,4,74.83,24 / 25,636639,2019-11-08 10:07:54:250,-1.4789,2.0803,8.7431,0.0466,-0.0339,9.8064,0.1465,-0.6242,0.3298,-25.31,-41.87,46.81,334.31,-79.86,-173.87
6367,52.798233,-1.386064,134.09,25.35,4,74.83,24 / 25,636738,2019-11-08 10:07:54:349,-4.2725,-3.297,11.9159,-0.0182,-0.0976,9.8061,0.0781,-0.4435,0.3327,-25.19,-41.69,48.0,332.99,-79.78,-175.54
6368,52.798233,-1.386064,134.09,25.35,4,74.83,24 / 25,636838,2019-11-08 10:07:54:449,1.0647,1.7455,8.7506,0.0089,-0.0411,9.8065,0.0398,-0.2298,0.0506,-25.19,-41.87,47.13,333.4,-79.76,-174.61
6369,52.798233,-1.386064,134.09,25.35,4,74.83,24 / 25,636938,2019-11-08 10:07:54:549,-4.097,-2.8404,10.3061,-0.0394,-0.0532,9.8064,0.0538,-0.1647,-0.0288,-25.31,-41.94,46.88,333.56,-79.96,-174.56
6370,52.798233,-1.386064,134.09,25.35,4,74.83,24 / 25,637038,2019-11-08 10:07:54:649,2.5272,2.2072,10.0164,-0.0293,-0.0643,9.8063,-0.0464,0.3508,-0.3077,-25.87,-42.75,46.81,334.21,-79.85,-172.96
6371,52.798233,-1.386064,134.09,25.35,4,74.83,24 / 25,637138,2019-11-08 10:07:54:749,2.0438,3.3503,9.7067,-0.0079,-0.0128,9.8066,-0.0993,0.5161,-0.3515,-24.94,-41.75,46.75,334.09,-79.96,-174.1
6372,52.798233,-1.386064,134.09,25.35,4,74.83,24 / 25,637238,2019-11-08 10:07:54:849,1.9289,2.3108,10.1003,-0.0341,-0.0471,9.8064,0.0188,0.5287,-0.426,-24.62,-42.62,46.69,334.77,-79.58,-173.27
6373,52.798233,-1.386064,134.09,25.35,4,74.83,24 / 25,637338,2019-11-08 10:07:54:949,2.2391,2.3638,8.347,0.0173,0.0365,9.8065,-0.0756,0.5668,-0.374,-24.94,-42.31,46.81,333.95,-79.29,-173.94
6374,52.798233,-1.386064,134.09,25.35,4,74.83,24 / 25,637438,2019-11-08 10:07:55:049,-4.1114,-1.9537,10.6411,-0.0192,-0.0419,9.8065,-0.1485,0.2984,-0.1311,-24.87,-42.06,47.5,334.7,-79.15,-173.8
6375,52.798233,-1.386064,134.09,25.35,4,74.83,25 / 25,637538,2019-11-08 10:07:55:149,0.4992,1.3287,9.5516,-0.0367,-0.051,9.8064,-0.0468,0.2594,-0.0657,-24.81,-42.25,47.06,334.93,-79.13,-173.04
6376,52.798233,-1.386064,134.09,25.35,4,74.83,25 / 25,637639,2019-11-08 10:07:55:250,-6.6956,-3.866,10.0518,0.0258,0.0199,9.8066,0.1602,-0.2791,0.2341,-25.44,-42.0,47.25,333.09,-79.15,-174.62
6377,52.798233,-1.386064,134.09,25.35,4,74.83,25 / 25,637739,2019-11-08 10:07:55:350,0.2814,0.8193,10.6993,0.0646,0.0713,9.8061,0.1717,-0.6036,0.4204,-25.69,-41.81,47.25,333.34,-78.78,-173.34
6378,52.798233,-1.386064,134.09,25.35,4,74.83,25 / 25,637839,2019-11-08 10:07:55:450,-5.9225,-3.3646,11.7751,0.0385,0.0709,9.8063,0.2153,-0.8364,0.441,-24.62,-41.94,47.13,333.91,-78.7,-173.72
6379,52.798233,-1.386064,134.09,25.35,4,74.83,25 / 25,637938,2019-11-08 10:07:55:549,-2.3957,-1.0589,10.098,-0.0207,-0.0263,9.8065,0.1705,-0.714,0.3837,-24.75,-42.56,47.31,331.87,-78.8,-175.4
6380,52.798233,-1.386064,134.09,25.35,4,74.83,25 / 25,638038,2019-11-08 10:07:55:649,5.3581,3.6454,9.6572,0.0185,0.038,9.8065,0.0459,-0.1114,0.0105,-24.81,-41.87,46.81,332.18,-78.79,-175.24
6381,52.798233,-1.386064,134.09,25.35,4,74.83,25 / 25,638138,2019-11-08 10:07:55:749,-1.8746,-1.494,10.1013,-0.0568,-0.0672,9.8062,-0.1306,0.1192,-0.1888,-25.37,-41.69,47.5,331.87,-78.9,-176.12
6382,52.798233,-1.386064,134.09,25.35,4,74.83,25 / 25,638238,2019-11-08 10:07:55:849,4.868,5.6531,8.9516,-0.0058,-0.0129,9.8066,-0.1198,0.7291,-0.4252,-24.94,-42.44,46.88,332.39,-78.94,-175.12
6383,52.798233,-1.386064,134.09,25.35,4,74.83,25 / 25,638338,2019-11-08 10:07:55:949,0.7326,3.4806,7.5583,-0.0225,-0.0248,9.8066,-0.1506,0.8285,-0.4517,-24.56,-41.62,47.63,331.83,-78.95,-176.17
6384,52.798233,-1.386064,134.09,25.35,4,74.83,25 / 25,638438,2019-11-08 10:07:56:049,3.5462,3.9764,8.8615,-0.0404,-0.0724,9.8062,-0.1704,0.4225,-0.2544,-24.81,-41.87,47.38,330.25,-79.12,-177.04
6385,52.798695,-1.382664,132.72,25.35,4,80.65,23 / 25,638538,2019-11-08 10:07:56:149,0.4619,2.2536,9.5794,-0.0434,-0.0422,9.8064,-0.0466,0.24,-0.0871,-25.12,-42.5,47.75,333.39,-78.84,-174.79
6386,52.798695,-1.382664,132.72,25.35,4,80.65,23 / 25,638639,2019-11-08 10:07:56:250,-5.3415,-1.5154,10.1368,-0.0331,-0.0225,9.8065,0.0113,-0.3406,0.1882,-25.69,-42.44,47.69,333.42,-78.71,-173.81
6387,52.798695,-1.382664,132.72,25.35,4,80.65,23 / 25,638739,2019-11-08 10:07:56:350,0.1398,2.2129,9.0167,0.0624,0.0435,9.8063,0.0236,-0.4247,0.3071,-25.69,-41.94,47.75,334.01,-78.74,-173.32
6388,52.798695,-1.382664,132.72,25.35,4,80.65,23 / 25,638839,2019-11-08 10:07:56:450,-4.9891,-1.6836,10.9616,0.0152,0.0283,9.8066,0.1147,-0.6034,0.2866,-24.56,-42.12,48.0,333.38,-78.72,-174.75
6389,52.798695,-1.382664,132.72,25.35,4,80.65,23 / 25,638939,2019-11-08 10:07:56:550,-2.0236,1.84,10.8634,0.048,0.0276,9.8065,0.017,-0.3657,0.2531,-25.31,-42.12,47.56,332.4,-78.72,-175.58
6390,52.798695,-1.382664,132.72,25.35,4,80.65,23 / 25,639039,2019-11-08 10:07:56:650,-3.1067,0.1018,10.7031,0.0325,0.0398,9.8064,-0.0497,-0.0816,0.1877,-25.19,-42.62,47.63,330.78,-78.7,-176.85
6391,52.798695,-1.382664,132.72,25.35,4,80.65,23 / 25,639139,2019-11-08 10:07:56:750,-2.376,1.1776,8.6634,-0.039,0.0043,9.8065,-0.0572,0.1764,-0.108,-25.31,-42.25,47.44,331.44,-78.68,-175.81
6392,52.798695,-1.382664,132.72,25.35,4,80.65,23 / 25,639239,2019-11-08 10:07:56:850,0.7222,2.737,7.6777,-0.0402,0.0478,9.8064,-0.0754,0.1607,-0.1447,-24.37,-42.0,47.19,334.38,-79.16,-174.45
6393,52.798695,-1.382664,132.72,25.35,4,80.65,23 / 25,639339,2019-11-08 10:07:56:950,-1.2124,2.1263,8.8744,0.0121,0.0439,9.8065,-0.0206,0.173,-0.1376,-25.19,-42.5,47.88,334.09,-79.35,-174.4
6394,52.798695,-1.382664,132.72,25.35,4,80.65,23 / 25,639438,2019-11-08 10:07:57:049,0.3353,3.9425,9.6269,0.0021,0.0063,9.8066,0.024,0.3222,-0.177,-24.5,-42.62,47.44,333.86,-79.39,-174.9
6395,52.798695,-1.382664,132.72,25.35,4,80.65,22 / 23,639538,2019-11-08 10:07:57:149,-2.1576,1.3333,10.5015,0.0163,-0.0062,9.8066,0.0252,0.0454,-0.0491,-24.69,-42.31,47.81,332.64,-79.22,-175.6
6396,52.798695,-1.382664,132.72,25.35,4,80.65,22 / 23,639639,2019-11-08 10:07:57:250,-1.216,0.5677,10.8782,-0.0163,-0.0273,9.8065,0.0179,-0.0311,0.0071,-24.19,-42.12,47.38,334.47,-79.01,-174.31
6397,52.798695,-1.382664,132.72,25.35,4,80.65,22 / 23,639739,2019-11-08 10:07:57:350,-1.1326,0.3165,9.897,0.0102,-0.0028,9.8066,-0.0644,-0.1189,0.1094,-24.94,-42.37,47.31,333.5,-78.95,-174.18
6398,52.798695,-1.382664,132.72,25.35,4,80.65,22 / 23,639839,2019-11-08 10:07:57:450,-1.2423,1.1485,9.5762,-0.0129,-0.0107,9.8066,-0.0792,-0.1504,0.1457,-24.69,-42.19,47.75,334.48,-78.95,-173.91
6399,52.798695,-1.382664,132.72,25.35,4,80.65,22 / 23,639939,2019-11-08 10:07:57:550,0.6196,1.4815,9.9348,0.0041,0.0092,9.8066,-0.0163,-0.1052,0.1045,-24.44,-42.31,48.19,335.56,-78.82,-173.85
6400,52.798695,-1.382664,132.72,25.35,4,80.65,22 / 23,640038,2019-11-08 10:07:57:649,-0.8848,0.467,9.5786,-0.0091,0.0016,9.8066,0.05,-0.1085,0.044,-25.12,-42.25,48.19,333.97,-78.86,-174.3
6401,52.798695,-1.382664,132.72,25.35,4,80.65,22 / 23,640138,2019-11-08 10:07:57:749,-0.292,1.9886,9.6482,-0.004,0.0183,9.8066,0.0023,0.0405,-0.0988,-24.44,-42.25,47.06,334.8,-78.89,-173.98
6402,52.798695,-1.382664,132.72,25.35,4,80.65,22 / 23,640238,2019-11-08 10:07:57:849,-0.8694,1.4323,9.2296,0.0056,0.0109,9.8065,-0.051,0.0958,0.0044,-24.94,-41.94,47.5,334.48,-79.02,-173.93
6403,52.798695,-1.382664,132.72,25.35,4,80.65,22 / 23,640338,2019-11-08 10:07:57:949,-0.9017,1.5498,9.6104,-0.0012,-0.0099,9.8066,-0.0767,0.1331,-0.0431,-25.37,-41.81,47.44,333.23,-79.01,-174.44
6404,52.798695,-1.382664,132.72,25.35,4,80.65,22 / 23,640438,2019-11-08 10:07:58:049,1.2981,0.7195,10.138,0.0026,-0.0007,9.8065,-0.033,0.0917,-0.0864,-24.62,-41.75,47.81,333.18,-78.85,-174.97
6405,52.798695,-1.382664,132.72,25.35,4,80.65,23 / 25,640538,2019-11-08 10:07:58:149,-1.9111,0.2325,8.9551,0.0125,0.0045,9.8066,0.0744,0.0387,-0.0368,-24.87,-41.62,48.0,333.08,-78.78,-175.03
6406,52.798695,-1.382664,132.72,25.35,4,80.65,23 / 25,640638,2019-11-08 10:07:58:249,-0.6609,1.0587,9.2464,-0.0104,-0.0044,9.8065,0.0429,0.0805,-0.0039,-24.69,-41.25,47.56,334.53,-79.04,-173.99
6407,52.798695,-1.382664,132.72,25.35,4,80.65,23 / 25,640738,2019-11-08 10:07:58:349,-1.2109,0.0258,10.7004,-0.0071,-0.025,9.8066,0.0467,-0.1588,-0.0289,-24.69,-40.37,48.13,334.68,-79.17,-173.99
6408,52.798695,-1.382664,132.72,25.35,4,80.65,23 / 25,640838,2019-11-08 10:07:58:449,-2.0014,0.5819,9.9244,-0.0048,-0.0117,9.8066,0.0399,-0.1561,0.0656,-25.87,-40.0,47.38,334.16,-79.02,-172.92
6409,52.798695,-1.382664,132.72,25.35,4,80.65,23 / 25,640939,2019-11-08 10:07:58:550,-2.1114,-0.7021,9.9362,-0.0144,0.0085,9.8066,-0.0024,-0.1865,0.2118,-25.5,-39.06,47.88,335.92,-78.94,-172.93
6410,52.798695,-1.382664,132.72,25.35,4,80.65,23 / 25,641039,2019-11-08 10:07:58:650,-0.4368,1.4397,9.8007,-0.0211,-0.008,9.8066,0.0274,-0.0777,0.1287,-25.75,-38.0,47.56,334.37,-79.13,-173.52
6411,52.798695,-1.382664,132.72,25.35,4,80.65,23 / 25,641139,2019-11-08 10:07:58:750,-1.223,0.903,8.505,-0.0223,-0.0039,9.8065,0.1246,-0.0251,-0.0516,-25.69,-38.44,48.25,335.29,-79.36,-172.8
6412,52.798695,-1.382664,132.72,25.35,4,80.65,23 / 25,641239,2019-11-08 10:07:58:850,-0.9112,1.3841,8.2956,0.0265,-0.0239,9.8065,0.1819,-0.0597,-0.0632,-25.25,-39.19,48.31,337.34,-79.37,-171.85
6413,52.798695,-1.382664,132.72,25.35,4,80.65,23 / 25,641338,2019-11-08 10:07:58:949,-0.4749,0.6723,11.0305,0.0222,-0.0094,9.8065,0.1542,0.041,-0.0829,-24.81,-40.37,47.69,337.43,-79.5,-171.75
6414,52.798695,-1.382664,132.72,25.35,4,80.65,23 / 25,641438,2019-11-08 10:07:59:049,-0.6887,0.6758,9.7708,0.0269,0.014,9.8066,0.0663,-0.0201,-0.1303,-24.87,-41.0,48.0,335.33,-79.55,-173.5
6415,52.798695,-1.382664,132.72,25.35,4,80.65,23 / 23,641538,2019-11-08 10:07:59:149,-0.8582,0.3923,10.1983,-0.0019,0.0064,9.8066,-0.0256,-0.0512,0.0263,-25.44,-42.19,47.75,334.21,-79.62,-174.41
6416,52.798695,-1.382664,132.72,25.35,4,80.65,23 / 23,641638,2019-11-08 10:07:59:249,0.5753,1.6151,9.9539,-0.0099,-0.0153,9.8066,0.0379,-0.1499,0.0916,-24.56,-42.12,47.63,333.3,-79.68,-175.22
6417,52.798695,-1.382664,132.72,25.35,4,80.65,23 / 23,641738,2019-11-08 10:07:59:349,-0.0513,1.5498,9.48,0.0108,-0.01,9.8066,0.0102,-0.027,0.0849,-24.75,-42.37,48.0,332.52,-79.67,-175.9
6418,52.798695,-1.382664,132.72,25.35,4,80.65,23 / 23,641839,2019-11-08 10:07:59:450,-1.6764,0.9228,8.8642,0.0181,-0.0066,9.8066,0.0292,0.0725,-0.0397,-24.56,-42.37,48.19,332.82,-79.64,-175.62
6419,52.798695,-1.382664,132.72,25.35,4,80.65,23 / 23,641939,2019-11-08 10:07:59:550,0.4663,1.7415,9.636,-0.0134,0.0011,9.8066,0.0036,0.0434,-0.1642,-24.25,-42.69,48.44,335.07,-79.73,-174.56
6420,52.798695,-1.382664,132.72,25.35,4,80.65,23 / 23,642038,2019-11-08 10:07:59:649,-0.2079,0.7041,10.3629,-0.0176,0.0019,9.8066,-0.0388,-0.0278,0.0891,-24.69,-42.75,48.38,333.07,-79.6,-175.3
6421,52.798695,-1.382664,132.72,25.35,4,80.65,23 / 23,642139,2019-11-08 10:07:59:750,-0.1991,0.4008,9.9877,0.0011,-0.0266,9.8065,-0.0205,0.0101,0.0346,-24.31,-42.56,48.13,335.17,-79.65,-174.43
6422,52.798695,-1.382664,132.72,25.35,4,80.65,23 / 23,642239,2019-11-08 10:07:59:850,-0.5856,2.5931,10.0293,-0.0019,-0.0061,9.8066,0.0506,-0.113,0.1054,-24.75,-43.06,48.25,334.43,-79.67,-174.16
6423,52.798695,-1.382664,132.72,25.35,4,80.65,23 / 23,642339,2019-11-08 10:07:59:950,-0.3742,-2.3469,11.1616,0.0068,0.0231,9.8065,0.0331,-0.1594,0.0245,-24.81,-42.94,48.06,334.37,-79.78,-174.25
6424,52.798695,-1.382664,132.72,25.35,4,80.65,23 / 23,642438,2019-11-08 10:08:00:049,-1.0025,1.2289,9.9716,-0.0165,0.0194,9.8066,-0.0825,-0.154,0.299,-24.44,-42.0,48.63,335.86,-79.98,-174.57
6425,52.798695,-1.382664,132.72,25.35,4,80.65,22 / 25,642538,2019-11-08 10:08:00:149,-1.5302,-0.3261,9.6335,0.0628,0.0309,9.8064,-0.0371,-0.1735,0.2353,-24.69,-42.62,48.69,332.79,-79.99,-176.25
6426,52.798695,-1.382664,132.72,25.35,4,80.65,22 / 25,642638,2019-11-08 10:08:00:249,-0.1553,1.8466,9.2628,0.0191,0.003,9.8065,0.0354,-0.2804,0.1119,-24.37,-42.44,48.63,335.46,-79.98,-174.92
6427,52.798695,-1.382664,132.72,25.35,4,80.65,22 / 25,642739,2019-11-08 10:08:00:350,-2.675,-0.6704,9.8832,-0.0016,0.0057,9.8066,0.0232,-0.2558,0.0887,-24.37,-42.5,48.31,335.0,-80.04,-174.81
6428,52.798695,-1.382664,132.72,25.35,4,80.65,22 / 25,642841,2019-11-08 10:08:00:452,-1.2214,0.3523,10.4491,-0.0354,-0.0158,9.8065,-0.0616,-0.0184,0.0284,-24.12,-42.81,48.56,336.79,-80.09,-173.74
6429,52.798695,-1.382664,132.72,25.35,4,80.65,22 / 25,642938,2019-11-08 10:08:00:549,-2.3895,-0.5615,10.2308,-0.0225,0.0017,9.8066,-0.0708,0.0226,-0.0314,-24.75,-42.94,48.63,334.67,-80.01,-174.62
6430,52.798695,-1.382664,132.72,25.35,4,80.65,22 / 25,643038,2019-11-08 10:08:00:649,1.1679,1.6252,9.806,-0.021,-0.034,9.8065,-0.03,0.1255,0.0481,-24.62,-43.06,48.31,334.92,-79.97,-173.86
6431,52.798695,-1.382664,132.72,25.35,4,80.65,22 / 25,643139,2019-11-08 10:08:00:750,-0.2463,1.1752,9.8536,-0.0087,0.0094,9.8066,0.0277,0.1158,0.0019,-24.44,-42.56,48.5,336.23,-80.06,-174.21
6432,52.798695,-1.382664,132.72,25.35,4,80.65,22 / 25,643238,2019-11-08 10:08:00:849,-0.2472,0.2167,10.6457,-0.0209,0.0146,9.8066,-0.0689,0.0926,-0.0803,-24.56,-42.5,48.88,335.28,-80.06,-174.2
6433,52.798695,-1.382664,132.72,25.35,4,80.65,22 / 25,643338,2019-11-08 10:08:00:949,-0.1606,2.2784,9.3661,-0.004,0.0282,9.8065,-0.0405,0.0401,-0.0657,-24.44,-42.12,48.38,336.0,-80.13,-173.98
6434,52.798695,-1.382664,132.72,25.35,4,80.65,22 / 25,643438,2019-11-08 10:08:01:049,-0.7994,2.0889,9.2022,0.0021,0.0166,9.8066,0.1043,-0.0002,-0.0135,-24.75,-42.81,48.75,334.8,-80.31,-174.63
6435,52.798695,-1.382664,132.72,25.35,4,80.65,24 / 24,643538,2019-11-08 10:08:01:149,-0.2198,2.633,8.4216,-0.0117,0.022,9.8066,0.2061,-0.0013,-0.0709,-24.62,-42.69,48.44,333.73,-80.27,-175.01
6436,52.798695,-1.382664,132.72,25.35,4,80.65,24 / 24,643638,2019-11-08 10:08:01:249,-0.1122,0.449,9.6713,-0.0176,0.0299,9.8065,-0.0105,-0.0072,0.0119,-24.44,-42.44,48.81,335.09,-80.31,-175.37
6437,52.798695,-1.382664,132.72,25.35,4,80.65,24 / 24,643738,2019-11-08 10:08:01:349,0.0035,0.2685,9.5284,-0.0182,0.0075,9.8065,0.0057,-0.0551,0.0355,-24.69,-42.56,48.13,334.22,-80.32,-174.6
6438,52.798695,-1.382664,132.72,25.35,4,80.65,24 / 24,643838,2019-11-08 10:08:01:449,-0.4138,1.1874,9.091,0.0082,-0.0219,9.8066,-0.1291,-0.0818,0.0349,-24.62,-42.69,48.63,335.92,-80.44,-173.71
6439,52.798695,-1.382664,132.72,25.35,4,80.65,24 / 24,643938,2019-11-08 10:08:01:549,-1.7397,0.0608,11.9193,-0.0104,-0.0352,9.8066,-0.1543,-0.1108,0.115,-24.75,-42.25,48.69,336.08,-80.35,-173.6
6440,52.798695,-1.382664,132.72,25.35,4,80.65,24 / 24,644038,2019-11-08 10:08:01:649,-0.0781,0.7762,9.2085,0.0254,-0.0252,9.8066,-0.0171,0.0794,-0.0141,-24.12,-42.37,48.38,337.47,-80.27,-172.76
6441,52.798695,-1.382664,132.72,25.35,4,80.65,24 / 24,644138,2019-11-08 10:08:01:749,-2.2236,-0.2667,8.9766,-0.0508,0.047,9.8064,0.0534,0.1686,-0.1267,-24.69,-41.69,48.25,337.47,-80.59,-171.96
6442,52.798695,-1.382664,132.72,25.35,4,80.65,24 / 24,644239,2019-11-08 10:08:01:850,-0.7418,1.971,10.1914,-0.0574,0.0122,9.8064,0.1937,0.1929,-0.2062,-24.31,-42.19,48.69,339.96,-80.7,-171.26
6443,52.798695,-1.382664,132.72,25.35,4,80.65,24 / 24,644339,2019-11-08 10:08:01:950,3.6538,1.1766,9.6626,-0.0122,0.0454,9.8065,0.2412,0.2777,-0.2444,-25.12,-41.94,48.19,337.94,-80.61,-171.55
6444,52.798695,-1.382664,132.72,25.35,4,80.65,24 / 24,644439,2019-11-08 10:08:02:050,1.1363,0.6124,10.6557,-0.064,0.0137,9.8064,0.1266,0.0439,-0.2152,-25.25,-42.37,48.75,337.34,-80.56,-172.59
6445,52.798695,-1.382664,132.72,25.35,4,80.65,23 / 25,644540,2019-11-08 10:08:02:151,-0.5319,1.0262,10.0169,-0.008,-0.0252,9.8066,0.0981,-0.0465,-0.117,-25.12,-42.5,48.63,338.77,-80.73,-171.39
6446,52.798695,-1.382664,132.72,25.35,4,80.65,23 / 25,644639,2019-11-08 10:08:02:250,-2.1569,-0.2917,9.5702,0.0124,-0.0001,9.8066,0.0,-0.1526,0.1011,-24.62,-42.69,48.38,338.89,-80.81,-170.73
6447,52.798695,-1.382664,132.72,25.35,4,80.65,23 / 25,644739,2019-11-08 10:08:02:350,-1.5691,0.5988,9.9723,-0.0055,-0.0021,9.8065,-0.0094,-0.1808,0.1368,-24.56,-42.62,49.0,339.72,-80.86,-170.54
6448,52.798695,-1.382664,132.72,25.35,4,80.65,23 / 25,644838,2019-11-08 10:08:02:449,1.1064,2.0309,9.5606,0.0174,-0.0015,9.8066,-0.106,-0.0437,0.0088,-24.87,-42.5,48.75,340.4,-80.97,-170.04
6449,52.798695,-1.382664,132.72,25.35,4,80.65,23 / 25,644939,2019-11-08 10:08:02:550,-2.8129,-0.0736,10.4237,-0.0116,-0.0517,9.8065,-0.1365,0.104,-0.0273,-25.0,-42.5,48.44,339.13,-81.06,-170.66
6450,52.798695,-1.382664,132.72,25.35,4,80.65,23 / 25,645039,2019-11-08 10:08:02:650,-1.7594,-0.7692,8.5225,0.0045,-0.0208,9.8066,-0.13,-0.096,0.11,-25.69,-42.81,48.69,340.6,-80.97,-168.91
6451,52.798695,-1.382664,132.72,25.35,4,80.65,23 / 25,645138,2019-11-08 10:08:02:749,1.438,1.761,11.2579,0.041,0.0056,9.8065,-0.1623,-0.2768,0.2279,-25.12,-42.44,48.5,343.5,-81.19,-167.38
6452,52.798695,-1.382664,132.72,25.35,4,80.65,23 / 25,645238,2019-11-08 10:08:02:849,-1.8933,-0.843,10.7984,0.0868,-0.0053,9.8062,-0.0595,-0.3946,0.4467,-25.12,-42.37,48.56,341.4,-81.21,-169.23
6453,52.798695,-1.382664,132.72,25.35,4,80.65,23 / 25,645338,2019-11-08 10:08:02:949,4.4614,-1.6574,10.1132,0.0617,0.007,9.8064,-0.1189,-0.2986,0.0965,-25.06,-42.19,48.88,342.39,-81.32,-168.39
6454,52.798695,-1.382664,132.72,25.35,4,80.65,23 / 25,645438,2019-11-08 10:08:03:049,-1.2025,0.917,9.7446,-0.0087,0.0535,9.8065,0.0299,-0.1298,0.0363,-24.62,-42.31,49.25,340.92,-81.37,-169.7
6455,52.798695,-1.382664,132.72,25.35,4,80.65,25 / 25,645539,2019-11-08 10:08:03:150,-0.6109,-0.4679,10.3114,-0.0082,0.0419,9.8065,-0.0374,0.0859,0.0169,-25.25,-42.56,48.5,341.15,-81.78,-169.57
