,GPS LATITUDE (degrees), GPS LONGITUDE (degrees), GPS ALTITUDE (m), GPS SPEED (Kmh), GPS ACCURACY (m), GPS ORIENTATION (Â°),GPS SATELLITES IN RANGE, TIME SINCE START (ms), DATE (YYYY-MO-DD HH-MI-SS_SSS), ACCELEROMETER X (m/s²) , ACCELEROMETER Y (m/s²), ACCELEROMETER Z (m/s²), GRAVITY X (m/s²), GRAVITY Y (m/s²), GRAVITY Z (m/s²), GYROSCOPE Yaw (rad/s), GYROSCOPE Pitch (rad/s), GYROSCOPE Roll (rad/s), MAGNETIC FIELD X (Î¼T), MAGNETIC FIELD Y (Î¼T), MAGNETIC FIELD Z (Î¼T), ORIENTATION (Yaw) (Â°), ORIENTATION (Pitch) (Â°), ORIENTATION (Roll ) (Â°)
51288,51.444035,-2.81714,90,14.08,10,238.8,Nov-20,5128824,2019-08-16 14:14:42:604,0.0966,0.1534,8.969,-0.0173,-0.0152,9.8066,0.0149,-0.0037,-0.0091,-6.49,26.11,-13.27,252.78,9.45,0.05
51289,51.444035,-2.81714,90,14.08,10,238.8,Nov-20,5128923,2019-08-16 14:14:42:703,-0.0624,0.3143,8.595,-0.0063,0.0305,9.8066,-0.001,-0.0112,-0.0048,-5.49,26.21,-13.52,254.35,9.61,0.14
51290,51.444035,-2.81714,90,14.08,10,238.8,Nov-20,5129022,2019-08-16 14:14:42:802,-0.1643,-0.0874,9.8908,0.0186,0.0466,9.8065,-0.001,-0.0112,-0.0048,-5.49,26.21,-13.52,254.35,9.61,0.14
51291,51.444035,-2.81714,90,14.08,10,238.8,Nov-20,5129123,2019-08-16 14:14:42:903,-0.1391,0.1347,9.892,0.0091,0.023,9.8066,-0.0128,-0.0069,-0.0112,-4.99,26.18,-13.77,254.22,9.9,0.11
51292,51.444035,-2.81714,90,14.08,10,238.8,Nov-20,5129223,2019-08-16 14:14:43:003,-0.2241,0.0027,10.307,0.0146,0.0298,9.8066,0.0043,-0.0037,0.0048,-4.94,25.9,-14.31,254.16,10.04,0.09
51293,51.444035,-2.81714,90,14.08,10,238.8,Nov-20,5129323,2019-08-16 14:14:43:103,-0.0476,-0.2197,10.0483,0.016,0.0337,9.8066,0.0054,0.0218,0.0123,-4.94,25.9,-14.31,254.16,10.04,0.09
51294,51.444035,-2.81714,90,14.08,10,238.8,Nov-20,5129423,2019-08-16 14:14:43:203,-0.1216,-0.3697,10.0303,-0.0227,-0.0205,9.8066,0.0267,0.0719,0.0069,-5.08,26.04,-14.01,254.07,10.26,0.06
51295,51.444035,-2.81714,90,14.08,10,238.8,Nov-20,5129523,2019-08-16 14:14:43:303,-0.2276,-0.1517,10.6864,-0.0279,-0.0107,9.8066,0.0192,0.0176,-0.0059,-6.04,26.14,-13.43,252.47,10.1,0.15
51296,51.444035,-2.81714,90,14.08,10,238.8,Nov-20,5129623,2019-08-16 14:14:43:403,-0.1258,0.442,9.046,-0.0412,-0.0012,9.8066,-0.0042,0.0367,-0.0005,-6.11,26.34,-13.0,252.44,10.03,0.38
51297,51.444035,-2.81714,90,14.08,10,238.8,Nov-20,5129723,2019-08-16 14:14:43:503,-0.1246,0.2133,9.7352,-0.0029,0.0175,9.8066,-0.001,-0.0037,0.0176,-6.11,26.34,-13.0,252.44,10.03,0.38
51298,51.443962,-2.817315,89,14.16,10,238.9,Nov-20,5129823,2019-08-16 14:14:43:603,0.1296,0.2084,9.5689,-0.0032,0.0186,9.8066,-0.001,-0.0037,0.0176,-6.01,26.51,-12.7,252.96,10.18,0.47
51299,51.443962,-2.817315,89,14.16,10,238.9,Nov-20,5129923,2019-08-16 14:14:43:703,0.1509,0.1953,9.0578,0.0003,0.0234,9.8066,-0.0053,-0.0304,0.0037,-4.88,26.69,-12.79,254.84,10.28,0.52
51300,51.443962,-2.817315,89,14.16,10,238.9,Nov-20,5130023,2019-08-16 14:14:43:803,-0.1747,-0.0638,9.3059,0.0019,0.0309,9.8066,-0.017,0.0165,-0.0027,-5.04,26.46,-13.21,254.84,10.28,0.52
51301,51.443962,-2.817315,89,14.16,10,238.9,Nov-20,5130123,2019-08-16 14:14:43:903,0.127,0.2353,9.6858,-0.0113,0.0011,9.8066,-0.0149,-0.0272,-0.0005,-5.04,26.46,-13.21,254.84,10.28,0.52
51302,51.443962,-2.817315,89,14.16,10,238.9,Nov-20,5130223,2019-08-16 14:14:44:003,-0.0475,-0.3021,9.9772,-0.0191,-0.0388,9.8066,0.0245,0.0346,-0.0112,-4.99,26.18,-13.77,253.9,10.27,0.59
51303,51.443962,-2.817315,89,14.16,10,238.9,Nov-20,5130322,2019-08-16 14:14:44:102,-0.2387,-0.2619,9.4641,-0.0302,-0.0496,9.8065,-0.0319,0.0357,0.0101,-5.57,26.09,-13.72,252.03,9.94,0.68
51304,51.443962,-2.817315,89,14.16,10,238.9,Nov-20,5130423,2019-08-16 14:14:44:203,-0.1008,0.0897,9.3259,0.0022,-0.0137,9.8066,-0.0021,0.0059,0.0027,-5.57,26.09,-13.72,252.03,9.94,0.68
51305,51.443962,-2.817315,89,14.16,10,238.9,Nov-20,5130523,2019-08-16 14:14:44:303,0.2878,-0.2711,10.1436,-0.0118,-0.0152,9.8066,0.0341,-0.0069,-0.0005,-4.84,26.43,-13.34,254.43,9.87,0.64
51306,51.443962,-2.817315,89,14.16,10,238.9,Nov-20,5130623,2019-08-16 14:14:44:403,0.0036,-0.2276,10.1674,-0.0263,-0.0103,9.8066,-0.017,-0.0144,0.0037,-5.58,26.72,-12.44,253.38,9.77,0.77
51307,51.443962,-2.817315,89,14.16,10,238.9,Nov-20,5130723,2019-08-16 14:14:44:503,-0.2772,0.1265,10.0342,-0.0063,-0.0002,9.8066,-0.017,-0.0144,0.0037,-5.58,26.72,-12.44,253.38,9.77,0.77
51308,51.443893,-2.817513,88,14.4,10,238.7,Nov-20,5130822,2019-08-16 14:14:44:602,0.0918,0.0678,9.5903,-0.0064,-0.0133,9.8066,0.0096,-0.0165,0.0091,-4.44,26.98,-12.33,257.28,9.79,0.89
51309,51.443893,-2.817513,88,14.4,10,238.7,Nov-20,5130922,2019-08-16 14:14:44:702,0.0773,0.0286,10.1753,-0.0216,-0.0441,9.8065,-0.017,0.025,0.008,-1.99,26.95,-13.03,261.1,9.51,0.95
51310,51.443893,-2.817513,88,14.4,10,238.7,Nov-20,5131023,2019-08-16 14:14:44:803,0.3074,0.0416,10.2087,-0.0108,-0.0256,9.8066,0.0224,0.0229,0.0037,-1.45,26.87,-13.27,261.1,9.51,0.95
51311,51.443893,-2.817513,88,14.4,10,238.7,Nov-20,5131123,2019-08-16 14:14:44:903,-0.375,0.0449,9.5645,-0.0211,-0.0407,9.8065,-0.0064,-0.0027,0.0069,-1.45,26.87,-13.27,261.1,9.51,0.95
51312,51.443893,-2.817513,88,14.4,10,238.7,Nov-20,5131223,2019-08-16 14:14:45:003,0.0659,-0.0437,10.2188,-0.0121,0.007,9.8066,-0.0234,0.0059,-0.0048,-0.29,27.51,-11.95,265.86,9.25,1.04
51313,51.443893,-2.817513,88,14.4,10,238.7,Nov-20,5131322,2019-08-16 14:14:45:102,0.0549,-0.0416,10.1552,-0.008,0.0092,9.8066,0.0235,-0.0272,0.0027,-0.86,27.0,-13.05,263.24,9.3,1.09
51314,51.443893,-2.817513,88,14.4,10,238.7,Nov-20,5131423,2019-08-16 14:14:45:203,0.1023,0.0081,9.2944,-0.0043,-0.0068,9.8066,-0.0128,-0.0005,0.0016,-0.28,27.66,-11.62,265.84,9.26,1.11
51315,51.443893,-2.817513,88,14.4,10,238.7,Nov-20,5131523,2019-08-16 14:14:45:303,-0.2214,0.0636,8.5913,0.0077,-0.0033,9.8066,-0.0128,-0.0005,0.0016,-0.28,27.66,-11.62,265.84,9.26,1.11
51316,51.443893,-2.817513,88,14.4,10,238.7,Nov-20,5131623,2019-08-16 14:14:45:403,0.0092,-0.0797,8.7042,-0.0053,-0.0144,9.8066,0.0213,0.025,0.0037,-1.43,28.29,-9.89,264.5,9.25,1.07
51317,51.443893,-2.817513,88,14.4,10,238.7,Nov-20,5131723,2019-08-16 14:14:45:503,-0.0643,0.1229,9.3967,-0.0159,-0.0015,9.8066,0.0213,-0.0389,0.0059,-0.28,28.6,-9.06,267.01,9.04,1.13
51318,51.443832,-2.817679,87,14.59,10,238.4,Nov-20,5131823,2019-08-16 14:14:45:603,-0.4278,0.1358,9.924,-0.0161,-0.002,9.8066,0.016,-0.0346,0.0069,-0.87,28.48,-9.39,267.01,9.04,1.13
51319,51.443832,-2.817679,87,14.59,10,238.4,Nov-20,5131923,2019-08-16 14:14:45:703,-0.3492,0.0603,9.44,-0.0016,-0.0102,9.8066,-0.0373,-0.0123,0.0037,-0.87,28.48,-9.39,267.01,9.04,1.13
51320,51.443832,-2.817679,87,14.59,10,238.4,Nov-20,5132023,2019-08-16 14:14:45:803,0.2121,-0.2275,9.215,-0.0004,0.004,9.8066,-0.0074,-0.0069,-0.0005,-3.16,26.75,-13.21,259.25,8.98,1.14
51321,51.443832,-2.817679,87,14.59,10,238.4,Nov-20,5132123,2019-08-16 14:14:45:903,-0.1576,0.2288,9.7145,0.0096,-0.0126,9.8066,0.0075,-0.0208,0.0048,-4.93,25.86,-14.39,254.4,8.92,1.07
51322,51.443832,-2.817679,87,14.59,10,238.4,Nov-20,5132223,2019-08-16 14:14:46:003,-0.0777,0.3475,9.419,-0.0005,-0.0054,9.8066,0.0096,-0.0165,-0.0037,-5.56,26.05,-13.8,254.4,8.92,1.07
51323,51.443832,-2.817679,87,14.59,10,238.4,Nov-20,5132322,2019-08-16 14:14:46:102,0.2889,0.157,9.809,0.0007,-0.0243,9.8066,-0.0021,0.0016,-0.0069,-5.66,25.9,-14.04,252.46,8.78,1.03
51324,51.443832,-2.817679,87,14.59,10,238.4,Nov-20,5132423,2019-08-16 14:14:46:203,0.4252,-0.0829,10.3283,0.0246,0.0025,9.8066,-0.0021,0.0016,-0.0069,-6.1,26.3,-13.08,252.46,8.78,1.03
51325,51.443832,-2.817679,87,14.59,10,238.4,Nov-20,5132523,2019-08-16 14:14:46:303,0.1296,0.038,9.9785,0.0313,0.0137,9.8066,-0.0053,0.0048,0.0016,-6.1,26.3,-13.08,252.46,8.78,1.03
51326,51.443832,-2.817679,87,14.59,10,238.4,Nov-20,5132623,2019-08-16 14:14:46:403,0.0335,0.0239,9.4398,-0.0032,-0.0027,9.8066,-0.0074,-0.008,0.0091,-5.58,26.66,-12.56,253.35,8.92,0.92
51327,51.443832,-2.817679,87,14.59,10,238.4,Nov-20,5132723,2019-08-16 14:14:46:503,0.2336,-0.249,10.1205,0.0102,-0.0027,9.8066,0.0032,0.0027,0.0091,-5.0,26.76,-12.61,253.35,8.92,0.92
51328,51.443752,-2.817879,87,15.11,10,238.2,Nov-20,5132822,2019-08-16 14:14:46:602,-0.3224,-0.2867,10.4054,0.018,0.0207,9.8066,-0.0064,-0.0176,0.0069,-6.1,26.3,-13.08,252.71,9.07,0.85
51329,51.443752,-2.817879,87,15.11,10,238.2,Nov-20,5132923,2019-08-16 14:14:46:703,0.0651,0.1607,8.9164,0.0213,0.0175,9.8066,-0.0021,-0.0144,-0.0154,-6.1,26.3,-13.08,252.71,9.07,0.85
51330,51.443752,-2.817879,87,15.11,10,238.2,Nov-20,5133023,2019-08-16 14:14:46:803,0.0936,-0.0602,10.1121,0.0226,0.0056,9.8066,-0.0245,0.0016,-0.0176,-5.03,25.78,-14.49,254.35,9.2,0.76
51331,51.443752,-2.817879,87,15.11,10,238.2,Nov-20,5133123,2019-08-16 14:14:46:903,0.536,-0.3324,9.8159,0.0476,-0.0102,9.8065,-0.0319,0.0165,-0.0037,-5.18,25.91,-14.2,254.43,9.22,0.47
51332,51.443752,-2.817879,87,15.11,10,238.2,Nov-20,5133223,2019-08-16 14:14:47:003,0.1672,-0.1988,9.8643,0.0224,-0.0076,9.8066,0.0277,0.025,-0.0112,-5.35,25.62,-14.67,254.43,9.22,0.47
51333,51.443752,-2.817879,87,15.11,10,238.2,Nov-20,5133324,2019-08-16 14:14:47:104,0.0468,-0.1575,9.6638,0.0385,-0.0137,9.8066,0.0277,0.025,-0.0112,-5.35,25.62,-14.67,254.43,9.22,0.47
51334,51.443752,-2.817879,87,15.11,10,238.2,Nov-20,5133423,2019-08-16 14:14:47:203,0.0617,-0.8128,9.0908,-0.0008,-0.0083,9.8066,0.0011,-0.0005,-0.0091,-5.47,26.13,-13.68,254.51,9.2,0.23
51335,51.443752,-2.817879,87,15.11,10,238.2,Nov-20,5133523,2019-08-16 14:14:47:303,-0.3961,-0.034,10.373,-0.0048,0.0127,9.8066,0.0256,-0.0261,-0.0186,-5.53,26.4,-13.13,252.95,8.97,0.15
51336,51.443752,-2.817879,87,15.11,10,238.2,Nov-20,5133623,2019-08-16 14:14:47:403,-0.1922,-0.9294,9.5556,0.0072,0.0093,9.8066,0.0171,-0.0655,-0.0229,-5.53,26.4,-13.13,252.95,8.97,0.15
51337,51.443752,-2.817879,87,15.11,10,238.2,Nov-20,5133723,2019-08-16 14:14:47:503,-0.3663,-0.3795,10.1741,-0.0152,0.0025,9.8066,0.0331,0.0282,-0.0144,-5.63,26.88,-12.06,253.84,9.03,0.12
51338,51.443672,-2.818069,85,15.22,10,238.4,Nov-20,5133823,2019-08-16 14:14:47:603,-0.259,-0.223,9.9614,-0.0279,-0.0282,9.8066,-0.0181,0.0005,0.0027,-5.43,26.49,-12.98,253.84,9.03,0.12
51339,51.443672,-2.818069,85,15.22,10,238.4,Nov-20,5133923,2019-08-16 14:14:47:703,0.3866,0.2576,9.7616,-0.023,-0.0424,9.8065,-0.0064,-0.0549,-0.0186,-5.99,26.43,-12.86,253.03,8.76,0.19
51340,51.443672,-2.818069,85,15.22,10,238.4,Nov-20,5134023,2019-08-16 14:14:47:803,0.1065,-0.0111,9.2754,0.0135,0.0009,9.8066,-0.0128,-0.025,-0.0186,-5.99,26.43,-12.86,253.03,8.76,0.19
51341,51.443672,-2.818069,85,15.22,10,238.4,Nov-20,5134123,2019-08-16 14:14:47:903,-0.117,-0.2097,9.6491,0.0149,-0.0202,9.8066,-0.0128,-0.025,-0.0186,-5.63,26.26,-13.36,253.04,8.78,0.11
51342,51.443672,-2.818069,85,15.22,10,238.4,Nov-20,5134224,2019-08-16 14:14:48:004,0.1334,-0.0801,10.0415,0.0297,-0.0575,9.8064,-0.0042,0.0123,-0.0144,-5.62,26.23,-13.44,253.23,8.51,-0.16
51343,51.443672,-2.818069,85,15.22,10,238.4,Nov-20,5134323,2019-08-16 14:14:48:103,-0.273,-0.4256,10.1129,-0.004,-0.016,9.8066,0.0149,-0.0048,0.0016,-5.14,26.34,-13.4,255.28,8.42,-0.16
51344,51.443672,-2.818069,85,15.22,10,238.4,Nov-20,5134423,2019-08-16 14:14:48:203,-0.1125,-0.399,9.8381,-0.0064,-0.0106,9.8066,0.0181,-0.0112,-0.0069,-5.14,26.34,-13.4,255.28,8.42,-0.16
51345,51.443672,-2.818069,85,15.22,10,238.4,Nov-20,5134523,2019-08-16 14:14:48:303,-0.4071,-0.0313,9.7541,-0.031,-0.03,9.8066,0.0054,0.0005,0.0069,-5.57,25.99,-13.91,253.04,8.22,-0.06
51346,51.443672,-2.818069,85,15.22,10,238.4,Nov-20,5134624,2019-08-16 14:14:48:404,-0.1261,0.1981,9.8368,-0.0498,-0.0357,9.8065,0.0054,0.0048,-0.0005,-5.14,26.97,-12.1,253.04,8.22,-0.06
51347,51.443672,-2.818069,85,15.22,10,238.4,Nov-20,5134723,2019-08-16 14:14:48:503,-0.0557,0.1216,9.4846,-0.0496,-0.0339,9.8065,-0.001,0.0122,-0.0176,-6.26,26.39,-12.82,253.38,7.95,0.16
51348,51.443592,-2.818273,86,15.71,10,238.8,Nov-20,5134822,2019-08-16 14:14:48:602,0.059,-0.3501,9.9913,0.0091,-0.0114,9.8066,-0.0085,0.0293,-0.0069,-6.26,26.39,-12.82,253.38,7.95,0.16
51349,51.443592,-2.818273,86,15.71,10,238.8,Nov-20,5134923,2019-08-16 14:14:48:703,0.0273,-0.0368,9.8841,0.0011,-0.0125,9.8066,-0.0074,0.0272,-0.0037,-5.68,26.5,-12.87,253.42,7.9,0.09
51350,51.443592,-2.818273,86,15.71,10,238.8,Nov-20,5135024,2019-08-16 14:14:48:804,0.1221,0.5308,10.5107,0.0031,0.0016,9.8067,-0.0074,0.0272,-0.0037,-5.68,26.5,-12.87,253.42,7.9,0.09
51351,51.443592,-2.818273,86,15.71,10,238.8,Nov-20,5135124,2019-08-16 14:14:48:904,-0.001,0.4781,10.2571,0.0138,0.0399,9.8066,0.0043,-0.0538,-0.0069,-5.18,25.91,-14.2,255.16,7.91,0.07
51352,51.443592,-2.818273,86,15.71,10,238.8,Nov-20,5135223,2019-08-16 14:14:49:003,0.0564,0.0655,9.8026,0.0159,0.0697,9.8064,0.0043,0.0059,0.0037,-4.53,25.7,-14.79,254.66,8.33,0.09
51353,51.443592,-2.818273,86,15.71,10,238.8,Nov-20,5135324,2019-08-16 14:14:49:104,0.037,0.1878,9.9878,-0.0112,0.0129,9.8066,0.032,0.0304,0.0059,-4.53,25.7,-14.79,254.66,8.33,0.09
51354,51.443592,-2.818273,86,15.71,10,238.8,Nov-20,5135424,2019-08-16 14:14:49:204,-0.0416,0.7282,10.2198,-0.0166,0.0308,9.8066,0.0203,-0.0506,-0.0027,-5.23,26.2,-13.64,254.91,8.38,0.17
51355,51.443592,-2.818273,86,15.71,10,238.8,Nov-20,5135523,2019-08-16 14:14:49:303,-0.0769,0.7438,9.5415,-0.0227,0.1353,9.8057,-0.0074,-0.0431,0.0101,-6.2,26.12,-13.39,254.91,8.38,0.17
51356,51.443592,-2.818273,86,15.71,10,238.8,Nov-20,5135624,2019-08-16 14:14:49:404,-0.1881,0.3358,9.3741,-0.0067,0.0238,9.8066,0.0011,0.0037,0.0005,-5.53,27.0,-11.85,253.7,9.11,0.51
51357,51.443592,-2.818273,86,15.71,10,238.8,Nov-20,5135723,2019-08-16 14:14:49:503,-0.2186,0.0756,9.8596,0.0027,0.0622,9.8065,0.0011,0.0037,0.0005,-5.79,27.02,-11.68,253.7,9.11,0.51
51358,51.443516,-2.818491,86,16.22,10,238.8,Dec-20,5135824,2019-08-16 14:14:49:604,-0.1325,0.5421,9.3266,-0.0029,0.0921,9.8062,0.0032,-0.0591,0.0048,-5.09,26.71,-12.68,255.07,9.62,0.68
51359,51.443516,-2.818491,86,16.22,10,238.8,Dec-20,5135924,2019-08-16 14:14:49:704,-0.3357,0.4797,9.88,-0.0164,0.0258,9.8066,0.0331,-0.0037,0.0005,-5.44,26.53,-12.9,255.07,9.62,0.68
51360,51.443516,-2.818491,86,16.22,10,238.8,Dec-20,5136024,2019-08-16 14:14:49:804,-0.1262,0.3449,10.2656,-0.0255,0.046,9.8065,0.0011,-0.024,0.0027,-5.44,26.53,-12.9,255.07,9.62,0.68
51361,51.443516,-2.818491,86,16.22,10,238.8,Dec-20,5136123,2019-08-16 14:14:49:903,-0.3199,0.4824,9.2595,-0.0109,0.0108,9.8066,-0.0309,0.0144,0.0101,-5.09,26.06,-13.96,254.0,9.85,0.89
51362,51.443516,-2.818491,86,16.22,10,238.8,Dec-20,5136224,2019-08-16 14:14:50:004,-0.0781,0.5455,9.9194,0.0085,0.0153,9.8066,-0.0138,-0.0197,0.0165,-5.67,25.84,-14.16,251.96,9.89,0.97
51363,51.443516,-2.818491,86,16.22,10,238.8,Dec-20,5136323,2019-08-16 14:14:50:103,-0.213,0.2432,9.4218,0.0057,0.0285,9.8066,0.0043,0.0176,-0.0069,-4.99,26.08,-13.96,253.87,10.06,0.99
51364,51.443516,-2.818491,86,16.22,10,238.8,Dec-20,5136423,2019-08-16 14:14:50:203,-0.3619,0.1038,9.5593,0.0073,0.0256,9.8066,0.0043,0.0176,-0.0069,-5.09,26.06,-13.96,253.87,10.06,0.99
51365,51.443516,-2.818491,86,16.22,10,238.8,Dec-20,5136523,2019-08-16 14:14:50:303,0.1386,-0.2146,9.8887,-0.0051,-0.0066,9.8066,-0.0064,0.0314,0.0101,-5.68,26.5,-12.87,252.07,10.43,1.01
51366,51.443516,-2.818491,86,16.22,10,238.8,Dec-20,5136623,2019-08-16 14:14:50:403,-0.0651,0.1973,10.2879,-0.0023,-0.0105,9.8066,-0.0053,0.0399,0.0037,-5.68,26.5,-12.87,252.07,10.43,1.01
51367,51.443516,-2.818491,86,16.22,10,238.8,Dec-20,5136723,2019-08-16 14:14:50:503,0.0003,-0.0369,9.6263,-0.0032,0.0318,9.8066,0.0043,-0.0186,0.0101,-5.68,26.5,-12.87,252.1,10.37,1.0
51368,51.44345,-2.818685,84,16.31,10,238.5,Dec-20,5136823,2019-08-16 14:14:50:603,0.2971,0.2808,9.9287,-0.0078,0.0463,9.8065,0.0075,0.0229,-0.008,-5.53,26.4,-13.13,251.95,10.61,1.13
51369,51.44345,-2.818685,84,16.31,10,238.5,Dec-20,5136923,2019-08-16 14:14:50:703,-0.0606,0.2873,9.643,0.0239,0.0137,9.8066,0.0171,-0.0218,-0.0037,-5.94,26.18,-13.4,251.94,10.73,1.02
51370,51.44345,-2.818685,84,16.31,10,238.5,Dec-20,5137022,2019-08-16 14:14:50:802,0.1787,0.1221,9.9732,0.0102,0.0102,9.8066,0.0032,0.0112,0.0069,-5.94,26.18,-13.4,251.94,10.73,1.02
51371,51.44345,-2.818685,84,16.31,10,238.5,Dec-20,5137123,2019-08-16 14:14:50:903,-0.074,-0.1317,10.0184,0.0132,0.0404,9.8066,0.0043,-0.0229,-0.0037,-5.08,25.93,-14.21,253.43,10.98,1.02
51372,51.44345,-2.818685,84,16.31,10,238.5,Dec-20,5137223,2019-08-16 14:14:51:003,0.3551,-0.1871,9.5813,0.0013,0.0148,9.8066,0.0043,-0.0229,-0.0037,-5.08,25.93,-14.21,253.43,11.06,1.04
51373,51.44345,-2.818685,84,16.31,10,238.5,Dec-20,5137324,2019-08-16 14:14:51:104,0.0048,0.2604,9.9494,-0.0015,-0.013,9.8066,0.0149,0.0368,-0.0005,-5.84,26.63,-12.51,252.42,11.06,1.04
51374,51.44345,-2.818685,84,16.31,10,238.5,Dec-20,5137423,2019-08-16 14:14:51:203,-0.0315,-0.0826,10.0855,-0.026,-0.0122,9.8066,0.0245,0.0112,0.0133,-5.53,26.4,-13.13,252.42,11.06,1.04
51375,51.44345,-2.818685,84,16.31,10,238.5,Dec-20,5137523,2019-08-16 14:14:51:303,0.0483,-0.121,10.2583,0.0039,0.02,9.8066,-0.0117,-0.0442,0.0016,-5.42,25.9,-14.14,253.39,10.95,1.16
51376,51.44345,-2.818685,84,16.31,10,238.5,Dec-20,5137623,2019-08-16 14:14:51:403,-0.0288,0.1989,9.3322,0.0099,-0.0033,9.8066,-0.0245,-0.0378,-0.0037,-6.27,26.43,-12.74,251.75,11.07,1.18
51377,51.44345,-2.818685,84,16.31,10,238.5,Dec-20,5137723,2019-08-16 14:14:51:503,-0.0566,-0.0865,10.3958,0.0224,-0.0088,9.8066,-0.0138,0.0112,0.0059,-6.27,26.43,-12.74,251.75,11.07,1.18
51378,51.443394,-2.818892,83,16.39,11,238.6,Dec-20,5137823,2019-08-16 14:14:51:603,-0.1819,-0.1144,10.024,0.0088,0.0145,9.8066,0.016,0.0154,-0.0133,-6.16,26.56,-12.51,252.43,11.06,1.03
51379,51.443394,-2.818892,83,16.39,11,238.6,Dec-20,5137923,2019-08-16 14:14:51:703,-0.371,-0.2852,9.9186,0.0147,0.0243,9.8066,-0.0319,-0.024,0.0091,-6.1,26.3,-13.08,251.74,11.22,0.99
51380,51.443394,-2.818892,83,16.39,11,238.6,Dec-20,5138023,2019-08-16 14:14:51:803,0.0549,-0.185,9.131,0.0199,-0.0029,9.8066,-0.0298,0.0389,0.0155,-5.51,25.71,-14.45,251.37,11.24,0.88
51381,51.443394,-2.818892,83,16.39,11,238.6,Dec-20,5138123,2019-08-16 14:14:51:903,-0.2277,-0.0519,9.9237,-0.0052,-0.0194,9.8066,-0.0298,0.0389,0.0155,-5.51,25.71,-14.45,251.37,11.24,0.88
51382,51.443394,-2.818892,83,16.39,11,238.6,Dec-20,5138223,2019-08-16 14:14:52:003,0.4322,0.2048,9.8243,-0.0077,-0.0075,9.8066,0.0299,0.0293,0.0059,-5.13,26.22,-13.65,253.41,11.13,0.87
51383,51.443394,-2.818892,83,16.39,11,238.6,Dec-20,5138323,2019-08-16 14:14:52:103,0.1721,0.0193,9.3137,-0.0084,-0.0045,9.8066,-0.0032,0.0261,0.0016,-5.71,26.14,-13.56,251.43,11.09,0.91
51384,51.443394,-2.818892,83,16.39,11,238.6,Dec-20,5138425,2019-08-16 14:14:52:205,0.0674,-0.0548,9.8259,0.0022,0.0035,9.8066,-0.0096,0.0186,0.0037,-5.63,26.26,-13.36,251.79,11.11,0.99
51385,51.443394,-2.818892,83,16.39,11,238.6,Dec-20,5138523,2019-08-16 14:14:52:303,-0.1761,0.0416,10.1087,0.0022,0.0055,9.8066,-0.0085,-0.0165,-0.0027,-5.63,26.26,-13.36,251.79,11.11,0.99
51386,51.443394,-2.818892,83,16.39,11,238.6,Dec-20,5138624,2019-08-16 14:14:52:404,-0.5089,-0.0344,9.7403,-0.0058,0.0083,9.8066,0.0213,0.0112,0.0016,-6.05,26.07,-13.55,251.38,11.14,0.99
51387,51.443394,-2.818892,83,16.39,11,238.6,Dec-20,5138723,2019-08-16 14:14:52:503,0.0221,-0.2827,9.0314,0.0031,-0.0046,9.8066,-0.0234,-0.0336,0.0069,-6.1,26.3,-13.08,251.79,11.12,0.97
51388,51.44332,-2.819102,81,16.48,11,238.6,Dec-19,5138823,2019-08-16 14:14:52:603,-0.1308,-0.3193,9.2652,0.0014,-0.0327,9.8066,-0.0234,0.0123,0.0016,-6.27,26.43,-12.74,251.79,11.12,0.97
51389,51.44332,-2.819102,81,16.48,11,238.6,Dec-19,5138924,2019-08-16 14:14:52:704,-0.4159,-0.597,9.2648,-0.0104,-0.0823,9.8063,-0.0234,0.0123,0.0016,-6.21,26.16,-13.31,252.02,10.65,0.87
51390,51.44332,-2.819102,81,16.48,11,238.6,Dec-19,5139024,2019-08-16 14:14:52:804,-0.0736,-0.1646,9.6088,0.0104,-0.0201,9.8066,0.0107,0.0005,-0.0037,-6.21,26.16,-13.31,252.02,10.65,0.87
51391,51.44332,-2.819102,81,16.48,11,238.6,Dec-19,5139123,2019-08-16 14:14:52:903,0.004,-0.6103,9.1138,0.0192,-0.0454,9.8065,-0.0128,0.0463,-0.008,-5.47,26.13,-13.68,253.79,10.43,0.68
51392,51.44332,-2.819102,81,16.48,11,238.6,Dec-19,5139223,2019-08-16 14:14:53:003,0.3897,-0.4358,9.6972,0.0137,-0.0412,9.8066,-0.0096,0.0304,-0.008,-5.47,26.13,-13.68,253.79,10.43,0.68
51393,51.44332,-2.819102,81,16.48,11,238.6,Dec-19,5139323,2019-08-16 14:14:53:103,-0.0873,-0.6098,10.4416,-0.0012,-0.0323,9.8066,-0.0415,-0.0016,-0.0037,-4.66,25.91,-14.38,253.94,10.22,0.53
51394,51.44332,-2.819102,81,16.48,11,238.6,Dec-19,5139423,2019-08-16 14:14:53:203,0.2101,-0.057,8.7308,0.0124,-0.0622,9.8064,-0.0191,0.0197,-0.0144,-5.22,26.14,-13.77,254.14,9.89,0.36
51395,51.44332,-2.819102,81,16.48,11,238.6,Dec-19,5139523,2019-08-16 14:14:53:303,-0.1432,0.0629,9.8914,0.0081,-0.0474,9.8065,-0.0106,0.0495,0.0037,-5.22,26.14,-13.77,254.14,9.89,0.36
51396,51.44332,-2.819102,81,16.48,11,238.6,Dec-19,5139623,2019-08-16 14:14:53:403,-0.0667,-0.996,10.2228,-0.0081,-0.0428,9.8066,0.0011,0.0826,-0.0059,-5.58,26.03,-13.84,252.3,9.64,0.24
51397,51.44332,-2.819102,81,16.48,11,238.6,Dec-19,5139723,2019-08-16 14:14:53:503,-0.3308,0.063,10.906,-0.0143,-0.0589,9.8065,0.0011,0.0826,-0.0059,-5.58,26.66,-12.56,252.3,9.64,0.24
51398,51.443233,-2.819319,81,16.74,11,238.8,Dec-20,5139823,2019-08-16 14:14:53:603,-0.0693,-1.2321,10.0502,-0.0055,-0.0206,9.8066,-0.0053,0.106,-0.0112,-5.63,26.26,-13.36,252.8,9.29,0.21
51399,51.443233,-2.819319,81,16.74,11,238.8,Dec-20,5139923,2019-08-16 14:14:53:703,-0.0267,-0.0016,10.1729,-0.0173,-0.0256,9.8066,-0.0096,-0.0304,-0.0112,-6.67,26.23,-12.94,252.8,9.29,0.21
51400,51.443233,-2.819319,81,16.74,11,238.8,Dec-20,5140023,2019-08-16 14:14:53:803,-0.2986,0.0199,9.1071,-0.0308,-0.0299,9.8066,0.0064,0.0218,-0.0069,-5.53,26.4,-13.13,252.86,9.07,0.34
51401,51.443233,-2.819319,81,16.74,11,238.8,Dec-20,5140124,2019-08-16 14:14:53:904,0.177,0.2552,10.5496,-0.001,-0.0192,9.8066,0.0117,0.0304,-0.0112,-5.53,26.4,-13.13,252.86,9.07,0.34
51402,51.443233,-2.819319,81,16.74,11,238.8,Dec-20,5140223,2019-08-16 14:14:54:003,-0.342,-0.1903,10.0204,-0.0058,-0.0006,9.8066,0.0064,-0.0059,-0.0027,-4.99,26.08,-13.96,254.6,8.96,0.31
51403,51.443233,-2.819319,81,16.74,11,238.8,Dec-20,5140322,2019-08-16 14:14:54:102,0.2039,-0.482,10.727,-0.0166,-0.0413,9.8065,0.0171,0.0815,-0.0069,-6.35,25.64,-14.23,252.7,8.7,0.34
51404,51.443233,-2.819319,81,16.74,11,238.8,Dec-20,5140423,2019-08-16 14:14:54:203,-0.2715,-0.2229,10.136,0.005,-0.0225,9.8066,-0.0191,-0.0325,0.0016,-5.12,26.24,-13.61,254.87,8.41,0.28
51405,51.443233,-2.819319,81,16.74,11,238.8,Dec-20,5140524,2019-08-16 14:14:54:304,-0.298,-0.3536,9.6479,-0.0127,-0.0522,9.8065,-0.0149,0.0261,0.0027,-6.31,26.08,-13.42,254.87,8.41,0.28
51406,51.443233,-2.819319,81,16.74,11,238.8,Dec-20,5140623,2019-08-16 14:14:54:403,0.1604,-0.2624,9.2563,-0.0228,-0.0812,9.8063,-0.0149,0.0261,0.0027,-6.31,26.08,-13.42,254.87,8.41,0.28
51407,51.443233,-2.819319,81,16.74,11,238.8,Dec-20,5140723,2019-08-16 14:14:54:503,-0.2334,-0.4258,10.0174,0.007,-0.0228,9.8066,-0.0223,0.0453,-0.0048,-6.27,26.43,-12.74,253.36,7.92,0.29
51408,51.44315,-2.819538,81,16.83,11,238.8,Dec-20,5140823,2019-08-16 14:14:54:603,-0.1243,0.1909,9.4499,0.0127,-0.0153,9.8066,-0.0287,-0.0059,-0.0005,-6.22,26.81,-11.93,253.36,7.92,0.29
51409,51.44315,-2.819538,81,16.83,11,238.8,Dec-20,5140923,2019-08-16 14:14:54:703,-0.0492,-0.0152,9.7317,0.0195,-0.0207,9.8066,0.0139,0.0037,-0.0027,-6.16,26.56,-12.51,254.01,7.83,0.14
51410,51.44315,-2.819538,81,16.83,11,238.8,Dec-20,5141023,2019-08-16 14:14:54:803,0.041,-0.4664,10.1102,-0.005,-0.0307,9.8066,-0.001,0.0293,0.0101,-6.16,26.56,-12.51,254.01,7.83,0.14
51411,51.44315,-2.819538,81,16.83,11,238.8,Dec-20,5141123,2019-08-16 14:14:54:903,0.0102,-0.22,10.1975,-0.0137,-0.0449,9.8065,-0.0106,-0.0367,0.008,-5.54,26.44,-13.05,253.55,7.56,0.15
51412,51.44315,-2.819538,81,16.83,11,238.8,Dec-20,5141223,2019-08-16 14:14:55:003,-0.0458,0.3332,9.2616,-0.0126,0.0023,9.8066,0.0235,0.0059,0.0005,-5.54,26.44,-13.05,253.55,7.56,0.15
51413,51.44315,-2.819538,81,16.83,11,238.8,Dec-20,5141323,2019-08-16 14:14:55:103,0.0773,0.1879,9.8335,-0.0066,-0.0187,9.8066,-0.0042,0.025,0.0069,-5.13,26.28,-13.53,255.29,7.55,0.22
51414,51.44315,-2.819538,81,16.83,11,238.8,Dec-20,5141423,2019-08-16 14:14:55:203,-0.116,0.302,10.4675,-0.0264,-0.0332,9.8066,-0.0042,0.025,0.0069,-5.07,26.0,-14.09,255.38,7.33,0.32
51415,51.44315,-2.819538,81,16.83,11,238.8,Dec-20,5141523,2019-08-16 14:14:55:303,0.1484,0.1206,10.5056,-0.0093,0.0061,9.8066,0.0139,-0.0101,-0.0101,-5.58,26.03,-13.84,253.31,7.32,0.46
51416,51.44315,-2.819538,81,16.83,11,238.8,Dec-20,5141623,2019-08-16 14:14:55:403,-0.2053,0.1617,9.8532,-0.0211,-0.0016,9.8066,-0.0138,-0.0197,0.0123,-5.58,26.03,-13.84,253.31,7.32,0.46
51417,51.44315,-2.819538,81,16.83,11,238.8,Dec-20,5141723,2019-08-16 14:14:55:503,-0.2069,0.0354,10.2231,-0.0147,-0.0257,9.8066,0.0181,0.0187,0.0069,-6.73,26.45,-12.46,251.83,7.27,0.57
51418,51.443073,-2.819758,80,17.56,11,238.6,Dec-20,5141823,2019-08-16 14:14:55:603,-0.3416,-0.2041,10.6449,-0.0393,-0.0127,9.8066,0.0256,0.0772,0.0069,-6.22,26.81,-11.93,254.46,7.1,0.61
51419,51.443073,-2.819758,80,17.56,11,238.6,Dec-20,5141923,2019-08-16 14:14:55:703,-0.1999,0.2063,10.3202,-0.0468,-0.0173,9.8065,-0.0245,0.0101,-0.0069,-5.54,27.04,-11.77,254.46,7.1,0.61
51420,51.443073,-2.819758,80,17.56,11,238.6,Dec-20,5142024,2019-08-16 14:14:55:804,0.098,0.2118,9.0702,-0.0327,-0.0169,9.8066,0.0267,-0.0208,-0.0069,-6.11,26.34,-13.0,253.66,6.96,0.77
51421,51.443073,-2.819758,80,17.56,11,238.6,Dec-20,5142123,2019-08-16 14:14:55:903,0.1497,0.2973,9.6647,0.0038,-0.0008,9.8067,-0.0074,-0.0399,-0.0037,-6.11,26.34,-13.0,253.66,6.96,0.77
51422,51.443073,-2.819758,80,17.56,11,238.6,Dec-20,5142223,2019-08-16 14:14:56:003,0.3824,0.6728,10.0954,0.0101,-0.0044,9.8066,0.0043,0.0187,0.008,-5.54,26.44,-13.05,253.66,6.96,0.75
51423,51.443073,-2.819758,80,17.56,11,238.6,Dec-20,5142324,2019-08-16 14:14:56:104,-0.1597,0.2644,9.3093,0.03,0.0018,9.8066,0.0043,0.0187,0.008,-5.72,26.18,-13.48,253.68,7.02,0.58
51424,51.443073,-2.819758,80,17.56,11,238.6,Dec-20,5142423,2019-08-16 14:14:56:203,-0.185,0.3026,9.3212,0.0235,0.0435,9.8065,-0.0117,-0.0048,-0.0048,-4.98,26.14,-13.85,255.34,7.3,0.52
51425,51.443073,-2.819758,80,17.56,11,238.6,Dec-20,5142523,2019-08-16 14:14:56:303,-0.2339,0.6049,9.8853,0.0075,0.0368,9.8066,-0.0074,-0.0112,0.0027,-4.98,26.14,-13.85,255.34,7.3,0.52
51426,51.443073,-2.819758,80,17.56,11,238.6,Dec-20,5142623,2019-08-16 14:14:56:403,0.5047,1.0469,10.8262,0.0165,0.0665,9.8064,0.0117,0.0687,0.0048,-6.18,24.47,-16.22,251.3,7.52,0.53
51427,51.443073,-2.819758,80,17.56,11,238.6,Dec-20,5142723,2019-08-16 14:14:56:503,0.6404,0.7881,9.493,0.0381,0.1294,9.8057,0.0608,-0.0495,-0.0037,-6.18,24.47,-16.22,251.3,7.52,0.53
51428,51.442978,-2.819993,80,18.33,10,238.4,Dec-20,5142822,2019-08-16 14:14:56:602,1.1431,0.3525,8.8011,0.0289,0.0244,9.8066,0.0171,0.0954,0.0165,-5.71,25.6,-14.57,252.52,8.31,0.56
51429,51.442978,-2.819993,80,18.33,10,238.4,Dec-20,5142923,2019-08-16 14:14:56:703,0.3789,0.1798,9.8238,0.0309,0.0488,9.8065,0.0341,0.0432,-0.008,-5.76,24.71,-16.01,251.41,8.63,0.47
51430,51.442978,-2.819993,80,18.33,10,238.4,Dec-20,5143023,2019-08-16 14:14:56:803,-0.184,0.3404,9.8339,0.001,0.034,9.8066,0.0341,0.0432,-0.008,-5.76,24.71,-16.01,251.41,8.63,0.47
51431,51.442978,-2.819993,80,18.33,10,238.4,Dec-20,5143123,2019-08-16 14:14:56:903,0.1471,0.7096,8.355,0.0081,0.0525,9.8065,-0.0021,-0.0549,0.0059,-6.18,24.47,-16.22,250.56,8.82,0.53
51432,51.442978,-2.819993,80,18.33,10,238.4,Dec-20,5143223,2019-08-16 14:14:57:003,0.2121,0.0301,8.7772,0.0165,0.0671,9.8064,0.0,0.0677,-0.0122,-5.11,24.48,-16.56,250.56,8.82,0.53
51433,51.442978,-2.819993,80,18.33,10,238.4,Dec-20,5143323,2019-08-16 14:14:57:103,0.2137,0.616,10.1808,0.024,0.0544,9.8065,0.0011,0.0794,0.0069,-6.45,24.41,-16.21,250.38,9.17,0.51
51434,51.442978,-2.819993,80,18.33,10,238.4,Dec-20,5143423,2019-08-16 14:14:57:203,-0.1475,0.1764,9.2977,0.0054,0.0316,9.8066,0.0171,-0.0591,0.0048,-6.45,24.41,-16.21,250.38,9.17,0.51
51435,51.442978,-2.819993,80,18.33,10,238.4,Dec-20,5143523,2019-08-16 14:14:57:303,-0.1058,0.2781,9.6004,-0.0046,0.0964,9.8062,0.0117,0.0101,0.0123,-5.71,23.87,-17.26,249.91,9.35,0.54
51436,51.442978,-2.819993,80,18.33,10,238.4,Dec-20,5143623,2019-08-16 14:14:57:403,-0.1173,-0.0674,10.2636,0.0013,-0.0017,9.8066,-0.0085,0.0304,-0.0027,-5.52,24.75,-16.02,250.63,9.87,0.76
51437,51.442978,-2.819993,80,18.33,10,238.4,Dec-20,5143723,2019-08-16 14:14:57:503,0.0566,0.427,10.6424,-0.0025,0.008,9.8066,-0.0085,0.0304,-0.0027,-6.34,24.61,-15.94,250.64,9.87,0.75
51438,51.442898,-2.820244,80,18.54,10,238.5,Dec-20,5143823,2019-08-16 14:14:57:603,0.3266,0.2254,10.5698,-0.0042,0.0231,9.8066,0.0224,-0.0186,0.0037,-5.68,24.87,-15.79,250.55,9.99,0.82
51439,51.442898,-2.820244,80,18.54,10,238.5,Dec-20,5143923,2019-08-16 14:14:57:703,0.2335,-0.0286,9.3187,0.0045,0.017,9.8066,-0.001,0.0155,-0.0005,-6.12,25.38,-14.79,250.55,9.99,0.82
51440,51.442898,-2.820244,80,18.54,10,238.5,Dec-20,5144026,2019-08-16 14:14:57:806,-0.0552,0.3983,9.5664,0.0115,0.0304,9.8066,0.0,-0.0069,0.0101,-6.12,25.38,-14.79,250.55,9.99,0.82
51441,51.442898,-2.820244,80,18.54,10,238.5,Dec-20,5144123,2019-08-16 14:14:57:903,0.0698,0.4391,8.8217,-0.0102,0.0235,9.8066,0.0139,0.0144,0.0005,-6.22,25.21,-15.03,250.83,10.18,0.82
51442,51.442898,-2.820244,80,18.54,10,238.5,Dec-20,5144223,2019-08-16 14:14:58:003,0.041,0.391,9.1513,-0.0117,0.0458,9.8065,-0.0213,-0.0048,0.0101,-5.59,25.05,-15.53,250.27,10.41,0.97
51443,51.442898,-2.820244,80,18.54,10,238.5,Dec-20,5144323,2019-08-16 14:14:58:103,0.1556,-0.3835,9.5072,0.0254,0.0095,9.8066,-0.0021,0.0378,-0.0048,-5.76,24.71,-16.01,250.26,10.51,0.85
51444,51.442898,-2.820244,80,18.54,10,238.5,Dec-20,5144423,2019-08-16 14:14:58:203,-0.1008,-0.1226,9.7483,0.0549,0.0367,9.8064,-0.0138,-0.0154,-0.008,-5.76,24.71,-16.01,250.26,10.51,0.85
51445,51.442898,-2.820244,80,18.54,10,238.5,Dec-20,5144523,2019-08-16 14:14:58:303,0.2548,-0.15,10.6175,0.027,0.0366,9.8065,-0.0138,-0.0154,-0.008,-5.68,24.87,-15.79,250.18,10.82,0.61
51446,51.442898,-2.820244,80,18.54,10,238.5,Dec-20,5144623,2019-08-16 14:14:58:403,-0.0873,-0.05,10.3363,0.0211,-0.0001,9.8066,-0.0149,0.0453,-0.0144,-5.04,24.65,-16.34,252.1,11.07,0.54
51447,51.442898,-2.820244,80,18.54,10,238.5,Dec-20,5144723,2019-08-16 14:14:58:503,0.0326,0.0429,10.4452,0.0195,0.002,9.8066,0.0032,0.0261,0.0091,-5.68,24.87,-15.79,250.09,11.12,0.43
51448,51.442818,-2.820485,78,18.52,10,238.5,Dec-20,5144822,2019-08-16 14:14:58:602,0.0817,0.0009,9.489,-0.0111,0.0057,9.8066,0.0213,0.0272,0.0016,-5.68,24.87,-15.79,250.09,11.12,0.43
51449,51.442818,-2.820485,78,18.52,10,238.5,Dec-20,5144923,2019-08-16 14:14:58:703,-0.0013,0.3112,10.509,-0.0194,-0.0175,9.8066,0.0011,0.0005,0.0027,-6.33,25.07,-15.21,250.46,11.13,0.5
51450,51.442818,-2.820485,78,18.52,10,238.5,Dec-20,5145023,2019-08-16 14:14:58:803,0.1869,0.1679,9.4859,-0.0074,0.0117,9.8066,-0.0064,-0.0644,0.008,-5.68,24.87,-15.79,250.46,11.13,0.5
51451,51.442818,-2.820485,78,18.52,10,238.5,Dec-20,5145124,2019-08-16 14:14:58:904,0.3217,0.0291,9.7166,-0.0078,0.0427,9.8066,0.0064,0.0559,0.0091,-6.26,24.77,-15.73,249.9,11.35,0.63
51452,51.442818,-2.820485,78,18.52,10,238.5,Dec-20,5145223,2019-08-16 14:14:59:003,0.0772,0.2585,9.4828,0.0109,0.0068,9.8066,0.0043,0.0059,0.0144,-6.26,24.77,-15.73,249.9,11.35,0.63
51453,51.442818,-2.820485,78,18.52,10,238.5,Dec-20,5145323,2019-08-16 14:14:59:103,0.4057,0.3268,10.4844,0.0077,0.0274,9.8066,0.0043,0.0059,0.0144,-5.76,24.71,-16.01,249.88,11.41,0.58
51454,51.442818,-2.820485,78,18.52,10,238.5,Dec-20,5145423,2019-08-16 14:14:59:203,0.1143,0.1277,10.4599,0.014,0.0204,9.8066,0.0117,0.0101,-0.0016,-4.7,24.35,-16.89,250.66,11.57,0.6
51455,51.442818,-2.820485,78,18.52,10,238.5,Dec-20,5145524,2019-08-16 14:14:59:304,-0.0507,-0.3446,10.4381,0.0293,0.0073,9.8066,-0.0053,-0.024,-0.0154,-5.02,25.14,-15.58,250.66,11.57,0.6
51456,51.442818,-2.820485,78,18.52,10,238.5,Dec-20,5145623,2019-08-16 14:14:59:403,0.2049,-0.26,9.9146,-0.0015,-0.0301,9.8066,0.0032,0.0219,-0.025,-5.1,24.96,-15.85,251.81,11.67,0.45
51457,51.442818,-2.820485,78,18.52,10,238.5,Dec-20,5145723,2019-08-16 14:14:59:503,-0.2727,-0.193,10.4452,0.0091,-0.0115,9.8066,-0.017,-0.0975,0.0133,-5.1,24.96,-15.85,251.81,11.67,0.45
51458,51.442726,-2.820723,77,18.38,10,238.5,Dec-20,5145823,2019-08-16 14:14:59:603,-0.0946,0.2074,9.9844,0.0083,0.0167,9.8066,0.0139,0.025,0.0165,-5.11,24.48,-16.56,250.72,11.62,0.37
51459,51.442726,-2.820723,77,18.38,10,238.5,Dec-20,5145923,2019-08-16 14:14:59:703,-0.1491,0.1734,11.5382,0.0053,-0.0197,9.8066,-0.0202,-0.0144,0.0112,-5.81,25.43,-14.82,250.34,11.52,0.31
51460,51.442726,-2.820723,77,18.38,10,238.5,Dec-20,5146023,2019-08-16 14:14:59:803,0.2486,0.1542,10.0137,0.0029,0.0254,9.8066,0.0171,0.04,-0.0112,-5.81,25.43,-14.82,250.34,11.52,0.31
51461,51.442726,-2.820723,77,18.38,10,238.5,Dec-20,5146123,2019-08-16 14:14:59:903,0.1106,0.0275,9.9941,0.0112,0.0179,9.8066,0.0171,0.04,-0.0112,-5.69,24.91,-15.72,249.84,11.67,0.34
51462,51.442726,-2.820723,77,18.38,10,238.5,Dec-20,5146224,2019-08-16 14:15:00:004,-0.346,-0.1122,9.5691,0.0251,0.0135,9.8066,-0.0096,0.0165,0.0101,-4.48,24.9,-16.12,253.88,11.79,0.23
51463,51.442726,-2.820723,77,18.38,10,238.5,Dec-20,5146323,2019-08-16 14:15:00:103,-0.0507,-0.0826,10.1756,-0.0117,-0.0538,9.8065,-0.0021,0.0432,0.0037,-5.1,24.96,-15.85,251.95,11.56,0.24
51464,51.442726,-2.820723,77,18.38,10,238.5,Dec-20,5146423,2019-08-16 14:15:00:203,-0.1255,-0.3625,10.0623,-0.0246,-0.0627,9.8064,0.0117,-0.0272,0.0059,-5.1,24.96,-15.85,251.95,11.56,0.24
51465,51.442726,-2.820723,77,18.38,10,238.5,Dec-20,5146523,2019-08-16 14:15:00:303,0.2657,-0.2331,10.1328,0.0113,0.0191,9.8066,0.0022,-0.0261,-0.0176,-4.68,24.87,-16.11,252.15,11.17,0.26
51466,51.442726,-2.820723,77,18.38,10,238.5,Dec-20,5146623,2019-08-16 14:15:00:403,0.4264,0.1289,9.391,0.0184,0.0508,9.8065,-0.017,-0.0069,-0.0165,-5.18,24.85,-16.0,252.15,11.17,0.26
51467,51.442726,-2.820723,77,18.38,10,238.5,Dec-20,5146723,2019-08-16 14:15:00:503,-0.0628,-0.339,10.2499,0.0105,0.0143,9.8066,0.0245,0.0474,0.0005,-5.17,24.8,-16.07,251.98,11.49,0.25
51468,51.442657,-2.820964,74,18.44,10,238.8,Dec-20,5146823,2019-08-16 14:15:00:603,-0.4081,-0.2369,9.647,0.0073,0.0146,9.8066,0.0288,0.0282,-0.0059,-4.99,25.56,-14.9,251.98,11.49,0.25
51469,51.442657,-2.820964,74,18.44,10,238.8,Dec-20,5146923,2019-08-16 14:15:00:703,0.0322,-0.0192,10.1275,0.0079,0.0212,9.8066,0.0288,0.0282,-0.0059,-5.13,25.69,-14.62,252.98,11.62,0.25
51470,51.442657,-2.820964,74,18.44,10,238.8,Dec-20,5147024,2019-08-16 14:15:00:804,-0.0724,-0.4287,9.4532,-0.0122,-0.0347,9.8066,-0.0032,0.0282,0.0059,-5.13,25.69,-14.62,252.98,11.62,0.25
51471,51.442657,-2.820964,74,18.44,10,238.8,Dec-20,5147123,2019-08-16 14:15:00:903,-0.0743,-0.5076,9.6124,-0.0281,-0.0358,9.8065,0.0139,0.0645,-0.008,-5.17,25.26,-15.33,252.44,11.4,0.26
51472,51.442657,-2.820964,74,18.44,10,238.8,Dec-20,5147224,2019-08-16 14:15:01:004,-0.2045,-0.1117,9.961,0.0182,0.0038,9.8066,-0.016,0.0208,-0.0112,-5.11,25.0,-15.77,252.15,11.11,0.35
51473,51.442657,-2.820964,74,18.44,10,238.8,Dec-20,5147323,2019-08-16 14:15:01:103,-0.3216,-0.0089,10.7699,0.0097,0.0266,9.8066,0.0149,0.0005,0.0005,-6.09,25.45,-14.66,250.54,11.16,0.25
51474,51.442657,-2.820964,74,18.44,10,238.8,Dec-20,5147423,2019-08-16 14:15:01:203,0.1192,-0.174,10.0032,0.0152,0.0349,9.8066,-0.0064,-0.0314,-0.0005,-6.09,25.45,-14.66,250.54,11.16,0.25
51475,51.442657,-2.820964,74,18.44,10,238.8,Dec-20,5147523,2019-08-16 14:15:01:303,0.2292,0.514,9.0592,0.0162,-0.0006,9.8066,-0.0074,-0.057,0.0112,-4.1,24.47,-16.87,253.04,11.38,0.24
51476,51.442657,-2.820964,74,18.44,10,238.8,Dec-20,5147623,2019-08-16 14:15:01:403,-0.0488,-0.0335,9.4475,-0.0079,0.0014,9.8066,0.0085,-0.0005,0.0133,-4.03,25.14,-15.86,254.13,11.41,0.14
51477,51.442657,-2.820964,74,18.44,10,238.8,Dec-20,5147723,2019-08-16 14:15:01:503,-0.4548,-0.3043,10.3356,-0.0292,0.001,9.8066,0.0181,0.057,-0.0048,-5.11,25.0,-15.77,254.13,11.41,0.14
51478,51.44256,-2.821195,73,18.42,10,238.8,Dec-20,5147823,2019-08-16 14:15:01:603,-0.5051,-0.1109,10.4898,-0.0356,-0.0077,9.8066,0.0181,0.057,-0.0048,-4.72,25.6,-14.92,253.1,11.31,0.34
51479,51.44256,-2.821195,73,18.42,10,238.8,Dec-20,5147923,2019-08-16 14:15:01:703,0.0207,0.2859,10.2616,0.004,-0.0028,9.8066,-0.0223,-0.0485,0.0005,-4.72,25.6,-14.92,253.1,11.31,0.34
51480,51.44256,-2.821195,73,18.42,10,238.8,Dec-20,5148024,2019-08-16 14:15:01:804,0.355,0.1188,10.0406,-0.0069,-0.0224,9.8066,0.0107,-0.0293,0.0037,-4.62,25.07,-15.82,252.06,11.3,0.31
51481,51.44256,-2.821195,73,18.42,10,238.8,Dec-20,5148123,2019-08-16 14:15:01:903,0.35,-0.4,10.2796,-0.0087,-0.0292,9.8066,0.0054,-0.041,0.0059,-4.55,24.79,-16.27,252.16,11.12,0.3
51482,51.44256,-2.821195,73,18.42,10,238.8,Dec-20,5148223,2019-08-16 14:15:02:003,-0.0621,-0.3287,10.3228,-0.0043,-0.0101,9.8066,-0.0319,0.0091,0.0101,-4.16,24.8,-16.37,254.26,11.06,0.31
51483,51.44256,-2.821195,73,18.42,10,238.8,Dec-20,5148323,2019-08-16 14:15:02:103,0.043,-0.0738,9.6574,0.0168,0.0292,9.8066,0.0181,0.0187,-0.0154,-4.16,24.8,-16.37,254.26,11.06,0.31
51484,51.44256,-2.821195,73,18.42,10,238.8,Dec-20,5148423,2019-08-16 14:15:02:203,-0.053,0.0874,9.8248,0.0179,-0.0146,9.8066,-0.0149,0.0027,-0.0069,-4.09,24.99,-16.09,254.1,11.37,0.29
51485,51.44256,-2.821195,73,18.42,10,238.8,Dec-20,5148523,2019-08-16 14:15:02:303,-0.002,-0.0331,9.6686,0.0031,-0.0285,9.8066,-0.0149,0.0027,-0.0069,-4.71,24.39,-16.82,250.99,11.31,0.16
51486,51.44256,-2.821195,73,18.42,10,238.8,Dec-20,5148623,2019-08-16 14:15:02:403,0.2796,-0.3811,10.2583,-0.021,-0.0547,9.8065,0.0054,-0.0101,0.0176,-4.55,24.79,-16.27,252.29,10.97,0.17
51487,51.44256,-2.821195,73,18.42,10,238.8,Dec-20,5148723,2019-08-16 14:15:02:503,-0.3113,-0.0445,9.7684,-0.0203,-0.0151,9.8066,0.0107,0.0677,0.0112,-5.76,24.71,-16.01,252.29,10.97,0.17
51488,51.442467,-2.821424,73,18.41,10,238.6,13 / 20,5148823,2019-08-16 14:15:02:603,-0.315,-0.3067,9.2487,-0.0343,0.0002,9.8066,-0.0074,-0.009,-0.0037,-5.76,24.71,-16.01,252.29,10.97,0.17
51489,51.442467,-2.821424,73,18.41,10,238.6,13 / 20,5148923,2019-08-16 14:15:02:703,-0.0809,0.0227,9.2098,0.0074,0.0101,9.8066,0.0117,-0.0016,-0.0016,-6.49,25.17,-14.97,250.62,10.91,0.37
51490,51.442467,-2.821424,73,18.41,10,238.6,13 / 20,5149023,2019-08-16 14:15:02:803,0.2259,0.3162,9.3761,-0.0111,0.0284,9.8066,0.0022,0.0219,0.0101,-6.01,25.14,-15.22,250.59,10.98,0.34
51491,51.442467,-2.821424,73,18.41,10,238.6,13 / 20,5149123,2019-08-16 14:15:02:903,-0.0711,0.0494,9.841,-0.0272,0.0365,9.8065,-0.017,-0.0378,0.0069,-7.07,23.8,-16.83,246.84,11.13,0.57
51492,51.442467,-2.821424,73,18.41,10,238.6,13 / 20,5149223,2019-08-16 14:15:03:003,-0.6107,0.0535,10.2308,-0.0096,0.0246,9.8066,-0.017,-0.0378,0.0069,-7.07,23.8,-16.83,246.84,11.13,0.57
51493,51.442467,-2.821424,73,18.41,10,238.6,13 / 20,5149323,2019-08-16 14:15:03:103,-0.1522,-0.1449,9.7614,-0.0027,0.0338,9.8066,0.016,0.0037,-0.0101,-5.89,24.02,-16.98,246.84,11.13,0.57
51494,51.442467,-2.821424,73,18.41,10,238.6,13 / 20,5149423,2019-08-16 14:15:03:203,0.2109,0.0379,9.8473,-0.011,-0.0124,9.8066,0.0235,0.0314,0.0005,-5.11,23.83,-17.49,250.89,11.18,0.62
51495,51.442467,-2.821424,73,18.41,10,238.6,13 / 20,5149523,2019-08-16 14:15:03:303,-0.1191,-0.165,9.9141,-0.0158,-0.0182,9.8066,-0.0021,-0.0037,-0.0005,-5.11,23.83,-17.49,250.89,11.18,0.62
51496,51.442467,-2.821424,73,18.41,10,238.6,13 / 20,5149623,2019-08-16 14:15:03:403,-0.3049,-0.014,10.081,-0.0058,0.0168,9.8066,0.0032,0.0027,-0.0048,-4.8,23.61,-17.87,250.52,11.05,0.67
51497,51.442467,-2.821424,73,18.41,10,238.6,13 / 20,5149723,2019-08-16 14:15:03:503,-0.1311,-0.3632,8.9917,-0.0018,-0.0062,9.8066,0.0054,0.0474,-0.0048,-5.2,24.33,-16.77,250.87,11.14,0.74
51498,51.442375,-2.821652,72,18.22,10,238.3,13 / 20,5149824,2019-08-16 14:15:03:604,-0.34,0.0418,10.2937,-0.0101,-0.0282,9.8066,-0.0362,-0.0026,0.0059,-5.53,24.56,-16.31,250.06,10.96,0.74
51499,51.442375,-2.821652,72,18.22,10,238.3,13 / 20,5149923,2019-08-16 14:15:03:703,0.2797,0.4437,9.6428,0.0311,0.0145,9.8066,0.0043,0.0027,-0.0069,-5.53,24.56,-16.31,250.06,10.96,0.74
51500,51.442375,-2.821652,72,18.22,10,238.3,13 / 20,5150023,2019-08-16 14:15:03:803,-0.2582,-0.219,10.0829,0.0126,0.017,9.8066,0.0043,0.0027,-0.0069,-5.0,24.59,-16.44,252.07,11.1,0.59
51501,51.442375,-2.821652,72,18.22,10,238.3,13 / 20,5150123,2019-08-16 14:15:03:903,0.0935,0.0211,10.2053,0.0071,0.0162,9.8066,0.0086,0.0059,-0.0091,-5.35,24.39,-16.62,252.07,11.1,0.59
51502,51.442375,-2.821652,72,18.22,10,238.3,13 / 20,5150223,2019-08-16 14:15:04:003,0.0749,-0.1661,10.4775,0.0142,0.0031,9.8066,-0.0106,0.0133,0.0005,-5.52,24.51,-16.39,250.05,11.14,0.52
51503,51.442375,-2.821652,72,18.22,10,238.3,13 / 20,5150323,2019-08-16 14:15:04:103,-0.0416,-0.061,9.7905,0.0045,0.0269,9.8066,0.0181,-0.0271,0.008,-4.31,24.38,-16.94,253.13,11.11,0.46
51504,51.442375,-2.821652,72,18.22,10,238.3,13 / 20,5150423,2019-08-16 14:15:04:203,0.0935,-0.2154,9.9875,0.0143,0.0349,9.8066,-0.0053,-0.0101,0.0069,-4.16,24.8,-16.37,253.13,11.11,0.46
51505,51.442375,-2.821652,72,18.22,10,238.3,13 / 20,5150522,2019-08-16 14:15:04:302,0.0206,0.1455,9.749,0.0044,0.009,9.8066,0.0032,0.0357,-0.0027,-4.71,24.39,-16.82,250.96,11.17,0.45
51506,51.442375,-2.821652,72,18.22,10,238.3,13 / 20,5150623,2019-08-16 14:15:04:403,-0.1487,-0.0513,10.478,0.0015,-0.0122,9.8066,0.0235,-0.0026,-0.0005,-5.27,24.65,-16.27,250.96,11.17,0.45
51507,51.442375,-2.821652,72,18.22,10,238.3,13 / 20,5150724,2019-08-16 14:15:04:504,0.0143,0.186,9.4566,-0.0024,-0.0063,9.8066,0.0235,-0.0026,-0.0005,-5.27,24.65,-16.27,250.96,11.17,0.45
51508,51.44229,-2.821861,72,18.23,10,238.2,13 / 20,5150822,2019-08-16 14:15:04:602,0.2067,-0.0236,10.1257,0.0042,0.0076,9.8066,-0.0202,-0.0154,0.0165,-5.67,25.39,-14.94,250.48,11.13,0.45
51509,51.44229,-2.821861,72,18.23,10,238.2,13 / 20,5150923,2019-08-16 14:15:04:703,0.1414,-0.0413,9.6242,0.0112,0.0099,9.8066,-0.016,0.0123,0.0197,-5.87,24.55,-16.21,250.06,11.2,0.41
51510,51.44229,-2.821861,72,18.23,10,238.2,13 / 20,5151022,2019-08-16 14:15:04:802,0.2271,0.3141,10.4655,-0.0138,-0.0177,9.8066,0.0064,0.0528,0.008,-5.87,24.55,-16.21,250.06,11.2,0.41
51511,51.44229,-2.821861,72,18.23,10,238.2,13 / 20,5151123,2019-08-16 14:15:04:903,0.2964,0.2749,9.5195,-0.015,-0.0188,9.8066,0.0149,0.008,0.0005,-6.34,24.61,-15.94,250.11,11.07,0.46
51512,51.44229,-2.821861,72,18.23,10,238.2,13 / 20,5151223,2019-08-16 14:15:05:003,0.0577,-0.1183,9.6473,0.0046,-0.01,9.8066,0.0043,-0.0154,0.0059,-5.79,24.23,-16.71,248.97,11.07,0.37
51513,51.44229,-2.821861,72,18.23,10,238.2,13 / 20,5151324,2019-08-16 14:15:05:104,-0.1277,-0.1733,9.6056,0.0027,-0.0102,9.8066,0.0117,0.0251,0.0059,-5.79,24.23,-16.71,248.97,11.07,0.37
51514,51.44229,-2.821861,72,18.23,10,238.2,13 / 20,5151423,2019-08-16 14:15:05:203,-0.3154,0.0422,10.1437,-0.006,0.0124,9.8066,0.0117,0.0251,0.0059,-5.46,24.22,-16.84,251.1,11.02,0.34
51515,51.44229,-2.821861,72,18.23,10,238.2,13 / 20,5151523,2019-08-16 14:15:05:303,-0.1173,0.0679,10.2008,0.0054,0.0138,9.8066,-0.0096,-0.008,0.0091,-4.87,23.96,-17.39,251.04,11.08,0.39
51516,51.44229,-2.821861,72,18.23,10,238.2,13 / 20,5151623,2019-08-16 14:15:05:403,-0.341,-0.1285,9.6125,0.0085,0.0119,9.8066,-0.0074,0.0474,0.0101,-4.87,23.96,-17.39,251.04,11.08,0.39
51517,51.44229,-2.821861,72,18.23,10,238.2,13 / 20,5151724,2019-08-16 14:15:05:504,-0.2194,-0.0893,10.3362,0.0034,-0.0241,9.8066,-0.0191,0.0368,0.0091,-4.83,25.04,-15.79,252.12,11.16,0.37
51518,51.442215,-2.822081,70,18.5,10,238.2,13 / 20,5151823,2019-08-16 14:15:05:603,0.1736,-0.0954,10.3783,-0.0118,-0.0342,9.8066,-0.0053,0.0048,0.0037,-5.3,25.38,-15.09,252.12,11.16,0.37
51519,51.442215,-2.822081,70,18.5,10,238.2,13 / 20,5151923,2019-08-16 14:15:05:703,0.1651,-0.4303,10.4689,-0.0066,-0.0351,9.8066,0.0139,0.0581,-0.0059,-5.27,25.89,-14.2,253.66,10.95,0.34
51520,51.442215,-2.822081,70,18.5,10,238.2,13 / 20,5152023,2019-08-16 14:15:05:803,-0.1041,0.0692,9.5004,0.0081,-0.0011,9.8066,-0.0096,0.0368,0.0091,-7.13,25.78,-13.58,253.66,10.95,0.34
51521,51.442215,-2.822081,70,18.5,10,238.2,13 / 20,5152123,2019-08-16 14:15:05:903,0.3664,0.5448,10.0404,-0.0002,0.0201,9.8066,0.0086,-0.0335,-0.0037,-5.8,25.5,-14.7,250.56,11.05,0.33
51522,51.442215,-2.822081,70,18.5,10,238.2,13 / 20,5152223,2019-08-16 14:15:06:003,-0.1654,-0.0106,10.2144,-0.0132,0.0364,9.8066,0.0171,-0.0165,-0.0005,-5.8,25.5,-14.7,250.56,11.05,0.33
51523,51.442215,-2.822081,70,18.5,10,238.2,13 / 20,5152323,2019-08-16 14:15:06:103,0.0795,0.1406,9.8801,-0.0149,0.0069,9.8066,0.0171,-0.0165,-0.0005,-5.7,24.44,-16.44,249.26,11.23,0.47
51524,51.442215,-2.822081,70,18.5,10,238.2,13 / 20,5152426,2019-08-16 14:15:06:206,-0.1937,-0.3806,9.7425,-0.0356,-0.008,9.8066,0.016,0.0421,0.0016,-6.38,24.13,-16.64,249.26,11.23,0.47
51525,51.442215,-2.822081,70,18.5,10,238.2,13 / 20,5152522,2019-08-16 14:15:06:302,-0.015,0.3543,9.9541,-0.0187,0.0068,9.8066,-0.0042,0.024,0.008,-6.56,24.19,-16.48,247.21,11.11,0.66
51526,51.442215,-2.822081,70,18.5,10,238.2,13 / 20,5152622,2019-08-16 14:15:06:402,-0.3249,0.1447,9.7732,-0.0191,0.0133,9.8066,-0.0128,-0.008,-0.0016,-6.21,23.5,-17.58,248.35,11.14,0.79
51527,51.442215,-2.822081,70,18.5,10,238.2,13 / 20,5152723,2019-08-16 14:15:06:503,-0.2805,0.1168,9.7262,0.0037,0.0056,9.8066,0.0032,-0.0016,0.0037,-6.37,24.09,-16.71,248.75,11.18,0.78
51528,51.442135,-2.822302,69,18.55,10,237.9,13 / 20,5152823,2019-08-16 14:15:06:603,-0.0688,-0.1456,10.1558,-0.0055,-0.0114,9.8066,0.0192,0.0091,-0.0122,-6.37,24.09,-16.71,248.75,11.18,0.78
51529,51.442135,-2.822302,69,18.55,10,237.9,13 / 20,5152923,2019-08-16 14:15:06:703,-0.0085,-0.3987,10.0502,-0.0063,-0.0266,9.8066,0.0022,0.0155,0.0027,-6.75,24.25,-16.32,247.22,11.02,0.76
51530,51.442135,-2.822302,69,18.55,10,237.9,13 / 20,5153023,2019-08-16 14:15:06:803,0.3441,0.5052,10.2228,0.0002,0.0153,9.8066,0.0245,-0.0974,0.0154,-5.95,24.25,-16.63,248.78,11.1,0.79
51531,51.442135,-2.822302,69,18.55,10,237.9,13 / 20,5153123,2019-08-16 14:15:06:903,-0.2314,0.1242,10.4294,0.0031,0.0169,9.8066,0.0245,-0.0974,0.0154,-5.95,24.25,-16.63,248.78,11.1,0.79
51532,51.442135,-2.822302,69,18.55,10,237.9,13 / 20,5153223,2019-08-16 14:15:07:003,-0.3196,-0.3552,9.5989,-0.0075,0.0188,9.8066,-0.0053,-0.0048,-0.0154,-6.44,24.36,-16.28,249.14,11.2,0.81
51533,51.442135,-2.822302,69,18.55,10,237.9,13 / 20,5153323,2019-08-16 14:15:07:103,-0.288,0.1283,9.3696,-0.0035,-0.0016,9.8067,0.032,0.0315,-0.0091,-5.95,24.25,-16.63,248.63,11.29,0.9
51534,51.442135,-2.822302,69,18.55,10,237.9,13 / 20,5153424,2019-08-16 14:15:07:204,0.0564,-0.1671,9.6559,-0.0185,-0.0048,9.8066,-0.0053,-0.0282,0.0037,-5.95,24.25,-16.63,248.63,11.29,0.9
51535,51.442135,-2.822302,69,18.55,10,237.9,13 / 20,5153523,2019-08-16 14:15:07:303,0.1196,0.1256,10.2848,-0.0022,0.0036,9.8066,0.0043,0.0091,0.0059,-5.38,23.96,-17.23,250.72,11.22,0.99
51536,51.442135,-2.822302,69,18.55,10,237.9,13 / 20,5153623,2019-08-16 14:15:07:403,0.0713,-0.1714,9.5642,-0.0006,0.008,9.8066,-0.0223,-0.0101,-0.0027,-5.79,24.11,-16.89,248.6,11.26,1.01
51537,51.442135,-2.822302,69,18.55,10,237.9,13 / 20,5153723,2019-08-16 14:15:07:503,-0.1722,-0.2247,10.2709,0.0087,-0.0181,9.8066,-0.0032,0.0293,0.0005,-5.79,24.11,-16.89,248.6,11.26,1.01
51538,51.442043,-2.822538,69,18.41,10,237.7,13 / 20,5153823,2019-08-16 14:15:07:603,0.1513,-0.0491,10.4569,-0.0019,-0.0044,9.8066,0.0107,-0.0112,0.0005,-5.67,24.82,-15.86,249.87,11.18,0.92
51539,51.442043,-2.822538,69,18.41,10,237.7,13 / 20,5153925,2019-08-16 14:15:07:705,-0.0111,-0.2384,9.8576,-0.0103,-0.0085,9.8066,0.0107,-0.0112,0.0005,-5.83,24.9,-15.69,249.89,11.12,0.96
51540,51.442043,-2.822538,69,18.41,10,237.7,13 / 20,5154023,2019-08-16 14:15:07:803,0.1215,0.1306,9.9238,0.0044,-0.0078,9.8066,-0.0064,0.0315,0.0059,-7.0,24.68,-15.55,249.89,11.12,0.96
51541,51.442043,-2.822538,69,18.41,10,237.7,13 / 20,5154123,2019-08-16 14:15:07:903,-0.0335,-0.0309,10.5254,0.0082,-0.0242,9.8066,-0.0159,0.0165,0.0123,-7.0,24.68,-15.55,249.89,11.12,0.96
51542,51.442043,-2.822538,69,18.41,10,237.7,13 / 20,5154223,2019-08-16 14:15:08:003,0.3691,0.1096,10.1932,-0.002,0.0374,9.8066,0.0192,-0.0112,-0.0005,-6.44,24.28,-16.4,249.23,11.0,0.86
51543,51.442043,-2.822538,69,18.41,10,237.7,13 / 20,5154323,2019-08-16 14:15:08:103,0.125,0.3063,9.8512,0.004,0.0135,9.8066,0.0107,-0.0101,0.0059,-5.71,23.79,-17.37,248.66,11.2,0.95
51544,51.442043,-2.822538,69,18.41,10,237.7,13 / 20,5154424,2019-08-16 14:15:08:204,0.3553,0.3812,9.5883,0.0113,0.0358,9.8066,0.0054,-0.0463,0.0101,-5.37,24.0,-17.18,250.61,11.42,0.97
51545,51.442043,-2.822538,69,18.41,10,237.7,13 / 20,5154523,2019-08-16 14:15:08:303,-0.0376,0.1564,9.8813,-0.0019,-0.0068,9.8066,0.0128,0.0048,0.0005,-5.3,24.18,-16.95,250.61,11.42,0.97
51546,51.442043,-2.822538,69,18.41,10,237.7,13 / 20,5154624,2019-08-16 14:15:08:404,-0.1487,-0.1789,10.3744,-0.01,-0.0161,9.8066,-0.0021,0.0038,0.0037,-5.3,24.18,-16.95,250.61,11.42,0.97
51547,51.442043,-2.822538,69,18.41,10,237.7,13 / 20,5154724,2019-08-16 14:15:08:504,-0.0042,-0.3359,10.1523,-0.0058,-0.0039,9.8066,-0.0021,0.0038,0.0037,-5.62,24.0,-17.1,248.58,11.31,0.99
51548,51.441967,-2.822766,67,18.55,9,237.6,13 / 20,5154823,2019-08-16 14:15:08:603,-0.067,-0.4262,10.1579,-0.0086,-0.0349,9.8066,-0.0021,0.0432,0.0091,-6.81,24.62,-15.73,248.58,11.31,0.99
51549,51.441967,-2.822766,67,18.55,9,237.6,13 / 20,5154923,2019-08-16 14:15:08:703,-0.1857,0.0565,9.7276,-0.0171,-0.0787,9.8063,0.0011,0.0069,0.0165,-7.19,24.75,-15.36,248.46,10.85,0.92
51550,51.441967,-2.822766,67,18.55,9,237.6,13 / 20,5155023,2019-08-16 14:15:08:803,-0.0261,0.3551,9.6571,0.0171,0.0247,9.8066,-0.0223,-0.0261,0.0101,-7.87,24.92,-14.73,246.56,10.76,0.92
51551,51.441967,-2.822766,67,18.55,9,237.6,13 / 20,5155123,2019-08-16 14:15:08:903,0.3948,0.8963,9.1705,0.0622,0.0734,9.8062,-0.0106,-0.0026,-0.0027,-7.0,24.68,-15.55,246.56,10.76,0.92
51552,51.441967,-2.822766,67,18.55,9,237.6,13 / 20,5155223,2019-08-16 14:15:09:003,0.0698,0.3024,9.5031,0.1144,0.1156,9.8053,-0.0287,-0.0197,0.0101,-7.0,24.68,-15.55,246.56,10.76,0.92
51553,51.441967,-2.822766,67,18.55,9,237.6,13 / 20,5155323,2019-08-16 14:15:09:103,0.5386,0.6128,10.0638,0.0198,0.0319,9.8066,-0.0085,-0.0431,0.0176,-6.64,24.39,-16.16,246.97,11.64,0.57
51554,51.441967,-2.822766,67,18.55,9,237.6,13 / 20,5155423,2019-08-16 14:15:09:203,0.3532,0.7964,9.9656,0.0484,0.1087,9.8059,-0.0074,-0.0101,-0.0016,-6.64,24.39,-16.16,246.97,11.64,0.57
51555,51.441967,-2.822766,67,18.55,9,237.6,13 / 20,5155523,2019-08-16 14:15:09:303,0.4723,0.7835,10.1103,0.0212,0.0386,9.8066,0.0022,0.0517,0.0037,-6.12,24.32,-16.47,248.63,12.34,0.56
51556,51.441967,-2.822766,67,18.55,9,237.6,13 / 20,5155623,2019-08-16 14:15:09:403,-0.2164,0.2899,11.054,0.033,0.0703,9.8063,0.0022,0.0517,0.0037,-5.95,24.17,-16.75,247.94,12.79,0.53
51557,51.441967,-2.822766,67,18.55,9,237.6,13 / 20,5155723,2019-08-16 14:15:09:503,0.0364,0.6255,9.7414,-0.0153,0.0294,9.8066,0.0299,0.0464,0.0272,-6.8,24.58,-15.8,247.94,12.79,0.53
51558,51.44188,-2.82298,66,18.5,10,237.3,Dec-20,5155823,2019-08-16 14:15:09:603,-0.0107,0.1992,10.2947,-0.0304,0.0451,9.8065,0.016,0.0304,0.0176,-6.8,24.58,-15.8,247.94,12.79,0.53
51559,51.44188,-2.82298,66,18.5,10,237.3,Dec-20,5155924,2019-08-16 14:15:09:704,-0.1937,-0.0502,10.3851,0.0339,0.0628,9.8064,0.0224,0.0165,-0.0218,-7.52,25.0,-14.77,245.61,12.97,0.8
51560,51.44188,-2.82298,66,18.5,10,237.3,Dec-20,5156023,2019-08-16 14:15:09:803,0.2169,0.2007,10.3519,0.0071,0.0267,9.8066,0.016,0.0261,-0.025,-7.66,24.86,-14.95,245.44,13.38,0.77
51561,51.44188,-2.82298,66,18.5,10,237.3,Dec-20,5156122,2019-08-16 14:15:09:902,0.1363,0.4547,10.0945,-0.0013,0.0278,9.8066,-0.0074,-0.0048,-0.0186,-7.66,24.86,-14.95,245.36,13.54,0.8
51562,51.44188,-2.82298,66,18.5,10,237.3,Dec-20,5156223,2019-08-16 14:15:10:003,0.3224,0.4696,10.4215,0.04,0.0595,9.8064,-0.0223,0.0283,-0.0144,-7.66,24.86,-14.95,245.36,13.54,0.8
51563,51.44188,-2.82298,66,18.5,10,237.3,Dec-20,5156324,2019-08-16 14:15:10:104,0.1981,0.6305,9.5221,0.039,0.0454,9.8065,0.0149,-0.0005,-0.0112,-6.63,24.47,-16.04,245.74,13.96,0.73
51564,51.44188,-2.82298,66,18.5,10,237.3,Dec-20,5156424,2019-08-16 14:15:10:204,-0.2638,0.3223,9.7764,0.0672,0.0876,9.806,0.0149,-0.0005,-0.0112,-6.55,24.15,-16.56,245.74,13.96,0.73
51565,51.44188,-2.82298,66,18.5,10,237.3,Dec-20,5156524,2019-08-16 14:15:10:304,-0.0509,0.0724,11.1799,0.0735,0.1124,9.8057,0.0022,-0.0506,0.0027,-6.55,24.06,-16.67,244.9,14.73,0.6
51566,51.44188,-2.82298,66,18.5,10,237.3,Dec-20,5156624,2019-08-16 14:15:10:404,-0.1257,-0.0205,10.068,0.028,0.0572,9.8064,-0.016,-0.0548,0.0176,-6.55,24.06,-16.67,244.9,14.73,0.6
51567,51.44188,-2.82298,66,18.5,10,237.3,Dec-20,5156724,2019-08-16 14:15:10:504,0.6453,0.6243,9.7374,0.0401,0.0651,9.8064,-0.0106,-0.0314,0.0048,-6.44,24.36,-16.28,247.17,15.17,0.55
51568,51.441788,-2.823195,66,17.93,9,237.1,Dec-20,5156823,2019-08-16 14:15:10:603,-0.278,-0.0829,10.3643,0.0056,0.0219,9.8066,0.0139,-0.0101,-0.0037,-7.66,24.86,-14.95,244.71,15.31,0.57
51569,51.441788,-2.823195,66,17.93,9,237.1,Dec-20,5156923,2019-08-16 14:15:10:703,0.391,0.2881,9.933,0.003,0.0315,9.8066,-0.0064,-0.0975,0.0048,-7.66,24.86,-14.95,244.71,15.31,0.57
51570,51.441788,-2.823195,66,17.93,9,237.1,Dec-20,5157023,2019-08-16 14:15:10:803,-0.3202,-0.1079,9.6889,0.0044,0.0364,9.8066,0.0096,0.0187,-0.0133,-7.79,24.66,-15.2,244.47,15.82,0.65
51571,51.441788,-2.823195,66,17.93,9,237.1,Dec-20,5157124,2019-08-16 14:15:10:904,0.0313,0.2134,8.5868,0.0033,0.0294,9.8066,0.0149,0.0826,0.0176,-8.16,24.0,-16.04,242.91,15.98,0.7
51572,51.441788,-2.823195,66,17.93,9,237.1,Dec-20,5157223,2019-08-16 14:15:11:003,0.1478,-0.0495,10.2377,0.0102,0.0265,9.8066,0.0149,0.0826,0.0176,-8.16,24.0,-16.04,242.91,15.98,0.7
51573,51.441788,-2.823195,66,17.93,9,237.1,Dec-20,5157323,2019-08-16 14:15:11:103,0.0951,0.0788,10.8764,0.029,0.0457,9.8065,0.0085,-0.0133,-0.0048,-6.55,24.15,-16.56,244.13,16.14,0.72
51574,51.441788,-2.823195,66,17.93,9,237.1,Dec-20,5157423,2019-08-16 14:15:11:203,0.6261,0.6594,9.2333,0.0504,0.0939,9.8061,-0.049,0.0464,0.0144,-7.12,24.48,-15.81,244.13,16.14,0.72
51575,51.441788,-2.823195,66,17.93,9,237.1,Dec-20,5157523,2019-08-16 14:15:11:303,-0.1159,-0.2531,10.8744,0.0604,0.1202,9.8057,0.0203,-0.0325,-0.0197,-6.55,24.15,-16.56,243.74,16.93,0.71
51576,51.441788,-2.823195,66,17.93,9,237.1,Dec-20,5157623,2019-08-16 14:15:11:403,0.2219,0.2265,9.337,0.0087,0.0229,9.8066,-0.0138,-0.0186,0.0101,-6.55,24.15,-16.56,243.74,16.93,0.71
51577,51.441788,-2.823195,66,17.93,9,237.1,Dec-20,5157724,2019-08-16 14:15:11:504,0.4837,0.2719,9.626,0.0331,0.0481,9.8065,0.0149,-0.0208,0.0027,-7.07,23.2,-17.66,242.09,17.07,0.72
51578,51.441708,-2.823385,65,16.88,9,236.9,Dec-20,5157824,2019-08-16 14:15:11:604,0.2692,0.0873,10.1291,0.0694,0.112,9.8058,0.0149,-0.0208,0.0027,-7.01,24.73,-15.48,242.09,17.07,0.72
51579,51.441708,-2.823385,65,16.88,9,236.9,Dec-20,5157923,2019-08-16 14:15:11:703,0.3032,0.5812,9.4489,0.0335,0.0363,9.8065,-0.0085,0.0155,-0.0176,-8.4,24.09,-15.79,242.0,18.03,0.71
51580,51.441708,-2.823385,65,16.88,9,236.9,Dec-20,5158023,2019-08-16 14:15:11:803,-0.0363,0.2249,10.915,0.0542,0.0952,9.806,0.0203,-0.0687,-0.0176,-8.4,24.09,-15.79,242.0,18.03,0.71
51581,51.441708,-2.823385,65,16.88,9,236.9,Dec-20,5158124,2019-08-16 14:15:11:904,0.605,0.6082,9.2469,0.0065,0.0242,9.8066,-0.0042,0.0336,-0.0027,-8.85,23.64,-16.21,240.0,18.67,0.69
51582,51.441708,-2.823385,65,16.88,9,236.9,Dec-20,5158223,2019-08-16 14:15:12:003,-0.1784,0.4154,9.7525,0.0092,0.0299,9.8066,-0.0053,0.0506,-0.0027,-6.96,23.44,-17.38,241.8,18.85,0.74
51583,51.441708,-2.823385,65,16.88,9,236.9,Dec-20,5158323,2019-08-16 14:15:12:103,0.4984,0.4323,10.2759,0.004,0.0235,9.8066,0.0139,0.0325,-0.0133,-6.96,23.44,-17.38,241.8,18.85,0.74
51584,51.441708,-2.823385,65,16.88,9,236.9,Dec-20,5158423,2019-08-16 14:15:12:203,0.2637,0.7411,9.0301,0.0099,0.0474,9.8065,0.0107,-0.0516,0.0133,-7.17,23.52,-17.18,242.72,18.98,0.78
51585,51.441708,-2.823385,65,16.88,9,236.9,Dec-20,5158523,2019-08-16 14:15:12:303,-0.8428,-0.0151,9.9007,0.0262,0.0838,9.8063,0.0085,-0.008,-0.0069,-6.56,23.59,-17.33,242.43,19.49,0.88
51586,51.441708,-2.823385,65,16.88,9,236.9,Dec-20,5158624,2019-08-16 14:15:12:404,-0.064,0.1108,9.568,0.0123,0.0236,9.8066,0.0085,-0.008,-0.0069,-6.96,23.44,-17.38,242.43,19.49,0.88
51587,51.441708,-2.823385,65,16.88,9,236.9,Dec-20,5158723,2019-08-16 14:15:12:503,0.2709,-0.2601,10.3582,0.0196,0.0388,9.8066,0.0181,-0.0687,-0.0165,-6.96,23.44,-17.38,242.43,19.49,0.88
51588,51.44163,-2.823566,65,15.58,9,236.7,Dec-20,5158823,2019-08-16 14:15:12:603,0.2029,-0.383,10.0089,0.0001,-0.0127,9.8066,-0.0138,0.0368,-0.0059,-7.53,23.33,-17.3,239.45,19.9,0.85
51589,51.44163,-2.823566,65,15.58,9,236.7,Dec-20,5158923,2019-08-16 14:15:12:703,-0.3082,-0.8061,10.3032,-0.0291,-0.0536,9.8065,-0.0106,0.0623,0.0069,-8.87,23.68,-16.14,239.49,19.84,0.81
51590,51.44163,-2.823566,65,15.58,9,236.7,Dec-20,5159023,2019-08-16 14:15:12:803,-0.3563,-0.5744,9.9979,-0.0634,-0.0957,9.806,-0.0106,0.0006,0.0059,-8.96,23.94,-15.7,239.73,19.17,0.85
51591,51.44163,-2.823566,65,15.58,9,236.7,Dec-20,5159124,2019-08-16 14:15:12:904,-0.3784,-0.6399,10.8927,-0.0069,-0.0319,9.8066,-0.0032,0.0229,-0.0016,-8.16,24.0,-16.04,239.73,19.17,0.85
51592,51.44163,-2.823566,65,15.58,9,236.7,Dec-20,5159223,2019-08-16 14:15:13:003,0.1793,-0.1145,10.1011,-0.0213,-0.069,9.8064,0.016,-0.0964,0.0112,-8.16,24.0,-16.04,239.73,19.17,0.85
51593,51.44163,-2.823566,65,15.58,9,236.7,Dec-20,5159323,2019-08-16 14:15:13:103,-0.4615,-0.4441,10.836,-0.0539,-0.123,9.8057,0.016,-0.0847,-0.0144,-8.16,24.0,-16.04,241.83,18.39,0.75
51594,51.44163,-2.823566,65,15.58,9,236.7,Dec-20,5159422,2019-08-16 14:15:13:202,-0.1948,-0.1815,9.4685,-0.0016,-0.0413,9.8066,0.016,-0.0847,-0.0144,-8.16,24.0,-16.04,241.83,18.39,0.75
51595,51.44163,-2.823566,65,15.58,9,236.7,Dec-20,5159523,2019-08-16 14:15:13:303,-0.3023,-0.3498,9.1839,0.0038,0.0015,9.8066,-0.0191,0.0378,0.0197,-7.95,24.0,-16.15,241.98,18.17,0.64
51596,51.44163,-2.823566,65,15.58,9,236.7,Dec-20,5159623,2019-08-16 14:15:13:403,-0.5298,-0.8461,10.1957,-0.0043,-0.0224,9.8066,-0.0128,0.0144,-0.0101,-7.27,23.23,-17.53,241.66,18.04,0.6
51597,51.44163,-2.823566,65,15.58,9,236.7,Dec-20,5159723,2019-08-16 14:15:13:503,-0.6772,-0.9469,10.2245,-0.0189,-0.0309,9.8066,0.0054,-0.0069,-0.0144,-7.69,24.44,-15.61,242.19,17.82,0.53
51598,51.441563,-2.823733,65,14.34,9,236.6,Dec-20,5159823,2019-08-16 14:15:13:603,-0.0331,-0.3307,10.2592,-0.0233,-0.0499,9.8065,0.0054,0.0283,-0.0016,-7.69,24.44,-15.61,242.19,17.82,0.53
51599,51.441563,-2.823733,65,14.34,9,236.6,Dec-20,5159923,2019-08-16 14:15:13:703,-0.4102,-0.2043,10.0329,0.0126,-0.0327,9.8066,-0.0255,0.0101,0.0101,-7.78,24.74,-15.08,243.85,17.5,0.52
51600,51.441563,-2.823733,65,14.34,9,236.6,Dec-20,5160023,2019-08-16 14:15:13:803,0.0091,-0.6318,10.0933,-0.0314,-0.0675,9.8064,-0.0202,0.0272,0.0133,-7.78,24.74,-15.08,243.98,17.36,0.36
51601,51.441563,-2.823733,65,14.34,9,236.6,Dec-20,5160123,2019-08-16 14:15:13:903,-0.3171,-0.5566,10.2084,-0.0442,-0.1044,9.806,0.0107,-0.0207,-0.0186,-7.82,24.22,-15.88,243.98,17.36,0.36
51602,51.441563,-2.823733,65,14.34,9,236.6,Dec-20,5160223,2019-08-16 14:15:14:003,0.0855,-0.1898,9.4144,-0.0348,-0.1126,9.8059,0.0107,-0.0207,-0.0186,-7.53,23.33,-17.3,241.26,16.68,0.25
51603,51.441563,-2.823733,65,14.34,9,236.6,Dec-20,5160323,2019-08-16 14:15:14:103,-0.1726,-0.3648,9.9549,0.0112,-0.018,9.8066,-0.016,0.0048,0.0027,-7.53,23.33,-17.3,241.26,16.68,0.25
51604,51.441563,-2.823733,65,14.34,9,236.6,Dec-20,5160423,2019-08-16 14:15:14:203,0.0549,-0.2007,9.676,-0.0206,-0.0264,9.8066,-0.0096,-0.0026,0.008,-7.17,23.52,-17.18,244.19,16.62,0.14
51605,51.441563,-2.823733,65,14.34,9,236.6,Dec-20,5160524,2019-08-16 14:15:14:304,-0.2296,-0.0916,9.5923,-0.0378,-0.045,9.8065,0.0213,0.0187,-0.0059,-8.09,23.76,-16.43,243.01,16.29,0.22
51606,51.441563,-2.823733,65,14.34,9,236.6,Dec-20,5160623,2019-08-16 14:15:14:403,-0.5697,-0.4362,10.3358,-0.0046,0.0138,9.8066,0.0043,-0.0218,0.0133,-7.27,23.85,-16.68,244.25,16.35,0.29
51607,51.441563,-2.823733,65,14.34,9,236.6,Dec-20,5160724,2019-08-16 14:15:14:504,0.4006,0.2039,9.1144,-0.0306,-0.0344,9.8065,0.0064,0.073,0.0272,-7.27,23.85,-16.68,244.25,16.35,0.29
51608,51.441498,-2.823905,64,13.73,9,236.6,Dec-20,5160823,2019-08-16 14:15:14:603,-0.332,-0.4321,10.3373,-0.0283,-0.0247,9.8066,0.0064,-0.0367,0.0101,-8.54,23.86,-16.06,241.23,16.09,0.36
