,GPS LATITUDE (degrees),GPS LONGITUDE (degrees), GPS ALTITUDE (m),GPS SPEED (Kmh),GPS ACCURACY (m),GPS ORIENTATION (Â°), SATELLITES IN RANGE, TIME SINCE START (ms), DATE (YYYY-MO-DD HH-MI-SS_SSS),ACCELEROMETER X (m/s²) , ACCELEROMETER Y (m/s²), ACCELEROMETER Z (m/s²), GRAVITY X (m/s²), GRAVITY Y (m/s²), GRAVITY Z (m/s²), GYROSCOPE Yaw (rad/s), GYROSCOPE Pitch (rad/s), GYROSCOPE Roll (rad/s)
68594,46.418633,-0.756738,70.9,32.29,3.216,95.7,17 / 18,6858955,2019-08-09 22:08:27:693,-0.1219,-0.3488,10.2738,-0.6363,-0.2021,9.7839,-0.0083,-0.0171,0.0051
68595,46.418633,-0.756738,70.9,32.29,3.216,95.7,17 / 18,6859055,2019-08-09 22:08:27:793,0.6795,-0.3339,9.9859,-0.6333,-0.2131,9.7839,-0.0056,0.0249,0.0041
68596,46.418633,-0.756738,70.9,32.29,3.216,95.7,17 / 18,6859155,2019-08-09 22:08:27:893,0.5077,-0.4207,9.5316,-0.6249,-0.219,9.7843,0.008,-0.0364,0.0212
68597,46.418633,-0.756738,70.9,32.29,3.216,95.7,17 / 18,6859255,2019-08-09 22:08:27:993,-0.5457,-0.4596,9.0402,-0.6204,-0.2207,9.7845,0.0108,-0.0113,0.0037
68598,46.418633,-0.756738,70.9,32.29,3.216,95.7,17 / 18,6859355,2019-08-09 22:08:28:093,0.5724,0.0013,10.4091,-0.6015,-0.2167,9.7858,-0.0142,-0.0255,0.0226
68599,46.418633,-0.756738,70.9,32.29,3.216,95.7,17 / 18,6859454,2019-08-09 22:08:28:192,-0.2291,-0.2088,10.369,-0.6237,-0.2287,9.7841,-0.0076,0.0449,-0.0036
68600,46.418633,-0.756738,70.9,32.29,3.216,95.7,17 / 18,6859555,2019-08-09 22:08:28:293,-0.3877,-0.5901,9.4574,-0.6313,-0.2378,9.7834,-0.0001,-0.0267,0.0271
68601,46.418633,-0.756738,70.9,32.29,3.216,95.7,18 / 19,6859655,2019-08-09 22:08:28:393,1.2499,-0.1124,10.026,-0.6368,-0.2373,9.7831,0.0005,0.0341,-0.0019
68602,46.418633,-0.756738,70.9,32.29,3.216,95.7,18 / 19,6859755,2019-08-09 22:08:28:493,-0.3314,-0.2303,9.9943,-0.6191,-0.2392,9.7842,0.0018,0.0343,-0.0083
68603,46.418633,-0.756738,70.9,32.29,3.216,95.7,18 / 19,6859855,2019-08-09 22:08:28:593,-0.0172,-0.3177,9.4651,-0.6163,-0.2399,9.7843,-0.0026,-0.0338,0.0117
68604,46.418633,-0.756738,70.9,32.29,3.216,95.7,18 / 19,6859955,2019-08-09 22:08:28:693,0.0977,-0.0125,9.6154,-0.6309,-0.2385,9.7834,0.0039,-0.0025,-0.0101
68605,46.418633,-0.756738,70.9,32.29,3.216,95.7,18 / 19,6860055,2019-08-09 22:08:28:793,-1.258,-0.1806,9.8416,-0.6209,-0.2328,9.7842,0.0009,0.039,0.0158
68606,46.418633,-0.756738,70.9,32.29,3.216,95.7,18 / 19,6860155,2019-08-09 22:08:28:893,-1.8374,-0.2956,9.9135,-0.6291,-0.2298,9.7838,-0.0049,-0.0203,-0.0088
68607,46.418633,-0.756738,70.9,32.29,3.216,95.7,18 / 19,6860255,2019-08-09 22:08:28:993,-0.3213,-0.3405,9.0881,-0.5998,-0.2276,9.7856,0.009,-0.0327,0.0091
68608,46.418633,-0.756738,70.9,32.29,3.216,95.7,18 / 19,6860355,2019-08-09 22:08:29:093,-1.3262,0.1737,10.0607,-0.6213,-0.2208,9.7845,-0.002,0.0036,-0.0132
68609,46.418633,-0.756738,70.9,32.29,3.216,95.7,18 / 19,6860455,2019-08-09 22:08:29:193,-0.7935,-0.3518,9.0222,-0.5963,-0.2193,9.786,0.0064,-0.039,-0.0005
68610,46.418633,-0.756738,70.9,32.29,3.216,95.7,18 / 19,6860555,2019-08-09 22:08:29:293,-0.8408,-0.1938,9.7249,-0.5866,-0.216,9.7867,0.0135,0.0245,-0.012
68611,46.418633,-0.756738,70.9,32.29,3.216,95.7,17 / 18,6860655,2019-08-09 22:08:29:393,-0.9767,-0.1082,10.2744,-0.6113,-0.2069,9.7854,-0.0078,0.0279,0.0013
68612,46.418633,-0.756738,70.9,32.29,3.216,95.7,17 / 18,6860754,2019-08-09 22:08:29:492,-0.183,-0.3907,9.0701,-0.6268,-0.2104,9.7843,0.0118,0.0183,-0.0032
68613,46.418633,-0.756738,70.9,32.29,3.216,95.7,17 / 18,6860855,2019-08-09 22:08:29:593,-0.5332,-0.1154,9.5873,-0.6125,-0.2056,9.7853,0.006,-0.0079,-0.0162
68614,46.418633,-0.756738,70.9,32.29,3.216,95.7,17 / 18,6860955,2019-08-09 22:08:29:693,-0.4625,0.1468,9.7393,-0.6303,-0.1973,9.7844,-0.0001,0.004,0.0001
68615,46.418633,-0.756738,70.9,32.29,3.216,95.7,17 / 18,6861054,2019-08-09 22:08:29:792,-0.5613,-0.1555,9.1689,-0.5965,-0.202,9.7864,0.003,-0.039,-0.0109
68616,46.418633,-0.756738,70.9,32.29,3.216,95.7,17 / 18,6861155,2019-08-09 22:08:29:893,-0.6487,-0.0035,9.8111,-0.6099,-0.1908,9.7858,0.0123,0.0306,-0.012
68617,46.418633,-0.756738,70.9,32.29,3.216,95.7,17 / 18,6861255,2019-08-09 22:08:29:993,-0.4691,0.1037,10.3941,-0.6303,-0.1904,9.7845,-0.0193,0.0119,-0.0155
68618,46.418633,-0.756738,70.9,32.29,3.216,95.7,17 / 18,6861355,2019-08-09 22:08:30:093,-1.3639,-0.0585,9.4119,-0.6075,-0.1945,9.7859,0.0057,-0.0167,-0.0174
68619,46.418633,-0.756738,70.9,32.29,3.216,95.7,17 / 18,6861455,2019-08-09 22:08:30:193,-0.0441,0.0133,9.5651,-0.6031,-0.1877,9.7863,0.0026,0.0147,-0.0126
68620,46.418633,-0.756738,70.9,32.29,3.216,95.7,17 / 18,6861555,2019-08-09 22:08:30:293,-0.4583,-0.1645,9.8919,-0.6016,-0.1873,9.7864,-0.0091,-0.0027,-0.0028
68621,46.418633,-0.756738,70.9,32.29,3.216,95.7,18 / 19,6861654,2019-08-09 22:08:30:392,-1.3993,-0.1106,9.8997,-0.6031,-0.1893,9.7863,0.0022,0.0102,-0.0015
68622,46.418633,-0.756738,70.9,32.29,3.216,95.7,18 / 19,6861755,2019-08-09 22:08:30:493,0.1013,-0.0765,9.8063,-0.5951,-0.1851,9.7868,0.0015,-0.0052,-0.001
68623,46.418633,-0.756738,70.9,32.29,3.216,95.7,18 / 19,6861855,2019-08-09 22:08:30:593,-2.0684,-0.3069,9.5759,-0.5755,-0.184,9.788,0.007,-0.0068,0.0235
68624,46.418633,-0.756738,70.9,32.29,3.216,95.7,18 / 19,6861955,2019-08-09 22:08:30:693,-1.1521,0.0839,9.6794,-0.5677,-0.176,9.7886,0.0078,0.0258,-0.0161
68625,46.418633,-0.756738,70.9,32.29,3.216,95.7,18 / 19,6862055,2019-08-09 22:08:30:793,0.3707,-0.0657,10.5767,-0.5898,-0.1705,9.7874,-0.0094,0.0018,-0.0006
68626,46.418633,-0.756738,70.9,32.29,3.216,95.7,18 / 19,6862155,2019-08-09 22:08:30:893,-0.7672,-0.468,8.9671,-0.5887,-0.1742,9.7874,0.0058,-0.0518,0.0195
68627,46.418633,-0.756738,70.9,32.29,3.216,95.7,18 / 19,6862255,2019-08-09 22:08:30:993,-0.2201,0.1635,9.704,-0.5845,-0.1656,9.7878,0.0005,-0.0494,0.0089
68628,46.418633,-0.756738,70.9,32.29,3.216,95.7,18 / 19,6862355,2019-08-09 22:08:31:093,-1.3394,-0.2357,9.5597,-0.5893,-0.1629,9.7876,-0.0035,0.0449,-0.0173
68629,46.418633,-0.756738,70.9,32.29,3.216,95.7,18 / 19,6862455,2019-08-09 22:08:31:193,-1.1975,-0.1184,10.1655,-0.6082,-0.1609,9.7864,-0.0011,0.0293,-0.0152
68630,46.418633,-0.756738,70.9,32.29,3.216,95.7,18 / 19,6862555,2019-08-09 22:08:31:293,-1.4938,-0.1208,9.6615,-0.6012,-0.1585,9.7869,0.0005,0.0018,-0.0073
68631,46.418377,-0.752942,70.3,32.74,3.216,95.4,18 / 19,6862655,2019-08-09 22:08:31:393,-0.7989,-0.3285,9.5058,-0.5871,-0.1601,9.7878,-0.0017,-0.0077,-0.0042
68632,46.418377,-0.752942,70.3,32.74,3.216,95.4,18 / 19,6862755,2019-08-09 22:08:31:493,-0.0417,-0.177,9.54,-0.5961,-0.1616,9.7872,0.0001,-0.0261,0.0209
68633,46.418377,-0.752942,70.3,32.74,3.216,95.4,18 / 19,6862856,2019-08-09 22:08:31:594,-0.2506,-0.1615,9.9422,-0.602,-0.1686,9.7867,-0.0115,-0.0021,0.0014
68634,46.418377,-0.752942,70.3,32.74,3.216,95.4,18 / 19,6862955,2019-08-09 22:08:31:693,-0.9246,-0.1106,9.9859,-0.6172,-0.1757,9.7856,-0.0104,0.0042,-0.009
68635,46.418377,-0.752942,70.3,32.74,3.216,95.4,18 / 19,6863055,2019-08-09 22:08:31:793,-1.0048,-0.4578,8.9522,-0.614,-0.1773,9.7858,0.0101,0.0037,-0.0262
68636,46.418377,-0.752942,70.3,32.74,3.216,95.4,18 / 19,6863155,2019-08-09 22:08:31:893,-0.5164,0.1851,9.7099,-0.5896,-0.1658,9.7875,-0.0002,0.0412,-0.0219
68637,46.418377,-0.752942,70.3,32.74,3.216,95.4,18 / 19,6863254,2019-08-09 22:08:31:992,0.391,0.0552,10.3624,-0.6018,-0.1613,9.7868,-0.0002,0.0412,-0.0219
68638,46.418377,-0.752942,70.3,32.74,3.216,95.4,18 / 19,6863355,2019-08-09 22:08:32:093,-0.5697,-0.3303,9.2317,-0.5886,-0.1646,9.7876,-0.0056,-0.0136,0.0058
68639,46.418377,-0.752942,70.3,32.74,3.216,95.4,18 / 19,6863455,2019-08-09 22:08:32:193,-0.6648,-0.116,9.9111,-0.5902,-0.1621,9.7875,0.007,0.0257,0.0125
68640,46.418377,-0.752942,70.3,32.74,3.216,95.4,18 / 19,6863554,2019-08-09 22:08:32:292,-0.3105,0.0462,10.1667,-0.5955,-0.1591,9.7873,-0.0157,-0.0167,0.0129
68641,46.418377,-0.752942,70.3,32.74,3.216,95.4,18 / 19,6863654,2019-08-09 22:08:32:392,-1.5483,-0.5697,9.352,-0.5621,-0.1699,9.7891,0.0002,-0.0009,0.01
68642,46.418377,-0.752942,70.3,32.74,3.216,95.4,18 / 19,6863755,2019-08-09 22:08:32:493,-0.9922,-0.1417,10.2145,-0.5816,-0.1749,9.7878,-0.0042,0.0389,0.0021
68643,46.418377,-0.752942,70.3,32.74,3.216,95.4,18 / 19,6863855,2019-08-09 22:08:32:593,-0.6774,-0.1184,9.9027,-0.5849,-0.1785,9.7876,-0.016,0.0036,0.0042
68644,46.418377,-0.752942,70.3,32.74,3.216,95.4,18 / 19,6863954,2019-08-09 22:08:32:692,-1.2131,-0.3171,8.9773,-0.5668,-0.1863,9.7885,0.011,0.0112,-0.0104
68645,46.418377,-0.752942,70.3,32.74,3.216,95.4,18 / 19,6864055,2019-08-09 22:08:32:793,-0.6469,-0.1184,9.5998,-0.5833,-0.1821,9.7876,0.0033,-0.0128,-0.0075
68646,46.418377,-0.752942,70.3,32.74,3.216,95.4,18 / 19,6864155,2019-08-09 22:08:32:893,-1.0282,-0.1819,10.1445,-0.5856,-0.1837,9.7874,-0.0047,0.0143,-0.0019
68647,46.418377,-0.752942,70.3,32.74,3.216,95.4,18 / 19,6864255,2019-08-09 22:08:32:993,-1.1137,-0.298,9.8063,-0.5909,-0.1853,9.7871,0.0069,-0.0096,0.0097
68648,46.418377,-0.752942,70.3,32.74,3.216,95.4,18 / 19,6864355,2019-08-09 22:08:33:093,-0.93,0.0755,9.3233,-0.5935,-0.1772,9.7871,0.0058,-0.0175,-0.0157
68649,46.418377,-0.752942,70.3,32.74,3.216,95.4,18 / 19,6864456,2019-08-09 22:08:33:194,0.7908,0.036,9.5741,-0.5799,-0.1708,9.788,0.0036,-0.0108,0.0088
68650,46.418377,-0.752942,70.3,32.74,3.216,95.4,18 / 19,6864555,2019-08-09 22:08:33:293,0.4006,0.2419,10.0248,-0.5955,-0.17,9.7871,-0.0092,0.0102,-0.0157
68651,46.418377,-0.752942,70.3,32.74,3.216,95.4,16 / 17,6864655,2019-08-09 22:08:33:393,-0.8719,-0.1471,9.5202,-0.5955,-0.1712,9.7871,0.0039,-0.0198,0.0
68652,46.418377,-0.752942,70.3,32.74,3.216,95.4,16 / 17,6864755,2019-08-09 22:08:33:493,-0.2632,0.057,9.2227,-0.577,-0.1613,9.7883,0.016,-0.0134,-0.0037
68653,46.418377,-0.752942,70.3,32.74,3.216,95.4,16 / 17,6864855,2019-08-09 22:08:33:593,0.1312,0.3024,10.1936,-0.5837,-0.1528,9.7881,0.0082,0.0168,-0.0198
68654,46.418377,-0.752942,70.3,32.74,3.216,95.4,16 / 17,6864955,2019-08-09 22:08:33:693,-0.353,-0.1118,9.7794,-0.5763,-0.153,9.7885,-0.0058,-0.0117,0.0137
68655,46.418377,-0.752942,70.3,32.74,3.216,95.4,16 / 17,6865055,2019-08-09 22:08:33:793,-0.1405,0.1168,9.5681,-0.5707,-0.1506,9.7889,0.0065,-0.0201,-0.0084
68656,46.418377,-0.752942,70.3,32.74,3.216,95.4,16 / 17,6865155,2019-08-09 22:08:33:893,-0.177,0.1743,9.9296,-0.5909,-0.1401,9.7878,-0.0039,-0.0146,-0.0046
68657,46.418377,-0.752942,70.3,32.74,3.216,95.4,16 / 17,6865255,2019-08-09 22:08:33:993,0.0499,-0.0101,9.7662,-0.5846,-0.1399,9.7882,-0.0004,-0.0059,0.0063
68658,46.418377,-0.752942,70.3,32.74,3.216,95.4,16 / 17,6865355,2019-08-09 22:08:34:093,-0.0711,0.0169,10.0009,-0.5829,-0.135,9.7884,0.01,0.0037,-0.0028
68659,46.418377,-0.752942,70.3,32.74,3.216,95.4,16 / 17,6865455,2019-08-09 22:08:34:193,-0.9144,0.1761,9.9961,-0.5874,-0.1284,9.7882,-0.0058,0.0223,-0.0273
68660,46.418377,-0.752942,70.3,32.74,3.216,95.4,16 / 17,6865558,2019-08-09 22:08:34:296,-0.6606,-0.3105,9.1994,-0.5745,-0.13,9.7889,-0.0049,-0.0034,-0.0204
68661,46.418377,-0.752942,70.3,32.74,3.216,95.4,18 / 19,6865655,2019-08-09 22:08:34:393,0.1738,-0.0807,9.9709,-0.5705,-0.1302,9.7892,0.0034,0.0137,0.0018
68662,46.418377,-0.752942,70.3,32.74,3.216,95.4,18 / 19,6865755,2019-08-09 22:08:34:493,-1.158,0.0492,10.1254,-0.5803,-0.1261,9.7887,-0.0016,-0.0535,0.0113
68663,46.418377,-0.752942,70.3,32.74,3.216,95.4,18 / 19,6865855,2019-08-09 22:08:34:593,-0.7462,-0.3237,9.5453,-0.5815,-0.1274,9.7886,0.0137,0.018,0.0003
68664,46.418377,-0.752942,70.3,32.74,3.216,95.4,18 / 19,6865955,2019-08-09 22:08:34:693,-0.1513,-0.1908,9.7465,-0.5842,-0.1254,9.7884,-0.0145,-0.0399,0.0078
68665,46.418377,-0.752942,70.3,32.74,3.216,95.4,18 / 19,6866055,2019-08-09 22:08:34:793,-0.4823,-0.3878,9.6178,-0.5807,-0.1379,9.7885,-0.0032,0.0462,0.0096
68666,46.418377,-0.752942,70.3,32.74,3.216,95.4,18 / 19,6866155,2019-08-09 22:08:34:893,-0.8671,-0.1208,10.2636,-0.5748,-0.1385,9.7888,0.0018,0.0156,0.0129
68667,46.418377,-0.752942,70.3,32.74,3.216,95.4,18 / 19,6866255,2019-08-09 22:08:34:993,-1.2406,0.0366,10.1056,-0.5696,-0.13,9.7892,-0.0017,-0.0217,-0.0196
68668,46.418377,-0.752942,70.3,32.74,3.216,95.4,18 / 19,6866354,2019-08-09 22:08:35:092,0.1301,-0.1262,9.3628,-0.5833,-0.1348,9.7884,-0.0017,-0.0217,-0.0196
68669,46.418377,-0.752942,70.3,32.74,3.216,95.4,18 / 19,6866455,2019-08-09 22:08:35:193,-0.013,-0.2375,9.4508,-0.5599,-0.1269,9.7898,0.0005,-0.0202,-0.0095
68670,46.418377,-0.752942,70.3,32.74,3.216,95.4,18 / 19,6866555,2019-08-09 22:08:35:293,0.2264,-0.0244,10.4504,-0.5819,-0.1276,9.7885,-0.003,0.0143,-0.0034
68671,46.418377,-0.752942,70.3,32.74,3.216,95.4,18 / 19,6866655,2019-08-09 22:08:35:393,-2.0924,-0.3596,9.3305,-0.5604,-0.1249,9.7898,0.0027,-0.0478,0.0121
68672,46.418377,-0.752942,70.3,32.74,3.216,95.4,18 / 19,6866755,2019-08-09 22:08:35:493,-0.7313,-0.0813,9.4059,-0.5568,-0.1172,9.7901,0.0124,0.014,-0.0027
68673,46.418377,-0.752942,70.3,32.74,3.216,95.4,18 / 19,6866855,2019-08-09 22:08:35:593,-0.4242,-0.2016,10.023,-0.5701,-0.1122,9.7894,-0.0065,0.0242,0.0103
68674,46.418377,-0.752942,70.3,32.74,3.216,95.4,18 / 19,6866955,2019-08-09 22:08:35:693,-0.9874,-0.2046,9.5759,-0.5925,-0.1137,9.7881,0.0037,0.0267,-0.0065
68675,46.418377,-0.752942,70.3,32.74,3.216,95.4,18 / 19,6867055,2019-08-09 22:08:35:793,-1.024,0.1617,10.0912,-0.6055,-0.1158,9.7873,-0.002,-0.0117,0.009
68676,46.418377,-0.752942,70.3,32.74,3.216,95.4,18 / 19,6867156,2019-08-09 22:08:35:894,-0.9372,-0.6906,9.0515,-0.5951,-0.1163,9.7879,0.0057,-0.0247,0.0092
68677,46.418377,-0.752942,70.3,32.74,3.216,95.4,18 / 19,6867255,2019-08-09 22:08:35:993,-0.6582,-0.1262,9.3532,-0.5817,-0.0963,9.7889,0.0168,0.0135,-0.0104
68678,46.418377,-0.752942,70.3,32.74,3.216,95.4,18 / 19,6867355,2019-08-09 22:08:36:093,-1.3568,-0.0699,10.3552,-0.5871,-0.0925,9.7886,-0.0042,0.0205,0.009
68679,46.418377,-0.752942,70.3,32.74,3.216,95.4,18 / 19,6867455,2019-08-09 22:08:36:193,-1.1808,-0.2579,9.7776,-0.5995,-0.0934,9.7879,0.0058,0.0222,-0.0096
68680,46.418377,-0.752942,70.3,32.74,3.216,95.4,18 / 19,6867556,2019-08-09 22:08:36:294,-1.2281,0.051,9.7201,-0.6033,-0.0933,9.7876,0.0012,-0.0037,0.0003
68681,46.418377,-0.752942,70.3,32.74,3.216,95.4,18 / 19,6867655,2019-08-09 22:08:36:393,-1.0018,-0.3572,9.3616,-0.5971,-0.0963,9.788,0.0012,-0.0379,0.0115
68682,46.418377,-0.752942,70.3,32.74,3.216,95.4,18 / 19,6867755,2019-08-09 22:08:36:493,-0.842,-0.2118,9.8979,-0.5945,-0.0992,9.7881,0.0042,0.0004,0.0125
68683,46.418377,-0.752942,70.3,32.74,3.216,95.4,18 / 19,6867855,2019-08-09 22:08:36:593,-1.6459,0.1258,10.1487,-0.6325,-0.102,9.7857,-0.0092,0.0398,-0.0082
68684,46.418377,-0.752942,70.3,32.74,3.216,95.4,18 / 19,6867955,2019-08-09 22:08:36:693,-1.5645,-0.4686,8.9145,-0.5899,-0.1078,9.7883,-0.0101,-0.0491,0.0056
68685,46.418377,-0.752942,70.3,32.74,3.216,95.4,18 / 19,6868055,2019-08-09 22:08:36:793,-1.7255,0.2491,10.2199,-0.6269,-0.0986,9.7861,-0.0059,0.0453,-0.0336
68686,46.418377,-0.752942,70.3,32.74,3.216,95.4,18 / 19,6868154,2019-08-09 22:08:36:892,-0.7283,-0.3806,9.6621,-0.6164,-0.103,9.7867,-0.0055,-0.0283,0.0157
68687,46.418377,-0.752942,70.3,32.74,3.216,95.4,18 / 19,6868255,2019-08-09 22:08:36:993,-0.2129,-0.025,9.8674,-0.6325,-0.1129,9.7856,-0.0094,0.0126,-0.0177
68688,46.418377,-0.752942,70.3,32.74,3.216,95.4,18 / 19,6868355,2019-08-09 22:08:37:093,-0.4488,-0.2022,9.5615,-0.6202,-0.112,9.7864,0.0015,0.0381,-0.0195
68689,46.418377,-0.752942,70.3,32.74,3.216,95.4,18 / 19,6868455,2019-08-09 22:08:37:193,-0.9318,-0.0933,9.504,-0.6188,-0.1069,9.7865,0.0035,-0.0091,-0.0071
68690,46.418377,-0.752942,70.3,32.74,3.216,95.4,18 / 19,6868555,2019-08-09 22:08:37:293,-1.067,-0.1974,9.7818,-0.6169,-0.1042,9.7867,-0.0085,0.0394,-0.0053
68691,46.418377,-0.752942,70.3,32.74,3.216,95.4,17 / 18,6868655,2019-08-09 22:08:37:393,-0.7115,-0.444,9.6495,-0.6232,-0.1233,9.7861,-0.0022,0.0237,0.0182
68692,46.418377,-0.752942,70.3,32.74,3.216,95.4,17 / 18,6868755,2019-08-09 22:08:37:493,-0.411,-0.429,9.2628,-0.6112,-0.1269,9.7868,0.0053,-0.0392,0.0004
68693,46.418377,-0.752942,70.3,32.74,3.216,95.4,17 / 18,6868855,2019-08-09 22:08:37:593,-1.1598,-0.0268,10.4545,-0.6431,-0.127,9.7847,-0.0043,0.0157,0.0163
68694,46.418377,-0.752942,70.3,32.74,3.216,95.4,17 / 18,6868955,2019-08-09 22:08:37:693,-1.4489,-0.1459,9.2233,-0.6515,-0.1225,9.7842,-0.0087,-0.0523,-0.0222
68695,46.418377,-0.752942,70.3,32.74,3.216,95.4,17 / 18,6869055,2019-08-09 22:08:37:793,-0.6702,-0.0029,9.2988,-0.6377,-0.1296,9.785,-0.0015,-0.0108,-0.0148
68696,46.418377,-0.752942,70.3,32.74,3.216,95.4,17 / 18,6869155,2019-08-09 22:08:37:893,-0.4176,-0.1693,9.6681,-0.6373,-0.1257,9.7851,-0.0127,-0.0122,-0.0119
68697,46.418377,-0.752942,70.3,32.74,3.216,95.4,17 / 18,6869255,2019-08-09 22:08:37:993,-1.6051,-0.216,9.8566,-0.6412,-0.146,9.7846,-0.0154,-0.0322,0.0119
68698,46.418377,-0.752942,70.3,32.74,3.216,95.4,17 / 18,6869355,2019-08-09 22:08:38:093,-1.2592,-0.6822,9.2287,-0.6398,-0.1471,9.7847,0.0071,-0.0246,0.0075
68699,46.418377,-0.752942,70.3,32.74,3.216,95.4,17 / 18,6869455,2019-08-09 22:08:38:193,-1.267,-0.189,10.4091,-0.6707,-0.1581,9.7824,-0.0127,0.0466,-0.0087
68700,46.418377,-0.752942,70.3,32.74,3.216,95.4,17 / 18,6869555,2019-08-09 22:08:38:293,-0.7905,-0.4901,10.2905,-0.6558,-0.1659,9.7833,-0.0078,-0.0477,0.0356
68701,46.418377,-0.752942,70.3,32.74,3.216,95.4,17 / 17,6869655,2019-08-09 22:08:38:393,-0.5278,-0.286,9.0988,-0.6461,-0.1712,9.7838,0.0052,-0.0053,-0.0019
68702,46.418377,-0.752942,70.3,32.74,3.216,95.4,17 / 17,6869755,2019-08-09 22:08:38:493,-0.3308,-0.0819,10.2768,-0.6617,-0.1779,9.7827,-0.016,0.014,0.0129
68703,46.418377,-0.752942,70.3,32.74,3.216,95.4,17 / 17,6869855,2019-08-09 22:08:38:593,-0.6517,-0.3405,10.3049,-0.6701,-0.1866,9.7819,-0.016,0.014,0.0129
68704,46.418377,-0.752942,70.3,32.74,3.216,95.4,17 / 17,6869955,2019-08-09 22:08:38:693,-1.7536,-0.1375,9.8416,-0.6718,-0.1977,9.7816,0.0108,0.0063,-0.0194
68705,46.418377,-0.752942,70.3,32.74,3.216,95.4,17 / 17,6870055,2019-08-09 22:08:38:793,-1.3819,0.1665,9.5196,-0.6588,-0.1847,9.7827,-0.0001,-0.0158,-0.0294
68706,46.418377,-0.752942,70.3,32.74,3.216,95.4,17 / 17,6870155,2019-08-09 22:08:38:893,0.3994,-0.5362,9.4017,-0.6568,-0.187,9.7828,-0.0117,0.039,-0.0053
68707,46.418377,-0.752942,70.3,32.74,3.216,95.4,17 / 17,6870255,2019-08-09 22:08:38:993,-0.6193,-0.5458,10.0338,-0.6781,-0.189,9.7814,-0.0129,-0.0041,0.0093
68708,46.418377,-0.752942,70.3,32.74,3.216,95.4,17 / 17,6870354,2019-08-09 22:08:39:092,-0.4697,-0.4997,8.7301,-0.6494,-0.1982,9.7831,0.0121,0.0196,-0.0139
68709,46.418377,-0.752942,70.3,32.74,3.216,95.4,17 / 17,6870455,2019-08-09 22:08:39:193,-0.8097,-0.4332,9.6274,-0.6815,-0.1988,9.7809,-0.0072,0.027,-0.0111
68710,46.418377,-0.752942,70.3,32.74,3.216,95.4,17 / 17,6870555,2019-08-09 22:08:39:293,-0.5008,-0.1507,9.9386,-0.6755,-0.2035,9.7812,0.0024,-0.0327,0.0217
68711,46.418377,-0.752942,70.3,32.74,3.216,95.4,18 / 19,6870655,2019-08-09 22:08:39:393,-0.4529,-0.0514,10.357,-0.6726,-0.2038,9.7814,-0.0032,0.0263,-0.0212
68712,46.418377,-0.752942,70.3,32.74,3.216,95.4,18 / 19,6870755,2019-08-09 22:08:39:493,-0.0483,-0.6206,9.4747,-0.6798,-0.2081,9.7808,-0.0047,-0.0259,0.0125
68713,46.418377,-0.752942,70.3,32.74,3.216,95.4,18 / 19,6870855,2019-08-09 22:08:39:593,-2.1223,-0.5039,9.2173,-0.6839,-0.2101,9.7805,0.0147,-0.0144,-0.0016
68714,46.418377,-0.752942,70.3,32.74,3.216,95.4,18 / 19,6870955,2019-08-09 22:08:39:693,-1.8661,-0.2303,10.2038,-0.6838,-0.2025,9.7807,-0.001,-0.0097,0.0117
68715,46.418377,-0.752942,70.3,32.74,3.216,95.4,18 / 19,6871055,2019-08-09 22:08:39:793,-1.8745,-0.7541,9.2383,-0.6957,-0.207,9.7798,0.013,0.004,0.0183
68716,46.418377,-0.752942,70.3,32.74,3.216,95.4,18 / 19,6871155,2019-08-09 22:08:39:893,0.4341,-0.1094,10.023,-0.6931,-0.1988,9.7801,0.0051,0.0207,-0.0181
68717,46.418377,-0.752942,70.3,32.74,3.216,95.4,18 / 19,6871255,2019-08-09 22:08:39:993,0.142,-0.0807,9.4454,-0.6912,-0.1956,9.7803,0.0013,-0.001,0.0143
68718,46.418377,-0.752942,70.3,32.74,3.216,95.4,18 / 19,6871354,2019-08-09 22:08:40:092,-0.9497,-0.1788,10.0996,-0.6827,-0.1912,9.781,0.0118,0.0101,-0.0078
68719,46.418377,-0.752942,70.3,32.74,3.216,95.4,18 / 19,6871456,2019-08-09 22:08:40:194,-0.9677,0.2258,10.2995,-0.6887,-0.1877,9.7806,0.0017,0.0099,-0.0255
68720,46.418377,-0.752942,70.3,32.74,3.216,95.4,18 / 19,6871555,2019-08-09 22:08:40:293,-1.6189,-0.2034,10.3552,-0.7087,-0.1942,9.7791,-0.011,0.0226,0.0071
68721,46.41812,-0.749128,72.22,33.2,3.216,95.3,16 / 17,6871655,2019-08-09 22:08:40:393,-1.6393,0.045,9.9368,-0.6866,-0.1923,9.7807,0.0077,0.0092,-0.0428
68722,46.41812,-0.749128,72.22,33.2,3.216,95.3,16 / 17,6871755,2019-08-09 22:08:40:493,-1.8853,-0.4314,9.2419,-0.695,-0.1859,9.7802,-0.0089,-0.0143,0.0169
68723,46.41812,-0.749128,72.22,33.2,3.216,95.3,16 / 17,6871855,2019-08-09 22:08:40:593,-0.5403,-0.4458,9.4837,-0.6738,-0.185,9.7817,-0.0044,0.0414,-0.0023
68724,46.41812,-0.749128,72.22,33.2,3.216,95.3,16 / 17,6871955,2019-08-09 22:08:40:693,-0.2165,-0.1848,9.6908,-0.6867,-0.1914,9.7807,0.0036,-0.0191,0.0187
68725,46.41812,-0.749128,72.22,33.2,3.216,95.3,16 / 17,6872056,2019-08-09 22:08:40:794,-1.8829,-0.35,9.5058,-0.695,-0.1953,9.78,0.0022,0.0251,0.0066
68726,46.41812,-0.749128,72.22,33.2,3.216,95.3,16 / 17,6872155,2019-08-09 22:08:40:893,-1.9487,-0.0035,9.8602,-0.7148,-0.1925,9.7787,0.0038,-0.0468,0.0308
68727,46.41812,-0.749128,72.22,33.2,3.216,95.3,16 / 17,6872255,2019-08-09 22:08:40:993,-1.0766,-0.2058,9.5627,-0.6922,-0.1951,9.7802,0.0016,0.0191,-0.0191
68728,46.41812,-0.749128,72.22,33.2,3.216,95.3,16 / 17,6872355,2019-08-09 22:08:41:093,-0.8983,-0.2926,9.5567,-0.7057,-0.1962,9.7793,-0.0063,0.0209,0.0063
68729,46.41812,-0.749128,72.22,33.2,3.216,95.3,16 / 17,6872454,2019-08-09 22:08:41:192,-0.9048,-0.3656,9.543,-0.6917,-0.2018,9.7801,-0.0063,-0.0159,0.0194
68730,46.41812,-0.749128,72.22,33.2,3.216,95.3,16 / 17,6872555,2019-08-09 22:08:41:293,-0.4182,-0.3261,10.2032,-0.7169,-0.2071,9.7782,0.0058,-0.0074,0.0143
68731,46.41812,-0.749128,72.22,33.2,3.216,95.3,18 / 18,6872655,2019-08-09 22:08:41:393,-1.1718,-0.4697,8.9366,-0.6925,-0.2058,9.78,0.0094,-0.0199,0.0018
68732,46.41812,-0.749128,72.22,33.2,3.216,95.3,18 / 18,6872758,2019-08-09 22:08:41:496,-1.6165,-0.0101,9.7884,-0.7213,-0.2024,9.778,-0.007,0.058,-0.0073
68733,46.41812,-0.749128,72.22,33.2,3.216,95.3,18 / 18,6872854,2019-08-09 22:08:41:592,-1.3963,-0.4769,10.1373,-0.7261,-0.2058,9.7776,0.0029,-0.023,-0.0078
68734,46.41812,-0.749128,72.22,33.2,3.216,95.3,18 / 18,6872954,2019-08-09 22:08:41:692,-0.1034,-0.2016,9.3808,-0.7203,-0.2109,9.7779,0.0196,-0.009,0.0018
68735,46.41812,-0.749128,72.22,33.2,3.216,95.3,18 / 18,6873055,2019-08-09 22:08:41:793,-1.1419,-0.1124,9.4663,-0.7073,-0.1901,9.7793,0.0136,-0.0153,-0.0024
68736,46.41812,-0.749128,72.22,33.2,3.216,95.3,18 / 18,6873154,2019-08-09 22:08:41:892,-0.7055,-0.0508,9.683,-0.7202,-0.1907,9.7783,-0.0112,-0.0019,0.0126
68737,46.41812,-0.749128,72.22,33.2,3.216,95.3,18 / 18,6873255,2019-08-09 22:08:41:993,-0.0597,-0.2213,9.6525,-0.7176,-0.2001,9.7783,-0.01,-0.0027,-0.0043
68738,46.41812,-0.749128,72.22,33.2,3.216,95.3,18 / 18,6873355,2019-08-09 22:08:42:093,-0.6259,-0.1603,8.9253,-0.7471,-0.2007,9.7761,0.0126,-0.0822,0.0137
68739,46.41812,-0.749128,72.22,33.2,3.216,95.3,18 / 18,6873455,2019-08-09 22:08:42:193,-0.4003,0.6478,9.7644,-0.7219,-0.1854,9.7783,0.0032,0.0198,-0.0031
68740,46.41812,-0.749128,72.22,33.2,3.216,95.3,18 / 18,6873555,2019-08-09 22:08:42:293,0.2061,-0.0484,10.0535,-0.7287,-0.1711,9.778,-0.0151,0.0145,-0.0323
68741,46.41812,-0.749128,72.22,33.2,3.216,95.3,16 / 17,6873655,2019-08-09 22:08:42:393,0.1504,0.212,9.1042,-0.7217,-0.1767,9.7785,0.009,-0.0086,0.0057
68742,46.41812,-0.749128,72.22,33.2,3.216,95.3,16 / 17,6873755,2019-08-09 22:08:42:493,0.5616,0.069,9.4394,-0.723,-0.1684,9.7785,0.0106,-0.0198,-0.018
68743,46.41812,-0.749128,72.22,33.2,3.216,95.3,16 / 17,6873855,2019-08-09 22:08:42:593,-0.2644,-0.3051,9.2993,-0.7251,-0.1545,9.7786,-0.0004,-0.0511,0.0364
68744,46.41812,-0.749128,72.22,33.2,3.216,95.3,16 / 17,6873955,2019-08-09 22:08:42:693,0.658,0.364,10.1301,-0.7272,-0.1558,9.7784,-0.0063,0.0708,-0.0415
68745,46.41812,-0.749128,72.22,33.2,3.216,95.3,16 / 17,6874055,2019-08-09 22:08:42:793,0.2234,0.1941,10.1164,-0.7406,-0.158,9.7774,-0.0142,0.034,-0.0021
68746,46.41812,-0.749128,72.22,33.2,3.216,95.3,16 / 17,6874154,2019-08-09 22:08:42:892,-0.2913,-0.1567,9.458,-0.735,-0.1589,9.7778,-0.0099,-0.0529,0.0004
68747,46.41812,-0.749128,72.22,33.2,3.216,95.3,16 / 17,6874255,2019-08-09 22:08:42:993,0.0445,0.2844,9.0809,-0.7097,-0.1538,9.7797,0.0064,-0.0436,0.0113
68748,46.41812,-0.749128,72.22,33.2,3.216,95.3,16 / 17,6874355,2019-08-09 22:08:43:093,0.5514,-0.0244,10.2588,-0.7055,-0.1465,9.7801,-0.0034,0.0373,-0.0269
68749,46.41812,-0.749128,72.22,33.2,3.216,95.3,16 / 17,6874455,2019-08-09 22:08:43:193,0.6496,-0.4386,9.0198,-0.6759,-0.1358,9.7824,0.0136,-0.0744,0.034
68750,46.41812,-0.749128,72.22,33.2,3.216,95.3,16 / 17,6874555,2019-08-09 22:08:43:293,-1.6997,0.3826,9.2784,-0.6904,-0.1337,9.7814,0.0092,0.0208,-0.0329
68751,46.41812,-0.749128,72.22,33.2,3.216,95.3,18 / 19,6874655,2019-08-09 22:08:43:393,-1.6884,0.051,10.187,-0.7201,-0.1279,9.7793,-0.0172,0.0338,-0.0142
68752,46.41812,-0.749128,72.22,33.2,3.216,95.3,18 / 19,6874755,2019-08-09 22:08:43:493,-2.6544,-0.3243,10.0751,-0.7556,-0.132,9.7766,0.0121,-0.028,0.006
68753,46.41812,-0.749128,72.22,33.2,3.216,95.3,18 / 19,6874855,2019-08-09 22:08:43:593,0.5844,-0.1172,9.4568,-0.7527,-0.11,9.7771,0.0244,0.0056,-0.03
68754,46.41812,-0.749128,72.22,33.2,3.216,95.3,18 / 19,6874955,2019-08-09 22:08:43:693,-0.0076,0.452,9.5358,-0.7326,-0.0877,9.7789,0.0069,-0.0219,-0.0277
68755,46.41812,-0.749128,72.22,33.2,3.216,95.3,18 / 19,6875055,2019-08-09 22:08:43:793,-1.5004,0.294,10.0888,-0.729,-0.0823,9.7792,-0.0266,0.0078,0.0024
68756,46.41812,-0.749128,72.22,33.2,3.216,95.3,18 / 19,6875155,2019-08-09 22:08:43:893,-2.1337,0.2737,9.8632,-0.7129,-0.0905,9.7803,-0.0381,0.0303,0.0134
68757,46.41812,-0.749128,72.22,33.2,3.216,95.3,18 / 19,6875255,2019-08-09 22:08:43:993,-2.0834,-0.0065,9.2389,-0.7211,-0.131,9.7792,-0.0049,0.0108,0.0075
68758,46.41812,-0.749128,72.22,33.2,3.216,95.3,18 / 19,6875355,2019-08-09 22:08:44:093,-2.2708,-0.265,10.3151,-0.718,-0.1401,9.7793,-0.0135,0.0625,0.0063
68759,46.41812,-0.749128,72.22,33.2,3.216,95.3,18 / 19,6875455,2019-08-09 22:08:44:193,-0.2345,-0.1765,10.5186,-0.744,-0.1575,9.7771,-0.0146,-0.0243,0.0105
68760,46.41812,-0.749128,72.22,33.2,3.216,95.3,18 / 19,6875555,2019-08-09 22:08:44:293,-0.3578,-0.617,9.2485,-0.7247,-0.1636,9.7785,0.0087,-0.0037,0.0082
68761,46.41812,-0.749128,72.22,33.2,3.216,95.3,17 / 18,6875655,2019-08-09 22:08:44:393,-0.1082,-0.0759,9.7106,-0.7249,-0.168,9.7784,-0.0155,-0.0432,0.0159
68762,46.41812,-0.749128,72.22,33.2,3.216,95.3,17 / 18,6875755,2019-08-09 22:08:44:493,-1.7219,-1.1222,9.4604,-0.7137,-0.1767,9.779,0.0131,0.0179,0.0228
68763,46.41812,-0.749128,72.22,33.2,3.216,95.3,17 / 18,6875855,2019-08-09 22:08:44:593,-1.0341,0.0528,9.8596,-0.7329,-0.1806,9.7776,-0.0055,-0.0063,0.0107
68764,46.41812,-0.749128,72.22,33.2,3.216,95.3,17 / 18,6875955,2019-08-09 22:08:44:693,-2.2893,-0.2656,9.3323,-0.7037,-0.1844,9.7796,-0.0064,-0.0182,-0.0034
68765,46.41812,-0.749128,72.22,33.2,3.216,95.3,17 / 18,6876055,2019-08-09 22:08:44:793,0.1378,0.3156,10.4977,-0.7273,-0.2075,9.7774,-0.0345,-0.0132,0.0126
68766,46.41812,-0.749128,72.22,33.2,3.216,95.3,17 / 18,6876155,2019-08-09 22:08:44:893,-1.5812,-0.8666,9.2682,-0.7243,-0.2188,9.7774,-0.011,-0.0315,0.0418
68767,46.41812,-0.749128,72.22,33.2,3.216,95.3,17 / 18,6876255,2019-08-09 22:08:44:993,-2.163,-0.0639,8.9624,-0.6826,-0.2146,9.7805,0.0174,-0.0908,-0.0374
68768,46.41812,-0.749128,72.22,33.2,3.216,95.3,17 / 18,6876355,2019-08-09 22:08:45:093,-1.0437,0.1516,10.3959,-0.7221,-0.2067,9.7778,-0.0044,-0.049,0.0117
68769,46.41812,-0.749128,72.22,33.2,3.216,95.3,17 / 18,6876455,2019-08-09 22:08:45:193,-2.4449,-0.3871,8.7188,-0.6833,-0.2037,9.7807,0.0069,0.0702,0.0053
68770,46.41812,-0.749128,72.22,33.2,3.216,95.3,17 / 18,6876555,2019-08-09 22:08:45:293,-2.8831,0.2665,10.3402,-0.6971,-0.1965,9.7799,-0.0013,0.0658,0.0063
68771,46.41812,-0.749128,72.22,33.2,3.216,95.3,18 / 19,6876655,2019-08-09 22:08:45:393,-2.0014,0.2629,9.7082,-0.7112,-0.1876,9.779,0.0075,-0.0441,-0.0288
68772,46.41812,-0.749128,72.22,33.2,3.216,95.3,18 / 19,6876755,2019-08-09 22:08:45:493,0.2354,0.0779,9.3155,-0.6982,-0.1753,9.7802,-0.0047,0.0479,-0.0138
68773,46.41812,-0.749128,72.22,33.2,3.216,95.3,18 / 19,6876855,2019-08-09 22:08:45:593,-0.8288,0.0366,9.425,-0.7431,-0.1685,9.777,-0.0143,-0.0323,0.0045
68774,46.41812,-0.749128,72.22,33.2,3.216,95.3,18 / 19,6876955,2019-08-09 22:08:45:693,-0.8809,-0.3201,8.8235,-0.7042,-0.182,9.7796,0.0021,-0.0318,0.0049
68775,46.41812,-0.749128,72.22,33.2,3.216,95.3,18 / 19,6877055,2019-08-09 22:08:45:793,-0.2686,-0.3596,10.0571,-0.7226,-0.1839,9.7783,0.0084,0.0213,0.0022
68776,46.41812,-0.749128,72.22,33.2,3.216,95.3,18 / 19,6877154,2019-08-09 22:08:45:892,-0.4332,-0.1543,9.6058,-0.7228,-0.1915,9.7781,-0.0184,-0.0476,-0.0062
68777,46.41812,-0.749128,72.22,33.2,3.216,95.3,18 / 19,6877254,2019-08-09 22:08:45:992,-0.8773,0.2479,10.2229,-0.7027,-0.1896,9.7796,-0.0001,0.0657,-0.0052
68778,46.41812,-0.749128,72.22,33.2,3.216,95.3,18 / 19,6877354,2019-08-09 22:08:46:092,-0.7576,-0.14,10.4599,-0.7398,-0.1968,9.7767,-0.015,-0.0283,-0.0004
68779,46.41812,-0.749128,72.22,33.2,3.216,95.3,18 / 19,6877455,2019-08-09 22:08:46:193,-0.8905,-0.2591,9.2658,-0.7362,-0.1947,9.777,0.0241,-0.0027,0.0186
68780,46.41812,-0.749128,72.22,33.2,3.216,95.3,18 / 19,6877555,2019-08-09 22:08:46:293,-1.7608,0.2425,9.6675,-0.7401,-0.1732,9.7771,0.0146,0.0278,-0.0368
68781,46.41812,-0.749128,72.22,33.2,3.216,95.3,18 / 19,6877655,2019-08-09 22:08:46:393,-0.092,-0.5158,9.2904,-0.7032,-0.1619,9.7801,0.011,-0.0531,0.0449
68782,46.41812,-0.749128,72.22,33.2,3.216,95.3,18 / 19,6877755,2019-08-09 22:08:46:493,-0.7887,-0.4673,8.116,-0.6982,-0.1718,9.7803,-0.0051,-0.1276,0.0234
68783,46.41812,-0.749128,72.22,33.2,3.216,95.3,18 / 19,6877854,2019-08-09 22:08:46:592,-1.1275,1.0649,10.0463,-0.7171,-0.1627,9.779,0.0002,-0.0338,-0.0655
68784,46.41812,-0.749128,72.22,33.2,3.216,95.3,18 / 19,6877955,2019-08-09 22:08:46:693,2.4686,-0.8851,10.1397,-0.7337,-0.1592,9.7779,0.0166,0.0618,0.0009
68785,46.41812,-0.749128,72.22,33.2,3.216,95.3,18 / 19,6878055,2019-08-09 22:08:46:793,-0.1471,-0.6218,9.8201,-0.7442,-0.1517,9.7772,-0.0101,0.0034,-0.0309
68786,46.41812,-0.749128,72.22,33.2,3.216,95.3,18 / 19,6878155,2019-08-09 22:08:46:893,-0.1255,0.3245,10.8424,-0.7685,-0.1638,9.7751,0.0049,-0.0619,0.0382
68787,46.41812,-0.749128,72.22,33.2,3.216,95.3,18 / 19,6878255,2019-08-09 22:08:46:993,-2.9489,-0.5254,9.1282,-0.7374,-0.1539,9.7777,0.0049,-0.0619,0.0382
68788,46.41812,-0.749128,72.22,33.2,3.216,95.3,18 / 19,6878355,2019-08-09 22:08:47:093,-1.7003,0.036,8.7014,-0.7092,-0.1502,9.7798,0.0048,0.0164,-0.003
68789,46.41812,-0.749128,72.22,33.2,3.216,95.3,18 / 19,6878455,2019-08-09 22:08:47:193,-1.249,0.1186,9.513,-0.7239,-0.1494,9.7788,-0.0097,-0.0011,-0.0141
68790,46.41812,-0.749128,72.22,33.2,3.216,95.3,18 / 19,6878555,2019-08-09 22:08:47:293,-2.0146,-0.3411,10.2858,-0.715,-0.1587,9.7793,-0.0086,0.0032,0.0134
68791,46.41812,-0.749128,72.22,33.2,3.216,95.3,17 / 18,6878655,2019-08-09 22:08:47:393,-0.1357,0.3245,10.0715,-0.7391,-0.1558,9.7775,-0.0121,0.0258,-0.015
68792,46.41812,-0.749128,72.22,33.2,3.216,95.3,17 / 18,6878755,2019-08-09 22:08:47:493,-0.438,-0.271,9.686,-0.7399,-0.1666,9.7773,0.0049,-0.0358,0.0116
68793,46.41812,-0.749128,72.22,33.2,3.216,95.3,17 / 18,6878855,2019-08-09 22:08:47:593,-2.1702,-0.3225,9.1048,-0.7185,-0.1611,9.779,0.0099,0.0195,-0.0108
68794,46.41812,-0.749128,72.22,33.2,3.216,95.3,17 / 18,6878955,2019-08-09 22:08:47:693,-0.6361,0.2593,9.379,-0.7119,-0.1507,9.7796,0.0055,-0.0077,0.0301
68795,46.41812,-0.749128,72.22,33.2,3.216,95.3,17 / 18,6879055,2019-08-09 22:08:47:793,-0.4069,-0.1184,10.1451,-0.7127,-0.1567,9.7795,-0.0111,0.0202,-0.0209
68796,46.41812,-0.749128,72.22,33.2,3.216,95.3,17 / 18,6879155,2019-08-09 22:08:47:893,-1.082,-0.0831,9.5891,-0.7311,-0.1692,9.7779,-0.0149,-0.0071,0.0069
68797,46.41812,-0.749128,72.22,33.2,3.216,95.3,17 / 18,6879255,2019-08-09 22:08:47:993,-0.0525,-0.5098,8.8085,-0.7023,-0.1804,9.7798,-0.0054,-0.0336,0.026
68798,46.41812,-0.749128,72.22,33.2,3.216,95.3,17 / 18,6879355,2019-08-09 22:08:48:093,-0.3943,-0.4554,9.9996,-0.7191,-0.1949,9.7783,-0.0114,-0.006,0.024
68799,46.41812,-0.749128,72.22,33.2,3.216,95.3,17 / 18,6879455,2019-08-09 22:08:48:193,-0.9366,-0.4668,10.4791,-0.7422,-0.206,9.7764,-0.0165,0.0389,0.0218
68800,46.41812,-0.749128,72.22,33.2,3.216,95.3,17 / 18,6879555,2019-08-09 22:08:48:293,-0.5104,-0.8642,9.549,-0.7304,-0.2203,9.7769,0.0149,-0.0153,0.0069
68801,46.41812,-0.749128,72.22,33.2,3.216,95.3,18 / 19,6879654,2019-08-09 22:08:48:392,-0.7989,-0.2351,10.2415,-0.7495,-0.214,9.7756,0.0042,-0.0144,0.0027
68802,46.41812,-0.749128,72.22,33.2,3.216,95.3,18 / 19,6879755,2019-08-09 22:08:48:493,-0.7139,-0.4985,9.5603,-0.7427,-0.2091,9.7763,-0.002,-0.0082,0.0161
68803,46.41812,-0.749128,72.22,33.2,3.216,95.3,18 / 19,6879855,2019-08-09 22:08:48:593,-0.3273,-0.3087,9.3173,-0.7338,-0.2083,9.7769,0.015,-0.0189,-0.0011
68804,46.41812,-0.749128,72.22,33.2,3.216,95.3,18 / 19,6879955,2019-08-09 22:08:48:693,-0.2417,0.0546,9.516,-0.7347,-0.2017,9.777,-0.0074,0.0279,-0.0192
68805,46.41812,-0.749128,72.22,33.2,3.216,95.3,18 / 19,6880055,2019-08-09 22:08:48:793,-0.3799,-0.3207,9.4879,-0.7498,-0.1989,9.7759,-0.0023,-0.0279,0.0207
68806,46.41812,-0.749128,72.22,33.2,3.216,95.3,18 / 19,6880154,2019-08-09 22:08:48:892,1.1308,-0.0011,9.6465,-0.7427,-0.196,9.7765,0.0093,0.0035,0.0022
68807,46.41812,-0.749128,72.22,33.2,3.216,95.3,18 / 19,6880254,2019-08-09 22:08:48:992,-1.3885,0.0797,9.838,-0.742,-0.1942,9.7766,-0.0133,-0.0232,0.006
68808,46.41812,-0.749128,72.22,33.2,3.216,95.3,18 / 19,6880354,2019-08-09 22:08:49:092,-0.3207,-0.3818,9.2676,-0.7443,-0.1942,9.7764,-0.0061,-0.0042,0.0026
68809,46.41812,-0.749128,72.22,33.2,3.216,95.3,18 / 19,6880455,2019-08-09 22:08:49:193,0.0026,0.0133,10.4043,-0.7663,-0.1948,9.7747,-0.0023,0.0315,-0.0072
68810,46.41812,-0.749128,72.22,33.2,3.216,95.3,18 / 19,6880555,2019-08-09 22:08:49:293,-1.5214,-0.5218,9.3867,-0.7505,-0.1971,9.7759,-0.0126,-0.0198,0.0136
68811,46.417854,-0.745201,70.07,34.2,3.216,95.2,18 / 19,6880655,2019-08-09 22:08:49:393,-1.4453,-0.1806,9.7524,-0.751,-0.2069,9.7757,-0.0036,0.01,-0.0013
68812,46.417854,-0.745201,70.07,34.2,3.216,95.2,18 / 19,6880755,2019-08-09 22:08:49:493,-1.4543,-0.4105,9.7399,-0.7649,-0.2069,9.7746,0.0062,0.0031,0.0239
68813,46.417854,-0.745201,70.07,34.2,3.216,95.2,18 / 19,6880855,2019-08-09 22:08:49:593,-1.1066,-0.3979,9.1162,-0.7452,-0.2108,9.776,0.0082,-0.0368,0.0079
68814,46.417854,-0.745201,70.07,34.2,3.216,95.2,18 / 19,6880955,2019-08-09 22:08:49:693,-1.0395,0.0025,9.8303,-0.7569,-0.2056,9.7752,0.0051,-0.0015,-0.0088
68815,46.417854,-0.745201,70.07,34.2,3.216,95.2,18 / 19,6881055,2019-08-09 22:08:49:793,0.233,0.2078,9.9188,-0.7743,-0.192,9.7741,-0.0026,0.0223,-0.0147
68816,46.417854,-0.745201,70.07,34.2,3.216,95.2,18 / 19,6881154,2019-08-09 22:08:49:892,-1.2143,-0.1842,9.6663,-0.7685,-0.1939,9.7746,-0.0044,0.0008,-0.0051
68817,46.417854,-0.745201,70.07,34.2,3.216,95.2,18 / 19,6881255,2019-08-09 22:08:49:993,-0.7516,0.2641,9.4843,-0.7599,-0.1804,9.7755,0.0153,0.0114,-0.0215
68818,46.417854,-0.745201,70.07,34.2,3.216,95.2,18 / 19,6881355,2019-08-09 22:08:50:093,-0.4895,0.2784,10.2462,-0.7721,-0.1662,9.7748,-0.0081,0.0076,-0.0057
68819,46.417854,-0.745201,70.07,34.2,3.216,95.2,18 / 19,6881455,2019-08-09 22:08:50:193,0.0085,0.0594,9.8757,-0.7783,-0.1668,9.7743,-0.0125,0.0068,-0.0073
68820,46.417854,-0.745201,70.07,34.2,3.216,95.2,18 / 19,6881555,2019-08-09 22:08:50:293,-0.0765,-0.0585,9.5178,-0.7938,-0.165,9.7731,0.0105,-0.0164,-0.0058
68821,46.417854,-0.745201,70.07,34.2,3.216,95.2,17 / 18,6881655,2019-08-09 22:08:50:393,0.3904,0.4239,9.3837,-0.7764,-0.1464,9.7748,0.0053,-0.035,-0.0018
68822,46.417854,-0.745201,70.07,34.2,3.216,95.2,17 / 18,6881755,2019-08-09 22:08:50:493,-1.5818,-0.0232,9.7405,-0.775,-0.135,9.775,-0.0066,0.0233,-0.0165
68823,46.417854,-0.745201,70.07,34.2,3.216,95.2,17 / 18,6881855,2019-08-09 22:08:50:593,-2.886,-0.1148,9.8644,-0.7857,-0.1438,9.7741,-0.0144,0.0067,-0.0099
68824,46.417854,-0.745201,70.07,34.2,3.216,95.2,17 / 18,6881955,2019-08-09 22:08:50:693,-1.765,0.0947,10.0505,-0.7941,-0.145,9.7734,-0.0026,0.0336,-0.007
68825,46.417854,-0.745201,70.07,34.2,3.216,95.2,17 / 18,6882055,2019-08-09 22:08:50:793,-1.6866,0.0181,9.4759,-0.7982,-0.1374,9.7731,0.0053,-0.0022,-0.0105
68826,46.417854,-0.745201,70.07,34.2,3.216,95.2,17 / 18,6882155,2019-08-09 22:08:50:893,-1.6087,0.066,9.2239,-0.7924,-0.1344,9.7737,0.0087,-0.0346,-0.0035
68827,46.417854,-0.745201,70.07,34.2,3.216,95.2,17 / 18,6882255,2019-08-09 22:08:50:993,-0.7857,0.3215,9.9308,-0.7941,-0.1227,9.7737,-0.0073,-0.0176,-0.0095
68828,46.417854,-0.745201,70.07,34.2,3.216,95.2,17 / 18,6882355,2019-08-09 22:08:51:093,-0.4889,-0.0137,9.7794,-0.7801,-0.1239,9.7748,-0.0069,0.0013,0.0113
68829,46.417854,-0.745201,70.07,34.2,3.216,95.2,17 / 18,6882455,2019-08-09 22:08:51:193,0.552,0.1468,10.2594,-0.8102,-0.1236,9.7723,0.0026,-0.012,-0.0218
68830,46.417854,-0.745201,70.07,34.2,3.216,95.2,17 / 18,6882555,2019-08-09 22:08:51:293,-0.0645,0.1079,10.1906,-0.8164,-0.1225,9.7718,-0.0069,-0.0145,-0.0109
68831,46.417854,-0.745201,70.07,34.2,3.216,95.2,18 / 19,6882655,2019-08-09 22:08:51:393,-1.4854,-0.1848,9.4005,-0.8099,-0.1242,9.7724,0.0049,-0.0195,-0.0002
68832,46.417854,-0.745201,70.07,34.2,3.216,95.2,18 / 19,6882755,2019-08-09 22:08:51:493,-0.5619,0.036,9.6938,-0.8097,-0.1165,9.7725,0.0098,-0.0008,-0.0033
68833,46.417854,-0.745201,70.07,34.2,3.216,95.2,18 / 19,6882855,2019-08-09 22:08:51:593,-0.8342,-0.1148,10.0074,-0.8155,-0.1123,9.772,-0.006,0.0257,0.004
68834,46.417854,-0.745201,70.07,34.2,3.216,95.2,18 / 19,6882955,2019-08-09 22:08:51:693,-0.5343,-0.0729,10.3594,-0.8312,-0.1147,9.7707,-0.0052,0.0182,-0.0039
68835,46.417854,-0.745201,70.07,34.2,3.216,95.2,18 / 19,6883056,2019-08-09 22:08:51:794,-0.8905,-0.3111,9.6573,-0.8001,-0.1146,9.7733,0.0089,0.0072,-0.0049
68836,46.417854,-0.745201,70.07,34.2,3.216,95.2,18 / 19,6883155,2019-08-09 22:08:51:893,-2.3497,-0.1465,10.4192,-0.7974,-0.1111,9.7735,-0.0188,-0.0067,0.0103
68837,46.417854,-0.745201,70.07,34.2,3.216,95.2,18 / 19,6883255,2019-08-09 22:08:51:993,-0.3877,-0.3692,9.5472,-0.7947,-0.1226,9.7736,0.0002,-0.0071,0.0009
68838,46.417854,-0.745201,70.07,34.2,3.216,95.2,18 / 19,6883355,2019-08-09 22:08:52:093,-0.7696,-0.2064,9.5352,-0.7764,-0.1406,9.7749,0.0027,0.0383,0.0119
68839,46.417854,-0.745201,70.07,34.2,3.216,95.2,18 / 19,6883455,2019-08-09 22:08:52:193,-0.4482,-0.0053,9.7908,-0.7928,-0.1405,9.7735,-0.0069,-0.0239,-0.0137
68840,46.417854,-0.745201,70.07,34.2,3.216,95.2,18 / 19,6883555,2019-08-09 22:08:52:293,-1.2562,-0.6224,9.5741,-0.7692,-0.1529,9.7752,-0.0011,-0.0061,-0.0155
68841,46.417854,-0.745201,70.07,34.2,3.216,95.2,17 / 18,6883655,2019-08-09 22:08:52:393,-1.1341,-0.2088,9.4681,-0.7819,-0.1543,9.7742,-0.0011,-0.0211,0.0005
68842,46.417854,-0.745201,70.07,34.2,3.216,95.2,17 / 18,6883755,2019-08-09 22:08:52:493,-0.5942,-0.192,9.6136,-0.7688,-0.1628,9.7751,-0.0041,-0.0211,-0.0066
68843,46.417854,-0.745201,70.07,34.2,3.216,95.2,17 / 18,6883855,2019-08-09 22:08:52:593,-0.6924,-0.4207,9.1886,-0.7751,-0.1666,9.7746,0.0035,0.0003,-0.0105
68844,46.417854,-0.745201,70.07,34.2,3.216,95.2,17 / 18,6883955,2019-08-09 22:08:52:693,0.2025,-0.3111,9.9009,-0.7716,-0.1671,9.7748,0.0051,-0.0123,-0.0135
68845,46.417854,-0.745201,70.07,34.2,3.216,95.2,17 / 18,6884055,2019-08-09 22:08:52:793,1.7078,-0.1675,10.0517,-0.7668,-0.1694,9.7752,-0.0186,-0.0486,0.0193
68846,46.417854,-0.745201,70.07,34.2,3.216,95.2,17 / 18,6884155,2019-08-09 22:08:52:893,0.3419,-0.1801,9.8081,-0.7808,-0.1897,9.7737,-0.0054,0.0226,0.0044
68847,46.417854,-0.745201,70.07,34.2,3.216,95.2,17 / 18,6884255,2019-08-09 22:08:52:993,-2.312,-0.6218,9.4723,-0.7665,-0.1935,9.7747,0.0041,0.009,0.0159
68848,46.417854,-0.745201,70.07,34.2,3.216,95.2,17 / 18,6884355,2019-08-09 22:08:53:093,0.7699,0.066,9.95,-0.762,-0.191,9.7751,0.0034,0.0042,-0.0022
68849,46.417854,-0.745201,70.07,34.2,3.216,95.2,17 / 18,6884455,2019-08-09 22:08:53:193,0.6538,-0.2728,10.0715,-0.7695,-0.1925,9.7745,-0.0047,0.0007,0.0104
68850,46.417854,-0.745201,70.07,34.2,3.216,95.2,17 / 18,6884555,2019-08-09 22:08:53:293,-1.3208,-0.368,9.7842,-0.756,-0.1954,9.7755,0.0106,-0.015,0.0056
68851,46.417854,-0.745201,70.07,34.2,3.216,95.2,18 / 19,6884655,2019-08-09 22:08:53:393,-0.3302,0.4317,9.5645,-0.7473,-0.1848,9.7764,0.0133,0.0018,-0.0096
68852,46.417854,-0.745201,70.07,34.2,3.216,95.2,18 / 19,6884754,2019-08-09 22:08:53:492,-0.0741,0.121,10.1714,-0.7547,-0.1712,9.7761,-0.0074,-0.0274,0.0001
68853,46.417854,-0.745201,70.07,34.2,3.216,95.2,18 / 19,6884855,2019-08-09 22:08:53:593,-0.271,-0.1148,9.5549,-0.7388,-0.1692,9.7773,0.0103,0.013,0.0006
68854,46.417854,-0.745201,70.07,34.2,3.216,95.2,18 / 19,6884955,2019-08-09 22:08:53:693,-0.338,0.0696,9.4412,-0.7303,-0.147,9.7783,0.0165,0.0149,-0.0154
68855,46.417854,-0.745201,70.07,34.2,3.216,95.2,18 / 19,6885055,2019-08-09 22:08:53:793,-0.7941,0.0426,9.9111,-0.7438,-0.1298,9.7775,-0.0016,0.0124,-0.0153
68856,46.417854,-0.745201,70.07,34.2,3.216,95.2,18 / 19,6885154,2019-08-09 22:08:53:892,0.5245,0.1127,9.7549,-0.7545,-0.1267,9.7768,-0.0024,0.0274,0.0007
68857,46.417854,-0.745201,70.07,34.2,3.216,95.2,18 / 19,6885255,2019-08-09 22:08:53:993,-0.9731,-0.0849,9.5795,-0.7468,-0.1245,9.7774,-0.0004,-0.0139,-0.0019
68858,46.417854,-0.745201,70.07,34.2,3.216,95.2,18 / 19,6885355,2019-08-09 22:08:54:093,-0.3919,0.2018,9.8039,-0.7364,-0.1157,9.7783,0.0058,0.0371,0.0145
68859,46.417854,-0.745201,70.07,34.2,3.216,95.2,18 / 19,6885454,2019-08-09 22:08:54:192,-1.4974,-0.0178,10.1666,-0.7485,-0.1127,9.7774,-0.0148,-0.0044,-0.0131
68860,46.417854,-0.745201,70.07,34.2,3.216,95.2,18 / 19,6885554,2019-08-09 22:08:54:292,-1.2155,-0.2507,9.4418,-0.7306,-0.1385,9.7784,-0.0038,-0.0014,-0.0081
68861,46.417854,-0.745201,70.07,34.2,3.216,95.2,18 / 19,6885654,2019-08-09 22:08:54:392,-0.994,-0.2645,9.704,-0.7399,-0.1383,9.7777,-0.0069,-0.0101,0.0045
68862,46.417854,-0.745201,70.07,34.2,3.216,95.2,18 / 19,6885754,2019-08-09 22:08:54:492,0.2402,-0.0035,9.7967,-0.7318,-0.143,9.7783,-0.002,0.001,0.0159
68863,46.417854,-0.745201,70.07,34.2,3.216,95.2,18 / 19,6885855,2019-08-09 22:08:54:593,-0.2315,0.0498,10.1349,-0.7328,-0.1497,9.7781,-0.002,0.0115,-0.0227
68864,46.417854,-0.745201,70.07,34.2,3.216,95.2,18 / 19,6885955,2019-08-09 22:08:54:693,-1.0724,-0.1453,9.9266,-0.7376,-0.1461,9.7778,0.0015,0.0499,-0.017
68865,46.417854,-0.745201,70.07,34.2,3.216,95.2,18 / 19,6886055,2019-08-09 22:08:54:793,-0.4362,-0.0274,9.4568,-0.7324,-0.1445,9.7782,-0.0042,-0.0139,-0.0013
68866,46.417854,-0.745201,70.07,34.2,3.216,95.2,18 / 19,6886154,2019-08-09 22:08:54:892,-1.1844,-0.2435,9.4334,-0.7405,-0.1495,9.7775,0.0007,-0.0105,0.003
68867,46.417854,-0.745201,70.07,34.2,3.216,95.2,18 / 19,6886254,2019-08-09 22:08:54:992,-2.3246,-0.2746,9.2634,-0.7176,-0.1478,9.7792,0.0052,0.0146,0.0235
68868,46.417854,-0.745201,70.07,34.2,3.216,95.2,18 / 19,6886354,2019-08-09 22:08:55:092,-0.5451,-0.1824,9.7249,-0.7272,-0.1442,9.7786,0.0069,-0.0176,-0.0085
68869,46.417854,-0.745201,70.07,34.2,3.216,95.2,18 / 19,6886454,2019-08-09 22:08:55:192,-0.3267,-0.0843,10.2798,-0.7472,-0.1407,9.7771,-0.0058,-0.0171,-0.0015
68870,46.417854,-0.745201,70.07,34.2,3.216,95.2,18 / 19,6886554,2019-08-09 22:08:55:292,-0.8594,-0.4889,9.3155,-0.7412,-0.1432,9.7776,0.0088,0.0146,-0.0053
68871,46.417854,-0.745201,70.07,34.2,3.216,95.2,18 / 19,6886655,2019-08-09 22:08:55:393,-1.0754,-0.207,9.7944,-0.7365,-0.1363,9.778,-0.0029,0.0246,-0.0094
68872,46.417854,-0.745201,70.07,34.2,3.216,95.2,18 / 19,6886755,2019-08-09 22:08:55:493,-1.2281,-0.6649,10.0146,-0.7544,-0.1445,9.7765,-0.0094,-0.0219,0.049
68873,46.417854,-0.745201,70.07,34.2,3.216,95.2,18 / 19,6886855,2019-08-09 22:08:55:593,-0.9569,-0.4446,9.2539,-0.73,-0.1616,9.7781,0.0064,-0.0135,-0.0064
68874,46.417854,-0.745201,70.07,34.2,3.216,95.2,18 / 19,6886955,2019-08-09 22:08:55:693,1.3457,-0.1346,9.5418,-0.7308,-0.1602,9.7781,0.0034,0.0099,-0.0009
68875,46.417854,-0.745201,70.07,34.2,3.216,95.2,18 / 19,6887055,2019-08-09 22:08:55:793,-0.5775,-0.2405,9.8452,-0.736,-0.1685,9.7775,-0.0137,-0.0072,0.0056
68876,46.417854,-0.745201,70.07,34.2,3.216,95.2,18 / 19,6887155,2019-08-09 22:08:55:893,-0.0352,-0.4117,9.1832,-0.7281,-0.1771,9.778,0.0125,-0.0018,0.017
68877,46.417854,-0.745201,70.07,34.2,3.216,95.2,18 / 19,6887255,2019-08-09 22:08:55:993,-1.1401,-0.5362,9.4119,-0.7249,-0.1832,9.7781,0.0004,0.0049,-0.0141
68878,46.417854,-0.745201,70.07,34.2,3.216,95.2,18 / 19,6887355,2019-08-09 22:08:56:093,-0.9108,-0.2064,10.1924,-0.7397,-0.1815,9.777,-0.0098,0.0276,0.0037
68879,46.417854,-0.745201,70.07,34.2,3.216,95.2,18 / 19,6887454,2019-08-09 22:08:56:192,-0.5248,-0.4697,9.4364,-0.7419,-0.2073,9.7763,-0.0074,-0.0146,0.0081
68880,46.417854,-0.745201,70.07,34.2,3.216,95.2,18 / 19,6887555,2019-08-09 22:08:56:293,-1.2101,-0.4632,9.5262,-0.7527,-0.2059,9.7756,0.014,-0.0021,0.0024
68881,46.417854,-0.745201,70.07,34.2,3.216,95.2,17 / 18,6887655,2019-08-09 22:08:56:393,1.3631,0.0695,10.2451,-0.7543,-0.1946,9.7757,0.0007,0.0194,0.0005
68882,46.417854,-0.745201,70.07,34.2,3.216,95.2,17 / 18,6887755,2019-08-09 22:08:56:493,0.1498,-0.2555,9.2999,-0.7412,-0.1976,9.7766,-0.002,-0.0133,-0.0045
68883,46.417854,-0.745201,70.07,34.2,3.216,95.2,17 / 18,6887855,2019-08-09 22:08:56:593,-0.8312,-0.5015,9.3005,-0.7437,-0.2008,9.7763,0.0075,0.0159,0.0072
68884,46.417854,-0.745201,70.07,34.2,3.216,95.2,17 / 18,6887956,2019-08-09 22:08:56:694,-0.0579,-0.1525,9.6154,-0.7425,-0.1971,9.7765,0.0051,-0.0211,0.0272
68885,46.417854,-0.745201,70.07,34.2,3.216,95.2,17 / 18,6888055,2019-08-09 22:08:56:793,-1.6901,-0.4422,9.7554,-0.7359,-0.1984,9.777,-0.0067,0.006,-0.0014
68886,46.417854,-0.745201,70.07,34.2,3.216,95.2,17 / 18,6888155,2019-08-09 22:08:56:893,-1.2257,-0.298,9.9105,-0.7476,-0.197,9.7761,0.0049,0.0249,0.0097
68887,46.417854,-0.745201,70.07,34.2,3.216,95.2,17 / 18,6888255,2019-08-09 22:08:56:993,-1.2867,-0.1064,9.2275,-0.7335,-0.2007,9.7771,-0.002,0.0211,-0.0028
68888,46.417854,-0.745201,70.07,34.2,3.216,95.2,17 / 18,6888355,2019-08-09 22:08:57:093,0.4305,-0.046,9.604,-0.7363,-0.2012,9.7769,-0.0089,-0.0206,0.0136
68889,46.417854,-0.745201,70.07,34.2,3.216,95.2,17 / 18,6888455,2019-08-09 22:08:57:193,-0.499,-0.0627,9.7884,-0.7358,-0.2105,9.7767,-0.0024,0.0224,0.0103
68890,46.417854,-0.745201,70.07,34.2,3.216,95.2,17 / 18,6888555,2019-08-09 22:08:57:293,-0.4853,-0.0951,10.1487,-0.7548,-0.2095,9.7753,-0.0111,0.0127,-0.0305
68891,46.417854,-0.745201,70.07,34.2,3.216,95.2,18 / 19,6888655,2019-08-09 22:08:57:393,1.5019,-0.2393,9.5011,-0.7359,-0.2184,9.7766,-0.002,-0.0334,-0.016
68892,46.417854,-0.745201,70.07,34.2,3.216,95.2,18 / 19,6888755,2019-08-09 22:08:57:493,-0.4565,-0.2674,9.8195,-0.7303,-0.2196,9.777,0.0004,0.0227,0.0143
68893,46.417854,-0.745201,70.07,34.2,3.216,95.2,18 / 19,6888854,2019-08-09 22:08:57:592,-0.4637,-0.286,10.0134,-0.7586,-0.2262,9.7747,-0.0112,0.0227,-0.0133
68894,46.417854,-0.745201,70.07,34.2,3.216,95.2,18 / 19,6888955,2019-08-09 22:08:57:693,-0.8677,-0.186,9.6256,-0.7592,-0.2263,9.7746,-0.0107,-0.0096,0.0025
68895,46.417854,-0.745201,70.07,34.2,3.216,95.2,18 / 19,6889055,2019-08-09 22:08:57:793,-1.5297,-0.0358,9.264,-0.7448,-0.2222,9.7758,0.0164,-0.0419,-0.0242
68896,46.417854,-0.745201,70.07,34.2,3.216,95.2,18 / 19,6889155,2019-08-09 22:08:57:893,-1.3484,0.731,11.2566,-0.776,-0.2273,9.7733,-0.0228,0.1008,-0.0454
68897,46.417854,-0.745201,70.07,34.2,3.216,95.2,18 / 19,6889255,2019-08-09 22:08:57:993,-2.3629,-1.1683,9.8674,-0.7594,-0.2186,9.7748,0.0361,-0.0292,0.0363
68898,46.417854,-0.745201,70.07,34.2,3.216,95.2,18 / 19,6889355,2019-08-09 22:08:58:093,-0.3201,0.8088,10.0003,-0.7302,-0.1986,9.7774,0.0109,0.0228,-0.0376
68899,46.417854,-0.745201,70.07,34.2,3.216,95.2,18 / 19,6889455,2019-08-09 22:08:58:193,-0.5517,0.4287,9.61,-0.7634,-0.1692,9.7754,-0.0047,0.0231,0.021
68900,46.417854,-0.745201,70.07,34.2,3.216,95.2,18 / 19,6889555,2019-08-09 22:08:58:293,-1.6824,-0.4578,9.2096,-0.7624,-0.1835,9.7752,0.0167,-0.074,0.0226
68901,46.4176,-0.741122,70.94,35.47,3.216,95.2,17 / 18,6889655,2019-08-09 22:08:58:393,-0.9258,0.4173,10.2157,-0.7728,-0.164,9.7748,0.0019,0.069,-0.0377
68902,46.4176,-0.741122,70.94,35.47,3.216,95.2,17 / 18,6889755,2019-08-09 22:08:58:493,-1.5351,-0.0166,9.8446,-0.7624,-0.1689,9.7755,-0.0187,-0.0162,0.0081
68903,46.4176,-0.741122,70.94,35.47,3.216,95.2,17 / 18,6889855,2019-08-09 22:08:58:593,-1.1078,-0.0334,9.4999,-0.7579,-0.1711,9.7758,0.0043,0.0198,-0.0101
68904,46.4176,-0.741122,70.94,35.47,3.216,95.2,17 / 18,6889955,2019-08-09 22:08:58:693,-1.2885,0.1887,9.7644,-0.7662,-0.1719,9.7752,-0.0069,-0.0239,0.0082
68905,46.4176,-0.741122,70.94,35.47,3.216,95.2,17 / 18,6890055,2019-08-09 22:08:58:793,-0.8324,-0.371,9.5807,-0.7723,-0.1787,9.7746,-0.0119,0.0075,0.009
68906,46.4176,-0.741122,70.94,35.47,3.216,95.2,17 / 18,6890155,2019-08-09 22:08:58:893,-2.2199,-0.1118,9.3227,-0.756,-0.1865,9.7757,0.0113,-0.0616,0.0233
68907,46.4176,-0.741122,70.94,35.47,3.216,95.2,17 / 18,6890255,2019-08-09 22:08:58:993,-1.4346,0.5358,10.6706,-0.7807,-0.1838,9.7738,-0.0061,0.0951,-0.0632
68908,46.4176,-0.741122,70.94,35.47,3.216,95.2,17 / 18,6890354,2019-08-09 22:08:59:092,0.2982,1.0183,11.0112,-0.7786,-0.1702,9.7742,0.0153,0.0864,-0.0681
68909,46.4176,-0.741122,70.94,35.47,3.216,95.2,17 / 18,6890454,2019-08-09 22:08:59:192,-2.579,0.0276,9.7016,-0.7831,-0.157,9.7741,0.0103,-0.0225,0.0173
68910,46.4176,-0.741122,70.94,35.47,3.216,95.2,17 / 18,6890554,2019-08-09 22:08:59:292,-2.1558,0.1168,9.2461,-0.7906,-0.1435,9.7737,0.005,-0.0148,-0.0024
68911,46.4176,-0.741122,70.94,35.47,3.216,95.2,18 / 19,6890654,2019-08-09 22:08:59:392,-1.2484,0.8399,9.3544,-0.8025,-0.1281,9.7729,0.0042,-0.0069,-0.0232
68912,46.4176,-0.741122,70.94,35.47,3.216,95.2,18 / 19,6890754,2019-08-09 22:08:59:492,-2.2247,-0.0095,10.2409,-0.8033,-0.1106,9.7731,-0.0081,-0.0206,-0.041
68913,46.4176,-0.741122,70.94,35.47,3.216,95.2,18 / 19,6890855,2019-08-09 22:08:59:593,0.1821,0.3425,9.4191,-0.8025,-0.0994,9.7733,0.0064,-0.0042,-0.0278
68914,46.4176,-0.741122,70.94,35.47,3.216,95.2,18 / 19,6890955,2019-08-09 22:08:59:693,-1.4783,0.4586,9.692,-0.8087,-0.0852,9.7729,-0.0042,-0.0069,-0.0122
68915,46.4176,-0.741122,70.94,35.47,3.216,95.2,18 / 19,6891055,2019-08-09 22:08:59:793,-0.4368,0.0277,9.932,-0.8187,-0.0905,9.772,-0.018,0.0074,0.0005
68916,46.4176,-0.741122,70.94,35.47,3.216,95.2,18 / 19,6891156,2019-08-09 22:08:59:894,-0.5469,0.1863,10.263,-0.8263,-0.0971,9.7713,0.0029,0.0328,-0.003
68917,46.4176,-0.741122,70.94,35.47,3.216,95.2,18 / 19,6891255,2019-08-09 22:08:59:993,-0.3548,0.3365,9.4939,-0.8299,-0.088,9.7711,-0.0092,-0.0246,-0.0429
68918,46.4176,-0.741122,70.94,35.47,3.216,95.2,18 / 19,6891355,2019-08-09 22:09:00:093,-0.3045,-0.5925,9.6854,-0.8331,-0.0889,9.7708,0.0196,0.0335,0.0
68919,46.4176,-0.741122,70.94,35.47,3.216,95.2,18 / 19,6891455,2019-08-09 22:09:00:193,-2.2606,-0.3668,9.5154,-0.806,-0.0731,9.7732,-0.0073,0.0286,-0.0379
68920,46.4176,-0.741122,70.94,35.47,3.216,95.2,18 / 19,6891555,2019-08-09 22:09:00:293,-2.488,-0.268,10.4204,-0.8438,-0.0895,9.7699,-0.0219,0.0623,0.005
68921,46.4176,-0.741122,70.94,35.47,3.216,95.2,18 / 19,6891655,2019-08-09 22:09:00:393,-0.6798,0.1498,10.1026,-0.8576,-0.1081,9.7685,-0.0053,-0.034,0.0222
68922,46.4176,-0.741122,70.94,35.47,3.216,95.2,18 / 19,6891755,2019-08-09 22:09:00:493,-0.9647,-0.0747,9.2539,-0.8378,-0.0954,9.7703,0.0232,-0.0222,-0.0044
68923,46.4176,-0.741122,70.94,35.47,3.216,95.2,18 / 19,6891855,2019-08-09 22:09:00:593,-1.1,0.282,9.7285,-0.8273,-0.0826,9.7713,0.0124,-0.0018,-0.0133
68924,46.4176,-0.741122,70.94,35.47,3.216,95.2,18 / 19,6891955,2019-08-09 22:09:00:693,-1.3969,-0.0573,9.756,-0.8324,-0.0878,9.7709,-0.026,0.0056,-0.0141
68925,46.4176,-0.741122,70.94,35.47,3.216,95.2,18 / 19,6892055,2019-08-09 22:09:00:793,-1.5645,-0.2896,9.5477,-0.823,-0.1066,9.7715,-0.0098,0.0214,0.0283
68926,46.4176,-0.741122,70.94,35.47,3.216,95.2,18 / 19,6892156,2019-08-09 22:09:00:894,0.2893,-0.1429,10.4115,-0.8419,-0.1105,9.7698,0.0048,0.0413,0.0069
68927,46.4176,-0.741122,70.94,35.47,3.216,95.2,18 / 19,6892255,2019-08-09 22:09:00:993,-0.5834,-0.0693,10.0625,-0.8418,-0.1138,9.7698,-0.0016,-0.0168,-0.015
68928,46.4176,-0.741122,70.94,35.47,3.216,95.2,18 / 19,6892355,2019-08-09 22:09:01:093,-0.8354,-0.7181,9.516,-0.8121,-0.1054,9.7724,0.0256,-0.029,-0.0146
68929,46.4176,-0.741122,70.94,35.47,3.216,95.2,18 / 19,6892455,2019-08-09 22:09:01:193,0.2067,0.0133,9.9368,-0.8307,-0.093,9.771,0.0164,0.0336,-0.0023
68930,46.4176,-0.741122,70.94,35.47,3.216,95.2,18 / 19,6892555,2019-08-09 22:09:01:293,0.1372,-0.3776,8.8923,-0.7733,-0.0989,9.7756,-0.0067,-0.0551,0.0145
68931,46.4176,-0.741122,70.94,35.47,3.216,95.2,18 / 19,6892655,2019-08-09 22:09:01:393,-0.1573,0.1994,10.6174,-0.8124,-0.1001,9.7724,-0.0033,0.0778,-0.0281
68932,46.4176,-0.741122,70.94,35.47,3.216,95.2,18 / 19,6892755,2019-08-09 22:09:01:493,-1.4992,-0.9618,9.8345,-0.8079,-0.1289,9.7725,-0.0158,0.0414,0.0338
68933,46.4176,-0.741122,70.94,35.47,3.216,95.2,18 / 19,6892855,2019-08-09 22:09:01:593,-1.7309,-0.286,10.2516,-0.8201,-0.1419,9.7713,-0.0028,-0.0221,0.0202
68934,46.4176,-0.741122,70.94,35.47,3.216,95.2,18 / 19,6892954,2019-08-09 22:09:01:692,-1.264,-0.7337,8.5937,-0.7786,-0.1547,9.7745,-0.0001,-0.0501,0.0142
68935,46.4176,-0.741122,70.94,35.47,3.216,95.2,18 / 19,6893055,2019-08-09 22:09:01:793,0.4138,-0.4781,8.7289,-0.7792,-0.154,9.7744,-0.002,-0.0284,0.0177
68936,46.4176,-0.741122,70.94,35.47,3.216,95.2,18 / 19,6893155,2019-08-09 22:09:01:893,-0.4182,-0.8708,9.6776,-0.7493,-0.1769,9.7764,-0.0168,0.0508,-0.0056
68937,46.4176,-0.741122,70.94,35.47,3.216,95.2,18 / 19,6893255,2019-08-09 22:09:01:993,-0.9204,-0.5799,10.2193,-0.7767,-0.1993,9.7738,-0.0145,-0.0255,0.0332
68938,46.4176,-0.741122,70.94,35.47,3.216,95.2,18 / 19,6893355,2019-08-09 22:09:02:093,-2.318,-0.9175,9.6567,-0.7784,-0.2134,9.7734,-0.0137,0.0222,0.0147
68939,46.4176,-0.741122,70.94,35.47,3.216,95.2,18 / 19,6893457,2019-08-09 22:09:02:195,-0.523,-0.8337,9.9727,-0.7717,-0.2352,9.7734,0.0043,-0.0007,0.0303
68940,46.4176,-0.741122,70.94,35.47,3.216,95.2,18 / 19,6893555,2019-08-09 22:09:02:293,-0.086,-0.7876,9.7776,-0.7732,-0.2439,9.7731,-0.0006,-0.013,0.0193
68941,46.4176,-0.741122,70.94,35.47,3.216,95.2,18 / 19,6893655,2019-08-09 22:09:02:393,0.9908,-0.863,9.2389,-0.7525,-0.2598,9.7743,0.0049,-0.0275,0.034
68942,46.4176,-0.741122,70.94,35.47,3.216,95.2,18 / 19,6893755,2019-08-09 22:09:02:493,0.7286,-0.8385,9.5891,-0.7469,-0.2669,9.7745,0.0153,-0.0066,-0.0009
68943,46.4176,-0.741122,70.94,35.47,3.216,95.2,18 / 19,6893855,2019-08-09 22:09:02:593,-1.0677,-0.6451,10.2522,-0.7544,-0.2637,9.774,0.0138,-0.0867,0.0336
68944,46.4176,-0.741122,70.94,35.47,3.216,95.2,18 / 19,6893955,2019-08-09 22:09:02:693,-0.5733,-0.1262,10.4641,-0.7175,-0.2599,9.7769,-0.012,-0.0324,-0.0033
68945,46.4176,-0.741122,70.94,35.47,3.216,95.2,18 / 19,6894054,2019-08-09 22:09:02:792,0.3665,-0.5284,9.5657,-0.76,-0.2666,9.7735,-0.0067,0.0138,0.0174
68946,46.4176,-0.741122,70.94,35.47,3.216,95.2,18 / 19,6894155,2019-08-09 22:09:02:893,-0.28,-0.4733,9.2569,-0.7236,-0.2659,9.7763,0.021,-0.0176,-0.0003
68947,46.4176,-0.741122,70.94,35.47,3.216,95.2,18 / 19,6894255,2019-08-09 22:09:02:993,-0.5104,-0.0262,10.0912,-0.726,-0.2539,9.7764,-0.0095,0.0118,0.0053
68948,46.4176,-0.741122,70.94,35.47,3.216,95.2,18 / 19,6894355,2019-08-09 22:09:03:093,-0.93,-0.3261,10.521,-0.7295,-0.2646,9.7759,0.0014,0.0484,-0.0006
68949,46.4176,-0.741122,70.94,35.47,3.216,95.2,18 / 19,6894455,2019-08-09 22:09:03:193,-2.0271,-0.3417,8.8738,-0.715,-0.2529,9.7773,0.0167,-0.0717,-0.0023
68950,46.4176,-0.741122,70.94,35.47,3.216,95.2,18 / 19,6894555,2019-08-09 22:09:03:293,-0.2231,0.2276,9.0773,-0.7115,-0.2385,9.7779,0.0105,0.0156,-0.0018
68951,46.4176,-0.741122,70.94,35.47,3.216,95.2,18 / 19,6894655,2019-08-09 22:09:03:393,-1.5064,-0.1992,9.604,-0.7077,-0.2282,9.7784,-0.0048,0.0068,0.019
68952,46.4176,-0.741122,70.94,35.47,3.216,95.2,18 / 19,6894755,2019-08-09 22:09:03:493,0.4024,0.0175,9.5998,-0.7009,-0.229,9.7789,0.0063,0.0196,-0.0082
68953,46.4176,-0.741122,70.94,35.47,3.216,95.2,18 / 19,6894855,2019-08-09 22:09:03:593,-0.4158,0.0624,9.9691,-0.7298,-0.2165,9.7771,0.0038,0.0131,0.0006
68954,46.4176,-0.741122,70.94,35.47,3.216,95.2,18 / 19,6894955,2019-08-09 22:09:03:693,-0.1237,-0.0298,9.3634,-0.7387,-0.2129,9.7765,-0.0002,-0.0332,-0.0038
68955,46.4176,-0.741122,70.94,35.47,3.216,95.2,18 / 19,6895055,2019-08-09 22:09:03:793,-0.5649,-0.1196,9.3873,-0.6831,-0.1966,9.7809,0.0185,-0.0285,0.0
68956,46.4176,-0.741122,70.94,35.47,3.216,95.2,18 / 19,6895155,2019-08-09 22:09:03:893,-0.4404,0.4736,10.4575,-0.6997,-0.1866,9.7799,-0.0015,0.0299,-0.0305
68957,46.4176,-0.741122,70.94,35.47,3.216,95.2,18 / 19,6895255,2019-08-09 22:09:03:993,0.0427,0.1103,10.1595,-0.7025,-0.1937,9.7795,-0.0238,-0.0681,-0.0085
68958,46.4176,-0.741122,70.94,35.47,3.216,95.2,18 / 19,6895355,2019-08-09 22:09:04:093,0.6095,-0.4255,9.349,-0.6652,-0.1945,9.7821,0.0172,0.0513,0.0147
68959,46.4176,-0.741122,70.94,35.47,3.216,95.2,18 / 19,6895455,2019-08-09 22:09:04:193,-0.9324,0.0504,9.4095,-0.6598,-0.1784,9.7828,0.0039,0.002,0.0005
68960,46.4176,-0.741122,70.94,35.47,3.216,95.2,18 / 19,6895555,2019-08-09 22:09:04:293,-1.0096,0.2354,10.5761,-0.6895,-0.1788,9.7807,-0.0192,0.0549,-0.0198
68961,46.4176,-0.741122,70.94,35.47,3.216,95.2,18 / 19,6895654,2019-08-09 22:09:04:392,-1.4424,0.1881,9.692,-0.6763,-0.1956,9.7813,-0.011,-0.0474,-0.0099
68962,46.4176,-0.741122,70.94,35.47,3.216,95.2,18 / 19,6895755,2019-08-09 22:09:04:493,0.2198,0.1617,9.5902,-0.674,-0.1932,9.7816,0.0094,-0.0555,0.0485
68963,46.4176,-0.741122,70.94,35.47,3.216,95.2,18 / 19,6895855,2019-08-09 22:09:04:593,-0.1549,0.0049,9.4418,-0.6601,-0.1896,9.7826,-0.008,0.0341,-0.0223
68964,46.4176,-0.741122,70.94,35.47,3.216,95.2,18 / 19,6895955,2019-08-09 22:09:04:693,-1.1096,0.057,10.0421,-0.6558,-0.2,9.7827,-0.0177,0.0068,-0.0033
68965,46.4176,-0.741122,70.94,35.47,3.216,95.2,18 / 19,6896055,2019-08-09 22:09:04:793,-1.1706,-0.3829,9.9518,-0.6578,-0.2106,9.7823,-0.0009,0.0213,0.0051
68966,46.4176,-0.741122,70.94,35.47,3.216,95.2,18 / 19,6896155,2019-08-09 22:09:04:893,-0.8611,-0.3213,10.099,-0.6639,-0.2092,9.7819,0.0021,0.0316,-0.0001
68967,46.4176,-0.741122,70.94,35.47,3.216,95.2,18 / 19,6896254,2019-08-09 22:09:04:992,-0.4326,-0.3345,9.1635,-0.6309,-0.1886,9.7845,0.0249,-0.0601,0.0112
68968,46.4176,-0.741122,70.94,35.47,3.216,95.2,18 / 19,6896355,2019-08-09 22:09:05:093,-2.0283,0.1653,8.5667,-0.6669,-0.1811,9.7823,-0.0074,-0.1085,0.0065
68969,46.4176,-0.741122,70.94,35.47,3.216,95.2,18 / 19,6896454,2019-08-09 22:09:05:192,0.4144,-0.6421,10.6413,-0.6466,-0.186,9.7835,0.0073,-0.0712,0.082
68970,46.4176,-0.741122,70.94,35.47,3.216,95.2,18 / 19,6896555,2019-08-09 22:09:05:293,0.3006,-0.3877,9.707,-0.6178,-0.1729,9.7856,-0.0136,0.0345,-0.0643
68971,46.4176,-0.741122,70.94,35.47,3.216,95.2,17 / 17,6896655,2019-08-09 22:09:05:393,-0.2955,0.3838,10.7359,-0.5979,-0.1758,9.7868,-0.0163,-0.0303,-0.013
68972,46.4176,-0.741122,70.94,35.47,3.216,95.2,17 / 17,6896755,2019-08-09 22:09:05:493,0.1971,-0.2124,9.6429,-0.6257,-0.1747,9.7851,-0.0161,0.0208,-0.0106
68973,46.4176,-0.741122,70.94,35.47,3.216,95.2,17 / 17,6896854,2019-08-09 22:09:05:592,-0.28,-0.3381,9.0737,-0.6212,-0.1769,9.7854,0.0098,-0.0489,0.0074
68974,46.4176,-0.741122,70.94,35.47,3.216,95.2,17 / 17,6896955,2019-08-09 22:09:05:693,-0.6313,0.063,9.8129,-0.6066,-0.1685,9.7864,-0.0004,-0.0034,0.0004
68975,46.4176,-0.741122,70.94,35.47,3.216,95.2,17 / 17,6897055,2019-08-09 22:09:05:793,-0.6205,-0.1034,10.3666,-0.6229,-0.1698,9.7854,-0.0131,-0.0087,0.0086
68976,46.4176,-0.741122,70.94,35.47,3.216,95.2,17 / 17,6897155,2019-08-09 22:09:05:893,0.3054,-0.1465,9.6399,-0.6041,-0.1845,9.7863,-0.0088,-0.0285,-0.0107
68977,46.4176,-0.741122,70.94,35.47,3.216,95.2,17 / 17,6897255,2019-08-09 22:09:05:993,0.1007,-0.0717,9.6136,-0.6174,-0.1842,9.7855,0.0023,-0.0187,-0.0111
