,GPS LATITUDE (degrees), GPS LONGITUDE (degrees), GPS ALTITUDE (m), GPS SPEED (Kmh), GPS ACCURACY (m), GPS ORIENTATION (Â°),GPS SATELLITES IN RANGE, TIME SINCE START (ms), DATE (YYYY-MO-DD HH-MI-SS_SSS), ACCELEROMETER X (m/s²) , ACCELEROMETER Y (m/s²), ACCELEROMETER Z (m/s²), GRAVITY X (m/s²), GRAVITY Y (m/s²), GRAVITY Z (m/s²), GYROSCOPE Yaw (rad/s), GYROSCOPE Pitch (rad/s), GYROSCOPE Roll (rad/s), MAGNETIC FIELD X (Î¼T), MAGNETIC FIELD Y (Î¼T), MAGNETIC FIELD Z (Î¼T), ORIENTATION (Yaw) (Â°), ORIENTATION (Pitch) (Â°), ORIENTATION (Roll ) (Â°)
4043,48.877155,2.279599,86.7,0.0,4,130.54,17 / 19,404321,2020-01-04 11:44:40:571,0.4905,-1.3283,9.4676,0.0099,-0.0079,9.8066,0.0268,0.0075,0.0316,-68.62,-100.87,83.13,148.96,-11.92,-0.49
4044,48.877155,2.279599,86.7,0.0,4,130.54,17 / 19,404421,2020-01-04 11:44:40:671,0.618,-0.7508,9.7246,-0.0005,-0.0086,9.8066,0.0184,0.0187,0.0448,-70.25,-101.19,80.06,148.54,-12.06,-0.43
4045,48.87708,2.279785,86.52,2.93,4,115.17,17 / 19,404521,2020-01-04 11:44:40:771,0.8839,-1.1304,10.2337,-0.0007,-0.004,9.8066,0.0011,0.0033,0.0364,-70.37,-100.19,75.69,148.17,-12.15,-0.42
4046,48.87708,2.279785,86.52,2.93,4,115.17,17 / 19,404621,2020-01-04 11:44:40:871,0.7257,-1.0986,9.7704,-0.0083,-0.0087,9.8066,-0.0071,-0.0271,0.0585,-68.94,-97.94,73.0,147.92,-12.19,-0.5
4047,48.87708,2.279785,86.52,2.93,4,115.17,17 / 19,404720,2020-01-04 11:44:40:970,0.8313,-1.2509,9.139,-0.0008,-0.0077,9.8066,-0.0025,-0.0018,0.054,-68.0,-96.75,77.13,148.17,-12.26,-0.65
4048,48.87708,2.279785,86.52,2.93,4,115.17,17 / 19,404821,2020-01-04 11:44:41:071,0.9651,-1.2612,9.4256,0.0132,0.003,9.8065,0.0057,0.0131,0.0372,-68.75,-97.81,81.5,148.32,-12.31,-0.55
4049,48.87708,2.279785,86.52,2.93,4,115.17,17 / 19,404921,2020-01-04 11:44:41:171,0.371,0.1813,9.6095,-0.0119,0.0039,9.8065,-0.0427,-0.0104,0.0516,-69.37,-99.12,81.25,148.51,-12.29,-0.52
4050,48.87708,2.279785,86.52,2.93,4,115.17,17 / 19,405020,2020-01-04 11:44:41:270,0.7519,-0.8387,9.4299,-0.0005,0.0193,9.8066,-0.0323,0.0173,0.0493,-70.5,-99.19,76.25,147.89,-12.07,-0.49
4051,48.87708,2.279785,86.52,2.93,4,115.17,17 / 19,405121,2020-01-04 11:44:41:371,0.4006,-0.4562,9.6505,-0.0052,0.0065,9.8066,-0.0217,0.023,0.0391,-70.69,-96.87,71.88,146.9,-11.91,-0.39
4052,48.87708,2.279785,86.52,2.93,4,115.17,17 / 19,405220,2020-01-04 11:44:41:470,0.3126,-0.4003,9.4855,-0.0054,0.0065,9.8065,-0.0337,-0.0115,0.0516,-68.06,-93.81,71.63,147.31,-11.78,-0.35
4053,48.87708,2.279785,86.52,2.93,4,115.17,17 / 19,405321,2020-01-04 11:44:41:571,0.5098,-0.4508,10.0829,-0.012,0.0042,9.8066,-0.0412,-0.0362,0.0591,-67.69,-94.19,75.81,147.42,-11.6,-0.42
4054,48.87708,2.279785,86.52,2.93,4,115.17,17 / 19,405421,2020-01-04 11:44:41:671,0.0777,-0.3702,9.8307,-0.01,-0.0003,9.8066,-0.025,-0.0246,0.054,-68.12,-95.62,77.88,147.87,-11.5,-0.56
4055,48.87708,2.279785,86.52,2.93,4,115.17,17 / 19,405521,2020-01-04 11:44:41:771,0.2605,-0.5024,9.7546,-0.007,0.0123,9.8065,-0.0398,0.0298,0.0503,-70.06,-97.12,73.5,147.14,-11.35,-0.59
4056,48.87708,2.279785,86.52,2.93,4,115.17,17 / 19,405620,2020-01-04 11:44:41:870,0.7536,-0.3936,9.0994,0.0038,0.0186,9.8066,-0.0399,0.0571,0.0433,-71.62,-96.12,67.0,145.84,-11.18,-0.54
4057,48.87708,2.279785,86.52,2.93,4,115.17,17 / 19,405721,2020-01-04 11:44:41:971,0.7496,-0.3208,10.0286,0.0072,0.0173,9.8065,-0.0254,0.0415,0.0509,-69.5,-94.75,65.31,146.74,-10.96,-0.21
4058,48.87708,2.279785,86.52,2.93,4,115.17,17 / 19,405821,2020-01-04 11:44:42:071,0.6147,-0.0882,9.8092,-0.0042,0.0045,9.8066,-0.0195,-0.0225,0.0667,-68.69,-95.56,70.56,147.29,-10.8,-0.08
4059,48.87708,2.279785,86.52,2.93,4,115.17,17 / 19,405921,2020-01-04 11:44:42:171,0.6067,-0.0572,10.3308,-0.0035,-0.0107,9.8066,-0.0033,0.0175,0.0766,-69.12,-98.62,73.19,147.95,-10.79,-0.3
4060,48.87708,2.279785,86.52,2.93,4,115.17,17 / 19,406021,2020-01-04 11:44:42:271,0.3842,-0.5095,9.881,-0.0117,-0.0074,9.8066,-0.0216,-0.0645,0.0775,-71.06,-102.56,71.31,147.97,-10.85,-0.47
4061,48.87708,2.279785,86.52,2.93,4,115.17,17 / 19,406121,2020-01-04 11:44:42:371,0.3745,-0.8297,9.5385,-0.0057,0.0047,9.8066,-0.0209,0.0116,0.0643,-72.37,-101.56,66.88,147.11,-10.78,-0.68
4062,48.87708,2.279785,86.52,2.93,4,115.17,17 / 19,406221,2020-01-04 11:44:42:471,0.2441,-1.5036,9.0517,0.0087,0.0152,9.8066,-0.0241,0.0468,0.0526,-70.0,-99.44,68.06,147.19,-10.69,-0.63
4063,48.87708,2.279785,86.52,2.93,4,115.17,17 / 19,406321,2020-01-04 11:44:42:571,0.4865,-0.6801,9.8376,0.0285,0.008,9.8065,0.0054,0.0949,0.0592,-66.62,-99.69,76.0,148.97,-10.62,-0.37
4064,48.87708,2.279785,86.52,2.93,4,115.17,17 / 19,406420,2020-01-04 11:44:42:670,1.4197,-0.4335,10.0606,0.0239,0.0032,9.8066,0.0083,0.0235,0.0608,-66.06,-101.12,78.13,149.94,-10.76,0.09
4065,48.87708,2.279785,86.52,2.93,4,115.17,18 / 20,406521,2020-01-04 11:44:42:771,0.8989,0.1245,10.0581,-0.0219,0.0005,9.8066,-0.0218,-0.0421,0.0972,-67.56,-101.06,73.94,148.88,-10.75,-0.16
4066,48.87708,2.279785,86.52,2.93,4,115.17,18 / 20,406621,2020-01-04 11:44:42:871,0.4556,-0.3538,9.388,-0.0188,-0.0013,9.8065,-0.0149,-0.0752,0.0952,-66.81,-97.25,68.75,147.93,-10.59,-0.51
4067,48.87708,2.279785,86.52,2.93,4,115.17,18 / 20,406721,2020-01-04 11:44:42:971,-0.3907,-0.6871,9.8248,-0.0109,-0.0068,9.8066,-0.0081,0.0149,0.0585,-63.69,-95.69,73.69,148.87,-10.59,-0.86
4068,48.87708,2.279785,86.52,2.93,4,115.17,18 / 20,406821,2020-01-04 11:44:43:071,0.0807,-0.2997,10.3289,0.0217,0.0047,9.8066,0.0216,0.0647,0.0573,-62.94,-97.5,78.63,149.65,-10.58,-0.88
4069,48.87708,2.279785,86.52,2.93,4,115.17,18 / 20,406921,2020-01-04 11:44:43:171,0.6418,0.3145,9.473,0.0173,0.0125,9.8066,-0.0107,0.0146,0.0529,-65.25,-100.12,73.81,149.57,-10.68,-0.56
4070,48.87708,2.279785,86.52,2.93,4,115.17,18 / 20,407020,2020-01-04 11:44:43:270,0.2056,-0.6905,9.4896,-0.0146,0.011,9.8066,0.0243,0.0017,0.0712,-68.69,-97.87,69.31,147.43,-10.52,-0.44
4071,48.87708,2.279785,86.52,2.93,4,115.17,18 / 20,407121,2020-01-04 11:44:43:371,1.2125,-0.3334,9.3933,-0.0218,-0.0116,9.8066,0.0606,-0.0718,0.0363,-65.87,-95.37,70.81,147.97,-10.62,-0.44
4072,48.87708,2.279785,86.52,2.93,4,115.17,18 / 20,407221,2020-01-04 11:44:43:471,-0.5819,0.2381,9.6187,0.0069,0.0033,9.8066,0.0382,-0.0301,0.0423,-63.0,-96.37,76.63,149.48,-10.71,-0.72
4073,48.87708,2.279785,86.52,2.93,4,115.17,18 / 20,407321,2020-01-04 11:44:43:571,-0.1573,0.175,11.016,-0.0023,-0.0091,9.8066,0.0179,0.0136,0.0475,-64.62,-99.06,77.13,149.32,-10.85,-0.88
4074,48.87708,2.279785,86.52,2.93,4,115.17,19 / 20,407421,2020-01-04 11:44:43:671,-0.1163,0.466,9.3655,0.0063,0.0015,9.8066,-0.0071,0.0282,0.0403,-68.12,-97.94,71.94,147.8,-10.93,-0.86
4075,48.87708,2.279785,86.52,2.93,4,115.17,19 / 20,407521,2020-01-04 11:44:43:771,-0.6206,0.346,9.5859,0.0054,0.0017,9.8066,0.0088,0.0082,0.0409,-67.69,-95.37,69.31,147.03,-10.96,-0.75
4076,48.87708,2.279785,86.52,2.93,4,115.17,19 / 20,407621,2020-01-04 11:44:43:871,0.0726,0.5463,9.8346,0.0036,0.0036,9.8066,0.0007,0.0326,0.0384,-64.37,-95.06,74.81,148.86,-10.99,-0.69
4077,48.87708,2.279785,86.52,2.93,4,115.17,19 / 20,407721,2020-01-04 11:44:43:971,-0.5774,0.3946,10.0161,0.001,-0.0042,9.8066,0.0149,0.0236,0.0458,-62.25,-97.37,79.44,150.3,-10.99,-0.61
4078,48.87708,2.279785,86.52,2.93,4,115.17,19 / 20,407821,2020-01-04 11:44:44:071,-0.2795,0.5381,10.0141,0.0009,-0.0023,9.8066,-0.0021,0.0004,0.0483,-65.25,-98.44,77.31,149.3,-11.06,-0.6
4079,48.87708,2.279785,86.52,2.93,4,115.17,19 / 20,407921,2020-01-04 11:44:44:171,-0.598,0.6238,10.1683,-0.0054,0.0037,9.8066,-0.0226,0.0044,0.0519,-68.12,-96.56,72.38,147.71,-11.03,-0.62
4080,48.87708,2.279785,86.52,2.93,4,115.17,19 / 20,408021,2020-01-04 11:44:44:271,-0.2554,0.7382,9.8691,0.0007,0.01,9.8066,-0.0283,0.0262,0.0666,-67.75,-93.75,70.69,146.94,-10.89,-0.6
4081,48.87708,2.279785,86.52,2.93,4,115.17,19 / 20,408120,2020-01-04 11:44:44:370,-0.2647,0.9084,9.6844,-0.0074,0.0034,9.8065,-0.0045,-0.0053,0.0752,-64.12,-93.81,76.5,148.73,-10.8,-0.58
4082,48.87708,2.279785,86.52,2.93,4,115.17,19 / 20,408220,2020-01-04 11:44:44:470,-0.572,0.987,9.8582,-0.0099,-0.0023,9.8065,-0.0079,-0.0138,0.0915,-62.56,-94.25,79.25,149.15,-10.75,-0.65
4083,48.87708,2.279785,86.52,2.93,4,115.17,19 / 20,408320,2020-01-04 11:44:44:570,-0.459,0.8418,10.3982,0.0058,0.0035,9.8066,0.0033,0.0246,0.0941,-65.56,-95.06,76.5,148.05,-10.7,-0.76
4084,48.87708,2.279785,86.52,2.93,4,115.17,19 / 20,408421,2020-01-04 11:44:44:671,-0.3333,0.7342,9.7016,-0.0007,-0.0035,9.8066,0.0063,0.0049,0.094,-68.94,-93.94,73.0,146.53,-10.74,-0.75
4085,48.87708,2.279785,86.52,2.93,4,115.17,19 / 20,408521,2020-01-04 11:44:44:771,-0.2097,0.8521,9.8811,0.001,0.0018,9.8066,0.0066,0.0359,0.0934,-69.69,-91.56,69.63,145.51,-10.75,-0.77
4086,48.87708,2.279785,86.52,2.93,4,115.17,19 / 20,408621,2020-01-04 11:44:44:871,0.0621,0.3407,9.5649,0.0003,-0.002,9.8066,0.0074,0.0163,0.0912,-65.69,-89.44,72.0,146.39,-10.77,-0.75
4087,48.87708,2.279785,86.52,2.93,4,115.17,19 / 20,408721,2020-01-04 11:44:44:971,-0.0325,-0.0846,9.5976,-0.0009,-0.0043,9.8066,0.0044,0.0169,0.0964,-62.19,-89.81,75.75,148.41,-10.82,-0.78
4088,48.87708,2.279785,86.52,2.93,4,115.17,19 / 20,408821,2020-01-04 11:44:45:071,0.1866,-0.19,10.0943,-0.0036,-0.009,9.8066,0.0197,0.0074,0.0955,-60.94,-90.31,77.13,148.85,-10.86,-0.82
4089,48.87708,2.279785,86.52,2.93,4,115.17,19 / 20,408921,2020-01-04 11:44:45:171,0.0515,0.0409,10.4463,0.0023,0.0066,9.8066,-0.0133,-0.0005,0.1021,-63.0,-90.87,73.75,148.18,-10.94,-0.82
4090,48.87708,2.279785,86.52,2.93,4,115.17,19 / 20,409020,2020-01-04 11:44:45:270,0.2351,0.1755,9.7185,-0.0037,0.0038,9.8066,-0.0114,0.0075,0.1166,-67.06,-90.44,70.25,146.14,-10.86,-0.84
4091,48.87708,2.279785,86.52,2.93,4,115.17,19 / 20,409121,2020-01-04 11:44:45:371,0.2826,-0.3018,9.6362,-0.0009,0.007,9.8066,-0.0025,0.0379,0.1063,-69.69,-87.75,66.25,144.25,-10.81,-0.86
4092,48.87708,2.279785,86.52,2.93,4,115.17,19 / 20,409220,2020-01-04 11:44:45:470,0.3539,0.1338,9.6916,0.0025,0.0049,9.8066,0.0006,0.0219,0.1095,-65.75,-86.25,65.44,145.25,-10.74,-0.79
4093,48.87708,2.279785,86.52,2.93,4,115.17,19 / 20,409321,2020-01-04 11:44:45:571,0.3893,0.2096,9.9953,0.0026,0.0043,9.8065,-0.0132,0.0363,0.1103,-61.12,-86.69,68.19,147.76,-10.74,-0.69
4094,48.87708,2.279785,86.52,2.93,4,115.17,19 / 20,409421,2020-01-04 11:44:45:671,-0.2186,0.0187,10.1247,0.0023,0.008,9.8066,-0.014,0.0067,0.1075,-58.94,-88.37,68.31,148.88,-10.7,-0.63
4095,48.87708,2.279785,86.52,2.93,4,115.17,17 / 20,409521,2020-01-04 11:44:45:771,0.1464,0.1187,10.3464,-0.0043,-0.0009,9.8066,-0.0062,0.0165,0.0878,-62.06,-91.44,65.25,148.2,-10.63,-0.7
4096,48.87708,2.279785,86.52,2.93,4,115.17,17 / 20,409621,2020-01-04 11:44:45:871,-0.2977,0.1306,10.1134,0.0024,-0.0012,9.8066,0.0095,0.0195,0.0737,-66.94,-93.31,62.13,146.58,-10.62,-0.7
4097,48.87708,2.279785,86.52,2.93,4,115.17,17 / 20,409720,2020-01-04 11:44:45:970,-0.1145,0.68,9.8332,0.0027,0.0004,9.8066,0.0008,0.0169,0.0585,-71.06,-95.25,58.63,145.44,-10.65,-0.69
4098,48.87708,2.279785,86.52,2.93,4,115.17,17 / 20,409821,2020-01-04 11:44:46:071,-0.5495,0.6658,9.5612,-0.0023,0.0041,9.8066,-0.0034,0.007,0.0531,-71.75,-97.37,59.19,145.59,-10.64,-0.64
4099,48.87708,2.279785,86.52,2.93,4,115.17,17 / 20,409921,2020-01-04 11:44:46:171,-0.5005,1.0015,9.9048,0.0039,0.0016,9.8066,0.0087,0.0193,0.0597,-68.44,-99.94,63.69,148.02,-10.63,-0.6
4100,48.87708,2.279785,86.52,2.93,4,115.17,17 / 20,410021,2020-01-04 11:44:46:271,-0.7569,0.8605,10.3418,0.0127,-0.0003,9.8066,0.0184,0.0203,0.0536,-66.12,-103.0,68.56,149.66,-10.67,-0.54
4101,48.87708,2.279785,86.52,2.93,4,115.17,17 / 20,410121,2020-01-04 11:44:46:371,-0.718,0.8432,10.0185,-0.0064,-0.0113,9.8065,0.0092,-0.0087,0.063,-66.81,-104.56,72.38,149.89,-10.82,-0.46
4102,48.87708,2.279785,86.52,2.93,4,115.17,17 / 20,410221,2020-01-04 11:44:46:471,-0.8269,0.7136,9.6135,0.0075,0.0052,9.8066,0.0034,0.0509,0.0447,-70.44,-104.87,72.44,148.8,-10.86,-0.49
4103,48.87708,2.279785,86.52,2.93,4,115.17,17 / 20,410321,2020-01-04 11:44:46:571,-0.3723,0.7699,10.4361,0.0006,0.0003,9.8066,0.0134,-0.0075,0.0479,-74.0,-104.5,72.63,147.28,-10.88,-0.32
4104,48.87708,2.279785,86.52,2.93,4,115.17,17 / 19,410421,2020-01-04 11:44:46:671,-0.6148,0.8889,9.7344,-0.0009,-0.0024,9.8065,0.01,0.0245,0.0404,-77.0,-103.25,71.13,145.93,-10.91,-0.35
4105,48.87708,2.279785,86.52,2.93,4,115.17,17 / 19,410520,2020-01-04 11:44:46:770,0.3404,0.3898,9.9148,0.0035,-0.0018,9.8066,0.0115,-0.0042,0.0632,-77.75,-101.25,71.31,145.19,-11.0,-0.25
4106,48.87708,2.279785,86.52,2.93,4,115.17,17 / 19,410620,2020-01-04 11:44:46:870,-0.2776,0.0943,9.8604,-0.0017,-0.0051,9.8066,0.0071,0.0062,0.048,-75.0,-99.94,73.0,146.07,-11.06,-0.3
4107,48.87708,2.279785,86.52,2.93,4,115.17,17 / 19,410721,2020-01-04 11:44:46:971,-0.2685,-0.0757,9.6084,-0.002,-0.001,9.8066,0.0026,-0.0021,0.0553,-70.81,-99.25,75.31,147.38,-11.08,-0.29
4108,48.87708,2.279785,86.52,2.93,4,115.17,17 / 19,410821,2020-01-04 11:44:47:071,-0.1897,-0.0362,9.9738,-0.001,-0.0037,9.8065,0.0038,-0.0049,0.0512,-67.12,-99.25,77.44,148.91,-11.1,-0.35
4109,48.87708,2.279785,86.52,2.93,4,115.17,17 / 19,410921,2020-01-04 11:44:47:171,-0.1316,0.0036,9.9886,-0.0027,-0.0061,9.8066,0.0203,-0.0095,0.0501,-66.81,-99.62,79.06,149.21,-11.1,-0.35
4110,48.87708,2.279785,86.52,2.93,4,115.17,17 / 19,411021,2020-01-04 11:44:47:271,0.123,-0.1702,9.9402,0.0041,-0.0068,9.8066,0.002,-0.006,0.0436,-67.87,-99.94,78.63,148.82,-11.17,-0.42
4111,48.87708,2.279785,86.52,2.93,4,115.17,17 / 19,411120,2020-01-04 11:44:47:370,-0.2563,-0.2144,10.1109,-0.0003,0.0014,9.8066,-0.0019,0.0086,0.0492,-71.87,-99.12,77.25,147.04,-11.21,-0.45
4112,48.87708,2.279785,86.52,2.93,4,115.17,17 / 19,411221,2020-01-04 11:44:47:471,0.137,0.0192,9.9361,-0.0034,0.0042,9.8066,-0.0024,0.0039,0.0497,-74.69,-98.69,75.75,145.91,-11.15,-0.45
4113,48.87708,2.279785,86.52,2.93,4,115.17,17 / 19,411321,2020-01-04 11:44:47:571,-0.0622,0.0157,9.5683,-0.0036,-0.0014,9.8066,-0.0038,0.0132,0.0529,-76.81,-97.5,74.63,144.65,-11.11,-0.52
4114,48.87708,2.279785,86.52,2.93,4,115.17,17 / 19,411421,2020-01-04 11:44:47:671,-0.1628,-0.1579,10.1131,0.0062,0.0036,9.8065,0.0003,0.0366,0.0584,-77.12,-95.69,74.5,144.41,-11.09,-0.5
4115,48.87708,2.279785,86.52,2.93,4,115.17,17 / 19,411521,2020-01-04 11:44:47:771,0.3488,0.0429,10.1973,0.0003,0.0013,9.8066,0.0122,0.0203,0.0552,-74.87,-95.0,75.44,144.92,-11.08,-0.4
4116,48.87708,2.279785,86.52,2.93,4,115.17,17 / 19,411622,2020-01-04 11:44:47:872,0.055,0.0262,10.2791,0.0036,-0.0011,9.8066,0.0032,0.0234,0.0643,-70.56,-94.94,77.56,146.53,-11.1,-0.37
4117,48.87708,2.279785,86.52,2.93,4,115.17,17 / 19,411721,2020-01-04 11:44:47:971,0.2049,-0.2771,9.4034,0.0035,0.0086,9.8066,-0.0127,0.0167,0.0712,-66.12,-95.25,78.56,148.53,-11.1,-0.25
4118,48.87708,2.279785,86.52,2.93,4,115.17,17 / 19,411821,2020-01-04 11:44:48:071,0.3575,-0.5131,9.6051,0.0057,0.0033,9.8066,0.0184,0.0303,0.0715,-65.44,-95.87,79.81,149.23,-11.05,-0.14
4119,48.87708,2.279785,86.52,2.93,4,115.17,17 / 19,411921,2020-01-04 11:44:48:171,0.3928,-0.5732,9.6553,0.0019,-0.0014,9.8066,0.0099,0.0078,0.0787,-66.56,-95.56,79.19,148.49,-11.11,-0.06
4120,48.87708,2.279785,86.52,2.93,4,115.17,17 / 19,412020,2020-01-04 11:44:48:270,0.4936,-0.4054,9.5607,-0.0015,-0.0006,9.8066,0.0024,0.0009,0.0885,-70.12,-95.56,78.31,147.33,-11.15,-0.04
4121,48.87708,2.279785,86.52,2.93,4,115.17,17 / 19,412120,2020-01-04 11:44:48:370,0.4137,-0.5633,10.2848,-0.0044,0.0019,9.8065,-0.0018,0.0261,0.0817,-73.75,-94.31,76.56,145.31,-11.14,-0.1
4122,48.87708,2.279785,86.52,2.93,4,115.17,17 / 19,412221,2020-01-04 11:44:48:471,0.078,-0.7822,10.2131,0.0019,-0.0015,9.8066,0.0111,0.0117,0.0847,-76.62,-93.75,76.13,144.19,-11.11,-0.08
4123,48.87708,2.279785,86.52,2.93,4,115.17,17 / 19,412321,2020-01-04 11:44:48:571,0.6946,-0.8205,10.0739,0.0014,0.0027,9.8066,-0.0091,0.0184,0.0722,-76.56,-93.44,76.19,143.91,-11.14,-0.14
4124,48.87708,2.279785,86.52,2.93,4,115.17,17 / 21,412420,2020-01-04 11:44:48:670,0.6812,-0.9815,8.7388,0.0026,0.0101,9.8066,-0.0032,0.0185,0.0807,-73.06,-91.62,76.63,145.18,-11.07,-0.05
4125,48.87708,2.279785,86.52,2.93,4,115.17,17 / 21,412521,2020-01-04 11:44:48:771,0.2686,-0.8275,9.853,0.0088,0.0035,9.8066,0.002,0.0223,0.0763,-67.12,-91.56,77.38,147.48,-11.05,0.02
4126,48.87708,2.279785,86.52,2.93,4,115.17,17 / 21,412621,2020-01-04 11:44:48:871,0.6438,-0.5988,10.2504,-0.0016,-0.0073,9.8066,0.0034,-0.0116,0.0861,-63.75,-92.06,78.88,148.8,-11.11,0.07
4127,48.87708,2.279785,86.52,2.93,4,115.17,17 / 21,412721,2020-01-04 11:44:48:971,0.5832,-0.8964,9.4292,0.0111,0.0021,9.8066,0.005,0.0284,0.0781,-65.56,-92.25,78.94,148.01,-11.13,0.06
4128,48.87708,2.279785,86.52,2.93,4,115.17,17 / 21,412821,2020-01-04 11:44:49:071,0.2631,-0.9842,10.0284,-0.003,-0.0058,9.8066,0.0092,-0.0008,0.0914,-69.37,-92.25,77.88,146.86,-11.18,0.14
4129,48.87708,2.279785,86.52,2.93,4,115.17,17 / 21,412921,2020-01-04 11:44:49:171,0.877,-0.7216,9.8864,0.0066,-0.0066,9.8066,0.0138,0.0232,0.0764,-75.62,-91.69,76.88,144.19,-11.23,0.05
4130,48.87708,2.279785,86.52,2.93,4,115.17,17 / 21,413020,2020-01-04 11:44:49:270,0.3841,-0.8137,9.0441,0.0131,0.0031,9.8066,0.0192,0.0374,0.0736,-76.37,-91.12,76.5,144.01,-11.34,0.13
4131,48.87708,2.279785,86.52,2.93,4,115.17,17 / 21,413121,2020-01-04 11:44:49:371,0.2787,-0.7459,9.5988,0.0141,-0.0001,9.8065,0.0053,0.0149,0.0798,-72.37,-89.69,76.25,145.18,-11.42,0.11
4132,48.87708,2.279785,86.52,2.93,4,115.17,17 / 21,413221,2020-01-04 11:44:49:471,0.6797,-0.6912,10.4463,0.0064,-0.0014,9.8066,0.0085,0.0276,0.0797,-65.75,-90.0,76.88,147.6,-11.48,0.19
4133,48.87708,2.279785,86.52,2.93,4,115.17,17 / 21,413320,2020-01-04 11:44:49:570,0.4618,-0.8674,9.2097,0.0063,-0.0078,9.8066,0.0305,0.0073,0.0808,-63.5,-90.0,77.81,148.91,-11.57,0.27
4134,48.877033,2.280185,85.71,6.05,4,81.23,15 / 20,413421,2020-01-04 11:44:49:671,0.9227,-0.3445,10.2544,-0.0014,-0.0049,9.8066,0.0072,0.0209,0.1026,-67.69,-90.5,77.88,146.96,-11.71,0.25
4135,48.877033,2.280185,85.71,6.05,4,81.23,15 / 20,413521,2020-01-04 11:44:49:771,0.955,-0.5205,9.8185,-0.0087,-0.0108,9.8066,0.0077,0.0271,0.1111,-72.94,-90.69,78.0,145.32,-11.74,0.25
4136,48.877033,2.280185,85.71,6.05,4,81.23,15 / 20,413621,2020-01-04 11:44:49:871,0.6015,-0.2835,10.0192,-0.0089,-0.0057,9.8066,0.0146,-0.0072,0.1057,-75.87,-89.87,76.94,143.89,-11.81,0.16
4137,48.877033,2.280185,85.71,6.05,4,81.23,15 / 20,413721,2020-01-04 11:44:49:971,0.5328,-0.3986,10.2855,-0.0043,-0.0031,9.8066,-0.0158,-0.0088,0.0942,-71.31,-89.06,76.06,145.34,-11.82,0.01
4138,48.877033,2.280185,85.71,6.05,4,81.23,15 / 20,413821,2020-01-04 11:44:50:071,0.1883,-0.6837,9.9639,-0.0042,0.0003,9.8066,-0.0053,0.0014,0.0853,-65.25,-89.06,76.5,147.67,-11.76,-0.06
4139,48.877033,2.280185,85.71,6.05,4,81.23,15 / 20,413921,2020-01-04 11:44:50:171,-0.2022,0.132,10.1082,-0.0015,0.001,9.8066,-0.0213,0.0564,0.0708,-65.56,-88.12,77.38,146.98,-11.73,-0.11
4140,48.877033,2.280185,85.71,6.05,4,81.23,15 / 20,414021,2020-01-04 11:44:50:271,0.251,0.274,10.167,0.0059,0.0144,9.8066,-0.0326,0.027,0.0791,-70.69,-88.75,76.56,145.38,-11.6,0.08
4141,48.877033,2.280185,85.71,6.05,4,81.23,15 / 20,414121,2020-01-04 11:44:50:371,0.5643,0.3882,9.5737,-0.0112,0.0065,9.8066,-0.0147,0.011,0.0796,-75.69,-88.37,78.06,143.35,-11.48,0.18
4142,48.877033,2.280185,85.71,6.05,4,81.23,15 / 20,414221,2020-01-04 11:44:50:471,-0.2848,0.1186,10.0017,-0.0021,-0.0009,9.8066,-0.0117,0.0143,0.0818,-73.31,-87.56,75.81,144.27,-11.39,0.09
4143,48.877033,2.280185,85.71,6.05,4,81.23,15 / 20,414320,2020-01-04 11:44:50:570,-0.1817,0.3608,9.7113,-0.0041,0.001,9.8066,-0.0091,0.0238,0.0819,-66.5,-86.81,74.5,146.62,-11.34,0.05
4144,48.877033,2.280185,85.71,6.05,4,81.23,15 / 20,414421,2020-01-04 11:44:50:671,-0.3329,0.2074,9.8341,0.0052,0.0088,9.8066,-0.016,0.0119,0.0644,-63.56,-86.69,75.94,147.52,-11.31,0.14
4145,48.877033,2.280185,85.71,6.05,4,81.23,15 / 19,414521,2020-01-04 11:44:50:771,-0.1277,-0.3398,9.7157,0.0038,0.0064,9.8066,0.0044,0.0163,0.0604,-67.5,-87.25,76.38,146.37,-11.24,0.26
4146,48.877033,2.280185,85.71,6.05,4,81.23,15 / 19,414621,2020-01-04 11:44:50:871,-0.3585,0.8322,10.1418,0.0105,0.0027,9.8066,0.006,0.0408,0.071,-72.94,-87.56,76.5,144.42,-11.26,0.33
4147,48.877033,2.280185,85.71,6.05,4,81.23,15 / 19,414721,2020-01-04 11:44:50:971,-0.2145,0.3372,10.5626,0.0022,-0.0016,9.8066,0.001,0.0105,0.0682,-75.06,-87.75,77.13,143.76,-11.29,0.45
4148,48.877033,2.280185,85.71,6.05,4,81.23,15 / 19,414821,2020-01-04 11:44:51:071,0.1095,-0.119,9.7188,0.0005,0.0029,9.8066,-0.0038,0.0111,0.0499,-69.75,-86.06,74.63,145.02,-11.29,0.49
4149,48.877033,2.280185,85.71,6.05,4,81.23,15 / 19,414921,2020-01-04 11:44:51:171,-0.2285,-0.4838,8.9677,-0.0068,0.0025,9.8066,-0.0096,-0.0501,0.0494,-63.94,-86.0,73.75,147.35,-11.24,0.49
4150,48.877033,2.280185,85.71,6.05,4,81.23,15 / 19,415021,2020-01-04 11:44:51:271,-0.0241,0.232,9.6619,-0.0021,0.0048,9.8066,-0.0146,0.0162,0.047,-62.5,-86.31,75.13,148.23,-11.22,0.49
4151,48.877033,2.280185,85.71,6.05,4,81.23,15 / 19,415120,2020-01-04 11:44:51:370,-0.2901,0.0623,9.3104,-0.0002,0.0093,9.8066,0.0005,-0.0008,0.0404,-68.12,-86.12,75.5,145.86,-11.15,0.56
4152,48.877033,2.280185,85.71,6.05,4,81.23,15 / 19,415222,2020-01-04 11:44:51:472,-0.3061,0.0684,9.361,-0.0044,-0.0006,9.8066,-0.0061,0.0189,0.0463,-72.19,-86.5,76.69,144.33,-11.12,0.51
4153,48.877033,2.280185,85.71,6.05,4,81.23,15 / 19,415321,2020-01-04 11:44:51:571,-0.1949,1.064,9.8297,-0.0012,0.0045,9.8066,0.0041,0.0181,0.0442,-74.12,-87.06,76.44,143.8,-11.07,0.54
4154,48.877033,2.280185,85.71,6.05,4,81.23,15 / 18,415421,2020-01-04 11:44:51:671,-0.5577,0.6945,9.7025,-0.0067,0.0048,9.8066,-0.0248,-0.0099,0.0439,-68.69,-86.0,74.0,145.39,-11.04,0.67
4155,48.877033,2.280185,85.71,6.05,4,81.23,15 / 18,415521,2020-01-04 11:44:51:771,-0.2866,0.3129,8.6209,-0.0048,-0.0009,9.8066,-0.0164,-0.0111,0.0506,-62.81,-84.81,73.13,147.45,-10.94,0.64
4156,48.877033,2.280185,85.71,6.05,4,81.23,15 / 18,415621,2020-01-04 11:44:51:871,-0.9333,1.1539,10.2084,-0.0009,0.0006,9.8066,-0.0143,0.0027,0.0487,-62.19,-85.06,73.56,147.84,-10.91,0.5
4157,48.877033,2.280185,85.71,6.05,4,81.23,15 / 18,415720,2020-01-04 11:44:51:970,-0.6122,0.4223,10.3433,-0.0071,-0.0022,9.8065,0.0089,0.0125,0.0538,-64.37,-85.19,74.44,146.98,-10.89,0.46
4158,48.877033,2.280185,85.71,6.05,4,81.23,15 / 18,415821,2020-01-04 11:44:52:071,-0.2215,0.2723,8.9976,-0.0041,0.0,9.8066,-0.0079,-0.022,0.0497,-70.06,-86.25,76.31,144.92,-10.9,0.4
4159,48.877033,2.280185,85.71,6.05,4,81.23,15 / 18,415920,2020-01-04 11:44:52:170,-0.6929,0.5649,10.5607,0.0023,0.0038,9.8066,-0.0084,0.0303,0.0543,-72.87,-86.19,76.31,143.73,-10.85,0.35
4160,48.877033,2.280185,85.71,6.05,4,81.23,15 / 18,416021,2020-01-04 11:44:52:271,-0.3823,0.5151,9.7266,0.0074,-0.0029,9.8066,0.0124,0.0283,0.0621,-73.19,-86.06,75.75,143.76,-10.83,0.42
4161,48.877033,2.280185,85.71,6.05,4,81.23,15 / 18,416121,2020-01-04 11:44:52:371,-0.3835,0.2996,9.4274,0.0007,0.0009,9.8065,-0.0029,-0.0235,0.058,-68.25,-84.81,72.88,145.29,-10.85,0.45
4162,48.877033,2.280185,85.71,6.05,4,81.23,15 / 18,416221,2020-01-04 11:44:52:471,-0.5043,0.2334,9.4647,-0.0066,0.0049,9.8066,-0.01,0.0076,0.0602,-63.5,-84.62,71.69,147.2,-10.8,0.35
4163,48.877033,2.280185,85.71,6.05,4,81.23,15 / 18,416321,2020-01-04 11:44:52:571,-0.7741,1.0184,11.0631,-0.0001,0.0035,9.8066,0.0053,0.0032,0.0521,-61.37,-84.56,71.19,147.96,-10.74,0.34
4164,48.877033,2.280185,85.71,6.05,4,81.23,17 / 19,416421,2020-01-04 11:44:52:671,-0.1273,0.5557,9.0803,-0.0057,-0.0027,9.8066,0.0025,-0.0068,0.0496,-61.5,-83.81,72.63,147.81,-10.72,0.35
4165,48.877033,2.280185,85.71,6.05,4,81.23,17 / 19,416521,2020-01-04 11:44:52:771,-0.7335,1.0185,8.6515,-0.0105,-0.001,9.8065,0.0016,0.0431,0.0587,-63.81,-84.06,74.0,146.66,-10.74,0.44
4166,48.877033,2.280185,85.71,6.05,4,81.23,17 / 19,416620,2020-01-04 11:44:52:870,-0.7019,0.5553,10.3948,0.0063,0.0039,9.8066,-0.0075,0.0296,0.0456,-68.31,-85.5,75.38,145.34,-10.72,0.41
4167,48.877033,2.280185,85.71,6.05,4,81.23,17 / 19,416721,2020-01-04 11:44:52:971,-0.6604,0.7202,10.0663,-0.0047,0.0003,9.8066,-0.0161,-0.023,0.0496,-70.5,-85.62,76.56,144.92,-10.69,0.41
4168,48.877033,2.280185,85.71,6.05,4,81.23,17 / 19,416822,2020-01-04 11:44:53:072,-1.1396,0.5736,9.7365,-0.0003,0.0055,9.8066,-0.0103,0.0235,0.0411,-71.5,-85.44,76.94,144.18,-10.62,0.3
4169,48.877033,2.280185,85.71,6.05,4,81.23,17 / 19,416920,2020-01-04 11:44:53:170,-0.832,0.8268,9.6256,0.0019,0.0027,9.8066,0.0031,0.0141,0.0335,-70.25,-85.37,76.06,144.55,-10.58,0.38
4170,48.877033,2.280185,85.71,6.05,4,81.23,17 / 19,417021,2020-01-04 11:44:53:271,-0.6062,0.5497,9.7926,-0.0033,0.0009,9.8066,-0.003,0.009,0.0298,-67.94,-85.69,74.06,145.52,-10.58,0.42
4171,48.877033,2.280185,85.71,6.05,4,81.23,17 / 19,417121,2020-01-04 11:44:53:371,-0.7331,0.8883,9.999,0.002,0.0024,9.8066,0.0091,0.0179,0.0304,-65.06,-84.5,72.0,146.08,-10.56,0.43
4172,48.877033,2.280185,85.71,6.05,4,81.23,17 / 19,417221,2020-01-04 11:44:53:471,-0.093,0.1466,10.1699,0.0076,-0.0065,9.8066,0.0266,0.0219,0.0285,-61.75,-83.44,71.5,147.11,-10.56,0.49
4173,48.877033,2.280185,85.71,6.05,4,81.23,17 / 19,417320,2020-01-04 11:44:53:570,-0.1078,0.3462,10.198,0.0066,-0.0091,9.8066,0.0209,-0.0131,0.0296,-60.62,-83.87,71.69,147.86,-10.75,0.52
4174,48.877033,2.280185,85.71,6.05,4,81.23,17 / 19,417421,2020-01-04 11:44:53:671,-0.2963,-0.1207,10.1562,0.0012,-0.0078,9.8066,0.0042,0.0162,0.0303,-60.19,-83.75,72.63,148.34,-10.84,0.48
4175,48.877033,2.280185,85.71,6.05,4,81.23,17 / 21,417521,2020-01-04 11:44:53:771,-0.134,-0.1273,9.4452,0.004,0.0045,9.8066,-0.0095,0.0106,0.0448,-61.0,-83.19,73.5,147.74,-10.85,0.53
4176,48.877033,2.280185,85.71,6.05,4,81.23,17 / 21,417621,2020-01-04 11:44:53:871,-0.0736,0.1974,9.5501,-0.0011,-0.0001,9.8066,-0.002,0.0007,0.0495,-62.5,-83.06,74.88,147.37,-10.82,0.54
4177,48.877033,2.280185,85.71,6.05,4,81.23,17 / 21,417721,2020-01-04 11:44:53:971,-0.2343,0.2021,10.2698,0.0002,-0.0047,9.8066,0.0004,-0.001,0.0423,-64.12,-83.25,75.06,146.5,-10.83,0.49
4178,48.877033,2.280185,85.71,6.05,4,81.23,17 / 21,417820,2020-01-04 11:44:54:070,-0.5013,0.3637,9.8761,-0.0032,-0.0009,9.8066,-0.0042,-0.0036,0.0413,-66.12,-83.87,77.63,146.1,-10.87,0.46
4179,48.877033,2.280185,85.71,6.05,4,81.23,17 / 21,417920,2020-01-04 11:44:54:170,-0.5726,0.5443,9.7371,-0.0016,0.0007,9.8066,-0.0013,0.0207,0.0323,-68.5,-83.94,77.88,145.26,-10.84,0.41
4180,48.877033,2.280185,85.71,6.05,4,81.23,17 / 21,418021,2020-01-04 11:44:54:271,-0.3594,0.5197,9.7018,-0.0011,0.0002,9.8066,-0.001,-0.0022,0.0255,-69.5,-84.44,78.44,144.9,-10.84,0.46
4181,48.877033,2.280185,85.71,6.05,4,81.23,17 / 21,418120,2020-01-04 11:44:54:370,-0.8174,0.5964,10.1185,-0.0007,0.0004,9.8066,0.0039,0.0133,0.0293,-70.94,-84.44,78.75,144.17,-10.84,0.45
4182,48.877033,2.280185,85.71,6.05,4,81.23,17 / 21,418221,2020-01-04 11:44:54:471,-0.6835,0.7554,9.8758,-0.0003,0.0018,9.8066,-0.0076,0.0084,0.0278,-70.69,-84.69,77.94,144.4,-10.85,0.46
4183,48.877033,2.280185,85.71,6.05,4,81.23,17 / 21,418321,2020-01-04 11:44:54:571,-0.7491,0.7056,9.6893,-0.0009,-0.0009,9.8066,0.0009,-0.0021,0.0082,-71.12,-84.37,78.38,144.12,-10.83,0.46
4184,48.877033,2.280185,85.71,6.05,4,81.23,17 / 21,418420,2020-01-04 11:44:54:670,-0.8452,0.6941,10.0035,-0.0015,0.0,9.8066,-0.0031,0.0089,0.0086,-69.69,-84.0,77.19,144.43,-10.82,0.44
4185,48.877033,2.280185,85.71,6.05,4,81.23,16 / 20,418521,2020-01-04 11:44:54:771,-0.7466,0.9163,9.9229,-0.0009,-0.0032,9.8066,0.002,-0.0027,0.0127,-69.94,-84.62,76.56,144.7,-10.84,0.42
4186,48.877033,2.280185,85.71,6.05,4,81.23,16 / 20,418620,2020-01-04 11:44:54:870,-0.8561,0.951,10.0248,-0.0036,-0.0028,9.8065,0.0032,-0.0105,0.0056,-68.75,-84.56,75.0,144.96,-10.83,0.38
4187,48.877033,2.280185,85.71,6.05,4,81.23,16 / 20,418720,2020-01-04 11:44:54:970,-0.9508,0.8831,9.8484,-0.0025,-0.0037,9.8066,0.0008,-0.0018,0.0031,-68.81,-84.31,74.38,144.59,-10.84,0.31
4188,48.877033,2.280185,85.71,6.05,4,81.23,16 / 20,418821,2020-01-04 11:44:55:071,-0.821,0.8795,9.8257,-0.0017,0.0002,9.8066,-0.0008,0.001,0.0039,-67.62,-83.75,74.06,144.97,-10.85,0.28
4189,48.877033,2.280185,85.71,6.05,4,81.23,16 / 20,418921,2020-01-04 11:44:55:171,-0.4868,0.68,9.8683,-0.0011,-0.0005,9.8066,0.004,-0.0081,0.0012,-67.12,-84.37,73.81,145.36,-10.84,0.27
4190,48.877033,2.280185,85.71,6.05,4,81.23,16 / 20,419021,2020-01-04 11:44:55:271,-0.6694,0.5809,9.9543,-0.0027,-0.0004,9.8066,-0.0005,-0.0065,-0.0013,-67.25,-83.69,73.44,145.29,-10.85,0.23
4191,48.877033,2.280185,85.71,6.05,4,81.23,16 / 20,419121,2020-01-04 11:44:55:371,0.0077,-0.2706,9.8341,0.001,-0.0003,9.8066,0.0056,0.0038,-0.0022,-66.87,-83.5,73.94,145.05,-10.85,0.2
4192,48.877033,2.280185,85.71,6.05,4,81.23,16 / 20,419221,2020-01-04 11:44:55:471,0.1407,-0.4004,9.9003,0.0027,-0.0034,9.8065,0.0111,-0.0021,0.0023,-67.5,-83.87,73.63,145.33,-10.89,0.2
4193,48.877033,2.280185,85.71,6.05,4,81.23,16 / 20,419321,2020-01-04 11:44:55:571,-0.0894,-0.106,9.8324,-0.0009,-0.006,9.8066,0.0012,-0.0109,0.0035,-67.44,-83.56,74.31,145.34,-10.96,0.17
4194,48.877033,2.280185,85.71,6.05,4,81.23,15 / 20,419421,2020-01-04 11:44:55:671,-0.185,-0.0842,9.8224,-0.0013,0.0012,9.8066,-0.0062,0.0048,0.0009,-67.25,-83.5,74.0,145.04,-10.97,0.12
4195,48.877033,2.280185,85.71,6.05,4,81.23,15 / 20,419521,2020-01-04 11:44:55:771,0.0037,-0.2163,9.9062,0.0,0.0002,9.8066,0.0047,-0.0069,-0.0011,-67.37,-83.87,73.63,145.3,-10.96,0.11
4196,48.877033,2.280185,85.71,6.05,4,81.23,15 / 20,419621,2020-01-04 11:44:55:871,-0.0793,-0.0855,9.8742,-0.0015,-0.0006,9.8066,-0.003,-0.0019,0.0038,-66.75,-84.06,74.0,145.28,-10.96,0.08
4197,48.877033,2.280185,85.71,6.05,4,81.23,15 / 20,419721,2020-01-04 11:44:55:971,-0.0373,-0.114,9.8208,-0.0027,-0.0005,9.8066,0.0,-0.0041,0.0005,-67.62,-84.19,74.44,144.86,-10.95,0.03
4198,48.877033,2.280185,85.71,6.05,4,81.23,15 / 20,419821,2020-01-04 11:44:56:071,-0.0462,-0.1292,9.8834,-0.0005,-0.0005,9.8066,0.0001,-0.0019,0.003,-67.12,-83.81,73.69,145.24,-10.95,0.01
4199,48.877033,2.280185,85.71,6.05,4,81.23,15 / 20,419921,2020-01-04 11:44:56:171,-0.0433,-0.1729,9.8608,-0.0025,-0.0014,9.8066,0.0018,-0.0035,-0.0012,-67.75,-84.5,73.5,144.82,-10.95,-0.02
4200,48.877033,2.280185,85.71,6.05,4,81.23,15 / 20,420021,2020-01-04 11:44:56:271,-0.0955,-0.1021,9.8423,-0.0027,-0.0017,9.8066,0.0004,-0.0069,-0.003,-67.25,-84.0,73.94,145.21,-10.95,-0.04
4201,48.877033,2.280185,85.71,6.05,4,81.23,15 / 20,420121,2020-01-04 11:44:56:371,-0.0216,-0.1131,9.8259,-0.0018,-0.0008,9.8066,0.0006,-0.004,-0.0008,-67.62,-83.94,73.88,144.79,-10.94,-0.08
4202,48.877033,2.280185,85.71,6.05,4,81.23,15 / 20,420221,2020-01-04 11:44:56:471,-0.0502,-0.1251,9.871,-0.0004,0.001,9.8066,-0.0008,0.0005,-0.0011,-67.25,-83.87,73.94,145.16,-10.95,-0.13
4203,48.877033,2.280185,85.71,6.05,4,81.23,15 / 20,420321,2020-01-04 11:44:56:571,0.0402,-0.1173,9.8466,-0.0013,-0.0006,9.8066,0.0013,0.0001,-0.0017,-67.87,-84.0,73.56,144.75,-10.94,-0.14
4204,48.877033,2.280185,85.71,6.05,4,81.23,15 / 20,420421,2020-01-04 11:44:56:671,-0.0012,-0.1242,9.8696,-0.0027,-0.0016,9.8065,0.0008,-0.003,-0.0024,-67.31,-84.25,74.31,145.13,-10.93,-0.17
4205,48.877033,2.280185,85.71,6.05,4,81.23,Dec-19,420521,2020-01-04 11:44:56:771,-0.0161,-0.1265,9.8506,-0.0018,-0.0002,9.8066,-0.0039,0.0059,0.0019,-67.5,-84.31,73.88,145.11,-10.93,-0.21
4206,48.877033,2.280185,85.71,6.05,4,81.23,Dec-19,420620,2020-01-04 11:44:56:870,-0.0249,-0.1352,9.8558,-0.0019,-0.0004,9.8066,0.0017,-0.0037,-0.0012,-67.31,-84.06,74.19,145.09,-10.92,-0.23
4207,48.877033,2.280185,85.71,6.05,4,81.23,Dec-19,420721,2020-01-04 11:44:56:971,0.0278,-0.1249,9.8563,-0.0029,-0.0012,9.8066,-0.0013,-0.0019,-0.0017,-67.5,-84.12,73.69,145.07,-10.9,-0.26
4208,48.877033,2.280185,85.71,6.05,4,81.23,Dec-19,420821,2020-01-04 11:44:57:071,0.0492,-0.1442,9.852,-0.001,0.0007,9.8066,-0.0013,0.0033,-0.0006,-66.94,-83.87,73.94,145.05,-10.9,-0.29
4209,48.877033,2.280185,85.71,6.05,4,81.23,Dec-19,420921,2020-01-04 11:44:57:171,0.0053,-0.0773,9.8735,-0.0015,-0.0001,9.8066,0.0042,-0.0013,0.0009,-67.06,-84.25,73.88,145.04,-10.89,-0.31
4210,48.877033,2.280185,85.71,6.05,4,81.23,Dec-19,421021,2020-01-04 11:44:57:271,-0.0028,-0.1178,9.864,-0.0023,-0.0007,9.8066,0.0022,-0.0063,-0.0011,-67.44,-84.31,73.38,144.97,-10.88,-0.35
4211,48.877033,2.280185,85.71,6.05,4,81.23,Dec-19,421121,2020-01-04 11:44:57:371,-0.0331,-0.1114,9.9127,-0.0027,-0.0014,9.8066,0.0035,-0.0009,-0.0002,-67.56,-83.19,74.0,144.32,-10.88,-0.38
4212,48.877033,2.280185,85.71,6.05,4,81.23,Dec-19,421221,2020-01-04 11:44:57:471,0.0148,-0.1112,9.8344,-0.0036,-0.0016,9.8066,0.0025,-0.0069,0.002,-67.12,-83.94,73.13,144.92,-10.87,-0.41
4213,48.877033,2.280185,85.71,6.05,4,81.23,Dec-19,421321,2020-01-04 11:44:57:571,0.0529,-0.1139,9.8655,-0.0024,0.0001,9.8066,0.0017,-0.0062,-0.0039,-67.25,-83.69,74.06,144.94,-10.85,-0.47
4214,48.877033,2.280185,85.71,6.05,4,81.23,14 / 19,421422,2020-01-04 11:44:57:672,0.0757,-0.0918,9.8644,-0.0032,-0.0015,9.8066,0.0027,-0.0054,-0.002,-67.06,-83.62,74.13,144.91,-10.84,-0.51
4215,48.877033,2.280185,85.71,6.05,4,81.23,14 / 19,421521,2020-01-04 11:44:57:771,0.0439,-0.0718,9.8886,-0.0013,0.0015,9.8066,0.0007,-0.0057,0.0016,-67.44,-84.12,73.88,144.89,-10.84,-0.55
4216,48.877033,2.280185,85.71,6.05,4,81.23,14 / 19,421620,2020-01-04 11:44:57:870,0.0766,-0.1249,9.8833,-0.0029,-0.0024,9.8066,0.0035,-0.0051,-0.0002,-67.25,-83.62,73.63,144.87,-10.82,-0.58
4217,48.877033,2.280185,85.71,6.05,4,81.23,14 / 19,421720,2020-01-04 11:44:57:970,0.0537,-0.0968,9.9094,-0.0031,-0.001,9.8066,0.0026,-0.0069,-0.0003,-67.44,-84.06,73.75,144.83,-10.82,-0.64
4218,48.877033,2.280185,85.71,6.05,4,81.23,14 / 19,421820,2020-01-04 11:44:58:070,0.0303,-0.094,9.887,-0.0013,-0.0005,9.8066,0.0013,0.0029,0.0002,-66.94,-84.06,73.75,144.8,-10.81,-0.68
4219,48.877033,2.280185,85.71,6.05,4,81.23,14 / 19,421920,2020-01-04 11:44:58:170,0.1019,-0.0612,9.8913,-0.0025,-0.0013,9.8066,0.0029,-0.0032,0.0003,-67.44,-83.81,74.0,144.78,-10.8,-0.73
4220,48.877033,2.280185,85.71,6.05,4,81.23,14 / 19,422021,2020-01-04 11:44:58:271,0.0703,-0.0742,9.8708,-0.0021,-0.0012,9.8066,-0.0008,0.0005,0.0008,-66.94,-83.94,74.06,144.76,-10.79,-0.76
4221,48.877033,2.280185,85.71,6.05,4,81.23,14 / 19,422121,2020-01-04 11:44:58:371,0.1168,-0.086,9.8472,-0.0029,-0.002,9.8066,0.0018,-0.0018,-0.0019,-67.37,-84.31,73.81,144.74,-10.8,-0.79
4222,48.877033,2.280185,85.71,6.05,4,81.23,14 / 19,422221,2020-01-04 11:44:58:471,0.0635,-0.0889,9.8832,-0.0022,-0.0009,9.8065,0.0024,-0.0061,0.0016,-67.25,-83.37,73.81,144.43,-10.79,-0.84
4223,48.877033,2.280185,85.71,6.05,4,81.23,14 / 19,422321,2020-01-04 11:44:58:571,0.0963,-0.0878,9.9004,-0.0034,-0.0022,9.8065,0.0004,0.0018,0.0031,-67.19,-83.62,74.19,144.68,-10.78,-0.89
4224,48.877033,2.280185,85.71,6.05,4,81.23,14 / 21,422420,2020-01-04 11:44:58:670,0.0917,-0.0922,9.8336,-0.0026,-0.003,9.8065,0.0039,-0.0043,-0.0004,-67.44,-83.56,74.31,144.66,-10.78,-0.92
4225,48.87707,2.280362,85.72,0.0,4,65.35,14 / 21,422521,2020-01-04 11:44:58:771,0.1629,-0.0697,9.8493,-0.0039,-0.0048,9.8066,0.0036,-0.0019,0.0001,-67.0,-83.44,73.88,144.36,-10.78,-0.96
4226,48.87707,2.280362,85.72,0.0,4,65.35,14 / 21,422621,2020-01-04 11:44:58:871,0.1419,-0.0404,9.8587,-0.002,-0.0018,9.8066,0.001,-0.0016,-0.0001,-67.5,-83.81,73.75,144.6,-10.8,-1.03
4227,48.87707,2.280362,85.72,0.0,4,65.35,14 / 21,422720,2020-01-04 11:44:58:970,0.1306,-0.0783,9.7921,-0.0013,-0.0016,9.8066,0.0011,-0.0062,0.0001,-67.69,-84.19,73.81,144.2,-10.8,-1.06
4228,48.87707,2.280362,85.72,0.0,4,65.35,14 / 21,422821,2020-01-04 11:44:59:071,0.1003,-0.0581,9.899,-0.0011,-0.0012,9.8066,0.0018,-0.0009,-0.0021,-67.81,-83.94,74.31,144.18,-10.81,-1.09
4229,48.87707,2.280362,85.72,0.0,4,65.35,14 / 21,422921,2020-01-04 11:44:59:171,0.0709,-0.05,9.9077,-0.0008,-0.0016,9.8066,0.0029,-0.0083,-0.0025,-67.25,-84.44,74.19,144.56,-10.81,-1.12
4230,48.87707,2.280362,85.72,0.0,4,65.35,14 / 21,423020,2020-01-04 11:44:59:270,0.1343,-0.0316,9.8643,-0.0035,-0.0029,9.8065,-0.0013,-0.0046,0.0013,-66.75,-83.94,73.75,144.54,-10.82,-1.15
4231,48.87707,2.280362,85.72,0.0,4,65.35,14 / 21,423121,2020-01-04 11:44:59:371,0.1214,-0.0204,9.8567,-0.0014,-0.0009,9.8065,0.0034,-0.0024,0.0017,-67.06,-84.25,73.38,144.47,-10.82,-1.2
4232,48.87707,2.280362,85.72,0.0,4,65.35,14 / 21,423221,2020-01-04 11:44:59:471,0.1768,-0.0295,9.8424,-0.0008,-0.0025,9.8066,0.0003,-0.0056,0.0032,-67.44,-84.25,73.75,144.5,-10.83,-1.23
4233,48.87707,2.280362,85.72,0.0,4,65.35,14 / 21,423321,2020-01-04 11:44:59:571,0.1092,-0.0278,9.841,-0.0013,-0.0022,9.8066,0.0004,-0.0059,-0.0002,-67.25,-83.87,74.06,144.49,-10.84,-1.25
4234,48.87707,2.280362,85.72,0.0,4,65.35,14 / 21,423421,2020-01-04 11:44:59:671,0.1843,-0.0592,9.8349,-0.0013,-0.0036,9.8066,0.0041,-0.0013,0.0004,-67.31,-83.75,73.63,144.47,-10.86,-1.3
4235,48.87707,2.280362,85.72,0.0,4,65.35,15 / 21,423521,2020-01-04 11:44:59:771,0.1292,-0.0128,9.9095,-0.0002,-0.0009,9.8066,0.0026,-0.0058,0.0003,-67.25,-83.81,74.25,144.46,-10.87,-1.32
4236,48.87707,2.280362,85.72,0.0,4,65.35,15 / 21,423621,2020-01-04 11:44:59:871,0.1495,0.0026,9.8764,-0.0006,-0.0016,9.8066,0.0027,-0.0029,0.0023,-67.12,-84.62,73.81,144.73,-10.88,-1.33
4237,48.87707,2.280362,85.72,0.0,4,65.35,15 / 21,423721,2020-01-04 11:44:59:971,0.1542,0.004,9.8805,-0.0015,-0.0029,9.8066,0.0024,-0.0042,0.0018,-67.19,-84.25,73.69,144.45,-10.91,-1.36
4238,48.87707,2.280362,85.72,0.0,4,65.35,15 / 21,423821,2020-01-04 11:45:00:071,0.129,-0.0006,9.8476,-0.0013,-0.0043,9.8066,0.0002,-0.0014,-0.0009,-67.37,-83.87,73.75,144.43,-10.94,-1.41
4239,48.87707,2.280362,85.72,0.0,4,65.35,15 / 21,423920,2020-01-04 11:45:00:170,0.1899,0.0097,9.8433,-0.0003,-0.0018,9.8066,0.0005,-0.0043,-0.0023,-67.37,-83.94,73.75,144.41,-10.95,-1.44
4240,48.87707,2.280362,85.72,0.0,4,65.35,15 / 21,424021,2020-01-04 11:45:00:271,0.1265,0.0054,9.8682,0.0007,-0.0017,9.8066,0.0017,-0.0048,0.0014,-67.19,-83.94,73.75,144.41,-10.97,-1.46
4241,48.87707,2.280362,85.72,0.0,4,65.35,15 / 21,424121,2020-01-04 11:45:00:371,0.1727,0.0245,9.8845,-0.0007,-0.0013,9.8066,0.0,-0.0064,0.0027,-67.62,-84.19,73.81,144.02,-11.0,-1.47
4242,48.87707,2.280362,85.72,0.0,4,65.35,15 / 21,424221,2020-01-04 11:45:00:471,0.1368,0.0491,9.8559,-0.002,-0.0047,9.8066,0.0041,-0.0129,0.0019,-67.31,-83.44,73.94,144.11,-11.02,-1.52
4243,48.87707,2.280362,85.72,0.0,4,65.35,15 / 21,424321,2020-01-04 11:45:00:571,0.1854,0.0445,9.8634,0.0027,0.0003,9.8066,0.0044,-0.008,0.0004,-67.19,-84.12,73.94,144.38,-11.05,-1.55
4244,48.87707,2.280362,85.72,0.0,4,65.35,15 / 21,424421,2020-01-04 11:45:00:671,0.133,0.0261,9.8427,-0.0002,-0.002,9.8066,0.0014,-0.0031,-0.0029,-67.06,-83.87,74.31,144.38,-11.07,-1.56
4245,48.87707,2.280362,85.72,0.0,4,65.35,13 / 19,424521,2020-01-04 11:45:00:771,0.1996,0.0111,9.8641,-0.0004,-0.0014,9.8066,-0.0003,-0.0004,-0.0016,-67.62,-83.81,74.25,143.98,-11.09,-1.58
4246,48.87707,2.280362,85.72,0.0,4,65.35,13 / 19,424621,2020-01-04 11:45:00:871,0.1453,0.0388,9.8496,0.0004,-0.0015,9.8066,-0.0022,0.004,-0.0003,-67.75,-84.37,74.25,143.98,-11.11,-1.59
4247,48.87707,2.280362,85.72,0.0,4,65.35,13 / 19,424720,2020-01-04 11:45:00:970,0.1903,0.0379,9.8432,0.0009,-0.0025,9.8066,0.0031,-0.0069,-0.0039,-67.06,-83.5,73.88,144.1,-11.14,-1.59
4248,48.87707,2.280362,85.72,0.0,4,65.35,13 / 19,424821,2020-01-04 11:45:01:071,0.1852,0.0519,9.8553,0.001,-0.0019,9.8066,0.0008,-0.0023,-0.0038,-67.69,-84.31,74.0,143.98,-11.18,-1.62
4249,48.87707,2.280362,85.72,0.0,4,65.35,13 / 19,424921,2020-01-04 11:45:01:171,0.139,0.0529,9.8241,0.0006,-0.0019,9.8066,0.0018,0.0014,0.0038,-67.06,-84.37,73.69,144.37,-11.2,-1.63
4250,48.87707,2.280362,85.72,0.0,4,65.35,13 / 19,425022,2020-01-04 11:45:01:272,0.1666,0.0781,9.8342,0.001,-0.0025,9.8066,0.0017,-0.0008,0.0003,-67.5,-84.06,73.31,144.34,-11.23,-1.63
4251,48.87707,2.280362,85.72,0.0,4,65.35,13 / 19,425121,2020-01-04 11:45:01:371,0.1853,0.0533,9.8585,-0.0011,-0.0047,9.8066,0.002,-0.0021,0.0012,-67.56,-84.25,74.38,143.99,-11.26,-1.64
4252,48.87707,2.280362,85.72,0.0,4,65.35,13 / 19,425221,2020-01-04 11:45:01:471,0.153,0.1214,9.8732,0.0004,-0.0033,9.8066,0.0023,-0.0035,0.0026,-67.56,-84.06,73.56,143.99,-11.31,-1.67
4253,48.87707,2.280362,85.72,0.0,4,65.35,13 / 19,425321,2020-01-04 11:45:01:571,0.1658,0.0796,9.8656,0.0021,-0.0005,9.8066,0.0021,-0.0034,-0.0009,-67.5,-83.62,74.06,144.39,-11.36,-1.68
4254,48.87707,2.280362,85.72,0.0,4,65.35,15 / 20,425421,2020-01-04 11:45:01:671,0.1519,0.1048,9.8601,0.0009,-0.0018,9.8066,0.0002,0.0037,0.0022,-67.25,-84.12,73.69,144.39,-11.38,-1.69
4255,48.87707,2.280362,85.72,0.0,4,65.35,15 / 20,425521,2020-01-04 11:45:01:771,0.1339,0.0953,9.8791,0.0001,-0.0032,9.8066,-0.0031,0.002,0.0,-67.31,-83.69,74.56,144.43,-11.41,-1.71
4256,48.87707,2.280362,85.72,0.0,4,65.35,15 / 20,425621,2020-01-04 11:45:01:871,0.1222,0.1202,9.8979,0.0002,-0.0021,9.8066,-0.0015,-0.0011,0.0,-67.81,-83.81,73.88,144.0,-11.43,-1.7
4257,48.87707,2.280362,85.72,0.0,4,65.35,15 / 20,425721,2020-01-04 11:45:01:971,0.1349,0.1021,9.8253,0.0011,-0.0018,9.8066,0.0045,-0.0011,-0.0002,-66.87,-84.81,73.88,144.67,-11.45,-1.71
4258,48.87707,2.280362,85.72,0.0,4,65.35,15 / 20,425821,2020-01-04 11:45:02:071,0.1632,0.1277,9.8257,-0.0002,-0.0025,9.8065,-0.0008,-0.005,-0.0024,-66.94,-83.87,73.25,144.36,-11.49,-1.71
4259,48.87707,2.280362,85.72,0.0,4,65.35,15 / 20,425921,2020-01-04 11:45:02:171,0.1612,0.126,9.8562,0.0013,-0.0032,9.8066,0.0031,-0.004,0.0002,-66.75,-84.44,74.31,144.41,-11.53,-1.73
4260,48.87707,2.280362,85.72,0.0,4,65.35,15 / 20,426020,2020-01-04 11:45:02:270,0.1697,0.1102,9.8427,0.0016,-0.0014,9.8066,0.0031,-0.0065,-0.002,-67.25,-84.06,73.69,144.41,-11.56,-1.73
4261,48.87707,2.280362,85.72,0.0,4,65.35,15 / 20,426120,2020-01-04 11:45:02:370,0.1297,0.1106,9.8352,0.0025,-0.0015,9.8066,0.0035,-0.0071,0.0001,-67.06,-84.31,73.94,144.43,-11.6,-1.73
4262,48.87707,2.280362,85.72,0.0,4,65.35,15 / 20,426221,2020-01-04 11:45:02:471,0.1531,0.1194,9.8726,-0.0001,-0.004,9.8066,0.0056,-0.0139,-0.0016,-67.12,-83.81,74.31,144.43,-11.63,-1.73
4263,48.87707,2.280362,85.72,0.0,4,65.35,15 / 20,426321,2020-01-04 11:45:02:571,0.1193,0.1359,9.8298,0.0,-0.0038,9.8066,-0.0004,-0.0012,0.0003,-67.25,-84.31,73.81,144.43,-11.67,-1.75
4264,48.87707,2.280362,85.72,0.0,4,65.35,15 / 19,426421,2020-01-04 11:45:02:671,0.1799,0.1555,9.8919,0.0014,-0.0029,9.8066,0.0016,0.0014,0.0049,-67.12,-84.37,73.88,144.43,-11.71,-1.77
4265,48.87707,2.280362,85.72,0.0,4,65.35,15 / 19,426521,2020-01-04 11:45:02:771,0.1282,0.1603,9.8497,0.0021,-0.0001,9.8066,0.0001,-0.0086,0.0021,-67.12,-83.94,74.13,144.44,-11.76,-1.77
4266,48.87707,2.280362,85.72,0.0,4,65.35,15 / 19,426621,2020-01-04 11:45:02:871,0.119,0.2032,9.8727,0.0006,-0.0021,9.8066,-0.0012,-0.0047,0.0024,-67.19,-83.44,74.31,144.17,-11.78,-1.78
4267,48.87707,2.280362,85.72,0.0,4,65.35,15 / 19,426721,2020-01-04 11:45:02:971,0.1043,0.1758,9.848,0.0017,-0.001,9.8066,0.0005,-0.0031,-0.0011,-67.25,-84.31,73.81,144.46,-11.82,-1.76
4268,48.87707,2.280362,85.72,0.0,4,65.35,15 / 19,426821,2020-01-04 11:45:03:071,0.106,0.1392,9.8078,0.0012,-0.0013,9.8066,-0.0032,-0.0036,0.0009,-67.19,-84.5,74.13,144.47,-11.85,-1.76
4269,48.87707,2.280362,85.72,0.0,4,65.35,15 / 19,426921,2020-01-04 11:45:03:171,0.1351,0.153,9.8708,0.0023,-0.0013,9.8066,0.0004,0.0014,-0.0028,-67.62,-84.31,73.94,144.09,-11.88,-1.76
4270,48.87707,2.280362,85.72,0.0,4,65.35,15 / 19,427021,2020-01-04 11:45:03:271,0.0988,0.2027,9.8937,0.0021,-0.0018,9.8066,0.0012,0.0001,-0.0022,-67.5,-83.75,74.06,144.5,-11.92,-1.74
4271,48.87707,2.280362,85.72,0.0,4,65.35,15 / 19,427121,2020-01-04 11:45:03:371,0.146,0.1622,9.844,0.0016,-0.0014,9.8066,-0.0002,-0.0031,0.002,-67.37,-84.37,74.0,144.52,-11.97,-1.73
4272,48.87707,2.280362,85.72,0.0,4,65.35,15 / 19,427221,2020-01-04 11:45:03:471,0.0791,0.2064,9.8565,0.002,-0.0018,9.8066,0.0007,-0.0018,-0.0018,-67.25,-83.81,74.0,144.53,-11.99,-1.72
4273,48.87707,2.280362,85.72,0.0,4,65.35,15 / 19,427321,2020-01-04 11:45:03:571,0.1337,0.1988,9.8212,0.0033,-0.0012,9.8066,0.001,0.0005,0.0017,-67.12,-83.87,73.81,144.55,-12.04,-1.7
4274,48.87707,2.280362,85.72,0.0,4,65.35,15 / 19,427421,2020-01-04 11:45:03:671,0.0834,0.1806,9.8657,0.0017,-0.0009,9.8066,-0.0001,-0.0035,0.0009,-67.0,-83.87,73.44,144.52,-12.07,-1.7
4275,48.87707,2.280362,85.72,0.0,4,65.35,16 / 18,427521,2020-01-04 11:45:03:771,0.0602,0.187,9.8669,0.002,-0.0018,9.8065,0.0028,0.0012,0.0023,-67.56,-84.0,74.13,144.19,-12.1,-1.69
4276,48.87707,2.280362,85.72,0.0,4,65.35,16 / 18,427621,2020-01-04 11:45:03:871,0.073,0.1671,9.8392,0.0023,-0.0006,9.8066,-0.0005,-0.0005,-0.0028,-67.44,-84.06,73.5,144.6,-12.15,-1.67
4277,48.87707,2.280362,85.72,0.0,4,65.35,16 / 18,427721,2020-01-04 11:45:03:971,0.0839,0.2228,9.8563,0.0011,-0.0027,9.8066,-0.0008,0.0009,-0.0003,-67.44,-84.25,73.88,144.62,-12.18,-1.65
4278,48.87707,2.280362,85.72,0.0,4,65.35,16 / 18,427821,2020-01-04 11:45:04:071,0.0783,0.2109,9.875,0.001,-0.002,9.8066,0.0015,-0.0022,-0.0001,-67.06,-84.31,73.69,144.63,-12.21,-1.64
4279,48.87707,2.280362,85.72,0.0,4,65.35,16 / 18,427924,2020-01-04 11:45:04:174,0.0581,0.2373,9.8578,0.0026,0.0,9.8066,-0.0007,-0.0021,-0.0001,-67.5,-84.12,74.06,144.65,-12.25,-1.64
4280,48.87707,2.280362,85.72,0.0,4,65.35,16 / 18,428021,2020-01-04 11:45:04:271,0.0621,0.1969,9.9104,0.0015,-0.0011,9.8066,-0.0012,-0.002,0.0013,-67.12,-83.94,73.56,144.65,-12.27,-1.63
4281,48.87707,2.280362,85.72,0.0,4,65.35,16 / 18,428121,2020-01-04 11:45:04:371,-0.0046,0.264,9.936,0.0028,-0.0007,9.8066,0.0034,0.002,-0.0018,-66.87,-83.81,73.75,144.67,-12.31,-1.62
4282,48.87707,2.280362,85.72,0.0,4,65.35,16 / 18,428221,2020-01-04 11:45:04:471,0.0465,0.2067,9.8352,0.0022,-0.0003,9.8066,-0.0005,-0.0041,0.0015,-66.94,-83.81,74.06,144.68,-12.33,-1.61
4283,48.87707,2.280362,85.72,0.0,4,65.35,16 / 18,428321,2020-01-04 11:45:04:571,0.0151,0.207,9.8959,0.0022,0.0004,9.8066,0.0011,-0.0043,0.0028,-67.0,-83.94,74.25,144.69,-12.36,-1.6
4284,48.87707,2.280362,85.72,0.0,4,65.35,16 / 18,428421,2020-01-04 11:45:04:671,0.0125,0.2153,9.8722,0.002,0.0026,9.8066,-0.0007,0.0016,0.0001,-67.25,-83.94,73.56,144.7,-12.34,-1.58
4285,48.87707,2.280362,85.72,0.0,4,65.35,15 / 18,428521,2020-01-04 11:45:04:771,0.0197,0.2218,9.8957,0.0007,0.0014,9.8066,0.0003,0.0009,0.0016,-66.75,-84.25,74.13,144.71,-12.32,-1.55
4286,48.87707,2.280362,85.72,0.0,4,65.35,15 / 18,428621,2020-01-04 11:45:04:871,0.0436,0.2233,9.8671,0.0014,0.0022,9.8065,0.0022,0.006,0.0045,-67.19,-84.12,73.13,144.68,-12.32,-1.51
4287,48.87707,2.280362,85.72,0.0,4,65.35,15 / 18,428721,2020-01-04 11:45:04:971,0.0073,0.1745,9.8553,0.0007,0.0019,9.8066,0.0031,-0.0032,-0.0005,-67.44,-83.5,74.31,144.47,-12.3,-1.48
4288,48.87707,2.280362,85.72,0.0,4,65.35,15 / 18,428821,2020-01-04 11:45:05:071,0.0258,0.2021,9.8647,0.0008,0.0012,9.8066,-0.001,-0.002,-0.0017,-66.81,-84.0,73.81,144.75,-12.3,-1.48
4289,48.87707,2.280362,85.72,0.0,4,65.35,15 / 18,428920,2020-01-04 11:45:05:170,0.0139,0.2107,9.8818,0.0003,0.0011,9.8065,0.0005,-0.0099,-0.0006,-66.94,-83.62,73.06,144.7,-12.29,-1.47
4290,48.87707,2.280362,85.72,0.0,4,65.35,15 / 18,429020,2020-01-04 11:45:05:270,0.0066,0.1673,9.8632,0.0007,0.0023,9.8066,0.0016,-0.002,-0.0007,-67.62,-84.75,73.56,144.64,-12.28,-1.45
4291,48.87707,2.280362,85.72,0.0,4,65.35,15 / 18,429121,2020-01-04 11:45:05:371,0.0438,0.168,9.8627,-0.0003,0.002,9.8066,0.0046,-0.0024,-0.0028,-67.44,-84.75,74.25,145.03,-12.25,-1.43
4292,48.87707,2.280362,85.72,0.0,4,65.35,15 / 18,429221,2020-01-04 11:45:05:471,0.034,0.1741,9.844,-0.0003,0.0013,9.8066,0.0034,-0.0046,0.0005,-67.12,-84.06,73.19,144.72,-12.24,-1.41
4293,48.87707,2.280362,85.72,0.0,4,65.35,15 / 18,429321,2020-01-04 11:45:05:571,0.0093,0.2276,9.9081,0.0006,0.0014,9.8066,-0.0023,-0.0024,0.0045,-67.75,-84.12,73.75,144.38,-12.22,-1.39
4294,48.87707,2.280362,85.72,0.0,4,65.35,15 / 18,429420,2020-01-04 11:45:05:670,0.0305,0.2,9.908,-0.0003,0.0022,9.8066,0.0009,0.002,-0.0005,-67.56,-83.62,73.94,144.39,-12.2,-1.38
4295,48.87707,2.280362,85.72,0.0,4,65.35,15 / 20,429521,2020-01-04 11:45:05:771,0.0043,0.2081,9.8925,-0.0013,-0.0001,9.8066,0.0017,-0.0055,0.0011,-67.25,-83.69,74.0,144.79,-12.2,-1.36
4296,48.87707,2.280362,85.72,0.0,4,65.35,15 / 20,429620,2020-01-04 11:45:05:870,0.0142,0.173,9.8714,-0.0005,0.0015,9.8066,-0.0002,-0.0051,-0.0024,-67.44,-84.06,73.81,144.79,-12.19,-1.36
4297,48.87707,2.280362,85.72,0.0,4,65.35,15 / 20,429721,2020-01-04 11:45:05:971,0.0096,0.1817,9.877,0.0014,0.0003,9.8066,0.0012,-0.0031,-0.0028,-67.19,-84.44,74.13,144.79,-12.18,-1.34
4298,48.87707,2.280362,85.72,0.0,4,65.35,15 / 20,429821,2020-01-04 11:45:06:071,0.0194,0.1809,9.8589,-0.0001,0.0021,9.8066,0.0004,-0.0025,-0.0028,-66.75,-84.5,74.0,144.8,-12.17,-1.33
4299,48.87707,2.280362,85.72,0.0,4,65.35,15 / 20,429921,2020-01-04 11:45:06:171,0.0541,0.1646,9.8497,0.0004,0.0023,9.8066,0.0053,-0.0091,0.0021,-67.5,-83.87,73.31,144.76,-12.14,-1.31
4300,48.87707,2.280362,85.72,0.0,4,65.35,15 / 20,430021,2020-01-04 11:45:06:271,0.0425,0.1655,9.8273,0.0008,0.0007,9.8066,0.0042,-0.0051,-0.0019,-67.5,-83.94,73.31,144.76,-12.14,-1.29
4301,48.87707,2.280362,85.72,0.0,4,65.35,15 / 20,430121,2020-01-04 11:45:06:371,0.0217,0.1788,9.8627,-0.0006,-0.0008,9.8065,0.0006,-0.0043,0.0007,-67.44,-84.31,74.13,144.82,-12.14,-1.28
4302,48.87707,2.280362,85.72,0.0,4,65.35,15 / 20,430221,2020-01-04 11:45:06:471,0.0228,0.1483,9.8232,0.0003,-0.0006,9.8066,0.0013,-0.0076,-0.0011,-66.69,-83.81,73.63,144.82,-12.13,-1.28
4303,48.87707,2.280362,85.72,0.0,4,65.35,15 / 20,430320,2020-01-04 11:45:06:570,0.0121,0.1586,9.8283,0.0001,0.0022,9.8066,0.0022,-0.0043,-0.0016,-67.12,-84.0,74.25,144.82,-12.11,-1.26
4304,48.87707,2.280362,85.72,0.0,4,65.35,15 / 20,430421,2020-01-04 11:45:06:671,0.0303,0.1572,9.8565,-0.0002,0.0021,9.8066,-0.0007,-0.0036,0.0,-67.19,-83.19,73.63,144.55,-12.11,-1.26
4305,48.87707,2.280362,85.72,0.0,4,65.35,15 / 20,430521,2020-01-04 11:45:06:771,0.034,0.1624,9.8956,0.0011,0.002,9.8066,-0.0021,0.0017,0.0,-67.06,-84.25,73.38,144.78,-12.09,-1.23
4306,48.87707,2.280362,85.72,0.0,4,65.35,15 / 20,430621,2020-01-04 11:45:06:871,0.0303,0.1518,9.8684,-0.0009,0.0009,9.8066,0.0002,-0.004,-0.0005,-67.19,-83.75,73.81,144.84,-12.08,-1.21
4307,48.87707,2.280362,85.72,0.0,4,65.35,15 / 20,430720,2020-01-04 11:45:06:970,-0.0038,0.1553,9.8864,-0.0005,0.001,9.8066,0.0006,-0.0095,-0.0015,-67.37,-83.56,74.0,144.84,-12.07,-1.21
4308,48.87707,2.280362,85.72,0.0,4,65.35,15 / 20,430821,2020-01-04 11:45:07:071,0.0253,0.1332,9.8801,0.0019,0.0011,9.8065,0.0028,-0.0008,0.0023,-67.19,-83.75,73.75,144.83,-12.06,-1.22
4309,48.87707,2.280362,85.72,0.0,4,65.35,15 / 20,430921,2020-01-04 11:45:07:171,0.0072,0.1315,9.8134,0.0011,0.0017,9.8066,0.0063,-0.0073,-0.0001,-67.56,-82.94,73.94,144.19,-12.05,-1.18
4310,48.87707,2.280362,85.72,0.0,4,65.35,15 / 20,431021,2020-01-04 11:45:07:271,0.0363,0.1167,9.8728,-0.0017,-0.0002,9.8065,0.0009,-0.0059,0.0007,-67.5,-84.25,73.5,144.85,-12.06,-1.18
4311,48.87707,2.280362,85.72,0.0,4,65.35,15 / 20,431121,2020-01-04 11:45:07:371,-0.0457,0.1415,9.8399,0.0,0.0012,9.8066,0.0016,-0.0004,-0.0003,-67.81,-84.12,73.44,144.41,-12.04,-1.18
4312,48.87707,2.280362,85.72,0.0,4,65.35,15 / 20,431221,2020-01-04 11:45:07:471,0.0233,0.0932,9.8532,0.0015,0.0103,9.8066,0.0007,-0.0017,-0.0015,-67.19,-84.12,74.13,144.85,-12.03,-1.17
4313,48.87707,2.280362,85.72,0.0,4,65.35,15 / 20,431321,2020-01-04 11:45:07:571,0.0133,0.1263,9.9042,-0.0005,0.001,9.8066,0.0004,-0.0042,-0.0017,-67.31,-84.0,74.19,144.87,-11.98,-1.12
4314,48.87707,2.280362,85.72,0.0,4,65.35,15 / 20,431421,2020-01-04 11:45:07:671,0.0072,0.1168,9.8179,0.0014,0.0027,9.8066,-0.0017,0.0049,-0.0006,-67.12,-84.06,74.25,144.87,-11.97,-1.12
4315,48.87707,2.280362,85.72,0.0,4,65.35,15 / 20,431521,2020-01-04 11:45:07:771,0.0004,0.1002,9.8756,0.0002,0.0015,9.8066,-0.0006,0.0026,-0.0053,-67.62,-84.25,74.31,144.48,-11.96,-1.1
4316,48.87707,2.280362,85.72,0.0,4,65.35,15 / 20,431620,2020-01-04 11:45:07:870,0.0287,0.1079,9.8378,-0.0003,0.0005,9.8066,0.0011,-0.0069,-0.0024,-67.5,-84.12,74.44,144.89,-11.94,-1.06
4317,48.87707,2.280362,85.72,0.0,4,65.35,15 / 20,431721,2020-01-04 11:45:07:971,0.044,0.1074,9.8839,-0.0001,0.0005,9.8066,-0.0018,-0.005,0.0009,-67.44,-83.75,73.88,144.89,-11.93,-1.06
4318,48.87707,2.280362,85.72,0.0,4,65.35,15 / 20,431821,2020-01-04 11:45:08:071,-0.0186,0.0902,9.9202,0.0005,0.0001,9.8066,0.0049,-0.0095,-0.0021,-67.19,-83.5,74.06,144.61,-11.92,-1.06
4319,48.87707,2.280362,85.72,0.0,4,65.35,15 / 20,431921,2020-01-04 11:45:08:171,0.0105,0.1035,9.8781,0.001,0.0011,9.8066,0.0013,-0.003,-0.0043,-67.19,-84.12,73.38,144.84,-11.92,-1.06
4320,48.87707,2.280362,85.72,0.0,4,65.35,15 / 20,432021,2020-01-04 11:45:08:271,0.0198,0.1692,9.9277,0.0021,0.0004,9.8066,0.0025,0.0023,-0.0009,-67.12,-83.37,73.81,144.62,-11.91,-1.05
4321,48.87707,2.280362,85.72,0.0,4,65.35,15 / 20,432121,2020-01-04 11:45:08:371,-0.0198,0.0758,9.8583,-0.0008,0.0003,9.8066,0.0012,-0.0074,-0.0027,-67.56,-83.94,74.0,144.51,-11.91,-1.03
4322,48.87707,2.280362,85.72,0.0,4,65.35,15 / 20,432221,2020-01-04 11:45:08:471,0.0256,0.0663,9.833,-0.0004,-0.0009,9.8066,0.0062,-0.0088,0.0004,-66.62,-83.81,73.13,144.85,-11.9,-1.03
4323,48.87707,2.280362,85.72,0.0,4,65.35,15 / 20,432321,2020-01-04 11:45:08:571,0.0552,0.0817,9.8825,0.0002,0.0013,9.8066,-0.0026,-0.0004,-0.0017,-67.44,-83.37,73.56,144.63,-11.89,-1.02
4324,48.87707,2.280362,85.72,0.0,4,65.35,15 / 20,432421,2020-01-04 11:45:08:671,0.0126,0.1143,9.8607,0.0003,-0.0001,9.8066,0.0014,-0.008,-0.004,-67.31,-83.69,73.69,144.9,-11.88,-1.01
4325,48.87707,2.280362,85.72,0.0,4,65.35,16 / 20,432521,2020-01-04 11:45:08:771,0.028,0.0945,9.8154,0.0006,0.001,9.8066,0.0049,-0.0071,0.0009,-67.44,-83.94,73.13,144.86,-11.88,-1.0
4326,48.87707,2.280362,85.72,0.0,4,65.35,16 / 20,432620,2020-01-04 11:45:08:870,-0.0491,0.0898,9.9558,0.0001,0.0014,9.8066,-0.001,-0.0032,-0.0009,-67.37,-83.69,73.75,144.91,-11.88,-1.0
4327,48.87707,2.280362,85.72,0.0,4,65.35,16 / 20,432721,2020-01-04 11:45:08:971,-0.0059,0.1213,9.8726,-0.0001,0.0009,9.8066,-0.0003,-0.0024,0.0,-67.12,-84.12,73.56,144.91,-11.87,-0.99
4328,48.87707,2.280362,85.72,0.0,4,65.35,16 / 20,432820,2020-01-04 11:45:09:070,0.0067,0.0865,9.9063,-0.0018,-0.0023,9.8066,0.0032,-0.0088,0.0012,-67.0,-84.25,73.88,144.91,-11.85,-0.98
4329,48.87707,2.280362,85.72,0.0,4,65.35,16 / 20,432920,2020-01-04 11:45:09:170,-0.0237,0.1198,9.8994,-0.002,-0.0002,9.8065,0.0011,-0.0011,0.0014,-67.44,-83.87,73.63,144.89,-11.85,-1.01
4330,48.87707,2.280362,85.72,0.0,4,65.35,16 / 20,433021,2020-01-04 11:45:09:271,-0.0095,0.0952,9.9187,0.0,-0.0005,9.8066,0.004,-0.0028,-0.0027,-67.19,-84.06,73.44,144.84,-11.83,-1.01
4331,48.87707,2.280362,85.72,0.0,4,65.35,16 / 20,433121,2020-01-04 11:45:09:371,-0.0013,0.0692,9.8591,0.0011,0.0009,9.8066,0.0015,-0.0059,-0.0014,-66.87,-83.87,73.63,144.9,-11.82,-0.99
4332,48.87707,2.280362,85.72,0.0,4,65.35,16 / 20,433221,2020-01-04 11:45:09:471,0.0024,0.0685,9.925,-0.0018,-0.0018,9.8066,0.0042,-0.0117,-0.0009,-66.62,-84.37,73.19,144.85,-11.83,-0.98
4333,48.87707,2.280362,85.72,0.0,4,65.35,16 / 20,433321,2020-01-04 11:45:09:571,0.0201,0.1009,9.7937,-0.0011,0.0006,9.8066,0.0005,-0.003,-0.0016,-67.12,-84.31,73.38,144.84,-11.82,-1.0
4334,48.87707,2.280362,85.72,0.0,4,65.35,16 / 20,433421,2020-01-04 11:45:09:671,0.0356,0.0781,9.8676,-0.0001,0.0002,9.8066,0.0051,0.0035,-0.0047,-66.87,-83.94,74.44,144.9,-11.82,-1.0
4335,48.87707,2.280362,85.72,0.0,4,65.35,16 / 20,433521,2020-01-04 11:45:09:771,0.0438,0.0836,9.8857,-0.0003,0.0015,9.8066,0.0025,-0.0091,-0.0014,-67.06,-84.75,73.94,145.18,-11.82,-0.97
4336,48.87707,2.280362,85.72,0.0,4,65.35,16 / 20,433621,2020-01-04 11:45:09:871,-0.0273,0.0963,9.9174,0.0014,0.0016,9.8066,0.0007,-0.0045,-0.0022,-67.37,-84.31,73.56,144.92,-11.81,-0.95
4337,48.87707,2.280362,85.72,0.0,4,65.35,16 / 20,433720,2020-01-04 11:45:09:970,-0.0099,0.1301,9.8937,0.0015,0.0015,9.8066,-0.0002,0.0014,-0.0009,-67.25,-84.62,74.0,145.18,-11.81,-0.96
4338,48.87707,2.280362,85.72,0.0,4,65.35,16 / 20,433821,2020-01-04 11:45:10:071,-0.0059,0.0437,9.8245,-0.0021,-0.0014,9.8066,0.0023,-0.0034,-0.0003,-67.12,-84.19,74.25,144.92,-11.8,-0.95
4339,48.87707,2.280362,85.72,0.0,4,65.35,16 / 20,433921,2020-01-04 11:45:10:171,0.0018,0.1042,9.8912,-0.0016,0.0004,9.8066,0.0,-0.0047,-0.0015,-67.31,-84.25,73.63,144.92,-11.79,-0.95
4340,48.87707,2.280362,85.72,0.0,4,65.35,16 / 20,434021,2020-01-04 11:45:10:271,-0.0375,0.1064,9.8131,-0.0004,0.0009,9.8066,0.0051,-0.0062,-0.0021,-67.31,-84.31,73.56,144.91,-11.78,-0.96
4341,48.87707,2.280362,85.72,0.0,4,65.35,16 / 20,434121,2020-01-04 11:45:10:371,0.0416,-0.006,9.8947,0.0005,0.001,9.8066,0.0035,-0.0012,0.0026,-67.44,-84.06,73.38,144.85,-11.79,-0.97
4342,48.87707,2.280362,85.72,0.0,4,65.35,16 / 20,434221,2020-01-04 11:45:10:471,-0.0172,0.0654,9.8197,0.0003,0.0015,9.8066,0.0011,-0.0093,-0.0002,-66.87,-84.37,72.94,144.86,-11.78,-0.95
4343,48.87707,2.280362,85.72,0.0,4,65.35,16 / 20,434321,2020-01-04 11:45:10:571,0.0034,0.0967,9.8236,0.0002,0.0004,9.8066,0.0023,-0.0159,-0.0001,-67.06,-84.31,73.19,144.86,-11.78,-0.95
4344,48.87707,2.280362,85.72,0.0,4,65.35,16 / 20,434420,2020-01-04 11:45:10:670,0.0503,0.0681,9.8392,0.0,0.0001,9.8066,0.0016,-0.0013,-0.0001,-67.0,-84.25,73.69,144.9,-11.78,-0.97
4345,48.87707,2.280362,85.72,0.0,4,65.35,14 / 20,434520,2020-01-04 11:45:10:770,0.0278,0.0755,9.8427,-0.0014,-0.0007,9.8066,0.0025,-0.0035,-0.0004,-67.31,-84.12,73.94,144.91,-11.77,-0.95
4346,48.87707,2.280362,85.72,0.0,4,65.35,14 / 20,434621,2020-01-04 11:45:10:871,-0.0003,0.0804,9.8173,0.0001,-0.0005,9.8066,0.0001,-0.0047,0.0028,-67.69,-84.0,73.19,144.46,-11.77,-0.97
4347,48.87707,2.280362,85.72,0.0,4,65.35,14 / 20,434721,2020-01-04 11:45:10:971,0.0542,0.0576,9.8887,0.0013,0.0014,9.8066,0.0022,-0.0035,-0.0003,-66.87,-84.37,73.13,144.84,-11.77,-0.98
4348,48.87707,2.280362,85.72,0.0,4,65.35,14 / 20,434821,2020-01-04 11:45:11:071,0.014,0.0875,9.8742,0.0003,0.001,9.8066,0.0047,-0.0141,-0.0026,-67.37,-83.62,73.56,144.9,-11.76,-0.96
4349,48.87707,2.280362,85.72,0.0,4,65.35,14 / 20,434920,2020-01-04 11:45:11:170,-0.0241,0.0632,9.8676,-0.0006,-0.0002,9.8066,0.0045,-0.0038,-0.0037,-67.62,-83.69,74.06,144.5,-11.76,-0.97
4350,48.87707,2.280362,85.72,0.0,4,65.35,14 / 20,435020,2020-01-04 11:45:11:270,0.0005,0.1014,9.8683,0.0004,-0.0001,9.8066,-0.0002,-0.0009,-0.0021,-66.81,-84.56,73.19,145.12,-11.76,-0.97
4351,48.87707,2.280362,85.72,0.0,4,65.35,14 / 20,435121,2020-01-04 11:45:11:371,0.0119,0.0841,9.8779,0.0011,0.0003,9.8066,0.0024,0.0009,-0.001,-66.62,-84.56,73.5,145.17,-11.76,-0.96
4352,48.87707,2.280362,85.72,0.0,4,65.35,14 / 20,435220,2020-01-04 11:45:11:470,0.0223,0.0987,9.9026,-0.0009,-0.0004,9.8066,0.0016,-0.0075,-0.0015,-67.44,-84.12,73.81,144.9,-11.76,-0.95
4353,48.87707,2.280362,85.72,0.0,4,65.35,14 / 20,435321,2020-01-04 11:45:11:571,0.0046,0.0824,9.8819,-0.0012,-0.0011,9.8066,0.0003,-0.0031,0.0021,-66.75,-84.31,73.44,144.84,-11.76,-0.98
4354,48.87707,2.280362,85.72,0.0,4,65.35,14 / 20,435421,2020-01-04 11:45:11:671,0.0374,0.0769,9.8914,-0.0002,0.001,9.8066,0.0018,-0.0037,-0.0006,-67.5,-84.5,73.25,144.83,-11.76,-0.99
4355,48.87707,2.280362,85.72,0.0,4,65.35,17 / 22,435521,2020-01-04 11:45:11:771,0.0199,0.0706,9.8808,0.0007,0.0018,9.8066,0.0018,-0.0021,-0.0052,-66.94,-84.25,73.69,144.88,-11.75,-0.98
4356,48.87707,2.280362,85.72,0.0,4,65.35,17 / 22,435621,2020-01-04 11:45:11:871,0.0183,0.0926,9.9135,0.0008,0.0007,9.8066,-0.0008,-0.0007,-0.0025,-67.37,-84.37,74.38,144.9,-11.73,-0.96
4357,48.87707,2.280362,85.72,0.0,4,65.35,17 / 22,435720,2020-01-04 11:45:11:970,-0.0122,0.0579,9.8105,-0.0008,-0.0003,9.8066,0.004,-0.012,-0.0024,-67.12,-84.25,73.63,144.9,-11.73,-0.94
4358,48.87707,2.280362,85.72,0.0,4,65.35,17 / 22,435820,2020-01-04 11:45:12:070,0.0349,0.0817,9.9283,-0.0003,0.0006,9.8065,-0.0022,-0.0042,0.0032,-67.25,-84.44,73.25,144.85,-11.72,-0.94
4359,48.87707,2.280362,85.72,0.0,4,65.35,17 / 22,435921,2020-01-04 11:45:12:171,-0.0051,0.0566,9.8359,0.0009,0.0014,9.8066,0.001,-0.0017,0.0031,-67.19,-84.37,73.5,144.89,-11.72,-0.96
4360,48.87707,2.280362,85.72,0.0,4,65.35,17 / 22,436021,2020-01-04 11:45:12:271,0.0326,0.0681,9.9117,-0.0001,0.0003,9.8066,0.0024,-0.0014,-0.0012,-67.37,-84.44,73.81,144.9,-11.72,-0.94
4361,48.87707,2.280362,85.72,0.0,4,65.35,17 / 22,436121,2020-01-04 11:45:12:371,0.0017,0.0742,9.8971,-0.0003,0.0007,9.8066,0.002,0.0009,0.0008,-67.37,-84.06,74.19,144.9,-11.71,-0.94
4362,48.87707,2.280362,85.72,0.0,4,65.35,17 / 22,436221,2020-01-04 11:45:12:471,0.0434,0.0637,9.902,0.0015,0.0013,9.8066,-0.0011,0.0006,-0.003,-67.25,-84.0,73.56,144.91,-11.69,-0.92
