,GPS LATITUDE (degrees), GPS LONGITUDE (degrees), GPS ALTITUDE (m), GPS SPEED (Kmh), GPS ACCURACY (m), GPS ORIENTATION (Â°),GPS SATELLITES IN RANGE, TIME SINCE START (ms), DATE (YYYY-MO-DD HH-MI-SS_SSS), ACCELEROMETER X (m/s²) , ACCELEROMETER Y (m/s²), ACCELEROMETER Z (m/s²), GRAVITY X (m/s²), GRAVITY Y (m/s²), GRAVITY Z (m/s²), GYROSCOPE Yaw (rad/s), GYROSCOPE Pitch (rad/s), GYROSCOPE Roll (rad/s), MAGNETIC FIELD X (Î¼T), MAGNETIC FIELD Y (Î¼T), MAGNETIC FIELD Z (Î¼T), ORIENTATION (Yaw) (Â°), ORIENTATION (Pitch) (Â°), ORIENTATION (Roll ) (Â°)
28232,51.530697,-2.599822,117,0.0,9,,Dec-22,2823223,2019-08-16 13:36:17:003,0.0881,-0.1111,9.4652,-0.0002,0.0028,9.8067,-0.0021,-0.0155,0.0005,-5.58,29.39,-2.28,257.06,10.01,4.06
28233,51.530697,-2.599822,117,0.0,9,,Dec-22,2823323,2019-08-16 13:36:17:103,0.0631,0.2138,10.0153,0.0019,-0.0004,9.8066,-0.0117,0.0303,0.0027,-5.58,29.39,-2.28,257.06,10.03,4.07
28234,51.530697,-2.599822,117,0.0,9,,Dec-22,2823423,2019-08-16 13:36:17:203,0.0406,-0.0143,9.8266,0.0014,-0.0013,9.8067,0.0053,-0.008,0.0005,-5.58,29.39,-2.28,257.06,10.02,4.06
28235,51.530697,-2.599822,117,0.0,9,,Dec-22,2823523,2019-08-16 13:36:17:303,-0.0787,0.0286,9.803,-0.0001,0.0032,9.8067,-0.0064,-0.0165,0.0037,-5.68,29.37,-2.32,257.06,10.04,4.06
28236,51.530697,-2.599822,117,0.0,9,,Dec-22,2823623,2019-08-16 13:36:17:403,-0.0268,0.071,10.2914,0.0004,-0.0047,9.8066,-0.0064,0.0303,0.0027,-5.68,29.37,-2.32,257.06,10.04,4.06
28237,51.530697,-2.599822,117,0.0,9,,Dec-22,2823723,2019-08-16 13:36:17:503,0.0026,-0.1646,9.4804,-0.0008,0.0036,9.8066,0.0021,0.0037,0.0005,-5.77,29.29,-3.0,256.71,10.01,4.05
28238,51.530697,-2.599822,117,0.0,9,,13 / 22,2823822,2019-08-16 13:36:17:602,-0.1253,-0.0837,9.7934,-0.0038,0.0029,9.8066,0.0021,0.0037,0.0005,-6.2,29.26,-2.32,256.71,10.01,4.05
28239,51.530697,-2.599822,117,0.0,9,,13 / 22,2823923,2019-08-16 13:36:17:703,-0.084,0.0955,10.073,0.0016,0.003,9.8066,-0.0011,-0.0112,-0.0016,-6.31,29.27,-1.81,257.06,10.02,4.08
28240,51.530697,-2.599822,117,0.0,9,,13 / 22,2824023,2019-08-16 13:36:17:803,0.0106,-0.1784,9.9761,0.0018,-0.0053,9.8066,0.0,0.0229,-0.0005,-6.31,29.23,-2.36,257.06,10.04,4.07
28241,51.530697,-2.599822,117,0.0,9,,13 / 22,2824123,2019-08-16 13:36:17:903,0.0095,-0.1687,9.3797,0.0005,-0.0066,9.8066,-0.0053,0.0144,0.0037,-6.31,29.23,-2.36,257.06,10.04,4.07
28242,51.530697,-2.599822,117,0.0,9,,13 / 22,2824223,2019-08-16 13:36:18:003,0.0288,0.0489,9.912,0.0001,0.0044,9.8066,-0.0053,0.0133,0.0048,-5.89,29.36,-1.85,257.06,10.01,4.06
28243,51.530697,-2.599822,117,0.0,9,,13 / 22,2824323,2019-08-16 13:36:18:103,0.0837,-0.0055,9.6135,0.0007,0.0036,9.8066,0.0053,-0.024,-0.0016,-5.89,29.36,-1.85,257.06,10.01,4.06
28244,51.530697,-2.599822,117,0.0,9,,13 / 22,2824423,2019-08-16 13:36:18:203,-0.0258,0.2167,9.8942,0.0016,0.0076,9.8066,-0.0053,0.0144,0.0027,-5.16,29.45,-2.42,258.93,10.05,4.06
28245,51.530697,-2.599822,117,0.0,9,,13 / 22,2824524,2019-08-16 13:36:18:304,-0.0593,0.1406,10.1835,0.0,-0.0011,9.8067,0.0011,-0.0112,0.0005,-5.16,29.45,-2.42,258.93,10.05,4.06
28246,51.530697,-2.599822,117,0.0,9,,13 / 22,2824623,2019-08-16 13:36:18:403,0.0187,-0.0302,10.0784,-0.0028,-0.0046,9.8066,0.0011,-0.0112,0.0005,-5.6,29.42,-1.76,257.06,10.02,4.07
28247,51.530697,-2.599822,117,0.0,9,,13 / 22,2824723,2019-08-16 13:36:18:503,0.0367,0.2279,10.0407,0.0014,-0.0037,9.8066,0.0075,-0.008,-0.0059,-6.31,29.27,-1.81,257.06,10.04,4.08
28248,51.530697,-2.599822,117,0.0,9,,15 / 22,2824823,2019-08-16 13:36:18:603,-0.0056,0.062,10.101,0.0013,-0.0029,9.8066,-0.0043,-0.0006,0.0037,-5.68,29.37,-2.32,257.06,10.03,4.07
28249,51.530697,-2.599822,117,0.0,9,,15 / 22,2824923,2019-08-16 13:36:18:703,-0.0342,0.0843,9.7662,0.0028,0.0036,9.8066,-0.0011,-0.0048,0.0016,-5.68,29.37,-2.32,257.06,10.03,4.07
28250,51.530697,-2.599822,117,0.0,9,,15 / 22,2825023,2019-08-16 13:36:18:803,0.0659,-0.0764,9.9482,-0.0004,-0.0043,9.8066,0.0,0.025,-0.0016,-5.78,29.34,-2.37,257.06,10.05,4.05
28251,51.530697,-2.599822,117,0.0,9,,15 / 22,2825123,2019-08-16 13:36:18:903,-0.0133,0.1024,9.648,-0.002,-0.0013,9.8067,-0.0075,0.0165,0.0048,-5.78,29.34,-2.37,257.06,10.05,4.05
28252,51.530697,-2.599822,117,0.0,9,,15 / 22,2825224,2019-08-16 13:36:19:004,-0.0644,0.0785,9.7111,0.0021,-0.0008,9.8067,-0.0021,0.008,0.0027,-5.78,29.34,-2.37,257.06,10.04,4.06
28253,51.530697,-2.599822,117,0.0,9,,15 / 22,2825323,2019-08-16 13:36:19:103,-0.0148,0.1067,10.1347,0.0021,-0.0029,9.8067,0.0064,0.009,-0.0037,-5.25,29.44,-2.37,258.94,10.03,4.05
28254,51.530697,-2.599822,117,0.0,9,,15 / 22,2825423,2019-08-16 13:36:19:203,-0.0391,0.0049,9.5444,-0.0008,0.0042,9.8066,0.0064,0.009,-0.0037,-5.79,29.38,-1.82,258.94,10.03,4.05
28255,51.530697,-2.599822,117,0.0,9,,15 / 22,2825522,2019-08-16 13:36:19:302,-0.1577,0.1614,9.9733,-0.0002,0.0026,9.8066,-0.0011,-0.0091,0.0005,-5.79,29.38,-1.82,258.94,10.03,4.05
28256,51.530697,-2.599822,117,0.0,9,,15 / 22,2825623,2019-08-16 13:36:19:403,-0.0319,0.0816,9.6375,0.0003,-0.001,9.8067,0.0043,-0.0016,-0.0005,-6.71,29.15,-2.31,255.21,10.05,4.06
28257,51.530697,-2.599822,117,0.0,9,,15 / 22,2825724,2019-08-16 13:36:19:504,-0.0516,0.2129,9.9994,-0.0001,-0.006,9.8066,-0.0043,0.0346,0.0005,-5.8,29.43,-0.54,257.42,10.05,4.06
28258,51.530697,-2.599822,117,0.0,9,,15 / 22,2825823,2019-08-16 13:36:19:603,-0.0315,-0.1644,9.9201,-0.0001,0.002,9.8067,0.0085,-0.0176,-0.0037,-5.9,29.39,-1.11,257.42,10.01,4.05
28259,51.530697,-2.599822,117,0.0,9,,15 / 22,2825923,2019-08-16 13:36:19:703,-0.0745,-0.1477,9.6416,-0.0001,0.0026,9.8067,-0.0011,0.0122,0.0016,-5.9,29.39,-1.11,257.42,10.01,4.05
28260,51.530697,-2.599822,117,0.0,9,,15 / 22,2826023,2019-08-16 13:36:19:803,-0.0837,-0.0935,9.845,0.0008,0.0004,9.8067,-0.0096,0.0176,0.0059,-6.44,29.3,-0.55,257.42,10.03,4.06
28261,51.530697,-2.599822,117,0.0,9,,15 / 22,2826123,2019-08-16 13:36:19:903,-0.0117,-0.0665,10.1502,0.0023,0.0034,9.8067,-0.0096,0.0176,0.0059,-6.32,29.31,-1.09,257.42,10.05,4.05
28262,51.530697,-2.599822,117,0.0,9,,15 / 22,2826224,2019-08-16 13:36:20:004,0.041,-0.1689,9.3877,-0.001,-0.0055,9.8067,0.0107,-0.0027,-0.0048,-6.32,29.31,-1.09,257.42,10.05,4.05
28263,51.530697,-2.599822,117,0.0,9,,15 / 22,2826322,2019-08-16 13:36:20:102,-0.0545,0.0353,9.7439,-0.003,-0.0022,9.8067,0.0043,0.009,-0.0005,-7.22,29.07,-1.68,255.21,10.03,4.06
28264,51.530697,-2.599822,117,0.0,9,,15 / 22,2826423,2019-08-16 13:36:20:203,0.1467,-0.1132,9.9635,-0.0002,0.0011,9.8066,-0.0117,-0.0144,0.0059,-6.72,29.22,-1.06,255.57,10.04,4.06
28265,51.530697,-2.599822,117,0.0,9,,15 / 22,2826523,2019-08-16 13:36:20:303,0.0821,-0.0165,9.585,0.0013,-0.0025,9.8066,0.0,0.0229,-0.0005,-6.72,29.22,-1.06,255.57,10.04,4.06
28266,51.530697,-2.599822,117,0.0,9,,15 / 22,2826624,2019-08-16 13:36:20:404,0.0039,0.2007,10.129,0.0005,0.0042,9.8066,-0.0011,-0.0123,0.0027,-6.2,29.3,-1.69,257.06,10.02,4.05
28267,51.530697,-2.599822,117,0.0,9,,15 / 22,2826723,2019-08-16 13:36:20:503,0.0433,0.0486,10.0079,0.0002,0.0011,9.8067,0.0043,-0.0208,-0.0005,-6.72,29.22,-1.06,255.57,10.03,4.05
28268,51.530697,-2.599822,117,0.0,9,,15 / 22,2826823,2019-08-16 13:36:20:603,0.0733,-0.0047,9.6333,-0.0002,0.0001,9.8067,0.0043,-0.0208,-0.0005,-6.72,29.22,-1.06,255.57,10.03,4.05
28269,51.530697,-2.599822,117,0.0,9,,15 / 22,2826923,2019-08-16 13:36:20:703,-0.0851,0.1562,10.0009,-0.0012,0.0038,9.8067,-0.0074,0.0207,0.0027,-6.31,29.23,-2.36,257.06,10.03,4.05
28270,51.530697,-2.599822,117,0.0,9,,15 / 22,2827023,2019-08-16 13:36:20:803,0.1221,-0.1252,9.4152,0.001,-0.0029,9.8066,-0.0011,-0.0027,0.0005,-6.72,29.19,-1.69,255.21,10.05,4.07
28271,51.530697,-2.599822,117,0.0,9,,15 / 22,2827123,2019-08-16 13:36:20:903,-0.0457,-0.0433,9.783,-0.0004,-0.0072,9.8066,-0.0011,-0.0155,0.0016,-6.72,29.19,-1.69,255.21,10.05,4.07
28272,51.530697,-2.599822,117,0.0,9,,15 / 22,2827223,2019-08-16 13:36:21:003,0.0193,-0.0472,10.1665,0.0013,0.0031,9.8067,-0.0053,0.0282,0.0027,-6.32,29.28,-1.72,257.06,10.01,4.06
28273,51.530697,-2.599822,117,0.0,9,,15 / 22,2827323,2019-08-16 13:36:21:103,-0.0547,-0.0599,9.6619,0.0001,-0.0034,9.8066,-0.0032,-0.0123,-0.0005,-5.59,29.43,-1.67,257.06,10.02,4.05
28274,51.530697,-2.599822,117,0.0,9,,15 / 22,2827424,2019-08-16 13:36:21:204,-0.0323,-0.0593,9.6291,-0.0006,-0.0018,9.8066,0.0043,0.0261,0.0005,-6.32,29.28,-1.72,257.06,10.01,4.06
28275,51.530697,-2.599822,117,0.0,9,,15 / 22,2827523,2019-08-16 13:36:21:303,-0.0359,-0.0139,9.9829,0.0023,0.0042,9.8066,0.0043,0.0261,0.0005,-6.32,29.28,-1.72,257.06,10.01,4.06
28276,51.530697,-2.599822,117,0.0,9,,15 / 22,2827623,2019-08-16 13:36:21:403,0.037,-0.2095,9.6085,-0.0009,0.0015,9.8066,0.0075,-0.0336,-0.0016,-6.32,29.28,-1.72,257.06,10.02,4.04
28277,51.530697,-2.599822,117,0.0,9,,15 / 22,2827723,2019-08-16 13:36:21:503,-0.0812,0.0166,9.8442,-0.0007,-0.0015,9.8067,-0.0074,0.0218,0.0016,-5.24,29.39,-2.92,258.58,10.03,4.05
28278,51.530697,-2.599822,117,0.0,9,,15 / 22,2827823,2019-08-16 13:36:21:603,0.0166,0.0641,10.1817,-0.0012,-0.0005,9.8067,0.0,0.009,0.0016,-5.24,29.39,-2.92,258.58,10.03,4.05
28279,51.530697,-2.599822,117,0.0,9,,15 / 22,2827923,2019-08-16 13:36:21:703,0.0963,-0.0242,9.4302,0.0,0.0049,9.8067,0.0064,-0.04,-0.0016,-5.66,29.26,-3.48,256.7,10.02,4.06
28280,51.530697,-2.599822,117,0.0,9,,15 / 22,2828023,2019-08-16 13:36:21:803,0.0096,-0.1658,9.9269,0.0005,0.0008,9.8067,-0.0021,-0.0016,0.0005,-5.78,29.34,-2.37,256.7,10.02,4.06
28281,51.530697,-2.599822,117,0.0,9,,15 / 22,2828122,2019-08-16 13:36:21:902,0.0214,-0.0298,9.3621,-0.0008,-0.0007,9.8067,-0.0021,0.0282,0.0005,-5.79,29.39,-1.73,257.06,10.03,4.06
28282,51.530697,-2.599822,117,0.0,9,,15 / 22,2828223,2019-08-16 13:36:22:003,0.0463,-0.0865,9.4636,0.0,-0.002,9.8067,-0.0011,-0.0197,0.0037,-5.79,29.39,-1.64,257.06,10.02,4.05
28283,51.530697,-2.599822,117,0.0,9,,15 / 22,2828324,2019-08-16 13:36:22:104,0.011,0.0822,9.8978,0.001,-0.0047,9.8066,-0.0011,-0.0197,0.0037,-5.69,29.44,-0.98,257.06,10.02,4.05
28284,51.530697,-2.599822,117,0.0,9,,15 / 22,2828423,2019-08-16 13:36:22:203,0.1177,-0.1043,9.5162,0.0019,-0.0041,9.8067,-0.0064,0.0207,0.0005,-5.69,29.44,-0.98,257.06,10.02,4.05
28285,51.530697,-2.599822,117,0.0,9,,15 / 22,2828523,2019-08-16 13:36:22:303,-0.0232,0.0861,9.767,0.0024,0.0023,9.8066,-0.0011,0.0005,0.0037,-5.59,29.43,-1.58,257.06,10.03,4.04
28286,51.530697,-2.599822,117,0.0,9,,15 / 22,2828623,2019-08-16 13:36:22:403,0.0544,0.0307,9.5765,-0.0009,0.001,9.8067,0.0064,-0.0325,-0.0005,-6.48,29.21,-2.14,257.06,10.03,4.04
28287,51.530697,-2.599822,117,0.0,9,,15 / 22,2828723,2019-08-16 13:36:22:503,-0.053,0.1448,9.8831,-0.0028,0.0002,9.8067,-0.0117,0.0293,0.0037,-6.48,29.21,-2.14,257.06,10.03,4.04
28288,51.530697,-2.599822,117,0.0,9,,15 / 22,2828823,2019-08-16 13:36:22:603,-0.0101,0.2017,9.9532,0.0005,-0.0018,9.8067,-0.0011,-0.0304,0.0005,-6.21,29.31,-1.6,257.06,10.03,4.06
28289,51.530697,-2.599822,117,0.0,9,,15 / 22,2828923,2019-08-16 13:36:22:703,0.0383,0.0876,10.0729,-0.0007,-0.0053,9.8067,0.0096,-0.0112,-0.0048,-6.2,29.26,-2.32,257.06,10.03,4.06
28290,51.530697,-2.599822,117,0.0,9,,15 / 22,2829023,2019-08-16 13:36:22:803,0.0271,0.1566,9.9051,0.0017,0.003,9.8066,0.0096,-0.0112,-0.0048,-6.31,29.24,-2.27,257.06,10.0,4.06
28291,51.530697,-2.599822,117,0.0,9,,15 / 22,2829123,2019-08-16 13:36:22:903,0.0969,-0.1397,9.653,0.0033,-0.0014,9.8066,-0.0064,0.0133,0.0037,-6.31,29.24,-2.27,257.06,10.0,4.06
28292,51.530697,-2.599822,117,0.0,9,,15 / 22,2829223,2019-08-16 13:36:23:003,-0.0257,-0.0321,9.6554,-0.0013,0.0031,9.8066,0.0032,-0.0165,-0.0005,-5.16,29.47,-2.24,258.94,10.0,4.04
28293,51.530697,-2.599822,117,0.0,9,,15 / 22,2829324,2019-08-16 13:36:23:104,-0.0474,0.1753,10.1787,-0.0023,0.0061,9.8066,0.0043,0.0261,-0.0016,-5.58,29.39,-2.28,257.06,10.03,4.06
28294,51.530697,-2.599822,117,0.0,9,,15 / 22,2829424,2019-08-16 13:36:23:204,-0.0623,0.2041,9.8953,-0.0021,-0.0008,9.8067,-0.0074,0.0186,0.0027,-5.58,29.39,-2.28,257.06,10.03,4.06
28295,51.530697,-2.599822,117,0.0,9,,15 / 22,2829523,2019-08-16 13:36:23:303,0.0199,-0.0487,9.4229,0.0001,0.0016,9.8067,-0.0011,-0.0251,0.0016,-6.83,29.13,-2.26,255.21,10.02,4.07
28296,51.530697,-2.599822,117,0.0,9,,15 / 22,2829623,2019-08-16 13:36:23:403,-0.0677,0.1681,9.9628,-0.0007,-0.0018,9.8066,0.0085,0.0069,-0.0027,-6.42,29.21,-2.31,257.07,10.01,4.05
28297,51.530697,-2.599822,117,0.0,9,,15 / 22,2829724,2019-08-16 13:36:23:504,-0.0667,-0.0232,10.0489,-0.0017,0.0016,9.8066,-0.0085,0.0229,0.0016,-6.42,29.21,-2.31,257.07,10.01,4.05
28298,51.530697,-2.599822,117,0.0,9,,15 / 22,2829823,2019-08-16 13:36:23:603,-0.1159,0.0086,9.8674,0.0008,-0.0007,9.8066,-0.0085,0.0229,0.0016,-5.69,29.41,-1.61,257.06,10.01,4.06
28299,51.530697,-2.599822,117,0.0,9,,15 / 22,2829923,2019-08-16 13:36:23:703,0.0002,-0.0921,9.8894,0.001,-0.0027,9.8066,-0.0011,-0.0155,0.0005,-6.2,29.27,-2.23,257.06,10.01,4.06
28300,51.530697,-2.599822,117,0.0,9,,15 / 22,2830023,2019-08-16 13:36:23:803,-0.0283,-0.1657,9.5911,0.001,0.001,9.8067,0.0053,-0.008,-0.0027,-7.19,28.95,3.19,257.0,10.02,4.06
28301,51.530697,-2.599822,117,0.0,9,,15 / 22,2830124,2019-08-16 13:36:23:904,-0.0279,-0.0672,9.7684,0.0009,-0.0024,9.8067,-0.0106,0.025,0.0016,-7.19,28.95,3.19,257.0,10.02,4.06
28302,51.530697,-2.599822,117,0.0,9,,15 / 22,2830223,2019-08-16 13:36:24:003,0.0599,0.0192,10.1029,0.0,-0.0018,9.8066,0.0096,-0.0165,-0.0027,-6.73,29.23,-0.44,255.93,10.01,4.05
28303,51.530697,-2.599822,117,0.0,9,,15 / 22,2830323,2019-08-16 13:36:24:103,0.1143,-0.4505,9.3454,-0.0102,-0.0408,9.8066,0.0,0.0112,0.0101,-6.21,29.31,-1.6,257.09,9.76,4.05
28304,51.530697,-2.599822,117,0.0,9,,15 / 22,2830424,2019-08-16 13:36:24:204,-0.1546,-0.3302,9.8822,-0.0094,-0.0109,9.8066,0.0043,0.0005,0.0027,-6.21,29.31,-1.6,257.09,9.76,4.05
28305,51.530697,-2.599822,117,0.0,9,,15 / 22,2830523,2019-08-16 13:36:24:303,-0.147,-0.2223,9.7327,-0.0047,-0.0147,9.8066,-0.0032,0.008,0.0016,-5.69,29.44,-0.98,257.45,9.59,4.08
28306,51.530697,-2.599822,117,0.0,9,,15 / 22,2830624,2019-08-16 13:36:24:404,-0.0465,-0.1043,9.6724,-0.0096,-0.0239,9.8066,-0.0032,0.008,0.0016,-6.21,29.33,-0.98,257.45,9.59,4.08
28307,51.530697,-2.599822,117,0.0,9,,15 / 22,2830723,2019-08-16 13:36:24:503,-0.0043,-0.1474,9.9712,-0.0116,-0.0404,9.8066,-0.0074,0.0239,0.0016,-6.21,29.33,-0.98,257.45,9.59,4.08
28308,51.530697,-2.599822,117,0.0,9,,15 / 22,2830823,2019-08-16 13:36:24:603,0.0009,-0.2601,9.5198,-0.0023,-0.0256,9.8066,0.0107,-0.0112,-0.0005,-6.21,29.33,-1.07,257.46,9.34,4.09
28309,51.530697,-2.599822,117,0.0,9,,15 / 22,2830926,2019-08-16 13:36:24:706,-0.0315,-0.2013,9.8472,-0.0061,-0.0181,9.8066,0.0011,0.009,-0.0016,-5.16,29.46,-2.33,259.02,9.19,4.07
28310,51.530697,-2.599822,117,0.0,9,,15 / 22,2831023,2019-08-16 13:36:24:803,-0.032,-0.4284,9.5435,-0.0104,-0.0417,9.8066,-0.0117,0.0378,0.0037,-5.68,29.37,-2.23,257.16,8.94,4.08
28311,51.530697,-2.599822,117,0.0,9,,15 / 22,2831123,2019-08-16 13:36:24:903,0.0016,-0.0297,10.0292,-0.0042,-0.0172,9.8066,0.0,0.0037,0.0005,-5.68,29.37,-2.23,257.16,8.94,4.08
28312,51.530697,-2.599822,117,0.0,9,,15 / 22,2831223,2019-08-16 13:36:25:003,-0.0171,-0.2501,9.5797,-0.0018,-0.0146,9.8066,0.0021,0.0016,-0.0027,-5.69,29.41,-1.61,257.17,8.84,4.09
28313,51.530697,-2.599822,117,0.0,9,,15 / 22,2831323,2019-08-16 13:36:25:103,-0.1516,0.0148,9.9731,-0.0033,-0.0329,9.8066,-0.0085,0.0239,0.0016,-5.15,29.42,-2.78,258.77,8.65,4.06
28314,51.530697,-2.599822,117,0.0,9,,15 / 22,2831423,2019-08-16 13:36:25:203,0.0098,-0.2205,9.8378,-0.002,-0.0065,9.8066,-0.0085,0.0239,0.0016,-5.15,29.42,-2.78,258.77,8.65,4.06
28315,51.530697,-2.599822,117,0.0,9,,15 / 22,2831524,2019-08-16 13:36:25:304,-0.0098,-0.2122,9.5682,-0.0038,-0.0159,9.8066,0.0096,-0.0187,-0.0026,-6.32,29.28,-1.63,257.21,8.55,4.07
28316,51.530697,-2.599822,117,0.0,9,,15 / 22,2831623,2019-08-16 13:36:25:403,-0.019,0.1239,10.0613,-0.0034,-0.009,9.8066,0.0032,0.025,-0.0005,-5.16,29.47,-2.24,259.1,8.45,4.07
28317,51.530697,-2.599822,117,0.0,9,,15 / 22,2831723,2019-08-16 13:36:25:503,0.0577,-0.2358,9.8003,-0.006,-0.0223,9.8066,0.0096,-0.0165,-0.0016,-5.16,29.47,-2.24,259.1,8.45,4.07
28318,51.530697,-2.599822,117,0.0,9,,15 / 22,2831823,2019-08-16 13:36:25:603,-0.0811,-0.0088,9.7184,-0.0033,-0.011,9.8066,0.0064,0.0026,-0.0037,-5.69,29.41,-1.61,257.23,8.32,4.08
28319,51.530697,-2.599822,117,0.0,9,,15 / 22,2831923,2019-08-16 13:36:25:703,0.1467,-0.382,9.5486,-0.0048,-0.0174,9.8066,0.0021,-0.0091,0.0027,-5.17,29.51,-1.61,259.46,8.21,4.08
28320,51.530697,-2.599822,117,0.0,9,,15 / 22,2832023,2019-08-16 13:36:25:803,-0.1346,-0.5388,10.0702,-0.0007,-0.0124,9.8066,0.0139,0.0218,-0.0016,-5.17,29.51,-1.61,259.46,8.21,4.08
28321,51.530697,-2.599822,117,0.0,9,,15 / 22,2832123,2019-08-16 13:36:25:903,0.0037,-0.0584,9.5733,-0.0078,-0.0241,9.8066,0.0011,-0.0016,-0.0016,-5.26,29.52,-1.0,259.76,8.14,4.07
28322,51.530697,-2.599822,117,0.0,9,,15 / 22,2832223,2019-08-16 13:36:26:003,-0.158,-0.4777,9.8559,-0.0198,-0.0667,9.8064,0.0011,-0.0016,-0.0016,-5.91,29.41,0.29,257.85,7.73,4.12
28323,51.530697,-2.599822,117,0.0,9,,15 / 22,2832323,2019-08-16 13:36:26:103,-0.2198,-0.4308,9.4457,-0.0225,-0.0924,9.8062,0.0032,-0.0133,-0.008,-5.91,29.41,0.29,257.85,7.73,4.12
28324,51.530697,-2.599822,117,0.0,9,,15 / 22,2832423,2019-08-16 13:36:26:203,0.1245,-0.4662,9.8744,-0.0082,-0.0517,9.8065,-0.0074,0.0165,-0.009,-5.6,29.46,-0.96,257.61,7.18,4.13
28325,51.530697,-2.599822,117,0.0,9,,15 / 22,2832523,2019-08-16 13:36:26:303,-0.1024,-0.7788,10.3719,-0.0157,-0.1031,9.8061,-0.0096,0.042,-0.0026,-5.26,29.49,-1.64,257.61,7.18,4.13
28326,51.530697,-2.599822,117,0.0,9,,15 / 22,2832622,2019-08-16 13:36:26:402,0.0282,-0.3446,10.1231,-0.0287,-0.1512,9.8054,0.0011,-0.0165,-0.0016,-5.8,29.42,-1.0,257.68,6.28,4.11
28327,51.530697,-2.599822,117,0.0,9,,15 / 22,2832723,2019-08-16 13:36:26:503,-0.085,-0.7504,9.6802,-0.0138,-0.0402,9.8066,0.0075,-0.0101,-0.0101,-5.8,29.42,-1.0,257.68,6.28,4.11
28328,51.530693,-2.599835,116,0.71,10,243.5,15 / 22,2832823,2019-08-16 13:36:26:603,-0.1244,-0.6695,9.7114,-0.0138,-0.0467,9.8065,0.0011,0.0037,-0.0016,-4.65,29.63,-0.44,260.14,6.03,4.14
28329,51.530693,-2.599835,116,0.71,10,243.5,15 / 22,2832923,2019-08-16 13:36:26:703,-0.1377,-0.5724,9.6956,-0.0264,-0.0879,9.8062,-0.0043,-0.0016,-0.009,-4.82,29.59,-1.02,260.14,6.03,4.14
28330,51.530693,-2.599835,116,0.71,10,243.5,15 / 22,2833022,2019-08-16 13:36:26:802,-0.0714,-0.5787,9.9521,-0.0313,-0.1224,9.8058,-0.0117,0.0058,-0.0101,-4.82,29.59,-1.02,260.14,6.03,4.14
28331,51.530693,-2.599835,116,0.71,10,243.5,15 / 22,2833122,2019-08-16 13:36:26:902,-0.0192,-0.2868,9.9229,0.0007,-0.0258,9.8066,-0.0117,0.0058,-0.0101,-5.36,29.47,-1.67,259.45,5.3,4.2
28332,51.530693,-2.599835,116,0.71,10,243.5,15 / 22,2833223,2019-08-16 13:36:27:003,0.1457,-0.0867,9.2796,0.0012,-0.0184,9.8066,-0.0064,0.0058,-0.0026,-4.72,29.58,-1.65,259.83,4.97,4.16
28333,51.530693,-2.599835,116,0.71,10,243.5,15 / 22,2833323,2019-08-16 13:36:27:103,-0.0169,0.0074,9.9918,-0.0023,-0.0484,9.8065,-0.0053,-0.0091,-0.0037,-4.81,29.56,-1.68,259.83,4.97,4.16
28334,51.530693,-2.599835,116,0.71,10,243.5,15 / 22,2833423,2019-08-16 13:36:27:203,-0.0349,0.0711,9.8639,-0.011,-0.0225,9.8066,-0.0032,-0.0123,-0.0058,-4.73,29.62,-0.36,260.22,4.69,4.12
28335,51.530693,-2.599835,116,0.71,10,243.5,15 / 22,2833522,2019-08-16 13:36:27:302,0.1308,-0.0449,9.6254,-0.0188,-0.0473,9.8065,0.0096,0.0026,0.0048,-4.73,29.62,-0.36,260.22,4.69,4.12
28336,51.530693,-2.599835,116,0.71,10,243.5,15 / 22,2833623,2019-08-16 13:36:27:403,0.2233,0.0405,9.7341,-0.0004,-0.0226,9.8066,0.0011,0.0122,0.0101,-4.19,29.7,-0.45,262.09,4.4,4.18
28337,51.530693,-2.599835,116,0.71,10,243.5,15 / 22,2833723,2019-08-16 13:36:27:503,0.0543,-0.0145,9.8369,-0.0016,-0.038,9.8066,0.0032,-0.0016,0.0069,-4.81,29.56,-1.68,259.93,4.17,4.16
28338,51.53069,-2.599854,115,1.62,10,243.5,15 / 22,2833823,2019-08-16 13:36:27:603,-0.0022,0.1051,9.8011,-0.0056,-0.0076,9.8066,-0.017,-0.0155,-0.0026,-4.81,29.56,-1.68,259.93,4.17,4.16
28339,51.53069,-2.599854,115,1.62,10,243.5,15 / 22,2833923,2019-08-16 13:36:27:703,0.1067,0.3423,9.632,-0.0014,-0.0025,9.8066,-0.017,-0.0155,-0.0026,-4.91,29.58,-1.04,260.09,4.12,4.19
28340,51.53069,-2.599854,115,1.62,10,243.5,15 / 22,2834023,2019-08-16 13:36:27:803,0.0364,0.1291,9.9138,-0.0003,-0.0058,9.8066,-0.0011,-0.0037,0.0016,-4.19,29.69,-1.01,261.96,4.09,4.18
28341,51.53069,-2.599854,115,1.62,10,243.5,15 / 22,2834123,2019-08-16 13:36:27:903,0.1345,0.0381,9.5702,0.0013,0.0093,9.8066,0.0011,-0.0261,0.0027,-4.81,29.57,-1.59,259.94,4.09,4.16
28342,51.53069,-2.599854,115,1.62,10,243.5,15 / 22,2834223,2019-08-16 13:36:28:003,0.1149,0.2485,9.6435,0.0009,0.0096,9.8066,-0.0096,0.0048,0.0027,-4.81,29.57,-1.59,259.94,4.09,4.16
28343,51.53069,-2.599854,115,1.62,10,243.5,15 / 22,2834323,2019-08-16 13:36:28:103,-0.2177,0.0501,9.7472,-0.0069,0.0013,9.8066,0.0,0.0208,-0.0058,-4.89,29.5,-2.38,259.93,4.14,4.16
28344,51.53069,-2.599854,115,1.62,10,243.5,15 / 22,2834423,2019-08-16 13:36:28:203,0.0962,0.0168,9.5671,-0.0049,0.0052,9.8066,-0.0064,-0.0133,-0.0016,-4.34,29.63,-1.72,259.93,4.14,4.16
28345,51.53069,-2.599854,115,1.62,10,243.5,15 / 22,2834523,2019-08-16 13:36:28:303,0.1436,0.4276,9.7822,0.0045,0.0131,9.8066,0.0085,-0.0251,0.0005,-4.91,29.58,-1.04,260.08,4.22,4.15
28346,51.53069,-2.599854,115,1.62,10,243.5,15 / 22,2834623,2019-08-16 13:36:28:403,0.0691,0.4265,9.7016,-0.001,0.011,9.8066,0.0032,-0.0133,0.0091,-4.26,29.61,-2.24,260.08,4.22,4.15
28347,51.53069,-2.599854,115,1.62,10,243.5,15 / 22,2834723,2019-08-16 13:36:28:503,0.0231,-0.0021,9.8054,0.0007,0.0209,9.8066,0.0032,-0.0133,0.0091,-4.26,29.61,-2.24,260.08,4.22,4.15
28348,51.530693,-2.599872,111,2.61,10,243.1,15 / 22,2834824,2019-08-16 13:36:28:604,0.0735,-0.015,9.6798,0.004,0.0273,9.8066,0.0,0.025,0.008,-4.19,29.69,-1.01,261.94,4.34,4.17
28349,51.530693,-2.599872,111,2.61,10,243.1,15 / 22,2834923,2019-08-16 13:36:28:703,0.2138,0.6216,10.1966,0.0026,0.0484,9.8065,0.0064,-0.0293,-0.0037,-4.65,29.64,-0.35,260.21,4.63,4.19
28350,51.530693,-2.599872,111,2.61,10,243.1,15 / 22,2835023,2019-08-16 13:36:28:803,0.1672,0.101,9.7417,0.0019,0.0087,9.8066,-0.0234,0.0186,0.0123,-4.65,29.64,-0.35,260.21,4.63,4.19
28351,51.530693,-2.599872,111,2.61,10,243.1,15 / 22,2835123,2019-08-16 13:36:28:903,-0.1722,-0.0583,9.619,0.0019,0.001,9.8066,0.0096,0.025,0.0005,-5.8,29.42,-1.0,257.81,4.68,4.19
28352,51.530693,-2.599872,111,2.61,10,243.1,15 / 22,2835223,2019-08-16 13:36:29:003,-0.2553,-0.0239,9.8143,0.0055,0.0019,9.8066,-0.016,0.0037,0.008,-5.36,29.48,-1.58,259.53,4.69,4.18
28353,51.530693,-2.599872,111,2.61,10,243.1,15 / 22,2835324,2019-08-16 13:36:29:104,0.1132,0.0263,10.1024,-0.0024,-0.0012,9.8066,0.0202,-0.0165,0.0037,-5.79,29.39,-1.64,259.53,4.69,4.18
28354,51.530693,-2.599872,111,2.61,10,243.1,15 / 22,2835423,2019-08-16 13:36:29:203,0.2515,0.0722,9.8775,-0.0032,0.0081,9.8066,-0.0021,-0.008,0.0048,-5.79,29.39,-1.64,259.53,4.69,4.18
28355,51.530693,-2.599872,111,2.61,10,243.1,15 / 22,2835523,2019-08-16 13:36:29:303,0.0731,0.6623,9.4746,0.0042,0.0158,9.8066,-0.0021,-0.008,0.0048,-6.43,29.26,-1.57,257.61,4.73,4.21
28356,51.530693,-2.599872,111,2.61,10,243.1,15 / 22,2835624,2019-08-16 13:36:29:404,0.0077,-0.0094,10.08,0.0113,0.0297,9.8066,-0.0192,-0.008,0.0091,-5.36,29.5,-1.02,257.61,4.73,4.21
28357,51.530693,-2.599872,111,2.61,10,243.1,15 / 22,2835722,2019-08-16 13:36:29:502,0.0976,0.2781,9.9248,0.0001,0.0044,9.8067,0.0245,0.0442,-0.0026,-5.8,29.43,-0.36,257.98,4.91,4.18
28358,51.530693,-2.599901,111,2.99,10,243.2,15 / 22,2835823,2019-08-16 13:36:29:603,0.2803,0.4366,9.7169,-0.0045,-0.0019,9.8067,-0.0181,0.008,-0.0026,-6.96,29.13,-1.65,257.98,4.91,4.18
28359,51.530693,-2.599901,111,2.99,10,243.2,15 / 22,2835923,2019-08-16 13:36:29:703,0.1965,0.1249,9.4577,0.0084,0.0263,9.8066,0.0234,-0.0442,-0.0016,-5.91,29.41,-0.36,257.98,4.94,4.19
28360,51.530693,-2.599901,111,2.99,10,243.2,15 / 22,2836023,2019-08-16 13:36:29:803,0.1414,0.0379,9.8784,0.0016,0.033,9.8066,0.0064,-0.0091,0.0037,-6.44,29.28,-1.01,257.77,5.1,4.17
28361,51.530693,-2.599901,111,2.99,10,243.2,15 / 22,2836123,2019-08-16 13:36:29:903,0.3078,0.1718,9.8976,0.0074,0.0878,9.8063,-0.017,0.0016,0.0005,-6.44,29.28,-1.01,257.77,5.1,4.17
28362,51.530693,-2.599901,111,2.99,10,243.2,15 / 22,2836223,2019-08-16 13:36:30:003,0.1155,0.3541,9.4182,0.012,0.0384,9.8066,-0.0053,0.0048,0.0048,-5.9,29.4,-1.02,257.72,5.61,4.24
28363,51.530693,-2.599901,111,2.99,10,243.2,15 / 22,2836323,2019-08-16 13:36:30:103,0.1669,0.2162,9.052,0.0065,0.0352,9.8066,-0.0053,0.0048,0.0048,-6.01,29.39,-0.37,257.93,5.84,4.22
28364,51.530693,-2.599901,111,2.99,10,243.2,15 / 22,2836423,2019-08-16 13:36:30:203,-0.0431,0.5755,9.9983,0.0116,0.0603,9.8065,0.016,-0.0559,-0.0101,-6.44,29.3,0.29,257.93,5.84,4.22
28365,51.530693,-2.599901,111,2.99,10,243.2,15 / 22,2836523,2019-08-16 13:36:30:303,0.0121,0.9436,9.5297,0.0195,0.1096,9.806,-0.0074,-0.0037,-0.0005,-5.27,29.52,0.93,260.34,6.49,4.24
28366,51.530693,-2.599901,111,2.99,10,243.2,15 / 22,2836623,2019-08-16 13:36:30:403,0.3558,0.3926,9.7439,0.0093,0.0523,9.8065,-0.016,0.0133,0.0059,-5.27,29.52,0.93,260.34,6.49,4.24
28367,51.530693,-2.599901,111,2.99,10,243.2,15 / 22,2836723,2019-08-16 13:36:30:503,-0.1858,0.7674,9.6779,0.0359,0.1022,9.8061,-0.0224,-0.0059,-0.0005,-5.36,29.52,0.29,260.09,7.11,4.13
28368,51.530685,-2.599943,112,3.85,10,242.5,15 / 22,2836823,2019-08-16 13:36:30:603,0.1777,0.4176,9.6827,0.004,0.0726,9.8064,-0.0032,0.0527,-0.0058,-5.17,29.51,1.54,260.09,7.11,4.13
28369,51.530685,-2.599943,112,3.85,10,242.5,15 / 22,2836923,2019-08-16 13:36:30:703,-0.0053,0.4214,9.9663,0.0059,0.0219,9.8066,-0.0202,0.025,-0.008,-5.79,29.4,1.47,258.13,7.54,4.18
28370,51.530685,-2.599943,112,3.85,10,242.5,15 / 22,2837023,2019-08-16 13:36:30:803,0.0634,0.5056,9.7799,0.0129,0.0483,9.8065,0.0107,-0.0474,-0.0058,-5.35,29.44,2.16,258.13,7.54,4.18
28371,51.530685,-2.599943,112,3.85,10,242.5,15 / 22,2837124,2019-08-16 13:36:30:904,0.1597,0.0735,9.6259,0.0216,0.0895,9.8062,0.0107,-0.0474,-0.0058,-5.35,29.44,2.16,258.13,7.54,4.18
28372,51.530685,-2.599943,112,3.85,10,242.5,15 / 22,2837223,2019-08-16 13:36:31:003,-0.0899,0.1752,9.9244,0.0086,0.0344,9.8066,0.0064,-0.0293,-0.0048,-4.35,29.67,0.97,262.17,8.07,4.17
28373,51.530685,-2.599943,112,3.85,10,242.5,15 / 22,2837323,2019-08-16 13:36:31:103,-0.1596,0.3924,10.2589,0.0113,0.0608,9.8065,-0.0096,0.0335,-0.0005,-3.87,29.73,0.97,262.16,8.43,4.15
28374,51.530685,-2.599943,112,3.85,10,242.5,15 / 22,2837424,2019-08-16 13:36:31:204,0.1046,0.2105,9.4859,0.0041,0.0272,9.8066,-0.0064,0.0122,-0.0037,-3.24,29.81,0.95,262.16,8.43,4.15
28375,51.530685,-2.599943,112,3.85,10,242.5,15 / 22,2837523,2019-08-16 13:36:31:303,0.0989,0.1598,9.8682,0.0138,0.0515,9.8065,0.0032,0.0005,-0.0101,-2.12,29.92,0.29,265.6,8.74,4.11
28376,51.530685,-2.599943,112,3.85,10,242.5,15 / 22,2837623,2019-08-16 13:36:31:403,-0.1206,0.4384,9.8464,-0.0013,0.0239,9.8066,0.0021,-0.0549,-0.0016,-2.12,29.92,-0.28,265.6,8.74,4.11
28377,51.530685,-2.599943,112,3.85,10,242.5,15 / 22,2837723,2019-08-16 13:36:31:503,-0.1576,0.5223,9.6322,0.0004,0.0393,9.8066,0.0085,-0.0144,0.0005,-2.12,29.92,-0.28,265.6,8.74,4.11
28378,51.530663,-2.599996,113,4.02,10,242.3,15 / 22,2837823,2019-08-16 13:36:31:603,-0.2446,-0.0685,9.7831,0.0077,0.0628,9.8064,0.0128,0.0442,0.0005,-0.98,29.98,-0.37,267.46,9.11,4.09
28379,51.530663,-2.599996,113,4.02,10,242.3,15 / 22,2837923,2019-08-16 13:36:31:703,0.1509,-0.1735,9.7785,0.0061,0.006,9.8066,-0.0085,0.024,-0.0037,-1.47,29.96,0.28,267.45,9.23,4.13
28380,51.530663,-2.599996,113,4.02,10,242.3,15 / 22,2838023,2019-08-16 13:36:31:803,0.2006,0.1418,10.1092,0.0072,0.03,9.8066,-0.0085,0.024,-0.0037,-1.47,29.96,0.28,267.45,9.23,4.13
28381,51.530663,-2.599996,113,4.02,10,242.3,15 / 22,2838123,2019-08-16 13:36:31:903,0.2166,0.1975,9.904,0.0002,0.0362,9.8066,-0.0128,-0.0538,0.0037,-0.94,29.97,-0.91,267.12,9.4,4.1
28382,51.530663,-2.599996,113,4.02,10,242.3,15 / 22,2838224,2019-08-16 13:36:32:004,0.1524,0.3601,9.4725,0.0092,0.0762,9.8063,0.016,-0.0272,-0.0058,-1.44,29.92,-1.58,266.75,9.85,4.07
28383,51.530663,-2.599996,113,4.02,10,242.3,15 / 22,2838323,2019-08-16 13:36:32:103,0.1579,0.1547,9.8286,0.0019,0.0323,9.8066,-0.0053,0.0186,0.0048,-1.44,29.92,-1.58,266.75,9.85,4.07
28384,51.530663,-2.599996,113,4.02,10,242.3,15 / 22,2838423,2019-08-16 13:36:32:203,-0.0035,0.4987,9.8475,0.001,0.0221,9.8066,0.0043,-0.0016,0.0048,-2.45,29.86,-1.46,265.19,10.04,4.06
28385,51.530663,-2.599996,113,4.02,10,242.3,15 / 22,2838523,2019-08-16 13:36:32:303,-0.0822,0.4653,10.1869,0.0003,0.0572,9.8065,0.0139,0.0037,-0.0058,-2.45,29.86,-1.46,265.19,10.04,4.06
28386,51.530663,-2.599996,113,4.02,10,242.3,15 / 22,2838623,2019-08-16 13:36:32:403,0.0324,0.0632,9.4742,0.0044,0.0269,9.8066,0.0032,-0.0112,-0.0016,-2.95,29.69,-3.17,262.57,10.37,4.09
28387,51.530663,-2.599996,113,4.02,10,242.3,15 / 22,2838723,2019-08-16 13:36:32:503,0.0877,0.5287,10.569,0.0069,0.0502,9.8065,0.0032,-0.0144,0.0048,-5.07,29.49,-2.11,258.86,10.72,4.07
28388,51.53065,-2.600046,115,4.01,10,242.5,15 / 22,2838823,2019-08-16 13:36:32:603,0.0574,0.4618,9.8997,0.0173,0.0922,9.8062,-0.0064,-0.0346,0.0123,-4.1,29.64,-2.16,260.98,11.27,4.07
28389,51.53065,-2.600046,115,4.01,10,242.5,15 / 22,2838923,2019-08-16 13:36:32:703,0.1872,0.4901,9.9704,0.0105,0.0514,9.8065,-0.0064,-0.0346,0.0123,-4.1,29.64,-2.16,260.98,11.27,4.07
28390,51.53065,-2.600046,115,4.01,10,242.5,15 / 22,2839024,2019-08-16 13:36:32:804,0.1562,0.4678,9.7029,0.0179,0.0937,9.8062,0.0107,-0.0037,0.0048,-4.04,29.71,-0.88,260.98,11.27,4.07
28391,51.53065,-2.600046,115,4.01,10,242.5,15 / 22,2839124,2019-08-16 13:36:32:904,0.1396,0.2362,9.7161,0.0058,0.0235,9.8066,-0.0085,0.024,0.0027,-4.11,29.68,-1.53,260.92,11.83,4.05
28392,51.53065,-2.600046,115,4.01,10,242.5,15 / 22,2839222,2019-08-16 13:36:33:002,0.0422,0.3538,9.5319,0.0088,0.0593,9.8065,-0.0011,-0.0069,0.0048,-4.18,29.67,-1.56,260.89,12.18,4.06
28393,51.53065,-2.600046,115,4.01,10,242.5,15 / 22,2839323,2019-08-16 13:36:33:103,0.1587,0.1949,9.3178,0.0085,0.0257,9.8066,0.0021,0.0293,-0.0048,-4.18,29.67,-1.56,260.88,12.33,4.03
28394,51.53065,-2.600046,115,4.01,10,242.5,15 / 22,2839423,2019-08-16 13:36:33:203,0.1936,0.0735,9.8524,0.0019,0.0269,9.8066,-0.0011,0.0367,0.0027,-4.18,29.67,-1.56,260.88,12.33,4.03
28395,51.53065,-2.600046,115,4.01,10,242.5,15 / 22,2839523,2019-08-16 13:36:33:303,0.1168,0.2951,10.0599,0.0024,0.025,9.8066,0.0096,-0.0357,0.0005,-3.64,29.76,-0.92,261.28,12.49,4.04
28396,51.53065,-2.600046,115,4.01,10,242.5,15 / 22,2839623,2019-08-16 13:36:33:403,0.0985,-0.123,9.7832,-0.0024,0.0274,9.8066,0.0096,-0.0357,0.0005,-3.18,29.82,-0.92,263.1,12.74,4.06
28397,51.53065,-2.600046,115,4.01,10,242.5,15 / 22,2839723,2019-08-16 13:36:33:503,0.1107,0.0366,9.7693,0.0044,0.0466,9.8065,-0.0106,0.0527,-0.0016,-3.73,29.73,-1.56,263.1,12.74,4.06
28398,51.530636,-2.600095,114,3.86,10,242.7,15 / 22,2839824,2019-08-16 13:36:33:604,-0.1118,-0.1292,10.1343,-0.0005,0.0245,9.8066,0.0,-0.0144,-0.0101,-3.57,29.71,-2.17,260.8,13.01,4.07
28399,51.530636,-2.600095,114,3.86,10,242.7,15 / 22,2839923,2019-08-16 13:36:33:703,-0.1468,0.2685,9.9863,0.0043,0.0487,9.8065,0.0085,-0.0144,-0.0058,-3.12,29.76,-2.17,260.8,13.01,4.07
28400,51.530636,-2.600095,114,3.86,10,242.7,15 / 22,2840022,2019-08-16 13:36:33:802,0.1745,0.11,9.8923,0.0095,0.0743,9.8064,0.0107,0.0218,0.0027,-3.66,29.74,-1.54,260.75,13.45,4.09
28401,51.530636,-2.600095,114,3.86,10,242.7,15 / 22,2840123,2019-08-16 13:36:33:903,-0.021,-0.0946,9.6997,0.0046,0.0341,9.8066,-0.0021,-0.0123,0.0016,-3.66,29.74,-1.54,260.75,13.45,4.09
28402,51.530636,-2.600095,114,3.86,10,242.7,15 / 22,2840223,2019-08-16 13:36:34:003,0.113,-0.0566,9.444,0.0037,0.0234,9.8066,-0.0106,0.0144,0.0037,-3.57,29.75,-1.54,260.73,13.65,4.09
28403,51.530636,-2.600095,114,3.86,10,242.7,15 / 22,2840323,2019-08-16 13:36:34:103,0.023,0.2524,9.7661,0.0064,0.0379,9.8066,-0.0021,0.0517,0.0048,-3.06,29.77,-2.13,260.73,13.65,4.09
28404,51.530636,-2.600095,114,3.86,10,242.7,15 / 22,2840426,2019-08-16 13:36:34:206,-0.1804,0.031,9.933,0.0075,0.0584,9.8065,-0.0021,0.0517,0.0048,-3.6,29.77,-0.97,261.16,13.99,4.11
28405,51.530636,-2.600095,114,3.86,10,242.7,15 / 22,2840523,2019-08-16 13:36:34:303,-0.1665,-0.2421,9.884,0.0046,0.0118,9.8066,-0.0106,0.0293,0.0005,-3.6,29.77,-0.97,261.16,13.99,4.11
28406,51.530636,-2.600095,114,3.86,10,242.7,15 / 22,2840623,2019-08-16 13:36:34:403,0.0041,-0.3778,9.7899,0.0066,0.0177,9.8066,0.0128,0.0154,-0.008,-4.04,29.71,-0.88,261.16,14.1,4.08
28407,51.530636,-2.600095,114,3.86,10,242.7,15 / 22,2840723,2019-08-16 13:36:34:503,0.064,-0.3135,10.1097,-0.0002,-0.0248,9.8066,-0.017,-0.0304,0.0069,-3.13,29.82,-0.9,263.0,13.96,4.06
28408,51.530624,-2.600141,114,3.38,10,242.6,15 / 22,2840823,2019-08-16 13:36:34:603,0.0745,-0.3948,9.6555,0.0013,-0.0106,9.8066,-0.0074,0.008,-0.0016,-3.13,29.82,-0.9,263.0,13.96,4.06
28409,51.530624,-2.600141,114,3.38,10,242.6,15 / 22,2840923,2019-08-16 13:36:34:703,-0.1062,-0.4847,9.6709,-0.0066,-0.0186,9.8066,0.0021,0.0357,-0.0005,-4.11,29.67,-1.62,260.71,13.9,4.05
28410,51.530624,-2.600141,114,3.38,10,242.6,15 / 22,2841023,2019-08-16 13:36:34:803,-0.2563,-0.3038,9.6501,-0.0146,-0.0245,9.8066,-0.0117,0.0261,0.0059,-4.11,29.67,-1.62,260.71,13.9,4.05
28411,51.530624,-2.600141,114,3.38,10,242.6,15 / 22,2841123,2019-08-16 13:36:34:903,-0.4044,-0.609,9.9659,-0.0019,-0.0135,9.8066,0.0085,-0.0208,-0.0176,-3.97,29.72,-0.96,261.18,13.74,4.11
28412,51.530624,-2.600141,114,3.38,10,242.6,15 / 22,2841223,2019-08-16 13:36:35:003,-0.0552,-0.5879,9.4463,-0.0021,-0.0398,9.8066,-0.0011,-0.0112,-0.009,-4.11,29.71,-0.35,261.66,13.51,4.08
28413,51.530624,-2.600141,114,3.38,10,242.6,15 / 22,2841323,2019-08-16 13:36:35:103,-0.1354,-0.2189,10.0604,-0.0058,-0.032,9.8066,-0.0011,-0.0112,-0.009,-4.11,29.71,-0.35,261.66,13.51,4.08
28414,51.530624,-2.600141,114,3.38,10,242.6,15 / 22,2841424,2019-08-16 13:36:35:204,-0.1133,-0.6019,9.7906,-0.0002,-0.0369,9.8066,-0.0138,0.0112,-0.0069,-4.04,29.73,0.28,261.66,13.32,4.09
28415,51.530624,-2.600141,114,3.38,10,242.6,15 / 22,2841523,2019-08-16 13:36:35:303,0.1171,-0.3933,9.6217,0.0041,-0.061,9.8065,-0.0032,-0.0027,0.0037,-4.91,29.58,-0.93,259.44,12.97,4.01
28416,51.530624,-2.600141,114,3.38,10,242.6,15 / 22,2841623,2019-08-16 13:36:35:403,0.0311,-0.2324,10.3168,0.0116,-0.0307,9.8066,0.0,-0.0389,-0.0037,-5.0,29.58,0.27,259.44,12.97,4.01
28417,51.530624,-2.600141,114,3.38,10,242.6,15 / 22,2841723,2019-08-16 13:36:35:503,-0.0575,-0.161,10.0453,-0.0095,-0.0059,9.8066,0.0043,-0.0186,0.0016,-5.08,29.57,-0.26,259.9,12.81,3.91
28418,51.530613,-2.60018,113,2.9,10,242.7,15 / 22,2841824,2019-08-16 13:36:35:604,0.0136,-0.2985,9.8893,-0.0142,-0.0269,9.8066,-0.0043,0.0304,0.0048,-5.08,29.57,-0.26,259.9,12.81,3.91
28419,51.530613,-2.60018,113,2.9,10,242.7,15 / 22,2841923,2019-08-16 13:36:35:703,-0.1311,-0.5142,9.9365,-0.0035,-0.0189,9.8066,0.0,0.0538,0.0048,-4.56,29.64,-0.88,259.47,12.64,3.97
28420,51.530613,-2.60018,113,2.9,10,242.7,15 / 22,2842024,2019-08-16 13:36:35:804,-0.1157,-0.4754,9.6929,-0.0119,-0.0453,9.8065,-0.0128,0.0154,0.0037,-5.17,29.55,-0.35,259.47,12.64,3.97
28421,51.530613,-2.60018,113,2.9,10,242.7,15 / 22,2842123,2019-08-16 13:36:35:903,-0.0938,-0.0478,10.3238,-0.006,-0.0189,9.8066,-0.0128,0.0154,0.0037,-4.65,29.64,-0.26,259.9,12.36,3.99
28422,51.530613,-2.60018,113,2.9,10,242.7,15 / 22,2842223,2019-08-16 13:36:36:003,0.158,-0.2457,9.5515,-0.0018,-0.0257,9.8066,0.0107,-0.0346,-0.0037,-4.65,29.64,-0.35,259.9,12.36,3.99
28423,51.530613,-2.60018,113,2.9,10,242.7,15 / 22,2842323,2019-08-16 13:36:36:103,-0.2519,-0.0989,10.153,-0.0015,-0.0356,9.8066,0.0234,-0.008,-0.0037,-4.64,29.62,-0.99,259.5,12.16,3.96
28424,51.530613,-2.60018,113,2.9,10,242.7,15 / 22,2842423,2019-08-16 13:36:36:203,0.1274,-0.1617,10.123,0.0021,-0.0026,9.8067,0.0,-0.0293,-0.0048,-4.64,29.62,-0.99,259.5,12.16,3.96
28425,51.530613,-2.60018,113,2.9,10,242.7,15 / 22,2842523,2019-08-16 13:36:36:303,0.0088,-0.0048,9.6858,0.0031,0.0112,9.8066,-0.0234,0.0101,0.0005,-4.65,29.64,-0.35,259.91,12.23,3.95
28426,51.530613,-2.60018,113,2.9,10,242.7,15 / 22,2842623,2019-08-16 13:36:36:403,-0.209,0.0177,10.247,0.0092,0.004,9.8066,0.0,-0.0229,-0.0058,-4.11,29.7,-0.9,261.32,12.2,3.95
28427,51.530613,-2.60018,113,2.9,10,242.7,15 / 22,2842723,2019-08-16 13:36:36:503,0.0668,0.1609,10.0367,0.0254,0.0014,9.8066,0.0011,-0.0027,-0.0069,-4.11,29.72,0.28,261.32,12.2,3.95
28428,51.530605,-2.600213,113,2.63,10,242.9,15 / 22,2842823,2019-08-16 13:36:36:603,0.1912,-0.3681,9.719,0.0291,-0.0014,9.8066,0.0011,-0.0027,-0.0069,-4.11,29.72,0.28,261.32,12.2,3.95
28429,51.530605,-2.600213,113,2.63,10,242.9,15 / 22,2842923,2019-08-16 13:36:36:703,-0.0303,-0.3216,9.6336,-0.0039,-0.0005,9.8066,-0.0032,0.0261,0.0037,-4.11,29.72,0.28,261.77,12.22,3.78
28430,51.530605,-2.600213,113,2.63,10,242.9,15 / 22,2843023,2019-08-16 13:36:36:803,-0.0769,0.1074,9.7329,-0.0055,-0.0045,9.8066,0.0139,-0.0442,-0.0069,-3.67,29.77,0.28,261.77,12.22,3.78
28431,51.530605,-2.600213,113,2.63,10,242.9,15 / 22,2843122,2019-08-16 13:36:36:902,0.029,0.1009,9.8273,-0.0038,0.0,9.8066,-0.0075,0.0272,-0.0027,-3.67,29.77,0.28,261.77,12.21,3.8
28432,51.530605,-2.600213,113,2.63,10,242.9,15 / 22,2843223,2019-08-16 13:36:37:003,-0.0001,-0.0219,10.0133,0.0027,0.0047,9.8066,-0.0011,0.0016,-0.0069,-4.1,29.64,-2.16,261.77,12.21,3.8
28433,51.530605,-2.600213,113,2.63,10,242.9,15 / 22,2843323,2019-08-16 13:36:37:103,-0.0337,0.0537,9.4263,0.0025,0.0046,9.8066,0.0064,-0.0346,-0.0069,-3.73,29.75,-1.01,261.36,12.24,3.79
28434,51.530605,-2.600213,113,2.63,10,242.9,15 / 22,2843423,2019-08-16 13:36:37:203,0.1125,0.0212,9.8608,0.0049,0.0008,9.8066,-0.0085,0.0165,-0.0005,-4.18,29.66,-1.65,261.36,12.24,3.79
28435,51.530605,-2.600213,113,2.63,10,242.9,15 / 22,2843524,2019-08-16 13:36:37:304,-0.1361,0.0692,10.1916,0.0082,-0.0041,9.8066,-0.0085,0.0165,-0.0005,-4.18,29.66,-1.65,261.36,12.24,3.79
28436,51.530605,-2.600213,113,2.63,10,242.9,15 / 22,2843623,2019-08-16 13:36:37:403,0.0794,-0.0164,9.7728,0.0008,-0.0023,9.8067,-0.0106,-0.0005,-0.0027,-3.66,29.73,-1.63,260.94,12.24,3.77
28437,51.530605,-2.600213,113,2.63,10,242.9,15 / 22,2843723,2019-08-16 13:36:37:503,-0.1118,-0.0501,10.0164,-0.0048,-0.0089,9.8066,0.0096,-0.024,-0.0122,-3.67,29.76,-0.99,260.94,12.24,3.77
28438,51.530598,-2.600244,113,2.45,10,242.9,15 / 22,2843823,2019-08-16 13:36:37:603,-0.0281,0.2039,10.3012,0.0004,0.008,9.8066,-0.0043,0.0229,0.0016,-3.73,29.75,-1.1,261.36,12.18,3.79
28439,51.530598,-2.600244,113,2.45,10,242.9,15 / 22,2843923,2019-08-16 13:36:37:703,-0.0012,-0.0027,9.7353,0.0072,0.0014,9.8066,0.0,0.0059,0.0016,-3.66,29.76,-1.08,261.37,12.19,3.75
28440,51.530598,-2.600244,113,2.45,10,242.9,15 / 22,2844023,2019-08-16 13:36:37:803,0.024,0.1037,9.9848,0.0,-0.0031,9.8067,0.0011,0.0154,0.0069,-3.13,29.83,-0.45,261.37,12.19,3.75
28441,51.530598,-2.600244,113,2.45,10,242.9,15 / 22,2844123,2019-08-16 13:36:37:903,0.0134,-0.0787,9.6375,-0.001,-0.0025,9.8066,-0.0011,0.0048,-0.0069,-3.13,29.83,-0.45,261.37,12.19,3.75
28442,51.530598,-2.600244,113,2.45,10,242.9,15 / 22,2844223,2019-08-16 13:36:38:003,-0.0303,-0.0325,9.9829,0.0011,0.0032,9.8067,0.0064,-0.0101,-0.0069,-3.18,29.81,-1.1,263.21,12.18,3.75
28443,51.530598,-2.600244,113,2.45,10,242.9,15 / 22,2844323,2019-08-16 13:36:38:103,-0.0502,-0.0443,10.1045,0.0019,0.0165,9.8066,0.0064,-0.0101,-0.0069,-3.73,29.76,-0.45,261.78,12.28,3.75
28444,51.530598,-2.600244,113,2.45,10,242.9,15 / 22,2844423,2019-08-16 13:36:38:203,0.0177,-0.214,10.1004,0.0029,-0.0037,9.8066,-0.0075,0.0005,0.0005,-3.79,29.66,-2.44,260.95,12.26,3.73
28445,51.530598,-2.600244,113,2.45,10,242.9,15 / 22,2844523,2019-08-16 13:36:38:303,0.0426,0.077,10.0595,0.0096,0.0169,9.8066,-0.0075,-0.0027,-0.0016,-3.67,29.77,-0.45,260.95,12.26,3.73
28446,51.530598,-2.600244,113,2.45,10,242.9,15 / 22,2844622,2019-08-16 13:36:38:402,0.0358,0.0028,9.7222,0.0058,0.0297,9.8066,-0.0053,0.0463,0.0027,-3.67,29.77,-0.45,260.95,12.26,3.73
28447,51.530598,-2.600244,113,2.45,10,242.9,15 / 22,2844723,2019-08-16 13:36:38:503,0.1348,-0.0401,9.523,0.0086,0.0105,9.8066,-0.0149,-0.0186,-0.0026,-3.07,29.84,-0.44,263.62,12.43,3.73
28448,51.530582,-2.600273,114,2.23,10,242.9,15 / 22,2844823,2019-08-16 13:36:38:603,0.1639,0.1625,10.0886,-0.0007,0.0035,9.8067,0.0107,-0.0176,0.0005,-3.19,29.83,-0.46,263.62,12.5,3.68
28449,51.530582,-2.600273,114,2.23,10,242.9,15 / 22,2844923,2019-08-16 13:36:38:703,0.0425,-0.3165,9.5315,0.0026,0.0126,9.8066,0.0064,0.0144,-0.0037,-3.19,29.83,-0.46,263.62,12.5,3.68
28450,51.530582,-2.600273,114,2.23,10,242.9,15 / 22,2845023,2019-08-16 13:36:38:803,-0.2158,-0.0094,9.8804,0.0037,0.0091,9.8066,0.0064,0.0144,-0.0037,-3.18,29.81,-1.1,263.2,12.57,3.67
28451,51.530582,-2.600273,114,2.23,10,242.9,15 / 22,2845123,2019-08-16 13:36:38:903,-0.0634,0.0506,10.1685,-0.0031,0.0011,9.8067,-0.0064,0.0261,0.0048,-3.13,29.83,-0.45,263.62,12.63,3.66
28452,51.530582,-2.600273,114,2.23,10,242.9,15 / 22,2845222,2019-08-16 13:36:39:002,-0.1135,0.2964,10.2136,-0.0054,0.0071,9.8066,0.0075,0.0112,-0.0026,-3.19,29.83,-0.46,263.61,12.67,3.7
28453,51.530582,-2.600273,114,2.23,10,242.9,15 / 22,2845323,2019-08-16 13:36:39:103,0.1322,0.0862,10.093,0.0074,0.0083,9.8066,0.0075,-0.0112,-0.008,-3.19,29.83,-0.46,263.61,12.67,3.7
28454,51.530582,-2.600273,114,2.23,10,242.9,15 / 22,2845423,2019-08-16 13:36:39:203,0.0413,0.2768,10.1702,0.0109,0.0159,9.8066,-0.0202,0.0389,0.0101,-3.67,29.77,-0.45,261.79,12.77,3.64
28455,51.530582,-2.600273,114,2.23,10,242.9,15 / 22,2845523,2019-08-16 13:36:39:303,-0.098,0.0458,9.9046,0.0009,0.0095,9.8066,0.0096,0.0027,-0.0005,-3.18,29.81,-1.1,263.18,12.91,3.64
28456,51.530582,-2.600273,114,2.23,10,242.9,15 / 22,2845623,2019-08-16 13:36:39:403,-0.0201,0.2742,9.8037,-0.0029,0.0162,9.8066,-0.0043,-0.0037,0.0037,-3.18,29.81,-1.1,263.18,12.91,3.64
28457,51.530582,-2.600273,114,2.23,10,242.9,15 / 22,2845723,2019-08-16 13:36:39:503,0.0036,-0.1115,10.0647,-0.0022,0.0032,9.8067,0.0053,-0.0027,-0.0016,-3.13,29.83,-0.45,263.61,13.0,3.66
28458,51.530575,-2.600297,114,1.8,10,243.1,15 / 22,2845823,2019-08-16 13:36:39:603,0.0053,0.0651,10.2572,-0.002,0.0037,9.8067,-0.0053,0.0037,-0.0016,-3.18,29.83,-0.55,263.61,13.0,3.66
28459,51.530575,-2.600297,114,1.8,10,243.1,15 / 22,2845923,2019-08-16 13:36:39:703,0.0851,0.0666,10.0385,0.0037,0.0061,9.8066,-0.0053,0.0037,-0.0016,-3.13,29.83,-0.45,263.6,13.02,3.68
28460,51.530575,-2.600297,114,1.8,10,243.1,15 / 22,2846023,2019-08-16 13:36:39:803,-0.0254,0.0272,9.8421,0.0059,0.0048,9.8066,0.0043,0.0123,0.0005,-3.07,29.84,-0.53,263.17,13.05,3.65
28461,51.530575,-2.600297,114,1.8,10,243.1,15 / 22,2846123,2019-08-16 13:36:39:903,-0.125,0.066,10.3524,-0.0006,-0.0016,9.8066,0.0064,-0.008,-0.0026,-2.54,29.89,-0.44,263.17,13.05,3.65
28462,51.530575,-2.600297,114,1.8,10,243.1,15 / 22,2846223,2019-08-16 13:36:40:003,0.1744,-0.2511,9.5569,-0.0036,0.002,9.8066,0.0171,-0.0218,-0.0069,-3.07,29.84,-0.44,263.6,13.06,3.67
28463,51.530575,-2.600297,114,1.8,10,243.1,15 / 22,2846323,2019-08-16 13:36:40:103,0.013,0.0156,9.9298,-0.0039,-0.0028,9.8066,-0.0106,0.0133,0.0005,-3.07,29.84,-0.44,263.6,13.06,3.67
28464,51.530575,-2.600297,114,1.8,10,243.1,15 / 22,2846423,2019-08-16 13:36:40:203,-0.0036,-0.035,10.0574,0.0043,-0.0026,9.8067,-0.0053,0.0176,0.0037,-3.07,29.84,-0.44,263.6,13.07,3.67
28465,51.530575,-2.600297,114,1.8,10,243.1,15 / 22,2846523,2019-08-16 13:36:40:303,0.0191,-0.1012,9.7308,0.0034,-0.0108,9.8066,0.0011,0.0218,0.0037,-3.07,29.84,-0.44,263.6,13.07,3.67
28466,51.530575,-2.600297,114,1.8,10,243.1,15 / 22,2846623,2019-08-16 13:36:40:403,-0.1389,0.0509,10.3062,-0.0033,-0.0049,9.8066,0.0128,-0.0325,-0.0048,-3.07,29.84,-0.44,263.61,13.01,3.64
28467,51.530575,-2.600297,114,1.8,10,243.1,15 / 22,2846723,2019-08-16 13:36:40:503,-0.0639,-0.1966,9.7512,-0.0029,-0.0123,9.8066,0.0,0.0218,0.0016,-3.07,29.83,-0.98,263.17,12.98,3.66
28468,51.530567,-2.600317,115,1.43,10,242.9,15 / 22,2846823,2019-08-16 13:36:40:603,-0.1154,-0.1774,10.1536,-0.0061,-0.0135,9.8066,0.0,0.0218,0.0016,-3.07,29.83,-0.98,263.17,12.98,3.66
28469,51.530567,-2.600317,115,1.43,10,242.9,15 / 22,2846923,2019-08-16 13:36:40:703,0.0032,-0.1289,9.4685,-0.0015,-0.0061,9.8067,-0.0053,-0.0208,0.0005,-3.02,29.84,-0.43,263.61,12.9,3.69
28470,51.530567,-2.600317,115,1.43,10,242.9,15 / 22,2847024,2019-08-16 13:36:40:804,-0.0941,-0.1472,9.7896,0.0005,-0.0175,9.8066,0.0085,-0.0314,-0.0016,-3.54,29.79,-0.43,263.61,12.9,3.69
28471,51.530567,-2.600317,115,1.43,10,242.9,15 / 22,2847123,2019-08-16 13:36:40:903,0.0851,-0.2619,9.5461,0.0021,-0.0165,9.8066,-0.0043,0.0229,0.0005,-3.54,29.77,-1.04,261.35,12.8,3.66
28472,51.530567,-2.600317,115,1.43,10,242.9,15 / 22,2847225,2019-08-16 13:36:41:005,-0.0272,0.2336,10.1553,-0.0055,-0.0096,9.8066,-0.0032,0.0474,-0.0005,-3.97,29.72,-1.04,261.35,12.8,3.66
28473,51.530567,-2.600317,115,1.43,10,242.9,15 / 22,2847323,2019-08-16 13:36:41:103,-0.1038,-0.0469,10.2491,-0.0026,-0.0117,9.8066,0.016,-0.0485,-0.0037,-3.97,29.72,-1.04,261.35,12.8,3.66
28474,51.530567,-2.600317,115,1.43,10,242.9,15 / 22,2847423,2019-08-16 13:36:41:203,-0.1316,-0.0938,9.7516,0.0012,-0.0047,9.8066,-0.0064,0.0378,0.0016,-3.6,29.78,-0.44,261.78,12.73,3.67
28475,51.530567,-2.600317,115,1.43,10,242.9,15 / 22,2847524,2019-08-16 13:36:41:304,0.0815,-0.0391,10.1608,-0.002,0.0047,9.8066,-0.0085,0.0304,0.0016,-3.6,29.78,0.19,261.78,12.71,3.66
28476,51.530567,-2.600317,115,1.43,10,242.9,15 / 22,2847623,2019-08-16 13:36:41:403,-0.0747,-0.1591,10.0418,0.0,0.0068,9.8066,0.0053,-0.0186,-0.0005,-3.6,29.78,0.19,261.78,12.71,3.66
28477,51.530567,-2.600317,115,1.43,10,242.9,15 / 22,2847723,2019-08-16 13:36:41:503,-0.0865,-0.1075,9.5934,0.0002,-0.0044,9.8066,0.0053,-0.0186,-0.0005,-3.54,29.79,-0.43,261.78,12.75,3.66
28478,51.53056,-2.600331,115,0.96,11,242.9,15 / 22,2847823,2019-08-16 13:36:41:603,0.0273,0.0675,10.1198,-0.0023,-0.0044,9.8066,-0.0043,-0.0282,0.0016,-3.67,29.77,-0.45,261.78,12.72,3.67
28479,51.53056,-2.600331,115,0.96,11,242.9,15 / 22,2847923,2019-08-16 13:36:41:703,-0.0852,-0.0535,10.0611,0.003,-0.0051,9.8067,-0.0064,0.0442,0.0048,-3.67,29.77,-0.45,261.78,12.72,3.67
28480,51.53056,-2.600331,115,0.96,11,242.9,15 / 22,2848024,2019-08-16 13:36:41:804,-0.1197,0.0728,9.8694,0.0017,-0.0078,9.8066,0.0075,-0.0048,-0.0005,-4.04,29.73,0.19,261.79,12.68,3.65
28481,51.53056,-2.600331,115,0.96,11,242.9,15 / 22,2848123,2019-08-16 13:36:41:903,0.0454,-0.0277,10.2253,-0.0042,0.0025,9.8066,-0.0032,-0.0282,-0.0027,-4.11,29.7,-1.08,261.35,12.69,3.68
28482,51.53056,-2.600331,115,0.96,11,242.9,15 / 22,2848224,2019-08-16 13:36:42:004,0.0517,-0.2513,9.5305,0.0022,-0.0074,9.8066,0.0043,-0.0112,-0.0005,-4.11,29.7,-1.08,261.35,12.69,3.68
28483,51.53056,-2.600331,115,0.96,11,242.9,15 / 22,2848323,2019-08-16 13:36:42:103,0.0389,-0.1178,9.6024,0.0013,-0.0021,9.8067,-0.0032,0.0069,0.0027,-3.49,29.79,0.79,264.05,12.62,3.65
28484,51.53056,-2.600331,115,0.96,11,242.9,15 / 22,2848424,2019-08-16 13:36:42:204,-0.0253,0.0582,9.9461,0.0035,-0.005,9.8067,0.0021,-0.0293,-0.0005,-3.54,29.79,0.18,264.05,12.62,3.65
28485,51.53056,-2.600331,115,0.96,11,242.9,15 / 22,2848523,2019-08-16 13:36:42:303,0.0846,-0.0723,9.8247,-0.0027,-0.0038,9.8067,0.0128,-0.0325,-0.0058,-3.85,29.74,0.77,262.22,12.59,3.63
28486,51.53056,-2.600331,115,0.96,11,242.9,15 / 22,2848623,2019-08-16 13:36:42:403,0.1262,-0.2308,9.3332,-0.0055,0.0035,9.8067,0.0128,-0.0325,-0.0058,-3.97,29.73,-0.43,261.78,12.61,3.67
28487,51.53056,-2.600331,115,0.96,11,242.9,15 / 22,2848723,2019-08-16 13:36:42:503,-0.075,-0.4199,10.0546,0.0005,-0.0157,9.8066,-0.0096,0.0314,0.0069,-3.97,29.73,-0.43,261.78,12.61,3.67
28488,51.530556,-2.600338,115,0.57,10,242.9,15 / 22,2848823,2019-08-16 13:36:42:603,-0.0302,-0.8175,9.8302,-0.0072,-0.0492,9.8065,0.0053,-0.0048,-0.0048,-3.97,29.74,0.18,261.79,12.52,3.65
28489,51.530556,-2.600338,115,0.57,10,242.9,15 / 22,2848923,2019-08-16 13:36:42:703,-0.1039,-0.481,9.7018,-0.0143,-0.0868,9.8063,-0.0043,0.0197,-0.0005,-3.97,29.72,-0.96,261.4,12.0,3.66
28490,51.530556,-2.600338,115,0.57,10,242.9,15 / 22,2849024,2019-08-16 13:36:42:804,-0.1019,-0.1274,10.1665,-0.0038,-0.0236,9.8066,0.0117,-0.0208,-0.0037,-3.97,29.72,-0.96,261.4,12.0,3.66
28491,51.530556,-2.600338,115,0.57,10,242.9,15 / 22,2849123,2019-08-16 13:36:42:903,-0.0616,-0.2033,9.5615,-0.0022,-0.0079,9.8066,-0.0021,0.0176,0.0005,-3.97,29.73,0.27,261.81,11.87,3.66
28492,51.530556,-2.600338,115,0.57,10,242.9,15 / 22,2849223,2019-08-16 13:36:43:003,-0.0538,-0.2821,9.623,-0.0042,-0.0357,9.8066,0.0043,0.025,-0.0027,-3.6,29.77,0.81,262.21,11.67,3.66
28493,51.530556,-2.600338,115,0.57,10,242.9,15 / 22,2849323,2019-08-16 13:36:43:103,-0.1686,-0.0553,10.0444,-0.0063,-0.0201,9.8066,0.0043,0.025,-0.0027,-3.6,29.77,-0.97,261.44,11.46,3.66
28494,51.530556,-2.600338,115,0.57,10,242.9,15 / 22,2849423,2019-08-16 13:36:43:203,-0.0145,-0.309,10.0106,-0.0088,-0.0376,9.8066,0.0053,-0.0282,-0.0016,-3.6,29.77,-0.97,261.44,11.46,3.66
28495,51.530556,-2.600338,115,0.57,10,242.9,15 / 22,2849523,2019-08-16 13:36:43:303,-0.0203,-0.3313,9.6477,-0.0018,-0.0165,9.8066,0.0011,0.0048,0.0016,-3.54,29.79,-0.43,261.83,11.23,3.68
28496,51.530556,-2.600338,115,0.57,10,242.9,15 / 22,2849623,2019-08-16 13:36:43:403,-0.0503,-0.2209,9.7142,-0.0054,-0.0346,9.8066,-0.0011,0.0186,0.0027,-4.04,29.71,-1.06,261.46,11.03,3.68
28497,51.530556,-2.600338,115,0.57,10,242.9,15 / 22,2849723,2019-08-16 13:36:43:503,0.0676,-0.2457,9.3351,-0.0025,-0.0192,9.8066,0.0075,-0.0165,-0.0037,-4.04,29.71,-1.06,261.46,11.03,3.68
28498,51.53056,-2.600329,114,0.0,6,242.7,15 / 22,2849823,2019-08-16 13:36:43:603,-0.0011,0.0191,9.9927,-0.0008,-0.0084,9.8066,0.0021,0.008,0.0027,-4.11,29.72,0.19,261.84,10.91,3.68
28499,51.53056,-2.600329,114,0.0,6,242.7,15 / 22,2849923,2019-08-16 13:36:43:703,-0.0314,-0.1113,10.1279,-0.0025,-0.0241,9.8066,-0.0021,-0.0037,0.0005,-5.46,29.26,3.72,261.84,10.91,3.68
28500,51.53056,-2.600329,114,0.0,6,242.7,15 / 22,2850022,2019-08-16 13:36:43:802,0.0705,-0.2243,9.7768,-0.0017,-0.0111,9.8066,-0.0021,-0.0037,0.0005,-4.56,29.62,1.43,260.38,10.67,3.69
28501,51.53056,-2.600329,114,0.0,6,242.7,15 / 22,2850123,2019-08-16 13:36:43:903,0.0137,0.1266,10.0836,-0.0007,-0.0136,9.8066,0.0011,0.0069,-0.0016,-4.41,29.67,0.27,261.85,10.6,3.69
28502,51.53056,-2.600329,114,0.0,6,242.7,15 / 22,2850223,2019-08-16 13:36:44:003,0.0973,-0.046,9.5858,-0.0023,-0.0168,9.8066,0.0053,-0.0144,0.0005,-4.04,29.73,0.28,261.85,10.6,3.69
28503,51.53056,-2.600329,114,0.0,6,242.7,15 / 22,2850324,2019-08-16 13:36:44:104,-0.0179,-0.1583,9.7019,-0.0049,-0.0282,9.8066,-0.0011,0.0005,0.0005,-4.04,29.73,0.28,261.85,10.6,3.69
28504,51.53056,-2.600329,114,0.0,6,242.7,15 / 22,2850423,2019-08-16 13:36:44:203,0.0037,-0.2572,9.9432,-0.0033,-0.0122,9.8066,-0.0053,0.0133,0.0016,-4.48,29.63,1.41,262.21,10.44,3.7
28505,51.53056,-2.600329,114,0.0,6,242.7,15 / 22,2850523,2019-08-16 13:36:44:303,-0.0354,-0.0894,9.56,-0.0037,-0.0209,9.8066,0.0021,0.0069,0.0037,-4.4,29.61,1.98,262.56,10.31,3.7
28506,51.53056,-2.600329,114,0.0,6,242.7,15 / 22,2850623,2019-08-16 13:36:44:403,-0.0932,-0.1941,9.6412,0.0,-0.0184,9.8066,-0.0043,-0.0048,0.0027,-5.36,29.21,4.24,262.56,10.31,3.7
28507,51.53056,-2.600329,114,0.0,6,242.7,15 / 22,2850723,2019-08-16 13:36:44:503,0.0508,-0.2405,9.5934,-0.0026,-0.0315,9.8066,0.0032,0.0112,-0.0027,-5.36,29.21,4.24,262.56,10.31,3.7
28508,51.53056,-2.600329,114,0.0,6,242.7,15 / 22,2850823,2019-08-16 13:36:44:603,-0.0434,0.0359,9.9092,-0.0023,-0.0109,9.8066,0.0032,0.0112,-0.0027,-5.18,28.74,6.88,262.21,10.13,3.69
28509,51.53056,-2.600329,114,0.0,6,242.7,15 / 22,2850923,2019-08-16 13:36:44:703,0.0438,0.1899,10.1297,-0.0006,-0.0027,9.8066,-0.0011,0.0091,0.0048,-3.66,29.73,-1.63,261.18,10.03,3.69
28510,51.53056,-2.600329,114,0.0,6,242.7,15 / 22,2851023,2019-08-16 13:36:44:803,0.0371,0.2168,9.4754,-0.0033,-0.0179,9.8066,0.0032,-0.0133,-0.0016,-3.6,29.77,-0.97,261.18,10.03,3.69
28511,51.53056,-2.600329,114,0.0,6,242.7,15 / 22,2851123,2019-08-16 13:36:44:903,-0.1008,0.2079,10.158,-0.0051,-0.0216,9.8066,-0.0011,0.0368,0.0005,-3.6,29.77,-0.97,261.18,10.03,3.69
28512,51.53056,-2.600329,114,0.0,6,242.7,15 / 22,2851223,2019-08-16 13:36:45:003,-0.0488,-0.0211,9.946,0.0001,-0.003,9.8067,-0.0064,0.0176,0.0037,-3.67,29.76,-0.99,261.54,9.9,3.7
28513,51.53056,-2.600329,114,0.0,6,242.7,15 / 22,2851323,2019-08-16 13:36:45:103,0.0252,-0.0201,9.5359,-0.0018,-0.0063,9.8066,0.0,-0.025,0.0048,-3.12,29.76,-2.17,263.06,9.86,3.71
28514,51.53056,-2.600329,114,0.0,6,242.7,15 / 22,2851423,2019-08-16 13:36:45:203,0.1453,-0.1594,9.6334,-0.0004,0.0034,9.8066,-0.0043,0.04,-0.0005,-3.12,29.76,-2.17,263.06,9.86,3.71
28515,51.53056,-2.600329,114,0.0,6,242.7,15 / 22,2851522,2019-08-16 13:36:45:302,0.0955,0.0547,9.4779,0.0052,-0.006,9.8066,-0.0043,0.04,-0.0005,-3.78,29.69,-1.99,261.2,9.88,3.71
28516,51.53056,-2.600329,114,0.0,6,242.7,15 / 22,2851623,2019-08-16 13:36:45:403,0.0648,0.1626,10.1344,0.0058,-0.0148,9.8066,0.0117,-0.0197,-0.0037,-4.48,29.62,-1.56,261.21,9.8,3.66
28517,51.53056,-2.600329,114,0.0,6,242.7,15 / 22,2851722,2019-08-16 13:36:45:502,0.1032,0.0632,9.5621,-0.0047,0.0007,9.8067,0.0075,-0.0176,-0.0016,-3.9,29.73,-0.94,261.55,9.8,3.69
28518,51.53056,-2.60032,114,0.0,5,242.7,15 / 22,2851823,2019-08-16 13:36:45:603,-0.0396,0.0849,9.7805,-0.0027,-0.008,9.8066,-0.016,0.0218,0.0091,-3.9,29.73,-0.94,261.55,9.8,3.69
28519,51.53056,-2.60032,114,0.0,5,242.7,15 / 22,2851923,2019-08-16 13:36:45:703,0.0121,0.0309,9.9733,0.0007,0.0037,9.8067,0.0085,-0.0218,-0.0048,-3.54,29.78,-0.96,261.55,9.75,3.7
28520,51.53056,-2.60032,114,0.0,5,242.7,15 / 22,2852023,2019-08-16 13:36:45:803,0.0144,-0.1705,9.5307,0.0003,-0.0032,9.8066,-0.0021,0.0133,0.0005,-3.07,29.83,-0.98,263.41,9.74,3.7
28521,51.53056,-2.60032,114,0.0,5,242.7,15 / 22,2852123,2019-08-16 13:36:45:903,-0.1288,0.0921,10.0981,-0.0009,-0.0004,9.8067,-0.0107,0.0368,0.0069,-3.07,29.83,-0.98,263.41,9.74,3.7
28522,51.53056,-2.60032,114,0.0,5,242.7,15 / 22,2852223,2019-08-16 13:36:46:003,0.0795,-0.0347,9.9967,0.0,-0.0005,9.8066,0.0032,-0.0186,-0.0005,-4.04,29.69,-1.51,261.21,9.73,3.7
28523,51.53056,-2.60032,114,0.0,5,242.7,15 / 22,2852323,2019-08-16 13:36:46:103,-0.0313,-0.1096,9.5561,-0.0001,-0.0087,9.8066,0.0032,-0.0186,-0.0005,-4.04,29.72,-0.35,261.89,9.68,3.7
28524,51.53056,-2.60032,114,0.0,5,242.7,15 / 22,2852423,2019-08-16 13:36:46:203,-0.1476,0.2403,10.2334,-0.0002,0.0012,9.8067,0.0043,0.0069,-0.0016,-4.04,29.72,-0.35,261.89,9.68,3.7
28525,51.53056,-2.60032,114,0.0,5,242.7,15 / 22,2852523,2019-08-16 13:36:46:303,0.0397,-0.0666,9.76,-0.0002,0.001,9.8067,-0.0085,0.0357,0.0048,-4.04,29.71,-0.97,261.55,9.69,3.7
28526,51.53056,-2.60032,114,0.0,5,242.7,15 / 22,2852624,2019-08-16 13:36:46:404,-0.0091,-0.1141,9.697,-0.002,0.0002,9.8067,-0.0075,0.0282,0.0016,-4.04,29.68,-1.59,261.55,9.69,3.7
28527,51.53056,-2.60032,114,0.0,5,242.7,15 / 22,2852723,2019-08-16 13:36:46:503,0.0241,-0.0225,9.969,-0.0038,0.0005,9.8067,0.0,-0.0176,-0.0005,-4.04,29.68,-1.59,261.55,9.69,3.7
28528,51.53056,-2.60032,114,0.0,5,242.7,15 / 22,2852823,2019-08-16 13:36:46:603,0.0973,0.0061,9.3605,0.0035,-0.0064,9.8066,-0.0075,0.0314,0.0037,-3.12,29.8,-1.54,263.07,9.69,3.72
28529,51.53056,-2.60032,114,0.0,5,242.7,15 / 22,2852924,2019-08-16 13:36:46:704,-0.087,0.2647,9.9923,-0.0033,0.0038,9.8066,0.0011,0.0037,0.0037,-3.6,29.77,-0.97,261.56,9.65,3.69
28530,51.53056,-2.60032,114,0.0,5,242.7,15 / 22,2853023,2019-08-16 13:36:46:803,-0.0196,0.0443,9.6129,-0.0005,0.0017,9.8067,-0.0032,-0.0186,0.0016,-3.59,29.71,-2.13,261.22,9.67,3.72
28531,51.53056,-2.60032,114,0.0,5,242.7,15 / 22,2853123,2019-08-16 13:36:46:903,-0.0776,0.2358,10.0359,0.0014,-0.0027,9.8066,-0.0032,0.024,0.0005,-3.59,29.71,-2.13,261.22,9.67,3.72
28532,51.53056,-2.60032,114,0.0,5,242.7,15 / 22,2853223,2019-08-16 13:36:47:003,0.0067,0.0327,9.6015,0.0004,0.0015,9.8067,-0.0032,0.024,0.0005,-3.6,29.75,-1.51,261.22,9.66,3.71
28533,51.53056,-2.60032,114,0.0,5,242.7,15 / 22,2853324,2019-08-16 13:36:47:104,-0.1456,0.3281,10.2091,-0.0022,0.0051,9.8066,-0.0011,0.0165,0.0059,-3.6,29.75,-1.51,261.22,9.67,3.71
28534,51.53056,-2.60032,114,0.0,5,242.7,15 / 22,2853424,2019-08-16 13:36:47:204,-0.0102,0.1125,9.6854,-0.0013,-0.0006,9.8066,0.0021,-0.0091,-0.0005,-4.11,29.7,-0.9,261.55,9.66,3.71
28535,51.53056,-2.60032,114,0.0,5,242.7,15 / 22,2853523,2019-08-16 13:36:47:303,-0.0565,-0.0317,9.8441,-0.0006,0.0001,9.8066,0.0,0.0197,-0.0027,-4.11,29.7,-0.9,261.55,9.66,3.71
28536,51.53056,-2.60032,114,0.0,5,242.7,15 / 22,2853623,2019-08-16 13:36:47:403,0.0044,0.0171,10.0448,0.0011,-0.0014,9.8067,-0.0043,0.024,0.0037,-3.06,29.77,-2.13,263.08,9.66,3.72
28537,51.53056,-2.60032,114,0.0,5,242.7,15 / 22,2853724,2019-08-16 13:36:47:504,0.0878,-0.1774,9.4489,0.0019,-0.003,9.8067,0.0011,-0.0208,-0.0027,-3.97,29.73,-0.25,261.89,9.65,3.7
28538,51.53056,-2.60032,114,0.0,5,242.7,15 / 22,2853824,2019-08-16 13:36:47:604,0.1011,0.0364,10.0749,0.0009,-0.0021,9.8066,-0.0075,0.0272,0.0059,-3.97,29.73,-0.25,261.89,9.65,3.7
28539,51.53056,-2.60032,114,0.0,5,242.7,15 / 22,2853923,2019-08-16 13:36:47:703,-0.0023,0.0426,9.8805,0.0009,-0.0013,9.8067,0.0043,-0.0133,0.0016,-3.67,29.76,-0.9,261.55,9.67,3.71
28540,51.53056,-2.60032,114,0.0,5,242.7,15 / 22,2854023,2019-08-16 13:36:47:803,0.145,-0.183,9.7661,0.0,-0.0007,9.8067,0.0043,-0.0133,0.0016,-3.13,29.82,-0.99,261.55,9.67,3.71
28541,51.53056,-2.60032,114,0.0,5,242.7,15 / 22,2854123,2019-08-16 13:36:47:903,0.1007,-0.0311,9.4284,0.0008,0.0017,9.8067,0.0032,-0.0208,0.0016,-3.97,29.72,-0.87,261.55,9.68,3.7
28542,51.53056,-2.60032,114,0.0,5,242.7,15 / 22,2854222,2019-08-16 13:36:48:002,0.024,0.2276,10.1767,-0.001,-0.0056,9.8066,-0.0085,0.0368,0.0048,-3.97,29.72,-0.87,261.55,9.68,3.7
28543,51.53056,-2.60032,114,0.0,5,242.7,15 / 22,2854323,2019-08-16 13:36:48:103,0.1267,0.0717,9.6536,-0.0019,0.0045,9.8066,0.0117,-0.024,-0.0037,-3.6,29.77,-0.88,261.55,9.65,3.71
28544,51.53056,-2.60032,114,0.0,5,242.7,15 / 22,2854423,2019-08-16 13:36:48:203,-0.0689,0.1301,9.8501,-0.0001,0.0039,9.8066,-0.0011,0.0261,-0.0005,-3.6,29.77,-0.88,261.55,9.65,3.71
28545,51.53056,-2.60032,114,0.0,5,242.7,15 / 22,2854523,2019-08-16 13:36:48:303,-0.0214,0.1202,9.8681,0.0011,0.0001,9.8067,0.0032,-0.0336,-0.0005,-3.45,29.76,-1.48,263.41,9.67,3.71
28546,51.53056,-2.60032,114,0.0,5,242.7,15 / 22,2854623,2019-08-16 13:36:48:403,-0.0162,0.0664,10.1498,0.0015,0.0061,9.8067,0.0085,0.0005,-0.0037,-3.07,29.8,-1.51,263.07,9.71,3.7
28547,51.53056,-2.60032,114,0.0,5,242.7,15 / 22,2854723,2019-08-16 13:36:48:503,-0.0663,0.0073,9.6172,0.0009,-0.0053,9.8067,0.0085,0.0005,-0.0037,-3.07,29.8,-1.51,263.07,9.71,3.7
28548,51.530556,-2.60032,116,0.0,6,242.7,15 / 22,2854823,2019-08-16 13:36:48:603,-0.0973,0.1274,10.1751,0.0004,0.0023,9.8066,-0.0032,0.0144,0.0027,-3.6,29.78,-0.26,261.88,9.69,3.71
28549,51.530556,-2.60032,116,0.0,6,242.7,15 / 22,2854923,2019-08-16 13:36:48:703,0.0287,-0.1265,9.636,-0.0003,-0.0014,9.8067,0.0075,-0.0144,-0.0037,-3.07,29.8,-1.51,263.07,9.71,3.71
28550,51.530556,-2.60032,116,0.0,6,242.7,15 / 22,2855023,2019-08-16 13:36:48:803,0.0329,-0.1291,9.6126,0.0004,0.004,9.8067,-0.0053,0.0123,0.0037,-3.6,29.77,-0.88,263.07,9.71,3.71
28551,51.530556,-2.60032,116,0.0,6,242.7,15 / 22,2855123,2019-08-16 13:36:48:903,0.024,0.0201,10.054,0.0016,0.0002,9.8067,-0.0021,-0.0123,-0.0005,-4.04,29.73,-0.26,261.88,9.71,3.7
28552,51.530556,-2.60032,116,0.0,6,242.7,15 / 22,2855223,2019-08-16 13:36:49:003,0.0669,0.08,9.5114,0.0,-0.0028,9.8067,0.0011,0.0357,-0.0016,-3.6,29.77,-0.88,261.88,9.71,3.7
28553,51.530556,-2.60032,116,0.0,6,242.7,15 / 22,2855323,2019-08-16 13:36:49:103,-0.0538,0.2838,10.0919,-0.0002,0.0,9.8067,0.0011,0.0357,-0.0016,-3.6,29.77,-0.88,261.88,9.71,3.7
28554,51.530556,-2.60032,116,0.0,6,242.7,15 / 22,2855423,2019-08-16 13:36:49:203,0.0005,0.0101,9.5943,0.0006,-0.0032,9.8067,0.0053,-0.0399,-0.0005,-4.11,29.7,-0.9,261.55,9.71,3.71
28555,51.530556,-2.60032,116,0.0,6,242.7,15 / 22,2855523,2019-08-16 13:36:49:303,-0.047,0.1341,10.0201,0.0005,0.0009,9.8067,0.0021,-0.0197,-0.0016,-3.59,29.71,-2.13,261.22,9.72,3.7
28556,51.530556,-2.60032,116,0.0,6,242.7,15 / 22,2855623,2019-08-16 13:36:49:403,-0.0066,-0.0123,9.6791,0.0013,0.0032,9.8067,-0.0043,0.0474,0.0027,-4.04,29.69,-1.51,261.21,9.74,3.7
28557,51.530556,-2.60032,116,0.0,6,242.7,15 / 22,2855723,2019-08-16 13:36:49:503,-0.1147,0.1452,9.8884,0.0002,-0.0005,9.8067,-0.0011,-0.0069,0.0027,-3.51,29.78,-0.88,261.21,9.74,3.7
