,GPS LATITUDE (degrees), GPS LONGITUDE (degrees), GPS ALTITUDE (m), GPS SPEED (Kmh), GPS ACCURACY (m), GPS ORIENTATION (Â°),GPS SATELLITES IN RANGE, TIME SINCE START (ms), DATE (YYYY-MO-DD HH-MI-SS_SSS), ACCELEROMETER X (m/s²) , ACCELEROMETER Y (m/s²), ACCELEROMETER Z (m/s²), GRAVITY X (m/s²), GRAVITY Y (m/s²), GRAVITY Z (m/s²), GYROSCOPE Yaw (rad/s), GYROSCOPE Pitch (rad/s), GYROSCOPE Roll (rad/s), MAGNETIC FIELD X (Î¼T), MAGNETIC FIELD Y (Î¼T), MAGNETIC FIELD Z (Î¼T), ORIENTATION (Yaw) (Â°), ORIENTATION (Pitch) (Â°), ORIENTATION (Roll ) (Â°)
62970,50.51244,-4.652912,257,24.75,12.0,228.0,13 / 23,6231242,2019-08-17 09:04:20:609,-0.2201,0.013,9.8484,-0.0354,-0.0113,9.8066,0.0234,0.0447,0.0138,-12.97,15.81,-38.59,231.12,1.37,-1.87
62971,50.51244,-4.652912,257,24.75,12.0,228.0,13 / 23,6231341,2019-08-17 09:04:20:708,0.001,0.4657,10.3083,-0.074,0.0075,9.8064,0.0064,0.0266,0.0064,-12.97,15.81,-38.59,231.12,1.37,-1.87
62972,50.51244,-4.652912,257,24.75,12.0,228.0,13 / 23,6231440,2019-08-17 09:04:20:807,-0.255,0.2759,10.4043,-0.0282,0.0157,9.8066,0.0064,0.0266,0.0064,-12.97,15.81,-39.02,231.04,1.14,-1.5
62973,50.51244,-4.652912,257,24.75,12.0,228.0,13 / 23,6231541,2019-08-17 09:04:20:908,-0.2916,0.1833,9.8382,-0.0505,0.0184,9.8065,-0.0107,-0.0245,0.0064,-12.97,15.43,-38.52,229.11,1.03,-1.21
62974,50.51232,-4.653179,264,24.39,12.0,229.5,13 / 23,6231641,2019-08-17 09:04:21:008,-0.2255,0.1331,9.5599,0.0018,0.0059,9.8066,-0.017,-0.0352,0.0043,-12.97,15.43,-38.52,229.11,1.03,-1.21
62975,50.51232,-4.653179,264,24.39,12.0,229.5,13 / 23,6231740,2019-08-17 09:04:21:107,0.2801,0.3586,10.327,0.0018,-0.0052,9.8066,-0.0522,0.0064,0.0213,-12.97,15.43,-39.46,229.05,1.07,-1.19
62976,50.51232,-4.653179,264,24.39,12.0,229.5,13 / 23,6231842,2019-08-17 09:04:21:209,-0.1752,-0.0203,9.661,0.0108,0.0098,9.8066,0.0288,-0.0128,-0.0053,-12.97,15.06,-39.4,229.05,1.07,-1.19
62977,50.51232,-4.653179,264,24.39,12.0,229.5,13 / 23,6231941,2019-08-17 09:04:21:308,-0.2738,0.2807,10.1657,-0.0365,-0.0131,9.8066,0.0373,0.066,-0.0053,-13.34,15.81,-39.4,230.62,1.1,-1.1
62978,50.51232,-4.653179,264,24.39,12.0,229.5,13 / 23,6232041,2019-08-17 09:04:21:408,-0.3042,0.0875,9.7418,-0.026,-0.0036,9.8066,-0.0138,0.049,-0.0085,-13.72,16.18,-38.09,228.76,0.91,-0.98
62979,50.51232,-4.653179,264,24.39,12.0,229.5,13 / 23,6232141,2019-08-17 09:04:21:508,-0.1869,0.1441,9.8063,-0.0188,0.0022,9.8066,0.0053,-0.049,0.0021,-13.34,15.81,-37.27,228.76,0.91,-0.98
62980,50.51232,-4.653179,264,24.39,12.0,229.5,13 / 23,6232240,2019-08-17 09:04:21:607,-0.2281,0.0889,10.5698,-0.0033,0.0144,9.8066,0.0053,-0.049,0.0021,-13.34,15.81,-38.09,230.62,0.96,-0.91
62981,50.51232,-4.653179,264,24.39,12.0,229.5,13 / 23,6232341,2019-08-17 09:04:21:708,0.0059,-0.2989,9.8837,-0.0077,0.0122,9.8066,-0.0117,0.0287,0.0043,-13.34,15.81,-38.09,230.62,0.96,-0.91
62982,50.51232,-4.653179,264,24.39,12.0,229.5,13 / 23,6232440,2019-08-17 09:04:21:807,0.3843,-0.3187,9.0104,-0.0111,0.0262,9.8066,-0.0064,-0.0149,0.0138,-13.34,16.56,-37.27,232.14,0.98,-0.83
62983,50.51232,-4.653179,264,24.39,12.0,229.5,13 / 23,6232540,2019-08-17 09:04:21:907,0.1096,-0.0546,10.0831,-0.0112,0.0641,9.8064,0.032,-0.032,-0.0139,-12.97,15.81,-38.52,232.14,0.98,-0.83
62984,50.512184,-4.653451,261,24.53,11.0,230.5,13 / 23,6232641,2019-08-17 09:04:22:008,0.1216,-0.1942,10.1601,0.0054,0.0867,9.8063,-0.0202,-0.0011,0.0096,-12.97,15.43,-38.52,227.78,1.4,-0.54
62985,50.512184,-4.653451,261,24.53,11.0,230.5,13 / 23,6232741,2019-08-17 09:04:22:108,-0.1324,-0.0706,10.8631,0.0181,-0.0202,9.8066,-0.0245,0.0287,-0.0043,-12.97,15.43,-38.52,227.78,1.4,-0.54
62986,50.512184,-4.653451,261,24.53,11.0,230.5,13 / 23,6232840,2019-08-17 09:04:22:207,-0.3731,-0.1374,10.1421,-0.0164,-0.0373,9.8066,-0.0266,0.0053,0.0043,-13.34,15.12,-38.9,228.0,1.39,-0.7
62987,50.512184,-4.653451,261,24.53,11.0,230.5,13 / 23,6232941,2019-08-17 09:04:22:308,-0.2,-0.0413,9.2655,0.0027,-0.019,9.8066,-0.0288,-0.0373,-0.0032,-14.09,16.18,-38.46,228.5,0.95,-0.79
62988,50.512184,-4.653451,261,24.53,11.0,230.5,13 / 23,6233041,2019-08-17 09:04:22:408,0.0858,-0.25,9.7092,0.0314,0.0106,9.8066,-0.0288,-0.0373,-0.0032,-13.72,16.56,-37.59,228.5,0.95,-0.79
62989,50.512184,-4.653451,261,24.53,11.0,230.5,13 / 23,6233141,2019-08-17 09:04:22:508,0.2084,-0.1541,8.9248,0.0587,0.0566,9.8063,-0.0277,-0.032,0.0075,-13.72,16.56,-37.59,228.5,0.95,-0.79
62990,50.512184,-4.653451,261,24.53,11.0,230.5,13 / 23,6233242,2019-08-17 09:04:22:609,0.3673,-0.0158,10.4382,-0.0117,0.0417,9.8066,0.098,-0.0639,0.0011,-13.34,15.81,-36.77,229.93,1.42,-0.83
62991,50.512184,-4.653451,261,24.53,11.0,230.5,13 / 23,6233341,2019-08-17 09:04:22:708,0.1676,0.0673,10.5689,-0.0188,0.0747,9.8063,0.0447,0.0053,0.0011,-12.59,15.81,-37.21,229.93,1.42,-0.83
62992,50.512184,-4.653451,261,24.53,11.0,230.5,13 / 23,6233442,2019-08-17 09:04:22:809,-0.0616,-0.0569,11.0766,-0.0234,0.0034,9.8066,-0.0426,0.0181,-0.0032,-13.34,16.18,-38.02,229.14,1.68,-0.47
62993,50.512184,-4.653451,261,24.53,11.0,230.5,13 / 23,6233541,2019-08-17 09:04:22:908,0.1432,-0.2541,10.7176,-0.0351,-0.0433,9.8065,-0.0011,0.0266,-0.0171,-12.97,15.87,-38.84,229.55,1.36,-0.48
62994,50.51206,-4.653735,259,24.42,11.0,230.8,Nov-23,6233641,2019-08-17 09:04:23:008,0.2093,-0.4978,9.5906,-0.0001,-0.0473,9.8065,0.0011,0.0106,0.0064,-13.72,15.5,-38.02,229.55,1.36,-0.48
62995,50.51206,-4.653735,259,24.42,11.0,230.8,Nov-23,6233741,2019-08-17 09:04:23:108,0.644,-0.0149,9.4781,0.0084,-0.0481,9.8065,0.0139,-0.0373,0.0032,-13.72,15.12,-38.4,226.3,1.18,-0.7
62996,50.51206,-4.653735,259,24.42,11.0,230.8,Nov-23,6233841,2019-08-17 09:04:23:208,0.3646,-0.3914,9.3902,0.0247,0.0604,9.8064,0.0139,-0.0373,0.0032,-13.72,15.12,-38.4,226.3,1.18,-0.7
62997,50.51206,-4.653735,259,24.42,11.0,230.8,Nov-23,6233941,2019-08-17 09:04:23:308,0.3406,0.199,7.9785,0.015,0.023,9.8066,0.0405,-0.0128,-0.0021,-13.34,15.87,-38.84,229.41,1.53,-0.56
62998,50.51206,-4.653735,259,24.42,11.0,230.8,Nov-23,6234042,2019-08-17 09:04:23:409,0.088,-0.076,10.4035,0.0253,0.0204,9.8066,0.0085,-0.0139,-0.0085,-13.72,16.56,-37.96,228.95,1.69,-0.54
62999,50.51206,-4.653735,259,24.42,11.0,230.8,Nov-23,6234141,2019-08-17 09:04:23:508,-0.2051,0.261,10.571,0.0361,0.015,9.8066,-0.0192,-0.0032,-0.0096,-12.97,16.18,-37.52,229.06,1.89,-0.64
63000,50.51206,-4.653735,259,24.42,11.0,230.8,Nov-23,6234241,2019-08-17 09:04:23:608,-0.0951,0.0909,8.9211,-0.0063,-0.0209,9.8066,0.0107,0.0021,-0.0149,-13.72,16.93,-37.52,229.06,1.89,-0.64
63001,50.51206,-4.653735,259,24.42,11.0,230.8,Nov-23,6234342,2019-08-17 09:04:23:709,-0.2541,0.1086,10.8099,-0.0287,-0.0476,9.8065,-0.0053,0.0596,0.0106,-13.72,16.93,-37.52,229.06,1.89,-0.64
63002,50.51206,-4.653735,259,24.42,11.0,230.8,Nov-23,6234441,2019-08-17 09:04:23:808,-0.3373,-0.0314,9.2496,-0.0281,-0.0057,9.8066,0.0117,-0.0277,-0.0139,-13.72,16.62,-37.52,229.27,1.57,-0.69
63003,50.51206,-4.653735,259,24.42,11.0,230.8,Nov-23,6234541,2019-08-17 09:04:23:908,0.1148,0.1837,8.3244,-0.0385,0.0062,9.8066,0.0117,-0.0277,-0.0139,-13.34,16.93,-37.96,231.15,1.45,-0.5
63004,50.511925,-4.654007,258,24.22,11.0,231.2,Nov-23,6234640,2019-08-17 09:04:24:007,-0.1791,0.2309,9.9399,0.0046,0.0111,9.8066,-0.0128,-0.0277,-0.0096,-13.34,16.93,-37.96,231.15,1.45,-0.5
63005,50.511925,-4.654007,258,24.22,11.0,231.2,Nov-23,6234741,2019-08-17 09:04:24:108,-0.0954,-0.135,9.8389,0.0104,0.01,9.8066,-0.0011,0.0181,-0.0043,-12.97,15.5,-38.77,227.53,1.52,-0.48
63006,50.511925,-4.654007,258,24.22,11.0,231.2,Nov-23,6234841,2019-08-17 09:04:24:208,0.0396,0.2632,8.9408,0.0015,0.0349,9.8066,0.0096,0.0138,0.0138,-13.34,15.5,-38.77,227.53,1.52,-0.48
63007,50.511925,-4.654007,258,24.22,11.0,231.2,Nov-23,6234941,2019-08-17 09:04:24:308,-0.1781,0.4561,10.3565,-0.0248,0.017,9.8066,0.0245,-0.0416,-0.0043,-13.34,15.87,-37.96,229.01,1.68,-0.35
63008,50.511925,-4.654007,258,24.22,11.0,231.2,Nov-23,6235041,2019-08-17 09:04:24:408,-0.3215,0.1087,10.0427,-0.0188,-0.0077,9.8066,-0.0224,0.0447,0.0053,-13.72,15.87,-37.9,226.88,1.66,-0.17
63009,50.511925,-4.654007,258,24.22,11.0,231.2,Nov-23,6235140,2019-08-17 09:04:24:507,-0.1766,0.0464,10.2972,-0.035,-0.0378,9.8065,0.0032,0.0298,0.0053,-14.41,16.25,-37.46,226.88,1.66,-0.17
63010,50.511925,-4.654007,258,24.22,11.0,231.2,Nov-23,6235241,2019-08-17 09:04:24:608,-0.0647,-0.097,9.6319,-0.0609,-0.047,9.8063,0.0032,0.0298,0.0053,-14.41,16.25,-37.46,226.88,1.66,-0.17
63011,50.511925,-4.654007,258,24.22,11.0,231.2,Nov-23,6235341,2019-08-17 09:04:24:708,-0.1745,0.397,9.9148,-0.0363,0.0105,9.8066,0.0277,0.017,-0.0117,-14.09,16.25,-37.02,227.38,1.21,-0.1
63012,50.511925,-4.654007,258,24.22,11.0,231.2,Nov-23,6235441,2019-08-17 09:04:24:808,-0.414,0.1984,9.4183,-0.0452,0.0226,9.8065,0.0107,0.0021,0.0032,-14.78,16.25,-37.46,227.38,1.21,-0.1
63013,50.511925,-4.654007,258,24.22,11.0,231.2,Nov-23,6235541,2019-08-17 09:04:24:908,0.1388,0.1415,9.3977,0.0271,0.0113,9.8066,-0.0415,0.001,0.0288,-14.41,16.25,-37.84,227.11,1.13,0.18
63014,50.51179,-4.654273,258,23.76,11.0,231.1,Nov-23,6235641,2019-08-17 09:04:25:008,0.2358,-0.2434,9.3273,0.0636,0.0123,9.8064,-0.0256,-0.0181,0.0,-13.72,15.87,-38.27,227.11,1.13,0.18
63015,50.51179,-4.654273,258,23.76,11.0,231.1,Nov-23,6235741,2019-08-17 09:04:25:108,0.0124,-0.1234,11.4692,0.0466,-0.0131,9.8065,-0.0277,0.001,0.0043,-13.72,15.5,-37.84,225.23,1.55,-0.21
63016,50.51179,-4.654273,258,23.76,11.0,231.1,Nov-23,6235841,2019-08-17 09:04:25:208,-0.3789,-0.4271,10.6582,0.0373,-0.0284,9.8065,-0.0383,-0.049,0.016,-13.72,15.87,-38.71,227.14,1.68,-0.46
63017,50.51179,-4.654273,258,23.76,11.0,231.1,Nov-23,6235941,2019-08-17 09:04:25:308,0.5719,-0.4702,8.6116,0.0374,-0.0685,9.8063,-0.0021,0.0032,0.0085,-13.72,15.87,-38.34,227.14,1.68,-0.46
63018,50.51179,-4.654273,258,23.76,11.0,231.1,Nov-23,6236041,2019-08-17 09:04:25:408,-0.3065,0.0111,10.3438,0.0278,-0.1065,9.806,-0.0021,0.0032,0.0085,-13.72,15.87,-38.34,227.14,1.68,-0.46
63019,50.51179,-4.654273,258,23.76,11.0,231.1,Nov-23,6236141,2019-08-17 09:04:25:508,-0.137,-0.5487,10.2673,0.0031,-0.01,9.8066,0.0682,0.0138,-0.0192,-14.03,16.25,-38.71,228.22,1.34,-1.0
63020,50.51179,-4.654273,258,23.76,11.0,231.1,Nov-23,6236241,2019-08-17 09:04:25:608,-0.0459,-0.1483,8.1909,0.0229,0.0204,9.8066,-0.0096,-0.0352,-0.0011,-14.03,15.87,-37.84,228.04,1.52,-1.02
63021,50.51179,-4.654273,258,23.76,11.0,231.1,Nov-23,6236341,2019-08-17 09:04:25:708,-0.0415,-0.1711,10.2805,0.0152,0.0088,9.8066,0.0075,-0.033,-0.0192,-14.03,15.87,-37.84,228.04,1.52,-1.02
63022,50.51179,-4.654273,258,23.76,11.0,231.1,Nov-23,6236441,2019-08-17 09:04:25:808,-0.1835,-0.11,9.7709,0.0056,0.0125,9.8066,0.049,-0.0245,-0.0085,-13.72,16.62,-37.84,229.61,1.61,-1.05
63023,50.51179,-4.654273,258,23.76,11.0,231.1,Nov-23,6236541,2019-08-17 09:04:25:908,-0.0219,0.0014,9.4251,0.0016,0.0509,9.8065,0.0298,0.0096,-0.0043,-12.97,15.87,-38.65,229.35,1.85,-0.87
63024,50.511642,-4.65454,258,23.89,11.0,230.8,Nov-23,6236641,2019-08-17 09:04:26:008,-0.4386,0.0191,10.7219,-0.0129,0.0265,9.8066,-0.0437,0.0383,-0.0053,-12.59,15.5,-38.65,229.35,1.85,-0.87
63025,50.511642,-4.65454,258,23.89,11.0,230.8,Nov-23,6236741,2019-08-17 09:04:26:108,-0.1331,-0.1532,9.6192,-0.0231,-0.0067,9.8066,-0.0266,0.0586,-0.0202,-12.97,15.87,-38.27,229.46,1.73,-0.79
63026,50.511642,-4.65454,258,23.89,11.0,230.8,Nov-23,6236841,2019-08-17 09:04:26:208,-0.053,-0.4499,10.1155,0.0167,-0.0802,9.8063,-0.0266,0.0586,-0.0202,-12.59,15.12,-38.21,229.46,1.73,-0.79
63027,50.511642,-4.65454,258,23.89,11.0,230.8,Nov-23,6236941,2019-08-17 09:04:26:308,-0.1852,-0.27,9.9621,-0.0121,-0.0139,9.8066,-0.0011,0.0277,0.0085,-12.97,16.25,-38.65,230.25,1.44,-1.17
63028,50.511642,-4.65454,258,23.89,11.0,230.8,Nov-23,6237041,2019-08-17 09:04:26:408,-0.3812,0.0736,10.2746,-0.0215,-0.0213,9.8066,-0.0138,0.0181,0.016,-12.97,16.25,-38.65,230.25,1.44,-1.17
63029,50.511642,-4.65454,258,23.89,11.0,230.8,Nov-23,6237142,2019-08-17 09:04:26:509,-0.393,-0.0378,10.1933,0.0182,0.0137,9.8066,-0.0107,-0.0597,-0.0224,-13.72,16.25,-38.21,228.51,1.26,-1.15
63030,50.511642,-4.65454,258,23.89,11.0,230.8,Nov-23,6237240,2019-08-17 09:04:26:607,0.058,0.1585,10.0691,0.0564,0.0514,9.8064,0.0213,-0.0149,0.0053,-13.34,16.25,-37.77,229.96,1.7,-1.2
63031,50.511642,-4.65454,258,23.89,11.0,230.8,Nov-23,6237341,2019-08-17 09:04:26:708,0.0333,-0.1688,9.2061,0.0224,0.0265,9.8066,0.0053,-0.0096,0.0011,-12.97,16.25,-38.21,229.96,1.7,-1.2
63032,50.511642,-4.65454,258,23.89,11.0,230.8,Nov-23,6237441,2019-08-17 09:04:26:808,0.108,-0.318,9.7341,0.0247,0.0417,9.8065,0.0139,0.0213,-0.0064,-12.97,16.25,-38.21,229.54,1.98,-1.15
63033,50.511642,-4.65454,258,23.89,11.0,230.8,Nov-23,6237541,2019-08-17 09:04:26:908,0.2719,-0.1719,9.7744,-0.0053,-0.0068,9.8066,-0.0213,-0.0224,-0.0085,-12.97,16.25,-38.21,229.54,1.98,-1.15
63034,50.511642,-4.65454,258,23.89,11.0,230.8,Nov-23,6237640,2019-08-17 09:04:27:007,0.0529,-0.098,9.6252,-0.0016,-0.0401,9.8066,0.0202,0.0458,-0.0011,-12.59,15.87,-37.77,229.94,1.8,-1.3
63035,50.511505,-4.654831,257,24.07,11.0,231.0,Nov-23,6237741,2019-08-17 09:04:27:108,-0.1268,-0.6732,9.7877,-0.0667,-0.0769,9.8061,0.0202,0.0458,-0.0011,-12.97,15.87,-38.59,229.94,1.8,-1.3
63036,50.511505,-4.654831,257,24.07,11.0,231.0,Nov-23,6237843,2019-08-17 09:04:27:210,-0.1598,-0.0692,8.8539,-0.0127,-0.0003,9.8066,0.0032,0.0213,-0.0053,-12.97,15.87,-37.71,230.71,1.2,-1.29
63037,50.511505,-4.654831,257,24.07,11.0,231.0,Nov-23,6237942,2019-08-17 09:04:27:309,0.1094,-0.3315,8.9824,0.0102,0.0362,9.8066,-0.0021,-0.048,0.0128,-13.34,16.62,-38.15,231.97,1.4,-1.2
63038,50.511505,-4.654831,257,24.07,11.0,231.0,Nov-23,6238041,2019-08-17 09:04:27:408,0.235,-0.255,9.5895,0.025,0.0329,9.8066,0.017,-0.0629,-0.0149,-13.34,16.62,-38.15,231.97,1.4,-1.2
63039,50.511505,-4.654831,257,24.07,11.0,231.0,Nov-23,6238141,2019-08-17 09:04:27:508,0.2996,-0.1078,9.4701,0.0388,0.0297,9.8065,-0.017,-0.0149,0.0021,-12.97,16.62,-37.71,231.97,1.4,-1.2
63040,50.511505,-4.654831,257,24.07,11.0,231.0,Nov-23,6238241,2019-08-17 09:04:27:608,0.1547,-0.2254,10.639,0.0449,0.0308,9.8065,-0.0064,0.0149,0.0053,-12.97,16.25,-37.34,230.08,1.71,-1.3
63041,50.511505,-4.654831,257,24.07,11.0,231.0,Nov-23,6238340,2019-08-17 09:04:27:707,0.2836,-0.4752,9.7976,-0.005,-0.0043,9.8066,0.0149,-0.0235,-0.0192,-12.97,16.25,-37.34,230.08,1.71,-1.3
63042,50.511505,-4.654831,257,24.07,11.0,231.0,Nov-23,6238441,2019-08-17 09:04:27:808,-0.0223,-0.3548,9.8967,0.008,-0.0096,9.8066,-0.016,-0.0085,-0.0011,-12.97,16.62,-37.77,231.72,1.67,-1.29
63043,50.511505,-4.654831,257,24.07,11.0,231.0,Nov-23,6238541,2019-08-17 09:04:27:908,-0.0039,-0.1611,10.1278,0.0072,-0.0354,9.8066,-0.016,-0.0085,-0.0011,-12.59,16.25,-38.15,230.46,1.53,-1.45
63044,50.511364,-4.655074,259,23.88,10.0,230.4,Nov-23,6238641,2019-08-17 09:04:28:008,0.0126,-0.2312,8.85,-0.0244,-0.0223,9.8066,0.0373,0.0469,-0.0117,-12.59,16.25,-38.15,230.46,1.53,-1.45
63045,50.511364,-4.655074,259,23.88,10.0,230.4,Nov-23,6238740,2019-08-17 09:04:28:107,0.0145,-0.5277,10.4474,0.0033,-0.0184,9.8066,-0.0085,-0.049,-0.0128,-12.59,15.87,-37.71,230.68,1.34,-1.43
63046,50.511364,-4.655074,259,23.88,10.0,230.4,Nov-23,6238841,2019-08-17 09:04:28:208,-0.1366,-0.3102,9.19,0.0055,-0.0243,9.8066,-0.0128,-0.0469,0.0202,-12.59,15.87,-38.15,230.86,1.27,-1.51
63047,50.511364,-4.655074,259,23.88,10.0,230.4,Nov-23,6238941,2019-08-17 09:04:28:308,0.0577,-0.2291,9.5424,-0.0089,-0.0443,9.8065,-0.016,0.0032,0.0138,-12.59,15.87,-38.15,231.31,1.04,-1.63
63048,50.511364,-4.655074,259,23.88,10.0,230.4,Nov-23,6239041,2019-08-17 09:04:28:408,-0.1421,-0.5694,10.2254,-0.0377,-0.0248,9.8065,0.0139,-0.0139,0.0032,-12.59,15.87,-38.15,231.31,1.04,-1.63
63049,50.511364,-4.655074,259,23.88,10.0,230.4,Nov-23,6239141,2019-08-17 09:04:28:508,0.0615,-0.192,9.172,-0.0368,-0.0228,9.8066,0.0107,0.0319,-0.0043,-13.34,17.0,-37.71,233.14,0.79,-1.55
63050,50.511364,-4.655074,259,23.88,10.0,230.4,Nov-23,6239241,2019-08-17 09:04:28:608,0.0014,-0.1128,8.9629,-0.0115,-0.0002,9.8066,-0.0138,0.0863,-0.0053,-13.34,16.62,-36.9,233.34,0.55,-1.46
63051,50.511364,-4.655074,259,23.88,10.0,230.4,Nov-23,6239341,2019-08-17 09:04:28:708,-0.0316,-0.0862,8.7996,-0.0137,0.0004,9.8066,-0.0138,0.0863,-0.0053,-13.34,16.62,-37.27,233.34,0.55,-1.46
63052,50.511364,-4.655074,259,23.88,10.0,230.4,Nov-23,6239441,2019-08-17 09:04:28:808,0.2095,-0.058,9.5672,-0.0195,0.0067,9.8066,0.0234,-0.0117,0.0128,-12.97,16.62,-36.84,233.27,0.52,-1.35
63053,50.511364,-4.655074,259,23.88,10.0,230.4,Nov-23,6239541,2019-08-17 09:04:28:908,0.1305,0.0259,10.8048,-0.0009,0.0097,9.8066,0.0298,-0.0277,-0.0043,-13.34,17.0,-38.09,233.29,0.4,-1.2
63054,50.511215,-4.655347,259,24.07,10.0,230.5,Oct-23,6239641,2019-08-17 09:04:29:008,0.2332,0.0441,9.3392,0.0025,0.009,9.8066,-0.0703,0.0213,-0.0117,-12.59,16.25,-37.71,233.29,0.4,-1.2
63055,50.511215,-4.655347,259,24.07,10.0,230.5,Oct-23,6239741,2019-08-17 09:04:29:108,-0.0658,0.1958,10.0831,-0.0124,0.0021,9.8066,0.0597,-0.016,0.0011,-12.59,16.25,-37.71,233.29,0.4,-1.2
63056,50.511215,-4.655347,259,24.07,10.0,230.5,Oct-23,6239841,2019-08-17 09:04:29:208,-0.4127,-0.023,9.4693,-0.0432,-0.0384,9.8065,0.0213,-0.0426,0.0075,-12.97,16.25,-37.27,231.65,0.37,-1.13
63057,50.511215,-4.655347,259,24.07,10.0,230.5,Oct-23,6239941,2019-08-17 09:04:29:308,-0.2198,0.2459,10.2101,-0.0149,0.0005,9.8066,0.0213,-0.0426,0.0075,-12.97,16.62,-37.21,233.64,0.04,-1.07
63058,50.511215,-4.655347,259,24.07,10.0,230.5,Oct-23,6240041,2019-08-17 09:04:29:408,-0.4215,0.2539,9.7322,-0.0002,0.0149,9.8066,-0.0554,-0.0512,0.0149,-13.34,17.0,-37.27,233.64,0.04,-1.07
63059,50.511215,-4.655347,259,24.07,10.0,230.5,Oct-23,6240141,2019-08-17 09:04:29:508,-0.1699,0.1972,9.7891,0.0146,0.0158,9.8066,0.0043,-0.0117,-0.0075,-12.97,16.62,-38.09,233.51,0.16,-1.09
63060,50.511215,-4.655347,259,24.07,10.0,230.5,Oct-23,6240241,2019-08-17 09:04:29:608,-0.1884,0.089,10.1241,0.0077,-0.0255,9.8066,-0.0085,0.0362,-0.0107,-12.97,16.62,-38.09,233.51,0.16,-1.09
63061,50.511215,-4.655347,259,24.07,10.0,230.5,Oct-23,6240341,2019-08-17 09:04:29:708,0.0196,0.3158,9.6153,-0.0208,-0.0293,9.8066,-0.0213,-0.0181,0.0351,-12.97,16.25,-36.84,232.14,0.07,-1.21
63062,50.511215,-4.655347,259,24.07,10.0,230.5,Oct-23,6240441,2019-08-17 09:04:29:808,0.3187,-0.1043,8.3046,-0.0294,-0.0189,9.8066,0.016,-0.0181,0.0128,-12.97,17.0,-37.21,233.92,-0.12,-1.14
63063,50.511215,-4.655347,259,24.07,10.0,230.5,Oct-23,6240541,2019-08-17 09:04:29:908,-0.0944,0.0067,10.4382,-0.017,0.0168,9.8066,0.017,-0.0171,-0.0011,-12.97,17.0,-37.21,233.92,-0.12,-1.14
63064,50.511066,-4.65562,259,24.44,10.0,230.2,Oct-23,6240641,2019-08-17 09:04:30:008,-0.1397,0.1354,9.3026,-0.0199,0.0145,9.8066,0.017,-0.0171,-0.0011,-12.59,17.0,-36.84,233.76,-0.1,-1.0
63065,50.511066,-4.65562,259,24.44,10.0,230.2,Oct-23,6240741,2019-08-17 09:04:30:108,-0.3403,0.1354,9.3497,-0.0148,0.0278,9.8066,-0.0266,0.0309,0.0,-11.84,16.25,-38.46,233.76,-0.1,-1.0
63066,50.511066,-4.65562,259,24.44,10.0,230.2,Oct-23,6240841,2019-08-17 09:04:30:208,0.1493,0.161,9.2952,0.0105,-0.0336,9.8066,0.0053,-0.0096,-0.0064,-11.84,16.25,-38.52,234.12,-0.02,-0.84
63067,50.511066,-4.65562,259,24.44,10.0,230.2,Oct-23,6240941,2019-08-17 09:04:30:308,0.253,-0.0856,9.915,0.0269,-0.0741,9.8063,-0.0447,0.0192,0.0021,-12.22,15.93,-38.46,234.89,-0.28,-1.22
63068,50.511066,-4.65562,259,24.44,10.0,230.2,Oct-23,6241041,2019-08-17 09:04:30:408,-0.4304,-0.0258,10.2861,0.0054,-0.0178,9.8066,0.033,-0.0416,-0.0021,-12.59,16.25,-38.46,232.86,-0.35,-1.31
63069,50.511066,-4.65562,259,24.44,10.0,230.2,Oct-23,6241141,2019-08-17 09:04:30:508,-0.2432,0.2996,9.8595,-0.0084,0.0022,9.8066,0.0394,-0.0565,-0.0021,-12.59,16.25,-38.46,232.86,-0.35,-1.31
63070,50.511066,-4.65562,259,24.44,10.0,230.2,Oct-23,6241241,2019-08-17 09:04:30:608,-0.1927,0.1228,9.5347,0.0132,0.0257,9.8066,-0.0277,0.0053,-0.0213,-12.59,17.0,-37.21,234.37,-0.37,-1.26
63071,50.511066,-4.65562,259,24.44,10.0,230.2,Oct-23,6241341,2019-08-17 09:04:30:708,0.3456,0.0093,9.237,0.032,0.0228,9.8066,-0.0277,0.0053,-0.0213,-12.59,16.25,-37.21,232.57,-0.15,-1.33
63072,50.511066,-4.65562,259,24.44,10.0,230.2,Oct-23,6241441,2019-08-17 09:04:30:808,-0.1274,-0.2286,10.8523,0.0112,-0.0217,9.8066,-0.0011,0.0138,-0.0032,-12.59,16.62,-38.02,234.4,-0.21,-1.46
63073,50.511066,-4.65562,259,24.44,10.0,230.2,Oct-23,6241540,2019-08-17 09:04:30:907,-0.1766,-0.1279,9.8385,-0.0042,-0.0196,9.8066,0.0309,0.049,-0.0128,-12.59,16.62,-38.02,234.4,-0.21,-1.46
63074,50.51092,-4.655879,259,24.76,11.0,230.3,Oct-23,6241641,2019-08-17 09:04:31:008,0.184,0.1684,8.1996,-0.0407,-0.028,9.8065,-0.0043,0.0181,-0.0181,-12.97,16.62,-38.09,234.68,-0.48,-1.36
63075,50.51092,-4.655879,259,24.76,11.0,230.3,Oct-23,6241741,2019-08-17 09:04:31:108,-0.5031,0.1993,9.6292,0.0103,0.0183,9.8066,0.0501,-0.0767,-0.0362,-12.22,16.31,-37.65,235.54,-0.57,-1.43
63076,50.51092,-4.655879,259,24.76,11.0,230.3,Oct-23,6241841,2019-08-17 09:04:31:208,0.0002,0.147,9.9345,0.0069,0.0381,9.8066,-0.0117,0.0,-0.0011,-11.84,16.31,-38.02,235.14,-0.36,-1.34
63077,50.51092,-4.655879,259,24.76,11.0,230.3,Oct-23,6241941,2019-08-17 09:04:31:308,-0.1996,0.0384,8.5047,0.0032,0.0102,9.8066,0.0075,-0.0916,0.0043,-11.84,16.31,-38.02,235.14,-0.36,-1.34
63078,50.51092,-4.655879,259,24.76,11.0,230.3,Oct-23,6242043,2019-08-17 09:04:31:410,0.2471,-0.0151,9.675,0.0244,0.0089,9.8066,-0.0011,0.0096,-0.0181,-12.22,16.31,-39.34,235.07,-0.3,-1.32
63079,50.51092,-4.655879,259,24.76,11.0,230.3,Oct-23,6242141,2019-08-17 09:04:31:508,-0.0504,-0.1406,10.3378,0.0305,-0.0077,9.8066,-0.0011,0.0096,-0.0181,-12.22,16.62,-38.46,235.07,-0.3,-1.32
63080,50.51092,-4.655879,259,24.76,11.0,230.3,Oct-23,6242242,2019-08-17 09:04:31:609,0.3844,-0.4265,9.8211,0.0352,-0.0266,9.8066,-0.0469,0.0351,0.0128,-12.22,17.0,-38.02,236.82,-0.31,-1.58
63081,50.51092,-4.655879,259,24.76,11.0,230.3,Oct-23,6242342,2019-08-17 09:04:31:709,0.5264,-0.1913,8.4891,-0.0178,-0.011,9.8066,-0.0011,-0.0245,-0.0117,-12.22,17.0,-38.02,236.82,-0.31,-1.58
63082,50.51092,-4.655879,259,24.76,11.0,230.3,Oct-23,6242441,2019-08-17 09:04:31:808,0.4,-0.1484,8.5953,-0.0071,0.0038,9.8066,0.0224,-0.0309,-0.0192,-12.22,16.31,-38.46,235.42,-0.42,-1.53
63083,50.51092,-4.655879,259,24.76,11.0,230.3,Oct-23,6242540,2019-08-17 09:04:31:907,0.2102,0.1048,9.6461,0.0053,0.0186,9.8066,-0.0629,-0.0107,0.0106,-12.22,16.62,-38.02,235.42,-0.42,-1.53
63084,50.510784,-4.656147,259,24.93,11.0,230.2,Oct-23,6242641,2019-08-17 09:04:32:008,0.3384,0.1945,9.6373,0.0083,0.0066,9.8066,0.0181,-0.0512,0.0096,-11.84,16.62,-38.46,236.74,-0.31,-1.49
63085,50.510784,-4.656147,259,24.93,11.0,230.2,Oct-23,6242741,2019-08-17 09:04:32:108,0.1651,0.4119,8.8914,0.0007,0.0095,9.8066,-0.0064,0.0639,0.0053,-11.47,16.31,-39.71,237.4,-0.14,-1.51
63086,50.510784,-4.656147,259,24.93,11.0,230.2,Oct-23,6242840,2019-08-17 09:04:32:207,0.0569,0.4546,9.6054,0.0097,0.0042,9.8066,-0.0458,0.0053,0.0202,-11.47,16.31,-39.71,237.4,-0.14,-1.51
63087,50.510784,-4.656147,259,24.93,11.0,230.2,Oct-23,6242943,2019-08-17 09:04:32:310,0.0927,0.3512,9.0901,0.0012,-0.009,9.8066,-0.0458,0.0053,0.0202,-11.09,15.93,-38.02,237.27,-0.09,-1.55
63088,50.510784,-4.656147,259,24.93,11.0,230.2,Oct-23,6243041,2019-08-17 09:04:32:408,-0.4982,0.3643,10.3581,-0.011,-0.0014,9.8066,0.0533,0.0224,0.0,-11.47,16.31,-38.4,237.27,-0.09,-1.55
63089,50.510784,-4.656147,259,24.93,11.0,230.2,Oct-23,6243141,2019-08-17 09:04:32:508,-0.356,0.2114,9.9665,-0.0258,0.0415,9.8065,-0.0064,0.0138,0.0149,-11.47,16.31,-38.9,237.33,-0.13,-1.5
63090,50.510784,-4.656147,259,24.93,11.0,230.2,Oct-23,6243241,2019-08-17 09:04:32:608,-0.4453,0.1544,9.9603,-0.0475,0.0622,9.8063,0.0117,0.0096,0.0011,-11.84,17.0,-38.9,235.86,0.03,-1.07
63091,50.510784,-4.656147,259,24.93,11.0,230.2,Oct-23,6243341,2019-08-17 09:04:32:708,-0.3043,0.1513,9.1437,-0.0091,0.0141,9.8066,0.0298,-0.0171,-0.0053,-11.84,16.62,-38.46,235.86,0.03,-1.07
63092,50.510784,-4.656147,259,24.93,11.0,230.2,Oct-23,6243441,2019-08-17 09:04:32:808,0.2963,0.0461,9.5919,-0.0128,0.0402,9.8066,-0.0447,-0.048,0.032,-11.47,16.31,-38.46,236.15,0.18,-0.87
63093,50.510784,-4.656147,259,24.93,11.0,230.2,Oct-23,6243541,2019-08-17 09:04:32:908,0.213,0.1158,8.0613,0.0126,0.0406,9.8066,0.0256,0.0575,0.0021,-11.47,16.31,-38.46,236.15,0.18,-0.87
63094,50.51064,-4.656426,258,25.21,12.0,230.3,Oct-23,6243641,2019-08-17 09:04:33:008,0.4721,-0.2757,9.5571,-0.0037,-0.0108,9.8066,-0.0415,0.0469,0.0106,-11.47,15.93,-39.34,235.52,0.47,-0.7
63095,50.51064,-4.656426,258,25.21,12.0,230.3,Oct-23,6243741,2019-08-17 09:04:33:108,0.0417,-0.0349,9.6504,0.0035,-0.0292,9.8066,-0.0415,0.0469,0.0106,-11.47,15.93,-39.71,235.52,0.47,-0.7
63096,50.51064,-4.656426,258,25.21,12.0,230.3,Oct-23,6243841,2019-08-17 09:04:33:208,0.3429,0.2101,8.5757,0.0153,-0.023,9.8066,0.0011,-0.0064,-0.0107,-10.72,14.81,-39.71,234.11,0.41,-0.85
63097,50.51064,-4.656426,258,25.21,12.0,230.3,Oct-23,6243941,2019-08-17 09:04:33:308,0.2511,0.1346,9.4178,0.0339,0.0096,9.8066,0.0,0.0426,0.0032,-10.72,14.81,-39.71,234.11,0.41,-0.85
63098,50.51064,-4.656426,258,25.21,12.0,230.3,Oct-23,6244041,2019-08-17 09:04:33:408,0.0768,0.0938,9.8263,0.019,-0.0285,9.8066,-0.0607,-0.0309,-0.0064,-10.72,14.81,-38.9,234.0,0.57,-0.98
63099,50.51064,-4.656426,258,25.21,12.0,230.3,Oct-23,6244141,2019-08-17 09:04:33:508,-0.1414,0.0803,10.3858,0.0427,-0.0425,9.8065,0.0021,-0.0021,-0.0032,-10.34,13.68,-38.84,234.0,0.57,-0.98
63100,50.51064,-4.656426,258,25.21,12.0,230.3,Oct-23,6244241,2019-08-17 09:04:33:608,-0.3447,0.2466,10.1571,0.0188,0.0221,9.8066,-0.0224,-0.0075,0.017,-10.72,13.0,-37.59,230.75,0.51,-1.33
63101,50.51064,-4.656426,258,25.21,12.0,230.3,Oct-23,6244341,2019-08-17 09:04:33:708,0.0094,0.0546,8.9829,0.0314,0.0352,9.8065,0.0117,0.0085,-0.0032,-9.97,12.25,-37.15,230.75,0.51,-1.33
63102,50.51064,-4.656426,258,25.21,12.0,230.3,Oct-23,6244441,2019-08-17 09:04:33:808,0.2114,0.0334,8.9843,0.0386,0.0478,9.8065,0.0117,0.0085,-0.0032,-9.28,11.5,-34.65,231.1,0.87,-1.33
63103,50.51064,-4.656426,258,25.21,12.0,230.3,Oct-23,6244541,2019-08-17 09:04:33:908,0.2933,0.1786,9.2475,0.0232,0.0203,9.8066,-0.0096,-0.0149,0.0085,-9.28,11.5,-34.65,231.1,0.87,-1.33
63104,50.51048,-4.656701,258,25.59,13.0,230.2,Oct-23,6244641,2019-08-17 09:04:34:008,0.2564,-0.2012,10.0015,0.0281,0.0264,9.8066,-0.0096,-0.0298,0.0128,-10.34,10.75,-33.34,228.02,1.05,-1.36
63105,50.51048,-4.656701,258,25.59,13.0,230.2,Oct-23,6244741,2019-08-17 09:04:34:108,0.5202,0.1739,9.8635,-0.0067,0.0117,9.8066,0.0533,0.0383,0.0,-11.47,13.37,-32.52,229.47,1.38,-1.36
63106,50.51048,-4.656701,258,25.59,13.0,230.2,Oct-23,6244841,2019-08-17 09:04:34:208,0.2649,-0.0285,10.7082,-0.0144,0.0152,9.8066,-0.0533,-0.0085,0.0234,-11.84,13.68,-32.52,229.47,1.38,-1.36
63107,50.51048,-4.656701,258,25.59,13.0,230.2,Oct-23,6244941,2019-08-17 09:04:34:308,0.2889,0.0193,10.1206,-0.0032,0.0044,9.8067,0.0394,0.0309,-0.0085,-12.22,14.06,-33.77,228.98,1.39,-1.24
63108,50.51048,-4.656701,258,25.59,13.0,230.2,Oct-23,6245041,2019-08-17 09:04:34:408,-0.103,0.2712,10.115,-0.0145,0.0072,9.8066,0.0085,-0.0053,0.0011,-12.22,14.06,-33.77,228.98,1.39,-1.24
63109,50.51048,-4.656701,258,25.59,13.0,230.2,Oct-23,6245141,2019-08-17 09:04:34:508,-0.132,0.0217,9.8027,-0.0131,0.0217,9.8066,0.0032,-0.0682,0.016,-12.22,14.81,-35.46,230.75,1.37,-1.15
63110,50.51048,-4.656701,258,25.59,13.0,230.2,Oct-23,6245241,2019-08-17 09:04:34:608,0.0598,0.1828,8.9996,0.0039,0.0542,9.8065,0.0032,-0.0682,0.016,-11.84,15.56,-36.27,231.92,1.63,-0.96
63111,50.51048,-4.656701,258,25.59,13.0,230.2,Oct-23,6245341,2019-08-17 09:04:34:708,-0.099,-0.0666,9.818,0.029,0.0305,9.8066,0.0202,-0.0043,-0.0021,-11.84,15.56,-36.27,231.92,1.63,-0.96
63112,50.51048,-4.656701,258,25.59,13.0,230.2,Oct-23,6245441,2019-08-17 09:04:34:808,-0.0585,0.0765,10.7182,0.0224,0.0095,9.8066,-0.0415,-0.0405,0.0011,-11.47,16.31,-36.71,233.76,1.87,-0.99
63113,50.51048,-4.656701,258,25.59,13.0,230.2,Oct-23,6245541,2019-08-17 09:04:34:908,0.4731,-0.2874,10.7464,0.039,0.006,9.8066,0.0213,0.0287,-0.0096,-11.09,16.31,-35.84,233.75,2.03,-1.15
63114,50.510338,-4.657004,257,26.09,14.0,231.0,Oct-23,6245641,2019-08-17 09:04:35:008,0.2891,-0.1735,10.3706,0.0063,-0.002,9.8066,-0.0288,-0.0064,0.0064,-11.09,16.31,-35.84,233.75,2.03,-1.15
63115,50.510338,-4.657004,257,26.09,14.0,231.0,Oct-23,6245741,2019-08-17 09:04:35:108,0.5857,-0.2299,9.2682,0.0013,0.0147,9.8066,0.0021,-0.0245,0.0096,-11.09,15.56,-37.52,233.75,2.03,-1.24
63116,50.510338,-4.657004,257,26.09,14.0,231.0,Oct-23,6245841,2019-08-17 09:04:35:208,0.3014,0.0563,9.9273,-0.0077,0.0343,9.8066,-0.0064,-0.0703,0.0043,-10.72,14.43,-37.15,233.75,2.03,-1.24
63117,50.510338,-4.657004,257,26.09,14.0,231.0,Oct-23,6245941,2019-08-17 09:04:35:308,0.3975,0.2725,9.6637,0.0157,0.0363,9.8066,0.0096,-0.0512,0.016,-10.72,13.75,-37.09,229.88,2.17,-1.08
63118,50.510338,-4.657004,257,26.09,14.0,231.0,Oct-23,6246041,2019-08-17 09:04:35:408,0.1342,0.0883,9.7403,0.0134,0.074,9.8064,0.0096,-0.0512,0.016,-10.72,13.75,-37.09,229.88,2.17,-1.08
63119,50.510338,-4.657004,257,26.09,14.0,231.0,Oct-23,6246141,2019-08-17 09:04:35:508,-0.1368,0.077,10.095,-0.0138,0.0277,9.8066,0.0426,0.0501,0.0096,-11.09,13.75,-37.52,228.99,2.55,-0.86
63120,50.510338,-4.657004,257,26.09,14.0,231.0,Oct-23,6246240,2019-08-17 09:04:35:607,-0.5543,0.181,10.1111,-0.0112,0.0453,9.8065,-0.0298,-0.0235,0.0,-11.47,16.31,-38.4,232.12,2.71,-0.64
63121,50.510338,-4.657004,257,26.09,14.0,231.0,Oct-23,6246341,2019-08-17 09:04:35:708,0.086,0.0287,9.2784,0.006,-0.003,9.8066,-0.0021,0.0234,0.0053,-11.47,16.31,-38.02,232.12,2.71,-0.64
63122,50.510338,-4.657004,257,26.09,14.0,231.0,Oct-23,6246441,2019-08-17 09:04:35:808,-0.1567,0.2104,9.0182,0.0209,0.0007,9.8066,-0.0181,-0.016,-0.0011,-10.72,16.31,-39.27,232.04,2.79,-0.73
63123,50.510338,-4.657004,257,26.09,14.0,231.0,Oct-23,6246541,2019-08-17 09:04:35:908,0.1181,0.2143,9.2051,-0.009,0.0149,9.8066,0.0373,-0.0011,-0.0011,-11.09,15.93,-39.65,232.04,2.79,-0.73
63124,50.51016,-4.65732,258,26.85,14.0,230.4,Oct-23,6246641,2019-08-17 09:04:36:008,0.4371,0.229,9.7107,-0.0049,0.0541,9.8065,-0.0341,-0.0522,0.0149,-11.09,15.93,-39.65,232.04,2.79,-0.73
63125,50.51016,-4.65732,258,26.85,14.0,230.4,Oct-23,6246741,2019-08-17 09:04:36:108,0.3655,0.3036,9.8272,0.0256,0.0086,9.8066,-0.0341,-0.0522,0.0149,-9.97,17.0,-40.52,234.68,3.27,-0.53
63126,50.51016,-4.65732,258,26.85,14.0,230.4,Oct-23,6246841,2019-08-17 09:04:36:208,0.0301,0.1468,9.1163,0.0225,0.0028,9.8066,-0.0075,0.0106,0.0075,-9.66,15.93,-39.27,234.68,3.27,-0.53
63127,50.51016,-4.65732,258,26.85,14.0,230.4,Oct-23,6246941,2019-08-17 09:04:36:308,-0.1338,0.162,9.751,-0.017,-0.0106,9.8066,0.0011,0.0426,0.0085,-9.66,15.18,-39.27,231.52,3.36,-0.63
63128,50.51016,-4.65732,258,26.85,14.0,230.4,Oct-23,6247041,2019-08-17 09:04:36:408,-0.0207,0.1917,9.2261,-0.0147,-0.0024,9.8066,-0.032,-0.0448,0.0117,-9.66,15.18,-39.27,231.52,3.36,-0.63
63129,50.51016,-4.65732,258,26.85,14.0,230.4,Oct-23,6247141,2019-08-17 09:04:36:508,-0.2552,0.0693,8.6956,0.0171,0.0184,9.8066,0.0192,0.0341,-0.0021,-9.66,15.93,-39.71,233.18,3.3,-0.57
63130,50.51016,-4.65732,258,26.85,14.0,230.4,Oct-23,6247241,2019-08-17 09:04:36:608,0.0531,-0.0585,9.4397,0.0305,0.019,9.8066,0.0107,0.0138,-0.0075,-9.97,15.56,-40.09,233.18,3.3,-0.57
63131,50.51016,-4.65732,258,26.85,14.0,230.4,Oct-23,6247341,2019-08-17 09:04:36:708,-0.2079,0.1022,10.9454,0.0456,0.0346,9.8065,0.0288,-0.0426,-0.0032,-9.66,15.56,-39.27,232.92,3.62,-0.66
63132,50.51016,-4.65732,258,26.85,14.0,230.4,Oct-23,6247441,2019-08-17 09:04:36:808,0.2659,0.0492,9.5704,0.0161,0.0187,9.8066,-0.0234,-0.0661,0.0128,-10.34,15.93,-38.77,232.72,3.76,-0.67
63133,50.51016,-4.65732,258,26.85,14.0,230.4,Oct-23,6247541,2019-08-17 09:04:36:908,0.1402,0.1191,9.7652,0.014,0.0239,9.8066,-0.0234,-0.0661,0.0128,-10.34,15.93,-38.77,232.72,3.76,-0.67
63134,50.509983,-4.657575,259,26.8,13.0,229.0,Oct-23,6247642,2019-08-17 09:04:37:009,0.5413,-0.0051,10.3344,0.0256,0.0252,9.8066,-0.0053,-0.0085,0.0021,-10.72,15.93,-40.09,230.21,3.97,-0.7
63135,50.509983,-4.657575,259,26.8,13.0,229.0,Oct-23,6247741,2019-08-17 09:04:37:108,0.0819,0.2725,10.4813,0.0225,0.0435,9.8065,-0.0117,0.0032,0.0234,-10.34,15.18,-42.21,230.19,4.06,-0.71
63136,50.509983,-4.657575,259,26.8,13.0,229.0,Oct-23,6247841,2019-08-17 09:04:37:208,0.2818,0.2367,9.3231,0.0661,0.0961,9.806,-0.0032,-0.0277,0.0117,-10.34,15.18,-42.21,230.19,4.06,-0.71
63137,50.509983,-4.657575,259,26.8,13.0,229.0,Oct-23,6247941,2019-08-17 09:04:37:308,0.1501,0.121,8.9833,0.0379,0.038,9.8065,0.0181,-0.0309,0.0064,-9.28,15.18,-40.46,231.57,4.74,-0.65
63138,50.509983,-4.657575,259,26.8,13.0,229.0,Oct-23,6248041,2019-08-17 09:04:37:408,0.0448,0.4161,9.9105,0.0322,0.0364,9.8065,-0.0309,-0.0224,0.0075,-8.91,14.81,-40.46,231.14,5.05,-0.68
63139,50.509983,-4.657575,259,26.8,13.0,229.0,Oct-23,6248141,2019-08-17 09:04:37:508,0.4489,0.4338,9.9308,0.067,0.0721,9.8062,0.0096,-0.0011,0.0064,-8.91,14.81,-40.46,231.14,5.05,-0.68
63140,50.509983,-4.657575,259,26.8,13.0,229.0,Oct-23,6248241,2019-08-17 09:04:37:608,0.3347,0.1994,10.1717,0.0262,0.0222,9.8066,-0.0256,0.0117,0.0021,-9.28,14.81,-42.96,229.76,5.63,-0.72
63141,50.509983,-4.657575,259,26.8,13.0,229.0,Oct-23,6248341,2019-08-17 09:04:37:708,0.4632,0.0877,10.0696,0.0351,0.0156,9.8066,-0.0256,0.0117,0.0021,-9.66,15.18,-40.9,227.89,5.83,-0.82
63142,50.509983,-4.657575,259,26.8,13.0,229.0,Oct-23,6248441,2019-08-17 09:04:37:808,0.261,0.0125,9.8545,0.0022,-0.0118,9.8066,0.0128,0.0383,0.0064,-9.66,15.18,-40.9,227.89,5.83,-0.82
63143,50.509983,-4.657575,259,26.8,13.0,229.0,Oct-23,6248541,2019-08-17 09:04:37:908,0.1125,0.0803,9.6633,0.0034,0.0168,9.8066,-0.0245,-0.0245,0.0128,-9.66,14.81,-40.9,228.02,5.79,-0.88
63144,50.509808,-4.657891,258,27.17,13.0,229.0,Oct-23,6248641,2019-08-17 09:04:38:008,0.2001,0.0429,9.1593,0.0841,0.0939,9.8058,0.0011,-0.0181,0.0011,-8.91,15.18,-40.46,228.02,5.79,-0.88
63145,50.509808,-4.657891,258,27.17,13.0,229.0,Oct-23,6248741,2019-08-17 09:04:38:108,-0.1486,0.2477,9.347,0.0225,0.0365,9.8066,-0.0032,-0.0512,0.0085,-8.91,15.56,-40.9,230.78,6.52,-0.88
63146,50.509808,-4.657891,258,27.17,13.0,229.0,Oct-23,6248841,2019-08-17 09:04:38:208,0.0631,0.2654,10.095,0.0171,0.0272,9.8066,0.017,-0.0053,0.0021,-8.91,14.81,-41.34,228.62,6.77,-0.84
63147,50.509808,-4.657891,258,27.17,13.0,229.0,Oct-23,6248941,2019-08-17 09:04:38:308,0.1885,0.197,10.2627,0.0386,0.0488,9.8065,-0.0138,0.0042,0.0021,-8.16,14.81,-40.02,228.62,6.77,-0.84
63148,50.509808,-4.657891,258,27.17,13.0,229.0,Oct-23,6249041,2019-08-17 09:04:38:408,0.1997,-0.126,10.4117,0.0437,0.0422,9.8065,-0.0138,0.0042,0.0021,-8.53,14.43,-41.34,226.27,7.12,-0.87
63149,50.509808,-4.657891,258,27.17,13.0,229.0,Oct-23,6249141,2019-08-17 09:04:38:508,0.4438,-0.0484,9.4848,-0.0093,-0.0223,9.8066,-0.0107,0.033,0.0085,-8.53,14.43,-41.34,226.27,7.12,-0.87
63150,50.509808,-4.657891,258,27.17,13.0,229.0,Oct-23,6249241,2019-08-17 09:04:38:608,0.4173,0.343,9.1125,-0.019,0.0049,9.8066,0.0032,0.0596,0.0064,-8.91,14.81,-42.15,228.2,6.99,-0.92
63151,50.509808,-4.657891,258,27.17,13.0,229.0,Oct-23,6249341,2019-08-17 09:04:38:708,0.2595,-0.2449,9.2821,-0.003,0.0118,9.8066,-0.0469,-0.0522,0.0043,-9.28,15.18,-42.15,228.06,7.03,-0.86
63152,50.509808,-4.657891,258,27.17,13.0,229.0,Oct-23,6249441,2019-08-17 09:04:38:808,0.3989,-0.4337,8.6904,0.0218,-0.0085,9.8066,-0.0245,-0.0021,0.0117,-8.53,15.18,-40.46,228.28,7.24,-0.9
63153,50.509808,-4.657891,258,27.17,13.0,229.0,Oct-23,6249541,2019-08-17 09:04:38:908,-0.3243,0.1283,9.4528,0.0399,0.0137,9.8066,0.0565,-0.0416,-0.0075,-8.53,15.18,-40.46,228.28,7.24,-0.9
63154,50.50966,-4.658178,258,26.86,12.0,229.3,Oct-23,6249641,2019-08-17 09:04:39:008,-0.3211,-0.18,9.6975,0.0306,0.0138,9.8066,-0.0202,-0.0394,0.0011,-8.16,14.81,-40.46,230.22,7.45,-1.03
63155,50.50966,-4.658178,258,26.86,12.0,229.3,Oct-23,6249741,2019-08-17 09:04:39:108,-0.0758,-0.1018,10.236,0.0633,0.0138,9.8064,-0.0202,-0.0394,0.0011,-8.53,14.81,-41.71,230.22,7.45,-1.03
63156,50.50966,-4.658178,258,26.86,12.0,229.3,Oct-23,6249841,2019-08-17 09:04:39:208,0.4219,-0.4715,9.7886,0.0167,-0.0237,9.8066,-0.0085,0.0458,-0.0096,-8.16,14.43,-41.27,228.01,7.75,-1.26
63157,50.50966,-4.658178,258,26.86,12.0,229.3,Oct-23,6249941,2019-08-17 09:04:39:308,0.2282,-0.351,10.0781,0.011,-0.0481,9.8065,-0.0064,0.0042,0.0064,-8.16,14.43,-41.27,228.01,7.75,-1.26
63158,50.50966,-4.658178,258,26.86,12.0,229.3,Oct-23,6250041,2019-08-17 09:04:39:408,0.0258,-0.1541,10.2738,-0.0129,0.0164,9.8066,0.0021,0.0074,-0.0021,-8.16,14.81,-40.84,230.41,7.58,-1.5
63159,50.50966,-4.658178,258,26.86,12.0,229.3,Oct-23,6250141,2019-08-17 09:04:39:508,0.2709,0.002,10.0426,-0.0063,0.0066,9.8066,-0.0426,-0.0469,-0.0011,-7.78,14.5,-41.27,230.41,7.58,-1.5
63160,50.50966,-4.658178,258,26.86,12.0,229.3,Oct-23,6250241,2019-08-17 09:04:39:608,-0.2382,-0.2231,9.9896,-0.0011,-0.0314,9.8066,0.016,-0.0192,-0.0096,-8.16,14.43,-41.71,228.27,7.59,-1.44
63161,50.50966,-4.658178,258,26.86,12.0,229.3,Oct-23,6250341,2019-08-17 09:04:39:708,-0.1554,-0.1504,10.1474,-0.0126,-0.0246,9.8066,0.0021,-0.0096,-0.0064,-8.53,15.18,-40.9,228.64,7.45,-1.56
63162,50.50966,-4.658178,258,26.86,12.0,229.3,Oct-23,6250441,2019-08-17 09:04:39:808,-0.0769,-0.1547,8.8474,-0.0031,-0.0248,9.8066,0.0021,-0.0096,-0.0064,-8.16,15.18,-40.4,228.64,7.45,-1.56
63163,50.50966,-4.658178,258,26.86,12.0,229.3,Oct-23,6250541,2019-08-17 09:04:39:908,-0.0638,0.0968,9.091,0.0154,-0.0414,9.8066,-0.0043,-0.0256,-0.0171,-8.16,15.18,-40.4,228.64,7.45,-1.56
63164,50.509502,-4.658437,258,26.5,12.0,228.9,Oct-23,6250642,2019-08-17 09:04:40:009,-0.4432,-0.4835,9.501,0.0032,-0.0068,9.8066,-0.0011,0.0106,-0.0085,-8.53,15.18,-40.4,229.32,7.33,-1.79
63165,50.509502,-4.658437,258,26.5,12.0,228.9,Oct-23,6250743,2019-08-17 09:04:40:110,-0.5369,-0.3696,9.8587,-0.0096,-0.0327,9.8066,-0.032,-0.0224,0.0032,-8.53,14.81,-41.71,229.32,7.33,-1.79
63166,50.509502,-4.658437,258,26.5,12.0,228.9,Oct-23,6250841,2019-08-17 09:04:40:208,-0.302,-0.4716,10.0294,-0.0033,-0.0517,9.8065,0.0384,0.0213,-0.0139,-8.16,14.12,-42.59,229.58,7.08,-1.98
63167,50.509502,-4.658437,258,26.5,12.0,228.9,Oct-23,6250941,2019-08-17 09:04:40:308,0.0507,-0.2006,9.7837,0.0145,0.0,9.8066,-0.0075,-0.033,0.0021,-7.78,14.12,-42.09,229.58,7.08,-1.98
63168,50.509502,-4.658437,258,26.5,12.0,228.9,Oct-23,6251041,2019-08-17 09:04:40:408,0.2003,-0.0847,9.6656,0.0015,-0.0061,9.8066,0.0309,0.0522,0.0117,-7.78,14.43,-41.27,230.06,7.06,-2.01
63169,50.509502,-4.658437,258,26.5,12.0,228.9,Oct-23,6251140,2019-08-17 09:04:40:507,-0.014,0.0084,10.5245,-0.0251,0.0057,9.8066,0.0298,0.0,0.0043,-7.78,14.5,-41.27,230.16,6.88,-1.88
63170,50.509502,-4.658437,258,26.5,12.0,228.9,Oct-23,6251241,2019-08-17 09:04:40:608,-0.2036,-0.0179,10.596,-0.0397,0.0149,9.8066,0.0298,0.0,0.0043,-7.78,14.5,-41.27,230.16,6.88,-1.88
63171,50.509502,-4.658437,258,26.5,12.0,228.9,Oct-23,6251341,2019-08-17 09:04:40:708,-0.095,-0.197,9.1746,-0.0206,-0.0045,9.8066,-0.0128,-0.0171,0.0096,-8.16,14.81,-41.65,231.55,6.8,-1.64
63172,50.509502,-4.658437,258,26.5,12.0,228.9,Oct-23,6251441,2019-08-17 09:04:40:808,-0.0998,-0.4349,9.6887,-0.0592,-0.0083,9.8065,0.0043,0.049,-0.0053,-8.16,14.81,-40.84,231.82,6.54,-1.4
63173,50.509502,-4.658437,258,26.5,12.0,228.9,Oct-23,6251541,2019-08-17 09:04:40:908,-0.0767,0.0226,9.9951,-0.0227,-0.0079,9.8066,-0.0053,0.0053,0.0085,-8.16,14.81,-40.84,231.82,6.54,-1.4
63174,50.50937,-4.65873,257,26.51,12.0,229.0,Oct-23,6251641,2019-08-17 09:04:41:008,-0.0473,0.0486,8.8568,-0.0133,0.0221,9.8066,0.0064,-0.0181,0.0011,-8.53,15.18,-40.84,229.76,6.43,-1.32
63175,50.50937,-4.65873,257,26.51,12.0,229.0,Oct-23,6251741,2019-08-17 09:04:41:108,-0.2194,0.1781,8.8996,-0.0198,0.04,9.8065,0.0075,-0.0181,-0.0032,-8.16,15.18,-40.84,229.76,6.43,-1.32
63176,50.50937,-4.65873,257,26.51,12.0,229.0,Oct-23,6251840,2019-08-17 09:04:41:207,-0.3315,-0.0298,9.771,-0.0284,0.0309,9.8066,0.0075,-0.0181,-0.0032,-8.16,15.18,-40.84,229.76,6.43,-1.32
63177,50.50937,-4.65873,257,26.51,12.0,229.0,Oct-23,6251941,2019-08-17 09:04:41:308,-0.2163,-0.5861,10.1193,-0.0252,0.0069,9.8066,0.049,0.017,-0.0064,-7.41,15.18,-40.84,233.82,6.46,-1.08
63178,50.50937,-4.65873,257,26.51,12.0,229.0,Oct-23,6252041,2019-08-17 09:04:41:408,-0.154,0.3028,9.8877,-0.0403,0.033,9.8065,0.0085,-0.0394,-0.0075,-8.16,14.5,-40.84,233.82,6.46,-1.08
63179,50.50937,-4.65873,257,26.51,12.0,229.0,Oct-23,6252140,2019-08-17 09:04:41:507,0.2883,-0.3268,10.1875,-0.0105,0.0219,9.8066,0.0746,0.0554,-0.0181,-7.78,14.81,-41.71,230.87,6.47,-0.77
63180,50.50937,-4.65873,257,26.51,12.0,229.0,Oct-23,6252241,2019-08-17 09:04:41:608,0.2244,0.2625,10.0922,-0.0332,0.0326,9.8065,0.0213,-0.0213,-0.0021,-7.78,15.56,-41.27,230.87,6.47,-0.77
63181,50.50937,-4.65873,257,26.51,12.0,229.0,Oct-23,6252341,2019-08-17 09:04:41:708,0.0032,-0.397,10.3412,-0.0448,0.031,9.8065,0.0011,0.033,0.0064,-7.78,15.56,-41.27,230.87,6.47,-0.77
63182,50.50937,-4.65873,257,26.51,12.0,229.0,Oct-23,6252441,2019-08-17 09:04:41:808,-0.2216,-0.279,10.6345,-0.0207,-0.0079,9.8066,0.0426,0.0735,-0.0128,-8.16,16.31,-39.52,232.7,6.45,-0.45
63183,50.50937,-4.65873,257,26.51,12.0,229.0,Oct-23,6252541,2019-08-17 09:04:41:908,-0.3654,-0.0383,10.0037,-0.052,-0.0241,9.8065,0.0053,-0.0469,0.0021,-8.53,16.31,-39.15,232.7,6.45,-0.45
63184,50.50937,-4.65873,257,26.51,12.0,229.0,Oct-23,6252641,2019-08-17 09:04:42:008,-0.3156,0.1165,9.4821,-0.0791,-0.0402,9.8063,0.0053,-0.0469,0.0021,-8.53,16.31,-39.52,230.94,5.98,-0.23
63185,50.509228,-4.659085,253,27.04,12.0,230.1,Oct-23,6252740,2019-08-17 09:04:42:107,0.1975,-0.0845,8.9738,-0.0097,0.0084,9.8066,0.0405,-0.0053,-0.0224,-8.16,16.31,-40.84,230.94,5.98,-0.23
63186,50.509228,-4.659085,253,27.04,12.0,230.1,Oct-23,6252841,2019-08-17 09:04:42:208,0.2778,0.1119,9.338,0.0116,0.0369,9.8066,0.0075,-0.0618,-0.0043,-7.78,15.93,-40.46,232.7,6.19,-0.14
63187,50.509228,-4.659085,253,27.04,12.0,230.1,Oct-23,6252942,2019-08-17 09:04:42:309,0.1436,0.2653,9.6514,0.0245,0.0187,9.8066,-0.0117,-0.0085,0.0,-7.78,15.93,-40.46,232.7,6.19,-0.14
63188,50.509228,-4.659085,253,27.04,12.0,230.1,Oct-23,6253041,2019-08-17 09:04:42:408,0.5646,0.0733,10.0842,0.005,-0.012,9.8066,0.0256,0.0426,-0.0202,-7.41,15.93,-39.52,234.91,6.35,-0.27
63189,50.509228,-4.659085,253,27.04,12.0,230.1,Oct-23,6253141,2019-08-17 09:04:42:508,0.5266,-0.5419,10.1995,0.0119,-0.0138,9.8066,-0.0064,-0.0586,-0.0075,-7.78,15.56,-39.96,232.76,6.31,-0.33
63190,50.509228,-4.659085,253,27.04,12.0,230.1,Oct-23,6253241,2019-08-17 09:04:42:608,0.8267,-0.1339,10.0581,0.012,-0.0234,9.8066,0.0533,0.0458,-0.0213,-7.78,15.93,-40.77,232.81,6.24,-0.47
63191,50.509228,-4.659085,253,27.04,12.0,230.1,Oct-23,6253341,2019-08-17 09:04:42:708,0.4388,-0.7336,9.1582,-0.0193,-0.0026,9.8066,0.0533,0.0458,-0.0213,-7.78,15.93,-40.77,232.81,6.24,-0.47
63192,50.509228,-4.659085,253,27.04,12.0,230.1,Oct-23,6253441,2019-08-17 09:04:42:808,0.2405,-0.0865,10.3709,0.0023,-0.0075,9.8066,-0.0383,-0.0288,-0.0096,-7.78,16.68,-39.15,234.91,6.16,-0.39
63193,50.509228,-4.659085,253,27.04,12.0,230.1,Oct-23,6253541,2019-08-17 09:04:42:908,0.1909,-0.0033,9.6634,0.0422,-0.0176,9.8065,0.0117,0.0309,-0.0362,-7.78,17.06,-39.15,235.12,6.22,-0.65
63194,50.50907,-4.659413,254,27.21,13.0,230.5,Oct-23,6253641,2019-08-17 09:04:43:008,-0.1134,-0.1678,9.3684,0.0373,-0.0039,9.8066,-0.0234,-0.0203,-0.016,-7.78,16.68,-39.52,235.12,6.22,-0.65
63195,50.50907,-4.659413,254,27.21,13.0,230.5,Oct-23,6253741,2019-08-17 09:04:43:108,0.3416,-0.5089,10.0106,0.0508,-0.0301,9.8065,0.0224,0.0224,-0.0288,-7.78,16.68,-39.52,235.12,6.22,-0.65
63196,50.50907,-4.659413,254,27.21,13.0,230.5,Oct-23,6253840,2019-08-17 09:04:43:207,0.2812,-0.1381,10.0138,0.0173,-0.0051,9.8066,0.0586,-0.0085,-0.0384,-7.78,17.06,-40.4,235.26,6.25,-1.0
63197,50.50907,-4.659413,254,27.21,13.0,230.5,Oct-23,6253941,2019-08-17 09:04:43:308,0.5136,0.2761,9.1843,0.0391,0.0021,9.8066,-0.0256,-0.0469,-0.0309,-6.66,16.68,-39.52,237.47,6.39,-1.18
63198,50.50907,-4.659413,254,27.21,13.0,230.5,Oct-23,6254041,2019-08-17 09:04:43:408,0.7331,0.043,9.5283,0.0242,0.0047,9.8066,0.0181,0.0554,-0.0256,-6.66,16.68,-39.52,237.47,6.39,-1.18
63199,50.50907,-4.659413,254,27.21,13.0,230.5,Oct-23,6254141,2019-08-17 09:04:43:508,0.5709,0.0588,10.0926,0.0381,-0.0456,9.8065,0.0011,-0.0192,-0.0192,-7.03,16.68,-39.15,237.66,6.49,-1.28
63200,50.50907,-4.659413,254,27.21,13.0,230.5,Oct-23,6254241,2019-08-17 09:04:43:608,0.6677,0.0118,9.6682,0.0066,-0.0077,9.8066,0.0011,-0.0192,-0.0192,-7.41,17.43,-40.77,237.74,6.38,-1.62
63201,50.50907,-4.659413,254,27.21,13.0,230.5,Oct-23,6254341,2019-08-17 09:04:43:708,0.3911,-0.0984,9.6259,0.0171,0.0062,9.8066,0.0202,0.0085,-0.0213,-7.41,17.81,-39.52,239.41,6.36,-1.67
63202,50.50907,-4.659413,254,27.21,13.0,230.5,Oct-23,6254442,2019-08-17 09:04:43:809,0.8987,-0.2253,9.8218,0.0301,0.0094,9.8066,0.0533,0.0213,-0.0341,-7.41,17.81,-39.52,239.41,6.36,-1.67
63203,50.50907,-4.659413,254,27.21,13.0,230.5,Oct-23,6254541,2019-08-17 09:04:43:908,0.1806,-0.3629,10.5562,0.0031,-0.0067,9.8066,-0.0426,-0.016,-0.0117,-7.03,17.81,-38.65,239.53,6.5,-1.8
63204,50.508945,-4.659759,252,27.19,13.0,231.4,Oct-23,6254641,2019-08-17 09:04:44:008,0.0423,0.0995,10.0602,-0.0075,0.0057,9.8066,0.0415,0.0128,-0.0394,-7.41,17.81,-39.09,239.6,6.47,-1.83
63205,50.508945,-4.659759,252,27.19,13.0,231.4,Oct-22,6254741,2019-08-17 09:04:44:108,-0.0937,-0.027,9.1507,-0.0162,0.0003,9.8066,0.017,-0.0203,-0.0288,-7.03,17.81,-40.34,239.38,6.43,-1.75
63206,50.508945,-4.659759,252,27.19,13.0,231.4,Oct-22,6254841,2019-08-17 09:04:44:208,-0.3666,0.2066,9.4074,0.0045,-0.0071,9.8066,-0.016,-0.0394,-0.032,-7.03,17.81,-40.34,239.38,6.43,-1.75
63207,50.508945,-4.659759,252,27.19,13.0,231.4,Oct-22,6254941,2019-08-17 09:04:44:308,-0.3626,0.1103,9.4525,0.015,-0.0077,9.8066,0.0405,0.0287,-0.032,-6.66,17.43,-39.96,238.1,6.41,-1.79
63208,50.508945,-4.659759,252,27.19,13.0,231.4,Oct-22,6255041,2019-08-17 09:04:44:408,-0.1129,0.2711,9.8028,0.0532,0.0088,9.8065,-0.0277,-0.0458,-0.0394,-6.34,17.81,-39.52,238.1,6.41,-1.79
63209,50.508945,-4.659759,252,27.19,13.0,231.4,Oct-22,6255141,2019-08-17 09:04:44:508,0.7649,0.2032,8.4266,0.0887,0.0037,9.8062,-0.0277,-0.0458,-0.0394,-6.66,17.81,-39.09,239.66,6.7,-2.23
63210,50.508945,-4.659759,252,27.19,13.0,231.4,Oct-22,6255241,2019-08-17 09:04:44:608,0.7952,0.0901,9.5498,0.0269,-0.0224,9.8066,0.0181,0.016,-0.0426,-6.66,17.81,-39.09,239.66,6.7,-2.23
63211,50.508945,-4.659759,252,27.19,13.0,231.4,Oct-22,6255341,2019-08-17 09:04:44:708,0.3585,0.0805,9.292,0.0288,0.0265,9.8066,0.0245,-0.0256,-0.0394,-6.34,17.81,-39.52,242.03,6.67,-2.58
63212,50.508945,-4.659759,252,27.19,13.0,231.4,Oct-22,6255441,2019-08-17 09:04:44:808,0.3701,0.1346,10.3625,0.059,0.0425,9.8064,-0.0266,-0.0629,-0.0298,-5.59,18.12,-39.09,241.85,7.05,-2.77
63213,50.508945,-4.659759,252,27.19,13.0,231.4,Oct-22,6255540,2019-08-17 09:04:44:907,0.0241,0.1573,10.8134,-0.0037,-0.0399,9.8066,0.065,0.0245,-0.0384,-5.59,18.12,-39.09,241.85,7.05,-2.77
63214,50.508778,-4.659993,252,26.72,13.0,231.3,Oct-23,6255641,2019-08-17 09:04:45:008,-0.3694,-0.4035,10.0671,-0.005,-0.0456,9.8065,-0.0096,0.0106,-0.033,-6.66,18.5,-39.09,240.06,6.83,-2.86
63215,50.508778,-4.659993,252,26.72,13.0,231.3,Oct-23,6255741,2019-08-17 09:04:45:108,-0.6325,0.0278,10.6979,0.0212,-0.072,9.8064,0.0352,0.0085,-0.0405,-6.66,18.18,-39.52,240.06,6.83,-2.86
63216,50.508778,-4.659993,252,26.72,13.0,231.3,Oct-23,6255841,2019-08-17 09:04:45:208,-0.2231,-0.1623,10.0317,0.0448,-0.0586,9.8064,-0.0021,-0.0394,-0.049,-6.34,18.18,-40.34,242.64,6.67,-3.26
63217,50.508778,-4.659993,252,26.72,13.0,231.3,Oct-23,6255941,2019-08-17 09:04:45:308,0.0823,-0.3982,9.8997,0.0222,-0.008,9.8066,-0.0021,-0.0394,-0.049,-6.34,18.18,-40.34,242.64,6.67,-3.26
63218,50.508778,-4.659993,252,26.72,13.0,231.3,Oct-23,6256041,2019-08-17 09:04:45:408,0.2736,-0.1453,9.3411,-0.0108,-0.0233,9.8066,0.0735,0.0351,-0.0309,-5.97,18.18,-40.34,242.73,6.68,-3.4
63219,50.508778,-4.659993,252,26.72,13.0,231.3,Oct-23,6256141,2019-08-17 09:04:45:508,0.5263,0.3915,10.2128,-0.0187,0.0052,9.8066,0.0181,-0.0788,-0.0384,-5.59,17.81,-40.34,242.67,6.66,-3.29
63220,50.508778,-4.659993,252,26.72,13.0,231.3,Oct-23,6256241,2019-08-17 09:04:45:608,0.1012,-0.0536,9.3604,0.0324,0.0671,9.8064,-0.0224,-0.0426,-0.0405,-5.59,18.5,-41.21,242.67,6.66,-3.29
63221,50.508778,-4.659993,252,26.72,13.0,231.3,Oct-23,6256341,2019-08-17 09:04:45:708,-0.0522,-0.2646,9.3047,0.041,0.0514,9.8064,0.0565,0.0618,-0.0256,-5.59,18.5,-41.21,242.67,6.66,-3.29
63222,50.508778,-4.659993,252,26.72,13.0,231.3,Oct-23,6256441,2019-08-17 09:04:45:808,-0.8583,-0.1678,10.7282,-0.0441,-0.0341,9.8065,-0.0288,0.0543,0.0043,-5.59,18.5,-39.96,242.18,7.04,-3.36
63223,50.508778,-4.659993,252,26.72,13.0,231.3,Oct-23,6256541,2019-08-17 09:04:45:908,0.1455,-0.1455,9.9203,-0.0259,0.0161,9.8066,0.0309,-0.0192,-0.0511,-5.97,18.5,-39.9,242.5,6.74,-3.23
63224,50.508778,-4.659993,252,26.72,13.0,231.3,Oct-23,6256640,2019-08-17 09:04:46:007,-0.3682,0.4223,10.4039,-0.0476,0.035,9.8065,0.0085,-0.0362,-0.0192,-5.59,18.18,-39.46,242.32,6.79,-2.88
63225,50.508617,-4.660286,256,26.73,13.0,232.0,Oct-23,6256741,2019-08-17 09:04:46:108,-0.3462,0.2716,9.8912,-0.0359,-0.0323,9.8065,0.0085,-0.0362,-0.0192,-5.59,18.18,-39.46,242.32,6.79,-2.88
63226,50.508617,-4.660286,256,26.73,13.0,232.0,Oct-23,6256841,2019-08-17 09:04:46:208,-0.1308,0.5131,10.2297,-0.0028,-0.0006,9.8067,-0.0234,0.0074,-0.0309,-5.59,18.87,-40.71,243.37,6.53,-2.78
63227,50.508617,-4.660286,256,26.73,13.0,232.0,Oct-23,6256941,2019-08-17 09:04:46:308,-0.2308,0.4642,10.2553,0.0125,0.0326,9.8066,0.0234,-0.0224,-0.0309,-5.22,18.5,-39.52,244.38,6.73,-2.76
63228,50.508617,-4.660286,256,26.73,13.0,232.0,Oct-23,6257041,2019-08-17 09:04:46:408,0.1834,0.1436,9.5919,0.0151,0.0217,9.8066,0.0021,-0.0032,-0.0384,-5.22,18.5,-39.52,244.38,6.73,-2.76
63229,50.508617,-4.660286,256,26.73,13.0,232.0,Oct-23,6257141,2019-08-17 09:04:46:508,0.2141,-0.0513,10.5308,-0.0023,-0.0172,9.8066,0.0117,0.0682,-0.0288,-4.84,18.56,-39.9,245.26,6.89,-2.79
63230,50.508617,-4.660286,256,26.73,13.0,232.0,Oct-23,6257240,2019-08-17 09:04:46:607,0.2929,0.0975,10.2608,-0.0161,-0.0347,9.8066,-0.0245,-0.0128,-0.0107,-4.84,18.18,-39.9,245.26,6.89,-2.79
63231,50.508617,-4.660286,256,26.73,13.0,232.0,Oct-23,6257341,2019-08-17 09:04:46:708,-0.3871,-0.0772,10.2166,-0.0377,-0.024,9.8065,0.0245,0.0138,-0.0341,-5.59,19.25,-38.65,243.46,6.67,-2.65
63232,50.508617,-4.660286,256,26.73,13.0,232.0,Oct-23,6257441,2019-08-17 09:04:46:808,-0.5409,0.0703,10.2901,-0.0118,0.0093,9.8066,0.0245,0.0138,-0.0341,-5.59,19.25,-38.65,243.46,6.67,-2.65
63233,50.508617,-4.660286,256,26.73,13.0,232.0,Oct-23,6257542,2019-08-17 09:04:46:909,-0.5409,0.0703,10.2901,-0.0284,-0.0011,9.8066,-0.0213,0.0309,-0.0139,-5.59,19.25,-39.46,243.45,6.59,-2.5
63234,50.508495,-4.660606,255,26.26,12.0,236.2,Oct-23,6257641,2019-08-17 09:04:47:008,-0.4204,0.5767,10.8336,-0.045,0.0113,9.8065,0.0277,0.0458,-0.0192,-5.59,18.87,-40.34,243.45,6.59,-2.5
63235,50.508495,-4.660606,255,26.26,12.0,236.2,Oct-23,6257740,2019-08-17 09:04:47:107,0.1186,-0.0276,9.8189,0.0007,-0.0049,9.8066,0.0011,-0.0096,-0.0405,-5.59,18.87,-40.34,243.1,6.53,-2.23
63236,50.508495,-4.660606,255,26.26,12.0,236.2,Oct-23,6257841,2019-08-17 09:04:47:208,-0.064,-0.04,9.8894,0.0049,-0.0101,9.8066,-0.0107,-0.0107,-0.033,-5.59,18.87,-40.34,243.1,6.53,-2.23
63237,50.508495,-4.660606,255,26.26,12.0,236.2,Oct-23,6257941,2019-08-17 09:04:47:308,-0.0595,-0.0146,9.4039,0.0046,0.0002,9.8066,0.0277,0.0532,-0.0426,-5.59,18.87,-40.34,243.21,6.49,-2.29
63238,50.508495,-4.660606,255,26.26,12.0,236.2,Oct-23,6258041,2019-08-17 09:04:47:408,-0.2981,-0.1339,10.2363,0.0063,0.0142,9.8066,0.0032,-0.0639,-0.0309,-4.84,18.5,-39.46,243.21,6.49,-2.29
63239,50.508495,-4.660606,255,26.26,12.0,236.2,Oct-23,6258142,2019-08-17 09:04:47:509,-0.7019,0.2596,9.2316,0.0024,0.0153,9.8066,0.0181,0.0021,-0.0341,-5.59,18.18,-39.09,242.1,6.58,-2.28
63240,50.508495,-4.660606,255,26.26,12.0,236.2,Oct-23,6258240,2019-08-17 09:04:47:607,-0.2617,0.0192,8.9846,0.0153,0.0011,9.8066,0.0181,0.0021,-0.0341,-5.59,18.18,-39.09,242.1,6.58,-2.28
63241,50.508495,-4.660606,255,26.26,12.0,236.2,Oct-23,6258341,2019-08-17 09:04:47:708,-0.5135,0.2642,10.1315,0.0264,0.0024,9.8066,0.032,-0.0309,-0.0447,-4.84,18.5,-39.52,244.19,6.63,-2.36
63242,50.508495,-4.660606,255,26.26,12.0,236.2,Oct-23,6258441,2019-08-17 09:04:47:808,0.4064,0.3177,10.4498,0.0401,0.0072,9.8066,0.032,-0.0309,-0.0447,-4.84,18.5,-39.52,244.19,6.63,-2.36
63243,50.508495,-4.660606,255,26.26,12.0,236.2,Oct-23,6258540,2019-08-17 09:04:47:907,0.4905,-0.1384,8.9898,0.0037,-0.0342,9.8066,0.0256,0.0873,-0.0352,-5.59,18.18,-39.96,241.86,6.77,-2.55
63244,50.50837,-4.660905,254,26.3,12.0,236.9,Dec-23,6258641,2019-08-17 09:04:48:008,0.0057,-0.2442,9.7291,0.0107,-0.0633,9.8064,0.0213,-0.0501,-0.0511,-5.22,18.87,-39.09,246.09,6.47,-2.78
63245,50.50837,-4.660905,254,26.3,12.0,236.9,Dec-23,6258741,2019-08-17 09:04:48:108,-0.0329,-0.3439,9.9599,-0.0043,0.0056,9.8066,0.0181,0.0085,-0.0288,-5.22,19.25,-39.9,246.09,6.47,-2.78
63246,50.50837,-4.660905,254,26.3,12.0,236.9,Dec-23,6258841,2019-08-17 09:04:48:208,0.1081,0.2151,9.6369,0.0181,0.014,9.8066,0.0053,0.0383,-0.032,-5.22,19.25,-39.9,246.09,6.47,-2.78
63247,50.50837,-4.660905,254,26.3,12.0,236.9,Dec-23,6258941,2019-08-17 09:04:48:308,-0.2872,-0.1102,10.0836,0.0245,-0.0032,9.8066,-0.0309,0.0074,-0.0394,-4.86,18.77,-40.46,245.91,6.58,-3.04
63248,50.50837,-4.660905,254,26.3,12.0,236.9,Dec-23,6259041,2019-08-17 09:04:48:408,-0.2847,0.0032,10.2816,0.0454,0.0037,9.8065,0.0213,0.0554,-0.0458,-4.49,19.08,-40.53,247.95,6.71,-3.27
63249,50.50837,-4.660905,254,26.3,12.0,236.9,Dec-23,6259141,2019-08-17 09:04:48:508,-0.316,0.1816,10.4422,0.0146,-0.0017,9.8066,0.0213,0.0554,-0.0458,-4.49,19.08,-40.53,247.95,6.71,-3.27
63250,50.50837,-4.660905,254,26.3,12.0,236.9,Dec-23,6259241,2019-08-17 09:04:48:608,0.3641,0.1038,9.7992,0.0004,-0.0126,9.8066,-0.0405,0.0096,-0.0213,-4.49,19.08,-40.9,247.98,6.74,-3.35
63251,50.50837,-4.660905,254,26.3,12.0,236.9,Dec-23,6259341,2019-08-17 09:04:48:708,-0.0667,-0.11,11.3394,-0.0101,-0.03,9.8066,0.0501,0.0735,-0.0362,-4.86,19.46,-40.9,246.02,6.55,-3.37
63252,50.50837,-4.660905,254,26.3,12.0,236.9,Dec-23,6259441,2019-08-17 09:04:48:808,0.4683,-0.0079,10.9865,-0.0228,-0.0068,9.8066,0.0192,-0.0107,-0.0394,-4.86,19.46,-40.9,246.02,6.55,-3.37
63253,50.50837,-4.660905,254,26.3,12.0,236.9,Dec-23,6259541,2019-08-17 09:04:48:908,0.3358,0.0646,9.134,-0.0558,-0.0095,9.8065,-0.017,-0.0021,-0.0266,-4.86,19.08,-40.03,246.27,6.37,-3.09
63254,50.50837,-4.660905,254,26.3,12.0,236.9,Dec-23,6259641,2019-08-17 09:04:49:008,-0.1908,0.0096,9.8976,-0.0013,0.0044,9.8066,0.0021,0.0383,-0.0352,-4.86,19.08,-40.03,246.27,6.37,-3.09
63255,50.50825,-4.661221,252,26.07,11.0,240.3,Dec-23,6259741,2019-08-17 09:04:49:108,0.5319,-0.1713,9.2674,0.0378,0.0152,9.8066,-0.0522,-0.0533,-0.0266,-5.24,19.46,-40.46,246.23,6.39,-3.07
63256,50.50825,-4.661221,252,26.07,11.0,240.3,Dec-23,6259841,2019-08-17 09:04:49:208,-0.0534,-0.0385,10.0041,0.0146,0.0049,9.8066,-0.0522,-0.0533,-0.0266,-4.49,19.83,-40.46,249.28,6.56,-3.24
63257,50.50825,-4.661221,252,26.07,11.0,240.3,Dec-23,6259941,2019-08-17 09:04:49:308,-0.0048,-0.3417,9.7633,0.0171,-0.0116,9.8066,0.0352,0.0682,-0.0394,-4.49,19.83,-40.46,249.28,6.56,-3.24
63258,50.50825,-4.661221,252,26.07,11.0,240.3,Dec-23,6260041,2019-08-17 09:04:49:408,-0.3231,0.2546,10.1894,-0.0172,-0.0131,9.8066,-0.0149,0.0181,-0.0501,-4.11,19.08,-41.28,248.3,6.53,-3.36
63259,50.50825,-4.661221,252,26.07,11.0,240.3,Dec-23,6260141,2019-08-17 09:04:49:508,-0.405,-0.1514,10.6036,-0.0055,-0.01,9.8066,-0.0341,0.0639,-0.0245,-4.49,18.77,-40.46,248.63,6.42,-3.29
63260,50.50825,-4.661221,252,26.07,11.0,240.3,Dec-23,6260241,2019-08-17 09:04:49:608,-0.293,-0.1212,10.5508,-0.0174,-0.0206,9.8066,0.0075,0.0053,-0.032,-4.49,18.77,-40.46,248.63,6.42,-3.29
63261,50.50825,-4.661221,252,26.07,11.0,240.3,Dec-23,6260341,2019-08-17 09:04:49:708,0.0656,0.4285,9.0467,-0.0074,-0.0104,9.8066,-0.0149,-0.0416,-0.0202,-4.49,19.08,-40.46,248.83,6.27,-3.24
63262,50.50825,-4.661221,252,26.07,11.0,240.3,Dec-23,6260441,2019-08-17 09:04:49:808,0.1041,0.3528,9.6634,-0.0124,-0.0042,9.8066,0.0021,0.0224,-0.0384,-4.11,19.83,-38.78,249.95,6.22,-3.18
63263,50.50825,-4.661221,252,26.07,11.0,240.3,Dec-23,6260541,2019-08-17 09:04:49:908,0.1343,0.5315,9.91,0.0063,0.0138,9.8066,-0.0138,-0.048,-0.0394,-3.74,19.83,-39.21,249.82,6.31,-3.19
63264,50.508167,-4.661552,251,25.86,11.0,242.9,Dec-23,6260640,2019-08-17 09:04:50:007,0.4689,0.2593,9.8798,0.0017,0.019,9.8066,-0.0138,-0.048,-0.0394,-3.74,19.83,-39.21,249.82,6.31,-3.19
63265,50.508167,-4.661552,251,25.86,11.0,242.9,Dec-23,6260741,2019-08-17 09:04:50:108,0.1599,-0.1217,10.3377,-0.0202,0.0013,9.8066,0.0075,0.0501,-0.0373,-4.49,19.83,-39.15,249.62,6.41,-3.09
63266,50.508167,-4.661552,251,25.86,11.0,242.9,Dec-23,6260841,2019-08-17 09:04:50:208,-0.591,0.1246,9.4858,-0.0183,-0.0065,9.8066,0.0181,0.0426,-0.0277,-4.11,19.83,-39.59,249.38,6.38,-2.98
63267,50.508167,-4.661552,251,25.86,11.0,242.9,Dec-23,6260941,2019-08-17 09:04:50:308,-0.3652,0.0556,9.1675,-0.0367,-0.0176,9.8066,-0.0362,-0.0192,-0.0234,-4.11,19.83,-39.59,249.38,6.38,-2.98
63268,50.508167,-4.661552,251,25.86,11.0,242.9,Dec-23,6261041,2019-08-17 09:04:50:408,-0.4241,-0.4393,10.6322,-0.0163,-0.0114,9.8066,0.016,0.033,-0.0298,-3.74,19.46,-39.59,248.63,6.2,-2.82
63269,50.508167,-4.661552,251,25.86,11.0,242.9,Dec-23,6261141,2019-08-17 09:04:50:508,-0.4429,-0.0359,10.6939,-0.0233,-0.0352,9.8066,0.0064,0.0117,-0.0277,-3.74,19.08,-39.59,248.63,6.2,-2.82
63270,50.508167,-4.661552,251,25.86,11.0,242.9,Dec-23,6261241,2019-08-17 09:04:50:608,0.1676,-0.3995,9.9751,-0.0359,-0.039,9.8065,-0.0075,-0.0011,-0.0426,-3.74,19.83,-40.03,249.9,5.92,-2.7
63271,50.508167,-4.661552,251,25.86,11.0,242.9,Dec-23,6261341,2019-08-17 09:04:50:708,-0.3851,0.0542,10.137,0.0063,-0.0101,9.8066,0.0107,0.0074,-0.0341,-4.11,20.21,-40.03,249.9,5.92,-2.7
63272,50.508167,-4.661552,251,25.86,11.0,242.9,Dec-23,6261441,2019-08-17 09:04:50:808,-0.1066,0.2505,10.3564,0.0121,-0.0068,9.8066,0.0107,0.0074,-0.0341,-4.11,20.21,-40.03,249.9,5.92,-2.7
63273,50.508167,-4.661552,251,25.86,11.0,242.9,Dec-23,6261541,2019-08-17 09:04:50:908,0.1911,0.1774,10.1765,0.0103,0.0163,9.8066,0.0266,-0.0256,-0.0288,-4.11,19.83,-39.59,249.75,6.03,-2.73
63274,50.508102,-4.661867,248,25.94,11.0,244.2,Dec-23,6261642,2019-08-17 09:04:51:009,-0.0431,0.449,10.4331,-0.0038,0.0097,9.8066,-0.0202,-0.0213,-0.0266,-4.11,19.83,-39.59,249.75,6.03,-2.73
63275,50.508102,-4.661867,248,25.94,11.0,244.2,Dec-23,6261741,2019-08-17 09:04:51:108,0.3431,0.1668,10.0922,-0.0197,-0.0179,9.8066,0.0458,0.0607,-0.0437,-4.11,19.83,-38.78,249.86,6.07,-2.68
63276,50.508102,-4.661867,248,25.94,11.0,244.2,Dec-23,6261841,2019-08-17 09:04:51:208,0.0857,-0.1662,9.6426,-0.0242,-0.0062,9.8066,-0.0224,-0.032,-0.0298,-4.11,20.21,-39.59,249.86,6.07,-2.68
63277,50.508102,-4.661867,248,25.94,11.0,244.2,Dec-23,6261941,2019-08-17 09:04:51:308,-0.2264,0.0815,8.6092,0.0142,0.0156,9.8066,-0.0181,0.0117,-0.0277,-3.36,19.83,-39.59,252.03,5.99,-2.56
63278,50.508102,-4.661867,248,25.94,11.0,244.2,Dec-23,6262040,2019-08-17 09:04:51:407,-0.4546,0.0443,9.5459,0.0397,0.0353,9.8065,-0.0437,-0.0373,-0.0139,-3.36,19.83,-39.59,252.03,5.99,-2.56
63279,50.508102,-4.661867,248,25.94,11.0,244.2,Dec-23,6262141,2019-08-17 09:04:51:508,-0.2465,-0.198,9.3007,0.0202,0.0059,9.8066,-0.0128,0.0149,-0.0394,-2.99,19.46,-40.46,250.88,6.26,-2.72
63280,50.508102,-4.661867,248,25.94,11.0,244.2,Dec-23,6262242,2019-08-17 09:04:51:609,-0.5316,-0.3264,10.9268,0.0176,-0.0007,9.8066,-0.0128,0.0149,-0.0394,-3.36,19.08,-40.4,250.9,6.29,-2.82
63281,50.508102,-4.661867,248,25.94,11.0,244.2,Dec-23,6262340,2019-08-17 09:04:51:707,-0.0298,-0.1176,10.9543,-0.0038,-0.0249,9.8066,0.0117,0.0341,-0.0266,-3.36,19.08,-40.4,250.9,6.29,-2.82
63282,50.508102,-4.661867,248,25.94,11.0,244.2,Dec-23,6262440,2019-08-17 09:04:51:807,-0.4687,-0.2035,10.6431,-0.0091,-0.0325,9.8066,-0.0309,0.0096,-0.0149,-4.11,19.46,-40.46,248.76,6.14,-2.85
63283,50.508102,-4.661867,248,25.94,11.0,244.2,Dec-23,6262541,2019-08-17 09:04:51:908,0.0107,0.3957,9.4904,-0.0155,-0.0497,9.8065,0.0085,0.0234,-0.016,-3.74,19.83,-39.21,250.33,5.84,-2.87
63284,50.50801,-4.662167,246,25.68,10.0,245.4,Dec-23,6262641,2019-08-17 09:04:52:008,-0.0882,0.1959,9.6034,-0.0173,-0.0112,9.8066,-0.0394,-0.0075,-0.0213,-3.74,19.83,-39.21,250.33,5.84,-2.87
