,GPS LATITUDE (degrees), GPS LONGITUDE (degrees), GPS ALTITUDE (m), GPS SPEED (Kmh), GPS ACCURACY (m), GPS ORIENTATION (Â°),GPS SATELLITES IN RANGE, TIME SINCE START (ms), DATE (YYYY-MO-DD HH-MI-SS_SSS), ACCELEROMETER X (m/s²) , ACCELEROMETER Y (m/s²), ACCELEROMETER Z (m/s²), GRAVITY X (m/s²), GRAVITY Y (m/s²), GRAVITY Z (m/s²), GYROSCOPE Yaw (rad/s), GYROSCOPE Pitch (rad/s), GYROSCOPE Roll (rad/s), MAGNETIC FIELD X (Î¼T), MAGNETIC FIELD Y (Î¼T), MAGNETIC FIELD Z (Î¼T), ORIENTATION (Yaw) (Â°), ORIENTATION (Pitch) (Â°), ORIENTATION (Roll ) (Â°)
9455,51.24422,-0.267533,162,11.49,17,199.6,Sep-21,4726666,2019-02-27 11:34:38:186,-1.5829,0.3809,9.2131,-0.291,0.1138,9.8017,0.1252,-0.131,-0.1441,3.73,-17.82,-32.26,76.37,0.14,-3.25
9456,51.24422,-0.267533,162,11.49,17,199.6,Sep-21,4727166,2019-02-27 11:34:38:686,-0.8164,-0.1725,9.8862,-0.2699,0.112,9.8023,0.0612,0.0085,-0.1239,2.29,-17.82,-33.07,82.19,-0.1,-5.06
9457,51.24422,-0.267533,162,11.49,17,199.6,Sep-21,4727666,2019-02-27 11:34:39:186,-0.2567,1.3132,8.4733,-0.0741,0.0518,9.8062,-0.0165,-0.0171,-0.1388,1.17,-17.45,-33.57,83.32,-0.76,-7.19
9458,51.24422,-0.267533,162,11.49,17,199.6,0 / 20,4728166,2019-02-27 11:34:39:686,-0.3846,0.9558,9.8296,-0.0274,0.2458,9.8035,-0.057,0.1374,-0.1079,0.42,-17.82,-33.64,84.18,-2.17,-7.51
9459,51.24422,-0.267533,162,11.49,17,199.6,0 / 20,4728666,2019-02-27 11:34:40:186,-0.5802,-0.2053,9.5565,-0.0853,-0.0137,9.8063,-0.0645,-0.1012,-0.0749,-0.27,-18.2,-33.64,79.67,-3.72,-8.29
9460,51.24422,-0.267533,162,11.49,17,199.6,0 / 20,4729166,2019-02-27 11:34:40:686,0.3025,-1.054,8.9582,0.1933,0.0652,9.8045,-0.0495,0.0895,-0.0685,-0.93,-18.46,-33.33,83.74,-4.04,-7.68
9461,51.24422,-0.267533,162,11.49,17,199.6,0 / 20,4729666,2019-02-27 11:34:41:186,0.4612,-1.0079,9.0776,0.188,0.0557,9.8047,-0.057,0.0138,-0.0269,-1.31,-18.46,-33.33,86.25,-3.1,-7.32
9462,51.24422,-0.267533,162,11.49,17,199.6,May-21,4730167,2019-02-27 11:34:41:687,0.7539,0.1222,10.314,0.2828,-0.005,9.8026,0.0282,-0.0267,-0.0099,-3.12,-17.34,-33.77,93.43,-3.48,-4.59
9463,51.24422,-0.267533,162,11.49,17,199.6,May-21,4730666,2019-02-27 11:34:42:186,0.0767,-0.2242,9.9325,-0.0472,-0.1072,9.806,-0.09,0.0245,-0.0322,-2.74,-17.71,-33.33,91.88,-4.16,-3.07
9464,51.24422,-0.267533,162,11.49,17,199.6,May-21,4731168,2019-02-27 11:34:42:688,-0.5906,-1.1481,9.8898,0.1556,-0.2743,9.8016,-0.0293,-0.0267,-0.012,-2.06,-18.09,-33.71,89.78,-3.34,-4.3
9465,51.24422,-0.267533,162,11.49,17,199.6,May-21,4731666,2019-02-27 11:34:43:186,-0.6276,-0.2084,10.2026,0.0631,-0.0445,9.8063,0.0176,-0.081,-0.0589,-2.74,-18.09,-33.71,97.43,-1.46,-3.03
9466,51.24422,-0.267533,162,11.49,17,199.6,Jul-21,4732166,2019-02-27 11:34:43:686,-0.2815,-0.3258,10.3673,-0.0075,0.014,9.8066,-0.0027,-0.0288,-0.0717,-3.12,-18.09,-33.71,99.97,-0.39,-3.81
9467,51.24422,-0.267533,162,11.49,17,199.6,Jul-21,4732667,2019-02-27 11:34:44:187,-0.0995,-0.4894,9.9257,0.0046,-0.1618,9.8053,0.057,-0.0043,-0.0738,-3.49,-16.96,-33.71,102.66,0.45,-3.99
9468,51.24422,-0.267533,162,11.49,17,199.6,Jul-21,4733167,2019-02-27 11:34:44:687,0.8743,0.1907,10.3686,0.1591,0.0765,9.8051,0.0261,-0.0693,-0.0397,-4.24,-16.21,-33.71,106.3,0.09,-3.56
9469,51.24422,-0.267533,162,11.49,17,199.6,Jul-21,4733666,2019-02-27 11:34:45:186,0.3319,0.196,9.7953,0.108,-0.1005,9.8055,-0.0314,-0.082,-0.0418,-3.87,-16.59,-33.71,104.32,-0.08,-2.54
9470,51.24422,-0.267533,162,11.49,17,199.6,Jul-21,4734167,2019-02-27 11:34:45:687,-0.9317,-0.8227,10.0565,-0.0202,0.0861,9.8063,0.0197,-0.0362,-0.0653,-4.57,-15.76,-32.29,108.92,0.12,-2.16
9471,51.24422,-0.267533,162,11.49,17,199.6,Jul-21,4734666,2019-02-27 11:34:46:186,-0.4425,0.3162,10.888,-0.2376,0.0544,9.8036,-0.0027,0.0117,-0.1111,-5.32,-16.14,-33.17,107.19,-0.75,-2.16
9472,51.24422,-0.267533,162,11.49,17,199.6,Jul-21,4735166,2019-02-27 11:34:46:686,-0.0171,0.1962,10.6928,-0.1791,0.1177,9.8043,-0.0112,0.0021,-0.0994,-6.76,-16.51,-33.29,110.8,-2.45,-4.16
9473,51.24422,-0.267533,162,11.49,17,199.6,Jul-21,4735666,2019-02-27 11:34:47:186,-0.636,0.0144,10.0759,-0.0049,0.0822,9.8063,-0.0016,0.016,-0.093,-7.89,-16.14,-33.29,112.89,-3.88,-4.39
9474,51.24422,-0.267533,162,11.49,17,199.6,Jul-21,4736166,2019-02-27 11:34:47:686,-0.4749,-0.1212,10.6475,-0.1631,0.0406,9.8052,-0.1252,-0.1023,-0.0887,-8.26,-16.14,-33.29,111.76,-4.34,-4.23
9475,51.24422,-0.267533,162,11.49,17,199.6,Jul-21,4736666,2019-02-27 11:34:48:186,-0.5558,0.6823,10.1239,-0.0195,-0.0459,9.8065,0.0772,0.0138,-0.1025,-9.63,-16.72,-33.24,116.84,-5.53,-6.67
9476,51.24422,-0.267533,162,11.49,17,199.6,Jul-21,4737167,2019-02-27 11:34:48:687,1.0245,-0.3672,10.4965,0.1862,-0.1472,9.8038,-0.0069,-0.082,-0.0844,-10.01,-15.6,-32.87,119.43,-5.34,-6.89
9477,51.24422,-0.267533,162,11.49,17,199.6,Jul-21,4737667,2019-02-27 11:34:49:187,0.4686,-0.2862,10.235,0.0959,-0.0405,9.8061,0.0112,-0.0469,-0.0706,-11.51,-15.6,-32.43,129.76,-2.86,-6.3
9478,51.24422,-0.267533,162,11.49,17,199.6,Jul-21,4738166,2019-02-27 11:34:49:686,0.9288,0.2803,9.331,0.1987,-0.1009,9.8041,0.0282,0.0596,-0.0472,-11.51,-15.22,-32.87,133.47,-1.67,-5.79
9479,51.24422,-0.267533,162,11.49,17,199.6,Jul-21,4738666,2019-02-27 11:34:50:186,1.2012,0.2642,10.4274,0.1972,0.0462,9.8046,0.0762,-0.0234,-0.0333,-12.2,-15.6,-32.87,130.34,-1.74,-5.28
9480,51.24422,-0.267533,162,11.49,17,199.6,Jul-21,4739167,2019-02-27 11:34:50:687,0.3596,0.9002,9.1561,-0.0649,-0.0486,9.8063,0.0122,0.0596,-0.0258,-12.2,-15.6,-32.87,128.09,-1.41,-3.01
9481,51.24422,-0.267533,162,11.49,17,199.6,Jul-21,4739666,2019-02-27 11:34:51:186,0.1411,0.8148,9.5196,0.0619,-0.0342,9.8064,-0.0272,0.0138,-0.0006,-12.57,-15.6,-32.37,130.97,-1.42,-3.49
9482,51.24422,-0.267533,162,11.49,17,199.6,Jul-21,4740166,2019-02-27 11:34:51:686,0.3641,0.3598,9.6203,0.0743,-0.0017,9.8064,-0.0272,-0.0448,-0.0123,-12.2,-16.35,-32.37,129.01,-0.74,-3.02
9483,51.24422,-0.267533,162,11.49,17,199.6,Jul-21,4740667,2019-02-27 11:34:52:187,0.1973,-0.42,9.9965,0.0777,-0.1541,9.8051,-0.0059,0.001,-0.0049,-13.7,-16.35,-32.81,135.07,0.25,-3.24
9484,51.24422,-0.267533,162,11.49,17,199.6,Jul-21,4741166,2019-02-27 11:34:52:686,0.402,-0.3518,8.9091,0.0943,0.0719,9.8059,0.1007,0.1758,-0.0059,-12.57,-16.35,-32.37,134.14,1.4,-3.15
9485,51.24422,-0.267533,162,11.49,17,199.6,Jul-21,4741666,2019-02-27 11:34:53:186,-0.6533,0.4912,10.4756,0.0068,0.1321,9.8058,0.0122,0.0053,0.0004,-13.32,-15.6,-31.49,132.1,0.95,-1.9
9486,51.24422,-0.267533,162,11.49,17,199.6,Jul-21,4742167,2019-02-27 11:34:53:687,0.4738,-0.5389,9.9507,0.0512,-0.1242,9.8057,-0.0091,0.0106,-0.0006,-13.32,-15.97,-33.62,132.61,1.29,-1.72
9487,51.24422,-0.267533,162,11.49,17,199.6,Jul-21,4742666,2019-02-27 11:34:54:186,-0.0359,-0.6032,9.9573,0.0057,0.0243,9.8066,-0.0346,0.0437,0.0004,-14.07,-16.35,-32.74,135.8,2.31,-1.87
9488,51.24422,-0.267533,162,11.49,17,199.6,Jul-21,4743166,2019-02-27 11:34:54:686,-0.1646,0.7197,9.9536,0.0198,0.0321,9.8066,0.008,-0.0352,0.0047,-13.32,-15.6,-32.31,133.44,2.26,-1.65
9489,51.24422,-0.267533,162,11.49,17,199.6,Jul-21,4743667,2019-02-27 11:34:55:187,-0.1515,0.444,9.6581,0.0171,-0.0277,9.8066,0.0378,0.0149,0.0015,-13.32,-16.35,-32.37,133.74,2.59,-1.6
9490,51.24422,-0.267533,162,11.49,17,199.6,Jul-21,4744167,2019-02-27 11:34:55:687,0.1682,-0.0303,10.0771,0.0574,0.0267,9.8064,0.0293,0.0096,0.0026,-12.95,-15.22,-32.37,135.67,2.9,-1.29
9491,51.24422,-0.267533,162,11.49,17,199.6,Jul-21,4744666,2019-02-27 11:34:56:186,0.134,-0.4696,9.8456,0.2939,-0.1488,9.8011,0.0037,0.0341,0.0058,-13.7,-14.47,-33.56,139.21,2.87,-0.77
9492,51.24422,-0.267533,162,11.49,17,199.6,Jul-21,4745167,2019-02-27 11:34:56:687,-0.1552,0.812,9.0768,0.02,0.0954,9.8062,0.0623,0.0351,0.0111,-13.32,-14.47,-33.99,137.86,4.44,0.18
9493,51.24422,-0.267533,162,11.49,17,199.6,Jul-21,4745667,2019-02-27 11:34:57:187,-0.1592,0.2675,9.5676,-0.0872,-0.0653,9.806,-0.0304,0.0724,0.0281,-11.45,-14.85,-32.31,131.28,4.39,0.49
9494,51.24422,-0.267533,162,11.49,17,199.6,Jul-21,4746167,2019-02-27 11:34:57:687,-0.3683,0.4619,10.3768,-0.1583,0.1611,9.804,-0.0549,0.0522,0.0377,-12.57,-15.6,-33.18,134.17,4.34,-0.14
9495,51.24422,-0.267533,162,11.49,17,199.6,Jul-21,4746666,2019-02-27 11:34:58:186,-0.1229,-0.16,9.9287,0.0115,0.0256,9.8066,-0.0655,-0.1108,0.0494,-12.2,-16.29,-32.74,130.43,2.82,-0.04
9496,51.24422,-0.267533,162,11.49,17,199.6,Jul-21,4747166,2019-02-27 11:34:58:686,-1.293,-0.5263,9.3336,-0.1764,0.0201,9.805,-0.0485,-0.0022,-0.1349,-12.57,-17.04,-31.93,130.48,2.06,-0.75
9497,51.24422,-0.267533,162,11.49,17,199.6,Jul-21,4747666,2019-02-27 11:34:59:186,-1.752,-1.2958,10.0379,-0.5263,-0.3573,9.786,-0.0336,0.0692,-0.2904,-15.09,-16.18,-31.96,142.64,0.87,-7.23
9498,51.24422,-0.267533,162,11.49,17,199.6,Jul-21,4748166,2019-02-27 11:34:59:686,-1.4454,-1.8076,10.2614,-0.4939,-0.4704,9.7829,0.0016,0.0074,-0.4992,-16.96,-15.05,-30.71,151.26,-0.42,-10.35
9499,51.24422,-0.267533,162,11.49,17,199.6,Jul-21,4748666,2019-02-27 11:35:00:186,-0.6711,-0.8475,9.9217,-0.3439,-0.2406,9.7977,-0.0868,0.0383,-0.5418,-19.51,-11.89,-31.6,168.67,-1.63,-14.15
9500,51.24422,-0.267533,162,11.49,17,199.6,Jul-21,4749166,2019-02-27 11:35:00:686,-0.0148,-0.4174,10.1114,-0.8691,-0.2047,9.7659,-0.0261,0.0021,-0.5354,-22.76,-5.27,-30.25,192.64,-8.38,-17.24
9501,51.24422,-0.267533,162,11.49,17,199.6,Jul-21,4749667,2019-02-27 11:35:01:187,0.4434,0.4217,10.0802,-0.3197,-0.0419,9.8013,-0.0666,0.0042,-0.5088,-23.79,-1.82,-29.35,199.57,-10.26,-17.07
9502,51.24422,-0.267533,162,11.49,17,199.6,Jul-21,4750167,2019-02-27 11:35:01:687,-0.5616,1.5915,9.4492,-0.3458,0.2509,9.7973,0.0048,0.0106,-0.3117,-23.41,2.24,-29.78,211.6,-11.18,-16.67
9503,51.24422,-0.267533,162,11.49,17,199.6,Jul-21,4750667,2019-02-27 11:35:02:187,-0.8361,2.0372,9.536,-0.1762,0.4467,9.7949,0.0623,0.0096,-0.1796,-21.92,5.44,-29.41,213.61,-11.53,-11.51
9504,51.24422,-0.267533,162,11.49,17,199.6,Jul-21,4751166,2019-02-27 11:35:02:686,-0.8201,0.7448,10.0889,-0.3801,0.295,9.7948,-0.073,0.0117,-0.072,-22.29,6.19,-28.16,212.76,-11.14,-9.58
9505,51.24422,-0.267533,162,11.49,17,199.6,Jul-21,4751666,2019-02-27 11:35:03:186,-1.1733,0.3883,10.2698,-0.3373,0.0932,9.8004,-0.0314,-0.0352,-0.0443,-20.79,6.88,-27.66,213.17,-11.62,-5.97
9506,51.24422,-0.267533,162,11.49,17,199.6,Jul-21,4752167,2019-02-27 11:35:03:687,-0.0344,0.6742,9.6438,-0.1113,0.1322,9.8051,0.009,-0.0416,-0.0358,-21.17,6.19,-28.1,209.61,-12.96,-4.4
9507,51.24422,-0.267533,162,11.49,17,199.6,Jul-21,4752667,2019-02-27 11:35:04:187,-0.2229,0.5863,9.2476,0.0959,0.1305,9.8053,-0.0091,-0.048,-0.006,-21.08,6.47,-27.26,205.81,-12.56,-2.35
9508,51.24422,-0.267533,162,11.49,17,199.6,Jul-21,4753167,2019-02-27 11:35:04:687,0.2337,0.2547,9.9587,0.0869,0.1002,9.8058,-0.0101,0.0021,0.0047,-20.33,6.47,-28.51,205.69,-11.01,-1.57
9509,51.24422,-0.267533,162,11.49,17,199.6,Jul-21,4753666,2019-02-27 11:35:05:186,0.3506,0.7774,9.4337,0.2686,0.1533,9.8018,0.0122,0.0618,0.0132,-20.7,6.47,-29.32,203.18,-10.0,-1.41
9510,51.24422,-0.267533,162,11.49,17,199.6,Jul-21,4754166,2019-02-27 11:35:05:686,1.4233,0.4795,10.0264,0.3742,0.1652,9.7981,0.0016,-0.016,0.01,-19.26,6.78,-29.32,205.21,-5.82,-1.03
9511,51.24422,-0.267533,162,11.49,17,199.6,Jul-21,4754666,2019-02-27 11:35:06:186,1.1955,0.31,9.4063,0.3239,0.2111,9.799,0.025,-0.0117,0.0079,-18.89,6.1,-29.39,200.08,-4.07,-0.35
9512,51.24422,-0.267533,162,11.49,17,199.6,Jul-21,4755166,2019-02-27 11:35:06:686,0.4038,0.3941,9.6586,0.3133,0.133,9.8007,0.0591,-0.0096,-0.0034,-18.89,7.16,-29.32,200.98,-1.87,0.16
9513,51.24422,-0.267533,162,11.49,17,199.6,Jul-21,4755666,2019-02-27 11:35:07:186,-0.2421,-0.2706,9.6324,0.1677,0.0824,9.8049,-0.0229,-0.0139,0.0009,-19.26,6.1,-29.39,195.67,2.8,0.55
9514,51.24422,-0.267533,162,11.49,17,199.6,Jul-21,4756167,2019-02-27 11:35:07:687,-0.0259,-0.0124,10.1597,0.041,0.0842,9.8062,-0.0282,-0.0384,0.0179,-18.51,6.78,-29.45,198.27,2.76,0.54
9515,51.24422,-0.267533,162,11.49,17,199.6,Jul-21,4756667,2019-02-27 11:35:08:187,0.512,-0.561,8.9363,0.0303,0.0699,9.8064,-0.0165,-0.0426,0.0147,-17.76,5.72,-29.89,195.08,3.42,1.28
9516,51.24422,-0.267533,162,11.49,17,199.6,Jul-21,4757167,2019-02-27 11:35:08:687,0.9342,0.243,10.2846,0.1629,0.1213,9.8045,0.0282,0.0564,0.036,-18.51,4.97,-29.51,191.86,4.68,0.97
9517,51.24422,-0.267533,162,11.49,17,199.6,Jul-21,4757666,2019-02-27 11:35:09:186,-0.8556,-0.1594,9.8674,0.1224,0.0955,9.8054,-0.0027,-0.0682,0.0467,-18.51,4.97,-29.07,191.03,5.75,1.47
9518,51.24422,-0.267533,162,11.49,17,199.6,Jul-21,4758166,2019-02-27 11:35:09:686,-0.8101,-0.3974,9.8366,-0.143,-0.1461,9.8045,0.025,0.0032,0.0467,-17.76,4.6,-29.51,190.1,5.95,2.39
9519,51.24422,-0.267533,162,11.49,17,199.6,Jul-21,4758666,2019-02-27 11:35:10:186,-1.4112,-0.6017,9.4988,-0.5194,-0.2078,9.7907,-0.0197,-0.0543,0.0605,-18.89,4.22,-29.89,188.62,2.74,1.72
9520,51.24422,-0.267533,162,11.49,17,199.6,Jul-21,4759167,2019-02-27 11:35:10:687,-1.2164,0.1149,9.7925,-0.3476,-0.0169,9.8005,-0.0368,0.0234,0.0723,-19.26,3.47,-29.51,185.52,-1.57,2.37
9521,51.24422,-0.267533,162,11.49,17,199.6,Jul-21,4759666,2019-02-27 11:35:11:186,-0.6512,-0.8805,10.1299,-0.2899,-0.0795,9.802,-0.0687,0.0096,0.0691,-19.26,2.41,-29.07,183.14,-3.3,2.07
9522,51.24422,-0.267533,162,11.49,17,199.6,Jul-21,4760166,2019-02-27 11:35:11:686,-1.0434,0.218,9.4951,0.0055,0.1015,9.8061,-0.0144,-0.0778,0.0691,-19.64,2.03,-29.45,183.52,-4.56,1.81
9523,51.24422,-0.267533,162,11.49,17,199.6,Jul-21,4760667,2019-02-27 11:35:12:187,-0.609,0.7094,9.6011,0.0816,0.0168,9.8063,-0.0027,-0.0938,0.0616,-19.19,1.56,-30.23,181.03,-5.36,3.26
9524,51.24422,-0.267533,162,11.49,17,199.6,Jul-21,4761167,2019-02-27 11:35:12:687,0.16,0.1995,11.1605,-0.0015,-0.0236,9.8066,0.0687,-0.016,0.0126,-18.07,0.81,-30.17,177.18,-4.88,3.35
9525,51.24422,-0.267533,162,11.49,17,199.6,Jul-21,4761666,2019-02-27 11:35:13:186,0.8127,-0.3408,8.9998,0.5856,-0.1544,9.7879,-0.0272,-0.0192,0.0094,-17.32,1.19,-30.23,178.92,-1.41,2.49
9526,51.24422,-0.267533,162,11.49,17,199.6,Jul-21,4762166,2019-02-27 11:35:13:686,0.7876,0.3751,10.9012,0.2191,0.0328,9.8042,0.0655,0.0469,-0.0353,-16.63,2.69,-30.6,185.17,-0.14,2.71
9527,51.24422,-0.267533,162,11.49,17,199.6,Jul-21,4762666,2019-02-27 11:35:14:186,1.0167,-0.0482,9.1567,0.2236,-0.0375,9.804,-0.04,0.0255,-0.046,-17.32,3.37,-30.98,185.69,0.65,2.35
9528,51.24422,-0.267533,162,11.49,17,199.6,Jul-21,4763167,2019-02-27 11:35:14:687,-0.1417,-0.2563,9.4616,0.1869,-0.174,9.8033,-0.0293,-0.0362,-0.062,-16.94,2.31,-30.54,184.72,2.91,0.87
9529,51.24422,-0.267533,162,11.49,17,199.6,Jul-21,4763666,2019-02-27 11:35:15:186,0.3011,-0.3905,10.135,-0.0469,-0.1674,9.8051,0.0304,0.1044,-0.095,-16.63,3.06,-30.6,189.59,3.14,-0.28
9530,51.24422,-0.267533,162,11.49,17,199.6,Jul-21,4764166,2019-02-27 11:35:15:686,-0.2654,-0.1223,9.5148,0.1811,0.0028,9.805,0.0538,-0.1119,-0.0801,-16.26,3.75,-30.54,194.93,2.71,-1.2
9531,51.24422,-0.267533,162,11.49,17,199.6,Jul-21,4764666,2019-02-27 11:35:16:186,-0.1271,-0.0189,8.8426,0.1463,-0.0721,9.8053,0.0186,-0.0139,-0.0801,-14.38,4.5,-31.42,197.49,4.42,-2.13
9532,51.24422,-0.267533,162,11.49,17,199.6,Jul-21,4765167,2019-02-27 11:35:16:687,0.4157,-0.3078,9.471,0.0929,0.0703,9.806,-0.0272,-0.081,-0.0204,-13.69,5.25,-31.79,201.2,4.62,-2.52
9533,51.24422,-0.267533,162,11.49,17,199.6,Jul-21,4765667,2019-02-27 11:35:17:187,-0.9522,0.4053,10.3396,-0.0264,0.0522,9.8065,-0.0421,0.0383,0.019,-13.32,4.12,-31.79,197.86,5.25,-1.99
9534,51.24422,-0.267533,162,11.49,17,199.6,Jul-21,4766167,2019-02-27 11:35:17:687,-0.4015,-0.3039,8.9689,-0.15,-0.0509,9.8054,-0.0282,0.0351,-0.0034,-13.32,2.69,-31.79,195.5,3.48,-2.03
9535,51.24422,-0.267533,162,11.49,17,199.6,Jul-21,4766666,2019-02-27 11:35:18:186,-0.5902,-0.3455,9.6164,0.0997,-0.0886,9.8057,-0.0847,-0.0874,-0.0385,-13.69,3.06,-31.79,195.12,2.56,-2.09
9536,51.24422,-0.267533,162,11.49,17,199.6,Jul-21,4767167,2019-02-27 11:35:18:687,0.5788,-0.6395,9.0595,-0.1353,0.0956,9.8053,-0.0645,0.1481,-0.0588,-14.01,4.5,-30.98,200.82,2.6,-3.43
9537,51.24422,-0.267533,162,11.49,17,199.6,Jul-21,4767667,2019-02-27 11:35:19:187,0.9819,-0.0436,11.2737,-0.0827,-0.01,9.8063,0.0953,0.0873,-0.1216,-13.69,4.87,-30.98,204.15,2.13,-3.32
9538,51.24422,-0.267533,162,11.49,17,199.6,Jul-21,4768166,2019-02-27 11:35:19:686,0.2704,-0.1901,10.2689,-0.0021,-0.0433,9.8066,-0.0176,-0.0021,-0.1046,-12.88,6.35,-31.86,211.85,1.35,-4.58
9539,51.24422,-0.267533,162,11.49,17,199.6,Jul-21,4768667,2019-02-27 11:35:20:187,1.277,0.2257,10.3406,0.0367,-0.0603,9.8064,0.1188,0.0692,-0.0982,-13.95,5.97,-30.99,210.32,0.77,-4.52
9540,51.24422,-0.267533,162,11.49,17,199.6,Jul-21,4769167,2019-02-27 11:35:20:687,0.829,0.2838,9.7541,0.0317,-0.1038,9.806,-0.0218,-0.0245,-0.0726,-13.63,5.6,-31.42,210.96,0.78,-4.93
9541,51.24422,-0.267533,162,11.49,17,199.6,Jul-21,4769666,2019-02-27 11:35:21:186,0.3664,0.3512,9.6701,-0.0156,0.199,9.8046,0.0208,-0.0469,-0.0673,-13.26,7.41,-31.42,216.77,1.19,-5.96
9542,51.24422,-0.267533,162,11.49,17,199.6,Jul-21,4770166,2019-02-27 11:35:21:686,-0.9765,0.7197,10.5103,-0.0423,0.0711,9.8063,0.0101,0.0479,-0.063,-11.76,8.16,-30.99,219.45,1.81,-4.97
9543,51.24422,-0.267533,162,11.49,17,199.6,Jul-21,4770666,2019-02-27 11:35:22:186,-0.7497,0.0527,9.0448,-0.1513,0.1989,9.8035,0.0144,0.0362,-0.0172,-12.41,8.51,-31.69,219.3,1.92,-3.03
9544,51.24422,-0.267533,162,11.49,17,199.6,Jul-21,4771167,2019-02-27 11:35:22:687,-0.0786,0.8741,9.949,0.0473,0.116,9.8059,-0.0336,-0.0991,-0.0215,-12.41,8.51,-31.31,218.02,2.56,-2.68
9545,51.24422,-0.267533,162,11.49,17,199.6,Jul-21,4771666,2019-02-27 11:35:23:186,-0.1227,0.4727,10.0599,-0.1322,-0.0844,9.8054,-0.0165,-0.0021,-0.0098,-12.41,7.76,-31.31,214.07,2.81,-2.09
9546,51.24422,-0.267533,162,11.49,17,199.6,Jul-21,4772167,2019-02-27 11:35:23:687,0.5251,0.0223,10.1605,0.1567,0.0837,9.805,0.0762,-0.033,-0.0055,-12.04,7.01,-31.31,211.02,2.93,-2.13
9547,51.24422,-0.267533,162,11.49,17,199.6,Jul-21,4772666,2019-02-27 11:35:24:186,-0.2338,0.1153,8.7777,0.0153,0.3304,9.8011,0.0644,-0.0171,0.0009,-12.41,7.76,-31.69,214.23,1.97,-1.62
9548,51.24422,-0.267533,162,11.49,17,199.6,Jul-21,4773167,2019-02-27 11:35:24:687,-0.5104,0.4885,9.5244,-0.0753,0.0124,9.8064,-0.1358,-0.0522,0.0307,-13.16,7.38,-31.69,205.92,2.93,-0.19
9549,51.24422,-0.267533,162,11.49,17,199.6,Jul-21,4773666,2019-02-27 11:35:25:186,-1.1148,0.3005,9.6193,0.0633,-0.0088,9.8064,0.0069,0.0479,0.0126,-13.16,7.38,-31.69,206.03,3.24,-0.4
9550,51.24422,-0.267533,162,11.49,17,199.6,Jul-21,4774167,2019-02-27 11:35:25:687,0.4398,-0.4374,10.2617,0.0021,-0.0411,9.8066,-0.0591,-0.0938,0.0147,-13.54,6.7,-32.06,204.87,3.26,-0.58
9551,51.24422,-0.267533,162,11.49,17,199.6,Jul-21,4774666,2019-02-27 11:35:26:186,-0.49,0.6393,9.4975,-0.0806,0.1076,9.8057,0.0463,0.0586,0.0147,-14.22,5.57,-32.56,200.99,2.98,-0.04
9552,51.24422,-0.267533,162,11.49,17,199.6,Jul-21,4775166,2019-02-27 11:35:26:686,-0.6789,0.2996,9.2328,-0.1313,0.0485,9.8057,0.0815,0.1545,0.0126,-13.16,6.32,-32.5,201.07,3.98,0.21
9553,51.24422,-0.267533,162,11.49,17,199.6,Jul-21,4775667,2019-02-27 11:35:27:187,0.4803,0.0648,9.9672,0.0402,0.0412,9.8065,0.0048,-0.0107,0.0339,-14.6,6.32,-32.06,197.89,3.66,0.9
9554,51.24422,-0.267533,162,11.49,17,199.6,Jul-21,4776166,2019-02-27 11:35:27:686,-0.5724,0.6539,9.3419,0.0839,0.1292,9.8054,0.0858,0.0458,0.0275,-13.85,5.95,-32.5,198.54,3.54,1.09
9555,51.24422,-0.267533,162,11.49,17,199.6,Jul-21,4776667,2019-02-27 11:35:28:187,-0.0957,-0.3248,9.7567,0.0284,0.0805,9.8063,-0.0485,0.0415,0.0595,-13.85,5.57,-32.19,197.26,4.25,1.65
9556,51.24422,-0.267533,162,11.49,17,199.6,Jul-21,4777167,2019-02-27 11:35:28:687,-0.3219,-0.0129,10.0851,-0.0209,-0.0161,9.8066,-0.0389,-0.0863,0.0584,-14.6,4.45,-32.63,189.83,3.93,1.76
9557,51.24422,-0.267533,162,11.49,17,199.6,Jul-21,4777666,2019-02-27 11:35:29:186,-0.1572,0.1098,9.0542,-0.0273,0.0642,9.8064,-0.0282,-0.0192,0.0712,-14.22,4.07,-32.63,188.34,4.25,2.76
9558,51.24422,-0.267533,162,11.49,17,199.6,Jul-21,4778167,2019-02-27 11:35:29:687,-0.2221,0.4892,9.3347,-0.1071,-0.0484,9.8059,-0.0165,-0.0139,0.0904,-15.35,2.63,-32.25,184.63,3.5,2.91
9559,51.24422,-0.267533,162,11.49,17,199.6,Jul-21,4778666,2019-02-27 11:35:30:186,0.0991,-0.1916,9.9953,0.0197,0.0082,9.8066,0.0176,-0.0096,0.0606,-15.67,1.93,-33.23,181.19,3.8,2.82
9560,51.24422,-0.267533,162,11.49,17,199.6,Jul-21,4779166,2019-02-27 11:35:30:686,-0.5245,-0.0302,9.6075,-0.0175,0.0433,9.8065,0.0208,0.033,0.052,-15.29,1.93,-33.23,181.17,3.91,2.86
9561,51.24422,-0.267533,162,11.49,17,199.6,Jul-21,4779666,2019-02-27 11:35:31:186,-0.0942,-0.1941,10.1853,-0.0388,-0.0027,9.8066,0.0538,0.0149,0.0595,-16.42,1.55,-32.79,180.67,3.59,3.1
9562,51.24422,-0.267533,162,11.49,17,199.6,Jul-21,4780166,2019-02-27 11:35:31:686,-0.3448,0.3643,8.9982,-0.1037,0.0552,9.8059,-0.0048,-0.0021,0.0659,-16.42,1.18,-32.79,176.84,2.98,3.43
9563,51.24422,-0.267533,162,11.49,17,199.6,Jul-21,4780666,2019-02-27 11:35:32:186,-0.78,0.2789,9.9043,-0.1522,0.1467,9.8044,0.025,0.0309,0.0765,-16.42,1.18,-32.79,175.39,2.58,4.18
9564,51.24422,-0.267533,162,11.49,17,199.6,Jul-21,4781167,2019-02-27 11:35:32:687,-0.2973,-0.2582,7.7623,0.0416,0.0585,9.8064,-0.0155,-0.1033,0.051,-16.73,0.8,-32.73,173.46,1.83,5.33
9565,51.24422,-0.267533,162,11.49,17,199.6,Jul-21,4781666,2019-02-27 11:35:33:186,-0.8972,0.1472,11.2522,-0.0107,-0.0247,9.8066,0.0261,0.1023,0.0616,-16.73,0.8,-32.29,173.79,1.28,5.24
9566,51.24422,-0.267533,162,11.49,17,199.6,Jul-21,4782166,2019-02-27 11:35:33:686,-1.1303,-0.3275,9.613,-0.2294,0.0291,9.8039,0.1028,0.033,0.0606,-17.45,-0.24,-32.85,170.11,-0.61,5.05
9567,51.24422,-0.267533,162,11.49,17,199.6,Jul-21,4782667,2019-02-27 11:35:34:187,-0.6116,0.2408,10.8053,-0.304,0.0539,9.8018,-0.0123,0.0319,0.0659,-17.07,-0.99,-33.17,165.96,-2.41,5.05
9568,51.24422,-0.267533,162,11.49,17,199.6,Jul-21,4783166,2019-02-27 11:35:34:686,0.2088,-0.5115,9.016,-0.0839,-0.1571,9.805,-0.122,-0.0085,0.051,-17.07,-1.74,-32.42,163.66,-3.94,4.19
9569,51.24422,-0.267533,162,11.49,17,199.6,Jul-21,4783667,2019-02-27 11:35:35:187,-0.5476,-0.7842,10.6572,-0.3618,-0.3041,9.7953,-0.1348,0.0128,0.0339,-17.07,-5.37,-32.79,158.68,-5.39,0.69
9570,51.24422,-0.267533,162,11.49,17,199.6,Jul-21,4784167,2019-02-27 11:35:35:687,-0.7518,-0.1938,11.1598,-0.2895,-0.1182,9.8017,-0.0666,0.1012,0.0254,-16.7,-6.87,-32.73,155.2,-5.22,-0.99
9571,51.24422,-0.267533,162,11.49,17,199.6,Jul-21,4784666,2019-02-27 11:35:36:186,0.0181,-0.1151,11.7782,-0.0419,-0.0551,9.8064,0.0623,-0.1257,-0.0034,-16.7,-6.12,-32.73,161.29,-6.58,-2.72
9572,51.24422,-0.267533,162,11.49,17,199.6,Jul-21,4785166,2019-02-27 11:35:36:686,0.7431,-1.8511,7.9013,0.4485,-0.221,9.7939,-0.0059,0.1118,-0.0023,-16.38,-5.74,-33.17,160.53,-5.79,-2.7
9573,51.24422,-0.267533,162,11.49,17,199.6,Jul-21,4785667,2019-02-27 11:35:37:187,1.7912,0.752,7.7776,0.5171,-0.0466,9.7929,-0.2061,0.3547,-0.0225,-16.7,-3.93,-33.17,171.66,-2.89,-3.04
9574,51.24422,-0.267533,162,11.49,17,199.6,Jul-21,4786167,2019-02-27 11:35:37:687,-0.9084,0.2564,9.2901,0.1293,-0.1891,9.804,0.0101,0.1268,-0.0002,-16.38,-5.06,-33.17,170.46,1.1,-3.81
9575,51.24422,-0.267533,162,11.49,17,199.6,Jul-21,4786666,2019-02-27 11:35:38:186,-0.3857,-0.2881,10.0846,0.1076,0.1508,9.8049,-0.0581,-0.0767,-0.03,-17.07,-3.93,-33.17,171.81,2.19,-2.38
9576,51.24422,-0.267533,162,11.49,17,199.6,Jul-21,4787167,2019-02-27 11:35:38:687,0.4396,-0.1694,10.3606,0.0164,-0.1052,9.8061,-0.0059,0.0213,-0.014,-17.07,-3.56,-33.54,171.46,2.88,-2.01
9577,51.24422,-0.267533,162,11.49,17,199.6,Jul-21,4787666,2019-02-27 11:35:39:186,-0.677,0.2572,10.7009,-0.023,-0.0694,9.8064,-0.0101,0.0948,-0.0108,-16.7,-3.56,-33.54,170.92,3.9,-1.55
9578,51.24422,-0.267533,162,11.49,17,199.6,Jul-21,4788166,2019-02-27 11:35:39:686,0.5557,-0.5732,7.9374,0.0825,0.0768,9.806,-0.1934,0.2035,-0.0321,-16.7,-4.31,-33.1,171.51,3.83,-1.97
9579,51.24422,-0.267533,162,11.49,17,199.6,Jul-21,4788667,2019-02-27 11:35:40:187,-0.3684,0.5443,9.1337,0.0278,0.0488,9.8065,0.1827,0.0809,0.0009,-17.07,-3.93,-32.73,170.26,4.35,-1.15
9580,51.24422,-0.267533,162,11.49,17,199.6,Jul-21,4789166,2019-02-27 11:35:40:686,0.3853,-0.848,9.9274,0.0628,-0.0541,9.8063,0.0623,0.1012,0.0051,-16.7,-3.56,-33.6,170.89,4.77,-1.4
9581,51.24422,-0.267533,162,11.49,17,199.6,Jul-21,4789666,2019-02-27 11:35:41:186,0.2596,-0.489,8.6557,0.1096,0.0017,9.806,0.0133,-0.0916,-0.0108,-16.38,-2.81,-33.1,171.59,4.81,-0.41
9582,51.24422,-0.267533,162,11.49,17,199.6,Jul-21,4790166,2019-02-27 11:35:41:686,-1.5906,0.3652,9.5307,-0.0019,-0.1027,9.8061,0.0389,-0.0053,-0.014,-17.45,-3.56,-33.1,169.74,4.52,-0.8
9583,51.24422,-0.267533,162,11.49,17,199.6,Jul-21,4790667,2019-02-27 11:35:42:187,1.0646,-0.1926,9.3293,-0.0244,0.1116,9.806,0.0144,0.0873,0.0041,-17.45,-2.43,-33.54,176.59,4.62,-1.39
9584,51.24422,-0.267533,162,11.49,17,199.6,Jul-21,4791166,2019-02-27 11:35:42:686,0.3973,0.3473,9.5571,0.1559,-0.0048,9.8054,-0.0613,-0.016,-0.0108,-17.45,-2.81,-33.17,172.79,6.42,-0.69
9585,51.24422,-0.267533,162,11.49,17,199.6,Jul-21,4791667,2019-02-27 11:35:43:187,0.5319,0.1662,11.0463,0.5337,-0.1956,9.7902,-0.0549,0.0128,0.0201,-16.7,-3.56,-33.1,171.92,9.66,-1.44
9586,51.24422,-0.267533,162,11.49,17,199.6,Jul-21,4792166,2019-02-27 11:35:43:686,-0.5358,-0.13,11.1746,0.3384,-0.1899,9.799,-0.0016,0.0298,-0.0215,-17.07,-5.74,-31.85,168.72,13.04,-2.23
9587,51.24422,-0.267533,162,11.49,17,199.6,Jul-21,4792666,2019-02-27 11:35:44:186,1.3017,0.0591,7.5644,-0.009,-0.0242,9.8066,-0.0581,0.0383,0.0488,-17.07,-4.31,-33.48,173.76,13.02,-2.38
9588,51.24422,-0.267533,162,11.49,17,199.6,Jul-21,4793167,2019-02-27 11:35:44:687,-0.472,0.2849,10.0807,0.1641,-0.1342,9.8044,0.0059,0.0064,-0.0204,-17.07,-4.99,-33.1,171.2,13.55,-2.15
9589,51.24422,-0.267533,162,11.49,17,199.6,Jul-21,4793666,2019-02-27 11:35:45:186,-0.2267,0.1862,10.0395,0.0244,-0.1688,9.8052,-0.008,0.0671,0.0158,-16.7,-6.49,-33.54,171.74,15.63,-3.83
9590,51.24422,-0.267533,162,11.49,17,199.6,Jul-21,4794166,2019-02-27 11:35:45:686,-0.6874,0.3953,9.3531,-0.0655,-0.0684,9.8062,0.0836,0.0511,0.0019,-16.7,-6.49,-33.1,172.84,15.91,-4.82
9591,51.24422,-0.267533,162,11.49,17,199.6,Jul-21,4794666,2019-02-27 11:35:46:186,-0.6352,-0.6183,11.3802,-0.0868,0.1783,9.8046,0.1369,0.0852,-0.0013,-17.07,-7.24,-33.1,170.74,15.14,-4.99
9592,51.24422,-0.267533,162,11.49,17,199.6,Jul-21,4795166,2019-02-27 11:35:46:686,0.0165,0.5744,9.9682,-0.1228,-0.1502,9.8047,0.0506,-0.0181,-0.0087,-16.7,-7.93,-33.1,169.76,14.57,-6.01
9593,51.24422,-0.267533,162,11.49,17,199.6,Jul-21,4795666,2019-02-27 11:35:47:186,-0.5593,-0.2824,9.5047,-0.0189,-0.0293,9.8066,0.0687,0.0245,0.0563,-17.45,-7.62,-33.1,168.26,14.11,-4.94
9594,51.24422,-0.267533,162,11.49,17,199.6,Jul-21,4796166,2019-02-27 11:35:47:686,0.2387,-0.0144,10.273,0.1407,0.1164,9.8049,0.0442,-0.0192,0.0051,-16.7,-6.49,-33.92,172.24,14.74,-4.3
9595,51.24422,-0.267533,162,11.49,17,199.6,Jul-21,4796667,2019-02-27 11:35:48:187,-0.6828,-0.584,10.7285,0.1019,0.0449,9.806,-0.0485,-0.0842,-0.0289,-16.7,-6.49,-33.1,171.42,14.33,-3.92
9596,51.24422,-0.267533,162,11.49,17,199.6,Jul-21,4797167,2019-02-27 11:35:48:687,-0.3883,0.2487,9.4541,-0.1133,-0.0124,9.806,0.0048,-0.0309,-0.0151,-16.38,-5.74,-33.48,170.69,14.88,-3.56
9597,51.24422,-0.267533,162,11.49,17,199.6,Jul-21,4797667,2019-02-27 11:35:49:187,-0.8033,0.6096,9.6213,-0.2333,0.1405,9.8029,0.073,0.0351,-0.0108,-16.01,-4.62,-33.1,172.07,12.77,-3.12
9598,51.24422,-0.267533,162,11.49,17,199.6,Jul-21,4798166,2019-02-27 11:35:49:686,-0.6194,-0.5656,10.2566,-0.0758,0.063,9.8062,0.0666,-0.0075,-0.0241,-16.01,-4.99,-33.92,172.86,11.72,-3.63
9599,51.24422,-0.267533,162,11.49,17,199.6,Jul-21,4798667,2019-02-27 11:35:50:187,-1.2065,0.1871,10.0076,-0.2645,0.0384,9.803,-0.0272,-0.0064,-0.0198,-15.63,-4.31,-34.79,174.81,9.67,-3.31
9600,51.24422,-0.267533,162,11.49,17,199.6,Jul-21,4799167,2019-02-27 11:35:50:687,-0.691,0.1857,9.975,-0.0778,-0.0742,9.8061,0.0101,-0.0171,-0.0294,-14.51,-4.99,-34.35,171.57,8.18,-3.49
9601,51.24422,-0.267533,162,11.49,17,199.6,Jul-21,4799666,2019-02-27 11:35:51:186,-0.1519,0.2375,9.8777,0.0074,0.0857,9.8063,-0.0005,-0.0096,-0.0198,-15.26,-4.31,-35.6,175.7,7.79,-3.99
9602,51.24422,-0.267533,162,11.49,17,199.6,Jul-21,4800166,2019-02-27 11:35:51:686,0.1374,-0.0459,9.7917,-0.064,-0.0087,9.8064,-0.0048,-0.0405,-0.0241,-15.26,-3.56,-36.79,174.44,6.87,-3.27
9603,51.24422,-0.267533,162,11.49,17,199.6,Jul-21,4800666,2019-02-27 11:35:52:186,-0.8157,0.1301,9.7676,-0.2912,0.0274,9.8023,-0.0133,-0.0117,-0.0571,-15.63,-3.18,-37.23,177.38,5.16,-3.27
9604,51.24422,-0.267533,162,11.49,17,199.6,Jul-21,4801166,2019-02-27 11:35:52:686,-0.7169,-0.2175,9.7733,-0.2104,-0.0694,9.8041,0.0005,-0.0192,-0.104,-16.38,-3.18,-38.04,178.8,2.28,-3.96
9605,51.24422,-0.267533,162,11.49,17,199.6,Jul-21,4801666,2019-02-27 11:35:53:186,-0.9763,-0.7025,9.9022,-0.4483,-0.0218,9.7964,0.0655,0.0234,-0.2212,-16.7,-2.81,-36.42,179.19,0.21,-4.38
9606,51.24422,-0.267533,162,11.49,17,199.6,Jul-21,4802166,2019-02-27 11:35:53:686,-0.5448,-0.2401,10.4505,-0.3263,-0.0994,9.8007,0.0314,-0.0458,-0.3266,-18.2,0.51,-35.98,193.15,-2.41,-4.55
9607,51.24422,-0.267533,162,11.49,17,199.6,Jul-21,4802667,2019-02-27 11:35:54:187,0.418,-1.7818,9.1802,0.115,-0.2694,9.8023,-0.0581,-0.0831,-0.4619,-16.7,4.58,-34.21,211.58,-5.91,-5.58
9608,51.24422,-0.267533,162,11.49,17,199.6,Jul-21,4803167,2019-02-27 11:35:54:687,1.325,-0.142,10.4288,-0.0046,-0.1177,9.8059,0.122,-0.0192,-0.5194,-14.51,6.83,-33.84,224.66,-6.16,-7.28
9609,51.24422,-0.267533,162,11.49,17,199.6,Jul-21,4803667,2019-02-27 11:35:55:187,1.2043,-0.2487,9.994,0.343,-0.3773,9.7934,0.0623,0.0138,-0.5312,-9.09,12.28,-33.65,255.2,-7.64,-10.59
9610,51.24422,-0.267533,162,11.49,17,199.6,Jul-21,4804166,2019-02-27 11:35:55:686,0.2711,0.6526,9.8875,-0.2362,-0.1321,9.8029,0.058,-0.049,-0.3607,-5.83,13.96,-34.07,266.51,-8.74,-9.44
9611,51.24422,-0.267533,162,11.49,17,199.6,Jul-21,4804666,2019-02-27 11:35:56:186,0.3435,0.2904,9.7847,-0.0192,-0.1244,9.8058,-0.0368,0.1022,-0.2489,-3.26,15.09,-33.25,275.16,-9.03,-8.82
9612,51.24422,-0.267533,162,11.49,17,199.6,Jul-21,4805166,2019-02-27 11:35:56:686,-0.7998,0.4686,9.6483,-0.3347,-0.0147,9.8009,-0.0645,0.1278,-0.0102,-1.48,16.05,-34.15,282.34,-9.61,-6.66
9613,51.24422,-0.267533,162,11.49,17,199.6,Jul-21,4805666,2019-02-27 11:35:57:186,-1.0822,0.919,9.1675,-0.1951,0.0469,9.8046,0.0282,-0.0693,0.0105,-2.16,16.05,-34.15,279.12,-9.02,-5.58
9614,51.24422,-0.267533,162,11.49,17,199.6,Jul-21,4806166,2019-02-27 11:35:57:686,-0.9836,0.3741,9.5519,-0.2216,0.1287,9.8033,0.0218,-0.049,0.0105,-1.48,16.05,-33.72,279.49,-7.08,-3.9
9615,51.24422,-0.267533,162,11.49,17,199.6,Jul-21,4806666,2019-02-27 11:35:58:186,-0.654,0.6012,9.7506,-0.3076,0.1127,9.8012,-0.0506,0.0831,0.0339,-2.54,15.68,-34.15,271.92,-6.13,-2.23
9616,51.24422,-0.267533,162,11.49,17,199.6,Jul-21,4807166,2019-02-27 11:35:58:686,0.4224,-0.0552,8.9629,-0.1182,0.1163,9.8052,0.0122,0.0469,0.0318,-3.29,17.49,-32.9,271.48,-6.07,-1.47
9617,51.24422,-0.267533,162,11.49,17,199.6,Jul-21,4807666,2019-02-27 11:35:59:186,-0.5783,-0.0064,10.7628,-0.0584,0.0214,9.8065,-0.0069,0.0277,0.0605,-3.66,15.3,-34.15,266.64,-5.23,-0.46
9618,51.24422,-0.267533,162,11.49,17,199.6,Jul-21,4808167,2019-02-27 11:35:59:687,0.4872,-0.0539,10.0786,0.0502,-0.1479,9.8054,-0.008,0.0224,0.051,-4.41,13.87,-34.15,265.33,-4.75,-0.94
9619,51.24422,-0.267533,162,11.49,17,199.6,Jul-21,4808666,2019-02-27 11:36:00:186,0.1421,0.5991,10.0363,-0.0391,0.1399,9.8056,0.0825,0.049,0.0051,-6.23,14.18,-34.15,257.77,-4.78,-1.04
9620,51.24422,-0.267533,162,11.49,17,199.6,Jul-21,4809166,2019-02-27 11:36:00:686,-0.4702,-0.0965,11.0726,-0.041,0.0342,9.8065,-0.0144,-0.0149,0.0105,-5.48,14.55,-34.15,262.18,-4.88,-0.52
9621,51.24422,-0.267533,162,11.49,17,199.6,Jul-21,4809667,2019-02-27 11:36:01:187,0.5121,-0.2509,9.3501,0.1158,0.1141,9.8053,-0.0549,-0.0703,-0.0119,-5.1,14.55,-34.15,260.7,-4.12,-1.1
9622,51.24422,-0.267533,162,11.49,17,199.6,Jul-21,4810167,2019-02-27 11:36:01:687,0.2621,0.0903,8.8856,-0.0127,0.1031,9.8061,0.0346,0.0266,-0.0076,-5.1,14.55,-33.72,257.57,-2.54,-1.57
9623,51.24422,-0.267533,162,11.49,17,199.6,Jul-21,4810667,2019-02-27 11:36:02:187,0.2455,0.8609,9.2601,-0.0954,0.3157,9.8011,0.0644,-0.0618,-0.0076,-2.54,15.68,-33.72,260.03,-0.21,-0.59
9624,51.24422,-0.267533,162,11.49,17,199.6,Jul-21,4811166,2019-02-27 11:36:02:686,-0.4175,0.6813,10.9237,-0.1662,0.1211,9.8045,0.1081,0.1694,0.002,-2.91,17.18,-34.15,255.49,1.98,1.39
9625,51.24422,-0.267533,162,11.49,17,199.6,Jul-21,4811666,2019-02-27 11:36:03:186,-0.7129,0.179,6.8234,0.1098,0.1564,9.8048,0.057,0.1097,-0.0012,-3.29,16.8,-33.28,256.08,1.63,1.81
9626,51.24422,-0.267533,162,11.49,17,199.6,Jul-21,4812166,2019-02-27 11:36:03:686,0.4463,-0.7423,11.9702,0.0035,0.0457,9.8065,0.0165,-0.0213,-0.0023,-3.66,16.8,-33.28,251.06,2.67,1.4
9627,51.24422,-0.267533,162,11.49,17,199.6,Jul-21,4812666,2019-02-27 11:36:04:186,-0.2997,-0.3908,10.2688,-0.1098,0.0825,9.8057,0.0048,-0.0011,-0.0321,-3.29,17.87,-33.72,253.56,3.18,2.24
9628,51.24422,-0.267533,162,11.49,17,199.6,Jul-21,4813166,2019-02-27 11:36:04:686,0.0389,-0.3386,10.7829,-0.0318,-0.0591,9.8064,-0.0453,-0.1151,-0.0098,-3.29,18.24,-32.84,254.44,2.79,2.32
9629,51.24422,-0.267533,162,11.49,17,199.6,Jul-21,4813667,2019-02-27 11:36:05:187,-0.0776,0.0801,9.355,0.0323,-0.0312,9.8065,-0.0251,0.0692,-0.0204,-3.29,17.87,-33.28,253.6,3.32,2.07
9630,51.24422,-0.267533,162,11.49,17,199.6,Jul-21,4814166,2019-02-27 11:36:05:686,0.0374,-0.4832,10.3885,0.0441,0.0739,9.8063,-0.0709,-0.0575,-0.0289,-2.91,18.62,-32.9,254.53,3.2,2.34
9631,51.24422,-0.267533,162,11.49,17,199.6,Jul-21,4814666,2019-02-27 11:36:06:186,0.3052,0.3916,9.5551,0.1444,-0.0982,9.8051,-0.0315,0.1033,-0.0087,-2.54,17.87,-32.9,252.85,3.69,2.2
9632,51.24422,-0.267533,162,11.49,17,199.6,Jul-21,4815166,2019-02-27 11:36:06:686,0.0508,-0.0851,8.6021,0.0284,0.0633,9.8064,-0.0655,-0.033,0.0083,-2.16,17.49,-33.28,256.81,3.05,1.51
9633,51.24422,-0.267533,162,11.49,17,199.6,Jul-21,4815666,2019-02-27 11:36:07:186,-0.288,-0.7476,10.7613,0.0251,-0.0664,9.8064,0.0346,0.0479,0.0083,-2.54,17.18,-32.84,252.8,3.45,1.43
9634,51.24422,-0.267533,162,11.49,17,199.6,Jul-21,4816166,2019-02-27 11:36:07:686,-0.1654,-0.6924,10.282,0.0685,-0.0514,9.8063,-0.0464,-0.0213,0.002,-2.91,16.8,-33.72,253.98,2.76,1.34
9635,51.24422,-0.267533,162,11.49,17,199.6,Jul-21,4816666,2019-02-27 11:36:08:186,0.0726,-0.0813,9.9743,0.0555,-0.0382,9.8064,0.0207,-0.016,-0.0098,-3.66,15.68,-34.09,250.84,2.45,0.5
9636,51.24422,-0.267533,162,11.49,17,199.6,Jul-21,4817167,2019-02-27 11:36:08:687,-0.8185,-0.3609,10.0827,-0.1203,-0.0965,9.8054,-0.0496,-0.081,0.0201,-3.29,15.68,-34.09,253.84,2.85,-0.28
9637,51.24422,-0.267533,162,11.49,17,199.6,Jul-21,4817666,2019-02-27 11:36:09:186,-0.1497,0.1185,9.5324,0.0781,0.0627,9.8061,-0.0038,-0.0277,0.002,-3.66,14.55,-34.53,249.64,2.61,-0.08
9638,51.24422,-0.267533,162,11.49,17,199.6,Jul-21,4818166,2019-02-27 11:36:09:686,0.2751,0.1154,10.1157,-0.061,0.085,9.8061,0.0207,-0.065,0.0201,-3.66,14.93,-34.53,250.88,2.29,-0.87
9639,51.24422,-0.267533,162,11.49,17,199.6,Jul-21,4818666,2019-02-27 11:36:10:186,0.0925,-0.4791,12.9894,-0.1728,-0.1013,9.8046,-0.0006,-0.0405,-0.0012,-3.66,15.3,-34.97,249.8,2.64,-0.37
9640,51.24422,-0.267533,162,11.49,17,199.6,Jul-21,4819166,2019-02-27 11:36:10:686,-0.4099,-0.0546,10.5064,-0.0736,0.1156,9.8057,0.057,-0.0778,0.0041,-4.41,16.43,-34.09,250.89,2.25,0.99
9641,51.24422,-0.267533,162,11.49,17,199.6,Jul-21,4819666,2019-02-27 11:36:11:186,-0.3872,-0.5028,10.8486,-0.1362,0.077,9.8054,-0.0112,-0.0916,0.0563,-4.41,16.05,-33.65,249.91,2.35,2.0
9642,51.24422,-0.267533,162,11.49,17,199.6,Jul-21,4820166,2019-02-27 11:36:11:686,-0.9083,-0.0815,10.0865,-0.1543,0.2101,9.8032,-0.007,-0.0884,0.0755,-4.41,16.05,-34.09,246.03,3.24,4.23
9643,51.24422,-0.267533,162,11.49,17,199.6,Jul-21,4820667,2019-02-27 11:36:12:187,0.0622,-0.2732,8.9771,0.0722,0.2088,9.8042,-0.0581,-0.1321,0.101,-5.48,14.55,-34.53,241.55,2.63,4.4
9644,51.24422,-0.267533,162,11.49,17,199.6,Jul-21,4821166,2019-02-27 11:36:12:686,1.0483,0.5131,8.4009,-0.1468,-0.1242,9.8048,-0.0251,-0.0852,0.1021,-5.85,14.55,-34.53,235.18,3.91,4.61
9645,51.24422,-0.267533,162,11.49,17,199.6,Jul-21,4821666,2019-02-27 11:36:13:186,-0.9245,-0.8157,8.1925,0.0587,-0.034,9.8064,-0.0453,0.0032,0.0925,-6.25,12.96,-35.09,232.7,2.86,4.5
9646,51.24422,-0.267533,162,11.49,17,199.6,Jul-21,4822167,2019-02-27 11:36:13:687,1.3526,-0.4623,11.0159,-0.1545,-0.267,9.8018,-0.0762,-0.049,0.0904,-6.63,10.78,-35.91,226.34,3.73,1.91
9647,51.24422,-0.267533,162,11.49,17,199.6,Jul-21,4822666,2019-02-27 11:36:14:186,0.2844,0.7006,9.0192,0.0709,0.1288,9.8055,0.0197,0.0437,0.0382,-8.07,10.4,-36.28,222.45,2.81,1.69
9648,51.24422,-0.267533,162,11.49,17,199.6,Jul-21,4823166,2019-02-27 11:36:14:686,0.7337,-0.5182,10.7646,-0.0858,-0.0531,9.8061,-0.0027,0.0064,0.0573,-8.07,10.78,-35.91,226.29,2.53,1.53
9649,51.24422,-0.267533,162,11.49,17,199.6,Jul-21,4823667,2019-02-27 11:36:15:187,-0.4427,-0.0281,12.3671,-0.1539,0.1492,9.8043,0.1379,0.0202,0.0392,-9.19,11.53,-35.03,227.08,1.96,1.68
9650,51.24422,-0.267533,162,11.49,17,199.6,Jul-21,4824166,2019-02-27 11:36:15:686,1.1665,-0.1316,10.7317,0.3616,0.0347,9.7999,-0.105,-0.1097,0.0126,-9.19,11.84,-35.09,224.85,0.73,4.19
9651,51.24422,-0.267533,162,11.49,17,199.6,Jul-21,4824666,2019-02-27 11:36:16:186,0.6877,-0.0369,11.2711,0.4082,-0.1817,9.7965,-0.0251,-0.0117,-0.0023,-9.94,11.84,-35.03,224.72,1.68,1.76
9652,51.24422,-0.267533,162,11.49,17,199.6,Jul-21,4825166,2019-02-27 11:36:16:686,0.7214,-0.6384,12.5625,0.132,-0.0664,9.8055,-0.0123,-0.0789,-0.03,-10.32,12.21,-34.66,225.28,2.33,0.76
9653,51.24422,-0.267533,162,11.49,17,199.6,Jul-21,4825666,2019-02-27 11:36:17:186,0.0938,-0.4992,10.7725,0.0895,-0.3014,9.8016,0.057,-0.0352,-0.0609,-11.0,12.21,-34.66,226.51,1.44,-0.85
9654,51.24422,-0.267533,162,11.49,17,199.6,Jul-21,4826166,2019-02-27 11:36:17:686,0.5602,0.0793,8.2148,0.1566,0.0349,9.8053,0.0591,0.1257,-0.0641,-11.0,11.84,-34.72,227.51,1.67,-1.82
9655,51.24422,-0.267533,162,11.49,17,199.6,Jul-21,4826666,2019-02-27 11:36:18:186,-0.1802,0.439,9.1187,-0.1166,0.0994,9.8055,0.0591,-0.0032,-0.0204,-10.63,13.71,-34.66,230.9,2.63,-2.41
9656,51.24422,-0.267533,162,11.49,17,199.6,Jul-21,4827167,2019-02-27 11:36:18:687,-0.6319,0.2698,10.9638,-0.072,0.0753,9.8061,-0.1113,0.0351,0.0265,-10.63,13.71,-34.22,229.9,2.65,-1.51
9657,51.24422,-0.267533,162,11.49,17,199.6,Jul-21,4827667,2019-02-27 11:36:19:187,-0.3415,-0.2178,8.5814,0.0028,0.0091,9.8066,-0.0623,0.0351,0.0392,-10.63,12.21,-34.66,224.71,2.76,-0.88
9658,51.24422,-0.267533,162,11.49,17,199.6,Jul-21,4828166,2019-02-27 11:36:19:686,-0.503,0.2732,8.6312,-0.0149,-0.1546,9.8054,-0.0016,0.0192,0.0382,-11.75,11.15,-34.66,221.92,2.06,-1.46
9659,51.24422,-0.267533,162,11.49,17,199.6,Jul-21,4828667,2019-02-27 11:36:20:187,-0.3705,1.51,8.614,-0.2808,0.105,9.8021,0.1038,0.033,0.0552,-11.38,10.78,-35.03,224.09,1.78,-1.14
9660,51.24422,-0.267533,162,11.49,17,199.6,Jul-21,4829167,2019-02-27 11:36:20:687,-0.1949,0.9066,11.2699,0.0492,0.294,9.8021,0.0016,-0.0096,0.1202,-12.88,11.53,-34.66,217.43,2.41,1.5
9661,51.24422,-0.267533,162,11.49,17,199.6,Jul-21,4829666,2019-02-27 11:36:21:186,-1.4752,1.344,8.8852,-0.3,0.1168,9.8014,0.0591,-0.0288,0.149,-14.02,11.03,-33.87,211.17,1.78,3.15
9662,51.24422,-0.267533,162,11.49,17,199.6,Jul-21,4830166,2019-02-27 11:36:21:686,-1.6678,0.5873,10.7955,-0.1348,0.0468,9.8056,-0.0623,-0.0341,0.1191,-15.14,8.78,-34.37,201.21,0.08,5.27
9663,51.24422,-0.267533,162,11.49,17,199.6,Jul-21,4830666,2019-02-27 11:36:22:186,0.0292,0.6158,10.363,-0.4985,-0.1863,9.7922,0.0698,0.1118,0.1191,-16.64,7.35,-34.43,194.16,-3.03,5.31
9664,51.24422,-0.267533,162,11.49,17,199.6,0 / 21,4831169,2019-02-27 11:36:22:689,0.9714,0.1144,8.1534,0.2823,0.1129,9.8019,0.0442,0.0756,0.0573,-15.89,6.6,-34.06,194.73,-1.33,5.03
9665,51.24422,-0.267533,162,11.49,17,199.6,0 / 21,4831666,2019-02-27 11:36:23:186,1.0849,-1.8748,9.8827,0.1539,-0.3465,9.7993,-0.0283,-0.2749,0.0105,-15.97,5.7,-35.99,193.68,0.99,3.1
9666,51.24422,-0.267533,162,11.49,17,199.6,Jan-21,4832166,2019-02-27 11:36:23:686,0.5217,-1.9038,9.9758,-0.0374,-0.4293,9.7972,-0.0261,0.0,-0.0577,-16.35,5.32,-35.99,194.1,1.82,1.11
9667,51.24422,-0.267533,162,11.49,17,199.6,Jan-21,4832667,2019-02-27 11:36:24:187,0.3033,-1.6028,9.7052,0.1237,-0.4023,9.7976,-0.0038,-0.0767,-0.1259,-17.1,5.7,-35.12,201.06,0.99,-1.27
9668,51.24422,-0.267533,162,11.49,17,199.6,Apr-21,4833166,2019-02-27 11:36:24:686,1.2954,-1.4664,10.3872,0.2009,-0.4386,9.7948,-0.0549,-0.0235,-0.1994,-15.6,7.89,-35.18,215.32,1.01,-6.24
9669,51.24422,-0.267533,162,11.49,17,199.6,Apr-21,4833666,2019-02-27 11:36:25:186,0.0809,-0.8507,10.4873,0.4546,-0.8027,9.7632,-0.024,0.0266,-0.2324,-14.9,9.21,-35.67,226.45,0.46,-11.61
9670,51.24422,-0.267533,162,11.49,17,199.6,May-21,4834166,2019-02-27 11:36:25:686,0.0881,-0.3637,11.2779,0.1733,-0.3536,9.7987,0.0218,0.0341,-0.2548,-12.72,11.02,-35.23,240.09,-2.62,-15.85
9671,51.24422,-0.267533,162,11.49,17,199.6,May-21,4834666,2019-02-27 11:36:26:186,-0.0449,-0.9116,9.9798,0.1439,-0.3573,9.7991,-0.0325,0.0149,-0.2335,-12.4,12.36,-36.02,247.78,-5.58,-16.73
9672,51.233967,-0.264961,122,9.99,26,229.0,Jul-21,4835166,2019-02-27 11:36:26:686,-0.7454,-0.0088,9.8586,-0.0654,-0.1581,9.8052,0.0431,-0.0117,-0.1983,-11.65,12.36,-35.21,249.84,-7.19,-18.31
9673,51.233967,-0.264961,122,9.99,26,229.0,Jul-21,4835666,2019-02-27 11:36:27:186,-2.5949,0.6377,11.2194,-0.4688,0.0842,9.7951,-0.0591,0.0426,-0.0375,-10.96,14.55,-34.71,255.9,-9.4,-15.77
9674,51.233967,-0.264961,122,9.99,26,229.0,Jul-21,4836166,2019-02-27 11:36:27:686,-0.9791,1.8839,7.7166,-0.1612,0.6716,9.7823,-0.0474,-0.049,-0.0172,-10.66,14.36,-35.07,255.16,-9.58,-12.96
9675,51.233967,-0.264961,122,9.99,26,229.0,Jul-21,4836666,2019-02-27 11:36:28:186,0.3241,1.0229,9.189,-0.3201,0.798,9.7689,-0.0773,0.0831,-0.0066,-11.03,14.74,-35.51,243.8,-2.2,-7.75
9676,51.233967,-0.264961,122,9.99,26,229.0,0 / 21,4837167,2019-02-27 11:36:28:687,-0.628,1.3061,8.2788,0.0746,0.4195,9.7974,-0.0389,-0.0107,-0.0002,-11.03,14.74,-36.32,240.08,0.19,-7.06
9677,51.233967,-0.264961,122,9.99,26,229.0,0 / 21,4837667,2019-02-27 11:36:29:187,0.2031,1.2049,10.1231,-0.0274,0.4551,9.796,-0.0304,-0.147,0.0233,-9.91,14.74,-36.32,239.33,1.63,-5.7
9678,51.233967,-0.264961,122,9.99,26,229.0,0 / 21,4838166,2019-02-27 11:36:29:686,-0.2246,0.1176,10.0636,-0.0765,-0.065,9.8061,0.0847,-0.0746,0.0296,-10.28,13.68,-36.7,234.05,3.26,-4.07
9679,51.233967,-0.264961,122,9.99,26,229.0,0 / 21,4838666,2019-02-27 11:36:30:186,-0.0565,-0.5741,9.9767,-0.1294,0.2248,9.8032,-0.0006,-0.0203,0.0222,-9.91,14.43,-35.89,231.84,3.94,-2.86
9680,51.233967,-0.264961,122,9.99,26,229.0,Apr-21,4839166,2019-02-27 11:36:30:686,-0.9553,-1.4046,10.5731,-0.0466,0.027,9.8065,-0.0027,0.017,0.0094,-9.91,14.74,-35.89,230.72,4.41,-0.88
9681,51.233967,-0.264961,122,9.99,26,229.0,Apr-21,4839667,2019-02-27 11:36:31:187,0.131,0.3554,9.4039,-0.0379,0.1452,9.8055,0.0367,-0.212,0.0094,-9.16,14.74,-35.82,231.41,4.93,-0.17
9682,51.233967,-0.264961,122,9.99,26,229.0,May-21,4840167,2019-02-27 11:36:31:687,-0.4442,-0.7485,10.649,-0.0721,0.0956,9.8059,-0.0219,-0.1193,0.0009,-10.28,15.49,-35.82,228.99,4.01,0.97
9683,51.233967,-0.264961,122,9.99,26,229.0,May-21,4840666,2019-02-27 11:36:32:186,-0.2623,-0.8465,9.7627,0.1612,-0.0597,9.8051,-0.0698,0.0756,-0.0013,-9.91,15.11,-36.26,228.66,4.49,0.71
9684,51.233967,-0.264961,122,9.99,26,229.0,Jun-21,4841166,2019-02-27 11:36:32:686,0.4329,0.4545,8.5815,0.26,0.2288,9.8005,0.0133,-0.0362,-0.0023,-9.91,15.86,-36.2,230.9,4.61,0.27
9685,51.233967,-0.264961,122,9.99,26,229.0,Jun-21,4841667,2019-02-27 11:36:33:187,0.2885,0.4585,9.0561,0.2555,0.3678,9.7964,0.009,-0.1236,-0.0098,-8.1,15.49,-36.57,227.16,9.22,0.13
9686,51.233967,-0.264961,122,9.99,26,229.0,Jun-21,4842166,2019-02-27 11:36:33:686,1.2829,0.2036,9.6385,0.3669,0.1855,9.798,-0.0091,-0.0416,-0.0049,-6.97,14.8,-36.64,227.62,11.04,-0.42
9687,51.233967,-0.264961,122,9.99,26,229.0,Jun-21,4842666,2019-02-27 11:36:34:186,0.7847,0.6033,10.1389,0.132,0.115,9.8051,-0.0059,0.017,0.0771,-6.97,15.49,-36.57,226.1,13.28,-1.29
9688,51.233967,-0.264961,122,9.99,26,229.0,Jun-21,4843167,2019-02-27 11:36:34:687,-0.7042,-0.157,9.8916,0.0074,0.1412,9.8056,0.0538,0.0224,0.01,-7.72,15.49,-36.57,221.64,15.93,-1.23
9689,51.233967,-0.264961,122,9.99,26,229.0,Jun-21,4843667,2019-02-27 11:36:35:187,-0.6782,-1.0736,9.5117,-0.05,-0.1277,9.8057,-0.0293,-0.0096,0.0047,-8.1,15.11,-37.01,222.64,15.31,-1.56
9690,51.233967,-0.264961,122,9.99,26,229.0,Jun-21,4844167,2019-02-27 11:36:35:687,-0.7357,-0.769,9.8577,-0.1046,-0.1276,9.8053,0.0176,0.0128,0.0036,-7.72,15.49,-37.01,224.9,13.63,-2.04
9691,51.233967,-0.264961,122,9.99,26,229.0,Jun-21,4844667,2019-02-27 11:36:36:187,-0.5788,-0.3654,9.9989,-0.0468,-0.1212,9.8058,0.0026,-0.0011,0.0057,-7.35,14.8,-37.01,227.29,12.87,-1.86
9692,51.233967,-0.264961,122,9.99,26,229.0,Jun-21,4845166,2019-02-27 11:36:36:686,-0.3544,-0.5317,9.8106,-0.0597,-0.0737,9.8062,-0.0144,-0.0213,0.0036,-6.6,14.8,-37.39,228.45,12.16,-2.15
9693,51.233967,-0.264961,122,9.99,26,229.0,Jun-21,4845666,2019-02-27 11:36:37:186,-0.046,-0.0172,10.0028,0.0007,-0.0901,9.8062,-0.0016,0.0096,0.0003,-7.35,14.8,-37.39,230.04,11.21,-2.53
9694,51.233967,-0.264961,122,9.99,26,229.0,Jun-21,4846166,2019-02-27 11:36:37:686,-1.207,-1.3355,9.9034,-0.0015,-0.004,9.8066,-0.0069,0.0138,0.0046,-6.97,14.43,-37.01,228.31,11.19,-2.54
9695,51.233967,-0.264961,122,9.99,26,229.0,Jun-21,4846667,2019-02-27 11:36:38:187,-0.4693,-0.4346,9.7058,-0.1716,-0.2012,9.8031,0.0016,0.0096,0.0045,-6.97,14.8,-37.39,235.53,7.02,-2.48
9696,51.233967,-0.264961,122,9.99,26,229.0,Jun-21,4847167,2019-02-27 11:36:38:687,-0.3594,-0.5764,9.9086,-0.0944,-0.1305,9.8053,-0.0069,-0.017,0.0013,-7.72,14.43,-36.57,233.21,5.81,-2.44
9697,51.233967,-0.264961,122,9.99,26,229.0,Jun-21,4847667,2019-02-27 11:36:39:187,-0.1519,-0.3662,9.638,-0.0702,-0.113,9.8057,-0.0048,0.0032,0.0024,-6.97,14.8,-37.39,238.75,4.87,-2.46
9698,51.233967,-0.264961,122,9.99,26,229.0,Jun-21,4848167,2019-02-27 11:36:39:687,-0.2781,-0.163,9.9562,-0.0396,-0.0678,9.8063,0.0048,-0.0096,0.0034,-6.97,14.8,-37.39,240.94,3.5,-2.44
9699,51.233967,-0.264961,122,9.99,26,229.0,Jun-21,4848666,2019-02-27 11:36:40:186,0.0038,-0.0785,9.6646,-0.065,-0.1266,9.8056,0.0005,-0.0149,-0.0009,-6.97,15.18,-36.57,242.36,2.67,-2.47
9700,51.233967,-0.264961,122,9.99,26,229.0,Jun-21,4849166,2019-02-27 11:36:40:686,0.0025,0.3185,9.8198,-0.015,-0.0282,9.8066,0.0026,-0.0128,0.0001,-6.97,14.8,-36.57,242.81,2.4,-2.47
9701,51.233967,-0.264961,122,9.99,26,229.0,Jun-21,4849667,2019-02-27 11:36:41:187,0.0932,0.0147,9.6274,-0.01,-0.0217,9.8066,0.0112,-0.0107,0.0023,-7.72,14.8,-36.51,240.69,2.08,-2.48
9702,51.233967,-0.264961,122,9.99,26,229.0,Jun-21,4850166,2019-02-27 11:36:41:686,0.0956,0.3063,9.7863,-0.0056,-0.0114,9.8066,-0.0123,-0.0021,0.0033,-7.35,14.8,-36.95,243.58,1.98,-2.52
9703,51.233967,-0.264961,122,9.99,26,229.0,Jun-21,4850667,2019-02-27 11:36:42:187,-0.0073,0.1734,9.8187,-0.0006,-0.0007,9.8067,0.0016,-0.0234,0.0022,-6.6,14.8,-37.39,243.72,1.9,-2.52
9704,51.233967,-0.264961,122,9.99,26,229.0,Jun-21,4851167,2019-02-27 11:36:42:687,0.1524,0.2013,9.7092,-0.0001,-0.0033,9.8066,0.0058,-0.0011,0.0001,-6.97,14.8,-36.95,243.71,1.91,-2.52
9705,51.233967,-0.264961,122,9.99,26,229.0,Jun-21,4851666,2019-02-27 11:36:43:186,-0.0556,0.2228,9.7476,0.0033,0.014,9.8066,0.0026,-0.0096,0.0022,-7.35,14.8,-37.39,243.73,1.91,-2.54
9706,51.233967,-0.264961,122,9.99,26,229.0,Jun-21,4852166,2019-02-27 11:36:43:686,-0.2903,-0.6925,9.6301,-0.0453,-0.0861,9.8062,-0.0006,-0.017,0.0032,-7.35,14.43,-36.89,243.15,1.42,-2.5
9707,51.233967,-0.264961,122,9.99,26,229.0,Jun-21,4852666,2019-02-27 11:36:44:186,-0.3663,-0.2927,9.7076,-0.0456,-0.0744,9.8063,-0.0038,0.0053,0.0043,-7.72,14.8,-36.89,243.81,0.24,-2.46
9708,51.233967,-0.264961,122,9.99,26,229.0,Jun-21,4853166,2019-02-27 11:36:44:686,-0.9452,-1.2003,9.6551,-0.1752,-0.2486,9.8019,-0.0016,-0.0096,0.0256,-8.78,14.8,-35.26,244.46,-2.02,-2.11
9709,51.233967,-0.264961,122,9.99,26,229.0,Jun-21,4853667,2019-02-27 11:36:45:187,-1.6827,-0.2831,9.6232,-0.409,-0.22,9.7956,0.0261,0.0149,0.2205,-9.91,14.43,-36.14,244.99,-4.89,-1.34
9710,51.233967,-0.264961,122,9.99,26,229.0,Jun-21,4854166,2019-02-27 11:36:45:686,-1.6715,0.4631,9.822,-0.4018,-0.0777,9.7981,0.0165,0.0383,0.3803,-10.74,13.87,-37.33,245.29,-7.07,0.3
9711,51.233967,-0.264961,122,9.99,26,229.0,Jun-21,4854667,2019-02-27 11:36:46:187,-0.1296,1.8057,10.068,-0.1728,0.324,9.7998,-0.0038,0.0192,0.603,-15.94,9.61,-38.12,209.54,-8.72,6.52
9712,51.233967,-0.264961,122,9.99,26,229.0,Jun-21,4855166,2019-02-27 11:36:46:686,-0.4063,1.8586,10.2818,-0.3712,0.1772,9.798,0.0431,0.0181,0.6104,-18.2,6.44,-37.56,182.38,-9.14,8.25
9713,51.233967,-0.264961,122,9.99,26,229.0,Jun-21,4855666,2019-02-27 11:36:47:186,0.1382,0.2123,9.8922,-0.0476,0.1457,9.8055,0.0069,0.0266,0.5273,-19.84,-1.38,-37.46,148.38,-11.75,10.16
9714,51.233967,-0.264961,122,9.99,26,229.0,Jun-21,4856166,2019-02-27 11:36:47:686,-0.5164,-0.6232,9.7823,-0.1973,0.0532,9.8045,0.0218,-0.0661,0.2014,-20.21,-3.94,-37.09,136.58,-14.05,9.64
9715,51.233967,-0.264961,122,9.99,26,229.0,Jun-21,4856666,2019-02-27 11:36:48:186,-0.7734,-0.828,9.4545,-0.0832,-0.1595,9.805,-0.041,-0.0298,0.0874,-18.43,-4.22,-37.2,129.41,-15.1,9.05
9716,51.233967,-0.264961,122,9.99,26,229.0,Jun-21,4857167,2019-02-27 11:36:48:687,-0.939,-3.086,11.4471,-0.0462,-0.2054,9.8044,0.009,-0.0501,0.0298,-18.43,-5.66,-37.95,130.19,-14.25,5.81
9717,51.233967,-0.264961,122,9.99,26,229.0,Jun-21,4857666,2019-02-27 11:36:49:186,-1.0042,0.0832,9.4878,0.0599,-0.3808,9.7991,-0.04,-0.082,0.016,-18.43,-4.97,-38.39,140.03,-12.32,4.61
9718,51.233967,-0.264961,122,9.99,26,229.0,Jun-21,4858167,2019-02-27 11:36:49:687,1.3727,-2.4401,9.7645,0.3266,-0.4089,9.7927,-0.007,-0.0107,-0.0085,-17.37,-4.22,-38.83,150.11,-8.44,3.54
9719,51.233967,-0.264961,122,9.99,26,229.0,Jun-21,4858667,2019-02-27 11:36:50:187,1.3235,-1.6945,9.5986,0.4801,-0.4961,9.7823,-0.0432,-0.0256,-0.0106,-17.37,-4.59,-38.83,154.39,-4.56,2.43
9720,51.233967,-0.264961,122,9.99,26,229.0,Jun-21,4859166,2019-02-27 11:36:50:686,0.4382,-0.7374,10.6842,0.297,-0.2176,9.7997,0.0602,0.016,-0.0106,-18.06,-4.97,-39.2,160.59,-2.91,0.94
9721,51.233967,-0.264961,122,9.99,26,229.0,Jun-21,4859667,2019-02-27 11:36:51:187,-0.0267,-0.0024,8.7153,0.3094,-0.0198,9.8017,0.0165,0.017,-0.0181,-17.68,-3.09,-39.2,169.15,0.04,0.67
9722,51.233967,-0.264961,122,9.99,26,229.0,Jun-21,4860166,2019-02-27 11:36:51:686,0.1553,-0.4283,8.9059,0.0992,-0.0973,9.8057,-0.0101,-0.0501,-0.0309,-17.68,-2.34,-39.64,172.24,1.84,0.9
9723,51.233967,-0.264961,122,9.99,26,229.0,Jun-21,4860667,2019-02-27 11:36:52:187,-0.4165,-0.6115,9.8298,-0.0288,-0.1961,9.8046,-0.0304,0.1172,-0.0671,-17.68,-3.47,-40.83,174.93,3.87,-1.62
9724,51.233967,-0.264961,122,9.99,26,229.0,Jun-21,4861166,2019-02-27 11:36:52:686,0.2251,-1.7201,9.5706,-0.0192,-0.3754,9.7994,-0.0016,-0.0202,-0.1299,-17.37,-2.72,-39.64,179.05,3.95,-3.82
9725,51.233967,-0.264961,122,9.99,26,229.0,Jun-21,4861667,2019-02-27 11:36:53:187,0.7188,-0.3871,9.8062,0.0657,-0.3519,9.8001,-0.0006,0.0224,-0.1662,-17.37,-1.66,-39.64,187.15,3.93,-6.4
9726,51.233967,-0.264961,122,9.99,26,229.0,Jun-21,4862167,2019-02-27 11:36:53:687,-1.3248,0.1036,10.1922,-0.0139,-0.1607,9.8053,-0.1018,-0.0149,-0.1427,-18.51,-0.08,-39.32,196.5,3.75,-9.39
9727,51.233967,-0.264961,122,9.99,26,229.0,Jun-21,4862666,2019-02-27 11:36:54:186,-1.1798,-0.639,10.3534,-0.1141,-0.3508,9.7997,-0.0378,-0.0043,-0.1406,-18.13,-0.46,-38.51,199.84,2.77,-10.57
9728,51.233967,-0.264961,122,9.99,26,229.0,Jun-21,4863166,2019-02-27 11:36:54:686,-0.8294,-0.7177,10.212,-0.1439,-0.2269,9.803,-0.0623,0.0032,-0.131,-17.44,1.04,-38.45,209.42,0.15,-13.19
9729,51.233967,-0.264961,122,9.99,26,229.0,Jun-21,4863667,2019-02-27 11:36:55:187,-1.346,0.322,10.4958,-0.5446,-0.4251,9.7823,0.0793,0.0586,-0.1086,-19.63,1.73,-37.64,212.13,-3.84,-13.79
9730,51.233967,-0.264961,122,9.99,26,229.0,Jun-21,4864167,2019-02-27 11:36:55:687,-0.0389,1.7106,10.9179,-0.1554,0.1978,9.8034,-0.0677,-0.0117,0.0053,-18.58,2.18,-39.01,213.88,-5.22,-12.52
9731,51.233967,-0.264961,122,9.99,26,229.0,Jun-21,4864666,2019-02-27 11:36:56:186,0.8873,1.9765,10.3316,0.2508,0.481,9.7916,-0.0634,0.1129,0.0298,-18.58,1.12,-38.57,202.97,-2.69,-9.29
9732,51.233967,-0.264961,122,9.99,26,229.0,Jun-21,4865167,2019-02-27 11:36:56:687,0.447,0.9935,10.26,0.212,0.3453,9.7983,0.0197,0.0352,0.0203,-18.58,1.12,-39.38,199.88,-1.38,-8.17
9733,51.233967,-0.264961,122,9.99,26,229.0,Jun-21,4865667,2019-02-27 11:36:57:187,0.0697,1.2099,9.7165,0.0806,0.2313,9.8036,-0.0346,0.0171,0.0373,-19.33,1.12,-38.95,193.52,1.37,-5.58
9734,51.233967,-0.264961,122,9.99,26,229.0,Jun-21,4866167,2019-02-27 11:36:57:687,0.0623,0.8376,9.6646,0.0214,0.2417,9.8036,-0.0421,-0.0096,0.0213,-18.95,1.12,-38.51,192.13,1.95,-4.95
9735,51.233967,-0.264961,122,9.99,26,229.0,Jun-21,4866667,2019-02-27 11:36:58:187,0.149,-0.5014,10.0995,0.1495,0.1978,9.8035,-0.0283,-0.1193,0.0235,-18.58,0.74,-38.95,190.04,3.04,-4.01
9736,51.233967,-0.264961,122,9.99,26,229.0,Jun-21,4867168,2019-02-27 11:36:58:688,-0.2345,-0.1549,9.4576,0.0168,0.1972,9.8047,-0.0048,-0.0905,0.016,-18.58,1.12,-38.51,185.71,3.71,-1.69
9737,51.233967,-0.264961,122,9.99,26,229.0,Jun-21,4867666,2019-02-27 11:36:59:186,-0.5128,-0.0887,10.0639,0.0362,0.109,9.806,0.1401,0.0298,0.0224,-18.95,1.49,-38.07,185.46,4.0,-1.61
9738,51.233967,-0.264961,122,9.99,26,229.0,Jun-21,4868167,2019-02-27 11:36:59:687,1.3505,0.775,9.4983,0.1857,0.1172,9.8042,-0.0187,-0.0415,0.0213,-19.7,1.12,-38.07,184.16,4.27,-0.99
9739,51.233967,-0.264961,122,9.99,26,229.0,Jun-21,4868667,2019-02-27 11:37:00:187,1.0777,0.1618,9.6304,0.209,-0.0213,9.8044,0.0698,-0.0607,0.0256,-19.33,0.37,-39.38,181.6,7.87,-0.99
9740,51.233967,-0.264961,122,9.99,26,229.0,Jun-21,4869167,2019-02-27 11:37:00:687,0.2362,0.651,10.3729,0.4974,0.1389,9.793,-0.0528,-0.0469,0.0607,-17.83,0.37,-38.88,181.88,9.09,-1.15
9741,51.233967,-0.264961,122,9.99,26,229.0,Jun-21,4869666,2019-02-27 11:37:01:186,-1.0347,1.7291,10.4794,0.0741,0.5483,9.791,0.0729,-0.1097,0.1886,-18.95,-0.01,-39.76,171.57,11.66,5.67
9742,51.233967,-0.264961,122,9.99,26,229.0,Jun-21,4870166,2019-02-27 11:37:01:686,0.4564,1.0113,11.2558,-0.052,0.5109,9.7932,0.0687,0.0448,0.2291,-19.36,-0.66,-38.8,165.22,10.91,8.63
9743,51.233967,-0.264961,122,9.99,26,229.0,Jun-21,4870667,2019-02-27 11:37:02:187,-0.7801,0.8676,8.8531,-0.1499,0.4974,9.7929,-0.008,-0.1395,0.3398,-18.61,-1.72,-38.42,156.98,9.07,12.89
9744,51.233967,-0.264961,122,9.99,26,229.0,Jun-21,4871166,2019-02-27 11:37:02:686,-1.18,0.7987,10.6088,-0.1336,0.3022,9.8011,0.0506,-0.081,0.3185,-16.81,-7.15,-39.83,138.33,5.1,16.31
9745,51.233967,-0.264961,122,9.99,26,229.0,Jun-21,4871667,2019-02-27 11:37:03:187,-0.6324,0.3752,10.7203,-0.2119,0.1357,9.8034,0.1006,0.0171,0.3324,-17.94,-9.33,-40.1,134.53,3.34,17.11
9746,51.233967,-0.264961,122,9.99,26,229.0,Jun-21,4872166,2019-02-27 11:37:03:686,-0.1625,0.8065,9.4962,-0.4159,0.8532,9.7606,-0.0378,0.0469,0.3537,-16.17,-11.84,-38.24,121.06,-3.45,18.23
9747,51.233967,-0.264961,122,9.99,26,229.0,Jun-21,4872667,2019-02-27 11:37:04:187,-0.2537,0.3058,8.9967,-0.2694,0.2702,9.7992,-0.0187,-0.0991,0.3452,-13.61,-13.28,-37.37,114.7,-5.62,17.69
9748,51.233967,-0.264961,122,9.99,26,229.0,Jun-21,4873166,2019-02-27 11:37:04:686,-1.0499,-0.5255,10.566,-0.1075,0.1287,9.8052,0.0516,0.0714,0.2227,-10.34,-10.72,-39.1,103.75,-7.65,17.11
9749,51.233967,-0.264961,122,9.99,26,229.0,Jun-21,4873666,2019-02-27 11:37:05:186,-1.7695,-0.6353,9.3665,-0.3805,0.1348,9.7983,0.0506,0.0075,0.1609,-9.99,-13.3,-39.25,99.99,-9.86,14.71
9750,51.233967,-0.264961,122,9.99,26,229.0,Jun-21,4874167,2019-02-27 11:37:05:687,-1.3735,-2.063,9.0485,-0.3785,-0.4418,9.7894,-0.0283,-0.0959,0.049,-6.31,-8.92,-41.37,88.22,-9.73,12.14
9751,51.233967,-0.264961,122,9.99,26,229.0,Jun-21,4874666,2019-02-27 11:37:06:186,-1.3796,-1.3869,9.5139,-0.191,-0.4627,9.7939,0.0591,0.0011,0.0181,-5.24,-10.05,-41.87,100.0,-3.22,7.58
9752,51.233967,-0.264961,122,9.99,26,229.0,Jun-21,4875166,2019-02-27 11:37:06:686,-1.0966,-0.1759,9.8929,-0.1633,-0.4735,9.7939,-0.0304,-0.0128,0.0075,-3.74,-10.05,-42.75,103.44,-0.75,6.01
9753,51.233967,-0.264961,122,9.99,26,229.0,Jun-21,4875666,2019-02-27 11:37:07:186,-1.2069,-1.4415,8.7366,-0.301,0.0594,9.8018,-0.0059,-0.1161,-0.0138,-6.31,-8.55,-44.81,121.22,0.97,2.74
9754,51.233967,-0.264961,122,9.99,26,229.0,Jun-21,4876166,2019-02-27 11:37:07:686,-0.48,1.2414,7.7908,-0.2435,0.0561,9.8035,-0.0325,-0.1694,-0.0106,-3.37,-10.73,-43.56,101.43,-0.98,0.16
9755,51.233967,-0.264961,122,9.99,26,229.0,Jun-21,4876667,2019-02-27 11:37:08:187,-0.4503,1.5288,9.4765,-0.1459,0.6058,9.7868,0.0026,0.1193,0.0,-5.24,-13.3,-45.25,111.99,0.06,-0.64
9756,51.233967,-0.264961,122,9.99,26,229.0,Jun-21,4877166,2019-02-27 11:37:08:686,0.5306,0.4471,9.3424,-0.1146,0.3317,9.8004,-0.0123,-0.0618,0.0565,-4.87,-14.8,-39.81,94.12,-5.59,-0.14
9757,51.233967,-0.264961,122,9.99,26,229.0,Jun-21,4877666,2019-02-27 11:37:09:186,1.7073,-1.4883,9.9827,0.1758,-0.2542,9.8018,-0.0272,0.2259,0.082,-3.74,-15.55,-40.25,95.92,-3.3,0.55
9758,51.233967,-0.264961,122,9.99,26,229.0,Jun-21,4878167,2019-02-27 11:37:09:687,1.8541,0.0672,10.1749,0.3214,-0.0488,9.8013,-0.0155,-0.0224,0.1268,-4.87,-14.8,-39.81,103.41,-1.72,1.42
9759,51.233967,-0.264961,122,9.99,26,229.0,Jun-21,4878666,2019-02-27 11:37:10:186,0.9085,-0.2042,10.2332,0.3592,0.1734,9.7985,0.0399,0.0234,0.1694,-2.37,-14.86,-40.6,95.2,-0.28,7.02
9760,51.233967,-0.264961,122,9.99,26,229.0,Jun-21,4879167,2019-02-27 11:37:10:687,0.8206,0.2765,10.3352,-0.0394,0.0862,9.8062,0.0037,0.0693,0.163,-1.25,-15.24,-40.16,91.81,-0.52,8.75
9761,51.233967,-0.264961,122,9.99,26,229.0,Jun-21,4879667,2019-02-27 11:37:11:187,0.496,-0.6012,10.4511,-0.0259,-0.0536,9.8065,0.0293,-0.0991,0.1598,-0.18,-15.99,-40.54,88.73,-0.72,8.37
9762,51.233967,-0.264961,122,9.99,26,229.0,Jun-21,4880166,2019-02-27 11:37:11:686,0.1108,-0.6819,10.4298,-0.1256,-0.0908,9.8054,0.0133,0.0479,0.1385,0.93,-16.41,-39.94,87.63,0.15,8.67
9763,51.233967,-0.264961,122,9.99,26,229.0,Jun-21,4880666,2019-02-27 11:37:12:186,-0.23,-0.3407,10.3637,0.0684,-0.0354,9.8063,0.0367,0.0213,0.1481,0.93,-16.78,-40.75,88.66,0.71,7.96
9764,51.233967,-0.264961,122,9.99,26,229.0,Jun-21,4881167,2019-02-27 11:37:12:687,-0.9596,-1.6744,10.3821,-0.1141,-0.4509,9.7956,-0.0496,-0.017,0.1065,2.43,-16.41,-41.13,91.08,3.58,7.87
9765,51.233967,-0.264961,122,9.99,26,229.0,Jun-21,4881667,2019-02-27 11:37:13:187,-1.0286,-0.0775,9.795,-0.194,-0.0953,9.8043,-0.007,-0.0117,0.0799,3.48,-16.14,-40.87,89.43,4.11,6.72
9766,51.233967,-0.264961,122,9.99,26,229.0,Jun-21,4882166,2019-02-27 11:37:13:686,-1.8913,0.4306,9.848,-0.4785,0.0742,9.7947,0.0048,0.0011,-0.0426,3.1,-16.14,-40.81,89.5,4.1,4.85
9767,51.233967,-0.264961,122,9.99,26,229.0,Jun-21,4882667,2019-02-27 11:37:14:187,-1.9675,0.1658,10.0692,-0.4297,0.0582,9.7971,-0.0197,-0.066,-0.0809,2.41,-16.89,-40.44,92.78,3.99,-0.73
9768,51.233967,-0.264961,122,9.99,26,229.0,Jun-21,4883167,2019-02-27 11:37:14:687,-1.2764,-0.2479,10.1227,-0.3637,0.0384,9.7998,0.0133,0.0213,-0.1395,1.66,-17.26,-40.81,92.26,3.52,-3.23
9769,51.233967,-0.264961,122,9.99,26,229.0,Jun-21,4883666,2019-02-27 11:37:15:186,-1.5951,0.3385,10.6227,-0.5336,0.0171,9.7921,-0.0261,0.0543,-0.3004,-0.9,-16.14,-41.25,107.33,3.02,-7.61
9770,51.233967,-0.264961,122,9.99,26,229.0,Jun-21,4884166,2019-02-27 11:37:15:686,-1.5727,-0.3124,9.8524,-1.2216,0.2102,9.728,-0.0123,0.0032,-0.3632,-4.63,-15.83,-39.62,129.52,-0.3,-14.07
9771,51.233967,-0.264961,122,9.99,26,229.0,Jun-21,4884666,2019-02-27 11:37:16:186,-0.5573,-0.4406,10.2852,-0.5797,-0.0631,9.7893,-0.057,0.0085,-0.4016,-5.8,-16.29,-40.52,141.7,-2.41,-17.05
9772,51.233967,-0.264961,122,9.99,26,229.0,Jun-21,4885167,2019-02-27 11:37:16:687,-0.548,0.6344,10.4215,-0.4564,-0.0638,9.7958,-0.0421,0.0543,-0.3611,-10.97,-15.71,-41.02,173.39,-7.31,-20.52
9773,51.233967,-0.264961,122,9.99,26,229.0,Jun-21,4885666,2019-02-27 11:37:17:186,-0.1813,1.2421,11.3173,-0.2909,0.072,9.8021,0.0026,0.0852,-0.262,-12.78,-14.96,-40.58,185.97,-9.38,-20.88
9774,51.233967,-0.264961,122,9.99,26,229.0,Jun-21,4886166,2019-02-27 11:37:17:686,-0.2422,0.916,10.4723,-0.2781,0.1342,9.8018,0.009,-0.0192,-0.2471,-16.49,-12.88,-40.11,188.31,-12.56,-19.29
9775,51.233967,-0.264961,122,9.99,26,229.0,Jun-21,4886666,2019-02-27 11:37:18:186,-0.041,0.9664,10.2154,-0.0887,0.0977,9.8058,-0.0549,-0.0618,-0.2152,-17.93,-11.75,-40.11,190.99,-13.14,-18.84
