,GPS LATITUDE (degrees), GPS LONGITUDE (degrees), GPS ALTITUDE (m), GPS SPEED (Kmh), GPS ACCURACY (m), GPS ORIENTATION (Â°),GPS SATELLITES IN RANGE, TIME SINCE START (ms), DATE (YYYY-MO-DD HH-MI-SS_SSS), ACCELEROMETER X (m/s²) , ACCELEROMETER Y (m/s²), ACCELEROMETER Z (m/s²), GRAVITY X (m/s²), GRAVITY Y (m/s²), GRAVITY Z (m/s²), GYROSCOPE Yaw (rad/s), GYROSCOPE Pitch (rad/s), GYROSCOPE Roll (rad/s), MAGNETIC FIELD X (Î¼T), MAGNETIC FIELD Y (Î¼T), MAGNETIC FIELD Z (Î¼T), ORIENTATION (Yaw) (Â°), ORIENTATION (Pitch) (Â°), ORIENTATION (Roll ) (Â°)
44933,52.41031,-1.472321,136.83,13.32,3,3.59,23 / 23,4306910,2019-09-08 13:18:46:149,2.9904,-1.5566,8.2326,-0.0344,0.0155,9.8065,-0.4136,-0.1796,0.0483,-8.5,-38.06,-7.19,221.14,-80.42,-164.88
44934,52.41031,-1.472321,136.83,13.32,3,3.59,23 / 23,4307010,2019-09-08 13:18:46:249,6.5577,-6.4178,5.7238,-0.0507,0.0822,9.8062,-1.1555,-0.6869,0.7478,-8.31,-37.31,-7.62,216.77,-80.51,-169.67
44935,52.41031,-1.472321,136.83,13.32,3,3.59,23 / 23,4307110,2019-09-08 13:18:46:349,-1.7994,0.3047,11.5092,-0.224,-0.3089,9.7991,1.5818,-0.2257,0.1495,-7.44,-38.44,-7.25,215.67,-79.68,-166.0
44936,52.41031,-1.472321,136.83,13.32,3,3.59,23 / 23,4307210,2019-09-08 13:18:46:449,0.6683,4.6085,11.7931,-0.1335,-0.3589,9.7991,1.3017,0.1478,-0.0347,-6.62,-38.12,-6.06,222.54,-82.03,-164.29
44937,52.41031,-1.472321,136.83,13.32,3,3.59,23 / 23,4307310,2019-09-08 13:18:46:549,-0.2343,1.2721,11.5381,0.1051,0.2605,9.8025,-0.2366,0.488,-0.1208,-6.69,-37.94,-5.87,221.08,-81.63,-165.3
44938,52.41031,-1.472321,136.83,13.32,3,3.59,23 / 23,4307410,2019-09-08 13:18:46:649,-3.2549,-2.1764,10.8503,0.0546,0.07,9.8062,-0.0992,0.5446,-0.2289,-5.87,-38.12,-6.19,213.34,-80.6,-168.2
44939,52.41031,-1.472321,136.83,13.32,3,3.59,23 / 23,4307510,2019-09-08 13:18:46:749,-2.4407,-0.9648,9.8285,-0.0255,-0.0335,9.8065,0.0875,0.2034,-0.0206,-5.44,-38.0,-6.19,209.53,-81.11,-168.77
44940,52.41031,-1.472321,136.83,13.32,3,3.59,23 / 23,4307610,2019-09-08 13:18:46:849,-1.6307,-0.82,9.005,-0.0044,-0.0165,9.8065,-0.0309,0.1431,-0.046,-5.75,-38.0,-6.25,213.9,-81.1,-168.61
44941,52.411232,-1.472289,136.52,6.52,3,345.02,22 / 23,4307712,2019-09-08 13:18:46:951,0.0505,0.3811,8.9929,0.0164,-0.0023,9.8066,-0.0051,0.269,-0.2192,-4.94,-37.81,-5.19,210.93,-80.96,-168.58
44942,52.411232,-1.472289,136.52,6.52,3,345.02,22 / 23,4307810,2019-09-08 13:18:47:049,1.7655,1.5755,11.013,0.0299,0.0062,9.8065,0.2589,0.0228,0.1158,-4.25,-38.44,-5.25,205.77,-80.99,-169.26
44943,52.411232,-1.472289,136.52,6.52,3,345.02,22 / 23,4307910,2019-09-08 13:18:47:149,-1.8738,1.0469,10.4714,-0.0146,0.1192,9.8058,-0.4097,0.0863,0.1225,-4.31,-38.31,-5.44,204.38,-80.46,-170.56
44944,52.411232,-1.472289,136.52,6.52,3,345.02,22 / 23,4308009,2019-09-08 13:18:47:248,-1.7902,-0.2678,9.7019,0.0209,0.0814,9.8062,-0.2809,0.3606,-0.1187,-3.56,-37.81,-4.44,205.94,-80.52,-170.33
44945,52.411232,-1.472289,136.52,6.52,3,345.02,22 / 23,4308110,2019-09-08 13:18:47:349,-2.1557,0.4842,10.0002,-0.0027,-0.0549,9.8064,0.1227,0.2797,-0.1297,-3.0,-38.12,-4.94,199.32,-80.55,-171.11
44946,52.411232,-1.472289,136.52,6.52,3,345.02,22 / 23,4308210,2019-09-08 13:18:47:449,-1.1546,0.1091,10.4457,-0.0023,-0.0284,9.8066,0.0835,0.2179,-0.0805,-3.25,-37.94,-4.5,200.63,-80.66,-170.68
44947,52.411232,-1.472289,136.52,6.52,3,345.02,22 / 23,4308310,2019-09-08 13:18:47:549,-1.3224,1.0268,10.0007,0.0,0.0465,9.8065,-0.0537,0.1936,-0.0287,-2.31,-37.44,-3.81,195.17,-80.62,-170.9
44948,52.411232,-1.472289,136.52,6.52,3,345.02,22 / 23,4308410,2019-09-08 13:18:47:649,-0.971,0.2312,9.6775,-0.0091,0.0338,9.8066,-0.0238,0.2306,-0.1181,-0.94,-38.12,-3.75,188.75,-80.27,-171.7
44949,52.411232,-1.472289,136.52,6.52,3,345.02,22 / 23,4308510,2019-09-08 13:18:47:749,-2.0183,0.92,9.7554,-0.0105,-0.0045,9.8066,0.0439,0.2195,-0.0036,-1.75,-38.0,-3.06,194.38,-80.3,-173.31
44950,52.411232,-1.472289,136.52,6.52,3,345.02,22 / 23,4308610,2019-09-08 13:18:47:849,-0.6403,0.6354,9.4126,-0.0024,-0.0115,9.8066,0.054,0.2513,-0.0014,-1.37,-37.5,-3.31,188.39,-80.19,-173.25
44951,52.411232,-1.472289,136.52,6.52,3,345.02,23 / 23,4308710,2019-09-08 13:18:47:949,-1.3099,1.7837,9.9241,0.0035,0.0332,9.8065,0.1133,0.367,-0.0407,-0.75,-37.94,-2.69,188.09,-80.08,-173.53
44952,52.411232,-1.472289,136.52,6.52,3,345.02,23 / 23,4308810,2019-09-08 13:18:48:049,-0.6382,1.5284,9.0926,0.0119,0.0685,9.8063,0.0583,0.3019,0.0165,-0.94,-38.44,-3.12,187.72,-79.68,-174.04
44953,52.411232,-1.472289,136.52,6.52,3,345.02,23 / 23,4308910,2019-09-08 13:18:48:149,-1.2125,0.5551,8.6181,0.0023,-0.045,9.8065,-0.1623,0.294,-0.1452,0.13,-38.69,-2.94,181.57,-79.65,-174.8
44954,52.411232,-1.472289,136.52,6.52,3,345.02,23 / 23,4309010,2019-09-08 13:18:48:249,-0.7285,0.2967,9.5912,-0.0065,-0.0601,9.8064,-0.0749,0.2129,-0.0815,0.94,-38.87,-1.94,174.48,-80.07,-175.68
44955,52.411232,-1.472289,136.52,6.52,3,345.02,23 / 23,4309110,2019-09-08 13:18:48:349,-0.7911,0.5588,10.5161,-0.0324,0.0536,9.8064,-0.0572,0.1073,0.0527,1.06,-38.75,-1.0,172.99,-79.93,-177.98
44956,52.411232,-1.472289,136.52,6.52,3,345.02,23 / 23,4309211,2019-09-08 13:18:48:450,-0.1892,-1.6075,10.054,0.0024,0.0546,9.8065,-0.1583,0.1664,0.1349,0.94,-38.37,-1.0,172.91,-79.99,-177.17
44957,52.411232,-1.472289,136.52,6.52,3,345.02,23 / 23,4309310,2019-09-08 13:18:48:549,0.7222,-0.0224,10.2071,-0.0032,-0.0186,9.8065,0.1181,0.1027,-0.0945,1.44,-38.19,-0.5,171.54,-79.95,-175.77
44958,52.411232,-1.472289,136.52,6.52,3,345.02,23 / 23,4309410,2019-09-08 13:18:48:649,0.2589,0.8688,9.8972,-0.003,0.008,9.8066,0.1282,0.1104,-0.0735,1.31,-37.87,-0.31,171.53,-79.91,-177.01
44959,52.411232,-1.472289,136.52,6.52,3,345.02,23 / 23,4309510,2019-09-08 13:18:48:749,0.1343,1.3361,10.5065,-0.0007,0.0571,9.8064,-0.1341,0.2098,-0.0607,1.63,-37.75,0.0,163.52,-79.92,-176.96
44960,52.411232,-1.472289,136.52,6.52,3,345.02,23 / 23,4309610,2019-09-08 13:18:48:849,0.2805,2.4356,9.9183,0.0156,0.0372,9.8065,-0.1347,0.0766,0.1093,1.31,-38.25,-1.12,173.29,-79.76,-175.59
44961,52.411232,-1.472289,136.52,6.52,3,345.02,24 / 24,4309710,2019-09-08 13:18:48:949,-0.1798,-0.2334,9.3245,0.0232,-0.08,9.8062,0.0989,0.1712,-0.1261,1.31,-37.69,-0.81,173.21,-80.25,-174.21
44962,52.411232,-1.472289,136.52,6.52,3,345.02,24 / 24,4309810,2019-09-08 13:18:49:049,1.2054,1.4135,9.3821,-0.004,-0.0359,9.8066,0.0936,-0.0135,0.0171,1.19,-37.25,-0.25,171.13,-80.18,-175.58
44963,52.411232,-1.472289,136.52,6.52,3,345.02,24 / 24,4309910,2019-09-08 13:18:49:149,-0.782,-0.2961,9.4217,-0.0011,0.0002,9.8066,0.2717,-0.1246,0.1541,0.75,-37.81,-0.56,172.99,-79.99,-176.65
44964,52.411232,-1.472289,136.52,6.52,3,345.02,24 / 24,4310009,2019-09-08 13:18:49:248,1.4515,2.2831,11.0709,0.0293,-0.0588,9.8063,0.3046,-0.1105,0.094,0.63,-37.56,-0.75,173.2,-80.06,-175.05
44965,52.411232,-1.472289,136.52,6.52,3,345.02,24 / 24,4310110,2019-09-08 13:18:49:349,2.8095,0.9823,10.2379,-0.0085,0.0511,9.8065,-0.1537,-0.1568,-0.0017,0.44,-37.56,-0.44,180.0,-80.03,-174.31
44966,52.411232,-1.472289,136.52,6.52,3,345.02,24 / 24,4310210,2019-09-08 13:18:49:449,1.6299,0.8951,9.9082,-0.0275,0.028,9.8065,-0.1085,-0.1562,-0.0574,0.13,-37.75,-1.19,180.56,-79.96,-175.75
44967,52.411232,-1.472289,136.52,6.52,3,345.02,24 / 24,4310310,2019-09-08 13:18:49:549,1.4688,-0.5656,9.4743,0.0086,-0.0242,9.8065,-0.1662,-0.2306,0.0321,1.13,-37.87,-1.06,172.85,-80.32,-176.28
44968,52.411232,-1.472289,136.52,6.52,3,345.02,24 / 24,4310410,2019-09-08 13:18:49:649,2.1958,-0.0051,9.1548,0.0113,-0.0057,9.8066,-0.1556,-0.2188,0.107,-0.19,-38.12,-1.5,180.61,-80.51,-175.56
44969,52.411232,-1.472289,136.52,6.52,3,345.02,24 / 24,4310510,2019-09-08 13:18:49:749,2.7183,-0.7695,9.4531,0.0132,-0.0427,9.8065,-0.0263,-0.2766,0.0747,-1.12,-37.75,-1.75,188.61,-80.67,-173.71
44970,52.411232,-1.472289,136.52,6.52,3,345.02,24 / 24,4310610,2019-09-08 13:18:49:849,3.386,-0.534,10.2008,-0.001,-0.039,9.8065,-0.035,-0.3054,0.0155,-1.19,-38.25,-2.06,189.18,-81.02,-172.44
44971,52.411232,-1.472289,136.52,6.52,3,345.02,25 / 25,4310710,2019-09-08 13:18:49:949,2.3968,-0.3071,10.2278,-0.008,0.0228,9.8066,0.0647,-0.327,0.0356,-1.5,-38.0,-2.62,188.89,-81.09,-172.94
44972,52.411232,-1.472289,136.52,6.52,3,345.02,25 / 25,4310810,2019-09-08 13:18:50:049,2.7583,-0.5878,10.0681,-0.0062,0.0088,9.8066,0.0673,-0.372,0.0626,-1.69,-37.37,-2.81,195.32,-81.08,-173.64
44973,52.411232,-1.472289,136.52,6.52,3,345.02,25 / 25,4310910,2019-09-08 13:18:50:149,2.4882,-2.427,9.1414,0.0122,-0.0232,9.8065,-0.2455,-0.3411,0.0553,-2.69,-38.12,-3.62,200.76,-81.37,-172.45
44974,52.411232,-1.472289,136.52,6.52,3,345.02,25 / 25,4311010,2019-09-08 13:18:50:249,1.9367,-2.278,9.3933,0.0072,-0.032,9.8066,-0.2066,-0.3279,0.0396,-3.5,-37.62,-3.62,201.61,-81.63,-171.39
44975,52.411232,-1.472289,136.52,6.52,3,345.02,25 / 25,4311110,2019-09-08 13:18:50:349,3.357,-2.6272,9.7369,0.0105,-0.0259,9.8066,0.1717,-0.3265,-0.0222,-3.62,-37.62,-4.44,207.7,-81.77,-170.94
44976,52.411232,-1.472289,136.52,6.52,3,345.02,25 / 25,4311209,2019-09-08 13:18:50:448,3.5941,-1.0027,10.0881,-0.012,-0.0244,9.8066,0.2051,-0.4709,0.1199,-4.69,-38.5,-5.06,211.91,-81.96,-169.88
44977,52.411232,-1.472289,136.52,6.52,3,345.02,25 / 25,4311310,2019-09-08 13:18:50:549,3.0729,-1.2574,9.7696,0.0241,0.0329,9.8065,-0.182,-0.4143,0.0996,-4.69,-37.94,-5.06,212.49,-81.93,-168.8
44978,52.411232,-1.472289,136.52,6.52,3,345.02,25 / 25,4311410,2019-09-08 13:18:50:649,2.81,-1.9742,9.4335,0.0292,0.0356,9.8065,-0.2271,-0.3561,0.1192,-5.87,-37.5,-5.19,217.61,-81.56,-167.67
44979,52.411232,-1.472289,136.52,6.52,3,345.02,25 / 25,4311510,2019-09-08 13:18:50:749,3.4459,-0.6413,9.8558,0.0003,-0.024,9.8065,0.1373,-0.3815,0.0433,-7.25,-38.06,-6.06,220.31,-81.67,-166.57
44980,52.411232,-1.472289,136.52,6.52,3,345.02,25 / 25,4311610,2019-09-08 13:18:50:849,3.0298,-1.0914,10.0953,-0.0039,-0.0162,9.8066,0.1528,-0.4189,0.0823,-7.69,-38.12,-5.81,224.47,-81.76,-166.41
44981,52.411232,-1.472289,136.52,6.52,3,345.02,23 / 24,4311710,2019-09-08 13:18:50:949,2.1443,-1.3178,9.8414,-0.0117,-0.0042,9.8066,-0.1513,-0.4734,0.1003,-8.25,-38.0,-6.44,224.88,-81.7,-165.64
44982,52.411232,-1.472289,136.52,6.52,3,345.02,23 / 24,4311810,2019-09-08 13:18:51:049,3.0225,-2.1942,9.8964,0.009,-0.0113,9.8066,-0.1356,-0.4642,0.1077,-9.19,-37.5,-6.31,229.52,-81.77,-165.08
44983,52.411232,-1.472289,136.52,6.52,3,345.02,23 / 24,4311910,2019-09-08 13:18:51:149,3.3158,-2.3505,9.8367,-0.0136,0.0018,9.8066,0.1082,-0.4779,0.0821,-9.69,-38.06,-6.31,233.3,-81.7,-163.7
44984,52.411232,-1.472289,136.52,6.52,3,345.02,23 / 24,4312010,2019-09-08 13:18:51:249,4.0844,-1.9286,10.0734,0.0084,0.0141,9.8066,0.0392,-0.5083,0.0937,-10.25,-37.81,-6.44,232.42,-81.68,-164.8
44985,52.411232,-1.472289,136.52,6.52,3,345.02,23 / 24,4312110,2019-09-08 13:18:51:349,1.4964,-0.2887,9.5218,-0.015,-0.01,9.8066,0.0778,-0.3105,0.0015,-11.19,-38.25,-6.44,235.86,-81.91,-164.96
44986,52.411232,-1.472289,136.52,6.52,3,345.02,23 / 24,4312210,2019-09-08 13:18:51:449,3.1418,-2.3105,11.4095,0.0147,-0.0289,9.8065,0.1229,-0.4258,0.0781,-12.0,-37.5,-6.25,240.01,-81.9,-163.85
44987,52.411232,-1.472289,136.52,6.52,3,345.02,23 / 24,4312310,2019-09-08 13:18:51:549,2.7565,-1.3415,9.6158,0.0166,0.0236,9.8065,-0.1898,-0.4412,0.033,-12.19,-37.81,-6.56,237.92,-82.06,-163.27
44988,52.411232,-1.472289,136.52,6.52,3,345.02,23 / 24,4312410,2019-09-08 13:18:51:649,1.4865,-2.5723,7.6639,0.046,0.028,9.8064,-0.3261,-0.4014,0.0683,-13.87,-37.56,-6.31,245.06,-81.86,-163.12
44989,52.411232,-1.472289,136.52,6.52,3,345.02,23 / 24,4312510,2019-09-08 13:18:51:749,3.3844,-3.0327,9.508,-0.0216,-0.091,9.8062,0.1048,-0.4347,0.0596,-14.31,-37.5,-6.56,244.18,-81.84,-161.76
44990,52.411232,-1.472289,136.52,6.52,3,345.02,23 / 24,4312610,2019-09-08 13:18:51:849,2.2397,-2.2182,9.3916,-0.0809,-0.0769,9.8059,0.0013,-0.398,0.0201,-14.5,-37.12,-6.56,249.79,-82.51,-156.86
44991,52.411232,-1.472289,136.52,6.52,3,345.02,24 / 24,4312710,2019-09-08 13:18:51:949,2.7397,-1.7848,10.6615,0.0413,-0.0026,9.8065,-0.186,-0.3766,0.0052,-16.12,-37.62,-7.19,256.09,-82.6,-154.47
44992,52.411232,-1.472289,136.52,6.52,3,345.02,24 / 24,4312809,2019-09-08 13:18:52:048,2.4537,-1.5678,10.4749,0.0283,0.015,9.8066,0.0143,-0.4106,0.1223,-17.06,-37.31,-7.19,260.14,-82.8,-153.06
44993,52.411232,-1.472289,136.52,6.52,3,345.02,24 / 24,4312910,2019-09-08 13:18:52:149,2.1613,-2.2873,10.3393,0.0114,-0.0061,9.8066,-0.0841,-0.2924,-0.0409,-17.62,-36.87,-6.56,263.45,-82.72,-151.27
44994,52.411232,-1.472289,136.52,6.52,3,345.02,24 / 24,4313010,2019-09-08 13:18:52:249,3.3075,0.3563,7.9584,0.0055,0.0177,9.8066,-0.1971,-0.3447,0.0615,-16.75,-36.56,-5.94,262.68,-82.47,-152.33
44995,52.411232,-1.472289,136.52,6.52,3,345.02,24 / 24,4313110,2019-09-08 13:18:52:349,-3.6985,0.3575,8.2587,-0.1307,-0.0617,9.8056,0.2054,-0.4776,0.0121,-17.44,-36.25,-6.56,259.18,-82.0,-152.86
44996,52.411232,-1.472289,136.52,6.52,3,345.02,24 / 24,4313210,2019-09-08 13:18:52:449,1.3003,-3.6313,8.9122,-0.1829,-0.0654,9.8047,0.1377,-0.3179,-0.0009,-18.06,-36.62,-5.81,265.35,-82.81,-152.06
44997,52.411232,-1.472289,136.52,6.52,3,345.02,24 / 24,4313310,2019-09-08 13:18:52:549,3.2828,0.911,11.9588,0.0288,0.0411,9.8064,0.3939,-0.2776,0.1112,-18.12,-35.94,-5.31,263.98,-82.58,-156.1
44998,52.411232,-1.472289,136.52,6.52,3,345.02,24 / 24,4313410,2019-09-08 13:18:52:649,-1.2989,3.5313,10.4372,0.0466,-0.0103,9.8065,0.3669,0.0688,-0.3071,-17.81,-37.19,-5.5,264.74,-82.38,-154.5
44999,52.411232,-1.472289,136.52,6.52,3,345.02,24 / 24,4313510,2019-09-08 13:18:52:749,4.1502,-1.8354,11.3462,0.0258,-0.0267,9.8065,-0.5528,0.0975,-0.1951,-18.37,-37.06,-5.75,261.54,-82.4,-155.18
45000,52.411232,-1.472289,136.52,6.52,3,345.02,24 / 24,4313610,2019-09-08 13:18:52:849,-0.7995,-1.1806,9.0669,-0.1072,-0.0879,9.8056,-0.4609,-0.0498,0.0747,-18.56,-37.12,-5.25,267.68,-82.5,-153.25
45001,52.411232,-1.472289,136.52,6.52,3,345.02,25 / 25,4313710,2019-09-08 13:18:52:949,1.8135,-2.4946,9.2094,-0.13,-0.0656,9.8055,0.6827,0.0449,-0.0716,-18.62,-36.44,-4.37,269.58,-82.23,-153.88
45002,52.411232,-1.472289,136.52,6.52,3,345.02,25 / 25,4313810,2019-09-08 13:18:53:049,2.4432,2.7286,9.862,0.0405,0.0627,9.8063,0.2604,0.1843,-0.1347,-19.0,-36.56,-4.81,264.24,-82.02,-155.85
45003,52.411232,-1.472289,136.52,6.52,3,345.02,25 / 25,4313909,2019-09-08 13:18:53:148,-1.3155,3.1803,9.5255,0.0201,0.0157,9.8066,-0.4888,0.1015,-0.2197,-18.44,-36.5,-5.62,258.97,-82.12,-157.77
45004,52.411232,-1.472289,136.52,6.52,3,345.02,25 / 25,4314010,2019-09-08 13:18:53:249,-1.4341,-1.66,9.2193,-0.0361,-0.0055,9.8066,-0.3362,-0.1571,-0.0397,-18.31,-36.37,-5.81,259.67,-82.3,-157.37
45005,52.411232,-1.472289,136.52,6.52,3,345.02,25 / 25,4314110,2019-09-08 13:18:53:349,-0.8008,1.3686,9.2048,0.0392,0.0166,9.8065,0.0108,-0.0319,-0.0027,-18.25,-36.31,-6.12,258.98,-82.53,-158.55
45006,52.411232,-1.472289,136.52,6.52,3,345.02,25 / 25,4314210,2019-09-08 13:18:53:449,0.0068,-0.3073,9.6155,-0.004,-0.0183,9.8066,0.0028,0.0504,-0.0373,-18.19,-36.06,-5.0,261.59,-82.53,-158.49
45007,52.411232,-1.472289,136.52,6.52,3,345.02,25 / 25,4314310,2019-09-08 13:18:53:549,0.2566,0.7498,9.9718,-0.0138,0.004,9.8065,0.0905,0.04,-0.0415,-18.5,-36.56,-5.87,257.31,-82.33,-159.54
45008,52.411232,-1.472289,136.52,6.52,3,345.02,25 / 25,4314410,2019-09-08 13:18:53:649,0.5381,1.711,10.3804,0.0185,0.0169,9.8066,0.0813,0.0985,-0.0658,-17.62,-36.69,-5.25,258.93,-82.14,-160.09
45009,52.411232,-1.472289,136.52,6.52,3,345.02,25 / 25,4314510,2019-09-08 13:18:53:749,-0.412,1.1613,9.888,0.0096,0.0167,9.8066,-0.0722,0.0945,-0.0102,-17.5,-36.06,-5.75,253.86,-82.05,-161.31
45010,52.411232,-1.472289,136.52,6.52,3,345.02,25 / 25,4314610,2019-09-08 13:18:53:849,-0.7572,1.1843,9.665,-0.0078,-0.0101,9.8066,-0.0872,0.1114,-0.0032,-17.31,-36.87,-5.31,255.57,-82.08,-161.84
45011,52.411232,-1.472289,136.52,6.52,3,345.02,25 / 25,4314710,2019-09-08 13:18:53:949,-0.3554,1.616,9.8157,-0.0042,-0.0043,9.8066,-0.0496,0.1773,-0.0274,-17.56,-37.25,-5.69,254.92,-82.09,-161.63
45012,52.411232,-1.472289,136.52,6.52,3,345.02,23 / 23,4314809,2019-09-08 13:18:54:048,0.1096,1.0858,9.9633,0.0243,-0.0086,9.8066,0.0418,0.1233,0.0342,-16.87,-36.37,-5.75,254.57,-82.0,-160.44
45013,52.411232,-1.472289,136.52,6.52,3,345.02,23 / 23,4314910,2019-09-08 13:18:54:149,0.256,0.5679,9.8706,0.0255,-0.0003,9.8065,-0.0049,0.0957,0.0257,-17.25,-36.75,-6.0,255.02,-81.91,-159.32
45014,52.411232,-1.472289,136.52,6.52,3,345.02,23 / 23,4315010,2019-09-08 13:18:54:249,-0.3262,1.2688,9.4541,-0.0108,-0.0183,9.8065,0.0616,0.1081,-0.0143,-15.87,-36.25,-6.56,251.36,-81.92,-159.09
45015,52.411232,-1.472289,136.52,6.52,3,345.02,23 / 23,4315110,2019-09-08 13:18:54:349,0.0976,2.0265,10.369,-0.0249,-0.0309,9.8065,0.0406,0.1184,-0.068,-16.44,-36.5,-6.06,255.58,-82.05,-157.46
45016,52.411232,-1.472289,136.52,6.52,3,345.02,23 / 23,4315210,2019-09-08 13:18:54:449,1.4176,0.7207,10.3373,0.0659,0.0434,9.8063,-0.2429,0.1056,-0.0393,-16.62,-36.44,-5.81,258.06,-82.23,-157.15
45017,52.411232,-1.472289,136.52,6.52,3,345.02,23 / 23,4315310,2019-09-08 13:18:54:549,-0.5927,1.0576,9.8492,0.058,0.0587,9.8062,-0.2188,0.1246,-0.0355,-16.69,-37.06,-6.56,252.84,-81.9,-159.08
45018,52.411232,-1.472289,136.52,6.52,3,345.02,23 / 23,4315410,2019-09-08 13:18:54:649,-0.3827,1.1218,10.1584,-0.0423,-0.0311,9.8064,0.2181,0.1152,-0.0167,-15.87,-36.44,-6.44,254.65,-82.21,-158.81
45019,52.411232,-1.472289,136.52,6.52,3,345.02,23 / 23,4315510,2019-09-08 13:18:54:749,0.1492,1.0359,10.3858,-0.0336,-0.0331,9.8065,0.182,0.1317,-0.0161,-15.56,-35.87,-6.25,254.42,-82.13,-158.89
45020,52.411232,-1.472289,136.52,6.52,3,345.02,23 / 23,4315610,2019-09-08 13:18:54:849,0.2593,2.4117,10.4502,0.0311,0.0358,9.8065,-0.0497,0.1515,-0.0985,-15.87,-36.75,-6.5,252.65,-82.08,-160.26
45021,52.411232,-1.472289,136.52,6.52,3,345.02,24 / 24,4315710,2019-09-08 13:18:54:949,0.2665,1.2777,9.6907,0.0205,0.0446,9.8064,-0.0919,0.078,-0.039,-15.19,-37.19,-6.12,248.04,-81.82,-162.6
45022,52.411232,-1.472289,136.52,6.52,3,345.02,24 / 24,4315810,2019-09-08 13:18:55:049,-0.8212,0.5981,10.0884,-0.0344,-0.0139,9.8065,0.1288,0.1072,-0.07,-15.31,-36.25,-6.87,245.73,-82.07,-163.45
45023,52.411232,-1.472289,136.52,6.52,3,345.02,24 / 24,4315910,2019-09-08 13:18:55:149,0.1338,1.6667,9.6631,-0.0525,-0.0237,9.8064,0.1275,0.1281,-0.0363,-14.12,-36.37,-6.69,242.58,-82.16,-164.77
45024,52.411232,-1.472289,136.52,6.52,3,345.02,24 / 24,4316010,2019-09-08 13:18:55:249,-0.4244,1.212,10.2519,0.0049,0.0311,9.8065,-0.0799,0.1048,-0.0319,-14.81,-37.31,-6.94,244.01,-82.14,-165.12
45025,52.411232,-1.472289,136.52,6.52,3,345.02,24 / 24,4316110,2019-09-08 13:18:55:349,0.4954,1.5735,9.5874,0.0107,0.0275,9.8066,0.1097,-0.0167,-0.1138,-13.81,-36.62,-7.0,239.42,-82.04,-167.77
45026,52.411232,-1.472289,136.52,6.52,3,345.02,24 / 24,4316210,2019-09-08 13:18:55:449,-0.2329,4.9467,9.5469,0.0899,0.0689,9.8059,-0.5087,0.3021,-0.2034,-14.12,-37.12,-7.19,238.57,-82.39,-169.5
45027,52.411232,-1.472289,136.52,6.52,3,345.02,24 / 24,4316310,2019-09-08 13:18:55:549,-2.8264,2.0378,9.4936,0.0525,0.0702,9.8062,-0.2587,0.1389,-0.0911,-13.31,-36.75,-6.94,234.36,-81.85,-170.72
45028,52.411232,-1.472289,136.52,6.52,3,345.02,24 / 24,4316410,2019-09-08 13:18:55:649,-4.8909,2.7845,8.052,-0.0362,-0.0376,9.8065,-0.301,0.2245,-0.1827,-12.94,-37.12,-7.37,235.72,-82.31,-170.02
45029,52.411232,-1.472289,136.52,6.52,3,345.02,24 / 24,4316510,2019-09-08 13:18:55:749,-2.9667,2.2922,8.7572,0.0546,0.0261,9.8064,-0.3759,0.292,-0.2495,-12.31,-36.94,-8.06,232.11,-82.18,-168.37
45030,52.411232,-1.472289,136.52,6.52,3,345.02,24 / 24,4316610,2019-09-08 13:18:55:849,-2.4028,1.3135,9.9609,-0.0432,-0.0363,9.8065,0.1532,-0.0979,0.1761,-13.19,-37.12,-8.37,235.16,-82.55,-168.43
45031,52.41175,-1.472306,136.45,8.22,3,10.78,23 / 23,4316710,2019-09-08 13:18:55:949,-0.7706,0.0147,9.8984,0.0823,0.0105,9.8062,0.0182,0.0757,-0.1005,-11.94,-36.44,-7.44,236.78,-82.44,-166.52
45032,52.41175,-1.472306,136.45,8.22,3,10.78,23 / 23,4316810,2019-09-08 13:18:56:049,-0.8267,3.1295,10.5944,-0.0178,-0.0253,9.8066,-0.0673,0.1963,-0.1763,-12.5,-37.12,-6.87,237.17,-82.58,-165.88
45033,52.41175,-1.472306,136.45,8.22,3,10.78,23 / 23,4316910,2019-09-08 13:18:56:149,-0.6609,-1.0969,11.6174,0.1047,0.078,9.8057,0.168,-0.0366,0.3508,-12.44,-37.0,-7.87,235.12,-82.42,-165.21
45034,52.41175,-1.472306,136.45,8.22,3,10.78,23 / 23,4317010,2019-09-08 13:18:56:249,-0.4195,-1.1935,10.6472,-0.0209,0.0113,9.8066,0.2783,0.1029,-0.0432,-12.19,-37.5,-7.37,235.95,-81.86,-165.73
45035,52.41175,-1.472306,136.45,8.22,3,10.78,23 / 23,4317110,2019-09-08 13:18:56:349,-1.2138,0.6041,11.1601,-0.0048,-0.0159,9.8065,0.2109,0.0618,-0.0927,-12.19,-37.37,-7.56,233.7,-81.94,-165.91
45036,52.41175,-1.472306,136.45,8.22,3,10.78,23 / 23,4317210,2019-09-08 13:18:56:449,-1.5,1.1808,10.6856,-0.0134,-0.0353,9.8065,-0.0785,-0.0249,0.0627,-12.06,-37.0,-7.62,234.96,-82.06,-164.64
45037,52.41175,-1.472306,136.45,8.22,3,10.78,23 / 23,4317310,2019-09-08 13:18:56:549,0.3073,-0.0769,9.8778,0.0289,-0.0007,9.8066,-0.0251,0.0239,0.0897,-11.87,-37.37,-7.25,237.37,-81.99,-164.29
45038,52.41175,-1.472306,136.45,8.22,3,10.78,23 / 23,4317410,2019-09-08 13:18:56:649,-0.7242,0.5941,9.6009,0.0035,-0.0018,9.8066,0.085,0.1089,0.0165,-11.69,-37.06,-6.87,237.65,-81.78,-163.45
45039,52.41175,-1.472306,136.45,8.22,3,10.78,23 / 23,4317510,2019-09-08 13:18:56:749,-0.3363,-0.4961,10.333,-0.0061,-0.0301,9.8065,0.0705,0.035,0.0606,-12.06,-37.12,-7.06,238.12,-81.69,-162.66
45040,52.41175,-1.472306,136.45,8.22,3,10.78,23 / 23,4317610,2019-09-08 13:18:56:849,-0.2578,0.1101,11.3649,-0.0245,-0.036,9.8065,0.0326,0.0999,-0.058,-11.69,-37.0,-7.5,239.88,-81.94,-161.11
45041,52.41175,-1.472306,136.45,8.22,3,10.78,23 / 23,4317710,2019-09-08 13:18:56:949,-1.0742,1.4149,10.4844,0.0155,0.0468,9.8065,0.0058,0.0732,-0.0247,-11.06,-37.0,-7.56,234.17,-82.08,-162.27
45042,52.41175,-1.472306,136.45,8.22,3,10.78,23 / 23,4317809,2019-09-08 13:18:57:048,-0.945,0.5379,9.1873,0.0105,0.0297,9.8065,0.1206,0.0775,-0.0189,-10.87,-36.87,-7.06,234.45,-81.79,-163.97
45043,52.41175,-1.472306,136.45,8.22,3,10.78,23 / 23,4317910,2019-09-08 13:18:57:149,-0.9362,0.657,9.7716,0.0023,-0.0044,9.8066,0.0804,0.116,-0.0246,-10.75,-37.12,-7.75,231.91,-81.61,-164.04
45044,52.41175,-1.472306,136.45,8.22,3,10.78,23 / 23,4318010,2019-09-08 13:18:57:249,0.7919,-0.2046,10.6406,-0.012,-0.0119,9.8066,0.0333,0.0567,0.0441,-10.81,-36.44,-7.25,234.93,-81.58,-163.42
45045,52.41175,-1.472306,136.45,8.22,3,10.78,23 / 23,4318110,2019-09-08 13:18:57:349,-1.0242,0.1239,10.115,0.0005,-0.0096,9.8066,-0.0187,0.0806,0.0295,-10.62,-37.37,-7.31,234.62,-81.51,-163.09
45046,52.41175,-1.472306,136.45,8.22,3,10.78,23 / 23,4318210,2019-09-08 13:18:57:449,-0.6156,0.0006,9.9726,0.0019,-0.0087,9.8066,-0.0203,0.0044,0.0578,-10.69,-37.31,-7.69,233.1,-81.45,-162.17
45047,52.41175,-1.472306,136.45,8.22,3,10.78,23 / 23,4318310,2019-09-08 13:18:57:549,-0.7076,-0.2682,9.6989,0.0138,-0.0038,9.8066,-0.0296,0.032,0.0367,-11.12,-37.44,-7.69,233.64,-81.28,-161.1
45048,52.41175,-1.472306,136.45,8.22,3,10.78,23 / 23,4318410,2019-09-08 13:18:57:649,-0.8923,-0.2939,9.7181,0.0123,-0.0105,9.8065,0.0824,-0.0064,0.028,-11.25,-37.62,-7.87,233.82,-81.22,-160.19
45049,52.41175,-1.472306,136.45,8.22,3,10.78,23 / 23,4318510,2019-09-08 13:18:57:749,0.219,-0.2027,9.6048,-0.0037,-0.0214,9.8065,0.0049,0.0058,0.0278,-10.56,-37.44,-7.69,234.53,-81.18,-159.74
45050,52.41175,-1.472306,136.45,8.22,3,10.78,23 / 23,4318610,2019-09-08 13:18:57:849,0.4323,0.7455,9.9208,-0.0139,-0.0285,9.8065,0.0615,0.0079,0.0461,-11.0,-36.81,-7.62,235.67,-81.33,-158.65
45051,52.41175,-1.472306,136.45,8.22,3,10.78,24 / 24,4318710,2019-09-08 13:18:57:949,0.0525,-0.1792,9.866,0.0168,0.0222,9.8065,0.0251,0.01,0.0147,-10.69,-37.44,-7.19,238.56,-81.36,-157.73
45052,52.41175,-1.472306,136.45,8.22,3,10.78,24 / 24,4318810,2019-09-08 13:18:58:049,0.2036,-0.3636,9.7297,0.0237,0.0224,9.8065,0.0075,-0.0364,0.0112,-10.81,-37.56,-7.37,237.82,-81.16,-157.54
45053,52.41175,-1.472306,136.45,8.22,3,10.78,24 / 24,4318910,2019-09-08 13:18:58:149,0.4213,0.1721,10.4017,-0.0145,-0.0293,9.8066,0.0006,-0.0222,-0.0249,-10.69,-37.56,-7.5,238.7,-81.3,-156.8
45054,52.41175,-1.472306,136.45,8.22,3,10.78,24 / 24,4319010,2019-09-08 13:18:58:249,0.7219,0.8055,10.7636,-0.0133,-0.0347,9.8066,0.0628,-0.049,0.0672,-11.5,-37.5,-7.31,239.09,-81.19,-156.65
45055,52.41175,-1.472306,136.45,8.22,3,10.78,24 / 24,4319110,2019-09-08 13:18:58:349,0.6613,1.0205,10.8116,0.0366,0.0536,9.8064,0.1041,-0.0384,0.0239,-10.31,-37.0,-7.25,236.01,-81.13,-156.33
45056,52.41175,-1.472306,136.45,8.22,3,10.78,24 / 24,4319210,2019-09-08 13:18:58:449,-1.1283,-0.504,9.2805,0.0422,0.0517,9.8064,-0.1239,-0.0314,-0.039,-11.19,-37.62,-7.62,235.11,-80.69,-157.26
45057,52.41175,-1.472306,136.45,8.22,3,10.78,24 / 24,4319310,2019-09-08 13:18:58:549,-0.0143,-0.0737,9.5068,-0.0261,-0.0379,9.8065,-0.1261,-0.0517,-0.0465,-10.94,-37.5,-7.31,237.29,-80.68,-157.61
45058,52.41175,-1.472306,136.45,8.22,3,10.78,24 / 24,4319409,2019-09-08 13:18:58:648,0.7498,-0.0143,9.8075,-0.0271,-0.0333,9.8065,0.0913,0.042,-0.0932,-11.0,-37.87,-7.25,237.31,-80.83,-157.34
45059,52.41175,-1.472306,136.45,8.22,3,10.78,24 / 24,4319510,2019-09-08 13:18:58:749,0.722,0.1981,9.9207,0.005,0.0373,9.8066,0.0562,-0.0516,-0.0114,-10.81,-37.0,-7.75,234.73,-80.61,-158.16
45060,52.41175,-1.472306,136.45,8.22,3,10.78,24 / 24,4319610,2019-09-08 13:18:58:849,-0.6473,-0.2243,9.7415,0.019,0.0243,9.8065,-0.0054,-0.0595,0.0456,-11.12,-37.44,-7.12,236.33,-80.56,-158.55
45061,52.41175,-1.472306,136.45,8.22,3,10.78,23 / 23,4319710,2019-09-08 13:18:58:949,-0.0436,1.3253,9.5802,0.0011,-0.0024,9.8066,0.0915,0.0503,-0.0349,-10.75,-37.94,-7.81,233.84,-80.53,-158.52
45062,52.41175,-1.472306,136.45,8.22,3,10.78,23 / 23,4319810,2019-09-08 13:18:59:049,-0.0171,0.0965,9.4381,0.0077,0.0267,9.8065,-0.1075,0.0341,-0.0332,-11.31,-37.75,-7.12,235.73,-80.46,-158.4
45063,52.41175,-1.472306,136.45,8.22,3,10.78,23 / 23,4319910,2019-09-08 13:18:59:149,-0.287,0.641,9.7143,-0.0232,-0.0377,9.8065,-0.117,0.0423,-0.0132,-11.62,-37.37,-7.56,237.45,-80.53,-158.17
45064,52.41175,-1.472306,136.45,8.22,3,10.78,23 / 23,4320010,2019-09-08 13:18:59:249,-0.7255,0.9908,9.7982,-0.0135,-0.0303,9.8065,0.0216,-0.0711,0.1077,-11.19,-37.25,-7.94,235.55,-80.73,-157.39
45065,52.41175,-1.472306,136.45,8.22,3,10.78,23 / 23,4320110,2019-09-08 13:18:59:349,0.4691,-1.1044,9.7449,-0.0423,-0.0406,9.8064,-0.2201,0.0155,-0.09,-11.69,-37.56,-8.25,238.03,-80.84,-157.58
45066,52.41175,-1.472306,136.45,8.22,3,10.78,23 / 23,4320209,2019-09-08 13:18:59:448,-1.1642,1.3168,10.1456,-0.0205,-0.0748,9.8063,0.3476,0.0405,-0.0851,-12.0,-37.69,-7.81,238.33,-80.72,-156.91
45067,52.41175,-1.472306,136.45,8.22,3,10.78,23 / 23,4320310,2019-09-08 13:18:59:549,1.919,1.7744,10.8076,0.0594,0.0806,9.806,0.394,-0.0029,0.0326,-12.56,-37.12,-8.37,241.18,-80.63,-157.09
45068,52.41175,-1.472306,136.45,8.22,3,10.78,23 / 23,4320410,2019-09-08 13:18:59:649,-1.2047,-0.2159,9.5268,0.0281,0.0568,9.8064,-0.3522,0.1275,-0.0113,-13.19,-36.25,-8.44,239.77,-80.25,-158.58
45069,52.41175,-1.472306,136.45,8.22,3,10.78,23 / 23,4320510,2019-09-08 13:18:59:749,-0.4224,1.2421,9.6427,-0.05,-0.0354,9.8064,-0.15,0.0652,-0.0992,-13.87,-35.5,-7.62,242.6,-80.29,-158.81
45070,52.41175,-1.472306,136.45,8.22,3,10.78,23 / 23,4320610,2019-09-08 13:18:59:849,0.9498,0.2566,9.7922,-0.0357,-0.0257,9.8065,0.0498,0.0646,-0.1037,-12.94,-34.56,-6.5,245.33,-80.55,-158.55
45071,52.41175,-1.472306,136.45,8.22,3,10.78,23 / 23,4320710,2019-09-08 13:18:59:949,0.3513,0.2326,9.2973,0.0189,0.0235,9.8066,0.0176,0.0173,-0.0138,-12.31,-35.0,-6.19,241.55,-80.19,-158.96
45072,52.41175,-1.472306,136.45,8.22,3,10.78,23 / 23,4320810,2019-09-08 13:19:00:049,-0.362,0.9729,9.3428,0.0186,0.0213,9.8066,-0.018,0.0207,0.0362,-11.06,-35.0,-6.31,238.42,-80.09,-158.89
45073,52.41175,-1.472306,136.45,8.22,3,10.78,23 / 23,4320910,2019-09-08 13:19:00:149,-0.3452,-0.2242,9.4919,-0.0303,-0.0308,9.8065,-0.1421,-0.0134,0.0017,-11.75,-35.19,-7.44,239.13,-80.17,-159.06
45074,52.41175,-1.472306,136.45,8.22,3,10.78,23 / 23,4321010,2019-09-08 13:19:00:249,0.1018,0.5804,10.5204,-0.0247,-0.0364,9.8065,0.1685,0.0344,-0.0081,-12.25,-35.25,-7.31,240.06,-80.46,-158.6
45075,52.41175,-1.472306,136.45,8.22,3,10.78,23 / 23,4321110,2019-09-08 13:19:00:349,1.4525,0.4799,10.4773,0.0214,0.0526,9.8064,0.1859,-0.0299,0.0582,-12.06,-35.37,-6.87,239.79,-80.35,-158.66
45076,52.41175,-1.472306,136.45,8.22,3,10.78,23 / 23,4321210,2019-09-08 13:19:00:449,0.3653,0.2725,9.8088,0.0269,0.0455,9.8065,-0.0038,0.0007,-0.0245,-11.12,-35.0,-6.44,237.02,-80.0,-160.49
45077,52.41175,-1.472306,136.45,8.22,3,10.78,23 / 23,4321310,2019-09-08 13:19:00:549,0.9584,-0.6643,10.3675,-0.0268,-0.0086,9.8066,-0.0291,0.008,-0.1064,-10.62,-35.5,-7.69,232.32,-80.19,-161.56
45078,52.41175,-1.472306,136.45,8.22,3,10.78,23 / 23,4321410,2019-09-08 13:19:00:649,0.6122,0.1493,10.4736,-0.0135,-0.0292,9.8066,0.068,0.0484,-0.0348,-11.0,-35.31,-8.44,232.55,-80.25,-161.39
45079,52.41175,-1.472306,136.45,8.22,3,10.78,23 / 23,4321510,2019-09-08 13:19:00:749,0.1032,0.6425,9.7131,0.007,0.0228,9.8066,0.1569,0.0515,-0.0054,-11.69,-35.25,-9.19,233.31,-80.31,-161.68
45080,52.41175,-1.472306,136.45,8.22,3,10.78,23 / 23,4321610,2019-09-08 13:19:00:849,-0.6494,0.7634,9.6592,0.0229,0.0219,9.8065,-0.1526,0.0773,0.0175,-14.12,-33.75,-8.81,238.14,-80.09,-161.94
45081,52.41175,-1.472306,136.45,8.22,3,10.78,22 / 22,4321710,2019-09-08 13:19:00:949,-0.4329,-0.9043,10.562,-0.0079,-0.0099,9.8066,-0.1122,-0.003,0.0406,-15.81,-33.31,-7.06,247.43,-80.13,-161.6
45082,52.41175,-1.472306,136.45,8.22,3,10.78,22 / 22,4321810,2019-09-08 13:19:01:049,0.2021,-1.0605,10.4462,-0.0051,0.0049,9.8066,0.0498,0.0451,-0.0971,-14.5,-33.62,-4.0,250.22,-80.22,-161.88
45083,52.41175,-1.472306,136.45,8.22,3,10.78,22 / 22,4321910,2019-09-08 13:19:01:149,0.9424,0.0746,9.9462,0.0316,0.0234,9.8066,0.0949,-0.0791,0.0368,-9.75,-34.94,-3.69,237.32,-80.01,-162.61
45084,52.41175,-1.472306,136.45,8.22,3,10.78,22 / 22,4322010,2019-09-08 13:19:01:249,-0.4481,-1.0666,9.2932,0.0171,0.0272,9.8065,-0.0629,0.0234,-0.0753,-8.5,-35.81,-5.5,226.49,-79.92,-162.73
45085,52.41175,-1.472306,136.45,8.22,3,10.78,22 / 22,4322110,2019-09-08 13:19:01:349,-1.179,0.7619,9.0152,-0.0359,-0.0331,9.8064,-0.0578,0.011,-0.0874,-8.44,-36.37,-6.94,222.4,-79.93,-163.15
45086,52.41175,-1.472306,136.45,8.22,3,10.78,22 / 22,4322210,2019-09-08 13:19:01:449,-0.2657,0.6549,10.4049,-0.0169,-0.0416,9.8065,0.037,0.0039,-0.078,-8.75,-36.19,-7.25,226.62,-80.27,-162.93
45087,52.41175,-1.472306,136.45,8.22,3,10.78,22 / 22,4322310,2019-09-08 13:19:01:549,0.1761,0.1833,10.1546,0.0192,0.0276,9.8066,0.0466,-0.0259,0.0212,-10.0,-36.94,-7.94,227.62,-80.27,-162.81
45088,52.41175,-1.472306,136.45,8.22,3,10.78,22 / 22,4322410,2019-09-08 13:19:01:649,-0.0011,0.2615,10.3473,0.0233,0.0216,9.8065,-0.0431,-0.0133,0.0288,-9.75,-37.62,-7.56,226.68,-79.98,-162.85
45089,52.41175,-1.472306,136.45,8.22,3,10.78,22 / 22,4322510,2019-09-08 13:19:01:749,-0.7501,0.3441,9.5171,-0.0147,-0.0179,9.8065,-0.1021,0.0174,0.0241,-10.5,-37.44,-7.06,228.94,-80.04,-162.99
45090,52.41175,-1.472306,136.45,8.22,3,10.78,22 / 22,4322610,2019-09-08 13:19:01:849,-0.0717,0.2978,9.9123,-0.0243,-0.0223,9.8065,0.1975,-0.0158,0.0052,-10.44,-37.56,-6.69,228.11,-80.03,-163.48
45091,52.41175,-1.472306,136.45,8.22,3,10.78,24 / 25,4322711,2019-09-08 13:19:01:950,1.2538,0.7376,10.2964,0.0409,0.0443,9.8064,0.2468,-0.0231,0.0436,-10.62,-37.19,-6.94,231.39,-80.07,-163.87
45092,52.41175,-1.472306,136.45,8.22,3,10.78,24 / 25,4322810,2019-09-08 13:19:02:049,0.4895,-0.7427,10.1487,0.0229,0.0296,9.8066,-0.1025,-0.0458,0.0735,-10.94,-36.81,-6.87,230.87,-79.83,-164.01
45093,52.41175,-1.472306,136.45,8.22,3,10.78,24 / 25,4322910,2019-09-08 13:19:02:149,-0.4425,0.0251,9.8961,0.007,-0.0057,9.8066,-0.0613,0.0385,0.013,-11.19,-36.75,-6.69,230.89,-79.94,-164.23
45094,52.41175,-1.472306,136.45,8.22,3,10.78,24 / 25,4323009,2019-09-08 13:19:02:248,0.1424,0.3719,9.4766,0.0158,0.0241,9.8065,-0.0976,0.012,-0.0013,-10.25,-36.69,-5.75,229.63,-79.83,-164.35
45095,52.41175,-1.472306,136.45,8.22,3,10.78,24 / 25,4323111,2019-09-08 13:19:02:350,-0.7121,-0.866,9.7288,0.0027,-0.0367,9.8066,-0.0076,0.0075,0.0349,-9.94,-36.06,-6.94,229.22,-79.95,-163.08
45096,52.41175,-1.472306,136.45,8.22,3,10.78,24 / 25,4323210,2019-09-08 13:19:02:449,-1.6585,-0.4202,10.1287,-0.0202,-0.0402,9.8065,0.1529,0.1078,-0.0579,-9.31,-36.75,-6.81,226.16,-80.01,-162.23
45097,52.41175,-1.472306,136.45,8.22,3,10.78,24 / 25,4323310,2019-09-08 13:19:02:549,0.9532,0.7555,10.7759,0.027,0.0373,9.8065,0.2388,-0.1151,0.106,-9.62,-36.31,-7.06,229.95,-80.03,-162.27
45098,52.41175,-1.472306,136.45,8.22,3,10.78,24 / 25,4323410,2019-09-08 13:19:02:649,-1.5587,0.1864,8.8912,0.0428,0.0612,9.8063,-0.1057,0.0411,-0.0671,-10.5,-36.5,-8.25,227.1,-79.68,-162.85
45099,52.41175,-1.472306,136.45,8.22,3,10.78,24 / 25,4323510,2019-09-08 13:19:02:749,-0.0441,-0.5844,8.7391,-0.0322,-0.041,9.8064,-0.1372,-0.0405,0.0016,-10.5,-36.62,-7.19,228.09,-79.67,-163.3
45100,52.41175,-1.472306,136.45,8.22,3,10.78,24 / 25,4323610,2019-09-08 13:19:02:849,-0.5474,-0.4906,9.6092,-0.0156,-0.0285,9.8066,0.2217,0.017,-0.0166,-11.06,-36.0,-7.0,232.1,-79.88,-163.12
45101,52.41175,-1.472306,136.45,8.22,3,10.78,24 / 24,4323710,2019-09-08 13:19:02:949,0.3472,0.16,10.1797,0.0015,0.0232,9.8066,0.091,0.0092,-0.0529,-10.94,-36.56,-7.31,230.84,-79.85,-164.07
45102,52.41175,-1.472306,136.45,8.22,3,10.78,24 / 24,4323809,2019-09-08 13:19:03:048,-0.0904,0.4969,10.0435,0.0017,0.0148,9.8066,-0.0121,-0.0058,-0.022,-10.87,-37.25,-7.69,228.73,-79.87,-164.41
45103,52.41175,-1.472306,136.45,8.22,3,10.78,24 / 24,4323910,2019-09-08 13:19:03:149,-0.1352,-0.7119,9.6448,0.0014,-0.015,9.8066,-0.0299,0.0077,0.0249,-10.81,-36.81,-7.0,230.53,-79.89,-164.6
45104,52.41175,-1.472306,136.45,8.22,3,10.78,24 / 24,4324010,2019-09-08 13:19:03:249,0.4326,0.035,10.1904,-0.0174,-0.0211,9.8066,0.0572,0.0131,0.1013,-10.62,-37.62,-7.37,230.83,-80.03,-163.88
45105,52.41175,-1.472306,136.45,8.22,3,10.78,24 / 24,4324110,2019-09-08 13:19:03:349,-0.1903,-0.0672,10.8234,0.0109,0.0087,9.8066,0.0523,0.042,0.0331,-11.06,-37.75,-7.25,231.33,-80.03,-163.19
45106,52.41175,-1.472306,136.45,8.22,3,10.78,24 / 24,4324210,2019-09-08 13:19:03:449,-0.1339,0.5674,10.584,0.0104,0.0188,9.8066,-0.1163,-0.0164,0.0613,-10.31,-37.87,-6.94,228.14,-79.94,-163.2
45107,52.41175,-1.472306,136.45,8.22,3,10.78,24 / 24,4324311,2019-09-08 13:19:03:550,-0.8311,-0.4288,9.483,0.0046,0.0038,9.8066,-0.0522,0.0199,-0.0102,-10.81,-37.69,-7.25,230.93,-79.88,-163.37
45108,52.41175,-1.472306,136.45,8.22,3,10.78,24 / 24,4324410,2019-09-08 13:19:03:649,-0.2036,-1.2331,9.3181,0.0104,0.0147,9.8066,0.1503,0.0035,0.0269,-10.37,-37.94,-7.81,225.85,-79.75,-163.51
45109,52.41175,-1.472306,136.45,8.22,3,10.78,24 / 24,4324510,2019-09-08 13:19:03:749,0.3051,-0.1769,9.3423,-0.019,-0.0197,9.8065,0.0544,0.0353,0.0099,-10.87,-37.62,-7.12,230.75,-79.75,-163.33
45110,52.41175,-1.472306,136.45,8.22,3,10.78,24 / 24,4324610,2019-09-08 13:19:03:849,0.7474,0.6301,10.4828,0.0236,0.034,9.8065,-0.0587,0.0055,0.0087,-11.5,-37.19,-6.75,231.0,-79.87,-163.91
45111,52.41175,-1.472306,136.45,8.22,3,10.78,23 / 24,4324710,2019-09-08 13:19:03:949,0.4631,0.6029,10.1245,0.0237,0.024,9.8065,-0.031,0.0077,0.0324,-11.94,-36.87,-6.44,236.32,-79.98,-163.72
45112,52.41175,-1.472306,136.45,8.22,3,10.78,23 / 24,4324809,2019-09-08 13:19:04:048,-0.4573,-0.5189,9.3391,-0.008,-0.0235,9.8066,0.0338,0.0263,0.0194,-11.37,-36.87,-6.44,233.51,-80.06,-163.86
45113,52.41175,-1.472306,136.45,8.22,3,10.78,23 / 24,4324910,2019-09-08 13:19:04:149,-0.996,0.4847,10.777,0.0055,-0.0195,9.8066,0.0519,0.0077,0.0291,-10.87,-35.81,-7.19,232.7,-80.04,-162.7
45114,52.41175,-1.472306,136.45,8.22,3,10.78,23 / 24,4325010,2019-09-08 13:19:04:249,2.1955,-0.6742,10.7125,0.0137,0.0635,9.8063,-0.0921,0.0967,-0.1265,-9.81,-36.81,-7.0,228.03,-79.77,-163.61
45115,52.41175,-1.472306,136.45,8.22,3,10.78,23 / 24,4325110,2019-09-08 13:19:04:349,0.8591,2.9291,9.5826,0.0464,0.0877,9.8061,-0.0601,-0.068,0.1904,-9.75,-37.19,-7.56,224.43,-79.63,-165.84
45116,52.41175,-1.472306,136.45,8.22,3,10.78,23 / 24,4325210,2019-09-08 13:19:04:449,0.283,-2.3652,9.6896,-0.0648,-0.1485,9.8053,0.309,0.0238,0.0765,-9.81,-36.75,-7.37,226.52,-79.23,-164.48
45117,52.41175,-1.472306,136.45,8.22,3,10.78,23 / 24,4325310,2019-09-08 13:19:04:549,-0.115,2.2484,10.0563,-0.1157,-0.1762,9.8043,0.3843,0.0838,-0.0456,-10.69,-36.81,-6.69,232.69,-80.22,-162.48
45118,52.41175,-1.472306,136.45,8.22,3,10.78,23 / 24,4325410,2019-09-08 13:19:04:649,1.7248,0.1786,12.1417,0.0951,0.1052,9.8056,0.1013,0.0598,-0.1212,-11.37,-35.62,-6.12,235.53,-80.17,-162.16
45119,52.41175,-1.472306,136.45,8.22,3,10.78,23 / 24,4325510,2019-09-08 13:19:04:749,2.569,0.6532,9.134,0.022,0.0536,9.8064,0.4103,-0.024,-0.0435,-11.19,-35.94,-6.37,234.18,-79.84,-163.09
45120,52.41175,-1.472306,136.45,8.22,3,10.78,23 / 24,4325610,2019-09-08 13:19:04:849,-0.3046,-1.184,9.0042,0.0443,0.0307,9.8064,-0.6725,0.09,-0.0171,-10.44,-36.19,-6.69,229.34,-79.8,-162.54
45121,52.412487,-1.472235,138.07,9.85,2,1.39,24 / 25,4325710,2019-09-08 13:19:04:949,1.6711,1.8665,11.9501,0.0323,0.0774,9.8062,-0.5707,-0.0026,0.068,-10.5,-36.19,-6.06,232.66,-80.2,-161.85
45122,52.412487,-1.472235,138.07,9.85,2,1.39,24 / 25,4325810,2019-09-08 13:19:05:049,-1.6631,0.4133,9.3523,0.0032,0.0473,9.8065,0.0079,0.1026,-0.1191,-8.94,-37.12,-7.25,226.05,-80.18,-162.81
45123,52.412487,-1.472235,138.07,9.85,2,1.39,24 / 25,4325910,2019-09-08 13:19:05:149,0.3416,1.5389,9.8027,0.0308,0.0411,9.8065,0.0676,0.0036,0.058,-9.5,-36.69,-7.06,224.57,-80.02,-164.55
45124,52.412487,-1.472235,138.07,9.85,2,1.39,24 / 25,4326010,2019-09-08 13:19:05:249,1.346,-0.263,10.4715,0.0352,0.0298,9.8065,0.0565,-0.0016,-0.0622,-10.62,-37.19,-7.56,228.49,-79.6,-164.18
45125,52.412487,-1.472235,138.07,9.85,2,1.39,24 / 25,4326110,2019-09-08 13:19:05:349,0.8746,0.4066,9.9928,0.0082,0.0172,9.8066,-0.0503,-0.0029,0.0221,-11.06,-36.62,-7.37,230.31,-79.64,-164.32
45126,52.412487,-1.472235,138.07,9.85,2,1.39,24 / 25,4326210,2019-09-08 13:19:05:449,0.5878,0.5413,9.7623,0.0144,0.0333,9.8065,-0.1087,-0.049,0.0291,-10.31,-37.62,-7.44,226.16,-79.49,-164.93
45127,52.412487,-1.472235,138.07,9.85,2,1.39,24 / 25,4326310,2019-09-08 13:19:05:549,-0.4602,-0.2072,10.0446,-0.0138,-0.0159,9.8066,-0.0327,-0.0174,-0.0461,-10.44,-36.62,-6.94,227.49,-79.72,-164.27
45128,52.412487,-1.472235,138.07,9.85,2,1.39,24 / 25,4326410,2019-09-08 13:19:05:649,-0.6579,-0.1425,9.8005,-0.0091,-0.0074,9.8065,-0.0668,-0.0071,-0.0347,-11.94,-37.12,-7.12,233.31,-79.74,-164.27
45129,52.412487,-1.472235,138.07,9.85,2,1.39,24 / 25,4326510,2019-09-08 13:19:05:749,-1.0172,0.6806,9.7018,-0.0007,0.0174,9.8065,-0.0074,-0.0732,0.0518,-11.25,-36.56,-7.19,230.55,-79.77,-164.29
45130,52.412487,-1.472235,138.07,9.85,2,1.39,24 / 25,4326612,2019-09-08 13:19:05:851,-1.1823,-1.3457,9.4298,0.0286,0.0306,9.8065,-0.1586,-0.017,-0.0401,-11.0,-36.25,-7.25,230.82,-79.59,-164.18
45131,52.412487,-1.472235,138.07,9.85,2,1.39,23 / 24,4326711,2019-09-08 13:19:05:950,-0.1906,-1.117,9.6412,-0.0435,-0.0448,9.8064,0.1755,-0.0779,0.0778,-11.06,-35.81,-6.31,234.1,-79.98,-163.57
45132,52.412487,-1.472235,138.07,9.85,2,1.39,23 / 24,4326810,2019-09-08 13:19:06:049,-1.1069,0.3093,9.8435,-0.0164,-0.0531,9.8065,0.1417,0.0471,-0.0856,-10.44,-36.94,-7.06,228.69,-79.93,-163.08
45133,52.412487,-1.472235,138.07,9.85,2,1.39,23 / 24,4326910,2019-09-08 13:19:06:149,-0.3482,-0.5456,9.7132,0.0335,0.0494,9.8064,-0.2047,0.0152,-0.0623,-10.56,-37.5,-6.44,233.82,-79.87,-162.96
45134,52.412487,-1.472235,138.07,9.85,2,1.39,23 / 24,4327010,2019-09-08 13:19:06:249,-0.4493,-1.796,9.5332,0.0512,0.0677,9.8063,-0.2209,-0.0381,0.0211,-10.5,-37.12,-6.87,227.24,-79.45,-163.98
45135,52.412487,-1.472235,138.07,9.85,2,1.39,23 / 24,4327110,2019-09-08 13:19:06:349,-1.2062,-1.6903,8.9454,-0.0441,-0.0768,9.8062,0.203,0.0037,-0.0408,-10.44,-37.87,-7.81,225.24,-79.46,-163.71
45136,52.412487,-1.472235,138.07,9.85,2,1.39,23 / 24,4327210,2019-09-08 13:19:06:449,-0.1757,0.6739,10.751,-0.0371,-0.0643,9.8064,0.2034,-0.0312,0.0247,-10.56,-37.31,-6.44,233.9,-79.88,-162.87
45137,52.412487,-1.472235,138.07,9.85,2,1.39,23 / 24,4327310,2019-09-08 13:19:06:549,-0.066,0.0243,10.3727,0.0224,0.0406,9.8065,-0.0632,-0.042,0.0577,-10.5,-38.0,-7.25,227.21,-79.51,-163.47
45138,52.412487,-1.472235,138.07,9.85,2,1.39,23 / 24,4327410,2019-09-08 13:19:06:649,0.0211,0.3091,10.0341,0.0164,0.013,9.8065,0.0275,-0.0168,0.0075,-10.94,-37.0,-6.94,231.07,-79.55,-163.08
45139,52.412487,-1.472235,138.07,9.85,2,1.39,23 / 24,4327510,2019-09-08 13:19:06:749,-0.5376,0.7121,9.2348,0.0107,0.0075,9.8066,-0.1084,0.0136,-0.0506,-10.81,-36.87,-7.5,231.27,-79.6,-162.92
45140,52.412487,-1.472235,138.07,9.85,2,1.39,23 / 24,4327610,2019-09-08 13:19:06:849,-0.1399,-0.9181,9.79,0.0092,0.0258,9.8066,-0.1235,-0.0346,0.0385,-11.44,-36.25,-7.44,231.51,-79.47,-162.97
45141,52.412487,-1.472235,138.07,9.85,2,1.39,23 / 24,4327710,2019-09-08 13:19:06:949,0.6997,0.3643,9.9954,-0.0001,-0.0026,9.8066,0.0974,-0.0343,0.0943,-11.0,-35.94,-6.19,233.74,-79.56,-162.99
45142,52.412487,-1.472235,138.07,9.85,2,1.39,23 / 24,4327810,2019-09-08 13:19:07:049,1.0124,0.6112,10.3166,0.0096,-0.0057,9.8066,0.08,0.0217,0.0126,-10.25,-36.69,-6.44,230.45,-79.55,-162.42
45143,52.412487,-1.472235,138.07,9.85,2,1.39,23 / 24,4327910,2019-09-08 13:19:07:149,-1.075,-0.2053,9.2401,0.0028,-0.0203,9.8066,0.0122,0.0058,-0.0728,-10.19,-36.5,-7.25,229.6,-79.63,-161.78
45144,52.412487,-1.472235,138.07,9.85,2,1.39,23 / 24,4328009,2019-09-08 13:19:07:248,0.2412,0.0812,10.2728,-0.0135,-0.0271,9.8065,0.058,-0.0354,-0.0037,-11.5,-36.06,-7.31,232.92,-79.65,-161.49
45145,52.412487,-1.472235,138.07,9.85,2,1.39,23 / 24,4328110,2019-09-08 13:19:07:349,0.2087,1.2719,10.2026,0.0197,0.0395,9.8065,-0.0639,-0.0202,0.0528,-12.5,-35.31,-7.5,236.49,-79.61,-161.16
45146,52.412487,-1.472235,138.07,9.85,2,1.39,23 / 24,4328210,2019-09-08 13:19:07:449,-0.8921,-0.6244,9.3583,0.0401,0.0502,9.8064,-0.2013,0.0318,0.0502,-12.75,-35.19,-6.62,237.96,-79.29,-161.97
45147,52.412487,-1.472235,138.07,9.85,2,1.39,23 / 24,4328310,2019-09-08 13:19:07:549,-0.1698,-0.8713,9.7198,-0.0426,-0.0463,9.8064,0.2163,0.0027,0.0039,-11.31,-35.69,-5.44,236.33,-79.32,-161.96
45148,52.412487,-1.472235,138.07,9.85,2,1.39,23 / 24,4328410,2019-09-08 13:19:07:649,1.3262,1.6599,9.6639,-0.0316,-0.0457,9.8064,0.2636,-0.0281,-0.0344,-10.0,-36.19,-5.44,233.82,-79.69,-162.03
45149,52.412487,-1.472235,138.07,9.85,2,1.39,23 / 24,4328510,2019-09-08 13:19:07:749,0.0234,0.3033,10.0447,0.011,0.0322,9.8066,-0.0809,-0.0159,0.014,-10.5,-37.12,-6.5,229.87,-79.44,-162.96
45150,52.412487,-1.472235,138.07,9.85,2,1.39,23 / 24,4328610,2019-09-08 13:19:07:849,0.2135,-1.1083,9.8197,0.0127,0.0335,9.8065,-0.1597,-0.0451,0.0531,-10.06,-37.81,-6.31,229.01,-79.39,-163.31
45151,52.412487,-1.472235,138.07,9.85,2,1.39,21 / 22,4328710,2019-09-08 13:19:07:949,-0.2419,-0.4108,9.9473,-0.0264,-0.0372,9.8065,0.117,-0.0169,-0.0398,-10.75,-37.56,-6.12,232.81,-79.55,-162.76
45152,52.412487,-1.472235,138.07,9.85,2,1.39,21 / 22,4328810,2019-09-08 13:19:08:049,0.0904,0.123,9.8155,-0.0083,-0.0054,9.8066,0.0518,-0.0127,0.0121,-10.87,-37.37,-6.25,233.95,-79.76,-162.47
45153,52.412487,-1.472235,138.07,9.85,2,1.39,21 / 22,4328910,2019-09-08 13:19:08:149,-0.9621,-0.0314,9.1918,-0.0009,0.0037,9.8066,-0.049,0.0157,0.0453,-10.5,-37.56,-6.62,227.97,-79.74,-162.95
45154,52.412487,-1.472235,138.07,9.85,2,1.39,21 / 22,4329010,2019-09-08 13:19:08:249,-0.2329,0.0679,10.0815,0.0003,-0.0062,9.8066,0.0301,0.0016,-0.0307,-10.69,-37.87,-6.87,231.13,-79.72,-162.7
45155,52.412487,-1.472235,138.07,9.85,2,1.39,21 / 22,4329110,2019-09-08 13:19:08:349,-0.736,-0.8184,9.8592,-0.0125,0.0001,9.8066,-0.0509,-0.0027,-0.0732,-9.87,-38.06,-6.25,229.88,-79.75,-163.03
45156,52.412487,-1.472235,138.07,9.85,2,1.39,21 / 22,4329210,2019-09-08 13:19:08:449,-0.7324,-0.6138,9.7361,0.01,0.0128,9.8066,-0.1116,-0.012,-0.0617,-10.25,-38.0,-6.81,227.33,-79.65,-163.65
45157,52.412487,-1.472235,138.07,9.85,2,1.39,21 / 22,4329310,2019-09-08 13:19:08:549,0.9157,0.0373,10.1244,0.0195,0.0145,9.8065,-0.0849,0.0566,-0.0491,-10.94,-38.0,-6.19,232.4,-79.76,-163.87
45158,52.412487,-1.472235,138.07,9.85,2,1.39,21 / 22,4329410,2019-09-08 13:19:08:649,-0.0662,-0.4794,9.5507,-0.0033,0.0151,9.8066,-0.096,-0.0285,0.0504,-10.69,-37.44,-6.87,230.76,-79.78,-164.03
45159,52.412487,-1.472235,138.07,9.85,2,1.39,21 / 22,4329510,2019-09-08 13:19:08:749,0.0855,0.4136,9.6344,-0.0082,-0.0184,9.8066,0.0629,-0.0789,0.0448,-10.75,-37.75,-6.81,230.58,-79.84,-163.77
45160,52.412487,-1.472235,138.07,9.85,2,1.39,21 / 22,4329610,2019-09-08 13:19:08:849,-0.0267,-0.9902,10.0736,0.0018,-0.0205,9.8065,0.0219,-0.0171,-0.0601,-10.5,-37.62,-7.0,228.59,-79.94,-162.57
45161,52.412487,-1.472235,138.07,9.85,2,1.39,23 / 24,4329710,2019-09-08 13:19:08:949,-0.0483,-0.0351,9.3662,0.0112,0.0114,9.8066,-0.0714,0.0393,-0.0308,-11.0,-37.94,-6.81,231.34,-79.86,-162.77
45162,52.412487,-1.472235,138.07,9.85,2,1.39,23 / 24,4329809,2019-09-08 13:19:09:048,0.4557,0.6278,10.1075,0.0099,0.002,9.8066,0.0068,0.0142,-0.0427,-10.37,-38.12,-6.37,230.28,-79.85,-162.74
45163,52.412487,-1.472235,138.07,9.85,2,1.39,23 / 24,4329910,2019-09-08 13:19:09:149,-0.3266,-0.7563,9.8968,-0.0063,-0.0047,9.8066,0.1311,-0.0105,-0.0117,-11.0,-38.12,-6.81,230.9,-79.79,-163.2
45164,52.412487,-1.472235,138.07,9.85,2,1.39,23 / 24,4330010,2019-09-08 13:19:09:249,-0.0975,0.0989,9.7409,-0.0183,-0.0037,9.8066,0.1131,-0.0382,0.0685,-10.62,-38.0,-6.69,230.55,-79.86,-163.84
45165,52.412487,-1.472235,138.07,9.85,2,1.39,23 / 24,4330110,2019-09-08 13:19:09:349,0.4021,1.4222,9.9268,0.0162,0.0282,9.8066,-0.1253,-0.0522,0.0539,-10.37,-37.87,-6.62,227.26,-79.75,-163.98
45166,52.412487,-1.472235,138.07,9.85,2,1.39,23 / 24,4330210,2019-09-08 13:19:09:449,-0.461,-0.8076,9.3409,0.0102,0.0167,9.8065,-0.0915,-0.0363,0.0003,-10.81,-38.25,-6.31,231.85,-79.54,-164.08
45167,52.412487,-1.472235,138.07,9.85,2,1.39,23 / 24,4330310,2019-09-08 13:19:09:549,1.2296,1.335,10.8999,0.0216,0.0039,9.8066,0.1563,0.0338,-0.0493,-10.62,-38.31,-5.31,234.07,-79.37,-163.58
45168,52.412487,-1.472235,138.07,9.85,2,1.39,23 / 24,4330410,2019-09-08 13:19:09:649,0.2648,1.7555,9.589,0.0033,-0.0001,9.8066,0.0771,0.08,-0.0364,-10.62,-38.44,-6.37,231.8,-79.38,-163.71
45169,52.412487,-1.472235,138.07,9.85,2,1.39,23 / 24,4330510,2019-09-08 13:19:09:749,0.8058,0.4701,9.4086,0.0052,-0.0035,9.8066,-0.1822,-0.0262,0.0037,-11.31,-37.87,-5.94,232.25,-79.37,-163.07
45170,52.412487,-1.472235,138.07,9.85,2,1.39,23 / 24,4330610,2019-09-08 13:19:09:849,0.408,0.4462,9.3198,-0.0147,-0.0051,9.8066,0.081,0.0029,-0.0288,-10.81,-38.31,-7.31,230.55,-79.5,-162.98
45171,52.412487,-1.472235,138.07,9.85,2,1.39,25 / 25,4330710,2019-09-08 13:19:09:949,-0.1118,0.0434,10.1016,-0.0303,-0.0381,9.8064,-0.0749,-0.0023,-0.0266,-10.56,-38.56,-6.69,229.95,-79.54,-163.23
45172,52.412487,-1.472235,138.07,9.85,2,1.39,25 / 25,4330810,2019-09-08 13:19:10:049,1.0169,1.0108,10.6231,-0.0163,-0.0403,9.8065,0.0611,0.0063,-0.0418,-10.69,-38.37,-6.62,231.09,-79.71,-162.75
45173,52.412487,-1.472235,138.07,9.85,2,1.39,25 / 25,4330909,2019-09-08 13:19:10:148,-0.5858,0.5795,10.1089,0.0436,0.0653,9.8062,0.2744,-0.0424,0.0529,-10.44,-37.81,-6.31,228.09,-79.16,-164.04
45174,52.412487,-1.472235,138.07,9.85,2,1.39,25 / 25,4331010,2019-09-08 13:19:10:249,0.8465,-0.1947,9.6501,0.0374,0.0551,9.8063,-0.1935,0.0233,0.0194,-11.31,-38.06,-6.19,231.35,-79.2,-163.9
45175,52.412487,-1.472235,138.07,9.85,2,1.39,25 / 25,4331109,2019-09-08 13:19:10:348,-0.6135,0.4069,9.4022,-0.0654,-0.0629,9.8062,-0.2816,-0.0086,-0.0311,-10.69,-37.81,-6.25,231.53,-79.31,-163.93
45176,52.412487,-1.472235,138.07,9.85,2,1.39,25 / 25,4331210,2019-09-08 13:19:10:449,0.6489,1.1667,11.1275,-0.0353,-0.0642,9.8063,0.2012,0.0133,-0.0485,-10.81,-37.19,-6.12,233.38,-79.87,-163.53
45177,52.412487,-1.472235,138.07,9.85,2,1.39,25 / 25,4331310,2019-09-08 13:19:10:549,0.8224,1.0833,11.3404,0.0409,0.0513,9.8064,0.2383,-0.0216,-0.0157,-11.19,-36.37,-6.06,233.86,-79.85,-163.55
45178,52.412487,-1.472235,138.07,9.85,2,1.39,25 / 25,4331410,2019-09-08 13:19:10:649,1.2237,0.1079,10.3835,0.0296,0.0396,9.8065,-0.2503,0.0323,-0.0309,-10.75,-35.94,-6.0,232.58,-79.4,-164.2
45179,52.412487,-1.472235,138.07,9.85,2,1.39,25 / 25,4331510,2019-09-08 13:19:10:749,1.7221,-2.1706,9.714,-0.0092,-0.0081,9.8066,-0.0544,-0.0155,0.0166,-10.37,-35.69,-6.87,227.77,-79.58,-164.23
45180,52.412487,-1.472235,138.07,9.85,2,1.39,25 / 25,4331610,2019-09-08 13:19:10:849,-0.321,-1.9862,9.6665,-0.0181,-0.0668,9.8063,0.1851,0.0778,-0.0878,-11.06,-36.37,-7.12,230.75,-79.51,-164.1
45181,52.412487,-1.472235,138.07,9.85,2,1.39,25 / 25,4331712,2019-09-08 13:19:10:951,-0.0411,0.7747,10.0987,-0.0346,-0.0418,9.8065,0.0711,-0.0238,-0.0186,-11.12,-36.75,-6.87,231.3,-79.86,-163.49
45182,52.412487,-1.472235,138.07,9.85,2,1.39,25 / 26,4331810,2019-09-08 13:19:11:049,1.0605,0.5073,10.0655,0.0296,0.0395,9.8065,-0.2062,-0.019,-0.0279,-12.12,-36.44,-6.12,237.18,-79.9,-163.09
45183,52.412487,-1.472235,138.07,9.85,2,1.39,25 / 26,4331910,2019-09-08 13:19:11:149,0.1246,-0.2123,9.6255,0.0259,0.027,9.8066,-0.1028,-0.0207,-0.0198,-10.56,-36.37,-6.12,233.76,-79.76,-163.46
45184,52.412487,-1.472235,138.07,9.85,2,1.39,25 / 26,4332009,2019-09-08 13:19:11:248,0.1618,0.5691,9.6717,-0.0161,-0.0069,9.8066,-0.0204,0.0152,-0.0422,-10.56,-37.56,-6.69,230.79,-79.87,-163.56
45185,52.412487,-1.472235,138.07,9.85,2,1.39,25 / 26,4332110,2019-09-08 13:19:11:349,-0.7111,0.6266,9.5966,0.0294,0.0292,9.8065,-0.1239,0.016,-0.052,-10.37,-36.75,-6.06,230.0,-79.85,-163.86
45186,52.412487,-1.472235,138.07,9.85,2,1.39,25 / 26,4332210,2019-09-08 13:19:11:449,0.6226,0.4893,10.4498,-0.0173,-0.0316,9.8065,0.2312,-0.0415,0.012,-9.87,-36.69,-7.19,228.44,-80.02,-163.65
45187,52.412487,-1.472235,138.07,9.85,2,1.39,25 / 26,4332310,2019-09-08 13:19:11:549,-0.2919,1.0084,10.5586,-0.0214,-0.0302,9.8065,0.2722,0.0261,-0.1026,-11.12,-37.19,-7.37,231.24,-79.94,-163.75
45188,52.412487,-1.472235,138.07,9.85,2,1.39,25 / 26,4332410,2019-09-08 13:19:11:649,0.6672,0.4115,10.5373,0.0356,0.048,9.8064,-0.3438,-0.0057,-0.0661,-10.87,-36.06,-7.0,231.61,-79.99,-164.03
45189,52.412487,-1.472235,138.07,9.85,2,1.39,25 / 26,4332510,2019-09-08 13:19:11:749,0.5573,-0.1456,9.0921,0.0172,0.0591,9.8064,-0.3533,-0.059,0.0222,-11.12,-36.31,-6.5,232.22,-79.66,-165.32
45190,52.412487,-1.472235,138.07,9.85,2,1.39,25 / 26,4332610,2019-09-08 13:19:11:849,0.4733,0.1783,10.4647,-0.0158,-0.0222,9.8065,0.1547,0.0319,-0.0926,-11.06,-36.75,-6.94,229.69,-79.69,-165.29
45191,52.412487,-1.472235,138.07,9.85,2,1.39,24 / 24,4332710,2019-09-08 13:19:11:949,-0.2633,-0.666,10.5689,-0.0246,-0.0271,9.8065,0.1508,-0.0442,0.0437,-10.69,-36.81,-6.5,231.95,-79.9,-165.54
45192,52.412487,-1.472235,138.07,9.85,2,1.39,24 / 24,4332810,2019-09-08 13:19:12:049,-0.154,0.8387,10.0017,0.0319,0.0336,9.8065,-0.1471,0.0286,-0.0092,-10.94,-36.69,-6.69,229.38,-79.59,-165.47
45193,52.412487,-1.472235,138.07,9.85,2,1.39,24 / 24,4332910,2019-09-08 13:19:12:149,-0.0285,-0.7169,10.1662,0.0194,0.0307,9.8066,-0.0846,-0.0353,0.0468,-11.06,-36.81,-6.0,231.51,-79.57,-165.35
45194,52.412487,-1.472235,138.07,9.85,2,1.39,24 / 24,4333010,2019-09-08 13:19:12:249,0.1515,-0.2658,10.0786,0.0099,-0.0033,9.8066,0.0069,0.028,0.0183,-11.62,-35.81,-5.5,237.42,-79.57,-165.09
45195,52.412487,-1.472235,138.07,9.85,2,1.39,24 / 24,4333110,2019-09-08 13:19:12:349,-0.2129,0.1429,9.4605,0.0022,0.0039,9.8066,-0.0874,0.0127,-0.0338,-10.87,-37.0,-6.62,229.58,-79.42,-164.81
45196,52.412487,-1.472235,138.07,9.85,2,1.39,24 / 24,4333210,2019-09-08 13:19:12:449,0.9159,0.3623,9.5963,-0.0088,-0.0079,9.8066,0.0038,0.0046,-0.0105,-10.87,-36.62,-6.37,231.5,-79.36,-164.83
45197,52.412487,-1.472235,138.07,9.85,2,1.39,24 / 24,4333310,2019-09-08 13:19:12:549,-0.167,-0.221,10.2455,-0.0144,-0.0126,9.8066,0.0332,-0.0162,-0.0036,-10.31,-36.12,-6.81,227.13,-79.53,-165.01
45198,52.412487,-1.472235,138.07,9.85,2,1.39,24 / 24,4333410,2019-09-08 13:19:12:649,-0.2856,-0.9228,9.4042,0.0005,0.0184,9.8066,-0.0916,-0.0376,0.0286,-9.37,-36.0,-6.75,223.49,-79.48,-165.54
45199,52.412487,-1.472235,138.07,9.85,2,1.39,24 / 24,4333510,2019-09-08 13:19:12:749,0.1384,0.634,10.1619,0.0241,0.0236,9.8065,-0.0793,0.052,-0.0303,-10.44,-35.69,-7.5,226.56,-79.37,-165.45
45200,52.412487,-1.472235,138.07,9.85,2,1.39,24 / 24,4333610,2019-09-08 13:19:12:849,-0.9908,0.4508,9.5052,-0.0033,0.0021,9.8066,0.091,-0.073,0.1145,-10.94,-36.75,-7.19,228.83,-79.32,-165.64
45201,52.412487,-1.472235,138.07,9.85,2,1.39,25 / 26,4333710,2019-09-08 13:19:12:949,0.9589,-0.1802,10.0145,0.0342,0.0201,9.8065,-0.0172,-0.0238,0.0499,-11.87,-36.75,-6.44,233.66,-79.1,-165.12
45202,52.412487,-1.472235,138.07,9.85,2,1.39,25 / 26,4333810,2019-09-08 13:19:13:049,-0.3733,-0.9431,10.059,-0.0273,-0.0341,9.8065,0.1525,-0.0519,0.0877,-12.31,-36.31,-5.37,236.96,-79.08,-164.44
45203,52.412487,-1.472235,138.07,9.85,2,1.39,25 / 26,4333910,2019-09-08 13:19:13:149,0.9949,1.0633,10.3396,-0.0312,-0.07,9.8063,0.327,-0.0158,-0.0342,-11.25,-36.0,-4.69,235.78,-79.32,-162.74
45204,52.412487,-1.472235,138.07,9.85,2,1.39,25 / 26,4334010,2019-09-08 13:19:13:249,1.1797,1.6378,10.9077,0.0374,0.053,9.8064,-0.3288,0.0166,0.0013,-9.37,-35.75,-5.75,226.02,-78.91,-163.1
45205,52.412487,-1.472235,138.07,9.85,2,1.39,25 / 26,4334110,2019-09-08 13:19:13:349,-0.1192,-0.6281,10.3638,0.0068,0.0355,9.8066,-0.1699,-0.056,0.0295,-8.87,-36.37,-6.62,224.67,-79.09,-162.9
45206,52.412487,-1.472235,138.07,9.85,2,1.39,25 / 26,4334210,2019-09-08 13:19:13:449,-0.5776,0.3185,9.9724,-0.0127,-0.0048,9.8066,0.2278,0.0057,0.035,-8.75,-36.75,-8.31,222.11,-79.1,-163.65
45207,52.412487,-1.472235,138.07,9.85,2,1.39,25 / 26,4334310,2019-09-08 13:19:13:549,1.0025,1.0761,9.9261,-0.008,0.0253,9.8066,0.0658,-0.0745,0.0994,-11.75,-36.62,-8.12,229.83,-78.94,-164.66
45208,52.412487,-1.472235,138.07,9.85,2,1.39,25 / 26,4334410,2019-09-08 13:19:13:649,0.3914,0.081,9.317,-0.0182,-0.0172,9.8066,-0.0245,0.0031,0.1157,-13.0,-35.31,-6.81,235.18,-78.82,-164.56
45209,52.412487,-1.472235,138.07,9.85,2,1.39,25 / 26,4334510,2019-09-08 13:19:13:749,0.6544,0.3114,9.9445,-0.0237,-0.0451,9.8065,0.0321,0.0124,0.0083,-11.87,-35.69,-6.19,235.21,-79.07,-163.7
45210,52.412487,-1.472235,138.07,9.85,2,1.39,25 / 26,4334610,2019-09-08 13:19:13:849,0.4946,-0.4338,10.9423,0.0385,0.0422,9.8064,-0.0575,0.0565,-0.0763,-11.0,-37.06,-5.31,233.23,-78.78,-163.95
45211,52.413372,-1.472203,140.39,11.86,3,1.4,24 / 24,4334710,2019-09-08 13:19:13:949,0.7058,0.7432,10.3685,0.0039,0.0263,9.8065,0.2479,-0.0038,0.0112,-10.94,-36.19,-5.69,232.53,-79.08,-163.45
45212,52.413372,-1.472203,140.39,11.86,3,1.4,24 / 24,4334810,2019-09-08 13:19:14:049,0.5816,-0.0833,9.4325,-0.0134,-0.0336,9.8065,0.0156,0.0413,-0.0284,-11.25,-37.31,-6.06,230.26,-78.68,-164.89
45213,52.413372,-1.472203,140.39,11.86,3,1.4,24 / 24,4334910,2019-09-08 13:19:14:149,0.6422,0.4788,10.4612,-0.0368,-0.0325,9.8064,0.013,0.0117,-0.015,-10.75,-37.31,-6.0,230.78,-78.91,-164.7
45214,52.413372,-1.472203,140.39,11.86,3,1.4,24 / 24,4335009,2019-09-08 13:19:14:248,0.3189,0.8263,10.4945,0.0434,0.0378,9.8064,-0.0529,0.0261,-0.0186,-10.81,-37.81,-5.25,232.32,-78.98,-164.99
45215,52.413372,-1.472203,140.39,11.86,3,1.4,24 / 24,4335110,2019-09-08 13:19:14:349,-0.2587,0.954,10.1262,0.0183,0.0256,9.8065,0.0072,0.0299,-0.0318,-10.62,-37.0,-5.81,230.4,-78.72,-164.77
45216,52.413372,-1.472203,140.39,11.86,3,1.4,24 / 24,4335210,2019-09-08 13:19:14:449,0.2378,-0.1738,9.4751,-0.0075,-0.0309,9.8065,0.0427,0.0164,0.031,-9.81,-35.75,-5.69,228.52,-78.83,-164.13
45217,52.413372,-1.472203,140.39,11.86,3,1.4,24 / 24,4335310,2019-09-08 13:19:14:549,-0.1454,-0.9205,10.3312,0.0016,-0.014,9.8066,-0.012,-0.0197,0.0546,-9.87,-36.5,-7.06,226.6,-78.72,-163.92
45218,52.413372,-1.472203,140.39,11.86,3,1.4,24 / 24,4335410,2019-09-08 13:19:14:649,-0.4109,-0.5708,9.0018,-0.0159,-0.013,9.8065,0.0963,-0.0061,-0.0172,-12.56,-36.81,-6.5,236.28,-78.57,-163.89
45219,52.413372,-1.472203,140.39,11.86,3,1.4,24 / 24,4335510,2019-09-08 13:19:14:749,1.2255,-0.4082,10.7646,0.0046,-0.0273,9.8066,0.1846,0.0278,-0.0833,-11.75,-36.87,-5.12,236.39,-78.59,-163.13
45220,52.413372,-1.472203,140.39,11.86,3,1.4,24 / 24,4335610,2019-09-08 13:19:14:849,0.5806,-0.3259,10.148,0.0416,0.0419,9.8064,-0.2155,0.0381,-0.0565,-11.0,-36.81,-5.31,233.13,-78.7,-163.88
45221,52.413372,-1.472203,140.39,11.86,3,1.4,26 / 26,4335709,2019-09-08 13:19:14:948,-0.6745,-0.9641,9.0305,0.0361,0.0543,9.8064,-0.3071,-0.0031,-0.0218,-11.69,-37.44,-5.94,232.34,-78.18,-164.74
45222,52.413372,-1.472203,140.39,11.86,3,1.4,26 / 26,4335810,2019-09-08 13:19:15:049,0.5418,-1.0658,10.0974,-0.0479,-0.077,9.8062,0.2281,-0.1003,0.0038,-11.44,-37.62,-5.5,231.92,-78.5,-164.21
45223,52.413372,-1.472203,140.39,11.86,3,1.4,26 / 26,4335910,2019-09-08 13:19:15:149,1.3091,-0.3497,9.6014,-0.0724,-0.0973,9.8058,0.2326,-0.1155,-0.0052,-11.75,-37.75,-5.56,232.9,-78.63,-164.28
45224,52.413372,-1.472203,140.39,11.86,3,1.4,26 / 26,4336010,2019-09-08 13:19:15:249,0.2391,0.5552,9.6801,0.0127,0.0325,9.8065,-0.148,-0.1405,0.1031,-11.37,-37.25,-5.94,230.43,-78.57,-164.37
45225,52.413372,-1.472203,140.39,11.86,3,1.4,26 / 26,4336110,2019-09-08 13:19:15:349,0.2214,-2.1085,8.9835,0.0286,0.035,9.8065,-0.2308,-0.0918,0.0698,-12.31,-37.5,-5.56,233.05,-78.44,-164.37
45226,52.413372,-1.472203,140.39,11.86,3,1.4,26 / 26,4336210,2019-09-08 13:19:15:449,0.6374,-2.7618,9.7379,-0.0172,-0.0548,9.8065,0.1467,-0.127,0.0538,-11.94,-37.87,-6.12,233.29,-78.57,-163.58
45227,52.413372,-1.472203,140.39,11.86,3,1.4,26 / 26,4336310,2019-09-08 13:19:15:549,1.067,-1.2571,9.461,-0.0433,-0.0549,9.8063,0.1712,-0.1587,0.0625,-12.62,-37.5,-6.37,238.04,-78.87,-162.28
45228,52.413372,-1.472203,140.39,11.86,3,1.4,26 / 26,4336410,2019-09-08 13:19:15:649,1.4022,-0.8159,10.9993,0.0317,0.032,9.8065,0.0136,-0.1436,-0.0098,-13.44,-37.81,-5.75,236.81,-78.4,-162.01
45229,52.413372,-1.472203,140.39,11.86,3,1.4,26 / 26,4336510,2019-09-08 13:19:15:749,0.9877,-1.896,10.3542,0.0066,0.0157,9.8066,0.1097,-0.1522,0.0458,-13.44,-37.31,-5.87,237.74,-78.54,-161.86
45230,52.413372,-1.472203,140.39,11.86,3,1.4,26 / 26,4336610,2019-09-08 13:19:15:849,1.2011,-1.5364,9.4026,-0.0095,-0.0101,9.8066,-0.1383,-0.117,0.0082,-14.44,-36.87,-5.62,239.93,-78.46,-162.11
45231,52.413372,-1.472203,140.39,11.86,3,1.4,23 / 24,4336710,2019-09-08 13:19:15:949,0.9291,-2.1956,10.0019,-0.0188,-0.0115,9.8065,-0.1117,-0.1906,0.0622,-14.31,-36.94,-3.94,244.61,-78.53,-162.25
45232,52.413372,-1.472203,140.39,11.86,3,1.4,23 / 24,4336810,2019-09-08 13:19:16:049,2.0679,-1.4116,10.6762,0.0088,0.0099,9.8066,0.113,-0.1962,0.0249,-13.06,-35.75,-3.87,242.69,-78.46,-162.13
45233,52.413372,-1.472203,140.39,11.86,3,1.4,23 / 24,4336909,2019-09-08 13:19:16:148,1.1913,-0.6311,9.9317,0.0102,0.0309,9.8065,0.0993,-0.0981,0.0034,-13.0,-37.12,-4.5,241.12,-78.35,-163.02
45234,52.413372,-1.472203,140.39,11.86,3,1.4,23 / 24,4337010,2019-09-08 13:19:16:249,1.1773,-2.0395,9.4663,-0.0034,-0.0085,9.8066,0.0225,-0.1767,0.0497,-13.94,-37.5,-5.44,241.17,-78.32,-163.04
45235,52.413372,-1.472203,140.39,11.86,3,1.4,23 / 24,4337109,2019-09-08 13:19:16:348,0.7271,-0.7247,9.4146,0.0024,-0.0086,9.8066,-0.0152,-0.1015,0.0481,-14.44,-36.0,-5.06,241.7,-78.24,-162.96
45236,52.413372,-1.472203,140.39,11.86,3,1.4,23 / 24,4337210,2019-09-08 13:19:16:449,-0.208,-1.4402,9.4252,-0.0093,-0.004,9.8066,0.0493,-0.1973,0.0853,-14.75,-36.56,-4.94,243.71,-78.22,-162.52
45237,52.413372,-1.472203,140.39,11.86,3,1.4,23 / 24,4337310,2019-09-08 13:19:16:549,0.5893,-1.1472,9.6047,0.0128,-0.0101,9.8066,-0.0329,-0.095,0.017,-13.94,-37.06,-4.69,242.04,-78.25,-161.74
45238,52.413372,-1.472203,140.39,11.86,3,1.4,23 / 24,4337410,2019-09-08 13:19:16:649,0.5693,-0.9336,9.5219,0.0032,-0.0138,9.8066,-0.0327,-0.1511,0.0132,-14.62,-36.69,-5.5,244.86,-78.26,-161.16
45239,52.413372,-1.472203,140.39,11.86,3,1.4,23 / 24,4337510,2019-09-08 13:19:16:749,1.1702,-1.9306,9.7472,0.0043,0.0078,9.8066,-0.1204,-0.2016,0.0792,-15.12,-37.75,-5.56,242.36,-78.15,-160.54
45240,52.413372,-1.472203,140.39,11.86,3,1.4,23 / 24,4337610,2019-09-08 13:19:16:849,0.7736,-0.8294,10.3806,0.0063,-0.0031,9.8066,0.1493,-0.1424,0.0007,-15.5,-37.62,-4.87,244.88,-78.12,-160.05
