,GPS LATITUDE (degrees),GPS LONGITUDE (degrees), GPS ALTITUDE (m),GPS SPEED (Kmh),GPS ACCURACY (m),GPS ORIENTATION (Â°), SATELLITES IN RANGE, TIME SINCE START (ms), DATE (YYYY-MO-DD HH-MI-SS_SSS),ACCELEROMETER X (m/s²) , ACCELEROMETER Y (m/s²), ACCELEROMETER Z (m/s²), GRAVITY X (m/s²), GRAVITY Y (m/s²), GRAVITY Z (m/s²), GYROSCOPE Yaw (rad/s), GYROSCOPE Pitch (rad/s), GYROSCOPE Roll (rad/s)
79827,47.206757,-1.625501,67.61,19.17,3.216,150.0,16 / 23,7983898,2019-08-18 17:26:46:435,-1.0666,-0.5297,9.9571,-0.9232,-0.4103,9.7545,0.0139,-0.0118,-0.0022
79828,47.206757,-1.625501,67.61,19.17,3.216,150.0,16 / 23,7983997,2019-08-18 17:26:46:534,-1.1731,-0.5914,9.9122,-0.913,-0.4096,9.7555,0.0098,-0.0153,-0.0012
79829,47.206757,-1.625501,67.61,19.17,3.216,150.0,17 / 23,7984097,2019-08-18 17:26:46:634,-1.0157,-0.4806,9.68,-0.9071,-0.4085,9.7561,-0.0019,0.0109,-0.0019
79830,47.205414,-1.624359,62.04,18.42,4.288,149.4,17 / 23,7984197,2019-08-18 17:26:46:734,-0.9876,-0.5884,9.7219,-0.9187,-0.4182,9.7546,-0.0146,0.0177,-0.0033
79831,47.205414,-1.624359,62.04,18.42,4.288,149.4,17 / 23,7984297,2019-08-18 17:26:46:834,-0.9786,-0.4705,9.6255,-0.9361,-0.4234,9.7527,0.0089,-0.0032,-0.0007
79832,47.205414,-1.624359,62.04,18.42,4.288,149.4,17 / 23,7984397,2019-08-18 17:26:46:934,-0.9307,-0.4932,9.7961,-0.928,-0.4203,9.7536,0.0128,-0.0248,-0.0017
79833,47.205414,-1.624359,62.04,18.42,4.288,149.4,17 / 23,7984496,2019-08-18 17:26:47:033,-0.8433,-0.3454,9.6513,-0.9016,-0.4079,9.7566,0.0049,-0.0105,-0.0023
79834,47.205414,-1.624359,62.04,18.42,4.288,149.4,17 / 23,7984597,2019-08-18 17:26:47:134,-0.7966,-0.6806,9.771,-0.9048,-0.4115,9.7561,-0.01,0.013,-0.0021
79835,47.205414,-1.624359,62.04,18.42,4.288,149.4,17 / 23,7984697,2019-08-18 17:26:47:234,-1.0708,-0.495,9.7542,-0.9303,-0.4292,9.753,-0.0096,0.011,-0.0013
79836,47.205414,-1.624359,62.04,18.42,4.288,149.4,17 / 23,7984797,2019-08-18 17:26:47:334,-0.9002,-0.5004,10.0888,-0.9285,-0.4307,9.7531,0.0026,-0.0234,-0.0021
79837,47.205414,-1.624359,62.04,18.42,4.288,149.4,17 / 23,7984898,2019-08-18 17:26:47:435,-0.9235,-0.6165,9.7021,-0.9121,-0.4285,9.7547,0.0061,-0.0254,-0.0016
79838,47.205414,-1.624359,62.04,18.42,4.288,149.4,17 / 23,7984997,2019-08-18 17:26:47:534,-1.0205,-0.3154,9.662,-0.8859,-0.4215,9.7575,-0.0102,0.0171,-0.0008
79839,47.205414,-1.624359,62.04,18.42,4.288,149.4,15 / 21,7985097,2019-08-18 17:26:47:634,-0.6224,-0.3741,9.9422,-0.896,-0.4273,9.7563,-0.0052,0.0253,0.0001
79840,47.205414,-1.624359,62.04,18.42,4.288,149.4,15 / 21,7985197,2019-08-18 17:26:47:734,-0.9157,-0.3956,9.7872,-0.9079,-0.4274,9.7552,0.0053,-0.0115,-0.0019
79841,47.205414,-1.624359,62.04,18.42,4.288,149.4,15 / 21,7985297,2019-08-18 17:26:47:834,-0.7284,-0.3615,9.7806,-0.8994,-0.4213,9.7562,0.0107,-0.0138,-0.0005
79842,47.205414,-1.624359,62.04,18.42,4.288,149.4,15 / 21,7985397,2019-08-18 17:26:47:934,-0.6931,-0.2981,9.5304,-0.8809,-0.416,9.7581,-0.0114,0.0137,-0.0012
79843,47.205414,-1.624359,62.04,18.42,4.288,149.4,15 / 21,7985497,2019-08-18 17:26:48:034,-0.574,-0.4896,9.9003,-0.888,-0.4215,9.7573,-0.0096,0.0189,-0.0006
79844,47.205414,-1.624359,62.04,18.42,4.288,149.4,15 / 21,7985597,2019-08-18 17:26:48:134,-0.7356,-0.3394,9.7794,-0.8878,-0.421,9.7573,0.0139,-0.0131,0.0001
79845,47.205414,-1.624359,62.04,18.42,4.288,149.4,15 / 21,7985698,2019-08-18 17:26:48:235,-0.7092,-0.4543,10.2211,-0.8751,-0.4122,9.7588,0.0126,-0.0213,-0.001
79846,47.205414,-1.624359,62.04,18.42,4.288,149.4,15 / 21,7985797,2019-08-18 17:26:48:334,-0.5201,-0.4028,9.7459,-0.846,-0.3934,9.7622,0.0,0.002,-0.0005
79847,47.205414,-1.624359,62.04,18.42,4.288,149.4,15 / 21,7985897,2019-08-18 17:26:48:434,-0.6727,-0.4333,9.7524,-0.8506,-0.3947,9.7617,-0.0038,0.0262,0.0004
79848,47.205414,-1.624359,62.04,18.42,4.288,149.4,15 / 21,7985997,2019-08-18 17:26:48:534,-0.7284,-0.179,9.829,-0.8727,-0.396,9.7597,0.0085,0.0116,0.0014
79849,47.205414,-1.624359,62.04,18.42,4.288,149.4,17 / 23,7986097,2019-08-18 17:26:48:634,-0.5883,-0.3058,10.1403,-0.8673,-0.3832,9.7607,0.0162,-0.012,0.0021
79850,47.205414,-1.624359,62.04,18.42,4.288,149.4,17 / 23,7986197,2019-08-18 17:26:48:734,-0.6302,-0.0389,9.7022,-0.8489,-0.3602,9.7632,0.0088,-0.0081,0.0028
79851,47.205414,-1.624359,62.04,18.42,4.288,149.4,17 / 23,7986297,2019-08-18 17:26:48:834,-0.5841,-0.3017,9.7369,-0.8466,-0.3544,9.7636,-0.0014,0.022,0.0039
79852,47.205414,-1.624359,62.04,18.42,4.288,149.4,17 / 23,7986397,2019-08-18 17:26:48:934,-0.7248,-0.2508,9.7333,-0.8627,-0.3496,9.7624,-0.0012,0.0131,0.005
79853,47.205414,-1.624359,62.04,18.42,4.288,149.4,17 / 23,7986497,2019-08-18 17:26:49:034,-0.9175,-0.334,10.0571,-0.8646,-0.3422,9.7625,0.007,-0.0072,0.0042
79854,47.205414,-1.624359,62.04,18.42,4.288,149.4,17 / 23,7986597,2019-08-18 17:26:49:134,-0.8744,-0.0395,9.6872,-0.8531,-0.3327,9.7638,0.0009,-0.0093,0.0039
79855,47.205414,-1.624359,62.04,18.42,4.288,149.4,17 / 23,7986698,2019-08-18 17:26:49:235,-0.9181,-0.1885,9.4346,-0.8559,-0.3326,9.7636,-0.0144,0.0189,0.004
79856,47.205414,-1.624359,62.04,18.42,4.288,149.4,17 / 23,7986797,2019-08-18 17:26:49:334,-0.9415,-0.1341,9.8231,-0.8838,-0.3442,9.7607,-0.0087,0.0244,0.0038
79857,47.205414,-1.624359,62.04,18.42,4.288,149.4,17 / 23,7986898,2019-08-18 17:26:49:435,-0.8613,-0.24,10.0691,-0.8849,-0.3458,9.7605,0.0058,-0.0108,0.0019
79858,47.205414,-1.624359,62.04,18.42,4.288,149.4,17 / 23,7986997,2019-08-18 17:26:49:534,-0.8224,-0.3567,9.7255,-0.8658,-0.3312,9.7627,0.0054,-0.0108,0.0004
79859,47.205414,-1.624359,62.04,18.42,4.288,149.4,16 / 22,7987097,2019-08-18 17:26:49:634,-0.8852,-0.2221,9.8602,-0.8616,-0.3281,9.7632,-0.0042,0.0128,-0.0001
79860,47.205414,-1.624359,62.04,18.42,4.288,149.4,16 / 22,7987197,2019-08-18 17:26:49:734,-0.8002,-0.3442,9.6633,-0.8846,-0.3321,9.761,0.0035,0.0096,-0.0008
79861,47.205414,-1.624359,62.04,18.42,4.288,149.4,16 / 22,7987297,2019-08-18 17:26:49:834,-0.8912,-0.4483,9.9823,-0.886,-0.3308,9.7609,0.0099,-0.0033,0.0
79862,47.205414,-1.624359,62.04,18.42,4.288,149.4,16 / 22,7987397,2019-08-18 17:26:49:934,-0.6673,-0.2843,10.0864,-0.8701,-0.3152,9.7629,0.0082,-0.019,-0.0014
79863,47.205414,-1.624359,62.04,18.42,4.288,149.4,16 / 22,7987497,2019-08-18 17:26:50:034,-0.8062,-0.4022,9.8344,-0.8549,-0.3108,9.7644,0.0017,-0.0098,-0.0012
79864,47.205414,-1.624359,62.04,18.42,4.288,149.4,16 / 22,7987597,2019-08-18 17:26:50:134,-0.8523,-0.1425,9.8692,-0.8652,-0.3186,9.7632,-0.0087,0.0227,-0.0017
79865,47.205414,-1.624359,62.04,18.42,4.288,149.4,16 / 22,7987697,2019-08-18 17:26:50:234,-0.7188,-0.2622,9.786,-0.8741,-0.3269,9.7621,0.0086,-0.0022,-0.0014
79866,47.205414,-1.624359,62.04,18.42,4.288,149.4,16 / 22,7987797,2019-08-18 17:26:50:334,-0.7404,-0.2873,9.7411,-0.8587,-0.3128,9.764,0.0109,-0.0087,-0.0016
79867,47.205414,-1.624359,62.04,18.42,4.288,149.4,16 / 22,7987897,2019-08-18 17:26:50:434,-0.6649,-0.3603,9.8081,-0.8475,-0.3015,9.7653,0.0014,-0.0052,-0.0002
79868,47.205414,-1.624359,62.04,18.42,4.288,149.4,16 / 22,7987996,2019-08-18 17:26:50:533,-0.7882,-0.4675,9.917,-0.845,-0.3004,9.7656,-0.001,0.0109,-0.0004
79869,47.205414,-1.624359,62.04,18.42,4.288,149.4,15 / 21,7988097,2019-08-18 17:26:50:634,-0.8643,-0.2538,9.8901,-0.8491,-0.2941,9.7654,0.0135,-0.0119,-0.0005
79870,47.205414,-1.624359,62.04,18.42,4.288,149.4,15 / 21,7988197,2019-08-18 17:26:50:734,-0.735,-0.2819,10.1169,-0.8426,-0.2853,9.7662,0.0125,-0.0201,-0.0003
79871,47.205414,-1.624359,62.04,18.42,4.288,149.4,15 / 21,7988297,2019-08-18 17:26:50:834,-0.6488,-0.3148,9.7129,-0.8128,-0.2699,9.7692,0.0001,-0.002,-0.0018
79872,47.205414,-1.624359,62.04,18.42,4.288,149.4,15 / 21,7988397,2019-08-18 17:26:50:934,-0.6745,-0.495,9.6225,-0.8104,-0.2696,9.7694,-0.0133,0.0212,-0.0013
79873,47.205414,-1.624359,62.04,18.42,4.288,149.4,15 / 21,7988497,2019-08-18 17:26:51:034,-0.82,-0.2813,9.7752,-0.8372,-0.2868,9.7666,-0.0073,0.0084,0.0001
79874,47.205414,-1.624359,62.04,18.42,4.288,149.4,15 / 21,7988597,2019-08-18 17:26:51:134,-0.7811,-0.2262,9.9326,-0.8394,-0.2918,9.7663,0.0006,-0.0107,-0.0017
79875,47.205414,-1.624359,62.04,18.42,4.288,149.4,15 / 21,7988697,2019-08-18 17:26:51:234,-0.656,-0.2777,9.7279,-0.8202,-0.2838,9.7682,0.0002,-0.0174,-0.0002
79876,47.205414,-1.624359,62.04,18.42,4.288,149.4,15 / 21,7988797,2019-08-18 17:26:51:334,-0.6332,-0.2969,9.8213,-0.7994,-0.2756,9.7701,-0.0056,0.0173,-0.0012
79877,47.205414,-1.624359,62.04,18.42,4.288,149.4,15 / 21,7988898,2019-08-18 17:26:51:435,-0.7841,-0.1736,9.9841,-0.7987,-0.2813,9.77,-0.0046,0.0108,-0.0011
79878,47.205414,-1.624359,62.04,18.42,4.288,149.4,15 / 21,7988997,2019-08-18 17:26:51:534,-0.796,-0.2239,9.9721,-0.7957,-0.277,9.7704,0.0088,-0.0148,-0.0011
79879,47.205414,-1.624359,62.04,18.42,4.288,149.4,15 / 21,7989098,2019-08-18 17:26:51:635,-0.735,-0.2436,9.7883,-0.7731,-0.2781,9.7722,0.0014,-0.0214,-0.0013
79880,47.205414,-1.624359,62.04,18.42,4.288,149.4,15 / 21,7989197,2019-08-18 17:26:51:734,-0.6775,-0.1664,9.78,-0.7633,-0.2776,9.773,-0.0107,0.015,-0.0009
79881,47.205414,-1.624359,62.04,18.42,4.288,149.4,15 / 21,7989297,2019-08-18 17:26:51:834,-0.8349,-0.3035,9.7776,-0.7795,-0.2869,9.7714,-0.0096,0.0201,-0.0014
79882,47.205414,-1.624359,62.04,18.42,4.288,149.4,15 / 21,7989397,2019-08-18 17:26:51:934,-0.6302,-0.2316,10.0373,-0.7778,-0.2871,9.7715,-0.0011,-0.0093,-0.0013
79883,47.205414,-1.624359,62.04,18.42,4.288,149.4,15 / 21,7989497,2019-08-18 17:26:52:034,-0.8158,-0.2843,10.0403,-0.7629,-0.29,9.7726,0.0042,-0.0169,-0.0013
79884,47.205414,-1.624359,62.04,18.42,4.288,149.4,15 / 21,7989597,2019-08-18 17:26:52:134,-0.8391,-0.4124,9.4867,-0.7559,-0.2889,9.7732,-0.011,0.0076,-0.0017
79885,47.205414,-1.624359,62.04,18.42,4.288,149.4,15 / 21,7989697,2019-08-18 17:26:52:234,-1.0139,-0.4771,9.6638,-0.7705,-0.3006,9.7717,-0.0064,0.0191,-0.0015
79886,47.205414,-1.624359,62.04,18.42,4.288,149.4,15 / 21,7989797,2019-08-18 17:26:52:334,-0.8266,-0.4136,10.114,-0.7762,-0.3048,9.7711,0.0034,-0.0097,-0.001
79887,47.205414,-1.624359,62.04,18.42,4.288,149.4,15 / 21,7989897,2019-08-18 17:26:52:434,-0.9708,-0.2861,10.1762,-0.7628,-0.2996,9.7723,0.0076,-0.0203,-0.0011
79888,47.205414,-1.624359,62.04,18.42,4.288,149.4,15 / 21,7989997,2019-08-18 17:26:52:534,-0.823,-0.2155,9.6848,-0.7446,-0.2995,9.7738,-0.0086,-0.0054,-0.0008
79889,47.205414,-1.624359,62.04,18.42,4.288,149.4,15 / 21,7990097,2019-08-18 17:26:52:634,-0.735,-0.2921,9.528,-0.751,-0.3171,9.7727,-0.0219,0.0127,-0.0013
79890,47.205414,-1.624359,62.04,18.42,4.288,149.4,17 / 23,7990197,2019-08-18 17:26:52:734,-0.8535,-0.4645,10.0128,-0.7656,-0.3324,9.7711,-0.0083,-0.0025,-0.0006
79891,47.205414,-1.624359,62.04,18.42,4.288,149.4,17 / 23,7990297,2019-08-18 17:26:52:834,-0.8331,-0.3424,9.674,-0.7516,-0.3379,9.772,0.0138,-0.0179,0.0007
79892,47.205414,-1.624359,62.04,18.42,4.288,149.4,17 / 23,7990397,2019-08-18 17:26:52:934,-0.6518,-0.4304,9.6734,-0.7384,-0.3278,9.7733,0.0022,-0.0051,0.0005
79893,47.205414,-1.624359,62.04,18.42,4.288,149.4,17 / 23,7990497,2019-08-18 17:26:53:034,-0.9253,-0.2304,9.7231,-0.7535,-0.3363,9.7719,-0.0092,0.0355,0.0011
79894,47.205414,-1.624359,62.04,18.42,4.288,149.4,17 / 23,7990597,2019-08-18 17:26:53:134,-0.7607,-0.3998,9.9266,-0.7775,-0.3436,9.7697,-0.0024,0.0155,-0.0007
79895,47.205414,-1.624359,62.04,18.42,4.288,149.4,17 / 23,7990697,2019-08-18 17:26:53:234,-0.7972,-0.255,9.8314,-0.778,-0.3254,9.7703,0.0198,-0.0171,-0.0003
79896,47.205414,-1.624359,62.04,18.42,4.288,149.4,17 / 23,7990797,2019-08-18 17:26:53:334,-0.7206,-0.325,9.8781,-0.7645,-0.3155,9.7717,0.0136,-0.0237,-0.0013
79897,47.205414,-1.624359,62.04,18.42,4.288,149.4,17 / 23,7990896,2019-08-18 17:26:53:433,-0.7972,-0.3759,9.8584,-0.7596,-0.3059,9.7724,-0.0013,0.0219,0.0001
79898,47.205414,-1.624359,62.04,18.42,4.288,149.4,17 / 23,7990997,2019-08-18 17:26:53:534,-0.7541,-0.2807,9.9805,-0.7753,-0.3063,9.7712,-0.0053,0.0248,0.0005
79899,47.205414,-1.624359,62.04,18.42,4.288,149.4,17 / 23,7991097,2019-08-18 17:26:53:634,-0.7344,-0.2245,9.8913,-0.7831,-0.3109,9.7704,0.0005,-0.013,-0.0013
79900,47.205414,-1.624359,62.04,18.42,4.288,149.4,17 / 23,7991197,2019-08-18 17:26:53:734,-0.7009,-0.3029,9.6154,-0.7723,-0.307,9.7714,-0.0012,-0.0065,-0.0003
79901,47.205414,-1.624359,62.04,18.42,4.288,149.4,17 / 23,7991297,2019-08-18 17:26:53:834,-0.6625,-0.2897,9.7153,-0.7648,-0.3108,9.7718,-0.0116,0.0142,-0.0015
79902,47.205414,-1.624359,62.04,18.42,4.288,149.4,17 / 23,7991397,2019-08-18 17:26:53:934,-0.7404,-0.422,9.765,-0.7785,-0.3167,9.7706,-0.0042,0.0032,-0.0008
79903,47.205414,-1.624359,62.04,18.42,4.288,149.4,17 / 23,7991497,2019-08-18 17:26:54:034,-0.8283,-0.3531,9.9889,-0.7806,-0.3194,9.7703,0.004,-0.0116,-0.001
79904,47.205414,-1.624359,62.04,18.42,4.288,149.4,17 / 23,7991597,2019-08-18 17:26:54:134,-0.6859,-0.4609,9.7363,-0.7697,-0.3172,9.7712,-0.0028,-0.0196,-0.0028
79905,47.205414,-1.624359,62.04,18.42,4.288,149.4,17 / 23,7991697,2019-08-18 17:26:54:234,-0.6937,-0.4094,9.6638,-0.7553,-0.3214,9.7722,-0.0044,0.0035,-0.0024
79906,47.205414,-1.624359,62.04,18.42,4.288,149.4,17 / 23,7991797,2019-08-18 17:26:54:334,-0.7266,-0.4717,10.2624,-0.7682,-0.3233,9.7712,0.0003,0.0067,-0.001
79907,47.205414,-1.624359,62.04,18.42,4.288,149.4,17 / 23,7991897,2019-08-18 17:26:54:434,-0.9492,-0.1897,9.7818,-0.7738,-0.3153,9.771,0.0139,-0.0016,-0.001
79908,47.205414,-1.624359,62.04,18.42,4.288,149.4,17 / 23,7991997,2019-08-18 17:26:54:534,-0.8379,-0.2783,9.3191,-0.7647,-0.3101,9.7719,0.0045,-0.0044,-0.0009
79909,47.205414,-1.624359,62.04,18.42,4.288,149.4,17 / 23,7992096,2019-08-18 17:26:54:633,-0.887,-0.2675,9.6022,-0.7697,-0.3155,9.7713,-0.0251,0.0183,-0.0023
79910,47.205414,-1.624359,62.04,18.42,4.288,149.4,15 / 21,7992197,2019-08-18 17:26:54:734,-0.726,-0.4495,9.8356,-0.7859,-0.3348,9.7694,-0.0223,0.021,-0.0035
79911,47.205414,-1.624359,62.04,18.42,4.288,149.4,15 / 21,7992297,2019-08-18 17:26:54:834,-0.899,-0.6069,10.0643,-0.8033,-0.3504,9.7674,0.0031,-0.0136,-0.0031
79912,47.205414,-1.624359,62.04,18.42,4.288,149.4,15 / 21,7992397,2019-08-18 17:26:54:934,-0.7781,-0.3956,9.8279,-0.7923,-0.3501,9.7683,0.0071,-0.0243,-0.0007
79913,47.205414,-1.624359,62.04,18.42,4.288,149.4,15 / 21,7992496,2019-08-18 17:26:55:033,-0.8906,-0.5818,9.8434,-0.7788,-0.3435,9.7696,-0.0021,0.0094,-0.0001
79914,47.205414,-1.624359,62.04,18.42,4.288,149.4,15 / 21,7992596,2019-08-18 17:26:55:133,-0.8217,-0.3729,9.7375,-0.7891,-0.3469,9.7687,-0.0041,0.0178,-0.0004
79915,47.205414,-1.624359,62.04,18.42,4.288,149.4,15 / 21,7992697,2019-08-18 17:26:55:234,-0.805,-0.4064,10.1145,-0.7987,-0.3512,9.7678,0.009,-0.0062,-0.0023
79916,47.205414,-1.624359,62.04,18.42,4.288,149.4,15 / 21,7992797,2019-08-18 17:26:55:334,-0.711,-0.252,9.9547,-0.7946,-0.3502,9.7681,0.0093,-0.0172,-0.002
79917,47.205414,-1.624359,62.04,18.42,4.288,149.4,15 / 21,7992897,2019-08-18 17:26:55:434,-0.7589,-0.3394,9.8189,-0.7701,-0.3418,9.7704,-0.0024,-0.0024,-0.0016
79918,47.205414,-1.624359,62.04,18.42,4.288,149.4,15 / 21,7992997,2019-08-18 17:26:55:534,-0.8134,-0.2604,10.0397,-0.7714,-0.3459,9.7701,-0.0027,0.0111,-0.002
79919,47.205414,-1.624359,62.04,18.42,4.288,149.4,14 / 20,7993098,2019-08-18 17:26:55:635,-0.7972,-0.2729,9.9404,-0.773,-0.348,9.7699,0.0076,-0.0058,-0.0026
79920,47.204113,-1.623253,57.51,18.61,3.216,149.8,14 / 20,7993197,2019-08-18 17:26:55:734,-0.6733,-0.3861,9.6333,-0.7597,-0.3327,9.7715,0.007,-0.0069,-0.0007
79921,47.204113,-1.623253,57.51,18.61,3.216,149.8,14 / 20,7993297,2019-08-18 17:26:55:834,-0.7248,-0.2783,9.6591,-0.7516,-0.3337,9.7721,-0.0056,0.0105,-0.0012
79922,47.204113,-1.623253,57.51,18.61,3.216,149.8,14 / 20,7993397,2019-08-18 17:26:55:934,-0.6296,-0.2328,9.5783,-0.7648,-0.3393,9.7709,-0.0011,0.0204,-0.0013
79923,47.204113,-1.623253,57.51,18.61,3.216,149.8,14 / 20,7993497,2019-08-18 17:26:56:034,-0.6991,-0.3681,9.9488,-0.7794,-0.3416,9.7697,0.0058,0.0015,-0.0017
79924,47.204113,-1.623253,57.51,18.61,3.216,149.8,14 / 20,7993597,2019-08-18 17:26:56:134,-0.7463,-0.2957,9.9416,-0.77,-0.3299,9.7708,0.0094,-0.0126,-0.0014
79925,47.204113,-1.623253,57.51,18.61,3.216,149.8,14 / 20,7993697,2019-08-18 17:26:56:234,-0.7003,0.0048,9.5896,-0.7593,-0.3211,9.7719,0.0032,-0.0102,-0.0001
79926,47.204113,-1.623253,57.51,18.61,3.216,149.8,14 / 20,7993797,2019-08-18 17:26:56:334,-0.7134,-0.2274,9.3532,-0.7595,-0.3226,9.7719,-0.0128,0.0296,0.0006
79927,47.204113,-1.623253,57.51,18.61,3.216,149.8,14 / 20,7993897,2019-08-18 17:26:56:434,-0.6422,-0.2652,9.3741,-0.7747,-0.3284,9.7705,-0.0151,0.0128,0.0002
79928,47.204113,-1.623253,57.51,18.61,3.216,149.8,14 / 20,7993997,2019-08-18 17:26:56:534,-0.7404,-0.1909,10.0804,-0.7736,-0.3298,9.7705,0.0146,-0.0217,0.0005
79929,47.204113,-1.623253,57.51,18.61,3.216,149.8,13 / 20,7994097,2019-08-18 17:26:56:634,-0.5662,-0.1155,9.7818,-0.7581,-0.3201,9.7721,0.009,-0.0251,-0.0001
79930,47.204113,-1.623253,57.51,18.61,3.216,149.8,13 / 20,7994197,2019-08-18 17:26:56:734,-0.7074,-0.2418,9.8566,-0.7364,-0.3128,9.774,-0.0105,0.0152,0.0006
79931,47.204113,-1.623253,57.51,18.61,3.216,149.8,13 / 20,7994297,2019-08-18 17:26:56:834,-0.5578,-0.5034,9.8314,-0.747,-0.3163,9.773,-0.0101,0.0155,0.0004
79932,47.204113,-1.623253,57.51,18.61,3.216,149.8,13 / 20,7994397,2019-08-18 17:26:56:934,-0.7404,-0.2939,10.1068,-0.746,-0.3143,9.7732,0.0075,-0.0196,-0.0003
79933,47.204113,-1.623253,57.51,18.61,3.216,149.8,13 / 20,7994497,2019-08-18 17:26:57:034,-0.6775,-0.2831,10.1954,-0.7312,-0.3075,9.7745,0.0114,-0.0263,0.0009
79934,47.204113,-1.623253,57.51,18.61,3.216,149.8,13 / 20,7994597,2019-08-18 17:26:57:134,-0.7068,-0.2071,9.7453,-0.7136,-0.2982,9.7761,-0.0113,0.0118,0.0004
79935,47.204113,-1.623253,57.51,18.61,3.216,149.8,13 / 20,7994697,2019-08-18 17:26:57:234,-0.6224,-0.4052,9.8237,-0.7367,-0.3099,9.774,-0.0093,0.018,-0.0001
79936,47.204113,-1.623253,57.51,18.61,3.216,149.8,13 / 20,7994797,2019-08-18 17:26:57:334,-0.7697,-0.2502,9.6896,-0.7542,-0.3203,9.7724,0.0043,-0.004,0.0015
79937,47.204113,-1.623253,57.51,18.61,3.216,149.8,13 / 20,7994897,2019-08-18 17:26:57:434,-0.7679,-0.334,9.583,-0.7465,-0.3135,9.7732,0.0005,-0.0138,0.0016
79938,47.204113,-1.623253,57.51,18.61,3.216,149.8,13 / 20,7994997,2019-08-18 17:26:57:534,-0.7894,-0.4663,9.8033,-0.7393,-0.3125,9.7738,-0.0039,0.005,0.0007
79939,47.204113,-1.623253,57.51,18.61,3.216,149.8,16 / 23,7995099,2019-08-18 17:26:57:636,-0.8726,-0.4112,9.7698,-0.7507,-0.3122,9.7729,0.0033,0.0033,0.0006
79940,47.204113,-1.623253,57.51,18.61,3.216,149.8,16 / 23,7995197,2019-08-18 17:26:57:734,-0.9079,-0.4405,9.9039,-0.7549,-0.311,9.7726,0.0022,-0.0136,0.0014
79941,47.204113,-1.623253,57.51,18.61,3.216,149.8,16 / 23,7995297,2019-08-18 17:26:57:834,-1.054,-0.3094,9.5944,-0.7464,-0.3102,9.7733,-0.0033,-0.0094,0.0018
79942,47.204113,-1.623253,57.51,18.61,3.216,149.8,16 / 23,7995397,2019-08-18 17:26:57:934,-0.7356,-0.4172,9.4849,-0.7509,-0.3235,9.7725,-0.0147,0.0078,0.0003
79943,47.204113,-1.623253,57.51,18.61,3.216,149.8,16 / 23,7995497,2019-08-18 17:26:58:034,-0.9163,-0.2951,9.8117,-0.7658,-0.3327,9.771,-0.0128,0.0149,-0.0006
79944,47.204113,-1.623253,57.51,18.61,3.216,149.8,16 / 23,7995597,2019-08-18 17:26:58:134,-0.9636,-0.3723,10.1283,-0.7773,-0.3452,9.7697,-0.0033,-0.0022,-0.0001
79945,47.204113,-1.623253,57.51,18.61,3.216,149.8,16 / 23,7995697,2019-08-18 17:26:58:234,-0.9469,-0.5459,9.7518,-0.769,-0.3407,9.7705,0.0074,-0.0283,0.0015
79946,47.204113,-1.623253,57.51,18.61,3.216,149.8,16 / 23,7995797,2019-08-18 17:26:58:334,-0.984,-0.2424,9.838,-0.7481,-0.335,9.7723,-0.0023,0.0103,0.0018
79947,47.204113,-1.623253,57.51,18.61,3.216,149.8,16 / 23,7995897,2019-08-18 17:26:58:434,-0.9205,-0.3591,9.6668,-0.7591,-0.3379,9.7714,-0.0095,0.0245,0.0018
79948,47.204113,-1.623253,57.51,18.61,3.216,149.8,16 / 23,7995997,2019-08-18 17:26:58:534,-0.9409,-0.3956,9.832,-0.7933,-0.3449,9.7684,0.0053,0.0026,0.002
79949,47.204113,-1.623253,57.51,18.61,3.216,149.8,16 / 23,7996097,2019-08-18 17:26:58:634,-1.1534,-0.4806,9.5082,-0.7942,-0.3409,9.7685,0.0164,-0.0072,0.0022
79950,47.204113,-1.623253,57.51,18.61,3.216,149.8,15 / 22,7996197,2019-08-18 17:26:58:734,-1.0678,-0.34,9.6082,-0.7906,-0.3277,9.7692,0.0065,0.0153,0.0037
79951,47.204113,-1.623253,57.51,18.61,3.216,149.8,15 / 22,7996297,2019-08-18 17:26:58:834,-1.0857,-0.4106,9.6196,-0.8062,-0.325,9.7681,-0.0003,0.0297,0.0033
79952,47.204113,-1.623253,57.51,18.61,3.216,149.8,15 / 22,7996397,2019-08-18 17:26:58:934,-1.1803,-0.3424,9.8614,-0.8423,-0.3371,9.7646,-0.0162,0.0073,0.0005
79953,47.204113,-1.623253,57.51,18.61,3.216,149.8,15 / 22,7996497,2019-08-18 17:26:59:034,-0.9893,-0.4304,9.9924,-0.845,-0.3439,9.7641,-0.0069,-0.0322,-0.0004
79954,47.204113,-1.623253,57.51,18.61,3.216,149.8,15 / 22,7996597,2019-08-18 17:26:59:134,-0.9151,-0.3573,9.9996,-0.8152,-0.3542,9.7663,-0.0108,-0.0249,-0.0013
79955,47.204113,-1.623253,57.51,18.61,3.216,149.8,15 / 22,7996697,2019-08-18 17:26:59:234,-0.6751,-0.4202,9.744,-0.8086,-0.3674,9.7664,-0.0186,0.0094,-0.0005
79956,47.204113,-1.623253,57.51,18.61,3.216,149.8,15 / 22,7996797,2019-08-18 17:26:59:334,-1.0109,-0.3633,9.9212,-0.8173,-0.3907,9.7647,-0.0059,0.0042,-0.0001
79957,47.204113,-1.623253,57.51,18.61,3.216,149.8,15 / 22,7996897,2019-08-18 17:26:59:434,-0.9325,-0.3765,10.2055,-0.8099,-0.392,9.7653,0.0095,-0.0299,0.0005
79958,47.204113,-1.623253,57.51,18.61,3.216,149.8,15 / 22,7996998,2019-08-18 17:26:59:535,-0.814,-0.3699,9.9913,-0.7798,-0.3803,9.7682,0.0069,-0.0259,0.0012
79959,47.204113,-1.623253,57.51,18.61,3.216,149.8,13 / 20,7997097,2019-08-18 17:26:59:634,-0.8678,-0.3855,9.9948,-0.7706,-0.384,9.7688,-0.0155,0.0095,0.0003
79960,47.204113,-1.623253,57.51,18.61,3.216,149.8,13 / 20,7997197,2019-08-18 17:26:59:734,-0.8649,-0.4675,9.9164,-0.7851,-0.3991,9.767,-0.0076,0.0108,0.0007
79961,47.204113,-1.623253,57.51,18.61,3.216,149.8,13 / 20,7997297,2019-08-18 17:26:59:834,-0.7912,-0.3783,10.0343,-0.7874,-0.3962,9.767,0.0072,-0.0079,0.001
79962,47.204113,-1.623253,57.51,18.61,3.216,149.8,13 / 20,7997397,2019-08-18 17:26:59:934,-0.8014,-0.3495,9.5669,-0.7803,-0.3852,9.768,0.0036,-0.0132,0.0022
79963,47.204113,-1.623253,57.51,18.61,3.216,149.8,13 / 20,7997497,2019-08-18 17:27:00:034,-0.7984,-0.2233,9.6597,-0.7876,-0.386,9.7673,-0.014,0.0272,0.0022
79964,47.204113,-1.623253,57.51,18.61,3.216,149.8,13 / 20,7997597,2019-08-18 17:27:00:134,-0.7703,-0.3627,10.0547,-0.8127,-0.3995,9.7648,0.0102,-0.0108,0.0018
79965,47.204113,-1.623253,57.51,18.61,3.216,149.8,13 / 20,7997697,2019-08-18 17:27:00:234,-0.8403,-0.1993,10.5862,-0.8039,-0.3922,9.7658,0.0202,-0.0264,0.0023
79966,47.204113,-1.623253,57.51,18.61,3.216,149.8,13 / 20,7997797,2019-08-18 17:27:00:334,-0.6194,-0.5351,9.7854,-0.7832,-0.3758,9.7681,0.0062,-0.0021,0.0015
79967,47.204113,-1.623253,57.51,18.61,3.216,149.8,13 / 20,7997897,2019-08-18 17:27:00:434,-0.6793,-0.3053,9.4705,-0.7747,-0.3647,9.7692,-0.0048,0.0238,0.0036
79968,47.204113,-1.623253,57.51,18.61,3.216,149.8,13 / 20,7997997,2019-08-18 17:27:00:534,-0.8194,-0.267,9.8183,-0.7968,-0.3707,9.7672,-0.0007,0.0117,0.0016
79969,47.204113,-1.623253,57.51,18.61,3.216,149.8,13 / 20,7998097,2019-08-18 17:27:00:634,-0.7697,-0.3765,9.9482,-0.8098,-0.3746,9.766,0.011,-0.0095,0.0018
79970,47.204113,-1.623253,57.51,18.61,3.216,149.8,13 / 20,7998197,2019-08-18 17:27:00:734,-0.8684,-0.3777,10.2702,-0.8007,-0.3605,9.7673,0.0126,-0.024,0.0013
79971,47.204113,-1.623253,57.51,18.61,3.216,149.8,13 / 20,7998297,2019-08-18 17:27:00:834,-0.7014,-0.2352,9.6956,-0.7812,-0.3475,9.7693,-0.0043,0.0054,0.0008
79972,47.204113,-1.623253,57.51,18.61,3.216,149.8,13 / 20,7998397,2019-08-18 17:27:00:934,-0.6739,-0.3663,9.7554,-0.7936,-0.3537,9.7681,-0.0069,0.0246,0.0018
79973,47.204113,-1.623253,57.51,18.61,3.216,149.8,13 / 20,7998497,2019-08-18 17:27:01:034,-0.7787,-0.2137,9.9434,-0.8118,-0.3462,9.7669,-0.0006,0.0032,0.0015
79974,47.204113,-1.623253,57.51,18.61,3.216,149.8,13 / 20,7998597,2019-08-18 17:27:01:134,-0.8493,-0.2334,9.9356,-0.8034,-0.3446,9.7676,0.0077,-0.0213,0.0021
79975,47.204113,-1.623253,57.51,18.61,3.216,149.8,13 / 20,7998698,2019-08-18 17:27:01:235,-0.5476,-0.3639,9.6261,-0.7812,-0.334,9.7698,0.0017,-0.0038,0.0025
79976,47.204113,-1.623253,57.51,18.61,3.216,149.8,13 / 20,7998797,2019-08-18 17:27:01:334,-0.9349,-0.3501,9.8578,-0.7886,-0.3375,9.7691,-0.0099,0.0192,0.0005
79977,47.204113,-1.623253,57.51,18.61,3.216,149.8,13 / 20,7998897,2019-08-18 17:27:01:434,-0.8912,-0.1682,9.8769,-0.8069,-0.3383,9.7675,0.0052,0.0051,0.002
79978,47.204113,-1.623253,57.51,18.61,3.216,149.8,13 / 20,7998997,2019-08-18 17:27:01:534,-0.7116,-0.1443,10.0589,-0.8002,-0.3307,9.7684,0.0162,-0.0215,0.0049
79979,47.204113,-1.623253,57.51,18.61,3.216,149.8,16 / 23,7999097,2019-08-18 17:27:01:634,-0.7852,-0.103,9.7512,-0.7762,-0.3087,9.771,0.0066,-0.0129,0.0069
79980,47.204113,-1.623253,57.51,18.61,3.216,149.8,16 / 23,7999197,2019-08-18 17:27:01:734,-0.8194,-0.0509,9.507,-0.783,-0.3113,9.7704,-0.0198,0.0271,0.0068
79981,47.204113,-1.623253,57.51,18.61,3.216,149.8,16 / 23,7999297,2019-08-18 17:27:01:834,-0.7386,-0.2382,9.9446,-0.8109,-0.3162,9.768,-0.0023,-0.0043,0.0083
79982,47.204113,-1.623253,57.51,18.61,3.216,149.8,16 / 23,7999397,2019-08-18 17:27:01:934,-0.8559,-0.0868,10.1427,-0.807,-0.3145,9.7683,0.0112,-0.0222,0.0069
79983,47.204113,-1.623253,57.51,18.61,3.216,149.8,16 / 23,7999497,2019-08-18 17:27:02:034,-0.7092,-0.0024,9.668,-0.7734,-0.2953,9.7716,-0.0051,-0.0066,0.0053
79984,47.204113,-1.623253,57.51,18.61,3.216,149.8,16 / 23,7999597,2019-08-18 17:27:02:134,-0.7296,-0.1664,9.6722,-0.7725,-0.2989,9.7716,-0.0105,0.0203,0.006
79985,47.204113,-1.623253,57.51,18.61,3.216,149.8,16 / 23,7999697,2019-08-18 17:27:02:234,-0.7655,-0.1802,9.8721,-0.7916,-0.3101,9.7697,-0.0008,0.0036,0.0074
79986,47.204113,-1.623253,57.51,18.61,3.216,149.8,16 / 23,7999797,2019-08-18 17:27:02:334,-0.5823,-0.2699,9.8177,-0.7882,-0.3043,9.7702,0.0049,-0.0137,0.007
79987,47.204113,-1.623253,57.51,18.61,3.216,149.8,16 / 23,7999897,2019-08-18 17:27:02:434,-0.7098,0.0078,9.7093,-0.7657,-0.2912,9.7724,-0.0016,-0.0055,0.0065
79988,47.204113,-1.623253,57.51,18.61,3.216,149.8,16 / 23,7999998,2019-08-18 17:27:02:535,-0.7691,-0.1502,9.7674,-0.7665,-0.2945,9.7722,-0.0158,0.0171,0.0051
79989,47.204113,-1.623253,57.51,18.61,3.216,149.8,16 / 23,8000097,2019-08-18 17:27:02:634,-0.735,-0.2711,10.1954,-0.783,-0.2993,9.7708,0.0055,0.0007,0.0072
79990,47.204113,-1.623253,57.51,18.61,3.216,149.8,16 / 23,8000197,2019-08-18 17:27:02:734,-0.714,-0.0832,10.2199,-0.7756,-0.2891,9.7717,0.0154,-0.0238,0.0081
79991,47.204113,-1.623253,57.51,18.61,3.216,149.8,16 / 23,8000297,2019-08-18 17:27:02:834,-0.6721,-0.0724,9.7512,-0.7465,-0.2627,9.7747,0.0126,-0.0156,0.0084
79992,47.204113,-1.623253,57.51,18.61,3.216,149.8,16 / 23,8000397,2019-08-18 17:27:02:934,-0.6667,0.0341,9.5818,-0.7422,-0.2616,9.775,-0.0205,0.0174,0.0061
79993,47.204113,-1.623253,57.51,18.61,3.216,149.8,16 / 23,8000497,2019-08-18 17:27:03:034,-0.6925,-0.2083,9.9374,-0.764,-0.2792,9.7729,-0.0193,0.0153,0.0069
79994,47.204113,-1.623253,57.51,18.61,3.216,149.8,16 / 23,8000597,2019-08-18 17:27:03:134,-0.6224,-0.2065,9.7159,-0.7641,-0.2819,9.7728,0.0044,-0.0165,0.0069
79995,47.204113,-1.623253,57.51,18.61,3.216,149.8,16 / 23,8000697,2019-08-18 17:27:03:234,-0.5596,-0.0742,9.4933,-0.7394,-0.2694,9.775,0.004,-0.0204,0.0077
79996,47.204113,-1.623253,57.51,18.61,3.216,149.8,16 / 23,8000797,2019-08-18 17:27:03:334,-0.5949,-0.1622,9.8374,-0.7355,-0.2693,9.7753,-0.0145,0.0176,0.0078
79997,47.204113,-1.623253,57.51,18.61,3.216,149.8,16 / 23,8000897,2019-08-18 17:27:03:434,-0.5877,-0.1173,9.9398,-0.7514,-0.274,9.774,-0.0039,0.0159,0.0078
79998,47.204113,-1.623253,57.51,18.61,3.216,149.8,16 / 23,8000997,2019-08-18 17:27:03:534,-0.6757,-0.1436,9.7069,-0.7462,-0.268,9.7745,0.0048,-0.0146,0.0065
79999,47.204113,-1.623253,57.51,18.61,3.216,149.8,16 / 23,8001097,2019-08-18 17:27:03:634,-0.5835,-0.2005,9.5477,-0.7272,-0.2596,9.7762,-0.0083,0.009,0.0064
80000,47.204113,-1.623253,57.51,18.61,3.216,149.8,16 / 23,8001197,2019-08-18 17:27:03:734,-0.568,-0.1269,9.6812,-0.7357,-0.264,9.7755,-0.02,0.0216,0.0047
80001,47.204113,-1.623253,57.51,18.61,3.216,149.8,16 / 23,8001297,2019-08-18 17:27:03:834,-0.6823,-0.1065,10.0876,-0.7493,-0.2745,9.7741,0.0057,-0.0077,0.0044
80002,47.204113,-1.623253,57.51,18.61,3.216,149.8,16 / 23,8001397,2019-08-18 17:27:03:934,-0.6601,-0.17,10.0397,-0.74,-0.2643,9.7751,0.0159,-0.0186,0.0051
80003,47.204113,-1.623253,57.51,18.61,3.216,149.8,16 / 23,8001497,2019-08-18 17:27:04:034,-0.5285,-0.103,9.7039,-0.7041,-0.2435,9.7783,-0.0032,-0.0088,0.0055
80004,47.204113,-1.623253,57.51,18.61,3.216,149.8,16 / 23,8001597,2019-08-18 17:27:04:134,-0.5021,-0.1107,9.4364,-0.707,-0.2481,9.778,-0.0203,0.0212,0.0044
80005,47.204113,-1.623253,57.51,18.61,3.216,149.8,16 / 23,8001698,2019-08-18 17:27:04:235,-0.6392,-0.2364,10.0481,-0.7328,-0.2623,9.7757,-0.0023,0.0063,0.005
80006,47.204113,-1.623253,57.51,18.61,3.216,149.8,16 / 23,8001798,2019-08-18 17:27:04:335,-0.644,-0.0539,10.0703,-0.7254,-0.2567,9.7764,0.0119,-0.0225,0.0044
80007,47.204113,-1.623253,57.51,18.61,3.216,149.8,16 / 23,8001897,2019-08-18 17:27:04:434,-0.392,-0.103,9.537,-0.7119,-0.2498,9.7776,0.001,-0.0251,0.0046
80008,47.204113,-1.623253,57.51,18.61,3.216,149.8,16 / 23,8001997,2019-08-18 17:27:04:534,-0.4854,-0.0712,9.4825,-0.6711,-0.241,9.7807,-0.0181,0.0109,0.0037
80009,47.204113,-1.623253,57.51,18.61,3.216,149.8,15 / 23,8002097,2019-08-18 17:27:04:634,-0.4943,-0.3855,9.7291,-0.6883,-0.2561,9.7791,-0.0169,0.0164,0.0044
80010,47.20278,-1.622098,54.89,19.62,3.216,148.5,15 / 23,8002197,2019-08-18 17:27:04:734,-0.6841,-0.0407,9.9314,-0.6981,-0.2622,9.7783,0.0189,-0.0263,0.0056
80011,47.20278,-1.622098,54.89,19.62,3.216,148.5,15 / 23,8002297,2019-08-18 17:27:04:834,-0.4554,-0.1299,9.6411,-0.6784,-0.2453,9.7801,0.0118,-0.0198,0.0057
80012,47.20278,-1.622098,54.89,19.62,3.216,148.5,15 / 23,8002397,2019-08-18 17:27:04:934,-0.5764,-0.0491,9.7979,-0.664,-0.2345,9.7813,-0.0087,0.0205,0.0047
80013,47.20278,-1.622098,54.89,19.62,3.216,148.5,15 / 23,8002497,2019-08-18 17:27:05:034,-0.653,-0.1431,9.9601,-0.6743,-0.2368,9.7806,-0.003,0.0109,0.0057
80014,47.20278,-1.622098,54.89,19.62,3.216,148.5,15 / 23,8002597,2019-08-18 17:27:05:134,-0.5392,-0.1658,9.8452,-0.6723,-0.226,9.781,0.0093,-0.0049,0.0078
80015,47.20278,-1.622098,54.89,19.62,3.216,148.5,15 / 23,8002697,2019-08-18 17:27:05:234,-0.6745,-0.0736,9.5717,-0.6625,-0.2124,9.7819,0.017,-0.015,0.0104
80016,47.20278,-1.622098,54.89,19.62,3.216,148.5,15 / 23,8002797,2019-08-18 17:27:05:334,-0.5788,0.1293,9.4891,-0.6749,-0.198,9.7814,-0.0115,0.0243,0.0135
80017,47.20278,-1.622098,54.89,19.62,3.216,148.5,15 / 23,8002897,2019-08-18 17:27:05:434,-0.6823,0.2933,9.9523,-0.688,-0.2001,9.7804,-0.0052,0.0095,0.0133
80018,47.20278,-1.622098,54.89,19.62,3.216,148.5,15 / 23,8002997,2019-08-18 17:27:05:534,-0.7433,0.1796,9.9464,-0.6825,-0.1781,9.7813,0.0186,-0.0238,0.0184
80019,47.20278,-1.622098,54.89,19.62,3.216,148.5,13 / 19,8003097,2019-08-18 17:27:05:634,-0.6973,0.2909,9.7818,-0.6715,-0.1605,9.7823,0.0027,0.0182,0.0285
80020,47.20278,-1.622098,54.89,19.62,3.216,148.5,13 / 19,8003197,2019-08-18 17:27:05:734,-1.0271,0.7506,10.0182,-0.688,-0.1353,9.7816,-0.009,0.0193,0.0348
80021,47.20278,-1.622098,54.89,19.62,3.216,148.5,13 / 19,8003297,2019-08-18 17:27:05:834,-0.9121,0.1461,10.1343,-0.7057,-0.1259,9.7804,-0.0028,0.0092,0.0374
80022,47.20278,-1.622098,54.89,19.62,3.216,148.5,13 / 19,8003397,2019-08-18 17:27:05:934,-0.8625,0.2454,9.8614,-0.6998,-0.0974,9.7812,0.0123,-0.0206,0.0377
80023,47.20278,-1.622098,54.89,19.62,3.216,148.5,13 / 19,8003497,2019-08-18 17:27:06:034,-0.9265,0.5381,9.4705,-0.6919,-0.0753,9.7819,-0.0184,0.0078,0.0341
80024,47.20278,-1.622098,54.89,19.62,3.216,148.5,13 / 19,8003597,2019-08-18 17:27:06:134,-0.8499,0.4196,9.7506,-0.7019,-0.0736,9.7812,-0.0148,0.0261,0.0336
80025,47.20278,-1.622098,54.89,19.62,3.216,148.5,13 / 19,8003697,2019-08-18 17:27:06:234,-0.9498,0.4537,10.0852,-0.7228,-0.0713,9.7797,0.0031,-0.0122,0.0314
80026,47.20278,-1.622098,54.89,19.62,3.216,148.5,13 / 19,8003797,2019-08-18 17:27:06:334,-0.8427,0.3969,10.1433,-0.7035,-0.0468,9.7813,0.0063,-0.0313,0.0292
80027,47.20278,-1.622098,54.89,19.62,3.216,148.5,13 / 19,8003897,2019-08-18 17:27:06:434,-0.7332,0.2131,9.6627,-0.6893,-0.0387,9.7823,-0.0147,0.0023,0.0254
80028,47.20278,-1.622098,54.89,19.62,3.216,148.5,13 / 19,8003997,2019-08-18 17:27:06:534,-0.6937,0.3633,9.847,-0.7047,-0.0453,9.7812,-0.0206,0.0207,0.0251
80029,47.20278,-1.622098,54.89,19.62,3.216,148.5,15 / 22,8004097,2019-08-18 17:27:06:634,-0.7032,0.1305,10.1666,-0.7115,-0.0504,9.7807,0.0008,-0.0104,0.0238
80030,47.20278,-1.622098,54.89,19.62,3.216,148.5,15 / 22,8004197,2019-08-18 17:27:06:734,-0.5787,0.3143,9.8069,-0.6932,-0.0303,9.7821,0.0109,-0.0214,0.0232
80031,47.20278,-1.622098,54.89,19.62,3.216,148.5,15 / 22,8004297,2019-08-18 17:27:06:834,-0.6584,0.4208,9.0845,-0.6891,-0.0208,9.7824,-0.0111,0.0206,0.0225
80032,47.20278,-1.622098,54.89,19.62,3.216,148.5,15 / 22,8004397,2019-08-18 17:27:06:934,-0.8732,0.1951,9.8428,-0.7236,-0.0276,9.7799,-0.0087,0.0128,0.0215
80033,47.20278,-1.622098,54.89,19.62,3.216,148.5,15 / 22,8004497,2019-08-18 17:27:07:034,-0.7571,0.2795,10.1181,-0.7325,-0.0264,9.7792,0.0049,-0.0126,0.0235
80034,47.20278,-1.622098,54.89,19.62,3.216,148.5,15 / 22,8004597,2019-08-18 17:27:07:134,-0.7164,0.2765,9.7878,-0.7048,-0.0069,9.7813,0.0006,-0.0103,0.0217
80035,47.20278,-1.622098,54.89,19.62,3.216,148.5,15 / 22,8004697,2019-08-18 17:27:07:234,-0.6835,0.185,9.9805,-0.7026,0.0061,9.7814,-0.0133,0.0078,0.0213
80036,47.20278,-1.622098,54.89,19.62,3.216,148.5,15 / 22,8004797,2019-08-18 17:27:07:334,-0.6817,0.1077,10.33,-0.7046,0.0414,9.7812,0.0087,-0.0125,0.0213
80037,47.20278,-1.622098,54.89,19.62,3.216,148.5,15 / 22,8004897,2019-08-18 17:27:07:434,-0.8313,0.3681,10.2516,-0.6944,0.0598,9.7819,0.0191,-0.028,0.0224
80038,47.20278,-1.622098,54.89,19.62,3.216,148.5,15 / 22,8004997,2019-08-18 17:27:07:534,-0.7086,0.2143,9.8267,-0.6661,0.0799,9.7837,-0.0082,-0.0047,0.0215
80039,47.20278,-1.622098,54.89,19.62,3.216,148.5,14 / 20,8005097,2019-08-18 17:27:07:634,-0.6392,0.3663,9.8656,-0.672,0.074,9.7833,-0.0196,0.0152,0.0201
80040,47.20278,-1.622098,54.89,19.62,3.216,148.5,14 / 20,8005197,2019-08-18 17:27:07:734,-0.7703,0.1844,10.2331,-0.683,0.0664,9.7826,0.0069,-0.0009,0.0237
80041,47.20278,-1.622098,54.89,19.62,3.216,148.5,14 / 20,8005297,2019-08-18 17:27:07:834,-0.9026,0.1712,9.8841,-0.681,0.083,9.7826,0.0178,-0.0197,0.023
80042,47.20278,-1.622098,54.89,19.62,3.216,148.5,14 / 20,8005397,2019-08-18 17:27:07:934,-1.0534,0.1856,9.7728,-0.6686,0.0909,9.7834,-0.0084,0.0069,0.0226
80043,47.20278,-1.622098,54.89,19.62,3.216,148.5,14 / 20,8005497,2019-08-18 17:27:08:034,-1.2234,0.1251,9.8823,-0.6921,0.083,9.7818,-0.0032,0.0089,0.0233
80044,47.20278,-1.622098,54.89,19.62,3.216,148.5,14 / 20,8005597,2019-08-18 17:27:08:134,-1.1103,0.076,10.008,-0.7093,0.0807,9.7806,0.0067,-0.011,0.0228
80045,47.20278,-1.622098,54.89,19.62,3.216,148.5,14 / 20,8005697,2019-08-18 17:27:08:234,-0.9738,0.0946,9.6812,-0.7014,0.0908,9.7811,0.003,-0.0155,0.023
80046,47.20278,-1.622098,54.89,19.62,3.216,148.5,14 / 20,8005797,2019-08-18 17:27:08:334,-0.9846,0.0323,9.7165,-0.6955,0.095,9.7815,-0.0062,0.0053,0.0212
80047,47.20278,-1.622098,54.89,19.62,3.216,148.5,14 / 20,8005897,2019-08-18 17:27:08:434,-1.2024,-0.0718,10.1894,-0.7143,0.0901,9.7802,0.008,-0.0035,0.021
80048,47.20278,-1.622098,54.89,19.62,3.216,148.5,14 / 20,8005997,2019-08-18 17:27:08:534,-1.2126,0.012,9.9236,-0.7181,0.0917,9.7799,0.0126,-0.0286,0.0201
80049,47.20278,-1.622098,54.89,19.62,3.216,148.5,14 / 20,8006097,2019-08-18 17:27:08:634,-1.0109,-0.0144,9.777,-0.6927,0.1032,9.7816,-0.0069,-0.0149,0.0178
80050,47.20278,-1.622098,54.89,19.62,3.216,148.5,14 / 20,8006197,2019-08-18 17:27:08:734,-1.1647,0.1203,9.8326,-0.6936,0.0974,9.7816,-0.022,0.0029,0.0176
80051,47.20278,-1.622098,54.89,19.62,3.216,148.5,14 / 20,8006297,2019-08-18 17:27:08:834,-1.1851,-0.0754,10.4533,-0.7113,0.0717,9.7806,-0.0011,-0.0159,0.0191
80052,47.20278,-1.622098,54.89,19.62,3.216,148.5,14 / 20,8006397,2019-08-18 17:27:08:934,-1.0324,0.0383,10.1972,-0.704,0.0742,9.7811,0.0141,-0.0367,0.0207
80053,47.20278,-1.622098,54.89,19.62,3.216,148.5,14 / 20,8006497,2019-08-18 17:27:09:034,-0.9217,0.0323,9.6549,-0.6647,0.075,9.7838,-0.0206,-0.0138,0.0185
80054,47.20278,-1.622098,54.89,19.62,3.216,148.5,14 / 20,8006597,2019-08-18 17:27:09:134,-0.9259,-0.1335,9.449,-0.6713,0.0601,9.7835,-0.0279,0.0238,0.0172
80055,47.20278,-1.622098,54.89,19.62,3.216,148.5,14 / 20,8006697,2019-08-18 17:27:09:234,-0.7529,0.0317,9.2568,-0.7138,0.027,9.7806,0.0006,0.0183,0.0167
80056,47.20278,-1.622098,54.89,19.62,3.216,148.5,14 / 20,8006797,2019-08-18 17:27:09:334,-0.9433,0.0335,9.7848,-0.7158,0.0287,9.7804,0.0045,-0.0116,0.016
80057,47.20278,-1.622098,54.89,19.62,3.216,148.5,14 / 20,8006897,2019-08-18 17:27:09:434,-0.8822,-0.0533,9.8308,-0.7112,0.0333,9.7808,0.0006,0.0023,0.0137
80058,47.20278,-1.622098,54.89,19.62,3.216,148.5,14 / 20,8006997,2019-08-18 17:27:09:534,-0.9636,-0.1179,10.0314,-0.7198,0.0323,9.7801,0.004,0.0074,0.0131
80059,47.20278,-1.622098,54.89,19.62,3.216,148.5,15 / 21,8007097,2019-08-18 17:27:09:634,-0.8858,-0.1628,10.4114,-0.7107,0.0437,9.7808,0.0167,-0.0231,0.0128
80060,47.20278,-1.622098,54.89,19.62,3.216,148.5,15 / 21,8007197,2019-08-18 17:27:09:734,-0.8122,0.1107,10.0176,-0.6909,0.0571,9.7821,0.0094,-0.0128,0.0148
80061,47.20278,-1.622098,54.89,19.62,3.216,148.5,15 / 21,8007297,2019-08-18 17:27:09:834,-0.7679,0.0635,10.0397,-0.6966,0.0679,9.7816,0.0007,0.0148,0.0189
80062,47.20278,-1.622098,54.89,19.62,3.216,148.5,15 / 21,8007397,2019-08-18 17:27:09:934,-1.0235,0.3747,9.7889,-0.7116,0.0719,9.7805,0.0011,0.0232,0.0269
80063,47.20278,-1.622098,54.89,19.62,3.216,148.5,15 / 21,8007497,2019-08-18 17:27:10:034,-0.9127,0.4262,10.1104,-0.7054,0.1108,9.7806,0.023,-0.0219,0.036
80064,47.20278,-1.622098,54.89,19.62,3.216,148.5,15 / 21,8007597,2019-08-18 17:27:10:134,-0.9421,0.5614,9.8045,-0.6916,0.1282,9.7814,0.019,-0.0309,0.0356
80065,47.20278,-1.622098,54.89,19.62,3.216,148.5,15 / 21,8007697,2019-08-18 17:27:10:234,-1.0588,0.6189,10.011,-0.6976,0.1265,9.781,-0.0228,0.0006,0.0317
80066,47.20278,-1.622098,54.89,19.62,3.216,148.5,15 / 21,8007797,2019-08-18 17:27:10:334,-0.8774,-0.0563,9.9015,-0.702,0.1213,9.7807,0.0041,0.0005,0.0299
80067,47.20278,-1.622098,54.89,19.62,3.216,148.5,15 / 21,8007897,2019-08-18 17:27:10:434,-1.3946,0.5273,9.6926,-0.6968,0.1425,9.7808,0.0074,-0.0283,0.0295
80068,47.20278,-1.622098,54.89,19.62,3.216,148.5,15 / 21,8007997,2019-08-18 17:27:10:534,-1.0283,0.5501,9.6381,-0.6835,0.1499,9.7817,-0.0047,-0.0061,0.0296
80069,47.20278,-1.622098,54.89,19.62,3.216,148.5,17 / 23,8008097,2019-08-18 17:27:10:634,-0.9684,0.1526,9.7237,-0.7023,0.1381,9.7805,-0.014,0.0121,0.0272
80070,47.20278,-1.622098,54.89,19.62,3.216,148.5,17 / 23,8008196,2019-08-18 17:27:10:733,-0.9379,0.2676,9.783,-0.7107,0.1379,9.7799,-0.0014,-0.0042,0.0286
80071,47.20278,-1.622098,54.89,19.62,3.216,148.5,17 / 23,8008297,2019-08-18 17:27:10:834,-0.7918,0.2316,9.6746,-0.7043,0.1446,9.7803,0.0023,-0.0181,0.0284
80072,47.20278,-1.622098,54.89,19.62,3.216,148.5,17 / 23,8008397,2019-08-18 17:27:10:934,-0.8613,0.1293,9.7243,-0.6946,0.1512,9.7809,-0.0128,0.006,0.0272
80073,47.20278,-1.622098,54.89,19.62,3.216,148.5,17 / 23,8008497,2019-08-18 17:27:11:034,-0.9193,0.2257,10.1104,-0.7079,0.1474,9.78,-0.0052,-0.0004,0.0273
80074,47.20278,-1.622098,54.89,19.62,3.216,148.5,17 / 23,8008597,2019-08-18 17:27:11:134,-1.3114,0.0341,11.3506,-0.7166,0.1522,9.7792,0.0068,-0.0195,0.0279
80075,47.20278,-1.622098,54.89,19.62,3.216,148.5,17 / 23,8008697,2019-08-18 17:27:11:234,-0.9786,1.1133,10.2331,-0.7014,0.161,9.7802,0.0349,-0.0007,0.0272
80076,47.20278,-1.622098,54.89,19.62,3.216,148.5,17 / 23,8008797,2019-08-18 17:27:11:334,-1.6118,0.0814,10.4575,-0.7018,0.1864,9.7797,0.006,0.0238,0.0256
80077,47.20278,-1.622098,54.89,19.62,3.216,148.5,17 / 23,8008897,2019-08-18 17:27:11:434,-1.1617,0.079,10.3612,-0.7134,0.1908,9.7788,-0.0399,-0.0068,0.0237
80078,47.20278,-1.622098,54.89,19.62,3.216,148.5,17 / 23,8008997,2019-08-18 17:27:11:534,-0.9044,0.1413,9.9775,-0.7157,0.1523,9.7793,0.0053,-0.0413,0.0232
80079,47.20278,-1.622098,54.89,19.62,3.216,148.5,14 / 21,8009097,2019-08-18 17:27:11:634,-0.7218,-0.2215,9.6686,-0.6871,0.159,9.7813,0.0172,-0.0301,0.0231
80080,47.20278,-1.622098,54.89,19.62,3.216,148.5,14 / 21,8009197,2019-08-18 17:27:11:734,-0.6793,0.0838,9.8805,-0.6796,0.1738,9.7815,0.0,0.0183,0.0251
80081,47.20278,-1.622098,54.89,19.62,3.216,148.5,14 / 21,8009297,2019-08-18 17:27:11:834,-0.7206,0.1951,10.3935,-0.6946,0.176,9.7804,0.0079,0.006,0.0249
80082,47.20278,-1.622098,54.89,19.62,3.216,148.5,14 / 21,8009396,2019-08-18 17:27:11:933,-0.7984,0.1359,9.7518,-0.6872,0.1937,9.7806,0.0077,-0.0307,0.0228
80083,47.20278,-1.622098,54.89,19.62,3.216,148.5,14 / 21,8009497,2019-08-18 17:27:12:034,-0.7673,0.4274,9.668,-0.6689,0.2008,9.7818,-0.0164,0.0088,0.0225
80084,47.20278,-1.622098,54.89,19.62,3.216,148.5,14 / 21,8009597,2019-08-18 17:27:12:134,-0.4273,0.17,9.519,-0.678,0.1883,9.7814,-0.0114,0.0137,0.0235
80085,47.20278,-1.622098,54.89,19.62,3.216,148.5,14 / 21,8009697,2019-08-18 17:27:12:234,-0.7446,0.1598,9.9344,-0.6857,0.1872,9.7809,-0.0017,0.0055,0.0255
80086,47.20278,-1.622098,54.89,19.62,3.216,148.5,14 / 21,8009797,2019-08-18 17:27:12:334,-0.6063,0.4417,10.1385,-0.6747,0.1994,9.7814,0.0078,-0.0147,0.0263
80087,47.20278,-1.622098,54.89,19.62,3.216,148.5,14 / 21,8009897,2019-08-18 17:27:12:434,-0.9175,0.1197,9.8231,-0.672,0.2018,9.7815,-0.009,0.0145,0.0246
80088,47.20278,-1.622098,54.89,19.62,3.216,148.5,14 / 21,8009997,2019-08-18 17:27:12:534,-0.9678,0.1353,10.4282,-0.6873,0.1981,9.7805,-0.0024,0.0014,0.0251
80089,47.20278,-1.622098,54.89,19.62,3.216,148.5,13 / 21,8010097,2019-08-18 17:27:12:634,-0.7637,0.2478,9.8135,-0.6827,0.2013,9.7808,0.0068,-0.0347,0.0246
80090,47.20278,-1.622098,54.89,19.62,3.216,148.5,13 / 21,8010197,2019-08-18 17:27:12:734,-0.7487,0.4064,9.7943,-0.6474,0.2148,9.7829,-0.0003,-0.0182,0.0242
80091,47.20278,-1.622098,54.89,19.62,3.216,148.5,13 / 21,8010297,2019-08-18 17:27:12:834,-0.7481,0.2346,9.6034,-0.6483,0.2138,9.7829,-0.0123,0.0169,0.0243
80092,47.20278,-1.622098,54.89,19.62,3.216,148.5,13 / 21,8010398,2019-08-18 17:27:12:935,-0.7332,0.3544,9.7039,-0.6676,0.2086,9.7817,0.0022,0.0082,0.0257
80093,47.20278,-1.622098,54.89,19.62,3.216,148.5,13 / 21,8010497,2019-08-18 17:27:13:034,-0.7068,0.3603,9.8518,-0.6632,0.2191,9.7817,0.0123,-0.0163,0.0281
80094,47.20278,-1.622098,54.89,19.62,3.216,148.5,13 / 21,8010597,2019-08-18 17:27:13:134,-0.7404,0.3083,10.1134,-0.6497,0.2357,9.7823,0.0042,-0.003,0.0275
80095,47.20278,-1.622098,54.89,19.62,3.216,148.5,13 / 21,8010697,2019-08-18 17:27:13:234,-0.6236,0.2472,10.0284,-0.6602,0.2408,9.7814,0.0031,0.01,0.029
80096,47.20278,-1.622098,54.89,19.62,3.216,148.5,13 / 21,8010797,2019-08-18 17:27:13:334,-0.8756,0.5848,10.4922,-0.6664,0.2517,9.7807,0.0098,-0.0082,0.0291
80097,47.20278,-1.622098,54.89,19.62,3.216,148.5,13 / 21,8010897,2019-08-18 17:27:13:434,-0.6494,0.5237,9.9553,-0.6448,0.2712,9.7817,0.0084,-0.0308,0.031
80098,47.20278,-1.622098,54.89,19.62,3.216,148.5,13 / 21,8010997,2019-08-18 17:27:13:534,-0.6608,0.5369,9.9051,-0.627,0.2779,9.7826,-0.0196,0.0068,0.0269
80099,47.20278,-1.622098,54.89,19.62,3.216,148.5,Dec-20,8011097,2019-08-18 17:27:13:634,-0.7326,0.4789,9.9913,-0.631,0.271,9.7826,-0.0057,0.0021,0.0265
80100,47.20144,-1.620582,56.15,21.24,3.216,136.5,Dec-20,8011197,2019-08-18 17:27:13:734,-0.7541,0.425,9.844,-0.6099,0.281,9.7836,0.009,-0.0218,0.028
80101,47.20144,-1.620582,56.15,21.24,3.216,136.5,Dec-20,8011297,2019-08-18 17:27:13:834,-0.5075,0.5884,9.6429,-0.5991,0.2866,9.7841,-0.009,-0.0051,0.0257
80102,47.20144,-1.620582,56.15,21.24,3.216,136.5,Dec-20,8011397,2019-08-18 17:27:13:934,-0.6889,0.3621,9.3664,-0.6168,0.2659,9.7836,-0.0183,0.0235,0.0241
80103,47.20144,-1.620582,56.15,21.24,3.216,136.5,Dec-20,8011497,2019-08-18 17:27:14:034,-0.6661,0.2915,9.7752,-0.6248,0.2604,9.7833,-0.0047,-0.0036,0.0243
80104,47.20144,-1.620582,56.15,21.24,3.216,136.5,Dec-20,8011597,2019-08-18 17:27:14:134,-0.5512,0.3358,10.1134,-0.6161,0.2694,9.7836,0.0199,-0.0213,0.0259
80105,47.20144,-1.620582,56.15,21.24,3.216,136.5,Dec-20,8011697,2019-08-18 17:27:14:234,-0.5321,0.665,9.8249,-0.5949,0.2889,9.7843,-0.0026,-0.0076,0.0254
80106,47.20144,-1.620582,56.15,21.24,3.216,136.5,Dec-20,8011797,2019-08-18 17:27:14:334,-0.635,0.3663,9.8937,-0.6012,0.2869,9.784,-0.0101,0.0172,0.0228
80107,47.20144,-1.620582,56.15,21.24,3.216,136.5,Dec-20,8011897,2019-08-18 17:27:14:434,-0.626,0.2969,9.7758,-0.6166,0.2777,9.7833,0.0004,0.004,0.0229
80108,47.20144,-1.620582,56.15,21.24,3.216,136.5,Dec-20,8011997,2019-08-18 17:27:14:534,-0.453,0.249,9.8147,-0.6122,0.2847,9.7834,0.0102,-0.0119,0.0215
80109,47.20144,-1.620582,56.15,21.24,3.216,136.5,13 / 20,8012097,2019-08-18 17:27:14:634,-0.5303,0.4687,9.5513,-0.6011,0.2892,9.7839,-0.0073,0.0085,0.0202
80110,47.20144,-1.620582,56.15,21.24,3.216,136.5,13 / 20,8012197,2019-08-18 17:27:14:734,-0.6093,0.3585,10.1965,-0.6139,0.2836,9.7833,-0.0142,0.02,0.0198
80111,47.20144,-1.620582,56.15,21.24,3.216,136.5,13 / 20,8012297,2019-08-18 17:27:14:834,-0.6458,0.4441,9.9428,-0.6182,0.2832,9.783,0.006,-0.0207,0.0214
80112,47.20144,-1.620582,56.15,21.24,3.216,136.5,13 / 20,8012397,2019-08-18 17:27:14:934,-0.6063,0.1933,9.6686,-0.6066,0.2883,9.7836,0.0,-0.0135,0.0214
80113,47.20144,-1.620582,56.15,21.24,3.216,136.5,13 / 20,8012497,2019-08-18 17:27:15:034,-0.4991,0.2693,9.744,-0.6022,0.2859,9.784,-0.0091,0.0199,0.0204
80114,47.20144,-1.620582,56.15,21.24,3.216,136.5,13 / 20,8012597,2019-08-18 17:27:15:134,-0.5859,0.2795,10.0248,-0.6123,0.2815,9.7835,-0.0002,0.0062,0.0215
80115,47.20144,-1.620582,56.15,21.24,3.216,136.5,13 / 20,8012697,2019-08-18 17:27:15:234,-0.5201,0.3603,9.7447,-0.6,0.2921,9.7839,0.0115,-0.0258,0.0201
80116,47.20144,-1.620582,56.15,21.24,3.216,136.5,13 / 20,8012797,2019-08-18 17:27:15:334,-0.4267,0.4591,10.0044,-0.5792,0.2991,9.785,-0.0104,-0.0099,0.0191
80117,47.20144,-1.620582,56.15,21.24,3.216,136.5,13 / 20,8012897,2019-08-18 17:27:15:434,-0.4566,0.2376,10.0062,-0.5847,0.282,9.7851,-0.0105,0.0136,0.0182
80118,47.20144,-1.620582,56.15,21.24,3.216,136.5,13 / 20,8012997,2019-08-18 17:27:15:534,-0.5542,0.3029,10.1523,-0.5871,0.2759,9.7852,0.0001,-0.0041,0.0171
80119,47.20144,-1.620582,56.15,21.24,3.216,136.5,13 / 19,8013097,2019-08-18 17:27:15:634,-0.3788,0.3346,9.7081,-0.566,0.2865,9.7861,0.0067,-0.0083,0.0172
80120,47.20144,-1.620582,56.15,21.24,3.216,136.5,13 / 19,8013197,2019-08-18 17:27:15:734,-0.4902,0.2155,9.6255,-0.5665,0.2849,9.7861,-0.012,0.0223,0.0156
80121,47.20144,-1.620582,56.15,21.24,3.216,136.5,13 / 19,8013297,2019-08-18 17:27:15:834,-0.4255,0.2059,10.0786,-0.5882,0.2726,9.7852,-0.0015,0.0112,0.0161
80122,47.20144,-1.620582,56.15,21.24,3.216,136.5,13 / 19,8013397,2019-08-18 17:27:15:934,-0.4261,0.3723,9.9386,-0.5876,0.2773,9.7851,0.0026,-0.0279,0.0168
80123,47.20144,-1.620582,56.15,21.24,3.216,136.5,13 / 19,8013497,2019-08-18 17:27:16:034,-0.4417,0.1251,9.6076,-0.5512,0.2811,9.7871,-0.007,-0.0168,0.0149
80124,47.20144,-1.620582,56.15,21.24,3.216,136.5,13 / 19,8013597,2019-08-18 17:27:16:134,-0.4614,0.0712,9.6411,-0.5503,0.2704,9.7875,-0.0109,0.0155,0.0135
80125,47.20144,-1.620582,56.15,21.24,3.216,136.5,13 / 19,8013697,2019-08-18 17:27:16:234,-0.4082,0.2969,10.3582,-0.5575,0.2563,9.7874,-0.0057,-0.0061,0.0151
80126,47.20144,-1.620582,56.15,21.24,3.216,136.5,13 / 19,8013797,2019-08-18 17:27:16:334,-0.3615,0.4543,9.6866,-0.5429,0.2564,9.7883,-0.0048,-0.0163,0.0158
80127,47.20144,-1.620582,56.15,21.24,3.216,136.5,13 / 19,8013897,2019-08-18 17:27:16:434,-0.3004,0.3442,9.8093,-0.5316,0.2473,9.7891,-0.0169,0.0054,0.0144
80128,47.20144,-1.620582,56.15,21.24,3.216,136.5,13 / 19,8013997,2019-08-18 17:27:16:534,-0.5332,0.2478,9.9164,-0.5431,0.239,9.7887,0.0003,0.0113,0.0159
80129,47.20144,-1.620582,56.15,21.24,3.216,136.5,16 / 22,8014097,2019-08-18 17:27:16:634,-0.4099,0.1449,9.5896,-0.5393,0.2443,9.7888,0.0081,-0.0074,0.0171
80130,47.20144,-1.620582,56.15,21.24,3.216,136.5,16 / 22,8014197,2019-08-18 17:27:16:734,-0.3567,0.4399,9.4508,-0.5269,0.2524,9.7892,-0.0042,0.0023,0.016
80131,47.20144,-1.620582,56.15,21.24,3.216,136.5,16 / 22,8014296,2019-08-18 17:27:16:833,-0.6009,0.3448,9.9523,-0.535,0.2427,9.789,0.0009,0.0038,0.0163
80132,47.20144,-1.620582,56.15,21.24,3.216,136.5,16 / 22,8014397,2019-08-18 17:27:16:934,-0.4106,0.4507,10.5318,-0.532,0.2477,9.7891,0.0161,-0.0161,0.0178
80133,47.20144,-1.620582,56.15,21.24,3.216,136.5,16 / 22,8014497,2019-08-18 17:27:17:034,-0.3519,0.4765,9.8344,-0.4905,0.2717,9.7906,0.0055,-0.0195,0.0174
80134,47.20144,-1.620582,56.15,21.24,3.216,136.5,16 / 22,8014597,2019-08-18 17:27:17:134,-0.3405,0.5393,9.8961,-0.4864,0.2732,9.7908,-0.0152,0.0162,0.0162
80135,47.20144,-1.620582,56.15,21.24,3.216,136.5,16 / 22,8014697,2019-08-18 17:27:17:234,-0.3363,0.2616,7.9478,-0.4964,0.2618,9.7906,-0.002,-0.0072,0.0189
80136,47.20144,-1.620582,56.15,21.24,3.216,136.5,16 / 22,8014796,2019-08-18 17:27:17:333,-0.2406,0.3765,11.3158,-0.4999,0.2586,9.7905,0.0215,0.0021,0.0228
80137,47.20144,-1.620582,56.15,21.24,3.216,136.5,16 / 22,8014897,2019-08-18 17:27:17:434,-0.5219,0.7727,10.172,-0.4983,0.2708,9.7902,0.0225,-0.039,0.0338
80138,47.20144,-1.620582,56.15,21.24,3.216,136.5,16 / 22,8014997,2019-08-18 17:27:17:534,-0.647,0.7464,10.0972,-0.4749,0.3203,9.7899,-0.0245,0.015,0.03
80139,47.20144,-1.620582,56.15,21.24,3.216,136.5,14 / 20,8015097,2019-08-18 17:27:17:634,-0.3393,0.7793,10.5479,-0.4967,0.2973,9.7895,-0.0133,-0.0119,0.0308
80140,47.20144,-1.620582,56.15,21.24,3.216,136.5,14 / 20,8015197,2019-08-18 17:27:17:734,-0.231,0.5549,10.9836,-0.4825,0.2971,9.7903,0.0109,-0.0195,0.0323
80141,47.20144,-1.620582,56.15,21.24,3.216,136.5,14 / 20,8015297,2019-08-18 17:27:17:834,-0.2376,0.6626,9.7411,-0.4577,0.3239,9.7906,0.0115,-0.0104,0.0334
80142,47.20144,-1.620582,56.15,21.24,3.216,136.5,14 / 20,8015397,2019-08-18 17:27:17:934,-0.1657,0.823,9.3676,-0.4798,0.3336,9.7892,-0.0293,0.0377,0.0307
80143,47.20144,-1.620582,56.15,21.24,3.216,136.5,14 / 20,8015497,2019-08-18 17:27:18:034,-0.1562,0.8883,9.7219,-0.4981,0.3205,9.7887,-0.0092,0.0157,0.032
80144,47.20144,-1.620582,56.15,21.24,3.216,136.5,14 / 20,8015597,2019-08-18 17:27:18:134,-0.1819,0.6949,9.4657,-0.5096,0.3235,9.7881,-0.0101,0.0023,0.0304
80145,47.20144,-1.620582,56.15,21.24,3.216,136.5,14 / 20,8015697,2019-08-18 17:27:18:234,-0.5614,0.5034,9.8476,-0.516,0.3341,9.7874,0.0068,0.0067,0.0303
80146,47.20144,-1.620582,56.15,21.24,3.216,136.5,14 / 20,8015798,2019-08-18 17:27:18:335,-0.2549,0.7219,10.0948,-0.5144,0.3599,9.7865,0.0148,-0.0002,0.0313
80147,47.20144,-1.620582,56.15,21.24,3.216,136.5,14 / 20,8015897,2019-08-18 17:27:18:434,-0.3585,0.5722,9.7363,-0.5153,0.3716,9.7861,0.0103,0.0145,0.0309
80148,47.20144,-1.620582,56.15,21.24,3.216,136.5,14 / 20,8015997,2019-08-18 17:27:18:534,-0.6422,0.7075,9.9966,-0.5245,0.3912,9.7848,0.0054,-0.0083,0.0279
80149,47.20144,-1.620582,56.15,21.24,3.216,136.5,14 / 20,8016098,2019-08-18 17:27:18:635,-0.8978,0.6069,10.2965,-0.5152,0.3994,9.785,0.0011,-0.0172,0.0269
80150,47.20144,-1.620582,56.15,21.24,3.216,136.5,14 / 20,8016197,2019-08-18 17:27:18:734,-0.8523,0.5034,9.6309,-0.485,0.4041,9.7863,-0.0207,-0.0186,0.0255
80151,47.20144,-1.620582,56.15,21.24,3.216,136.5,14 / 20,8016297,2019-08-18 17:27:18:834,-1.0456,0.346,9.95,-0.4837,0.3907,9.7869,-0.0206,0.0039,0.0271
80152,47.20144,-1.620582,56.15,21.24,3.216,136.5,14 / 20,8016397,2019-08-18 17:27:18:934,-0.8792,0.2825,9.8943,-0.4996,0.378,9.7866,0.0034,0.0151,0.0315
80153,47.20144,-1.620582,56.15,21.24,3.216,136.5,14 / 20,8016497,2019-08-18 17:27:19:034,-1.2437,0.2065,10.2522,-0.5249,0.3773,9.7853,0.0101,0.0228,0.0323
80154,47.20144,-1.620582,56.15,21.24,3.216,136.5,14 / 20,8016597,2019-08-18 17:27:19:134,-1.3515,0.3998,10.1894,-0.5606,0.3833,9.7831,0.0117,-0.0004,0.0339
80155,47.20144,-1.620582,56.15,21.24,3.216,136.5,14 / 20,8016697,2019-08-18 17:27:19:234,-1.0678,0.4753,10.263,-0.5634,0.3876,9.7828,-0.011,-0.0044,0.0251
80156,47.20144,-1.620582,56.15,21.24,3.216,136.5,14 / 20,8016798,2019-08-18 17:27:19:335,-1.1629,0.2101,10.0092,-0.5827,0.3715,9.7823,-0.0192,0.002,0.0238
80157,47.20144,-1.620582,56.15,21.24,3.216,136.5,14 / 20,8016897,2019-08-18 17:27:19:434,-1.1228,0.1562,9.5639,-0.59,0.3634,9.7821,-0.0017,-0.0094,0.026
80158,47.20144,-1.620582,56.15,21.24,3.216,136.5,14 / 20,8016997,2019-08-18 17:27:19:534,-1.1689,0.0174,9.6938,-0.5944,0.3525,9.7823,-0.0074,-0.0066,0.0241
80159,47.20144,-1.620582,56.15,21.24,3.216,136.5,Oct-17,8017098,2019-08-18 17:27:19:635,-0.9786,0.2047,9.753,-0.5964,0.3451,9.7824,-0.0097,0.006,0.0206
80160,47.20144,-1.620582,56.15,21.24,3.216,136.5,Oct-17,8017198,2019-08-18 17:27:19:735,-0.951,-0.0455,10.2624,-0.6256,0.3317,9.7811,-0.0015,0.0146,0.0224
80161,47.20144,-1.620582,56.15,21.24,3.216,136.5,Oct-17,8017298,2019-08-18 17:27:19:835,-1.1647,-0.0006,9.6974,-0.6298,0.3287,9.7809,0.0092,-0.0187,0.0207
80162,47.20144,-1.620582,56.15,21.24,3.216,136.5,Oct-17,8017398,2019-08-18 17:27:19:935,-1.0336,0.243,9.9781,-0.6195,0.3258,9.7816,-0.01,-0.0062,0.0167
80163,47.20144,-1.620582,56.15,21.24,3.216,136.5,Oct-17,8017497,2019-08-18 17:27:20:034,-0.8146,0.1149,9.7225,-0.6216,0.3214,9.7817,-0.013,0.0091,0.0177
80164,47.20144,-1.620582,56.15,21.24,3.216,136.5,Oct-17,8017597,2019-08-18 17:27:20:134,-0.9223,-0.0383,9.5741,-0.6405,0.3001,9.7811,0.0033,0.0082,0.0194
80165,47.20144,-1.620582,56.15,21.24,3.216,136.5,Oct-17,8017697,2019-08-18 17:27:20:234,-0.6925,0.0862,9.9087,-0.644,0.3025,9.7808,0.0108,0.0013,0.0191
80166,47.20144,-1.620582,56.15,21.24,3.216,136.5,Oct-17,8017797,2019-08-18 17:27:20:334,-0.6033,0.2777,9.6034,-0.6474,0.3112,9.7803,0.0076,-0.0039,0.0185
80167,47.20144,-1.620582,56.15,21.24,3.216,136.5,Oct-17,8017898,2019-08-18 17:27:20:435,-0.5464,0.3388,9.695,-0.6471,0.3151,9.7802,-0.0001,0.0002,0.0168
80168,47.20144,-1.620582,56.15,21.24,3.216,136.5,Oct-17,8017997,2019-08-18 17:27:20:534,-0.8792,0.2065,9.9104,-0.647,0.314,9.7802,-0.0028,0.0069,0.0147
80169,47.20144,-1.620582,56.15,21.24,3.216,136.5,16 / 23,8018097,2019-08-18 17:27:20:634,-0.5817,-0.0221,10.0098,-0.6506,0.3084,9.7802,0.0117,-0.0092,0.0146
80170,47.20144,-1.620582,56.15,21.24,3.216,136.5,16 / 23,8018197,2019-08-18 17:27:20:734,-0.6003,0.3262,10.1116,-0.6441,0.3163,9.7804,-0.0025,-0.0099,0.0117
80171,47.20144,-1.620582,56.15,21.24,3.216,136.5,16 / 23,8018297,2019-08-18 17:27:20:834,-0.5943,0.2101,10.178,-0.6235,0.3108,9.7819,-0.0092,-0.0027,0.0092
80172,47.20144,-1.620582,56.15,21.24,3.216,136.5,16 / 23,8018397,2019-08-18 17:27:20:934,-0.5075,0.3969,9.9122,-0.6243,0.3013,9.7821,0.0009,0.0038,0.009
80173,47.20144,-1.620582,56.15,21.24,3.216,136.5,16 / 23,8018497,2019-08-18 17:27:21:034,-0.6099,-0.0186,9.6992,-0.6212,0.2949,9.7825,-0.007,-0.0007,0.0105
80174,47.20144,-1.620582,56.15,21.24,3.216,136.5,16 / 23,8018597,2019-08-18 17:27:21:134,-0.6165,0.0796,10.0715,-0.6227,0.288,9.7826,-0.0056,-0.0025,0.0092
80175,47.20144,-1.620582,56.15,21.24,3.216,136.5,16 / 23,8018697,2019-08-18 17:27:21:234,-0.7607,0.021,10.1313,-0.6168,0.2769,9.7833,-0.008,0.0147,0.0099
80176,47.20144,-1.620582,56.15,21.24,3.216,136.5,16 / 23,8018797,2019-08-18 17:27:21:334,-0.6428,-0.0581,10.3127,-0.6265,0.2665,9.783,-0.0049,0.0146,0.0104
80177,47.20144,-1.620582,56.15,21.24,3.216,136.5,16 / 23,8018897,2019-08-18 17:27:21:434,-0.8894,-0.0598,9.5813,-0.639,0.2551,9.7825,0.0046,0.0077,0.0102
80178,47.20144,-1.620582,56.15,21.24,3.216,136.5,16 / 23,8018997,2019-08-18 17:27:21:534,-0.6464,0.0467,9.9906,-0.646,0.2535,9.7821,0.0025,-0.0007,0.0095
80179,47.20144,-1.620582,56.15,21.24,3.216,136.5,17 / 23,8019096,2019-08-18 17:27:21:633,-0.7392,-0.1862,9.7889,-0.6476,0.2511,9.782,0.0041,0.008,0.0069
80180,47.20144,-1.620582,56.15,21.24,3.216,136.5,17 / 23,8019197,2019-08-18 17:27:21:734,-0.966,-0.173,9.7189,-0.6517,0.2456,9.7819,-0.01,0.0009,0.0059
80181,47.20144,-1.620582,56.15,21.24,3.216,136.5,17 / 23,8019297,2019-08-18 17:27:21:834,-1.1115,-0.3053,10.0529,-0.6692,0.2261,9.7812,-0.0032,0.0064,0.0075
80182,47.20144,-1.620582,56.15,21.24,3.216,136.5,17 / 23,8019397,2019-08-18 17:27:21:934,-0.7733,-0.2304,9.4789,-0.6729,0.218,9.7811,0.0021,-0.0118,0.0073
80183,47.20144,-1.620582,56.15,21.24,3.216,136.5,17 / 23,8019497,2019-08-18 17:27:22:034,-0.738,-0.2245,9.5238,-0.6666,0.2054,9.7818,-0.0104,-0.0047,0.0033
80184,47.20144,-1.620582,56.15,21.24,3.216,136.5,17 / 23,8019597,2019-08-18 17:27:22:134,-0.9325,-0.4465,9.85,-0.6671,0.1928,9.782,0.0006,0.0084,0.0015
80185,47.20144,-1.620582,56.15,21.24,3.216,136.5,17 / 23,8019698,2019-08-18 17:27:22:235,-0.8241,-0.3861,10.1906,-0.6855,0.1774,9.7811,0.0008,0.0025,0.0005
80186,47.20144,-1.620582,56.15,21.24,3.216,136.5,17 / 23,8019797,2019-08-18 17:27:22:334,-0.708,-0.3849,9.9679,-0.6883,0.1666,9.781,-0.0002,-0.0044,-0.0003
80187,47.20144,-1.620582,56.15,21.24,3.216,136.5,17 / 23,8019898,2019-08-18 17:27:22:435,-0.8451,-0.5423,9.7387,-0.6813,0.1572,9.7817,0.0041,-0.0165,-0.0034
80188,47.20144,-1.620582,56.15,21.24,3.216,136.5,17 / 23,8019997,2019-08-18 17:27:22:534,-1.039,-0.5908,9.4807,-0.6759,0.1425,9.7823,-0.0078,0.0166,-0.0062
80189,47.20144,-1.620582,56.15,21.24,3.216,136.5,17 / 23,8020097,2019-08-18 17:27:22:634,-0.8499,-0.3968,9.6219,-0.702,0.1173,9.7808,-0.0066,0.0149,-0.0058
80190,47.200264,-1.618585,59.49,22.42,3.216,126.6,17 / 23,8020197,2019-08-18 17:27:22:734,-1.0755,-0.6261,10.3731,-0.7059,0.1002,9.7807,-0.0033,0.0,-0.0054
80191,47.200264,-1.618585,59.49,22.42,3.216,126.6,17 / 23,8020297,2019-08-18 17:27:22:834,-0.5063,-0.48,9.4274,-0.6904,0.0751,9.782,-0.0042,-0.0213,-0.0068
80192,47.200264,-1.618585,59.49,22.42,3.216,126.6,17 / 23,8020397,2019-08-18 17:27:22:934,-1.042,-0.5716,9.6668,-0.6927,0.0629,9.782,-0.0051,0.0027,-0.0091
80193,47.200264,-1.618585,59.49,22.42,3.216,126.6,17 / 23,8020497,2019-08-18 17:27:23:034,-0.8349,-0.4561,10.4617,-0.6987,0.0368,9.7817,0.002,0.0024,-0.0045
80194,47.200264,-1.618585,59.49,22.42,3.216,126.6,17 / 23,8020597,2019-08-18 17:27:23:134,-0.8217,-0.6135,9.4208,-0.7018,0.0288,9.7815,0.0048,0.0034,-0.0061
80195,47.200264,-1.618585,59.49,22.42,3.216,126.6,17 / 23,8020697,2019-08-18 17:27:23:234,-0.7523,-0.3687,9.8111,-0.7109,0.0162,9.7808,0.0033,0.0021,-0.0067
80196,47.200264,-1.618585,59.49,22.42,3.216,126.6,17 / 23,8020797,2019-08-18 17:27:23:334,-0.9289,-0.3214,9.8416,-0.7091,0.0087,9.781,0.0025,0.0091,-0.0057
80197,47.200264,-1.618585,59.49,22.42,3.216,126.6,17 / 23,8020897,2019-08-18 17:27:23:434,-0.7811,-0.3962,10.1158,-0.7231,-0.0062,9.78,0.0058,-0.0031,-0.0067
80198,47.200264,-1.618585,59.49,22.42,3.216,126.6,17 / 23,8020997,2019-08-18 17:27:23:534,-0.7469,-0.4495,9.8398,-0.7198,-0.0097,9.7802,0.0085,-0.0138,-0.007
80199,47.200264,-1.618585,59.49,22.42,3.216,126.6,15 / 21,8021098,2019-08-18 17:27:23:635,-0.7547,-0.1209,10.0667,-0.7068,-0.0186,9.7811,-0.0098,-0.006,-0.0105
80200,47.200264,-1.618585,59.49,22.42,3.216,126.6,15 / 21,8021197,2019-08-18 17:27:23:734,-0.9277,-0.5417,8.9689,-0.7056,-0.0363,9.7812,-0.0117,0.0,-0.0094
80201,47.200264,-1.618585,59.49,22.42,3.216,126.6,15 / 21,8021297,2019-08-18 17:27:23:834,-0.872,-0.6458,9.4406,-0.7035,-0.05,9.7813,0.0049,-0.0037,-0.0107
80202,47.200264,-1.618585,59.49,22.42,3.216,126.6,15 / 21,8021397,2019-08-18 17:27:23:934,-0.535,-0.4699,10.0302,-0.6888,-0.0655,9.7822,0.0004,-0.0213,-0.0103
80203,47.200264,-1.618585,59.49,22.42,3.216,126.6,15 / 21,8021497,2019-08-18 17:27:24:034,-0.31,-0.4771,9.5346,-0.6719,-0.0728,9.7833,-0.0051,-0.021,-0.0111
80204,47.200264,-1.618585,59.49,22.42,3.216,126.6,15 / 21,8021597,2019-08-18 17:27:24:134,-0.6009,-0.5483,8.5853,-0.6413,-0.0999,9.7852,-0.0174,0.0048,-0.0117
80205,47.200264,-1.618585,59.49,22.42,3.216,126.6,15 / 21,8021697,2019-08-18 17:27:24:234,-0.5129,-0.6009,8.5679,-0.6489,-0.1167,9.7845,-0.0182,0.0159,-0.0091
80206,47.200264,-1.618585,59.49,22.42,3.216,126.6,15 / 21,8021797,2019-08-18 17:27:24:334,-0.7751,-0.5932,9.5926,-0.6837,-0.1528,9.7816,-0.0068,0.0286,-0.0098
80207,47.200264,-1.618585,59.49,22.42,3.216,126.6,15 / 21,8021897,2019-08-18 17:27:24:434,-0.9456,-0.7254,10.5569,-0.6927,-0.1632,9.7808,0.0145,-0.0168,-0.0123
