,GPS LATITUDE (degrees), GPS LONGITUDE (degrees), GPS ALTITUDE (m), GPS SPEED (Kmh), GPS ACCURACY (m), GPS ORIENTATION (Â°),GPS SATELLITES IN RANGE, TIME SINCE START (ms), DATE (YYYY-MO-DD HH-MI-SS_SSS), ACCELEROMETER X (m/s²) , ACCELEROMETER Y (m/s²), ACCELEROMETER Z (m/s²), GRAVITY X (m/s²), GRAVITY Y (m/s²), GRAVITY Z (m/s²), GYROSCOPE Yaw (rad/s), GYROSCOPE Pitch (rad/s), GYROSCOPE Roll (rad/s), MAGNETIC FIELD X (Î¼T), MAGNETIC FIELD Y (Î¼T), MAGNETIC FIELD Z (Î¼T), ORIENTATION (Yaw) (Â°), ORIENTATION (Pitch) (Â°), ORIENTATION (Roll ) (Â°)
12613,52.408318,-1.581002,183.47,4.38,3,40.32,28 / 30,1264222,2019-09-08 10:28:50:846,1.4203,0.1432,10.4457,-0.0135,0.0098,9.8066,0.0692,0.0775,-0.0502,-31.06,-24.06,30.75,314.12,-85.3,-178.94
12614,52.408318,-1.581002,183.47,4.38,3,40.32,28 / 30,1264322,2019-09-08 10:28:50:946,0.9285,-0.9505,9.9752,0.0205,-0.0165,9.8065,-0.1358,0.0191,-0.0296,-30.81,-24.5,30.56,313.37,-85.11,-179.57
12615,52.408318,-1.581002,183.47,4.38,3,40.32,28 / 30,1264421,2019-09-08 10:28:51:045,0.3155,-0.9999,9.7628,0.0242,-0.0193,9.8065,-0.1362,0.0181,-0.0304,-31.31,-24.19,30.44,311.98,-85.07,-179.93
12616,52.408318,-1.581002,183.47,4.38,3,40.32,28 / 30,1264521,2019-09-08 10:28:51:145,1.1403,-0.6443,9.3227,0.0203,0.0084,9.8066,-0.0027,0.0046,0.0508,-31.44,-24.12,29.88,310.25,-85.07,178.39
12617,52.408318,-1.581002,183.47,4.38,3,40.32,28 / 30,1264622,2019-09-08 10:28:51:246,1.0712,-0.1879,10.0106,0.0098,-0.0031,9.8066,-0.033,0.0681,0.0083,-32.12,-23.25,29.69,307.36,-84.96,176.42
12618,52.408318,-1.581002,183.47,4.38,3,40.32,28 / 30,1264721,2019-09-08 10:28:51:345,0.4205,-0.4468,9.7055,-0.016,0.0231,9.8066,0.0763,0.0242,-0.002,-32.69,-23.87,29.94,305.47,-84.95,175.52
12619,52.408318,-1.581002,183.47,4.38,3,40.32,28 / 29,1264821,2019-09-08 10:28:51:445,0.8864,-0.7766,10.1177,-0.0065,0.0117,9.8066,0.0576,0.0088,-0.0156,-31.94,-22.87,29.56,305.04,-85.06,174.11
12620,52.40827,-1.580377,183.93,7.1,3,120.81,28 / 29,1264922,2019-09-08 10:28:51:546,0.5349,-0.3663,10.3645,0.0156,0.0129,9.8066,0.0316,0.0508,-0.0428,-32.12,-23.25,30.88,305.51,-84.96,173.64
12621,52.40827,-1.580377,183.93,7.1,3,120.81,28 / 29,1265022,2019-09-08 10:28:51:646,1.0328,-0.7318,9.7044,0.0117,-0.0137,9.8066,-0.0047,0.0169,-0.0068,-31.44,-22.75,31.06,304.98,-84.8,172.33
12622,52.40827,-1.580377,183.93,7.1,3,120.81,28 / 29,1265121,2019-09-08 10:28:51:745,1.5568,-0.9041,9.7797,-0.002,-0.0108,9.8066,0.029,0.0128,-0.037,-30.94,-22.69,30.94,305.37,-84.7,172.75
12623,52.40827,-1.580377,183.93,7.1,3,120.81,28 / 29,1265222,2019-09-08 10:28:51:846,0.6746,-0.8977,10.1369,-0.0052,-0.0088,9.8065,0.0407,-0.0117,-0.0141,-31.12,-23.37,31.13,307.14,-84.6,174.52
12624,52.40827,-1.580377,183.93,7.1,3,120.81,28 / 29,1265322,2019-09-08 10:28:51:946,2.0843,-0.7571,9.8036,0.0154,-0.0074,9.8066,-0.0826,-0.0261,0.0383,-31.0,-22.87,30.63,307.25,-84.48,174.69
12625,52.40827,-1.580377,183.93,7.1,3,120.81,28 / 29,1265421,2019-09-08 10:28:52:045,1.0404,-0.5289,9.8018,-0.0037,0.0031,9.8066,-0.0506,0.0167,0.0027,-31.75,-23.37,31.06,306.31,-84.52,174.63
12626,52.40827,-1.580377,183.93,7.1,3,120.81,28 / 29,1265521,2019-09-08 10:28:52:145,0.703,-1.509,9.9806,0.001,-0.0267,9.8065,-0.0134,0.0526,-0.0197,-31.0,-23.12,30.19,306.95,-84.57,175.34
12627,52.40827,-1.580377,183.93,7.1,3,120.81,28 / 29,1265622,2019-09-08 10:28:52:246,1.7175,-0.5393,10.0275,0.0179,-0.023,9.8066,-0.0413,-0.0208,0.0286,-31.62,-24.19,30.44,307.64,-84.42,177.04
12628,52.40827,-1.580377,183.93,7.1,3,120.81,28 / 29,1265721,2019-09-08 10:28:52:345,0.6626,0.0483,9.6491,-0.0195,0.0131,9.8066,0.0771,0.0324,-0.0523,-31.44,-24.31,29.88,309.58,-84.37,178.07
12629,52.40827,-1.580377,183.93,7.1,3,120.81,28 / 29,1265821,2019-09-08 10:28:52:445,0.4055,-0.343,9.6333,-0.0028,0.0162,9.8065,0.0299,-0.0228,0.0157,-31.5,-23.87,29.94,308.99,-84.43,177.47
12630,52.40827,-1.580377,183.93,7.1,3,120.81,29 / 30,1265922,2019-09-08 10:28:52:546,1.0067,-0.565,9.8373,0.0075,-0.0076,9.8066,-0.0187,0.0024,0.041,-31.5,-24.44,30.31,309.22,-84.3,177.76
12631,52.40827,-1.580377,183.93,7.1,3,120.81,29 / 30,1266021,2019-09-08 10:28:52:645,1.0588,-0.2803,10.0721,0.004,-0.0061,9.8066,-0.0224,0.0327,0.0049,-31.62,-23.81,30.31,308.42,-84.33,177.84
12632,52.40827,-1.580377,183.93,7.1,3,120.81,29 / 30,1266121,2019-09-08 10:28:52:745,0.6129,-0.0464,9.668,-0.0076,0.0098,9.8066,0.0012,0.0128,0.065,-31.44,-24.94,29.94,309.05,-84.4,177.65
12633,52.40827,-1.580377,183.93,7.1,3,120.81,29 / 30,1266222,2019-09-08 10:28:52:846,-0.1079,-0.0202,9.7644,-0.008,0.0076,9.8066,-0.0175,0.0278,0.035,-31.37,-24.5,29.44,308.25,-84.5,177.74
12634,52.40827,-1.580377,183.93,7.1,3,120.81,29 / 30,1266322,2019-09-08 10:28:52:946,-0.1784,0.4328,10.3483,0.0232,-0.0222,9.8065,-0.0731,0.0021,0.0439,-31.44,-24.75,29.63,309.02,-84.51,177.56
12635,52.40827,-1.580377,183.93,7.1,3,120.81,29 / 30,1266421,2019-09-08 10:28:53:045,0.4515,0.4926,9.9039,0.0326,-0.027,9.8065,-0.1225,0.0684,-0.0197,-31.12,-25.06,29.44,307.82,-84.26,177.54
12636,52.40827,-1.580377,183.93,7.1,3,120.81,29 / 30,1266521,2019-09-08 10:28:53:145,-0.0437,0.5495,9.7527,-0.0153,0.0082,9.8066,0.1105,0.0173,0.0205,-31.31,-24.31,29.63,308.39,-84.38,176.92
12637,52.40827,-1.580377,183.93,7.1,3,120.81,29 / 30,1266622,2019-09-08 10:28:53:246,0.2337,0.1813,9.9085,-0.0089,0.0044,9.8066,0.0766,0.013,-0.0054,-31.81,-24.87,29.5,307.69,-84.32,177.24
12638,52.40827,-1.580377,183.93,7.1,3,120.81,29 / 30,1266722,2019-09-08 10:28:53:346,0.7214,0.0062,9.7836,0.0085,0.0,9.8065,-0.0133,0.0325,-0.0072,-31.56,-23.75,29.44,306.01,-84.28,176.54
12639,52.40827,-1.580377,183.93,7.1,3,120.81,29 / 30,1266821,2019-09-08 10:28:53:445,0.1225,0.1985,10.0545,0.003,-0.0066,9.8066,-0.0301,0.0466,-0.0166,-32.12,-23.87,29.63,307.01,-84.23,176.52
12640,52.40827,-1.580377,183.93,7.1,3,120.81,29 / 30,1266922,2019-09-08 10:28:53:546,0.6694,0.3131,9.8289,0.006,0.0036,9.8066,-0.0095,0.0674,-0.0124,-31.62,-24.12,29.13,305.6,-84.22,176.17
12641,52.40827,-1.580377,183.93,7.1,3,120.81,29 / 30,1267022,2019-09-08 10:28:53:646,0.08,0.4087,9.7728,-0.0046,0.0097,9.8065,0.1113,0.1049,0.0348,-31.37,-24.37,29.81,307.06,-84.2,175.72
12642,52.40827,-1.580377,183.93,7.1,3,120.81,29 / 30,1267122,2019-09-08 10:28:53:746,0.9302,-0.4692,9.8979,0.0195,-0.0222,9.8065,0.1358,0.0697,0.0444,-31.56,-24.0,29.44,306.4,-84.02,177.04
12643,52.40827,-1.580377,183.93,7.1,3,120.81,29 / 30,1267221,2019-09-08 10:28:53:845,0.0802,0.1358,10.0847,0.0156,-0.0188,9.8065,-0.0674,0.0748,0.0402,-31.56,-24.31,29.44,306.57,-84.03,177.2
12644,52.40827,-1.580377,183.93,7.1,3,120.81,29 / 30,1267321,2019-09-08 10:28:53:945,-0.3318,1.4332,10.0486,-0.0227,0.0137,9.8066,-0.0914,0.0721,0.0053,-31.56,-24.44,28.81,306.69,-84.03,177.32
12645,52.40827,-1.580377,183.93,7.1,3,120.81,29 / 30,1267422,2019-09-08 10:28:54:046,0.5561,0.9288,9.6311,-0.016,0.0107,9.8065,0.0234,0.065,0.0272,-31.81,-24.44,28.56,307.03,-84.26,177.54
12646,52.40827,-1.580377,183.93,7.1,3,120.81,29 / 30,1267522,2019-09-08 10:28:54:146,0.0928,0.5532,9.7092,-0.0036,-0.0048,9.8066,0.0276,0.0736,-0.0375,-32.0,-24.62,27.88,307.42,-84.27,179.05
12647,52.40827,-1.580377,183.93,7.1,3,120.81,29 / 30,1267621,2019-09-08 10:28:54:245,0.4555,0.5263,9.9354,-0.0057,-0.0038,9.8066,0.0427,0.066,0.0244,-31.87,-24.5,27.94,308.5,-84.28,179.98
12648,52.40827,-1.580377,183.93,7.1,3,120.81,29 / 30,1267722,2019-09-08 10:28:54:346,0.8358,0.9053,9.8226,-0.0031,-0.0095,9.8066,-0.0003,0.1149,0.0009,-33.31,-24.81,27.5,309.38,-84.24,-178.22
12649,52.40827,-1.580377,183.93,7.1,3,120.81,27 / 29,1267823,2019-09-08 10:28:54:447,0.3873,1.0299,9.7195,-0.0127,-0.011,9.8066,0.0144,0.1004,0.0453,-33.0,-24.81,27.38,310.41,-84.3,-176.19
12650,52.40827,-1.580377,183.93,7.1,3,120.81,27 / 29,1267921,2019-09-08 10:28:54:545,0.2622,0.7004,9.8028,-0.0032,-0.0031,9.8066,0.0128,0.1177,0.0071,-33.31,-24.37,28.06,312.88,-84.27,-174.96
12651,52.40827,-1.580377,183.93,7.1,3,120.81,27 / 29,1268022,2019-09-08 10:28:54:646,0.8811,0.517,9.8306,-0.0089,0.0006,9.8066,0.05,0.1104,0.0217,-33.5,-24.87,27.06,312.85,-84.31,-173.85
12652,52.40827,-1.580377,183.93,7.1,3,120.81,27 / 29,1268122,2019-09-08 10:28:54:746,-0.2399,0.667,10.0482,0.0019,-0.0248,9.8066,0.0889,0.0989,0.0443,-33.75,-24.75,27.31,313.95,-84.29,-171.99
12653,52.40827,-1.580377,183.93,7.1,3,120.81,27 / 29,1268221,2019-09-08 10:28:54:845,-0.092,0.2044,9.7616,0.0065,-0.0257,9.8065,-0.0565,0.1119,0.0073,-33.19,-24.81,26.81,317.23,-84.09,-169.55
12654,52.40827,-1.580377,183.93,7.1,3,120.81,27 / 29,1268322,2019-09-08 10:28:54:946,0.3707,0.6201,9.2536,-0.0283,0.017,9.8065,-0.0584,0.1056,0.0264,-34.0,-24.37,26.69,318.12,-84.22,-168.06
12655,52.40827,-1.580377,183.93,7.1,3,120.81,27 / 29,1268422,2019-09-08 10:28:55:046,0.7282,0.8559,9.9626,-0.0286,0.0085,9.8065,0.0072,0.1122,0.0039,-34.0,-24.75,27.0,318.84,-84.14,-167.24
12656,52.40827,-1.580377,183.93,7.1,3,120.81,27 / 29,1268522,2019-09-08 10:28:55:146,1.5677,0.5345,9.6423,0.0084,-0.011,9.8066,0.0416,0.1804,-0.0123,-33.69,-24.37,26.25,318.37,-84.06,-166.67
12657,52.40827,-1.580377,183.93,7.1,3,120.81,27 / 29,1268622,2019-09-08 10:28:55:246,1.3959,0.0749,9.4398,0.0068,-0.0094,9.8066,-0.0454,0.0887,0.034,-34.37,-24.69,26.88,320.38,-84.01,-165.72
12658,52.40827,-1.580377,183.93,7.1,3,120.81,27 / 29,1268722,2019-09-08 10:28:55:346,-0.1291,0.0534,10.2327,-0.0192,0.0013,9.8066,-0.0248,0.0917,0.0302,-34.12,-24.69,25.69,319.88,-83.89,-165.07
12659,52.40827,-1.580377,183.93,7.1,3,120.81,27 / 29,1268822,2019-09-08 10:28:55:446,0.1571,0.5179,10.0174,-0.0042,0.0097,9.8066,0.0545,0.0937,0.0026,-34.69,-24.12,26.38,319.71,-83.95,-164.58
12660,52.40827,-1.580377,183.93,7.1,3,120.81,28 / 29,1268921,2019-09-08 10:28:55:545,0.8722,-0.2372,9.8956,0.006,-0.0035,9.8065,0.0089,0.078,-0.0094,-34.56,-24.75,25.94,319.77,-83.93,-164.43
12661,52.40827,-1.580377,183.93,7.1,3,120.81,28 / 29,1269021,2019-09-08 10:28:55:645,0.5712,0.3805,9.5636,0.0086,-0.0006,9.8065,-0.0162,0.0849,-0.0251,-34.75,-24.5,25.69,319.04,-83.87,-165.19
12662,52.40827,-1.580377,183.93,7.1,3,120.81,28 / 29,1269121,2019-09-08 10:28:55:745,1.0376,0.4116,9.7544,-0.0002,-0.0028,9.8066,-0.0041,0.0889,0.0123,-35.12,-25.0,25.88,319.25,-83.9,-164.92
12663,52.40827,-1.580377,183.93,7.1,3,120.81,28 / 29,1269221,2019-09-08 10:28:55:845,1.0442,-0.0795,9.9304,0.0047,-0.0032,9.8066,0.0146,0.091,-0.0297,-35.37,-24.31,25.44,318.37,-83.84,-164.72
12664,52.40827,-1.580377,183.93,7.1,3,120.81,28 / 29,1269322,2019-09-08 10:28:55:946,1.1507,0.687,9.8798,-0.0031,-0.0005,9.8066,0.0079,0.1271,-0.0209,-34.81,-24.37,25.38,317.74,-83.83,-165.31
12665,52.40827,-1.580377,183.93,7.1,3,120.81,28 / 29,1269422,2019-09-08 10:28:56:046,0.7247,-0.1683,9.72,-0.0063,0.0036,9.8066,0.0166,0.0901,0.0088,-35.37,-24.37,24.75,318.33,-83.77,-164.72
12666,52.40827,-1.580377,183.93,7.1,3,120.81,28 / 29,1269522,2019-09-08 10:28:56:146,1.0602,0.7387,10.1001,0.0089,-0.0029,9.8066,-0.0142,0.1331,-0.0311,-35.56,-24.0,25.69,318.16,-83.7,-165.23
12667,52.40827,-1.580377,183.93,7.1,3,120.81,28 / 29,1269622,2019-09-08 10:28:56:246,1.0649,0.7394,10.0438,-0.0021,0.004,9.8066,0.1039,0.0917,-0.0078,-35.06,-24.56,24.69,317.07,-83.65,-165.77
12668,52.40827,-1.580377,183.93,7.1,3,120.81,28 / 29,1269722,2019-09-08 10:28:56:346,1.6052,0.0436,9.9921,0.0078,-0.0051,9.8066,0.0175,0.0895,-0.0055,-35.25,-24.12,24.31,315.93,-83.64,-165.82
12669,52.40827,-1.580377,183.93,7.1,3,120.81,26 / 29,1269821,2019-09-08 10:28:56:445,1.3121,0.7108,9.6546,-0.0024,-0.0116,9.8066,-0.0144,0.1378,0.037,-36.06,-24.94,24.69,316.87,-83.62,-165.24
12670,52.40827,-1.580377,183.93,7.1,3,120.81,26 / 29,1269921,2019-09-08 10:28:56:545,2.0294,0.8754,9.2837,-0.0125,0.0133,9.8066,-0.0389,0.1853,-0.0175,-36.0,-24.81,23.75,317.2,-83.78,-163.88
12671,52.40827,-1.580377,183.93,7.1,3,120.81,26 / 29,1270021,2019-09-08 10:28:56:645,0.8694,0.445,9.9154,-0.0197,0.0024,9.8066,0.0216,0.1345,-0.0216,-35.75,-24.44,23.75,318.73,-83.85,-162.55
12672,52.40827,-1.580377,183.93,7.1,3,120.81,26 / 29,1270121,2019-09-08 10:28:56:745,1.1022,1.2015,9.9732,0.0022,-0.0037,9.8066,0.0704,0.1648,0.0094,-36.12,-24.5,22.88,318.28,-83.87,-161.83
12673,52.40827,-1.580377,183.93,7.1,3,120.81,26 / 29,1270222,2019-09-08 10:28:56:846,1.3339,0.4893,9.7804,0.0056,0.0023,9.8066,-0.0834,0.1731,-0.0341,-36.56,-24.37,22.44,316.3,-83.77,-161.86
12674,52.40827,-1.580377,183.93,7.1,3,120.81,26 / 29,1270321,2019-09-08 10:28:56:945,1.2191,1.6508,10.2153,-0.0018,0.0146,9.8066,0.0035,0.1674,-0.0224,-36.56,-24.87,22.44,315.71,-83.72,-162.3
12675,52.40827,-1.580377,183.93,7.1,3,120.81,26 / 29,1270421,2019-09-08 10:28:57:045,1.543,1.8153,9.6125,0.0068,-0.0061,9.8065,0.0151,0.1887,-0.0107,-36.69,-23.5,22.06,314.46,-83.67,-163.68
12676,52.40827,-1.580377,183.93,7.1,3,120.81,26 / 29,1270521,2019-09-08 10:28:57:145,0.7128,0.0736,9.538,-0.0102,0.0026,9.8065,-0.0619,0.1632,-0.0088,-36.75,-24.62,22.25,313.65,-83.62,-164.23
12677,52.40827,-1.580377,183.93,7.1,3,120.81,26 / 29,1270621,2019-09-08 10:28:57:245,1.2293,1.3845,9.6964,0.0031,0.0245,9.8065,0.0943,0.2127,-0.0536,-36.19,-23.94,21.69,312.61,-83.63,-165.97
12678,52.40827,-1.580377,183.93,7.1,3,120.81,26 / 29,1270721,2019-09-08 10:28:57:345,0.4826,1.3577,10.4792,-0.0017,0.0043,9.8066,0.0316,0.1831,-0.0184,-36.56,-24.06,21.06,310.52,-83.62,-166.14
12679,52.40827,-1.580377,183.93,7.1,3,120.81,26 / 29,1270822,2019-09-08 10:28:57:446,1.5334,1.2805,10.2529,-0.0013,0.0079,9.8066,-0.0566,0.1495,0.0331,-36.87,-23.69,21.19,309.61,-83.64,-167.02
12680,52.40827,-1.580377,183.93,7.1,3,120.81,28 / 29,1270922,2019-09-08 10:28:57:546,1.6421,0.849,9.1825,-0.0098,0.0057,9.8066,-0.1553,0.1575,0.0238,-36.75,-24.0,20.94,309.14,-83.6,-167.45
12681,52.40827,-1.580377,183.93,7.1,3,120.81,28 / 29,1271022,2019-09-08 10:28:57:646,1.1107,0.5327,10.0931,-0.0388,0.0259,9.8065,0.1525,0.1889,-0.014,-36.31,-23.75,20.94,309.25,-83.59,-167.96
12682,52.40827,-1.580377,183.93,7.1,3,120.81,28 / 29,1271122,2019-09-08 10:28:57:746,1.6208,0.1729,10.2085,0.0387,-0.0309,9.8065,0.0624,0.1151,0.0464,-35.87,-24.5,20.38,307.52,-83.48,-168.34
12683,52.40827,-1.580377,183.93,7.1,3,120.81,28 / 29,1271222,2019-09-08 10:28:57:846,0.1621,1.0737,10.1488,0.0221,-0.0191,9.8066,0.0985,0.125,0.0263,-36.87,-25.31,19.31,306.08,-83.4,-167.7
12684,52.40827,-1.580377,183.93,7.1,3,120.81,28 / 29,1271321,2019-09-08 10:28:57:945,0.994,0.1161,10.0377,0.0128,-0.0039,9.8066,0.138,0.1568,-0.0393,-36.06,-24.44,19.69,307.92,-83.34,-167.88
12685,52.40827,-1.580377,183.93,7.1,3,120.81,28 / 29,1271421,2019-09-08 10:28:58:045,0.6218,0.9335,9.9978,0.0239,-0.0149,9.8065,-0.0825,0.1888,-0.0189,-36.75,-25.12,18.69,305.64,-83.26,-168.04
12686,52.40827,-1.580377,183.93,7.1,3,120.81,28 / 29,1271521,2019-09-08 10:28:58:145,0.4917,0.5485,9.8749,-0.0213,0.015,9.8066,-0.0764,0.1838,-0.0349,-36.25,-25.12,18.0,304.18,-83.48,-168.85
12687,52.40827,-1.580377,183.93,7.1,3,120.81,28 / 29,1271621,2019-09-08 10:28:58:245,0.3156,0.4568,10.0163,-0.0082,0.0185,9.8066,0.0133,0.231,-0.101,-36.19,-25.62,18.25,303.12,-83.5,-169.74
12688,52.40827,-1.580377,183.93,7.1,3,120.81,28 / 29,1271721,2019-09-08 10:28:58:345,1.0996,0.4863,9.638,0.0127,-0.0003,9.8066,-0.005,0.1629,-0.008,-36.25,-25.06,18.06,301.62,-83.52,-171.34
12689,52.40827,-1.580377,183.93,7.1,3,120.81,27 / 28,1271821,2019-09-08 10:28:58:445,-0.2672,0.6882,10.1793,0.0052,0.0081,9.8066,0.0572,0.1615,-0.061,-36.87,-25.62,18.06,299.76,-83.47,-172.43
12690,52.40827,-1.580377,183.93,7.1,3,120.81,27 / 28,1271922,2019-09-08 10:28:58:546,0.6609,0.6958,9.9213,0.0167,0.0089,9.8065,0.019,0.1684,-0.041,-35.87,-25.56,18.38,298.23,-83.48,-174.46
12691,52.40827,-1.580377,183.93,7.1,3,120.81,27 / 28,1272022,2019-09-08 10:28:58:646,1.7533,1.2741,9.3543,0.0195,0.0022,9.8066,-0.0724,0.1825,-0.0739,-35.75,-25.31,17.0,295.06,-83.34,-176.27
12692,52.40827,-1.580377,183.93,7.1,3,120.81,27 / 28,1272121,2019-09-08 10:28:58:745,0.7638,1.5123,9.4493,-0.016,0.0187,9.8066,-0.0379,0.2028,-0.0461,-35.31,-25.19,16.38,292.63,-83.42,-177.84
12693,52.40827,-1.580377,183.93,7.1,3,120.81,27 / 28,1272221,2019-09-08 10:28:58:845,1.0581,2.0312,9.5893,0.0023,0.0026,9.8066,0.078,0.2149,-0.007,-35.56,-25.44,16.56,293.01,-83.32,-178.25
12694,52.40827,-1.580377,183.93,7.1,3,120.81,27 / 28,1272321,2019-09-08 10:28:58:945,0.4511,1.8824,9.9491,0.0249,-0.0078,9.8066,0.0705,0.2219,-0.0062,-36.12,-24.87,15.56,292.22,-83.33,-177.67
12695,52.40827,-1.580377,183.93,7.1,3,120.81,27 / 28,1272421,2019-09-08 10:28:59:045,0.2976,1.4866,9.6531,0.0122,-0.0082,9.8066,0.0951,0.2234,0.0185,-35.56,-25.62,14.69,291.48,-83.08,-176.69
12696,52.40827,-1.580377,183.93,7.1,3,120.81,27 / 28,1272521,2019-09-08 10:28:59:145,0.6138,1.9466,9.6261,0.0101,-0.0092,9.8066,0.0848,0.2466,0.0029,-35.5,-25.19,14.44,290.73,-82.89,-176.49
12697,52.40827,-1.580377,183.93,7.1,3,120.81,27 / 28,1272622,2019-09-08 10:28:59:246,-0.4766,0.6455,10.1717,0.0134,-0.0126,9.8066,0.0929,0.1852,0.0201,-35.75,-25.25,14.31,291.67,-82.66,-174.98
12698,52.40827,-1.580377,183.93,7.1,3,120.81,27 / 28,1272721,2019-09-08 10:28:59:345,-0.368,0.7385,10.0313,0.0001,-0.0096,9.8066,0.0322,0.227,-0.0058,-36.06,-26.25,14.13,291.77,-82.69,-174.73
12699,52.40827,-1.580377,183.93,7.1,3,120.81,27 / 28,1272821,2019-09-08 10:28:59:445,-0.1357,0.2786,10.921,0.016,-0.0133,9.8066,-0.0707,0.2369,-0.0775,-35.44,-25.94,14.0,292.91,-82.6,-173.99
12700,52.40827,-1.580377,183.93,7.1,3,120.81,25 / 27,1272922,2019-09-08 10:28:59:546,-0.2774,1.0457,9.5481,-0.0278,0.011,9.8065,-0.214,0.1798,-0.0343,-35.94,-25.5,13.75,292.94,-82.47,-173.62
12701,52.40827,-1.580377,183.93,7.1,3,120.81,25 / 27,1273021,2019-09-08 10:28:59:645,0.6639,1.3099,9.4415,-0.0094,-0.0019,9.8066,0.0255,0.1642,-0.046,-35.44,-25.31,13.63,292.94,-82.43,-174.03
12702,52.40827,-1.580377,183.93,7.1,3,120.81,25 / 27,1273122,2019-09-08 10:28:59:746,0.9207,0.8261,9.943,-0.0026,0.0103,9.8066,-0.0789,0.1765,-0.0465,-35.87,-26.06,12.69,290.7,-82.39,-174.12
12703,52.40827,-1.580377,183.93,7.1,3,120.81,25 / 27,1273222,2019-09-08 10:28:59:846,0.2977,0.396,9.5689,0.0036,-0.0016,9.8066,0.0415,0.1687,-0.0279,-35.06,-25.94,12.88,290.42,-82.39,-174.79
12704,52.40827,-1.580377,183.93,7.1,3,120.81,25 / 27,1273321,2019-09-08 10:28:59:945,0.5947,1.3109,10.2373,0.0193,0.0089,9.8065,0.1106,0.1908,-0.0317,-35.56,-25.87,12.0,287.39,-82.38,-175.89
12705,52.40827,-1.580377,183.93,7.1,3,120.81,25 / 27,1273422,2019-09-08 10:29:00:046,1.3314,0.6146,9.6896,0.0264,-0.0073,9.8066,0.0086,0.2055,0.0002,-34.56,-26.06,12.19,287.4,-82.35,-176.21
12706,52.40827,-1.580377,183.93,7.1,3,120.81,25 / 27,1273522,2019-09-08 10:29:00:146,-0.0472,1.5778,10.3263,-0.0107,0.0091,9.8066,0.0128,0.1861,0.0159,-35.06,-26.44,11.06,285.83,-82.28,-176.18
12707,52.40827,-1.580377,183.93,7.1,3,120.81,25 / 27,1273622,2019-09-08 10:29:00:246,1.0082,0.5049,9.708,0.0056,-0.0036,9.8066,-0.1053,0.2191,0.0203,-34.44,-25.81,10.75,285.85,-82.25,-176.48
12708,52.40827,-1.580377,183.93,7.1,3,120.81,25 / 27,1273721,2019-09-08 10:29:00:345,0.0448,2.1113,8.995,-0.0458,0.0209,9.8065,-0.1269,0.1738,-0.0256,-34.69,-26.56,10.81,286.04,-82.17,-175.69
12709,52.40827,-1.580377,183.93,7.1,3,120.81,25 / 27,1273821,2019-09-08 10:29:00:445,0.4894,-5.2958,11.58,-0.1038,0.028,9.806,0.1468,-0.0558,0.2157,-34.94,-26.0,10.5,286.09,-82.68,-176.21
12710,52.40816,-1.579372,184.63,8.71,4,59.54,26 / 29,1273922,2019-09-08 10:29:00:546,0.3737,2.752,10.5218,0.0921,-0.0239,9.8062,-0.4768,0.1418,-0.0646,-34.69,-26.06,10.19,285.26,-82.46,-175.33
12711,52.40816,-1.579372,184.63,8.71,4,59.54,26 / 29,1274021,2019-09-08 10:29:00:645,-1.5247,1.7847,9.8846,0.0997,0.0099,9.8061,-0.3406,0.192,-0.0497,-34.25,-26.62,9.69,283.63,-81.94,-176.61
12712,52.40816,-1.579372,184.63,8.71,4,59.54,26 / 29,1274122,2019-09-08 10:29:00:746,-0.0755,-2.1427,10.8659,-0.0016,-0.0344,9.8065,0.2922,0.4046,-0.2926,-34.06,-26.5,10.19,283.88,-81.91,-176.57
12713,52.40816,-1.579372,184.63,8.71,4,59.54,26 / 29,1274221,2019-09-08 10:29:00:845,-0.3546,1.507,10.2236,0.0407,-0.0054,9.8065,0.0927,0.1431,-0.1525,-33.81,-26.69,9.19,280.13,-81.72,-178.28
12714,52.40816,-1.579372,184.63,8.71,4,59.54,26 / 29,1274321,2019-09-08 10:29:00:945,-0.3522,1.116,8.474,-0.0634,0.0245,9.8063,-0.0884,0.0878,-0.0181,-33.62,-27.19,9.06,278.92,-81.8,-179.54
12715,52.40816,-1.579372,184.63,8.71,4,59.54,26 / 29,1274422,2019-09-08 10:29:01:046,-0.8288,1.8974,8.746,-0.0447,0.0146,9.8065,-0.1742,0.2342,-0.0771,-32.94,-27.06,8.88,278.34,-82.2,179.3
12716,52.40816,-1.579372,184.63,8.71,4,59.54,26 / 29,1274521,2019-09-08 10:29:01:145,-0.0428,-0.5372,10.3959,0.033,-0.0154,9.8065,0.0778,0.1491,-0.0246,-33.12,-26.19,8.94,278.49,-82.27,179.17
12717,52.40816,-1.579372,184.63,8.71,4,59.54,26 / 29,1274621,2019-09-08 10:29:01:245,-0.1075,-0.5113,9.6619,0.0527,0.0034,9.8064,-0.0682,0.0215,0.0448,-33.0,-27.0,8.56,277.73,-81.98,178.88
12718,52.40816,-1.579372,184.63,8.71,4,59.54,26 / 29,1274721,2019-09-08 10:29:01:345,0.5995,2.632,9.1192,-0.0523,0.0277,9.8064,0.24,-0.0193,0.026,-32.75,-26.94,8.44,275.65,-82.19,178.31
12719,52.40816,-1.579372,184.63,8.71,4,59.54,26 / 27,1274822,2019-09-08 10:29:01:446,0.1326,-0.0603,10.8617,-0.0633,0.0066,9.8063,0.2487,0.0941,-0.0525,-32.5,-26.87,8.25,275.07,-82.22,177.48
12720,52.40816,-1.579372,184.63,8.71,4,59.54,26 / 27,1274922,2019-09-08 10:29:01:546,0.543,0.7843,10.4035,0.0371,0.0078,9.8065,-0.1453,0.0287,0.0304,-32.19,-26.62,7.75,274.63,-82.19,177.06
12721,52.40816,-1.579372,184.63,8.71,4,59.54,26 / 27,1275021,2019-09-08 10:29:01:645,-0.8617,-0.3918,9.7019,0.0236,0.0099,9.8065,-0.119,0.0831,-0.0223,-32.81,-27.25,7.88,273.14,-82.05,175.91
12722,52.40816,-1.579372,184.63,8.71,4,59.54,26 / 27,1275122,2019-09-08 10:29:01:746,-0.6114,0.367,9.9092,-0.0116,0.0133,9.8066,0.0968,0.1074,-0.0409,-32.25,-27.12,7.38,270.45,-82.11,174.67
12723,52.40816,-1.579372,184.63,8.71,4,59.54,26 / 27,1275222,2019-09-08 10:29:01:846,-0.6523,-0.3578,10.2048,-0.0106,0.0195,9.8065,0.0847,0.02,0.0165,-32.37,-27.5,7.31,268.62,-82.14,172.8
12724,52.40816,-1.579372,184.63,8.71,4,59.54,26 / 27,1275322,2019-09-08 10:29:01:946,-0.3145,-0.0624,10.3482,0.0079,-0.0021,9.8066,0.0252,0.0407,0.0309,-32.25,-28.25,7.0,267.78,-82.09,172.23
12725,52.40816,-1.579372,184.63,8.71,4,59.54,26 / 27,1275422,2019-09-08 10:29:02:046,-1.4366,-0.402,10.5403,0.006,0.0,9.8066,0.0107,0.049,-0.0124,-32.62,-28.44,7.5,269.65,-82.0,172.67
12726,52.40816,-1.579372,184.63,8.71,4,59.54,26 / 27,1275522,2019-09-08 10:29:02:146,-0.2977,-0.9202,10.0091,0.0199,-0.0003,9.8066,0.0371,0.0527,-0.0295,-31.94,-27.94,7.63,269.28,-81.88,172.2
12727,52.40816,-1.579372,184.63,8.71,4,59.54,26 / 27,1275622,2019-09-08 10:29:02:246,-0.8591,0.5313,9.7149,0.0115,0.0111,9.8066,0.0757,0.0234,-0.0117,-31.81,-28.37,7.75,268.17,-81.61,171.3
12728,52.40816,-1.579372,184.63,8.71,4,59.54,26 / 27,1275722,2019-09-08 10:29:02:346,-0.1496,-0.1389,9.8414,0.0076,0.0088,9.8066,-0.0368,0.0506,0.0184,-32.0,-27.44,7.81,268.02,-81.47,171.01
12729,52.40816,-1.579372,184.63,8.71,4,59.54,26 / 29,1275821,2019-09-08 10:29:02:445,-1.0225,-0.8323,10.2106,0.0067,-0.0011,9.8066,-0.0613,0.0338,0.0113,-31.94,-27.81,7.44,265.41,-81.47,170.36
12730,52.40816,-1.579372,184.63,8.71,4,59.54,26 / 29,1275922,2019-09-08 10:29:02:546,-0.8293,-0.9329,9.9315,-0.0166,0.0126,9.8066,0.0524,0.0344,-0.0265,-31.44,-28.25,7.81,266.71,-81.51,169.69
12731,52.40816,-1.579372,184.63,8.71,4,59.54,26 / 29,1276021,2019-09-08 10:29:02:645,0.0491,-0.1372,9.7626,-0.0043,0.0089,9.8066,0.0539,0.0468,-0.0241,-31.69,-28.19,8.31,265.46,-81.54,168.61
12732,52.40816,-1.579372,184.63,8.71,4,59.54,26 / 29,1276122,2019-09-08 10:29:02:746,-1.2484,-1.0625,9.6524,0.0013,0.0054,9.8066,-0.0209,0.078,-0.0495,-31.06,-27.81,7.56,264.91,-81.47,167.89
12733,52.40816,-1.579372,184.63,8.71,4,59.54,26 / 29,1276222,2019-09-08 10:29:02:846,-0.4962,-0.345,9.4441,-0.0098,0.0112,9.8065,-0.0137,0.035,-0.0211,-31.44,-27.87,8.31,263.8,-81.44,166.78
12734,52.40816,-1.579372,184.63,8.71,4,59.54,26 / 29,1276322,2019-09-08 10:29:02:946,-0.7244,-0.6564,10.0091,0.005,0.009,9.8065,-0.0388,-0.0094,-0.0029,-31.25,-27.94,7.63,263.13,-81.43,166.1
12735,52.40816,-1.579372,184.63,8.71,4,59.54,26 / 29,1276421,2019-09-08 10:29:03:045,-1.338,-0.5043,9.8429,0.0028,0.0064,9.8066,-0.0362,0.015,-0.0471,-31.37,-26.94,7.63,262.5,-81.43,165.18
12736,52.40816,-1.579372,184.63,8.71,4,59.54,26 / 29,1276521,2019-09-08 10:29:03:145,-1.2227,-0.7117,9.5315,0.0004,0.0066,9.8065,0.0011,0.0331,-0.0159,-31.19,-28.19,7.44,259.4,-81.39,164.09
12737,52.40816,-1.579372,184.63,8.71,4,59.54,26 / 29,1276621,2019-09-08 10:29:03:245,-0.5593,-0.9873,9.8148,0.001,0.0139,9.8065,-0.0019,-0.0067,0.0318,-30.62,-27.44,6.94,258.8,-81.37,163.21
12738,52.40816,-1.579372,184.63,8.71,4,59.54,26 / 29,1276721,2019-09-08 10:29:03:345,-1.353,-0.5734,9.9661,0.0086,0.0061,9.8066,-0.0178,-0.0038,-0.0041,-31.25,-27.69,7.75,259.93,-81.39,162.84
12739,52.40816,-1.579372,184.63,8.71,4,59.54,28 / 29,1276822,2019-09-08 10:29:03:446,-0.8096,-0.8902,10.0768,0.0063,0.001,9.8066,-0.0211,-0.0109,0.0163,-31.56,-27.62,7.63,259.22,-81.37,162.33
12740,52.40816,-1.579372,184.63,8.71,4,59.54,28 / 29,1276922,2019-09-08 10:29:03:546,-0.9186,-0.5704,9.8528,0.0033,0.0029,9.8066,0.0028,-0.0469,-0.0001,-31.5,-27.94,7.94,258.95,-81.28,161.91
12741,52.40816,-1.579372,184.63,8.71,4,59.54,28 / 29,1277021,2019-09-08 10:29:03:645,-1.0956,-0.7025,9.5398,0.0177,0.0032,9.8066,-0.0502,0.0022,-0.0394,-30.25,-27.62,7.5,258.91,-81.22,161.7
12742,52.40816,-1.579372,184.63,8.71,4,59.54,28 / 29,1277122,2019-09-08 10:29:03:746,-0.831,-0.5534,9.4873,0.0025,0.0079,9.8066,0.0488,-0.0154,-0.0278,-30.44,-27.56,7.69,258.4,-81.2,161.19
12743,52.40816,-1.579372,184.63,8.71,4,59.54,28 / 29,1277222,2019-09-08 10:29:03:846,-0.6272,-0.7229,9.714,0.0114,0.0015,9.8066,-0.0135,-0.0091,-0.0094,-31.0,-28.19,7.56,257.47,-81.11,160.53
12744,52.40816,-1.579372,184.63,8.71,4,59.54,28 / 29,1277322,2019-09-08 10:29:03:946,-1.0378,-0.3498,9.3656,-0.0147,0.0052,9.8066,0.0457,-0.0235,0.0375,-31.0,-27.19,7.5,257.43,-81.13,160.19
12745,52.40816,-1.579372,184.63,8.71,4,59.54,28 / 29,1277421,2019-09-08 10:29:04:045,-1.004,-0.9533,9.5803,-0.014,0.0038,9.8066,0.04,-0.0375,0.045,-31.69,-27.69,7.5,256.52,-81.28,159.6
12746,52.40816,-1.579372,184.63,8.71,4,59.54,28 / 29,1277521,2019-09-08 10:29:04:145,-0.7511,-0.4184,9.7842,-0.0015,0.0056,9.8066,-0.0338,-0.0242,0.0125,-30.06,-26.81,8.0,256.65,-81.34,158.97
12747,52.40816,-1.579372,184.63,8.71,4,59.54,28 / 29,1277621,2019-09-08 10:29:04:245,-1.1814,-0.6874,9.5382,0.0085,0.0038,9.8066,-0.0868,-0.0051,0.0138,-30.5,-26.25,7.31,254.86,-81.38,158.65
12748,52.40816,-1.579372,184.63,8.71,4,59.54,28 / 29,1277721,2019-09-08 10:29:04:345,-0.9823,-0.7532,9.6951,-0.0117,-0.0038,9.8066,0.013,-0.0323,0.041,-30.5,-26.62,6.69,254.52,-81.51,158.46
12749,52.40816,-1.579372,184.63,8.71,4,59.54,27 / 29,1277822,2019-09-08 10:29:04:446,-0.5101,-1.522,9.8994,-0.0032,-0.0076,9.8066,0.0034,-0.0502,0.0209,-30.31,-26.56,6.75,255.07,-81.63,158.93
12750,52.40816,-1.579372,184.63,8.71,4,59.54,27 / 29,1277921,2019-09-08 10:29:04:545,-0.4207,-1.5393,9.868,-0.0023,-0.0098,9.8066,0.0313,-0.0636,0.0428,-31.69,-26.94,6.75,254.98,-81.68,159.17
12751,52.40816,-1.579372,184.63,8.71,4,59.54,27 / 29,1278021,2019-09-08 10:29:04:645,-0.5435,-1.8265,9.6375,-0.0037,-0.011,9.8065,0.0384,-0.0729,0.054,-32.31,-26.5,7.38,256.5,-81.73,160.47
12752,52.40816,-1.579372,184.63,8.71,4,59.54,27 / 29,1278121,2019-09-08 10:29:04:745,-0.8135,-2.1748,9.5143,-0.0046,-0.0147,9.8066,0.0371,-0.1262,0.0793,-32.69,-26.94,8.13,259.25,-81.75,162.01
12753,52.40816,-1.579372,184.63,8.71,4,59.54,27 / 29,1278221,2019-09-08 10:29:04:845,-0.569,-1.9996,9.9306,-0.0145,-0.011,9.8066,0.012,-0.1241,0.0458,-32.37,-26.81,7.81,260.45,-81.82,162.98
12754,52.40816,-1.579372,184.63,8.71,4,59.54,27 / 29,1278321,2019-09-08 10:29:04:945,-0.2624,-2.3418,9.7858,-0.0005,-0.0042,9.8065,-0.044,-0.1741,0.0434,-32.81,-26.19,8.13,261.1,-81.89,163.57
12755,52.40816,-1.579372,184.63,8.71,4,59.54,27 / 29,1278421,2019-09-08 10:29:05:045,-0.7459,-1.9837,9.5653,-0.0055,-0.0004,9.8066,-0.0444,-0.1653,0.0369,-32.81,-27.37,9.0,262.68,-82.01,163.66
12756,52.40816,-1.579372,184.63,8.71,4,59.54,27 / 29,1278521,2019-09-08 10:29:05:145,-1.0847,-2.1759,9.7098,-0.012,-0.0024,9.8066,0.0175,-0.1904,0.0443,-31.81,-26.69,9.31,263.19,-82.11,163.83
12757,52.40816,-1.579372,184.63,8.71,4,59.54,27 / 29,1278622,2019-09-08 10:29:05:246,-1.2291,-2.3942,9.9296,-0.013,-0.0036,9.8066,0.0496,-0.2034,0.0469,-32.62,-27.0,9.5,265.1,-82.26,164.28
12758,52.40816,-1.579372,184.63,8.71,4,59.54,27 / 29,1278722,2019-09-08 10:29:05:346,-0.8861,-2.364,9.5416,-0.011,0.001,9.8066,0.0138,-0.2056,0.0657,-32.94,-26.62,9.31,263.6,-82.38,164.32
12759,52.40816,-1.579372,184.63,8.71,4,59.54,27 / 28,1278822,2019-09-08 10:29:05:446,-0.1349,-2.3336,9.6183,-0.0097,-0.0012,9.8066,-0.0193,-0.193,0.0161,-33.06,-26.19,9.81,265.49,-82.46,164.3
12760,52.40816,-1.579372,184.63,8.71,4,59.54,27 / 28,1278921,2019-09-08 10:29:05:545,-0.5994,-1.8968,9.8316,-0.0114,0.0095,9.8066,0.027,-0.2152,0.0102,-33.5,-27.0,10.56,266.36,-82.56,163.7
12761,52.40816,-1.579372,184.63,8.71,4,59.54,27 / 28,1279022,2019-09-08 10:29:05:646,-0.5782,-2.1375,9.9007,-0.0142,0.0078,9.8066,0.0349,-0.2311,0.0329,-32.75,-26.19,10.81,265.85,-82.7,162.86
12762,52.40816,-1.579372,184.63,8.71,4,59.54,27 / 28,1279121,2019-09-08 10:29:05:745,-1.2872,-2.5213,9.521,-0.0096,0.0013,9.8066,-0.0105,-0.2176,0.052,-33.31,-26.44,10.81,265.86,-82.79,162.81
12763,52.40816,-1.579372,184.63,8.71,4,59.54,27 / 28,1279222,2019-09-08 10:29:05:846,-0.6966,-2.7317,9.716,-0.0073,0.0014,9.8066,-0.0205,-0.2096,0.0563,-34.12,-26.75,11.38,265.08,-82.93,162.47
12764,52.40816,-1.579372,184.63,8.71,4,59.54,27 / 28,1279321,2019-09-08 10:29:05:945,-1.2865,-2.4891,9.7213,-0.0151,0.0039,9.8066,0.0591,-0.2087,0.0484,-33.56,-26.37,12.0,265.95,-83.1,161.47
12765,52.40816,-1.579372,184.63,8.71,4,59.54,27 / 28,1279422,2019-09-08 10:29:06:046,0.1186,-2.2094,10.0168,-0.0207,0.0167,9.8066,0.06,-0.2042,-0.0028,-33.75,-26.62,12.0,264.74,-83.18,160.37
12766,52.40816,-1.579372,184.63,8.71,4,59.54,27 / 28,1279521,2019-09-08 10:29:06:145,-0.5127,-2.1466,9.8062,-0.012,0.0034,9.8066,-0.011,-0.2113,0.0225,-33.37,-26.06,12.06,264.85,-83.23,159.86
12767,52.40816,-1.579372,184.63,8.71,4,59.54,27 / 28,1279621,2019-09-08 10:29:06:245,-0.0617,-2.0445,9.5558,-0.0091,0.0022,9.8066,0.0013,-0.2126,0.0372,-33.31,-25.5,12.88,266.18,-83.38,159.33
12768,52.40816,-1.579372,184.63,8.71,4,59.54,27 / 28,1279722,2019-09-08 10:29:06:346,-0.5249,-1.9956,9.4188,-0.0237,0.0057,9.8066,0.0371,-0.1903,0.0365,-34.19,-25.75,12.5,265.34,-83.43,159.09
12769,52.40816,-1.579372,184.63,8.71,4,59.54,27 / 28,1279821,2019-09-08 10:29:06:445,0.2035,-2.2629,10.0766,-0.0223,0.003,9.8066,0.0502,-0.2188,0.0522,-34.62,-25.62,12.5,264.75,-83.65,158.77
12770,52.40816,-1.579372,184.63,8.71,4,59.54,27 / 29,1279921,2019-09-08 10:29:06:545,0.6589,-2.6392,9.73,-0.0058,-0.0038,9.8066,-0.0713,-0.2391,0.0471,-34.5,-25.56,13.56,267.5,-83.79,159.51
12771,52.40816,-1.579372,184.63,8.71,4,59.54,27 / 29,1280022,2019-09-08 10:29:06:646,-0.101,-2.1537,9.4094,-0.0183,-0.0089,9.8065,-0.0448,-0.219,0.0425,-35.25,-25.06,14.38,267.97,-83.99,160.16
12772,52.40816,-1.579372,184.63,8.71,4,59.54,27 / 29,1280122,2019-09-08 10:29:06:746,-0.2056,-2.4927,10.0249,-0.0046,-0.0143,9.8066,0.013,-0.2168,0.0366,-34.94,-24.75,14.81,270.8,-84.17,161.45
12773,52.40816,-1.579372,184.63,8.71,4,59.54,27 / 29,1280222,2019-09-08 10:29:06:846,-0.3164,-2.8176,9.6368,0.0063,-0.0145,9.8066,-0.0274,-0.2472,0.0346,-35.25,-25.0,15.38,272.77,-84.3,163.34
12774,52.40816,-1.579372,184.63,8.71,4,59.54,27 / 29,1280321,2019-09-08 10:29:06:945,-0.415,-2.2207,9.4929,-0.027,-0.0036,9.8066,0.0541,-0.2195,0.0764,-34.81,-24.69,15.81,274.98,-84.39,164.08
12775,52.40816,-1.579372,184.63,8.71,4,59.54,27 / 29,1280421,2019-09-08 10:29:07:045,0.2576,-2.8711,9.5965,-0.03,-0.0018,9.8066,0.0681,-0.2416,0.0788,-34.94,-25.25,16.19,277.23,-84.62,166.17
12776,52.40816,-1.579372,184.63,8.71,4,59.54,27 / 29,1280522,2019-09-08 10:29:07:146,0.4867,-2.3789,9.9,0.0047,-0.0153,9.8066,-0.0646,-0.279,0.1053,-35.62,-25.37,16.5,280.22,-84.66,168.3
12777,52.40816,-1.579372,184.63,8.71,4,59.54,27 / 29,1280621,2019-09-08 10:29:07:245,-0.1909,-2.336,9.8324,-0.0027,-0.021,9.8066,-0.0593,-0.2099,0.0621,-34.81,-25.12,16.88,283.02,-84.81,170.42
12778,52.40816,-1.579372,184.63,8.71,4,59.54,27 / 29,1280721,2019-09-08 10:29:07:345,-0.1062,-2.0092,9.6299,-0.0201,-0.0063,9.8065,0.0727,-0.2191,0.0585,-35.75,-25.69,17.56,285.59,-84.94,172.24
12779,52.40816,-1.579372,184.63,8.71,4,59.54,27 / 29,1280821,2019-09-08 10:29:07:445,0.303,-2.4874,9.4401,-0.0072,-0.0129,9.8066,0.0113,-0.2014,0.0591,-35.44,-24.5,17.81,288.28,-85.06,173.99
12780,52.40816,-1.579372,184.63,8.71,4,59.54,28 / 30,1280922,2019-09-08 10:29:07:546,0.1912,-1.9155,9.5209,-0.0219,-0.0027,9.8066,0.0376,-0.1717,0.0463,-35.44,-25.12,18.31,291.56,-85.14,177.29
12781,52.40816,-1.579372,184.63,8.71,4,59.54,28 / 30,1281022,2019-09-08 10:29:07:646,-0.4428,-2.1661,10.0742,-0.0319,-0.0035,9.8065,0.0899,-0.2172,0.1172,-35.94,-24.37,19.19,295.51,-85.33,-179.75
12782,52.40816,-1.579372,184.63,8.71,4,59.54,28 / 30,1281122,2019-09-08 10:29:07:746,-0.2886,-2.4945,9.9971,0.0026,-0.0241,9.8065,-0.1163,-0.1437,0.0096,-35.94,-24.62,18.75,300.53,-85.3,-174.72
12783,52.40816,-1.579372,184.63,8.71,4,59.54,28 / 30,1281222,2019-09-08 10:29:07:846,-0.4339,-1.8846,9.2433,-0.0083,-0.0093,9.8065,-0.1137,-0.1194,0.0065,-36.31,-24.62,18.94,302.5,-85.41,-172.86
12784,52.40816,-1.579372,184.63,8.71,4,59.54,28 / 30,1281322,2019-09-08 10:29:07:946,0.3322,-1.9712,9.657,0.0037,-0.0323,9.8066,-0.1036,-0.1562,0.1004,-36.0,-24.19,19.75,305.83,-85.52,-171.02
12785,52.40816,-1.579372,184.63,8.71,4,59.54,28 / 30,1281421,2019-09-08 10:29:08:045,-1.1947,-1.6936,9.851,0.0083,-0.0282,9.8066,-0.2015,-0.2082,0.0936,-36.87,-24.12,19.44,309.92,-85.35,-165.11
12786,52.40816,-1.579372,184.63,8.71,4,59.54,28 / 30,1281521,2019-09-08 10:29:08:145,-0.2009,-0.8836,9.3741,-0.0116,-0.0183,9.8066,0.0084,-0.19,0.1083,-37.19,-24.56,20.13,315.52,-85.36,-160.85
12787,52.40816,-1.579372,184.63,8.71,4,59.54,28 / 30,1281622,2019-09-08 10:29:08:246,0.442,-1.42,9.2866,-0.0099,-0.0269,9.8065,-0.0011,-0.1015,0.0126,-36.81,-24.62,20.56,321.72,-85.24,-156.03
12788,52.40816,-1.579372,184.63,8.71,4,59.54,28 / 30,1281722,2019-09-08 10:29:08:346,-0.1357,-1.2557,9.5365,-0.0169,-0.0013,9.8066,-0.0255,-0.1538,0.0608,-37.12,-24.19,20.69,325.91,-85.28,-152.09
12789,52.40816,-1.579372,184.63,8.71,4,59.54,28 / 30,1281822,2019-09-08 10:29:08:446,-0.4785,-1.46,9.94,-0.0256,-0.0085,9.8066,0.0134,-0.1156,0.0368,-37.37,-23.94,20.88,328.78,-85.28,-149.33
12790,52.40816,-1.579372,184.63,8.71,4,59.54,28 / 30,1281921,2019-09-08 10:29:08:545,-0.1316,-1.3548,9.651,-0.0133,-0.0053,9.8065,-0.0365,-0.1195,0.0203,-37.5,-23.87,20.88,330.79,-85.3,-147.41
12791,52.40816,-1.579372,184.63,8.71,4,59.54,28 / 30,1282021,2019-09-08 10:29:08:645,-0.0267,-1.7716,9.8668,-0.0178,-0.0235,9.8066,0.0217,-0.1073,0.0257,-36.81,-24.37,21.31,334.43,-85.19,-143.9
12792,52.40816,-1.579372,184.63,8.71,4,59.54,28 / 30,1282122,2019-09-08 10:29:08:746,-0.0066,-2.3746,10.0469,0.0329,-0.0358,9.8065,-0.1616,-0.1423,0.0448,-37.37,-24.25,21.63,336.05,-84.87,-143.44
12793,52.40816,-1.579372,184.63,8.71,4,59.54,28 / 30,1282221,2019-09-08 10:29:08:845,-0.8061,-1.4713,9.2983,0.0225,-0.0284,9.8065,-0.1383,-0.1394,0.0296,-37.12,-23.5,21.75,337.29,-84.8,-142.29
12794,52.40816,-1.579372,184.63,8.71,4,59.54,28 / 30,1282321,2019-09-08 10:29:08:945,-0.6268,-2.4836,9.9912,0.0,-0.0168,9.8066,-0.0049,-0.169,0.0361,-37.62,-24.37,22.31,337.77,-84.77,-141.14
12795,52.40816,-1.579372,184.63,8.71,4,59.54,28 / 30,1282421,2019-09-08 10:29:09:045,0.0003,-1.5165,9.7077,0.008,0.0031,9.8066,-0.0525,-0.0197,-0.0677,-38.12,-23.75,22.31,338.58,-84.78,-140.37
12796,52.40816,-1.579372,184.63,8.71,4,59.54,28 / 30,1282521,2019-09-08 10:29:09:145,0.5879,-0.9049,9.5718,0.0032,-0.0084,9.8066,-0.0299,-0.0941,-0.0197,-36.87,-24.31,23.0,338.52,-84.91,-142.25
12797,52.40816,-1.579372,184.63,8.71,4,59.54,28 / 30,1282622,2019-09-08 10:29:09:246,-1.0045,-1.4466,10.1038,0.0239,-0.0024,9.8066,-0.0696,-0.2042,0.0021,-37.31,-23.81,23.0,336.77,-84.74,-143.86
12798,52.40816,-1.579372,184.63,8.71,4,59.54,28 / 30,1282721,2019-09-08 10:29:09:345,-0.461,-1.7598,9.4851,0.0338,-0.0112,9.8065,0.0555,-0.1917,0.0001,-36.69,-23.62,23.94,335.96,-84.63,-145.73
12799,52.408447,-1.578501,185.13,7.91,3,98.75,26 / 27,1282821,2019-09-08 10:29:09:445,0.5284,-1.8892,9.1848,0.0327,-0.0127,9.8065,0.0719,-0.1773,0.0297,-36.62,-23.69,23.81,332.68,-84.34,-148.76
12800,52.408447,-1.578501,185.13,7.91,3,98.75,26 / 27,1282921,2019-09-08 10:29:09:545,-0.4065,-1.0625,9.5798,-0.0113,0.0181,9.8066,0.076,-0.1775,0.0356,-36.0,-23.69,25.25,333.13,-84.2,-150.09
12801,52.408447,-1.578501,185.13,7.91,3,98.75,26 / 27,1283021,2019-09-08 10:29:09:645,-0.3928,-0.9623,9.7251,-0.0151,0.0246,9.8066,0.1093,-0.1694,0.055,-35.62,-24.31,24.56,331.99,-84.34,-151.22
12802,52.408447,-1.578501,185.13,7.91,3,98.75,26 / 27,1283122,2019-09-08 10:29:09:746,0.1188,-0.6673,9.2442,-0.0142,0.0172,9.8066,-0.0563,-0.1238,0.0019,-35.56,-24.31,25.13,331.41,-84.42,-151.79
12803,52.408447,-1.578501,185.13,7.91,3,98.75,26 / 27,1283221,2019-09-08 10:29:09:845,0.1307,-1.3389,9.5141,-0.0313,0.0196,9.8066,0.0057,-0.1587,0.0338,-36.19,-24.62,25.5,334.08,-84.74,-150.37
12804,52.408447,-1.578501,185.13,7.91,3,98.75,26 / 27,1283321,2019-09-08 10:29:09:945,0.194,-1.5549,10.0659,0.0061,0.0059,9.8066,-0.0634,-0.1076,-0.014,-35.31,-24.12,25.5,335.8,-84.84,-149.56
12805,52.408447,-1.578501,185.13,7.91,3,98.75,26 / 27,1283422,2019-09-08 10:29:10:046,-0.0247,-0.3007,9.1851,0.0269,-0.0149,9.8066,-0.1206,-0.0885,-0.0548,-34.62,-24.06,25.5,334.7,-84.87,-150.61
12806,52.408447,-1.578501,185.13,7.91,3,98.75,26 / 27,1283521,2019-09-08 10:29:10:145,-0.4087,-0.5248,9.4145,-0.0099,0.0103,9.8066,0.05,-0.0517,-0.0354,-35.19,-24.44,25.5,333.66,-84.96,-151.63
12807,52.408447,-1.578501,185.13,7.91,3,98.75,26 / 27,1283621,2019-09-08 10:29:10:245,0.4958,-0.6584,9.5647,-0.0055,0.0125,9.8066,0.0118,-0.1375,0.0156,-35.0,-23.69,25.75,333.02,-85.01,-152.26
12808,52.408447,-1.578501,185.13,7.91,3,98.75,26 / 27,1283721,2019-09-08 10:29:10:345,0.9425,-0.3147,9.3737,0.0089,0.0069,9.8066,-0.1292,-0.0601,-0.0368,-35.06,-24.56,25.88,333.14,-85.01,-152.08
12809,52.408447,-1.578501,185.13,7.91,3,98.75,29 / 30,1283822,2019-09-08 10:29:10:446,1.3803,-0.6831,9.7067,0.0033,-0.0014,9.8066,-0.053,-0.0303,-0.0286,-34.81,-24.0,26.06,332.43,-85.07,-152.84
12810,52.408447,-1.578501,185.13,7.91,3,98.75,29 / 30,1283921,2019-09-08 10:29:10:545,0.6876,-0.1435,9.6731,-0.0192,0.0154,9.8066,0.1285,-0.0644,0.0417,-34.69,-24.12,26.06,333.05,-85.05,-152.24
12811,52.408447,-1.578501,185.13,7.91,3,98.75,29 / 30,1284022,2019-09-08 10:29:10:646,0.5461,-1.3561,10.2267,-0.0228,0.0055,9.8065,0.1381,0.0397,0.0026,-34.56,-24.12,26.13,334.5,-85.16,-150.88
12812,52.408447,-1.578501,185.13,7.91,3,98.75,29 / 30,1284122,2019-09-08 10:29:10:746,0.6535,0.743,8.9371,-0.0275,0.0194,9.8065,-0.0423,0.0555,0.0401,-34.69,-24.37,25.5,334.03,-85.07,-151.31
12813,52.408447,-1.578501,185.13,7.91,3,98.75,29 / 30,1284221,2019-09-08 10:29:10:845,0.4283,0.8567,9.6652,-0.0188,-0.0176,9.8065,-0.1252,0.1012,0.0098,-35.0,-23.75,25.81,337.22,-85.06,-148.26
12814,52.408447,-1.578501,185.13,7.91,3,98.75,29 / 30,1284322,2019-09-08 10:29:10:946,0.0719,-1.121,10.7257,0.0094,-0.0471,9.8065,0.0059,-0.0257,0.1307,-35.37,-24.06,25.81,339.16,-84.82,-146.36
12815,52.408447,-1.578501,185.13,7.91,3,98.75,29 / 30,1284421,2019-09-08 10:29:11:045,1.2309,0.2556,9.031,0.0205,-0.0299,9.8066,-0.1447,0.037,0.0479,-35.12,-23.94,25.38,340.83,-84.66,-143.65
12816,52.408447,-1.578501,185.13,7.91,3,98.75,29 / 30,1284521,2019-09-08 10:29:11:145,0.1968,-0.581,9.6918,-0.0388,0.0015,9.8065,0.0703,-0.0263,0.0204,-35.56,-23.81,25.75,343.59,-84.37,-141.32
12817,52.408447,-1.578501,185.13,7.91,3,98.75,29 / 30,1284621,2019-09-08 10:29:11:245,1.2439,-0.82,9.7901,-0.015,-0.0126,9.8066,0.0234,-0.0139,0.0002,-35.62,-23.44,25.69,346.67,-84.2,-138.41
12818,52.408447,-1.578501,185.13,7.91,3,98.75,29 / 30,1284722,2019-09-08 10:29:11:346,0.8769,-1.1831,10.4031,0.0135,-0.039,9.8066,0.018,-0.0039,0.0249,-35.94,-23.69,25.69,347.42,-83.98,-137.64
12819,52.408447,-1.578501,185.13,7.91,3,98.75,29 / 30,1284826,2019-09-08 10:29:11:450,1.0855,-1.606,10.0519,0.0245,-0.036,9.8065,-0.1152,0.0711,0.0134,-36.12,-23.25,25.44,346.19,-83.47,-137.68
12820,52.408447,-1.578501,185.13,7.91,3,98.75,28 / 29,1284922,2019-09-08 10:29:11:546,0.9861,-0.3044,10.0637,-0.0229,0.0148,9.8066,-0.0933,0.0625,-0.0114,-36.5,-24.0,25.88,348.2,-83.35,-136.83
12821,52.408447,-1.578501,185.13,7.91,3,98.75,28 / 29,1285022,2019-09-08 10:29:11:646,1.1214,-1.3694,10.2929,-0.0232,0.0072,9.8065,-0.0593,0.0114,0.0009,-36.62,-23.44,25.75,348.9,-83.39,-135.48
12822,52.408447,-1.578501,185.13,7.91,3,98.75,28 / 29,1285122,2019-09-08 10:29:11:746,-0.1393,0.5676,8.8612,0.0007,-0.0009,9.8066,-0.135,0.014,-0.0374,-36.75,-23.37,25.69,348.21,-83.31,-136.11
12823,52.408447,-1.578501,185.13,7.91,3,98.75,28 / 29,1285221,2019-09-08 10:29:11:845,1.3137,0.4802,8.7147,-0.0145,0.0276,9.8066,0.2209,-0.0865,0.022,-36.94,-23.69,25.38,347.18,-83.32,-135.99
12824,52.408447,-1.578501,185.13,7.91,3,98.75,28 / 29,1285322,2019-09-08 10:29:11:946,0.5115,0.0965,10.1164,0.0259,-0.0296,9.8065,0.2383,-0.0093,0.0136,-37.19,-23.31,26.19,347.52,-83.24,-136.75
12825,52.408447,-1.578501,185.13,7.91,3,98.75,28 / 29,1285421,2019-09-08 10:29:12:045,-0.0821,-0.176,10.2646,0.0356,-0.0344,9.8065,-0.1518,-0.0872,0.0666,-36.87,-23.94,26.31,348.03,-83.26,-136.24
12826,52.408447,-1.578501,185.13,7.91,3,98.75,28 / 29,1285521,2019-09-08 10:29:12:145,0.9668,0.0272,9.3057,-0.0261,0.027,9.8066,-0.0141,0.0012,-0.0557,-36.94,-23.5,25.69,348.27,-83.34,-136.06
12827,52.408447,-1.578501,185.13,7.91,3,98.75,28 / 29,1285621,2019-09-08 10:29:12:245,0.52,-1.6013,10.1616,-0.0141,-0.0114,9.8066,-0.1159,-0.0262,-0.0279,-36.75,-23.5,25.94,348.01,-83.34,-136.3
12828,52.408447,-1.578501,185.13,7.91,3,98.75,28 / 29,1285721,2019-09-08 10:29:12:345,0.5683,-0.1976,9.0462,-0.0194,0.0143,9.8066,-0.1709,-0.0182,-0.0044,-36.75,-23.06,26.38,346.68,-83.19,-137.53
12829,52.408447,-1.578501,185.13,7.91,3,98.75,28 / 29,1285821,2019-09-08 10:29:12:445,0.7352,-0.2607,9.5271,-0.0287,0.0251,9.8066,-0.1608,0.0023,-0.0295,-36.5,-23.5,26.13,347.94,-83.26,-137.09
12830,52.408447,-1.578501,185.13,7.91,3,98.75,28 / 29,1285921,2019-09-08 10:29:12:545,0.6285,-0.1871,9.9348,-0.0005,0.0159,9.8065,0.0546,-0.0196,0.013,-36.81,-23.12,26.25,345.93,-83.22,-138.24
12831,52.408447,-1.578501,185.13,7.91,3,98.75,28 / 29,1286021,2019-09-08 10:29:12:645,1.2686,-0.5157,9.619,0.0019,0.0079,9.8066,-0.0376,0.0027,0.0389,-36.69,-23.19,25.63,345.71,-83.31,-138.45
12832,52.408447,-1.578501,185.13,7.91,3,98.75,28 / 29,1286121,2019-09-08 10:29:12:745,0.4515,-1.1208,10.0568,-0.0139,0.0128,9.8066,0.0082,-0.0205,0.0413,-36.44,-23.75,26.0,346.77,-83.45,-138.18
12833,52.408447,-1.578501,185.13,7.91,3,98.75,28 / 29,1286221,2019-09-08 10:29:12:845,0.6972,-0.7503,10.0596,0.0191,0.0034,9.8065,-0.0998,0.0002,-0.0392,-36.25,-23.37,25.38,346.01,-83.56,-137.87
12834,52.408447,-1.578501,185.13,7.91,3,98.75,28 / 29,1286322,2019-09-08 10:29:12:946,0.9111,-0.845,9.4962,0.029,0.0003,9.8065,-0.1552,0.0171,-0.0677,-36.19,-23.44,25.25,343.78,-83.76,-140.0
12835,52.408447,-1.578501,185.13,7.91,3,98.75,28 / 29,1286422,2019-09-08 10:29:13:046,0.2602,-0.9706,9.9377,-0.0118,0.0203,9.8066,0.0848,0.0343,-0.0887,-36.12,-23.12,25.38,343.37,-83.99,-140.42
12836,52.408447,-1.578501,185.13,7.91,3,98.75,28 / 29,1286521,2019-09-08 10:29:13:145,0.1829,-0.5177,10.006,0.005,0.022,9.8065,-0.0162,-0.0058,-0.0157,-35.94,-23.31,24.56,342.21,-84.3,-141.58
12837,52.408447,-1.578501,185.13,7.91,3,98.75,28 / 29,1286622,2019-09-08 10:29:13:246,0.8122,-0.634,9.6972,0.0024,0.0171,9.8066,0.0409,0.0846,-0.0692,-36.75,-23.12,25.0,339.99,-84.55,-143.01
12838,52.408447,-1.578501,185.13,7.91,3,98.75,28 / 29,1286721,2019-09-08 10:29:13:345,0.4012,0.6323,9.6432,0.0069,0.0017,9.8066,-0.0188,0.0423,-0.0361,-37.25,-23.37,24.81,337.99,-84.54,-144.91
12839,52.408447,-1.578501,185.13,7.91,3,98.75,27 / 28,1286822,2019-09-08 10:29:13:446,0.6909,-0.8529,9.3394,0.002,-0.0009,9.8066,-0.0195,0.0344,-0.0615,-36.94,-22.56,25.19,337.23,-84.48,-145.62
12840,52.408447,-1.578501,185.13,7.91,3,98.75,27 / 28,1286921,2019-09-08 10:29:13:545,0.598,-0.0239,10.2336,0.0015,0.0062,9.8065,-0.0054,-0.0252,0.0118,-36.56,-23.62,24.69,336.23,-84.45,-146.52
12841,52.408447,-1.578501,185.13,7.91,3,98.75,27 / 28,1287021,2019-09-08 10:29:13:645,0.6243,-0.1106,9.9229,0.0118,-0.0068,9.8066,0.0586,-0.0298,0.0193,-36.37,-22.81,25.44,336.57,-84.34,-146.93
12842,52.408447,-1.578501,185.13,7.91,3,98.75,27 / 28,1287121,2019-09-08 10:29:13:745,0.9703,-0.3695,10.0196,0.0073,0.0066,9.8066,0.053,0.008,-0.0017,-35.62,-23.56,24.88,335.7,-84.28,-147.68
12843,52.408447,-1.578501,185.13,7.91,3,98.75,27 / 28,1287221,2019-09-08 10:29:13:845,0.1183,0.0346,9.9547,-0.0102,0.001,9.8066,0.0498,-0.0225,0.0314,-35.81,-23.44,24.5,334.68,-84.14,-148.67
12844,52.408447,-1.578501,185.13,7.91,3,98.75,27 / 28,1287322,2019-09-08 10:29:13:946,-0.2507,-0.6758,10.6511,-0.0122,0.0116,9.8066,0.0873,-0.0312,0.0315,-36.19,-23.69,23.81,333.72,-84.15,-148.41
12845,52.408447,-1.578501,185.13,7.91,3,98.75,27 / 28,1287421,2019-09-08 10:29:14:045,0.9243,-0.3716,9.7934,0.003,0.005,9.8066,-0.0489,0.0203,-0.0159,-36.44,-23.12,23.19,332.47,-84.14,-148.52
12846,52.408447,-1.578501,185.13,7.91,3,98.75,27 / 28,1287522,2019-09-08 10:29:14:146,-0.5061,0.2939,9.9631,-0.0063,0.0033,9.8066,0.018,-0.0037,-0.0063,-37.81,-23.62,23.31,330.74,-84.16,-148.78
12847,52.408447,-1.578501,185.13,7.91,3,98.75,27 / 28,1287621,2019-09-08 10:29:14:245,0.8843,0.2111,9.5167,0.0068,0.0008,9.8066,0.0008,0.0191,-0.0066,-38.12,-23.44,24.63,331.88,-84.13,-149.93
12848,52.408447,-1.578501,185.13,7.91,3,98.75,27 / 28,1287721,2019-09-08 10:29:14:345,-0.8459,-0.2173,10.7026,0.0077,-0.0021,9.8065,-0.02,-0.0264,0.0147,-37.62,-23.37,25.94,332.77,-84.03,-150.12
12849,52.408447,-1.578501,185.13,7.91,3,98.75,28 / 29,1287822,2019-09-08 10:29:14:446,0.2424,-0.3004,9.7091,0.0012,-0.0056,9.8066,-0.0086,0.0412,-0.017,-37.0,-23.31,26.06,332.91,-84.04,-150.68
12850,52.408447,-1.578501,185.13,7.91,3,98.75,28 / 29,1287924,2019-09-08 10:29:14:548,0.0283,-0.3041,9.9325,-0.0142,0.005,9.8066,0.0169,0.0289,0.0106,-35.62,-23.12,25.56,333.75,-84.03,-150.6
12851,52.408447,-1.578501,185.13,7.91,3,98.75,28 / 29,1288022,2019-09-08 10:29:14:646,0.0919,0.6921,9.616,-0.0035,0.0159,9.8065,-0.0211,-0.018,0.0167,-35.0,-23.75,25.5,334.17,-84.04,-150.89
12852,52.408447,-1.578501,185.13,7.91,3,98.75,28 / 29,1288122,2019-09-08 10:29:14:746,-0.7747,0.9306,10.2268,-0.0207,0.0018,9.8066,0.064,0.0584,-0.0642,-35.37,-23.5,25.06,334.15,-84.15,-149.91
12853,52.408447,-1.578501,185.13,7.91,3,98.75,28 / 29,1288222,2019-09-08 10:29:14:846,-0.1627,-0.3125,10.7429,0.0354,-0.027,9.8065,-0.0642,0.0014,-0.068,-35.06,-23.5,25.38,332.98,-83.98,-150.97
12854,52.408447,-1.578501,185.13,7.91,3,98.75,28 / 29,1288322,2019-09-08 10:29:14:946,0.1511,0.7295,9.5927,0.0291,-0.0167,9.8066,-0.0532,0.0057,-0.0221,-35.94,-23.19,24.88,331.43,-84.02,-151.71
12855,52.408447,-1.578501,185.13,7.91,3,98.75,28 / 29,1288422,2019-09-08 10:29:15:046,1.1086,-1.3013,9.3792,-0.0047,0.004,9.8066,0.0267,0.036,-0.023,-35.5,-23.37,24.81,332.43,-84.04,-151.51
12856,52.408447,-1.578501,185.13,7.91,3,98.75,28 / 29,1288522,2019-09-08 10:29:15:146,0.5841,-0.0367,10.0711,0.0042,0.0,9.8066,-0.0199,0.018,0.0075,-35.94,-23.44,24.38,330.27,-84.04,-151.72
12857,52.408447,-1.578501,185.13,7.91,3,98.75,28 / 29,1288621,2019-09-08 10:29:15:245,0.1756,-0.4777,9.7677,-0.0034,-0.0063,9.8066,-0.0286,0.0138,-0.0075,-36.06,-23.69,24.19,329.75,-84.03,-152.14
12858,52.408447,-1.578501,185.13,7.91,3,98.75,28 / 29,1288721,2019-09-08 10:29:15:345,0.59,0.1687,9.8485,0.0064,0.004,9.8066,-0.0049,-0.036,0.0329,-36.12,-23.19,24.13,329.47,-83.97,-152.46
12859,52.408447,-1.578501,185.13,7.91,3,98.75,28 / 29,1288821,2019-09-08 10:29:15:445,0.0023,-0.1911,9.7769,0.0033,-0.0027,9.8066,0.0416,0.0031,0.0015,-36.94,-23.12,25.06,330.04,-83.89,-152.3
12860,52.408447,-1.578501,185.13,7.91,3,98.75,28 / 29,1288921,2019-09-08 10:29:15:545,-0.1666,-0.2293,10.1685,-0.0147,0.0047,9.8066,0.0727,-0.0246,0.0299,-36.19,-22.69,24.69,331.19,-83.86,-151.89
12861,52.408447,-1.578501,185.13,7.91,3,98.75,28 / 29,1289022,2019-09-08 10:29:15:646,-0.3389,0.378,10.1045,-0.0096,-0.001,9.8066,-0.0323,-0.0227,0.0253,-36.19,-23.31,25.44,331.21,-83.8,-151.86
12862,52.408447,-1.578501,185.13,7.91,3,98.75,28 / 29,1289122,2019-09-08 10:29:15:746,0.2537,-0.4332,9.8472,-0.0216,0.0107,9.8066,0.0158,-0.0191,0.019,-35.62,-23.62,24.81,332.39,-83.85,-150.69
12863,52.408447,-1.578501,185.13,7.91,3,98.75,28 / 29,1289222,2019-09-08 10:29:15:846,-0.0823,-0.3239,10.0638,0.0178,-0.0178,9.8065,-0.0939,0.0041,-0.0241,-35.87,-23.5,24.5,333.08,-83.83,-150.1
12864,52.408447,-1.578501,185.13,7.91,3,98.75,28 / 29,1289321,2019-09-08 10:29:15:945,0.0498,-0.1728,10.0322,0.0122,-0.0137,9.8066,-0.0809,-0.0168,-0.0186,-36.25,-23.31,23.88,331.93,-83.68,-150.04
12865,52.408447,-1.578501,185.13,7.91,3,98.75,28 / 29,1289421,2019-09-08 10:29:16:045,0.199,0.0427,9.9015,-0.0007,0.0015,9.8066,0.0347,-0.0112,0.0117,-36.0,-23.0,24.38,331.71,-83.74,-150.26
12866,52.408447,-1.578501,185.13,7.91,3,98.75,28 / 29,1289522,2019-09-08 10:29:16:146,-0.1075,0.1692,9.7724,0.0036,-0.0041,9.8066,-0.0192,-0.0224,-0.014,-35.94,-22.81,24.56,333.01,-83.68,-150.12
12867,52.408447,-1.578501,185.13,7.91,3,98.75,28 / 29,1289622,2019-09-08 10:29:16:246,0.2334,-0.0599,9.7114,-0.0017,-0.0045,9.8066,0.0353,-0.0075,0.0155,-35.37,-22.87,23.88,332.84,-83.72,-149.91
12868,52.408447,-1.578501,185.13,7.91,3,98.75,28 / 29,1289721,2019-09-08 10:29:16:345,0.523,0.1144,9.7641,0.001,-0.0026,9.8066,0.0272,0.0206,-0.0343,-37.81,-22.5,24.38,330.94,-83.67,-149.69
12869,52.408447,-1.578501,185.13,7.91,3,98.75,28 / 29,1289821,2019-09-08 10:29:16:445,0.1704,0.3768,9.5617,-0.005,0.0128,9.8066,0.0339,-0.0105,0.0378,-37.87,-22.37,25.63,332.56,-83.69,-150.3
12870,52.408447,-1.578501,185.13,7.91,3,98.75,26 / 27,1289922,2019-09-08 10:29:16:546,-0.2548,-0.5354,9.8883,-0.0035,0.0059,9.8066,0.0598,-0.0082,0.0292,-37.37,-22.81,25.63,332.8,-83.77,-150.71
12871,52.408447,-1.578501,185.13,7.91,3,98.75,26 / 27,1290021,2019-09-08 10:29:16:645,-0.0927,-0.0465,9.8454,0.0112,-0.0022,9.8065,-0.0628,0.0262,-0.0076,-36.31,-23.0,25.94,332.28,-83.76,-151.92
12872,52.408447,-1.578501,185.13,7.91,3,98.75,26 / 27,1290122,2019-09-08 10:29:16:746,-0.4835,-0.3738,9.9753,0.0,-0.005,9.8066,-0.0459,-0.0141,0.0191,-35.56,-22.81,25.13,331.47,-83.76,-151.6
12873,52.408447,-1.578501,185.13,7.91,3,98.75,26 / 27,1290221,2019-09-08 10:29:16:845,-0.4823,-0.2186,10.649,0.0116,-0.0048,9.8066,0.0067,0.01,-0.03,-34.81,-22.19,24.56,332.02,-83.85,-151.9
12874,52.408447,-1.578501,185.13,7.91,3,98.75,26 / 27,1290321,2019-09-08 10:29:16:945,0.2834,-0.2841,9.7163,0.0176,-0.0044,9.8066,-0.0409,-0.0213,-0.0023,-35.75,-21.94,23.13,327.58,-83.79,-153.13
12875,52.408447,-1.578501,185.13,7.91,3,98.75,26 / 27,1290421,2019-09-08 10:29:17:045,-0.3536,-0.3796,9.6233,-0.0058,0.0039,9.8066,0.0438,-0.019,-0.0004,-36.19,-22.5,22.56,327.12,-83.71,-153.54
12876,52.408447,-1.578501,185.13,7.91,3,98.75,26 / 27,1290521,2019-09-08 10:29:17:145,-0.2692,0.0787,10.2726,0.0004,-0.0056,9.8066,-0.0068,0.0071,-0.0057,-36.69,-22.31,22.63,326.25,-83.63,-153.67
12877,52.408447,-1.578501,185.13,7.91,3,98.75,26 / 27,1290621,2019-09-08 10:29:17:245,-0.1213,-0.0988,9.7194,-0.0021,0.0003,9.8066,-0.0559,-0.0228,-0.0053,-36.44,-22.31,23.25,327.26,-83.66,-153.39
12878,52.408447,-1.578501,185.13,7.91,3,98.75,26 / 27,1290721,2019-09-08 10:29:17:345,-0.4523,-0.054,9.9108,-0.0118,0.0016,9.8066,-0.0201,-0.0126,0.0082,-37.06,-23.25,24.06,328.14,-83.72,-152.95
12879,52.408447,-1.578501,185.13,7.91,3,98.75,27 / 28,1290821,2019-09-08 10:29:17:445,-0.3405,-0.3346,9.5572,-0.0069,0.0009,9.8066,0.0594,0.0415,-0.0276,-36.5,-23.12,24.13,329.28,-83.7,-152.55
12880,52.408447,-1.578501,185.13,7.91,3,98.75,27 / 28,1290922,2019-09-08 10:29:17:546,-0.4403,-0.0637,10.1767,-0.0023,-0.0063,9.8066,-0.0824,0.0024,0.0043,-35.56,-23.75,24.81,330.6,-83.64,-152.31
12881,52.408447,-1.578501,185.13,7.91,3,98.75,27 / 28,1291021,2019-09-08 10:29:17:645,-0.421,-0.3847,9.7985,-0.0035,0.0029,9.8066,-0.053,-0.0313,0.0463,-36.19,-23.69,24.88,331.09,-83.65,-151.85
12882,52.408447,-1.578501,185.13,7.91,3,98.75,27 / 28,1291122,2019-09-08 10:29:17:746,0.2092,-0.5067,9.9127,0.0101,-0.0049,9.8066,-0.0107,-0.0264,-0.0032,-36.06,-23.87,24.94,331.57,-83.65,-151.41
12883,52.408447,-1.578501,185.13,7.91,3,98.75,27 / 28,1291222,2019-09-08 10:29:17:846,-0.6863,-0.2824,9.949,0.0186,-0.0119,9.8066,-0.0502,-0.0049,0.0121,-35.62,-24.0,24.75,330.93,-83.58,-151.99
12884,52.408447,-1.578501,185.13,7.91,3,98.75,27 / 28,1291322,2019-09-08 10:29:17:946,-0.4631,-0.4241,9.7019,-0.0046,-0.006,9.8066,0.0328,0.0138,0.0162,-35.81,-23.94,24.81,330.97,-83.59,-151.96
12885,52.408447,-1.578501,185.13,7.91,3,98.75,27 / 28,1291422,2019-09-08 10:29:18:046,-0.5376,-0.0598,9.9225,0.0001,-0.004,9.8066,-0.0028,-0.0164,0.0298,-35.5,-24.5,25.06,332.26,-83.55,-151.45
12886,52.408447,-1.578501,185.13,7.91,3,98.75,27 / 28,1291522,2019-09-08 10:29:18:146,-0.4298,0.0146,9.6423,-0.0128,0.0026,9.8066,-0.0051,-0.0109,0.0161,-35.56,-23.69,24.88,332.48,-83.63,-150.54
12887,52.408447,-1.578501,185.13,7.91,3,98.75,27 / 28,1291621,2019-09-08 10:29:18:245,-0.4807,-0.9231,10.0748,-0.0128,0.0074,9.8066,0.0261,-0.0557,0.0171,-35.25,-24.06,24.44,332.72,-83.67,-149.94
12888,52.408447,-1.578501,185.13,7.91,3,98.75,27 / 28,1291722,2019-09-08 10:29:18:346,-0.5335,-0.0291,9.635,-0.0015,0.0033,9.8066,0.0213,-0.0708,0.007,-35.25,-23.19,24.31,333.09,-83.73,-149.67
12889,52.408447,-1.578501,185.13,7.91,3,98.75,28 / 29,1291821,2019-09-08 10:29:18:445,0.038,-0.0041,10.0754,0.0049,0.0046,9.8066,-0.0101,-0.0138,-0.0261,-35.5,-23.87,24.31,332.46,-83.79,-150.22
12890,52.408287,-1.577352,185.28,7.99,3,102.96,28 / 29,1291922,2019-09-08 10:29:18:546,-1.3077,-0.0653,10.1989,0.0081,-0.0013,9.8066,0.0033,-0.0256,0.0365,-35.12,-23.06,24.56,333.38,-83.84,-150.55
12891,52.408287,-1.577352,185.28,7.99,3,102.96,28 / 29,1292021,2019-09-08 10:29:18:645,-0.6937,-0.3691,9.9658,0.0167,-0.0125,9.8065,-0.0548,-0.0509,0.0253,-35.31,-23.12,24.63,332.97,-83.96,-150.97
12892,52.408287,-1.577352,185.28,7.99,3,102.96,28 / 29,1292121,2019-09-08 10:29:18:745,-0.3043,0.5552,9.6957,0.0045,0.0106,9.8066,-0.0144,0.0049,-0.0264,-35.37,-23.87,23.88,330.43,-83.94,-152.18
12893,52.408287,-1.577352,185.28,7.99,3,102.96,28 / 29,1292221,2019-09-08 10:29:18:845,-0.9008,0.2881,10.2101,0.0167,-0.0044,9.8066,-0.0499,-0.0262,-0.0511,-35.75,-23.19,23.5,328.88,-83.91,-153.0
12894,52.408287,-1.577352,185.28,7.99,3,102.96,28 / 29,1292322,2019-09-08 10:29:18:946,-0.264,0.1746,9.6377,0.0069,0.0082,9.8066,-0.0245,-0.0417,-0.0026,-37.37,-23.5,22.63,325.33,-83.96,-154.57
12895,52.408287,-1.577352,185.28,7.99,3,102.96,28 / 29,1292422,2019-09-08 10:29:19:046,-0.4571,0.0428,9.904,-0.0055,0.008,9.8066,0.0515,-0.0286,-0.0184,-38.44,-22.44,23.81,326.05,-83.93,-154.41
12896,52.408287,-1.577352,185.28,7.99,3,102.96,28 / 29,1292522,2019-09-08 10:29:19:146,-0.0633,0.1193,9.9277,0.0174,0.005,9.8065,-0.0535,-0.0243,-0.015,-38.56,-22.0,25.69,326.51,-83.95,-155.47
12897,52.408287,-1.577352,185.28,7.99,3,102.96,28 / 29,1292622,2019-09-08 10:29:19:246,-0.4988,0.4948,9.7407,-0.0094,0.0166,9.8066,0.0657,0.0073,-0.0048,-37.37,-21.94,26.13,327.28,-83.98,-156.09
12898,52.408287,-1.577352,185.28,7.99,3,102.96,28 / 29,1292721,2019-09-08 10:29:19:345,-0.0405,0.3366,10.0541,-0.0148,0.011,9.8065,0.0957,0.0,0.0024,-36.5,-21.31,27.19,328.93,-84.1,-156.38
12899,52.408287,-1.577352,185.28,7.99,3,102.96,28 / 29,1292822,2019-09-08 10:29:19:446,-0.0116,-0.3908,9.722,0.0065,-0.0037,9.8066,-0.0296,0.0217,-0.0256,-36.25,-22.31,27.06,328.71,-84.07,-156.52
12900,52.408287,-1.577352,185.28,7.99,3,102.96,28 / 29,1292921,2019-09-08 10:29:19:545,0.2231,-0.0754,9.7344,0.0027,0.0015,9.8066,0.0351,0.0154,-0.0449,-35.69,-21.75,26.5,328.41,-84.08,-156.81
12901,52.408287,-1.577352,185.28,7.99,3,102.96,28 / 29,1293022,2019-09-08 10:29:19:646,-0.4317,0.2945,9.9807,0.0059,0.0015,9.8066,-0.0126,0.0464,-0.0482,-34.62,-22.31,26.31,326.62,-84.16,-158.23
12902,52.408287,-1.577352,185.28,7.99,3,102.96,28 / 29,1293121,2019-09-08 10:29:19:745,0.1357,1.0741,10.0897,-0.0033,0.0129,9.8066,0.0521,0.0441,-0.0226,-34.25,-23.06,25.13,324.91,-84.24,-159.48
12903,52.408287,-1.577352,185.28,7.99,3,102.96,28 / 29,1293221,2019-09-08 10:29:19:845,0.0056,1.0051,9.8911,0.0198,0.0017,9.8066,-0.0393,0.0821,-0.0417,-34.81,-22.25,25.19,322.86,-84.2,-160.74
12904,52.408287,-1.577352,185.28,7.99,3,102.96,28 / 29,1293321,2019-09-08 10:29:19:945,-0.2677,1.1801,9.7972,0.0107,0.0008,9.8066,-0.0186,0.0838,-0.0235,-34.75,-21.56,24.19,319.63,-84.13,-162.69
12905,52.408287,-1.577352,185.28,7.99,3,102.96,28 / 29,1293422,2019-09-08 10:29:20:046,-0.1181,1.2204,9.5751,-0.0026,0.0036,9.8066,0.0583,0.1031,0.0208,-34.94,-21.75,24.06,318.82,-84.13,-163.47
12906,52.408287,-1.577352,185.28,7.99,3,102.96,28 / 29,1293522,2019-09-08 10:29:20:146,-0.0244,1.1586,10.1296,-0.0112,0.005,9.8066,0.0567,0.1112,0.0101,-35.56,-21.19,23.5,318.59,-84.13,-163.06
12907,52.408287,-1.577352,185.28,7.99,3,102.96,28 / 29,1293622,2019-09-08 10:29:20:246,0.293,0.9514,9.7015,0.0049,-0.0082,9.8066,-0.0142,0.1441,0.0046,-35.94,-21.69,22.94,317.79,-84.06,-162.58
12908,52.408287,-1.577352,185.28,7.99,3,102.96,28 / 29,1293722,2019-09-08 10:29:20:346,0.1949,1.4865,9.9745,-0.001,0.0041,9.8066,0.0213,0.1525,-0.0027,-36.94,-21.56,23.5,318.64,-84.05,-162.21
12909,52.408287,-1.577352,185.28,7.99,3,102.96,28 / 30,1293822,2019-09-08 10:29:20:446,0.2948,1.6351,10.0199,-0.0024,0.0017,9.8066,-0.0066,0.1824,-0.0069,-35.81,-21.87,24.0,319.6,-84.05,-161.97
12910,52.408287,-1.577352,185.28,7.99,3,102.96,28 / 30,1293921,2019-09-08 10:29:20:545,0.2577,1.4192,10.119,-0.0039,-0.0037,9.8066,0.0252,0.1947,0.0081,-36.06,-23.25,22.94,318.74,-84.05,-161.57
12911,52.408287,-1.577352,185.28,7.99,3,102.96,28 / 30,1294022,2019-09-08 10:29:20:646,0.2371,0.8867,9.7191,-0.0038,-0.001,9.8066,0.0379,0.1783,0.0195,-36.5,-22.81,22.25,318.52,-84.1,-160.62
12912,52.408287,-1.577352,185.28,7.99,3,102.96,28 / 30,1294121,2019-09-08 10:29:20:745,0.8603,1.6792,9.5372,-0.0053,0.0071,9.8066,0.0253,0.2195,-0.0065,-36.0,-23.94,22.94,319.93,-84.13,-160.37
12913,52.408287,-1.577352,185.28,7.99,3,102.96,28 / 30,1294222,2019-09-08 10:29:20:846,0.5293,1.3683,9.8972,-0.0008,-0.0049,9.8066,-0.0051,0.2313,-0.0311,-36.25,-23.81,21.75,319.25,-84.16,-159.86
12914,52.408287,-1.577352,185.28,7.99,3,102.96,28 / 30,1294321,2019-09-08 10:29:20:945,0.4773,1.2145,9.5359,-0.0063,0.0058,9.8066,0.0204,0.2505,-0.0298,-36.5,-23.75,21.06,318.01,-84.27,-159.89
12915,52.408287,-1.577352,185.28,7.99,3,102.96,28 / 30,1294422,2019-09-08 10:29:21:046,0.4635,1.5577,9.6642,-0.0064,0.013,9.8066,0.0301,0.2176,0.0053,-36.25,-23.81,20.81,317.62,-84.34,-160.29
12916,52.408287,-1.577352,185.28,7.99,3,102.96,28 / 30,1294521,2019-09-08 10:29:21:145,0.2822,1.5094,9.5597,0.0099,0.0086,9.8065,-0.036,0.1976,0.0327,-35.44,-23.87,20.56,317.85,-84.41,-160.77
12917,52.408287,-1.577352,185.28,7.99,3,102.96,28 / 30,1294621,2019-09-08 10:29:21:245,0.9435,2.0916,10.0729,-0.0148,0.0013,9.8066,0.081,0.3453,-0.1085,-36.25,-24.56,19.69,315.34,-84.45,-161.21
12918,52.408287,-1.577352,185.28,7.99,3,102.96,28 / 30,1294721,2019-09-08 10:29:21:345,0.2691,0.9119,9.64,0.009,-0.0057,9.8066,-0.0074,0.3074,-0.0551,-35.81,-24.31,19.19,311.87,-84.49,-163.4
12919,52.408287,-1.577352,185.28,7.99,3,102.96,28 / 30,1294823,2019-09-08 10:29:21:447,0.0895,1.345,9.8258,0.0033,0.007,9.8066,-0.017,0.2435,-0.0035,-36.44,-25.0,18.44,310.12,-84.48,-163.69
12920,52.408287,-1.577352,185.28,7.99,3,102.96,27 / 29,1294921,2019-09-08 10:29:21:545,0.7017,1.9533,10.1356,0.0232,0.0087,9.8065,-0.0446,0.1829,-0.0186,-36.5,-24.25,17.0,307.74,-84.47,-164.76
12921,52.408287,-1.577352,185.28,7.99,3,102.96,27 / 29,1295021,2019-09-08 10:29:21:645,1.0439,2.0112,8.9447,-0.0028,0.0071,9.8066,-0.0336,0.3473,-0.1029,-36.0,-24.5,17.44,306.86,-84.59,-165.68
