,GPS LATITUDE (degrees),GPS LONGITUDE (degrees), GPS ALTITUDE (m),GPS SPEED (Kmh),GPS ACCURACY (m),GPS ORIENTATION (Â°), SATELLITES IN RANGE, TIME SINCE START (ms), DATE (YYYY-MO-DD HH-MI-SS_SSS),ACCELEROMETER X (m/s²) , ACCELEROMETER Y (m/s²), ACCELEROMETER Z (m/s²), GRAVITY X (m/s²), GRAVITY Y (m/s²), GRAVITY Z (m/s²), GYROSCOPE Yaw (rad/s), GYROSCOPE Pitch (rad/s), GYROSCOPE Roll (rad/s)
73102,47.29579,-1.618088,91.71,28.32,5.36,130.1,16 / 23,7311397,2019-08-18 17:15:33:934,-0.8583,-0.8918,10.2061,-0.6208,-0.4012,9.7788,-0.0207,-0.0134,-0.0062
73103,47.29579,-1.618088,91.71,28.32,5.36,130.1,16 / 23,7311497,2019-08-18 17:15:34:034,-0.5746,-0.5243,9.9009,-0.603,-0.4167,9.7792,-0.0047,-0.0098,-0.0058
73104,47.29579,-1.618088,91.71,28.32,5.36,130.1,16 / 23,7311596,2019-08-18 17:15:34:133,-0.6176,-0.4238,9.8015,-0.5988,-0.4221,9.7792,-0.002,0.0022,-0.0046
73105,47.29579,-1.618088,91.71,28.32,5.36,130.1,16 / 23,7311697,2019-08-18 17:15:34:234,-0.5698,-0.5477,9.8913,-0.6036,-0.424,9.7789,0.0081,0.0067,-0.0037
73106,47.29579,-1.618088,91.71,28.32,5.36,130.1,16 / 23,7311797,2019-08-18 17:15:34:334,-0.8547,-0.5746,9.6237,-0.6169,-0.4164,9.7784,0.0135,0.0076,-0.0021
73107,47.29579,-1.618088,91.71,28.32,5.36,130.1,16 / 23,7311897,2019-08-18 17:15:34:434,-0.5787,-0.5333,9.4286,-0.6194,-0.4096,9.7785,0.0058,-0.0038,-0.0036
73108,47.29579,-1.618088,91.71,28.32,5.36,130.1,16 / 23,7311997,2019-08-18 17:15:34:534,-0.7864,-0.6069,9.6633,-0.6204,-0.4074,9.7785,0.0032,0.0019,-0.0043
73109,47.29579,-1.618088,91.71,28.32,5.36,130.1,15 / 22,7312097,2019-08-18 17:15:34:634,-0.5356,-0.7506,9.7806,-0.619,-0.4108,9.7785,-0.004,-0.0021,-0.0066
73110,47.29579,-1.618088,91.71,28.32,5.36,130.1,15 / 22,7312197,2019-08-18 17:15:34:734,-0.6147,-0.4214,9.4597,-0.6249,-0.4135,9.778,-0.0047,0.0109,-0.0058
73111,47.29579,-1.618088,91.71,28.32,5.36,130.1,15 / 22,7312297,2019-08-18 17:15:34:834,-0.5332,-0.5076,9.9607,-0.6361,-0.4176,9.7771,-0.0071,0.0038,-0.0063
73112,47.29579,-1.618088,91.71,28.32,5.36,130.1,15 / 22,7312397,2019-08-18 17:15:34:934,-0.4752,-0.6548,9.5316,-0.6398,-0.426,9.7765,0.0053,0.005,-0.0056
73113,47.29579,-1.618088,91.71,28.32,5.36,130.1,15 / 22,7312497,2019-08-18 17:15:35:034,-0.6069,-0.3579,10.2229,-0.6397,-0.4258,9.7765,-0.0008,-0.0005,-0.004
73114,47.29579,-1.618088,91.71,28.32,5.36,130.1,15 / 22,7312597,2019-08-18 17:15:35:134,-0.7858,-0.2604,9.592,-0.6375,-0.4248,9.7767,0.0019,-0.0137,-0.0028
73115,47.29579,-1.618088,91.71,28.32,5.36,130.1,15 / 22,7312697,2019-08-18 17:15:35:234,-0.2968,-0.4034,10.2845,-0.6293,-0.4232,9.7773,0.0055,-0.0022,-0.004
73116,47.29579,-1.618088,91.71,28.32,5.36,130.1,15 / 22,7312797,2019-08-18 17:15:35:334,-0.5716,-0.0748,10.175,-0.6228,-0.417,9.778,-0.0025,-0.0054,-0.0048
73117,47.29579,-1.618088,91.71,28.32,5.36,130.1,15 / 22,7312897,2019-08-18 17:15:35:434,-0.7463,-0.1466,9.6662,-0.622,-0.4192,9.7779,-0.0036,0.0124,-0.0051
73118,47.29579,-1.618088,91.71,28.32,5.36,130.1,15 / 22,7312997,2019-08-18 17:15:35:534,-0.4465,-0.4693,9.3454,-0.6271,-0.4264,9.7773,-0.0078,0.0044,-0.0045
73119,47.29579,-1.618088,91.71,28.32,5.36,130.1,14 / 22,7313096,2019-08-18 17:15:35:633,-0.4512,-0.4214,10.0882,-0.6291,-0.4285,9.7771,-0.0036,0.0023,-0.0054
73120,47.29579,-1.618088,91.71,28.32,5.36,130.1,14 / 22,7313197,2019-08-18 17:15:35:734,-0.5261,-0.7404,9.531,-0.6244,-0.4286,9.7774,0.016,-0.0013,-0.0036
73121,47.29579,-1.618088,91.71,28.32,5.36,130.1,14 / 22,7313297,2019-08-18 17:15:35:834,-0.6979,-0.4321,10.1954,-0.6245,-0.416,9.7779,0.0099,0.0062,-0.004
73122,47.29579,-1.618088,91.71,28.32,5.36,130.1,14 / 22,7313397,2019-08-18 17:15:35:934,-0.5129,-0.5387,9.9583,-0.6225,-0.4073,9.7784,0.0092,0.0043,-0.004
73123,47.29579,-1.618088,91.71,28.32,5.36,130.1,14 / 22,7313497,2019-08-18 17:15:36:034,-0.5416,-0.6309,9.9494,-0.6268,-0.4,9.7784,-0.0026,-0.0028,-0.0058
73124,47.29579,-1.618088,91.71,28.32,5.36,130.1,14 / 22,7313597,2019-08-18 17:15:36:134,-0.5799,-0.5686,10.0343,-0.6237,-0.4056,9.7784,-0.007,0.0011,-0.0074
73125,47.29579,-1.618088,91.71,28.32,5.36,130.1,14 / 22,7313697,2019-08-18 17:15:36:234,-0.6608,-0.513,10.0834,-0.626,-0.405,9.7783,0.0082,-0.0039,-0.0078
73126,47.29579,-1.618088,91.71,28.32,5.36,130.1,14 / 22,7313797,2019-08-18 17:15:36:334,-0.4351,-0.3693,10.0727,-0.6151,-0.4025,9.7791,0.0013,-0.0031,-0.0086
73127,47.29579,-1.618088,91.71,28.32,5.36,130.1,14 / 22,7313897,2019-08-18 17:15:36:434,-0.4147,-0.4974,9.841,-0.6125,-0.4076,9.779,-0.0058,-0.0071,-0.0125
73128,47.29579,-1.618088,91.71,28.32,5.36,130.1,14 / 22,7313997,2019-08-18 17:15:36:534,-0.6033,-0.6602,9.2951,-0.6026,-0.4185,9.7792,-0.0042,-0.0013,-0.0103
73129,47.29579,-1.618088,91.71,28.32,5.36,130.1,14 / 21,7314097,2019-08-18 17:15:36:634,-0.7463,-0.2616,10.0589,-0.5997,-0.4227,9.7792,-0.0096,-0.0072,-0.0103
73130,47.29579,-1.618088,91.71,28.32,5.36,130.1,14 / 21,7314197,2019-08-18 17:15:36:734,-0.547,-0.8296,9.9643,-0.5951,-0.4347,9.7789,-0.0072,0.0034,-0.0102
73131,47.29579,-1.618088,91.71,28.32,5.36,130.1,14 / 21,7314297,2019-08-18 17:15:36:834,-0.5099,-0.4573,9.8476,-0.5957,-0.4474,9.7783,0.0065,-0.0022,-0.0083
73132,47.29579,-1.618088,91.71,28.32,5.36,130.1,14 / 21,7314397,2019-08-18 17:15:36:934,-0.5488,-0.3813,9.829,-0.5856,-0.4443,9.7791,0.0014,0.0012,-0.0091
73133,47.29579,-1.618088,91.71,28.32,5.36,130.1,14 / 21,7314497,2019-08-18 17:15:37:034,-0.5117,-0.7195,9.8512,-0.5839,-0.4466,9.7791,-0.0056,-0.0076,-0.0104
73134,47.29579,-1.618088,91.71,28.32,5.36,130.1,14 / 21,7314597,2019-08-18 17:15:37:134,-0.5817,-0.5243,10.5736,-0.5739,-0.4552,9.7793,-0.0056,0.0008,-0.0099
73135,47.29579,-1.618088,91.71,28.32,5.36,130.1,14 / 21,7314697,2019-08-18 17:15:37:234,-0.4351,-0.3567,9.8865,-0.5715,-0.4593,9.7792,-0.0045,-0.0036,-0.0081
73136,47.29579,-1.618088,91.71,28.32,5.36,130.1,14 / 21,7314797,2019-08-18 17:15:37:334,-0.4465,-0.5267,10.0954,-0.557,-0.4684,9.7796,-0.0013,-0.016,-0.0121
73137,47.29579,-1.618088,91.71,28.32,5.36,130.1,14 / 21,7314897,2019-08-18 17:15:37:434,-0.3351,-0.4878,9.8751,-0.542,-0.4686,9.7804,0.0081,-0.0061,-0.0094
73138,47.29579,-1.618088,91.71,28.32,5.36,130.1,14 / 21,7314997,2019-08-18 17:15:37:534,-0.3052,-0.4214,10.2971,-0.5311,-0.4655,9.7812,-0.003,-0.0012,-0.0094
73139,47.29579,-1.618088,91.71,28.32,5.36,130.1,15 / 22,7315096,2019-08-18 17:15:37:633,-0.2597,-0.7691,9.8231,-0.532,-0.4691,9.781,-0.0062,0.0083,-0.0103
73140,47.29579,-1.618088,91.71,28.32,5.36,130.1,15 / 22,7315197,2019-08-18 17:15:37:734,-0.3944,-0.3418,9.4244,-0.5397,-0.4776,9.7801,-0.0005,0.0103,-0.0083
73141,47.29579,-1.618088,91.71,28.32,5.36,130.1,15 / 22,7315297,2019-08-18 17:15:37:834,-0.4345,-0.2532,9.8315,-0.5453,-0.472,9.7801,0.0124,0.0133,-0.0058
73142,47.29579,-1.618088,91.71,28.32,5.36,130.1,15 / 22,7315397,2019-08-18 17:15:37:934,-0.2118,-0.4842,9.8632,-0.5488,-0.4543,9.7807,0.0372,0.014,0.0001
73143,47.29579,-1.618088,91.71,28.32,5.36,130.1,15 / 22,7315497,2019-08-18 17:15:38:034,-0.4692,-0.1514,9.8273,-0.5522,-0.417,9.7822,0.0285,0.0161,0.0021
73144,47.29579,-1.618088,91.71,28.32,5.36,130.1,15 / 22,7315597,2019-08-18 17:15:38:134,-0.4572,-0.4148,9.4831,-0.5618,-0.3899,9.7828,0.0202,0.024,0.0051
73145,47.29579,-1.618088,91.71,28.32,5.36,130.1,15 / 22,7315697,2019-08-18 17:15:38:234,-0.4943,-0.0365,9.7925,-0.5868,-0.363,9.7823,0.0103,0.0196,0.0057
73146,47.29579,-1.618088,91.71,28.32,5.36,130.1,15 / 22,7315797,2019-08-18 17:15:38:334,-0.7864,0.2245,10.0373,-0.5883,-0.3559,9.7825,0.0,-0.0086,0.0005
73147,47.29579,-1.618088,91.71,28.32,5.36,130.1,15 / 22,7315897,2019-08-18 17:15:38:434,-0.3268,-0.1981,9.7201,-0.5716,-0.3431,9.784,0.0017,-0.0018,-0.0003
73148,47.29579,-1.618088,91.71,28.32,5.36,130.1,15 / 22,7315997,2019-08-18 17:15:38:534,-0.2741,-0.0934,9.4514,-0.5688,-0.3385,9.7843,-0.0057,0.0021,-0.0018
73149,47.29579,-1.618088,91.71,28.32,5.36,130.1,16 / 23,7316097,2019-08-18 17:15:38:634,-0.243,-0.3094,10.0194,-0.5663,-0.343,9.7843,-0.006,-0.0002,-0.0089
73150,47.29579,-1.618088,91.71,28.32,5.36,130.1,16 / 23,7316197,2019-08-18 17:15:38:734,-0.2226,-0.2466,9.9559,-0.5629,-0.3438,9.7844,-0.0059,-0.0043,-0.0105
73151,47.29579,-1.618088,91.71,28.32,5.36,130.1,16 / 23,7316297,2019-08-18 17:15:38:834,-0.3591,-0.3406,9.3496,-0.5472,-0.3473,9.7852,0.0011,0.0059,-0.0109
73152,47.29579,-1.618088,91.71,28.32,5.36,130.1,16 / 23,7316397,2019-08-18 17:15:38:934,-0.1484,-0.2167,9.3005,-0.5481,-0.3452,9.7852,0.0029,0.0135,-0.0092
73153,47.29579,-1.618088,91.71,28.32,5.36,130.1,16 / 23,7316497,2019-08-18 17:15:39:034,-0.2029,-0.0545,9.5417,-0.5658,-0.3402,9.7844,-0.0031,0.0168,-0.0072
73154,47.29579,-1.618088,91.71,28.32,5.36,130.1,16 / 23,7316597,2019-08-18 17:15:39:134,-0.5225,-0.6249,9.7279,-0.5691,-0.3417,9.7842,-0.0007,-0.0046,-0.0106
73155,47.29579,-1.618088,91.71,28.32,5.36,130.1,16 / 23,7316697,2019-08-18 17:15:39:234,-0.2435,-0.2664,9.9434,-0.5509,-0.3413,9.7852,0.0048,-0.0143,-0.0098
73156,47.29579,-1.618088,91.71,28.32,5.36,130.1,16 / 23,7316796,2019-08-18 17:15:39:333,-0.0604,-0.5046,10.3246,-0.5349,-0.3339,9.7864,0.0044,-0.0033,-0.0088
73157,47.29579,-1.618088,91.71,28.32,5.36,130.1,16 / 23,7316897,2019-08-18 17:15:39:434,-0.2232,0.0658,10.1205,-0.5192,-0.3298,9.7873,-0.0042,0.0,-0.0083
73158,47.29579,-1.618088,91.71,28.32,5.36,130.1,16 / 23,7316997,2019-08-18 17:15:39:534,-0.2047,-0.3819,9.7405,-0.5155,-0.3307,9.7875,-0.007,-0.0014,-0.0081
73159,47.29579,-1.618088,91.71,28.32,5.36,130.1,15 / 22,7317097,2019-08-18 17:15:39:634,0.0581,-0.1604,10.0487,-0.5008,-0.3291,9.7883,0.0017,-0.0067,-0.0088
73160,47.29579,-1.618088,91.71,28.32,5.36,130.1,15 / 22,7317198,2019-08-18 17:15:39:735,-0.0257,0.0892,10.0457,-0.4845,-0.3263,9.7892,-0.0005,-0.0235,-0.009
73161,47.29579,-1.618088,91.71,28.32,5.36,130.1,15 / 22,7317297,2019-08-18 17:15:39:834,-0.1304,-0.3603,9.6435,-0.4496,-0.3216,9.7911,-0.0001,-0.0087,-0.0077
73162,47.29579,-1.618088,91.71,28.32,5.36,130.1,15 / 22,7317397,2019-08-18 17:15:39:934,-0.3513,0.2945,10.2319,-0.4415,-0.3241,9.7913,0.0023,-0.0055,-0.0094
73163,47.29579,-1.618088,91.71,28.32,5.36,130.1,15 / 22,7317497,2019-08-18 17:15:40:034,-0.1029,-0.3406,9.7872,-0.4197,-0.3125,9.7927,0.012,-0.0063,-0.0081
73164,47.29579,-1.618088,91.71,28.32,5.36,130.1,15 / 22,7317597,2019-08-18 17:15:40:134,0.0102,-0.0647,9.7752,-0.4108,-0.3054,9.7933,0.0057,-0.004,-0.0044
73165,47.29579,-1.618088,91.71,28.32,5.36,130.1,15 / 22,7317697,2019-08-18 17:15:40:234,0.0096,0.1891,9.7542,-0.4031,-0.2959,9.7939,-0.0024,0.0106,-0.0053
73166,47.29579,-1.618088,91.71,28.32,5.36,130.1,15 / 22,7317797,2019-08-18 17:15:40:334,-0.1813,0.17,9.9847,-0.4047,-0.2934,9.7939,-0.0011,0.0046,-0.004
73167,47.29579,-1.618088,91.71,28.32,5.36,130.1,15 / 22,7317897,2019-08-18 17:15:40:434,-0.2813,0.2281,10.0966,-0.3942,-0.288,9.7945,-0.0031,-0.0093,0.0023
73168,47.29579,-1.618088,91.71,28.32,5.36,130.1,15 / 22,7317997,2019-08-18 17:15:40:534,0.0593,0.0886,10.2953,-0.3874,-0.2846,9.7949,-0.0096,-0.0117,0.0029
73169,47.29579,-1.618088,91.71,28.32,5.36,130.1,15 / 22,7318097,2019-08-18 17:15:40:634,-0.7529,0.1969,9.7123,-0.3812,-0.2777,9.7953,-0.0097,0.0083,0.0069
73170,47.294235,-1.615573,99.03,28.77,10.72,132.8,13 / 21,7318197,2019-08-18 17:15:40:734,-0.3764,0.1664,9.44,-0.3844,-0.2814,9.7951,-0.0169,0.0095,0.006
73171,47.294235,-1.615573,99.03,28.77,10.72,132.8,13 / 21,7318297,2019-08-18 17:15:40:834,-0.0029,0.3897,9.6315,-0.3943,-0.2834,9.7946,-0.0129,0.005,0.009
73172,47.294235,-1.615573,99.03,28.77,10.72,132.8,13 / 21,7318398,2019-08-18 17:15:40:935,-0.4794,-0.0694,10.0547,-0.4006,-0.2776,9.7945,-0.007,0.0076,0.0092
73173,47.294235,-1.615573,99.03,28.77,10.72,132.8,13 / 21,7318497,2019-08-18 17:15:41:034,-0.5871,0.2364,10.3037,-0.4019,-0.2747,9.7946,-0.0074,-0.0078,0.0088
73174,47.294235,-1.615573,99.03,28.77,10.72,132.8,13 / 21,7318597,2019-08-18 17:15:41:134,-0.6254,0.1987,10.1145,-0.3949,-0.2644,9.7951,-0.0024,-0.0098,0.0095
73175,47.294235,-1.615573,99.03,28.77,10.72,132.8,13 / 21,7318697,2019-08-18 17:15:41:234,-0.4692,0.3615,10.1858,-0.3922,-0.2578,9.7954,-0.0128,-0.0104,0.0092
73176,47.294235,-1.615573,99.03,28.77,10.72,132.8,13 / 21,7318797,2019-08-18 17:15:41:334,-0.3908,-0.0443,10.0792,-0.3898,-0.2598,9.7955,-0.0117,0.0022,0.0093
73177,47.294235,-1.615573,99.03,28.77,10.72,132.8,13 / 21,7318897,2019-08-18 17:15:41:434,-0.4477,0.2215,10.1176,-0.3934,-0.2603,9.7953,0.0013,0.0018,0.0092
73178,47.294235,-1.615573,99.03,28.77,10.72,132.8,13 / 21,7318997,2019-08-18 17:15:41:534,-0.6152,0.0174,10.0649,-0.4009,-0.2467,9.7953,-0.004,-0.0133,0.011
73179,47.294235,-1.615573,99.03,28.77,10.72,132.8,14 / 21,7319097,2019-08-18 17:15:41:634,-0.4387,0.1413,9.9925,-0.4019,-0.2396,9.7955,-0.0019,-0.0006,0.0087
73180,47.294235,-1.615573,99.03,28.77,10.72,132.8,14 / 21,7319197,2019-08-18 17:15:41:734,-0.5518,0.0772,9.3771,-0.3961,-0.2342,9.7958,0.0021,0.0069,0.0106
73181,47.294235,-1.615573,99.03,28.77,10.72,132.8,14 / 21,7319297,2019-08-18 17:15:41:834,-0.6141,0.0443,9.4113,-0.4033,-0.227,9.7957,-0.0018,0.0123,0.0096
73182,47.294235,-1.615573,99.03,28.77,10.72,132.8,14 / 21,7319397,2019-08-18 17:15:41:934,-0.5542,0.0784,9.4496,-0.4217,-0.2155,9.7952,0.0029,0.0094,0.0062
73183,47.294235,-1.615573,99.03,28.77,10.72,132.8,14 / 21,7319497,2019-08-18 17:15:42:034,-0.407,0.2322,10.2241,-0.4273,-0.2108,9.7951,0.0092,-0.0105,0.0023
73184,47.294235,-1.615573,99.03,28.77,10.72,132.8,14 / 21,7319597,2019-08-18 17:15:42:134,-0.4058,-0.1305,10.1744,-0.4211,-0.1977,9.7956,0.0057,0.0005,-0.0009
73185,47.294235,-1.615573,99.03,28.77,10.72,132.8,14 / 21,7319697,2019-08-18 17:15:42:234,-0.574,-0.2101,9.7357,-0.4272,-0.1952,9.7954,-0.0001,0.0053,-0.0046
73186,47.294235,-1.615573,99.03,28.77,10.72,132.8,14 / 21,7319797,2019-08-18 17:15:42:334,-1.0372,-0.6363,10.1792,-0.4459,-0.2074,9.7943,-0.0004,0.0045,-0.0086
73187,47.294235,-1.615573,99.03,28.77,10.72,132.8,14 / 21,7319897,2019-08-18 17:15:42:434,-1.2006,-0.8374,10.0727,-0.4525,-0.2127,9.7939,0.0073,0.004,-0.0085
73188,47.294235,-1.615573,99.03,28.77,10.72,132.8,14 / 21,7319997,2019-08-18 17:15:42:534,-1.0336,-0.829,9.6477,-0.4655,-0.2196,9.7931,0.0013,-0.0023,-0.0089
73189,47.294235,-1.615573,99.03,28.77,10.72,132.8,Dec-20,7320097,2019-08-18 17:15:42:634,-0.5225,-0.6159,9.6016,-0.4648,-0.2258,9.793,0.0075,-0.0159,-0.0091
73190,47.294235,-1.615573,99.03,28.77,10.72,132.8,Dec-20,7320197,2019-08-18 17:15:42:734,-0.638,-0.9487,9.8805,-0.4629,-0.2311,9.793,0.0035,0.0022,-0.0089
73191,47.294235,-1.615573,99.03,28.77,10.72,132.8,Dec-20,7320297,2019-08-18 17:15:42:834,-0.5315,-0.5549,10.1343,-0.4719,-0.2386,9.7924,-0.006,-0.0022,-0.0072
73192,47.294235,-1.615573,99.03,28.77,10.72,132.8,Dec-20,7320397,2019-08-18 17:15:42:934,-0.899,-0.3094,10.008,-0.478,-0.2545,9.7917,-0.0019,0.0046,-0.0061
73193,47.294235,-1.615573,99.03,28.77,10.72,132.8,Dec-20,7320497,2019-08-18 17:15:43:034,-0.723,-0.4052,9.6016,-0.4894,-0.2606,9.791,-0.0011,0.0054,-0.0069
73194,47.294235,-1.615573,99.03,28.77,10.72,132.8,Dec-20,7320597,2019-08-18 17:15:43:134,-0.5907,-0.6452,9.5334,-0.4921,-0.2676,9.7906,0.0031,-0.0046,-0.008
73195,47.294235,-1.615573,99.03,28.77,10.72,132.8,Dec-20,7320697,2019-08-18 17:15:43:234,-0.6165,-0.6806,9.5232,-0.4943,-0.2664,9.7906,0.0011,-0.0031,-0.0067
73196,47.294235,-1.615573,99.03,28.77,10.72,132.8,Dec-20,7320797,2019-08-18 17:15:43:334,-0.3381,-0.5154,10.014,-0.4934,-0.2726,9.7904,0.0009,0.0056,-0.0076
73197,47.294235,-1.615573,99.03,28.77,10.72,132.8,Dec-20,7320897,2019-08-18 17:15:43:434,-0.3315,-0.5662,9.7632,-0.4989,-0.2731,9.7901,0.0027,0.0059,-0.007
73198,47.294235,-1.615573,99.03,28.77,10.72,132.8,Dec-20,7320997,2019-08-18 17:15:43:534,-0.3902,-0.3136,9.6148,-0.5025,-0.2711,9.79,0.0134,0.0062,-0.0047
73199,47.294235,-1.615573,99.03,28.77,10.72,132.8,14 / 22,7321097,2019-08-18 17:15:43:634,-0.6512,-0.0832,9.8428,-0.5032,-0.2646,9.7902,0.0052,-0.0015,-0.0043
73200,47.294235,-1.615573,99.03,28.77,10.72,132.8,14 / 22,7321197,2019-08-18 17:15:43:734,-0.2334,-0.5028,9.2676,-0.5006,-0.2564,9.7905,0.0081,0.0087,-0.005
73201,47.294235,-1.615573,99.03,28.77,10.72,132.8,14 / 22,7321297,2019-08-18 17:15:43:834,-0.5811,-0.021,9.8955,-0.5032,-0.2537,9.7904,0.0027,0.0118,-0.0069
73202,47.294235,-1.615573,99.03,28.77,10.72,132.8,14 / 22,7321397,2019-08-18 17:15:43:934,-0.2998,-0.1532,9.6836,-0.5024,-0.2587,9.7904,-0.0028,-0.0056,-0.0076
73203,47.294235,-1.615573,99.03,28.77,10.72,132.8,14 / 22,7321497,2019-08-18 17:15:44:034,-0.1843,-0.1263,10.1606,-0.4986,-0.2609,9.7905,0.0026,-0.0026,-0.004
73204,47.294235,-1.615573,99.03,28.77,10.72,132.8,14 / 22,7321597,2019-08-18 17:15:44:134,-0.3692,-0.1496,9.6764,-0.494,-0.2574,9.7908,0.0045,0.0041,0.0002
73205,47.294235,-1.615573,99.03,28.77,10.72,132.8,14 / 22,7321697,2019-08-18 17:15:44:234,-0.4698,-0.0533,9.8446,-0.4966,-0.2491,9.7909,-0.001,0.0083,0.0011
73206,47.294235,-1.615573,99.03,28.77,10.72,132.8,14 / 22,7321797,2019-08-18 17:15:44:334,-0.8798,0.1413,9.5681,-0.5022,-0.2458,9.7907,0.0048,0.0091,0.0018
73207,47.294235,-1.615573,99.03,28.77,10.72,132.8,14 / 22,7321897,2019-08-18 17:15:44:434,-0.2777,0.3023,10.0278,-0.5179,-0.2386,9.7901,0.0007,0.0025,0.0014
73208,47.294235,-1.615573,99.03,28.77,10.72,132.8,14 / 22,7321997,2019-08-18 17:15:44:534,-0.711,0.2388,9.4627,-0.517,-0.237,9.7901,0.0015,-0.0033,0.0001
73209,47.294235,-1.615573,99.03,28.77,10.72,132.8,14 / 22,7322097,2019-08-18 17:15:44:634,-0.4285,-0.3112,10.0834,-0.5249,-0.2348,9.7898,-0.0014,0.009,0.0001
73210,47.294235,-1.615573,99.03,28.77,10.72,132.8,13 / 21,7322197,2019-08-18 17:15:44:734,-0.7481,-0.2502,9.9266,-0.5321,-0.2366,9.7893,-0.0074,0.0138,-0.0014
73211,47.294235,-1.615573,99.03,28.77,10.72,132.8,13 / 21,7322299,2019-08-18 17:15:44:836,-0.6015,-0.4112,10.008,-0.5416,-0.2456,9.7886,-0.0051,-0.0029,-0.0057
73212,47.294235,-1.615573,99.03,28.77,10.72,132.8,13 / 21,7322397,2019-08-18 17:15:44:934,-0.629,-0.2681,9.5088,-0.534,-0.2475,9.789,0.0044,-0.0154,-0.0068
73213,47.294235,-1.615573,99.03,28.77,10.72,132.8,13 / 21,7322497,2019-08-18 17:15:45:034,-0.55,-0.0539,9.85,-0.5152,-0.2447,9.79,0.0044,-0.0059,-0.0056
73214,47.294235,-1.615573,99.03,28.77,10.72,132.8,13 / 21,7322597,2019-08-18 17:15:45:134,-0.3764,-0.1652,9.7285,-0.5085,-0.2419,9.7905,0.0067,-0.0027,-0.0062
73215,47.294235,-1.615573,99.03,28.77,10.72,132.8,13 / 21,7322697,2019-08-18 17:15:45:234,-0.4339,-0.3017,10.1624,-0.4997,-0.2403,9.791,-0.0048,-0.0042,-0.0063
73216,47.294235,-1.615573,99.03,28.77,10.72,132.8,13 / 21,7322797,2019-08-18 17:15:45:334,-0.4644,-0.3711,10.2349,-0.4954,-0.2463,9.791,-0.0078,-0.0026,-0.0079
73217,47.294235,-1.615573,99.03,28.77,10.72,132.8,13 / 21,7322896,2019-08-18 17:15:45:433,-0.3244,-0.1526,9.8937,-0.4874,-0.2514,9.7913,-0.0017,0.0097,-0.0044
73218,47.294235,-1.615573,99.03,28.77,10.72,132.8,13 / 21,7322997,2019-08-18 17:15:45:534,-0.3082,-0.3891,9.4795,-0.4942,-0.2521,9.7909,-0.002,0.0158,-0.003
73219,47.294235,-1.615573,99.03,28.77,10.72,132.8,15 / 22,7323097,2019-08-18 17:15:45:634,-0.6183,-0.0844,9.5645,-0.5045,-0.2468,9.7906,0.0057,0.0033,-0.0023
73220,47.294235,-1.615573,99.03,28.77,10.72,132.8,15 / 22,7323197,2019-08-18 17:15:45:734,-0.641,-0.1245,9.8626,-0.5036,-0.2459,9.7906,0.0037,-0.0049,-0.0017
73221,47.294235,-1.615573,99.03,28.77,10.72,132.8,15 / 22,7323297,2019-08-18 17:15:45:834,-0.4357,-0.3843,9.6824,-0.5037,-0.2432,9.7907,-0.0048,-0.0022,-0.0045
73222,47.294235,-1.615573,99.03,28.77,10.72,132.8,15 / 22,7323397,2019-08-18 17:15:45:934,-0.9977,-0.428,10.448,-0.4996,-0.2525,9.7907,-0.0065,-0.0004,-0.004
73223,47.294235,-1.615573,99.03,28.77,10.72,132.8,15 / 22,7323497,2019-08-18 17:15:46:034,-1.0396,-0.0569,10.6018,-0.507,-0.26,9.7901,-0.0021,-0.0056,-0.0045
73224,47.294235,-1.615573,99.03,28.77,10.72,132.8,15 / 22,7323597,2019-08-18 17:15:46:134,-0.6069,-0.3621,9.9093,-0.5021,-0.2641,9.7902,-0.0021,-0.0076,-0.0033
73225,47.294235,-1.615573,99.03,28.77,10.72,132.8,15 / 22,7323697,2019-08-18 17:15:46:234,-0.6661,-0.2376,9.756,-0.4953,-0.2682,9.7905,0.0032,-0.0054,-0.0044
73226,47.294235,-1.615573,99.03,28.77,10.72,132.8,15 / 22,7323797,2019-08-18 17:15:46:334,-0.4088,-0.5046,9.7626,-0.4947,-0.2748,9.7903,-0.0052,-0.0054,-0.0067
73227,47.294235,-1.615573,99.03,28.77,10.72,132.8,15 / 22,7323897,2019-08-18 17:15:46:434,-0.7356,-0.4381,9.7488,-0.4897,-0.2886,9.7902,-0.0091,-0.004,-0.0085
73228,47.294235,-1.615573,99.03,28.77,10.72,132.8,15 / 22,7323997,2019-08-18 17:15:46:534,-0.3692,0.0024,9.5765,-0.4932,-0.2944,9.7898,-0.0062,-0.0072,-0.01
73229,47.294235,-1.615573,99.03,28.77,10.72,132.8,16 / 23,7324097,2019-08-18 17:15:46:634,-0.3124,-0.7751,9.7021,-0.4833,-0.3058,9.79,0.0077,-0.0014,-0.0072
73230,47.294235,-1.615573,99.03,28.77,10.72,132.8,16 / 23,7324197,2019-08-18 17:15:46:734,-0.4752,-0.6973,9.4113,-0.4871,-0.3041,9.7898,0.0093,0.0204,-0.0072
73231,47.294235,-1.615573,99.03,28.77,10.72,132.8,16 / 23,7324299,2019-08-18 17:15:46:836,-0.5644,-0.6117,9.3736,-0.5265,-0.3071,9.7877,0.0015,0.023,-0.0096
73232,47.294235,-1.615573,99.03,28.77,10.72,132.8,16 / 23,7324397,2019-08-18 17:15:46:934,-0.5297,-0.3932,9.2718,-0.5378,-0.311,9.787,-0.0005,0.0002,-0.0125
73233,47.294235,-1.615573,99.03,28.77,10.72,132.8,16 / 23,7324498,2019-08-18 17:15:47:035,-0.7655,-0.2933,10.1624,-0.5316,-0.3356,9.7865,-0.0075,-0.0068,-0.0129
73234,47.294235,-1.615573,99.03,28.77,10.72,132.8,16 / 23,7324597,2019-08-18 17:15:47:134,-0.4955,-0.8775,9.7883,-0.5314,-0.3406,9.7863,0.0004,-0.009,-0.0109
73235,47.294235,-1.615573,99.03,28.77,10.72,132.8,16 / 23,7324697,2019-08-18 17:15:47:234,-0.2771,-0.9272,8.7337,-0.5276,-0.3479,9.7863,-0.0163,-0.0212,-0.0083
73236,47.294235,-1.615573,99.03,28.77,10.72,132.8,16 / 23,7324797,2019-08-18 17:15:47:334,0.2389,-0.2532,11.0615,-0.5408,-0.37,9.7847,0.01,0.012,-0.0068
73237,47.294235,-1.615573,99.03,28.77,10.72,132.8,16 / 23,7324897,2019-08-18 17:15:47:434,-0.8158,-0.413,9.5866,-0.5471,-0.3619,9.7847,0.0079,0.0006,-0.0068
73238,47.294235,-1.615573,99.03,28.77,10.72,132.8,16 / 23,7324997,2019-08-18 17:15:47:534,-0.6715,-0.3448,9.5435,-0.549,-0.3611,9.7846,0.0004,-0.0085,-0.0085
73239,47.294235,-1.615573,99.03,28.77,10.72,132.8,15 / 22,7325097,2019-08-18 17:15:47:634,-0.987,-0.4142,9.58,-0.542,-0.3672,9.7848,-0.0044,-0.0101,-0.0098
73240,47.294235,-1.615573,99.03,28.77,10.72,132.8,15 / 22,7325197,2019-08-18 17:15:47:734,-0.6919,-0.6746,10.2271,-0.5255,-0.3719,9.7855,0.0028,-0.012,-0.0096
73241,47.294235,-1.615573,99.03,28.77,10.72,132.8,15 / 22,7325297,2019-08-18 17:15:47:834,-0.5153,-0.7368,9.9907,-0.5198,-0.3778,9.7856,-0.0151,-0.0138,-0.0075
73242,47.294235,-1.615573,99.03,28.77,10.72,132.8,15 / 22,7325397,2019-08-18 17:15:47:934,-0.2974,-0.8152,9.9661,-0.508,-0.4053,9.7851,-0.0182,-0.0062,-0.0122
73243,47.294235,-1.615573,99.03,28.77,10.72,132.8,15 / 22,7325497,2019-08-18 17:15:48:034,-0.6763,-0.5465,10.2624,-0.5052,-0.4166,9.7848,-0.0038,-0.0092,-0.0067
73244,47.294235,-1.615573,99.03,28.77,10.72,132.8,15 / 22,7325597,2019-08-18 17:15:48:134,-0.9121,-0.3328,9.8338,-0.4925,-0.4236,9.7851,-0.0035,-0.0113,-0.0059
73245,47.294235,-1.615573,99.03,28.77,10.72,132.8,15 / 22,7325697,2019-08-18 17:15:48:234,-0.653,-0.4088,9.8572,-0.4897,-0.4265,9.7851,0.0019,-0.0052,-0.0062
73246,47.294235,-1.615573,99.03,28.77,10.72,132.8,15 / 22,7325797,2019-08-18 17:15:48:334,-0.9181,-0.2119,9.753,-0.4913,-0.432,9.7848,-0.0019,0.0102,-0.004
73247,47.294235,-1.615573,99.03,28.77,10.72,132.8,15 / 22,7325897,2019-08-18 17:15:48:434,-0.626,-0.5441,9.7638,-0.4996,-0.4337,9.7843,0.0005,0.0106,-0.0037
73248,47.294235,-1.615573,99.03,28.77,10.72,132.8,15 / 22,7325997,2019-08-18 17:15:48:534,-0.635,-0.4621,9.6531,-0.516,-0.4399,9.7832,-0.0052,0.0057,-0.0075
73249,47.294235,-1.615573,99.03,28.77,10.72,132.8,14 / 22,7326097,2019-08-18 17:15:48:634,-0.6398,-0.4896,9.6351,-0.5256,-0.4436,9.7825,-0.0004,0.0091,-0.0064
73250,47.294235,-1.615573,99.03,28.77,10.72,132.8,14 / 22,7326197,2019-08-18 17:15:48:734,-0.6553,-0.3274,9.2263,-0.5399,-0.4467,9.7816,0.0024,0.0139,-0.006
73251,47.294235,-1.615573,99.03,28.77,10.72,132.8,14 / 22,7326297,2019-08-18 17:15:48:834,-0.7798,-0.6608,9.6471,-0.5523,-0.4456,9.7809,0.0089,0.0151,-0.0049
73252,47.294235,-1.615573,99.03,28.77,10.72,132.8,14 / 22,7326397,2019-08-18 17:15:48:934,-0.9205,-0.6351,9.8775,-0.5676,-0.4328,9.7806,0.0294,0.0096,-0.0023
73253,47.294235,-1.615573,99.03,28.77,10.72,132.8,14 / 22,7326497,2019-08-18 17:15:49:034,-0.3716,-0.5818,9.993,-0.5784,-0.4049,9.7812,0.0163,0.0113,-0.0015
73254,47.294235,-1.615573,99.03,28.77,10.72,132.8,14 / 22,7326597,2019-08-18 17:15:49:134,-0.5823,-0.4244,10.0948,-0.5928,-0.3836,9.7812,0.0046,0.0014,-0.0028
73255,47.294235,-1.615573,99.03,28.77,10.72,132.8,14 / 22,7326697,2019-08-18 17:15:49:234,-0.7062,-0.1975,10.0206,-0.5902,-0.3794,9.7815,0.0038,-0.004,-0.0033
73256,47.294235,-1.615573,99.03,28.77,10.72,132.8,14 / 22,7326797,2019-08-18 17:15:49:334,-0.6697,-0.3322,9.9326,-0.5899,-0.37,9.7819,0.0117,-0.0008,-0.0034
73257,47.294235,-1.615573,99.03,28.77,10.72,132.8,14 / 22,7326897,2019-08-18 17:15:49:434,-0.817,0.0431,9.8458,-0.5867,-0.3633,9.7823,0.0127,0.0018,-0.0021
73258,47.294235,-1.615573,99.03,28.77,10.72,132.8,14 / 22,7326997,2019-08-18 17:15:49:534,-0.319,-0.3184,9.7052,-0.5799,-0.36,9.7829,-0.0066,0.0004,-0.0019
73259,47.294235,-1.615573,99.03,28.77,10.72,132.8,15 / 23,7327097,2019-08-18 17:15:49:634,-0.571,-0.3059,9.9583,-0.5822,-0.3621,9.7827,-0.0039,0.006,-0.003
73260,47.292587,-1.613031,100.22,29.13,9.648001,134.9,15 / 23,7327197,2019-08-18 17:15:49:734,-0.4812,-0.3005,9.9344,-0.5848,-0.3572,9.7827,0.0024,-0.0055,-0.0015
73261,47.292587,-1.613031,100.22,29.13,9.648001,134.9,15 / 23,7327297,2019-08-18 17:15:49:834,-0.4429,-0.2783,10.448,-0.5774,-0.3535,9.7833,-0.0031,-0.0099,-0.0013
73262,47.292587,-1.613031,100.22,29.13,9.648001,134.9,15 / 23,7327397,2019-08-18 17:15:49:934,-0.574,-0.2825,9.993,-0.5633,-0.3512,9.7842,-0.0056,-0.0127,-0.0008
73263,47.292587,-1.613031,100.22,29.13,9.648001,134.9,15 / 23,7327497,2019-08-18 17:15:50:034,-0.471,0.0647,9.2664,-0.5542,-0.3514,9.7847,-0.0023,-0.0057,-0.0013
73264,47.292587,-1.613031,100.22,29.13,9.648001,134.9,15 / 23,7327597,2019-08-18 17:15:50:134,0.115,0.3077,9.9547,-0.5432,-0.3517,9.7853,-0.0091,0.007,-0.0024
73265,47.292587,-1.613031,100.22,29.13,9.648001,134.9,15 / 23,7327697,2019-08-18 17:15:50:234,-0.2621,-0.3262,9.947,-0.5445,-0.3567,9.785,0.001,0.0036,-0.0038
73266,47.292587,-1.613031,100.22,29.13,9.648001,134.9,15 / 23,7327797,2019-08-18 17:15:50:334,-0.319,-0.2717,10.2367,-0.5443,-0.3518,9.7852,-0.001,0.0007,-0.0035
73267,47.292587,-1.613031,100.22,29.13,9.648001,134.9,15 / 23,7327897,2019-08-18 17:15:50:434,-0.1969,-0.4106,9.5597,-0.5355,-0.349,9.7858,0.0016,-0.0086,-0.0025
73268,47.292587,-1.613031,100.22,29.13,9.648001,134.9,15 / 23,7327997,2019-08-18 17:15:50:534,0.109,-0.2286,10.0804,-0.5152,-0.3385,9.7873,0.0062,-0.0117,-0.0026
73269,47.292587,-1.613031,100.22,29.13,9.648001,134.9,17 / 23,7328097,2019-08-18 17:15:50:634,-0.6147,-0.1107,9.3329,-0.514,-0.3334,9.7875,0.0039,0.008,-0.0033
73270,47.292587,-1.613031,100.22,29.13,9.648001,134.9,17 / 23,7328198,2019-08-18 17:15:50:735,-0.7014,-0.4328,9.9529,-0.5175,-0.3357,9.7872,-0.0087,0.013,-0.0033
73271,47.292587,-1.613031,100.22,29.13,9.648001,134.9,17 / 23,7328297,2019-08-18 17:15:50:834,-0.6165,-0.6746,9.7333,-0.5329,-0.346,9.786,-0.0056,0.009,-0.0076
73272,47.292587,-1.613031,100.22,29.13,9.648001,134.9,17 / 23,7328398,2019-08-18 17:15:50:935,-0.3854,-0.6159,9.6441,-0.5343,-0.3536,9.7857,-0.0103,0.0023,-0.0102
73273,47.292587,-1.613031,100.22,29.13,9.648001,134.9,17 / 23,7328497,2019-08-18 17:15:51:034,-0.5458,-0.3274,9.7052,-0.5326,-0.3735,9.7851,-0.017,0.002,-0.0115
73274,47.292587,-1.613031,100.22,29.13,9.648001,134.9,17 / 23,7328598,2019-08-18 17:15:51:135,-0.6236,-0.6722,10.0086,-0.5343,-0.387,9.7844,-0.0117,-0.009,-0.0097
73275,47.292587,-1.613031,100.22,29.13,9.648001,134.9,17 / 23,7328697,2019-08-18 17:15:51:234,-0.3758,-0.5172,9.5777,-0.5209,-0.4034,9.7845,-0.0096,-0.0151,-0.0091
73276,47.292587,-1.613031,100.22,29.13,9.648001,134.9,17 / 23,7328797,2019-08-18 17:15:51:334,-0.4093,-0.4447,9.5322,-0.5072,-0.4156,9.7847,-0.0033,-0.0078,-0.0081
73277,47.292587,-1.613031,100.22,29.13,9.648001,134.9,17 / 23,7328897,2019-08-18 17:15:51:434,-0.4836,-0.5333,10.4378,-0.4997,-0.424,9.7847,-0.0047,-0.0042,-0.0064
73278,47.292587,-1.613031,100.22,29.13,9.648001,134.9,17 / 23,7328997,2019-08-18 17:15:51:534,-0.4794,-0.8362,10.111,-0.5023,-0.4257,9.7845,0.0012,0.0066,-0.0065
73279,47.292587,-1.613031,100.22,29.13,9.648001,134.9,17 / 23,7329097,2019-08-18 17:15:51:634,-0.4818,-0.492,9.7381,-0.5101,-0.4246,9.7842,0.0039,0.0047,-0.0084
73280,47.292587,-1.613031,100.22,29.13,9.648001,134.9,17 / 23,7329197,2019-08-18 17:15:51:734,-0.2388,-0.4022,9.1168,-0.5131,-0.4232,9.7841,-0.0014,0.0048,-0.0084
73281,47.292587,-1.613031,100.22,29.13,9.648001,134.9,17 / 23,7329297,2019-08-18 17:15:51:834,-0.562,-0.4088,9.5585,-0.5161,-0.4235,9.7839,0.0197,0.0119,-0.0062
73282,47.292587,-1.613031,100.22,29.13,9.648001,134.9,17 / 23,7329397,2019-08-18 17:15:51:934,-0.4794,-0.3879,9.9553,-0.5221,-0.4138,9.784,0.0194,0.0101,-0.008
73283,47.292587,-1.613031,100.22,29.13,9.648001,134.9,17 / 23,7329498,2019-08-18 17:15:52:035,-0.4465,-0.8559,10.0792,-0.5311,-0.3938,9.7843,0.01,0.0015,-0.0087
73284,47.292587,-1.613031,100.22,29.13,9.648001,134.9,17 / 23,7329597,2019-08-18 17:15:52:134,-0.5871,-0.2855,10.0098,-0.5305,-0.3897,9.7845,0.009,-0.0063,-0.0076
73285,47.292587,-1.613031,100.22,29.13,9.648001,134.9,17 / 23,7329697,2019-08-18 17:15:52:234,-0.4632,-0.6865,10.008,-0.525,-0.3844,9.785,0.004,-0.0004,-0.0084
73286,47.292587,-1.613031,100.22,29.13,9.648001,134.9,17 / 23,7329797,2019-08-18 17:15:52:334,-0.8505,-0.4812,10.0331,-0.522,-0.3848,9.7852,-0.0001,-0.0096,-0.0101
73287,47.292587,-1.613031,100.22,29.13,9.648001,134.9,17 / 23,7329897,2019-08-18 17:15:52:434,-0.5075,-0.3322,9.507,-0.5114,-0.3931,9.7854,-0.0074,-0.0033,-0.0104
73288,47.292587,-1.613031,100.22,29.13,9.648001,134.9,17 / 23,7329997,2019-08-18 17:15:52:534,-0.2675,-0.4627,9.9972,-0.5082,-0.4036,9.7852,-0.0173,-0.0046,-0.0112
73289,47.292587,-1.613031,100.22,29.13,9.648001,134.9,17 / 23,7330096,2019-08-18 17:15:52:633,-0.5901,-0.5435,10.0643,-0.5088,-0.4277,9.7841,-0.0114,0.0042,-0.0102
73290,47.292587,-1.613031,100.22,29.13,9.648001,134.9,17 / 23,7330197,2019-08-18 17:15:52:734,-0.6033,-0.5393,9.6956,-0.5068,-0.4373,9.7838,0.0023,0.0023,-0.0105
73291,47.292587,-1.613031,100.22,29.13,9.648001,134.9,17 / 23,7330298,2019-08-18 17:15:52:835,-0.6302,-0.6638,10.2235,-0.5117,-0.4379,9.7835,0.0108,-0.004,-0.0126
73292,47.292587,-1.613031,100.22,29.13,9.648001,134.9,17 / 23,7330397,2019-08-18 17:15:52:934,-0.6607,-0.6015,9.7901,-0.4981,-0.4383,9.7842,0.0063,-0.0204,-0.0149
73293,47.292587,-1.613031,100.22,29.13,9.648001,134.9,17 / 23,7330497,2019-08-18 17:15:53:034,-0.4447,-0.4944,9.6543,-0.4867,-0.449,9.7843,-0.0069,-0.004,-0.0172
73294,47.292587,-1.613031,100.22,29.13,9.648001,134.9,17 / 23,7330597,2019-08-18 17:15:53:134,-0.9163,-0.8715,9.744,-0.4869,-0.4677,9.7834,-0.0024,0.0154,-0.0125
73295,47.292587,-1.613031,100.22,29.13,9.648001,134.9,17 / 23,7330697,2019-08-18 17:15:53:234,-0.8014,-0.8589,9.6854,-0.5054,-0.4735,9.7822,0.0028,0.0131,-0.0121
73296,47.292587,-1.613031,100.22,29.13,9.648001,134.9,17 / 23,7330797,2019-08-18 17:15:53:334,-0.5446,-0.5644,9.2999,-0.5137,-0.4781,9.7815,-0.0101,0.0181,-0.0149
73297,47.292587,-1.613031,100.22,29.13,9.648001,134.9,17 / 23,7330897,2019-08-18 17:15:53:434,-0.2394,-0.7733,9.1204,-0.5264,-0.4948,9.78,0.0069,0.0085,-0.0148
73298,47.292587,-1.613031,100.22,29.13,9.648001,134.9,17 / 23,7330997,2019-08-18 17:15:53:534,-0.2142,-0.6985,9.276,-0.5307,-0.4943,9.7798,0.007,0.0122,-0.0134
73299,47.292587,-1.613031,100.22,29.13,9.648001,134.9,17 / 24,7331097,2019-08-18 17:15:53:634,-0.5153,-0.7225,10.3019,-0.5444,-0.4926,9.7791,0.0045,0.0082,-0.0131
73300,47.292587,-1.613031,100.22,29.13,9.648001,134.9,17 / 24,7331197,2019-08-18 17:15:53:734,-0.2992,-1.0187,10.4473,-0.5478,-0.4951,9.7788,0.0031,0.0017,-0.0144
73301,47.292587,-1.613031,100.22,29.13,9.648001,134.9,17 / 24,7331297,2019-08-18 17:15:53:834,-0.5506,-0.4214,10.2588,-0.5402,-0.4907,9.7795,0.0131,-0.0018,-0.0121
73302,47.292587,-1.613031,100.22,29.13,9.648001,134.9,17 / 24,7331397,2019-08-18 17:15:53:934,-0.474,-0.5303,10.0834,-0.541,-0.4867,9.7796,0.0124,0.0031,-0.0104
73303,47.292587,-1.613031,100.22,29.13,9.648001,134.9,17 / 24,7331497,2019-08-18 17:15:54:034,-0.4698,-0.6446,10.1235,-0.5462,-0.4736,9.78,0.0059,0.0005,-0.0108
73304,47.292587,-1.613031,100.22,29.13,9.648001,134.9,17 / 24,7331597,2019-08-18 17:15:54:134,-0.5997,-0.4776,9.9685,-0.5432,-0.4737,9.7801,0.0133,-0.0067,-0.0094
73305,47.292587,-1.613031,100.22,29.13,9.648001,134.9,17 / 24,7331697,2019-08-18 17:15:54:234,-0.7056,-0.7428,10.3486,-0.5422,-0.4645,9.7806,0.007,0.0059,-0.0103
73306,47.292587,-1.613031,100.22,29.13,9.648001,134.9,17 / 24,7331797,2019-08-18 17:15:54:334,-0.5913,-0.3627,9.4957,-0.5501,-0.4596,9.7804,-0.0002,0.0074,-0.0129
73307,47.292587,-1.613031,100.22,29.13,9.648001,134.9,17 / 24,7331897,2019-08-18 17:15:54:434,-0.407,-0.4357,9.5483,-0.5579,-0.4636,9.7798,-0.0041,0.0005,-0.0135
73308,47.292587,-1.613031,100.22,29.13,9.648001,134.9,17 / 24,7331997,2019-08-18 17:15:54:534,-0.6925,-0.6961,10.0535,-0.5593,-0.4693,9.7794,-0.001,0.007,-0.0129
73309,47.292587,-1.613031,100.22,29.13,9.648001,134.9,17 / 24,7332097,2019-08-18 17:15:54:634,-0.6799,-0.6578,9.6327,-0.5638,-0.4708,9.7791,0.0098,0.0001,-0.012
73310,47.292587,-1.613031,100.22,29.13,9.648001,134.9,17 / 24,7332197,2019-08-18 17:15:54:734,-0.5871,-0.3891,8.9025,-0.5516,-0.4641,9.7801,0.0098,-0.0312,-0.0095
73311,47.292587,-1.613031,100.22,29.13,9.648001,134.9,17 / 24,7332297,2019-08-18 17:15:54:834,-2.5994,-2.1081,9.4986,-0.5579,-0.4571,9.7801,0.0069,0.061,-0.0104
73312,47.292587,-1.613031,100.22,29.13,9.648001,134.9,17 / 24,7332397,2019-08-18 17:15:54:934,-0.5506,-0.5854,11.2261,-0.5566,-0.4659,9.7798,-0.0005,-0.038,-0.0135
73313,47.292587,-1.613031,100.22,29.13,9.648001,134.9,17 / 24,7332497,2019-08-18 17:15:55:034,-0.4129,-0.2412,9.9745,-0.5223,-0.4689,9.7815,-0.0033,-0.0241,-0.0108
73314,47.292587,-1.613031,100.22,29.13,9.648001,134.9,17 / 24,7332597,2019-08-18 17:15:55:134,-0.4584,-0.325,10.0523,-0.5202,-0.4729,9.7814,-0.0101,0.0002,-0.0094
73315,47.292587,-1.613031,100.22,29.13,9.648001,134.9,17 / 24,7332697,2019-08-18 17:15:55:234,-0.9121,-0.7308,8.9528,-0.5288,-0.4948,9.7799,-0.0182,0.0001,-0.0091
73316,47.292587,-1.613031,100.22,29.13,9.648001,134.9,17 / 24,7332797,2019-08-18 17:15:55:334,-0.6805,-0.4747,9.3412,-0.5273,-0.5071,9.7793,-0.0156,-0.0108,-0.0101
73317,47.292587,-1.613031,100.22,29.13,9.648001,134.9,17 / 24,7332897,2019-08-18 17:15:55:434,-0.6236,-0.4974,9.8889,-0.5249,-0.5136,9.7791,-0.0114,-0.0055,-0.0093
73318,47.292587,-1.613031,100.22,29.13,9.648001,134.9,17 / 24,7332997,2019-08-18 17:15:55:534,-0.4034,-0.6853,9.3047,-0.5259,-0.5368,9.7778,-0.0159,0.011,-0.0066
73319,47.292587,-1.613031,100.22,29.13,9.648001,134.9,17 / 24,7333097,2019-08-18 17:15:55:634,-0.4483,-0.671,9.2945,-0.537,-0.5488,9.7765,-0.0081,0.0036,-0.0068
73320,47.292587,-1.613031,100.22,29.13,9.648001,134.9,17 / 24,7333197,2019-08-18 17:15:55:734,-0.6871,-0.498,9.3017,-0.5458,-0.5581,9.7755,0.0023,0.0067,-0.0083
73321,47.292587,-1.613031,100.22,29.13,9.648001,134.9,17 / 24,7333297,2019-08-18 17:15:55:834,-0.486,-0.5578,9.8201,-0.549,-0.5588,9.7753,0.0048,-0.0033,-0.009
73322,47.292587,-1.613031,100.22,29.13,9.648001,134.9,17 / 24,7333397,2019-08-18 17:15:55:934,-0.295,-0.674,9.9308,-0.5479,-0.5535,9.7757,0.0114,0.0104,-0.0081
73323,47.292587,-1.613031,100.22,29.13,9.648001,134.9,17 / 24,7333497,2019-08-18 17:15:56:034,-0.5488,-0.6548,10.2654,-0.5551,-0.5486,9.7755,0.0091,0.0035,-0.0069
73324,47.292587,-1.613031,100.22,29.13,9.648001,134.9,17 / 24,7333597,2019-08-18 17:15:56:134,-0.5979,-0.562,9.9218,-0.5514,-0.5394,9.7763,0.0085,0.0021,-0.0132
73325,47.292587,-1.613031,100.22,29.13,9.648001,134.9,17 / 24,7333697,2019-08-18 17:15:56:234,-0.5764,-0.6363,9.6543,-0.5501,-0.5385,9.7764,0.0032,-0.0011,-0.0145
73326,47.292587,-1.613031,100.22,29.13,9.648001,134.9,17 / 24,7333797,2019-08-18 17:15:56:334,-0.3782,-0.5806,9.446,-0.5486,-0.5465,9.776,-0.0014,0.0047,-0.0178
73327,47.292587,-1.613031,100.22,29.13,9.648001,134.9,17 / 24,7333897,2019-08-18 17:15:56:434,-0.3603,-0.9541,9.7967,-0.5505,-0.5496,9.7757,0.0024,0.0036,-0.0159
73328,47.292587,-1.613031,100.22,29.13,9.648001,134.9,17 / 24,7333997,2019-08-18 17:15:56:534,-0.5566,-0.5465,10.4288,-0.5502,-0.5532,9.7756,0.0099,-0.0075,-0.0135
73329,47.292587,-1.613031,100.22,29.13,9.648001,134.9,17 / 24,7334097,2019-08-18 17:15:56:634,-0.4207,-0.6901,10.1595,-0.5461,-0.5498,9.776,0.0059,-0.0073,-0.013
73330,47.292587,-1.613031,100.22,29.13,9.648001,134.9,17 / 24,7334197,2019-08-18 17:15:56:734,-0.5476,-0.4028,9.6932,-0.5418,-0.5503,9.7762,-0.0003,0.0045,-0.0133
73331,47.292587,-1.613031,100.22,29.13,9.648001,134.9,17 / 24,7334297,2019-08-18 17:15:56:834,-0.711,-0.4399,9.2365,-0.5415,-0.5566,9.7759,-0.006,0.0095,-0.0139
73332,47.292587,-1.613031,100.22,29.13,9.648001,134.9,17 / 24,7334397,2019-08-18 17:15:56:934,-0.3447,-0.8062,9.6225,-0.5505,-0.5676,9.7747,-0.001,0.0104,-0.0156
73333,47.292587,-1.613031,100.22,29.13,9.648001,134.9,17 / 24,7334497,2019-08-18 17:15:57:034,-0.4225,-0.6393,9.7961,-0.5523,-0.5705,9.7744,-0.0011,0.004,-0.0145
73334,47.292587,-1.613031,100.22,29.13,9.648001,134.9,17 / 24,7334596,2019-08-18 17:15:57:133,-0.3944,-0.9637,9.6219,-0.5543,-0.5823,9.7736,-0.0011,0.0063,-0.0141
73335,47.292587,-1.613031,100.22,29.13,9.648001,134.9,17 / 24,7334696,2019-08-18 17:15:57:233,-0.565,-0.908,9.4639,-0.5574,-0.5841,9.7734,0.0033,0.0032,-0.014
73336,47.292587,-1.613031,100.22,29.13,9.648001,134.9,17 / 24,7334798,2019-08-18 17:15:57:335,-0.6446,-0.8721,9.6255,-0.5607,-0.5835,9.7732,0.0074,0.0081,-0.0115
73337,47.292587,-1.613031,100.22,29.13,9.648001,134.9,17 / 24,7334897,2019-08-18 17:15:57:434,-0.8014,-0.5746,10.5012,-0.5635,-0.5805,9.7732,0.0054,-0.0014,-0.0093
73338,47.292587,-1.613031,100.22,29.13,9.648001,134.9,17 / 24,7334997,2019-08-18 17:15:57:534,-0.7433,-0.6393,10.2654,-0.5499,-0.5786,9.7741,0.0048,-0.0113,-0.0098
73339,47.292587,-1.613031,100.22,29.13,9.648001,134.9,17 / 24,7335096,2019-08-18 17:15:57:633,-0.6069,-0.3466,9.8626,-0.5456,-0.573,9.7747,0.0008,-0.0103,-0.0087
73340,47.292587,-1.613031,100.22,29.13,9.648001,134.9,17 / 24,7335196,2019-08-18 17:15:57:733,-0.7098,-0.161,9.7937,-0.5414,-0.5723,9.775,-0.0069,-0.0035,-0.0085
73341,47.292587,-1.613031,100.22,29.13,9.648001,134.9,17 / 24,7335297,2019-08-18 17:15:57:834,-0.5285,-0.6841,10.2456,-0.5382,-0.5778,9.7748,0.0113,0.0001,-0.0049
73342,47.292587,-1.613031,100.22,29.13,9.648001,134.9,17 / 24,7335397,2019-08-18 17:15:57:934,-0.6721,-0.4106,9.8326,-0.5373,-0.5644,9.7756,0.0057,-0.0038,-0.0049
73343,47.292587,-1.613031,100.22,29.13,9.648001,134.9,17 / 24,7335497,2019-08-18 17:15:58:034,-0.629,-0.4082,9.9446,-0.5355,-0.5625,9.7759,0.0039,0.0018,-0.0062
73344,47.292587,-1.613031,100.22,29.13,9.648001,134.9,17 / 24,7335597,2019-08-18 17:15:58:134,-0.5003,-0.3047,9.2042,-0.5357,-0.5554,9.7762,0.0019,0.0024,-0.0051
73345,47.292587,-1.613031,100.22,29.13,9.648001,134.9,17 / 24,7335697,2019-08-18 17:15:58:234,-0.4261,-0.3944,9.3646,-0.5346,-0.5523,9.7765,0.0049,0.0046,-0.0049
73346,47.292587,-1.613031,100.22,29.13,9.648001,134.9,17 / 24,7335798,2019-08-18 17:15:58:335,-0.3579,-0.2837,10.3797,-0.53,-0.5441,9.7772,0.0015,0.0033,-0.0064
73347,47.292587,-1.613031,100.22,29.13,9.648001,134.9,17 / 24,7335897,2019-08-18 17:15:58:434,-0.3579,-0.4651,9.6537,-0.5313,-0.5378,9.7775,-0.0007,0.0014,-0.0076
73348,47.292587,-1.613031,100.22,29.13,9.648001,134.9,17 / 24,7335997,2019-08-18 17:15:58:534,-0.2807,-0.1568,9.5729,-0.5244,-0.5371,9.7779,-0.0056,0.006,-0.0081
73349,47.292587,-1.613031,100.22,29.13,9.648001,134.9,17 / 24,7336097,2019-08-18 17:15:58:634,-0.3938,-0.2029,9.2113,-0.5236,-0.5405,9.7777,-0.0148,0.0051,-0.0124
73350,47.29084,-1.610711,102.87,28.51,3.216,139.8,17 / 24,7336197,2019-08-18 17:15:58:734,-0.0556,-0.665,9.7141,-0.5178,-0.5531,9.7773,-0.001,0.0019,-0.0116
73351,47.29084,-1.610711,102.87,28.51,3.216,139.8,17 / 24,7336297,2019-08-18 17:15:58:834,-0.2418,-0.6776,10.1517,-0.5159,-0.5505,9.7776,-0.0005,-0.0077,-0.0122
73352,47.29084,-1.610711,102.87,28.51,3.216,139.8,17 / 24,7336397,2019-08-18 17:15:58:934,-0.4626,-0.4681,10.2678,-0.4951,-0.5454,9.7789,-0.0002,-0.0049,-0.0107
73353,47.29084,-1.610711,102.87,28.51,3.216,139.8,17 / 24,7336497,2019-08-18 17:15:59:034,-0.1867,-0.4872,9.7351,-0.4911,-0.5429,9.7793,0.0013,-0.0009,-0.0111
73354,47.29084,-1.610711,102.87,28.51,3.216,139.8,17 / 24,7336598,2019-08-18 17:15:59:135,-0.7032,-0.8511,9.4388,-0.4718,-0.5394,9.7804,-0.0051,-0.0117,-0.0149
73355,47.29084,-1.610711,102.87,28.51,3.216,139.8,17 / 24,7336697,2019-08-18 17:15:59:234,-0.1322,-0.8781,9.7728,-0.4621,-0.5409,9.7808,0.0031,0.0043,-0.0127
73356,47.29084,-1.610711,102.87,28.51,3.216,139.8,17 / 24,7336797,2019-08-18 17:15:59:334,-0.0191,-0.3274,9.6716,-0.4582,-0.53,9.7816,0.0096,0.0103,-0.0104
73357,47.29084,-1.610711,102.87,28.51,3.216,139.8,17 / 24,7336897,2019-08-18 17:15:59:434,-0.2711,-0.5351,10.2073,-0.4577,-0.5233,9.782,0.0093,0.0045,-0.0108
73358,47.29084,-1.610711,102.87,28.51,3.216,139.8,17 / 24,7336997,2019-08-18 17:15:59:534,-0.4159,-0.5327,10.0176,-0.4576,-0.5112,9.7826,0.0178,0.0026,-0.0118
73359,47.29084,-1.610711,102.87,28.51,3.216,139.8,17 / 24,7337097,2019-08-18 17:15:59:634,-0.5207,-0.2837,9.8428,-0.4591,-0.4985,9.7832,0.012,0.0086,-0.0112
73360,47.29084,-1.610711,102.87,28.51,3.216,139.8,17 / 24,7337197,2019-08-18 17:15:59:734,-0.3908,-0.3268,9.4436,-0.4661,-0.5016,9.7827,-0.0053,0.0014,-0.0145
73361,47.29084,-1.610711,102.87,28.51,3.216,139.8,17 / 24,7337297,2019-08-18 17:15:59:834,-0.5476,-0.92,9.9164,-0.4662,-0.511,9.7822,-0.0059,0.0,-0.0162
73362,47.29084,-1.610711,102.87,28.51,3.216,139.8,17 / 24,7337397,2019-08-18 17:15:59:934,-0.5123,-0.9044,9.4508,-0.4744,-0.5205,9.7813,0.0026,0.0067,-0.0155
73363,47.29084,-1.610711,102.87,28.51,3.216,139.8,17 / 24,7337496,2019-08-18 17:16:00:033,-0.5171,-0.8607,9.9727,-0.4766,-0.5205,9.7812,0.0052,-0.0006,-0.0169
73364,47.29084,-1.610711,102.87,28.51,3.216,139.8,17 / 24,7337597,2019-08-18 17:16:00:134,-0.5332,-0.9086,9.5405,-0.4717,-0.5254,9.7812,-0.0065,-0.0104,-0.0155
73365,47.29084,-1.610711,102.87,28.51,3.216,139.8,17 / 24,7337697,2019-08-18 17:16:00:234,-0.6033,-0.6021,9.9697,-0.4675,-0.5328,9.781,-0.0083,-0.0004,-0.0144
73366,47.29084,-1.610711,102.87,28.51,3.216,139.8,17 / 24,7337797,2019-08-18 17:16:00:334,-0.4363,-0.732,9.6453,-0.4678,-0.5457,9.7803,-0.0033,0.0013,-0.0144
73367,47.29084,-1.610711,102.87,28.51,3.216,139.8,17 / 24,7337897,2019-08-18 17:16:00:434,-0.6661,-0.9224,10.0715,-0.4707,-0.5507,9.7799,-0.0055,-0.0014,-0.0149
73368,47.29084,-1.610711,102.87,28.51,3.216,139.8,17 / 24,7337998,2019-08-18 17:16:00:535,-0.3842,-0.3849,9.6692,-0.4652,-0.5583,9.7797,0.0043,-0.0038,-0.0156
73369,47.29084,-1.610711,102.87,28.51,3.216,139.8,17 / 24,7338096,2019-08-18 17:16:00:633,-0.4291,-0.5686,9.5621,-0.4611,-0.5607,9.7797,0.0004,-0.0029,-0.0162
73370,47.29084,-1.610711,102.87,28.51,3.216,139.8,17 / 24,7338196,2019-08-18 17:16:00:733,-0.319,-0.5453,9.5992,-0.459,-0.5627,9.7797,-0.004,0.003,-0.0158
73371,47.29084,-1.610711,102.87,28.51,3.216,139.8,17 / 24,7338297,2019-08-18 17:16:00:834,-0.398,-0.7596,9.501,-0.4622,-0.5682,9.7793,-0.0007,0.0064,-0.0149
73372,47.29084,-1.610711,102.87,28.51,3.216,139.8,17 / 24,7338397,2019-08-18 17:16:00:934,-0.4273,-0.4136,9.8787,-0.4644,-0.5735,9.7788,-0.0053,-0.0012,-0.0151
73373,47.29084,-1.610711,102.87,28.51,3.216,139.8,17 / 24,7338497,2019-08-18 17:16:01:034,-0.4123,-0.4693,10.0194,-0.4584,-0.5819,9.7786,0.0,-0.0004,-0.0154
73374,47.29084,-1.610711,102.87,28.51,3.216,139.8,17 / 24,7338597,2019-08-18 17:16:01:134,-0.5368,-0.4884,9.9021,-0.4572,-0.5779,9.7789,0.0014,0.0046,-0.0146
73375,47.29084,-1.610711,102.87,28.51,3.216,139.8,17 / 24,7338699,2019-08-18 17:16:01:236,-0.158,-0.5932,10.1193,-0.4508,-0.5798,9.7791,-0.0047,0.003,-0.0154
73376,47.29084,-1.610711,102.87,28.51,3.216,139.8,17 / 24,7338798,2019-08-18 17:16:01:335,0.1186,-0.7416,10.4946,-0.4531,-0.5816,9.7789,0.0073,-0.0049,-0.0148
73377,47.29084,-1.610711,102.87,28.51,3.216,139.8,17 / 24,7338897,2019-08-18 17:16:01:434,-0.2938,-0.5387,10.3079,-0.4378,-0.5743,9.78,0.0091,-0.007,-0.0149
73378,47.29084,-1.610711,102.87,28.51,3.216,139.8,17 / 24,7338997,2019-08-18 17:16:01:534,-0.2214,-0.6782,9.7608,-0.4339,-0.5698,9.7805,0.0069,-0.0035,-0.0125
73379,47.29084,-1.610711,102.87,28.51,3.216,139.8,17 / 24,7339097,2019-08-18 17:16:01:634,-0.3262,-0.5465,10.0798,-0.4299,-0.5613,9.7811,0.0095,0.0038,-0.0124
73380,47.29084,-1.610711,102.87,28.51,3.216,139.8,17 / 24,7339197,2019-08-18 17:16:01:734,-0.3962,-0.8978,9.701,-0.4309,-0.5562,9.7814,0.0117,0.0126,-0.0139
73381,47.29084,-1.610711,102.87,28.51,3.216,139.8,17 / 24,7339297,2019-08-18 17:16:01:834,-0.4896,-0.6692,9.8231,-0.4453,-0.5439,9.7814,0.0107,0.0053,-0.0141
73382,47.29084,-1.610711,102.87,28.51,3.216,139.8,17 / 24,7339396,2019-08-18 17:16:01:933,-0.535,-0.6363,9.8751,-0.4442,-0.5426,9.7815,0.001,-0.0055,-0.0161
73383,47.29084,-1.610711,102.87,28.51,3.216,139.8,17 / 24,7339497,2019-08-18 17:16:02:034,-0.7781,-0.7937,10.2857,-0.4416,-0.5456,9.7815,-0.0078,-0.0013,-0.0145
73384,47.29084,-1.610711,102.87,28.51,3.216,139.8,17 / 24,7339597,2019-08-18 17:16:02:134,-0.7446,-0.9601,10.0254,-0.4409,-0.5546,9.781,-0.0092,-0.0011,-0.0152
73385,47.29084,-1.610711,102.87,28.51,3.216,139.8,17 / 24,7339696,2019-08-18 17:16:02:233,-0.5548,-0.7171,9.2658,-0.4392,-0.5722,9.7801,-0.0092,-0.0081,-0.0145
73386,47.29084,-1.610711,102.87,28.51,3.216,139.8,17 / 24,7339797,2019-08-18 17:16:02:334,-0.4614,-0.8296,9.8859,-0.4336,-0.5807,9.7798,-0.0098,-0.0037,-0.0164
73387,47.29084,-1.610711,102.87,28.51,3.216,139.8,17 / 24,7339897,2019-08-18 17:16:02:434,-0.3872,-0.4986,9.2395,-0.4287,-0.6003,9.7789,-0.0088,0.0023,-0.0167
73388,47.29084,-1.610711,102.87,28.51,3.216,139.8,17 / 24,7339997,2019-08-18 17:16:02:534,-0.4518,-0.9014,9.5735,-0.4364,-0.6099,9.7779,-0.0056,-0.0004,-0.0148
73389,47.29084,-1.610711,102.87,28.51,3.216,139.8,17 / 24,7340097,2019-08-18 17:16:02:634,-0.2047,-0.3603,10.0571,-0.4288,-0.6215,9.7775,-0.0071,-0.0032,-0.0145
73390,47.29084,-1.610711,102.87,28.51,3.216,139.8,14 / 24,7340197,2019-08-18 17:16:02:734,-0.2867,-0.7314,9.4825,-0.4324,-0.6251,9.7772,-0.0039,-0.0081,-0.0154
73391,47.29084,-1.610711,102.87,28.51,3.216,139.8,14 / 24,7340297,2019-08-18 17:16:02:834,-0.3321,-0.6458,9.7034,-0.4318,-0.6334,9.7766,-0.0016,0.0179,-0.0137
73392,47.29084,-1.610711,102.87,28.51,3.216,139.8,14 / 24,7340397,2019-08-18 17:16:02:934,-0.4489,-1.054,10.0224,-0.4418,-0.6343,9.7761,0.0088,0.0223,-0.0112
73393,47.29084,-1.610711,102.87,28.51,3.216,139.8,14 / 24,7340497,2019-08-18 17:16:03:034,-0.6218,-0.3909,9.9799,-0.4559,-0.6185,9.7765,0.0148,-0.0022,-0.0152
73394,47.29084,-1.610711,102.87,28.51,3.216,139.8,14 / 24,7340597,2019-08-18 17:16:03:134,-0.4818,-0.6375,9.8997,-0.4513,-0.6105,9.7772,0.0143,-0.0089,-0.0149
73395,47.29084,-1.610711,102.87,28.51,3.216,139.8,14 / 24,7340697,2019-08-18 17:16:03:234,-0.231,-0.5704,9.8638,-0.4371,-0.5972,9.7787,0.0099,-0.0029,-0.0164
73396,47.29084,-1.610711,102.87,28.51,3.216,139.8,14 / 24,7340797,2019-08-18 17:16:03:334,-0.5279,-0.48,9.7506,-0.4364,-0.5934,9.779,0.0034,0.0038,-0.0168
73397,47.29084,-1.610711,102.87,28.51,3.216,139.8,14 / 24,7340897,2019-08-18 17:16:03:434,-0.3393,-0.9074,10.1349,-0.441,-0.5926,9.7788,0.0079,0.0073,-0.0147
73398,47.29084,-1.610711,102.87,28.51,3.216,139.8,14 / 24,7340997,2019-08-18 17:16:03:534,-0.2783,-0.6614,10.4066,-0.4361,-0.582,9.7797,0.0159,-0.0057,-0.0163
73399,47.29084,-1.610711,102.87,28.51,3.216,139.8,16 / 24,7341097,2019-08-18 17:16:03:634,-0.1544,-0.5567,9.9254,-0.4157,-0.5718,9.7811,0.0005,-0.0089,-0.0135
73400,47.29084,-1.610711,102.87,28.51,3.216,139.8,16 / 24,7341197,2019-08-18 17:16:03:734,-0.3866,-0.3771,9.3837,-0.4137,-0.5734,9.7811,-0.0092,0.0109,-0.0139
73401,47.29084,-1.610711,102.87,28.51,3.216,139.8,16 / 24,7341298,2019-08-18 17:16:03:835,-0.4902,-0.2999,9.203,-0.4218,-0.5825,9.7802,-0.0148,0.0132,-0.0149
73402,47.29084,-1.610711,102.87,28.51,3.216,139.8,16 / 24,7341398,2019-08-18 17:16:03:935,-0.2214,-0.7003,9.4969,-0.4268,-0.5958,9.7792,-0.0067,0.0078,-0.0154
73403,47.29084,-1.610711,102.87,28.51,3.216,139.8,16 / 24,7341497,2019-08-18 17:16:04:034,-0.2992,-0.6333,10.3109,-0.4287,-0.5889,9.7796,0.0181,0.0001,-0.0117
73404,47.29084,-1.610711,102.87,28.51,3.216,139.8,16 / 24,7341597,2019-08-18 17:16:04:134,-0.1179,-0.9319,10.2295,-0.4267,-0.5798,9.7802,0.0079,-0.0072,-0.0123
73405,47.29084,-1.610711,102.87,28.51,3.216,139.8,16 / 24,7341697,2019-08-18 17:16:04:234,-0.3591,-0.5872,9.9793,-0.4112,-0.581,9.7808,-0.0087,-0.0013,-0.0151
73406,47.29084,-1.610711,102.87,28.51,3.216,139.8,16 / 24,7341797,2019-08-18 17:16:04:334,-0.3357,-0.683,9.6812,-0.4142,-0.5868,9.7803,-0.0087,0.0094,-0.0145
73407,47.29084,-1.610711,102.87,28.51,3.216,139.8,16 / 24,7341897,2019-08-18 17:16:04:434,-0.4776,-0.3968,9.0437,-0.425,-0.5935,9.7794,0.001,0.0217,-0.0118
73408,47.29084,-1.610711,102.87,28.51,3.216,139.8,16 / 24,7341997,2019-08-18 17:16:04:534,-0.4626,-0.407,9.3149,-0.4471,-0.5949,9.7784,0.0064,0.0115,-0.0126
73409,47.29084,-1.610711,102.87,28.51,3.216,139.8,16 / 24,7342097,2019-08-18 17:16:04:634,-0.7439,-0.4603,9.8398,-0.4546,-0.5917,9.7782,0.0109,-0.0025,-0.0127
73410,47.29084,-1.610711,102.87,28.51,3.216,139.8,16 / 24,7342197,2019-08-18 17:16:04:734,-0.723,-0.5237,10.1541,-0.4514,-0.5844,9.7788,-0.005,-0.0103,-0.0139
73411,47.29084,-1.610711,102.87,28.51,3.216,139.8,16 / 24,7342297,2019-08-18 17:16:04:834,-0.5668,-0.589,9.4214,-0.4447,-0.5895,9.7788,-0.0047,-0.0081,-0.0109
73412,47.29084,-1.610711,102.87,28.51,3.216,139.8,16 / 24,7342397,2019-08-18 17:16:04:934,-0.4123,-0.5842,9.4376,-0.4343,-0.5956,9.7789,0.0003,-0.0015,-0.013
73413,47.29084,-1.610711,102.87,28.51,3.216,139.8,16 / 24,7342497,2019-08-18 17:16:05:034,-0.6189,-0.5399,9.5806,-0.4321,-0.5959,9.779,0.0016,0.0091,-0.0094
73414,47.29084,-1.610711,102.87,28.51,3.216,139.8,16 / 24,7342597,2019-08-18 17:16:05:134,-0.638,-0.4375,9.4633,-0.4416,-0.5914,9.7788,0.0002,0.0036,-0.0078
73415,47.29084,-1.610711,102.87,28.51,3.216,139.8,16 / 24,7342697,2019-08-18 17:16:05:234,-0.4489,-0.6159,9.7746,-0.4413,-0.5881,9.779,0.004,0.0034,-0.009
73416,47.29084,-1.610711,102.87,28.51,3.216,139.8,16 / 24,7342797,2019-08-18 17:16:05:334,-0.5608,-0.4034,10.2217,-0.4408,-0.577,9.7797,0.0169,-0.0006,-0.0074
73417,47.29084,-1.610711,102.87,28.51,3.216,139.8,16 / 24,7342897,2019-08-18 17:16:05:434,-0.313,-0.4465,10.1158,-0.4411,-0.5659,9.7804,0.0249,-0.0095,-0.0062
73418,47.29084,-1.610711,102.87,28.51,3.216,139.8,16 / 24,7342997,2019-08-18 17:16:05:534,-0.574,-0.2759,9.4567,-0.4295,-0.5262,9.7831,0.006,0.0055,-0.0072
73419,47.29084,-1.610711,102.87,28.51,3.216,139.8,18 / 24,7343097,2019-08-18 17:16:05:634,-0.404,-0.0688,8.8331,-0.4296,-0.5195,9.7835,-0.0031,0.0357,-0.0073
73420,47.29084,-1.610711,102.87,28.51,3.216,139.8,18 / 24,7343197,2019-08-18 17:16:05:734,-0.0951,-0.1012,8.1962,-0.4725,-0.5107,9.7819,0.0167,0.0164,-0.0049
73421,47.29084,-1.610711,102.87,28.51,3.216,139.8,18 / 24,7343297,2019-08-18 17:16:05:834,0.2598,-0.1604,9.6477,-0.4845,-0.4944,9.7822,0.0035,0.0189,-0.0082
73422,47.29084,-1.610711,102.87,28.51,3.216,139.8,18 / 24,7343397,2019-08-18 17:16:05:934,-0.1939,-0.4537,10.3947,-0.4766,-0.4977,9.7824,-0.0155,-0.0254,-0.0108
73423,47.29084,-1.610711,102.87,28.51,3.216,139.8,18 / 24,7343497,2019-08-18 17:16:06:034,-0.2435,-0.7386,10.6694,-0.4556,-0.5009,9.7832,-0.0059,-0.0258,-0.0075
73424,47.29084,-1.610711,102.87,28.51,3.216,139.8,18 / 24,7343597,2019-08-18 17:16:06:134,-0.3513,-0.5543,9.8081,-0.4393,-0.5002,9.784,-0.009,0.0228,-0.0055
73425,47.29084,-1.610711,102.87,28.51,3.216,139.8,18 / 24,7343697,2019-08-18 17:16:06:234,-0.3579,-0.3597,10.1277,-0.4572,-0.5041,9.783,-0.0182,0.0164,-0.0071
73426,47.29084,-1.610711,102.87,28.51,3.216,139.8,18 / 24,7343797,2019-08-18 17:16:06:334,-0.4064,-0.3525,9.3592,-0.4462,-0.5038,9.7835,-0.0087,-0.0111,-0.0074
73427,47.29084,-1.610711,102.87,28.51,3.216,139.8,18 / 24,7343897,2019-08-18 17:16:06:434,-0.55,-0.4172,10.3671,-0.4407,-0.5113,9.7834,-0.0096,-0.015,-0.0076
73428,47.29084,-1.610711,102.87,28.51,3.216,139.8,18 / 24,7343997,2019-08-18 17:16:06:534,-0.2938,-0.6895,10.3013,-0.4245,-0.5115,9.7841,0.0056,-0.0163,-0.0064
73429,47.29084,-1.610711,102.87,28.51,3.216,139.8,18 / 23,7344097,2019-08-18 17:16:06:634,-0.3651,-0.331,10.2929,-0.4105,-0.5057,9.785,0.0085,-0.008,-0.0046
73430,47.29084,-1.610711,102.87,28.51,3.216,139.8,18 / 23,7344197,2019-08-18 17:16:06:734,-0.535,-0.2149,9.3406,-0.4014,-0.4913,9.7861,-0.0008,0.0052,-0.0074
73431,47.29084,-1.610711,102.87,28.51,3.216,139.8,18 / 23,7344297,2019-08-18 17:16:06:834,-0.3579,-0.4992,9.3029,-0.405,-0.4934,9.7859,-0.0168,0.0195,-0.0118
73432,47.29084,-1.610711,102.87,28.51,3.216,139.8,18 / 23,7344397,2019-08-18 17:16:06:934,-0.3836,-0.5285,8.8169,-0.4278,-0.5135,9.7839,-0.0169,0.0068,-0.0132
73433,47.29084,-1.610711,102.87,28.51,3.216,139.8,18 / 23,7344497,2019-08-18 17:16:07:034,-0.4339,-0.6823,9.7267,-0.4268,-0.5203,9.7835,-0.0071,0.0027,-0.0153
73434,47.29084,-1.610711,102.87,28.51,3.216,139.8,18 / 23,7344597,2019-08-18 17:16:07:134,-0.4495,-0.489,10.008,-0.433,-0.5261,9.783,0.0015,-0.0043,-0.0153
73435,47.29084,-1.610711,102.87,28.51,3.216,139.8,18 / 23,7344698,2019-08-18 17:16:07:235,-0.3836,-0.6369,9.9565,-0.4347,-0.5202,9.7832,0.0163,0.0039,-0.0117
73436,47.29084,-1.610711,102.87,28.51,3.216,139.8,18 / 23,7344797,2019-08-18 17:16:07:334,-0.2507,-0.8326,10.0733,-0.4374,-0.5093,9.7836,0.0058,0.0046,-0.0123
73437,47.29084,-1.610711,102.87,28.51,3.216,139.8,18 / 23,7344896,2019-08-18 17:16:07:433,-0.0167,-0.3316,10.2516,-0.4393,-0.5047,9.7838,0.0112,0.0072,-0.0142
73438,47.29084,-1.610711,102.87,28.51,3.216,139.8,18 / 23,7344997,2019-08-18 17:16:07:534,-0.4429,-0.3525,9.5082,-0.4364,-0.5007,9.7841,0.003,0.0008,-0.0132
73439,47.29084,-1.610711,102.87,28.51,3.216,139.8,18 / 23,7345097,2019-08-18 17:16:07:634,-0.2088,-0.5644,9.8458,-0.4333,-0.4928,9.7847,-0.0023,0.0014,-0.0144
73440,47.288963,-1.608703,104.07,29.04,3.216,146.1,18 / 23,7345196,2019-08-18 17:16:07:733,-0.2442,-0.7177,9.7548,-0.4301,-0.4954,9.7847,0.0044,0.0129,-0.0178
73441,47.288963,-1.608703,104.07,29.04,3.216,146.1,18 / 23,7345297,2019-08-18 17:16:07:834,0.1036,-0.3442,9.61,-0.4297,-0.4911,9.7849,-0.0038,-0.0078,-0.0162
73442,47.288963,-1.608703,104.07,29.04,3.216,146.1,18 / 23,7345397,2019-08-18 17:16:07:934,0.2263,-0.6728,9.841,-0.4213,-0.4934,9.7852,-0.004,-0.0019,-0.0192
73443,47.288963,-1.608703,104.07,29.04,3.216,146.1,18 / 23,7345497,2019-08-18 17:16:08:034,-0.3052,-0.4405,10.0128,-0.4059,-0.5,9.7855,-0.0045,0.0027,-0.0142
73444,47.288963,-1.608703,104.07,29.04,3.216,146.1,18 / 23,7345597,2019-08-18 17:16:08:134,-0.128,-0.6871,10.2103,-0.4027,-0.5042,9.7854,0.0016,-0.0013,-0.0166
73445,47.288963,-1.608703,104.07,29.04,3.216,146.1,18 / 23,7345697,2019-08-18 17:16:08:234,0.0037,-0.8051,10.1367,-0.39,-0.5017,9.786,0.0004,-0.012,-0.0166
73446,47.288963,-1.608703,104.07,29.04,3.216,146.1,18 / 23,7345797,2019-08-18 17:16:08:334,-0.0568,-0.2616,10.1505,-0.3725,-0.4992,9.7868,0.006,-0.0108,-0.0154
73447,47.288963,-1.608703,104.07,29.04,3.216,146.1,18 / 23,7345897,2019-08-18 17:16:08:434,0.0138,-0.2592,9.5178,-0.3535,-0.4916,9.7879,0.0011,0.0115,-0.0137
73448,47.288963,-1.608703,104.07,29.04,3.216,146.1,18 / 23,7345996,2019-08-18 17:16:08:533,-0.0293,-0.3705,9.5567,-0.3482,-0.4925,9.7881,0.0011,0.0115,-0.0137
73449,47.288963,-1.608703,104.07,29.04,3.216,146.1,18 / 22,7346097,2019-08-18 17:16:08:634,-0.3375,-0.568,9.4166,-0.3651,-0.4958,9.7873,-0.0047,0.0153,-0.0132
73450,47.288963,-1.608703,104.07,29.04,3.216,146.1,18 / 22,7346197,2019-08-18 17:16:08:734,-0.4429,-0.5213,9.5884,-0.3715,-0.5028,9.7867,-0.0039,0.0152,-0.0146
73451,47.288963,-1.608703,104.07,29.04,3.216,146.1,18 / 22,7346298,2019-08-18 17:16:08:835,-0.4016,-0.656,9.3263,-0.3887,-0.5079,9.7858,0.0047,0.0111,-0.0151
73452,47.288963,-1.608703,104.07,29.04,3.216,146.1,18 / 22,7346397,2019-08-18 17:16:08:934,-0.3304,-0.4351,9.6489,-0.3951,-0.5062,9.7856,0.0083,0.0134,-0.0145
73453,47.288963,-1.608703,104.07,29.04,3.216,146.1,18 / 22,7346497,2019-08-18 17:16:09:034,-0.556,-0.5297,9.4466,-0.4022,-0.5126,9.785,-0.0075,0.0096,-0.0146
73454,47.288963,-1.608703,104.07,29.04,3.216,146.1,18 / 22,7346598,2019-08-18 17:16:09:135,-0.6577,-0.6033,9.7674,-0.4128,-0.517,9.7843,-0.0135,0.0154,-0.015
73455,47.288963,-1.608703,104.07,29.04,3.216,146.1,18 / 22,7346698,2019-08-18 17:16:09:235,-0.2854,-0.4956,9.9027,-0.4272,-0.5299,9.783,0.0022,-0.0026,-0.0119
73456,47.288963,-1.608703,104.07,29.04,3.216,146.1,18 / 22,7346797,2019-08-18 17:16:09:334,-0.4734,-0.5112,10.1918,-0.4232,-0.5299,9.7832,-0.001,-0.0069,-0.0099
73457,47.288963,-1.608703,104.07,29.04,3.216,146.1,18 / 22,7346897,2019-08-18 17:16:09:434,-0.4752,-0.2664,10.3336,-0.4137,-0.5196,9.7841,0.0116,-0.016,-0.0058
73458,47.288963,-1.608703,104.07,29.04,3.216,146.1,18 / 22,7346997,2019-08-18 17:16:09:534,-0.3202,-0.4034,10.6185,-0.4051,-0.5083,9.7851,0.0071,-0.012,-0.0049
73459,47.288963,-1.608703,104.07,29.04,3.216,146.1,17 / 21,7347099,2019-08-18 17:16:09:636,-0.4758,-0.1598,10.3378,-0.3889,-0.5043,9.786,-0.0021,-0.0081,-0.0057
73460,47.288963,-1.608703,104.07,29.04,3.216,146.1,17 / 21,7347197,2019-08-18 17:16:09:734,-0.6488,-0.1826,10.4108,-0.3874,-0.5015,9.7862,-0.002,-0.0017,-0.0064
73461,47.288963,-1.608703,104.07,29.04,3.216,146.1,17 / 21,7347297,2019-08-18 17:16:09:834,-0.5668,-0.6979,9.9667,-0.3848,-0.4998,9.7863,-0.0012,-0.0066,-0.0083
73462,47.288963,-1.608703,104.07,29.04,3.216,146.1,17 / 21,7347397,2019-08-18 17:16:09:934,-0.5291,-0.4112,9.9757,-0.3726,-0.5011,9.7867,-0.0021,-0.0141,-0.0108
73463,47.288963,-1.608703,104.07,29.04,3.216,146.1,17 / 21,7347497,2019-08-18 17:16:10:034,-0.5602,-0.4555,9.4538,-0.3579,-0.5008,9.7873,-0.0039,-0.0021,-0.0106
73464,47.288963,-1.608703,104.07,29.04,3.216,146.1,17 / 21,7347597,2019-08-18 17:16:10:134,-0.1149,-0.2975,9.7422,-0.3612,-0.5012,9.7872,-0.0039,0.0081,-0.0106
73465,47.288963,-1.608703,104.07,29.04,3.216,146.1,17 / 21,7347696,2019-08-18 17:16:10:233,-0.2352,-0.2568,9.1126,-0.3727,-0.503,9.7867,-0.0016,0.0166,-0.0093
73466,47.288963,-1.608703,104.07,29.04,3.216,146.1,17 / 21,7347797,2019-08-18 17:16:10:334,-0.21,-0.4363,9.5824,-0.3821,-0.5036,9.7863,0.0017,0.0165,-0.0095
73467,47.288963,-1.608703,104.07,29.04,3.216,146.1,17 / 21,7347896,2019-08-18 17:16:10:433,-0.7278,-0.1909,9.689,-0.4007,-0.5058,9.7854,-0.0028,0.0073,-0.0083
73468,47.288963,-1.608703,104.07,29.04,3.216,146.1,17 / 21,7347998,2019-08-18 17:16:10:535,-0.486,-0.6817,10.53,-0.408,-0.5124,9.7848,-0.0156,-0.0047,-0.0116
73469,47.288963,-1.608703,104.07,29.04,3.216,146.1,17 / 21,7348097,2019-08-18 17:16:10:634,-0.7104,-0.4112,9.6166,-0.4021,-0.5285,9.7841,-0.001,-0.0005,-0.0107
73470,47.288963,-1.608703,104.07,29.04,3.216,146.1,17 / 21,7348197,2019-08-18 17:16:10:734,-0.6057,-0.7901,9.9583,-0.4034,-0.5334,9.7838,-0.0055,0.0038,-0.0125
73471,47.288963,-1.608703,104.07,29.04,3.216,146.1,17 / 21,7348297,2019-08-18 17:16:10:834,-0.4387,-0.5596,9.3993,-0.4054,-0.5441,9.7831,-0.0125,0.0034,-0.0131
73472,47.288963,-1.608703,104.07,29.04,3.216,146.1,17 / 21,7348397,2019-08-18 17:16:10:934,-0.0963,-0.638,9.188,-0.4137,-0.5589,9.782,-0.0126,0.0138,-0.0135
73473,47.288963,-1.608703,104.07,29.04,3.216,146.1,17 / 21,7348498,2019-08-18 17:16:11:035,-0.2567,-0.7715,10.1199,-0.4276,-0.5644,9.7811,0.0033,0.0046,-0.0129
73474,47.288963,-1.608703,104.07,29.04,3.216,146.1,17 / 21,7348598,2019-08-18 17:16:11:135,-0.4662,-0.8086,9.674,-0.4392,-0.5702,9.7802,-0.001,-0.0087,-0.013
73475,47.288963,-1.608703,104.07,29.04,3.216,146.1,17 / 21,7348697,2019-08-18 17:16:11:234,-0.7781,-0.4519,10.348,-0.4375,-0.5717,9.7802,-0.0039,0.0196,-0.011
73476,47.288963,-1.608703,104.07,29.04,3.216,146.1,17 / 21,7348797,2019-08-18 17:16:11:334,-1.0157,-0.7308,9.8231,-0.4488,-0.5893,9.7786,-0.0132,0.0051,-0.0147
