,GPS LATITUDE (degrees), GPS LONGITUDE (degrees), GPS ALTITUDE (m), GPS SPEED (Kmh), GPS ACCURACY (m), GPS ORIENTATION (Â°),GPS SATELLITES IN RANGE, TIME SINCE START (ms), DATE (YYYY-MO-DD HH-MI-SS_SSS), ACCELEROMETER X (m/s²) , ACCELEROMETER Y (m/s²), ACCELEROMETER Z (m/s²), GRAVITY X (m/s²), GRAVITY Y (m/s²), GRAVITY Z (m/s²), GYROSCOPE Yaw (rad/s), GYROSCOPE Pitch (rad/s), GYROSCOPE Roll (rad/s), MAGNETIC FIELD X (Î¼T), MAGNETIC FIELD Y (Î¼T), MAGNETIC FIELD Z (Î¼T), ORIENTATION (Yaw) (Â°), ORIENTATION (Pitch) (Â°), ORIENTATION (Roll ) (Â°)
60340,52.38966,-1.544491,147.09,19.09,3,116.8,20 / 21,2515409,2019-09-06 20:02:01:152,-0.0132,-0.2747,9.4649,-0.0249,0.0154,9.8066,0.0955,-0.0025,-0.0013,-20.0,-34.25,21.31,312.57,-83.5,-178.01
60341,52.38966,-1.544491,147.09,19.09,3,116.8,20 / 21,2515510,2019-09-06 20:02:01:253,-0.185,-0.1202,10.0073,-0.022,0.0102,9.8065,-0.0933,-0.0025,-0.0188,-19.62,-33.81,21.31,313.56,-83.71,-177.3
60342,52.38966,-1.544491,147.09,19.09,3,116.8,20 / 21,2515609,2019-09-06 20:02:01:352,-0.2485,-0.8723,10.1082,0.0266,-0.0232,9.8065,-0.0965,0.0456,-0.0337,-19.69,-33.75,21.38,312.91,-83.64,-177.84
60343,52.38966,-1.544491,147.09,19.09,3,116.8,20 / 21,2515710,2019-09-06 20:02:01:453,-0.4879,0.4033,9.9109,0.037,-0.0271,9.8065,0.0896,-0.0081,-0.0386,-20.06,-33.69,21.25,312.04,-83.49,-178.49
60344,52.38966,-1.544491,147.09,19.09,3,116.8,20 / 21,2515810,2019-09-06 20:02:01:553,0.1317,-0.0034,9.4442,-0.0188,0.0199,9.8066,0.043,0.0291,0.002,-19.87,-33.75,20.81,311.09,-83.57,-179.43
60345,52.38966,-1.544491,147.09,19.09,3,116.8,20 / 21,2515909,2019-09-06 20:02:01:652,-0.4352,-0.2414,9.9794,-0.0478,0.026,9.8064,-0.1739,0.0156,-0.0146,-19.81,-33.94,20.94,311.73,-83.73,-178.99
60346,52.38966,-1.544491,147.09,19.09,3,116.8,20 / 21,2516009,2019-09-06 20:02:01:752,-0.3459,-0.1442,9.4717,0.0283,-0.0233,9.8065,-0.0841,-0.0172,0.0208,-19.5,-33.56,21.06,314.2,-83.95,-178.29
60347,52.38966,-1.544491,147.09,19.09,3,116.8,20 / 21,2516110,2019-09-06 20:02:01:853,-0.6548,-0.0236,9.7431,0.0257,-0.029,9.8065,0.0931,0.0184,-0.01,-19.87,-34.06,20.94,312.86,-83.76,-177.99
60348,52.38966,-1.544491,147.09,19.09,3,116.8,20 / 21,2516210,2019-09-06 20:02:01:953,-0.8981,0.2354,10.5348,-0.0061,0.0094,9.8066,0.0897,-0.0196,-0.0207,-20.06,-34.12,21.13,312.76,-83.7,-178.02
60349,52.38966,-1.544491,147.09,19.09,3,116.8,20 / 21,2516310,2019-09-06 20:02:02:053,1.2012,-0.5887,9.5927,0.0215,-0.0051,9.8066,-0.1122,-0.0245,-0.0106,-19.56,-33.81,21.0,311.57,-83.56,-178.98
60350,52.38966,-1.544491,147.09,19.09,3,116.8,20 / 21,2516410,2019-09-06 20:02:02:153,-0.7951,-0.0463,9.3114,-0.0081,0.0073,9.8066,-0.1113,-0.029,0.0521,-20.06,-33.75,20.56,311.11,-83.66,-179.5
60351,52.38966,-1.544491,147.09,19.09,3,116.8,20 / 21,2516510,2019-09-06 20:02:02:253,-0.2417,0.5532,9.7058,-0.0016,-0.0112,9.8066,0.1304,-0.0359,0.0309,-19.69,-33.69,21.0,312.22,-83.74,-178.56
60352,52.38966,-1.544491,147.09,19.09,3,116.8,20 / 21,2516610,2019-09-06 20:02:02:353,0.0058,0.0723,10.1503,-0.0226,0.0096,9.8066,0.106,0.0194,-0.05,-19.75,-33.81,20.94,313.36,-83.83,-177.6
60353,52.38966,-1.544491,147.09,19.09,3,116.8,20 / 21,2516709,2019-09-06 20:02:02:452,0.4898,-0.2394,10.0334,-0.0117,0.0149,9.8065,0.0306,-0.0455,0.049,-19.87,-33.94,21.06,313.02,-83.66,-177.75
60354,52.38966,-1.544491,147.09,19.09,3,116.8,20 / 21,2516810,2019-09-06 20:02:02:553,0.5784,-0.6554,9.7797,0.0106,-0.0016,9.8065,-0.0109,0.0236,-0.0195,-19.69,-33.5,20.75,312.72,-83.56,-178.1
60355,52.38966,-1.544491,147.09,19.09,3,116.8,20 / 21,2516910,2019-09-06 20:02:02:653,-0.4413,-0.1232,9.8716,0.0078,0.0032,9.8066,-0.0745,-0.0415,-0.0161,-19.62,-33.31,20.69,312.2,-83.68,-178.68
60356,52.38966,-1.544491,147.09,19.09,3,116.8,20 / 21,2517009,2019-09-06 20:02:02:752,0.3546,-0.653,9.3617,-0.0038,0.0191,9.8066,0.0114,-0.0413,0.0251,-19.56,-33.81,20.94,311.29,-83.84,-179.5
60357,52.38966,-1.544491,147.09,19.09,3,116.8,20 / 21,2517109,2019-09-06 20:02:02:852,0.021,-0.2652,9.2395,0.0038,-0.0017,9.8066,0.0383,-0.0301,-0.0396,-19.12,-34.06,20.63,312.0,-83.88,179.78
60358,52.38966,-1.544491,147.09,19.09,3,116.8,20 / 21,2517209,2019-09-06 20:02:02:952,-0.2968,-0.1471,10.1298,-0.0182,0.0181,9.8065,0.12,0.0371,0.0113,-19.81,-33.94,20.5,310.55,-83.93,179.74
60359,52.38966,-1.544491,147.09,19.09,3,116.8,20 / 21,2517309,2019-09-06 20:02:03:052,0.6021,-1.1132,9.9256,-0.0177,0.0092,9.8066,-0.1255,-0.0213,0.0019,-19.75,-33.94,21.0,310.55,-83.86,179.8
60360,52.388977,-1.542251,145.64,19.01,3,117.07,20 / 21,2517410,2019-09-06 20:02:03:153,0.3415,-0.129,9.8056,0.0046,-0.0029,9.8066,0.0698,0.0145,-0.0129,-19.5,-34.06,21.13,312.2,-83.75,-179.92
60361,52.388977,-1.542251,145.64,19.01,3,117.07,20 / 21,2517509,2019-09-06 20:02:03:252,0.7905,0.3736,9.9136,-0.0004,-0.0036,9.8066,0.0349,-0.0834,0.0184,-19.31,-34.0,21.31,312.3,-83.74,-179.82
60362,52.388977,-1.542251,145.64,19.01,3,117.07,20 / 21,2517610,2019-09-06 20:02:03:353,0.0534,-1.429,9.6302,0.006,0.0097,9.8066,0.0853,0.0165,-0.0288,-19.37,-33.75,20.63,311.29,-83.73,179.27
60363,52.388977,-1.542251,145.64,19.01,3,117.07,20 / 21,2517710,2019-09-06 20:02:03:453,-0.7959,-0.2502,9.8272,-0.0019,0.0037,9.8066,-0.0125,0.0071,-0.0471,-19.69,-33.25,20.44,308.63,-83.73,179.53
60364,52.388977,-1.542251,145.64,19.01,3,117.07,20 / 21,2517810,2019-09-06 20:02:03:553,-0.8015,-0.2446,9.7489,-0.016,-0.001,9.8066,-0.0368,-0.0571,0.029,-19.69,-33.5,18.88,307.89,-83.76,-179.56
60365,52.388977,-1.542251,145.64,19.01,3,117.07,20 / 21,2517909,2019-09-06 20:02:03:652,-1.2,-0.0083,10.1175,0.017,-0.0089,9.8066,-0.0483,0.0064,-0.0155,-19.75,-36.62,14.63,299.44,-83.71,-179.13
60366,52.388977,-1.542251,145.64,19.01,3,117.07,20 / 21,2518010,2019-09-06 20:02:03:753,-0.7267,0.2793,10.2735,0.0269,-0.0102,9.8066,-0.0806,0.0095,-0.0115,-19.44,-44.69,14.13,296.05,-83.67,-179.26
60367,52.388977,-1.542251,145.64,19.01,3,117.07,20 / 21,2518110,2019-09-06 20:02:03:853,0.0903,-0.5804,10.0111,0.0265,-0.0147,9.8065,-0.0666,0.0847,-0.0599,-16.87,-49.69,19.56,311.51,-83.92,-179.24
60368,52.388977,-1.542251,145.64,19.01,3,117.07,20 / 21,2518210,2019-09-06 20:02:03:953,-0.0408,0.0519,10.4913,-0.0093,0.002,9.8066,0.2014,-0.0145,0.0248,-14.94,-43.37,28.63,328.62,-83.87,-179.68
60369,52.388977,-1.542251,145.64,19.01,3,117.07,20 / 21,2518310,2019-09-06 20:02:04:053,0.8226,-0.8546,8.5363,-0.0118,0.0083,9.8066,-0.0309,0.0014,0.0072,-16.94,-35.31,26.5,324.18,-83.58,-179.33
60370,52.388977,-1.542251,145.64,19.01,3,117.07,20 / 21,2518409,2019-09-06 20:02:04:152,-0.9527,-0.2179,9.0492,-0.0141,-0.0276,9.8066,-0.2529,-0.0108,0.052,-18.25,-33.0,24.0,321.51,-83.48,-176.97
60371,52.388977,-1.542251,145.64,19.01,3,117.07,20 / 21,2518510,2019-09-06 20:02:04:253,-0.7634,-0.3985,9.5998,-0.0237,0.0097,9.8065,0.0625,0.0235,0.0139,-18.75,-33.44,22.06,319.96,-83.95,-174.65
60372,52.388977,-1.542251,145.64,19.01,3,117.07,20 / 21,2518610,2019-09-06 20:02:04:353,-0.0634,0.5129,9.2242,-0.0238,0.008,9.8066,0.0462,0.0176,0.0049,-19.06,-33.0,21.56,320.84,-84.03,-173.91
60373,52.388977,-1.542251,145.64,19.01,3,117.07,20 / 21,2518710,2019-09-06 20:02:04:453,-0.8116,-0.1111,10.6987,0.0035,-0.0159,9.8066,0.0957,0.0175,-0.0054,-19.44,-33.56,21.5,321.05,-83.82,-173.42
60374,52.388977,-1.542251,145.64,19.01,3,117.07,20 / 21,2518809,2019-09-06 20:02:04:552,-0.6438,-0.8939,11.6673,0.0206,-0.0287,9.8065,0.0441,-0.0067,0.0011,-19.06,-33.56,21.88,321.3,-83.35,-172.82
60375,52.388977,-1.542251,145.64,19.01,3,117.07,20 / 21,2518909,2019-09-06 20:02:04:652,1.1178,-0.4112,9.8466,0.0051,0.0009,9.8066,-0.1233,-0.0992,0.0607,-19.56,-33.81,21.81,318.62,-83.23,-173.78
60376,52.388977,-1.542251,145.64,19.01,3,117.07,20 / 21,2519009,2019-09-06 20:02:04:752,-0.1663,0.4819,9.5089,-0.007,0.0117,9.8066,-0.1361,0.0291,-0.0354,-19.5,-34.12,21.75,321.26,-83.41,-172.91
60377,52.388977,-1.542251,145.64,19.01,3,117.07,20 / 21,2519110,2019-09-06 20:02:04:853,-0.8626,0.3996,9.6364,-0.0247,0.0327,9.8065,0.1932,-0.0023,-0.0362,-19.81,-33.56,21.44,319.26,-83.83,-172.24
60378,52.388977,-1.542251,145.64,19.01,3,117.07,20 / 21,2519210,2019-09-06 20:02:04:953,-0.6085,-0.309,10.0378,0.042,-0.0342,9.8064,0.217,-0.0677,0.0038,-19.81,-33.31,21.38,319.42,-83.88,-172.28
60379,52.388977,-1.542251,145.64,19.01,3,117.07,20 / 21,2519310,2019-09-06 20:02:05:053,-0.0104,-1.3026,10.3683,0.0398,-0.0339,9.8065,-0.0849,0.0274,-0.0048,-19.44,-33.87,21.69,321.79,-83.82,-172.75
60380,52.388977,-1.542251,145.64,19.01,3,117.07,17 / 21,2519409,2019-09-06 20:02:05:152,-0.5848,-0.4601,10.1639,0.0297,-0.0306,9.8065,-0.0458,-0.0521,0.0339,-19.62,-33.81,21.56,319.41,-83.33,-173.15
60381,52.388977,-1.542251,145.64,19.01,3,117.07,17 / 21,2519510,2019-09-06 20:02:05:253,0.433,-0.6509,10.1322,-0.0109,0.0212,9.8065,0.0016,-0.0831,-0.015,-19.44,-33.31,21.75,319.7,-83.42,-174.45
60382,52.388977,-1.542251,145.64,19.01,3,117.07,17 / 21,2519609,2019-09-06 20:02:05:352,0.0586,-0.9096,9.978,-0.0155,0.0238,9.8066,0.0644,-0.0363,0.0191,-19.25,-33.5,22.31,319.0,-83.52,-175.16
60383,52.388977,-1.542251,145.64,19.01,3,117.07,17 / 21,2519710,2019-09-06 20:02:05:453,0.0195,-0.4816,10.5016,0.0084,-0.0107,9.8066,-0.0946,-0.0136,-0.0096,-19.44,-33.81,21.69,319.32,-83.48,-174.7
60384,52.388977,-1.542251,145.64,19.01,3,117.07,17 / 21,2519809,2019-09-06 20:02:05:552,0.1926,-1.4522,10.0985,0.0107,-0.0114,9.8066,-0.0547,-0.0708,0.0318,-19.25,-33.62,21.81,319.34,-83.47,-174.67
60385,52.388977,-1.542251,145.64,19.01,3,117.07,17 / 21,2519910,2019-09-06 20:02:05:653,-1.3276,0.2418,10.177,0.0035,-0.0116,9.8066,0.0418,-0.029,0.043,-19.44,-33.69,21.94,320.0,-83.36,-173.99
60386,52.388977,-1.542251,145.64,19.01,3,117.07,17 / 21,2520009,2019-09-06 20:02:05:752,-1.1764,-0.0564,10.4428,-0.0246,0.0259,9.8065,-0.0253,-0.0534,-0.0419,-19.75,-34.0,22.19,319.29,-83.55,-173.43
60387,52.388977,-1.542251,145.64,19.01,3,117.07,17 / 21,2520110,2019-09-06 20:02:05:853,-0.3873,-0.2938,10.3722,0.0202,-0.0057,9.8065,-0.0181,-0.015,0.0034,-19.87,-33.31,21.81,318.35,-83.54,-174.42
60388,52.388977,-1.542251,145.64,19.01,3,117.07,17 / 21,2520210,2019-09-06 20:02:05:953,0.4363,-1.1996,9.7197,0.0224,-0.0066,9.8066,0.1159,-0.0866,-0.0054,-19.75,-33.81,21.94,317.06,-83.51,-175.41
60389,52.388977,-1.542251,145.64,19.01,3,117.07,17 / 21,2520309,2019-09-06 20:02:06:052,0.9633,-0.0992,8.7941,0.0268,-0.0088,9.8065,-0.0847,-0.0177,-0.008,-18.94,-33.44,22.13,317.53,-83.42,-176.42
60390,52.388977,-1.542251,145.64,19.01,3,117.07,18 / 19,2520410,2019-09-06 20:02:06:153,-0.0568,-0.7829,10.1755,-0.0389,0.0312,9.8064,-0.1691,-0.0513,0.0475,-19.12,-34.0,21.94,316.71,-83.06,-176.69
60391,52.388977,-1.542251,145.64,19.01,3,117.07,18 / 19,2520509,2019-09-06 20:02:06:252,-0.2005,-1.6275,9.5573,-0.0253,0.0164,9.8065,0.1255,-0.0222,0.0466,-19.37,-33.5,21.75,317.33,-83.3,-176.5
60392,52.388977,-1.542251,145.64,19.01,3,117.07,18 / 19,2520610,2019-09-06 20:02:06:353,-0.0907,0.6827,9.7864,-0.0286,0.0199,9.8066,0.0122,0.015,-0.044,-19.19,-33.19,22.56,320.06,-83.33,-175.45
60393,52.388977,-1.542251,145.64,19.01,3,117.07,18 / 19,2520710,2019-09-06 20:02:06:453,-0.409,-0.9417,9.8961,0.0,0.0042,9.8066,0.0907,0.0033,-0.0088,-19.31,-33.12,22.31,318.19,-83.33,-175.74
60394,52.388977,-1.542251,145.64,19.01,3,117.07,18 / 19,2520810,2019-09-06 20:02:06:553,0.3124,-0.9731,10.2327,-0.0192,0.0258,9.8065,0.1178,-0.0474,0.0409,-19.12,-32.69,23.38,318.95,-83.37,-176.48
60395,52.388977,-1.542251,145.64,19.01,3,117.07,18 / 19,2520910,2019-09-06 20:02:06:653,0.0474,-0.5109,10.0943,0.0078,-0.0102,9.8066,0.047,-0.0114,0.0106,-19.19,-32.56,22.19,318.15,-83.12,-175.6
60396,52.388977,-1.542251,145.64,19.01,3,117.07,18 / 19,2521010,2019-09-06 20:02:06:753,0.6072,-0.7455,9.4651,0.0013,-0.0017,9.8066,0.0748,-0.0401,0.003,-19.44,-32.44,22.75,319.98,-82.99,-175.4
60397,52.388977,-1.542251,145.64,19.01,3,117.07,18 / 19,2521110,2019-09-06 20:02:06:853,0.0288,-0.3874,9.4037,-0.0105,0.0115,9.8065,-0.1481,0.0331,0.0207,-18.94,-32.19,22.38,318.53,-83.22,-175.5
60398,52.388977,-1.542251,145.64,19.01,3,117.07,18 / 19,2521210,2019-09-06 20:02:06:953,0.0822,-0.9291,10.6668,0.0063,-0.0093,9.8065,-0.1133,-0.0081,0.0306,-18.94,-32.94,21.63,318.57,-83.33,-175.4
60399,52.388977,-1.542251,145.64,19.01,3,117.07,18 / 19,2521310,2019-09-06 20:02:07:053,2.0427,-0.1421,8.6007,0.0214,-0.0301,9.8065,0.0945,0.0647,0.0285,-19.06,-34.12,22.44,318.56,-83.12,-175.08
60400,52.388977,-1.542251,145.64,19.01,3,117.07,18 / 20,2521409,2019-09-06 20:02:07:152,0.3285,0.5817,9.6296,0.035,-0.0307,9.8065,0.0158,-0.0277,-0.0777,-19.25,-33.56,22.44,318.86,-82.88,-174.62
60401,52.388977,-1.542251,145.64,19.01,3,117.07,18 / 20,2521510,2019-09-06 20:02:07:253,1.4715,0.7545,9.4346,-0.043,0.0465,9.8064,-0.0072,-0.1557,0.0089,-19.31,-32.87,22.81,320.23,-82.85,-174.92
60402,52.388977,-1.542251,145.64,19.01,3,117.07,18 / 20,2521610,2019-09-06 20:02:07:353,0.0718,-1.2329,9.6837,0.0074,-0.011,9.8065,-0.0308,-0.0472,-0.0029,-18.94,-33.56,22.75,319.02,-83.16,-176.09
60403,52.388977,-1.542251,145.64,19.01,3,117.07,18 / 20,2521709,2019-09-06 20:02:07:452,-0.7466,0.4544,8.6248,0.0083,-0.0078,9.8066,-0.105,0.0077,0.0232,-19.0,-33.87,22.19,317.79,-83.22,-175.86
60404,52.388977,-1.542251,145.64,19.01,3,117.07,18 / 20,2521810,2019-09-06 20:02:07:553,-2.2551,0.133,10.1343,0.0139,-0.0259,9.8065,-0.1981,-0.0817,0.036,-18.81,-34.06,22.31,318.85,-83.32,-174.99
60405,52.388977,-1.542251,145.64,19.01,3,117.07,18 / 20,2521910,2019-09-06 20:02:07:653,-0.7724,0.9112,10.568,0.0,0.0119,9.8066,0.3076,-0.0492,-0.0225,-18.81,-32.75,22.06,318.44,-83.45,-175.62
60406,52.388977,-1.542251,145.64,19.01,3,117.07,18 / 20,2522011,2019-09-06 20:02:07:754,0.9991,-0.4543,10.7441,0.0379,-0.0288,9.8065,0.1823,0.0223,-0.0577,-19.0,-33.87,22.81,318.1,-83.31,-177.04
60407,52.388977,-1.542251,145.64,19.01,3,117.07,18 / 20,2522110,2019-09-06 20:02:07:853,-0.7686,-1.0093,10.2324,0.0103,-0.0034,9.8066,-0.046,0.0395,-0.0309,-18.75,-34.0,22.75,317.56,-83.09,-177.35
60408,52.388977,-1.542251,145.64,19.01,3,117.07,18 / 20,2522210,2019-09-06 20:02:07:953,-0.485,-0.2863,9.6623,-0.0273,0.017,9.8066,0.0112,-0.0546,0.0423,-18.69,-33.56,22.94,318.24,-83.26,-176.88
60409,52.388977,-1.542251,145.64,19.01,3,117.07,18 / 20,2522311,2019-09-06 20:02:08:054,-1.3283,-0.6658,10.1241,0.0115,-0.0055,9.8065,-0.0965,0.0188,-0.0401,-18.69,-33.75,22.63,318.13,-83.46,-177.14
60410,52.388977,-1.542251,145.64,19.01,3,117.07,19 / 21,2522410,2019-09-06 20:02:08:153,-1.9652,1.181,10.8324,0.003,0.005,9.8066,0.04,0.0178,0.0065,-18.75,-33.69,22.25,316.58,-83.38,-177.08
60411,52.388977,-1.542251,145.64,19.01,3,117.07,19 / 21,2522509,2019-09-06 20:02:08:252,0.7895,-0.785,9.8296,0.0347,-0.0461,9.8065,-0.1054,-0.0367,0.0295,-18.87,-33.37,22.56,317.83,-83.06,-177.23
60412,52.388977,-1.542251,145.64,19.01,3,117.07,19 / 21,2522610,2019-09-06 20:02:08:353,0.8936,0.2994,9.1337,0.0275,-0.0339,9.8065,-0.0772,0.0698,-0.0112,-18.75,-33.62,23.19,318.44,-83.02,-176.5
60413,52.388977,-1.542251,145.64,19.01,3,117.07,19 / 21,2522710,2019-09-06 20:02:08:453,-0.5576,-0.8831,9.9599,-0.0051,0.0174,9.8065,0.0195,0.0636,-0.0654,-18.81,-33.62,22.88,319.6,-83.18,-175.59
60414,52.388977,-1.542251,145.64,19.01,3,117.07,19 / 21,2522809,2019-09-06 20:02:08:552,-0.2247,0.8724,9.5706,-0.0135,-0.0015,9.8066,0.0574,-0.039,0.0255,-18.69,-33.12,22.81,319.83,-83.33,-175.65
60415,52.388977,-1.542251,145.64,19.01,3,117.07,19 / 21,2522910,2019-09-06 20:02:08:653,0.1478,-0.6333,10.1405,-0.0185,0.0191,9.8065,0.0848,-0.0525,-0.0017,-18.62,-33.12,23.13,319.95,-83.36,-175.57
60416,52.388977,-1.542251,145.64,19.01,3,117.07,19 / 21,2523009,2019-09-06 20:02:08:752,0.7013,1.6673,8.726,-0.0138,0.0222,9.8066,-0.0056,0.0504,-0.0045,-18.94,-32.56,22.75,319.61,-83.3,-175.82
60417,52.388977,-1.542251,145.64,19.01,3,117.07,19 / 21,2523109,2019-09-06 20:02:08:852,-1.4333,1.21,10.31,-0.0258,-0.0181,9.8065,-0.0065,-0.099,0.0665,-21.06,-32.31,23.5,322.27,-83.32,-172.25
60418,52.388977,-1.542251,145.64,19.01,3,117.07,19 / 21,2523209,2019-09-06 20:02:08:952,-0.7696,0.5632,10.3567,0.0311,-0.0372,9.8065,0.0414,-0.0243,0.0354,-20.31,-32.19,22.69,322.63,-83.06,-171.73
60419,52.388977,-1.542251,145.64,19.01,3,117.07,19 / 21,2523310,2019-09-06 20:02:09:053,-0.7774,0.528,10.2689,0.0283,-0.0182,9.8066,-0.0869,-0.0742,-0.0501,-20.12,-33.62,22.31,321.66,-82.95,-170.84
60420,52.388977,-1.542251,145.64,19.01,3,117.07,19 / 21,2523410,2019-09-06 20:02:09:153,-0.4725,-0.7779,9.1368,0.0395,0.0393,9.8064,-0.1613,0.0553,-0.1621,-18.69,-34.87,21.69,317.65,-83.0,-175.63
60421,52.388977,-1.542251,145.64,19.01,3,117.07,19 / 21,2523510,2019-09-06 20:02:09:253,-0.4774,0.5761,8.4472,0.0122,0.03,9.8065,0.0673,0.1367,-0.0485,-17.81,-35.94,21.38,313.24,-83.31,-179.6
60422,52.388977,-1.542251,145.64,19.01,3,117.07,19 / 21,2523609,2019-09-06 20:02:09:352,-0.8111,0.3156,9.8202,0.0001,-0.0155,9.8066,0.0496,-0.0171,0.1074,-17.94,-36.44,21.94,315.19,-83.42,-179.44
60423,52.388977,-1.542251,145.64,19.01,3,117.07,19 / 21,2523710,2019-09-06 20:02:09:453,-0.7509,1.6933,10.3962,0.0048,-0.0199,9.8066,0.0222,-0.0446,-0.002,-17.44,-36.62,22.94,319.38,-83.42,-178.41
60424,52.388977,-1.542251,145.64,19.01,3,117.07,19 / 21,2523809,2019-09-06 20:02:09:552,0.4524,-0.1894,9.7351,-0.0159,-0.0071,9.8066,0.1659,-0.0009,0.0663,-19.0,-35.19,23.25,318.25,-83.32,-176.77
60425,52.388977,-1.542251,145.64,19.01,3,117.07,19 / 21,2523910,2019-09-06 20:02:09:653,-0.7881,1.1818,10.2017,0.0163,-0.0397,9.8065,-0.0117,-0.0299,0.029,-19.0,-35.62,21.88,317.56,-83.22,-175.75
60426,52.388977,-1.542251,145.64,19.01,3,117.07,19 / 21,2524009,2019-09-06 20:02:09:752,-0.8274,-0.2312,9.4385,0.0306,-0.0174,9.8066,-0.1442,-0.0501,-0.0311,-17.81,-36.94,22.63,320.78,-83.0,-175.34
60427,52.388977,-1.542251,145.64,19.01,3,117.07,19 / 21,2524109,2019-09-06 20:02:09:852,-1.0379,1.4781,10.2761,-0.0075,0.0123,9.8066,0.1258,-0.0854,0.083,-17.62,-36.81,22.63,320.9,-83.17,-175.38
60428,52.388977,-1.542251,145.64,19.01,3,117.07,19 / 21,2524210,2019-09-06 20:02:09:953,-0.1228,0.019,10.6272,-0.0037,0.0169,9.8066,0.1233,-0.0541,-0.0216,-17.75,-36.5,23.06,321.0,-83.19,-175.46
60429,52.388977,-1.542251,145.64,19.01,3,117.07,19 / 21,2524310,2019-09-06 20:02:10:053,0.4072,0.7149,9.6084,-0.0105,-0.0023,9.8066,0.0052,-0.0192,0.0775,-18.44,-36.75,23.0,320.48,-83.08,-175.68
60430,52.388977,-1.542251,145.64,19.01,3,117.07,18 / 19,2524409,2019-09-06 20:02:10:152,-0.9414,-0.8045,10.0368,-0.0003,-0.0025,9.8066,-0.0583,-0.0535,0.0436,-20.31,-36.25,23.06,317.78,-82.98,-175.41
60431,52.388977,-1.542251,145.64,19.01,3,117.07,18 / 19,2524509,2019-09-06 20:02:10:252,0.266,0.2191,9.7123,0.011,0.0017,9.8066,-0.0812,-0.0294,-0.0514,-20.5,-37.31,22.06,315.34,-82.94,-175.98
60432,52.388977,-1.542251,145.64,19.01,3,117.07,18 / 19,2524610,2019-09-06 20:02:10:353,-0.4194,-0.4162,9.6274,-0.008,0.0084,9.8066,-0.0223,0.0189,0.0191,-19.25,-37.87,23.88,318.02,-82.84,-177.43
60433,52.388977,-1.542251,145.64,19.01,3,117.07,18 / 19,2524710,2019-09-06 20:02:10:453,-1.1542,0.4218,10.4545,-0.0188,0.025,9.8066,0.0441,0.033,-0.0026,-18.81,-36.0,23.5,318.11,-83.04,-177.83
60434,52.388977,-1.542251,145.64,19.01,3,117.07,18 / 19,2524810,2019-09-06 20:02:10:553,0.1048,0.5241,9.8618,-0.033,0.0467,9.8065,0.1212,-0.014,-0.0407,-19.19,-36.12,22.25,314.34,-83.18,-178.59
60435,52.388977,-1.542251,145.64,19.01,3,117.07,18 / 19,2524910,2019-09-06 20:02:10:653,0.5707,0.3373,9.6559,0.0093,-0.0161,9.8066,0.0006,-0.0195,0.0603,-19.25,-37.44,21.75,314.05,-83.09,-178.58
60436,52.388977,-1.542251,145.64,19.01,3,117.07,18 / 19,2525010,2019-09-06 20:02:10:753,0.9548,-0.6103,10.2714,0.0141,-0.0123,9.8066,0.0243,0.0149,-0.0291,-18.94,-37.44,22.75,316.02,-83.04,-178.2
60437,52.388977,-1.542251,145.64,19.01,3,117.07,18 / 19,2525110,2019-09-06 20:02:10:853,-0.708,-0.8882,9.5544,0.0123,-0.0081,9.8066,-0.1279,0.0376,-0.0382,-18.62,-37.19,23.5,317.51,-83.08,-178.25
60438,52.388977,-1.542251,145.64,19.01,3,117.07,18 / 19,2525210,2019-09-06 20:02:10:953,0.0471,0.7456,9.6802,0.036,-0.0223,9.8065,-0.0623,-0.0179,-0.0316,-18.94,-36.81,22.81,315.02,-82.91,-178.97
60439,52.388977,-1.542251,145.64,19.01,3,117.07,18 / 19,2525310,2019-09-06 20:02:11:053,-0.0809,0.8626,10.0511,-0.0104,0.0068,9.8066,0.0898,0.0224,-0.0587,-18.31,-36.5,21.88,315.01,-83.0,-179.19
60440,52.388977,-1.542251,145.64,19.01,3,117.07,19 / 20,2525409,2019-09-06 20:02:11:152,-1.5382,0.7165,10.5195,-0.0197,0.016,9.8065,-0.0331,-0.0193,0.0458,-18.19,-37.19,22.06,315.07,-83.05,-179.02
60441,52.388977,-1.542251,145.64,19.01,3,117.07,19 / 20,2525510,2019-09-06 20:02:11:253,-0.4907,-0.38,9.9298,0.0024,-0.003,9.8066,-0.0157,0.0781,-0.0552,-19.06,-37.94,20.75,311.48,-82.95,-179.05
60442,52.388977,-1.542251,145.64,19.01,3,117.07,19 / 20,2525609,2019-09-06 20:02:11:352,-0.1239,0.0915,9.4878,-0.0076,-0.0019,9.8066,-0.0702,-0.0218,0.0173,-18.37,-38.5,20.75,313.34,-83.0,-178.82
60443,52.388977,-1.542251,145.64,19.01,3,117.07,19 / 20,2525710,2019-09-06 20:02:11:453,-0.1635,0.7059,9.317,0.0065,0.019,9.8065,-0.0326,0.043,-0.0847,-18.87,-38.81,23.88,315.51,-83.13,-179.77
60444,52.388977,-1.542251,145.64,19.01,3,117.07,19 / 20,2525809,2019-09-06 20:02:11:552,-0.0856,0.2734,9.3991,0.0061,0.0058,9.8066,-0.0466,-0.0055,-0.0062,-16.94,-37.0,23.75,316.55,-83.25,177.92
60445,52.388977,-1.542251,145.64,19.01,3,117.07,19 / 20,2525909,2019-09-06 20:02:11:652,-0.2962,1.0177,9.906,-0.001,-0.0002,9.8066,-0.0085,0.0404,0.0168,-16.0,-36.94,23.31,316.27,-83.31,177.42
60446,52.388977,-1.542251,145.64,19.01,3,117.07,19 / 20,2526010,2019-09-06 20:02:11:753,-0.3139,1.5102,9.9974,-0.0098,-0.0077,9.8066,-0.1611,0.0466,0.0548,-14.62,-36.25,23.25,319.57,-83.3,178.59
60447,52.388977,-1.542251,145.64,19.01,3,117.07,19 / 20,2526110,2019-09-06 20:02:11:853,-1.1834,1.2501,10.3045,-0.0059,-0.0131,9.8066,0.1805,0.0272,0.0253,-14.75,-35.0,23.31,322.22,-83.16,-179.13
60448,52.388977,-1.542251,145.64,19.01,3,117.07,19 / 20,2526210,2019-09-06 20:02:11:953,-1.0626,1.1665,10.1404,-0.0075,0.0001,9.8066,0.1716,0.0112,-0.0454,-14.37,-35.31,22.19,322.97,-83.11,-178.78
60449,52.388977,-1.542251,145.64,19.01,3,117.07,19 / 20,2526310,2019-09-06 20:02:12:053,-0.4678,-0.1831,10.3697,0.0057,-0.0188,9.8066,-0.1763,0.0182,0.0166,-14.31,-35.81,22.5,325.13,-83.17,-178.13
60450,52.388206,-1.540013,144.18,18.64,3,119.81,18 / 19,2526410,2019-09-06 20:02:12:153,-0.3251,0.1836,10.0499,0.0214,-0.0296,9.8065,0.0085,0.0002,-0.0173,-15.06,-34.31,22.88,323.89,-83.19,-177.83
60451,52.388206,-1.540013,144.18,18.64,3,119.81,18 / 19,2526510,2019-09-06 20:02:12:253,-0.0627,1.1984,10.0133,0.0026,-0.0024,9.8066,0.0262,-0.0205,-0.0146,-15.75,-36.62,21.56,319.27,-82.95,-178.22
60452,52.388206,-1.540013,144.18,18.64,3,119.81,18 / 19,2526609,2019-09-06 20:02:12:352,-0.5817,0.7818,11.1772,0.0172,-0.02,9.8065,-0.0612,0.0436,-0.0696,-15.94,-36.19,23.75,322.7,-82.78,-177.92
60453,52.388206,-1.540013,144.18,18.64,3,119.81,18 / 19,2526710,2019-09-06 20:02:12:453,0.3198,0.3971,10.035,0.0013,-0.021,9.8066,-0.026,-0.0161,0.1314,-16.37,-35.56,23.25,320.48,-82.84,-178.61
60454,52.388206,-1.540013,144.18,18.64,3,119.81,18 / 19,2526810,2019-09-06 20:02:12:553,-0.0687,-0.4661,8.9636,-0.0308,0.0019,9.8065,0.0237,0.0049,-0.0047,-16.37,-35.0,22.31,321.18,-82.86,-176.8
60455,52.388206,-1.540013,144.18,18.64,3,119.81,18 / 19,2526909,2019-09-06 20:02:12:652,-0.2761,1.5795,9.5233,0.0014,-0.001,9.8066,0.062,-0.0271,0.0117,-16.56,-36.56,21.5,321.3,-83.03,-174.99
60456,52.388206,-1.540013,144.18,18.64,3,119.81,18 / 19,2527009,2019-09-06 20:02:12:752,-0.2004,1.5387,9.8144,0.0053,0.0072,9.8066,0.0735,-0.0002,0.0012,-16.94,-36.25,22.81,322.11,-83.11,-175.88
60457,52.388206,-1.540013,144.18,18.64,3,119.81,18 / 19,2527109,2019-09-06 20:02:12:852,-1.052,1.0798,10.3216,0.0309,-0.0257,9.8065,0.036,0.0342,0.0075,-16.56,-35.81,22.38,319.9,-82.86,-176.21
60458,52.388206,-1.540013,144.18,18.64,3,119.81,18 / 19,2527209,2019-09-06 20:02:12:952,0.7855,0.7748,9.4005,-0.0126,0.0155,9.8066,-0.0521,0.0855,-0.042,-16.5,-35.37,23.0,323.53,-82.71,-176.0
60459,52.388206,-1.540013,144.18,18.64,3,119.81,18 / 19,2527310,2019-09-06 20:02:13:053,0.3244,0.4101,9.9213,-0.0033,0.0075,9.8066,0.0286,-0.0286,0.0445,-15.62,-36.12,21.94,322.15,-82.88,-175.82
60460,52.388206,-1.540013,144.18,18.64,3,119.81,20 / 21,2527410,2019-09-06 20:02:13:153,-0.2216,0.798,9.322,0.0086,-0.0143,9.8066,-0.0247,0.0262,-0.0586,-14.37,-36.62,21.75,325.94,-82.91,-175.75
60461,52.388206,-1.540013,144.18,18.64,3,119.81,20 / 21,2527510,2019-09-06 20:02:13:253,0.5609,0.4111,9.1992,0.0227,-0.0197,9.8065,0.0549,-0.0272,0.0068,-14.5,-37.31,22.81,326.94,-82.85,-176.16
60462,52.388206,-1.540013,144.18,18.64,3,119.81,20 / 21,2527610,2019-09-06 20:02:13:353,0.1239,-0.2454,8.7314,-0.0021,0.005,9.8066,-0.1717,-0.0223,-0.0355,-14.81,-35.56,23.0,325.12,-82.92,-176.25
60463,52.388206,-1.540013,144.18,18.64,3,119.81,20 / 21,2527709,2019-09-06 20:02:13:452,-0.213,-0.6297,10.2132,-0.0279,0.0223,9.8066,-0.0317,0.0001,0.0123,-16.12,-35.56,22.25,321.68,-83.08,-176.41
60464,52.388206,-1.540013,144.18,18.64,3,119.81,20 / 21,2527809,2019-09-06 20:02:13:552,-0.62,1.9899,10.1855,0.0226,-0.0288,9.8065,-0.0975,0.0165,-0.0306,-17.0,-36.0,21.69,319.4,-83.02,-176.8
60465,52.388206,-1.540013,144.18,18.64,3,119.81,20 / 21,2527910,2019-09-06 20:02:13:653,-0.9001,0.0941,10.0453,0.0151,-0.0125,9.8066,0.0152,-0.0143,0.0948,-16.25,-36.25,22.06,321.3,-82.8,-176.47
60466,52.388206,-1.540013,144.18,18.64,3,119.81,20 / 21,2528010,2019-09-06 20:02:13:753,0.8509,-0.3648,9.134,-0.0145,0.0081,9.8065,0.0446,0.0484,-0.036,-16.06,-36.62,21.94,322.45,-82.88,-175.4
60467,52.388206,-1.540013,144.18,18.64,3,119.81,20 / 21,2528110,2019-09-06 20:02:13:853,-0.3572,0.2138,9.6112,0.0363,-0.0311,9.8065,-0.0143,0.0362,-0.0521,-16.0,-35.31,22.5,324.14,-82.64,-175.42
60468,52.388206,-1.540013,144.18,18.64,3,119.81,20 / 21,2528210,2019-09-06 20:02:13:953,-0.054,0.2245,9.6446,-0.0096,0.0212,9.8066,0.0011,0.0409,-0.0353,-15.12,-35.19,22.25,323.94,-82.86,-176.02
60469,52.388206,-1.540013,144.18,18.64,3,119.81,20 / 21,2528310,2019-09-06 20:02:14:053,0.612,0.5572,9.5286,0.0053,0.0,9.8066,0.0649,-0.0435,0.0129,-15.19,-34.62,22.38,323.09,-82.78,-176.69
60470,52.388206,-1.540013,144.18,18.64,3,119.81,20 / 21,2528410,2019-09-06 20:02:14:153,0.2309,-0.5501,9.9311,-0.0017,0.0029,9.8066,0.1604,0.0278,-0.0636,-14.87,-34.94,22.75,324.97,-82.96,-176.56
60471,52.388206,-1.540013,144.18,18.64,3,119.81,20 / 21,2528509,2019-09-06 20:02:14:252,0.6485,-0.1167,10.3478,-0.011,0.0111,9.8066,-0.2442,-0.0527,0.0638,-14.69,-35.12,21.75,323.2,-83.11,-176.88
60472,52.388206,-1.540013,144.18,18.64,3,119.81,20 / 21,2528610,2019-09-06 20:02:14:353,-0.1678,0.6019,9.5988,0.0229,-0.0326,9.8065,-0.1805,0.0213,-0.0375,-14.62,-35.44,21.56,322.94,-83.01,-177.02
60473,52.388206,-1.540013,144.18,18.64,3,119.81,20 / 21,2528710,2019-09-06 20:02:14:453,-0.0209,0.4726,9.7334,-0.0076,0.0115,9.8066,0.0773,-0.002,0.0196,-14.62,-36.25,22.38,322.35,-83.02,-177.38
60474,52.388206,-1.540013,144.18,18.64,3,119.81,20 / 21,2528810,2019-09-06 20:02:14:553,-0.1718,-0.2075,9.9344,-0.0006,-0.0024,9.8065,0.014,0.0374,-0.0028,-15.06,-35.37,22.31,322.65,-82.98,-177.25
60475,52.388206,-1.540013,144.18,18.64,3,119.81,20 / 21,2528909,2019-09-06 20:02:14:652,0.6042,0.4574,9.6443,-0.01,-0.0012,9.8066,-0.0524,0.0285,-0.026,-15.12,-36.06,22.5,324.29,-82.96,-177.0
60476,52.388206,-1.540013,144.18,18.64,3,119.81,20 / 21,2529010,2019-09-06 20:02:14:753,-1.7394,0.9296,10.6143,0.0087,-0.0091,9.8066,-0.0414,0.0023,0.0401,-15.87,-35.87,23.44,323.48,-82.9,-176.05
60477,52.388206,-1.540013,144.18,18.64,3,119.81,20 / 21,2529110,2019-09-06 20:02:14:853,0.2178,-2.2204,10.0793,-0.0135,0.0078,9.8066,-0.1189,0.0419,-0.0303,-15.31,-34.87,22.31,324.19,-82.95,-175.89
60478,52.388206,-1.540013,144.18,18.64,3,119.81,20 / 21,2529210,2019-09-06 20:02:14:953,-0.2384,0.3054,9.4841,0.0091,-0.0103,9.8066,-0.1351,-0.0335,0.01,-14.31,-35.0,21.56,327.36,-82.8,-174.74
60479,52.388206,-1.540013,144.18,18.64,3,119.81,20 / 21,2529309,2019-09-06 20:02:15:052,-0.5779,0.08,10.1111,-0.0054,-0.0033,9.8066,-0.0458,-0.0062,0.0283,-13.25,-36.12,22.0,329.98,-82.9,-174.24
60480,52.388206,-1.540013,144.18,18.64,3,119.81,19 / 21,2529410,2019-09-06 20:02:15:153,-0.3172,0.0575,10.0807,-0.0018,0.0046,9.8066,-0.0609,0.0193,-0.0262,-12.75,-35.19,22.13,330.33,-82.97,-174.14
60481,52.388206,-1.540013,144.18,18.64,3,119.81,19 / 21,2529509,2019-09-06 20:02:15:252,0.072,-0.3316,10.1132,-0.0017,-0.0062,9.8066,-0.0674,-0.0017,0.0448,-13.19,-34.87,22.69,331.95,-82.93,-173.99
60482,52.388206,-1.540013,144.18,18.64,3,119.81,19 / 21,2529609,2019-09-06 20:02:15:352,0.2372,-0.1001,9.8416,0.0017,-0.0077,9.8066,0.0481,-0.0185,0.0004,-14.37,-33.94,22.13,328.68,-82.78,-173.75
60483,52.388206,-1.540013,144.18,18.64,3,119.81,19 / 21,2529709,2019-09-06 20:02:15:452,-0.6192,-0.6396,10.1901,-0.0087,0.0027,9.8066,0.01,-0.0778,0.0241,-14.37,-34.62,22.0,328.98,-82.81,-173.38
60484,52.388206,-1.540013,144.18,18.64,3,119.81,19 / 21,2529810,2019-09-06 20:02:15:553,0.3456,0.1737,9.9181,-0.0034,-0.0003,9.8066,0.0032,-0.0301,0.007,-14.81,-34.94,21.63,327.45,-82.84,-172.99
60485,52.388206,-1.540013,144.18,18.64,3,119.81,19 / 21,2529910,2019-09-06 20:02:15:653,0.2768,0.4416,9.5925,-0.0104,0.0136,9.8066,0.0971,-0.0113,0.011,-13.94,-35.25,22.31,329.56,-82.93,-172.96
60486,52.388206,-1.540013,144.18,18.64,3,119.81,19 / 21,2530010,2019-09-06 20:02:15:753,-0.4241,-0.4945,10.3644,0.0047,-0.0197,9.8066,-0.0721,-0.0207,0.073,-12.69,-34.44,22.44,331.63,-82.88,-173.1
60487,52.388206,-1.540013,144.18,18.64,3,119.81,19 / 21,2530110,2019-09-06 20:02:15:853,-0.2571,0.7474,10.0623,0.0185,-0.0056,9.8066,-0.0726,-0.0333,-0.082,-13.94,-34.31,21.69,329.35,-82.83,-173.21
60488,52.388206,-1.540013,144.18,18.64,3,119.81,19 / 21,2530210,2019-09-06 20:02:15:953,0.2941,0.4633,9.4521,-0.0193,0.0015,9.8065,0.0399,-0.0602,0.0309,-14.5,-33.69,22.63,330.61,-82.95,-173.5
60489,52.388206,-1.540013,144.18,18.64,3,119.81,19 / 21,2530310,2019-09-06 20:02:16:053,-0.9602,1.0746,9.7551,0.0023,-0.0025,9.8065,-0.04,0.0415,-0.0404,-15.44,-33.12,21.5,327.03,-83.08,-173.83
60490,52.388206,-1.540013,144.18,18.64,3,119.81,19 / 21,2530410,2019-09-06 20:02:16:153,-0.1285,0.4895,10.2698,0.0267,-0.0057,9.8065,0.0782,-0.0199,0.0074,-14.44,-32.56,21.44,326.23,-83.08,-174.86
60491,52.388206,-1.540013,144.18,18.64,3,119.81,19 / 21,2530509,2019-09-06 20:02:16:252,0.0564,0.0521,10.3751,0.0097,-0.0128,9.8066,0.0937,0.0236,-0.0538,-14.81,-32.87,21.94,324.96,-82.85,-175.45
60492,52.388206,-1.540013,144.18,18.64,3,119.81,19 / 21,2530609,2019-09-06 20:02:16:352,0.2433,-0.2841,9.4062,0.0229,-0.0202,9.8065,0.047,-0.0453,0.0306,-14.81,-32.75,22.13,324.16,-82.57,-175.93
60493,52.388206,-1.540013,144.18,18.64,3,119.81,19 / 21,2530710,2019-09-06 20:02:16:453,-1.1695,0.3207,9.6218,-0.0415,0.0427,9.8064,-0.0125,-0.033,0.0363,-16.12,-32.87,22.75,325.4,-82.97,-174.87
60494,52.388206,-1.540013,144.18,18.64,3,119.81,19 / 21,2530810,2019-09-06 20:02:16:553,-0.4224,0.7742,9.3845,-0.0447,0.0326,9.8064,0.085,-0.0093,0.0072,-15.69,-33.75,21.0,323.23,-83.16,-173.99
60495,52.388206,-1.540013,144.18,18.64,3,119.81,19 / 21,2530910,2019-09-06 20:02:16:653,0.014,0.0465,9.8029,-0.0004,-0.0003,9.8066,0.0909,0.0029,0.0861,-16.44,-35.44,21.94,325.84,-83.13,-172.98
60496,52.388206,-1.540013,144.18,18.64,3,119.81,19 / 21,2531010,2019-09-06 20:02:16:753,-1.2307,-0.793,10.8348,0.0078,-0.0318,9.8065,-0.0779,-0.0411,-0.0766,-17.06,-34.75,23.31,326.6,-82.92,-171.96
60497,52.388206,-1.540013,144.18,18.64,3,119.81,19 / 21,2531110,2019-09-06 20:02:16:853,-0.8983,0.3484,9.9279,0.0262,-0.0036,9.8065,-0.0497,0.0291,-0.0535,-17.81,-33.62,23.63,325.33,-82.65,-172.83
60498,52.388206,-1.540013,144.18,18.64,3,119.81,19 / 21,2531210,2019-09-06 20:02:16:953,0.9015,0.094,9.0527,-0.029,0.0311,9.8065,0.0195,-0.0538,0.0649,-17.31,-33.69,22.38,322.84,-82.64,-173.8
60499,52.388206,-1.540013,144.18,18.64,3,119.81,19 / 21,2531309,2019-09-06 20:02:17:052,0.1476,1.7428,8.6039,-0.0356,0.0301,9.8065,-0.1661,0.0317,-0.1519,-16.44,-34.37,22.0,326.38,-83.15,-172.66
60500,52.388206,-1.540013,144.18,18.64,3,119.81,19 / 20,2531410,2019-09-06 20:02:17:153,-0.7651,1.8778,10.2505,-0.0098,0.0142,9.8066,0.2006,-0.1654,0.1409,-16.31,-35.0,22.69,327.34,-83.27,-173.12
60501,52.388206,-1.540013,144.18,18.64,3,119.81,19 / 20,2531509,2019-09-06 20:02:17:252,1.1301,-0.1569,9.9774,0.0189,-0.032,9.8065,0.2855,0.0594,-0.1167,-16.25,-34.69,22.38,325.87,-83.34,-173.11
60502,52.388206,-1.540013,144.18,18.64,3,119.81,19 / 20,2531610,2019-09-06 20:02:17:353,0.3896,0.7136,10.0091,0.0325,-0.0139,9.8065,-0.173,-0.0295,0.1227,-16.56,-34.44,22.25,323.3,-82.95,-173.64
60503,52.388206,-1.540013,144.18,18.64,3,119.81,19 / 20,2531710,2019-09-06 20:02:17:453,-0.7303,-0.3868,9.8269,0.0023,-0.0301,9.8066,-0.203,0.0692,-0.0679,-16.31,-35.12,22.19,324.49,-82.62,-173.73
60504,52.388206,-1.540013,144.18,18.64,3,119.81,19 / 20,2531809,2019-09-06 20:02:17:552,0.476,0.1456,9.3811,0.0041,0.004,9.8066,-0.1369,0.0156,-0.0237,-17.25,-34.81,22.63,323.92,-82.67,-174.1
60505,52.388206,-1.540013,144.18,18.64,3,119.81,19 / 20,2531910,2019-09-06 20:02:17:653,-1.0371,0.1249,10.1235,0.0083,0.0083,9.8065,-0.1288,-0.0406,0.0305,-16.12,-34.75,22.63,325.52,-82.79,-174.33
60506,52.388206,-1.540013,144.18,18.64,3,119.81,19 / 20,2532010,2019-09-06 20:02:17:753,-0.4538,-0.0313,9.6661,0.0159,-0.0056,9.8066,0.0757,0.0199,-0.0105,-16.56,-34.75,22.25,321.81,-82.84,-174.69
60507,52.388206,-1.540013,144.18,18.64,3,119.81,19 / 20,2532109,2019-09-06 20:02:17:852,0.1801,0.3863,9.9303,0.0043,-0.0071,9.8066,0.075,-0.0453,0.0257,-16.25,-34.87,22.63,324.81,-82.83,-174.98
60508,52.388206,-1.540013,144.18,18.64,3,119.81,19 / 20,2532210,2019-09-06 20:02:17:953,-0.8679,0.0347,10.3244,0.0029,-0.0067,9.8066,0.0175,0.0267,-0.0097,-16.56,-34.81,22.56,323.61,-82.81,-174.48
60509,52.388206,-1.540013,144.18,18.64,3,119.81,19 / 20,2532310,2019-09-06 20:02:18:053,0.3759,-0.0374,10.2973,-0.0093,0.0003,9.8065,0.1176,-0.0137,0.0418,-17.19,-35.06,22.75,323.34,-82.78,-174.69
60510,52.388206,-1.540013,144.18,18.64,3,119.81,19 / 21,2532409,2019-09-06 20:02:18:152,0.2828,-0.7564,10.0944,-0.004,-0.0141,9.8065,-0.0831,-0.0248,0.0034,-17.19,-35.56,23.0,324.22,-82.66,-173.68
60511,52.388206,-1.540013,144.18,18.64,3,119.81,19 / 21,2532510,2019-09-06 20:02:18:253,0.8124,-0.6188,9.9954,-0.003,-0.0051,9.8066,0.114,0.0675,0.004,-16.44,-34.75,23.38,326.67,-82.69,-173.27
60512,52.388206,-1.540013,144.18,18.64,3,119.81,19 / 21,2532609,2019-09-06 20:02:18:352,-0.1259,-1.6227,9.0063,-0.0032,0.0047,9.8066,-0.0304,-0.0579,-0.0098,-16.44,-34.5,23.13,326.88,-82.73,-173.26
60513,52.388206,-1.540013,144.18,18.64,3,119.81,19 / 21,2532710,2019-09-06 20:02:18:453,-0.6738,1.3377,9.0638,-0.0192,0.026,9.8065,-0.1216,-0.0039,-0.0263,-16.19,-34.69,22.69,327.79,-82.67,-172.29
60514,52.388206,-1.540013,144.18,18.64,3,119.81,19 / 21,2532809,2019-09-06 20:02:18:552,-0.3304,0.1309,9.7373,0.0196,-0.0099,9.8066,0.2207,-0.0299,-0.0131,-16.0,-35.94,23.25,326.85,-82.8,-173.05
60515,52.388206,-1.540013,144.18,18.64,3,119.81,19 / 21,2532910,2019-09-06 20:02:18:653,-0.3335,-0.9165,10.6161,-0.0087,0.0132,9.8066,0.2069,0.0184,-0.0335,-16.69,-34.56,23.88,326.43,-82.71,-173.25
60516,52.388206,-1.540013,144.18,18.64,3,119.81,19 / 21,2533010,2019-09-06 20:02:18:753,0.4003,0.1165,10.0037,-0.0146,0.0215,9.8065,-0.1207,0.0069,0.044,-17.31,-32.69,22.31,322.84,-82.62,-173.94
60517,52.388206,-1.540013,144.18,18.64,3,119.81,19 / 21,2533110,2019-09-06 20:02:18:853,-0.1086,-0.9584,9.9838,0.0119,0.0111,9.8065,-0.0268,-0.0427,0.0318,-18.25,-33.5,21.56,320.37,-82.51,-174.55
60518,52.388206,-1.540013,144.18,18.64,3,119.81,19 / 21,2533209,2019-09-06 20:02:18:952,0.3419,0.4618,10.0694,0.0231,-0.0137,9.8065,-0.0341,-0.0503,-0.0072,-19.56,-32.25,22.63,318.32,-82.47,-175.15
60519,52.388206,-1.540013,144.18,18.64,3,119.81,19 / 21,2533310,2019-09-06 20:02:19:053,0.7921,-0.739,9.6546,-0.0079,0.018,9.8066,0.0819,0.0085,-0.0224,-18.5,-32.75,23.25,320.06,-82.48,-176.18
60520,52.388206,-1.540013,144.18,18.64,3,119.81,19 / 20,2533410,2019-09-06 20:02:19:153,1.1478,-0.6489,9.6415,0.0,0.0067,9.8066,-0.1356,0.021,-0.0235,-15.44,-33.37,24.44,326.22,-82.46,-176.66
60521,52.388206,-1.540013,144.18,18.64,3,119.81,19 / 20,2533509,2019-09-06 20:02:19:252,-0.5472,0.0384,10.3907,0.0132,-0.0196,9.8066,0.033,0.0336,0.0305,-13.75,-33.87,23.75,327.99,-82.35,-176.56
60522,52.388206,-1.540013,144.18,18.64,3,119.81,19 / 20,2533610,2019-09-06 20:02:19:353,0.1245,1.0254,9.5349,0.0186,-0.0233,9.8066,0.0891,-0.0092,-0.0022,-14.0,-34.37,23.75,327.79,-82.29,-176.69
60523,52.388206,-1.540013,144.18,18.64,3,119.81,19 / 20,2533710,2019-09-06 20:02:19:453,-0.0886,0.0702,10.2412,-0.0255,0.0361,9.8065,0.0533,0.0241,-0.0824,-13.12,-33.87,23.56,331.17,-82.52,-175.69
60524,52.388206,-1.540013,144.18,18.64,3,119.81,19 / 20,2533810,2019-09-06 20:02:19:553,0.6841,-0.7729,9.9469,-0.0193,0.0566,9.8064,-0.1979,0.0117,0.1005,-13.37,-33.69,22.81,328.41,-82.64,-176.94
60525,52.388206,-1.540013,144.18,18.64,3,119.81,19 / 20,2533909,2019-09-06 20:02:19:652,-0.6913,0.143,10.7637,0.0065,-0.0288,9.8065,-0.1023,-0.019,-0.0211,-14.12,-34.87,22.63,324.94,-82.54,-177.92
60526,52.388206,-1.540013,144.18,18.64,3,119.81,19 / 20,2534009,2019-09-06 20:02:19:752,-0.3538,-0.016,10.6789,0.0136,-0.0153,9.8066,0.0203,0.0021,-0.0019,-15.12,-33.5,23.38,323.78,-82.25,-177.34
60527,52.388206,-1.540013,144.18,18.64,3,119.81,19 / 20,2534110,2019-09-06 20:02:19:853,-0.3094,-1.2613,10.9474,0.02,-0.0341,9.8065,0.021,0.0463,0.0374,-15.19,-33.94,23.56,325.05,-82.1,-177.25
60528,52.388206,-1.540013,144.18,18.64,3,119.81,19 / 20,2534210,2019-09-06 20:02:19:953,-0.6389,-1.4044,10.4688,-0.0022,-0.0071,9.8066,0.0059,-0.0325,-0.0293,-14.56,-33.44,23.5,325.68,-82.27,-176.98
60529,52.388206,-1.540013,144.18,18.64,3,119.81,19 / 20,2534310,2019-09-06 20:02:20:053,-0.2618,0.0286,8.8049,-0.003,0.0234,9.8065,0.0472,-0.0272,0.0194,-14.25,-34.12,22.94,325.25,-82.26,-177.6
60530,52.388206,-1.540013,144.18,18.64,3,119.81,18 / 20,2534410,2019-09-06 20:02:20:153,0.5461,0.3875,9.4247,-0.0105,-0.0024,9.8066,0.0744,-0.0887,-0.0081,-13.56,-33.94,23.38,324.81,-82.25,-177.97
60531,52.388206,-1.540013,144.18,18.64,3,119.81,18 / 20,2534509,2019-09-06 20:02:20:252,-0.1616,0.377,10.4489,-0.0117,0.0147,9.8066,0.0552,0.0153,-0.0031,-13.37,-33.37,22.63,328.37,-82.21,-176.81
60532,52.388206,-1.540013,144.18,18.64,3,119.81,18 / 20,2534610,2019-09-06 20:02:20:353,0.0808,-0.1032,9.8486,-0.0237,0.0406,9.8065,-0.062,0.0152,0.0356,-13.75,-34.12,22.81,325.6,-82.27,-177.31
60533,52.388206,-1.540013,144.18,18.64,3,119.81,18 / 20,2534709,2019-09-06 20:02:20:452,0.5136,-0.2531,9.9257,0.0115,-0.0074,9.8066,-0.055,-0.0063,-0.0782,-13.81,-34.31,22.63,326.34,-82.21,-176.63
60534,52.388206,-1.540013,144.18,18.64,3,119.81,18 / 20,2534810,2019-09-06 20:02:20:553,-0.7995,0.9282,10.2063,0.0284,-0.0164,9.8065,0.1082,-0.0021,0.0535,-13.62,-34.56,22.44,323.87,-82.21,-177.23
60535,52.388206,-1.540013,144.18,18.64,3,119.81,18 / 20,2534910,2019-09-06 20:02:20:653,0.1189,-0.8266,9.9013,-0.0086,0.0115,9.8066,0.0332,-0.0107,0.0818,-14.5,-34.31,23.06,324.88,-82.2,-177.86
60536,52.388206,-1.540013,144.18,18.64,3,119.81,18 / 20,2535010,2019-09-06 20:02:20:753,-0.0988,0.7004,9.7265,-0.0074,-0.0138,9.8066,-0.0347,-0.0351,0.0067,-15.31,-34.12,22.31,322.51,-82.18,-176.85
60537,52.388206,-1.540013,144.18,18.64,3,119.81,18 / 20,2535110,2019-09-06 20:02:20:853,0.7161,-0.6109,9.8036,-0.0103,0.0138,9.8065,-0.0489,0.0165,-0.001,-16.25,-34.5,22.81,322.89,-82.26,-176.35
60538,52.388206,-1.540013,144.18,18.64,3,119.81,18 / 20,2535210,2019-09-06 20:02:20:953,-0.3543,1.128,9.6793,0.0067,0.0059,9.8066,0.0867,-0.0103,0.005,-16.5,-33.5,23.06,322.15,-82.17,-177.09
60539,52.388206,-1.540013,144.18,18.64,3,119.81,18 / 20,2535310,2019-09-06 20:02:21:053,0.8175,-0.2592,9.864,-0.01,0.0017,9.8066,-0.0179,-0.0001,-0.108,-16.44,-33.44,22.25,320.99,-82.12,-176.68
60540,52.387505,-1.53798,143.39,17.24,3,119.79,18 / 20,2535410,2019-09-06 20:02:21:153,-0.1972,-0.6516,9.8118,0.0091,-0.0007,9.8066,-0.1603,0.0711,0.0693,-16.75,-33.19,22.69,320.84,-82.12,-176.68
60541,52.387505,-1.53798,143.39,17.24,3,119.79,18 / 20,2535510,2019-09-06 20:02:21:253,0.9128,0.0515,9.7813,0.0073,-0.0364,9.8065,-0.1156,-0.021,-0.08,-16.31,-33.31,23.94,324.11,-82.11,-176.64
60542,52.387505,-1.53798,143.39,17.24,3,119.79,18 / 20,2535610,2019-09-06 20:02:21:353,0.7396,0.2785,10.042,0.0192,0.0006,9.8066,-0.0291,-0.0532,0.0737,-15.62,-35.0,24.31,324.26,-82.33,-176.37
60543,52.387505,-1.53798,143.39,17.24,3,119.79,18 / 20,2535710,2019-09-06 20:02:21:453,-0.7585,-0.4863,10.1802,0.0193,-0.0307,9.8065,0.0305,-0.034,0.0015,-15.19,-35.5,24.31,324.86,-82.29,-177.39
60544,52.387505,-1.53798,143.39,17.24,3,119.79,18 / 20,2535810,2019-09-06 20:02:21:553,0.2393,-0.4965,10.3447,0.016,-0.0202,9.8065,0.0294,-0.0304,-0.0091,-15.75,-36.06,24.31,322.99,-82.22,-177.21
60545,52.387505,-1.53798,143.39,17.24,3,119.79,18 / 20,2535909,2019-09-06 20:02:21:652,0.7631,-0.8597,9.9268,-0.0125,0.0011,9.8066,0.0551,0.0302,0.0281,-16.06,-35.56,23.69,322.99,-82.13,-177.13
60546,52.387505,-1.53798,143.39,17.24,3,119.79,18 / 20,2536009,2019-09-06 20:02:21:752,1.2182,-1.5956,10.3993,-0.0217,0.0114,9.8066,-0.1317,-0.0334,-0.0538,-15.87,-35.31,23.13,322.47,-82.21,-176.5
60547,52.387505,-1.53798,143.39,17.24,3,119.79,18 / 20,2536110,2019-09-06 20:02:21:853,0.2706,-0.2623,9.1988,0.0038,0.01,9.8066,-0.0924,0.0193,-0.015,-15.81,-34.94,23.81,323.99,-82.26,-176.54
60548,52.387505,-1.53798,143.39,17.24,3,119.79,18 / 20,2536210,2019-09-06 20:02:21:953,-0.9541,-0.3949,8.9506,0.0009,0.0153,9.8066,0.2882,-0.0059,-0.0382,-16.25,-34.5,24.19,322.94,-82.4,-177.72
60549,52.387505,-1.53798,143.39,17.24,3,119.79,18 / 20,2536310,2019-09-06 20:02:22:053,-1.1907,1.0096,10.3038,-0.0128,0.0225,9.8066,0.2813,-0.0763,-0.0593,-14.94,-34.25,23.63,325.37,-82.44,-177.22
60550,52.387505,-1.53798,143.39,17.24,3,119.79,19 / 21,2536409,2019-09-06 20:02:22:152,1.3106,-1.683,10.5743,-0.0072,0.0396,9.8065,-0.2484,0.0165,-0.0003,-15.12,-34.81,23.63,323.3,-82.27,-178.72
60551,52.387505,-1.53798,143.39,17.24,3,119.79,19 / 21,2536510,2019-09-06 20:02:22:253,1.5048,-0.6906,9.2364,0.015,-0.02,9.8066,-0.2193,-0.0134,0.0288,-15.12,-35.31,22.19,319.13,-81.91,-179.32
60552,52.387505,-1.53798,143.39,17.24,3,119.79,19 / 21,2536610,2019-09-06 20:02:22:353,-1.3911,1.1959,9.1678,-0.0064,-0.0032,9.8066,0.1218,0.0212,-0.0209,-15.31,-36.5,22.81,321.85,-82.16,-178.41
60553,52.387505,-1.53798,143.39,17.24,3,119.79,19 / 21,2536710,2019-09-06 20:02:22:453,-0.458,-0.4358,9.5452,-0.023,0.037,9.8065,0.1353,-0.031,0.0767,-15.31,-36.06,23.0,322.45,-82.38,-178.09
60554,52.387505,-1.53798,143.39,17.24,3,119.79,19 / 21,2536809,2019-09-06 20:02:22:552,0.0939,0.1641,9.8662,-0.0033,-0.0037,9.8066,0.0726,0.0135,-0.0731,-14.81,-36.94,23.0,322.54,-82.46,-177.92
60555,52.387505,-1.53798,143.39,17.24,3,119.79,19 / 21,2536910,2019-09-06 20:02:22:653,-0.4591,-0.1116,9.4095,0.0039,0.0158,9.8066,0.0637,-0.0612,0.0188,-14.75,-36.56,22.81,321.75,-82.22,-178.38
60556,52.387505,-1.53798,143.39,17.24,3,119.79,19 / 21,2537010,2019-09-06 20:02:22:753,0.2088,-0.4619,10.2123,-0.0065,0.0132,9.8066,-0.0455,0.0187,-0.0175,-15.06,-36.62,23.44,321.32,-82.16,-178.69
60557,52.387505,-1.53798,143.39,17.24,3,119.79,19 / 21,2537110,2019-09-06 20:02:22:853,0.4588,0.4883,10.1322,-0.0046,0.0098,9.8065,0.0078,-0.0173,0.0086,-15.81,-36.62,23.06,319.63,-82.34,-178.72
60558,52.387505,-1.53798,143.39,17.24,3,119.79,19 / 21,2537210,2019-09-06 20:02:22:953,0.0572,-0.5623,9.1915,-0.0111,-0.0003,9.8066,-0.0476,0.0209,0.0465,-15.94,-35.75,22.88,320.68,-82.37,-178.02
60559,52.387505,-1.53798,143.39,17.24,3,119.79,19 / 21,2537309,2019-09-06 20:02:23:052,0.3635,0.3738,8.7031,0.0203,-0.015,9.8065,-0.0706,0.063,0.016,-17.31,-36.25,24.06,320.25,-82.49,-178.3
60560,52.387505,-1.53798,143.39,17.24,3,119.79,20 / 21,2537409,2019-09-06 20:02:23:152,-0.2466,-0.1502,9.8646,0.0278,-0.0305,9.8065,0.0633,0.0072,-0.0698,-18.62,-34.0,25.06,318.21,-82.35,-178.76
60561,52.387505,-1.53798,143.39,17.24,3,119.79,20 / 21,2537510,2019-09-06 20:02:23:253,1.0547,-0.373,9.5537,0.0089,-0.0033,9.8066,0.0599,0.0142,-0.0257,-18.94,-32.19,23.56,316.48,-82.19,-179.25
60562,52.387505,-1.53798,143.39,17.24,3,119.79,20 / 21,2537609,2019-09-06 20:02:23:352,1.2327,1.1434,8.9008,0.0448,-0.0349,9.8064,0.1106,-0.0707,0.0588,-17.44,-31.94,23.5,318.69,-81.87,-179.86
60563,52.387505,-1.53798,143.39,17.24,3,119.79,20 / 21,2537710,2019-09-06 20:02:23:453,-0.3598,-0.0593,9.6214,-0.0776,0.0596,9.8061,0.2295,-0.0279,-0.017,-16.0,-33.87,22.69,320.1,-82.29,-178.8
60564,52.387505,-1.53798,143.39,17.24,3,119.79,20 / 21,2537810,2019-09-06 20:02:23:553,0.8627,0.0995,10.1804,-0.0493,0.0471,9.8063,-0.0935,-0.0349,0.0082,-14.87,-35.25,23.0,322.39,-82.31,-178.25
60565,52.387505,-1.53798,143.39,17.24,3,119.79,20 / 21,2537910,2019-09-06 20:02:23:653,-0.462,-0.1109,9.948,0.0413,-0.0431,9.8065,-0.1461,-0.0092,-0.0161,-14.87,-36.06,22.5,322.74,-82.41,-177.87
60566,52.387505,-1.53798,143.39,17.24,3,119.79,20 / 21,2538010,2019-09-06 20:02:23:753,-0.8861,-0.0444,9.8783,0.0356,0.0268,9.8065,0.0444,-0.0006,-0.0141,-14.62,-36.94,23.06,321.13,-82.12,-178.81
60567,52.387505,-1.53798,143.39,17.24,3,119.79,20 / 21,2538110,2019-09-06 20:02:23:853,0.7638,-0.6797,9.1394,-0.0066,0.0067,9.8066,-0.0105,-0.024,-0.0354,-14.81,-35.81,23.06,321.53,-82.21,-178.74
60568,52.387505,-1.53798,143.39,17.24,3,119.79,20 / 21,2538210,2019-09-06 20:02:23:953,-1.6978,0.9495,9.6344,-0.0205,0.02,9.8066,-0.1432,0.0182,-0.0049,-15.87,-36.44,23.0,319.7,-82.37,-178.87
60569,52.387505,-1.53798,143.39,17.24,3,119.79,20 / 21,2538309,2019-09-06 20:02:24:052,-0.6731,0.3456,10.6494,0.0003,0.0043,9.8066,0.0635,-0.0238,0.007,-17.81,-36.31,25.13,320.04,-82.48,-178.31
60570,52.387505,-1.53798,143.39,17.24,3,119.79,19 / 20,2538410,2019-09-06 20:02:24:153,-0.4419,0.0031,10.462,0.0027,0.0059,9.8066,-0.0894,0.0344,-0.083,-18.75,-34.19,24.38,316.81,-82.45,-178.82
60571,52.387505,-1.53798,143.39,17.24,3,119.79,19 / 20,2538509,2019-09-06 20:02:24:252,0.1951,-0.3051,10.3778,0.0236,-0.0158,9.8066,-0.0298,0.0447,-0.0157,-19.0,-33.25,24.63,317.58,-82.33,-179.48
60572,52.387505,-1.53798,143.39,17.24,3,119.79,19 / 20,2538610,2019-09-06 20:02:24:353,-1.3231,1.0899,10.5428,0.0354,-0.0149,9.8065,0.0922,-0.037,0.0126,-19.94,-33.87,23.94,312.46,-81.96,179.03
60573,52.387505,-1.53798,143.39,17.24,3,119.79,19 / 20,2538709,2019-09-06 20:02:24:452,0.2743,-0.6968,9.0508,-0.0067,0.014,9.8066,0.0222,-0.0052,-0.0995,-18.37,-33.19,24.25,314.47,-82.04,177.89
60574,52.387505,-1.53798,143.39,17.24,3,119.79,19 / 20,2538810,2019-09-06 20:02:24:553,0.3542,0.6676,9.99,0.0089,0.0113,9.8066,0.0619,-0.0455,0.0646,-18.87,-33.25,24.13,311.32,-82.05,176.43
60575,52.387505,-1.53798,143.39,17.24,3,119.79,19 / 20,2538910,2019-09-06 20:02:24:653,0.5151,0.4092,9.856,0.0148,0.0103,9.8066,0.1079,0.0249,-0.0489,-18.56,-33.12,24.13,309.48,-82.11,174.71
60576,52.387505,-1.53798,143.39,17.24,3,119.79,19 / 20,2539010,2019-09-06 20:02:24:753,0.5239,0.1953,8.7262,0.0079,0.0178,9.8066,-0.2072,-0.0171,-0.0164,-19.25,-32.94,23.69,308.03,-82.16,173.34
60577,52.387505,-1.53798,143.39,17.24,3,119.79,19 / 20,2539109,2019-09-06 20:02:24:852,-0.4394,0.9343,7.9346,-0.0483,0.0409,9.8063,-0.0815,-0.0003,0.0808,-18.62,-33.37,24.0,308.21,-82.23,173.45
60578,52.387505,-1.53798,143.39,17.24,3,119.79,19 / 20,2539210,2019-09-06 20:02:24:953,-1.6501,0.7219,8.8612,-0.0475,0.0244,9.8064,0.0108,-0.0775,0.0752,-18.75,-32.19,24.0,310.33,-82.95,174.55
60579,52.387505,-1.53798,143.39,17.24,3,119.79,19 / 20,2539310,2019-09-06 20:02:25:053,0.9022,0.6007,10.2916,-0.0548,0.0244,9.8064,0.2752,0.0081,-0.0304,-19.06,-31.62,22.94,314.52,-83.45,179.29
60580,52.387505,-1.53798,143.39,17.24,3,119.79,20 / 21,2539410,2019-09-06 20:02:25:153,-1.3269,1.749,10.5076,-0.0215,0.0048,9.8066,-0.0817,0.0054,0.0412,-18.06,-32.06,22.25,315.33,-83.21,-179.79
60581,52.387505,-1.53798,143.39,17.24,3,119.79,20 / 21,2539509,2019-09-06 20:02:25:252,0.1106,0.0632,10.5334,0.048,-0.0414,9.8064,-0.0564,-0.0131,0.0535,-18.62,-33.31,22.69,316.76,-82.89,-178.06
60582,52.387505,-1.53798,143.39,17.24,3,119.79,20 / 21,2539609,2019-09-06 20:02:25:352,-1.5698,0.7082,9.5913,0.022,-0.0466,9.8065,-0.0394,0.0644,0.0168,-18.31,-31.19,22.0,317.24,-82.24,-177.44
60583,52.387505,-1.53798,143.39,17.24,3,119.79,20 / 21,2539710,2019-09-06 20:02:25:453,-1.0344,1.7004,10.178,0.0034,-0.0159,9.8066,-0.1572,0.0223,-0.1135,-19.44,-29.87,21.88,316.33,-82.26,-177.06
60584,52.387505,-1.53798,143.39,17.24,3,119.79,20 / 21,2539809,2019-09-06 20:02:25:552,-0.998,1.0842,10.1056,0.0274,-0.0056,9.8065,0.1816,0.0047,-0.0437,-18.06,-31.06,23.19,317.82,-82.19,-178.29
60585,52.387505,-1.53798,143.39,17.24,3,119.79,20 / 21,2539910,2019-09-06 20:02:25:653,0.3289,-0.5362,9.9709,-0.0097,0.0259,9.8066,0.1275,-0.0148,0.0523,-15.56,-33.44,23.25,318.8,-82.37,179.82
60586,52.387505,-1.53798,143.39,17.24,3,119.79,20 / 21,2540010,2019-09-06 20:02:25:753,-1.7848,-0.3103,9.8314,-0.0385,0.0222,9.8064,-0.182,0.0587,-0.0367,-15.44,-34.37,22.31,320.05,-82.5,-179.25
60587,52.387505,-1.53798,143.39,17.24,3,119.79,20 / 21,2540110,2019-09-06 20:02:25:853,0.0162,0.8412,10.1394,0.0146,-0.0211,9.8065,-0.0128,-0.0414,0.0437,-14.56,-35.81,23.13,321.67,-82.56,-178.93
60588,52.387505,-1.53798,143.39,17.24,3,119.79,20 / 21,2540209,2019-09-06 20:02:25:952,-0.2016,1.4783,8.8809,0.0187,-0.0162,9.8065,0.0486,-0.088,0.0803,-15.56,-35.19,22.94,320.01,-82.36,-178.77
60589,52.387505,-1.53798,143.39,17.24,3,119.79,20 / 21,2540311,2019-09-06 20:02:26:054,-1.0467,1.854,10.1211,-0.0129,-0.0015,9.8065,-0.1044,0.0325,-0.0298,-16.69,-35.12,23.06,319.64,-82.42,-177.62
60590,52.387505,-1.53798,143.39,17.24,3,119.79,18 / 20,2540409,2019-09-06 20:02:26:152,-1.6292,1.8065,9.5472,-0.0022,-0.0042,9.8066,0.1356,0.0064,-0.0226,-16.44,-35.25,23.69,323.07,-82.34,-177.4
60591,52.387505,-1.53798,143.39,17.24,3,119.79,18 / 20,2540510,2019-09-06 20:02:26:253,-0.8184,0.794,9.1511,-0.0112,-0.0106,9.8066,0.0803,-0.0059,0.0029,-17.06,-33.75,24.38,322.74,-82.21,-176.23
60592,52.387505,-1.53798,143.39,17.24,3,119.79,18 / 20,2540609,2019-09-06 20:02:26:352,-1.1259,0.1841,10.3983,-0.0204,0.0069,9.8066,-0.0682,0.0258,-0.0302,-17.25,-33.87,22.69,322.35,-82.33,-175.35
60593,52.387505,-1.53798,143.39,17.24,3,119.79,18 / 20,2540710,2019-09-06 20:02:26:453,-2.2122,1.235,9.4986,0.0097,0.0019,9.8066,-0.0738,-0.004,-0.0286,-17.5,-34.94,22.31,321.0,-82.56,-175.16
60594,52.387505,-1.53798,143.39,17.24,3,119.79,18 / 20,2540810,2019-09-06 20:02:26:553,-2.657,2.0796,9.6601,0.0207,-0.0039,9.8065,0.0225,-0.0491,0.0071,-17.19,-35.25,22.81,320.94,-82.61,-176.64
60595,52.387505,-1.53798,143.39,17.24,3,119.79,18 / 20,2540910,2019-09-06 20:02:26:653,0.3326,1.5315,9.9971,0.0047,-0.0041,9.8066,0.0495,0.0395,-0.022,-17.5,-35.56,22.94,319.77,-82.47,-177.38
60596,52.387505,-1.53798,143.39,17.24,3,119.79,18 / 20,2541010,2019-09-06 20:02:26:753,-1.8728,0.9726,8.9048,-0.0122,-0.0052,9.8066,0.0071,-0.0005,-0.0254,-17.75,-35.06,23.25,318.91,-82.31,-176.71
60597,52.387505,-1.53798,143.39,17.24,3,119.79,18 / 20,2541109,2019-09-06 20:02:26:852,-2.2919,1.05,9.3093,-0.0104,0.0067,9.8066,0.0069,-0.0888,0.0208,-18.0,-34.69,23.25,320.51,-82.4,-175.39
60598,52.387505,-1.53798,143.39,17.24,3,119.79,18 / 20,2541210,2019-09-06 20:02:26:953,-0.7553,0.8377,9.9946,-0.0108,0.0067,9.8066,-0.0707,-0.0343,-0.0241,-17.81,-34.44,23.06,321.5,-82.58,-174.83
60599,52.387505,-1.53798,143.39,17.24,3,119.79,18 / 20,2541310,2019-09-06 20:02:27:053,-1.0074,0.5582,9.509,0.0072,-0.0043,9.8066,-0.0685,-0.0497,0.0325,-18.25,-34.87,22.0,319.64,-82.59,-174.91
60600,52.387505,-1.53798,143.39,17.24,3,119.79,17 / 19,2541409,2019-09-06 20:02:27:152,-0.5474,1.1675,9.4734,0.0216,-0.0214,9.8066,0.1473,0.0174,0.0571,-17.62,-34.62,22.94,321.24,-82.48,-174.82
60601,52.387505,-1.53798,143.39,17.24,3,119.79,17 / 19,2541510,2019-09-06 20:02:27:253,-1.3998,1.0667,10.0868,-0.0154,0.0075,9.8065,0.1272,0.0218,-0.0066,-18.44,-34.75,22.13,319.65,-82.56,-174.87
60602,52.387505,-1.53798,143.39,17.24,3,119.79,17 / 19,2541609,2019-09-06 20:02:27:352,-0.7774,0.914,10.3501,-0.0176,0.0198,9.8066,-0.096,-0.0029,0.0233,-18.69,-34.87,22.81,319.45,-82.55,-175.06
60603,52.387505,-1.53798,143.39,17.24,3,119.79,17 / 19,2541709,2019-09-06 20:02:27:452,-0.7827,0.2724,9.6793,0.0166,-0.0208,9.8065,-0.0324,-0.0125,-0.0091,-19.12,-34.25,22.56,320.12,-82.62,-174.68
60604,52.387505,-1.53798,143.39,17.24,3,119.79,17 / 19,2541810,2019-09-06 20:02:27:553,-0.7552,1.3762,9.8696,0.0153,-0.0121,9.8066,0.0059,-0.0094,0.025,-19.31,-35.56,22.38,318.5,-82.51,-174.28
60605,52.387505,-1.53798,143.39,17.24,3,119.79,17 / 19,2541910,2019-09-06 20:02:27:653,-1.3756,0.0728,9.9263,0.006,-0.0029,9.8066,-0.0516,0.0048,0.0655,-19.69,-35.62,22.25,317.52,-82.49,-173.8
60606,52.387505,-1.53798,143.39,17.24,3,119.79,17 / 19,2542010,2019-09-06 20:02:27:753,-0.4333,1.0045,10.4154,0.0176,-0.0317,9.8065,0.2655,-0.0271,-0.026,-19.75,-35.5,23.5,320.86,-82.32,-173.63
60607,52.387505,-1.53798,143.39,17.24,3,119.79,17 / 19,2542110,2019-09-06 20:02:27:853,-0.9766,-0.0715,9.7314,-0.0236,0.0195,9.8065,0.114,-0.0395,-0.0084,-20.19,-34.62,23.63,321.9,-82.48,-172.85
60608,52.387505,-1.53798,143.39,17.24,3,119.79,17 / 19,2542209,2019-09-06 20:02:27:952,-0.6846,0.9898,9.9047,-0.0233,0.0198,9.8065,0.0058,0.0588,0.0061,-20.69,-34.75,22.5,319.17,-82.56,-172.72
60609,52.387505,-1.53798,143.39,17.24,3,119.79,17 / 19,2542309,2019-09-06 20:02:28:052,-0.8976,0.7335,10.613,-0.0053,-0.0047,9.8066,0.0225,0.0093,-0.0218,-20.75,-36.12,22.5,319.5,-82.76,-172.43
60610,52.387505,-1.53798,143.39,17.24,3,119.79,17 / 19,2542409,2019-09-06 20:02:28:152,-1.8075,2.0113,9.5706,-0.0057,-0.0107,9.8066,-0.0012,-0.0294,-0.015,-21.12,-35.69,22.94,320.08,-82.86,-171.99
60611,52.387505,-1.53798,143.39,17.24,3,119.79,17 / 19,2542509,2019-09-06 20:02:28:252,-0.3262,-0.4594,10.3155,-0.0062,0.0051,9.8066,0.0477,-0.0142,0.0208,-21.81,-35.75,22.38,318.29,-82.8,-170.93
60612,52.387505,-1.53798,143.39,17.24,3,119.79,17 / 19,2542610,2019-09-06 20:02:28:353,-0.6097,0.4987,9.4482,-0.0138,0.0138,9.8066,-0.0557,-0.0177,0.0133,-22.44,-35.81,21.88,318.13,-82.82,-171.1
60613,52.387505,-1.53798,143.39,17.24,3,119.79,17 / 19,2542709,2019-09-06 20:02:28:452,-0.3248,0.3115,10.4199,-0.0067,-0.0092,9.8066,0.0325,0.0171,-0.0474,-22.94,-36.06,21.75,317.18,-82.71,-170.7
60614,52.387505,-1.53798,143.39,17.24,3,119.79,17 / 19,2542809,2019-09-06 20:02:28:552,0.352,0.6026,9.7798,-0.0068,0.0239,9.8066,-0.1178,-0.0789,0.0842,-23.31,-36.0,22.0,316.33,-82.75,-171.49
60615,52.387505,-1.53798,143.39,17.24,3,119.79,17 / 19,2542909,2019-09-06 20:02:28:652,-1.0011,0.6064,8.7257,0.0063,-0.0039,9.8066,-0.1233,0.0673,-0.0817,-24.5,-36.75,22.38,314.11,-82.7,-172.2
60616,52.387505,-1.53798,143.39,17.24,3,119.79,17 / 19,2543010,2019-09-06 20:02:28:753,-0.5192,-0.2118,9.6705,-0.0073,-0.0033,9.8066,0.0812,-0.0543,0.0716,-24.12,-36.56,24.56,318.49,-82.69,-172.26
60617,52.387505,-1.53798,143.39,17.24,3,119.79,17 / 19,2543110,2019-09-06 20:02:28:853,-1.3907,1.2239,9.4755,-0.0249,0.0121,9.8066,0.0065,-0.0532,-0.0023,-22.56,-37.44,24.94,321.16,-82.9,-171.15
60618,52.387505,-1.53798,143.39,17.24,3,119.79,17 / 19,2543210,2019-09-06 20:02:28:953,-1.613,1.5353,9.3492,0.0007,-0.005,9.8066,0.107,-0.0294,0.0087,-22.31,-36.87,25.38,323.22,-82.86,-170.47
60619,52.387505,-1.53798,143.39,17.24,3,119.79,17 / 19,2543310,2019-09-06 20:02:29:053,-1.452,2.2616,9.584,-0.0266,0.013,9.8065,0.1263,-0.0334,0.0167,-21.69,-35.94,24.63,323.38,-82.82,-170.42
60620,52.387505,-1.53798,143.39,17.24,3,119.79,17 / 19,2543409,2019-09-06 20:02:29:152,-1.5022,0.1669,9.5333,-0.0224,0.0106,9.8065,-0.1669,-0.0187,-0.0136,-21.19,-36.31,23.63,325.37,-82.93,-168.7
60621,52.387505,-1.53798,143.39,17.24,3,119.79,17 / 19,2543510,2019-09-06 20:02:29:253,-1.233,1.5809,9.2144,0.005,-0.0004,9.8066,-0.1854,0.04,-0.0447,-21.5,-36.69,23.31,324.02,-82.96,-168.45
60622,52.387505,-1.53798,143.39,17.24,3,119.79,17 / 19,2543610,2019-09-06 20:02:29:353,-1.9415,1.719,10.1556,-0.008,0.0048,9.8066,0.0582,-0.0787,0.0384,-21.19,-37.31,23.44,323.45,-83.02,-169.01
60623,52.387505,-1.53798,143.39,17.24,3,119.79,17 / 19,2543709,2019-09-06 20:02:29:452,-0.8463,1.0977,10.4178,0.0046,-0.0018,9.8066,0.0761,0.0138,-0.0523,-20.56,-37.12,24.19,325.18,-83.0,-168.79
60624,52.387505,-1.53798,143.39,17.24,3,119.79,17 / 19,2543809,2019-09-06 20:02:29:552,0.0055,-0.0119,9.6117,0.0005,0.0083,9.8066,-0.14,0.0226,0.0113,-21.0,-36.5,24.75,325.63,-82.9,-169.71
60625,52.387505,-1.53798,143.39,17.24,3,119.79,17 / 19,2543910,2019-09-06 20:02:29:653,-0.6155,0.442,9.4034,0.0094,-0.0128,9.8066,-0.1139,-0.0185,0.0582,-21.06,-35.62,24.81,326.14,-82.81,-169.2
60626,52.387505,-1.53798,143.39,17.24,3,119.79,17 / 19,2544010,2019-09-06 20:02:29:753,0.2646,0.4886,8.8595,0.008,-0.0138,9.8066,0.2214,0.0228,0.0245,-21.81,-35.31,23.69,324.35,-82.78,-168.39
60627,52.387505,-1.53798,143.39,17.24,3,119.79,17 / 19,2544109,2019-09-06 20:02:29:852,-0.4506,-0.105,10.4311,-0.0376,0.0183,9.8065,0.1318,-0.0165,-0.0212,-22.44,-35.5,23.44,325.12,-83.16,-166.65
60628,52.387505,-1.53798,143.39,17.24,3,119.79,17 / 19,2544210,2019-09-06 20:02:29:953,0.7991,-0.237,9.8103,-0.0367,0.0354,9.8065,-0.2331,-0.0269,0.0208,-21.69,-35.75,23.44,325.21,-83.24,-166.51
60629,52.387505,-1.53798,143.39,17.24,3,119.79,17 / 19,2544310,2019-09-06 20:02:30:053,-1.0272,-0.0663,9.749,0.0594,-0.0467,9.8063,-0.2243,-0.0103,0.0018,-21.56,-36.25,22.44,324.18,-83.18,-166.0
60630,52.386894,-1.536182,144.39,10.81,3,118.88,19 / 20,2544409,2019-09-06 20:02:30:152,-1.1286,1.1977,9.7647,0.0346,-0.0299,9.8065,0.2705,-0.0411,-0.0209,-21.5,-36.31,23.0,325.78,-82.89,-166.99
60631,52.386894,-1.536182,144.39,10.81,3,118.88,19 / 20,2544510,2019-09-06 20:02:30:253,-2.9334,1.7265,9.5884,-0.0564,0.0558,9.8063,0.1071,-0.0393,-0.0361,-21.5,-36.94,23.19,326.2,-83.11,-166.65
60632,52.386894,-1.536182,144.39,10.81,3,118.88,19 / 20,2544609,2019-09-06 20:02:30:352,-1.0946,1.1521,10.1992,-0.0478,0.0514,9.8064,-0.0182,-0.0093,0.0114,-20.87,-36.69,22.5,325.39,-83.16,-167.4
60633,52.386894,-1.536182,144.39,10.81,3,118.88,19 / 20,2544710,2019-09-06 20:02:30:453,-0.163,0.0202,9.6229,0.0517,-0.0496,9.8063,-0.0141,-0.0308,0.0092,-20.37,-37.56,23.81,325.56,-82.84,-169.5
60634,52.386894,-1.536182,144.39,10.81,3,118.88,19 / 20,2544809,2019-09-06 20:02:30:552,-1.6774,0.0013,9.852,0.0245,-0.0267,9.8066,-0.1579,0.0526,-0.0636,-20.31,-37.06,24.25,326.3,-82.99,-169.09
60635,52.386894,-1.536182,144.39,10.81,3,118.88,19 / 20,2544909,2019-09-06 20:02:30:652,-0.3156,0.4782,10.1135,0.0076,0.0102,9.8066,-0.1123,-0.0183,0.0708,-20.12,-36.06,24.81,327.36,-83.21,-169.68
60636,52.386894,-1.536182,144.39,10.81,3,118.88,19 / 20,2545010,2019-09-06 20:02:30:753,-0.818,1.6492,9.2977,0.0327,-0.0202,9.8065,0.1436,0.0012,-0.0236,-20.12,-35.0,24.19,324.59,-83.15,-170.96
60637,52.386894,-1.536182,144.39,10.81,3,118.88,19 / 20,2545110,2019-09-06 20:02:30:853,-1.3543,1.1248,9.5196,-0.0383,0.0232,9.8065,0.1149,0.0095,0.0016,-20.06,-34.81,24.06,324.53,-83.36,-171.16
60638,52.386894,-1.536182,144.39,10.81,3,118.88,19 / 20,2545210,2019-09-06 20:02:30:953,-1.2066,1.1577,9.7328,-0.0255,0.0146,9.8066,0.0925,-0.0396,0.0162,-20.69,-35.25,23.81,323.19,-83.17,-170.93
60639,52.386894,-1.536182,144.39,10.81,3,118.88,19 / 20,2545310,2019-09-06 20:02:31:053,0.0689,-0.0885,10.8038,-0.0016,-0.0046,9.8066,0.1594,-0.0236,0.023,-19.12,-36.06,24.38,325.83,-83.16,-171.09
60640,52.386894,-1.536182,144.39,10.81,3,118.88,18 / 20,2545410,2019-09-06 20:02:31:153,-0.5239,0.048,10.0153,-0.0186,0.0128,9.8066,-0.0828,-0.04,-0.0221,-19.44,-37.44,24.88,328.23,-83.22,-170.15
60641,52.386894,-1.536182,144.39,10.81,3,118.88,18 / 20,2545509,2019-09-06 20:02:31:252,-0.8414,0.2502,10.1529,0.0153,-0.006,9.8066,-0.0233,-0.0317,0.0133,-17.56,-37.69,25.88,331.25,-83.27,-169.99
60642,52.386894,-1.536182,144.39,10.81,3,118.88,18 / 20,2545610,2019-09-06 20:02:31:353,0.4972,0.19,9.8067,-0.005,0.0201,9.8065,-0.0735,0.0098,-0.0238,-17.06,-39.06,25.13,330.3,-83.37,-171.08
60643,52.386894,-1.536182,144.39,10.81,3,118.88,18 / 20,2545710,2019-09-06 20:02:31:453,-1.6742,0.2762,10.3283,0.0014,-0.0078,9.8066,-0.0019,-0.0654,-0.0059,-16.31,-40.19,22.69,329.64,-83.35,-170.57
