,GPS LATITUDE (degrees), GPS LONGITUDE (degrees), GPS ALTITUDE (m), GPS SPEED (Kmh), GPS ACCURACY (m), GPS ORIENTATION (Â°),GPS SATELLITES IN RANGE, TIME SINCE START (ms), DATE (YYYY-MO-DD HH-MI-SS_SSS), ACCELEROMETER X (m/s²) , ACCELEROMETER Y (m/s²), ACCELEROMETER Z (m/s²), GRAVITY X (m/s²), GRAVITY Y (m/s²), GRAVITY Z (m/s²), GYROSCOPE Yaw (rad/s), GYROSCOPE Pitch (rad/s), GYROSCOPE Roll (rad/s), MAGNETIC FIELD X (Î¼T), MAGNETIC FIELD Y (Î¼T), MAGNETIC FIELD Z (Î¼T), ORIENTATION (Yaw) (Â°), ORIENTATION (Pitch) (Â°), ORIENTATION (Roll ) (Â°)
2622,52.39307,-1.512041,146.85,10.11,2,240.24,21 / 21,270628,2019-09-06 18:20:37:310,0.3499,0.0204,10.4662,0.0005,-0.0075,9.8066,-0.0142,-0.0169,-0.0103,-0.81,-29.87,27.75,39.49,-80.73,-145.16
2623,52.39307,-1.512041,146.85,10.11,2,240.24,21 / 21,270729,2019-09-06 18:20:37:411,-0.4502,0.1003,10.001,-0.0034,-0.0134,9.8066,0.011,-0.0387,0.0217,-0.37,-30.5,27.81,42.07,-80.7,-145.01
2624,52.39307,-1.512041,146.85,10.11,2,240.24,21 / 21,270829,2019-09-06 18:20:37:511,0.3277,0.0046,10.3371,-0.0017,-0.0095,9.8066,0.0841,0.0185,0.0309,-0.56,-30.87,27.81,39.27,-80.49,-145.75
2625,52.39307,-1.512041,146.85,10.11,2,240.24,21 / 21,270928,2019-09-06 18:20:37:610,0.378,-0.4181,10.1707,-0.0142,0.0162,9.8065,0.0797,0.0155,-0.0259,-1.12,-29.75,28.25,39.63,-80.39,-145.31
2626,52.39307,-1.512041,146.85,10.11,2,240.24,21 / 21,271028,2019-09-06 18:20:37:710,0.2021,0.5087,10.3077,-0.0062,-0.0271,9.8065,-0.0005,-0.0237,0.0627,-1.56,-30.44,28.31,37.94,-80.25,-144.8
2627,52.39307,-1.512041,146.85,10.11,2,240.24,21 / 21,271128,2019-09-06 18:20:37:810,-0.1762,-0.6248,9.7582,-0.0043,-0.0087,9.8066,-0.0409,0.0025,-0.0029,-1.69,-30.5,28.75,37.99,-80.12,-144.77
2628,52.39307,-1.512041,146.85,10.11,2,240.24,21 / 21,271228,2019-09-06 18:20:37:910,-0.201,0.461,9.6592,0.0085,0.0144,9.8065,0.0058,0.0058,-0.0139,-1.19,-30.87,28.19,40.72,-80.26,-144.7
2629,52.39307,-1.512041,146.85,10.11,2,240.24,21 / 21,271329,2019-09-06 18:20:38:011,-0.0961,0.1533,8.8237,0.0108,-0.0048,9.8066,-0.0359,0.0153,0.0032,-1.31,-30.87,28.38,39.67,-80.26,-145.6
2630,52.39307,-1.512041,146.85,10.11,2,240.24,21 / 21,271428,2019-09-06 18:20:38:110,0.836,1.3596,9.7173,0.0319,0.0443,9.8065,0.0293,-0.0231,-0.025,-0.87,-30.56,28.19,38.56,-80.33,-146.48
2631,52.39307,-1.512041,146.85,10.11,2,240.24,21 / 21,271528,2019-09-06 18:20:38:210,0.1855,-0.8889,10.6025,0.0141,-0.0041,9.8066,-0.0974,-0.0111,-0.0635,0.06,-30.75,29.06,38.92,-80.67,-147.74
2632,52.39307,-1.512041,146.85,10.11,2,240.24,21 / 21,271629,2019-09-06 18:20:38:311,0.0069,-0.8843,10.9777,0.0002,-0.0423,9.8065,0.1013,0.0197,-0.0872,-0.44,-29.75,28.56,36.71,-80.65,-149.45
2633,52.39307,-1.512041,146.85,10.11,2,240.24,21 / 21,271729,2019-09-06 18:20:38:411,-0.1792,-1.2221,10.0239,0.0044,-0.057,9.8064,0.0668,0.0561,-0.015,-0.56,-30.62,28.88,33.43,-80.53,-150.54
2634,52.39307,-1.512041,146.85,10.11,2,240.24,21 / 21,271830,2019-09-06 18:20:38:512,0.1921,1.2135,9.6385,-0.0093,-0.0185,9.8065,-0.1382,0.0048,0.0052,-0.37,-30.0,28.81,35.16,-80.47,-150.9
2635,52.39307,-1.512041,146.85,10.11,2,240.24,21 / 21,271929,2019-09-06 18:20:38:611,0.068,-0.6835,9.7426,-0.0005,0.0077,9.8066,-0.1441,-0.0485,-0.0141,-0.19,-30.06,28.69,35.78,-80.58,-150.3
2636,52.39307,-1.512041,146.85,10.11,2,240.24,21 / 21,272029,2019-09-06 18:20:38:711,1.0083,1.4749,10.4642,0.0025,0.0327,9.8065,0.1662,-0.0112,0.0711,-0.5,-30.25,28.88,36.56,-80.63,-149.6
2637,52.39307,-1.512041,146.85,10.11,2,240.24,21 / 21,272129,2019-09-06 18:20:38:811,0.0429,-1.8408,10.6942,-0.0127,0.0304,9.8066,0.2395,0.016,-0.0446,-0.44,-29.81,28.63,37.94,-80.67,-148.38
2638,52.39307,-1.512041,146.85,10.11,2,240.24,21 / 21,272229,2019-09-06 18:20:38:911,-0.8639,-2.6952,9.6877,-0.0109,-0.1668,9.8052,-0.1159,0.0588,0.0331,-0.75,-30.19,29.81,33.47,-79.74,-150.71
2639,52.39307,-1.512041,146.85,10.11,2,240.24,21 / 21,272328,2019-09-06 18:20:39:010,-0.2731,-1.2231,10.9937,-0.015,-0.0753,9.8063,0.1048,0.0151,0.0448,-0.37,-29.75,29.19,36.92,-80.03,-149.7
2640,52.39307,-1.512041,146.85,10.11,2,240.24,22 / 22,272429,2019-09-06 18:20:39:111,0.3234,2.4208,10.4115,-0.014,0.0056,9.8066,-0.2491,-0.0194,-0.114,-1.56,-29.81,29.31,34.74,-80.32,-147.4
2641,52.39307,-1.512041,146.85,10.11,2,240.24,22 / 22,272529,2019-09-06 18:20:39:211,0.6954,0.4332,9.5684,0.0126,-0.0011,9.8065,-0.0883,-0.0319,-0.0577,-0.69,-30.19,29.81,36.72,-80.48,-147.45
2642,52.39307,-1.512041,146.85,10.11,2,240.24,22 / 22,272628,2019-09-06 18:20:39:310,0.5996,-0.0093,9.2474,0.0025,0.0116,9.8066,0.0859,0.0211,0.0309,-0.44,-29.5,29.0,37.81,-80.46,-148.44
2643,52.39307,-1.512041,146.85,10.11,2,240.24,22 / 22,272729,2019-09-06 18:20:39:411,-0.6511,0.5343,9.6735,-0.0093,-0.0098,9.8066,-0.1326,0.0741,-0.0267,-0.31,-29.94,29.88,37.74,-80.24,-148.65
2644,52.39307,-1.512041,146.85,10.11,2,240.24,22 / 22,272828,2019-09-06 18:20:39:510,-0.2693,-1.281,9.5075,0.0036,-0.0104,9.8066,-0.0822,-0.0403,0.0848,0.13,-29.5,29.19,37.12,-80.15,-149.25
2645,52.39307,-1.512041,146.85,10.11,2,240.24,22 / 22,272929,2019-09-06 18:20:39:611,0.4775,1.484,10.085,-0.0062,-0.0289,9.8065,0.1202,0.0297,-0.06,-0.94,-29.81,28.88,34.98,-80.08,-149.34
2646,52.39307,-1.512041,146.85,10.11,2,240.24,22 / 22,273029,2019-09-06 18:20:39:711,0.662,1.1179,9.7961,0.0063,0.0676,9.8064,0.2212,-0.0191,0.032,-0.75,-29.44,28.13,36.31,-80.61,-147.78
2647,52.39307,-1.512041,146.85,10.11,2,240.24,22 / 22,273128,2019-09-06 18:20:39:810,0.6696,0.1668,9.5373,0.0024,0.0399,9.8065,0.2052,0.0253,-0.0271,-0.81,-30.37,28.94,36.14,-80.46,-148.09
2648,52.39307,-1.512041,146.85,10.11,2,240.24,22 / 22,273229,2019-09-06 18:20:39:911,0.6177,-0.6934,9.5122,-0.0035,-0.0374,9.8065,-0.0632,0.0177,-0.0489,-1.0,-30.87,28.81,35.4,-80.23,-149.07
2649,52.39307,-1.512041,146.85,10.11,2,240.24,22 / 22,273328,2019-09-06 18:20:40:010,-0.213,-0.0925,9.9437,0.0088,-0.0227,9.8066,-0.047,-0.0364,0.0369,-0.69,-29.94,29.0,34.21,-80.07,-150.0
2650,52.39307,-1.512041,146.85,10.11,2,240.24,21 / 21,273429,2019-09-06 18:20:40:111,-0.284,0.1643,10.1246,-0.0015,-0.0047,9.8066,-0.0361,-0.0116,-0.0712,-0.62,-30.12,29.0,34.69,-80.15,-149.54
2651,52.39307,-1.512041,146.85,10.11,2,240.24,21 / 21,273528,2019-09-06 18:20:40:210,0.0464,0.0533,9.7361,0.0082,0.0001,9.8066,-0.0487,0.056,-0.0413,-0.06,-30.19,29.63,36.41,-80.25,-149.78
2652,52.39307,-1.512041,146.85,10.11,2,240.24,21 / 21,273628,2019-09-06 18:20:40:310,-0.3822,-0.6435,9.6024,-0.0016,0.0063,9.8066,0.0334,0.0435,0.0024,-0.81,-30.12,28.81,33.5,-80.29,-150.45
2653,52.39307,-1.512041,146.85,10.11,2,240.24,21 / 21,273729,2019-09-06 18:20:40:411,0.1665,0.6011,9.9713,0.0041,0.0267,9.8066,-0.016,0.0064,-0.0697,-1.06,-30.19,28.94,33.53,-80.44,-150.32
2654,52.39307,-1.512041,146.85,10.11,2,240.24,21 / 21,273828,2019-09-06 18:20:40:510,-0.0062,-0.09,9.3906,0.02,-0.0144,9.8066,-0.0841,0.0317,0.0475,-0.81,-29.87,29.31,33.34,-80.64,-150.36
2655,52.39307,-1.512041,146.85,10.11,2,240.24,21 / 21,273928,2019-09-06 18:20:40:610,-0.4137,-0.031,9.52,-0.003,-0.039,9.8065,-0.0612,-0.0186,0.0463,-1.06,-30.5,29.69,31.84,-80.61,-151.55
2656,52.39307,-1.512041,146.85,10.11,2,240.24,21 / 21,274029,2019-09-06 18:20:40:711,0.733,0.1117,9.7896,0.0145,0.0191,9.8066,0.0133,0.0231,-0.0656,-0.31,-29.5,29.56,33.83,-80.66,-151.55
2657,52.39307,-1.512041,146.85,10.11,2,240.24,21 / 21,274128,2019-09-06 18:20:40:810,0.0467,0.7502,10.8216,0.0047,-0.0046,9.8066,-0.0373,0.0224,0.0119,-0.81,-30.0,29.0,30.8,-80.64,-152.52
2658,52.39307,-1.512041,146.85,10.11,2,240.24,21 / 21,274228,2019-09-06 18:20:40:910,0.4821,0.3914,9.6661,0.0069,0.0253,9.8065,0.3557,-0.0657,0.0935,-0.19,-29.87,29.5,32.82,-80.66,-152.59
2659,52.39307,-1.512041,146.85,10.11,2,240.24,21 / 21,274328,2019-09-06 18:20:41:010,1.0899,-0.1983,9.4503,-0.0047,0.0647,9.8063,0.1888,0.0389,-0.1358,-0.44,-29.37,29.06,33.85,-80.66,-151.71
2660,52.39307,-1.512041,146.85,10.11,2,240.24,21 / 21,274429,2019-09-06 18:20:41:111,-0.0644,-0.9358,9.3707,-0.0078,-0.0077,9.8065,-0.1861,0.0235,0.0184,-0.56,-29.87,28.63,31.65,-80.81,-151.69
2661,52.39307,-1.512041,146.85,10.11,2,240.24,21 / 21,274529,2019-09-06 18:20:41:211,0.2113,0.1309,9.5109,-0.0015,-0.025,9.8066,-0.0698,-0.002,0.0253,-0.31,-30.44,29.13,34.84,-80.92,-150.87
2662,52.39307,-1.512041,146.85,10.11,2,240.24,21 / 21,274628,2019-09-06 18:20:41:310,-0.7989,1.6337,10.1394,-0.0086,0.0032,9.8066,0.0662,0.0836,-0.0179,-0.5,-30.06,29.13,35.61,-80.91,-150.21
2663,52.39307,-1.512041,146.85,10.11,2,240.24,21 / 21,274729,2019-09-06 18:20:41:411,-0.5408,-0.271,9.7802,-0.0052,-0.0137,9.8066,0.0565,-0.0747,0.0572,-0.56,-29.94,28.13,32.53,-80.69,-151.14
2664,52.39307,-1.512041,146.85,10.11,2,240.24,21 / 21,274830,2019-09-06 18:20:41:512,-1.003,0.6358,10.2304,0.0086,0.0017,9.8066,0.0937,-0.1507,-0.014,-0.25,-30.19,29.81,34.11,-80.37,-151.67
2665,52.39307,-1.512041,146.85,10.11,2,240.24,21 / 21,274929,2019-09-06 18:20:41:611,0.2885,0.6996,9.7134,0.0054,0.0073,9.8066,0.058,-0.0448,0.0263,-0.69,-30.25,29.81,31.37,-80.31,-152.13
2666,52.39307,-1.512041,146.85,10.11,2,240.24,21 / 21,275029,2019-09-06 18:20:41:711,-0.44,0.2033,9.5686,0.0025,0.0036,9.8066,0.0142,0.0013,-0.0693,0.06,-29.75,28.75,33.63,-80.42,-152.23
2667,52.39307,-1.512041,146.85,10.11,2,240.24,21 / 21,275128,2019-09-06 18:20:41:810,-0.5233,-0.3041,9.6445,0.0137,0.0079,9.8066,-0.0686,-0.0603,-0.0037,-0.44,-30.0,29.69,32.92,-80.65,-152.51
2668,52.39307,-1.512041,146.85,10.11,2,240.24,21 / 21,275231,2019-09-06 18:20:41:913,0.1491,-0.1626,9.6856,0.0182,0.0061,9.8065,-0.0057,-0.0077,0.0092,0.0,-30.25,29.25,32.81,-80.87,-152.64
2669,52.39307,-1.512041,146.85,10.11,2,240.24,21 / 21,275331,2019-09-06 18:20:42:013,0.5523,-0.0197,9.6063,0.0078,0.0056,9.8066,-0.0332,-0.0152,-0.0298,-0.62,-29.56,29.56,29.21,-81.04,-153.55
2670,52.3926,-1.5132,147.37,10.72,2,233.56,22 / 22,275428,2019-09-06 18:20:42:110,0.1681,-0.0237,9.5887,0.0101,-0.0117,9.8065,-0.0104,-0.0114,-0.0157,-0.81,-30.25,29.69,27.8,-81.01,-154.77
2671,52.3926,-1.5132,147.37,10.72,2,233.56,22 / 22,275529,2019-09-06 18:20:42:211,0.5467,0.5887,9.8217,-0.0022,0.0082,9.8066,-0.0347,0.04,0.009,-0.37,-29.87,28.94,29.59,-81.0,-155.31
2672,52.3926,-1.5132,147.37,10.72,2,233.56,22 / 22,275628,2019-09-06 18:20:42:310,0.7155,-0.0778,10.2254,0.0021,0.0035,9.8066,-0.0368,-0.0674,0.0457,-0.31,-30.44,28.69,29.78,-81.05,-155.12
2673,52.3926,-1.5132,147.37,10.72,2,233.56,22 / 22,275729,2019-09-06 18:20:42:411,0.4875,0.1723,9.6388,0.0075,0.0124,9.8066,-0.1087,0.0545,-0.0907,-0.69,-30.06,28.88,26.45,-81.18,-155.9
2674,52.3926,-1.5132,147.37,10.72,2,233.56,22 / 22,275828,2019-09-06 18:20:42:510,0.1078,0.749,10.3424,-0.0095,0.0062,9.8066,0.0586,0.0461,-0.022,-0.5,-29.87,29.13,29.14,-81.07,-155.65
2675,52.3926,-1.5132,147.37,10.72,2,233.56,22 / 22,275929,2019-09-06 18:20:42:611,-0.2036,-0.0551,9.6394,0.0085,-0.0122,9.8065,0.0821,-0.035,-0.033,-0.06,-30.81,29.81,28.41,-80.99,-156.31
2676,52.3926,-1.5132,147.37,10.72,2,233.56,22 / 22,276028,2019-09-06 18:20:42:710,-0.2334,0.2774,9.849,-0.0044,-0.0167,9.8066,-0.0366,0.0198,0.0349,-0.62,-29.87,30.06,25.77,-80.95,-156.53
2677,52.3926,-1.5132,147.37,10.72,2,233.56,22 / 22,276129,2019-09-06 18:20:42:811,0.3796,0.7516,10.0788,0.0009,0.0091,9.8066,0.0384,0.0117,-0.0294,-0.69,-30.94,29.56,26.61,-80.95,-155.95
2678,52.3926,-1.5132,147.37,10.72,2,233.56,22 / 22,276229,2019-09-06 18:20:42:911,0.2405,0.0116,10.3483,0.0103,0.0088,9.8066,0.0699,-0.0197,-0.0649,-0.37,-30.44,29.88,28.04,-81.09,-156.43
2679,52.3926,-1.5132,147.37,10.72,2,233.56,22 / 22,276329,2019-09-06 18:20:43:011,0.6326,0.3261,9.7021,0.0027,-0.0162,9.8066,0.0971,0.0224,-0.0316,-0.25,-30.12,30.31,27.09,-81.04,-157.27
2680,52.3926,-1.5132,147.37,10.72,2,233.56,21 / 21,276429,2019-09-06 18:20:43:111,-0.4814,1.0036,10.1842,-0.0054,-0.0307,9.8066,0.0516,0.0522,-0.0401,-0.87,-30.06,30.31,24.64,-80.87,-157.52
2681,52.3926,-1.5132,147.37,10.72,2,233.56,21 / 21,276530,2019-09-06 18:20:43:212,-0.0456,0.4572,9.6061,-0.0002,-0.014,9.8066,0.0309,-0.0376,0.0055,-0.12,-29.56,30.19,26.5,-80.87,-157.86
2682,52.3926,-1.5132,147.37,10.72,2,233.56,21 / 21,276629,2019-09-06 18:20:43:311,-0.403,1.2127,9.5438,0.0,-0.0173,9.8066,-0.0622,0.0731,0.0106,-0.19,-30.56,30.31,26.09,-80.74,-158.41
2683,52.3926,-1.5132,147.37,10.72,2,233.56,21 / 21,276729,2019-09-06 18:20:43:411,0.6388,0.9577,9.4815,0.0066,0.0222,9.8066,-0.0101,0.0547,-0.042,0.06,-29.75,30.44,26.23,-80.96,-158.04
2684,52.3926,-1.5132,147.37,10.72,2,233.56,21 / 21,276828,2019-09-06 18:20:43:510,0.2313,0.414,9.6743,-0.0004,0.0063,9.8066,0.0468,0.006,-0.0119,-0.25,-30.0,30.44,26.12,-81.03,-158.1
2685,52.3926,-1.5132,147.37,10.72,2,233.56,21 / 21,276929,2019-09-06 18:20:43:611,1.039,-0.0654,10.3909,0.0031,-0.0259,9.8065,0.079,0.0795,-0.0073,-0.62,-30.12,30.63,22.86,-80.96,-158.94
2686,52.3926,-1.5132,147.37,10.72,2,233.56,21 / 21,277028,2019-09-06 18:20:43:710,0.3489,0.5716,9.8098,0.0161,-0.0138,9.8066,0.0017,0.0768,-0.0599,-0.12,-29.87,30.19,24.04,-80.94,-159.91
2687,52.3926,-1.5132,147.37,10.72,2,233.56,21 / 21,277129,2019-09-06 18:20:43:811,0.4956,-0.4017,9.5923,0.0013,-0.0029,9.8066,0.0008,-0.0154,0.0075,0.19,-29.81,30.75,23.64,-80.84,-160.18
2688,52.3926,-1.5132,147.37,10.72,2,233.56,21 / 21,277229,2019-09-06 18:20:43:911,-0.1964,0.0909,9.9384,-0.005,0.0083,9.8066,0.0461,0.0023,0.0331,-0.06,-29.5,30.88,23.57,-80.87,-160.1
2689,52.3926,-1.5132,147.37,10.72,2,233.56,21 / 21,277329,2019-09-06 18:20:44:011,0.7796,0.6113,9.9969,0.0084,0.0041,9.8066,0.0514,0.0942,-0.0426,-0.12,-29.69,30.56,23.21,-81.05,-160.45
2690,52.3926,-1.5132,147.37,10.72,2,233.56,22 / 23,277428,2019-09-06 18:20:44:110,0.9015,0.2209,9.8496,0.0103,-0.0017,9.8066,-0.0443,0.0432,-0.0462,0.19,-29.37,30.5,22.47,-81.17,-160.92
2691,52.3926,-1.5132,147.37,10.72,2,233.56,22 / 23,277528,2019-09-06 18:20:44:210,0.2384,0.1946,9.8718,0.0193,-0.003,9.8066,-0.0337,0.0141,-0.0406,0.0,-29.44,30.25,20.63,-81.28,-162.56
2692,52.3926,-1.5132,147.37,10.72,2,233.56,22 / 23,277630,2019-09-06 18:20:44:312,-0.2738,0.1588,10.1436,0.0192,-0.0102,9.8066,0.0475,0.02,-0.0489,0.13,-29.81,30.81,18.82,-81.33,-164.08
2693,52.3926,-1.5132,147.37,10.72,2,233.56,22 / 23,277728,2019-09-06 18:20:44:410,0.2341,0.4901,9.3722,0.0281,0.0156,9.8066,-0.0321,-0.0748,-0.0187,0.44,-29.31,30.75,16.79,-81.37,-165.71
2694,52.3926,-1.5132,147.37,10.72,2,233.56,22 / 23,277828,2019-09-06 18:20:44:510,-0.7433,0.2308,9.5266,0.0136,0.0054,9.8066,0.0181,0.0307,-0.0215,0.25,-29.62,31.0,13.78,-81.5,-168.32
2695,52.3926,-1.5132,147.37,10.72,2,233.56,22 / 23,277929,2019-09-06 18:20:44:611,1.7924,1.5022,9.8757,0.0267,0.0152,9.8066,0.0275,0.2037,-0.1283,1.13,-28.87,30.63,15.3,-81.42,-168.82
2696,52.3926,-1.5132,147.37,10.72,2,233.56,22 / 23,278029,2019-09-06 18:20:44:711,0.5622,0.431,9.6192,0.0011,0.001,9.8066,-0.0935,-0.0402,0.057,0.81,-29.5,30.81,14.09,-81.47,-169.84
2697,52.3926,-1.5132,147.37,10.72,2,233.56,22 / 23,278129,2019-09-06 18:20:44:811,1.1202,-1.0567,9.164,0.0055,-0.0217,9.8066,0.0737,0.1153,-0.1015,0.19,-29.75,31.19,11.89,-81.36,-169.96
2698,52.3926,-1.5132,147.37,10.72,2,233.56,22 / 23,278229,2019-09-06 18:20:44:911,0.2976,-0.5553,9.0385,0.0097,-0.0358,9.8065,-0.2051,0.0696,-0.0554,0.63,-29.44,30.5,13.55,-81.4,-170.32
2699,52.3926,-1.5132,147.37,10.72,2,233.56,22 / 23,278328,2019-09-06 18:20:45:010,-0.4404,1.4991,10.231,-0.0156,0.0348,9.8065,-0.1268,-0.1084,0.0493,1.13,-28.94,30.69,14.81,-81.83,-169.13
2700,52.3926,-1.5132,147.37,10.72,2,233.56,21 / 21,278429,2019-09-06 18:20:45:111,1.2432,0.5075,10.4212,0.0105,0.0126,9.8065,0.1492,0.0293,-0.036,1.75,-28.81,31.19,15.91,-81.86,-170.01
2701,52.3926,-1.5132,147.37,10.72,2,233.56,21 / 21,278528,2019-09-06 18:20:45:210,-0.0219,0.6056,9.9079,-0.0048,-0.0255,9.8066,0.1193,-0.023,0.0595,0.88,-29.19,30.88,13.96,-81.73,-169.89
2702,52.3926,-1.5132,147.37,10.72,2,233.56,21 / 21,278629,2019-09-06 18:20:45:311,0.1848,-0.3765,10.2427,-0.0044,-0.0184,9.8066,-0.0024,0.0379,-0.0034,0.56,-28.81,31.5,13.67,-81.4,-170.11
2703,52.3926,-1.5132,147.37,10.72,2,233.56,21 / 21,278729,2019-09-06 18:20:45:411,0.4327,0.6181,10.0474,-0.0148,0.009,9.8066,-0.0256,0.0593,-0.004,0.63,-29.44,31.44,15.55,-81.34,-168.63
2704,52.3926,-1.5132,147.37,10.72,2,233.56,21 / 21,278828,2019-09-06 18:20:45:510,0.734,-0.3316,10.1717,-0.0184,-0.0004,9.8066,0.0247,0.031,0.0714,0.31,-29.12,31.44,14.78,-81.24,-167.47
2705,52.3926,-1.5132,147.37,10.72,2,233.56,21 / 21,278928,2019-09-06 18:20:45:610,1.0434,-0.0701,9.4984,-0.007,-0.0127,9.8066,0.0415,0.0601,0.0141,0.25,-28.62,31.69,15.4,-81.07,-166.92
2706,52.3926,-1.5132,147.37,10.72,2,233.56,21 / 21,279028,2019-09-06 18:20:45:710,-0.5781,-0.5269,9.9987,-0.003,-0.0072,9.8066,-0.0239,0.0527,0.0052,0.25,-28.87,32.0,15.88,-81.01,-166.53
2707,52.3926,-1.5132,147.37,10.72,2,233.56,21 / 21,279128,2019-09-06 18:20:45:810,-0.0253,0.1623,9.3224,-0.0008,-0.0065,9.8066,0.0478,-0.0038,0.0255,0.44,-28.56,31.63,17.03,-81.1,-165.52
2708,52.3926,-1.5132,147.37,10.72,2,233.56,21 / 21,279228,2019-09-06 18:20:45:910,1.0308,-0.1394,10.1299,-0.0044,0.0103,9.8066,0.0796,0.0561,-0.0951,1.13,-27.44,30.63,19.42,-81.2,-165.18
2709,52.3926,-1.5132,147.37,10.72,2,233.56,21 / 21,279329,2019-09-06 18:20:46:011,0.6001,-1.6455,9.9749,0.0019,-0.0272,9.8065,0.1595,0.0319,0.0025,0.81,-26.75,30.25,18.94,-81.14,-165.76
2710,52.3926,-1.5132,147.37,10.72,2,233.56,23 / 23,279428,2019-09-06 18:20:46:110,-1.3296,-0.2014,10.7212,0.009,-0.0318,9.8065,-0.1799,0.1388,-0.0567,0.19,-26.31,30.81,15.73,-81.1,-166.46
2711,52.3926,-1.5132,147.37,10.72,2,233.56,23 / 23,279529,2019-09-06 18:20:46:211,-0.9462,0.9957,10.3696,0.0059,-0.04,9.8065,0.0832,0.0612,-0.0929,-1.87,-26.94,30.31,11.47,-80.88,-166.48
2712,52.3926,-1.5132,147.37,10.72,2,233.56,23 / 23,279628,2019-09-06 18:20:46:310,0.7272,-0.6238,10.0704,0.0139,-0.0381,9.8065,0.0265,-0.1133,-0.0121,-3.31,-27.12,31.38,7.79,-80.84,-167.86
2713,52.3926,-1.5132,147.37,10.72,2,233.56,23 / 23,279728,2019-09-06 18:20:46:410,0.0874,-0.5839,9.3496,-0.0025,0.0142,9.8066,0.0526,0.1184,-0.1194,-3.87,-28.25,32.81,6.02,-80.74,-167.96
2714,52.3926,-1.5132,147.37,10.72,2,233.56,23 / 23,279828,2019-09-06 18:20:46:510,0.7474,-0.4759,9.989,0.011,0.0285,9.8065,-0.0269,0.0371,-0.015,-1.62,-28.0,33.19,9.73,-80.92,-168.21
2715,52.3926,-1.5132,147.37,10.72,2,233.56,23 / 23,279929,2019-09-06 18:20:46:611,-0.1494,0.2315,10.1405,-0.0079,0.0105,9.8066,-0.0326,-0.0251,-0.009,-0.87,-28.94,32.0,11.63,-81.17,-168.32
2716,52.3926,-1.5132,147.37,10.72,2,233.56,23 / 23,280029,2019-09-06 18:20:46:711,0.2167,1.0891,10.247,0.0204,-0.0115,9.8066,0.0246,0.0403,0.0135,-0.5,-28.94,32.81,12.2,-81.17,-169.58
2717,52.3926,-1.5132,147.37,10.72,2,233.56,23 / 23,280129,2019-09-06 18:20:46:811,1.1856,0.5041,9.7751,0.0105,-0.0077,9.8066,0.0005,0.0443,-0.016,-0.06,-28.5,32.75,11.27,-81.04,-170.34
2718,52.3926,-1.5132,147.37,10.72,2,233.56,23 / 23,280228,2019-09-06 18:20:46:910,-0.1778,-0.7602,9.9084,-0.011,-0.0233,9.8066,-0.0624,-0.0111,-0.0131,-0.44,-29.25,32.25,11.22,-80.74,-170.55
2719,52.3926,-1.5132,147.37,10.72,2,233.56,23 / 23,280329,2019-09-06 18:20:47:011,0.5289,1.9106,9.7828,0.0151,0.0464,9.8065,-0.136,0.0685,-0.0763,-0.06,-28.75,32.63,10.89,-80.94,-170.74
2720,52.3926,-1.5132,147.37,10.72,2,233.56,21 / 21,280428,2019-09-06 18:20:47:110,1.0049,-0.7573,9.5589,0.018,-0.0073,9.8066,-0.0812,0.0555,0.0478,0.38,-28.37,32.81,9.18,-80.89,-172.17
2721,52.3926,-1.5132,147.37,10.72,2,233.56,21 / 21,280528,2019-09-06 18:20:47:210,-1.1778,0.4788,9.8087,-0.0036,-0.0298,9.8066,0.054,0.1681,-0.1254,0.06,-28.62,33.44,8.96,-80.93,-172.39
2722,52.3926,-1.5132,147.37,10.72,2,233.56,21 / 21,280629,2019-09-06 18:20:47:311,1.776,-0.0541,9.967,0.0163,0.0217,9.8065,0.1236,-0.0472,0.0093,1.5,-27.44,33.13,12.96,-81.01,-172.31
2723,52.3926,-1.5132,147.37,10.72,2,233.56,21 / 21,280729,2019-09-06 18:20:47:411,3.5552,-0.7127,10.5457,-0.0014,0.0328,9.8065,0.101,0.1841,-0.1148,1.31,-26.5,31.56,10.94,-81.11,-172.35
2724,52.3926,-1.5132,147.37,10.72,2,233.56,21 / 21,280829,2019-09-06 18:20:47:511,-1.0962,-0.2079,10.0742,-0.0165,-0.0719,9.8064,0.0162,-0.0725,0.0967,1.25,-25.19,31.25,10.93,-80.57,-172.49
2725,52.3926,-1.5132,147.37,10.72,2,233.56,21 / 21,280928,2019-09-06 18:20:47:610,-0.7809,0.3276,9.436,-0.0239,-0.0561,9.8064,0.0581,-0.0453,-0.0048,-0.06,-26.31,31.0,11.36,-80.44,-170.37
2726,52.3926,-1.5132,147.37,10.72,2,233.56,21 / 21,281028,2019-09-06 18:20:47:710,-0.03,-0.0303,10.1086,-0.0063,0.0158,9.8066,-0.1666,0.1532,-0.0836,-1.94,-27.06,31.31,8.09,-80.63,-169.46
2727,52.3926,-1.5132,147.37,10.72,2,233.56,21 / 21,281129,2019-09-06 18:20:47:811,-0.2343,0.6494,9.7342,0.0052,0.0141,9.8065,0.0078,-0.0237,-0.055,-1.19,-26.87,32.25,9.82,-80.86,-169.82
2728,52.3926,-1.5132,147.37,10.72,2,233.56,21 / 21,281228,2019-09-06 18:20:47:910,-0.3237,0.7117,10.3274,0.0111,-0.0016,9.8066,0.0202,-0.0068,-0.0387,-1.25,-27.5,34.0,9.65,-80.98,-169.98
2729,52.3926,-1.5132,147.37,10.72,2,233.56,21 / 21,281328,2019-09-06 18:20:48:010,0.7018,0.6022,9.6387,-0.0009,-0.0163,9.8066,0.0104,-0.012,0.0973,-0.62,-26.62,32.94,8.81,-80.86,-170.7
2730,52.3926,-1.5132,147.37,10.72,2,233.56,22 / 22,281429,2019-09-06 18:20:48:111,-0.2349,-0.3092,9.9224,-0.0189,-0.0143,9.8066,0.0055,0.0119,-0.0047,-0.62,-26.5,32.56,9.99,-80.58,-169.69
2731,52.3926,-1.5132,147.37,10.72,2,233.56,22 / 22,281529,2019-09-06 18:20:48:211,1.0631,0.0632,9.8387,0.0134,0.0162,9.8066,-0.0362,-0.0027,0.0728,-1.62,-25.56,32.25,8.26,-80.72,-169.35
2732,52.3926,-1.5132,147.37,10.72,2,233.56,22 / 22,281630,2019-09-06 18:20:48:312,0.8301,0.777,9.4724,-0.0082,0.0132,9.8066,-0.1415,0.0385,-0.0496,-1.5,-26.25,31.75,11.12,-80.96,-168.64
2733,52.3926,-1.5132,147.37,10.72,2,233.56,22 / 22,281729,2019-09-06 18:20:48:411,-1.2368,0.8484,9.9127,-0.0079,0.0259,9.8065,0.0936,0.0594,-0.0446,-2.06,-27.19,32.38,9.55,-81.13,-168.22
2734,52.3926,-1.5132,147.37,10.72,2,233.56,22 / 22,281830,2019-09-06 18:20:48:512,-0.6249,0.3248,9.7479,0.0006,0.0078,9.8066,0.0613,0.0078,0.0159,-2.0,-27.44,32.25,9.15,-81.13,-168.56
2735,52.3926,-1.5132,147.37,10.72,2,233.56,22 / 22,281929,2019-09-06 18:20:48:611,0.0914,0.459,9.8678,-0.0051,-0.0184,9.8066,0.0298,-0.0242,0.0506,-2.75,-27.69,32.94,7.14,-80.85,-168.72
2736,52.3926,-1.5132,147.37,10.72,2,233.56,22 / 22,282029,2019-09-06 18:20:48:711,0.3441,-0.5071,10.1342,0.0008,-0.0053,9.8065,0.0596,-0.0012,-0.0057,-2.94,-27.81,33.94,8.01,-80.71,-168.1
2737,52.3926,-1.5132,147.37,10.72,2,233.56,22 / 22,282129,2019-09-06 18:20:48:811,0.6519,-0.1394,10.001,0.0028,0.0025,9.8066,-0.1216,-0.031,0.0521,-1.44,-26.87,33.88,12.37,-80.8,-167.66
2738,52.3926,-1.5132,147.37,10.72,2,233.56,22 / 22,282228,2019-09-06 18:20:48:910,-0.1062,0.2656,9.7481,0.0018,-0.0054,9.8066,-0.0857,0.0507,-0.0317,-1.06,-27.62,34.63,12.51,-80.88,-167.58
2739,52.3926,-1.5132,147.37,10.72,2,233.56,22 / 22,282329,2019-09-06 18:20:49:011,0.3317,0.7288,9.9852,-0.0039,0.0004,9.8066,0.0627,-0.0076,0.0273,0.13,-28.0,33.44,14.0,-80.9,-168.03
2740,52.3926,-1.5132,147.37,10.72,2,233.56,23 / 23,282428,2019-09-06 18:20:49:110,-0.2394,-0.2177,9.9165,-0.0155,0.0019,9.8066,0.036,0.0098,-0.0424,-0.75,-28.56,32.63,12.99,-80.74,-167.26
2741,52.3926,-1.5132,147.37,10.72,2,233.56,23 / 23,282528,2019-09-06 18:20:49:210,0.4772,-0.0006,10.1189,0.0059,-0.004,9.8066,0.0989,0.0224,-0.0406,-1.12,-27.69,33.0,11.91,-80.68,-168.13
2742,52.3926,-1.5132,147.37,10.72,2,233.56,23 / 23,282628,2019-09-06 18:20:49:310,0.6968,0.7378,9.8163,0.005,0.0143,9.8066,0.0829,0.0525,-0.0107,-1.12,-27.56,32.38,11.71,-80.77,-168.28
2743,52.3926,-1.5132,147.37,10.72,2,233.56,23 / 23,282728,2019-09-06 18:20:49:410,-0.2378,0.3175,9.6132,0.0066,0.0024,9.8066,-0.1092,0.0646,-0.0176,-1.69,-27.44,33.38,8.49,-81.0,-169.23
2744,52.3926,-1.5132,147.37,10.72,2,233.56,23 / 23,282828,2019-09-06 18:20:49:510,-0.4377,1.5574,9.2695,-0.0018,-0.0092,9.8066,-0.1622,0.0323,-0.0022,-0.37,-27.0,32.88,12.15,-81.02,-169.54
2745,52.3926,-1.5132,147.37,10.72,2,233.56,23 / 23,282929,2019-09-06 18:20:49:611,0.4918,0.3254,9.8463,0.0155,0.0507,9.8064,0.2532,0.0109,-0.0532,0.13,-27.56,31.94,10.68,-81.16,-170.87
2746,52.3926,-1.5132,147.37,10.72,2,233.56,23 / 23,283028,2019-09-06 18:20:49:710,0.5959,-0.3478,9.2611,0.0135,0.0788,9.8063,0.1314,0.0304,0.0481,-0.19,-27.69,31.06,9.87,-81.09,-171.62
2747,52.3926,-1.5132,147.37,10.72,2,233.56,23 / 23,283128,2019-09-06 18:20:49:810,0.0492,-0.4677,10.2886,0.0206,-0.0266,9.8065,-0.1445,0.111,-0.0981,-2.87,-28.44,29.31,3.24,-81.18,-171.37
2748,52.3926,-1.5132,147.37,10.72,2,233.56,23 / 23,283229,2019-09-06 18:20:49:911,-0.7974,1.5543,10.176,0.0191,-0.0599,9.8064,-0.0206,0.179,-0.0697,-7.19,-28.62,32.38,353.9,-81.18,-172.86
2749,52.3926,-1.5132,147.37,10.72,2,233.56,23 / 23,283328,2019-09-06 18:20:50:010,1.3162,1.3391,10.6538,-0.0077,0.0114,9.8066,0.094,0.1143,0.026,-5.62,-28.44,35.19,356.43,-81.37,-173.38
2750,52.3926,-1.5132,147.37,10.72,2,233.56,21 / 21,283428,2019-09-06 18:20:50:110,-0.0562,-0.3106,9.8709,0.0062,-0.0008,9.8066,0.0643,-0.0008,0.0887,-2.75,-28.56,36.69,2.01,-81.05,-173.62
2751,52.3926,-1.5132,147.37,10.72,2,233.56,21 / 21,283529,2019-09-06 18:20:50:211,0.5689,-0.0199,9.304,-0.0194,0.0132,9.8066,0.0224,0.0308,-0.0446,-1.31,-27.87,35.56,7.15,-80.92,-172.22
2752,52.3926,-1.5132,147.37,10.72,2,233.56,21 / 21,283628,2019-09-06 18:20:50:310,0.2913,-0.3239,9.44,-0.0041,0.0452,9.8064,-0.0447,0.0246,0.0066,-1.12,-28.75,33.63,7.84,-81.13,-171.59
2753,52.3926,-1.5132,147.37,10.72,2,233.56,21 / 21,283728,2019-09-06 18:20:50:410,0.3426,0.8015,10.3179,-0.0065,0.0356,9.8065,-0.0515,0.0137,0.0761,-1.12,-28.87,33.44,8.6,-81.52,-170.86
2754,52.3926,-1.5132,147.37,10.72,2,233.56,21 / 21,283829,2019-09-06 18:20:50:511,0.1318,0.705,9.6618,0.0033,-0.0053,9.8066,0.0444,0.0522,-0.0195,-1.25,-28.87,33.5,10.03,-81.62,-169.63
2755,52.3926,-1.5132,147.37,10.72,2,233.56,21 / 21,283929,2019-09-06 18:20:50:611,0.5143,0.3439,9.2062,-0.01,-0.0171,9.8066,0.0734,0.0175,0.04,-2.12,-29.06,33.69,8.42,-81.5,-169.36
2756,52.3926,-1.5132,147.37,10.72,2,233.56,21 / 21,284029,2019-09-06 18:20:50:711,-0.6318,0.7466,10.4625,-0.0087,-0.0004,9.8066,0.0882,0.0536,0.0331,-1.62,-28.75,32.88,9.4,-81.32,-168.48
2757,52.3926,-1.5132,147.37,10.72,2,233.56,21 / 21,284129,2019-09-06 18:20:50:811,0.6094,0.655,9.9198,-0.0065,-0.014,9.8065,-0.0173,-0.0012,0.0452,-2.19,-28.56,33.38,10.44,-81.2,-167.6
2758,52.3926,-1.5132,147.37,10.72,2,233.56,21 / 21,284229,2019-09-06 18:20:50:911,-0.0465,0.8708,9.2252,-0.0097,0.0104,9.8066,-0.0274,-0.0116,0.0036,-2.44,-28.5,33.56,11.52,-81.17,-166.69
2759,52.3926,-1.5132,147.37,10.72,2,233.56,21 / 21,284330,2019-09-06 18:20:51:012,0.3974,0.63,9.5067,-0.0147,0.0189,9.8066,-0.0463,-0.0218,0.0706,-2.31,-28.94,33.38,13.26,-81.25,-165.18
2760,52.392,-1.51422,148.98,10.08,2,218.57,21 / 21,284428,2019-09-06 18:20:51:110,0.4287,0.5198,9.1247,-0.0024,0.019,9.8066,-0.0901,0.0312,0.0059,-2.69,-28.87,33.44,12.34,-81.4,-164.2
2761,52.392,-1.51422,148.98,10.08,2,218.57,21 / 21,284528,2019-09-06 18:20:51:210,-0.7048,1.3634,10.1046,-0.0139,0.0148,9.8065,0.0094,0.0006,-0.0149,-2.75,-29.5,32.56,13.89,-81.59,-162.82
2762,52.392,-1.51422,148.98,10.08,2,218.57,21 / 21,284629,2019-09-06 18:20:51:311,0.2891,1.0619,10.1109,0.0065,-0.0114,9.8066,0.0447,0.0424,0.0421,-3.12,-29.44,33.5,13.38,-81.6,-163.36
2763,52.392,-1.51422,148.98,10.08,2,218.57,21 / 21,284730,2019-09-06 18:20:51:412,0.3613,0.173,10.5347,-0.0017,-0.0202,9.8066,0.0288,-0.0025,-0.0501,-3.12,-29.12,33.25,13.31,-81.49,-163.34
2764,52.392,-1.51422,148.98,10.08,2,218.57,21 / 21,284828,2019-09-06 18:20:51:510,-0.4961,-1.2744,10.5791,0.0002,0.0045,9.8066,0.1589,-0.0516,0.0571,-2.81,-28.31,33.81,12.94,-81.45,-163.73
2765,52.392,-1.51422,148.98,10.08,2,218.57,21 / 21,284928,2019-09-06 18:20:51:610,0.3362,-0.7577,9.472,-0.008,0.0249,9.8065,0.1517,0.0514,0.0679,-2.69,-28.37,33.75,13.67,-81.45,-163.09
2766,52.392,-1.51422,148.98,10.08,2,218.57,21 / 21,285028,2019-09-06 18:20:51:710,-0.727,-1.1361,9.836,-0.0094,-0.0165,9.8066,-0.0852,0.0959,-0.0732,-3.06,-28.56,34.19,14.34,-81.29,-162.61
2767,52.392,-1.51422,148.98,10.08,2,218.57,21 / 21,285128,2019-09-06 18:20:51:810,-0.5049,0.7178,9.5532,-0.0143,-0.0108,9.8066,-0.1228,0.1399,-0.0967,-2.12,-28.06,33.63,17.18,-81.34,-161.73
2768,52.392,-1.51422,148.98,10.08,2,218.57,21 / 21,285229,2019-09-06 18:20:51:911,2.1662,2.5676,10.9296,-0.0173,-0.0029,9.8066,0.1066,0.0418,0.1373,-2.31,-28.37,32.75,18.06,-81.45,-160.9
2769,52.392,-1.51422,148.98,10.08,2,218.57,21 / 21,285329,2019-09-06 18:20:52:011,-0.6567,0.1347,9.7853,0.0133,0.0293,9.8066,-0.0391,0.0677,0.0194,-2.75,-28.5,33.56,17.08,-81.37,-160.13
2770,52.392,-1.51422,148.98,10.08,2,218.57,21 / 22,285429,2019-09-06 18:20:52:111,0.6727,-1.2808,9.8219,-0.0168,-0.0333,9.8065,-0.0693,0.071,-0.0856,-4.19,-28.81,33.13,16.51,-81.05,-158.98
2771,52.392,-1.51422,148.98,10.08,2,218.57,21 / 22,285529,2019-09-06 18:20:52:211,-1.1914,0.8415,8.442,0.0082,0.0012,9.8066,-0.0471,0.0183,0.1466,-3.81,-28.87,33.0,16.64,-80.97,-158.9
2772,52.392,-1.51422,148.98,10.08,2,218.57,21 / 22,285629,2019-09-06 18:20:52:311,0.2245,-0.8994,9.6639,-0.0167,0.0033,9.8066,-0.1155,-0.0116,-0.0101,-3.56,-28.62,33.44,17.53,-81.09,-158.09
2773,52.392,-1.51422,148.98,10.08,2,218.57,21 / 22,285729,2019-09-06 18:20:52:411,0.4273,0.3841,10.6644,0.0111,0.0007,9.8065,0.0696,0.0211,0.0045,-2.81,-28.81,33.5,20.0,-81.19,-157.73
2774,52.392,-1.51422,148.98,10.08,2,218.57,21 / 22,285828,2019-09-06 18:20:52:510,-0.3167,0.2788,10.2353,-0.0029,-0.0491,9.8065,0.057,0.0735,-0.0069,-3.31,-28.75,33.69,19.2,-80.8,-158.55
2775,52.392,-1.51422,148.98,10.08,2,218.57,21 / 22,285928,2019-09-06 18:20:52:610,0.0349,-0.7277,9.8664,0.0063,-0.0373,9.8066,0.0261,0.0065,0.0122,-3.94,-29.12,33.94,16.39,-80.55,-159.37
2776,52.392,-1.51422,148.98,10.08,2,218.57,21 / 22,286028,2019-09-06 18:20:52:710,-0.1038,0.6274,9.4648,-0.0068,0.0217,9.8066,-0.0743,-0.0288,0.0167,-3.37,-28.94,33.44,18.42,-80.53,-159.23
2777,52.392,-1.51422,148.98,10.08,2,218.57,21 / 22,286129,2019-09-06 18:20:52:811,1.042,-0.158,9.0809,0.0037,0.0112,9.8066,-0.151,0.0705,-0.0657,-3.31,-28.81,33.19,19.22,-80.7,-158.49
2778,52.392,-1.51422,148.98,10.08,2,218.57,21 / 22,286229,2019-09-06 18:20:52:911,-0.791,1.9714,9.4994,-0.0126,0.0499,9.8064,0.0736,0.0158,-0.0313,-3.44,-29.37,33.5,20.35,-81.07,-157.46
2779,52.392,-1.51422,148.98,10.08,2,218.57,21 / 22,286329,2019-09-06 18:20:53:011,-0.3709,0.265,10.2928,0.0008,0.0289,9.8065,0.0505,-0.0018,-0.0228,-4.12,-29.5,33.63,18.15,-81.04,-157.71
2780,52.392,-1.51422,148.98,10.08,2,218.57,22 / 22,286428,2019-09-06 18:20:53:110,1.2445,0.4991,10.1243,-0.0067,-0.0173,9.8066,0.0998,-0.0516,0.0506,-3.5,-28.75,33.69,19.37,-80.93,-158.36
2781,52.392,-1.51422,148.98,10.08,2,218.57,22 / 22,286529,2019-09-06 18:20:53:211,-0.5742,-1.1123,10.409,-0.0098,0.0155,9.8066,0.1597,-0.0527,-0.0226,-4.12,-29.37,33.25,18.33,-80.81,-157.49
2782,52.392,-1.51422,148.98,10.08,2,218.57,22 / 22,286629,2019-09-06 18:20:53:311,-0.6351,0.5758,9.9782,0.0002,-0.0231,9.8065,-0.0499,-0.0172,0.0402,-3.75,-29.19,33.25,18.23,-80.79,-157.58
2783,52.392,-1.51422,148.98,10.08,2,218.57,22 / 22,286729,2019-09-06 18:20:53:411,0.7112,-1.0703,9.4753,-0.0061,0.0,9.8066,-0.042,-0.0113,0.0252,-3.75,-29.56,33.63,18.93,-80.72,-157.22
2784,52.392,-1.51422,148.98,10.08,2,218.57,22 / 22,286828,2019-09-06 18:20:53:510,-0.0809,-1.1671,9.5748,-0.0069,-0.0001,9.8066,-0.1002,-0.005,-0.0205,-4.06,-29.62,33.38,19.31,-80.89,-156.71
2785,52.392,-1.51422,148.98,10.08,2,218.57,22 / 22,286929,2019-09-06 18:20:53:611,0.3154,0.5783,9.6151,0.0099,-0.0173,9.8066,-0.1101,0.0001,0.0092,-4.31,-29.75,33.06,19.1,-80.87,-156.9
2786,52.392,-1.51422,148.98,10.08,2,218.57,22 / 22,287029,2019-09-06 18:20:53:711,-0.2862,-0.6725,9.7819,-0.0024,0.0079,9.8066,0.0391,0.0355,-0.0463,-4.12,-30.44,34.75,19.26,-80.91,-156.99
2787,52.392,-1.51422,148.98,10.08,2,218.57,22 / 22,287128,2019-09-06 18:20:53:810,0.3749,-0.5791,10.272,0.0056,0.0085,9.8066,-0.0277,0.0572,0.0121,-4.81,-29.25,34.13,16.6,-80.99,-157.39
2788,52.392,-1.51422,148.98,10.08,2,218.57,22 / 22,287229,2019-09-06 18:20:53:911,0.173,0.5684,9.951,-0.011,-0.0212,9.8066,-0.0508,-0.0479,-0.0334,-4.69,-30.19,34.75,16.86,-81.05,-157.4
2789,52.392,-1.51422,148.98,10.08,2,218.57,22 / 22,287329,2019-09-06 18:20:54:011,0.5177,-0.3074,10.1217,0.0072,0.0004,9.8065,-0.0466,-0.0441,-0.0653,-4.19,-29.44,34.94,19.18,-80.97,-156.96
2790,52.392,-1.51422,148.98,10.08,2,218.57,21 / 21,287428,2019-09-06 18:20:54:110,-0.2462,1.0958,9.6769,-0.0014,0.0049,9.8066,-0.0009,0.0173,0.091,-4.06,-29.37,34.81,19.65,-81.13,-156.5
2791,52.392,-1.51422,148.98,10.08,2,218.57,21 / 21,287528,2019-09-06 18:20:54:210,0.0881,0.6472,10.0067,-0.0126,-0.0063,9.8066,-0.0751,-0.0058,0.0118,-3.94,-28.69,34.75,20.45,-81.09,-155.81
2792,52.392,-1.51422,148.98,10.08,2,218.57,21 / 21,287628,2019-09-06 18:20:54:310,-0.3368,0.1727,9.8526,0.0127,0.022,9.8066,-0.0072,0.0816,-0.0167,-3.81,-28.5,34.19,20.81,-81.23,-155.24
2793,52.392,-1.51422,148.98,10.08,2,218.57,21 / 21,287729,2019-09-06 18:20:54:411,-0.4255,-0.449,9.495,-0.0021,0.0204,9.8066,0.0378,-0.0245,0.0501,-2.94,-29.12,34.69,22.18,-81.33,-155.85
2794,52.392,-1.51422,148.98,10.08,2,218.57,21 / 21,287828,2019-09-06 18:20:54:510,-0.6591,-0.2067,10.2084,-0.0017,-0.0093,9.8066,-0.0497,0.0104,-0.0113,-3.31,-28.25,34.06,23.38,-81.25,-154.66
2795,52.392,-1.51422,148.98,10.08,2,218.57,21 / 21,287928,2019-09-06 18:20:54:610,0.2014,0.9291,9.9237,0.0132,-0.0076,9.8066,-0.0998,-0.0173,-0.0075,-2.81,-28.25,33.94,22.44,-81.27,-155.48
2796,52.392,-1.51422,148.98,10.08,2,218.57,21 / 21,288028,2019-09-06 18:20:54:710,0.7816,0.6569,9.6126,0.0005,0.0201,9.8066,0.1405,-0.0217,0.0458,-2.75,-28.44,34.25,22.03,-81.41,-155.79
2797,52.392,-1.51422,148.98,10.08,2,218.57,21 / 21,288129,2019-09-06 18:20:54:811,0.0566,0.1115,9.7448,-0.007,0.0031,9.8066,0.011,-0.0188,0.0124,-2.62,-28.62,32.94,22.63,-81.26,-155.35
2798,52.392,-1.51422,148.98,10.08,2,218.57,21 / 21,288229,2019-09-06 18:20:54:911,-0.8814,0.9732,9.333,-0.0044,0.0233,9.8066,-0.0833,-0.0058,0.0571,-3.19,-29.25,32.69,24.28,-81.42,-153.85
2799,52.392,-1.51422,148.98,10.08,2,218.57,21 / 21,288328,2019-09-06 18:20:55:010,0.5491,-0.1277,9.5436,-0.0117,0.0111,9.8065,-0.0276,0.0662,0.001,-3.19,-28.87,32.44,25.42,-81.54,-152.74
2800,52.392,-1.51422,148.98,10.08,2,218.57,21 / 21,288429,2019-09-06 18:20:55:111,0.0736,1.1398,9.4443,-0.0073,0.006,9.8066,-0.0568,0.0714,-0.0505,-3.87,-29.75,32.88,24.29,-81.61,-152.14
2801,52.392,-1.51422,148.98,10.08,2,218.57,21 / 21,288529,2019-09-06 18:20:55:211,-0.5594,0.5551,9.9164,0.0018,0.0018,9.8066,-0.0043,-0.0073,0.0268,-4.25,-29.12,32.81,24.22,-81.71,-152.05
2802,52.392,-1.51422,148.98,10.08,2,218.57,21 / 21,288629,2019-09-06 18:20:55:311,-0.8377,1.0204,9.9546,0.0006,0.0071,9.8066,0.041,0.0341,-0.0854,-3.94,-29.56,32.5,24.23,-81.62,-152.19
2803,52.392,-1.51422,148.98,10.08,2,218.57,21 / 21,288730,2019-09-06 18:20:55:412,0.1009,0.7842,9.8341,0.0037,0.0233,9.8066,0.1215,0.0353,0.0148,-4.62,-29.81,33.69,22.14,-81.76,-152.41
2804,52.392,-1.51422,148.98,10.08,2,218.57,21 / 21,288829,2019-09-06 18:20:55:511,-0.3648,0.656,10.0221,-0.01,-0.021,9.8066,-0.1242,0.0501,-0.0147,-3.81,-30.12,33.0,24.57,-81.85,-151.79
2805,52.392,-1.51422,148.98,10.08,2,218.57,21 / 21,288930,2019-09-06 18:20:55:612,-0.2942,0.5333,10.3236,-0.0011,-0.002,9.8066,0.0704,-0.0554,0.0562,-4.75,-29.75,33.5,23.84,-81.84,-150.88
2806,52.392,-1.51422,148.98,10.08,2,218.57,21 / 21,289028,2019-09-06 18:20:55:710,-0.3946,0.9231,9.7623,0.0034,-0.0118,9.8066,-0.0579,-0.0196,0.0433,-4.69,-30.12,32.81,24.4,-81.79,-150.25
2807,52.392,-1.51422,148.98,10.08,2,218.57,21 / 21,289129,2019-09-06 18:20:55:811,0.5253,0.8885,9.4364,-0.0066,-0.0248,9.8066,-0.062,0.0294,-0.0223,-4.5,-29.94,33.75,26.26,-81.59,-150.53
2808,52.392,-1.51422,148.98,10.08,2,218.57,21 / 21,289228,2019-09-06 18:20:55:910,-0.4732,1.2162,9.3627,0.0091,0.0259,9.8065,0.0052,0.0289,-0.0227,-4.62,-29.19,33.0,24.07,-81.49,-150.56
2809,52.392,-1.51422,148.98,10.08,2,218.57,21 / 21,289328,2019-09-06 18:20:56:010,-0.5372,1.2539,9.7597,0.0034,0.0147,9.8066,-0.0378,-0.0252,0.073,-4.81,-29.75,33.06,23.62,-81.75,-150.95
2810,52.392,-1.51422,148.98,10.08,2,218.57,23 / 23,289429,2019-09-06 18:20:56:111,-0.4289,1.0042,9.9286,-0.0087,0.0068,9.8066,0.0616,0.0581,-0.0484,-4.44,-30.06,33.5,26.8,-81.82,-149.96
2811,52.392,-1.51422,148.98,10.08,2,218.57,23 / 23,289528,2019-09-06 18:20:56:210,-0.1286,0.8209,10.3021,-0.0027,0.0003,9.8066,0.058,0.0558,0.0361,-4.81,-30.44,33.13,25.03,-81.85,-149.67
2812,52.392,-1.51422,148.98,10.08,2,218.57,23 / 23,289628,2019-09-06 18:20:56:310,0.5402,1.6677,9.7941,-0.008,-0.0232,9.8065,-0.0454,0.0147,-0.0598,-4.25,-29.94,33.38,26.91,-81.69,-149.82
2813,52.392,-1.51422,148.98,10.08,2,218.57,23 / 23,289728,2019-09-06 18:20:56:410,1.0364,0.313,9.2916,-0.0018,-0.0048,9.8066,-0.0171,0.0502,-0.0521,-5.06,-29.19,33.13,24.53,-81.6,-150.11
2814,52.392,-1.51422,148.98,10.08,2,218.57,23 / 23,289828,2019-09-06 18:20:56:510,-0.3048,1.0289,9.4779,-0.0135,0.0106,9.8066,-0.0048,0.031,-0.0232,-5.0,-29.56,32.88,24.44,-81.46,-150.35
2815,52.392,-1.51422,148.98,10.08,2,218.57,23 / 23,289932,2019-09-06 18:20:56:614,-0.0875,0.2636,10.7175,0.0032,0.017,9.8065,-0.0139,-0.0372,0.0311,-4.25,-30.31,33.19,27.48,-81.54,-149.38
2816,52.392,-1.51422,148.98,10.08,2,218.57,23 / 23,290029,2019-09-06 18:20:56:711,-0.8786,1.1711,10.6933,0.0046,-0.0034,9.8065,0.0842,0.0609,-0.0416,-5.19,-29.56,33.06,25.76,-81.62,-149.13
2817,52.392,-1.51422,148.98,10.08,2,218.57,23 / 23,290129,2019-09-06 18:20:56:811,-0.5098,1.2641,9.6797,0.006,0.0193,9.8066,0.1595,-0.0806,0.0252,-4.37,-30.25,33.0,26.89,-81.71,-149.82
2818,52.392,-1.51422,148.98,10.08,2,218.57,23 / 23,290228,2019-09-06 18:20:56:910,0.2243,0.6277,9.328,0.0018,-0.0332,9.8066,-0.0905,-0.0483,0.0461,-5.25,-30.0,33.69,24.23,-81.49,-150.69
2819,52.392,-1.51422,148.98,10.08,2,218.57,23 / 23,290328,2019-09-06 18:20:57:010,-0.6572,0.1859,9.6114,-0.0106,-0.0007,9.8066,-0.0345,0.005,-0.0027,-4.56,-30.37,33.25,25.57,-81.54,-149.33
2820,52.392,-1.51422,148.98,10.08,2,218.57,21 / 21,290428,2019-09-06 18:20:57:110,-0.3845,1.3811,9.8099,0.0026,0.0272,9.8065,-0.0496,0.04,-0.0126,-4.5,-30.62,32.88,28.46,-81.76,-148.54
2821,52.392,-1.51422,148.98,10.08,2,218.57,21 / 21,290529,2019-09-06 18:20:57:211,-0.5792,2.1205,9.6958,0.0078,0.0106,9.8066,-0.0346,0.0063,0.0318,-4.37,-30.5,33.25,28.56,-82.05,-148.19
2822,52.392,-1.51422,148.98,10.08,2,218.57,21 / 21,290628,2019-09-06 18:20:57:310,0.6073,0.7431,9.6549,-0.0079,0.0163,9.8066,0.1051,-0.0028,0.0289,-4.56,-29.62,32.94,26.42,-82.01,-148.38
2823,52.392,-1.51422,148.98,10.08,2,218.57,21 / 21,290729,2019-09-06 18:20:57:411,0.1372,0.9362,9.6754,-0.0138,0.0139,9.8066,0.0382,0.0394,-0.0238,-4.12,-30.31,33.56,29.75,-81.9,-147.31
2824,52.392,-1.51422,148.98,10.08,2,218.57,21 / 21,290829,2019-09-06 18:20:57:511,0.2623,0.4392,9.5296,-0.0015,-0.0057,9.8066,-0.0312,0.0367,0.0162,-5.06,-30.06,33.38,27.57,-81.83,-147.46
2825,52.392,-1.51422,148.98,10.08,2,218.57,21 / 21,290928,2019-09-06 18:20:57:610,-0.228,0.8993,10.1921,-0.0068,0.0027,9.8066,-0.0399,-0.0112,0.0332,-5.31,-30.37,33.38,28.39,-81.84,-146.72
2826,52.392,-1.51422,148.98,10.08,2,218.57,21 / 21,291028,2019-09-06 18:20:57:710,0.3023,0.1599,9.2445,-0.0092,0.0038,9.8066,-0.0536,-0.0104,0.0635,-5.37,-30.06,33.0,29.73,-81.82,-145.55
2827,52.392,-1.51422,148.98,10.08,2,218.57,21 / 21,291128,2019-09-06 18:20:57:810,0.326,0.4219,9.0825,-0.0304,0.0027,9.8065,-0.0383,0.023,0.0548,-5.87,-30.19,33.56,30.36,-81.75,-143.52
2828,52.392,-1.51422,148.98,10.08,2,218.57,21 / 21,291229,2019-09-06 18:20:57:911,-0.1168,1.3781,9.8689,-0.0232,0.0137,9.8066,-0.0107,0.0291,0.0149,-5.75,-30.37,32.44,33.64,-81.63,-140.3
2829,52.392,-1.51422,148.98,10.08,2,218.57,21 / 21,291329,2019-09-06 18:20:58:011,-0.4384,0.5975,10.289,-0.0102,-0.0046,9.8066,-0.0077,-0.0213,0.0324,-5.5,-29.81,33.06,36.73,-81.54,-139.51
2830,52.392,-1.51422,148.98,10.08,2,218.57,23 / 23,291429,2019-09-06 18:20:58:111,0.1568,0.4445,9.9978,-0.0077,-0.0179,9.8066,0.0132,-0.0528,0.0297,-5.69,-30.75,32.88,35.49,-81.31,-139.19
2831,52.392,-1.51422,148.98,10.08,2,218.57,23 / 23,291529,2019-09-06 18:20:58:211,0.1105,0.571,9.5303,-0.0077,-0.0168,9.8066,0.0397,-0.0134,-0.0013,-5.44,-29.62,33.5,37.38,-81.11,-139.3
2832,52.392,-1.51422,148.98,10.08,2,218.57,23 / 23,291629,2019-09-06 18:20:58:311,-0.254,0.8102,9.7838,-0.0015,0.0021,9.8066,-0.0236,-0.0099,0.0114,-5.94,-30.37,33.25,35.34,-81.02,-139.34
2833,52.392,-1.51422,148.98,10.08,2,218.57,23 / 23,291729,2019-09-06 18:20:58:411,0.2089,0.7187,9.4828,-0.0002,0.004,9.8066,-0.092,0.0063,-0.0347,-5.37,-30.31,33.31,37.8,-81.09,-138.84
2834,52.392,-1.51422,148.98,10.08,2,218.57,23 / 23,291829,2019-09-06 18:20:58:511,-0.3682,0.8456,10.0534,-0.0168,0.0333,9.8065,0.0649,0.0003,0.0264,-5.87,-30.25,32.88,37.99,-81.32,-136.81
2835,52.392,-1.51422,148.98,10.08,2,218.57,23 / 23,291929,2019-09-06 18:20:58:611,0.1337,0.3437,10.0573,-0.0085,0.0358,9.8065,0.0525,0.0151,-0.0138,-5.75,-30.12,33.19,38.77,-81.3,-136.13
2836,52.392,-1.51422,148.98,10.08,2,218.57,23 / 23,292030,2019-09-06 18:20:58:712,-0.2812,1.0479,10.9152,0.0059,-0.034,9.8065,0.0128,0.0092,-0.0307,-6.44,-30.44,32.94,38.15,-81.26,-136.71
2837,52.392,-1.51422,148.98,10.08,2,218.57,23 / 23,292128,2019-09-06 18:20:58:810,0.455,1.1443,9.9915,0.026,-0.0347,9.8065,0.0732,0.0142,-0.0544,-5.62,-29.94,33.38,34.95,-81.07,-139.65
2838,52.392,-1.51422,148.98,10.08,2,218.57,23 / 23,292229,2019-09-06 18:20:58:911,0.333,0.1019,9.1441,0.0145,-0.0175,9.8066,0.0544,0.0547,-0.0207,-5.62,-29.75,34.19,31.55,-80.83,-142.94
2839,52.392,-1.51422,148.98,10.08,2,218.57,23 / 23,292329,2019-09-06 18:20:59:011,0.1609,0.2882,9.3841,0.003,-0.0138,9.8066,0.0003,0.0039,-0.0304,-5.62,-29.94,33.69,30.44,-80.72,-143.96
2840,52.392,-1.51422,148.98,10.08,2,218.57,21 / 21,292428,2019-09-06 18:20:59:110,-0.2047,0.5379,9.6365,0.0124,0.031,9.8065,-0.1066,0.0169,-0.067,-5.37,-29.75,34.31,32.45,-81.01,-143.72
2841,52.392,-1.51422,148.98,10.08,2,218.57,21 / 21,292529,2019-09-06 18:20:59:211,0.0565,1.3013,9.7724,0.0093,0.042,9.8065,-0.0755,-0.0046,-0.0282,-5.06,-30.69,33.44,33.77,-81.71,-142.17
2842,52.392,-1.51422,148.98,10.08,2,218.57,21 / 21,292628,2019-09-06 18:20:59:310,0.1852,0.9471,9.6091,0.0062,0.0156,9.8065,-0.0488,-0.0123,-0.0182,-5.06,-29.81,33.0,34.02,-81.96,-141.67
2843,52.392,-1.51422,148.98,10.08,2,218.57,21 / 21,292729,2019-09-06 18:20:59:411,0.2009,0.5144,9.7874,-0.0143,-0.0097,9.8065,0.0484,0.0128,0.0441,-4.87,-30.12,33.44,34.92,-81.88,-140.92
2844,52.392,-1.51422,148.98,10.08,2,218.57,21 / 21,292830,2019-09-06 18:20:59:512,-0.3937,0.6015,9.9519,-0.0098,-0.029,9.8065,0.0214,0.011,0.0578,-5.62,-30.5,33.19,33.34,-81.65,-140.74
2845,52.392,-1.51422,148.98,10.08,2,218.57,21 / 21,292929,2019-09-06 18:20:59:611,0.0188,0.2159,10.1752,0.0036,-0.0156,9.8066,0.0051,0.0219,-0.0385,-5.81,-29.75,33.56,33.52,-81.45,-140.87
2846,52.392,-1.51422,148.98,10.08,2,218.57,21 / 21,293029,2019-09-06 18:20:59:711,-0.8478,0.3568,10.1421,0.0055,-0.0007,9.8066,0.0454,-0.0148,0.0017,-5.06,-29.75,33.31,34.28,-81.4,-141.76
2847,52.392,-1.51422,148.98,10.08,2,218.57,21 / 21,293128,2019-09-06 18:20:59:810,-0.0404,0.1004,9.3427,0.0098,0.002,9.8066,-0.0027,0.0202,0.0093,-5.19,-29.5,34.06,33.57,-81.5,-142.32
2848,52.392,-1.51422,148.98,10.08,2,218.57,21 / 21,293229,2019-09-06 18:20:59:911,-0.3992,0.4847,9.4306,-0.0044,0.0004,9.8066,0.0215,0.0501,-0.0224,-5.44,-30.94,33.88,34.17,-81.54,-142.04
2849,52.392,-1.51422,148.98,10.08,2,218.57,21 / 21,293329,2019-09-06 18:21:00:011,-0.2433,0.1445,9.8629,0.0005,0.0241,9.8065,-0.0087,0.0202,-0.0302,-5.19,-29.5,32.94,34.71,-81.7,-141.06
2850,52.39139,-1.514976,150.77,7.28,2,215.7,22 / 22,293429,2019-09-06 18:21:00:111,-0.4777,0.4283,9.8349,0.0081,0.0313,9.8065,0.0085,0.0339,-0.0497,-5.62,-29.69,32.81,33.3,-81.95,-140.61
2851,52.39139,-1.514976,150.77,7.28,2,215.7,22 / 22,293529,2019-09-06 18:21:00:211,0.2958,1.0115,10.0397,0.006,0.0032,9.8066,-0.0489,0.0011,-0.0257,-5.0,-30.19,32.81,35.47,-82.11,-140.29
2852,52.39139,-1.514976,150.77,7.28,2,215.7,22 / 22,293628,2019-09-06 18:21:00:310,-0.1306,0.7479,9.679,-0.001,-0.0082,9.8066,0.0416,0.0419,0.0048,-5.5,-29.81,32.88,35.71,-82.15,-140.05
2853,52.39139,-1.514976,150.77,7.28,2,215.7,22 / 22,293729,2019-09-06 18:21:00:411,0.1042,0.7454,9.635,-0.0097,-0.0084,9.8066,-0.0009,0.0193,-0.0035,-5.75,-30.25,33.5,34.34,-82.02,-139.83
2854,52.39139,-1.514976,150.77,7.28,2,215.7,22 / 22,293828,2019-09-06 18:21:00:510,-0.3682,0.3051,9.7058,0.0001,-0.004,9.8066,-0.0254,-0.0203,0.0189,-5.12,-30.25,32.75,35.97,-81.95,-139.94
2855,52.39139,-1.514976,150.77,7.28,2,215.7,22 / 22,293930,2019-09-06 18:21:00:612,-0.3753,0.6671,10.0547,-0.0029,0.0074,9.8066,0.0083,-0.0135,0.0216,-5.75,-29.75,33.13,34.4,-81.92,-139.64
2856,52.39139,-1.514976,150.77,7.28,2,215.7,22 / 22,294029,2019-09-06 18:21:00:711,-0.1831,0.8905,10.0659,-0.0004,0.012,9.8066,-0.0504,0.008,-0.0027,-5.69,-30.31,33.5,35.57,-82.01,-138.72
2857,52.39139,-1.514976,150.77,7.28,2,215.7,22 / 22,294129,2019-09-06 18:21:00:811,0.1253,1.0554,9.7882,0.0021,0.0158,9.8066,0.0053,0.0042,-0.0128,-5.5,-30.37,33.06,38.25,-82.15,-137.77
2858,52.39139,-1.514976,150.77,7.28,2,215.7,22 / 22,294229,2019-09-06 18:21:00:911,0.206,0.3543,9.6345,0.0002,0.004,9.8066,-0.0027,0.0257,-0.0166,-5.44,-30.06,33.06,38.52,-82.22,-137.49
2859,52.39139,-1.514976,150.77,7.28,2,215.7,22 / 22,294329,2019-09-06 18:21:01:011,-0.3881,0.8824,9.7588,-0.0033,0.0137,9.8066,-0.0246,-0.0077,-0.0157,-5.56,-30.94,32.81,37.42,-82.28,-136.86
2860,52.39139,-1.514976,150.77,7.28,2,215.7,21 / 21,294428,2019-09-06 18:21:01:110,0.0901,0.8082,9.9157,0.0042,-0.0066,9.8066,-0.0287,0.0183,-0.0136,-5.37,-29.87,32.88,38.95,-82.31,-137.04
2861,52.39139,-1.514976,150.77,7.28,2,215.7,21 / 21,294528,2019-09-06 18:21:01:210,0.0035,0.9668,9.9378,-0.0017,0.0005,9.8065,0.0564,0.002,0.0117,-5.69,-29.81,33.38,36.92,-82.38,-137.12
2862,52.39139,-1.514976,150.77,7.28,2,215.7,21 / 21,294628,2019-09-06 18:21:01:310,0.057,0.8573,10.1374,0.0015,-0.0023,9.8066,0.0035,0.0095,-0.0256,-5.62,-30.56,33.0,37.21,-82.36,-137.01
2863,52.39139,-1.514976,150.77,7.28,2,215.7,21 / 21,294729,2019-09-06 18:21:01:411,-0.1421,1.0017,10.0762,0.0032,0.0051,9.8066,0.0188,-0.0234,0.0124,-5.44,-29.62,32.5,38.62,-82.36,-137.31
2864,52.39139,-1.514976,150.77,7.28,2,215.7,21 / 21,294828,2019-09-06 18:21:01:510,-0.0141,1.0573,10.0813,0.002,-0.0068,9.8066,0.035,0.0323,-0.0238,-5.12,-29.94,33.75,38.16,-82.3,-137.88
2865,52.39139,-1.514976,150.77,7.28,2,215.7,21 / 21,294929,2019-09-06 18:21:01:611,-0.142,1.242,10.2021,0.0012,-0.0081,9.8066,0.0384,0.019,-0.0238,-5.5,-30.37,33.25,36.96,-82.21,-138.89
2866,52.39139,-1.514976,150.77,7.28,2,215.7,21 / 21,295029,2019-09-06 18:21:01:711,0.0582,0.8113,9.3387,0.0073,0.0056,9.8066,0.0449,0.0002,0.0047,-5.69,-30.37,33.19,34.08,-82.21,-139.77
2867,52.39139,-1.514976,150.77,7.28,2,215.7,21 / 21,295129,2019-09-06 18:21:01:811,-0.1497,1.3103,9.5101,-0.0022,-0.0028,9.8066,-0.0219,-0.0013,-0.0014,-5.19,-29.81,34.25,35.94,-82.13,-139.99
2868,52.39139,-1.514976,150.77,7.28,2,215.7,21 / 21,295229,2019-09-06 18:21:01:911,-0.1065,1.2518,10.344,-0.004,0.0044,9.8066,0.0201,0.0029,-0.006,-5.69,-30.25,33.75,34.71,-82.14,-139.43
2869,52.39139,-1.514976,150.77,7.28,2,215.7,21 / 21,295329,2019-09-06 18:21:02:011,-0.049,1.0792,10.1084,0.0063,0.0048,9.8066,-0.0187,0.0018,-0.0011,-5.5,-29.94,33.31,36.49,-82.29,-139.27
2870,52.39139,-1.514976,150.77,7.28,2,215.7,21 / 21,295429,2019-09-06 18:21:02:111,0.177,0.6225,9.4085,0.0002,0.0105,9.8066,-0.0081,0.0151,-0.0021,-5.5,-30.0,33.56,37.19,-82.43,-138.68
2871,52.39139,-1.514976,150.77,7.28,2,215.7,21 / 21,295528,2019-09-06 18:21:02:210,-0.2591,1.2685,9.8703,-0.001,0.0099,9.8066,-0.0193,0.0018,-0.0264,-5.94,-30.25,33.69,36.22,-82.5,-137.86
2872,52.39139,-1.514976,150.77,7.28,2,215.7,21 / 21,295628,2019-09-06 18:21:02:310,-0.408,1.0396,10.096,0.0016,0.0008,9.8065,0.006,-0.0146,0.0158,-5.19,-30.19,33.56,37.85,-82.54,-138.02
2873,52.39139,-1.514976,150.77,7.28,2,215.7,21 / 21,295728,2019-09-06 18:21:02:410,-0.0533,0.791,9.8919,0.0009,-0.0012,9.8066,0.0418,0.0072,0.0024,-5.12,-29.44,33.5,37.39,-82.49,-138.33
2874,52.39139,-1.514976,150.77,7.28,2,215.7,21 / 21,295828,2019-09-06 18:21:02:510,0.1729,1.1188,9.6514,-0.0002,-0.0028,9.8066,0.0269,0.0204,0.0055,-5.5,-30.06,34.06,37.45,-82.47,-138.42
2875,52.39139,-1.514976,150.77,7.28,2,215.7,21 / 21,295928,2019-09-06 18:21:02:610,-0.3267,0.8591,9.8908,-0.0038,0.0043,9.8066,-0.0211,-0.0013,0.0065,-5.37,-30.19,33.63,38.07,-82.51,-137.83
2876,52.39139,-1.514976,150.77,7.28,2,215.7,21 / 21,296028,2019-09-06 18:21:02:710,-0.2167,0.8046,9.7966,0.003,0.0011,9.8066,-0.0045,-0.0001,-0.0004,-5.37,-30.0,33.06,37.85,-82.53,-137.89
2877,52.39139,-1.514976,150.77,7.28,2,215.7,21 / 21,296129,2019-09-06 18:21:02:811,-0.0538,0.8606,9.7998,-0.0012,0.001,9.8066,-0.026,0.0121,-0.0038,-5.37,-29.69,33.69,38.28,-82.58,-137.6
2878,52.39139,-1.514976,150.77,7.28,2,215.7,21 / 21,296228,2019-09-06 18:21:02:910,-0.0205,0.6347,10.0453,0.0005,0.0075,9.8066,-0.0035,0.0186,0.0063,-5.37,-29.75,34.25,38.71,-82.65,-137.17
2879,52.39139,-1.514976,150.77,7.28,2,215.7,21 / 21,296329,2019-09-06 18:21:03:011,-0.1545,1.2399,10.1062,-0.0005,0.0006,9.8066,0.0129,0.0223,-0.0249,-5.62,-30.37,33.13,37.02,-82.74,-136.81
2880,52.39139,-1.514976,150.77,7.28,2,215.7,22 / 22,296428,2019-09-06 18:21:03:110,-0.2371,0.5837,9.694,0.0057,-0.0012,9.8066,0.0183,-0.0102,0.0183,-5.06,-29.69,33.5,38.54,-82.75,-137.26
2881,52.39139,-1.514976,150.77,7.28,2,215.7,22 / 22,296528,2019-09-06 18:21:03:210,-0.2806,0.717,9.8526,-0.0042,-0.0071,9.8065,0.0013,0.0146,-0.0062,-5.25,-29.25,33.81,38.54,-82.66,-137.18
2882,52.39139,-1.514976,150.77,7.28,2,215.7,22 / 22,296628,2019-09-06 18:21:03:310,-0.0066,0.8538,9.917,0.0036,0.007,9.8066,-0.0076,0.0034,0.0053,-4.87,-30.0,33.75,38.54,-82.68,-137.3
2883,52.39139,-1.514976,150.77,7.28,2,215.7,22 / 22,296729,2019-09-06 18:21:03:411,-0.3455,0.8608,10.0375,-0.004,-0.0005,9.8066,0.0409,0.0073,-0.0255,-5.5,-30.12,33.75,38.76,-82.66,-137.12
2884,52.39139,-1.514976,150.77,7.28,2,215.7,22 / 22,296828,2019-09-06 18:21:03:510,0.2145,0.3999,9.9035,0.0052,0.005,9.8066,0.0077,0.018,-0.0134,-5.25,-29.62,33.38,38.04,-82.64,-137.65
2885,52.39139,-1.514976,150.77,7.28,2,215.7,22 / 22,296929,2019-09-06 18:21:03:611,0.1509,0.706,9.6697,-0.0053,-0.0036,9.8066,0.0168,0.0138,0.0175,-5.19,-29.31,33.06,37.79,-82.65,-137.74
2886,52.39139,-1.514976,150.77,7.28,2,215.7,22 / 22,297028,2019-09-06 18:21:03:710,-0.2432,0.832,9.8898,-0.0044,0.0006,9.8066,0.0001,0.0223,-0.0112,-5.62,-29.87,34.13,36.99,-82.6,-137.11
2887,52.39139,-1.514976,150.77,7.28,2,215.7,22 / 22,297128,2019-09-06 18:21:03:810,-0.5885,0.951,10.0247,-0.006,0.0025,9.8066,0.0189,0.0265,-0.0172,-5.12,-30.19,33.56,39.39,-82.62,-136.57
2888,52.39139,-1.514976,150.77,7.28,2,215.7,22 / 22,297228,2019-09-06 18:21:03:910,-0.119,0.8309,9.8469,0.0081,0.0135,9.8066,0.0688,-0.004,0.0043,-5.19,-29.31,33.75,39.12,-82.69,-136.64
2889,52.39139,-1.514976,150.77,7.28,2,215.7,22 / 22,297329,2019-09-06 18:21:04:011,-0.007,0.5231,9.6215,0.0,0.0063,9.8066,0.0141,0.007,-0.0394,-5.37,-29.06,33.88,38.39,-82.67,-137.32
2890,52.39139,-1.514976,150.77,7.28,2,215.7,23 / 23,297428,2019-09-06 18:21:04:110,-0.1226,-0.0901,9.7369,0.004,0.009,9.8066,0.0453,-0.0186,0.0294,-5.25,-29.0,33.75,38.07,-82.71,-137.59
2891,52.39139,-1.514976,150.77,7.28,2,215.7,23 / 23,297529,2019-09-06 18:21:04:211,-0.1216,0.4406,10.0596,-0.0061,-0.0044,9.8066,-0.0512,-0.0043,0.0127,-5.37,-29.0,34.13,38.73,-82.73,-136.97
2892,52.39139,-1.514976,150.77,7.28,2,215.7,23 / 23,297629,2019-09-06 18:21:04:311,-0.0349,0.6632,9.8424,-0.005,0.0052,9.8066,-0.0344,0.0077,0.0147,-5.69,-29.56,33.56,38.18,-82.73,-135.95
2893,52.39139,-1.514976,150.77,7.28,2,215.7,23 / 23,297728,2019-09-06 18:21:04:410,-0.2664,0.8645,9.9459,-0.0041,0.0061,9.8066,0.0111,0.0085,0.002,-5.56,-29.62,33.38,39.15,-82.75,-134.87
2894,52.39139,-1.514976,150.77,7.28,2,215.7,23 / 23,297829,2019-09-06 18:21:04:511,-0.2014,0.0257,9.9152,-0.0016,0.0053,9.8066,-0.0196,0.0117,-0.0104,-6.19,-29.87,32.94,39.56,-82.76,-134.49
2895,52.39139,-1.514976,150.77,7.28,2,215.7,23 / 23,297929,2019-09-06 18:21:04:611,-0.1115,0.2787,9.9769,-0.0004,0.007,9.8065,0.0165,-0.0129,0.0092,-5.19,-28.75,33.69,41.8,-82.83,-134.1
2896,52.39139,-1.514976,150.77,7.28,2,215.7,23 / 23,298028,2019-09-06 18:21:04:710,-0.1437,0.5209,9.9207,-0.0026,0.007,9.8066,-0.057,0.0032,-0.0038,-5.06,-29.37,33.63,42.03,-82.82,-133.89
2897,52.39139,-1.514976,150.77,7.28,2,215.7,23 / 23,298128,2019-09-06 18:21:04:810,0.0602,-0.1658,9.9441,-0.0004,0.0089,9.8065,0.0831,0.0109,0.0062,-5.44,-29.5,33.88,42.15,-82.88,-133.74
2898,52.39139,-1.514976,150.77,7.28,2,215.7,23 / 23,298229,2019-09-06 18:21:04:911,-0.0496,-0.0914,9.8873,-0.0031,0.0105,9.8066,-0.0802,0.0185,-0.0146,-5.56,-29.69,33.44,41.03,-82.92,-133.04
2899,52.39139,-1.514976,150.77,7.28,2,215.7,23 / 23,298328,2019-09-06 18:21:05:010,0.0749,0.3429,10.0372,0.0017,-0.009,9.8066,-0.044,0.0098,0.027,-6.0,-29.06,33.31,40.89,-82.92,-133.03
2900,52.39139,-1.514976,150.77,7.28,2,215.7,21 / 22,298428,2019-09-06 18:21:05:110,-0.162,0.4843,9.5148,-0.0042,-0.0142,9.8065,0.0299,-0.0052,0.0041,-5.62,-29.5,32.88,41.3,-82.9,-132.67
2901,52.39139,-1.514976,150.77,7.28,2,215.7,21 / 22,298529,2019-09-06 18:21:05:211,-0.2568,0.2284,9.763,-0.0009,0.0153,9.8066,-0.0142,-0.002,-0.0251,-5.94,-29.06,33.13,42.17,-82.92,-131.87
2902,52.39139,-1.514976,150.77,7.28,2,215.7,21 / 22,298628,2019-09-06 18:21:05:310,-0.3656,-0.1317,9.7603,-0.0009,0.0081,9.8066,-0.0006,0.0048,0.024,-4.94,-29.06,33.88,44.19,-82.94,-131.82
2903,52.39139,-1.514976,150.77,7.28,2,215.7,21 / 22,298729,2019-09-06 18:21:05:411,0.1067,-0.0987,9.9761,-0.0025,0.0063,9.8065,0.017,0.0071,-0.0053,-6.19,-29.56,33.75,42.74,-82.95,-131.63
2904,52.39139,-1.514976,150.77,7.28,2,215.7,21 / 22,298829,2019-09-06 18:21:05:511,0.0008,0.5187,10.0205,-0.0028,0.0078,9.8066,-0.0001,-0.0212,0.0036,-6.12,-29.5,33.25,43.16,-82.98,-130.91
2905,52.39139,-1.514976,150.77,7.28,2,215.7,21 / 22,298929,2019-09-06 18:21:05:611,-0.0928,0.3659,9.8955,-0.0024,0.0,9.8066,-0.0142,0.0068,0.0064,-5.94,-28.87,33.38,43.77,-82.96,-130.36
2906,52.39139,-1.514976,150.77,7.28,2,215.7,21 / 22,299029,2019-09-06 18:21:05:711,-0.317,0.2404,9.7596,-0.0016,-0.0033,9.8066,-0.0197,-0.0118,-0.0013,-5.75,-29.12,33.38,43.97,-82.94,-130.19
2907,52.39139,-1.514976,150.77,7.28,2,215.7,21 / 22,299128,2019-09-06 18:21:05:810,-0.1796,0.5209,9.9729,0.006,0.0085,9.8066,0.0324,-0.0024,-0.0159,-5.75,-28.81,33.56,44.09,-83.01,-130.21
2908,52.39139,-1.514976,150.77,7.28,2,215.7,21 / 22,299228,2019-09-06 18:21:05:910,0.1593,-0.2402,9.637,0.0013,0.0024,9.8066,0.022,0.0014,0.0149,-5.62,-28.87,33.75,43.6,-83.06,-130.63
2909,52.39139,-1.514976,150.77,7.28,2,215.7,21 / 22,299328,2019-09-06 18:21:06:010,-0.0325,0.576,9.9445,0.0012,0.0041,9.8066,0.0141,0.011,-0.0229,-5.94,-28.75,34.06,43.67,-83.06,-130.57
2910,52.39139,-1.514976,150.77,7.28,2,215.7,21 / 22,299429,2019-09-06 18:21:06:111,0.0814,0.1735,9.9059,0.003,-0.0008,9.8066,-0.0017,-0.0033,0.0056,-6.31,-28.94,33.31,42.83,-83.1,-131.13
2911,52.39139,-1.514976,150.77,7.28,2,215.7,21 / 22,299529,2019-09-06 18:21:06:211,0.0671,-0.185,9.6965,-0.0027,0.0026,9.8066,-0.0147,-0.004,0.0131,-6.0,-29.31,33.31,43.35,-83.11,-130.65
2912,52.39139,-1.514976,150.77,7.28,2,215.7,21 / 22,299628,2019-09-06 18:21:06:310,-0.1674,-0.0545,9.836,0.0003,-0.0009,9.8066,-0.015,0.0176,-0.0093,-5.75,-29.0,32.88,43.4,-83.14,-130.58
2913,52.39139,-1.514976,150.77,7.28,2,215.7,21 / 22,299729,2019-09-06 18:21:06:411,-0.0715,0.2824,10.0828,0.0033,0.0001,9.8066,0.0029,-0.0005,0.0034,-6.5,-28.87,33.31,43.27,-83.17,-130.69
2914,52.39139,-1.514976,150.77,7.28,2,215.7,21 / 22,299828,2019-09-06 18:21:06:510,-0.0439,0.2243,9.9936,0.0015,0.004,9.8066,0.0023,0.007,-0.0061,-5.81,-28.94,33.06,43.39,-83.2,-130.55
2915,52.39139,-1.514976,150.77,7.28,2,215.7,21 / 22,299928,2019-09-06 18:21:06:610,-0.1112,0.1209,9.9046,0.0023,0.0067,9.8066,0.0066,0.0003,0.0038,-5.69,-29.69,33.75,43.82,-83.25,-130.44
2916,52.39139,-1.514976,150.77,7.28,2,215.7,21 / 22,300029,2019-09-06 18:21:06:711,-0.1959,0.2497,10.0896,0.0038,-0.0023,9.8066,-0.0051,-0.0084,-0.0186,-5.81,-28.94,33.31,43.39,-83.28,-130.51
2917,52.39139,-1.514976,150.77,7.28,2,215.7,21 / 22,300129,2019-09-06 18:21:06:811,-0.1309,0.0047,9.7636,0.0069,0.003,9.8066,-0.0158,0.0031,-0.0341,-5.62,-29.5,33.44,43.3,-83.37,-130.53
2918,52.39139,-1.514976,150.77,7.28,2,215.7,21 / 22,300228,2019-09-06 18:21:06:910,-0.0033,0.2793,9.6802,0.007,0.0075,9.8066,-0.0177,0.0184,0.0113,-5.81,-29.5,33.0,43.24,-83.5,-130.5
2919,52.39139,-1.514976,150.77,7.28,2,215.7,21 / 22,300329,2019-09-06 18:21:07:011,0.1613,0.3618,9.8548,0.0012,0.0011,9.8066,-0.0031,0.003,0.0041,-5.37,-29.56,33.38,45.23,-83.62,-130.41
2920,52.39139,-1.514976,150.77,7.28,2,215.7,22 / 22,300428,2019-09-06 18:21:07:110,-0.0229,0.1472,9.7548,-0.0016,0.0041,9.8066,-0.0085,-0.0027,-0.0103,-5.5,-29.75,32.63,45.51,-83.6,-130.16
2921,52.39139,-1.514976,150.77,7.28,2,215.7,22 / 22,300529,2019-09-06 18:21:07:211,-0.1085,0.1541,9.8923,-0.0033,0.0038,9.8066,0.012,0.0069,0.0042,-5.62,-29.5,33.06,43.93,-83.61,-129.78
2922,52.39139,-1.514976,150.77,7.28,2,215.7,22 / 22,300628,2019-09-06 18:21:07:310,-0.0475,0.0752,9.7651,-0.002,-0.0013,9.8066,-0.0042,-0.0105,0.0306,-6.25,-29.12,33.44,44.15,-83.58,-129.6
2923,52.39139,-1.514976,150.77,7.28,2,215.7,22 / 22,300729,2019-09-06 18:21:07:411,-0.193,-0.2725,9.5822,0.0003,0.0005,9.8066,0.0012,0.0106,-0.0218,-6.56,-28.87,33.44,42.57,-83.57,-129.38
2924,52.39139,-1.514976,150.77,7.28,2,215.7,22 / 22,300829,2019-09-06 18:21:07:511,-0.0495,0.1207,9.9764,0.004,0.0012,9.8066,-0.0121,-0.0115,-0.0091,-6.19,-29.31,33.63,44.53,-83.64,-129.39
2925,52.39139,-1.514976,150.77,7.28,2,215.7,22 / 22,300929,2019-09-06 18:21:07:611,-0.0719,0.2128,9.9981,0.0041,0.0013,9.8066,-0.0129,-0.006,0.0006,-5.75,-29.37,33.94,44.28,-83.71,-129.58
2926,52.39139,-1.514976,150.77,7.28,2,215.7,22 / 22,301028,2019-09-06 18:21:07:710,-0.0001,-0.0353,9.759,-0.0022,0.002,9.8066,0.0098,-0.0071,0.0015,-5.81,-29.37,33.56,44.51,-83.74,-129.34
2927,52.39139,-1.514976,150.77,7.28,2,215.7,22 / 22,301129,2019-09-06 18:21:07:811,-0.0667,-0.3111,9.7732,-0.0025,0.0018,9.8066,0.0041,-0.0153,-0.0044,-5.81,-29.81,33.56,44.88,-83.73,-129.14
2928,52.39139,-1.514976,150.77,7.28,2,215.7,22 / 22,301229,2019-09-06 18:21:07:911,-0.0254,-0.0754,9.9449,-0.0015,0.0012,9.8065,-0.0034,-0.012,0.0052,-5.81,-29.44,33.0,44.9,-83.73,-128.8
2929,52.39139,-1.514976,150.77,7.28,2,215.7,22 / 22,301329,2019-09-06 18:21:08:011,-0.0742,-0.0016,9.8121,-0.0002,0.0002,9.8066,0.0203,-0.0044,0.0001,-5.56,-30.0,33.69,45.31,-83.72,-128.74
2930,52.39139,-1.514976,150.77,7.28,2,215.7,21 / 22,301428,2019-09-06 18:21:08:110,0.0307,-0.1491,9.7915,0.0009,0.0031,9.8066,0.0094,-0.0019,-0.011,-5.75,-29.62,33.38,45.09,-83.75,-128.75
2931,52.39139,-1.514976,150.77,7.28,2,215.7,21 / 22,301529,2019-09-06 18:21:08:211,-0.0093,-0.2773,9.7509,0.0014,0.0046,9.8066,0.0111,0.0047,-0.0009,-5.87,-29.44,33.31,45.02,-83.79,-128.65
2932,52.39139,-1.514976,150.77,7.28,2,215.7,21 / 22,301628,2019-09-06 18:21:08:310,-0.1008,-0.0547,9.9172,-0.0021,0.0029,9.8066,0.0028,0.008,-0.0043,-5.62,-29.12,33.56,45.45,-83.83,-128.41
2933,52.39139,-1.514976,150.77,7.28,2,215.7,21 / 22,301729,2019-09-06 18:21:08:411,-0.0078,-0.1839,10.0507,0.0007,0.0058,9.8066,-0.0079,0.0002,0.0005,-5.94,-29.25,33.38,45.65,-83.85,-128.02
2934,52.39139,-1.514976,150.77,7.28,2,215.7,21 / 22,301829,2019-09-06 18:21:08:511,-0.0143,-0.4852,10.0449,0.0007,-0.0011,9.8066,0.0023,0.0104,0.0105,-5.5,-29.37,33.75,47.84,-83.89,-127.79
2935,52.39139,-1.514976,150.77,7.28,2,215.7,21 / 22,301928,2019-09-06 18:21:08:610,0.1626,-0.8388,9.8991,-0.0022,-0.0058,9.8066,-0.0046,0.0204,-0.0024,-5.62,-29.31,33.13,45.88,-83.87,-127.79
2936,52.39139,-1.514976,150.77,7.28,2,215.7,21 / 22,302029,2019-09-06 18:21:08:711,-0.0496,-0.6178,9.7771,-0.0023,0.0005,9.8066,0.0071,-0.0052,0.0066,-5.37,-29.69,33.88,47.95,-83.85,-127.84
2937,52.39139,-1.514976,150.77,7.28,2,215.7,21 / 22,302128,2019-09-06 18:21:08:810,-0.0387,-0.8893,9.7693,-0.0004,-0.0012,9.8066,-0.0052,-0.0015,-0.0027,-6.0,-29.87,33.56,46.31,-83.82,-127.74
2938,52.39139,-1.514976,150.77,7.28,2,215.7,21 / 22,302229,2019-09-06 18:21:08:911,-0.0392,-1.2918,9.8739,0.0004,-0.0055,9.8065,-0.006,-0.0224,-0.0002,-6.06,-30.06,33.81,46.17,-83.82,-127.87
