,GPS LATITUDE (degrees), GPS LONGITUDE (degrees), GPS ALTITUDE (m), GPS SPEED (Kmh), GPS ACCURACY (m), GPS ORIENTATION (Â°),GPS SATELLITES IN RANGE, TIME SINCE START (ms), DATE (YYYY-MO-DD HH-MI-SS_SSS), ACCELEROMETER X (m/s²) , ACCELEROMETER Y (m/s²), ACCELEROMETER Z (m/s²), GRAVITY X (m/s²), GRAVITY Y (m/s²), GRAVITY Z (m/s²), GYROSCOPE Yaw (rad/s), GYROSCOPE Pitch (rad/s), GYROSCOPE Roll (rad/s), MAGNETIC FIELD X (Î¼T), MAGNETIC FIELD Y (Î¼T), MAGNETIC FIELD Z (Î¼T), ORIENTATION (Yaw) (Â°), ORIENTATION (Pitch) (Â°), ORIENTATION (Roll ) (Â°)
47543,51.46005,-2.756375,100,17.87,10,241.7,Dec-21,4754323,2019-08-16 14:08:28:103,-0.2998,-0.082,8.7862,-0.0113,0.0226,9.8066,-0.017,0.0037,0.0154,-1.9,29.92,1.16,265.98,9.39,3.51
47544,51.46005,-2.756375,100,17.87,10,241.7,Dec-21,4754423,2019-08-16 14:08:28:203,0.0483,0.4225,10.2723,0.0004,0.0118,9.8066,0.0234,-0.0623,-0.0037,-1.9,29.92,1.16,265.98,9.39,3.51
47545,51.46005,-2.756375,100,17.87,10,241.7,Dec-21,4754524,2019-08-16 14:08:28:304,0.0168,-0.387,9.8683,-0.0087,-0.0015,9.8066,0.0139,0.1486,-0.0208,-1.49,29.96,-0.08,267.54,9.46,3.51
47546,51.46005,-2.756375,100,17.87,10,241.7,Dec-21,4754622,2019-08-16 14:08:28:402,-0.0521,-0.142,10.4433,-0.0115,0.0027,9.8066,-0.0437,0.0815,-0.0112,-0.94,29.97,1.01,267.85,9.45,3.56
47547,51.46005,-2.756375,100,17.87,10,241.7,Dec-21,4754723,2019-08-16 14:08:28:503,-0.3489,-0.256,9.444,0.0009,-0.0169,9.8066,0.0128,0.0911,-0.0197,-1.51,29.94,1.12,265.97,9.35,3.55
47548,51.459972,-2.756623,100,18.4,10,242.2,Dec-21,4754823,2019-08-16 14:08:28:603,0.1777,-0.1591,9.7348,0.0086,-0.0735,9.8064,0.0107,0.0112,-0.0091,-1.51,29.94,1.12,265.97,9.35,3.55
47549,51.459972,-2.756623,100,18.4,10,242.2,Dec-21,4754923,2019-08-16 14:08:28:703,-0.2067,0.4136,8.925,-0.0047,0.0328,9.8066,0.016,-0.0282,0.009,-1.99,29.91,1.08,265.99,8.93,3.47
47550,51.459972,-2.756623,100,18.4,10,242.2,Dec-21,4755023,2019-08-16 14:08:28:803,-0.082,0.4296,8.947,-0.0078,0.0073,9.8066,0.017,0.0037,-0.0123,-1.95,29.92,1.06,265.98,9.11,3.51
47551,51.459972,-2.756623,100,18.4,10,242.2,Dec-21,4755123,2019-08-16 14:08:28:903,0.0036,0.2681,9.2797,-0.0109,-0.01,9.8066,0.017,0.0037,-0.0123,-1.95,29.92,1.06,265.98,9.11,3.51
47552,51.459972,-2.756623,100,18.4,10,242.2,Dec-21,4755223,2019-08-16 14:08:29:003,-0.0006,0.5375,9.1141,-0.001,0.0004,9.8067,-0.0181,-0.0005,-0.0005,-1.99,29.91,1.08,265.97,9.05,3.57
47553,51.459972,-2.756623,100,18.4,10,242.2,Dec-21,4755322,2019-08-16 14:08:29:102,-0.0181,0.3043,9.1205,-0.005,0.0088,9.8066,0.016,0.0006,-0.0165,-2.43,29.86,1.6,265.97,9.05,3.57
47554,51.459972,-2.756623,100,18.4,10,242.2,Dec-21,4755423,2019-08-16 14:08:29:203,-0.1255,0.0331,9.9119,-0.002,0.008,9.8066,-0.0138,0.0016,-0.0112,-1.95,29.89,1.66,266.28,9.1,3.59
47555,51.459972,-2.756623,100,18.4,10,242.2,Dec-21,4755523,2019-08-16 14:08:29:303,0.0497,-0.2124,10.4638,0.0024,-0.0282,9.8066,0.0085,-0.0005,-0.0165,-1.95,29.89,1.66,266.28,9.1,3.59
47556,51.459972,-2.756623,100,18.4,10,242.2,Dec-21,4755622,2019-08-16 14:08:29:402,0.1685,-0.3172,10.6055,-0.0026,-0.0516,9.8065,0.0075,0.008,0.0058,-1.99,29.93,-0.08,265.68,8.8,3.58
47557,51.459972,-2.756623,100,18.4,10,242.2,Dec-21,4755723,2019-08-16 14:08:29:503,-0.1161,-0.4403,9.9851,0.0061,-0.0175,9.8066,-0.0213,-0.0282,0.0069,-1.46,29.96,-0.08,267.56,8.78,3.59
47558,51.459892,-2.756863,100,18.73,11,242.5,Dec-21,4755822,2019-08-16 14:08:29:602,0.0874,-0.3978,9.8537,0.0102,-0.0207,9.8066,-0.0064,0.0293,-0.0187,-1.54,29.96,0.48,265.69,8.68,3.55
47559,51.459892,-2.756863,100,18.73,11,242.5,Dec-21,4755923,2019-08-16 14:08:29:703,0.3228,-0.5541,10.569,0.0269,-0.0343,9.8066,-0.0128,0.0037,-0.0059,-4.01,29.55,3.26,262.86,8.5,3.38
47560,51.459892,-2.756863,100,18.73,11,242.5,Dec-21,4756023,2019-08-16 14:08:29:803,0.2984,-0.7983,10.1463,0.0223,-0.0085,9.8066,-0.0128,0.0037,-0.0059,-4.01,29.55,3.26,262.86,8.5,3.38
47561,51.459892,-2.756863,100,18.73,11,242.5,Dec-21,4756123,2019-08-16 14:08:29:903,0.1813,0.2806,10.3262,0.0123,0.0086,9.8066,-0.016,-0.0133,0.0016,-0.44,29.97,1.2,269.8,8.46,3.24
47562,51.459892,-2.756863,100,18.73,11,242.5,Dec-21,4756223,2019-08-16 14:08:30:003,0.7229,-0.3006,9.6983,0.0233,0.0055,9.8066,-0.0202,0.0794,-0.0091,-1.46,29.96,0.46,267.65,8.49,3.1
47563,51.459892,-2.756863,100,18.73,11,242.5,Dec-21,4756323,2019-08-16 14:08:30:103,0.3058,0.1272,10.2375,0.0329,-0.0051,9.8066,-0.017,0.0059,-0.0112,-1.46,29.96,0.46,267.65,8.49,3.1
47564,51.459892,-2.756863,100,18.73,11,242.5,Dec-21,4756423,2019-08-16 14:08:30:203,0.7142,0.1093,10.5445,0.0525,0.0062,9.8065,-0.0213,-0.0421,-0.0155,-1.43,29.97,-0.07,267.65,8.49,3.1
47565,51.459892,-2.756863,100,18.73,11,242.5,Dec-21,4756523,2019-08-16 14:08:30:303,0.7354,0.0883,9.1026,0.0757,0.0078,9.8064,0.0565,0.0123,-0.0496,-1.95,29.92,1.06,266.12,8.56,2.66
47566,51.459892,-2.756863,100,18.73,11,242.5,Dec-21,4756623,2019-08-16 14:08:30:403,0.1725,-0.2121,8.9728,0.0053,-0.0329,9.8066,0.017,-0.0069,-0.0069,-1.95,29.92,1.06,266.12,8.56,2.66
47567,51.459892,-2.756863,100,18.73,11,242.5,Dec-21,4756723,2019-08-16 14:08:30:503,-0.1071,0.233,10.4994,-0.0167,-0.0071,9.8066,0.0277,-0.0389,-0.0144,-1.92,29.94,0.44,265.84,8.37,2.61
47568,51.45982,-2.757096,101,18.53,11,243.3,Dec-21,4756823,2019-08-16 14:08:30:603,-0.0269,0.3683,9.4929,-0.0145,0.0031,9.8066,-0.0501,-0.0623,-0.0027,-1.41,29.97,-0.16,265.84,8.37,2.61
47569,51.45982,-2.757096,101,18.53,11,243.3,Dec-21,4756923,2019-08-16 14:08:30:703,0.0789,0.1798,9.9309,0.018,0.0157,9.8066,-0.0501,-0.0623,-0.0027,-0.9,29.98,0.44,267.72,8.38,2.7
47570,51.45982,-2.757096,101,18.53,11,243.3,Dec-21,4757024,2019-08-16 14:08:30:804,0.2247,-0.5562,9.4506,0.034,0.0407,9.8065,0.0192,0.0868,-0.008,-0.4,29.99,0.55,269.91,8.63,2.51
47571,51.45982,-2.757096,101,18.53,11,243.3,Dec-21,4757123,2019-08-16 14:08:30:903,0.3638,0.3758,7.8524,-0.0009,-0.0001,9.8066,0.0202,-0.0239,-0.0059,-0.4,29.99,0.55,269.91,8.63,2.51
47572,51.45982,-2.757096,101,18.53,11,243.3,Dec-21,4757223,2019-08-16 14:08:31:003,-0.3202,0.3924,9.4735,-0.0033,-0.0065,9.8066,0.0213,0.0048,-0.0346,-0.39,29.99,0.45,269.62,8.63,2.51
47573,51.45982,-2.757096,101,18.53,11,243.3,Dec-21,4757323,2019-08-16 14:08:31:103,-0.2398,0.1712,9.3796,-0.0054,0.01,9.8066,-0.0075,-0.0069,-0.008,-0.39,30.0,-0.07,269.62,8.68,2.54
47574,51.45982,-2.757096,101,18.53,11,243.3,Dec-21,4757423,2019-08-16 14:08:31:203,-0.0931,-0.1718,9.8566,0.005,-0.0043,9.8066,0.016,0.0613,-0.0208,-0.39,30.0,-0.07,269.62,8.68,2.54
47575,51.45982,-2.757096,101,18.53,11,243.3,Dec-21,4757522,2019-08-16 14:08:31:302,-0.0329,-0.1745,10.1625,0.0123,-0.0082,9.8066,-0.0234,0.0336,-0.008,-0.88,29.98,0.52,268.03,8.6,2.49
47576,51.45982,-2.757096,101,18.53,11,243.3,Dec-21,4757623,2019-08-16 14:08:31:403,-0.0163,-0.1277,10.3104,-0.0013,-0.0031,9.8067,0.0107,-0.0176,-0.0144,-1.43,29.92,1.67,268.32,8.55,2.41
47577,51.45982,-2.757096,101,18.53,11,243.3,Dec-21,4757723,2019-08-16 14:08:31:503,-0.0062,0.3901,8.7831,-0.004,0.0042,9.8067,0.0107,-0.0176,-0.0144,-1.43,29.92,1.67,268.32,8.55,2.41
47578,51.459732,-2.757372,102,19.0,11,244.1,Dec-21,4757823,2019-08-16 14:08:31:603,-0.3304,0.4194,9.7195,0.0015,0.0031,9.8067,0.0202,-0.0058,-0.0208,-1.41,29.95,1.12,268.03,8.57,2.44
47579,51.459732,-2.757372,102,19.0,11,244.1,Dec-21,4757923,2019-08-16 14:08:31:703,-0.1051,0.3386,9.5356,0.0095,0.0206,9.8066,-0.0426,0.0027,-0.0219,-1.39,29.96,0.52,268.04,8.59,2.43
47580,51.459732,-2.757372,102,19.0,11,244.1,Dec-21,4758022,2019-08-16 14:08:31:802,-0.3672,0.251,9.5193,0.0294,0.0369,9.8065,-0.0224,0.0645,-0.0219,0.13,29.99,-0.68,269.36,8.81,2.26
47581,51.459732,-2.757372,102,19.0,11,244.1,Dec-21,4758123,2019-08-16 14:08:31:903,0.0674,-0.2192,9.7119,0.0099,0.0141,9.8066,0.0021,-0.0101,-0.008,0.13,29.99,-0.68,269.36,8.81,2.26
47582,51.459732,-2.757372,102,19.0,11,244.1,Dec-21,4758223,2019-08-16 14:08:32:003,0.0383,-0.4014,10.1109,0.0111,0.0102,9.8066,0.0032,0.0133,-0.0155,0.14,30.0,-0.08,269.66,8.87,2.2
47583,51.459732,-2.757372,102,19.0,11,244.1,Dec-21,4758323,2019-08-16 14:08:32:103,0.0003,-0.2172,9.7807,-0.0072,-0.0107,9.8066,0.0043,-0.0218,-0.0187,-0.39,29.98,1.15,269.95,8.81,2.24
47584,51.459732,-2.757372,102,19.0,11,244.1,Dec-21,4758423,2019-08-16 14:08:32:203,0.1221,-0.0853,9.4018,-0.0162,-0.0101,9.8066,0.0043,-0.0218,-0.0187,-0.39,29.98,1.15,269.95,8.81,2.24
47585,51.459732,-2.757372,102,19.0,11,244.1,Dec-21,4758523,2019-08-16 14:08:32:303,0.1651,0.2647,10.0962,-0.0097,0.0238,9.8066,0.0256,-0.0186,-0.0187,-0.39,30.0,-0.07,269.64,8.75,2.33
47586,51.459732,-2.757372,102,19.0,11,244.1,Dec-21,4758624,2019-08-16 14:08:32:404,-0.2771,0.3259,9.3742,0.0076,0.0183,9.8066,0.0075,0.0059,-0.0229,-0.38,30.0,-0.07,269.63,8.89,2.39
47587,51.459732,-2.757372,102,19.0,11,244.1,Dec-21,4758723,2019-08-16 14:08:32:503,0.1102,0.301,10.0873,0.003,0.0345,9.8066,-0.0362,0.0016,-0.0005,-0.38,29.99,0.52,269.63,8.89,2.39
47588,51.459656,-2.757637,104,19.09,11,244.9,Dec-21,4758823,2019-08-16 14:08:32:603,-0.0264,0.156,10.0683,0.008,0.0309,9.8066,-0.016,0.0006,-0.0187,-0.38,29.99,0.52,269.63,8.89,2.39
47589,51.459656,-2.757637,104,19.09,11,244.9,Dec-21,4758923,2019-08-16 14:08:32:703,0.0646,0.2137,10.7138,0.001,-0.0194,9.8066,-0.0053,-0.0037,-0.0027,0.13,29.91,2.27,270.23,9.07,2.35
47590,51.459656,-2.757637,104,19.09,11,244.9,Dec-21,4759022,2019-08-16 14:08:32:802,0.3352,-0.5055,9.9347,0.0031,-0.0508,9.8065,0.0426,0.0485,-0.0165,-0.38,29.98,1.11,269.94,8.78,2.33
47591,51.459656,-2.757637,104,19.09,11,244.9,Dec-21,4759123,2019-08-16 14:08:32:903,-0.2271,-0.0696,10.0241,-0.018,-0.0528,9.8065,-0.0032,-0.0229,-0.0048,-0.9,29.99,0.01,269.94,8.78,2.33
47592,51.459656,-2.757637,104,19.09,11,244.9,Dec-21,4759223,2019-08-16 14:08:33:003,-0.3409,0.1416,9.1909,-0.0263,-0.0727,9.8063,0.0384,-0.0793,-0.0282,-0.9,29.99,0.01,269.94,8.78,2.33
47593,51.459656,-2.757637,104,19.09,11,244.9,Dec-21,4759324,2019-08-16 14:08:33:104,0.0496,-0.1711,9.0646,-0.0371,-0.038,9.8065,0.0384,-0.0793,-0.0282,-0.38,29.99,0.53,269.91,8.55,2.55
47594,51.459656,-2.757637,104,19.09,11,244.9,Dec-21,4759423,2019-08-16 14:08:33:203,0.0322,0.1359,8.9518,-0.0155,0.0037,9.8066,0.0181,0.024,-0.0112,0.13,29.98,1.06,269.91,8.63,2.54
47595,51.459656,-2.757637,104,19.09,11,244.9,Dec-21,4759523,2019-08-16 14:08:33:303,-0.2575,0.238,9.1554,-0.0335,0.0344,9.8065,-0.0032,-0.0612,-0.0059,0.13,29.98,1.06,269.91,8.63,2.54
47596,51.459656,-2.757637,104,19.09,11,244.9,Dec-21,4759624,2019-08-16 14:08:33:404,-0.0051,0.119,9.4015,0.016,-0.0029,9.8066,-0.0064,0.0336,-0.0176,-0.38,30.0,0.01,269.58,8.83,2.74
47597,51.459656,-2.757637,104,19.09,11,244.9,Dec-21,4759724,2019-08-16 14:08:33:504,0.1621,0.4104,9.2359,0.0199,-0.0157,9.8066,-0.0053,0.0538,-0.0048,-0.39,30.0,0.01,269.6,8.74,2.62
47598,51.459576,-2.757906,105,19.28,10,245.3,Dec-21,4759823,2019-08-16 14:08:33:603,0.3101,-0.0461,9.634,0.0037,-0.0326,9.8066,0.0234,-0.0016,-0.008,0.13,29.96,1.61,269.6,8.74,2.62
47599,51.459576,-2.757906,105,19.28,10,245.3,Dec-21,4759923,2019-08-16 14:08:33:703,-0.1489,0.0242,9.9322,-0.0055,-0.0911,9.8062,0.0234,-0.0016,-0.008,0.13,29.96,1.61,269.6,8.74,2.62
47600,51.459576,-2.757906,105,19.28,10,245.3,Dec-21,4760024,2019-08-16 14:08:33:804,-0.195,0.3914,9.6641,-0.0323,-0.1225,9.8058,0.0565,0.041,-0.0112,-0.38,29.99,0.52,269.87,8.02,2.81
47601,51.459576,-2.757906,105,19.28,10,245.3,Dec-21,4760123,2019-08-16 14:08:33:903,0.2612,-0.3144,10.316,-0.0141,-0.017,9.8066,-0.032,-0.0495,0.0037,-0.38,29.98,1.11,269.86,7.92,2.89
47602,51.459576,-2.757906,105,19.28,10,245.3,Dec-21,4760223,2019-08-16 14:08:34:003,0.166,-0.075,9.3317,0.0128,0.0003,9.8066,-0.016,-0.0293,-0.0091,-0.38,29.99,0.52,269.86,7.92,2.89
47603,51.459576,-2.757906,105,19.28,10,245.3,Dec-21,4760323,2019-08-16 14:08:34:103,0.0681,-0.2377,9.3498,0.0195,0.0048,9.8066,0.0043,-0.0367,-0.0005,-0.38,29.99,0.52,269.86,7.92,2.89
47604,51.459576,-2.757906,105,19.28,10,245.3,Dec-21,4760423,2019-08-16 14:08:34:203,-0.0016,-0.0095,10.3733,-0.008,-0.0041,9.8066,-0.0075,-0.008,-0.0037,0.13,30.0,-0.07,269.62,7.95,2.78
47605,51.459576,-2.757906,105,19.28,10,245.3,Dec-21,4760523,2019-08-16 14:08:34:303,0.2826,-0.1327,9.3686,0.0217,-0.0093,9.8066,-0.0011,-0.0314,-0.0293,0.65,29.99,-0.59,271.24,7.93,2.82
47606,51.459576,-2.757906,105,19.28,10,245.3,Dec-21,4760623,2019-08-16 14:08:34:403,-0.1996,-0.1317,9.2615,0.0162,-0.0287,9.8066,-0.0224,0.008,0.0058,0.65,29.97,1.13,271.78,7.87,2.7
47607,51.459576,-2.757906,105,19.28,10,245.3,Dec-21,4760723,2019-08-16 14:08:34:503,-0.3675,0.26,9.527,0.0088,-0.0451,9.8065,-0.0224,0.008,0.0058,0.65,29.97,1.13,271.78,7.87,2.7
47608,51.45952,-2.758131,102,19.15,11,245.8,Dec-21,4760823,2019-08-16 14:08:34:603,-0.0601,0.1888,9.8118,-0.0029,0.0022,9.8067,-0.0021,-0.0229,-0.0101,0.66,29.91,2.27,272.04,7.61,2.65
47609,51.45952,-2.758131,102,19.15,11,245.8,Dec-21,4760923,2019-08-16 14:08:34:703,0.0134,-0.1129,9.8824,0.0206,-0.0084,9.8066,0.0021,-0.0229,-0.0208,0.13,29.95,1.67,270.17,7.55,2.53
47610,51.45952,-2.758131,102,19.15,11,245.8,Dec-21,4761023,2019-08-16 14:08:34:803,0.1678,-0.1919,10.0373,0.0133,-0.0057,9.8066,-0.0096,0.0091,0.009,0.63,29.86,2.86,272.31,7.52,2.45
47611,51.45952,-2.758131,102,19.15,11,245.8,Dec-21,4761123,2019-08-16 14:08:34:903,0.144,-0.0168,9.7059,0.0023,-0.0009,9.8067,0.0298,-0.0005,-0.0059,0.63,29.86,2.86,272.31,7.52,2.45
47612,51.45952,-2.758131,102,19.15,11,245.8,Dec-21,4761223,2019-08-16 14:08:35:003,-0.1483,0.5717,9.2698,0.0002,0.0213,9.8066,0.0085,-0.0048,-0.0282,0.63,29.91,2.2,272.07,7.61,2.47
47613,51.45952,-2.758131,102,19.15,11,245.8,Dec-21,4761323,2019-08-16 14:08:35:103,-0.0192,0.5785,9.4962,0.0052,-0.0093,9.8066,-0.0106,-0.0186,-0.0069,0.65,29.97,1.13,271.82,7.73,2.47
47614,51.45952,-2.758131,102,19.15,11,245.8,Dec-21,4761423,2019-08-16 14:08:35:203,0.0763,-0.2754,10.4065,0.0146,-0.0332,9.8066,0.0149,-0.0101,-0.0101,0.13,30.0,0.53,269.94,7.53,2.39
47615,51.45952,-2.758131,102,19.15,11,245.8,Dec-21,4761523,2019-08-16 14:08:35:303,0.1464,-0.6511,10.3157,0.0015,-0.0173,9.8066,0.0149,-0.0101,-0.0101,0.13,30.0,0.53,269.94,7.53,2.39
47616,51.45952,-2.758131,102,19.15,11,245.8,Dec-21,4761624,2019-08-16 14:08:35:404,0.001,0.2824,9.9005,-0.0094,-0.0072,9.8066,0.0171,0.0229,-0.0069,0.63,29.99,0.43,271.59,7.43,2.38
47617,51.45952,-2.758131,102,19.15,11,245.8,Dec-21,4761723,2019-08-16 14:08:35:503,0.1237,0.3595,9.2995,-0.0122,-0.0214,9.8066,-0.0192,0.0283,0.0026,1.18,29.98,-0.16,271.58,7.31,2.45
47618,51.459442,-2.758406,102,19.85,10,246.5,Dec-21,4761823,2019-08-16 14:08:35:603,0.2485,-0.4488,9.977,0.0074,-0.0091,9.8066,0.0139,0.0346,-0.0069,1.18,29.98,-0.16,271.58,7.31,2.45
47619,51.459442,-2.758406,102,19.85,10,246.5,Dec-21,4761923,2019-08-16 14:08:35:703,0.205,0.0209,9.5334,0.0108,0.0157,9.8066,0.0021,-0.0399,-0.0155,0.66,29.99,0.36,271.59,7.4,2.39
47620,51.459442,-2.758406,102,19.85,10,246.5,Dec-21,4762022,2019-08-16 14:08:35:802,0.1541,0.4743,10.1596,0.0072,0.0261,9.8066,-0.0064,-0.0463,-0.0144,0.66,29.99,0.36,271.59,7.4,2.39
47621,51.459442,-2.758406,102,19.85,10,246.5,Dec-21,4762123,2019-08-16 14:08:35:903,0.0534,0.5405,9.7041,0.0127,-0.0083,9.8066,-0.032,0.0038,-0.0005,0.65,29.99,0.36,271.59,7.59,2.31
47622,51.459442,-2.758406,102,19.85,10,246.5,Dec-21,4762223,2019-08-16 14:08:36:003,0.1358,-0.3786,10.0054,0.0142,-0.0126,9.8066,-0.0096,0.0219,-0.0048,1.14,29.98,0.35,271.6,7.51,2.23
47623,51.459442,-2.758406,102,19.85,10,246.5,Dec-21,4762323,2019-08-16 14:08:36:103,-0.0821,-0.612,9.8552,-0.0032,-0.0154,9.8066,-0.0096,0.0219,-0.0048,1.14,29.98,0.35,271.6,7.51,2.23
47624,51.459442,-2.758406,102,19.85,10,246.5,Dec-21,4762423,2019-08-16 14:08:36:203,-0.0321,-0.1707,9.4116,0.0072,-0.0214,9.8066,-0.0266,0.0336,0.0016,1.14,29.98,0.35,271.6,7.42,2.25
47625,51.459442,-2.758406,102,19.85,10,246.5,Dec-21,4762523,2019-08-16 14:08:36:303,-0.0883,0.2547,10.1627,0.018,-0.0409,9.8065,-0.0021,-0.009,-0.0155,1.14,29.98,0.35,271.6,7.42,2.25
47626,51.459442,-2.758406,102,19.85,10,246.5,Dec-21,4762624,2019-08-16 14:08:36:404,0.6508,-0.2606,10.023,0.0119,0.0137,9.8066,-0.0117,-0.0229,-0.0048,0.65,29.99,0.36,271.63,7.18,2.15
47627,51.459442,-2.758406,102,19.85,10,246.5,Dec-21,4762723,2019-08-16 14:08:36:503,-0.1005,0.5439,9.3291,0.0316,0.0474,9.8065,0.0043,-0.0538,-0.0325,1.16,29.98,-0.24,271.64,7.45,1.96
47628,51.459373,-2.758684,103,20.11,10,247.1,Dec-21,4762823,2019-08-16 14:08:36:603,0.1272,0.2664,9.978,0.0248,0.0272,9.8066,-0.0021,-0.0197,-0.008,1.7,29.95,-0.25,271.64,7.45,1.96
47629,51.459373,-2.758684,103,20.11,10,247.1,Dec-21,4762923,2019-08-16 14:08:36:703,0.0661,-0.1338,9.4145,0.023,0.0258,9.8066,0.0565,0.0421,-0.0069,1.7,29.95,-0.25,271.64,7.45,1.96
47630,51.459373,-2.758684,103,20.11,10,247.1,Dec-21,4763023,2019-08-16 14:08:36:803,-0.1017,0.4139,10.6963,-0.0069,-0.0066,9.8066,0.0075,0.0474,-0.0016,2.17,29.92,0.37,273.54,7.6,1.82
47631,51.459373,-2.758684,103,20.11,10,247.1,Dec-21,4763123,2019-08-16 14:08:36:903,0.4187,-0.0983,9.7212,-0.0181,0.02,9.8066,0.0075,0.0474,-0.0016,1.18,29.98,-0.25,271.65,7.42,1.93
47632,51.459373,-2.758684,103,20.11,10,247.1,Dec-21,4763224,2019-08-16 14:08:37:004,0.2946,0.4966,9.858,0.0005,0.0025,9.8067,-0.0213,0.0229,-0.0123,1.12,29.98,-0.24,271.63,7.54,2.03
47633,51.459373,-2.758684,103,20.11,10,247.1,Dec-21,4763324,2019-08-16 14:08:37:104,-0.2551,0.4066,10.1338,0.0224,0.0201,9.8066,0.0021,0.0038,-0.0229,1.11,29.98,0.26,271.64,7.66,1.9
47634,51.459373,-2.758684,103,20.11,10,247.1,Dec-21,4763423,2019-08-16 14:08:37:203,-0.0685,0.1848,9.3734,0.0072,0.0111,9.8066,0.0064,-0.0026,-0.0165,1.11,29.98,0.26,271.64,7.66,1.9
47635,51.459373,-2.758684,103,20.11,10,247.1,Dec-21,4763523,2019-08-16 14:08:37:303,0.1057,0.0663,9.5856,-0.0126,0.0179,9.8066,0.0117,0.0016,-0.0091,0.65,29.99,0.36,271.64,7.72,1.85
47636,51.459373,-2.758684,103,20.11,10,247.1,Dec-21,4763623,2019-08-16 14:08:37:403,-0.0227,0.6713,9.7781,-0.0286,0.0793,9.8063,0.0149,-0.0271,-0.0165,0.63,29.99,0.35,271.61,8.19,2.01
47637,51.459373,-2.758684,103,20.11,10,247.1,Dec-21,4763723,2019-08-16 14:08:37:503,0.3196,0.64,9.406,0.0031,0.0372,9.8066,0.0043,0.0091,-0.025,0.63,29.99,0.35,271.61,8.19,2.01
47638,51.4593,-2.758952,103,20.18,9,247.9,Dec-21,4763823,2019-08-16 14:08:37:603,0.3794,0.6303,9.8156,0.0155,0.0694,9.8064,0.0043,0.0091,-0.025,1.12,29.98,-0.15,271.6,8.59,1.9
47639,51.4593,-2.758952,103,20.18,9,247.9,Dec-21,4763923,2019-08-16 14:08:37:703,0.0461,0.268,10.2373,0.007,0.0294,9.8066,0.0053,0.0261,-0.0176,1.67,29.95,0.44,273.49,8.76,1.86
47640,51.4593,-2.758952,103,20.18,9,247.9,Dec-21,4764024,2019-08-16 14:08:37:804,0.0725,0.2171,9.1663,-0.0027,0.0089,9.8066,0.0213,0.0251,-0.0165,1.67,29.95,0.44,273.49,8.76,1.86
47641,51.4593,-2.758952,103,20.18,9,247.9,Dec-21,4764124,2019-08-16 14:08:37:904,-0.012,0.022,9.4883,0.0037,0.0106,9.8066,0.0032,0.0112,-0.0176,2.18,29.92,0.35,273.49,8.79,1.88
47642,51.4593,-2.758952,103,20.18,9,247.9,Dec-21,4764224,2019-08-16 14:08:38:004,0.4509,0.3764,10.0639,0.0132,0.0628,9.8064,-0.0043,-0.0442,-0.0165,1.67,29.94,-0.76,273.19,9.15,1.78
47643,51.4593,-2.758952,103,20.18,9,247.9,Dec-21,4764323,2019-08-16 14:08:38:103,0.256,-0.1168,9.9899,0.0173,0.0267,9.8066,-0.0288,-0.0186,-0.0037,1.67,29.94,-0.76,273.19,9.15,1.78
47644,51.4593,-2.758952,103,20.18,9,247.9,Dec-21,4764423,2019-08-16 14:08:38:203,0.045,-0.0431,9.0962,0.0087,0.0055,9.8066,0.0107,0.0219,-0.0059,1.64,29.94,0.94,273.8,9.3,1.66
47645,51.4593,-2.758952,103,20.18,9,247.9,Dec-21,4764523,2019-08-16 14:08:38:303,-0.1932,0.0136,9.6389,-0.0018,-0.0005,9.8067,-0.0138,-0.008,0.0133,1.62,29.94,0.92,273.81,9.33,1.61
47646,51.4593,-2.758952,103,20.18,9,247.9,Dec-21,4764623,2019-08-16 14:08:38:403,-0.3181,-0.0094,10.2327,-0.0118,0.025,9.8066,-0.0138,-0.008,0.0133,1.62,29.94,0.92,273.81,9.33,1.61
47647,51.4593,-2.758952,103,20.18,9,247.9,Dec-21,4764723,2019-08-16 14:08:38:503,0.2442,-0.2844,9.8775,0.0042,0.0279,9.8066,-0.0128,-0.0144,-0.0187,1.64,29.94,0.94,273.8,9.48,1.67
47648,51.459236,-2.759213,101,20.33,9,248.8,Dec-20,4764822,2019-08-16 14:08:38:602,0.2848,0.1915,10.1329,0.0087,0.0173,9.8066,0.016,-0.0122,-0.0144,2.06,29.93,0.35,273.5,9.58,1.61
47649,51.459236,-2.759213,101,20.33,9,248.8,Dec-20,4764923,2019-08-16 14:08:38:703,-0.2975,0.2199,10.7276,-0.0147,-0.0075,9.8066,0.0213,0.0346,-0.024,2.06,29.93,0.35,273.5,9.58,1.61
47650,51.459236,-2.759213,101,20.33,9,248.8,Dec-20,4765024,2019-08-16 14:08:38:804,-0.5706,0.015,10.2951,-0.0054,-0.016,9.8066,-0.0288,0.0421,-0.0069,2.15,29.92,-0.16,273.48,9.54,1.7
47651,51.459236,-2.759213,101,20.33,9,248.8,Dec-20,4765126,2019-08-16 14:08:38:906,-0.2769,-0.2533,9.3214,-0.003,0.0097,9.8066,-0.0085,0.0208,-0.0091,2.61,29.88,0.35,275.35,9.6,1.72
47652,51.459236,-2.759213,101,20.33,9,248.8,Dec-20,4765223,2019-08-16 14:08:39:003,0.0567,-0.306,10.1083,-0.0007,0.0415,9.8066,0.0298,0.0048,-0.0187,2.7,29.88,-0.16,275.35,9.6,1.72
47653,51.459236,-2.759213,101,20.33,9,248.8,Dec-20,4765324,2019-08-16 14:08:39:104,-0.3948,-0.1713,10.5575,-0.0178,0.0153,9.8066,0.0298,0.0048,-0.0187,2.6,29.86,-1.35,275.02,9.84,1.7
47654,51.459236,-2.759213,101,20.33,9,248.8,Dec-20,4765423,2019-08-16 14:08:39:203,-0.1453,-0.5315,10.3709,-0.0428,-0.006,9.8066,0.0298,0.0038,-0.0016,2.6,29.86,-1.35,275.02,9.84,1.7
47655,51.459236,-2.759213,101,20.33,9,248.8,Dec-20,4765523,2019-08-16 14:08:39:303,-0.3504,0.1361,10.1934,-0.0315,-0.004,9.8066,0.0096,0.089,-0.0048,2.11,29.91,0.92,273.75,9.83,1.95
47656,51.459236,-2.759213,101,20.33,9,248.8,Dec-20,4765623,2019-08-16 14:08:39:403,-0.1318,0.3605,10.6735,-0.0383,0.0021,9.8066,0.0192,-0.0453,-0.0101,1.62,29.95,0.34,273.75,9.83,1.95
47657,51.459236,-2.759213,101,20.33,9,248.8,Dec-20,4765723,2019-08-16 14:08:39:503,-0.0438,-0.0524,9.7527,-0.0163,0.0152,9.8066,0.0096,-0.0367,0.0026,1.61,29.92,1.5,273.71,9.85,2.18
47658,51.459175,-2.759498,100,20.23,9,249.5,Dec-21,4765823,2019-08-16 14:08:39:603,-0.0505,0.3302,9.5555,-0.0244,0.0032,9.8066,-0.0128,0.0357,-0.0144,2.52,29.89,0.43,275.24,9.88,2.32
47659,51.459175,-2.759498,100,20.23,9,249.5,Dec-21,4765923,2019-08-16 14:08:39:703,-0.0735,-0.1205,9.9291,0.002,-0.0081,9.8066,-0.0202,0.0027,-0.0037,2.08,29.93,-0.15,275.24,9.88,2.32
47660,51.459175,-2.759498,100,20.23,9,249.5,Dec-21,4766023,2019-08-16 14:08:39:803,0.2091,-0.1107,10.0985,0.0017,0.0046,9.8067,0.0245,0.0091,-0.0069,2.61,29.89,-0.16,275.24,9.91,2.31
47661,51.459175,-2.759498,100,20.23,9,249.5,Dec-21,4766123,2019-08-16 14:08:39:903,-0.0676,0.2028,9.0448,0.0074,0.0134,9.8066,0.0245,0.0091,-0.0069,2.61,29.89,-0.16,275.24,9.91,2.31
47662,51.459175,-2.759498,100,20.23,9,249.5,Dec-21,4766223,2019-08-16 14:08:40:003,0.0531,-0.0246,9.5114,-0.0083,0.0138,9.8066,-0.0064,0.0346,-0.0101,2.61,29.88,0.44,275.24,9.98,2.26
47663,51.459175,-2.759498,100,20.23,9,249.5,Dec-21,4766323,2019-08-16 14:08:40:103,-0.2408,0.3446,9.6872,-0.0122,0.0183,9.8066,-0.0032,-0.0058,-0.0101,2.56,29.88,-0.74,274.9,10.09,2.32
47664,51.459175,-2.759498,100,20.23,9,249.5,Dec-21,4766423,2019-08-16 14:08:40:203,-0.1078,0.3904,9.9193,0.0199,-0.001,9.8066,-0.0011,-0.0261,-0.0197,2.56,29.88,-0.74,274.9,10.09,2.32
47665,51.459175,-2.759498,100,20.23,9,249.5,Dec-21,4766523,2019-08-16 14:08:40:303,-0.0308,-0.6468,9.4717,0.0049,-0.0144,9.8066,0.0,-0.0367,-0.0027,2.61,29.88,0.44,275.24,10.08,2.2
47666,51.459175,-2.759498,100,20.23,9,249.5,Dec-21,4766623,2019-08-16 14:08:40:403,-0.3506,0.2226,10.6725,0.0076,-0.0435,9.8066,0.0139,0.0751,-0.0133,2.15,29.92,-0.07,273.39,9.82,2.18
47667,51.459175,-2.759498,100,20.23,9,249.5,Dec-21,4766723,2019-08-16 14:08:40:503,0.2005,0.047,9.4872,-0.0079,-0.0105,9.8066,-0.0351,0.0091,-0.0219,2.15,29.92,-0.07,273.39,9.82,2.18
47668,51.459106,-2.759776,100,20.42,9,250.0,Dec-21,4766823,2019-08-16 14:08:40:603,-0.2051,0.1516,9.5798,0.0173,0.0296,9.8066,-0.033,-0.009,-0.008,2.14,29.88,1.61,274.02,9.76,2.23
47669,51.459106,-2.759776,100,20.42,9,250.0,Dec-21,4766923,2019-08-16 14:08:40:703,0.0726,-0.2405,9.0005,0.0486,0.0511,9.8064,-0.0096,-0.009,-0.0219,3.0,29.81,1.55,275.94,10.04,1.92
47670,51.459106,-2.759776,100,20.42,9,250.0,Dec-21,4767023,2019-08-16 14:08:40:803,0.1152,-0.4304,9.8729,0.0182,0.0083,9.8066,-0.0096,-0.009,-0.0219,3.0,29.81,1.55,275.94,10.04,1.92
47671,51.459106,-2.759776,100,20.42,9,250.0,Dec-21,4767123,2019-08-16 14:08:40:903,0.0604,-0.2219,10.3416,0.0071,0.0116,9.8066,0.0021,-0.0165,-0.0229,2.46,29.9,0.37,273.44,10.25,1.76
47672,51.459106,-2.759776,100,20.42,9,250.0,Dec-21,4767223,2019-08-16 14:08:41:003,0.1792,0.0004,9.4716,0.0064,0.0181,9.8066,0.0053,0.0677,-0.0197,3.1,29.84,-0.21,273.44,10.25,1.76
47673,51.459106,-2.759776,100,20.42,9,250.0,Dec-21,4767324,2019-08-16 14:08:41:104,0.4408,-1.1586,10.6855,0.011,-0.0187,9.8066,-0.0192,-0.0484,-0.0133,3.55,29.79,0.38,277.17,10.35,1.71
47674,51.459106,-2.759776,100,20.42,9,250.0,Dec-21,4767424,2019-08-16 14:08:41:204,-0.6775,-0.0646,9.2876,0.0057,-0.0321,9.8066,0.0511,0.0623,-0.0048,3.55,29.79,0.38,277.17,10.35,1.71
47675,51.459106,-2.759776,100,20.42,9,250.0,Dec-21,4767524,2019-08-16 14:08:41:304,-0.3168,-0.7716,11.1702,-0.0136,0.0052,9.8066,0.0277,0.0549,-0.0037,3.99,29.73,0.38,277.18,10.16,1.7
47676,51.459106,-2.759776,100,20.42,9,250.0,Dec-21,4767623,2019-08-16 14:08:41:403,-0.5755,-0.291,11.6392,-0.0289,-0.0232,9.8066,0.0096,0.0251,-0.0101,3.5,29.79,-0.2,275.31,10.2,1.78
47677,51.459106,-2.759776,100,20.42,9,250.0,Dec-21,4767723,2019-08-16 14:08:41:503,0.1919,0.0956,10.2811,-0.0323,-0.0801,9.8063,0.0096,0.0251,-0.0101,3.44,29.79,0.95,275.61,9.75,2.01
47678,51.45905,-2.760042,98,20.5,9,250.8,Dec-21,4767823,2019-08-16 14:08:41:603,0.323,-0.8127,9.1846,-0.0031,-0.0375,9.8066,0.0053,0.0549,0.0229,3.44,29.79,0.95,275.61,9.75,2.01
47679,51.45905,-2.760042,98,20.5,9,250.8,Dec-21,4767923,2019-08-16 14:08:41:703,-0.1432,0.5148,10.1916,-0.0391,-0.013,9.8066,0.0139,-0.0953,-0.0091,2.9,29.82,1.5,275.57,9.7,2.25
47680,51.45905,-2.760042,98,20.5,9,250.8,Dec-21,4768023,2019-08-16 14:08:41:803,-0.3323,-0.1739,9.0346,0.0045,0.1188,9.8059,-0.0415,-0.0847,-0.0155,3.86,29.71,1.49,275.57,9.7,2.25
47681,51.45905,-2.760042,98,20.5,9,250.8,Dec-21,4768123,2019-08-16 14:08:41:903,-0.2086,-0.0882,11.1754,0.0392,-0.0398,9.8065,0.0,0.0826,-0.025,4.33,29.68,0.45,277.09,10.39,2.16
47682,51.45905,-2.760042,98,20.5,9,250.8,Dec-21,4768223,2019-08-16 14:08:42:003,-0.2531,0.203,10.864,0.032,-0.1043,9.806,0.017,-0.0484,-0.0133,4.4,29.67,-0.12,277.09,10.39,2.16
47683,51.45905,-2.760042,98,20.5,9,250.8,Dec-21,4768323,2019-08-16 14:08:42:103,0.9615,-0.5752,9.4454,0.0361,-0.1091,9.806,0.0458,-0.0612,-0.0197,4.4,29.67,-0.12,277.09,10.39,2.16
47684,51.45905,-2.760042,98,20.5,9,250.8,Dec-21,4768424,2019-08-16 14:08:42:204,0.49,0.3828,8.6869,0.01,0.0322,9.8066,0.0298,-0.1177,-0.025,5.92,29.41,0.46,281.2,9.73,2.02
47685,51.45905,-2.760042,98,20.5,9,250.8,Dec-21,4768523,2019-08-16 14:08:42:303,0.2166,0.3646,8.6217,-0.0237,0.068,9.8064,0.0298,-0.1177,-0.025,6.21,29.35,-0.12,281.21,9.9,1.93
47686,51.45905,-2.760042,98,20.5,9,250.8,Dec-21,4768624,2019-08-16 14:08:42:404,-0.208,-0.1512,9.2081,-0.0509,0.088,9.8061,0.0224,-0.0016,-0.0091,7.13,29.14,-0.12,281.21,9.9,1.93
47687,51.45905,-2.760042,98,20.5,9,250.8,Dec-21,4768723,2019-08-16 14:08:42:503,-0.1502,-0.2435,10.6891,-0.0508,0.0624,9.8063,0.0213,0.04,-0.0048,7.12,29.09,-1.8,282.36,10.32,2.15
47688,51.45899,-2.760315,97,20.4,9,251.5,Dec-21,4768823,2019-08-16 14:08:42:603,-0.2814,-0.6898,11.1973,0.0028,-0.0754,9.8064,-0.0096,0.0453,0.0165,7.12,29.09,-1.8,282.36,10.32,2.15
47689,51.45899,-2.760315,97,20.4,9,251.5,Dec-21,4768923,2019-08-16 14:08:42:703,-0.3188,-0.0199,11.3003,-0.0099,-0.0877,9.8063,0.0075,0.0655,-0.0133,6.85,29.06,-2.93,282.1,9.88,2.23
47690,51.45899,-2.760315,97,20.4,9,251.5,Dec-21,4769023,2019-08-16 14:08:42:803,-0.0611,-0.3799,10.0931,-0.01,-0.1447,9.8056,-0.0192,-0.0175,-0.024,5.97,29.22,-3.21,282.1,9.88,2.23
47691,51.45899,-2.760315,97,20.4,9,251.5,Dec-21,4769123,2019-08-16 14:08:42:903,0.241,-0.1286,8.7286,0.0184,-0.0013,9.8066,0.0053,0.0016,-0.0069,4.72,29.42,-3.49,278.46,8.9,2.32
47692,51.45899,-2.760315,97,20.4,9,251.5,Dec-21,4769223,2019-08-16 14:08:43:003,0.1628,0.1066,8.2891,0.0003,0.0595,9.8065,0.0096,-0.0815,-0.0112,5.49,29.19,-4.22,278.46,8.9,2.32
47693,51.45899,-2.760315,97,20.4,9,251.5,Dec-21,4769323,2019-08-16 14:08:43:103,-0.1451,0.3987,8.6396,-0.0197,0.1805,9.805,0.0096,-0.0815,-0.0112,5.49,29.19,-4.22,278.46,8.9,2.32
47694,51.45899,-2.760315,97,20.4,9,251.5,Dec-21,4769423,2019-08-16 14:08:43:203,-0.0555,0.2462,8.8,0.0264,0.1178,9.8059,-0.0064,-0.1219,-0.0368,7.41,28.17,-7.17,281.21,9.96,2.28
47695,51.45899,-2.760315,97,20.4,9,251.5,Dec-21,4769523,2019-08-16 14:08:43:303,0.1561,-0.1051,8.7175,0.0562,0.146,9.8054,-0.0245,-0.0058,-0.0155,3.48,28.36,-9.15,272.29,10.74,1.78
47696,51.45899,-2.760315,97,20.4,9,251.5,Dec-21,4769623,2019-08-16 14:08:43:403,0.1629,0.4062,11.1638,0.0156,-0.0532,9.8065,0.0128,0.106,-0.0069,0.1,29.36,-6.16,267.53,10.42,1.7
47697,51.45899,-2.760315,97,20.4,9,251.5,Dec-21,4769723,2019-08-16 14:08:43:503,0.2414,-0.437,10.8484,-0.0175,-0.0375,9.8066,0.0277,-0.0452,0.0005,0.1,29.36,-6.16,267.53,10.42,1.7
47698,51.458927,-2.760606,96,20.61,9,252.0,Dec-21,4769823,2019-08-16 14:08:43:603,0.0549,0.0363,11.3925,-0.0153,-0.0667,9.8064,-0.0149,-0.0218,0.0058,-1.04,29.87,-2.59,266.8,10.03,1.78
47699,51.458927,-2.760606,96,20.61,9,252.0,Dec-21,4769924,2019-08-16 14:08:43:704,0.1455,-0.5633,10.5185,-0.0125,-0.0877,9.8063,0.0224,0.0485,0.0058,-0.46,29.93,-1.95,266.8,10.03,1.78
47700,51.458927,-2.760606,96,20.61,9,252.0,Dec-21,4770023,2019-08-16 14:08:43:803,-0.0549,-0.289,6.5766,-0.0253,-0.1525,9.8054,-0.0106,-0.0964,0.0026,0.08,30.0,-0.13,269.7,9.13,1.88
47701,51.458927,-2.760606,96,20.61,9,252.0,Dec-21,4770123,2019-08-16 14:08:43:903,0.1108,-0.0079,8.8656,-0.0273,0.034,9.8066,0.0458,-0.1337,-0.0282,0.08,30.0,-0.13,269.7,9.13,1.88
47702,51.458927,-2.760606,96,20.61,9,252.0,Dec-21,4770223,2019-08-16 14:08:44:003,0.1972,0.6991,8.3879,-0.0028,0.1257,9.8058,0.0458,-0.1337,-0.0282,1.13,29.98,0.48,271.55,9.33,2.04
47703,51.458927,-2.760606,96,20.61,9,252.0,Dec-21,4770323,2019-08-16 14:08:44:103,-0.2104,0.4428,9.0159,-0.005,0.0763,9.8064,0.0213,-0.0793,-0.0336,1.62,29.94,0.98,273.73,10.06,2.03
47704,51.458927,-2.760606,96,20.61,9,252.0,Dec-21,4770424,2019-08-16 14:08:44:204,-0.2222,-0.009,10.1661,-0.0179,0.1078,9.806,-0.0021,0.0038,-0.0144,1.62,29.94,0.98,273.73,10.06,2.03
47705,51.458927,-2.760606,96,20.61,9,252.0,Dec-21,4770523,2019-08-16 14:08:44:303,-0.1149,0.1386,10.2276,-0.0213,0.0204,9.8066,0.0192,0.0197,-0.0091,3.0,29.84,-0.62,274.88,10.7,2.1
47706,51.458927,-2.760606,96,20.61,9,252.0,Dec-21,4770623,2019-08-16 14:08:44:403,0.0054,-0.3313,9.6766,-0.0126,-0.0431,9.8065,-0.0032,0.0528,-0.0197,4.12,29.71,0.48,277.08,10.45,2.2
47707,51.458927,-2.760606,96,20.61,9,252.0,Dec-21,4770723,2019-08-16 14:08:44:503,0.0844,-0.3968,10.9524,0.0252,-0.0898,9.8062,-0.0064,0.0858,-0.0027,4.12,29.71,0.48,277.08,10.45,2.2
47708,51.458874,-2.760885,96,20.7,9,252.7,Dec-21,4770823,2019-08-16 14:08:44:603,0.067,0.061,9.2837,0.0064,-0.0445,9.8065,-0.0245,-0.0239,0.009,3.0,29.85,0.46,275.27,9.92,2.11
47709,51.458874,-2.760885,96,20.7,9,252.7,Dec-21,4770923,2019-08-16 14:08:44:703,-0.1142,0.2047,9.117,-0.0074,-0.0581,9.8065,-0.0064,-0.0484,-0.008,3.55,29.79,-0.12,277.14,9.58,2.19
47710,51.458874,-2.760885,96,20.7,9,252.7,Dec-21,4771023,2019-08-16 14:08:44:803,-0.1445,0.0788,9.3137,-0.0033,0.0294,9.8066,-0.0064,-0.0484,-0.008,3.55,29.79,-0.12,277.14,9.58,2.19
47711,51.458874,-2.760885,96,20.7,9,252.7,Dec-21,4771123,2019-08-16 14:08:44:903,-0.1141,0.3259,9.6535,0.0097,0.0517,9.8065,-0.0245,-0.0378,-0.0101,3.38,29.81,-0.12,275.27,9.75,2.19
47712,51.458874,-2.760885,96,20.7,9,252.7,Dec-21,4771224,2019-08-16 14:08:45:004,-0.0114,0.1634,9.3546,0.0113,0.0884,9.8062,-0.0085,-0.0506,-0.0059,3.49,29.76,1.54,275.27,9.75,2.19
47713,51.458874,-2.760885,96,20.7,9,252.7,Dec-21,4771324,2019-08-16 14:08:45:104,0.1412,0.0925,9.1439,0.0225,-0.0249,9.8066,0.0043,0.0176,-0.0176,4.4,29.64,1.51,277.77,10.47,2.07
47714,51.458874,-2.760885,96,20.7,9,252.7,Dec-21,4771425,2019-08-16 14:08:45:205,-0.1311,-0.2689,9.9749,0.0161,-0.0379,9.8066,-0.017,0.0485,-0.0059,3.99,29.72,1.04,277.46,10.31,1.95
47715,51.458874,-2.760885,96,20.7,9,252.7,Dec-21,4771524,2019-08-16 14:08:45:304,0.0992,0.0079,10.2817,-0.0047,-0.0654,9.8064,0.0181,0.0027,-0.0037,3.99,29.72,1.04,277.46,10.31,1.95
47716,51.458874,-2.760885,96,20.7,9,252.7,Dec-21,4771623,2019-08-16 14:08:45:403,0.11,-0.0517,9.4415,-0.0217,-0.0214,9.8066,0.0096,-0.0293,0.008,3.5,29.79,-0.62,274.96,9.94,2.03
47717,51.458874,-2.760885,96,20.7,9,252.7,Dec-21,4771723,2019-08-16 14:08:45:503,-0.5072,0.2593,9.6337,-0.0453,-0.0236,9.8065,0.0096,-0.0293,0.008,4.48,29.66,-0.04,277.1,9.82,2.31
47718,51.45881,-2.761182,97,20.94,9,253.0,Dec-21,4771823,2019-08-16 14:08:45:603,-0.2178,0.0903,10.0612,-0.0328,0.0246,9.8066,0.0256,-0.0527,-0.0165,3.99,29.72,1.04,277.1,9.82,2.31
47719,51.45881,-2.761182,97,20.94,9,253.0,Dec-21,4771924,2019-08-16 14:08:45:704,0.0077,0.0887,9.4487,-0.0531,0.056,9.8063,-0.0245,-0.0133,-0.0059,4.63,29.64,0.56,279.2,10.19,2.58
47720,51.45881,-2.761182,97,20.94,9,253.0,Dec-21,4772023,2019-08-16 14:08:45:803,-0.3684,0.1718,10.5596,-0.0034,0.0189,9.8066,-0.0288,0.0219,0.0069,4.63,29.64,0.56,279.2,10.19,2.58
47721,51.45881,-2.761182,97,20.94,9,253.0,Dec-21,4772123,2019-08-16 14:08:45:903,-0.116,0.4241,10.9457,0.0169,-0.0387,9.8066,-0.017,0.0464,0.0048,3.99,29.73,0.54,277.35,10.21,2.62
47722,51.45881,-2.761182,97,20.94,9,253.0,Dec-21,4772223,2019-08-16 14:08:46:003,-0.0567,0.087,10.1079,0.0104,-0.058,9.8065,-0.0362,0.0592,0.0037,3.44,29.78,1.03,275.51,9.97,2.55
47723,51.45881,-2.761182,97,20.94,9,253.0,Dec-21,4772323,2019-08-16 14:08:46:103,-0.4138,-0.0239,8.2831,0.0299,-0.0867,9.8062,-0.0554,-0.0357,0.0005,4.05,29.71,1.06,277.41,9.45,2.42
47724,51.45881,-2.761182,97,20.94,9,253.0,Dec-21,4772423,2019-08-16 14:08:46:203,-0.2357,-0.0907,11.4905,0.0306,0.0178,9.8066,-0.0554,-0.0357,0.0005,4.05,29.71,1.06,277.41,9.45,2.42
47725,51.45881,-2.761182,97,20.94,9,253.0,Dec-21,4772522,2019-08-16 14:08:46:302,0.4017,0.4512,6.906,0.0134,0.0462,9.8065,-0.0234,0.057,-0.0208,4.62,29.62,1.07,279.28,9.53,2.23
47726,51.45881,-2.761182,97,20.94,9,253.0,Dec-21,4772623,2019-08-16 14:08:46:403,0.6346,-0.632,8.7523,0.0213,0.0746,9.8063,-0.0383,-0.0708,-0.0016,4.63,29.64,-0.04,278.99,9.94,2.03
47727,51.45881,-2.761182,97,20.94,9,253.0,Dec-21,4772723,2019-08-16 14:08:46:503,0.1762,-0.0936,9.318,-0.029,0.0383,9.8065,0.0032,0.024,0.0058,4.63,29.64,-0.04,278.99,9.94,2.03
47728,51.458755,-2.761483,96,21.24,10,253.0,Dec-21,4772823,2019-08-16 14:08:46:603,0.0558,0.4362,10.5935,0.0019,0.0199,9.8066,-0.0202,0.0293,-0.0027,4.62,29.62,-1.15,278.63,10.19,2.17
47729,51.458755,-2.761483,96,21.24,10,253.0,Dec-21,4772923,2019-08-16 14:08:46:703,-0.028,0.284,11.1372,-0.006,0.0156,9.8066,-0.0138,0.0357,-0.0112,5.13,29.55,0.56,279.26,10.29,2.19
47730,51.458755,-2.761483,96,21.24,10,253.0,Dec-21,4773022,2019-08-16 14:08:46:802,-0.1094,-0.597,9.7519,0.0514,-0.1698,9.805,-0.0075,0.1231,-0.0208,4.71,29.62,0.57,279.26,10.29,2.19
47731,51.458755,-2.761483,96,21.24,10,253.0,Dec-21,4773122,2019-08-16 14:08:46:902,-0.2403,0.5635,9.4828,0.0029,0.004,9.8067,-0.0075,0.1231,-0.0208,4.12,29.71,-0.64,276.88,9.26,2.05
47732,51.458755,-2.761483,96,21.24,10,253.0,Dec-21,4773223,2019-08-16 14:08:47:003,0.0699,-0.3601,9.5499,-0.0179,0.0431,9.8065,-0.0138,0.0091,-0.0133,4.12,29.71,-0.64,276.88,9.26,2.05
47733,51.458755,-2.761483,96,21.24,10,253.0,Dec-21,4773323,2019-08-16 14:08:47:103,0.2085,0.8336,8.404,-0.016,0.085,9.8063,0.0341,-0.0282,-0.0144,3.5,29.79,-0.62,274.98,9.52,2.13
47734,51.458755,-2.761483,96,21.24,10,253.0,Dec-21,4773423,2019-08-16 14:08:47:203,-0.0828,0.2997,9.6778,0.0023,0.0597,9.8065,-0.0245,-0.0815,-0.0016,4.05,29.72,-0.04,277.11,10.03,2.18
47735,51.458755,-2.761483,96,21.24,10,253.0,Dec-21,4773522,2019-08-16 14:08:47:302,-0.3143,0.344,10.2158,0.0061,0.118,9.8059,0.0181,-0.009,-0.0144,4.12,29.7,1.08,277.43,10.7,2.05
47736,51.458755,-2.761483,96,21.24,10,253.0,Dec-21,4773623,2019-08-16 14:08:47:403,0.1305,-0.0298,10.614,-0.0055,-0.0178,9.8066,-0.0075,0.041,-0.0091,4.12,29.7,1.08,277.43,10.7,2.05
47737,51.458755,-2.761483,96,21.24,10,253.0,Dec-21,4773722,2019-08-16 14:08:47:502,-0.056,0.1407,10.2891,0.0116,-0.036,9.8066,-0.0373,0.0229,0.0112,4.63,29.64,-0.04,278.93,10.61,2.1
47738,51.45869,-2.761757,97,21.07,10,252.9,Dec-21,4773823,2019-08-16 14:08:47:603,-0.062,-0.2401,9.7738,0.0352,-0.0402,9.8065,-0.0043,0.0283,0.0176,4.05,29.72,-0.63,276.81,10.34,1.93
47739,51.45869,-2.761757,97,21.07,10,252.9,Dec-21,4773923,2019-08-16 14:08:47:703,-0.034,0.2053,10.4415,-0.0046,0.008,9.8066,-0.0458,0.0709,-0.0091,4.63,29.64,-0.04,278.97,10.29,2.0
47740,51.45869,-2.761757,97,21.07,10,252.9,Dec-21,4774023,2019-08-16 14:08:47:803,0.3839,0.0929,8.7048,0.0193,0.0106,9.8066,-0.0458,0.0709,-0.0091,4.63,29.64,-0.04,278.97,10.29,2.0
47741,51.45869,-2.761757,97,21.07,10,252.9,Dec-21,4774123,2019-08-16 14:08:47:903,0.0846,-0.4565,9.6149,-0.0128,0.0126,9.8066,0.0107,0.0016,-0.0123,5.2,29.54,-0.65,278.66,10.33,1.88
47742,51.45869,-2.761757,97,21.07,10,252.9,Dec-21,4774223,2019-08-16 14:08:48:003,-0.4296,0.3631,9.2817,-0.0446,0.0387,9.8065,0.0352,0.0059,0.0133,5.29,29.53,-0.04,278.97,10.42,1.94
47743,51.45869,-2.761757,97,21.07,10,252.9,Dec-21,4774323,2019-08-16 14:08:48:103,-0.3155,0.2052,10.18,-0.0629,0.057,9.8063,0.0011,-0.0058,0.0165,5.2,29.54,-0.56,278.55,10.8,2.26
47744,51.45869,-2.761757,97,21.07,10,252.9,Dec-21,4774423,2019-08-16 14:08:48:203,-0.4393,0.155,11.0965,-0.0144,-0.002,9.8066,-0.0426,0.0027,0.0229,5.2,29.54,-0.56,278.55,10.8,2.26
47745,51.45869,-2.761757,97,21.07,10,252.9,Dec-21,4774523,2019-08-16 14:08:48:303,-0.1393,-0.0822,10.2862,-0.0178,-0.0281,9.8066,0.0149,-0.025,0.0037,4.05,29.72,-0.55,276.7,10.66,2.39
47746,51.45869,-2.761757,97,21.07,10,252.9,Dec-21,4774623,2019-08-16 14:08:48:403,-0.1385,-0.2346,9.6093,-0.0188,-0.0017,9.8066,0.0032,-0.0154,0.0058,3.62,29.78,0.56,277.35,10.66,2.5
47747,51.45869,-2.761757,97,21.07,10,252.9,Dec-21,4774723,2019-08-16 14:08:48:503,-0.1693,-0.5438,9.7708,-0.008,-0.0007,9.8066,0.0075,-0.0239,-0.0144,3.62,29.78,0.56,277.35,10.66,2.5
47748,51.458633,-2.76205,97,21.29,10,252.6,Dec-21,4774823,2019-08-16 14:08:48:603,-0.4074,0.0883,10.1693,-0.0127,0.0451,9.8065,0.0075,-0.0239,-0.0144,4.12,29.71,0.56,277.35,10.66,2.55
47749,51.458633,-2.76205,97,21.29,10,252.6,Dec-21,4774923,2019-08-16 14:08:48:703,-0.0216,-0.267,9.7255,-0.0051,0.0097,9.8066,-0.0256,-0.008,0.0218,4.12,29.71,0.56,277.33,10.93,2.59
47750,51.458633,-2.76205,97,21.29,10,252.6,Dec-21,4775023,2019-08-16 14:08:48:803,-0.1448,0.0735,10.8696,-0.009,0.0172,9.8066,-0.0011,0.0315,0.0144,4.12,29.71,0.56,277.33,10.93,2.59
47751,51.458633,-2.76205,97,21.29,10,252.6,Dec-21,4775123,2019-08-16 14:08:48:903,0.1617,0.3726,10.7686,-0.0085,0.0044,9.8066,0.0032,-0.0644,0.0271,4.18,29.7,-0.65,276.62,11.04,2.63
47752,51.458633,-2.76205,97,21.29,10,252.6,Dec-21,4775223,2019-08-16 14:08:49:003,0.0269,0.4988,9.2536,-0.0119,-0.0026,9.8066,-0.0128,0.0325,0.0112,4.18,29.68,-1.17,276.61,11.03,2.7
47753,51.458633,-2.76205,97,21.29,10,252.6,Dec-21,4775323,2019-08-16 14:08:49:103,0.1666,0.3707,9.6158,-0.0166,-0.0119,9.8066,0.0277,0.0389,0.008,4.18,29.68,-1.17,276.61,11.03,2.7
47754,51.458633,-2.76205,97,21.29,10,252.6,Dec-21,4775423,2019-08-16 14:08:49:203,-0.2199,-0.1339,8.8971,-0.0228,-0.0012,9.8066,0.0192,0.0187,-0.0101,4.26,29.7,-0.04,276.94,10.97,2.81
47755,51.458633,-2.76205,97,21.29,10,252.6,Dec-21,4775523,2019-08-16 14:08:49:303,-0.4628,-0.2393,10.152,-0.0397,0.0106,9.8066,0.0021,-0.0325,-0.008,4.69,29.62,-0.65,278.39,11.06,3.03
47756,51.458633,-2.76205,97,21.29,10,252.6,Dec-21,4775623,2019-08-16 14:08:49:403,-0.1491,-0.3834,10.1774,-0.0026,0.0314,9.8066,0.0021,-0.0325,-0.008,4.69,29.62,-0.65,278.39,11.06,3.03
47757,51.458633,-2.76205,97,21.29,10,252.6,Dec-21,4775723,2019-08-16 14:08:49:503,0.038,-0.3246,9.6456,0.0039,-0.0085,9.8066,-0.0192,0.0048,0.0005,4.63,29.63,-0.64,278.37,11.34,2.99
47758,51.458576,-2.762347,97,21.35,10,252.1,Dec-21,4775823,2019-08-16 14:08:49:603,0.1374,-0.2253,10.6822,0.0013,0.0203,9.8066,0.0053,-0.0847,0.008,3.62,29.78,-0.04,276.89,11.29,2.97
47759,51.458576,-2.762347,97,21.35,10,252.1,Dec-21,4775923,2019-08-16 14:08:49:703,0.0982,0.3733,10.2676,-0.0046,-0.007,9.8066,0.0043,-0.0303,0.0112,3.62,29.78,-0.04,276.89,11.29,2.97
47760,51.458576,-2.762347,97,21.35,10,252.1,Dec-21,4776023,2019-08-16 14:08:49:803,-0.2266,-0.0977,11.0166,-0.0136,-0.0105,9.8066,-0.0106,0.0634,-0.0048,3.62,29.78,0.56,277.24,11.25,3.0
47761,51.458576,-2.762347,97,21.35,10,252.1,Dec-21,4776123,2019-08-16 14:08:49:903,-0.229,-0.0808,9.4333,0.0004,0.0057,9.8066,-0.017,-0.0431,0.0016,3.1,29.83,0.56,275.37,11.2,3.09
47762,51.458576,-2.762347,97,21.35,10,252.1,Dec-21,4776223,2019-08-16 14:08:50:003,0.2338,-0.7576,9.1182,0.0147,-0.0113,9.8066,-0.0149,0.007,0.008,3.55,29.78,-0.55,276.54,11.12,3.01
47763,51.458576,-2.762347,97,21.35,10,252.1,Dec-21,4776323,2019-08-16 14:08:50:103,0.0129,0.6145,9.2843,0.0079,-0.01,9.8066,0.0021,-0.0335,0.0101,3.55,29.78,-0.55,276.54,11.12,3.01
47764,51.458576,-2.762347,97,21.35,10,252.1,Dec-21,4776423,2019-08-16 14:08:50:203,0.317,0.1161,9.5239,-0.0137,0.0688,9.8064,0.0021,-0.0335,0.0101,4.77,29.61,-0.57,278.33,11.53,3.04
47765,51.458576,-2.762347,97,21.35,10,252.1,Dec-21,4776523,2019-08-16 14:08:50:303,-0.3596,-0.2531,9.5638,0.002,0.0307,9.8066,0.0234,0.0144,-0.0091,4.77,29.61,-0.57,278.33,11.53,3.04
47766,51.458576,-2.762347,97,21.35,10,252.1,Dec-21,4776624,2019-08-16 14:08:50:404,0.0209,-0.3062,10.3305,0.0189,-0.0171,9.8066,-0.0181,0.04,0.009,4.86,29.6,0.59,279.05,11.71,3.01
47767,51.458576,-2.762347,97,21.35,10,252.1,Dec-21,4776723,2019-08-16 14:08:50:503,0.2605,-0.0425,10.1285,-0.0076,-0.0217,9.8066,0.0096,0.0346,0.0112,4.95,29.58,-0.59,278.39,11.26,2.89
47768,51.458527,-2.762625,94,21.22,10,251.8,Dec-21,4776825,2019-08-16 14:08:50:605,-0.2365,-0.4108,9.7707,-0.0119,-0.018,9.8066,-0.0032,0.008,0.0058,4.95,29.58,-0.59,278.39,11.26,2.89
47769,51.458527,-2.762625,94,21.22,10,251.8,Dec-21,4776923,2019-08-16 14:08:50:703,-0.203,-0.01,9.4056,0.0036,0.0114,9.8066,-0.0298,-0.0005,0.0048,4.25,29.67,-1.19,276.54,11.17,2.97
47770,51.458527,-2.762625,94,21.22,10,251.8,Dec-21,4777023,2019-08-16 14:08:50:803,-0.1992,-0.3146,9.2698,0.0125,0.0075,9.8066,-0.0181,0.0485,0.0197,4.12,29.71,-0.55,276.54,11.17,2.97
47771,51.458527,-2.762625,94,21.22,10,251.8,Dec-21,4777123,2019-08-16 14:08:50:903,0.0562,0.2124,9.6227,-0.0009,0.0203,9.8066,-0.0245,-0.0687,0.009,3.62,29.78,-0.56,276.55,11.21,2.89
47772,51.458527,-2.762625,94,21.22,10,251.8,Dec-21,4777223,2019-08-16 14:08:51:003,-0.279,0.0411,10.6122,0.0014,0.048,9.8065,0.0043,0.0346,0.0133,4.18,29.7,0.57,277.26,11.48,2.85
47773,51.458527,-2.762625,94,21.22,10,251.8,Dec-21,4777323,2019-08-16 14:08:51:103,0.2448,0.4743,10.0397,-0.0003,-0.0069,9.8066,0.0043,0.0346,0.0133,4.18,29.7,0.57,277.26,11.48,2.85
47774,51.458527,-2.762625,94,21.22,10,251.8,Dec-21,4777423,2019-08-16 14:08:51:203,0.1216,0.5362,9.582,0.0056,-0.0297,9.8066,0.0032,0.0506,-0.0123,3.15,29.81,1.19,275.41,11.44,2.86
47775,51.458527,-2.762625,94,21.22,10,251.8,Dec-21,4777523,2019-08-16 14:08:51:303,0.1194,-0.059,9.4254,0.0107,-0.0389,9.8066,-0.0266,-0.0058,0.0218,3.15,29.83,-0.56,274.7,11.21,2.82
47776,51.458527,-2.762625,94,21.22,10,251.8,Dec-21,4777623,2019-08-16 14:08:51:403,-0.0906,-0.3214,9.8496,0.0103,-0.0038,9.8066,-0.017,-0.009,0.008,3.26,29.82,-0.59,274.72,11.18,2.76
47777,51.458527,-2.762625,94,21.22,10,251.8,Dec-21,4777723,2019-08-16 14:08:51:503,-0.0447,-0.008,9.2794,-0.0005,-0.0146,9.8066,0.0,0.0048,0.024,3.26,29.82,-0.59,274.72,11.18,2.76
47778,51.458477,-2.76296,91,21.21,10,251.3,Dec-21,4777823,2019-08-16 14:08:51:603,0.1475,-0.2079,10.725,-0.0102,0.0282,9.8066,0.0181,-0.0442,0.0058,3.87,29.74,-0.59,276.59,11.1,2.77
47779,51.458477,-2.76296,91,21.21,10,251.3,Dec-21,4777923,2019-08-16 14:08:51:703,-0.0371,-0.0419,8.8698,-0.0135,0.0458,9.8065,-0.0043,0.0314,-0.0069,4.33,29.68,-0.58,276.59,11.1,2.77
47780,51.458477,-2.76296,91,21.21,10,251.3,Dec-21,4778023,2019-08-16 14:08:51:803,-0.2511,-0.4044,10.445,-0.0134,0.0486,9.8065,-0.0277,0.0112,0.0208,3.73,29.76,-0.57,276.55,11.39,2.82
47781,51.458477,-2.76296,91,21.21,10,251.3,Dec-21,4778123,2019-08-16 14:08:51:903,0.2638,-0.4461,10.1562,0.0088,-0.0191,9.8066,-0.0277,0.0112,0.0208,3.2,29.8,-1.2,276.55,11.39,2.82
47782,51.458477,-2.76296,91,21.21,10,251.3,Dec-21,4778223,2019-08-16 14:08:52:003,0.4784,-0.4038,9.3843,0.0105,-0.0327,9.8066,0.0128,-0.0122,0.0144,2.68,29.87,-0.58,274.71,11.19,2.78
47783,51.458477,-2.76296,91,21.21,10,251.3,Dec-21,4778323,2019-08-16 14:08:52:103,0.3446,0.0645,10.3272,-0.0083,0.0205,9.8066,-0.0106,-0.0815,0.0122,2.68,29.87,-0.58,274.71,11.19,2.78
47784,51.458477,-2.76296,91,21.21,10,251.3,Dec-21,4778423,2019-08-16 14:08:52:203,0.2533,-0.158,9.6987,-0.0101,0.0126,9.8066,0.0107,0.0027,0.0186,2.23,29.91,0.58,273.56,11.27,2.83
47785,51.458477,-2.76296,91,21.21,10,251.3,Dec-21,4778523,2019-08-16 14:08:52:303,-0.1821,0.1765,10.0329,0.003,0.0203,9.8066,-0.017,0.0144,0.008,2.23,29.91,0.58,273.56,11.27,2.83
47786,51.458477,-2.76296,91,21.21,10,251.3,Dec-21,4778623,2019-08-16 14:08:52:403,-0.251,-0.2422,9.725,0.017,0.0169,9.8066,-0.0149,0.0325,-0.008,2.72,29.88,-0.04,275.06,11.39,2.8
47787,51.458477,-2.76296,91,21.21,10,251.3,Dec-21,4778723,2019-08-16 14:08:52:503,-0.0784,0.2034,9.8216,0.0277,0.0136,9.8066,-0.0011,0.0027,0.0208,3.26,29.82,-0.04,275.08,11.45,2.63
47788,51.458416,-2.763247,91,20.54,10,250.4,Nov-20,4778823,2019-08-16 14:08:52:603,0.5108,0.0186,10.8179,0.0313,-0.0248,9.8066,0.0171,0.0517,0.0271,3.26,29.82,-0.04,275.08,11.45,2.63
47789,51.458416,-2.763247,91,20.54,10,250.4,Nov-20,4778923,2019-08-16 14:08:52:703,-0.1015,-0.0894,9.6838,-0.0115,0.0015,9.8066,0.0171,0.0517,0.0271,3.32,29.76,-1.89,274.4,11.29,2.46
47790,51.458416,-2.763247,91,20.54,10,250.4,Nov-20,4779025,2019-08-16 14:08:52:805,-0.2832,-0.2004,10.9309,0.007,-0.0035,9.8066,-0.0277,-0.008,0.0112,3.94,29.73,-0.61,276.61,11.31,2.53
47791,51.458416,-2.763247,91,20.54,10,250.4,Nov-20,4779123,2019-08-16 14:08:52:903,0.1695,0.1752,10.036,0.0196,0.0023,9.8066,-0.0213,0.0027,0.0186,3.94,29.73,-0.61,276.61,11.31,2.53
47792,51.458416,-2.763247,91,20.54,10,250.4,Nov-20,4779223,2019-08-16 14:08:53:003,0.5332,-0.1797,9.9525,0.0352,0.0081,9.8066,-0.0032,0.0219,0.0016,3.38,29.8,-0.61,274.77,11.31,2.41
47793,51.458416,-2.763247,91,20.54,10,250.4,Nov-20,4779323,2019-08-16 14:08:53:103,0.0262,-0.1788,10.3029,0.052,0.0003,9.8065,-0.0032,0.0176,0.0261,2.82,29.81,-1.92,274.47,11.28,2.1
47794,51.458416,-2.763247,91,20.54,10,250.4,Nov-20,4779423,2019-08-16 14:08:53:203,0.5013,0.1718,10.0135,-0.0063,-0.0041,9.8066,-0.0106,-0.0399,0.0165,2.82,29.81,-1.92,274.47,11.28,2.1
47795,51.458416,-2.763247,91,20.54,10,250.4,Nov-20,4779523,2019-08-16 14:08:53:303,-0.1547,0.2388,9.6967,0.0096,-0.0008,9.8066,-0.0011,0.0133,0.0293,2.35,29.85,-1.83,272.59,11.26,2.14
47796,51.458416,-2.763247,91,20.54,10,250.4,Nov-20,4779623,2019-08-16 14:08:53:403,-0.1483,-0.2769,10.221,0.0203,-0.0105,9.8066,0.0107,0.0346,0.0016,1.76,29.92,-1.25,272.99,11.2,2.02
47797,51.458416,-2.763247,91,20.54,10,250.4,Nov-20,4779723,2019-08-16 14:08:53:503,-0.0189,0.1925,10.2267,-0.0063,-0.0068,9.8066,0.0107,0.0346,0.0016,2.36,29.9,-0.61,272.99,11.2,2.02
47798,51.45835,-2.763516,92,20.32,9,249.4,Nov-21,4779823,2019-08-16 14:08:53:603,-0.2809,-0.2849,10.2125,-0.0151,-0.0071,9.8066,0.0053,0.0016,0.0208,2.36,29.9,-0.61,272.99,11.2,2.02
47799,51.45835,-2.763516,92,20.32,9,249.4,Nov-21,4779924,2019-08-16 14:08:53:704,0.0983,-0.2305,9.2851,-0.0103,-0.0065,9.8066,0.0192,0.0123,0.0005,2.36,29.88,-1.27,272.97,11.16,2.11
47800,51.45835,-2.763516,92,20.32,9,249.4,Nov-21,4780023,2019-08-16 14:08:53:803,-0.1349,-0.3889,10.2577,-0.0111,0.0016,9.8066,-0.0351,-0.0623,0.0197,1.21,29.97,-0.6,272.97,11.16,2.11
47801,51.45835,-2.763516,92,20.32,9,249.4,Nov-21,4780124,2019-08-16 14:08:53:904,0.025,0.1521,9.5101,-0.0068,0.023,9.8066,-0.0032,0.0069,0.0165,1.79,29.92,-1.27,272.96,11.17,2.18
47802,51.45835,-2.763516,92,20.32,9,249.4,Nov-21,4780224,2019-08-16 14:08:54:004,-0.1169,-0.5382,9.9678,0.003,0.0347,9.8066,-0.0064,-0.0026,0.0293,-1.81,29.94,0.7,266.22,11.37,2.15
47803,51.45835,-2.763516,92,20.32,9,249.4,Nov-21,4780324,2019-08-16 14:08:54:104,0.1124,0.3515,9.9376,-0.0042,-0.0011,9.8067,-0.016,0.0453,0.0208,-1.81,29.94,0.7,266.22,11.37,2.15
47804,51.45835,-2.763516,92,20.32,9,249.4,Nov-21,4780423,2019-08-16 14:08:54:203,-0.0606,-0.3053,9.9302,0.0084,-0.0104,9.8066,-0.0021,0.0538,0.0133,6.93,29.09,2.37,283.64,11.32,2.1
47805,51.45835,-2.763516,92,20.32,9,249.4,Nov-21,4780523,2019-08-16 14:08:54:303,-0.1494,0.0791,9.9107,-0.0061,-0.0045,9.8066,-0.0021,0.0538,0.0133,5.03,29.54,-1.41,283.64,11.32,2.1
47806,51.45835,-2.763516,92,20.32,9,249.4,Nov-21,4780622,2019-08-16 14:08:54:402,-0.1368,-0.064,10.2026,-0.0112,-0.022,9.8066,0.0021,0.0059,0.0112,3.51,29.73,-1.9,276.32,11.21,2.19
47807,51.45835,-2.763516,92,20.32,9,249.4,Nov-21,4780722,2019-08-16 14:08:54:502,0.0444,-0.0552,9.5329,-0.0018,-0.0138,9.8066,0.0181,0.09,0.0154,2.36,29.91,0.05,276.32,11.21,2.19
47808,51.458286,-2.763787,91,20.07,9,248.4,13 / 21,4780823,2019-08-16 14:08:54:603,-0.2335,-0.4105,10.1818,-0.0037,-0.0051,9.8066,-0.0341,-0.0431,0.0048,2.36,29.91,0.05,276.32,11.21,2.19
47809,51.458286,-2.763787,91,20.07,9,248.4,13 / 21,4780923,2019-08-16 14:08:54:703,-0.381,-0.2782,9.1569,-0.0054,0.0098,9.8066,0.0096,0.0208,0.0165,2.31,29.9,0.61,273.68,11.18,2.22
47810,51.458286,-2.763787,91,20.07,9,248.4,13 / 21,4781023,2019-08-16 14:08:54:803,0.1786,0.2074,9.6059,0.0057,-0.001,9.8066,-0.0064,0.0165,0.0037,1.83,29.94,0.05,273.31,11.24,2.25
47811,51.458286,-2.763787,91,20.07,9,248.4,13 / 21,4781123,2019-08-16 14:08:54:903,-0.1777,0.2598,10.1042,0.0005,0.0164,9.8066,-0.0394,0.0464,0.0303,1.2,29.95,1.26,271.81,11.33,2.24
47812,51.458286,-2.763787,91,20.07,9,248.4,13 / 21,4781223,2019-08-16 14:08:55:003,0.331,0.4668,9.835,0.0259,0.0035,9.8066,-0.0394,0.0464,0.0303,1.2,29.95,1.26,271.81,11.33,2.24
47813,51.458286,-2.763787,91,20.07,9,248.4,13 / 21,4781323,2019-08-16 14:08:55:103,-0.0358,-0.4333,10.9288,0.0051,-0.012,9.8066,-0.0192,0.008,0.0112,1.76,29.95,0.05,273.33,11.35,2.08
47814,51.458286,-2.763787,91,20.07,9,248.4,13 / 21,4781423,2019-08-16 14:08:55:203,-0.2035,-0.0035,9.5092,0.0069,-0.0468,9.8065,-0.0138,0.0464,0.0208,1.23,29.91,-1.93,273.33,11.35,2.08
47815,51.458286,-2.763787,91,20.07,9,248.4,13 / 21,4781523,2019-08-16 14:08:55:303,0.506,0.5436,9.2426,0.0125,-0.0664,9.8064,0.0224,0.0133,0.0165,1.89,29.81,-2.74,272.28,10.96,2.03
47816,51.458286,-2.763787,91,20.07,9,248.4,13 / 21,4781622,2019-08-16 14:08:55:402,0.0013,-0.1163,9.9594,-0.012,0.0155,9.8066,0.0064,-0.0516,0.0176,1.83,29.92,-1.3,272.99,11.03,2.08
47817,51.458286,-2.763787,91,20.07,9,248.4,13 / 21,4781722,2019-08-16 14:08:55:502,-0.386,-0.1106,9.1596,-0.0199,0.0491,9.8065,0.0479,0.0155,-0.0005,1.83,29.92,-1.3,272.99,11.03,2.08
47818,51.458218,-2.764047,90,20.03,9,247.5,13 / 21,4781823,2019-08-16 14:08:55:603,0.113,0.0345,10.5087,0.0256,0.0192,9.8066,-0.0596,-0.0378,0.0495,2.5,29.89,-0.75,272.95,11.32,2.19
47819,51.458218,-2.764047,90,20.03,9,247.5,13 / 21,4781923,2019-08-16 14:08:55:703,-0.0347,0.0936,10.7726,0.0385,-0.0116,9.8066,0.0064,0.0496,0.0048,2.4,29.84,-1.96,272.59,11.42,2.03
47820,51.458218,-2.764047,90,20.03,9,247.5,13 / 21,4782023,2019-08-16 14:08:55:803,0.5386,0.3675,10.1867,0.0563,-0.0651,9.8063,0.0064,0.0496,0.0048,1.27,29.94,-1.42,271.18,11.03,1.71
47821,51.458218,-2.764047,90,20.03,9,247.5,13 / 21,4782122,2019-08-16 14:08:55:902,0.234,-0.794,10.4696,0.0046,-0.0373,9.8066,-0.0426,0.0336,0.0208,0.69,29.98,-0.83,271.18,11.03,1.71
47822,51.458218,-2.764047,90,20.03,9,247.5,13 / 21,4782223,2019-08-16 14:08:56:003,-0.2076,0.2636,9.7024,0.0118,-0.0062,9.8066,0.0064,-0.0559,-0.0027,1.83,29.94,-0.72,273.07,10.99,1.64
47823,51.458218,-2.764047,90,20.03,9,247.5,13 / 21,4782323,2019-08-16 14:08:56:103,0.1787,-0.1534,9.5775,0.0254,0.026,9.8066,0.0032,-0.0122,0.0144,1.83,29.94,-0.72,273.07,10.99,1.64
47824,51.458218,-2.764047,90,20.03,9,247.5,13 / 21,4782423,2019-08-16 14:08:56:203,-0.1478,-0.5643,9.8451,0.0089,0.0234,9.8066,-0.0106,-0.0282,0.0261,1.86,29.94,-0.14,273.44,11.13,1.58
47825,51.458218,-2.764047,90,20.03,9,247.5,13 / 21,4782523,2019-08-16 14:08:56:303,-0.0165,-0.1925,10.6061,-0.0063,0.021,9.8066,0.0277,0.0059,-0.0069,1.82,29.87,-2.16,273.44,11.13,1.58
47826,51.458218,-2.764047,90,20.03,9,247.5,13 / 21,4782623,2019-08-16 14:08:56:403,0.2057,0.0603,10.0763,-0.0075,0.0238,9.8066,-0.0085,0.0133,-0.0016,1.82,29.87,-2.16,273.44,11.13,1.58
47827,51.458218,-2.764047,90,20.03,9,247.5,13 / 21,4782723,2019-08-16 14:08:56:503,-0.0248,0.2935,10.4856,0.0021,-0.0134,9.8066,-0.0085,0.0133,-0.0016,2.94,29.84,-0.83,274.92,11.27,1.62
47828,51.458153,-2.764296,90,19.75,9,246.7,13 / 21,4782823,2019-08-16 14:08:56:603,-0.1275,-0.0556,10.2074,-0.0013,-0.0227,9.8066,-0.0074,0.0389,0.0058,2.45,29.86,-1.51,272.7,11.19,1.61
47829,51.458153,-2.764296,90,19.75,9,246.7,13 / 21,4782923,2019-08-16 14:08:56:703,0.1473,0.2716,9.7847,-0.0018,-0.0394,9.8066,-0.0032,-0.0495,0.009,2.45,29.89,-0.93,272.7,11.19,1.61
47830,51.458153,-2.764296,90,19.75,9,246.7,13 / 21,4783023,2019-08-16 14:08:56:803,-0.0435,0.1302,8.7744,-0.0233,-0.0195,9.8066,0.0277,-0.0239,0.0026,2.45,29.89,-0.93,272.7,11.19,1.61
47831,51.458153,-2.764296,90,19.75,9,246.7,13 / 21,4783123,2019-08-16 14:08:56:903,-0.1509,-0.2558,9.6235,-0.0136,0.0157,9.8066,-0.0351,-0.0016,0.0335,1.79,29.88,-2.02,272.68,11.08,1.76
47832,51.458153,-2.764296,90,19.75,9,246.7,13 / 21,4783222,2019-08-16 14:08:57:002,0.015,0.3731,10.1151,-0.0159,0.0287,9.8066,0.0139,0.0368,0.0112,1.76,29.94,-0.78,272.68,11.08,1.76
47833,51.458153,-2.764296,90,19.75,9,246.7,13 / 21,4783323,2019-08-16 14:08:57:103,0.0066,0.0274,10.3628,-0.0042,-0.0071,9.8066,-0.0021,-0.0048,0.025,1.19,29.97,0.42,271.51,11.25,1.84
47834,51.458153,-2.764296,90,19.75,9,246.7,13 / 21,4783423,2019-08-16 14:08:57:203,-0.1021,-0.106,10.7818,-0.0088,-0.0215,9.8066,0.0117,0.0538,-0.0069,0.64,29.86,2.87,272.6,11.13,1.9
47835,51.458153,-2.764296,90,19.75,9,246.7,13 / 21,4783523,2019-08-16 14:08:57:303,0.4494,-0.0148,10.5652,-0.0004,-0.0187,9.8066,0.0149,0.0101,0.0101,0.09,29.98,1.04,272.6,11.13,1.9
47836,51.458153,-2.764296,90,19.75,9,246.7,13 / 21,4783624,2019-08-16 14:08:57:404,0.4269,0.4702,9.9682,-0.0049,-0.0041,9.8066,0.0149,0.0101,0.0101,0.09,29.98,1.04,272.6,11.13,1.9
47837,51.458153,-2.764296,90,19.75,9,246.7,13 / 21,4783723,2019-08-16 14:08:57:503,-0.1302,0.457,9.9494,-0.004,0.0354,9.8066,0.0149,-0.0719,0.0101,0.09,30.0,-0.23,269.63,11.11,1.93
47838,51.45808,-2.764553,90,19.63,9,245.8,13 / 21,4783823,2019-08-16 14:08:57:603,-0.0654,0.5383,10.4395,0.0284,0.0424,9.8065,-0.0234,-0.0197,0.008,0.09,29.99,-0.88,269.24,11.31,1.95
47839,51.45808,-2.764553,90,19.63,9,245.8,13 / 21,4783924,2019-08-16 14:08:57:704,0.1551,0.6275,10.6561,0.0535,0.0763,9.8062,-0.0277,0.0293,0.0133,0.09,30.0,0.43,269.67,11.76,1.64
47840,51.45808,-2.764553,90,19.63,9,245.8,13 / 21,4784023,2019-08-16 14:08:57:803,0.51,1.0166,8.9314,0.0098,0.0579,9.8065,-0.0202,-0.0165,0.0144,0.09,30.0,0.43,269.67,11.76,1.64
47841,51.45808,-2.764553,90,19.63,9,245.8,13 / 21,4784123,2019-08-16 14:08:57:903,0.125,0.4092,8.9021,0.0155,0.04,9.8066,0.0181,0.0304,0.0208,0.09,30.0,0.43,269.67,12.1,1.58
47842,51.45808,-2.764553,90,19.63,9,245.8,13 / 21,4784223,2019-08-16 14:08:58:003,0.5031,0.4435,9.8265,0.012,0.0635,9.8064,0.0511,0.0282,0.0037,0.09,30.0,-0.23,269.67,12.1,1.58
47843,51.45808,-2.764553,90,19.63,9,245.8,13 / 21,4784323,2019-08-16 14:08:58:103,0.3129,0.8366,9.1095,-0.0173,0.1039,9.8061,0.0064,-0.0112,0.008,-0.48,29.96,-1.46,269.21,12.71,1.69
47844,51.45808,-2.764553,90,19.63,9,245.8,13 / 21,4784425,2019-08-16 14:08:58:205,-0.6348,0.0645,9.5647,-0.036,0.0857,9.8062,-0.0266,-0.0548,0.0005,-1.58,29.96,-0.13,269.21,12.71,1.69
47845,51.45808,-2.764553,90,19.63,9,245.8,13 / 21,4784523,2019-08-16 14:08:58:303,-0.1757,0.1014,9.9585,0.0197,0.0155,9.8066,-0.0266,-0.0548,0.0005,-0.47,30.0,-0.14,269.56,13.2,1.91
47846,51.45808,-2.764553,90,19.63,9,245.8,13 / 21,4784623,2019-08-16 14:08:58:403,0.2642,0.0605,10.5458,0.0343,0.0491,9.8065,-0.0074,0.0165,-0.025,-0.47,30.0,-0.14,269.56,13.2,1.91
47847,51.45808,-2.764553,90,19.63,9,245.8,13 / 21,4784723,2019-08-16 14:08:58:503,0.1996,0.4834,9.4308,0.0466,0.065,9.8063,-0.0138,0.0581,0.0176,-0.48,29.99,0.43,269.56,13.2,1.91
47848,51.458008,-2.76479,91,19.27,9,245.1,13 / 21,4784823,2019-08-16 14:08:58:603,0.2905,0.2626,9.121,0.0055,0.0358,9.8066,0.0202,-0.0367,-0.0037,-1.06,29.98,-0.24,267.76,13.59,1.64
47849,51.458008,-2.76479,91,19.27,9,245.1,13 / 21,4784923,2019-08-16 14:08:58:703,-0.0216,0.3106,8.5976,0.0053,0.0262,9.8066,-0.0032,0.0059,0.0026,-1.04,29.97,-0.8,267.3,13.8,1.61
47850,51.458008,-2.76479,91,19.27,9,245.1,13 / 21,4785023,2019-08-16 14:08:58:803,0.3054,0.6225,9.8805,0.0166,0.0611,9.8064,0.0,-0.0527,-0.0059,-0.48,29.98,-0.82,267.3,13.8,1.61
47851,51.458008,-2.76479,91,19.27,9,245.1,13 / 21,4785123,2019-08-16 14:08:58:903,0.0623,0.6117,9.583,0.0187,0.031,9.8066,0.0,-0.0527,-0.0059,0.69,29.98,-0.83,271.01,14.16,1.53
47852,51.458008,-2.76479,91,19.27,9,245.1,13 / 21,4785223,2019-08-16 14:08:59:003,-0.0561,0.2082,10.4358,0.0281,0.033,9.8066,-0.0234,0.0677,0.025,0.69,29.98,-0.83,271.01,14.16,1.53
47853,51.458008,-2.76479,91,19.27,9,245.1,13 / 21,4785323,2019-08-16 14:08:59:103,0.2206,0.2741,9.9447,0.0022,0.0283,9.8066,0.0053,-0.0197,0.0218,0.1,29.97,-1.42,269.19,14.35,1.36
47854,51.458008,-2.76479,91,19.27,9,245.1,13 / 21,4785423,2019-08-16 14:08:59:203,-0.1887,0.1414,9.5456,0.001,0.0362,9.8066,0.0128,0.0197,0.0005,-0.49,29.96,-1.42,269.18,14.56,1.35
47855,51.458008,-2.76479,91,19.27,9,245.1,13 / 21,4785523,2019-08-16 14:08:59:303,-0.2953,-0.7947,10.3503,0.0069,0.0039,9.8066,0.0064,0.0549,0.0208,-0.48,29.96,-1.49,269.18,14.56,1.35
47856,51.458008,-2.76479,91,19.27,9,245.1,13 / 21,4785623,2019-08-16 14:08:59:403,-0.2072,-0.6973,10.4516,-0.0016,-0.006,9.8066,0.033,-0.0154,0.0282,-0.48,29.96,-1.49,269.18,14.56,1.35
47857,51.458008,-2.76479,91,19.27,9,245.1,13 / 21,4785723,2019-08-16 14:08:59:503,-0.0649,-0.0701,9.2359,-0.0014,0.0224,9.8066,0.0139,0.0346,0.0282,-1.04,29.97,-0.8,267.32,14.47,1.43
47858,51.457935,-2.765016,90,18.3,9,244.4,13 / 21,4785823,2019-08-16 14:08:59:603,-0.0822,-0.1831,9.8278,0.0087,0.0006,9.8066,-0.0053,0.0144,-0.0069,-1.06,29.98,-0.14,267.79,14.6,1.44
47859,51.457935,-2.765016,90,18.3,9,244.4,13 / 21,4785923,2019-08-16 14:08:59:703,-0.1781,0.0323,8.1012,0.005,-0.0105,9.8066,-0.0011,0.0133,0.0197,-1.06,29.98,-0.14,267.79,14.6,1.44
47860,51.457935,-2.765016,90,18.3,9,244.4,13 / 21,4786023,2019-08-16 14:08:59:803,0.3482,0.5367,8.4987,0.0012,-0.0175,9.8066,0.0107,0.0261,0.0165,-1.06,29.98,-0.14,267.8,14.54,1.41
47861,51.457935,-2.765016,90,18.3,9,244.4,13 / 21,4786123,2019-08-16 14:08:59:903,-0.0449,-0.1321,9.7265,0.0015,-0.026,9.8066,0.0107,0.0261,0.0165,-1.08,29.97,-0.83,267.8,14.54,1.41
47862,51.457935,-2.765016,90,18.3,9,244.4,13 / 21,4786223,2019-08-16 14:09:00:003,-0.2361,0.1201,9.4403,-0.0005,-0.031,9.8066,0.0277,-0.0548,-0.0123,-1.04,29.98,-0.14,267.8,14.39,1.39
47863,51.457935,-2.765016,90,18.3,9,244.4,13 / 21,4786323,2019-08-16 14:09:00:103,0.4146,-0.1975,10.287,0.0103,-0.0707,9.8064,0.0309,0.0357,-0.0037,-0.5,30.0,-0.15,267.83,13.98,1.31
47864,51.457935,-2.765016,90,18.3,9,244.4,13 / 21,4786423,2019-08-16 14:09:00:203,0.2863,-0.0247,8.9444,0.0027,-0.0235,9.8066,-0.0138,-0.0431,-0.0037,-0.5,30.0,-0.15,267.83,13.98,1.31
47865,51.457935,-2.765016,90,18.3,9,244.4,13 / 21,4786523,2019-08-16 14:09:00:303,0.134,-0.2564,10.3443,0.0058,-0.0193,9.8066,-0.0149,-0.0154,0.0133,-0.5,30.0,-0.15,267.84,13.87,1.28
47866,51.457935,-2.765016,90,18.3,9,244.4,13 / 21,4786623,2019-08-16 14:09:00:403,0.4046,-0.126,10.2413,0.0215,0.0329,9.8066,-0.0064,-0.0144,0.0208,-0.49,29.96,-1.42,269.26,14.07,1.15
47867,51.457935,-2.765016,90,18.3,9,244.4,13 / 21,4786723,2019-08-16 14:09:00:503,0.4484,0.2112,10.1443,-0.0007,-0.0028,9.8067,0.0085,0.0187,0.0133,-0.49,29.96,-1.42,269.26,14.07,1.15
47868,51.457867,-2.765229,90,17.63,9,243.9,13 / 21,4786823,2019-08-16 14:09:00:603,0.0926,-0.3695,10.2919,0.003,-0.0059,9.8066,0.0085,0.0187,0.0133,-1.04,29.91,-2.03,269.26,14.07,1.15
