,GPS LATITUDE (degrees), GPS LONGITUDE (degrees), GPS ALTITUDE (m), GPS SPEED (Kmh), GPS ACCURACY (m), GPS ORIENTATION (Â°),GPS SATELLITES IN RANGE, TIME SINCE START (ms), DATE (YYYY-MO-DD HH-MI-SS_SSS), ACCELEROMETER X (m/s²) , ACCELEROMETER Y (m/s²), ACCELEROMETER Z (m/s²), GRAVITY X (m/s²), GRAVITY Y (m/s²), GRAVITY Z (m/s²), GYROSCOPE Yaw (rad/s), GYROSCOPE Pitch (rad/s), GYROSCOPE Roll (rad/s), MAGNETIC FIELD X (Î¼T), MAGNETIC FIELD Y (Î¼T), MAGNETIC FIELD Z (Î¼T), ORIENTATION (Yaw) (Â°), ORIENTATION (Pitch) (Â°), ORIENTATION (Roll ) (Â°)
2409,51.047302,-3.889719,183,25.57,15.0,263.2,Jun-19,1204563,2020-03-21 14:49:01:875,-0.7591,-0.5329,9.2861,-0.0029,0.0065,9.8066,-0.0192,0.0017,-0.0341,-8.59,-17.06,-25.39,101.95,-11.62,8.53
2410,51.047302,-3.889719,183,25.57,15.0,263.2,Jun-19,1205062,2020-03-21 14:49:02:374,0.529,0.2683,9.4279,0.0139,0.0059,9.8066,-0.0202,0.0113,-0.0416,-8.96,-16.68,-24.95,101.92,-11.65,8.58
2411,51.047302,-3.889719,183,25.57,15.0,263.2,Jun-19,1205562,2020-03-21 14:49:02:874,-0.323,0.6029,8.9959,0.0073,0.0175,9.8066,-0.0373,0.0422,-0.032,-9.71,-17.06,-25.39,104.42,-11.68,9.39
2412,51.047302,-3.889719,183,25.57,15.0,263.2,Jun-19,1206062,2020-03-21 14:49:03:374,-0.0357,0.5086,9.3019,-0.0045,0.0044,9.8066,-0.0192,0.0219,-0.0234,-10.46,-17.06,-24.51,104.39,-11.69,9.72
2413,51.047302,-3.889719,183,25.57,15.0,263.2,Jun-19,1206562,2020-03-21 14:49:03:874,0.3278,0.5442,10.2416,0.0117,0.0067,9.8066,-0.0234,-0.0026,-0.0416,-13.02,-18.5,-27.14,109.63,-11.68,9.8
2414,51.047302,-3.889719,183,25.57,15.0,263.2,Jun-19,1207062,2020-03-21 14:49:04:374,-0.1163,-0.0214,9.5409,0.0037,0.0043,9.8066,-0.0618,-0.0111,-0.0416,-8.57,-14.07,-25.07,103.41,-11.68,9.92
2415,51.047302,-3.889719,183,25.57,15.0,263.2,Jun-19,1207562,2020-03-21 14:49:04:874,-0.6018,0.1211,9.4387,-0.0034,0.0072,9.8066,0.0149,0.0326,-0.0373,-12.65,-24.43,-27.14,105.91,-11.95,9.91
2416,51.047302,-3.889719,183,25.57,15.0,263.2,Jun-19,1208062,2020-03-21 14:49:05:374,-0.6261,-0.3774,9.025,0.0031,0.0004,9.8066,0.0362,0.0006,-0.049,-12.27,-20.75,-28.01,104.8,-12.04,9.82
2417,51.047302,-3.889719,183,25.57,15.0,263.2,Jun-19,1208562,2020-03-21 14:49:05:874,-0.4689,0.1349,9.7602,-0.0147,0.0021,9.8066,-0.049,0.0294,-0.0224,-11.21,-16.31,-24.14,107.75,-12.11,9.96
2418,51.047302,-3.889719,183,25.57,15.0,263.2,0 / 19,1209062,2020-03-21 14:49:06:374,-0.4859,-0.424,9.3952,-0.005,0.0056,9.8066,0.0181,0.0326,-0.0352,-9.97,-18.77,-31.27,99.28,-12.35,9.38
2419,51.047302,-3.889719,183,25.57,15.0,263.2,0 / 19,1209562,2020-03-21 14:49:06:874,0.7742,0.3632,10.129,-0.0019,0.0003,9.8067,-0.0053,-0.0239,-0.0341,-12.91,-17.65,-25.71,109.39,-12.65,8.79
2420,51.047302,-3.889719,183,25.57,15.0,263.2,Apr-19,1210062,2020-03-21 14:49:07:374,-1.4821,-0.1654,9.3731,-0.0035,0.001,9.8066,0.0309,0.0049,-0.0298,-14.41,-18.4,-27.39,110.87,-12.91,8.03
2421,51.047302,-3.889719,183,25.57,15.0,263.2,Apr-19,1210562,2020-03-21 14:49:07:874,-0.3457,0.0176,9.0529,-0.0021,0.0046,9.8066,-0.0405,0.023,-0.0171,-13.66,-13.96,-26.14,115.12,-13.18,8.05
2422,51.047302,-3.889719,183,25.57,15.0,263.2,May-19,1211062,2020-03-21 14:49:08:374,0.1531,0.719,9.2986,-0.0024,-0.0018,9.8067,0.0128,0.0028,-0.0181,-10.35,-16.21,-26.52,101.88,-13.23,8.29
2423,51.047302,-3.889719,183,25.57,15.0,263.2,May-19,1211562,2020-03-21 14:49:08:874,-0.4093,0.2158,9.5055,0.0035,0.0072,9.8066,0.0426,0.0273,-0.0181,-15.53,-14.71,-26.14,118.43,-13.55,8.09
2424,51.047302,-3.889719,183,25.57,15.0,263.2,Jun-19,1212062,2020-03-21 14:49:09:374,0.1496,-0.3488,9.7562,0.0069,0.0036,9.8066,0.0426,-0.0228,-0.0373,-15.53,-15.09,-26.14,118.29,-13.68,8.07
2425,51.047302,-3.889719,183,25.57,15.0,263.2,Jun-19,1212562,2020-03-21 14:49:09:874,0.0327,0.5071,9.9134,-0.0001,0.0028,9.8067,-0.0362,-0.0143,-0.0053,-15.53,-14.71,-26.52,117.42,-13.8,8.01
2426,51.047302,-3.889719,183,25.57,15.0,263.2,Aug-19,1213062,2020-03-21 14:49:10:374,-0.673,0.1763,9.5119,0.0028,0.0002,9.8067,0.0895,-0.0047,-0.0256,-15.53,-14.34,-27.39,118.59,-14.01,7.53
2427,51.047302,-3.889719,183,25.57,15.0,263.2,Aug-19,1213562,2020-03-21 14:49:10:874,0.2311,0.0589,9.4184,-0.0109,0.0021,9.8066,-0.0511,0.0251,0.0277,-15.16,-13.59,-26.52,116.25,-14.02,7.0
2428,51.04748,-3.893655,176,23.36,26.0,275.0,Aug-19,1214061,2020-03-21 14:49:11:373,-0.0744,-0.0242,10.0984,0.0001,0.0012,9.8067,0.0586,-0.0196,-0.0117,-15.16,-13.96,-27.39,116.1,-14.26,6.57
2429,51.04748,-3.893655,176,23.36,26.0,275.0,Aug-19,1214562,2020-03-21 14:49:11:874,0.9839,0.053,9.9407,-0.0011,-0.0001,9.8067,-0.0533,-0.0132,0.0117,-15.16,-13.59,-26.52,115.89,-14.47,6.38
2430,51.04748,-3.893655,176,23.36,26.0,275.0,Aug-19,1215062,2020-03-21 14:49:12:374,0.735,0.3397,10.2467,-0.0028,0.0008,9.8067,0.0437,-0.0026,-0.0043,-15.16,-13.59,-27.39,116.08,-14.34,6.36
2431,51.04748,-3.893655,176,23.36,26.0,275.0,Aug-19,1215562,2020-03-21 14:49:12:874,0.7662,0.3548,10.3911,0.0004,0.0035,9.8067,0.0085,0.0134,0.0128,-15.91,-13.59,-28.27,117.57,-14.45,6.66
2432,51.04748,-3.893655,176,23.36,26.0,275.0,Aug-19,1216062,2020-03-21 14:49:13:374,1.2958,0.0947,9.577,0.0207,0.0069,9.8066,0.0724,-0.042,-0.0277,-15.53,-13.21,-27.83,119.36,-14.23,6.42
2433,51.04748,-3.893655,176,23.36,26.0,275.0,Aug-19,1216562,2020-03-21 14:49:13:874,-0.025,0.0401,8.7413,-0.006,0.0069,9.8066,-0.081,0.0315,0.017,-15.16,-12.9,-27.83,116.68,-14.2,6.48
2434,51.04748,-3.893655,176,23.36,26.0,275.0,Feb-19,1217062,2020-03-21 14:49:14:374,0.0709,-0.4029,10.5798,-0.0048,0.0003,9.8066,0.0064,-0.0079,0.0011,-15.16,-13.21,-27.39,117.67,-14.13,6.38
2435,51.04748,-3.893655,176,23.36,26.0,275.0,Feb-19,1217562,2020-03-21 14:49:14:874,0.9416,0.56,9.5169,-0.0133,-0.0113,9.8066,-0.0884,-0.0249,0.0309,-14.78,-13.21,-26.96,117.9,-13.9,6.56
2436,51.04748,-3.893655,176,23.36,26.0,275.0,May-19,1218061,2020-03-21 14:49:15:373,0.5443,0.3231,9.7636,-0.008,-0.0136,9.8066,0.0032,-0.0367,0.0032,-14.78,-13.27,-26.96,117.98,-14.01,6.09
2437,51.04748,-3.893655,176,23.36,26.0,275.0,May-19,1218562,2020-03-21 14:49:15:874,0.5425,0.0956,10.8201,0.0122,-0.0036,9.8066,-0.0064,-0.0303,0.0075,-15.16,-13.21,-28.71,116.68,-13.88,5.7
2438,51.04748,-3.893655,176,23.36,26.0,275.0,Jun-19,1219062,2020-03-21 14:49:16:374,-0.4468,0.1161,9.9763,-0.0031,-0.0016,9.8066,0.0469,-0.009,-0.0064,-14.78,-13.59,-27.39,116.97,-13.9,5.64
2439,51.04748,-3.893655,176,23.36,26.0,275.0,Jun-19,1219562,2020-03-21 14:49:16:874,0.9015,-0.2961,8.7802,-0.0004,0.0054,9.8066,0.0021,0.0155,0.0053,-14.78,-13.27,-26.96,118.75,-13.59,5.73
2440,51.04748,-3.893655,176,23.36,26.0,275.0,Jun-19,1220062,2020-03-21 14:49:17:374,0.2552,-0.0498,10.0303,0.0077,0.0061,9.8066,0.0511,0.023,-0.0064,-15.16,-13.59,-26.96,117.62,-13.49,5.39
2441,51.04748,-3.893655,176,23.36,26.0,275.0,Jun-19,1220561,2020-03-21 14:49:17:873,0.0107,-0.5085,9.5647,0.0051,0.016,9.8066,0.0469,0.0283,-0.0075,-14.78,-12.52,-27.39,118.84,-13.49,5.82
2442,51.04748,-3.893655,176,23.36,26.0,275.0,Jun-19,1221062,2020-03-21 14:49:18:374,0.1423,-0.7168,10.1213,-0.014,-0.0058,9.8066,-0.0064,-0.0026,-0.0011,-18.47,-21.34,-31.27,114.61,-13.01,6.29
2443,51.04748,-3.893655,176,23.36,26.0,275.0,Jun-19,1221562,2020-03-21 14:49:18:874,0.172,-0.3823,12.4191,0.0017,-0.0309,9.8066,-0.0735,-0.0505,0.0245,-15.91,-12.9,-26.52,121.57,-13.28,6.17
2444,51.04748,-3.893655,176,23.36,26.0,275.0,Jun-19,1222061,2020-03-21 14:49:19:373,-0.1838,0.0036,9.0391,0.0053,0.0062,9.8066,0.0565,0.0283,-0.0043,-13.66,-13.59,-26.96,114.84,-13.31,6.19
2445,51.04748,-3.893655,176,23.36,26.0,275.0,Jun-19,1222562,2020-03-21 14:49:19:874,-0.0926,-0.6712,8.8642,0.0076,-0.0038,9.8066,-0.0192,-0.0249,-0.0011,-14.41,-13.59,-27.39,115.06,-13.24,5.88
2446,51.04748,-3.893655,176,23.36,26.0,275.0,Jun-19,1223062,2020-03-21 14:49:20:374,-0.2487,-0.7242,9.8372,0.0102,0.0068,9.8066,0.0618,0.0155,-0.0096,-14.03,-13.21,-26.96,116.53,-13.07,6.04
2447,51.04748,-3.893655,176,23.36,26.0,275.0,Jun-19,1223562,2020-03-21 14:49:20:874,-0.1873,0.4047,9.9804,0.0111,-0.001,9.8066,0.0277,-0.0324,-0.0064,-14.03,-12.9,-26.96,116.51,-12.98,6.38
2448,51.04748,-3.893655,176,23.36,26.0,275.0,Jun-19,1224063,2020-03-21 14:49:21:375,2.0719,0.3785,10.977,-0.0023,-0.0004,9.8067,-0.0927,-0.01,0.0224,-14.41,-13.59,-27.83,114.25,-13.04,6.69
2449,51.04748,-3.893655,176,23.36,26.0,275.0,Jun-19,1224561,2020-03-21 14:49:21:873,-0.3046,0.1478,9.2635,0.0026,0.0061,9.8066,-0.0426,0.0134,0.0128,-13.66,-13.59,-28.27,114.68,-12.84,6.29
2450,51.04748,-3.893655,176,23.36,26.0,275.0,0 / 19,1225062,2020-03-21 14:49:22:374,-0.0932,-0.1244,10.1435,0.0035,-0.0019,9.8066,0.016,-0.0122,-0.0064,-14.03,-13.59,-27.39,115.58,-12.75,6.25
2451,51.04748,-3.893655,176,23.36,26.0,275.0,0 / 19,1225562,2020-03-21 14:49:22:874,-0.6981,-0.0491,10.7991,0.0003,-0.0132,9.8066,0.0543,-0.0612,-0.0085,-14.03,-13.21,-26.96,117.06,-12.6,6.34
2452,51.04748,-3.893655,176,23.36,26.0,275.0,May-19,1226062,2020-03-21 14:49:23:374,-0.4713,0.1486,10.1006,0.0065,0.0021,9.8066,0.0671,-0.0207,-0.0085,-14.03,-13.96,-27.83,114.84,-12.78,6.11
2453,51.04748,-3.893655,176,23.36,26.0,275.0,May-19,1226562,2020-03-21 14:49:23:874,0.0141,0.4781,9.7092,0.0103,-0.0017,9.8066,0.0032,-0.0228,-0.0032,-14.03,-13.96,-27.83,114.85,-12.69,6.42
2454,51.04748,-3.893655,176,23.36,26.0,275.0,Jun-19,1227062,2020-03-21 14:49:24:374,0.4692,-0.1376,10.2929,0.0161,-0.0159,9.8066,0.0192,-0.042,-0.016,-13.66,-13.96,-27.83,114.99,-12.63,6.24
2455,51.04748,-3.893655,176,23.36,26.0,275.0,Jun-19,1227562,2020-03-21 14:49:24:874,-0.2012,-0.0255,10.0331,-0.002,-0.0085,9.8066,0.0245,-0.009,0.0032,-14.03,-13.21,-28.71,115.57,-12.45,6.63
2456,51.048527,-3.898662,171,26.06,28.0,284.6,Jun-19,1228062,2020-03-21 14:49:25:374,0.5721,0.5629,9.6438,0.0104,0.0056,9.8066,0.0554,0.0081,-0.0096,-13.66,-13.59,-27.83,115.26,-12.37,6.49
2457,51.048527,-3.898662,171,26.06,28.0,284.6,Jun-19,1228562,2020-03-21 14:49:25:874,0.0279,0.0307,9.7209,0.012,-0.0035,9.8066,0.0341,-0.0143,-0.0075,-13.66,-13.21,-27.83,116.56,-12.3,6.64
2458,51.048527,-3.898662,171,26.06,28.0,284.6,Jun-19,1229062,2020-03-21 14:49:26:374,0.1158,-0.1406,10.0253,0.0094,0.0017,9.8066,-0.0352,-0.0026,0.0032,-13.66,-13.21,-27.39,117.14,-12.28,7.08
2459,51.048527,-3.898662,171,26.06,28.0,284.6,Jun-19,1229562,2020-03-21 14:49:26:874,-0.6599,-0.1215,9.8457,-0.0183,-0.0095,9.8066,-0.0607,-0.0122,0.0192,-14.03,-13.21,-28.27,116.59,-12.22,6.82
2460,51.048527,-3.898662,171,26.06,28.0,284.6,Jun-19,1230062,2020-03-21 14:49:27:374,-0.7399,-0.5029,9.3644,-0.0141,-0.0007,9.8066,-0.017,0.0145,0.0192,-14.03,-13.96,-28.27,115.45,-12.26,6.37
2461,51.048527,-3.898662,171,26.06,28.0,284.6,Jun-19,1230562,2020-03-21 14:49:27:874,0.0485,-0.5008,9.663,-0.0102,-0.0024,9.8066,-0.049,0.0102,0.0224,-13.28,-13.27,-27.83,114.04,-12.21,6.21
2462,51.048527,-3.898662,171,26.06,28.0,284.6,Jun-19,1231061,2020-03-21 14:49:28:373,0.237,-0.0821,9.6624,-0.0015,-0.0092,9.8066,0.016,-0.0324,0.0032,-13.66,-13.21,-27.83,116.99,-12.22,6.02
2463,51.048527,-3.898662,171,26.06,28.0,284.6,Jun-19,1231562,2020-03-21 14:49:28:874,-0.2271,-0.3714,9.4885,-0.002,-0.0119,9.8066,-0.0085,-0.0633,0.0011,-13.28,-13.59,-27.83,113.04,-12.16,5.87
2464,51.048527,-3.898662,171,26.06,28.0,284.6,Jun-19,1232062,2020-03-21 14:49:29:374,-0.8277,-0.5955,9.6031,-0.0176,-0.0201,9.8066,-0.0458,-0.058,0.016,-13.28,-13.59,-27.83,113.19,-12.17,5.46
2465,51.048527,-3.898662,171,26.06,28.0,284.6,Jun-19,1232562,2020-03-21 14:49:29:874,0.5505,0.0926,9.1129,0.0114,0.0012,9.8066,0.0511,0.0145,0.0032,-13.28,-13.96,-28.27,113.29,-12.06,5.6
2466,51.048527,-3.898662,171,26.06,28.0,284.6,0 / 19,1233062,2020-03-21 14:49:30:374,-0.5322,0.188,9.6474,-0.0083,-0.0019,9.8066,0.0298,0.0187,0.0064,-12.53,-13.96,-28.71,112.59,-12.0,5.78
2467,51.048527,-3.898662,171,26.06,28.0,284.6,0 / 19,1233561,2020-03-21 14:49:30:873,-0.0175,0.523,10.1323,-0.0045,-0.001,9.8066,0.0085,0.0091,0.0085,-13.28,-14.34,-28.71,112.71,-12.05,5.3
2468,51.048527,-3.898662,171,26.06,28.0,284.6,Jul-19,1234061,2020-03-21 14:49:31:373,0.5525,0.3674,9.4696,0.0052,0.0069,9.8066,-0.0085,0.0049,0.0181,-12.91,-13.59,-28.27,113.33,-12.09,5.41
2469,51.048527,-3.898662,171,26.06,28.0,284.6,Jul-19,1234562,2020-03-21 14:49:31:874,0.5475,0.5268,9.7066,-0.0044,0.0,9.8066,-0.0352,-0.0058,0.016,-12.91,-13.59,-27.83,113.05,-12.23,5.6
2470,51.048527,-3.898662,171,26.06,28.0,284.6,Jul-19,1235062,2020-03-21 14:49:32:374,0.2515,-0.272,10.4618,-0.0077,-0.0109,9.8066,0.0341,-0.0548,0.0075,-12.91,-13.59,-28.71,112.19,-12.31,5.63
2471,51.048527,-3.898662,171,26.06,28.0,284.6,Aug-19,1235562,2020-03-21 14:49:32:874,-1.0728,-0.7991,10.0912,0.0141,-0.0081,9.8066,-0.0469,-0.0356,0.0394,-12.91,-13.96,-28.71,112.43,-12.33,4.96
2472,51.048527,-3.898662,171,26.06,28.0,284.6,Aug-19,1236062,2020-03-21 14:49:33:374,-0.8898,0.073,9.0117,-0.0004,-0.0055,9.8066,0.0554,-0.009,0.0256,-12.97,-13.21,-28.14,114.72,-12.41,4.12
2473,51.048527,-3.898662,171,26.06,28.0,284.6,0 / 19,1236562,2020-03-21 14:49:33:874,-0.3895,0.302,9.8057,-0.0057,-0.001,9.8066,0.0266,-0.0047,0.0394,-12.22,-13.21,-28.64,110.98,-12.51,3.22
2474,51.04868,-3.901979,160,25.55,11.0,279.2,May-19,1237062,2020-03-21 14:49:34:374,-0.2528,0.0229,9.1496,-0.0075,-0.0042,9.8066,-0.0064,0.0102,0.0469,-11.47,-13.21,-28.27,108.84,-12.41,2.54
2475,51.04868,-3.901979,160,25.55,11.0,279.2,May-19,1237562,2020-03-21 14:49:34:874,-0.8362,-0.0163,8.8083,-0.021,-0.0103,9.8066,-0.0522,-0.0111,0.0437,-11.47,-13.59,-29.14,107.12,-12.39,2.12
2476,51.04868,-3.901979,160,25.55,11.0,279.2,Jun-19,1238062,2020-03-21 14:49:35:374,0.1982,0.0233,9.8102,0.0047,-0.0088,9.8066,0.0139,-0.0313,0.0256,-11.1,-13.59,-28.71,107.31,-12.24,2.34
2477,51.04868,-3.901979,160,25.55,11.0,279.2,Jun-19,1238562,2020-03-21 14:49:35:874,-0.1253,-0.1263,10.5767,-0.0068,-0.0062,9.8066,-0.0192,-0.0047,0.0405,-10.72,-13.27,-29.14,108.48,-12.26,2.08
2478,51.04868,-3.901979,160,25.55,11.0,279.2,Jun-19,1239062,2020-03-21 14:49:36:374,-0.3955,0.0837,9.9148,0.0013,0.001,9.8067,-0.0362,0.0017,0.0394,-10.35,-13.59,-29.14,103.78,-12.33,2.08
2479,51.04868,-3.901979,160,25.55,11.0,279.2,Jun-19,1239561,2020-03-21 14:49:36:873,-1.0557,-0.3421,9.9613,0.0056,0.0039,9.8066,-0.0618,0.0145,0.0501,-10.35,-13.59,-28.71,103.71,-12.39,1.88
2480,51.04868,-3.901979,160,25.55,11.0,279.2,Jun-19,1240062,2020-03-21 14:49:37:374,-0.0381,-0.0009,10.067,0.0042,0.0052,9.8066,-0.0362,0.0102,0.0351,-9.22,-13.96,-28.71,100.15,-12.34,2.56
2481,51.04868,-3.901979,160,25.55,11.0,279.2,Jun-19,1240562,2020-03-21 14:49:37:874,-0.3371,-0.1351,9.7212,0.0008,0.0017,9.8067,0.0096,-0.0239,0.0234,-9.36,-13.02,-30.99,98.79,-12.47,2.6
2482,51.04868,-3.901979,160,25.55,11.0,279.2,Jun-19,1241062,2020-03-21 14:49:38:374,-0.9142,-0.4043,9.6061,-0.0086,0.002,9.8066,-0.0724,0.0177,0.0543,-9.36,-13.71,-30.99,98.33,-12.46,2.24
2483,51.04868,-3.901979,160,25.55,11.0,279.2,Jun-19,1241562,2020-03-21 14:49:38:874,-0.9149,0.5462,9.3935,0.0055,0.0045,9.8066,-0.0117,0.0049,0.0234,-8.99,-13.33,-30.99,98.77,-12.49,2.53
2484,51.04868,-3.901979,160,25.55,11.0,279.2,Jun-19,1242062,2020-03-21 14:49:39:374,-0.3164,0.1337,9.3253,0.0086,0.0056,9.8066,-0.0085,0.0102,0.016,-8.99,-13.71,-31.42,98.36,-12.41,3.04
2485,51.04868,-3.901979,160,25.55,11.0,279.2,Jun-19,1242562,2020-03-21 14:49:39:874,0.0554,-0.2749,10.1611,0.003,-0.0013,9.8066,-0.0682,-0.026,0.017,-8.3,-13.4,-31.42,95.19,-12.39,4.21
2486,51.04868,-3.901979,160,25.55,11.0,279.2,Jun-19,1243062,2020-03-21 14:49:40:374,0.9839,0.6483,9.5212,0.0401,0.0043,9.8066,0.0788,0.0028,-0.0181,-8.99,-14.08,-31.05,97.98,-12.55,5.5
2487,51.04868,-3.901979,160,25.55,11.0,279.2,Jun-19,1243562,2020-03-21 14:49:40:874,1.1229,0.0167,9.0018,0.0036,-0.0039,9.8067,0.0629,-0.0207,-0.0128,-8.99,-13.4,-30.99,98.65,-12.4,6.05
2488,51.04868,-3.901979,160,25.55,11.0,279.2,Jun-19,1244061,2020-03-21 14:49:41:373,1.2778,0.3258,10.1495,0.0098,0.0011,9.8066,0.0639,-0.0228,-0.0192,-8.61,-13.77,-31.05,98.35,-12.32,6.6
2489,51.04868,-3.901979,160,25.55,11.0,279.2,Jun-19,1244562,2020-03-21 14:49:41:874,0.2548,0.1323,10.196,0.0167,-0.007,9.8066,0.0096,-0.0122,-0.0096,-8.99,-14.08,-30.61,98.44,-12.26,7.44
2490,51.04868,-3.901979,160,25.55,11.0,279.2,Jun-19,1245062,2020-03-21 14:49:42:374,-0.6927,0.3656,9.651,-0.0034,-0.002,9.8066,0.0032,-0.0068,-0.0021,-8.61,-14.08,-30.99,98.45,-12.25,7.61
2491,51.04868,-3.901979,160,25.55,11.0,279.2,Jun-19,1245562,2020-03-21 14:49:42:874,-0.5725,-0.1843,9.8085,-0.0104,-0.0078,9.8066,-0.0202,-0.042,-0.0032,-8.99,-14.08,-31.42,98.28,-12.35,7.64
2492,51.04868,-3.901979,160,25.55,11.0,279.2,Jun-19,1246062,2020-03-21 14:49:43:374,0.2517,-0.0872,9.7216,0.0043,0.0017,9.8066,0.0064,0.0113,0.0021,-8.99,-13.71,-30.99,98.58,-12.17,7.6
2493,51.04868,-3.901979,160,25.55,11.0,279.2,Jun-19,1246562,2020-03-21 14:49:43:874,-0.5306,-0.6808,10.0889,-0.0128,-0.0014,9.8066,-0.0724,0.007,0.0277,-8.61,-14.08,-30.99,98.49,-12.23,7.44
2494,51.04868,-3.901979,160,25.55,11.0,279.2,May-19,1247062,2020-03-21 14:49:44:374,-0.3128,0.1485,9.8702,0.003,-0.0026,9.8067,0.0309,-0.0154,-0.016,-8.99,-14.46,-30.99,98.47,-12.24,7.36
2495,51.04868,-3.901979,160,25.55,11.0,279.2,May-19,1247562,2020-03-21 14:49:44:874,-0.2261,-0.4403,10.2605,-0.0142,-0.0012,9.8066,-0.0724,0.0006,0.0298,-8.61,-13.71,-30.55,98.56,-12.18,7.41
2496,51.048893,-3.90612,159,26.21,13.0,271.5,Jul-19,1248062,2020-03-21 14:49:45:374,0.0692,-0.2257,10.7193,0.0055,-0.0093,9.8066,0.0,0.007,0.0011,-8.3,-14.08,-30.99,95.37,-12.23,7.02
2497,51.048893,-3.90612,159,26.21,13.0,271.5,Jul-19,1248562,2020-03-21 14:49:45:874,-0.7085,0.4367,9.4083,-0.0091,0.0019,9.8066,0.0256,-0.0217,-0.0139,-8.99,-14.08,-30.99,98.41,-12.28,7.08
2498,51.048893,-3.90612,159,26.21,13.0,271.5,Jul-19,1249062,2020-03-21 14:49:46:374,0.4916,-0.0245,9.3261,-0.0006,0.0028,9.8067,0.0213,-0.0015,-0.0096,-8.61,-14.08,-30.99,98.34,-12.32,7.13
2499,51.048893,-3.90612,159,26.21,13.0,271.5,Jul-19,1249562,2020-03-21 14:49:46:874,1.2144,0.4907,9.211,0.0101,-0.0012,9.8066,0.0714,-0.0004,-0.0288,-8.99,-13.71,-31.42,98.16,-12.42,7.41
2500,51.048893,-3.90612,159,26.21,13.0,271.5,Jul-19,1250062,2020-03-21 14:49:47:374,1.4544,-0.3462,10.1674,0.0047,0.0003,9.8067,0.0533,0.006,-0.0053,-8.61,-14.08,-30.99,98.33,-12.32,7.29
2501,51.048893,-3.90612,159,26.21,13.0,271.5,Jul-19,1250562,2020-03-21 14:49:47:874,-0.1188,0.2905,9.9099,0.0,0.0033,9.8067,-0.0085,0.0294,0.0032,-8.61,-14.08,-30.99,98.38,-12.3,6.94
2502,51.048893,-3.90612,159,26.21,13.0,271.5,Jul-19,1251062,2020-03-21 14:49:48:374,0.457,0.1678,10.2346,-0.0053,-0.0059,9.8066,-0.0064,-0.0217,0.0117,-8.3,-13.71,-30.99,95.37,-12.23,7.0
2503,51.048893,-3.90612,159,26.21,13.0,271.5,Jul-19,1251562,2020-03-21 14:49:48:874,0.2905,-0.9474,9.8755,-0.0109,-0.0081,9.8066,-0.0415,-0.0036,0.0149,-8.61,-13.71,-30.99,98.48,-12.24,6.85
2504,51.048893,-3.90612,159,26.21,13.0,271.5,Jul-19,1252062,2020-03-21 14:49:49:374,-0.2112,-0.0329,9.9824,0.0036,0.0008,9.8067,0.0021,-0.0228,-0.0064,-8.61,-14.08,-31.42,98.48,-12.24,7.09
2505,51.048893,-3.90612,159,26.21,13.0,271.5,Jul-19,1252562,2020-03-21 14:49:49:874,0.2098,-0.8221,9.7241,0.0094,-0.0029,9.8066,-0.0469,-0.0026,0.0117,-8.61,-13.71,-30.55,98.57,-12.18,7.2
2506,51.048893,-3.90612,159,26.21,13.0,271.5,Jul-19,1253062,2020-03-21 14:49:50:374,-0.6064,-0.3032,10.2454,0.0005,-0.0021,9.8066,-0.0756,-0.0164,0.0138,-8.61,-14.08,-30.99,98.52,-12.21,6.94
2507,51.048893,-3.90612,159,26.21,13.0,271.5,Jul-19,1253562,2020-03-21 14:49:50:874,0.7461,0.3444,10.1366,-0.0037,0.0061,9.8066,0.0245,0.0091,0.0,-8.3,-14.08,-30.99,95.48,-12.17,7.3
2508,51.048893,-3.90612,159,26.21,13.0,271.5,Jul-19,1254062,2020-03-21 14:49:51:374,-0.2358,-0.31,10.0146,0.0063,-0.0043,9.8066,-0.0032,0.0081,-0.0075,-8.3,-14.46,-30.99,95.66,-12.06,6.93
2509,51.048893,-3.90612,159,26.21,13.0,271.5,Jul-19,1254562,2020-03-21 14:49:51:874,-0.5591,0.5656,10.3022,-0.008,-0.0025,9.8066,0.0075,-0.0111,0.0043,-8.3,-13.02,-29.74,96.51,-12.14,6.89
2510,51.048893,-3.90612,159,26.21,13.0,271.5,May-19,1255062,2020-03-21 14:49:52:374,-0.8431,-0.762,10.5506,0.0026,-0.0166,9.8066,-0.0437,-0.0313,0.0128,-8.3,-14.08,-29.3,96.9,-12.17,6.54
2511,51.048893,-3.90612,159,26.21,13.0,271.5,May-19,1255562,2020-03-21 14:49:52:874,-0.5316,0.1319,9.6708,-0.0015,-0.0048,9.8066,-0.0352,-0.0143,0.0138,-8.61,-14.08,-30.55,98.42,-12.27,7.13
2512,51.048893,-3.90612,159,26.21,13.0,271.5,Jul-19,1256062,2020-03-21 14:49:53:374,0.7418,0.4045,8.9418,0.0135,-0.0004,9.8066,0.0139,0.0049,-0.0021,-8.61,-14.08,-31.42,98.34,-12.33,6.34
2513,51.048893,-3.90612,159,26.21,13.0,271.5,Jul-19,1256562,2020-03-21 14:49:53:874,-0.7952,-0.1909,10.2529,0.0047,-0.0005,9.8066,0.0788,-0.0004,-0.0192,-8.61,-14.08,-30.11,99.11,-12.31,6.64
2514,51.048893,-3.90612,159,26.21,13.0,271.5,Jul-19,1257061,2020-03-21 14:49:54:373,0.2998,-0.127,10.2447,-0.0016,-0.0052,9.8067,0.0426,-0.0249,-0.0085,-8.3,-13.71,-30.11,96.16,-12.19,7.08
2515,51.048893,-3.90612,159,26.21,13.0,271.5,Jul-19,1257562,2020-03-21 14:49:54:874,-0.7872,0.4277,9.8879,-0.0042,0.0046,9.8066,0.0565,-0.01,-0.0043,-8.61,-13.33,-30.55,99.09,-12.11,7.33
2516,51.048893,-3.90612,159,26.21,13.0,271.5,Jul-19,1258061,2020-03-21 14:49:55:373,0.0353,-0.5765,9.9728,0.0007,-0.0032,9.8066,-0.016,-0.0132,-0.0139,-8.99,-13.71,-30.55,98.62,-12.15,7.27
2517,51.048893,-3.90612,159,26.21,13.0,271.5,Jul-19,1258562,2020-03-21 14:49:55:874,-0.0415,-0.6008,9.8839,-0.0083,-0.0001,9.8066,0.0309,0.0134,0.0021,-8.61,-14.08,-30.11,99.57,-12.01,7.22
2518,51.048893,-3.90612,159,26.21,13.0,271.5,Jul-19,1259062,2020-03-21 14:49:56:374,-0.2609,-0.555,9.8131,0.0006,-0.0018,9.8067,-0.0256,-0.0068,0.0075,-7.55,-13.71,-30.99,95.9,-11.92,7.09
2519,51.048893,-3.90612,159,26.21,13.0,271.5,Jul-19,1259562,2020-03-21 14:49:56:874,-0.6041,-0.4764,9.9142,-0.0028,-0.0022,9.8067,-0.0352,-0.0462,0.0,-8.3,-14.08,-31.42,95.85,-11.95,7.01
2520,51.048893,-3.90612,159,26.21,13.0,271.5,Jul-19,1260062,2020-03-21 14:49:57:374,-1.4208,-0.3583,9.2444,-0.016,-0.0054,9.8066,-0.0128,-0.0335,0.0106,-7.92,-13.71,-30.99,95.72,-12.02,6.86
2521,51.048893,-3.90612,159,26.21,13.0,271.5,Jul-19,1260562,2020-03-21 14:49:57:874,-0.4153,-0.0373,9.1254,-0.0061,-0.003,9.8066,0.0139,-0.0175,-0.0043,-8.3,-14.08,-30.55,95.59,-12.1,6.74
2522,51.048893,-3.90612,159,26.21,13.0,271.5,Jul-19,1261062,2020-03-21 14:49:58:374,0.2193,0.3222,9.7152,-0.002,0.004,9.8067,0.0373,0.007,-0.0032,-8.3,-14.08,-30.99,95.57,-12.09,6.22
2523,51.048893,-3.90612,159,26.21,13.0,271.5,Jul-19,1261562,2020-03-21 14:49:58:874,0.3619,0.6653,9.7238,0.0154,0.0028,9.8066,0.0799,0.0091,-0.0266,-8.61,-14.08,-30.99,98.7,-12.12,6.49
2524,51.048893,-3.90612,159,26.21,13.0,271.5,Jul-19,1262062,2020-03-21 14:49:59:374,-0.5031,0.3802,8.4552,-0.002,0.0042,9.8066,-0.0011,0.0091,0.0128,-8.3,-14.08,-30.99,95.59,-12.09,6.68
2525,51.048893,-3.90612,159,26.21,13.0,271.5,Jul-19,1262562,2020-03-21 14:49:59:874,0.7156,-0.553,9.2362,-0.0013,0.0055,9.8066,0.0202,0.0177,0.0128,-8.3,-13.71,-31.42,95.83,-11.96,7.0
2526,51.048893,-3.90612,159,26.21,13.0,271.5,0 / 19,1263062,2020-03-21 14:50:00:374,0.1401,0.6743,9.8563,-0.0029,-0.0027,9.8067,0.016,0.0049,-0.0032,-8.61,-13.71,-30.99,98.98,-11.94,6.86
2527,51.048893,-3.90612,159,26.21,13.0,271.5,0 / 19,1263562,2020-03-21 14:50:00:874,0.2129,-0.1745,10.365,0.0011,-0.006,9.8066,-0.0117,-0.0047,0.0053,-8.3,-14.08,-30.99,95.99,-11.86,6.88
2528,51.048893,-3.90612,159,26.21,13.0,271.5,Aug-20,1264062,2020-03-21 14:50:01:374,0.5047,-0.4848,10.4569,0.0137,-0.0048,9.8066,-0.0181,-0.0058,-0.0043,-8.61,-14.08,-30.99,99.08,-11.87,7.21
2529,51.048893,-3.90612,159,26.21,13.0,271.5,Aug-20,1264562,2020-03-21 14:50:01:874,0.2245,0.1168,9.5691,-0.001,0.0051,9.8066,0.0117,-0.0047,-0.0139,-8.67,-14.08,-31.42,99.19,-11.81,7.14
2530,51.048824,-3.912405,172,25.96,11.0,268.5,Aug-20,1265062,2020-03-21 14:50:02:374,-0.0779,0.4366,9.093,0.0059,0.0013,9.8066,0.0298,-0.0143,-0.0085,-8.3,-13.71,-30.55,96.0,-11.86,7.23
2531,51.048824,-3.912405,172,25.96,11.0,268.5,Aug-20,1265562,2020-03-21 14:50:02:874,0.8051,-0.32,8.9315,0.0149,-0.0001,9.8066,-0.0383,0.0209,0.0117,-8.61,-14.46,-31.42,99.36,-11.71,6.92
2532,51.048824,-3.912405,172,25.96,11.0,268.5,Aug-20,1266062,2020-03-21 14:50:03:374,0.0971,-0.3201,9.3986,-0.006,0.0044,9.8066,0.0256,0.0145,0.0021,-7.92,-14.46,-31.42,96.37,-11.64,6.89
2533,51.048824,-3.912405,172,25.96,11.0,268.5,Aug-20,1266562,2020-03-21 14:50:03:874,0.7698,0.0267,9.9991,0.023,-0.0002,9.8066,0.0511,-0.0079,-0.0149,-8.3,-14.08,-31.86,95.82,-11.56,6.88
2534,51.048824,-3.912405,172,25.96,11.0,268.5,Aug-20,1267061,2020-03-21 14:50:04:373,-0.9424,0.092,9.8916,-0.0085,-0.005,9.8066,-0.0511,-0.0079,0.0043,-8.67,-14.08,-30.55,99.47,-11.64,7.11
2535,51.048824,-3.912405,172,25.96,11.0,268.5,Aug-20,1267562,2020-03-21 14:50:04:874,-1.0965,0.6139,9.5715,-0.0147,-0.006,9.8066,-0.0373,-0.0377,-0.0021,-8.3,-14.46,-31.42,96.37,-11.64,7.11
2536,51.048824,-3.912405,172,25.96,11.0,268.5,Aug-20,1268062,2020-03-21 14:50:05:374,0.1702,-0.1154,8.7823,-0.0002,0.0008,9.8067,0.017,-0.01,-0.0107,-8.67,-14.08,-31.42,99.55,-11.6,6.93
2537,51.048824,-3.912405,172,25.96,11.0,268.5,Aug-20,1268562,2020-03-21 14:50:05:874,-0.0519,1.0163,8.7501,-0.0005,0.0094,9.8066,-0.0394,0.0422,0.0128,-8.61,-14.08,-31.86,98.78,-11.63,7.46
2538,51.048824,-3.912405,172,25.96,11.0,268.5,Aug-20,1269062,2020-03-21 14:50:06:374,0.1835,-0.1995,9.5877,-0.0117,-0.0098,9.8066,-0.0469,-0.0132,0.0075,-7.92,-13.71,-30.99,96.55,-11.54,7.41
2539,51.048824,-3.912405,172,25.96,11.0,268.5,Aug-20,1269562,2020-03-21 14:50:06:874,-0.025,-0.6455,9.4085,-0.0113,-0.0028,9.8066,-0.0064,0.0113,0.0106,-8.3,-14.08,-30.99,96.62,-11.49,6.94
2540,51.048824,-3.912405,172,25.96,11.0,268.5,Aug-20,1270062,2020-03-21 14:50:07:374,-0.0663,0.6431,9.0946,-0.0123,0.0025,9.8066,-0.1087,0.0241,0.0415,-8.3,-14.83,-30.55,96.24,-11.54,5.98
2541,51.048824,-3.912405,172,25.96,11.0,268.5,Aug-20,1270562,2020-03-21 14:50:07:874,0.0852,0.041,9.8742,-0.0235,0.005,9.8066,-0.0362,0.0145,0.0192,-8.3,-15.96,-30.55,95.99,-11.5,4.65
2542,51.048824,-3.912405,172,25.96,11.0,268.5,0 / 20,1271062,2020-03-21 14:50:08:374,-0.6629,0.0952,9.9344,-0.0243,-0.0118,9.8066,-0.0437,-0.0143,0.0138,-8.3,-15.58,-30.55,95.83,-11.58,3.67
2543,51.048824,-3.912405,172,25.96,11.0,268.5,0 / 20,1271562,2020-03-21 14:50:08:874,-0.0718,0.1681,9.0801,0.0089,-0.0025,9.8066,0.0352,-0.0484,-0.0213,-7.92,-16.33,-30.11,96.75,-11.42,3.75
2544,51.048824,-3.912405,172,25.96,11.0,268.5,Jul-20,1272062,2020-03-21 14:50:09:374,-0.3092,-0.0924,9.7051,0.0003,-0.001,9.8066,-0.0032,-0.0185,-0.0107,-7.92,-15.96,-29.67,96.97,-11.28,3.84
2545,51.048824,-3.912405,172,25.96,11.0,268.5,Jul-20,1272562,2020-03-21 14:50:09:874,0.165,0.1394,9.8186,0.0035,0.0042,9.8067,0.0085,-0.009,-0.0128,-8.67,-15.96,-30.11,100.02,-11.28,4.11
2546,51.048824,-3.912405,172,25.96,11.0,268.5,Aug-21,1273062,2020-03-21 14:50:10:374,-0.3104,0.6463,9.3924,0.0013,0.0005,9.8067,-0.0106,0.0017,-0.0064,-7.92,-15.58,-30.55,96.36,-11.28,4.7
2547,51.048824,-3.912405,172,25.96,11.0,268.5,Aug-21,1273562,2020-03-21 14:50:10:874,0.1231,0.173,9.6247,0.0004,0.0034,9.8066,0.0245,0.0209,-0.0107,-7.92,-15.96,-30.11,96.85,-11.36,4.56
2548,51.048824,-3.912405,172,25.96,11.0,268.5,Aug-21,1274062,2020-03-21 14:50:11:374,0.5096,0.159,8.9208,-0.008,0.0017,9.8066,0.0661,0.0049,-0.0149,-8.3,-15.96,-30.11,96.79,-11.4,4.69
2549,51.048824,-3.912405,172,25.96,11.0,268.5,Aug-21,1274562,2020-03-21 14:50:11:874,0.0674,-0.342,10.3782,-0.0062,-0.0089,9.8066,-0.0277,0.0294,0.016,-8.67,-15.96,-30.11,99.73,-11.43,4.71
2550,51.048824,-3.912405,172,25.96,11.0,268.5,Aug-21,1275062,2020-03-21 14:50:12:374,0.3556,0.366,9.7853,0.0064,-0.0017,9.8066,0.0991,0.0155,-0.0192,-8.3,-16.33,-29.67,96.81,-11.38,4.2
2551,51.048824,-3.912405,172,25.96,11.0,268.5,Aug-21,1275562,2020-03-21 14:50:12:874,-0.4486,0.1807,9.4353,0.0031,0.0011,9.8067,-0.0085,-0.0143,-0.0128,-8.67,-15.58,-29.67,99.66,-11.48,4.44
2552,51.048824,-3.912405,172,25.96,11.0,268.5,Aug-21,1276062,2020-03-21 14:50:13:374,0.1921,0.8969,9.1423,0.0097,-0.0009,9.8066,0.0597,-0.0249,-0.0586,-8.67,-15.96,-30.55,98.94,-11.51,5.26
2553,51.048824,-3.912405,172,25.96,11.0,268.5,Aug-21,1276563,2020-03-21 14:50:13:875,-0.6599,0.7418,9.6487,-0.0015,0.0023,9.8067,-0.0437,-0.0015,-0.0064,-8.99,-15.96,-30.11,99.53,-11.51,5.99
2554,51.048824,-3.912405,172,25.96,11.0,268.5,Aug-21,1277062,2020-03-21 14:50:14:374,-0.074,-0.4607,10.2606,0.0003,-0.0046,9.8067,-0.0554,-0.0015,0.0,-9.74,-15.96,-30.11,102.2,-11.61,6.13
2555,51.048824,-3.912405,172,25.96,11.0,268.5,Aug-21,1277562,2020-03-21 14:50:14:874,-0.1094,-1.0735,10.066,0.0089,-0.0096,9.8066,-0.0724,-0.058,-0.0021,-9.36,-15.96,-30.11,99.32,-11.65,6.17
2556,51.048824,-3.912405,172,25.96,11.0,268.5,Aug-21,1278061,2020-03-21 14:50:15:373,0.2344,-0.0677,9.4036,0.0043,-0.0059,9.8066,0.0139,-0.009,-0.0096,-8.99,-16.33,-30.11,99.22,-11.73,5.74
2557,51.048824,-3.912405,172,25.96,11.0,268.5,Aug-21,1278562,2020-03-21 14:50:15:874,-0.2964,-0.3972,9.6208,-0.0014,-0.0058,9.8066,0.0288,-0.0207,-0.0181,-9.36,-16.33,-29.24,99.65,-11.89,4.97
2558,51.048824,-3.912405,172,25.96,11.0,268.5,Aug-21,1279062,2020-03-21 14:50:16:374,-0.0691,0.6029,9.2234,0.0073,0.0028,9.8066,0.0469,0.0006,-0.0171,-8.99,-15.58,-29.67,99.09,-11.83,5.09
2559,51.048824,-3.912405,172,25.96,11.0,268.5,Aug-21,1279562,2020-03-21 14:50:16:874,0.6454,0.3079,9.298,-0.0136,0.0023,9.8066,0.0554,0.0496,-0.0075,-9.74,-15.21,-30.11,102.49,-11.92,4.83
2560,51.048824,-3.912405,172,25.96,11.0,268.5,May-20,1280062,2020-03-21 14:50:17:374,0.4163,-0.09,10.2551,0.0242,0.0015,9.8066,0.0288,0.006,-0.0139,-9.74,-16.71,-30.55,100.38,-12.15,4.72
2561,51.048824,-3.912405,172,25.96,11.0,268.5,May-20,1280561,2020-03-21 14:50:17:873,-0.8674,-0.2414,9.8856,0.0019,0.0041,9.8066,-0.1097,0.0347,0.032,-9.74,-15.96,-30.11,101.63,-12.11,4.45
2562,51.048824,-3.912405,172,25.96,11.0,268.5,May-20,1281062,2020-03-21 14:50:18:374,-0.271,0.111,10.6928,0.0078,0.0067,9.8066,0.0096,0.023,0.0,-9.74,-16.33,-29.67,101.39,-12.27,4.38
2563,51.048824,-3.912405,172,25.96,11.0,268.5,May-20,1281562,2020-03-21 14:50:18:874,1.2691,0.2727,9.5459,0.0118,-0.0066,9.8066,0.0799,-0.0228,-0.0309,-10.49,-15.96,-29.67,101.13,-12.42,4.66
2564,51.04868,-3.918541,157,25.86,25.0,271.6,May-20,1282062,2020-03-21 14:50:19:374,-0.1907,0.5362,9.0921,0.0011,0.0015,9.8067,0.0213,-0.0292,-0.0213,-10.11,-15.96,-30.11,101.07,-12.45,4.82
2565,51.04868,-3.918541,157,25.86,25.0,271.6,May-20,1282561,2020-03-21 14:50:19:873,-0.4907,-0.151,8.9137,0.0053,0.0032,9.8066,-0.0085,0.006,-0.0128,-10.11,-15.96,-29.67,100.82,-12.6,4.88
2566,51.04868,-3.918541,157,25.86,25.0,271.6,May-20,1283062,2020-03-21 14:50:20:374,0.4187,-0.2905,9.8258,0.0036,0.0059,9.8066,-0.0106,-0.0058,-0.0117,-10.49,-16.33,-30.11,100.73,-12.64,5.33
2567,51.04868,-3.918541,157,25.86,25.0,271.6,May-20,1283561,2020-03-21 14:50:20:873,-0.4201,0.379,9.206,0.0082,0.0095,9.8066,0.0096,0.0209,-0.0128,-10.86,-15.58,-30.11,103.48,-12.68,5.65
2568,51.04868,-3.918541,157,25.86,25.0,271.6,May-20,1284062,2020-03-21 14:50:21:374,-0.901,-0.9981,9.9966,-0.0021,0.0028,9.8067,-0.1342,0.0091,0.033,-11.24,-15.96,-29.24,104.16,-12.68,5.83
2569,51.04868,-3.918541,157,25.86,25.0,271.6,May-20,1284561,2020-03-21 14:50:21:873,0.6439,-0.6169,10.1015,0.0152,0.005,9.8066,-0.0394,0.006,0.0021,-11.24,-15.58,-29.24,104.0,-12.77,6.01
2570,51.04868,-3.918541,157,25.86,25.0,271.6,May-20,1285062,2020-03-21 14:50:22:374,-0.626,-0.4495,10.0872,-0.0093,-0.0072,9.8066,-0.0245,-0.0292,-0.0085,-11.61,-15.96,-29.67,106.01,-12.84,5.68
2571,51.04868,-3.918541,157,25.86,25.0,271.6,May-20,1285562,2020-03-21 14:50:22:874,-0.3929,-0.1222,9.419,-0.0232,-0.0009,9.8066,0.0,0.0358,0.0053,-11.61,-15.58,-28.86,106.53,-12.97,5.62
2572,51.04868,-3.918541,157,25.86,25.0,271.6,May-20,1286061,2020-03-21 14:50:23:373,0.0447,0.2872,10.1089,-0.0137,0.0028,9.8066,0.0277,0.0283,-0.0096,-11.61,-15.96,-29.3,106.23,-13.22,5.29
2573,51.04868,-3.918541,157,25.86,25.0,271.6,May-20,1286561,2020-03-21 14:50:23:873,0.3776,-0.0809,10.0361,0.0068,0.0082,9.8066,0.0362,0.0283,-0.0032,-11.61,-15.96,-29.3,106.3,-13.23,4.81
2574,51.04868,-3.918541,157,25.86,25.0,271.6,Jun-20,1287062,2020-03-21 14:50:24:374,-0.2529,-0.2641,10.0942,0.0191,0.002,9.8066,0.0,-0.009,-0.0043,-11.99,-15.96,-30.17,105.4,-13.35,4.76
2575,51.04868,-3.918541,157,25.86,25.0,271.6,Jun-20,1287562,2020-03-21 14:50:24:874,-0.4503,-0.3683,9.0619,-0.0123,-0.0034,9.8066,-0.0192,-0.0207,-0.0053,-11.99,-15.96,-29.74,105.26,-13.45,4.75
2576,51.04868,-3.918541,157,25.86,25.0,271.6,Jun-20,1288061,2020-03-21 14:50:25:373,-0.1453,0.4452,9.2886,-0.0025,0.0038,9.8066,-0.0277,0.0177,0.0085,-11.99,-15.21,-29.3,106.56,-13.62,4.6
2577,51.04868,-3.918541,157,25.86,25.0,271.6,Jun-20,1288562,2020-03-21 14:50:25:874,0.9969,0.1506,10.0172,-0.0065,-0.0054,9.8066,-0.1268,-0.0175,0.0298,-11.99,-15.58,-29.74,105.13,-13.53,4.76
2578,51.04868,-3.918541,157,25.86,25.0,271.6,Jun-20,1289062,2020-03-21 14:50:26:374,-0.565,0.1216,9.8351,0.0086,0.0111,9.8066,0.0234,0.0006,-0.0139,-11.99,-15.96,-30.17,105.15,-13.59,4.13
2579,51.04868,-3.918541,157,25.86,25.0,271.6,Jun-20,1289562,2020-03-21 14:50:26:874,0.7249,-0.5075,10.0267,0.0022,-0.007,9.8066,0.0597,0.007,-0.0224,-12.36,-15.96,-30.11,104.85,-13.75,4.43
2580,51.04868,-3.918541,157,25.86,25.0,271.6,Jun-20,1290062,2020-03-21 14:50:27:374,0.417,-0.0546,9.8737,-0.0028,-0.001,9.8066,0.032,0.0209,-0.0032,-11.99,-15.58,-29.74,104.79,-13.78,4.49
2581,51.04868,-3.918541,157,25.86,25.0,271.6,Jun-20,1290562,2020-03-21 14:50:27:874,-0.0498,0.2273,9.7145,0.0043,0.0082,9.8066,-0.0202,-0.0122,-0.0043,-12.36,-15.58,-28.86,105.34,-13.91,4.52
2582,51.04868,-3.918541,157,25.86,25.0,271.6,Jun-20,1291062,2020-03-21 14:50:28:374,-0.4081,-0.31,10.5084,0.0041,0.0054,9.8066,0.0021,-0.0281,-0.0075,-12.36,-15.58,-28.86,105.0,-14.12,4.63
2583,51.04868,-3.918541,157,25.86,25.0,271.6,Jun-20,1291562,2020-03-21 14:50:28:874,0.4463,-0.2275,9.189,0.0037,0.0085,9.8066,0.0149,-0.0175,-0.0234,-12.67,-15.96,-28.86,107.66,-14.16,5.03
2584,51.04868,-3.918541,157,25.86,25.0,271.6,Jun-20,1292062,2020-03-21 14:50:29:374,0.3067,0.0197,9.0227,-0.0015,0.0039,9.8066,0.0266,0.0155,-0.0128,-12.67,-15.96,-29.3,107.45,-14.27,5.23
2585,51.04868,-3.918541,157,25.86,25.0,271.6,Jun-20,1292562,2020-03-21 14:50:29:874,0.5265,0.1384,10.0387,-0.0021,0.0042,9.8066,-0.0597,0.007,0.0064,-12.67,-15.96,-28.86,107.56,-14.21,5.12
2586,51.04868,-3.918541,157,25.86,25.0,271.6,Jun-20,1293062,2020-03-21 14:50:30:374,-0.6636,0.7419,10.3427,0.0034,0.0044,9.8067,-0.1033,-0.0058,0.0224,-12.67,-16.33,-29.74,106.54,-14.36,5.26
2587,51.04868,-3.918541,157,25.86,25.0,271.6,Jun-20,1293561,2020-03-21 14:50:30:873,-1.0494,0.2862,9.6923,-0.0006,0.0036,9.8067,0.0181,0.0049,-0.0117,-12.67,-15.21,-29.3,108.13,-14.36,5.42
2588,51.04868,-3.918541,157,25.86,25.0,271.6,Jun-20,1294062,2020-03-21 14:50:31:374,0.4023,0.2953,9.7618,0.0102,0.0005,9.8066,0.0266,0.0347,-0.0128,-13.05,-15.21,-29.3,108.04,-14.4,5.54
2589,51.04868,-3.918541,157,25.86,25.0,271.6,Jun-20,1294562,2020-03-21 14:50:31:874,0.2937,0.2942,9.7763,0.0019,-0.0003,9.8067,-0.0128,-0.0111,-0.0043,-13.42,-15.58,-29.74,106.24,-14.51,5.72
2590,51.04868,-3.918541,157,25.86,25.0,271.6,Apr-20,1295061,2020-03-21 14:50:32:373,0.1305,0.1425,9.2323,0.0002,-0.0007,9.8067,-0.0256,0.0081,0.0,-13.05,-15.96,-29.67,106.29,-14.52,5.33
2591,51.04868,-3.918541,157,25.86,25.0,271.6,Apr-20,1295562,2020-03-21 14:50:32:874,-0.5469,0.1137,9.7566,-0.0039,0.0084,9.8066,0.0096,-0.0154,-0.0149,-12.67,-15.21,-29.3,108.12,-14.42,5.04
2592,51.04868,-3.918541,157,25.86,25.0,271.6,Jul-20,1296062,2020-03-21 14:50:33:374,0.686,-0.6096,10.5313,-0.0034,-0.0173,9.8066,0.0692,0.007,-0.0288,-13.05,-15.96,-29.3,107.47,-14.3,4.95
2593,51.04868,-3.918541,157,25.86,25.0,271.6,Jul-20,1296562,2020-03-21 14:50:33:874,-0.7813,-1.2195,9.8331,0.0002,-0.011,9.8066,0.0831,0.0123,-0.0202,-13.42,-15.96,-29.74,106.5,-14.43,4.9
2594,51.04868,-3.918541,157,25.86,25.0,271.6,Aug-20,1297062,2020-03-21 14:50:34:374,-0.5232,-0.2086,10.0098,0.0001,-0.0049,9.8067,-0.016,-0.0196,-0.0021,-13.8,-14.83,-29.24,110.99,-14.36,5.14
2595,51.04868,-3.918541,157,25.86,25.0,271.6,Aug-20,1297562,2020-03-21 14:50:34:874,0.3195,0.395,9.8142,0.0065,-0.0064,9.8066,-0.0043,-0.0377,-0.0085,-13.42,-15.58,-29.3,107.28,-14.42,4.99
2596,51.048977,-3.92458,150,26.18,26.0,276.2,Aug-20,1298062,2020-03-21 14:50:35:374,-0.5154,-0.205,9.8699,-0.014,-0.0071,9.8066,-0.0117,-0.0004,0.0053,-13.8,-16.33,-29.24,110.54,-14.08,4.7
2597,51.048977,-3.92458,150,26.18,26.0,276.2,Aug-20,1298562,2020-03-21 14:50:35:874,-0.7708,0.4751,10.1521,0.0018,-0.0037,9.8067,0.0245,-0.0058,-0.0085,-13.05,-15.58,-28.86,107.63,-14.19,4.92
2598,51.048977,-3.92458,150,26.18,26.0,276.2,Aug-20,1299062,2020-03-21 14:50:36:374,0.4386,-0.4319,9.3705,-0.0044,-0.0104,9.8066,0.0021,-0.0004,-0.0053,-13.8,-15.58,-29.67,109.88,-13.99,4.9
2599,51.048977,-3.92458,150,26.18,26.0,276.2,Aug-20,1299562,2020-03-21 14:50:36:874,0.483,0.0995,9.7194,-0.0013,-0.0004,9.8067,0.0139,-0.0026,0.0,-13.42,-15.21,-28.86,108.77,-14.01,4.99
2600,51.048977,-3.92458,150,26.18,26.0,276.2,Aug-20,1300062,2020-03-21 14:50:37:374,0.744,0.8018,10.0561,0.0115,0.0075,9.8066,0.0437,-0.0132,-0.016,-13.42,-15.96,-28.86,108.08,-13.9,4.81
2601,51.048977,-3.92458,150,26.18,26.0,276.2,Aug-20,1300562,2020-03-21 14:50:37:874,-0.8036,0.0698,10.2814,-0.0019,-0.0028,9.8066,0.0384,-0.0143,-0.0192,-13.42,-15.58,-29.67,107.12,-14.05,4.74
2602,51.048977,-3.92458,150,26.18,26.0,276.2,Aug-20,1301062,2020-03-21 14:50:38:374,0.0612,0.1692,9.6354,0.0,-0.0039,9.8066,-0.0437,0.007,0.0075,-13.05,-15.58,-29.3,108.0,-13.98,4.65
2603,51.048977,-3.92458,150,26.18,26.0,276.2,Aug-20,1301562,2020-03-21 14:50:38:874,0.3513,-0.1808,9.7205,0.0095,-0.0036,9.8066,0.0085,-0.0111,-0.0053,-13.05,-15.96,-28.86,108.15,-13.9,4.53
2604,51.048977,-3.92458,150,26.18,26.0,276.2,Aug-20,1302062,2020-03-21 14:50:39:374,1.0252,-0.0789,9.8848,-0.0016,-0.0034,9.8067,0.0607,-0.0484,-0.0277,-13.42,-15.96,-29.67,107.57,-13.79,4.47
2605,51.048977,-3.92458,150,26.18,26.0,276.2,Aug-20,1302562,2020-03-21 14:50:39:874,-0.3257,-0.3873,9.2563,0.0087,0.0054,9.8066,-0.0447,-0.0132,0.0043,-14.17,-16.33,-29.67,110.44,-13.74,4.28
2606,51.048977,-3.92458,150,26.18,26.0,276.2,Apr-20,1303061,2020-03-21 14:50:40:373,-0.7764,-0.4367,9.5043,0.0034,0.0073,9.8066,-0.0746,0.0177,0.016,-13.42,-16.33,-30.11,107.92,-13.6,4.21
2607,51.048977,-3.92458,150,26.18,26.0,276.2,Apr-20,1303561,2020-03-21 14:50:40:873,-1.0836,-0.4026,9.7569,-0.001,0.0011,9.8067,-0.0863,0.0091,0.0213,-13.8,-15.96,-30.11,110.55,-13.62,4.47
2608,51.048977,-3.92458,150,26.18,26.0,276.2,May-20,1304062,2020-03-21 14:50:41:374,-0.1665,-0.0906,10.2016,0.0099,0.0009,9.8066,-0.0128,-0.0175,-0.0064,-13.42,-16.33,-30.11,107.76,-13.68,4.42
2609,51.048977,-3.92458,150,26.18,26.0,276.2,May-20,1304561,2020-03-21 14:50:41:873,-1.0576,-0.0851,9.0837,0.0001,0.0027,9.8066,-0.0096,-0.0281,-0.0043,-13.8,-16.71,-29.24,110.45,-13.66,3.75
2610,51.048977,-3.92458,150,26.18,26.0,276.2,May-20,1305062,2020-03-21 14:50:42:374,-0.4691,-0.3633,9.0961,0.0056,0.0046,9.8066,0.0085,-0.0303,-0.0085,-13.8,-15.96,-29.67,110.58,-13.69,4.06
2611,51.048977,-3.92458,150,26.18,26.0,276.2,May-20,1305562,2020-03-21 14:50:42:874,-0.2417,-0.1199,8.9453,0.0052,0.0063,9.8066,0.0117,-0.0303,-0.0085,-13.8,-16.33,-28.42,112.22,-13.55,4.05
2612,51.048977,-3.92458,150,26.18,26.0,276.2,May-20,1306062,2020-03-21 14:50:43:374,-0.2854,-0.5051,9.4379,0.0068,0.0057,9.8066,-0.0192,0.007,0.0021,-13.05,-16.33,-29.74,108.04,-13.56,3.98
2613,51.048977,-3.92458,150,26.18,26.0,276.2,May-20,1306562,2020-03-21 14:50:43:874,-0.2373,0.0962,10.0356,-0.0042,-0.0012,9.8066,-0.0288,0.0145,0.0138,-13.8,-16.33,-30.17,110.7,-13.65,3.86
2614,51.048977,-3.92458,150,26.18,26.0,276.2,May-20,1307062,2020-03-21 14:50:44:374,-0.1594,-0.2287,9.4434,0.016,0.0038,9.8066,-0.032,-0.0026,0.0096,-13.8,-15.96,-29.74,110.71,-13.64,3.88
2615,51.048977,-3.92458,150,26.18,26.0,276.2,May-20,1307562,2020-03-21 14:50:44:874,-0.3951,-0.4752,8.9036,0.0068,0.0047,9.8066,-0.0043,0.0038,-0.0085,-13.42,-15.96,-29.74,108.23,-13.47,3.86
2616,51.048977,-3.92458,150,26.18,26.0,276.2,May-20,1308062,2020-03-21 14:50:45:374,-1.0177,-0.7924,9.1001,-0.0086,-0.0012,9.8066,-0.081,0.0006,0.0138,-13.8,-16.33,-30.17,110.89,-13.43,4.32
2617,51.048977,-3.92458,150,26.18,26.0,276.2,May-20,1308561,2020-03-21 14:50:45:873,-0.9216,-0.1778,8.653,-0.0173,-0.0019,9.8066,-0.0405,-0.0079,0.0106,-13.42,-15.96,-30.17,108.37,-13.29,4.35
2618,51.048977,-3.92458,150,26.18,26.0,276.2,May-20,1309062,2020-03-21 14:50:46:374,-0.2985,0.5199,9.8442,0.0113,0.0081,9.8066,-0.0128,-0.0079,0.0011,-13.8,-15.96,-30.17,111.28,-13.21,4.11
2619,51.048977,-3.92458,150,26.18,26.0,276.2,May-20,1309562,2020-03-21 14:50:46:874,0.3563,0.42,9.4856,-0.0053,-0.0026,9.8066,-0.0064,-0.0154,-0.0043,-13.8,-15.58,-29.3,111.9,-13.24,4.23
2620,51.048977,-3.92458,150,26.18,26.0,276.2,May-20,1310062,2020-03-21 14:50:47:374,-1.3818,0.249,8.9182,-0.0016,0.0043,9.8067,0.0479,0.0123,-0.0075,-13.05,-16.33,-30.17,108.7,-13.13,4.05
2621,51.048977,-3.92458,150,26.18,26.0,276.2,May-20,1310562,2020-03-21 14:50:47:874,0.4021,0.2103,9.7723,-0.0061,-0.0012,9.8066,-0.0032,-0.0217,0.0032,-13.42,-15.58,-29.74,108.72,-13.11,4.09
2622,51.048977,-3.92458,150,26.18,26.0,276.2,Jul-20,1311061,2020-03-21 14:50:48:373,-0.4422,0.829,9.5009,-0.0005,0.0039,9.8067,0.0032,-0.0047,0.0085,-13.42,-15.96,-29.3,109.48,-13.12,3.87
2623,51.048977,-3.92458,150,26.18,26.0,276.2,Jul-20,1311562,2020-03-21 14:50:48:874,0.5673,-0.2442,10.1854,0.0099,-0.0057,9.8066,0.0458,-0.0303,-0.0224,-14.17,-15.58,-30.55,110.55,-13.27,3.93
2624,51.048977,-3.92458,150,26.18,26.0,276.2,Jul-20,1312062,2020-03-21 14:50:49:374,0.7717,0.196,10.0567,0.0088,-0.0075,9.8066,0.0075,-0.0175,-0.0053,-13.8,-15.58,-30.17,111.16,-13.23,4.42
2625,51.048977,-3.92458,150,26.18,26.0,276.2,Jul-20,1312562,2020-03-21 14:50:49:874,0.8885,0.1912,9.6604,0.0047,-0.0056,9.8066,0.0032,-0.0228,-0.0117,-13.8,-15.96,-29.74,111.09,-13.24,4.54
2626,51.0495,-3.930016,147,25.62,28.0,280.5,Aug-20,1313062,2020-03-21 14:50:50:374,-0.1463,-0.0571,9.1199,0.001,-0.0066,9.8066,-0.016,-0.0036,-0.0053,-13.8,-15.58,-29.3,111.78,-13.17,4.9
2627,51.0495,-3.930016,147,25.62,28.0,280.5,Aug-20,1313562,2020-03-21 14:50:50:874,0.6615,-0.0907,9.4315,-0.0083,-0.002,9.8066,-0.065,0.0187,0.016,-13.8,-15.96,-29.74,111.34,-13.05,4.65
2628,51.0495,-3.930016,147,25.62,28.0,280.5,Aug-20,1314062,2020-03-21 14:50:51:374,0.2572,-0.5173,9.2712,-0.0125,0.0002,9.8066,-0.033,0.007,0.0096,-13.42,-15.58,-28.86,109.35,-13.07,4.62
2629,51.0495,-3.930016,147,25.62,28.0,280.5,Aug-20,1314562,2020-03-21 14:50:51:874,-0.7556,-0.0917,9.7758,0.0017,0.0036,9.8066,-0.0138,0.0305,0.0053,-13.42,-15.58,-28.42,110.16,-13.07,4.23
2630,51.0495,-3.930016,147,25.62,28.0,280.5,Aug-20,1315061,2020-03-21 14:50:52:373,0.951,-0.0417,10.4993,0.0059,0.0053,9.8066,-0.0075,0.0091,-0.0011,-13.8,-15.96,-29.3,112.2,-13.02,4.29
2631,51.0495,-3.930016,147,25.62,28.0,280.5,Aug-20,1315562,2020-03-21 14:50:52:874,-0.2319,-0.2096,10.0665,-0.0028,-0.013,9.8066,0.0085,-0.0058,0.0032,-13.8,-15.21,-28.42,114.07,-12.98,4.33
2632,51.0495,-3.930016,147,25.62,28.0,280.5,Aug-20,1316062,2020-03-21 14:50:53:374,-0.665,0.1914,9.4623,-0.0059,-0.0035,9.8066,-0.0202,0.0006,0.0053,-13.42,-15.58,-29.74,108.68,-13.09,4.35
2633,51.0495,-3.930016,147,25.62,28.0,280.5,Aug-20,1316562,2020-03-21 14:50:53:874,-0.2736,0.3828,9.2987,-0.001,0.0057,9.8066,0.0469,0.0006,-0.0149,-13.42,-15.21,-28.42,111.09,-13.09,4.41
2634,51.0495,-3.930016,147,25.62,28.0,280.5,Aug-20,1317061,2020-03-21 14:50:54:373,-0.1922,0.1159,9.593,-0.0025,0.0044,9.8067,0.0064,0.0262,0.0032,-13.8,-15.58,-29.3,112.22,-13.0,4.3
2635,51.0495,-3.930016,147,25.62,28.0,280.5,Aug-20,1317562,2020-03-21 14:50:54:874,0.6259,-0.2185,10.836,0.0041,-0.0013,9.8066,0.0256,-0.0058,-0.0181,-13.8,-15.96,-28.86,112.28,-13.06,3.88
2636,51.0495,-3.930016,147,25.62,28.0,280.5,Aug-20,1318063,2020-03-21 14:50:55:375,-0.4586,-0.1803,9.6424,-0.0069,0.0033,9.8066,-0.032,0.0123,0.0021,-13.42,-15.58,-29.3,109.43,-13.1,4.14
2637,51.0495,-3.930016,147,25.62,28.0,280.5,Aug-20,1318562,2020-03-21 14:50:55:874,-0.0039,-0.5299,9.7323,0.0038,-0.0072,9.8066,-0.0011,-0.0271,-0.0096,-13.42,-15.58,-28.42,110.07,-13.14,4.21
2638,51.0495,-3.930016,147,25.62,28.0,280.5,Jun-20,1319062,2020-03-21 14:50:56:374,0.3032,-0.0284,9.0907,-0.001,-0.0054,9.8066,-0.0927,0.0123,0.0245,-13.8,-15.21,-28.86,113.12,-13.18,4.15
2639,51.0495,-3.930016,147,25.62,28.0,280.5,Jun-20,1319562,2020-03-21 14:50:56:874,-0.7291,-0.6503,9.7636,0.001,-0.0071,9.8066,-0.0106,-0.0154,0.0,-13.8,-15.58,-29.3,112.2,-13.11,3.88
2640,51.0495,-3.930016,147,25.62,28.0,280.5,Jul-20,1320062,2020-03-21 14:50:57:374,-0.4064,0.6523,10.0653,-0.0129,-0.0011,9.8066,-0.0639,-0.0079,0.016,-13.42,-15.58,-29.3,109.47,-13.14,3.78
2641,51.0495,-3.930016,147,25.62,28.0,280.5,Jul-20,1320562,2020-03-21 14:50:57:874,0.9853,0.5419,9.3353,0.0073,-0.0024,9.8066,0.065,-0.0047,-0.0181,-13.8,-16.33,-29.24,112.03,-13.23,3.87
2642,51.0495,-3.930016,147,25.62,28.0,280.5,Jul-20,1321062,2020-03-21 14:50:58:374,0.3819,0.6347,10.0163,-0.0001,0.0062,9.8066,-0.0192,0.039,0.0043,-14.17,-15.96,-29.3,111.91,-13.19,4.39
2643,51.0495,-3.930016,147,25.62,28.0,280.5,Jul-20,1321561,2020-03-21 14:50:58:873,0.396,-0.2249,9.9942,0.0025,-0.0037,9.8066,-0.0149,0.0028,-0.0043,-13.8,-15.21,-29.3,112.8,-13.25,4.73
2644,51.0495,-3.930016,147,25.62,28.0,280.5,Jul-20,1322062,2020-03-21 14:50:59:374,0.5644,0.5877,9.0835,0.0028,0.0105,9.8066,0.0661,-0.0239,-0.0234,-13.8,-15.21,-29.3,112.92,-13.15,4.78
2645,51.0495,-3.930016,147,25.62,28.0,280.5,Jul-20,1322562,2020-03-21 14:50:59:874,0.3901,0.6078,9.8417,-0.0005,-0.0002,9.8067,0.0458,0.0113,-0.0096,-14.17,-15.21,-28.86,112.95,-13.17,4.63
2646,51.0495,-3.930016,147,25.62,28.0,280.5,Jul-20,1323062,2020-03-21 14:51:00:374,-0.1303,-0.2228,9.5379,-0.0022,0.0,9.8067,-0.0266,0.0028,0.0011,-14.17,-15.21,-29.3,112.89,-13.22,4.61
2647,51.0495,-3.930016,147,25.62,28.0,280.5,Jul-20,1323562,2020-03-21 14:51:00:874,-0.212,-0.5178,9.3698,0.0021,-0.0003,9.8067,-0.0607,0.0241,0.0138,-14.17,-15.58,-29.3,112.16,-12.96,4.63
2648,51.0495,-3.930016,147,25.62,28.0,280.5,Jul-20,1324062,2020-03-21 14:51:01:374,-0.3583,-1.0783,9.8806,-0.0105,-0.0087,9.8066,-0.0362,-0.0207,0.0117,-14.17,-15.58,-28.86,112.33,-12.96,4.15
2649,51.0495,-3.930016,147,25.62,28.0,280.5,Jul-20,1324563,2020-03-21 14:51:01:875,-0.5275,-0.3266,9.6363,-0.0019,-0.0072,9.8066,-0.0256,0.0038,0.0032,-13.42,-15.58,-28.86,109.53,-13.07,3.92
2650,51.0495,-3.930016,147,25.62,28.0,280.5,Jul-20,1325062,2020-03-21 14:51:02:374,0.4374,-0.1969,9.5156,-0.0095,-0.0122,9.8066,-0.0043,0.0017,0.0075,-13.8,-15.21,-29.3,113.28,-13.18,3.74
2651,51.0495,-3.930016,147,25.62,28.0,280.5,Jul-20,1325562,2020-03-21 14:51:02:874,-0.0932,0.0695,8.971,-0.0084,0.003,9.8066,0.0181,-0.0079,-0.0011,-13.8,-15.96,-28.86,112.11,-13.28,3.44
2652,51.0495,-3.930016,147,25.62,28.0,280.5,Jul-20,1326061,2020-03-21 14:51:03:373,0.2865,0.2322,9.8962,-0.0092,-0.0051,9.8066,0.0352,-0.0058,-0.0064,-13.8,-15.58,-28.86,112.28,-13.12,3.63
2653,51.0495,-3.930016,147,25.62,28.0,280.5,Jul-20,1326562,2020-03-21 14:51:03:874,0.5765,0.5168,9.2947,0.0047,0.0148,9.8066,0.0447,0.0294,-0.0053,-14.17,-15.21,-28.86,113.13,-13.31,3.62
2654,51.0495,-3.930016,147,25.62,28.0,280.5,0 / 20,1327062,2020-03-21 14:51:04:374,0.6109,0.1279,8.9447,0.0151,0.0044,9.8066,0.0405,-0.0058,-0.0202,-14.17,-15.58,-29.3,112.08,-13.18,3.98
2655,51.0495,-3.930016,147,25.62,28.0,280.5,0 / 20,1327562,2020-03-21 14:51:04:874,0.3944,0.1363,9.975,0.0088,0.0056,9.8066,-0.016,-0.0036,0.0032,-13.8,-15.21,-28.86,113.36,-13.04,4.1
2656,51.0495,-3.930016,147,25.62,28.0,280.5,Apr-20,1328062,2020-03-21 14:51:05:374,-0.2434,0.3371,9.6095,-0.0055,-0.002,9.8066,0.0,0.0081,-0.0021,-14.17,-15.58,-29.3,112.12,-13.09,4.2
2657,51.0495,-3.930016,147,25.62,28.0,280.5,Apr-20,1328562,2020-03-21 14:51:05:874,0.4651,0.4079,9.54,0.0007,-0.0025,9.8066,0.0618,-0.0175,-0.0202,-13.8,-15.58,-28.86,112.14,-13.06,4.29
2658,51.0495,-3.930016,147,25.62,28.0,280.5,Jun-20,1329062,2020-03-21 14:51:06:374,0.1549,-0.6412,10.4021,-0.0032,-0.0183,9.8066,-0.0618,-0.0228,0.017,-14.17,-15.21,-29.3,113.28,-13.03,4.31
2659,51.0495,-3.930016,147,25.62,28.0,280.5,Jun-20,1329562,2020-03-21 14:51:06:874,-0.8347,-0.3173,9.363,0.0118,0.0069,9.8066,-0.0405,-0.0079,0.0011,-14.17,-15.96,-27.99,112.94,-12.99,4.24
2660,51.0495,-3.930016,147,25.62,28.0,280.5,Aug-20,1330062,2020-03-21 14:51:07:374,0.2983,-0.1472,9.9356,0.0033,0.0027,9.8066,-0.0383,0.006,0.0075,-14.17,-15.58,-29.3,112.1,-13.04,4.48
2661,51.0495,-3.930016,147,25.62,28.0,280.5,Aug-20,1330562,2020-03-21 14:51:07:874,0.3115,-0.1224,10.5716,0.0057,-0.0037,9.8066,-0.0405,-0.0058,0.0075,-14.55,-14.83,-28.86,115.84,-12.97,4.78
2662,51.050434,-3.936442,145,25.64,30.0,282.2,Aug-20,1331062,2020-03-21 14:51:08:374,-0.3257,-0.5735,9.7476,0.0024,0.0043,9.8067,-0.0586,-0.0026,0.0096,-13.8,-15.96,-29.3,112.25,-12.91,4.6
2663,51.050434,-3.936442,145,25.64,30.0,282.2,Aug-20,1331562,2020-03-21 14:51:08:874,-1.6283,-0.123,9.4681,-0.0023,0.0088,9.8066,-0.0799,0.0113,0.0149,-13.9,-15.36,-31.18,111.98,-12.91,4.39
2664,51.050434,-3.936442,145,25.64,30.0,282.2,Aug-20,1332062,2020-03-21 14:51:09:374,-0.0506,-0.6914,9.4801,-0.0037,0.001,9.8066,-0.0277,0.0209,0.0053,-14.65,-14.61,-30.74,114.65,-12.94,4.39
2665,51.050434,-3.936442,145,25.64,30.0,282.2,Aug-20,1332562,2020-03-21 14:51:09:874,-0.2838,0.7093,10.1348,-0.0061,0.0016,9.8066,-0.0298,0.0262,0.0213,-14.27,-14.99,-31.62,111.47,-12.73,4.63
2666,51.050434,-3.936442,145,25.64,30.0,282.2,Aug-20,1333062,2020-03-21 14:51:10:374,0.1303,-0.2452,10.4007,-0.0036,0.003,9.8067,0.033,-0.0249,-0.0053,-14.27,-15.36,-31.62,111.47,-12.84,4.2
2667,51.050434,-3.936442,145,25.64,30.0,282.2,Aug-20,1333561,2020-03-21 14:51:10:873,0.646,0.1465,9.4656,-0.0004,-0.0043,9.8066,-0.0266,0.0091,0.0075,-14.65,-15.74,-31.62,112.98,-12.84,4.41
2668,51.050434,-3.936442,145,25.64,30.0,282.2,Aug-20,1334062,2020-03-21 14:51:11:374,-0.0384,-0.3719,9.4053,-0.0034,0.0018,9.8066,-0.0256,0.0209,0.0085,-14.65,-15.36,-31.62,114.28,-12.8,4.17
2669,51.050434,-3.936442,145,25.64,30.0,282.2,Aug-20,1334562,2020-03-21 14:51:11:874,-0.0175,-0.1686,9.2618,0.0077,0.003,9.8066,0.0266,0.0273,-0.0171,-15.02,-14.99,-32.05,114.34,-12.78,4.12
2670,51.050434,-3.936442,145,25.64,30.0,282.2,0 / 20,1335062,2020-03-21 14:51:12:374,0.0327,-1.2663,9.7897,0.0045,-0.0005,9.8067,0.0629,-0.0154,-0.0202,-14.65,-15.36,-31.62,114.23,-12.84,4.14
2671,51.050434,-3.936442,145,25.64,30.0,282.2,0 / 20,1335562,2020-03-21 14:51:12:874,-0.0009,-0.3632,9.8791,0.0035,-0.0034,9.8066,-0.017,-0.0026,0.0032,-15.02,-15.36,-31.62,114.29,-12.81,4.12
2672,51.050434,-3.936442,145,25.64,30.0,282.2,Apr-20,1336062,2020-03-21 14:51:13:374,-0.5557,-0.0774,9.6687,-0.0066,0.0011,9.8066,0.0128,-0.0036,-0.0085,-14.65,-15.74,-32.05,112.94,-12.91,4.25
2673,51.050434,-3.936442,145,25.64,30.0,282.2,Apr-20,1336562,2020-03-21 14:51:13:874,-0.5476,-0.9425,9.2319,-0.0008,0.0037,9.8066,0.0021,0.0123,-0.0021,-14.27,-15.36,-31.62,111.49,-12.83,4.15
2674,51.050434,-3.936442,145,25.64,30.0,282.2,Jun-20,1337062,2020-03-21 14:51:14:374,0.2979,0.3157,9.057,0.0003,0.0046,9.8066,-0.0266,0.0219,0.0053,-15.02,-14.99,-32.05,114.06,-12.88,4.37
2675,51.050434,-3.936442,145,25.64,30.0,282.2,Jun-20,1337562,2020-03-21 14:51:14:874,0.2267,-0.2481,10.0172,-0.0104,-0.0062,9.8066,-0.0277,-0.0015,0.0053,-14.65,-15.36,-31.18,114.84,-12.86,4.26
2676,51.050434,-3.936442,145,25.64,30.0,282.2,Jun-20,1338062,2020-03-21 14:51:15:374,-0.3805,0.6591,9.3544,-0.0074,0.0013,9.8066,0.0128,0.0113,0.0053,-14.27,-15.74,-31.18,111.09,-12.89,4.03
2677,51.050434,-3.936442,145,25.64,30.0,282.2,Jun-20,1338562,2020-03-21 14:51:15:874,1.6252,0.6668,9.9399,0.0036,-0.0013,9.8067,-0.0288,-0.0367,-0.0043,-14.65,-15.36,-32.43,114.21,-12.87,4.09
2678,51.050434,-3.936442,145,25.64,30.0,282.2,Jun-20,1339062,2020-03-21 14:51:16:374,0.382,0.1224,9.963,0.0025,0.0055,9.8066,0.0298,0.0091,-0.0075,-15.02,-16.11,-32.43,112.84,-12.97,4.25
2679,51.050434,-3.936442,145,25.64,30.0,282.2,Jun-20,1339561,2020-03-21 14:51:16:873,0.3702,-0.0954,9.2413,-0.0017,0.0024,9.8067,0.0202,-0.0015,-0.0032,-15.4,-15.74,-32.05,112.72,-13.01,4.4
2680,51.050434,-3.936442,145,25.64,30.0,282.2,Jun-20,1340061,2020-03-21 14:51:17:373,-0.3147,-0.1467,8.3815,0.0281,0.0235,9.8066,0.1609,0.04,-0.0447,-15.4,-14.99,-32.05,113.69,-12.95,4.91
2681,51.050434,-3.936442,145,25.64,30.0,282.2,Jun-20,1340562,2020-03-21 14:51:17:874,-0.4933,-0.2952,9.6311,0.0147,0.0148,9.8066,0.0107,0.0187,-0.0064,-15.02,-14.61,-32.87,112.64,-12.94,5.77
2682,51.050434,-3.936442,145,25.64,30.0,282.2,0 / 20,1341062,2020-03-21 14:51:18:374,-1.0752,0.5028,10.5238,-0.0093,0.0013,9.8066,-0.0106,0.006,0.0053,-15.02,-13.86,-32.93,113.24,-12.94,6.84
2683,51.050434,-3.936442,145,25.64,30.0,282.2,0 / 20,1341562,2020-03-21 14:51:18:874,0.334,0.2673,9.7193,0.0048,0.0035,9.8066,0.0522,0.0102,-0.0117,-15.4,-13.17,-33.37,114.44,-12.92,6.78
2684,51.05111,-3.940336,145,25.75,22.0,284.6,Apr-20,1342062,2020-03-21 14:51:19:374,-0.0134,0.7119,8.4493,-0.011,0.0089,9.8066,0.081,-0.0132,-0.0266,-15.4,-13.17,-32.93,114.32,-12.92,7.01
2685,51.05111,-3.940336,145,25.75,22.0,284.6,Apr-20,1342562,2020-03-21 14:51:19:874,-0.3225,0.5163,9.828,0.0014,0.0022,9.8066,0.0373,-0.0132,-0.0064,-15.77,-13.55,-32.93,115.47,-13.05,7.21
2686,51.05111,-3.940336,145,25.75,22.0,284.6,Jun-20,1343062,2020-03-21 14:51:20:374,-0.7753,-0.4292,9.52,-0.0044,0.0061,9.8066,0.0565,-0.0036,-0.016,-15.77,-13.55,-33.74,114.69,-13.11,7.1
2687,51.05111,-3.940336,145,25.75,22.0,284.6,Jun-20,1343561,2020-03-21 14:51:20:873,-0.6202,0.4025,9.7282,-0.0014,-0.0043,9.8066,-0.0021,-0.026,-0.0011,-15.77,-13.17,-33.37,116.36,-13.14,7.53
2688,51.05111,-3.940336,145,25.75,22.0,284.6,Jun-20,1344062,2020-03-21 14:51:21:374,0.8444,0.1044,9.3255,0.0139,0.0089,9.8066,-0.0597,0.0166,0.0128,-15.02,-13.55,-33.3,112.75,-13.1,7.38
2689,51.05111,-3.940336,145,25.75,22.0,284.6,Jun-20,1344561,2020-03-21 14:51:21:873,0.0539,-0.3807,9.7835,-0.0028,-0.0023,9.8067,0.0362,0.0102,0.0011,-15.4,-13.55,-33.37,112.7,-13.16,7.27
2690,51.05111,-3.940336,145,25.75,22.0,284.6,Jun-20,1345065,2020-03-21 14:51:22:377,-0.9103,-0.2793,9.3818,-0.0036,0.0048,9.8066,-0.033,-0.0207,0.017,-15.4,-13.17,-32.93,113.84,-13.18,7.12
2691,51.05111,-3.940336,145,25.75,22.0,284.6,Jun-20,1345561,2020-03-21 14:51:22:873,-0.2967,0.3244,9.6555,-0.0018,0.0002,9.8067,-0.0032,0.0102,0.0096,-15.4,-13.17,-32.93,114.02,-13.12,6.94
2692,51.05111,-3.940336,145,25.75,22.0,284.6,Jun-20,1346062,2020-03-21 14:51:23:374,-0.5862,-0.5294,9.3071,0.0219,0.0148,9.8066,0.0117,0.0006,0.0021,-15.4,-13.55,-32.49,113.91,-13.07,6.56
2693,51.05111,-3.940336,145,25.75,22.0,284.6,Jun-20,1346562,2020-03-21 14:51:23:874,0.2715,0.2824,9.248,-0.0054,-0.0056,9.8066,-0.0586,-0.0154,0.0011,-15.02,-13.55,-32.93,112.78,-13.14,7.17
2694,51.05111,-3.940336,145,25.75,22.0,284.6,Jun-20,1347062,2020-03-21 14:51:24:374,0.5584,-0.119,8.9641,0.005,0.0,9.8066,0.1065,0.0017,-0.0426,-15.77,-13.55,-32.93,115.29,-13.17,7.23
2695,51.05111,-3.940336,145,25.75,22.0,284.6,Jun-20,1347562,2020-03-21 14:51:24:874,0.4786,0.0024,9.0464,-0.0008,0.0028,9.8067,-0.0383,0.0337,0.016,-15.4,-13.17,-33.74,113.16,-13.03,7.4
2696,51.05111,-3.940336,145,25.75,22.0,284.6,Jun-20,1348062,2020-03-21 14:51:25:374,-0.4556,0.0587,10.2088,0.0033,0.0049,9.8066,0.0266,-0.0335,-0.0075,-16.15,-13.17,-32.87,116.42,-13.1,7.55
2697,51.05111,-3.940336,145,25.75,22.0,284.6,Jun-20,1348562,2020-03-21 14:51:25:874,0.2737,-0.3329,9.5807,-0.0042,-0.0026,9.8066,-0.0106,0.0123,0.0096,-15.4,-13.17,-32.87,113.92,-13.02,7.51
2698,51.05111,-3.940336,145,25.75,22.0,284.6,Jun-20,1349062,2020-03-21 14:51:26:374,-0.3968,-0.7392,9.1636,-0.0133,-0.001,9.8066,-0.0639,0.0187,0.016,-15.77,-13.17,-33.3,116.52,-13.26,6.9
2699,51.05111,-3.940336,145,25.75,22.0,284.6,Jun-20,1349561,2020-03-21 14:51:26:873,0.3097,0.0799,8.7697,0.0019,0.0017,9.8067,-0.0447,0.0262,0.0202,-15.4,-13.86,-32.87,112.99,-13.06,6.98
2700,51.05111,-3.940336,145,25.75,22.0,284.6,Jun-20,1350064,2020-03-21 14:51:27:376,-0.5831,0.5177,10.2019,0.0007,0.0066,9.8066,-0.0245,0.0113,0.017,-15.4,-13.49,-32.49,114.91,-13.06,6.95
2701,51.05111,-3.940336,145,25.75,22.0,284.6,Jun-20,1350561,2020-03-21 14:51:27:873,-0.051,0.6583,9.7392,-0.0032,-0.0048,9.8066,0.0554,-0.0239,-0.0139,-15.77,-12.05,-32.49,118.74,-13.13,7.13
2702,51.05111,-3.940336,145,25.75,22.0,284.6,Jun-20,1351062,2020-03-21 14:51:28:374,0.2952,0.2245,9.6669,0.0011,-0.0038,9.8067,0.0234,-0.026,-0.0192,-15.77,-13.55,-32.93,115.36,-13.18,7.04
2703,51.05111,-3.940336,145,25.75,22.0,284.6,Jun-20,1351562,2020-03-21 14:51:28:874,0.592,0.5425,9.3789,0.0027,0.004,9.8066,0.0799,-0.0004,-0.0277,-15.77,-13.55,-32.49,115.5,-13.46,7.43
2704,51.05111,-3.940336,145,25.75,22.0,284.6,0 / 20,1352062,2020-03-21 14:51:29:374,0.5021,0.094,7.6641,-0.0029,0.0073,9.8066,0.0405,0.0017,-0.0192,-15.4,-13.55,-32.05,113.38,-13.21,7.27
2705,51.05111,-3.940336,145,25.75,22.0,284.6,0 / 20,1352561,2020-03-21 14:51:29:873,-1.0318,-0.1744,9.311,-0.0118,0.0044,9.8066,-0.0149,0.0219,0.0032,-16.46,-11.67,-31.62,118.34,-13.3,7.33
2706,51.05111,-3.940336,145,25.75,22.0,284.6,Jul-20,1353062,2020-03-21 14:51:30:374,-0.5377,-0.2527,9.97,-0.0052,0.0006,9.8066,-0.0224,0.0091,0.0075,-10.59,-7.61,-35.05,104.0,-13.1,7.21
2707,51.05111,-3.940336,145,25.75,22.0,284.6,Jul-20,1353562,2020-03-21 14:51:30:874,-0.1827,0.2629,8.7866,-0.0024,-0.001,9.8067,0.0639,-0.0079,-0.0213,-15.02,-13.55,-32.05,113.59,-13.18,6.86
2708,51.052017,-3.944785,132,26.67,13.0,287.6,Aug-20,1354062,2020-03-21 14:51:31:374,-0.0679,0.4967,9.112,-0.0174,0.0201,9.8066,0.0298,-0.0143,-0.0032,-15.4,-13.86,-32.49,113.55,-13.31,6.49
2709,51.052017,-3.944785,132,26.67,13.0,287.6,Aug-20,1354562,2020-03-21 14:51:31:874,0.5392,0.4957,9.2383,-0.0206,-0.0014,9.8066,-0.081,0.0113,0.0234,-15.02,-13.17,-32.93,114.21,-12.99,6.99
2710,51.052017,-3.944785,132,26.67,13.0,287.6,Aug-20,1355062,2020-03-21 14:51:32:374,0.0466,0.6105,10.7167,0.0158,-0.0059,9.8066,0.0107,-0.0292,0.0021,-15.4,-12.8,-32.49,114.77,-13.15,6.94
2711,51.052017,-3.944785,132,26.67,13.0,287.6,Aug-20,1355561,2020-03-21 14:51:32:873,1.1826,0.579,9.5317,0.0114,-0.0032,9.8066,-0.032,-0.0207,0.0117,-15.4,-13.55,-32.49,113.89,-12.99,6.87
2712,51.052017,-3.944785,132,26.67,13.0,287.6,Aug-20,1356062,2020-03-21 14:51:33:374,0.2397,-0.2869,10.1879,0.021,0.0014,9.8066,0.0906,-0.0143,-0.0234,-15.4,-13.55,-32.49,113.83,-13.02,6.9
2713,51.052017,-3.944785,132,26.67,13.0,287.6,Aug-20,1356562,2020-03-21 14:51:33:874,-0.632,0.2871,9.1671,0.0019,0.0059,9.8066,0.016,0.039,0.0138,-15.02,-13.17,-32.05,115.21,-12.83,7.07
2714,51.052017,-3.944785,132,26.67,13.0,287.6,Aug-20,1357062,2020-03-21 14:51:34:374,-0.086,0.0246,9.2104,0.0031,0.0067,9.8066,0.0021,0.0145,-0.0053,-15.02,-13.17,-32.05,115.21,-12.82,7.09
2715,51.052017,-3.944785,132,26.67,13.0,287.6,Aug-20,1357562,2020-03-21 14:51:34:874,-0.0708,-0.3829,9.9911,0.0025,-0.0072,9.8066,0.0256,-0.026,-0.0053,-14.65,-13.49,-32.87,114.44,-12.78,7.23
2716,51.052017,-3.944785,132,26.67,13.0,287.6,Aug-20,1358062,2020-03-21 14:51:35:374,-0.6497,-0.4407,9.1622,-0.0005,0.0026,9.8067,0.1396,0.007,-0.0277,-15.4,-13.49,-32.49,115.05,-12.88,7.24
2717,51.052017,-3.944785,132,26.67,13.0,287.6,Aug-20,1358561,2020-03-21 14:51:35:873,-0.1421,-0.0954,9.8735,-0.0077,-0.0039,9.8066,0.0128,-0.0111,-0.0011,-14.65,-13.17,-32.93,114.46,-12.86,6.95
2718,51.052017,-3.944785,132,26.67,13.0,287.6,Aug-20,1359062,2020-03-21 14:51:36:374,0.2656,-0.1382,10.0743,0.0061,0.0008,9.8066,-0.0639,-0.0122,0.0096,-15.02,-13.49,-32.49,115.33,-12.85,6.77
2719,51.052017,-3.944785,132,26.67,13.0,287.6,Aug-20,1359561,2020-03-21 14:51:36:873,0.9498,-0.6102,9.5664,0.0002,-0.0001,9.8067,-0.0437,0.0507,0.017,-15.77,-13.17,-33.74,116.54,-12.77,6.92
2720,51.052017,-3.944785,132,26.67,13.0,287.6,May-20,1360062,2020-03-21 14:51:37:374,0.2567,0.6179,10.0803,0.0041,-0.0017,9.8066,-0.0266,-0.0026,0.0053,-14.65,-13.49,-32.49,115.46,-12.74,6.87
2721,51.052017,-3.944785,132,26.67,13.0,287.6,May-20,1360562,2020-03-21 14:51:37:874,-0.119,-0.0997,9.9525,-0.0057,-0.0022,9.8066,-0.033,-0.0122,0.0096,-15.4,-13.49,-32.87,114.47,-12.82,7.04
2722,51.052017,-3.944785,132,26.67,13.0,287.6,Jun-20,1361062,2020-03-21 14:51:38:374,0.6893,0.199,9.8408,-0.0195,-0.0112,9.8066,-0.0245,0.0123,0.0021,-15.02,-13.49,-32.05,115.81,-12.61,6.6
