,GPS LATITUDE (degrees), GPS LONGITUDE (degrees), GPS ALTITUDE (m), GPS SPEED (Kmh), GPS ACCURACY (m), GPS ORIENTATION (Â°),GPS SATELLITES IN RANGE, TIME SINCE START (ms), DATE (YYYY-MO-DD HH-MI-SS_SSS), ACCELEROMETER X (m/s²) , ACCELEROMETER Y (m/s²), ACCELEROMETER Z (m/s²), GRAVITY X (m/s²), GRAVITY Y (m/s²), GRAVITY Z (m/s²), GYROSCOPE Yaw (rad/s), GYROSCOPE Pitch (rad/s), GYROSCOPE Roll (rad/s), MAGNETIC FIELD X (Î¼T), MAGNETIC FIELD Y (Î¼T), MAGNETIC FIELD Z (Î¼T), ORIENTATION (Yaw) (Â°), ORIENTATION (Pitch) (Â°), ORIENTATION (Roll ) (Â°)
68536,50.43396,-4.772926,172,25.34,10.0,249.3,Aug-21,6787841,2019-08-17 09:13:37:208,0.1328,0.2756,9.908,0.0153,0.0035,9.8066,0.0197,0.0159,-0.0059,-7.07,18.3,-28.7,247.29,1.51,-1.04
68537,50.43396,-4.772926,172,25.34,10.0,249.3,Aug-21,6787941,2019-08-17 09:13:37:308,-0.1113,0.1133,9.955,0.0281,0.0086,9.8066,-0.0262,0.0233,0.0058,-7.07,17.93,-29.14,247.29,1.51,-1.04
68538,50.43396,-4.772926,172,25.34,10.0,249.3,Aug-21,6788042,2019-08-17 09:13:37:409,-0.0587,-0.0534,9.7967,0.0176,-0.0175,9.8066,0.0015,-0.0257,0.009,-7.07,18.68,-28.2,248.33,1.62,-1.17
68539,50.43396,-4.772926,172,25.34,10.0,249.3,Aug-21,6788141,2019-08-17 09:13:37:508,0.0723,-0.0767,10.0265,0.0327,-0.0282,9.8066,0.0015,-0.0257,0.009,-6.7,18.3,-28.64,247.47,1.54,-1.41
68540,50.43396,-4.772926,172,25.34,10.0,249.3,Aug-21,6788241,2019-08-17 09:13:37:608,0.0823,0.0663,10.1033,-0.0044,0.0165,9.8066,0.0335,-0.0395,-0.0027,-6.7,18.3,-28.64,247.47,1.54,-1.41
68541,50.43396,-4.772926,172,25.34,10.0,249.3,Aug-21,6788340,2019-08-17 09:13:37:707,0.2123,-0.2432,9.7561,-0.0032,0.0081,9.8066,-0.0091,0.0191,-0.0016,-6.7,18.3,-28.64,247.4,1.57,-1.38
68542,50.43396,-4.772926,172,25.34,10.0,249.3,Aug-21,6788441,2019-08-17 09:13:37:808,0.4395,-0.041,9.5783,0.0023,0.002,9.8066,0.025,-0.0086,-0.0208,-7.07,18.61,-29.14,248.51,1.52,-1.38
68543,50.43396,-4.772926,172,25.34,10.0,249.3,Aug-21,6788541,2019-08-17 09:13:37:908,0.2692,-0.1673,10.5275,0.0041,0.0055,9.8066,0.0282,0.0233,-0.0144,-7.07,18.61,-29.14,248.51,1.52,-1.38
68544,50.433884,-4.773263,172,25.44,10.0,249.2,Aug-21,6788641,2019-08-17 09:13:38:008,-0.3706,-0.1648,10.1817,-0.0056,-0.0017,9.8066,-0.0112,0.0532,-0.0101,-6.7,18.68,-27.83,248.51,1.56,-1.39
68545,50.433884,-4.773263,172,25.44,10.0,249.2,Aug-21,6788740,2019-08-17 09:13:38:107,0.2888,-0.1238,9.1485,0.0184,-0.0016,9.8066,-0.023,0.0052,0.008,-7.07,18.68,-29.02,248.48,1.53,-1.36
68546,50.433884,-4.773263,172,25.44,10.0,249.2,Aug-21,6788841,2019-08-17 09:13:38:208,0.2813,0.1182,9.9618,0.0369,0.0035,9.8066,0.0111,0.0265,-0.0016,-7.07,18.68,-29.02,248.48,1.53,-1.36
68547,50.433884,-4.773263,172,25.44,10.0,249.2,Aug-21,6788941,2019-08-17 09:13:38:308,-0.3034,0.2984,10.3544,-0.0028,0.0124,9.8066,0.009,-0.0193,0.0016,-6.7,17.55,-28.64,247.42,1.63,-1.56
68548,50.433884,-4.773263,172,25.44,10.0,249.2,Aug-21,6789042,2019-08-17 09:13:38:409,-0.4581,-0.0281,10.1125,-0.0144,0.0032,9.8066,0.009,-0.0193,0.0016,-6.7,18.3,-28.64,247.42,1.63,-1.56
68549,50.433884,-4.773263,172,25.44,10.0,249.2,Aug-21,6789141,2019-08-17 09:13:38:508,-0.2663,-0.0763,9.9003,-0.0155,-0.0247,9.8066,0.0207,0.05,0.0037,-6.7,18.99,-28.64,248.43,1.62,-1.47
68550,50.433884,-4.773263,172,25.44,10.0,249.2,Aug-21,6789241,2019-08-17 09:13:38:608,-0.2798,-0.0606,10.7383,-0.0151,-0.0308,9.8066,-0.0262,0.0042,-0.0112,-6.32,18.68,-28.64,251.23,1.42,-1.46
68551,50.433884,-4.773263,172,25.44,10.0,249.2,Aug-21,6789340,2019-08-17 09:13:38:707,0.1346,-0.0965,9.9517,0.0083,-0.0034,9.8066,0.0197,-0.0342,0.0026,-6.7,18.3,-28.58,247.62,1.48,-1.56
68552,50.433884,-4.773263,172,25.44,10.0,249.2,Aug-21,6789441,2019-08-17 09:13:38:808,0.5186,0.1174,9.1105,0.0121,-0.0088,9.8066,-0.0027,0.0287,0.0144,-6.7,18.3,-28.58,247.62,1.48,-1.56
68553,50.433884,-4.773263,172,25.44,10.0,249.2,Aug-21,6789541,2019-08-17 09:13:38:908,0.0721,-0.2454,10.1387,-0.0008,-0.0064,9.8066,-0.0112,-0.0353,-0.0165,-7.07,18.3,-28.58,247.7,1.46,-1.65
68554,50.433792,-4.773595,172,25.43,10.0,249.4,Aug-21,6789642,2019-08-17 09:13:39:009,0.2519,-0.2513,9.3987,0.0146,-0.0094,9.8066,0.0399,-0.0534,-0.0059,-6.7,18.68,-29.02,248.8,1.44,-1.75
68555,50.433792,-4.773595,172,25.43,10.0,249.4,Aug-21,6789741,2019-08-17 09:13:39:108,0.0246,-0.0023,9.5437,0.0008,0.018,9.8066,0.0399,-0.0534,-0.0059,-6.7,18.68,-29.02,248.8,1.44,-1.75
68556,50.433792,-4.773595,172,25.43,10.0,249.4,Aug-21,6789841,2019-08-17 09:13:39:208,-0.1179,-0.0049,10.6927,-0.011,-0.0002,9.8066,-0.0027,0.0159,-0.0006,-6.7,18.3,-28.58,247.63,1.54,-1.71
68557,50.433792,-4.773595,172,25.43,10.0,249.4,Aug-21,6789942,2019-08-17 09:13:39:309,-0.1055,0.1609,9.7759,-0.02,0.0046,9.8066,0.0111,0.0127,-0.0027,-6.7,18.3,-28.52,247.59,1.52,-1.6
68558,50.433792,-4.773595,172,25.43,10.0,249.4,Aug-21,6790041,2019-08-17 09:13:39:408,-0.1574,0.2524,9.7389,-0.0051,0.0076,9.8066,-0.0198,0.0308,0.0186,-6.7,18.68,-28.14,248.6,1.55,-1.55
68559,50.433792,-4.773595,172,25.43,10.0,249.4,Aug-21,6790141,2019-08-17 09:13:39:508,-0.0093,0.126,9.6166,0.0033,-0.0236,9.8066,-0.0134,0.0063,-0.0133,-6.7,18.3,-28.52,248.6,1.55,-1.55
68560,50.433792,-4.773595,172,25.43,10.0,249.4,Aug-21,6790241,2019-08-17 09:13:39:608,-0.0776,0.3253,10.5034,0.0155,-0.0256,9.8066,0.0207,-0.0161,0.0144,-6.7,18.3,-28.52,248.6,1.55,-1.55
68561,50.433792,-4.773595,172,25.43,10.0,249.4,Aug-21,6790340,2019-08-17 09:13:39:707,-0.141,0.2203,10.128,0.0125,0.0068,9.8066,0.0069,-0.0129,-0.0048,-6.7,18.3,-28.52,247.74,1.44,-1.69
68562,50.433792,-4.773595,172,25.43,10.0,249.4,Aug-21,6790441,2019-08-17 09:13:39:808,0.2628,-0.0488,9.3349,0.014,-0.0011,9.8066,0.0069,-0.0129,-0.0048,-6.7,17.93,-29.02,247.74,1.44,-1.69
68563,50.433792,-4.773595,172,25.43,10.0,249.4,Aug-21,6790540,2019-08-17 09:13:39:907,0.0138,-0.0593,9.3932,0.0039,-0.0063,9.8066,0.0111,-0.0022,-0.0091,-6.7,17.93,-28.52,247.75,1.47,-1.77
68564,50.433712,-4.773934,173,25.48,10.0,249.8,Aug-21,6790641,2019-08-17 09:13:40:008,0.0456,0.0915,10.0416,0.0024,0.008,9.8066,0.0111,0.0319,-0.0016,-6.7,17.93,-28.52,247.75,1.47,-1.77
68565,50.433712,-4.773934,173,25.48,10.0,249.8,Aug-21,6790741,2019-08-17 09:13:40:108,0.105,-0.0117,8.714,0.0096,0.0127,9.8066,-0.008,-0.031,0.0133,-6.7,17.93,-29.33,247.69,1.52,-1.76
68566,50.433712,-4.773934,173,25.48,10.0,249.8,Aug-21,6790841,2019-08-17 09:13:40:208,0.245,-0.3135,10.0781,-0.0083,-0.0208,9.8066,-0.0027,0.034,0.0058,-6.7,17.93,-28.52,247.59,1.61,-1.79
68567,50.433712,-4.773934,173,25.48,10.0,249.8,Aug-21,6790940,2019-08-17 09:13:40:307,0.2981,-0.3541,9.769,-0.0374,-0.0413,9.8065,0.0229,0.0063,-0.008,-6.32,17.93,-28.52,247.59,1.61,-1.79
68568,50.433712,-4.773934,173,25.48,10.0,249.8,Aug-21,6791041,2019-08-17 09:13:40:408,0.3995,-0.1549,8.2626,-0.0473,-0.047,9.8064,-0.007,-0.0406,0.0165,-7.07,18.3,-28.45,247.99,1.25,-1.64
68569,50.433712,-4.773934,173,25.48,10.0,249.8,Aug-21,6791141,2019-08-17 09:13:40:508,0.2603,0.0391,8.6628,-0.0027,0.0192,9.8066,-0.007,-0.0406,0.0165,-7.07,17.93,-28.89,247.99,1.25,-1.64
68570,50.433712,-4.773934,173,25.48,10.0,249.8,Aug-21,6791241,2019-08-17 09:13:40:608,0.2645,0.2097,9.616,-0.0107,0.031,9.8066,0.0047,-0.0097,0.0144,-7.07,17.93,-28.89,247.99,1.25,-1.64
68571,50.433712,-4.773934,173,25.48,10.0,249.8,Aug-21,6791341,2019-08-17 09:13:40:708,-0.0147,0.3369,9.4489,-0.0073,0.0105,9.8066,0.0047,0.0233,-0.0016,-6.7,17.93,-28.02,247.74,1.39,-1.51
68572,50.433712,-4.773934,173,25.48,10.0,249.8,Aug-21,6791441,2019-08-17 09:13:40:808,-0.1573,0.0799,9.479,-0.0166,0.0188,9.8066,0.0101,-0.0033,-0.0016,-6.32,17.93,-28.45,250.26,1.46,-1.38
68573,50.433712,-4.773934,173,25.48,10.0,249.8,Aug-21,6791541,2019-08-17 09:13:40:908,-0.3808,-0.0975,9.692,-0.0066,0.0032,9.8066,0.009,-0.0118,0.009,-7.07,18.3,-27.58,247.61,1.44,-1.37
68574,50.433628,-4.774273,173,25.52,10.0,249.8,Aug-21,6791641,2019-08-17 09:13:41:008,-0.5804,0.3002,10.8464,-0.0012,0.0068,9.8066,-0.0464,0.0393,0.0058,-7.07,18.3,-27.58,247.61,1.44,-1.37
68575,50.433628,-4.774273,173,25.52,10.0,249.8,Aug-21,6791742,2019-08-17 09:13:41:109,-0.2895,0.1966,9.3516,-0.0002,-0.0115,9.8066,-0.0464,0.0393,0.0058,-6.32,18.3,-27.58,250.22,1.47,-1.35
68576,50.433628,-4.774273,173,25.52,10.0,249.8,Aug-21,6791841,2019-08-17 09:13:41:208,0.0433,-0.0638,9.7202,-0.0084,-0.0196,9.8066,0.025,0.017,0.008,-6.32,17.55,-28.45,250.22,1.47,-1.35
68577,50.433628,-4.774273,173,25.52,10.0,249.8,Aug-21,6791941,2019-08-17 09:13:41:308,0.0967,0.0134,10.8382,-0.006,0.001,9.8066,-0.0155,-0.0022,0.0176,-6.7,17.18,-28.02,246.57,1.35,-1.34
68578,50.433628,-4.774273,173,25.52,10.0,249.8,Aug-21,6792041,2019-08-17 09:13:41:408,-0.2591,-0.0729,10.1904,-0.0133,0.0062,9.8066,-0.0336,0.0489,0.0367,-5.95,17.24,-27.14,249.36,1.35,-1.26
68579,50.433628,-4.774273,173,25.52,10.0,249.8,Aug-21,6792142,2019-08-17 09:13:41:509,0.1628,0.0192,9.4722,0.0042,0.0161,9.8066,0.0069,-0.0129,-0.0069,-5.95,17.24,-27.14,249.36,1.35,-1.26
68580,50.433628,-4.774273,173,25.52,10.0,249.8,Aug-21,6792241,2019-08-17 09:13:41:608,0.3576,0.0781,9.6161,0.0118,0.0276,9.8066,-0.0112,0.0201,0.0026,-5.57,17.24,-26.7,249.13,1.53,-1.26
68581,50.433628,-4.774273,173,25.52,10.0,249.8,Aug-21,6792341,2019-08-17 09:13:41:708,0.6687,-0.3176,9.6637,-0.0039,-0.0026,9.8066,0.0356,0.0095,-0.0176,-5.57,17.24,-26.7,249.13,1.53,-1.26
68582,50.433628,-4.774273,173,25.52,10.0,249.8,Aug-21,6792441,2019-08-17 09:13:41:808,0.4308,-0.0111,10.6486,0.0116,-0.0085,9.8066,0.0165,0.0052,0.0122,-5.57,17.24,-24.95,249.25,1.5,-1.25
68583,50.433628,-4.774273,173,25.52,10.0,249.8,Aug-21,6792542,2019-08-17 09:13:41:909,0.5474,0.1178,10.0828,0.014,-0.0054,9.8066,0.0165,0.0052,0.0122,-6.1,16.51,-24.29,249.37,1.48,-1.33
68584,50.43355,-4.774599,173,25.57,10.0,249.6,Aug-21,6792641,2019-08-17 09:13:42:008,0.4321,0.0019,10.1032,0.0357,0.0036,9.8066,-0.023,-0.0203,0.0154,-6.96,16.35,-24.17,249.37,1.48,-1.33
68585,50.43355,-4.774599,173,25.57,10.0,249.6,Aug-21,6792741,2019-08-17 09:13:42:108,-0.0787,0.2573,10.0028,0.0354,0.0221,9.8066,0.0303,-0.0214,0.0037,-6.96,16.35,-24.17,249.37,1.48,-1.33
68586,50.43355,-4.774599,173,25.57,10.0,249.6,Aug-21,6792841,2019-08-17 09:13:42:208,-0.3431,0.1702,9.6218,-0.0012,0.0002,9.8067,-0.0272,0.0095,-0.0016,-9.26,15.74,-24.52,239.72,1.68,-1.48
68587,50.43355,-4.774599,173,25.57,10.0,249.6,Aug-21,6792941,2019-08-17 09:13:42:308,-0.0642,0.1694,9.5701,0.0011,-0.009,9.8066,-0.0048,-0.0246,-0.0123,-9.64,16.11,-26.27,237.19,1.67,-1.47
68588,50.43355,-4.774599,173,25.57,10.0,249.6,Aug-21,6793041,2019-08-17 09:13:42:408,0.0497,0.2748,9.8112,0.0224,-0.0048,9.8066,-0.0123,-0.0107,0.0005,-7.39,17.24,-27.52,246.24,1.72,-1.6
68589,50.43355,-4.774599,173,25.57,10.0,249.6,Aug-21,6793141,2019-08-17 09:13:42:508,-0.137,-0.1034,9.9715,0.0106,0.016,9.8066,0.0015,-0.0427,-0.007,-6.7,17.61,-26.27,246.24,1.72,-1.6
68590,50.43355,-4.774599,173,25.57,10.0,249.6,Aug-21,6793241,2019-08-17 09:13:42:608,0.163,-0.0541,9.5194,0.0198,0.0231,9.8066,0.0047,0.0521,-0.0133,-6.7,18.3,-26.27,247.31,1.89,-1.65
68591,50.43355,-4.774599,173,25.57,10.0,249.6,Aug-21,6793341,2019-08-17 09:13:42:708,0.072,0.0125,9.962,0.0301,-0.0336,9.8065,0.0047,0.0521,-0.0133,-6.7,18.3,-26.27,247.31,1.89,-1.65
68592,50.43355,-4.774599,173,25.57,10.0,249.6,Aug-21,6793441,2019-08-17 09:13:42:808,0.4316,-0.0029,9.7763,0.0171,-0.0073,9.8066,-0.007,0.0233,-0.0101,-7.39,18.68,-26.64,248.54,1.78,-1.89
68593,50.43355,-4.774599,173,25.57,10.0,249.6,Aug-21,6793541,2019-08-17 09:13:42:908,0.2406,0.1255,8.8212,0.0084,-0.0072,9.8066,0.0239,-0.0044,-0.0048,-7.39,18.3,-26.64,247.57,1.76,-1.95
68594,50.43348,-4.774937,173,25.6,10.0,250.0,Aug-21,6793641,2019-08-17 09:13:43:008,0.172,0.1254,9.0787,-0.0127,0.0145,9.8066,-0.0006,-0.0235,0.0154,-7.07,18.3,-27.08,247.46,1.81,-1.85
68595,50.43348,-4.774937,173,25.6,10.0,250.0,Aug-21,6793741,2019-08-17 09:13:43:108,0.0852,-0.1966,9.2602,-0.0094,0.0273,9.8066,0.0633,-0.0406,0.0005,-7.07,18.3,-27.08,247.46,1.81,-1.85
68596,50.43348,-4.774937,173,25.6,10.0,250.0,Aug-21,6793841,2019-08-17 09:13:43:208,0.0566,0.2478,9.7288,-0.0017,0.0269,9.8066,-0.0475,0.0116,-0.0027,-7.39,18.3,-27.89,247.19,1.93,-1.73
68597,50.43348,-4.774937,173,25.6,10.0,250.0,Aug-21,6793941,2019-08-17 09:13:43:308,0.0958,0.3357,9.2088,0.0022,0.0463,9.8065,-0.0123,-0.0225,-0.0101,-7.07,18.68,-27.95,247.19,1.93,-1.73
68598,50.43348,-4.774937,173,25.6,10.0,250.0,Aug-21,6794041,2019-08-17 09:13:43:408,-0.3051,0.1771,10.6475,-0.0028,0.0409,9.8066,-0.0123,-0.0225,-0.0101,-7.01,17.99,-27.95,246.87,2.15,-1.63
68599,50.43348,-4.774937,173,25.6,10.0,250.0,Aug-21,6794141,2019-08-17 09:13:43:508,-0.1975,0.1473,10.3113,-0.0104,-0.007,9.8066,-0.0102,0.0457,0.0005,-7.01,17.99,-27.95,246.87,2.15,-1.63
68600,50.43348,-4.774937,173,25.6,10.0,250.0,Aug-21,6794242,2019-08-17 09:13:43:609,-0.0379,0.1957,9.3272,0.0127,-0.0068,9.8066,0.0015,0.0308,-0.0133,-6.7,18.3,-27.89,246.97,2.07,-1.65
68601,50.43348,-4.774937,173,25.6,10.0,250.0,Aug-21,6794341,2019-08-17 09:13:43:708,0.0584,0.2048,9.416,0.0177,0.0088,9.8066,-0.008,-0.0363,0.0026,-6.32,17.61,-27.89,249.65,2.07,-1.73
68602,50.43348,-4.774937,173,25.6,10.0,250.0,Aug-21,6794441,2019-08-17 09:13:43:808,-0.0974,0.1188,9.2899,0.0296,0.0217,9.8066,0.0122,0.0308,-0.0144,-6.7,17.61,-28.77,249.65,2.07,-1.73
68603,50.43348,-4.774937,173,25.6,10.0,250.0,Aug-21,6794541,2019-08-17 09:13:43:908,-0.2333,-0.1507,9.7439,0.042,0.0249,9.8065,-0.0091,-0.0075,-0.0091,-6.7,17.61,-28.77,249.65,2.07,-1.73
68604,50.43339,-4.775272,174,25.72,10.0,249.6,Aug-21,6794642,2019-08-17 09:13:44:009,-0.0345,-0.1298,10.0064,0.0069,0.0018,9.8066,0.009,0.0052,0.0026,-6.7,17.99,-28.77,246.79,2.29,-1.91
68605,50.43339,-4.775272,174,25.72,10.0,249.6,Aug-21,6794740,2019-08-17 09:13:44:107,-0.1443,-0.3592,10.3676,0.006,-0.0135,9.8066,0.009,0.0052,0.0026,-6.7,17.99,-28.77,246.9,2.23,-1.97
68606,50.43339,-4.775272,174,25.72,10.0,249.6,Aug-21,6794841,2019-08-17 09:13:44:208,-0.3742,0.1242,10.0452,-0.0126,-0.0136,9.8066,0.0143,0.0212,0.0016,-6.7,17.99,-28.77,246.9,2.23,-1.97
68607,50.43339,-4.775272,174,25.72,10.0,249.6,Aug-21,6794941,2019-08-17 09:13:44:308,-0.0117,-0.0561,9.9052,-0.0158,-0.0072,9.8066,0.0015,0.0191,0.0218,-6.7,17.99,-28.33,247.07,2.13,-1.94
68608,50.43339,-4.775272,174,25.72,10.0,249.6,Aug-21,6795041,2019-08-17 09:13:44:408,-0.3548,-0.1158,9.8262,-0.0375,0.0128,9.8066,-0.0016,0.001,0.0218,-7.01,17.99,-27.89,246.96,2.11,-1.71
68609,50.43339,-4.775272,174,25.72,10.0,249.6,Aug-21,6795141,2019-08-17 09:13:44:508,-0.6416,0.1188,10.2046,-0.0239,0.003,9.8066,0.0292,0.0191,0.0101,-7.01,18.36,-27.89,246.96,2.11,-1.71
68610,50.43339,-4.775272,174,25.72,10.0,249.6,Aug-21,6795241,2019-08-17 09:13:44:608,-0.2779,0.2314,9.7054,-0.0478,0.0007,9.8065,-0.0134,-0.0246,0.0058,-7.01,18.36,-27.89,246.96,2.11,-1.71
68611,50.43339,-4.775272,174,25.72,10.0,249.6,Aug-21,6795340,2019-08-17 09:13:44:707,0.2482,0.3889,9.1833,-0.0637,0.0052,9.8064,-0.0134,-0.0235,-0.0091,-7.01,17.99,-27.83,246.91,1.99,-1.35
68612,50.43339,-4.775272,174,25.72,10.0,249.6,Aug-21,6795441,2019-08-17 09:13:44:808,0.0369,0.1479,9.5646,0.0177,0.0161,9.8066,0.0069,-0.0044,-0.0112,-7.01,18.36,-28.7,246.57,2.2,-1.32
68613,50.43339,-4.775272,174,25.72,10.0,249.6,Aug-21,6795541,2019-08-17 09:13:44:908,0.0666,-0.4893,10.0757,0.0007,-0.0233,9.8066,0.0069,-0.0044,-0.0112,-7.76,17.99,-28.27,243.99,2.32,-1.38
68614,50.43339,-4.775272,174,25.72,10.0,249.6,Aug-21,6795640,2019-08-17 09:13:45:007,0.2972,-0.4078,9.5929,-0.0135,-0.0443,9.8065,-0.0048,0.0351,0.0058,-7.76,17.99,-28.27,243.99,2.32,-1.38
68615,50.433308,-4.775602,175,25.77,10.0,249.6,Aug-21,6795741,2019-08-17 09:13:45:108,0.1127,-0.1419,9.713,0.0034,-0.0075,9.8066,0.0058,0.0351,0.0037,-7.39,18.36,-29.08,246.8,2.06,-1.42
68616,50.433308,-4.775602,175,25.77,10.0,249.6,Aug-21,6795841,2019-08-17 09:13:45:208,0.1539,0.1525,9.2812,-0.0008,-0.0059,9.8067,-0.0315,0.0095,0.0112,-7.39,18.36,-29.08,246.8,2.06,-1.42
68617,50.433308,-4.775602,175,25.77,10.0,249.6,Aug-21,6795941,2019-08-17 09:13:45:308,0.0786,0.177,9.6824,-0.0171,-0.0084,9.8066,0.0026,0.0159,0.0101,-6.7,18.74,-29.14,247.91,2.02,-1.43
68618,50.433308,-4.775602,175,25.77,10.0,249.6,Aug-21,6796041,2019-08-17 09:13:45:408,-0.246,0.0542,9.6324,0.0001,0.0113,9.8066,0.0005,-0.0438,0.0176,-6.7,18.36,-28.2,246.98,1.94,-1.36
68619,50.433308,-4.775602,175,25.77,10.0,249.6,Aug-21,6796142,2019-08-17 09:13:45:509,-0.1907,0.3754,10.1453,0.0017,0.0304,9.8066,0.0143,-0.0065,-0.0165,-6.7,18.36,-28.7,246.67,2.11,-1.3
68620,50.433308,-4.775602,175,25.77,10.0,249.6,Aug-21,6796241,2019-08-17 09:13:45:608,0.2169,0.0146,10.0754,0.0034,0.0143,9.8066,0.0143,-0.0065,-0.0165,-6.7,18.36,-28.7,246.67,2.11,-1.3
68621,50.433308,-4.775602,175,25.77,10.0,249.6,Aug-21,6796342,2019-08-17 09:13:45:709,0.1647,-0.0279,9.6341,0.0128,-0.0083,9.8066,0.0026,0.0212,-0.0027,-6.7,18.36,-28.2,246.62,2.19,-1.28
68622,50.433308,-4.775602,175,25.77,10.0,249.6,Aug-21,6796441,2019-08-17 09:13:45:808,0.0474,-0.1319,10.5444,0.0034,-0.0147,9.8066,0.0101,0.0415,-0.0006,-6.7,18.74,-28.64,247.74,2.12,-1.33
68623,50.433308,-4.775602,175,25.77,10.0,249.6,Aug-21,6796542,2019-08-17 09:13:45:909,0.0967,-0.3011,9.5282,-0.0371,-0.004,9.8066,0.0452,-0.0182,-0.0059,-7.01,17.99,-28.64,247.74,2.12,-1.33
68624,50.43322,-4.775949,176,25.86,10.0,249.4,Sep-21,6796641,2019-08-17 09:13:46:008,-0.0427,-0.047,9.9296,-0.0431,0.0064,9.8066,-0.0048,-0.0086,0.009,-7.01,17.99,-28.64,247.74,2.12,-1.33
68625,50.43322,-4.775949,176,25.86,10.0,249.4,Sep-21,6796741,2019-08-17 09:13:46:108,-0.1282,0.0258,9.4247,0.0028,0.0039,9.8066,0.0207,0.001,-0.008,-6.32,18.74,-28.7,250.23,2.06,-1.09
68626,50.43322,-4.775949,176,25.86,10.0,249.4,Sep-21,6796841,2019-08-17 09:13:46:208,-0.2306,0.2014,9.7345,0.0004,0.0138,9.8066,0.0079,-0.0033,-0.0016,-6.7,18.36,-28.64,246.49,2.14,-1.06
68627,50.43322,-4.775949,176,25.86,10.0,249.4,Sep-21,6796941,2019-08-17 09:13:46:308,0.1443,0.2961,9.9211,-0.0111,-0.0017,9.8066,0.0229,0.0297,-0.0133,-6.7,18.74,-28.64,246.49,2.14,-1.06
68628,50.43322,-4.775949,176,25.86,10.0,249.4,Sep-21,6797042,2019-08-17 09:13:46:409,-0.1106,-0.084,9.9853,-0.0276,-0.0225,9.8066,0.0229,0.0297,-0.0133,-6.7,18.74,-28.64,246.49,2.14,-1.06
68629,50.43322,-4.775949,176,25.86,10.0,249.4,Sep-21,6797141,2019-08-17 09:13:46:508,-0.2031,-0.1353,10.3151,-0.002,-0.0075,9.8066,-0.0048,-0.0086,-0.0069,-6.7,18.74,-28.2,247.82,1.95,-0.97
68630,50.43322,-4.775949,176,25.86,10.0,249.4,Sep-21,6797241,2019-08-17 09:13:46:608,0.2504,-0.0824,9.822,0.0075,-0.0018,9.8066,-0.0048,-0.0278,-0.008,-6.7,18.36,-29.08,247.82,1.95,-0.97
68631,50.43322,-4.775949,176,25.86,10.0,249.4,Sep-21,6797341,2019-08-17 09:13:46:708,-0.0743,-0.2878,10.4265,0.0212,0.0071,9.8066,0.0399,-0.0278,-0.0123,-6.32,18.74,-27.83,250.33,2.04,-1.07
68632,50.43322,-4.775949,176,25.86,10.0,249.4,Sep-21,6797443,2019-08-17 09:13:46:810,0.0955,-0.0576,10.7545,0.007,0.0071,9.8066,0.0207,0.0308,0.0101,-6.32,18.74,-27.83,250.33,2.04,-1.07
68633,50.43322,-4.775949,176,25.86,10.0,249.4,Sep-21,6797541,2019-08-17 09:13:46:908,0.3064,-0.0911,9.4677,-0.0338,0.0047,9.8066,0.0335,0.0255,-0.0016,-6.7,18.74,-27.77,247.75,2.04,-1.05
68634,50.433144,-4.776288,177,25.85,10.0,249.6,Sep-21,6797641,2019-08-17 09:13:47:008,0.2163,-0.0512,9.0249,-0.0439,0.0114,9.8065,0.025,-0.0289,-0.0069,-5.95,18.74,-28.2,247.75,2.04,-1.05
68635,50.433144,-4.776288,177,25.85,10.0,249.6,Sep-21,6797740,2019-08-17 09:13:47:107,0.0278,0.0449,9.1932,-0.0584,0.009,9.8065,0.009,-0.0001,-0.0059,-6.32,19.11,-28.2,250.25,1.96,-0.71
68636,50.433144,-4.776288,177,25.85,10.0,249.6,Sep-21,6797841,2019-08-17 09:13:47:208,0.5745,-0.1216,9.5982,-0.0001,0.0066,9.8067,0.009,-0.0001,-0.0059,-6.32,19.11,-28.2,250.25,1.96,-0.71
68637,50.433144,-4.776288,177,25.85,10.0,249.6,Sep-21,6797941,2019-08-17 09:13:47:308,0.1329,-0.2695,9.1875,0.0082,-0.0021,9.8066,0.0143,-0.0193,-0.0219,-6.7,19.11,-28.2,250.25,1.96,-0.71
68638,50.433144,-4.776288,177,25.85,10.0,249.6,Sep-21,6798041,2019-08-17 09:13:47:408,0.8248,-0.0119,9.2674,-0.001,0.0015,9.8067,0.0218,0.0031,-0.0165,-7.01,19.49,-28.64,247.62,1.97,-0.76
68639,50.433144,-4.776288,177,25.85,10.0,249.6,Sep-21,6798141,2019-08-17 09:13:47:508,0.5823,-0.1798,9.9773,0.0038,0.0041,9.8066,0.0165,0.0202,-0.0059,-7.01,19.49,-28.64,247.62,1.97,-0.76
68640,50.433144,-4.776288,177,25.85,10.0,249.6,Sep-21,6798240,2019-08-17 09:13:47:607,0.1537,0.0816,10.768,-0.0019,-0.0017,9.8067,0.0729,0.018,-0.0261,-6.32,19.11,-27.77,250.23,2.0,-0.77
68641,50.433144,-4.776288,177,25.85,10.0,249.6,Sep-21,6798341,2019-08-17 09:13:47:708,0.1088,0.2635,9.7092,-0.0197,0.0031,9.8066,0.0101,-0.0501,-0.0091,-6.7,19.49,-27.77,250.23,2.0,-0.77
68642,50.433144,-4.776288,177,25.85,10.0,249.6,Sep-21,6798441,2019-08-17 09:13:47:808,-0.1056,0.0318,9.9755,-0.0071,0.0125,9.8066,0.0101,-0.0501,-0.0091,-6.7,19.49,-28.64,247.55,1.97,-0.66
68643,50.433144,-4.776288,177,25.85,10.0,249.6,Sep-21,6798541,2019-08-17 09:13:47:908,0.2017,0.139,9.8969,-0.0028,0.0125,9.8066,0.0079,0.0021,-0.0112,-6.32,19.49,-28.64,250.02,2.04,-0.61
68644,50.433064,-4.776638,177,25.73,10.0,249.8,Sep-21,6798641,2019-08-17 09:13:48:008,0.2295,0.1239,9.6313,0.0087,0.016,9.8066,0.009,0.0308,-0.0091,-6.7,19.8,-27.77,250.02,2.04,-0.61
68645,50.433064,-4.776638,177,25.73,10.0,249.8,Sep-21,6798741,2019-08-17 09:13:48:108,0.0289,-0.0852,9.8178,0.0091,0.0234,9.8066,0.0058,-0.0129,-0.0091,-6.7,19.8,-27.77,250.02,2.04,-0.61
68646,50.433064,-4.776638,177,25.73,10.0,249.8,Sep-21,6798841,2019-08-17 09:13:48:208,-0.0701,-0.1529,10.0935,0.0169,-0.0091,9.8066,0.0175,-0.0118,-0.0133,-6.32,19.49,-28.64,249.83,2.18,-0.62
68647,50.433064,-4.776638,177,25.73,10.0,249.8,Sep-21,6798940,2019-08-17 09:13:48:307,0.591,-0.3075,9.7594,0.0403,-0.013,9.8066,0.0336,0.0106,-0.0251,-6.32,20.18,-28.2,250.94,2.19,-0.86
68648,50.433064,-4.776638,177,25.73,10.0,249.8,Sep-21,6799041,2019-08-17 09:13:48:408,0.2867,0.0482,9.7345,0.0045,0.0129,9.8066,0.0325,-0.0192,-0.024,-6.32,20.18,-28.2,250.94,2.19,-0.86
68649,50.433064,-4.776638,177,25.73,10.0,249.8,Sep-21,6799141,2019-08-17 09:13:48:508,0.148,0.0192,9.2787,-0.0079,-0.0014,9.8066,0.0325,-0.0192,-0.024,-6.32,20.18,-28.2,250.84,2.27,-0.86
68650,50.433064,-4.776638,177,25.73,10.0,249.8,Sep-21,6799241,2019-08-17 09:13:48:608,0.2891,0.0737,9.2209,-0.0155,-0.0171,9.8066,0.0027,0.0159,-0.0123,-6.7,20.55,-27.77,250.84,2.27,-0.86
68651,50.433064,-4.776638,177,25.73,10.0,249.8,Sep-21,6799341,2019-08-17 09:13:48:708,0.3333,-0.2571,10.275,0.0054,-0.017,9.8066,0.0272,-0.0086,-0.0155,-6.7,20.18,-27.83,248.5,2.15,-0.81
68652,50.433064,-4.776638,177,25.73,10.0,249.8,Sep-21,6799441,2019-08-17 09:13:48:808,0.2073,-0.0613,10.1658,0.0235,-0.0217,9.8066,0.0368,-0.0054,-0.0187,-6.32,20.18,-28.2,251.13,2.08,-0.99
68653,50.433064,-4.776638,177,25.73,10.0,249.8,Sep-21,6799541,2019-08-17 09:13:48:908,-0.1167,0.0487,9.9178,0.0176,0.0086,9.8066,0.0262,-0.0107,-0.0357,-6.32,20.18,-28.2,251.13,2.08,-0.99
68654,50.43299,-4.776982,178,25.68,10.0,250.4,Sep-21,6799640,2019-08-17 09:13:49:007,0.294,0.1672,9.137,0.0333,0.0104,9.8066,0.0336,0.0287,-0.0197,-5.95,20.55,-28.64,251.8,2.2,-1.15
68655,50.43299,-4.776982,178,25.68,10.0,250.4,Sep-21,6799741,2019-08-17 09:13:49:108,0.22,-0.03,9.6791,-0.0105,0.0046,9.8066,0.0155,0.0095,-0.008,-6.32,20.18,-28.2,251.8,2.2,-1.15
68656,50.43299,-4.776982,178,25.68,10.0,250.4,Sep-21,6799841,2019-08-17 09:13:49:208,-0.0775,0.0583,9.5219,-0.0171,0.0093,9.8066,0.0325,0.001,-0.0197,-6.32,20.18,-28.2,251.8,2.2,-1.15
68657,50.43299,-4.776982,178,25.68,10.0,250.4,Sep-21,6799941,2019-08-17 09:13:49:308,-0.3601,0.0953,10.2518,-0.0159,0.0035,9.8066,0.023,-0.0246,-0.0101,-5.95,20.55,-28.14,251.81,2.22,-1.04
68658,50.43299,-4.776982,178,25.68,10.0,250.4,Sep-21,6800041,2019-08-17 09:13:49:408,0.1158,-0.051,9.45,-0.0136,0.0049,9.8066,0.023,-0.0246,-0.0101,-5.95,21.3,-26.89,251.86,2.21,-0.94
68659,50.43299,-4.776982,178,25.68,10.0,250.4,Sep-21,6800141,2019-08-17 09:13:49:508,-0.3218,0.0221,9.9771,-0.01,0.0094,9.8066,0.008,-0.0182,-0.0421,-5.95,21.3,-26.89,251.86,2.21,-0.94
68660,50.43299,-4.776982,178,25.68,10.0,250.4,Sep-21,6800241,2019-08-17 09:13:49:608,-0.0111,-0.1878,9.894,0.0115,0.0103,9.8066,0.0059,-0.0022,-0.0261,-5.57,22.05,-27.7,252.48,2.25,-0.87
68661,50.43299,-4.776982,178,25.68,10.0,250.4,Sep-21,6800341,2019-08-17 09:13:49:708,0.507,-0.2357,10.4086,0.0223,0.0022,9.8066,0.0166,0.0031,-0.0187,-5.57,20.93,-26.89,251.79,2.3,-0.99
68662,50.43299,-4.776982,178,25.68,10.0,250.4,Sep-21,6800441,2019-08-17 09:13:49:808,0.3443,0.0821,8.9095,0.0047,-0.0133,9.8066,0.0006,0.0138,-0.0219,-5.57,20.93,-26.89,251.79,2.3,-0.99
68663,50.43299,-4.776982,178,25.68,10.0,250.4,Sep-21,6800541,2019-08-17 09:13:49:908,-0.1392,-0.0923,9.0772,0.0076,0.0013,9.8066,0.008,-0.032,-0.0133,-5.2,21.68,-27.7,254.9,2.23,-1.04
68664,50.432915,-4.77733,178,25.8,10.0,251.3,Sep-20,6800641,2019-08-17 09:13:50:008,0.1481,-0.0151,10.0568,0.0316,0.0068,9.8066,0.0017,0.0362,-0.0176,-5.57,21.3,-27.33,254.9,2.23,-1.04
68665,50.432915,-4.77733,178,25.8,10.0,251.3,Sep-20,6800740,2019-08-17 09:13:50:107,-0.1286,0.0555,10.1073,0.002,-0.0215,9.8066,0.0049,0.0287,-0.024,-5.2,21.68,-27.7,254.78,2.39,-1.22
68666,50.432915,-4.77733,178,25.8,10.0,251.3,Sep-20,6800840,2019-08-17 09:13:50:207,0.4261,-0.2848,9.8584,-0.0103,-0.0403,9.8066,0.0049,0.0287,-0.024,-5.2,21.68,-27.7,254.78,2.39,-1.22
68667,50.432915,-4.77733,178,25.8,10.0,251.3,Sep-20,6800941,2019-08-17 09:13:50:308,-0.0355,-0.1415,10.1227,-0.0167,-0.0103,9.8066,0.0123,0.0521,-0.0229,-5.2,21.68,-27.7,255.06,2.15,-1.22
68668,50.432915,-4.77733,178,25.8,10.0,251.3,Sep-20,6801041,2019-08-17 09:13:50:408,-0.2761,0.2214,9.8918,-0.0262,0.0059,9.8066,0.0411,-0.0139,-0.0187,-5.2,21.68,-28.14,255.01,2.14,-1.06
68669,50.432915,-4.77733,178,25.8,10.0,251.3,Sep-20,6801141,2019-08-17 09:13:50:508,-0.5652,-0.0016,9.53,-0.0231,0.0085,9.8066,-0.0026,-0.0139,-0.008,-5.2,21.68,-28.14,255.01,2.14,-1.06
68670,50.432915,-4.77733,178,25.8,10.0,251.3,Sep-20,6801241,2019-08-17 09:13:50:608,-0.2681,0.0752,8.4653,-0.012,0.0144,9.8066,-0.0026,-0.0001,-0.0133,-5.2,21.68,-27.33,255.03,2.16,-0.92
68671,50.432915,-4.77733,178,25.8,10.0,251.3,Sep-20,6801341,2019-08-17 09:13:50:708,0.1152,0.136,10.4538,-0.0007,0.0236,9.8066,0.007,-0.0469,-0.0229,-4.45,22.43,-26.45,257.42,2.22,-0.83
68672,50.432915,-4.77733,178,25.8,10.0,251.3,Sep-20,6801442,2019-08-17 09:13:50:809,-0.1049,-0.0301,9.6177,-0.0013,0.0403,9.8066,-0.0218,0.0212,-0.0112,-4.82,22.43,-26.45,254.75,2.45,-0.77
68673,50.432915,-4.77733,178,25.8,10.0,251.3,Sep-20,6801541,2019-08-17 09:13:50:908,-0.2265,0.1033,9.8791,-0.0036,-0.021,9.8066,-0.0047,0.033,-0.0155,-4.82,22.43,-26.45,254.75,2.45,-0.77
68674,50.432915,-4.77733,178,25.8,10.0,251.3,Sep-21,6801642,2019-08-17 09:13:51:009,0.0181,-0.1106,10.2655,-0.0208,-0.0447,9.8065,-0.0047,0.033,-0.0155,-4.45,22.43,-26.45,257.46,2.16,-0.72
68675,50.432858,-4.777679,178,25.72,10.0,252.9,Sep-21,6801741,2019-08-17 09:13:51:108,0.0405,-0.1716,9.8135,0.0018,-0.0082,9.8066,0.0176,0.0127,-0.0208,-4.45,22.43,-26.45,257.46,2.16,-0.72
68676,50.432858,-4.777679,178,25.72,10.0,252.9,Sep-21,6801840,2019-08-17 09:13:51:207,0.058,-0.036,9.1595,0.0123,0.0026,9.8066,0.0038,0.0447,-0.0304,-4.07,22.43,-27.27,257.43,2.12,-0.74
68677,50.432858,-4.777679,178,25.72,10.0,252.9,Sep-21,6801941,2019-08-17 09:13:51:308,0.1264,-0.0897,9.1564,0.0177,0.0102,9.8066,-0.0122,-0.0097,-0.0325,-4.45,22.05,-26.45,257.46,2.2,-0.89
68678,50.432858,-4.777679,178,25.72,10.0,252.9,Sep-21,6802042,2019-08-17 09:13:51:409,-0.0689,-0.0092,10.7259,0.0359,0.0153,9.8066,-0.0122,0.001,-0.0293,-4.45,22.05,-26.83,257.46,2.2,-0.89
68679,50.432858,-4.777679,178,25.72,10.0,252.9,Sep-21,6802141,2019-08-17 09:13:51:508,0.0642,0.1001,10.7066,0.0411,0.0156,9.8066,-0.009,0.0266,-0.008,-4.45,22.05,-26.83,257.46,2.2,-0.89
68680,50.432858,-4.777679,178,25.72,10.0,252.9,Sep-21,6802243,2019-08-17 09:13:51:610,-0.1065,0.2591,9.8856,-0.0049,-0.0037,9.8067,0.0187,0.0085,-0.0315,-3.7,22.05,-26.83,257.28,2.34,-1.11
68681,50.432858,-4.777679,178,25.72,10.0,252.9,Sep-21,6802341,2019-08-17 09:13:51:708,-0.3367,0.4171,9.2347,-0.007,0.0124,9.8066,-0.0047,0.0564,-0.0325,-4.07,22.05,-26.83,257.3,2.31,-1.08
68682,50.432858,-4.777679,178,25.72,10.0,252.9,Sep-21,6802441,2019-08-17 09:13:51:808,0.019,0.1282,10.1728,0.0028,0.0144,9.8066,-0.0047,0.0564,-0.0325,-4.07,22.43,-26.39,257.3,2.4,-1.08
68683,50.432858,-4.777679,178,25.72,10.0,252.9,Sep-21,6802541,2019-08-17 09:13:51:908,0.0718,-0.1911,10.0789,0.013,-0.0091,9.8066,0.0059,-0.0256,-0.0368,-4.07,22.43,-26.39,257.3,2.4,-1.08
68684,50.432808,-4.778027,179,25.82,10.0,254.5,Sep-21,6802641,2019-08-17 09:13:52:008,0.2827,-0.1781,10.2716,0.0115,-0.0065,9.8066,-0.0378,0.0159,-0.0283,-4.07,22.43,-27.27,257.27,2.36,-1.17
68685,50.432808,-4.778027,179,25.82,10.0,254.5,Sep-21,6802741,2019-08-17 09:13:52:108,0.1638,0.0235,9.1609,0.0355,0.011,9.8066,-0.0069,-0.0097,-0.0378,-3.32,22.43,-26.83,257.27,2.36,-1.17
68686,50.432808,-4.778027,179,25.82,10.0,254.5,Sep-21,6802841,2019-08-17 09:13:52:208,-0.2699,-0.1106,9.4541,0.045,0.0208,9.8065,0.0091,-0.0107,-0.0144,-3.7,22.05,-27.27,257.15,2.54,-1.4
68687,50.432808,-4.778027,179,25.82,10.0,254.5,Sep-21,6802941,2019-08-17 09:13:52:308,0.0374,0.0772,9.3945,-0.0044,0.0002,9.8066,0.0134,0.0415,-0.0378,-3.7,22.43,-26.83,257.14,2.54,-1.37
68688,50.432808,-4.778027,179,25.82,10.0,254.5,Sep-21,6803041,2019-08-17 09:13:52:408,0.3316,0.2305,9.4091,-0.009,0.0001,9.8066,-0.0079,-0.0267,-0.0251,-3.7,22.43,-26.83,257.14,2.54,-1.37
68689,50.432808,-4.778027,179,25.82,10.0,254.5,Sep-21,6803141,2019-08-17 09:13:52:508,0.0835,0.2382,9.9755,0.0093,0.0073,9.8066,-0.0047,0.0106,-0.0315,-3.7,22.43,-26.39,257.15,2.59,-1.27
68690,50.432808,-4.778027,179,25.82,10.0,254.5,Sep-21,6803242,2019-08-17 09:13:52:609,-0.0363,0.2167,9.4407,0.0102,-0.0104,9.8066,-0.0047,0.0106,-0.0315,-3.7,22.43,-26.39,257.15,2.59,-1.27
68691,50.432808,-4.778027,179,25.82,10.0,254.5,Sep-21,6803341,2019-08-17 09:13:52:708,-0.2424,0.1521,10.0036,0.0115,-0.0064,9.8066,-0.0122,0.0266,-0.0283,-3.32,22.43,-26.39,259.65,2.54,-1.34
68692,50.432808,-4.778027,179,25.82,10.0,254.5,Sep-21,6803442,2019-08-17 09:13:52:809,-0.2147,0.1899,9.3007,0.0228,0.0038,9.8066,-0.0207,0.0351,-0.0229,-3.32,22.43,-26.39,259.65,2.54,-1.34
68693,50.432808,-4.778027,179,25.82,10.0,254.5,Sep-21,6803542,2019-08-17 09:13:52:909,-0.165,0.0015,10.3453,0.0323,0.0203,9.8066,-0.0271,-0.0331,-0.0155,-3.32,22.43,-26.39,259.65,2.54,-1.34
68694,50.432743,-4.778378,179,25.85,10.0,255.3,Sep-21,6803643,2019-08-17 09:13:53:010,0.1782,0.1033,8.926,0.0109,-0.0059,9.8066,0.0027,-0.031,-0.0336,-2.95,22.05,-27.27,259.42,2.69,-1.51
68695,50.432743,-4.778378,179,25.85,10.0,255.3,Sep-21,6803741,2019-08-17 09:13:53:108,-0.1266,0.0914,10.0819,0.0162,-0.0098,9.8066,-0.0026,0.0148,-0.0187,-2.95,22.8,-27.27,259.93,2.66,-1.61
68696,50.432743,-4.778378,179,25.85,10.0,255.3,Sep-21,6803841,2019-08-17 09:13:53:208,-0.0658,0.2062,9.686,-0.0087,0.0042,9.8066,-0.0058,-0.0395,-0.0155,-2.95,22.8,-27.27,259.93,2.66,-1.61
68697,50.432743,-4.778378,179,25.85,10.0,255.3,Sep-21,6803941,2019-08-17 09:13:53:308,-0.2141,-0.1347,9.8704,-0.0065,0.0011,9.8066,-0.0058,-0.0395,-0.0155,-2.95,22.43,-27.7,259.36,2.67,-1.56
68698,50.432743,-4.778378,179,25.85,10.0,255.3,Sep-21,6804040,2019-08-17 09:13:53:407,-0.2369,-0.1535,10.4181,-0.0113,-0.0147,9.8066,-0.0037,0.0606,-0.0165,-3.32,22.43,-27.64,259.46,2.57,-1.51
68699,50.432743,-4.778378,179,25.85,10.0,255.3,Sep-21,6804141,2019-08-17 09:13:53:508,-0.3422,0.0923,10.2725,0.0106,0.006,9.8066,-0.0079,0.0031,-0.0464,-2.95,22.05,-27.27,259.46,2.57,-1.51
68700,50.432743,-4.778378,179,25.85,10.0,255.3,Sep-21,6804241,2019-08-17 09:13:53:608,-0.1822,0.0931,10.4112,0.024,0.012,9.8066,-0.0101,-0.0203,-0.04,-2.95,22.05,-27.27,259.46,2.57,-1.51
68701,50.432743,-4.778378,179,25.85,10.0,255.3,Sep-21,6804341,2019-08-17 09:13:53:708,0.1415,0.3332,10.4446,0.0135,-0.005,9.8066,-0.0111,0.0393,-0.0336,-2.95,22.05,-27.27,259.48,2.67,-1.63
68702,50.432743,-4.778378,179,25.85,10.0,255.3,Sep-21,6804441,2019-08-17 09:13:53:808,0.2634,0.1226,10.5405,0.0046,-0.0192,9.8066,0.0496,0.0351,-0.0283,-2.64,21.68,-26.77,259.48,2.67,-1.63
68703,50.432743,-4.778378,179,25.85,10.0,255.3,Sep-21,6804541,2019-08-17 09:13:53:908,-0.0472,-0.1592,10.2364,-0.0265,-0.002,9.8066,0.0208,-0.0235,-0.0219,-2.64,22.05,-27.2,259.61,2.56,-1.68
68704,50.432667,-4.778737,180,26.05,10.0,255.9,Sep-21,6804641,2019-08-17 09:13:54:008,-0.0661,0.2006,9.0844,-0.0601,0.0092,9.8065,0.0144,0.0084,-0.0293,-2.64,22.8,-26.83,259.61,2.56,-1.68
68705,50.432667,-4.778737,180,26.05,10.0,255.9,Sep-21,6804741,2019-08-17 09:13:54:108,-0.246,0.1352,8.8275,-0.0755,0.0213,9.8063,-0.0026,0.017,-0.0219,-2.95,22.05,-27.2,259.45,2.61,-1.22
68706,50.432667,-4.778737,180,26.05,10.0,255.9,Sep-21,6804841,2019-08-17 09:13:54:208,0.2102,0.0938,8.7346,-0.0122,0.0177,9.8066,-0.0069,-0.0086,-0.0229,-2.64,22.43,-26.39,259.45,2.61,-1.22
68707,50.432667,-4.778737,180,26.05,10.0,255.9,Sep-21,6804941,2019-08-17 09:13:54:308,-0.3819,-0.0919,10.1278,-0.0197,0.043,9.8065,-0.0069,-0.0086,-0.0229,-2.64,22.43,-27.64,259.04,2.83,-1.06
68708,50.432667,-4.778737,180,26.05,10.0,255.9,Sep-21,6805041,2019-08-17 09:13:54:408,-0.4204,-0.1042,9.5893,-0.0109,0.0281,9.8066,0.0049,0.018,-0.0304,-2.64,22.43,-27.64,259.04,2.83,-1.06
68709,50.432667,-4.778737,180,26.05,10.0,255.9,Sep-21,6805141,2019-08-17 09:13:54:508,-0.3247,0.2642,9.9712,-0.0122,0.0001,9.8066,-0.0111,0.002,-0.0293,-2.77,22.27,-24.14,259.32,2.98,-0.97
68710,50.432667,-4.778737,180,26.05,10.0,255.9,Sep-21,6805241,2019-08-17 09:13:54:608,-0.228,0.1316,10.2181,-0.0199,-0.0008,9.8066,0.0208,0.001,-0.0293,-2.39,22.27,-24.14,261.8,2.97,-0.9
68711,50.432667,-4.778737,180,26.05,10.0,255.9,Sep-21,6805341,2019-08-17 09:13:54:708,-0.144,-0.0682,10.6601,-0.0337,-0.0123,9.8066,-0.0111,0.0425,-0.0304,-2.39,22.27,-24.14,261.8,2.97,-0.9
68712,50.432667,-4.778737,180,26.05,10.0,255.9,Sep-21,6805441,2019-08-17 09:13:54:808,-0.1427,0.2369,9.963,0.0006,-0.0191,9.8066,-0.0303,-0.0214,-0.0219,-2.02,22.64,-24.57,262.1,2.87,-0.71
68713,50.432667,-4.778737,180,26.05,10.0,255.9,Sep-21,6805541,2019-08-17 09:13:54:908,0.3058,0.1031,9.8998,0.0216,-0.031,9.8066,-0.009,-0.0107,-0.0315,-2.39,22.27,-24.51,261.95,2.71,-0.86
68714,50.43262,-4.779094,180,26.03,10.0,258.1,Sep-21,6805647,2019-08-17 09:13:55:014,-0.1055,-0.1595,10.7356,0.0037,0.0014,9.8067,-0.0101,0.0138,-0.0176,-2.39,22.27,-24.51,261.95,2.71,-0.86
68715,50.43262,-4.779094,180,26.03,10.0,258.1,Sep-21,6805741,2019-08-17 09:13:55:108,-0.3051,0.0362,9.5369,0.0014,-0.012,9.8066,-0.0101,0.0138,-0.0176,-2.39,22.27,-24.57,261.95,2.72,-0.88
68716,50.43262,-4.779094,180,26.03,10.0,258.1,Sep-21,6805841,2019-08-17 09:13:55:208,-0.1319,-0.1458,9.4492,-0.0007,-0.019,9.8066,-0.0143,-0.0288,-0.024,-2.02,22.27,-24.64,262.07,2.61,-0.9
68717,50.43262,-4.779094,180,26.03,10.0,258.1,Sep-21,6805941,2019-08-17 09:13:55:308,-0.1807,-0.0771,9.8585,0.0108,0.0569,9.8065,0.0102,-0.0427,-0.0176,-2.02,22.27,-24.14,262.07,2.61,-0.9
68718,50.43262,-4.779094,180,26.03,10.0,258.1,Sep-21,6806042,2019-08-17 09:13:55:409,0.4732,0.1198,9.2657,0.0006,0.0194,9.8066,-0.0122,-0.0065,-0.0101,-1.64,22.64,-24.57,262.06,2.95,-0.91
68719,50.43262,-4.779094,180,26.03,10.0,258.1,Sep-21,6806141,2019-08-17 09:13:55:508,0.0326,-0.1927,10.2216,-0.017,0.0244,9.8066,0.0113,-0.0171,-0.0336,-1.64,22.64,-24.57,262.06,2.95,-0.91
68720,50.43262,-4.779094,180,26.03,10.0,258.1,Sep-21,6806241,2019-08-17 09:13:55:608,-0.1591,0.0379,9.8322,0.0079,0.0011,9.8066,-0.009,0.0052,-0.0304,-1.64,22.64,-25.07,261.9,3.07,-0.79
68721,50.43262,-4.779094,180,26.03,10.0,258.1,Sep-21,6806341,2019-08-17 09:13:55:708,-0.0485,-0.313,9.8528,0.015,-0.0225,9.8066,0.0155,-0.0075,-0.0208,-1.64,22.64,-25.07,261.9,3.07,-0.79
68722,50.43262,-4.779094,180,26.03,10.0,258.1,Sep-21,6806441,2019-08-17 09:13:55:808,0.3317,0.0436,10.5371,-0.0124,-0.0296,9.8066,-0.0037,0.001,-0.0219,-1.64,23.02,-24.64,262.05,2.96,-0.9
68723,50.43262,-4.779094,180,26.03,10.0,258.1,Sep-21,6806541,2019-08-17 09:13:55:908,-0.4094,0.0107,10.2484,-0.0376,-0.0436,9.8065,-0.0037,0.001,-0.0219,-1.64,23.02,-24.26,262.41,2.67,-0.72
68724,50.432575,-4.779449,180,26.04,10.0,259.7,Sep-21,6806641,2019-08-17 09:13:56:008,0.0772,0.2986,9.1138,0.0097,-0.0102,9.8066,-0.0378,-0.0001,-0.0251,-1.64,22.64,-24.7,262.41,2.67,-0.72
68725,50.432575,-4.779449,180,26.04,10.0,259.7,Sep-21,6806741,2019-08-17 09:13:56:108,0.4427,0.3184,8.7774,0.0205,0.031,9.8066,-0.0218,-0.0321,-0.024,-0.89,21.89,-24.7,264.43,2.76,-0.97
68726,50.432575,-4.779449,180,26.04,10.0,259.7,Sep-21,6806841,2019-08-17 09:13:56:208,0.1543,-0.1135,9.3283,0.0177,0.0368,9.8066,0.0176,0.002,-0.0283,-0.89,21.89,-24.7,264.43,2.76,-0.97
68727,50.432575,-4.779449,180,26.04,10.0,259.7,Sep-21,6806941,2019-08-17 09:13:56:308,0.1219,-0.2732,10.0834,-0.0177,-0.012,9.8066,0.0368,0.0297,-0.0304,-1.27,22.27,-25.2,264.2,2.99,-1.05
68728,50.432575,-4.779449,180,26.04,10.0,259.7,Sep-21,6807042,2019-08-17 09:13:56:409,0.112,-0.2365,9.896,-0.0329,-0.0114,9.8066,0.007,-0.0129,-0.0304,-0.89,22.58,-24.76,264.51,2.9,-0.87
68729,50.432575,-4.779449,180,26.04,10.0,259.7,Sep-21,6807141,2019-08-17 09:13:56:508,-0.1195,-0.2294,9.7612,0.0031,0.0063,9.8066,-0.0101,-0.0107,-0.0357,-0.89,22.58,-24.76,264.51,2.9,-0.87
68730,50.432575,-4.779449,180,26.04,10.0,259.7,Sep-21,6807241,2019-08-17 09:13:56:608,-0.0329,-0.1468,9.5969,0.0141,0.0025,9.8066,-0.0101,-0.0107,-0.0357,-1.27,22.58,-25.64,264.35,2.94,-0.88
68731,50.432575,-4.779449,180,26.04,10.0,259.7,Sep-21,6807340,2019-08-17 09:13:56:707,-0.0517,0.1223,10.5039,0.0219,-0.0085,9.8066,-0.0069,-0.0459,-0.0229,-1.27,22.58,-24.82,264.53,2.9,-1.02
68732,50.432575,-4.779449,180,26.04,10.0,259.7,Sep-21,6807441,2019-08-17 09:13:56:808,0.0278,-0.01,10.6805,-0.0067,-0.0095,9.8066,0.0166,0.0372,-0.0389,-1.27,22.58,-24.82,264.53,2.9,-1.02
68733,50.432575,-4.779449,180,26.04,10.0,259.7,Sep-21,6807541,2019-08-17 09:13:56:908,-0.1745,-0.034,10.8352,-0.0109,-0.0198,9.8066,-0.0228,-0.0161,-0.0325,-0.52,22.58,-24.82,264.53,2.9,-1.02
68734,50.432575,-4.779449,180,26.04,10.0,259.7,Sep-21,6807640,2019-08-17 09:13:57:007,0.2034,0.163,9.9675,-0.0062,-0.0208,9.8066,0.0059,0.0159,-0.0197,-0.52,22.96,-25.7,264.53,2.78,-0.96
68735,50.43254,-4.779815,181,26.06,10.0,261.9,Sep-21,6807741,2019-08-17 09:13:57:108,0.197,0.126,9.944,0.0072,0.0287,9.8066,0.0134,0.0042,-0.0378,-0.89,22.58,-25.32,264.78,2.65,-0.89
68736,50.43254,-4.779815,181,26.06,10.0,261.9,Sep-21,6807841,2019-08-17 09:13:57:208,-0.1933,-0.0163,10.0373,0.006,0.0421,9.8066,-0.0026,-0.0427,-0.0346,-0.52,22.96,-25.32,264.78,2.65,-0.89
68737,50.43254,-4.779815,181,26.06,10.0,261.9,Sep-21,6807941,2019-08-17 09:13:57:308,-0.0534,-0.0846,10.1201,0.0119,0.0431,9.8065,0.0027,0.0212,-0.0325,-0.52,22.96,-25.32,264.78,2.65,-0.89
68738,50.43254,-4.779815,181,26.06,10.0,261.9,Sep-21,6808042,2019-08-17 09:13:57:409,0.0092,0.0016,9.965,-0.0006,-0.0006,9.8067,0.0027,0.0212,-0.0325,-0.14,22.58,-24.95,266.95,2.9,-0.94
68739,50.43254,-4.779815,181,26.06,10.0,261.9,Sep-21,6808143,2019-08-17 09:13:57:510,-0.0489,0.1612,9.0874,-0.0081,0.012,9.8066,0.0144,-0.015,-0.0272,-0.52,22.58,-24.51,264.44,2.97,-0.89
68740,50.43254,-4.779815,181,26.06,10.0,261.9,Sep-21,6808241,2019-08-17 09:13:57:608,-0.1177,0.026,9.4555,-0.0194,0.0011,9.8066,-0.0005,0.0052,-0.0091,-0.52,22.58,-24.51,264.44,2.97,-0.89
68741,50.43254,-4.779815,181,26.06,10.0,261.9,Sep-21,6808341,2019-08-17 09:13:57:708,-0.1623,-0.0605,9.7009,-0.0307,-0.01,9.8066,0.007,0.0074,-0.008,-0.52,22.96,-24.57,264.43,2.97,-0.77
68742,50.43254,-4.779815,181,26.06,10.0,261.9,Sep-21,6808441,2019-08-17 09:13:57:808,-0.0576,0.0,10.28,-0.0595,-0.0161,9.8065,0.0113,0.002,-0.024,-0.52,22.96,-24.14,264.43,2.97,-0.77
68743,50.43254,-4.779815,181,26.06,10.0,261.9,Sep-21,6808540,2019-08-17 09:13:57:907,-0.1604,-0.0588,10.3444,-0.0777,-0.0093,9.8063,-0.0047,-0.0001,-0.0304,-0.52,22.58,-24.57,264.46,2.87,-0.33
68744,50.432537,-4.780186,181,26.16,10.0,263.9,Sep-21,6808641,2019-08-17 09:13:58:008,-0.2623,0.011,10.7596,-0.0175,0.0033,9.8066,-0.0015,0.0074,-0.0176,-0.52,22.58,-25.51,264.29,2.91,-0.27
68745,50.432537,-4.780186,181,26.16,10.0,263.9,Sep-21,6808741,2019-08-17 09:13:58:108,0.0526,-0.0319,10.7034,-0.0314,0.0114,9.8066,-0.0015,0.0074,-0.0176,-0.52,22.58,-25.51,264.29,2.91,-0.27
68746,50.432537,-4.780186,181,26.16,10.0,263.9,Sep-21,6808841,2019-08-17 09:13:58:208,-0.2287,0.1046,9.1033,-0.0187,0.0209,9.8066,0.039,-0.0171,-0.0219,-0.14,22.58,-25.51,266.67,2.96,-0.08
68747,50.432537,-4.780186,181,26.16,10.0,263.9,Sep-21,6808941,2019-08-17 09:13:58:308,-0.1109,-0.1101,8.8298,-0.0271,0.0391,9.8065,0.0038,0.0052,-0.0336,-0.14,22.89,-25.07,266.67,2.96,-0.08
68748,50.432537,-4.780186,181,26.16,10.0,263.9,Sep-21,6809041,2019-08-17 09:13:58:408,-0.0967,-0.0993,9.3689,-0.0098,0.0089,9.8066,0.0294,-0.0683,-0.0357,-0.21,22.89,-25.14,266.54,3.18,0.09
68749,50.432537,-4.780186,181,26.16,10.0,263.9,Sep-21,6809140,2019-08-17 09:13:58:507,-0.2346,-0.2133,9.9646,-0.0235,0.0108,9.8066,-0.0005,0.0138,-0.0027,-0.21,22.52,-25.57,266.54,3.18,0.09
68750,50.432537,-4.780186,181,26.16,10.0,263.9,Sep-21,6809241,2019-08-17 09:13:58:608,-0.0694,-0.2841,10.5966,-0.0335,0.0016,9.8066,-0.0122,-0.0054,-0.0229,-0.14,22.52,-25.14,266.52,3.17,0.29
68751,50.432537,-4.780186,181,26.16,10.0,263.9,Sep-21,6809341,2019-08-17 09:13:58:708,0.0438,0.133,10.018,-0.0121,-0.0075,9.8066,0.0155,0.0372,-0.0069,-0.14,22.52,-25.14,266.52,3.17,0.29
68752,50.432537,-4.780186,181,26.16,10.0,263.9,Sep-21,6809441,2019-08-17 09:13:58:808,-0.1076,0.0635,10.1749,-0.0159,-0.0052,9.8066,-0.0239,0.0138,-0.0091,-0.21,22.89,-25.14,266.57,3.13,0.36
68753,50.432537,-4.780186,181,26.16,10.0,263.9,Sep-21,6809542,2019-08-17 09:13:58:909,-0.4976,-0.0667,9.7557,-0.0068,-0.0049,9.8066,0.0176,-0.0065,-0.0485,0.17,23.27,-25.14,266.69,3.0,0.47
68754,50.43251,-4.780571,183,26.16,10.0,265.1,Sep-21,6809641,2019-08-17 09:13:59:008,-0.5581,-0.0264,10.4926,0.0042,0.0299,9.8066,0.0176,-0.0065,-0.0485,-0.21,22.89,-24.76,266.71,2.97,0.51
68755,50.43251,-4.780571,183,26.16,10.0,265.1,Sep-21,6809741,2019-08-17 09:13:59:108,0.1232,0.3681,9.3178,0.0203,0.0569,9.8065,-0.0239,-0.0001,-0.0112,0.17,22.89,-26.01,266.71,2.97,0.51
68756,50.43251,-4.780571,183,26.16,10.0,265.1,Sep-21,6809841,2019-08-17 09:13:59:208,0.2104,0.1031,9.5864,0.0076,0.0239,9.8066,0.0272,-0.0033,-0.0442,0.17,22.52,-25.57,266.21,3.31,0.41
68757,50.43251,-4.780571,183,26.16,10.0,265.1,Sep-21,6809941,2019-08-17 09:13:59:308,0.269,-0.1217,10.3952,0.013,0.0222,9.8066,-0.0122,0.0489,-0.0251,0.17,22.52,-25.57,266.21,3.31,0.41
68758,50.43251,-4.780571,183,26.16,10.0,265.1,Sep-21,6810041,2019-08-17 09:13:59:408,0.2011,0.0954,9.4363,0.0147,-0.0081,9.8066,-0.0133,0.0074,-0.0251,0.54,22.52,-25.14,268.71,3.45,0.34
68759,50.43251,-4.780571,183,26.16,10.0,265.1,Sep-21,6810141,2019-08-17 09:13:59:508,0.4215,-0.3562,10.8469,0.0257,-0.0104,9.8066,0.0294,0.0787,-0.0283,0.54,22.52,-25.57,268.64,3.39,0.19
68760,50.43251,-4.780571,183,26.16,10.0,265.1,Sep-21,6810241,2019-08-17 09:13:59:608,0.369,-0.1254,9.9415,-0.0032,-0.027,9.8066,0.0049,0.0223,-0.0368,0.92,22.14,-25.57,268.64,3.39,0.19
68761,50.43251,-4.780571,183,26.16,10.0,265.1,Sep-21,6810341,2019-08-17 09:13:59:708,-0.0683,0.0143,9.6988,-0.0048,-0.0416,9.8066,-0.026,-0.0193,-0.0261,0.92,23.27,-25.14,269.05,3.15,0.21
68762,50.43251,-4.780571,183,26.16,10.0,265.1,Sep-21,6810440,2019-08-17 09:13:59:807,0.1218,0.4263,9.2931,0.0014,0.0124,9.8066,-0.026,-0.0193,-0.0261,0.92,23.27,-25.14,269.05,3.15,0.21
68763,50.43251,-4.780571,183,26.16,10.0,265.1,Sep-21,6810541,2019-08-17 09:13:59:908,0.0164,0.3004,9.2128,0.0056,0.0433,9.8066,0.0166,0.0191,-0.0336,0.54,22.21,-26.39,268.57,3.4,0.18
68764,50.4325,-4.780948,182,26.12,10.0,266.4,Sep-21,6810641,2019-08-17 09:14:00:008,-0.0841,0.1056,10.2059,0.0186,0.0268,9.8066,-0.0164,-0.0661,-0.0336,0.92,22.89,-26.01,268.57,3.4,0.18
68765,50.4325,-4.780948,182,26.12,10.0,266.4,Sep-21,6810741,2019-08-17 09:14:00:108,0.0551,0.425,10.1266,0.0198,0.0274,9.8066,-0.0143,0.0052,-0.0048,0.54,22.58,-25.07,268.61,3.56,0.07
68766,50.4325,-4.780948,182,26.12,10.0,266.4,Sep-21,6810840,2019-08-17 09:14:00:207,-0.0536,0.266,9.2652,0.0067,0.0109,9.8066,-0.0079,0.034,-0.0272,0.92,22.52,-25.57,268.39,3.63,0.03
68767,50.4325,-4.780948,182,26.12,10.0,266.4,Sep-21,6810941,2019-08-17 09:14:00:308,0.0725,0.1389,10.586,0.0265,-0.0193,9.8066,-0.0079,0.034,-0.0272,0.92,22.52,-25.57,268.39,3.63,0.03
68768,50.4325,-4.780948,182,26.12,10.0,266.4,Sep-21,6811041,2019-08-17 09:14:00:408,-0.2503,-0.0854,9.7055,0.023,-0.014,9.8066,-0.0175,0.0233,-0.0101,1.29,22.14,-25.14,268.62,3.52,-0.12
68769,50.4325,-4.780948,182,26.12,10.0,266.4,Sep-21,6811141,2019-08-17 09:14:00:508,-0.1602,-0.034,9.0749,0.0192,0.0083,9.8066,-0.0111,-0.0555,-0.0208,1.67,22.21,-25.95,271.15,3.44,-0.26
68770,50.4325,-4.780948,182,26.12,10.0,266.4,Sep-21,6811241,2019-08-17 09:14:00:608,0.192,0.3822,8.1838,0.0268,0.0341,9.8066,-0.009,-0.0374,-0.0304,1.67,22.21,-25.95,271.15,3.44,-0.26
68771,50.4325,-4.780948,182,26.12,10.0,266.4,Sep-21,6811341,2019-08-17 09:14:00:708,-0.0822,-0.0575,9.4418,0.0112,0.0213,9.8066,-0.0133,-0.0193,-0.0346,1.29,22.21,-25.51,268.35,3.64,-0.42
68772,50.4325,-4.780948,182,26.12,10.0,266.4,Sep-21,6811441,2019-08-17 09:14:00:808,0.0651,-0.163,9.7899,0.038,0.0329,9.8065,-0.0505,-0.0459,-0.0208,1.67,22.21,-24.64,270.88,3.83,-0.64
68773,50.4325,-4.780948,182,26.12,10.0,266.4,Sep-21,6811541,2019-08-17 09:14:00:908,-0.505,-0.2725,9.8199,0.0167,0.0066,9.8066,-0.0079,0.0596,-0.0283,1.67,22.21,-24.64,270.88,3.83,-0.64
68774,50.432487,-4.78133,183,26.17,10.0,267.6,Sep-21,6811641,2019-08-17 09:14:01:008,-0.0107,-0.2153,9.5167,0.0369,-0.0137,9.8066,-0.0314,0.0084,-0.0208,2.04,22.14,-24.32,271.15,3.75,-0.85
68775,50.432487,-4.78133,183,26.17,10.0,267.6,Sep-21,6811741,2019-08-17 09:14:01:108,0.1624,-0.0893,9.8851,0.0315,-0.0111,9.8066,-0.0218,-0.0512,-0.0038,1.67,22.21,-25.14,271.15,3.75,-0.85
68776,50.432487,-4.78133,183,26.17,10.0,267.6,Sep-21,6811841,2019-08-17 09:14:01:208,0.0566,0.0105,9.79,0.0484,-0.0023,9.8065,-0.0218,-0.0512,-0.0038,2.04,21.83,-25.14,271.01,3.73,-1.14
68777,50.432487,-4.78133,183,26.17,10.0,267.6,Sep-21,6811941,2019-08-17 09:14:01:308,0.2589,0.0946,10.3566,0.0256,0.0119,9.8066,-0.0143,0.0383,-0.0251,2.04,21.83,-25.14,271.01,3.73,-1.18
68778,50.432487,-4.78133,183,26.17,10.0,267.6,Sep-21,6812041,2019-08-17 09:14:01:408,0.0838,0.3422,9.2518,0.06,0.0027,9.8065,-0.0676,-0.0406,-0.0176,2.04,21.83,-25.14,271.01,3.73,-1.18
68779,50.432487,-4.78133,183,26.17,10.0,267.6,Sep-21,6812141,2019-08-17 09:14:01:508,-0.0818,-0.0206,10.6747,0.0232,-0.0153,9.8066,-0.0058,0.0223,-0.0165,2.04,21.83,-24.76,271.02,3.74,-1.53
68780,50.432487,-4.78133,183,26.17,10.0,267.6,Sep-21,6812241,2019-08-17 09:14:01:608,0.1607,0.0886,10.4722,0.0262,-0.0369,9.8065,-0.0271,-0.0289,-0.0219,2.42,21.77,-25.2,271.26,3.52,-1.68
68781,50.432487,-4.78133,183,26.17,10.0,267.6,Sep-21,6812341,2019-08-17 09:14:01:708,-0.121,0.0499,9.5069,0.0168,-0.011,9.8066,0.0038,-0.0054,-0.0368,2.04,21.39,-24.32,271.55,3.46,-1.77
68782,50.432487,-4.78133,183,26.17,10.0,267.6,Sep-21,6812441,2019-08-17 09:14:01:808,0.0425,-0.1456,9.1675,0.0174,0.0022,9.8066,-0.0207,-0.0171,-0.0336,2.04,21.39,-24.32,271.55,3.46,-1.77
68783,50.432487,-4.78133,183,26.17,10.0,267.6,Sep-21,6812541,2019-08-17 09:14:01:908,0.0921,-0.0041,9.3683,0.0368,0.0082,9.8066,-0.0207,-0.0171,-0.0336,2.42,21.02,-24.82,271.35,3.5,-1.99
68784,50.43249,-4.78169,183,26.26,10.0,268.9,Sep-21,6812641,2019-08-17 09:14:02:008,-0.0226,-0.265,9.6687,0.0225,0.018,9.8066,-0.0324,-0.0257,-0.0112,2.42,21.39,-24.82,271.35,3.5,-1.99
68785,50.43249,-4.78169,183,26.26,10.0,268.9,Sep-21,6812741,2019-08-17 09:14:02:108,0.1236,-0.0249,9.7466,0.0215,0.0284,9.8066,0.0166,0.0574,-0.0357,2.42,20.71,-26.14,271.01,3.66,-2.12
68786,50.43249,-4.78169,183,26.26,10.0,268.9,Sep-21,6812841,2019-08-17 09:14:02:208,-0.1983,-0.071,9.9641,-0.0134,-0.0504,9.8065,0.0006,0.034,-0.0197,2.42,20.71,-26.14,271.01,3.66,-2.12
68787,50.43249,-4.78169,183,26.26,10.0,268.9,Sep-21,6812941,2019-08-17 09:14:02:308,-0.0417,-0.3722,9.9707,-0.0017,-0.0183,9.8066,-0.0037,0.0574,-0.0059,2.04,21.39,-25.26,271.5,3.37,-2.04
68788,50.43249,-4.78169,183,26.26,10.0,268.9,Sep-21,6813041,2019-08-17 09:14:02:408,-0.1975,0.2633,9.7235,-0.0063,0.0053,9.8066,0.0144,0.0223,-0.0251,2.42,21.39,-25.76,271.46,3.26,-2.02
68789,50.43249,-4.78169,183,26.26,10.0,268.9,Sep-21,6813141,2019-08-17 09:14:02:508,-0.0776,0.4518,9.7771,-0.0037,0.0322,9.8066,-0.0473,-0.0566,-0.0314,2.42,21.02,-25.32,271.58,3.3,-1.99
68790,50.43249,-4.78169,183,26.26,10.0,268.9,Sep-21,6813241,2019-08-17 09:14:02:608,-0.2876,0.0751,10.0874,0.0095,0.0439,9.8065,-0.0473,-0.0566,-0.0314,2.42,21.02,-25.32,271.58,3.3,-1.99
68791,50.43249,-4.78169,183,26.26,10.0,268.9,Sep-21,6813341,2019-08-17 09:14:02:708,0.3781,0.5839,9.6617,0.0094,-0.0034,9.8066,-0.0122,-0.0054,-0.0176,2.42,21.39,-26.2,271.13,3.55,-2.05
68792,50.43249,-4.78169,183,26.26,10.0,268.9,Sep-21,6813441,2019-08-17 09:14:02:808,0.2834,0.6028,8.9018,-0.0065,0.0164,9.8066,-0.0015,-0.0693,-0.008,2.79,20.64,-26.2,273.63,3.65,-2.01
68793,50.43249,-4.78169,183,26.26,10.0,268.9,Sep-21,6813541,2019-08-17 09:14:02:908,-0.0629,-0.2311,9.7716,-0.0055,0.0194,9.8066,0.0027,0.0265,-0.0304,2.79,20.64,-26.2,273.63,3.65,-2.01
68794,50.43247,-4.782063,184,26.13,10.0,269.9,Sep-21,6813641,2019-08-17 09:14:03:008,-0.3103,-0.208,9.8412,-0.0116,0.0163,9.8066,-0.0303,-0.0161,-0.0059,3.17,21.02,-25.82,273.51,3.75,-1.95
68795,50.43247,-4.782063,184,26.13,10.0,269.9,Sep-21,6813741,2019-08-17 09:14:03:108,-0.5755,0.0377,9.3718,-0.0066,-0.0208,9.8066,-0.026,0.0159,-0.0112,2.42,20.64,-26.26,271.04,3.63,-1.91
68796,50.43247,-4.782063,184,26.13,10.0,269.9,Sep-21,6813841,2019-08-17 09:14:03:208,-0.5863,-0.2017,9.2524,0.0254,0.038,9.8065,-0.0825,-0.0225,-0.0187,2.79,20.64,-25.82,273.61,3.66,-1.89
68797,50.43247,-4.782063,184,26.13,10.0,269.9,Sep-21,6813941,2019-08-17 09:14:03:308,-0.1922,0.2971,8.6001,0.076,0.0763,9.8061,-0.091,-0.0448,-0.0261,2.79,20.27,-25.45,273.61,3.66,-1.89
68798,50.43247,-4.782063,184,26.13,10.0,269.9,Sep-21,6814041,2019-08-17 09:14:03:408,0.0213,0.322,8.844,0.0534,0.0267,9.8065,-0.091,-0.0448,-0.0261,2.79,19.52,-25.89,273.27,4.08,-2.37
68799,50.43247,-4.782063,184,26.13,10.0,269.9,Sep-21,6814141,2019-08-17 09:14:03:508,-0.4223,0.337,9.8284,0.0771,0.0594,9.8062,-0.1027,0.0127,0.0016,2.79,19.52,-25.89,273.27,4.08,-2.37
68800,50.43247,-4.782063,184,26.13,10.0,269.9,Sep-21,6814241,2019-08-17 09:14:03:608,-0.3315,-0.2236,9.7963,0.0052,0.0076,9.8066,-0.0271,0.0265,-0.0048,3.17,19.52,-26.76,272.68,4.4,-2.84
68801,50.43247,-4.782063,184,26.13,10.0,269.9,Sep-21,6814342,2019-08-17 09:14:03:709,-0.4779,-0.3419,9.596,0.0114,-0.0286,9.8066,0.0059,0.0521,-0.0069,2.79,19.52,-26.32,273.1,4.23,-2.9
68802,50.43247,-4.782063,184,26.13,10.0,269.9,Sep-21,6814442,2019-08-17 09:14:03:809,0.0136,-0.3163,9.9776,0.0004,-0.0457,9.8065,-0.0175,0.018,0.008,2.79,19.52,-26.32,273.1,4.23,-2.9
68803,50.43247,-4.782063,184,26.13,10.0,269.9,Sep-21,6814542,2019-08-17 09:14:03:909,0.0393,-0.2922,9.6785,-0.0163,0.0105,9.8066,0.0251,0.0574,0.0144,3.17,19.14,-26.76,273.36,3.96,-2.88
68804,50.43247,-4.782063,184,26.13,10.0,269.9,Sep-21,6814641,2019-08-17 09:14:04:008,-0.0546,-0.1719,9.1099,-0.0313,-0.0037,9.8066,-0.0196,0.0106,-0.0027,3.11,19.14,-26.39,273.48,4.03,-2.79
68805,50.432472,-4.782433,184,26.24,10.0,270.8,Sep-21,6814741,2019-08-17 09:14:04:108,-0.2309,-0.005,9.7577,-0.0466,-0.0172,9.8065,0.0208,0.002,0.0026,3.11,19.14,-27.26,273.39,3.95,-2.51
68806,50.432472,-4.782433,184,26.24,10.0,270.8,Sep-21,6814841,2019-08-17 09:14:04:208,-0.2728,-0.1559,10.0781,-0.0318,-0.0025,9.8066,0.0208,0.002,0.0026,3.11,19.14,-27.26,273.39,3.95,-2.51
68807,50.432472,-4.782433,184,26.24,10.0,270.8,Sep-21,6814941,2019-08-17 09:14:04:308,-0.283,0.1511,9.7037,-0.0409,0.0288,9.8065,0.0326,-0.0246,-0.0048,3.11,19.14,-26.82,273.39,3.94,-2.33
68808,50.432472,-4.782433,184,26.24,10.0,270.8,Sep-21,6815041,2019-08-17 09:14:04:408,-0.1168,0.4154,10.1407,-0.0787,0.0546,9.8062,0.0006,-0.0097,0.0026,3.48,19.14,-26.82,272.94,4.29,-1.89
68809,50.432472,-4.782433,184,26.24,10.0,270.8,Sep-21,6815141,2019-08-17 09:14:04:508,-0.2942,0.241,10.8266,-0.0108,-0.0301,9.8066,-0.0218,0.0894,-0.0016,3.48,19.14,-26.82,272.94,4.29,-1.89
68810,50.432472,-4.782433,184,26.24,10.0,270.8,Sep-21,6815241,2019-08-17 09:14:04:608,-0.3822,-0.2351,10.7762,-0.0229,-0.0188,9.8066,-0.0378,0.034,0.0058,3.11,19.14,-26.89,273.17,4.12,-1.81
68811,50.432472,-4.782433,184,26.24,10.0,270.8,Sep-21,6815341,2019-08-17 09:14:04:708,0.2751,-0.1233,10.6033,-0.005,-0.0291,9.8066,-0.0292,0.0393,0.0101,3.11,19.52,-26.89,273.15,4.01,-1.67
68812,50.432472,-4.782433,184,26.24,10.0,270.8,Sep-21,6815441,2019-08-17 09:14:04:808,-0.3452,0.0816,9.2755,-0.017,-0.0201,9.8066,-0.009,0.0074,0.0016,3.11,19.52,-26.89,273.15,4.01,-1.67
68813,50.432472,-4.782433,184,26.24,10.0,270.8,Sep-21,6815541,2019-08-17 09:14:04:908,0.088,-0.0584,9.2024,-0.0212,0.0057,9.8066,-0.009,0.0074,0.0016,3.11,19.14,-27.76,273.26,3.9,-1.57
68814,50.432476,-4.782805,183,26.34,10.0,270.9,Sep-21,6815641,2019-08-17 09:14:05:008,-0.0037,0.0916,9.4001,-0.0453,0.0252,9.8065,0.0336,-0.0129,-0.0112,3.48,18.77,-26.89,273.26,3.9,-1.57
68815,50.432476,-4.782805,183,26.34,10.0,270.9,Sep-21,6815741,2019-08-17 09:14:05:108,-0.3056,-0.315,10.9439,-0.0594,0.0397,9.8064,-0.0069,0.0553,-0.0006,2.79,19.14,-26.89,273.12,4.15,-1.23
68816,50.432476,-4.782805,183,26.34,10.0,270.9,Sep-21,6815841,2019-08-17 09:14:05:208,-0.3726,-0.029,8.9225,-0.0065,-0.0013,9.8066,-0.0143,0.0074,-0.0091,2.79,19.14,-26.89,273.12,4.15,-1.23
68817,50.432476,-4.782805,183,26.34,10.0,270.9,Sep-21,6815941,2019-08-17 09:14:05:308,-0.3748,-0.1458,9.9097,0.003,-0.0075,9.8066,-0.0388,-0.0342,0.0207,3.11,19.52,-26.82,272.98,4.15,-1.19
68818,50.432476,-4.782805,183,26.34,10.0,270.9,Sep-21,6816040,2019-08-17 09:14:05:407,-0.0157,-0.2553,10.2662,-0.0069,-0.0155,9.8066,0.0251,0.0521,-0.0101,3.11,19.14,-27.26,272.98,4.15,-1.19
68819,50.432476,-4.782805,183,26.34,10.0,270.9,Sep-21,6816141,2019-08-17 09:14:05:508,0.2039,-0.1524,10.8301,-0.0181,-0.0318,9.8066,-0.0505,-0.0725,0.0048,3.04,19.06,-25.83,273.58,3.97,-1.08
68820,50.432476,-4.782805,183,26.34,10.0,270.9,Sep-21,6816241,2019-08-17 09:14:05:608,0.3072,0.1659,10.3962,0.0157,-0.0016,9.8066,0.0102,0.0223,-0.0069,2.72,18.69,-25.76,273.58,3.97,-1.08
68821,50.432476,-4.782805,183,26.34,10.0,270.9,Sep-21,6816341,2019-08-17 09:14:05:708,0.4227,0.3964,9.3073,0.0311,0.0265,9.8066,-0.0037,0.001,-0.0006,3.1,18.69,-25.7,273.39,4.11,-1.27
68822,50.432476,-4.782805,183,26.34,10.0,270.9,Sep-21,6816440,2019-08-17 09:14:05:807,0.1578,0.2772,9.3549,-0.0057,0.0175,9.8066,-0.0037,0.001,-0.0006,3.1,18.69,-25.7,273.39,4.11,-1.27
68823,50.432476,-4.782805,183,26.34,10.0,270.9,Sep-21,6816541,2019-08-17 09:14:05:908,-0.2249,0.3084,8.3717,-0.0151,0.0109,9.8066,0.0155,-0.0225,-0.0059,3.04,18.69,-25.76,273.09,4.34,-1.26
68824,50.432476,-4.782805,183,26.34,10.0,270.9,Sep-21,6816641,2019-08-17 09:14:06:008,-0.0241,-0.2458,10.5075,-0.0233,0.0161,9.8066,-0.0111,-0.0108,0.0016,3.1,18.69,-25.7,273.09,4.34,-1.26
68825,50.432476,-4.782805,183,26.34,10.0,270.9,Sep-21,6816741,2019-08-17 09:14:06:108,0.0337,0.0229,9.6033,-0.0048,-0.0069,9.8066,-0.0133,-0.0246,0.0165,3.04,18.69,-24.89,273.19,4.44,-1.13
68826,50.432476,-4.782805,183,26.34,10.0,270.9,Sep-21,6816841,2019-08-17 09:14:06:208,0.2617,0.066,9.9763,-0.0295,-0.0397,9.8065,-0.0154,0.0255,0.0261,3.04,18.69,-24.89,273.19,4.44,-1.13
68827,50.43248,-4.783182,184,26.23,10.0,271.2,Sep-21,6816941,2019-08-17 09:14:06:308,0.1016,0.0162,9.6182,-0.0274,-0.0285,9.8066,0.0038,0.001,0.0048,3.41,18.69,-25.7,273.25,4.21,-0.94
68828,50.43248,-4.783182,184,26.23,10.0,271.2,Sep-21,6817041,2019-08-17 09:14:06:408,-0.4001,-0.0408,10.0387,-0.0533,-0.0352,9.8064,0.0017,-0.015,0.0154,3.1,18.69,-25.26,273.72,4.03,-0.62
68829,50.43248,-4.783182,184,26.23,10.0,271.2,Sep-21,6817141,2019-08-17 09:14:06:508,0.0179,0.2107,9.49,-0.0372,0.0024,9.8066,0.0091,0.034,0.0069,3.1,18.69,-25.26,273.72,4.03,-0.62
68830,50.43248,-4.783182,184,26.23,10.0,271.2,Sep-21,6817241,2019-08-17 09:14:06:608,-0.3998,0.1578,9.4965,-0.0226,0.02,9.8066,-0.042,-0.0459,0.0176,2.72,19.06,-25.26,273.68,4.05,-0.4
68831,50.43248,-4.783182,184,26.23,10.0,271.2,Sep-21,6817341,2019-08-17 09:14:06:708,-0.2453,0.1519,9.9435,-0.0302,0.0386,9.8065,-0.042,-0.0459,0.0176,3.1,19.06,-25.7,273.15,4.29,-0.24
68832,50.43248,-4.783182,184,26.23,10.0,271.2,Sep-21,6817441,2019-08-17 09:14:06:808,-0.0892,-0.0218,9.5249,-0.0167,0.0391,9.8066,-0.0026,0.001,0.0144,3.1,19.06,-26.08,273.15,4.29,-0.24
68833,50.43248,-4.783182,184,26.23,10.0,271.2,Sep-21,6817541,2019-08-17 09:14:06:908,-0.0921,-0.242,9.8622,0.0073,-0.0233,9.8066,-0.0442,0.0095,0.0197,3.1,18.75,-25.64,272.83,4.52,-0.16
68834,50.43248,-4.783182,184,26.23,10.0,271.2,Sep-21,6817641,2019-08-17 09:14:07:008,0.2819,-0.2948,9.7529,0.0125,-0.0353,9.8066,-0.0228,0.0478,0.0133,3.1,18.38,-26.08,272.83,4.52,-0.16
68835,50.432476,-4.783548,184,26.11,10.0,271.0,Sep-21,6817741,2019-08-17 09:14:07:108,0.3621,-0.1964,9.2069,0.0241,-0.0468,9.8065,-0.0165,0.0191,0.0122,3.1,18.38,-26.08,272.83,4.52,-0.16
68836,50.432476,-4.783548,184,26.11,10.0,271.0,Sep-21,6817840,2019-08-17 09:14:07:207,-0.1616,-0.0269,9.1766,-0.0063,0.0029,9.8066,0.0027,-0.0374,0.0197,2.72,18.0,-25.2,273.62,4.24,-0.28
68837,50.432476,-4.783548,184,26.11,10.0,271.0,Sep-21,6817941,2019-08-17 09:14:07:308,-0.1653,0.1147,8.9705,-0.0172,0.0096,9.8066,-0.0047,0.0063,0.0112,3.1,18.75,-24.76,273.36,4.31,-0.19
68838,50.432476,-4.783548,184,26.11,10.0,271.0,Sep-21,6818043,2019-08-17 09:14:07:410,-0.128,0.265,9.1132,-0.0082,0.0113,9.8066,-0.0239,-0.0161,0.008,3.1,19.13,-23.89,273.36,4.31,-0.19
68839,50.432476,-4.783548,184,26.11,10.0,271.0,Sep-21,6818141,2019-08-17 09:14:07:508,-0.1619,0.2297,9.6218,-0.0152,0.0234,9.8066,0.0112,-0.0235,0.0176,2.72,19.13,-24.76,273.17,4.45,-0.11
68840,50.432476,-4.783548,184,26.11,10.0,271.0,Sep-21,6818242,2019-08-17 09:14:07:609,-0.0941,0.2983,9.5573,0.0021,0.0042,9.8067,0.0112,-0.0235,0.0176,2.72,19.13,-24.76,273.17,4.45,-0.11
68841,50.432476,-4.783548,184,26.11,10.0,271.0,Sep-21,6818341,2019-08-17 09:14:07:708,0.0828,0.3594,9.4872,-0.0056,-0.0011,9.8067,0.0059,0.0425,0.0101,3.1,18.75,-24.76,273.17,4.45,-0.11
68842,50.432476,-4.783548,184,26.11,10.0,271.0,Sep-21,6818441,2019-08-17 09:14:07:808,-0.144,0.0852,10.7191,-0.0078,-0.0052,9.8066,0.0006,-0.0321,0.0186,2.72,18.38,-26.08,273.1,4.44,-0.07
68843,50.432476,-4.783548,184,26.11,10.0,271.0,Sep-21,6818541,2019-08-17 09:14:07:908,0.0333,0.1543,9.8939,-0.0088,0.0011,9.8066,-0.0037,0.0244,0.025,3.1,18.38,-24.33,273.65,4.4,0.04
68844,50.432476,-4.783548,184,26.11,10.0,271.0,Sep-21,6818641,2019-08-17 09:14:08:008,0.0099,-0.0002,9.5127,-0.0045,-0.003,9.8066,-0.0165,0.0084,-0.0006,3.1,18.38,-24.33,273.65,4.4,0.04
68845,50.43249,-4.783913,183,26.25,10.0,271.1,Sep-21,6818741,2019-08-17 09:14:08:108,0.1883,0.246,8.96,0.0086,0.002,9.8066,-0.009,-0.0012,0.0208,3.1,18.75,-24.33,273.48,4.38,0.07
68846,50.43249,-4.783913,183,26.25,10.0,271.1,Sep-21,6818841,2019-08-17 09:14:08:208,0.1473,0.2339,8.6403,0.0042,0.005,9.8067,-0.0218,0.018,0.0133,2.72,18.38,-25.64,273.18,4.39,0.02
68847,50.43249,-4.783913,183,26.25,10.0,271.1,Sep-21,6818941,2019-08-17 09:14:08:308,0.1198,0.0007,10.3878,0.0062,0.0053,9.8066,-0.0218,0.018,0.0133,2.72,18.38,-25.2,273.38,4.42,-0.02
68848,50.43249,-4.783913,183,26.25,10.0,271.1,Sep-21,6819041,2019-08-17 09:14:08:408,0.0574,0.1277,9.5126,0.0056,-0.0095,9.8066,-0.0069,0.0063,0.008,3.1,18.38,-25.2,273.38,4.42,-0.02
68849,50.43249,-4.783913,183,26.25,10.0,271.1,Sep-21,6819141,2019-08-17 09:14:08:508,0.0224,-0.0704,9.434,0.0091,-0.0124,9.8066,-0.009,0.0297,0.025,2.35,18.38,-25.2,270.32,4.35,-0.07
68850,50.43249,-4.783913,183,26.25,10.0,271.1,Sep-21,6819241,2019-08-17 09:14:08:608,0.127,-0.0146,9.764,-0.0071,-0.0134,9.8066,0.0049,0.0468,0.008,2.35,18.38,-25.2,270.32,4.35,-0.07
68851,50.43249,-4.783913,183,26.25,10.0,271.1,Sep-21,6819341,2019-08-17 09:14:08:708,0.0718,0.1276,10.0474,-0.0154,-0.0209,9.8066,-0.0207,-0.0384,0.0176,2.72,18.69,-24.39,273.68,4.23,0.02
68852,50.43249,-4.783913,183,26.25,10.0,271.1,Sep-21,6819441,2019-08-17 09:14:08:808,-0.2357,0.0331,10.9349,-0.0133,0.0253,9.8066,0.0049,0.0276,0.0314,2.72,19.06,-25.26,273.33,4.33,0.04
