,GPS LATITUDE (degrees), GPS LONGITUDE (degrees), GPS ALTITUDE (m), GPS SPEED (Kmh), GPS ACCURACY (m), GPS ORIENTATION (Â°),GPS SATELLITES IN RANGE, TIME SINCE START (ms), DATE (YYYY-MO-DD HH-MI-SS_SSS), ACCELEROMETER X (m/s²) , ACCELEROMETER Y (m/s²), ACCELEROMETER Z (m/s²), GRAVITY X (m/s²), GRAVITY Y (m/s²), GRAVITY Z (m/s²), GYROSCOPE Yaw (rad/s), GYROSCOPE Pitch (rad/s), GYROSCOPE Roll (rad/s), MAGNETIC FIELD X (Î¼T), MAGNETIC FIELD Y (Î¼T), MAGNETIC FIELD Z (Î¼T), ORIENTATION (Yaw) (Â°), ORIENTATION (Pitch) (Â°), ORIENTATION (Roll ) (Â°)
2340,52.0076,-2.048101,69,12.97,14,222.9,Nov-21,1170020,2020-03-21 11:30:38:097,0.1303,-0.1519,9.7685,-0.0024,0.0023,9.8066,-0.0107,0.0106,-0.0053,5.93,-7.57,-30.67,34.4,-18.06,4.37
2341,52.0076,-2.048101,69,12.97,14,222.9,Nov-21,1170521,2020-03-21 11:30:38:598,-0.4714,0.2342,9.4015,0.0013,0.0028,9.8067,-0.0437,0.0128,-0.0202,5.93,-7.19,-30.23,32.56,-17.73,4.55
2342,52.0076,-2.048101,69,12.97,14,222.9,Nov-21,1171021,2020-03-21 11:30:39:098,0.1107,-0.0331,9.7159,0.0029,-0.0137,9.8066,0.0139,-0.0085,-0.016,5.55,-7.57,-31.11,35.51,-17.6,4.86
2343,52.0076,-2.048101,69,12.97,14,222.9,Nov-21,1171520,2020-03-21 11:30:39:597,0.1855,-0.3253,9.6008,0.0051,-0.0073,9.8066,-0.0138,0.0085,-0.0266,5.55,-7.19,-31.55,33.43,-17.45,5.36
2344,52.0076,-2.048101,69,12.97,14,222.9,Nov-21,1172021,2020-03-21 11:30:40:098,0.5752,-0.2285,9.7585,0.0048,-0.0049,9.8066,0.0075,-0.0011,-0.0298,5.93,-8.32,-30.67,36.71,-17.4,5.58
2345,52.0076,-2.048101,69,12.97,14,222.9,Nov-21,1172521,2020-03-21 11:30:40:598,-0.422,-0.0529,9.5579,-0.0167,-0.0157,9.8066,-0.0149,-0.0139,-0.0352,5.55,-7.94,-30.67,37.45,-17.14,5.94
2346,52.0076,-2.048101,69,12.97,14,222.9,Nov-21,1173020,2020-03-21 11:30:41:097,-0.6233,0.4067,9.6567,-0.0145,-0.0152,9.8066,-0.0192,-0.0181,-0.0405,5.55,-7.57,-30.67,39.09,-15.83,6.25
2347,52.0076,-2.048101,69,12.97,14,222.9,Nov-21,1173521,2020-03-21 11:30:41:598,0.7609,-0.6297,9.7421,0.0062,-0.012,9.8066,0.0394,0.017,-0.033,5.18,-8.63,-29.8,45.68,-14.79,6.75
2348,52.0076,-2.048101,69,12.97,14,222.9,Nov-21,1174020,2020-03-21 11:30:42:097,-0.1352,0.1817,10.1858,-0.0117,0.0045,9.8066,-0.0437,-0.0149,-0.0224,5.18,-8.63,-30.23,46.19,-14.5,6.89
2349,52.0076,-2.048101,69,12.97,14,222.9,Nov-21,1174521,2020-03-21 11:30:42:598,0.1829,-0.0618,9.5858,-0.0067,0.0056,9.8066,-0.0075,0.0021,-0.0021,5.18,-8.32,-29.8,43.42,-14.27,6.47
2350,52.0076,-2.048101,69,12.97,14,222.9,Nov-21,1175020,2020-03-21 11:30:43:097,-0.0727,-0.0629,9.8522,-0.0036,0.0052,9.8066,-0.0138,0.0096,-0.0064,5.55,-9.01,-29.8,42.81,-14.2,5.76
2351,52.0076,-2.048101,69,12.97,14,222.9,Nov-21,1175521,2020-03-21 11:30:43:598,0.627,-0.3604,9.9157,0.0012,0.0089,9.8066,0.0085,-0.0053,0.0117,5.18,-9.01,-30.23,44.2,-14.21,5.14
2352,52.0076,-2.048101,69,12.97,14,222.9,Nov-21,1176021,2020-03-21 11:30:44:098,0.9481,0.4972,9.8554,0.0187,0.0166,9.8066,0.0075,0.0106,0.032,5.55,-9.76,-29.8,42.61,-14.85,4.29
2353,52.0076,-2.048101,69,12.97,14,222.9,Nov-21,1176521,2020-03-21 11:30:44:598,0.3998,-0.1335,9.7137,0.0031,0.0187,9.8066,-0.0085,-0.0171,0.0149,5.18,-9.38,-29.8,40.02,-16.35,3.79
2354,52.0076,-2.048101,69,12.97,14,222.9,Nov-21,1177020,2020-03-21 11:30:45:097,-0.5731,0.4243,9.6148,0.0009,0.0136,9.8066,-0.0053,0.0192,0.0203,5.18,-10.13,-30.23,40.51,-17.29,2.99
2355,52.0076,-2.048101,69,12.97,14,222.9,Apr-21,1177520,2020-03-21 11:30:45:597,-0.5023,0.3835,9.5621,-0.0064,-0.0039,9.8066,0.0256,-0.0149,0.0085,5.18,-10.51,-29.8,42.08,-17.27,2.35
2356,52.0076,-2.048101,69,12.97,14,222.9,Apr-21,1178020,2020-03-21 11:30:46:097,0.3049,-0.3396,9.7865,0.0043,-0.0046,9.8066,0.0075,-0.0043,0.0107,5.55,-9.76,-29.8,38.51,-16.58,2.47
2357,52.0076,-2.048101,69,12.97,14,222.9,Apr-21,1178521,2020-03-21 11:30:46:598,0.0458,0.0948,9.8206,-0.0025,-0.0011,9.8067,-0.0053,-0.0043,0.0064,5.93,-9.76,-30.23,38.71,-16.3,2.43
2358,52.0076,-2.048101,69,12.97,14,222.9,Apr-21,1179020,2020-03-21 11:30:47:097,-0.2848,-0.0913,9.9606,-0.0107,-0.0126,9.8066,0.0373,-0.0266,-0.0053,5.55,-9.76,-29.8,39.9,-15.28,2.59
2359,52.0076,-2.048101,69,12.97,14,222.9,Jun-21,1179521,2020-03-21 11:30:47:598,-0.3228,-0.3249,10.017,-0.0008,-0.0068,9.8066,-0.0096,0.017,-0.0042,6.3,-9.38,-29.8,38.85,-14.43,3.07
2360,52.0076,-2.048101,69,12.97,14,222.9,Jun-21,1180021,2020-03-21 11:30:48:098,0.6878,-0.7712,10.0751,0.0084,-0.0113,9.8066,0.0341,-0.0075,-0.0032,5.55,-9.38,-30.23,39.98,-13.92,3.49
2361,52.0076,-2.048101,69,12.97,14,222.9,Aug-21,1180520,2020-03-21 11:30:48:597,0.043,-0.4223,9.8115,0.0001,-0.0155,9.8066,0.0234,-0.0021,-0.0181,5.93,-9.76,-30.23,43.45,-13.48,3.84
2362,52.0076,-2.048101,69,12.97,14,222.9,Aug-21,1181020,2020-03-21 11:30:49:097,-0.1132,-0.3531,9.4796,-0.0036,-0.0129,9.8066,-0.0202,0.0298,-0.0117,5.93,-9.01,-29.8,43.15,-12.07,4.31
2363,52.00672,-2.049322,74,10.36,44,226.9,Oct-21,1181521,2020-03-21 11:30:49:598,-0.2642,0.5226,9.7554,-0.0052,-0.0034,9.8067,-0.0224,0.0202,-0.0266,5.93,-9.38,-29.8,44.75,-10.88,4.46
2364,52.00672,-2.049322,74,10.36,44,226.9,Oct-21,1182021,2020-03-21 11:30:50:098,0.0288,-0.4806,9.8372,-0.0062,-0.0208,9.8066,-0.0107,-0.0021,-0.016,5.55,-10.13,-30.23,48.54,-9.94,4.61
2365,52.00672,-2.049322,74,10.36,44,226.9,Oct-21,1182520,2020-03-21 11:30:50:597,0.1825,0.2168,9.9019,0.0051,0.0048,9.8066,0.0128,-0.0277,0.0032,5.55,-10.13,-29.8,49.27,-9.44,4.68
2366,52.00672,-2.049322,74,10.36,44,226.9,Oct-21,1183021,2020-03-21 11:30:51:098,0.5764,0.603,9.2122,0.0058,0.0092,9.8066,-0.0053,-0.0171,0.0,5.55,-10.51,-29.8,48.42,-11.59,4.3
2367,52.00672,-2.049322,74,10.36,44,226.9,Oct-21,1183520,2020-03-21 11:30:51:597,0.6018,0.3938,9.8166,0.0073,0.0188,9.8066,0.0341,-0.0266,-0.0011,5.55,-10.51,-30.23,45.79,-13.13,3.55
2368,52.00672,-2.049322,74,10.36,44,226.9,Oct-21,1184020,2020-03-21 11:30:52:097,-0.1316,0.255,9.5601,0.0187,-0.0139,9.8066,-0.0075,0.0011,-0.0181,5.55,-9.76,-29.36,43.3,-13.91,3.79
2369,52.00672,-2.049322,74,10.36,44,226.9,Oct-21,1184521,2020-03-21 11:30:52:598,-0.0123,0.0427,9.0485,-0.0009,0.0043,9.8067,0.0075,0.0064,-0.0106,5.55,-9.76,-29.36,43.81,-13.86,4.14
2370,52.00672,-2.049322,74,10.36,44,226.9,Oct-21,1185020,2020-03-21 11:30:53:097,-0.5429,0.0402,9.9946,-0.0005,0.0008,9.8067,-0.0352,0.0181,-0.0149,5.55,-10.13,-30.61,42.94,-14.19,4.3
2371,52.00672,-2.049322,74,10.36,44,226.9,Mar-21,1185521,2020-03-21 11:30:53:598,-0.1617,0.3313,9.743,0.0083,0.0122,9.8066,-0.016,0.0074,0.0021,5.18,-9.76,-30.23,45.13,-14.69,4.42
2372,52.00672,-2.049322,74,10.36,44,226.9,Mar-21,1186020,2020-03-21 11:30:54:097,-0.2356,0.4338,9.1479,0.0212,0.0036,9.8066,0.0479,0.0234,-0.0245,5.55,-9.76,-29.36,42.66,-14.61,3.84
2373,52.00672,-2.049322,74,10.36,44,226.9,Jul-21,1186521,2020-03-21 11:30:54:598,0.6085,-0.3221,10.2812,0.0013,0.0135,9.8066,-0.0149,0.0181,0.0032,5.55,-9.38,-30.23,40.51,-15.44,4.96
2374,52.00672,-2.049322,74,10.36,44,226.9,Jul-21,1187021,2020-03-21 11:30:55:098,0.1181,0.0127,9.9433,-0.0055,-0.0054,9.8066,0.0075,-0.0341,-0.0085,5.12,-10.58,-29.96,46.62,-15.82,4.76
2375,52.00672,-2.049322,74,10.36,44,226.9,Jul-21,1187521,2020-03-21 11:30:55:598,0.0981,-0.1352,10.2816,-0.0004,-0.0016,9.8067,-0.0682,0.0117,-0.0266,5.12,-10.2,-30.39,44.55,-15.87,4.94
2376,52.00672,-2.049322,74,10.36,44,226.9,Jul-21,1188021,2020-03-21 11:30:56:098,0.3581,-0.5207,10.0184,-0.0002,-0.0045,9.8067,0.0298,-0.0181,-0.0074,5.12,-10.58,-29.96,46.33,-15.83,4.53
2377,52.00672,-2.049322,74,10.36,44,226.9,Jul-21,1188520,2020-03-21 11:30:56:597,-0.4471,0.1792,9.3585,-0.0056,-0.0028,9.8066,0.0288,-0.0288,-0.0085,5.12,-9.83,-29.96,44.46,-15.65,4.69
2378,52.00672,-2.049322,74,10.36,44,226.9,Jul-21,1189020,2020-03-21 11:30:57:097,0.2263,0.441,9.6463,-0.0026,0.0119,9.8066,0.0021,0.0011,0.0341,5.49,-9.83,-29.52,43.76,-15.6,4.13
2379,52.00672,-2.049322,74,10.36,44,226.9,Jul-21,1189520,2020-03-21 11:30:57:597,-0.4141,0.5334,9.5741,-0.0128,0.0207,9.8066,0.0117,-0.0032,0.0288,5.87,-10.2,-29.96,39.11,-16.02,2.53
2380,52.00672,-2.049322,74,10.36,44,226.9,Jul-21,1190021,2020-03-21 11:30:58:098,0.0239,0.0313,9.8061,-0.0083,0.0028,9.8066,0.0128,-0.0075,0.0352,5.87,-10.95,-29.96,40.73,-15.59,1.63
2381,52.00672,-2.049322,74,10.36,44,226.9,Jul-21,1190521,2020-03-21 11:30:58:598,-0.254,-1.1679,9.8396,-0.0077,-0.0043,9.8066,0.0064,0.0011,0.0234,5.87,-9.45,-29.52,35.25,-15.23,1.2
2382,52.00672,-2.049322,74,10.36,44,226.9,Jul-21,1191020,2020-03-21 11:30:59:097,0.014,-0.0169,9.6796,0.0005,-0.015,9.8066,-0.0032,0.0032,0.0011,6.24,-9.45,-29.96,36.02,-14.91,1.5
2383,52.00672,-2.049322,74,10.36,44,226.9,Jul-21,1191521,2020-03-21 11:30:59:598,0.448,-1.0819,9.5956,0.018,-0.0527,9.8065,0.0171,0.0117,-0.0501,5.87,-9.45,-29.96,38.44,-14.69,2.97
2384,52.00672,-2.049322,74,10.36,44,226.9,Jul-21,1192021,2020-03-21 11:31:00:098,0.6057,-0.5269,9.7571,0.0113,-0.0205,9.8066,-0.0128,0.0288,-0.0746,5.49,-9.08,-29.96,46.22,-13.29,5.86
2385,52.00672,-2.049322,74,10.36,44,226.9,Jul-21,1192520,2020-03-21 11:31:00:597,0.1184,-0.4895,9.82,0.0052,-0.0231,9.8066,-0.0224,0.0117,-0.0778,5.12,-9.45,-30.33,50.62,-12.22,8.37
2386,52.00672,-2.049322,74,10.36,44,226.9,Jul-21,1193020,2020-03-21 11:31:01:097,0.1593,-0.5607,9.8469,0.0131,-0.0289,9.8066,-0.0138,0.0096,-0.0671,3.99,-9.45,-29.52,56.5,-11.18,10.1
2387,52.00672,-2.049322,74,10.36,44,226.9,0 / 21,1193521,2020-03-21 11:31:01:598,-0.0871,0.2029,9.8266,-0.0112,-0.0133,9.8066,0.016,-0.0149,-0.0341,4.37,-10.2,-30.33,59.51,-10.47,10.36
2388,52.00672,-2.049322,74,10.36,44,226.9,0 / 21,1194021,2020-03-21 11:31:02:098,-1.0717,0.2425,9.4067,-0.014,0.0,9.8066,-0.0202,-0.0043,-0.0128,3.62,-9.83,-30.33,59.21,-9.95,9.31
2389,52.005333,-2.050846,70,16.38,8,228.2,Dec-21,1194520,2020-03-21 11:31:02:597,-0.5065,0.3488,9.8279,-0.0057,0.0021,9.8066,-0.0266,0.0341,-0.0074,2.93,-9.45,-29.96,59.85,-9.66,8.39
2390,52.005333,-2.050846,70,16.38,8,228.2,Dec-21,1195021,2020-03-21 11:31:03:098,-0.2665,0.0074,9.4449,0.0042,0.0006,9.8066,0.0085,0.0106,-0.016,2.56,-8.7,-30.77,59.57,-9.5,8.14
2391,52.005333,-2.050846,70,16.38,8,228.2,Dec-21,1195521,2020-03-21 11:31:03:598,0.1787,0.5791,9.5576,0.0197,0.0222,9.8066,-0.0181,0.0213,-0.0192,3.99,-8.7,-31.21,56.29,-9.85,8.4
2392,52.005333,-2.050846,70,16.38,8,228.2,Dec-21,1196020,2020-03-21 11:31:04:097,0.1605,1.0985,9.2212,0.0152,0.0224,9.8066,0.0043,0.0458,-0.0266,3.31,-9.45,-30.77,56.92,-11.69,8.75
2393,52.005333,-2.050846,70,16.38,8,228.2,Dec-21,1196521,2020-03-21 11:31:04:598,0.5682,0.5098,9.7923,0.0183,0.0146,9.8066,0.0256,-0.0064,-0.0266,2.56,-9.45,-30.77,53.97,-14.23,9.22
2394,52.005333,-2.050846,70,16.38,8,228.2,Dec-21,1197022,2020-03-21 11:31:05:099,-0.2397,0.364,9.5956,0.0171,0.0245,9.8066,-0.0064,-0.0043,-0.016,2.93,-9.08,-29.96,52.22,-16.2,9.5
2395,52.005333,-2.050846,70,16.38,8,228.2,Dec-21,1197521,2020-03-21 11:31:05:598,0.3495,0.1655,9.8084,0.0124,0.0162,9.8066,0.0064,0.0043,-0.0117,2.18,-9.45,-31.64,52.31,-17.36,9.38
2396,52.005333,-2.050846,70,16.38,8,228.2,Dec-21,1198020,2020-03-21 11:31:06:097,-0.1096,0.0888,9.7302,-0.0048,0.0089,9.8066,0.0096,-0.0266,-0.0011,1.81,-9.83,-31.21,53.45,-18.26,9.19
2397,52.005333,-2.050846,70,16.38,8,228.2,Dec-21,1198520,2020-03-21 11:31:06:597,0.0781,-0.0234,9.9256,0.0031,0.0026,9.8067,0.0021,-0.0107,-0.0128,1.81,-9.45,-30.33,50.87,-19.01,9.07
2398,52.005333,-2.050846,70,16.38,8,228.2,Dec-21,1199020,2020-03-21 11:31:07:097,-0.1077,-0.1327,9.7538,0.002,0.0079,9.8066,-0.0053,0.0085,-0.0074,1.81,-9.08,-30.77,49.66,-19.34,8.79
2399,52.005333,-2.050846,70,16.38,8,228.2,Dec-21,1199521,2020-03-21 11:31:07:598,0.0017,-0.2308,9.3403,0.0002,0.0004,9.8067,0.0043,-0.0021,-0.0042,1.81,-9.08,-30.77,49.04,-19.58,8.52
2400,52.005333,-2.050846,70,16.38,8,228.2,Dec-21,1200021,2020-03-21 11:31:08:098,-0.132,-0.1422,9.8287,-0.0027,0.0057,9.8066,-0.0085,0.0032,-0.0032,1.81,-9.45,-29.96,49.04,-19.66,8.18
2401,52.005333,-2.050846,70,16.38,8,228.2,Dec-21,1200520,2020-03-21 11:31:08:597,-0.6675,0.001,9.5364,-0.0042,-0.0008,9.8067,0.0075,-0.0139,-0.0032,1.81,-9.45,-30.33,48.11,-19.75,7.54
2402,52.005333,-2.050846,70,16.38,8,228.2,Dec-21,1201020,2020-03-21 11:31:09:097,-0.1256,-0.1089,10.0273,0.0041,0.0058,9.8066,-0.0117,0.0128,0.0,1.81,-9.08,-31.64,47.93,-19.54,8.0
2403,52.005333,-2.050846,70,16.38,8,228.2,0 / 21,1201521,2020-03-21 11:31:09:598,0.7118,0.5342,9.8848,0.0156,0.021,9.8066,0.0032,0.0106,-0.0011,1.43,-9.45,-31.21,49.54,-20.82,8.23
2404,52.005333,-2.050846,70,16.38,8,228.2,0 / 21,1202021,2020-03-21 11:31:10:098,-0.0423,0.2866,9.562,0.0088,0.0123,9.8066,-0.0479,0.0096,-0.0085,1.43,-9.45,-30.77,47.3,-22.74,8.18
2405,52.005333,-2.050846,70,16.38,8,228.2,Jul-21,1202520,2020-03-21 11:31:10:597,0.9494,0.0724,9.7328,0.0109,0.0169,9.8066,0.0181,-0.0032,0.0043,1.81,-9.45,-30.33,43.33,-24.81,7.81
2406,52.005333,-2.050846,70,16.38,8,228.2,Jul-21,1203021,2020-03-21 11:31:11:098,-0.0108,-0.6123,10.2423,0.0012,0.0074,9.8066,-0.0319,-0.0075,-0.0096,1.43,-9.45,-31.21,43.21,-26.48,7.92
2407,52.004604,-2.052507,69,14.36,13,233.4,Nov-21,1203520,2020-03-21 11:31:11:597,0.1218,-0.1061,9.5945,0.0016,-0.005,9.8067,0.033,-0.049,-0.0085,1.43,-8.7,-30.77,41.64,-28.12,7.83
2408,52.004604,-2.052507,69,14.36,13,233.4,Nov-21,1204021,2020-03-21 11:31:12:098,-0.1767,0.4875,9.6898,0.0173,0.0241,9.8066,-0.0234,0.0032,0.0085,1.43,-9.45,-31.64,40.85,-28.68,8.04
2409,52.004604,-2.052507,69,14.36,13,233.4,Nov-21,1204521,2020-03-21 11:31:12:598,-0.2102,0.976,9.772,0.0202,0.0228,9.8066,-0.0053,-0.0362,0.0032,1.43,-9.45,-30.33,40.9,-29.82,7.87
2410,52.004604,-2.052507,69,14.36,13,233.4,Nov-21,1205021,2020-03-21 11:31:13:098,0.3417,-0.7007,9.6334,0.0265,0.0113,9.8066,-0.0362,0.0053,-0.0128,1.43,-9.08,-31.64,38.17,-31.7,7.8
2411,52.004604,-2.052507,69,14.36,13,233.4,Nov-21,1205521,2020-03-21 11:31:13:598,0.3204,0.2013,9.9492,0.0096,0.0124,9.8066,0.0075,0.0043,0.0171,1.43,-9.08,-31.21,37.66,-33.08,7.71
2412,52.004604,-2.052507,69,14.36,13,233.4,Nov-21,1206020,2020-03-21 11:31:14:097,-0.1855,-0.6134,9.5408,-0.0235,-0.0089,9.8066,0.0522,-0.0139,0.0266,1.43,-9.45,-31.21,37.02,-32.9,7.13
2413,52.004604,-2.052507,69,14.36,13,233.4,Nov-21,1206521,2020-03-21 11:31:14:598,-1.1362,-0.9983,9.9943,-0.0545,-0.027,9.8065,-0.0298,0.0043,0.0203,2.18,-9.08,-30.33,36.8,-31.16,6.65
2414,52.004604,-2.052507,69,14.36,13,233.4,Nov-21,1207021,2020-03-21 11:31:15:098,-0.8333,-0.7734,9.6828,-0.0302,-0.0195,9.8066,0.0117,0.0,0.0501,2.56,-8.7,-31.64,35.92,-28.16,6.29
2415,52.004604,-2.052507,69,14.36,13,233.4,Nov-21,1207521,2020-03-21 11:31:15:598,-0.8636,-0.6485,9.9433,-0.0216,-0.0126,9.8066,0.0192,0.0,0.0682,3.31,-8.7,-31.21,38.68,-24.63,5.95
2416,52.004604,-2.052507,69,14.36,13,233.4,Nov-21,1208021,2020-03-21 11:31:16:098,-0.8076,0.2334,10.1087,-0.0175,-0.0088,9.8066,0.0085,0.0085,0.0767,3.31,-8.7,-31.21,40.09,-22.11,5.36
2417,52.004604,-2.052507,69,14.36,13,233.4,Nov-21,1208521,2020-03-21 11:31:16:598,-0.1768,-0.6625,9.425,-0.0191,-0.0065,9.8066,0.0405,-0.033,0.1002,4.37,-8.33,-30.33,37.52,-20.62,5.33
2418,52.004604,-2.052507,69,14.36,13,233.4,Nov-21,1209020,2020-03-21 11:31:17:097,-0.933,-0.6084,9.2789,-0.0338,-0.0254,9.8066,0.0373,-0.0256,0.1097,5.12,-7.26,-31.64,35.75,-16.54,5.17
2419,52.004604,-2.052507,69,14.36,13,233.4,Nov-21,1209521,2020-03-21 11:31:17:598,-0.2291,-0.1955,9.7029,-0.0217,-0.0082,9.8066,0.1065,-0.0511,0.1385,6.24,-6.51,-31.21,36.33,-13.38,4.59
2420,52.004604,-2.052507,69,14.36,13,233.4,Nov-21,1210020,2020-03-21 11:31:18:097,-0.391,0.3537,9.6869,-0.0212,0.0008,9.8066,0.0661,-0.0426,0.1353,6.62,-5.76,-30.77,31.67,-12.28,4.13
2421,52.004604,-2.052507,69,14.36,13,233.4,Mar-21,1210521,2020-03-21 11:31:18:598,-0.1854,0.5224,10.2796,-0.01,0.0046,9.8066,0.0288,0.0011,0.1492,7.31,-3.95,-30.77,25.4,-11.12,3.85
2422,52.004604,-2.052507,69,14.36,13,233.4,Mar-21,1211020,2020-03-21 11:31:19:097,0.2176,-0.1685,9.6052,-0.0169,-0.0093,9.8066,0.0266,0.0074,0.1779,8.79,-2.87,-30.9,18.85,-8.91,3.08
2423,52.004604,-2.052507,69,14.36,13,233.4,Nov-21,1211521,2020-03-21 11:31:19:598,-0.4333,1.5117,9.1111,-0.0361,0.0332,9.8065,0.0362,-0.0277,0.195,9.54,-0.99,-31.33,7.93,-7.82,1.79
2424,52.004604,-2.052507,69,14.36,13,233.4,Nov-21,1212021,2020-03-21 11:31:20:098,0.1723,1.0705,10.3285,-0.021,0.03,9.8066,0.0053,-0.0384,0.2109,9.93,-0.78,-31.84,4.37,-6.72,0.08
2425,52.004604,-2.052507,69,14.36,13,233.4,Nov-21,1212520,2020-03-21 11:31:20:597,1.3102,0.3387,9.4453,0.0374,0.0171,9.8066,0.0618,0.0053,0.2184,10.61,0.35,-30.96,356.0,-7.67,-1.94
2426,52.004604,-2.052507,69,14.36,13,233.4,Nov-21,1213020,2020-03-21 11:31:21:097,1.4487,0.74,9.7616,0.0148,0.0164,9.8066,0.0181,-0.0437,0.179,10.23,1.78,-31.13,347.33,-10.82,-2.8
2427,52.004604,-2.052507,69,14.36,13,233.4,Nov-21,1213521,2020-03-21 11:31:21:598,0.3488,-1.0013,9.2437,0.037,-0.0208,9.8066,0.0501,-0.0192,0.1119,10.23,2.53,-32.0,344.9,-12.91,-2.78
2428,52.004604,-2.052507,69,14.36,13,233.4,Nov-21,1214021,2020-03-21 11:31:22:098,0.1959,-1.1848,9.473,0.0251,-0.0658,9.8064,-0.0053,-0.0021,0.0053,10.54,3.22,-32.0,348.96,-14.32,-1.11
2429,52.004604,-2.052507,69,14.36,13,233.4,Nov-21,1214521,2020-03-21 11:31:22:598,0.2681,-0.9169,9.6732,0.0222,-0.048,9.8065,-0.0394,0.0213,-0.066,10.92,3.22,-30.25,353.53,-15.76,1.66
2430,52.004604,-2.052507,69,14.36,13,233.4,Nov-21,1215021,2020-03-21 11:31:23:098,0.327,-1.0601,9.5111,0.0156,-0.0617,9.8064,-0.0053,0.0021,-0.098,10.92,2.84,-30.69,357.91,-16.74,4.22
2431,52.004604,-2.052507,69,14.36,13,233.4,Nov-21,1215521,2020-03-21 11:31:23:598,0.1336,-0.7478,9.5491,0.0101,-0.0522,9.8065,-0.0405,0.0064,-0.1417,10.54,1.78,-31.57,5.32,-17.49,6.92
2432,52.004604,-2.052507,69,14.36,13,233.4,Nov-21,1216020,2020-03-21 11:31:24:097,-0.1774,-0.2399,9.5394,0.0153,-0.0298,9.8066,-0.0778,0.0224,-0.1715,10.23,0.66,-31.57,11.85,-17.94,9.06
2433,52.004604,-2.052507,69,14.36,13,233.4,Nov-21,1216521,2020-03-21 11:31:24:598,0.1891,-0.2514,9.8695,0.006,-0.0124,9.8066,-0.049,0.0266,-0.1577,10.23,-1.16,-31.57,19.72,-18.09,10.63
2434,52.004604,-2.052507,69,14.36,13,233.4,Nov-21,1217022,2020-03-21 11:31:25:099,-0.059,-0.1544,9.8324,0.0037,-0.0108,9.8066,-0.0692,0.0277,-0.1704,9.75,-3.09,-31.31,25.98,-18.19,11.57
2435,52.004604,-2.052507,69,14.36,13,233.4,Nov-21,1217521,2020-03-21 11:31:25:598,-0.0624,0.1186,9.7819,0.0113,-0.0084,9.8066,-0.0682,0.0511,-0.1843,9.38,-4.53,-32.18,33.29,-18.08,12.42
2436,52.004604,-2.052507,69,14.36,13,233.4,Nov-21,1218021,2020-03-21 11:31:26:098,0.0808,0.178,9.7373,0.0023,-0.0045,9.8066,-0.0554,0.0266,-0.1832,8.25,-5.66,-31.75,37.83,-17.99,13.04
2437,52.004604,-2.052507,69,14.36,13,233.4,Jul-21,1218521,2020-03-21 11:31:26:598,-0.3493,-0.53,9.8227,-0.0132,-0.022,9.8066,-0.0618,0.0138,-0.196,6.69,-6.85,-31.03,43.15,-16.92,13.53
2438,52.004604,-2.052507,69,14.36,13,233.4,Jul-21,1219020,2020-03-21 11:31:27:097,-0.2435,-0.2203,9.6405,-0.0033,-0.0107,9.8066,-0.0884,0.0426,-0.2173,5.63,-8.66,-31.03,51.4,-15.04,14.17
2439,52.004604,-2.052507,69,14.36,13,233.4,Aug-21,1219521,2020-03-21 11:31:27:598,0.3428,-0.298,9.9076,0.0019,-0.0113,9.8066,-0.0692,0.0394,-0.2194,3.65,-9.47,-31.25,57.67,-13.8,14.71
2440,52.004604,-2.052507,69,14.36,13,233.4,Aug-21,1220021,2020-03-21 11:31:28:098,0.1918,0.5894,10.01,0.0134,0.0139,9.8066,-0.0714,0.0362,-0.212,1.47,-11.72,-30.81,69.67,-13.79,15.4
2441,52.003693,-2.053544,71,6.98,21,200.1,Oct-21,1220521,2020-03-21 11:31:28:598,0.4647,0.2975,9.9858,0.007,0.0107,9.8066,-0.0724,0.0074,-0.1971,0.28,-12.49,-30.99,71.48,-14.57,15.73
2442,52.003693,-2.053544,71,6.98,21,200.1,Oct-21,1221021,2020-03-21 11:31:29:098,0.0269,0.2482,9.6783,0.0055,0.0016,9.8066,-0.066,0.0224,-0.1971,-1.53,-13.24,-29.74,77.93,-14.48,15.66
2443,52.003693,-2.053544,71,6.98,21,200.1,Oct-21,1221521,2020-03-21 11:31:29:598,0.0255,-0.0076,9.8433,0.0025,0.002,9.8067,-0.0639,0.0213,-0.196,-3.12,-13.69,-30.77,80.62,-14.44,15.6
2444,52.003693,-2.053544,71,6.98,21,200.1,Oct-21,1222020,2020-03-21 11:31:30:097,0.4778,0.2066,9.9102,0.0003,0.0,9.8067,-0.0714,0.0245,-0.2024,-4.93,-14.82,-29.46,87.03,-14.56,15.71
2445,52.003693,-2.053544,71,6.98,21,200.1,Oct-21,1222521,2020-03-21 11:31:30:598,-0.0398,0.2153,9.912,-0.0006,-0.0051,9.8066,-0.1246,0.0181,-0.2344,-8.02,-15.94,-30.5,93.76,-14.67,16.03
2446,52.003693,-2.053544,71,6.98,21,200.1,Oct-21,1223021,2020-03-21 11:31:31:098,-0.0386,0.0524,9.9918,-0.0017,0.0038,9.8066,-0.1108,0.0309,-0.2162,-9.83,-16.0,-29.19,99.03,-14.71,15.98
2447,52.003693,-2.053544,71,6.98,21,200.1,Oct-21,1223520,2020-03-21 11:31:31:597,0.3813,-0.08,10.4112,0.0071,0.0033,9.8066,-0.0735,0.0202,-0.2301,-12.44,-16.0,-28.88,103.51,-14.78,16.15
2448,52.003693,-2.053544,71,6.98,21,200.1,Oct-21,1224021,2020-03-21 11:31:32:098,0.2807,0.3765,9.8886,0.0088,0.0096,9.8066,0.0139,0.0362,-0.2258,-14.69,-15.31,-28.07,111.17,-14.95,16.87
2449,52.003693,-2.053544,71,6.98,21,200.1,Oct-21,1224521,2020-03-21 11:31:32:598,-0.0278,0.4319,10.2365,0.0074,-0.0039,9.8066,-0.1406,0.0703,-0.2375,-17.23,-14.56,-28.54,115.22,-14.12,17.43
2450,52.003693,-2.053544,71,6.98,21,200.1,Oct-21,1225021,2020-03-21 11:31:33:098,-0.9297,-0.1893,10.3845,-0.0148,-0.016,9.8066,-0.1193,0.0309,-0.1917,-18.73,-13.81,-28.11,120.77,-14.21,17.04
2451,52.003693,-2.053544,71,6.98,21,200.1,Oct-21,1225521,2020-03-21 11:31:33:598,-0.8596,-0.2168,9.3187,-0.0144,-0.0105,9.8066,-0.0373,0.0032,-0.1055,-20.09,-13.03,-29.38,122.98,-14.52,15.87
2452,52.003693,-2.053544,71,6.98,21,200.1,Oct-21,1226021,2020-03-21 11:31:34:098,-0.552,-0.4272,9.8777,-0.0205,-0.006,9.8066,-0.0437,0.0128,-0.0479,-21.59,-13.03,-28.94,126.87,-15.11,14.01
2453,52.003693,-2.053544,71,6.98,21,200.1,May-21,1226520,2020-03-21 11:31:34:597,0.1721,-0.6853,10.0182,-0.0361,-0.0038,9.8066,0.0245,0.0256,-0.0309,-21.21,-12.28,-28.51,126.34,-16.05,11.84
2454,52.003693,-2.053544,71,6.98,21,200.1,May-21,1227021,2020-03-21 11:31:35:098,-0.5055,-0.2104,10.3567,-0.0159,-0.0082,9.8066,-0.0202,0.0288,-0.0138,-21.59,-12.66,-28.94,127.69,-16.24,9.94
2455,52.003693,-2.053544,71,6.98,21,200.1,Dec-21,1227521,2020-03-21 11:31:35:598,-0.2466,-0.4735,9.6486,-0.0064,-0.0354,9.8066,0.0543,-0.0394,0.0245,-21.21,-11.59,-29.38,126.96,-16.99,8.75
2456,52.003693,-2.053544,71,6.98,21,200.1,Dec-21,1228021,2020-03-21 11:31:36:098,-0.4221,-0.9014,9.6752,-0.0268,-0.0413,9.8065,0.0245,-0.0117,0.0756,-21.21,-11.59,-28.94,128.2,-16.92,6.96
2457,52.003693,-2.053544,71,6.98,21,200.1,13 / 21,1228521,2020-03-21 11:31:36:598,0.0431,-0.339,9.7798,-0.0065,-0.0452,9.8065,0.0991,-0.0799,0.081,-20.84,-11.22,-28.94,132.26,-16.27,5.22
2458,52.003693,-2.053544,71,6.98,21,200.1,13 / 21,1229021,2020-03-21 11:31:37:098,0.5063,-0.2932,9.4222,-0.024,-0.0137,9.8066,-0.0021,0.017,0.1097,-19.4,-11.22,-30.19,128.21,-15.88,4.04
2459,52.00381,-2.054433,76,7.31,13,294.4,13 / 21,1229520,2020-03-21 11:31:37:597,0.2081,-0.6521,9.8082,0.0087,-0.0269,9.8066,0.0586,-0.0437,0.1076,-18.65,-11.59,-29.76,129.4,-14.78,2.33
2460,52.00381,-2.054433,76,7.31,13,294.4,13 / 21,1230021,2020-03-21 11:31:38:098,-0.002,-0.5293,9.7039,-0.0023,-0.0323,9.8066,0.0064,-0.0586,0.131,-17.15,-12.66,-30.19,125.92,-13.1,1.06
2461,52.00381,-2.054433,76,7.31,13,294.4,13 / 21,1230521,2020-03-21 11:31:38:598,0.5091,-0.3318,10.1561,0.0077,-0.0431,9.8066,0.0053,-0.0352,0.1033,-16.77,-12.94,-31.59,128.82,-11.57,-0.54
2462,52.00381,-2.054433,76,7.31,13,294.4,13 / 21,1231020,2020-03-21 11:31:39:097,-0.312,0.422,9.4738,-0.0054,0.014,9.8066,0.0479,0.0351,0.0948,-15.71,-13.31,-31.15,127.75,-11.14,-0.95
2463,52.00381,-2.054433,76,7.31,13,294.4,13 / 21,1231521,2020-03-21 11:31:39:598,-0.0058,0.3285,9.1576,-0.0069,0.0186,9.8066,-0.0021,0.0,0.081,-14.96,-13.31,-32.46,121.47,-12.25,-0.3
2464,52.00381,-2.054433,76,7.31,13,294.4,13 / 21,1232021,2020-03-21 11:31:40:098,0.6355,1.0967,9.8348,0.0088,0.0157,9.8066,0.0522,-0.016,0.048,-14.58,-13.69,-32.46,116.53,-13.41,0.82
2465,52.00381,-2.054433,76,7.31,13,294.4,13 / 21,1232520,2020-03-21 11:31:40:597,0.4433,0.4756,9.7314,0.0118,0.008,9.8066,0.0117,0.0128,0.0288,-13.83,-13.31,-32.9,112.49,-13.81,1.85
2466,52.00381,-2.054433,76,7.31,13,294.4,13 / 21,1233021,2020-03-21 11:31:41:098,0.3185,-0.0674,10.0108,0.0128,-0.0049,9.8066,0.0277,-0.0171,0.0352,-13.83,-13.69,-33.34,111.26,-13.52,2.81
2467,52.00381,-2.054433,76,7.31,13,294.4,13 / 21,1233521,2020-03-21 11:31:41:598,0.6779,-0.1315,9.7142,0.011,-0.0076,9.8066,-0.0213,0.0011,0.0309,-14.21,-13.23,-33.88,112.39,-12.97,3.51
2468,52.00381,-2.054433,76,7.31,13,294.4,13 / 21,1234021,2020-03-21 11:31:42:098,0.3698,-0.0609,9.6842,0.018,0.0062,9.8066,0.0192,0.0053,0.0256,-13.46,-13.23,-33.44,110.12,-12.66,4.5
2469,52.00381,-2.054433,76,7.31,13,294.4,0 / 21,1234520,2020-03-21 11:31:42:597,0.0231,0.3459,10.3966,0.0118,-0.0017,9.8066,-0.0021,0.0117,0.0277,-13.14,-12.48,-33.88,110.48,-12.47,5.22
2470,52.00381,-2.054433,76,7.31,13,294.4,0 / 21,1235021,2020-03-21 11:31:43:098,0.2789,0.0314,10.4001,-0.0028,-0.0031,9.8066,0.0245,-0.0181,0.0416,-12.77,-12.86,-34.31,110.0,-12.11,5.34
2471,52.00381,-2.054433,76,7.31,13,294.4,Aug-21,1235520,2020-03-21 11:31:43:597,-0.3883,-0.0979,9.73,0.0018,-0.0038,9.8067,0.0149,-0.0192,0.0362,-12.02,-13.23,-33.44,107.6,-12.16,5.2
2472,52.00381,-2.054433,76,7.31,13,294.4,Aug-21,1236021,2020-03-21 11:31:44:098,-0.0087,0.4302,9.4098,0.0039,0.0178,9.8066,0.0352,-0.0128,0.0352,-12.02,-11.79,-33.88,107.75,-12.12,5.52
2473,52.00381,-2.054433,76,7.31,13,294.4,Aug-21,1236520,2020-03-21 11:31:44:597,-0.9882,0.3705,9.4897,0.004,0.0106,9.8066,-0.0096,-0.0256,0.0181,-12.39,-12.48,-35.13,102.3,-14.21,5.98
2474,52.00381,-2.054433,76,7.31,13,294.4,Aug-21,1237021,2020-03-21 11:31:45:098,0.117,0.1255,9.3812,0.0007,0.0063,9.8066,0.0064,0.0064,0.0288,-10.89,-11.79,-33.88,97.89,-15.09,6.0
2475,52.00381,-2.054433,76,7.31,13,294.4,Aug-21,1237521,2020-03-21 11:31:45:598,0.5725,-0.3136,9.5704,0.0127,-0.0081,9.8066,0.0394,-0.0149,0.0117,-11.27,-12.11,-33.88,98.5,-14.8,6.24
2476,52.00381,-2.054433,76,7.31,13,294.4,Aug-21,1238021,2020-03-21 11:31:46:098,-0.4985,0.4994,9.616,-0.0142,0.0215,9.8066,-0.0128,0.0,0.0266,-10.89,-12.11,-34.31,98.66,-14.71,6.78
2477,52.00381,-2.054433,76,7.31,13,294.4,Aug-21,1238521,2020-03-21 11:31:46:598,-0.2107,0.0272,9.2904,-0.0034,0.0114,9.8066,0.0043,0.0117,0.0277,-10.52,-12.48,-33.88,96.65,-15.66,6.43
2478,52.00381,-2.054433,76,7.31,13,294.4,Aug-21,1239021,2020-03-21 11:31:47:098,0.3472,-0.6017,10.4204,0.002,-0.008,9.8066,-0.0053,-0.0181,0.032,-10.14,-12.48,-34.69,92.12,-15.7,6.59
2479,52.00381,-2.054433,76,7.31,13,294.4,Aug-21,1239520,2020-03-21 11:31:47:597,0.0799,-0.0836,9.6583,-0.0045,-0.0072,9.8066,0.0298,-0.0288,0.0373,-10.14,-13.23,-34.31,93.37,-15.5,6.16
2480,52.00381,-2.054433,76,7.31,13,294.4,Aug-21,1240021,2020-03-21 11:31:48:098,-0.5544,0.3096,10.3794,0.0112,-0.0149,9.8066,-0.0351,-0.0266,0.0384,-9.77,-12.11,-34.31,92.95,-15.74,6.18
2481,52.00381,-2.054433,76,7.31,13,294.4,Aug-21,1240520,2020-03-21 11:31:48:597,0.0924,-0.624,9.5633,0.0063,-0.0172,9.8066,0.0245,-0.0224,0.0256,-9.35,-12.04,-35.04,88.5,-15.65,5.75
2482,52.00381,-2.054433,76,7.31,13,294.4,Aug-21,1241020,2020-03-21 11:31:49:097,0.1867,-0.5367,9.3365,-0.0022,-0.0012,9.8067,-0.0021,0.0021,0.0373,-8.97,-12.42,-35.04,91.38,-14.39,5.91
2483,52.00381,-2.054433,76,7.31,13,294.4,Aug-21,1241521,2020-03-21 11:31:49:598,-0.1453,-0.4003,10.3156,-0.0026,-0.0293,9.8066,-0.0043,0.0,0.0288,-8.97,-12.42,-35.41,94.84,-12.83,5.92
2484,52.00381,-2.054433,76,7.31,13,294.4,Aug-21,1242020,2020-03-21 11:31:50:097,0.443,-0.0333,9.8908,0.0031,-0.0167,9.8066,-0.0043,-0.0021,0.0234,-8.22,-12.42,-35.04,94.05,-11.57,5.78
2485,52.00381,-2.054433,76,7.31,13,294.4,0 / 21,1242521,2020-03-21 11:31:50:598,-0.2915,-0.0329,9.572,0.0072,-0.0107,9.8066,0.0128,-0.0085,0.0117,-7.85,-13.17,-35.48,96.27,-10.43,5.41
2486,52.00381,-2.054433,76,7.31,13,294.4,0 / 21,1243020,2020-03-21 11:31:51:097,-0.0496,-0.103,9.7311,-0.0009,-0.0059,9.8066,-0.0543,0.0096,0.0139,-7.85,-13.54,-35.04,97.68,-9.56,5.26
2487,52.00381,-2.054433,76,7.31,13,294.4,Aug-21,1243521,2020-03-21 11:31:51:598,0.4574,0.3288,9.8838,0.0066,0.0027,9.8066,0.0128,-0.0213,0.0075,-6.35,-14.29,-35.04,91.76,-9.26,5.46
2488,52.00381,-2.054433,76,7.31,13,294.4,Aug-21,1244021,2020-03-21 11:31:52:098,0.1549,0.864,10.4835,0.0083,0.0154,9.8066,-0.0138,-0.0256,-0.0106,-7.85,-13.92,-34.16,95.92,-10.77,6.37
2489,52.003944,-2.057697,80,18.67,12,261.7,Aug-21,1244521,2020-03-21 11:31:52:598,0.5547,0.7956,9.0615,0.0049,0.0254,9.8066,0.0171,-0.0075,0.0032,-8.6,-13.17,-35.85,92.97,-13.33,7.27
2490,52.003944,-2.057697,80,18.67,12,261.7,Aug-21,1245021,2020-03-21 11:31:53:098,0.2526,0.0556,10.0494,0.012,0.035,9.8066,-0.0064,-0.0181,-0.0032,-8.22,-12.42,-35.85,85.81,-15.23,7.74
2491,52.003944,-2.057697,80,18.67,12,261.7,Aug-21,1245520,2020-03-21 11:31:53:597,-0.1995,0.2381,9.9394,0.012,0.0185,9.8066,-0.0138,0.0053,-0.0149,-8.22,-12.79,-35.04,84.75,-16.46,8.03
2492,52.003944,-2.057697,80,18.67,12,261.7,Aug-21,1246020,2020-03-21 11:31:54:097,-0.0106,0.1788,9.5593,-0.0117,0.0109,9.8066,-0.0117,-0.0149,0.0032,-9.72,-9.85,-32.85,90.79,-17.4,8.23
2493,52.003944,-2.057697,80,18.67,12,261.7,Aug-21,1246521,2020-03-21 11:31:54:598,0.3443,-0.1529,9.7509,0.0017,-0.0094,9.8066,0.0192,-0.0149,0.0,-7.85,-13.17,-35.04,82.23,-17.91,8.4
2494,52.003944,-2.057697,80,18.67,12,261.7,Aug-21,1247020,2020-03-21 11:31:55:097,0.0804,-0.5855,9.2682,-0.0121,-0.0215,9.8066,-0.0181,-0.0096,0.0117,-8.22,-12.79,-34.6,84.27,-16.8,8.38
2495,52.003944,-2.057697,80,18.67,12,261.7,Aug-21,1247520,2020-03-21 11:31:55:597,-0.5618,-0.0022,10.1608,0.0024,-0.0104,9.8066,-0.0405,0.0309,-0.0128,-7.85,-12.42,-35.85,84.4,-16.05,8.36
2496,52.003944,-2.057697,80,18.67,12,261.7,Aug-21,1248021,2020-03-21 11:31:56:098,-0.5524,0.1574,9.0834,-0.0076,-0.0007,9.8066,-0.0053,0.0117,-0.0138,-8.22,-12.42,-35.41,86.67,-15.35,8.37
2497,52.003944,-2.057697,80,18.67,12,261.7,Aug-21,1248521,2020-03-21 11:31:56:598,-0.7297,0.2082,9.7599,-0.0047,0.0002,9.8067,-0.0011,-0.0064,-0.0138,-8.22,-13.54,-35.04,88.25,-14.71,7.95
2498,52.003944,-2.057697,80,18.67,12,261.7,Aug-21,1249021,2020-03-21 11:31:57:098,0.3433,-0.556,9.7758,0.0068,-0.0046,9.8066,-0.016,0.0213,0.0043,-8.22,-12.79,-35.41,88.9,-14.29,8.2
2499,52.003944,-2.057697,80,18.67,12,261.7,Aug-21,1249520,2020-03-21 11:31:57:597,0.1689,-0.1874,9.8324,-0.0017,0.0082,9.8066,-0.0362,0.0224,0.0032,-7.85,-12.79,-35.85,88.43,-14.17,8.4
2500,52.003944,-2.057697,80,18.67,12,261.7,Aug-21,1250020,2020-03-21 11:31:58:097,0.128,0.2022,9.8656,0.0052,0.008,9.8066,-0.0192,0.0234,-0.0117,-7.85,-13.17,-35.41,88.33,-14.58,8.11
2501,52.003944,-2.057697,80,18.67,12,261.7,Aug-21,1250521,2020-03-21 11:31:58:598,-0.0749,0.1321,10.1411,0.0025,-0.0019,9.8067,-0.0394,0.0138,-0.0021,-8.22,-13.92,-34.6,87.42,-15.22,8.22
2502,52.003944,-2.057697,80,18.67,12,261.7,Aug-21,1251021,2020-03-21 11:31:59:098,-0.3035,-0.1538,10.0304,-0.0047,-0.004,9.8066,-0.0149,-0.0277,0.0043,-8.6,-12.79,-35.04,89.86,-15.42,8.2
2503,52.003944,-2.057697,80,18.67,12,261.7,Aug-21,1251521,2020-03-21 11:31:59:598,-0.3206,-0.0794,9.7034,-0.0092,0.0019,9.8066,-0.0138,-0.0139,0.0011,-8.22,-13.17,-35.48,86.62,-15.42,7.77
2504,52.003944,-2.057697,80,18.67,12,261.7,Aug-21,1252020,2020-03-21 11:32:00:097,-0.5574,0.239,9.7353,-0.0006,0.0031,9.8067,0.0085,0.0043,-0.0032,-8.6,-13.54,-35.85,88.59,-15.64,7.54
2505,52.003944,-2.057697,80,18.67,12,261.7,Aug-21,1252521,2020-03-21 11:32:00:598,0.2209,0.1567,9.4127,0.0121,0.0036,9.8066,0.0117,0.0437,-0.0128,-8.6,-12.79,-35.41,89.49,-15.58,7.99
2506,52.003944,-2.057697,80,18.67,12,261.7,Aug-21,1253021,2020-03-21 11:32:01:098,-0.2481,-0.392,9.9059,-0.0134,-0.0022,9.8066,-0.0117,-0.0128,0.0085,-8.22,-13.17,-35.85,85.55,-15.58,7.9
2507,52.003944,-2.057697,80,18.67,12,261.7,Aug-21,1253520,2020-03-21 11:32:01:597,0.1944,0.5152,9.5334,0.0019,0.0069,9.8066,0.032,0.0149,-0.0042,-8.22,-13.54,-35.85,85.48,-15.72,7.52
2508,52.003944,-2.057697,80,18.67,12,261.7,Aug-21,1254021,2020-03-21 11:32:02:098,-0.4183,-0.1168,9.8694,0.0022,0.0071,9.8066,-0.0426,0.0224,-0.0074,-8.6,-13.17,-35.04,88.86,-15.96,8.28
2509,52.003944,-2.057697,80,18.67,12,261.7,Aug-21,1254520,2020-03-21 11:32:02:597,0.16,-0.0033,10.3442,0.0167,-0.0036,9.8066,-0.0021,0.0138,-0.0266,-8.6,-12.79,-35.41,88.18,-16.34,8.37
2510,52.003944,-2.057697,80,18.67,12,261.7,Aug-21,1255021,2020-03-21 11:32:03:098,0.1011,0.0916,9.477,0.0083,0.0046,9.8066,0.016,-0.0064,-0.0053,-8.22,-12.79,-35.04,85.02,-16.52,8.89
2511,52.003944,-2.057697,80,18.67,12,261.7,Aug-21,1255521,2020-03-21 11:32:03:598,-0.4392,0.2865,9.0122,-0.0189,0.0034,9.8066,0.0224,-0.0309,0.0053,-8.6,-12.42,-34.6,87.28,-16.66,8.39
2512,52.003944,-2.057697,80,18.67,12,261.7,Aug-21,1256021,2020-03-21 11:32:04:098,-0.4725,0.3157,10.1676,0.0029,0.0048,9.8067,-0.0149,0.0085,-0.0011,-8.6,-12.42,-35.41,86.39,-17.11,8.38
2513,52.003944,-2.057697,80,18.67,12,261.7,Aug-21,1256521,2020-03-21 11:32:04:598,-0.1651,0.539,8.9305,-0.0141,0.0142,9.8066,0.0075,0.0074,0.0085,-8.22,-12.79,-35.85,81.64,-17.4,7.21
2514,52.003944,-2.057697,80,18.67,12,261.7,Aug-21,1257020,2020-03-21 11:32:05:097,-0.2543,0.5072,9.7174,0.0022,0.0118,9.8066,0.0032,-0.0128,0.0128,-7.85,-12.42,-35.41,80.88,-17.96,7.32
2515,52.003944,-2.057697,80,18.67,12,261.7,Aug-21,1257520,2020-03-21 11:32:05:597,0.6655,0.3334,10.8741,0.0123,0.0108,9.8066,0.032,0.0074,0.0032,-8.6,-12.42,-35.41,83.38,-18.38,7.5
2516,52.003944,-2.057697,80,18.67,12,261.7,Aug-21,1258021,2020-03-21 11:32:06:098,-0.0519,-0.1158,8.8183,0.0003,0.0018,9.8067,0.0064,-0.0139,0.0021,-8.22,-12.79,-35.41,80.12,-18.79,7.59
2517,52.003944,-2.057697,80,18.67,12,261.7,Aug-21,1258520,2020-03-21 11:32:06:597,0.5594,-0.0292,9.672,-0.005,0.0111,9.8066,0.0416,-0.0064,0.0085,-8.22,-12.79,-35.41,79.97,-18.85,7.52
2518,52.003944,-2.057697,80,18.67,12,261.7,Aug-21,1259021,2020-03-21 11:32:07:098,0.2491,-0.2219,9.648,-0.0011,-0.0047,9.8066,0.0011,-0.0298,0.0075,-8.22,-12.79,-35.41,78.95,-19.45,7.66
2519,52.003944,-2.057697,80,18.67,12,261.7,0 / 21,1259521,2020-03-21 11:32:07:598,0.0919,-0.1009,9.7144,-0.0119,0.001,9.8066,-0.0479,0.0074,0.0043,-8.6,-12.79,-35.41,81.37,-19.61,7.22
2520,52.003944,-2.057697,80,18.67,12,261.7,0 / 21,1260020,2020-03-21 11:32:08:097,0.1432,-0.21,10.2203,0.0003,0.0009,9.8067,0.0107,-0.0192,0.0032,-8.22,-13.17,-34.98,78.46,-19.49,7.07
2521,52.003944,-2.057697,80,18.67,12,261.7,Aug-21,1260520,2020-03-21 11:32:08:597,-0.1648,-0.2626,9.381,-0.0031,-0.0019,9.8067,0.0266,-0.0426,0.0192,-8.22,-12.79,-35.04,78.27,-19.51,6.87
2522,52.003944,-2.057697,80,18.67,12,261.7,Aug-21,1261021,2020-03-21 11:32:09:098,0.2643,0.1363,11.6023,0.0014,0.0034,9.8067,0.0064,-0.0085,0.0117,-8.6,-12.79,-35.41,81.17,-19.46,6.43
2523,52.00335,-2.062933,89,21.98,12,258.1,Oct-21,1261520,2020-03-21 11:32:09:597,-0.2145,0.2823,9.5002,-0.008,0.0077,9.8066,0.0426,0.0085,0.0288,-8.22,-11.73,-35.85,75.78,-19.36,5.7
2524,52.00335,-2.062933,89,21.98,12,258.1,Oct-21,1262021,2020-03-21 11:32:10:098,-1.1301,0.3074,9.4756,-0.0338,0.0064,9.8066,0.0458,-0.0234,0.048,-7.1,-11.35,-35.41,71.03,-19.26,4.16
2525,52.00335,-2.062933,89,21.98,12,258.1,Oct-21,1262520,2020-03-21 11:32:10:597,-0.8638,0.5131,9.3691,-0.0159,0.0069,9.8066,0.0128,0.0021,0.0725,-7.47,-10.98,-37.98,66.21,-19.2,2.88
2526,52.00335,-2.062933,89,21.98,12,258.1,Oct-21,1263020,2020-03-21 11:32:11:097,-0.5973,0.0173,9.7173,-0.0106,0.0076,9.8066,0.0373,0.0181,0.0554,-6.72,-12.79,-37.16,68.37,-18.98,0.79
2527,52.00335,-2.062933,89,21.98,12,258.1,Oct-21,1263520,2020-03-21 11:32:11:597,0.3071,-0.0712,9.6789,-0.0045,-0.0004,9.8066,0.0693,-0.0288,0.0639,-6.41,-11.73,-36.73,63.1,-18.85,0.48
2528,52.00335,-2.062933,89,21.98,12,258.1,Oct-21,1264021,2020-03-21 11:32:12:098,0.3932,-0.2225,10.2093,-0.0132,-0.006,9.8066,0.0895,-0.0416,0.0639,-5.93,-11.65,-37.45,64.06,-18.27,0.16
2529,52.00335,-2.062933,89,21.98,12,258.1,Oct-21,1264520,2020-03-21 11:32:12:597,0.0477,0.0063,9.7527,-0.0032,-0.0059,9.8066,0.0384,0.0064,0.0682,-4.81,-10.52,-37.45,60.31,-17.52,0.24
2530,52.00335,-2.062933,89,21.98,12,258.1,Oct-21,1265021,2020-03-21 11:32:13:098,0.4954,-0.3191,10.0695,-0.0083,-0.0288,9.8066,0.0607,-0.0394,0.0586,-4.06,-10.15,-37.45,55.36,-16.78,-0.11
2531,52.00335,-2.062933,89,21.98,12,258.1,Oct-21,1265520,2020-03-21 11:32:13:597,-0.0158,-0.3984,10.0413,-0.0276,-0.0134,9.8066,0.0053,-0.0213,0.0799,-3.68,-9.77,-38.7,55.1,-15.76,-0.45
2532,52.00335,-2.062933,89,21.98,12,258.1,Oct-21,1266021,2020-03-21 11:32:14:098,-0.3376,0.296,8.5168,-0.0096,-0.0105,9.8066,0.065,-0.0213,0.0618,-3.68,-7.96,-39.58,47.01,-15.37,-1.03
2533,52.00335,-2.062933,89,21.98,12,258.1,Oct-21,1266521,2020-03-21 11:32:14:598,0.2184,-1.3481,9.3128,-0.0054,-0.032,9.8066,0.0405,0.0085,0.0554,-2.62,-8.27,-39.14,46.36,-14.53,-1.1
2534,52.00335,-2.062933,89,21.98,12,258.1,Oct-21,1267020,2020-03-21 11:32:15:097,0.2691,-0.3647,10.4347,0.005,-0.0026,9.8066,-0.0117,0.0096,0.0586,-2.56,-7.48,-38.85,43.87,-14.01,-1.02
2535,52.00335,-2.062933,89,21.98,12,258.1,May-21,1267521,2020-03-21 11:32:15:598,0.3236,-0.8229,9.6393,0.0142,-0.0172,9.8066,0.0266,-0.0075,0.0234,-0.69,-8.17,-38.85,44.82,-13.43,0.05
2536,52.00335,-2.062933,89,21.98,12,258.1,May-21,1268021,2020-03-21 11:32:16:098,0.8448,-0.3588,9.0544,0.0162,-0.025,9.8066,0.0171,-0.0277,0.0245,-1.44,-9.67,-37.98,56.19,-13.07,1.9
2537,52.00335,-2.062933,89,21.98,12,258.1,Sep-21,1268521,2020-03-21 11:32:16:598,1.0231,-0.5603,9.8045,0.0122,0.0005,9.8066,-0.0149,0.0213,0.0149,-1.06,-9.67,-37.54,59.06,-12.77,3.27
2538,52.00335,-2.062933,89,21.98,12,258.1,Sep-21,1269021,2020-03-21 11:32:17:098,-1.0372,0.9828,9.6891,-0.002,0.0123,9.8066,-0.0394,0.0383,0.0192,-1.44,-8.92,-38.85,58.5,-12.88,4.86
2539,52.00335,-2.062933,89,21.98,12,258.1,Sep-21,1269521,2020-03-21 11:32:17:598,0.3984,-0.1573,10.4215,0.0106,0.0021,9.8066,-0.0213,-0.0075,0.0277,-1.44,-8.92,-38.85,58.38,-13.28,5.35
2540,52.00335,-2.062933,89,21.98,12,258.1,Sep-21,1270020,2020-03-21 11:32:18:097,-0.2264,0.2618,9.4743,0.0002,-0.0006,9.8067,0.0224,-0.0384,0.0096,-1.06,-9.67,-37.98,60.22,-13.89,5.74
2541,52.00335,-2.062933,89,21.98,12,258.1,Sep-21,1270520,2020-03-21 11:32:18:597,0.0712,0.2568,9.3148,0.0034,0.0039,9.8066,0.0,0.0,0.0139,-1.06,-10.04,-38.42,59.09,-14.5,5.77
2542,52.00335,-2.062933,89,21.98,12,258.1,Sep-21,1271021,2020-03-21 11:32:19:098,0.4542,-0.1321,10.4592,0.0056,0.0095,9.8066,0.0277,0.0,0.0,-0.31,-10.42,-37.54,56.56,-15.12,6.81
2543,52.00335,-2.062933,89,21.98,12,258.1,Sep-21,1271520,2020-03-21 11:32:19:597,0.721,0.0993,9.3897,0.0158,0.0046,9.8066,0.0224,-0.0096,0.0107,-1.44,-9.29,-38.42,57.54,-15.66,7.63
2544,52.00335,-2.062933,89,21.98,12,258.1,Sep-21,1272021,2020-03-21 11:32:20:098,-0.201,0.3297,9.9382,0.0031,-0.0042,9.8067,0.0224,-0.0181,-0.0138,-1.06,-9.29,-38.42,56.95,-16.31,8.03
2545,52.00335,-2.062933,89,21.98,12,258.1,Sep-21,1272520,2020-03-21 11:32:20:597,-0.5287,0.4011,9.7774,-0.0061,0.0026,9.8066,-0.0245,0.0011,-0.0021,-1.06,-8.92,-38.42,56.74,-16.63,8.28
2546,52.00335,-2.062933,89,21.98,12,258.1,Sep-21,1273021,2020-03-21 11:32:21:098,0.1373,-0.1711,10.0977,0.0011,-0.0038,9.8066,-0.0074,-0.0458,0.0075,-1.44,-9.29,-37.98,56.21,-16.95,8.29
2547,52.00335,-2.062933,89,21.98,12,258.1,Sep-21,1273520,2020-03-21 11:32:21:597,0.6955,-0.456,9.9314,0.0271,-0.0286,9.8066,-0.0202,-0.033,-0.0479,-1.44,-10.04,-38.42,59.53,-16.9,9.43
2548,52.00335,-2.062933,89,21.98,12,258.1,Sep-21,1274021,2020-03-21 11:32:22:098,0.0675,0.1034,9.7272,0.0274,-0.0081,9.8066,-0.0469,0.0362,-0.0479,-1.44,-10.79,-37.98,61.93,-17.04,10.36
2549,52.00335,-2.062933,89,21.98,12,258.1,Sep-21,1274520,2020-03-21 11:32:22:597,0.8561,-0.0277,10.0803,0.0209,-0.0023,9.8066,-0.017,0.0351,-0.0511,-2.19,-11.54,-37.54,67.72,-16.69,11.99
2550,52.00335,-2.062933,89,21.98,12,258.1,Sep-21,1275020,2020-03-21 11:32:23:097,0.0335,0.2274,9.8315,0.0097,0.0027,9.8066,-0.0309,0.0266,-0.0607,-2.56,-12.61,-37.54,72.12,-16.45,12.78
2551,52.00335,-2.062933,89,21.98,12,258.1,Sep-21,1275521,2020-03-21 11:32:23:598,-0.1385,0.5673,10.1052,0.008,-0.0041,9.8066,-0.0543,0.0298,-0.065,-3.31,-12.98,-37.54,73.25,-16.1,13.67
2552,52.00335,-2.062933,89,21.98,12,258.1,Sep-21,1276021,2020-03-21 11:32:24:098,0.2154,0.3537,9.8828,0.0254,-0.0048,9.8066,0.0256,-0.0032,-0.0628,-4.0,-14.11,-37.54,77.25,-15.85,14.58
2553,52.00335,-2.062933,89,21.98,12,258.1,May-21,1276520,2020-03-21 11:32:24:597,0.2164,0.1225,10.1446,0.0105,-0.0044,9.8066,-0.0362,0.0202,-0.0554,-4.75,-13.36,-37.54,79.98,-15.61,15.95
2554,52.00335,-2.062933,89,21.98,12,258.1,May-21,1277021,2020-03-21 11:32:25:098,-0.7761,0.0702,9.5116,0.0062,-0.0069,9.8066,-0.0234,0.016,-0.0714,-4.37,-12.61,-37.54,78.07,-15.42,16.2
2555,52.001793,-2.067253,80,22.67,18,245.0,Sep-21,1277521,2020-03-21 11:32:25:598,-0.8309,-0.2918,9.8026,-0.0115,-0.003,9.8066,-0.0266,0.0128,-0.0586,-6.62,-14.86,-37.1,86.58,-15.18,16.01
2556,52.001793,-2.067253,80,22.67,18,245.0,Sep-21,1278021,2020-03-21 11:32:26:098,-0.6981,0.4241,9.9237,-0.0039,-0.0054,9.8066,-0.0096,0.0288,-0.0298,-6.14,-13.27,-37.92,83.2,-14.88,15.54
2557,52.001793,-2.067253,80,22.67,18,245.0,Sep-21,1278520,2020-03-21 11:32:26:597,-1.196,-0.1129,9.502,-0.0043,0.0011,9.8067,-0.016,0.016,-0.0479,-6.14,-11.77,-38.36,82.8,-14.71,15.14
2558,52.001793,-2.067253,80,22.67,18,245.0,Sep-21,1279021,2020-03-21 11:32:27:098,-0.9226,0.3916,8.814,-0.0397,0.0154,9.8066,0.0448,0.0,-0.0096,-6.52,-12.89,-37.92,85.36,-14.64,13.89
2559,52.001793,-2.067253,80,22.67,18,245.0,Sep-21,1279521,2020-03-21 11:32:27:598,0.1616,-0.1843,9.3518,-0.0312,0.0001,9.8066,0.033,-0.049,0.0309,-6.52,-12.52,-38.8,83.08,-15.03,11.43
2560,52.001793,-2.067253,80,22.67,18,245.0,Sep-21,1280020,2020-03-21 11:32:28:097,-0.3306,0.1512,9.3512,-0.0131,0.0068,9.8066,-0.0117,0.0043,0.0096,-6.14,-11.77,-37.92,78.6,-15.37,9.37
2561,52.001793,-2.067253,80,22.67,18,245.0,Sep-21,1280521,2020-03-21 11:32:28:598,-0.3698,0.1046,9.0666,0.0107,0.0114,9.8066,0.082,0.033,-0.0256,-6.14,-12.52,-38.36,77.19,-15.9,7.6
2562,52.001793,-2.067253,80,22.67,18,245.0,Sep-21,1281021,2020-03-21 11:32:29:098,-0.2317,0.1069,9.4404,-0.0191,0.0167,9.8066,0.0,0.0021,0.0075,-6.14,-12.14,-38.36,75.67,-16.11,7.3
2563,52.001793,-2.067253,80,22.67,18,245.0,Sep-21,1281520,2020-03-21 11:32:29:597,-0.1376,-0.038,9.3075,-0.0013,0.0105,9.8066,0.0171,-0.0053,0.0053,-5.77,-12.14,-37.92,74.72,-16.39,6.83
2564,52.001793,-2.067253,80,22.67,18,245.0,Sep-21,1282021,2020-03-21 11:32:30:098,0.1696,0.0544,9.8333,-0.011,0.0213,9.8066,0.0,0.0256,0.0277,-6.14,-12.14,-38.8,73.45,-16.48,6.5
2565,52.001793,-2.067253,80,22.67,18,245.0,Sep-21,1282521,2020-03-21 11:32:30:598,0.3813,-0.0626,9.9525,-0.0047,0.0091,9.8066,0.0203,0.0138,0.0064,-5.77,-12.14,-37.48,73.16,-16.85,5.16
2566,52.001793,-2.067253,80,22.67,18,245.0,Sep-21,1283020,2020-03-21 11:32:31:097,0.3602,-0.0487,9.7564,0.0152,0.0101,9.8066,0.0234,0.0224,-0.0011,-6.14,-12.89,-37.92,72.67,-17.05,4.84
2567,52.001793,-2.067253,80,22.67,18,245.0,0 / 21,1283520,2020-03-21 11:32:31:597,0.3471,-0.4542,9.5705,-0.0083,0.0026,9.8066,-0.0511,-0.0043,0.0192,-5.77,-12.52,-37.92,72.45,-17.18,4.89
2568,52.001793,-2.067253,80,22.67,18,245.0,0 / 21,1284021,2020-03-21 11:32:32:098,0.0211,-0.5098,9.4895,0.0082,-0.0024,9.8066,0.032,0.0117,-0.0096,-6.14,-12.89,-37.48,72.59,-17.41,4.61
2569,52.001793,-2.067253,80,22.67,18,245.0,Jul-21,1284520,2020-03-21 11:32:32:597,0.1234,-0.0841,9.9527,0.0287,-0.0157,9.8066,0.0,-0.0043,-0.0245,-5.77,-12.52,-38.36,72.68,-17.58,6.06
2570,52.001793,-2.067253,80,22.67,18,245.0,Jul-21,1285021,2020-03-21 11:32:33:098,1.1494,-0.084,9.1354,0.0315,0.0011,9.8066,-0.0213,-0.0234,-0.0383,-6.52,-13.64,-38.36,76.94,-17.7,6.93
2571,52.001793,-2.067253,80,22.67,18,245.0,Jul-21,1285520,2020-03-21 11:32:33:597,1.0855,-0.4562,9.7367,0.0265,-0.0083,9.8066,-0.0277,-0.0107,-0.0596,-7.27,-13.64,-37.92,78.45,-17.82,9.49
2572,52.001793,-2.067253,80,22.67,18,245.0,Jul-21,1286021,2020-03-21 11:32:34:098,0.637,0.1541,9.9096,0.016,-0.0029,9.8066,-0.0319,0.0117,-0.065,-7.58,-14.02,-37.92,82.75,-17.62,12.0
2573,52.000942,-2.069875,50,24.63,24,250.5,Nov-21,1286520,2020-03-21 11:32:34:597,0.2242,-0.4262,10.2563,0.008,0.0055,9.8066,-0.0788,0.032,-0.0554,-8.33,-14.02,-37.55,83.85,-17.59,14.19
2574,52.000942,-2.069875,50,24.63,24,250.5,Nov-21,1287021,2020-03-21 11:32:35:098,-0.3548,0.3007,8.6237,-0.0003,0.0006,9.8067,-0.0181,0.0181,-0.0415,-8.71,-14.39,-37.55,86.52,-17.43,14.38
2575,52.000942,-2.069875,50,24.63,24,250.5,Nov-21,1287520,2020-03-21 11:32:35:597,-0.5422,0.0611,9.9811,-0.0149,0.0003,9.8066,-0.0192,-0.0032,-0.0277,-8.71,-14.39,-37.92,86.36,-17.35,13.66
2576,52.000942,-2.069875,50,24.63,24,250.5,Nov-21,1288020,2020-03-21 11:32:36:097,-0.4724,0.0405,10.1574,-0.015,0.0026,9.8066,-0.0373,-0.0245,-0.0149,-9.08,-14.77,-38.36,86.11,-17.4,12.37
2577,52.000942,-2.069875,50,24.63,24,250.5,Nov-21,1288521,2020-03-21 11:32:36:598,0.0389,-0.2179,9.8368,-0.0022,-0.0069,9.8066,0.0107,-0.0117,-0.0277,-9.46,-14.77,-37.48,86.28,-17.46,11.24
2578,52.000942,-2.069875,50,24.63,24,250.5,Nov-21,1289021,2020-03-21 11:32:37:098,0.286,0.0521,9.7827,-0.0104,0.0049,9.8066,0.0394,-0.0053,-0.0117,-9.46,-14.77,-37.11,85.7,-17.56,10.22
2579,52.000942,-2.069875,50,24.63,24,250.5,Nov-21,1289521,2020-03-21 11:32:37:598,0.399,0.0207,9.6573,-0.0154,0.0008,9.8066,-0.0074,-0.0011,0.0043,-10.04,-14.72,-38.22,86.81,-17.71,9.13
2580,52.000942,-2.069875,50,24.63,24,250.5,Nov-21,1290021,2020-03-21 11:32:38:098,0.3312,0.3896,9.9163,0.0137,0.0016,9.8066,0.0362,0.0021,-0.0224,-9.66,-14.35,-38.22,86.27,-17.7,8.52
2581,52.000942,-2.069875,50,24.63,24,250.5,Nov-21,1290521,2020-03-21 11:32:38:598,1.5644,0.3917,10.3168,0.0388,-0.0011,9.8066,0.065,-0.0341,-0.0373,-10.79,-14.35,-38.22,89.0,-17.94,9.66
2582,52.000942,-2.069875,50,24.63,24,250.5,Nov-21,1291021,2020-03-21 11:32:39:098,0.5812,-0.3334,9.6991,0.0197,-0.002,9.8066,-0.0128,0.0138,-0.0639,-11.1,-13.97,-38.22,89.51,-18.02,11.61
2583,52.000942,-2.069875,50,24.63,24,250.5,Nov-21,1291521,2020-03-21 11:32:39:598,0.4741,-0.0882,9.8028,0.0248,0.0062,9.8066,-0.0554,0.017,-0.065,-11.48,-13.97,-38.66,89.45,-17.92,13.31
2584,52.000942,-2.069875,50,24.63,24,250.5,Nov-21,1292021,2020-03-21 11:32:40:098,0.4955,0.0669,9.8349,0.0157,0.0001,9.8066,-0.0298,0.016,-0.0778,-12.23,-13.97,-38.66,92.35,-17.83,14.7
2585,52.000942,-2.069875,50,24.63,24,250.5,Jun-21,1292520,2020-03-21 11:32:40:597,0.3139,0.0521,9.0891,0.0198,0.001,9.8066,-0.0341,0.0373,-0.0905,-12.98,-13.97,-38.22,95.9,-17.69,16.2
2586,52.000942,-2.069875,50,24.63,24,250.5,Jun-21,1293021,2020-03-21 11:32:41:098,-0.6967,0.1468,9.7915,-0.0061,0.0053,9.8066,-0.0479,0.033,-0.065,-13.35,-14.35,-37.78,96.7,-17.2,16.9
2587,52.000942,-2.069875,50,24.63,24,250.5,Aug-21,1293520,2020-03-21 11:32:41:597,0.0414,0.1286,10.0886,0.0122,0.0032,9.8066,-0.0256,0.0181,-0.0618,-14.42,-14.36,-37.79,98.77,-17.36,17.9
2588,52.000942,-2.069875,50,24.63,24,250.5,Aug-21,1294021,2020-03-21 11:32:42:098,-0.4524,-0.293,9.5531,-0.035,-0.005,9.8066,-0.0575,0.0202,-0.0469,-15.1,-13.99,-37.35,101.75,-17.27,16.75
2589,52.000942,-2.069875,50,24.63,24,250.5,Aug-21,1294520,2020-03-21 11:32:42:597,-0.9942,-0.5234,9.4359,-0.0274,-0.0043,9.8066,-0.0405,-0.0021,-0.0138,-15.48,-14.74,-36.92,101.51,-17.21,14.67
2590,52.000942,-2.069875,50,24.63,24,250.5,Aug-21,1295020,2020-03-21 11:32:43:097,-1.1298,-0.426,9.9072,-0.0117,-0.0043,9.8066,0.0426,-0.0032,-0.0373,-15.85,-13.99,-36.48,104.36,-17.66,12.94
2591,52.000942,-2.069875,50,24.63,24,250.5,Aug-21,1295521,2020-03-21 11:32:43:598,-0.6113,-0.1162,9.5593,-0.0441,-0.0138,9.8065,-0.0096,0.0064,-0.0011,-15.48,-13.99,-36.92,101.28,-17.56,10.81
2592,52.000942,-2.069875,50,24.63,24,250.5,Aug-21,1296021,2020-03-21 11:32:44:098,-0.4707,-0.0871,9.6316,-0.0152,-0.0038,9.8066,0.016,-0.0224,-0.0117,-16.23,-13.61,-36.92,103.02,-18.06,9.78
2593,52.000942,-2.069875,50,24.63,24,250.5,Aug-21,1296520,2020-03-21 11:32:44:597,0.0943,0.2176,9.7801,-0.003,0.0057,9.8066,0.0309,-0.0107,-0.0202,-16.23,-14.36,-36.92,102.65,-18.32,8.49
2594,52.000942,-2.069875,50,24.63,24,250.5,Aug-21,1297021,2020-03-21 11:32:45:098,-0.1998,0.0766,8.8737,-0.0044,0.0191,9.8066,0.0181,0.0181,-0.016,-16.23,-13.99,-37.35,102.01,-18.68,8.11
2595,52.000942,-2.069875,50,24.63,24,250.5,Aug-21,1297521,2020-03-21 11:32:45:598,-0.4591,-0.2762,10.0916,-0.018,-0.0024,9.8066,0.0256,0.0011,0.0021,-16.6,-13.61,-36.48,105.55,-18.81,7.55
2596,52.000942,-2.069875,50,24.63,24,250.5,Aug-21,1298020,2020-03-21 11:32:46:097,0.2791,-0.0352,10.2613,-0.0055,-0.0047,9.8066,-0.0074,0.0085,-0.0032,-16.23,-13.61,-36.92,101.46,-18.99,7.08
2597,52.000942,-2.069875,50,24.63,24,250.5,Aug-21,1298521,2020-03-21 11:32:46:598,-0.1729,-0.0068,10.0308,-0.0191,0.0064,9.8066,-0.0458,0.0213,0.0096,-16.23,-13.61,-36.48,102.08,-19.25,6.12
2598,52.000942,-2.069875,50,24.63,24,250.5,Aug-21,1299021,2020-03-21 11:32:47:098,-0.0045,0.2586,9.68,0.0043,0.0056,9.8066,0.0245,-0.0139,0.0,-15.85,-14.74,-36.92,101.26,-18.9,5.22
2599,52.000942,-2.069875,50,24.63,24,250.5,Aug-21,1299521,2020-03-21 11:32:47:598,0.1258,0.3,9.2036,-0.0017,0.0097,9.8066,-0.0682,0.033,-0.0064,-16.23,-13.99,-36.92,101.09,-19.2,6.04
2600,52.000942,-2.069875,50,24.63,24,250.5,Aug-21,1300020,2020-03-21 11:32:48:097,0.8045,0.0853,10.4191,-0.0039,0.0034,9.8066,-0.033,-0.0011,-0.0011,-16.23,-13.61,-36.04,101.88,-19.37,5.47
2601,52.000942,-2.069875,50,24.63,24,250.5,Oct-21,1300521,2020-03-21 11:32:48:598,-0.2765,-0.3983,9.648,-0.001,-0.0061,9.8066,0.0405,-0.0181,0.0032,-16.23,-14.36,-36.48,102.04,-19.31,5.09
2602,52.000942,-2.069875,50,24.63,24,250.5,Oct-21,1301021,2020-03-21 11:32:49:098,0.6603,0.0529,9.6971,0.0084,0.0034,9.8066,-0.0085,0.0,-0.0149,-15.85,-13.61,-36.92,100.58,-19.45,5.93
2603,52.001217,-2.075104,61,21.1,11,281.5,Oct-21,1301521,2020-03-21 11:32:49:598,-0.2093,-0.2654,9.8105,0.0124,-0.0009,9.8066,0.0171,0.0128,-0.0351,-16.6,-13.99,-36.48,104.52,-19.42,6.72
2604,52.001217,-2.075104,61,21.1,11,281.5,Oct-21,1302021,2020-03-21 11:32:50:098,0.1319,0.2869,8.9524,0.0333,0.0004,9.8066,-0.1172,0.0351,-0.0469,-16.98,-15.11,-36.1,103.8,-19.43,7.57
2605,52.001217,-2.075104,61,21.1,11,281.5,Oct-21,1302521,2020-03-21 11:32:50:598,1.0901,0.3376,9.9582,0.0088,0.0046,9.8066,-0.0426,0.0256,-0.0362,-16.98,-14.74,-36.48,103.68,-19.43,9.15
2606,52.001217,-2.075104,61,21.1,11,281.5,Oct-21,1303020,2020-03-21 11:32:51:097,0.7748,0.0462,9.3025,0.0181,0.0095,9.8066,-0.0426,0.0138,-0.0437,-17.73,-14.74,-36.48,106.32,-19.25,10.14
2607,52.001217,-2.075104,61,21.1,11,281.5,Oct-21,1303521,2020-03-21 11:32:51:598,0.7247,0.266,9.7831,-0.0002,-0.0021,9.8067,-0.0149,-0.0213,-0.0405,-18.37,-15.13,-36.03,106.28,-19.24,10.69
2608,52.001217,-2.075104,61,21.1,11,281.5,Oct-21,1304020,2020-03-21 11:32:52:097,-0.1058,-0.1203,9.8962,0.0096,-0.0017,9.8066,-0.0213,0.0298,-0.0639,-18.37,-14.75,-35.6,106.59,-19.04,10.77
2609,52.001217,-2.075104,61,21.1,11,281.5,Oct-21,1304520,2020-03-21 11:32:52:597,0.165,-0.002,9.9497,0.0064,-0.0077,9.8066,-0.017,-0.0149,-0.0533,-19.49,-15.44,-36.47,108.66,-19.13,11.21
2610,52.001217,-2.075104,61,21.1,11,281.5,Oct-21,1305020,2020-03-21 11:32:53:097,0.1003,0.2904,10.4634,0.0257,-0.0143,9.8066,-0.0011,-0.0149,-0.0564,-19.49,-14.38,-36.03,109.88,-18.73,11.59
2611,52.001217,-2.075104,61,21.1,11,281.5,Oct-21,1305521,2020-03-21 11:32:53:598,0.2437,0.0125,10.4933,0.0141,-0.0066,9.8066,0.0096,-0.0085,-0.0799,-19.87,-14.75,-36.03,111.48,-18.66,11.63
2612,52.001217,-2.075104,61,21.1,11,281.5,Oct-21,1306020,2020-03-21 11:32:54:097,-0.6921,0.1804,9.3872,0.0084,0.0047,9.8066,0.0203,0.0181,-0.0724,-20.24,-14.75,-35.66,111.32,-18.64,12.48
2613,52.001217,-2.075104,61,21.1,11,281.5,Oct-21,1306521,2020-03-21 11:32:54:598,-0.3414,-0.0787,10.0136,-0.0139,-0.0262,9.8066,0.0309,-0.0405,-0.0554,-21.37,-14.0,-35.66,114.4,-18.55,12.2
2614,52.001217,-2.075104,61,21.1,11,281.5,Oct-21,1307020,2020-03-21 11:32:55:097,-0.3896,-0.2272,9.5618,-0.0126,-0.0048,9.8066,-0.0064,-0.0181,-0.0288,-21.74,-13.63,-35.22,117.0,-18.77,12.42
2615,52.001217,-2.075104,61,21.1,11,281.5,Oct-21,1307521,2020-03-21 11:32:55:598,-0.2753,0.0771,9.5948,-0.0244,-0.0127,9.8066,0.0075,0.0064,-0.016,-21.74,-13.63,-35.22,117.78,-18.67,10.68
2616,52.001217,-2.075104,61,21.1,11,281.5,Oct-21,1308020,2020-03-21 11:32:56:097,-0.0326,-0.5514,9.3133,-0.0013,-0.0032,9.8066,-0.0447,0.0106,-0.0266,-22.01,-14.01,-36.47,117.99,-18.19,9.7
2617,52.001217,-2.075104,61,21.1,11,281.5,Oct-21,1308521,2020-03-21 11:32:56:598,0.0126,-0.2945,9.4553,0.0021,-0.0049,9.8066,0.0224,0.0,-0.0309,-22.76,-14.01,-35.22,122.42,-17.49,8.78
2618,52.001217,-2.075104,61,21.1,11,281.5,Oct-21,1309021,2020-03-21 11:32:57:098,-0.4717,-0.0241,9.9594,-0.0058,-0.0106,9.8066,0.0128,-0.0149,-0.0042,-22.76,-14.01,-35.22,123.49,-17.11,7.86
2619,52.001217,-2.075104,61,21.1,11,281.5,Oct-21,1309520,2020-03-21 11:32:57:597,0.0425,0.1403,9.8672,-0.0017,-0.0177,9.8066,0.0011,0.0202,0.0,-22.01,-13.26,-34.78,123.45,-16.81,7.44
2620,52.001217,-2.075104,61,21.1,11,281.5,Oct-21,1310021,2020-03-21 11:32:58:098,0.5651,0.0269,9.657,-0.0035,0.0003,9.8067,0.0043,-0.0075,-0.0074,-22.01,-12.51,-35.59,123.13,-16.62,7.1
2621,52.001217,-2.075104,61,21.1,11,281.5,Oct-21,1310521,2020-03-21 11:32:58:598,-0.2681,-0.2131,9.4284,-0.0141,-0.0025,9.8066,0.0128,-0.0032,0.0053,-22.39,-12.51,-35.22,124.68,-16.41,6.55
2622,52.001217,-2.075104,61,21.1,11,281.5,Oct-21,1311020,2020-03-21 11:32:59:097,-0.1497,0.1127,9.5352,-0.0048,-0.0062,9.8066,0.0469,-0.0139,0.0085,-22.39,-11.76,-35.59,126.19,-16.38,5.66
2623,52.001217,-2.075104,61,21.1,11,281.5,Oct-21,1311521,2020-03-21 11:32:59:598,-0.6669,-0.0927,10.0774,-0.0051,-0.0078,9.8066,0.0256,0.0149,0.0203,-22.01,-11.76,-36.03,126.72,-16.34,5.15
2624,52.001217,-2.075104,61,21.1,11,281.5,Oct-21,1312021,2020-03-21 11:33:00:098,-0.6181,-0.3637,9.7111,-0.0101,-0.006,9.8066,0.0586,-0.0394,0.0288,-22.01,-11.76,-35.66,127.09,-16.41,4.63
2625,52.001217,-2.075104,61,21.1,11,281.5,Oct-21,1312521,2020-03-21 11:33:00:598,0.1892,-0.1705,9.6195,-0.0101,-0.007,9.8066,0.0149,0.0021,0.032,-21.32,-11.08,-36.47,127.11,-16.17,4.46
2626,52.001217,-2.075104,61,21.1,11,281.5,Oct-21,1313021,2020-03-21 11:33:01:098,-0.349,-0.4081,9.6963,0.0005,0.0005,9.8067,-0.016,0.0181,0.0416,-21.7,-11.08,-36.47,129.78,-16.14,4.31
2627,52.001217,-2.075104,61,21.1,11,281.5,Oct-21,1313520,2020-03-21 11:33:01:597,0.0542,0.3058,9.3776,-0.0009,0.0044,9.8066,0.0362,0.0234,0.0277,-20.95,-10.33,-35.66,129.87,-16.0,4.1
2628,52.001217,-2.075104,61,21.1,11,281.5,Oct-21,1314021,2020-03-21 11:33:02:098,0.2053,-0.09,9.2422,-0.0065,-0.0107,9.8066,-0.0021,-0.0352,0.0693,-20.57,-11.08,-35.22,129.7,-15.89,3.32
2629,52.001217,-2.075104,61,21.1,11,281.5,Oct-21,1314521,2020-03-21 11:33:02:598,0.128,0.0752,9.8379,-0.0068,-0.005,9.8066,0.0501,-0.0288,0.0725,-19.82,-11.45,-36.03,128.16,-15.64,2.09
2630,52.001217,-2.075104,61,21.1,11,281.5,Oct-21,1315020,2020-03-21 11:33:03:097,-0.3526,-0.3978,9.1119,-0.0064,-0.0001,9.8066,0.0075,-0.0128,0.0618,-19.82,-11.08,-36.47,129.07,-15.59,1.45
2631,52.001217,-2.075104,61,21.1,11,281.5,Oct-21,1315520,2020-03-21 11:33:03:597,-0.2489,0.3897,10.2025,-0.0029,-0.0012,9.8067,0.0096,-0.0171,0.0575,-19.45,-12.14,-36.03,125.16,-15.55,0.52
2632,52.001217,-2.075104,61,21.1,11,281.5,Oct-21,1316021,2020-03-21 11:33:04:098,-0.0449,0.2599,9.4651,0.0066,0.0038,9.8066,0.0213,0.0,0.0448,-18.24,-12.9,-36.86,119.5,-15.35,0.7
2633,52.001217,-2.075104,61,21.1,11,281.5,Oct-21,1316520,2020-03-21 11:33:04:597,-0.0272,0.2649,10.1221,-0.0136,0.0008,9.8066,-0.0288,0.0032,0.0554,-18.24,-11.78,-37.3,120.74,-15.47,1.06
2634,52.001217,-2.075104,61,21.1,11,281.5,Oct-21,1317020,2020-03-21 11:33:05:097,-0.2035,-0.0788,10.1065,-0.0073,-0.0064,9.8066,-0.0437,-0.0224,0.0448,-17.17,-13.28,-36.42,116.91,-15.44,0.8
2635,52.001217,-2.075104,61,21.1,11,281.5,Aug-21,1317521,2020-03-21 11:33:05:598,0.245,0.0986,10.4083,0.0135,-0.0009,9.8066,0.0096,-0.0426,0.0298,-16.05,-12.9,-36.86,112.13,-15.49,1.26
2636,52.001217,-2.075104,61,21.1,11,281.5,Aug-21,1318021,2020-03-21 11:33:06:098,0.19,0.2458,9.5038,-0.0035,0.0054,9.8066,0.0117,-0.0139,0.033,-16.42,-13.65,-35.98,111.35,-15.67,1.19
2637,52.002464,-2.079487,63,20.44,6,283.3,Oct-21,1318521,2020-03-21 11:33:06:598,0.1104,0.3914,9.8048,0.0103,0.0048,9.8066,-0.0011,-0.0053,0.0203,-16.42,-14.03,-36.42,110.67,-15.87,1.59
2638,52.002464,-2.079487,63,20.44,6,283.3,Oct-21,1319021,2020-03-21 11:33:07:098,0.6053,-0.1361,10.0626,0.0099,0.0015,9.8066,-0.0266,-0.0053,0.0064,-16.42,-13.28,-37.3,109.84,-16.03,2.89
2639,52.002464,-2.079487,63,20.44,6,283.3,Oct-21,1319521,2020-03-21 11:33:07:598,0.2694,0.4959,9.5966,0.0241,0.0162,9.8066,0.0213,0.0224,-0.0074,-16.05,-13.65,-36.86,107.84,-16.2,4.13
2640,52.002464,-2.079487,63,20.44,6,283.3,Oct-21,1320020,2020-03-21 11:33:08:097,0.591,0.3375,9.6418,0.0032,0.0107,9.8066,0.0,-0.0032,0.0203,-16.05,-13.28,-36.86,107.76,-16.4,5.69
2641,52.002464,-2.079487,63,20.44,6,283.3,Oct-21,1320521,2020-03-21 11:33:08:598,-0.4813,-0.1376,10.0688,-0.001,-0.0048,9.8066,-0.0096,-0.0053,-0.0053,-15.67,-14.03,-37.73,105.55,-16.62,5.59
2642,52.002464,-2.079487,63,20.44,6,283.3,Oct-21,1321021,2020-03-21 11:33:09:098,-0.0805,-0.161,9.9253,-0.002,-0.0012,9.8066,-0.0319,-0.0107,0.0107,-15.67,-14.4,-37.3,106.12,-16.8,5.59
2643,52.002464,-2.079487,63,20.44,6,283.3,Oct-21,1321520,2020-03-21 11:33:09:597,0.4112,0.3059,9.2331,0.0111,0.01,9.8066,0.0139,-0.0128,0.0107,-15.67,-14.03,-37.3,105.59,-17.05,5.67
2644,52.002464,-2.079487,63,20.44,6,283.3,Oct-21,1322020,2020-03-21 11:33:10:097,0.4991,-0.0947,7.6104,0.0053,0.0154,9.8066,0.0032,0.0074,-0.0032,-15.3,-14.4,-36.86,102.59,-17.06,6.01
2645,52.002464,-2.079487,63,20.44,6,283.3,Oct-21,1322520,2020-03-21 11:33:10:597,-0.4779,0.3327,10.1467,-0.0082,0.0066,9.8066,-0.0501,0.0266,0.0096,-15.67,-14.03,-36.86,105.39,-17.12,5.94
2646,52.002464,-2.079487,63,20.44,6,283.3,Oct-21,1323020,2020-03-21 11:33:11:097,0.7009,0.4444,10.0393,-0.0052,0.0144,9.8066,0.0948,-0.0043,0.0224,-14.92,-14.4,-37.3,102.64,-17.05,5.84
2647,52.002464,-2.079487,63,20.44,6,283.3,Oct-21,1323520,2020-03-21 11:33:11:597,-0.3874,-0.3137,9.313,-0.0018,-0.0025,9.8066,-0.0234,0.0149,0.0085,-14.55,-13.65,-37.73,99.79,-17.93,5.98
2648,52.002464,-2.079487,63,20.44,6,283.3,Oct-21,1324021,2020-03-21 11:33:12:098,-0.3153,0.1141,9.5878,-0.0272,0.0107,9.8066,-0.0319,0.0202,0.0394,-15.67,-14.4,-38.55,101.24,-18.19,5.19
2649,52.002464,-2.079487,63,20.44,6,283.3,0 / 21,1324521,2020-03-21 11:33:12:598,0.2636,-0.1235,9.1119,-0.0069,0.0013,9.8066,0.0192,-0.0107,0.0469,-14.24,-13.65,-37.73,95.65,-18.4,4.51
2650,52.002464,-2.079487,63,20.44,6,283.3,0 / 21,1325021,2020-03-21 11:33:13:098,0.1085,0.0719,9.264,-0.0037,0.0081,9.8066,0.0511,0.0021,0.0277,-13.86,-14.03,-37.3,95.76,-18.79,3.53
2651,52.002464,-2.079487,63,20.44,6,283.3,13 / 21,1325521,2020-03-21 11:33:13:598,-0.4871,0.2731,10.1205,-0.0105,0.0104,9.8066,-0.0181,0.0192,0.0394,-13.49,-14.03,-37.73,91.1,-18.85,3.32
2652,52.002464,-2.079487,63,20.44,6,283.3,13 / 21,1326021,2020-03-21 11:33:14:098,0.4667,-0.1968,9.7309,0.004,-0.0043,9.8066,0.0149,-0.0234,0.0149,-13.01,-14.05,-36.84,91.67,-19.03,2.75
2653,52.002464,-2.079487,63,20.44,6,283.3,13 / 21,1326520,2020-03-21 11:33:14:597,-0.227,0.0356,9.154,0.0009,0.0,9.8067,0.0032,-0.0117,0.0181,-13.01,-14.43,-37.27,91.37,-19.18,3.06
2654,52.002464,-2.079487,63,20.44,6,283.3,13 / 21,1327021,2020-03-21 11:33:15:098,-0.2801,0.5168,9.0338,0.0076,0.0033,9.8066,0.0479,0.0,0.0,-12.64,-14.43,-37.71,89.88,-19.33,3.19
2655,52.002464,-2.079487,63,20.44,6,283.3,13 / 21,1327520,2020-03-21 11:33:15:597,0.2436,-0.2602,9.9584,0.0018,-0.0101,9.8066,0.0021,-0.0181,0.0256,-13.01,-14.8,-38.15,90.11,-19.28,3.31
2656,52.002464,-2.079487,63,20.44,6,283.3,13 / 21,1328021,2020-03-21 11:33:16:098,0.8441,-0.024,9.4796,0.0104,0.0018,9.8066,0.0256,0.0032,0.0213,-12.64,-14.43,-37.71,90.55,-19.14,3.89
2657,52.002464,-2.079487,63,20.44,6,283.3,13 / 21,1328521,2020-03-21 11:33:16:598,-1.3559,0.1658,9.9894,-0.0204,-0.0084,9.8066,-0.0064,-0.0373,0.0224,-11.89,-13.68,-37.71,87.48,-19.05,3.82
2658,52.002464,-2.079487,63,20.44,6,283.3,13 / 21,1329021,2020-03-21 11:33:17:098,-0.4653,0.0597,10.4193,-0.0003,-0.0101,9.8066,0.0128,-0.032,0.0234,-11.51,-13.68,-38.15,87.97,-18.95,4.46
2659,52.002464,-2.079487,63,20.44,6,283.3,13 / 21,1329520,2020-03-21 11:33:17:597,0.1139,0.1848,9.2638,0.0068,0.0022,9.8066,0.0,0.0554,0.0075,-11.89,-13.3,-38.09,87.82,-18.96,4.66
2660,52.002464,-2.079487,63,20.44,6,283.3,13 / 21,1330021,2020-03-21 11:33:18:098,0.2631,0.0378,9.1242,0.0008,0.0044,9.8066,0.0117,0.032,0.0298,-11.14,-12.93,-37.71,84.75,-18.87,4.82
2661,52.002464,-2.079487,63,20.44,6,283.3,13 / 21,1330521,2020-03-21 11:33:18:598,-0.4692,-0.8021,9.675,0.0003,-0.0127,9.8066,-0.0149,-0.0224,0.0511,-10.76,-12.55,-37.71,85.48,-18.56,4.81
