,GPS LATITUDE (degrees), GPS LONGITUDE (degrees), GPS ALTITUDE (m), GPS SPEED (Kmh), GPS ACCURACY (m), GPS ORIENTATION (Â°),GPS SATELLITES IN RANGE, TIME SINCE START (ms), DATE (YYYY-MO-DD HH-MI-SS_SSS), ACCELEROMETER X (m/s²) , ACCELEROMETER Y (m/s²), ACCELEROMETER Z (m/s²), GRAVITY X (m/s²), GRAVITY Y (m/s²), GRAVITY Z (m/s²), GYROSCOPE Yaw (rad/s), GYROSCOPE Pitch (rad/s), GYROSCOPE Roll (rad/s), MAGNETIC FIELD X (Î¼T), MAGNETIC FIELD Y (Î¼T), MAGNETIC FIELD Z (Î¼T), ORIENTATION (Yaw) (Â°), ORIENTATION (Pitch) (Â°), ORIENTATION (Roll ) (Â°)
79977,52.527023,-1.441794,152.91,12.76,3,232.31,24 / 25,7811310,2019-09-08 14:17:10:549,0.0878,-0.2304,10.3854,-0.0104,0.007,9.8066,0.1717,0.014,0.0304,3.0,-34.37,22.13,18.34,-82.58,-173.14
79978,52.527023,-1.441794,152.91,12.76,3,232.31,24 / 25,7811410,2019-09-08 14:17:10:649,0.7218,-0.1918,9.9088,0.0021,-0.0144,9.8066,-0.1788,0.0227,0.0538,2.88,-34.0,22.44,18.09,-82.55,-173.35
79979,52.527023,-1.441794,152.91,12.76,3,232.31,24 / 25,7811510,2019-09-08 14:17:10:749,0.459,0.2051,9.4865,0.0107,0.0211,9.8065,-0.1573,0.052,-0.0452,2.94,-34.19,22.31,17.44,-82.56,-173.87
79980,52.527023,-1.441794,152.91,12.76,3,232.31,24 / 25,7811610,2019-09-08 14:17:10:849,-0.6029,0.0828,10.2729,0.017,0.0398,9.8065,0.2061,-0.0313,0.0543,2.94,-34.56,22.38,16.38,-82.75,-174.73
79981,52.527023,-1.441794,152.91,12.76,3,232.31,24 / 25,7811710,2019-09-08 14:17:10:949,0.0335,-1.3147,10.3041,-0.0075,-0.055,9.8064,0.2134,0.0612,-0.0191,2.75,-34.12,22.75,15.27,-82.75,-175.07
79982,52.527023,-1.441794,152.91,12.76,3,232.31,24 / 25,7811810,2019-09-08 14:17:11:049,0.2048,1.1071,9.457,-0.0002,-0.0478,9.8065,-0.0619,0.0122,0.0135,2.75,-34.25,22.69,14.27,-82.49,-175.99
79983,52.527023,-1.441794,152.91,12.76,3,232.31,24 / 25,7811910,2019-09-08 14:17:11:149,0.0319,0.188,9.1648,0.004,0.0349,9.8065,0.0059,0.0529,0.0251,2.56,-34.0,22.31,15.59,-82.51,-175.38
79984,52.527023,-1.441794,152.91,12.76,3,232.31,24 / 25,7812010,2019-09-08 14:17:11:249,-0.2924,-0.2955,10.3726,0.0044,0.0239,9.8066,0.0488,0.039,0.0516,2.06,-34.5,22.81,12.09,-82.71,-175.22
79985,52.527023,-1.441794,152.91,12.76,3,232.31,24 / 25,7812110,2019-09-08 14:17:11:349,0.4575,-0.0934,9.5866,-0.02,-0.0251,9.8065,0.082,0.054,0.1082,1.81,-33.56,22.88,12.44,-82.72,-174.93
79986,52.527023,-1.441794,152.91,12.76,3,232.31,24 / 25,7812210,2019-09-08 14:17:11:449,0.3337,0.9026,10.026,0.0058,-0.0037,9.8066,0.106,0.0376,0.0066,2.0,-34.06,22.88,13.98,-82.59,-173.73
79987,52.527023,-1.441794,152.91,12.76,3,232.31,24 / 25,7812310,2019-09-08 14:17:11:549,-1.021,-0.3859,9.7783,-0.0076,-0.0361,9.8065,0.134,-0.0119,-0.0079,2.56,-34.19,23.0,16.84,-82.54,-173.89
79988,52.527023,-1.441794,152.91,12.76,3,232.31,24 / 25,7812410,2019-09-08 14:17:11:649,-0.0891,0.1771,10.3057,0.0018,-0.0245,9.8066,-0.0113,0.0309,-0.0578,2.31,-34.0,22.75,13.85,-82.65,-173.82
79989,52.527023,-1.441794,152.91,12.76,3,232.31,24 / 25,7812510,2019-09-08 14:17:11:749,0.3343,-0.2957,10.4101,0.0014,-0.0301,9.8065,0.1142,0.0147,-0.0358,1.81,-33.69,23.0,13.63,-82.71,-173.97
79990,52.527023,-1.441794,152.91,12.76,3,232.31,24 / 25,7812611,2019-09-08 14:17:11:850,0.3484,-0.284,9.3685,-0.0068,-0.022,9.8065,-0.0471,0.0404,0.0031,1.81,-34.56,22.81,13.42,-82.45,-174.31
79991,52.527023,-1.441794,152.91,12.76,3,232.31,22 / 23,7812710,2019-09-08 14:17:11:949,-0.0583,-0.1768,10.3719,-0.0001,-0.0072,9.8066,-0.0565,0.0267,0.0047,1.81,-34.19,24.0,12.96,-82.4,-174.32
79992,52.527023,-1.441794,152.91,12.76,3,232.31,22 / 23,7812810,2019-09-08 14:17:12:049,0.5944,-0.2411,9.7411,0.0059,-0.0002,9.8066,0.0116,-0.0386,0.0361,1.63,-33.69,23.56,12.08,-82.44,-175.01
79993,52.527023,-1.441794,152.91,12.76,3,232.31,22 / 23,7812910,2019-09-08 14:17:12:149,1.3377,0.0586,9.0814,-0.0043,-0.0078,9.8066,0.0627,0.1165,-0.014,1.94,-34.56,22.94,13.55,-82.42,-174.22
79994,52.527023,-1.441794,152.91,12.76,3,232.31,22 / 23,7813009,2019-09-08 14:17:12:248,0.1557,1.9023,9.8619,-0.0073,-0.0557,9.8064,0.0057,0.0875,-0.0361,2.13,-34.31,23.25,14.19,-82.3,-173.68
79995,52.527023,-1.441794,152.91,12.76,3,232.31,22 / 23,7813110,2019-09-08 14:17:12:349,0.6303,-0.8741,9.8453,-0.0001,-0.0074,9.8065,0.1363,0.037,0.0115,1.88,-34.12,23.38,13.55,-82.42,-174.14
79996,52.527023,-1.441794,152.91,12.76,3,232.31,22 / 23,7813210,2019-09-08 14:17:12:449,0.4394,0.6909,10.1813,0.0042,-0.0277,9.8065,0.0639,0.0313,-0.0232,1.31,-33.69,23.13,10.48,-82.23,-174.19
79997,52.527023,-1.441794,152.91,12.76,3,232.31,22 / 23,7813310,2019-09-08 14:17:12:549,0.355,-0.4316,9.9317,0.0049,-0.0129,9.8066,0.1036,0.0546,-0.0417,1.88,-33.81,23.31,12.92,-82.22,-174.72
79998,52.527023,-1.441794,152.91,12.76,3,232.31,22 / 23,7813410,2019-09-08 14:17:12:649,-0.252,-0.4468,9.8801,0.0068,-0.0128,9.8066,-0.1522,0.0219,-0.0409,1.69,-34.44,23.13,11.63,-82.16,-175.76
79999,52.527023,-1.441794,152.91,12.76,3,232.31,22 / 23,7813510,2019-09-08 14:17:12:749,0.9089,-0.2579,9.9556,0.0108,0.0475,9.8065,-0.1247,0.0616,-0.0731,1.75,-33.56,23.38,10.25,-82.47,-176.77
80000,52.527023,-1.441794,152.91,12.76,3,232.31,22 / 23,7813610,2019-09-08 14:17:12:849,0.403,0.6917,9.8842,0.0087,0.0456,9.8065,0.0178,0.0334,0.0119,1.06,-34.31,23.19,6.86,-82.51,-177.01
80001,52.527023,-1.441794,152.91,12.76,3,232.31,23 / 24,7813711,2019-09-08 14:17:12:950,-0.1556,-0.3603,10.2874,-0.0007,-0.0177,9.8066,0.0327,0.0417,-0.0182,1.56,-34.06,23.44,9.71,-82.48,-177.2
80002,52.527023,-1.441794,152.91,12.76,3,232.31,23 / 24,7813810,2019-09-08 14:17:13:049,0.0498,-0.63,9.7107,0.0051,-0.0291,9.8065,-0.0198,0.0686,0.0041,1.38,-34.37,23.13,5.66,-82.3,-178.0
80003,52.527023,-1.441794,152.91,12.76,3,232.31,23 / 24,7813910,2019-09-08 14:17:13:149,-0.2094,-0.5142,9.8489,0.0062,0.0088,9.8066,0.0713,0.0695,0.0467,1.06,-34.12,23.06,6.2,-82.24,-177.58
80004,52.527023,-1.441794,152.91,12.76,3,232.31,23 / 24,7814010,2019-09-08 14:17:13:249,0.4931,-1.4639,9.5262,0.0016,-0.0082,9.8066,-0.1593,0.0734,0.0,1.69,-34.19,23.25,8.61,-82.21,-178.15
80005,52.527023,-1.441794,152.91,12.76,3,232.31,23 / 24,7814110,2019-09-08 14:17:13:349,0.5611,-0.3033,9.5992,-0.0144,0.0225,9.8066,-0.0421,0.0623,0.0481,1.44,-34.62,23.94,5.09,-82.28,-178.33
80006,52.527023,-1.441794,152.91,12.76,3,232.31,23 / 24,7814210,2019-09-08 14:17:13:449,0.3237,0.3424,9.3615,0.0043,0.0057,9.8066,0.0322,0.0845,-0.021,1.31,-34.44,24.19,5.35,-82.28,-178.1
80007,52.527023,-1.441794,152.91,12.76,3,232.31,23 / 24,7814310,2019-09-08 14:17:13:549,-0.1264,0.662,10.0159,-0.0044,0.0154,9.8066,0.022,0.0226,0.0562,0.94,-34.0,24.19,5.88,-82.33,-177.67
80008,52.527023,-1.441794,152.91,12.76,3,232.31,23 / 24,7814410,2019-09-08 14:17:13:649,0.3019,0.4068,10.3672,-0.0036,-0.0103,9.8066,-0.0653,0.032,0.0217,0.88,-34.06,23.56,6.03,-82.35,-177.54
80009,52.527023,-1.441794,152.91,12.76,3,232.31,23 / 24,7814510,2019-09-08 14:17:13:749,0.4147,1.2646,10.3428,-0.0041,0.0138,9.8066,-0.0885,0.0793,0.0218,0.81,-34.0,24.5,5.91,-82.2,-177.52
80010,52.527023,-1.441794,152.91,12.76,3,232.31,23 / 24,7814610,2019-09-08 14:17:13:849,0.4065,-0.6561,9.8585,0.0052,0.0233,9.8066,0.0667,0.0385,-0.0097,0.38,-33.37,24.25,3.09,-82.1,-177.53
80011,52.527023,-1.441794,152.91,12.76,3,232.31,25 / 25,7814710,2019-09-08 14:17:13:949,0.2187,0.5229,9.5962,-0.0113,-0.0081,9.8066,0.0275,0.0235,0.0331,0.56,-34.37,24.75,6.45,-81.98,-177.12
80012,52.527023,-1.441794,152.91,12.76,3,232.31,25 / 25,7814810,2019-09-08 14:17:14:049,0.3658,-0.6629,9.8684,0.0009,0.0179,9.8066,-0.0749,0.0651,-0.0023,0.81,-33.19,24.75,6.32,-82.19,-177.16
80013,52.527023,-1.441794,152.91,12.76,3,232.31,25 / 25,7814910,2019-09-08 14:17:14:149,0.9901,0.5946,10.2629,-0.0017,-0.0072,9.8066,-0.009,0.0615,0.0007,0.94,-33.87,23.94,6.41,-82.29,-177.25
80014,52.527023,-1.441794,152.91,12.76,3,232.31,25 / 25,7815010,2019-09-08 14:17:14:249,0.4127,-0.5835,9.5107,-0.0055,-0.0035,9.8066,-0.0779,0.0566,0.002,0.5,-33.94,24.5,7.09,-82.27,-176.56
80015,52.527023,-1.441794,152.91,12.76,3,232.31,25 / 25,7815110,2019-09-08 14:17:14:349,0.6565,1.3588,9.7183,-0.0041,0.0093,9.8066,-0.0962,0.0671,-0.028,0.31,-34.0,23.94,4.09,-82.16,-176.74
80016,52.527023,-1.441794,152.91,12.76,3,232.31,25 / 25,7815210,2019-09-08 14:17:14:449,0.4215,0.6331,9.9624,0.0026,0.0084,9.8066,0.0564,0.0421,-0.0023,0.31,-34.06,24.81,4.05,-82.22,-176.73
80017,52.527023,-1.441794,152.91,12.76,3,232.31,25 / 25,7815310,2019-09-08 14:17:14:549,1.3894,0.1006,10.0084,0.0049,-0.0015,9.8066,0.0622,0.0948,-0.0185,0.31,-33.56,24.44,4.01,-82.2,-176.8
80018,52.527023,-1.441794,152.91,12.76,3,232.31,25 / 25,7815410,2019-09-08 14:17:14:649,0.0897,0.401,10.1357,0.0054,0.012,9.8065,-0.0327,0.0396,-0.0054,-0.12,-33.44,24.69,3.82,-82.26,-176.89
80019,52.527023,-1.441794,152.91,12.76,3,232.31,25 / 25,7815510,2019-09-08 14:17:14:749,0.5218,-1.4439,10.1402,-0.0051,-0.0464,9.8064,0.1977,0.0789,-0.0329,0.06,-33.94,24.81,3.42,-82.29,-177.24
80020,52.527023,-1.441794,152.91,12.76,3,232.31,25 / 25,7815610,2019-09-08 14:17:14:849,0.5231,-0.0462,9.6235,0.004,-0.0447,9.8065,-0.0835,0.0809,0.0006,-0.06,-33.5,24.63,3.61,-82.02,-177.09
80021,52.527023,-1.441794,152.91,12.76,3,232.31,25 / 26,7815710,2019-09-08 14:17:14:949,0.5909,-0.2236,9.5879,0.0057,0.0241,9.8066,-0.0458,0.0409,-0.0274,0.0,-33.75,24.56,3.9,-82.04,-176.87
80022,52.527023,-1.441794,152.91,12.76,3,232.31,25 / 26,7815810,2019-09-08 14:17:15:049,-0.1978,1.2512,9.769,-0.0055,0.0107,9.8066,0.0636,0.0344,0.0017,-0.37,-33.87,24.94,4.08,-82.17,-176.71
80023,52.527023,-1.441794,152.91,12.76,3,232.31,25 / 26,7815910,2019-09-08 14:17:15:149,-0.4705,0.1437,10.1915,0.0037,-0.0236,9.8065,0.1691,0.0297,-0.0026,-0.31,-33.69,25.13,3.88,-82.17,-176.87
80024,52.527023,-1.441794,152.91,12.76,3,232.31,25 / 26,7816010,2019-09-08 14:17:15:249,0.0481,0.5956,10.5454,-0.0074,-0.0205,9.8066,-0.0672,0.0474,-0.0304,-0.56,-33.87,25.38,1.66,-82.23,-176.37
80025,52.527023,-1.441794,152.91,12.76,3,232.31,25 / 26,7816110,2019-09-08 14:17:15:349,0.0655,0.6826,10.4592,0.0016,-0.0218,9.8066,-0.0449,0.0401,0.0001,0.19,-33.94,25.56,4.2,-82.31,-176.57
80026,52.527023,-1.441794,152.91,12.76,3,232.31,25 / 26,7816210,2019-09-08 14:17:15:449,0.7137,1.3163,9.9892,0.0039,-0.0255,9.8065,0.0217,0.0675,-0.0511,-0.31,-33.87,25.56,3.57,-82.06,-177.11
80027,52.527023,-1.441794,152.91,12.76,3,232.31,25 / 26,7816310,2019-09-08 14:17:15:549,0.7602,0.3956,9.3094,0.0011,-0.0054,9.8066,0.0126,0.0609,-0.0197,-0.31,-33.5,25.13,3.01,-82.04,-177.57
80028,52.527023,-1.441794,152.91,12.76,3,232.31,25 / 26,7816410,2019-09-08 14:17:15:649,0.3349,0.1931,9.4858,-0.0066,0.0069,9.8066,-0.001,0.0308,0.0236,-0.44,-34.06,25.38,3.84,-82.04,-176.92
80029,52.527023,-1.441794,152.91,12.76,3,232.31,25 / 26,7816510,2019-09-08 14:17:15:749,0.4072,0.5158,9.663,0.0023,0.0038,9.8066,-0.076,0.0595,-0.0434,-0.31,-34.0,24.94,3.6,-82.13,-177.11
80030,52.527023,-1.441794,152.91,12.76,3,232.31,25 / 26,7816610,2019-09-08 14:17:15:849,0.081,1.2,9.7767,0.0006,0.006,9.8066,0.0805,0.0404,-0.0016,-0.44,-33.81,25.31,3.16,-82.17,-177.45
80031,52.527023,-1.441794,152.91,12.76,3,232.31,25 / 26,7816710,2019-09-08 14:17:15:949,0.5562,-0.4137,9.8958,0.0134,-0.023,9.8065,0.0966,0.0624,-0.0479,-0.62,-33.56,25.38,0.48,-82.14,-177.32
80032,52.527023,-1.441794,152.91,12.76,3,232.31,25 / 26,7816810,2019-09-08 14:17:16:049,0.229,0.7964,9.3735,-0.0056,-0.0397,9.8065,-0.1163,0.0402,0.023,-0.69,-34.06,25.88,0.02,-81.98,-177.78
80033,52.527023,-1.441794,152.91,12.76,3,232.31,25 / 26,7816910,2019-09-08 14:17:16:149,0.5715,1.0581,9.2792,0.0051,0.0269,9.8066,-0.1076,0.0588,0.0291,-0.44,-33.81,25.63,1.98,-81.98,-178.4
80034,52.527023,-1.441794,152.91,12.76,3,232.31,25 / 26,7817010,2019-09-08 14:17:16:249,0.5422,1.1853,9.5705,0.0,0.0125,9.8066,0.2136,0.0331,0.004,-1.06,-33.69,25.63,359.03,-82.07,-178.59
80035,52.527023,-1.441794,152.91,12.76,3,232.31,25 / 26,7817110,2019-09-08 14:17:16:349,0.3731,-0.9241,10.4615,0.0048,-0.008,9.8066,0.1615,0.0336,-0.0198,-0.75,-33.5,25.25,358.6,-81.97,-178.84
80036,52.527023,-1.441794,152.91,12.76,3,232.31,25 / 26,7817210,2019-09-08 14:17:16:449,0.6009,0.1874,10.5009,-0.0075,-0.0116,9.8066,-0.0714,0.0395,0.0043,-0.69,-33.56,25.88,358.92,-81.88,-178.66
80037,52.527023,-1.441794,152.91,12.76,3,232.31,25 / 26,7817310,2019-09-08 14:17:16:549,0.0379,-0.4563,9.9933,-0.0077,-0.0051,9.8066,-0.0779,0.0391,0.0342,-0.44,-33.0,25.31,1.94,-81.85,-178.45
80038,52.527023,-1.441794,152.91,12.76,3,232.31,25 / 26,7817410,2019-09-08 14:17:16:649,0.8578,0.7086,9.6477,-0.0052,-0.002,9.8066,-0.0558,0.0975,-0.0185,-0.81,-33.12,25.63,0.11,-81.84,-177.71
80039,52.527023,-1.441794,152.91,12.76,3,232.31,25 / 26,7817510,2019-09-08 14:17:16:749,-0.1,1.3949,9.9174,-0.0006,0.0137,9.8065,-0.0601,0.021,-0.0027,-0.37,-33.37,25.88,2.37,-81.93,-178.08
80040,52.527023,-1.441794,152.91,12.76,3,232.31,25 / 26,7817610,2019-09-08 14:17:16:849,0.5628,0.9874,9.7485,-0.0012,0.0009,9.8066,-0.0314,0.0023,-0.0231,-1.37,-34.0,26.06,359.45,-81.99,-178.24
80041,52.527023,-1.441794,152.91,12.76,3,232.31,25 / 26,7817710,2019-09-08 14:17:16:949,0.8304,-0.1147,9.6735,-0.0034,0.0153,9.8066,-0.0545,0.0222,-0.0155,-1.06,-33.06,25.56,359.33,-81.98,-178.34
80042,52.527023,-1.441794,152.91,12.76,3,232.31,25 / 26,7817809,2019-09-08 14:17:17:048,-0.056,0.2644,10.1399,-0.0081,0.0058,9.8066,-0.0004,0.0176,0.0072,-1.69,-33.44,25.63,357.02,-81.88,-178.02
80043,52.527023,-1.441794,152.91,12.76,3,232.31,25 / 26,7817910,2019-09-08 14:17:17:149,0.3309,0.4124,10.2121,-0.0108,-0.009,9.8066,-0.0214,0.05,0.0254,-1.69,-33.56,26.25,357.11,-81.9,-177.93
80044,52.527023,-1.441794,152.91,12.76,3,232.31,25 / 26,7818010,2019-09-08 14:17:17:249,0.9515,0.6717,10.1133,0.0026,-0.0133,9.8065,0.0747,0.0566,-0.0086,-1.5,-33.37,26.75,0.75,-81.82,-177.27
80045,52.527023,-1.441794,152.91,12.76,3,232.31,25 / 26,7818110,2019-09-08 14:17:17:349,0.069,-0.7458,10.3689,-0.0018,-0.0134,9.8065,0.0607,0.0046,0.0167,-1.87,-33.44,26.0,358.36,-81.82,-176.93
80046,52.527023,-1.441794,152.91,12.76,3,232.31,25 / 26,7818210,2019-09-08 14:17:17:449,-0.0276,0.3615,10.2644,-0.0057,-0.0141,9.8066,0.0295,0.0372,-0.0101,-1.75,-33.0,26.56,358.83,-81.67,-176.71
80047,52.527023,-1.441794,152.91,12.76,3,232.31,25 / 26,7818310,2019-09-08 14:17:17:549,0.1028,0.1669,9.6023,0.0028,0.0021,9.8066,-0.0245,0.0302,-0.0824,-2.31,-33.62,26.94,358.03,-81.54,-177.35
80048,52.527023,-1.441794,152.91,12.76,3,232.31,25 / 26,7818410,2019-09-08 14:17:17:649,1.1433,-0.3426,9.8716,-0.019,0.0176,9.8066,-0.0477,0.1153,-0.0154,-2.37,-32.69,26.44,358.89,-81.56,-176.5
80049,52.527023,-1.441794,152.91,12.76,3,232.31,25 / 26,7818510,2019-09-08 14:17:17:749,-0.3607,0.0754,10.0062,-0.0014,-0.0035,9.8066,-0.0163,0.0071,0.0537,-2.12,-33.19,26.88,359.36,-81.48,-176.28
80050,52.527023,-1.441794,152.91,12.76,3,232.31,25 / 26,7818610,2019-09-08 14:17:17:849,-0.1213,0.2603,9.7476,-0.0097,-0.0071,9.8066,-0.0356,0.0423,0.0669,-2.12,-33.06,27.06,359.12,-81.42,-176.47
80051,52.527023,-1.441794,152.91,12.76,3,232.31,25 / 25,7818710,2019-09-08 14:17:17:949,-0.1959,1.2101,9.7658,-0.0019,0.0274,9.8065,-0.1058,0.0494,0.0774,-2.12,-33.37,26.88,359.48,-81.32,-176.18
80052,52.527023,-1.441794,152.91,12.76,3,232.31,25 / 25,7818810,2019-09-08 14:17:18:049,-0.635,1.2462,10.6074,0.0047,0.0561,9.8065,0.244,0.1205,-0.0748,-2.62,-33.06,26.69,356.19,-81.57,-176.75
80053,52.527023,-1.441794,152.91,12.76,3,232.31,25 / 25,7818910,2019-09-08 14:17:18:149,-0.1758,1.0589,10.7128,0.0068,-0.086,9.8062,0.2312,0.0417,0.04,-2.75,-33.69,27.13,354.86,-81.15,-177.75
80054,52.527023,-1.441794,152.91,12.76,3,232.31,25 / 25,7819010,2019-09-08 14:17:18:249,0.5889,1.7217,10.3739,0.0083,-0.0532,9.8064,-0.0689,0.1389,0.025,-2.5,-33.37,26.94,357.06,-81.19,-178.12
80055,52.527023,-1.441794,152.91,12.76,3,232.31,25 / 25,7819110,2019-09-08 14:17:18:349,1.5586,0.5643,9.7356,0.003,0.001,9.8066,-0.008,0.0882,0.0109,-2.75,-33.31,26.56,355.01,-81.14,-177.66
80056,52.527023,-1.441794,152.91,12.76,3,232.31,25 / 25,7819210,2019-09-08 14:17:18:449,-0.3114,0.7312,9.847,-0.0262,-0.0412,9.8064,-0.0937,0.0316,0.046,-2.94,-34.25,26.25,356.67,-80.85,-176.02
80057,52.527023,-1.441794,152.91,12.76,3,232.31,25 / 25,7819310,2019-09-08 14:17:18:549,0.4421,0.2081,9.5562,-0.0033,0.0296,9.8065,-0.0075,0.0794,0.0066,-2.87,-33.75,27.88,358.52,-80.92,-175.06
80058,52.527023,-1.441794,152.91,12.76,3,232.31,25 / 25,7819410,2019-09-08 14:17:18:649,0.4345,-0.402,10.0414,-0.0014,0.0352,9.8066,-0.1004,0.0264,-0.0105,-3.0,-33.44,27.56,358.66,-81.19,-174.97
80059,52.527023,-1.441794,152.91,12.76,3,232.31,25 / 25,7819510,2019-09-08 14:17:18:749,0.4456,1.4557,9.5435,0.0191,-0.0139,9.8066,-0.0568,0.0651,-0.0726,-3.19,-33.81,27.44,357.49,-81.11,-175.66
80060,52.527023,-1.441794,152.91,12.76,3,232.31,25 / 25,7819610,2019-09-08 14:17:18:849,0.9312,1.0495,9.4226,0.0037,-0.0344,9.8065,0.1364,0.0736,-0.0374,-2.94,-33.37,27.69,357.13,-80.93,-176.19
80061,52.526237,-1.44291,152.26,12.94,3,206.54,25 / 26,7819711,2019-09-08 14:17:18:950,1.2048,0.1936,9.6671,0.0035,0.0148,9.8066,0.1343,0.0721,-0.0238,-2.81,-33.19,28.13,356.45,-80.8,-176.73
80062,52.526237,-1.44291,152.26,12.94,3,206.54,25 / 26,7819810,2019-09-08 14:17:19:049,0.7105,0.0402,9.6424,-0.0086,0.0131,9.8065,0.0372,0.1064,-0.0812,-3.75,-32.56,27.69,354.27,-80.76,-176.45
80063,52.526237,-1.44291,152.26,12.94,3,206.54,25 / 26,7819910,2019-09-08 14:17:19:149,0.5831,1.0608,9.4826,-0.0012,0.0003,9.8066,-0.174,0.0306,-0.0143,-3.62,-33.31,28.06,354.49,-80.79,-176.28
80064,52.526237,-1.44291,152.26,12.94,3,206.54,25 / 26,7820010,2019-09-08 14:17:19:249,0.1765,1.3843,9.4224,0.0023,0.0048,9.8066,-0.158,0.0339,-0.0055,-3.94,-32.44,27.56,354.86,-80.87,-176.02
80065,52.526237,-1.44291,152.26,12.94,3,206.54,25 / 26,7820110,2019-09-08 14:17:19:349,0.3506,-0.0244,9.9988,0.0044,0.0175,9.8066,0.0976,0.0396,0.0177,-3.69,-32.62,27.44,353.98,-80.97,-176.38
80066,52.526237,-1.44291,152.26,12.94,3,206.54,25 / 26,7820210,2019-09-08 14:17:19:449,-1.1771,0.913,10.4179,0.0114,0.0253,9.8065,0.1165,-0.0419,0.1093,-3.56,-33.12,27.5,353.85,-81.04,-176.83
80067,52.526237,-1.44291,152.26,12.94,3,206.54,25 / 26,7820310,2019-09-08 14:17:19:549,0.6427,0.1343,11.1217,0.0143,-0.0468,9.8065,0.0256,-0.007,0.0068,-3.69,-32.56,27.75,354.42,-80.94,-176.36
80068,52.526237,-1.44291,152.26,12.94,3,206.54,25 / 26,7820410,2019-09-08 14:17:19:649,1.0015,-0.2871,10.1836,0.0133,-0.0362,9.8065,0.0178,0.0539,0.0037,-3.87,-32.0,28.19,353.62,-80.51,-176.97
80069,52.526237,-1.44291,152.26,12.94,3,206.54,25 / 26,7820510,2019-09-08 14:17:19:749,0.5751,-0.2046,10.0754,0.0002,0.0086,9.8065,0.1185,0.0116,0.0269,-4.06,-32.56,28.38,353.64,-80.29,-176.89
80070,52.526237,-1.44291,152.26,12.94,3,206.54,25 / 26,7820610,2019-09-08 14:17:19:849,-0.2356,-0.3135,9.7656,-0.0033,0.0138,9.8066,0.0908,0.0325,-0.0181,-3.75,-32.69,28.81,354.05,-80.33,-176.88
80071,52.526237,-1.44291,152.26,12.94,3,206.54,25 / 25,7820710,2019-09-08 14:17:19:949,-0.3182,0.9736,9.8045,-0.0025,0.0245,9.8066,0.0316,0.0106,0.0064,-3.62,-32.75,28.63,353.53,-80.49,-177.32
80072,52.526237,-1.44291,152.26,12.94,3,206.54,25 / 25,7820810,2019-09-08 14:17:20:049,1.1923,0.2154,9.7921,-0.0082,0.0235,9.8066,0.0463,0.1059,-0.0946,-4.37,-32.75,27.88,353.15,-80.49,-177.31
80073,52.526237,-1.44291,152.26,12.94,3,206.54,25 / 25,7820910,2019-09-08 14:17:20:149,-0.4107,0.1374,9.8347,-0.0034,-0.016,9.8065,-0.055,0.1049,-0.0362,-4.31,-32.75,28.38,352.38,-80.5,-177.93
80074,52.526237,-1.44291,152.26,12.94,3,206.54,25 / 25,7821010,2019-09-08 14:17:20:249,0.0655,0.5443,9.5243,-0.0003,0.0017,9.8066,-0.0002,0.0341,0.0402,-4.69,-32.44,28.38,349.93,-80.44,-177.94
80075,52.526237,-1.44291,152.26,12.94,3,206.54,25 / 25,7821110,2019-09-08 14:17:20:349,0.6235,1.5494,9.1789,-0.0061,0.0265,9.8066,-0.0896,0.097,-0.0689,-4.62,-32.94,28.44,351.1,-80.35,-176.93
80076,52.526237,-1.44291,152.26,12.94,3,206.54,25 / 25,7821210,2019-09-08 14:17:20:449,-0.291,0.5364,8.9404,0.0093,0.0299,9.8066,-0.0138,0.0031,0.0411,-4.19,-32.69,28.56,353.56,-80.53,-177.3
80077,52.526237,-1.44291,152.26,12.94,3,206.54,25 / 25,7821310,2019-09-08 14:17:20:549,-0.3988,1.781,10.1392,0.0027,0.0164,9.8066,-0.0281,-0.035,0.0221,-4.25,-32.81,28.69,353.58,-80.34,-177.26
80078,52.526237,-1.44291,152.26,12.94,3,206.54,25 / 25,7821410,2019-09-08 14:17:20:649,0.5594,-0.7041,9.4107,0.0033,0.0202,9.8066,-0.0255,0.0482,0.0144,-4.37,-32.44,28.44,353.19,-80.32,-177.29
80079,52.526237,-1.44291,152.26,12.94,3,206.54,25 / 25,7821510,2019-09-08 14:17:20:749,0.7006,1.0901,9.392,-0.0006,0.0328,9.8066,0.0196,-0.0126,0.0232,-4.75,-32.5,28.94,351.62,-80.19,-176.93
80080,52.526237,-1.44291,152.26,12.94,3,206.54,25 / 25,7821610,2019-09-08 14:17:20:849,0.4281,0.0854,9.718,-0.0091,0.0157,9.8066,-0.0126,0.0201,0.0163,-4.94,-32.94,28.63,351.99,-80.43,-176.63
80081,52.526237,-1.44291,152.26,12.94,3,206.54,25 / 25,7821710,2019-09-08 14:17:20:949,0.3237,0.8079,9.6067,-0.0036,0.0198,9.8066,0.1176,-0.0154,0.0725,-4.69,-32.75,28.69,352.12,-80.41,-176.52
80082,52.526237,-1.44291,152.26,12.94,3,206.54,25 / 25,7821810,2019-09-08 14:17:21:049,0.0109,0.9675,9.862,-0.0048,0.0259,9.8065,0.1019,0.0218,-0.0242,-4.94,-32.44,28.63,352.72,-80.53,-176.1
80083,52.526237,-1.44291,152.26,12.94,3,206.54,25 / 25,7821909,2019-09-08 14:17:21:148,-0.2001,0.1337,9.8306,0.0024,-0.0185,9.8066,0.0348,-0.024,0.0292,-5.25,-32.19,28.25,351.9,-80.37,-176.34
80084,52.526237,-1.44291,152.26,12.94,3,206.54,25 / 25,7822010,2019-09-08 14:17:21:249,-0.1614,0.9648,9.4438,0.0075,-0.022,9.8066,0.0127,0.005,0.0001,-5.31,-32.37,28.69,352.44,-80.33,-176.29
80085,52.526237,-1.44291,152.26,12.94,3,206.54,25 / 25,7822110,2019-09-08 14:17:21:349,0.2612,0.9209,9.7767,-0.0043,0.0246,9.8066,0.0997,0.0296,0.0917,-4.81,-32.69,27.81,351.85,-80.39,-176.34
80086,52.526237,-1.44291,152.26,12.94,3,206.54,25 / 25,7822210,2019-09-08 14:17:21:449,0.3875,0.6306,10.0159,-0.0095,0.0239,9.8065,0.1139,0.0109,0.0489,-5.31,-33.0,28.44,351.98,-80.52,-176.26
80087,52.526237,-1.44291,152.26,12.94,3,206.54,25 / 25,7822310,2019-09-08 14:17:21:549,-0.1308,0.636,10.4558,0.0036,-0.0227,9.8065,0.0143,0.0435,0.0127,-4.56,-32.87,28.88,352.72,-80.47,-176.05
80088,52.526237,-1.44291,152.26,12.94,3,206.54,25 / 25,7822410,2019-09-08 14:17:21:649,-0.9038,1.8371,10.7594,0.0099,0.0113,9.8065,0.1155,0.0063,0.0268,-4.94,-32.25,28.75,352.13,-80.34,-176.55
80089,52.526237,-1.44291,152.26,12.94,3,206.54,25 / 25,7822510,2019-09-08 14:17:21:749,0.2285,-0.2471,9.133,0.0234,-0.0408,9.8064,-0.2559,0.0067,0.039,-5.62,-32.5,29.0,348.97,-80.09,-177.14
80090,52.526237,-1.44291,152.26,12.94,3,206.54,25 / 25,7822610,2019-09-08 14:17:21:849,0.9917,1.7628,8.8662,0.0144,-0.0289,9.8066,-0.2697,0.0974,-0.0354,-5.5,-32.37,28.94,351.27,-80.15,-177.2
80091,52.526237,-1.44291,152.26,12.94,3,206.54,25 / 25,7822710,2019-09-08 14:17:21:949,-0.4612,2.719,9.055,-0.024,0.0768,9.8063,0.4138,-0.0009,0.0149,-5.25,-32.69,29.19,351.29,-80.22,-177.15
80092,52.526237,-1.44291,152.26,12.94,3,206.54,25 / 25,7822810,2019-09-08 14:17:22:049,1.0487,-0.9416,10.559,-0.0224,0.0969,9.8061,0.3595,0.053,0.0016,-5.81,-32.37,28.88,349.52,-80.73,-176.84
80093,52.526237,-1.44291,152.26,12.94,3,206.54,25 / 25,7822910,2019-09-08 14:17:22:149,-0.4422,0.3366,10.5804,0.0072,-0.0578,9.8064,-0.1327,-0.0089,0.0368,-5.69,-31.31,29.06,350.49,-80.56,-176.07
80094,52.526237,-1.44291,152.26,12.94,3,206.54,25 / 25,7823010,2019-09-08 14:17:22:249,0.4096,1.4646,9.6958,-0.0048,-0.0126,9.8066,-0.0814,0.0865,-0.0228,-6.25,-32.31,28.88,350.83,-80.3,-175.69
80095,52.526237,-1.44291,152.26,12.94,3,206.54,25 / 25,7823110,2019-09-08 14:17:22:349,0.4562,-0.6068,9.9454,0.0019,0.029,9.8065,0.0917,0.0467,0.0178,-6.12,-31.94,28.63,350.99,-80.43,-175.58
80096,52.526237,-1.44291,152.26,12.94,3,206.54,25 / 25,7823210,2019-09-08 14:17:22:449,-0.3505,-0.5045,10.5815,-0.0058,-0.0019,9.8066,0.2126,0.0014,-0.0246,-6.31,-32.5,28.5,351.32,-80.44,-175.32
80097,52.526237,-1.44291,152.26,12.94,3,206.54,25 / 25,7823310,2019-09-08 14:17:22:549,0.3657,-0.4608,9.528,-0.0094,0.0192,9.8065,-0.0641,0.0143,-0.0218,-6.31,-31.87,28.88,351.16,-80.39,-175.44
80098,52.526237,-1.44291,152.26,12.94,3,206.54,25 / 25,7823410,2019-09-08 14:17:22:649,-0.1581,-0.3667,10.3856,-0.0062,0.0126,9.8066,-0.0408,-0.0149,-0.0223,-6.5,-31.94,29.13,351.65,-80.42,-175.05
80099,52.526237,-1.44291,152.26,12.94,3,206.54,25 / 25,7823510,2019-09-08 14:17:22:749,-0.3158,-0.1371,10.8493,0.0016,-0.0438,9.8065,0.0446,0.0597,-0.0532,-6.62,-32.69,28.88,349.51,-80.48,-174.87
80100,52.526237,-1.44291,152.26,12.94,3,206.54,25 / 25,7823610,2019-09-08 14:17:22:849,0.1358,0.4766,10.4143,0.009,-0.0405,9.8065,-0.0492,0.0487,0.0032,-6.31,-32.25,29.13,351.96,-80.25,-174.77
80101,52.526237,-1.44291,152.26,12.94,3,206.54,25 / 26,7823710,2019-09-08 14:17:22:949,0.7029,1.1754,9.7795,0.0011,-0.0031,9.8066,-0.066,0.0707,-0.0377,-5.87,-32.25,29.13,351.71,-80.41,-175.0
80102,52.526237,-1.44291,152.26,12.94,3,206.54,25 / 26,7823810,2019-09-08 14:17:23:049,-0.2249,0.3344,9.529,0.0102,-0.0384,9.8065,-0.1631,0.0211,0.0041,-6.44,-32.37,29.38,351.5,-80.29,-175.15
80103,52.526237,-1.44291,152.26,12.94,3,206.54,25 / 26,7823909,2019-09-08 14:17:23:148,-0.3523,0.8376,9.6414,-0.0065,0.0176,9.8066,0.0861,0.0726,-0.0402,-6.31,-32.06,29.06,351.21,-80.31,-175.38
80104,52.526237,-1.44291,152.26,12.94,3,206.54,25 / 26,7824010,2019-09-08 14:17:23:249,0.4304,0.6106,10.0956,0.0042,0.0087,9.8066,-0.0171,0.0975,-0.0436,-6.56,-32.12,29.0,348.58,-80.38,-175.66
80105,52.526237,-1.44291,152.26,12.94,3,206.54,25 / 26,7824110,2019-09-08 14:17:23:349,0.5248,-0.2198,10.3445,0.0199,-0.0315,9.8066,-0.0905,0.0433,-0.0335,-6.19,-31.94,29.13,350.41,-80.45,-176.06
80106,52.526237,-1.44291,152.26,12.94,3,206.54,25 / 26,7824210,2019-09-08 14:17:23:449,0.4798,0.5504,9.9309,0.0172,-0.031,9.8065,-0.0907,0.0699,-0.0307,-6.37,-32.12,29.19,348.88,-80.28,-177.26
80107,52.526237,-1.44291,152.26,12.94,3,206.54,25 / 26,7824310,2019-09-08 14:17:23:549,0.1101,1.2996,9.2278,-0.0036,0.0239,9.8066,-0.0006,0.0619,0.012,-6.31,-32.0,29.25,348.02,-80.43,-177.99
80108,52.526237,-1.44291,152.26,12.94,3,206.54,25 / 26,7824410,2019-09-08 14:17:23:649,0.3314,0.4837,10.1273,-0.0073,0.0404,9.8065,0.0716,0.0586,-0.0167,-6.44,-31.94,29.56,348.41,-80.54,-178.14
80109,52.526237,-1.44291,152.26,12.94,3,206.54,25 / 26,7824510,2019-09-08 14:17:23:749,0.1142,0.3919,10.2883,0.0064,-0.0309,9.8066,-0.0834,0.0591,0.0299,-6.06,-32.37,29.5,348.14,-80.58,-178.38
80110,52.526237,-1.44291,152.26,12.94,3,206.54,25 / 26,7824610,2019-09-08 14:17:23:849,0.638,1.5282,9.3847,0.015,-0.0211,9.8066,-0.0002,0.043,0.0242,-6.62,-32.19,28.75,344.72,-80.41,-178.8
80111,52.526237,-1.44291,152.26,12.94,3,206.54,26 / 26,7824710,2019-09-08 14:17:23:949,-0.2686,0.5717,9.5155,-0.0059,0.0038,9.8066,-0.1104,-0.0041,0.0077,-7.25,-32.56,28.88,344.76,-80.41,-178.69
80112,52.526237,-1.44291,152.26,12.94,3,206.54,26 / 26,7824810,2019-09-08 14:17:24:049,-0.2314,-0.4559,10.104,0.003,-0.0175,9.8066,-0.0289,0.0092,-0.0684,-6.25,-31.75,29.13,347.13,-80.55,-178.74
80113,52.526237,-1.44291,152.26,12.94,3,206.54,26 / 26,7824910,2019-09-08 14:17:24:149,-0.2033,0.3717,10.0701,0.0163,-0.0287,9.8066,-0.0184,-0.0568,0.0247,-7.0,-32.0,29.25,344.34,-80.53,-179.15
80114,52.526237,-1.44291,152.26,12.94,3,206.54,26 / 26,7825010,2019-09-08 14:17:24:249,0.1421,0.7776,10.2256,0.0046,0.0061,9.8066,-0.0294,0.0087,-0.0579,-7.31,-32.0,28.75,345.17,-80.61,-178.5
80115,52.526237,-1.44291,152.26,12.94,3,206.54,26 / 26,7825110,2019-09-08 14:17:24:349,-0.1833,0.9706,10.2806,0.003,-0.0258,9.8066,0.022,-0.0136,0.0177,-7.81,-32.25,29.19,342.77,-80.51,-178.6
80116,52.526237,-1.44291,152.26,12.94,3,206.54,26 / 26,7825210,2019-09-08 14:17:24:449,-0.1798,0.2895,9.4525,-0.0062,-0.0212,9.8065,-0.0877,0.021,0.0371,-7.37,-32.56,29.25,345.84,-80.38,-177.81
80117,52.526237,-1.44291,152.26,12.94,3,206.54,26 / 26,7825310,2019-09-08 14:17:24:549,0.6272,1.1579,9.3023,0.0005,-0.0137,9.8065,-0.0532,0.0683,-0.0491,-7.5,-32.25,29.38,346.62,-80.49,-177.28
80118,52.526237,-1.44291,152.26,12.94,3,206.54,26 / 26,7825410,2019-09-08 14:17:24:649,-0.6906,0.7531,10.4609,-0.0044,-0.0108,9.8066,-0.0147,0.1353,-0.0265,-7.25,-31.94,29.13,346.35,-80.69,-177.56
80119,52.526237,-1.44291,152.26,12.94,3,206.54,26 / 26,7825510,2019-09-08 14:17:24:749,-1.3175,1.7714,10.0239,0.0006,-0.0193,9.8065,0.0206,0.0931,-0.0089,-7.94,-32.25,29.44,344.29,-80.65,-177.41
80120,52.526237,-1.44291,152.26,12.94,3,206.54,26 / 26,7825610,2019-09-08 14:17:24:849,0.182,2.1168,9.5818,0.0021,0.004,9.8066,0.1053,0.0886,-0.0099,-8.62,-31.31,28.88,342.17,-80.48,-177.39
80121,52.526237,-1.44291,152.26,12.94,3,206.54,26 / 26,7825710,2019-09-08 14:17:24:949,1.1512,0.0814,9.3369,-0.0072,0.0008,9.8066,0.0176,0.0698,-0.0062,-7.62,-31.94,29.94,344.77,-80.36,-177.49
80122,52.526237,-1.44291,152.26,12.94,3,206.54,26 / 26,7825810,2019-09-08 14:17:25:049,-0.2225,0.1027,9.7442,-0.0077,0.013,9.8065,0.072,-0.0039,0.034,-7.94,-32.0,29.44,344.24,-80.42,-177.37
80123,52.526237,-1.44291,152.26,12.94,3,206.54,26 / 26,7825910,2019-09-08 14:17:25:149,0.4663,1.5202,10.233,-0.0129,0.0097,9.8066,0.0226,0.073,-0.0191,-9.0,-32.06,29.94,343.6,-80.47,-176.75
80124,52.526237,-1.44291,152.26,12.94,3,206.54,26 / 26,7826010,2019-09-08 14:17:25:249,-0.4789,0.2838,10.4053,0.0023,-0.041,9.8065,-0.0201,0.0335,-0.0117,-8.37,-32.06,29.19,345.37,-80.55,-176.48
80125,52.526237,-1.44291,152.26,12.94,3,206.54,26 / 26,7826110,2019-09-08 14:17:25:349,0.2727,0.5809,10.1344,0.0135,-0.0205,9.8065,-0.0325,-0.0124,0.0267,-8.44,-32.19,29.19,345.34,-80.36,-176.45
80126,52.526237,-1.44291,152.26,12.94,3,206.54,26 / 26,7826210,2019-09-08 14:17:25:449,0.5446,-1.3474,10.1845,0.015,-0.0276,9.8065,-0.0637,0.0426,-0.0374,-8.69,-32.69,30.0,343.83,-80.44,-176.46
80127,52.526237,-1.44291,152.26,12.94,3,206.54,26 / 26,7826310,2019-09-08 14:17:25:549,-0.5902,-0.2887,9.4242,0.0228,-0.0282,9.8065,-0.0919,-0.0359,0.0538,-8.62,-32.31,29.56,342.84,-80.24,-177.29
80128,52.526237,-1.44291,152.26,12.94,3,206.54,26 / 26,7826410,2019-09-08 14:17:25:649,0.3178,1.4378,9.1334,0.0075,0.0282,9.8066,0.203,0.0753,-0.018,-8.19,-31.56,29.69,344.23,-80.44,-177.97
80129,52.526237,-1.44291,152.26,12.94,3,206.54,26 / 26,7826510,2019-09-08 14:17:25:749,-0.0386,-0.5447,10.0857,0.0116,0.0096,9.8066,0.1173,0.0251,0.0033,-8.56,-31.94,29.69,341.27,-80.45,-178.66
80130,52.526237,-1.44291,152.26,12.94,3,206.54,26 / 26,7826610,2019-09-08 14:17:25:849,0.1258,0.2791,9.3192,-0.0045,0.0095,9.8066,-0.0934,0.0812,0.0163,-8.62,-32.12,29.25,339.65,-80.63,-179.43
80131,52.526237,-1.44291,152.26,12.94,3,206.54,24 / 24,7826710,2019-09-08 14:17:25:949,-0.3132,1.9567,9.5279,-0.0166,0.0286,9.8065,-0.0099,0.0317,0.0222,-8.69,-32.87,30.13,340.53,-80.84,-179.33
80132,52.526237,-1.44291,152.26,12.94,3,206.54,24 / 24,7826810,2019-09-08 14:17:26:049,0.2619,0.5661,10.4861,0.0192,-0.034,9.8065,0.0048,0.036,-0.0073,-8.25,-32.37,29.69,342.76,-80.91,-179.33
80133,52.526237,-1.44291,152.26,12.94,3,206.54,24 / 24,7826910,2019-09-08 14:17:26:149,0.5289,-0.2256,9.9599,0.0041,-0.0178,9.8066,0.0871,0.0,-0.017,-8.44,-32.44,30.06,342.18,-80.73,-179.76
80134,52.526237,-1.44291,152.26,12.94,3,206.54,24 / 24,7827010,2019-09-08 14:17:26:249,0.0446,1.8994,10.0601,0.0119,-0.0357,9.8066,-0.2281,0.0609,-0.0006,-8.19,-33.56,29.25,341.13,-80.56,-179.76
80135,52.526237,-1.44291,152.26,12.94,3,206.54,24 / 24,7827110,2019-09-08 14:17:26:349,-0.1055,0.7295,9.4464,0.0166,-0.0383,9.8065,-0.1648,0.0472,-0.0771,-8.31,-33.19,28.94,341.37,-80.62,-179.7
80136,52.526237,-1.44291,152.26,12.94,3,206.54,24 / 24,7827210,2019-09-08 14:17:26:449,0.7861,1.6858,8.7599,-0.0122,0.06,9.8064,0.2747,0.0351,0.0037,-8.5,-32.44,29.19,340.19,-80.48,179.29
80137,52.526237,-1.44291,152.26,12.94,3,206.54,24 / 24,7827310,2019-09-08 14:17:26:549,0.4979,-0.1862,10.0645,-0.0212,0.044,9.8065,0.1925,0.0685,-0.0478,-9.19,-32.81,29.19,337.98,-80.75,179.24
80138,52.526237,-1.44291,152.26,12.94,3,206.54,24 / 24,7827410,2019-09-08 14:17:26:649,1.8831,1.6541,10.1589,0.0357,-0.0359,9.8064,-0.2326,0.0279,-0.0023,-8.81,-32.44,29.88,337.82,-80.88,178.29
80139,52.526237,-1.44291,152.26,12.94,3,206.54,24 / 24,7827510,2019-09-08 14:17:26:749,0.158,1.6891,9.508,0.0405,-0.0548,9.8064,-0.2293,0.0391,0.0451,-9.25,-32.19,29.38,335.21,-80.63,176.88
80140,52.526237,-1.44291,152.26,12.94,3,206.54,24 / 24,7827610,2019-09-08 14:17:26:849,2.3438,0.1993,9.6656,-0.0405,0.0672,9.8063,0.2867,0.1822,-0.0813,-9.56,-32.37,30.31,334.76,-80.89,177.4
80141,52.526237,-1.44291,152.26,12.94,3,206.54,27 / 27,7827710,2019-09-08 14:17:26:949,0.5714,1.1563,10.3161,-0.0316,0.059,9.8064,0.1791,0.0695,0.0356,-9.37,-31.94,30.38,337.15,-80.77,177.77
80142,52.526237,-1.44291,152.26,12.94,3,206.54,27 / 27,7827810,2019-09-08 14:17:27:049,1.6123,0.0728,10.0029,0.02,-0.0309,9.8065,-0.2074,0.0808,0.0951,-9.62,-32.12,29.44,335.2,-80.76,178.55
80143,52.526237,-1.44291,152.26,12.94,3,206.54,27 / 27,7827910,2019-09-08 14:17:27:149,0.1908,0.6165,9.4903,-0.0096,-0.0275,9.8065,-0.1787,0.1197,0.0151,-10.25,-31.56,29.44,335.98,-80.67,179.25
80144,52.526237,-1.44291,152.26,12.94,3,206.54,27 / 27,7828010,2019-09-08 14:17:27:249,-0.3022,0.6998,9.1897,-0.011,0.0194,9.8066,0.0663,0.0982,-0.0524,-10.06,-32.06,29.81,336.97,-80.65,179.37
80145,52.526237,-1.44291,152.26,12.94,3,206.54,27 / 27,7828110,2019-09-08 14:17:27:349,1.1447,1.3142,9.8195,-0.0099,0.0308,9.8065,0.0643,0.0586,-0.0701,-10.81,-32.06,29.63,334.8,-80.8,179.13
80146,52.526237,-1.44291,152.26,12.94,3,206.54,27 / 27,7828210,2019-09-08 14:17:27:449,0.7035,-0.3556,10.0731,0.0425,-0.0582,9.8063,-0.0882,-0.0067,0.097,-10.69,-31.87,29.63,333.85,-80.48,178.5
80147,52.526237,-1.44291,152.26,12.94,3,206.54,27 / 27,7828310,2019-09-08 14:17:27:549,0.8984,1.3333,8.8482,0.0496,-0.0809,9.8061,-0.248,0.1486,-0.0373,-11.19,-32.12,29.38,333.05,-80.36,178.65
80148,52.526237,-1.44291,152.26,12.94,3,206.54,27 / 27,7828410,2019-09-08 14:17:27:649,-1.5635,1.2109,9.763,-0.0417,0.0511,9.8064,0.2994,0.2486,-0.157,-10.87,-31.87,29.63,333.61,-80.37,178.35
80149,52.526237,-1.44291,152.26,12.94,3,206.54,27 / 27,7828510,2019-09-08 14:17:27:749,0.5879,0.1792,10.1946,-0.0324,0.0397,9.8065,0.1952,0.1438,0.0424,-11.25,-32.0,30.13,334.12,-80.58,178.67
80150,52.526237,-1.44291,152.26,12.94,3,206.54,27 / 27,7828610,2019-09-08 14:17:27:849,-0.1327,1.3296,9.49,0.0052,-0.024,9.8066,-0.1409,0.1151,0.0292,-11.87,-32.31,29.81,333.53,-80.28,179.95
80151,52.526237,-1.44291,152.26,12.94,3,206.54,27 / 27,7828710,2019-09-08 14:17:27:949,0.5951,1.4765,10.0738,-0.0182,0.0115,9.8066,-0.0226,0.1323,0.0223,-11.75,-31.5,29.69,334.19,-80.41,-179.69
80152,52.52527,-1.443281,151.81,11.41,3,176.29,26 / 26,7828810,2019-09-08 14:17:28:049,0.8074,1.3496,10.3461,-0.0125,0.0246,9.8066,0.0079,0.0933,-0.0087,-11.75,-31.5,29.63,334.13,-80.48,-179.78
80153,52.52527,-1.443281,151.81,11.41,3,176.29,26 / 26,7828910,2019-09-08 14:17:28:149,0.8184,0.4662,10.1032,0.0204,-0.0382,9.8065,-0.0625,0.1289,0.1004,-11.94,-31.81,29.31,333.22,-80.52,-179.63
80154,52.52527,-1.443281,151.81,11.41,3,176.29,26 / 26,7829010,2019-09-08 14:17:28:249,1.6863,-0.0271,10.227,0.0074,-0.0338,9.8065,-0.0776,0.1499,0.0323,-12.19,-31.19,29.75,334.79,-80.13,-179.06
80155,52.52527,-1.443281,151.81,11.41,3,176.29,26 / 26,7829110,2019-09-08 14:17:28:349,1.2607,1.4506,9.7883,-0.0227,0.0123,9.8065,0.046,0.1666,-0.1083,-12.5,-31.62,29.88,335.48,-80.26,-178.41
80156,52.52527,-1.443281,151.81,11.41,3,176.29,26 / 26,7829210,2019-09-08 14:17:28:449,-0.4276,1.1707,10.245,-0.0064,0.0299,9.8066,-0.0558,0.0296,0.0136,-13.06,-31.31,29.75,333.22,-80.33,-178.89
80157,52.52527,-1.443281,151.81,11.41,3,176.29,26 / 26,7829310,2019-09-08 14:17:28:549,1.8781,-0.4371,10.1629,0.043,-0.05,9.8064,-0.1042,0.0293,0.0337,-13.12,-31.56,29.06,332.44,-80.54,-178.68
80158,52.52527,-1.443281,151.81,11.41,3,176.29,26 / 26,7829410,2019-09-08 14:17:28:649,0.3268,2.0605,9.5289,0.0303,-0.0465,9.8064,-0.142,0.1703,-0.0737,-13.06,-31.81,29.31,331.25,-80.24,-179.53
80159,52.52527,-1.443281,151.81,11.41,3,176.29,26 / 26,7829510,2019-09-08 14:17:28:749,0.4599,2.0795,9.6954,-0.0146,0.0369,9.8065,0.1282,0.1004,-0.011,-13.06,-31.37,29.56,331.78,-80.29,179.9
80160,52.52527,-1.443281,151.81,11.41,3,176.29,26 / 26,7829610,2019-09-08 14:17:28:849,1.0449,0.9004,9.7205,-0.0242,0.0235,9.8065,0.0984,0.1396,-0.0303,-13.44,-31.25,29.44,330.93,-80.44,179.94
80161,52.52527,-1.443281,151.81,11.41,3,176.29,25 / 25,7829710,2019-09-08 14:17:28:949,0.2908,-0.3063,10.2585,0.0186,-0.0268,9.8065,-0.0735,0.0946,0.0301,-13.81,-31.5,30.0,330.0,-80.19,179.97
80162,52.52527,-1.443281,151.81,11.41,3,176.29,25 / 25,7829809,2019-09-08 14:17:29:048,1.6058,1.3664,9.7425,0.0099,-0.0265,9.8066,-0.0635,0.2115,-0.0392,-13.62,-31.56,29.44,328.85,-80.27,179.99
80163,52.52527,-1.443281,151.81,11.41,3,176.29,25 / 25,7829911,2019-09-08 14:17:29:150,0.0161,1.9153,9.593,-0.0049,0.0177,9.8065,0.0514,0.141,-0.0406,-14.0,-31.69,29.44,328.01,-80.37,179.21
80164,52.52527,-1.443281,151.81,11.41,3,176.29,25 / 25,7830010,2019-09-08 14:17:29:249,1.2107,0.8659,10.4793,0.0029,0.0253,9.8066,-0.0035,0.1078,0.0756,-14.62,-31.5,29.5,326.29,-80.44,178.14
80165,52.52527,-1.443281,151.81,11.41,3,176.29,25 / 25,7830110,2019-09-08 14:17:29:349,0.2127,0.9534,10.3471,-0.0003,-0.0062,9.8066,0.2443,0.1553,0.0292,-14.37,-31.81,29.38,326.85,-80.36,178.23
80166,52.52527,-1.443281,151.81,11.41,3,176.29,25 / 25,7830210,2019-09-08 14:17:29:449,1.4439,-0.3912,10.0385,0.0006,0.0141,9.8066,0.1913,0.1001,0.0823,-14.5,-31.5,29.0,326.73,-80.37,177.96
80167,52.52527,-1.443281,151.81,11.41,3,176.29,25 / 25,7830310,2019-09-08 14:17:29:549,-0.3946,1.5115,9.2559,0.003,-0.0072,9.8066,-0.1658,0.1008,0.0189,-15.12,-31.06,28.81,325.95,-80.4,178.79
80168,52.52527,-1.443281,151.81,11.41,3,176.29,25 / 25,7830410,2019-09-08 14:17:29:649,-0.4785,2.3219,9.477,-0.0021,-0.0113,9.8066,-0.1477,0.1433,0.0151,-15.0,-32.19,28.81,325.95,-80.45,178.92
80169,52.52527,-1.443281,151.81,11.41,3,176.29,25 / 25,7830510,2019-09-08 14:17:29:749,0.2518,2.0516,9.7234,-0.0127,0.0118,9.8065,0.2582,0.0995,0.0544,-15.56,-31.62,28.44,323.06,-80.4,178.93
80170,52.52527,-1.443281,151.81,11.41,3,176.29,25 / 25,7830610,2019-09-08 14:17:29:849,0.0203,1.5806,10.6503,-0.0132,0.0066,9.8066,0.1161,0.1445,-0.0463,-15.81,-31.12,29.0,325.09,-80.3,179.57
80171,52.52527,-1.443281,151.81,11.41,3,176.29,25 / 25,7830710,2019-09-08 14:17:29:949,0.7139,-0.0753,10.3401,0.0133,-0.007,9.8066,0.0988,0.0933,0.0149,-15.75,-31.62,28.5,324.67,-80.13,179.49
80172,52.52527,-1.443281,151.81,11.41,3,176.29,25 / 25,7830810,2019-09-08 14:17:30:049,0.1392,1.2867,10.0372,0.0144,-0.0139,9.8066,-0.01,0.1298,0.0134,-16.0,-31.31,28.88,324.24,-79.95,179.05
80173,52.52527,-1.443281,151.81,11.41,3,176.29,25 / 25,7830909,2019-09-08 14:17:30:148,-0.0865,1.1026,10.3762,-0.0108,0.034,9.8065,0.0747,0.0891,0.0772,-16.06,-31.31,28.75,323.61,-80.06,178.44
80174,52.52527,-1.443281,151.81,11.41,3,176.29,25 / 25,7831010,2019-09-08 14:17:30:249,0.7313,0.7943,10.0293,-0.0323,0.0253,9.8065,0.0907,0.166,-0.0278,-16.44,-31.81,28.5,323.69,-80.0,178.73
80175,52.52527,-1.443281,151.81,11.41,3,176.29,25 / 25,7831110,2019-09-08 14:17:30:349,0.3504,1.3611,10.2422,0.0112,-0.0146,9.8065,0.0218,0.0795,0.0271,-16.19,-31.81,28.44,322.71,-79.94,178.94
80176,52.52527,-1.443281,151.81,11.41,3,176.29,25 / 25,7831210,2019-09-08 14:17:30:449,1.1955,0.1722,8.997,0.0101,-0.0212,9.8065,0.0106,0.1004,0.0118,-16.44,-31.25,28.13,323.29,-79.78,179.36
80177,52.52527,-1.443281,151.81,11.41,3,176.29,25 / 25,7831310,2019-09-08 14:17:30:549,-0.8874,1.9217,8.8768,-0.0265,0.0326,9.8065,-0.0677,0.055,0.0582,-16.87,-31.56,28.0,321.49,-79.64,179.54
80178,52.52527,-1.443281,151.81,11.41,3,176.29,25 / 25,7831410,2019-09-08 14:17:30:649,0.6467,1.5981,9.1674,-0.0488,0.0365,9.8064,-0.0324,0.1311,-0.0979,-16.5,-31.5,28.5,325.47,-79.86,-179.84
80179,52.52527,-1.443281,151.81,11.41,3,176.29,25 / 25,7831510,2019-09-08 14:17:30:749,1.1843,0.3584,10.1322,0.031,-0.0433,9.8064,0.0928,0.1373,0.007,-16.87,-31.56,28.69,322.6,-79.55,179.5
80180,52.52527,-1.443281,151.81,11.41,3,176.29,25 / 25,7831610,2019-09-08 14:17:30:849,-0.1828,1.0698,9.525,0.0287,-0.036,9.8065,0.1083,0.0865,0.0478,-17.25,-31.5,28.0,321.68,-79.56,179.55
80181,52.52527,-1.443281,151.81,11.41,3,176.29,25 / 25,7831710,2019-09-08 14:17:30:949,-0.3427,1.8244,9.1626,-0.004,0.0066,9.8066,-0.1514,0.1244,-0.0068,-16.87,-31.94,27.44,320.33,-79.56,179.7
80182,52.52527,-1.443281,151.81,11.41,3,176.29,25 / 25,7831810,2019-09-08 14:17:31:049,-0.1301,1.8098,9.1943,0.001,0.0046,9.8066,-0.1555,0.1044,-0.0187,-17.81,-31.87,27.94,319.75,-79.57,179.46
80183,52.52527,-1.443281,151.81,11.41,3,176.29,25 / 25,7831909,2019-09-08 14:17:31:148,0.8196,0.1178,10.3971,-0.0014,0.0106,9.8066,0.1726,0.0736,-0.0039,-17.19,-30.75,28.25,321.21,-79.59,179.12
80184,52.52527,-1.443281,151.81,11.41,3,176.29,25 / 25,7832010,2019-09-08 14:17:31:249,0.7956,0.6795,10.2287,-0.0028,-0.0011,9.8066,0.1205,0.1241,-0.0274,-17.62,-31.31,28.25,319.52,-79.53,179.08
80185,52.52527,-1.443281,151.81,11.41,3,176.29,25 / 25,7832110,2019-09-08 14:17:31:349,-0.059,1.7396,10.4188,0.0127,-0.0066,9.8065,-0.0561,0.0927,-0.0007,-17.75,-31.44,27.63,319.41,-79.52,179.0
80186,52.52527,-1.443281,151.81,11.41,3,176.29,25 / 25,7832210,2019-09-08 14:17:31:449,0.1014,1.8216,9.3864,0.0248,-0.0175,9.8065,-0.0827,0.0695,0.0292,-17.62,-31.19,27.81,318.84,-79.34,178.63
80187,52.52527,-1.443281,151.81,11.41,3,176.29,25 / 25,7832310,2019-09-08 14:17:31:549,0.0208,1.0225,9.4819,-0.0159,0.0176,9.8065,0.0951,0.1472,-0.0402,-18.0,-31.62,27.75,318.43,-79.34,178.48
80188,52.52527,-1.443281,151.81,11.41,3,176.29,25 / 25,7832410,2019-09-08 14:17:31:649,0.2732,0.3025,9.5403,-0.0196,0.0372,9.8065,0.076,0.0994,0.0424,-17.69,-30.81,27.63,318.44,-79.53,178.15
80189,52.52527,-1.443281,151.81,11.41,3,176.29,25 / 25,7832510,2019-09-08 14:17:31:749,0.716,0.3777,10.2316,0.0419,-0.0382,9.8064,-0.0863,0.1547,0.0012,-18.06,-31.44,27.13,316.5,-79.18,177.86
80190,52.52527,-1.443281,151.81,11.41,3,176.29,25 / 25,7832610,2019-09-08 14:17:31:849,0.0705,1.7414,10.2427,0.0257,-0.0293,9.8065,-0.0063,0.1231,-0.0021,-18.12,-31.37,27.44,316.24,-79.18,177.63
80191,52.52527,-1.443281,151.81,11.41,3,176.29,25 / 25,7832711,2019-09-08 14:17:31:950,-0.2469,1.9903,9.0146,-0.0176,0.033,9.8065,0.0095,0.0844,0.0419,-18.12,-31.56,27.19,315.7,-79.19,177.39
80192,52.52527,-1.443281,151.81,11.41,3,176.29,25 / 25,7832810,2019-09-08 14:17:32:049,1.7536,-0.4947,9.8391,-0.0293,0.0306,9.8065,0.0571,0.1388,-0.0186,-18.37,-31.5,27.06,315.8,-79.43,177.06
80193,52.52527,-1.443281,151.81,11.41,3,176.29,25 / 25,7832910,2019-09-08 14:17:32:149,0.9811,0.5766,9.3252,0.0064,-0.011,9.8066,-0.1308,0.1148,-0.0296,-18.62,-31.12,27.38,313.99,-79.4,176.82
80194,52.52527,-1.443281,151.81,11.41,3,176.29,25 / 25,7833009,2019-09-08 14:17:32:248,1.3541,1.6632,9.6279,0.0138,-0.0112,9.8065,-0.0432,0.1287,-0.1005,-18.69,-32.06,27.56,315.14,-79.35,176.94
80195,52.52527,-1.443281,151.81,11.41,3,176.29,25 / 25,7833110,2019-09-08 14:17:32:349,0.6158,3.0308,10.5431,-0.0106,-0.0171,9.8065,-0.0405,0.2385,-0.2367,-18.56,-31.44,27.63,315.06,-79.35,176.65
80196,52.52527,-1.443281,151.81,11.41,3,176.29,25 / 25,7833210,2019-09-08 14:17:32:449,0.3628,1.614,11.6864,-0.029,0.0314,9.8065,0.1972,0.1323,-0.0518,-18.19,-31.0,27.38,314.4,-79.39,175.86
80197,52.52527,-1.443281,151.81,11.41,3,176.29,25 / 25,7833310,2019-09-08 14:17:32:549,1.905,-0.3372,10.4195,0.0841,-0.0573,9.8061,-0.0957,0.0533,0.0615,-17.75,-31.19,28.13,315.15,-79.37,175.4
80198,52.52527,-1.443281,151.81,11.41,3,176.29,25 / 25,7833410,2019-09-08 14:17:32:649,0.9343,1.0919,8.8862,0.0529,-0.0755,9.8061,-0.2186,0.1423,-0.0577,-17.5,-31.69,26.81,313.28,-78.65,174.39
80199,52.52527,-1.443281,151.81,11.41,3,176.29,25 / 25,7833509,2019-09-08 14:17:32:748,-0.1231,1.5238,8.9196,-0.0706,0.0849,9.806,0.2585,0.0486,0.0698,-17.81,-31.69,25.81,310.54,-78.77,174.49
80200,52.52527,-1.443281,151.81,11.41,3,176.29,25 / 25,7833610,2019-09-08 14:17:32:849,0.6954,0.7143,9.1709,-0.0639,0.0499,9.8062,0.1961,0.1077,-0.0132,-18.69,-31.87,25.88,309.26,-79.58,173.97
80201,52.52527,-1.443281,151.81,11.41,3,176.29,25 / 26,7833710,2019-09-08 14:17:32:949,-0.1884,0.8978,10.3079,0.0279,-0.0218,9.8065,-0.0474,0.0766,0.0925,-19.31,-32.06,25.44,308.01,-79.39,174.32
80202,52.52527,-1.443281,151.81,11.41,3,176.29,25 / 26,7833809,2019-09-08 14:17:33:048,-0.0162,0.6883,10.3535,0.0136,-0.0357,9.8065,0.0495,0.1344,-0.0264,-19.19,-31.94,25.75,310.7,-79.35,175.43
80203,52.52527,-1.443281,151.81,11.41,3,176.29,25 / 26,7833910,2019-09-08 14:17:33:149,0.9874,0.6784,9.4518,-0.0007,-0.0355,9.8065,0.0032,0.1461,-0.0159,-19.87,-31.37,26.19,310.16,-79.22,176.08
80204,52.52527,-1.443281,151.81,11.41,3,176.29,25 / 26,7834010,2019-09-08 14:17:33:249,0.5264,0.873,9.6264,0.0005,-0.0164,9.8065,-0.0184,0.0907,-0.024,-19.75,-31.56,26.06,311.58,-78.9,177.85
80205,52.52527,-1.443281,151.81,11.41,3,176.29,25 / 26,7834109,2019-09-08 14:17:33:348,0.1117,0.6411,10.4461,0.0225,-0.03,9.8065,-0.0253,0.0848,0.0048,-19.81,-31.12,25.44,310.86,-78.91,178.24
80206,52.52527,-1.443281,151.81,11.41,3,176.29,25 / 26,7834210,2019-09-08 14:17:33:449,0.6866,1.1664,9.2734,0.0231,-0.0154,9.8065,-0.079,0.1183,-0.0508,-21.12,-31.94,26.19,310.6,-78.74,178.34
80207,52.52527,-1.443281,151.81,11.41,3,176.29,25 / 26,7834310,2019-09-08 14:17:33:549,1.1594,-0.4475,8.6567,-0.0269,0.0187,9.8066,-0.0515,0.1002,-0.0228,-21.25,-31.87,25.44,309.55,-79.03,178.47
80208,52.52527,-1.443281,151.81,11.41,3,176.29,25 / 26,7834410,2019-09-08 14:17:33:649,-0.3975,1.5235,9.1994,-0.0184,0.0353,9.8065,-0.1888,0.071,-0.0115,-21.06,-31.81,25.06,309.09,-79.13,177.97
80209,52.52527,-1.443281,151.81,11.41,3,176.29,25 / 26,7834510,2019-09-08 14:17:33:749,1.4304,0.0215,10.6697,0.0334,-0.0248,9.8065,0.1541,0.1191,-0.0267,-21.0,-31.37,24.81,309.15,-79.23,177.67
80210,52.52527,-1.443281,151.81,11.41,3,176.29,25 / 26,7834610,2019-09-08 14:17:33:849,1.572,0.2259,9.7915,0.0421,-0.0383,9.8064,0.0776,0.1289,-0.084,-21.56,-31.56,24.75,307.08,-78.78,177.65
80211,52.52527,-1.443281,151.81,11.41,3,176.29,25 / 25,7834710,2019-09-08 14:17:33:949,-0.3223,1.2172,9.4659,-0.0492,0.0412,9.8064,0.0003,0.0612,-0.0332,-20.94,-31.87,25.31,307.87,-78.7,177.27
80212,52.52527,-1.443281,151.81,11.41,3,176.29,25 / 25,7834810,2019-09-08 14:17:34:049,-0.2474,1.6648,9.2358,-0.0388,0.0433,9.8065,-0.0302,0.0913,-0.0389,-21.44,-31.25,24.75,308.0,-79.0,176.85
80213,52.52527,-1.443281,151.81,11.41,3,176.29,25 / 25,7834910,2019-09-08 14:17:34:149,1.3275,-0.3059,11.0299,0.0321,-0.039,9.8065,0.0549,0.1064,0.0016,-21.37,-31.12,24.81,307.65,-78.62,176.87
80214,52.52527,-1.443281,151.81,11.41,3,176.29,25 / 25,7835010,2019-09-08 14:17:34:249,0.6198,0.4674,10.0831,0.0318,-0.0194,9.8066,0.0558,0.0913,-0.0214,-21.62,-30.56,24.63,306.22,-78.6,176.76
80215,52.52527,-1.443281,151.81,11.41,3,176.29,25 / 25,7835110,2019-09-08 14:17:34:349,0.5329,0.6906,9.5469,-0.0247,0.0099,9.8065,-0.0746,0.1221,-0.0327,-21.56,-31.75,24.0,304.38,-78.59,176.78
80216,52.52527,-1.443281,151.81,11.41,3,176.29,25 / 25,7835210,2019-09-08 14:17:34:449,-0.1848,0.4966,10.3105,-0.028,0.0265,9.8065,-0.0069,0.0929,-0.0077,-22.37,-31.69,25.13,306.44,-78.83,177.04
80217,52.52527,-1.443281,151.81,11.41,3,176.29,25 / 25,7835310,2019-09-08 14:17:34:549,1.152,1.0097,10.2349,0.0221,-0.0239,9.8066,0.0507,0.1662,0.0163,-22.06,-31.56,24.31,304.64,-78.82,176.81
80218,52.52527,-1.443281,151.81,11.41,3,176.29,25 / 25,7835410,2019-09-08 14:17:34:649,0.8363,0.0822,10.0379,0.0146,-0.0212,9.8066,0.0446,0.0729,0.0224,-22.37,-31.62,23.94,305.14,-78.63,177.43
80219,52.52527,-1.443281,151.81,11.41,3,176.29,25 / 25,7835510,2019-09-08 14:17:34:749,0.7624,-0.1209,10.2168,-0.0157,0.0013,9.8065,0.0493,0.1153,0.0413,-21.81,-31.5,24.31,306.05,-78.71,177.87
80220,52.52527,-1.443281,151.81,11.41,3,176.29,25 / 25,7835610,2019-09-08 14:17:34:849,-0.6913,0.546,10.0767,-0.0137,0.005,9.8066,0.0004,0.1277,-0.057,-21.94,-31.31,23.63,306.39,-78.75,178.14
80221,52.52527,-1.443281,151.81,11.41,3,176.29,25 / 26,7835709,2019-09-08 14:17:34:948,0.3612,1.4933,10.1028,0.0036,-0.0058,9.8066,0.0809,0.082,0.0718,-22.75,-32.19,23.81,304.97,-78.66,178.33
80222,52.52527,-1.443281,151.81,11.41,3,176.29,25 / 26,7835810,2019-09-08 14:17:35:049,1.2068,0.639,9.4364,0.0074,-0.0039,9.8065,-0.0345,0.1361,-0.0128,-22.56,-32.0,23.56,305.31,-78.57,178.71
80223,52.52527,-1.443281,151.81,11.41,3,176.29,25 / 26,7835910,2019-09-08 14:17:35:149,0.99,1.1213,10.4249,-0.0471,0.0211,9.8064,0.1436,0.1471,-0.1409,-23.06,-31.69,22.81,304.67,-78.82,179.33
80224,52.52527,-1.443281,151.81,11.41,3,176.29,25 / 26,7836010,2019-09-08 14:17:35:249,0.2205,0.4215,10.7567,-0.0362,0.0269,9.8065,0.1988,0.028,0.0206,-22.81,-31.87,22.69,304.33,-78.91,178.95
80225,52.52527,-1.443281,151.81,11.41,3,176.29,25 / 26,7836110,2019-09-08 14:17:35:349,1.4043,0.0659,10.313,0.0354,-0.0158,9.8066,-0.1418,0.116,-0.0302,-23.12,-31.75,22.44,302.59,-78.8,178.97
80226,52.52527,-1.443281,151.81,11.41,3,176.29,25 / 26,7836210,2019-09-08 14:17:35:449,-0.0073,1.4656,9.7294,0.0184,-0.0127,9.8065,-0.0797,0.137,-0.0435,-23.5,-31.81,22.19,301.89,-78.52,178.61
80227,52.52527,-1.443281,151.81,11.41,3,176.29,25 / 26,7836310,2019-09-08 14:17:35:549,-0.7111,1.1252,10.098,-0.0295,0.0192,9.8065,0.1628,0.1509,-0.0237,-23.62,-32.19,21.88,300.38,-78.42,178.34
80228,52.52527,-1.443281,151.81,11.41,3,176.29,25 / 26,7836410,2019-09-08 14:17:35:649,1.3345,0.7055,10.1559,-0.038,0.0326,9.8065,0.1271,0.1387,-0.0004,-23.06,-31.37,21.94,301.38,-78.69,177.68
80229,52.52527,-1.443281,151.81,11.41,3,176.29,25 / 26,7836510,2019-09-08 14:17:35:749,-0.136,0.8985,9.8567,0.0477,-0.0171,9.8065,-0.1636,0.091,-0.0118,-24.06,-32.06,21.56,299.43,-78.49,177.41
80230,52.52527,-1.443281,151.81,11.41,3,176.29,25 / 26,7836610,2019-09-08 14:17:35:849,0.5789,1.6489,9.4133,0.0371,-0.0143,9.8065,-0.118,0.1001,0.0046,-23.75,-31.87,21.06,297.26,-78.59,176.87
80231,52.52527,-1.443281,151.81,11.41,3,176.29,25 / 25,7836710,2019-09-08 14:17:35:949,0.2947,0.423,10.186,-0.0063,-0.0064,9.8066,-0.022,0.0938,-0.0543,-23.81,-30.87,21.13,298.49,-78.66,177.6
80232,52.52527,-1.443281,151.81,11.41,3,176.29,25 / 25,7836810,2019-09-08 14:17:36:049,-0.1322,1.4711,10.0368,0.0225,-0.0209,9.8065,-0.1459,0.0816,-0.0487,-23.62,-31.69,20.38,296.43,-78.51,177.79
80233,52.52527,-1.443281,151.81,11.41,3,176.29,25 / 25,7836910,2019-09-08 14:17:36:149,0.4183,0.0039,11.1229,-0.0205,0.0142,9.8066,0.1703,0.0908,0.0009,-23.62,-32.0,20.63,298.11,-78.31,177.93
80234,52.52527,-1.443281,151.81,11.41,3,176.29,25 / 25,7837010,2019-09-08 14:17:36:249,0.8724,-0.3011,10.6811,-0.0278,0.0146,9.8065,0.1645,0.0615,-0.0091,-24.0,-32.06,20.88,297.98,-78.39,177.73
80235,52.52527,-1.443281,151.81,11.41,3,176.29,25 / 25,7837110,2019-09-08 14:17:36:349,0.7564,0.0324,10.082,0.0365,-0.0239,9.8065,-0.2009,0.1609,-0.0731,-24.12,-32.25,20.56,298.07,-78.38,177.82
80236,52.52527,-1.443281,151.81,11.41,3,176.29,25 / 25,7837210,2019-09-08 14:17:36:449,0.681,0.4277,9.9066,0.0167,-0.0056,9.8065,-0.0363,0.091,0.0391,-23.44,-32.0,20.13,297.12,-78.28,177.73
80237,52.52527,-1.443281,151.81,11.41,3,176.29,25 / 25,7837310,2019-09-08 14:17:36:549,1.3575,0.5202,9.3901,-0.008,-0.003,9.8066,-0.0298,0.1248,-0.0077,-23.69,-32.25,20.06,296.42,-78.37,177.93
80238,52.52527,-1.443281,151.81,11.41,3,176.29,25 / 25,7837410,2019-09-08 14:17:36:649,-0.6549,2.1978,9.7397,0.0,0.0013,9.8065,-0.0508,0.12,-0.0093,-24.69,-31.62,19.81,295.52,-78.33,178.03
80239,52.52527,-1.443281,151.81,11.41,3,176.29,25 / 25,7837510,2019-09-08 14:17:36:749,0.4323,0.2153,10.7099,-0.0059,-0.015,9.8066,0.1705,0.0804,0.0653,-24.0,-31.94,19.63,296.61,-78.22,178.26
80240,52.52527,-1.443281,151.81,11.41,3,176.29,25 / 25,7837610,2019-09-08 14:17:36:849,0.8985,1.185,10.0465,-0.0111,0.0095,9.8066,0.0756,0.11,-0.0188,-24.62,-31.37,19.81,296.74,-78.09,179.05
80241,52.524513,-1.442435,150.26,12.24,3,117.56,26 / 26,7837710,2019-09-08 14:17:36:949,0.5744,1.729,10.0623,0.0129,-0.0049,9.8066,-0.0375,0.0338,0.0441,-24.56,-32.5,19.81,297.0,-78.09,179.62
80242,52.524513,-1.442435,150.26,12.24,3,117.56,26 / 26,7837810,2019-09-08 14:17:37:049,1.1359,0.1814,9.4003,-0.0035,0.0057,9.8066,-0.011,0.0516,0.0715,-24.56,-32.06,19.63,297.09,-78.09,179.71
80243,52.524513,-1.442435,150.26,12.24,3,117.56,26 / 26,7837910,2019-09-08 14:17:37:149,-1.0025,2.0167,9.0484,-0.0292,0.0133,9.8065,0.0139,0.0975,0.0075,-25.06,-32.12,19.06,295.67,-78.12,-179.98
80244,52.524513,-1.442435,150.26,12.24,3,117.56,26 / 26,7838010,2019-09-08 14:17:37:249,-1.4571,0.9449,10.3821,-0.0415,0.0143,9.8065,0.015,0.1154,-0.0289,-24.62,-32.44,18.75,296.45,-78.3,-179.46
80245,52.524513,-1.442435,150.26,12.24,3,117.56,26 / 26,7838110,2019-09-08 14:17:37:349,0.6217,0.6653,10.0929,0.0527,-0.0359,9.8063,-0.0676,0.0847,0.0099,-25.12,-31.81,19.13,295.93,-77.91,-179.53
80246,52.524513,-1.442435,150.26,12.24,3,117.56,26 / 26,7838210,2019-09-08 14:17:37:449,-0.713,1.3893,9.7262,0.0438,-0.0216,9.8065,-0.1,0.1131,-0.0272,-25.44,-31.94,18.38,294.3,-77.87,-179.27
80247,52.524513,-1.442435,150.26,12.24,3,117.56,26 / 26,7838310,2019-09-08 14:17:37:549,0.8772,0.4225,9.5981,-0.0164,0.0173,9.8065,-0.1184,0.0668,-0.0371,-25.44,-32.56,18.44,294.09,-77.99,-179.23
80248,52.524513,-1.442435,150.26,12.24,3,117.56,26 / 26,7838410,2019-09-08 14:17:37:649,0.4186,1.2717,9.8507,-0.0117,0.0135,9.8066,-0.0303,0.0947,-0.0783,-25.25,-32.12,18.19,293.96,-78.25,-179.99
80249,52.524513,-1.442435,150.26,12.24,3,117.56,26 / 26,7838510,2019-09-08 14:17:37:749,-1.0584,1.8069,9.4293,-0.0077,0.0292,9.8065,0.0834,0.0037,0.0643,-25.62,-31.81,17.38,291.01,-78.34,179.65
80250,52.524513,-1.442435,150.26,12.24,3,117.56,26 / 26,7838610,2019-09-08 14:17:37:849,1.2072,1.3791,9.5345,-0.0268,0.0217,9.8065,0.1505,0.127,-0.0776,-25.5,-32.37,17.5,292.62,-78.58,178.41
80251,52.524513,-1.442435,150.26,12.24,3,117.56,25 / 25,7838710,2019-09-08 14:17:37:949,-0.1537,1.5229,10.386,0.0506,-0.0037,9.8065,-0.0319,0.0916,0.0093,-25.25,-32.94,17.31,288.62,-78.35,177.05
80252,52.524513,-1.442435,150.26,12.24,3,117.56,25 / 25,7838810,2019-09-08 14:17:38:049,-0.8907,1.4547,9.9709,0.0598,-0.0092,9.8064,-0.0383,0.1046,-0.0376,-24.94,-32.19,16.75,288.16,-78.25,176.35
80253,52.524513,-1.442435,150.26,12.24,3,117.56,25 / 25,7838910,2019-09-08 14:17:38:149,-2.1938,1.3763,9.9191,-0.0443,0.0015,9.8065,0.2787,0.1493,-0.0764,-25.31,-33.0,16.63,287.22,-77.96,176.19
80254,52.524513,-1.442435,150.26,12.24,3,117.56,25 / 25,7839010,2019-09-08 14:17:38:249,0.8568,2.1872,9.7586,-0.0372,-0.0079,9.8066,0.1232,0.1289,-0.1555,-25.31,-32.37,17.31,288.34,-77.84,176.99
80255,52.524513,-1.442435,150.26,12.24,3,117.56,25 / 25,7839110,2019-09-08 14:17:38:349,0.331,0.6224,10.0415,0.0112,-0.0083,9.8066,-0.0668,0.0941,-0.0046,-24.62,-32.19,16.88,287.87,-77.78,176.61
80256,52.524513,-1.442435,150.26,12.24,3,117.56,25 / 25,7839210,2019-09-08 14:17:38:449,-0.4942,2.4644,8.8574,0.0381,-0.0142,9.8066,-0.1648,0.1866,-0.1229,-25.62,-32.69,16.5,286.64,-77.74,176.58
80257,52.524513,-1.442435,150.26,12.24,3,117.56,25 / 25,7839310,2019-09-08 14:17:38:549,-1.2988,1.5264,10.1225,-0.0461,0.0173,9.8065,0.1968,0.1153,-0.0818,-25.12,-32.25,16.0,285.5,-78.01,175.94
80258,52.524513,-1.442435,150.26,12.24,3,117.56,25 / 25,7839410,2019-09-08 14:17:38:649,1.8906,0.2691,9.9739,-0.0117,0.0117,9.8066,0.1663,0.0297,-0.0132,-24.87,-32.0,16.75,287.0,-77.86,175.7
80259,52.524513,-1.442435,150.26,12.24,3,117.56,25 / 25,7839510,2019-09-08 14:17:38:749,1.6963,1.6674,9.9608,-0.004,0.0167,9.8066,0.0939,0.1388,-0.016,-24.94,-32.31,15.75,285.25,-77.49,176.31
80260,52.524513,-1.442435,150.26,12.24,3,117.56,25 / 25,7839610,2019-09-08 14:17:38:849,1.4507,0.3892,10.3698,-0.0117,0.0031,9.8065,0.1171,0.0684,0.0599,-24.19,-33.12,15.88,285.16,-77.51,175.95
80261,52.524513,-1.442435,150.26,12.24,3,117.56,26 / 26,7839709,2019-09-08 14:17:38:948,-0.0505,0.89,9.3923,-0.0495,0.0185,9.8064,0.0761,0.0517,0.0312,-23.94,-33.06,14.5,283.2,-77.49,176.08
80262,52.524513,-1.442435,150.26,12.24,3,117.56,26 / 26,7839810,2019-09-08 14:17:39:049,-0.6217,0.4586,10.1206,-0.0642,0.0261,9.8063,0.196,0.0611,-0.0447,-24.87,-32.94,14.63,282.86,-77.98,175.74
80263,52.524513,-1.442435,150.26,12.24,3,117.56,26 / 26,7839910,2019-09-08 14:17:39:149,0.4946,1.8508,10.4454,0.0682,-0.0015,9.8064,-0.1899,0.0565,0.0331,-24.5,-32.5,14.38,281.4,-78.02,175.25
80264,52.524513,-1.442435,150.26,12.24,3,117.56,26 / 26,7840009,2019-09-08 14:17:39:248,0.962,1.1581,9.4076,0.0679,-0.0136,9.8063,-0.2397,0.0831,-0.0245,-24.81,-32.69,13.69,279.28,-77.51,174.83
80265,52.524513,-1.442435,150.26,12.24,3,117.56,26 / 26,7840110,2019-09-08 14:17:39:349,0.5569,0.4714,9.7282,-0.0007,-0.0191,9.8065,0.0002,0.1792,-0.1133,-25.37,-33.31,14.13,279.28,-77.44,174.92
80266,52.524513,-1.442435,150.26,12.24,3,117.56,26 / 26,7840210,2019-09-08 14:17:39:449,-1.1908,3.2029,10.0062,0.0171,-0.0189,9.8066,-0.1497,0.2182,-0.0833,-25.44,-32.94,13.25,278.15,-77.4,175.89
80267,52.524513,-1.442435,150.26,12.24,3,117.56,26 / 26,7840310,2019-09-08 14:17:39:549,0.9472,1.413,10.6017,0.0282,-0.0317,9.8065,-0.0111,0.1367,-0.066,-25.44,-32.94,14.38,281.12,-77.22,176.99
80268,52.524513,-1.442435,150.26,12.24,3,117.56,26 / 26,7840410,2019-09-08 14:17:39:649,-0.1399,1.4631,10.2954,0.0388,-0.0196,9.8065,0.128,0.0859,-0.1034,-25.69,-33.06,13.88,280.97,-77.2,177.36
80269,52.524513,-1.442435,150.26,12.24,3,117.56,26 / 26,7840510,2019-09-08 14:17:39:749,-0.3856,1.6701,9.5673,-0.046,0.0087,9.8065,-0.0427,0.0751,-0.0017,-25.81,-32.81,13.25,279.25,-77.14,177.73
80270,52.524513,-1.442435,150.26,12.24,3,117.56,26 / 26,7840610,2019-09-08 14:17:39:849,-1.3799,0.3215,8.8785,-0.0456,0.014,9.8065,0.0424,0.0691,0.0772,-25.44,-33.06,13.5,281.95,-77.4,177.57
80271,52.524513,-1.442435,150.26,12.24,3,117.56,25 / 26,7840710,2019-09-08 14:17:39:949,0.9915,0.3673,10.213,0.0179,0.0024,9.8066,0.1236,0.0953,0.0413,-25.25,-33.12,13.25,280.25,-77.35,178.01
80272,52.524513,-1.442435,150.26,12.24,3,117.56,25 / 26,7840810,2019-09-08 14:17:40:049,-1.2685,1.13,11.1226,0.0051,-0.0063,9.8066,0.1009,0.1029,0.0199,-25.75,-33.37,12.75,279.8,-77.3,178.07
80273,52.524513,-1.442435,150.26,12.24,3,117.56,25 / 26,7840910,2019-09-08 14:17:40:149,-0.728,2.1682,10.1411,0.0016,0.0013,9.8066,-0.0224,0.0339,0.0307,-25.69,-33.25,12.69,280.21,-77.33,178.43
80274,52.524513,-1.442435,150.26,12.24,3,117.56,25 / 26,7841010,2019-09-08 14:17:40:249,-0.4612,2.0871,9.9816,0.0206,-0.0036,9.8066,-0.1204,0.1171,0.0312,-25.87,-33.37,12.0,278.22,-77.17,178.7
80275,52.524513,-1.442435,150.26,12.24,3,117.56,25 / 26,7841110,2019-09-08 14:17:40:349,1.2324,0.685,10.1525,-0.0122,0.0059,9.8066,0.2456,0.0755,-0.0267,-25.75,-33.06,12.31,278.43,-76.99,179.14
80276,52.524513,-1.442435,150.26,12.24,3,117.56,25 / 26,7841210,2019-09-08 14:17:40:449,0.0548,1.1786,10.487,-0.0007,-0.0016,9.8066,0.127,0.0628,-0.0481,-25.44,-32.87,12.0,278.65,-76.99,179.0
80277,52.524513,-1.442435,150.26,12.24,3,117.56,25 / 26,7841310,2019-09-08 14:17:40:549,-1.8987,2.1663,9.6286,0.0009,0.0041,9.8066,-0.1238,0.1882,-0.0552,-25.44,-33.5,11.5,278.62,-76.99,178.97
80278,52.524513,-1.442435,150.26,12.24,3,117.56,25 / 26,7841410,2019-09-08 14:17:40:649,-0.9176,1.2614,9.8585,0.008,-0.0001,9.8066,-0.0899,0.1161,-0.0265,-26.0,-33.0,10.81,275.9,-76.97,178.73
80279,52.524513,-1.442435,150.26,12.24,3,117.56,25 / 26,7841510,2019-09-08 14:17:40:749,-1.1925,0.3672,10.0827,0.0009,-0.0185,9.8065,-0.0122,0.1809,-0.1506,-25.69,-33.5,10.94,276.67,-76.99,179.47
80280,52.524513,-1.442435,150.26,12.24,3,117.56,25 / 26,7841610,2019-09-08 14:17:40:849,-0.8446,1.1426,9.7906,0.0183,0.0012,9.8065,-0.0818,0.1147,-0.027,-25.69,-33.75,10.5,276.0,-76.97,179.31
80281,52.524513,-1.442435,150.26,12.24,3,117.56,25 / 25,7841710,2019-09-08 14:17:40:949,0.6376,1.5529,9.8711,-0.018,-0.0011,9.8066,0.1481,0.0831,0.0376,-25.75,-33.56,10.38,274.01,-76.94,179.48
80282,52.524513,-1.442435,150.26,12.24,3,117.56,25 / 25,7841809,2019-09-08 14:17:41:048,0.1762,1.7086,10.1864,0.0012,-0.0026,9.8066,0.0891,0.1377,-0.0107,-25.5,-33.37,10.88,277.33,-77.02,179.8
80283,52.524513,-1.442435,150.26,12.24,3,117.56,25 / 25,7841910,2019-09-08 14:17:41:149,0.0435,1.6421,9.264,-0.0038,-0.0024,9.8065,-0.0834,0.1323,0.039,-25.94,-33.62,9.94,274.42,-77.01,179.81
80284,52.524513,-1.442435,150.26,12.24,3,117.56,25 / 25,7842010,2019-09-08 14:17:41:249,0.1472,-0.4318,9.9115,0.0072,-0.0322,9.8066,-0.0549,0.2258,-0.1303,-25.94,-33.5,9.63,275.64,-76.89,-179.31
