,GPS LATITUDE (degrees), GPS LONGITUDE (degrees), GPS ALTITUDE (m), GPS SPEED (Kmh), GPS ACCURACY (m), GPS ORIENTATION (Â°),GPS SATELLITES IN RANGE, TIME SINCE START (ms), DATE (YYYY-MO-DD HH-MI-SS_SSS), ACCELEROMETER X (m/s²) , ACCELEROMETER Y (m/s²), ACCELEROMETER Z (m/s²), GRAVITY X (m/s²), GRAVITY Y (m/s²), GRAVITY Z (m/s²), GYROSCOPE Yaw (rad/s), GYROSCOPE Pitch (rad/s), GYROSCOPE Roll (rad/s), MAGNETIC FIELD X (Î¼T), MAGNETIC FIELD Y (Î¼T), MAGNETIC FIELD Z (Î¼T), ORIENTATION (Yaw) (Â°), ORIENTATION (Pitch) (Â°), ORIENTATION (Roll ) (Â°)
9950,53.154793,-1.581159,161.09,9.19,3,133.24,19 / 19,2467614,2019-11-06 16:47:28:076,-1.5012,-1.1629,9.1404,0.0309,0.002,9.8065,-0.0254,0.1507,0.0453,-22.06,-37.25,26.94,290.6,-88.48,151.29
9951,53.154793,-1.581159,161.09,9.19,3,133.24,19 / 19,2467714,2019-11-06 16:47:28:176,1.7872,2.7074,9.829,0.028,-0.0035,9.8065,0.0672,0.382,-0.2993,-22.0,-37.62,26.88,291.71,-88.29,152.63
9952,53.154793,-1.581159,161.09,9.19,3,133.24,19 / 19,2467814,2019-11-06 16:47:28:276,-0.8539,-1.7522,10.0971,0.0298,0.053,9.8064,-0.0034,0.0606,-0.039,-25.19,-37.75,27.13,285.78,-88.31,150.26
9953,53.154793,-1.581159,161.09,9.19,3,133.24,18 / 19,2467914,2019-11-06 16:47:28:376,4.1543,2.5694,9.3281,0.0086,0.0053,9.8066,-0.0284,0.5655,-0.2394,-38.31,-41.25,46.88,293.85,-88.28,153.89
9954,53.154793,-1.581159,161.09,9.19,3,133.24,18 / 19,2468014,2019-11-06 16:47:28:476,-3.1167,-4.1648,10.9179,0.043,0.0396,9.8064,0.1073,-0.2959,0.1312,-19.87,-34.12,38.38,300.69,-88.18,149.7
9955,53.154793,-1.581159,161.09,9.19,3,133.24,18 / 19,2468114,2019-11-06 16:47:28:576,3.4522,0.264,9.8507,-0.0066,-0.0334,9.8066,-0.0114,0.3777,-0.121,-19.75,-35.5,31.5,301.35,-87.94,155.01
9956,53.154793,-1.581159,161.09,9.19,3,133.24,18 / 19,2468214,2019-11-06 16:47:28:676,2.0343,1.9405,9.4665,0.038,0.0176,9.8065,0.004,-0.5231,0.2768,-20.12,-36.06,29.31,298.71,-87.72,155.36
9957,53.154793,-1.581159,161.09,9.19,3,133.24,18 / 19,2468313,2019-11-06 16:47:28:775,4.968,1.2767,10.3505,-0.0316,-0.042,9.8065,0.1508,0.1132,-0.0435,-20.12,-36.37,28.56,303.16,-87.85,159.61
9958,53.154793,-1.581159,161.09,9.19,3,133.24,18 / 19,2468414,2019-11-06 16:47:28:876,-1.5826,-1.4773,9.5464,0.0549,0.0161,9.8064,0.1187,-0.3767,0.1858,-20.25,-36.5,28.88,295.15,-87.82,151.78
9959,53.154793,-1.581159,161.09,9.19,3,133.24,18 / 19,2468514,2019-11-06 16:47:28:976,-1.498,-0.9837,10.1827,-0.0195,-0.0236,9.8065,0.015,0.1825,-0.0542,-19.94,-35.44,30.75,301.87,-87.89,156.43
9960,53.154793,-1.581159,161.09,9.19,3,133.24,18 / 19,2468614,2019-11-06 16:47:29:076,-3.3092,-1.8659,10.1614,0.0444,-0.0024,9.8065,0.0527,-0.272,0.2382,-19.44,-33.5,40.44,311.42,-87.63,158.18
9961,53.154793,-1.581159,161.09,9.19,3,133.24,18 / 19,2468714,2019-11-06 16:47:29:176,2.2612,-0.5138,10.393,-0.0161,-0.0229,9.8066,0.0196,0.1697,-0.0799,-35.56,-39.19,52.69,305.71,-87.62,161.1
9962,53.154793,-1.581159,161.09,9.19,3,133.24,18 / 19,2468814,2019-11-06 16:47:29:276,-0.2531,1.4479,8.6787,0.0184,0.0275,9.8066,0.1417,-0.1675,0.075,-27.75,-36.69,28.56,294.2,-87.77,160.08
9963,53.154793,-1.581159,161.09,9.19,3,133.24,18 / 19,2468924,2019-11-06 16:47:29:386,1.8003,0.9248,9.3637,0.0275,-0.016,9.8066,0.0136,-0.2396,0.0766,-22.37,-36.37,27.13,302.95,-87.73,164.12
9964,53.154793,-1.581159,161.09,9.19,3,133.24,18 / 19,2469014,2019-11-06 16:47:29:476,-0.6259,-0.0132,9.7002,0.0105,0.0178,9.8066,0.0181,-0.1376,0.0831,-21.56,-35.81,27.31,301.29,-87.82,162.41
9965,53.154793,-1.581159,161.09,9.19,3,133.24,18 / 19,2469113,2019-11-06 16:47:29:575,-0.1133,-0.4449,10.2169,0.0111,-0.0075,9.8066,0.0287,0.0379,-0.0587,-22.69,-36.0,27.94,303.89,-87.89,165.04
9966,53.154793,-1.581159,161.09,9.19,3,133.24,18 / 19,2469214,2019-11-06 16:47:29:676,1.3708,0.1134,10.0122,-0.0219,0.0067,9.8065,0.0055,-0.0858,0.0129,-27.12,-36.87,28.56,301.12,-88.04,165.66
9967,53.154793,-1.581159,161.09,9.19,3,133.24,18 / 19,2469314,2019-11-06 16:47:29:776,-2.2637,-1.5946,10.3901,-0.0075,-0.005,9.8066,0.0382,-0.2798,0.1801,-36.06,-38.81,53.19,312.89,-88.02,167.98
9968,53.154793,-1.581159,161.09,9.19,3,133.24,18 / 19,2469414,2019-11-06 16:47:29:876,0.735,0.6103,9.692,-0.0438,-0.03,9.8065,-0.0353,0.1451,-0.0959,-19.94,-33.56,39.5,324.62,-88.12,172.03
9969,53.154793,-1.581159,161.09,9.19,3,133.24,18 / 19,2469514,2019-11-06 16:47:29:976,-2.9191,-1.9997,10.2383,-0.0012,0.0107,9.8066,0.0194,-0.3216,0.2104,-19.94,-35.06,30.25,315.14,-88.23,170.05
9970,53.154793,-1.581159,161.09,9.19,3,133.24,18 / 19,2469614,2019-11-06 16:47:30:076,2.1915,1.3781,9.983,-0.0337,-0.0293,9.8065,-0.054,0.2861,-0.1414,-20.19,-35.94,28.06,317.06,-88.22,173.88
9971,53.154793,-1.581159,161.09,9.19,3,133.24,18 / 19,2469714,2019-11-06 16:47:30:176,-0.0913,1.8206,9.0338,-0.0016,0.0391,9.8066,-0.0722,-0.1214,0.1306,-20.62,-36.31,27.56,317.41,-88.15,175.58
9972,53.154793,-1.581159,161.09,9.19,3,133.24,18 / 19,2469814,2019-11-06 16:47:30:276,0.8155,0.6033,9.4986,-0.022,-0.0089,9.8065,-0.0684,0.1312,0.0238,-19.81,-36.62,28.69,314.65,-88.23,170.58
9973,53.154793,-1.581159,161.09,9.19,3,133.24,18 / 18,2469914,2019-11-06 16:47:30:376,-0.2827,-0.5327,9.295,-0.0043,0.0196,9.8066,-0.0761,-0.0004,0.0648,-20.37,-36.06,30.44,318.12,-88.17,173.04
9974,53.154793,-1.581159,161.09,9.19,3,133.24,18 / 18,2470013,2019-11-06 16:47:30:475,-0.8173,0.797,10.099,-0.0286,0.0071,9.8066,-0.0666,0.1093,-0.0998,-19.37,-34.5,37.38,324.17,-88.4,172.13
9975,53.154793,-1.581159,161.09,9.19,3,133.24,18 / 18,2470113,2019-11-06 16:47:30:575,-1.4793,-0.7453,9.8617,-0.0096,0.0204,9.8066,-0.0441,-0.0246,0.0994,-39.31,-41.06,46.5,308.39,-88.54,168.85
9976,53.154793,-1.581159,161.09,9.19,3,133.24,18 / 18,2470214,2019-11-06 16:47:30:676,-0.6901,-0.3438,10.2243,0.0035,0.002,9.8066,-0.0025,0.3438,-0.1713,-26.0,-37.31,26.88,303.09,-88.55,168.22
9977,53.154793,-1.581159,161.09,9.19,3,133.24,18 / 18,2470314,2019-11-06 16:47:30:776,2.337,3.1162,8.9794,0.0248,0.0477,9.8065,-0.1003,0.1944,-0.0975,-22.62,-37.37,27.0,314.87,-88.49,176.42
9978,53.154793,-1.581159,161.09,9.19,3,133.24,18 / 18,2470413,2019-11-06 16:47:30:875,-0.1993,0.1638,10.4725,-0.0172,0.0359,9.8065,-0.0356,0.3212,-0.1405,-21.62,-36.62,26.81,310.25,-88.75,170.44
9979,53.154793,-1.581159,161.09,9.19,3,133.24,18 / 18,2470514,2019-11-06 16:47:30:976,1.8979,1.6974,9.7992,0.0295,0.0426,9.8064,0.0055,0.3039,-0.1202,-22.94,-36.94,26.44,317.41,-88.71,179.84
9980,53.154793,-1.581159,161.09,9.19,3,133.24,18 / 18,2470614,2019-11-06 16:47:31:076,-2.1381,-1.1128,9.4161,0.0269,0.0194,9.8065,0.0485,0.1843,-0.1046,-26.69,-37.94,27.5,304.69,-88.71,169.69
9981,53.154793,-1.581159,161.09,9.19,3,133.24,18 / 18,2470714,2019-11-06 16:47:31:176,0.2863,-1.3572,10.3925,0.0255,0.0218,9.8065,-0.0006,0.2234,-0.1311,-30.94,-38.5,56.88,320.27,-88.68,169.31
9982,53.154793,-1.581159,161.09,9.19,3,133.24,18 / 18,2470814,2019-11-06 16:47:31:276,-2.7396,-1.1598,9.5726,0.037,0.0122,9.8065,-0.0903,0.3093,-0.1322,-20.62,-34.94,36.25,319.6,-88.58,170.64
9983,53.154137,-1.58013,161.43,12.04,4,138.57,18 / 19,2470914,2019-11-06 16:47:31:376,-3.0406,-0.9701,8.909,-0.0084,0.0121,9.8066,0.0326,0.4294,-0.1813,-19.87,-36.12,31.25,322.92,-88.65,176.55
9984,53.154137,-1.58013,161.43,12.04,4,138.57,18 / 19,2471014,2019-11-06 16:47:31:476,-1.1186,-2.8083,9.9378,-0.0158,-0.0097,9.8065,0.01,0.0645,-0.1057,-19.81,-36.87,28.88,313.41,-88.67,169.03
9985,53.154137,-1.58013,161.43,12.04,4,138.57,18 / 19,2471114,2019-11-06 16:47:31:576,1.7344,2.1149,8.7824,-0.0216,-0.043,9.8065,-0.1269,0.4103,-0.1153,-20.56,-36.75,28.0,310.1,-88.69,168.04
9986,53.154137,-1.58013,161.43,12.04,4,138.57,18 / 19,2471213,2019-11-06 16:47:31:675,0.5124,1.4826,9.6683,0.0047,0.0235,9.8066,0.0024,-0.3068,0.093,-19.87,-36.56,28.56,310.92,-88.93,166.37
9987,53.154137,-1.58013,161.43,12.04,4,138.57,18 / 19,2471313,2019-11-06 16:47:31:775,1.4838,0.7646,8.4768,-0.0115,-0.0141,9.8066,0.0033,-0.0164,0.1058,-19.06,-35.69,31.0,312.28,-89.09,164.46
9988,53.154137,-1.58013,161.43,12.04,4,138.57,18 / 19,2471414,2019-11-06 16:47:31:876,1.4772,-0.8754,10.4288,0.0146,-0.0005,9.8066,-0.1241,-0.0665,0.0572,-19.19,-34.44,45.69,329.0,-89.05,171.78
9989,53.154137,-1.58013,161.43,12.04,4,138.57,18 / 19,2471514,2019-11-06 16:47:31:976,-0.7771,0.3868,9.8286,-0.0115,0.0156,9.8066,0.0395,-0.1033,0.073,-39.62,-40.19,44.44,317.75,-89.31,-179.66
9990,53.154137,-1.58013,161.43,12.04,4,138.57,18 / 19,2471613,2019-11-06 16:47:32:075,0.6268,0.6128,9.862,-0.0103,-0.0192,9.8065,-0.0319,0.2409,-0.1069,-24.44,-37.12,27.0,321.3,-89.35,-176.65
9991,53.154137,-1.58013,161.43,12.04,4,138.57,18 / 19,2471714,2019-11-06 16:47:32:176,0.442,0.2936,9.9818,0.0186,-0.0042,9.8066,0.0624,0.1183,-0.0157,-21.87,-36.75,26.69,318.22,-89.22,177.95
9992,53.154137,-1.58013,161.43,12.04,4,138.57,18 / 19,2471813,2019-11-06 16:47:32:275,-1.8882,-2.2256,10.5902,-0.0302,-0.0302,9.8065,-0.1485,0.3755,-0.2435,-22.37,-37.0,25.75,311.67,-89.14,172.61
9993,53.154137,-1.58013,161.43,12.04,4,138.57,19 / 19,2471913,2019-11-06 16:47:32:375,-2.7495,-0.9111,10.3735,-0.0282,0.0234,9.8066,0.0334,0.0274,-0.0091,-22.56,-38.0,25.81,316.96,-89.52,178.81
9994,53.154137,-1.58013,161.43,12.04,4,138.57,19 / 19,2472013,2019-11-06 16:47:32:475,2.2805,2.0818,9.536,-0.0596,-0.0241,9.8063,-0.0431,0.4958,-0.2913,-28.75,-38.75,27.0,299.48,-89.63,166.84
9995,53.154137,-1.58013,161.43,12.04,4,138.57,19 / 19,2472114,2019-11-06 16:47:32:576,2.1706,-0.0915,9.0618,-0.0102,-0.0041,9.8066,-0.1181,0.2283,-0.12,-27.62,-37.81,56.0,35.42,-89.92,-118.05
9996,53.154137,-1.58013,161.43,12.04,4,138.57,19 / 19,2472214,2019-11-06 16:47:32:676,-1.4369,-0.8665,9.9608,-0.0293,-0.0312,9.8065,0.0133,0.1735,-0.0674,-20.25,-35.37,33.75,162.85,-89.79,13.26
9997,53.154137,-1.58013,161.43,12.04,4,138.57,19 / 19,2472314,2019-11-06 16:47:32:776,1.3136,-0.2428,9.632,0.0111,-0.0186,9.8066,0.0272,0.1025,-0.0378,-20.06,-36.19,29.0,29.59,-89.87,-115.89
9998,53.154137,-1.58013,161.43,12.04,4,138.57,19 / 19,2472414,2019-11-06 16:47:32:876,0.8895,-0.8238,10.5596,-0.0073,0.0132,9.8066,0.0753,-0.2341,0.1035,-20.37,-36.5,27.69,21.33,-89.83,-123.2
9999,53.154137,-1.58013,161.43,12.04,4,138.57,19 / 19,2472514,2019-11-06 16:47:32:976,-2.478,-1.0047,10.0956,0.0052,-0.0157,9.8066,-0.0691,-0.1038,0.1253,-20.75,-36.25,27.13,31.51,-89.64,-110.82
10000,53.154137,-1.58013,161.43,12.04,4,138.57,19 / 19,2472614,2019-11-06 16:47:33:076,1.1512,-0.1112,9.5703,0.0172,0.0341,9.8065,0.0017,-0.2577,0.1616,-20.44,-36.87,27.63,60.15,-89.5,-84.78
10001,53.154137,-1.58013,161.43,12.04,4,138.57,19 / 19,2472714,2019-11-06 16:47:33:176,-0.6906,-1.869,9.3496,0.0172,0.0091,9.8066,-0.0067,-0.2395,0.0743,-20.12,-35.31,31.56,72.96,-89.44,-75.53
10002,53.154137,-1.58013,161.43,12.04,4,138.57,19 / 19,2472814,2019-11-06 16:47:33:276,1.702,-0.5017,10.6224,0.0135,-0.002,9.8066,-0.1172,-0.0079,0.014,-20.75,-35.81,46.69,90.19,-89.31,-66.22
10003,53.154137,-1.58013,161.43,12.04,4,138.57,18 / 19,2472914,2019-11-06 16:47:33:376,0.1563,-1.0487,9.337,0.0339,0.0372,9.8065,0.0402,-0.2298,0.1907,-40.25,-41.12,41.63,83.11,-89.36,-53.74
10004,53.154137,-1.58013,161.43,12.04,4,138.57,18 / 19,2473013,2019-11-06 16:47:33:475,2.9007,0.8365,9.1699,0.0174,-0.0235,9.8066,-0.0299,0.1922,-0.0632,-24.12,-37.19,25.63,54.08,-89.31,-83.79
10005,53.154137,-1.58013,161.43,12.04,4,138.57,18 / 19,2473113,2019-11-06 16:47:33:575,-0.153,1.1031,9.4206,0.0072,0.0073,9.8066,-0.0612,0.0486,0.0021,-23.12,-37.75,25.5,54.13,-89.3,-84.99
10006,53.154137,-1.58013,161.43,12.04,4,138.57,18 / 19,2473213,2019-11-06 16:47:33:675,0.5,0.3653,10.0645,0.0051,-0.0075,9.8066,-0.0559,0.0028,-0.03,-23.25,-37.31,24.94,53.55,-89.24,-84.51
10007,53.154137,-1.58013,161.43,12.04,4,138.57,18 / 19,2473313,2019-11-06 16:47:33:775,-0.2693,-0.7271,10.1665,0.008,0.0246,9.8066,-0.0674,-0.0055,0.0666,-24.31,-37.81,25.25,53.86,-89.21,-83.01
10008,53.154137,-1.58013,161.43,12.04,4,138.57,18 / 19,2473414,2019-11-06 16:47:33:876,-0.4402,1.1314,10.3336,0.0133,-0.0071,9.8066,0.0363,-0.1183,0.0232,-33.12,-39.69,28.81,46.51,-89.12,-85.38
10009,53.154137,-1.58013,161.43,12.04,4,138.57,18 / 19,2473514,2019-11-06 16:47:33:976,0.4238,-1.3043,9.3331,0.0212,0.0022,9.8066,0.0259,-0.1737,0.0808,-31.25,-38.75,55.38,53.24,-89.1,-97.8
10010,53.154137,-1.58013,161.43,12.04,4,138.57,18 / 19,2473614,2019-11-06 16:47:34:076,-0.1147,0.1187,9.9007,0.0011,-0.0058,9.8066,-0.0561,0.0024,-0.0111,-20.81,-35.62,32.19,40.8,-89.02,-106.53
10011,53.154137,-1.58013,161.43,12.04,4,138.57,18 / 19,2473714,2019-11-06 16:47:34:176,-0.3692,-0.8494,10.075,0.0104,0.0109,9.8066,-0.027,-0.049,0.117,-20.5,-36.56,28.88,51.24,-89.07,-94.94
10012,53.154137,-1.58013,161.43,12.04,4,138.57,18 / 19,2473814,2019-11-06 16:47:34:276,-0.0229,0.2318,9.3515,0.0067,0.0157,9.8066,0.032,-0.019,0.0445,-21.31,-36.62,27.13,54.8,-88.94,-88.27
10013,53.154137,-1.58013,161.43,12.04,4,138.57,18 / 19,2473914,2019-11-06 16:47:34:376,-0.8011,-0.1782,9.2978,-0.0164,0.008,9.8066,0.0575,-0.0986,-0.0589,-20.87,-37.0,27.38,60.95,-89.03,-82.1
10014,53.154137,-1.58013,161.43,12.04,4,138.57,18 / 19,2474014,2019-11-06 16:47:34:476,1.2155,0.3257,10.1377,-0.0175,-0.0108,9.8065,-0.0058,0.2897,-0.1436,-20.44,-36.56,27.94,66.02,-88.98,-79.45
10015,53.154137,-1.58013,161.43,12.04,4,138.57,18 / 19,2474114,2019-11-06 16:47:34:576,-1.6189,-2.5831,10.993,0.0066,-0.0243,9.8066,-0.057,-0.0124,0.0074,-20.87,-35.5,30.44,69.81,-89.09,-76.02
10016,53.154137,-1.58013,161.43,12.04,4,138.57,18 / 19,2474213,2019-11-06 16:47:34:675,0.7858,0.5274,9.3919,-0.0313,-0.0266,9.8065,-0.0566,0.3982,-0.1818,-25.0,-37.06,52.94,75.82,-88.98,-79.55
10017,53.154137,-1.58013,161.43,12.04,4,138.57,18 / 19,2474313,2019-11-06 16:47:34:775,-2.2216,-3.3919,10.4241,0.0087,-0.0139,9.8066,0.0747,0.0075,0.0691,-37.31,-40.44,33.69,47.85,-89.09,-85.27
10018,53.154137,-1.58013,161.43,12.04,4,138.57,18 / 19,2474413,2019-11-06 16:47:34:875,0.7935,1.7869,9.7494,-0.0249,-0.0517,9.8065,0.0635,0.2212,-0.2294,-25.37,-37.81,26.06,33.79,-89.1,-102.87
10019,53.154137,-1.58013,161.43,12.04,4,138.57,18 / 19,2474513,2019-11-06 16:47:34:975,-0.9015,-0.9672,9.9607,-0.0203,-0.026,9.8066,-0.032,0.082,-0.1381,-22.81,-36.81,25.75,24.0,-89.03,-114.93
10020,53.154137,-1.58013,161.43,12.04,4,138.57,18 / 19,2474613,2019-11-06 16:47:35:075,-0.9309,-0.9427,10.9429,-0.0109,0.0145,9.8066,0.0422,-0.1451,0.0593,-22.87,-37.12,25.69,28.01,-89.17,-110.91
10021,53.154137,-1.58013,161.43,12.04,4,138.57,18 / 19,2474713,2019-11-06 16:47:35:175,1.5781,3.6847,8.9351,-0.0076,0.0154,9.8066,-0.0321,-0.0474,-0.0816,-23.87,-37.75,25.0,29.6,-89.16,-107.03
10022,53.154137,-1.58013,161.43,12.04,4,138.57,18 / 19,2474814,2019-11-06 16:47:35:276,-0.4936,-1.6233,10.3571,0.026,0.0762,9.8063,0.1221,-0.5727,0.2943,-36.81,-40.19,34.0,37.55,-89.41,-95.32
10023,53.154137,-1.58013,161.43,12.04,4,138.57,18 / 20,2474914,2019-11-06 16:47:35:376,-1.3518,-1.1757,9.8084,0.0163,0.0225,9.8066,0.0752,0.0101,-0.0231,-26.37,-36.56,52.06,41.1,-89.21,-112.67
10024,53.154137,-1.58013,161.43,12.04,4,138.57,18 / 20,2475013,2019-11-06 16:47:35:475,-3.6015,-2.8361,9.93,0.0502,0.0568,9.8063,-0.003,-0.5498,0.2697,-20.81,-35.19,32.75,37.01,-89.53,-110.78
10025,53.154137,-1.58013,161.43,12.04,4,138.57,18 / 20,2475113,2019-11-06 16:47:35:575,3.6461,3.596,9.4995,0.0096,0.0061,9.8066,-0.0068,0.0194,-0.0425,-21.31,-36.62,27.88,34.6,-89.4,-108.89
10026,53.154137,-1.58013,161.43,12.04,4,138.57,18 / 20,2475213,2019-11-06 16:47:35:675,-0.1813,0.0806,10.1313,0.0525,0.0551,9.8063,0.0778,-0.4097,0.2051,-21.25,-37.12,27.38,23.28,-89.49,-119.06
10027,53.154137,-1.58013,161.43,12.04,4,138.57,18 / 20,2475314,2019-11-06 16:47:35:776,2.8593,1.8356,10.3574,-0.0261,0.0181,9.8065,0.0528,0.1951,-0.0708,-20.94,-36.5,26.69,23.79,-89.38,-118.6
10028,53.154137,-1.58013,161.43,12.04,4,138.57,18 / 20,2475414,2019-11-06 16:47:35:876,-1.8891,-0.9767,9.8581,0.0369,0.0317,9.8065,0.0578,-0.3177,0.1017,-21.06,-36.75,27.94,29.13,-89.49,-114.26
10029,53.154137,-1.58013,161.43,12.04,4,138.57,18 / 20,2475514,2019-11-06 16:47:35:976,0.2262,0.4435,9.8252,-0.0002,0.0085,9.8066,-0.016,0.0575,-0.002,-20.19,-35.0,32.06,30.89,-89.43,-117.38
10030,53.154137,-1.58013,161.43,12.04,4,138.57,18 / 20,2475614,2019-11-06 16:47:36:076,1.0191,0.0662,10.1206,0.0062,0.0171,9.8066,-0.0162,-0.0029,0.1332,-23.56,-36.62,51.19,43.97,-89.38,-111.11
10031,53.154137,-1.58013,161.43,12.04,4,138.57,18 / 20,2475714,2019-11-06 16:47:36:176,2.1814,1.061,9.65,0.0286,0.007,9.8066,-0.0344,-0.1117,0.035,-38.31,-40.19,35.25,22.71,-89.25,-110.16
10032,53.154137,-1.58013,161.43,12.04,4,138.57,18 / 20,2475814,2019-11-06 16:47:36:276,-1.1507,0.332,9.5694,0.018,0.0028,9.8066,0.0323,-0.1348,0.0525,-23.75,-37.37,26.81,9.25,-89.19,-129.25
10033,53.154137,-1.58013,161.43,12.04,4,138.57,17 / 19,2475914,2019-11-06 16:47:36:376,0.2453,0.0759,9.4749,-0.0005,0.037,9.8066,-0.0054,-0.2003,0.1345,-22.94,-36.75,25.81,10.93,-89.09,-127.76
10034,53.154137,-1.58013,161.43,12.04,4,138.57,17 / 19,2476013,2019-11-06 16:47:36:475,0.164,-1.7506,9.6849,0.0019,0.0109,9.8066,-0.0329,-0.1313,0.0786,-23.56,-37.12,25.69,22.1,-89.14,-115.53
10035,53.154137,-1.58013,161.43,12.04,4,138.57,17 / 19,2476113,2019-11-06 16:47:36:575,-0.8429,-0.944,9.9537,0.0199,-0.0254,9.8065,-0.0152,0.1597,-0.0378,-24.44,-37.12,25.0,24.35,-89.05,-112.24
10036,53.154137,-1.58013,161.43,12.04,4,138.57,17 / 19,2476214,2019-11-06 16:47:36:676,-1.6365,-0.2506,10.3241,-0.0337,0.0016,9.8066,0.1291,0.0134,-0.096,-37.37,-41.25,34.5,13.4,-88.92,-120.21
10037,53.154137,-1.58013,161.43,12.04,4,138.57,17 / 19,2476313,2019-11-06 16:47:36:775,0.7879,0.507,8.8635,-0.042,0.0289,9.8065,0.0789,0.0245,-0.1737,-24.56,-36.81,52.88,32.65,-88.99,-122.45
10038,53.154137,-1.58013,161.43,12.04,4,138.57,17 / 19,2476413,2019-11-06 16:47:36:875,0.1768,-1.5436,10.469,0.0197,0.0164,9.8065,0.0566,-0.1832,0.0999,-20.81,-35.19,32.94,33.63,-89.11,-114.34
10039,53.154137,-1.58013,161.43,12.04,4,138.57,17 / 19,2476513,2019-11-06 16:47:36:975,-0.794,-1.5868,9.2107,0.0308,0.0212,9.8065,0.0143,-0.2924,0.1786,-20.94,-36.5,28.0,19.37,-89.15,-124.05
10040,53.154137,-1.58013,161.43,12.04,4,138.57,17 / 19,2476614,2019-11-06 16:47:37:076,1.4386,-0.7627,10.1377,-0.019,0.0069,9.8065,0.0186,-0.0079,0.0361,-21.5,-36.5,27.63,28.3,-88.98,-115.34
10041,53.154137,-1.58013,161.43,12.04,4,138.57,17 / 19,2476714,2019-11-06 16:47:37:176,2.1711,-1.0856,9.3124,0.0076,0.012,9.8066,0.1734,-0.2151,0.1641,-21.62,-36.69,27.06,29.91,-88.82,-111.54
10042,53.154137,-1.58013,161.43,12.04,4,138.57,17 / 19,2476814,2019-11-06 16:47:37:276,2.5729,1.7568,9.3446,-0.0154,-0.0679,9.8063,-0.0405,0.2859,-0.1319,-21.0,-36.56,28.31,18.83,-88.48,-124.82
10043,53.154137,-1.58013,161.43,12.04,4,138.57,17 / 18,2476914,2019-11-06 16:47:37:376,-0.5732,-1.8546,10.6318,-0.0017,-0.0029,9.8066,-0.0755,-0.2124,0.088,-21.12,-35.12,31.94,21.54,-88.48,-125.71
10044,53.154137,-1.58013,161.43,12.04,4,138.57,17 / 18,2477014,2019-11-06 16:47:37:476,0.1707,-1.9749,10.7843,-0.0282,-0.0189,9.8066,0.1049,0.19,-0.1073,-21.31,-34.94,48.25,35.36,-88.33,-121.67
10045,53.154137,-1.58013,161.43,12.04,4,138.57,17 / 18,2477114,2019-11-06 16:47:37:576,-0.8817,-1.9843,11.5736,-0.0062,0.0045,9.8066,0.1261,-0.111,0.0138,-32.81,-38.87,30.69,6.82,-88.26,-126.57
10046,53.154137,-1.58013,161.43,12.04,4,138.57,17 / 18,2477214,2019-11-06 16:47:37:676,1.4771,1.5203,8.4227,-0.0084,-0.0109,9.8065,-0.1197,0.2264,-0.1347,-25.56,-37.87,26.13,6.89,-88.31,-128.32
10047,53.154137,-1.58013,161.43,12.04,4,138.57,17 / 18,2477314,2019-11-06 16:47:37:776,-0.2042,-0.4034,10.5406,-0.0112,-0.0027,9.8066,-0.0545,-0.1195,-0.0035,-23.75,-37.62,26.25,13.43,-88.52,-124.24
10048,53.154137,-1.58013,161.43,12.04,4,138.57,17 / 18,2477414,2019-11-06 16:47:37:876,0.2132,0.2737,10.0494,-0.0017,0.021,9.8066,-0.0903,-0.0201,0.0671,-23.25,-36.81,25.94,25.63,-88.75,-113.46
10049,53.154137,-1.58013,161.43,12.04,4,138.57,17 / 18,2477514,2019-11-06 16:47:37:976,-1.6697,0.501,10.0546,0.001,-0.0132,9.8066,-0.0094,-0.0757,0.0688,-25.0,-37.31,26.19,34.14,-88.6,-102.8
10050,53.154137,-1.58013,161.43,12.04,4,138.57,17 / 18,2477614,2019-11-06 16:47:38:076,-0.6286,-2.2843,9.7596,-0.0048,-0.0431,9.8065,-0.0085,0.0517,0.018,-34.12,-38.94,29.94,22.49,-88.24,-109.52
10051,53.154137,-1.58013,161.43,12.04,4,138.57,17 / 18,2477713,2019-11-06 16:47:38:175,-2.9711,-3.8778,10.0478,-0.0058,-0.0303,9.8065,0.0528,-0.2511,0.124,-22.94,-34.62,49.0,40.48,-88.1,-115.18
10052,53.154137,-1.58013,161.43,12.04,4,138.57,17 / 18,2477813,2019-11-06 16:47:38:275,3.5086,2.0931,10.0747,-0.0417,-0.0071,9.8065,0.0991,0.5242,-0.1829,-21.5,-34.19,32.5,35.36,-87.96,-113.21
10053,53.154137,-1.58013,161.43,12.04,4,138.57,17 / 18,2477913,2019-11-06 16:47:38:375,-3.7761,0.2136,8.5401,-0.0689,0.0305,9.8063,0.1134,0.1205,-0.1277,-21.56,-35.44,28.44,29.52,-88.09,-113.26
10054,53.154137,-1.58013,161.43,12.04,4,138.57,17 / 18,2478013,2019-11-06 16:47:38:475,-1.9012,2.2729,9.3195,-0.0198,-0.0321,9.8065,-0.1791,0.2938,-0.1728,-21.81,-36.12,27.0,40.12,-88.3,-101.85
10055,53.154137,-1.58013,161.43,12.04,4,138.57,17 / 18,2478114,2019-11-06 16:47:38:576,-0.7932,-2.1055,11.8334,0.0061,-0.0508,9.8065,-0.0251,0.1233,-0.0512,-21.69,-36.56,27.19,43.45,-88.39,-98.56
10056,53.154137,-1.58013,161.43,12.04,4,138.57,17 / 18,2478214,2019-11-06 16:47:38:676,1.5187,0.2235,9.5752,0.0104,-0.0321,9.8065,0.0124,0.2099,-0.1155,-21.25,-35.94,28.06,33.76,-88.21,-110.4
10057,53.154137,-1.58013,161.43,12.04,4,138.57,17 / 18,2478314,2019-11-06 16:47:38:776,0.916,0.1236,9.8681,0.0038,-0.01,9.8066,0.0443,0.3604,-0.239,-20.75,-34.75,33.06,24.47,-88.29,-123.7
10058,53.154137,-1.58013,161.43,12.04,4,138.57,17 / 18,2478414,2019-11-06 16:47:38:876,1.8772,-0.9858,9.3181,0.0279,-0.0098,9.8065,0.0305,0.1991,-0.2209,-23.44,-36.12,52.63,8.91,-88.5,-147.78
10059,53.154137,-1.58013,161.43,12.04,4,138.57,17 / 18,2478514,2019-11-06 16:47:38:976,-1.6242,-0.2942,7.7102,-0.05,0.0206,9.8065,-0.0036,0.0661,-0.0767,-38.25,-39.37,36.25,321.86,-88.39,-170.84
10060,53.154137,-1.58013,161.43,12.04,4,138.57,17 / 18,2478614,2019-11-06 16:47:39:076,0.5012,2.3622,7.8862,-0.0476,0.0049,9.8065,-0.2431,0.1832,-0.0739,-23.94,-37.31,25.75,334.84,-89.05,-162.02
10061,53.154137,-1.58013,161.43,12.04,4,138.57,17 / 18,2478714,2019-11-06 16:47:39:176,-2.6269,0.5325,8.2329,-0.036,0.0113,9.8066,-0.0172,-0.0912,0.1782,-22.69,-37.19,25.31,8.36,-89.48,-129.11
10062,53.154137,-1.58013,161.43,12.04,4,138.57,17 / 18,2478814,2019-11-06 16:47:39:276,0.4457,-0.9078,9.7641,-0.0599,-0.0437,9.8064,0.0312,0.2513,-0.154,-22.94,-37.5,25.69,42.56,-88.99,-96.68
10063,53.154137,-1.58013,161.43,12.04,4,138.57,17 / 17,2478914,2019-11-06 16:47:39:376,-0.6307,-3.4827,11.6141,-0.0116,-0.0115,9.8066,0.1268,-0.0112,-0.0248,-25.62,-37.87,25.75,32.56,-88.91,-103.06
10064,53.154137,-1.58013,161.43,12.04,4,138.57,17 / 17,2479013,2019-11-06 16:47:39:475,1.4811,3.5097,9.8463,0.0217,-0.0401,9.8065,-0.0509,0.4128,-0.2018,-39.31,-40.94,35.75,13.68,-88.98,-119.22
10065,53.154137,-1.58013,161.43,12.04,4,138.57,17 / 17,2479113,2019-11-06 16:47:39:575,2.1259,0.6474,9.7105,0.0253,0.0031,9.8066,0.1531,-0.4909,0.2141,-24.31,-35.5,52.0,25.77,-88.99,-129.72
10066,53.154137,-1.58013,161.43,12.04,4,138.57,17 / 17,2479214,2019-11-06 16:47:39:676,1.0205,1.9793,9.2476,-0.0071,-0.0194,9.8066,-0.1608,0.1626,-0.0373,-21.69,-36.06,32.0,9.78,-88.93,-135.89
10067,53.154137,-1.58013,161.43,12.04,4,138.57,17 / 17,2479314,2019-11-06 16:47:39:776,-3.5414,-3.5424,10.7153,-0.0193,-0.04,9.8065,-0.041,0.1788,-0.1057,-21.69,-37.87,27.44,14.9,-89.07,-126.18
10068,53.154137,-1.58013,161.43,12.04,4,138.57,17 / 17,2479414,2019-11-06 16:47:39:876,-0.4233,-0.7631,9.8435,-0.0334,-0.0797,9.8062,0.0453,0.4362,-0.1391,-22.12,-37.75,28.31,14.04,-88.9,-128.09
10069,53.154137,-1.58013,161.43,12.04,4,138.57,17 / 17,2479513,2019-11-06 16:47:39:975,-3.2653,-1.1487,8.7024,0.0427,-0.0015,9.8066,-0.176,-0.029,0.1953,-21.94,-36.94,28.5,16.08,-88.85,-127.06
10070,53.154137,-1.58013,161.43,12.04,4,138.57,17 / 17,2479613,2019-11-06 16:47:40:075,4.9036,1.467,10.7012,-0.0976,-0.0368,9.806,0.1155,0.5486,-0.3678,-20.62,-36.5,28.88,25.99,-88.74,-118.66
10071,53.154137,-1.58013,161.43,12.04,4,138.57,17 / 17,2479713,2019-11-06 16:47:40:175,-2.1957,-0.0015,9.1675,-0.0641,0.023,9.8064,0.1331,-0.0441,-0.0841,-20.69,-35.06,32.56,20.44,-89.07,-127.38
10072,53.154137,-1.58013,161.43,12.04,4,138.57,17 / 17,2479813,2019-11-06 16:47:40:275,2.7142,1.4364,10.3492,-0.0244,-0.0596,9.8064,-0.1695,0.4002,-0.158,-25.62,-36.81,52.5,41.81,-88.99,-112.49
10073,53.15336,-1.578935,162.18,13.68,4,138.32,18 / 18,2479913,2019-11-06 16:47:40:375,1.6954,0.3489,10.8471,0.0414,0.0007,9.8065,-0.1412,-0.2461,0.2247,-37.0,-39.5,33.69,30.27,-89.06,-102.68
10074,53.15336,-1.578935,162.18,13.68,4,138.32,18 / 18,2480014,2019-11-06 16:47:40:476,2.0419,-1.0211,10.8369,-0.0357,-0.0286,9.8065,0.1185,0.0811,-0.0039,-24.69,-37.62,25.69,30.55,-88.96,-106.14
10075,53.15336,-1.578935,162.18,13.68,4,138.32,18 / 18,2480114,2019-11-06 16:47:40:576,2.8773,3.6097,8.6224,0.0147,0.0746,9.8063,0.0527,-0.58,0.3117,-23.25,-37.37,26.19,43.22,-89.26,-95.83
10076,53.15336,-1.578935,162.18,13.68,4,138.32,18 / 18,2480214,2019-11-06 16:47:40:676,1.8466,1.5358,9.7376,-0.0235,0.0151,9.8066,0.1932,-0.2256,0.0948,-22.87,-37.12,25.94,39.76,-88.97,-99.46
10077,53.15336,-1.578935,162.18,13.68,4,138.32,18 / 18,2480313,2019-11-06 16:47:40:775,0.2254,0.9981,9.6385,0.0272,0.0412,9.8065,-0.0042,-0.4212,0.1907,-24.5,-37.37,26.38,33.22,-88.81,-104.76
10078,53.15336,-1.578935,162.18,13.68,4,138.32,18 / 18,2480413,2019-11-06 16:47:40:875,-2.1065,-2.1505,10.3245,0.0062,0.0044,9.8066,0.0231,-0.1648,0.0423,-38.44,-40.81,37.94,28.76,-88.99,-106.61
10079,53.15336,-1.578935,162.18,13.68,4,138.32,18 / 18,2480513,2019-11-06 16:47:40:975,0.0004,-0.584,10.0588,0.0375,0.0587,9.8063,0.0241,-0.4218,0.1682,-23.94,-35.0,50.06,51.64,-89.01,-103.22
10080,53.15336,-1.578935,162.18,13.68,4,138.32,18 / 18,2480613,2019-11-06 16:47:41:075,-3.6003,-2.8854,10.1821,0.0402,0.0353,9.8065,0.0272,-0.5448,0.316,-21.19,-34.69,32.31,58.16,-89.42,-89.02
10081,53.15336,-1.578935,162.18,13.68,4,138.32,18 / 18,2480713,2019-11-06 16:47:41:175,3.3665,1.6638,9.7209,0.0458,0.0297,9.8065,0.0421,-0.3145,0.1988,-21.12,-35.56,28.0,47.53,-89.48,-95.99
10082,53.15336,-1.578935,162.18,13.68,4,138.32,18 / 18,2480814,2019-11-06 16:47:41:276,0.9401,0.4916,9.9761,0.0294,0.0289,9.8065,0.0766,-0.358,0.2428,-21.37,-35.69,27.06,41.57,-89.33,-101.03
10083,53.15336,-1.578935,162.18,13.68,4,138.32,18 / 19,2480914,2019-11-06 16:47:41:376,4.683,0.7834,9.2837,0.0619,0.0427,9.8064,-0.0685,-0.3088,0.1864,-21.37,-36.62,26.25,41.08,-89.11,-100.64
10084,53.15336,-1.578935,162.18,13.68,4,138.32,18 / 19,2481013,2019-11-06 16:47:41:475,-0.8736,-3.3409,9.7909,0.0389,0.0268,9.8064,0.043,-0.4207,0.2856,-21.5,-35.94,28.38,35.76,-89.45,-107.71
10085,53.15336,-1.578935,162.18,13.68,4,138.32,18 / 19,2481113,2019-11-06 16:47:41:575,1.9073,-0.6396,9.3706,0.0242,0.0218,9.8065,0.0835,-0.1475,0.1119,-20.31,-34.75,31.81,39.88,-89.19,-108.6
10086,53.15336,-1.578935,162.18,13.68,4,138.32,18 / 19,2481213,2019-11-06 16:47:41:675,-3.298,-1.0679,10.0852,0.0247,0.0296,9.8065,0.0501,-0.4383,0.1462,-22.75,-36.06,50.69,38.58,-89.29,-117.43
10087,53.15336,-1.578935,162.18,13.68,4,138.32,18 / 19,2481313,2019-11-06 16:47:41:775,0.925,2.0636,9.9063,-0.008,0.0308,9.8066,-0.0359,-0.1482,0.0313,-32.25,-38.25,28.31,21.13,-89.31,-110.28
10088,53.15336,-1.578935,162.18,13.68,4,138.32,18 / 19,2481413,2019-11-06 16:47:41:875,-0.7568,-2.0467,11.0784,0.0451,0.05,9.8064,0.1039,-0.5121,0.3319,-24.75,-37.0,25.5,21.0,-89.35,-115.36
10089,53.15336,-1.578935,162.18,13.68,4,138.32,18 / 19,2481514,2019-11-06 16:47:41:976,0.8054,2.8703,9.0217,0.0319,0.0258,9.8065,0.058,-0.0725,0.1361,-23.62,-36.5,25.31,21.14,-89.02,-115.4
10090,53.15336,-1.578935,162.18,13.68,4,138.32,18 / 19,2481613,2019-11-06 16:47:42:075,-0.1686,-0.9047,11.1188,0.008,0.0171,9.8065,0.0501,-0.2142,0.1049,-23.5,-36.87,25.81,12.11,-89.01,-126.61
10091,53.15336,-1.578935,162.18,13.68,4,138.32,18 / 19,2481713,2019-11-06 16:47:42:175,0.1486,0.6418,9.603,-0.0133,-0.018,9.8065,-0.0197,0.1029,-0.0674,-25.56,-37.87,25.5,10.54,-88.97,-124.66
10092,53.15336,-1.578935,162.18,13.68,4,138.32,18 / 19,2481813,2019-11-06 16:47:42:275,-0.1515,-0.0592,8.9733,0.0033,0.0036,9.8066,-0.0711,-0.0508,-0.0455,-35.37,-39.75,30.25,6.28,-88.9,-124.43
10093,53.15336,-1.578935,162.18,13.68,4,138.32,14 / 18,2481913,2019-11-06 16:47:42:375,-0.5965,-0.81,10.2149,-0.0191,-0.02,9.8065,-0.0352,0.1818,-0.1245,-22.19,-34.75,45.0,37.43,-88.85,-117.01
10094,53.15336,-1.578935,162.18,13.68,4,138.32,14 / 18,2482013,2019-11-06 16:47:42:475,-0.3154,-0.3692,10.6949,0.017,0.0049,9.8066,0.0552,-0.0692,0.0363,-21.25,-35.44,31.63,30.45,-88.91,-116.78
10095,53.15336,-1.578935,162.18,13.68,4,138.32,14 / 18,2482113,2019-11-06 16:47:42:575,1.4473,1.1688,10.2767,0.0041,-0.0053,9.8066,0.1149,-0.1019,0.1106,-20.94,-36.19,28.06,19.85,-88.63,-123.76
10096,53.15336,-1.578935,162.18,13.68,4,138.32,14 / 18,2482213,2019-11-06 16:47:42:675,-0.2402,-1.2759,10.5888,0.0156,-0.0135,9.8066,0.0397,-0.1719,0.0105,-21.75,-36.37,27.06,12.63,-88.28,-128.59
10097,53.15336,-1.578935,162.18,13.68,4,138.32,14 / 18,2482314,2019-11-06 16:47:42:776,2.05,-0.2111,9.8419,-0.0044,-0.0125,9.8066,0.0678,-0.0683,0.0155,-21.5,-36.37,27.38,8.73,-88.29,-133.67
10098,53.15336,-1.578935,162.18,13.68,4,138.32,14 / 18,2482414,2019-11-06 16:47:42:876,0.604,-0.5167,9.2519,0.0014,0.0334,9.8065,-0.0033,-0.0361,0.099,-21.12,-36.0,28.81,12.91,-88.12,-131.61
10099,53.15336,-1.578935,162.18,13.68,4,138.32,14 / 18,2482514,2019-11-06 16:47:42:976,-0.4749,-1.2117,10.201,-0.0205,-0.0186,9.8066,-0.0612,0.1172,-0.0502,-21.56,-34.44,33.81,24.91,-87.89,-122.94
10100,53.15336,-1.578935,162.18,13.68,4,138.32,14 / 18,2482614,2019-11-06 16:47:43:076,-0.6562,0.9069,10.5262,-0.0277,-0.0057,9.8066,0.083,-0.0619,0.0294,-30.31,-37.31,54.69,34.65,-87.85,-117.48
10101,53.15336,-1.578935,162.18,13.68,4,138.32,14 / 18,2482713,2019-11-06 16:47:43:175,0.7353,1.6769,10.1882,-0.0043,-0.0033,9.8066,0.1832,-0.1256,0.0398,-35.06,-38.25,29.69,10.43,-87.57,-120.54
10102,53.15336,-1.578935,162.18,13.68,4,138.32,14 / 18,2482813,2019-11-06 16:47:43:275,1.1134,-0.3453,9.2783,0.0239,0.0114,9.8066,0.0707,-0.2473,0.0906,-25.12,-37.06,25.94,11.52,-87.37,-125.16
10103,53.15336,-1.578935,162.18,13.68,4,138.32,15 / 17,2482914,2019-11-06 16:47:43:376,-0.6284,-0.8144,9.6983,0.0052,-0.0023,9.8066,-0.0398,0.136,0.0262,-23.94,-36.56,26.25,11.06,-87.18,-126.81
10104,53.15336,-1.578935,162.18,13.68,4,138.32,15 / 17,2483014,2019-11-06 16:47:43:476,0.2749,0.8069,10.4007,-0.0028,0.0143,9.8066,-0.0669,0.1444,-0.137,-24.56,-36.44,26.25,12.04,-87.3,-124.66
10105,53.15336,-1.578935,162.18,13.68,4,138.32,15 / 17,2483114,2019-11-06 16:47:43:576,-0.1258,1.6009,9.0704,0.0278,-0.0237,9.8066,-0.047,-0.0559,0.1708,-26.44,-37.25,26.31,6.11,-87.13,-129.21
10106,53.15336,-1.578935,162.18,13.68,4,138.32,15 / 17,2483214,2019-11-06 16:47:43:676,2.6116,-0.7778,9.6867,-0.0101,-0.0113,9.8066,-0.0068,0.0483,-0.1162,-41.5,-40.69,44.19,8.08,-87.12,-129.23
10107,53.15336,-1.578935,162.18,13.68,4,138.32,15 / 17,2483314,2019-11-06 16:47:43:776,1.2434,0.677,10.7472,-0.0244,0.0282,9.8065,-0.1095,0.2535,-0.1875,-23.19,-34.44,45.25,29.14,-87.03,-124.8
10108,53.15336,-1.578935,162.18,13.68,4,138.32,15 / 17,2483413,2019-11-06 16:47:43:875,-0.6682,2.2576,10.2013,0.0105,0.0204,9.8066,-0.0266,0.1578,-0.0446,-22.25,-35.06,31.31,18.25,-87.1,-127.24
10109,53.15336,-1.578935,162.18,13.68,4,138.32,15 / 17,2483513,2019-11-06 16:47:43:975,-0.3527,-1.7026,10.1494,0.0207,-0.0195,9.8066,-0.0094,0.2191,-0.1714,-22.0,-36.0,28.13,10.21,-86.99,-132.19
10110,53.15336,-1.578935,162.18,13.68,4,138.32,15 / 17,2483613,2019-11-06 16:47:44:075,-0.5674,0.3881,9.1157,0.0073,0.0284,9.8065,-0.0377,0.1497,-0.0308,-22.69,-35.69,27.38,8.04,-86.97,-131.98
10111,53.15336,-1.578935,162.18,13.68,4,138.32,15 / 17,2483713,2019-11-06 16:47:44:175,-0.2824,0.2528,10.9259,-0.0105,0.0039,9.8066,-0.0387,0.2319,-0.1754,-22.5,-36.0,27.56,11.01,-86.99,-131.43
10112,53.15336,-1.578935,162.18,13.68,4,138.32,15 / 17,2483814,2019-11-06 16:47:44:276,1.4554,1.3004,9.8801,0.0281,0.0142,9.8066,0.0071,0.0379,-0.0204,-21.62,-35.75,29.31,7.4,-86.99,-135.81
10113,53.15336,-1.578935,162.18,13.68,4,138.32,16 / 18,2483914,2019-11-06 16:47:44:376,1.7451,0.0363,10.2647,0.0223,-0.0029,9.8065,0.1118,0.2437,-0.1802,-22.62,-34.69,35.06,8.83,-86.94,-138.26
10114,53.15336,-1.578935,162.18,13.68,4,138.32,16 / 18,2484014,2019-11-06 16:47:44:476,-0.2675,0.8579,8.906,0.0239,-0.0237,9.8065,-0.0882,0.1647,-0.0996,-30.87,-38.19,55.44,4.99,-86.92,-145.77
10115,53.15336,-1.578935,162.18,13.68,4,138.32,16 / 18,2484113,2019-11-06 16:47:44:575,-1.829,-0.4759,11.1526,0.004,-0.0248,9.8066,-0.1116,0.1658,-0.042,-30.25,-38.06,26.5,345.06,-86.92,-146.16
10116,53.15336,-1.578935,162.18,13.68,4,138.32,16 / 18,2484214,2019-11-06 16:47:44:676,-0.2717,1.4356,9.9267,-0.0018,0.0069,9.8066,0.0638,0.0265,-0.0135,-24.94,-37.0,25.88,349.64,-87.17,-145.95
10117,53.15336,-1.578935,162.18,13.68,4,138.32,16 / 18,2484314,2019-11-06 16:47:44:776,0.4283,0.5485,10.1386,0.0023,-0.0054,9.8066,0.1223,0.1465,0.0,-24.31,-37.0,26.0,349.83,-87.0,-146.9
10118,53.15336,-1.578935,162.18,13.68,4,138.32,16 / 18,2484414,2019-11-06 16:47:44:876,0.9497,0.9665,9.496,0.0038,-0.0308,9.8066,-0.0381,0.1711,-0.1394,-24.62,-37.06,26.69,345.41,-86.62,-150.91
10119,53.15336,-1.578935,162.18,13.68,4,138.32,16 / 18,2484514,2019-11-06 16:47:44:976,-2.4934,0.617,10.1431,-0.0242,-0.0011,9.8066,-0.0801,0.12,-0.0489,-26.81,-37.06,26.38,340.15,-86.78,-152.66
10120,53.15336,-1.578935,162.18,13.68,4,138.32,16 / 18,2484614,2019-11-06 16:47:45:076,-0.6849,2.8326,9.8462,-0.0219,0.0008,9.8066,-0.0536,0.1874,-0.1007,-40.12,-40.5,38.94,344.88,-87.03,-148.82
10121,53.15336,-1.578935,162.18,13.68,4,138.32,16 / 18,2484713,2019-11-06 16:47:45:175,0.6935,-0.2111,9.7154,0.0175,0.0292,9.8066,0.0494,-0.2302,0.1086,-22.31,-33.19,39.69,1.05,-87.36,-150.18
10122,53.15336,-1.578935,162.18,13.68,4,138.32,16 / 18,2484814,2019-11-06 16:47:45:276,-0.5349,-0.3015,9.633,0.0073,-0.0038,9.8066,0.0241,0.0165,0.0044,-22.25,-35.06,31.25,354.78,-87.32,-149.63
10123,53.15336,-1.578935,162.18,13.68,4,138.32,16 / 18,2484914,2019-11-06 16:47:45:376,-1.6667,0.2222,9.6546,0.016,0.0035,9.8066,-0.0516,-0.0864,0.0927,-22.0,-35.56,28.81,352.33,-87.3,-150.12
10124,53.15336,-1.578935,162.18,13.68,4,138.32,16 / 18,2485013,2019-11-06 16:47:45:475,1.3896,1.0187,10.1403,-0.0372,0.0057,9.8065,0.0466,0.1495,-0.0871,-22.12,-35.87,27.69,354.53,-87.41,-147.06
10125,53.15336,-1.578935,162.18,13.68,4,138.32,16 / 18,2485113,2019-11-06 16:47:45:575,-0.6571,0.4089,8.6583,-0.0238,0.0003,9.8066,0.048,-0.0273,-0.0812,-22.0,-36.19,26.69,357.36,-87.56,-143.35
10126,53.15336,-1.578935,162.18,13.68,4,138.32,16 / 18,2485214,2019-11-06 16:47:45:676,0.7635,0.0298,8.7816,0.0063,-0.0074,9.8065,0.0537,-0.014,0.0105,-21.94,-35.5,27.94,354.34,-87.48,-147.26
10127,53.15336,-1.578935,162.18,13.68,4,138.32,16 / 18,2485314,2019-11-06 16:47:45:776,0.0877,0.2094,11.086,0.0049,-0.0122,9.8066,-0.0163,0.058,-0.0613,-21.62,-35.19,33.06,355.89,-87.35,-150.24
10128,53.15336,-1.578935,162.18,13.68,4,138.32,16 / 18,2485414,2019-11-06 16:47:45:876,-1.1097,1.6744,9.4097,0.0235,0.0085,9.8066,-0.066,-0.0308,0.1101,-36.5,-40.06,53.31,352.75,-87.44,-152.86
10129,53.15336,-1.578935,162.18,13.68,4,138.32,16 / 18,2485514,2019-11-06 16:47:45:976,-0.4972,-0.0615,9.9242,0.0097,0.02,9.8066,0.0046,-0.0334,0.0499,-30.5,-38.44,27.0,341.19,-87.48,-150.02
10130,53.15336,-1.578935,162.18,13.68,4,138.32,16 / 18,2485614,2019-11-06 16:47:46:076,-1.1485,-0.0886,9.5999,-0.005,0.0205,9.8065,-0.0896,-0.1151,0.0333,-25.31,-36.81,25.75,343.75,-87.73,-151.71
10131,53.15336,-1.578935,162.18,13.68,4,138.32,16 / 18,2485715,2019-11-06 16:47:46:177,0.1632,-0.0469,10.0058,0.0251,-0.0033,9.8065,0.0129,0.1102,0.0025,-24.25,-36.87,25.56,342.34,-87.8,-154.24
10132,53.15336,-1.578935,162.18,13.68,4,138.32,16 / 18,2485814,2019-11-06 16:47:46:276,-0.4187,-0.7094,9.8325,0.0241,-0.0089,9.8065,-0.0006,0.003,-0.0231,-24.06,-37.5,25.06,336.83,-87.71,-158.36
10133,53.15336,-1.578935,162.18,13.68,4,138.32,15 / 18,2485914,2019-11-06 16:47:46:376,1.0589,2.7373,9.2884,0.0109,-0.0193,9.8066,-0.0502,0.3398,-0.159,-25.81,-37.81,25.69,331.73,-87.77,-162.16
10134,53.15336,-1.578935,162.18,13.68,4,138.32,15 / 18,2486015,2019-11-06 16:47:46:477,-1.2705,0.9124,10.5749,0.0214,0.0069,9.8066,0.1023,0.0144,-0.024,-38.56,-39.87,49.38,332.82,-87.62,-167.95
10135,53.15336,-1.578935,162.18,13.68,4,138.32,15 / 18,2486113,2019-11-06 16:47:46:575,-2.4643,-1.2161,9.2779,-0.0212,-0.0284,9.8066,0.0702,0.4597,-0.2472,-21.75,-34.19,41.0,337.88,-87.34,-173.15
10136,53.15336,-1.578935,162.18,13.68,4,138.32,15 / 18,2486213,2019-11-06 16:47:46:675,-0.9493,-0.6291,9.3672,0.0091,-0.0326,9.8065,-0.024,0.2965,-0.253,-21.56,-35.44,30.88,328.32,-86.97,-174.82
10137,53.15336,-1.578935,162.18,13.68,4,138.32,15 / 18,2486314,2019-11-06 16:47:46:776,-1.8439,-1.26,10.2218,-0.0171,-0.0459,9.8064,-0.0622,0.4534,-0.2361,-21.0,-36.62,27.19,322.02,-86.74,-177.89
10138,53.15336,-1.578935,162.18,13.68,4,138.32,15 / 18,2486416,2019-11-06 16:47:46:878,4.0191,2.3308,8.949,-0.0104,-0.0288,9.8065,-0.0292,0.5741,-0.2534,-22.25,-37.25,26.75,317.64,-86.67,179.25
10139,53.15336,-1.578935,162.18,13.68,4,138.32,15 / 18,2486513,2019-11-06 16:47:46:975,-0.1103,-1.7257,9.0548,0.0106,-0.0554,9.8064,-0.145,0.3636,-0.1012,-21.25,-36.44,27.06,314.71,-86.57,175.2
10140,53.15336,-1.578935,162.18,13.68,4,138.32,15 / 18,2486613,2019-11-06 16:47:47:075,2.8078,4.5778,10.3997,-0.049,-0.0261,9.8065,0.0315,0.7243,-0.2696,-21.31,-36.0,28.75,318.89,-86.43,177.21
10141,53.15336,-1.578935,162.18,13.68,4,138.32,15 / 18,2486713,2019-11-06 16:47:47:175,-3.8355,-1.0006,9.4195,-0.0475,0.0,9.8065,-0.04,0.2703,-0.0999,-21.25,-34.62,34.44,319.47,-86.51,173.21
10142,53.15336,-1.578935,162.18,13.68,4,138.32,15 / 18,2486813,2019-11-06 16:47:47:275,2.7171,2.4956,9.0967,-0.0701,-0.0302,9.8063,0.0021,0.6635,-0.3538,-33.12,-40.06,53.25,321.91,-86.79,175.13
10143,53.15336,-1.578935,162.18,13.68,4,138.32,15 / 17,2486916,2019-11-06 16:47:47:378,-1.5634,-3.3291,10.1626,-0.0119,-0.008,9.8066,-0.0333,-0.1346,0.0068,-28.31,-38.5,26.13,300.37,-86.8,170.28
10144,53.15336,-1.578935,162.18,13.68,4,138.32,15 / 17,2487014,2019-11-06 16:47:47:476,-1.4332,0.0133,9.9911,-0.0274,-0.0298,9.8065,-0.0787,0.4771,-0.1949,-25.06,-37.56,25.0,301.49,-86.96,169.32
10145,53.15336,-1.578935,162.18,13.68,4,138.32,15 / 17,2487114,2019-11-06 16:47:47:576,-3.2288,-3.402,10.1951,0.0075,0.0472,9.8065,0.0652,-0.3562,0.1776,-23.25,-38.12,25.06,299.09,-87.05,164.62
10146,53.15336,-1.578935,162.18,13.68,4,138.32,15 / 17,2487214,2019-11-06 16:47:47:676,1.0348,1.1826,9.0026,-0.0257,-0.0177,9.8065,-0.0996,0.1701,-0.1328,-24.12,-37.69,24.31,289.92,-87.16,157.94
10147,53.15336,-1.578935,162.18,13.68,4,138.32,15 / 17,2487314,2019-11-06 16:47:47:776,3.6994,4.3323,9.1298,0.0352,0.0792,9.8062,0.0395,-0.6465,0.3604,-26.87,-38.56,24.44,281.21,-87.27,152.49
10148,53.15336,-1.578935,162.18,13.68,4,138.32,15 / 17,2487414,2019-11-06 16:47:47:876,4.1476,3.7123,8.9634,-0.0267,0.0177,9.8066,-0.011,-0.0185,0.0285,-39.25,-40.87,42.63,279.54,-87.37,143.59
10149,53.15336,-1.578935,162.18,13.68,4,138.32,15 / 17,2487514,2019-11-06 16:47:47:976,2.4029,1.2853,9.7334,0.0606,0.0446,9.8063,0.0791,-0.6878,0.2892,-20.5,-34.94,36.5,284.89,-87.11,135.63
10150,53.15336,-1.578935,162.18,13.68,4,138.32,15 / 17,2487613,2019-11-06 16:47:48:075,-4.2891,-2.1473,9.7423,0.0217,0.0164,9.8066,-0.0362,-0.2855,0.2312,-20.94,-36.69,28.0,278.02,-87.17,137.86
10151,53.15336,-1.578935,162.18,13.68,4,138.32,15 / 17,2487713,2019-11-06 16:47:48:175,-0.3913,-0.6831,9.3684,0.0496,0.0446,9.8064,0.0133,-0.433,0.2871,-21.0,-36.75,25.38,277.01,-87.41,139.96
10152,53.15336,-1.578935,162.18,13.68,4,138.32,15 / 17,2487813,2019-11-06 16:47:48:275,-1.8705,-2.2636,9.8142,0.0095,0.0208,9.8066,0.0479,-0.3673,0.2091,-20.44,-37.12,25.31,275.74,-87.26,137.56
10153,53.15336,-1.578935,162.18,13.68,4,138.32,15 / 17,2487913,2019-11-06 16:47:48:375,2.4299,2.1773,9.7234,0.0258,0.0324,9.8065,0.0368,-0.1816,0.0806,-20.31,-37.44,25.56,278.54,-87.39,139.03
10154,53.15336,-1.578935,162.18,13.68,4,138.32,15 / 17,2488013,2019-11-06 16:47:48:475,-1.5155,-2.4371,10.2924,0.0444,0.0276,9.8065,-0.017,-0.4692,0.2574,-20.19,-36.5,27.25,275.35,-87.24,134.83
10155,53.15336,-1.578935,162.18,13.68,4,138.32,15 / 17,2488113,2019-11-06 16:47:48:575,3.03,3.4513,9.5424,0.0394,0.0188,9.8065,-0.0568,0.0022,0.0409,-20.56,-35.5,32.56,281.37,-87.39,136.15
10156,53.15336,-1.578935,162.18,13.68,4,138.32,15 / 17,2488214,2019-11-06 16:47:48:676,-1.149,-0.4512,9.5908,0.0385,0.05,9.8064,0.0767,-0.4648,0.263,-37.56,-41.06,48.38,270.46,-87.19,130.71
10157,53.15336,-1.578935,162.18,13.68,4,138.32,15 / 17,2488314,2019-11-06 16:47:48:776,1.811,1.3591,9.7464,-0.0012,0.0206,9.8066,-0.0158,0.0362,-0.0351,-28.31,-38.87,24.25,261.11,-87.4,133.23
10158,53.15336,-1.578935,162.18,13.68,4,138.32,15 / 17,2488413,2019-11-06 16:47:48:875,-1.5196,-2.9431,10.0386,0.0163,0.0453,9.8065,0.0609,-0.384,0.1308,-24.0,-37.75,23.13,258.23,-87.38,127.37
10159,53.15336,-1.578935,162.18,13.68,4,138.32,15 / 17,2488514,2019-11-06 16:47:48:976,-1.7392,-1.4955,10.3175,-0.0128,-0.0299,9.8066,0.0022,0.2264,-0.1622,-23.12,-37.81,23.63,265.9,-87.46,132.57
10160,53.15336,-1.578935,162.18,13.68,4,138.32,15 / 17,2488614,2019-11-06 16:47:49:076,-2.5653,-4.7515,10.4727,0.0275,0.0442,9.8064,0.1159,-0.4495,0.166,-23.62,-38.31,24.44,261.58,-87.3,129.56
10161,53.15336,-1.578935,162.18,13.68,4,138.32,15 / 17,2488713,2019-11-06 16:47:49:175,1.508,0.9453,9.9659,-0.0041,-0.015,9.8066,0.0158,0.1934,-0.1644,-26.12,-38.75,24.88,263.31,-87.28,132.35
10162,53.15336,-1.578935,162.18,13.68,4,138.32,15 / 17,2488813,2019-11-06 16:47:49:275,1.4468,-0.2883,8.7055,0.0484,0.0423,9.8064,-0.049,-0.2716,0.1973,-35.75,-40.06,51.88,274.22,-87.12,130.74
10163,53.15251,-1.577574,162.27,13.81,4,132.76,16 / 16,2488914,2019-11-06 16:47:49:376,-1.6012,-2.0029,9.967,-0.0116,-0.0323,9.8066,-0.0194,0.2737,-0.1955,-21.19,-34.69,36.44,279.62,-87.14,132.26
10164,53.15251,-1.577574,162.27,13.81,4,132.76,16 / 16,2489014,2019-11-06 16:47:49:476,2.0442,3.1261,8.042,0.0151,0.048,9.8065,0.0968,-0.4443,0.1479,-20.37,-36.56,29.25,274.61,-87.12,132.23
10165,53.15251,-1.577574,162.27,13.81,4,132.76,16 / 16,2489114,2019-11-06 16:47:49:576,1.5305,0.8414,8.6961,-0.0411,-0.0134,9.8065,-0.0993,0.4089,-0.1798,-21.0,-36.62,26.69,273.9,-87.36,134.63
10166,53.15251,-1.577574,162.27,13.81,4,132.76,16 / 16,2489214,2019-11-06 16:47:49:676,-1.3872,-0.9372,10.032,-0.0246,0.0407,9.8065,0.0009,-0.1213,-0.0487,-21.56,-36.06,25.25,262.06,-87.47,126.11
10167,53.15251,-1.577574,162.27,13.81,4,132.76,16 / 16,2489314,2019-11-06 16:47:49:776,-4.1782,-3.6153,9.5512,-0.0231,-0.0265,9.8065,-0.0271,0.5928,-0.4239,-20.75,-36.62,25.38,259.51,-87.39,122.44
10168,53.15251,-1.577574,162.27,13.81,4,132.76,16 / 16,2489414,2019-11-06 16:47:49:876,-5.9432,-2.8037,11.7335,0.0049,-0.007,9.8066,0.1161,-0.1236,-0.0321,-20.06,-36.37,28.44,265.73,-87.2,124.18
10169,53.15251,-1.577574,162.27,13.81,4,132.76,16 / 16,2489514,2019-11-06 16:47:49:976,-2.3437,0.9861,9.5841,-0.062,-0.0319,9.8063,0.047,0.487,-0.3422,-19.75,-35.25,33.75,268.03,-87.13,121.04
10170,53.15251,-1.577574,162.27,13.81,4,132.76,16 / 16,2489614,2019-11-06 16:47:50:076,2.4747,0.1208,11.1637,0.0107,-0.0197,9.8066,0.1198,-0.1328,-0.0571,-33.56,-40.81,52.56,274.17,-87.07,128.76
10171,53.15251,-1.577574,162.27,13.81,4,132.76,16 / 16,2489713,2019-11-06 16:47:50:175,0.7082,0.2039,10.5573,-0.0691,-0.0559,9.8062,0.0056,0.2895,-0.3268,-26.12,-39.75,24.88,267.31,-87.43,136.28
10172,53.15251,-1.577574,162.27,13.81,4,132.76,16 / 16,2489813,2019-11-06 16:47:50:275,-3.211,-0.476,8.285,0.0174,0.0149,9.8066,-0.1945,-0.0705,0.0672,-22.06,-39.12,25.19,264.74,-87.4,129.11
10173,53.15251,-1.577574,162.27,13.81,4,132.76,16 / 16,2489913,2019-11-06 16:47:50:375,-1.709,-4.2548,10.5047,0.0202,-0.0384,9.8065,-0.1101,0.2052,-0.1139,-21.25,-38.31,26.13,261.19,-87.54,122.87
10174,53.15251,-1.577574,162.27,13.81,4,132.76,16 / 16,2490014,2019-11-06 16:47:50:476,0.4252,1.3334,10.2426,-0.0011,0.0042,9.8065,0.1044,0.1312,-0.2599,-21.31,-38.37,25.88,262.62,-87.27,124.62
10175,53.15251,-1.577574,162.27,13.81,4,132.76,16 / 16,2490114,2019-11-06 16:47:50:576,0.3352,0.2705,11.2357,-0.0741,-0.005,9.8064,0.0888,0.2862,-0.3576,-25.5,-38.81,26.75,254.11,-87.27,119.68
10176,53.15251,-1.577574,162.27,13.81,4,132.76,16 / 16,2490213,2019-11-06 16:47:50:675,-1.6868,2.1958,10.06,0.0083,-0.0177,9.8066,-0.0297,0.1538,-0.0317,-34.37,-40.62,51.5,262.75,-86.95,117.92
10177,53.15251,-1.577574,162.27,13.81,4,132.76,16 / 16,2490313,2019-11-06 16:47:50:775,-2.4392,-2.7194,10.9503,-0.0152,-0.0491,9.8064,-0.0541,0.1099,-0.0907,-17.31,-34.87,40.63,276.48,-86.86,121.48
10178,53.15251,-1.577574,162.27,13.81,4,132.76,16 / 16,2490413,2019-11-06 16:47:50:875,-2.9962,-0.5523,9.6721,-0.0176,-0.0132,9.8066,-0.0098,0.0144,-0.0878,-17.94,-35.69,30.25,272.67,-86.93,126.8
10179,53.15251,-1.577574,162.27,13.81,4,132.76,16 / 16,2490513,2019-11-06 16:47:50:975,-2.9094,-0.0254,11.1981,-0.0076,-0.0273,9.8065,-0.0214,-0.005,-0.1022,-17.87,-36.31,28.63,270.45,-86.94,125.51
10180,53.15251,-1.577574,162.27,13.81,4,132.76,16 / 16,2490613,2019-11-06 16:47:51:075,-1.887,-1.8373,12.2011,-0.0178,0.0056,9.8066,0.3619,-0.5254,0.1643,-18.06,-37.25,28.06,269.94,-87.13,125.86
10181,53.15251,-1.577574,162.27,13.81,4,132.76,16 / 16,2490714,2019-11-06 16:47:51:176,1.3269,2.0718,7.0549,-0.0563,-0.0977,9.806,-0.2957,1.273,-0.6533,-17.94,-37.5,29.06,281.81,-87.26,136.56
10182,53.15251,-1.577574,162.27,13.81,4,132.76,16 / 16,2490814,2019-11-06 16:47:51:276,0.8344,0.378,12.0065,-0.041,-0.0916,9.8061,0.2565,0.3825,-0.382,-17.12,-36.5,30.94,280.53,-86.65,132.66
10183,53.15251,-1.577574,162.27,13.81,4,132.76,17 / 19,2490914,2019-11-06 16:47:51:376,-0.329,3.0585,7.8798,-0.0452,0.075,9.8062,0.224,-0.1977,-0.1474,-17.12,-35.0,37.44,281.7,-86.3,129.51
10184,53.15251,-1.577574,162.27,13.81,4,132.76,17 / 19,2491014,2019-11-06 16:47:51:476,-2.5516,-3.3651,9.9778,0.0715,0.052,9.8062,-0.0682,-0.6889,0.3832,-35.56,-41.56,50.0,262.78,-86.33,121.01
10185,53.15251,-1.577574,162.27,13.81,4,132.76,17 / 19,2491114,2019-11-06 16:47:51:576,0.3947,4.4602,9.734,0.0322,0.0432,9.8065,0.0526,-0.1873,0.1139,-23.69,-38.94,27.69,254.72,-86.75,118.62
10186,53.15251,-1.577574,162.27,13.81,4,132.76,17 / 19,2491214,2019-11-06 16:47:51:676,-0.4688,-2.6135,10.3909,0.0513,0.0293,9.8064,0.1238,-0.5314,0.182,-20.12,-37.5,27.44,257.81,-86.42,118.18
10187,53.15251,-1.577574,162.27,13.81,4,132.76,17 / 19,2491314,2019-11-06 16:47:51:776,0.454,3.2383,11.1312,-0.0171,-0.0319,9.8066,-0.0523,0.1537,-0.1553,-19.37,-37.31,27.31,265.32,-86.48,124.39
10188,53.15251,-1.577574,162.27,13.81,4,132.76,17 / 19,2491414,2019-11-06 16:47:51:876,-4.8504,-3.8903,10.8651,0.0462,0.0355,9.8064,0.0741,-0.5479,0.2961,-20.37,-37.81,28.13,263.06,-86.42,122.52
10189,53.15251,-1.577574,162.27,13.81,4,132.76,17 / 19,2491513,2019-11-06 16:47:51:975,-3.7128,-2.8873,9.6162,-0.0149,-0.0261,9.8066,0.1187,0.1925,-0.2545,-23.56,-37.94,29.06,263.89,-86.41,127.1
10190,53.15251,-1.577574,162.27,13.81,4,132.76,17 / 19,2491614,2019-11-06 16:47:52:076,-5.3524,-2.3108,9.0805,0.0659,0.0433,9.8063,0.0005,-0.4468,0.1253,-29.87,-39.06,58.0,275.5,-86.08,125.2
10191,53.15251,-1.577574,162.27,13.81,4,132.76,17 / 19,2491714,2019-11-06 16:47:52:176,1.5202,-0.656,7.8882,0.0011,0.0267,9.8065,-0.1553,0.1366,-0.1378,-16.87,-35.19,38.38,274.07,-86.27,121.32
10192,53.15251,-1.577574,162.27,13.81,4,132.76,17 / 19,2491814,2019-11-06 16:47:52:276,-0.6122,-0.2725,9.9687,0.0183,0.0335,9.8065,-0.0156,-0.1556,-0.0038,-16.37,-36.56,31.88,264.17,-86.21,114.64
10193,53.15251,-1.577574,162.27,13.81,4,132.76,17 / 18,2491914,2019-11-06 16:47:52:376,-1.3868,-3.0414,11.217,-0.0088,0.0021,9.8066,0.2291,-0.2817,0.0324,-15.94,-36.81,30.56,260.31,-86.22,111.55
10194,53.15251,-1.577574,162.27,13.81,4,132.76,17 / 18,2492014,2019-11-06 16:47:52:476,-1.3164,-0.2533,10.2232,0.0111,-0.0066,9.8066,-0.0277,-0.0377,0.025,-15.87,-36.87,31.06,263.98,-86.12,115.38
10195,53.15251,-1.577574,162.27,13.81,4,132.76,17 / 18,2492113,2019-11-06 16:47:52:575,-1.6555,-1.3519,10.7814,0.0242,-0.0103,9.8065,-0.004,-0.1569,0.0709,-15.0,-36.06,30.88,267.58,-86.09,117.48
10196,53.15251,-1.577574,162.27,13.81,4,132.76,17 / 18,2492213,2019-11-06 16:47:52:675,0.2876,-0.4811,10.5343,-0.0353,0.0114,9.8065,0.0432,-0.0253,-0.0898,-14.75,-35.31,33.38,268.46,-86.06,116.71
10197,53.15251,-1.577574,162.27,13.81,4,132.76,17 / 18,2492313,2019-11-06 16:47:52:775,-1.2884,-2.002,9.552,0.0014,0.0138,9.8066,0.0178,-0.0164,0.0307,-14.0,-34.62,42.25,274.49,-86.01,116.08
10198,53.15251,-1.577574,162.27,13.81,4,132.76,17 / 18,2492414,2019-11-06 16:47:52:876,1.6191,0.4111,9.1926,-0.0287,-0.0237,9.8065,-0.0814,0.2321,-0.2027,-32.12,-40.69,54.94,262.53,-86.1,115.2
10199,53.15251,-1.577574,162.27,13.81,4,132.76,17 / 18,2492514,2019-11-06 16:47:52:976,-0.7524,-0.6774,9.4298,-0.0227,-0.0228,9.8065,-0.0552,-0.1028,0.0256,-20.25,-37.69,30.06,257.71,-86.21,115.29
10200,53.15251,-1.577574,162.27,13.81,4,132.76,17 / 18,2492614,2019-11-06 16:47:53:076,-0.9235,-1.2933,10.2027,-0.0066,-0.0086,9.8066,0.0886,-0.1196,0.092,-17.56,-37.12,29.56,262.01,-86.39,116.75
10201,53.15251,-1.577574,162.27,13.81,4,132.76,17 / 18,2492713,2019-11-06 16:47:53:175,0.2548,0.3128,10.0764,-0.0105,0.0078,9.8066,0.0322,-0.1752,0.0927,-17.87,-36.94,29.63,264.28,-86.62,118.8
10202,53.15251,-1.577574,162.27,13.81,4,132.76,17 / 18,2492813,2019-11-06 16:47:53:275,-1.4484,0.5007,10.3758,0.0058,-0.0216,9.8065,-0.0445,-0.0524,0.0877,-18.25,-36.56,29.81,267.18,-86.91,121.4
10203,53.15251,-1.577574,162.27,13.81,4,132.76,16 / 17,2492913,2019-11-06 16:47:53:375,-0.9969,1.2491,9.5783,0.0109,-0.0052,9.8066,-0.1056,-0.1497,0.1221,-23.25,-37.87,30.31,262.39,-87.13,122.72
10204,53.15251,-1.577574,162.27,13.81,4,132.76,16 / 17,2493014,2019-11-06 16:47:53:476,-2.4905,-0.4777,10.1938,-0.03,0.0105,9.8065,0.0349,-0.1923,0.1275,-31.87,-39.31,55.81,272.9,-87.41,124.21
10205,53.15251,-1.577574,162.27,13.81,4,132.76,16 / 17,2493114,2019-11-06 16:47:53:576,-1.2585,-0.5234,10.255,0.0034,0.0239,9.8065,0.0786,-0.2373,0.1592,-16.44,-34.19,38.25,280.68,-87.73,125.36
10206,53.15251,-1.577574,162.27,13.81,4,132.76,16 / 17,2493214,2019-11-06 16:47:53:676,-1.6219,-0.6592,9.2537,-0.0096,0.0054,9.8066,-0.1024,-0.1657,0.0575,-15.5,-35.81,32.69,281.3,-87.95,127.75
10207,53.15251,-1.577574,162.27,13.81,4,132.76,16 / 17,2493314,2019-11-06 16:47:53:776,-1.7938,0.2905,10.1288,-0.0063,-0.0173,9.8066,-0.0445,0.0605,-0.0495,-16.69,-36.31,30.75,275.58,-88.11,126.23
10208,53.15251,-1.577574,162.27,13.81,4,132.76,16 / 17,2493414,2019-11-06 16:47:53:876,-1.1183,-0.8586,9.507,-0.0153,0.0346,9.8065,0.1797,-0.1356,0.0255,-16.31,-36.37,30.44,278.57,-88.21,128.52
10209,53.15251,-1.577574,162.27,13.81,4,132.76,16 / 17,2493515,2019-11-06 16:47:53:977,0.0752,-1.0154,10.6196,-0.0304,-0.0036,9.8065,0.0062,-0.0889,-0.0408,-16.25,-36.62,31.31,284.51,-88.37,133.49
10210,53.15251,-1.577574,162.27,13.81,4,132.76,16 / 17,2493614,2019-11-06 16:47:54:076,-1.7568,-0.318,9.0328,0.0166,-0.0144,9.8066,-0.078,-0.0768,0.1473,-14.94,-35.25,32.88,288.7,-88.44,134.58
10211,53.15251,-1.577574,162.27,13.81,4,132.76,16 / 17,2493714,2019-11-06 16:47:54:176,-0.1573,0.6523,9.16,0.004,-0.0056,9.8065,0.0073,-0.0572,0.054,-15.19,-34.62,40.75,300.21,-88.66,141.25
10212,53.15251,-1.577574,162.27,13.81,4,132.76,16 / 17,2493814,2019-11-06 16:47:54:276,-1.5795,0.0157,10.1492,-0.0184,0.0191,9.8066,0.038,-0.1607,0.0448,-35.44,-41.75,47.63,290.55,-88.73,147.49
10213,53.15251,-1.577574,162.27,13.81,4,132.76,16 / 16,2493920,2019-11-06 16:47:54:382,-1.8036,0.5615,9.7801,-0.0202,-0.0097,9.8066,0.0068,-0.0712,0.0325,-20.37,-38.0,29.56,299.9,-89.0,154.51
10214,53.15251,-1.577574,162.27,13.81,4,132.76,16 / 16,2494014,2019-11-06 16:47:54:476,0.1631,0.3514,9.8342,-0.0196,0.0048,9.8066,-0.0546,-0.0152,0.0302,-18.62,-37.56,29.19,305.55,-89.27,159.44
10215,53.15251,-1.577574,162.27,13.81,4,132.76,16 / 16,2494114,2019-11-06 16:47:54:576,-1.6798,0.1765,9.4387,-0.003,0.0067,9.8066,0.0282,0.0527,0.0852,-17.94,-37.87,29.44,324.25,-89.37,176.49
10216,53.15251,-1.577574,162.27,13.81,4,132.76,16 / 16,2494213,2019-11-06 16:47:54:675,-0.1489,1.706,10.6408,-0.0421,-0.0185,9.8065,0.0321,0.0977,-0.1375,-18.69,-37.87,29.31,339.73,-89.35,-166.79
10217,53.15251,-1.577574,162.27,13.81,4,132.76,16 / 16,2494313,2019-11-06 16:47:54:775,-1.014,-0.1796,10.0245,-0.0319,0.0065,9.8065,0.0356,-0.0395,-0.0012,-23.94,-38.56,30.31,337.2,-89.41,-163.91
10218,53.15251,-1.577574,162.27,13.81,4,132.76,16 / 16,2494413,2019-11-06 16:47:54:875,-0.0317,0.7819,9.7006,-0.0145,-0.0173,9.8066,-0.0111,0.0984,-0.0082,-31.5,-40.0,56.75,15.24,-89.41,-136.31
10219,53.15251,-1.577574,162.27,13.81,4,132.76,16 / 16,2494513,2019-11-06 16:47:54:975,-0.3394,1.5208,10.4779,-0.0053,0.0107,9.8066,-0.0639,-0.1806,0.0571,-15.56,-35.12,38.69,31.74,-89.39,-126.22
10220,53.15251,-1.577574,162.27,13.81,4,132.76,16 / 16,2494613,2019-11-06 16:47:55:075,-1.8218,-0.9496,9.827,-0.0082,0.0086,9.8066,0.0039,-0.0052,0.0165,-15.56,-36.0,33.38,49.77,-89.37,-104.84
10221,53.15251,-1.577574,162.27,13.81,4,132.76,16 / 16,2494713,2019-11-06 16:47:55:175,-0.7133,-0.2254,9.4217,0.0165,0.0147,9.8065,-0.0287,-0.2141,0.0778,-15.62,-36.81,31.19,48.54,-89.31,-104.71
10222,53.15251,-1.577574,162.27,13.81,4,132.76,16 / 16,2494813,2019-11-06 16:47:55:275,1.3407,0.3711,9.8058,-0.0191,0.0164,9.8066,0.0315,0.0948,-0.0394,-15.87,-36.5,30.44,66.33,-89.3,-86.28
10223,53.15251,-1.577574,162.27,13.81,4,132.76,16 / 17,2494914,2019-11-06 16:47:55:376,-0.3069,0.8002,9.5867,-0.0268,0.0196,9.8066,-0.0259,-0.0906,-0.0217,-15.5,-35.5,30.75,74.96,-89.26,-79.95
10224,53.15251,-1.577574,162.27,13.81,4,132.76,16 / 17,2495013,2019-11-06 16:47:55:475,-0.754,-0.1328,10.2251,-0.0007,-0.0078,9.8066,-0.101,-0.0803,0.0865,-15.94,-36.0,33.19,91.71,-89.05,-63.36
10225,53.15251,-1.577574,162.27,13.81,4,132.76,16 / 17,2495113,2019-11-06 16:47:55:575,0.4565,0.8028,9.834,0.0274,0.0032,9.8065,-0.0054,-0.1123,0.0919,-15.25,-34.06,41.56,103.88,-88.86,-57.31
10226,53.15251,-1.577574,162.27,13.81,4,132.76,16 / 17,2495214,2019-11-06 16:47:55:676,-0.8944,-1.0974,9.7505,0.0231,-0.0016,9.8066,0.0692,-0.2033,0.0109,-34.44,-40.31,43.25,81.78,-89.1,-60.54
10227,53.15251,-1.577574,162.27,13.81,4,132.76,16 / 17,2495314,2019-11-06 16:47:55:776,-1.0409,-0.6419,9.8078,0.0053,0.0234,9.8066,0.0779,-0.1009,0.0543,-19.62,-37.69,29.13,78.97,-89.3,-67.18
10228,53.15251,-1.577574,162.27,13.81,4,132.76,16 / 17,2495414,2019-11-06 16:47:55:876,-0.4986,0.7513,9.264,-0.0095,0.0275,9.8066,-0.0515,-0.0382,-0.0507,-17.62,-37.31,29.75,104.56,-89.35,-45.14
10229,53.15251,-1.577574,162.27,13.81,4,132.76,16 / 17,2495514,2019-11-06 16:47:55:976,1.492,-1.421,9.8662,0.0146,0.0042,9.8066,-0.1057,-0.089,0.0334,-16.81,-37.94,29.0,127.37,-89.25,-22.92
10230,53.15251,-1.577574,162.27,13.81,4,132.76,16 / 17,2495614,2019-11-06 16:47:56:076,-0.1036,1.7375,11.1929,-0.0053,-0.0047,9.8066,-0.0123,-0.0033,0.0573,-17.56,-37.19,29.94,122.15,-89.15,-27.64
10231,53.15251,-1.577574,162.27,13.81,4,132.76,16 / 17,2495714,2019-11-06 16:47:56:176,1.1202,1.391,8.7889,0.0304,0.0545,9.8065,0.1002,-0.4638,0.137,-22.31,-38.5,29.81,112.69,-89.01,-31.99
10232,53.15251,-1.577574,162.27,13.81,4,132.76,16 / 17,2495814,2019-11-06 16:47:56:276,-2.1125,-1.5237,10.6426,0.0098,0.0113,9.8066,0.0756,-0.4244,0.1511,-24.75,-38.0,60.25,139.81,-89.04,-17.93
10233,53.15251,-1.577574,162.27,13.81,4,132.76,17 / 17,2495922,2019-11-06 16:47:56:384,1.146,0.216,9.3505,-0.0025,-0.0141,9.8066,-0.1402,0.2134,-0.046,-15.19,-33.37,38.31,139.06,-88.84,-20.01
10234,53.15251,-1.577574,162.27,13.81,4,132.76,17 / 17,2496013,2019-11-06 16:47:56:475,1.1534,-0.8156,10.1435,-0.0217,0.0164,9.8065,0.139,0.0834,-0.0435,-13.87,-34.81,31.88,137.0,-88.66,-20.27
10235,53.15251,-1.577574,162.27,13.81,4,132.76,17 / 17,2496114,2019-11-06 16:47:56:576,-0.8887,-0.5728,9.7271,-0.0387,0.0204,9.8065,0.1788,0.0829,-0.0828,-14.25,-36.25,29.31,129.82,-88.54,-25.65
10236,53.15251,-1.577574,162.27,13.81,4,132.76,17 / 17,2496214,2019-11-06 16:47:56:676,1.7827,0.3241,9.508,-0.0081,-0.0253,9.8065,-0.0891,0.0856,-0.0471,-14.62,-36.19,29.06,126.55,-88.77,-27.19
10237,53.15251,-1.577574,162.27,13.81,4,132.76,17 / 17,2496314,2019-11-06 16:47:56:776,-2.0207,0.3666,9.2946,0.0059,0.0073,9.8066,-0.1415,-0.0782,0.1364,-14.44,-36.44,29.5,128.89,-88.57,-27.29
10238,53.15251,-1.577574,162.27,13.81,4,132.76,17 / 17,2496413,2019-11-06 16:47:56:875,2.7867,-1.9467,9.3909,-0.0385,0.0117,9.8065,-0.0155,0.2057,-0.1499,-13.87,-35.44,31.81,131.27,-88.16,-26.47
10239,53.15251,-1.577574,162.27,13.81,4,132.76,17 / 17,2496513,2019-11-06 16:47:56:975,-1.3345,-0.3962,10.7614,-0.0197,-0.0324,9.8065,0.0012,0.0692,-0.0069,-12.87,-34.81,41.69,145.72,-88.0,-17.96
10240,53.15251,-1.577574,162.27,13.81,4,132.76,17 / 17,2496613,2019-11-06 16:47:57:075,1.945,-0.1974,10.4606,-0.0271,-0.0316,9.8065,-0.0353,0.0781,-0.0101,-31.5,-41.12,51.56,122.91,-88.19,-27.3
10241,53.15251,-1.577574,162.27,13.81,4,132.76,17 / 17,2496713,2019-11-06 16:47:57:175,0.4442,0.9941,8.6076,-0.0317,0.0265,9.8065,0.0004,0.0508,0.0219,-18.12,-37.62,27.5,120.79,-87.79,-28.63
10242,53.15251,-1.577574,162.27,13.81,4,132.76,17 / 17,2496813,2019-11-06 16:47:57:275,0.7419,-0.5345,9.7085,-0.0256,0.0046,9.8065,-0.0538,-0.0453,-0.0015,-16.62,-37.37,27.25,119.29,-87.59,-30.93
10243,53.15251,-1.577574,162.27,13.81,4,132.76,18 / 18,2496913,2019-11-06 16:47:57:375,0.208,0.8072,9.345,0.004,-0.0013,9.8066,-0.119,-0.0134,0.0102,-15.25,-39.0,28.0,123.36,-87.39,-31.11
10244,53.15251,-1.577574,162.27,13.81,4,132.76,18 / 18,2497013,2019-11-06 16:47:57:475,0.9667,-0.5225,9.5813,-0.0074,0.0202,9.8066,0.0017,0.0636,-0.0293,-15.44,-39.44,27.69,124.79,-87.2,-29.83
10245,53.15251,-1.577574,162.27,13.81,4,132.76,18 / 18,2497114,2019-11-06 16:47:57:576,-0.0067,0.1152,9.4608,-0.0204,-0.0023,9.8066,-0.0176,0.1277,-0.0572,-22.31,-39.56,30.25,118.44,-87.05,-28.07
10246,53.15251,-1.577574,162.27,13.81,4,132.76,18 / 18,2497214,2019-11-06 16:47:57:676,-1.6474,-0.2037,9.4206,0.0029,0.0,9.8066,-0.1833,-0.1162,0.0875,-26.62,-39.75,58.13,129.12,-86.94,-27.36
10247,53.15251,-1.577574,162.27,13.81,4,132.76,18 / 18,2497314,2019-11-06 16:47:57:776,1.9085,0.0853,9.4189,-0.0325,-0.0135,9.8066,-0.129,0.2299,-0.1278,-15.62,-35.56,38.13,134.51,-86.47,-24.8
10248,53.15251,-1.577574,162.27,13.81,4,132.76,18 / 18,2497414,2019-11-06 16:47:57:876,0.107,0.3581,10.1479,0.0138,-0.0108,9.8066,-0.0415,0.1262,0.0251,-15.31,-37.37,31.19,128.69,-86.39,-28.46
10249,53.15251,-1.577574,162.27,13.81,4,132.76,18 / 18,2497514,2019-11-06 16:47:57:976,0.1542,-0.3535,10.2603,-0.0072,0.004,9.8066,0.0323,0.0613,-0.0184,-15.37,-37.37,30.44,128.51,-86.41,-27.98
10250,53.15251,-1.577574,162.27,13.81,4,132.76,18 / 18,2497613,2019-11-06 16:47:58:075,2.4512,1.6671,9.4511,-0.0189,-0.0143,9.8066,-0.0729,0.297,-0.0892,-15.69,-37.62,29.31,125.96,-86.42,-28.43
10251,53.15251,-1.577574,162.27,13.81,4,132.76,18 / 18,2497713,2019-11-06 16:47:58:175,0.2825,-1.7501,9.0503,-0.0241,0.0033,9.8066,-0.0465,0.1661,-0.0271,-14.94,-37.5,30.44,127.34,-86.19,-29.38
10252,53.15251,-1.577574,162.27,13.81,4,132.76,18 / 18,2497813,2019-11-06 16:47:58:275,2.2002,0.6766,9.3636,-0.0456,-0.0136,9.8064,-0.0818,0.189,-0.0371,-14.94,-36.19,33.19,128.28,-86.02,-30.31
10253,53.15154,-1.576631,162.67,14.1,4,157.11,17 / 18,2497913,2019-11-06 16:47:58:375,2.7199,-0.4438,9.669,-0.0025,0.0155,9.8066,0.0462,-0.1014,0.1585,-16.0,-35.37,37.94,128.54,-85.76,-31.37
10254,53.15154,-1.576631,162.67,14.1,4,157.11,17 / 18,2498013,2019-11-06 16:47:58:475,3.4994,0.2217,8.8995,0.0344,-0.0127,9.8065,0.0676,0.3474,-0.2595,-35.44,-41.87,49.63,116.29,-85.71,-31.3
10255,53.15154,-1.576631,162.67,14.1,4,157.11,17 / 18,2498114,2019-11-06 16:47:58:576,3.6104,0.9491,9.416,0.0477,0.0206,9.8064,-0.0052,0.3264,-0.0812,-22.94,-38.69,28.19,108.32,-85.88,-36.46
10256,53.15154,-1.576631,162.67,14.1,4,157.11,17 / 18,2498213,2019-11-06 16:47:58:675,1.649,1.1285,9.7494,-0.0082,-0.0234,9.8066,-0.0115,0.2313,-0.0704,-19.56,-37.56,27.69,112.08,-86.18,-36.26
