,GPS LATITUDE (degrees), GPS LONGITUDE (degrees), GPS ALTITUDE (m), GPS SPEED (Kmh), GPS ACCURACY (m), GPS ORIENTATION (Â°),GPS SATELLITES IN RANGE, TIME SINCE START (ms), DATE (YYYY-MO-DD HH-MI-SS_SSS), ACCELEROMETER X (m/s²) , ACCELEROMETER Y (m/s²), ACCELEROMETER Z (m/s²), GRAVITY X (m/s²), GRAVITY Y (m/s²), GRAVITY Z (m/s²), GYROSCOPE Yaw (rad/s), GYROSCOPE Pitch (rad/s), GYROSCOPE Roll (rad/s), MAGNETIC FIELD X (Î¼T), MAGNETIC FIELD Y (Î¼T), MAGNETIC FIELD Z (Î¼T), ORIENTATION (Yaw) (Â°), ORIENTATION (Pitch) (Â°), ORIENTATION (Roll ) (Â°)
41890,52.403812,-1.557693,168.13,5.01,2.0,95.2,26 / 26,4193227,2019-09-07 10:23:18:506,-1.8093,0.132,9.9915,-0.0018,0.0027,9.8066,-0.0082,-0.0758,0.025,-29.44,-33.31,16.44,284.59,-82.98,172.63
41891,52.403812,-1.557693,168.13,5.01,2.0,95.2,26 / 26,4193327,2019-09-07 10:23:18:606,-1.64,0.3522,9.7062,-0.0088,0.007,9.8066,-0.004,-0.0699,-0.0058,-29.5,-33.44,15.81,284.59,-83.01,172.59
41892,52.403812,-1.557693,168.13,5.01,2.0,95.2,26 / 26,4193428,2019-09-07 10:23:18:707,-1.6953,0.4092,9.7867,-0.0044,0.0022,9.8066,-0.0253,-0.0573,-0.0074,-29.06,-32.87,16.56,285.92,-83.07,172.23
41893,52.403812,-1.557693,168.13,5.01,2.0,95.2,26 / 26,4193527,2019-09-07 10:23:18:806,-1.8028,0.5929,9.6392,-0.0105,0.0048,9.8066,0.0259,-0.0552,0.0198,-28.94,-32.94,17.19,285.76,-83.09,172.06
41894,52.403812,-1.557693,168.13,5.01,2.0,95.2,26 / 26,4193627,2019-09-07 10:23:18:906,-2.1256,0.7048,9.8406,-0.0057,-0.0031,9.8065,-0.0268,-0.079,0.0074,-29.5,-32.81,17.06,286.14,-83.16,172.37
41895,52.403812,-1.557693,168.13,5.01,2.0,95.2,26 / 26,4193727,2019-09-07 10:23:19:006,-1.898,0.3859,9.802,-0.0056,0.0046,9.8066,0.0283,-0.071,0.0143,-29.31,-32.62,17.06,286.2,-83.23,172.36
41896,52.403812,-1.557693,168.13,5.01,2.0,95.2,26 / 26,4193827,2019-09-07 10:23:19:106,-2.2995,0.4518,9.8927,-0.0011,0.0023,9.8066,-0.0121,-0.0807,0.0229,-30.19,-33.06,16.88,285.4,-83.25,172.23
41897,52.403812,-1.557693,168.13,5.01,2.0,95.2,26 / 26,4193928,2019-09-07 10:23:19:207,-1.7701,0.6822,9.7502,-0.0019,0.0048,9.8066,0.006,-0.0654,-0.0155,-29.5,-33.06,17.44,286.12,-83.26,172.25
41898,52.403812,-1.557693,168.13,5.01,2.0,95.2,26 / 26,4194027,2019-09-07 10:23:19:306,-1.8386,0.6353,9.7441,-0.0093,0.0082,9.8066,0.0243,-0.0779,0.0311,-29.19,-32.87,17.5,287.16,-83.34,171.63
41899,52.403763,-1.556856,167.23,3.06,2.0,102.36,26 / 26,4194127,2019-09-07 10:23:19:406,-1.954,0.8065,10.1567,0.0066,-0.0013,9.8066,-0.0061,-0.057,-0.0271,-29.12,-33.06,17.44,285.48,-83.32,171.56
41900,52.403763,-1.556856,167.23,3.06,2.0,102.36,26 / 26,4194227,2019-09-07 10:23:19:506,-1.8796,0.9408,9.8713,-0.007,0.008,9.8066,0.0118,-0.0724,0.0131,-29.87,-32.37,17.81,286.02,-83.41,170.99
41901,52.403763,-1.556856,167.23,3.06,2.0,102.36,26 / 26,4194327,2019-09-07 10:23:19:606,-1.9354,0.9927,9.8305,0.0002,-0.0002,9.8066,-0.0193,-0.0484,-0.0008,-29.5,-32.56,18.25,286.71,-83.52,171.02
41902,52.403763,-1.556856,167.23,3.06,2.0,102.36,26 / 26,4194427,2019-09-07 10:23:19:706,-2.0689,0.8613,9.9389,0.0027,-0.0005,9.8066,-0.008,-0.0534,0.0042,-30.31,-32.87,18.06,285.87,-83.57,170.87
41903,52.403763,-1.556856,167.23,3.06,2.0,102.36,26 / 26,4194527,2019-09-07 10:23:19:806,-2.2206,0.7113,9.9622,-0.0032,0.0005,9.8066,0.0102,-0.0598,0.0252,-30.69,-32.75,17.88,285.37,-83.64,171.0
41904,52.403763,-1.556856,167.23,3.06,2.0,102.36,26 / 26,4194628,2019-09-07 10:23:19:907,-2.268,1.0626,10.0979,-0.0022,-0.0006,9.8066,0.0144,-0.0452,-0.0019,-29.44,-33.12,17.81,286.95,-83.72,171.06
41905,52.403763,-1.556856,167.23,3.06,2.0,102.36,26 / 26,4194728,2019-09-07 10:23:20:007,-1.7812,0.6904,9.6079,-0.0001,0.0035,9.8066,-0.0223,-0.0211,-0.0037,-29.56,-32.44,18.25,286.12,-83.79,170.74
41906,52.403763,-1.556856,167.23,3.06,2.0,102.36,26 / 26,4194827,2019-09-07 10:23:20:106,-1.9162,0.9926,9.7624,0.0001,-0.0014,9.8066,-0.024,-0.0201,0.0149,-29.5,-32.62,18.0,286.41,-83.86,170.39
41907,52.403763,-1.556856,167.23,3.06,2.0,102.36,26 / 26,4194927,2019-09-07 10:23:20:206,-2.2668,1.0589,9.8633,-0.0097,0.004,9.8066,0.0214,-0.0037,-0.0133,-29.5,-32.87,17.69,286.59,-83.91,170.52
41908,52.403763,-1.556856,167.23,3.06,2.0,102.36,26 / 26,4195027,2019-09-07 10:23:20:306,-1.8786,0.9606,9.9445,-0.0137,0.0061,9.8066,0.0172,-0.0158,0.0164,-29.81,-32.75,18.63,287.24,-84.03,170.3
41909,52.403763,-1.556856,167.23,3.06,2.0,102.36,25 / 25,4195127,2019-09-07 10:23:20:406,-1.8286,0.7605,9.8685,-0.0051,-0.0012,9.8065,0.0,-0.0169,-0.0145,-29.56,-32.06,18.19,286.17,-84.07,170.52
41910,52.403763,-1.556856,167.23,3.06,2.0,102.36,25 / 25,4195227,2019-09-07 10:23:20:506,-1.6425,0.9264,9.9254,-0.0068,0.0051,9.8066,0.0112,-0.0072,0.0012,-29.37,-31.75,18.5,288.44,-84.18,170.41
41911,52.403763,-1.556856,167.23,3.06,2.0,102.36,25 / 25,4195327,2019-09-07 10:23:20:606,-1.3124,0.8519,9.8352,-0.0017,0.0016,9.8066,-0.0011,0.0044,-0.005,-29.44,-32.62,18.88,288.2,-84.24,170.28
41912,52.403763,-1.556856,167.23,3.06,2.0,102.36,25 / 25,4195427,2019-09-07 10:23:20:706,-1.289,0.6973,9.9069,-0.0023,0.0007,9.8066,-0.0024,-0.0016,0.008,-29.75,-32.37,18.75,287.56,-84.29,170.22
41913,52.403763,-1.556856,167.23,3.06,2.0,102.36,25 / 25,4195527,2019-09-07 10:23:20:806,-0.1144,0.0488,10.042,0.0001,-0.0025,9.8066,-0.0033,0.0126,0.0007,-29.37,-32.19,18.38,287.01,-84.34,170.35
41914,52.403763,-1.556856,167.23,3.06,2.0,102.36,25 / 25,4195627,2019-09-07 10:23:20:906,0.2142,-0.3523,9.9569,-0.0008,-0.0055,9.8066,0.0071,0.0022,0.0114,-29.69,-32.37,18.94,288.46,-84.35,171.05
41915,52.403763,-1.556856,167.23,3.06,2.0,102.36,25 / 25,4195727,2019-09-07 10:23:21:006,0.0757,-0.1643,9.5946,-0.0053,-0.0006,9.8066,0.0162,0.006,0.0073,-29.12,-32.25,18.94,289.8,-84.34,171.59
41916,52.403763,-1.556856,167.23,3.06,2.0,102.36,25 / 25,4195827,2019-09-07 10:23:21:106,-0.1703,-0.0193,9.5635,-0.0035,0.0014,9.8066,-0.0098,0.0032,-0.0103,-28.94,-32.06,18.75,290.16,-84.37,171.92
41917,52.403763,-1.556856,167.23,3.06,2.0,102.36,25 / 25,4195928,2019-09-07 10:23:21:207,-0.0233,-0.1149,9.982,-0.0019,0.0041,9.8066,0.015,-0.0055,-0.0041,-28.81,-32.5,19.0,289.89,-84.42,171.6
41918,52.403763,-1.556856,167.23,3.06,2.0,102.36,25 / 25,4196028,2019-09-07 10:23:21:307,0.0178,-0.0459,9.9401,-0.0036,0.0045,9.8066,0.0056,-0.0086,-0.0034,-28.87,-32.69,19.25,289.38,-84.46,171.23
41919,52.403763,-1.556856,167.23,3.06,2.0,102.36,24 / 24,4196127,2019-09-07 10:23:21:406,-0.1383,0.0956,9.8994,-0.0044,0.0021,9.8066,0.0003,0.0045,0.0003,-28.62,-32.56,18.94,289.37,-84.52,171.17
41920,52.403763,-1.556856,167.23,3.06,2.0,102.36,24 / 24,4196227,2019-09-07 10:23:21:506,0.0684,-0.1751,9.8298,-0.0011,-0.0006,9.8066,0.0033,-0.0032,0.0122,-29.25,-31.75,18.44,288.0,-84.58,171.1
41921,52.403763,-1.556856,167.23,3.06,2.0,102.36,24 / 24,4196328,2019-09-07 10:23:21:607,-0.0848,-0.117,9.8184,-0.0045,0.0026,9.8066,-0.0028,0.0094,0.001,-28.87,-32.69,19.06,289.62,-84.62,171.31
41922,52.403763,-1.556856,167.23,3.06,2.0,102.36,24 / 24,4196427,2019-09-07 10:23:21:706,0.0242,-0.0108,9.8659,-0.0023,0.0024,9.8066,-0.0063,0.0142,0.0078,-28.56,-32.62,18.69,289.46,-84.69,171.09
41923,52.403763,-1.556856,167.23,3.06,2.0,102.36,24 / 24,4196527,2019-09-07 10:23:21:806,0.1039,-0.0439,9.8907,-0.0046,0.0015,9.8065,0.002,0.0115,0.0051,-28.62,-31.56,18.38,288.16,-84.77,171.08
41924,52.403763,-1.556856,167.23,3.06,2.0,102.36,24 / 24,4196627,2019-09-07 10:23:21:906,-0.0069,-0.0175,9.9416,-0.0071,0.0026,9.8065,-0.0006,0.0257,0.005,-29.25,-32.37,18.63,289.73,-84.82,171.09
41925,52.403763,-1.556856,167.23,3.06,2.0,102.36,24 / 24,4196727,2019-09-07 10:23:22:006,0.0725,-0.1751,9.7438,-0.002,-0.0005,9.8066,-0.021,0.021,0.0023,-28.37,-32.62,18.25,289.0,-84.88,171.15
41926,52.403763,-1.556856,167.23,3.06,2.0,102.36,24 / 24,4196827,2019-09-07 10:23:22:106,-0.027,0.0256,9.8615,-0.0063,0.0034,9.8066,0.0152,0.0241,0.0024,-28.37,-32.5,18.5,290.77,-84.97,171.15
41927,52.403763,-1.556856,167.23,3.06,2.0,102.36,24 / 24,4196928,2019-09-07 10:23:22:207,0.3372,-0.0843,9.7657,-0.0044,0.0003,9.8066,-0.0197,0.0149,-0.0066,-29.25,-32.56,18.88,289.82,-85.01,171.14
41928,52.403763,-1.556856,167.23,3.06,2.0,102.36,24 / 24,4197027,2019-09-07 10:23:22:306,0.1529,-0.1753,9.8438,-0.0079,0.0037,9.8066,0.0149,0.0127,0.0005,-28.87,-32.44,18.44,288.56,-85.13,171.14
41929,52.403763,-1.556856,167.23,3.06,2.0,102.36,25 / 25,4197128,2019-09-07 10:23:22:407,-0.0711,0.0174,9.9864,-0.0044,-0.0008,9.8066,-0.0154,0.0029,-0.0094,-29.0,-32.25,18.19,288.58,-85.18,171.12
41930,52.403763,-1.556856,167.23,3.06,2.0,102.36,25 / 25,4197228,2019-09-07 10:23:22:507,0.333,-0.1069,9.7921,-0.0024,0.0025,9.8066,0.0032,-0.0042,-0.004,-28.94,-32.44,18.63,290.18,-85.27,171.12
41931,52.403763,-1.556856,167.23,3.06,2.0,102.36,25 / 25,4197327,2019-09-07 10:23:22:606,0.1165,-0.0453,9.8868,-0.008,0.0021,9.8066,0.0128,-0.0082,-0.0122,-29.12,-32.56,18.13,288.48,-85.32,171.01
41932,52.403763,-1.556856,167.23,3.06,2.0,102.36,25 / 25,4197427,2019-09-07 10:23:22:706,0.0915,-0.1007,9.8137,-0.0046,0.0024,9.8066,0.0064,-0.0028,0.0024,-28.44,-32.44,18.25,289.49,-85.42,170.97
41933,52.403763,-1.556856,167.23,3.06,2.0,102.36,25 / 25,4197528,2019-09-07 10:23:22:807,0.1994,-0.1476,9.7817,-0.0027,0.0004,9.8066,0.0018,0.0111,-0.0011,-29.0,-32.37,18.31,288.87,-85.48,171.12
41934,52.403763,-1.556856,167.23,3.06,2.0,102.36,25 / 25,4197628,2019-09-07 10:23:22:907,0.1319,-0.1538,9.8964,-0.0042,0.0017,9.8066,-0.0082,0.0016,0.0028,-29.31,-32.56,18.13,288.87,-85.54,171.19
41935,52.403763,-1.556856,167.23,3.06,2.0,102.36,25 / 25,4197727,2019-09-07 10:23:23:006,0.1019,-0.1247,9.8097,-0.0024,0.0027,9.8066,-0.0049,0.0181,-0.0032,-28.94,-32.19,18.0,289.13,-85.61,171.25
41936,52.403763,-1.556856,167.23,3.06,2.0,102.36,25 / 25,4197828,2019-09-07 10:23:23:107,0.1449,-0.0648,9.8299,-0.0051,0.0019,9.8066,0.0014,0.0083,0.0056,-29.12,-32.0,18.06,288.95,-85.69,171.01
41937,52.403763,-1.556856,167.23,3.06,2.0,102.36,25 / 25,4197927,2019-09-07 10:23:23:206,0.257,-0.1929,9.8471,-0.0049,0.001,9.8066,-0.0102,0.0022,-0.0033,-28.94,-31.81,17.75,289.03,-85.72,171.06
41938,52.403763,-1.556856,167.23,3.06,2.0,102.36,25 / 25,4198027,2019-09-07 10:23:23:306,0.1497,-0.0787,9.8637,-0.0064,0.0026,9.8066,0.0073,-0.0022,-0.0034,-29.75,-32.31,18.31,288.35,-85.83,171.06
41939,52.403763,-1.556856,167.23,3.06,2.0,102.36,26 / 26,4198127,2019-09-07 10:23:23:406,0.073,-0.0815,9.833,-0.0029,0.0002,9.8066,-0.0169,-0.0069,0.0002,-28.75,-32.5,18.0,289.32,-85.91,171.16
41940,52.403763,-1.556856,167.23,3.06,2.0,102.36,26 / 26,4198227,2019-09-07 10:23:23:506,0.3447,-0.1668,9.7988,-0.0037,-0.0001,9.8066,-0.0028,0.002,-0.0066,-29.44,-32.12,18.31,289.43,-85.97,171.21
41941,52.403763,-1.556856,167.23,3.06,2.0,102.36,26 / 26,4198327,2019-09-07 10:23:23:606,0.1632,-0.0851,9.8843,-0.0069,0.0024,9.8066,0.0086,0.0049,0.0015,-29.0,-32.44,17.88,289.39,-86.01,171.15
41942,52.403763,-1.556856,167.23,3.06,2.0,102.36,26 / 26,4198427,2019-09-07 10:23:23:706,0.0553,-0.0685,9.9414,-0.0068,0.003,9.8066,0.0041,0.0053,-0.0019,-28.94,-32.12,18.13,289.51,-86.11,171.17
41943,52.403763,-1.556856,167.23,3.06,2.0,102.36,26 / 26,4198527,2019-09-07 10:23:23:806,0.278,-0.1263,9.7884,0.0019,0.0002,9.8066,-0.0142,0.0132,0.0046,-29.44,-32.44,18.13,289.45,-86.17,171.06
41944,52.403763,-1.556856,167.23,3.06,2.0,102.36,26 / 26,4198627,2019-09-07 10:23:23:906,0.3973,-0.1626,9.8055,-0.0054,0.0009,9.8066,0.0075,0.0113,-0.0034,-29.5,-32.12,17.88,289.5,-86.21,171.07
41945,52.403763,-1.556856,167.23,3.06,2.0,102.36,26 / 26,4198727,2019-09-07 10:23:24:006,0.1416,-0.0985,9.945,-0.0044,0.0012,9.8066,-0.0104,0.0031,0.0013,-29.12,-32.44,18.81,291.09,-86.28,171.11
41946,52.403763,-1.556856,167.23,3.06,2.0,102.36,26 / 26,4198827,2019-09-07 10:23:24:106,0.3587,-0.1365,9.8025,-0.006,0.0017,9.8066,0.0049,0.0042,-0.0115,-29.12,-32.37,18.06,289.82,-86.34,171.27
41947,52.403763,-1.556856,167.23,3.06,2.0,102.36,26 / 26,4198928,2019-09-07 10:23:24:207,0.4594,-0.1523,9.8363,-0.0026,0.0017,9.8066,-0.0011,-0.0071,0.0027,-28.94,-31.87,18.19,289.66,-86.39,171.06
41948,52.403763,-1.556856,167.23,3.06,2.0,102.36,26 / 26,4199027,2019-09-07 10:23:24:306,0.1418,-0.0669,9.9412,-0.0028,0.0004,9.8066,0.0061,-0.0003,-0.0067,-29.44,-32.31,17.38,288.19,-86.42,171.09
41949,52.403763,-1.556856,167.23,3.06,2.0,102.36,25 / 25,4199127,2019-09-07 10:23:24:406,0.4014,-0.2136,9.7626,-0.0006,-0.0002,9.8066,-0.0188,0.0105,0.0131,-29.25,-32.0,18.44,289.62,-86.46,170.95
41950,52.403763,-1.556856,167.23,3.06,2.0,102.36,25 / 25,4199228,2019-09-07 10:23:24:507,0.4318,-0.1487,9.8269,-0.0046,0.0001,9.8066,0.004,0.011,-0.0087,-29.87,-32.62,18.31,289.14,-86.52,171.31
41951,52.403763,-1.556856,167.23,3.06,2.0,102.36,25 / 25,4199327,2019-09-07 10:23:24:606,0.2012,-0.1064,9.8429,-0.0037,0.002,9.8066,0.0001,0.0002,-0.0001,-29.5,-32.31,18.19,289.87,-86.57,171.1
41952,52.403763,-1.556856,167.23,3.06,2.0,102.36,25 / 25,4199427,2019-09-07 10:23:24:706,0.4491,-0.2029,9.858,-0.0047,0.0009,9.8066,-0.0005,0.0021,-0.0057,-29.06,-32.37,18.13,289.98,-86.61,171.17
41953,52.403763,-1.556856,167.23,3.06,2.0,102.36,25 / 25,4199527,2019-09-07 10:23:24:806,0.2147,-0.0454,9.8784,-0.0029,0.0022,9.8066,0.0084,0.0104,0.0113,-29.37,-32.0,18.0,290.09,-86.65,171.24
41954,52.403763,-1.556856,167.23,3.06,2.0,102.36,25 / 25,4199627,2019-09-07 10:23:24:906,0.3779,-0.2574,9.7915,-0.003,0.0,9.8066,-0.0162,0.0062,-0.0077,-29.31,-32.12,18.06,290.19,-86.7,171.3
41955,52.403763,-1.556856,167.23,3.06,2.0,102.36,25 / 25,4199727,2019-09-07 10:23:25:006,0.3138,-0.1862,9.9462,-0.0033,0.0032,9.8066,0.0133,-0.0043,0.002,-29.12,-31.94,18.0,290.0,-86.78,171.05
41956,52.403763,-1.556856,167.23,3.06,2.0,102.36,25 / 25,4199827,2019-09-07 10:23:25:106,0.2785,-0.1447,9.8739,-0.0023,0.0002,9.8066,-0.0086,-0.0014,0.0035,-29.31,-32.37,18.69,291.46,-86.8,171.01
41957,52.403763,-1.556856,167.23,3.06,2.0,102.36,25 / 25,4199928,2019-09-07 10:23:25:207,0.4417,-0.1894,9.8368,-0.0023,0.0016,9.8066,-0.0042,0.0171,-0.0033,-29.62,-32.06,18.19,289.47,-86.83,171.27
41958,52.403763,-1.556856,167.23,3.06,2.0,102.36,25 / 25,4200027,2019-09-07 10:23:25:306,0.2628,-0.2842,9.8158,-0.003,0.0021,9.8066,-0.001,0.0051,0.0165,-29.37,-32.44,18.44,289.98,-86.88,170.93
41959,52.403763,-1.556856,167.23,3.06,2.0,102.36,25 / 25,4200128,2019-09-07 10:23:25:407,0.6583,-0.4448,9.7909,-0.0004,-0.0009,9.8066,-0.0161,-0.0025,-0.0156,-29.44,-31.81,18.31,290.58,-86.92,171.48
41960,52.403763,-1.556856,167.23,3.06,2.0,102.36,25 / 25,4200227,2019-09-07 10:23:25:506,0.6762,-0.1883,9.8409,0.0011,0.0026,9.8066,0.001,-0.0056,0.0145,-28.75,-32.19,18.56,291.67,-86.95,171.09
41961,52.403763,-1.556856,167.23,3.06,2.0,102.36,25 / 25,4200327,2019-09-07 10:23:25:606,0.7219,-0.3508,9.7023,-0.0026,0.0,9.8066,0.0025,0.0133,-0.0168,-29.44,-32.0,18.19,290.35,-86.94,171.24
41962,52.403763,-1.556856,167.23,3.06,2.0,102.36,25 / 25,4200427,2019-09-07 10:23:25:706,0.8861,-0.5497,9.8041,-0.0023,0.0024,9.8066,0.0155,0.0114,0.0119,-29.12,-32.25,18.63,291.81,-86.96,171.21
41963,52.403763,-1.556856,167.23,3.06,2.0,102.36,25 / 25,4200527,2019-09-07 10:23:25:806,0.6231,-0.2489,9.9129,0.002,-0.0027,9.8065,-0.0086,0.002,-0.0094,-29.37,-31.62,18.56,292.12,-86.96,171.52
41964,52.403763,-1.556856,167.23,3.06,2.0,102.36,25 / 25,4200628,2019-09-07 10:23:25:907,0.9752,-0.4257,9.8036,-0.0055,0.0028,9.8065,0.0143,-0.0045,-0.0065,-29.12,-32.31,18.44,290.81,-86.98,171.66
41965,52.403763,-1.556856,167.23,3.06,2.0,102.36,25 / 25,4200727,2019-09-07 10:23:26:006,0.8251,-0.4587,9.73,0.0039,-0.0032,9.8066,-0.0096,-0.0104,0.003,-29.25,-31.69,17.56,290.96,-86.95,171.83
41966,52.403763,-1.556856,167.23,3.06,2.0,102.36,25 / 25,4200828,2019-09-07 10:23:26:107,0.9531,-0.4181,9.8955,0.0017,-0.0011,9.8066,-0.0034,-0.0078,-0.0092,-28.87,-32.19,18.13,291.12,-86.96,171.98
41967,52.403763,-1.556856,167.23,3.06,2.0,102.36,25 / 25,4200927,2019-09-07 10:23:26:206,0.6756,-0.3255,9.7908,-0.0015,-0.0005,9.8066,-0.0065,-0.0061,0.0134,-29.37,-32.37,18.63,292.32,-86.98,171.7
41968,52.403763,-1.556856,167.23,3.06,2.0,102.36,25 / 25,4201027,2019-09-07 10:23:26:306,0.9705,-0.609,9.7924,-0.0015,-0.0011,9.8066,-0.01,-0.0217,-0.0097,-29.56,-32.31,18.38,290.53,-87.0,172.17
41969,52.403763,-1.556856,167.23,3.06,2.0,102.36,25 / 26,4201128,2019-09-07 10:23:26:407,0.8718,-0.3513,9.8455,-0.0039,0.0038,9.8066,0.0135,-0.0062,-0.0026,-29.12,-31.94,18.81,292.6,-87.03,171.93
41970,52.403763,-1.556856,167.23,3.06,2.0,102.36,25 / 26,4201227,2019-09-07 10:23:26:506,1.0014,-0.5697,9.8331,0.0017,-0.0018,9.8066,-0.0043,-0.0099,0.0002,-29.31,-31.62,18.81,292.76,-87.02,172.09
41971,52.403763,-1.556856,167.23,3.06,2.0,102.36,25 / 26,4201327,2019-09-07 10:23:26:606,0.7752,-0.4827,9.8316,-0.0008,-0.0016,9.8066,0.0096,-0.0083,0.0,-29.19,-32.12,18.25,291.59,-87.02,172.39
41972,52.403763,-1.556856,167.23,3.06,2.0,102.36,25 / 26,4201427,2019-09-07 10:23:26:706,1.0693,-0.7721,9.8155,0.0027,-0.0032,9.8066,-0.0302,0.011,-0.0017,-29.06,-31.94,18.88,292.99,-87.04,172.3
41973,52.403763,-1.556856,167.23,3.06,2.0,102.36,25 / 26,4201527,2019-09-07 10:23:26:806,1.058,-0.7636,9.7871,0.0053,-0.0033,9.8066,-0.0027,-0.0165,0.0004,-29.37,-32.5,18.88,293.09,-87.02,172.42
41974,52.403763,-1.556856,167.23,3.06,2.0,102.36,25 / 26,4201627,2019-09-07 10:23:26:906,0.7757,-0.4299,9.7466,0.0003,-0.0007,9.8066,-0.0313,-0.0008,-0.0016,-29.12,-32.25,19.06,293.21,-87.03,172.53
41975,52.403763,-1.556856,167.23,3.06,2.0,102.36,25 / 26,4201727,2019-09-07 10:23:27:006,0.951,-0.4651,9.7767,0.0017,-0.0019,9.8066,-0.006,-0.0189,-0.0062,-29.62,-32.31,19.06,292.5,-87.02,172.66
41976,52.403763,-1.556856,167.23,3.06,2.0,102.36,25 / 26,4201827,2019-09-07 10:23:27:106,0.9661,-0.5507,9.8445,-0.0014,0.0012,9.8066,-0.002,-0.0162,-0.0091,-29.19,-31.94,19.13,293.28,-87.0,172.62
41977,52.403763,-1.556856,167.23,3.06,2.0,102.36,25 / 26,4201928,2019-09-07 10:23:27:207,1.0885,-0.5462,9.8553,-0.0029,0.0031,9.8066,0.0117,-0.0129,-0.0041,-29.06,-32.81,19.13,292.94,-87.01,172.36
41978,52.403763,-1.556856,167.23,3.06,2.0,102.36,25 / 26,4202027,2019-09-07 10:23:27:306,0.7205,-0.4963,9.6871,0.0009,-0.0026,9.8066,-0.0014,-0.0109,-0.0031,-29.12,-32.69,18.81,292.67,-86.99,172.11
41979,52.403763,-1.556856,167.23,3.06,2.0,102.36,26 / 26,4202128,2019-09-07 10:23:27:407,0.8176,-0.5786,9.7662,-0.0023,-0.0014,9.8066,0.0181,-0.0258,0.0028,-29.5,-32.75,19.19,293.28,-86.98,172.73
41980,52.403763,-1.556856,167.23,3.06,2.0,102.36,26 / 26,4202227,2019-09-07 10:23:27:506,0.6558,-0.4367,9.9199,0.0038,-0.0055,9.8066,-0.0198,-0.0239,0.0033,-29.31,-32.69,19.25,294.06,-86.93,173.53
41981,52.403763,-1.556856,167.23,3.06,2.0,102.36,26 / 26,4202327,2019-09-07 10:23:27:606,0.8633,-0.7951,9.8697,0.0062,-0.0032,9.8066,0.0187,-0.0325,0.0058,-29.31,-32.37,18.69,294.48,-86.9,173.89
41982,52.403763,-1.556856,167.23,3.06,2.0,102.36,26 / 26,4202427,2019-09-07 10:23:27:706,1.2234,-0.7265,9.7577,0.0049,-0.0047,9.8066,0.0134,-0.0413,0.0102,-29.12,-31.94,18.94,294.99,-86.84,174.44
41983,52.403763,-1.556856,167.23,3.06,2.0,102.36,26 / 26,4202528,2019-09-07 10:23:27:807,1.2407,-0.9068,9.6954,0.0055,-0.0059,9.8066,0.0248,-0.0444,0.0076,-29.37,-32.12,19.81,297.28,-86.73,175.37
41984,52.403763,-1.556856,167.23,3.06,2.0,102.36,26 / 26,4202627,2019-09-07 10:23:27:906,1.7204,-1.1996,9.6735,0.004,-0.0092,9.8066,0.0579,-0.043,0.0044,-28.87,-32.44,19.56,297.75,-86.59,175.94
41985,52.403763,-1.556856,167.23,3.06,2.0,102.36,26 / 26,4202727,2019-09-07 10:23:28:006,2.4693,-1.8412,9.6464,0.0074,-0.0098,9.8066,0.0353,-0.0526,0.0093,-28.56,-31.94,19.69,299.18,-86.36,177.54
41986,52.403763,-1.556856,167.23,3.06,2.0,102.36,26 / 26,4202827,2019-09-07 10:23:28:106,2.2458,-1.8285,9.6759,0.0041,-0.0059,9.8066,-0.0018,-0.0612,0.014,-29.0,-32.12,19.88,299.97,-86.16,178.46
41987,52.403763,-1.556856,167.23,3.06,2.0,102.36,26 / 26,4202927,2019-09-07 10:23:28:206,2.1884,-1.6697,9.6659,0.0037,-0.0106,9.8066,-0.0387,-0.0759,0.0138,-28.94,-32.31,20.06,300.78,-86.09,179.3
41988,52.403763,-1.556856,167.23,3.06,2.0,102.36,26 / 26,4203027,2019-09-07 10:23:28:306,2.063,-1.6898,9.59,-0.0035,-0.0024,9.8066,0.0114,-0.0792,0.0077,-29.37,-32.44,19.75,301.64,-86.09,-179.87
41989,52.403763,-1.556856,167.23,3.06,2.0,102.36,25 / 25,4203127,2019-09-07 10:23:28:406,2.3678,-2.0815,9.6582,-0.0076,-0.0011,9.8066,0.0354,-0.0873,0.0244,-29.25,-32.62,20.44,302.15,-86.04,-179.24
41990,52.403763,-1.556856,167.23,3.06,2.0,102.36,25 / 25,4203227,2019-09-07 10:23:28:506,1.9438,-1.5211,9.8683,0.0059,-0.0133,9.8066,-0.0218,-0.099,0.0148,-29.62,-31.62,20.13,303.09,-86.0,-177.56
41991,52.403763,-1.556856,167.23,3.06,2.0,102.36,25 / 25,4203327,2019-09-07 10:23:28:606,1.4855,-1.3342,9.8473,-0.0067,-0.0021,9.8066,0.0073,-0.1052,0.0248,-29.31,-32.19,20.25,305.08,-86.11,-176.56
41992,52.403763,-1.556856,167.23,3.06,2.0,102.36,25 / 25,4203427,2019-09-07 10:23:28:706,1.2115,-1.5498,9.7202,-0.0075,-0.0044,9.8065,-0.0379,-0.1064,0.0096,-28.56,-31.69,20.06,306.58,-86.23,-175.19
41993,52.403763,-1.556856,167.23,3.06,2.0,102.36,25 / 25,4203527,2019-09-07 10:23:28:806,0.9235,-0.9082,9.8819,-0.0023,0.002,9.8066,-0.0478,-0.0934,0.0227,-29.37,-31.69,21.0,308.95,-86.31,-174.34
41994,52.403763,-1.556856,167.23,3.06,2.0,102.36,25 / 25,4203627,2019-09-07 10:23:28:906,1.2767,-1.5617,9.8987,0.0035,-0.0036,9.8066,0.0024,-0.0915,-0.0094,-28.94,-32.12,21.0,310.3,-86.38,-173.09
41995,52.403763,-1.556856,167.23,3.06,2.0,102.36,25 / 25,4203727,2019-09-07 10:23:29:006,0.6544,-1.3551,10.0083,0.0033,-0.005,9.8066,0.0035,-0.1402,0.0414,-28.69,-32.06,20.88,310.29,-86.33,-173.06
41996,52.403763,-1.556856,167.23,3.06,2.0,102.36,25 / 25,4203827,2019-09-07 10:23:29:106,0.6719,-0.6751,9.9563,-0.003,-0.0033,9.8066,-0.0161,-0.1275,0.0182,-28.75,-32.37,20.88,312.0,-86.34,-171.42
41997,52.403763,-1.556856,167.23,3.06,2.0,102.36,25 / 25,4203928,2019-09-07 10:23:29:207,0.738,-1.3426,9.595,-0.0049,0.0033,9.8066,0.0252,-0.1395,0.019,-28.87,-31.69,21.0,312.58,-86.34,-170.86
41998,52.403763,-1.556856,167.23,3.06,2.0,102.36,25 / 25,4204028,2019-09-07 10:23:29:307,1.2209,-1.5617,9.6148,-0.0048,-0.0044,9.8066,0.0207,-0.1435,0.0391,-28.81,-31.56,21.44,312.78,-86.22,-170.59
41999,52.403763,-1.556856,167.23,3.06,2.0,102.36,26 / 26,4204127,2019-09-07 10:23:29:406,1.2147,-1.3006,9.8529,0.0066,-0.0158,9.8066,-0.0007,-0.1046,-0.0024,-29.5,-31.87,22.06,316.01,-86.11,-168.73
42000,52.403763,-1.556856,167.23,3.06,2.0,102.36,26 / 26,4204227,2019-09-07 10:23:29:506,1.1251,-1.4944,9.9728,0.0147,-0.0202,9.8065,-0.0269,-0.1409,0.0355,-29.0,-32.0,22.44,316.13,-86.08,-168.6
42001,52.403763,-1.556856,167.23,3.06,2.0,102.36,26 / 26,4204327,2019-09-07 10:23:29:606,1.0061,-1.2845,9.9621,0.0086,-0.0128,9.8066,0.022,-0.1353,-0.0088,-28.37,-31.37,22.19,318.29,-85.82,-167.37
42002,52.403763,-1.556856,167.23,3.06,2.0,102.36,26 / 26,4204427,2019-09-07 10:23:29:706,1.1112,-1.981,9.5545,0.0114,-0.0101,9.8066,-0.0656,-0.1342,0.0153,-27.87,-31.62,23.31,319.58,-85.78,-167.32
42003,52.403763,-1.556856,167.23,3.06,2.0,102.36,26 / 26,4204527,2019-09-07 10:23:29:806,1.2152,-1.7306,9.6749,0.0052,-0.01,9.8066,0.0186,-0.1386,-0.0025,-28.12,-31.75,23.19,319.67,-85.69,-167.19
42004,52.403763,-1.556856,167.23,3.06,2.0,102.36,26 / 26,4204628,2019-09-07 10:23:29:907,1.3518,-1.7339,9.8619,0.0085,-0.0107,9.8066,-0.07,-0.1551,0.0358,-28.19,-31.5,23.56,320.69,-85.56,-167.46
42005,52.403763,-1.556856,167.23,3.06,2.0,102.36,26 / 26,4204728,2019-09-07 10:23:30:007,0.2496,-1.507,9.8743,0.0042,-0.0208,9.8066,0.0289,-0.1472,0.0208,-27.94,-31.81,23.81,321.92,-85.47,-166.17
42006,52.403763,-1.556856,167.23,3.06,2.0,102.36,26 / 26,4204827,2019-09-07 10:23:30:106,0.5814,-1.7373,9.5645,-0.0043,-0.0097,9.8066,0.0178,-0.1643,0.0218,-27.75,-30.75,24.31,321.99,-85.33,-166.1
42007,52.403763,-1.556856,167.23,3.06,2.0,102.36,26 / 26,4204927,2019-09-07 10:23:30:206,0.8967,-1.7888,9.8002,0.0002,-0.0042,9.8066,0.0533,-0.1772,0.0146,-27.94,-31.44,24.38,323.23,-85.25,-164.89
42008,52.403763,-1.556856,167.23,3.06,2.0,102.36,26 / 26,4205027,2019-09-07 10:23:30:306,0.5049,-1.3747,9.3404,0.0098,-0.0066,9.8066,-0.0826,-0.1942,0.0113,-27.75,-31.37,24.63,324.75,-85.12,-164.59
42009,52.40372,-1.556688,166.99,5.33,2.0,124.4,26 / 26,4205127,2019-09-07 10:23:30:406,0.8736,-1.4186,9.7314,0.0178,-0.0124,9.8065,0.0856,-0.1865,0.0406,-26.94,-31.31,25.38,325.5,-85.04,-164.84
42010,52.40372,-1.556688,166.99,5.33,2.0,124.4,26 / 26,4205227,2019-09-07 10:23:30:506,-0.1496,-1.2054,9.543,-0.0251,0.0222,9.8065,-0.0319,-0.1794,0.0082,-27.06,-31.75,25.0,325.97,-84.89,-164.23
42011,52.40372,-1.556688,166.99,5.33,2.0,124.4,26 / 26,4205327,2019-09-07 10:23:30:606,0.3661,-1.373,9.8495,-0.0086,0.0035,9.8066,-0.0611,-0.1775,0.0278,-26.81,-31.62,24.94,326.69,-85.07,-163.66
42012,52.40372,-1.556688,166.99,5.33,2.0,124.4,26 / 26,4205427,2019-09-07 10:23:30:706,0.1971,-0.9801,9.8689,-0.0075,0.0093,9.8066,0.0571,-0.2487,0.053,-26.37,-31.56,26.13,329.88,-85.09,-162.88
42013,52.40372,-1.556688,166.99,5.33,2.0,124.4,26 / 26,4205527,2019-09-07 10:23:30:806,0.8723,-0.7002,9.5229,-0.0043,0.0085,9.8066,0.0,-0.1678,-0.0221,-26.19,-31.94,25.56,330.12,-85.15,-162.69
42014,52.40372,-1.556688,166.99,5.33,2.0,124.4,26 / 26,4205627,2019-09-07 10:23:30:906,-0.0446,-1.4684,9.8581,-0.0025,0.015,9.8066,0.0346,-0.2,0.0221,-26.87,-31.62,26.25,327.54,-85.16,-164.07
42015,52.40372,-1.556688,166.99,5.33,2.0,124.4,26 / 26,4205727,2019-09-07 10:23:31:006,0.284,-1.069,10.1483,0.0118,-0.0046,9.8066,-0.0279,-0.1714,0.0191,-26.06,-31.62,26.94,328.49,-85.1,-165.31
42016,52.40372,-1.556688,166.99,5.33,2.0,124.4,26 / 26,4205828,2019-09-07 10:23:31:107,0.7652,-0.8071,10.0074,0.0146,-0.0111,9.8066,0.1039,-0.0928,-0.0212,-25.94,-31.37,26.88,328.41,-84.98,-165.39
42017,52.40372,-1.556688,166.99,5.33,2.0,124.4,26 / 26,4205927,2019-09-07 10:23:31:206,0.7712,-1.7246,9.551,0.0082,-0.0065,9.8065,0.0704,-0.1459,0.0398,-25.81,-31.44,27.0,326.75,-84.65,-166.79
42018,52.40372,-1.556688,166.99,5.33,2.0,124.4,26 / 26,4206028,2019-09-07 10:23:31:307,0.5107,-1.341,10.0034,-0.0027,-0.0109,9.8066,-0.025,-0.1905,0.0457,-25.25,-30.56,27.63,329.79,-84.43,-166.01
42019,52.40372,-1.556688,166.99,5.33,2.0,124.4,25 / 25,4206127,2019-09-07 10:23:31:406,-0.7324,-1.7382,9.965,0.0133,-0.0266,9.8066,-0.0189,-0.2049,0.0547,-24.94,-31.31,28.0,330.96,-84.19,-164.83
42020,52.40372,-1.556688,166.99,5.33,2.0,124.4,25 / 25,4206227,2019-09-07 10:23:31:506,0.8202,-0.7486,9.2021,0.0048,-0.0035,9.8066,-0.1966,-0.1529,-0.0048,-25.75,-31.25,28.19,330.08,-84.18,-164.56
42021,52.40372,-1.556688,166.99,5.33,2.0,124.4,25 / 25,4206327,2019-09-07 10:23:31:606,-1.0005,-1.6346,9.9356,0.0196,-0.0183,9.8066,-0.1063,-0.2507,0.0713,-24.75,-30.87,28.25,331.78,-84.15,-164.05
42022,52.40372,-1.556688,166.99,5.33,2.0,124.4,25 / 25,4206427,2019-09-07 10:23:31:706,0.2273,-2.296,9.5938,-0.0229,0.016,9.8065,0.1579,-0.2146,0.0502,-24.62,-30.94,28.0,331.96,-84.16,-163.89
42023,52.40372,-1.556688,166.99,5.33,2.0,124.4,25 / 25,4206528,2019-09-07 10:23:31:807,-0.3317,-1.8882,9.5618,0.0041,-0.0093,9.8066,-0.0587,-0.2046,0.0033,-24.31,-30.75,28.63,335.23,-84.12,-163.02
42024,52.40372,-1.556688,166.99,5.33,2.0,124.4,25 / 25,4206628,2019-09-07 10:23:31:907,-0.5272,-0.8427,9.6193,-0.0114,0.0099,9.8066,-0.0766,-0.2052,0.0199,-23.94,-31.5,28.63,334.8,-84.1,-163.41
42025,52.40372,-1.556688,166.99,5.33,2.0,124.4,25 / 25,4206727,2019-09-07 10:23:32:006,-0.1814,-0.0378,9.8179,0.0093,0.0024,9.8066,-0.1372,-0.1511,-0.0098,-24.0,-31.37,28.69,334.36,-84.06,-163.79
42026,52.40372,-1.556688,166.99,5.33,2.0,124.4,25 / 25,4206827,2019-09-07 10:23:32:106,0.5314,0.0454,9.8139,-0.0061,0.0221,9.8066,0.0134,-0.2446,0.0452,-23.94,-31.25,29.25,333.59,-83.9,-164.44
42027,52.40372,-1.556688,166.99,5.33,2.0,124.4,25 / 25,4206927,2019-09-07 10:23:32:206,-0.8213,-0.976,8.9616,-0.0181,0.0087,9.8066,-0.0612,-0.1996,0.0116,-23.37,-31.37,29.63,336.87,-83.91,-163.58
42028,52.40372,-1.556688,166.99,5.33,2.0,124.4,25 / 25,4207028,2019-09-07 10:23:32:307,-0.8219,-1.5532,10.2736,-0.0125,0.0208,9.8065,0.2483,-0.2508,0.0561,-23.31,-31.0,29.81,336.41,-83.81,-163.96
42029,52.40372,-1.556688,166.99,5.33,2.0,124.4,25 / 25,4207128,2019-09-07 10:23:32:407,-0.3639,-1.494,10.8387,-0.0387,0.039,9.8064,0.2152,-0.2155,0.0228,-22.5,-31.31,30.56,339.67,-83.91,-163.14
42030,52.40372,-1.556688,166.99,5.33,2.0,124.4,25 / 25,4207227,2019-09-07 10:23:32:506,0.3157,-1.3669,10.3701,0.0326,-0.0391,9.8065,-0.1997,-0.1815,0.0117,-23.06,-31.31,29.94,337.48,-83.98,-163.05
42031,52.40372,-1.556688,166.99,5.33,2.0,124.4,25 / 25,4207327,2019-09-07 10:23:32:606,-1.1464,-1.7864,9.91,0.0422,-0.0484,9.8064,0.0601,-0.2289,0.0557,-21.75,-31.44,30.19,337.82,-83.68,-163.82
42032,52.40372,-1.556688,166.99,5.33,2.0,124.4,25 / 25,4207427,2019-09-07 10:23:32:706,-0.7419,-1.4783,9.8944,0.0104,-0.0127,9.8066,-0.1661,-0.19,-0.0101,-21.87,-31.62,30.69,338.37,-83.48,-164.12
42033,52.40372,-1.556688,166.99,5.33,2.0,124.4,25 / 25,4207527,2019-09-07 10:23:32:806,-1.4989,-1.2826,9.8958,0.0362,-0.0247,9.8065,-0.1826,-0.2482,0.0687,-21.94,-31.06,30.75,336.63,-83.2,-165.66
42034,52.40372,-1.556688,166.99,5.33,2.0,124.4,25 / 25,4207627,2019-09-07 10:23:32:906,-0.8545,-1.2046,10.4127,-0.0147,0.0131,9.8066,0.0722,-0.1998,0.0247,-21.31,-31.62,31.13,338.66,-83.32,-165.02
42035,52.40372,-1.556688,166.99,5.33,2.0,124.4,25 / 25,4207727,2019-09-07 10:23:33:006,-0.4077,-1.3238,10.1233,0.0033,0.0084,9.8066,0.0529,-0.2053,0.0211,-20.5,-30.62,30.75,339.51,-83.26,-165.55
42036,52.40372,-1.556688,166.99,5.33,2.0,124.4,25 / 25,4207827,2019-09-07 10:23:33:106,-0.3383,-1.4943,9.622,0.0111,-0.0054,9.8066,0.033,-0.2148,0.0305,-20.69,-31.19,31.69,338.2,-83.04,-166.29
42037,52.40372,-1.556688,166.99,5.33,2.0,124.4,25 / 25,4207927,2019-09-07 10:23:33:206,-0.9326,-1.3472,9.6854,0.0175,-0.0176,9.8066,-0.0334,-0.2233,0.02,-21.12,-31.31,31.19,336.04,-82.8,-167.26
42038,52.40372,-1.556688,166.99,5.33,2.0,124.4,25 / 25,4208027,2019-09-07 10:23:33:306,-0.6689,-0.7792,10.0649,-0.0042,0.0103,9.8066,-0.0611,-0.1798,0.0059,-20.0,-30.87,32.06,337.86,-82.73,-167.72
42039,52.40372,-1.556688,166.99,5.33,2.0,124.4,26 / 26,4208127,2019-09-07 10:23:33:406,-1.1581,-1.614,9.9283,-0.013,0.0237,9.8066,-0.0259,-0.2274,0.0411,-19.62,-31.06,32.31,337.87,-82.86,-167.76
42040,52.40372,-1.556688,166.99,5.33,2.0,124.4,26 / 26,4208228,2019-09-07 10:23:33:507,-0.8263,-0.9923,9.7731,0.0046,0.001,9.8066,0.0238,-0.2043,0.0417,-19.37,-30.37,31.81,338.93,-82.85,-168.15
42041,52.40372,-1.556688,166.99,5.33,2.0,124.4,26 / 26,4208327,2019-09-07 10:23:33:606,-0.2283,-1.5986,9.9292,-0.0032,-0.0089,9.8066,0.0823,-0.1414,-0.0122,-18.94,-30.75,32.63,339.93,-82.83,-167.99
42042,52.40372,-1.556688,166.99,5.33,2.0,124.4,26 / 26,4208427,2019-09-07 10:23:33:706,-0.9083,-1.7033,10.0913,0.0192,-0.0255,9.8065,-0.1072,-0.2287,0.0269,-18.37,-31.0,32.06,340.08,-82.84,-168.36
42043,52.40372,-1.556688,166.99,5.33,2.0,124.4,26 / 26,4208527,2019-09-07 10:23:33:806,-1.1663,-1.2083,9.9753,0.0223,-0.034,9.8065,-0.0468,-0.2152,0.0324,-18.25,-30.75,32.56,340.03,-82.57,-169.12
42044,52.40372,-1.556688,166.99,5.33,2.0,124.4,26 / 26,4208627,2019-09-07 10:23:33:906,-0.6572,-0.3322,9.6419,0.0004,0.0069,9.8066,-0.0232,-0.1447,-0.0209,-18.0,-30.75,32.0,338.97,-82.5,-169.24
42045,52.40372,-1.556688,166.99,5.33,2.0,124.4,26 / 26,4208727,2019-09-07 10:23:34:006,-1.7031,-0.9314,9.848,0.0168,-0.0141,9.8066,-0.0499,-0.2204,0.0379,-17.37,-30.94,32.81,340.39,-82.32,-170.05
42046,52.40372,-1.556688,166.99,5.33,2.0,124.4,26 / 26,4208827,2019-09-07 10:23:34:106,-1.7152,-2.1421,10.0461,0.0108,-0.0136,9.8066,-0.0394,-0.1459,-0.0273,-17.5,-30.69,32.25,338.74,-82.25,-170.7
42047,52.40372,-1.556688,166.99,5.33,2.0,124.4,26 / 26,4208928,2019-09-07 10:23:34:207,-1.5108,-0.8934,9.8185,0.0119,-0.028,9.8065,-0.0427,-0.1746,0.0182,-17.37,-30.94,33.06,338.64,-82.05,-171.5
42048,52.40372,-1.556688,166.99,5.33,2.0,124.4,26 / 26,4209028,2019-09-07 10:23:34:307,-1.8739,-1.4551,10.0036,-0.0055,0.0103,9.8066,0.0238,-0.2248,0.0246,-16.31,-31.06,32.81,340.12,-81.97,-171.53
42049,52.40372,-1.556688,166.99,5.33,2.0,124.4,25 / 25,4209127,2019-09-07 10:23:34:406,-1.6653,-0.2171,9.7653,-0.0049,-0.001,9.8066,-0.0273,-0.2017,-0.0178,-15.69,-30.31,33.19,340.27,-82.04,-171.49
42050,52.40372,-1.556688,166.99,5.33,2.0,124.4,25 / 25,4209227,2019-09-07 10:23:34:506,-1.2605,-1.5865,9.9126,0.0073,-0.0161,9.8066,0.018,-0.2257,0.0852,-15.94,-30.81,33.19,339.91,-82.03,-171.73
42051,52.40372,-1.556688,166.99,5.33,2.0,124.4,25 / 25,4209327,2019-09-07 10:23:34:606,-1.6236,-1.1457,9.854,0.0021,-0.0212,9.8066,-0.0127,-0.228,0.0448,-15.62,-30.94,33.06,340.45,-81.86,-171.2
42052,52.40372,-1.556688,166.99,5.33,2.0,124.4,25 / 25,4209427,2019-09-07 10:23:34:706,-1.7122,-1.3929,9.8353,0.0007,-0.0021,9.8066,-0.001,-0.1364,0.0027,-15.06,-31.44,34.06,343.08,-81.9,-171.0
42053,52.40372,-1.556688,166.99,5.33,2.0,124.4,25 / 25,4209527,2019-09-07 10:23:34:806,-1.393,-1.0021,10.1499,-0.0105,0.0241,9.8066,0.0179,-0.1482,0.0098,-15.12,-30.94,33.44,342.28,-82.02,-171.04
42054,52.40372,-1.556688,166.99,5.33,2.0,124.4,25 / 25,4209627,2019-09-07 10:23:34:906,-1.3837,-1.521,9.9237,0.014,-0.008,9.8066,-0.0551,-0.1598,0.0191,-14.25,-31.19,33.06,343.16,-81.98,-171.69
42055,52.40372,-1.556688,166.99,5.33,2.0,124.4,25 / 25,4209727,2019-09-07 10:23:35:006,-0.2198,0.4441,9.6729,0.0076,0.0008,9.8066,-0.0928,-0.1156,-0.0585,-13.87,-31.56,33.19,342.28,-82.04,-172.41
42056,52.40372,-1.556688,166.99,5.33,2.0,124.4,25 / 25,4209827,2019-09-07 10:23:35:106,-0.3229,-1.9786,10.266,0.013,0.0004,9.8066,0.1055,-0.146,0.0239,-14.12,-31.0,33.69,341.86,-82.02,-173.51
42057,52.40372,-1.556688,166.99,5.33,2.0,124.4,25 / 25,4209927,2019-09-07 10:23:35:206,0.1593,-2.085,10.6575,-0.0008,0.0112,9.8066,-0.0205,-0.1285,-0.0083,-13.31,-30.94,32.88,341.59,-81.98,-174.53
42058,52.40372,-1.556688,166.99,5.33,2.0,124.4,25 / 25,4210027,2019-09-07 10:23:35:306,-0.7674,-0.2584,9.9821,0.0128,-0.0113,9.8066,0.1009,-0.0145,-0.0332,-12.62,-31.5,33.5,341.07,-81.91,-175.6
42059,52.40372,-1.556688,166.99,5.33,2.0,124.4,25 / 25,4210127,2019-09-07 10:23:35:406,0.8059,-1.3534,9.8123,0.0,-0.0029,9.8066,0.0955,-0.1153,0.0277,-12.81,-31.0,33.81,340.1,-81.76,-176.41
42060,52.40372,-1.556688,166.99,5.33,2.0,124.4,25 / 25,4210227,2019-09-07 10:23:35:506,0.7155,-1.3991,9.6676,0.0175,0.003,9.8065,0.0956,0.0011,-0.0374,-12.62,-31.12,33.38,338.77,-81.76,-176.93
42061,52.40372,-1.556688,166.99,5.33,2.0,124.4,25 / 25,4210327,2019-09-07 10:23:35:606,-0.6386,-1.0389,9.5714,0.0031,-0.0018,9.8066,0.0097,-0.0904,0.0388,-12.81,-31.5,33.31,338.74,-81.72,-176.94
42062,52.40372,-1.556688,166.99,5.33,2.0,124.4,25 / 25,4210427,2019-09-07 10:23:35:706,-1.0731,-0.0969,10.4396,0.0073,-0.01,9.8066,0.0892,-0.0089,-0.044,-12.44,-31.75,32.88,340.32,-81.68,-176.96
42063,52.40372,-1.556688,166.99,5.33,2.0,124.4,25 / 25,4210527,2019-09-07 10:23:35:806,-0.7878,-0.6867,10.3344,0.0034,0.0176,9.8066,-0.0618,-0.0374,-0.0147,-12.37,-30.69,32.94,339.85,-81.69,-177.45
42064,52.40372,-1.556688,166.99,5.33,2.0,124.4,25 / 25,4210627,2019-09-07 10:23:35:906,1.5116,-0.2059,10.0693,-0.0119,0.0281,9.8065,0.0992,0.0682,-0.0701,-12.56,-31.69,33.25,337.41,-81.71,-178.01
42065,52.40372,-1.556688,166.99,5.33,2.0,124.4,25 / 25,4210728,2019-09-07 10:23:36:007,0.0806,-0.6518,9.9274,0.0158,-0.0316,9.8065,0.1952,-0.0459,0.0077,-12.62,-31.31,33.13,336.42,-81.57,-178.91
42066,52.40372,-1.556688,166.99,5.33,2.0,124.4,25 / 25,4210827,2019-09-07 10:23:36:106,0.7797,0.0569,10.3053,-0.0011,-0.0136,9.8066,0.0629,-0.043,-0.0118,-12.62,-31.25,33.06,336.37,-81.4,-178.88
42067,52.40372,-1.556688,166.99,5.33,2.0,124.4,25 / 25,4210928,2019-09-07 10:23:36:207,0.5799,-1.3192,9.911,0.0059,-0.0339,9.8065,0.1686,-0.0451,0.009,-12.37,-31.0,33.31,337.88,-81.33,-179.03
42068,52.40372,-1.556688,166.99,5.33,2.0,124.4,25 / 25,4211027,2019-09-07 10:23:36:306,0.4963,-0.1541,10.1442,0.0102,-0.0224,9.8066,-0.101,-0.0543,0.0341,-12.19,-30.75,33.25,337.89,-81.38,-179.04
42069,52.40372,-1.556688,166.99,5.33,2.0,124.4,26 / 26,4211127,2019-09-07 10:23:36:406,0.4451,0.5348,9.6936,0.0054,-0.0071,9.8065,-0.0771,0.0664,-0.0736,-12.5,-31.31,33.69,338.07,-81.48,-179.54
42070,52.40372,-1.556688,166.99,5.33,2.0,124.4,26 / 26,4211228,2019-09-07 10:23:36:507,-0.3209,-0.5713,10.0288,0.0099,-0.017,9.8066,-0.1233,-0.0157,0.028,-12.56,-31.25,33.25,335.7,-81.36,-179.45
42071,52.40372,-1.556688,166.99,5.33,2.0,124.4,26 / 26,4211327,2019-09-07 10:23:36:606,-0.1482,0.1811,10.3642,-0.0006,0.0171,9.8066,-0.0718,0.0205,-0.037,-12.87,-31.31,33.38,335.65,-81.35,-179.49
42072,52.40372,-1.556688,166.99,5.33,2.0,124.4,26 / 26,4211427,2019-09-07 10:23:36:706,-0.7113,-0.861,9.8235,0.004,0.0041,9.8066,0.0197,-0.0554,0.0629,-12.19,-30.75,32.94,336.45,-81.37,179.71
42073,52.40372,-1.556688,166.99,5.33,2.0,124.4,26 / 26,4211527,2019-09-07 10:23:36:806,0.7932,0.6381,9.5529,0.0011,0.0103,9.8066,-0.0425,0.0837,-0.0503,-12.62,-31.81,33.06,334.62,-81.36,179.71
42074,52.40372,-1.556688,166.99,5.33,2.0,124.4,26 / 26,4211627,2019-09-07 10:23:36:906,-1.4002,0.0054,9.6356,0.0007,-0.0028,9.8066,-0.0136,0.0934,-0.0669,-12.5,-31.56,33.0,336.61,-81.33,179.97
42075,52.40372,-1.556688,166.99,5.33,2.0,124.4,26 / 26,4211728,2019-09-07 10:23:37:007,0.2938,-0.803,9.7227,-0.0028,0.0394,9.8065,-0.0493,0.0571,-0.0273,-12.37,-31.75,33.06,336.51,-81.26,179.91
42076,52.40372,-1.556688,166.99,5.33,2.0,124.4,26 / 26,4211828,2019-09-07 10:23:37:107,-0.0152,0.2255,10.2447,-0.0115,0.0179,9.8066,0.1502,-0.0002,-0.0533,-11.69,-30.81,33.19,336.34,-81.47,179.57
42077,52.40372,-1.556688,166.99,5.33,2.0,124.4,26 / 26,4211928,2019-09-07 10:23:37:207,0.2235,-0.5946,9.6603,0.0239,-0.0524,9.8065,0.1452,-0.038,0.0155,-12.25,-31.06,32.13,335.24,-81.52,179.26
42078,52.40372,-1.556688,166.99,5.33,2.0,124.4,26 / 26,4212027,2019-09-07 10:23:37:306,-0.2907,0.0025,9.9011,0.0072,-0.0258,9.8065,-0.1479,-0.0321,0.0071,-11.69,-30.81,33.0,336.06,-81.27,179.41
42079,52.40372,-1.556688,166.99,5.33,2.0,124.4,25 / 25,4212127,2019-09-07 10:23:37:406,0.3352,1.0501,9.4802,0.0106,-0.0251,9.8065,-0.1375,-0.0067,-0.0622,-12.37,-31.12,32.56,335.02,-81.27,178.51
42080,52.40372,-1.556688,166.99,5.33,2.0,124.4,25 / 25,4212227,2019-09-07 10:23:37:506,0.4914,0.0273,9.31,-0.0016,0.014,9.8066,-0.1821,0.0202,0.0243,-11.62,-31.81,32.63,334.83,-81.24,178.46
42081,52.40372,-1.556688,166.99,5.33,2.0,124.4,25 / 25,4212328,2019-09-07 10:23:37:607,0.3217,-0.1207,9.4096,-0.0046,0.0106,9.8066,-0.0894,0.052,-0.0506,-12.19,-31.19,32.25,334.19,-81.3,178.44
42082,52.40372,-1.556688,166.99,5.33,2.0,124.4,25 / 25,4212427,2019-09-07 10:23:37:706,-0.9635,0.679,9.2207,-0.0051,0.0119,9.8066,-0.065,0.0255,-0.0257,-12.19,-31.81,32.69,334.35,-81.23,178.05
42083,52.40372,-1.556688,166.99,5.33,2.0,124.4,25 / 25,4212527,2019-09-07 10:23:37:806,-0.1758,1.2469,9.4567,-0.0221,0.0404,9.8065,-0.0329,-0.0029,0.0165,-11.87,-31.19,32.81,334.26,-81.44,177.77
42084,52.40372,-1.556688,166.99,5.33,2.0,124.4,25 / 25,4212627,2019-09-07 10:23:37:906,-0.2688,0.1255,9.7086,-0.0017,-0.0017,9.8066,0.0714,0.0079,0.019,-12.0,-31.19,32.81,334.49,-81.34,178.01
42085,52.40372,-1.556688,166.99,5.33,2.0,124.4,25 / 25,4212727,2019-09-07 10:23:38:006,0.0665,-1.1035,9.7586,-0.0029,0.0079,9.8066,0.0042,-0.0305,0.0246,-11.87,-30.81,32.69,334.64,-81.34,178.15
42086,52.40372,-1.556688,166.99,5.33,2.0,124.4,25 / 25,4212827,2019-09-07 10:23:38:106,-0.7821,1.2998,9.9659,-0.0082,0.0113,9.8066,0.0208,0.0551,-0.0449,-12.0,-30.94,32.94,334.9,-81.33,178.38
42087,52.40372,-1.556688,166.99,5.33,2.0,124.4,25 / 25,4212927,2019-09-07 10:23:38:206,0.072,0.5549,10.244,-0.0036,-0.0023,9.8066,-0.0271,0.075,-0.0158,-12.37,-30.62,33.5,335.76,-81.27,178.53
42088,52.40372,-1.556688,166.99,5.33,2.0,124.4,25 / 25,4213028,2019-09-07 10:23:38:307,1.2527,-0.7252,10.1771,0.0106,-0.0285,9.8066,0.0279,0.0558,-0.0083,-12.12,-30.0,32.56,335.4,-81.32,178.71
42089,52.40372,-1.556688,166.99,5.33,2.0,124.4,25 / 25,4213127,2019-09-07 10:23:38:406,0.1465,-0.0981,10.4753,0.0041,-0.0277,9.8066,0.038,-0.013,-0.0069,-12.06,-30.81,30.88,334.24,-81.25,179.2
42090,52.40372,-1.556688,166.99,5.33,2.0,124.4,26 / 26,4213227,2019-09-07 10:23:38:506,2.0952,-0.3025,9.2992,-0.0002,0.0028,9.8066,0.0296,0.0854,-0.0358,-11.12,-32.69,32.25,336.49,-81.11,179.17
42091,52.40372,-1.556688,166.99,5.33,2.0,124.4,26 / 26,4213327,2019-09-07 10:23:38:606,-0.5185,-0.4209,9.9658,0.0208,-0.0456,9.8065,-0.0003,-0.0463,0.0731,-11.56,-32.37,33.19,335.73,-80.92,179.38
42092,52.40372,-1.556688,166.99,5.33,2.0,124.4,26 / 26,4213427,2019-09-07 10:23:38:706,-0.0855,0.964,10.5362,-0.0071,0.0072,9.8066,0.0897,0.0173,-0.0147,-11.94,-31.75,33.63,337.14,-80.98,179.94
42093,52.40372,-1.556688,166.99,5.33,2.0,124.4,26 / 26,4213527,2019-09-07 10:23:38:806,0.3674,0.666,10.3914,0.0086,-0.0104,9.8066,-0.1389,-0.0626,0.0622,-12.44,-31.94,32.94,336.63,-81.02,-179.89
42094,52.40372,-1.556688,166.99,5.33,2.0,124.4,26 / 26,4213627,2019-09-07 10:23:38:906,0.4883,0.2312,9.9999,-0.0088,0.0215,9.8066,0.2139,-0.0597,0.0338,-11.81,-31.25,32.5,337.49,-81.04,-179.26
42095,52.40372,-1.556688,166.99,5.33,2.0,124.4,26 / 26,4213728,2019-09-07 10:23:39:007,-0.3964,-0.5285,10.1194,-0.0123,0.0181,9.8065,0.0882,-0.0136,0.0298,-12.25,-32.0,33.44,337.92,-81.18,-178.84
42096,52.40372,-1.556688,166.99,5.33,2.0,124.4,26 / 26,4213827,2019-09-07 10:23:39:106,-0.6979,-0.0953,10.164,0.0147,-0.0664,9.8064,-0.1365,-0.0478,0.009,-12.0,-31.12,32.75,338.76,-80.9,-178.11
42097,52.40372,-1.556688,166.99,5.33,2.0,124.4,26 / 26,4213927,2019-09-07 10:23:39:206,1.0302,0.1526,10.0006,0.0136,-0.0274,9.8065,0.0006,0.0321,-0.0358,-12.19,-31.62,32.75,338.85,-81.07,-178.01
42098,52.40372,-1.556688,166.99,5.33,2.0,124.4,26 / 26,4214027,2019-09-07 10:23:39:306,0.3473,1.3532,9.9903,-0.0057,0.0055,9.8066,0.0356,-0.0536,0.0374,-12.25,-31.56,32.69,339.06,-81.11,-177.84
42099,52.403084,-1.556448,166.25,10.18,3.0,179.61,25 / 25,4214128,2019-09-07 10:23:39:407,-0.0241,0.489,9.341,-0.0029,-0.0012,9.8066,-0.1195,-0.0079,-0.0336,-12.5,-31.5,32.88,339.74,-81.04,-177.32
42100,52.403084,-1.556448,166.25,10.18,3.0,179.61,25 / 25,4214228,2019-09-07 10:23:39:507,-1.1644,0.7754,9.7407,0.002,0.0109,9.8066,0.0052,-0.0761,0.0531,-12.69,-32.19,33.0,337.84,-81.18,-177.42
42101,52.403084,-1.556448,166.25,10.18,3.0,179.61,25 / 25,4214327,2019-09-07 10:23:39:606,-0.6492,-0.0433,10.0266,-0.0099,0.0211,9.8066,0.0645,-0.0257,0.0216,-12.12,-31.12,32.75,340.18,-81.07,-176.95
42102,52.403084,-1.556448,166.25,10.18,3.0,179.61,25 / 25,4214427,2019-09-07 10:23:39:706,-0.0792,0.095,9.4273,-0.0081,0.0101,9.8066,0.0272,0.0258,-0.0417,-12.75,-31.94,33.0,338.43,-81.15,-176.91
42103,52.403084,-1.556448,166.25,10.18,3.0,179.61,25 / 25,4214528,2019-09-07 10:23:39:807,0.7244,-0.5538,9.0141,-0.009,0.0274,9.8066,0.0598,-0.099,0.0352,-12.5,-31.44,32.44,339.33,-81.11,-177.04
42104,52.403084,-1.556448,166.25,10.18,3.0,179.61,25 / 25,4214627,2019-09-07 10:23:39:906,-0.9489,0.2163,9.7323,0.0196,-0.0235,9.8066,-0.1253,-0.0986,0.0483,-12.62,-30.94,32.81,338.56,-80.96,-176.81
42105,52.403084,-1.556448,166.25,10.18,3.0,179.61,25 / 25,4214727,2019-09-07 10:23:40:006,-1.2479,0.2706,9.4445,-0.0057,-0.0036,9.8066,-0.072,0.0626,-0.0764,-13.06,-31.87,32.63,338.44,-81.0,-176.84
42106,52.403084,-1.556448,166.25,10.18,3.0,179.61,25 / 25,4214827,2019-09-07 10:23:40:106,0.689,0.4922,9.6824,-0.0043,0.0252,9.8065,0.0428,0.0573,-0.0139,-12.19,-31.06,32.63,339.81,-81.13,-177.28
42107,52.403084,-1.556448,166.25,10.18,3.0,179.61,25 / 25,4214927,2019-09-07 10:23:40:206,-0.2,0.7835,9.8615,-0.0148,0.0283,9.8065,0.1536,-0.0913,-0.0129,-12.44,-31.5,32.69,339.74,-80.99,-177.3
42108,52.403084,-1.556448,166.25,10.18,3.0,179.61,25 / 25,4215027,2019-09-07 10:23:40:306,-1.7139,0.1095,10.0302,-0.008,0.0536,9.8065,0.1319,-0.1412,0.0583,-12.19,-31.5,32.31,338.75,-81.24,-177.59
42109,52.403084,-1.556448,166.25,10.18,3.0,179.61,25 / 26,4215128,2019-09-07 10:23:40:407,-0.7199,0.7197,9.579,0.0291,-0.0367,9.8065,0.0192,0.0848,-0.0468,-12.56,-31.94,32.63,336.6,-80.99,-178.41
42110,52.403084,-1.556448,166.25,10.18,3.0,179.61,25 / 26,4215227,2019-09-07 10:23:40:506,0.1475,-0.2792,9.9339,0.004,-0.0296,9.8065,0.1047,0.0072,0.0131,-12.25,-31.0,33.19,338.47,-81.09,-178.43
42111,52.403084,-1.556448,166.25,10.18,3.0,179.61,25 / 26,4215327,2019-09-07 10:23:40:606,0.4339,-0.003,9.8836,0.0127,-0.0241,9.8066,-0.1692,-0.0983,0.0612,-12.19,-31.37,32.94,339.33,-81.2,-177.73
42112,52.403084,-1.556448,166.25,10.18,3.0,179.61,25 / 26,4215427,2019-09-07 10:23:40:706,-0.6562,0.2774,10.2521,-0.0027,-0.013,9.8066,-0.0319,-0.0569,0.0668,-12.0,-31.37,33.63,340.7,-81.2,-177.15
42113,52.403084,-1.556448,166.25,10.18,3.0,179.61,25 / 26,4215527,2019-09-07 10:23:40:806,-1.1816,1.3851,9.4139,-0.0041,-0.0055,9.8066,-0.0271,-0.038,0.0619,-12.0,-31.25,33.38,340.77,-81.25,-176.5
42114,52.403084,-1.556448,166.25,10.18,3.0,179.61,25 / 26,4215628,2019-09-07 10:23:40:907,-1.0895,-0.369,9.8126,-0.0108,-0.0196,9.8066,0.0828,-0.0678,0.0353,-11.94,-31.31,32.88,342.36,-81.13,-175.1
42115,52.403084,-1.556448,166.25,10.18,3.0,179.61,25 / 26,4215728,2019-09-07 10:23:41:007,-0.8842,0.1363,9.8252,-0.0071,-0.01,9.8066,-0.1365,-0.0548,0.0163,-11.62,-31.56,33.19,343.13,-81.02,-174.32
42116,52.403084,-1.556448,166.25,10.18,3.0,179.61,25 / 26,4215827,2019-09-07 10:23:41:106,-1.2625,-1.1781,9.5676,0.008,-0.0066,9.8066,0.0731,-0.135,0.0719,-11.94,-31.5,34.0,344.11,-81.05,-174.17
42117,52.403084,-1.556448,166.25,10.18,3.0,179.61,25 / 26,4215928,2019-09-07 10:23:41:207,-0.8493,0.6503,9.3632,-0.0137,0.0311,9.8065,-0.0316,-0.1582,0.0189,-11.44,-31.5,33.13,345.55,-80.89,-173.82
42118,52.403084,-1.556448,166.25,10.18,3.0,179.61,25 / 26,4216027,2019-09-07 10:23:41:306,-1.3011,-0.3089,9.5817,-0.008,0.0216,9.8066,0.0197,-0.1792,0.0189,-11.75,-31.69,32.81,344.41,-81.04,-173.24
42119,52.403084,-1.556448,166.25,10.18,3.0,179.61,25 / 25,4216128,2019-09-07 10:23:41:407,-1.8276,-0.9175,9.9221,-0.015,0.001,9.8066,0.0501,-0.1003,0.0282,-10.94,-31.06,32.75,346.02,-81.01,-173.45
42120,52.403084,-1.556448,166.25,10.18,3.0,179.61,25 / 25,4216227,2019-09-07 10:23:41:506,-2.1803,0.1027,9.9836,-0.0036,-0.0204,9.8065,0.0225,-0.1701,0.0108,-11.19,-31.62,33.0,347.12,-80.98,-172.45
42121,52.403084,-1.556448,166.25,10.18,3.0,179.61,25 / 25,4216327,2019-09-07 10:23:41:606,-2.3136,-0.0697,10.016,-0.0046,-0.0059,9.8066,-0.1227,-0.2331,0.0496,-11.0,-31.06,33.06,348.23,-80.99,-171.56
42122,52.403084,-1.556448,166.25,10.18,3.0,179.61,25 / 25,4216427,2019-09-07 10:23:41:706,-3.6111,0.6944,9.9277,0.016,-0.0318,9.8065,-0.1558,-0.288,0.0644,-11.0,-32.19,32.25,347.33,-80.85,-171.66
42123,52.403084,-1.556448,166.25,10.18,3.0,179.61,25 / 25,4216528,2019-09-07 10:23:41:807,-2.6608,-0.2012,9.6221,-0.0174,0.0373,9.8065,0.158,-0.2884,0.0492,-10.44,-32.0,34.06,350.76,-80.82,-171.41
42124,52.403084,-1.556448,166.25,10.18,3.0,179.61,25 / 25,4216627,2019-09-07 10:23:41:906,-3.1606,-0.7924,10.6546,-0.0113,0.0523,9.8064,-0.0464,-0.3427,0.0668,-9.69,-31.62,32.69,350.38,-81.04,-171.26
42125,52.403084,-1.556448,166.25,10.18,3.0,179.61,25 / 25,4216727,2019-09-07 10:23:42:006,-2.6408,-0.3438,9.8867,0.0059,0.0196,9.8066,0.1477,-0.3003,0.0582,-9.81,-31.56,32.56,350.45,-80.89,-171.18
42126,52.403084,-1.556448,166.25,10.18,3.0,179.61,25 / 25,4216827,2019-09-07 10:23:42:106,-1.7902,-1.4131,9.7508,-0.0123,0.0508,9.8065,0.1831,-0.2456,0.018,-9.06,-31.56,33.0,351.7,-81.06,-171.74
42127,52.403084,-1.556448,166.25,10.18,3.0,179.61,25 / 25,4216927,2019-09-07 10:23:42:206,-2.7616,-0.0845,9.5591,0.002,-0.0057,9.8066,-0.0404,-0.2685,0.0083,-8.5,-31.94,32.0,352.86,-80.75,-171.9
42128,52.403084,-1.556448,166.25,10.18,3.0,179.61,25 / 25,4217027,2019-09-07 10:23:42:306,-3.1316,-1.1936,9.299,0.0055,-0.0065,9.8066,-0.0345,-0.2864,0.0495,-8.19,-31.5,32.13,352.43,-80.69,-172.29
42129,52.403084,-1.556448,166.25,10.18,3.0,179.61,25 / 25,4217127,2019-09-07 10:23:42:406,-2.963,0.2645,9.9211,-0.0034,-0.0016,9.8066,-0.0021,-0.3415,0.0306,-7.44,-32.12,32.44,354.55,-80.74,-172.18
42130,52.403084,-1.556448,166.25,10.18,3.0,179.61,25 / 25,4217227,2019-09-07 10:23:42:506,-2.4872,-1.7592,10.5065,0.0019,-0.0043,9.8066,0.038,-0.2325,-0.0235,-6.81,-31.81,32.0,354.85,-80.79,-171.94
42131,52.403084,-1.556448,166.25,10.18,3.0,179.61,25 / 25,4217327,2019-09-07 10:23:42:606,-2.7053,-0.5084,9.6464,-0.0033,-0.0116,9.8066,0.0369,-0.236,0.0381,-6.56,-32.25,31.81,353.73,-80.84,-172.88
42132,52.403084,-1.556448,166.25,10.18,3.0,179.61,25 / 25,4217428,2019-09-07 10:23:42:707,-3.4812,-0.155,9.881,-0.0029,-0.0165,9.8066,-0.0049,-0.302,0.0154,-6.31,-31.62,31.19,355.62,-80.59,-172.64
42133,52.403084,-1.556448,166.25,10.18,3.0,179.61,25 / 25,4217528,2019-09-07 10:23:42:807,-1.4332,-3.2166,8.9774,0.0168,-0.0148,9.8065,-0.246,-0.2831,0.0728,-5.44,-32.12,31.25,356.16,-80.48,-173.98
42134,52.403084,-1.556448,166.25,10.18,3.0,179.61,25 / 25,4217627,2019-09-07 10:23:42:906,-3.0709,-1.0804,9.9447,0.0041,-0.0132,9.8066,-0.1203,-0.3348,0.0567,-5.25,-31.69,30.56,356.4,-80.47,-173.78
42135,52.403084,-1.556448,166.25,10.18,3.0,179.61,25 / 25,4217727,2019-09-07 10:23:43:006,-3.7029,0.0238,9.8583,0.0035,0.0178,9.8066,0.0641,-0.1779,0.0101,-5.06,-32.19,30.88,355.92,-80.44,-174.17
42136,52.403084,-1.556448,166.25,10.18,3.0,179.61,25 / 25,4217827,2019-09-07 10:23:43:106,-1.2836,-0.4096,9.7,-0.0164,0.0225,9.8065,0.1146,-0.1768,-0.0144,-3.87,-31.94,30.75,357.88,-80.46,-174.38
42137,52.403084,-1.556448,166.25,10.18,3.0,179.61,25 / 25,4217927,2019-09-07 10:23:43:206,-1.2269,-1.8395,9.1751,0.0175,-0.0516,9.8064,-0.0984,-0.2294,0.1276,-3.69,-32.25,30.44,357.67,-80.66,-174.31
42138,52.403084,-1.556448,166.25,10.18,3.0,179.61,25 / 25,4218027,2019-09-07 10:23:43:306,-2.9374,-1.0068,10.595,-0.0178,0.043,9.8065,0.0446,-0.1048,-0.1044,-3.75,-32.62,30.19,357.1,-80.77,-174.76
42139,52.403084,-1.556448,166.25,10.18,3.0,179.61,25 / 25,4218127,2019-09-07 10:23:43:406,-2.0474,-0.5881,10.4172,0.0093,-0.0401,9.8065,0.0157,-0.2155,0.026,-3.31,-32.37,29.94,358.33,-80.61,-175.65
42140,52.403084,-1.556448,166.25,10.18,3.0,179.61,25 / 25,4218227,2019-09-07 10:23:43:506,-2.8537,1.2537,9.4267,0.0155,-0.0169,9.8065,-0.0892,-0.2692,0.0838,-2.56,-32.12,29.13,357.92,-80.71,-175.78
42141,52.403084,-1.556448,166.25,10.18,3.0,179.61,25 / 25,4218327,2019-09-07 10:23:43:606,-2.964,-0.1742,9.4602,-0.0028,-0.0623,9.8064,-0.2499,-0.2702,0.0464,-2.25,-32.19,29.0,359.84,-80.35,-176.19
42142,52.403084,-1.556448,166.25,10.18,3.0,179.61,25 / 25,4218427,2019-09-07 10:23:43:706,-2.8802,0.9979,10.2066,0.0039,0.032,9.8065,-0.124,-0.212,0.0,-2.5,-32.75,28.94,0.03,-80.8,-176.03
42143,52.403084,-1.556448,166.25,10.18,3.0,179.61,25 / 25,4218527,2019-09-07 10:23:43:806,-2.1601,2.1382,9.4482,0.0018,0.0281,9.8066,-0.0749,-0.2179,0.0116,-1.81,-32.44,28.19,359.14,-80.89,-176.61
42144,52.403084,-1.556448,166.25,10.18,3.0,179.61,25 / 25,4218627,2019-09-07 10:23:43:906,-3.3096,1.2769,10.4053,0.0005,0.0026,9.8066,0.2062,-0.2869,0.0611,-1.31,-32.44,28.31,1.87,-80.78,-176.45
42145,52.403084,-1.556448,166.25,10.18,3.0,179.61,25 / 25,4218727,2019-09-07 10:23:44:006,-3.0017,0.0737,9.8263,0.0033,0.0101,9.8065,0.1634,-0.21,0.0198,-0.94,-32.75,28.06,1.18,-80.71,-177.01
42146,52.403084,-1.556448,166.25,10.18,3.0,179.61,25 / 25,4218827,2019-09-07 10:23:44:106,-3.1742,0.814,9.572,-0.0057,-0.0127,9.8066,-0.1207,-0.1913,0.0019,-0.75,-32.62,27.44,1.09,-80.64,-177.02
42147,52.403084,-1.556448,166.25,10.18,3.0,179.61,25 / 25,4218927,2019-09-07 10:23:44:206,-2.3072,2.0611,9.6869,0.0056,0.0066,9.8066,-0.0563,-0.2476,0.0109,-0.69,-33.06,27.44,0.8,-80.64,-177.25
42148,52.403084,-1.556448,166.25,10.18,3.0,179.61,25 / 25,4219027,2019-09-07 10:23:44:306,-2.9875,0.7214,9.9926,0.0037,-0.0129,9.8066,-0.0452,-0.2506,0.059,-0.56,-32.5,27.13,0.36,-80.77,-177.6
42149,52.403084,-1.556448,166.25,10.18,3.0,179.61,25 / 25,4219127,2019-09-07 10:23:44:406,-2.7076,0.0694,9.9429,-0.0077,-0.0143,9.8066,-0.035,-0.2315,0.0478,-0.06,-32.81,26.06,3.24,-80.69,-177.47
42150,52.403084,-1.556448,166.25,10.18,3.0,179.61,25 / 25,4219227,2019-09-07 10:23:44:506,-2.0806,0.5878,9.7433,0.0005,0.0066,9.8065,0.0569,-0.2235,0.0332,-0.12,-32.94,26.81,3.61,-80.61,-177.16
42151,52.403084,-1.556448,166.25,10.18,3.0,179.61,25 / 25,4219329,2019-09-07 10:23:44:608,-2.8862,0.3328,9.6059,0.0057,0.0134,9.8066,0.0911,-0.2063,0.0064,0.25,-32.87,26.06,3.51,-80.68,-177.26
42152,52.403084,-1.556448,166.25,10.18,3.0,179.61,25 / 25,4219427,2019-09-07 10:23:44:706,-2.1429,0.4081,10.528,-0.014,-0.0326,9.8065,-0.0846,-0.209,0.0153,0.56,-33.06,25.63,6.51,-80.6,-177.12
42153,52.403084,-1.556448,166.25,10.18,3.0,179.61,25 / 25,4219527,2019-09-07 10:23:44:806,-2.8159,1.1121,9.6962,-0.001,-0.0401,9.8066,-0.0805,-0.2248,0.0308,0.5,-33.44,24.88,6.95,-80.61,-176.92
42154,52.403084,-1.556448,166.25,10.18,3.0,179.61,25 / 25,4219627,2019-09-07 10:23:44:906,-2.2279,-0.6878,9.9618,0.0062,0.0379,9.8065,0.1962,-0.2155,0.0303,0.88,-33.25,25.31,6.52,-80.39,-177.29
42155,52.403084,-1.556448,166.25,10.18,3.0,179.61,25 / 25,4219727,2019-09-07 10:23:45:006,-1.3579,0.7173,9.7089,-0.0012,0.0255,9.8065,0.0272,-0.1408,-0.0027,0.81,-33.37,24.75,6.53,-80.45,-177.28
42156,52.403084,-1.556448,166.25,10.18,3.0,179.61,25 / 25,4219827,2019-09-07 10:23:45:106,-2.3936,0.6778,9.9367,-0.0023,0.0131,9.8066,0.0493,-0.2121,0.0434,0.81,-33.19,24.38,6.82,-80.37,-177.22
42157,52.403084,-1.556448,166.25,10.18,3.0,179.61,25 / 25,4219927,2019-09-07 10:23:45:206,-1.735,0.1553,10.0199,0.0046,0.0192,9.8066,0.0848,-0.1471,0.006,0.81,-32.81,25.13,6.68,-80.46,-177.16
42158,52.403084,-1.556448,166.25,10.18,3.0,179.61,25 / 25,4220028,2019-09-07 10:23:45:307,-2.6314,0.6906,9.9421,-0.0055,-0.021,9.8065,-0.0404,-0.1702,-0.0383,1.56,-32.87,23.5,9.64,-80.32,-177.47
42159,52.403084,-1.556448,166.25,10.18,3.0,179.61,25 / 25,4220128,2019-09-07 10:23:45:407,-2.1786,0.0698,9.3927,0.0099,-0.0227,9.8066,-0.0281,-0.2174,0.0209,1.25,-33.25,23.38,5.76,-80.27,-178.21
42160,52.403084,-1.556448,166.25,10.18,3.0,179.61,25 / 25,4220227,2019-09-07 10:23:45:506,-2.8351,1.0747,9.9053,0.0106,0.0322,9.8065,0.0169,-0.2889,0.0257,1.81,-33.12,23.38,8.78,-80.17,-178.45
42161,52.403084,-1.556448,166.25,10.18,3.0,179.61,25 / 25,4220327,2019-09-07 10:23:45:606,-1.2057,0.4848,9.3519,0.0232,0.0278,9.8066,0.0047,-0.1619,-0.0364,1.94,-32.94,23.25,6.97,-80.4,-179.75
42162,52.403084,-1.556448,166.25,10.18,3.0,179.61,25 / 25,4220427,2019-09-07 10:23:45:706,-0.3821,-0.4255,9.1793,-0.0057,0.028,9.8066,-0.0437,-0.1185,0.0847,2.69,-33.69,21.88,10.36,-80.36,179.81
42163,52.403084,-1.556448,166.25,10.18,3.0,179.61,25 / 25,4220527,2019-09-07 10:23:45:806,-2.4251,-1.3276,9.43,-0.0227,0.0642,9.8063,0.0628,-0.1579,0.0777,1.75,-33.62,22.13,10.45,-80.66,-177.48
42164,52.403084,-1.556448,166.25,10.18,3.0,179.61,25 / 25,4220628,2019-09-07 10:23:45:907,-1.23,0.4038,9.2544,-0.0288,-0.0149,9.8065,-0.2448,-0.1512,0.1023,1.31,-33.56,21.75,10.96,-80.56,-174.55
42165,52.403084,-1.556448,166.25,10.18,3.0,179.61,25 / 25,4220727,2019-09-07 10:23:46:006,-2.2668,1.41,9.8708,-0.0447,-0.019,9.8064,-0.1955,-0.154,0.1576,1.44,-34.12,20.69,15.27,-80.61,-171.64
42166,52.403084,-1.556448,166.25,10.18,3.0,179.61,25 / 25,4220828,2019-09-07 10:23:46:107,-0.4401,-0.8107,9.8357,-0.0375,-0.0099,9.8065,0.142,-0.0147,-0.0191,0.94,-33.5,21.5,19.07,-80.51,-168.42
42167,52.403084,-1.556448,166.25,10.18,3.0,179.61,25 / 25,4220928,2019-09-07 10:23:46:207,-2.0568,-1.0534,9.7554,-0.0174,0.0128,9.8066,0.1285,-0.1018,0.1228,1.0,-33.81,20.75,23.29,-80.39,-165.87
42168,52.403084,-1.556448,166.25,10.18,3.0,179.61,25 / 25,4221027,2019-09-07 10:23:46:306,-2.5968,0.2512,10.1725,-0.0149,0.0025,9.8066,-0.0943,-0.1341,-0.0326,0.81,-34.25,20.88,25.71,-80.34,-164.11
42169,52.403084,-1.556448,166.25,10.18,3.0,179.61,25 / 25,4221127,2019-09-07 10:23:46:406,-1.5259,0.0994,10.0477,-0.0043,0.0131,9.8066,-0.0651,-0.0575,-0.0126,1.75,-33.75,20.38,31.42,-80.55,-163.0
42170,52.403084,-1.556448,166.25,10.18,3.0,179.61,25 / 25,4221227,2019-09-07 10:23:46:506,-0.3974,0.1188,9.7564,0.0059,-0.0026,9.8066,0.0016,-0.085,-0.0536,1.69,-35.0,19.69,31.28,-80.59,-163.31
42171,52.403084,-1.556448,166.25,10.18,3.0,179.61,25 / 25,4221327,2019-09-07 10:23:46:606,0.063,1.076,9.7305,0.0152,-0.0122,9.8066,-0.066,-0.0569,-0.0542,1.06,-34.87,19.25,26.95,-80.53,-164.28
42172,52.403084,-1.556448,166.25,10.18,3.0,179.61,25 / 25,4221427,2019-09-07 10:23:46:706,-0.9851,0.4589,9.8103,-0.0024,0.0071,9.8066,0.151,-0.0034,0.0052,1.38,-34.25,19.56,24.57,-80.51,-165.29
42173,52.403084,-1.556448,166.25,10.18,3.0,179.61,25 / 25,4221528,2019-09-07 10:23:46:807,0.612,0.8784,10.4418,-0.0042,-0.0026,9.8066,-0.1008,0.0391,-0.0883,1.63,-34.75,19.63,28.47,-80.43,-165.53
42174,52.403084,-1.556448,166.25,10.18,3.0,179.61,25 / 25,4221627,2019-09-07 10:23:46:906,-1.2531,0.2384,9.922,-0.0122,-0.0155,9.8066,-0.067,0.0213,0.038,1.5,-34.81,18.81,29.78,-80.57,-165.17
42175,52.403084,-1.556448,166.25,10.18,3.0,179.61,25 / 25,4221727,2019-09-07 10:23:47:006,-1.426,0.676,9.9885,-0.0256,0.0116,9.8065,0.0815,0.0032,0.0066,1.44,-34.75,18.81,27.49,-80.4,-164.02
42176,52.403084,-1.556448,166.25,10.18,3.0,179.61,25 / 25,4221828,2019-09-07 10:23:47:107,-1.9041,0.7661,9.3841,-0.0225,-0.0112,9.8066,-0.1593,0.0871,-0.0593,1.31,-35.0,18.56,29.92,-80.19,-162.48
42177,52.403084,-1.556448,166.25,10.18,3.0,179.61,25 / 25,4221927,2019-09-07 10:23:47:206,0.2625,0.2012,9.5757,-0.0136,-0.0049,9.8065,-0.0148,-0.0293,-0.0022,0.88,-35.06,19.25,30.41,-80.21,-162.11
42178,52.403084,-1.556448,166.25,10.18,3.0,179.61,25 / 25,4222027,2019-09-07 10:23:47:306,-0.9605,1.4186,10.1655,-0.0136,-0.0248,9.8066,-0.1256,-0.0224,-0.0002,1.31,-35.25,19.06,31.32,-80.17,-161.5
42179,52.403084,-1.556448,166.25,10.18,3.0,179.61,25 / 25,4222129,2019-09-07 10:23:47:408,0.0212,1.0439,9.2306,-0.0087,-0.0164,9.8066,0.0093,-0.0117,-0.0506,1.31,-35.31,18.75,31.52,-80.06,-161.48
42180,52.403084,-1.556448,166.25,10.18,3.0,179.61,25 / 25,4222227,2019-09-07 10:23:47:506,0.337,1.4208,10.4753,0.0083,0.0251,9.8065,0.1857,-0.109,0.0273,1.44,-34.75,19.0,31.06,-79.88,-161.99
42181,52.403084,-1.556448,166.25,10.18,3.0,179.61,25 / 25,4222327,2019-09-07 10:23:47:606,0.1808,0.3707,9.3206,0.0009,0.0034,9.8066,0.0205,-0.0949,-0.0157,1.25,-34.56,18.88,31.11,-79.98,-161.85
42182,52.403084,-1.556448,166.25,10.18,3.0,179.61,25 / 25,4222427,2019-09-07 10:23:47:706,-0.1144,0.3059,9.5985,0.0157,0.0184,9.8065,0.0927,-0.1113,0.0539,1.56,-35.06,18.19,36.48,-80.0,-161.85
42183,52.403084,-1.556448,166.25,10.18,3.0,179.61,25 / 25,4222527,2019-09-07 10:23:47:806,-1.9292,0.5877,9.8747,0.0003,-0.0004,9.8065,0.003,-0.1288,0.0852,1.38,-34.69,18.38,32.04,-79.88,-162.01
42184,52.403084,-1.556448,166.25,10.18,3.0,179.61,25 / 25,4222628,2019-09-07 10:23:47:907,-0.5582,0.4834,9.6462,0.0089,0.0091,9.8066,-0.0807,-0.1037,-0.0439,1.31,-35.06,17.94,32.43,-79.82,-161.81
42185,52.403084,-1.556448,166.25,10.18,3.0,179.61,25 / 25,4222727,2019-09-07 10:23:48:006,-0.7008,1.0554,10.1755,0.0049,-0.0176,9.8065,-0.0278,-0.0822,0.0168,1.13,-34.75,18.25,31.42,-79.9,-162.43
42186,52.403084,-1.556448,166.25,10.18,3.0,179.61,25 / 25,4222827,2019-09-07 10:23:48:106,0.707,0.602,10.1937,-0.0044,-0.0121,9.8066,0.071,-0.1484,0.0267,1.63,-34.87,18.25,35.1,-79.92,-162.93
42187,52.403084,-1.556448,166.25,10.18,3.0,179.61,25 / 25,4222927,2019-09-07 10:23:48:206,-0.0797,0.5051,10.1561,0.0047,-0.0094,9.8066,0.0061,-0.0659,-0.0099,1.25,-35.12,17.69,30.59,-79.82,-163.09
42188,52.403084,-1.556448,166.25,10.18,3.0,179.61,25 / 25,4223027,2019-09-07 10:23:48:306,0.165,0.4299,9.868,-0.0041,-0.0235,9.8066,-0.0263,-0.0614,0.0326,1.38,-35.0,18.19,29.86,-79.73,-163.68
42189,52.403084,-1.556448,166.25,10.18,3.0,179.61,25 / 25,4223128,2019-09-07 10:23:48:407,0.7704,1.7392,10.0977,-0.0101,-0.0244,9.8066,-0.0944,0.0285,-0.0452,2.31,-34.62,18.38,34.64,-79.62,-163.62
42190,52.40249,-1.557271,165.67,11.65,3.0,256.5,25 / 25,4223227,2019-09-07 10:23:48:506,1.1006,0.682,9.2355,0.0095,-0.0035,9.8066,0.0192,-0.0748,0.0312,1.81,-35.5,17.88,34.51,-79.7,-163.61
42191,52.40249,-1.557271,165.67,11.65,3.0,256.5,25 / 25,4223327,2019-09-07 10:23:48:606,0.2187,2.3817,10.5547,0.0052,0.0189,9.8066,0.0439,-0.0501,-0.0213,1.19,-34.94,17.63,29.92,-79.7,-163.67
42192,52.40249,-1.557271,165.67,11.65,3.0,256.5,25 / 25,4223428,2019-09-07 10:23:48:707,0.5941,0.9362,9.542,0.0125,0.0152,9.8065,0.1098,-0.0439,0.0349,2.56,-35.25,18.31,38.27,-79.69,-164.0
42193,52.40249,-1.557271,165.67,11.65,3.0,256.5,25 / 25,4223528,2019-09-07 10:23:48:807,0.3565,1.6158,9.1962,0.0222,0.0579,9.8064,0.1199,-0.0282,0.0058,1.19,-34.81,18.0,29.21,-79.83,-164.02
