,GPS LATITUDE (degrees), GPS LONGITUDE (degrees), GPS ALTITUDE (m), GPS SPEED (Kmh), GPS ACCURACY (m), GPS ORIENTATION (Â°),GPS SATELLITES IN RANGE, TIME SINCE START (ms), DATE (YYYY-MO-DD HH-MI-SS_SSS), ACCELEROMETER X (m/s²) , ACCELEROMETER Y (m/s²), ACCELEROMETER Z (m/s²), GRAVITY X (m/s²), GRAVITY Y (m/s²), GRAVITY Z (m/s²), GYROSCOPE Yaw (rad/s), GYROSCOPE Pitch (rad/s), GYROSCOPE Roll (rad/s), MAGNETIC FIELD X (Î¼T), MAGNETIC FIELD Y (Î¼T), MAGNETIC FIELD Z (Î¼T), ORIENTATION (Yaw) (Â°), ORIENTATION (Pitch) (Â°), ORIENTATION (Roll ) (Â°)
51858,52.33818,-1.553246,114,23.8,11.0,34.4,Sep-23,5185841,2019-08-31 11:16:45:920,0.4101,0.2346,8.9914,-0.0154,-0.0444,9.8065,0.0106,0.0282,0.0047,14.25,-17.33,-19.92,51.01,-3.22,1.28
51859,52.33818,-1.553246,114,23.8,11.0,34.4,Sep-23,5185941,2019-08-31 11:16:46:020,0.2109,0.2698,9.809,-0.0083,-0.044,9.8065,0.083,-0.0613,0.0324,14.06,-17.72,-19.7,50.94,-2.99,1.4
51860,52.33837,-1.553071,113,24.14,11.0,33.2,Sep-23,5186040,2019-08-31 11:16:46:119,0.3408,0.1533,10.6464,0.0117,-0.0261,9.8066,-0.0043,-0.0197,0.01,14.06,-17.72,-19.7,50.94,-2.99,1.4
51861,52.33837,-1.553071,113,24.14,11.0,33.2,Sep-23,5186141,2019-08-31 11:16:46:220,-0.5354,0.0635,8.9289,0.0102,0.0098,9.8066,0.0074,0.0101,0.0037,15.03,-16.89,-19.72,47.67,-2.91,1.55
51862,52.33837,-1.553071,113,24.14,11.0,33.2,Sep-23,5186241,2019-08-31 11:16:46:320,0.9708,0.1966,10.8138,0.0318,0.0191,9.8066,-0.0278,-0.0804,0.026,15.78,-16.5,-19.46,44.22,-3.12,1.61
51863,52.33837,-1.553071,113,24.14,11.0,33.2,Sep-23,5186341,2019-08-31 11:16:46:420,0.0771,0.0964,12.1364,0.0321,0.0206,9.8066,-0.0278,-0.0804,0.026,15.09,-17.74,-18.91,49.14,-3.17,1.53
51864,52.33837,-1.553071,113,24.14,11.0,33.2,Sep-23,5186441,2019-08-31 11:16:46:520,-0.8283,-0.0424,10.0763,0.0352,0.0202,9.8066,-0.0075,-0.0346,0.0143,15.09,-17.74,-18.91,49.14,-3.17,1.53
51865,52.33837,-1.553071,113,24.14,11.0,33.2,Sep-23,5186540,2019-08-31 11:16:46:619,0.2893,-0.0161,10.5964,0.0045,-0.0157,9.8066,0.0021,-0.0037,-0.0027,14.82,-16.83,-19.93,47.42,-3.39,1.61
51866,52.33837,-1.553071,113,24.14,11.0,33.2,Sep-23,5186641,2019-08-31 11:16:46:720,0.0962,0.0986,8.8945,-0.009,-0.0318,9.8066,-0.0022,-0.0176,0.0111,15.91,-17.36,-18.59,45.9,-3.22,1.69
51867,52.33837,-1.553071,113,24.14,11.0,33.2,Sep-23,5186741,2019-08-31 11:16:46:820,0.439,0.1811,10.0084,0.0078,-0.0057,9.8066,0.034,0.0815,0.0015,15.91,-17.36,-18.59,45.9,-3.22,1.69
51868,52.33837,-1.553071,113,24.14,11.0,33.2,Sep-23,5186842,2019-08-31 11:16:46:921,-0.1224,0.0383,10.662,0.0148,0.0046,9.8066,0.0085,0.0453,0.0228,15.37,-16.2,-20.03,45.93,-3.23,1.75
51869,52.33837,-1.553071,113,24.14,11.0,33.2,Sep-23,5186941,2019-08-31 11:16:47:020,0.4994,0.2089,8.7308,0.0481,0.0128,9.8065,0.0138,-0.0016,0.0207,14.37,-16.31,-20.67,47.64,-3.48,1.9
51870,52.33859,-1.552883,115,24.84,11.0,31.8,Sep-23,5187041,2019-08-31 11:16:47:120,0.799,0.3081,9.5568,0.0137,0.004,9.8066,0.0138,-0.0016,0.0207,14.37,-16.31,-20.67,47.64,-3.48,1.9
51871,52.33859,-1.552883,115,24.84,11.0,31.8,Sep-23,5187140,2019-08-31 11:16:47:219,0.1123,0.1025,9.6995,0.002,-0.0069,9.8066,0.0362,0.0357,0.0132,14.85,-16.78,-19.95,47.53,-3.55,1.94
51872,52.33859,-1.552883,115,24.84,11.0,31.8,Sep-23,5187241,2019-08-31 11:16:47:320,-0.0741,-0.1067,8.8605,0.0004,-0.0106,9.8066,0.0127,-0.0272,0.01,14.08,-16.65,-20.61,49.3,-3.57,1.99
51873,52.33859,-1.552883,115,24.84,11.0,31.8,Sep-23,5187341,2019-08-31 11:16:47:420,0.0702,0.069,9.2196,-0.0221,-0.0282,9.8066,0.0117,-0.008,0.0164,14.53,-16.5,-20.41,49.3,-3.57,1.99
51874,52.33859,-1.552883,115,24.84,11.0,31.8,Sep-23,5187440,2019-08-31 11:16:47:519,-0.6184,-0.1905,10.3046,-0.0243,-0.0354,9.8066,-0.0118,-0.0527,0.0196,14.53,-16.5,-20.41,49.3,-3.57,1.99
51875,52.33859,-1.552883,115,24.84,11.0,31.8,Sep-23,5187541,2019-08-31 11:16:47:620,-0.6313,-0.1795,9.7283,-0.004,-0.0158,9.8066,0.0212,0.0389,-0.0091,14.69,-16.08,-20.63,46.0,-3.32,2.02
51876,52.33859,-1.552883,115,24.84,11.0,31.8,Sep-23,5187641,2019-08-31 11:16:47:720,0.0496,-0.0256,9.7683,0.0137,-0.0191,9.8066,0.0138,0.0027,-0.0059,14.84,-15.65,-20.85,46.08,-3.24,2.06
51877,52.33859,-1.552883,115,24.84,11.0,31.8,Sep-23,5187741,2019-08-31 11:16:47:820,-0.3789,-0.1722,10.0589,0.0315,-0.0224,9.8066,0.0138,0.0027,-0.0059,15.23,-15.53,-20.66,46.2,-3.27,2.29
51878,52.33859,-1.552883,115,24.84,11.0,31.8,Sep-23,5187841,2019-08-31 11:16:47:920,0.2315,-0.0231,10.3326,0.0232,0.0095,9.8066,0.001,0.0218,0.0239,15.23,-15.53,-20.66,46.2,-3.27,2.29
51879,52.33859,-1.552883,115,24.84,11.0,31.8,Sep-23,5187941,2019-08-31 11:16:48:020,-0.207,-0.0676,9.4969,0.0134,-0.0049,9.8066,0.0063,-0.0165,0.0037,14.73,-16.72,-20.09,47.85,-3.4,2.35
51880,52.33878,-1.552683,115,24.82,11.0,31.8,Sep-23,5188041,2019-08-31 11:16:48:120,0.1181,-0.1608,9.432,0.0244,-0.0016,9.8066,0.0106,0.0282,-0.0017,15.54,-14.64,-21.08,42.71,-3.49,2.46
51881,52.33878,-1.552683,115,24.82,11.0,31.8,Sep-23,5188141,2019-08-31 11:16:48:220,-0.301,-0.1924,9.8618,-0.0189,-0.0054,9.8066,-0.0022,0.0112,0.0058,15.07,-15.96,-20.45,42.71,-3.49,2.46
51882,52.33878,-1.552683,115,24.82,11.0,31.8,Sep-23,5188241,2019-08-31 11:16:48:320,-0.602,-0.1549,8.5802,-0.0254,0.0025,9.8066,-0.016,-0.0314,0.0164,15.07,-15.96,-20.45,42.71,-3.49,2.46
51883,52.33878,-1.552683,115,24.82,11.0,31.8,Sep-23,5188341,2019-08-31 11:16:48:420,0.0205,-0.1394,8.8007,-0.0152,-0.0193,9.8066,-0.0033,0.0218,0.009,15.78,-14.9,-20.71,42.69,-3.39,2.35
51884,52.33878,-1.552683,115,24.82,11.0,31.8,Sep-23,5188441,2019-08-31 11:16:48:520,-0.4136,-0.0695,9.6885,-0.0172,-0.0324,9.8066,-0.0139,0.0186,0.026,14.84,-15.71,-20.81,42.69,-3.39,2.35
51885,52.33878,-1.552683,115,24.82,11.0,31.8,Sep-23,5188541,2019-08-31 11:16:48:620,0.4165,0.0031,9.5807,0.0129,-0.0031,9.8066,-0.0139,0.0186,0.026,14.99,-15.9,-20.55,46.33,-3.19,2.42
51886,52.33878,-1.552683,115,24.82,11.0,31.8,Sep-23,5188641,2019-08-31 11:16:48:720,-0.5748,-0.2374,9.1988,0.0262,-0.0046,9.8066,0.0255,0.0335,0.0079,15.51,-16.42,-19.74,44.66,-3.28,2.55
51887,52.33878,-1.552683,115,24.82,11.0,31.8,Sep-23,5188741,2019-08-31 11:16:48:820,0.668,-0.1886,10.1066,0.0142,0.0015,9.8066,0.0149,0.0186,-0.0102,15.51,-16.42,-19.74,44.66,-3.28,2.55
51888,52.33878,-1.552683,115,24.82,11.0,31.8,Sep-23,5188841,2019-08-31 11:16:48:920,0.3978,0.3584,9.5444,0.0003,-0.0172,9.8066,-0.0033,-0.0069,0.0132,15.19,-15.5,-20.71,44.61,-3.34,2.6
51889,52.33878,-1.552683,115,24.82,11.0,31.8,Sep-23,5188941,2019-08-31 11:16:49:020,0.0459,0.0335,10.4571,0.0083,-0.0093,9.8066,-0.0022,0.0069,0.0228,15.63,-15.34,-20.5,42.94,-3.34,2.67
51890,52.33898,-1.552509,116,24.71,11.0,31.5,Sep-23,5189041,2019-08-31 11:16:49:120,-0.5667,-0.0577,10.1467,0.014,0.0253,9.8066,-0.0544,-0.0836,0.0431,15.63,-15.34,-20.5,42.94,-3.34,2.67
51891,52.33898,-1.552509,116,24.71,11.0,31.5,Sep-23,5189141,2019-08-31 11:16:49:220,-0.4362,0.027,9.1949,-0.0319,-0.01,9.8066,-0.0011,-0.106,0.01,14.69,-15.0,-21.43,44.53,-3.5,2.62
51892,52.33898,-1.552509,116,24.71,11.0,31.5,Sep-23,5189240,2019-08-31 11:16:49:319,-0.0834,-0.5505,8.551,-0.008,-0.0159,9.8066,-0.0011,-0.106,0.01,14.37,-16.49,-20.53,48.14,-3.32,2.53
51893,52.33898,-1.552509,116,24.71,11.0,31.5,Sep-23,5189341,2019-08-31 11:16:49:420,0.7629,0.1537,9.938,0.0059,-0.0343,9.8066,-0.0001,0.0208,0.0154,15.35,-15.06,-20.92,48.14,-3.32,2.53
51894,52.33898,-1.552509,116,24.71,11.0,31.5,Sep-23,5189441,2019-08-31 11:16:49:520,0.2063,-0.2057,8.5113,-0.0149,-0.0544,9.8065,0.0212,-0.0048,0.0069,15.35,-15.06,-20.92,48.14,-3.32,2.53
51895,52.33898,-1.552509,116,24.71,11.0,31.5,Sep-23,5189541,2019-08-31 11:16:49:620,0.1761,0.0747,10.4122,0.0141,-0.0116,9.8066,-0.0171,-0.0069,0.0346,15.85,-15.55,-20.17,44.87,-3.03,2.68
51896,52.33898,-1.552509,116,24.71,11.0,31.5,Sep-23,5189641,2019-08-31 11:16:49:720,0.5361,0.9555,10.3328,0.0299,-0.0082,9.8066,0.0138,0.0474,-0.0315,14.44,-14.78,-21.75,44.87,-3.03,2.68
51897,52.33898,-1.552509,116,24.71,11.0,31.5,Sep-23,5189741,2019-08-31 11:16:49:820,-0.499,0.1162,10.295,0.0439,-0.0013,9.8066,0.0244,-0.0485,0.0101,18.33,-14.08,-19.12,38.17,-3.21,2.87
51898,52.33898,-1.552509,116,24.71,11.0,31.5,Sep-23,5189840,2019-08-31 11:16:49:919,0.4407,0.2055,9.7959,0.0225,0.0145,9.8066,0.0319,-0.0048,-0.0113,18.33,-14.08,-19.12,38.17,-3.21,2.87
51899,52.33898,-1.552509,116,24.71,11.0,31.5,Sep-23,5189941,2019-08-31 11:16:50:020,0.5215,0.03,10.1049,-0.0145,-0.0181,9.8066,-0.0128,-0.0293,0.0015,15.28,-14.4,-21.43,43.03,-3.44,3.08
51900,52.33918,-1.552332,116,24.68,11.0,31.2,Sep-23,5190041,2019-08-31 11:16:50:120,-0.0293,-0.4078,10.3763,-0.005,-0.023,9.8066,-0.0128,-0.0293,0.0015,15.04,-14.73,-21.38,44.96,-3.3,3.1
51901,52.33918,-1.552332,116,24.68,11.0,31.2,Sep-23,5190141,2019-08-31 11:16:50:220,0.0567,0.1334,9.8331,-0.0317,-0.0354,9.8065,-0.031,-0.0442,0.0143,15.72,-14.25,-21.21,44.96,-3.3,3.1
51902,52.33918,-1.552332,116,24.68,11.0,31.2,Sep-23,5190240,2019-08-31 11:16:50:319,-0.1499,-0.1035,8.5416,-0.0339,-0.0431,9.8065,-0.0171,0.0218,-0.0006,15.72,-14.25,-21.21,44.96,-3.3,3.1
51903,52.33918,-1.552332,116,24.68,11.0,31.2,Sep-23,5190340,2019-08-31 11:16:50:419,0.0308,0.2241,10.6896,0.0069,0.0125,9.8066,0.0074,0.0463,-0.0017,15.38,-15.09,-20.87,45.17,-2.98,3.13
51904,52.33918,-1.552332,116,24.68,11.0,31.2,Sep-23,5190441,2019-08-31 11:16:50:520,0.2516,0.4949,9.2038,0.005,0.0222,9.8066,0.0106,0.041,0.0132,15.54,-14.64,-21.08,43.38,-3.06,3.11
51905,52.33918,-1.552332,116,24.68,11.0,31.2,Sep-23,5190541,2019-08-31 11:16:50:620,-0.6003,0.1876,10.9581,-0.0269,0.011,9.8066,-0.0054,-0.0964,0.0175,14.48,-15.4,-21.29,46.89,-2.99,2.96
51906,52.33918,-1.552332,116,24.68,11.0,31.2,Sep-23,5190641,2019-08-31 11:16:50:720,0.3114,0.3147,9.5431,0.0091,0.0024,9.8066,0.0127,0.009,0.0111,14.48,-15.4,-21.29,46.89,-2.99,2.96
51907,52.33918,-1.552332,116,24.68,11.0,31.2,Sep-23,5190741,2019-08-31 11:16:50:820,-0.1576,0.0663,10.0811,0.0184,0.0089,9.8066,-0.0043,0.0857,0.0292,20.3,-14.98,-16.22,37.26,-3.11,3.0
51908,52.33918,-1.552332,116,24.68,11.0,31.2,Sep-23,5190842,2019-08-31 11:16:50:921,0.5555,0.1614,9.3203,0.0028,-0.0035,9.8067,0.0031,0.0144,0.0143,16.19,-14.69,-20.54,43.27,-3.12,2.98
51909,52.33918,-1.552332,116,24.68,11.0,31.2,Sep-23,5190943,2019-08-31 11:16:51:022,-0.7417,-0.1301,9.2955,0.0031,-0.0217,9.8066,0.0031,0.0144,0.0143,16.4,-16.01,-19.36,43.27,-3.12,2.98
51910,52.339367,-1.552136,118,24.57,11.0,31.6,Sep-23,5191041,2019-08-31 11:16:51:120,-0.1043,-0.1926,7.9281,-0.0199,-0.0566,9.8065,0.0117,-0.0847,0.0026,16.4,-16.01,-19.36,43.27,-3.12,2.98
51911,52.339367,-1.552136,118,24.57,11.0,31.6,Sep-23,5191141,2019-08-31 11:16:51:220,-0.1124,-0.0674,10.4896,-0.0002,0.0003,9.8067,0.018,0.0431,-0.0027,15.28,-14.4,-21.43,43.45,-2.81,3.14
51912,52.339367,-1.552136,118,24.57,11.0,31.6,Sep-23,5191241,2019-08-31 11:16:51:320,0.1934,0.14,9.6517,0.0,-0.0097,9.8066,0.0234,-0.0336,0.0069,15.24,-13.77,-21.86,43.47,-2.81,3.14
51913,52.339367,-1.552136,118,24.57,11.0,31.6,Sep-23,5191341,2019-08-31 11:16:51:420,0.1291,0.0302,9.7206,0.0002,0.0035,9.8067,0.0149,0.0538,0.0015,14.97,-15.28,-21.03,45.27,-2.82,3.13
51914,52.339367,-1.552136,118,24.57,11.0,31.6,Sep-23,5191441,2019-08-31 11:16:51:520,-0.3217,-0.0136,10.7491,0.0199,0.0116,9.8066,0.0308,0.0527,-0.0059,15.43,-13.94,-21.63,45.27,-2.82,3.13
51915,52.339367,-1.552136,118,24.57,11.0,31.6,Sep-23,5191541,2019-08-31 11:16:51:620,0.6763,-0.1569,8.7976,0.0289,-0.0086,9.8066,-0.0097,-0.0432,0.009,15.43,-13.94,-21.63,45.27,-2.82,3.13
51916,52.339367,-1.552136,118,24.57,11.0,31.6,Sep-23,5191641,2019-08-31 11:16:51:720,-0.0184,-0.1362,9.7727,0.0123,-0.009,9.8066,-0.0097,-0.0123,0.0069,15.09,-14.79,-21.3,45.32,-2.91,3.28
51917,52.339367,-1.552136,118,24.57,11.0,31.6,Sep-23,5191741,2019-08-31 11:16:51:820,0.0869,0.1271,10.2135,-0.0026,-0.0045,9.8066,-0.0097,-0.0123,0.0069,15.09,-14.79,-21.3,45.32,-2.91,3.28
51918,52.339367,-1.552136,118,24.57,11.0,31.6,Sep-23,5191841,2019-08-31 11:16:51:920,-0.1425,0.0031,10.3038,-0.0074,-0.0073,9.8066,0.0117,-0.0133,-0.0081,15.46,-13.97,-21.58,43.53,-2.88,3.29
51919,52.339367,-1.552136,118,24.57,11.0,31.6,Sep-23,5191941,2019-08-31 11:16:52:020,-0.7304,-0.2095,10.2316,-0.0132,0.0017,9.8066,-0.0182,0.0186,0.0122,15.46,-13.97,-21.58,43.53,-2.88,3.29
51920,52.339497,-1.551911,118,24.46,11.0,31.9,Sep-23,5192042,2019-08-31 11:16:52:121,-0.6654,-0.0782,9.7175,-0.002,0.0128,9.8066,-0.0331,0.0591,0.0207,15.69,-14.17,-21.28,41.77,-2.83,3.23
51921,52.339497,-1.551911,118,24.46,11.0,31.9,Sep-23,5192141,2019-08-31 11:16:52:220,0.2841,-0.167,9.3865,0.0113,-0.0083,9.8066,0.0362,-0.0229,0.0164,15.95,-14.41,-20.92,41.7,-2.87,3.17
51922,52.339497,-1.551911,118,24.46,11.0,31.9,Sep-23,5192241,2019-08-31 11:16:52:320,-0.4829,-0.2468,9.2157,0.033,-0.0055,9.8066,0.0489,0.0037,-0.0059,16.06,-13.36,-21.53,39.84,-2.99,3.32
51923,52.339497,-1.551911,118,24.46,11.0,31.9,Sep-23,5192340,2019-08-31 11:16:52:419,0.5436,-0.277,9.1982,-0.0103,-0.0307,9.8066,-0.0033,-0.0037,-0.0091,16.06,-13.36,-21.53,39.84,-2.99,3.32
51924,52.339497,-1.551911,118,24.46,11.0,31.9,Sep-23,5192441,2019-08-31 11:16:52:520,0.2239,-0.0741,9.8789,-0.0142,-0.0192,9.8066,0.0106,-0.0123,-0.0049,15.48,-13.98,-21.56,43.59,-2.86,3.35
51925,52.339497,-1.551911,118,24.46,11.0,31.9,Sep-23,5192541,2019-08-31 11:16:52:620,-0.4381,0.0593,9.6081,0.003,0.0057,9.8066,0.0106,-0.0123,-0.0049,15.71,-14.19,-21.26,41.81,-2.89,3.34
51926,52.339497,-1.551911,118,24.46,11.0,31.9,Sep-23,5192640,2019-08-31 11:16:52:719,0.4396,0.3517,10.2349,0.0199,-0.0032,9.8066,0.0138,0.0197,0.0186,15.59,-13.47,-21.81,39.89,-2.94,3.35
51927,52.339497,-1.551911,118,24.46,11.0,31.9,Sep-23,5192740,2019-08-31 11:16:52:819,0.2758,-0.3742,10.1421,0.032,-0.0132,9.8066,0.0159,-0.0101,0.0079,15.59,-13.47,-21.81,39.89,-2.94,3.35
51928,52.339497,-1.551911,118,24.46,11.0,31.9,Sep-23,5192841,2019-08-31 11:16:52:920,0.3275,0.3128,9.567,0.0007,-0.004,9.8066,-0.0033,-0.0091,0.0026,15.26,-13.78,-21.85,43.6,-3.03,3.53
51929,52.339497,-1.551911,118,24.46,11.0,31.9,Sep-23,5192941,2019-08-31 11:16:53:020,0.021,-0.1016,10.3167,-0.0026,0.0052,9.8066,0.0085,0.0218,0.0015,15.17,-13.65,-21.99,43.62,-3.02,3.55
51930,52.339695,-1.551742,119,23.95,10.0,32.7,Sep-23,5193041,2019-08-31 11:16:53:120,0.6491,0.1372,8.6815,0.0085,0.0124,9.8066,0.0244,0.0708,-0.0166,15.17,-13.65,-21.99,43.62,-3.02,3.55
51931,52.339695,-1.551742,119,23.95,10.0,32.7,Sep-23,5193141,2019-08-31 11:16:53:220,-0.3735,-0.1475,9.2444,-0.0166,-0.0133,9.8066,-0.0278,-0.0389,0.0037,14.87,-14.01,-21.97,43.56,-3.1,3.53
51932,52.339695,-1.551742,119,23.95,10.0,32.7,Sep-23,5193242,2019-08-31 11:16:53:321,-0.3023,-0.0108,10.9405,-0.0438,-0.0119,9.8065,-0.0001,0.0367,-0.0112,15.17,-13.65,-21.99,43.61,-2.87,3.41
51933,52.339695,-1.551742,119,23.95,10.0,32.7,Sep-23,5193342,2019-08-31 11:16:53:421,-0.1659,0.0162,9.0776,-0.0039,0.017,9.8066,-0.0043,0.0282,0.0133,15.17,-13.65,-21.99,43.61,-2.87,3.41
51934,52.339695,-1.551742,119,23.95,10.0,32.7,Sep-23,5193442,2019-08-31 11:16:53:521,-0.6506,0.081,9.5393,0.0078,0.0186,9.8066,-0.0043,0.0282,0.0133,15.81,-14.91,-20.68,43.6,-2.92,3.32
51935,52.339695,-1.551742,119,23.95,10.0,32.7,Sep-23,5193542,2019-08-31 11:16:53:621,0.6232,0.2951,11.0633,0.0071,-0.0047,9.8066,0.0298,-0.0037,0.0101,16.01,-13.2,-21.67,39.76,-3.16,3.35
51936,52.339695,-1.551742,119,23.95,10.0,32.7,Sep-23,5193641,2019-08-31 11:16:53:720,-0.3385,-0.0179,10.9578,0.0071,-0.0047,9.8066,0.0255,0.0069,-0.0144,16.01,-13.2,-21.67,39.76,-3.16,3.35
51937,52.339695,-1.551742,119,23.95,10.0,32.7,Sep-23,5193741,2019-08-31 11:16:53:820,0.008,-0.1524,9.728,0.0083,0.0134,9.8066,-0.0033,0.0027,0.0005,15.0,-13.55,-22.17,43.44,-3.16,3.42
51938,52.339695,-1.551742,119,23.95,10.0,32.7,Sep-23,5193841,2019-08-31 11:16:53:920,0.0126,0.2324,10.1551,-0.0102,-0.0091,9.8066,0.0117,0.0133,0.0079,15.98,-14.43,-20.89,41.65,-3.25,3.39
51939,52.339695,-1.551742,119,23.95,10.0,32.7,Sep-23,5193942,2019-08-31 11:16:54:021,-0.0862,-0.383,9.2931,-0.0176,-0.014,9.8066,-0.0011,-0.024,-0.0027,15.92,-13.84,-21.33,41.65,-3.25,3.39
51940,52.339863,-1.551558,117,23.97,11.0,32.9,Sep-23,5194041,2019-08-31 11:16:54:120,0.0612,-0.0959,9.5028,-0.0189,-0.0218,9.8066,0.017,0.0421,-0.0155,16.49,-13.09,-21.37,39.83,-3.08,3.42
51941,52.339863,-1.551558,117,23.97,11.0,32.9,Sep-23,5194141,2019-08-31 11:16:54:220,-0.669,0.1954,10.6284,-0.0098,0.0189,9.8066,0.017,0.0421,-0.0155,16.49,-13.09,-21.37,39.83,-3.08,3.42
51942,52.339863,-1.551558,117,23.97,11.0,32.9,Sep-23,5194241,2019-08-31 11:16:54:320,-0.0095,0.0586,10.231,0.0099,0.0048,9.8066,-0.0097,0.0655,-0.0134,15.62,-13.5,-21.76,41.67,-3.1,3.29
51943,52.339863,-1.551558,117,23.97,11.0,32.9,Sep-23,5194341,2019-08-31 11:16:54:420,0.512,0.0281,9.8911,0.0409,0.0293,9.8065,0.0021,-0.0186,-0.0091,15.83,-13.59,-21.55,41.52,-3.4,3.33
51944,52.339863,-1.551558,117,23.97,11.0,32.9,Sep-23,5194442,2019-08-31 11:16:54:521,0.1809,0.1158,9.137,0.0105,-0.0069,9.8066,0.0383,0.024,-0.0112,16.05,-13.24,-21.62,41.52,-3.4,3.33
51945,52.339863,-1.551558,117,23.97,11.0,32.9,Sep-23,5194541,2019-08-31 11:16:54:620,-0.0916,-0.0309,10.7805,-0.0074,-0.0201,9.8066,-0.0054,-0.0293,0.0026,15.74,-14.22,-21.21,41.62,-3.29,3.38
51946,52.339863,-1.551558,117,23.97,11.0,32.9,Sep-23,5194641,2019-08-31 11:16:54:720,-0.2989,-0.2556,10.8957,-0.0496,-0.0051,9.8065,0.0223,0.0304,-0.0144,16.34,-13.59,-21.18,41.62,-3.29,3.38
51947,52.339863,-1.551558,117,23.97,11.0,32.9,Sep-23,5194742,2019-08-31 11:16:54:821,0.1222,0.3679,8.889,-0.0402,0.016,9.8066,-0.0022,0.0037,0.0122,16.34,-13.59,-21.18,41.62,-3.29,3.38
51948,52.339863,-1.551558,117,23.97,11.0,32.9,Sep-23,5194841,2019-08-31 11:16:54:920,0.1461,0.2082,10.8246,0.0005,0.0118,9.8066,0.018,0.0314,-0.0017,16.29,-13.44,-21.31,39.59,-3.17,3.16
51949,52.339863,-1.551558,117,23.97,11.0,32.9,Sep-23,5194940,2019-08-31 11:16:55:019,0.0758,0.0384,8.7986,-0.0026,0.0061,9.8066,-0.0139,-0.0016,0.0005,14.87,-13.9,-22.04,43.21,-3.18,3.12
51950,52.340057,-1.551383,115,24.26,11.0,32.5,Sep-23,5195041,2019-08-31 11:16:55:120,-0.242,-0.0454,10.1817,-0.0086,0.0064,9.8066,-0.0139,-0.0016,0.0005,14.87,-13.9,-22.04,43.21,-3.18,3.12
51951,52.340057,-1.551383,115,24.26,11.0,32.5,Sep-23,5195141,2019-08-31 11:16:55:220,0.0819,0.042,8.7886,0.0038,0.0142,9.8066,-0.0278,0.0165,0.0165,15.13,-13.08,-22.36,41.23,-3.17,3.06
51952,52.340057,-1.551383,115,24.26,11.0,32.5,Sep-23,5195242,2019-08-31 11:16:55:321,-0.062,-0.0869,9.5478,-0.0079,0.0034,9.8066,-0.0065,-0.0474,0.0165,15.13,-13.08,-22.36,41.23,-3.17,3.06
51953,52.340057,-1.551383,115,24.26,11.0,32.5,Sep-23,5195341,2019-08-31 11:16:55:420,0.1558,0.1217,10.7469,-0.0282,-0.029,9.8066,-0.0011,-0.0155,-0.0027,15.88,-13.8,-21.38,41.44,-3.15,3.01
51954,52.340057,-1.551383,115,24.26,11.0,32.5,Sep-23,5195441,2019-08-31 11:16:55:520,-0.0089,0.0079,9.4196,-0.0409,-0.0212,9.8065,-0.0224,0.0506,-0.0059,15.44,-13.95,-21.61,43.27,-2.89,2.95
51955,52.340057,-1.551383,115,24.26,11.0,32.5,Sep-23,5195541,2019-08-31 11:16:55:620,0.1765,0.2472,9.2506,0.0109,0.0466,9.8065,-0.0011,0.0921,0.0047,15.44,-13.95,-21.61,43.27,-2.89,2.95
51956,52.340057,-1.551383,115,24.26,11.0,32.5,Sep-23,5195641,2019-08-31 11:16:55:720,0.448,0.1395,10.4286,-0.001,-0.0102,9.8066,-0.0182,0.0208,-0.0059,14.89,-13.97,-21.98,43.01,-3.12,2.79
51957,52.340057,-1.551383,115,24.26,11.0,32.5,Sep-23,5195741,2019-08-31 11:16:55:820,-0.0248,0.1502,9.1128,-0.0186,0.0104,9.8066,-0.0203,-0.0016,-0.0134,14.99,-14.09,-21.83,43.07,-3.08,2.83
51958,52.340057,-1.551383,115,24.26,11.0,32.5,Sep-23,5195841,2019-08-31 11:16:55:920,-0.0711,0.0523,9.7237,-0.0155,0.0207,9.8066,-0.0203,-0.0016,-0.0134,14.99,-14.09,-21.83,43.01,-3.04,2.72
51959,52.340057,-1.551383,115,24.26,11.0,32.5,Sep-23,5195942,2019-08-31 11:16:56:021,0.7258,0.3515,9.5202,-0.0199,0.0338,9.8066,-0.0171,-0.0165,0.009,14.99,-14.09,-21.83,43.01,-3.04,2.72
51960,52.340225,-1.551179,116,24.31,11.0,33.2,Sep-23,5196044,2019-08-31 11:16:56:123,-0.5364,-0.3461,10.1235,-0.0173,-0.0167,9.8066,0.0074,0.0304,-0.0059,15.52,-14.62,-21.1,42.96,-3.09,2.49
51961,52.340225,-1.551179,116,24.31,11.0,33.2,Sep-23,5196141,2019-08-31 11:16:56:220,-0.2851,-0.2387,9.4355,-0.0212,-0.0075,9.8066,-0.016,-0.0176,0.0047,14.73,-13.85,-22.16,42.96,-3.09,2.49
51962,52.340225,-1.551179,116,24.31,11.0,33.2,Sep-23,5196240,2019-08-31 11:16:56:319,0.1995,0.078,9.4797,0.0097,0.0095,9.8066,0.05,0.0027,-0.0112,14.49,-14.2,-22.1,44.69,-2.97,2.44
51963,52.340225,-1.551179,116,24.31,11.0,33.2,Sep-23,5196341,2019-08-31 11:16:56:420,-0.1497,-0.3044,9.7743,0.0267,-0.0193,9.8066,-0.0033,-0.0208,0.0165,14.95,-14.06,-21.88,42.97,-3.0,2.63
51964,52.340225,-1.551179,116,24.31,11.0,33.2,Sep-23,5196441,2019-08-31 11:16:56:520,0.1374,-0.1586,9.1738,0.0042,-0.0215,9.8066,0.0021,0.0346,-0.0038,14.95,-14.06,-21.88,42.97,-3.0,2.63
51965,52.340225,-1.551179,116,24.31,11.0,33.2,Sep-23,5196541,2019-08-31 11:16:56:620,0.6367,-0.0139,9.4712,0.0178,0.0101,9.8066,0.0021,0.0346,-0.0038,15.41,-13.92,-21.66,43.12,-3.01,2.84
51966,52.340225,-1.551179,116,24.31,11.0,33.2,Sep-23,5196641,2019-08-31 11:16:56:720,0.1285,-0.175,11.1407,0.0107,-0.0034,9.8066,-0.0139,-0.008,0.025,16.05,-13.87,-21.21,41.35,-3.13,2.86
51967,52.340225,-1.551179,116,24.31,11.0,33.2,Sep-23,5196741,2019-08-31 11:16:56:820,0.0549,-0.061,9.0673,0.0114,-0.0203,9.8066,0.017,0.009,0.0015,16.05,-13.87,-21.21,41.35,-3.13,2.86
51968,52.340225,-1.551179,116,24.31,11.0,33.2,Sep-23,5196841,2019-08-31 11:16:56:920,0.9472,-0.1653,8.5206,0.0228,-0.018,9.8066,0.0149,0.025,-0.0144,15.07,-15.42,-20.86,45.02,-3.1,3.0
51969,52.340225,-1.551179,116,24.31,11.0,33.2,Sep-23,5196941,2019-08-31 11:16:57:020,0.6328,0.0901,9.0945,-0.0104,-0.0047,9.8066,-0.0139,0.0389,-0.0112,15.67,-14.15,-21.31,41.56,-3.12,3.17
51970,52.3404,-1.550962,118,24.55,11.0,33.0,Sep-22,5197042,2019-08-31 11:16:57:121,0.0445,0.1161,9.1726,-0.0089,-0.0086,9.8066,-0.0001,-0.057,0.0154,16.78,-13.95,-20.59,39.99,-3.04,3.17
51971,52.3404,-1.550962,118,24.55,11.0,33.0,Sep-22,5197141,2019-08-31 11:16:57:220,0.3523,-0.4209,9.4732,-0.0119,-0.0147,9.8066,0.0095,-0.0037,-0.0038,16.78,-13.95,-20.59,39.99,-3.04,3.17
51972,52.3404,-1.550962,118,24.55,11.0,33.0,Sep-22,5197240,2019-08-31 11:16:57:319,0.3404,0.2736,8.5986,0.0036,0.0026,9.8067,-0.0299,0.0335,0.0239,15.2,-14.9,-21.14,45.15,-3.07,3.17
51973,52.3404,-1.550962,118,24.55,11.0,33.0,Sep-22,5197340,2019-08-31 11:16:57:419,0.0439,-0.1494,11.7748,0.0211,0.0271,9.8066,-0.0011,0.0591,-0.0048,15.52,-14.62,-21.1,43.29,-3.27,3.15
51974,52.3404,-1.550962,118,24.55,11.0,33.0,Sep-22,5197441,2019-08-31 11:16:57:520,0.2762,0.4906,8.5398,0.0256,0.0208,9.8066,-0.0011,0.0591,-0.0048,15.52,-14.62,-21.1,43.29,-3.27,3.15
51975,52.3404,-1.550962,118,24.55,11.0,33.0,Sep-22,5197541,2019-08-31 11:16:57:620,0.5576,0.1831,9.0158,0.0012,-0.0467,9.8065,0.0585,-0.0613,-0.0294,15.47,-15.17,-20.75,44.9,-3.46,3.16
51976,52.3404,-1.550962,118,24.55,11.0,33.0,Sep-22,5197641,2019-08-31 11:16:57:720,0.6251,0.1204,8.7201,0.0088,0.0106,9.8066,0.0447,-0.0133,-0.0091,15.64,-14.67,-20.98,43.43,-3.27,3.36
51977,52.3404,-1.550962,118,24.55,11.0,33.0,Sep-22,5197740,2019-08-31 11:16:57:819,-0.1097,-0.1259,9.9127,0.0093,0.008,9.8066,0.0191,-0.0293,-0.0134,15.64,-14.67,-20.98,43.43,-3.27,3.36
51978,52.3404,-1.550962,118,24.55,11.0,33.0,Sep-22,5197841,2019-08-31 11:16:57:920,0.2363,0.2524,10.5008,-0.0161,-0.0185,9.8066,-0.0139,-0.0549,-0.0112,15.75,-13.72,-21.53,41.58,-3.35,3.36
51979,52.3404,-1.550962,118,24.55,11.0,33.0,Sep-22,5197985,2019-08-31 11:16:58:064,0.2363,0.2524,10.5008,-0.0161,-0.0185,9.8066,-0.0139,-0.0549,-0.0112,15.75,-13.72,-21.53,41.58,-3.35,3.36
51980,52.340576,-1.55075,119,24.65,11.0,33.2,Sep-22,5198041,2019-08-31 11:16:58:120,-0.2471,-0.1199,8.1032,-0.0263,-0.0348,9.8066,-0.0139,0.0186,0.0186,15.74,-14.83,-20.79,43.56,-3.1,3.41
51981,52.340576,-1.55075,119,24.65,11.0,33.2,Sep-23,5198141,2019-08-31 11:16:58:220,0.4197,-0.0535,9.3498,-0.0259,0.0229,9.8066,-0.0171,0.0314,-0.0059,15.18,-14.27,-21.59,43.34,-3.08,3.21
51982,52.340576,-1.55075,119,24.65,11.0,33.2,Sep-23,5198240,2019-08-31 11:16:58:319,0.5484,0.2313,11.1413,-0.005,0.0112,9.8066,0.0053,0.0282,0.0005,16.34,-14.2,-20.77,43.34,-3.08,3.21
51983,52.340576,-1.55075,119,24.65,11.0,33.2,Sep-23,5198341,2019-08-31 11:16:58:420,0.8693,0.3187,9.1297,0.0093,0.0386,9.8066,-0.0001,0.0197,0.0101,15.41,-13.92,-21.66,43.13,-3.27,3.08
51984,52.340576,-1.55075,119,24.65,11.0,33.2,Sep-23,5198441,2019-08-31 11:16:58:520,0.0458,-0.1325,10.7133,0.0281,0.0231,9.8066,-0.0001,0.0197,0.0101,15.41,-13.92,-21.66,43.13,-3.27,3.08
51985,52.340576,-1.55075,119,24.65,11.0,33.2,Sep-23,5198541,2019-08-31 11:16:58:620,-0.1931,-0.1191,10.0111,-0.0209,-0.0035,9.8066,-0.0203,-0.0218,0.0101,14.83,-13.34,-22.41,41.06,-3.49,3.1
51986,52.340576,-1.55075,119,24.65,11.0,33.2,Sep-23,5198641,2019-08-31 11:16:58:720,-0.4188,-0.0561,8.3167,-0.036,-0.0154,9.8066,0.0053,-0.0059,-0.0059,15.67,-14.15,-21.31,41.38,-3.27,3.03
51987,52.340576,-1.55075,119,24.65,11.0,33.2,Sep-23,5198740,2019-08-31 11:16:58:819,0.4921,-0.1552,9.3914,-0.006,-0.0133,9.8066,0.0244,-0.0336,-0.0112,15.67,-14.15,-21.31,41.38,-3.27,3.03
51988,52.340576,-1.55075,119,24.65,11.0,33.2,Sep-23,5198841,2019-08-31 11:16:58:920,-0.3504,-0.133,10.0725,-0.0039,-0.0108,9.8066,0.017,0.0506,-0.0166,15.44,-14.52,-21.23,45.0,-3.19,3.06
51989,52.340576,-1.55075,119,24.65,11.0,33.2,Sep-23,5198941,2019-08-31 11:16:59:020,0.5943,-0.0087,9.4882,-0.006,-0.0126,9.8066,-0.0097,-0.0229,-0.0112,15.74,-14.83,-20.79,45.0,-3.19,3.06
51990,52.340775,-1.550545,120,24.91,10.0,33.1,Sep-23,5199043,2019-08-31 11:16:59:122,0.0301,0.0041,9.5501,0.0071,0.0035,9.8066,-0.0192,0.0857,0.0005,15.82,-13.67,-21.52,41.52,-3.11,3.09
51991,52.340775,-1.550545,120,24.91,10.0,33.1,Sep-23,5199141,2019-08-31 11:16:59:220,0.2372,0.0936,9.9955,0.0256,0.03,9.8066,-0.0192,0.0857,0.0005,14.95,-14.06,-21.88,43.07,-3.34,3.06
51992,52.340775,-1.550545,120,24.91,10.0,33.1,Sep-23,5199241,2019-08-31 11:16:59:320,-0.3762,-0.1719,9.3159,0.0126,0.0179,9.8066,-0.0086,-0.0016,0.0197,14.6,-14.93,-21.54,43.07,-3.34,3.06
51993,52.340775,-1.550545,120,24.91,10.0,33.1,Sep-23,5199341,2019-08-31 11:16:59:420,0.4587,0.1218,9.3271,0.014,0.0173,9.8066,0.018,0.0261,-0.0134,14.6,-14.93,-21.54,43.07,-3.34,3.06
51994,52.340775,-1.550545,120,24.91,10.0,33.1,Sep-23,5199441,2019-08-31 11:16:59:520,0.2777,-0.0564,9.3021,-0.0088,-0.0009,9.8066,-0.0075,0.0005,-0.0112,15.06,-14.78,-21.32,44.85,-3.39,3.01
51995,52.340775,-1.550545,120,24.91,10.0,33.1,Sep-23,5199541,2019-08-31 11:16:59:620,-0.3916,0.0748,10.2589,-0.0431,-0.0092,9.8066,-0.0342,0.0346,0.0037,15.26,-14.38,-21.45,43.04,-3.17,2.87
51996,52.340775,-1.550545,120,24.91,10.0,33.1,Sep-23,5199641,2019-08-31 11:16:59:720,0.4111,0.4764,9.8436,-0.011,-0.0001,9.8066,-0.0001,0.0357,0.0058,15.26,-14.38,-21.45,43.04,-3.17,2.87
51997,52.340775,-1.550545,120,24.91,10.0,33.1,Sep-23,5199741,2019-08-31 11:16:59:820,-0.0172,0.4959,10.1253,0.0007,0.0053,9.8067,0.0351,0.0495,-0.007,15.1,-14.81,-21.27,43.04,-3.17,2.87
51998,52.340775,-1.550545,120,24.91,10.0,33.1,Sep-23,5199841,2019-08-31 11:16:59:920,-0.0713,-0.2151,9.178,0.0347,0.0172,9.8066,0.0276,-0.0091,0.0175,14.81,-14.53,-21.67,44.85,-3.19,2.85
51999,52.340775,-1.550545,120,24.91,10.0,33.1,Sep-23,5199941,2019-08-31 11:17:00:020,-0.6075,-0.3502,10.8776,0.0522,-0.007,9.8065,0.0276,-0.0091,0.0175,14.73,-13.85,-22.16,44.85,-3.19,2.85
52000,52.340958,-1.550327,121,25.01,10.0,33.4,Sep-23,5200042,2019-08-31 11:17:00:121,-0.2613,-0.0594,9.9174,-0.0077,-0.0373,9.8066,0.0202,-0.1039,0.0058,15.67,-14.15,-21.31,41.36,-3.38,3.09
52001,52.340958,-1.550327,121,25.01,10.0,33.4,Sep-23,5200141,2019-08-31 11:17:00:220,0.6327,-0.503,8.4906,-0.025,-0.0413,9.8065,-0.0459,-0.0336,0.0186,15.82,-13.67,-21.52,41.58,-3.11,3.18
52002,52.340958,-1.550327,121,25.01,10.0,33.4,Sep-23,5200241,2019-08-31 11:17:00:320,0.2387,-0.053,10.5982,0.0195,-0.0009,9.8066,-0.0054,0.0186,-0.0048,15.82,-13.67,-21.52,41.58,-3.11,3.18
52003,52.340958,-1.550327,121,25.01,10.0,33.4,Sep-23,5200341,2019-08-31 11:17:00:420,0.0424,-0.0877,9.465,-0.0206,0.0064,9.8066,-0.0352,-0.0453,0.0058,15.21,-14.3,-21.54,43.28,-3.22,3.24
52004,52.340958,-1.550327,121,25.01,10.0,33.4,Sep-23,5200440,2019-08-31 11:17:00:519,-0.0341,0.1148,10.8076,-0.0253,0.0131,9.8066,0.0106,-0.0101,-0.0411,15.21,-14.3,-21.54,43.24,-3.16,3.13
52005,52.340958,-1.550327,121,25.01,10.0,33.4,Sep-23,5200541,2019-08-31 11:17:00:620,-0.2338,-0.1409,10.2863,-0.0231,0.0465,9.8065,-0.0075,0.0783,-0.0102,15.04,-14.18,-21.74,42.97,-3.25,2.84
52006,52.340958,-1.550327,121,25.01,10.0,33.4,Sep-23,5200641,2019-08-31 11:17:00:720,-0.6337,-0.0996,9.3881,-0.0117,0.0077,9.8066,-0.016,-0.0314,0.0015,15.04,-14.18,-21.74,42.97,-3.25,2.84
52007,52.340958,-1.550327,121,25.01,10.0,33.4,Sep-23,5200741,2019-08-31 11:17:00:820,-0.4947,0.0412,9.4212,-0.0243,-0.008,9.8066,-0.0203,-0.008,0.0143,14.91,-15.24,-21.11,44.78,-3.23,2.76
52008,52.340958,-1.550327,121,25.01,10.0,33.4,Sep-23,5200841,2019-08-31 11:17:00:920,0.4219,0.051,10.0448,-0.0394,-0.0004,9.8066,-0.0203,-0.008,0.0143,15.01,-14.71,-21.41,44.78,-3.06,2.6
52009,52.340958,-1.550327,121,25.01,10.0,33.4,Sep-23,5200941,2019-08-31 11:17:01:020,-0.0979,0.0621,10.3412,0.0047,0.0226,9.8066,-0.0118,-0.0527,0.0047,15.06,-14.78,-21.32,44.66,-3.17,2.53
52010,52.341152,-1.550131,121,25.07,10.0,33.4,Sep-23,5201042,2019-08-31 11:17:01:121,0.1795,-0.2062,8.7381,-0.0165,-0.0023,9.8066,0.0138,-0.0016,0.0069,15.06,-14.78,-21.32,44.66,-3.17,2.53
52011,52.341152,-1.550131,121,25.07,10.0,33.4,Sep-23,5201141,2019-08-31 11:17:01:220,0.5343,0.0593,10.3319,-0.0144,-0.022,9.8066,-0.0288,-0.0005,0.009,15.3,-14.42,-21.4,42.91,-3.02,2.56
52012,52.341152,-1.550131,121,25.07,10.0,33.4,Sep-23,5201241,2019-08-31 11:17:01:320,-0.3532,-0.0573,10.2303,0.0144,-0.0021,9.8066,0.0053,-0.0719,0.0143,14.6,-14.93,-21.54,42.91,-3.02,2.56
52013,52.341152,-1.550131,121,25.07,10.0,33.4,Sep-23,5201341,2019-08-31 11:17:01:420,0.318,0.0393,8.7717,0.0053,-0.0134,9.8066,0.0117,0.073,-0.0016,14.6,-14.93,-21.54,42.91,-3.02,2.56
52014,52.341152,-1.550131,121,25.07,10.0,33.4,Sep-23,5201441,2019-08-31 11:17:01:520,-0.4385,-0.187,10.4902,0.0143,-0.006,9.8066,-0.0107,-0.0783,0.0197,14.85,-14.56,-21.62,44.83,-2.99,2.64
52015,52.341152,-1.550131,121,25.07,10.0,33.4,Sep-23,5201541,2019-08-31 11:17:01:620,0.1283,-0.1523,9.3834,-0.0011,-0.0099,9.8066,-0.0246,0.0101,0.0101,15.3,-14.42,-21.4,43.03,-3.03,2.72
52016,52.341152,-1.550131,121,25.07,10.0,33.4,Sep-23,5201641,2019-08-31 11:17:01:720,-0.0114,-0.1013,9.4992,0.0179,0.0021,9.8066,-0.0246,0.0101,0.0101,15.3,-14.42,-21.4,43.03,-3.03,2.72
52017,52.341152,-1.550131,121,25.07,10.0,33.4,Sep-23,5201741,2019-08-31 11:17:01:820,0.0624,-0.1502,10.6263,-0.0052,0.0004,9.8066,0.0031,0.0485,-0.0091,14.7,-15.02,-21.41,44.87,-3.11,2.79
52018,52.341152,-1.550131,121,25.07,10.0,33.4,Sep-23,5201841,2019-08-31 11:17:01:920,-0.2425,-0.0194,10.1725,-0.012,-0.0011,9.8066,-0.0022,0.0314,-0.0038,14.52,-14.24,-22.05,43.01,-3.09,2.76
52019,52.341152,-1.550131,121,25.07,10.0,33.4,Sep-23,5201941,2019-08-31 11:17:02:020,0.3521,0.1949,8.5346,-0.0199,-0.0015,9.8066,-0.0118,-0.0506,-0.0155,14.94,-15.92,-20.57,46.61,-3.0,2.69
52020,52.341152,-1.550131,121,25.07,10.0,33.4,Aug-23,5202041,2019-08-31 11:17:02:120,-0.0234,0.1279,9.742,-0.0068,0.0052,9.8066,-0.0033,0.0282,-0.0155,14.94,-15.92,-20.57,46.61,-3.0,2.69
52021,52.34132,-1.549915,121,25.02,10.0,34.2,Aug-23,5202141,2019-08-31 11:17:02:220,0.2513,-0.1272,8.2656,0.0074,-0.007,9.8066,0.033,0.0932,0.0143,14.37,-16.53,-20.5,49.97,-3.07,2.55
52022,52.34132,-1.549915,121,25.02,10.0,34.2,Aug-23,5202241,2019-08-31 11:17:02:320,0.1664,0.0205,10.5661,0.0193,-0.0144,9.8066,0.0244,0.0197,0.0122,14.57,-16.14,-20.67,49.97,-3.07,2.55
52023,52.34132,-1.549915,121,25.02,10.0,34.2,Aug-23,5202342,2019-08-31 11:17:02:421,-0.1104,0.0824,10.0285,0.0084,-0.019,9.8066,0.0244,0.0197,0.0122,14.37,-15.35,-21.4,46.66,-3.08,2.69
52024,52.34132,-1.549915,121,25.02,10.0,34.2,Aug-23,5202440,2019-08-31 11:17:02:519,0.2715,-0.3702,8.483,0.0115,-0.0627,9.8064,0.0394,-0.0091,-0.0187,14.85,-15.19,-21.18,46.66,-3.08,2.69
52025,52.34132,-1.549915,121,25.02,10.0,34.2,Aug-23,5202541,2019-08-31 11:17:02:620,0.2386,-0.168,9.2125,0.0123,-0.069,9.8064,-0.0075,0.0272,-0.0091,15.06,-14.78,-21.32,45.19,-2.83,3.02
52026,52.34132,-1.549915,121,25.02,10.0,34.2,Aug-23,5202642,2019-08-31 11:17:02:721,0.3133,0.1403,9.9542,-0.0107,-0.0002,9.8066,-0.0235,0.0122,-0.0006,15.06,-14.78,-21.32,45.19,-2.83,3.02
52027,52.34132,-1.549915,121,25.02,10.0,34.2,Aug-23,5202741,2019-08-31 11:17:02:820,-0.444,-0.1206,11.3762,-0.0095,-0.0054,9.8066,-0.0171,-0.0794,0.0122,15.51,-15.2,-20.69,43.45,-2.79,2.97
52028,52.34132,-1.549915,121,25.02,10.0,34.2,Aug-23,5202841,2019-08-31 11:17:02:920,0.6046,0.2853,9.8662,-0.0085,0.0015,9.8066,-0.0022,0.0304,-0.0091,14.62,-15.62,-21.03,46.91,-2.76,2.93
52029,52.34132,-1.549915,121,25.02,10.0,34.2,Aug-23,5202941,2019-08-31 11:17:03:020,-0.2877,0.0164,10.3852,0.0023,0.0197,9.8066,-0.0256,0.0804,-0.0123,15.58,-15.29,-20.58,43.34,-2.85,2.86
52030,52.34151,-1.549714,121,24.96,10.0,34.6,Aug-23,5203041,2019-08-31 11:17:03:120,0.3378,-0.1239,9.6793,-0.0046,0.0138,9.8066,-0.032,-0.057,0.0079,15.58,-15.29,-20.58,43.34,-2.85,2.86
52031,52.34151,-1.549714,121,24.96,10.0,34.6,Aug-23,5203141,2019-08-31 11:17:03:220,-0.6755,-0.0113,8.8557,-0.0187,0.0036,9.8066,0.0042,-0.0059,0.0015,15.21,-14.3,-21.54,43.06,-2.91,2.67
52032,52.34151,-1.549714,121,24.96,10.0,34.6,Aug-23,5203241,2019-08-31 11:17:03:320,-0.3116,-0.1111,9.6728,-0.016,-0.0084,9.8066,0.0042,-0.0059,0.0015,14.93,-14.0,-21.93,43.03,-2.85,2.58
52033,52.34151,-1.549714,121,24.96,10.0,34.6,Aug-23,5203341,2019-08-31 11:17:03:420,-0.482,-0.0076,9.3068,-0.021,-0.0055,9.8066,-0.0171,0.0005,0.0037,14.93,-14.0,-21.93,43.03,-2.85,2.58
52034,52.34151,-1.549714,121,24.96,10.0,34.6,Aug-23,5203441,2019-08-31 11:17:03:520,0.2919,0.0052,9.7479,0.0126,-0.0109,9.8066,0.0191,0.0005,-0.0112,14.85,-14.56,-21.62,44.91,-2.74,2.52
52035,52.34151,-1.549714,121,24.96,10.0,34.6,Aug-23,5203542,2019-08-31 11:17:03:621,0.3998,0.0562,10.3019,0.0116,-0.0204,9.8066,0.0149,-0.0485,0.0079,15.58,-15.29,-20.58,43.24,-2.74,2.62
52036,52.34151,-1.549714,121,24.96,10.0,34.6,Aug-23,5203641,2019-08-31 11:17:03:720,-0.6255,-0.0733,8.1521,-0.009,-0.0402,9.8066,-0.0033,-0.0037,0.0186,15.13,-13.61,-22.04,43.35,-2.54,2.75
52037,52.34151,-1.549714,121,24.96,10.0,34.6,Aug-23,5203741,2019-08-31 11:17:03:820,-0.3235,-0.0233,10.0244,0.0034,-0.004,9.8066,-0.0086,0.0112,-0.0091,15.13,-13.61,-22.04,43.35,-2.54,2.75
52038,52.34151,-1.549714,121,24.96,10.0,34.6,Aug-23,5203841,2019-08-31 11:17:03:920,-0.3398,0.2132,10.1155,0.0075,0.0134,9.8066,-0.0054,0.0346,-0.0134,15.4,-15.12,-20.84,45.21,-2.54,2.78
52039,52.34151,-1.549714,121,24.96,10.0,34.6,Aug-23,5203940,2019-08-31 11:17:04:019,-0.0252,-0.1451,9.5554,0.0049,0.0366,9.8066,-0.0171,0.0591,-0.0144,14.95,-15.27,-21.06,45.02,-2.71,2.65
52040,52.341686,-1.549501,121,25.1,10.0,34.7,Aug-23,5204042,2019-08-31 11:17:04:121,-0.2099,0.1662,8.3154,-0.0323,0.0113,9.8066,-0.0171,0.0591,-0.0144,14.49,-14.81,-21.7,45.02,-2.71,2.65
52041,52.341686,-1.549501,121,25.1,10.0,34.7,Aug-23,5204141,2019-08-31 11:17:04:220,0.2219,0.2344,10.6133,-0.0423,0.0332,9.8065,-0.0128,-0.0165,-0.0187,14.49,-14.81,-21.7,45.02,-2.71,2.65
52042,52.341686,-1.549501,121,25.1,10.0,34.7,Aug-23,5204241,2019-08-31 11:17:04:320,-0.6885,-0.0553,10.5468,-0.0152,0.0104,9.8066,-0.0214,-0.0506,0.0015,14.48,-15.43,-21.27,46.69,-2.68,2.34
52043,52.341686,-1.549501,121,25.1,10.0,34.7,Aug-23,5204341,2019-08-31 11:17:04:420,-0.0891,0.1247,10.4684,-0.0057,-0.0174,9.8066,0.0127,0.0218,-0.0198,14.89,-15.23,-21.13,44.78,-2.66,2.23
52044,52.341686,-1.549501,121,25.1,10.0,34.7,Aug-23,5204441,2019-08-31 11:17:04:520,0.2695,-0.1107,10.5681,0.0018,-0.0164,9.8066,-0.0075,0.0069,-0.0219,14.38,-14.71,-21.84,46.71,-2.56,2.28
52045,52.341686,-1.549501,121,25.1,10.0,34.7,Aug-23,5204542,2019-08-31 11:17:04:621,0.27,0.182,9.9452,-0.0035,0.0015,9.8067,-0.0139,0.0666,-0.0027,14.38,-14.71,-21.84,46.71,-2.56,2.28
52046,52.341686,-1.549501,121,25.1,10.0,34.7,Aug-23,5204641,2019-08-31 11:17:04:720,0.1085,0.1809,10.171,-0.0117,0.0076,9.8066,0.0074,-0.0069,-0.0017,14.24,-15.17,-21.62,46.7,-2.56,2.26
52047,52.341686,-1.549501,121,25.1,10.0,34.7,Aug-23,5204741,2019-08-31 11:17:04:820,0.156,0.1718,10.1362,0.0006,0.0043,9.8067,0.0074,-0.0069,-0.0017,14.7,-15.02,-21.41,44.84,-2.58,2.25
52048,52.341686,-1.549501,121,25.1,10.0,34.7,Aug-23,5204841,2019-08-31 11:17:04:920,-0.0315,0.1625,10.0731,0.0314,0.022,9.8066,-0.0054,0.0112,0.0005,14.7,-15.02,-21.41,44.84,-2.58,2.25
52049,52.341686,-1.549501,121,25.1,10.0,34.7,Aug-23,5204942,2019-08-31 11:17:05:021,-0.1442,0.0033,10.4218,-0.0122,0.0041,9.8066,-0.0246,-0.0357,-0.0112,14.27,-15.2,-21.57,46.55,-2.8,2.28
52050,52.341854,-1.549282,121,25.12,10.0,35.4,Aug-23,5205041,2019-08-31 11:17:05:120,-0.2807,0.0086,9.5056,-0.0335,0.0053,9.8066,0.0138,-0.0005,-0.0144,13.36,-16.17,-21.45,50.26,-2.69,2.12
52051,52.341854,-1.549282,121,25.12,10.0,35.4,Aug-23,5205141,2019-08-31 11:17:05:220,-0.5289,0.0026,8.9913,-0.0198,0.0007,9.8066,-0.0096,-0.0027,0.0037,15.24,-15.56,-20.63,46.45,-2.61,2.05
52052,52.341854,-1.549282,121,25.12,10.0,35.4,Aug-23,5205241,2019-08-31 11:17:05:320,0.1191,0.0921,9.6012,-0.0162,-0.0013,9.8066,0.0106,-0.0027,-0.0091,14.94,-15.92,-20.57,46.45,-2.61,2.05
52053,52.341854,-1.549282,121,25.12,10.0,35.4,Aug-23,5205342,2019-08-31 11:17:05:421,-0.0244,-0.1418,9.0353,-0.0054,-0.0035,9.8066,0.0042,0.0314,-0.008,14.94,-15.92,-20.57,46.45,-2.61,2.05
52054,52.341854,-1.549282,121,25.12,10.0,35.4,Aug-23,5205442,2019-08-31 11:17:05:521,-0.413,-0.0477,9.0936,0.0034,0.0,9.8067,-0.015,-0.0027,-0.0048,15.15,-14.87,-21.2,44.7,-2.57,2.04
52055,52.341854,-1.549282,121,25.12,10.0,35.4,Aug-23,5205541,2019-08-31 11:17:05:620,-0.4976,-0.1835,10.198,-0.0012,0.0117,9.8066,0.0106,0.0293,-0.0091,14.03,-14.95,-21.9,46.47,-2.61,1.99
52056,52.341854,-1.549282,121,25.12,10.0,35.4,Aug-23,5205641,2019-08-31 11:17:05:720,0.0731,0.0419,9.8447,-0.0004,0.0109,9.8066,-0.0118,0.0165,-0.0187,14.03,-14.95,-21.9,46.47,-2.61,1.99
52057,52.341854,-1.549282,121,25.12,10.0,35.4,Aug-23,5205741,2019-08-31 11:17:05:820,0.2014,0.2623,9.6241,-0.0009,0.0363,9.8066,-0.0118,0.0165,-0.0187,14.4,-15.89,-20.98,48.06,-2.76,1.84
52058,52.341854,-1.549282,121,25.12,10.0,35.4,Aug-23,5205841,2019-08-31 11:17:05:920,0.1354,0.163,9.4983,-0.0086,-0.0056,9.8066,-0.0075,-0.0368,-0.0048,13.33,-14.83,-22.42,48.26,-2.71,1.82
52059,52.341854,-1.549282,121,25.12,10.0,35.4,Aug-23,5205942,2019-08-31 11:17:06:021,0.3921,0.4015,9.9002,-0.0057,-0.0044,9.8066,0.0117,0.0708,-0.0134,13.33,-14.83,-22.42,48.26,-2.71,1.82
52060,52.34205,-1.549066,121,25.14,10.0,36.0,Aug-23,5206041,2019-08-31 11:17:06:120,-0.0764,-0.0844,8.5994,-0.0261,-0.0185,9.8066,0.0298,0.0474,-0.0347,14.12,-15.65,-21.35,48.11,-2.67,1.81
52061,52.34205,-1.549066,121,25.14,10.0,36.0,Aug-23,5206141,2019-08-31 11:17:06:220,-0.0579,-0.1521,10.6097,0.0186,0.0016,9.8066,0.018,0.0325,-0.0134,14.24,-15.17,-21.62,46.49,-2.44,1.84
52062,52.34205,-1.549066,121,25.14,10.0,36.0,Aug-23,5206241,2019-08-31 11:17:06:320,0.4925,0.0274,9.39,0.007,0.0113,9.8066,-0.0246,0.0144,0.0015,13.68,-15.72,-21.58,48.24,-2.52,1.91
52063,52.34205,-1.549066,121,25.14,10.0,36.0,Aug-23,5206341,2019-08-31 11:17:06:420,-0.1702,-0.0001,9.6611,0.0101,0.022,9.8066,-0.0182,-0.0474,-0.0102,13.68,-15.72,-21.58,48.24,-2.52,1.91
52064,52.34205,-1.549066,121,25.14,10.0,36.0,Aug-23,5206441,2019-08-31 11:17:06:520,-0.0269,-0.0292,9.8569,-0.0014,-0.0068,9.8066,-0.0182,-0.0474,-0.0102,13.8,-15.35,-21.77,46.36,-2.66,1.87
52065,52.34205,-1.549066,121,25.14,10.0,36.0,Aug-23,5206541,2019-08-31 11:17:06:620,0.5681,0.0142,10.6938,-0.0006,-0.0015,9.8067,0.0276,0.025,-0.0123,13.95,-15.35,-21.67,46.4,-2.62,1.89
52066,52.34205,-1.549066,121,25.14,10.0,36.0,Aug-23,5206642,2019-08-31 11:17:06:721,-0.0014,-0.1956,10.7652,0.0111,0.0023,9.8066,-0.0011,0.008,-0.0017,13.42,-16.14,-21.43,46.4,-2.62,1.89
52067,52.34205,-1.549066,121,25.14,10.0,36.0,Aug-23,5206741,2019-08-31 11:17:06:820,0.0689,-0.1073,10.4367,0.0098,-0.0175,9.8066,-0.0182,-0.0219,0.0005,13.42,-16.14,-21.43,46.4,-2.62,1.89
52068,52.34205,-1.549066,121,25.14,10.0,36.0,Aug-23,5206841,2019-08-31 11:17:06:920,-0.6336,-0.1693,9.8139,-0.0122,-0.0155,9.8066,-0.0118,-0.0559,-0.0208,14.85,-15.68,-20.82,46.43,-2.59,2.0
52069,52.34205,-1.549066,121,25.14,10.0,36.0,Aug-23,5206941,2019-08-31 11:17:07:020,-0.3266,-0.0826,9.104,-0.0415,-0.0321,9.8065,-0.0033,0.0197,-0.0198,14.04,-15.62,-21.43,46.43,-2.59,2.0
52070,52.34205,-1.549066,121,25.14,10.0,36.0,Aug-23,5207041,2019-08-31 11:17:07:120,0.2282,-0.151,10.1148,-0.0438,-0.0282,9.8065,0.0244,0.025,-0.0016,13.89,-15.94,-21.28,48.44,-2.29,1.93
52071,52.342243,-1.548861,119,25.05,10.0,36.8,Aug-23,5207143,2019-08-31 11:17:07:222,0.6044,-0.0071,10.7161,0.0145,-0.0176,9.8066,0.0021,-0.0229,0.0133,14.85,-15.68,-20.82,48.44,-2.29,1.93
52072,52.342243,-1.548861,119,25.05,10.0,36.8,Aug-23,5207241,2019-08-31 11:17:07:320,0.4323,-0.3382,10.565,0.0531,-0.0428,9.8064,0.0021,-0.0229,0.0133,14.85,-15.68,-20.82,48.44,-2.29,1.93
52073,52.342243,-1.548861,119,25.05,10.0,36.8,Aug-23,5207342,2019-08-31 11:17:07:421,0.2074,-0.0549,10.8002,0.0202,-0.0031,9.8066,-0.0054,-0.0165,-0.0059,14.52,-15.46,-21.22,45.06,-2.31,2.33
52074,52.342243,-1.548861,119,25.05,10.0,36.8,Aug-23,5207441,2019-08-31 11:17:07:520,-0.1088,-0.1254,8.6332,0.0324,0.0004,9.8066,0.0021,0.0421,-0.008,14.27,-15.2,-21.57,45.06,-2.31,2.33
52075,52.342243,-1.548861,119,25.05,10.0,36.8,Aug-23,5207541,2019-08-31 11:17:07:620,0.9454,0.061,9.9701,0.0172,-0.0061,9.8066,0.0085,0.0421,-0.0304,13.62,-16.38,-21.12,48.67,-2.45,2.46
52076,52.342243,-1.548861,119,25.05,10.0,36.8,Aug-23,5207641,2019-08-31 11:17:07:720,-0.0906,0.239,9.8774,0.007,-0.0141,9.8066,-0.0182,-0.025,0.0058,14.04,-15.62,-21.43,48.74,-2.41,2.55
52077,52.342243,-1.548861,119,25.05,10.0,36.8,Aug-23,5207742,2019-08-31 11:17:07:821,-0.1187,-0.0233,9.6715,-0.0088,-0.0109,9.8066,0.0031,-0.0037,-0.008,14.04,-15.62,-21.43,48.74,-2.41,2.55
52078,52.342243,-1.548861,119,25.05,10.0,36.8,Aug-23,5207842,2019-08-31 11:17:07:921,-0.5432,-0.2655,9.6826,-0.0267,-0.024,9.8066,-0.0065,-0.0304,-0.008,13.68,-15.72,-21.58,48.79,-2.33,2.55
52079,52.342243,-1.548861,119,25.05,10.0,36.8,Aug-23,5207941,2019-08-31 11:17:08:020,0.3091,-0.048,9.2746,-0.0362,-0.0357,9.8065,-0.016,0.0389,-0.0006,13.68,-15.72,-21.58,48.79,-2.33,2.55
52080,52.34242,-1.548634,119,24.87,10.0,37.3,Aug-23,5208041,2019-08-31 11:17:08:120,-0.6149,0.0003,9.8073,0.0034,0.0195,9.8066,-0.016,0.0389,-0.0006,14.9,-16.34,-20.28,47.1,-2.03,2.53
52081,52.34242,-1.548634,119,24.87,10.0,37.3,Aug-23,5208141,2019-08-31 11:17:08:220,0.2661,0.0301,9.0576,0.0189,0.0424,9.8065,-0.0001,0.058,-0.0059,13.76,-16.42,-21.0,47.1,-2.03,2.53
52082,52.34242,-1.548634,119,24.87,10.0,37.3,Aug-23,5208241,2019-08-31 11:17:08:320,-0.0796,0.1494,10.1231,0.0361,0.0536,9.8064,-0.0182,-0.0176,0.009,13.47,-17.88,-19.97,53.8,-2.41,2.47
52083,52.34242,-1.548634,119,24.87,10.0,37.3,Aug-23,5208341,2019-08-31 11:17:08:420,-0.0546,0.0181,9.5516,0.0196,0.0004,9.8066,-0.0043,0.0549,0.009,14.27,-16.92,-20.25,50.37,-2.34,2.47
52084,52.34242,-1.548634,119,24.87,10.0,37.3,Aug-23,5208441,2019-08-31 11:17:08:520,0.3318,-0.0571,9.9608,0.0225,0.008,9.8066,-0.0075,0.0335,0.0101,13.76,-16.42,-21.0,50.37,-2.34,2.47
52085,52.34242,-1.548634,119,24.87,10.0,37.3,Aug-23,5208541,2019-08-31 11:17:08:620,-0.2297,0.0222,10.2954,0.0348,-0.0038,9.8066,0.0159,-0.0016,0.0111,13.76,-16.42,-21.0,50.37,-2.34,2.47
52086,52.34242,-1.548634,119,24.87,10.0,37.3,Aug-23,5208641,2019-08-31 11:17:08:720,0.1976,0.0234,9.6745,0.0128,-0.0132,9.8066,0.0053,0.0272,-0.0123,14.07,-14.98,-21.86,47.03,-2.46,2.64
52087,52.34242,-1.548634,119,24.87,10.0,37.3,Aug-23,5208741,2019-08-31 11:17:08:820,0.7014,0.0674,9.9249,0.0069,0.0075,9.8066,-0.0224,0.0037,0.0079,14.98,-15.31,-21.0,45.24,-2.45,2.74
52088,52.34242,-1.548634,119,24.87,10.0,37.3,Aug-23,5208841,2019-08-31 11:17:08:920,0.0473,-0.1397,9.638,0.0127,0.0109,9.8066,-0.0224,0.0037,0.0079,14.08,-16.69,-20.57,45.24,-2.45,2.74
52089,52.34242,-1.548634,119,24.87,10.0,37.3,Aug-23,5208942,2019-08-31 11:17:09:021,0.6132,0.4702,9.5449,0.0145,-0.0046,9.8066,-0.0118,0.0453,0.0037,14.08,-16.69,-20.57,45.24,-2.45,2.74
52090,52.34242,-1.548634,119,24.87,10.0,37.3,Aug-23,5209041,2019-08-31 11:17:09:120,0.1647,-0.0273,8.5316,0.0185,-0.007,9.8066,-0.0096,-0.1124,0.0271,12.63,-18.54,-19.92,55.31,-2.49,2.82
52091,52.342594,-1.548413,119,24.81,10.0,37.7,Aug-23,5209141,2019-08-31 11:17:09:220,-0.4536,-0.2451,10.8917,0.0413,-0.0153,9.8066,-0.0224,-0.0751,0.0186,20.6,-16.51,-14.25,55.31,-2.49,2.82
52092,52.342594,-1.548413,119,24.81,10.0,37.7,Aug-23,5209241,2019-08-31 11:17:09:320,0.8024,0.1738,10.8162,0.0414,-0.0279,9.8065,-0.0203,0.0058,0.009,15.1,-16.56,-19.94,48.79,-2.5,3.12
52093,52.342594,-1.548413,119,24.81,10.0,37.7,Aug-23,5209341,2019-08-31 11:17:09:420,-0.2798,0.0382,10.1721,0.0011,0.0096,9.8066,0.0127,0.0751,-0.0144,15.1,-16.56,-19.94,48.79,-2.5,3.12
52094,52.342594,-1.548413,119,24.81,10.0,37.7,Aug-23,5209441,2019-08-31 11:17:09:520,-0.3602,-0.2016,9.4026,-0.0106,0.0067,9.8066,0.0021,0.0549,0.0079,15.56,-16.43,-19.7,45.34,-2.64,3.12
52095,52.342594,-1.548413,119,24.81,10.0,37.7,Aug-23,5209542,2019-08-31 11:17:09:621,0.9291,0.3315,9.5507,0.0127,-0.0191,9.8066,0.0298,0.0517,-0.023,15.14,-16.6,-19.88,48.68,-2.63,3.05
52096,52.342594,-1.548413,119,24.81,10.0,37.7,Aug-23,5209641,2019-08-31 11:17:09:720,-0.1458,-0.307,8.9221,0.0225,-0.0187,9.8066,0.0298,0.0517,-0.023,15.14,-16.6,-19.88,48.68,-2.63,3.05
52097,52.342594,-1.548413,119,24.81,10.0,37.7,Aug-23,5209741,2019-08-31 11:17:09:820,0.4047,0.0965,10.2557,-0.0161,0.0109,9.8066,-0.0501,-0.0123,0.0058,14.46,-16.83,-20.19,50.61,-2.63,3.22
52098,52.342594,-1.548413,119,24.81,10.0,37.7,Aug-23,5209841,2019-08-31 11:17:09:920,-0.4501,0.0906,11.2401,-0.0303,0.0065,9.8066,0.0149,-0.0495,0.0101,15.68,-16.72,-19.36,46.98,-2.55,3.06
52099,52.342594,-1.548413,119,24.81,10.0,37.7,Aug-23,5209942,2019-08-31 11:17:10:021,0.181,-0.0345,9.5342,0.0192,-0.0116,9.8066,0.018,0.0495,0.0037,15.83,-16.22,-19.65,46.98,-2.55,3.06
52100,52.342594,-1.548413,119,24.81,10.0,37.7,Aug-23,5210041,2019-08-31 11:17:10:120,0.5731,0.1262,9.7099,0.0455,-0.0004,9.8065,-0.0086,-0.0027,0.0101,15.83,-16.22,-19.65,46.98,-2.55,3.06
52101,52.342777,-1.548183,119,24.92,10.0,38.3,Aug-23,5210141,2019-08-31 11:17:10:220,0.1507,-0.067,11.066,0.0215,0.0003,9.8066,-0.0171,-0.0048,-0.0038,16.15,-16.52,-19.14,46.99,-2.73,3.26
52102,52.342777,-1.548183,119,24.92,10.0,38.3,Aug-23,5210241,2019-08-31 11:17:10:320,-0.6473,-0.3049,9.2049,0.0253,0.0009,9.8066,-0.016,-0.0059,-0.0059,15.3,-16.84,-19.55,48.74,-2.83,3.36
52103,52.342777,-1.548183,119,24.92,10.0,38.3,Aug-23,5210341,2019-08-31 11:17:10:420,-0.4743,-0.1741,10.399,-0.013,0.0142,9.8066,0.0106,-0.0048,-0.0155,14.5,-17.19,-19.86,50.5,-2.85,3.25
52104,52.342777,-1.548183,119,24.92,10.0,38.3,Aug-23,5210442,2019-08-31 11:17:10:521,-0.1003,0.259,9.4891,-0.0295,-0.0114,9.8066,0.0159,0.0559,-0.0123,14.5,-17.19,-19.86,50.5,-2.85,3.25
52105,52.342777,-1.548183,119,24.92,10.0,38.3,Aug-23,5210541,2019-08-31 11:17:10:620,-0.1267,0.2841,11.0987,-0.0034,-0.0057,9.8066,0.0159,0.0559,-0.0123,13.66,-18.2,-19.55,52.05,-2.69,3.16
52106,52.342777,-1.548183,119,24.92,10.0,38.3,Aug-23,5210641,2019-08-31 11:17:10:720,0.151,0.2692,10.8175,-0.0135,0.0159,9.8066,-0.0054,-0.0037,0.0079,13.61,-17.5,-20.21,51.98,-2.71,3.04
52107,52.342777,-1.548183,119,24.92,10.0,38.3,Aug-23,5210741,2019-08-31 11:17:10:820,0.1097,0.3296,10.372,0.0092,0.0308,9.8066,-0.0054,0.0016,0.0079,13.61,-17.5,-20.21,51.98,-2.71,3.04
52108,52.342777,-1.548183,119,24.92,10.0,38.3,Aug-23,5210841,2019-08-31 11:17:10:920,0.2086,0.1352,9.5501,0.0121,0.0154,9.8066,0.0234,0.0463,-0.0091,13.15,-18.37,-19.74,53.75,-2.89,2.97
52109,52.342777,-1.548183,119,24.92,10.0,38.3,Aug-23,5210942,2019-08-31 11:17:11:021,-0.3807,-0.292,9.5333,0.0128,-0.0108,9.8066,0.0212,0.0293,-0.0176,13.66,-18.2,-19.55,53.75,-2.89,2.97
52110,52.34296,-1.547957,118,25.09,10.0,37.9,Aug-23,5211042,2019-08-31 11:17:11:121,0.0898,-0.1374,9.3531,0.0136,-0.0345,9.8066,-0.0096,-0.0059,-0.008,13.66,-18.2,-19.55,53.75,-2.89,2.97
52111,52.34296,-1.547957,118,25.09,10.0,37.9,Aug-23,5211140,2019-08-31 11:17:11:219,-0.0643,0.2374,9.4347,-0.0121,0.0032,9.8066,0.0074,-0.0176,-0.0059,13.32,-17.96,-20.0,53.91,-2.77,3.16
52112,52.34296,-1.547957,118,25.09,10.0,37.9,Aug-23,5211241,2019-08-31 11:17:11:320,-0.6243,-0.0767,10.3377,-0.0277,0.0046,9.8066,-0.0182,-0.0165,0.0026,13.58,-16.83,-20.79,53.91,-2.77,3.16
52113,52.34296,-1.547957,118,25.09,10.0,37.9,Aug-23,5211341,2019-08-31 11:17:11:420,0.1462,0.1486,9.5923,-0.0361,0.028,9.8065,-0.0182,-0.0165,0.0026,13.94,-16.64,-20.71,50.33,-2.78,2.89
52114,52.34296,-1.547957,118,25.09,10.0,37.9,Aug-23,5211441,2019-08-31 11:17:11:520,-0.2096,-0.0651,10.2927,-0.0043,0.0218,9.8066,-0.0054,0.0399,-0.0091,13.92,-17.4,-20.09,50.33,-2.78,2.89
52115,52.34296,-1.547957,118,25.09,10.0,37.9,Aug-23,5211541,2019-08-31 11:17:11:620,0.7158,0.2487,10.0916,0.0202,0.0502,9.8065,-0.0171,-0.0005,-0.0091,13.92,-17.4,-20.09,50.33,-2.78,2.89
52116,52.34296,-1.547957,118,25.09,10.0,37.9,Aug-23,5211641,2019-08-31 11:17:11:720,0.1814,0.2116,9.6933,0.0274,0.0775,9.8063,0.0095,0.0517,0.0154,12.7,-17.12,-21.11,51.86,-3.23,2.72
52117,52.34296,-1.547957,118,25.09,10.0,37.9,Aug-23,5211741,2019-08-31 11:17:11:820,-0.2725,-0.2406,8.1349,-0.0054,-0.0328,9.8066,0.0287,0.0218,-0.0006,13.6,-16.85,-20.77,49.95,-3.18,2.68
52118,52.34296,-1.547957,118,25.09,10.0,37.9,Aug-23,5211841,2019-08-31 11:17:11:920,-0.1838,-0.4155,8.6201,-0.012,-0.0677,9.8064,0.0223,-0.0538,-0.008,13.6,-16.85,-20.77,49.95,-3.18,2.68
52119,52.34296,-1.547957,118,25.09,10.0,37.9,Aug-23,5211941,2019-08-31 11:17:12:020,-0.1923,-0.2587,10.0243,-0.007,-0.0201,9.8066,0.0117,0.0261,-0.0027,13.35,-16.55,-21.16,52.22,-2.83,2.88
52120,52.34296,-1.547957,118,25.09,10.0,37.9,Aug-23,5212043,2019-08-31 11:17:12:122,0.3619,-0.1025,9.4595,-0.0037,-0.0208,9.8066,-0.0246,0.0037,0.0111,13.35,-16.55,-21.16,52.22,-2.83,2.88
52121,52.343136,-1.547733,118,24.89,10.0,38.4,Aug-23,5212141,2019-08-31 11:17:12:220,0.3339,0.0039,10.158,-0.0054,0.0145,9.8066,-0.0246,0.0037,0.0111,10.88,-23.11,-15.74,63.83,-2.72,2.94
52122,52.343136,-1.547733,118,24.89,10.0,38.4,Aug-23,5212241,2019-08-31 11:17:12:320,0.0096,-0.0711,9.8713,0.0075,0.0145,9.8066,-0.0214,0.0538,-0.0134,14.94,-15.74,-20.71,46.86,-2.79,2.87
52123,52.343136,-1.547733,118,24.89,10.0,38.4,Aug-23,5212341,2019-08-31 11:17:12:420,-0.214,0.0349,8.8354,0.0034,0.0467,9.8065,-0.031,0.009,-0.0027,13.83,-17.12,-20.39,50.1,-3.0,2.7
52124,52.343136,-1.547733,118,24.89,10.0,38.4,Aug-23,5212441,2019-08-31 11:17:12:520,0.6853,0.2392,8.9324,-0.0003,0.0141,9.8066,0.0266,0.041,-0.0272,13.83,-17.12,-20.39,50.1,-3.0,2.7
52125,52.343136,-1.547733,118,24.89,10.0,38.4,Aug-23,5212541,2019-08-31 11:17:12:620,0.1351,0.173,10.2605,0.0082,-0.0097,9.8066,0.0031,-0.0602,0.0026,13.35,-16.55,-21.16,51.93,-3.06,2.65
52126,52.343136,-1.547733,118,24.89,10.0,38.4,Aug-23,5212641,2019-08-31 11:17:12:720,0.2682,0.0518,9.4753,0.0011,-0.0402,9.8066,0.0085,0.0751,-0.0091,12.81,-17.8,-20.47,51.93,-3.06,2.65
52127,52.343136,-1.547733,118,24.89,10.0,38.4,Aug-23,5212741,2019-08-31 11:17:12:820,0.292,0.1453,10.3835,0.0058,-0.0099,9.8066,0.0287,0.0335,0.0111,21.52,-14.67,-14.88,34.71,-2.88,2.8
52128,52.343136,-1.547733,118,24.89,10.0,38.4,Aug-23,5212842,2019-08-31 11:17:12:921,0.1,0.1122,10.5383,0.0113,-0.0224,9.8066,0.0095,0.0367,-0.0091,14.98,-16.37,-20.18,34.71,-2.88,2.8
52129,52.343136,-1.547733,118,24.89,10.0,38.4,Aug-23,5212942,2019-08-31 11:17:13:021,0.3555,0.224,10.4672,0.0237,-0.0299,9.8066,0.0095,0.0367,-0.0091,14.98,-16.37,-20.18,34.71,-2.88,2.8
52130,52.34332,-1.547503,119,25.07,10.0,38.6,Aug-23,5213041,2019-08-31 11:17:13:120,-0.0906,0.0558,9.4058,-0.0022,-0.0008,9.8067,-0.0171,0.0208,-0.0006,13.42,-17.26,-20.55,52.26,-2.89,3.02
52131,52.34332,-1.547503,119,25.07,10.0,38.6,Aug-23,5213141,2019-08-31 11:17:13:220,0.0736,-0.0196,8.7755,-0.0056,0.0095,9.8066,0.0063,0.0005,0.0069,13.42,-17.26,-20.55,52.21,-2.92,2.96
52132,52.34332,-1.547503,119,25.07,10.0,38.6,Aug-23,5213241,2019-08-31 11:17:13:320,-0.1528,0.0499,9.5805,-0.0043,-0.015,9.8066,0.0138,-0.0006,0.0069,13.6,-16.85,-20.77,52.21,-2.92,2.96
52133,52.34332,-1.547503,119,25.07,10.0,38.6,Aug-23,5213341,2019-08-31 11:17:13:420,-0.2475,-0.2908,8.8872,-0.0277,-0.0374,9.8065,-0.0096,0.009,-0.0091,13.6,-16.85,-20.77,52.21,-2.92,2.96
52134,52.34332,-1.547503,119,25.07,10.0,38.6,Aug-23,5213441,2019-08-31 11:17:13:520,0.103,-0.0421,10.0561,-0.0046,0.0003,9.8067,-0.0246,-0.0336,-0.0016,13.6,-16.85,-20.77,50.46,-2.65,2.96
52135,52.34332,-1.547503,119,25.07,10.0,38.6,Aug-23,5213541,2019-08-31 11:17:13:620,-0.6489,-0.1402,10.4163,-0.0288,0.0091,9.8066,0.0117,0.0676,0.0005,13.85,-16.43,-20.94,48.79,-2.58,2.8
52136,52.34332,-1.547503,119,25.07,10.0,38.6,Aug-23,5213641,2019-08-31 11:17:13:720,0.117,0.0624,9.9171,-0.006,-0.0042,9.8066,0.0234,0.0857,-0.007,13.48,-15.49,-21.87,48.79,-2.58,2.8
52137,52.34332,-1.547503,119,25.07,10.0,38.6,Aug-23,5213741,2019-08-31 11:17:13:820,0.2308,-0.4003,10.81,0.0907,0.0233,9.8062,0.0234,0.0857,-0.007,13.48,-15.49,-21.87,48.79,-2.58,2.8
52138,52.34332,-1.547503,119,25.07,10.0,38.6,Aug-23,5213841,2019-08-31 11:17:13:920,0.5875,0.2804,11.155,0.0158,0.0114,9.8066,-0.0171,0.0218,0.0154,12.54,-15.55,-22.38,50.61,-3.03,3.11
52139,52.34332,-1.547503,119,25.07,10.0,38.6,Aug-23,5213941,2019-08-31 11:17:14:020,-0.6103,-0.0031,7.8809,0.0053,0.0006,9.8066,-0.031,0.0101,0.0079,13.11,-15.26,-22.26,48.91,-3.05,3.13
52140,52.34332,-1.547503,119,25.07,10.0,38.6,Aug-23,5214041,2019-08-31 11:17:14:120,-0.1708,-0.1997,9.7249,-0.0306,-0.0328,9.8065,-0.0022,-0.0016,-0.0102,12.94,-16.04,-21.8,48.91,-3.05,3.13
52141,52.3435,-1.547267,120,25.04,9.0,38.9,Aug-23,5214141,2019-08-31 11:17:14:220,0.234,0.2575,9.3836,-0.0416,-0.0661,9.8063,-0.0107,-0.0464,0.0058,12.94,-16.04,-21.8,48.91,-3.05,3.13
52142,52.3435,-1.547267,120,25.04,9.0,38.9,Aug-23,5214241,2019-08-31 11:17:14:320,-0.3028,-0.0824,9.9093,-0.0041,0.0085,9.8066,-0.0001,-0.0112,0.0101,12.94,-16.04,-21.8,50.98,-2.6,3.2
52143,52.3435,-1.547267,120,25.04,9.0,38.9,Aug-23,5214341,2019-08-31 11:17:14:420,-0.1782,-0.0734,9.7022,-0.0179,0.001,9.8066,0.0053,-0.0101,0.009,12.94,-16.04,-21.8,50.98,-2.6,3.2
52144,52.3435,-1.547267,120,25.04,9.0,38.9,Aug-23,5214441,2019-08-31 11:17:14:520,-0.1416,-0.1679,10.3607,-0.0163,0.0009,9.8066,0.001,0.0197,0.0069,12.94,-16.04,-21.8,50.98,-2.6,3.2
52145,52.3435,-1.547267,120,25.04,9.0,38.9,Aug-23,5214541,2019-08-31 11:17:14:620,0.1807,-0.0146,9.7401,0.0284,0.0231,9.8066,0.001,0.0197,0.0069,13.15,-15.7,-21.92,50.97,-2.55,3.13
52146,52.3435,-1.547267,120,25.04,9.0,38.9,Aug-23,5214640,2019-08-31 11:17:14:719,-0.4285,-0.2872,9.3451,0.0602,0.0461,9.8064,-0.0288,-0.0123,0.0165,12.18,-15.24,-22.79,51.09,-2.98,3.23
52147,52.3435,-1.547267,120,25.04,9.0,38.9,Aug-23,5214741,2019-08-31 11:17:14:820,0.0392,-0.1583,8.4606,-0.0323,-0.0205,9.8066,-0.0011,0.0314,-0.0123,13.23,-16.55,-21.24,51.09,-2.98,3.23
52148,52.3435,-1.547267,120,25.04,9.0,38.9,Aug-23,5214841,2019-08-31 11:17:14:920,-0.3057,0.0872,9.3818,-0.0167,-0.0131,9.8066,0.0234,-0.0272,-0.0102,13.58,-16.83,-20.79,50.49,-2.77,3.16
52149,52.3435,-1.547267,120,25.04,9.0,38.9,Aug-23,5214941,2019-08-31 11:17:15:020,0.3651,0.1583,10.1807,0.0016,-0.0008,9.8066,0.0159,0.0463,-0.0038,13.58,-16.83,-20.79,50.49,-2.77,3.16
52150,52.3435,-1.547267,120,25.04,9.0,38.9,Aug-23,5215041,2019-08-31 11:17:15:120,0.1142,-0.1401,9.2204,0.0008,-0.0032,9.8066,0.0117,-0.0133,-0.008,13.58,-16.83,-20.79,50.49,-2.77,3.16
52151,52.343678,-1.547035,120,24.97,9.0,39.2,Aug-23,5215141,2019-08-31 11:17:15:220,-0.2365,-0.1253,9.5169,-0.0029,-0.0116,9.8066,0.0117,-0.0133,-0.008,13.99,-16.7,-20.63,50.51,-2.75,3.17
52152,52.343678,-1.547035,120,24.97,9.0,39.2,Aug-23,5215241,2019-08-31 11:17:15:320,0.0975,0.1567,9.2039,0.0,0.0165,9.8066,0.0031,0.0197,0.0122,13.76,-16.42,-21.0,48.96,-2.69,3.2
52153,52.343678,-1.547035,120,24.97,9.0,39.2,Aug-23,5215342,2019-08-31 11:17:15:421,-0.0703,-0.1063,9.4507,0.0024,0.0174,9.8066,0.0351,0.0165,0.0005,13.65,-15.67,-21.64,48.87,-2.78,3.15
52154,52.343678,-1.547035,120,24.97,9.0,39.2,Aug-23,5215441,2019-08-31 11:17:15:520,0.4279,-0.1261,10.476,0.0042,-0.0196,9.8066,0.001,-0.0474,0.0165,13.65,-15.67,-21.64,48.87,-2.78,3.15
52155,52.343678,-1.547035,120,24.97,9.0,39.2,Aug-23,5215541,2019-08-31 11:17:15:620,-0.5313,-0.0114,9.7063,0.0272,0.0164,9.8066,0.0085,0.0516,0.0037,12.86,-16.06,-21.83,50.98,-2.69,3.32
52156,52.343678,-1.547035,120,24.97,9.0,39.2,Aug-23,5215642,2019-08-31 11:17:15:721,0.4021,0.0506,9.8827,0.0523,0.0322,9.8065,-0.0107,0.0016,-0.0198,12.99,-15.63,-22.06,50.98,-2.69,3.32
52157,52.343678,-1.547035,120,24.97,9.0,39.2,Aug-23,5215742,2019-08-31 11:17:15:821,0.8166,0.1731,10.0069,0.0531,0.0342,9.8064,-0.0256,0.0346,0.0016,12.86,-16.06,-21.83,50.81,-3.04,3.43
52158,52.343678,-1.547035,120,24.97,9.0,39.2,Aug-23,5215841,2019-08-31 11:17:15:920,-0.854,0.3323,10.3374,-0.0138,-0.0018,9.8066,0.0266,-0.0091,-0.0134,12.86,-16.06,-21.83,50.81,-3.04,3.43
52159,52.343678,-1.547035,120,24.97,9.0,39.2,Aug-23,5215941,2019-08-31 11:17:16:020,0.3587,0.2978,9.4227,-0.0099,-0.0206,9.8066,0.0266,-0.0091,-0.0134,12.42,-16.14,-22.03,52.86,-2.99,3.38
52160,52.34385,-1.546803,121,25.02,9.0,39.4,Aug-23,5216040,2019-08-31 11:17:16:119,-0.2811,-0.2457,10.4478,-0.0163,-0.0337,9.8066,-0.0011,-0.0496,0.0069,11.69,-16.06,-22.48,53.05,-2.77,3.42
52161,52.34385,-1.546803,121,25.02,9.0,39.4,Aug-23,5216141,2019-08-31 11:17:16:220,0.8935,-0.2168,8.7953,-0.0142,0.0177,9.8066,-0.0235,-0.0059,-0.0187,11.57,-16.65,-22.11,53.05,-2.77,3.42
52162,52.34385,-1.546803,121,25.02,9.0,39.4,Aug-23,5216241,2019-08-31 11:17:16:320,-0.4984,0.6923,9.2645,-0.0107,0.0447,9.8065,-0.0054,-0.0037,-0.0123,11.57,-16.65,-22.11,53.05,-2.77,3.42
52163,52.34385,-1.546803,121,25.02,9.0,39.4,Aug-23,5216341,2019-08-31 11:17:16:420,0.8702,0.4554,9.5449,-0.0073,0.0828,9.8063,0.0447,0.0399,-0.0304,12.99,-16.33,-21.55,50.53,-3.13,3.09
52164,52.34385,-1.546803,121,25.02,9.0,39.4,Aug-23,5216441,2019-08-31 11:17:16:520,-0.322,-0.1721,8.197,-0.0138,-0.0278,9.8066,0.0458,-0.0591,-0.0038,12.99,-16.33,-21.55,50.53,-3.13,3.09
52165,52.34385,-1.546803,121,25.02,9.0,39.4,Aug-23,5216541,2019-08-31 11:17:16:620,0.0076,0.2566,9.572,0.0002,-0.064,9.8064,0.0063,0.0431,-0.0048,12.76,-16.69,-21.41,52.28,-2.96,3.14
52166,52.34385,-1.546803,121,25.02,9.0,39.4,Aug-23,5216641,2019-08-31 11:17:16:720,0.2999,-0.0544,10.7548,0.0083,0.0536,9.8065,0.0063,0.0431,-0.0048,12.99,-16.33,-21.55,51.04,-2.66,3.37
52167,52.34385,-1.546803,121,25.02,9.0,39.4,Aug-23,5216740,2019-08-31 11:17:16:819,-0.1916,0.1161,10.1753,0.0033,0.067,9.8064,-0.0075,0.0751,-0.0048,13.18,-16.9,-20.99,51.04,-2.66,3.37
52168,52.34385,-1.546803,121,25.02,9.0,39.4,Aug-23,5216841,2019-08-31 11:17:16:920,-0.1577,-0.2147,8.8658,-0.0096,-0.0352,9.8066,0.0191,-0.0709,0.0101,12.66,-16.41,-21.69,50.67,-2.98,3.13
52169,52.34385,-1.546803,121,25.02,9.0,39.4,Aug-23,5216940,2019-08-31 11:17:17:019,0.2954,-0.0208,9.4209,0.0044,-0.0412,9.8066,-0.0064,0.0154,0.0165,12.66,-16.41,-21.69,50.67,-2.98,3.13
52170,52.344017,-1.546567,120,24.97,9.0,39.9,Aug-23,5217041,2019-08-31 11:17:17:120,-0.2518,-0.064,9.9404,0.0095,0.0124,9.8066,0.0031,0.0357,-0.007,13.67,-16.42,-21.06,48.95,-2.81,3.31
52171,52.344017,-1.546567,120,24.97,9.0,39.9,Aug-23,5217142,2019-08-31 11:17:17:221,0.4676,0.1779,10.4149,-0.005,0.0089,9.8066,0.0244,0.0335,0.0005,12.62,-17.11,-21.17,48.95,-2.81,3.31
52172,52.344017,-1.546567,120,24.97,9.0,39.9,Aug-23,5217241,2019-08-31 11:17:17:320,-0.3266,0.0877,9.817,-0.0143,-0.0146,9.8066,-0.0001,-0.0325,0.0175,12.92,-16.01,-21.83,50.98,-2.69,3.3
52173,52.344017,-1.546567,120,24.97,9.0,39.9,Aug-23,5217341,2019-08-31 11:17:17:420,0.1002,0.1389,9.4066,0.0009,0.0139,9.8066,-0.015,0.0623,-0.0059,12.96,-16.29,-21.6,50.9,-2.75,3.25
52174,52.344017,-1.546567,120,24.97,9.0,39.9,Aug-23,5217441,2019-08-31 11:17:17:520,0.0543,0.359,10.023,0.0066,0.0427,9.8066,-0.015,0.0623,-0.0059,12.96,-16.29,-21.6,50.9,-2.75,3.25
52175,52.344017,-1.546567,120,24.97,9.0,39.9,Aug-23,5217540,2019-08-31 11:17:17:619,-0.2084,-0.1188,9.6387,-0.0037,-0.0203,9.8066,-0.0011,-0.0421,-0.0091,12.25,-16.52,-21.84,54.25,-2.96,3.08
