,GPS LATITUDE (degrees), GPS LONGITUDE (degrees), GPS ALTITUDE (m), GPS SPEED (Kmh), GPS ACCURACY (m), GPS ORIENTATION (Â°),GPS SATELLITES IN RANGE, TIME SINCE START (ms), DATE (YYYY-MO-DD HH-MI-SS_SSS), ACCELEROMETER X (m/s²) , ACCELEROMETER Y (m/s²), ACCELEROMETER Z (m/s²), GRAVITY X (m/s²), GRAVITY Y (m/s²), GRAVITY Z (m/s²), GYROSCOPE Yaw (rad/s), GYROSCOPE Pitch (rad/s), GYROSCOPE Roll (rad/s), MAGNETIC FIELD X (Î¼T), MAGNETIC FIELD Y (Î¼T), MAGNETIC FIELD Z (Î¼T), ORIENTATION (Yaw) (Â°), ORIENTATION (Pitch) (Â°), ORIENTATION (Roll ) (Â°)
95268,52.44751,-1.443643,161.35,13.85,4.0,234.57,21 / 21,5105476,2019-09-07 11:52:18:630,0.0063,0.0647,11.0032,0.0212,-0.0906,9.8061,0.2258,0.0128,0.063,-13.25,-28.19,25.19,11.82,-79.98,-142.91
95269,52.44751,-1.443643,161.35,13.85,4.0,234.57,21 / 21,5105575,2019-09-07 11:52:18:729,0.5798,-1.2659,10.4876,0.0086,-0.0592,9.8064,0.0423,-0.071,-0.0172,-13.12,-28.81,25.94,10.01,-78.65,-145.57
95270,52.44751,-1.443643,161.35,13.85,4.0,234.57,21 / 21,5105675,2019-09-07 11:52:18:829,-0.496,0.5023,8.5476,-0.0148,0.0442,9.8064,-0.103,0.0301,0.0203,-13.44,-28.44,26.06,11.4,-78.84,-144.36
95271,52.44751,-1.443643,161.35,13.85,4.0,234.57,21 / 21,5105775,2019-09-07 11:52:18:929,-1.2949,0.2205,9.3555,-0.0141,0.0378,9.8065,-0.0944,-0.0046,-0.0105,-13.0,-29.0,25.88,13.09,-79.23,-142.99
95272,52.44751,-1.443643,161.35,13.85,4.0,234.57,21 / 21,5105875,2019-09-07 11:52:19:029,-1.128,2.3173,8.5875,0.0159,-0.0151,9.8066,0.0119,-0.1122,-0.1015,-13.19,-29.12,25.25,11.83,-79.49,-143.1
95273,52.44751,-1.443643,161.35,13.85,4.0,234.57,21 / 21,5105975,2019-09-07 11:52:19:129,0.5178,-3.1062,13.5239,0.0345,-0.0135,9.8065,0.1117,0.0535,0.0203,-13.44,-29.44,26.0,9.73,-79.33,-145.66
95274,52.44751,-1.443643,161.35,13.85,4.0,234.57,21 / 21,5106075,2019-09-07 11:52:19:229,-1.9169,4.1187,7.5763,0.0072,-0.0209,9.8066,0.0465,0.1236,0.0602,-12.56,-28.87,25.69,7.36,-79.25,-147.57
95275,52.44751,-1.443643,161.35,13.85,4.0,234.57,21 / 21,5106175,2019-09-07 11:52:19:329,1.5392,-0.9053,13.8448,-0.0573,-0.0113,9.8064,-0.0362,-0.1812,-0.108,-12.81,-29.25,25.88,7.49,-79.06,-147.5
95276,52.44751,-1.443643,161.35,13.85,4.0,234.57,21 / 21,5106276,2019-09-07 11:52:19:430,0.4434,-0.5397,6.7921,-0.0074,0.0102,9.8065,-0.0761,-0.1418,-0.0779,-12.69,-28.75,25.44,4.45,-79.26,-149.01
95277,52.44751,-1.443643,161.35,13.85,4.0,234.57,21 / 21,5106376,2019-09-07 11:52:19:530,-3.134,4.1284,11.4986,-0.0347,-0.001,9.8065,-0.0266,-0.028,0.0282,-13.12,-29.5,25.25,6.4,-79.41,-147.44
95278,52.44751,-1.443643,161.35,13.85,4.0,234.57,21 / 21,5106475,2019-09-07 11:52:19:629,1.9584,-2.6717,9.6983,0.0431,0.0047,9.8065,0.1453,0.1886,0.1457,-12.94,-29.25,25.06,4.95,-79.27,-148.61
95279,52.44751,-1.443643,161.35,13.85,4.0,234.57,21 / 21,5106575,2019-09-07 11:52:19:729,-2.5212,4.163,8.7736,0.0062,-0.0207,9.8065,-0.0103,-0.0474,0.025,-12.87,-28.87,25.81,3.97,-78.95,-150.3
95280,52.44751,-1.443643,161.35,13.85,4.0,234.57,21 / 21,5106675,2019-09-07 11:52:19:829,1.9917,-2.7997,10.519,0.0445,-0.0057,9.8065,0.0362,0.0396,-0.0673,-12.44,-28.94,26.06,4.45,-78.86,-151.73
95281,52.44751,-1.443643,161.35,13.85,4.0,234.57,21 / 21,5106775,2019-09-07 11:52:19:929,-0.9884,1.0744,6.6481,0.0072,0.0366,9.8066,-0.0994,0.0382,-0.0094,-12.62,-29.19,25.19,0.13,-79.15,-152.43
95282,52.44751,-1.443643,161.35,13.85,4.0,234.57,21 / 21,5106875,2019-09-07 11:52:20:029,0.3937,0.1687,12.0336,-0.0105,0.015,9.8065,0.0504,0.1432,0.1558,-12.69,-29.06,25.31,1.65,-79.43,-151.22
95283,52.44751,-1.443643,161.35,13.85,4.0,234.57,21 / 21,5106975,2019-09-07 11:52:20:129,0.1667,-0.4094,9.2979,-0.0079,0.0007,9.8066,0.0583,0.1745,0.2395,-12.69,-28.94,24.5,3.03,-79.45,-150.12
95284,52.44751,-1.443643,161.35,13.85,4.0,234.57,21 / 21,5107075,2019-09-07 11:52:20:229,1.1126,2.0732,9.2385,-0.0121,-0.0264,9.8065,0.0841,0.025,0.0257,-13.12,-29.31,24.63,4.14,-79.15,-149.26
95285,52.44751,-1.443643,161.35,13.85,4.0,234.57,21 / 21,5107175,2019-09-07 11:52:20:329,-0.5666,-0.0391,11.8821,-0.0517,-0.0127,9.8064,-0.022,0.0074,0.0136,-13.06,-29.25,25.06,6.25,-78.81,-147.64
95286,52.44751,-1.443643,161.35,13.85,4.0,234.57,21 / 21,5107276,2019-09-07 11:52:20:430,-0.4179,0.5607,10.1787,-0.0104,0.0013,9.8066,-0.0028,0.0126,0.013,-12.69,-30.06,25.25,7.49,-78.79,-146.72
95287,52.44751,-1.443643,161.35,13.85,4.0,234.57,21 / 21,5107375,2019-09-07 11:52:20:529,0.3158,0.2859,9.9774,0.0084,0.0087,9.8066,-0.0137,-0.0056,-0.0325,-13.0,-29.25,25.13,7.41,-78.88,-146.72
95288,52.44751,-1.443643,161.35,13.85,4.0,234.57,21 / 21,5107476,2019-09-07 11:52:20:630,0.042,0.3852,10.0226,0.0037,0.0015,9.8066,0.0109,0.0185,0.0058,-12.94,-29.44,25.06,7.39,-78.88,-146.73
95289,52.44751,-1.443643,161.35,13.85,4.0,234.57,21 / 21,5107576,2019-09-07 11:52:20:730,-0.1591,0.0999,9.8992,-0.0005,0.0091,9.8066,-0.0092,-0.0024,-0.0224,-12.5,-29.37,25.06,9.69,-78.95,-146.78
95290,52.44751,-1.443643,161.35,13.85,4.0,234.57,21 / 21,5107676,2019-09-07 11:52:20:830,-0.1639,-0.0123,9.4916,-0.0001,0.0014,9.8066,-0.0092,-0.0242,-0.018,-12.5,-28.87,25.19,9.41,-79.05,-146.98
95291,52.44751,-1.443643,161.35,13.85,4.0,234.57,21 / 21,5107776,2019-09-07 11:52:20:930,-0.1542,0.5349,9.9329,-0.0008,-0.0014,9.8066,-0.0053,0.0185,-0.0097,-12.25,-29.19,24.88,9.47,-79.02,-146.94
95292,52.44751,-1.443643,161.35,13.85,4.0,234.57,21 / 21,5107876,2019-09-07 11:52:21:030,-0.3671,0.401,10.2681,0.0046,0.0028,9.8066,0.0027,0.0046,-0.0104,-12.62,-29.12,25.19,7.12,-79.04,-146.93
95293,52.44751,-1.443643,161.35,13.85,4.0,234.57,21 / 21,5107975,2019-09-07 11:52:21:129,0.215,-0.1277,10.7155,-0.0006,0.0015,9.8066,0.0147,0.0427,0.0056,-12.87,-29.56,24.75,6.97,-79.06,-147.09
95294,52.44751,-1.443643,161.35,13.85,4.0,234.57,21 / 21,5108075,2019-09-07 11:52:21:229,0.4706,0.2534,9.7527,0.0056,-0.004,9.8066,0.0106,-0.013,-0.0131,-12.12,-29.5,25.25,9.04,-79.05,-147.27
95295,52.44751,-1.443643,161.35,13.85,4.0,234.57,21 / 21,5108176,2019-09-07 11:52:21:330,0.0989,0.0496,10.2139,-0.0037,-0.0001,9.8066,-0.0161,0.0149,0.0049,-12.44,-28.62,24.75,8.79,-79.01,-147.47
95296,52.44751,-1.443643,161.35,13.85,4.0,234.57,21 / 21,5108275,2019-09-07 11:52:21:429,0.0992,0.8563,10.3632,0.0012,0.0092,9.8066,0.0063,0.0419,0.0149,-13.06,-28.87,25.31,6.93,-79.14,-147.06
95297,52.44751,-1.443643,161.35,13.85,4.0,234.57,21 / 21,5108375,2019-09-07 11:52:21:529,0.2967,0.4754,9.5513,0.003,0.0006,9.8066,0.0121,0.0177,-0.0085,-12.69,-28.75,25.06,6.68,-79.17,-147.25
95298,52.44751,-1.443643,161.35,13.85,4.0,234.57,21 / 21,5108476,2019-09-07 11:52:21:630,1.0932,-0.2594,9.9826,-0.0024,0.0032,9.8066,-0.024,-0.0331,-0.0309,-12.62,-28.94,25.31,6.56,-79.17,-147.35
95299,52.44751,-1.443643,161.35,13.85,4.0,234.57,21 / 21,5108576,2019-09-07 11:52:21:730,0.0309,0.9482,9.3069,-0.0024,0.0025,9.8066,0.0056,0.046,0.015,-12.44,-29.62,25.0,9.45,-79.22,-146.97
95300,52.44751,-1.443643,161.35,13.85,4.0,234.57,21 / 21,5108675,2019-09-07 11:52:21:829,0.0485,0.5788,9.941,-0.0016,-0.0022,9.8066,0.0203,0.0754,0.0498,-13.12,-28.94,25.56,8.37,-79.26,-146.76
95301,52.44751,-1.443643,161.35,13.85,4.0,234.57,21 / 21,5108776,2019-09-07 11:52:21:930,0.1077,-0.1868,9.915,-0.0046,-0.0034,9.8066,-0.0138,-0.0172,-0.0284,-12.87,-29.62,25.44,8.03,-79.19,-146.24
95302,52.44751,-1.443643,161.35,13.85,4.0,234.57,21 / 21,5108876,2019-09-07 11:52:22:030,0.3054,0.0498,10.1825,-0.0025,0.0051,9.8066,-0.0048,0.0065,-0.0068,-12.81,-29.06,25.13,8.33,-79.21,-145.94
95303,52.44751,-1.443643,161.35,13.85,4.0,234.57,21 / 21,5108976,2019-09-07 11:52:22:130,0.2039,0.5875,8.5633,-0.001,0.0071,9.8066,-0.0267,0.0245,0.0195,-13.25,-29.25,25.44,8.4,-79.28,-145.87
95304,52.44751,-1.443643,161.35,13.85,4.0,234.57,21 / 21,5109075,2019-09-07 11:52:22:229,0.2145,0.2698,8.6072,-0.0041,0.0028,9.8066,-0.0036,0.0405,0.0067,-13.12,-29.06,26.13,10.04,-79.32,-145.41
95305,52.44751,-1.443643,161.35,13.85,4.0,234.57,21 / 21,5109176,2019-09-07 11:52:22:330,0.6331,0.0261,10.1042,-0.0068,-0.0083,9.8066,-0.0097,-0.0503,-0.0427,-13.81,-29.56,25.38,7.18,-79.32,-145.08
95306,52.44751,-1.443643,161.35,13.85,4.0,234.57,21 / 21,5109277,2019-09-07 11:52:22:431,-0.2428,0.2632,10.4781,-0.0018,-0.0005,9.8066,0.0212,0.0428,0.0123,-13.5,-29.06,25.81,10.85,-79.28,-144.77
95307,52.44751,-1.443643,161.35,13.85,4.0,234.57,21 / 21,5109375,2019-09-07 11:52:22:529,0.3291,0.0559,9.6563,-0.0091,-0.0068,9.8065,-0.0051,-0.0085,0.0039,-13.19,-29.5,25.81,10.83,-79.26,-144.79
95308,52.44751,-1.443643,161.35,13.85,4.0,234.57,21 / 21,5109476,2019-09-07 11:52:22:630,0.3013,0.4733,10.7471,-0.0005,0.0041,9.8066,-0.0272,-0.036,-0.0316,-13.12,-28.94,25.69,11.38,-79.23,-144.36
95309,52.44751,-1.443643,161.35,13.85,4.0,234.57,21 / 21,5109575,2019-09-07 11:52:22:729,0.7819,-0.0002,9.1054,0.0022,-0.0007,9.8066,0.0148,0.0225,0.0016,-13.31,-28.75,25.88,11.35,-79.26,-144.38
95310,52.44751,-1.443643,161.35,13.85,4.0,234.57,21 / 21,5109676,2019-09-07 11:52:22:830,-0.0045,-0.0882,9.3478,-0.0087,0.0002,9.8066,-0.0263,-0.0099,-0.01,-13.44,-28.75,25.31,10.82,-79.24,-143.96
95311,52.44751,-1.443643,161.35,13.85,4.0,234.57,21 / 21,5109776,2019-09-07 11:52:22:930,0.6369,0.3691,9.476,-0.0033,-0.0018,9.8066,0.004,0.0133,0.0103,-13.5,-29.37,25.75,12.02,-79.32,-143.83
95312,52.44751,-1.443643,161.35,13.85,4.0,234.57,21 / 21,5109876,2019-09-07 11:52:23:030,-0.584,1.1416,10.4415,-0.0119,-0.009,9.8066,-0.008,-0.0078,0.0108,-13.31,-28.62,25.25,11.63,-79.2,-143.32
95313,52.44751,-1.443643,161.35,13.85,4.0,234.57,21 / 21,5109976,2019-09-07 11:52:23:130,1.1264,0.5123,9.0196,-0.0065,0.007,9.8066,-0.0396,-0.0062,-0.018,-13.56,-29.19,25.38,9.75,-79.21,-143.01
95314,52.44751,-1.443643,161.35,13.85,4.0,234.57,21 / 21,5110076,2019-09-07 11:52:23:230,-1.0407,-0.8393,11.5407,-0.0174,0.0084,9.8066,-0.0103,-0.0329,-0.0437,-14.31,-28.94,25.13,11.75,-79.24,-141.41
95315,52.44751,-1.443643,161.35,13.85,4.0,234.57,21 / 21,5110176,2019-09-07 11:52:23:330,0.1193,1.1641,10.4616,0.0118,-0.019,9.8066,0.021,-0.0824,-0.0909,-14.31,-28.75,25.69,11.72,-79.18,-142.33
95316,52.44751,-1.443643,161.35,13.85,4.0,234.57,21 / 21,5110275,2019-09-07 11:52:23:429,0.6021,0.2262,10.8411,0.0041,0.0017,9.8065,-0.0016,0.0586,0.0136,-14.0,-28.69,25.75,10.81,-79.17,-143.06
95317,52.44751,-1.443643,161.35,13.85,4.0,234.57,21 / 21,5110376,2019-09-07 11:52:23:530,0.4486,0.8847,9.8066,-0.0022,0.0179,9.8065,-0.0435,0.0414,-0.0123,-13.75,-29.37,25.38,9.73,-79.36,-142.99
95318,52.44751,-1.443643,161.35,13.85,4.0,234.57,21 / 21,5110475,2019-09-07 11:52:23:629,-0.1347,1.0113,9.7288,-0.0067,0.0123,9.8066,-0.0334,0.0128,-0.0127,-13.12,-29.12,25.31,12.5,-79.62,-142.53
95319,52.44751,-1.443643,161.35,13.85,4.0,234.57,21 / 21,5110575,2019-09-07 11:52:23:729,0.1899,0.631,9.2489,-0.0041,0.0028,9.8066,-0.0187,0.0147,0.0018,-13.56,-29.81,25.31,11.12,-79.74,-141.86
95320,52.44751,-1.443643,161.35,13.85,4.0,234.57,21 / 21,5110676,2019-09-07 11:52:23:830,-0.4938,-0.0598,10.3172,-0.0112,0.0045,9.8066,-0.0399,-0.0228,-0.0064,-13.44,-28.94,25.13,14.45,-79.75,-140.92
95321,52.44751,-1.443643,161.35,13.85,4.0,234.57,21 / 21,5110775,2019-09-07 11:52:23:929,-0.067,0.5516,10.7106,-0.0026,0.0009,9.8066,0.0049,0.0453,0.0271,-13.44,-29.37,25.5,16.04,-79.76,-140.45
95322,52.44751,-1.443643,161.35,13.85,4.0,234.57,21 / 21,5110876,2019-09-07 11:52:24:030,-0.1849,0.442,11.5078,-0.0008,-0.0068,9.8065,-0.0026,-0.0333,-0.0184,-13.69,-29.06,25.38,13.25,-79.72,-140.08
95323,52.44751,-1.443643,161.35,13.85,4.0,234.57,21 / 21,5110976,2019-09-07 11:52:24:130,0.1639,-0.1893,9.7646,0.0038,0.0019,9.8065,0.0024,0.007,-0.0177,-13.56,-29.87,25.63,14.15,-79.7,-140.32
95324,52.44751,-1.443643,161.35,13.85,4.0,234.57,21 / 21,5111075,2019-09-07 11:52:24:229,0.0572,-0.1941,10.5927,0.0068,-0.0023,9.8066,0.0224,0.0136,0.0009,-13.06,-29.12,24.81,14.7,-79.67,-140.74
95325,52.44751,-1.443643,161.35,13.85,4.0,234.57,21 / 21,5111175,2019-09-07 11:52:24:329,-0.4668,0.7084,11.4457,0.0046,0.0045,9.8066,-0.0128,0.0123,-0.0038,-14.06,-29.81,25.56,12.93,-79.68,-141.31
95326,52.44751,-1.443643,161.35,13.85,4.0,234.57,21 / 21,5111275,2019-09-07 11:52:24:429,-1.052,0.3523,9.3973,-0.0275,-0.0011,9.8066,-0.062,-0.05,0.0029,-13.19,-29.62,25.75,16.68,-79.67,-140.06
95327,52.44751,-1.443643,161.35,13.85,4.0,234.57,21 / 21,5111376,2019-09-07 11:52:24:530,-0.7075,0.8564,9.0169,-0.0058,0.007,9.8065,-0.0271,-0.0546,-0.0258,-13.87,-30.06,24.5,14.62,-79.69,-139.07
95328,52.44751,-1.443643,161.35,13.85,4.0,234.57,21 / 21,5111475,2019-09-07 11:52:24:629,-0.6277,-0.4231,11.3797,0.0021,-0.0085,9.8066,0.0211,-0.0176,-0.0099,-13.94,-29.87,25.0,14.76,-79.68,-138.96
95329,52.44751,-1.443643,161.35,13.85,4.0,234.57,21 / 21,5111575,2019-09-07 11:52:24:729,-0.7312,0.1413,10.7384,0.0033,-0.0015,9.8066,-0.0012,-0.0316,-0.0335,-13.5,-29.62,25.25,16.53,-79.61,-139.39
95330,52.44751,-1.443643,161.35,13.85,4.0,234.57,21 / 21,5111675,2019-09-07 11:52:24:829,-0.6213,0.6445,11.1979,0.0296,0.0105,9.8066,0.0457,0.0321,-0.0565,-13.5,-30.5,25.31,14.33,-79.79,-141.09
95331,52.44751,-1.443643,161.35,13.85,4.0,234.57,21 / 21,5111775,2019-09-07 11:52:24:929,0.1674,0.4791,8.2824,0.0304,0.003,9.8065,0.0183,0.0196,-0.0668,-12.94,-29.31,25.5,12.79,-79.88,-143.06
95332,52.44751,-1.443643,161.35,13.85,4.0,234.57,21 / 21,5111875,2019-09-07 11:52:25:029,0.1911,0.823,8.6305,0.0141,0.0178,9.8066,-0.0374,0.0193,-0.0681,-13.5,-29.69,25.06,10.22,-80.01,-144.34
95333,52.44751,-1.443643,161.35,13.85,4.0,234.57,21 / 21,5111975,2019-09-07 11:52:25:129,0.2288,0.9785,9.4373,0.009,0.0176,9.8065,-0.0062,0.0262,-0.0262,-12.62,-29.75,25.0,9.05,-80.37,-145.21
95334,52.44751,-1.443643,161.35,13.85,4.0,234.57,21 / 21,5112075,2019-09-07 11:52:25:229,0.3447,0.256,9.5793,0.0119,-0.0081,9.8065,0.0125,-0.0667,-0.0994,-12.37,-29.0,25.5,11.71,-80.44,-145.63
95335,52.44751,-1.443643,161.35,13.85,4.0,234.57,21 / 21,5112175,2019-09-07 11:52:25:329,-0.5142,0.177,9.1755,0.0252,-0.0023,9.8066,0.0266,0.0308,-0.0336,-12.44,-29.75,25.25,8.03,-80.43,-147.88
95336,52.44751,-1.443643,161.35,13.85,4.0,234.57,21 / 21,5112277,2019-09-07 11:52:25:431,0.5786,0.7263,7.0799,0.0099,0.0173,9.8066,-0.0241,0.12,0.0211,-12.62,-29.5,25.69,5.25,-80.59,-149.11
95337,52.44751,-1.443643,161.35,13.85,4.0,234.57,21 / 21,5112375,2019-09-07 11:52:25:529,-3.0003,1.7239,10.8167,-0.023,0.0311,9.8065,-0.0996,-0.1159,-0.1471,-12.37,-29.5,25.5,9.17,-80.89,-147.64
95338,52.44751,-1.443643,161.35,13.85,4.0,234.57,21 / 21,5112476,2019-09-07 11:52:25:630,1.6866,2.0667,11.1304,0.0316,-0.0451,9.8064,0.2102,0.1409,0.0911,-12.37,-29.31,25.5,5.73,-80.71,-150.51
95339,52.44751,-1.443643,161.35,13.85,4.0,234.57,21 / 21,5112575,2019-09-07 11:52:25:729,1.1278,0.1335,9.7742,-0.0005,-0.044,9.8065,0.0948,0.0929,0.0171,-13.0,-28.62,25.81,2.28,-80.15,-151.58
95340,52.44751,-1.443643,161.35,13.85,4.0,234.57,21 / 21,5112675,2019-09-07 11:52:25:829,0.5346,0.2916,10.2727,-0.0158,0.0095,9.8065,-0.0343,0.0132,-0.0351,-12.94,-28.62,25.56,2.12,-80.04,-151.71
95341,52.44751,-1.443643,161.35,13.85,4.0,234.57,21 / 21,5112775,2019-09-07 11:52:25:929,-0.0413,0.8596,9.366,-0.0099,0.0123,9.8066,-0.0084,0.1123,0.0679,-13.0,-29.37,25.56,3.62,-80.21,-150.48
95342,52.44751,-1.443643,161.35,13.85,4.0,234.57,21 / 21,5112875,2019-09-07 11:52:26:029,0.3523,1.152,9.8774,-0.0054,-0.0039,9.8066,0.0151,0.0731,0.0333,-13.12,-29.37,25.31,3.87,-80.18,-149.39
95343,52.44751,-1.443643,161.35,13.85,4.0,234.57,21 / 21,5112975,2019-09-07 11:52:26:129,0.0969,0.8116,10.0325,-0.0087,-0.0148,9.8066,0.0208,0.0319,0.0046,-13.0,-28.69,25.81,5.83,-80.0,-148.7
95344,52.44751,-1.443643,161.35,13.85,4.0,234.57,21 / 21,5113075,2019-09-07 11:52:26:229,0.897,0.4884,9.6416,0.0058,-0.0045,9.8066,0.0345,0.0783,0.0054,-13.62,-28.81,26.0,3.56,-79.8,-148.82
95345,52.44751,-1.443643,161.35,13.85,4.0,234.57,21 / 21,5113175,2019-09-07 11:52:26:329,0.0258,0.63,9.988,0.0038,0.0001,9.8066,0.0021,0.0343,-0.0328,-12.69,-29.06,26.38,5.42,-79.76,-149.06
95346,52.44751,-1.443643,161.35,13.85,4.0,234.57,21 / 21,5113275,2019-09-07 11:52:26:429,0.3947,1.5225,9.8722,0.0099,0.0,9.8066,0.0178,0.0559,-0.012,-13.25,-29.06,26.44,4.45,-79.8,-149.84
95347,52.44751,-1.443643,161.35,13.85,4.0,234.57,21 / 21,5113376,2019-09-07 11:52:26:530,0.4766,0.234,9.8435,0.0034,-0.0027,9.8066,0.0027,0.0438,-0.023,-13.37,-28.69,26.88,4.63,-79.78,-150.53
95348,52.44751,-1.443643,161.35,13.85,4.0,234.57,21 / 21,5113475,2019-09-07 11:52:26:629,0.0011,0.357,9.8057,-0.0013,0.0071,9.8066,-0.0191,0.0034,-0.0227,-13.12,-28.69,26.5,4.25,-79.79,-150.83
95349,52.44751,-1.443643,161.35,13.85,4.0,234.57,21 / 21,5113575,2019-09-07 11:52:26:729,-0.5035,0.2734,10.7887,-0.0003,0.0043,9.8066,-0.0044,0.008,-0.0224,-13.19,-28.37,26.81,4.21,-79.9,-150.84
95350,52.44751,-1.443643,161.35,13.85,4.0,234.57,21 / 21,5113676,2019-09-07 11:52:26:830,0.3002,0.8179,8.9135,0.0091,0.0028,9.8065,0.0248,0.0759,0.0276,-13.44,-28.56,26.94,3.55,-80.01,-151.39
95351,52.44751,-1.443643,161.35,13.85,4.0,234.57,21 / 21,5113775,2019-09-07 11:52:26:929,-0.1484,0.7613,10.9033,0.0056,-0.0012,9.8066,0.0257,0.0163,-0.0219,-13.37,-28.56,27.19,3.49,-79.98,-151.44
95352,52.44751,-1.443643,161.35,13.85,4.0,234.57,21 / 21,5113875,2019-09-07 11:52:27:029,0.0918,0.6049,10.0593,0.0123,0.0003,9.8066,0.0168,0.0216,-0.0113,-14.06,-28.37,26.75,0.08,-79.97,-152.53
95353,52.44751,-1.443643,161.35,13.85,4.0,234.57,21 / 21,5113975,2019-09-07 11:52:27:129,-0.0827,0.4944,10.1073,0.0022,0.0046,9.8066,-0.0079,0.0212,-0.0057,-13.12,-29.06,26.88,1.47,-79.99,-153.09
95354,52.44751,-1.443643,161.35,13.85,4.0,234.57,21 / 21,5114075,2019-09-07 11:52:27:229,-0.1008,0.158,8.3491,0.0008,0.0092,9.8066,-0.006,0.0287,-0.0042,-12.81,-27.94,26.94,1.17,-80.14,-153.32
95355,52.44751,-1.443643,161.35,13.85,4.0,234.57,21 / 21,5114175,2019-09-07 11:52:27:329,-0.2625,0.0633,9.4826,0.0029,0.0066,9.8066,-0.0269,-0.0236,-0.0486,-12.62,-28.94,26.94,1.06,-80.26,-153.42
95356,52.44751,-1.443643,161.35,13.85,4.0,234.57,21 / 21,5114275,2019-09-07 11:52:27:429,0.6814,-0.0267,8.8673,-0.0042,-0.0003,9.8066,-0.0201,-0.0246,-0.0164,-13.31,-28.87,26.75,0.61,-80.33,-153.79
95357,52.44684,-1.445121,160.79,13.41,4.0,229.95,21 / 21,5114376,2019-09-07 11:52:27:530,-0.0084,0.1883,8.968,-0.0083,0.0157,9.8066,-0.0139,0.0289,0.0264,-12.87,-28.75,26.81,0.51,-80.38,-153.87
95358,52.44684,-1.445121,160.79,13.41,4.0,229.95,21 / 21,5114475,2019-09-07 11:52:27:629,0.0985,0.712,10.2235,-0.0101,0.005,9.8066,-0.0185,-0.0244,0.0006,-13.19,-28.81,27.06,1.73,-80.52,-152.86
95359,52.44684,-1.445121,160.79,13.41,4.0,229.95,21 / 21,5114575,2019-09-07 11:52:27:729,0.147,0.555,9.3147,-0.0073,-0.0033,9.8066,0.0185,0.0082,0.0315,-13.25,-29.12,26.44,1.83,-80.49,-151.93
95360,52.44684,-1.445121,160.79,13.41,4.0,229.95,21 / 21,5114675,2019-09-07 11:52:27:829,-0.1312,0.1146,9.2866,-0.011,-0.0072,9.8066,-0.0216,-0.0314,-0.0053,-12.94,-28.69,26.31,2.43,-80.4,-151.44
95361,52.44684,-1.445121,160.79,13.41,4.0,229.95,21 / 21,5114775,2019-09-07 11:52:27:929,0.5053,0.0082,9.4959,-0.0128,-0.0046,9.8066,-0.0197,-0.0243,-0.0074,-13.44,-28.37,26.81,3.97,-80.4,-150.99
95362,52.44684,-1.445121,160.79,13.41,4.0,229.95,21 / 21,5114875,2019-09-07 11:52:28:029,-0.3619,0.194,10.348,0.0009,-0.001,9.8066,0.0093,0.0047,-0.0042,-13.06,-28.37,26.94,4.66,-80.36,-150.42
95363,52.44684,-1.445121,160.79,13.41,4.0,229.95,21 / 21,5114975,2019-09-07 11:52:28:129,-0.2038,-0.0626,9.7795,0.0092,-0.0016,9.8066,0.0124,0.0139,0.0098,-13.62,-28.25,26.56,2.27,-80.32,-150.71
95364,52.44684,-1.445121,160.79,13.41,4.0,229.95,21 / 21,5115075,2019-09-07 11:52:28:229,-0.4251,0.0713,9.8251,0.0005,-0.002,9.8066,-0.0022,-0.0148,-0.0108,-13.37,-29.06,26.69,3.91,-80.27,-151.07
95365,52.44684,-1.445121,160.79,13.41,4.0,229.95,21 / 21,5115179,2019-09-07 11:52:28:333,0.476,0.024,9.2502,0.0059,-0.0045,9.8066,0.009,0.016,0.0077,-13.5,-28.81,26.88,3.45,-80.24,-151.45
95366,52.44684,-1.445121,160.79,13.41,4.0,229.95,21 / 21,5115275,2019-09-07 11:52:28:429,0.264,0.0433,8.4234,0.005,0.0024,9.8066,-0.003,-0.0114,-0.0311,-13.37,-28.62,27.19,2.88,-80.21,-151.93
95367,52.44684,-1.445121,160.79,13.41,4.0,229.95,21 / 21,5115376,2019-09-07 11:52:28:530,-0.4806,0.6502,10.534,0.0042,0.0121,9.8066,-0.0337,-0.0014,-0.0393,-13.19,-28.75,26.31,1.4,-80.34,-152.29
95368,52.44684,-1.445121,160.79,13.41,4.0,229.95,21 / 21,5115475,2019-09-07 11:52:28:629,-0.9502,1.3256,10.7611,0.0013,0.0065,9.8066,-0.0004,0.0309,0.0134,-12.94,-29.12,26.75,1.9,-80.5,-152.72
95369,52.44684,-1.445121,160.79,13.41,4.0,229.95,21 / 21,5115575,2019-09-07 11:52:28:729,-0.151,0.822,9.2942,0.0,-0.0014,9.8066,0.0251,0.0061,0.0117,-13.25,-28.44,27.19,1.57,-80.56,-152.98
95370,52.44684,-1.445121,160.79,13.41,4.0,229.95,21 / 21,5115676,2019-09-07 11:52:28:830,0.2768,0.3634,10.2605,-0.0018,-0.0143,9.8065,0.0244,-0.0269,0.01,-13.19,-28.37,27.25,1.38,-80.44,-153.14
95371,52.44684,-1.445121,160.79,13.41,4.0,229.95,21 / 21,5115776,2019-09-07 11:52:28:930,0.17,-0.1266,9.048,-0.0089,-0.0088,9.8066,-0.0117,0.0167,0.0265,-13.75,-28.69,26.44,359.01,-80.21,-152.51
95372,52.44684,-1.445121,160.79,13.41,4.0,229.95,21 / 21,5115875,2019-09-07 11:52:29:029,-0.1224,-0.49,9.0732,-0.0119,0.0085,9.8066,-0.0323,-0.0035,0.0112,-13.19,-28.81,26.19,2.8,-80.31,-151.14
95373,52.44684,-1.445121,160.79,13.41,4.0,229.95,21 / 21,5115976,2019-09-07 11:52:29:130,-0.1834,0.0295,9.4886,-0.0049,0.0061,9.8066,-0.0071,0.0234,0.0148,-13.25,-29.0,26.56,4.42,-80.41,-150.64
95374,52.44684,-1.445121,160.79,13.41,4.0,229.95,21 / 21,5116075,2019-09-07 11:52:29:229,-0.0416,0.3363,9.1811,-0.0033,0.0072,9.8066,-0.0182,0.0209,0.0048,-13.44,-28.94,26.81,4.48,-80.48,-150.59
95375,52.44684,-1.445121,160.79,13.41,4.0,229.95,21 / 21,5116175,2019-09-07 11:52:29:329,-0.1754,0.1724,10.4987,-0.001,0.0023,9.8066,-0.0015,0.0008,-0.0035,-13.62,-29.31,26.19,1.68,-80.55,-150.32
95376,52.44684,-1.445121,160.79,13.41,4.0,229.95,21 / 21,5116275,2019-09-07 11:52:29:429,-0.285,0.4142,9.5654,-0.0068,-0.0068,9.8065,0.0029,-0.0013,0.0108,-13.69,-28.87,26.63,3.03,-80.52,-150.08
95377,52.44684,-1.445121,160.79,13.41,4.0,229.95,21 / 21,5116376,2019-09-07 11:52:29:530,-0.2215,-0.2723,9.6241,-0.0022,0.0044,9.8066,-0.0101,0.0191,-0.003,-13.62,-28.87,26.31,2.56,-80.5,-149.59
95378,52.44684,-1.445121,160.79,13.41,4.0,229.95,21 / 21,5116475,2019-09-07 11:52:29:629,0.0825,0.3075,8.668,0.0016,0.0076,9.8065,-0.0107,-0.005,-0.021,-13.31,-28.81,26.06,4.95,-80.6,-149.35
95379,52.44684,-1.445121,160.79,13.41,4.0,229.95,21 / 21,5116575,2019-09-07 11:52:29:729,-0.7813,0.4897,10.1843,-0.002,0.0037,9.8066,0.0073,0.0277,0.0085,-13.44,-29.19,26.5,6.07,-80.68,-149.25
95380,52.44684,-1.445121,160.79,13.41,4.0,229.95,21 / 21,5116675,2019-09-07 11:52:29:829,-0.2476,-0.0273,9.0746,-0.0048,0.0007,9.8066,-0.0088,0.012,-0.0007,-13.25,-29.06,26.13,4.83,-80.7,-149.44
95381,52.44684,-1.445121,160.79,13.41,4.0,229.95,21 / 21,5116775,2019-09-07 11:52:29:929,0.3034,-0.0967,9.9753,-0.0016,0.0059,9.8066,-0.0112,-0.0144,-0.0002,-13.62,-29.12,25.94,3.21,-80.76,-149.03
95382,52.44684,-1.445121,160.79,13.41,4.0,229.95,21 / 21,5116876,2019-09-07 11:52:30:030,0.2561,0.5834,10.7351,-0.0092,-0.008,9.8066,0.0215,0.0444,0.0563,-13.19,-28.87,26.31,5.81,-80.75,-148.63
95383,52.44684,-1.445121,160.79,13.41,4.0,229.95,21 / 21,5116975,2019-09-07 11:52:30:129,0.4288,-0.0597,9.9233,-0.0014,-0.004,9.8066,0.0129,0.048,0.0286,-13.5,-29.06,26.38,6.0,-80.69,-148.48
95384,52.44684,-1.445121,160.79,13.41,4.0,229.95,21 / 21,5117075,2019-09-07 11:52:30:229,-0.6285,0.209,8.1249,0.0027,0.0102,9.8066,-0.036,-0.0497,-0.0282,-13.56,-29.31,26.19,4.12,-80.72,-148.28
95385,52.44684,-1.445121,160.79,13.41,4.0,229.95,21 / 21,5117176,2019-09-07 11:52:30:330,-0.2681,0.1021,10.2419,-0.0065,0.0109,9.8065,-0.0127,0.014,0.017,-13.37,-29.75,26.13,6.68,-80.77,-147.94
95386,52.44684,-1.445121,160.79,13.41,4.0,229.95,21 / 21,5117275,2019-09-07 11:52:30:429,0.2612,0.1655,9.1331,0.0049,0.0025,9.8065,0.0068,0.0157,0.0055,-13.69,-28.94,26.38,4.96,-80.81,-147.58
95387,52.44684,-1.445121,160.79,13.41,4.0,229.95,21 / 21,5117375,2019-09-07 11:52:30:529,0.1102,0.1344,10.362,0.004,-0.0055,9.8066,0.0024,-0.0013,-0.0078,-13.69,-29.25,26.38,4.61,-80.8,-147.87
95388,52.44684,-1.445121,160.79,13.41,4.0,229.95,21 / 21,5117476,2019-09-07 11:52:30:630,-0.2804,0.2687,9.9477,-0.0018,-0.0024,9.8066,0.0019,0.0117,-0.0037,-13.5,-29.44,25.81,7.0,-80.77,-147.65
95389,52.44684,-1.445121,160.79,13.41,4.0,229.95,21 / 21,5117575,2019-09-07 11:52:30:729,-0.2196,-0.0677,9.1848,-0.0019,0.0005,9.8065,-0.0087,0.0005,-0.0044,-13.62,-28.94,25.94,5.07,-80.79,-147.49
95390,52.44684,-1.445121,160.79,13.41,4.0,229.95,21 / 21,5117675,2019-09-07 11:52:30:829,-0.0525,-0.0587,9.3419,-0.0074,0.0032,9.8066,-0.0117,0.029,0.0106,-13.87,-28.69,25.56,5.89,-80.78,-146.81
95391,52.44684,-1.445121,160.79,13.41,4.0,229.95,21 / 21,5117775,2019-09-07 11:52:30:929,-0.1214,0.3064,9.9491,-0.0029,0.0071,9.8066,-0.0083,0.0092,-0.0059,-13.37,-28.94,25.75,8.55,-80.86,-146.34
95392,52.44684,-1.445121,160.79,13.41,4.0,229.95,21 / 21,5117875,2019-09-07 11:52:31:029,0.1654,-0.0261,9.5767,-0.004,0.0025,9.8066,-0.0141,0.0146,0.0055,-13.5,-29.19,25.56,8.55,-80.9,-146.34
95393,52.44684,-1.445121,160.79,13.41,4.0,229.95,21 / 21,5117975,2019-09-07 11:52:31:129,-0.3808,0.1164,9.736,-0.0051,0.0046,9.8066,-0.0072,0.0128,0.004,-13.87,-28.87,26.0,6.97,-80.95,-145.89
95394,52.44684,-1.445121,160.79,13.41,4.0,229.95,21 / 21,5118076,2019-09-07 11:52:31:230,0.5056,-0.3921,9.8505,0.0023,-0.0024,9.8065,0.0046,0.0075,-0.0003,-13.5,-28.94,25.69,9.2,-80.97,-145.78
95395,52.44684,-1.445121,160.79,13.41,4.0,229.95,21 / 21,5118175,2019-09-07 11:52:31:329,0.6457,0.1331,9.293,0.0005,-0.0004,9.8066,0.0022,0.0439,0.0208,-13.31,-28.81,26.06,8.93,-80.93,-146.02
95396,52.44684,-1.445121,160.79,13.41,4.0,229.95,21 / 21,5118275,2019-09-07 11:52:31:429,-0.1156,0.3738,10.2764,0.0009,-0.0005,9.8066,-0.0013,0.0086,-0.0039,-13.12,-29.06,26.25,9.33,-80.93,-145.68
95397,52.44684,-1.445121,160.79,13.41,4.0,229.95,21 / 21,5118376,2019-09-07 11:52:31:530,-0.1224,-0.4623,8.5338,-0.0005,-0.0071,9.8066,-0.0014,-0.0021,-0.019,-13.25,-28.94,25.5,9.13,-80.89,-145.86
95398,52.44684,-1.445121,160.79,13.41,4.0,229.95,21 / 21,5118476,2019-09-07 11:52:31:630,-0.2863,0.3062,11.1916,0.0024,0.0072,9.8066,-0.0352,-0.0699,-0.0519,-13.25,-29.56,26.0,8.71,-80.91,-146.25
95399,52.44684,-1.445121,160.79,13.41,4.0,229.95,21 / 21,5118575,2019-09-07 11:52:31:729,-0.2405,0.3459,9.4059,0.0049,0.0028,9.8066,0.0038,0.0153,-0.0225,-13.75,-28.87,26.38,6.17,-80.99,-146.55
95400,52.44684,-1.445121,160.79,13.41,4.0,229.95,21 / 21,5118676,2019-09-07 11:52:31:830,0.2726,0.0618,10.3022,0.0044,0.0036,9.8066,-0.0083,0.0092,-0.0266,-13.31,-29.0,26.44,7.4,-81.12,-147.26
95401,52.44684,-1.445121,160.79,13.41,4.0,229.95,21 / 21,5118775,2019-09-07 11:52:31:929,1.1358,-0.0926,8.7344,0.0119,-0.0003,9.8066,-0.0002,0.0125,0.0035,-13.12,-28.81,26.5,7.47,-81.14,-148.02
95402,52.44684,-1.445121,160.79,13.41,4.0,229.95,21 / 21,5118875,2019-09-07 11:52:32:029,-1.1707,-0.1656,10.8525,-0.0087,0.0011,9.8066,-0.0214,0.0001,-0.0142,-13.56,-29.44,26.13,4.48,-81.19,-147.94
95403,52.44684,-1.445121,160.79,13.41,4.0,229.95,21 / 21,5118975,2019-09-07 11:52:32:129,-0.0443,1.0442,9.455,0.0055,0.0003,9.8066,-0.0256,-0.0297,-0.0059,-13.44,-29.12,25.44,5.44,-81.24,-148.0
95404,52.44684,-1.445121,160.79,13.41,4.0,229.95,21 / 21,5119076,2019-09-07 11:52:32:230,-0.2794,0.4102,9.8977,0.0035,0.0142,9.8066,-0.0478,-0.0266,-0.0343,-13.62,-28.87,26.13,4.37,-81.34,-148.02
95405,52.44684,-1.445121,160.79,13.41,4.0,229.95,21 / 21,5119176,2019-09-07 11:52:32:330,-0.1992,0.4402,9.7262,0.0017,0.0034,9.8066,0.0013,0.0063,0.0057,-13.5,-28.94,25.81,6.3,-81.48,-148.13
95406,52.44684,-1.445121,160.79,13.41,4.0,229.95,21 / 21,5119275,2019-09-07 11:52:32:429,-0.1088,0.0849,8.8474,0.0004,-0.0056,9.8066,0.0102,-0.0033,0.0121,-13.12,-29.31,25.81,5.96,-81.41,-148.43
95407,52.44684,-1.445121,160.79,13.41,4.0,229.95,21 / 21,5119375,2019-09-07 11:52:32:529,-0.0771,0.1499,9.9295,0.0029,-0.0022,9.8066,-0.0011,-0.0086,-0.0019,-13.62,-29.37,26.44,3.52,-81.36,-148.74
95408,52.44684,-1.445121,160.79,13.41,4.0,229.95,21 / 21,5119476,2019-09-07 11:52:32:630,-0.6142,0.4066,9.8723,0.0042,0.0084,9.8066,-0.0232,-0.019,-0.0189,-13.5,-29.44,26.44,5.37,-81.39,-148.93
95409,52.44684,-1.445121,160.79,13.41,4.0,229.95,21 / 21,5119575,2019-09-07 11:52:32:729,-0.2325,0.0765,8.9762,0.0036,0.009,9.8066,-0.0223,0.0145,-0.0216,-13.75,-29.06,25.81,3.0,-81.54,-149.16
95410,52.44684,-1.445121,160.79,13.41,4.0,229.95,21 / 21,5119675,2019-09-07 11:52:32:829,-0.1545,0.3379,10.5604,0.0023,0.0137,9.8066,-0.0243,0.0147,-0.0198,-13.19,-29.5,25.56,4.81,-81.75,-149.36
95411,52.44684,-1.445121,160.79,13.41,4.0,229.95,21 / 21,5119775,2019-09-07 11:52:32:929,0.1458,0.3893,9.6343,0.0077,0.0027,9.8066,0.001,-0.0279,-0.025,-13.19,-29.12,25.56,4.07,-81.83,-149.98
95412,52.44684,-1.445121,160.79,13.41,4.0,229.95,21 / 21,5119875,2019-09-07 11:52:33:029,0.3255,0.3896,9.015,-0.0095,-0.0098,9.8065,-0.0036,-0.0106,0.026,-13.0,-29.31,25.63,3.88,-81.76,-150.15
95413,52.44684,-1.445121,160.79,13.41,4.0,229.95,21 / 21,5119976,2019-09-07 11:52:33:130,-0.3483,0.4459,10.833,-0.0022,-0.0072,9.8066,0.0181,0.0098,0.0069,-13.25,-29.44,25.63,4.98,-81.63,-149.23
95414,52.44684,-1.445121,160.79,13.41,4.0,229.95,21 / 21,5120076,2019-09-07 11:52:33:230,-0.3163,0.0546,9.8939,0.0119,-0.0043,9.8066,0.0236,-0.0134,-0.0274,-12.56,-29.5,25.38,3.19,-81.55,-149.85
95415,52.44684,-1.445121,160.79,13.41,4.0,229.95,21 / 21,5120175,2019-09-07 11:52:33:329,-0.1773,-0.1551,10.0039,0.0126,0.0036,9.8066,-0.0129,0.0134,-0.0128,-13.12,-29.62,26.06,2.67,-81.55,-151.2
95416,52.44684,-1.445121,160.79,13.41,4.0,229.95,21 / 21,5120275,2019-09-07 11:52:33:429,0.0952,0.3795,9.185,0.0081,0.0068,9.8065,-0.0216,-0.0237,-0.0606,-12.62,-29.19,25.88,1.46,-81.73,-152.2
95417,52.44684,-1.445121,160.79,13.41,4.0,229.95,21 / 21,5120375,2019-09-07 11:52:33:529,-0.4305,-0.2252,9.1596,0.0011,0.0001,9.8066,-0.0123,-0.0613,-0.0544,-13.0,-29.0,26.06,1.33,-81.74,-152.31
95418,52.44684,-1.445121,160.79,13.41,4.0,229.95,21 / 21,5120476,2019-09-07 11:52:33:630,0.4096,-0.8081,9.1961,-0.0051,0.0052,9.8066,-0.0465,-0.0464,-0.0293,-12.87,-29.44,26.06,0.68,-81.76,-152.86
95419,52.44684,-1.445121,160.79,13.41,4.0,229.95,21 / 21,5120576,2019-09-07 11:52:33:730,-1.308,0.8841,11.0087,-0.0123,0.0183,9.8066,-0.04,0.0459,-0.0069,-13.0,-29.62,25.5,2.29,-81.96,-151.5
95420,52.44684,-1.445121,160.79,13.41,4.0,229.95,21 / 21,5120676,2019-09-07 11:52:33:830,-0.2986,1.7869,11.3599,0.0226,-0.0111,9.8065,0.0854,0.021,-0.0107,-12.37,-29.06,25.81,3.99,-82.18,-151.82
95421,52.44684,-1.445121,160.79,13.41,4.0,229.95,21 / 21,5120775,2019-09-07 11:52:33:929,0.0541,-0.1077,9.4229,0.0328,-0.0734,9.8063,0.1611,0.0354,0.0636,-12.31,-29.0,26.25,359.79,-81.39,-155.4
95422,52.44684,-1.445121,160.79,13.41,4.0,229.95,21 / 21,5120876,2019-09-07 11:52:34:030,0.3079,-0.321,9.5154,-0.0199,-0.027,9.8065,0.0363,0.0645,0.1191,-13.0,-28.69,26.69,358.89,-80.51,-155.21
95423,52.44684,-1.445121,160.79,13.41,4.0,229.95,21 / 21,5120976,2019-09-07 11:52:34:130,-0.1339,0.4026,9.0583,-0.0441,0.0207,9.8065,-0.1352,-0.0099,0.0685,-13.62,-29.12,26.25,359.04,-80.61,-152.49
95424,52.44684,-1.445121,160.79,13.41,4.0,229.95,21 / 21,5121076,2019-09-07 11:52:34:230,-0.7894,0.2265,8.8674,-0.0414,0.0239,9.8065,-0.1114,0.0094,0.0582,-13.62,-28.94,25.94,3.8,-80.85,-148.54
95425,52.44684,-1.445121,160.79,13.41,4.0,229.95,21 / 21,5121175,2019-09-07 11:52:34:329,0.0531,1.0674,8.7536,-0.0192,0.0157,9.8066,0.0068,0.0805,0.0711,-13.31,-29.62,25.69,10.25,-81.16,-144.92
95426,52.44684,-1.445121,160.79,13.41,4.0,229.95,21 / 21,5121275,2019-09-07 11:52:34:429,0.0681,0.6484,7.8738,-0.0052,-0.009,9.8066,0.0137,0.0605,0.0316,-13.94,-29.5,25.75,8.96,-81.13,-144.19
95427,52.44684,-1.445121,160.79,13.41,4.0,229.95,21 / 21,5121375,2019-09-07 11:52:34:529,0.2087,-0.1941,11.4058,-0.0016,-0.0072,9.8066,0.0101,-0.0149,0.0164,-13.12,-29.0,25.31,9.8,-81.01,-144.41
95428,52.44684,-1.445121,160.79,13.41,4.0,229.95,21 / 21,5121476,2019-09-07 11:52:34:630,-0.1646,1.4739,8.934,-0.0012,-0.0042,9.8066,0.0074,-0.0342,-0.0251,-13.87,-29.62,25.69,9.42,-80.86,-143.91
95429,52.44684,-1.445121,160.79,13.41,4.0,229.95,21 / 21,5121576,2019-09-07 11:52:34:730,-0.0102,-0.8338,11.1202,-0.0063,-0.0088,9.8066,0.0122,0.0166,0.0177,-14.0,-29.87,26.0,9.87,-80.73,-143.56
95430,52.44684,-1.445121,160.79,13.41,4.0,229.95,21 / 21,5121675,2019-09-07 11:52:34:829,-0.4074,0.0707,9.5785,0.0032,0.0071,9.8065,-0.0067,0.064,0.0003,-13.81,-29.69,26.25,9.8,-80.68,-143.63
95431,52.44684,-1.445121,160.79,13.41,4.0,229.95,21 / 21,5121775,2019-09-07 11:52:34:929,0.2529,-0.016,9.5885,0.0204,0.0065,9.8066,0.0034,0.0002,-0.0603,-13.81,-29.44,25.88,8.25,-80.92,-144.83
95432,52.44684,-1.445121,160.79,13.41,4.0,229.95,21 / 21,5121875,2019-09-07 11:52:35:029,-1.5335,1.2046,9.9784,0.0135,-0.0092,9.8066,0.0466,0.0003,-0.025,-13.31,-29.12,25.5,7.67,-80.99,-147.05
95433,52.44684,-1.445121,160.79,13.41,4.0,229.95,21 / 21,5121975,2019-09-07 11:52:35:129,0.4597,0.5458,10.0602,0.0132,-0.0021,9.8066,0.0624,0.0283,0.0253,-12.87,-28.81,25.81,6.59,-80.95,-147.96
95434,52.44684,-1.445121,160.79,13.41,4.0,229.95,21 / 21,5122076,2019-09-07 11:52:35:230,0.4323,-1.2807,10.0754,-0.0034,-0.0083,9.8066,0.0155,0.0266,0.0244,-13.5,-29.5,26.19,6.26,-80.7,-148.27
95435,52.44684,-1.445121,160.79,13.41,4.0,229.95,21 / 21,5122176,2019-09-07 11:52:35:330,-0.6222,0.0642,10.2344,-0.0188,0.0047,9.8066,-0.0051,0.1276,0.0816,-13.75,-28.81,25.81,5.55,-80.66,-147.1
95436,52.44684,-1.445121,160.79,13.41,4.0,229.95,21 / 21,5122276,2019-09-07 11:52:35:430,-0.102,0.4585,10.0927,0.0042,0.0055,9.8066,0.0258,0.1221,0.0361,-13.81,-29.81,26.31,6.01,-80.84,-146.74
95437,52.44684,-1.445121,160.79,13.41,4.0,229.95,21 / 21,5122375,2019-09-07 11:52:35:529,-1.1383,0.4545,10.6461,-0.0026,-0.0071,9.8066,-0.0083,-0.0452,-0.0631,-13.25,-29.44,25.94,7.56,-80.97,-147.15
95438,52.44684,-1.445121,160.79,13.41,4.0,229.95,21 / 21,5122475,2019-09-07 11:52:35:629,0.4299,0.7749,10.6397,0.0195,0.0088,9.8065,0.0408,0.0671,0.0223,-13.81,-29.56,26.13,4.26,-81.02,-148.17
95439,52.44684,-1.445121,160.79,13.41,4.0,229.95,21 / 21,5122575,2019-09-07 11:52:35:729,-0.3808,0.0615,11.6181,0.0088,-0.001,9.8066,0.0035,-0.0076,-0.0068,-13.0,-28.75,26.31,5.11,-80.94,-149.19
95440,52.44684,-1.445121,160.79,13.41,4.0,229.95,21 / 21,5122675,2019-09-07 11:52:35:829,0.9581,0.0378,8.9089,0.0112,0.0105,9.8066,-0.0007,0.0542,0.0181,-13.44,-29.44,26.0,4.12,-81.05,-150.0
95441,52.44684,-1.445121,160.79,13.41,4.0,229.95,21 / 21,5122776,2019-09-07 11:52:35:930,0.9517,-0.938,9.6453,-0.0069,0.0127,9.8066,-0.037,0.0292,-0.0079,-13.06,-28.87,25.63,4.09,-81.26,-150.01
95442,52.44684,-1.445121,160.79,13.41,4.0,229.95,21 / 21,5122875,2019-09-07 11:52:36:029,-0.2854,0.1642,10.905,-0.0007,-0.0011,9.8066,0.0214,0.046,0.0189,-12.62,-29.31,25.75,4.2,-81.46,-149.9
95443,52.44684,-1.445121,160.79,13.41,4.0,229.95,21 / 21,5122976,2019-09-07 11:52:36:130,0.8769,-0.0472,9.4829,0.0022,-0.0133,9.8066,0.0198,-0.0181,0.0015,-12.81,-29.31,25.75,4.12,-81.37,-149.98
95444,52.44684,-1.445121,160.79,13.41,4.0,229.95,21 / 21,5123075,2019-09-07 11:52:36:229,0.061,-0.4573,9.8369,-0.0147,-0.0108,9.8066,-0.0108,0.0175,0.0523,-13.19,-28.69,26.13,4.78,-81.15,-149.45
95445,52.44684,-1.445121,160.79,13.41,4.0,229.95,21 / 21,5123176,2019-09-07 11:52:36:330,-0.3518,0.6828,10.1005,-0.0118,0.005,9.8066,-0.0187,-0.0154,0.0108,-13.37,-29.37,25.88,6.7,-81.14,-147.84
95446,52.4461,-1.446524,160.79,14.25,4.0,229.59,21 / 21,5123275,2019-09-07 11:52:36:429,0.0381,0.2394,10.2844,-0.0084,-0.0096,9.8066,-0.0121,-0.0517,-0.0129,-13.62,-29.62,25.56,4.92,-81.14,-147.61
95447,52.4461,-1.446524,160.79,14.25,4.0,229.59,21 / 21,5123375,2019-09-07 11:52:36:529,-0.3788,0.0316,10.0115,-0.0007,-0.0005,9.8066,0.0088,0.0305,-0.0187,-13.69,-29.37,26.06,5.42,-81.05,-147.17
95448,52.4461,-1.446524,160.79,14.25,4.0,229.59,21 / 21,5123475,2019-09-07 11:52:36:629,0.3475,-0.1201,9.7765,0.0064,0.003,9.8066,-0.0014,0.0187,-0.0057,-13.69,-29.06,26.44,4.96,-81.07,-147.56
95449,52.4461,-1.446524,160.79,14.25,4.0,229.59,21 / 21,5123576,2019-09-07 11:52:36:730,0.0196,0.1995,9.9963,0.0078,0.0073,9.8066,-0.011,-0.0099,-0.0277,-13.81,-29.5,25.94,4.14,-81.17,-148.24
95450,52.4461,-1.446524,160.79,14.25,4.0,229.59,21 / 21,5123675,2019-09-07 11:52:36:829,0.2123,0.0126,8.8765,0.0039,-0.0048,9.8066,0.0186,0.0336,-0.0062,-13.37,-29.06,25.63,5.55,-81.22,-148.79
95451,52.4461,-1.446524,160.79,14.25,4.0,229.59,21 / 21,5123775,2019-09-07 11:52:36:929,-0.3231,-0.2671,11.1884,0.0115,0.0016,9.8066,0.0085,-0.0086,-0.0307,-13.37,-29.12,25.81,4.73,-81.25,-149.48
95452,52.4461,-1.446524,160.79,14.25,4.0,229.59,21 / 21,5123875,2019-09-07 11:52:37:029,-0.0851,0.5312,10.2989,-0.0012,-0.005,9.8066,0.0126,0.0169,0.0201,-13.62,-29.56,26.06,1.95,-81.23,-150.07
95453,52.4461,-1.446524,160.79,14.25,4.0,229.59,21 / 21,5123975,2019-09-07 11:52:37:129,0.6452,-0.0409,9.4038,0.0005,-0.0066,9.8066,0.0192,-0.0038,0.0154,-13.25,-29.12,26.19,4.03,-81.11,-150.07
95454,52.4461,-1.446524,160.79,14.25,4.0,229.59,21 / 21,5124075,2019-09-07 11:52:37:229,-0.5861,0.5429,9.2211,-0.0084,-0.0025,9.8066,-0.006,0.0328,0.0282,-13.75,-28.62,25.81,2.47,-81.01,-149.64
95455,52.4461,-1.446524,160.79,14.25,4.0,229.59,21 / 21,5124175,2019-09-07 11:52:37:329,-0.3455,0.0845,9.7229,-0.004,0.0102,9.8066,-0.0519,-0.028,-0.0257,-12.94,-29.37,25.5,5.44,-81.1,-148.9
95456,52.4461,-1.446524,160.79,14.25,4.0,229.59,21 / 21,5124275,2019-09-07 11:52:37:429,-0.8287,0.3674,10.4051,0.0035,0.0085,9.8066,-0.0178,-0.0212,-0.0348,-14.06,-29.25,25.75,3.91,-81.27,-148.42
95457,52.4461,-1.446524,160.79,14.25,4.0,229.59,21 / 21,5124375,2019-09-07 11:52:37:529,0.3486,0.1428,10.3037,0.0072,-0.003,9.8065,0.0348,0.0401,0.0117,-13.44,-29.0,26.13,5.4,-81.27,-148.91
95458,52.4461,-1.446524,160.79,14.25,4.0,229.59,21 / 21,5124475,2019-09-07 11:52:37:629,0.2532,-0.2207,9.8464,0.0052,-0.0039,9.8066,0.015,-0.0032,-0.0102,-13.25,-29.31,26.13,4.72,-81.2,-149.49
95459,52.4461,-1.446524,160.79,14.25,4.0,229.59,21 / 21,5124576,2019-09-07 11:52:37:730,0.3467,-0.2472,10.2995,-0.0025,-0.0037,9.8066,0.0193,0.041,0.0296,-13.06,-29.12,26.13,4.66,-81.1,-149.55
95460,52.4461,-1.446524,160.79,14.25,4.0,229.59,21 / 21,5124675,2019-09-07 11:52:37:829,-0.1982,0.092,9.7683,0.001,-0.0022,9.8066,0.0086,-0.0119,-0.0005,-13.44,-29.06,26.38,4.96,-81.07,-149.31
95461,52.4461,-1.446524,160.79,14.25,4.0,229.59,21 / 21,5124775,2019-09-07 11:52:37:929,-0.2268,-0.0719,9.1945,0.0017,-0.006,9.8066,0.017,0.0252,0.0194,-12.87,-28.87,25.88,4.96,-81.01,-149.31
95462,52.4461,-1.446524,160.79,14.25,4.0,229.59,21 / 21,5124875,2019-09-07 11:52:38:029,0.0725,-0.0932,9.7986,0.0029,0.0018,9.8065,-0.0082,-0.0109,-0.0129,-13.56,-29.25,26.13,2.26,-81.04,-149.81
95463,52.4461,-1.446524,160.79,14.25,4.0,229.59,21 / 21,5124975,2019-09-07 11:52:38:129,-0.2676,0.2665,9.6908,0.0074,0.001,9.8066,-0.0123,-0.0037,-0.028,-12.94,-29.31,25.81,3.87,-81.07,-150.21
95464,52.4461,-1.446524,160.79,14.25,4.0,229.59,21 / 21,5125075,2019-09-07 11:52:38:229,-0.2715,0.2284,10.3004,-0.0022,0.008,9.8065,-0.0293,-0.0237,-0.0249,-13.0,-28.75,26.0,3.2,-81.14,-150.76
95465,52.4461,-1.446524,160.79,14.25,4.0,229.59,21 / 21,5125176,2019-09-07 11:52:38:330,-0.1405,0.5864,9.7494,-0.0041,-0.0001,9.8066,-0.0117,0.0359,0.0261,-13.19,-29.06,26.44,3.73,-81.21,-150.32
95466,52.4461,-1.446524,160.79,14.25,4.0,229.59,21 / 21,5125276,2019-09-07 11:52:38:430,-0.0057,-0.2397,9.0654,0.0033,-0.0025,9.8066,0.0139,0.0103,0.0018,-13.37,-29.44,25.75,3.5,-81.24,-150.51
95467,52.4461,-1.446524,160.79,14.25,4.0,229.59,21 / 21,5125375,2019-09-07 11:52:38:529,0.3637,-0.8325,10.1147,0.0042,-0.0056,9.8066,-0.0055,-0.0049,-0.0121,-13.06,-28.37,25.69,3.07,-81.16,-150.86
95468,52.4461,-1.446524,160.79,14.25,4.0,229.59,21 / 21,5125476,2019-09-07 11:52:38:630,0.0398,0.5273,10.138,0.0007,-0.0067,9.8066,-0.0081,-0.0164,-0.0179,-13.37,-28.94,26.0,2.87,-81.14,-151.04
95469,52.4461,-1.446524,160.79,14.25,4.0,229.59,21 / 21,5125575,2019-09-07 11:52:38:729,0.0797,0.3492,9.0426,-0.0076,-0.0024,9.8066,0.0098,0.0222,0.0263,-13.12,-28.0,26.56,4.36,-81.04,-150.61
95470,52.4461,-1.446524,160.79,14.25,4.0,229.59,21 / 21,5125675,2019-09-07 11:52:38:829,0.1435,0.2696,9.0204,-0.0059,-0.0037,9.8066,-0.002,0.0268,0.0255,-13.25,-27.87,26.13,3.77,-80.99,-150.28
95471,52.4461,-1.446524,160.79,14.25,4.0,229.59,21 / 21,5125775,2019-09-07 11:52:38:929,-0.4144,-0.1447,8.1218,-0.0097,-0.0052,9.8066,-0.0249,0.0248,0.0192,-12.81,-28.5,25.75,4.64,-80.92,-149.56
95472,52.4461,-1.446524,160.79,14.25,4.0,229.59,21 / 21,5125875,2019-09-07 11:52:39:029,-0.1918,0.1263,9.7455,-0.0029,0.0059,9.8066,-0.0266,-0.0153,-0.019,-13.37,-29.12,26.06,5.16,-81.09,-149.13
95473,52.4461,-1.446524,160.79,14.25,4.0,229.59,21 / 21,5125975,2019-09-07 11:52:39:129,-0.0115,-0.0857,10.0119,0.0028,-0.0039,9.8066,0.0234,0.0287,0.0117,-12.75,-29.06,26.38,5.03,-81.09,-149.24
95474,52.4461,-1.446524,160.79,14.25,4.0,229.59,21 / 21,5126075,2019-09-07 11:52:39:229,0.1674,-0.1527,9.4924,0.0018,-0.006,9.8066,0.0069,-0.0186,-0.0245,-12.81,-29.0,25.75,4.36,-81.08,-149.8
95475,52.4461,-1.446524,160.79,14.25,4.0,229.59,21 / 21,5126175,2019-09-07 11:52:39:329,0.0734,0.354,9.1899,-0.0012,-0.0007,9.8066,-0.0204,0.0212,0.0036,-13.0,-28.87,26.06,4.36,-81.02,-149.81
95476,52.4461,-1.446524,160.79,14.25,4.0,229.59,21 / 21,5126275,2019-09-07 11:52:39:429,-0.4877,-0.0688,10.4158,-0.004,-0.0006,9.8066,-0.0011,0.0104,0.0135,-13.69,-29.5,26.0,2.55,-81.05,-149.57
95477,52.4461,-1.446524,160.79,14.25,4.0,229.59,21 / 21,5126376,2019-09-07 11:52:39:530,0.7568,0.7642,8.8869,0.0031,-0.0023,9.8066,-0.0145,-0.005,0.0068,-13.12,-29.12,26.0,4.7,-81.05,-149.52
95478,52.4461,-1.446524,160.79,14.25,4.0,229.59,21 / 21,5126476,2019-09-07 11:52:39:630,0.6037,-0.7689,9.0346,0.0076,0.0026,9.8066,-0.0136,-0.014,-0.037,-13.31,-29.12,26.63,5.37,-81.08,-149.79
95479,52.4461,-1.446524,160.79,14.25,4.0,229.59,21 / 21,5126575,2019-09-07 11:52:39:729,-0.3839,-0.6858,9.8924,-0.0108,-0.0064,9.8065,0.012,0.0636,0.0275,-12.69,-29.19,26.5,5.89,-81.03,-149.36
95480,52.4461,-1.446524,160.79,14.25,4.0,229.59,21 / 21,5126675,2019-09-07 11:52:39:829,0.2688,-0.4101,9.0928,-0.0039,0.0005,9.8066,-0.0135,0.0022,0.0113,-13.0,-28.87,25.38,3.74,-81.08,-149.42
95481,52.4461,-1.446524,160.79,14.25,4.0,229.59,21 / 21,5126778,2019-09-07 11:52:39:932,0.3072,0.0512,8.4952,-0.0143,0.0095,9.8066,-0.0643,0.0423,0.0496,-13.44,-29.25,25.94,6.23,-81.15,-148.23
95482,52.4461,-1.446524,160.79,14.25,4.0,229.59,21 / 21,5126875,2019-09-07 11:52:40:029,-0.7002,0.1245,9.8705,-0.0358,0.025,9.8065,-0.1023,-0.0212,0.0399,-13.56,-29.56,25.31,5.9,-81.3,-145.85
95483,52.4461,-1.446524,160.79,14.25,4.0,229.59,21 / 21,5126975,2019-09-07 11:52:40:129,-2.6297,1.1538,11.8911,-0.0048,0.015,9.8066,0.023,-0.0474,-0.083,-13.69,-30.0,24.75,9.59,-81.54,-142.73
95484,52.4461,-1.446524,160.79,14.25,4.0,229.59,21 / 21,5127075,2019-09-07 11:52:40:229,0.0739,1.2049,11.1874,0.0573,-0.0336,9.8064,0.1469,0.0063,-0.102,-13.31,-29.62,25.75,6.94,-81.29,-147.66
95485,52.4461,-1.446524,160.79,14.25,4.0,229.59,21 / 21,5127176,2019-09-07 11:52:40:330,1.1413,-0.7456,9.1383,0.0484,-0.0542,9.8064,0.1497,0.0476,-0.0525,-13.31,-29.19,27.0,2.48,-80.8,-152.23
95486,52.4461,-1.446524,160.79,14.25,4.0,229.59,21 / 21,5127276,2019-09-07 11:52:40:430,0.5408,-0.0392,9.6276,-0.0161,-0.0128,9.8066,-0.0063,-0.003,0.0521,-12.69,-29.06,27.13,359.85,-80.35,-154.41
95487,52.4461,-1.446524,160.79,14.25,4.0,229.59,21 / 21,5127375,2019-09-07 11:52:40:529,0.8179,0.9884,7.4052,-0.026,0.0199,9.8066,-0.1093,0.0138,0.0597,-13.37,-28.75,26.5,2.74,-80.4,-152.03
95488,52.4461,-1.446524,160.79,14.25,4.0,229.59,21 / 21,5127475,2019-09-07 11:52:40:629,-1.0027,0.511,9.3512,-0.0368,0.0235,9.8065,-0.0939,0.0165,0.0689,-13.62,-29.06,25.81,3.11,-80.73,-149.12
95489,52.4461,-1.446524,160.79,14.25,4.0,229.59,21 / 21,5127575,2019-09-07 11:52:40:729,-0.662,0.8664,9.8055,-0.0136,0.0012,9.8065,-0.0216,-0.0609,-0.0238,-13.5,-29.37,26.56,9.56,-80.93,-146.3
95490,52.4461,-1.446524,160.79,14.25,4.0,229.59,21 / 21,5127675,2019-09-07 11:52:40:829,-0.9681,0.223,9.9643,0.0185,-0.0005,9.8066,-0.0244,-0.0965,-0.0903,-13.37,-28.69,26.19,7.95,-80.86,-146.84
95491,52.4461,-1.446524,160.79,14.25,4.0,229.59,21 / 21,5127776,2019-09-07 11:52:40:930,0.2114,0.0284,9.9964,0.0019,-0.0131,9.8066,0.028,0.0584,0.0424,-13.94,-29.37,26.38,5.66,-80.75,-147.0
95492,52.4461,-1.446524,160.79,14.25,4.0,229.59,21 / 21,5127876,2019-09-07 11:52:41:030,-0.513,0.6573,10.0829,0.0037,-0.0011,9.8066,-0.0113,-0.0227,-0.041,-12.75,-29.44,25.94,7.36,-80.68,-147.36
95493,52.4461,-1.446524,160.79,14.25,4.0,229.59,21 / 21,5127976,2019-09-07 11:52:41:130,-0.5549,-0.1192,9.1504,0.0043,0.0036,9.8066,-0.0122,0.0028,-0.0344,-13.37,-29.31,26.5,7.88,-80.68,-147.74
95494,52.4461,-1.446524,160.79,14.25,4.0,229.59,21 / 21,5128075,2019-09-07 11:52:41:229,-0.6188,0.0885,8.7375,0.006,0.0048,9.8066,-0.0234,-0.0185,-0.0371,-13.44,-29.37,26.13,6.26,-80.79,-148.26
95495,52.4461,-1.446524,160.79,14.25,4.0,229.59,21 / 21,5128175,2019-09-07 11:52:41:329,-0.1467,-0.3151,10.4606,-0.0067,-0.0074,9.8066,0.0082,0.0459,0.0487,-13.06,-29.06,26.5,6.79,-80.86,-148.63
95496,52.4461,-1.446524,160.79,14.25,4.0,229.59,21 / 21,5128276,2019-09-07 11:52:41:430,-1.3369,0.5098,9.987,0.0014,0.0044,9.8066,0.0305,0.0597,0.0539,-13.56,-28.75,25.94,4.0,-80.86,-148.37
95497,52.4461,-1.446524,160.79,14.25,4.0,229.59,21 / 21,5128376,2019-09-07 11:52:41:530,0.3838,0.2459,9.5577,-0.0032,0.0015,9.8066,-0.0326,-0.0096,-0.0053,-13.62,-29.37,26.06,4.38,-80.84,-148.06
95498,52.4461,-1.446524,160.79,14.25,4.0,229.59,21 / 21,5128475,2019-09-07 11:52:41:629,0.5995,-0.4086,10.3664,0.0101,0.0028,9.8065,-0.0123,-0.0191,-0.0347,-13.69,-29.44,25.38,3.7,-80.85,-147.69
95499,52.4461,-1.446524,160.79,14.25,4.0,229.59,21 / 21,5128575,2019-09-07 11:52:41:729,-0.2881,0.5683,9.5211,0.007,0.0049,9.8066,0.0011,0.0189,-0.0082,-13.12,-29.69,26.44,5.64,-80.98,-148.78
95500,52.4461,-1.446524,160.79,14.25,4.0,229.59,21 / 21,5128676,2019-09-07 11:52:41:830,0.8349,0.4156,8.8119,0.0209,0.0062,9.8066,0.0357,0.0693,0.0181,-13.06,-29.06,25.13,2.83,-81.05,-150.18
95501,52.4461,-1.446524,160.79,14.25,4.0,229.59,21 / 21,5128775,2019-09-07 11:52:41:929,0.5609,0.2343,9.0485,-0.0022,-0.0001,9.8066,-0.026,-0.0808,-0.0674,-12.87,-28.75,26.19,3.88,-81.0,-150.21
95502,52.4461,-1.446524,160.79,14.25,4.0,229.59,21 / 21,5128876,2019-09-07 11:52:42:030,0.2984,0.1554,10.5591,-0.0057,0.0031,9.8066,-0.0184,-0.0473,-0.0274,-13.12,-28.87,25.75,3.59,-81.1,-150.44
95503,52.4461,-1.446524,160.79,14.25,4.0,229.59,21 / 21,5128975,2019-09-07 11:52:42:129,-0.0415,0.8397,9.6488,0.0026,-0.0001,9.8066,-0.0304,-0.049,-0.0424,-13.25,-28.69,25.44,2.54,-81.15,-150.42
95504,52.4461,-1.446524,160.79,14.25,4.0,229.59,21 / 21,5129075,2019-09-07 11:52:42:229,-0.0983,0.4139,9.6073,-0.0014,0.0016,9.8066,0.0032,0.0253,0.0217,-12.94,-29.19,25.81,3.26,-81.21,-150.71
95505,52.4461,-1.446524,160.79,14.25,4.0,229.59,21 / 21,5129176,2019-09-07 11:52:42:330,-0.0148,0.4,10.9987,0.0005,-0.004,9.8066,0.024,0.0258,0.0208,-12.62,-29.44,26.25,3.42,-81.19,-150.58
95506,52.4461,-1.446524,160.79,14.25,4.0,229.59,21 / 21,5129276,2019-09-07 11:52:42:430,-0.1395,0.591,9.8989,-0.0017,0.0004,9.8066,0.0149,0.0154,0.0071,-13.12,-29.12,25.94,3.54,-81.14,-150.48
95507,52.4461,-1.446524,160.79,14.25,4.0,229.59,21 / 21,5129375,2019-09-07 11:52:42:529,-0.4049,0.5446,8.9754,-0.0047,0.004,9.8065,0.0046,0.0323,0.0482,-13.56,-29.62,25.94,1.9,-81.12,-150.12
95508,52.4461,-1.446524,160.79,14.25,4.0,229.59,21 / 21,5129475,2019-09-07 11:52:42:629,0.1296,0.3142,9.7803,0.0036,-0.0027,9.8066,-0.0128,0.0128,0.0005,-13.12,-28.94,25.88,4.34,-81.05,-149.82
95509,52.4461,-1.446524,160.79,14.25,4.0,229.59,21 / 21,5129576,2019-09-07 11:52:42:730,0.6946,0.182,8.9726,0.0108,0.0042,9.8066,0.0228,0.0645,0.0118,-12.81,-29.0,26.19,3.47,-81.13,-150.54
95510,52.4461,-1.446524,160.79,14.25,4.0,229.59,21 / 21,5129675,2019-09-07 11:52:42:829,0.1757,0.4779,9.9954,0.008,0.0036,9.8066,0.0035,0.0084,-0.0242,-12.87,-29.62,25.88,3.13,-81.14,-150.84
95511,52.4461,-1.446524,160.79,14.25,4.0,229.59,21 / 21,5129776,2019-09-07 11:52:42:930,-0.162,0.4143,11.4418,0.0026,-0.0079,9.8066,0.0062,-0.0039,-0.0195,-12.75,-29.12,25.88,2.21,-81.12,-151.59
95512,52.4461,-1.446524,160.79,14.25,4.0,229.59,21 / 21,5129876,2019-09-07 11:52:43:030,-0.0224,0.2368,9.7912,0.0051,-0.0034,9.8066,0.0293,0.0321,0.0351,-12.81,-29.06,26.13,1.73,-81.01,-152.0
95513,52.4461,-1.446524,160.79,14.25,4.0,229.59,21 / 21,5129976,2019-09-07 11:52:43:130,-0.1016,0.5307,9.7929,0.0007,-0.002,9.8066,-0.0052,0.0093,0.0059,-13.06,-28.87,26.19,1.76,-80.95,-151.98
95514,52.4461,-1.446524,160.79,14.25,4.0,229.59,21 / 21,5130075,2019-09-07 11:52:43:229,-0.1114,-0.1782,9.1922,0.0021,0.0091,9.8066,-0.0312,-0.0202,-0.0348,-12.94,-29.19,25.44,0.48,-80.98,-152.13
95515,52.4461,-1.446524,160.79,14.25,4.0,229.59,21 / 21,5130175,2019-09-07 11:52:43:329,-0.5174,0.7013,9.9275,0.0114,0.0095,9.8066,-0.0071,-0.0172,-0.0375,-12.81,-29.12,26.06,0.39,-81.17,-153.11
95516,52.4461,-1.446524,160.79,14.25,4.0,229.59,21 / 21,5130275,2019-09-07 11:52:43:429,0.7605,0.2859,10.8328,0.0077,-0.002,9.8066,0.0262,0.018,0.0179,-12.56,-29.06,25.94,359.72,-81.19,-153.67
95517,52.4461,-1.446524,160.79,14.25,4.0,229.59,21 / 21,5130376,2019-09-07 11:52:43:530,0.5148,0.0117,9.8301,-0.0038,-0.0061,9.8065,0.0264,0.0592,0.0367,-13.0,-28.87,26.13,359.92,-81.08,-153.51
95518,52.4461,-1.446524,160.79,14.25,4.0,229.59,21 / 21,5130475,2019-09-07 11:52:43:629,-0.0451,0.5337,9.6164,-0.02,0.013,9.8066,-0.0473,0.0064,0.0408,-13.0,-29.69,26.25,1.15,-81.12,-152.48
95519,52.4461,-1.446524,160.79,14.25,4.0,229.59,21 / 21,5130575,2019-09-07 11:52:43:729,-0.3206,0.6198,11.9636,-0.0093,0.0146,9.8066,-0.0479,-0.0401,-0.0061,-12.94,-29.62,26.06,3.08,-81.2,-150.88
95520,52.4461,-1.446524,160.79,14.25,4.0,229.59,21 / 21,5130675,2019-09-07 11:52:43:829,0.4085,0.2188,9.5482,-0.0093,-0.0093,9.8066,0.0136,-0.0206,0.0056,-13.25,-28.5,25.94,4.16,-81.23,-149.93
95521,52.4461,-1.446524,160.79,14.25,4.0,229.59,21 / 21,5130776,2019-09-07 11:52:43:930,0.1264,0.0827,10.8858,-0.0025,-0.01,9.8066,0.0216,0.0076,0.0048,-13.31,-28.94,25.94,4.6,-81.0,-149.61
95522,52.4461,-1.446524,160.79,14.25,4.0,229.59,21 / 21,5130876,2019-09-07 11:52:44:030,-0.7552,0.1126,9.3334,0.0049,-0.0104,9.8066,0.0278,0.0135,-0.015,-13.19,-29.44,26.19,3.9,-80.88,-150.2
95523,52.4461,-1.446524,160.79,14.25,4.0,229.59,21 / 21,5130976,2019-09-07 11:52:44:130,0.8539,-0.0855,8.6997,0.0073,0.0062,9.8066,-0.0072,0.0207,-0.0332,-13.69,-29.44,26.13,0.92,-80.87,-150.93
95524,52.4461,-1.446524,160.79,14.25,4.0,229.59,21 / 21,5131076,2019-09-07 11:52:44:230,-0.9767,1.1596,9.3459,-0.0092,0.0101,9.8066,-0.0198,0.0487,0.0201,-13.31,-29.12,26.38,3.18,-81.04,-150.79
95525,52.4461,-1.446524,160.79,14.25,4.0,229.59,21 / 21,5131175,2019-09-07 11:52:44:329,0.0898,0.1177,9.9907,0.0001,0.0115,9.8066,-0.0555,-0.0918,-0.0675,-13.12,-28.94,25.56,3.04,-81.17,-150.89
95526,52.4461,-1.446524,160.79,14.25,4.0,229.59,21 / 21,5131275,2019-09-07 11:52:44:429,-1.1645,0.2865,9.6791,-0.0029,0.0055,9.8066,-0.0189,-0.0257,-0.0434,-13.06,-29.37,26.38,3.58,-81.23,-150.44
95527,52.4461,-1.446524,160.79,14.25,4.0,229.59,21 / 21,5131376,2019-09-07 11:52:44:530,-0.1949,0.3361,9.9652,0.0024,0.012,9.8066,-0.0157,-0.0033,-0.0229,-12.75,-29.19,25.94,3.17,-81.35,-150.77
95528,52.4461,-1.446524,160.79,14.25,4.0,229.59,21 / 21,5131475,2019-09-07 11:52:44:629,-0.5536,0.112,9.6775,-0.0126,-0.0002,9.8066,0.0008,0.0849,0.074,-13.87,-29.0,25.44,0.74,-81.36,-150.13
95529,52.4461,-1.446524,160.79,14.25,4.0,229.59,21 / 21,5131575,2019-09-07 11:52:44:729,-0.2151,0.9042,10.2187,0.0015,-0.0044,9.8066,0.0305,0.0381,0.0238,-13.31,-29.31,26.0,4.86,-81.38,-149.36
95530,52.4461,-1.446524,160.79,14.25,4.0,229.59,21 / 21,5131675,2019-09-07 11:52:44:829,-0.7948,-0.2684,10.7001,0.0022,-0.0187,9.8065,0.0382,-0.0078,-0.0218,-13.0,-29.37,25.94,4.37,-81.17,-149.79
95531,52.4461,-1.446524,160.79,14.25,4.0,229.59,21 / 21,5131776,2019-09-07 11:52:44:930,-0.0737,-0.7274,10.3746,0.0068,0.0001,9.8066,-0.0088,-0.0235,-0.0222,-13.5,-29.25,26.13,3.14,-81.04,-150.82
95532,52.4461,-1.446524,160.79,14.25,4.0,229.59,21 / 21,5131875,2019-09-07 11:52:45:029,0.9482,0.2706,10.3905,0.0203,0.0096,9.8066,0.0075,0.0801,0.0165,-12.94,-29.06,26.25,1.88,-81.07,-151.87
95533,52.4461,-1.446524,160.79,14.25,4.0,229.59,21 / 21,5131975,2019-09-07 11:52:45:129,0.0866,0.1755,10.8193,0.0018,0.0017,9.8066,0.0159,0.059,0.0058,-12.94,-29.12,26.19,1.53,-81.18,-152.16
95534,52.4461,-1.446524,160.79,14.25,4.0,229.59,21 / 21,5132075,2019-09-07 11:52:45:229,-0.0162,0.347,8.3022,-0.0041,0.0038,9.8066,0.0231,0.0607,0.0237,-13.25,-29.62,25.75,1.33,-81.25,-152.33
95535,52.4461,-1.446524,160.79,14.25,4.0,229.59,21 / 21,5132175,2019-09-07 11:52:45:329,0.1172,0.7506,9.3854,0.0084,-0.0035,9.8066,0.0241,0.0303,-0.0004,-12.94,-28.69,26.0,0.97,-81.26,-152.62
95536,52.44532,-1.448009,160.9,14.91,4.0,228.84,21 / 21,5132275,2019-09-07 11:52:45:429,-0.4367,-0.1919,10.1094,0.0017,0.0003,9.8066,0.0117,-0.0161,-0.0422,-13.0,-29.69,26.0,0.28,-81.27,-153.2
95537,52.44532,-1.448009,160.9,14.91,4.0,228.84,21 / 21,5132376,2019-09-07 11:52:45:530,-0.5356,0.4438,10.2322,0.0024,0.0036,9.8066,-0.024,-0.0265,-0.0242,-12.81,-29.0,26.25,359.14,-81.27,-154.15
95538,52.44532,-1.448009,160.9,14.91,4.0,228.84,21 / 21,5132475,2019-09-07 11:52:45:629,-0.2838,0.4225,10.9019,0.006,0.0016,9.8066,0.0038,0.0123,0.0111,-12.31,-28.62,26.31,0.93,-81.21,-154.45
95539,52.44532,-1.448009,160.9,14.91,4.0,228.84,21 / 21,5132576,2019-09-07 11:52:45:730,0.0303,0.3201,9.2822,0.0003,0.0021,9.8066,-0.0106,-0.0143,-0.0228,-12.94,-29.06,26.75,359.31,-81.27,-154.87
95540,52.44532,-1.448009,160.9,14.91,4.0,228.84,21 / 21,5132675,2019-09-07 11:52:45:829,-0.4928,0.5766,9.8163,-0.0056,0.0004,9.8066,-0.0031,0.0367,0.0339,-12.37,-28.94,26.38,0.65,-81.32,-154.68
95541,52.44532,-1.448009,160.9,14.91,4.0,228.84,21 / 21,5132775,2019-09-07 11:52:45:929,0.0018,0.533,9.2286,0.0005,0.0001,9.8066,-0.0054,-0.001,-0.0053,-13.19,-28.37,26.38,358.62,-81.39,-154.6
95542,52.44532,-1.448009,160.9,14.91,4.0,228.84,21 / 21,5132875,2019-09-07 11:52:46:029,-0.9877,-0.5214,10.2946,0.0017,-0.0002,9.8066,-0.0261,-0.0818,-0.0693,-12.69,-29.0,26.13,358.76,-81.35,-154.48
95543,52.44532,-1.448009,160.9,14.91,4.0,228.84,21 / 21,5132975,2019-09-07 11:52:46:129,0.0934,1.1473,9.3521,0.0022,-0.0015,9.8066,-0.0351,-0.035,-0.0245,-12.69,-29.37,25.44,356.97,-81.31,-155.05
95544,52.44532,-1.448009,160.9,14.91,4.0,228.84,21 / 21,5133075,2019-09-07 11:52:46:229,-0.0442,0.1514,9.5378,-0.0016,-0.002,9.8066,-0.0107,-0.0523,-0.0416,-12.81,-29.06,26.13,358.03,-81.32,-155.09
95545,52.44532,-1.448009,160.9,14.91,4.0,228.84,21 / 21,5133175,2019-09-07 11:52:46:329,0.7237,0.2154,9.024,-0.0053,0.0006,9.8066,0.0114,0.0747,0.0645,-12.87,-28.44,26.56,359.16,-81.21,-155.0
95546,52.44532,-1.448009,160.9,14.91,4.0,228.84,21 / 21,5133275,2019-09-07 11:52:46:429,-0.2297,0.0864,9.5983,-0.0105,0.0008,9.8066,-0.0149,0.0125,0.0185,-12.75,-28.87,26.19,358.9,-81.28,-154.35
95547,52.44532,-1.448009,160.9,14.91,4.0,228.84,21 / 21,5133375,2019-09-07 11:52:46:529,-0.4096,0.3507,9.7834,-0.0022,0.0084,9.8066,-0.0214,-0.0023,-0.0024,-12.69,-28.56,26.25,359.31,-81.34,-154.01
95548,52.44532,-1.448009,160.9,14.91,4.0,228.84,21 / 21,5133475,2019-09-07 11:52:46:629,0.0427,0.6236,10.4147,0.0021,0.0015,9.8066,0.0421,0.0676,0.0378,-12.37,-29.12,26.0,1.33,-81.42,-154.11
95549,52.44532,-1.448009,160.9,14.91,4.0,228.84,21 / 21,5133576,2019-09-07 11:52:46:730,-0.7169,0.5734,9.4833,0.0062,-0.0122,9.8065,0.0301,-0.0273,-0.0225,-12.81,-28.56,26.13,358.72,-81.33,-154.51
95550,52.44532,-1.448009,160.9,14.91,4.0,228.84,21 / 21,5133676,2019-09-07 11:52:46:830,0.0985,-0.2488,10.9071,-0.0098,-0.0179,9.8066,0.02,0.0285,0.0691,-12.81,-29.37,26.56,359.97,-81.07,-154.31
95551,52.44532,-1.448009,160.9,14.91,4.0,228.84,21 / 21,5133775,2019-09-07 11:52:46:929,0.378,-0.5459,10.3153,-0.0053,0.0005,9.8066,-0.0131,0.0103,0.0182,-12.87,-28.69,25.75,0.01,-80.96,-153.43
95552,52.44532,-1.448009,160.9,14.91,4.0,228.84,21 / 21,5133875,2019-09-07 11:52:47:029,-0.4822,-0.2865,8.6101,-0.0115,0.0068,9.8066,-0.0426,0.0297,0.0124,-12.94,-28.37,26.06,1.3,-81.05,-152.35
95553,52.44532,-1.448009,160.9,14.91,4.0,228.84,21 / 21,5133976,2019-09-07 11:52:47:130,-0.809,0.0272,9.3896,0.0017,0.0081,9.8066,0.0043,0.0617,0.0291,-12.81,-29.0,25.5,1.8,-81.29,-151.93
95554,52.44532,-1.448009,160.9,14.91,4.0,228.84,21 / 21,5134076,2019-09-07 11:52:47:230,2.1582,-0.2238,9.2821,0.0205,0.0117,9.8066,-0.0307,-0.076,-0.0704,-13.19,-28.94,25.81,0.13,-81.41,-153.32
95555,52.44532,-1.448009,160.9,14.91,4.0,228.84,21 / 21,5134176,2019-09-07 11:52:47:330,0.0321,0.1922,10.171,0.0011,-0.001,9.8066,0.0137,0.0327,0.0241,-12.5,-29.44,25.75,2.26,-81.35,-153.33
95556,52.44532,-1.448009,160.9,14.91,4.0,228.84,21 / 21,5134276,2019-09-07 11:52:47:430,0.0844,0.6147,10.0403,-0.001,-0.0151,9.8066,0.0718,0.0402,0.05,-13.25,-29.19,26.44,359.91,-81.24,-153.51
95557,52.44532,-1.448009,160.9,14.91,4.0,228.84,21 / 21,5134376,2019-09-07 11:52:47:530,-0.4855,-0.4805,9.8909,0.0051,-0.0105,9.8065,0.0353,0.0219,0.0161,-12.56,-29.19,26.44,359.85,-81.02,-153.56
95558,52.44532,-1.448009,160.9,14.91,4.0,228.84,21 / 21,5134475,2019-09-07 11:52:47:629,-0.6343,0.6862,9.5567,0.0067,0.0021,9.8066,-0.0002,0.0182,-0.0315,-13.0,-28.75,26.19,358.8,-80.95,-154.43
95559,52.44532,-1.448009,160.9,14.91,4.0,228.84,21 / 21,5134575,2019-09-07 11:52:47:729,0.5183,0.2209,9.9655,-0.006,0.0103,9.8066,-0.0494,0.0161,0.0046,-12.31,-29.12,26.19,0.33,-81.1,-154.95
95560,52.44532,-1.448009,160.9,14.91,4.0,228.84,21 / 21,5134675,2019-09-07 11:52:47:829,0.1948,0.9106,9.9914,-0.0028,0.023,9.8066,-0.0477,-0.0163,-0.0248,-13.19,-29.81,25.94,357.93,-81.4,-155.16
95561,52.44532,-1.448009,160.9,14.91,4.0,228.84,21 / 21,5134775,2019-09-07 11:52:47:929,-0.7942,0.6657,9.5817,-0.0039,0.0002,9.8065,-0.0192,-0.0591,-0.032,-12.75,-28.81,25.75,358.16,-81.55,-154.99
95562,52.44532,-1.448009,160.9,14.91,4.0,228.84,21 / 21,5134875,2019-09-07 11:52:48:029,0.0772,0.4594,10.3742,-0.0055,-0.0207,9.8066,0.053,0.0203,0.0617,-12.5,-28.87,26.19,0.81,-81.34,-154.55
95563,52.44532,-1.448009,160.9,14.91,4.0,228.84,21 / 21,5134975,2019-09-07 11:52:48:129,-0.514,-0.4304,10.9686,-0.0107,-0.0272,9.8066,0.0256,-0.0663,-0.0116,-12.94,-28.81,26.25,359.17,-81.14,-154.13
95564,52.44532,-1.448009,160.9,14.91,4.0,228.84,21 / 21,5135075,2019-09-07 11:52:48:229,-0.7235,-0.5073,10.7052,-0.011,-0.0153,9.8066,-0.0387,-0.0334,-0.0181,-13.37,-29.19,26.5,1.95,-80.77,-152.67
95565,52.44532,-1.448009,160.9,14.91,4.0,228.84,21 / 21,5135175,2019-09-07 11:52:48:329,-1.1505,0.4198,10.511,0.0022,0.0158,9.8065,-0.0407,-0.022,-0.0468,-13.12,-29.75,26.13,1.61,-80.93,-152.1
95566,52.44532,-1.448009,160.9,14.91,4.0,228.84,21 / 21,5135275,2019-09-07 11:52:48:429,0.4724,0.6859,8.9209,0.0095,0.0009,9.8066,0.0526,0.0724,0.0483,-13.25,-29.0,26.56,1.89,-80.96,-152.71
95567,52.44532,-1.448009,160.9,14.91,4.0,228.84,21 / 21,5135376,2019-09-07 11:52:48:530,-0.0288,0.6633,9.7094,0.0056,0.0088,9.8066,-0.0036,0.0384,0.006,-13.0,-29.0,26.06,0.45,-80.87,-153.06
95568,52.44532,-1.448009,160.9,14.91,4.0,228.84,21 / 21,5135475,2019-09-07 11:52:48:629,0.2254,-0.1864,8.2487,-0.0092,0.0141,9.8066,-0.046,-0.0228,-0.0031,-13.19,-29.19,26.44,0.18,-81.07,-153.29
95569,52.44532,-1.448009,160.9,14.91,4.0,228.84,21 / 21,5135576,2019-09-07 11:52:48:730,0.0467,0.5797,9.6058,0.0003,0.0065,9.8066,-0.0187,-0.0333,-0.0409,-12.56,-29.56,26.19,0.83,-81.18,-152.75
95570,52.44532,-1.448009,160.9,14.91,4.0,228.84,21 / 21,5135675,2019-09-07 11:52:48:829,0.2562,0.9631,9.3504,0.0041,-0.002,9.8066,0.0142,0.031,0.027,-13.0,-29.56,25.75,0.62,-81.23,-152.92
95571,52.44532,-1.448009,160.9,14.91,4.0,228.84,21 / 21,5135775,2019-09-07 11:52:48:929,-0.283,0.5365,11.9104,0.0104,-0.001,9.8066,0.0234,-0.0021,-0.0042,-13.19,-29.0,25.88,0.16,-81.14,-153.3
95572,52.44532,-1.448009,160.9,14.91,4.0,228.84,21 / 21,5135875,2019-09-07 11:52:49:029,0.4146,0.1176,9.6608,-0.0079,-0.0105,9.8066,0.013,0.0558,0.0488,-12.75,-29.06,26.06,0.18,-81.03,-153.29
95573,52.44532,-1.448009,160.9,14.91,4.0,228.84,21 / 21,5135975,2019-09-07 11:52:49:129,-0.6958,0.5909,9.8623,-0.0148,0.0093,9.8066,-0.0283,0.018,0.0527,-13.19,-28.25,25.81,0.95,-80.99,-152.64
