,GPS LATITUDE (degrees), GPS LONGITUDE (degrees), GPS ALTITUDE (m), GPS SPEED (Kmh), GPS ACCURACY (m), GPS ORIENTATION (Â°),GPS SATELLITES IN RANGE, TIME SINCE START (ms), DATE (YYYY-MO-DD HH-MI-SS_SSS), ACCELEROMETER X (m/s²) , ACCELEROMETER Y (m/s²), ACCELEROMETER Z (m/s²), GRAVITY X (m/s²), GRAVITY Y (m/s²), GRAVITY Z (m/s²), GYROSCOPE Yaw (rad/s), GYROSCOPE Pitch (rad/s), GYROSCOPE Roll (rad/s), MAGNETIC FIELD X (Î¼T), MAGNETIC FIELD Y (Î¼T), MAGNETIC FIELD Z (Î¼T), ORIENTATION (Yaw) (Â°), ORIENTATION (Pitch) (Â°), ORIENTATION (Roll ) (Â°)
20488,52.386658,-1.193941,175.03,19.03,8,149.94,18 / 18,2048811,2020-01-08 10:49:55:485,6.8478,-0.19,13.1155,0.1423,-0.0716,9.8053,-0.2296,-0.2674,0.4437,-19.19,-33.25,29.69,42.06,-88.92,-106.27
20489,52.386658,-1.193941,175.03,19.03,8,149.94,18 / 18,2048911,2020-01-08 10:49:55:585,3.1342,2.1018,11.0632,0.0726,0.0695,9.8061,-0.2567,-0.5557,0.7583,-19.37,-32.56,28.38,70.42,-88.86,-76.47
20490,52.386658,-1.193941,175.03,19.03,8,149.94,18 / 18,2049010,2020-01-08 10:49:55:684,8.1107,4.2526,10.0194,0.2449,0.0391,9.8035,-0.238,-1.1548,0.8072,-18.94,-32.56,28.63,78.01,-87.98,-70.65
20491,52.386658,-1.193941,175.03,19.03,8,149.94,18 / 18,2049110,2020-01-08 10:49:55:784,-10.3466,-2.8071,7.7142,0.1617,0.0593,9.8051,-0.3583,-1.3494,0.927,-19.06,-33.06,29.06,73.04,-89.1,-74.55
20492,52.386658,-1.193941,175.03,19.03,8,149.94,18 / 18,2049211,2020-01-08 10:49:55:885,4.2131,2.507,11.7441,0.0974,0.0704,9.8059,-0.1359,-1.1151,0.9502,-19.31,-32.94,29.56,69.12,-88.57,-79.78
20493,52.386658,-1.193941,175.03,19.03,8,149.94,18 / 18,2049313,2020-01-08 10:49:55:987,-7.3089,-1.9683,9.9682,0.2009,0.0513,9.8044,0.1162,-0.7597,0.7557,-19.31,-33.37,29.31,69.2,-89.1,-78.37
20494,52.386658,-1.193941,175.03,19.03,8,149.94,18 / 18,2049411,2020-01-08 10:49:56:085,-0.5619,3.4273,7.3839,-0.0255,0.1027,9.806,0.3208,-0.3544,-0.0149,-19.06,-33.37,29.0,56.73,-88.54,-91.21
20495,52.386658,-1.193941,175.03,19.03,8,149.94,18 / 18,2049511,2020-01-08 10:49:56:185,-3.4614,-1.7362,9.9917,0.0537,0.0082,9.8065,0.299,-0.0963,-0.2862,-19.56,-33.12,28.88,59.16,-88.9,-87.13
20496,52.386658,-1.193941,175.03,19.03,8,149.94,18 / 18,2049610,2020-01-08 10:49:56:284,5.3779,1.8992,6.2492,-0.0619,-0.006,9.8064,0.0825,0.2864,-0.2071,-19.12,-32.87,27.88,77.41,-88.44,-69.92
20497,52.386658,-1.193941,175.03,19.03,8,149.94,18 / 18,2049711,2020-01-08 10:49:56:385,-0.9838,-2.2993,9.8152,-0.0268,-0.0299,9.8066,-0.074,0.6833,-0.211,-19.56,-33.56,28.31,85.32,-88.6,-60.53
20498,52.386658,-1.193941,175.03,19.03,8,149.94,18 / 18,2049811,2020-01-08 10:49:56:485,-8.3427,-5.1868,11.9909,-0.042,-0.0281,9.8065,-0.2331,1.1444,-0.6791,-19.56,-33.0,28.19,72.67,-87.84,-73.79
20499,52.386658,-1.193941,175.03,19.03,8,149.94,18 / 18,2049911,2020-01-08 10:49:56:585,-2.7818,-2.1483,8.9196,0.1162,0.132,9.805,-0.1078,1.1335,-0.7192,-19.81,-33.62,28.31,70.96,-87.33,-76.02
20500,52.386658,-1.193941,175.03,19.03,8,149.94,18 / 18,2050011,2020-01-08 10:49:56:685,1.0028,-5.2842,12.789,0.0039,0.0857,9.8062,0.3608,0.7605,-0.4095,-19.44,-33.37,29.0,83.4,-87.7,-65.55
20501,52.386658,-1.193941,175.03,19.03,8,149.94,18 / 18,2050110,2020-01-08 10:49:56:784,6.0608,3.2808,8.6527,0.1215,-0.0036,9.8058,0.4159,0.4293,-0.362,-20.62,-33.81,28.19,73.58,-88.2,-71.24
20502,52.386658,-1.193941,175.03,19.03,8,149.94,19 / 19,2050211,2020-01-08 10:49:56:885,-5.2427,1.4358,7.373,0.0567,0.0567,9.8063,0.3282,-0.0239,-0.1343,-20.31,-33.31,28.88,82.43,-87.68,-65.14
20503,52.386658,-1.193941,175.03,19.03,8,149.94,19 / 19,2050310,2020-01-08 10:49:56:984,0.4244,-0.5712,10.819,0.0086,-0.0375,9.8065,0.1599,-0.1601,0.1512,-20.5,-33.5,29.06,81.06,-87.35,-66.81
20504,52.386658,-1.193941,175.03,19.03,8,149.94,19 / 19,2050411,2020-01-08 10:49:57:085,-0.7029,-0.0427,10.2863,0.0464,0.0473,9.8064,0.0867,-0.1783,0.2052,-20.12,-33.12,28.63,78.2,-87.3,-69.7
20505,52.386658,-1.193941,175.03,19.03,8,149.94,19 / 19,2050511,2020-01-08 10:49:57:185,-1.9429,-0.8465,9.1418,-0.0069,-0.0089,9.8066,-0.0234,-0.4093,0.0079,-21.06,-33.19,28.31,68.93,-86.85,-77.01
20506,52.386658,-1.193941,175.03,19.03,8,149.94,19 / 19,2050611,2020-01-08 10:49:57:285,-2.9955,-5.7514,11.6069,-0.0374,0.0345,9.8065,0.2462,-0.5978,0.471,-21.06,-32.62,28.75,71.91,-86.8,-75.02
20507,52.386658,-1.193941,175.03,19.03,8,149.94,19 / 19,2050711,2020-01-08 10:49:57:385,1.0507,0.943,8.5109,-0.0646,-0.0691,9.8062,0.1805,-0.5307,0.4092,-20.37,-32.75,28.44,65.56,-86.53,-81.98
20508,52.386658,-1.193941,175.03,19.03,8,149.94,19 / 19,2050810,2020-01-08 10:49:57:484,7.1343,-0.1289,8.7735,-0.032,-0.027,9.8065,0.1578,-0.1583,-0.1212,-21.06,-33.0,29.0,66.75,-86.5,-80.35
20509,52.386658,-1.193941,175.03,19.03,8,149.94,19 / 19,2050911,2020-01-08 10:49:57:585,-6.3264,-2.4514,10.9758,-0.0721,-0.0814,9.806,-0.2087,0.0203,-0.2093,-20.31,-32.69,29.38,64.02,-86.28,-84.57
20510,52.386658,-1.193941,175.03,19.03,8,149.94,19 / 19,2051011,2020-01-08 10:49:57:685,-1.876,3.2121,6.1415,-0.0168,-0.1265,9.8058,-0.5393,0.1943,0.0637,-20.31,-33.25,28.69,61.4,-86.69,-86.77
20511,52.386658,-1.193941,175.03,19.03,8,149.94,19 / 19,2051111,2020-01-08 10:49:57:785,3.407,-2.8887,11.2879,-0.1397,0.0455,9.8055,-0.3681,0.0121,0.017,-20.0,-33.06,28.75,63.86,-87.2,-83.93
20512,52.386658,-1.193941,175.03,19.03,8,149.94,18 / 18,2051211,2020-01-08 10:49:57:885,3.496,-0.5235,10.6059,-0.0571,0.0484,9.8063,-0.0726,-0.0928,0.0364,-20.37,-32.94,28.94,73.83,-87.12,-74.2
20513,52.386658,-1.193941,175.03,19.03,8,149.94,18 / 18,2051311,2020-01-08 10:49:57:985,-5.0938,-1.8962,7.2372,-0.127,0.0225,9.8057,-0.0241,0.0326,-0.0949,-20.31,-32.81,28.94,74.39,-87.46,-73.33
20514,52.386658,-1.193941,175.03,19.03,8,149.94,18 / 18,2051411,2020-01-08 10:49:58:085,3.9468,0.8839,12.0283,-0.0099,-0.0116,9.8066,0.1452,0.3949,-0.308,-19.87,-32.81,28.88,74.58,-87.42,-73.18
20515,52.386658,-1.193941,175.03,19.03,8,149.94,18 / 18,2051510,2020-01-08 10:49:58:184,-4.458,-1.7916,10.2232,0.1279,0.0093,9.8057,0.1599,0.4869,-0.4529,-19.37,-32.31,28.5,79.67,-86.63,-70.18
20516,52.386658,-1.193941,175.03,19.03,8,149.94,18 / 18,2051611,2020-01-08 10:49:58:285,6.6523,-0.4165,10.2541,0.0795,0.0176,9.8062,0.1576,0.3949,-0.4796,-19.87,-32.62,28.25,75.13,-86.83,-72.3
20517,52.386658,-1.193941,175.03,19.03,8,149.94,18 / 18,2051711,2020-01-08 10:49:58:385,-2.9208,-1.1457,8.9714,0.087,0.0108,9.8062,0.1129,0.4261,-0.0988,-20.0,-32.25,28.63,75.05,-87.12,-72.91
20518,52.386658,-1.193941,175.03,19.03,8,149.94,18 / 18,2051811,2020-01-08 10:49:58:485,0.5494,1.8885,11.4108,0.0103,-0.0189,9.8066,0.2802,0.3408,-0.167,-19.56,-32.87,28.19,78.42,-87.13,-68.76
20519,52.386658,-1.193941,175.03,19.03,8,149.94,18 / 18,2051910,2020-01-08 10:49:58:584,-3.0624,1.768,8.9106,0.0573,-0.0028,9.8064,0.0307,0.2131,-0.2021,-19.5,-32.81,28.0,78.69,-87.48,-69.57
20520,52.386658,-1.193941,175.03,19.03,8,149.94,18 / 18,2052011,2020-01-08 10:49:58:685,-3.6609,-3.7951,7.9119,-0.1062,0.0362,9.8059,-0.0639,0.4536,-0.1141,-19.62,-33.06,28.75,76.78,-87.57,-70.85
20521,52.386658,-1.193941,175.03,19.03,8,149.94,18 / 18,2052111,2020-01-08 10:49:58:785,-0.6739,-1.535,11.5926,0.0182,0.0538,9.8064,-0.0288,-0.0576,-0.1541,-20.0,-32.31,28.38,80.9,-87.47,-65.89
20522,52.386658,-1.193941,175.03,19.03,8,149.94,18 / 18,2052210,2020-01-08 10:49:58:884,0.7635,-2.5662,9.1273,0.1151,-0.0105,9.8059,-0.1482,-0.2142,-0.2499,-19.37,-33.75,28.63,83.02,-87.18,-66.5
20523,52.386658,-1.193941,175.03,19.03,8,149.94,18 / 18,2052311,2020-01-08 10:49:58:985,0.2216,-0.5461,8.8736,0.0064,-0.0689,9.8064,0.2715,-0.3758,0.2014,-19.44,-33.81,28.38,74.87,-87.6,-73.32
20524,52.386658,-1.193941,175.03,19.03,8,149.94,18 / 18,2052411,2020-01-08 10:49:59:085,5.8165,3.6048,10.0605,0.0678,-0.0162,9.8063,0.1529,-0.5414,0.3246,-18.87,-32.81,28.5,78.29,-87.74,-70.59
20525,52.386658,-1.193941,175.03,19.03,8,149.94,18 / 18,2052511,2020-01-08 10:49:59:185,6.0748,1.5029,10.6234,-0.1391,-0.0654,9.8054,-0.0512,-0.5142,0.4389,-18.87,-32.69,28.69,72.83,-87.63,-76.11
20526,52.386658,-1.193941,175.03,19.03,8,149.94,18 / 18,2052611,2020-01-08 10:49:59:285,-3.7808,-3.7124,9.6756,-0.022,-0.0068,9.8066,-0.1655,-0.5017,0.3314,-19.25,-32.75,28.63,76.27,-87.9,-72.45
20527,52.386658,-1.193941,175.03,19.03,8,149.94,18 / 18,2052711,2020-01-08 10:49:59:385,2.4654,-2.9626,9.9181,-0.0857,-0.0619,9.806,-0.126,-0.054,0.1505,-19.81,-33.56,28.5,72.67,-87.54,-75.02
20528,52.386658,-1.193941,175.03,19.03,8,149.94,18 / 18,2052811,2020-01-08 10:49:59:485,6.3097,2.8795,7.6941,0.0208,0.0947,9.8062,0.0091,0.604,-0.2024,-19.44,-33.06,28.0,80.13,-87.96,-67.68
20529,52.386658,-1.193941,175.03,19.03,8,149.94,18 / 18,2052911,2020-01-08 10:49:59:585,1.1634,3.5245,7.7122,0.0608,0.001,9.8064,-0.3647,0.7661,-0.7138,-19.69,-32.75,28.63,69.03,-87.85,-78.28
20530,52.386658,-1.193941,175.03,19.03,8,149.94,18 / 18,2053010,2020-01-08 10:49:59:684,0.4721,5.6215,7.6454,0.0401,0.1062,9.8059,-0.4727,0.6491,-0.3253,-20.12,-33.37,28.56,66.16,-87.4,-81.5
20531,52.386658,-1.193941,175.03,19.03,8,149.94,18 / 18,2053111,2020-01-08 10:49:59:785,-0.191,-1.1576,11.7564,-0.0505,0.1386,9.8054,-0.015,0.3079,-0.0818,-19.44,-33.0,29.0,81.63,-87.78,-67.23
20532,52.386658,-1.193941,175.03,19.03,8,149.94,18 / 18,2053211,2020-01-08 10:49:59:885,-0.0509,6.121,6.4571,0.0051,-0.0017,9.8066,0.2805,0.1113,-0.1383,-19.44,-32.44,28.25,57.4,-87.82,-90.2
20533,52.386658,-1.193941,175.03,19.03,8,149.94,18 / 18,2053311,2020-01-08 10:49:59:985,-3.6498,0.8037,9.431,-0.0664,0.0482,9.8063,0.5221,0.1197,-0.1579,-19.06,-33.12,28.75,58.59,-88.08,-89.76
20534,52.386658,-1.193941,175.03,19.03,8,149.94,18 / 18,2053410,2020-01-08 10:50:00:084,2.9629,-0.8758,11.956,-0.0739,-0.0033,9.8063,0.2557,0.1096,-0.1733,-19.25,-32.69,28.38,66.46,-87.93,-81.25
20535,52.386658,-1.193941,175.03,19.03,8,149.94,18 / 18,2053511,2020-01-08 10:50:00:185,-2.4593,-1.0879,9.5246,-0.0677,0.0402,9.8063,0.0898,0.1404,-0.0368,-19.87,-33.25,29.25,70.15,-88.12,-76.93
20536,52.386658,-1.193941,175.03,19.03,8,149.94,18 / 18,2053612,2020-01-08 10:50:00:286,3.7035,-0.5331,10.5147,-0.0466,-0.0288,9.8065,0.0177,-0.0471,0.0075,-18.94,-32.87,29.13,62.01,-88.24,-86.24
20537,52.386658,-1.193941,175.03,19.03,8,149.94,18 / 18,2053711,2020-01-08 10:50:00:385,-1.1617,-1.5131,10.8239,-0.0066,-0.0387,9.8066,-0.044,0.0402,-0.1071,-19.31,-32.81,29.13,53.3,-88.31,-94.77
20538,52.386658,-1.193941,175.03,19.03,8,149.94,18 / 18,2053810,2020-01-08 10:50:00:484,-1.9872,0.493,8.7444,-0.0121,-0.005,9.8066,-0.1054,-0.1569,-0.0179,-18.87,-32.62,29.13,53.83,-88.49,-94.11
20539,52.386658,-1.193941,175.03,19.03,8,149.94,18 / 18,2053911,2020-01-08 10:50:00:585,0.4802,0.4941,12.1332,0.0832,-0.039,9.8062,-0.2263,-0.2127,0.2162,-19.06,-33.06,28.63,36.28,-88.7,-111.22
20540,52.386658,-1.193941,175.03,19.03,8,149.94,18 / 18,2054010,2020-01-08 10:50:00:684,0.2336,-3.8555,7.7231,-0.0006,-0.0645,9.8064,-0.1522,-0.2502,0.4979,-19.25,-32.81,28.81,44.56,-88.45,-103.26
20541,52.386658,-1.193941,175.03,19.03,8,149.94,18 / 18,2054110,2020-01-08 10:50:00:784,-2.4415,-3.0691,10.7742,0.0337,-0.0279,9.8065,0.0122,-0.2927,0.2854,-18.94,-32.69,28.69,55.77,-88.6,-92.11
20542,52.386658,-1.193941,175.03,19.03,8,149.94,18 / 18,2054211,2020-01-08 10:50:00:885,0.985,-2.0979,9.8079,0.0071,-0.063,9.8063,0.0498,-0.4343,-0.0082,-18.37,-32.5,29.19,54.65,-88.99,-94.3
20543,52.386658,-1.193941,175.03,19.03,8,149.94,18 / 18,2054311,2020-01-08 10:50:00:985,7.9338,-1.5723,8.7016,0.0973,0.0222,9.806,-0.1225,-0.4146,0.0711,-18.5,-32.81,29.81,23.81,-89.05,-125.59
20544,52.386658,-1.193941,175.03,19.03,8,149.94,18 / 18,2054410,2020-01-08 10:50:01:084,3.6657,-0.7604,10.2268,0.0034,0.0574,9.8064,-0.1648,-0.4282,0.2514,-18.81,-32.69,29.5,39.62,-88.73,-108.79
20545,52.386658,-1.193941,175.03,19.03,8,149.94,18 / 18,2054511,2020-01-08 10:50:01:185,5.0039,-2.8818,9.84,0.07,0.0574,9.8062,0.0899,-0.0152,0.2125,-19.12,-32.19,29.81,30.9,-88.75,-117.34
20546,52.386658,-1.193941,175.03,19.03,8,149.94,18 / 18,2054611,2020-01-08 10:50:01:285,-2.6658,-5.112,9.4863,0.0733,-0.0037,9.8064,0.0731,0.165,-0.1733,-18.87,-32.56,29.69,24.52,-88.6,-123.68
20547,52.386658,-1.193941,175.03,19.03,8,149.94,18 / 18,2054711,2020-01-08 10:50:01:385,4.6516,-3.9587,10.2384,0.1137,0.0281,9.8059,-0.0622,0.259,-0.2348,-19.0,-32.25,29.44,11.85,-88.7,-135.16
20548,52.386658,-1.193941,175.03,19.03,8,149.94,18 / 18,2054810,2020-01-08 10:50:01:484,-3.7573,-3.0533,9.1832,0.0524,0.0285,9.8064,0.1197,0.4307,-0.1277,-19.19,-32.37,29.94,14.0,-88.44,-134.0
20549,52.386658,-1.193941,175.03,19.03,8,149.94,18 / 18,2054911,2020-01-08 10:50:01:585,1.0696,-0.1898,10.9139,0.0287,-0.003,9.8066,0.1179,0.3569,-0.3264,-19.12,-32.87,29.38,14.99,-88.3,-132.2
20550,52.386658,-1.193941,175.03,19.03,8,149.94,18 / 18,2055011,2020-01-08 10:50:01:685,-0.0157,-1.9206,9.8715,0.043,-0.0094,9.8065,0.014,0.2093,-0.0033,-19.44,-32.69,29.81,17.39,-88.25,-130.75
20551,52.386658,-1.193941,175.03,19.03,8,149.94,18 / 18,2055110,2020-01-08 10:50:01:784,0.5986,0.1215,9.5903,-0.0205,-0.0263,9.8065,-0.0043,0.1735,-0.0556,-19.37,-32.87,29.56,17.68,-88.23,-130.48
20552,52.386658,-1.193941,175.03,19.03,8,149.94,18 / 18,2055212,2020-01-08 10:50:01:886,0.4898,-0.1454,10.9239,0.0003,-0.0093,9.8065,-0.1141,-0.1549,0.1253,-19.25,-32.94,29.5,24.54,-88.04,-123.88
20553,52.385323,-1.192726,174.13,22.45,6,150.54,18 / 19,2055311,2020-01-08 10:50:01:985,-2.6784,-0.6353,10.2513,0.0583,-0.0153,9.8065,-0.0791,-0.2704,0.2657,-19.37,-32.37,29.88,18.85,-88.07,-129.38
20554,52.385323,-1.192726,174.13,22.45,6,150.54,18 / 19,2055410,2020-01-08 10:50:02:084,1.2179,1.2425,11.1886,0.0083,-0.0038,9.8066,-0.0202,-0.2328,0.0575,-19.37,-32.5,29.94,17.73,-87.84,-130.53
20555,52.385323,-1.192726,174.13,22.45,6,150.54,18 / 19,2055511,2020-01-08 10:50:02:185,-1.2259,-0.9741,10.1907,0.0212,0.0124,9.8065,0.0967,-0.176,0.0016,-18.87,-32.69,29.75,11.71,-87.78,-136.37
20556,52.385323,-1.192726,174.13,22.45,6,150.54,18 / 19,2055611,2020-01-08 10:50:02:285,-3.5258,0.0203,7.2323,-0.0992,0.0375,9.8061,0.3077,-0.0535,-0.1436,-19.56,-32.69,29.63,0.71,-87.63,-145.63
20557,52.385323,-1.192726,174.13,22.45,6,150.54,18 / 19,2055711,2020-01-08 10:50:02:385,-1.691,-2.1344,11.7956,-0.0348,0.0563,9.8064,0.372,0.2028,-0.1609,-19.37,-31.69,30.38,7.54,-87.79,-140.38
20558,52.385323,-1.192726,174.13,22.45,6,150.54,18 / 19,2055811,2020-01-08 10:50:02:485,-6.2675,-0.378,7.8773,-0.0472,-0.0321,9.8064,0.233,0.6687,-0.5179,-20.19,-32.37,31.0,3.33,-87.65,-143.97
20559,52.385323,-1.192726,174.13,22.45,6,150.54,18 / 19,2055910,2020-01-08 10:50:02:584,4.8466,3.4301,9.3426,-0.1337,-0.0019,9.8057,0.0882,0.7148,-0.6577,-20.31,-31.56,30.5,13.32,-87.56,-134.35
20560,52.385323,-1.192726,174.13,22.45,6,150.54,18 / 19,2056011,2020-01-08 10:50:02:685,0.3461,-0.5278,11.7694,-0.033,-0.0541,9.8064,0.1275,0.5544,-0.3629,-20.25,-31.62,29.19,356.8,-87.71,-148.49
20561,52.385323,-1.192726,174.13,22.45,6,150.54,18 / 19,2056111,2020-01-08 10:50:02:785,3.5049,2.5317,10.5203,-0.104,-0.0084,9.8061,0.1633,0.7341,-0.3199,-19.37,-31.5,29.81,7.64,-87.53,-140.31
20562,52.385323,-1.192726,174.13,22.45,6,150.54,18 / 18,2056211,2020-01-08 10:50:02:885,-4.3266,-1.3434,9.3736,-0.0485,-0.0237,9.8065,0.0385,0.3253,-0.2908,-19.12,-32.5,29.44,6.81,-87.37,-140.25
20563,52.385323,-1.192726,174.13,22.45,6,150.54,18 / 18,2056311,2020-01-08 10:50:02:985,3.0025,1.0311,10.6627,-0.0848,-0.0303,9.8061,-0.1017,0.1043,-0.1083,-19.37,-31.94,30.19,9.01,-87.33,-139.03
20564,52.385323,-1.192726,174.13,22.45,6,150.54,18 / 18,2056411,2020-01-08 10:50:03:085,-1.6633,-1.9888,10.2012,0.0466,-0.0159,9.8065,-0.2312,-0.1335,0.1619,-19.37,-32.37,30.63,9.0,-87.22,-139.89
20565,52.385323,-1.192726,174.13,22.45,6,150.54,18 / 18,2056511,2020-01-08 10:50:03:185,-0.2846,0.8668,9.0064,-0.023,-0.0368,9.8065,-0.2506,-0.3814,0.2446,-19.62,-32.31,30.5,7.51,-87.11,-140.0
20566,52.385323,-1.192726,174.13,22.45,6,150.54,18 / 18,2056611,2020-01-08 10:50:03:285,4.5403,2.2672,10.4966,0.1031,0.0196,9.806,-0.1863,-0.5751,0.503,-19.81,-31.87,30.88,15.0,-87.17,-132.82
20567,52.385323,-1.192726,174.13,22.45,6,150.54,18 / 18,2056710,2020-01-08 10:50:03:384,-5.9059,-1.7162,9.2276,0.0056,-0.0182,9.8066,-0.1349,-0.5863,0.5168,-19.56,-31.81,30.56,11.15,-87.13,-136.52
20568,52.385323,-1.192726,174.13,22.45,6,150.54,18 / 18,2056811,2020-01-08 10:50:03:485,5.6664,2.0568,11.4893,0.1201,0.0073,9.8058,-0.1984,-0.6805,0.4962,-19.44,-32.0,30.56,18.22,-87.09,-131.1
20569,52.385323,-1.192726,174.13,22.45,6,150.54,18 / 18,2056911,2020-01-08 10:50:03:585,-5.5736,-2.1459,8.2397,0.0554,-0.0186,9.8064,-0.2419,-0.6316,0.4889,-19.37,-32.25,30.44,8.03,-87.11,-140.0
20570,52.385323,-1.192726,174.13,22.45,6,150.54,18 / 18,2057010,2020-01-08 10:50:03:684,5.0245,1.6659,10.9255,0.1067,0.0106,9.806,-0.0925,-0.5724,0.3418,-19.87,-32.75,30.56,12.29,-86.98,-135.47
20571,52.385323,-1.192726,174.13,22.45,6,150.54,18 / 18,2057111,2020-01-08 10:50:03:785,-4.4532,-3.1113,10.051,0.0334,0.0063,9.8066,-0.0463,-0.4141,0.2876,-19.44,-32.25,30.63,5.49,-87.0,-143.27
20572,52.385323,-1.192726,174.13,22.45,6,150.54,17 / 18,2057210,2020-01-08 10:50:03:884,3.6215,1.6893,8.8041,0.0531,0.0582,9.8063,-0.0343,-0.2715,0.0616,-19.19,-32.69,30.81,1.42,-87.13,-147.14
20573,52.385323,-1.192726,174.13,22.45,6,150.54,17 / 18,2057310,2020-01-08 10:50:03:984,-2.3964,-1.7297,10.7608,0.0273,0.0762,9.8062,-0.0952,0.0516,0.0762,-18.87,-32.19,30.81,1.36,-87.15,-147.2
20574,52.385323,-1.192726,174.13,22.45,6,150.54,17 / 18,2057411,2020-01-08 10:50:04:085,2.8909,2.4823,7.926,0.009,-0.007,9.8066,-0.2358,0.2586,-0.2554,-19.5,-32.12,30.63,358.86,-87.1,-149.58
20575,52.385323,-1.192726,174.13,22.45,6,150.54,17 / 18,2057510,2020-01-08 10:50:04:184,-2.9938,-1.6258,11.1018,0.0461,0.0745,9.8062,-0.1795,0.3873,-0.2854,-18.81,-32.31,30.88,354.98,-87.31,-153.3
20576,52.385323,-1.192726,174.13,22.45,6,150.54,17 / 18,2057611,2020-01-08 10:50:04:285,-1.3237,-0.597,11.841,0.0175,-0.0438,9.8065,-0.1445,0.3492,-0.1841,-19.0,-32.37,30.31,353.92,-87.08,-153.45
20577,52.385323,-1.192726,174.13,22.45,6,150.54,17 / 18,2057711,2020-01-08 10:50:04:385,1.6735,1.3186,8.598,0.0258,-0.002,9.8066,-0.1527,0.2385,-0.1496,-18.81,-32.37,30.94,351.95,-87.13,-156.18
20578,52.385323,-1.192726,174.13,22.45,6,150.54,17 / 18,2057810,2020-01-08 10:50:04:484,-2.566,-0.0295,10.1873,-0.0004,-0.0328,9.8065,-0.0039,-0.0801,0.2175,-18.62,-32.25,30.25,352.97,-86.89,-154.33
20579,52.385323,-1.192726,174.13,22.45,6,150.54,17 / 18,2057911,2020-01-08 10:50:04:585,2.406,1.7426,9.5522,-0.0579,-0.0285,9.8064,0.0304,-0.226,0.2456,-18.81,-32.25,30.75,358.36,-86.94,-150.05
20580,52.385323,-1.192726,174.13,22.45,6,150.54,17 / 18,2058011,2020-01-08 10:50:04:685,-0.8575,1.1439,9.938,-0.0065,0.0109,9.8066,-0.1877,-0.449,0.1885,-19.37,-32.0,30.88,358.35,-87.11,-150.07
20581,52.385323,-1.192726,174.13,22.45,6,150.54,17 / 18,2058111,2020-01-08 10:50:04:785,3.8916,3.2517,10.8713,-0.075,-0.0066,9.8063,-0.1963,-0.5371,0.3894,-19.44,-32.87,30.69,6.14,-87.09,-142.64
20582,52.385323,-1.192726,174.13,22.45,6,150.54,17 / 18,2058213,2020-01-08 10:50:04:887,-4.4597,0.1405,8.2896,0.0044,0.0055,9.8066,-0.3296,-0.5521,0.3981,-19.56,-32.06,30.69,1.14,-87.15,-146.08
20583,52.385323,-1.192726,174.13,22.45,6,150.54,17 / 18,2058311,2020-01-08 10:50:04:985,0.4589,-1.8507,11.3622,-0.1009,0.0226,9.806,-0.3457,-0.4857,0.4859,-19.12,-32.12,30.5,6.9,-87.06,-141.92
20584,52.385323,-1.192726,174.13,22.45,6,150.54,17 / 18,2058410,2020-01-08 10:50:05:084,-4.3048,-1.3542,9.1358,0.0037,0.0179,9.8066,-0.288,-0.3636,0.5145,-19.12,-32.37,30.44,359.1,-86.88,-148.51
20585,52.385323,-1.192726,174.13,22.45,6,150.54,17 / 18,2058510,2020-01-08 10:50:05:184,0.9031,0.455,11.5498,-0.0859,0.0023,9.8063,-0.2532,-0.0676,0.1136,-19.31,-32.19,30.94,359.01,-86.89,-149.44
20586,52.385323,-1.192726,174.13,22.45,6,150.54,17 / 18,2058611,2020-01-08 10:50:05:285,1.9753,0.979,10.1307,0.0037,-0.0092,9.8065,-0.1664,0.1888,-0.0842,-19.44,-32.94,30.81,355.66,-86.87,-152.62
20587,52.385323,-1.192726,174.13,22.45,6,150.54,17 / 18,2058711,2020-01-08 10:50:05:385,0.1833,-1.5188,11.7625,0.0033,0.0588,9.8064,-0.1973,0.3666,-0.2852,-19.37,-31.87,31.0,359.34,-86.91,-149.12
20588,52.385323,-1.192726,174.13,22.45,6,150.54,17 / 18,2058811,2020-01-08 10:50:05:485,-0.3651,0.845,8.2382,0.0538,0.0051,9.8065,-0.0534,0.3966,-0.179,-18.94,-31.69,30.94,1.18,-86.82,-147.37
20589,52.385323,-1.192726,174.13,22.45,6,150.54,17 / 18,2058911,2020-01-08 10:50:05:585,-3.5257,-1.1266,9.636,-0.0625,0.0221,9.8063,0.1831,0.4183,-0.3664,-19.25,-31.94,30.25,7.37,-86.89,-140.65
20590,52.385323,-1.192726,174.13,22.45,6,150.54,17 / 18,2059011,2020-01-08 10:50:05:685,-3.0063,1.488,6.7231,-0.007,-0.0802,9.8062,-0.068,-0.1303,-0.312,-19.19,-32.25,30.94,359.43,-86.55,-149.03
20591,52.385323,-1.192726,174.13,22.45,6,150.54,17 / 18,2059111,2020-01-08 10:50:05:785,2.8127,-3.3209,11.2154,-0.0629,-0.0698,9.8062,-0.1888,-0.9386,0.3842,-18.56,-32.19,31.38,358.14,-86.4,-150.25
20592,52.385323,-1.192726,174.13,22.45,6,150.54,18 / 19,2059210,2020-01-08 10:50:05:884,6.4967,3.0745,10.7776,0.2086,0.0484,9.8043,-0.0085,-0.7643,0.719,-19.12,-31.87,31.5,7.95,-86.19,-141.82
20593,52.385323,-1.192726,174.13,22.45,6,150.54,18 / 19,2059311,2020-01-08 10:50:05:985,-6.8599,-0.6736,8.5233,0.0301,0.0311,9.8065,-0.1665,-0.3808,0.459,-19.94,-31.75,30.75,356.69,-86.28,-150.29
20594,52.385323,-1.192726,174.13,22.45,6,150.54,18 / 19,2059410,2020-01-08 10:50:06:084,-9.2371,-3.6131,8.6899,0.1095,0.0171,9.806,-0.1858,-0.2569,0.0668,-19.44,-32.06,31.13,0.53,-86.26,-147.99
20595,52.385323,-1.192726,174.13,22.45,6,150.54,18 / 19,2059511,2020-01-08 10:50:06:185,2.5905,0.9929,10.606,-0.0737,-0.0644,9.8061,-0.1018,0.2634,-0.1836,-20.0,-31.75,31.0,2.12,-86.32,-145.17
20596,52.385323,-1.192726,174.13,22.45,6,150.54,18 / 19,2059610,2020-01-08 10:50:06:284,4.6932,2.7787,8.9972,0.1011,-0.0019,9.8061,-0.1016,0.7153,-0.2534,-19.94,-33.25,31.19,2.49,-86.06,-144.84
20597,52.385323,-1.192726,174.13,22.45,6,150.54,18 / 19,2059711,2020-01-08 10:50:06:385,-5.6861,-1.5593,9.2408,-0.0758,-0.0683,9.8061,-0.0144,0.8377,-0.5973,-19.81,-32.0,31.06,0.94,-86.3,-146.28
20598,52.385323,-1.192726,174.13,22.45,6,150.54,18 / 19,2059811,2020-01-08 10:50:06:485,2.7414,1.1338,10.8729,-0.003,-0.0725,9.8064,0.0227,0.608,-0.5259,-20.0,-32.25,31.0,1.43,-85.99,-145.83
20599,52.385323,-1.192726,174.13,22.45,6,150.54,18 / 19,2059910,2020-01-08 10:50:06:584,-0.5755,0.0935,11.2272,-0.0709,-0.0155,9.8063,0.1295,0.5611,-0.2191,-19.94,-31.87,30.69,0.32,-86.11,-146.87
20600,52.385323,-1.192726,174.13,22.45,6,150.54,18 / 19,2060011,2020-01-08 10:50:06:685,3.3792,1.8108,9.3535,-0.0511,-0.0621,9.8063,0.1779,0.296,-0.279,-19.69,-32.12,30.56,4.83,-85.78,-142.66
20601,52.385323,-1.192726,174.13,22.45,6,150.54,18 / 19,2060111,2020-01-08 10:50:06:785,-2.0596,-1.4135,10.0553,-0.0529,-0.0109,9.8064,0.1219,0.221,-0.3254,-19.5,-31.69,30.75,1.12,-85.93,-147.45
20602,52.385323,-1.192726,174.13,22.45,6,150.54,18 / 18,2060211,2020-01-08 10:50:06:885,-2.6439,-0.0147,7.6447,0.031,-0.0275,9.8065,0.2108,0.2256,-0.2873,-19.56,-32.06,30.56,358.21,-85.85,-148.84
20603,52.385323,-1.192726,174.13,22.45,6,150.54,18 / 18,2060311,2020-01-08 10:50:06:985,1.2562,1.2702,12.0766,-0.0182,-0.0078,9.8066,0.2252,0.2178,-0.2579,-19.81,-32.06,31.25,358.41,-86.03,-148.67
20604,52.385323,-1.192726,174.13,22.45,6,150.54,18 / 18,2060411,2020-01-08 10:50:07:085,0.7498,0.298,10.1022,0.0875,-0.0286,9.8061,0.2732,0.3027,-0.2191,-19.62,-32.0,30.63,356.23,-86.0,-150.71
20605,52.385323,-1.192726,174.13,22.45,6,150.54,18 / 18,2060511,2020-01-08 10:50:07:185,3.3906,0.0991,12.083,-0.0497,0.0172,9.8065,0.2989,0.4466,-0.2817,-19.12,-32.12,31.56,2.99,-86.3,-146.48
20606,52.385323,-1.192726,174.13,22.45,6,150.54,18 / 18,2060610,2020-01-08 10:50:07:284,-1.124,1.2013,9.4767,0.0448,-0.0394,9.8065,0.3546,0.5885,-0.4635,-19.56,-32.37,30.69,352.56,-86.12,-154.16
20607,52.385323,-1.192726,174.13,22.45,6,150.54,18 / 18,2060711,2020-01-08 10:50:07:385,0.6915,0.7924,10.9658,-0.0972,-0.0381,9.806,0.2841,0.51,-0.675,-19.31,-32.19,31.0,347.0,-86.07,-160.69
20608,52.385323,-1.192726,174.13,22.45,6,150.54,18 / 18,2060810,2020-01-08 10:50:07:484,2.9042,-0.0829,11.2643,0.0659,0.0136,9.8063,0.3038,0.4048,-0.4193,-19.56,-32.75,31.5,348.27,-85.92,-158.97
20609,52.385323,-1.192726,174.13,22.45,6,150.54,18 / 18,2060911,2020-01-08 10:50:07:585,-5.1017,0.3647,8.2738,-0.0818,0.032,9.8062,0.2993,0.2817,-0.0286,-19.75,-32.0,30.94,356.23,-86.04,-150.71
20610,52.385323,-1.192726,174.13,22.45,6,150.54,18 / 18,2061011,2020-01-08 10:50:07:685,4.6335,1.6875,9.63,-0.0353,-0.0302,9.8064,0.1224,0.2424,-0.1399,-19.25,-32.25,30.88,354.43,-86.03,-153.72
20611,52.385323,-1.192726,174.13,22.45,6,150.54,18 / 18,2061111,2020-01-08 10:50:07:785,-2.9074,-3.1793,10.1745,-0.0361,-0.0428,9.8064,-0.0186,0.0514,0.0399,-19.62,-31.94,31.0,350.95,-86.12,-155.67
20612,52.385323,-1.192726,174.13,22.45,6,150.54,18 / 18,2061211,2020-01-08 10:50:07:885,3.3373,2.705,9.358,-0.0163,-0.0493,9.8064,0.0759,0.137,0.0226,-19.5,-32.12,31.56,354.63,-85.84,-154.32
20613,52.385323,-1.192726,174.13,22.45,6,150.54,18 / 18,2061310,2020-01-08 10:50:07:984,-0.0313,0.7518,10.5697,-0.0439,-0.0254,9.8065,0.1377,-0.0726,-0.1014,-19.44,-32.12,31.0,354.34,-85.81,-153.77
20614,52.385323,-1.192726,174.13,22.45,6,150.54,18 / 18,2061410,2020-01-08 10:50:08:084,0.4941,-0.4543,9.666,-0.0206,0.006,9.8065,-0.0574,-0.0316,0.0202,-20.0,-32.56,31.94,354.47,-85.83,-153.16
20615,52.385323,-1.192726,174.13,22.45,6,150.54,18 / 18,2061511,2020-01-08 10:50:08:185,-1.6727,1.3026,8.5885,-0.0728,0.0055,9.8063,-0.2326,-0.1008,0.2244,-19.5,-32.75,31.25,352.47,-85.7,-155.5
20616,52.385323,-1.192726,174.13,22.45,6,150.54,18 / 18,2061611,2020-01-08 10:50:08:285,3.1418,-0.9215,11.9706,-0.0802,0.0402,9.8061,-0.3054,-0.1323,0.1846,-19.0,-31.62,31.31,359.04,-85.98,-149.4
20617,52.385323,-1.192726,174.13,22.45,6,150.54,18 / 18,2061710,2020-01-08 10:50:08:384,-2.9543,-0.6974,9.2704,-0.0458,-0.0171,9.8065,-0.2868,-0.2853,0.2171,-19.5,-31.81,31.63,0.83,-85.86,-148.53
20618,52.385323,-1.192726,174.13,22.45,6,150.54,18 / 18,2061811,2020-01-08 10:50:08:485,1.7145,0.887,10.5608,-0.0675,0.011,9.8064,-0.1663,-0.3416,0.2507,-19.81,-32.19,31.19,358.26,-85.86,-148.8
20619,52.385323,-1.192726,174.13,22.45,6,150.54,18 / 18,2061911,2020-01-08 10:50:08:585,-3.1862,-1.9574,9.8264,-0.0265,-0.0064,9.8065,-0.0911,-0.4251,0.279,-19.5,-31.5,31.88,357.86,-85.74,-151.3
20620,52.385323,-1.192726,174.13,22.45,6,150.54,18 / 18,2062011,2020-01-08 10:50:08:685,4.0787,1.325,10.2906,-0.0605,-0.0221,9.8064,-0.1067,-0.3939,0.2484,-19.69,-31.81,30.88,0.01,-85.71,-147.16
20621,52.385323,-1.192726,174.13,22.45,6,150.54,18 / 18,2062111,2020-01-08 10:50:08:785,-4.0578,-0.62,9.9469,-0.0052,0.0301,9.8066,-0.2021,-0.2877,0.1986,-19.06,-31.44,31.25,0.87,-85.85,-147.68
20622,52.385323,-1.192726,174.13,22.45,6,150.54,18 / 18,2062212,2020-01-08 10:50:08:886,-1.3944,0.5195,10.6081,-0.0863,0.013,9.8062,-0.2293,0.0802,0.1736,-19.81,-31.62,31.69,3.98,-85.78,-144.27
20623,52.385323,-1.192726,174.13,22.45,6,150.54,17 / 18,2062311,2020-01-08 10:50:08:985,1.7578,1.4012,10.1428,0.0338,0.0092,9.8066,-0.1907,0.0926,-0.127,-19.75,-31.87,31.0,1.5,-85.86,-145.77
20624,52.385323,-1.192726,174.13,22.45,6,150.54,17 / 18,2062410,2020-01-08 10:50:09:084,2.5763,-0.3411,12.7629,-0.0498,0.06,9.8063,0.0358,0.0523,-0.1713,-18.94,-31.81,31.38,4.63,-85.96,-144.16
20625,52.385323,-1.192726,174.13,22.45,6,150.54,17 / 18,2062512,2020-01-08 10:50:09:186,-2.8529,0.3708,9.8951,0.0644,-0.0331,9.8063,0.0531,-0.0105,0.0308,-19.87,-31.94,31.5,0.05,-85.78,-147.95
20626,52.385323,-1.192726,174.13,22.45,6,150.54,17 / 18,2062610,2020-01-08 10:50:09:284,1.8383,1.3934,10.3722,-0.0702,-0.0108,9.8063,0.0184,-0.165,0.2601,-19.56,-32.19,31.25,3.14,-85.84,-144.24
20627,52.385323,-1.192726,174.13,22.45,6,150.54,17 / 18,2062711,2020-01-08 10:50:09:385,-2.4353,-1.5094,10.054,-0.0387,-0.0268,9.8064,-0.0048,-0.1915,0.2324,-19.62,-31.69,31.06,358.07,-85.9,-148.98
20628,52.385323,-1.192726,174.13,22.45,6,150.54,17 / 18,2062810,2020-01-08 10:50:09:484,3.3519,-0.1755,11.5639,-0.0543,0.025,9.8065,-0.1247,-0.2873,0.0493,-19.87,-31.31,31.13,2.37,-85.9,-144.95
20629,52.385323,-1.192726,174.13,22.45,6,150.54,17 / 18,2062911,2020-01-08 10:50:09:585,-4.8221,-0.4429,9.1306,-0.0215,-0.0094,9.8066,-0.0757,-0.259,0.179,-19.06,-32.44,31.25,1.02,-85.92,-147.54
20630,52.385323,-1.192726,174.13,22.45,6,150.54,17 / 18,2063011,2020-01-08 10:50:09:685,2.6696,1.1071,10.5291,-0.0779,-0.0048,9.8063,0.0082,-0.0806,0.066,-19.62,-32.12,31.06,1.01,-85.95,-146.23
20631,52.385323,-1.192726,174.13,22.45,6,150.54,17 / 18,2063110,2020-01-08 10:50:09:784,-3.149,-2.051,10.0081,0.0189,-0.0089,9.8066,0.1345,-0.0911,-0.0923,-19.5,-32.06,31.38,0.77,-86.09,-147.77
20632,52.385323,-1.192726,174.13,22.45,6,150.54,17 / 18,2063211,2020-01-08 10:50:09:885,1.7943,2.3306,8.0159,-0.0634,0.043,9.8063,0.2616,0.151,-0.1254,-18.81,-32.12,31.19,355.14,-86.05,-153.05
20633,52.385323,-1.192726,174.13,22.45,6,150.54,18 / 18,2063311,2020-01-08 10:50:09:985,-0.5501,-2.3463,12.5445,0.0171,0.0583,9.8064,0.2592,0.2942,-0.1286,-18.69,-31.94,31.44,356.86,-86.18,-151.45
20634,52.385323,-1.192726,174.13,22.45,6,150.54,18 / 18,2063411,2020-01-08 10:50:10:085,-5.7479,-0.4556,9.767,-0.079,0.0006,9.8063,0.2431,0.5438,-0.449,-19.12,-32.37,31.44,353.08,-86.02,-154.98
20635,52.385323,-1.192726,174.13,22.45,6,150.54,18 / 18,2063511,2020-01-08 10:50:10:185,4.7265,4.5355,9.4306,-0.0506,0.0766,9.8062,0.12,0.7453,-0.5917,-19.25,-31.75,31.44,353.89,-86.23,-154.24
20636,52.385323,-1.192726,174.13,22.45,6,150.54,18 / 18,2063611,2020-01-08 10:50:10:285,-4.0189,-3.8174,10.3344,-0.1235,-0.0255,9.8058,0.0169,0.8907,-0.4682,-19.25,-32.0,31.56,0.89,-86.04,-148.46
20637,52.385323,-1.192726,174.13,22.45,6,150.54,18 / 18,2063710,2020-01-08 10:50:10:384,3.3172,0.9618,9.5378,-0.0725,-0.006,9.8064,0.0601,0.6314,-0.4667,-19.19,-32.06,31.63,356.23,-86.06,-152.84
20638,52.385323,-1.192726,174.13,22.45,6,150.54,18 / 18,2063811,2020-01-08 10:50:10:485,-4.7269,-0.5131,9.9749,-0.0391,-0.0444,9.8064,-0.0553,-0.085,0.0975,-18.56,-31.37,31.31,353.54,-86.18,-154.58
20639,52.385323,-1.192726,174.13,22.45,6,150.54,18 / 18,2063911,2020-01-08 10:50:10:585,5.8939,2.8801,9.2021,-0.0778,-0.0834,9.806,0.0242,-0.3514,0.3563,-19.31,-31.81,31.81,2.51,-85.82,-146.95
20640,52.385323,-1.192726,174.13,22.45,6,150.54,18 / 18,2064011,2020-01-08 10:50:10:685,-3.127,-3.9235,9.4106,-0.0089,0.0295,9.8065,0.017,-0.5048,0.3632,-19.75,-31.62,31.25,356.98,-85.96,-150.0
20641,52.385323,-1.192726,174.13,22.45,6,150.54,18 / 18,2064110,2020-01-08 10:50:10:784,0.1919,1.9447,10.9241,-0.0624,-0.01,9.8064,-0.0729,-0.685,0.283,-19.31,-31.31,31.75,0.84,-86.17,-148.51
20642,52.385323,-1.192726,174.13,22.45,6,150.54,18 / 18,2064211,2020-01-08 10:50:10:885,-1.7454,1.3616,10.0352,0.0868,0.018,9.8062,-0.1803,-0.5067,0.3964,-19.19,-31.81,31.75,0.08,-86.04,-149.23
20643,52.383858,-1.191477,172.74,19.88,4,152.97,17 / 18,2064311,2020-01-08 10:50:10:985,-0.173,1.0016,9.8337,-0.068,-0.0114,9.8063,-0.1017,-0.4502,0.3442,-19.06,-31.31,32.0,355.71,-86.04,-153.33
20644,52.383858,-1.191477,172.74,19.88,4,152.97,17 / 18,2064411,2020-01-08 10:50:11:085,4.4314,3.1165,10.2551,-0.0079,-0.004,9.8066,-0.1239,-0.3214,0.1116,-19.5,-32.0,31.56,354.16,-86.09,-154.78
20645,52.383858,-1.191477,172.74,19.88,4,152.97,17 / 18,2064511,2020-01-08 10:50:11:185,0.8084,2.8249,8.7481,-0.059,-0.0611,9.8063,-0.0174,-0.1787,0.1956,-18.81,-31.5,32.31,351.02,-86.36,-157.79
20646,52.383858,-1.191477,172.74,19.88,4,152.97,17 / 18,2064610,2020-01-08 10:50:11:284,2.6547,1.091,10.4424,-0.0159,0.0183,9.8066,0.1476,0.3142,-0.103,-19.31,-32.06,30.75,354.7,-86.33,-153.49
20647,52.383858,-1.191477,172.74,19.88,4,152.97,17 / 18,2064711,2020-01-08 10:50:11:385,-1.3226,0.1602,10.0894,0.015,-0.0134,9.8066,0.1438,0.4021,-0.3721,-19.06,-32.0,32.06,354.43,-86.3,-154.55
20648,52.383858,-1.191477,172.74,19.88,4,152.97,17 / 18,2064810,2020-01-08 10:50:11:484,1.8459,1.0245,10.5525,-0.0896,-0.0507,9.8061,-0.0126,0.4815,-0.4909,-18.87,-31.94,31.81,357.15,-86.17,-151.98
20649,52.383858,-1.191477,172.74,19.88,4,152.97,17 / 18,2064911,2020-01-08 10:50:11:585,-3.6497,-2.097,9.0115,-0.0235,-0.024,9.8065,0.0121,0.5394,-0.1929,-19.25,-32.06,31.81,354.97,-86.12,-154.02
20650,52.383858,-1.191477,172.74,19.88,4,152.97,17 / 18,2065010,2020-01-08 10:50:11:684,0.6984,1.9143,9.901,-0.0404,-0.0036,9.8065,-0.0072,0.3932,-0.1553,-18.75,-31.62,31.19,356.04,-86.19,-152.21
20651,52.383858,-1.191477,172.74,19.88,4,152.97,17 / 18,2065111,2020-01-08 10:50:11:785,3.5366,2.3282,11.7225,0.0973,-0.0109,9.8061,-0.1401,0.2479,-0.0996,-18.62,-32.0,31.69,350.34,-86.14,-158.38
20652,52.383858,-1.191477,172.74,19.88,4,152.97,17 / 18,2065211,2020-01-08 10:50:11:885,-2.7207,-0.2925,8.6335,-0.0123,-0.0564,9.8064,-0.1391,-0.0291,-0.0878,-18.87,-32.0,31.44,354.91,-85.94,-153.25
20653,52.383858,-1.191477,172.74,19.88,4,152.97,18 / 18,2065311,2020-01-08 10:50:11:985,1.7013,0.4512,9.0319,0.019,-0.0196,9.8066,-0.1412,-0.4062,0.2026,-18.81,-32.37,32.0,355.69,-85.79,-153.32
20654,52.383858,-1.191477,172.74,19.88,4,152.97,18 / 18,2065411,2020-01-08 10:50:12:085,-3.6611,-2.0322,11.2223,0.0389,0.0259,9.8064,-0.1262,-0.4506,0.365,-19.62,-31.94,31.44,354.79,-85.96,-152.05
20655,52.383858,-1.191477,172.74,19.88,4,152.97,18 / 18,2065510,2020-01-08 10:50:12:184,3.369,2.0346,8.8076,0.0282,-0.0452,9.8065,-0.242,-0.169,0.1337,-19.31,-31.75,31.69,359.83,-85.69,-149.46
20656,52.383858,-1.191477,172.74,19.88,4,152.97,18 / 18,2065611,2020-01-08 10:50:12:285,-1.1358,-0.7664,8.391,0.0571,-0.0119,9.8065,-0.2936,-0.082,-0.0066,-19.75,-31.62,31.69,357.64,-85.82,-150.21
20657,52.383858,-1.191477,172.74,19.88,4,152.97,18 / 18,2065711,2020-01-08 10:50:12:385,-1.7191,-0.9744,10.6101,0.0035,-0.0411,9.8065,-0.0614,0.1929,0.0416,-19.37,-31.81,32.13,0.4,-86.04,-148.92
20658,52.383858,-1.191477,172.74,19.88,4,152.97,18 / 18,2065810,2020-01-08 10:50:12:484,2.6493,-0.3094,8.936,-0.0064,-0.0074,9.8066,0.0904,0.4199,-0.0893,-19.5,-32.56,31.38,0.84,-85.86,-147.72
20659,52.383858,-1.191477,172.74,19.88,4,152.97,18 / 18,2065911,2020-01-08 10:50:12:585,-1.9973,0.4102,9.4434,-0.0593,0.0109,9.8064,0.1434,0.4893,-0.4522,-19.06,-31.62,31.56,358.91,-85.84,-150.32
20660,52.383858,-1.191477,172.74,19.88,4,152.97,18 / 18,2066010,2020-01-08 10:50:12:684,3.2417,1.9145,11.5308,-0.0929,0.0104,9.8061,0.1617,0.3902,-0.4287,-19.69,-31.81,31.56,352.78,-85.89,-154.75
20661,52.383858,-1.191477,172.74,19.88,4,152.97,18 / 18,2066110,2020-01-08 10:50:12:784,-1.2252,0.3296,9.1533,-0.0115,0.0075,9.8065,0.1661,0.1755,-0.0759,-19.31,-32.44,31.69,358.18,-85.97,-151.01
20662,52.383858,-1.191477,172.74,19.88,4,152.97,18 / 18,2066210,2020-01-08 10:50:12:884,1.7097,0.108,11.831,-0.0545,0.0161,9.8065,-0.0016,0.1348,-0.0714,-19.94,-31.87,31.69,357.31,-85.96,-150.51
20663,52.383858,-1.191477,172.74,19.88,4,152.97,17 / 18,2066310,2020-01-08 10:50:12:984,-2.5757,-0.1597,8.0753,0.0157,-0.0256,9.8065,-0.1634,0.1589,0.0193,-19.25,-31.37,32.25,357.59,-86.04,-151.56
20664,52.383858,-1.191477,172.74,19.88,4,152.97,17 / 18,2066410,2020-01-08 10:50:13:084,2.8995,0.584,10.8386,-0.0498,-0.0125,9.8065,-0.201,0.1518,0.0344,-19.81,-31.69,31.94,357.64,-85.86,-150.2
20665,52.383858,-1.191477,172.74,19.88,4,152.97,17 / 18,2066511,2020-01-08 10:50:13:185,-0.2347,-0.4551,10.112,0.0205,-0.0241,9.8066,-0.1658,-0.0039,0.0345,-19.75,-31.56,31.44,355.59,-85.87,-151.3
20666,52.383858,-1.191477,172.74,19.88,4,152.97,17 / 18,2066611,2020-01-08 10:50:13:285,2.0332,-1.054,11.1937,-0.0625,0.0187,9.8063,-0.1488,0.0324,0.009,-19.19,-31.94,31.56,357.97,-85.92,-151.21
20667,52.383858,-1.191477,172.74,19.88,4,152.97,17 / 18,2066710,2020-01-08 10:50:13:384,3.3822,0.0144,13.8471,0.0402,-0.0576,9.8063,-0.1354,-0.0689,-0.0478,-19.12,-31.31,31.5,353.77,-85.95,-155.15
20668,52.383858,-1.191477,172.74,19.88,4,152.97,17 / 18,2066810,2020-01-08 10:50:13:484,-5.5514,-2.4402,8.6739,0.1672,-0.1349,9.8042,0.3759,-0.1895,-0.2448,-19.0,-31.44,31.94,0.43,-86.18,-148.89
20669,52.383858,-1.191477,172.74,19.88,4,152.97,17 / 18,2066911,2020-01-08 10:50:13:585,5.75,3.3908,9.2474,-0.0572,0.0345,9.8064,0.4226,0.0063,-0.3532,-19.5,-31.87,32.13,354.25,-85.63,-154.66
20670,52.383858,-1.191477,172.74,19.88,4,152.97,17 / 18,2067010,2020-01-08 10:50:13:684,-7.1255,-2.9254,11.1046,0.0899,0.1235,9.8054,0.1565,0.1424,-0.1366,-19.06,-31.44,32.69,350.78,-85.52,-158.67
20671,52.383858,-1.191477,172.74,19.88,4,152.97,17 / 18,2067111,2020-01-08 10:50:13:785,-0.0307,0.2558,9.3222,0.0119,0.0263,9.8065,-0.0342,0.4639,-0.0857,-19.62,-31.56,32.5,355.31,-85.13,-153.12
20672,52.383858,-1.191477,172.74,19.88,4,152.97,17 / 18,2067210,2020-01-08 10:50:13:884,3.7823,2.008,8.6776,0.0309,0.0217,9.8065,-0.0739,0.457,-0.3317,-19.81,-32.12,32.38,355.74,-85.25,-151.94
20673,52.383858,-1.191477,172.74,19.88,4,152.97,17 / 18,2067311,2020-01-08 10:50:13:985,3.5593,2.0743,9.9912,-0.0305,-0.0344,9.8065,0.0507,0.5317,-0.3559,-19.56,-31.06,31.88,356.38,-85.31,-151.36
20674,52.383858,-1.191477,172.74,19.88,4,152.97,17 / 18,2067411,2020-01-08 10:50:14:085,-0.1858,0.9715,8.9288,0.0392,-0.0066,9.8065,0.0261,0.471,-0.28,-19.81,-30.69,31.13,354.31,-85.4,-152.46
20675,52.383858,-1.191477,172.74,19.88,4,152.97,17 / 18,2067511,2020-01-08 10:50:14:185,-2.7181,-0.6313,10.5583,-0.027,-0.0653,9.8063,-0.0012,0.1959,-0.1227,-19.5,-31.12,31.81,357.75,-85.46,-151.4
20676,52.383858,-1.191477,172.74,19.88,4,152.97,17 / 18,2067610,2020-01-08 10:50:14:284,0.4588,0.2483,10.3025,0.0011,-0.0361,9.8065,0.0424,0.0582,-0.0536,-20.25,-31.31,31.56,358.1,-85.15,-149.76
20677,52.383858,-1.191477,172.74,19.88,4,152.97,17 / 18,2067711,2020-01-08 10:50:14:385,-1.4557,-1.615,10.6808,0.0021,-0.0242,9.8066,0.0799,-0.1828,0.0049,-19.75,-30.62,32.19,355.41,-85.2,-152.25
20678,52.383858,-1.191477,172.74,19.88,4,152.97,17 / 18,2067811,2020-01-08 10:50:14:485,0.5085,0.8309,9.4596,-0.0058,-0.0011,9.8066,-0.0811,-0.2275,0.053,-19.69,-30.87,31.88,354.4,-85.23,-153.19
20679,52.383858,-1.191477,172.74,19.88,4,152.97,17 / 18,2067910,2020-01-08 10:50:14:584,0.2484,0.3953,9.8518,0.0211,0.025,9.8066,-0.0231,-0.0989,0.072,-19.44,-31.44,32.38,355.1,-85.34,-153.86
20680,52.383858,-1.191477,172.74,19.88,4,152.97,17 / 18,2068011,2020-01-08 10:50:14:685,-2.3869,-2.0259,10.6995,0.0057,0.0059,9.8066,0.0344,-0.1525,-0.0119,-19.75,-31.75,32.25,352.31,-85.43,-155.14
20681,52.383858,-1.191477,172.74,19.88,4,152.97,17 / 18,2068111,2020-01-08 10:50:14:785,2.2749,1.5938,10.0646,0.051,0.0194,9.8065,0.0229,-0.0925,0.1572,-19.62,-31.37,32.19,352.02,-85.33,-155.42
20682,52.383858,-1.191477,172.74,19.88,4,152.97,17 / 18,2068211,2020-01-08 10:50:14:885,-1.6806,-0.3558,9.1484,-0.0085,-0.0203,9.8065,0.0673,-0.1351,0.163,-19.5,-31.69,32.5,357.45,-85.22,-152.43
20683,52.383858,-1.191477,172.74,19.88,4,152.97,17 / 17,2068311,2020-01-08 10:50:14:985,-0.7412,-0.105,10.3605,0.0295,0.0088,9.8065,0.121,0.0418,-0.1363,-19.56,-31.31,32.06,355.15,-85.34,-152.5
20684,52.383858,-1.191477,172.74,19.88,4,152.97,17 / 17,2068411,2020-01-08 10:50:15:085,-2.966,-0.3473,9.0816,0.0586,-0.0109,9.8064,0.1449,0.2889,-0.168,-19.87,-31.94,31.88,352.27,-85.34,-155.17
20685,52.383858,-1.191477,172.74,19.88,4,152.97,17 / 17,2068511,2020-01-08 10:50:15:185,1.7058,0.6542,9.5462,0.0108,0.0158,9.8066,0.1492,0.3107,-0.1682,-19.75,-31.06,32.06,354.28,-85.23,-153.3
20686,52.383858,-1.191477,172.74,19.88,4,152.97,17 / 17,2068610,2020-01-08 10:50:15:284,-1.6832,-0.3264,10.0563,0.0444,0.0157,9.8064,0.0439,0.3434,-0.2602,-19.44,-31.87,31.81,354.52,-85.34,-154.38
20687,52.383858,-1.191477,172.74,19.88,4,152.97,17 / 17,2068711,2020-01-08 10:50:15:385,-0.7144,0.4107,9.785,-0.0043,0.0135,9.8066,0.0232,0.2711,-0.1916,-19.0,-31.94,32.56,357.25,-85.43,-152.63
20688,52.383858,-1.191477,172.74,19.88,4,152.97,17 / 17,2068812,2020-01-08 10:50:15:486,0.7729,0.3824,9.727,0.042,0.0118,9.8065,0.0544,0.117,-0.0667,-19.0,-32.06,31.38,353.74,-85.58,-154.31
20689,52.383858,-1.191477,172.74,19.88,4,152.97,17 / 17,2068911,2020-01-08 10:50:15:585,-2.8801,-1.2751,9.8394,-0.0358,-0.0268,9.8065,0.0061,-0.1318,0.0977,-19.37,-31.56,31.88,357.39,-85.51,-151.73
20690,52.383858,-1.191477,172.74,19.88,4,152.97,17 / 17,2069010,2020-01-08 10:50:15:684,2.5549,0.8966,8.8306,-0.0075,-0.0031,9.8066,0.0988,-0.2262,0.149,-19.19,-31.62,32.0,356.36,-85.58,-152.69
20691,52.383858,-1.191477,172.74,19.88,4,152.97,17 / 17,2069110,2020-01-08 10:50:15:784,-3.3842,-2.3035,10.1274,-0.0535,-0.0228,9.8064,0.0379,-0.4053,0.1905,-19.19,-31.37,31.75,0.41,-85.66,-148.92
20692,52.383858,-1.191477,172.74,19.88,4,152.97,17 / 17,2069211,2020-01-08 10:50:15:885,0.1177,0.5864,9.289,-0.0393,-0.0211,9.8065,0.1336,-0.4109,-0.0463,-19.44,-31.62,31.69,0.46,-85.64,-148.87
20693,52.383858,-1.191477,172.74,19.88,4,152.97,17 / 17,2069310,2020-01-08 10:50:15:984,-7.7371,-3.7695,10.0332,0.0769,-0.0253,9.8063,0.1234,-0.3692,0.0595,-19.12,-31.37,32.31,359.17,-85.63,-150.08
20694,52.383858,-1.191477,172.74,19.88,4,152.97,17 / 17,2069410,2020-01-08 10:50:16:084,6.4321,3.8217,9.9393,-0.0952,-0.079,9.8058,0.1114,0.1819,-0.011,-18.69,-31.69,32.25,355.83,-85.49,-153.18
20695,52.383858,-1.191477,172.74,19.88,4,152.97,17 / 17,2069510,2020-01-08 10:50:16:184,-6.7196,-1.6955,10.1478,0.0751,0.0268,9.8062,0.0194,0.3585,-0.3073,-19.06,-31.87,31.75,353.67,-85.79,-155.21
20696,52.383858,-1.191477,172.74,19.88,4,152.97,17 / 17,2069610,2020-01-08 10:50:16:284,-0.3215,0.2254,10.3234,-0.0491,-0.0199,9.8064,-0.0674,0.8218,-0.4491,-19.31,-32.06,32.06,353.97,-85.81,-154.93
20697,52.383858,-1.191477,172.74,19.88,4,152.97,17 / 17,2069711,2020-01-08 10:50:16:385,6.8895,3.0051,9.3253,0.0863,0.0602,9.806,-0.0574,0.9296,-0.4691,-18.81,-32.31,31.5,354.05,-85.74,-154.86
20698,52.383858,-1.191477,172.74,19.88,4,152.97,17 / 17,2069811,2020-01-08 10:50:16:485,-7.0632,-3.6597,10.674,0.0063,0.0558,9.8064,0.079,0.7961,-0.6183,-18.75,-31.81,32.31,350.95,-85.85,-157.77
20699,52.383858,-1.191477,172.74,19.88,4,152.97,17 / 17,2069911,2020-01-08 10:50:16:585,0.2267,0.8533,8.894,0.0902,0.0361,9.8061,0.0891,0.6644,-0.4471,-18.75,-32.31,31.75,347.57,-85.66,-160.89
20700,52.383858,-1.191477,172.74,19.88,4,152.97,17 / 17,2070011,2020-01-08 10:50:16:685,-1.9511,-1.3797,10.823,0.031,0.0638,9.8064,0.1346,0.2736,-0.1681,-19.06,-31.44,32.06,350.41,-85.78,-158.28
20701,52.383858,-1.191477,172.74,19.88,4,152.97,17 / 17,2070111,2020-01-08 10:50:16:785,4.1026,1.6151,8.9218,0.0493,0.0044,9.8065,0.1086,0.0917,-0.0956,-18.56,-31.19,32.0,349.39,-85.69,-159.22
20702,52.383858,-1.191477,172.74,19.88,4,152.97,17 / 17,2070211,2020-01-08 10:50:16:885,-3.4122,-0.8008,9.2796,0.0535,0.04,9.8063,0.2001,-0.1976,0.0445,-19.0,-31.87,32.0,350.21,-85.89,-158.47
20703,52.383858,-1.191477,172.74,19.88,4,152.97,17 / 17,2070311,2020-01-08 10:50:16:985,0.6157,-0.0916,11.5855,0.0499,-0.047,9.8063,0.1418,-0.1691,0.0755,-19.0,-31.19,31.19,351.21,-85.95,-156.74
20704,52.383858,-1.191477,172.74,19.88,4,152.97,17 / 17,2070411,2020-01-08 10:50:17:085,-1.7652,-0.4112,8.8589,0.066,-0.0184,9.8063,-0.0868,-0.2116,0.1401,-19.25,-31.44,31.94,347.55,-85.61,-160.92
20705,52.383858,-1.191477,172.74,19.88,4,152.97,17 / 17,2070510,2020-01-08 10:50:17:184,0.299,0.0926,10.5277,-0.0199,-0.0113,9.8066,-0.0755,-0.18,0.1209,-19.12,-32.25,31.25,348.85,-85.56,-158.86
20706,52.383858,-1.191477,172.74,19.88,4,152.97,17 / 17,2070611,2020-01-08 10:50:17:285,0.4551,0.5971,9.8495,-0.0058,-0.0027,9.8066,-0.0508,-0.1461,0.0827,-19.31,-31.44,31.69,352.57,-85.54,-156.23
20707,52.383858,-1.191477,172.74,19.88,4,152.97,17 / 17,2070710,2020-01-08 10:50:17:384,-1.4659,-0.2396,9.2545,-0.0351,-0.0102,9.8065,-0.0013,-0.1391,0.065,-18.87,-31.69,31.94,353.21,-85.62,-155.62
20708,52.383858,-1.191477,172.74,19.88,4,152.97,17 / 17,2070810,2020-01-08 10:50:17:484,1.7718,1.9337,9.2611,-0.0201,0.0067,9.8065,0.0907,-0.0831,0.0707,-19.56,-31.87,32.25,354.06,-85.68,-153.54
20709,52.383858,-1.191477,172.74,19.88,4,152.97,17 / 17,2070911,2020-01-08 10:50:17:585,-0.3406,-0.0812,10.8313,-0.003,-0.0441,9.8065,0.0757,0.048,0.0344,-18.81,-31.62,31.75,355.83,-85.57,-153.18
20710,52.383858,-1.191477,172.74,19.88,4,152.97,17 / 17,2071011,2020-01-08 10:50:17:685,0.6565,0.5357,9.0726,-0.0122,-0.0306,9.8065,-0.0308,0.1155,-0.0633,-18.87,-31.5,32.38,357.34,-85.58,-151.78
20711,52.383858,-1.191477,172.74,19.88,4,152.97,17 / 17,2071111,2020-01-08 10:50:17:785,-1.9061,0.0253,10.4975,-0.0227,-0.0012,9.8065,-0.1221,0.145,-0.0902,-19.37,-31.81,31.81,358.06,-85.66,-151.11
20712,52.383858,-1.191477,172.74,19.88,4,152.97,18 / 18,2071211,2020-01-08 10:50:17:885,0.6034,1.0572,10.6041,-0.0136,-0.0031,9.8066,0.0318,-0.0201,-0.0363,-19.44,-31.62,31.06,359.31,-85.74,-149.14
20713,52.383858,-1.191477,172.74,19.88,4,152.97,18 / 18,2071310,2020-01-08 10:50:17:984,0.7893,0.0849,9.547,-0.0432,0.0138,9.8065,0.0543,0.0116,-0.0114,-19.75,-31.81,31.63,358.05,-85.87,-149.82
20714,52.383858,-1.191477,172.74,19.88,4,152.97,18 / 18,2071411,2020-01-08 10:50:18:085,1.3083,0.5026,10.6317,-0.0233,0.0055,9.8065,0.0919,0.0043,-0.0606,-19.31,-31.62,31.88,1.38,-85.87,-148.01
20715,52.383858,-1.191477,172.74,19.88,4,152.97,18 / 18,2071510,2020-01-08 10:50:18:184,-2.5529,-0.9726,9.7548,-0.058,-0.0114,9.8064,0.117,0.1571,-0.1119,-19.69,-31.75,32.25,357.95,-85.88,-149.91
20716,52.383858,-1.191477,172.74,19.88,4,152.97,18 / 18,2071611,2020-01-08 10:50:18:285,3.4816,0.3735,10.551,-0.0323,-0.0355,9.8065,-0.0103,0.2677,-0.1645,-19.12,-31.81,31.44,2.31,-85.65,-146.35
20717,52.383858,-1.191477,172.74,19.88,4,152.97,18 / 18,2071711,2020-01-08 10:50:18:385,-2.3201,-1.5779,9.7904,0.011,0.0124,9.8066,-0.065,0.3436,-0.1661,-19.75,-31.81,31.94,1.16,-85.81,-146.91
20718,52.383858,-1.191477,172.74,19.88,4,152.97,18 / 18,2071811,2020-01-08 10:50:18:485,1.5639,1.6002,9.2918,0.0285,0.0004,9.8065,-0.1073,0.2996,-0.1458,-19.37,-31.75,31.25,2.24,-85.87,-146.4
20719,52.383858,-1.191477,172.74,19.88,4,152.97,18 / 18,2071910,2020-01-08 10:50:18:584,-1.8371,-0.8617,10.3285,0.019,0.0296,9.8065,-0.0423,0.249,-0.1183,-19.37,-32.0,31.88,4.14,-85.99,-145.42
20720,52.383858,-1.191477,172.74,19.88,4,152.97,18 / 18,2072011,2020-01-08 10:50:18:685,-0.184,-1.372,11.1137,0.0215,-0.0434,9.8065,0.0988,0.1682,-0.1212,-19.56,-31.56,31.81,4.52,-86.04,-143.75
20721,52.383858,-1.191477,172.74,19.88,4,152.97,18 / 18,2072111,2020-01-08 10:50:18:785,-0.5103,0.7266,8.4911,0.0423,-0.0021,9.8066,0.1131,0.0931,-0.1512,-19.56,-31.87,31.81,1.28,-85.96,-146.79
20722,52.383858,-1.191477,172.74,19.88,4,152.97,18 / 18,2072211,2020-01-08 10:50:18:885,-0.8302,-0.7979,10.5282,0.0067,-0.0202,9.8066,0.1347,0.0582,-0.0679,-19.5,-31.75,31.25,2.52,-86.13,-146.13
20723,52.383858,-1.191477,172.74,19.88,4,152.97,18 / 18,2072315,2020-01-08 10:50:18:989,-1.5884,0.4569,9.9926,0.0503,-0.0081,9.8065,0.0125,0.0808,-0.1045,-19.5,-31.69,32.0,357.94,-86.09,-151.23
20724,52.383858,-1.191477,172.74,19.88,4,152.97,18 / 18,2072411,2020-01-08 10:50:19:085,0.9887,0.0098,10.1862,-0.0145,-0.0162,9.8066,-0.0405,0.1022,-0.0472,-19.5,-32.56,31.81,0.07,-85.97,-149.23
20725,52.383858,-1.191477,172.74,19.88,4,152.97,18 / 18,2072511,2020-01-08 10:50:19:185,-1.3315,-1.1933,10.5783,0.0012,0.0103,9.8066,0.0018,0.1881,-0.0322,-19.56,-31.81,32.25,359.09,-85.85,-148.85
20726,52.383858,-1.191477,172.74,19.88,4,152.97,18 / 18,2072611,2020-01-08 10:50:19:285,1.13,0.8935,10.2223,0.0183,-0.0213,9.8066,0.1365,0.0617,-0.1196,-20.31,-32.0,32.13,2.7,-85.73,-145.47
20727,52.383858,-1.191477,172.74,19.88,4,152.97,18 / 18,2072711,2020-01-08 10:50:19:385,-0.659,0.218,8.5399,0.0153,-0.0008,9.8066,0.162,0.035,-0.0328,-19.87,-31.37,32.06,3.79,-85.67,-144.45
20728,52.383858,-1.191477,172.74,19.88,4,152.97,18 / 18,2072811,2020-01-08 10:50:19:485,0.3081,-0.2656,10.4668,0.0069,-0.024,9.8066,0.1095,0.0287,-0.019,-19.94,-31.37,31.38,4.29,-85.62,-143.17
20729,52.383858,-1.191477,172.74,19.88,4,152.97,18 / 18,2072910,2020-01-08 10:50:19:584,-1.8447,-0.3695,9.1661,0.033,0.0084,9.8066,0.0478,0.0233,-0.0724,-19.94,-31.69,31.88,5.2,-85.64,-143.15
20730,52.383858,-1.191477,172.74,19.88,4,152.97,18 / 18,2073011,2020-01-08 10:50:19:685,0.9393,-0.0276,10.5889,-0.0042,-0.0063,9.8066,0.0417,-0.0576,0.0495,-19.69,-31.5,31.19,4.96,-85.76,-142.54
20731,52.383858,-1.191477,172.74,19.88,4,152.97,18 / 18,2073111,2020-01-08 10:50:19:785,1.1313,1.0646,9.3362,0.0482,-0.008,9.8065,-0.0209,-0.2177,0.0944,-19.87,-31.56,31.25,1.81,-85.86,-145.48
20732,52.383858,-1.191477,172.74,19.88,4,152.97,18 / 18,2073211,2020-01-08 10:50:19:885,-2.8901,-0.7019,10.3482,-0.0356,-0.014,9.8065,-0.0119,-0.3174,0.1659,-19.31,-31.62,31.5,4.27,-86.09,-145.29
20733,52.38248,-1.190299,169.45,18.3,4,152.54,19 / 19,2073310,2020-01-08 10:50:19:984,0.3008,0.2015,8.9344,0.006,-0.0431,9.8065,-0.0592,-0.1644,0.137,-19.56,-31.69,31.25,1.79,-85.92,-145.5
20734,52.38248,-1.190299,169.45,18.3,4,152.54,19 / 19,2073411,2020-01-08 10:50:20:085,-2.184,-1.3733,10.022,-0.0142,0.0013,9.8066,-0.128,0.0198,-0.0146,-19.25,-31.56,31.31,2.82,-85.84,-145.86
20735,52.38248,-1.190299,169.45,18.3,4,152.54,19 / 19,2073511,2020-01-08 10:50:20:185,-0.0478,0.1641,8.2734,-0.0376,-0.0197,9.8065,0.0239,0.1542,-0.1136,-19.87,-31.37,31.56,5.74,-85.83,-142.62
20736,52.38248,-1.190299,169.45,18.3,4,152.54,19 / 19,2073611,2020-01-08 10:50:20:285,-2.658,-1.0204,9.9762,0.0298,0.0107,9.8066,0.0279,0.188,-0.2122,-19.44,-31.62,30.94,4.08,-86.21,-144.66
20737,52.38248,-1.190299,169.45,18.3,4,152.54,19 / 19,2073711,2020-01-08 10:50:20:385,2.1812,2.8146,9.7397,0.0023,-0.0458,9.8065,-0.0024,0.288,-0.229,-19.19,-31.25,31.31,1.15,-86.21,-147.42
20738,52.38248,-1.190299,169.45,18.3,4,152.54,19 / 19,2073810,2020-01-08 10:50:20:484,-3.0415,-2.3636,11.652,0.028,0.0118,9.8065,-0.0657,0.4752,-0.2571,-19.44,-30.87,31.56,357.86,-86.18,-151.32
20739,52.38248,-1.190299,169.45,18.3,4,152.54,19 / 19,2073910,2020-01-08 10:50:20:584,3.3598,2.0512,10.2647,-0.0219,-0.0273,9.8066,-0.0376,0.481,-0.2541,-19.5,-32.06,31.5,356.57,-85.92,-152.51
20740,52.38248,-1.190299,169.45,18.3,4,152.54,19 / 19,2074011,2020-01-08 10:50:20:685,1.273,1.9368,9.1097,0.0336,0.0325,9.8065,0.0498,0.4342,-0.2079,-19.75,-31.75,31.88,357.78,-85.69,-150.07
20741,52.38248,-1.190299,169.45,18.3,4,152.54,19 / 19,2074110,2020-01-08 10:50:20:784,-2.2063,-0.5531,10.1533,-0.0038,0.0123,9.8066,0.0429,0.09,0.0133,-20.0,-31.44,31.63,359.05,-85.59,-148.88
20742,52.38248,-1.190299,169.45,18.3,4,152.54,18 / 18,2074210,2020-01-08 10:50:20:884,1.8462,0.8396,10.5549,0.0173,-0.0071,9.8066,0.0578,-0.0209,0.0407,-19.69,-31.06,32.25,2.58,-85.27,-145.6
20743,52.38248,-1.190299,169.45,18.3,4,152.54,18 / 18,2074311,2020-01-08 10:50:20:985,-0.8372,-0.6498,9.6182,0.0123,-0.0127,9.8065,-0.0939,-0.0772,0.2192,-20.56,-31.37,31.75,4.98,-85.11,-142.1
20744,52.38248,-1.190299,169.45,18.3,4,152.54,18 / 18,2074411,2020-01-08 10:50:21:085,0.2089,0.0572,9.9106,-0.0057,0.0221,9.8066,-0.0069,-0.1319,0.1097,-19.94,-30.94,31.75,9.65,-84.8,-139.1
20745,52.38248,-1.190299,169.45,18.3,4,152.54,18 / 18,2074511,2020-01-08 10:50:21:185,-1.5857,-0.1373,11.0724,0.0087,0.0357,9.8065,0.0385,-0.0078,0.0117,-20.62,-30.62,31.5,8.93,-85.0,-138.46
20746,52.38248,-1.190299,169.45,18.3,4,152.54,18 / 18,2074611,2020-01-08 10:50:21:285,1.5823,0.8746,9.8778,0.0304,0.0165,9.8065,0.0747,-0.0796,-0.0247,-20.31,-31.75,31.81,8.36,-84.89,-140.3
20747,52.38248,-1.190299,169.45,18.3,4,152.54,18 / 18,2074711,2020-01-08 10:50:21:385,-3.0184,-1.816,9.16,0.0052,0.0364,9.8065,0.1442,-0.1329,0.128,-20.12,-30.94,32.38,6.37,-84.85,-142.12
20748,52.38248,-1.190299,169.45,18.3,4,152.54,18 / 18,2074811,2020-01-08 10:50:21:485,2.3646,-0.6152,12.4401,0.0858,-0.0079,9.8062,0.0487,-0.4106,0.3216,-19.87,-31.0,32.06,8.42,-84.96,-140.21
20749,52.38248,-1.190299,169.45,18.3,4,152.54,18 / 18,2074910,2020-01-08 10:50:21:584,-2.8107,-1.8605,10.4939,0.0928,0.029,9.8062,-0.053,-0.6416,0.356,-19.75,-31.12,32.0,2.87,-84.96,-145.35
20750,52.38248,-1.190299,169.45,18.3,4,152.54,18 / 18,2075010,2020-01-08 10:50:21:684,5.8216,3.3234,8.9263,0.064,0.0158,9.8064,-0.0296,-0.7003,0.4695,-19.94,-31.44,32.06,2.81,-85.04,-145.39
20751,52.38248,-1.190299,169.45,18.3,4,152.54,18 / 18,2075111,2020-01-08 10:50:21:785,0.1692,-1.3405,10.115,0.0591,0.0915,9.806,0.0398,-0.3296,0.2715,-19.62,-31.62,31.75,359.19,-85.51,-148.74
20752,52.38248,-1.190299,169.45,18.3,4,152.54,18 / 18,2075211,2020-01-08 10:50:21:885,-0.0972,1.7269,8.4145,0.0035,0.0011,9.8066,0.0097,-0.0928,0.0394,-19.44,-31.12,30.94,2.34,-85.57,-146.32
20753,52.38248,-1.190299,169.45,18.3,4,152.54,18 / 18,2075311,2020-01-08 10:50:21:985,-1.1871,0.0841,10.0361,0.025,0.0119,9.8066,-0.0187,-0.0446,0.133,-19.69,-31.31,32.06,0.18,-85.68,-147.83
20754,52.38248,-1.190299,169.45,18.3,4,152.54,18 / 18,2075410,2020-01-08 10:50:22:084,-0.3015,-1.7543,12.6651,0.0387,-0.0576,9.8064,-0.2562,0.0169,-0.0841,-20.25,-31.44,31.56,1.2,-85.57,-146.88
20755,52.38248,-1.190299,169.45,18.3,4,152.54,18 / 18,2075511,2020-01-08 10:50:22:185,-2.0827,0.0812,7.773,0.0603,-0.0527,9.8063,-0.2504,0.1985,-0.0405,-19.75,-31.56,32.06,354.33,-85.23,-153.25
20756,52.38248,-1.190299,169.45,18.3,4,152.54,18 / 18,2075611,2020-01-08 10:50:22:285,-3.2243,-1.4524,10.7564,-0.0404,0.0277,9.8064,-0.0482,0.4191,-0.232,-19.25,-31.19,31.5,354.45,-85.37,-154.46
20757,52.38248,-1.190299,169.45,18.3,4,152.54,18 / 18,2075711,2020-01-08 10:50:22:385,3.006,0.5173,11.6108,-0.0315,-0.0562,9.8064,0.0741,0.4432,-0.384,-20.31,-31.37,32.75,357.14,-85.48,-151.45
20758,52.38248,-1.190299,169.45,18.3,4,152.54,18 / 18,2075810,2020-01-08 10:50:22:484,-2.0197,-2.2901,10.1386,-0.0531,0.0271,9.8064,0.1693,0.2648,-0.2675,-19.69,-31.87,31.81,356.12,-85.89,-151.63
20759,52.38248,-1.190299,169.45,18.3,4,152.54,18 / 18,2075911,2020-01-08 10:50:22:585,2.0116,1.4829,10.1759,-0.043,-0.0168,9.8065,0.0536,0.2312,-0.1713,-19.69,-31.69,30.94,352.68,-85.79,-154.01
20760,52.38248,-1.190299,169.45,18.3,4,152.54,18 / 18,2076011,2020-01-08 10:50:22:685,-1.1567,-1.3313,10.5574,0.0065,-0.0215,9.8066,-0.0586,0.0673,-0.1234,-19.12,-31.56,32.44,350.81,-85.97,-157.91
20761,52.38248,-1.190299,169.45,18.3,4,152.54,18 / 18,2076111,2020-01-08 10:50:22:785,0.4961,1.349,9.3723,-0.0046,-0.0227,9.8065,-0.022,0.0591,-0.0886,-19.62,-31.62,31.44,347.29,-85.85,-159.06
20762,52.38248,-1.190299,169.45,18.3,4,152.54,18 / 18,2076210,2020-01-08 10:50:22:884,-0.5174,0.6887,9.2841,-0.0415,0.0067,9.8065,0.0664,-0.0363,0.0078,-19.44,-31.31,31.81,355.61,-85.86,-153.41
20763,52.38248,-1.190299,169.45,18.3,4,152.54,18 / 19,2076310,2020-01-08 10:50:22:984,-0.2898,0.0615,10.5089,0.0102,-0.0035,9.8066,-0.0863,0.0152,0.0454,-19.44,-31.87,31.94,356.26,-85.75,-152.8
20764,52.38248,-1.190299,169.45,18.3,4,152.54,18 / 19,2076413,2020-01-08 10:50:23:087,-3.1878,-1.884,11.4717,0.0404,-0.028,9.8065,-0.0993,0.1382,0.1518,-19.12,-31.5,32.0,358.38,-85.7,-150.81
20765,52.38248,-1.190299,169.45,18.3,4,152.54,18 / 19,2076511,2020-01-08 10:50:23:185,0.5544,0.453,7.9431,-0.0206,-0.0881,9.8062,-0.0535,-0.0367,0.0323,-20.0,-31.81,31.38,354.8,-85.29,-151.99
20766,52.38248,-1.190299,169.45,18.3,4,152.54,18 / 19,2076610,2020-01-08 10:50:23:284,0.2155,-2.5029,13.1996,-0.0149,0.0297,9.8065,0.2724,-0.4071,0.0402,-20.37,-31.94,32.06,355.89,-85.63,-151.83
20767,52.38248,-1.190299,169.45,18.3,4,152.54,18 / 19,2076711,2020-01-08 10:50:23:385,-1.0206,-0.1112,7.927,0.0338,-0.0132,9.8066,0.4982,-0.4376,0.143,-19.56,-30.87,31.5,356.23,-85.49,-151.51
20768,52.38248,-1.190299,169.45,18.3,4,152.54,18 / 19,2076810,2020-01-08 10:50:23:484,1.1251,1.1525,8.9179,-0.025,0.0839,9.8062,0.1118,0.016,0.0224,-19.56,-31.94,31.5,357.99,-85.23,-149.85
20769,52.38248,-1.190299,169.45,18.3,4,152.54,18 / 19,2076911,2020-01-08 10:50:23:585,-1.9075,-2.0294,12.3722,-0.0199,0.0953,9.8061,-0.0663,0.1486,-0.1143,-19.87,-31.44,31.56,359.34,-85.76,-148.61
20770,52.38248,-1.190299,169.45,18.3,4,152.54,18 / 19,2077011,2020-01-08 10:50:23:685,-2.1243,-0.2886,10.2525,0.006,-0.017,9.8065,-0.2161,0.4503,-0.1812,-20.19,-31.87,31.31,357.8,-85.6,-149.22
20771,52.38248,-1.190299,169.45,18.3,4,152.54,18 / 19,2077111,2020-01-08 10:50:23:785,0.4617,0.7766,9.3981,0.0104,0.0254,9.8065,-0.181,0.383,-0.2428,-19.94,-31.31,31.94,356.42,-85.82,-151.35
20772,52.38248,-1.190299,169.45,18.3,4,152.54,17 / 17,2077211,2020-01-08 10:50:23:885,-1.8599,-1.2935,10.6417,-0.0052,-0.0229,9.8065,-0.1045,0.1947,-0.0787,-19.37,-32.12,32.13,356.55,-85.78,-152.52
20773,52.38248,-1.190299,169.45,18.3,4,152.54,17 / 17,2077311,2020-01-08 10:50:23:985,1.013,0.5338,10.0678,0.0058,0.0282,9.8066,-0.0223,0.0142,-0.0251,-19.75,-32.12,31.44,355.57,-85.71,-151.31
20774,52.38248,-1.190299,169.45,18.3,4,152.54,17 / 17,2077411,2020-01-08 10:50:24:085,-1.3832,-0.2328,11.0666,0.0246,-0.0318,9.8065,0.0429,-0.1027,0.0695,-19.19,-31.19,32.06,355.95,-85.52,-153.08
20775,52.38248,-1.190299,169.45,18.3,4,152.54,17 / 17,2077511,2020-01-08 10:50:24:185,0.5177,-0.0351,10.215,-0.0038,-0.0292,9.8066,0.0477,-0.0917,0.0706,-19.44,-31.81,31.81,356.09,-85.47,-152.94
20776,52.38248,-1.190299,169.45,18.3,4,152.54,17 / 17,2077611,2020-01-08 10:50:24:285,-2.4908,0.7989,8.1309,-0.0426,0.028,9.8064,-0.0452,0.1948,-0.0206,-19.06,-32.0,32.06,352.06,-85.37,-156.67
20777,52.38248,-1.190299,169.45,18.3,4,152.54,17 / 17,2077711,2020-01-08 10:50:24:385,3.2684,1.1773,10.1468,-0.0557,0.0483,9.8063,-0.1578,0.259,-0.0875,-19.5,-31.44,31.81,353.5,-85.74,-155.38
20778,52.38248,-1.190299,169.45,18.3,4,152.54,17 / 17,2077811,2020-01-08 10:50:24:485,1.7016,1.6413,7.8576,-0.0653,-0.0037,9.8064,-0.3269,0.2501,-0.0055,-19.31,-32.06,30.81,357.13,-85.79,-151.17
20779,52.38248,-1.190299,169.45,18.3,4,152.54,17 / 17,2077911,2020-01-08 10:50:24:585,-3.7573,-1.3538,12.3305,-0.0479,0.0446,9.8064,-0.219,0.3676,-0.0564,-20.0,-31.31,31.25,356.4,-85.96,-150.55
20780,52.38248,-1.190299,169.45,18.3,4,152.54,17 / 17,2078011,2020-01-08 10:50:24:685,-0.5707,-0.6754,10.6642,-0.022,-0.1181,9.8059,-0.0235,0.2475,-0.2082,-20.44,-31.5,31.13,356.65,-85.29,-150.28
20781,52.38248,-1.190299,169.45,18.3,4,152.54,17 / 17,2078111,2020-01-08 10:50:24:785,3.545,0.9687,8.0209,-0.0033,-0.0164,9.8066,0.117,-0.1063,0.2193,-20.06,-31.12,31.19,356.19,-85.55,-150.73
20782,52.38248,-1.190299,169.45,18.3,4,152.54,17 / 17,2078210,2020-01-08 10:50:24:884,-5.7264,-3.202,10.9508,-0.0822,-0.087,9.8059,0.1494,-0.2752,0.2591,-20.25,-31.56,31.19,2.7,-85.28,-144.67
20783,52.38248,-1.190299,169.45,18.3,4,152.54,18 / 19,2078310,2020-01-08 10:50:24:984,-0.6459,1.7305,7.9257,-0.0323,-0.0512,9.8064,0.0937,-0.4923,0.2317,-19.44,-31.56,31.75,3.03,-85.56,-146.48
20784,52.38248,-1.190299,169.45,18.3,4,152.54,18 / 19,2078411,2020-01-08 10:50:25:085,-4.0092,-1.5871,10.111,-0.0729,0.008,9.8063,0.0487,-0.4324,0.3007,-20.31,-30.62,31.13,0.53,-85.74,-146.68
20785,52.38248,-1.190299,169.45,18.3,4,152.54,18 / 19,2078511,2020-01-08 10:50:25:185,4.9443,0.9628,11.1086,-0.074,-0.025,9.8063,-0.1658,-0.4802,0.3641,-19.75,-29.44,31.94,7.48,-85.7,-140.97
20786,52.38248,-1.190299,169.45,18.3,4,152.54,18 / 19,2078611,2020-01-08 10:50:25:285,-3.005,0.271,9.5512,-0.0384,-0.003,9.8065,-0.1443,-0.3878,0.3518,-18.75,-28.87,31.38,8.3,-85.66,-140.72
20787,52.38248,-1.190299,169.45,18.3,4,152.54,18 / 19,2078710,2020-01-08 10:50:25:384,0.8179,2.0504,9.4844,-0.0417,-0.0401,9.8065,0.0639,-0.1939,0.156,-19.75,-28.56,31.38,2.46,-85.4,-144.87
20788,52.38248,-1.190299,169.45,18.3,4,152.54,18 / 19,2078811,2020-01-08 10:50:25:485,-0.5304,-0.4812,10.1845,-0.0019,0.0179,9.8066,0.0316,-0.0953,-0.0621,-19.12,-29.06,32.38,1.27,-85.37,-148.12
20789,52.38248,-1.190299,169.45,18.3,4,152.54,18 / 19,2078911,2020-01-08 10:50:25:585,-2.8377,-2.0111,11.2928,0.0041,-0.0042,9.8066,-0.1282,0.1606,-0.0925,-20.06,-29.62,31.81,0.79,-85.36,-147.26
20790,52.38248,-1.190299,169.45,18.3,4,152.54,18 / 19,2079011,2020-01-08 10:50:25:685,1.8426,1.2087,8.5716,0.0056,0.0586,9.8065,-0.1242,0.3414,-0.0813,-19.87,-29.81,32.0,1.2,-85.31,-146.88
20791,52.38248,-1.190299,169.45,18.3,4,152.54,18 / 19,2079110,2020-01-08 10:50:25:784,0.2291,-1.0104,10.7499,-0.0057,0.0364,9.8065,-0.2047,0.34,-0.2361,-19.69,-30.0,32.5,2.45,-85.6,-146.48
20792,52.38248,-1.190299,169.45,18.3,4,152.54,18 / 19,2079210,2020-01-08 10:50:25:884,0.0071,1.9225,8.7195,0.0121,0.0242,9.8066,-0.1315,0.1762,-0.1229,-19.69,-30.56,31.94,2.54,-85.37,-145.63
20793,52.38248,-1.190299,169.45,18.3,4,152.54,17 / 17,2079311,2020-01-08 10:50:25:985,0.1827,0.2529,10.5762,-0.0247,0.0194,9.8065,-0.0236,-0.0485,0.1182,-19.5,-30.56,32.44,5.37,-85.37,-144.31
