,GPS LATITUDE (degrees), GPS LONGITUDE (degrees), GPS ALTITUDE (m), GPS SPEED (Kmh), GPS ACCURACY (m), GPS ORIENTATION (Â°),GPS SATELLITES IN RANGE, TIME SINCE START (ms), DATE (YYYY-MO-DD HH-MI-SS_SSS), ACCELEROMETER X (m/s²) , ACCELEROMETER Y (m/s²), ACCELEROMETER Z (m/s²), GRAVITY X (m/s²), GRAVITY Y (m/s²), GRAVITY Z (m/s²), GYROSCOPE Yaw (rad/s), GYROSCOPE Pitch (rad/s), GYROSCOPE Roll (rad/s), MAGNETIC FIELD X (Î¼T), MAGNETIC FIELD Y (Î¼T), MAGNETIC FIELD Z (Î¼T), ORIENTATION (Yaw) (Â°), ORIENTATION (Pitch) (Â°), ORIENTATION (Roll ) (Â°)
76118,52.518562,-1.442614,145.47,7.5,3,338.24,24 / 24,7425410,2019-09-08 14:10:44:649,-0.2419,-1.0836,9.2411,0.0074,0.0132,9.8065,-0.0064,-0.0267,-0.0032,-3.94,-38.19,-7.5,201.67,-80.12,-170.94
76119,52.518562,-1.442614,145.47,7.5,3,338.24,24 / 24,7425510,2019-09-08 14:10:44:749,0.1227,-0.6472,10.0388,0.0174,0.0192,9.8065,-0.0042,-0.0106,-0.0037,-4.12,-37.5,-7.12,202.12,-79.89,-170.23
76120,52.518562,-1.442614,145.47,7.5,3,338.24,24 / 24,7425610,2019-09-08 14:10:44:849,0.4801,-1.1816,10.0926,0.0034,0.0297,9.8065,-0.0173,-0.0425,0.0164,-4.75,-37.37,-7.81,205.0,-79.84,-170.31
76121,52.518562,-1.442614,145.47,7.5,3,338.24,24 / 24,7425710,2019-09-08 14:10:44:949,0.7223,-2.0549,9.0153,-0.0032,-0.0322,9.8066,-0.0296,-0.1014,0.0255,-4.31,-37.87,-7.62,201.16,-79.85,-170.0
76122,52.518562,-1.442614,145.47,7.5,3,338.24,24 / 24,7425809,2019-09-08 14:10:45:048,0.819,-2.5829,9.4554,-0.004,-0.0288,9.8065,-0.0174,-0.1364,0.0422,-5.12,-37.81,-7.12,206.17,-79.93,-169.74
76123,52.518562,-1.442614,145.47,7.5,3,338.24,24 / 24,7425910,2019-09-08 14:10:45:149,0.7161,-0.5814,10.6911,0.0086,0.0323,9.8065,0.1258,-0.1216,-0.0135,-4.37,-37.75,-7.19,201.66,-79.66,-170.17
76124,52.518562,-1.442614,145.47,7.5,3,338.24,24 / 24,7426010,2019-09-08 14:10:45:249,1.3786,-0.5991,10.2983,-0.0028,-0.0085,9.8066,0.2102,-0.1375,0.0107,-5.06,-37.81,-7.12,205.89,-79.76,-169.89
76125,52.518562,-1.442614,145.47,7.5,3,338.24,24 / 24,7426110,2019-09-08 14:10:45:349,0.7706,-1.5411,9.7166,-0.0047,-0.0048,9.8066,-0.1685,-0.1317,0.0381,-5.81,-37.44,-7.56,208.83,-79.82,-169.97
76126,52.518562,-1.442614,145.47,7.5,3,338.24,24 / 24,7426210,2019-09-08 14:10:45:449,1.7209,-2.707,9.7899,0.0079,-0.0132,9.8066,-0.1633,-0.1998,0.0732,-5.69,-37.56,-7.31,210.28,-79.93,-169.3
76127,52.518562,-1.442614,145.47,7.5,3,338.24,24 / 24,7426310,2019-09-08 14:10:45:549,0.5713,-2.0236,9.9902,-0.0203,-0.031,9.8065,0.1687,-0.2003,0.0174,-6.12,-37.75,-7.44,210.66,-79.89,-168.58
76128,52.518562,-1.442614,145.47,7.5,3,338.24,24 / 24,7426410,2019-09-08 14:10:45:649,2.0672,-1.5789,10.1733,-0.0252,-0.0173,9.8065,0.1707,-0.2263,0.0344,-5.56,-37.5,-7.75,209.58,-80.13,-169.35
76129,52.518562,-1.442614,145.47,7.5,3,338.24,24 / 24,7426510,2019-09-08 14:10:45:749,1.2777,-2.2308,9.306,-0.0013,0.0234,9.8066,-0.126,-0.262,0.0235,-6.25,-37.81,-7.87,208.43,-80.0,-170.42
76130,52.518562,-1.442614,145.47,7.5,3,338.24,24 / 24,7426609,2019-09-08 14:10:45:848,1.3859,-2.3376,9.2272,-0.0083,0.0246,9.8065,-0.1517,-0.2479,-0.0017,-6.87,-37.56,-8.25,211.41,-79.96,-171.14
76131,52.518562,-1.442614,145.47,7.5,3,338.24,25 / 25,7426710,2019-09-08 14:10:45:949,1.3367,-1.8004,9.3113,-0.0094,0.0024,9.8066,0.0773,-0.2553,0.0315,-7.12,-37.19,-7.44,212.58,-80.06,-172.39
76132,52.518562,-1.442614,145.47,7.5,3,338.24,25 / 25,7426810,2019-09-08 14:10:46:049,1.7776,-2.4723,10.1379,-0.0089,0.0055,9.8065,0.0544,-0.284,0.0393,-7.81,-37.94,-7.81,213.62,-80.09,-173.02
76133,52.518562,-1.442614,145.47,7.5,3,338.24,25 / 25,7426910,2019-09-08 14:10:46:149,2.0967,-1.8784,9.7624,-0.0051,0.0105,9.8065,-0.0657,-0.2305,-0.0326,-8.37,-37.25,-8.06,213.42,-80.24,-174.09
76134,52.518562,-1.442614,145.47,7.5,3,338.24,25 / 25,7427010,2019-09-08 14:10:46:249,1.1983,-2.3269,9.6382,-0.0148,0.0028,9.8065,-0.002,-0.2981,-0.0202,-7.94,-37.44,-7.62,212.48,-80.29,-175.59
76135,52.518562,-1.442614,145.47,7.5,3,338.24,25 / 25,7427110,2019-09-08 14:10:46:349,0.8548,-2.5708,9.6291,-0.0079,-0.0131,9.8065,0.018,-0.2868,-0.0435,-8.56,-37.31,-8.0,215.08,-80.45,-176.54
76136,52.518562,-1.442614,145.47,7.5,3,338.24,25 / 25,7427213,2019-09-08 14:10:46:452,1.7406,-2.0896,9.126,-0.0155,-0.0035,9.8066,-0.0595,-0.347,0.0272,-9.06,-36.62,-8.37,214.61,-80.53,-177.35
76137,52.518562,-1.442614,145.47,7.5,3,338.24,25 / 25,7427310,2019-09-08 14:10:46:549,1.7475,-2.4138,9.1133,-0.0255,-0.0355,9.8065,0.0286,-0.3179,0.0499,-9.12,-37.25,-7.69,214.73,-80.62,-177.35
76138,52.518562,-1.442614,145.47,7.5,3,338.24,25 / 25,7427410,2019-09-08 14:10:46:649,2.9239,-1.0921,9.2911,-0.0253,-0.0428,9.8065,0.0282,-0.3276,0.0656,-9.75,-37.12,-8.25,218.02,-80.98,-177.38
76139,52.518562,-1.442614,145.47,7.5,3,338.24,25 / 25,7427510,2019-09-08 14:10:46:749,1.7015,-2.7009,9.5347,0.0288,0.0261,9.8066,-0.3139,-0.2398,-0.0959,-10.81,-36.69,-8.25,220.88,-81.14,-177.42
76140,52.518562,-1.442614,145.47,7.5,3,338.24,25 / 25,7427612,2019-09-08 14:10:46:851,1.3605,-2.9502,9.6096,0.0139,0.0221,9.8066,-0.1754,-0.3587,0.0046,-11.5,-36.56,-8.25,220.56,-81.08,-177.75
76141,52.518562,-1.442614,145.47,7.5,3,338.24,25 / 25,7427710,2019-09-08 14:10:46:949,0.9159,-3.1104,8.9472,-0.0597,-0.043,9.8063,0.045,-0.3963,0.0222,-11.62,-36.56,-9.0,220.1,-81.61,-179.88
76142,52.518562,-1.442614,145.47,7.5,3,338.24,25 / 25,7427810,2019-09-08 14:10:47:049,2.884,-2.6125,10.6317,-0.0439,-0.0422,9.8064,-0.0507,-0.3525,0.0141,-11.94,-36.12,-7.87,222.05,-81.73,179.41
76143,52.518562,-1.442614,145.47,7.5,3,338.24,25 / 25,7427910,2019-09-08 14:10:47:149,1.3058,-2.0312,10.5749,0.0124,-0.0122,9.8066,0.1671,-0.3007,0.0367,-13.06,-36.44,-9.06,222.14,-81.63,179.45
76144,52.518562,-1.442614,145.47,7.5,3,338.24,25 / 25,7428010,2019-09-08 14:10:47:249,1.8557,-2.8193,11.141,-0.0068,0.0164,9.8066,0.2239,-0.4518,0.1005,-13.75,-36.12,-8.25,226.38,-81.54,179.65
76145,52.518562,-1.442614,145.47,7.5,3,338.24,25 / 25,7428110,2019-09-08 14:10:47:349,0.9165,-2.4389,8.587,0.0034,0.0602,9.8065,-0.0504,-0.3764,-0.0379,-14.37,-36.81,-7.75,224.82,-81.25,178.56
76146,52.518562,-1.442614,145.47,7.5,3,338.24,25 / 25,7428210,2019-09-08 14:10:47:449,0.8282,-2.878,8.8015,0.0462,0.0578,9.8063,-0.1087,-0.4106,0.163,-14.5,-36.5,-6.69,223.89,-80.66,175.16
76147,52.518562,-1.442614,145.47,7.5,3,338.24,25 / 25,7428310,2019-09-08 14:10:47:549,0.1456,-2.6748,9.0294,-0.0356,-0.0377,9.8064,0.1642,-0.4433,0.1579,-15.62,-35.94,-5.87,231.45,-80.87,176.92
76148,52.518562,-1.442614,145.47,7.5,3,338.24,25 / 25,7428410,2019-09-08 14:10:47:649,2.2654,-2.9341,10.6997,-0.0334,-0.053,9.8064,0.1309,-0.3939,0.0937,-16.5,-36.31,-7.0,230.45,-81.01,178.22
76149,52.518562,-1.442614,145.47,7.5,3,338.24,25 / 25,7428510,2019-09-08 14:10:47:749,1.8713,-3.7943,10.632,0.0218,0.0282,9.8065,-0.1463,-0.4297,0.0546,-17.0,-36.0,-6.37,235.04,-81.39,178.48
76150,52.518562,-1.442614,145.47,7.5,3,338.24,25 / 25,7428610,2019-09-08 14:10:47:849,0.5673,-2.8006,9.9205,0.0028,0.0185,9.8066,-0.1353,-0.4619,0.0667,-17.31,-36.0,-5.44,236.16,-81.53,176.77
76151,52.518562,-1.442614,145.47,7.5,3,338.24,25 / 25,7428710,2019-09-08 14:10:47:949,0.5991,-1.9432,8.8789,-0.0219,-0.0215,9.8066,0.0148,-0.3989,0.0644,-18.25,-36.44,-5.81,235.6,-81.69,176.93
76152,52.518562,-1.442614,145.47,7.5,3,338.24,25 / 25,7428809,2019-09-08 14:10:48:048,1.3045,-2.8556,9.3428,0.0045,-0.0333,9.8065,-0.0412,-0.4167,0.0987,-18.5,-35.56,-5.62,237.9,-81.9,179.26
76153,52.518562,-1.442614,145.47,7.5,3,338.24,25 / 25,7428910,2019-09-08 14:10:48:149,1.4831,-2.9878,10.3928,0.0233,-0.0018,9.8066,-0.0268,-0.3939,0.079,-20.0,-36.5,-4.87,244.66,-81.91,-178.59
76154,52.518562,-1.442614,145.47,7.5,3,338.24,25 / 25,7429010,2019-09-08 14:10:48:249,0.667,-2.7137,9.9763,0.0316,0.0098,9.8065,-0.0085,-0.352,0.0088,-20.0,-35.31,-4.62,245.17,-81.95,-178.44
76155,52.518562,-1.442614,145.47,7.5,3,338.24,25 / 25,7429110,2019-09-08 14:10:48:349,-0.2359,-2.667,9.5632,-0.0167,-0.019,9.8066,0.016,-0.3468,0.0685,-21.0,-35.31,-4.31,248.45,-82.02,-178.65
76156,52.518562,-1.442614,145.47,7.5,3,338.24,25 / 25,7429210,2019-09-08 14:10:48:449,0.4394,-1.923,9.2909,-0.0093,-0.0158,9.8065,0.0079,-0.3052,0.0597,-21.0,-35.75,-4.06,249.39,-82.11,-177.41
76157,52.518562,-1.442614,145.47,7.5,3,338.24,25 / 25,7429310,2019-09-08 14:10:48:549,0.6961,-2.0791,9.7796,0.0159,-0.0107,9.8065,0.0001,-0.2871,0.0554,-21.37,-34.87,-3.31,252.83,-82.04,-176.46
76158,52.518562,-1.442614,145.47,7.5,3,338.24,25 / 25,7429413,2019-09-08 14:10:48:652,0.7564,-1.7514,10.0863,-0.0073,-0.0129,9.8066,0.0039,-0.2716,0.0476,-21.75,-35.62,-3.06,254.83,-82.04,-174.91
76159,52.518562,-1.442614,145.47,7.5,3,338.24,25 / 25,7429510,2019-09-08 14:10:48:749,0.7261,-1.0659,10.1949,-0.0012,-0.0035,9.8066,-0.0231,-0.2502,-0.0031,-22.31,-35.5,-2.62,256.54,-82.1,-173.55
76160,52.518562,-1.442614,145.47,7.5,3,338.24,25 / 25,7429610,2019-09-08 14:10:48:849,-0.7604,-1.1591,10.0487,-0.0112,-0.0011,9.8066,0.0134,-0.205,0.0199,-21.75,-34.75,-2.19,259.13,-82.14,-173.38
76161,52.518562,-1.442614,145.47,7.5,3,338.24,25 / 25,7429711,2019-09-08 14:10:48:950,0.6193,0.0533,9.934,0.0048,0.0071,9.8066,-0.0881,-0.1153,0.0239,-23.19,-35.0,-2.12,260.19,-82.08,-172.95
76162,52.518562,-1.442614,145.47,7.5,3,338.24,25 / 25,7429810,2019-09-08 14:10:49:049,-0.3218,-0.8947,9.4827,0.0298,0.0018,9.8066,-0.1236,-0.1009,0.0383,-22.75,-35.56,-1.44,261.89,-81.97,-173.09
76163,52.518562,-1.442614,145.47,7.5,3,338.24,25 / 25,7429910,2019-09-08 14:10:49:149,-0.6306,-0.5859,9.6572,-0.0304,-0.0074,9.8066,0.086,-0.0151,-0.0133,-22.75,-34.87,-1.62,260.01,-81.99,-172.99
76164,52.518562,-1.442614,145.47,7.5,3,338.24,25 / 25,7430010,2019-09-08 14:10:49:249,0.5388,0.5776,9.9803,-0.0388,-0.0104,9.8066,0.0836,0.0104,-0.0349,-21.87,-35.5,-1.69,259.42,-82.29,-173.32
76165,52.518562,-1.442614,145.47,7.5,3,338.24,25 / 25,7430110,2019-09-08 14:10:49:349,0.8714,0.3947,9.6943,0.0366,0.0022,9.8065,-0.1735,0.0768,-0.0268,-21.87,-34.69,-2.5,259.47,-82.29,-173.26
76166,52.518562,-1.442614,145.47,7.5,3,338.24,25 / 25,7430210,2019-09-08 14:10:49:449,-0.39,0.6339,9.9514,-0.0072,-0.03,9.8066,0.0516,0.0412,0.0481,-23.06,-34.75,-2.12,262.59,-82.71,-171.41
76167,52.518562,-1.442614,145.47,7.5,3,338.24,25 / 25,7430310,2019-09-08 14:10:49:549,-2.1228,0.4771,9.8671,0.0001,-0.018,9.8066,-0.2282,0.2079,-0.0551,-22.5,-34.94,-2.5,264.11,-82.83,-169.31
76168,52.518562,-1.442614,145.47,7.5,3,338.24,25 / 25,7430410,2019-09-08 14:10:49:649,-2.4411,-2.0246,11.5037,-0.0304,0.0131,9.8066,-0.2562,0.0247,-0.0258,-22.56,-35.06,-2.5,265.2,-83.04,-169.24
76169,52.518562,-1.442614,145.47,7.5,3,338.24,25 / 25,7430510,2019-09-08 14:10:49:749,1.2288,-0.6116,10.5144,0.0846,0.0425,9.8062,0.2268,0.2142,-0.2641,-22.44,-35.0,-2.75,259.81,-83.03,-171.56
76170,52.518562,-1.442614,145.47,7.5,3,338.24,25 / 25,7430610,2019-09-08 14:10:49:849,-0.3537,0.2908,9.3778,0.0998,0.0442,9.806,0.2588,0.1182,-0.0607,-21.19,-35.44,-2.56,254.35,-82.26,-175.2
76171,52.518562,-1.442614,145.47,7.5,3,338.24,25 / 25,7430710,2019-09-08 14:10:49:949,-0.4404,-0.3264,10.4283,0.0191,-0.0246,9.8066,-0.1753,0.2176,-0.1179,-21.87,-35.94,-2.81,255.99,-82.11,-173.78
76172,52.518562,-1.442614,145.47,7.5,3,338.24,25 / 25,7430810,2019-09-08 14:10:50:049,-2.082,2.8998,9.9956,0.0456,-0.0103,9.8065,-0.241,0.3151,-0.2905,-21.69,-35.19,-2.75,256.35,-81.9,-173.44
76173,52.518562,-1.442614,145.47,7.5,3,338.24,25 / 25,7430909,2019-09-08 14:10:50:148,-0.859,0.687,8.8204,-0.0639,-0.0045,9.8064,-0.0073,0.1654,-0.0617,-21.5,-35.12,-3.06,254.55,-81.84,-174.29
76174,52.518562,-1.442614,145.47,7.5,3,338.24,25 / 25,7431010,2019-09-08 14:10:50:249,-1.2584,1.3756,9.0504,0.0004,0.0039,9.8066,-0.0694,0.1754,-0.0268,-20.62,-35.62,-2.69,252.94,-81.94,-175.82
76175,52.518562,-1.442614,145.47,7.5,3,338.24,25 / 25,7431110,2019-09-08 14:10:50:349,-0.2737,-0.5232,10.4286,0.034,-0.022,9.8065,0.0214,0.2087,-0.0204,-20.75,-36.06,-3.06,253.01,-81.86,-175.61
76176,52.518562,-1.442614,145.47,7.5,3,338.24,25 / 25,7431210,2019-09-08 14:10:50:449,-1.1076,1.2507,9.7578,0.0097,-0.0098,9.8066,0.0294,0.2105,-0.0228,-20.81,-35.62,-4.06,252.12,-81.71,-173.78
76177,52.518562,-1.442614,145.47,7.5,3,338.24,25 / 25,7431310,2019-09-08 14:10:50:549,-0.8586,-0.2166,10.155,0.0,-0.0184,9.8066,0.0497,0.1118,0.05,-20.81,-36.0,-3.31,256.46,-81.77,-171.75
76178,52.518562,-1.442614,145.47,7.5,3,338.24,25 / 25,7431410,2019-09-08 14:10:50:649,-1.2025,0.4482,9.9296,0.0048,-0.0154,9.8066,-0.0676,0.1632,0.007,-20.56,-36.06,-4.31,255.26,-81.72,-170.39
76179,52.518562,-1.442614,145.47,7.5,3,338.24,25 / 25,7431510,2019-09-08 14:10:50:749,-0.4327,0.3045,9.6444,-0.0541,-0.0183,9.8064,0.2638,0.0324,0.0259,-21.56,-36.19,-4.25,256.66,-81.48,-169.62
76180,52.518562,-1.442614,145.47,7.5,3,338.24,25 / 25,7431610,2019-09-08 14:10:50:849,0.8129,-0.1135,9.7624,-0.0425,-0.0255,9.8065,0.2387,-0.0179,0.1069,-20.62,-35.87,-4.44,257.22,-81.76,-168.38
76181,52.519085,-1.442524,145.05,6.67,4,40.02,25 / 25,7431711,2019-09-08 14:10:50:950,-0.5337,-0.0597,9.3392,-0.0012,-0.0314,9.8065,-0.0569,0.0246,0.0652,-20.69,-35.56,-4.62,256.08,-81.56,-166.78
76182,52.519085,-1.442524,145.05,6.67,4,40.02,25 / 25,7431810,2019-09-08 14:10:51:049,-0.4386,-0.9833,10.1196,-0.0333,-0.0303,9.8065,-0.0395,0.0331,-0.041,-20.87,-35.75,-4.37,260.57,-81.5,-164.38
76183,52.519085,-1.442524,145.05,6.67,4,40.02,25 / 25,7431910,2019-09-08 14:10:51:149,0.6595,-1.5791,10.4711,-0.0303,-0.0287,9.8065,-0.052,0.1133,-0.1162,-20.44,-35.44,-4.19,262.26,-81.76,-162.25
76184,52.519085,-1.442524,145.05,6.67,4,40.02,25 / 25,7432010,2019-09-08 14:10:51:249,0.1978,-0.7384,9.5575,0.0425,0.0293,9.8064,0.0225,-0.0398,0.0256,-21.12,-35.69,-4.69,259.61,-81.55,-163.01
76185,52.519085,-1.442524,145.05,6.67,4,40.02,25 / 25,7432110,2019-09-08 14:10:51:349,-0.8427,-1.3481,9.3006,0.0202,0.0216,9.8065,0.0537,-0.0235,-0.0212,-20.31,-35.37,-4.44,260.21,-81.7,-164.31
76186,52.519085,-1.442524,145.05,6.67,4,40.02,25 / 25,7432210,2019-09-08 14:10:51:449,0.3787,0.0711,9.6916,-0.0308,0.0076,9.8065,0.0766,-0.0119,-0.0719,-20.44,-35.19,-4.75,256.94,-81.72,-165.23
76187,52.519085,-1.442524,145.05,6.67,4,40.02,25 / 25,7432310,2019-09-08 14:10:51:549,0.1043,-1.0744,10.3639,-0.0311,0.0022,9.8066,-0.0345,-0.0685,-0.0394,-20.75,-36.44,-4.69,256.82,-82.02,-166.75
76188,52.519085,-1.442524,145.05,6.67,4,40.02,25 / 25,7432410,2019-09-08 14:10:51:649,-0.7826,-1.1731,9.5972,0.0116,0.0177,9.8066,-0.0511,-0.0842,0.0165,-19.81,-36.0,-4.56,254.07,-82.04,-168.48
76189,52.519085,-1.442524,145.05,6.67,4,40.02,25 / 25,7432510,2019-09-08 14:10:51:749,-0.5945,-2.007,9.0489,0.016,0.0337,9.8065,0.1136,-0.1231,-0.0402,-19.62,-35.37,-4.5,254.53,-81.84,-170.61
76190,52.519085,-1.442524,145.05,6.67,4,40.02,25 / 25,7432610,2019-09-08 14:10:51:849,0.9979,-1.2512,10.6413,-0.0177,0.0136,9.8066,0.091,-0.0848,-0.0616,-20.44,-36.12,-3.87,252.05,-81.84,-172.9
76191,52.519085,-1.442524,145.05,6.67,4,40.02,25 / 25,7432710,2019-09-08 14:10:51:949,0.8098,-1.4981,10.0436,-0.0207,0.0208,9.8065,-0.1252,-0.0659,-0.0512,-19.81,-36.19,-3.81,250.42,-81.78,-174.57
76192,52.519085,-1.442524,145.05,6.67,4,40.02,24 / 24,7432809,2019-09-08 14:10:52:048,-0.5367,-1.4629,9.751,-0.0052,-0.0101,9.8066,-0.143,-0.1726,0.0848,-20.25,-36.19,-3.69,249.99,-81.7,-174.91
76193,52.519085,-1.442524,145.05,6.67,4,40.02,24 / 24,7432910,2019-09-08 14:10:52:149,0.777,-1.9737,9.5996,-0.0058,-0.018,9.8065,0.0747,-0.2008,0.0632,-20.31,-36.44,-3.19,253.88,-81.76,-173.42
76194,52.519085,-1.442524,145.05,6.67,4,40.02,24 / 24,7433010,2019-09-08 14:10:52:249,0.3508,-2.4248,10.4686,0.0252,-0.0019,9.8065,0.0958,-0.2375,0.0328,-20.69,-36.0,-3.5,255.53,-81.81,-172.81
76195,52.519085,-1.442524,145.05,6.67,4,40.02,24 / 24,7433110,2019-09-08 14:10:52:349,-0.4923,-2.0996,10.7431,0.0273,-0.0016,9.8065,-0.0661,-0.2498,0.0387,-21.56,-35.56,-3.12,257.33,-81.72,-171.73
76196,52.519085,-1.442524,145.05,6.67,4,40.02,24 / 24,7433210,2019-09-08 14:10:52:449,-0.5114,-2.7644,10.1304,0.0124,-0.0068,9.8066,-0.0106,-0.35,0.0899,-21.87,-36.19,-2.44,260.35,-81.74,-171.07
76197,52.519085,-1.442524,145.05,6.67,4,40.02,24 / 24,7433310,2019-09-08 14:10:52:549,-1.4289,-1.2875,9.5602,0.0261,-0.0105,9.8065,0.1361,-0.2647,0.1101,-21.81,-35.62,-2.69,258.33,-81.56,-170.41
76198,52.519085,-1.442524,145.05,6.67,4,40.02,24 / 24,7433409,2019-09-08 14:10:52:648,-0.4619,-1.7911,9.6088,0.012,-0.0139,9.8065,0.1357,-0.2764,0.072,-22.69,-35.5,-1.81,262.14,-81.24,-169.61
76199,52.519085,-1.442524,145.05,6.67,4,40.02,24 / 24,7433510,2019-09-08 14:10:52:749,0.2671,-0.362,9.4979,0.0059,-0.0179,9.8065,0.0016,-0.3317,0.1594,-23.19,-35.69,-0.5,267.72,-80.94,-167.87
76200,52.519085,-1.442524,145.05,6.67,4,40.02,24 / 24,7433610,2019-09-08 14:10:52:849,0.4306,-2.5921,9.7702,0.0204,-0.0182,9.8066,-0.0291,-0.3139,0.0851,-22.94,-35.12,-1.0,268.34,-80.78,-164.91
76201,52.519085,-1.442524,145.05,6.67,4,40.02,24 / 24,7433710,2019-09-08 14:10:52:949,-0.0885,-1.6059,9.8632,0.025,-0.005,9.8065,-0.1045,-0.3213,0.0635,-24.12,-34.75,-0.31,272.97,-80.73,-163.25
76202,52.519085,-1.442524,145.05,6.67,4,40.02,24 / 24,7433811,2019-09-08 14:10:53:050,-0.7177,-1.6269,10.5496,-0.0351,-0.0162,9.8065,-0.1503,-0.2708,0.0105,-23.94,-34.94,0.06,275.08,-81.06,-161.64
76203,52.519085,-1.442524,145.05,6.67,4,40.02,24 / 24,7433910,2019-09-08 14:10:53:149,0.0009,-1.1326,10.8854,-0.0387,-0.0048,9.8065,0.1818,-0.3038,0.0638,-23.81,-34.75,0.38,274.91,-81.13,-161.92
76204,52.519085,-1.442524,145.05,6.67,4,40.02,24 / 24,7434010,2019-09-08 14:10:53:249,1.2206,1.8705,8.1287,0.042,0.0044,9.8065,0.0715,-0.0991,-0.0326,-24.81,-34.81,0.38,275.27,-81.03,-161.96
76205,52.519085,-1.442524,145.05,6.67,4,40.02,24 / 24,7434109,2019-09-08 14:10:53:348,1.2737,-5.6198,10.6412,-0.0051,-0.0186,9.8066,0.5733,-0.5933,0.4742,-24.81,-34.06,1.75,281.55,-80.53,-160.08
76206,52.519085,-1.442524,145.05,6.67,4,40.02,24 / 24,7434209,2019-09-08 14:10:53:448,0.4664,0.0173,10.8287,0.0399,-0.0245,9.8065,0.4316,-0.1452,-0.023,-25.31,-34.0,1.69,281.96,-80.4,-159.49
76207,52.519085,-1.442524,145.05,6.67,4,40.02,24 / 24,7434310,2019-09-08 14:10:53:549,1.5593,-2.352,11.7186,-0.0253,0.0298,9.8065,-0.3304,-0.1289,-0.0789,-25.5,-34.31,1.94,281.84,-80.4,-159.61
76208,52.519085,-1.442524,145.05,6.67,4,40.02,24 / 24,7434410,2019-09-08 14:10:53:649,-1.8074,0.0486,8.828,-0.0108,0.0246,9.8066,-0.2898,-0.09,-0.043,-24.94,-34.12,2.19,280.8,-80.67,-161.0
76209,52.519085,-1.442524,145.05,6.67,4,40.02,24 / 24,7434510,2019-09-08 14:10:53:749,-2.2697,-1.2505,8.5997,0.0013,0.0189,9.8066,0.2671,-0.1412,-0.0042,-25.5,-34.19,2.19,280.42,-80.65,-161.35
76210,52.519085,-1.442524,145.05,6.67,4,40.02,24 / 24,7434610,2019-09-08 14:10:53:849,-1.3308,-0.5683,8.8934,-0.0245,-0.0166,9.8066,0.1659,-0.1178,0.0252,-26.44,-34.06,1.63,281.48,-80.44,-160.33
76211,52.519085,-1.442524,145.05,6.67,4,40.02,24 / 24,7434711,2019-09-08 14:10:53:950,0.5598,-0.4895,10.1782,-0.0295,-0.0146,9.8065,-0.048,-0.148,0.0597,-25.56,-33.87,3.38,285.26,-80.41,-158.91
76212,52.519085,-1.442524,145.05,6.67,4,40.02,24 / 24,7434810,2019-09-08 14:10:54:049,0.1755,-0.8067,10.3811,0.0291,-0.0068,9.8065,-0.0579,-0.1034,0.0261,-25.81,-33.87,3.06,285.54,-80.45,-158.69
76213,52.519085,-1.442524,145.05,6.67,4,40.02,24 / 24,7434910,2019-09-08 14:10:54:149,-1.0244,-0.6866,9.512,0.0246,0.0066,9.8065,-0.0363,-0.0953,0.0244,-26.5,-34.19,2.38,283.29,-80.36,-158.49
76214,52.519085,-1.442524,145.05,6.67,4,40.02,24 / 24,7435010,2019-09-08 14:10:54:249,-0.4429,-0.2561,9.8381,-0.0356,-0.0109,9.8065,-0.0278,-0.0671,0.0299,-25.94,-33.25,2.5,286.5,-80.42,-158.1
76215,52.519085,-1.442524,145.05,6.67,4,40.02,24 / 24,7435110,2019-09-08 14:10:54:349,-0.0523,0.5877,8.6234,-0.0416,-0.0168,9.8065,0.0593,-0.1339,0.1125,-26.19,-34.06,3.31,288.09,-80.59,-156.47
76216,52.519085,-1.442524,145.05,6.67,4,40.02,24 / 24,7435210,2019-09-08 14:10:54:449,-0.4835,-0.5688,10.1122,-0.0048,-0.0047,9.8066,-0.0146,-0.1158,0.0086,-26.62,-33.94,3.0,288.49,-80.43,-156.09
76217,52.519085,-1.442524,145.05,6.67,4,40.02,24 / 24,7435310,2019-09-08 14:10:54:549,-0.1099,-1.1496,10.555,0.0029,0.0,9.8066,-0.0551,-0.0915,0.0429,-26.56,-33.25,3.5,291.12,-80.4,-156.06
76218,52.519085,-1.442524,145.05,6.67,4,40.02,24 / 24,7435410,2019-09-08 14:10:54:649,-0.5725,-0.1339,10.0319,-0.0023,-0.0019,9.8066,-0.0532,-0.0492,-0.0052,-26.75,-33.69,3.5,290.74,-80.3,-155.95
76219,52.519085,-1.442524,145.05,6.67,4,40.02,24 / 24,7435510,2019-09-08 14:10:54:749,-0.3912,-0.9757,10.0327,-0.0184,-0.0122,9.8065,0.0974,-0.0934,0.0501,-27.12,-33.81,3.69,291.38,-80.28,-155.32
76220,52.519085,-1.442524,145.05,6.67,4,40.02,24 / 24,7435610,2019-09-08 14:10:54:849,-0.743,-0.9606,10.0974,0.0079,0.0224,9.8066,0.0214,-0.0617,-0.0401,-26.69,-33.69,4.06,289.63,-79.96,-156.54
76221,52.519085,-1.442524,145.05,6.67,4,40.02,25 / 25,7435710,2019-09-08 14:10:54:949,-0.5334,-0.4491,9.9611,0.0094,0.013,9.8066,0.033,-0.0613,-0.0909,-26.37,-34.12,4.44,288.12,-79.82,-157.63
76222,52.519085,-1.442524,145.05,6.67,4,40.02,25 / 25,7435810,2019-09-08 14:10:55:049,-0.0567,-0.6281,10.1192,0.0147,0.0158,9.8066,0.0764,-0.1095,-0.0172,-27.0,-34.12,4.81,289.67,-79.76,-158.39
76223,52.519085,-1.442524,145.05,6.67,4,40.02,25 / 25,7435909,2019-09-08 14:10:55:148,-0.9438,-0.3503,9.9343,0.0172,0.0214,9.8065,-0.039,-0.0616,-0.0652,-26.5,-33.81,5.56,289.76,-79.72,-160.4
76224,52.519085,-1.442524,145.05,6.67,4,40.02,25 / 25,7436010,2019-09-08 14:10:55:249,-0.866,-0.1321,9.6702,0.0095,0.0191,9.8066,0.0094,-0.0907,-0.0345,-26.12,-33.69,5.19,286.08,-79.76,-161.71
76225,52.519085,-1.442524,145.05,6.67,4,40.02,25 / 25,7436110,2019-09-08 14:10:55:349,-0.5546,-0.1455,9.401,0.0021,0.0171,9.8066,0.0011,-0.0958,-0.0033,-25.94,-34.25,4.38,281.91,-79.74,-163.43
76226,52.519085,-1.442524,145.05,6.67,4,40.02,25 / 25,7436210,2019-09-08 14:10:55:449,-0.6835,-0.5829,10.0903,-0.0126,0.0178,9.8065,0.0021,-0.0677,-0.051,-25.56,-34.0,5.13,283.09,-79.9,-164.74
76227,52.519085,-1.442524,145.05,6.67,4,40.02,25 / 25,7436310,2019-09-08 14:10:55:549,-0.8044,0.1841,10.3235,-0.0176,0.0178,9.8065,0.0249,-0.0403,-0.0425,-25.69,-34.62,5.56,284.05,-80.01,-165.79
76228,52.519085,-1.442524,145.05,6.67,4,40.02,25 / 25,7436410,2019-09-08 14:10:55:649,-0.1237,0.0176,9.8045,0.0111,0.0228,9.8066,0.0223,-0.0568,-0.0432,-25.69,-34.31,5.38,281.06,-80.09,-166.95
76229,52.519085,-1.442524,145.05,6.67,4,40.02,25 / 25,7436510,2019-09-08 14:10:55:749,-0.4286,0.4057,9.2402,0.0041,0.0186,9.8066,-0.0148,-0.0066,-0.0509,-25.44,-33.75,5.13,279.13,-80.21,-168.92
76230,52.519085,-1.442524,145.05,6.67,4,40.02,25 / 25,7436610,2019-09-08 14:10:55:849,0.0799,0.1777,9.3646,-0.0107,0.0092,9.8066,0.0188,-0.0332,-0.0003,-24.94,-35.06,5.5,280.39,-80.33,-169.78
76231,52.519085,-1.442524,145.05,6.67,4,40.02,25 / 25,7436709,2019-09-08 14:10:55:948,-0.0669,-0.274,9.9353,-0.0123,-0.0027,9.8066,-0.0042,-0.0244,-0.0109,-24.94,-34.37,4.88,278.46,-80.52,-170.01
76232,52.519085,-1.442524,145.05,6.67,4,40.02,25 / 25,7436811,2019-09-08 14:10:56:050,-0.6494,0.2101,9.7846,-0.015,0.0097,9.8065,-0.0231,-0.0015,-0.0708,-25.44,-34.62,4.69,278.09,-80.65,-170.19
76233,52.519085,-1.442524,145.05,6.67,4,40.02,25 / 25,7436910,2019-09-08 14:10:56:149,-1.1869,-0.0565,10.1466,-0.0051,0.0065,9.8066,-0.0161,-0.0155,-0.0269,-24.75,-34.56,4.63,278.02,-80.91,-170.64
76234,52.519085,-1.442524,145.05,6.67,4,40.02,25 / 25,7437009,2019-09-08 14:10:56:248,-0.6653,-0.2678,9.8438,-0.0065,-0.0027,9.8066,-0.0304,-0.0519,0.0201,-24.94,-35.25,4.38,275.86,-81.09,-170.71
76235,52.519085,-1.442524,145.05,6.67,4,40.02,25 / 25,7437110,2019-09-08 14:10:56:349,-0.6818,-0.3697,9.7217,-0.0177,-0.0022,9.8066,0.0658,-0.0858,0.0233,-24.75,-34.75,4.5,278.24,-81.16,-170.78
76236,52.519085,-1.442524,145.05,6.67,4,40.02,25 / 25,7437210,2019-09-08 14:10:56:449,-0.2908,0.2769,9.559,0.0142,-0.0085,9.8066,0.015,-0.0089,-0.0232,-24.62,-34.31,4.44,276.4,-81.15,-170.63
76237,52.519085,-1.442524,145.05,6.67,4,40.02,25 / 25,7437310,2019-09-08 14:10:56:549,-0.1281,-0.0282,10.2603,0.0185,-0.0084,9.8065,-0.0213,-0.0016,0.0351,-25.44,-34.75,4.69,278.93,-81.01,-169.89
76238,52.519085,-1.442524,145.05,6.67,4,40.02,25 / 25,7437410,2019-09-08 14:10:56:649,-1.1289,-0.6451,10.1214,-0.0145,-0.0131,9.8066,-0.034,-0.0324,0.0359,-24.87,-34.94,4.75,279.59,-81.04,-169.28
76239,52.519085,-1.442524,145.05,6.67,4,40.02,25 / 25,7437510,2019-09-08 14:10:56:749,-0.775,-0.5411,9.8667,-0.0055,0.0014,9.8066,0.0119,-0.0427,-0.0341,-25.19,-34.44,5.25,280.83,-81.09,-168.51
76240,52.519085,-1.442524,145.05,6.67,4,40.02,25 / 25,7437610,2019-09-08 14:10:56:849,-0.5684,-0.6264,9.5371,-0.0022,-0.0073,9.8066,0.0161,-0.1052,0.0528,-25.06,-34.81,4.69,280.69,-81.17,-168.4
76241,52.519085,-1.442524,145.05,6.67,4,40.02,23 / 23,7437710,2019-09-08 14:10:56:949,-0.6042,-0.4281,9.6552,-0.0165,-0.0118,9.8066,0.0352,-0.1522,0.0895,-26.12,-34.5,5.06,282.11,-81.21,-167.45
76242,52.519085,-1.442524,145.05,6.67,4,40.02,23 / 23,7437809,2019-09-08 14:10:57:048,-0.4233,-0.7774,10.2244,0.0029,-0.0305,9.8065,0.0375,-0.1284,0.0866,-25.56,-34.37,5.75,285.94,-81.21,-165.96
76243,52.519085,-1.442524,145.05,6.67,4,40.02,23 / 23,7437910,2019-09-08 14:10:57:149,-0.7987,-2.5879,10.5636,-0.0024,-0.0143,9.8066,-0.0667,-0.186,0.05,-26.19,-34.69,5.88,288.67,-81.14,-162.96
76244,52.519085,-1.442524,145.05,6.67,4,40.02,23 / 23,7438010,2019-09-08 14:10:57:249,-1.4632,-1.6897,9.6597,-0.0068,0.0025,9.8066,-0.0542,-0.2029,0.0205,-26.87,-34.0,5.38,287.3,-81.18,-162.44
76245,52.519085,-1.442524,145.05,6.67,4,40.02,23 / 23,7438110,2019-09-08 14:10:57:349,-1.3554,-1.6726,9.3952,-0.0045,-0.004,9.8066,0.0306,-0.2861,0.0638,-26.56,-34.12,6.94,292.08,-81.18,-162.14
76246,52.519085,-1.442524,145.05,6.67,4,40.02,23 / 23,7438210,2019-09-08 14:10:57:449,-1.0879,-1.6022,9.5353,-0.0103,-0.0044,9.8066,0.016,-0.2964,0.0347,-26.62,-33.87,7.63,294.79,-81.22,-161.72
76247,52.519085,-1.442524,145.05,6.67,4,40.02,23 / 23,7438310,2019-09-08 14:10:57:549,-1.2612,-2.072,10.4694,0.0017,-0.0115,9.8066,-0.0161,-0.3601,0.0705,-27.5,-33.94,7.88,295.54,-81.08,-160.88
76248,52.519085,-1.442524,145.05,6.67,4,40.02,23 / 23,7438410,2019-09-08 14:10:57:649,-1.043,-2.5796,9.9559,0.0124,-0.0025,9.8066,0.0176,-0.408,0.085,-27.37,-33.31,8.75,298.36,-81.1,-160.62
76249,52.519085,-1.442524,145.05,6.67,4,40.02,23 / 23,7438510,2019-09-08 14:10:57:749,-1.5115,-2.2959,9.9351,0.0162,-0.0041,9.8066,-0.004,-0.4293,0.0872,-27.62,-33.75,10.0,299.3,-81.04,-161.03
76250,52.519085,-1.442524,145.05,6.67,4,40.02,23 / 23,7438611,2019-09-08 14:10:57:850,-1.1976,-2.6718,9.6157,0.0032,-0.0067,9.8066,-0.0135,-0.4364,0.0803,-27.5,-33.94,10.81,301.69,-81.01,-161.16
76251,52.519085,-1.442524,145.05,6.67,4,40.02,25 / 25,7438711,2019-09-08 14:10:57:950,-1.8944,-3.2814,9.8321,0.0094,-0.001,9.8066,-0.0105,-0.4977,0.0971,-27.69,-33.0,10.81,301.42,-80.92,-161.14
76252,52.519085,-1.442524,145.05,6.67,4,40.02,25 / 25,7438810,2019-09-08 14:10:58:049,-1.9309,-2.9912,10.0926,-0.0079,0.006,9.8065,-0.0042,-0.508,0.0818,-27.31,-33.12,12.38,304.23,-80.97,-161.0
76253,52.519085,-1.442524,145.05,6.67,4,40.02,25 / 25,7438910,2019-09-08 14:10:58:149,-2.0156,-2.2581,10.1836,-0.0066,-0.005,9.8066,-0.0382,-0.5241,0.0644,-27.69,-33.31,13.44,305.91,-80.99,-160.79
76254,52.519085,-1.442524,145.05,6.67,4,40.02,25 / 25,7439010,2019-09-08 14:10:58:249,-2.0887,-2.4232,10.2816,0.0122,-0.016,9.8066,0.0216,-0.5263,0.0913,-26.56,-32.87,14.5,310.54,-80.93,-160.75
76255,52.519085,-1.442524,145.05,6.67,4,40.02,25 / 25,7439109,2019-09-08 14:10:58:348,-1.3695,-2.356,9.3743,0.0027,0.0032,9.8065,-0.0918,-0.5319,0.0111,-26.44,-32.25,15.38,311.93,-80.8,-160.34
76256,52.519085,-1.442524,145.05,6.67,4,40.02,25 / 25,7439210,2019-09-08 14:10:58:449,-1.6932,-3.4704,9.7604,0.0233,-0.0156,9.8065,-0.016,-0.6289,0.1398,-26.87,-32.81,15.94,312.08,-80.87,-161.04
76257,52.519085,-1.442524,145.05,6.67,4,40.02,25 / 25,7439310,2019-09-08 14:10:58:549,-1.6879,-1.6803,9.7934,0.0115,-0.0089,9.8066,-0.075,-0.6046,0.1138,-25.87,-32.37,16.44,312.99,-80.78,-161.14
76258,52.519085,-1.442524,145.05,6.67,4,40.02,25 / 25,7439410,2019-09-08 14:10:58:649,-2.5059,-0.979,10.2876,-0.0136,0.0144,9.8066,-0.062,-0.4835,0.0162,-26.0,-31.69,17.5,316.36,-80.99,-161.66
76259,52.519085,-1.442524,145.05,6.67,4,40.02,25 / 25,7439510,2019-09-08 14:10:58:749,-1.6636,-1.7012,10.2998,-0.0102,0.0054,9.8066,-0.0193,-0.5787,0.1402,-25.5,-32.37,18.19,317.17,-81.0,-161.85
76260,52.519085,-1.442524,145.05,6.67,4,40.02,25 / 25,7439610,2019-09-08 14:10:58:849,-2.0981,-1.2095,9.4878,-0.0029,0.0006,9.8066,-0.0557,-0.4998,0.0879,-25.0,-32.44,19.31,319.48,-80.85,-161.32
76261,52.519085,-1.442524,145.05,6.67,4,40.02,25 / 25,7439710,2019-09-08 14:10:58:949,-0.8392,-1.4239,9.1205,0.0144,-0.0111,9.8066,0.0307,-0.5446,0.1749,-24.62,-31.62,20.31,321.34,-80.63,-161.08
76262,52.519085,-1.442524,145.05,6.67,4,40.02,25 / 25,7439810,2019-09-08 14:10:59:049,-2.391,-1.5701,9.8751,-0.015,0.0074,9.8066,-0.0312,-0.4695,0.0541,-24.25,-31.56,21.38,325.35,-80.26,-159.88
76263,52.519085,-1.442524,145.05,6.67,4,40.02,25 / 25,7439910,2019-09-08 14:10:59:149,-2.2299,-2.0998,10.3747,-0.0231,0.0099,9.8065,0.0476,-0.5276,0.0808,-24.19,-31.5,22.13,327.65,-80.21,-159.49
76264,52.519085,-1.442524,145.05,6.67,4,40.02,25 / 25,7440010,2019-09-08 14:10:59:249,-2.1053,-1.6087,10.2961,0.0313,-0.0168,9.8065,0.079,-0.5118,0.0688,-23.0,-31.06,23.44,328.95,-79.96,-160.72
76265,52.519085,-1.442524,145.05,6.67,4,40.02,25 / 25,7440110,2019-09-08 14:10:59:349,-1.7773,-0.9917,9.9116,0.0229,-0.015,9.8066,-0.0791,-0.5182,0.0695,-22.56,-31.87,23.81,330.23,-79.96,-160.81
76266,52.519085,-1.442524,145.05,6.67,4,40.02,25 / 25,7440210,2019-09-08 14:10:59:449,-2.0463,-1.2365,9.7413,-0.0168,0.0017,9.8065,-0.0414,-0.4812,0.0885,-22.69,-31.0,24.19,330.6,-79.88,-160.6
76267,52.519085,-1.442524,145.05,6.67,4,40.02,25 / 25,7440310,2019-09-08 14:10:59:549,-1.6443,-1.6745,10.1854,-0.0139,0.0097,9.8066,0.0626,-0.4672,0.0964,-21.81,-30.81,24.88,334.15,-79.84,-160.03
76268,52.519085,-1.442524,145.05,6.67,4,40.02,25 / 25,7440410,2019-09-08 14:10:59:649,-1.4171,-1.484,10.3585,0.0306,-0.0276,9.8065,0.0875,-0.4118,0.0782,-20.69,-31.0,25.88,336.8,-79.73,-160.19
76269,52.519085,-1.442524,145.05,6.67,4,40.02,25 / 25,7440510,2019-09-08 14:10:59:749,-1.7232,-0.7317,9.7104,0.0417,-0.0271,9.8065,-0.0294,-0.4021,0.0348,-20.5,-31.75,26.13,336.29,-79.38,-161.62
76270,52.519085,-1.442524,145.05,6.67,4,40.02,25 / 25,7440612,2019-09-08 14:10:59:851,-1.6734,-1.216,9.816,-0.0157,0.018,9.8066,-0.034,-0.3916,0.0567,-20.31,-31.25,26.94,337.43,-79.33,-161.92
76271,52.51922,-1.441835,145.11,5.49,4,148.01,25 / 25,7440711,2019-09-08 14:10:59:950,-2.096,-0.2754,9.2894,-0.0172,0.0161,9.8066,-0.0736,-0.3927,0.0574,-18.87,-30.81,28.06,340.04,-79.17,-162.1
76272,52.51922,-1.441835,145.11,5.49,4,148.01,25 / 25,7440810,2019-09-08 14:11:00:049,-0.6812,-1.0442,9.8451,0.018,-0.0134,9.8066,0.0791,-0.3041,0.0349,-18.81,-31.37,27.81,339.15,-78.89,-162.72
76273,52.51922,-1.441835,145.11,5.49,4,148.01,25 / 25,7440910,2019-09-08 14:11:00:149,-1.6677,-0.9229,9.7414,0.0105,-0.0035,9.8066,-0.1544,-0.2536,0.006,-19.0,-31.25,28.06,338.39,-78.85,-163.33
76274,52.51922,-1.441835,145.11,5.49,4,148.01,25 / 25,7441010,2019-09-08 14:11:00:249,-1.0767,0.195,9.9821,0.0053,-0.0008,9.8066,-0.0829,-0.2803,0.0167,-17.94,-30.69,28.25,338.88,-78.85,-164.29
76275,52.51922,-1.441835,145.11,5.49,4,148.01,25 / 25,7441110,2019-09-08 14:11:00:349,-0.6157,-0.4738,10.221,0.0345,-0.0165,9.8065,0.0441,-0.2381,0.0293,-17.5,-31.25,29.31,340.01,-78.68,-165.7
76276,52.51922,-1.441835,145.11,5.49,4,148.01,25 / 25,7441210,2019-09-08 14:11:00:449,0.8655,-0.8579,9.6451,0.0236,-0.023,9.8065,0.04,-0.1442,-0.0481,-17.69,-30.87,28.63,337.58,-78.55,-166.23
76277,52.51922,-1.441835,145.11,5.49,4,148.01,25 / 25,7441310,2019-09-08 14:11:00:549,-0.9375,0.0776,9.2134,-0.0144,0.0131,9.8065,-0.0268,-0.1211,-0.0208,-16.37,-30.69,29.38,340.13,-78.46,-166.95
76278,52.51922,-1.441835,145.11,5.49,4,148.01,25 / 25,7441410,2019-09-08 14:11:00:649,0.2001,-0.7087,10.2253,-0.0179,0.0416,9.8064,0.0081,-0.1299,0.0587,-16.87,-31.44,29.44,338.32,-78.63,-167.05
76279,52.51922,-1.441835,145.11,5.49,4,148.01,25 / 25,7441510,2019-09-08 14:11:00:749,0.4905,-0.8819,10.703,0.0237,-0.0308,9.8066,-0.0601,-0.094,0.0847,-16.44,-30.0,29.25,340.49,-78.61,-166.84
76280,52.51922,-1.441835,145.11,5.49,4,148.01,25 / 25,7441609,2019-09-08 14:11:00:848,0.0015,-1.3422,10.3678,0.0289,-0.0352,9.8065,-0.0346,-0.0692,0.0846,-16.87,-30.81,29.31,338.23,-78.49,-167.07
76281,52.51922,-1.441835,145.11,5.49,4,148.01,25 / 25,7441711,2019-09-08 14:11:00:950,-1.2675,-0.1603,9.5277,-0.0268,0.0398,9.8065,0.0613,-0.1009,0.0342,-16.37,-31.87,28.75,341.13,-78.84,-166.17
76282,52.51922,-1.441835,145.11,5.49,4,148.01,25 / 25,7441813,2019-09-08 14:11:01:052,-0.328,0.2756,9.3967,-0.0191,0.0282,9.8066,-0.0022,-0.0624,-0.0116,-16.25,-31.12,28.75,341.01,-78.78,-166.36
76283,52.51922,-1.441835,145.11,5.49,4,148.01,25 / 25,7441910,2019-09-08 14:11:01:149,-0.4129,-0.7913,9.9845,0.0076,-0.0276,9.8065,0.0441,-0.0184,-0.042,-15.94,-30.94,29.06,340.7,-78.73,-166.6
76284,52.51922,-1.441835,145.11,5.49,4,148.01,25 / 25,7442010,2019-09-08 14:11:01:249,-0.8955,0.4806,9.8292,0.014,-0.0129,9.8065,0.0866,-0.0483,-0.0014,-16.56,-31.5,29.19,338.76,-78.58,-166.68
76285,52.51922,-1.441835,145.11,5.49,4,148.01,25 / 25,7442110,2019-09-08 14:11:01:349,0.3357,0.8336,9.98,-0.003,-0.002,9.8066,-0.1083,-0.0955,-0.0013,-15.5,-31.5,28.69,341.97,-78.65,-167.03
76286,52.51922,-1.441835,145.11,5.49,4,148.01,25 / 25,7442210,2019-09-08 14:11:01:449,-1.5413,0.7919,9.724,0.0125,-0.0168,9.8066,-0.2109,-0.0389,-0.006,-15.75,-30.56,29.13,340.46,-78.57,-166.73
76287,52.51922,-1.441835,145.11,5.49,4,148.01,25 / 25,7442310,2019-09-08 14:11:01:549,-0.8544,0.437,9.8613,-0.0149,0.0051,9.8066,0.1065,-0.0264,0.046,-16.12,-31.44,29.19,340.85,-78.71,-166.46
76288,52.51922,-1.441835,145.11,5.49,4,148.01,25 / 25,7442410,2019-09-08 14:11:01:649,-1.0516,-0.1871,9.925,-0.0183,0.0061,9.8066,0.0931,-0.0653,0.0607,-16.19,-30.69,28.56,341.44,-78.68,-165.98
76289,52.51922,-1.441835,145.11,5.49,4,148.01,25 / 25,7442510,2019-09-08 14:11:01:749,0.0241,0.5915,10.2578,0.0227,-0.0097,9.8066,-0.114,-0.0945,0.062,-15.81,-30.81,29.06,341.71,-78.71,-165.77
76290,52.51922,-1.441835,145.11,5.49,4,148.01,25 / 25,7442610,2019-09-08 14:11:01:849,-0.9609,0.0464,10.6078,0.0233,-0.0275,9.8065,-0.1351,0.0314,-0.0464,-16.0,-31.62,29.38,340.61,-78.65,-166.52
76291,52.51922,-1.441835,145.11,5.49,4,148.01,24 / 24,7442710,2019-09-08 14:11:01:949,-0.7088,0.865,9.047,-0.036,0.0341,9.8065,0.0388,-0.0255,-0.0302,-15.31,-31.69,28.88,342.16,-78.71,-166.8
76292,52.51922,-1.441835,145.11,5.49,4,148.01,24 / 24,7442809,2019-09-08 14:11:02:048,-1.0673,1.732,9.5406,-0.0353,0.0252,9.8064,0.0457,-0.0248,-0.0034,-15.56,-31.0,29.44,342.13,-78.91,-165.5
76293,52.51922,-1.441835,145.11,5.49,4,148.01,24 / 24,7442910,2019-09-08 14:11:02:149,-0.8605,0.5325,10.3119,0.014,-0.0288,9.8066,0.053,-0.0089,0.0201,-15.37,-31.87,29.25,343.62,-78.68,-165.61
76294,52.51922,-1.441835,145.11,5.49,4,148.01,24 / 24,7443010,2019-09-08 14:11:02:249,-0.1529,1.3863,9.6372,0.0043,-0.0114,9.8066,0.0207,-0.006,0.0057,-16.19,-31.06,29.88,342.8,-78.6,-165.74
76295,52.51922,-1.441835,145.11,5.49,4,148.01,24 / 24,7443110,2019-09-08 14:11:02:349,-0.5233,0.3493,9.7982,0.0016,-0.0199,9.8066,-0.0502,-0.0247,0.0445,-15.87,-30.31,29.69,342.89,-78.56,-165.76
76296,52.51922,-1.441835,145.11,5.49,4,148.01,24 / 24,7443210,2019-09-08 14:11:02:449,-1.2384,1.0156,9.9742,-0.0021,-0.0095,9.8066,-0.0576,-0.0022,-0.0578,-15.69,-31.69,29.38,341.91,-78.41,-165.39
76297,52.51922,-1.441835,145.11,5.49,4,148.01,24 / 24,7443310,2019-09-08 14:11:02:549,-1.852,1.2521,10.2391,0.0018,-0.0027,9.8066,0.0892,-0.0356,-0.011,-15.31,-31.12,29.81,344.57,-78.38,-165.72
76298,52.51922,-1.441835,145.11,5.49,4,148.01,24 / 24,7443410,2019-09-08 14:11:02:649,-0.8986,2.0486,10.387,-0.0106,0.0083,9.8066,0.0669,-0.0039,0.0173,-15.81,-30.25,30.75,343.69,-78.36,-165.89
76299,52.51922,-1.441835,145.11,5.49,4,148.01,24 / 24,7443510,2019-09-08 14:11:02:749,-1.5819,0.6553,9.397,0.019,-0.0481,9.8065,-0.1797,-0.0834,0.0783,-15.75,-30.81,29.75,342.94,-78.0,-165.45
76300,52.51922,-1.441835,145.11,5.49,4,148.01,24 / 24,7443610,2019-09-08 14:11:02:849,-1.7831,1.0722,8.9409,0.0169,-0.0542,9.8064,-0.1781,-0.0819,0.0485,-15.62,-30.62,29.94,343.68,-77.86,-164.8
76301,52.51922,-1.441835,145.11,5.49,4,148.01,23 / 24,7443710,2019-09-08 14:11:02:949,-1.5808,0.765,9.5855,-0.0182,0.033,9.8065,0.1336,-0.1742,0.0175,-15.12,-30.19,30.19,345.88,-77.7,-164.57
76302,52.51922,-1.441835,145.11,5.49,4,148.01,23 / 24,7443810,2019-09-08 14:11:03:049,-1.3137,0.6708,10.117,-0.0144,0.0291,9.8065,0.0911,-0.1456,0.0172,-15.06,-31.37,30.19,345.87,-77.83,-164.53
76303,52.51922,-1.441835,145.11,5.49,4,148.01,23 / 24,7443909,2019-09-08 14:11:03:148,-1.6329,0.4673,9.7397,0.0062,-0.0204,9.8065,-0.0857,-0.1478,0.0297,-14.94,-30.37,29.81,346.01,-77.78,-164.49
76304,52.51922,-1.441835,145.11,5.49,4,148.01,23 / 24,7444010,2019-09-08 14:11:03:249,-1.8741,0.5197,9.2875,0.0051,-0.0212,9.8066,-0.0771,-0.2144,0.0659,-14.44,-30.06,29.69,348.1,-77.66,-164.33
76305,52.51922,-1.441835,145.11,5.49,4,148.01,23 / 24,7444110,2019-09-08 14:11:03:349,-1.9071,0.7603,10.0513,-0.0037,0.0134,9.8065,0.0627,-0.2431,0.0004,-13.75,-30.75,30.75,349.36,-77.68,-164.04
76306,52.51922,-1.441835,145.11,5.49,4,148.01,23 / 24,7444210,2019-09-08 14:11:03:449,-1.1554,0.5661,9.7165,-0.0027,0.0133,9.8066,0.0284,-0.2445,-0.0117,-14.37,-30.87,30.69,349.04,-77.65,-164.28
76307,52.51922,-1.441835,145.11,5.49,4,148.01,23 / 24,7444310,2019-09-08 14:11:03:549,-2.3238,0.3679,9.8641,-0.0072,-0.0019,9.8066,-0.0418,-0.2488,0.0229,-13.75,-30.25,30.75,349.27,-77.65,-164.17
76308,52.51922,-1.441835,145.11,5.49,4,148.01,23 / 24,7444410,2019-09-08 14:11:03:649,-2.2463,0.4111,9.8048,-0.0024,0.0087,9.8066,-0.0227,-0.2837,0.0633,-13.87,-30.69,31.63,350.47,-77.72,-163.9
76309,52.51922,-1.441835,145.11,5.49,4,148.01,23 / 24,7444510,2019-09-08 14:11:03:749,-2.2466,0.4392,10.1558,0.0011,-0.0057,9.8066,0.0129,-0.2809,0.0595,-13.12,-31.06,31.25,351.88,-77.7,-163.59
76310,52.51922,-1.441835,145.11,5.49,4,148.01,23 / 24,7444610,2019-09-08 14:11:03:849,-1.9721,0.1096,10.0134,0.0034,0.0007,9.8066,0.0393,-0.3106,0.0862,-12.94,-31.62,31.25,351.57,-77.68,-163.78
76311,52.51922,-1.441835,145.11,5.49,4,148.01,25 / 25,7444710,2019-09-08 14:11:03:949,-2.7696,1.0531,9.5335,-0.0103,0.0091,9.8065,-0.0399,-0.3537,0.1056,-11.19,-30.94,31.56,356.99,-77.67,-163.38
76312,52.51922,-1.441835,145.11,5.49,4,148.01,25 / 25,7444812,2019-09-08 14:11:04:051,-3.0488,0.967,9.9966,-0.0099,0.0098,9.8065,-0.0382,-0.3782,0.082,-11.37,-31.12,31.88,357.35,-77.62,-163.09
76313,52.51922,-1.441835,145.11,5.49,4,148.01,25 / 25,7444910,2019-09-08 14:11:04:149,-2.3648,0.8971,9.6718,0.0173,-0.0024,9.8066,0.1208,-0.4571,0.1153,-10.69,-31.12,31.69,357.02,-77.57,-163.36
76314,52.51922,-1.441835,145.11,5.49,4,148.01,25 / 25,7445009,2019-09-08 14:11:04:248,-3.2402,0.9942,9.9947,0.0025,0.0007,9.8066,0.078,-0.4499,0.0483,-8.94,-31.06,31.5,0.26,-77.45,-164.09
76315,52.51922,-1.441835,145.11,5.49,4,148.01,25 / 25,7445110,2019-09-08 14:11:04:349,-2.5996,1.0318,9.2494,0.0128,0.0068,9.8065,-0.0774,-0.4551,0.0201,-8.69,-31.56,31.0,358.51,-77.4,-164.94
76316,52.51922,-1.441835,145.11,5.49,4,148.01,25 / 25,7445210,2019-09-08 14:11:04:449,-3.121,1.2359,9.7536,0.014,0.001,9.8066,-0.0465,-0.4996,0.0494,-8.75,-31.5,31.25,357.05,-77.44,-166.08
76317,52.51922,-1.441835,145.11,5.49,4,148.01,25 / 25,7445310,2019-09-08 14:11:04:549,-2.4841,0.7792,9.5138,0.0189,-0.0013,9.8066,-0.0779,-0.4841,0.0131,-6.5,-31.31,31.69,2.31,-77.52,-167.6
76318,52.51922,-1.441835,145.11,5.49,4,148.01,25 / 25,7445410,2019-09-08 14:11:04:649,-2.3236,1.8385,9.5835,0.0224,-0.0051,9.8065,-0.0928,-0.5152,0.0664,-5.12,-31.75,31.25,2.8,-77.65,-168.71
76319,52.51922,-1.441835,145.11,5.49,4,148.01,25 / 25,7445510,2019-09-08 14:11:04:749,-2.2957,1.256,9.8413,-0.0014,0.0105,9.8066,-0.0534,-0.5379,0.1029,-5.25,-31.69,30.38,1.94,-77.68,-169.08
76320,52.51922,-1.441835,145.11,5.49,4,148.01,25 / 25,7445610,2019-09-08 14:11:04:849,-2.4003,1.0171,9.4401,0.0075,-0.0014,9.8066,-0.0541,-0.4539,0.0204,-4.44,-31.87,29.75,4.09,-77.69,-169.33
76321,52.51922,-1.441835,145.11,5.49,4,148.01,23 / 23,7445710,2019-09-08 14:11:04:949,-2.3821,2.1976,9.7361,-0.0074,0.0116,9.8066,0.031,-0.4407,0.1049,-3.56,-31.75,29.75,3.16,-77.65,-170.03
76322,52.51922,-1.441835,145.11,5.49,4,148.01,23 / 23,7445809,2019-09-08 14:11:05:048,-2.4662,1.7757,9.7694,-0.0026,0.0093,9.8066,0.0277,-0.469,0.0718,-2.06,-32.06,29.81,8.62,-77.67,-169.71
76323,52.51922,-1.441835,145.11,5.49,4,148.01,23 / 23,7445910,2019-09-08 14:11:05:149,-2.553,1.5512,9.6357,0.0105,-0.0229,9.8066,-0.0062,-0.4808,0.0746,-1.81,-32.25,28.88,7.15,-77.47,-170.78
76324,52.51922,-1.441835,145.11,5.49,4,148.01,23 / 23,7446010,2019-09-08 14:11:05:249,-2.4884,2.3632,9.8465,0.0176,-0.0299,9.8065,-0.0355,-0.5053,0.0744,-1.31,-32.0,28.31,8.57,-77.3,-171.74
76325,52.51922,-1.441835,145.11,5.49,4,148.01,23 / 23,7446110,2019-09-08 14:11:05:349,-1.745,2.1876,9.3238,0.0234,0.0078,9.8065,0.0703,-0.4916,0.0667,0.0,-32.81,28.38,10.1,-77.22,-172.77
76326,52.51922,-1.441835,145.11,5.49,4,148.01,23 / 23,7446210,2019-09-08 14:11:05:449,-1.7111,1.6693,9.7381,0.0077,0.0098,9.8066,0.043,-0.5009,0.0978,1.94,-32.44,28.19,13.91,-77.26,-173.97
76327,52.51922,-1.441835,145.11,5.49,4,148.01,23 / 23,7446310,2019-09-08 14:11:05:549,-1.5455,1.8997,9.69,0.0097,-0.0025,9.8066,-0.0126,-0.4764,0.0994,1.5,-32.87,27.38,13.92,-77.27,-174.35
76328,52.51922,-1.441835,145.11,5.49,4,148.01,23 / 23,7446410,2019-09-08 14:11:05:649,-2.2213,1.6543,9.7735,0.0056,-0.0031,9.8066,-0.0237,-0.4916,0.09,2.13,-33.31,26.25,13.57,-77.3,-174.9
76329,52.51922,-1.441835,145.11,5.49,4,148.01,23 / 23,7446510,2019-09-08 14:11:05:749,-2.2397,1.7497,9.7262,0.014,0.0076,9.8066,0.0101,-0.4898,0.0503,2.38,-33.06,25.63,12.31,-77.37,-175.77
76330,52.51922,-1.441835,145.11,5.49,4,148.01,23 / 23,7446610,2019-09-08 14:11:05:849,-1.852,0.9776,9.9413,0.0202,0.0185,9.8066,0.0117,-0.4677,0.0191,3.13,-33.0,25.19,14.64,-77.5,-176.65
76331,52.51922,-1.441835,145.11,5.49,4,148.01,24 / 24,7446710,2019-09-08 14:11:05:949,-2.5155,1.5648,9.7237,0.0226,-0.0002,9.8066,-0.1242,-0.4628,0.0028,3.44,-33.5,24.81,12.96,-77.7,-177.77
76332,52.51922,-1.441835,145.11,5.49,4,148.01,24 / 24,7446809,2019-09-08 14:11:06:048,-1.4389,2.3119,9.055,0.0271,-0.0048,9.8066,-0.153,-0.47,0.0559,5.0,-34.06,23.38,18.14,-77.94,-179.9
76333,52.51922,-1.441835,145.11,5.49,4,148.01,24 / 24,7446910,2019-09-08 14:11:06:149,-1.811,1.7658,9.7492,0.0187,0.0258,9.8066,0.019,-0.4739,0.0846,5.81,-34.0,23.06,20.0,-78.15,179.21
76334,52.51922,-1.441835,145.11,5.49,4,148.01,24 / 24,7447010,2019-09-08 14:11:06:249,-1.0871,2.1598,9.8412,0.0143,0.0274,9.8066,0.0439,-0.4659,0.0572,5.69,-33.81,21.69,20.05,-78.48,178.55
76335,52.51922,-1.441835,145.11,5.49,4,148.01,24 / 24,7447110,2019-09-08 14:11:06:349,-2.6667,1.4073,9.8332,-0.007,-0.0167,9.8066,-0.0271,-0.5335,0.0986,5.69,-34.25,20.88,21.43,-78.39,178.5
76336,52.51922,-1.441835,145.11,5.49,4,148.01,24 / 24,7447210,2019-09-08 14:11:06:449,-2.3618,2.1753,9.4538,-0.0013,-0.0208,9.8066,-0.0548,-0.516,0.0959,6.5,-35.0,20.0,26.53,-78.46,178.25
76337,52.51922,-1.441835,145.11,5.49,4,148.01,24 / 24,7447310,2019-09-08 14:11:06:549,-2.1794,2.3868,8.9978,0.0272,0.0282,9.8065,-0.0066,-0.5031,0.0626,7.13,-34.31,19.06,27.07,-78.55,177.62
76338,52.51922,-1.441835,145.11,5.49,4,148.01,24 / 24,7447410,2019-09-08 14:11:06:649,-1.9288,2.7388,10.3269,0.0249,0.0117,9.8065,0.0368,-0.534,0.08,7.69,-34.06,18.81,28.36,-78.79,176.27
76339,52.51922,-1.441835,145.11,5.49,4,148.01,24 / 24,7447510,2019-09-08 14:11:06:749,-1.7014,1.4299,10.3564,0.0057,-0.0299,9.8066,0.1023,-0.5609,0.0843,7.5,-34.69,17.44,31.93,-78.76,175.1
76340,52.51922,-1.441835,145.11,5.49,4,148.01,24 / 24,7447610,2019-09-08 14:11:06:849,-2.1978,1.6243,10.3021,-0.0032,-0.0223,9.8066,0.0919,-0.5608,0.0751,7.94,-34.62,16.63,30.55,-78.56,173.97
76341,52.51922,-1.441835,145.11,5.49,4,148.01,24 / 24,7447711,2019-09-08 14:11:06:950,-2.3216,1.4863,9.9435,0.0108,0.0096,9.8066,-0.0773,-0.5643,0.0989,8.06,-35.0,15.88,32.8,-78.6,173.55
76342,52.51922,-1.441835,145.11,5.49,4,148.01,24 / 24,7447812,2019-09-08 14:11:07:051,-2.2492,2.6459,9.6733,0.0127,0.014,9.8066,-0.0551,-0.5762,0.1016,8.06,-35.06,14.81,35.41,-78.79,173.32
76343,52.51922,-1.441835,145.11,5.49,4,148.01,24 / 24,7447910,2019-09-08 14:11:07:149,-2.1297,2.5369,9.8747,-0.0054,-0.0026,9.8066,0.0892,-0.5909,0.1523,8.31,-35.44,13.81,38.85,-78.86,173.21
76344,52.51922,-1.441835,145.11,5.49,4,148.01,24 / 24,7448010,2019-09-08 14:11:07:249,-2.0671,2.413,9.4543,0.0222,0.0001,9.8065,0.0161,-0.5723,0.0563,8.31,-35.75,12.75,43.74,-78.85,173.04
76345,52.51922,-1.441835,145.11,5.49,4,148.01,24 / 24,7448110,2019-09-08 14:11:07:349,-1.7266,3.5244,9.7582,0.0199,0.0018,9.8066,0.0149,-0.6265,0.1454,8.81,-35.37,10.88,54.91,-78.94,172.07
76346,52.51922,-1.441835,145.11,5.49,4,148.01,24 / 24,7448210,2019-09-08 14:11:07:449,-0.1117,3.4377,9.9807,0.0292,-0.0041,9.8065,0.0019,-0.5839,0.1122,8.63,-35.44,10.13,58.99,-79.1,171.25
76347,52.51922,-1.441835,145.11,5.49,4,148.01,24 / 24,7448310,2019-09-08 14:11:07:549,-0.2374,3.0111,10.0295,-0.0018,0.0038,9.8065,-0.0531,-0.5641,0.1257,7.56,-35.81,8.38,70.53,-79.26,170.61
76348,52.51922,-1.441835,145.11,5.49,4,148.01,24 / 24,7448410,2019-09-08 14:11:07:649,0.8034,3.3208,9.5274,-0.0063,0.0032,9.8066,-0.1007,-0.5704,0.0861,7.88,-35.87,7.44,78.36,-79.36,170.85
76349,52.51922,-1.441835,145.11,5.49,4,148.01,24 / 24,7448510,2019-09-08 14:11:07:749,0.6876,2.3923,10.0109,0.0422,0.0,9.8065,0.1411,-0.6422,0.131,7.88,-36.06,7.5,70.32,-79.42,171.04
76350,52.51922,-1.441835,145.11,5.49,4,148.01,24 / 24,7448610,2019-09-08 14:11:07:849,0.5078,4.032,9.4675,0.0395,0.0005,9.8065,0.1362,-0.6161,0.0832,7.56,-37.12,5.5,86.1,-79.77,171.15
76351,52.51922,-1.441835,145.11,5.49,4,148.01,23 / 23,7448710,2019-09-08 14:11:07:949,2.5703,2.3676,9.2294,-0.0355,0.0012,9.8065,-0.1942,-0.5627,0.0523,6.25,-36.5,4.19,107.19,-79.69,171.12
76352,52.51922,-1.441835,145.11,5.49,4,148.01,23 / 23,7448809,2019-09-08 14:11:08:048,1.6794,2.6747,9.2777,-0.0271,0.008,9.8065,-0.1295,-0.5931,0.1007,6.13,-36.5,3.81,106.65,-79.74,170.74
76353,52.51922,-1.441835,145.11,5.49,4,148.01,23 / 23,7448910,2019-09-08 14:11:08:149,1.5745,2.6171,9.5755,0.0151,0.0036,9.8066,0.0377,-0.6299,0.1107,5.63,-37.25,3.31,116.12,-79.86,171.06
76354,52.51922,-1.441835,145.11,5.49,4,148.01,23 / 23,7449010,2019-09-08 14:11:08:249,2.115,2.7788,10.5614,0.0087,-0.0099,9.8066,-0.0119,-0.5197,0.0219,5.19,-37.56,1.88,130.26,-79.99,171.63
76355,52.51922,-1.441835,145.11,5.49,4,148.01,23 / 23,7449109,2019-09-08 14:11:08:348,3.0423,1.9294,10.0824,-0.0105,-0.0032,9.8066,-0.0575,-0.5254,0.0514,5.06,-36.5,0.63,132.64,-80.15,170.8
76356,52.51922,-1.441835,145.11,5.49,4,148.01,23 / 23,7449210,2019-09-08 14:11:08:449,2.4247,0.654,9.8409,-0.0156,0.0017,9.8065,-0.0634,-0.441,0.0086,4.81,-36.62,1.0,133.1,-80.2,169.5
76357,52.51922,-1.441835,145.11,5.49,4,148.01,23 / 23,7449310,2019-09-08 14:11:08:549,0.853,1.4878,9.3691,-0.0107,-0.0092,9.8066,0.1354,-0.419,0.0094,4.38,-37.0,-1.06,147.27,-80.17,167.32
76358,52.51922,-1.441835,145.11,5.49,4,148.01,23 / 23,7449410,2019-09-08 14:11:08:649,1.8735,1.1901,9.8116,0.014,0.0021,9.8066,0.1238,-0.4551,0.0682,3.69,-36.5,-1.37,146.7,-80.15,167.58
76359,52.51922,-1.441835,145.11,5.49,4,148.01,23 / 23,7449509,2019-09-08 14:11:08:748,1.831,0.8704,9.6793,0.0103,-0.0123,9.8066,-0.1418,-0.4193,0.05,2.88,-37.31,-1.31,154.72,-80.27,168.73
76360,52.51922,-1.441835,145.11,5.49,4,148.01,23 / 23,7449610,2019-09-08 14:11:08:849,3.2011,-0.6521,9.8988,0.005,-0.0015,9.8066,-0.1696,-0.4076,0.078,2.56,-37.56,-2.75,157.83,-80.56,169.36
76361,52.51895,-1.441979,144.61,5.36,4,322.14,25 / 25,7449710,2019-09-08 14:11:08:949,1.7613,-0.2309,10.4766,-0.0029,-0.0331,9.8065,0.0376,-0.2027,-0.0918,2.44,-37.69,-3.12,163.39,-80.85,168.61
76362,52.51895,-1.441979,144.61,5.36,4,322.14,25 / 25,7449811,2019-09-08 14:11:09:050,2.106,1.9193,11.211,-0.0198,-0.0115,9.8066,0.2849,-0.357,0.1448,2.5,-36.44,-3.12,154.66,-81.17,165.94
76363,52.51895,-1.441979,144.61,5.36,4,322.14,25 / 25,7449910,2019-09-08 14:11:09:149,0.3455,0.6827,10.6476,-0.0144,0.0573,9.8064,-0.2456,-0.3292,0.1605,2.19,-37.37,-3.69,161.26,-81.38,164.5
76364,52.51895,-1.441979,144.61,5.36,4,322.14,25 / 25,7450010,2019-09-08 14:11:09:249,1.25,-1.0532,9.1815,0.0049,0.0529,9.8064,-0.1913,-0.257,0.0696,2.0,-37.19,-4.81,162.35,-81.04,165.4
76365,52.51895,-1.441979,144.61,5.36,4,322.14,25 / 25,7450110,2019-09-08 14:11:09:349,1.6227,-0.8514,9.5712,0.0138,-0.0507,9.8065,0.2471,-0.2568,0.0328,1.06,-37.44,-4.25,168.44,-81.0,166.28
76366,52.51895,-1.441979,144.61,5.36,4,322.14,25 / 25,7450210,2019-09-08 14:11:09:449,1.9793,0.2733,10.0296,0.0041,-0.0579,9.8065,0.1943,-0.2284,0.0309,0.56,-37.44,-4.19,168.62,-81.26,167.18
76367,52.51895,-1.441979,144.61,5.36,4,322.14,25 / 25,7450310,2019-09-08 14:11:09:549,2.2231,0.714,9.8307,-0.0023,0.0411,9.8065,-0.0868,-0.1962,0.0423,0.63,-37.62,-4.81,168.84,-80.98,167.2
76368,52.51895,-1.441979,144.61,5.36,4,322.14,25 / 25,7450410,2019-09-08 14:11:09:649,1.5966,0.2348,9.446,-0.0101,0.0226,9.8066,-0.0521,-0.201,0.0202,1.0,-36.31,-5.25,168.04,-81.05,166.32
76369,52.51895,-1.441979,144.61,5.36,4,322.14,25 / 25,7450510,2019-09-08 14:11:09:749,1.1707,-0.2265,9.3879,-0.0103,-0.0365,9.8065,0.0383,-0.1977,0.0245,0.0,-37.37,-5.0,173.06,-81.1,165.2
76370,52.51895,-1.441979,144.61,5.36,4,322.14,25 / 25,7450610,2019-09-08 14:11:09:849,1.2767,-0.3888,10.0982,-0.013,-0.0323,9.8065,0.033,-0.1943,0.0202,0.0,-37.62,-5.87,171.88,-81.29,164.19
76371,52.51895,-1.441979,144.61,5.36,4,322.14,25 / 25,7450710,2019-09-08 14:11:09:949,1.4297,0.457,9.9116,0.0086,-0.0011,9.8066,0.0665,-0.1899,0.0651,0.0,-37.37,-5.69,171.76,-81.26,164.14
76372,52.51895,-1.441979,144.61,5.36,4,322.14,25 / 25,7450810,2019-09-08 14:11:10:049,1.9226,0.17,10.3832,0.008,-0.0165,9.8066,0.1728,-0.1644,0.0398,-0.25,-37.31,-5.31,172.92,-81.39,165.14
76373,52.51895,-1.441979,144.61,5.36,4,322.14,25 / 25,7450910,2019-09-08 14:11:10:149,0.5603,-0.9811,9.4084,-0.0004,0.013,9.8065,-0.1677,-0.1257,0.0113,-0.75,-37.25,-6.25,177.18,-81.32,165.15
76374,52.51895,-1.441979,144.61,5.36,4,322.14,25 / 25,7451010,2019-09-08 14:11:10:249,1.4324,-0.7873,9.3145,0.0085,0.0142,9.8066,-0.1377,-0.1544,0.0306,-0.87,-37.56,-6.25,177.41,-81.29,165.53
76375,52.51895,-1.441979,144.61,5.36,4,322.14,25 / 25,7451110,2019-09-08 14:11:10:349,0.9402,-0.505,9.282,-0.0153,-0.04,9.8065,0.1039,-0.1473,0.0038,-1.31,-37.37,-6.62,176.37,-81.3,165.41
76376,52.51895,-1.441979,144.61,5.36,4,322.14,25 / 25,7451210,2019-09-08 14:11:10:449,1.213,-0.2077,10.499,-0.0153,-0.0339,9.8066,0.1549,-0.1973,0.0519,-1.62,-37.37,-6.62,180.18,-81.55,164.36
76377,52.51895,-1.441979,144.61,5.36,4,322.14,25 / 25,7451310,2019-09-08 14:11:10:549,0.9336,-0.0012,10.235,0.0084,0.0422,9.8065,-0.0694,-0.1545,-0.0027,-1.69,-37.37,-6.31,181.49,-81.53,164.32
76378,52.51895,-1.441979,144.61,5.36,4,322.14,25 / 25,7451411,2019-09-08 14:11:10:650,0.79,-0.4364,9.9279,0.0157,0.0242,9.8065,-0.0168,-0.1105,0.0108,-1.81,-37.12,-6.5,181.81,-81.33,164.95
76379,52.51895,-1.441979,144.61,5.36,4,322.14,25 / 25,7451510,2019-09-08 14:11:10:749,0.9321,-0.5838,9.7691,-0.0044,-0.0072,9.8065,-0.0324,-0.0951,-0.0054,-1.87,-37.56,-6.37,181.89,-81.42,165.12
76380,52.51895,-1.441979,144.61,5.36,4,322.14,25 / 25,7451610,2019-09-08 14:11:10:849,0.7402,-1.1546,9.9492,0.0014,0.009,9.8066,-0.016,-0.0888,0.0347,-2.06,-37.81,-6.56,180.52,-81.3,164.98
76381,52.51895,-1.441979,144.61,5.36,4,322.14,25 / 25,7451710,2019-09-08 14:11:10:949,0.2868,-0.4908,9.3862,-0.012,-0.0161,9.8065,0.0882,-0.0854,-0.0246,-2.37,-37.69,-6.75,180.73,-81.13,165.37
76382,52.51895,-1.441979,144.61,5.36,4,322.14,25 / 25,7451809,2019-09-08 14:11:11:048,-0.0146,-0.7476,9.8122,-0.0033,-0.0084,9.8066,0.0469,-0.0504,-0.0357,-2.69,-37.37,-6.75,184.58,-81.06,164.79
76383,52.51895,-1.441979,144.61,5.36,4,322.14,25 / 25,7451910,2019-09-08 14:11:11:149,0.6271,-0.58,10.0083,0.0175,0.0256,9.8066,-0.0376,-0.042,-0.0029,-2.25,-37.25,-6.81,180.54,-80.93,165.02
76384,52.51895,-1.441979,144.61,5.36,4,322.14,25 / 25,7452010,2019-09-08 14:11:11:249,0.6339,-1.536,9.9542,0.0142,0.0252,9.8066,-0.0327,-0.0834,0.0231,-2.44,-37.56,-6.37,182.42,-80.69,166.3
76385,52.51895,-1.441979,144.61,5.36,4,322.14,25 / 25,7452110,2019-09-08 14:11:11:349,0.2995,-1.5486,9.8007,-0.0076,-0.0108,9.8065,0.0426,-0.0796,-0.0018,-2.69,-37.81,-6.56,185.25,-80.72,166.2
76386,52.51895,-1.441979,144.61,5.36,4,322.14,25 / 25,7452210,2019-09-08 14:11:11:449,-0.2836,-0.5042,9.5008,-0.0054,0.0019,9.8066,0.0199,-0.0291,-0.032,-2.44,-37.25,-6.69,181.05,-80.6,165.96
76387,52.51895,-1.441979,144.61,5.36,4,322.14,25 / 25,7452310,2019-09-08 14:11:11:549,0.0591,-0.4583,9.4699,0.0059,0.0073,9.8066,-0.0981,-0.0049,-0.0381,-2.0,-37.5,-6.37,182.04,-80.6,165.52
76388,52.51895,-1.441979,144.61,5.36,4,322.14,25 / 25,7452410,2019-09-08 14:11:11:649,0.0504,-1.3408,9.817,-0.0056,0.005,9.8066,-0.0512,-0.0708,0.0323,-3.25,-38.12,-7.12,184.69,-80.63,165.24
76389,52.51895,-1.441979,144.61,5.36,4,322.14,25 / 25,7452510,2019-09-08 14:11:11:749,-0.1288,-1.2077,10.0645,-0.003,-0.0067,9.8066,-0.034,-0.0359,0.0165,-3.06,-37.56,-7.0,184.72,-80.7,165.27
76390,52.51895,-1.441979,144.61,5.36,4,322.14,25 / 25,7452610,2019-09-08 14:11:11:849,0.039,-1.0792,10.3129,-0.0005,-0.0107,9.8066,0.0693,-0.0267,-0.0197,-2.06,-37.62,-6.87,180.76,-80.81,165.44
76391,52.51895,-1.441979,144.61,5.36,4,322.14,25 / 25,7452710,2019-09-08 14:11:11:949,0.1955,-0.9835,9.8466,-0.0068,0.0088,9.8066,-0.0141,0.0255,-0.0577,-2.19,-37.69,-7.06,180.57,-80.81,165.1
76392,52.51895,-1.441979,144.61,5.36,4,322.14,25 / 25,7452810,2019-09-08 14:11:12:049,-1.2103,-1.2046,9.7397,-0.0074,0.0067,9.8066,-0.0179,0.0095,-0.0028,-1.87,-37.37,-7.0,180.15,-80.66,164.32
76393,52.51895,-1.441979,144.61,5.36,4,322.14,25 / 25,7452910,2019-09-08 14:11:12:149,-0.8872,-1.118,9.9116,0.0102,0.0172,9.8065,0.0112,0.0125,0.0203,-2.06,-37.19,-7.12,180.33,-80.58,164.66
76394,52.51895,-1.441979,144.61,5.36,4,322.14,25 / 25,7453010,2019-09-08 14:11:12:249,-0.4183,-1.55,10.1892,0.0107,0.0187,9.8066,0.0226,0.0636,-0.0014,-2.06,-37.31,-6.75,180.89,-80.39,165.69
76395,52.51895,-1.441979,144.61,5.36,4,322.14,25 / 25,7453110,2019-09-08 14:11:12:349,-0.7712,-1.456,9.9557,0.007,0.0087,9.8066,0.0079,0.0719,-0.0011,-1.87,-37.31,-6.69,181.12,-80.27,166.11
76396,52.51895,-1.441979,144.61,5.36,4,322.14,25 / 25,7453209,2019-09-08 14:11:12:448,-0.9493,-1.4016,9.7082,0.003,0.0153,9.8066,-0.0125,0.1067,-0.0423,-1.94,-37.31,-6.75,181.23,-80.14,166.34
76397,52.51895,-1.441979,144.61,5.36,4,322.14,25 / 25,7453309,2019-09-08 14:11:12:548,-1.2403,-1.1003,9.3776,0.0011,-0.0025,9.8066,0.0533,0.1035,-0.02,-1.25,-36.87,-6.37,177.96,-79.98,166.36
76398,52.51895,-1.441979,144.61,5.36,4,322.14,25 / 25,7453410,2019-09-08 14:11:12:649,-1.4092,-1.4272,10.1894,0.001,-0.0124,9.8066,0.0789,0.1451,-0.0242,-1.94,-37.56,-6.19,182.51,-79.94,166.67
76399,52.51895,-1.441979,144.61,5.36,4,322.14,25 / 25,7453510,2019-09-08 14:11:12:749,-1.1214,-1.7916,10.2921,0.0204,0.032,9.8065,-0.0118,0.1718,-0.0262,-1.12,-37.81,-6.0,178.3,-79.89,167.0
76400,52.51895,-1.441979,144.61,5.36,4,322.14,25 / 25,7453610,2019-09-08 14:11:12:849,-0.728,-1.6544,9.7701,0.0134,0.0231,9.8065,-0.0211,0.1298,0.0198,-1.5,-37.37,-6.12,179.02,-79.64,168.5
76401,52.51895,-1.441979,144.61,5.36,4,322.14,24 / 24,7453711,2019-09-08 14:11:12:950,-1.0055,-1.545,9.8178,0.0046,-0.0153,9.8065,0.0383,0.1739,0.0145,-0.87,-37.44,-5.94,179.55,-79.66,169.6
76402,52.51895,-1.441979,144.61,5.36,4,322.14,24 / 24,7453810,2019-09-08 14:11:13:049,-0.4728,-1.9242,9.9759,0.0102,-0.0159,9.8065,0.0244,0.185,-0.0238,-0.37,-37.87,-6.06,175.54,-79.66,170.54
76403,52.51895,-1.441979,144.61,5.36,4,322.14,24 / 24,7453910,2019-09-08 14:11:13:149,-1.2433,-1.4537,9.8405,-0.004,0.015,9.8066,-0.0128,0.198,-0.0439,-0.94,-37.62,-5.44,180.87,-79.65,170.7
76404,52.51895,-1.441979,144.61,5.36,4,322.14,24 / 24,7454010,2019-09-08 14:11:13:249,-1.3331,-1.8397,9.2834,-0.0022,0.0232,9.8066,-0.0372,0.2458,-0.0886,0.0,-37.69,-6.0,175.56,-79.43,170.48
76405,52.51895,-1.441979,144.61,5.36,4,322.14,24 / 24,7454110,2019-09-08 14:11:13:349,-1.3013,-1.4194,9.439,0.0068,-0.0098,9.8066,-0.0075,0.2348,-0.0272,0.06,-37.56,-5.69,175.61,-79.36,170.54
76406,52.51895,-1.441979,144.61,5.36,4,322.14,24 / 24,7454210,2019-09-08 14:11:13:449,-0.686,-1.8299,9.471,0.0182,-0.0064,9.8065,0.0064,0.2089,0.0177,1.5,-37.06,-4.94,166.58,-79.43,171.58
76407,52.51895,-1.441979,144.61,5.36,4,322.14,24 / 24,7454310,2019-09-08 14:11:13:549,-0.6898,-2.2319,9.8693,0.0188,0.0032,9.8065,-0.019,0.1937,-0.0335,0.94,-37.31,-4.31,172.24,-79.45,173.58
76408,52.51895,-1.441979,144.61,5.36,4,322.14,24 / 24,7454410,2019-09-08 14:11:13:649,-0.421,-1.997,9.7872,0.0155,0.003,9.8066,0.0012,0.2208,-0.0294,1.06,-37.37,-4.56,172.78,-79.47,174.62
76409,52.51895,-1.441979,144.61,5.36,4,322.14,24 / 24,7454510,2019-09-08 14:11:13:749,-0.4993,-1.6236,10.0636,0.0089,0.0033,9.8066,-0.0117,0.2409,-0.0302,0.81,-37.31,-4.62,173.02,-79.49,175.19
76410,52.51895,-1.441979,144.61,5.36,4,322.14,24 / 24,7454609,2019-09-08 14:11:13:848,-0.6001,-1.7252,9.8922,0.0032,0.0005,9.8066,0.0035,0.2556,-0.0531,1.75,-37.37,-4.0,167.72,-79.47,175.71
76411,52.51895,-1.441979,144.61,5.36,4,322.14,23 / 24,7454710,2019-09-08 14:11:13:949,-0.7838,-1.072,9.7802,0.0043,0.0085,9.8065,0.0434,0.2539,-0.03,2.25,-37.25,-4.0,167.82,-79.41,175.85
76412,52.51895,-1.441979,144.61,5.36,4,322.14,23 / 24,7454810,2019-09-08 14:11:14:049,-0.828,-1.0659,9.5663,0.0058,0.0066,9.8066,-0.0165,0.2685,-0.0284,2.88,-37.06,-3.37,161.72,-79.3,176.42
76413,52.51895,-1.441979,144.61,5.36,4,322.14,23 / 24,7454910,2019-09-08 14:11:14:149,-0.889,-1.0654,9.6589,0.0163,0.0028,9.8066,0.0246,0.2752,-0.0344,3.44,-36.69,-2.37,160.56,-79.29,177.7
76414,52.51895,-1.441979,144.61,5.36,4,322.14,23 / 24,7455010,2019-09-08 14:11:14:249,-0.7144,-0.8938,9.6654,0.0116,0.0045,9.8066,0.0133,0.3089,-0.0202,3.19,-36.69,-2.69,162.47,-79.32,178.58
76415,52.51895,-1.441979,144.61,5.36,4,322.14,23 / 24,7455110,2019-09-08 14:11:14:349,-0.9267,-1.4339,9.9338,0.0077,-0.0054,9.8066,0.0301,0.3287,-0.0265,3.06,-37.12,-1.69,160.88,-79.36,179.04
76416,52.51895,-1.441979,144.61,5.36,4,322.14,23 / 24,7455210,2019-09-08 14:11:14:449,-0.7015,-1.3852,9.8384,0.0125,0.0047,9.8066,0.0099,0.302,-0.0282,3.19,-37.56,-0.94,159.42,-79.37,-180.0
76417,52.51895,-1.441979,144.61,5.36,4,322.14,23 / 24,7455310,2019-09-08 14:11:14:549,-1.0796,-1.4532,9.7696,0.0059,0.0069,9.8066,0.0593,0.3708,-0.0378,4.0,-37.12,-1.62,155.9,-79.31,-179.21
76418,52.51895,-1.441979,144.61,5.36,4,322.14,23 / 24,7455410,2019-09-08 14:11:14:649,-0.9735,-0.589,9.9202,0.0099,-0.0002,9.8066,0.059,0.3739,-0.0176,4.44,-36.19,-1.25,152.98,-79.3,-178.35
76419,52.51895,-1.441979,144.61,5.36,4,322.14,23 / 24,7455510,2019-09-08 14:11:14:749,-0.6309,-1.0067,9.9566,0.009,0.0097,9.8066,-0.0156,0.3713,-0.0445,5.25,-36.12,-0.19,144.23,-79.31,-177.04
76420,52.51895,-1.441979,144.61,5.36,4,322.14,23 / 24,7455610,2019-09-08 14:11:14:849,-0.3664,-1.1576,9.9209,0.0061,0.0125,9.8066,-0.0401,0.367,-0.0763,5.63,-36.25,0.81,135.15,-79.31,-176.22
76421,52.51895,-1.441979,144.61,5.36,4,322.14,24 / 24,7455711,2019-09-08 14:11:14:950,-0.6985,-1.1771,9.5823,0.004,0.0067,9.8066,0.0351,0.3794,-0.0472,6.63,-36.75,1.06,132.16,-79.33,-175.66
76422,52.51895,-1.441979,144.61,5.36,4,322.14,24 / 24,7455809,2019-09-08 14:11:15:048,-0.9112,-0.7635,9.8527,0.0011,0.0105,9.8066,0.0415,0.4115,-0.0914,6.38,-36.5,2.0,130.47,-79.31,-174.84
76423,52.51895,-1.441979,144.61,5.36,4,322.14,24 / 24,7455911,2019-09-08 14:11:15:150,-0.8444,-1.2864,9.715,-0.0001,0.0037,9.8065,-0.0383,0.4477,-0.076,6.5,-36.56,2.0,127.81,-79.3,-174.66
76424,52.51895,-1.441979,144.61,5.36,4,322.14,24 / 24,7456009,2019-09-08 14:11:15:248,-0.4009,-1.7419,9.6388,0.003,0.0109,9.8066,-0.0769,0.4107,-0.0381,6.81,-36.44,2.69,121.67,-79.26,-174.06
76425,52.51895,-1.441979,144.61,5.36,4,322.14,24 / 24,7456110,2019-09-08 14:11:15:349,-0.4709,-0.9319,9.9424,0.0162,0.0011,9.8065,0.0818,0.4011,-0.0402,6.81,-35.94,4.19,115.74,-79.36,-172.97
76426,52.51895,-1.441979,144.61,5.36,4,322.14,24 / 24,7456212,2019-09-08 14:11:15:451,-0.6138,-1.6959,9.7964,0.0085,0.0022,9.8066,0.058,0.4696,-0.0683,7.69,-36.37,5.25,107.92,-79.36,-172.68
