,GPS LATITUDE (degrees), GPS LONGITUDE (degrees), GPS ALTITUDE (m), GPS SPEED (Kmh), GPS ACCURACY (m), GPS ORIENTATION (Â°),GPS SATELLITES IN RANGE, TIME SINCE START (ms), DATE (YYYY-MO-DD HH-MI-SS_SSS), ACCELEROMETER X (m/s²) , ACCELEROMETER Y (m/s²), ACCELEROMETER Z (m/s²), GRAVITY X (m/s²), GRAVITY Y (m/s²), GRAVITY Z (m/s²), GYROSCOPE Yaw (rad/s), GYROSCOPE Pitch (rad/s), GYROSCOPE Roll (rad/s), MAGNETIC FIELD X (Î¼T), MAGNETIC FIELD Y (Î¼T), MAGNETIC FIELD Z (Î¼T), ORIENTATION (Yaw) (Â°), ORIENTATION (Pitch) (Â°), ORIENTATION (Roll ) (Â°)
34075,51.514877,-2.648549,59,24.52,9,54.1,Oct-19,3407588,2019-08-31 09:22:19:310,-0.0419,-0.4308,9.6193,0.1232,-0.1548,9.8047,0.0064,-0.0325,0.0187,2.08,-14.74,-54.33,57.68,-6.96,-1.31
34076,51.514877,-2.648549,59,24.52,9,54.1,Oct-19,3407689,2019-08-31 09:22:19:411,0.6697,-0.4678,9.4998,0.0426,-0.0384,9.8065,0.066,-0.008,-0.0666,1.33,-14.43,-55.14,62.11,-6.58,-0.22
34077,51.514877,-2.648549,59,24.52,9,54.1,Oct-19,3407788,2019-08-31 09:22:19:510,0.633,0.1231,9.2592,0.0502,-0.0418,9.8064,0.0458,0.0005,-0.0037,1.33,-14.74,-55.14,64.47,-6.5,0.11
34078,51.514877,-2.648549,59,24.52,9,54.1,Oct-19,3407888,2019-08-31 09:22:19:610,0.3446,-0.1366,9.8718,0.0984,-0.0836,9.8058,0.0,-0.0037,0.0155,1.33,-14.74,-55.14,64.47,-6.5,0.11
34079,51.514877,-2.648549,59,24.52,9,54.1,Oct-19,3407988,2019-08-31 09:22:19:710,0.196,-0.9788,10.7713,0.1201,-0.1338,9.805,0.0309,0.0133,-0.0122,2.08,-14.36,-53.89,62.89,-6.09,1.09
34080,51.514877,-2.648549,59,24.52,9,54.1,Oct-19,3408088,2019-08-31 09:22:19:810,0.3625,-0.4141,9.8416,0.0228,-0.041,9.8065,-0.0085,-0.0772,0.0187,2.08,-14.43,-54.33,62.89,-6.09,1.09
34081,51.514877,-2.648549,59,24.52,9,54.1,Oct-19,3408188,2019-08-31 09:22:19:910,1.0966,-0.6283,9.6059,0.0557,-0.094,9.806,-0.0085,-0.0772,0.0187,2.08,-14.43,-54.33,62.89,-6.09,1.09
34082,51.514877,-2.648549,59,24.52,9,54.1,Oct-19,3408287,2019-08-31 09:22:20:009,-0.2416,-1.0613,10.2377,0.0097,-0.0503,9.8065,0.0096,0.0378,0.0123,0.96,-14.43,-55.58,68.21,-5.5,1.86
34083,51.514877,-2.648549,59,24.52,9,54.1,Oct-19,3408388,2019-08-31 09:22:20:110,-0.9033,-1.038,10.21,0.0188,-0.0835,9.8063,0.0043,0.0122,-0.0165,1.33,-14.36,-55.14,70.04,-5.09,2.14
34084,51.515007,-2.648256,59,24.92,10,54.0,Oct-19,3408488,2019-08-31 09:22:20:210,0.0831,-0.4142,9.3477,0.0238,-0.0376,9.8066,0.0341,0.0208,-0.0122,1.33,-14.36,-55.14,70.04,-5.09,2.14
34085,51.515007,-2.648256,59,24.92,10,54.0,Oct-19,3408587,2019-08-31 09:22:20:309,-0.3844,-0.9809,9.4736,-0.0067,-0.0403,9.8066,-0.0128,-0.024,-0.009,1.71,-14.74,-56.02,68.66,-4.93,2.35
34086,51.515007,-2.648256,59,24.92,10,54.0,Oct-19,3408688,2019-08-31 09:22:20:410,-0.1412,-0.4042,9.3958,-0.0027,-0.0404,9.8066,-0.0149,0.0197,0.0282,2.08,-14.36,-54.71,68.41,-4.7,2.4
34087,51.515007,-2.648256,59,24.92,10,54.0,Oct-19,3408788,2019-08-31 09:22:20:510,0.1307,-0.2574,9.3769,0.012,-0.072,9.8064,0.033,0.0261,0.0016,2.08,-14.74,-54.71,68.41,-4.7,2.4
34088,51.515007,-2.648256,59,24.92,10,54.0,Oct-19,3408887,2019-08-31 09:22:20:609,-0.1947,-0.7438,9.5452,0.0355,-0.1134,9.8059,-0.0149,-0.0464,0.0112,2.08,-13.99,-55.96,70.29,-4.16,2.84
34089,51.515007,-2.648256,59,24.92,10,54.0,Oct-19,3408988,2019-08-31 09:22:20:710,-1.1556,-0.6253,10.0392,0.016,-0.0373,9.8066,-0.0149,-0.0464,0.0112,2.08,-13.99,-55.96,70.29,-4.16,2.84
34090,51.515007,-2.648256,59,24.92,10,54.0,Oct-19,3409088,2019-08-31 09:22:20:810,0.3776,-0.2705,8.1338,0.0211,-0.0216,9.8066,-0.0075,0.0282,0.0282,2.46,-14.36,-54.27,71.29,-3.99,3.0
34091,51.515007,-2.648256,59,24.92,10,54.0,Oct-19,3409188,2019-08-31 09:22:20:910,-0.2413,-0.5892,10.2947,0.001,-0.0198,9.8066,-0.0085,-0.0261,-0.0176,1.71,-15.11,-55.08,72.93,-3.72,3.08
34092,51.515007,-2.648256,59,24.92,10,54.0,Oct-19,3409287,2019-08-31 09:22:21:009,0.5943,0.1423,8.7585,-0.0013,-0.0329,9.8066,-0.0075,-0.0144,0.0165,1.71,-15.11,-55.08,72.93,-3.72,3.08
34093,51.515007,-2.648256,59,24.92,10,54.0,Oct-19,3409387,2019-08-31 09:22:21:109,-0.4692,-0.5399,8.6764,0.0055,-0.0171,9.8066,-0.032,-0.0538,0.0123,2.46,-15.11,-54.71,73.48,-3.53,3.12
34094,51.51513,-2.64796,59,24.93,10,54.8,Nov-19,3409488,2019-08-31 09:22:21:210,0.4319,-0.3124,8.1063,0.011,-0.0363,9.8066,0.065,0.041,-0.0346,2.08,-15.86,-54.71,73.48,-3.53,3.12
34095,51.51513,-2.64796,59,24.93,10,54.8,Nov-19,3409587,2019-08-31 09:22:21:309,-0.638,-0.3192,9.8079,0.0074,-0.0581,9.8065,0.0469,0.0218,-0.0346,2.08,-15.11,-55.14,74.46,-3.22,3.26
34096,51.51513,-2.64796,59,24.93,10,54.8,Nov-19,3409688,2019-08-31 09:22:21:410,1.4816,0.6294,9.6169,0.0312,-0.0117,9.8066,-0.0192,-0.041,0.0282,2.46,-15.11,-55.08,74.46,-3.22,3.26
34097,51.51513,-2.64796,59,24.93,10,54.8,Nov-19,3409788,2019-08-31 09:22:21:510,-0.5831,0.0188,9.7713,0.031,-0.0228,9.8066,-0.0192,-0.041,0.0282,2.46,-15.11,-55.08,74.46,-3.22,3.26
34098,51.51513,-2.64796,59,24.93,10,54.8,Nov-19,3409888,2019-08-31 09:22:21:610,0.0288,0.0946,9.7828,0.0455,-0.025,9.8065,0.0309,0.0591,-0.0218,2.46,-14.74,-55.08,74.89,-3.15,3.56
34099,51.51513,-2.64796,59,24.93,10,54.8,Nov-19,3409987,2019-08-31 09:22:21:709,0.3666,0.3514,9.7793,0.0032,-0.0096,9.8066,0.0096,0.0208,-0.008,2.46,-14.74,-54.64,75.05,-3.1,3.59
34100,51.51513,-2.64796,59,24.93,10,54.8,Nov-19,3410088,2019-08-31 09:22:21:810,-0.2595,-0.1718,10.1184,0.0083,-0.0119,9.8066,-0.0202,-0.0123,0.0133,2.46,-14.74,-54.64,75.05,-3.1,3.59
34101,51.51513,-2.64796,59,24.93,10,54.8,Nov-19,3410188,2019-08-31 09:22:21:910,0.8772,0.2278,9.5658,0.0013,-0.0148,9.8066,0.0011,0.0122,-0.008,2.08,-14.74,-54.71,75.25,-3.05,3.66
34102,51.51513,-2.64796,59,24.93,10,54.8,Nov-19,3410287,2019-08-31 09:22:22:009,-0.3435,-0.4599,10.1072,-0.0111,-0.0458,9.8065,-0.0107,-0.0687,-0.0016,2.08,-14.74,-54.21,76.1,-2.77,3.66
34103,51.51513,-2.64796,59,24.93,10,54.8,Nov-19,3410388,2019-08-31 09:22:22:110,-0.2757,-0.0853,10.0226,0.0007,0.0004,9.8067,-0.0064,0.0538,-0.0101,2.08,-14.74,-54.21,76.1,-2.77,3.66
34104,51.515255,-2.647654,60,25.13,10,54.6,Nov-19,3410488,2019-08-31 09:22:22:210,-0.5194,-0.151,9.2575,-0.0088,0.0149,9.8066,-0.0064,0.0538,-0.0101,2.08,-14.74,-55.08,76.0,-2.77,3.66
34105,51.515255,-2.647654,60,25.13,10,54.6,Nov-19,3410588,2019-08-31 09:22:22:310,-0.3687,-0.1125,10.5058,-0.0192,0.0266,9.8066,-0.0298,0.0186,-0.0026,2.08,-14.74,-55.08,76.0,-2.77,3.66
34106,51.515255,-2.647654,60,25.13,10,54.6,Nov-19,3410688,2019-08-31 09:22:22:410,-0.8401,-0.3004,10.0912,-0.0168,0.0229,9.8066,-0.0266,0.0314,0.0101,1.71,-14.74,-54.21,75.65,-2.9,3.52
34107,51.515255,-2.647654,60,25.13,10,54.6,Nov-19,3410788,2019-08-31 09:22:22:510,-0.0332,0.6775,9.5521,-0.0186,0.059,9.8065,-0.0256,-0.0251,0.008,1.71,-14.36,-54.21,73.82,-3.21,3.33
34108,51.515255,-2.647654,60,25.13,10,54.6,Nov-19,3410888,2019-08-31 09:22:22:610,0.829,0.1913,10.0119,0.0374,0.0141,9.8066,0.0394,0.0208,-0.0218,1.71,-14.36,-54.21,73.82,-3.21,3.33
34109,51.515255,-2.647654,60,25.13,10,54.6,Nov-19,3410988,2019-08-31 09:22:22:710,-0.3314,0.0597,9.9012,-0.002,-0.0108,9.8066,-0.0096,0.0154,-0.0005,2.46,-14.74,-53.83,74.59,-3.32,3.59
34110,51.515255,-2.647654,60,25.13,10,54.6,Nov-19,3411087,2019-08-31 09:22:22:809,1.3628,0.152,8.3911,-0.006,-0.0251,9.8066,0.0458,0.0069,-0.0442,2.46,-14.36,-54.21,73.92,-3.25,3.6
34111,51.515255,-2.647654,60,25.13,10,54.6,Nov-19,3411188,2019-08-31 09:22:22:910,-0.8128,0.2644,9.0353,-0.0331,-0.0336,9.8065,-0.0011,-0.0421,-0.0314,2.46,-14.36,-54.21,73.92,-3.25,3.6
34112,51.515255,-2.647654,60,25.13,10,54.6,Nov-19,3411288,2019-08-31 09:22:23:010,0.0757,-0.3837,9.9027,-0.0238,-0.0474,9.8065,-0.0011,-0.0421,-0.0314,2.83,-14.36,-54.64,71.36,-3.01,3.46
34113,51.515255,-2.647654,60,25.13,10,54.6,Nov-19,3411388,2019-08-31 09:22:23:110,0.4364,0.1617,9.4016,-0.0167,-0.0421,9.8065,-0.0064,-0.041,0.0027,3.21,-15.11,-54.64,73.11,-2.7,3.42
34114,51.515396,-2.647355,61,25.12,10,54.6,Nov-19,3411487,2019-08-31 09:22:23:209,-0.1664,0.0822,9.248,-0.0148,-0.0343,9.8066,0.0075,0.0325,-0.0176,2.83,-15.11,-54.64,73.67,-2.49,3.4
34115,51.515396,-2.647355,61,25.12,10,54.6,Nov-19,3411588,2019-08-31 09:22:23:310,0.1615,0.5491,10.4261,0.0243,0.0626,9.8064,0.0149,0.0996,-0.0112,2.83,-15.11,-54.64,73.67,-2.49,3.4
34116,51.515396,-2.647355,61,25.12,10,54.6,Nov-19,3411688,2019-08-31 09:22:23:410,0.0091,-0.0334,10.2325,0.013,0.0872,9.8063,-0.0075,0.0112,0.0016,2.08,-15.11,-54.21,75.24,-3.0,3.33
34117,51.515396,-2.647355,61,25.12,10,54.6,Nov-19,3411788,2019-08-31 09:22:23:510,-0.3062,0.118,8.3967,-0.0011,-0.0062,9.8066,0.0096,-0.0251,-0.0069,2.46,-14.74,-55.08,75.24,-2.96,3.33
34118,51.515396,-2.647355,61,25.12,10,54.6,Nov-19,3411887,2019-08-31 09:22:23:609,-0.0166,-0.042,9.185,-0.0067,0.0054,9.8066,-0.0181,-0.0048,-0.008,2.46,-14.74,-54.64,75.24,-2.96,3.33
34119,51.515396,-2.647355,61,25.12,10,54.6,Nov-19,3411988,2019-08-31 09:22:23:710,-0.4235,0.0026,9.8322,-0.0447,-0.0118,9.8065,-0.0181,-0.0048,-0.008,2.83,-15.11,-54.64,72.48,-2.83,3.09
34120,51.515396,-2.647355,61,25.12,10,54.6,Nov-19,3412087,2019-08-31 09:22:23:809,-0.2441,-0.0038,9.2939,-0.0365,-0.0441,9.8065,0.0011,-0.0059,-0.0335,2.83,-15.11,-54.64,72.48,-2.83,3.09
34121,51.515396,-2.647355,61,25.12,10,54.6,Nov-19,3412188,2019-08-31 09:22:23:910,-0.5234,-0.0006,9.8203,-0.0202,-0.0196,9.8066,-0.0075,-0.0496,-0.0037,3.21,-15.49,-55.08,73.22,-2.52,2.97
34122,51.515396,-2.647355,61,25.12,10,54.6,Nov-19,3412287,2019-08-31 09:22:24:009,0.0163,0.0873,9.7844,-0.0003,0.0254,9.8066,0.0288,0.0527,0.0016,3.21,-15.49,-55.08,73.22,-2.52,2.97
34123,51.515396,-2.647355,61,25.12,10,54.6,Nov-19,3412388,2019-08-31 09:22:24:110,0.3039,0.2185,10.1553,0.0189,0.0132,9.8066,0.0,-0.0069,0.0069,3.58,-14.74,-55.08,69.9,-2.66,2.92
34124,51.51553,-2.647062,63,25.0,10,54.7,Nov-19,3412488,2019-08-31 09:22:24:210,0.3444,0.6121,8.8067,0.0358,0.0162,9.8066,0.0149,-0.0197,-0.0208,4.33,-15.11,-55.02,69.9,-2.66,2.92
34125,51.51553,-2.647062,63,25.0,10,54.7,Nov-19,3412588,2019-08-31 09:22:24:310,-0.1042,0.0562,10.7883,-0.0044,-0.0113,9.8066,-0.0288,-0.0432,-0.0048,5.02,-14.74,-55.46,66.89,-2.82,3.09
34126,51.51553,-2.647062,63,25.0,10,54.7,Nov-19,3412688,2019-08-31 09:22:24:410,1.0395,0.9308,10.0099,-0.0005,0.0148,9.8066,-0.0394,-0.0091,-0.0037,6.14,-15.11,-56.71,63.89,-2.9,3.05
34127,51.51553,-2.647062,63,25.0,10,54.7,Nov-19,3412788,2019-08-31 09:22:24:510,-0.4885,-0.289,9.7524,-0.0216,0.0014,9.8066,-0.0394,-0.0091,-0.0037,6.14,-15.11,-56.71,63.89,-2.9,3.05
34128,51.51553,-2.647062,63,25.0,10,54.7,Nov-19,3412888,2019-08-31 09:22:24:610,-0.2668,0.169,9.8173,-0.0233,-0.0108,9.8066,0.0149,0.0122,-0.0389,6.37,-14.76,-57.81,63.8,-2.85,2.93
34129,51.51553,-2.647062,63,25.0,10,54.7,Nov-19,3412988,2019-08-31 09:22:24:710,-0.5112,-0.1441,9.8292,-0.0632,-0.0003,9.8064,0.0032,0.09,-0.0389,3.06,-14.44,-58.16,71.13,-2.68,2.6
34130,51.51553,-2.647062,63,25.0,10,54.7,Nov-19,3413088,2019-08-31 09:22:24:810,0.0333,0.6117,9.2193,-0.0202,0.0055,9.8066,-0.032,0.0122,0.0133,0.62,-14.2,-58.29,71.13,-2.68,2.6
34131,51.51553,-2.647062,63,25.0,10,54.7,Nov-19,3413188,2019-08-31 09:22:24:910,-1.0144,-0.018,10.7636,-0.0165,0.0173,9.8066,0.0075,0.0058,-0.0218,0.62,-14.2,-58.29,71.13,-2.68,2.6
34132,51.51553,-2.647062,63,25.0,10,54.7,Nov-19,3413288,2019-08-31 09:22:25:010,0.513,0.118,8.7395,-0.0077,-0.0151,9.8066,-0.0309,-0.073,0.0282,-1.89,-14.49,-58.19,87.41,-2.74,2.52
34133,51.51553,-2.647062,63,25.0,10,54.7,Nov-19,3413389,2019-08-31 09:22:25:111,0.6792,0.8298,9.8723,0.0012,0.0039,9.8066,0.0128,-0.024,-0.0133,-3.04,-14.74,-56.64,91.28,-2.65,2.48
34134,51.515656,-2.646773,64,25.01,10,54.9,Nov-19,3413487,2019-08-31 09:22:25:209,0.1878,0.2886,9.7745,0.012,0.0097,9.8066,0.0128,-0.024,-0.0133,-3.04,-14.74,-56.64,91.28,-2.65,2.48
34135,51.515656,-2.646773,64,25.01,10,54.9,Nov-19,3413588,2019-08-31 09:22:25:310,0.1509,0.336,9.9898,-0.0194,-0.002,9.8066,-0.0383,-0.0389,-0.0005,-2.29,-14.36,-54.58,88.01,-2.71,2.55
34136,51.515656,-2.646773,64,25.01,10,54.9,Nov-19,3413687,2019-08-31 09:22:25:409,-0.2126,0.2904,9.5452,-0.0374,-0.0034,9.8066,0.0021,0.0346,-0.0176,-0.48,-14.74,-53.33,81.87,-2.68,2.33
34137,51.515656,-2.646773,64,25.01,10,54.9,Nov-19,3413787,2019-08-31 09:22:25:509,-0.0227,0.4815,9.8358,0.0013,0.016,9.8066,0.0117,0.0112,-0.0048,-0.48,-14.74,-53.33,81.87,-2.68,2.33
34138,51.515656,-2.646773,64,25.01,10,54.9,Nov-19,3413888,2019-08-31 09:22:25:610,-0.3939,0.2672,11.0498,0.0191,0.0323,9.8066,0.0053,0.041,-0.0261,0.27,-14.74,-53.71,81.45,-2.78,2.33
34139,51.515656,-2.646773,64,25.01,10,54.9,Nov-19,3413988,2019-08-31 09:22:25:710,0.2492,0.6619,10.6393,0.0147,0.0595,9.8065,-0.016,0.0229,-0.0101,0.64,-14.36,-54.14,76.42,-3.13,2.36
34140,51.515656,-2.646773,64,25.01,10,54.9,Nov-19,3414088,2019-08-31 09:22:25:810,-0.4231,0.1492,9.6903,-0.0137,0.0178,9.8066,-0.0043,-0.0421,-0.0165,1.33,-14.74,-54.14,76.87,-3.21,2.26
34141,51.515656,-2.646773,64,25.01,10,54.9,Nov-19,3414187,2019-08-31 09:22:25:909,-0.0115,0.3569,9.8778,-0.013,0.0037,9.8066,-0.0043,-0.0421,-0.0165,1.33,-14.74,-54.14,76.87,-3.21,2.26
34142,51.515656,-2.646773,64,25.01,10,54.9,Nov-19,3414288,2019-08-31 09:22:26:010,0.2444,-0.0434,9.9016,-0.01,0.0089,9.8066,0.0107,0.0208,-0.0037,1.39,-14.74,-54.58,76.65,-3.22,2.18
34143,51.515656,-2.646773,64,25.01,10,54.9,Nov-19,3414388,2019-08-31 09:22:26:110,-0.4219,0.0473,10.8288,-0.0055,0.0084,9.8066,-0.0373,-0.0517,0.0112,1.33,-14.74,-54.58,76.49,-3.26,2.11
34144,51.515785,-2.646486,66,24.82,9,55.6,Nov-19,3414488,2019-08-31 09:22:26:210,0.0949,-0.0618,8.686,-0.02,-0.0001,9.8066,0.016,0.0229,-0.0026,1.71,-15.11,-54.14,73.47,-3.23,1.99
34145,51.515785,-2.646486,66,24.82,9,55.6,Nov-19,3414588,2019-08-31 09:22:26:310,0.5816,0.5004,10.4068,-0.0104,0.0067,9.8066,-0.0117,-0.0155,-0.0048,1.71,-15.11,-54.14,73.47,-3.23,1.99
34146,51.515785,-2.646486,66,24.82,9,55.6,Nov-19,3414687,2019-08-31 09:22:26:409,-0.496,-0.3385,9.5532,-0.0146,0.0184,9.8066,0.0043,0.0112,-0.0186,1.71,-15.11,-54.14,73.47,-3.23,1.99
34147,51.515785,-2.646486,66,24.82,9,55.6,Nov-19,3414787,2019-08-31 09:22:26:509,0.0551,-0.0474,9.0797,-0.0149,-0.0055,9.8066,-0.0266,-0.0687,-0.0165,1.71,-15.11,-54.58,72.99,-3.31,1.88
34148,51.515785,-2.646486,66,24.82,9,55.6,Nov-19,3414888,2019-08-31 09:22:26:610,-0.5357,0.0666,9.6486,-0.044,-0.0139,9.8065,0.0181,0.0335,-0.041,1.71,-15.43,-54.58,72.99,-3.31,1.88
34149,51.515785,-2.646486,66,24.82,9,55.6,Nov-19,3414988,2019-08-31 09:22:26:710,-1.0086,-0.8277,10.0516,-0.0199,0.0042,9.8066,0.0181,0.0335,-0.041,1.71,-15.49,-54.58,73.18,-3.12,1.49
34150,51.515785,-2.646486,66,24.82,9,55.6,Nov-19,3415087,2019-08-31 09:22:26:809,-0.5337,0.2654,9.9208,-0.0097,0.0134,9.8066,0.0021,0.0442,0.0048,1.71,-15.8,-54.58,74.03,-3.11,1.38
34151,51.515785,-2.646486,66,24.82,9,55.6,Nov-19,3415188,2019-08-31 09:22:26:910,0.4866,0.2741,9.733,-0.0212,0.0097,9.8066,0.0394,0.0101,-0.0325,1.71,-15.8,-54.58,74.03,-3.11,1.38
34152,51.515785,-2.646486,66,24.82,9,55.6,Nov-19,3415288,2019-08-31 09:22:27:010,-0.0477,0.0289,10.3186,0.0068,-0.0047,9.8066,0.0075,-0.0485,0.0037,1.39,-15.43,-53.71,76.35,-3.13,1.24
34153,51.515785,-2.646486,66,24.82,9,55.6,Nov-19,3415388,2019-08-31 09:22:27:110,0.0496,0.0683,9.2251,0.0039,-0.0246,9.8066,-0.0064,-0.0485,0.0069,1.39,-15.8,-54.08,77.21,-3.11,1.29
34154,51.5159,-2.646196,67,24.7,9,56.4,Nov-19,3415488,2019-08-31 09:22:27:210,-0.019,-0.4141,10.6185,0.0231,-0.0205,9.8066,0.0128,0.0719,0.0091,0.8,-15.6,-55.93,77.28,-3.02,1.44
34155,51.5159,-2.646196,67,24.7,9,56.4,Nov-19,3415589,2019-08-31 09:22:27:311,0.5093,-0.0319,9.6507,0.0276,0.0044,9.8066,0.0021,-0.0325,-0.0005,1.17,-15.29,-55.99,77.28,-3.02,1.44
34156,51.5159,-2.646196,67,24.7,9,56.4,Nov-19,3415687,2019-08-31 09:22:27:409,0.3658,0.1501,10.2437,0.0447,0.0087,9.8065,0.0021,-0.0325,-0.0005,1.17,-15.29,-55.99,77.28,-3.02,1.44
34157,51.5159,-2.646196,67,24.7,9,56.4,Nov-19,3415788,2019-08-31 09:22:27:510,-0.3084,-0.2576,10.6501,0.0074,0.0052,9.8066,-0.0149,-0.0133,-0.0133,0.8,-15.98,-55.99,77.14,-3.13,1.69
34158,51.5159,-2.646196,67,24.7,9,56.4,Nov-19,3415888,2019-08-31 09:22:27:610,-0.0863,-0.3205,8.0469,-0.0004,-0.0132,9.8066,-0.0075,0.0112,0.0016,0.42,-15.66,-55.55,79.91,-3.24,1.66
34159,51.5159,-2.646196,67,24.7,9,56.4,Nov-19,3415988,2019-08-31 09:22:27:710,0.2161,-0.1256,10.2546,-0.0006,-0.0074,9.8066,-0.0213,-0.0591,-0.0005,1.17,-15.29,-55.55,76.28,-3.16,1.67
34160,51.5159,-2.646196,67,24.7,9,56.4,Nov-19,3416088,2019-08-31 09:22:27:810,-0.4073,0.1273,10.1989,-0.0119,-0.0284,9.8066,0.0011,-0.04,-0.0282,0.8,-15.29,-55.99,76.81,-2.98,1.64
34161,51.5159,-2.646196,67,24.7,9,56.4,Nov-19,3416188,2019-08-31 09:22:27:910,-0.1953,-0.409,9.8838,-0.0105,-0.0018,9.8066,-0.0138,0.0112,-0.0154,0.8,-15.29,-55.99,76.81,-2.98,1.64
34162,51.5159,-2.646196,67,24.7,9,56.4,Nov-19,3416287,2019-08-31 09:22:28:009,-0.3024,-0.0049,9.6799,0.0057,0.0298,9.8066,0.0181,0.0453,-0.0218,1.17,-15.6,-55.99,77.58,-2.96,1.58
34163,51.5159,-2.646196,67,24.7,9,56.4,Nov-19,3416388,2019-08-31 09:22:28:110,0.7282,0.5393,10.6323,0.016,0.0552,9.8065,0.0202,0.0144,-0.0325,1.17,-15.6,-55.99,77.58,-2.96,1.58
34164,51.51602,-2.645902,68,24.67,9,57.2,Nov-19,3416488,2019-08-31 09:22:28:210,-0.133,-0.2353,10.1663,-0.0077,-0.0016,9.8066,0.0202,0.0144,-0.0101,0.8,-15.6,-55.99,76.59,-3.29,1.61
34165,51.51602,-2.645902,68,24.67,9,57.2,Nov-19,3416588,2019-08-31 09:22:28:310,0.3356,0.2911,10.455,-0.0068,0.0102,9.8066,-0.016,-0.0112,-0.0101,1.17,-15.29,-56.37,75.61,-3.34,1.55
34166,51.51602,-2.645902,68,24.67,9,57.2,Nov-19,3416688,2019-08-31 09:22:28:410,0.3992,0.1319,10.2042,0.0098,0.0186,9.8066,0.0096,0.0591,-0.0154,1.17,-15.29,-56.37,75.61,-3.34,1.55
34167,51.51602,-2.645902,68,24.67,9,57.2,Nov-19,3416787,2019-08-31 09:22:28:509,0.5987,0.3811,9.9588,0.0192,-0.0028,9.8066,-0.0021,-0.0037,-0.0016,0.8,-15.23,-56.74,75.09,-3.46,1.58
34168,51.51602,-2.645902,68,24.67,9,57.2,Nov-19,3416888,2019-08-31 09:22:28:610,0.1668,0.0578,9.7093,0.0057,-0.0178,9.8066,-0.0021,-0.0517,0.0059,0.8,-15.29,-55.99,75.31,-3.47,1.7
34169,51.51602,-2.645902,68,24.67,9,57.2,Nov-19,3416988,2019-08-31 09:22:28:710,0.001,0.104,9.86,0.0334,-0.0218,9.8066,0.0298,0.0218,-0.008,0.8,-15.29,-55.99,75.31,-3.47,1.7
34170,51.51602,-2.645902,68,24.67,9,57.2,Nov-19,3417087,2019-08-31 09:22:28:809,-0.2575,-0.3758,9.2409,0.0216,0.0027,9.8066,0.0224,-0.0037,-0.0026,0.8,-14.91,-55.93,75.73,-3.4,1.92
34171,51.51602,-2.645902,68,24.67,9,57.2,Nov-19,3417188,2019-08-31 09:22:28:910,0.5718,0.4746,9.6695,0.0232,-0.0204,9.8066,-0.0266,-0.0549,-0.0058,1.17,-15.6,-56.37,76.46,-3.45,2.04
34172,51.51602,-2.645902,68,24.67,9,57.2,Nov-19,3417287,2019-08-31 09:22:29:009,-0.4227,-0.6668,8.7762,0.0084,-0.0146,9.8066,-0.0352,-0.0346,0.0005,0.8,-14.91,-55.93,76.46,-3.45,2.04
34173,51.51602,-2.645902,68,24.67,9,57.2,Nov-19,3417388,2019-08-31 09:22:29:110,-0.7642,-0.8064,9.8127,0.0048,-0.0003,9.8067,-0.0352,-0.0346,0.0005,0.42,-15.6,-55.93,79.51,-3.45,2.06
34174,51.516148,-2.645606,68,24.59,9,57.8,Nov-19,3417488,2019-08-31 09:22:29:210,-0.6888,0.0558,10.6506,-0.0075,0.0213,9.8066,0.0032,0.0346,-0.0101,0.42,-15.6,-55.93,79.51,-3.45,2.06
34175,51.516148,-2.645606,68,24.59,9,57.8,Nov-19,3417587,2019-08-31 09:22:29:309,0.2088,-0.1496,8.8235,0.0053,-0.0081,9.8066,0.0128,0.0101,-0.0026,0.8,-15.23,-56.37,75.29,-3.57,2.0
34176,51.516148,-2.645606,68,24.59,9,57.8,Nov-19,3417688,2019-08-31 09:22:29:410,-0.3355,-0.4105,10.5333,0.0095,-0.0172,9.8066,0.0149,-0.0176,-0.008,1.17,-15.6,-56.37,76.39,-3.48,2.08
34177,51.516148,-2.645606,68,24.59,9,57.8,Nov-19,3417787,2019-08-31 09:22:29:509,0.0919,-0.1624,9.3857,0.0029,-0.007,9.8066,-0.0043,0.0176,0.0048,0.8,-15.6,-55.93,76.58,-3.44,2.18
34178,51.516148,-2.645606,68,24.59,9,57.8,Nov-19,3417888,2019-08-31 09:22:29:610,-0.2748,0.0106,9.7104,0.0096,-0.0015,9.8066,0.032,0.0538,-0.0197,0.8,-15.6,-55.93,76.58,-3.44,2.18
34179,51.516148,-2.645606,68,24.59,9,57.8,Nov-19,3417988,2019-08-31 09:22:29:710,0.1069,0.1238,9.9615,0.0189,0.01,9.8066,-0.016,-0.0016,0.024,1.55,-14.91,-55.93,72.76,-3.45,2.23
34180,51.516148,-2.645606,68,24.59,9,57.8,Nov-19,3418087,2019-08-31 09:22:29:809,0.4782,0.1571,9.2025,0.0316,0.009,9.8066,0.0053,-0.0091,-0.0016,1.17,-15.23,-54.62,72.76,-3.45,2.23
34181,51.516148,-2.645606,68,24.59,9,57.8,Nov-19,3418187,2019-08-31 09:22:29:909,-0.0994,-0.1189,9.9023,-0.0056,-0.0121,9.8066,0.0053,-0.0091,-0.0016,1.55,-14.91,-54.68,72.76,-3.55,2.39
34182,51.516148,-2.645606,68,24.59,9,57.8,Nov-19,3418288,2019-08-31 09:22:30:010,0.4035,0.4388,8.912,-0.0092,-0.0045,9.8066,-0.0075,0.0335,-0.0026,1.17,-15.23,-55.49,75.92,-3.51,2.35
34183,51.516254,-2.645317,70,24.41,10,58.3,Nov-19,3418387,2019-08-31 09:22:30:109,-0.0556,-0.36,9.3361,-0.018,-0.0002,9.8066,-0.0245,0.0772,0.0059,1.17,-15.23,-55.49,75.92,-3.51,2.35
34184,51.516254,-2.645317,70,24.41,10,58.3,Nov-19,3418488,2019-08-31 09:22:30:210,0.03,0.3055,9.9587,-0.0065,0.0179,9.8066,-0.0224,-0.0464,-0.0026,0.8,-15.6,-56.37,76.51,-3.48,2.25
34185,51.516254,-2.645317,70,24.41,10,58.3,Nov-19,3418588,2019-08-31 09:22:30:310,-0.2201,-0.0103,9.5339,-0.0172,0.0109,9.8066,0.0032,0.0026,-0.0272,0.42,-15.98,-55.05,79.51,-3.52,2.14
34186,51.516254,-2.645317,70,24.41,10,58.3,Nov-19,3418688,2019-08-31 09:22:30:410,0.5289,0.5155,9.2981,-0.013,-0.0267,9.8066,-0.0107,0.041,-0.0154,0.8,-15.6,-55.12,79.51,-3.52,2.14
34187,51.516254,-2.645317,70,24.41,10,58.3,Nov-19,3418787,2019-08-31 09:22:30:509,0.2132,-0.1634,8.5373,-0.0101,-0.004,9.8066,0.0021,0.008,-0.0335,0.8,-15.66,-55.12,76.92,-3.36,2.09
34188,51.516254,-2.645317,70,24.41,10,58.3,Nov-19,3418888,2019-08-31 09:22:30:610,0.2649,0.5848,10.1275,-0.0169,0.0033,9.8066,0.0277,0.0719,0.0016,0.8,-15.66,-55.12,76.92,-3.36,2.09
34189,51.516254,-2.645317,70,24.41,10,58.3,Nov-19,3418988,2019-08-31 09:22:30:710,-0.0113,-0.12,9.5735,0.015,0.02,9.8066,0.0277,0.0719,0.0016,0.8,-15.29,-54.74,76.1,-3.35,1.99
34190,51.516254,-2.645317,70,24.41,10,58.3,Nov-19,3419088,2019-08-31 09:22:30:810,-0.217,0.2776,9.1969,0.0362,0.0315,9.8065,0.0043,-0.0005,-0.0165,0.8,-16.04,-54.74,76.1,-3.35,1.99
34191,51.516254,-2.645317,70,24.41,10,58.3,Nov-19,3419188,2019-08-31 09:22:30:910,0.01,0.4595,9.7875,0.03,0.0363,9.8065,-0.033,0.0186,0.025,0.42,-15.29,-55.18,78.64,-3.6,2.11
34192,51.516254,-2.645317,70,24.41,10,58.3,Nov-19,3419288,2019-08-31 09:22:31:010,0.7141,0.5862,9.7474,0.0001,-0.0045,9.8067,0.0043,0.0165,-0.0186,0.8,-15.66,-55.18,78.64,-3.6,2.11
34193,51.516254,-2.645317,70,24.41,10,58.3,Nov-19,3419388,2019-08-31 09:22:31:110,-0.6641,-0.8817,8.9236,-0.0113,-0.0238,9.8066,-0.0458,-0.0591,0.0048,0.8,-15.66,-55.18,78.64,-3.6,2.11
34194,51.516376,-2.645008,70,24.51,10,58.4,Nov-19,3419487,2019-08-31 09:22:31:209,0.0792,0.4598,9.8852,0.0031,0.0217,9.8066,0.0117,0.0474,0.008,0.8,-15.66,-54.8,76.63,-3.45,2.07
34195,51.516376,-2.645008,70,24.51,10,58.4,Nov-19,3419587,2019-08-31 09:22:31:309,0.8152,0.5988,10.374,0.0094,0.0307,9.8066,-0.0256,-0.041,-0.0112,0.8,-15.66,-54.8,76.11,-3.64,2.08
34196,51.516376,-2.645008,70,24.51,10,58.4,Nov-19,3419688,2019-08-31 09:22:31:410,-0.7779,-0.8692,8.8173,-0.0047,-0.0075,9.8066,0.0032,0.025,-0.0133,1.17,-15.29,-55.24,75.45,-3.59,2.07
34197,51.516376,-2.645008,70,24.51,10,58.4,Nov-19,3419787,2019-08-31 09:22:31:509,-0.0099,0.2775,9.9152,-0.0021,0.0473,9.8065,0.0032,0.025,-0.0133,1.17,-15.29,-55.24,75.45,-3.59,2.07
34198,51.516376,-2.645008,70,24.51,10,58.4,Nov-19,3419888,2019-08-31 09:22:31:610,0.071,0.4508,10.4882,-0.0113,0.0317,9.8066,-0.0373,0.0037,0.0187,1.11,-15.66,-54.87,75.42,-3.85,1.99
34199,51.516376,-2.645008,70,24.51,10,58.4,Nov-19,3419988,2019-08-31 09:22:31:710,-0.3981,0.5797,9.2927,-0.019,0.0463,9.8065,-0.0053,-0.0325,-0.0026,1.11,-15.29,-55.74,75.42,-3.85,1.99
34200,51.516376,-2.645008,70,24.51,10,58.4,Nov-19,3420088,2019-08-31 09:22:31:810,-0.0025,0.6028,9.4974,-0.0105,-0.0098,9.8066,-0.0043,-0.0144,0.0005,0.8,-16.04,-55.37,74.61,-4.09,1.81
34201,51.516376,-2.645008,70,24.51,10,58.4,Nov-19,3420188,2019-08-31 09:22:31:910,0.2237,0.5484,9.8709,-0.0112,0.0135,9.8066,-0.0181,0.0208,0.0069,1.11,-16.04,-54.55,74.37,-4.15,1.73
34202,51.516376,-2.645008,70,24.51,10,58.4,Nov-19,3420287,2019-08-31 09:22:32:009,-0.1348,-0.4632,8.4062,-0.0029,0.0179,9.8066,-0.0138,-0.0059,-0.0186,1.11,-16.04,-54.55,74.37,-4.15,1.73
34203,51.516376,-2.645008,70,24.51,10,58.4,Nov-19,3420388,2019-08-31 09:22:32:110,0.222,0.2595,9.2986,-0.0217,-0.0072,9.8066,0.0,0.0357,-0.0101,1.11,-15.66,-54.55,74.06,-4.24,1.68
34204,51.51649,-2.644702,70,24.48,10,58.6,Nov-19,3420488,2019-08-31 09:22:32:210,0.6257,0.748,9.9475,-0.0261,0.0003,9.8066,-0.0288,-0.0527,0.0112,1.11,-16.04,-55.37,74.04,-4.2,1.53
34205,51.51649,-2.644702,70,24.48,10,58.6,Nov-19,3420588,2019-08-31 09:22:32:310,-0.5205,0.038,9.9027,-0.0081,0.023,9.8066,-0.0288,-0.0527,0.0112,1.11,-15.66,-54.55,74.04,-4.2,1.53
34206,51.51649,-2.644702,70,24.48,10,58.6,Nov-19,3420687,2019-08-31 09:22:32:409,0.2159,0.168,9.3616,-0.0266,0.0353,9.8066,0.0139,0.0453,-0.024,1.11,-15.66,-54.55,74.04,-4.2,1.53
34207,51.51649,-2.644702,70,24.48,10,58.6,Nov-19,3420788,2019-08-31 09:22:32:510,0.2892,0.4536,8.2584,-0.0225,0.0129,9.8066,-0.0192,-0.0069,-0.0058,1.11,-16.04,-54.62,73.4,-4.36,1.33
34208,51.51649,-2.644702,70,24.48,10,58.6,Nov-19,3420888,2019-08-31 09:22:32:610,0.4491,0.7082,9.4161,-0.0585,0.0295,9.8064,-0.0554,-0.0879,0.0219,0.74,-15.73,-54.99,73.4,-4.36,1.33
34209,51.51649,-2.644702,70,24.48,10,58.6,Nov-19,3420988,2019-08-31 09:22:32:710,-0.8608,-0.4283,11.8607,0.0078,0.0364,9.8066,-0.0234,-0.0272,0.0208,0.74,-16.1,-55.05,72.84,-4.43,0.95
34210,51.51649,-2.644702,70,24.48,10,58.6,Nov-19,3421089,2019-08-31 09:22:32:811,-0.1148,0.4104,9.2037,0.0056,0.051,9.8065,0.0437,0.0964,-0.0378,1.11,-16.48,-54.68,72.84,-4.43,0.95
34211,51.51649,-2.644702,70,24.48,10,58.6,Nov-19,3421187,2019-08-31 09:22:32:909,0.1114,-0.2158,9.5056,0.0061,0.0701,9.8064,0.0011,0.0335,-0.0037,1.11,-16.48,-55.12,71.58,-4.83,0.86
34212,51.51649,-2.644702,70,24.48,10,58.6,Nov-19,3421288,2019-08-31 09:22:33:010,0.32,0.0792,10.3853,-0.0061,0.0299,9.8066,0.0011,0.0335,-0.0037,1.11,-16.48,-55.12,71.58,-4.83,0.86
34213,51.51649,-2.644702,70,24.48,10,58.6,Nov-19,3421387,2019-08-31 09:22:33:109,-0.0591,0.1273,9.6902,-0.0189,0.0006,9.8066,-0.0383,-0.0048,0.0133,0.74,-16.85,-55.12,72.03,-4.98,0.77
34214,51.51659,-2.644402,71,24.34,10,59.3,Nov-19,3421487,2019-08-31 09:22:33:209,0.7046,0.0154,9.7218,-0.0446,-0.0521,9.8064,0.0149,-0.1018,-0.0112,1.11,-16.48,-56.37,72.03,-4.98,0.77
34215,51.51659,-2.644402,71,24.34,10,59.3,Nov-19,3421588,2019-08-31 09:22:33:310,-0.1354,-0.6014,10.7203,0.0137,0.0075,9.8066,0.0,0.0186,-0.0016,0.74,-16.85,-55.99,72.87,-4.59,0.74
34216,51.51659,-2.644402,71,24.34,10,59.3,Nov-19,3421687,2019-08-31 09:22:33:409,0.3961,0.1176,9.8788,-0.0146,-0.0206,9.8066,-0.0458,-0.0783,0.0101,0.74,-16.85,-55.99,72.74,-4.66,0.8
34217,51.51659,-2.644402,71,24.34,10,59.3,Nov-19,3421788,2019-08-31 09:22:33:510,-0.3099,-0.6795,10.0265,-0.029,-0.0244,9.8066,-0.0256,0.0367,0.0048,0.74,-17.6,-56.05,72.74,-4.66,0.8
34218,51.51659,-2.644402,71,24.34,10,59.3,Nov-19,3421888,2019-08-31 09:22:33:610,1.0284,0.2737,10.2402,-0.0288,-0.0067,9.8066,-0.0192,-0.008,0.0059,0.74,-17.6,-56.05,72.74,-4.66,0.8
34219,51.51659,-2.644402,71,24.34,10,59.3,Nov-19,3421987,2019-08-31 09:22:33:709,0.0156,-0.0989,10.7326,0.0072,0.0186,9.8066,0.0021,0.0687,-0.0037,0.74,-17.6,-56.05,73.72,-4.57,0.65
34220,51.51659,-2.644402,71,24.34,10,59.3,Nov-19,3422088,2019-08-31 09:22:33:810,0.9574,0.2185,9.5994,0.0069,0.0207,9.8066,0.0021,0.0687,-0.0037,0.36,-17.23,-56.12,75.48,-4.7,0.66
34221,51.51659,-2.644402,71,24.34,10,59.3,Nov-19,3422188,2019-08-31 09:22:33:910,-0.1454,-0.3653,9.805,-0.0147,0.0063,9.8066,-0.016,-0.0464,-0.0144,-0.01,-17.23,-56.12,75.48,-4.7,0.66
34222,51.51659,-2.644402,71,24.34,10,59.3,Nov-19,3422287,2019-08-31 09:22:34:009,-0.3216,-0.2277,9.8251,-0.0402,-0.0045,9.8066,-0.0064,-0.0037,-0.0144,-0.01,-17.23,-56.12,75.48,-4.7,0.66
34223,51.51659,-2.644402,71,24.34,10,59.3,Nov-19,3422387,2019-08-31 09:22:34:109,0.9043,0.3594,9.3439,-0.0161,-0.0013,9.8066,0.0415,0.0751,-0.0218,0.36,-17.23,-56.12,75.54,-4.61,0.44
34224,51.5167,-2.644112,72,24.4,10,59.7,Nov-19,3422488,2019-08-31 09:22:34:210,-0.3978,-0.859,10.2261,-0.0054,-0.0284,9.8066,-0.0011,0.0314,-0.0058,0.36,-17.23,-55.68,75.71,-4.55,0.39
34225,51.5167,-2.644112,72,24.4,10,59.7,Nov-19,3422588,2019-08-31 09:22:34:310,-0.5254,-0.3912,9.3023,0.0067,-0.0015,9.8066,-0.0138,-0.0464,0.0069,0.36,-17.23,-55.68,76.22,-4.38,0.4
34226,51.5167,-2.644112,72,24.4,10,59.7,Nov-19,3422688,2019-08-31 09:22:34:410,-0.0574,-0.0583,10.1402,0.0171,0.0113,9.8066,-0.0064,0.0421,-0.0027,0.36,-17.23,-55.68,76.22,-4.38,0.4
34227,51.5167,-2.644112,72,24.4,10,59.7,Nov-19,3422788,2019-08-31 09:22:34:510,-0.3596,0.1215,10.0762,0.0011,-0.0056,9.8066,-0.0256,0.0048,0.008,0.36,-17.6,-56.12,76.76,-4.46,0.48
34228,51.5167,-2.644112,72,24.4,10,59.7,Nov-19,3422887,2019-08-31 09:22:34:609,0.504,-0.3307,9.9242,-0.0059,-0.0092,9.8066,-0.0128,0.0325,0.025,0.36,-17.6,-56.12,76.91,-4.41,0.46
34229,51.5167,-2.644112,72,24.4,10,59.7,Nov-19,3422987,2019-08-31 09:22:34:709,-0.1343,-0.0965,8.9124,-0.0002,-0.0033,9.8067,-0.0128,0.0325,0.025,0.74,-17.23,-56.05,76.91,-4.41,0.46
34230,51.5167,-2.644112,72,24.4,10,59.7,Nov-19,3423087,2019-08-31 09:22:34:809,-0.3635,-0.3209,9.4647,0.0028,0.0029,9.8067,-0.0245,-0.0368,0.0187,0.74,-17.23,-56.05,76.91,-4.41,0.46
34231,51.5167,-2.644112,72,24.4,10,59.7,Nov-19,3423188,2019-08-31 09:22:34:910,-0.2126,0.0642,9.5401,-0.0118,-0.0173,9.8066,-0.016,-0.0602,-0.0069,0.36,-17.6,-56.12,76.86,-4.43,0.47
34232,51.5167,-2.644112,72,24.4,10,59.7,Nov-19,3423287,2019-08-31 09:22:35:009,0.3707,0.0264,9.7526,-0.015,0.001,9.8066,0.0192,0.0133,-0.0314,0.74,-17.6,-56.05,74.35,-4.26,0.37
34233,51.5167,-2.644112,72,24.4,10,59.7,Nov-19,3423387,2019-08-31 09:22:35:109,-0.7193,-0.3466,9.5236,-0.0427,0.0183,9.8065,0.0096,0.0836,-0.0229,0.74,-17.6,-56.05,74.35,-4.26,0.37
34234,51.516808,-2.643812,74,24.48,10,59.6,Nov-19,3423488,2019-08-31 09:22:35:210,-0.1205,0.1547,8.6713,0.0071,0.0218,9.8066,0.0085,0.0176,-0.0101,-0.01,-17.6,-56.05,76.97,-4.29,0.1
34235,51.516808,-2.643812,74,24.48,10,59.6,Nov-19,3423588,2019-08-31 09:22:35:310,-0.0208,0.1042,9.2761,0.0253,0.0256,9.8066,0.0277,0.0048,-0.0144,0.36,-17.98,-55.62,76.53,-4.47,0.21
34236,51.516808,-2.643812,74,24.48,10,59.6,Nov-19,3423688,2019-08-31 09:22:35:410,0.3392,-0.0294,9.8699,-0.0003,-0.0193,9.8066,-0.0075,-0.0432,0.0069,0.36,-17.98,-55.62,76.53,-4.47,0.21
34237,51.516808,-2.643812,74,24.48,10,59.6,Nov-19,3423787,2019-08-31 09:22:35:509,0.2727,-0.0331,9.0533,0.0078,-0.0286,9.8066,0.0075,-0.0261,-0.0058,0.74,-17.6,-55.62,73.93,-4.36,0.24
34238,51.516808,-2.643812,74,24.48,10,59.6,Nov-19,3423888,2019-08-31 09:22:35:610,-0.2028,-0.0728,9.3943,0.0139,-0.0443,9.8065,0.0075,-0.0261,-0.0058,0.36,-17.91,-55.62,77.63,-4.14,0.39
34239,51.516808,-2.643812,74,24.48,10,59.6,Nov-19,3423988,2019-08-31 09:22:35:710,0.5884,0.1091,9.645,-0.0006,-0.0058,9.8066,0.0096,0.0708,-0.0112,0.36,-17.91,-55.62,77.63,-4.14,0.39
34240,51.516808,-2.643812,74,24.48,10,59.6,Nov-19,3424088,2019-08-31 09:22:35:810,0.2742,-0.0305,10.036,-0.0001,-0.0073,9.8066,-0.0096,0.0005,-0.009,0.05,-17.91,-55.18,77.97,-4.09,0.39
34241,51.516808,-2.643812,74,24.48,10,59.6,Nov-19,3424188,2019-08-31 09:22:35:910,0.1203,0.2037,9.7755,-0.0081,0.0114,9.8066,-0.0128,-0.0304,0.0037,-0.7,-17.6,-55.18,80.92,-4.11,0.36
34242,51.516808,-2.643812,74,24.48,10,59.6,Nov-19,3424287,2019-08-31 09:22:36:009,-0.6815,0.035,10.0472,0.0035,0.0211,9.8066,-0.0053,0.0421,0.0117,0.05,-16.85,-55.55,76.63,-4.23,0.36
34243,51.516808,-2.643812,74,24.48,10,59.6,Nov-19,3424387,2019-08-31 09:22:36:109,0.0022,-0.0057,9.8256,0.0047,-0.0103,9.8066,-0.0085,-0.0836,0.0021,0.05,-16.85,-55.55,76.63,-4.23,0.36
34244,51.51693,-2.643498,74,24.41,10,59.6,Nov-19,3424488,2019-08-31 09:22:36:210,0.4833,0.5199,9.6947,-0.0109,-0.0252,9.8066,-0.017,0.0122,-0.0096,0.36,-17.23,-55.62,76.82,-4.18,0.4
34245,51.51693,-2.643498,74,24.41,10,59.6,Nov-19,3424588,2019-08-31 09:22:36:310,0.0611,0.347,9.2404,-0.0112,0.0142,9.8066,0.0021,0.025,-0.0192,0.36,-16.85,-55.12,77.5,-4.02,0.38
34246,51.51693,-2.643498,74,24.41,10,59.6,Nov-19,3424687,2019-08-31 09:22:36:409,-0.7761,-0.2248,11.5852,-0.0045,0.0787,9.8063,-0.0362,-0.0005,0.0458,0.36,-16.85,-55.12,77.5,-4.02,0.38
34247,51.51693,-2.643498,74,24.41,10,59.6,Nov-19,3424787,2019-08-31 09:22:36:509,-0.0691,0.5608,9.7733,0.004,0.0245,9.8066,-0.0362,-0.0005,0.0458,0.05,-17.54,-55.55,76.58,-4.46,0.25
34248,51.51693,-2.643498,74,24.41,10,59.6,Nov-19,3424887,2019-08-31 09:22:36:609,-0.7842,-0.14,9.2667,0.0432,0.0264,9.8065,0.0629,0.0335,-0.0288,0.36,-16.85,-55.12,76.58,-4.46,0.25
34249,51.51693,-2.643498,74,24.41,10,59.6,Nov-19,3424988,2019-08-31 09:22:36:710,0.1718,0.3246,9.1884,0.0339,0.0143,9.8066,0.0117,-0.0432,-0.0224,0.05,-17.54,-55.55,76.14,-4.67,0.46
34250,51.51693,-2.643498,74,24.41,10,59.6,Nov-19,3425087,2019-08-31 09:22:36:809,0.2105,-0.253,9.7071,-0.0059,-0.0018,9.8066,0.032,0.0016,-0.0107,0.05,-17.54,-55.93,75.46,-4.98,0.67
34251,51.51693,-2.643498,74,24.41,10,59.6,Nov-19,3425188,2019-08-31 09:22:36:910,0.7865,0.5236,9.1991,-0.0184,-0.0166,9.8066,0.0085,-0.0357,-0.0171,0.05,-17.54,-55.93,75.46,-4.98,0.67
34252,51.51693,-2.643498,74,24.41,10,59.6,Nov-19,3425288,2019-08-31 09:22:37:010,0.0105,-0.0486,10.2318,-0.0047,-0.0096,9.8066,-0.0075,-0.04,-0.0085,0.36,-17.91,-55.93,75.73,-4.86,0.59
34253,51.51693,-2.643498,74,24.41,10,59.6,Nov-19,3425388,2019-08-31 09:22:37:110,-0.1268,0.037,9.5475,-0.005,0.0285,9.8066,-0.0064,0.0751,0.0,0.36,-17.54,-55.55,75.24,-5.01,0.52
34254,51.517036,-2.643196,76,24.46,10,59.7,Nov-19,3425488,2019-08-31 09:22:37:210,0.4671,0.1431,10.2844,0.0057,0.0404,9.8066,-0.0011,-0.0538,0.0245,0.36,-17.54,-55.55,75.24,-5.01,0.52
34255,51.517036,-2.643196,76,24.46,10,59.7,Nov-19,3425588,2019-08-31 09:22:37:310,0.5541,0.4262,9.7536,0.0282,0.0052,9.8066,0.0085,-0.0016,0.0021,0.05,-17.54,-55.49,74.81,-5.25,0.5
34256,51.517036,-2.643196,76,24.46,10,59.7,Nov-19,3425688,2019-08-31 09:22:37:410,0.2564,-0.2815,9.4543,0.0536,0.005,9.8065,0.0085,-0.0016,0.0021,0.05,-17.54,-55.49,74.76,-5.36,0.79
34257,51.517036,-2.643196,76,24.46,10,59.7,Nov-19,3425787,2019-08-31 09:22:37:509,-0.076,-0.271,10.0725,0.0249,0.0165,9.8066,0.0277,0.025,-0.016,0.05,-17.54,-55.49,74.76,-5.36,0.79
34258,51.517036,-2.643196,76,24.46,10,59.7,Nov-19,3425888,2019-08-31 09:22:37:610,-0.7258,-0.9757,10.5136,0.0522,0.0307,9.8065,-0.0011,-0.0208,-0.0309,0.05,-17.54,-55.05,74.28,-5.61,1.04
34259,51.517036,-2.643196,76,24.46,10,59.7,Nov-19,3425987,2019-08-31 09:22:37:709,-0.0523,0.1381,9.3496,-0.0222,-0.0276,9.8066,0.0128,0.0069,-0.0181,0.36,-17.54,-55.49,74.28,-5.61,1.04
34260,51.517036,-2.643196,76,24.46,10,59.7,Nov-19,3426088,2019-08-31 09:22:37:810,-0.1532,0.639,9.07,-0.0052,0.0309,9.8066,-0.0522,-0.0719,0.0202,0.36,-17.54,-55.49,74.72,-5.42,0.96
34261,51.517036,-2.643196,76,24.46,10,59.7,Nov-19,3426188,2019-08-31 09:22:37:910,-0.2283,0.1721,9.6483,-0.0115,0.0567,9.8065,0.0107,-0.0112,-0.016,0.42,-17.54,-55.05,73.79,-5.72,0.8
34262,51.517036,-2.643196,76,24.46,10,59.7,Nov-19,3426288,2019-08-31 09:22:38:010,-0.0328,0.2872,10.2642,-0.0017,0.0181,9.8066,0.0096,-0.0112,-0.0181,0.42,-17.54,-55.05,73.79,-5.72,0.8
34263,51.517155,-2.642885,77,24.76,10,59.7,Nov-19,3426388,2019-08-31 09:22:38:110,0.5791,0.0727,10.6529,0.0014,-0.0056,9.8066,0.0277,0.0357,-0.0256,0.05,-17.54,-55.05,73.49,-5.82,0.77
34264,51.517155,-2.642885,77,24.76,10,59.7,Nov-19,3426488,2019-08-31 09:22:38:210,-0.0782,0.4211,8.7337,-0.0052,0.0199,9.8066,0.0277,0.0357,-0.0256,0.05,-17.54,-55.05,73.49,-5.82,0.77
34265,51.517155,-2.642885,77,24.76,10,59.7,Nov-19,3426588,2019-08-31 09:22:38:310,1.2242,0.0597,9.7424,0.0015,-0.0035,9.8066,-0.0128,-0.0506,0.0181,0.05,-17.91,-55.43,73.16,-5.92,0.7
34266,51.517155,-2.642885,77,24.76,10,59.7,Nov-19,3426688,2019-08-31 09:22:38:410,0.0627,0.3925,8.4817,-0.0124,-0.0156,9.8066,-0.0085,-0.0485,0.0138,0.42,-17.91,-54.62,73.41,-5.82,0.66
34267,51.517155,-2.642885,77,24.76,10,59.7,Nov-19,3426787,2019-08-31 09:22:38:509,0.2039,0.1932,9.7662,0.0047,-0.0416,9.8066,0.0075,0.0314,0.0042,0.42,-17.91,-54.62,73.41,-5.82,0.66
34268,51.517155,-2.642885,77,24.76,10,59.7,Nov-19,3426888,2019-08-31 09:22:38:610,-0.313,-0.2977,9.915,0.0,-0.0023,9.8066,-0.0266,-0.0304,0.0074,0.42,-17.54,-54.18,74.5,-5.56,0.8
34269,51.517155,-2.642885,77,24.76,10,59.7,Nov-19,3426988,2019-08-31 09:22:38:710,-0.4305,-0.3149,10.2959,-0.0099,0.0042,9.8066,-0.0011,0.0346,-0.0032,0.74,-17.91,-53.74,71.75,-5.54,0.81
34270,51.517155,-2.642885,77,24.76,10,59.7,Nov-19,3427088,2019-08-31 09:22:38:810,0.4815,0.2132,9.2348,-0.0115,0.0122,9.8066,-0.0362,-0.0517,0.0234,0.74,-17.91,-53.74,71.75,-5.54,0.81
34271,51.517155,-2.642885,77,24.76,10,59.7,Nov-19,3427188,2019-08-31 09:22:38:910,0.1205,-0.1234,10.6228,0.0017,0.0215,9.8066,0.0234,0.0037,-0.0107,0.74,-17.54,-54.18,71.55,-5.59,0.72
34272,51.517155,-2.642885,77,24.76,10,59.7,Nov-19,3427288,2019-08-31 09:22:39:010,-0.3962,0.0212,10.351,0.0166,0.0529,9.8065,0.0,-0.0101,0.0074,0.05,-17.54,-54.24,73.47,-5.91,0.72
34273,51.517155,-2.642885,77,24.76,10,59.7,Nov-19,3427387,2019-08-31 09:22:39:109,0.0062,0.3882,9.8269,0.0153,0.0312,9.8066,0.0,-0.0101,0.0074,0.05,-17.54,-54.24,73.47,-5.91,0.72
34274,51.517265,-2.642573,77,24.98,10,59.8,Nov-19,3427488,2019-08-31 09:22:39:210,0.0836,0.3608,9.8659,0.0169,0.0199,9.8066,0.0075,0.0325,0.0096,0.05,-17.91,-54.62,72.69,-6.11,0.75
34275,51.517265,-2.642573,77,24.98,10,59.8,Nov-19,3427587,2019-08-31 09:22:39:309,0.1993,0.2096,9.7063,0.0329,0.049,9.8065,-0.0085,-0.0155,-0.0075,0.05,-17.54,-54.24,72.69,-6.11,0.75
34276,51.517265,-2.642573,77,24.98,10,59.8,Nov-19,3427688,2019-08-31 09:22:39:410,0.2612,0.966,8.8308,0.0413,0.083,9.8062,-0.0075,0.0133,0.016,0.42,-17.91,-54.24,71.68,-6.65,0.84
34277,51.517265,-2.642573,77,24.98,10,59.8,Nov-19,3427788,2019-08-31 09:22:39:510,-0.4501,0.0064,9.5925,0.0011,0.0363,9.8066,0.0192,-0.0123,0.0053,-0.33,-17.16,-54.24,70.11,-6.85,0.78
34278,51.517265,-2.642573,77,24.98,10,59.8,Nov-19,3427887,2019-08-31 09:22:39:609,-0.0437,0.4969,8.9315,0.014,0.0004,9.8066,0.0245,0.0176,-0.0021,-0.33,-17.16,-54.24,70.11,-6.85,0.78
34279,51.517265,-2.642573,77,24.98,10,59.8,Nov-19,3427988,2019-08-31 09:22:39:710,0.3302,-0.019,9.9343,0.0649,-0.0121,9.8064,0.0011,0.0218,0.0064,-0.33,-17.54,-53.8,70.11,-6.85,0.78
34280,51.517265,-2.642573,77,24.98,10,59.8,Nov-19,3428088,2019-08-31 09:22:39:810,-0.1993,-0.324,9.6299,0.0054,0.0028,9.8066,0.0011,0.0218,0.0064,-0.33,-17.54,-54.68,71.01,-6.91,1.16
34281,51.517265,-2.642573,77,24.98,10,59.8,Nov-19,3428188,2019-08-31 09:22:39:910,-0.407,-0.1944,10.8292,-0.001,0.0259,9.8066,-0.0064,0.0335,0.0032,0.05,-17.54,-54.3,71.27,-6.94,1.18
34282,51.517265,-2.642573,77,24.98,10,59.8,Nov-19,3428288,2019-08-31 09:22:40:010,-0.2315,-0.2318,10.5023,0.0157,0.0409,9.8066,0.0011,0.0303,-0.0075,0.05,-17.54,-54.3,71.27,-6.94,1.18
34283,51.517265,-2.642573,77,24.98,10,59.8,Nov-19,3428388,2019-08-31 09:22:40:110,-0.325,-0.4741,10.1895,0.0308,0.0094,9.8066,0.0277,0.0165,-0.0064,-0.33,-17.23,-54.74,69.33,-7.2,1.19
34284,51.517376,-2.642254,77,25.34,10,59.7,Nov-19,3428488,2019-08-31 09:22:40:210,0.1678,0.0141,9.6979,0.0528,0.0163,9.8065,-0.0096,-0.0538,0.0074,-0.33,-17.54,-54.3,69.33,-7.2,1.19
34285,51.517376,-2.642254,77,25.34,10,59.7,Nov-19,3428588,2019-08-31 09:22:40:310,-0.1504,-0.1736,9.3517,0.0093,-0.0195,9.8066,0.0266,0.0762,-0.0245,-0.33,-16.85,-53.93,69.43,-7.39,1.45
34286,51.517376,-2.642254,77,25.34,10,59.7,Nov-19,3428687,2019-08-31 09:22:40:409,0.7691,0.6225,9.0793,-0.0095,-0.0424,9.8066,-0.0234,-0.0293,0.0117,-0.33,-17.23,-54.37,70.1,-7.14,1.49
34287,51.517376,-2.642254,77,25.34,10,59.7,Nov-19,3428788,2019-08-31 09:22:40:510,0.1299,0.0,10.3556,0.0019,0.0089,9.8066,0.0256,0.0953,0.0,-0.33,-17.23,-54.37,70.1,-7.14,1.49
34288,51.517376,-2.642254,77,25.34,10,59.7,Nov-19,3428888,2019-08-31 09:22:40:610,-0.0795,-0.2122,10.3494,0.0055,-0.0303,9.8066,0.0256,0.0953,0.0,-0.33,-16.85,-53.93,69.66,-7.34,1.55
34289,51.517376,-2.642254,77,25.34,10,59.7,Nov-19,3428988,2019-08-31 09:22:40:710,0.032,0.0806,8.8239,0.0055,-0.0303,9.8066,-0.0021,-0.0751,0.0373,-0.33,-16.85,-53.93,69.66,-7.34,1.55
34290,51.517376,-2.642254,77,25.34,10,59.7,Nov-19,3429088,2019-08-31 09:22:40:810,0.2715,-0.1871,9.4324,0.0112,-0.0683,9.8064,0.0224,0.0037,-0.0096,-0.01,-16.48,-54.37,69.74,-6.99,1.75
34291,51.517376,-2.642254,77,25.34,10,59.7,Nov-19,3429187,2019-08-31 09:22:40:909,0.0414,-0.7131,10.193,-0.0009,-0.0243,9.8066,0.0043,0.0346,0.0128,0.36,-16.48,-54.8,69.82,-6.91,1.9
34292,51.517376,-2.642254,77,25.34,10,59.7,Nov-19,3429288,2019-08-31 09:22:41:010,-0.2708,-0.8056,9.6991,-0.0162,-0.0759,9.8063,0.0011,-0.0421,-0.0128,-0.01,-16.1,-54.87,69.82,-6.91,1.9
34293,51.517376,-2.642254,77,25.34,10,59.7,Nov-19,3429388,2019-08-31 09:22:41:110,-0.3209,-0.3938,10.0385,-0.0203,-0.0163,9.8066,-0.0085,-0.0048,-0.0064,0.74,-15.73,-54.43,68.57,-6.46,1.97
34294,51.517494,-2.641936,78,25.89,9,59.4,Nov-19,3429487,2019-08-31 09:22:41:209,0.6878,-0.2015,9.8673,-0.0367,-0.0314,9.8065,-0.0458,0.0122,0.0373,1.11,-15.73,-54.87,68.8,-6.21,1.84
34295,51.517494,-2.641936,78,25.89,9,59.4,Nov-19,3429588,2019-08-31 09:22:41:310,-0.401,0.1168,10.228,-0.019,0.0032,9.8066,0.0096,0.0346,-0.0096,1.11,-15.73,-54.87,68.8,-6.21,1.84
34296,51.517494,-2.641936,78,25.89,9,59.4,Nov-19,3429688,2019-08-31 09:22:41:410,-0.7225,-0.055,9.9672,-0.0163,-0.0064,9.8066,0.0096,0.0346,-0.0096,1.11,-16.48,-54.49,69.0,-6.19,1.72
34297,51.517494,-2.641936,78,25.89,9,59.4,Nov-19,3429788,2019-08-31 09:22:41:510,-0.8923,-0.5353,10.3523,-0.0332,-0.0218,9.8066,0.0075,0.0485,-0.0011,0.74,-16.85,-54.93,70.13,-6.0,1.59
34298,51.517494,-2.641936,78,25.89,9,59.4,Nov-19,3429888,2019-08-31 09:22:41:610,-0.0404,-0.1887,9.3106,-0.019,-0.0064,9.8066,0.0096,-0.0251,-0.0256,0.74,-16.85,-54.93,70.13,-6.0,1.59
34299,51.517494,-2.641936,78,25.89,9,59.4,Nov-19,3429988,2019-08-31 09:22:41:710,-0.1902,0.0206,10.6136,-0.0443,-0.0158,9.8065,-0.0011,0.0293,-0.0011,0.74,-17.23,-54.93,70.36,-5.83,1.37
34300,51.517494,-2.641936,78,25.89,9,59.4,Nov-19,3430088,2019-08-31 09:22:41:810,0.2922,0.3075,9.0474,-0.043,-0.0175,9.8065,-0.0309,-0.0517,0.0096,0.74,-17.23,-54.93,70.36,-5.83,1.37
34301,51.517494,-2.641936,78,25.89,9,59.4,Nov-19,3430187,2019-08-31 09:22:41:909,-0.1247,-0.4193,10.4492,-0.0166,0.0174,9.8066,0.0245,0.0272,-0.0277,0.74,-17.23,-54.93,70.63,-5.64,1.17
34302,51.517494,-2.641936,78,25.89,9,59.4,Nov-19,3430290,2019-08-31 09:22:42:012,-1.0492,-0.3119,10.5176,-0.0266,0.0262,9.8066,0.0256,0.058,-0.0107,1.11,-17.23,-54.99,70.63,-5.64,1.17
34303,51.517494,-2.641936,77,26.04,9,59.3,Nov-19,3430388,2019-08-31 09:22:42:110,-0.6632,0.1766,9.1531,-0.0259,-0.0248,9.8066,-0.0128,-0.0101,0.0053,0.74,-17.6,-55.8,70.9,-5.74,0.97
34304,51.517616,-2.641603,77,26.04,9,59.3,Nov-19,3430488,2019-08-31 09:22:42:210,-0.7273,-0.1907,9.564,-0.0496,-0.0396,9.8064,-0.0107,0.0186,-0.0224,0.74,-17.6,-55.8,70.9,-5.74,0.97
34305,51.517616,-2.641603,77,26.04,9,59.3,Nov-19,3430588,2019-08-31 09:22:42:310,-0.062,0.1081,8.5891,-0.0335,-0.0193,9.8066,-0.0107,0.0186,-0.0224,0.74,-17.29,-55.49,70.82,-5.42,0.77
34306,51.517616,-2.641603,77,26.04,9,59.3,Nov-19,3430688,2019-08-31 09:22:42:410,-0.8484,-0.2213,10.6353,-0.0658,-0.0273,9.8064,-0.033,-0.0187,0.0149,0.36,-17.29,-55.49,74.24,-5.15,0.46
34307,51.517616,-2.641603,77,26.04,9,59.3,Nov-19,3430787,2019-08-31 09:22:42:509,0.0419,0.0367,10.6262,-0.0116,0.017,9.8066,0.0043,-0.0133,-0.0139,1.11,-17.6,-55.87,71.67,-5.22,0.37
34308,51.517616,-2.641603,77,26.04,9,59.3,Nov-19,3430888,2019-08-31 09:22:42:610,0.2626,-0.1554,9.5551,-0.0068,0.0056,9.8066,-0.0192,-0.0453,0.016,0.74,-17.29,-55.49,71.67,-5.22,0.37
34309,51.517616,-2.641603,77,26.04,9,59.3,Nov-19,3430988,2019-08-31 09:22:42:710,0.7065,0.3654,9.3952,0.0049,0.0088,9.8066,0.0224,0.0314,0.0021,0.74,-17.29,-55.49,71.67,-5.22,0.37
34310,51.517616,-2.641603,77,26.04,9,59.3,Nov-19,3431087,2019-08-31 09:22:42:809,0.9044,0.0262,9.2524,-0.0132,-0.0091,9.8066,-0.0245,-0.0027,0.017,0.36,-17.66,-55.87,74.36,-5.28,0.38
34311,51.517616,-2.641603,77,26.04,9,59.3,Nov-19,3431188,2019-08-31 09:22:42:910,0.0943,-0.2266,9.5353,-0.016,-0.0174,9.8066,0.0,-0.0123,0.0,0.74,-17.29,-55.49,71.08,-5.16,0.32
34312,51.517616,-2.641603,77,26.04,9,59.3,Nov-19,3431288,2019-08-31 09:22:43:010,-0.0386,-0.201,9.4368,-0.0093,-0.0186,9.8066,0.0032,-0.0059,-0.0085,0.74,-17.66,-55.05,71.08,-5.16,0.32
34313,51.517616,-2.641603,77,26.04,9,59.3,Nov-19,3431387,2019-08-31 09:22:43:109,0.1025,0.2983,9.2226,-0.0282,-0.0447,9.8065,0.0277,0.0357,-0.0256,0.74,-17.29,-55.87,71.61,-4.86,0.25
34314,51.51773,-2.641284,78,26.2,9,59.2,Nov-19,3431487,2019-08-31 09:22:43:209,-0.3715,0.3561,9.7277,-0.0024,0.0007,9.8067,0.0277,0.0357,-0.0256,1.11,-17.98,-55.49,71.61,-4.86,0.25
34315,51.51773,-2.641284,78,26.2,9,59.2,Nov-19,3431589,2019-08-31 09:22:43:311,-0.2994,-0.3888,10.596,0.0036,-0.0026,9.8066,0.0234,0.0367,-0.0139,1.11,-17.98,-55.49,71.61,-4.86,0.25
34316,51.51773,-2.641284,78,26.2,9,59.2,Nov-19,3431688,2019-08-31 09:22:43:410,-0.9439,0.1172,9.2085,0.0221,0.0092,9.8066,-0.0075,-0.073,0.0213,0.74,-17.66,-55.49,72.64,-4.95,0.35
34317,51.51773,-2.641284,78,26.2,9,59.2,Nov-19,3431788,2019-08-31 09:22:43:510,0.801,-0.6541,11.3933,0.0159,0.0011,9.8066,0.0426,-0.0208,-0.0277,0.74,-17.66,-55.93,72.44,-4.98,0.49
34318,51.51773,-2.641284,78,26.2,9,59.2,Nov-19,3431888,2019-08-31 09:22:43:610,-0.2087,0.403,8.4981,0.0299,0.0044,9.8066,0.017,-0.0772,-0.0245,0.74,-17.29,-55.93,72.44,-4.98,0.49
34319,51.51773,-2.641284,78,26.2,9,59.2,Nov-19,3431988,2019-08-31 09:22:43:710,0.3309,-0.7694,10.075,0.0154,-0.0256,9.8066,0.0021,-0.0187,-0.0011,0.74,-17.29,-55.93,72.44,-4.98,0.49
34320,51.51773,-2.641284,78,26.2,9,59.2,Nov-19,3432088,2019-08-31 09:22:43:810,0.6732,0.28,9.3546,-0.0136,-0.0186,9.8066,0.0021,-0.0187,-0.0011,0.74,-17.66,-55.87,72.88,-4.87,0.62
34321,51.51773,-2.641284,78,26.2,9,59.2,Nov-19,3432188,2019-08-31 09:22:43:910,0.277,0.3017,10.8629,-0.0161,-0.002,9.8066,-0.0149,-0.0464,0.0011,1.11,-17.66,-55.49,72.88,-4.87,0.62
34322,51.51773,-2.641284,78,26.2,9,59.2,Nov-19,3432288,2019-08-31 09:22:44:010,-0.3749,-0.152,10.734,-0.0114,0.0155,9.8066,-0.0043,0.024,-0.0043,0.74,-17.66,-56.37,72.61,-4.93,0.53
34323,51.51773,-2.641284,78,26.2,9,59.2,Nov-19,3432388,2019-08-31 09:22:44:110,-0.3392,-0.0382,10.1969,-0.0002,-0.0076,9.8066,0.0213,-0.0219,-0.0256,0.74,-17.98,-55.87,72.61,-4.93,0.53
34324,51.51784,-2.640962,78,26.28,9,59.4,Nov-19,3432488,2019-08-31 09:22:44:210,-0.0617,-0.006,9.6602,0.0,-0.0004,9.8067,-0.0085,0.0453,0.0032,0.74,-17.98,-55.87,72.61,-4.93,0.53
34325,51.51784,-2.640962,78,26.28,9,59.4,Nov-19,3432588,2019-08-31 09:22:44:310,-0.1237,0.1281,9.1675,-0.0026,0.0173,9.8066,-0.0075,-0.0293,-0.0011,1.11,-17.6,-55.43,72.85,-4.93,0.53
34326,51.51784,-2.640962,78,26.28,9,59.4,Nov-19,3432688,2019-08-31 09:22:44:410,-0.0433,-0.039,9.4471,-0.0057,0.0341,9.8066,-0.0117,-0.0037,0.0117,0.36,-17.98,-55.87,74.89,-5.11,0.44
34327,51.51784,-2.640962,78,26.28,9,59.4,Nov-19,3432788,2019-08-31 09:22:44:510,0.3822,0.2879,8.7689,-0.0045,-0.029,9.8066,-0.0043,-0.057,0.0064,1.11,-17.98,-56.3,72.49,-4.95,0.44
34328,51.51784,-2.640962,78,26.28,9,59.4,Nov-19,3432887,2019-08-31 09:22:44:609,0.1873,-0.1772,10.8977,-0.0061,-0.0316,9.8066,-0.0234,-0.0655,0.001,1.11,-17.98,-56.3,72.49,-4.95,0.44
34329,51.51784,-2.640962,78,26.28,9,59.4,Nov-19,3432988,2019-08-31 09:22:44:710,-0.1834,0.0714,10.5513,-0.0113,0.0209,9.8066,-0.0234,-0.0655,0.001,1.11,-18.35,-55.43,73.25,-4.76,0.46
34330,51.51784,-2.640962,78,26.28,9,59.4,Nov-19,3433088,2019-08-31 09:22:44:810,-0.6535,-0.0011,11.0781,-0.021,0.0492,9.8065,-0.0085,0.0261,-0.0139,1.49,-18.73,-55.8,73.25,-4.76,0.46
34331,51.51784,-2.640962,78,26.28,9,59.4,Nov-19,3433187,2019-08-31 09:22:44:909,0.1414,-0.1633,10.2752,-0.0064,0.0077,9.8066,0.0341,0.0367,-0.0277,1.49,-18.73,-55.87,73.04,-5.0,0.26
34332,51.51784,-2.640962,78,26.28,9,59.4,Nov-19,3433287,2019-08-31 09:22:45:009,-0.0807,0.4263,8.8648,0.0076,0.024,9.8066,-0.0053,-0.0165,0.0085,1.11,-19.1,-55.37,73.04,-5.0,0.26
34333,51.51784,-2.640962,78,26.28,9,59.4,Nov-19,3433388,2019-08-31 09:22:45:110,-0.4771,0.1518,9.9922,0.017,0.0307,9.8066,0.0107,-0.0527,-0.0192,1.11,-19.1,-55.37,72.79,-5.2,0.3
34334,51.517963,-2.640628,79,26.52,9,59.2,Nov-19,3433488,2019-08-31 09:22:45:210,-0.3636,-0.3706,8.6243,0.007,-0.0073,9.8066,-0.0202,-0.0954,0.0,1.11,-19.48,-55.37,72.79,-5.2,0.3
34335,51.517963,-2.640628,79,26.52,9,59.2,Nov-19,3433588,2019-08-31 09:22:45:310,-0.7484,-0.2652,8.6262,-0.0202,-0.0725,9.8064,-0.0394,-0.0304,0.0266,1.11,-19.48,-55.37,72.79,-5.2,0.3
34336,51.517963,-2.640628,79,26.52,9,59.2,Nov-19,3433688,2019-08-31 09:22:45:410,0.3451,-0.2385,9.4982,0.0115,0.0022,9.8066,-0.0394,-0.0304,0.0266,1.11,-20.16,-54.87,74.82,-4.69,0.24
34337,51.517963,-2.640628,79,26.52,9,59.2,Nov-19,3433788,2019-08-31 09:22:45:510,-0.38,-0.2256,10.805,0.0197,0.0071,9.8066,-0.0107,0.0442,0.016,0.74,-19.79,-55.3,74.79,-4.72,0.3
34338,51.517963,-2.640628,79,26.52,9,59.2,Nov-19,3433888,2019-08-31 09:22:45:610,-0.0786,0.1607,10.1999,0.0475,0.024,9.8065,0.0266,-0.0208,-0.0096,0.74,-19.79,-55.3,74.79,-4.72,0.3
34339,51.517963,-2.640628,79,26.52,9,59.2,Nov-19,3433988,2019-08-31 09:22:45:710,0.439,0.1767,10.1734,0.0078,0.0303,9.8066,-0.0021,0.0431,-0.0075,0.74,-20.16,-55.3,74.45,-4.93,0.53
34340,51.517963,-2.640628,79,26.52,9,59.2,Nov-19,3434087,2019-08-31 09:22:45:809,-0.0786,0.2118,9.8983,0.0071,0.0119,9.8066,0.0128,-0.0272,-0.0181,0.36,-20.54,-54.87,77.21,-5.11,0.53
34341,51.517963,-2.640628,79,26.52,9,59.2,Nov-19,3434187,2019-08-31 09:22:45:909,0.0356,0.2428,7.3101,0.0096,0.0007,9.8066,-0.016,-0.0059,0.0213,0.36,-20.16,-54.49,76.83,-5.13,0.58
34342,51.517963,-2.640628,79,26.52,9,59.2,Nov-19,3434287,2019-08-31 09:22:46:009,-0.1058,0.0559,9.3413,0.0139,-0.0549,9.8065,-0.0117,-0.0133,0.0213,0.36,-20.16,-54.49,76.83,-5.13,0.58
34343,51.517963,-2.640628,79,26.52,9,59.2,Nov-19,3434389,2019-08-31 09:22:46:111,0.2402,0.0826,8.7601,0.0089,0.0088,9.8066,-0.0021,-0.0506,-0.0032,-0.33,-20.16,-55.3,77.44,-4.84,0.74
34344,51.51809,-2.640298,80,26.86,9,59.2,Nov-19,3434488,2019-08-31 09:22:46:210,-0.0755,-0.1097,10.7562,0.0051,0.0057,9.8066,-0.0021,-0.0506,-0.0032,-0.7,-20.54,-54.87,77.44,-4.84,0.74
34345,51.51809,-2.640298,80,26.86,9,59.2,Nov-19,3434587,2019-08-31 09:22:46:309,0.0957,-0.0277,10.0347,0.0146,-0.0073,9.8066,-0.0352,-0.0112,0.0319,-0.7,-20.16,-54.87,80.2,-4.81,0.83
34346,51.51809,-2.640298,80,26.86,9,59.2,Nov-19,3434688,2019-08-31 09:22:46:410,0.3454,0.2053,10.0867,0.0041,0.0091,9.8066,-0.0032,0.0346,0.0096,-0.7,-20.16,-54.87,80.2,-4.81,0.83
34347,51.51809,-2.640298,80,26.86,9,59.2,Nov-19,3434788,2019-08-31 09:22:46:510,-0.4498,-0.299,9.8175,0.0133,0.0005,9.8066,-0.0117,-0.0133,0.0234,-1.45,-20.54,-55.24,80.21,-4.99,0.84
34348,51.51809,-2.640298,80,26.86,9,59.2,Nov-19,3434888,2019-08-31 09:22:46:610,-0.0098,-0.1264,10.0476,0.0138,-0.0203,9.8066,0.0298,0.0058,-0.0149,-1.08,-20.16,-55.24,79.75,-5.01,0.92
34349,51.51809,-2.640298,80,26.86,9,59.2,Nov-19,3434988,2019-08-31 09:22:46:710,0.2305,0.0156,8.8894,0.0091,-0.0024,9.8066,-0.0224,0.0016,0.0021,-1.45,-19.79,-54.43,80.28,-4.9,1.02
34350,51.51809,-2.640298,80,26.86,9,59.2,Nov-19,3435087,2019-08-31 09:22:46:809,0.305,-0.0649,9.5085,-0.0055,0.0052,9.8066,-0.0011,0.0431,-0.0032,-1.45,-19.79,-54.43,80.28,-4.9,1.02
34351,51.51809,-2.640298,80,26.86,9,59.2,Nov-19,3435188,2019-08-31 09:22:46:910,-0.2365,0.0412,10.2626,-0.01,-0.005,9.8066,-0.0192,-0.0815,0.0181,-2.2,-19.41,-54.8,82.27,-4.93,0.98
34352,51.51809,-2.640298,80,26.86,9,59.2,Nov-19,3435288,2019-08-31 09:22:47:010,0.6115,0.14,12.3267,0.0004,-0.0117,9.8066,-0.0192,-0.0815,0.0181,-1.83,-19.41,-54.37,82.58,-4.89,0.93
34353,51.51809,-2.640298,80,26.86,9,59.2,Nov-19,3435389,2019-08-31 09:22:47:111,0.469,0.071,9.5978,0.0138,-0.0064,9.8066,0.0309,0.0229,0.0074,-1.83,-19.04,-54.8,82.46,-4.87,1.01
34354,51.518196,-2.639977,81,26.62,9,59.9,Oct-18,3435488,2019-08-31 09:22:47:210,-0.3582,-0.3472,10.6833,0.0263,0.0209,9.8066,0.016,-0.0165,-0.0128,-1.83,-19.04,-54.8,82.46,-4.87,1.01
34355,51.518196,-2.639977,81,26.62,9,59.9,Oct-18,3435587,2019-08-31 09:22:47:309,0.5525,0.082,9.5172,0.0245,0.0338,9.8066,-0.0277,-0.0187,-0.0011,-2.58,-18.66,-54.37,84.99,-5.08,1.13
34356,51.518196,-2.639977,81,26.62,9,59.9,Oct-18,3435688,2019-08-31 09:22:47:410,-0.1016,-0.3521,9.451,-0.0122,-0.0186,9.8066,-0.0107,-0.0772,0.0128,-2.2,-18.66,-54.3,82.45,-4.97,1.07
34357,51.518196,-2.639977,81,26.62,9,59.9,Oct-18,3435788,2019-08-31 09:22:47:510,0.0285,-0.2506,8.9672,-0.0271,-0.0364,9.8065,-0.0181,0.0208,0.0042,-2.2,-18.66,-54.3,82.45,-4.97,1.07
34358,51.518196,-2.639977,81,26.62,9,59.9,Oct-18,3435888,2019-08-31 09:22:47:610,0.1283,0.0187,9.6581,-0.0075,0.0221,9.8066,-0.0053,-0.0474,-0.0107,-1.83,-17.91,-55.18,82.4,-4.73,0.94
34359,51.518196,-2.639977,81,26.62,9,59.9,Oct-18,3435988,2019-08-31 09:22:47:710,0.6594,0.1274,9.4946,-0.0011,0.0099,9.8066,-0.0053,-0.0474,-0.0107,-1.83,-17.91,-55.18,82.4,-4.73,0.94
34360,51.518196,-2.639977,81,26.62,9,59.9,Oct-18,3436088,2019-08-31 09:22:47:810,0.3073,-0.1574,10.1574,-0.0105,-0.0127,9.8066,0.0149,0.0272,-0.0192,-2.2,-17.91,-55.18,82.23,-4.79,0.92
34361,51.518196,-2.639977,81,26.62,9,59.9,Oct-18,3436188,2019-08-31 09:22:47:910,-0.0482,-0.2254,10.495,0.0169,0.0039,9.8066,0.0543,0.0208,-0.0085,-1.83,-17.54,-54.74,82.44,-4.71,0.87
34362,51.518196,-2.639977,81,26.62,9,59.9,Oct-18,3436287,2019-08-31 09:22:48:009,0.491,0.2324,10.1393,0.053,0.012,9.8065,-0.0064,0.0186,0.0405,-1.83,-17.54,-54.74,82.44,-4.71,0.87
34363,51.518196,-2.639977,81,26.62,9,59.9,Oct-18,3436388,2019-08-31 09:22:48:110,0.4443,-0.144,10.1948,0.0316,-0.004,9.8066,-0.0213,-0.0517,0.0202,-1.83,-16.85,-54.74,81.84,-4.82,1.17
34364,51.518326,-2.639651,82,26.9,9,59.7,Nov-19,3436488,2019-08-31 09:22:48:210,-0.3953,-0.2439,9.3575,0.0435,-0.0113,9.8065,-0.016,-0.0325,0.0032,-1.83,-16.48,-54.74,81.84,-4.82,1.17
34365,51.518326,-2.639651,82,26.9,9,59.7,Nov-19,3436588,2019-08-31 09:22:48:310,-0.1598,-0.0108,8.876,0.0038,0.0012,9.8067,0.016,-0.0155,-0.0053,-1.45,-16.1,-55.12,78.41,-4.79,1.43
34366,51.518326,-2.639651,82,26.9,9,59.7,Nov-19,3436688,2019-08-31 09:22:48:410,-0.5148,-0.4002,9.3721,0.0197,-0.0242,9.8066,0.016,-0.0155,-0.0053,-1.08,-16.48,-54.74,78.57,-4.76,1.53
34367,51.518326,-2.639651,82,26.9,9,59.7,Nov-19,3436788,2019-08-31 09:22:48:510,0.26,-0.1002,9.6101,0.027,-0.0448,9.8065,0.0043,-0.0048,0.0032,-0.7,-15.35,-55.12,78.57,-4.76,1.53
34368,51.518326,-2.639651,82,26.9,9,59.7,Nov-19,3436888,2019-08-31 09:22:48:610,-0.3222,0.031,10.2393,-0.0137,0.0019,9.8066,-0.0213,0.0282,0.0053,-0.7,-16.1,-54.68,79.38,-4.53,1.74
34369,51.518326,-2.639651,82,26.9,9,59.7,Nov-19,3436987,2019-08-31 09:22:48:709,0.3597,0.3956,9.9581,-0.0324,0.0258,9.8066,-0.0447,-0.0208,0.0202,-0.7,-16.1,-54.68,79.38,-4.53,1.74
34370,51.518326,-2.639651,82,26.9,9,59.7,Nov-19,3437088,2019-08-31 09:22:48:810,-1.0015,0.1862,10.7866,-0.0321,-0.0016,9.8066,-0.0362,-0.1113,0.0287,-0.33,-15.73,-54.24,76.02,-4.65,1.53
34371,51.518326,-2.639651,82,26.9,9,59.7,Nov-19,3437188,2019-08-31 09:22:48:910,0.4174,0.465,8.9483,-0.0266,0.0132,9.8066,0.0234,0.025,0.0074,0.05,-15.73,-54.24,75.78,-4.69,1.36
34372,51.518326,-2.639651,82,26.9,9,59.7,Nov-19,3437288,2019-08-31 09:22:49:010,-0.1954,0.2701,9.1815,-0.0043,-0.0256,9.8066,-0.0107,-0.0059,0.0032,0.05,-15.73,-54.24,75.78,-4.69,1.36
34373,51.518326,-2.639651,82,26.9,9,59.7,Nov-19,3437388,2019-08-31 09:22:49:110,0.3384,0.0432,10.5557,-0.0073,-0.0041,9.8066,-0.0107,-0.0059,0.0032,0.36,-16.48,-54.24,76.23,-4.53,1.37
34374,51.518448,-2.639324,84,26.97,9,59.4,Nov-18,3437488,2019-08-31 09:22:49:210,-0.513,-0.354,9.3417,-0.0154,-0.0002,9.8066,-0.0032,0.0303,0.0,1.11,-16.1,-54.24,76.23,-4.53,1.37
34375,51.518448,-2.639324,84,26.97,9,59.4,Nov-18,3437587,2019-08-31 09:22:49:309,0.042,-0.5638,10.703,-0.0049,0.0019,9.8066,-0.0373,-0.041,0.0469,0.74,-16.48,-54.68,72.89,-4.54,1.34
34376,51.518448,-2.639324,84,26.97,9,59.4,Nov-18,3437688,2019-08-31 09:22:49:410,0.3927,0.1312,9.413,0.0007,-0.0116,9.8066,0.0256,0.0549,-0.0149,0.74,-16.1,-54.24,73.27,-4.48,1.34
34377,51.518448,-2.639324,84,26.97,9,59.4,Nov-18,3437788,2019-08-31 09:22:49:510,-0.5879,-0.1468,9.4298,-0.0139,-0.0245,9.8066,-0.0032,-0.0314,0.0074,0.74,-16.1,-54.24,73.27,-4.48,1.34
34378,51.518448,-2.639324,84,26.97,9,59.4,Nov-18,3437888,2019-08-31 09:22:49:610,-0.787,-0.1248,9.5791,-0.0142,-0.0181,9.8066,-0.0149,-0.0133,0.0106,0.74,-16.1,-54.24,73.69,-4.32,1.3
34379,51.518448,-2.639324,84,26.97,9,59.4,Nov-18,3437988,2019-08-31 09:22:49:710,0.0531,-0.2416,10.2897,-0.0079,-0.013,9.8066,0.0213,0.0058,-0.0064,1.11,-16.79,-54.24,74.84,-4.2,1.25
34380,51.518448,-2.639324,84,26.97,9,59.4,Nov-18,3438088,2019-08-31 09:22:49:810,-0.4417,-0.3237,10.2337,-0.0134,-0.0294,9.8066,0.0213,0.0058,-0.0064,1.11,-16.79,-54.24,74.84,-4.2,1.25
34381,51.518448,-2.639324,84,26.97,9,59.4,Nov-18,3438188,2019-08-31 09:22:49:910,-0.264,-0.1108,9.7636,-0.0159,-0.0124,9.8066,-0.0245,0.0027,0.0106,1.49,-16.79,-54.24,75.33,-4.01,1.22
34382,51.518448,-2.639324,84,26.97,9,59.4,Nov-18,3438288,2019-08-31 09:22:50:010,-0.6786,-0.6415,10.2247,-0.0349,-0.0208,9.8066,-0.016,-0.0219,0.0064,1.49,-17.16,-54.62,75.33,-4.01,1.22
34383,51.518448,-2.639324,84,26.97,9,59.4,Nov-19,3438389,2019-08-31 09:22:50:111,0.0178,-0.4014,8.8359,-0.0238,-0.0246,9.8066,-0.017,0.025,-0.0021,1.11,-16.41,-54.18,74.86,-3.84,1.05
34384,51.518566,-2.638988,85,27.04,9,59.3,Nov-19,3438488,2019-08-31 09:22:50:210,-0.1173,-0.2514,10.0984,-0.0512,-0.058,9.8063,-0.0234,-0.0485,0.0085,1.11,-17.16,-53.74,76.66,-3.44,0.85
34385,51.518566,-2.638988,85,27.04,9,59.3,Nov-19,3438587,2019-08-31 09:22:50:309,-0.52,-0.2208,9.2085,-0.0285,-0.0676,9.8064,-0.0021,-0.0506,0.0319,1.11,-17.16,-53.74,76.66,-3.44,0.85
34386,51.518566,-2.638988,85,27.04,9,59.3,Nov-19,3438688,2019-08-31 09:22:50:410,-0.7419,-0.2057,10.4092,0.0076,-0.0228,9.8066,0.0043,0.0346,0.0309,1.49,-17.16,-54.24,77.82,-3.02,0.78
34387,51.518566,-2.638988,85,27.04,9,59.3,Nov-19,3438788,2019-08-31 09:22:50:510,-0.1687,0.1651,10.503,0.0238,-0.019,9.8066,0.0384,0.0847,-0.0171,0.74,-17.16,-54.18,78.22,-2.89,0.85
34388,51.518566,-2.638988,85,27.04,9,59.3,Nov-19,3438888,2019-08-31 09:22:50:610,0.3465,0.0917,10.738,0.0162,-0.0072,9.8066,0.0384,0.0847,-0.0171,0.74,-17.16,-54.18,78.22,-2.89,0.85
34389,51.518566,-2.638988,85,27.04,9,59.3,Nov-19,3438988,2019-08-31 09:22:50:710,-0.1669,-0.2295,10.7039,0.002,0.0195,9.8066,-0.0224,0.0197,0.001,0.74,-17.16,-54.62,78.21,-2.87,0.95
34390,51.518566,-2.638988,85,27.04,9,59.3,Nov-19,3439088,2019-08-31 09:22:50:810,0.514,0.2094,9.5924,-0.0011,0.0041,9.8067,-0.0043,-0.0368,0.0053,0.74,-17.16,-54.62,78.21,-2.87,0.95
34391,51.518566,-2.638988,85,27.04,9,59.3,Nov-19,3439189,2019-08-31 09:22:50:911,0.153,-0.0878,9.2039,0.0004,-0.0279,9.8066,-0.0053,-0.0197,0.0,0.74,-17.16,-54.62,78.13,-2.89,0.94
34392,51.518566,-2.638988,85,27.04,9,59.3,Nov-19,3439288,2019-08-31 09:22:51:010,-0.623,-0.1061,9.392,-0.0042,-0.0333,9.8066,-0.0096,-0.0336,-0.0085,0.74,-17.54,-54.62,79.3,-2.7,0.96
34393,51.518566,-2.638988,85,27.04,9,59.3,Nov-19,3439388,2019-08-31 09:22:51:110,-0.6521,-0.2906,9.6055,-0.0141,0.011,9.8066,-0.0405,-0.0091,0.0149,0.74,-17.54,-54.55,79.3,-2.7,0.96
34394,51.518692,-2.638659,86,26.91,9,59.2,Nov-19,3439488,2019-08-31 09:22:51:210,0.0528,-0.1403,9.7696,-0.0763,-0.024,9.8063,0.0053,-0.0517,-0.0171,0.74,-17.54,-54.55,79.3,-2.7,0.96
34395,51.518692,-2.638659,86,26.91,9,59.2,Nov-19,3439588,2019-08-31 09:22:51:310,-0.1315,-0.0299,8.9299,-0.0087,-0.001,9.8066,-0.0075,-0.0176,0.0202,0.8,-17.54,-54.99,79.69,-2.48,0.55
34396,51.518692,-2.638659,86,26.91,9,59.2,Nov-19,3439689,2019-08-31 09:22:51:411,0.4432,0.0169,10.0067,-0.0127,0.0143,9.8066,-0.0075,-0.0176,0.0202,0.74,-17.54,-54.99,79.69,-2.48,0.55
34397,51.518692,-2.638659,86,26.91,9,59.2,Nov-19,3439788,2019-08-31 09:22:51:510,0.3888,-0.0409,10.0827,0.0058,0.0007,9.8066,0.0,0.0506,0.0032,0.05,-17.54,-54.62,82.47,-2.55,0.46
34398,51.518692,-2.638659,86,26.91,9,59.2,Nov-19,3439888,2019-08-31 09:22:51:610,1.127,0.4178,9.6773,0.0165,-0.0039,9.8066,0.0064,-0.0027,-0.0032,0.42,-17.54,-54.55,82.54,-2.54,0.56
34399,51.518692,-2.638659,86,26.91,9,59.2,Nov-19,3439988,2019-08-31 09:22:51:710,0.0449,-0.0599,9.628,-0.0115,0.0077,9.8066,-0.033,-0.0325,0.0117,0.42,-17.54,-54.55,82.54,-2.54,0.56
