,GPS LATITUDE (degrees), GPS LONGITUDE (degrees), GPS ALTITUDE (m), GPS SPEED (Kmh), GPS ACCURACY (m), GPS ORIENTATION (Â°),GPS SATELLITES IN RANGE, TIME SINCE START (ms), DATE (YYYY-MO-DD HH-MI-SS_SSS), ACCELEROMETER X (m/s²) , ACCELEROMETER Y (m/s²), ACCELEROMETER Z (m/s²), GRAVITY X (m/s²), GRAVITY Y (m/s²), GRAVITY Z (m/s²), GYROSCOPE Yaw (rad/s), GYROSCOPE Pitch (rad/s), GYROSCOPE Roll (rad/s), MAGNETIC FIELD X (Î¼T), MAGNETIC FIELD Y (Î¼T), MAGNETIC FIELD Z (Î¼T), ORIENTATION (Yaw) (Â°), ORIENTATION (Pitch) (Â°), ORIENTATION (Roll ) (Â°)
56577,52.38811,-1.44186,127,22.92,9.0,45.5,17 / 25,5657741,2019-08-31 11:24:37:820,0.0118,0.4575,8.4684,-0.0103,0.0033,9.8066,-0.0182,-0.0475,0.0271,14.03,-17.98,-29.09,50.4,-2.45,0.79
56578,52.38811,-1.44186,127,22.92,9.0,45.5,17 / 25,5657841,2019-08-31 11:24:37:920,1.0033,0.3043,9.5459,-0.0345,0.0086,9.8066,-0.0129,-0.0017,-0.0187,13.65,-17.6,-29.09,50.34,-2.36,0.6
56579,52.38811,-1.44186,127,22.92,9.0,45.5,17 / 25,5657941,2019-08-31 11:24:38:020,-0.1423,0.182,10.6831,-0.0441,-0.0209,9.8065,-0.0192,-0.0368,0.0143,13.65,-17.6,-29.09,50.34,-2.36,0.6
56580,52.38811,-1.44186,127,22.92,9.0,45.5,17 / 25,5658041,2019-08-31 11:24:38:120,-1.0824,0.1825,9.4814,-0.0205,-0.0048,9.8066,-0.0033,-0.0048,-0.0112,14.03,-17.98,-28.71,50.48,-2.11,0.48
56581,52.388256,-1.441621,128,22.96,9.0,45.5,19 / 25,5658141,2019-08-31 11:24:38:220,-0.1721,0.0703,9.1444,-0.0118,-0.0009,9.8066,-0.0097,0.0527,0.0165,14.03,-18.73,-29.15,51.98,-2.06,0.43
56582,52.388256,-1.441621,128,22.96,9.0,45.5,19 / 25,5658241,2019-08-31 11:24:38:320,-0.6449,-0.2269,10.1018,0.0239,0.0268,9.8066,0.0095,0.0005,-0.007,14.03,-18.35,-29.09,51.98,-2.06,0.43
56583,52.388256,-1.441621,128,22.96,9.0,45.5,19 / 25,5658341,2019-08-31 11:24:38:420,-0.0212,-0.2921,9.9705,0.0447,0.0456,9.8064,0.0138,-0.0134,0.0133,14.03,-18.35,-29.09,51.98,-2.06,0.43
56584,52.388256,-1.441621,128,22.96,9.0,45.5,19 / 25,5658442,2019-08-31 11:24:38:521,-0.4478,0.004,9.1928,0.0101,0.0092,9.8066,0.0138,-0.0134,0.0133,13.28,-17.98,-29.53,52.01,-2.43,0.47
56585,52.388256,-1.441621,128,22.96,9.0,45.5,19 / 25,5658542,2019-08-31 11:24:38:621,0.2644,-0.0458,9.717,0.0133,0.0182,9.8066,-0.0299,-0.0134,0.0175,14.03,-17.98,-29.15,52.01,-2.43,0.47
56586,52.388256,-1.441621,128,22.96,9.0,45.5,19 / 25,5658641,2019-08-31 11:24:38:720,0.4111,-0.3647,9.1807,0.0214,-0.0308,9.8066,0.0276,-0.0421,-0.0102,14.03,-17.98,-29.15,50.4,-2.36,0.68
56587,52.388256,-1.441621,128,22.96,9.0,45.5,19 / 25,5658741,2019-08-31 11:24:38:820,-0.2536,-0.4376,10.1232,-0.0388,-0.0462,9.8065,-0.0395,-0.0997,0.0303,14.03,-17.98,-29.15,50.4,-2.36,0.68
56588,52.388256,-1.441621,128,22.96,9.0,45.5,19 / 25,5658841,2019-08-31 11:24:38:920,0.7435,-0.1039,9.7195,-0.0296,-0.0339,9.8065,-0.0022,0.0474,-0.0006,14.03,-17.98,-29.53,50.59,-2.1,0.67
56589,52.388256,-1.441621,128,22.96,9.0,45.5,19 / 25,5658941,2019-08-31 11:24:39:020,-0.0716,-0.0588,10.4423,0.0223,0.0022,9.8066,0.0127,0.0271,-0.0048,14.03,-17.98,-29.53,50.59,-2.1,0.67
56590,52.388256,-1.441621,128,22.96,9.0,45.5,19 / 25,5659041,2019-08-31 11:24:39:120,-0.2202,0.348,9.5747,-0.0145,-0.0003,9.8066,-0.0256,-0.007,0.0186,13.65,-17.98,-29.53,50.57,-2.19,0.77
56591,52.388397,-1.441378,127,22.91,10.0,45.7,18 / 24,5659141,2019-08-31 11:24:39:220,0.4613,0.2265,10.2701,0.0193,0.057,9.8065,-0.0256,-0.007,0.0186,13.28,-18.35,-29.09,50.57,-2.19,0.77
56592,52.388397,-1.441378,127,22.91,10.0,45.7,18 / 24,5659241,2019-08-31 11:24:39:320,0.5126,0.1801,10.8365,0.0346,0.0134,9.8066,-0.0001,0.0303,0.025,13.28,-18.73,-28.71,53.59,-2.52,0.64
56593,52.388397,-1.441378,127,22.91,10.0,45.7,18 / 24,5659341,2019-08-31 11:24:39:420,-0.1458,-0.1272,8.8154,0.0216,-0.0228,9.8066,0.0095,-0.0347,-0.0091,13.28,-18.73,-28.71,53.59,-2.52,0.64
56594,52.388397,-1.441378,127,22.91,10.0,45.7,18 / 24,5659441,2019-08-31 11:24:39:520,0.0493,0.0265,8.3057,-0.0328,-0.0268,9.8066,-0.0001,-0.024,-0.0048,12.9,-18.73,-29.09,53.75,-2.49,0.82
56595,52.388397,-1.441378,127,22.91,10.0,45.7,18 / 24,5659540,2019-08-31 11:24:39:619,0.0021,0.2152,9.6024,-0.0608,-0.031,9.8064,0.0084,0.0793,0.0026,12.9,-17.98,-29.09,52.5,-2.13,0.64
56596,52.388397,-1.441378,127,22.91,10.0,45.7,18 / 24,5659641,2019-08-31 11:24:39:720,-0.175,-0.2056,9.5068,0.0142,0.034,9.8066,0.001,0.0474,0.0101,13.28,-17.6,-28.65,52.25,-2.34,0.59
56597,52.388397,-1.441378,127,22.91,10.0,45.7,18 / 24,5659741,2019-08-31 11:24:39:820,0.3374,0.18,9.4325,-0.0001,-0.0137,9.8066,0.0138,0.0122,0.0026,13.28,-17.6,-28.65,52.25,-2.34,0.59
56598,52.388397,-1.441378,127,22.91,10.0,45.7,18 / 24,5659841,2019-08-31 11:24:39:920,0.3317,0.0916,8.7392,0.003,-0.0236,9.8066,0.0138,0.0122,0.0026,13.28,-17.98,-28.65,52.42,-2.24,0.69
56599,52.388397,-1.441378,127,22.91,10.0,45.7,18 / 24,5659942,2019-08-31 11:24:40:021,0.1169,0.0926,10.0443,0.0143,0.0327,9.8066,-0.0097,0.0782,0.0048,13.65,-17.6,-29.09,50.29,-2.45,0.64
56600,52.388535,-1.441135,126,22.97,9.0,45.4,19 / 25,5660041,2019-08-31 11:24:40:120,0.5691,0.1592,10.3744,0.0382,0.0278,9.8065,0.0127,-0.0049,0.0037,12.9,-17.6,-29.09,50.29,-2.45,0.64
56601,52.388535,-1.441135,126,22.97,9.0,45.4,19 / 25,5660142,2019-08-31 11:24:40:221,0.3302,-0.4354,9.8377,0.0305,-0.0097,9.8066,-0.0192,-0.0336,0.0303,12.9,-17.6,-29.09,50.29,-2.45,0.64
56602,52.388535,-1.441135,126,22.97,9.0,45.4,19 / 25,5660242,2019-08-31 11:24:40:321,-0.3799,-0.3293,9.6733,-0.0114,-0.0244,9.8066,-0.0203,-0.0336,0.0143,14.03,-17.6,-28.65,50.36,-2.52,0.81
56603,52.388535,-1.441135,126,22.97,9.0,45.4,19 / 25,5660341,2019-08-31 11:24:40:420,-0.1552,-0.3418,9.9903,-0.0118,-0.0244,9.8066,-0.0022,-0.0219,0.008,14.03,-18.35,-29.09,50.36,-2.52,0.81
56604,52.388535,-1.441135,126,22.97,9.0,45.4,19 / 25,5660441,2019-08-31 11:24:40:520,-0.1582,-0.3933,8.9392,0.0041,-0.0336,9.8066,-0.0107,0.0005,0.025,13.65,-18.73,-28.65,52.08,-2.38,0.95
56605,52.388535,-1.441135,126,22.97,9.0,45.4,19 / 25,5660541,2019-08-31 11:24:40:620,0.4423,-0.0011,10.6054,0.0066,-0.0102,9.8066,-0.0022,0.0463,0.0229,12.9,-17.98,-27.03,52.08,-2.38,0.95
56606,52.388535,-1.441135,126,22.97,9.0,45.4,19 / 25,5660641,2019-08-31 11:24:40:720,-0.4919,-0.162,9.3159,0.0193,0.0054,9.8066,-0.0022,0.0463,0.0229,12.9,-17.98,-27.03,52.08,-2.38,0.95
56607,52.388535,-1.441135,126,22.97,9.0,45.4,19 / 25,5660741,2019-08-31 11:24:40:820,0.3549,0.0078,10.0676,0.0498,0.0287,9.8065,-0.0011,0.0239,0.0037,14.34,-17.6,-28.65,50.42,-2.69,1.08
56608,52.388535,-1.441135,126,22.97,9.0,45.4,19 / 25,5660841,2019-08-31 11:24:40:920,-0.6089,0.0576,9.2114,-0.0017,0.0061,9.8066,0.0106,-0.0017,0.009,14.03,-17.98,-29.09,50.38,-2.71,1.05
56609,52.388535,-1.441135,126,22.97,9.0,45.4,19 / 25,5660940,2019-08-31 11:24:41:019,-0.1629,-0.1576,9.8555,-0.0148,-0.0344,9.8066,0.0212,0.0165,-0.0197,13.65,-17.98,-29.09,50.38,-2.71,1.05
56610,52.388687,-1.440892,126,23.13,9.0,45.2,19 / 25,5661041,2019-08-31 11:24:41:120,-0.1552,-0.2891,8.5561,-0.0187,-0.0604,9.8064,-0.0097,0.0101,0.009,13.65,-17.98,-29.09,50.38,-2.71,1.05
56611,52.388687,-1.440892,126,23.13,9.0,45.2,19 / 25,5661140,2019-08-31 11:24:41:219,0.1404,-0.1267,10.455,-0.0407,-0.0075,9.8066,-0.0459,-0.023,0.0101,13.65,-17.98,-29.03,50.8,-2.37,1.19
56612,52.388687,-1.440892,126,23.13,9.0,45.2,19 / 25,5661241,2019-08-31 11:24:41:320,-0.4222,-0.0323,8.6332,-0.0651,-0.0147,9.8064,0.0031,-0.0272,0.0016,14.03,-17.6,-28.65,50.89,-2.06,0.95
56613,52.388687,-1.440892,126,23.13,9.0,45.2,19 / 25,5661341,2019-08-31 11:24:41:420,0.1775,0.1897,11.175,-0.0114,0.0123,9.8066,0.0031,-0.0272,0.0016,14.03,-17.6,-28.65,50.89,-2.06,0.95
56614,52.388687,-1.440892,126,23.13,9.0,45.2,19 / 25,5661441,2019-08-31 11:24:41:520,0.5607,-0.5821,10.0537,0.0409,0.0407,9.8065,-0.0118,0.1027,0.0058,14.03,-18.35,-29.46,50.8,-2.08,0.85
56615,52.388687,-1.440892,126,23.13,9.0,45.2,19 / 25,5661541,2019-08-31 11:24:41:620,0.2984,0.5361,11.3944,0.0565,0.073,9.8062,0.0276,0.0441,-0.0027,14.03,-18.35,-29.03,50.8,-2.08,0.85
56616,52.388687,-1.440892,126,23.13,9.0,45.2,19 / 25,5661641,2019-08-31 11:24:41:720,-0.1313,0.3901,10.5578,0.0677,0.0673,9.8062,0.05,0.0069,-0.0059,13.65,-17.6,-29.03,50.34,-2.63,0.91
56617,52.388687,-1.440892,126,23.13,9.0,45.2,19 / 25,5661742,2019-08-31 11:24:41:821,0.0932,0.1284,8.6546,0.0122,0.0065,9.8066,-0.0065,-0.0091,-0.0048,13.65,-17.6,-29.03,50.34,-2.63,0.91
56618,52.388687,-1.440892,126,23.13,9.0,45.2,19 / 25,5661842,2019-08-31 11:24:41:921,-0.4747,-0.2792,10.5267,0.0018,0.0149,9.8066,-0.0107,-0.0421,-0.0038,13.65,-18.35,-28.65,50.3,-2.71,0.94
56619,52.388687,-1.440892,126,23.13,9.0,45.2,19 / 25,5661941,2019-08-31 11:24:42:020,-0.7215,-0.1087,8.2036,-0.0598,-0.0194,9.8064,-0.0054,0.0303,-0.0123,13.65,-17.98,-29.09,50.3,-2.68,0.92
56620,52.388687,-1.440892,126,23.13,9.0,45.2,19 / 25,5662040,2019-08-31 11:24:42:119,0.4677,0.2979,8.4384,-0.0312,0.0125,9.8066,-0.0054,0.0303,-0.0123,14.03,-18.73,-28.65,51.91,-2.37,0.72
56621,52.388832,-1.440647,126,23.14,9.0,45.0,19 / 25,5662141,2019-08-31 11:24:42:220,0.282,0.1477,9.2238,-0.0473,0.0256,9.8065,-0.0288,-0.0144,0.0133,13.65,-18.35,-29.09,51.91,-2.37,0.72
56622,52.388832,-1.440647,126,23.14,9.0,45.0,19 / 25,5662242,2019-08-31 11:24:42:321,0.4088,0.3013,10.7721,-0.0553,0.0312,9.8064,-0.0022,-0.0357,-0.0059,13.65,-18.35,-29.09,51.91,-2.37,0.72
56623,52.388832,-1.440647,126,23.14,9.0,45.0,19 / 25,5662342,2019-08-31 11:24:42:421,0.1577,0.1674,9.8516,0.0051,0.0034,9.8066,0.0212,0.0484,-0.0027,13.65,-18.35,-29.03,50.18,-2.32,0.36
56624,52.388832,-1.440647,126,23.14,9.0,45.0,19 / 25,5662442,2019-08-31 11:24:42:521,-0.1574,-0.0088,10.008,0.0333,0.0364,9.8065,-0.0097,0.0591,0.0186,13.65,-18.35,-29.09,49.93,-2.6,0.37
56625,52.388832,-1.440647,126,23.14,9.0,45.0,19 / 25,5662541,2019-08-31 11:24:42:620,0.141,-0.2338,9.0212,0.0257,0.0101,9.8066,0.001,0.0069,0.0144,13.65,-18.35,-29.09,49.93,-2.6,0.37
56626,52.388832,-1.440647,126,23.14,9.0,45.0,19 / 25,5662641,2019-08-31 11:24:42:720,-0.5672,-0.2398,10.4041,0.0246,-0.001,9.8066,-0.0161,-0.0965,0.008,13.28,-18.35,-29.09,51.83,-2.69,0.48
56627,52.388832,-1.440647,126,23.14,9.0,45.0,19 / 25,5662742,2019-08-31 11:24:42:821,0.0808,0.2275,8.975,-0.0265,-0.0409,9.8065,0.0042,-0.0017,0.0069,13.65,-17.98,-29.09,50.22,-2.41,0.51
56628,52.388832,-1.440647,126,23.14,9.0,45.0,19 / 25,5662841,2019-08-31 11:24:42:920,-0.3505,-0.217,9.4192,-0.0294,-0.0023,9.8066,0.0042,-0.0017,0.0069,14.03,-17.98,-29.53,50.22,-2.41,0.51
56629,52.388832,-1.440647,126,23.14,9.0,45.0,19 / 25,5662941,2019-08-31 11:24:43:020,-0.5545,-0.16,9.5193,-0.0168,0.0177,9.8066,0.0021,0.0814,0.0112,13.65,-18.35,-29.09,50.09,-2.43,0.37
56630,52.388832,-1.440647,126,23.14,9.0,45.0,19 / 25,5663042,2019-08-31 11:24:43:121,0.1217,0.1319,10.3211,0.026,0.011,9.8066,0.0234,0.0165,0.0026,13.65,-18.35,-29.09,50.09,-2.43,0.37
56631,52.388977,-1.440406,126,23.23,9.0,44.9,19 / 25,5663141,2019-08-31 11:24:43:220,0.2364,0.1115,8.1766,-0.0003,-0.0008,9.8067,0.0266,0.0687,-0.0016,12.9,-18.35,-29.53,51.84,-2.57,0.44
56632,52.388977,-1.440406,126,23.23,9.0,44.9,19 / 25,5663241,2019-08-31 11:24:43:320,-0.0004,-0.1356,9.6679,0.0007,-0.0016,9.8067,0.0266,0.0601,0.0133,12.9,-18.35,-29.53,51.84,-2.57,0.44
56633,52.388977,-1.440406,126,23.23,9.0,44.9,19 / 25,5663342,2019-08-31 11:24:43:421,0.026,0.1656,9.8954,-0.0057,-0.0188,9.8066,0.0138,0.0154,0.0101,13.28,-17.98,-29.09,51.93,-2.57,0.45
56634,52.388977,-1.440406,126,23.23,9.0,44.9,19 / 25,5663441,2019-08-31 11:24:43:520,-0.1958,-0.0229,9.5551,-0.0032,-0.0162,9.8066,0.0095,0.0207,0.0026,13.28,-17.98,-29.09,51.93,-2.57,0.45
56635,52.388977,-1.440406,126,23.23,9.0,44.9,19 / 25,5663544,2019-08-31 11:24:43:623,-0.087,-0.1335,10.5225,0.008,0.0106,9.8066,-0.0075,-0.0762,0.0154,13.28,-17.6,-29.09,52.04,-2.48,0.5
56636,52.388977,-1.440406,126,23.23,9.0,44.9,19 / 25,5663641,2019-08-31 11:24:43:720,-0.5332,-0.3605,9.5686,0.0095,-0.0001,9.8066,-0.0075,-0.0762,0.0154,13.65,-17.6,-29.09,50.15,-2.52,0.54
56637,52.388977,-1.440406,126,23.23,9.0,44.9,19 / 25,5663741,2019-08-31 11:24:43:820,-0.2369,-0.2128,10.6819,0.0174,-0.0001,9.8066,0.0404,0.0569,-0.0038,13.28,-17.98,-28.65,50.15,-2.52,0.54
56638,52.388977,-1.440406,126,23.23,9.0,44.9,19 / 25,5663840,2019-08-31 11:24:43:919,0.0434,-0.0171,10.2589,0.005,0.0045,9.8066,-0.0267,-0.0357,0.0261,13.65,-17.98,-29.53,50.08,-2.58,0.61
56639,52.388977,-1.440406,126,23.23,9.0,44.9,19 / 25,5663941,2019-08-31 11:24:44:020,0.1131,0.1222,9.7278,-0.0189,-0.0014,9.8066,-0.0043,0.0228,-0.0197,13.65,-17.98,-29.53,50.08,-2.58,0.61
56640,52.388977,-1.440406,126,23.23,9.0,44.9,19 / 25,5664041,2019-08-31 11:24:44:120,-0.4656,-0.1572,9.5981,-0.014,-0.0141,9.8066,0.001,-0.0038,-0.0197,13.65,-18.73,-28.65,51.65,-2.5,0.53
56641,52.38913,-1.440164,126,23.22,9.0,44.9,18 / 25,5664141,2019-08-31 11:24:44:220,-0.442,0.1875,9.4372,-0.0188,-0.0098,9.8066,-0.0278,0.0218,0.0261,13.28,-18.35,-29.46,52.12,-2.39,0.48
56642,52.38913,-1.440164,126,23.22,9.0,44.9,18 / 25,5664241,2019-08-31 11:24:44:320,-0.4582,-0.1315,10.7383,-0.0086,0.0095,9.8066,-0.0001,0.0708,0.0005,13.28,-18.73,-28.65,53.53,-2.4,0.41
56643,52.38913,-1.440164,126,23.22,9.0,44.9,18 / 25,5664341,2019-08-31 11:24:44:420,0.6384,0.6074,8.951,-0.0172,0.0105,9.8066,0.0319,0.0505,-0.0112,13.28,-18.73,-28.65,53.53,-2.4,0.41
56644,52.38913,-1.440164,126,23.22,9.0,44.9,18 / 25,5664441,2019-08-31 11:24:44:520,0.3349,0.0917,10.4272,0.0092,0.0126,9.8066,0.0319,0.0505,-0.0112,13.28,-18.73,-29.03,53.45,-2.39,0.29
56645,52.38913,-1.440164,126,23.22,9.0,44.9,18 / 25,5664541,2019-08-31 11:24:44:620,0.7507,0.5947,9.0847,0.0247,0.0216,9.8066,0.0457,0.0122,-0.0038,13.28,-18.35,-29.53,51.74,-2.58,0.33
56646,52.38913,-1.440164,126,23.22,9.0,44.9,18 / 25,5664641,2019-08-31 11:24:44:720,0.4677,0.076,11.1402,0.0236,0.0107,9.8066,0.0234,-0.023,0.0165,13.28,-17.98,-28.65,51.75,-2.71,0.4
56647,52.38913,-1.440164,126,23.22,9.0,44.9,18 / 25,5664741,2019-08-31 11:24:44:820,-0.1978,-0.4652,8.7721,-0.005,-0.0677,9.8064,0.0138,-0.0379,0.0144,13.28,-17.98,-28.65,51.75,-2.71,0.4
56648,52.38913,-1.440164,126,23.22,9.0,44.9,18 / 25,5664841,2019-08-31 11:24:44:920,-0.4452,-0.1889,9.581,0.006,-0.0067,9.8066,-0.0107,0.0133,0.0197,13.65,-18.35,-29.09,50.34,-2.38,0.62
56649,52.38913,-1.440164,126,23.22,9.0,44.9,18 / 25,5664941,2019-08-31 11:24:45:020,-0.508,-0.3726,10.4502,0.017,-0.0001,9.8066,-0.0203,-0.072,0.0325,13.65,-17.6,-29.09,50.34,-2.44,0.7
56650,52.38913,-1.440164,126,23.22,9.0,44.9,18 / 25,5665042,2019-08-31 11:24:45:121,-0.14,-0.3136,10.574,0.0132,-0.0138,9.8066,-0.015,0.026,0.0016,13.65,-18.35,-29.53,50.38,-2.43,0.81
56651,52.389275,-1.439924,125,23.19,9.0,44.9,18 / 25,5665141,2019-08-31 11:24:45:220,-0.3759,-0.2441,9.6959,0.0195,0.0151,9.8066,-0.015,0.026,0.0016,13.65,-18.35,-29.53,50.38,-2.43,0.81
56652,52.389275,-1.439924,125,23.19,9.0,44.9,18 / 25,5665242,2019-08-31 11:24:45:321,-0.6681,-0.085,9.5912,-0.0119,0.0227,9.8066,-0.0161,0.0228,0.0154,14.03,-17.6,-29.09,50.34,-2.57,0.84
56653,52.389275,-1.439924,125,23.19,9.0,44.9,18 / 25,5665340,2019-08-31 11:24:45:419,-0.0692,-0.6051,10.8579,-0.0422,0.0243,9.8065,-0.0011,-0.0421,-0.0155,14.34,-18.73,-28.28,51.72,-2.52,0.56
56654,52.389275,-1.439924,125,23.19,9.0,44.9,18 / 25,5665441,2019-08-31 11:24:45:520,-0.3871,-0.0552,9.3125,-0.0217,0.0009,9.8066,0.017,-0.023,-0.0048,14.34,-18.73,-28.28,51.72,-2.52,0.56
56655,52.389275,-1.439924,125,23.19,9.0,44.9,18 / 25,5665542,2019-08-31 11:24:45:621,0.904,0.2985,7.554,-0.0088,-0.0238,9.8066,0.0074,0.0569,0.0261,14.34,-19.1,-29.03,51.64,-2.45,0.46
56656,52.389275,-1.439924,125,23.19,9.0,44.9,18 / 25,5665641,2019-08-31 11:24:45:720,-0.1347,-0.1483,9.9839,-0.0014,-0.0218,9.8066,0.0084,0.0026,-0.0006,13.28,-19.1,-28.21,53.74,-2.34,0.53
56657,52.389275,-1.439924,125,23.19,9.0,44.9,18 / 25,5665741,2019-08-31 11:24:45:820,-0.1111,0.3795,9.8933,0.0138,-0.0054,9.8066,0.0084,0.0047,0.0367,13.28,-19.1,-28.28,53.74,-2.34,0.53
56658,52.389275,-1.439924,125,23.19,9.0,44.9,18 / 25,5665841,2019-08-31 11:24:45:920,0.4865,0.019,10.607,0.0045,-0.0199,9.8066,0.0212,0.0026,0.0144,13.28,-18.35,-28.28,52.31,-2.37,0.61
56659,52.389275,-1.439924,125,23.19,9.0,44.9,18 / 25,5665941,2019-08-31 11:24:46:020,0.4099,0.1409,10.2074,0.0154,-0.0005,9.8066,0.0212,0.0026,0.0144,13.28,-18.35,-28.28,52.31,-2.37,0.61
56660,52.389423,-1.439683,125,23.19,9.0,44.8,18 / 25,5666041,2019-08-31 11:24:46:120,-0.6853,-0.1607,9.3022,0.014,0.0049,9.8066,-0.0011,0.0292,-0.0091,13.65,-18.35,-28.65,50.35,-2.42,0.69
56661,52.389423,-1.439683,125,23.19,9.0,44.8,18 / 25,5666141,2019-08-31 11:24:46:220,0.1241,-0.194,9.5208,-0.0244,-0.0253,9.8066,0.0084,0.0441,0.0037,13.28,-17.98,-29.09,52.22,-2.49,0.73
56662,52.389423,-1.439683,125,23.19,9.0,44.8,18 / 25,5666241,2019-08-31 11:24:46:320,0.0132,-0.5876,8.7128,-0.0505,-0.0443,9.8064,-0.0022,-0.0059,0.0122,13.65,-17.6,-29.09,50.61,-2.11,0.66
56663,52.389423,-1.439683,125,23.19,9.0,44.8,18 / 25,5666342,2019-08-31 11:24:46:421,-0.3893,-0.0187,7.3979,0.0006,-0.0019,9.8066,-0.0043,0.025,0.0207,13.65,-18.35,-28.71,50.61,-2.11,0.66
56664,52.389423,-1.439683,125,23.19,9.0,44.8,18 / 25,5666442,2019-08-31 11:24:46:521,-0.1053,-0.1214,9.5677,-0.0027,-0.0037,9.8066,0.0319,0.0953,-0.0048,13.65,-18.35,-28.71,50.61,-2.11,0.66
56665,52.389423,-1.439683,125,23.19,9.0,44.8,18 / 25,5666542,2019-08-31 11:24:46:621,0.1038,-0.116,9.5589,0.0031,-0.0206,9.8066,0.0298,0.0623,-0.0187,13.28,-17.98,-29.15,52.68,-2.03,0.75
56666,52.389423,-1.439683,125,23.19,9.0,44.8,18 / 25,5666641,2019-08-31 11:24:46:720,1.2943,-0.0181,10.1983,-0.0166,-0.0021,9.8066,0.0298,0.0623,-0.0187,13.65,-18.35,-29.59,52.68,-2.03,0.75
56667,52.389423,-1.439683,125,23.19,9.0,44.8,18 / 25,5666741,2019-08-31 11:24:46:820,0.0525,0.2608,9.9126,-0.0109,0.0209,9.8066,-0.0576,-0.0421,0.0335,13.65,-17.98,-28.78,50.61,-2.09,0.62
56668,52.389423,-1.439683,125,23.19,9.0,44.8,18 / 25,5666841,2019-08-31 11:24:46:920,-0.6633,0.138,9.2793,-0.0284,0.0129,9.8066,-0.0565,-0.0112,0.0421,13.65,-17.98,-28.78,50.61,-2.09,0.62
56669,52.389423,-1.439683,125,23.19,9.0,44.8,18 / 25,5666941,2019-08-31 11:24:47:020,-0.2993,-0.3606,7.7352,-0.0526,-0.0115,9.8065,0.0425,-0.0475,-0.008,13.65,-18.04,-28.78,50.68,-1.84,0.43
56670,52.38957,-1.439445,124,23.14,9.0,44.6,18 / 25,5667041,2019-08-31 11:24:47:120,0.2713,0.3218,8.8896,0.0176,0.0252,9.8066,0.0138,0.1496,0.0229,13.65,-18.04,-28.84,50.96,-1.64,0.53
56671,52.38957,-1.439445,124,23.14,9.0,44.6,18 / 25,5667141,2019-08-31 11:24:47:220,1.4141,0.3191,10.2376,0.0356,0.0255,9.8066,0.018,0.0559,0.0261,13.65,-18.04,-28.84,50.96,-1.64,0.53
56672,52.38957,-1.439445,124,23.14,9.0,44.6,18 / 25,5667241,2019-08-31 11:24:47:320,-0.7095,-0.1369,10.6015,0.049,0.0098,9.8065,0.018,0.0559,0.0261,13.65,-18.04,-29.21,50.78,-1.88,0.6
56673,52.38957,-1.439445,124,23.14,9.0,44.6,18 / 25,5667340,2019-08-31 11:24:47:419,-0.2974,-0.1464,9.7224,0.0415,-0.0052,9.8066,0.0319,0.0314,0.0048,13.28,-18.04,-29.21,52.74,-2.01,0.81
56674,52.38957,-1.439445,124,23.14,9.0,44.6,18 / 25,5667441,2019-08-31 11:24:47:520,-0.2404,-0.1782,6.6664,-0.0304,-0.0049,9.8066,0.0116,-0.0816,-0.0155,13.28,-18.04,-29.21,52.74,-2.01,0.81
56675,52.38957,-1.439445,124,23.14,9.0,44.6,18 / 25,5667541,2019-08-31 11:24:47:620,-0.635,-0.2745,8.9607,-0.0098,-0.0129,9.8066,-0.0086,-0.0443,0.0207,13.28,-18.04,-28.4,52.82,-1.88,0.68
56676,52.38957,-1.439445,124,23.14,9.0,44.6,18 / 25,5667641,2019-08-31 11:24:47:720,-0.1014,-0.086,9.4175,0.0006,-0.0366,9.8066,0.0329,-0.0325,-0.0155,13.65,-18.73,-29.21,52.82,-1.88,0.68
56677,52.38957,-1.439445,124,23.14,9.0,44.6,18 / 25,5667741,2019-08-31 11:24:47:820,-0.2298,-0.25,9.0914,-0.0048,-0.0614,9.8065,0.0329,0.0601,0.0016,13.65,-18.42,-28.84,51.28,-1.58,0.88
56678,52.38957,-1.439445,124,23.14,9.0,44.6,18 / 25,5667841,2019-08-31 11:24:47:920,0.5695,0.1621,9.0725,0.0066,0.0045,9.8066,0.0425,-0.0134,0.0144,13.65,-18.04,-29.28,51.28,-1.58,0.88
56679,52.38957,-1.439445,124,23.14,9.0,44.6,18 / 25,5667942,2019-08-31 11:24:48:021,-0.35,-0.0928,9.9283,0.0617,0.0328,9.8064,0.0425,-0.0134,0.0144,13.65,-18.04,-29.28,51.28,-1.58,0.88
56680,52.38957,-1.439445,124,23.14,9.0,44.6,18 / 25,5668044,2019-08-31 11:24:48:123,-0.331,0.1836,9.6866,-0.0073,-0.0116,9.8066,-0.0054,-0.0389,0.0207,13.97,-18.04,-29.28,51.06,-1.96,1.04
56681,52.389713,-1.439211,125,23.01,9.0,44.5,18 / 25,5668141,2019-08-31 11:24:48:220,0.2851,0.3192,11.8297,0.0008,-0.0043,9.8066,-0.0459,-0.0592,0.0314,13.65,-18.35,-29.21,51.06,-1.96,1.04
56682,52.389713,-1.439211,125,23.01,9.0,44.5,18 / 25,5668241,2019-08-31 11:24:48:320,0.2421,0.0552,7.6184,0.0029,0.0068,9.8066,0.001,0.0356,0.0229,13.97,-18.35,-29.21,51.01,-2.0,1.03
56683,52.389713,-1.439211,125,23.01,9.0,44.5,18 / 25,5668341,2019-08-31 11:24:48:420,0.2338,0.118,10.3415,-0.0059,0.0077,9.8066,0.0116,0.0772,-0.0208,13.97,-18.35,-29.21,51.01,-2.0,1.03
56684,52.389713,-1.439211,125,23.01,9.0,44.5,18 / 25,5668441,2019-08-31 11:24:48:520,-0.0631,0.319,9.9291,0.0035,0.0,9.8067,-0.031,0.0143,0.0122,13.65,-18.04,-28.84,50.95,-2.01,0.97
56685,52.389713,-1.439211,125,23.01,9.0,44.5,18 / 25,5668541,2019-08-31 11:24:48:620,-0.5975,-0.0729,9.0812,-0.0015,-0.002,9.8067,-0.0224,-0.0677,0.0207,13.65,-18.04,-29.21,50.97,-2.0,0.97
56686,52.389713,-1.439211,125,23.01,9.0,44.5,18 / 25,5668643,2019-08-31 11:24:48:722,-0.2036,-0.2319,10.6802,-0.0203,0.0095,9.8066,-0.0224,-0.0421,0.041,13.28,-17.67,-28.4,52.86,-1.96,0.85
56687,52.389713,-1.439211,125,23.01,9.0,44.5,18 / 25,5668741,2019-08-31 11:24:48:820,0.3723,-0.1675,10.3815,0.0104,-0.006,9.8066,0.0116,-0.0155,0.0069,13.28,-17.67,-28.4,52.86,-1.96,0.85
56688,52.389713,-1.439211,125,23.01,9.0,44.5,18 / 25,5668841,2019-08-31 11:24:48:920,0.1851,-0.2717,8.8704,0.0027,-0.0212,9.8066,0.0116,-0.0155,0.0069,13.65,-17.67,-29.21,51.05,-1.88,0.93
56689,52.389713,-1.439211,125,23.01,9.0,44.5,18 / 25,5668941,2019-08-31 11:24:49:020,-0.1138,0.3794,9.366,0.01,-0.0126,9.8066,0.0074,0.0292,0.0112,13.65,-17.67,-29.21,51.14,-1.86,1.03
56690,52.389866,-1.43898,125,22.94,10.0,44.2,18 / 25,5669042,2019-08-31 11:24:49:121,0.8196,0.0168,10.908,0.0211,0.012,9.8066,0.0159,0.0825,-0.0059,13.65,-18.04,-28.84,50.99,-2.05,1.07
56691,52.389866,-1.43898,125,22.94,10.0,44.2,18 / 25,5669140,2019-08-31 11:24:49:219,0.1751,-0.2275,11.9977,0.0396,-0.0329,9.8065,0.0084,-0.073,0.0229,13.65,-18.04,-28.84,50.99,-2.05,1.07
56692,52.389866,-1.43898,125,22.94,10.0,44.2,18 / 25,5669241,2019-08-31 11:24:49:320,0.7193,0.9302,9.1538,0.0108,0.0059,9.8066,0.0521,0.0793,-0.0112,13.65,-17.67,-28.84,51.22,-2.05,1.37
56693,52.389866,-1.43898,125,22.94,10.0,44.2,18 / 25,5669341,2019-08-31 11:24:49:420,-0.9809,0.2535,9.0957,0.0464,0.0265,9.8065,-0.0629,0.0591,0.0463,13.65,-18.04,-29.28,51.18,-2.12,1.39
56694,52.389866,-1.43898,125,22.94,10.0,44.2,18 / 25,5669441,2019-08-31 11:24:49:520,0.5055,-0.9687,9.3118,0.0184,0.018,9.8066,0.0276,0.0197,0.0303,13.65,-18.04,-28.78,51.06,-2.26,1.41
56695,52.389866,-1.43898,125,22.94,10.0,44.2,18 / 25,5669541,2019-08-31 11:24:49:620,-0.2544,-0.3701,10.6923,-0.0283,-0.0641,9.8064,0.0276,0.0197,0.0303,13.65,-18.04,-28.78,51.06,-2.26,1.41
56696,52.389866,-1.43898,125,22.94,10.0,44.2,18 / 25,5669640,2019-08-31 11:24:49:719,0.122,-0.3378,8.2022,-0.0447,-0.1138,9.8059,0.0447,0.0751,-0.0069,13.65,-18.04,-28.78,51.85,-1.58,1.63
56697,52.389866,-1.43898,125,22.94,10.0,44.2,18 / 25,5669741,2019-08-31 11:24:49:820,0.2206,0.5571,8.8662,0.0373,0.0463,9.8065,-0.0022,0.1049,-0.008,13.97,-18.35,-29.21,51.85,-1.58,1.63
56698,52.389866,-1.43898,125,22.94,10.0,44.2,18 / 25,5669842,2019-08-31 11:24:49:921,0.0124,0.4071,10.4937,0.0408,0.1031,9.806,-0.0235,0.0346,0.0058,13.65,-18.35,-29.59,51.11,-2.2,1.44
56699,52.389866,-1.43898,125,22.94,10.0,44.2,18 / 25,5669941,2019-08-31 11:24:50:020,0.0401,0.1374,10.1306,-0.0227,-0.01,9.8066,0.0511,-0.0485,0.0165,13.65,-18.35,-29.59,51.11,-2.2,1.44
56700,52.389866,-1.43898,125,22.94,10.0,44.2,18 / 25,5670041,2019-08-31 11:24:50:120,0.7764,0.4954,11.4914,0.0374,0.0406,9.8065,-0.0107,0.0942,0.0133,13.97,-17.67,-29.65,51.34,-2.0,1.5
56701,52.39001,-1.438741,126,22.76,10.0,43.9,18 / 25,5670141,2019-08-31 11:24:50:220,-0.2757,-0.0732,9.5841,-0.002,0.0492,9.8065,-0.0608,-0.0176,0.0367,13.65,-17.67,-28.84,51.09,-2.32,1.52
56702,52.39001,-1.438741,126,22.76,10.0,43.9,18 / 25,5670241,2019-08-31 11:24:50:320,-0.4209,-0.2764,8.5786,-0.0304,-0.0199,9.8066,-0.0086,-0.0507,0.0005,13.65,-18.04,-29.21,50.75,-2.54,1.33
56703,52.39001,-1.438741,126,22.76,10.0,43.9,18 / 25,5670340,2019-08-31 11:24:50:419,-0.2635,-0.1458,8.2617,-0.0699,-0.0626,9.8062,0.001,-0.0624,-0.0006,13.65,-18.04,-29.21,50.75,-2.54,1.33
56704,52.39001,-1.438741,126,22.76,10.0,43.9,18 / 25,5670443,2019-08-31 11:24:50:522,0.0391,-0.1193,8.1606,-0.002,0.0093,9.8066,0.001,-0.0624,-0.0006,13.97,-17.67,-29.21,51.17,-2.0,1.24
56705,52.39001,-1.438741,126,22.76,10.0,43.9,18 / 25,5670541,2019-08-31 11:24:50:620,0.1108,-0.0674,9.1716,-0.004,0.0391,9.8066,0.017,0.0495,-0.0101,13.97,-17.67,-28.78,51.17,-2.0,1.24
56706,52.39001,-1.438741,126,22.76,10.0,43.9,18 / 25,5670642,2019-08-31 11:24:50:721,-0.3071,-0.091,10.2574,-0.009,-0.0177,9.8066,0.0127,-0.0091,0.0048,13.65,-18.35,-29.21,50.9,-2.16,1.08
56707,52.39001,-1.438741,126,22.76,10.0,43.9,18 / 25,5670741,2019-08-31 11:24:50:820,0.1994,0.2116,9.8426,-0.0187,-0.0199,9.8066,0.0212,0.0783,-0.0133,13.65,-17.98,-28.78,51.04,-2.0,1.07
56708,52.39001,-1.438741,126,22.76,10.0,43.9,18 / 25,5670841,2019-08-31 11:24:50:920,-0.1227,0.2908,8.8929,0.0209,0.0402,9.8065,-0.0225,0.0165,0.0197,13.65,-17.98,-28.78,51.04,-2.0,1.07
56709,52.39001,-1.438741,126,22.76,10.0,43.9,18 / 25,5670941,2019-08-31 11:24:51:020,-0.499,0.0808,9.2867,0.0473,0.0702,9.8063,-0.0107,-0.0485,0.008,13.28,-17.98,-29.21,52.45,-2.5,1.03
56710,52.39001,-1.438741,126,22.76,10.0,43.9,18 / 25,5671042,2019-08-31 11:24:51:121,-0.2585,0.2434,8.6241,-0.0085,-0.022,9.8066,0.05,0.0367,-0.0165,13.65,-18.73,-28.78,52.03,-2.48,1.02
56711,52.39016,-1.438532,124,22.63,10.0,43.7,18 / 25,5671141,2019-08-31 11:24:51:220,0.0412,0.0811,10.2958,-0.01,-0.0422,9.8066,0.05,0.0367,-0.0165,13.65,-18.73,-28.78,52.03,-2.48,1.02
56712,52.39016,-1.438532,124,22.63,10.0,43.7,18 / 25,5671242,2019-08-31 11:24:51:321,0.3093,0.2306,10.262,0.0326,0.0027,9.8066,0.0319,0.0207,0.0026,13.65,-17.98,-28.78,50.85,-2.25,1.12
56713,52.39016,-1.438532,124,22.63,10.0,43.7,18 / 25,5671341,2019-08-31 11:24:51:420,0.502,-0.0339,12.1942,0.0274,-0.018,9.8066,0.0457,0.0058,0.0058,13.65,-18.35,-29.21,50.83,-2.38,1.26
56714,52.39016,-1.438532,124,22.63,10.0,43.7,18 / 25,5671441,2019-08-31 11:24:51:520,0.3466,0.1033,11.0447,0.0543,-0.0234,9.8065,0.0511,-0.0187,0.0048,13.28,-17.98,-28.78,52.89,-2.48,1.59
56715,52.39016,-1.438532,124,22.63,10.0,43.7,18 / 25,5671541,2019-08-31 11:24:51:620,-0.061,0.1514,9.9818,0.0241,0.0085,9.8066,0.002,0.0175,0.0058,13.28,-17.98,-28.78,52.89,-2.48,1.59
56716,52.39016,-1.438532,124,22.63,10.0,43.7,18 / 25,5671642,2019-08-31 11:24:51:721,0.0444,-0.0697,9.3359,-0.0136,0.0067,9.8066,-0.0406,-0.0581,0.0271,13.65,-17.67,-29.15,50.96,-2.6,1.67
56717,52.39016,-1.438532,124,22.63,10.0,43.7,18 / 25,5671741,2019-08-31 11:24:51:820,0.1728,-0.0326,9.0364,-0.0511,-0.0128,9.8065,-0.0267,-0.0389,0.0112,13.65,-18.35,-28.34,51.07,-2.36,1.49
56718,52.39016,-1.438532,124,22.63,10.0,43.7,18 / 25,5671841,2019-08-31 11:24:51:920,-0.3579,-0.3508,10.1247,-0.0321,-0.0119,9.8066,0.0116,-0.0123,0.0197,13.65,-18.35,-28.34,51.07,-2.36,1.49
56719,52.39016,-1.438532,124,22.63,10.0,43.7,18 / 25,5671941,2019-08-31 11:24:52:020,0.2675,0.1429,9.2956,-0.0295,-0.0023,9.8066,0.0116,-0.0123,0.0197,13.97,-17.98,-28.78,51.07,-2.36,1.49
56720,52.39016,-1.438532,124,22.63,10.0,43.7,18 / 25,5672040,2019-08-31 11:24:52:119,0.071,-0.2142,9.3914,0.0296,0.0021,9.8066,0.0191,0.0633,0.0101,13.65,-17.67,-29.15,50.93,-2.41,1.4
56721,52.390297,-1.438305,123,22.57,10.0,43.5,18 / 25,5672141,2019-08-31 11:24:52:220,0.4227,0.0855,9.3647,0.0175,-0.0145,9.8066,0.0287,-0.0038,-0.0091,13.65,-17.67,-29.15,50.93,-2.41,1.4
56722,52.390297,-1.438305,123,22.57,10.0,43.5,18 / 25,5672242,2019-08-31 11:24:52:321,-1.2304,0.0477,7.5543,0.0018,-0.0258,9.8066,0.0074,-0.1327,0.0037,13.28,-17.67,-29.15,52.92,-2.4,1.54
56723,52.390297,-1.438305,123,22.57,10.0,43.5,18 / 25,5672341,2019-08-31 11:24:52:420,-0.9312,-0.3971,7.6987,0.0043,-0.0062,9.8066,0.0084,0.1187,0.0346,13.65,-17.29,-29.15,49.67,-2.29,1.64
56724,52.390297,-1.438305,123,22.57,10.0,43.5,18 / 25,5672441,2019-08-31 11:24:52:520,0.4783,-0.0656,11.0316,0.0158,-0.0266,9.8066,-0.0075,0.0836,0.0207,13.65,-17.29,-29.15,49.67,-2.29,1.64
56725,52.390297,-1.438305,123,22.57,10.0,43.5,18 / 25,5672542,2019-08-31 11:24:52:621,0.187,0.1297,9.0806,-0.0085,-0.006,9.8066,-0.0406,-0.0496,0.0186,13.97,-17.67,-28.34,51.42,-2.23,1.81
56726,52.390297,-1.438305,123,22.57,10.0,43.5,18 / 25,5672641,2019-08-31 11:24:52:720,0.2831,-0.0073,9.8553,-0.0142,0.0114,9.8066,-0.0384,0.0271,0.0058,13.97,-17.98,-29.15,51.31,-2.23,1.7
56727,52.390297,-1.438305,123,22.57,10.0,43.5,18 / 25,5672741,2019-08-31 11:24:52:820,0.6335,0.4875,9.4894,0.0019,0.0322,9.8066,0.001,0.0133,0.0293,13.97,-17.98,-29.15,51.31,-2.23,1.7
56728,52.390297,-1.438305,123,22.57,10.0,43.5,18 / 25,5672841,2019-08-31 11:24:52:920,-0.2387,-0.0104,8.2586,0.0149,0.0524,9.8065,0.001,0.0133,0.0293,13.28,-18.35,-28.78,52.84,-2.53,1.58
56729,52.390297,-1.438305,123,22.57,10.0,43.5,18 / 25,5672941,2019-08-31 11:24:53:020,-0.0301,0.1826,9.3049,-0.0092,-0.0203,9.8066,0.0106,-0.0144,0.0239,13.65,-17.98,-29.15,51.03,-2.45,1.58
56730,52.390472,-1.438086,124,22.36,10.0,43.2,18 / 25,5673042,2019-08-31 11:24:53:121,-0.5919,-0.2078,8.9892,-0.008,-0.0155,9.8066,-0.0267,-0.0475,0.0154,13.97,-18.35,-29.15,51.17,-2.32,1.62
56731,52.390472,-1.438086,124,22.36,10.0,43.2,18 / 25,5673141,2019-08-31 11:24:53:220,0.0455,0.1552,11.3269,0.0015,-0.0016,9.8067,0.018,-0.0304,0.0026,13.97,-18.35,-29.15,51.17,-2.32,1.62
56732,52.390472,-1.438086,124,22.36,10.0,43.2,18 / 25,5673241,2019-08-31 11:24:53:320,-0.575,-0.0594,9.4636,-0.0057,0.0187,9.8066,0.001,0.025,-0.0006,13.65,-17.98,-29.15,51.18,-2.32,1.63
56733,52.390472,-1.438086,124,22.36,10.0,43.2,18 / 25,5673341,2019-08-31 11:24:53:420,-0.383,0.1387,9.5639,-0.0105,0.0323,9.8066,-0.0235,0.0154,0.0005,13.97,-17.98,-29.15,51.18,-2.32,1.63
56734,52.390472,-1.438086,124,22.36,10.0,43.2,18 / 25,5673442,2019-08-31 11:24:53:521,-0.3333,0.0564,9.5847,-0.0033,0.0065,9.8066,-0.0203,0.0079,0.0293,13.97,-18.35,-28.34,50.99,-2.43,1.46
56735,52.390472,-1.438086,124,22.36,10.0,43.2,18 / 25,5673542,2019-08-31 11:24:53:621,-0.5712,-0.0878,9.1062,0.0074,0.0104,9.8066,0.0276,0.041,0.0165,14.03,-18.35,-29.15,50.88,-2.5,1.46
56736,52.390472,-1.438086,124,22.36,10.0,43.2,18 / 25,5673642,2019-08-31 11:24:53:721,0.0261,0.3227,8.9881,0.0377,0.0199,9.8066,0.0138,0.0559,0.0005,14.03,-18.35,-29.15,50.88,-2.5,1.46
56737,52.390472,-1.438086,124,22.36,10.0,43.2,18 / 25,5673742,2019-08-31 11:24:53:821,-0.0635,-0.2063,7.8538,0.0561,0.0222,9.8065,0.0138,0.0559,0.0005,13.97,-17.98,-28.78,50.74,-2.81,1.63
56738,52.390472,-1.438086,124,22.36,10.0,43.2,18 / 25,5673842,2019-08-31 11:24:53:921,-0.5026,-0.0032,8.8866,-0.0235,-0.0002,9.8066,-0.0374,-0.0336,0.0122,13.97,-17.98,-28.78,50.74,-2.81,1.63
56739,52.390472,-1.438086,124,22.36,10.0,43.2,18 / 25,5673941,2019-08-31 11:24:54:020,0.2274,0.518,9.8085,-0.0161,-0.002,9.8066,-0.0235,-0.0304,0.0058,14.03,-18.35,-28.71,50.74,-2.72,1.52
56740,52.390472,-1.438086,124,22.36,10.0,43.2,16 / 25,5674043,2019-08-31 11:24:54:122,-0.3025,0.2248,10.2185,-0.0155,0.0066,9.8066,-0.0288,0.0346,0.0218,14.03,-18.35,-29.15,50.75,-2.65,1.46
56741,52.39062,-1.437862,124,22.35,10.0,42.9,16 / 25,5674141,2019-08-31 11:24:54:220,0.2826,0.2407,10.4559,-0.0111,0.026,9.8066,-0.0363,0.0314,0.0293,13.65,-18.35,-29.15,50.75,-2.65,1.46
56742,52.39062,-1.437862,124,22.35,10.0,42.9,16 / 25,5674241,2019-08-31 11:24:54:320,-0.2586,0.2902,10.4943,-0.0031,0.0476,9.8065,0.0266,0.0623,0.0005,13.65,-18.73,-28.71,51.88,-2.86,1.27
56743,52.39062,-1.437862,124,22.35,10.0,42.9,16 / 25,5674341,2019-08-31 11:24:54:420,0.2626,0.0901,11.7688,0.017,0.0035,9.8066,0.0319,-0.0091,0.0037,13.65,-18.73,-28.71,51.88,-2.86,1.27
56744,52.39062,-1.437862,124,22.35,10.0,42.9,16 / 25,5674442,2019-08-31 11:24:54:521,0.4919,0.3939,9.4833,0.0082,0.0014,9.8066,0.0319,-0.0091,0.0037,13.28,-17.98,-28.71,52.27,-2.94,1.33
56745,52.39062,-1.437862,124,22.35,10.0,42.9,16 / 25,5674542,2019-08-31 11:24:54:621,0.3539,-0.0037,10.1973,0.0131,-0.0057,9.8066,-0.0182,0.0122,0.0197,13.65,-18.35,-28.71,50.45,-2.96,1.42
56746,52.39062,-1.437862,124,22.35,10.0,42.9,16 / 25,5674641,2019-08-31 11:24:54:720,-0.6103,-0.3645,10.3486,0.0162,0.0146,9.8066,0.0138,0.0527,0.0144,13.65,-18.35,-29.15,50.45,-2.96,1.42
56747,52.39062,-1.437862,124,22.35,10.0,42.9,16 / 25,5674741,2019-08-31 11:24:54:820,0.3858,0.2407,10.2827,0.0199,0.0093,9.8066,0.001,-0.0581,0.0303,13.65,-17.98,-29.59,50.21,-3.14,1.4
56748,52.39062,-1.437862,124,22.35,10.0,42.9,16 / 25,5674842,2019-08-31 11:24:54:921,-0.0577,0.3241,10.2854,0.0208,-0.0095,9.8066,-0.0011,-0.0475,0.0154,13.65,-17.98,-29.59,50.21,-3.14,1.4
56749,52.39062,-1.437862,124,22.35,10.0,42.9,16 / 25,5674941,2019-08-31 11:24:55:020,0.0736,0.0568,10.3863,-0.01,-0.0226,9.8066,-0.0001,-0.0453,-0.0133,13.65,-18.35,-28.71,50.34,-3.17,1.53
56750,52.39062,-1.437862,124,22.35,10.0,42.9,16 / 25,5675041,2019-08-31 11:24:55:120,0.0729,-0.0246,10.9885,-0.0273,-0.0266,9.8066,-0.0118,0.0197,-0.0027,13.65,-17.98,-28.71,50.34,-3.17,1.53
56751,52.390762,-1.437642,124,22.26,10.0,42.8,16 / 25,5675142,2019-08-31 11:24:55:221,0.2796,0.3659,9.9779,-0.0562,-0.0119,9.8065,-0.0278,0.0644,0.0218,14.03,-17.98,-28.71,50.41,-2.91,1.32
56752,52.390762,-1.437642,124,22.26,10.0,42.8,16 / 25,5675241,2019-08-31 11:24:55:320,0.3562,0.2883,9.3942,-0.0008,0.0324,9.8066,-0.0278,0.0644,0.0218,14.03,-17.98,-28.71,50.41,-2.91,1.32
56753,52.390762,-1.437642,124,22.26,10.0,42.8,16 / 25,5675341,2019-08-31 11:24:55:420,-0.3561,-0.1246,10.061,-0.0004,0.0382,9.8066,-0.0075,0.0825,-0.0027,14.03,-17.98,-28.71,50.19,-3.05,1.19
56754,52.390762,-1.437642,124,22.26,10.0,42.8,16 / 25,5675442,2019-08-31 11:24:55:521,0.4128,0.2787,9.6752,-0.0129,0.0463,9.8065,0.002,0.0282,-0.0155,14.03,-17.98,-29.15,50.19,-3.05,1.19
56755,52.390762,-1.437642,124,22.26,10.0,42.8,16 / 25,5675542,2019-08-31 11:24:55:621,-0.9231,-0.1301,9.5226,-0.028,0.0736,9.8063,-0.0182,-0.0283,-0.0133,14.03,-17.98,-29.09,49.67,-3.28,0.79
56756,52.390762,-1.437642,124,22.26,10.0,42.8,16 / 25,5675642,2019-08-31 11:24:55:721,0.0569,0.4331,10.5913,-0.0169,0.014,9.8066,0.0329,0.0452,-0.0091,14.03,-18.35,-29.15,49.57,-3.28,0.66
56757,52.390762,-1.437642,124,22.26,10.0,42.8,16 / 25,5675743,2019-08-31 11:24:55:822,-0.3211,-0.262,8.7868,-0.0268,-0.0003,9.8066,0.0063,-0.0826,0.0293,14.03,-18.35,-29.15,49.57,-3.28,0.66
56758,52.390762,-1.437642,124,22.26,10.0,42.8,16 / 25,5675842,2019-08-31 11:24:55:921,-0.7505,0.1947,8.759,-0.0078,0.001,9.8066,-0.0065,-0.0112,0.0176,14.03,-18.35,-29.09,49.56,-3.17,0.55
56759,52.390762,-1.437642,124,22.26,10.0,42.8,16 / 25,5675942,2019-08-31 11:24:56:021,0.4073,0.1741,9.1578,-0.0001,-0.0058,9.8066,-0.0139,-0.0634,0.0048,14.03,-18.35,-29.09,49.55,-3.15,0.51
56760,52.390762,-1.437642,124,22.26,10.0,42.8,16 / 25,5676041,2019-08-31 11:24:56:120,0.3339,-0.1783,9.8779,-0.0007,-0.0189,9.8066,0.0031,0.026,0.0176,13.65,-17.98,-29.15,49.68,-3.06,0.58
56761,52.390907,-1.437415,123,22.33,11.0,42.4,16 / 25,5676141,2019-08-31 11:24:56:220,0.2748,-0.2925,9.3352,-0.0009,-0.0252,9.8066,0.0031,0.026,0.0176,13.65,-17.98,-29.15,49.68,-3.06,0.58
56762,52.390907,-1.437415,123,22.33,11.0,42.4,16 / 25,5676242,2019-08-31 11:24:56:321,0.6627,-0.1808,10.6144,0.0189,-0.03,9.8066,0.002,-0.0357,0.0186,14.03,-18.35,-28.34,49.68,-3.06,0.58
56763,52.390907,-1.437415,123,22.33,11.0,42.4,16 / 25,5676341,2019-08-31 11:24:56:420,0.3236,-0.0687,11.0327,0.0213,-0.0033,9.8066,0.0138,0.0527,0.0154,13.65,-18.35,-29.09,49.9,-3.0,0.77
56764,52.390907,-1.437415,123,22.33,11.0,42.4,16 / 25,5676442,2019-08-31 11:24:56:521,0.1424,-0.0753,9.9468,0.0392,-0.0142,9.8066,-0.0011,-0.0059,-0.0027,12.9,-19.1,-28.65,53.33,-3.08,1.0
56765,52.390907,-1.437415,123,22.33,11.0,42.4,16 / 25,5676541,2019-08-31 11:24:56:620,-0.5123,-0.5187,8.6195,0.0017,-0.0157,9.8066,-0.0257,0.0516,0.0154,12.9,-19.1,-28.28,53.51,-3.02,1.07
56766,52.390907,-1.437415,123,22.33,11.0,42.4,16 / 25,5676642,2019-08-31 11:24:56:721,0.3264,-0.2752,8.7492,-0.0109,0.0034,9.8066,0.0532,0.0548,-0.0219,12.9,-19.1,-28.28,53.51,-3.02,1.07
56767,52.390907,-1.437415,123,22.33,11.0,42.4,16 / 25,5676742,2019-08-31 11:24:56:821,0.5354,0.0279,9.2181,-0.0082,-0.0227,9.8066,-0.0011,-0.0656,0.0048,13.28,-18.73,-28.28,53.48,-3.0,1.0
56768,52.390907,-1.437415,123,22.33,11.0,42.4,16 / 25,5676841,2019-08-31 11:24:56:920,0.0286,-0.2059,8.1763,0.0026,-0.0059,9.8066,0.001,0.0367,0.008,13.28,-17.98,-28.71,52.23,-2.76,1.08
56769,52.390907,-1.437415,123,22.33,11.0,42.4,16 / 25,5676941,2019-08-31 11:24:57:020,-0.2401,-0.4452,7.4461,0.0071,0.0055,9.8066,0.001,0.0367,0.008,13.28,-18.35,-29.15,52.23,-2.76,1.08
56770,52.391056,-1.437195,122,22.32,11.0,42.4,16 / 25,5677047,2019-08-31 11:24:57:126,-0.6562,-0.5963,11.1085,0.0054,-0.0079,9.8066,0.0404,0.0569,-0.0165,13.28,-17.6,-28.65,52.19,-2.82,1.09
56771,52.391056,-1.437195,122,22.32,11.0,42.4,16 / 25,5677141,2019-08-31 11:24:57:220,-0.849,0.2169,10.9602,0.0259,0.0047,9.8066,-0.0597,-0.1103,0.0506,13.28,-17.6,-28.65,52.19,-2.82,1.09
56772,52.391056,-1.437195,122,22.32,11.0,42.4,16 / 25,5677241,2019-08-31 11:24:57:320,-0.3871,-0.3271,7.7968,0.0191,-0.005,9.8066,0.0148,-0.0049,0.0037,13.28,-17.6,-28.71,52.16,-2.93,1.19
56773,52.391056,-1.437195,122,22.32,11.0,42.4,16 / 25,5677341,2019-08-31 11:24:57:420,-0.6242,0.0931,7.7078,0.019,-0.0123,9.8066,0.0276,0.0079,-0.0101,13.28,-17.23,-29.09,50.72,-2.94,1.32
56774,52.391056,-1.437195,122,22.32,11.0,42.4,16 / 25,5677441,2019-08-31 11:24:57:520,-0.2552,-0.3933,8.8477,-0.006,-0.0096,9.8066,-0.0033,0.025,0.0133,13.65,-17.98,-29.53,50.72,-2.94,1.32
56775,52.391056,-1.437195,122,22.32,11.0,42.4,16 / 25,5677541,2019-08-31 11:24:57:620,-0.1563,-0.4837,8.7812,-0.0186,-0.0205,9.8066,-0.0107,0.0175,0.0144,14.03,-17.6,-29.09,50.52,-2.78,1.32
56776,52.391056,-1.437195,122,22.32,11.0,42.4,16 / 25,5677641,2019-08-31 11:24:57:720,0.2486,-0.0817,11.0415,-0.0159,-0.024,9.8066,0.0138,-0.0134,0.0069,14.03,-17.6,-29.09,50.52,-2.78,1.32
56777,52.391056,-1.437195,122,22.32,11.0,42.4,16 / 25,5677741,2019-08-31 11:24:57:820,-0.4599,-0.2959,10.0341,-0.0108,-0.0202,9.8066,0.0138,-0.0134,0.0069,13.65,-17.6,-28.65,50.66,-2.65,1.34
56778,52.391056,-1.437195,122,22.32,11.0,42.4,16 / 25,5677840,2019-08-31 11:24:57:919,0.4029,-0.0749,9.7103,0.0476,0.0142,9.8065,0.0031,0.026,0.0048,13.65,-17.6,-29.15,50.66,-2.65,1.34
56779,52.391056,-1.437195,122,22.32,11.0,42.4,16 / 25,5677941,2019-08-31 11:24:58:020,0.7248,0.538,10.403,0.0134,0.028,9.8066,-0.0054,-0.0049,0.0197,14.03,-17.23,-29.09,49.02,-2.89,1.5
56780,52.39123,-1.436976,123,22.59,11.0,41.2,16 / 25,5678042,2019-08-31 11:24:58:121,-0.8436,0.0233,9.677,0.0278,0.0578,9.8064,-0.0182,-0.0038,0.0239,13.65,-17.23,-29.09,48.62,-3.25,1.41
56781,52.39123,-1.436976,123,22.59,11.0,41.2,16 / 25,5678141,2019-08-31 11:24:58:220,0.2033,0.2303,10.4132,-0.0223,-0.003,9.8066,0.0319,0.0782,-0.0133,13.65,-17.23,-29.09,48.62,-3.25,1.41
56782,52.39123,-1.436976,123,22.59,11.0,41.2,16 / 25,5678240,2019-08-31 11:24:58:319,-0.5712,0.1489,8.1394,-0.0412,-0.0143,9.8066,0.0159,-0.0571,0.0037,13.65,-16.54,-29.53,48.62,-3.25,1.41
56783,52.39123,-1.436976,123,22.59,11.0,41.2,16 / 25,5678341,2019-08-31 11:24:58:420,-0.9146,-0.1588,8.9466,-0.0084,0.0137,9.8066,-0.015,0.0047,0.008,13.65,-17.23,-29.53,48.65,-3.03,1.28
56784,52.39123,-1.436976,123,22.59,11.0,41.2,16 / 25,5678442,2019-08-31 11:24:58:521,0.3252,0.2645,9.2776,-0.018,0.0338,9.8066,0.0233,0.0111,0.0058,13.65,-17.23,-28.71,48.65,-3.03,1.28
56785,52.39123,-1.436976,123,22.59,11.0,41.2,16 / 25,5678541,2019-08-31 11:24:58:620,-0.4189,0.1969,8.6794,-0.0124,0.0365,9.8066,-0.0171,0.0196,0.0176,13.65,-17.23,-28.71,48.65,-3.03,1.28
56786,52.39123,-1.436976,123,22.59,11.0,41.2,16 / 25,5678641,2019-08-31 11:24:58:720,0.0196,0.0912,9.2108,0.0181,0.0195,9.8066,-0.0171,0.0196,0.0176,13.28,-17.29,-29.15,50.33,-3.14,1.08
56787,52.39123,-1.436976,123,22.59,11.0,41.2,16 / 25,5678741,2019-08-31 11:24:58:820,-0.0771,-0.2074,8.4328,0.0085,0.0158,9.8066,-0.0022,0.0655,0.0101,13.65,-17.29,-29.96,48.25,-3.3,1.09
56788,52.39123,-1.436976,123,22.59,11.0,41.2,16 / 25,5678841,2019-08-31 11:24:58:920,-0.0582,-0.0243,8.5917,0.0121,0.0187,9.8066,-0.0001,0.0346,0.025,14.03,-17.23,-29.09,48.19,-3.43,1.07
56789,52.39123,-1.436976,123,22.59,11.0,41.2,16 / 25,5678940,2019-08-31 11:24:59:019,-0.0353,-0.1563,9.7921,0.0091,-0.0137,9.8066,0.0106,-0.008,0.0133,13.65,-17.23,-29.9,48.21,-3.4,1.17
56790,52.391365,-1.436768,122,22.28,11.0,41.5,16 / 25,5679040,2019-08-31 11:24:59:119,0.1389,-0.1401,9.1318,-0.0057,-0.0166,9.8066,0.001,0.0218,-0.0176,13.65,-17.23,-29.9,48.21,-3.4,1.17
56791,52.391365,-1.436768,122,22.28,11.0,41.5,18 / 25,5679141,2019-08-31 11:24:59:220,-0.5105,0.0171,8.103,0.0283,0.0165,9.8066,0.0191,0.0015,-0.008,14.03,-17.23,-29.53,48.34,-3.31,1.21
56792,52.391365,-1.436768,122,22.28,11.0,41.5,18 / 25,5679241,2019-08-31 11:24:59:320,-0.0387,0.0733,8.7757,0.0024,0.0152,9.8066,-0.0278,-0.0283,0.0122,13.65,-17.23,-29.09,48.3,-3.49,1.27
56793,52.391365,-1.436768,122,22.28,11.0,41.5,18 / 25,5679341,2019-08-31 11:24:59:420,-0.4972,0.0377,9.4956,0.017,0.0367,9.8066,-0.0225,-0.0581,0.0112,13.65,-17.6,-29.53,49.53,-3.71,1.2
56794,52.391365,-1.436768,122,22.28,11.0,41.5,18 / 25,5679442,2019-08-31 11:24:59:521,0.327,0.2428,8.9801,-0.0147,-0.006,9.8066,-0.0374,0.0165,0.0271,13.65,-17.6,-29.53,49.53,-3.71,1.2
56795,52.391365,-1.436768,122,22.28,11.0,41.5,18 / 25,5679542,2019-08-31 11:24:59:621,0.6923,0.4867,8.9727,0.0117,0.0073,9.8066,-0.0374,0.0165,0.0271,14.03,-17.23,-28.71,48.08,-3.63,1.15
56796,52.391365,-1.436768,122,22.28,11.0,41.5,18 / 25,5679641,2019-08-31 11:24:59:720,-0.2415,0.0519,9.8284,0.0142,-0.0036,9.8066,0.0191,-0.0645,0.0335,14.03,-16.54,-29.09,48.11,-3.67,1.23
56797,52.391365,-1.436768,122,22.28,11.0,41.5,18 / 25,5679741,2019-08-31 11:24:59:820,0.6061,0.2479,8.9557,-0.0185,-0.0166,9.8066,0.0361,0.0623,-0.007,14.03,-17.23,-29.09,48.22,-3.53,1.21
56798,52.391365,-1.436768,122,22.28,11.0,41.5,18 / 25,5679842,2019-08-31 11:24:59:921,-0.2462,-0.2336,9.8799,0.0182,-0.0106,9.8066,0.0106,-0.0326,0.0005,14.03,-17.23,-29.09,48.22,-3.53,1.21
56799,52.391365,-1.436768,122,22.28,11.0,41.5,18 / 25,5679942,2019-08-31 11:25:00:021,-0.42,-0.0959,9.7611,0.01,-0.0182,9.8066,0.0095,-0.0112,-0.0112,14.03,-17.23,-29.09,48.35,-3.49,1.33
56800,52.391365,-1.436768,122,22.28,11.0,41.5,18 / 25,5680041,2019-08-31 11:25:00:120,0.1536,-0.0879,9.3934,-0.0018,0.0039,9.8067,-0.0257,-0.0304,0.0602,14.03,-16.92,-29.53,48.35,-3.49,1.33
56801,52.39152,-1.436561,122,22.58,10.0,40.9,18 / 25,5680141,2019-08-31 11:25:00:220,1.3065,0.1882,9.4837,0.0004,0.0176,9.8066,0.0233,0.0633,0.0005,14.03,-16.92,-29.53,48.35,-3.49,1.33
56802,52.39152,-1.436561,122,22.58,10.0,40.9,18 / 25,5680241,2019-08-31 11:25:00:320,0.1092,0.0587,9.1176,0.0109,0.0161,9.8066,0.0233,0.0633,0.0005,14.03,-16.85,-29.09,48.23,-3.57,1.26
56803,52.39152,-1.436561,122,22.58,10.0,40.9,18 / 25,5680342,2019-08-31 11:25:00:421,-0.5221,-0.0055,8.8258,0.0177,0.0298,9.8066,-0.0139,0.0239,0.0048,14.03,-17.29,-29.53,48.23,-3.57,1.26
56804,52.39152,-1.436561,122,22.58,10.0,40.9,18 / 25,5680441,2019-08-31 11:25:00:520,0.3829,-0.317,7.9077,0.0052,-0.0136,9.8066,0.0244,0.0495,0.0175,14.03,-17.23,-29.09,48.02,-3.76,1.22
56805,52.39152,-1.436561,122,22.58,10.0,40.9,18 / 25,5680541,2019-08-31 11:25:00:620,-0.1581,-0.1073,8.8366,0.0124,-0.0061,9.8066,0.0862,0.1081,-0.0016,14.03,-17.23,-28.65,48.12,-3.73,1.3
56806,52.39152,-1.436561,122,22.58,10.0,40.9,18 / 25,5680641,2019-08-31 11:25:00:720,0.7266,0.0835,7.0322,0.0488,-0.0089,9.8065,0.0329,0.0814,-0.0016,14.03,-17.6,-28.65,48.12,-3.73,1.3
56807,52.39152,-1.436561,122,22.58,10.0,40.9,18 / 25,5680741,2019-08-31 11:25:00:820,1.1937,-0.2939,9.9368,0.0611,-0.0205,9.8064,0.0319,-0.0997,0.0548,14.03,-17.6,-28.65,48.12,-3.73,1.3
56808,52.39152,-1.436561,122,22.58,10.0,40.9,18 / 25,5680841,2019-08-31 11:25:00:920,-0.5162,-0.2266,9.8568,0.0107,-0.0414,9.8066,-0.0001,0.09,0.0175,14.03,-17.23,-29.09,48.28,-3.88,1.65
56809,52.39152,-1.436561,122,22.58,10.0,40.9,18 / 25,5680942,2019-08-31 11:25:01:021,-0.8885,0.0159,7.7326,0.0334,-0.0571,9.8064,0.0873,-0.1114,0.0325,14.03,-17.23,-28.71,48.28,-3.88,1.65
56810,52.39169,-1.436368,120,22.57,10.0,40.6,18 / 25,5681041,2019-08-31 11:25:01:120,0.3927,0.4707,6.1089,0.016,-0.0336,9.8066,0.0873,-0.1114,0.0325,14.03,-16.85,-28.65,48.69,-3.76,2.01
56811,52.39169,-1.436368,120,22.57,10.0,40.6,18 / 25,5681142,2019-08-31 11:25:01:221,-1.1226,-0.2725,11.5742,0.0489,-0.0363,9.8065,0.0052,0.1752,0.0463,14.03,-16.85,-28.28,49.0,-3.79,2.37
56812,52.39169,-1.436368,120,22.57,10.0,40.6,18 / 25,5681241,2019-08-31 11:25:01:320,-0.1914,-0.7272,7.6775,0.0037,0.0227,9.8066,0.0138,-0.0304,-0.0091,14.03,-16.85,-28.28,49.0,-3.79,2.37
56813,52.39169,-1.436368,120,22.57,10.0,40.6,18 / 25,5681341,2019-08-31 11:25:01:420,-1.3375,-0.1762,7.2323,-0.023,0.0433,9.8065,-0.0384,-0.024,0.0069,13.65,-17.23,-28.65,48.79,-3.9,2.3
56814,52.39169,-1.436368,120,22.57,10.0,40.6,18 / 25,5681440,2019-08-31 11:25:01:519,1.4072,0.4979,11.1787,-0.0284,0.0355,9.8065,-0.0129,-0.1274,0.0325,13.28,-16.54,-29.09,50.37,-3.95,2.04
56815,52.39169,-1.436368,120,22.57,10.0,40.6,18 / 25,5681542,2019-08-31 11:25:01:621,-0.4832,0.4506,8.413,-0.0377,-0.0017,9.8066,-0.0384,-0.0112,0.0154,13.28,-16.54,-29.09,50.37,-3.95,2.04
56816,52.39169,-1.436368,120,22.57,10.0,40.6,18 / 25,5681642,2019-08-31 11:25:01:721,-0.6807,-0.4316,9.8098,-0.034,-0.0479,9.8065,-0.031,-0.0773,0.0271,14.34,-16.85,-28.65,48.53,-3.8,1.87
56817,52.39169,-1.436368,120,22.57,10.0,40.6,18 / 25,5681744,2019-08-31 11:25:01:823,-0.284,-0.0827,8.7059,-0.0414,-0.0526,9.8064,-0.031,-0.0773,0.0271,14.34,-16.85,-28.65,48.53,-3.8,1.87
56818,52.39169,-1.436368,120,22.57,10.0,40.6,18 / 25,5681840,2019-08-31 11:25:01:919,-0.0839,-0.0773,9.8642,0.0144,0.0132,9.8066,-0.0054,0.0718,0.0218,14.2,-16.41,-28.0,47.31,-3.41,1.9
56819,52.39169,-1.436368,120,22.57,10.0,40.6,18 / 25,5681941,2019-08-31 11:25:02:020,0.3506,-0.0378,10.883,0.0051,0.0117,9.8066,0.0212,0.0111,-0.0048,14.2,-16.41,-28.82,47.17,-3.48,1.87
56820,52.39169,-1.436368,120,22.57,10.0,40.6,18 / 25,5682041,2019-08-31 11:25:02:120,-0.244,0.0594,9.1236,0.0074,-0.0094,9.8066,0.0308,0.0367,0.0048,13.89,-16.03,-28.38,47.17,-3.48,1.87
56821,52.391857,-1.43616,119,22.67,10.0,40.1,18 / 25,5682141,2019-08-31 11:25:02:220,-0.2514,-0.1622,10.0473,0.0028,-0.0177,9.8066,-0.0214,-0.0081,0.0175,13.89,-16.41,-29.19,47.38,-3.45,2.08
56822,52.391857,-1.43616,119,22.67,10.0,40.1,18 / 25,5682241,2019-08-31 11:25:02:320,-0.0082,-0.0239,8.4383,-0.0219,-0.0407,9.8065,-0.0299,-0.0283,0.025,13.89,-16.41,-29.19,47.38,-3.45,2.08
56823,52.391857,-1.43616,119,22.67,10.0,40.1,18 / 25,5682342,2019-08-31 11:25:02:421,-0.1537,-0.1572,9.0688,-0.0317,-0.0425,9.8065,0.0063,-0.0624,0.0058,13.89,-16.41,-28.44,47.71,-3.19,2.15
56824,52.391857,-1.43616,119,22.67,10.0,40.1,18 / 25,5682442,2019-08-31 11:25:02:521,0.0702,0.0622,9.6627,-0.0246,-0.0234,9.8066,0.0319,0.0346,0.0154,14.2,-16.41,-28.82,47.97,-2.88,2.18
56825,52.391857,-1.43616,119,22.67,10.0,40.1,18 / 25,5682541,2019-08-31 11:25:02:620,0.2269,-0.313,10.8747,-0.0094,-0.0451,9.8065,0.0319,0.0346,0.0154,14.2,-16.41,-28.82,47.97,-2.88,2.18
56826,52.391857,-1.43616,119,22.67,10.0,40.1,18 / 25,5682641,2019-08-31 11:25:02:720,-0.3213,-0.3658,10.4106,0.0063,0.0025,9.8066,-0.032,-0.0283,0.025,14.2,-16.72,-28.82,49.9,-2.65,2.32
56827,52.391857,-1.43616,119,22.67,10.0,40.1,18 / 25,5682740,2019-08-31 11:25:02:819,-0.8189,-0.3038,9.5272,-0.0005,0.0295,9.8066,-0.0906,0.0037,0.0207,13.51,-16.72,-28.82,49.69,-2.78,2.2
56828,52.391857,-1.43616,119,22.67,10.0,40.1,18 / 25,5682840,2019-08-31 11:25:02:919,-0.6737,-0.0479,10.4886,0.0035,0.056,9.8065,-0.0416,0.0218,0.0538,13.51,-16.72,-28.82,49.69,-2.78,2.2
56829,52.391857,-1.43616,119,22.67,10.0,40.1,18 / 25,5682941,2019-08-31 11:25:03:020,-0.2852,0.26,10.1674,0.001,0.0601,9.8065,-0.0097,0.0516,0.009,13.89,-16.72,-28.38,49.34,-3.04,2.01
56830,52.391975,-1.435935,118,22.48,10.0,39.8,14 / 25,5683041,2019-08-31 11:25:03:120,0.2784,0.359,9.3843,-0.0309,-0.078,9.8063,-0.0001,0.0612,0.0207,14.2,-16.41,-28.82,47.24,-3.31,1.78
56831,52.391975,-1.435935,118,22.48,10.0,39.8,14 / 25,5683141,2019-08-31 11:25:03:220,0.2944,-0.305,10.1422,0.0121,-0.0313,9.8066,0.0138,0.0644,-0.0027,14.2,-16.41,-28.82,47.8,-2.85,1.96
56832,52.391975,-1.435935,118,22.48,10.0,39.8,14 / 25,5683241,2019-08-31 11:25:03:320,-0.8094,0.0594,8.6119,-0.0072,-0.0156,9.8066,0.0255,0.0079,-0.007,14.2,-16.41,-28.82,47.8,-2.85,1.96
56833,52.391975,-1.435935,118,22.48,10.0,39.8,14 / 25,5683341,2019-08-31 11:25:03:420,-0.8749,0.1636,10.0272,-0.0246,-0.0327,9.8066,0.0255,-0.0272,0.009,13.89,-16.41,-29.25,47.91,-2.76,1.99
56834,52.391975,-1.435935,118,22.48,10.0,39.8,14 / 25,5683441,2019-08-31 11:25:03:520,-0.1688,-0.4506,9.5699,-0.0494,-0.0891,9.8061,0.0255,-0.0272,0.009,14.2,-16.78,-28.88,47.91,-2.76,1.99
56835,52.391975,-1.435935,118,22.48,10.0,39.8,14 / 25,5683542,2019-08-31 11:25:03:621,-0.3327,-0.2393,9.8067,-0.0381,-0.0811,9.8062,-0.0257,0.0516,0.0282,14.95,-16.41,-28.82,46.67,-2.26,2.14
56836,52.391975,-1.435935,118,22.48,10.0,39.8,14 / 25,5683641,2019-08-31 11:25:03:720,-0.246,0.0702,9.4389,0.0161,0.0533,9.8065,-0.048,0.0623,0.0218,14.95,-16.41,-28.82,46.67,-2.26,2.14
56837,52.391975,-1.435935,118,22.48,10.0,39.8,14 / 25,5683742,2019-08-31 11:25:03:821,-0.2777,0.0245,9.3548,0.0337,0.0969,9.8061,0.002,0.042,0.0005,13.89,-16.41,-28.88,47.79,-2.8,1.9
56838,52.391975,-1.435935,118,22.48,10.0,39.8,14 / 25,5683842,2019-08-31 11:25:03:921,0.4482,0.4438,9.3671,0.001,0.0258,9.8066,-0.0129,0.0399,0.009,13.89,-17.09,-29.25,49.24,-2.92,1.8
56839,52.391975,-1.435935,118,22.48,10.0,39.8,14 / 25,5683941,2019-08-31 11:25:04:020,-0.4719,0.1492,10.3807,-0.0209,0.0212,9.8066,0.0095,0.0729,0.0005,13.51,-16.78,-28.0,49.24,-2.92,1.8
56840,52.392136,-1.435714,118,22.52,10.0,39.1,14 / 25,5684042,2019-08-31 11:25:04:121,-0.0224,0.4235,9.1885,-0.0551,-0.0086,9.8065,0.0265,-0.0624,-0.0133,13.51,-16.78,-28.0,49.24,-2.92,1.8
56841,52.392136,-1.435714,118,22.52,10.0,39.1,14 / 25,5684140,2019-08-31 11:25:04:219,-0.6453,-0.0115,9.7547,-0.044,-0.0355,9.8065,0.0265,-0.0624,-0.0133,14.2,-16.41,-28.38,47.68,-2.67,1.59
56842,52.392136,-1.435714,118,22.52,10.0,39.1,14 / 25,5684241,2019-08-31 11:25:04:320,0.1656,0.2093,8.8894,-0.0239,-0.0009,9.8066,-0.0129,-0.0123,0.0154,14.57,-16.41,-28.82,46.07,-2.34,1.54
56843,52.392136,-1.435714,118,22.52,10.0,39.1,14 / 25,5684341,2019-08-31 11:25:04:420,-0.5285,-0.3323,10.6795,0.0084,0.0163,9.8066,-0.0001,0.0133,0.0058,14.2,-16.41,-28.88,47.78,-2.45,1.51
56844,52.392136,-1.435714,118,22.52,10.0,39.1,14 / 25,5684441,2019-08-31 11:25:04:520,-0.1696,-0.1026,10.6308,0.0093,-0.0047,9.8066,0.0202,0.0655,0.0229,14.2,-16.41,-28.88,47.78,-2.45,1.51
56845,52.392136,-1.435714,118,22.52,10.0,39.1,14 / 25,5684542,2019-08-31 11:25:04:621,0.1362,0.2282,9.4895,-0.0005,-0.0235,9.8066,-0.0001,-0.0134,0.0026,14.2,-16.41,-28.82,47.95,-2.34,1.6
56846,52.392136,-1.435714,118,22.52,10.0,39.1,14 / 25,5684641,2019-08-31 11:25:04:720,-0.249,-0.2494,9.0436,-0.0029,-0.0051,9.8066,0.0255,0.0356,0.0122,14.2,-16.41,-28.82,47.95,-2.34,1.6
56847,52.392136,-1.435714,118,22.52,10.0,39.1,14 / 25,5684741,2019-08-31 11:25:04:820,0.4447,0.3468,10.9433,0.0117,0.0073,9.8066,-0.0001,-0.007,-0.0006,14.57,-16.41,-29.19,46.08,-2.42,1.62
56848,52.392136,-1.435714,118,22.52,10.0,39.1,14 / 25,5684841,2019-08-31 11:25:04:920,-0.1246,0.2158,9.2662,-0.0095,-0.0114,9.8066,0.018,-0.0187,0.0005,14.2,-16.41,-29.25,47.88,-2.51,1.7
56849,52.392136,-1.435714,118,22.52,10.0,39.1,14 / 25,5684941,2019-08-31 11:25:05:020,-0.2903,-0.0545,9.5549,-0.0201,-0.0015,9.8066,0.018,-0.0187,0.0005,14.2,-16.41,-29.25,47.88,-2.51,1.7
56850,52.392284,-1.435509,119,22.34,10.0,38.8,16 / 25,5685042,2019-08-31 11:25:05:121,0.1068,0.3217,9.2425,-0.0057,0.0152,9.8066,-0.0043,0.0399,0.0133,14.2,-16.72,-29.19,49.53,-2.43,1.62
56851,52.392284,-1.435509,119,22.34,10.0,38.8,16 / 25,5685141,2019-08-31 11:25:05:220,-0.0929,0.227,9.4179,0.0074,0.0028,9.8066,-0.0075,-0.0144,0.0197,14.2,-17.09,-29.25,49.42,-2.47,1.53
56852,52.392284,-1.435509,119,22.34,10.0,38.8,16 / 25,5685241,2019-08-31 11:25:05:320,-0.0855,0.0703,10.4992,-0.0058,-0.011,9.8066,0.0106,0.0197,0.0037,14.2,-16.03,-29.19,47.76,-2.52,1.56
56853,52.392284,-1.435509,119,22.34,10.0,38.8,16 / 25,5685341,2019-08-31 11:25:05:420,-0.2213,0.1368,9.1662,-0.027,-0.0251,9.8066,-0.0118,0.0239,0.0154,14.2,-16.41,-28.82,47.76,-2.52,1.56
56854,52.392284,-1.435509,119,22.34,10.0,38.8,16 / 25,5685441,2019-08-31 11:25:05:520,-0.0864,-0.1501,8.9516,-0.0358,-0.0334,9.8065,0.0138,-0.0368,0.0154,14.2,-16.41,-28.82,47.76,-2.52,1.56
56855,52.392284,-1.435509,119,22.34,10.0,38.8,16 / 25,5685540,2019-08-31 11:25:05:619,-0.3673,-0.1702,9.1891,0.0026,-0.0075,9.8066,0.0074,0.0218,0.0005,14.57,-16.03,-28.38,46.19,-2.23,1.53
56856,52.392284,-1.435509,119,22.34,10.0,38.8,16 / 25,5685641,2019-08-31 11:25:05:720,-0.0234,0.0263,10.4698,0.0077,0.0017,9.8066,0.0063,0.0015,0.0229,14.2,-16.41,-29.25,47.98,-2.27,1.56
56857,52.392284,-1.435509,119,22.34,10.0,38.8,16 / 25,5685741,2019-08-31 11:25:05:820,-0.5514,-0.0229,8.8241,0.0099,0.0151,9.8066,0.0063,0.0015,0.0229,14.2,-16.41,-28.82,47.98,-2.27,1.56
56858,52.392284,-1.435509,119,22.34,10.0,38.8,16 / 25,5685841,2019-08-31 11:25:05:920,0.0507,-0.0141,9.0879,0.0181,0.0184,9.8066,0.0074,0.0037,0.0058,13.89,-16.41,-29.19,47.78,-2.44,1.51
56859,52.392284,-1.435509,119,22.34,10.0,38.8,16 / 25,5685941,2019-08-31 11:25:06:020,0.1798,0.1934,9.2899,0.0075,0.0335,9.8066,-0.0182,0.0058,0.0069,13.89,-16.41,-29.19,47.78,-2.44,1.51
56860,52.392445,-1.435308,119,22.25,10.0,38.5,14 / 25,5686041,2019-08-31 11:25:06:120,-0.0813,0.051,9.4662,-0.0234,-0.0072,9.8066,-0.0011,0.0346,0.0058,14.2,-16.41,-29.19,47.54,-2.61,1.41
56861,52.392445,-1.435308,119,22.25,10.0,38.5,14 / 25,5686141,2019-08-31 11:25:06:220,-0.1686,-0.1072,9.2142,-0.0493,-0.0321,9.8065,-0.0107,-0.0219,-0.0016,14.2,-16.41,-28.75,47.77,-2.28,1.32
56862,52.392445,-1.435308,119,22.25,10.0,38.5,14 / 25,5686241,2019-08-31 11:25:06:320,-0.1185,-0.1652,9.0678,-0.0238,-0.009,9.8066,0.0021,-0.0144,0.008,14.2,-16.41,-29.25,47.83,-2.15,1.25
56863,52.392445,-1.435308,119,22.25,10.0,38.5,14 / 25,5686342,2019-08-31 11:25:06:421,0.1651,-0.0644,9.94,-0.0033,-0.0064,9.8066,0.0383,0.0505,0.0069,14.2,-16.41,-29.25,47.83,-2.15,1.25
56864,52.392445,-1.435308,119,22.25,10.0,38.5,14 / 25,5686441,2019-08-31 11:25:06:520,-0.3581,-0.3329,10.8405,0.0047,-0.0177,9.8066,0.0202,-0.0059,0.008,14.57,-16.41,-29.19,46.04,-2.11,1.26
56865,52.392445,-1.435308,119,22.25,10.0,38.5,14 / 25,5686541,2019-08-31 11:25:06:620,0.3668,-0.3294,10.7335,-0.0036,-0.0361,9.8066,0.0202,-0.0059,0.008,14.57,-16.41,-28.82,46.3,-1.94,1.39
56866,52.392445,-1.435308,119,22.25,10.0,38.5,14 / 25,5686641,2019-08-31 11:25:06:720,-0.6005,-0.3256,9.9133,-0.0164,-0.0291,9.8066,-0.0097,0.0676,0.0239,14.57,-16.41,-28.82,46.3,-1.94,1.39
56867,52.392445,-1.435308,119,22.25,10.0,38.5,14 / 25,5686742,2019-08-31 11:25:06:821,0.2012,-0.0554,9.4315,-0.0201,-0.0478,9.8065,-0.0256,-0.0155,0.0207,14.2,-16.41,-29.25,48.51,-1.66,1.5
56868,52.392445,-1.435308,119,22.25,10.0,38.5,14 / 25,5686842,2019-08-31 11:25:06:921,-0.0997,-0.2974,10.371,-0.0135,-0.0011,9.8066,-0.0001,0.0058,0.0197,14.2,-16.41,-29.25,48.51,-1.66,1.5
56869,52.392445,-1.435308,119,22.25,10.0,38.5,14 / 25,5686941,2019-08-31 11:25:07:020,-0.5585,-0.1663,9.6497,-0.0203,-0.0031,9.8066,0.0127,0.0282,-0.0006,14.2,-16.41,-28.38,48.52,-1.6,1.45
56870,52.3926,-1.435106,119,22.13,10.0,38.0,14 / 25,5687041,2019-08-31 11:25:07:120,-0.5666,-0.2774,9.7124,-0.0266,-0.0227,9.8066,-0.0107,-0.024,0.0143,14.95,-16.41,-29.25,46.66,-1.51,1.37
56871,52.3926,-1.435106,119,22.13,10.0,38.0,14 / 25,5687140,2019-08-31 11:25:07:219,-0.2349,-0.0783,8.7934,-0.0495,-0.0342,9.8065,0.0255,0.0314,0.0154,14.57,-16.03,-28.82,46.66,-1.51,1.37
56872,52.3926,-1.435106,119,22.13,10.0,38.0,14 / 25,5687241,2019-08-31 11:25:07:320,-0.1017,-0.1101,9.3963,0.004,-0.015,9.8066,0.0255,0.0314,0.0154,14.57,-15.66,-28.0,46.91,-1.16,1.3
56873,52.3926,-1.435106,119,22.13,10.0,38.0,14 / 25,5687341,2019-08-31 11:25:07:420,0.0006,-0.1448,9.88,0.0021,-0.0317,9.8066,0.0052,0.0122,0.0069,14.57,-15.66,-28.0,46.91,-1.16,1.3
56874,52.3926,-1.435106,119,22.13,10.0,38.0,14 / 25,5687441,2019-08-31 11:25:07:520,0.0857,-0.2516,9.7374,-0.0024,-0.0148,9.8066,0.0148,-0.0261,0.0069,14.2,-16.03,-28.38,49.03,-1.04,1.43
56875,52.3926,-1.435106,119,22.13,10.0,38.0,14 / 25,5687542,2019-08-31 11:25:07:621,-0.1538,-0.3201,9.4229,-0.0024,-0.0221,9.8066,0.0021,-0.0325,0.0186,14.95,-16.03,-28.38,47.29,-0.93,1.51
56876,52.3926,-1.435106,119,22.13,10.0,38.0,14 / 25,5687641,2019-08-31 11:25:07:720,-0.1058,-0.3828,9.9242,0.004,-0.0192,9.8066,0.0148,-0.0016,-0.0048,14.95,-16.03,-28.38,47.29,-0.93,1.51
56877,52.3926,-1.435106,119,22.13,10.0,38.0,14 / 25,5687741,2019-08-31 11:25:07:820,-0.0655,-0.2445,9.0995,-0.0039,-0.009,9.8066,0.0159,-0.0283,0.0186,14.2,-16.03,-28.07,49.33,-0.86,1.6
56878,52.3926,-1.435106,119,22.13,10.0,38.0,14 / 25,5687841,2019-08-31 11:25:07:920,0.1805,-0.2759,10.8535,0.008,-0.0248,9.8066,-0.0342,-0.0624,-0.0006,14.57,-16.03,-28.0,47.6,-0.78,1.73
56879,52.3926,-1.435106,119,22.13,10.0,38.0,14 / 25,5687941,2019-08-31 11:25:08:020,-0.8798,0.1187,9.2778,0.01,-0.0022,9.8066,-0.0523,0.0399,0.0229,14.2,-16.03,-29.25,47.6,-0.78,1.73
56880,52.39274,-1.434905,119,21.71,10.0,37.8,14 / 25,5688041,2019-08-31 11:25:08:120,0.3157,0.0991,8.1257,-0.0114,-0.0151,9.8066,0.0042,0.0655,0.0005,14.57,-15.66,-28.88,47.75,-0.62,1.7
56881,52.39274,-1.434905,119,21.71,10.0,37.8,14 / 24,5688141,2019-08-31 11:25:08:220,-0.2817,0.2122,9.0652,-0.007,-0.0078,9.8066,0.0042,0.0655,0.0005,14.57,-15.66,-28.88,47.75,-0.62,1.7
56882,52.39274,-1.434905,119,21.71,10.0,37.8,14 / 24,5688241,2019-08-31 11:25:08:320,0.1558,0.0881,8.5331,0.014,0.0141,9.8066,0.0202,0.0538,-0.0134,14.2,-16.41,-28.88,49.73,-0.56,1.7
56883,52.39274,-1.434905,119,21.71,10.0,37.8,14 / 24,5688341,2019-08-31 11:25:08:420,0.0213,0.0196,8.7773,0.0056,0.0081,9.8066,0.0063,0.0133,0.0069,14.57,-15.66,-29.32,47.75,-0.62,1.7
56884,52.39274,-1.434905,119,21.71,10.0,37.8,14 / 24,5688441,2019-08-31 11:25:08:520,0.1652,-0.0676,9.8629,-0.0115,-0.0284,9.8066,0.0223,-0.0187,0.0026,14.95,-16.03,-28.5,47.75,-0.62,1.7
56885,52.39274,-1.434905,119,21.71,10.0,37.8,14 / 24,5688541,2019-08-31 11:25:08:620,0.1196,0.0163,9.017,-0.0152,-0.0342,9.8066,-0.0054,0.0186,0.0058,14.95,-16.03,-28.5,47.75,-0.62,1.7
56886,52.39274,-1.434905,119,21.71,10.0,37.8,14 / 24,5688641,2019-08-31 11:25:08:720,-0.0378,-0.1267,10.5104,-0.0186,-0.0293,9.8066,-0.0054,0.0442,0.0079,14.95,-16.03,-28.94,47.96,-0.42,1.73
56887,52.39274,-1.434905,119,21.71,10.0,37.8,14 / 24,5688742,2019-08-31 11:25:08:821,0.3096,0.1162,9.2578,0.0061,0.0172,9.8066,0.0053,0.0346,0.0058,14.95,-16.03,-28.94,47.96,-0.42,1.73
56888,52.39274,-1.434905,119,21.71,10.0,37.8,14 / 24,5688841,2019-08-31 11:25:08:920,-0.2782,-0.033,9.5152,-0.0135,0.0034,9.8066,-0.015,0.0122,0.009,14.95,-16.03,-29.38,47.84,-0.52,1.69
56889,52.39274,-1.434905,119,21.71,10.0,37.8,14 / 24,5688941,2019-08-31 11:25:09:020,-0.0009,-0.0286,10.2296,-0.0248,-0.0057,9.8066,-0.015,0.0122,0.009,14.57,-16.03,-29.38,47.8,-0.47,1.6
56890,52.392895,-1.434719,119,21.22,10.0,37.5,14 / 25,5689042,2019-08-31 11:25:09:121,-0.2314,-0.1566,10.4273,-0.0331,-0.0059,9.8066,-0.015,-0.0038,-0.0016,14.57,-16.03,-29.38,47.8,-0.47,1.6
56891,52.392895,-1.434719,119,21.22,10.0,37.5,14 / 25,5689141,2019-08-31 11:25:09:220,0.1353,-0.0047,10.1597,-0.0206,-0.0076,9.8066,0.0063,-0.0262,-0.0016,14.95,-16.03,-28.94,47.84,-0.32,1.48
56892,52.392895,-1.434719,119,21.22,10.0,37.5,14 / 25,5689241,2019-08-31 11:25:09:320,-0.3188,0.2081,9.1343,-0.0167,0.0071,9.8066,0.0159,0.0154,0.0005,14.57,-16.41,-29.0,47.9,-0.2,1.42
56893,52.392895,-1.434719,119,21.22,10.0,37.5,14 / 25,5689341,2019-08-31 11:25:09:420,0.336,0.3725,9.7495,-0.0019,0.0053,9.8066,0.001,0.0356,0.0122,14.57,-16.41,-28.94,47.85,-0.17,1.32
