,GPS LATITUDE (degrees), GPS LONGITUDE (degrees), GPS ALTITUDE (m), GPS SPEED (Kmh), GPS ACCURACY (m), GPS ORIENTATION (Â°),GPS SATELLITES IN RANGE, TIME SINCE START (ms), DATE (YYYY-MO-DD HH-MI-SS_SSS), ACCELEROMETER X (m/s²) , ACCELEROMETER Y (m/s²), ACCELEROMETER Z (m/s²), GRAVITY X (m/s²), GRAVITY Y (m/s²), GRAVITY Z (m/s²), GYROSCOPE Yaw (rad/s), GYROSCOPE Pitch (rad/s), GYROSCOPE Roll (rad/s), MAGNETIC FIELD X (Î¼T), MAGNETIC FIELD Y (Î¼T), MAGNETIC FIELD Z (Î¼T), ORIENTATION (Yaw) (Â°), ORIENTATION (Pitch) (Â°), ORIENTATION (Roll ) (Â°),Unnamed: 24
509,52.181744,-1.878349,77,18.95,13.0,190.1,,13 / 24,50945,2019-08-16 11:30:15:314,-0.0852,0.0085,8.8741,-0.0232,-0.0016,9.8066,-0.0214,0.0329,0.0352,-14.33,0.97,-35.96,185.9,1.62,-0.88
510,52.181744,-1.878349,77,18.95,13.0,190.1,,13 / 24,51046,2019-08-16 11:30:15:415,-0.0493,-0.0807,9.7334,-0.0343,-0.0074,9.8066,0.0042,-0.0416,-0.0064,-15.08,1.34,-34.27,185.47,1.48,-0.88
511,52.181744,-1.878349,77,18.95,13.0,190.1,,13 / 24,51145,2019-08-16 11:30:15:514,0.0717,-0.3095,9.3766,-0.0555,-0.0029,9.8065,-0.016,-0.0267,-0.0096,-15.46,0.97,-34.71,185.47,1.48,-0.88
512,52.18156,-1.878448,76,19.57,13.0,190.8,,Dec-23,51245,2019-08-16 11:30:15:614,-0.1152,0.0394,10.1795,-0.0371,-0.0021,9.8066,-0.0001,-0.0321,0.0149,-15.08,1.72,-34.27,189.07,1.27,-0.87
513,52.18156,-1.878448,76,19.57,13.0,190.8,,Dec-23,51346,2019-08-16 11:30:15:715,-0.1888,0.2156,9.2086,0.0478,0.0172,9.8065,0.0372,-0.0257,0.0011,-14.71,0.97,-35.15,185.36,1.56,-0.81
514,52.18156,-1.878448,76,19.57,13.0,190.8,,Dec-23,51445,2019-08-16 11:30:15:814,0.2403,-0.1192,8.4812,0.0184,0.0019,9.8066,-0.015,-0.0001,-0.0149,-14.71,0.97,-35.15,185.36,1.56,-0.81
515,52.18156,-1.878448,76,19.57,13.0,190.8,,Dec-23,51545,2019-08-16 11:30:15:914,0.1649,-0.2421,8.5148,-0.0004,-0.0044,9.8067,0.0234,0.0787,0.0021,-14.71,0.97,-35.96,185.79,1.61,-0.99
516,52.18156,-1.878448,76,19.57,13.0,190.8,,Dec-23,51645,2019-08-16 11:30:16:014,-0.1223,0.4652,10.1369,0.0019,0.0156,9.8066,-0.031,-0.0576,-0.0085,-14.71,0.97,-35.59,185.79,1.61,-0.99
517,52.18156,-1.878448,76,19.57,13.0,190.8,,Dec-23,51745,2019-08-16 11:30:16:114,-0.0667,0.0346,9.4911,-0.0279,0.0023,9.8066,-0.031,-0.0576,-0.0085,-14.71,0.97,-35.59,185.79,1.61,-0.99
518,52.18156,-1.878448,76,19.57,13.0,190.8,,Dec-23,51845,2019-08-16 11:30:16:214,-0.5599,-0.0573,9.8253,-0.0209,-0.0147,9.8066,0.0063,-0.0853,-0.0085,-14.71,1.34,-35.59,185.76,1.45,-0.96
519,52.18156,-1.878448,76,19.57,13.0,190.8,,Dec-23,51946,2019-08-16 11:30:16:315,-0.0939,-0.1001,9.4095,-0.035,-0.0023,9.8066,0.0138,0.0255,0.0053,-15.46,1.34,-35.96,185.76,1.45,-0.96
520,52.18156,-1.878448,76,19.57,13.0,190.8,,Dec-23,52045,2019-08-16 11:30:16:414,0.071,-0.3734,10.2191,-0.024,0.0188,9.8066,0.0031,0.001,-0.0362,-15.08,0.97,-36.77,185.56,1.32,-0.84
521,52.18156,-1.878448,76,19.57,13.0,190.8,,Dec-23,52146,2019-08-16 11:30:16:515,0.0194,-0.3295,10.195,0.0117,-0.01,9.8066,0.0276,0.0564,0.0117,-15.08,0.97,-36.77,185.56,1.32,-0.84
522,52.181335,-1.878561,75,20.63,12.0,192.0,,13 / 24,52245,2019-08-16 11:30:16:614,0.174,-0.5205,8.9641,0.008,-0.0265,9.8066,-0.0224,0.0404,-0.0245,-15.08,1.34,-36.4,185.65,1.38,-0.9
523,52.181335,-1.878561,75,20.63,12.0,192.0,,13 / 24,52345,2019-08-16 11:30:16:714,-0.7649,0.4297,11.4234,0.007,-0.0267,9.8066,-0.0064,-0.1386,-0.0192,-15.08,0.59,-36.77,185.65,1.38,-0.9
524,52.181335,-1.878561,75,20.63,12.0,192.0,,13 / 24,52445,2019-08-16 11:30:16:814,0.408,-0.5451,9.1262,-0.0009,-0.018,9.8066,-0.0267,0.0138,-0.017,-14.71,1.34,-36.77,185.94,1.36,-1.01
525,52.181335,-1.878561,75,20.63,12.0,192.0,,13 / 24,52545,2019-08-16 11:30:16:914,-0.6419,0.3145,9.9611,0.0193,-0.0059,9.8066,-0.0267,0.0138,-0.017,-15.08,1.34,-37.21,186.02,1.54,-1.06
526,52.181335,-1.878561,75,20.63,12.0,192.0,,13 / 24,52646,2019-08-16 11:30:17:015,0.2305,-0.2278,10.3161,0.006,-0.0078,9.8066,0.0223,0.0116,-0.0437,-15.08,1.34,-37.21,186.02,1.54,-1.06
527,52.181335,-1.878561,75,20.63,12.0,192.0,,13 / 24,52746,2019-08-16 11:30:17:115,0.0554,-0.3696,9.7448,-0.0238,-0.009,9.8066,0.0138,-0.0129,0.0107,-14.71,1.72,-37.21,189.63,1.57,-1.11
528,52.181335,-1.878561,75,20.63,12.0,192.0,,13 / 24,52845,2019-08-16 11:30:17:214,0.0179,-0.1037,8.9685,-0.0564,-0.0179,9.8065,0.0223,-0.0118,-0.0075,-14.71,1.34,-37.21,186.32,1.23,-1.16
529,52.181335,-1.878561,75,20.63,12.0,192.0,,13 / 24,52945,2019-08-16 11:30:17:314,-0.4263,0.0243,10.3844,-0.0291,0.0026,9.8066,-0.0256,0.0777,0.0075,-14.71,1.34,-37.21,186.32,1.23,-1.16
530,52.181335,-1.878561,75,20.63,12.0,192.0,,13 / 24,53045,2019-08-16 11:30:17:414,0.1026,-0.1948,9.1597,-0.0019,0.0054,9.8066,0.0074,-0.0246,-0.0117,-15.08,1.72,-37.59,189.92,1.06,-1.12
531,52.181335,-1.878561,75,20.63,12.0,192.0,,13 / 24,53145,2019-08-16 11:30:17:514,0.1834,-0.3295,9.4092,0.0357,0.0179,9.8066,0.0458,-0.0342,-0.0447,-14.71,1.34,-37.59,186.13,1.29,-1.06
532,52.181145,-1.878668,74,21.26,12.0,193.2,,13 / 24,53245,2019-08-16 11:30:17:614,0.0376,0.2316,10.0308,0.0128,0.0064,9.8066,0.0458,-0.0342,-0.0447,-14.33,1.34,-38.46,186.44,1.37,-1.03
533,52.181145,-1.878668,74,21.26,12.0,193.2,,13 / 24,53346,2019-08-16 11:30:17:715,0.1519,-0.0935,10.8562,-0.0051,-0.0132,9.8066,0.001,0.0063,-0.0064,-14.33,1.34,-38.46,186.44,1.37,-1.03
534,52.181145,-1.878668,74,21.26,12.0,193.2,,13 / 24,53445,2019-08-16 11:30:17:814,0.2497,-0.3678,10.0898,-0.001,-0.0095,9.8066,-0.032,-0.0693,0.0085,-15.08,1.34,-38.4,186.07,1.24,-1.03
535,52.181145,-1.878668,74,21.26,12.0,193.2,,13 / 24,53545,2019-08-16 11:30:17:914,-0.5189,0.1275,9.9087,-0.0261,-0.0088,9.8066,0.0181,-0.1002,-0.017,-14.71,1.34,-37.59,186.07,1.24,-1.03
536,52.181145,-1.878668,74,21.26,12.0,193.2,,13 / 24,53645,2019-08-16 11:30:18:014,-0.703,0.0826,9.7288,-0.0227,-0.0229,9.8066,0.0308,-0.0651,-0.0277,-14.71,1.34,-37.59,186.07,1.24,-1.03
537,52.181145,-1.878668,74,21.26,12.0,193.2,,13 / 24,53746,2019-08-16 11:30:18:115,-0.374,0.416,10.8476,0.0256,-0.0206,9.8066,-0.0096,-0.0107,-0.0096,-15.08,0.97,-37.59,186.39,1.1,-1.15
538,52.181145,-1.878668,74,21.26,12.0,193.2,,13 / 24,53846,2019-08-16 11:30:18:215,0.1724,-0.2592,10.514,0.0279,-0.0042,9.8066,-0.0299,0.0585,-0.0224,-15.08,1.34,-37.59,186.67,1.23,-1.28
539,52.181145,-1.878668,74,21.26,12.0,193.2,,13 / 24,53945,2019-08-16 11:30:18:314,-0.0593,0.0301,9.9644,0.0424,0.0004,9.8066,-0.0299,0.0585,-0.0224,-14.71,1.34,-37.59,186.67,1.48,-1.31
540,52.181145,-1.878668,74,21.26,12.0,193.2,,13 / 24,54046,2019-08-16 11:30:18:415,-0.0363,-0.1066,9.7798,-0.018,-0.0026,9.8066,0.0447,0.0489,-0.0234,-14.71,1.34,-37.59,186.67,1.48,-1.31
541,52.181145,-1.878668,74,21.26,12.0,193.2,,13 / 24,54145,2019-08-16 11:30:18:514,0.1012,0.219,9.8742,-0.0126,0.0099,9.8066,0.0074,0.002,0.0149,-14.71,0.97,-37.59,186.71,1.37,-1.31
542,52.18094,-1.878737,73,21.4,12.0,193.5,,13 / 24,54245,2019-08-16 11:30:18:614,-0.4178,0.2,10.1316,-0.0201,0.0183,9.8066,-0.0331,-0.0427,-0.0107,-14.71,1.72,-37.15,189.93,1.27,-1.19
543,52.18094,-1.878737,73,21.4,12.0,193.5,,13 / 24,54345,2019-08-16 11:30:18:714,0.1251,-0.6484,8.4591,-0.016,-0.0017,9.8066,-0.0075,0.017,0.0011,-14.71,1.34,-37.59,186.46,1.17,-1.19
544,52.18094,-1.878737,73,21.4,12.0,193.5,,13 / 24,54445,2019-08-16 11:30:18:814,-0.1142,0.0345,9.3907,-0.0163,-0.0171,9.8066,0.0308,0.002,-0.0021,-14.71,1.34,-37.59,186.46,1.17,-1.19
545,52.18094,-1.878737,73,21.4,12.0,193.5,,13 / 24,54545,2019-08-16 11:30:18:914,0.0323,0.0558,9.3273,0.0276,0.0013,9.8066,-0.0064,-0.0139,-0.0138,-14.71,1.72,-37.15,190.2,1.07,-1.27
546,52.18094,-1.878737,73,21.4,12.0,193.5,,13 / 24,54646,2019-08-16 11:30:19:015,0.0796,0.0072,9.8782,0.0384,0.0102,9.8066,-0.0182,-0.0448,-0.0021,-14.71,1.34,-37.21,190.2,1.07,-1.27
547,52.18094,-1.878737,73,21.4,12.0,193.5,,13 / 24,54746,2019-08-16 11:30:19:115,-0.1226,0.1374,10.0952,-0.008,-0.0218,9.8066,-0.0182,-0.0448,-0.0021,-14.71,1.72,-37.59,190.13,1.3,-1.26
548,52.18094,-1.878737,73,21.4,12.0,193.5,,13 / 24,54845,2019-08-16 11:30:19:214,0.148,-0.2518,9.7481,-0.033,-0.0436,9.8065,-0.0267,0.002,-0.0064,-14.71,1.34,-36.77,187.09,1.06,-1.47
549,52.18094,-1.878737,73,21.4,12.0,193.5,,13 / 24,54947,2019-08-16 11:30:19:316,-0.5373,0.0881,10.6852,-0.0133,0.0045,9.8066,-0.0054,0.0042,-0.0447,-14.71,1.34,-36.77,187.09,1.06,-1.47
550,52.18094,-1.878737,73,21.4,12.0,193.5,,13 / 24,55045,2019-08-16 11:30:19:414,-0.4203,-0.0244,9.6668,-0.0056,-0.0066,9.8066,0.0394,0.0585,-0.0405,-14.71,1.34,-37.96,187.11,0.99,-1.44
551,52.18094,-1.878737,73,21.4,12.0,193.5,,13 / 24,55145,2019-08-16 11:30:19:514,0.1064,-0.1052,9.0356,-0.0079,0.0031,9.8066,0.0394,-0.0523,-0.0192,-14.71,1.34,-37.96,187.07,0.95,-1.41
552,52.18078,-1.878778,73,20.88,12.0,192.9,,13 / 24,55245,2019-08-16 11:30:19:614,-0.1702,0.422,8.7042,0.0039,0.0247,9.8066,0.033,-0.0566,0.0053,-14.71,1.34,-38.02,187.07,0.95,-1.41
553,52.18078,-1.878778,73,20.88,12.0,192.9,,13 / 24,55345,2019-08-16 11:30:19:714,0.1361,-0.1187,9.0158,0.0298,0.0394,9.8066,-0.0203,-0.0544,-0.0053,-14.71,1.34,-38.02,187.07,0.95,-1.41
554,52.18078,-1.878778,73,20.88,12.0,192.9,,13 / 24,55446,2019-08-16 11:30:19:815,-0.1634,0.2691,9.8111,-0.0132,0.0092,9.8066,-0.0384,-0.0374,0.0107,-15.08,0.97,-37.59,186.7,1.11,-1.28
555,52.18078,-1.878778,73,20.88,12.0,192.9,,13 / 24,55545,2019-08-16 11:30:19:914,-0.3611,0.4519,10.3734,-0.0541,0.0031,9.8065,-0.0384,-0.0374,0.0107,-14.33,1.72,-36.34,190.82,0.8,-1.23
556,52.18078,-1.878778,73,20.88,12.0,192.9,,13 / 24,55646,2019-08-16 11:30:20:015,-0.255,-0.0321,9.6253,-0.0235,-0.0021,9.8066,0.0202,-0.0225,0.0096,-14.71,1.72,-37.21,190.82,0.8,-1.23
557,52.18078,-1.878778,73,20.88,12.0,192.9,,13 / 24,55745,2019-08-16 11:30:20:114,-0.3037,0.2347,9.8038,-0.026,0.0051,9.8066,0.0191,0.0106,-0.0043,-14.71,1.72,-37.21,190.82,0.8,-1.23
558,52.18078,-1.878778,73,20.88,12.0,192.9,,13 / 24,55846,2019-08-16 11:30:20:215,-0.1535,0.1542,9.8008,-0.0102,-0.0046,9.8066,0.0021,0.0255,0.0107,-14.71,2.09,-37.59,190.19,0.66,-1.17
559,52.18078,-1.878778,73,20.88,12.0,192.9,,13 / 24,55945,2019-08-16 11:30:20:314,-0.0381,0.1231,9.1949,-0.0004,0.0087,9.8066,-0.015,-0.0054,0.0085,-15.08,0.97,-37.59,190.19,0.66,-1.17
560,52.18078,-1.878778,73,20.88,12.0,192.9,,13 / 24,56045,2019-08-16 11:30:20:414,0.3798,-0.3169,8.6788,0.0203,0.0258,9.8066,-0.0043,-0.0182,-0.0021,-14.33,1.72,-37.21,190.43,0.8,-1.04
561,52.18078,-1.878778,73,20.88,12.0,192.9,,13 / 24,56145,2019-08-16 11:30:20:514,0.4318,-0.3522,8.0682,0.0091,0.0112,9.8066,-0.0011,0.0787,0.0149,-14.33,1.72,-37.21,190.43,0.8,-1.04
562,52.180595,-1.878831,73,20.71,11.0,192.8,,13 / 24,56245,2019-08-16 11:30:20:614,-0.2403,0.0999,9.9531,0.0008,0.0171,9.8066,0.0138,-0.0107,-0.0107,-14.33,1.72,-36.77,190.27,0.86,-0.99
563,52.180595,-1.878831,73,20.71,11.0,192.8,,13 / 24,56345,2019-08-16 11:30:20:714,-0.0204,-0.3311,9.7145,-0.0383,-0.002,9.8066,0.0138,-0.0107,-0.0107,-15.08,1.34,-38.4,185.87,0.82,-0.9
564,52.180595,-1.878831,73,20.71,11.0,192.8,,13 / 24,56446,2019-08-16 11:30:20:815,-0.053,-0.3155,10.7476,-0.0681,-0.0121,9.8064,-0.0182,0.0095,0.0117,-15.08,1.34,-38.4,185.87,0.82,-0.9
565,52.180595,-1.878831,73,20.71,11.0,192.8,,13 / 24,56546,2019-08-16 11:30:20:915,-0.2359,-0.1674,11.2317,-0.021,-0.0068,9.8066,-0.0597,-0.0257,0.0011,-15.08,1.72,-37.59,189.72,0.42,-0.93
566,52.180595,-1.878831,73,20.71,11.0,192.8,,13 / 24,56645,2019-08-16 11:30:21:014,0.1354,-0.359,10.1103,-0.0003,0.0208,9.8066,0.0074,-0.0012,0.017,-14.33,1.34,-37.59,186.55,0.29,-0.95
567,52.180595,-1.878831,73,20.71,11.0,192.8,,13 / 24,56745,2019-08-16 11:30:21:114,-0.5378,0.2996,10.5018,0.0226,0.0162,9.8066,0.0308,0.017,-0.0245,-14.71,1.72,-37.59,189.57,0.44,-0.87
568,52.180595,-1.878831,73,20.71,11.0,192.8,,13 / 24,56845,2019-08-16 11:30:21:214,-0.3227,0.4445,10.5799,0.0113,-0.0045,9.8066,-0.0096,-0.0278,0.0053,-14.71,1.72,-37.59,189.57,0.44,-0.87
569,52.180595,-1.878831,73,20.71,11.0,192.8,,13 / 24,56946,2019-08-16 11:30:21:315,-0.1416,0.3987,10.479,0.0148,0.0049,9.8066,-0.0096,-0.0278,0.0053,-14.71,1.34,-37.96,185.97,0.5,-0.91
570,52.180595,-1.878831,73,20.71,11.0,192.8,,13 / 24,57045,2019-08-16 11:30:21:414,-0.4366,0.2983,10.0954,0.0254,0.0172,9.8066,-0.0267,-0.0438,0.0064,-14.71,1.34,-37.59,185.72,0.65,-0.82
571,52.180595,-1.878831,73,20.71,11.0,192.8,,13 / 24,57145,2019-08-16 11:30:21:514,0.1893,-0.1765,11.1368,-0.0326,0.0109,9.8066,-0.0203,-0.0107,0.0075,-14.33,1.34,-37.59,185.72,0.65,-0.82
572,52.18043,-1.878872,73,20.51,11.0,192.2,,13 / 24,57245,2019-08-16 11:30:21:614,-0.0252,-0.4843,10.0353,-0.0774,0.0045,9.8063,-0.0512,0.0116,0.0213,-14.33,1.34,-37.59,185.72,0.65,-0.82
573,52.18043,-1.878872,73,20.51,11.0,192.2,,13 / 24,57345,2019-08-16 11:30:21:714,-0.383,0.4412,9.6583,0.0105,-0.0138,9.8066,-0.0235,-0.0182,-0.0213,-13.96,0.97,-38.46,186.07,0.08,-0.75
574,52.18043,-1.878872,73,20.51,11.0,192.2,,13 / 24,57446,2019-08-16 11:30:21:815,-0.101,0.1136,9.2846,0.0323,-0.0229,9.8066,-0.0096,-0.0459,-0.0213,-13.96,1.34,-38.84,186.34,0.13,-0.83
575,52.18043,-1.878872,73,20.51,11.0,192.2,,13 / 24,57545,2019-08-16 11:30:21:914,0.3979,-0.468,9.342,0.0736,-0.0501,9.8062,-0.0299,-0.0363,0.0256,-14.33,1.34,-39.21,187.13,0.53,-1.17
576,52.18043,-1.878872,73,20.51,11.0,192.2,,13 / 24,57645,2019-08-16 11:30:22:014,0.5535,-0.1213,8.536,0.0335,0.0091,9.8066,0.0234,-0.0257,-0.0128,-14.33,1.34,-39.21,187.13,0.53,-1.17
577,52.18043,-1.878872,73,20.51,11.0,192.2,,13 / 24,57745,2019-08-16 11:30:22:114,0.0407,0.1884,10.5087,0.0204,0.017,9.8066,0.0234,-0.0257,-0.0128,-13.96,1.72,-38.46,190.78,0.73,-1.14
578,52.18043,-1.878872,73,20.51,11.0,192.2,,13 / 24,57845,2019-08-16 11:30:22:214,0.645,-0.0326,9.0025,-0.0083,0.0401,9.8066,0.0159,0.0233,0.0053,-14.33,1.34,-38.84,186.36,0.72,-0.9
579,52.18043,-1.878872,73,20.51,11.0,192.2,,13 / 24,57946,2019-08-16 11:30:22:315,-0.1923,0.5685,10.5373,-0.0536,0.0216,9.8065,0.0426,0.0084,0.0,-14.33,1.34,-38.84,186.36,0.72,-0.9
580,52.18043,-1.878872,73,20.51,11.0,192.2,,13 / 24,58045,2019-08-16 11:30:22:414,-0.4228,0.352,10.52,-0.0328,-0.0059,9.8066,-0.015,-0.0555,0.0064,-14.33,1.72,-39.27,189.95,0.43,-0.74
581,52.18043,-1.878872,73,20.51,11.0,192.2,,13 / 24,58145,2019-08-16 11:30:22:514,-0.2245,0.221,9.628,-0.019,-0.0155,9.8066,0.0383,0.0713,0.0128,-14.71,1.72,-38.9,189.53,0.3,-0.81
582,52.18023,-1.878957,73,21.02,11.0,192.5,,14 / 24,58245,2019-08-16 11:30:22:614,-0.0753,-0.1239,9.4528,-0.0038,-0.0111,9.8066,-0.0267,0.0244,0.0043,-14.33,1.72,-40.15,189.53,0.3,-0.81
583,52.18023,-1.878957,73,21.02,11.0,192.5,,14 / 24,58345,2019-08-16 11:30:22:714,-0.1044,-0.0208,9.6421,0.0032,-0.0067,9.8066,-0.0001,-0.0267,0.0021,-14.71,1.72,-39.27,189.79,0.33,-0.92
584,52.18023,-1.878957,73,21.02,11.0,192.5,,14 / 24,58445,2019-08-16 11:30:22:814,0.2827,0.0977,8.9255,0.0089,-0.0194,9.8066,-0.0001,-0.0267,0.0021,-14.71,1.34,-39.34,189.79,0.33,-0.92
585,52.18023,-1.878957,73,21.02,11.0,192.5,,14 / 24,58545,2019-08-16 11:30:22:914,-0.0366,-0.1366,10.1742,0.0198,-0.0195,9.8066,-0.0054,-0.0757,0.0298,-14.71,1.34,-39.34,189.79,0.33,-0.92
586,52.18023,-1.878957,73,21.02,11.0,192.5,,14 / 24,58645,2019-08-16 11:30:23:014,0.3318,-0.2617,9.9732,0.0112,-0.0027,9.8066,0.0127,-0.0214,-0.0021,-14.71,1.65,-38.96,190.08,0.42,-1.05
587,52.18023,-1.878957,73,21.02,11.0,192.5,,14 / 24,58745,2019-08-16 11:30:23:114,0.4129,-0.5979,8.7022,0.0244,0.0009,9.8066,0.0777,-0.0321,-0.0479,-14.71,1.65,-38.15,190.0,0.56,-1.07
588,52.18023,-1.878957,73,21.02,11.0,192.5,,14 / 24,58845,2019-08-16 11:30:23:214,0.1585,-0.6453,10.4103,0.0096,0.0003,9.8066,-0.0022,-0.0139,-0.0213,-14.71,2.4,-38.59,190.0,0.56,-1.07
589,52.18023,-1.878957,73,21.02,11.0,192.5,,14 / 24,58945,2019-08-16 11:30:23:314,-0.0469,0.0004,10.4651,-0.0059,-0.0114,9.8066,-0.0096,0.0255,-0.0043,-14.71,2.4,-38.59,190.0,0.56,-1.07
590,52.18023,-1.878957,73,21.02,11.0,192.5,,14 / 24,59046,2019-08-16 11:30:23:415,-0.1644,-0.3315,10.656,-0.0421,-0.0301,9.8065,-0.0001,0.05,-0.0245,-14.33,1.65,-38.59,190.93,0.52,-1.13
591,52.18023,-1.878957,73,21.02,11.0,192.5,,14 / 24,59145,2019-08-16 11:30:23:514,0.2179,-0.3436,9.8684,-0.0582,-0.0318,9.8064,-0.0001,0.05,-0.0245,-14.71,2.03,-38.15,190.61,0.15,-1.25
592,52.180058,-1.87902,73,20.76,12.0,192.8,,14 / 24,59245,2019-08-16 11:30:23:614,-0.0706,0.0341,9.0203,-0.0071,-0.005,9.8066,-0.0075,-0.0374,-0.0437,-15.08,1.65,-39.02,190.76,0.1,-1.27
593,52.180058,-1.87902,73,20.76,12.0,192.8,,14 / 24,59345,2019-08-16 11:30:23:714,0.1403,-0.0348,9.5931,0.0501,0.0307,9.8065,-0.0171,-0.064,0.0138,-15.08,1.65,-39.02,190.76,0.1,-1.27
594,52.180058,-1.87902,73,20.76,12.0,192.8,,14 / 24,59445,2019-08-16 11:30:23:814,-0.3566,0.7222,12.0402,0.0007,-0.0247,9.8066,0.034,0.051,-0.0234,-14.71,1.65,-39.46,190.32,0.42,-1.15
595,52.180058,-1.87902,73,20.76,12.0,192.8,,14 / 24,59545,2019-08-16 11:30:23:914,0.4132,0.1324,11.7017,0.0384,-0.0435,9.8065,-0.0757,0.1672,-0.0107,-14.33,1.65,-38.59,191.69,0.6,-1.44
596,52.180058,-1.87902,73,20.76,12.0,192.8,,14 / 24,59645,2019-08-16 11:30:24:014,0.1372,-0.4979,7.9821,0.0042,-0.0006,9.8066,0.0628,-0.048,-0.0181,-14.33,1.65,-38.59,191.69,0.6,-1.44
597,52.180058,-1.87902,73,20.76,12.0,192.8,,14 / 24,59746,2019-08-16 11:30:24:115,0.034,0.1694,8.1771,-0.0099,0.006,9.8066,0.033,0.0084,-0.0266,-14.71,1.65,-39.02,190.96,0.62,-1.45
598,52.180058,-1.87902,73,20.76,12.0,192.8,,14 / 24,59845,2019-08-16 11:30:24:214,-0.2999,0.799,10.8902,-0.0196,-0.0005,9.8066,-0.0235,-0.113,0.0075,-14.71,1.65,-38.65,190.96,0.51,-1.43
599,52.180058,-1.87902,73,20.76,12.0,192.8,,14 / 24,59945,2019-08-16 11:30:24:314,-0.2859,0.4156,9.741,0.0051,0.0187,9.8066,-0.0235,-0.113,0.0075,-14.71,1.65,-38.65,190.96,0.51,-1.43
600,52.180058,-1.87902,73,20.76,12.0,192.8,,14 / 24,60046,2019-08-16 11:30:24:415,-0.2404,-0.1662,9.3326,-0.0252,0.0086,9.8066,-0.0235,-0.0012,-0.0224,-14.71,2.03,-39.46,190.69,0.56,-1.33
601,52.180058,-1.87902,73,20.76,12.0,192.8,,14 / 24,60145,2019-08-16 11:30:24:514,-0.2143,-0.1029,11.0915,-0.0021,-0.0198,9.8066,-0.031,-0.0022,0.0021,-14.71,1.28,-39.52,187.43,0.52,-1.44
602,52.179874,-1.879069,72,20.82,12.0,192.5,,14 / 24,60245,2019-08-16 11:30:24:614,0.1327,-0.1702,9.3603,0.0029,0.0147,9.8066,-0.0128,0.001,0.0085,-14.71,1.28,-39.52,187.43,0.52,-1.44
603,52.179874,-1.879069,72,20.82,12.0,192.5,,14 / 24,60345,2019-08-16 11:30:24:714,0.6517,-0.5024,9.086,-0.0177,-0.0002,9.8066,0.083,-0.0427,-0.0202,-14.71,2.03,-38.65,190.76,0.55,-1.36
604,52.179874,-1.879069,72,20.82,12.0,192.5,,14 / 24,60445,2019-08-16 11:30:24:814,-0.3506,-0.0895,9.439,-0.0369,0.0043,9.8066,0.0415,0.05,0.0,-14.71,1.65,-38.65,190.76,0.55,-1.36
605,52.179874,-1.879069,72,20.82,12.0,192.5,,14 / 24,60547,2019-08-16 11:30:24:916,-0.0545,-0.2303,8.9108,-0.0193,-0.0113,9.8066,0.0021,0.0585,-0.0224,-14.71,2.03,-39.09,190.7,0.35,-1.29
606,52.179874,-1.879069,72,20.82,12.0,192.5,,14 / 24,60645,2019-08-16 11:30:25:014,0.0783,-0.0234,9.4184,0.0024,0.0043,9.8067,0.0021,0.0585,-0.0224,-14.71,2.03,-39.09,190.7,0.35,-1.29
607,52.179874,-1.879069,72,20.82,12.0,192.5,,14 / 24,60745,2019-08-16 11:30:25:114,-0.2707,0.512,9.5697,0.058,-0.0082,9.8065,-0.015,-0.0885,0.016,-14.71,1.65,-39.9,190.71,0.36,-1.27
608,52.179874,-1.879069,72,20.82,12.0,192.5,,14 / 24,60845,2019-08-16 11:30:25:214,0.2277,0.0305,9.6508,0.0624,0.0122,9.8064,0.0149,-0.0459,0.0192,-14.71,1.65,-38.65,190.71,0.36,-1.27
609,52.179874,-1.879069,72,20.82,12.0,192.5,,14 / 24,60945,2019-08-16 11:30:25:314,0.1125,-0.0836,9.3512,0.0351,0.0152,9.8066,0.0202,0.0564,-0.0085,-14.71,1.28,-38.27,186.7,0.58,-1.22
610,52.179874,-1.879069,72,20.82,12.0,192.5,,14 / 24,61045,2019-08-16 11:30:25:414,0.0082,0.3776,10.7351,0.0116,0.0114,9.8066,-0.0214,-0.0214,-0.0202,-14.71,1.28,-38.27,186.7,0.58,-1.22
611,52.179874,-1.879069,72,20.82,12.0,192.5,,14 / 24,61145,2019-08-16 11:30:25:514,0.3837,0.0794,9.7602,-0.0204,-0.009,9.8066,0.0063,-0.0374,0.0096,-14.71,1.65,-39.09,190.36,0.87,-1.25
612,52.17969,-1.879119,72,20.96,13.0,192.5,,14 / 24,61245,2019-08-16 11:30:25:614,0.1789,-0.2898,10.196,-0.0415,-0.0305,9.8065,-0.0491,0.018,0.0075,-14.71,1.28,-38.27,190.36,0.87,-1.25
613,52.17969,-1.879119,72,20.96,13.0,192.5,,14 / 24,61345,2019-08-16 11:30:25:714,0.4076,-0.3089,9.8768,-0.0459,-0.0652,9.8063,-0.0182,-0.0342,-0.0011,-15.08,0.9,-38.65,187.68,0.54,-1.58
614,52.17969,-1.879119,72,20.96,13.0,192.5,,14 / 24,61445,2019-08-16 11:30:25:814,0.0696,-0.1889,9.6385,0.0094,-0.0184,9.8066,-0.0182,-0.0342,-0.0011,-15.08,0.9,-38.65,187.68,0.54,-1.58
615,52.17969,-1.879119,72,20.96,13.0,192.5,,14 / 24,61545,2019-08-16 11:30:25:914,-0.0008,-0.123,10.5487,0.0036,0.0139,9.8066,0.033,0.0297,0.0064,-14.71,1.28,-38.65,187.95,0.58,-1.69
616,52.17969,-1.879119,72,20.96,13.0,192.5,,14 / 24,61645,2019-08-16 11:30:26:014,-0.0406,-0.4202,10.4077,-0.0058,0.0033,9.8066,0.034,-0.0001,-0.0128,-14.71,1.28,-38.65,187.75,0.61,-1.61
617,52.17969,-1.879119,72,20.96,13.0,192.5,,14 / 24,61746,2019-08-16 11:30:26:115,0.0609,-0.1194,8.5818,-0.0303,0.0094,9.8066,-0.0246,0.0383,0.0107,-14.71,0.9,-38.27,187.75,0.61,-1.61
618,52.17969,-1.879119,72,20.96,13.0,192.5,,14 / 24,61846,2019-08-16 11:30:26:215,-0.1698,0.2185,9.9418,-0.0217,0.0358,9.8066,0.0212,-0.08,-0.033,-14.71,1.65,-38.27,190.78,0.52,-1.39
619,52.17969,-1.879119,72,20.96,13.0,192.5,,14 / 24,61945,2019-08-16 11:30:26:314,-0.3184,0.2315,10.3281,0.0121,0.022,9.8066,0.034,-0.0225,0.0298,-14.33,1.28,-39.09,187.39,0.61,-1.28
620,52.17969,-1.879119,72,20.96,13.0,192.5,,14 / 24,62045,2019-08-16 11:30:26:414,0.0719,-0.0381,9.6096,0.0167,0.0114,9.8066,-0.0278,0.083,0.0075,-14.33,1.28,-39.09,187.39,0.61,-1.28
621,52.17969,-1.879119,72,20.96,13.0,192.5,,14 / 24,62145,2019-08-16 11:30:26:514,-0.1664,-0.0347,10.1671,-0.0063,0.0284,9.8066,-0.0278,0.083,0.0075,-14.33,1.65,-38.27,190.99,0.71,-1.22
622,52.179466,-1.879218,72,21.8,12.0,192.9,,14 / 24,62245,2019-08-16 11:30:26:614,0.2258,0.2117,10.8912,-0.004,0.0226,9.8066,0.0063,0.0489,-0.017,-15.08,2.03,-37.84,190.99,0.71,-1.22
623,52.179466,-1.879218,72,21.8,12.0,192.9,,14 / 24,62346,2019-08-16 11:30:26:715,0.0771,0.3301,9.982,0.0041,-0.0043,9.8066,-0.0341,0.0457,0.0138,-15.08,2.03,-37.84,190.99,0.71,-1.22
624,52.179466,-1.879218,72,21.8,12.0,192.9,,14 / 24,62445,2019-08-16 11:30:26:814,0.3562,-0.1268,9.0372,0.0028,-0.0107,9.8066,-0.0192,-0.0289,-0.0138,-14.71,1.28,-37.84,186.74,0.73,-1.25
625,52.179466,-1.879218,72,21.8,12.0,192.9,,14 / 24,62545,2019-08-16 11:30:26:914,0.266,-0.0448,9.7551,0.0059,0.0004,9.8066,0.0042,-0.0012,0.0,-15.08,1.28,-37.46,186.66,0.77,-1.25
626,52.179466,-1.879218,72,21.8,12.0,192.9,,14 / 24,62645,2019-08-16 11:30:27:014,-0.123,0.1326,9.7536,-0.0207,0.0277,9.8066,-0.0395,-0.0416,0.0256,-15.08,1.28,-37.46,186.66,0.77,-1.25
627,52.179466,-1.879218,72,21.8,12.0,192.9,,14 / 24,62745,2019-08-16 11:30:27:114,-0.4361,0.1464,10.5447,-0.014,0.0186,9.8066,0.0639,0.051,0.0011,-14.71,2.03,-37.4,189.91,0.67,-1.08
628,52.179466,-1.879218,72,21.8,12.0,192.9,,14 / 24,62845,2019-08-16 11:30:27:214,-0.3332,0.2591,9.9541,-0.0001,0.055,9.8065,-0.0086,0.0223,-0.0053,-14.71,1.28,-37.46,189.91,0.67,-1.08
629,52.179466,-1.879218,72,21.8,12.0,192.9,,14 / 24,62945,2019-08-16 11:30:27:314,-0.4061,0.4375,11.1813,0.0298,0.0493,9.8065,-0.0086,0.0223,-0.0053,-14.33,2.03,-38.27,189.91,0.89,-0.83
630,52.179466,-1.879218,72,21.8,12.0,192.9,,14 / 24,63045,2019-08-16 11:30:27:414,0.0097,-0.0056,9.6712,0.0095,-0.0051,9.8066,-0.0746,0.0446,0.0341,-14.71,1.28,-37.84,185.75,0.94,-0.86
631,52.179466,-1.879218,72,21.8,12.0,192.9,,14 / 24,63145,2019-08-16 11:30:27:514,-0.3392,0.2189,10.6131,-0.002,0.0059,9.8066,-0.0214,0.0095,0.0138,-14.71,1.28,-37.84,185.75,0.94,-0.86
632,52.179287,-1.879308,73,21.63,11.0,193.3,,14 / 24,63245,2019-08-16 11:30:27:614,-0.3246,-0.3001,10.0055,-0.0208,0.0168,9.8066,0.0074,0.0074,-0.0096,-14.71,1.28,-38.21,185.51,0.83,-0.75
633,52.179287,-1.879308,73,21.63,11.0,193.3,,14 / 24,63345,2019-08-16 11:30:27:714,0.4347,-0.7606,9.522,0.0101,-0.0202,9.8066,-0.0203,0.0574,0.0224,-14.71,1.65,-38.21,189.46,0.63,-0.86
634,52.179287,-1.879308,73,21.63,11.0,193.3,,14 / 24,63445,2019-08-16 11:30:27:814,0.2837,-0.1585,9.9235,0.0237,-0.0027,9.8066,0.0074,0.0489,-0.0107,-14.71,1.65,-38.21,189.74,0.66,-0.98
635,52.179287,-1.879308,73,21.63,11.0,193.3,,14 / 24,63545,2019-08-16 11:30:27:914,0.4107,-0.5354,8.9687,0.0215,-0.0176,9.8066,-0.0224,0.0074,-0.0096,-14.71,1.28,-38.21,189.74,0.66,-0.98
636,52.179287,-1.879308,73,21.63,11.0,193.3,,14 / 24,63646,2019-08-16 11:30:28:015,0.1623,0.0686,9.9823,0.0284,-0.0354,9.8065,0.0053,-0.0331,0.0309,-14.71,1.28,-38.21,189.74,0.66,-0.98
637,52.179287,-1.879308,73,21.63,11.0,193.3,,14 / 24,63745,2019-08-16 11:30:28:114,0.2165,-0.0407,8.3222,0.0117,0.008,9.8066,0.0053,-0.0331,0.0309,-14.71,1.28,-38.21,186.63,0.79,-1.21
638,52.179287,-1.879308,73,21.63,11.0,193.3,,14 / 24,63845,2019-08-16 11:30:28:214,0.1756,0.1122,8.8624,0.0424,0.0183,9.8065,-0.0192,-0.0182,0.033,-14.71,1.28,-38.21,186.38,1.05,-1.14
639,52.179287,-1.879308,73,21.63,11.0,193.3,,14 / 24,63945,2019-08-16 11:30:28:314,-0.4241,0.267,10.5337,-0.0268,0.0199,9.8066,-0.0011,0.0542,-0.0213,-14.71,1.28,-38.21,186.38,1.05,-1.14
640,52.179287,-1.879308,73,21.63,11.0,193.3,,14 / 24,64046,2019-08-16 11:30:28:415,-0.1173,-0.2249,10.2506,-0.056,-0.0058,9.8065,0.0298,0.0692,-0.0213,-14.71,1.65,-37.84,190.08,0.72,-1.13
641,52.179287,-1.879308,73,21.63,11.0,193.3,,14 / 24,64146,2019-08-16 11:30:28:515,-0.4747,0.2238,10.8779,-0.018,0.0079,9.8066,-0.0469,-0.0054,-0.0064,-14.33,1.65,-36.96,190.58,0.63,-1.07
642,52.179127,-1.879338,72,21.22,12.0,192.8,,14 / 24,64245,2019-08-16 11:30:28:614,-0.0036,-0.3011,9.1486,-0.0022,-0.0066,9.8066,-0.0203,-0.0992,-0.0181,-14.33,1.65,-36.96,190.58,0.63,-1.07
643,52.179127,-1.879338,72,21.22,12.0,192.8,,14 / 24,64346,2019-08-16 11:30:28:715,-0.0425,-0.0898,9.3636,0.0549,-0.0159,9.8065,0.0543,-0.0001,-0.0266,-14.71,1.28,-37.84,186.64,0.68,-1.2
644,52.179127,-1.879338,72,21.22,12.0,192.8,,14 / 24,64446,2019-08-16 11:30:28:815,0.5126,-0.1221,9.8875,0.0972,-0.013,9.8062,0.0543,-0.0001,-0.0266,-14.71,2.03,-37.84,186.64,0.68,-1.2
645,52.179127,-1.879338,72,21.22,12.0,192.8,,14 / 24,64546,2019-08-16 11:30:28:915,0.0927,-0.0481,10.5571,0.1141,-0.0208,9.806,-0.0075,0.0542,0.0096,-14.71,2.03,-37.84,186.64,0.68,-1.2
646,52.179127,-1.879338,72,21.22,12.0,192.8,,14 / 24,64646,2019-08-16 11:30:29:015,0.1361,-0.5395,10.6179,-0.0499,-0.0073,9.8065,0.0724,0.018,-0.0245,-14.33,1.65,-37.77,191.14,1.33,-1.4
647,52.179127,-1.879338,72,21.22,12.0,192.8,,14 / 24,64745,2019-08-16 11:30:29:114,-0.4154,0.0403,11.3541,-0.0631,-0.0054,9.8064,-0.0341,0.0905,0.0011,-14.71,2.03,-38.21,190.54,1.04,-1.39
648,52.179127,-1.879338,72,21.22,12.0,192.8,,14 / 24,64845,2019-08-16 11:30:29:214,-0.3745,0.13,10.6035,-0.077,-0.0065,9.8063,0.0042,-0.0193,0.0032,-14.71,1.65,-37.4,190.56,0.59,-1.34
649,52.179127,-1.879338,72,21.22,12.0,192.8,,14 / 24,64946,2019-08-16 11:30:29:315,-0.0934,-0.3363,8.1126,0.0035,0.0045,9.8066,0.0191,-0.0725,0.0053,-14.71,1.65,-37.4,190.56,0.59,-1.34
650,52.179127,-1.879338,72,21.22,12.0,192.8,,14 / 24,65045,2019-08-16 11:30:29:414,-0.2458,0.2043,8.8828,0.0002,0.0027,9.8067,-0.0182,-0.0342,-0.0362,-14.71,2.03,-37.77,190.57,0.61,-1.32
651,52.179127,-1.879338,72,21.22,12.0,192.8,,14 / 24,65145,2019-08-16 11:30:29:514,-0.1787,0.2993,9.4808,0.0509,-0.0191,9.8065,0.0117,0.0084,-0.033,-15.08,2.03,-38.21,190.57,0.61,-1.32
652,52.17892,-1.879441,73,21.74,11.0,193.7,,14 / 24,65245,2019-08-16 11:30:29:614,0.4211,-0.5171,9.8368,0.0988,-0.009,9.8061,0.001,0.0052,0.0064,-13.96,2.03,-37.77,191.4,1.17,-1.48
653,52.17892,-1.879441,73,21.74,11.0,193.7,,14 / 24,65345,2019-08-16 11:30:29:714,0.2505,-0.0069,9.4231,0.0149,0.0021,9.8066,0.001,0.0052,0.0064,-13.96,2.03,-37.77,191.4,1.17,-1.48
654,52.17892,-1.879441,73,21.74,11.0,193.7,,14 / 24,65446,2019-08-16 11:30:29:815,0.1168,0.1116,10.1149,-0.0086,-0.0003,9.8066,-0.0395,0.0233,0.0053,-14.33,1.65,-37.34,191.33,1.12,-1.47
655,52.17892,-1.879441,73,21.74,11.0,193.7,,14 / 24,65545,2019-08-16 11:30:29:914,-0.2158,0.0297,10.6172,-0.0871,-0.0062,9.8063,-0.0139,0.0553,0.0128,-15.08,1.28,-37.34,191.33,1.12,-1.47
656,52.17892,-1.879441,73,21.74,11.0,193.7,,14 / 24,65645,2019-08-16 11:30:30:014,-0.2083,0.2113,10.4894,-0.0094,0.0164,9.8066,0.0191,-0.0278,-0.0107,-14.71,2.03,-37.34,190.69,0.61,-1.41
657,52.17892,-1.879441,73,21.74,11.0,193.7,,14 / 24,65745,2019-08-16 11:30:30:114,-0.0224,0.3445,9.189,0.0096,0.0383,9.8066,0.0575,-0.0054,-0.0075,-15.08,2.03,-36.52,190.69,0.61,-1.41
658,52.17892,-1.879441,73,21.74,11.0,193.7,,14 / 24,65845,2019-08-16 11:30:30:214,-0.095,0.2379,10.4528,0.0354,0.0518,9.8065,-0.0299,-0.0161,-0.0032,-15.08,2.03,-36.52,190.69,0.61,-1.41
659,52.17892,-1.879441,73,21.74,11.0,193.7,,14 / 24,65945,2019-08-16 11:30:30:314,0.4375,-0.2896,9.0418,0.0321,0.0026,9.8066,-0.0565,-0.0438,0.0,-14.33,2.03,-36.96,190.66,0.87,-1.15
660,52.17892,-1.879441,73,21.74,11.0,193.7,,14 / 24,66045,2019-08-16 11:30:30:414,-0.1181,-0.3465,9.83,0.0398,-0.0056,9.8066,0.0394,-0.0107,-0.0032,-14.71,2.03,-36.52,190.07,1.1,-1.22
661,52.17892,-1.879441,73,21.74,11.0,193.7,,14 / 24,66145,2019-08-16 11:30:30:514,-0.6824,0.8449,11.4077,-0.0137,0.0076,9.8066,0.0394,-0.0107,-0.0032,-14.71,2.03,-36.52,190.07,1.1,-1.22
662,52.178726,-1.879534,73,21.8,11.0,194.1,,14 / 24,66245,2019-08-16 11:30:30:614,-0.3377,0.382,10.82,-0.0123,0.0161,9.8066,0.0085,0.0425,-0.0043,-14.71,2.03,-36.52,190.07,1.1,-1.22
663,52.178726,-1.879534,73,21.8,11.0,194.1,,14 / 24,66345,2019-08-16 11:30:30:714,-0.2703,0.6426,10.3707,-0.0274,0.0248,9.8066,0.0149,0.0692,0.0011,-14.33,1.65,-36.96,190.38,0.96,-1.05
664,52.178726,-1.879534,73,21.8,11.0,194.1,,14 / 24,66445,2019-08-16 11:30:30:814,0.0478,-0.0733,9.045,-0.0011,0.0018,9.8067,-0.0001,0.0404,-0.0192,-14.33,2.4,-36.15,190.38,0.96,-1.05
665,52.178726,-1.879534,73,21.8,11.0,194.1,,14 / 24,66545,2019-08-16 11:30:30:914,0.2655,-0.1941,10.0605,-0.0097,0.0091,9.8066,0.0244,-0.0534,-0.016,-14.33,2.4,-36.15,190.3,0.96,-1.04
666,52.178726,-1.879534,73,21.8,11.0,194.1,,14 / 24,66646,2019-08-16 11:30:31:015,-0.0101,-0.198,11.1171,0.0068,0.0104,9.8066,0.0095,0.0106,-0.0043,-14.33,2.4,-36.15,190.3,0.96,-1.04
667,52.178726,-1.879534,73,21.8,11.0,194.1,,14 / 24,66745,2019-08-16 11:30:31:114,0.1926,-0.4234,11.0289,-0.0053,0.0075,9.8066,0.0202,0.0649,-0.0064,-12.9,2.03,-37.84,190.99,1.01,-0.99
668,52.178726,-1.879534,73,21.8,11.0,194.1,,14 / 24,66845,2019-08-16 11:30:31:214,0.3533,0.0213,9.5064,-0.0103,0.0005,9.8066,0.0202,0.0649,-0.0064,-15.46,2.03,-35.34,189.37,0.99,-0.94
669,52.178726,-1.879534,73,21.8,11.0,194.1,,14 / 24,66945,2019-08-16 11:30:31:314,0.262,-0.1748,9.0991,-0.0163,-0.0004,9.8066,0.0191,0.0468,-0.0064,-14.71,2.03,-35.34,189.37,0.99,-0.94
670,52.178726,-1.879534,73,21.8,11.0,194.1,,14 / 24,67046,2019-08-16 11:30:31:415,0.3101,-0.082,9.2267,0.0045,0.008,9.8066,0.0021,-0.0427,0.0053,-14.71,2.03,-35.34,189.37,0.99,-0.94
671,52.178726,-1.879534,73,21.8,11.0,194.1,,14 / 24,67145,2019-08-16 11:30:31:514,-0.006,0.2974,10.6032,0.0159,0.0094,9.8066,0.0085,-0.064,-0.0021,-13.96,1.65,-34.52,189.88,1.02,-0.9
672,52.17853,-1.879655,72,22.18,12.0,194.7,,14 / 24,67245,2019-08-16 11:30:31:614,-0.2628,0.3207,10.1075,0.009,0.0048,9.8066,-0.0512,0.0457,-0.0085,-12.9,2.78,-34.09,194.48,1.08,-0.88
673,52.17853,-1.879655,72,22.18,12.0,194.7,,14 / 24,67345,2019-08-16 11:30:31:714,-0.649,0.6001,11.2083,-0.0118,-0.0158,9.8066,0.0042,0.0425,-0.0053,-12.9,2.78,-34.09,194.48,1.08,-0.88
674,52.17853,-1.879655,72,22.18,12.0,194.7,,14 / 24,67446,2019-08-16 11:30:31:815,0.0957,-0.4144,9.5081,-0.0155,-0.0128,9.8066,0.0042,0.0351,-0.0266,-12.15,3.84,-30.77,199.81,0.99,-0.95
675,52.17853,-1.879655,72,22.18,12.0,194.7,,14 / 24,67545,2019-08-16 11:30:31:914,-0.1693,0.3049,9.9426,-0.0049,-0.0351,9.8066,-0.0278,-0.0629,-0.0043,-11.4,6.47,-27.9,209.82,0.89,-1.13
676,52.17853,-1.879655,72,22.18,12.0,194.7,,14 / 24,67646,2019-08-16 11:30:32:015,-0.0899,0.1113,9.331,0.0126,0.0001,9.8066,0.0127,-0.0384,-0.0075,-13.27,7.15,-26.21,209.82,0.89,-1.13
677,52.17853,-1.879655,72,22.18,12.0,194.7,,14 / 24,67745,2019-08-16 11:30:32:114,-0.1305,0.1986,9.67,0.0173,0.0052,9.8066,0.0127,-0.0384,-0.0075,-13.27,7.15,-26.21,209.82,0.89,-1.13
678,52.17853,-1.879655,72,22.18,12.0,194.7,,14 / 24,67846,2019-08-16 11:30:32:215,0.1706,-0.3379,9.3546,0.0251,-0.0176,9.8066,-0.0171,-0.0289,-0.0266,-17.65,6.47,-31.59,199.71,0.99,-1.16
679,52.17853,-1.879655,72,22.18,12.0,194.7,,14 / 24,67945,2019-08-16 11:30:32:314,-0.057,-0.2062,9.7214,0.0241,-0.0177,9.8066,0.0095,0.0415,-0.0202,-14.71,7.53,-38.59,209.45,1.09,-1.3
680,52.17853,-1.879655,72,22.18,12.0,194.7,,14 / 24,68045,2019-08-16 11:30:32:414,0.7654,-0.684,8.5905,0.0039,-0.0138,9.8066,0.0564,0.0958,-0.0277,-11.4,8.28,-38.96,209.45,1.09,-1.3
681,52.17853,-1.879655,72,22.18,12.0,194.7,,14 / 24,68145,2019-08-16 11:30:32:514,0.6418,-0.254,8.0165,0.0266,-0.0255,9.8066,-0.0373,-0.0374,-0.0213,-12.15,8.28,-36.9,215.16,1.15,-1.51
682,52.178337,-1.879728,72,21.55,11.0,194.8,,14 / 24,68245,2019-08-16 11:30:32:614,0.6118,-0.4247,10.4014,0.0116,-0.0184,9.8066,-0.0544,-0.0257,0.0,-12.15,8.28,-36.9,215.16,1.15,-1.51
683,52.178337,-1.879728,72,21.55,11.0,194.8,,14 / 24,68345,2019-08-16 11:30:32:714,0.2933,-0.117,10.3729,0.0252,-0.0469,9.8065,0.001,0.0617,0.0032,-15.08,5.34,-35.71,201.36,1.12,-1.82
684,52.178337,-1.879728,72,21.55,11.0,194.8,,14 / 24,68445,2019-08-16 11:30:32:814,0.1616,-0.506,10.6768,-0.0205,-0.0168,9.8066,0.0671,0.0489,-0.0352,-15.08,5.34,-35.71,201.36,1.12,-1.82
685,52.178337,-1.879728,72,21.55,11.0,194.8,,14 / 24,68545,2019-08-16 11:30:32:914,0.0189,-0.0873,10.4386,-0.0341,-0.012,9.8066,0.0671,0.0489,-0.0352,-16.52,3.53,-35.71,196.37,0.97,-1.87
686,52.178337,-1.879728,72,21.55,11.0,194.8,,14 / 24,68645,2019-08-16 11:30:33:014,-0.001,0.0377,9.4411,-0.0419,-0.0154,9.8065,0.0351,-0.0054,-0.0341,-16.21,2.78,-35.65,194.27,0.71,-1.88
687,52.178337,-1.879728,72,21.55,11.0,194.8,,14 / 24,68745,2019-08-16 11:30:33:114,0.1927,-0.1214,8.5215,0.0183,0.0107,9.8066,0.0021,-0.1109,-0.016,-16.21,2.78,-35.65,194.27,0.71,-1.88
688,52.178337,-1.879728,72,21.55,11.0,194.8,,14 / 24,68845,2019-08-16 11:30:33:214,0.2517,-0.1558,8.4582,0.066,0.0196,9.8064,-0.016,-0.0832,-0.0149,-15.08,2.4,-36.52,191.61,0.83,-1.85
689,52.178337,-1.879728,72,21.55,11.0,194.8,,14 / 24,68945,2019-08-16 11:30:33:314,0.1771,-0.0161,8.9038,0.0039,0.0047,9.8066,0.0095,-0.0757,-0.0213,-14.33,2.03,-37.34,192.1,1.23,-1.81
690,52.178337,-1.879728,72,21.55,11.0,194.8,,14 / 24,69046,2019-08-16 11:30:33:415,-0.2743,0.2659,10.1748,-0.0075,-0.0001,9.8066,0.0212,0.0489,-0.016,-14.71,2.03,-38.59,191.48,1.26,-1.79
691,52.178337,-1.879728,72,21.55,11.0,194.8,,14 / 24,69146,2019-08-16 11:30:33:515,-0.3926,0.2018,9.227,-0.0377,-0.0193,9.8066,0.0127,0.0819,-0.032,-14.71,2.03,-38.59,191.48,1.26,-1.79
692,52.178143,-1.87983,72,22.13,11.0,195.4,,14 / 24,69245,2019-08-16 11:30:33:614,-0.4956,0.4901,10.1455,-0.0196,-0.0081,9.8066,0.0149,-0.0001,0.0075,-15.46,2.78,-36.96,195.01,1.02,-1.86
693,52.178143,-1.87983,72,22.13,11.0,195.4,,14 / 24,69345,2019-08-16 11:30:33:714,-0.0259,-0.1706,9.6317,0.0007,-0.0036,9.8067,0.0149,-0.0001,0.0075,-15.46,2.4,-37.77,191.75,0.9,-1.87
694,52.178143,-1.87983,72,22.13,11.0,195.4,,14 / 24,69445,2019-08-16 11:30:33:814,-0.0669,0.3308,9.3599,0.0109,0.0013,9.8066,-0.0384,-0.0321,0.0,-15.08,2.4,-38.15,191.73,0.96,-1.88
695,52.178143,-1.87983,72,22.13,11.0,195.4,,14 / 24,69545,2019-08-16 11:30:33:914,-0.3606,0.4969,10.0472,-0.0016,0.0048,9.8067,0.0244,-0.0001,0.0043,-15.08,2.4,-38.15,191.73,0.96,-1.88
696,52.178143,-1.87983,72,22.13,11.0,195.4,,14 / 24,69646,2019-08-16 11:30:34:015,-0.3431,0.3276,9.6266,-0.0022,0.0328,9.8066,0.0234,0.0415,-0.0362,-15.08,2.4,-36.96,191.18,0.98,-1.69
697,52.178143,-1.87983,72,22.13,11.0,195.4,,14 / 24,69746,2019-08-16 11:30:34:115,-0.0469,0.4881,9.6682,-0.0022,0.0148,9.8066,0.0202,0.0276,-0.0064,-14.71,2.03,-36.96,191.09,1.05,-1.66
698,52.178143,-1.87983,72,22.13,11.0,195.4,,14 / 24,69845,2019-08-16 11:30:34:214,0.2229,-0.2451,8.6289,-0.0177,0.0132,9.8066,-0.0118,0.0351,-0.0021,-14.33,2.4,-37.77,191.7,1.06,-1.57
699,52.178143,-1.87983,72,22.13,11.0,195.4,,14 / 24,69945,2019-08-16 11:30:34:314,0.135,0.4097,8.7903,-0.0208,0.0318,9.8066,-0.0448,0.0191,0.0384,-14.71,2.4,-38.59,191.7,1.06,-1.57
700,52.178143,-1.87983,72,22.13,11.0,195.4,,14 / 24,70045,2019-08-16 11:30:34:414,0.3286,-0.0052,9.8277,-0.0248,0.0462,9.8065,0.0191,0.0585,-0.0213,-14.33,2.03,-38.15,191.01,0.97,-1.28
701,52.178143,-1.87983,72,22.13,11.0,195.4,,14 / 24,70145,2019-08-16 11:30:34:514,0.1047,0.093,10.2422,0.0098,-0.0093,9.8066,-0.0086,0.0297,-0.0234,-14.33,2.03,-38.15,191.01,0.97,-1.28
702,52.177963,-1.879921,72,22.32,11.0,195.6,,14 / 24,70245,2019-08-16 11:30:34:614,0.17,-0.2679,9.9212,0.0022,-0.0011,9.8066,-0.0086,0.0297,-0.0234,-14.71,2.4,-37.77,190.45,1.02,-1.34
703,52.177963,-1.879921,72,22.32,11.0,195.6,,14 / 24,70346,2019-08-16 11:30:34:715,-0.1144,0.3065,10.0941,-0.0302,0.0045,9.8066,-0.0033,0.0265,0.0149,-14.71,2.03,-37.34,190.32,0.85,-1.29
704,52.177963,-1.879921,72,22.32,11.0,195.6,,14 / 24,70446,2019-08-16 11:30:34:815,0.766,-0.2459,9.6404,-0.0002,0.0132,9.8066,-0.0022,-0.1024,-0.0128,-14.71,2.03,-37.34,190.32,0.85,-1.29
705,52.177963,-1.879921,72,22.32,11.0,195.6,,14 / 24,70545,2019-08-16 11:30:34:914,-0.0217,0.3744,9.995,0.023,0.0143,9.8066,0.0095,-0.0768,-0.0298,-14.71,2.03,-37.77,190.2,0.86,-1.21
706,52.177963,-1.879921,72,22.32,11.0,195.6,,14 / 24,70646,2019-08-16 11:30:35:015,0.319,-0.0113,8.4257,-0.0069,0.0062,9.8066,-0.0341,0.0287,0.0075,-14.33,2.03,-38.15,190.63,1.16,-1.16
707,52.177963,-1.879921,72,22.32,11.0,195.6,,14 / 24,70745,2019-08-16 11:30:35:114,0.73,-0.3346,8.9759,-0.0247,0.0149,9.8066,0.0031,0.0905,-0.0011,-14.33,2.03,-38.15,190.63,1.16,-1.16
708,52.177963,-1.879921,72,22.32,11.0,195.6,,14 / 24,70845,2019-08-16 11:30:35:214,-0.0549,0.4373,10.3554,0.0044,-0.0204,9.8066,0.017,-0.0299,-0.0032,-14.71,2.4,-37.34,189.71,1.03,-1.05
709,52.177963,-1.879921,72,22.32,11.0,195.6,,14 / 24,70945,2019-08-16 11:30:35:314,0.0755,0.0099,9.4305,0.015,-0.0184,9.8066,-0.031,0.0308,0.0032,-14.71,2.4,-37.77,190.04,1.04,-1.17
710,52.177963,-1.879921,72,22.32,11.0,195.6,,14 / 24,71045,2019-08-16 11:30:35:414,0.124,-0.0363,9.6313,-0.0073,-0.0253,9.8066,-0.031,0.0308,0.0032,-14.71,2.03,-38.59,190.47,0.97,-1.31
711,52.177963,-1.879921,72,22.32,11.0,195.6,,14 / 24,71146,2019-08-16 11:30:35:515,-0.2364,-0.1426,8.4325,-0.0273,-0.004,9.8066,0.0383,0.067,-0.0032,-15.08,2.4,-37.34,190.47,0.97,-1.31
712,52.177757,-1.880001,73,22.61,11.0,195.6,,14 / 24,71246,2019-08-16 11:30:35:615,0.1501,0.0819,8.4229,-0.0037,-0.0063,9.8066,0.0298,0.0351,-0.0266,-15.08,2.4,-37.34,190.47,0.97,-1.31
713,52.177757,-1.880001,73,22.61,11.0,195.6,,14 / 24,71345,2019-08-16 11:30:35:714,0.0219,0.1513,8.4733,0.0372,0.0071,9.8066,-0.0096,-0.0512,0.0107,-14.71,1.65,-38.15,190.49,0.94,-1.34
714,52.177757,-1.880001,73,22.61,11.0,195.6,,14 / 24,71445,2019-08-16 11:30:35:814,-0.1084,0.5899,10.2421,0.048,0.0102,9.8065,-0.0597,-0.0182,-0.0043,-14.71,2.4,-37.77,190.35,1.23,-1.34
715,52.177757,-1.880001,73,22.61,11.0,195.6,,14 / 24,71545,2019-08-16 11:30:35:914,-0.3896,0.1556,10.1876,-0.0264,0.0118,9.8066,0.0276,0.017,0.0021,-14.71,2.4,-37.77,190.35,1.23,-1.34
716,52.177757,-1.880001,73,22.61,11.0,195.6,,14 / 24,71646,2019-08-16 11:30:36:015,-0.3628,0.1086,9.7267,-0.0126,0.0094,9.8066,0.0276,0.017,0.0021,-15.08,2.4,-38.15,190.18,1.09,-1.24
717,52.177757,-1.880001,73,22.61,11.0,195.6,,14 / 24,71745,2019-08-16 11:30:36:114,-0.353,0.3634,9.3014,-0.0031,0.0084,9.8066,0.0117,0.0287,-0.0043,-14.71,2.4,-37.34,189.99,1.03,-1.17
718,52.177757,-1.880001,73,22.61,11.0,195.6,,14 / 24,71845,2019-08-16 11:30:36:214,0.2536,-0.1341,9.3149,-0.0051,0.0084,9.8066,-0.0203,-0.0278,0.0245,-14.71,2.78,-37.34,193.39,1.0,-1.12
719,52.177757,-1.880001,73,22.61,11.0,195.6,,14 / 24,71945,2019-08-16 11:30:36:314,0.1218,-0.5482,8.9527,0.0005,-0.02,9.8066,0.0031,-0.0257,0.0309,-14.71,2.78,-37.34,193.39,1.0,-1.12
720,52.177757,-1.880001,73,22.61,11.0,195.6,,14 / 24,72045,2019-08-16 11:30:36:414,-0.5607,0.2915,10.6252,-0.0247,0.0185,9.8066,-0.0107,0.0201,0.0064,-13.96,2.78,-36.9,194.55,0.98,-1.24
721,52.177757,-1.880001,73,22.61,11.0,195.6,,14 / 24,72145,2019-08-16 11:30:36:514,-0.4222,0.5883,9.7494,-0.036,0.0456,9.8065,0.0308,0.0393,-0.0011,-13.58,3.15,-37.34,194.55,0.98,-1.24
722,52.177544,-1.880103,74,22.85,11.0,195.7,,14 / 24,72245,2019-08-16 11:30:36:614,0.2742,0.2708,7.7718,-0.0352,0.0776,9.8063,-0.0704,-0.0193,0.0128,-13.58,2.03,-38.96,189.74,0.9,-0.74
723,52.177544,-1.880103,74,22.85,11.0,195.7,,14 / 24,72345,2019-08-16 11:30:36:714,-0.1663,0.672,9.7573,0.0339,0.0089,9.8066,-0.0299,-0.1056,-0.0096,-13.58,2.03,-38.96,189.74,0.9,-0.74
724,52.177544,-1.880103,74,22.85,11.0,195.7,,14 / 24,72445,2019-08-16 11:30:36:814,0.0061,0.1051,10.4559,0.0578,0.0058,9.8065,-0.0299,-0.1056,-0.0096,-13.58,1.72,-37.27,189.58,1.23,-0.77
725,52.177544,-1.880103,74,22.85,11.0,195.7,,14 / 24,72545,2019-08-16 11:30:36:914,-0.1671,0.1394,10.9138,-0.0093,-0.0136,9.8066,-0.0022,0.0564,-0.0138,-13.58,1.34,-37.71,185.93,1.21,-0.81
726,52.177544,-1.880103,74,22.85,11.0,195.7,,14 / 24,72645,2019-08-16 11:30:37:014,0.1559,-0.5541,9.5564,-0.0361,-0.0366,9.8065,0.0468,0.0287,-0.0405,-13.58,1.34,-37.71,185.93,1.21,-0.81
727,52.177544,-1.880103,74,22.85,11.0,195.7,,14 / 24,72746,2019-08-16 11:30:37:115,-0.0203,-0.0495,10.632,0.0017,-0.0264,9.8066,-0.0597,0.001,-0.0181,-14.33,0.97,-37.34,186.42,0.98,-1.0
728,52.177544,-1.880103,74,22.85,11.0,195.7,,14 / 24,72845,2019-08-16 11:30:37:214,-0.1264,-0.3322,9.0607,-0.0106,-0.0087,9.8066,0.001,0.0074,-0.0032,-14.71,0.97,-37.34,186.37,0.97,-1.15
729,52.177544,-1.880103,74,22.85,11.0,195.7,,14 / 24,72945,2019-08-16 11:30:37:314,0.1195,-0.287,9.8691,-0.0183,-0.0004,9.8066,0.0095,-0.0012,0.0021,-14.71,1.34,-37.34,186.38,0.87,-1.15
730,52.177544,-1.880103,74,22.85,11.0,195.7,,14 / 24,73046,2019-08-16 11:30:37:415,0.0047,0.1817,10.017,0.0143,0.0087,9.8066,0.0181,-0.0065,-0.0117,-14.71,1.34,-37.34,186.38,0.87,-1.15
731,52.177544,-1.880103,74,22.85,11.0,195.7,,14 / 24,73145,2019-08-16 11:30:37:514,0.1903,0.0844,9.717,0.0225,-0.0008,9.8066,0.0127,-0.0203,-0.0043,-14.71,1.65,-38.15,189.91,0.96,-1.1
732,52.177334,-1.880207,74,23.05,11.0,196.0,,14 / 24,73245,2019-08-16 11:30:37:614,0.5018,-0.6235,9.1943,0.0472,0.0093,9.8065,0.0127,-0.0203,-0.0043,-14.71,1.34,-38.52,189.91,0.96,-1.1
733,52.177334,-1.880207,74,23.05,11.0,196.0,,14 / 24,73345,2019-08-16 11:30:37:714,0.0115,0.3147,9.8149,0.0022,0.0022,9.8067,0.0053,-0.0161,-0.0149,-15.08,1.65,-38.15,189.79,1.24,-1.1
734,52.177334,-1.880207,74,23.05,11.0,196.0,,14 / 24,73445,2019-08-16 11:30:37:814,-0.0642,0.4687,10.0096,-0.0059,-0.0245,9.8066,-0.0618,0.0553,0.0032,-14.71,2.03,-38.09,190.12,1.18,-1.23
735,52.177334,-1.880207,74,23.05,11.0,196.0,,14 / 24,73545,2019-08-16 11:30:37:914,-0.1529,0.3069,9.8883,0.01,0.0003,9.8066,0.0671,0.0468,-0.017,-14.71,2.03,-38.09,190.12,1.18,-1.23
736,52.177334,-1.880207,74,23.05,11.0,196.0,,14 / 24,73645,2019-08-16 11:30:38:014,-0.1978,0.0988,8.79,0.0157,0.0062,9.8066,0.0117,0.0617,-0.017,-14.71,1.34,-38.09,186.5,1.28,-1.21
737,52.177334,-1.880207,74,23.05,11.0,196.0,,14 / 24,73745,2019-08-16 11:30:38:114,-0.2628,0.0511,9.6653,-0.0552,0.0005,9.8065,0.0255,-0.0171,0.0096,-14.71,1.65,-38.15,186.5,1.28,-1.21
738,52.177334,-1.880207,74,23.05,11.0,196.0,,14 / 24,73845,2019-08-16 11:30:38:214,-0.6093,0.2841,9.5556,0.0156,0.0023,9.8066,0.0106,-0.047,0.0245,-14.71,2.03,-37.71,190.08,0.96,-1.17
739,52.177334,-1.880207,74,23.05,11.0,196.0,,14 / 24,73946,2019-08-16 11:30:38:315,-0.332,0.0464,9.2059,0.0568,0.0082,9.8065,0.0074,0.0351,-0.0107,-14.71,2.03,-37.71,190.08,0.96,-1.17
740,52.177334,-1.880207,74,23.05,11.0,196.0,,14 / 24,74045,2019-08-16 11:30:38:414,-0.1889,0.0357,9.928,0.0327,0.0,9.8066,0.0074,0.0351,-0.0107,-14.33,2.03,-38.52,190.68,1.29,-1.19
741,52.177334,-1.880207,74,23.05,11.0,196.0,,14 / 24,74145,2019-08-16 11:30:38:514,0.1649,-0.3047,8.9591,0.0373,-0.0037,9.8066,-0.0054,0.05,-0.0107,-14.33,2.03,-38.15,190.68,1.29,-1.19
742,52.17712,-1.880324,75,23.23,11.0,196.6,,14 / 24,74245,2019-08-16 11:30:38:614,-0.0175,-0.1408,9.466,0.0219,-0.0018,9.8066,0.0159,0.0148,0.0085,-14.71,2.03,-38.09,190.0,1.41,-1.22
743,52.17712,-1.880324,75,23.23,11.0,196.6,,14 / 24,74345,2019-08-16 11:30:38:714,-0.6592,0.7195,10.7038,-0.0017,-0.001,9.8067,0.0085,-0.0683,-0.016,-14.71,2.4,-37.27,190.0,1.41,-1.22
744,52.17712,-1.880324,75,23.23,11.0,196.6,,14 / 24,74445,2019-08-16 11:30:38:814,0.4251,-0.2949,9.9354,-0.0134,0.0003,9.8066,-0.0235,0.0361,0.0085,-14.71,2.4,-37.27,190.0,1.41,-1.22
745,52.17712,-1.880324,75,23.23,11.0,196.6,,14 / 24,74545,2019-08-16 11:30:38:914,-0.416,-0.0237,10.3402,-0.0143,-0.0057,9.8066,0.0149,0.0052,-0.017,-14.33,2.4,-37.34,190.43,1.44,-1.16
746,52.17712,-1.880324,75,23.23,11.0,196.6,,14 / 24,74645,2019-08-16 11:30:39:014,0.3547,-0.3507,9.7771,-0.0588,0.0045,9.8065,-0.0278,0.0457,0.0224,-14.33,2.03,-38.09,190.43,1.44,-1.16
747,52.17712,-1.880324,75,23.23,11.0,196.6,,14 / 24,74745,2019-08-16 11:30:39:114,0.1575,-0.2279,9.8274,-0.0774,-0.0109,9.8063,-0.0746,-0.0033,0.0,-15.08,2.03,-38.09,189.98,0.99,-1.14
748,52.17712,-1.880324,75,23.23,11.0,196.6,,14 / 24,74845,2019-08-16 11:30:39:214,0.4346,-0.4609,8.9903,-0.0036,-0.0071,9.8066,-0.0746,-0.0033,0.0,-15.08,2.03,-38.09,189.98,0.99,-1.14
749,52.17712,-1.880324,75,23.23,11.0,196.6,,14 / 24,74945,2019-08-16 11:30:39:314,0.1916,-0.2406,9.9263,0.029,-0.0154,9.8066,0.0234,0.001,0.0075,-14.71,2.03,-37.34,190.02,0.96,-1.18
750,52.17712,-1.880324,75,23.23,11.0,196.6,,14 / 24,75045,2019-08-16 11:30:39:414,0.7391,-0.2424,9.2696,0.0605,-0.0067,9.8065,0.0021,-0.0278,-0.0064,-14.71,2.4,-38.09,190.02,0.96,-1.18
751,52.17712,-1.880324,75,23.23,11.0,196.6,,14 / 24,75145,2019-08-16 11:30:39:514,0.2532,0.0868,9.4868,0.0951,0.0293,9.8061,0.0149,-0.047,0.0032,-14.33,2.4,-37.71,190.32,1.54,-1.11
752,52.176884,-1.880444,76,23.88,11.0,196.9,,14 / 24,75245,2019-08-16 11:30:39:614,0.056,0.0946,10.7112,0.0199,0.0077,9.8066,-0.0363,0.0478,-0.0213,-13.96,2.78,-37.34,190.32,1.54,-1.11
753,52.176884,-1.880444,76,23.88,11.0,196.9,,14 / 24,75345,2019-08-16 11:30:39:714,0.5906,-0.4303,8.9839,0.0238,-0.0171,9.8066,0.0298,0.0255,0.0032,-13.96,2.03,-38.52,190.62,1.66,-1.23
754,52.176884,-1.880444,76,23.88,11.0,196.9,,14 / 24,75445,2019-08-16 11:30:39:814,-0.1525,-0.2682,10.4602,-0.0221,-0.0114,9.8066,0.0298,0.0255,0.0032,-13.96,2.03,-38.52,190.62,1.66,-1.23
755,52.176884,-1.880444,76,23.88,11.0,196.9,,14 / 24,75545,2019-08-16 11:30:39:914,-0.343,-0.2028,10.9228,-0.0376,0.0122,9.8066,0.0255,-0.0683,-0.0085,-14.71,2.4,-38.09,189.88,1.37,-1.16
756,52.176884,-1.880444,76,23.88,11.0,196.9,,14 / 24,75645,2019-08-16 11:30:40:014,0.4219,-0.3489,9.45,-0.0052,0.0149,9.8066,0.05,-0.0022,0.0085,-14.71,2.78,-37.71,193.2,1.16,-1.05
757,52.176884,-1.880444,76,23.88,11.0,196.9,,14 / 24,75745,2019-08-16 11:30:40:114,-0.1514,-0.3117,10.6091,0.0036,0.0157,9.8066,0.0159,0.0276,0.0298,-14.71,2.4,-37.27,189.45,1.16,-0.96
758,52.176884,-1.880444,76,23.88,11.0,196.9,,14 / 24,75846,2019-08-16 11:30:40:215,-0.084,-0.1864,10.177,0.0204,0.0071,9.8066,-0.031,0.0755,-0.0075,-14.33,2.4,-37.71,189.45,1.16,-0.96
759,52.176884,-1.880444,76,23.88,11.0,196.9,,14 / 24,75945,2019-08-16 11:30:40:314,0.0069,-0.0052,9.5709,0.0476,-0.0058,9.8065,0.0063,-0.0225,0.0043,-14.33,2.78,-37.71,193.88,1.42,-1.04
760,52.176884,-1.880444,76,23.88,11.0,196.9,,14 / 24,76045,2019-08-16 11:30:40:414,-0.1861,0.1122,9.4459,0.01,-0.0023,9.8066,-0.0544,-0.0193,0.0096,-14.33,2.78,-37.71,193.88,1.42,-1.04
761,52.176884,-1.880444,76,23.88,11.0,196.9,,14 / 24,76145,2019-08-16 11:30:40:514,-0.3499,0.0702,10.2342,0.004,-0.0219,9.8066,0.0053,-0.0107,0.0011,-14.71,2.03,-37.71,189.62,1.48,-1.07
762,52.176666,-1.880585,76,24.04,11.0,197.4,,15 / 24,76245,2019-08-16 11:30:40:614,-0.2,0.1876,9.1194,0.0073,-0.027,9.8066,0.0053,-0.0107,0.0011,-14.33,2.78,-37.27,189.62,1.48,-1.07
763,52.176666,-1.880585,76,24.04,11.0,197.4,,15 / 24,76345,2019-08-16 11:30:40:714,-0.3286,0.0897,10.3063,0.0057,-0.0381,9.8066,0.0394,0.0446,-0.0011,-14.71,2.03,-37.71,190.14,1.47,-1.29
764,52.176666,-1.880585,76,24.04,11.0,197.4,,15 / 24,76445,2019-08-16 11:30:40:814,-0.2633,-0.1241,10.7185,0.004,0.013,9.8066,0.0159,0.0297,-0.0053,-14.71,2.03,-37.71,190.14,1.47,-1.29
765,52.176666,-1.880585,76,24.04,11.0,197.4,,15 / 24,76545,2019-08-16 11:30:40:914,-0.0829,0.0352,10.303,-0.0028,0.0108,9.8066,-0.0128,0.017,-0.0064,-14.33,2.4,-37.34,190.56,1.51,-1.22
766,52.176666,-1.880585,76,24.04,11.0,197.4,,15 / 24,76645,2019-08-16 11:30:41:014,-0.0604,-0.3631,10.628,0.0156,0.0021,9.8066,-0.0022,-0.1109,-0.0234,-14.33,2.4,-37.34,190.56,1.51,-1.22
767,52.176666,-1.880585,76,24.04,11.0,197.4,,15 / 24,76745,2019-08-16 11:30:41:114,-0.1358,-0.2484,9.3098,-0.0252,0.0085,9.8066,0.0042,0.0393,0.0309,-14.33,2.4,-37.71,190.59,1.6,-1.23
768,52.176666,-1.880585,76,24.04,11.0,197.4,,15 / 24,76845,2019-08-16 11:30:41:214,0.0617,-0.4563,8.9625,-0.0241,0.003,9.8066,0.0042,-0.1066,-0.0298,-14.33,2.4,-37.27,190.4,1.47,-1.15
769,52.176666,-1.880585,76,24.04,11.0,197.4,,15 / 24,76945,2019-08-16 11:30:41:314,-0.1563,0.2634,9.8454,-0.0177,0.0129,9.8066,0.0042,-0.1066,-0.0298,-14.33,2.03,-37.71,190.27,1.38,-1.06
770,52.176666,-1.880585,76,24.04,11.0,197.4,,15 / 24,77045,2019-08-16 11:30:41:414,-0.049,-0.3626,9.5821,0.015,-0.0264,9.8066,-0.0597,-0.0214,0.0085,-14.33,2.4,-37.34,190.27,1.38,-1.06
771,52.176666,-1.880585,76,24.04,11.0,197.4,,15 / 24,77145,2019-08-16 11:30:41:514,0.6354,-0.5407,9.2559,0.0222,-0.0214,9.8066,0.0244,-0.0075,0.017,-14.33,2.4,-37.34,190.27,1.38,-1.06
772,52.176456,-1.880701,76,24.06,11.0,197.9,,15 / 24,77245,2019-08-16 11:30:41:614,0.4494,-0.3474,9.7106,-0.0063,0.0183,9.8066,0.0532,0.034,-0.0096,-14.33,2.4,-37.27,190.53,1.48,-1.21
773,52.176456,-1.880701,76,24.06,11.0,197.9,,15 / 24,77345,2019-08-16 11:30:41:714,0.3011,0.4552,9.2885,0.0133,0.0232,9.8066,0.0159,0.0052,0.0117,-14.33,2.4,-38.09,190.16,1.38,-1.01
774,52.176456,-1.880701,76,24.06,11.0,197.9,,15 / 24,77445,2019-08-16 11:30:41:814,0.3302,-0.1133,10.1173,0.0244,0.0119,9.8066,-0.0064,-0.064,0.0085,-14.33,2.4,-38.09,190.16,1.38,-1.01
775,52.176456,-1.880701,76,24.06,11.0,197.9,,15 / 24,77545,2019-08-16 11:30:41:914,0.4847,-0.2919,9.434,0.0123,-0.0104,9.8066,-0.0416,-0.0225,-0.0213,-14.33,3.15,-37.71,193.64,1.53,-0.97
776,52.176456,-1.880701,76,24.06,11.0,197.9,,15 / 24,77645,2019-08-16 11:30:42:014,-0.078,0.1756,10.1653,0.0566,-0.0143,9.8065,-0.0416,-0.0225,-0.0213,-14.33,2.4,-37.71,193.64,1.53,-0.97
777,52.176456,-1.880701,76,24.06,11.0,197.9,,15 / 24,77745,2019-08-16 11:30:42:114,0.1182,-0.0479,10.3207,0.083,-0.0083,9.8063,0.0383,-0.0022,-0.0096,-14.33,2.4,-37.71,190.18,1.99,-1.13
778,52.176456,-1.880701,76,24.06,11.0,197.9,,15 / 24,77846,2019-08-16 11:30:42:215,0.1302,-0.2021,10.1366,0.0004,0.0025,9.8066,-0.0224,-0.0012,-0.0043,-13.96,2.4,-37.34,190.18,1.99,-1.13
779,52.176456,-1.880701,76,24.06,11.0,197.9,,15 / 24,77946,2019-08-16 11:30:42:315,0.2762,-0.3971,8.3071,-0.0584,-0.0399,9.8064,-0.0523,-0.0161,-0.0096,-13.96,2.4,-37.34,190.18,1.99,-1.13
780,52.176456,-1.880701,76,24.06,11.0,197.9,,15 / 24,78046,2019-08-16 11:30:42:415,-0.0637,0.2043,9.3628,-0.0207,-0.0238,9.8066,-0.0011,0.0138,-0.0128,-14.33,2.4,-37.34,190.7,1.61,-1.3
781,52.176456,-1.880701,76,24.06,11.0,197.9,,15 / 24,78146,2019-08-16 11:30:42:515,0.1056,0.1367,7.6029,-0.0213,0.0115,9.8066,0.0212,-0.0182,-0.016,-14.33,2.03,-38.52,190.65,1.5,-1.21
782,52.17623,-1.880884,74,24.62,12.0,198.8,,15 / 24,78245,2019-08-16 11:30:42:614,0.1083,0.0518,9.0594,0.0267,0.0444,9.8065,0.0521,-0.0203,-0.0224,-14.33,2.03,-38.52,190.65,1.5,-1.21
783,52.17623,-1.880884,74,24.62,12.0,198.8,,15 / 24,78345,2019-08-16 11:30:42:714,0.384,0.3028,9.2886,0.0586,0.0173,9.8065,-0.0214,0.0478,0.0352,-13.96,2.4,-38.09,190.35,1.86,-1.18
784,52.17623,-1.880884,74,24.62,12.0,198.8,,15 / 24,78445,2019-08-16 11:30:42:814,0.0311,0.0957,8.4321,-0.0223,-0.0032,9.8066,-0.0214,0.0478,0.0352,-14.33,2.4,-38.52,190.45,1.73,-1.17
785,52.17623,-1.880884,74,24.62,12.0,198.8,,15 / 24,78545,2019-08-16 11:30:42:914,-0.4758,0.7235,10.0496,-0.0065,0.0315,9.8066,-0.0001,-0.0395,0.0192,-14.71,3.15,-36.96,190.45,1.73,-1.17
786,52.17623,-1.880884,74,24.62,12.0,198.8,,15 / 24,78645,2019-08-16 11:30:43:014,-0.1654,0.4604,10.6976,-0.0101,0.0437,9.8065,0.0021,-0.0107,-0.0053,-14.71,3.15,-36.96,190.45,1.73,-1.17
787,52.17623,-1.880884,74,24.62,12.0,198.8,,15 / 24,78745,2019-08-16 11:30:43:114,0.0614,-0.0473,10.166,0.0074,-0.0091,9.8066,-0.0011,-0.0715,0.0043,-14.71,2.78,-37.34,192.56,1.71,-0.91
788,52.17623,-1.880884,74,24.62,12.0,198.8,,15 / 24,78845,2019-08-16 11:30:43:214,0.5482,-0.2023,9.5414,0.0114,-0.0424,9.8066,-0.1002,-0.1045,0.0021,-14.33,2.78,-37.34,193.95,1.73,-1.16
789,52.17623,-1.880884,74,24.62,12.0,198.8,,15 / 24,78946,2019-08-16 11:30:43:315,-0.1358,-0.1864,10.1619,0.0272,-0.0405,9.8065,-0.0512,-0.0299,0.0075,-14.33,2.78,-37.34,193.95,1.73,-1.16
790,52.17623,-1.880884,74,24.62,12.0,198.8,,15 / 24,79046,2019-08-16 11:30:43:415,-0.0409,-0.1038,10.5253,0.0134,-0.0111,9.8066,-0.0512,-0.0299,0.0075,-14.33,2.4,-37.71,190.98,1.82,-1.43
791,52.17623,-1.880884,74,24.62,12.0,198.8,,15 / 24,79145,2019-08-16 11:30:43:514,-0.2514,0.147,10.5684,-0.009,-0.0043,9.8066,0.0159,0.0265,-0.0117,-14.33,2.4,-37.34,191.07,1.89,-1.51
792,52.176052,-1.880974,72,23.92,12.0,198.7,,15 / 24,79246,2019-08-16 11:30:43:615,-0.2142,-0.116,10.8406,-0.0572,-0.0112,9.8065,0.0298,0.0287,0.0,-14.33,2.4,-37.34,191.07,1.89,-1.51
793,52.176052,-1.880974,72,23.92,12.0,198.7,,15 / 24,79345,2019-08-16 11:30:43:714,-0.001,-0.2801,9.403,-0.027,0.0184,9.8066,-0.0011,-0.0012,0.0053,-14.33,2.78,-38.15,194.92,1.55,-1.51
794,52.176052,-1.880974,72,23.92,12.0,198.7,,15 / 24,79445,2019-08-16 11:30:43:814,-0.2434,0.1701,9.6241,0.0225,0.0303,9.8066,-0.0246,-0.0544,0.0213,-14.71,2.4,-37.77,190.33,1.42,-1.37
795,52.176052,-1.880974,72,23.92,12.0,198.7,,15 / 24,79545,2019-08-16 11:30:43:914,0.3337,-0.0465,9.0873,0.0507,0.0541,9.8064,0.0042,0.001,-0.0043,-14.33,3.15,-37.84,193.84,1.77,-1.11
796,52.176052,-1.880974,72,23.92,12.0,198.7,,15 / 24,79645,2019-08-16 11:30:44:014,-0.2372,0.1051,9.953,0.0253,0.0192,9.8066,0.0287,0.0138,-0.0202,-14.33,3.15,-37.84,193.84,1.77,-1.11
797,52.176052,-1.880974,72,23.92,12.0,198.7,,15 / 24,79745,2019-08-16 11:30:44:114,0.2513,0.1601,9.9098,0.0071,-0.0076,9.8066,-0.0363,0.0042,-0.0075,-13.96,2.78,-37.84,193.68,1.87,-1.06
798,52.176052,-1.880974,72,23.92,12.0,198.7,,15 / 24,79846,2019-08-16 11:30:44:215,-1.2604,0.804,12.1552,-0.0517,-0.0152,9.8065,-0.0523,0.1032,0.0288,-14.33,2.4,-37.84,190.19,1.9,-1.12
799,52.176052,-1.880974,72,23.92,12.0,198.7,,15 / 24,79945,2019-08-16 11:30:44:314,-0.1267,-0.2618,10.152,-0.0549,-0.01,9.8065,-0.0118,0.0372,0.0032,-14.33,2.4,-37.46,190.35,1.58,-1.15
800,52.176052,-1.880974,72,23.92,12.0,198.7,,15 / 24,80046,2019-08-16 11:30:44:415,-0.2595,-0.1324,10.5982,-0.0887,-0.0214,9.8062,-0.0118,0.0372,0.0032,-14.33,2.4,-37.46,190.35,1.58,-1.15
801,52.176052,-1.880974,72,23.92,12.0,198.7,,15 / 24,80146,2019-08-16 11:30:44:515,0.2978,-0.3852,8.5651,-0.0008,-0.0025,9.8067,-0.0288,-0.0001,-0.0064,-14.33,2.78,-37.9,194.44,1.05,-1.18
802,52.17588,-1.881054,71,23.27,12.0,198.2,,15 / 24,80245,2019-08-16 11:30:44:614,-0.0042,-0.0397,9.3251,0.0377,-0.0138,9.8066,0.0362,-0.0139,-0.0224,-14.33,2.4,-37.9,190.76,1.04,-1.19
803,52.17588,-1.881054,71,23.27,12.0,198.2,,15 / 24,80346,2019-08-16 11:30:44:715,0.128,-0.4438,8.7337,0.0793,-0.0295,9.8063,0.0138,-0.0352,-0.0075,-13.96,2.4,-38.34,191.19,1.47,-1.45
804,52.17588,-1.881054,71,23.27,12.0,198.2,,15 / 24,80445,2019-08-16 11:30:44:814,0.2087,-0.3207,9.7963,0.0144,-0.0064,9.8066,-0.0192,-0.0161,0.0053,-13.96,2.4,-38.34,191.19,1.47,-1.45
805,52.17588,-1.881054,71,23.27,12.0,198.2,,15 / 24,80545,2019-08-16 11:30:44:914,0.0992,-0.4563,9.2997,0.0281,-0.0101,9.8066,0.001,0.0063,0.0128,-13.65,2.4,-37.9,191.34,1.62,-1.54
806,52.17588,-1.881054,71,23.27,12.0,198.2,,15 / 24,80645,2019-08-16 11:30:45:014,0.025,-0.3781,10.5216,-0.0157,0.0052,9.8066,0.0298,0.1171,-0.0021,-13.96,2.4,-37.52,191.34,1.62,-1.54
807,52.17588,-1.881054,71,23.27,12.0,198.2,,15 / 24,80745,2019-08-16 11:30:45:114,-0.3575,0.0598,11.0119,-0.0597,0.0042,9.8065,0.0095,0.0734,-0.0096,-13.65,2.34,-38.84,191.55,1.24,-1.52
808,52.17588,-1.881054,71,23.27,12.0,198.2,,15 / 24,80845,2019-08-16 11:30:45:214,-0.2204,-0.1295,9.936,-0.0957,0.0152,9.8062,-0.0001,0.0116,0.0096,-15.08,2.4,-37.52,190.53,0.71,-1.32
809,52.17588,-1.881054,71,23.27,12.0,198.2,,15 / 24,80945,2019-08-16 11:30:45:314,0.185,-0.2135,9.4566,-0.0027,0.0172,9.8066,-0.0001,0.0116,0.0096,-15.08,2.4,-37.52,190.53,0.71,-1.32
810,52.17588,-1.881054,71,23.27,12.0,198.2,,15 / 24,81046,2019-08-16 11:30:45:415,0.2334,-0.2738,10.5637,0.0002,0.0126,9.8066,-0.0001,-0.0704,0.0064,-14.71,2.4,-37.96,190.53,0.71,-1.32
811,52.17588,-1.881054,71,23.27,12.0,198.2,,15 / 24,81145,2019-08-16 11:30:45:514,-0.2113,-0.1074,9.4895,0.0074,-0.009,9.8066,0.0117,-0.0054,0.0064,-14.33,2.4,-37.96,191.05,0.72,-1.25
812,52.175655,-1.881201,71,23.82,12.0,199.0,,15 / 24,81245,2019-08-16 11:30:45:614,0.1859,-0.3351,9.1115,0.0254,-0.0225,9.8066,0.0149,-0.0065,-0.0213,-14.33,2.4,-37.96,191.05,0.72,-1.25
813,52.175655,-1.881201,71,23.82,12.0,199.0,,15 / 24,81346,2019-08-16 11:30:45:715,-0.1966,0.1736,9.5569,0.019,-0.0081,9.8066,-0.0011,-0.0416,0.0202,-13.96,2.4,-38.77,191.47,0.84,-1.4
814,52.175655,-1.881201,71,23.82,12.0,199.0,,15 / 24,81445,2019-08-16 11:30:45:814,-0.2399,-0.0945,9.5165,0.0008,-0.008,9.8066,0.001,-0.0065,-0.0064,-13.96,2.4,-37.96,191.51,0.94,-1.47
815,52.175655,-1.881201,71,23.82,12.0,199.0,,15 / 24,81545,2019-08-16 11:30:45:914,-0.2176,0.0985,10.2003,-0.0349,-0.0143,9.8066,0.0127,0.0372,-0.0043,-14.33,2.72,-37.59,195.46,0.72,-1.51
816,52.175655,-1.881201,71,23.82,12.0,199.0,,15 / 24,81645,2019-08-16 11:30:46:014,-0.3708,0.2091,9.9982,-0.0359,-0.0052,9.8066,0.0117,0.0265,-0.0149,-14.33,2.72,-37.59,195.46,0.72,-1.51
817,52.175655,-1.881201,71,23.82,12.0,199.0,,15 / 24,81746,2019-08-16 11:30:46:115,-0.2501,-0.0032,9.602,0.0039,-0.01,9.8066,0.0117,0.0265,-0.0149,-14.33,2.72,-37.96,195.53,0.51,-1.49
818,52.175655,-1.881201,71,23.82,12.0,199.0,,15 / 24,81845,2019-08-16 11:30:46:214,-0.1224,0.0196,9.3815,-0.012,-0.0159,9.8066,0.0244,0.0265,-0.0085,-14.33,2.72,-37.59,195.53,0.51,-1.49
819,52.175655,-1.881201,71,23.82,12.0,199.0,,15 / 24,81945,2019-08-16 11:30:46:314,-0.1547,0.2597,9.4304,-0.0156,-0.0273,9.8066,0.0042,-0.0225,-0.0138,-14.33,2.72,-37.96,195.94,0.38,-1.62
820,52.175655,-1.881201,71,23.82,12.0,199.0,,15 / 24,82045,2019-08-16 11:30:46:414,0.2351,0.2048,9.2389,0.0324,0.008,9.8066,-0.0405,-0.0853,0.0011,-14.33,2.72,-37.96,195.94,0.38,-1.62
821,52.175655,-1.881201,71,23.82,12.0,199.0,,15 / 24,82146,2019-08-16 11:30:46:515,0.3692,-0.2317,9.2443,0.0388,0.0063,9.8066,0.033,0.0095,-0.0064,-14.02,2.72,-37.96,195.82,0.58,-1.62
822,52.175507,-1.881261,69,22.67,12.0,198.7,,15 / 24,82245,2019-08-16 11:30:46:614,0.0915,-0.3161,10.1823,0.0489,-0.0006,9.8065,0.0085,-0.0075,0.0043,-14.33,2.34,-38.4,192.13,0.85,-1.7
823,52.175507,-1.881261,69,22.67,12.0,198.7,,15 / 24,82346,2019-08-16 11:30:46:715,0.3223,-0.2058,10.1621,-0.0195,-0.0094,9.8066,-0.0022,0.0255,0.0107,-14.33,2.34,-38.4,192.13,0.85,-1.7
824,52.175507,-1.881261,69,22.67,12.0,198.7,,15 / 24,82445,2019-08-16 11:30:46:814,0.0293,-0.2612,10.1407,-0.0638,-0.0127,9.8064,-0.0022,0.0255,0.0107,-14.33,2.34,-38.84,192.43,0.47,-1.7
825,52.175507,-1.881261,69,22.67,12.0,198.7,,15 / 24,82546,2019-08-16 11:30:46:915,0.0627,-0.2009,10.2087,-0.0389,0.0163,9.8066,0.0223,-0.0246,-0.0192,-14.33,2.72,-37.15,192.43,0.47,-1.7
826,52.175507,-1.881261,69,22.67,12.0,198.7,,15 / 24,82645,2019-08-16 11:30:47:014,0.2166,-0.3208,8.9206,-0.029,-0.0315,9.8066,-0.0214,0.0596,-0.0107,-15.08,2.34,-37.59,191.29,0.27,-1.56
827,52.175507,-1.881261,69,22.67,12.0,198.7,,15 / 24,82745,2019-08-16 11:30:47:114,0.0159,0.0281,9.8672,-0.0137,-0.0294,9.8066,0.0212,-0.0246,0.0138,-15.08,2.34,-37.59,191.29,0.27,-1.56
828,52.175507,-1.881261,69,22.67,12.0,198.7,,15 / 24,82846,2019-08-16 11:30:47:215,0.7793,-0.4034,8.5059,0.0446,0.0077,9.8065,0.001,-0.0874,-0.0032,-14.33,2.72,-37.96,196.33,0.16,-1.71
829,52.175507,-1.881261,69,22.67,12.0,198.7,,15 / 24,82945,2019-08-16 11:30:47:314,0.2654,0.0869,9.0284,0.0711,0.0192,9.8064,-0.032,0.0031,0.0256,-14.33,2.72,-37.96,196.33,0.16,-1.71
