,GPS LATITUDE (degrees), GPS LONGITUDE (degrees), GPS ALTITUDE (m), GPS SPEED (Kmh), GPS ACCURACY (m), GPS ORIENTATION (Â°),GPS SATELLITES IN RANGE, TIME SINCE START (ms), DATE (YYYY-MO-DD HH-MI-SS_SSS), ACCELEROMETER X (m/s²) , ACCELEROMETER Y (m/s²), ACCELEROMETER Z (m/s²), GRAVITY X (m/s²), GRAVITY Y (m/s²), GRAVITY Z (m/s²), GYROSCOPE Yaw (rad/s), GYROSCOPE Pitch (rad/s), GYROSCOPE Roll (rad/s), MAGNETIC FIELD X (Î¼T), MAGNETIC FIELD Y (Î¼T), MAGNETIC FIELD Z (Î¼T), ORIENTATION (Yaw) (Â°), ORIENTATION (Pitch) (Â°), ORIENTATION (Roll ) (Â°)
12510,53.138016,-1.553499,141.48,4.78,3,113.28,21 / 22,2723614,2019-11-06 16:51:44:076,-0.1944,-0.4031,10.2124,0.0052,-0.0039,9.8066,0.0275,-0.0555,-0.0036,-27.75,-36.44,20.0,117.85,-86.91,-10.51
12511,53.138016,-1.553499,141.48,4.78,3,113.28,21 / 22,2723714,2019-11-06 16:51:44:176,0.8214,0.335,9.51,0.0015,0.0164,9.8066,-0.0051,-0.0538,0.004,-31.44,-36.56,20.0,116.41,-86.94,-9.14
12512,53.138016,-1.553499,141.48,4.78,3,113.28,21 / 22,2723813,2019-11-06 16:51:44:275,0.3544,-0.4513,9.8501,0.0087,-0.0035,9.8066,-0.0308,-0.0338,0.0028,-37.56,-37.69,48.63,136.02,-86.91,-7.46
12513,53.138016,-1.553499,141.48,4.78,3,113.28,21 / 21,2723914,2019-11-06 16:51:44:376,0.6681,0.1393,9.7457,0.0074,-0.0012,9.8066,-0.0056,-0.0324,0.0439,-25.19,-33.62,29.94,134.9,-86.87,-7.18
12514,53.138016,-1.553499,141.48,4.78,3,113.28,21 / 21,2724014,2019-11-06 16:51:44:476,-0.074,-0.539,10.0114,-0.0097,-0.0009,9.8065,-0.0028,-0.0778,0.0282,-24.69,-34.12,23.44,126.23,-86.91,-8.84
12515,53.138016,-1.553499,141.48,4.78,3,113.28,21 / 21,2724114,2019-11-06 16:51:44:576,0.2837,-0.5519,9.8071,-0.0089,-0.001,9.8066,-0.0169,-0.0834,0.0358,-25.0,-35.44,22.19,122.74,-86.86,-11.35
12516,53.138016,-1.553499,141.48,4.78,3,113.28,21 / 21,2724213,2019-11-06 16:51:44:675,-0.2966,-0.8687,9.946,0.0032,-0.0105,9.8066,-0.0257,-0.0701,0.0359,-25.19,-35.56,21.94,120.71,-86.85,-13.53
12517,53.138016,-1.553499,141.48,4.78,3,113.28,21 / 21,2724313,2019-11-06 16:51:44:775,-0.2441,-0.7768,10.0047,0.0015,-0.0039,9.8066,-0.0137,-0.0579,-0.0024,-25.31,-35.44,21.94,119.44,-86.85,-14.75
12518,53.138016,-1.553499,141.48,4.78,3,113.28,21 / 21,2724414,2019-11-06 16:51:44:876,0.1244,-0.9829,9.7844,-0.0002,-0.0004,9.8066,0.0245,-0.1018,-0.0284,-23.94,-35.12,24.69,123.59,-86.86,-15.19
12519,53.138016,-1.553499,141.48,4.78,3,113.28,21 / 21,2724514,2019-11-06 16:51:44:976,0.1849,-0.7032,9.8289,-0.0021,-0.0036,9.8066,0.0013,-0.0782,0.0008,-24.06,-34.0,34.56,133.11,-86.95,-14.2
12520,53.138016,-1.553499,141.48,4.78,3,113.28,21 / 21,2724614,2019-11-06 16:51:45:076,-0.1542,-0.5404,9.8796,-0.0071,-0.0104,9.8066,-0.0131,-0.1292,0.0077,-41.87,-39.94,46.06,122.86,-86.97,-16.34
12521,53.138016,-1.553499,141.48,4.78,3,113.28,21 / 21,2724714,2019-11-06 16:51:45:176,-0.2741,-0.3626,9.772,0.0,-0.0009,9.8066,0.0167,-0.1595,0.0308,-29.75,-36.37,22.0,110.85,-87.04,-18.06
12522,53.138016,-1.553499,141.48,4.78,3,113.28,21 / 21,2724814,2019-11-06 16:51:45:276,0.0155,-1.6025,9.7941,0.0012,-0.0133,9.8066,-0.0087,-0.1984,0.0394,-27.37,-36.06,21.63,110.6,-87.13,-21.33
12523,53.138016,-1.553499,141.48,4.78,3,113.28,20 / 21,2724914,2019-11-06 16:51:45:376,0.1203,-0.7842,9.8722,0.0071,-0.0027,9.8066,-0.0183,-0.1636,0.0025,-26.56,-36.12,22.19,109.03,-87.09,-22.98
12524,53.138016,-1.553499,141.48,4.78,3,113.28,20 / 21,2725014,2019-11-06 16:51:45:476,-0.5516,-0.5683,10.0756,-0.0056,0.0086,9.8066,-0.0139,-0.2089,-0.0047,-26.87,-36.12,22.0,109.49,-87.06,-22.53
12525,53.138016,-1.553499,141.48,4.78,3,113.28,20 / 21,2725114,2019-11-06 16:51:45:576,0.3627,-0.5838,9.9071,0.0054,0.0019,9.8066,0.0028,-0.1251,-0.075,-32.5,-37.37,23.88,105.77,-87.06,-23.7
12526,53.138016,-1.553499,141.48,4.78,3,113.28,20 / 21,2725214,2019-11-06 16:51:45:676,0.4316,-1.5432,9.873,0.0103,-0.0104,9.8066,0.0325,-0.1874,0.0303,-37.5,-38.44,51.0,121.26,-87.22,-24.19
12527,53.138016,-1.553499,141.48,4.78,3,113.28,20 / 21,2725314,2019-11-06 16:51:45:776,0.7556,-1.1705,9.5357,0.0116,-0.0144,9.8066,0.0155,-0.1684,-0.0478,-23.25,-34.19,31.0,118.07,-87.57,-27.23
12528,53.138016,-1.553499,141.48,4.78,3,113.28,20 / 21,2725414,2019-11-06 16:51:45:876,-0.8288,-0.9179,10.2355,0.0016,-0.0094,9.8066,0.0524,-0.2815,0.026,-23.06,-34.37,25.75,111.49,-87.72,-29.08
12529,53.138016,-1.553499,141.48,4.78,3,113.28,20 / 21,2725514,2019-11-06 16:51:45:976,0.9754,-1.7339,9.2766,0.0088,-0.0083,9.8066,0.0726,-0.2016,0.0193,-23.0,-34.87,25.0,105.06,-87.79,-34.51
12530,53.138016,-1.553499,141.48,4.78,3,113.28,20 / 21,2725614,2019-11-06 16:51:46:076,0.5521,-0.9247,9.6197,-0.0049,-0.0287,9.8066,0.0115,-0.1965,0.0045,-22.69,-34.56,26.13,97.62,-87.95,-42.94
12531,53.138016,-1.553499,141.48,4.78,3,113.28,20 / 21,2725714,2019-11-06 16:51:46:176,-0.7701,-1.409,10.4597,0.0175,-0.0394,9.8065,0.0852,-0.2691,-0.0125,-22.37,-35.12,25.75,94.7,-88.11,-47.0
12532,53.138016,-1.553499,141.48,4.78,3,113.28,20 / 21,2725814,2019-11-06 16:51:46:276,-0.5417,-0.9855,10.1784,0.0069,-0.0121,9.8066,0.023,-0.182,-0.0085,-21.75,-33.94,28.81,84.48,-88.4,-59.82
12533,53.138016,-1.553499,141.48,4.78,3,113.28,18 / 21,2725914,2019-11-06 16:51:46:376,0.6008,-2.8016,9.6677,0.0129,-0.0108,9.8066,0.0146,-0.2143,0.0456,-20.75,-32.87,40.5,89.51,-88.38,-64.53
12534,53.138016,-1.553499,141.48,4.78,3,113.28,18 / 21,2726013,2019-11-06 16:51:46:475,1.5643,-1.5777,9.2165,0.0,-0.0257,9.8065,-0.0036,-0.133,-0.0492,-40.44,-39.87,43.69,64.88,-88.48,-73.78
12535,53.138016,-1.553499,141.48,4.78,3,113.28,18 / 21,2726113,2019-11-06 16:51:46:575,-0.2949,-1.9486,9.5083,0.003,0.0044,9.8066,0.0266,-0.2947,0.0441,-25.19,-36.37,24.69,58.75,-88.55,-77.51
12536,53.138016,-1.553499,141.48,4.78,3,113.28,18 / 21,2726214,2019-11-06 16:51:46:676,-1.4659,-0.4204,10.3747,-0.012,-0.0021,9.8066,-0.0261,-0.2014,-0.0391,-22.56,-36.25,25.31,61.54,-88.51,-77.24
12537,53.138016,-1.553499,141.48,4.78,3,113.28,18 / 21,2726314,2019-11-06 16:51:46:776,1.1771,-2.382,10.2643,0.007,-0.0003,9.8066,-0.027,-0.186,-0.0183,-22.25,-35.94,25.81,70.58,-88.57,-70.61
12538,53.138016,-1.553499,141.48,4.78,3,113.28,18 / 21,2726414,2019-11-06 16:51:46:876,0.3526,-0.5129,9.563,0.001,-0.0121,9.8066,-0.0718,-0.1268,-0.0182,-23.69,-37.19,25.44,64.85,-88.68,-72.6
12539,53.138016,-1.553499,141.48,4.78,3,113.28,18 / 21,2726513,2019-11-06 16:51:46:975,-0.0446,-0.6082,9.6007,-0.0034,-0.0061,9.8066,0.0169,-0.2279,0.0836,-30.81,-38.37,27.81,60.84,-88.62,-72.36
12540,53.138016,-1.553499,141.48,4.78,3,113.28,18 / 21,2726614,2019-11-06 16:51:47:076,-1.0346,-0.8051,9.3773,-0.0213,-0.022,9.8065,-0.0359,-0.1259,0.0342,-31.0,-37.06,55.75,74.05,-88.31,-77.92
12541,53.138016,-1.553499,141.48,4.78,3,113.28,18 / 21,2726715,2019-11-06 16:51:47:177,-1.7308,-1.5375,9.525,0.0325,0.0083,9.8065,0.0121,-0.314,0.0767,-19.94,-34.25,33.88,68.55,-88.44,-82.25
12542,53.138016,-1.553499,141.48,4.78,3,113.28,18 / 21,2726814,2019-11-06 16:51:47:276,1.4557,-0.6495,9.9197,0.0019,-0.0062,9.8066,0.0383,-0.075,-0.0699,-19.62,-35.56,29.44,57.65,-88.51,-89.06
12543,53.138016,-1.553499,141.48,4.78,3,113.28,19 / 21,2726914,2019-11-06 16:51:47:376,1.1465,-0.1654,10.3002,0.0181,0.0032,9.8066,-0.0014,-0.2998,0.0819,-19.12,-35.87,28.56,56.14,-88.62,-91.82
12544,53.138016,-1.553499,141.48,4.78,3,113.28,19 / 21,2727013,2019-11-06 16:51:47:475,2.5995,-0.0408,9.9278,-0.0096,-0.0194,9.8065,-0.0518,-0.0709,0.1097,-19.56,-35.62,28.19,54.07,-88.62,-91.57
12545,53.138016,-1.553499,141.48,4.78,3,113.28,19 / 21,2727115,2019-11-06 16:51:47:577,-0.8136,-0.6978,9.6538,0.0051,-0.0046,9.8066,-0.0219,-0.2801,0.1096,-19.19,-35.69,29.31,57.34,-88.23,-90.99
12546,53.138016,-1.553499,141.48,4.78,3,113.28,19 / 21,2727214,2019-11-06 16:51:47:676,-0.5992,-1.5343,10.2744,-0.0202,0.0024,9.8066,0.0369,-0.0302,0.0143,-18.25,-34.94,32.31,60.69,-88.11,-91.54
12547,53.138016,-1.553499,141.48,4.78,3,113.28,19 / 21,2727314,2019-11-06 16:51:47:776,-2.138,-2.6512,10.1183,0.0176,0.0063,9.8066,-0.0036,-0.5061,0.1399,-22.37,-35.5,54.06,67.62,-88.05,-91.3
12548,53.138016,-1.553499,141.48,4.78,3,113.28,19 / 21,2727414,2019-11-06 16:51:47:876,-0.1346,-1.2594,10.0643,0.0079,0.0124,9.8066,0.0092,-0.2304,0.1689,-36.31,-39.19,36.19,46.45,-87.98,-89.69
12549,53.138016,-1.553499,141.48,4.78,3,113.28,19 / 21,2727513,2019-11-06 16:51:47:975,0.8962,-0.0853,9.8604,-0.0036,0.0066,9.8066,-0.0054,-0.1869,0.0304,-23.44,-36.56,27.31,52.26,-87.71,-89.23
12550,53.138016,-1.553499,141.48,4.78,3,113.28,19 / 21,2727614,2019-11-06 16:51:48:076,0.2092,-0.7383,9.6688,0.0146,0.0085,9.8066,0.008,-0.1013,0.0562,-21.19,-36.19,27.31,54.89,-87.77,-89.18
12551,53.138016,-1.553499,141.48,4.78,3,113.28,19 / 21,2727714,2019-11-06 16:51:48:176,0.3092,-1.7222,10.0262,0.0111,-0.0057,9.8066,-0.0138,-0.2212,0.0893,-20.62,-36.69,26.5,54.31,-87.64,-89.91
12552,53.138016,-1.553499,141.48,4.78,3,113.28,19 / 21,2727813,2019-11-06 16:51:48:275,-0.0671,-0.4179,9.9273,-0.0047,-0.0228,9.8066,-0.0471,0.0066,0.0338,-21.69,-36.62,26.75,50.45,-87.49,-92.46
12553,53.138016,-1.553499,141.48,4.78,3,113.28,18 / 20,2727914,2019-11-06 16:51:48:376,0.5153,-0.2594,10.0996,0.0019,0.0012,9.8066,0.0303,-0.0931,-0.0277,-34.06,-39.81,35.5,46.79,-87.33,-91.45
12554,53.138016,-1.553499,141.48,4.78,3,113.28,18 / 20,2728013,2019-11-06 16:51:48:475,-0.6488,-0.9197,10.2911,-0.0058,-0.0098,9.8066,0.0366,-0.1444,0.0574,-24.06,-35.19,57.13,64.83,-87.22,-93.79
12555,53.138016,-1.553499,141.48,4.78,3,113.28,18 / 20,2728114,2019-11-06 16:51:48:576,0.4068,-1.2911,9.5444,0.0002,-0.0175,9.8066,0.0167,-0.1374,0.0823,-18.44,-33.81,35.13,60.59,-87.05,-94.45
12556,53.138016,-1.553499,141.48,4.78,3,113.28,18 / 20,2728213,2019-11-06 16:51:48:675,0.6104,-0.7654,11.0422,-0.0254,-0.0149,9.8065,0.0463,-0.1159,-0.0708,-18.44,-35.81,30.44,53.06,-86.84,-98.63
12557,53.138016,-1.553499,141.48,4.78,3,113.28,18 / 20,2728314,2019-11-06 16:51:48:776,0.1166,-0.7616,9.21,-0.0214,0.0021,9.8066,0.104,-0.1672,0.0389,-18.62,-34.81,30.0,49.02,-86.82,-101.05
12558,53.138016,-1.553499,141.48,4.78,3,113.28,18 / 20,2728414,2019-11-06 16:51:48:876,0.6479,1.1939,9.1523,-0.0819,-0.0335,9.8062,-0.09,-0.2296,-0.4643,-18.37,-35.37,29.63,53.96,-86.19,-98.23
12559,53.138016,-1.553499,141.48,4.78,3,113.28,18 / 20,2728514,2019-11-06 16:51:48:976,1.3512,-2.2105,10.5338,-0.0234,0.0146,9.8065,0.2005,-0.0676,0.1034,-18.06,-34.69,31.31,57.92,-86.52,-94.87
12560,53.138016,-1.553499,141.48,4.78,3,113.28,18 / 20,2728614,2019-11-06 16:51:49:076,-0.65,1.1025,9.0918,0.0074,-0.0266,9.8066,-0.0974,-0.1302,-0.1274,-17.81,-33.56,34.44,54.55,-86.27,-100.29
12561,53.138016,-1.553499,141.48,4.78,3,113.28,18 / 20,2728713,2019-11-06 16:51:49:175,-0.4532,-0.1085,10.6546,0.0186,-0.0177,9.8066,-0.1301,-0.0489,0.0863,-18.0,-33.62,50.44,61.89,-86.43,-100.37
12562,53.138016,-1.553499,141.48,4.78,3,113.28,18 / 20,2728814,2019-11-06 16:51:49:276,-0.4526,-1.7254,10.8837,-0.0009,-0.0032,9.8066,-0.0068,-0.1776,-0.0193,-30.69,-37.62,33.13,38.14,-86.4,-100.57
12563,53.138016,-1.553499,141.48,4.78,3,113.28,18 / 20,2728914,2019-11-06 16:51:49:376,-0.1714,-0.6428,10.0009,0.0243,-0.0195,9.8065,0.0385,-0.0241,-0.0517,-21.31,-35.31,28.75,45.23,-86.33,-101.47
12564,53.138016,-1.553499,141.48,4.78,3,113.28,18 / 20,2729014,2019-11-06 16:51:49:476,0.2183,-1.3987,9.7648,0.0081,-0.0091,9.8066,-0.0087,-0.1424,-0.0219,-20.19,-35.5,28.94,40.13,-86.41,-107.64
12565,53.138016,-1.553499,141.48,4.78,3,113.28,18 / 20,2729114,2019-11-06 16:51:49:576,0.9004,-0.6548,9.1482,0.0014,0.0053,9.8066,0.0023,-0.2055,0.153,-19.06,-35.56,29.25,41.71,-86.45,-107.57
12566,53.138016,-1.553499,141.48,4.78,3,113.28,18 / 20,2729214,2019-11-06 16:51:49:676,0.5875,-0.7949,10.8642,-0.0148,-0.0017,9.8066,-0.0068,-0.0451,-0.0491,-20.44,-35.81,29.13,42.31,-86.22,-105.76
12567,53.138016,-1.553499,141.48,4.78,3,113.28,18 / 20,2729313,2019-11-06 16:51:49:775,-0.6946,-0.5064,9.7547,0.0039,0.0307,9.8066,-0.0048,0.026,-0.0543,-29.06,-37.69,32.38,32.15,-86.53,-107.34
12568,53.138016,-1.553499,141.48,4.78,3,113.28,18 / 20,2729414,2019-11-06 16:51:49:876,1.0548,0.0508,10.1583,-0.0044,0.0125,9.8065,-0.0431,0.0914,-0.0119,-17.87,-33.5,51.88,56.0,-86.8,-106.54
12569,53.138016,-1.553499,141.48,4.78,3,113.28,18 / 20,2729514,2019-11-06 16:51:49:976,-0.5565,-1.3331,10.2594,-0.0013,-0.0326,9.8066,-0.0067,-0.0624,-0.0267,-16.81,-33.62,36.38,51.19,-86.87,-105.66
12570,53.138016,-1.553499,141.48,4.78,3,113.28,18 / 20,2729614,2019-11-06 16:51:50:076,1.2617,0.0389,9.5159,-0.0123,-0.0211,9.8066,0.0461,0.131,-0.1131,-16.06,-34.31,32.38,45.45,-86.66,-110.3
12571,53.138016,-1.553499,141.48,4.78,3,113.28,18 / 20,2729713,2019-11-06 16:51:50:175,-0.7263,-0.9973,10.6387,0.0039,-0.0201,9.8065,0.0512,-0.064,-0.0948,-15.94,-34.75,31.06,39.96,-86.71,-114.9
12572,53.138016,-1.553499,141.48,4.78,3,113.28,18 / 20,2729814,2019-11-06 16:51:50:276,0.5601,0.7213,9.6812,0.0163,-0.0076,9.8065,-0.1213,0.0524,-0.0158,-16.19,-34.62,30.94,36.9,-86.85,-117.74
12573,53.138016,-1.553499,141.48,4.78,3,113.28,19 / 22,2729913,2019-11-06 16:51:50:375,-0.0319,-0.2293,10.0155,0.0005,-0.028,9.8066,-0.0695,0.1026,-0.1026,-15.25,-34.5,31.88,40.51,-86.99,-116.29
12574,53.138016,-1.553499,141.48,4.78,3,113.28,19 / 22,2730013,2019-11-06 16:51:50:475,1.968,0.1258,10.2965,-0.0179,-0.0128,9.8066,0.0359,0.17,-0.0427,-14.94,-33.56,37.56,42.72,-86.96,-117.5
12575,53.138016,-1.553499,141.48,4.78,3,113.28,19 / 22,2730114,2019-11-06 16:51:50:576,-0.0763,-0.2815,9.6897,-0.0103,-0.0014,9.8066,0.0865,-0.0896,-0.0354,-19.87,-34.75,57.31,42.25,-86.83,-119.7
12576,53.138016,-1.553499,141.48,4.78,3,113.28,19 / 22,2730214,2019-11-06 16:51:50:676,-0.2917,-0.4223,9.3541,0.0138,-0.0228,9.8066,-0.0609,0.0823,-0.0309,-31.87,-37.62,38.0,19.15,-86.76,-121.59
12577,53.138016,-1.553499,141.48,4.78,3,113.28,19 / 22,2730314,2019-11-06 16:51:50:776,-0.5267,-1.0657,10.376,-0.0227,-0.0375,9.8065,-0.0235,0.1474,-0.1062,-18.19,-35.06,30.44,29.66,-86.59,-121.11
12578,53.138016,-1.553499,141.48,4.78,3,113.28,19 / 22,2730414,2019-11-06 16:51:50:876,1.217,-0.1022,9.7192,0.0071,0.0009,9.8066,-0.0245,0.0849,-0.051,-17.0,-35.62,30.13,29.35,-86.74,-122.81
12579,53.138016,-1.553499,141.48,4.78,3,113.28,19 / 22,2730514,2019-11-06 16:51:50:976,0.0062,-0.4101,9.9377,0.0098,0.02,9.8066,-0.0277,-0.093,0.0036,-16.81,-35.5,30.38,29.92,-86.81,-122.2
12580,53.138016,-1.553499,141.48,4.78,3,113.28,19 / 22,2730613,2019-11-06 16:51:51:075,-0.4952,0.5648,9.7643,0.0114,0.0063,9.8065,-0.0222,-0.0783,-0.0257,-19.0,-35.69,29.88,27.16,-87.08,-121.87
12581,53.138016,-1.553499,141.48,4.78,3,113.28,19 / 22,2730713,2019-11-06 16:51:51:175,0.4982,-1.2151,10.4684,0.0235,-0.0063,9.8066,-0.0813,0.1828,-0.0742,-30.37,-38.31,38.13,17.98,-87.22,-124.42
12582,53.138016,-1.553499,141.48,4.78,3,113.28,19 / 22,2730813,2019-11-06 16:51:51:275,0.4078,-1.1817,9.7764,0.0008,-0.0016,9.8066,0.0322,0.0898,-0.0782,-17.94,-33.75,58.0,35.07,-87.3,-128.58
12583,53.138016,-1.553499,141.48,4.78,3,113.28,20 / 22,2730913,2019-11-06 16:51:51:375,0.7948,-0.1683,9.9711,0.0018,0.0116,9.8066,0.0178,0.0909,-0.0793,-14.19,-32.87,35.06,30.4,-87.53,-128.91
12584,53.138016,-1.553499,141.48,4.78,3,113.28,20 / 22,2731016,2019-11-06 16:51:51:478,1.2079,-0.1172,9.7159,0.0142,-0.0001,9.8066,-0.0068,0.1076,-0.0816,-14.56,-33.25,31.81,22.78,-87.59,-132.99
12585,53.138016,-1.553499,141.48,4.78,3,113.28,20 / 22,2731113,2019-11-06 16:51:51:575,0.2623,-0.0607,10.4263,0.012,0.0109,9.8066,0.041,0.0247,-0.0047,-15.31,-34.06,31.19,16.7,-87.7,-138.15
12586,53.138016,-1.553499,141.48,4.78,3,113.28,20 / 22,2731214,2019-11-06 16:51:51:676,1.2517,-0.669,9.9619,0.0186,0.0129,9.8066,0.0292,0.0144,0.0532,-14.75,-34.31,31.25,12.95,-87.88,-141.71
12587,53.138016,-1.553499,141.48,4.78,3,113.28,20 / 22,2731314,2019-11-06 16:51:51:776,0.3917,-0.8775,9.8692,0.0315,0.0025,9.8066,0.0319,-0.0476,0.0028,-13.75,-34.06,32.56,9.7,-87.93,-147.65
12588,53.138016,-1.553499,141.48,4.78,3,113.28,20 / 22,2731414,2019-11-06 16:51:51:876,2.3621,-0.665,9.8909,-0.0097,0.0041,9.8066,-0.0103,-0.0637,0.0285,-14.0,-33.62,36.19,8.73,-87.96,-150.29
12589,53.138016,-1.553499,141.48,4.78,3,113.28,20 / 22,2731515,2019-11-06 16:51:51:977,1.0789,-0.3135,9.7858,-0.0036,0.0134,9.8066,0.0041,-0.0946,-0.0118,-17.94,-34.87,54.88,18.58,-87.98,-143.7
12590,53.138016,-1.553499,141.48,4.78,3,113.28,20 / 22,2731613,2019-11-06 16:51:52:075,2.9431,1.5881,9.8223,0.0212,-0.015,9.8066,-0.0985,0.2684,-0.1106,-25.0,-37.5,31.38,349.9,-88.14,-150.91
12591,53.138016,-1.553499,141.48,4.78,3,113.28,20 / 22,2731713,2019-11-06 16:51:52:175,1.8164,0.1345,8.6188,-0.0109,-0.0217,9.8066,-0.0884,0.1295,-0.0301,-18.44,-36.56,29.13,4.1,-88.2,-144.21
12592,53.138016,-1.553499,141.48,4.78,3,113.28,20 / 22,2731816,2019-11-06 16:51:52:278,-2.3576,-2.6292,10.6263,-0.0348,-0.0455,9.8064,-0.0349,0.2784,-0.1372,-17.0,-36.31,29.63,5.91,-88.29,-144.73
12593,53.13764,-1.553041,140.73,8.77,3,157.78,17 / 20,2731913,2019-11-06 16:51:52:375,2.4393,3.9636,8.8327,-0.0241,-0.0262,9.8065,-0.1473,-0.093,-0.0483,-17.06,-36.5,28.38,10.43,-88.07,-138.7
12594,53.13764,-1.553041,140.73,8.77,3,157.78,17 / 20,2732013,2019-11-06 16:51:52:475,-2.6959,-3.339,10.9956,-0.0454,-0.0364,9.8065,0.1187,-0.5108,0.3976,-18.94,-36.12,29.31,10.87,-88.19,-136.26
12595,53.13764,-1.553041,140.73,8.77,3,157.78,17 / 20,2732113,2019-11-06 16:51:52:575,0.9227,-0.4928,10.4956,-0.024,-0.0512,9.8064,-0.0751,0.285,-0.1939,-33.69,-39.75,42.56,9.7,-87.86,-132.23
12596,53.13764,-1.553041,140.73,8.77,3,157.78,17 / 20,2732214,2019-11-06 16:51:52:676,-5.2104,-1.6885,10.2666,0.0282,0.0116,9.8066,0.0906,-0.4175,0.2935,-16.31,-33.12,52.69,32.54,-87.66,-131.43
12597,53.13764,-1.553041,140.73,8.77,3,157.78,17 / 20,2732314,2019-11-06 16:51:52:776,1.8572,0.123,10.3086,-0.0475,-0.0194,9.8065,-0.0014,0.4076,-0.2508,-14.75,-33.75,36.19,26.42,-87.67,-131.89
12598,53.13764,-1.553041,140.73,8.77,3,157.78,17 / 20,2732414,2019-11-06 16:51:52:876,3.8327,1.4192,9.6042,0.0441,0.0326,9.8064,0.0025,-0.1338,0.046,-15.37,-34.19,32.0,16.73,-87.98,-138.72
12599,53.13764,-1.553041,140.73,8.77,3,157.78,17 / 20,2732513,2019-11-06 16:51:52:975,2.9324,1.3015,9.6783,-0.0161,-0.0193,9.8065,0.0,0.5185,-0.3157,-16.5,-34.87,31.81,19.78,-87.78,-134.4
12600,53.13764,-1.553041,140.73,8.77,3,157.78,17 / 20,2732613,2019-11-06 16:51:53:075,-0.4895,-1.5547,10.3709,0.0436,-0.0098,9.8065,0.1435,-0.1229,0.0152,-16.31,-34.81,31.25,15.09,-87.9,-138.17
12601,53.13764,-1.553041,140.73,8.77,3,157.78,17 / 20,2732714,2019-11-06 16:51:53:176,-0.9213,-1.8918,10.6924,0.0002,-0.0085,9.8066,-0.1982,0.4245,-0.1269,-15.56,-34.19,33.44,10.89,-87.95,-143.61
12602,53.13764,-1.553041,140.73,8.77,3,157.78,17 / 20,2732814,2019-11-06 16:51:53:276,3.133,-0.4267,10.5685,0.0131,0.0336,9.8065,0.069,0.3568,-0.1835,-14.81,-33.12,37.25,13.71,-88.1,-144.6
12603,53.13764,-1.553041,140.73,8.77,3,157.78,18 / 19,2732914,2019-11-06 16:51:53:376,-1.5983,0.8016,9.061,0.0427,-0.0132,9.8065,0.1033,0.2129,-0.1987,-17.44,-35.12,56.19,21.23,-88.4,-142.24
12604,53.13764,-1.553041,140.73,8.77,3,157.78,18 / 19,2733014,2019-11-06 16:51:53:476,4.3708,1.9806,9.324,0.0513,0.0152,9.8064,0.0038,0.2532,-0.1538,-24.81,-36.69,31.44,350.88,-88.39,-149.99
12605,53.13764,-1.553041,140.73,8.77,3,157.78,18 / 19,2733114,2019-11-06 16:51:53:576,1.2974,0.1739,9.9356,0.0145,0.0365,9.8065,-0.062,0.5634,-0.2436,-18.25,-35.25,29.25,359.97,-88.22,-148.21
12606,53.13764,-1.553041,140.73,8.77,3,157.78,18 / 19,2733214,2019-11-06 16:51:53:676,4.8022,2.5834,8.9074,0.046,0.0312,9.8064,-0.0505,0.6321,-0.3094,-16.69,-35.19,28.06,3.96,-88.03,-144.92
12607,53.13764,-1.553041,140.73,8.77,3,157.78,18 / 19,2733314,2019-11-06 16:51:53:776,0.8954,-0.3818,9.6298,0.0004,0.0452,9.8064,0.0536,-0.1017,0.0698,-17.56,-35.87,27.88,1.0,-88.27,-146.29
12608,53.13764,-1.553041,140.73,8.77,3,157.78,18 / 19,2733414,2019-11-06 16:51:53:876,1.0695,1.9637,9.5434,-0.0219,-0.0068,9.8066,-0.1563,0.3198,-0.0587,-20.62,-37.0,27.94,357.16,-88.22,-145.88
12609,53.13764,-1.553041,140.73,8.77,3,157.78,18 / 19,2733514,2019-11-06 16:51:53:976,-1.8878,-2.8906,10.8581,0.0097,0.0517,9.8064,-0.0459,-0.0606,-0.0413,-31.0,-38.75,33.88,354.52,-88.14,-142.97
12610,53.13764,-1.553041,140.73,8.77,3,157.78,18 / 19,2733614,2019-11-06 16:51:54:076,0.58,0.9955,8.8474,-0.0128,0.0293,9.8065,-0.1303,0.2914,-0.0844,-17.5,-34.37,51.06,21.67,-88.12,-140.34
12611,53.13764,-1.553041,140.73,8.77,3,157.78,18 / 19,2733714,2019-11-06 16:51:54:176,1.2859,0.9243,9.1318,0.0033,0.0294,9.8065,-0.1266,0.2323,-0.1165,-15.81,-34.0,36.06,17.82,-88.19,-138.7
12612,53.13764,-1.553041,140.73,8.77,3,157.78,18 / 19,2733814,2019-11-06 16:51:54:276,1.4565,-0.0392,10.1666,0.0,0.017,9.8066,-0.0092,0.1435,0.0047,-16.0,-35.69,32.19,21.38,-88.36,-132.66
12613,53.13764,-1.553041,140.73,8.77,3,157.78,16 / 20,2733914,2019-11-06 16:51:54:376,1.7374,1.2788,9.5342,-0.0032,0.0038,9.8066,0.0854,-0.1098,0.0231,-15.87,-35.56,31.06,25.55,-88.43,-127.86
12614,53.13764,-1.553041,140.73,8.77,3,157.78,16 / 20,2734014,2019-11-06 16:51:54:476,-1.0691,0.4346,10.0608,-0.014,-0.0164,9.8066,0.003,-0.0967,0.0347,-15.56,-36.44,30.63,15.54,-88.54,-137.57
12615,53.13764,-1.553041,140.73,8.77,3,157.78,16 / 20,2734114,2019-11-06 16:51:54:576,0.591,0.1625,10.5308,0.0029,-0.0229,9.8066,0.0719,0.0136,-0.0267,-15.37,-35.81,31.31,15.26,-88.28,-139.4
12616,53.13764,-1.553041,140.73,8.77,3,157.78,16 / 20,2734214,2019-11-06 16:51:54:676,1.0141,1.0817,9.8269,-0.0105,-0.0203,9.8066,-0.002,0.177,0.0779,-15.0,-34.19,35.94,11.59,-87.97,-146.15
12617,53.13764,-1.553041,140.73,8.77,3,157.78,16 / 20,2734313,2019-11-06 16:51:54:775,0.961,0.4069,10.8371,-0.0032,0.0179,9.8066,-0.1241,-0.1116,0.1019,-18.81,-36.12,55.19,10.96,-87.84,-150.24
12618,53.13764,-1.553041,140.73,8.77,3,157.78,16 / 20,2734413,2019-11-06 16:51:54:875,0.751,-0.9441,9.9297,-0.0274,0.0216,9.8066,-0.0094,0.0318,-0.0148,-32.94,-38.87,38.69,350.94,-87.59,-148.53
12619,53.13764,-1.553041,140.73,8.77,3,157.78,16 / 20,2734513,2019-11-06 16:51:54:975,-0.192,0.8583,8.6041,0.0005,-0.0153,9.8065,-0.0839,0.2648,-0.0509,-19.31,-36.69,29.31,5.1,-87.58,-141.9
12620,53.13764,-1.553041,140.73,8.77,3,157.78,16 / 20,2734614,2019-11-06 16:51:55:076,0.7994,-0.1249,10.3961,-0.0172,0.0046,9.8066,0.0081,-0.0694,0.0226,-17.69,-36.12,29.31,11.34,-87.69,-137.32
12621,53.13764,-1.553041,140.73,8.77,3,157.78,16 / 20,2734714,2019-11-06 16:51:55:176,-0.0048,0.4925,9.554,-0.0041,-0.0212,9.8066,0.015,-0.0564,-0.0229,-17.94,-36.87,28.5,20.06,-87.72,-128.98
12622,53.13764,-1.553041,140.73,8.77,3,157.78,16 / 20,2734814,2019-11-06 16:51:55:276,0.1441,0.7431,10.554,0.0085,-0.0232,9.8066,0.1142,-0.0257,0.0102,-19.87,-36.75,28.44,8.75,-87.81,-136.08
12623,53.13764,-1.553041,140.73,8.77,3,157.78,18 / 19,2734914,2019-11-06 16:51:55:376,1.0201,0.3611,8.9705,0.0032,-0.0249,9.8066,0.0547,-0.0443,0.0277,-29.87,-38.94,34.38,3.32,-87.63,-135.38
12624,53.13764,-1.553041,140.73,8.77,3,157.78,18 / 19,2735014,2019-11-06 16:51:55:476,0.7597,0.6992,10.1201,-0.0057,-0.0091,9.8066,0.0028,0.0191,0.0604,-22.5,-36.37,58.19,24.78,-87.62,-135.05
12625,53.13764,-1.553041,140.73,8.77,3,157.78,18 / 19,2735114,2019-11-06 16:51:55:576,-1.2622,-0.4303,10.31,-0.0221,0.0216,9.8065,0.0778,0.0337,-0.0271,-15.5,-34.81,34.75,28.28,-87.57,-129.6
12626,53.13764,-1.553041,140.73,8.77,3,157.78,18 / 19,2735213,2019-11-06 16:51:55:675,1.2823,1.2345,9.9996,-0.0008,-0.0047,9.8066,-0.0332,0.2931,-0.0958,-16.12,-35.37,31.81,23.26,-87.5,-131.16
12627,53.13764,-1.553041,140.73,8.77,3,157.78,18 / 19,2735313,2019-11-06 16:51:55:775,0.4696,-0.4244,10.05,0.0048,0.0113,9.8066,0.0106,0.1589,-0.0741,-16.62,-35.81,31.13,21.67,-87.35,-130.6
12628,53.13764,-1.553041,140.73,8.77,3,157.78,18 / 19,2735413,2019-11-06 16:51:55:875,0.3545,0.4579,9.0331,0.0557,-0.0035,9.8065,-0.0232,0.0705,-0.0166,-16.94,-35.94,31.31,10.32,-87.31,-141.44
12629,53.13764,-1.553041,140.73,8.77,3,157.78,18 / 19,2735514,2019-11-06 16:51:55:976,-0.9779,-0.7003,10.0913,-0.0489,0.0036,9.8064,-0.131,0.1734,-0.0511,-16.31,-35.06,32.0,16.49,-87.18,-137.75
12630,53.13764,-1.553041,140.73,8.77,3,157.78,18 / 19,2735614,2019-11-06 16:51:56:076,0.8525,0.5057,10.1619,-0.0106,0.0407,9.8065,-0.0493,0.1027,-0.0341,-15.94,-34.0,34.31,21.91,-87.28,-133.84
12631,53.13764,-1.553041,140.73,8.77,3,157.78,18 / 19,2735714,2019-11-06 16:51:56:176,-0.1145,0.5609,9.135,-0.0044,0.0093,9.8066,0.0492,0.0201,0.0055,-22.56,-36.37,56.81,31.5,-87.49,-127.32
12632,53.13764,-1.553041,140.73,8.77,3,157.78,18 / 19,2735813,2019-11-06 16:51:56:275,-0.4883,0.5944,9.7384,-0.014,0.0191,9.8065,-0.0182,-0.0102,-0.0598,-32.31,-38.56,35.63,9.21,-87.55,-129.48
12633,53.13764,-1.553041,140.73,8.77,3,157.78,19 / 20,2735913,2019-11-06 16:51:56:375,0.6966,0.6838,10.0344,0.0074,-0.0023,9.8066,-0.0162,-0.0133,-0.0188,-21.12,-36.5,29.13,15.62,-87.87,-129.05
12634,53.13764,-1.553041,140.73,8.77,3,157.78,19 / 20,2736015,2019-11-06 16:51:56:477,0.725,0.0008,9.9142,0.001,-0.0204,9.8066,0.0925,0.0165,0.0138,-18.25,-35.56,29.69,17.62,-87.86,-132.1
12635,53.13764,-1.553041,140.73,8.77,3,157.78,19 / 20,2736113,2019-11-06 16:51:56:575,-0.1122,-0.0531,9.7212,-0.0088,-0.0246,9.8066,0.0529,0.1146,-0.0081,-19.19,-35.37,28.94,14.59,-87.72,-132.77
12636,53.13764,-1.553041,140.73,8.77,3,157.78,19 / 20,2736213,2019-11-06 16:51:56:675,1.6945,1.3882,9.934,0.0218,0.0148,9.8065,-0.0216,0.0779,-0.0718,-20.37,-35.62,29.13,19.31,-87.66,-126.9
12637,53.13764,-1.553041,140.73,8.77,3,157.78,19 / 20,2736313,2019-11-06 16:51:56:775,0.1212,0.0247,10.2771,-0.0209,0.0199,9.8066,-0.0087,-0.0404,0.007,-33.12,-38.37,35.94,14.67,-87.77,-123.26
12638,53.13764,-1.553041,140.73,8.77,3,157.78,19 / 20,2736414,2019-11-06 16:51:56:876,-0.2536,0.0043,9.1761,-0.0206,0.0076,9.8065,-0.0693,-0.059,0.0647,-21.75,-34.87,56.69,32.83,-87.75,-126.78
12639,53.13764,-1.553041,140.73,8.77,3,157.78,19 / 20,2736514,2019-11-06 16:51:56:976,1.0122,1.249,9.9774,-0.0062,-0.0055,9.8066,0.0026,-0.0978,0.0845,-17.06,-33.69,36.31,28.33,-87.66,-127.36
12640,53.13764,-1.553041,140.73,8.77,3,157.78,19 / 20,2736614,2019-11-06 16:51:57:076,-0.8897,0.6678,9.6134,-0.0138,-0.0033,9.8066,-0.0501,-0.2085,0.1855,-17.12,-34.75,31.19,26.4,-87.56,-125.95
12641,53.13764,-1.553041,140.73,8.77,3,157.78,19 / 20,2736713,2019-11-06 16:51:57:175,1.0119,0.7649,10.1514,-0.0273,-0.0072,9.8066,-0.1043,-0.0021,0.0045,-17.25,-35.44,31.13,29.46,-87.6,-122.99
12642,53.13764,-1.553041,140.73,8.77,3,157.78,19 / 20,2736813,2019-11-06 16:51:57:275,-1.1061,0.5176,9.3821,-0.0364,0.0499,9.8064,-0.1365,-0.1283,0.0895,-17.0,-35.31,30.38,25.67,-87.59,-125.87
12643,53.13764,-1.553041,140.73,8.77,3,157.78,21 / 21,2736914,2019-11-06 16:51:57:376,-0.4093,1.0316,9.8786,-0.0306,-0.0332,9.8065,0.005,-0.0449,-0.0109,-17.25,-35.12,31.63,33.35,-87.49,-120.02
12644,53.13764,-1.553041,140.73,8.77,3,157.78,21 / 21,2737014,2019-11-06 16:51:57:476,0.6256,0.3791,9.9355,-0.0065,-0.0114,9.8066,0.0311,-0.0095,0.0072,-16.12,-33.69,33.56,33.19,-87.54,-122.85
12645,53.13764,-1.553041,140.73,8.77,3,157.78,21 / 21,2737113,2019-11-06 16:51:57:575,-0.5075,0.5319,9.8028,0.0065,0.0002,9.8066,0.0261,0.1225,-0.0603,-20.06,-36.0,56.19,39.89,-87.39,-121.5
12646,53.13764,-1.553041,140.73,8.77,3,157.78,21 / 21,2737214,2019-11-06 16:51:57:676,1.8635,0.794,10.0404,0.0282,0.0135,9.8066,-0.0506,0.0813,-0.0717,-33.44,-39.06,37.56,21.56,-87.34,-118.24
12647,53.13764,-1.553041,140.73,8.77,3,157.78,21 / 21,2737313,2019-11-06 16:51:57:775,0.0905,0.3217,9.9114,-0.0227,0.0256,9.8065,-0.0518,-0.0074,0.0096,-20.62,-36.62,29.56,30.58,-87.45,-115.77
12648,53.13764,-1.553041,140.73,8.77,3,157.78,21 / 21,2737413,2019-11-06 16:51:57:875,1.3049,-0.4466,9.4362,-0.026,0.0036,9.8065,-0.0489,0.0951,0.0108,-18.5,-36.25,29.56,34.68,-87.42,-115.89
12649,53.13764,-1.553041,140.73,8.77,3,157.78,21 / 21,2737514,2019-11-06 16:51:57:976,0.0224,0.0514,10.1432,0.0289,0.0098,9.8066,-0.0283,0.0126,-0.0065,-18.69,-36.0,29.5,28.98,-87.53,-119.91
12650,53.13764,-1.553041,140.73,8.77,3,157.78,21 / 21,2737614,2019-11-06 16:51:58:076,1.5763,1.0719,9.9571,-0.0012,0.0013,9.8066,0.0165,0.1365,-0.0594,-20.12,-36.19,29.19,26.44,-87.54,-120.1
12651,53.13764,-1.553041,140.73,8.77,3,157.78,21 / 21,2737714,2019-11-06 16:51:58:176,-1.7308,0.6772,9.577,0.033,-0.0004,9.8065,0.0824,-0.0986,0.0072,-31.75,-39.0,35.31,15.95,-87.64,-122.16
12652,53.13764,-1.553041,140.73,8.77,3,157.78,21 / 21,2737814,2019-11-06 16:51:58:276,1.5121,-0.4414,9.8936,-0.0002,-0.0093,9.8066,-0.0276,0.2184,-0.0898,-23.06,-35.69,58.69,37.5,-87.61,-122.05
12653,53.13764,-1.553041,140.73,8.77,3,157.78,21 / 22,2737914,2019-11-06 16:51:58:376,0.9341,-0.8673,10.4017,0.0129,0.0197,9.8065,-0.0044,0.0202,-0.1021,-16.12,-34.25,37.75,36.41,-87.52,-121.99
12654,53.13764,-1.553041,140.73,8.77,3,157.78,21 / 22,2738014,2019-11-06 16:51:58:476,-0.2454,0.0611,9.9852,-0.0085,0.0035,9.8066,-0.0332,-0.0658,0.0813,-16.87,-35.37,32.69,34.76,-87.43,-119.39
12655,53.13764,-1.553041,140.73,8.77,3,157.78,21 / 22,2738113,2019-11-06 16:51:58:575,0.7993,-0.219,10.402,-0.0293,-0.0252,9.8066,0.0112,0.0174,-0.0591,-16.94,-36.0,31.5,34.58,-87.22,-119.04
12656,53.13764,-1.553041,140.73,8.77,3,157.78,21 / 22,2738213,2019-11-06 16:51:58:675,-3.2929,-2.7137,9.008,0.0085,-0.0158,9.8065,-0.0215,-0.4838,0.2566,-17.12,-35.56,31.5,30.61,-87.19,-122.86
12657,53.13764,-1.553041,140.73,8.77,3,157.78,21 / 22,2738314,2019-11-06 16:51:58:776,1.1082,0.061,9.8154,-0.0521,-0.0347,9.8064,-0.1164,0.2401,-0.0801,-16.44,-35.37,31.88,27.3,-86.96,-127.53
12658,53.13764,-1.553041,140.73,8.77,3,157.78,21 / 22,2738414,2019-11-06 16:51:58:876,2.1589,0.5627,10.3014,0.0039,0.0276,9.8065,0.0824,-0.0171,-0.0101,-15.94,-33.87,35.44,26.97,-87.03,-129.69
12659,53.13764,-1.553041,140.73,8.77,3,157.78,21 / 22,2738514,2019-11-06 16:51:58:976,-2.1746,0.3495,9.3434,0.0194,0.0018,9.8066,0.1152,0.1368,-0.1711,-15.56,-33.56,49.63,41.25,-87.3,-122.2
12660,53.13764,-1.553041,140.73,8.77,3,157.78,21 / 22,2738613,2019-11-06 16:51:59:075,0.2032,-0.92,9.7153,0.0255,-0.0052,9.8065,0.0018,0.0752,0.0234,-30.56,-37.69,35.31,16.58,-87.22,-122.55
12661,53.13764,-1.553041,140.73,8.77,3,157.78,21 / 22,2738714,2019-11-06 16:51:59:176,0.8141,-1.4119,10.7333,-0.0071,0.012,9.8066,-0.0886,0.0503,-0.0281,-20.12,-35.56,30.81,25.4,-87.1,-123.01
12662,53.13764,-1.553041,140.73,8.77,3,157.78,21 / 22,2738814,2019-11-06 16:51:59:276,-0.3987,0.2335,9.249,-0.0195,0.0175,9.8066,-0.0617,0.0516,0.0696,-17.81,-34.81,29.69,25.06,-87.03,-125.27
12663,53.13764,-1.553041,140.73,8.77,3,157.78,20 / 20,2738914,2019-11-06 16:51:59:376,0.0347,-0.6024,8.8894,0.0119,0.0008,9.8066,-0.0421,-0.0529,0.031,-17.69,-35.37,29.38,24.52,-87.14,-124.9
12664,53.13764,-1.553041,140.73,8.77,3,157.78,20 / 20,2739014,2019-11-06 16:51:59:476,-0.0992,-1.504,10.4859,0.0176,0.0054,9.8066,0.0935,-0.1644,-0.0177,-19.94,-35.19,28.63,22.08,-87.13,-124.42
12665,53.13764,-1.553041,140.73,8.77,3,157.78,20 / 20,2739114,2019-11-06 16:51:59:576,0.1391,-0.6648,10.3377,-0.0185,-0.0112,9.8066,0.0211,0.0507,-0.0956,-27.94,-36.06,32.63,18.96,-87.08,-121.54
12666,53.13764,-1.553041,140.73,8.77,3,157.78,20 / 20,2739213,2019-11-06 16:51:59:675,0.7354,-0.5593,11.188,-0.0329,0.0247,9.8065,-0.1073,-0.1064,0.2093,-25.69,-35.44,58.88,30.41,-87.06,-126.65
12667,53.13764,-1.553041,140.73,8.77,3,157.78,20 / 20,2739313,2019-11-06 16:51:59:775,0.343,1.1822,7.5799,0.0337,-0.0249,9.8065,-0.0721,0.2181,0.0037,-16.37,-32.81,35.13,26.27,-87.14,-130.28
12668,53.13764,-1.553041,140.73,8.77,3,157.78,20 / 20,2739413,2019-11-06 16:51:59:875,4.1041,0.2905,10.5174,0.0818,0.0155,9.8062,0.228,-0.1925,-0.1745,-16.56,-33.5,31.44,29.39,-87.08,-123.25
12669,53.13764,-1.553041,140.73,8.77,3,157.78,20 / 20,2739514,2019-11-06 16:51:59:976,4.3734,0.8837,10.9515,-0.0616,0.0102,9.8064,-0.0946,0.5002,-0.1473,-16.75,-34.12,30.5,34.68,-87.25,-118.12
12670,53.13764,-1.553041,140.73,8.77,3,157.78,20 / 20,2739614,2019-11-06 16:52:00:076,1.607,1.7822,8.2634,-0.0118,0.0865,9.8062,-0.3155,0.2675,-0.1014,-16.87,-34.37,30.25,38.28,-87.76,-113.57
12671,53.13764,-1.553041,140.73,8.77,3,157.78,20 / 20,2739713,2019-11-06 16:52:00:175,-2.1572,-1.9257,9.6461,0.0225,-0.0005,9.8066,-0.0475,0.3579,-0.0435,-16.81,-33.87,31.31,30.17,-87.44,-122.35
12672,53.13764,-1.553041,140.73,8.77,3,157.78,20 / 20,2739814,2019-11-06 16:52:00:276,1.315,0.8141,9.194,0.0668,0.0088,9.8063,0.0599,0.4611,-0.443,-16.31,-33.5,33.94,37.9,-87.41,-118.32
12673,53.13764,-1.553041,140.73,8.77,3,157.78,22 / 23,2739914,2019-11-06 16:52:00:376,-1.6806,-2.0971,9.8391,0.0321,0.0303,9.8065,0.031,0.1314,-0.1269,-18.37,-33.62,53.5,43.41,-87.5,-119.21
12674,53.13764,-1.553041,140.73,8.77,3,157.78,22 / 23,2740015,2019-11-06 16:52:00:477,0.8198,0.6759,10.0975,0.0094,0.0109,9.8066,0.0127,0.3618,-0.2006,-35.37,-38.31,40.69,19.65,-87.48,-120.48
12675,53.13764,-1.553041,140.73,8.77,3,157.78,22 / 23,2740113,2019-11-06 16:52:00:575,-1.5833,-1.9068,10.1439,0.0616,0.0233,9.8064,0.1038,-0.0147,-0.0482,-21.31,-35.31,30.06,21.28,-87.65,-124.57
12676,53.13764,-1.553041,140.73,8.77,3,157.78,22 / 23,2740213,2019-11-06 16:52:00:675,1.5311,0.6152,9.989,0.0235,-0.0059,9.8066,0.001,0.2413,-0.0982,-18.69,-34.62,29.0,24.52,-87.53,-123.3
12677,53.13764,-1.553041,140.73,8.77,3,157.78,22 / 23,2740314,2019-11-06 16:52:00:776,1.9564,0.1124,9.0593,0.024,0.044,9.8065,0.0657,-0.2023,0.1384,-18.0,-34.31,29.19,23.85,-87.8,-125.22
12678,53.13764,-1.553041,140.73,8.77,3,157.78,22 / 23,2740414,2019-11-06 16:52:00:876,0.7632,0.0171,9.2643,0.0157,-0.0042,9.8066,0.0066,-0.0462,-0.0111,-19.12,-34.56,29.69,24.3,-87.67,-124.31
12679,53.13764,-1.553041,140.73,8.77,3,157.78,22 / 23,2740514,2019-11-06 16:52:00:976,1.451,1.0457,10.1549,-0.0238,0.0163,9.8065,-0.0092,-0.076,0.1279,-30.5,-36.06,34.75,16.64,-87.92,-123.23
12680,53.13764,-1.553041,140.73,8.77,3,157.78,22 / 23,2740614,2019-11-06 16:52:01:076,2.0491,0.2046,9.5197,0.0006,0.0075,9.8066,0.0719,0.0622,-0.0553,-27.25,-34.56,60.31,28.62,-87.95,-127.69
12681,53.13764,-1.553041,140.73,8.77,3,157.78,22 / 23,2740713,2019-11-06 16:52:01:175,-0.6884,-1.3569,10.8016,0.0071,-0.0238,9.8065,0.1335,-0.0381,0.0623,-18.44,-31.81,38.5,27.32,-87.8,-128.68
12682,53.13764,-1.553041,140.73,8.77,3,157.78,22 / 23,2740814,2019-11-06 16:52:01:276,2.5542,1.8282,9.5062,0.0124,-0.0115,9.8066,-0.0305,0.295,-0.2056,-17.31,-32.94,31.75,22.2,-87.66,-130.64
12683,53.13686,-1.55244,140.65,12.13,3,155.96,21 / 22,2740914,2019-11-06 16:52:01:376,1.1394,0.6582,10.4795,0.0223,0.0005,9.8066,0.0248,0.1638,0.0165,-17.5,-33.5,31.5,25.86,-87.36,-127.24
12684,53.13686,-1.55244,140.65,12.13,3,155.96,21 / 22,2741013,2019-11-06 16:52:01:475,1.2229,0.7452,10.5376,0.0091,-0.0025,9.8065,-0.1023,-0.0692,0.0219,-17.94,-33.44,29.75,24.18,-87.48,-125.85
12685,53.13686,-1.55244,140.65,12.13,3,155.96,21 / 22,2741113,2019-11-06 16:52:01:575,-1.0587,-1.3,10.6347,0.0393,0.0449,9.8064,0.0331,-0.4617,0.1902,-17.31,-32.81,30.88,26.51,-87.61,-125.77
12686,53.13686,-1.55244,140.65,12.13,3,155.96,21 / 22,2741213,2019-11-06 16:52:01:675,4.2384,1.0197,9.4556,0.0356,0.0029,9.8066,-0.0946,0.0692,0.063,-17.0,-32.75,34.06,29.99,-87.51,-124.55
12687,53.13686,-1.55244,140.65,12.13,3,155.96,21 / 22,2741314,2019-11-06 16:52:01:776,0.8634,-0.8009,9.7703,0.0348,0.0384,9.8065,0.1041,-0.4206,0.1512,-16.56,-31.31,44.75,31.89,-87.7,-128.22
12688,53.13686,-1.55244,140.65,12.13,3,155.96,21 / 22,2741414,2019-11-06 16:52:01:876,3.4477,1.5371,9.8504,0.0068,-0.0124,9.8066,0.0026,0.1088,-0.0481,-35.19,-37.19,39.5,7.82,-87.45,-131.24
12689,53.13686,-1.55244,140.65,12.13,3,155.96,21 / 22,2741513,2019-11-06 16:52:01:975,-0.5073,-0.531,10.3512,0.035,0.0176,9.8065,0.1009,-0.0803,0.1278,-21.81,-34.62,29.69,11.43,-87.38,-132.82
12690,53.13686,-1.55244,140.65,12.13,3,155.96,21 / 22,2741613,2019-11-06 16:52:02:075,1.2854,-1.5371,9.6784,-0.0096,-0.0086,9.8066,-0.0059,0.018,-0.0417,-19.87,-34.62,29.81,13.5,-87.23,-133.45
12691,53.13686,-1.55244,140.65,12.13,3,155.96,21 / 22,2741714,2019-11-06 16:52:02:176,0.8508,-0.5208,9.693,-0.0073,0.0214,9.8065,0.112,-0.1167,0.0538,-19.5,-34.56,29.88,16.93,-87.24,-131.53
12692,53.13686,-1.55244,140.65,12.13,3,155.96,21 / 22,2741814,2019-11-06 16:52:02:276,0.6103,-0.2318,9.6429,-0.0003,0.0139,9.8066,0.0189,-0.0627,0.0029,-20.5,-35.19,30.38,15.59,-87.14,-131.48
12693,53.13686,-1.55244,140.65,12.13,3,155.96,17 / 19,2741914,2019-11-06 16:52:02:376,-0.3218,-1.0171,9.3646,0.0079,-0.0121,9.8066,-0.0299,-0.1134,0.1236,-25.06,-35.94,31.13,8.62,-87.14,-132.89
12694,53.13686,-1.55244,140.65,12.13,3,155.96,17 / 19,2742013,2019-11-06 16:52:02:475,0.3706,-0.2496,9.4507,0.0113,-0.0171,9.8065,0.0008,-0.034,-0.0519,-31.0,-37.75,60.63,22.08,-87.24,-131.58
12695,53.13686,-1.55244,140.65,12.13,3,155.96,17 / 19,2742113,2019-11-06 16:52:02:575,0.2998,-0.7617,10.6877,0.0113,0.0008,9.8066,0.1013,-0.026,0.0342,-16.06,-32.31,38.38,22.62,-87.21,-135.41
12696,53.13686,-1.55244,140.65,12.13,3,155.96,17 / 19,2742214,2019-11-06 16:52:02:676,0.5932,-0.7507,9.9725,-0.0077,0.004,9.8066,0.0219,-0.0762,0.0166,-15.81,-33.56,33.69,16.21,-87.07,-139.35
12697,53.13686,-1.55244,140.65,12.13,3,155.96,17 / 19,2742314,2019-11-06 16:52:02:776,-0.5205,-0.2795,10.0739,0.0187,-0.0165,9.8066,0.0547,0.1073,-0.0107,-15.75,-33.94,32.06,17.11,-87.07,-137.16
12698,53.13686,-1.55244,140.65,12.13,3,155.96,17 / 19,2742414,2019-11-06 16:52:02:876,1.1405,-1.1116,10.1786,0.005,-0.0167,9.8066,0.0107,0.1903,-0.0912,-16.31,-34.31,30.06,10.13,-86.84,-142.37
12699,53.13686,-1.55244,140.65,12.13,3,155.96,17 / 19,2742514,2019-11-06 16:52:02:976,1.2614,1.419,9.8792,-0.0026,-0.0226,9.8066,-0.0017,0.2652,-0.1341,-16.31,-34.75,32.06,8.35,-86.87,-145.54
12700,53.13686,-1.55244,140.65,12.13,3,155.96,17 / 19,2742614,2019-11-06 16:52:03:076,0.4416,-1.7193,10.484,0.0042,-0.0089,9.8066,-0.1014,0.2196,-0.0142,-16.12,-33.94,34.19,6.41,-86.88,-148.71
12701,53.13686,-1.55244,140.65,12.13,3,155.96,17 / 19,2742713,2019-11-06 16:52:03:175,0.4597,-0.0664,10.1199,-0.0156,-0.0159,9.8066,0.0283,0.1901,-0.0944,-15.56,-32.5,48.44,14.41,-86.85,-147.67
12702,53.13686,-1.55244,140.65,12.13,3,155.96,17 / 19,2742813,2019-11-06 16:52:03:275,-0.6696,-0.833,9.3675,-0.0213,-0.0007,9.8066,0.0186,0.2166,-0.0843,-35.5,-38.69,48.0,354.13,-86.85,-149.55
12703,53.13686,-1.55244,140.65,12.13,3,155.96,22 / 23,2742913,2019-11-06 16:52:03:375,0.2544,-0.1346,10.5571,-0.0235,-0.0491,9.8065,-0.0032,0.4177,-0.1521,-21.5,-36.44,29.94,357.57,-86.64,-147.29
12704,53.13686,-1.55244,140.65,12.13,3,155.96,22 / 23,2743016,2019-11-06 16:52:03:478,-0.1589,-0.4004,9.2886,0.0008,0.0124,9.8066,0.0154,-0.049,0.0445,-18.5,-35.62,30.0,358.79,-86.74,-150.17
12705,53.13686,-1.55244,140.65,12.13,3,155.96,22 / 23,2743113,2019-11-06 16:52:03:575,0.8207,1.3603,9.3479,-0.0339,0.003,9.8065,-0.0639,0.1562,-0.1035,-18.19,-34.81,29.69,1.17,-86.73,-147.93
12706,53.13686,-1.55244,140.65,12.13,3,155.96,22 / 23,2743214,2019-11-06 16:52:03:676,0.6659,1.3897,9.3919,0.004,0.0262,9.8065,0.0644,-0.1147,0.1425,-18.56,-35.81,29.63,359.52,-86.79,-148.11
12707,53.13686,-1.55244,140.65,12.13,3,155.96,22 / 23,2743314,2019-11-06 16:52:03:776,1.0462,0.1207,9.047,-0.0232,-0.02,9.8065,0.0282,0.0499,-0.1562,-26.37,-37.19,31.44,352.85,-86.77,-146.78
12708,53.13686,-1.55244,140.65,12.13,3,155.96,22 / 23,2743414,2019-11-06 16:52:03:876,0.4819,-0.6891,10.3315,-0.0226,0.0245,9.8065,0.117,-0.071,0.0176,-28.37,-37.37,59.69,4.1,-86.67,-151.02
12709,53.13686,-1.55244,140.65,12.13,3,155.96,22 / 23,2743513,2019-11-06 16:52:03:975,0.0815,0.3603,8.8726,0.0165,-0.0233,9.8066,-0.1682,0.0036,0.0125,-15.5,-33.62,40.19,10.67,-86.69,-149.28
12710,53.13686,-1.55244,140.65,12.13,3,155.96,22 / 23,2743614,2019-11-06 16:52:04:076,-0.7566,0.6746,9.6204,0.0078,0.0069,9.8066,-0.1462,-0.0355,0.0799,-15.0,-34.62,33.0,9.41,-86.99,-146.64
12711,53.13686,-1.55244,140.65,12.13,3,155.96,22 / 23,2743713,2019-11-06 16:52:04:175,-0.6802,0.1428,9.4496,0.0083,0.0072,9.8066,-0.0521,-0.0752,0.044,-16.19,-35.12,31.44,10.1,-87.16,-143.12
12712,53.13686,-1.55244,140.65,12.13,3,155.96,22 / 23,2743814,2019-11-06 16:52:04:276,-0.9032,-1.379,10.6488,0.0035,-0.0303,9.8065,-0.0777,0.1783,-0.1084,-16.5,-34.94,30.75,10.59,-87.28,-142.63
12713,53.13686,-1.55244,140.65,12.13,3,155.96,17 / 20,2743915,2019-11-06 16:52:04:377,-1.2839,0.2094,10.6362,0.0038,0.0024,9.8066,0.0247,-0.1044,0.0652,-16.37,-34.44,32.06,7.74,-87.16,-146.07
12714,53.13686,-1.55244,140.65,12.13,3,155.96,17 / 20,2744013,2019-11-06 16:52:04:475,0.6968,1.0782,8.7179,0.0146,-0.0055,9.8065,-0.0492,0.0588,0.0511,-14.94,-33.62,33.19,11.34,-87.23,-144.74
12715,53.13686,-1.55244,140.65,12.13,3,155.96,17 / 20,2744114,2019-11-06 16:52:04:576,1.0555,-0.6061,10.2394,-0.0075,0.0195,9.8065,0.0823,0.0192,-0.0925,-15.69,-32.31,41.19,14.67,-87.25,-144.53
12716,53.13686,-1.55244,140.65,12.13,3,155.96,17 / 20,2744213,2019-11-06 16:52:04:675,1.8364,1.4873,9.8127,-0.0105,0.001,9.8066,0.0582,0.0929,-0.1704,-35.75,-38.62,46.81,354.94,-87.33,-147.45
12717,53.13686,-1.55244,140.65,12.13,3,155.96,17 / 20,2744313,2019-11-06 16:52:04:775,-0.49,-1.1329,9.9082,0.0269,0.0048,9.8066,-0.0005,-0.1369,0.1408,-21.44,-35.44,30.81,353.61,-87.31,-151.99
12718,53.13686,-1.55244,140.65,12.13,3,155.96,17 / 20,2744413,2019-11-06 16:52:04:875,0.2338,0.2548,9.8664,0.0045,0.0033,9.8066,-0.048,0.1354,-0.0426,-17.81,-34.62,29.69,359.78,-87.31,-149.25
12719,53.13686,-1.55244,140.65,12.13,3,155.96,17 / 20,2744513,2019-11-06 16:52:04:975,-1.111,-0.7567,9.06,0.0001,0.0143,9.8066,0.072,-0.0014,0.0272,-16.87,-35.31,29.06,0.2,-87.41,-149.43
12720,53.13686,-1.55244,140.65,12.13,3,155.96,17 / 20,2744614,2019-11-06 16:52:05:076,1.2924,0.3024,10.9539,-0.0367,0.0044,9.8065,0.0164,0.2472,-0.2217,-18.62,-36.19,29.31,355.34,-87.34,-151.2
12721,53.13686,-1.55244,140.65,12.13,3,155.96,17 / 20,2744714,2019-11-06 16:52:05:176,0.2402,2.4947,8.5456,0.058,-0.011,9.8064,-0.1548,-0.1148,0.1743,-22.69,-36.37,29.81,348.48,-87.38,-153.53
12722,53.13686,-1.55244,140.65,12.13,3,155.96,17 / 20,2744814,2019-11-06 16:52:05:276,3.3607,0.1716,9.9998,0.0007,-0.0133,9.8066,-0.0531,0.1632,-0.0863,-28.25,-37.19,60.19,3.99,-87.31,-151.1
12723,53.13686,-1.55244,140.65,12.13,3,155.96,20 / 21,2744917,2019-11-06 16:52:05:379,-1.1739,0.1792,9.3981,0.0418,-0.0061,9.8065,-0.0909,-0.1157,0.1687,-16.0,-32.75,40.5,5.97,-87.38,-152.92
12724,53.13686,-1.55244,140.65,12.13,3,155.96,20 / 21,2745013,2019-11-06 16:52:05:475,-0.1417,-0.5288,11.1036,0.009,-0.0233,9.8066,-0.1577,0.1536,-0.061,-15.87,-33.87,34.0,5.94,-87.42,-149.11
12725,53.13686,-1.55244,140.65,12.13,3,155.96,20 / 21,2745113,2019-11-06 16:52:05:575,-0.1191,-1.2917,10.2253,-0.0096,0.0181,9.8066,0.1669,0.0284,-0.067,-16.31,-35.62,31.25,3.78,-87.42,-149.1
12726,53.13686,-1.55244,140.65,12.13,3,155.96,20 / 21,2745215,2019-11-06 16:52:05:677,0.2663,-0.5491,9.474,-0.0572,0.0015,9.8064,0.1137,0.2705,-0.3152,-16.62,-35.25,30.88,355.32,-87.25,-155.71
12727,53.13686,-1.55244,140.65,12.13,3,155.96,20 / 21,2745314,2019-11-06 16:52:05:776,1.9266,1.401,9.4882,0.031,-0.0002,9.8065,-0.1402,0.0765,0.0696,-16.25,-35.87,30.69,355.42,-87.32,-157.06
12728,53.13686,-1.55244,140.65,12.13,3,155.96,20 / 21,2745414,2019-11-06 16:52:05:876,0.7419,0.3028,8.9699,0.0056,-0.0472,9.8065,-0.23,0.3227,-0.0581,-16.25,-35.31,33.5,1.25,-87.31,-153.6
12729,53.13686,-1.55244,140.65,12.13,3,155.96,20 / 21,2745514,2019-11-06 16:52:05:976,1.7622,-0.737,11.2669,-0.0096,0.0088,9.8066,0.0843,0.1411,-0.0951,-15.75,-33.25,40.69,5.98,-87.56,-152.9
12730,53.13686,-1.55244,140.65,12.13,3,155.96,20 / 21,2745614,2019-11-06 16:52:06:076,-3.1328,-0.2095,9.7186,-0.0313,-0.0024,9.8065,0.0923,0.2856,-0.245,-31.5,-39.06,56.81,354.05,-87.49,-157.24
12731,53.13686,-1.55244,140.65,12.13,3,155.96,20 / 21,2745714,2019-11-06 16:52:06:176,0.2975,0.3053,9.487,0.0054,-0.0172,9.8065,-0.0241,0.1716,-0.051,-21.37,-36.56,29.44,341.71,-87.4,-161.52
12732,53.13686,-1.55244,140.65,12.13,3,155.96,20 / 21,2745814,2019-11-06 16:52:06:276,-0.4108,-1.2939,9.6806,0.0162,0.0024,9.8065,-0.1701,0.1728,0.078,-18.75,-35.81,29.13,346.49,-87.53,-159.67
12733,53.13686,-1.55244,140.65,12.13,3,155.96,19 / 21,2745913,2019-11-06 16:52:06:375,1.9569,1.0908,9.9042,-0.032,-0.031,9.8065,0.019,0.3147,-0.1906,-18.81,-35.87,29.44,348.88,-87.64,-157.4
12734,53.13686,-1.55244,140.65,12.13,3,155.96,19 / 21,2746013,2019-11-06 16:52:06:475,0.2141,0.0905,8.9491,-0.0306,-0.0239,9.8066,0.111,0.3149,-0.0572,-19.69,-35.69,28.5,350.27,-87.57,-154.71
12735,53.13686,-1.55244,140.65,12.13,3,155.96,19 / 21,2746113,2019-11-06 16:52:06:575,1.4804,1.015,10.3832,-0.0504,-0.0524,9.8063,0.0717,0.2974,-0.2625,-23.44,-36.37,30.0,346.68,-87.15,-155.2
12736,53.13686,-1.55244,140.65,12.13,3,155.96,19 / 21,2746213,2019-11-06 16:52:06:675,-0.7362,1.462,9.1833,-0.0126,0.0268,9.8065,0.0388,0.0456,0.0583,-34.62,-39.62,53.63,343.77,-87.18,-162.77
12737,53.13686,-1.55244,140.65,12.13,3,155.96,19 / 21,2746314,2019-11-06 16:52:06:776,0.8657,0.9727,10.4051,-0.0081,-0.0321,9.8066,-0.2623,0.239,-0.1689,-16.5,-33.37,41.06,358.87,-87.41,-159.78
12738,53.13686,-1.55244,140.65,12.13,3,155.96,19 / 21,2746414,2019-11-06 16:52:06:876,-1.1119,0.6598,9.8305,0.0485,-0.0288,9.8064,-0.0376,-0.0289,0.1917,-16.31,-34.5,33.75,352.33,-87.66,-162.18
12739,53.13686,-1.55244,140.65,12.13,3,155.96,19 / 21,2746514,2019-11-06 16:52:06:976,2.5778,-1.4333,10.1459,-0.0217,-0.0283,9.8066,0.1146,0.0433,-0.2428,-15.75,-35.5,32.0,347.22,-87.26,-165.61
12740,53.13686,-1.55244,140.65,12.13,3,155.96,19 / 21,2746614,2019-11-06 16:52:07:076,1.5865,-0.9111,10.7661,-0.0302,0.0074,9.8066,0.1189,0.0015,-0.0341,-16.44,-35.62,31.63,344.04,-87.21,-168.6
12741,53.13686,-1.55244,140.65,12.13,3,155.96,19 / 21,2746714,2019-11-06 16:52:07:176,1.0304,1.9977,8.8529,0.0207,-0.0161,9.8066,-0.1926,0.1606,-0.015,-16.19,-35.62,30.81,342.95,-87.06,-168.84
12742,53.13686,-1.55244,140.65,12.13,3,155.96,19 / 21,2746814,2019-11-06 16:52:07:276,0.9237,-0.0406,9.7319,0.0002,-0.0131,9.8066,-0.0476,0.0332,0.0396,-16.06,-35.75,32.19,345.06,-87.25,-167.65
12743,53.13686,-1.55244,140.65,12.13,3,155.96,19 / 21,2746914,2019-11-06 16:52:07:376,1.9198,1.9239,8.1815,-0.0426,0.0077,9.8065,0.0779,0.3182,-0.2116,-15.44,-34.12,39.88,356.16,-87.21,-163.13
12744,53.13686,-1.55244,140.65,12.13,3,155.96,19 / 21,2747014,2019-11-06 16:52:07:476,-1.4986,-0.6224,11.087,-0.0538,0.0098,9.8065,0.0591,0.0789,-0.0838,-30.56,-40.19,57.44,344.42,-87.25,-166.57
12745,53.13686,-1.55244,140.65,12.13,3,155.96,19 / 21,2747114,2019-11-06 16:52:07:576,1.556,2.697,8.6373,0.0038,-0.0586,9.8064,-0.2311,0.3802,-0.0795,-24.44,-38.06,30.69,340.61,-87.3,-160.75
12746,53.13686,-1.55244,140.65,12.13,3,155.96,19 / 21,2747214,2019-11-06 16:52:07:676,2.5723,1.3629,9.5506,0.0331,0.0079,9.8066,-0.0986,-0.1731,0.1604,-18.69,-36.81,28.88,343.51,-87.46,-162.47
12747,53.13686,-1.55244,140.65,12.13,3,155.96,19 / 21,2747314,2019-11-06 16:52:07:776,1.0981,0.3024,9.5932,-0.0268,0.0394,9.8064,0.2014,-0.2034,0.0043,-18.5,-36.44,29.31,348.03,-87.59,-159.6
12748,53.13686,-1.55244,140.65,12.13,3,155.96,19 / 21,2747413,2019-11-06 16:52:07:875,0.4687,1.6949,10.3024,-0.0004,0.0362,9.8065,0.1936,-0.1014,0.0299,-19.25,-37.31,29.19,342.54,-87.5,-163.41
12749,53.13686,-1.55244,140.65,12.13,3,155.96,19 / 21,2747513,2019-11-06 16:52:07:975,-0.0447,1.4873,8.579,0.0451,-0.009,9.8065,-0.1856,0.0313,0.0533,-23.37,-38.0,29.5,331.58,-87.54,-169.74
12750,53.13686,-1.55244,140.65,12.13,3,155.96,19 / 21,2747613,2019-11-06 16:52:08:075,0.2204,0.1634,10.1288,0.0159,0.005,9.8066,-0.0001,0.0031,0.0956,-35.06,-40.56,49.5,336.47,-87.62,-167.88
12751,53.13686,-1.55244,140.65,12.13,3,155.96,19 / 21,2747713,2019-11-06 16:52:08:175,1.2874,0.2538,10.6992,-0.0059,-0.0033,9.8066,0.1371,0.0464,-0.0266,-16.37,-33.31,44.06,349.56,-87.46,-170.12
12752,53.13686,-1.55244,140.65,12.13,3,155.96,19 / 21,2747813,2019-11-06 16:52:08:275,1.2878,-1.1116,11.4553,0.0016,-0.0051,9.8066,0.1041,-0.0587,-0.0206,-16.62,-35.06,34.56,344.5,-87.1,-168.88
12753,53.13686,-1.55244,140.65,12.13,3,155.96,21 / 21,2747914,2019-11-06 16:52:08:376,1.2583,0.288,9.2395,0.0238,-0.0171,9.8066,-0.0891,0.0695,0.0657,-17.19,-36.19,31.06,339.02,-86.97,-171.11
12754,53.13686,-1.55244,140.65,12.13,3,155.96,21 / 21,2748014,2019-11-06 16:52:08:476,-0.2837,0.6675,9.6205,-0.017,0.0316,9.8066,0.0201,0.0086,0.0618,-16.87,-36.31,30.25,344.58,-87.19,-165.08
12755,53.13686,-1.55244,140.65,12.13,3,155.96,21 / 21,2748115,2019-11-06 16:52:08:577,0.7112,2.058,9.5166,-0.0223,-0.0082,9.8065,0.0183,0.0629,-0.091,-17.81,-36.0,30.38,343.68,-87.18,-164.52
12756,53.13686,-1.55244,140.65,12.13,3,155.96,21 / 21,2748213,2019-11-06 16:52:08:675,0.6341,-0.0395,10.711,-0.0041,-0.0263,9.8066,-0.1026,0.107,0.0113,-17.06,-35.37,31.63,347.26,-87.19,-164.15
12757,53.13686,-1.55244,140.65,12.13,3,155.96,21 / 21,2748314,2019-11-06 16:52:08:776,0.2518,1.0338,11.0187,0.006,0.0053,9.8066,0.0653,-0.0136,0.0301,-16.81,-34.25,36.56,353.11,-87.09,-161.91
12758,53.13686,-1.55244,140.65,12.13,3,155.96,21 / 21,2748414,2019-11-06 16:52:08:876,1.899,-0.3235,9.192,-0.0093,0.0265,9.8066,0.0458,-0.0132,0.0951,-27.62,-37.94,57.13,353.57,-87.06,-160.06
12759,53.13686,-1.55244,140.65,12.13,3,155.96,21 / 21,2748513,2019-11-06 16:52:08:975,1.3003,-0.7868,11.9005,-0.0132,0.0094,9.8066,0.1698,-0.0937,-0.0171,-29.56,-38.94,31.69,338.62,-87.1,-157.27
12760,53.13686,-1.55244,140.65,12.13,3,155.96,21 / 21,2748614,2019-11-06 16:52:09:076,0.7687,0.1672,11.0089,-0.007,0.0156,9.8066,0.0996,0.017,0.0894,-21.0,-37.25,29.06,344.38,-86.95,-158.84
12761,53.13686,-1.55244,140.65,12.13,3,155.96,21 / 21,2748714,2019-11-06 16:52:09:176,1.1599,0.4118,9.3053,-0.012,-0.0245,9.8065,-0.1337,0.1194,-0.0818,-20.25,-36.75,28.44,347.96,-86.91,-155.79
12762,53.13686,-1.55244,140.65,12.13,3,155.96,21 / 21,2748814,2019-11-06 16:52:09:276,1.1985,0.7307,9.8654,0.0157,-0.0163,9.8066,0.0463,0.0445,0.0336,-20.06,-36.44,28.25,347.35,-86.99,-156.41
12763,53.13686,-1.55244,140.65,12.13,3,155.96,22 / 22,2748914,2019-11-06 16:52:09:376,0.9515,-0.4053,9.9148,0.0003,0.0146,9.8066,0.0959,-0.0776,-0.0542,-23.19,-37.87,28.0,341.71,-86.77,-157.8
12764,53.13686,-1.55244,140.65,12.13,3,155.96,22 / 22,2749014,2019-11-06 16:52:09:476,0.1978,-0.3877,10.1755,-0.0022,-0.022,9.8066,-0.0311,0.1042,-0.0199,-35.5,-40.87,42.75,339.97,-86.63,-160.0
12765,53.13686,-1.55244,140.65,12.13,3,155.96,22 / 22,2749114,2019-11-06 16:52:09:576,1.402,-0.0985,10.0307,0.0054,-0.0059,9.8065,0.0138,0.1434,-0.0619,-20.56,-34.5,53.88,358.95,-86.7,-159.76
12766,53.13686,-1.55244,140.65,12.13,3,155.96,22 / 22,2749219,2019-11-06 16:52:09:681,0.0849,0.2754,10.2022,-0.0123,-0.0146,9.8065,-0.0147,0.0382,0.029,-18.0,-34.75,33.75,353.72,-86.62,-158.03
12767,53.13686,-1.55244,140.65,12.13,3,155.96,22 / 22,2749313,2019-11-06 16:52:09:775,0.1543,-0.3042,11.0197,0.015,-0.0038,9.8066,0.1121,0.0407,0.0573,-18.19,-36.12,30.81,349.88,-86.57,-159.36
12768,53.13686,-1.55244,140.65,12.13,3,155.96,22 / 22,2749413,2019-11-06 16:52:09:875,1.9455,0.6736,9.5251,0.005,0.0133,9.8066,0.0483,0.0322,0.1057,-18.94,-36.0,29.88,348.43,-86.32,-158.45
12769,53.13686,-1.55244,140.65,12.13,3,155.96,22 / 22,2749514,2019-11-06 16:52:09:976,-0.6892,-1.2664,10.7946,0.0061,-0.0017,9.8066,-0.0369,-0.08,-0.0168,-18.81,-36.0,30.06,349.25,-86.28,-157.68
12770,53.13686,-1.55244,140.65,12.13,3,155.96,22 / 22,2749614,2019-11-06 16:52:10:076,2.2133,0.7461,8.911,-0.0043,-0.0134,9.8066,-0.0581,0.2285,-0.0353,-18.56,-35.56,30.31,348.58,-86.37,-158.32
12771,53.13686,-1.55244,140.65,12.13,3,155.96,22 / 22,2749714,2019-11-06 16:52:10:176,1.4081,1.1415,9.7725,0.0052,0.0233,9.8066,-0.0481,0.0857,0.011,-18.31,-34.12,34.5,355.03,-86.41,-157.47
12772,53.13686,-1.55244,140.65,12.13,3,155.96,22 / 22,2749814,2019-11-06 16:52:10:276,1.6757,0.4942,9.5329,-0.013,-0.011,9.8066,-0.0077,0.3109,-0.1093,-28.75,-37.75,56.56,356.14,-86.44,-156.74
12773,53.13686,-1.55244,140.65,12.13,3,155.96,21 / 21,2749913,2019-11-06 16:52:10:375,0.9392,0.7296,10.2968,-0.0277,0.0,9.8065,0.0239,0.0586,-0.0599,-31.5,-38.62,31.81,337.3,-86.49,-157.38
12774,53.135845,-1.551602,140.81,15.62,3,144.81,21 / 21,2750013,2019-11-06 16:52:10:475,-0.7333,0.671,9.3842,-0.0085,0.0349,9.8065,0.0205,0.0849,-0.0767,-22.12,-37.12,28.31,342.86,-86.42,-157.86
12775,53.135845,-1.551602,140.81,15.62,3,144.81,21 / 21,2750113,2019-11-06 16:52:10:575,0.6066,-0.3362,10.3186,-0.0159,-0.012,9.8066,-0.0338,-0.0547,0.0503,-21.37,-36.69,28.69,343.98,-86.6,-159.11
12776,53.135845,-1.551602,140.81,15.62,3,144.81,21 / 21,2750213,2019-11-06 16:52:10:675,0.3312,0.6529,10.2271,0.0178,-0.0069,9.8066,-0.1033,0.0793,-0.047,-21.75,-36.75,28.31,345.78,-86.68,-155.2
12777,53.135845,-1.551602,140.81,15.62,3,144.81,21 / 21,2750313,2019-11-06 16:52:10:775,-0.6676,0.0765,10.2153,0.0077,0.0021,9.8066,-0.0043,0.0239,0.0987,-24.31,-37.5,28.13,342.24,-86.65,-156.11
12778,53.135845,-1.551602,140.81,15.62,3,144.81,21 / 21,2750413,2019-11-06 16:52:10:875,-0.3937,-0.1684,9.7619,-0.0394,-0.0015,9.8066,0.01,0.113,0.0317,-36.12,-39.62,36.13,342.11,-86.55,-152.02
12779,53.135845,-1.551602,140.81,15.62,3,144.81,21 / 21,2750514,2019-11-06 16:52:10:976,0.4867,1.4682,9.1932,-0.0039,-0.0078,9.8066,-0.0471,0.1031,-0.0678,-25.0,-35.94,57.13,10.22,-86.62,-146.46
12780,53.135845,-1.551602,140.81,15.62,3,144.81,21 / 21,2750614,2019-11-06 16:52:11:076,2.0697,0.3864,9.8729,0.012,0.0055,9.8066,-0.0298,0.1061,-0.0478,-19.19,-34.37,33.25,359.41,-86.75,-150.63
12781,53.135845,-1.551602,140.81,15.62,3,144.81,21 / 21,2750713,2019-11-06 16:52:11:175,-0.134,-1.4882,9.7266,0.0215,0.0339,9.8065,0.0283,-0.2179,0.1072,-19.75,-35.94,30.63,354.93,-86.96,-151.97
12782,53.135845,-1.551602,140.81,15.62,3,144.81,21 / 21,2750813,2019-11-06 16:52:11:275,-1.0695,0.2713,9.5957,-0.024,-0.0121,9.8066,0.0383,0.2195,-0.0315,-19.87,-35.56,29.69,355.45,-87.0,-150.62
12783,53.135845,-1.551602,140.81,15.62,3,144.81,20 / 21,2750914,2019-11-06 16:52:11:376,1.7252,1.7405,9.4479,-0.0071,-0.0172,9.8066,-0.0138,0.2531,-0.1613,-19.69,-35.31,29.06,356.11,-86.84,-149.08
12784,53.135845,-1.551602,140.81,15.62,3,144.81,20 / 21,2751014,2019-11-06 16:52:11:476,0.3205,0.8412,9.6701,0.0031,-0.0144,9.8066,-0.0096,0.1112,-0.0528,-19.31,-34.94,29.44,351.99,-86.82,-154.32
12785,53.135845,-1.551602,140.81,15.62,3,144.81,20 / 21,2751114,2019-11-06 16:52:11:576,0.7889,0.6778,10.6036,0.0034,0.0156,9.8066,0.1345,0.0068,-0.0726,-19.44,-34.5,33.13,351.65,-86.75,-157.98
12786,53.135845,-1.551602,140.81,15.62,3,144.81,20 / 21,2751214,2019-11-06 16:52:11:676,0.3541,-0.8211,10.0403,-0.0042,-0.0112,9.8066,0.1115,0.0443,-0.0166,-25.5,-36.12,55.5,357.26,-86.6,-158.58
12787,53.135845,-1.551602,140.81,15.62,3,144.81,20 / 21,2751313,2019-11-06 16:52:11:775,1.9128,1.9323,9.7455,-0.0061,-0.0296,9.8065,0.0027,0.2336,-0.1238,-34.75,-38.75,34.06,332.55,-86.41,-160.26
12788,53.135845,-1.551602,140.81,15.62,3,144.81,20 / 21,2751413,2019-11-06 16:52:11:875,-2.0425,-0.4235,9.629,-0.0103,-0.0043,9.8066,-0.0184,0.0439,-0.0265,-24.12,-37.19,27.31,334.99,-86.37,-161.76
12789,53.135845,-1.551602,140.81,15.62,3,144.81,20 / 21,2751514,2019-11-06 16:52:11:976,-0.3986,0.5954,9.5998,-0.0217,0.0134,9.8066,-0.0354,0.1767,-0.0001,-22.19,-37.19,26.81,337.68,-86.59,-161.74
12790,53.135845,-1.551602,140.81,15.62,3,144.81,20 / 21,2751614,2019-11-06 16:52:12:076,-0.442,0.8307,10.6508,0.0213,0.0283,9.8065,0.0574,0.0519,-0.022,-22.0,-36.81,27.0,341.4,-86.8,-158.31
12791,53.135845,-1.551602,140.81,15.62,3,144.81,20 / 21,2751715,2019-11-06 16:52:12:177,2.6928,1.1337,10.2379,0.051,-0.0089,9.8065,0.0257,0.1413,-0.0505,-23.69,-36.62,27.63,327.24,-86.69,-170.32
12792,53.135845,-1.551602,140.81,15.62,3,144.81,20 / 21,2751814,2019-11-06 16:52:12:276,0.2655,-0.2797,9.9308,-0.0111,-0.0219,9.8065,-0.0734,0.1161,0.0782,-36.56,-39.62,35.0,324.77,-86.58,-167.05
12793,53.135845,-1.551602,140.81,15.62,3,144.81,20 / 21,2751914,2019-11-06 16:52:12:376,1.5891,1.384,10.3884,-0.0538,0.0,9.8064,0.0408,0.124,-0.0818,-26.5,-35.0,56.44,352.91,-86.77,-161.95
12794,53.135845,-1.551602,140.81,15.62,3,144.81,20 / 21,2752014,2019-11-06 16:52:12:476,-0.754,-0.5792,9.6064,-0.0163,0.0306,9.8065,0.1244,-0.0922,0.0941,-21.0,-34.06,35.25,348.74,-86.7,-159.74
12795,53.135845,-1.551602,140.81,15.62,3,144.81,20 / 21,2752113,2019-11-06 16:52:12:575,-0.326,0.8403,9.542,-0.0042,-0.0319,9.8065,-0.1026,0.1467,-0.0528,-20.75,-34.69,30.63,346.6,-86.7,-158.55
12796,53.135845,-1.551602,140.81,15.62,3,144.81,20 / 21,2752213,2019-11-06 16:52:12:675,-0.4084,0.6815,10.0054,0.0326,-0.0036,9.8066,-0.0593,0.033,-0.0647,-20.94,-34.81,30.06,343.73,-86.77,-160.39
12797,53.135845,-1.551602,140.81,15.62,3,144.81,20 / 21,2752314,2019-11-06 16:52:12:776,1.5945,0.7861,9.3626,0.0166,0.0058,9.8065,-0.0313,0.1799,-0.0343,-21.44,-35.37,29.13,335.42,-86.75,-167.31
12798,53.135845,-1.551602,140.81,15.62,3,144.81,20 / 21,2752414,2019-11-06 16:52:12:876,-0.1192,-0.8076,10.9558,0.0282,-0.0172,9.8066,-0.0492,0.0651,-0.0419,-19.56,-34.31,29.56,333.17,-86.67,-171.69
12799,53.135845,-1.551602,140.81,15.62,3,144.81,20 / 21,2752514,2019-11-06 16:52:12:976,2.494,2.0851,8.8433,-0.0218,0.0014,9.8066,0.1368,0.337,-0.1961,-19.19,-33.5,31.94,333.77,-86.72,-174.21
12800,53.135845,-1.551602,140.81,15.62,3,144.81,20 / 21,2752613,2019-11-06 16:52:13:075,-1.3556,0.1115,9.7921,-0.0069,0.033,9.8066,-0.0209,-0.1749,-0.0348,-19.12,-33.25,44.25,337.76,-86.69,-177.99
12801,53.135845,-1.551602,140.81,15.62,3,144.81,20 / 21,2752714,2019-11-06 16:52:13:176,1.3546,1.7844,8.252,0.018,0.0049,9.8066,-0.1354,0.16,0.0079,-35.19,-39.06,32.19,307.63,-86.99,177.19
12802,53.135845,-1.551602,140.81,15.62,3,144.81,20 / 21,2752814,2019-11-06 16:52:13:276,2.0701,1.8788,9.7395,0.0455,0.0286,9.8064,0.0541,-0.2591,0.2283,-24.5,-38.06,26.38,311.93,-87.07,177.01
12803,53.135845,-1.551602,140.81,15.62,3,144.81,22 / 23,2752914,2019-11-06 16:52:13:376,3.0469,2.2226,11.6094,-0.0081,-0.0351,9.8065,0.0055,0.0553,-0.0807,-22.5,-37.69,26.63,311.35,-86.85,173.14
12804,53.135845,-1.551602,140.81,15.62,3,144.81,22 / 23,2753013,2019-11-06 16:52:13:475,-1.4075,0.6491,8.6139,0.0657,0.0434,9.8062,-0.0327,-0.6257,0.419,-22.06,-37.25,26.31,302.57,-86.71,165.86
12805,53.135845,-1.551602,140.81,15.62,3,144.81,22 / 23,2753114,2019-11-06 16:52:13:576,-3.182,-4.9646,11.0617,0.0478,0.03,9.8064,0.0991,-0.7265,0.4256,-23.12,-37.31,27.0,306.55,-86.56,169.91
12806,53.135845,-1.551602,140.81,15.62,3,144.81,22 / 23,2753214,2019-11-06 16:52:13:676,-0.4713,5.1915,8.4709,-0.0091,0.0714,9.8063,0.0864,-0.0377,0.1108,-29.12,-37.62,28.38,305.69,-86.57,174.38
12807,53.135845,-1.551602,140.81,15.62,3,144.81,22 / 23,2753313,2019-11-06 16:52:13:775,-4.0361,-0.2336,9.8857,0.033,0.0264,9.8065,-0.0185,-0.4717,0.2472,-25.81,-35.69,55.19,323.26,-86.78,169.75
12808,53.135845,-1.551602,140.81,15.62,3,144.81,22 / 23,2753414,2019-11-06 16:52:13:876,4.0662,3.2866,9.6837,-0.0006,0.0008,9.8066,0.0001,0.1181,0.0383,-19.87,-34.37,33.81,320.66,-86.84,172.9
12809,53.135845,-1.551602,140.81,15.62,3,144.81,22 / 23,2753514,2019-11-06 16:52:13:976,-0.6205,1.8882,10.0253,0.0264,0.0386,9.8064,0.0085,-0.3857,0.2157,-20.06,-35.56,29.38,317.94,-86.93,174.68
12810,53.135845,-1.551602,140.81,15.62,3,144.81,22 / 23,2753614,2019-11-06 16:52:14:076,2.8365,3.406,9.5736,-0.0143,-0.0224,9.8065,-0.0146,0.2547,-0.1109,-21.19,-37.25,27.5,321.3,-86.86,-179.71
12811,53.135845,-1.551602,140.81,15.62,3,144.81,22 / 23,2753714,2019-11-06 16:52:14:176,-0.7001,0.9421,10.0142,0.0175,0.0276,9.8066,0.0469,-0.0422,0.0125,-20.69,-36.31,28.19,320.38,-86.83,179.38
12812,53.135845,-1.551602,140.81,15.62,3,144.81,22 / 23,2753813,2019-11-06 16:52:14:275,-1.7445,-0.7851,10.6297,-0.0185,-0.0319,9.8065,-0.0017,0.4149,-0.2442,-20.31,-35.56,28.94,320.46,-86.79,177.18
12813,53.135845,-1.551602,140.81,15.62,3,144.81,20 / 21,2753914,2019-11-06 16:52:14:376,-1.9202,-0.3541,10.1063,0.0165,0.0094,9.8066,-0.0015,-0.0188,0.0306,-20.19,-34.12,31.13,322.68,-86.67,177.41
12814,53.135845,-1.551602,140.81,15.62,3,144.81,20 / 21,2754014,2019-11-06 16:52:14:476,0.4476,0.9846,9.8449,-0.0249,-0.0268,9.8066,-0.0283,0.3893,-0.112,-20.37,-34.06,46.13,336.29,-86.58,-179.25
12815,53.135845,-1.551602,140.81,15.62,3,144.81,20 / 21,2754113,2019-11-06 16:52:14:575,1.6021,2.3514,10.0135,-0.004,-0.0136,9.8066,0.0299,0.0871,-0.0649,-40.5,-41.37,41.5,315.7,-86.49,-178.91
12816,53.135845,-1.551602,140.81,15.62,3,144.81,20 / 21,2754214,2019-11-06 16:52:14:676,-0.0142,1.1912,9.7513,-0.014,-0.0204,9.8066,-0.0158,0.101,-0.0069,-26.06,-38.94,26.25,313.91,-86.46,-178.33
12817,53.135845,-1.551602,140.81,15.62,3,144.81,20 / 21,2754314,2019-11-06 16:52:14:776,-0.5509,0.5153,10.4161,-0.0022,-0.0051,9.8066,0.0435,0.0394,-0.0152,-23.19,-38.19,27.44,322.15,-86.38,-174.99
