,GPS LATITUDE (degrees), GPS LONGITUDE (degrees), GPS ALTITUDE (m), GPS SPEED (Kmh), GPS ACCURACY (m), GPS ORIENTATION (Â°),GPS SATELLITES IN RANGE, TIME SINCE START (ms), DATE (YYYY-MO-DD HH-MI-SS_SSS), ACCELEROMETER X (m/s²) , ACCELEROMETER Y (m/s²), ACCELEROMETER Z (m/s²), GRAVITY X (m/s²), GRAVITY Y (m/s²), GRAVITY Z (m/s²), GYROSCOPE Yaw (rad/s), GYROSCOPE Pitch (rad/s), GYROSCOPE Roll (rad/s), MAGNETIC FIELD X (Î¼T), MAGNETIC FIELD Y (Î¼T), MAGNETIC FIELD Z (Î¼T), ORIENTATION (Yaw) (Â°), ORIENTATION (Pitch) (Â°), ORIENTATION (Roll ) (Â°)
8995,52.39885,-1.245433,185.55,0.0,3,106.04,18 / 18,1375907,2019-09-04 20:29:28:020,0.0144,-0.1194,9.8368,0.0014,-0.0009,9.8066,-0.0008,0.0031,-0.0018,-19.69,-30.19,9.13,113.67,-85.38,-6.3
8996,52.39885,-1.245433,185.55,0.0,3,106.04,18 / 18,1376007,2019-09-04 20:29:28:120,0.0337,-0.0711,9.8341,0.0017,0.0015,9.8066,0.0005,-0.0043,-0.0052,-19.81,-30.5,9.19,113.71,-85.4,-6.24
8997,52.39885,-1.245433,185.55,0.0,3,106.04,18 / 18,1376108,2019-09-04 20:29:28:221,0.0441,-0.2414,9.8289,0.0003,-0.0005,9.8066,-0.0012,0.0049,-0.0002,-20.06,-30.56,9.13,113.81,-85.4,-6.32
8998,52.39885,-1.245433,185.55,0.0,3,106.04,18 / 18,1376208,2019-09-04 20:29:28:321,0.0251,-0.12,9.8711,0.0009,0.0001,9.8066,0.0006,-0.0032,-0.0019,-20.19,-30.5,9.38,113.55,-85.41,-6.39
8999,52.39885,-1.245433,185.55,0.0,3,106.04,18 / 18,1376308,2019-09-04 20:29:28:421,0.0321,-0.0911,9.8237,-0.0002,-0.0019,9.8066,-0.0055,0.0091,0.001,-19.44,-30.37,9.44,114.68,-85.42,-6.56
9000,52.39885,-1.245433,185.55,0.0,3,106.04,19 / 19,1376408,2019-09-04 20:29:28:521,0.0259,-0.2661,9.8828,0.0008,0.0004,9.8066,-0.0039,0.0091,-0.001,-20.06,-30.12,8.94,113.36,-85.42,-6.58
9001,52.39885,-1.245433,185.55,0.0,3,106.04,19 / 19,1376508,2019-09-04 20:29:28:621,0.0699,-0.1874,9.8458,0.0004,0.0006,9.8066,0.0015,-0.0039,-0.0012,-20.0,-30.62,9.31,113.67,-85.42,-6.45
9002,52.39885,-1.245433,185.55,0.0,3,106.04,19 / 19,1376607,2019-09-04 20:29:28:720,-0.009,-0.0997,9.8251,0.001,-0.0011,9.8066,0.0012,-0.01,-0.0014,-19.37,-30.19,9.25,114.74,-85.43,-6.48
9003,52.39885,-1.245433,185.55,0.0,3,106.04,19 / 19,1376708,2019-09-04 20:29:28:821,0.0368,-0.1777,9.9069,0.0002,-0.0009,9.8066,-0.002,0.0073,-0.0032,-19.37,-30.06,9.5,116.92,-85.43,-6.47
9004,52.39885,-1.245433,185.55,0.0,3,106.04,19 / 19,1376807,2019-09-04 20:29:28:920,-0.0013,-0.2801,9.831,0.001,-0.0003,9.8066,0.0006,-0.0009,-0.001,-19.62,-30.0,9.5,115.55,-85.44,-6.49
9005,52.39885,-1.245433,185.55,0.0,3,106.04,19 / 19,1376908,2019-09-04 20:29:29:021,-0.0265,-0.1801,9.8487,0.0007,-0.0001,9.8066,-0.0014,0.0019,-0.0016,-19.44,-30.44,9.69,116.98,-85.45,-6.39
9006,52.39885,-1.245433,185.55,0.0,3,106.04,19 / 19,1377008,2019-09-04 20:29:29:121,0.1017,-0.1801,9.9073,0.0014,0.0001,9.8066,0.0012,-0.0063,0.001,-19.56,-30.31,9.13,113.56,-85.45,-6.32
9007,52.39885,-1.245433,185.55,0.0,3,106.04,19 / 19,1377108,2019-09-04 20:29:29:221,0.062,-0.1192,9.8309,0.0001,-0.0008,9.8066,-0.0004,0.0019,-0.0019,-19.56,-30.06,9.0,113.51,-85.46,-6.37
9008,52.39885,-1.245433,185.55,0.0,3,106.04,19 / 19,1377207,2019-09-04 20:29:29:320,0.0042,-0.257,9.8232,0.0,0.0011,9.8066,0.0004,-0.0073,-0.0023,-19.69,-30.37,9.63,115.6,-85.47,-6.39
9009,52.39885,-1.245433,185.55,0.0,3,106.04,17 / 18,1377308,2019-09-04 20:29:29:421,0.0226,-0.0569,9.8657,0.0011,-0.0014,9.8066,0.0025,-0.0034,-0.001,-20.06,-30.56,9.38,113.59,-85.49,-6.44
9010,52.39885,-1.245433,185.55,0.0,3,106.04,17 / 18,1377407,2019-09-04 20:29:29:520,0.084,-0.2608,9.8464,0.0004,-0.0009,9.8066,-0.0032,0.019,0.0019,-19.37,-30.06,9.44,114.62,-85.5,-6.52
9011,52.39885,-1.245433,185.55,0.0,3,106.04,17 / 18,1377508,2019-09-04 20:29:29:621,-0.0062,-0.2489,9.8599,0.0005,-0.0007,9.8066,-0.0004,-0.003,-0.0036,-20.0,-30.37,9.19,113.17,-85.52,-6.65
9012,52.39885,-1.245433,185.55,0.0,3,106.04,17 / 18,1377607,2019-09-04 20:29:29:720,0.0129,-0.0736,9.8485,-0.0001,-0.0013,9.8066,-0.003,0.0056,-0.0009,-19.69,-30.19,9.75,115.2,-85.52,-6.74
9013,52.39885,-1.245433,185.55,0.0,3,106.04,17 / 18,1377708,2019-09-04 20:29:29:821,0.0822,-0.2332,9.8494,0.0009,-0.0012,9.8065,-0.0028,0.0064,0.0039,-20.06,-30.19,9.0,112.89,-85.54,-6.92
9014,52.39885,-1.245433,185.55,0.0,3,106.04,17 / 18,1377808,2019-09-04 20:29:29:921,0.0039,-0.2424,9.8628,0.001,0.0003,9.8066,-0.0024,0.0057,-0.0005,-19.56,-30.81,9.75,115.02,-85.54,-7.1
9015,52.39885,-1.245433,185.55,0.0,3,106.04,17 / 18,1377908,2019-09-04 20:29:30:021,-0.0008,-0.0695,9.8447,0.0,0.0006,9.8066,0.0009,0.002,-0.0018,-20.0,-30.12,8.56,112.72,-85.54,-7.08
9016,52.39885,-1.245433,185.55,0.0,3,106.04,17 / 18,1378008,2019-09-04 20:29:30:121,0.0424,-0.2471,9.8555,-0.0003,-0.0014,9.8066,-0.0025,0.0046,0.001,-19.69,-30.25,9.0,112.59,-85.55,-7.22
9017,52.39885,-1.245433,185.55,0.0,3,106.04,17 / 18,1378107,2019-09-04 20:29:30:220,0.0106,-0.24,9.8458,0.0005,-0.0007,9.8066,-0.0003,-0.0003,-0.0033,-19.44,-30.12,9.5,116.02,-85.56,-7.26
9018,52.39885,-1.245433,185.55,0.0,3,106.04,17 / 18,1378207,2019-09-04 20:29:30:320,0.0137,-0.054,9.8687,0.0003,-0.002,9.8066,-0.0009,0.0123,0.0006,-19.75,-30.19,9.13,112.52,-85.56,-7.27
9019,52.39885,-1.245433,185.55,0.0,3,106.04,17 / 18,1378308,2019-09-04 20:29:30:421,0.0589,-0.2329,9.8458,0.0008,-0.0017,9.8066,-0.0019,0.0075,-0.0023,-20.25,-30.69,9.0,112.33,-85.59,-7.62
9020,52.39885,-1.245433,185.55,0.0,3,106.04,18 / 18,1378408,2019-09-04 20:29:30:521,0.0006,-0.2197,9.8451,0.0005,-0.0004,9.8066,-0.0014,0.0058,0.0001,-19.56,-30.44,9.19,112.06,-85.6,-7.71
9021,52.39885,-1.245433,185.55,0.0,3,106.04,18 / 18,1378508,2019-09-04 20:29:30:621,-0.0014,-0.0353,9.8633,0.0008,-0.0007,9.8066,-0.004,0.0103,-0.0015,-19.62,-30.25,8.94,112.03,-85.6,-7.73
9022,52.39885,-1.245433,185.55,0.0,3,106.04,18 / 18,1378608,2019-09-04 20:29:30:721,0.0587,-0.1958,9.8356,0.0,-0.0013,9.8066,-0.003,0.0022,-0.0019,-19.75,-29.87,9.0,112.03,-85.6,-7.74
9023,52.39885,-1.245433,185.55,0.0,3,106.04,18 / 18,1378707,2019-09-04 20:29:30:820,0.0258,-0.2402,9.8487,0.0001,-0.0021,9.8066,0.0027,-0.0057,-0.0027,-20.0,-29.75,9.44,111.77,-85.61,-8.0
9024,52.39885,-1.245433,185.55,0.0,3,106.04,18 / 18,1378807,2019-09-04 20:29:30:920,-0.0066,-0.0566,9.8377,-0.0004,-0.001,9.8066,0.0009,-0.0088,0.0003,-19.62,-30.06,9.56,113.82,-85.62,-8.07
9025,52.39885,-1.245433,185.55,0.0,3,106.04,18 / 18,1378908,2019-09-04 20:29:31:021,0.0573,-0.1722,9.8657,0.0012,0.0003,9.8066,-0.0029,0.0066,-0.0016,-19.81,-30.5,8.94,111.52,-85.63,-8.22
9026,52.39885,-1.245433,185.55,0.0,3,106.04,18 / 18,1379008,2019-09-04 20:29:31:121,0.0255,-0.238,9.8882,0.0003,-0.0009,9.8066,0.001,-0.0086,-0.001,-19.75,-30.06,9.75,113.42,-85.64,-8.47
9027,52.39885,-1.245433,185.55,0.0,3,106.04,18 / 18,1379108,2019-09-04 20:29:31:221,0.0013,-0.0867,9.8589,-0.0004,-0.0003,9.8066,0.0022,0.0007,-0.0003,-19.56,-30.19,9.0,111.17,-85.64,-8.58
9028,52.39885,-1.245433,185.55,0.0,3,106.04,18 / 18,1379207,2019-09-04 20:29:31:320,0.0759,-0.0794,9.8158,0.0012,-0.0019,9.8066,0.0017,0.0069,0.0018,-19.44,-30.06,8.88,112.26,-85.66,-8.77
9029,52.39885,-1.245433,185.55,0.0,3,106.04,18 / 18,1379308,2019-09-04 20:29:31:421,0.0039,-0.2446,9.8194,0.0001,-0.0004,9.8066,-0.0022,0.0114,-0.0016,-19.75,-30.56,9.44,110.97,-85.67,-8.94
9030,52.39885,-1.245433,185.55,0.0,3,106.04,18 / 18,1379407,2019-09-04 20:29:31:520,-0.0153,-0.0436,9.8225,0.0016,-0.0005,9.8066,-0.0001,0.0077,-0.0006,-19.19,-30.25,9.81,114.2,-85.68,-9.01
9031,52.39885,-1.245433,185.55,0.0,3,106.04,18 / 18,1379507,2019-09-04 20:29:31:620,0.0635,-0.1621,9.8717,0.0,-0.0009,9.8066,-0.0014,0.007,-0.0011,-19.94,-30.5,8.94,110.61,-85.69,-9.11
9032,52.39885,-1.245433,185.55,0.0,3,106.04,18 / 18,1379608,2019-09-04 20:29:31:721,-0.0061,-0.1248,9.801,0.0001,-0.0001,9.8066,-0.0002,-0.0023,-0.0034,-19.56,-30.5,9.5,112.58,-85.69,-9.28
9033,52.39885,-1.245433,185.55,0.0,3,106.04,18 / 18,1379707,2019-09-04 20:29:31:820,-0.0038,-0.0375,9.8274,0.0006,-0.0019,9.8066,0.0026,0.0036,-0.0033,-19.44,-30.5,9.88,113.69,-85.7,-9.53
9034,52.39885,-1.245433,185.55,0.0,3,106.04,18 / 18,1379808,2019-09-04 20:29:31:921,0.0686,-0.1622,9.8446,0.0001,-0.0003,9.8066,0.0024,-0.0029,0.0017,-19.5,-30.12,9.0,111.42,-85.71,-9.59
9035,52.39885,-1.245433,185.55,0.0,3,106.04,18 / 18,1379908,2019-09-04 20:29:32:021,-0.0095,-0.1637,9.8065,0.0003,-0.0007,9.8066,0.0024,-0.0127,0.0006,-20.12,-30.44,8.56,109.93,-85.71,-9.77
9036,52.39885,-1.245433,185.55,0.0,3,106.04,18 / 18,1380007,2019-09-04 20:29:32:120,0.0011,-0.0465,9.8251,0.0005,-0.0017,9.8066,0.0033,-0.0044,0.0018,-19.87,-30.25,9.06,109.66,-85.72,-10.04
9037,52.39885,-1.245433,185.55,0.0,3,106.04,18 / 18,1380107,2019-09-04 20:29:32:220,0.0621,-0.1208,9.9021,0.0003,0.0004,9.8066,0.0031,-0.0043,0.0,-19.69,-30.56,9.38,109.79,-85.73,-10.08
9038,52.39885,-1.245433,185.55,0.0,3,106.04,18 / 18,1380208,2019-09-04 20:29:32:321,-0.0286,-0.1309,9.8043,0.0,-0.0023,9.8066,0.0024,0.0029,-0.0034,-20.0,-30.31,9.56,111.81,-85.74,-10.02
9039,52.39885,-1.245433,185.55,0.0,3,106.04,18 / 18,1380307,2019-09-04 20:29:32:420,-0.0092,-0.0244,9.8755,-0.0002,0.0004,9.8066,-0.0024,0.0031,0.0,-19.56,-29.87,8.56,109.55,-85.75,-10.12
9040,52.39885,-1.245433,185.55,0.0,3,106.04,19 / 19,1380407,2019-09-04 20:29:32:520,0.0547,-0.1084,9.9113,0.0004,-0.0007,9.8066,0.0017,-0.004,-0.0017,-19.62,-30.69,9.63,111.61,-85.76,-10.38
9041,52.39885,-1.245433,185.55,0.0,3,106.04,19 / 19,1380508,2019-09-04 20:29:32:621,-0.0015,-0.1468,9.7984,0.0001,-0.0013,9.8066,0.0007,-0.0098,-0.0051,-20.0,-30.62,9.75,111.48,-85.77,-10.51
9042,52.39885,-1.245433,185.55,0.0,3,106.04,19 / 19,1380608,2019-09-04 20:29:32:721,0.0209,-0.0334,9.8271,-0.0003,-0.0021,9.8066,-0.0005,0.0005,0.0015,-20.12,-30.56,9.25,109.13,-85.77,-10.71
9043,52.39885,-1.245433,185.55,0.0,3,106.04,19 / 19,1380708,2019-09-04 20:29:32:821,0.0589,-0.0712,9.8822,0.001,-0.0018,9.8066,-0.0011,0.0033,-0.0019,-19.44,-30.0,9.0,109.92,-85.78,-11.05
9044,52.39885,-1.245433,185.55,0.0,3,106.04,19 / 19,1380808,2019-09-04 20:29:32:921,-0.0267,-0.1752,9.8068,-0.0004,-0.0009,9.8066,0.0013,-0.0036,0.0001,-19.56,-30.0,9.13,108.59,-85.79,-11.07
9045,52.39885,-1.245433,185.55,0.0,3,106.04,19 / 19,1380908,2019-09-04 20:29:33:021,0.0045,-0.0696,9.8226,0.0001,-0.0009,9.8066,0.0,-0.0058,-0.0053,-19.75,-30.06,9.25,108.43,-85.79,-11.23
9046,52.39885,-1.245433,185.55,0.0,3,106.04,19 / 19,1381008,2019-09-04 20:29:33:121,0.0324,0.0025,9.8588,-0.0009,0.0,9.8066,-0.0017,0.0029,-0.0026,-19.62,-30.19,9.06,108.35,-85.79,-11.32
9047,52.39885,-1.245433,185.55,0.0,3,106.04,19 / 19,1381107,2019-09-04 20:29:33:220,0.0269,-0.1785,9.7977,0.0019,0.0002,9.8066,0.0,0.0031,-0.0013,-19.31,-30.44,9.25,109.65,-85.81,-11.3
9048,52.39885,-1.245433,185.55,0.0,3,106.04,19 / 19,1381207,2019-09-04 20:29:33:320,-0.0161,-0.1625,9.8239,-0.0002,-0.001,9.8066,0.0001,-0.0033,0.0015,-19.75,-30.19,9.13,108.21,-85.8,-11.45
9049,52.39885,-1.245433,185.55,0.0,3,106.04,19 / 19,1381308,2019-09-04 20:29:33:421,-0.007,0.0474,9.8449,0.0,-0.0004,9.8066,-0.002,0.0008,0.0031,-19.62,-30.44,9.13,108.06,-85.8,-11.6
9050,52.39885,-1.245433,185.55,0.0,3,106.04,18 / 18,1381408,2019-09-04 20:29:33:521,0.0458,-0.2115,9.7905,0.0021,-0.0013,9.8066,0.0011,0.0047,-0.0002,-19.69,-30.69,9.63,110.27,-85.81,-11.72
9051,52.39885,-1.245433,185.55,0.0,3,106.04,18 / 18,1381508,2019-09-04 20:29:33:621,-0.0225,-0.1799,9.8959,-0.0012,0.0,9.8066,-0.001,0.0039,0.0002,-19.94,-30.56,9.25,107.99,-85.82,-11.83
9052,52.39885,-1.245433,185.55,0.0,3,106.04,18 / 18,1381607,2019-09-04 20:29:33:720,-0.0367,0.0348,9.8639,0.0,-0.0015,9.8066,0.0011,-0.0053,0.0004,-19.5,-30.25,9.38,109.0,-85.83,-11.94
9053,52.39885,-1.245433,185.55,0.0,3,106.04,18 / 18,1381708,2019-09-04 20:29:33:821,0.0213,-0.1581,9.8506,0.0007,-0.0008,9.8066,0.0014,0.0006,0.0005,-20.06,-30.37,9.56,109.74,-85.84,-12.04
9054,52.39885,-1.245433,185.55,0.0,3,106.04,18 / 18,1381808,2019-09-04 20:29:33:921,-0.0082,-0.1563,9.8926,0.0003,-0.0002,9.8066,0.0003,-0.0043,0.0026,-19.56,-30.44,8.88,107.46,-85.85,-12.15
9055,52.39885,-1.245433,185.55,0.0,3,106.04,18 / 18,1381908,2019-09-04 20:29:34:021,-0.0026,-0.0133,9.8956,0.0003,-0.0011,9.8066,0.0011,0.0043,-0.0008,-19.62,-30.62,9.5,109.7,-85.85,-12.24
9056,52.39885,-1.245433,185.55,0.0,3,106.04,18 / 18,1382008,2019-09-04 20:29:34:121,0.0372,-0.0348,9.8474,0.0004,-0.0011,9.8066,-0.0018,0.004,0.0022,-20.25,-30.62,8.94,107.43,-85.87,-12.34
9057,52.39885,-1.245433,185.55,0.0,3,106.04,18 / 18,1382108,2019-09-04 20:29:34:221,0.0087,-0.1207,9.9461,-0.0015,-0.0013,9.8066,-0.0002,0.0042,-0.0069,-20.06,-30.25,9.0,107.03,-85.87,-12.58
9058,52.39885,-1.245433,185.55,0.0,3,106.04,18 / 18,1382208,2019-09-04 20:29:34:321,-0.0225,-0.1431,9.8396,0.0007,-0.0012,9.8066,-0.0018,0.008,0.0015,-19.81,-30.25,9.94,109.31,-85.88,-12.45
9059,52.39885,-1.245433,185.55,0.0,3,106.04,18 / 18,1382308,2019-09-04 20:29:34:421,0.0203,0.034,9.8065,-0.0002,0.0005,9.8065,-0.0014,-0.0017,0.0003,-19.75,-30.37,9.88,109.21,-85.88,-12.55
9060,52.39885,-1.245433,185.55,0.0,3,106.04,18 / 18,1382407,2019-09-04 20:29:34:520,0.0469,-0.0746,9.9083,0.0,-0.0007,9.8066,-0.0028,-0.0019,-0.0025,-19.87,-30.44,9.0,106.95,-85.89,-12.63
9061,52.39885,-1.245433,185.55,0.0,3,106.04,18 / 18,1382507,2019-09-04 20:29:34:620,-0.0194,-0.1938,9.9752,0.0,-0.0009,9.8066,-0.0007,-0.0029,0.0023,-19.87,-30.69,9.06,107.01,-85.89,-12.75
9062,52.39885,-1.245433,185.55,0.0,3,106.04,18 / 18,1382608,2019-09-04 20:29:34:721,0.0578,-0.0047,9.658,0.0009,-0.0002,9.8066,0.0011,0.0062,-0.002,-19.5,-30.06,8.81,108.09,-85.91,-12.78
9063,52.39885,-1.245433,185.55,0.0,3,106.04,18 / 18,1382708,2019-09-04 20:29:34:821,0.0385,-0.0826,9.7459,0.002,-0.0007,9.8066,0.0013,0.0009,-0.0054,-19.69,-30.37,9.75,108.88,-85.93,-12.82
9064,52.39885,-1.245433,185.55,0.0,3,106.04,18 / 18,1382808,2019-09-04 20:29:34:921,0.2896,-0.3244,9.9651,0.0023,-0.0013,9.8066,0.0046,0.0094,-0.001,-20.25,-30.37,9.31,106.58,-85.95,-12.93
9065,52.39885,-1.245433,185.55,0.0,3,106.04,18 / 18,1382908,2019-09-04 20:29:35:021,0.2002,-0.1133,9.8024,0.0017,-0.0015,9.8066,0.0087,-0.0097,0.0025,-20.19,-30.06,9.69,108.62,-85.99,-13.01
9066,52.39885,-1.245433,185.55,0.0,3,106.04,18 / 18,1383008,2019-09-04 20:29:35:121,0.4855,-0.3698,9.9621,0.0027,-0.0013,9.8066,-0.0007,0.0027,-0.0036,-19.87,-29.87,9.69,108.41,-86.03,-13.18
9067,52.39885,-1.245433,185.55,0.0,3,106.04,18 / 18,1383108,2019-09-04 20:29:35:221,0.2008,-0.1093,9.8274,0.001,-0.0005,9.8066,0.0041,0.0008,0.0039,-19.75,-30.0,9.56,108.29,-86.06,-13.26
9068,52.39885,-1.245433,185.55,0.0,3,106.04,18 / 18,1383208,2019-09-04 20:29:35:321,0.3674,-0.3444,9.9464,0.0028,-0.0015,9.8066,0.0036,-0.0002,0.002,-19.81,-30.25,9.0,105.86,-86.08,-13.5
9069,52.39885,-1.245433,185.55,0.0,3,106.04,18 / 18,1383308,2019-09-04 20:29:35:421,0.3448,-0.0904,9.7488,0.0,0.0001,9.8066,-0.0003,0.0026,-0.0018,-19.62,-30.75,8.88,105.93,-86.09,-13.59
9070,52.39885,-1.245433,185.55,0.0,3,106.04,18 / 18,1383407,2019-09-04 20:29:35:520,0.3332,-0.2971,9.9609,-0.0001,-0.0003,9.8066,0.0012,0.0076,-0.001,-19.81,-30.62,9.13,105.7,-86.11,-13.8
9071,52.39885,-1.245433,185.55,0.0,3,106.04,18 / 18,1383507,2019-09-04 20:29:35:620,0.2628,-0.1967,9.7371,-0.0007,-0.0006,9.8066,-0.0027,0.0029,0.0012,-19.31,-30.06,9.25,106.7,-86.11,-13.94
9072,52.39885,-1.245433,185.55,0.0,3,106.04,18 / 18,1383608,2019-09-04 20:29:35:721,0.0604,-0.096,9.8103,-0.0002,-0.0016,9.8066,0.0008,0.009,-0.0094,-19.31,-30.37,8.75,106.62,-86.11,-14.02
9073,52.39885,-1.245433,185.55,0.0,3,106.04,18 / 18,1383707,2019-09-04 20:29:35:820,-0.0631,-0.1237,9.8643,-0.0012,0.0001,9.8066,-0.0071,0.0105,-0.0023,-20.06,-30.31,9.19,105.43,-86.11,-13.91
9074,52.39885,-1.245433,185.55,0.0,3,106.04,18 / 18,1383808,2019-09-04 20:29:35:921,-0.1026,0.0781,9.8658,-0.0011,0.0004,9.8066,-0.0045,0.0077,-0.0001,-20.0,-30.5,9.13,105.52,-86.09,-13.85
9075,52.39885,-1.245433,185.55,0.0,3,106.04,18 / 18,1383908,2019-09-04 20:29:36:021,-0.2484,0.0261,9.941,-0.0011,0.0009,9.8066,-0.005,0.0062,-0.0047,-20.06,-30.56,9.5,107.94,-86.07,-13.78
9076,52.39885,-1.245433,185.55,0.0,3,106.04,18 / 18,1384007,2019-09-04 20:29:36:120,-0.2597,0.0123,9.8236,-0.0012,-0.0003,9.8066,0.0021,0.0033,-0.0019,-19.81,-30.31,8.25,103.56,-86.07,-13.56
9077,52.39885,-1.245433,185.55,0.0,3,106.04,18 / 18,1384107,2019-09-04 20:29:36:220,-0.2549,0.1072,9.855,0.0011,-0.0018,9.8066,0.0042,-0.0106,0.0002,-19.75,-30.81,9.31,105.74,-86.06,-13.83
9078,52.39885,-1.245433,185.55,0.0,3,106.04,18 / 18,1384208,2019-09-04 20:29:36:321,-0.3034,0.0646,9.8996,-0.0007,0.0013,9.8066,-0.0024,0.0033,-0.0049,-19.75,-30.25,8.81,105.46,-86.07,-13.93
9079,52.39885,-1.245433,185.55,0.0,3,106.04,19 / 19,1384308,2019-09-04 20:29:36:421,-0.2898,0.0441,9.8222,0.0002,0.0002,9.8066,-0.001,0.0128,-0.0021,-19.44,-29.81,9.0,106.92,-86.07,-13.77
9080,52.39885,-1.245433,185.55,0.0,3,106.04,19 / 19,1384407,2019-09-04 20:29:36:520,-0.3372,0.1614,9.8866,-0.0007,0.0008,9.8066,-0.0053,0.0204,-0.0039,-20.19,-30.37,8.75,105.81,-86.05,-13.6
9081,52.39885,-1.245433,185.55,0.0,3,106.04,19 / 19,1384507,2019-09-04 20:29:36:620,-0.2636,0.0942,9.847,-0.0005,-0.0006,9.8066,-0.0012,0.0004,-0.0016,-19.81,-30.25,8.88,105.79,-86.05,-13.62
9082,52.39885,-1.245433,185.55,0.0,3,106.04,19 / 19,1384607,2019-09-04 20:29:36:720,-0.3063,0.1178,9.7805,0.0001,-0.0011,9.8066,-0.0002,-0.0028,0.0014,-19.81,-29.94,8.88,105.75,-86.04,-13.68
9083,52.39885,-1.245433,185.55,0.0,3,106.04,19 / 19,1384708,2019-09-04 20:29:36:821,-0.3421,0.1547,9.8752,-0.0013,0.0004,9.8065,0.0,0.0074,-0.0005,-19.81,-30.25,8.81,105.62,-86.02,-13.83
9084,52.39885,-1.245433,185.55,0.0,3,106.04,19 / 19,1384808,2019-09-04 20:29:36:921,-0.3297,0.0203,9.8801,-0.0027,0.002,9.8066,-0.0008,-0.0028,-0.0043,-20.06,-30.19,8.81,105.65,-86.01,-13.81
9085,52.39885,-1.245433,185.55,0.0,3,106.04,19 / 19,1384907,2019-09-04 20:29:37:020,-0.3949,0.1876,9.8994,-0.0011,0.0015,9.8066,-0.0014,0.011,0.0011,-20.06,-30.5,9.0,105.89,-85.99,-13.59
9086,52.39885,-1.245433,185.55,0.0,3,106.04,19 / 19,1385008,2019-09-04 20:29:37:121,-0.2137,-0.0208,9.9653,0.0001,-0.0012,9.8066,0.0034,-0.0007,-0.0021,-20.19,-30.19,9.31,105.86,-85.97,-13.65
9087,52.39885,-1.245433,185.55,0.0,3,106.04,19 / 19,1385107,2019-09-04 20:29:37:220,0.2116,-0.0767,9.773,0.0024,-0.0029,9.8066,0.0056,0.0016,-0.0012,-20.5,-30.56,8.94,105.81,-86.0,-13.84
9088,52.39885,-1.245433,185.55,0.0,3,106.04,19 / 19,1385208,2019-09-04 20:29:37:321,0.2489,-0.2246,9.8164,0.0014,-0.003,9.8066,0.0037,-0.0027,0.001,-20.12,-30.06,8.94,105.38,-86.03,-14.07
9089,52.39885,-1.245433,185.55,0.0,3,106.04,19 / 19,1385308,2019-09-04 20:29:37:421,-0.0079,-0.0624,9.8254,-0.0006,0.001,9.8066,-0.0054,0.0086,0.0035,-20.19,-30.31,8.63,105.1,-86.04,-14.34
9090,52.39885,-1.245433,185.55,0.0,3,106.04,18 / 19,1385408,2019-09-04 20:29:37:521,-0.1833,0.0852,9.8562,-0.0004,0.0017,9.8066,-0.0011,0.0001,-0.0063,-19.94,-30.0,8.94,104.97,-86.01,-14.51
9091,52.39885,-1.245433,185.55,0.0,3,106.04,18 / 19,1385507,2019-09-04 20:29:37:620,0.0556,-0.1399,9.7975,0.0018,0.0003,9.8066,0.0007,0.0099,-0.0001,-20.19,-30.06,8.5,105.29,-86.02,-14.16
9092,52.39885,-1.245433,185.55,0.0,3,106.04,18 / 19,1385608,2019-09-04 20:29:37:721,0.0499,0.0096,9.8549,0.0003,-0.0009,9.8066,0.0005,0.0034,-0.0027,-20.19,-30.25,9.13,105.06,-86.05,-14.37
9093,52.39885,-1.245433,185.55,0.0,3,106.04,18 / 19,1385708,2019-09-04 20:29:37:821,-0.0867,-0.1174,9.9152,-0.0008,0.0012,9.8066,-0.0028,0.002,-0.0011,-20.12,-30.06,9.13,105.13,-86.04,-14.3
9094,52.39885,-1.245433,185.55,0.0,3,106.04,18 / 19,1385808,2019-09-04 20:29:37:921,-0.0133,0.0514,9.8182,0.0008,0.0,9.8066,0.0013,0.0008,0.0004,-20.37,-30.31,8.38,102.73,-86.03,-14.45
9095,52.39885,-1.245433,185.55,0.0,3,106.04,18 / 19,1385907,2019-09-04 20:29:38:020,0.0789,-0.1664,9.8117,0.0014,-0.0008,9.8066,-0.0014,0.0014,-0.0031,-20.06,-30.25,8.88,104.93,-86.05,-14.5
9096,52.39885,-1.245433,185.55,0.0,3,106.04,18 / 19,1386008,2019-09-04 20:29:38:121,0.0058,0.0703,9.8417,0.0007,-0.0008,9.8066,-0.0008,0.0013,-0.0019,-19.87,-30.12,8.31,102.7,-86.05,-14.45
9097,52.39885,-1.245433,185.55,0.0,3,106.04,18 / 19,1386107,2019-09-04 20:29:38:220,-0.0507,-0.1112,9.8222,-0.0002,-0.0005,9.8066,0.0002,0.0075,-0.0008,-20.44,-30.31,8.81,104.84,-86.06,-14.58
9098,52.39885,-1.245433,185.55,0.0,3,106.04,18 / 19,1386208,2019-09-04 20:29:38:321,0.0212,-0.0031,9.8129,0.0009,-0.0003,9.8066,0.0003,-0.0023,-0.0015,-19.94,-30.25,8.44,102.46,-86.07,-14.68
9099,52.39885,-1.245433,185.55,0.0,3,106.04,18 / 18,1386307,2019-09-04 20:29:38:420,0.0175,-0.0465,9.8451,0.0003,-0.0006,9.8066,-0.0019,0.0133,-0.0008,-20.0,-30.37,8.81,104.61,-86.08,-14.79
9100,52.39885,-1.245433,185.55,0.0,3,106.04,18 / 18,1386408,2019-09-04 20:29:38:521,-0.0536,-0.1062,9.8183,0.001,-0.0005,9.8066,-0.0002,0.0044,-0.0003,-20.25,-30.5,8.88,104.56,-86.08,-14.84
9101,52.39885,-1.245433,185.55,0.0,3,106.04,18 / 18,1386507,2019-09-04 20:29:38:620,0.0015,0.0561,9.8927,0.0,0.0001,9.8066,-0.0003,-0.0047,0.0,-20.25,-30.06,9.5,106.69,-86.09,-14.88
9102,52.39885,-1.245433,185.55,0.0,3,106.04,18 / 18,1386607,2019-09-04 20:29:38:720,0.0146,0.0071,9.8531,0.0005,0.0002,9.8066,-0.0003,-0.0045,0.0005,-19.69,-29.94,9.0,104.46,-86.09,-14.94
9103,52.39885,-1.245433,185.55,0.0,3,106.04,18 / 18,1386707,2019-09-04 20:29:38:820,-0.0404,-0.1454,9.8291,0.0004,-0.0005,9.8065,0.0017,-0.0052,-0.0034,-20.69,-30.56,9.19,103.37,-86.1,-14.97
9104,52.39885,-1.245433,185.55,0.0,3,106.04,18 / 18,1386808,2019-09-04 20:29:38:921,0.0145,-0.0936,9.8365,0.0003,-0.0005,9.8065,0.0017,-0.0016,-0.0002,-19.87,-30.19,9.0,104.47,-86.11,-14.89
9105,52.39885,-1.245433,185.55,0.0,3,106.04,18 / 18,1386908,2019-09-04 20:29:39:021,-0.0363,0.0635,9.8114,-0.0002,0.0011,9.8066,0.0015,-0.0069,-0.0044,-19.81,-30.31,8.56,104.49,-86.1,-14.88
9106,52.39885,-1.245433,185.55,0.0,3,106.04,18 / 18,1387007,2019-09-04 20:29:39:120,-0.0287,-0.1078,9.922,-0.001,0.0006,9.8066,0.0003,0.0019,0.0005,-19.81,-30.19,9.0,104.38,-86.11,-14.99
9107,52.39885,-1.245433,185.55,0.0,3,106.04,18 / 18,1387108,2019-09-04 20:29:39:221,0.0129,-0.1607,9.856,0.0006,-0.0004,9.8066,-0.0036,0.0109,-0.0004,-20.19,-30.37,8.63,104.35,-86.1,-15.03
9108,52.39885,-1.245433,185.55,0.0,3,106.04,18 / 18,1387208,2019-09-04 20:29:39:321,-0.044,0.01,9.8277,0.0005,-0.0019,9.8065,-0.0013,0.0043,-0.001,-20.19,-30.69,8.88,104.53,-86.1,-15.02
9109,52.39885,-1.245433,185.55,0.0,3,106.04,18 / 18,1387308,2019-09-04 20:29:39:421,0.0156,0.0273,9.8769,0.0002,-0.0009,9.8066,-0.0023,-0.0004,0.0025,-20.31,-30.62,8.94,104.27,-86.1,-15.28
9110,52.39885,-1.245433,185.55,0.0,3,106.04,18 / 18,1387407,2019-09-04 20:29:39:520,0.0388,-0.0678,9.9266,-0.0009,0.0007,9.8066,-0.0009,-0.0036,0.0014,-20.25,-30.12,8.5,104.21,-86.09,-15.18
9111,52.39885,-1.245433,185.55,0.0,3,106.04,18 / 18,1387508,2019-09-04 20:29:39:621,-0.0491,-0.1494,9.8862,0.0012,0.0,9.8066,-0.001,-0.0045,0.003,-20.31,-30.06,8.25,101.86,-86.1,-15.26
9112,52.39885,-1.245433,185.55,0.0,3,106.04,18 / 18,1387607,2019-09-04 20:29:39:720,-0.0178,0.042,9.8112,-0.0004,-0.0011,9.8066,-0.0034,0.0082,-0.0026,-19.75,-30.25,8.88,104.04,-86.1,-15.36
9113,52.39885,-1.245433,185.55,0.0,3,106.04,18 / 18,1387708,2019-09-04 20:29:39:821,-0.0466,0.1087,9.8513,0.0004,0.0007,9.8066,-0.0021,0.0049,-0.0015,-20.12,-30.56,8.69,104.22,-86.09,-15.34
9114,52.39885,-1.245433,185.55,0.0,3,106.04,18 / 18,1387808,2019-09-04 20:29:39:921,0.0202,-0.0551,9.9403,-0.0009,0.0005,9.8066,0.0001,-0.0044,-0.0005,-20.12,-30.19,9.06,104.06,-86.1,-15.33
9115,52.39885,-1.245433,185.55,0.0,3,106.04,18 / 18,1387908,2019-09-04 20:29:40:021,0.0025,-0.128,9.8074,-0.0008,0.0002,9.8066,0.0013,-0.0054,-0.0029,-19.87,-30.31,8.88,104.12,-86.09,-15.27
9116,52.39885,-1.245433,185.55,0.0,3,106.04,18 / 18,1388008,2019-09-04 20:29:40:121,-0.0475,-0.1219,9.8687,0.001,-0.0008,9.8066,0.0053,-0.0031,-0.0028,-19.94,-30.44,8.5,103.93,-86.1,-15.45
9117,52.39885,-1.245433,185.55,0.0,3,106.04,18 / 18,1388108,2019-09-04 20:29:40:221,-0.0283,0.1257,9.8159,-0.0008,0.0,9.8066,-0.0002,-0.0023,0.0005,-19.56,-31.06,9.13,104.14,-86.1,-15.41
9118,52.39885,-1.245433,185.55,0.0,3,106.04,18 / 18,1388208,2019-09-04 20:29:40:321,0.0447,-0.0917,9.8774,0.0,-0.0013,9.8066,-0.0001,0.0081,0.0002,-20.31,-30.12,8.75,104.09,-86.1,-15.29
9119,52.39885,-1.245433,185.55,0.0,3,106.04,18 / 18,1388308,2019-09-04 20:29:40:421,-0.0278,0.0703,9.8184,0.0004,0.001,9.8066,-0.0006,0.0019,0.0023,-19.81,-30.31,8.69,104.09,-86.11,-15.28
9120,52.39885,-1.245433,185.55,0.0,3,106.04,18 / 18,1388407,2019-09-04 20:29:40:520,0.0202,-0.1044,9.9274,-0.0005,-0.0002,9.8066,0.0006,-0.0071,-0.0004,-20.06,-30.12,9.44,103.97,-86.11,-15.4
9121,52.39885,-1.245433,185.55,0.0,3,106.04,18 / 18,1388508,2019-09-04 20:29:40:621,0.0329,-0.1314,9.8781,0.0002,-0.0003,9.8066,-0.0034,-0.0003,-0.0018,-20.06,-31.0,9.63,106.3,-86.12,-15.41
9122,52.39885,-1.245433,185.55,0.0,3,106.04,18 / 18,1388608,2019-09-04 20:29:40:721,-0.0387,-0.0048,9.8468,-0.0003,0.0006,9.8066,-0.0031,0.0015,-0.0045,-20.12,-30.56,9.13,104.22,-86.12,-15.31
9123,52.39885,-1.245433,185.55,0.0,3,106.04,18 / 18,1388707,2019-09-04 20:29:40:820,-0.0292,0.0918,9.7769,-0.0001,0.0002,9.8066,0.0016,0.0021,0.0034,-20.19,-30.75,9.0,104.32,-86.11,-15.21
9124,52.39885,-1.245433,185.55,0.0,3,106.04,18 / 18,1388808,2019-09-04 20:29:40:921,0.0236,-0.0821,9.9174,0.0002,0.0006,9.8066,0.0037,0.0014,-0.0028,-19.37,-30.37,9.25,105.29,-86.11,-15.4
9125,52.39885,-1.245433,185.55,0.0,3,106.04,18 / 18,1388908,2019-09-04 20:29:41:021,-0.0252,-0.1173,9.8559,-0.0009,-0.0006,9.8066,-0.0008,0.0,0.0005,-20.19,-30.62,8.69,104.13,-86.11,-15.41
9126,52.39885,-1.245433,185.55,0.0,3,106.04,18 / 18,1389008,2019-09-04 20:29:41:121,-0.0101,0.0177,9.7964,0.0006,0.0003,9.8066,0.0012,-0.0008,-0.0026,-20.56,-30.69,8.81,102.97,-86.1,-15.37
9127,52.39885,-1.245433,185.55,0.0,3,106.04,18 / 18,1389108,2019-09-04 20:29:41:221,-0.0028,-0.001,9.8841,0.0005,-0.0006,9.8066,0.0023,-0.0002,-0.0015,-19.87,-30.75,8.13,101.99,-86.11,-15.27
9128,52.39885,-1.245433,185.55,0.0,3,106.04,18 / 18,1389208,2019-09-04 20:29:41:321,-0.0301,-0.1965,9.9051,-0.0014,-0.0004,9.8066,-0.0024,-0.0103,0.003,-20.0,-30.12,9.06,104.07,-86.11,-15.3
9129,52.39885,-1.245433,185.55,0.0,3,106.04,18 / 18,1389308,2019-09-04 20:29:41:421,-0.0064,-0.0201,9.7641,-0.0003,-0.0007,9.8066,-0.0015,-0.0002,-0.0011,-19.75,-30.12,9.19,103.87,-86.11,-15.51
9130,52.39885,-1.245433,185.55,0.0,3,106.04,19 / 19,1389407,2019-09-04 20:29:41:520,0.0644,-0.0517,9.8494,-0.001,-0.0012,9.8066,0.0022,-0.0057,-0.0023,-20.31,-30.06,9.19,103.91,-86.1,-15.48
9131,52.39885,-1.245433,185.55,0.0,3,106.04,19 / 19,1389508,2019-09-04 20:29:41:621,0.0576,-0.1281,9.8739,0.0,0.0009,9.8066,-0.0006,0.0064,0.0018,-19.87,-30.75,8.69,104.03,-86.1,-15.53
9132,52.39885,-1.245433,185.55,0.0,3,106.04,19 / 19,1389608,2019-09-04 20:29:41:721,-0.0394,0.0544,9.6947,0.0007,-0.0005,9.8066,0.0001,-0.0014,-0.002,-19.75,-30.12,8.25,101.59,-86.1,-15.52
9133,52.39885,-1.245433,185.55,0.0,3,106.04,19 / 19,1389708,2019-09-04 20:29:41:821,0.1597,-0.1772,9.9756,-0.0003,0.0006,9.8066,-0.001,0.005,-0.0006,-20.0,-30.5,8.94,103.8,-86.1,-15.59
9134,52.39885,-1.245433,185.55,0.0,3,106.04,19 / 19,1389808,2019-09-04 20:29:41:921,-0.0554,0.0963,9.7403,-0.0014,0.0006,9.8066,-0.0002,0.0052,0.0006,-20.44,-30.25,8.13,101.59,-86.09,-15.54
9135,52.39885,-1.245433,185.55,0.0,3,106.04,19 / 19,1389908,2019-09-04 20:29:42:021,0.0901,-0.1904,9.9959,0.0005,0.0,9.8066,-0.0016,0.0087,-0.0001,-20.12,-30.56,8.44,101.78,-86.09,-15.52
9136,52.39885,-1.245433,185.55,0.0,3,106.04,19 / 19,1390008,2019-09-04 20:29:42:121,-0.115,0.0861,9.6764,0.0008,-0.0001,9.8066,0.0019,0.0003,0.0017,-20.25,-30.0,8.94,103.85,-86.09,-15.56
9137,52.39885,-1.245433,185.55,0.0,3,106.04,19 / 19,1390108,2019-09-04 20:29:42:221,-0.0085,-0.0578,9.934,-0.0008,0.0001,9.8066,-0.0032,-0.0021,-0.0015,-20.06,-30.62,8.31,101.72,-86.09,-15.58
9138,52.39885,-1.245433,185.55,0.0,3,106.04,19 / 19,1390207,2019-09-04 20:29:42:320,-0.0784,0.0697,9.7973,0.0004,-0.0016,9.8066,-0.0044,0.0042,0.0034,-20.37,-30.19,8.75,103.76,-86.08,-15.66
9139,52.39885,-1.245433,185.55,0.0,3,106.04,19 / 19,1390308,2019-09-04 20:29:42:421,-0.0596,-0.1044,9.9281,-0.0008,0.0,9.8066,-0.002,0.0041,0.0019,-20.0,-30.12,9.38,103.69,-86.07,-15.74
9140,52.39885,-1.245433,185.55,0.0,3,106.04,18 / 18,1390407,2019-09-04 20:29:42:520,0.1179,-0.167,9.9465,0.0007,0.0008,9.8066,0.0018,-0.0034,-0.0058,-20.37,-30.37,8.44,101.36,-86.06,-15.81
9141,52.39885,-1.245433,185.55,0.0,3,106.04,18 / 18,1390508,2019-09-04 20:29:42:621,0.1199,-0.063,9.8208,0.0017,-0.0005,9.8066,-0.0033,-0.0005,0.0025,-20.31,-30.31,8.44,101.44,-86.08,-15.7
9142,52.39885,-1.245433,185.55,0.0,3,106.04,18 / 18,1390608,2019-09-04 20:29:42:721,0.2371,-0.1332,9.9265,0.0003,-0.0015,9.8066,0.0035,-0.0014,0.0022,-20.12,-30.19,8.94,103.63,-86.09,-15.78
9143,52.39885,-1.245433,185.55,0.0,3,106.04,18 / 18,1390708,2019-09-04 20:29:42:821,0.2747,-0.2474,9.8624,0.0019,-0.0017,9.8066,0.0027,0.0053,0.0045,-19.94,-30.5,8.63,103.34,-86.12,-16.04
9144,52.39885,-1.245433,185.55,0.0,3,106.04,18 / 18,1390808,2019-09-04 20:29:42:921,0.3379,-0.2176,9.8378,0.0009,-0.002,9.8066,0.0043,0.0071,0.0005,-20.5,-30.06,8.75,102.93,-86.14,-16.43
9145,52.39885,-1.245433,185.55,0.0,3,106.04,18 / 18,1390908,2019-09-04 20:29:43:021,0.274,-0.2011,9.9132,0.0013,-0.0008,9.8066,0.0029,0.0043,0.0006,-20.25,-30.5,8.75,102.74,-86.15,-16.6
9146,52.39885,-1.245433,185.55,0.0,3,106.04,18 / 18,1391008,2019-09-04 20:29:43:121,0.3914,-0.3083,9.828,0.0008,0.0007,9.8066,0.0028,0.0016,-0.0043,-19.87,-29.62,8.69,102.63,-86.17,-16.69
9147,52.39885,-1.245433,185.55,0.0,3,106.04,18 / 18,1391108,2019-09-04 20:29:43:221,0.355,-0.1196,9.8194,0.0015,0.0002,9.8066,0.001,0.0065,-0.0019,-20.44,-29.69,8.5,102.8,-86.19,-16.49
9148,52.39885,-1.245433,185.55,0.0,3,106.04,18 / 18,1391208,2019-09-04 20:29:43:321,0.3455,-0.1476,9.8802,0.0005,-0.0005,9.8066,0.0014,0.0001,-0.0008,-20.06,-29.69,8.38,100.49,-86.21,-16.49
9149,52.39885,-1.245433,185.55,0.0,3,106.04,18 / 18,1391307,2019-09-04 20:29:43:420,0.3694,-0.2302,9.9563,0.0008,-0.0003,9.8066,0.0013,0.0078,0.0028,-20.06,-29.69,8.44,100.36,-86.23,-16.59
9150,52.39885,-1.245433,185.55,0.0,3,106.04,17 / 18,1391408,2019-09-04 20:29:43:521,0.4408,-0.2552,9.7306,0.0011,-0.0011,9.8066,0.002,0.0033,0.0059,-20.06,-30.0,8.75,102.32,-86.25,-16.91
9151,52.39885,-1.245433,185.55,0.0,3,106.04,17 / 18,1391508,2019-09-04 20:29:43:621,0.3376,-0.1952,9.8431,0.0004,-0.0017,9.8066,0.0004,0.0075,-0.0007,-20.25,-29.81,8.75,101.96,-86.26,-17.27
9152,52.39885,-1.245433,185.55,0.0,3,106.04,17 / 18,1391608,2019-09-04 20:29:43:721,0.4994,-0.3032,9.8634,0.001,-0.0011,9.8066,0.0054,0.0044,-0.0004,-20.56,-29.94,9.13,100.62,-86.26,-17.39
9153,52.39885,-1.245433,185.55,0.0,3,106.04,17 / 18,1391708,2019-09-04 20:29:43:821,0.4214,-0.1513,9.7849,0.0017,-0.0014,9.8066,0.0009,0.014,0.0002,-19.81,-29.87,8.94,101.53,-86.29,-17.66
9154,52.39885,-1.245433,185.55,0.0,3,106.04,17 / 18,1391808,2019-09-04 20:29:43:921,0.4833,-0.2697,9.896,0.0021,-0.0007,9.8066,0.0056,0.0051,-0.0009,-20.12,-29.81,8.81,101.41,-86.31,-17.75
9155,52.39885,-1.245433,185.55,0.0,3,106.04,17 / 18,1391907,2019-09-04 20:29:44:020,0.4952,-0.2485,9.9484,0.0012,-0.0021,9.8066,0.0022,0.0189,0.0052,-20.5,-29.56,9.19,101.11,-86.34,-18.02
9156,52.39885,-1.245433,185.55,0.0,3,106.04,17 / 18,1392008,2019-09-04 20:29:44:121,0.4803,-0.2255,9.8057,-0.0006,-0.0013,9.8066,0.0027,0.0154,0.0061,-20.5,-29.75,9.56,102.97,-86.34,-18.36
9157,52.39885,-1.245433,185.55,0.0,3,106.04,17 / 18,1392108,2019-09-04 20:29:44:221,0.5625,-0.237,9.883,0.0009,-0.0008,9.8066,0.0049,0.0285,0.0047,-20.0,-29.37,9.69,102.54,-86.36,-18.62
9158,52.39885,-1.245433,185.55,0.0,3,106.04,17 / 18,1392208,2019-09-04 20:29:44:321,0.6356,-0.2487,9.9067,0.0025,-0.0014,9.8065,0.0058,0.0307,0.0,-20.56,-29.25,9.75,101.1,-86.37,-18.79
9159,52.39885,-1.245433,185.55,0.0,3,106.04,17 / 19,1392308,2019-09-04 20:29:44:421,0.6718,-0.2428,9.8366,0.0021,-0.002,9.8066,0.0034,0.038,0.0001,-20.5,-29.5,10.19,102.03,-86.42,-19.07
9160,52.39885,-1.245433,185.55,0.0,3,106.04,17 / 19,1392407,2019-09-04 20:29:44:520,0.6818,-0.1263,9.7395,0.0029,-0.0008,9.8066,0.0068,0.0432,-0.0014,-20.56,-28.94,10.06,100.57,-86.46,-19.22
9161,52.39885,-1.245433,185.55,0.0,3,106.04,17 / 19,1392508,2019-09-04 20:29:44:621,0.7441,-0.0962,9.8312,0.003,-0.0012,9.8066,0.0116,0.05,-0.0019,-20.5,-28.87,10.44,101.7,-86.53,-19.26
9162,52.39885,-1.245433,185.55,0.0,3,106.04,17 / 19,1392608,2019-09-04 20:29:44:721,0.8444,-0.1016,9.7617,0.008,-0.0039,9.8066,0.0134,0.0666,-0.0016,-20.81,-29.12,10.94,102.09,-86.64,-19.56
9163,52.39885,-1.245433,185.55,0.0,3,106.04,17 / 19,1392708,2019-09-04 20:29:44:821,0.9051,-0.0078,9.8213,0.0068,-0.0002,9.8066,0.0194,0.0771,-0.0066,-20.37,-28.69,10.94,103.38,-86.72,-19.47
9164,52.39885,-1.245433,185.55,0.0,3,106.04,17 / 19,1392808,2019-09-04 20:29:44:921,1.1089,0.112,9.7492,0.0089,-0.0002,9.8066,0.0201,0.095,-0.01,-20.5,-28.87,10.56,103.72,-86.82,-19.0
9165,52.39885,-1.245433,185.55,0.0,3,106.04,17 / 19,1392908,2019-09-04 20:29:45:021,1.4329,-0.0588,9.9702,0.0065,-0.0004,9.8066,0.0131,0.1233,0.0059,-19.94,-28.56,10.44,102.01,-86.96,-18.4
9166,52.39885,-1.245433,185.55,0.0,3,106.04,17 / 19,1393008,2019-09-04 20:29:45:121,1.0397,-0.0562,10.0005,0.0012,-0.004,9.8066,0.0046,0.1524,0.0083,-20.94,-28.62,10.56,102.69,-87.01,-18.52
9167,52.39885,-1.245433,185.55,0.0,3,106.04,17 / 19,1393107,2019-09-04 20:29:45:220,1.4409,0.3175,9.5072,0.0063,-0.0014,9.8066,0.0126,0.1788,-0.0033,-21.31,-29.0,10.19,100.04,-87.08,-19.01
9168,52.39885,-1.245433,185.55,0.0,3,106.04,17 / 19,1393208,2019-09-04 20:29:45:321,1.5747,0.2246,10.0383,0.0084,0.0046,9.8066,0.01,0.2204,-0.0119,-20.94,-28.81,9.94,100.49,-87.15,-18.46
9169,52.39885,-1.245433,185.55,0.0,3,106.04,16 / 18,1393307,2019-09-04 20:29:45:420,1.8884,0.1496,10.1396,0.0077,0.0049,9.8066,0.0101,0.2495,-0.0184,-20.87,-28.69,8.88,100.42,-87.26,-16.19
9170,52.39885,-1.245433,185.55,0.0,3,106.04,16 / 18,1393408,2019-09-04 20:29:45:521,1.3577,0.8232,9.7411,0.0078,0.0037,9.8066,0.0107,0.283,-0.005,-21.12,-28.87,8.56,102.32,-87.32,-14.19
9171,52.39885,-1.245433,185.55,0.0,3,106.04,16 / 18,1393507,2019-09-04 20:29:45:620,1.8705,0.9277,9.8904,0.0047,0.0015,9.8066,0.0085,0.3141,0.0061,-21.0,-28.69,8.56,103.97,-87.41,-12.41
9172,52.39885,-1.245433,185.55,0.0,3,106.04,16 / 18,1393608,2019-09-04 20:29:45:721,1.6924,1.1152,9.8015,0.0012,0.0062,9.8066,-0.0049,0.3672,-0.0031,-20.94,-28.5,7.56,102.66,-87.46,-11.28
9173,52.39885,-1.245433,185.55,0.0,3,106.04,16 / 18,1393707,2019-09-04 20:29:45:820,1.7938,0.9767,10.0666,0.0002,0.0039,9.8066,-0.0049,0.3733,-0.0064,-20.69,-28.5,7.0,101.15,-87.46,-10.44
9174,52.39885,-1.245433,185.55,0.0,3,106.04,16 / 18,1393808,2019-09-04 20:29:45:921,1.312,1.5884,9.5623,-0.0004,0.0075,9.8066,-0.0095,0.4337,0.0082,-19.81,-29.56,5.19,102.59,-87.41,-5.12
9175,52.39885,-1.245433,185.55,0.0,3,106.04,16 / 18,1393907,2019-09-04 20:29:46:020,1.1477,1.3602,10.0252,-0.0022,0.0087,9.8066,-0.0083,0.4436,-0.0012,-20.0,-29.5,3.63,101.76,-87.35,-3.23
9176,52.39885,-1.245433,185.55,0.0,3,106.04,16 / 18,1394008,2019-09-04 20:29:46:121,1.0298,1.4758,9.5591,-0.006,0.0087,9.8066,-0.0211,0.4652,0.0072,-19.94,-29.37,2.69,101.11,-87.29,-1.23
9177,52.39885,-1.245433,185.55,0.0,3,106.04,16 / 18,1394108,2019-09-04 20:29:46:221,0.8012,1.6613,9.6223,-0.0024,0.0049,9.8066,-0.0046,0.4766,0.0054,-20.62,-29.81,1.75,99.09,-87.2,-0.29
9178,52.39885,-1.245433,185.55,0.0,3,106.04,16 / 18,1394208,2019-09-04 20:29:46:321,1.0536,1.748,9.8264,0.0034,0.0069,9.8066,0.0037,0.4958,0.0087,-19.44,-29.62,0.38,96.33,-87.19,1.92
9179,52.39885,-1.245433,185.55,0.0,3,106.04,16 / 18,1394307,2019-09-04 20:29:46:420,1.0974,1.8794,9.9743,0.0014,0.0028,9.8066,-0.0021,0.5229,0.0113,-19.12,-30.0,-0.75,94.18,-87.24,2.85
9180,52.39885,-1.245433,185.55,0.0,3,106.04,16 / 18,1394408,2019-09-04 20:29:46:521,0.9317,1.5559,9.8802,-0.0011,-0.0019,9.8066,-0.0272,0.5389,0.0357,-19.06,-29.56,-1.75,91.75,-87.24,3.43
9181,52.39885,-1.245433,185.55,0.0,3,106.04,16 / 18,1394507,2019-09-04 20:29:46:620,0.5957,1.3994,9.9749,-0.0065,-0.0007,9.8065,-0.0067,0.5215,0.0243,-19.19,-29.31,-2.31,90.72,-87.12,2.35
9182,52.39885,-1.245433,185.55,0.0,3,106.04,16 / 18,1394608,2019-09-04 20:29:46:721,0.6285,1.68,10.0379,0.0034,0.0032,9.8066,0.0097,0.5039,0.016,-19.06,-30.06,-3.12,88.27,-87.14,2.77
9183,52.39885,-1.245433,185.55,0.0,3,106.04,16 / 18,1394707,2019-09-04 20:29:46:820,0.7064,1.6024,9.8267,0.0057,-0.0004,9.8066,0.0109,0.4948,0.0284,-18.19,-29.56,-3.87,85.22,-87.21,3.2
9184,52.39885,-1.245433,185.55,0.0,3,106.04,16 / 18,1394808,2019-09-04 20:29:46:921,0.6321,1.6428,9.9713,0.0083,-0.0012,9.8066,0.0119,0.4664,0.0368,-17.5,-29.56,-5.12,80.6,-87.33,2.51
9185,52.39885,-1.245433,185.55,0.0,3,106.04,16 / 18,1394908,2019-09-04 20:29:47:021,0.7212,1.421,9.5112,0.0081,-0.0043,9.8066,0.0165,0.4352,0.0417,-18.25,-29.12,-6.44,76.41,-87.42,0.99
9186,52.39885,-1.245433,185.55,0.0,3,106.04,16 / 18,1395008,2019-09-04 20:29:47:121,1.1486,0.7587,9.8685,0.0069,-0.0085,9.8066,0.0084,0.3996,0.0356,-17.31,-29.5,-6.31,71.88,-87.52,-2.49
9187,52.39885,-1.245433,185.55,0.0,3,106.04,16 / 18,1395107,2019-09-04 20:29:47:220,0.709,1.0511,9.9451,0.0097,0.0011,9.8066,0.0201,0.3439,0.0326,-17.19,-29.44,-6.56,67.5,-87.63,-3.59
9188,52.39885,-1.245433,185.55,0.0,3,106.04,16 / 18,1395208,2019-09-04 20:29:47:321,1.3382,0.9533,10.1496,0.0135,-0.0038,9.8066,0.0263,0.3108,0.0165,-16.87,-29.56,-7.56,61.9,-87.74,-6.1
9189,52.39885,-1.245433,185.55,0.0,3,106.04,16 / 18,1395307,2019-09-04 20:29:47:420,1.3654,1.4549,10.3072,0.0077,0.0044,9.8066,0.0143,0.2739,0.0233,-17.12,-29.19,-7.94,62.77,-87.88,-4.95
9190,52.398857,-1.245289,185.42,4.54,3,50.36,16 / 18,1395407,2019-09-04 20:29:47:520,0.8325,1.6191,9.2304,0.0083,-0.0118,9.8066,0.0068,0.2166,0.0516,-16.75,-29.19,-6.87,64.74,-87.96,-5.81
9191,52.398857,-1.245289,185.42,4.54,3,50.36,16 / 18,1395508,2019-09-04 20:29:47:621,1.3271,0.6208,10.3778,0.004,-0.0027,9.8066,0.0077,0.2066,0.0007,-16.56,-29.19,-7.31,59.32,-87.97,-11.06
9192,52.398857,-1.245289,185.42,4.54,3,50.36,16 / 18,1395607,2019-09-04 20:29:47:720,1.6089,1.1167,9.4837,0.0077,-0.0028,9.8066,0.0202,0.1673,0.0255,-15.94,-29.37,-8.56,49.76,-88.06,-13.24
9193,52.398857,-1.245289,185.42,4.54,3,50.36,16 / 18,1395708,2019-09-04 20:29:47:821,1.3228,0.7582,9.5325,0.0054,-0.0024,9.8066,0.0003,0.1384,0.0065,-16.75,-28.81,-8.06,51.2,-88.11,-15.89
9194,52.398857,-1.245289,185.42,4.54,3,50.36,16 / 18,1395808,2019-09-04 20:29:47:921,1.5374,0.2814,9.6033,-0.004,-0.0075,9.8066,-0.0208,0.1082,0.0151,-15.81,-29.0,-8.12,50.05,-88.08,-15.79
9195,52.398857,-1.245289,185.42,4.54,3,50.36,16 / 18,1395907,2019-09-04 20:29:48:020,0.7643,-0.2499,9.6882,-0.005,-0.0087,9.8066,-0.0102,0.074,0.0193,-15.69,-29.75,-8.5,49.07,-87.92,-17.03
9196,52.398857,-1.245289,185.42,4.54,3,50.36,16 / 18,1396007,2019-09-04 20:29:48:120,1.3112,0.8755,10.2372,0.0054,-0.0018,9.8066,-0.0054,0.0759,0.0206,-15.81,-29.31,-9.12,46.62,-87.9,-16.45
9197,52.398857,-1.245289,185.42,4.54,3,50.36,16 / 18,1396108,2019-09-04 20:29:48:221,1.5744,0.4165,9.3776,0.0016,0.0002,9.8066,-0.0061,0.0633,-0.015,-15.44,-28.94,-8.87,43.08,-87.89,-18.36
9198,52.398857,-1.245289,185.42,4.54,3,50.36,16 / 18,1396208,2019-09-04 20:29:48:321,0.835,0.7797,9.6827,-0.0072,0.0051,9.8066,-0.0285,0.0351,0.0024,-15.69,-29.87,-9.12,49.41,-87.9,-13.86
9199,52.398857,-1.245289,185.42,4.54,3,50.36,17 / 18,1396307,2019-09-04 20:29:48:420,0.951,0.3706,10.3995,-0.0053,-0.0048,9.8066,-0.0139,0.0334,-0.016,-15.62,-28.62,-8.81,49.59,-87.8,-13.73
9200,52.398857,-1.245289,185.42,4.54,3,50.36,17 / 18,1396407,2019-09-04 20:29:48:520,0.685,0.7478,10.1573,-0.0003,-0.0033,9.8066,-0.0066,0.0326,0.0133,-15.19,-28.94,-8.87,49.14,-87.8,-12.68
9201,52.398857,-1.245289,185.42,4.54,3,50.36,17 / 18,1396508,2019-09-04 20:29:48:621,1.2364,-0.1212,9.4865,-0.0019,-0.0013,9.8066,-0.013,0.026,-0.0107,-15.69,-29.0,-9.75,46.87,-87.75,-13.67
9202,52.398857,-1.245289,185.42,4.54,3,50.36,17 / 18,1396608,2019-09-04 20:29:48:721,1.0228,1.0159,9.8129,-0.0032,0.0065,9.8066,-0.0023,0.0214,-0.0021,-15.25,-28.87,-9.81,47.96,-87.78,-11.03
9203,52.398857,-1.245289,185.42,4.54,3,50.36,17 / 18,1396708,2019-09-04 20:29:48:821,0.5446,0.4665,9.6651,-0.005,0.0005,9.8066,-0.0057,0.015,-0.0173,-15.25,-29.31,-9.12,52.77,-87.76,-9.25
9204,52.398857,-1.245289,185.42,4.54,3,50.36,17 / 18,1396807,2019-09-04 20:29:48:920,0.7874,0.7455,10.0179,0.006,-0.0047,9.8066,0.0099,0.0126,0.0142,-15.5,-29.19,-9.62,49.93,-87.77,-9.15
9205,52.398857,-1.245289,185.42,4.54,3,50.36,17 / 18,1396908,2019-09-04 20:29:49:021,0.8817,0.4034,10.1565,0.0129,-0.0024,9.8066,0.0243,0.0267,0.0142,-15.31,-28.62,-9.62,47.07,-87.84,-11.8
9206,52.398857,-1.245289,185.42,4.54,3,50.36,17 / 18,1397007,2019-09-04 20:29:49:120,0.8219,0.319,9.9976,0.0059,0.0067,9.8066,0.0139,0.0181,-0.0111,-15.25,-30.0,-9.87,45.9,-87.95,-12.89
9207,52.398857,-1.245289,185.42,4.54,3,50.36,17 / 18,1397107,2019-09-04 20:29:49:220,0.4552,0.7504,9.8236,0.002,0.0038,9.8066,0.0038,0.0298,0.0027,-15.06,-29.12,-10.06,46.64,-88.07,-11.95
9208,52.398857,-1.245289,185.42,4.54,3,50.36,17 / 18,1397208,2019-09-04 20:29:49:321,0.9063,1.0228,10.7758,0.0023,-0.0008,9.8066,-0.0065,0.0322,0.0153,-15.0,-29.12,-9.44,48.7,-88.1,-12.72
9209,52.398857,-1.245289,185.42,4.54,3,50.36,17 / 18,1397308,2019-09-04 20:29:49:421,0.2029,0.2937,9.6556,0.002,-0.0005,9.8066,-0.0016,0.0295,0.0057,-14.94,-29.5,-9.75,44.14,-88.11,-14.31
9210,52.398857,-1.245289,185.42,4.54,3,50.36,16 / 18,1397407,2019-09-04 20:29:49:520,0.154,0.0221,9.9048,-0.0051,-0.0022,9.8066,-0.0239,0.0293,0.0007,-15.0,-29.0,-9.25,47.54,-88.07,-13.87
9211,52.398857,-1.245289,185.42,4.54,3,50.36,16 / 18,1397508,2019-09-04 20:29:49:621,-0.2144,0.2958,9.9099,-0.0076,0.0012,9.8066,-0.0174,0.0423,-0.0151,-15.0,-29.19,-9.69,46.28,-88.01,-12.36
9212,52.398857,-1.245289,185.42,4.54,3,50.36,16 / 18,1397607,2019-09-04 20:29:49:720,-0.2115,0.6431,9.7595,0.0039,0.0022,9.8066,0.005,0.0523,0.0143,-15.25,-28.94,-9.75,48.44,-88.02,-10.27
9213,52.398857,-1.245289,185.42,4.54,3,50.36,16 / 18,1397708,2019-09-04 20:29:49:821,0.3361,0.3655,9.431,0.0066,-0.0025,9.8066,0.0023,0.0586,0.0111,-14.56,-29.06,-9.81,46.07,-88.07,-12.49
9214,52.398857,-1.245289,185.42,4.54,3,50.36,16 / 18,1397807,2019-09-04 20:29:49:920,0.1933,0.0843,9.8621,0.0002,0.0024,9.8067,-0.0021,0.0436,-0.0006,-15.69,-29.31,-9.94,46.51,-88.1,-13.62
9215,52.398857,-1.245289,185.42,4.54,3,50.36,16 / 18,1397908,2019-09-04 20:29:50:021,-0.1875,0.6076,9.7218,-0.006,0.0052,9.8066,-0.0078,0.0522,-0.0099,-14.62,-28.56,-10.12,46.92,-88.11,-11.63
9216,52.398857,-1.245289,185.42,4.54,3,50.36,16 / 18,1398008,2019-09-04 20:29:50:121,-0.2208,0.1669,9.7774,-0.0025,0.002,9.8066,0.0045,0.0406,-0.0243,-14.37,-29.56,-10.25,46.2,-88.08,-10.69
9217,52.398857,-1.245289,185.42,4.54,3,50.36,16 / 18,1398107,2019-09-04 20:29:50:220,0.1671,0.4478,9.5033,0.0028,0.0072,9.8066,0.009,0.0513,-0.0098,-14.37,-28.62,-10.37,48.24,-88.15,-8.56
9218,52.398857,-1.245289,185.42,4.54,3,50.36,16 / 18,1398207,2019-09-04 20:29:50:320,0.1536,0.085,9.776,-0.0028,0.0101,9.8066,0.0047,0.0563,-0.0289,-14.31,-28.87,-9.81,50.03,-88.23,-6.73
9219,52.398857,-1.245289,185.42,4.54,3,50.36,16 / 18,1398308,2019-09-04 20:29:50:421,-0.1744,0.1235,10.1448,-0.0047,0.012,9.8066,-0.0074,0.0601,-0.0271,-14.12,-28.56,-10.62,51.47,-88.27,-2.58
9220,52.398857,-1.245289,185.42,4.54,3,50.36,17 / 18,1398408,2019-09-04 20:29:50:521,-0.5504,0.2865,9.0786,-0.0067,-0.0044,9.8066,-0.0325,0.0577,0.0043,-13.75,-28.69,-10.0,60.37,-88.26,3.35
9221,52.398857,-1.245289,185.42,4.54,3,50.36,17 / 18,1398508,2019-09-04 20:29:50:621,-0.164,0.6549,10.0117,-0.0035,-0.0075,9.8066,-0.018,0.0632,0.0135,-14.25,-28.69,-11.0,56.62,-88.12,2.21
9222,52.398857,-1.245289,185.42,4.54,3,50.36,17 / 18,1398608,2019-09-04 20:29:50:721,-0.3815,-0.1055,10.2043,-0.0046,-0.0049,9.8066,-0.0236,0.0622,0.0027,-14.06,-28.44,-11.37,55.23,-88.02,0.81
9223,52.398857,-1.245289,185.42,4.54,3,50.36,17 / 18,1398708,2019-09-04 20:29:50:821,-0.2896,0.1802,10.1477,-0.0003,0.0066,9.8066,0.0251,0.0624,-0.015,-14.06,-29.06,-10.81,56.63,-88.04,2.11
9224,52.398857,-1.245289,185.42,4.54,3,50.36,17 / 18,1398807,2019-09-04 20:29:50:920,-0.4438,0.8869,9.7203,0.0132,0.0049,9.8066,0.0252,0.0656,0.0178,-13.75,-28.62,-11.06,58.73,-88.19,4.35
9225,52.398857,-1.245289,185.42,4.54,3,50.36,17 / 18,1398908,2019-09-04 20:29:51:021,0.0185,0.22,9.9619,0.0094,0.0035,9.8066,0.0131,0.0675,0.0014,-13.81,-29.31,-10.5,58.77,-88.39,1.98
9226,52.398857,-1.245289,185.42,4.54,3,50.36,17 / 18,1399008,2019-09-04 20:29:51:121,-0.1887,0.1031,9.9418,-0.0008,0.0055,9.8066,0.0014,0.0696,-0.0105,-13.56,-28.75,-10.94,55.95,-88.47,2.03
9227,52.398857,-1.245289,185.42,4.54,3,50.36,17 / 18,1399107,2019-09-04 20:29:51:220,-0.5542,0.2201,9.8524,-0.0017,0.0037,9.8066,-0.0051,0.0684,-0.0115,-13.44,-28.69,-10.06,59.65,-88.5,4.92
9228,52.398857,-1.245289,185.42,4.54,3,50.36,17 / 18,1399207,2019-09-04 20:29:51:320,-1.0269,0.0447,9.7207,-0.0035,0.0105,9.8066,0.0015,0.0693,-0.0259,-13.12,-29.12,-11.56,59.02,-88.52,9.63
9229,52.398857,-1.245289,185.42,4.54,3,50.36,17 / 18,1399307,2019-09-04 20:29:51:420,-0.2542,0.1941,9.7107,-0.0005,0.0026,9.8066,-0.0014,0.0776,-0.0055,-12.94,-29.31,-11.0,63.37,-88.52,11.35
9230,52.398857,-1.245289,185.42,4.54,3,50.36,17 / 18,1399408,2019-09-04 20:29:51:521,-0.7699,0.0757,9.6522,-0.004,0.0087,9.8066,-0.0009,0.0855,-0.0252,-12.56,-28.56,-11.06,65.35,-88.52,13.28
9231,52.398857,-1.245289,185.42,4.54,3,50.36,17 / 18,1399508,2019-09-04 20:29:51:621,-0.7458,0.4719,9.9932,-0.0001,0.0075,9.8066,-0.006,0.0932,0.0104,-12.25,-28.37,-11.06,69.05,-88.53,19.19
9232,52.398857,-1.245289,185.42,4.54,3,50.36,17 / 18,1399608,2019-09-04 20:29:51:721,-0.9449,0.1913,10.0295,0.0009,0.0007,9.8066,-0.0046,0.1092,0.0039,-11.81,-28.94,-10.44,71.14,-88.55,18.38
9233,52.398857,-1.245289,185.42,4.54,3,50.36,17 / 18,1399708,2019-09-04 20:29:51:821,-0.6231,0.2649,9.5605,-0.0032,0.0037,9.8066,-0.0133,0.1074,-0.0083,-11.81,-29.06,-11.25,69.97,-88.53,20.02
9234,52.398857,-1.245289,185.42,4.54,3,50.36,17 / 18,1399808,2019-09-04 20:29:51:921,-1.1539,-0.265,9.7983,-0.0042,-0.0037,9.8066,-0.0222,0.1032,0.0056,-10.81,-28.5,-11.5,68.46,-88.46,20.87
9235,52.398857,-1.245289,185.42,4.54,3,50.36,17 / 18,1399908,2019-09-04 20:29:52:021,-1.1922,-0.2054,10.181,-0.0025,-0.0017,9.8066,0.0027,0.0895,0.0064,-11.62,-27.56,-12.81,65.15,-88.42,20.16
9236,52.398857,-1.245289,185.42,4.54,3,50.36,17 / 18,1400007,2019-09-04 20:29:52:120,-0.8364,-0.2769,9.8255,0.0089,0.003,9.8066,0.0147,0.0935,0.0139,-11.12,-27.25,-13.5,62.33,-88.47,19.94
9237,52.398857,-1.245289,185.42,4.54,3,50.36,17 / 18,1400107,2019-09-04 20:29:52:220,-0.6738,-0.2122,9.5377,0.0077,0.004,9.8066,0.0065,0.0898,0.0115,-12.06,-27.44,-14.56,59.32,-88.65,19.01
9238,52.398857,-1.245289,185.42,4.54,3,50.36,17 / 18,1400208,2019-09-04 20:29:52:321,-0.4971,-0.0366,9.847,-0.0007,-0.001,9.8066,-0.0103,0.0916,0.0018,-13.37,-27.56,-14.25,63.38,-88.69,18.78
9239,52.398857,-1.245289,185.42,4.54,3,50.36,17 / 18,1400308,2019-09-04 20:29:52:421,-0.945,-0.2554,10.0495,-0.0022,-0.0016,9.8066,-0.0131,0.0745,-0.0002,-13.5,-27.31,-14.44,63.48,-88.65,18.89
9240,52.398857,-1.245289,185.42,4.54,3,50.36,17 / 18,1400407,2019-09-04 20:29:52:520,-0.6861,-0.1263,9.5871,0.0028,0.0028,9.8066,0.0074,0.074,-0.0005,-14.56,-28.62,-13.19,70.46,-88.64,19.49
9241,52.398857,-1.245289,185.42,4.54,3,50.36,17 / 18,1400508,2019-09-04 20:29:52:621,-0.6016,0.1612,9.4716,0.0057,0.0003,9.8066,0.0011,0.0807,0.0078,-14.31,-28.44,-12.5,70.88,-88.69,19.6
9242,52.398857,-1.245289,185.42,4.54,3,50.36,17 / 18,1400607,2019-09-04 20:29:52:720,-0.5313,-0.534,9.669,0.0017,-0.0031,9.8066,-0.0011,0.062,0.0072,-13.56,-28.56,-11.94,70.17,-88.71,18.85
9243,52.398857,-1.245289,185.42,4.54,3,50.36,17 / 18,1400708,2019-09-04 20:29:52:821,-0.5624,-0.361,9.8579,0.0004,-0.0008,9.8066,-0.0023,0.0486,0.0097,-13.06,-29.5,-10.94,69.92,-88.71,18.1
9244,52.398857,-1.245289,185.42,4.54,3,50.36,17 / 18,1400808,2019-09-04 20:29:52:921,-0.7169,-0.3159,9.8519,0.0013,0.0038,9.8065,0.0064,0.0488,-0.003,-11.56,-29.19,-12.12,63.79,-88.73,16.84
9245,52.398857,-1.245289,185.42,4.54,3,50.36,17 / 18,1400908,2019-09-04 20:29:53:021,-0.5314,-0.4125,9.9227,0.0039,0.0058,9.8066,0.0122,0.0398,-0.0004,-11.94,-28.87,-11.94,66.65,-88.8,19.75
9246,52.398857,-1.245289,185.42,4.54,3,50.36,17 / 18,1401008,2019-09-04 20:29:53:121,-0.2219,-0.1423,9.9118,0.0043,0.0031,9.8066,0.0097,0.0389,0.0058,-11.56,-28.62,-12.44,68.37,-88.89,21.61
9247,52.398857,-1.245289,185.42,4.54,3,50.36,17 / 18,1401107,2019-09-04 20:29:53:220,-0.1207,-0.6556,9.9213,0.0073,-0.0033,9.8066,-0.0009,0.0154,0.0101,-11.31,-29.25,-12.06,63.21,-88.96,19.03
9248,52.398857,-1.245289,185.42,4.54,3,50.36,17 / 18,1401207,2019-09-04 20:29:53:320,-0.3341,-0.1561,9.8772,0.0031,-0.0063,9.8066,-0.0125,0.0201,0.0202,-11.37,-28.37,-12.0,60.93,-89.0,16.9
9249,52.398857,-1.245289,185.42,4.54,3,50.36,17 / 18,1401308,2019-09-04 20:29:53:421,-0.2747,-0.7974,9.8529,-0.0006,-0.0072,9.8065,-0.0039,0.0075,-0.0082,-10.87,-28.44,-11.87,53.14,-88.95,9.18
9250,52.398857,-1.245289,185.42,4.54,3,50.36,17 / 18,1401407,2019-09-04 20:29:53:520,-0.0813,-0.4185,9.6066,0.0012,0.0002,9.8066,-0.0017,0.006,0.0042,-11.69,-28.31,-12.37,56.74,-88.92,10.25
9251,52.398857,-1.245289,185.42,4.54,3,50.36,17 / 18,1401508,2019-09-04 20:29:53:621,-0.1395,-0.742,9.423,0.0041,-0.0103,9.8066,-0.017,-0.019,0.0132,-11.25,-28.69,-12.19,49.19,-88.9,5.2
9252,52.398857,-1.245289,185.42,4.54,3,50.36,17 / 18,1401608,2019-09-04 20:29:53:721,-0.1878,-0.8656,9.8719,0.0,-0.0062,9.8066,-0.016,-0.0085,0.008,-11.06,-29.06,-12.44,46.24,-88.85,2.24
9253,52.398857,-1.245289,185.42,4.54,3,50.36,17 / 18,1401708,2019-09-04 20:29:53:821,-0.4339,-0.5273,9.9405,-0.001,-0.0019,9.8066,-0.011,-0.0192,0.0153,-11.94,-28.5,-13.0,44.73,-88.79,0.67
9254,52.398857,-1.245289,185.42,4.54,3,50.36,17 / 18,1401808,2019-09-04 20:29:53:921,-0.3668,-0.5951,9.9291,0.0076,-0.0065,9.8066,-0.0005,-0.0124,0.0247,-11.31,-29.19,-12.37,41.8,-88.75,-2.2
9255,52.398857,-1.245289,185.42,4.54,3,50.36,17 / 18,1401908,2019-09-04 20:29:54:021,-0.1277,-0.4482,9.8036,0.0087,-0.0011,9.8066,0.0205,-0.015,0.0195,-12.06,-28.75,-12.5,37.27,-88.8,-8.98
9256,52.398857,-1.245289,185.42,4.54,3,50.36,17 / 18,1402008,2019-09-04 20:29:54:121,-0.4687,-0.6966,9.997,0.0151,-0.0053,9.8066,0.0173,-0.0163,0.0375,-12.19,-28.12,-12.44,25.01,-88.88,-20.78
9257,52.398857,-1.245289,185.42,4.54,3,50.36,17 / 18,1402108,2019-09-04 20:29:54:221,-0.0401,-0.5921,9.8127,0.016,-0.0035,9.8066,0.0131,-0.0113,0.0328,-11.81,-29.19,-12.62,12.64,-88.9,-30.46
9258,52.398857,-1.245289,185.42,4.54,3,50.36,17 / 18,1402208,2019-09-04 20:29:54:321,-0.3061,-0.9395,9.59,0.0129,-0.0106,9.8065,-0.002,-0.0195,0.0441,-12.12,-29.0,-13.0,3.74,-88.86,-39.09
9259,52.398857,-1.245289,185.42,4.54,3,50.36,18 / 19,1402308,2019-09-04 20:29:54:421,-0.1036,-1.6475,9.3078,0.0011,-0.017,9.8066,-0.0312,-0.0185,-0.0047,-12.56,-28.87,-12.25,2.21,-88.61,-45.17
9260,52.398857,-1.245289,185.42,4.54,3,50.36,18 / 19,1402407,2019-09-04 20:29:54:520,-0.6587,-0.8599,9.4512,-0.0224,-0.0045,9.8066,-0.0512,-0.0143,-0.0356,-11.94,-28.5,-12.69,2.68,-88.51,-40.14
9261,52.398857,-1.245289,185.42,4.54,3,50.36,18 / 19,1402508,2019-09-04 20:29:54:621,-0.3947,-1.3278,9.3798,-0.015,-0.0136,9.8066,-0.0432,-0.0139,-0.0192,-12.5,-28.44,-12.75,13.95,-88.3,-29.41
9262,52.398857,-1.245289,185.42,4.54,3,50.36,18 / 19,1402607,2019-09-04 20:29:54:720,-0.451,-1.8763,9.9918,-0.0039,-0.0203,9.8066,-0.042,-0.0231,0.0185,-11.94,-28.37,-13.31,16.87,-87.99,-26.77
9263,52.398857,-1.245289,185.42,4.54,3,50.36,18 / 19,1402708,2019-09-04 20:29:54:821,-1.4701,-0.4928,10.8241,-0.0239,0.0173,9.8065,0.0237,-0.0069,-0.034,-12.0,-28.87,-13.37,24.71,-87.99,-19.4
9264,52.398857,-1.245289,185.42,4.54,3,50.36,18 / 19,1402808,2019-09-04 20:29:54:921,-1.9087,-0.9544,10.2211,0.0233,0.0154,9.8066,0.0783,-0.0069,0.0224,-12.5,-28.56,-12.25,30.12,-88.14,-16.49
9265,52.398857,-1.245289,185.42,4.54,3,50.36,18 / 19,1402908,2019-09-04 20:29:55:021,-1.6465,-0.1641,8.9664,0.0174,0.0183,9.8065,0.0569,0.0033,0.0109,-11.94,-29.12,-12.44,20.74,-88.57,-25.14
9266,52.398857,-1.245289,185.42,4.54,3,50.36,18 / 19,1403008,2019-09-04 20:29:55:121,-1.0811,-1.2691,9.2117,0.0111,0.0006,9.8065,0.0223,-0.0019,0.0203,-13.06,-28.81,-12.37,16.14,-88.75,-31.72
9267,52.398857,-1.245289,185.42,4.54,3,50.36,18 / 19,1403107,2019-09-04 20:29:55:220,-1.558,-0.9486,9.5647,-0.0201,0.017,9.8065,-0.0273,-0.0049,-0.0559,-12.81,-28.56,-12.06,19.6,-88.86,-28.32
9268,52.398857,-1.245289,185.42,4.54,3,50.36,18 / 19,1403207,2019-09-04 20:29:55:320,-1.0518,-0.7268,10.1017,-0.0122,-0.0149,9.8066,-0.044,-0.0206,0.0072,-12.19,-29.5,-13.12,28.4,-88.67,-15.35
9269,52.398857,-1.245289,185.42,4.54,3,50.36,17 / 17,1403307,2019-09-04 20:29:55:420,-0.6454,-1.023,9.7723,-0.0118,-0.0057,9.8066,-0.0071,0.0259,0.017,-12.37,-28.87,-12.37,34.64,-88.5,-11.82
9270,52.398857,-1.245289,185.42,4.54,3,50.36,17 / 17,1403408,2019-09-04 20:29:55:521,-1.4153,-0.6433,9.2784,0.0139,-0.001,9.8066,0.0358,0.013,0.0339,-12.44,-29.12,-12.19,33.89,-88.46,-12.59
9271,52.398857,-1.245289,185.42,4.54,3,50.36,17 / 17,1403508,2019-09-04 20:29:55:621,-0.3842,-1.0701,10.401,0.0029,0.0081,9.8066,0.0214,0.0242,-0.0369,-11.87,-29.56,-12.31,27.22,-88.6,-18.93
9272,52.398857,-1.245289,185.42,4.54,3,50.36,17 / 17,1403607,2019-09-04 20:29:55:720,-1.0642,-0.9423,10.1841,-0.0013,0.0129,9.8066,0.0236,0.0225,-0.0285,-12.69,-28.5,-13.0,31.69,-88.72,-14.34
9273,52.398857,-1.245289,185.42,4.54,3,50.36,17 / 17,1403708,2019-09-04 20:29:55:821,-1.1734,0.2283,9.2066,-0.0013,0.0226,9.8066,0.0441,0.0025,-0.0117,-11.87,-29.19,-13.06,39.61,-88.99,-4.16
9274,52.398857,-1.245289,185.42,4.54,3,50.36,17 / 17,1403808,2019-09-04 20:29:55:921,-0.7284,-0.5509,9.3198,0.0084,-0.0069,9.8066,0.0,0.0383,0.0342,-12.31,-29.44,-12.31,39.17,-89.14,-6.77
9275,52.398857,-1.245289,185.42,4.54,3,50.36,17 / 17,1403907,2019-09-04 20:29:56:020,-0.2386,-0.9675,9.3827,0.0015,-0.0101,9.8066,-0.0143,0.0378,0.0061,-12.25,-29.12,-12.37,32.46,-89.06,-13.41
9276,52.398857,-1.245289,185.42,4.54,3,50.36,17 / 17,1404007,2019-09-04 20:29:56:120,-0.7387,-0.9572,9.6638,-0.0033,-0.0101,9.8066,-0.0209,0.0462,0.0082,-12.25,-28.62,-12.62,28.87,-88.97,-14.66
9277,52.398857,-1.245289,185.42,4.54,3,50.36,17 / 17,1404108,2019-09-04 20:29:56:221,-1.2158,-0.57,10.3168,-0.0101,-0.0049,9.8066,-0.0219,0.0536,-0.0363,-11.5,-28.75,-12.5,29.11,-88.79,-14.45
9278,52.398857,-1.245289,185.42,4.54,3,50.36,17 / 17,1404208,2019-09-04 20:29:56:321,-1.0957,-0.5331,9.8709,-0.0048,0.0061,9.8066,0.0065,0.0649,-0.018,-11.94,-29.0,-13.06,35.73,-88.72,-8.21
9279,52.398857,-1.245289,185.42,4.54,3,50.36,17 / 17,1404308,2019-09-04 20:29:56:421,-1.1718,0.266,9.8384,0.0039,0.0085,9.8066,0.0276,0.0797,-0.0033,-11.62,-28.69,-12.81,40.93,-88.83,-3.04
9280,52.399307,-1.244794,184.86,5.71,3,26.99,16 / 18,1404407,2019-09-04 20:29:56:520,-0.777,-0.1952,9.1503,0.01,0.0127,9.8066,0.0086,0.0917,0.0099,-11.62,-29.0,-12.37,44.01,-88.97,-2.21
9281,52.399307,-1.244794,184.86,5.71,3,26.99,16 / 18,1404508,2019-09-04 20:29:56:621,-0.0744,-0.2181,9.8067,-0.008,-0.0042,9.8066,-0.02,0.0875,-0.0261,-11.37,-28.81,-13.37,38.62,-88.87,-2.82
9282,52.399307,-1.244794,184.86,5.71,3,26.99,16 / 18,1404607,2019-09-04 20:29:56:720,-0.7949,-0.6315,9.7949,-0.0229,0.0001,9.8066,-0.0353,0.1082,-0.0368,-11.56,-29.44,-12.94,49.31,-88.71,4.99
9283,52.399307,-1.244794,184.86,5.71,3,26.99,16 / 18,1404707,2019-09-04 20:29:56:820,-0.8885,0.2063,10.6864,-0.0175,0.0047,9.8066,-0.02,0.1218,-0.0446,-11.19,-29.19,-13.0,53.32,-88.54,11.08
9284,52.399307,-1.244794,184.86,5.71,3,26.99,16 / 18,1404808,2019-09-04 20:29:56:921,-1.2941,0.25,9.9531,-0.0095,0.0019,9.8066,0.0068,0.1061,-0.0069,-9.56,-29.25,-12.62,59.21,-88.35,19.13
9285,52.399307,-1.244794,184.86,5.71,3,26.99,16 / 18,1404907,2019-09-04 20:29:57:020,-1.4773,-0.0541,9.8545,0.0086,0.0057,9.8066,0.0357,0.1488,0.0052,-10.69,-29.12,-13.56,60.9,-88.37,20.42
9286,52.399307,-1.244794,184.86,5.71,3,26.99,16 / 18,1405007,2019-09-04 20:29:57:120,-0.7631,0.1925,9.207,0.0092,0.0149,9.8066,0.0417,0.1699,-0.008,-10.44,-29.06,-13.62,61.5,-88.6,23.88
9287,52.399307,-1.244794,184.86,5.71,3,26.99,16 / 18,1405107,2019-09-04 20:29:57:220,-1.1378,0.5575,9.3318,-0.0056,0.0061,9.8066,-0.0074,0.1977,-0.0035,-9.87,-28.5,-13.62,68.61,-88.67,31.05
9288,52.399307,-1.244794,184.86,5.71,3,26.99,16 / 18,1405208,2019-09-04 20:29:57:321,-0.9333,-0.1286,10.428,-0.0073,-0.0067,9.8066,-0.0289,0.1938,-0.01,-9.19,-28.87,-13.44,66.88,-88.58,29.79
9289,52.399307,-1.244794,184.86,5.71,3,26.99,16 / 18,1405307,2019-09-04 20:29:57:420,-1.5193,0.2917,10.523,-0.0116,0.0016,9.8066,-0.0068,0.2108,-0.0131,-9.25,-28.94,-13.5,67.51,-88.43,30.15
9290,52.399307,-1.244794,184.86,5.71,3,26.99,17 / 19,1405408,2019-09-04 20:29:57:521,-2.0848,0.1674,10.0516,-0.0057,-0.0004,9.8066,-0.0065,0.2107,0.0045,-8.44,-28.81,-14.56,63.26,-88.31,32.61
9291,52.399307,-1.244794,184.86,5.71,3,26.99,17 / 19,1405507,2019-09-04 20:29:57:620,-1.52,0.3767,9.5026,0.0066,0.0011,9.8066,0.0161,0.2352,0.0138,-7.44,-28.94,-14.12,60.98,-88.32,31.69
9292,52.399307,-1.244794,184.86,5.71,3,26.99,17 / 19,1405608,2019-09-04 20:29:57:721,-1.4848,0.7923,9.2609,0.0034,0.0058,9.8066,0.0124,0.2779,0.0113,-8.19,-29.12,-14.25,64.82,-88.43,32.51
9293,52.399307,-1.244794,184.86,5.71,3,26.99,17 / 19,1405708,2019-09-04 20:29:57:821,-1.4141,0.5635,9.4938,-0.0032,0.0001,9.8066,-0.0192,0.2965,-0.0061,-7.75,-29.0,-14.25,66.76,-88.44,34.44
9294,52.399307,-1.244794,184.86,5.71,3,26.99,17 / 19,1405808,2019-09-04 20:29:57:921,-1.7301,0.0059,9.9825,-0.0107,-0.0042,9.8066,-0.0245,0.2945,-0.01,-6.56,-28.94,-14.5,64.24,-88.32,34.86
9295,52.399307,-1.244794,184.86,5.71,3,26.99,17 / 19,1405907,2019-09-04 20:29:58:020,-1.8075,0.1916,10.4304,0.0015,-0.0096,9.8066,-0.0168,0.3068,0.0253,-5.56,-29.19,-14.81,59.13,-88.2,34.54
9296,52.399307,-1.244794,184.86,5.71,3,26.99,17 / 19,1406007,2019-09-04 20:29:58:120,-2.0041,0.0631,10.1144,-0.0032,-0.0021,9.8066,0.0015,0.3024,0.0046,-6.25,-28.87,-15.31,56.2,-88.14,31.62
9297,52.399307,-1.244794,184.86,5.71,3,26.99,17 / 19,1406107,2019-09-04 20:29:58:220,-1.1698,0.1248,9.2186,0.0118,0.0082,9.8066,0.0253,0.3262,0.0166,-5.19,-28.87,-14.75,52.18,-88.22,31.15
9298,52.399307,-1.244794,184.86,5.71,3,26.99,17 / 19,1406208,2019-09-04 20:29:58:321,-1.8926,0.9068,9.3788,-0.0003,0.0114,9.8066,0.0175,0.3121,0.0117,-3.94,-28.44,-15.0,51.26,-88.41,34.08
9299,52.399307,-1.244794,184.86,5.71,3,26.99,17 / 19,1406308,2019-09-04 20:29:58:421,-2.045,0.4837,10.0526,0.013,-0.003,9.8066,0.0043,0.3174,0.0675,-4.31,-29.37,-14.56,46.25,-88.57,29.38
9300,52.399307,-1.244794,184.86,5.71,3,26.99,17 / 18,1406407,2019-09-04 20:29:58:520,-1.1429,0.423,9.96,0.0253,-0.0058,9.8066,-0.0036,0.3121,0.0611,-3.69,-29.5,-15.37,34.76,-88.7,18.43
9301,52.399307,-1.244794,184.86,5.71,3,26.99,17 / 18,1406508,2019-09-04 20:29:58:621,-0.8955,0.3126,9.2942,-0.0113,-0.0051,9.8066,-0.0264,0.3398,-0.0198,-3.44,-29.44,-15.69,24.68,-88.7,13.09
9302,52.399307,-1.244794,184.86,5.71,3,26.99,17 / 18,1406607,2019-09-04 20:29:58:720,-1.3924,0.536,10.5069,-0.0067,-0.0085,9.8066,-0.0446,0.3357,-0.001,-2.25,-28.87,-15.69,25.95,-88.51,17.65
9303,52.399307,-1.244794,184.86,5.71,3,26.99,17 / 18,1406708,2019-09-04 20:29:58:821,-2.6902,0.637,9.2766,-0.0046,-0.0053,9.8066,-0.0279,0.3195,0.0304,-2.12,-29.06,-14.62,28.26,-88.32,19.13
9304,52.399307,-1.244794,184.86,5.71,3,26.99,17 / 18,1406807,2019-09-04 20:29:58:920,-1.4943,0.2843,9.9635,0.0102,-0.0136,9.8066,-0.0294,0.315,0.0219,-2.06,-29.56,-15.75,22.3,-88.19,13.89
9305,52.399307,-1.244794,184.86,5.71,3,26.99,17 / 18,1406907,2019-09-04 20:29:59:020,-1.7508,0.6447,10.391,-0.0034,0.0002,9.8066,-0.0064,0.331,0.0141,-1.19,-28.56,-16.37,19.27,-88.07,14.53
9306,52.399307,-1.244794,184.86,5.71,3,26.99,17 / 18,1407007,2019-09-04 20:29:59:120,-1.3084,-0.6154,9.5835,-0.0007,-0.0011,9.8066,0.006,0.3451,0.0275,-0.75,-28.87,-15.5,19.71,-88.06,14.63
9307,52.399307,-1.244794,184.86,5.71,3,26.99,17 / 18,1407107,2019-09-04 20:29:59:220,-2.2584,0.1556,9.983,-0.0174,0.0049,9.8066,0.0087,0.3193,0.0195,-0.12,-29.25,-15.56,17.83,-88.1,16.77
9308,52.399307,-1.244794,184.86,5.71,3,26.99,17 / 18,1407208,2019-09-04 20:29:59:321,-1.113,0.4709,9.9269,0.0154,0.0075,9.8066,0.0184,0.2822,0.0468,0.63,-29.06,-15.25,13.79,-88.2,16.77
