,GPS LATITUDE (degrees),GPS LONGITUDE (degrees), GPS ALTITUDE (m),GPS SPEED (Kmh),GPS ACCURACY (m),GPS ORIENTATION (Â°), SATELLITES IN RANGE, TIME SINCE START (ms), DATE (YYYY-MO-DD HH-MI-SS_SSS),ACCELEROMETER X (m/s²) , ACCELEROMETER Y (m/s²), ACCELEROMETER Z (m/s²), GRAVITY X (m/s²), GRAVITY Y (m/s²), GRAVITY Z (m/s²), GYROSCOPE Yaw (rad/s), GYROSCOPE Pitch (rad/s), GYROSCOPE Roll (rad/s)
90628,47.132214,-1.844166,59.43,28.29,5.36,275.4,Nov-20,9063997,2019-08-18 17:44:46:534,-0.653,-0.592,10.8346,-0.6591,-0.2008,9.7824,0.0088,-0.0195,-0.0042
90629,47.132214,-1.844166,59.43,28.29,5.36,275.4,Nov-19,9064098,2019-08-18 17:44:46:635,-0.6619,-0.316,10.1774,-0.6387,-0.1904,9.784,0.0109,-0.0024,-0.0009
90630,47.13232,-1.847623,57.06,28.35,5.36,273.8,Nov-19,9064196,2019-08-18 17:44:46:733,-0.3393,-0.0592,9.091,-0.64,-0.186,9.784,0.004,0.0096,0.0019
90631,47.13232,-1.847623,57.06,28.35,5.36,273.8,Nov-19,9064297,2019-08-18 17:44:46:834,-0.1729,-0.1963,9.3388,-0.6485,-0.1814,9.7835,0.0039,0.0058,-0.0014
90632,47.13232,-1.847623,57.06,28.35,5.36,273.8,Nov-19,9064397,2019-08-18 17:44:46:934,-0.7278,-0.401,9.8727,-0.6478,-0.18,9.7836,-0.0081,-0.0033,-0.0024
90633,47.13232,-1.847623,57.06,28.35,5.36,273.8,Nov-19,9064497,2019-08-18 17:44:47:034,-0.8421,-0.1125,10.4545,-0.646,-0.1884,9.7835,-0.0153,-0.0045,-0.0041
90634,47.13232,-1.847623,57.06,28.35,5.36,273.8,Nov-19,9064597,2019-08-18 17:44:47:134,-0.7948,-0.4543,10.4809,-0.6477,-0.213,9.7829,-0.0159,-0.0015,-0.0033
90635,47.13232,-1.847623,57.06,28.35,5.36,273.8,Nov-19,9064697,2019-08-18 17:44:47:234,-0.9875,-0.4118,10.014,-0.6514,-0.2248,9.7824,-0.0019,-0.0031,0.0013
90636,47.13232,-1.847623,57.06,28.35,5.36,273.8,Nov-19,9064797,2019-08-18 17:44:47:334,-0.9163,-0.8009,10.5742,-0.6584,-0.2372,9.7816,0.0202,0.0046,0.0037
90637,47.13232,-1.847623,57.06,28.35,5.36,273.8,Nov-19,9064897,2019-08-18 17:44:47:434,-0.9097,-0.7949,9.3993,-0.6668,-0.2292,9.7813,0.0224,0.0001,0.0042
90638,47.13232,-1.847623,57.06,28.35,5.36,273.8,Nov-19,9064997,2019-08-18 17:44:47:534,-0.7691,-0.4447,9.4969,-0.677,-0.2176,9.7808,-0.0059,-0.0016,-0.0002
90639,47.13232,-1.847623,57.06,28.35,5.36,273.8,13 / 21,9065097,2019-08-18 17:44:47:634,-0.79,-0.6267,9.0928,-0.6833,-0.2275,9.7802,-0.0104,0.0086,-0.0029
90640,47.13232,-1.847623,57.06,28.35,5.36,273.8,13 / 21,9065197,2019-08-18 17:44:47:734,-1.1115,-0.3669,9.1389,-0.7045,-0.2497,9.7781,-0.0082,0.0073,-0.0023
90641,47.13232,-1.847623,57.06,28.35,5.36,273.8,13 / 21,9065296,2019-08-18 17:44:47:833,-0.8355,-0.3394,9.4424,-0.7103,-0.2596,9.7774,-0.0133,0.0048,-0.0017
90642,47.13232,-1.847623,57.06,28.35,5.36,273.8,13 / 21,9065397,2019-08-18 17:44:47:934,-1.2018,-0.5519,9.8009,-0.7303,-0.2826,9.7753,-0.0083,-0.0012,0.0004
90643,47.13232,-1.847623,57.06,28.35,5.36,273.8,13 / 21,9065497,2019-08-18 17:44:48:034,-0.7032,-0.5279,10.1822,-0.7405,-0.2859,9.7745,-0.0025,-0.0015,0.0002
90644,47.13232,-1.847623,57.06,28.35,5.36,273.8,13 / 21,9065597,2019-08-18 17:44:48:134,-1.063,-0.4465,10.0158,-0.7424,-0.2953,9.7741,-0.0058,-0.0072,0.0005
90645,47.13232,-1.847623,57.06,28.35,5.36,273.8,13 / 21,9065697,2019-08-18 17:44:48:234,-0.7332,-0.5159,9.7135,-0.7407,-0.3018,9.774,-0.0045,-0.0108,-0.0008
90646,47.13232,-1.847623,57.06,28.35,5.36,273.8,13 / 21,9065797,2019-08-18 17:44:48:334,-0.7439,-0.5932,10.2319,-0.7412,-0.2984,9.774,0.0067,0.0056,0.0023
90647,47.13232,-1.847623,57.06,28.35,5.36,273.8,13 / 21,9065897,2019-08-18 17:44:48:434,-1.2521,-0.1604,10.4084,-0.7441,-0.2952,9.7739,0.0054,-0.0005,0.0031
90648,47.13232,-1.847623,57.06,28.35,5.36,273.8,13 / 21,9065997,2019-08-18 17:44:48:534,-1.0097,-0.5878,10.2289,-0.7478,-0.29,9.7738,0.0058,-0.0017,0.0042
90649,47.13232,-1.847623,57.06,28.35,5.36,273.8,13 / 19,9066097,2019-08-18 17:44:48:634,-0.7996,-0.1215,8.9402,-0.7499,-0.2898,9.7736,-0.0085,0.0103,0.006
90650,47.13232,-1.847623,57.06,28.35,5.36,273.8,13 / 19,9066198,2019-08-18 17:44:48:735,-0.9319,-0.3065,9.7117,-0.7803,-0.3031,9.7709,-0.0083,0.0173,0.0053
90651,47.13232,-1.847623,57.06,28.35,5.36,273.8,13 / 19,9066297,2019-08-18 17:44:48:834,-0.9032,-0.3124,9.5274,-0.7915,-0.3055,9.7699,0.0004,0.0131,0.0076
90652,47.13232,-1.847623,57.06,28.35,5.36,273.8,13 / 19,9066397,2019-08-18 17:44:48:934,-0.9409,-0.1562,9.428,-0.8112,-0.3079,9.7682,-0.0155,-0.0022,0.0042
90653,47.13232,-1.847623,57.06,28.35,5.36,273.8,13 / 19,9066497,2019-08-18 17:44:49:034,-0.8798,-0.1107,9.1922,-0.8124,-0.3146,9.7679,-0.0045,-0.0005,0.0041
90654,47.13232,-1.847623,57.06,28.35,5.36,273.8,13 / 19,9066598,2019-08-18 17:44:49:135,-0.9989,-0.1335,10.0338,-0.8176,-0.3215,9.7672,-0.0097,0.0018,0.0041
90655,47.13232,-1.847623,57.06,28.35,5.36,273.8,13 / 19,9066698,2019-08-18 17:44:49:235,-0.8936,-0.6297,10.8645,-0.8202,-0.3242,9.7669,-0.0042,0.0004,0.0068
90656,47.13232,-1.847623,57.06,28.35,5.36,273.8,13 / 19,9066797,2019-08-18 17:44:49:334,-0.8379,-0.1245,9.4813,-0.825,-0.3161,9.7668,-0.0034,0.0023,0.0087
90657,47.13232,-1.847623,57.06,28.35,5.36,273.8,13 / 19,9066897,2019-08-18 17:44:49:434,-0.8828,0.0257,9.4975,-0.8315,-0.3198,9.7661,-0.0182,0.0,0.0032
90658,47.13232,-1.847623,57.06,28.35,5.36,273.8,13 / 19,9066998,2019-08-18 17:44:49:535,-0.7248,-0.3932,9.501,-0.8354,-0.3366,9.7652,-0.0169,0.0071,0.0029
90659,47.13232,-1.847623,57.06,28.35,5.36,273.8,14 / 20,9067097,2019-08-18 17:44:49:634,-0.8613,-0.1389,9.6495,-0.8455,-0.3441,9.7641,-0.0122,0.0133,0.0041
90660,47.13232,-1.847623,57.06,28.35,5.36,273.8,14 / 20,9067197,2019-08-18 17:44:49:734,-0.9008,-0.3077,9.1407,-0.8621,-0.3403,9.7628,0.0036,0.015,0.0058
90661,47.13232,-1.847623,57.06,28.35,5.36,273.8,14 / 20,9067297,2019-08-18 17:44:49:834,-1.1976,-0.0245,8.8474,-0.884,-0.3437,9.7607,-0.0043,0.0284,0.0077
90662,47.13232,-1.847623,57.06,28.35,5.36,273.8,14 / 20,9067397,2019-08-18 17:44:49:934,-0.796,-0.4627,9.0815,-0.9246,-0.3647,9.7562,-0.021,0.0234,0.0036
90663,47.13232,-1.847623,57.06,28.35,5.36,273.8,14 / 20,9067497,2019-08-18 17:44:50:034,-0.8637,-0.2316,9.3011,-0.939,-0.3765,9.7543,-0.0104,0.0189,0.0051
90664,47.13232,-1.847623,57.06,28.35,5.36,273.8,14 / 20,9067597,2019-08-18 17:44:50:134,-0.9469,-0.3657,9.5848,-0.9619,-0.3817,9.7519,-0.0013,0.0132,0.0054
90665,47.13232,-1.847623,57.06,28.35,5.36,273.8,14 / 20,9067698,2019-08-18 17:44:50:235,-0.9259,-0.3723,9.3299,-0.9685,-0.3824,9.7512,-0.0109,0.0137,0.0023
90666,47.13232,-1.847623,57.06,28.35,5.36,273.8,14 / 20,9067797,2019-08-18 17:44:50:334,-1.0283,-0.4375,9.2652,-0.9822,-0.3917,9.7495,-0.0164,0.0238,-0.0022
90667,47.13232,-1.847623,57.06,28.35,5.36,273.8,14 / 20,9067897,2019-08-18 17:44:50:434,-1.0797,-0.5866,8.7774,-1.0049,-0.4144,9.7462,-0.0193,0.023,-0.0053
90668,47.13232,-1.847623,57.06,28.35,5.36,273.8,14 / 20,9067999,2019-08-18 17:44:50:536,-0.7116,-0.5848,9.27,-1.0232,-0.4332,9.7435,-0.0092,0.0184,-0.0085
90669,47.13232,-1.847623,57.06,28.35,5.36,273.8,13 / 19,9068097,2019-08-18 17:44:50:634,-1.0151,-0.5896,9.009,-1.0425,-0.452,9.7406,-0.0173,0.0229,-0.0097
90670,47.13232,-1.847623,57.06,28.35,5.36,273.8,13 / 19,9068197,2019-08-18 17:44:50:734,-0.8481,-0.7392,9.5088,-1.0522,-0.4733,9.7385,-0.0219,0.0125,-0.0108
90671,47.13232,-1.847623,57.06,28.35,5.36,273.8,13 / 19,9068297,2019-08-18 17:44:50:834,-0.7487,-0.6231,9.1192,-1.0693,-0.5066,9.735,-0.0084,0.0161,-0.0118
90672,47.13232,-1.847623,57.06,28.35,5.36,273.8,13 / 19,9068397,2019-08-18 17:44:50:934,-0.8535,-1.0277,9.3011,-1.0743,-0.5157,9.734,-0.0065,0.0136,-0.0083
90673,47.13232,-1.847623,57.06,28.35,5.36,273.8,13 / 19,9068497,2019-08-18 17:44:51:034,-0.9642,-0.7254,9.3903,-1.0877,-0.5337,9.7315,-0.0014,0.0177,-0.0063
90674,47.13232,-1.847623,57.06,28.35,5.36,273.8,13 / 19,9068597,2019-08-18 17:44:51:134,-1.0881,-1.0181,10.0415,-1.0973,-0.5363,9.7303,-0.0065,0.0125,-0.0043
90675,47.13232,-1.847623,57.06,28.35,5.36,273.8,13 / 19,9068697,2019-08-18 17:44:51:234,-0.8714,-0.413,9.5806,-1.111,-0.5455,9.7282,0.0017,0.0056,-0.004
90676,47.13232,-1.847623,57.06,28.35,5.36,273.8,13 / 19,9068798,2019-08-18 17:44:51:335,-0.8924,-0.7189,9.3167,-1.1112,-0.5443,9.7283,0.0066,0.005,-0.0053
90677,47.13232,-1.847623,57.06,28.35,5.36,273.8,13 / 19,9068897,2019-08-18 17:44:51:434,-1.0767,-0.5602,9.9284,-1.1186,-0.541,9.7276,0.0043,0.0087,-0.0038
90678,47.13232,-1.847623,57.06,28.35,5.36,273.8,13 / 19,9068997,2019-08-18 17:44:51:534,-1.1073,-0.5662,9.1257,-1.1246,-0.545,9.7267,-0.008,0.0177,-0.0027
90679,47.13232,-1.847623,57.06,28.35,5.36,273.8,14 / 20,9069097,2019-08-18 17:44:51:634,-0.9612,-0.5285,9.3233,-1.1475,-0.5641,9.7229,-0.0144,0.0215,-0.0037
90680,47.13232,-1.847623,57.06,28.35,5.36,273.8,14 / 20,9069197,2019-08-18 17:44:51:734,-1.2282,-0.5746,9.5818,-1.1505,-0.5689,9.7223,-0.0002,0.0056,-0.0018
90681,47.13232,-1.847623,57.06,28.35,5.36,273.8,14 / 20,9069297,2019-08-18 17:44:51:834,-1.124,-0.7524,9.2538,-1.1686,-0.5784,9.7196,-0.0156,0.0173,-0.0027
90682,47.13232,-1.847623,57.06,28.35,5.36,273.8,14 / 20,9069397,2019-08-18 17:44:51:934,-1.0911,-0.5082,9.3772,-1.1827,-0.5906,9.7171,-0.01,0.0055,-0.002
90683,47.13232,-1.847623,57.06,28.35,5.36,273.8,14 / 20,9069497,2019-08-18 17:44:52:034,-1.2365,-0.6153,9.8117,-1.1791,-0.5985,9.7171,0.0023,-0.0098,-0.0008
90684,47.13232,-1.847623,57.06,28.35,5.36,273.8,14 / 20,9069598,2019-08-18 17:44:52:135,-1.3054,-0.5267,9.92,-1.174,-0.5969,9.7178,0.0111,-0.0049,-0.0009
90685,47.13232,-1.847623,57.06,28.35,5.36,273.8,14 / 20,9069697,2019-08-18 17:44:52:234,-1.215,-0.7213,9.9853,-1.1614,-0.5861,9.72,-0.0029,-0.0144,-0.0029
90686,47.13232,-1.847623,57.06,28.35,5.36,273.8,14 / 20,9069797,2019-08-18 17:44:52:334,-1.2066,-0.6357,10.0595,-1.153,-0.5919,9.7206,-0.0087,-0.0076,-0.0031
90687,47.13232,-1.847623,57.06,28.35,5.36,273.8,14 / 20,9069896,2019-08-18 17:44:52:433,-1.0097,-0.7703,9.9362,-1.1557,-0.5884,9.7205,0.0104,0.0039,-0.0004
90688,47.13232,-1.847623,57.06,28.35,5.36,273.8,14 / 20,9069997,2019-08-18 17:44:52:534,-1.2144,-0.5345,9.4226,-1.1577,-0.5857,9.7205,-0.0029,-0.002,-0.0008
90689,47.13232,-1.847623,57.06,28.35,5.36,273.8,13 / 20,9070096,2019-08-18 17:44:52:633,-1.1013,-0.7242,9.6531,-1.1571,-0.588,9.7204,-0.0069,-0.0036,-0.003
90690,47.13232,-1.847623,57.06,28.35,5.36,273.8,13 / 20,9070197,2019-08-18 17:44:52:734,-0.8858,-0.5986,9.8117,-1.1548,-0.5928,9.7204,-0.005,-0.0007,-0.0045
90691,47.13232,-1.847623,57.06,28.35,5.36,273.8,13 / 20,9070297,2019-08-18 17:44:52:834,-1.2461,-0.5285,9.7836,-1.1504,-0.5994,9.7205,-0.0015,-0.0071,-0.0008
90692,47.13232,-1.847623,57.06,28.35,5.36,273.8,13 / 20,9070397,2019-08-18 17:44:52:934,-1.1911,-0.7512,9.6555,-1.1444,-0.6016,9.7211,0.0027,-0.007,0.0009
90693,47.13232,-1.847623,57.06,28.35,5.36,273.8,13 / 20,9070497,2019-08-18 17:44:53:034,-1.2174,-0.4938,10.1427,-1.1483,-0.5929,9.7211,0.0105,0.0055,0.0014
90694,47.13232,-1.847623,57.06,28.35,5.36,273.8,13 / 20,9070597,2019-08-18 17:44:53:134,-1.2587,-0.3609,9.5525,-1.1503,-0.5865,9.7213,0.0142,-0.0135,0.0128
90695,47.13232,-1.847623,57.06,28.35,5.36,273.8,13 / 20,9070697,2019-08-18 17:44:53:234,-1.3521,-0.4304,10.1319,-1.1406,-0.5607,9.7239,0.0214,-0.0101,0.0159
90696,47.13232,-1.847623,57.06,28.35,5.36,273.8,13 / 20,9070796,2019-08-18 17:44:53:333,-1.5137,-0.392,10.1828,-1.1297,-0.5454,9.7261,0.0163,-0.0186,0.0141
90697,47.13232,-1.847623,57.06,28.35,5.36,273.8,13 / 20,9070897,2019-08-18 17:44:53:434,-1.3724,-0.3406,10.2732,-1.1131,-0.507,9.7301,0.0249,-0.019,0.015
90698,47.13232,-1.847623,57.06,28.35,5.36,273.8,13 / 20,9070997,2019-08-18 17:44:53:534,-1.4867,-0.5626,9.9512,-1.1067,-0.493,9.7315,0.0134,-0.024,0.0133
90699,47.13232,-1.847623,57.06,28.35,5.36,273.8,13 / 20,9071097,2019-08-18 17:44:53:634,-1.3688,-0.2813,10.1289,-1.1053,-0.4889,9.7319,-0.0103,-0.0139,0.0114
90700,47.13232,-1.847623,57.06,28.35,5.36,273.8,13 / 20,9071197,2019-08-18 17:44:53:734,-1.1552,-0.3657,9.9721,-1.0993,-0.4879,9.7326,0.0005,-0.0067,0.0135
90701,47.13232,-1.847623,57.06,28.35,5.36,273.8,13 / 20,9071297,2019-08-18 17:44:53:834,-1.4143,-0.2029,10.196,-1.0974,-0.4855,9.733,0.0008,-0.0159,0.0112
90702,47.13232,-1.847623,57.06,28.35,5.36,273.8,13 / 20,9071397,2019-08-18 17:44:53:934,-1.312,-0.3663,10.2103,-1.0856,-0.466,9.7352,0.0168,-0.0123,0.0084
90703,47.13232,-1.847623,57.06,28.35,5.36,273.8,13 / 20,9071496,2019-08-18 17:44:54:033,-0.9385,-0.2239,8.5236,-1.0797,-0.4523,9.7365,-0.03,0.038,0.006
90704,47.13232,-1.847623,57.06,28.35,5.36,273.8,13 / 20,9071597,2019-08-18 17:44:54:134,-1.0001,-0.1975,8.4524,-1.1129,-0.4759,9.7317,-0.0464,0.0276,0.0047
90705,47.13232,-1.847623,57.06,28.35,5.36,273.8,13 / 20,9071697,2019-08-18 17:44:54:234,-1.4221,-0.5812,11.4691,-1.1152,-0.5003,9.7302,-0.0152,-0.024,0.0038
90706,47.13232,-1.847623,57.06,28.35,5.36,273.8,13 / 20,9071797,2019-08-18 17:44:54:334,-0.7529,-0.7907,12.2771,-0.9987,-0.4481,9.7454,0.0552,-0.0987,-0.0012
90707,47.13232,-1.847623,57.06,28.35,5.36,273.8,13 / 20,9071897,2019-08-18 17:44:54:434,-0.7422,-0.7003,10.7251,-0.9633,-0.4395,9.7493,0.003,-0.0345,-0.0081
90708,47.13232,-1.847623,57.06,28.35,5.36,273.8,13 / 20,9071996,2019-08-18 17:44:54:533,-0.9145,-0.9487,10.667,-0.9535,-0.4535,9.7496,0.0141,-0.0029,-0.0158
90709,47.13232,-1.847623,57.06,28.35,5.36,273.8,13 / 20,9072097,2019-08-18 17:44:54:634,-0.8487,-1.1875,11.5804,-0.9295,-0.4411,9.7525,0.0439,-0.068,-0.0148
90710,47.13232,-1.847623,57.06,28.35,5.36,273.8,13 / 20,9072197,2019-08-18 17:44:54:734,-0.5141,-0.7428,10.2977,-0.8383,-0.4131,9.762,0.01,-0.05,-0.0156
90711,47.13232,-1.847623,57.06,28.35,5.36,273.8,13 / 20,9072297,2019-08-18 17:44:54:834,-0.6302,-0.51,8.7445,-0.8285,-0.4473,9.7613,-0.0812,0.0075,-0.0205
90712,47.13232,-1.847623,57.06,28.35,5.36,273.8,13 / 20,9072396,2019-08-18 17:44:54:933,-0.5955,-0.7332,10.0613,-0.819,-0.5392,9.7575,-0.0394,-0.0182,-0.0209
90713,47.13232,-1.847623,57.06,28.35,5.36,273.8,13 / 20,9072497,2019-08-18 17:44:55:034,-0.4728,-1.0098,10.3875,-0.8024,-0.5374,9.759,0.0146,-0.0199,-0.0145
90714,47.13232,-1.847623,57.06,28.35,5.36,273.8,13 / 20,9072597,2019-08-18 17:44:55:134,-0.6655,-1.1468,11.5523,-0.7842,-0.454,9.7647,0.0889,-0.0022,-0.0013
90715,47.13232,-1.847623,57.06,28.35,5.36,273.8,13 / 20,9072697,2019-08-18 17:44:55:234,-0.5345,-0.7165,11.5391,-0.7747,-0.4047,9.7676,0.0684,-0.0061,-0.007
90716,47.13232,-1.847623,57.06,28.35,5.36,273.8,13 / 20,9072797,2019-08-18 17:44:55:334,-0.8074,-0.5788,10.2738,-0.7589,-0.3313,9.7716,0.0599,-0.0126,-0.0064
90717,47.13232,-1.847623,57.06,28.35,5.36,273.8,13 / 20,9072897,2019-08-18 17:44:55:434,-0.4908,-0.5106,9.4849,-0.7468,-0.2967,9.7737,0.0175,-0.0112,-0.0066
90718,47.13232,-1.847623,57.06,28.35,5.36,273.8,13 / 20,9072997,2019-08-18 17:44:55:534,-0.2902,-0.3729,8.9109,-0.7563,-0.3089,9.7726,-0.0199,0.0219,-0.0113
90719,47.13232,-1.847623,57.06,28.35,5.36,273.8,13 / 19,9073097,2019-08-18 17:44:55:634,-0.5123,-0.2867,8.5906,-0.7637,-0.3234,9.7715,-0.0096,0.0047,-0.0086
90720,47.132465,-1.850803,53.12,25.79,5.36,273.9,13 / 19,9073197,2019-08-18 17:44:55:734,-0.6147,-0.2358,9.4262,-0.7641,-0.3444,9.7708,-0.028,-0.0107,-0.0076
90721,47.132465,-1.850803,53.12,25.79,5.36,273.9,13 / 19,9073300,2019-08-18 17:44:55:837,-0.5416,-0.2466,10.3797,-0.7491,-0.3607,9.7713,-0.0319,-0.0199,-0.0085
90722,47.132465,-1.850803,53.12,25.79,5.36,273.9,13 / 19,9073397,2019-08-18 17:44:55:934,-0.5554,-0.3585,9.7267,-0.7329,-0.4003,9.771,-0.0224,0.0008,-0.0058
90723,47.132465,-1.850803,53.12,25.79,5.36,273.9,13 / 19,9073497,2019-08-18 17:44:56:034,-0.8248,-0.4315,9.9565,-0.7334,-0.4042,9.7708,-0.0013,0.0087,-0.0013
90724,47.132465,-1.850803,53.12,25.79,5.36,273.9,13 / 19,9073597,2019-08-18 17:44:56:134,-0.3471,0.1754,9.6219,-0.7205,-0.4007,9.7719,0.0014,0.0018,-0.0012
90725,47.132465,-1.850803,53.12,25.79,5.36,273.9,13 / 19,9073697,2019-08-18 17:44:56:234,-0.5865,0.0581,9.1664,-0.7136,-0.3996,9.7725,0.0071,-0.007,-0.0026
90726,47.132465,-1.850803,53.12,25.79,5.36,273.9,13 / 19,9073797,2019-08-18 17:44:56:334,-0.5853,-0.0652,9.9541,-0.6863,-0.3845,9.775,0.0076,-0.0066,-0.002
90727,47.132465,-1.850803,53.12,25.79,5.36,273.9,13 / 19,9073897,2019-08-18 17:44:56:434,-0.2884,-0.1335,10.2887,-0.6809,-0.3776,9.7757,0.0228,0.0065,-0.0005
90728,47.132465,-1.850803,53.12,25.79,5.36,273.9,13 / 19,9073997,2019-08-18 17:44:56:534,-0.371,0.0676,9.9721,-0.6768,-0.3468,9.7771,0.0146,0.0067,0.0013
90729,47.132465,-1.850803,53.12,25.79,5.36,273.9,13 / 19,9074097,2019-08-18 17:44:56:634,-0.389,-0.146,9.832,-0.6729,-0.3414,9.7776,-0.0007,-0.0017,0.003
90730,47.132465,-1.850803,53.12,25.79,5.36,273.9,13 / 19,9074197,2019-08-18 17:44:56:734,-0.3681,0.0826,9.6992,-0.6659,-0.3253,9.7786,0.0128,0.0027,0.0005
90731,47.132465,-1.850803,53.12,25.79,5.36,273.9,13 / 19,9074297,2019-08-18 17:44:56:834,-0.6631,0.073,9.4645,-0.6648,-0.3056,9.7793,0.0034,-0.0006,0.0004
90732,47.132465,-1.850803,53.12,25.79,5.36,273.9,13 / 19,9074397,2019-08-18 17:44:56:934,-0.3124,-0.3801,9.9787,-0.654,-0.3038,9.7801,0.0048,-0.0072,-0.0011
90733,47.132465,-1.850803,53.12,25.79,5.36,273.9,13 / 19,9074497,2019-08-18 17:44:57:034,-0.3375,0.0449,9.8183,-0.6396,-0.288,9.7815,0.0028,0.0159,0.002
90734,47.132465,-1.850803,53.12,25.79,5.36,273.9,13 / 19,9074597,2019-08-18 17:44:57:134,-0.5698,0.0736,9.9523,-0.645,-0.2864,9.7812,-0.0048,0.0128,0.0036
90735,47.132465,-1.850803,53.12,25.79,5.36,273.9,13 / 19,9074697,2019-08-18 17:44:57:234,-0.8361,-0.1311,10.0535,-0.6576,-0.2906,9.7803,-0.0183,-0.0151,0.005
90736,47.132465,-1.850803,53.12,25.79,5.36,273.9,13 / 19,9074796,2019-08-18 17:44:57:333,-1.1899,-0.0383,9.1629,-0.657,-0.2935,9.7802,-0.0205,-0.0053,0.0061
90737,47.132465,-1.850803,53.12,25.79,5.36,273.9,13 / 19,9074897,2019-08-18 17:44:57:434,-1.0486,-0.3023,9.3029,-0.6858,-0.3195,9.7774,-0.0114,0.0381,0.0149
90738,47.132465,-1.850803,53.12,25.79,5.36,273.9,13 / 19,9074997,2019-08-18 17:44:57:534,-1.1617,-0.076,9.6758,-0.7192,-0.3184,9.7751,0.0142,0.02,0.0219
90739,47.132465,-1.850803,53.12,25.79,5.36,273.9,15 / 21,9075098,2019-08-18 17:44:57:635,-1.0779,-0.0527,9.3005,-0.7542,-0.2972,9.7731,0.0015,0.0033,0.0195
90740,47.132465,-1.850803,53.12,25.79,5.36,273.9,15 / 21,9075197,2019-08-18 17:44:57:734,-1.3347,-0.243,9.6537,-0.7642,-0.296,9.7723,-0.0135,-0.0013,0.0142
90741,47.132465,-1.850803,53.12,25.79,5.36,273.9,15 / 21,9075297,2019-08-18 17:44:57:834,-1.1749,-0.0168,10.1319,-0.7736,-0.3016,9.7714,-0.0097,0.0032,0.013
90742,47.132465,-1.850803,53.12,25.79,5.36,273.9,15 / 21,9075397,2019-08-18 17:44:57:934,-0.8547,-0.1209,9.2227,-0.7838,-0.3066,9.7705,-0.0143,-0.0082,0.0137
90743,47.132465,-1.850803,53.12,25.79,5.36,273.9,15 / 21,9075497,2019-08-18 17:44:58:034,-1.0582,-0.0622,9.9308,-0.7838,-0.3035,9.7706,-0.0023,-0.015,0.0099
90744,47.132465,-1.850803,53.12,25.79,5.36,273.9,15 / 21,9075597,2019-08-18 17:44:58:134,-0.8044,-0.1909,10.5311,-0.7828,-0.3022,9.7707,-0.0047,-0.0058,0.0087
90745,47.132465,-1.850803,53.12,25.79,5.36,273.9,15 / 21,9075697,2019-08-18 17:44:58:234,-1.0498,0.0066,9.6411,-0.7762,-0.3045,9.7711,-0.0073,-0.0104,0.0083
90746,47.132465,-1.850803,53.12,25.79,5.36,273.9,15 / 21,9075797,2019-08-18 17:44:58:334,-0.8098,0.0018,9.7381,-0.779,-0.3028,9.771,-0.0063,0.0045,0.0098
90747,47.132465,-1.850803,53.12,25.79,5.36,273.9,15 / 21,9075897,2019-08-18 17:44:58:434,-0.7176,-0.088,9.9883,-0.7803,-0.3077,9.7707,-0.0084,-0.0203,0.0025
90748,47.132465,-1.850803,53.12,25.79,5.36,273.9,15 / 21,9075997,2019-08-18 17:44:58:534,-0.7571,-0.2556,9.7512,-0.7678,-0.3108,9.7716,-0.0051,-0.0225,0.0008
90749,47.132465,-1.850803,53.12,25.79,5.36,273.9,13 / 18,9076097,2019-08-18 17:44:58:634,-0.6464,-0.2586,9.4915,-0.7507,-0.3128,9.7729,0.0041,0.0147,-0.0038
90750,47.132465,-1.850803,53.12,25.79,5.36,273.9,13 / 18,9076197,2019-08-18 17:44:58:734,-0.6308,-0.4729,9.8141,-0.7559,-0.311,9.7725,0.0126,0.0153,-0.0031
90751,47.132465,-1.850803,53.12,25.79,5.36,273.9,13 / 18,9076297,2019-08-18 17:44:58:834,-0.4734,-0.4609,9.6291,-0.7695,-0.2975,9.7719,0.0133,0.0015,-0.0082
90752,47.132465,-1.850803,53.12,25.79,5.36,273.9,13 / 18,9076397,2019-08-18 17:44:58:934,-0.638,-0.4064,10.4246,-0.767,-0.291,9.7723,0.0094,-0.0035,-0.0092
90753,47.132465,-1.850803,53.12,25.79,5.36,273.9,13 / 18,9076497,2019-08-18 17:44:59:034,-0.3154,-0.5926,9.9272,-0.7454,-0.2944,9.7738,-0.0051,-0.0099,-0.0075
90754,47.132465,-1.850803,53.12,25.79,5.36,273.9,13 / 18,9076597,2019-08-18 17:44:59:134,-0.3399,-0.413,9.8434,-0.7404,-0.3025,9.774,-0.008,0.0045,-0.008
90755,47.132465,-1.850803,53.12,25.79,5.36,273.9,13 / 18,9076697,2019-08-18 17:44:59:234,-0.5488,-0.3603,9.7806,-0.7437,-0.3033,9.7737,0.0074,0.0033,-0.0082
90756,47.132465,-1.850803,53.12,25.79,5.36,273.9,13 / 18,9076797,2019-08-18 17:44:59:334,-0.6117,-0.4034,9.7291,-0.7386,-0.3016,9.7741,0.0039,-0.0035,-0.0086
90757,47.132465,-1.850803,53.12,25.79,5.36,273.9,13 / 18,9076897,2019-08-18 17:44:59:434,-0.3932,-0.4375,9.747,-0.7316,-0.3088,9.7744,-0.0019,0.0074,-0.0109
90758,47.132465,-1.850803,53.12,25.79,5.36,273.9,13 / 18,9076997,2019-08-18 17:44:59:534,-0.4991,-0.3591,9.7429,-0.7303,-0.3113,9.7745,-0.0014,-0.0021,-0.0106
90759,47.132465,-1.850803,53.12,25.79,5.36,273.9,13 / 18,9077097,2019-08-18 17:44:59:634,-0.4447,-0.5148,9.6447,-0.7237,-0.3182,9.7747,-0.0029,0.0046,-0.0071
90760,47.132465,-1.850803,53.12,25.79,5.36,273.9,13 / 18,9077197,2019-08-18 17:44:59:734,-0.4285,-0.5908,10.278,-0.7188,-0.3199,9.775,0.009,-0.0102,-0.0058
90761,47.132465,-1.850803,53.12,25.79,5.36,273.9,13 / 18,9077297,2019-08-18 17:44:59:834,-0.5716,-0.4579,10.503,-0.6925,-0.3053,9.7774,0.0214,-0.0159,-0.0047
90762,47.132465,-1.850803,53.12,25.79,5.36,273.9,13 / 18,9077397,2019-08-18 17:44:59:934,-0.5327,-0.3112,10.5952,-0.6797,-0.3004,9.7785,0.0158,-0.0103,-0.0068
90763,47.132465,-1.850803,53.12,25.79,5.36,273.9,13 / 18,9077497,2019-08-18 17:45:00:034,-0.5291,-0.3962,10.3438,-0.6691,-0.2901,9.7795,0.0025,0.0053,-0.0049
90764,47.132465,-1.850803,53.12,25.79,5.36,273.9,13 / 18,9077597,2019-08-18 17:45:00:134,-0.5584,-0.2729,10.858,-0.6679,-0.2839,9.7798,0.0022,-0.0033,-0.0044
90765,47.132465,-1.850803,53.12,25.79,5.36,273.9,13 / 18,9077697,2019-08-18 17:45:00:234,-0.556,-0.5177,9.8159,-0.663,-0.2828,9.7801,0.0051,-0.0014,-0.0058
90766,47.132465,-1.850803,53.12,25.79,5.36,273.9,13 / 18,9077797,2019-08-18 17:45:00:334,-0.802,-0.5225,9.4496,-0.6783,-0.2859,9.779,-0.0094,0.0276,0.0001
90767,47.132465,-1.850803,53.12,25.79,5.36,273.9,13 / 18,9077897,2019-08-18 17:45:00:434,-0.7643,-0.228,9.5214,-0.699,-0.2945,9.7773,-0.0133,0.0216,0.0003
90768,47.132465,-1.850803,53.12,25.79,5.36,273.9,13 / 18,9077997,2019-08-18 17:45:00:534,-1.1079,-0.2173,9.1431,-0.7296,-0.3089,9.7746,-0.011,0.011,0.0019
90769,47.132465,-1.850803,53.12,25.79,5.36,273.9,Nov-19,9078097,2019-08-18 17:45:00:634,-1.145,-0.2239,9.8841,-0.74,-0.316,9.7736,-0.0094,-0.0014,0.0049
90770,47.132465,-1.850803,53.12,25.79,5.36,273.9,Nov-19,9078197,2019-08-18 17:45:00:734,-0.9636,-0.407,10.0786,-0.7554,-0.3256,9.7721,-0.0026,0.0076,0.0041
90771,47.132465,-1.850803,53.12,25.79,5.36,273.9,Nov-19,9078297,2019-08-18 17:45:00:834,-1.2186,-0.5016,10.0996,-0.7666,-0.3293,9.7711,-0.0065,0.0063,0.0043
90772,47.132465,-1.850803,53.12,25.79,5.36,273.9,Nov-19,9078397,2019-08-18 17:45:00:934,-1.2,-0.3316,10.3731,-0.7846,-0.3403,9.7693,-0.001,-0.0036,0.0052
90773,47.132465,-1.850803,53.12,25.79,5.36,273.9,Nov-19,9078497,2019-08-18 17:45:01:034,-1.4371,-0.8021,9.8638,-0.7883,-0.3388,9.769,0.0038,-0.0101,0.006
90774,47.132465,-1.850803,53.12,25.79,5.36,273.9,Nov-19,9078597,2019-08-18 17:45:01:134,-1.3988,-0.4124,9.7848,-0.8052,-0.3414,9.7676,0.0011,-0.0037,0.0054
90775,47.132465,-1.850803,53.12,25.79,5.36,273.9,Nov-19,9078697,2019-08-18 17:45:01:234,-1.5239,-0.9325,10.2654,-0.813,-0.3428,9.7669,0.0052,-0.0116,0.0037
90776,47.132465,-1.850803,53.12,25.79,5.36,273.9,Nov-19,9078797,2019-08-18 17:45:01:334,-1.543,-0.6937,9.8644,-0.8258,-0.3449,9.7657,0.0105,-0.0063,0.0028
90777,47.132465,-1.850803,53.12,25.79,5.36,273.9,Nov-19,9078897,2019-08-18 17:45:01:434,-1.7148,-0.8942,9.8865,-0.8431,-0.348,9.7641,0.0008,0.0011,0.0029
90778,47.132465,-1.850803,53.12,25.79,5.36,273.9,Nov-19,9078997,2019-08-18 17:45:01:534,-1.6819,-0.8146,10.0864,-0.8695,-0.3638,9.7613,0.0007,-0.0108,0.0051
90779,47.132465,-1.850803,53.12,25.79,5.36,273.9,Dec-19,9079098,2019-08-18 17:45:01:635,-1.4999,-0.7242,9.695,-0.8778,-0.3681,9.7603,0.0079,0.0044,0.0025
90780,47.132465,-1.850803,53.12,25.79,5.36,273.9,Dec-19,9079196,2019-08-18 17:45:01:733,-1.8261,-0.5902,9.4753,-0.9057,-0.3809,9.7573,-0.006,-0.007,0.0054
90781,47.132465,-1.850803,53.12,25.79,5.36,273.9,Dec-19,9079297,2019-08-18 17:45:01:834,-1.5646,-0.747,9.7303,-0.9211,-0.3895,9.7555,-0.0083,0.0071,0.0046
90782,47.132465,-1.850803,53.12,25.79,5.36,273.9,Dec-19,9079397,2019-08-18 17:45:01:934,-1.4143,-0.6542,9.501,-0.9514,-0.4094,9.7518,-0.0009,0.0022,0.002
90783,47.132465,-1.850803,53.12,25.79,5.36,273.9,Dec-19,9079497,2019-08-18 17:45:02:034,-1.194,-0.5878,9.4262,-0.9553,-0.4101,9.7514,-0.0007,0.0017,0.0029
90784,47.132465,-1.850803,53.12,25.79,5.36,273.9,Dec-19,9079597,2019-08-18 17:45:02:134,-1.2306,-0.4758,9.8835,-0.9648,-0.4137,9.7503,-0.0057,0.0005,-0.0001
90785,47.132465,-1.850803,53.12,25.79,5.36,273.9,Dec-19,9079698,2019-08-18 17:45:02:235,-1.1731,-0.5638,9.9583,-0.9682,-0.42,9.7497,-0.0072,0.004,-0.0009
90786,47.132465,-1.850803,53.12,25.79,5.36,273.9,Dec-19,9079797,2019-08-18 17:45:02:334,-0.9738,-0.5519,9.9206,-0.9827,-0.437,9.7475,-0.008,0.0053,-0.0022
90787,47.132465,-1.850803,53.12,25.79,5.36,273.9,Dec-19,9079897,2019-08-18 17:45:02:434,-1.2372,-0.7075,9.8009,-0.9866,-0.4446,9.7468,-0.0027,0.0047,-0.0032
90788,47.132465,-1.850803,53.12,25.79,5.36,273.9,Dec-19,9079997,2019-08-18 17:45:02:534,-1.3598,-0.5225,10.1116,-0.993,-0.4565,9.7456,-0.0075,-0.0031,-0.004
90789,47.132465,-1.850803,53.12,25.79,5.36,273.9,14 / 21,9080097,2019-08-18 17:45:02:634,-1.1857,-0.7027,9.7758,-0.9964,-0.4589,9.7451,0.0053,-0.002,-0.004
90790,47.132465,-1.850803,53.12,25.79,5.36,273.9,14 / 21,9080197,2019-08-18 17:45:02:734,-1.0875,-0.5806,9.5549,-0.9989,-0.4612,9.7447,-0.0026,0.0012,-0.0032
90791,47.132465,-1.850803,53.12,25.79,5.36,273.9,14 / 21,9080297,2019-08-18 17:45:02:834,-1.1731,-0.5489,9.6788,-1.0083,-0.4703,9.7433,-0.0116,0.0053,-0.0036
90792,47.132465,-1.850803,53.12,25.79,5.36,273.9,14 / 21,9080397,2019-08-18 17:45:02:934,-1.4347,-0.6039,9.668,-1.0077,-0.5034,9.7417,-0.0145,-0.0081,-0.0025
90793,47.132465,-1.850803,53.12,25.79,5.36,273.9,14 / 21,9080497,2019-08-18 17:45:03:034,-0.9504,-0.665,9.7955,-1.0084,-0.5143,9.7411,-0.0061,-0.0071,-0.0066
90794,47.132465,-1.850803,53.12,25.79,5.36,273.9,14 / 21,9080597,2019-08-18 17:45:03:134,-1.2006,-1.0169,10.0314,-1.0082,-0.5165,9.741,0.0182,0.0036,-0.0026
90795,47.132465,-1.850803,53.12,25.79,5.36,273.9,14 / 21,9080697,2019-08-18 17:45:03:234,-0.8385,-0.5908,9.6525,-1.0186,-0.5089,9.7403,0.0044,0.0257,-0.0017
90796,47.132465,-1.850803,53.12,25.79,5.36,273.9,14 / 21,9080797,2019-08-18 17:45:03:334,-1.066,-0.5315,9.8129,-1.0527,-0.5137,9.7364,-0.0103,0.0013,-0.0044
90797,47.132465,-1.850803,53.12,25.79,5.36,273.9,14 / 21,9080897,2019-08-18 17:45:03:434,-1.0534,-0.5543,10.0966,-1.0535,-0.5217,9.7359,-0.0051,-0.0125,-0.0051
90798,47.132465,-1.850803,53.12,25.79,5.36,273.9,14 / 21,9080997,2019-08-18 17:45:03:534,-1.2575,-0.4872,9.9099,-1.0465,-0.5282,9.7363,0.0044,-0.013,-0.0048
90799,47.132465,-1.850803,53.12,25.79,5.36,273.9,Dec-18,9081097,2019-08-18 17:45:03:634,-1.203,-0.7386,9.6124,-1.0392,-0.5256,9.7373,0.0034,-0.0032,-0.0048
90800,47.132465,-1.850803,53.12,25.79,5.36,273.9,Dec-18,9081197,2019-08-18 17:45:03:734,-1.2036,-0.677,9.7937,-1.0423,-0.5277,9.7368,-0.0047,0.0042,-0.0039
90801,47.132465,-1.850803,53.12,25.79,5.36,273.9,Dec-18,9081297,2019-08-18 17:45:03:834,-0.9181,-0.5243,9.9889,-1.0521,-0.5563,9.7342,-0.0128,0.0086,-0.0064
90802,47.132465,-1.850803,53.12,25.79,5.36,273.9,Dec-18,9081396,2019-08-18 17:45:03:933,-0.7619,-0.5596,9.17,-1.0514,-0.565,9.7337,0.024,0.0128,-0.0049
90803,47.132465,-1.850803,53.12,25.79,5.36,273.9,Dec-18,9081497,2019-08-18 17:45:04:034,-1.0845,-0.5914,9.9081,-1.0562,-0.5509,9.734,0.0148,0.0088,-0.004
90804,47.132465,-1.850803,53.12,25.79,5.36,273.9,Dec-18,9081597,2019-08-18 17:45:04:134,-0.9774,-0.738,10.3516,-1.0579,-0.5461,9.7341,0.0116,0.0015,-0.005
90805,47.132465,-1.850803,53.12,25.79,5.36,273.9,Dec-18,9081697,2019-08-18 17:45:04:234,-0.6721,-0.8272,9.9727,-1.0536,-0.5318,9.7354,0.0094,0.0022,-0.0072
90806,47.132465,-1.850803,53.12,25.79,5.36,273.9,Dec-18,9081797,2019-08-18 17:45:04:334,-0.8499,-0.5267,9.3628,-1.0596,-0.5336,9.7346,-0.006,0.0152,-0.0063
90807,47.132465,-1.850803,53.12,25.79,5.36,273.9,Dec-18,9081897,2019-08-18 17:45:04:434,-0.972,-0.5914,9.4909,-1.0835,-0.5577,9.7306,-0.0228,0.0192,-0.0056
90808,47.132465,-1.850803,53.12,25.79,5.36,273.9,Dec-18,9081997,2019-08-18 17:45:04:534,-0.796,-0.6183,9.4561,-1.0907,-0.5676,9.7293,-0.0095,0.0112,-0.0032
90809,47.132576,-1.853762,53.42,22.73,4.288,273.8,15 / 21,9082096,2019-08-18 17:45:04:633,-1.0492,-0.3861,9.6956,-1.104,-0.5786,9.7271,-0.0046,0.0091,-0.0016
90810,47.132576,-1.853762,53.42,22.73,4.288,273.8,15 / 21,9082197,2019-08-18 17:45:04:734,-0.9091,-0.4717,9.6477,-1.1098,-0.5805,9.7264,-0.0112,0.0103,0.0011
90811,47.132576,-1.853762,53.42,22.73,4.288,273.8,15 / 21,9082297,2019-08-18 17:45:04:834,-0.9875,-0.2837,9.6788,-1.1281,-0.5903,9.7237,-0.0203,0.0194,-0.0012
90812,47.132576,-1.853762,53.42,22.73,4.288,273.8,15 / 21,9082397,2019-08-18 17:45:04:934,-0.9852,-0.6578,9.5549,-1.1429,-0.6026,9.7212,-0.0203,0.0194,-0.0012
90813,47.132576,-1.853762,53.42,22.73,4.288,273.8,15 / 21,9082497,2019-08-18 17:45:05:034,-1.0492,-0.5465,9.5394,-1.1508,-0.6061,9.72,-0.0022,0.0078,0.0011
90814,47.132576,-1.853762,53.42,22.73,4.288,273.8,15 / 21,9082597,2019-08-18 17:45:05:134,-0.951,-0.5028,9.6758,-1.1574,-0.6071,9.7192,-0.0075,0.0044,0.0008
90815,47.132576,-1.853762,53.42,22.73,4.288,273.8,15 / 21,9082697,2019-08-18 17:45:05:234,-1.036,-0.3394,9.455,-1.1629,-0.6103,9.7183,-0.0042,0.014,0.0023
90816,47.132576,-1.853762,53.42,22.73,4.288,273.8,15 / 21,9082797,2019-08-18 17:45:05:334,-1.0055,-0.7919,9.8434,-1.1687,-0.6087,9.7177,0.0011,0.0076,0.003
90817,47.132576,-1.853762,53.42,22.73,4.288,273.8,15 / 21,9082897,2019-08-18 17:45:05:434,-1.0612,-0.5477,10.1666,-1.1672,-0.5929,9.7189,0.0116,-0.0055,0.0044
90818,47.132576,-1.853762,53.42,22.73,4.288,273.8,15 / 21,9082997,2019-08-18 17:45:05:534,-1.2198,-0.3531,9.4454,-1.1588,-0.5865,9.7203,-0.0073,-0.0061,0.0023
90819,47.132576,-1.853762,53.42,22.73,4.288,273.8,14 / 20,9083097,2019-08-18 17:45:05:634,-0.6715,-0.0191,9.1778,-1.1593,-0.6006,9.7193,-0.0215,0.0082,-0.0008
90820,47.132576,-1.853762,53.42,22.73,4.288,273.8,14 / 20,9083197,2019-08-18 17:45:05:734,-1.2078,-0.2502,9.2113,-1.1595,-0.6071,9.7189,-0.0121,0.009,0.0005
90821,47.132576,-1.853762,53.42,22.73,4.288,273.8,14 / 20,9083297,2019-08-18 17:45:05:834,-0.6859,-0.3442,9.9416,-1.1567,-0.6025,9.7195,0.0019,-0.0045,0.0016
90822,47.132576,-1.853762,53.42,22.73,4.288,273.8,14 / 20,9083398,2019-08-18 17:45:05:935,-0.7685,-0.334,9.6435,-1.1506,-0.5978,9.7206,0.0055,-0.0053,0.0039
90823,47.132576,-1.853762,53.42,22.73,4.288,273.8,14 / 20,9083497,2019-08-18 17:45:06:034,-1.0642,-0.258,9.2119,-1.1498,-0.5796,9.7217,0.0047,0.0129,0.0032
90824,47.132576,-1.853762,53.42,22.73,4.288,273.8,14 / 20,9083597,2019-08-18 17:45:06:134,-0.884,-0.4465,10.0804,-1.147,-0.5725,9.7225,0.0046,0.0005,0.0017
90825,47.132576,-1.853762,53.42,22.73,4.288,273.8,14 / 20,9083697,2019-08-18 17:45:06:234,-1.0318,-0.395,9.8703,-1.1417,-0.5603,9.7238,0.0016,0.0021,0.0014
90826,47.132576,-1.853762,53.42,22.73,4.288,273.8,14 / 20,9083797,2019-08-18 17:45:06:334,-0.8032,-0.3124,10.1523,-1.1359,-0.5546,9.7248,0.0054,0.0047,0.0024
90827,47.132576,-1.853762,53.42,22.73,4.288,273.8,14 / 20,9083897,2019-08-18 17:45:06:434,-0.9175,-0.4651,9.9901,-1.1329,-0.5394,9.726,0.0045,0.0033,0.0022
90828,47.132576,-1.853762,53.42,22.73,4.288,273.8,14 / 20,9083997,2019-08-18 17:45:06:534,-0.9816,-0.1981,10.5072,-1.1284,-0.5318,9.727,0.0067,0.0012,0.0021
90829,47.132576,-1.853762,53.42,22.73,4.288,273.8,14 / 21,9084097,2019-08-18 17:45:06:634,-0.9594,-0.4818,10.2558,-1.1106,-0.5155,9.7299,0.0017,-0.0111,0.0059
90830,47.132576,-1.853762,53.42,22.73,4.288,273.8,14 / 21,9084197,2019-08-18 17:45:06:734,-0.951,-0.4124,9.5651,-1.1087,-0.5142,9.7302,-0.011,0.013,0.0035
90831,47.132576,-1.853762,53.42,22.73,4.288,273.8,14 / 21,9084297,2019-08-18 17:45:06:834,-0.9492,-0.6835,9.4592,-1.1127,-0.5188,9.7295,-0.0108,0.0128,0.0013
90832,47.132576,-1.853762,53.42,22.73,4.288,273.8,14 / 21,9084397,2019-08-18 17:45:06:934,-0.9941,-0.2616,9.5747,-1.126,-0.5295,9.7274,-0.0119,0.0049,0.0022
90833,47.132576,-1.853762,53.42,22.73,4.288,273.8,14 / 21,9084497,2019-08-18 17:45:07:034,-1.0037,-0.4878,9.4508,-1.13,-0.5336,9.7267,-0.0123,0.0025,0.0038
90834,47.132576,-1.853762,53.42,22.73,4.288,273.8,14 / 21,9084597,2019-08-18 17:45:07:134,-0.8523,-0.0766,9.7171,-1.1312,-0.5411,9.7261,0.0012,0.0123,0.0044
90835,47.132576,-1.853762,53.42,22.73,4.288,273.8,14 / 21,9084697,2019-08-18 17:45:07:234,-1.2108,-0.5608,9.4998,-1.1387,-0.5386,9.7254,-0.0047,0.0126,0.0035
90836,47.132576,-1.853762,53.42,22.73,4.288,273.8,14 / 21,9084797,2019-08-18 17:45:07:334,-1.3605,-0.2538,9.0497,-1.164,-0.5529,9.7216,-0.0174,0.018,0.0043
90837,47.132576,-1.853762,53.42,22.73,4.288,273.8,14 / 21,9084897,2019-08-18 17:45:07:434,-1.5676,-0.7135,9.5346,-1.1808,-0.5595,9.7192,-0.0119,0.0228,0.0041
90838,47.132576,-1.853762,53.42,22.73,4.288,273.8,14 / 21,9084997,2019-08-18 17:45:07:534,-1.458,-0.8888,11.1273,-1.1855,-0.5607,9.7186,0.0091,-0.0216,0.0024
90839,47.132576,-1.853762,53.42,22.73,4.288,273.8,14 / 21,9085097,2019-08-18 17:45:07:634,-1.7316,-0.6476,10.8262,-1.1725,-0.5589,9.7203,0.0074,-0.0265,0.001
90840,47.132576,-1.853762,53.42,22.73,4.288,273.8,14 / 21,9085197,2019-08-18 17:45:07:734,-1.8159,-1.5047,9.7411,-1.1593,-0.5551,9.7221,0.0099,-0.0189,0.0009
90841,47.132576,-1.853762,53.42,22.73,4.288,273.8,14 / 21,9085297,2019-08-18 17:45:07:834,-2.2451,-0.5656,9.1036,-1.1618,-0.5598,9.7215,-0.0052,0.011,0.0
90842,47.132576,-1.853762,53.42,22.73,4.288,273.8,14 / 21,9085397,2019-08-18 17:45:07:934,-1.7286,-1.1283,9.7967,-1.2001,-0.5766,9.7159,-0.0038,0.0109,0.002
90843,47.132576,-1.853762,53.42,22.73,4.288,273.8,14 / 21,9085497,2019-08-18 17:45:08:034,-1.9327,-0.9744,9.4574,-1.2126,-0.5829,9.7139,0.0124,-0.0032,0.0029
90844,47.132576,-1.853762,53.42,22.73,4.288,273.8,14 / 21,9085597,2019-08-18 17:45:08:134,-1.9099,-0.8236,9.5579,-1.2279,-0.5823,9.712,-0.0018,-0.0055,0.0007
90845,47.132576,-1.853762,53.42,22.73,4.288,273.8,14 / 21,9085697,2019-08-18 17:45:08:234,-1.9626,-1.1031,10.0308,-1.2323,-0.5853,9.7113,-0.0029,-0.0085,0.0007
90846,47.132576,-1.853762,53.42,22.73,4.288,273.8,14 / 21,9085797,2019-08-18 17:45:08:334,-1.8088,-1.2252,9.6758,-1.2461,-0.6011,9.7086,0.0,0.0102,-0.0002
90847,47.132576,-1.853762,53.42,22.73,4.288,273.8,14 / 21,9085897,2019-08-18 17:45:08:434,-1.8626,-1.09,9.5136,-1.2646,-0.6095,9.7056,-0.0103,0.0049,-0.0002
90848,47.132576,-1.853762,53.42,22.73,4.288,273.8,14 / 21,9085996,2019-08-18 17:45:08:533,-1.9512,-0.8122,9.2921,-1.2875,-0.6263,9.7016,-0.0004,-0.0021,0.0004
90849,47.132576,-1.853762,53.42,22.73,4.288,273.8,14 / 20,9086097,2019-08-18 17:45:08:634,-1.3317,-0.6237,10.2115,-1.2935,-0.6304,9.7005,0.0049,-0.0123,0.0001
90850,47.132576,-1.853762,53.42,22.73,4.288,273.8,14 / 20,9086197,2019-08-18 17:45:08:734,-0.9211,-0.6327,9.8195,-1.2624,-0.6159,9.7055,0.0153,-0.0143,0.0015
90851,47.132576,-1.853762,53.42,22.73,4.288,273.8,14 / 20,9086298,2019-08-18 17:45:08:835,-1.0761,-0.3448,9.8685,-1.2561,-0.6063,9.707,0.0133,-0.0014,0.0029
90852,47.132576,-1.853762,53.42,22.73,4.288,273.8,14 / 20,9086397,2019-08-18 17:45:08:934,-0.9888,-0.4196,9.7512,-1.256,-0.59,9.708,0.0084,0.0042,0.0026
90853,47.132576,-1.853762,53.42,22.73,4.288,273.8,14 / 20,9086497,2019-08-18 17:45:09:034,-1.1426,-0.6081,10.0912,-1.2609,-0.5808,9.7079,0.0184,0.0153,0.0016
90854,47.132576,-1.853762,53.42,22.73,4.288,273.8,14 / 20,9086597,2019-08-18 17:45:09:134,-1.1043,-0.4435,10.0996,-1.2563,-0.5626,9.7096,0.0253,0.0026,0.0014
90855,47.132576,-1.853762,53.42,22.73,4.288,273.8,14 / 20,9086697,2019-08-18 17:45:09:234,-1.0965,-0.7997,10.2367,-1.257,-0.5486,9.7103,0.0138,-0.0026,0.0003
90856,47.132576,-1.853762,53.42,22.73,4.288,273.8,14 / 20,9086797,2019-08-18 17:45:09:334,-1.0935,-0.6345,9.7471,-1.2267,-0.5508,9.714,-0.0112,-0.0213,-0.0013
90857,47.132576,-1.853762,53.42,22.73,4.288,273.8,14 / 20,9086897,2019-08-18 17:45:09:434,-1.206,-0.5291,9.9188,-1.2269,-0.5538,9.7138,-0.0078,-0.001,-0.0012
90858,47.132576,-1.853762,53.42,22.73,4.288,273.8,14 / 20,9086997,2019-08-18 17:45:09:534,-1.227,-0.6554,9.6154,-1.219,-0.5647,9.7142,-0.0072,0.003,-0.0002
90859,47.132576,-1.853762,53.42,22.73,4.288,273.8,14 / 20,9087097,2019-08-18 17:45:09:634,-1.2461,-0.3867,9.4986,-1.2249,-0.5715,9.713,-0.0127,0.0003,0.0011
90860,47.132576,-1.853762,53.42,22.73,4.288,273.8,14 / 20,9087197,2019-08-18 17:45:09:734,-1.0995,-0.5668,9.2281,-1.2265,-0.5757,9.7126,-0.0005,0.0034,0.0006
90861,47.132576,-1.853762,53.42,22.73,4.288,273.8,14 / 20,9087297,2019-08-18 17:45:09:834,-1.3551,0.1981,9.5519,-1.2285,-0.5896,9.7115,-0.0189,0.0018,-0.0002
90862,47.132576,-1.853762,53.42,22.73,4.288,273.8,14 / 20,9087397,2019-08-18 17:45:09:934,-1.1156,-0.6237,10.1553,-1.2197,-0.6098,9.7114,-0.0078,-0.0101,-0.0001
90863,47.132576,-1.853762,53.42,22.73,4.288,273.8,14 / 20,9087498,2019-08-18 17:45:10:035,-1.2653,-0.5614,10.0673,-1.2015,-0.6063,9.7139,0.0066,-0.0119,0.0003
90864,47.132576,-1.853762,53.42,22.73,4.288,273.8,14 / 20,9087597,2019-08-18 17:45:10:134,-1.276,-0.4603,9.8416,-1.1921,-0.6043,9.7151,-0.0228,-0.0081,0.001
90865,47.132576,-1.853762,53.42,22.73,4.288,273.8,14 / 20,9087697,2019-08-18 17:45:10:234,-1.2318,-0.5902,9.6315,-1.1988,-0.6324,9.7125,-0.0287,0.0058,0.0001
90866,47.132576,-1.853762,53.42,22.73,4.288,273.8,14 / 20,9087797,2019-08-18 17:45:10:334,-1.3784,-0.5213,9.5184,-1.2009,-0.6479,9.7113,0.0084,-0.006,0.0003
90867,47.132576,-1.853762,53.42,22.73,4.288,273.8,14 / 20,9087897,2019-08-18 17:45:10:434,-1.1617,-0.4788,9.8548,-1.1896,-0.6482,9.7126,0.0096,-0.0204,0.0026
90868,47.132576,-1.853762,53.42,22.73,4.288,273.8,14 / 20,9087997,2019-08-18 17:45:10:534,-1.1929,-0.3059,10.8472,-1.1806,-0.63,9.7149,0.0438,-0.0249,0.0053
90869,47.132576,-1.853762,53.42,22.73,4.288,273.8,14 / 19,9088096,2019-08-18 17:45:10:633,-0.9397,-0.5291,10.0846,-1.1517,-0.5817,9.7214,0.0269,-0.0276,0.0047
90870,47.132576,-1.853762,53.42,22.73,4.288,273.8,14 / 19,9088197,2019-08-18 17:45:10:734,-0.9852,-0.3148,9.686,-1.146,-0.5683,9.7229,0.0049,0.0176,0.003
90871,47.132576,-1.853762,53.42,22.73,4.288,273.8,14 / 19,9088297,2019-08-18 17:45:10:834,-0.8403,-0.5854,8.6122,-1.1855,-0.5778,9.7176,-0.0155,0.0328,0.0011
90872,47.132576,-1.853762,53.42,22.73,4.288,273.8,14 / 19,9088397,2019-08-18 17:45:10:934,-1.0995,-0.4968,9.4316,-1.203,-0.5856,9.7149,-0.004,0.016,0.0009
90873,47.132576,-1.853762,53.42,22.73,4.288,273.8,14 / 19,9088497,2019-08-18 17:45:11:034,-1.0444,-0.3603,9.8338,-1.2077,-0.5851,9.7144,0.0001,-0.0063,0.0
90874,47.132576,-1.853762,53.42,22.73,4.288,273.8,14 / 19,9088597,2019-08-18 17:45:11:134,-0.8858,-0.595,10.0523,-1.1987,-0.5815,9.7157,0.0066,0.0013,0.0016
90875,47.132576,-1.853762,53.42,22.73,4.288,273.8,14 / 19,9088697,2019-08-18 17:45:11:234,-0.8631,-0.4477,9.6351,-1.1942,-0.571,9.7169,-0.0014,0.0024,0.0008
90876,47.132576,-1.853762,53.42,22.73,4.288,273.8,14 / 19,9088797,2019-08-18 17:45:11:334,-0.9103,-0.2047,9.6585,-1.1921,-0.5686,9.7173,-0.0066,0.0071,0.0022
90877,47.132576,-1.853762,53.42,22.73,4.288,273.8,14 / 19,9088897,2019-08-18 17:45:11:434,-0.9576,-0.48,9.6441,-1.1976,-0.5683,9.7166,-0.0012,0.0168,0.0016
90878,47.132576,-1.853762,53.42,22.73,4.288,273.8,14 / 19,9088997,2019-08-18 17:45:11:534,-0.8834,-0.4525,10.1559,-1.196,-0.5624,9.7172,0.0028,-0.0199,0.0017
90879,47.132576,-1.853762,53.42,22.73,4.288,273.8,16 / 19,9089097,2019-08-18 17:45:11:634,-0.9875,-0.6093,9.665,-1.1545,-0.556,9.7226,-0.0105,-0.0201,-0.0014
90880,47.132576,-1.853762,53.42,22.73,4.288,273.8,16 / 19,9089197,2019-08-18 17:45:11:734,-0.659,-0.4459,9.2478,-1.1369,-0.5593,9.7245,-0.0104,-0.0035,-0.0011
90881,47.132576,-1.853762,53.42,22.73,4.288,273.8,16 / 19,9089297,2019-08-18 17:45:11:834,-0.7188,0.0754,9.6806,-1.1366,-0.5691,9.7239,-0.0037,0.0242,0.0038
90882,47.132576,-1.853762,53.42,22.73,4.288,273.8,16 / 19,9089397,2019-08-18 17:45:11:934,-0.9271,-0.4842,9.7057,-1.1479,-0.5672,9.7227,0.0091,0.0129,0.0031
90883,47.132576,-1.853762,53.42,22.73,4.288,273.8,16 / 19,9089497,2019-08-18 17:45:12:034,-0.8134,-0.4956,9.3317,-1.1495,-0.539,9.7241,0.0169,0.0085,0.0005
90884,47.132576,-1.853762,53.42,22.73,4.288,273.8,16 / 19,9089597,2019-08-18 17:45:12:134,-0.9666,-0.2795,10.0278,-1.1479,-0.5253,9.7251,0.0154,0.0008,0.0017
90885,47.132576,-1.853762,53.42,22.73,4.288,273.8,16 / 19,9089697,2019-08-18 17:45:12:234,-1.0163,-0.3651,10.2762,-1.1342,-0.4955,9.7282,0.018,-0.014,0.0016
90886,47.132576,-1.853762,53.42,22.73,4.288,273.8,16 / 19,9089797,2019-08-18 17:45:12:334,-0.7212,-0.4543,9.6291,-1.1168,-0.476,9.7312,0.0221,-0.0135,0.0025
90887,47.132576,-1.853762,53.42,22.73,4.288,273.8,16 / 19,9089897,2019-08-18 17:45:12:434,-0.823,-0.1089,9.2556,-1.1175,-0.465,9.7317,-0.0135,0.0274,0.0005
90888,47.132576,-1.853762,53.42,22.73,4.288,273.8,16 / 19,9089997,2019-08-18 17:45:12:534,-0.8301,-0.2316,9.2383,-1.1322,-0.4714,9.7297,-0.0164,0.0292,0.0011
90889,47.132576,-1.853762,53.42,22.73,4.288,273.8,17 / 21,9090097,2019-08-18 17:45:12:634,-0.8744,0.0635,10.3893,-1.1032,-0.5006,9.7315,-0.0342,-0.0415,-0.0035
90890,47.132576,-1.853762,53.42,22.73,4.288,273.8,17 / 21,9090197,2019-08-18 17:45:12:734,-0.9277,-0.5477,10.8214,-1.0666,-0.5121,9.735,0.0111,-0.0439,-0.0059
90891,47.132576,-1.853762,53.42,22.73,4.288,273.8,17 / 21,9090297,2019-08-18 17:45:12:834,-0.8433,-0.6393,10.4414,-1.0054,-0.5035,9.742,0.0035,-0.0214,-0.0039
90892,47.132576,-1.853762,53.42,22.73,4.288,273.8,17 / 21,9090397,2019-08-18 17:45:12:934,-0.6619,-0.3938,9.337,-1.0054,-0.5081,9.7417,-0.0095,0.0085,-0.0015
90893,47.132576,-1.853762,53.42,22.73,4.288,273.8,17 / 21,9090497,2019-08-18 17:45:13:034,-0.5195,-0.3531,9.2018,-1.0198,-0.5246,9.7394,-0.0209,0.0355,-0.0035
90894,47.132576,-1.853762,53.42,22.73,4.288,273.8,17 / 21,9090597,2019-08-18 17:45:13:134,-0.7751,-0.51,9.3209,-1.0545,-0.5417,9.7347,-0.0068,0.0345,-0.0044
90895,47.132576,-1.853762,53.42,22.73,4.288,273.8,17 / 21,9090697,2019-08-18 17:45:13:234,-0.8649,-0.3184,9.8039,-1.0602,-0.529,9.7348,0.0194,-0.0192,-0.0022
90896,47.132576,-1.853762,53.42,22.73,4.288,273.8,17 / 21,9090796,2019-08-18 17:45:13:333,-0.8649,-0.4244,10.4102,-1.0285,-0.5024,9.7396,0.007,-0.0137,-0.0033
90897,47.132576,-1.853762,53.42,22.73,4.288,273.8,17 / 21,9090897,2019-08-18 17:45:13:434,-0.7577,-0.668,10.4192,-1.0178,-0.4993,9.7409,0.0003,-0.0033,-0.0051
90898,47.132576,-1.853762,53.42,22.73,4.288,273.8,17 / 21,9090997,2019-08-18 17:45:13:534,-0.9528,-0.6147,9.9793,-1.0096,-0.5092,9.7412,-0.0127,-0.0075,-0.0046
90899,47.132576,-1.853762,53.42,22.73,4.288,273.8,16 / 20,9091097,2019-08-18 17:45:13:634,-0.8756,-0.8541,10.2157,-1.0037,-0.5131,9.7416,0.0148,-0.0284,-0.0048
90900,47.132675,-1.856241,52.72,19.77,3.216,273.2,16 / 20,9091197,2019-08-18 17:45:13:734,-0.9732,-0.6817,9.9003,-0.9655,-0.5005,9.7462,0.0069,-0.0221,-0.0063
90901,47.132675,-1.856241,52.72,19.77,3.216,273.2,16 / 20,9091297,2019-08-18 17:45:13:834,-0.8373,-0.4878,9.58,-0.9568,-0.4996,9.7471,-0.001,0.0058,-0.0056
90902,47.132675,-1.856241,52.72,19.77,3.216,273.2,16 / 20,9091397,2019-08-18 17:45:13:934,-0.7733,-0.5591,9.4574,-0.9824,-0.5181,9.7436,-0.0161,0.0312,-0.0044
90903,47.132675,-1.856241,52.72,19.77,3.216,273.2,16 / 20,9091497,2019-08-18 17:45:14:034,-0.8182,-0.5231,9.2706,-0.9988,-0.5253,9.7415,-0.0063,0.029,-0.0037
90904,47.132675,-1.856241,52.72,19.77,3.216,273.2,16 / 20,9091597,2019-08-18 17:45:14:134,-0.8798,-0.6404,9.5286,-1.0273,-0.5192,9.7389,0.0226,0.0199,-0.0026
90905,47.132675,-1.856241,52.72,19.77,3.216,273.2,16 / 20,9091697,2019-08-18 17:45:14:234,-0.8152,-0.6171,10.0942,-1.0384,-0.497,9.7388,0.0376,0.0171,-0.0015
90906,47.132675,-1.856241,52.72,19.77,3.216,273.2,16 / 20,9091796,2019-08-18 17:45:14:333,-0.9828,-0.6309,9.9224,-1.0502,-0.458,9.7395,0.0333,0.0084,-0.0013
90907,47.132675,-1.856241,52.72,19.77,3.216,273.2,16 / 20,9091897,2019-08-18 17:45:14:434,-1.0396,-0.2574,10.5964,-1.0441,-0.4417,9.7409,-0.0038,-0.0317,-0.0065
90908,47.132675,-1.856241,52.72,19.77,3.216,273.2,16 / 20,9091997,2019-08-18 17:45:14:534,-1.0971,-0.34,9.8733,-1.013,-0.4454,9.744,-0.0185,-0.0354,-0.0085
90909,47.132675,-1.856241,52.72,19.77,3.216,273.2,15 / 19,9092097,2019-08-18 17:45:14:634,-1.0821,-0.2538,9.7195,-0.9835,-0.4731,9.7457,-0.0344,-0.0267,-0.0081
90910,47.132675,-1.856241,52.72,19.77,3.216,273.2,15 / 19,9092197,2019-08-18 17:45:14:734,-0.9397,-0.5279,9.8213,-0.9687,-0.5221,9.7447,-0.0365,-0.0088,-0.0049
90911,47.132675,-1.856241,52.72,19.77,3.216,273.2,15 / 19,9092297,2019-08-18 17:45:14:834,-0.7439,-0.5261,9.7004,-0.9626,-0.5305,9.7449,-0.0113,-0.0041,-0.0005
90912,47.132675,-1.856241,52.72,19.77,3.216,273.2,15 / 19,9092396,2019-08-18 17:45:14:933,-1.0283,-0.4543,9.6992,-0.9633,-0.5448,9.744,0.0044,0.0008,0.0
90913,47.132675,-1.856241,52.72,19.77,3.216,273.2,15 / 19,9092497,2019-08-18 17:45:15:034,-0.8678,-0.4094,10.0266,-0.9599,-0.5418,9.7445,0.0117,-0.0256,0.0001
90914,47.132675,-1.856241,52.72,19.77,3.216,273.2,15 / 19,9092597,2019-08-18 17:45:15:134,-1.0965,-0.0479,10.3989,-0.9089,-0.523,9.7504,0.0053,-0.034,-0.0013
90915,47.132675,-1.856241,52.72,19.77,3.216,273.2,15 / 19,9092697,2019-08-18 17:45:15:234,-0.6572,-0.2951,10.3647,-0.8924,-0.5186,9.7522,0.0055,-0.0059,0.0009
90916,47.132675,-1.856241,52.72,19.77,3.216,273.2,15 / 19,9092797,2019-08-18 17:45:15:334,-0.8248,-0.5429,9.7674,-0.8923,-0.511,9.7526,0.0055,0.0161,0.0
90917,47.132675,-1.856241,52.72,19.77,3.216,273.2,15 / 19,9092897,2019-08-18 17:45:15:434,-0.7547,-0.4615,9.4957,-0.8972,-0.509,9.7522,0.0031,0.0199,0.0005
90918,47.132675,-1.856241,52.72,19.77,3.216,273.2,15 / 19,9092997,2019-08-18 17:45:15:534,-0.7188,-0.5536,9.9386,-0.9138,-0.4937,9.7515,0.023,-0.0022,0.0014
90919,47.132675,-1.856241,52.72,19.77,3.216,273.2,15 / 20,9093097,2019-08-18 17:45:15:634,-0.811,-0.4687,10.2528,-0.9042,-0.472,9.7535,0.0244,-0.0142,0.0006
90920,47.132675,-1.856241,52.72,19.77,3.216,273.2,15 / 20,9093197,2019-08-18 17:45:15:734,-0.7924,-0.3364,9.9793,-0.8879,-0.4464,9.7562,0.013,-0.0042,0.002
90921,47.132675,-1.856241,52.72,19.77,3.216,273.2,15 / 20,9093297,2019-08-18 17:45:15:834,-0.6847,-0.4142,9.4418,-0.8892,-0.4381,9.7564,0.0012,0.0142,0.0016
90922,47.132675,-1.856241,52.72,19.77,3.216,273.2,15 / 20,9093397,2019-08-18 17:45:15:934,-0.7727,-0.1682,9.7111,-0.9065,-0.4325,9.7551,-0.0016,0.0186,0.0018
90923,47.132675,-1.856241,52.72,19.77,3.216,273.2,15 / 20,9093497,2019-08-18 17:45:16:034,-0.866,-0.2191,9.9021,-0.9132,-0.4352,9.7543,-0.0103,0.0127,0.0017
90924,47.132675,-1.856241,52.72,19.77,3.216,273.2,15 / 20,9093598,2019-08-18 17:45:16:135,-0.8463,-0.489,10.3414,-0.9079,-0.4324,9.755,-0.002,-0.0086,0.0042
90925,47.132675,-1.856241,52.72,19.77,3.216,273.2,15 / 20,9093697,2019-08-18 17:45:16:234,-0.808,-0.2598,9.8458,-0.8954,-0.4308,9.7562,-0.0015,-0.0194,0.004
90926,47.132675,-1.856241,52.72,19.77,3.216,273.2,15 / 20,9093796,2019-08-18 17:45:16:333,-0.8379,-0.2939,10.0798,-0.8848,-0.4207,9.7576,-0.0019,-0.0032,0.0056
90927,47.132675,-1.856241,52.72,19.77,3.216,273.2,15 / 20,9093897,2019-08-18 17:45:16:434,-0.9361,-0.4022,10.1181,-0.8846,-0.4169,9.7578,0.0026,-0.0101,0.0071
90928,47.132675,-1.856241,52.72,19.77,3.216,273.2,15 / 20,9093997,2019-08-18 17:45:16:534,-0.8996,-0.1514,9.7339,-0.8768,-0.4124,9.7587,-0.0104,-0.009,0.0048
90929,47.132675,-1.856241,52.72,19.77,3.216,273.2,13 / 20,9094097,2019-08-18 17:45:16:634,-0.9103,-0.3011,9.8273,-0.8651,-0.4175,9.7595,-0.0142,-0.0012,0.005
90930,47.132675,-1.856241,52.72,19.77,3.216,273.2,13 / 20,9094197,2019-08-18 17:45:16:734,-0.9091,-0.3831,9.5274,-0.8655,-0.4256,9.7591,-0.0101,0.0195,0.0049
90931,47.132675,-1.856241,52.72,19.77,3.216,273.2,13 / 20,9094297,2019-08-18 17:45:16:834,-1.0247,-0.2017,9.8512,-0.8897,-0.4354,9.7565,-0.002,-0.0012,0.0059
90932,47.132675,-1.856241,52.72,19.77,3.216,273.2,13 / 20,9094397,2019-08-18 17:45:16:934,-0.8607,-0.2765,10.0493,-0.8843,-0.4323,9.7571,-0.0023,-0.0274,0.006
90933,47.132675,-1.856241,52.72,19.77,3.216,273.2,13 / 20,9094497,2019-08-18 17:45:17:034,-0.951,-0.2179,10.1451,-0.8594,-0.4323,9.7593,-0.0123,-0.0058,0.0048
90934,47.132675,-1.856241,52.72,19.77,3.216,273.2,13 / 20,9094597,2019-08-18 17:45:17:134,-0.8535,-0.2885,9.695,-0.8596,-0.4328,9.7593,0.0026,0.0035,0.0048
90935,47.132675,-1.856241,52.72,19.77,3.216,273.2,13 / 20,9094697,2019-08-18 17:45:17:234,-0.9205,-0.3645,10.2492,-0.8661,-0.4356,9.7586,-0.0128,-0.0031,0.0069
90936,47.132675,-1.856241,52.72,19.77,3.216,273.2,13 / 20,9094797,2019-08-18 17:45:17:334,-0.9229,-0.2454,9.8117,-0.8586,-0.4347,9.7593,0.0049,-0.032,0.0057
90937,47.132675,-1.856241,52.72,19.77,3.216,273.2,13 / 20,9094897,2019-08-18 17:45:17:434,-0.8415,-0.3531,9.5639,-0.8226,-0.4267,9.7628,-0.0167,-0.0204,0.0039
90938,47.132675,-1.856241,52.72,19.77,3.216,273.2,13 / 20,9094997,2019-08-18 17:45:17:534,-0.8056,-0.0946,9.9589,-0.8138,-0.4374,9.763,-0.0273,-0.0174,0.0038
90939,47.132675,-1.856241,52.72,19.77,3.216,273.2,13 / 20,9095096,2019-08-18 17:45:17:633,-0.6829,-0.182,9.9003,-0.7872,-0.4614,9.7641,-0.0115,-0.0296,0.0047
90940,47.132675,-1.856241,52.72,19.77,3.216,273.2,13 / 20,9095197,2019-08-18 17:45:17:734,-0.6392,-0.2903,9.8733,-0.7634,-0.4715,9.7655,-0.0184,-0.0295,0.006
90941,47.132675,-1.856241,52.72,19.77,3.216,273.2,13 / 20,9095297,2019-08-18 17:45:17:834,-0.6703,-0.3106,10.2983,-0.7421,-0.499,9.7658,-0.025,-0.0154,0.0056
90942,47.132675,-1.856241,52.72,19.77,3.216,273.2,13 / 20,9095397,2019-08-18 17:45:17:934,-0.7906,-0.2652,10.0128,-0.7219,-0.5215,9.7661,-0.0332,-0.0248,0.0038
90943,47.132675,-1.856241,52.72,19.77,3.216,273.2,13 / 20,9095497,2019-08-18 17:45:18:034,-0.571,-0.2795,9.8943,-0.6842,-0.533,9.7682,-0.0111,-0.0295,0.0012
90944,47.132675,-1.856241,52.72,19.77,3.216,273.2,13 / 20,9095598,2019-08-18 17:45:18:135,-0.4267,-0.4477,9.8668,-0.6687,-0.543,9.7687,-0.0211,-0.001,0.0032
90945,47.132675,-1.856241,52.72,19.77,3.216,273.2,13 / 20,9095697,2019-08-18 17:45:18:234,-0.5368,-0.2155,9.5621,-0.6548,-0.5682,9.7683,-0.017,-0.0047,0.0009
90946,47.132675,-1.856241,52.72,19.77,3.216,273.2,13 / 20,9095797,2019-08-18 17:45:18:334,-0.5662,-0.4812,9.6776,-0.6502,-0.5743,9.7682,-0.0127,-0.0068,0.0012
90947,47.132675,-1.856241,52.72,19.77,3.216,273.2,13 / 20,9095897,2019-08-18 17:45:18:434,-0.4255,-0.179,9.8841,-0.6328,-0.5869,9.7686,-0.0121,-0.0038,0.0033
90948,47.132675,-1.856241,52.72,19.77,3.216,273.2,13 / 20,9095996,2019-08-18 17:45:18:533,-0.5321,-0.6925,10.0092,-0.6287,-0.59,9.7687,-0.0161,-0.0067,0.0021
90949,47.132675,-1.856241,52.72,19.77,3.216,273.2,13 / 18,9096097,2019-08-18 17:45:18:634,-0.4082,-0.1784,9.6483,-0.6176,-0.6083,9.7683,-0.0253,-0.0022,0.0032
90950,47.132675,-1.856241,52.72,19.77,3.216,273.2,13 / 18,9096197,2019-08-18 17:45:18:734,-0.5099,-0.5549,10.3073,-0.6103,-0.6195,9.768,-0.021,-0.0104,0.004
90951,47.132675,-1.856241,52.72,19.77,3.216,273.2,13 / 18,9096297,2019-08-18 17:45:18:834,-0.5237,-0.3436,10.114,-0.5796,-0.6249,9.7695,-0.0005,-0.0206,0.0047
90952,47.132675,-1.856241,52.72,19.77,3.216,273.2,13 / 18,9096397,2019-08-18 17:45:18:934,-0.3908,-0.2304,9.5806,-0.5698,-0.6205,9.7704,-0.0019,-0.0044,0.0064
90953,47.132675,-1.856241,52.72,19.77,3.216,273.2,13 / 18,9096497,2019-08-18 17:45:19:034,-0.164,-0.601,9.9841,-0.5633,-0.6238,9.7706,-0.0176,0.0042,0.0044
90954,47.132675,-1.856241,52.72,19.77,3.216,273.2,13 / 18,9096597,2019-08-18 17:45:19:134,-0.2555,-0.6375,9.7207,-0.5646,-0.6366,9.7697,-0.0229,-0.0049,-0.0005
90955,47.132675,-1.856241,52.72,19.77,3.216,273.2,13 / 18,9096696,2019-08-18 17:45:19:233,-0.243,-0.504,9.8692,-0.5486,-0.6531,9.7695,-0.0161,-0.0168,0.0
90956,47.132675,-1.856241,52.72,19.77,3.216,273.2,13 / 18,9096797,2019-08-18 17:45:19:334,-0.3854,-0.5842,10.3444,-0.53,-0.6549,9.7704,-0.0023,-0.02,0.0022
90957,47.132675,-1.856241,52.72,19.77,3.216,273.2,13 / 18,9096897,2019-08-18 17:45:19:434,-0.2543,-0.4944,10.503,-0.5005,-0.6527,9.7721,-0.0056,-0.0206,0.0006
90958,47.132675,-1.856241,52.72,19.77,3.216,273.2,13 / 18,9096997,2019-08-18 17:45:19:534,-0.3244,-0.6728,10.2025,-0.4793,-0.6541,9.7731,-0.0038,-0.0215,0.0008
90959,47.132675,-1.856241,52.72,19.77,3.216,273.2,14 / 20,9097097,2019-08-18 17:45:19:634,-0.2645,-0.6021,10.3492,-0.4455,-0.6586,9.7744,-0.0079,-0.0198,-0.0001
90960,47.132675,-1.856241,52.72,19.77,3.216,273.2,14 / 20,9097197,2019-08-18 17:45:19:734,-0.1717,-0.6363,10.351,-0.4338,-0.6616,9.7747,-0.0104,-0.0138,0.002
90961,47.132675,-1.856241,52.72,19.77,3.216,273.2,14 / 20,9097297,2019-08-18 17:45:19:834,-0.3621,-0.4812,10.0481,-0.4236,-0.6655,9.7749,-0.0103,-0.0154,0.0018
90962,47.132675,-1.856241,52.72,19.77,3.216,273.2,14 / 20,9097396,2019-08-18 17:45:19:933,-0.1622,-0.7183,9.7411,-0.3876,-0.6825,9.7752,-0.0171,-0.0226,-0.0002
90963,47.132675,-1.856241,52.72,19.77,3.216,273.2,14 / 20,9097497,2019-08-18 17:45:20:034,-0.1167,-0.5764,9.938,-0.3712,-0.6914,9.7752,-0.0265,-0.0045,0.0012
90964,47.132675,-1.856241,52.72,19.77,3.216,273.2,14 / 20,9097597,2019-08-18 17:45:20:134,-0.2549,-0.5968,9.7824,-0.3555,-0.7172,9.7739,-0.0307,-0.0039,0.0008
90965,47.132675,-1.856241,52.72,19.77,3.216,273.2,14 / 20,9097697,2019-08-18 17:45:20:234,-0.1161,-0.7626,10.0739,-0.3517,-0.7369,9.7726,-0.0242,-0.0081,-0.0003
90966,47.132675,-1.856241,52.72,19.77,3.216,273.2,14 / 20,9097797,2019-08-18 17:45:20:334,-0.1017,-0.7195,10.1762,-0.3378,-0.7594,9.7714,-0.0192,-0.0126,0.0001
90967,47.132675,-1.856241,52.72,19.77,3.216,273.2,14 / 20,9097897,2019-08-18 17:45:20:434,-0.3549,-0.7907,9.4328,-0.3236,-0.7724,9.7708,-0.0255,-0.0128,0.002
90968,47.132675,-1.856241,52.72,19.77,3.216,273.2,14 / 20,9097997,2019-08-18 17:45:20:534,-0.3573,-0.7637,9.3269,-0.3132,-0.8057,9.7685,-0.0332,-0.0009,0.0013
90969,47.132675,-1.856241,52.72,19.77,3.216,273.2,14 / 21,9098097,2019-08-18 17:45:20:634,-0.3256,-1.008,9.352,-0.3219,-0.83,9.7662,-0.0382,0.0291,0.001
90970,47.132675,-1.856241,52.72,19.77,3.216,273.2,14 / 21,9098197,2019-08-18 17:45:20:734,-0.6218,-0.8152,10.0918,-0.3608,-0.8807,9.7604,-0.0232,0.0182,0.001
90971,47.132675,-1.856241,52.72,19.77,3.216,273.2,14 / 21,9098297,2019-08-18 17:45:20:834,-0.6608,-0.8942,10.2738,-0.3627,-0.8897,9.7595,0.0113,-0.0195,0.0051
90972,47.132675,-1.856241,52.72,19.77,3.216,273.2,14 / 21,9098398,2019-08-18 17:45:20:935,-0.741,-0.8912,10.7849,-0.3426,-0.8709,9.7619,0.0217,-0.03,0.0093
90973,47.132675,-1.856241,52.72,19.77,3.216,273.2,14 / 21,9098497,2019-08-18 17:45:21:034,-0.8271,-0.5135,10.6437,-0.3326,-0.8571,9.7635,0.019,-0.022,0.0201
90974,47.132675,-1.856241,52.72,19.77,3.216,273.2,14 / 21,9098597,2019-08-18 17:45:21:134,-0.6572,-0.7925,9.6291,-0.3196,-0.8324,9.766,-0.0084,0.0042,0.0219
90975,47.132675,-1.856241,52.72,19.77,3.216,273.2,14 / 21,9098697,2019-08-18 17:45:21:234,-0.7439,-0.2783,9.0342,-0.3273,-0.8312,9.7659,-0.032,0.0185,0.0197
90976,47.132675,-1.856241,52.72,19.77,3.216,273.2,14 / 21,9098797,2019-08-18 17:45:21:334,-0.7613,-0.5357,9.6082,-0.3672,-0.8692,9.7612,-0.0416,0.0224,0.0206
90977,47.132675,-1.856241,52.72,19.77,3.216,273.2,14 / 21,9098897,2019-08-18 17:45:21:434,-0.5261,-0.6674,10.524,-0.3719,-0.8771,9.7603,0.0076,-0.0401,0.0201
90978,47.132675,-1.856241,52.72,19.77,3.216,273.2,14 / 21,9098997,2019-08-18 17:45:21:534,-0.4465,-0.4268,10.2301,-0.3214,-0.8314,9.7661,0.0462,-0.0305,0.0323
90979,47.132675,-1.856241,52.72,19.77,3.216,273.2,15 / 21,9099097,2019-08-18 17:45:21:634,-0.4219,-0.31,9.8213,-0.3079,-0.788,9.7701,0.0276,0.0045,0.0384
90980,47.132675,-1.856241,52.72,19.77,3.216,273.2,15 / 21,9099198,2019-08-18 17:45:21:735,-0.4949,0.0305,9.4777,-0.3342,-0.7539,9.7719,-0.0021,0.0355,0.0402
90981,47.132675,-1.856241,52.72,19.77,3.216,273.2,15 / 21,9099297,2019-08-18 17:45:21:834,-0.3752,-0.0647,9.3185,-0.3732,-0.7403,9.7715,-0.0107,0.0288,0.0397
90982,47.132675,-1.856241,52.72,19.77,3.216,273.2,15 / 21,9099397,2019-08-18 17:45:21:934,-0.407,-0.1329,9.6896,-0.4056,-0.7261,9.7713,0.0001,0.0014,0.0391
90983,47.132675,-1.856241,52.72,19.77,3.216,273.2,15 / 21,9099497,2019-08-18 17:45:22:034,-0.5374,-0.1784,10.1355,-0.403,-0.7143,9.7723,0.0069,-0.0097,0.0387
90984,47.132675,-1.856241,52.72,19.77,3.216,273.2,15 / 21,9099597,2019-08-18 17:45:22:134,-0.4333,0.0988,10.0338,-0.3958,-0.6721,9.7756,0.0126,-0.008,0.0459
90985,47.132675,-1.856241,52.72,19.77,3.216,273.2,15 / 21,9099697,2019-08-18 17:45:22:234,-0.4812,0.4914,10.1894,-0.3983,-0.6522,9.7768,-0.0039,0.0076,0.0541
90986,47.132675,-1.856241,52.72,19.77,3.216,273.2,15 / 21,9099797,2019-08-18 17:45:22:334,-0.4806,0.3418,9.9889,-0.4206,-0.6175,9.7782,-0.0046,0.0078,0.0591
90987,47.132675,-1.856241,52.72,19.77,3.216,273.2,15 / 21,9099897,2019-08-18 17:45:22:434,-0.5045,0.4842,9.8919,-0.4296,-0.6013,9.7788,-0.0036,-0.002,0.0645
90988,47.132675,-1.856241,52.72,19.77,3.216,273.2,15 / 21,9099997,2019-08-18 17:45:22:534,-0.6003,0.6219,9.9362,-0.4352,-0.5688,9.7805,-0.0059,-0.0045,0.0636
90989,47.132675,-1.856241,52.72,19.77,3.216,273.2,Dec-18,9100097,2019-08-18 17:45:22:634,-0.6967,0.3579,9.7482,-0.4354,-0.5601,9.781,-0.0029,-0.0048,0.0655
90990,47.13272,-1.858545,55.85,19.48,3.216,268.7,Dec-18,9100197,2019-08-18 17:45:22:734,-0.4255,0.1646,9.771,-0.4522,-0.5196,9.7824,-0.0081,0.0104,0.0669
90991,47.13272,-1.858545,55.85,19.48,3.216,268.7,Dec-18,9100297,2019-08-18 17:45:22:834,-0.5189,0.6213,9.6046,-0.4571,-0.4994,9.7833,-0.0042,-0.0017,0.0654
90992,47.13272,-1.858545,55.85,19.48,3.216,268.7,Dec-18,9100398,2019-08-18 17:45:22:935,-0.6105,0.7308,10.1457,-0.4544,-0.4855,9.7841,-0.0083,-0.0113,0.064
90993,47.13272,-1.858545,55.85,19.48,3.216,268.7,Dec-18,9100497,2019-08-18 17:45:23:034,-0.5788,0.2909,10.0984,-0.4452,-0.454,9.786,-0.0123,-0.0209,0.062
90994,47.13272,-1.858545,55.85,19.48,3.216,268.7,Dec-18,9100597,2019-08-18 17:45:23:134,-0.644,0.516,10.3905,-0.4393,-0.4453,9.7867,0.0103,0.0017,0.0631
90995,47.13272,-1.858545,55.85,19.48,3.216,268.7,Dec-18,9100698,2019-08-18 17:45:23:235,-0.7511,0.4908,10.193,-0.4314,-0.4022,9.7889,0.0059,-0.0187,0.062
90996,47.13272,-1.858545,55.85,19.48,3.216,268.7,Dec-18,9100797,2019-08-18 17:45:23:334,-1.0396,0.7171,10.6006,-0.4227,-0.3839,9.79,0.0171,-0.0127,0.0644
90997,47.13272,-1.858545,55.85,19.48,3.216,268.7,Dec-18,9100897,2019-08-18 17:45:23:434,-0.6703,0.5357,10.3205,-0.4224,-0.3261,9.7921,-0.0082,-0.0294,0.0627
90998,47.13272,-1.858545,55.85,19.48,3.216,268.7,Dec-18,9100997,2019-08-18 17:45:23:534,-0.6685,0.5716,9.4597,-0.4105,-0.316,9.793,-0.0229,-0.0016,0.0623
90999,47.13272,-1.858545,55.85,19.48,3.216,268.7,15 / 20,9101097,2019-08-18 17:45:23:634,-0.7014,0.3143,9.61,-0.4076,-0.3073,9.7934,-0.0178,0.0015,0.0632
91000,47.13272,-1.858545,55.85,19.48,3.216,268.7,15 / 20,9101197,2019-08-18 17:45:23:734,-0.8912,0.1874,9.8165,-0.413,-0.3021,9.7933,-0.0134,0.0132,0.0627
91001,47.13272,-1.858545,55.85,19.48,3.216,268.7,15 / 20,9101297,2019-08-18 17:45:23:834,-1.2048,0.2047,10.111,-0.4371,-0.2966,9.7924,-0.0123,0.0106,0.0659
91002,47.13272,-1.858545,55.85,19.48,3.216,268.7,15 / 20,9101397,2019-08-18 17:45:23:934,-0.8062,0.1832,10.0361,-0.4508,-0.2837,9.7922,0.0121,-0.0095,0.0651
91003,47.13272,-1.858545,55.85,19.48,3.216,268.7,15 / 20,9101497,2019-08-18 17:45:24:034,-1.0115,0.5255,9.9823,-0.4498,-0.2511,9.7931,-0.005,-0.0208,0.0642
91004,47.13272,-1.858545,55.85,19.48,3.216,268.7,15 / 20,9101597,2019-08-18 17:45:24:134,-0.4698,0.0281,10.0266,-0.4424,-0.2444,9.7936,0.004,-0.015,0.0593
91005,47.13272,-1.858545,55.85,19.48,3.216,268.7,15 / 20,9101697,2019-08-18 17:45:24:234,-0.9738,0.3178,9.7644,-0.4413,-0.2252,9.7941,0.0004,0.0044,0.0559
91006,47.13272,-1.858545,55.85,19.48,3.216,268.7,15 / 20,9101797,2019-08-18 17:45:24:334,-0.6679,0.0533,9.5322,-0.4503,-0.2201,9.7938,0.0035,-0.0004,0.0567
91007,47.13272,-1.858545,55.85,19.48,3.216,268.7,15 / 20,9101897,2019-08-18 17:45:24:434,-0.793,-0.1077,9.7578,-0.4653,-0.1956,9.7937,0.0096,-0.0009,0.056
