,GPS LATITUDE (degrees), GPS LONGITUDE (degrees), GPS ALTITUDE (m), GPS SPEED (Kmh), GPS ACCURACY (m), GPS ORIENTATION (Â°),GPS SATELLITES IN RANGE, TIME SINCE START (ms), DATE (YYYY-MO-DD HH-MI-SS_SSS), ACCELEROMETER X (m/s²) , ACCELEROMETER Y (m/s²), ACCELEROMETER Z (m/s²), GRAVITY X (m/s²), GRAVITY Y (m/s²), GRAVITY Z (m/s²), GYROSCOPE Yaw (rad/s), GYROSCOPE Pitch (rad/s), GYROSCOPE Roll (rad/s), MAGNETIC FIELD X (Î¼T), MAGNETIC FIELD Y (Î¼T), MAGNETIC FIELD Z (Î¼T), ORIENTATION (Yaw) (Â°), ORIENTATION (Pitch) (Â°), ORIENTATION (Roll ) (Â°)
43471,51.65558,-2.432959,80,0.69,9,235.3,13 / 23,4347188,2019-08-31 09:37:58:910,0.294,-0.3069,9.3031,0.0247,0.0226,9.8066,-0.0181,0.0218,0.0774,-22.02,14.73,-46.44,211.0,0.22,2.07
43472,51.65558,-2.432959,80,0.69,9,235.3,13 / 23,4347288,2019-08-31 09:37:59:010,0.0824,-0.0984,9.6738,0.0352,0.0296,9.8065,0.0085,-0.0059,0.0486,-22.02,13.98,-46.44,208.76,0.49,2.12
43473,51.655575,-2.432967,81,0.87,9,233.7,13 / 23,4347388,2019-08-31 09:37:59:110,0.0383,0.1143,9.6895,0.008,0.0062,9.8066,0.0106,0.0091,0.0444,-22.02,14.36,-46.87,208.61,0.55,2.12
43474,51.655575,-2.432967,81,0.87,9,233.7,13 / 23,4347488,2019-08-31 09:37:59:210,0.141,0.0601,9.9988,0.0215,0.0115,9.8066,0.0,0.0154,0.0582,-22.02,14.36,-46.87,208.61,0.55,2.12
43475,51.655575,-2.432967,81,0.87,9,233.7,13 / 23,4347587,2019-08-31 09:37:59:309,-0.0117,-0.2377,9.6142,0.0087,0.0031,9.8066,0.0,0.0154,0.0582,-22.4,13.98,-46.06,208.57,0.69,2.12
43476,51.655575,-2.432967,81,0.87,9,233.7,13 / 23,4347687,2019-08-31 09:37:59:409,0.0337,0.1147,10.0765,0.0171,-0.001,9.8066,-0.0075,-0.0218,0.0561,-22.4,13.98,-46.5,208.57,0.69,2.12
43477,51.655575,-2.432967,81,0.87,9,233.7,13 / 23,4347788,2019-08-31 09:37:59:510,0.0691,-0.2253,9.6437,0.0077,0.0022,9.8066,0.0043,0.0176,0.0507,-22.4,13.98,-46.5,208.59,0.77,2.07
43478,51.655575,-2.432967,81,0.87,9,233.7,13 / 23,4347888,2019-08-31 09:37:59:610,0.0577,-0.0984,9.4364,0.0047,0.004,9.8066,0.0011,-0.0005,0.0465,-22.4,13.98,-46.5,208.56,0.82,2.06
43479,51.655575,-2.432967,81,0.87,9,233.7,13 / 23,4347987,2019-08-31 09:37:59:709,0.0936,0.1122,9.9876,0.0068,0.0078,9.8066,0.0064,0.0059,0.0369,-22.4,13.98,-46.5,208.56,0.82,2.06
43480,51.655575,-2.432967,81,0.87,9,233.7,13 / 23,4348087,2019-08-31 09:37:59:809,0.0292,-0.0709,9.6411,0.003,-0.0069,9.8066,-0.0032,0.0336,0.0539,-22.77,13.61,-46.5,207.46,0.88,2.08
43481,51.655575,-2.432967,81,0.87,9,233.7,13 / 23,4348187,2019-08-31 09:37:59:909,0.1967,0.0412,10.1171,0.0108,-0.0159,9.8066,-0.0075,-0.0144,0.0476,-22.4,14.36,-46.5,208.65,0.89,1.97
43482,51.655575,-2.432967,81,0.87,9,233.7,13 / 23,4348287,2019-08-31 09:38:00:009,0.1682,-0.0108,9.6093,0.011,0.0005,9.8066,0.0096,-0.0186,0.0273,-22.77,13.98,-46.87,207.54,0.95,1.94
43483,51.655575,-2.432967,81,0.87,9,233.7,13 / 23,4348387,2019-08-31 09:38:00:109,0.1183,0.2367,10.1953,0.0019,-0.0002,9.8067,0.0096,-0.0186,0.0273,-22.77,13.98,-46.87,207.54,0.95,1.94
43484,51.655567,-2.432975,81,0.58,9,231.5,13 / 23,4348488,2019-08-31 09:38:00:210,-0.0349,-0.1211,9.7797,0.0093,0.0006,9.8066,-0.0011,0.0336,0.039,-22.4,13.23,-46.44,206.64,0.96,1.95
43485,51.655567,-2.432975,81,0.58,9,231.5,13 / 23,4348588,2019-08-31 09:38:00:310,0.0164,0.0814,9.7752,0.0056,-0.015,9.8066,-0.0053,-0.0368,0.0241,-23.15,13.61,-46.44,207.58,1.01,1.93
43486,51.655567,-2.432975,81,0.58,9,231.5,13 / 23,4348688,2019-08-31 09:38:00:410,0.0554,-0.1861,9.9759,0.015,-0.0248,9.8066,0.0,-0.0165,0.0241,-23.15,13.61,-46.87,207.58,1.01,1.93
43487,51.655567,-2.432975,81,0.58,9,231.5,13 / 23,4348787,2019-08-31 09:38:00:509,0.0871,-0.3631,9.3214,0.0246,-0.0377,9.8065,0.0032,0.0165,0.0209,-23.15,13.61,-46.87,207.58,1.01,1.93
43488,51.655567,-2.432975,81,0.58,9,231.5,13 / 23,4348888,2019-08-31 09:38:00:610,0.0457,-0.3691,9.4149,0.003,0.0005,9.8066,0.0032,-0.0144,0.0209,-22.4,13.98,-46.44,208.99,1.03,1.67
43489,51.655567,-2.432975,81,0.58,9,231.5,13 / 23,4348988,2019-08-31 09:38:00:710,0.0768,0.142,9.7973,0.0059,0.0041,9.8066,0.0053,-0.025,0.0113,-23.9,14.73,-41.5,209.14,1.05,1.67
43490,51.655567,-2.432975,81,0.58,9,231.5,13 / 23,4349088,2019-08-31 09:38:00:810,-0.6663,-0.8955,9.7621,0.0053,0.0058,9.8066,-0.0043,-0.4192,-0.075,-28.65,11.79,-43.12,199.79,1.1,1.68
43491,51.655567,-2.432975,81,0.58,9,231.5,13 / 23,4349189,2019-08-31 09:38:00:911,0.3668,0.1424,9.8408,0.1812,0.083,9.8046,-0.0011,0.0229,0.0177,-28.65,11.79,-43.12,199.79,1.1,1.68
43492,51.655567,-2.432975,81,0.58,9,231.5,13 / 23,4349287,2019-08-31 09:38:01:009,0.3641,0.135,9.8542,0.1199,0.042,9.8058,-0.0011,0.0229,0.0177,-29.02,11.79,-44.0,199.4,1.84,1.67
43493,51.655567,-2.432975,81,0.58,9,231.5,13 / 23,4349388,2019-08-31 09:38:01:110,0.5891,0.0711,9.3712,0.0789,0.0258,9.8063,0.0032,0.0229,0.0124,-27.9,10.29,-44.44,199.4,1.84,1.67
43494,51.655567,-2.432975,81,0.58,9,231.5,13 / 23,4349487,2019-08-31 09:38:01:209,0.7805,0.2968,10.1215,0.1193,0.0392,9.8058,-0.0043,-0.0197,0.006,-27.9,10.29,-44.44,199.4,1.84,1.67
43495,51.655567,-2.432975,81,0.58,9,231.5,13 / 23,4349588,2019-08-31 09:38:01:310,-0.2223,-0.1269,10.1763,-0.0302,-0.0023,9.8066,0.0106,0.0581,0.006,-28.65,8.86,-44.81,193.94,2.57,1.66
43496,51.655567,-2.432975,81,0.58,9,231.5,13 / 23,4349687,2019-08-31 09:38:01:409,-0.8097,-0.1379,9.4183,-0.0873,-0.0122,9.8063,0.0053,0.0101,0.0028,-29.4,9.23,-44.37,194.03,2.4,1.69
43497,51.655567,-2.432975,81,0.58,9,231.5,13 / 23,4349788,2019-08-31 09:38:01:510,-0.5641,-0.2659,9.403,-0.1533,-0.0294,9.8054,0.0,-0.0272,-0.0015,-30.09,9.23,-43.56,194.03,2.4,1.69
43498,51.655567,-2.432975,81,0.58,9,231.5,13 / 23,4349888,2019-08-31 09:38:01:610,-0.1281,-0.1112,8.9855,-0.1517,-0.0357,9.8054,-0.0021,0.0154,0.0156,-30.09,9.23,-43.56,194.03,2.4,1.69
43499,51.655567,-2.432975,81,0.58,9,231.5,13 / 23,4349988,2019-08-31 09:38:01:710,-0.0778,0.1368,9.933,0.0169,-0.0047,9.8066,-0.0032,0.0101,0.0081,-30.15,4.04,-34.94,185.47,1.49,1.7
43500,51.655567,-2.432975,81,0.58,9,231.5,13 / 23,4350088,2019-08-31 09:38:01:810,-0.4156,0.0405,10.0891,-0.0085,-0.0055,9.8066,0.0021,-0.0261,-0.0015,-8.09,1.48,-47.0,177.67,1.43,1.67
43501,51.655567,-2.432975,81,0.58,9,231.5,13 / 23,4350188,2019-08-31 09:38:01:910,-0.3565,0.1176,9.6204,-0.0238,-0.0145,9.8066,0.0021,-0.0261,-0.0015,-9.96,9.23,-43.62,215.07,1.25,1.69
43502,51.655567,-2.432975,81,0.58,9,231.5,13 / 23,4350288,2019-08-31 09:38:02:010,-0.0893,0.0893,10.0549,-0.0333,-0.023,9.8066,0.0064,0.0112,0.0017,-9.96,9.23,-43.62,215.07,1.25,1.69
43503,51.655567,-2.432975,81,0.58,9,231.5,13 / 23,4350387,2019-08-31 09:38:02:109,-0.312,0.0273,9.8869,-0.0059,0.0003,9.8066,-0.0021,0.0186,0.0092,-11.4,-1.83,-30.81,165.83,1.01,1.69
43504,51.655567,-2.432975,81,0.58,9,231.5,13 / 22,4350488,2019-08-31 09:38:02:210,-0.3509,-0.1144,10.0212,-0.0133,-0.0074,9.8066,0.0032,-0.0314,-0.0015,-14.34,8.48,-37.5,205.27,0.98,1.69
43505,51.655567,-2.432975,81,0.58,9,231.5,13 / 22,4350587,2019-08-31 09:38:02:309,-0.2068,-0.232,9.5688,-0.0289,-0.0134,9.8066,-0.0011,0.0016,0.0071,-13.96,8.48,-36.69,205.45,0.8,1.69
43506,51.655567,-2.432975,81,0.58,9,231.5,13 / 22,4350689,2019-08-31 09:38:02:411,-0.1874,-0.1603,9.7236,-0.0107,-0.0038,9.8066,0.0021,-0.0016,0.006,-10.65,1.48,-35.37,205.45,0.8,1.69
43507,51.655567,-2.432975,81,0.58,9,231.5,13 / 22,4350788,2019-08-31 09:38:02:510,-0.2205,-0.0835,9.6978,-0.0291,-0.0098,9.8066,0.0064,-0.0091,0.0017,-10.65,1.48,-35.37,205.45,0.8,1.69
43508,51.655567,-2.432975,81,0.58,9,231.5,13 / 22,4350888,2019-08-31 09:38:02:610,0.0629,-0.1155,9.419,-0.0057,-0.0015,9.8066,0.0064,-0.0091,0.0017,-11.02,1.11,-34.12,179.93,0.62,1.71
43509,51.655567,-2.432975,81,0.58,9,231.5,13 / 22,4350988,2019-08-31 09:38:02:710,0.0729,0.1029,9.82,-0.0081,-0.0044,9.8066,0.0032,0.0101,0.0028,-11.02,1.86,-35.0,179.93,0.62,1.71
43510,51.655567,-2.432975,81,0.58,9,231.5,13 / 22,4351088,2019-08-31 09:38:02:810,-0.2956,-0.086,9.9745,0.0003,-0.0003,9.8067,-0.0053,-0.0101,0.007,-12.52,0.73,-33.31,180.1,0.52,1.7
43511,51.655567,-2.432975,81,0.58,9,231.5,13 / 22,4351189,2019-08-31 09:38:02:911,0.0755,0.1235,10.0409,0.0032,-0.0018,9.8066,-0.0032,-0.0442,0.0007,-12.52,0.73,-33.31,180.1,0.52,1.7
43512,51.655567,-2.432975,81,0.58,9,231.5,13 / 22,4351288,2019-08-31 09:38:03:010,-0.2729,0.0251,9.4945,-0.0006,0.0031,9.8067,-0.0096,0.0336,0.0145,-12.52,0.04,-32.87,175.83,0.54,1.69
43513,51.655567,-2.432975,81,0.58,9,231.5,13 / 22,4351389,2019-08-31 09:38:03:111,-0.0456,0.1759,9.7801,-0.0137,-0.0004,9.8066,0.0043,-0.0389,-0.0057,-12.15,-0.71,-32.94,170.86,0.53,1.7
43514,51.655567,-2.432975,81,0.58,9,231.5,13 / 23,4351487,2019-08-31 09:38:03:209,-0.242,0.0555,9.7504,-0.0299,0.0008,9.8066,-0.0021,0.024,0.0092,-12.15,-2.21,-32.5,166.46,0.36,1.68
43515,51.655567,-2.432975,81,0.58,9,231.5,13 / 23,4351588,2019-08-31 09:38:03:310,-0.2117,-0.0819,9.4098,-0.0158,0.0015,9.8066,-0.0117,0.0282,0.0166,-12.15,-2.21,-32.5,166.46,0.36,1.68
43516,51.655567,-2.432975,81,0.58,9,231.5,13 / 23,4351688,2019-08-31 09:38:03:410,-0.2592,-0.0063,9.8264,-0.0091,0.0014,9.8066,-0.0117,0.0282,0.0166,-12.15,-2.21,-31.69,166.44,0.27,1.67
43517,51.655567,-2.432975,81,0.58,9,231.5,13 / 23,4351789,2019-08-31 09:38:03:511,-0.1373,-0.0845,9.79,-0.0169,0.0029,9.8066,0.0064,-0.0133,0.0028,-12.15,-2.21,-31.69,166.44,0.27,1.67
43518,51.655567,-2.432975,81,0.58,9,231.5,13 / 23,4351888,2019-08-31 09:38:03:610,-0.0627,0.0404,9.8196,-0.0061,0.0012,9.8066,-0.0053,-0.0133,0.007,-12.15,-1.46,-32.06,170.95,0.17,1.66
43519,51.655567,-2.432975,81,0.58,9,231.5,13 / 23,4351988,2019-08-31 09:38:03:710,0.0407,0.0061,9.7635,-0.012,0.0017,9.8066,0.0085,0.008,-0.0004,-12.52,-1.46,-31.69,171.61,0.1,1.66
43520,51.655567,-2.432975,81,0.58,9,231.5,13 / 23,4352087,2019-08-31 09:38:03:809,-0.0173,-0.0499,9.6519,-0.0007,0.0007,9.8067,0.0021,-0.0133,0.0017,-12.52,-1.46,-31.69,171.61,0.1,1.66
43521,51.655567,-2.432975,81,0.58,9,231.5,13 / 23,4352188,2019-08-31 09:38:03:910,-0.059,0.1294,9.4078,0.0018,-0.0008,9.8067,0.0149,0.0144,-0.0036,-12.52,-1.83,-32.12,167.36,0.1,1.66
43522,51.655567,-2.432975,81,0.58,9,231.5,13 / 23,4352288,2019-08-31 09:38:04:010,-0.1146,0.137,9.5203,-0.0007,-0.003,9.8067,-0.0043,-0.0048,0.007,-12.52,-1.46,-32.06,167.36,0.1,1.66
43523,51.655567,-2.432975,81,0.58,9,231.5,13 / 23,4352388,2019-08-31 09:38:04:110,0.0249,0.1361,9.6202,-0.0038,0.0014,9.8066,0.0,0.0069,0.0092,-12.52,-1.83,-31.25,167.52,0.1,1.64
43524,51.655567,-2.432975,81,0.58,9,231.5,13 / 23,4352488,2019-08-31 09:38:04:210,-0.0545,0.0068,9.6751,-0.0086,0.0044,9.8066,-0.0128,-0.008,0.0124,-12.52,-1.83,-31.25,167.52,0.1,1.64
43525,51.655567,-2.432975,81,0.58,9,231.5,13 / 23,4352587,2019-08-31 09:38:04:309,-0.0869,0.0643,9.9034,-0.0063,-0.0005,9.8066,-0.0128,-0.008,0.0124,-12.52,-1.83,-31.69,167.34,0.04,1.66
43526,51.655567,-2.432975,81,0.58,9,231.5,13 / 23,4352691,2019-08-31 09:38:04:413,-0.0195,-0.0018,9.9622,-0.0084,-0.0002,9.8066,0.0021,0.0112,0.0006,-13.27,-1.08,-31.69,171.6,0.01,1.65
43527,51.655567,-2.432975,81,0.58,9,231.5,13 / 23,4352788,2019-08-31 09:38:04:510,-0.0337,-0.1119,10.0536,-0.0159,0.0025,9.8066,0.0074,0.024,0.0028,-13.27,-1.83,-31.69,171.6,0.01,1.65
43528,51.655567,-2.432975,81,0.58,9,231.5,13 / 23,4352888,2019-08-31 09:38:04:610,0.0159,-0.1466,9.8181,-0.0177,0.0034,9.8066,-0.0011,-0.0059,0.0028,-12.9,-1.46,-32.06,171.56,-0.1,1.65
43529,51.655567,-2.432975,81,0.58,9,231.5,13 / 23,4352987,2019-08-31 09:38:04:709,-0.049,0.183,9.569,-0.0016,-0.0027,9.8066,0.0021,-0.0059,0.0028,-12.52,-2.21,-31.69,171.56,-0.1,1.65
43530,51.655567,-2.432975,81,0.58,9,231.5,13 / 23,4353088,2019-08-31 09:38:04:810,0.0444,0.1126,9.6322,-0.0061,-0.0001,9.8066,0.0042,0.0112,0.0017,-12.52,-2.21,-31.69,171.56,-0.1,1.65
43531,51.655567,-2.432975,81,0.58,9,231.5,13 / 23,4353188,2019-08-31 09:38:04:910,0.0334,0.0666,9.5372,0.0022,-0.0046,9.8066,-0.0117,-0.0154,0.0145,-12.52,-1.83,-31.69,167.24,-0.15,1.66
43532,51.655567,-2.432975,81,0.58,9,231.5,13 / 23,4353287,2019-08-31 09:38:05:009,0.1429,0.2171,9.4343,0.0008,-0.0045,9.8066,-0.0117,-0.0154,0.0145,-12.52,-2.14,-31.69,167.3,-0.14,1.64
43533,51.655567,-2.432975,81,0.58,9,231.5,13 / 23,4353388,2019-08-31 09:38:05:110,-0.0784,-0.1345,10.1722,0.0022,0.0001,9.8067,-0.0096,-0.0059,0.007,-12.52,-2.14,-31.69,167.3,-0.14,1.64
43534,51.655567,-2.432975,81,0.58,9,231.5,13 / 23,4353487,2019-08-31 09:38:05:209,0.0568,0.1464,9.4742,-0.0006,-0.0035,9.8067,0.0053,0.0197,0.0049,-12.9,-2.21,-31.69,167.3,-0.13,1.64
43535,51.655567,-2.432975,81,0.58,9,231.5,13 / 23,4353588,2019-08-31 09:38:05:310,0.1486,0.2418,9.4141,0.0031,-0.0011,9.8067,0.0149,0.0176,-0.009,-12.52,-2.14,-31.69,167.31,-0.11,1.64
43536,51.655567,-2.432975,81,0.58,9,231.5,13 / 23,4353687,2019-08-31 09:38:05:409,0.1288,-0.2562,10.0219,0.0017,0.0017,9.8066,-0.0043,-0.0208,0.0123,-12.52,-2.14,-31.69,167.31,-0.11,1.64
43537,51.655567,-2.432975,81,0.58,9,231.5,13 / 23,4353788,2019-08-31 09:38:05:510,0.0803,0.1812,9.6106,0.0068,0.0012,9.8066,-0.0064,-0.0123,0.0123,-12.52,-1.46,-31.62,171.56,-0.07,1.65
43538,51.655567,-2.432975,81,0.58,9,231.5,13 / 23,4353888,2019-08-31 09:38:05:610,0.0167,-0.0533,10.0199,0.0025,0.0073,9.8066,0.0149,0.0144,-0.0026,-11.77,-0.33,-30.0,175.76,-0.06,1.7
43539,51.655567,-2.432975,81,0.58,9,231.5,13 / 23,4353988,2019-08-31 09:38:05:710,0.1394,-0.1389,9.4133,0.0007,0.002,9.8067,0.0096,-0.0101,0.0017,-11.77,-0.33,-30.0,175.76,-0.06,1.7
43540,51.655567,-2.432975,81,0.58,9,231.5,13 / 23,4354088,2019-08-31 09:38:05:810,0.236,-0.1882,9.7852,-0.0002,0.0033,9.8067,0.0096,-0.0101,0.0017,-11.77,2.61,-28.75,190.11,-0.06,1.71
43541,51.655567,-2.432975,81,0.58,9,231.5,13 / 23,4354187,2019-08-31 09:38:05:909,-0.1488,0.2443,9.5692,0.0036,-0.0027,9.8066,0.0053,0.0165,0.0049,-12.9,2.98,-29.56,189.17,-0.05,1.73
43542,51.655567,-2.432975,81,0.58,9,231.5,13 / 23,4354287,2019-08-31 09:38:06:009,-0.1279,0.0046,9.9353,-0.0054,0.0075,9.8066,-0.0021,-0.008,0.0006,-12.9,2.98,-29.56,189.17,-0.05,1.73
43543,51.655567,-2.432975,81,0.58,9,231.5,13 / 23,4354388,2019-08-31 09:38:06:110,0.0986,-0.4059,9.6388,0.0028,-0.0052,9.8066,0.0202,0.008,-0.01,-11.77,-2.89,-29.56,161.81,-0.08,1.78
43544,51.655567,-2.432975,81,0.58,9,231.5,13 / 23,4354488,2019-08-31 09:38:06:210,-0.0079,0.1718,9.721,0.0006,-0.0173,9.8066,-0.0064,-0.0069,0.0134,-12.9,-2.14,-29.19,167.61,-0.04,1.68
43545,51.655567,-2.432975,81,0.58,9,231.5,13 / 23,4354588,2019-08-31 09:38:06:310,-0.0437,0.2036,9.695,-0.0022,0.003,9.8067,-0.0149,-0.0165,0.0123,-12.52,-2.89,-28.75,167.61,-0.04,1.68
43546,51.655567,-2.432975,81,0.58,9,231.5,13 / 23,4354689,2019-08-31 09:38:06:411,0.0269,0.008,9.8683,-0.0007,0.0022,9.8067,0.0138,0.008,-0.0101,-12.52,-2.89,-28.75,167.61,-0.04,1.68
43547,51.655567,-2.432975,81,0.58,9,231.5,13 / 23,4354788,2019-08-31 09:38:06:510,0.1076,-0.3746,9.6702,0.0028,-0.0042,9.8066,-0.0085,-0.0091,0.0091,-12.9,-3.27,-27.5,163.77,-0.02,1.66
43548,51.655567,-2.432975,81,0.58,9,231.5,13 / 23,4354888,2019-08-31 09:38:06:610,-0.0358,-0.1427,9.9108,0.0034,-0.006,9.8066,-0.0085,-0.0091,0.0091,-13.21,-2.89,-27.5,163.71,-0.03,1.69
43549,51.655567,-2.432975,81,0.58,9,231.5,13 / 23,4354988,2019-08-31 09:38:06:710,0.0941,-0.0828,9.7025,0.0069,-0.011,9.8066,-0.0096,-0.0016,-0.0037,-13.21,-2.89,-27.5,163.71,-0.03,1.69
43550,51.655567,-2.432975,81,0.58,9,231.5,13 / 23,4355087,2019-08-31 09:38:06:809,0.014,0.123,9.6476,0.0021,0.0031,9.8066,-0.0139,-0.0122,0.0049,-13.59,-3.64,-27.06,161.19,0.03,1.64
43551,51.655567,-2.432975,81,0.58,9,231.5,13 / 23,4355188,2019-08-31 09:38:06:910,0.0589,-0.2572,9.6541,0.0048,-0.0052,9.8066,0.0074,0.0133,-0.0005,-13.59,-3.27,-26.69,161.19,0.03,1.64
43552,51.655567,-2.432975,81,0.58,9,231.5,13 / 23,4355288,2019-08-31 09:38:07:010,0.0953,0.1201,9.9385,0.0062,-0.0033,9.8066,0.0149,-0.0112,-0.0101,-13.59,-4.02,-26.69,161.23,0.07,1.63
43553,51.655567,-2.432975,81,0.58,9,231.5,13 / 23,4355389,2019-08-31 09:38:07:111,0.0131,0.0088,9.75,0.0045,-0.0098,9.8066,0.0117,0.0101,-0.0101,-13.64,-4.41,-26.35,161.43,0.11,1.59
43554,51.655567,-2.432975,81,0.58,9,231.5,13 / 23,4355488,2019-08-31 09:38:07:210,0.1311,-0.3139,9.7522,0.0001,0.0003,9.8067,-0.0181,-0.0176,-0.0005,-13.32,-4.74,-26.46,161.43,0.11,1.59
43555,51.655567,-2.432975,81,0.58,9,231.5,13 / 23,4355587,2019-08-31 09:38:07:309,0.0461,0.1762,9.6857,0.0048,-0.0031,9.8066,-0.0171,-0.0261,-0.0005,-13.32,-4.74,-26.46,161.43,0.11,1.59
43556,51.655567,-2.432975,81,0.58,9,231.5,13 / 23,4355688,2019-08-31 09:38:07:410,0.0976,0.1775,9.8131,0.0116,-0.0042,9.8066,-0.0171,-0.0261,-0.0005,-13.62,-4.72,-26.31,157.9,0.18,1.59
43557,51.655567,-2.432975,81,0.58,9,231.5,13 / 23,4355788,2019-08-31 09:38:07:510,0.014,-0.0789,9.7655,0.0027,-0.0005,9.8067,-0.0064,0.0101,0.0006,-13.49,-4.49,-26.42,157.9,0.18,1.59
43558,51.655567,-2.432975,81,0.58,9,231.5,13 / 23,4355888,2019-08-31 09:38:07:610,0.0466,0.1115,9.8784,0.0086,-0.0011,9.8066,0.0181,0.0101,-0.0175,-13.49,-4.49,-26.42,157.9,0.18,1.59
43559,51.655567,-2.432975,81,0.58,9,231.5,13 / 23,4355988,2019-08-31 09:38:07:710,0.0026,0.0867,9.798,0.0016,-0.0079,9.8066,0.0224,0.0165,-0.0154,-13.62,-4.72,-26.31,157.91,0.23,1.6
43560,51.655567,-2.432975,81,0.58,9,231.5,13 / 23,4356088,2019-08-31 09:38:07:810,0.0528,-0.3174,9.692,0.0044,-0.0008,9.8066,-0.0107,-0.0059,-0.0037,-13.64,-4.41,-26.35,157.91,0.23,1.6
43561,51.655567,-2.432975,81,0.58,9,231.5,13 / 23,4356188,2019-08-31 09:38:07:910,0.0228,0.281,9.8643,0.0011,-0.0015,9.8067,-0.0096,-0.0016,-0.0079,-14.43,-4.87,-25.85,157.92,0.26,1.61
43562,51.655567,-2.432975,81,0.58,9,231.5,13 / 23,4356288,2019-08-31 09:38:08:010,0.0236,-0.0571,9.8621,0.0029,0.0011,9.8067,-0.0192,-0.0197,0.0017,-14.43,-4.87,-25.85,157.92,0.26,1.61
43563,51.655567,-2.432975,81,0.58,9,231.5,13 / 23,4356388,2019-08-31 09:38:08:110,-0.0026,0.1999,9.6245,-0.0029,0.0036,9.8066,0.0011,0.0272,-0.0069,-15.3,-6.62,-24.94,153.0,0.27,1.62
43564,51.655563,-2.432973,81,0.0,9,231.5,13 / 23,4356487,2019-08-31 09:38:08:209,0.0338,-0.0775,9.8952,-0.006,-0.0052,9.8066,0.0011,0.0272,-0.0069,-14.74,-7.96,-24.89,150.11,0.25,1.57
43565,51.655563,-2.432973,81,0.0,9,231.5,13 / 23,4356588,2019-08-31 09:38:08:310,0.0672,0.1903,9.8291,-0.0039,0.0093,9.8066,0.0117,-0.0122,-0.0154,-14.74,-7.96,-24.89,150.11,0.25,1.57
43566,51.655563,-2.432973,81,0.0,9,231.5,13 / 23,4356688,2019-08-31 09:38:08:410,0.0101,0.2214,9.6331,-0.0031,0.0119,9.8066,0.017,0.0346,-0.0165,-12.46,-8.09,-26.06,144.16,0.2,1.63
43567,51.655563,-2.432973,81,0.0,9,231.5,13 / 23,4356788,2019-08-31 09:38:08:510,-0.0305,-0.1533,9.9662,-0.0023,0.0081,9.8066,-0.0096,-0.0133,-0.0005,-13.07,-6.67,-26.16,149.35,0.18,1.66
43568,51.655563,-2.432973,81,0.0,9,231.5,13 / 23,4356888,2019-08-31 09:38:08:610,-0.0231,0.0612,9.5869,-0.0068,0.0034,9.8066,-0.0096,-0.0247,0.0016,-13.07,-6.67,-26.16,149.35,0.18,1.66
43569,51.655563,-2.432973,81,0.0,9,231.5,13 / 23,4356988,2019-08-31 09:38:08:710,-0.0842,0.0685,9.6451,-0.0025,-0.0027,9.8066,0.0096,0.0094,-0.0047,-11.4,-5.08,-27.5,152.42,0.14,1.66
43570,51.655563,-2.432973,81,0.0,9,231.5,13 / 23,4357088,2019-08-31 09:38:08:810,-0.0207,-0.0924,10.0921,-0.0036,0.0038,9.8066,0.0011,0.0083,0.0038,-12.16,-6.21,-26.71,150.63,0.11,1.67
43571,51.655563,-2.432973,81,0.0,9,231.5,13 / 23,4357188,2019-08-31 09:38:08:910,0.0177,0.0893,9.557,0.0004,0.0013,9.8067,0.0011,0.0083,0.0038,-12.16,-6.21,-26.71,150.63,0.11,1.67
43572,51.655563,-2.432973,81,0.0,9,231.5,13 / 23,4357288,2019-08-31 09:38:09:010,-0.2705,-0.1149,9.833,-0.0004,0.0043,9.8066,-0.0032,-0.0045,0.0091,-13.36,-10.64,-24.66,138.05,0.11,1.67
43573,51.655563,-2.432973,81,0.0,9,231.5,13 / 23,4357387,2019-08-31 09:38:09:109,-0.156,0.1669,9.4252,-0.0108,0.0241,9.8066,0.0043,0.0456,0.0187,-19.84,-10.21,-27.5,151.58,-0.03,1.74
43574,51.655563,-2.432973,81,0.0,9,231.5,13 / 23,4357488,2019-08-31 09:38:09:210,-0.0137,0.0712,9.7585,-0.013,0.0046,9.8066,0.0021,0.0094,0.0059,-19.84,-10.21,-27.5,151.58,-0.03,1.74
43575,51.655563,-2.432973,81,0.0,9,231.5,13 / 23,4357588,2019-08-31 09:38:09:310,-0.1532,0.036,9.9006,-0.0202,0.0088,9.8066,0.0032,0.0318,0.008,-23.52,-9.89,-28.31,155.62,-0.16,1.73
43576,51.655563,-2.432973,81,0.0,9,231.5,13 / 23,4357687,2019-08-31 09:38:09:409,-0.0671,0.1145,9.5771,-0.0136,0.0066,9.8066,0.0,-0.0332,0.0091,-21.65,-9.14,-28.75,155.73,-0.26,1.71
43577,51.655563,-2.432973,81,0.0,9,231.5,13 / 23,4357788,2019-08-31 09:38:09:510,-0.0083,-0.0721,9.8787,-0.0264,0.0138,9.8066,-0.0011,0.0297,0.0123,-21.65,-9.14,-28.75,155.73,-0.26,1.71
43578,51.655563,-2.432973,81,0.0,9,231.5,13 / 23,4357888,2019-08-31 09:38:09:610,-0.2232,-0.0326,9.7345,-0.0093,0.0069,9.8066,-0.0011,-0.0034,0.0112,-20.21,-9.52,-28.75,151.22,-0.43,1.72
43579,51.655563,-2.432973,81,0.0,9,231.5,13 / 23,4357987,2019-08-31 09:38:09:709,-0.0338,0.1516,9.6057,-0.0101,0.0111,9.8066,-0.0011,-0.0034,0.0112,-16.15,-12.46,-27.5,140.91,-0.5,1.73
43580,51.655563,-2.432973,81,0.0,9,231.5,13 / 23,4358088,2019-08-31 09:38:09:810,-0.1184,0.0824,9.6512,-0.0149,0.0139,9.8066,0.0,0.0009,0.0005,-16.9,-13.52,-26.25,140.91,-0.5,1.73
43581,51.655563,-2.432973,81,0.0,9,231.5,13 / 23,4358188,2019-08-31 09:38:09:910,0.1289,0.0633,9.8703,-0.0253,0.0144,9.8066,0.0011,-0.0098,0.0133,-16.9,-13.52,-26.25,140.91,-0.5,1.73
43582,51.655563,-2.432973,81,0.0,9,231.5,13 / 23,4358288,2019-08-31 09:38:10:010,-0.1494,0.1738,9.8559,-0.0091,0.0101,9.8066,-0.0032,-0.0354,0.0069,-9.21,-16.83,-27.06,116.04,-0.66,1.7
43583,51.655563,-2.432973,81,0.0,9,231.5,13 / 23,4358388,2019-08-31 09:38:10:110,-0.2248,0.3929,9.4601,-0.0178,0.0344,9.8066,-0.0085,0.052,0.0155,0.35,-18.71,-30.37,88.68,-0.89,1.7
43584,51.655563,-2.432973,81,0.0,9,231.5,13 / 23,4358488,2019-08-31 09:38:10:210,0.0138,0.0796,9.9803,-0.004,0.0682,9.8064,-0.0053,-0.1025,0.0123,0.35,-18.71,-30.37,88.68,-0.89,1.7
43585,51.655563,-2.432973,81,0.0,9,231.5,13 / 23,4358587,2019-08-31 09:38:10:309,0.0993,-0.0928,8.9942,0.0074,0.0157,9.8066,-0.0043,-0.0109,0.008,3.98,-18.64,-34.12,76.62,-1.29,1.66
43586,51.655563,-2.432973,81,0.0,9,231.5,13 / 23,4358688,2019-08-31 09:38:10:410,-0.2318,-0.6092,9.0771,-0.0033,-0.0093,9.8066,-0.0043,-0.0109,0.008,5.1,-5.46,-52.69,46.8,-1.23,1.66
43587,51.655563,-2.432973,81,0.0,9,231.5,13 / 23,4358788,2019-08-31 09:38:10:510,-0.5196,-0.4933,9.9108,-0.0411,-0.0362,9.8065,-0.0064,0.0072,0.0123,-12.9,14.73,-54.75,46.8,-1.23,1.66
43588,51.655563,-2.432973,81,0.0,9,231.5,13 / 23,4358888,2019-08-31 09:38:10:610,0.0498,-0.2229,10.342,-0.0324,-0.0308,9.8065,-0.0011,-0.0066,-0.0005,-12.9,14.73,-54.75,46.8,-1.23,1.66
43589,51.655563,-2.432973,81,0.0,9,231.5,13 / 23,4358988,2019-08-31 09:38:10:710,-0.0929,-0.2042,9.8481,-0.0125,-0.0082,9.8066,0.0,0.0009,0.0069,-26.84,18.73,-44.87,214.02,-0.97,1.64
43590,51.655563,-2.432973,81,0.0,9,231.5,13 / 23,4359088,2019-08-31 09:38:10:810,0.2109,0.1637,9.3522,0.0159,0.0185,9.8066,-0.0011,-0.0332,0.008,-27.9,18.73,-45.25,213.1,-1.06,1.64
43591,51.655563,-2.432973,81,0.0,9,231.5,13 / 23,4359188,2019-08-31 09:38:10:910,0.2547,0.1527,9.9373,0.0347,0.0299,9.8065,0.0011,-0.0087,-0.0005,-27.9,18.73,-45.25,213.1,-1.06,1.64
43592,51.655563,-2.432973,81,0.0,9,231.5,13 / 23,4359288,2019-08-31 09:38:11:010,-0.0699,-0.1821,9.75,-0.002,-0.0017,9.8067,-0.0032,0.0232,0.0133,-23.52,18.36,-42.37,215.6,-0.79,1.68
43593,51.655563,-2.432973,81,0.0,9,231.5,13 / 23,4359388,2019-08-31 09:38:11:110,-0.0956,0.0465,9.6381,-0.0092,-0.0045,9.8066,-0.0021,0.003,0.0091,-24.21,16.92,-39.87,214.05,-0.85,1.69
43594,51.655563,-2.432973,81,0.0,9,231.5,13 / 23,4359487,2019-08-31 09:38:11:209,0.0561,-0.0533,9.4452,0.0037,-0.0029,9.8066,-0.0021,0.003,0.0091,-24.21,16.92,-39.87,214.05,-0.85,1.69
43595,51.655563,-2.432973,81,0.0,9,231.5,13 / 23,4359588,2019-08-31 09:38:11:310,0.1413,0.1874,9.6717,0.0086,0.0055,9.8066,0.0042,0.004,0.0059,-24.59,17.29,-39.44,213.01,-0.84,1.66
43596,51.655563,-2.432973,81,0.0,9,231.5,13 / 23,4359688,2019-08-31 09:38:11:410,-0.0546,-0.0273,9.5043,0.0076,0.0086,9.8066,-0.0043,0.0019,0.0101,-24.96,17.29,-39.44,212.94,-0.78,1.68
43597,51.655563,-2.432973,81,0.0,9,231.5,13 / 23,4359788,2019-08-31 09:38:11:510,0.1051,0.0771,9.5884,0.0011,0.0007,9.8067,0.0021,-0.0176,0.0027,-24.96,17.29,-39.06,212.93,-0.77,1.68
43598,51.655563,-2.432973,81,0.0,9,231.5,13 / 23,4359888,2019-08-31 09:38:11:610,0.0908,-0.0437,9.6657,0.0205,0.0069,9.8066,-0.0043,-0.0119,0.009,-24.96,17.29,-39.06,212.93,-0.77,1.68
43599,51.655563,-2.432973,81,0.0,9,231.5,13 / 23,4359988,2019-08-31 09:38:11:710,0.1067,0.0373,9.5606,0.0027,0.002,9.8066,-0.0021,0.003,0.008,-24.96,16.92,-34.5,213.05,-0.65,1.65
43600,51.655563,-2.432973,81,0.0,9,231.5,13 / 23,4360087,2019-08-31 09:38:11:809,0.0844,0.1999,9.973,-0.0014,0.0019,9.8067,0.0021,0.0378,0.0122,-25.34,17.67,-37.81,214.51,-0.63,1.65
43601,51.655563,-2.432973,81,0.0,9,231.5,13 / 23,4360188,2019-08-31 09:38:11:910,0.0021,0.0288,9.8898,-0.0025,0.0008,9.8067,0.0021,0.0378,0.0122,-25.34,17.67,-37.81,214.51,-0.63,1.65
43602,51.655563,-2.432973,81,0.0,9,231.5,13 / 23,4360288,2019-08-31 09:38:12:010,0.1387,0.1197,9.6472,0.0001,-0.0008,9.8067,0.0042,-0.0311,-0.0027,-24.96,17.29,-37.81,212.89,-0.64,1.66
43603,51.655563,-2.432973,81,0.0,9,231.5,13 / 23,4360388,2019-08-31 09:38:12:110,0.0828,-0.0338,9.5662,0.0041,0.0044,9.8066,-0.0011,0.0083,0.0122,-24.96,16.54,-38.19,212.86,-0.6,1.67
43604,51.655563,-2.432973,81,0.0,9,231.5,13 / 23,4360487,2019-08-31 09:38:12:209,0.0328,0.1003,9.8963,-0.0006,-0.0027,9.8066,-0.0011,-0.0165,0.0037,-24.96,16.54,-38.19,212.86,-0.6,1.67
43605,51.655563,-2.432973,81,0.0,9,231.5,13 / 23,4360588,2019-08-31 09:38:12:310,0.0762,-0.1597,9.7368,0.0045,0.0002,9.8066,-0.0011,0.0115,0.009,-25.34,17.29,-38.25,212.88,-0.61,1.66
43606,51.655563,-2.432973,81,0.0,9,231.5,13 / 23,4360688,2019-08-31 09:38:12:410,0.0747,0.2341,10.039,0.0092,0.0066,9.8066,-0.0011,0.0211,0.0143,-25.34,17.29,-36.56,212.88,-0.61,1.66
43607,51.655563,-2.432973,81,0.0,9,231.5,13 / 23,4360788,2019-08-31 09:38:12:510,0.0775,-0.127,9.5617,0.0083,0.0135,9.8066,-0.0011,-0.0322,0.0015,-25.34,16.92,-35.75,212.85,-0.53,1.7
43608,51.655563,-2.432973,81,0.0,9,231.5,13 / 23,4360888,2019-08-31 09:38:12:610,0.0901,0.1095,9.7667,0.0011,-0.0014,9.8066,0.0042,-0.0002,0.0026,-25.34,16.92,-35.75,212.85,-0.53,1.7
43609,51.655563,-2.432973,81,0.0,9,231.5,13 / 23,4360988,2019-08-31 09:38:12:710,0.0574,0.1042,9.765,0.0029,-0.0004,9.8067,0.0042,-0.0002,0.0026,-24.96,16.92,-38.62,212.75,-0.53,1.69
43610,51.655563,-2.432973,81,0.0,9,231.5,13 / 23,4361088,2019-08-31 09:38:12:810,-0.0694,-0.1106,9.8833,-0.0002,0.0005,9.8067,-0.0053,0.0211,0.0111,-25.34,17.29,-38.62,212.75,-0.52,1.68
43611,51.655563,-2.432973,81,0.0,9,231.5,13 / 23,4361188,2019-08-31 09:38:12:910,0.0822,0.1963,9.7962,0.0033,0.0065,9.8066,0.0032,-0.0354,-0.0006,-25.34,16.92,-38.19,212.75,-0.52,1.68
43612,51.655563,-2.432973,81,0.0,9,231.5,13 / 23,4361287,2019-08-31 09:38:13:009,-0.0074,-0.2756,9.5539,0.0012,0.0067,9.8066,-0.0075,0.0101,0.0122,-25.34,16.92,-38.62,212.7,-0.49,1.71
43613,51.655563,-2.432973,81,0.0,9,231.5,13 / 23,4361388,2019-08-31 09:38:13:110,0.1509,-0.0064,9.7763,0.0051,-0.0048,9.8066,0.0,-0.0151,0.0005,-25.34,16.92,-38.62,212.7,-0.49,1.71
43614,51.655563,-2.432973,81,0.0,9,231.5,13 / 23,4361488,2019-08-31 09:38:13:210,-0.0712,-0.1439,9.7596,0.002,-0.001,9.8066,0.0,-0.0023,0.0069,-25.34,17.29,-38.19,212.77,-0.48,1.67
43615,51.655563,-2.432973,81,0.0,9,231.5,13 / 23,4361588,2019-08-31 09:38:13:310,0.1352,-0.068,9.8242,0.0021,0.0005,9.8066,-0.0096,0.0211,0.0154,-24.59,17.29,-39.06,212.77,-0.48,1.67
43616,51.655563,-2.432973,81,0.0,9,231.5,13 / 23,4361688,2019-08-31 09:38:13:410,0.1468,0.0763,9.8602,0.0038,0.0074,9.8066,0.001,0.0019,0.0037,-24.96,16.54,-39.44,212.68,-0.44,1.69
43617,51.655563,-2.432973,81,0.0,9,231.5,13 / 23,4361788,2019-08-31 09:38:13:510,-0.0887,-0.188,9.7927,-0.0057,-0.006,9.8066,0.001,0.0019,0.0037,-24.96,16.54,-39.44,212.68,-0.44,1.69
43618,51.655563,-2.432973,81,0.0,9,231.5,13 / 23,4361888,2019-08-31 09:38:13:610,0.0727,-0.0515,9.5135,0.0031,0.0035,9.8066,0.0032,-0.0279,0.0005,-24.59,16.54,-41.56,212.6,-0.48,1.68
43619,51.655563,-2.432973,81,0.0,9,231.5,13 / 23,4361987,2019-08-31 09:38:13:709,0.1074,0.1796,9.8855,0.009,0.0066,9.8066,-0.0043,0.0222,0.0132,-24.59,16.92,-41.5,212.6,-0.48,1.68
43620,51.655563,-2.432973,81,0.0,9,231.5,13 / 23,4362088,2019-08-31 09:38:13:810,-0.0234,-0.0682,9.6668,0.0002,0.001,9.8067,0.0042,-0.0002,0.0058,-24.27,16.54,-41.12,213.67,-0.42,1.68
43621,51.655563,-2.432973,81,0.0,9,231.5,13 / 23,4362188,2019-08-31 09:38:13:910,0.0967,0.0547,9.8299,0.001,0.0007,9.8067,0.0,-0.0279,0.0005,-24.59,16.54,-41.56,213.67,-0.42,1.68
43622,51.655563,-2.432973,81,0.0,9,231.5,13 / 23,4362288,2019-08-31 09:38:14:010,0.0314,0.0734,9.8074,-0.0005,-0.0015,9.8067,-0.0011,0.02,0.009,-24.59,16.54,-41.56,213.67,-0.42,1.68
43623,51.655563,-2.432973,81,0.0,9,231.5,13 / 23,4362387,2019-08-31 09:38:14:109,-0.0444,0.0321,10.0342,0.0014,0.002,9.8067,0.0032,-0.0279,0.0004,-24.59,16.92,-41.56,212.56,-0.43,1.68
43624,51.655563,-2.432973,81,0.0,9,231.5,13 / 23,4362487,2019-08-31 09:38:14:209,-0.0572,-0.0556,9.5072,0.0018,0.0035,9.8067,0.001,-0.0332,-0.0017,-24.59,16.17,-41.12,210.91,-0.41,1.68
43625,51.655563,-2.432973,81,0.0,9,231.5,13 / 23,4362588,2019-08-31 09:38:14:310,0.0258,0.1865,9.7706,0.0011,0.0042,9.8067,0.001,-0.0332,-0.0017,-24.21,16.17,-41.12,211.93,-0.39,1.7
43626,51.655563,-2.432973,81,0.0,9,231.5,13 / 23,4362687,2019-08-31 09:38:14:409,-0.1353,-0.1244,9.7902,-0.0014,-0.0032,9.8066,-0.0064,0.019,0.0164,-24.21,16.17,-41.12,211.93,-0.39,1.7
43627,51.655563,-2.432973,81,0.0,9,231.5,13 / 23,4362787,2019-08-31 09:38:14:509,-0.0085,-0.0782,9.6088,0.003,-0.0012,9.8067,0.0053,-0.0194,0.0004,-26.46,16.54,-42.75,211.47,-0.41,1.69
43628,51.655563,-2.432973,81,0.0,9,231.5,13 / 23,4362888,2019-08-31 09:38:14:610,0.0635,0.1439,9.9262,0.0049,0.0024,9.8066,0.0021,0.019,0.0132,-25.34,16.54,-42.31,211.47,-0.41,1.69
43629,51.655563,-2.432973,81,0.0,9,231.5,13 / 23,4362988,2019-08-31 09:38:14:710,0.0306,-0.1332,9.4747,0.0028,0.0055,9.8066,0.0032,-0.0386,-0.0017,-24.96,16.54,-41.94,212.49,-0.38,1.71
43630,51.655563,-2.432973,81,0.0,9,231.5,13 / 23,4363087,2019-08-31 09:38:14:809,0.0838,0.1014,9.7312,0.0024,-0.0016,9.8067,-0.0064,0.0179,0.0132,-24.59,16.17,-42.37,210.81,-0.39,1.72
43631,51.655563,-2.432973,81,0.0,9,231.5,13 / 23,4363188,2019-08-31 09:38:14:910,0.1304,0.1093,9.7818,0.0074,0.0026,9.8066,-0.0064,0.0179,0.0132,-24.96,16.17,-43.19,210.81,-0.39,1.72
43632,51.655563,-2.432973,81,0.0,9,231.5,13 / 23,4363288,2019-08-31 09:38:15:010,-0.1047,-0.064,9.8298,0.0044,0.0018,9.8066,0.001,-0.0055,0.0047,-24.96,16.17,-42.75,210.75,-0.36,1.71
43633,51.655563,-2.432973,81,0.0,9,231.5,13 / 23,4363388,2019-08-31 09:38:15:110,0.0443,0.0168,9.641,0.0007,0.0027,9.8067,0.0,-0.029,0.0015,-25.34,16.54,-42.37,210.75,-0.36,1.71
43634,51.655563,-2.432973,81,0.0,9,231.5,13 / 23,4363488,2019-08-31 09:38:15:210,0.1439,0.1887,10.1478,0.0036,0.0039,9.8066,0.0032,-0.013,0.0026,-25.34,16.54,-42.37,210.75,-0.36,1.71
43635,51.655563,-2.432973,81,0.0,9,231.5,13 / 23,4363588,2019-08-31 09:38:15:310,0.1329,0.0098,9.6886,-0.0002,-0.0013,9.8067,0.0042,0.0073,0.0079,-25.34,16.17,-43.12,210.71,-0.33,1.72
43636,51.655563,-2.432973,81,0.0,9,231.5,13 / 23,4363688,2019-08-31 09:38:15:410,-0.0288,0.1127,10.0957,-0.0024,-0.0026,9.8066,0.0032,-0.0311,0.0004,-25.34,16.17,-42.75,210.73,-0.35,1.72
43637,51.655563,-2.432973,81,0.0,9,231.5,13 / 23,4363788,2019-08-31 09:38:15:510,0.0653,-0.0302,9.6113,0.0035,0.0034,9.8067,-0.0053,0.0126,0.0121,-25.34,16.17,-42.75,210.73,-0.35,1.72
43638,51.655563,-2.432973,81,0.0,9,231.5,13 / 23,4363888,2019-08-31 09:38:15:610,-0.0681,-0.0233,9.9197,0.0049,0.004,9.8066,0.001,-0.0109,0.0036,-25.34,16.17,-43.12,210.7,-0.32,1.72
43639,51.655563,-2.432973,81,0.0,9,231.5,13 / 23,4363988,2019-08-31 09:38:15:710,-0.0236,-0.0399,9.5262,-0.0018,-0.0029,9.8067,0.001,-0.0109,0.0036,-25.34,16.17,-43.12,210.7,-0.32,1.72
43640,51.655563,-2.432973,81,0.0,9,231.5,13 / 23,4364088,2019-08-31 09:38:15:810,0.0434,0.0977,9.9397,0.001,0.0023,9.8067,0.0064,-0.0098,0.0025,-25.71,15.79,-43.12,209.74,-0.33,1.71
43641,51.655563,-2.432973,81,0.0,9,231.5,13 / 23,4364188,2019-08-31 09:38:15:910,-0.0175,-0.1672,9.5984,-0.0017,-0.0001,9.8067,-0.0053,0.0243,0.0132,-25.34,16.17,-43.19,210.71,-0.33,1.72
43642,51.655563,-2.432973,81,0.0,9,231.5,13 / 23,4364288,2019-08-31 09:38:16:010,0.06,0.0226,9.691,0.0002,0.0035,9.8067,0.0,-0.0236,0.0004,-25.34,16.17,-43.19,210.71,-0.33,1.72
43643,51.655563,-2.432973,81,0.0,9,231.5,13 / 23,4364388,2019-08-31 09:38:16:110,0.0021,-0.0242,9.8776,-0.0037,-0.0043,9.8066,0.0021,-0.0066,0.0025,-25.34,15.79,-42.75,210.68,-0.32,1.74
43644,51.655563,-2.432973,81,0.0,9,231.5,13 / 23,4364488,2019-08-31 09:38:16:210,0.1316,-0.0829,9.6196,0.0004,0.0001,9.8067,-0.0032,0.0009,0.0068,-24.96,15.86,-43.56,210.67,-0.35,1.73
43645,51.655563,-2.432973,81,0.0,9,231.5,13 / 23,4364588,2019-08-31 09:38:16:310,-0.0731,-0.1521,9.7683,0.0013,0.0019,9.8067,0.001,-0.0076,-0.0007,-24.96,15.86,-43.56,210.67,-0.35,1.73
43646,51.655563,-2.432973,81,0.0,9,231.5,13 / 23,4364688,2019-08-31 09:38:16:410,0.1445,0.1172,9.9263,-0.0014,-0.0017,9.8066,0.0042,-0.0151,0.0015,-25.71,16.17,-43.19,209.71,-0.34,1.73
43647,51.655563,-2.432973,81,0.0,9,231.5,13 / 23,4364787,2019-08-31 09:38:16:509,-0.0371,-0.0891,9.7176,0.0001,0.0009,9.8067,0.0042,-0.0151,0.0015,-25.34,15.79,-43.19,210.69,-0.34,1.74
43648,51.655563,-2.432973,81,0.0,9,231.5,13 / 23,4364887,2019-08-31 09:38:16:609,-0.024,0.0873,9.7731,-0.0007,-0.0025,9.8067,-0.0053,0.0286,0.0121,-24.96,16.17,-43.12,210.72,-0.35,1.73
43649,51.655563,-2.432973,81,0.0,9,231.5,13 / 23,4364988,2019-08-31 09:38:16:710,-0.08,0.1526,10.0105,0.0,0.002,9.8067,-0.0043,-0.0012,0.0057,-24.96,16.17,-43.12,210.72,-0.35,1.73
43650,51.655563,-2.432973,81,0.0,9,231.5,13 / 23,4365087,2019-08-31 09:38:16:809,-0.1199,-0.0099,9.5394,0.0013,0.0037,9.8067,0.0053,0.0052,0.0025,-25.71,16.17,-43.19,209.7,-0.33,1.74
43651,51.655563,-2.432973,81,0.0,9,231.5,13 / 23,4365188,2019-08-31 09:38:16:910,0.036,0.0892,9.7945,-0.003,-0.0042,9.8066,-0.0053,0.0265,0.0121,-25.34,16.17,-43.12,210.68,-0.32,1.74
43652,51.655563,-2.432973,81,0.0,9,231.5,13 / 23,4365288,2019-08-31 09:38:17:010,-0.0868,-0.0915,9.4496,-0.002,-0.0016,9.8066,-0.0011,0.0009,0.0014,-25.34,16.17,-43.12,210.68,-0.32,1.74
43653,51.655563,-2.432973,81,0.0,9,231.5,13 / 23,4365388,2019-08-31 09:38:17:110,0.0298,0.1393,9.8311,-0.002,0.0001,9.8067,0.0042,-0.0076,0.0014,-26.09,16.17,-43.12,209.71,-0.34,1.74
43654,51.655563,-2.432973,81,0.0,9,231.5,13 / 23,4365488,2019-08-31 09:38:17:210,-0.0101,-0.0924,9.6192,-0.0014,0.0007,9.8067,-0.0021,0.0169,0.0078,-24.59,16.17,-41.94,210.73,-0.34,1.75
43655,51.655563,-2.432973,81,0.0,9,231.5,13 / 23,4365588,2019-08-31 09:38:17:310,0.0815,0.0497,9.9132,0.0009,-0.0008,9.8066,-0.0021,0.0169,0.0078,-24.59,16.17,-41.87,210.74,-0.34,1.74
43656,51.655563,-2.432973,81,0.0,9,231.5,13 / 23,4365687,2019-08-31 09:38:17:409,0.0112,-0.0722,9.6802,0.0006,0.0013,9.8067,-0.0021,0.0094,0.0068,-24.59,16.17,-41.87,210.74,-0.34,1.74
43657,51.655563,-2.432973,81,0.0,9,231.5,13 / 23,4365788,2019-08-31 09:38:17:510,0.0853,-0.0098,9.876,-0.003,-0.0024,9.8067,0.0021,0.0297,0.0078,-24.59,16.54,-41.87,212.41,-0.33,1.74
43658,51.655563,-2.432973,81,0.0,9,231.5,13 / 23,4365888,2019-08-31 09:38:17:610,0.0121,-0.1477,9.5415,-0.0003,0.0002,9.8067,0.001,-0.0247,-0.0007,-24.21,16.54,-41.5,213.53,-0.34,1.75
43659,51.655563,-2.432973,81,0.0,9,231.5,13 / 23,4365988,2019-08-31 09:38:17:710,0.1025,0.0524,9.7779,-0.0001,0.0,9.8067,-0.0032,-0.0055,0.0057,-24.59,16.17,-41.94,210.73,-0.34,1.75
43660,51.655563,-2.432973,81,0.0,9,231.5,13 / 23,4366088,2019-08-31 09:38:17:810,0.0025,0.0361,10.017,-0.0013,-0.0019,9.8067,0.0021,0.0339,0.0099,-24.59,16.17,-41.94,210.73,-0.34,1.75
43661,51.655563,-2.432973,81,0.0,9,231.5,13 / 23,4366188,2019-08-31 09:38:17:910,-0.0188,-0.0341,9.8825,-0.002,-0.0011,9.8067,0.0,-0.0119,0.0014,-24.59,16.54,-41.94,212.41,-0.32,1.74
43662,51.655563,-2.432973,81,0.0,9,231.5,13 / 23,4366288,2019-08-31 09:38:18:010,0.0236,0.0015,9.7018,-0.001,-0.0015,9.8067,0.0,-0.0119,0.0014,-24.59,16.54,-41.94,212.41,-0.32,1.74
43663,51.655563,-2.432973,81,0.0,9,231.5,13 / 23,4366388,2019-08-31 09:38:18:110,0.0851,0.1079,10.0737,0.0013,0.0001,9.8067,-0.0032,-0.0087,0.0046,-24.59,16.17,-41.94,210.74,-0.33,1.73
43664,51.655563,-2.432973,81,0.0,9,231.5,13 / 23,4366488,2019-08-31 09:38:18:210,-0.0254,-0.0425,9.6858,-0.0014,0.0004,9.8067,0.0042,0.0371,0.0067,-24.59,15.79,-41.94,210.74,-0.33,1.73
43665,51.655563,-2.432973,81,0.0,9,231.5,13 / 23,4366588,2019-08-31 09:38:18:310,0.0552,0.1333,9.8552,-0.0039,-0.0002,9.8066,-0.0011,0.0062,0.0078,-24.96,16.17,-41.94,210.74,-0.33,1.73
43666,51.655563,-2.432973,81,0.0,9,231.5,13 / 23,4366688,2019-08-31 09:38:18:410,0.0343,0.0351,9.6803,-0.0016,0.0028,9.8066,-0.0011,-0.0033,0.0035,-24.96,16.17,-41.94,210.74,-0.33,1.73
43667,51.655563,-2.432973,81,0.0,9,231.5,13 / 23,4366788,2019-08-31 09:38:18:510,0.1541,0.184,9.8856,-0.0024,-0.0035,9.8067,0.0053,0.0201,0.0025,-24.59,16.54,-41.94,212.4,-0.33,1.75
43668,51.655563,-2.432973,81,0.0,9,231.5,13 / 23,4366888,2019-08-31 09:38:18:610,0.0212,-0.0628,9.5768,-0.0024,-0.0035,9.8066,-0.0053,0.0339,0.011,-24.59,16.17,-41.56,212.4,-0.33,1.75
43669,51.655563,-2.432973,81,0.0,9,231.5,13 / 23,4366989,2019-08-31 09:38:18:711,0.0574,0.0108,9.8752,0.0015,0.0016,9.8067,-0.0053,0.0339,0.011,-23.9,16.17,-41.5,211.84,-0.35,1.74
43670,51.655563,-2.432973,81,0.0,9,231.5,13 / 23,4367088,2019-08-31 09:38:18:810,-0.0108,-0.2396,9.5527,0.0023,0.0043,9.8067,0.0,0.0212,0.0067,-24.59,16.17,-41.94,211.84,-0.35,1.74
43671,51.655563,-2.432973,81,0.0,9,231.5,13 / 23,4367188,2019-08-31 09:38:18:910,0.0227,-0.0073,9.6456,-0.002,-0.0027,9.8066,-0.0043,0.0009,0.0046,-24.96,16.17,-41.94,210.71,-0.32,1.75
43672,51.655563,-2.432973,81,0.0,9,231.5,13 / 23,4367288,2019-08-31 09:38:19:010,-0.0316,-0.0924,9.8984,-0.003,-0.003,9.8066,0.0042,-0.0268,-0.0029,-25.34,16.17,-41.5,210.71,-0.32,1.75
43673,51.655563,-2.432973,81,0.0,9,231.5,13 / 23,4367388,2019-08-31 09:38:19:110,-0.0083,-0.1186,9.4014,-0.0039,-0.0043,9.8066,-0.0032,0.0084,0.0078,-25.34,16.17,-41.5,210.71,-0.32,1.75
43674,51.655563,-2.432973,81,0.0,9,231.5,13 / 23,4367488,2019-08-31 09:38:19:210,0.0834,0.1875,9.9496,0.0027,0.0006,9.8067,0.0042,0.0382,0.0057,-24.59,16.17,-42.37,210.75,-0.36,1.74
43675,51.655563,-2.432973,81,0.0,9,231.5,13 / 23,4367588,2019-08-31 09:38:19:310,-0.0668,-0.0216,9.8879,0.001,-0.0019,9.8067,-0.0075,0.0212,0.0142,-24.59,16.17,-42.37,210.75,-0.36,1.74
43676,51.655563,-2.432973,81,0.0,9,231.5,13 / 23,4367688,2019-08-31 09:38:19:410,-0.1295,-0.141,9.725,0.0023,0.0006,9.8067,0.001,-0.0065,0.0046,-24.59,15.79,-41.94,210.74,-0.34,1.74
43677,51.655563,-2.432973,81,0.0,9,231.5,13 / 23,4367788,2019-08-31 09:38:19:510,0.1177,0.0897,9.9174,-0.0003,-0.0003,9.8067,0.0032,-0.0151,-0.0007,-24.59,15.79,-41.94,210.74,-0.34,1.74
43678,51.655563,-2.432973,81,0.0,9,231.5,13 / 23,4367888,2019-08-31 09:38:19:610,-0.0706,-0.1098,9.7307,0.0012,-0.0029,9.8067,-0.0011,0.0254,0.0131,-24.21,16.17,-41.5,211.86,-0.35,1.72
43679,51.655563,-2.432973,81,0.0,9,231.5,13 / 23,4367988,2019-08-31 09:38:19:710,-0.0696,0.126,9.7259,0.0015,0.005,9.8066,-0.0011,0.0254,0.0131,-24.96,15.79,-42.37,210.72,-0.32,1.74
43680,51.655563,-2.432973,81,0.0,9,231.5,13 / 23,4368088,2019-08-31 09:38:19:810,0.0063,0.0697,10.029,0.0026,-0.0009,9.8067,-0.0011,-0.0012,0.0035,-24.96,16.17,-41.94,210.74,-0.34,1.74
43681,51.655563,-2.432973,81,0.0,9,231.5,13 / 23,4368188,2019-08-31 09:38:19:910,-0.0289,-0.0986,9.5742,0.0051,-0.0006,9.8066,0.0021,0.0308,0.0099,-24.96,16.17,-41.94,210.74,-0.34,1.74
43682,51.655563,-2.432973,81,0.0,9,231.5,13 / 23,4368288,2019-08-31 09:38:20:010,-0.0241,0.0949,9.6545,-0.0011,-0.0031,9.8066,0.0032,-0.014,-0.0018,-24.59,16.17,-41.87,210.74,-0.34,1.74
43683,51.655563,-2.432973,81,0.0,9,231.5,13 / 23,4368387,2019-08-31 09:38:20:109,0.0611,0.172,9.8169,0.0009,0.0015,9.8067,-0.0043,0.0233,0.0088,-24.21,16.54,-41.94,213.52,-0.36,1.73
43684,51.655563,-2.432973,81,0.0,9,231.5,13 / 23,4368488,2019-08-31 09:38:20:210,-0.1317,-0.062,9.8703,0.0033,0.0028,9.8067,0.0,0.0041,0.0035,-24.21,16.54,-41.94,213.52,-0.36,1.73
43685,51.655563,-2.432973,81,0.0,9,231.5,13 / 23,4368588,2019-08-31 09:38:20:310,-0.0858,-0.0455,9.5634,-0.0009,-0.0009,9.8067,-0.0011,-0.0257,0.0003,-24.59,16.17,-42.31,210.74,-0.33,1.73
43686,51.655563,-2.432973,81,0.0,9,231.5,13 / 23,4368688,2019-08-31 09:38:20:410,-0.1744,-0.1146,9.6819,0.0004,0.0016,9.8067,-0.0011,-0.0257,0.0003,-24.96,16.17,-42.31,210.73,-0.33,1.74
43687,51.655563,-2.432973,81,0.0,9,231.5,13 / 23,4368788,2019-08-31 09:38:20:510,-0.0697,-0.1022,9.4809,-0.0031,-0.0022,9.8066,-0.0032,0.0073,0.0078,-24.96,16.17,-42.31,210.73,-0.33,1.74
43688,51.655563,-2.432973,81,0.0,9,231.5,13 / 23,4368888,2019-08-31 09:38:20:610,0.0159,-0.0404,9.9231,0.0009,0.0018,9.8067,0.0,0.0265,0.0088,-24.21,16.17,-41.94,211.8,-0.35,1.74
43689,51.655563,-2.432973,81,0.0,9,231.5,13 / 23,4368987,2019-08-31 09:38:20:709,-0.0372,0.0692,9.6966,-0.0018,-0.0011,9.8067,-0.0021,-0.0214,0.0024,-24.21,16.17,-41.87,211.8,-0.35,1.74
43690,51.655563,-2.432973,81,0.0,9,231.5,13 / 23,4369088,2019-08-31 09:38:20:810,-0.0075,-0.124,9.4394,0.0027,0.0007,9.8067,-0.0021,-0.0065,0.0056,-24.21,16.54,-41.5,213.56,-0.36,1.74
43691,51.655563,-2.432973,81,0.0,9,231.5,13 / 23,4369188,2019-08-31 09:38:20:910,0.1714,0.1198,9.8762,0.0027,-0.0014,9.8067,0.0106,0.0084,0.0014,-24.21,16.54,-41.5,213.56,-0.36,1.74
43692,51.655563,-2.432973,81,0.0,9,231.5,13 / 23,4369288,2019-08-31 09:38:21:010,-0.0194,-0.0539,9.8138,0.0019,0.0009,9.8067,-0.0011,-0.0097,0.0046,-23.9,16.54,-42.31,213.53,-0.35,1.72
43693,51.655563,-2.432973,81,0.0,9,231.5,13 / 23,4369388,2019-08-31 09:38:21:110,0.0096,0.014,9.6073,0.0018,0.0047,9.8066,0.0,0.0222,0.0077,-24.59,16.17,-41.87,210.73,-0.33,1.74
43694,51.655563,-2.432973,81,0.0,9,231.5,13 / 23,4369488,2019-08-31 09:38:21:210,0.1238,0.1494,10.0876,0.0034,0.0006,9.8066,0.0,0.0222,0.0077,-24.21,16.54,-40.62,210.73,-0.33,1.74
43695,51.655563,-2.432973,81,0.0,9,231.5,13 / 23,4369588,2019-08-31 09:38:21:310,0.0944,0.0992,9.7195,0.0025,-0.0022,9.8066,0.0021,0.0436,0.0088,-24.21,16.54,-41.06,213.55,-0.32,1.72
43696,51.655563,-2.432973,81,0.0,9,231.5,13 / 23,4369688,2019-08-31 09:38:21:410,0.0458,0.206,10.1723,0.0019,0.0038,9.8066,0.0074,-0.0331,-0.004,-24.59,16.54,-40.25,212.48,-0.3,1.74
43697,51.655563,-2.432973,81,0.0,9,231.5,13 / 23,4369788,2019-08-31 09:38:21:510,0.0218,0.0666,10.076,-0.0029,-0.0004,9.8067,-0.0032,0.0393,0.0099,-24.59,16.54,-40.25,212.48,-0.3,1.74
43698,51.655563,-2.432973,81,0.0,9,231.5,13 / 23,4369888,2019-08-31 09:38:21:610,0.0502,-0.0851,9.5906,-0.005,-0.0012,9.8066,-0.0021,0.0265,0.0099,-24.21,16.92,-41.06,213.53,-0.33,1.74
43699,51.655563,-2.432973,81,0.0,9,231.5,13 / 23,4369988,2019-08-31 09:38:21:710,0.132,0.1724,9.7916,0.0024,0.0,9.8066,0.0,-0.015,0.0003,-24.21,16.17,-41.06,211.82,-0.32,1.74
43700,51.655563,-2.432973,81,0.0,9,231.5,13 / 23,4370088,2019-08-31 09:38:21:810,0.1053,0.0235,9.7137,-0.0039,-0.0013,9.8067,-0.0011,-0.0023,0.0045,-24.96,16.54,-41.94,212.42,-0.32,1.72
43701,51.655563,-2.432973,81,0.0,9,231.5,13 / 23,4370188,2019-08-31 09:38:21:910,0.1098,0.3051,10.0937,-0.0027,0.002,9.8067,0.0042,0.0308,0.0056,-24.27,16.17,-41.94,212.42,-0.32,1.72
43702,51.655563,-2.432973,81,0.0,9,231.5,13 / 23,4370288,2019-08-31 09:38:22:010,-0.0349,-0.0661,9.9923,-0.0029,0.0007,9.8067,0.0042,0.0308,0.0056,-24.27,16.17,-41.94,212.42,-0.32,1.72
43703,51.655563,-2.432973,81,0.0,9,231.5,13 / 23,4370388,2019-08-31 09:38:22:110,0.034,0.0696,9.6529,-0.0002,-0.0026,9.8067,0.0053,-0.0225,-0.004,-24.59,16.54,-41.56,212.42,-0.33,1.74
43704,51.655563,-2.432973,81,0.0,9,231.5,13 / 23,4370488,2019-08-31 09:38:22:210,-0.0021,0.0307,10.0132,-0.0003,-0.0004,9.8067,0.0011,0.0073,0.0056,-24.59,16.54,-41.56,212.42,-0.33,1.74
43705,51.655563,-2.432973,81,0.0,9,231.5,13 / 23,4370589,2019-08-31 09:38:22:311,0.0565,0.0445,9.698,-0.005,-0.0012,9.8066,-0.0032,0.0276,0.0099,-24.59,16.17,-41.56,210.74,-0.33,1.73
43706,51.655563,-2.432973,81,0.0,9,231.5,13 / 23,4370688,2019-08-31 09:38:22:410,-0.0426,-0.256,9.6516,-0.002,0.0008,9.8067,0.0043,-0.031,-0.0019,-25.71,16.54,-43.62,211.31,-0.34,1.74
43707,51.655563,-2.432973,81,0.0,9,231.5,13 / 23,4370788,2019-08-31 09:38:22:510,0.013,-0.1573,9.4505,0.0005,-0.0029,9.8066,-0.0064,0.0308,0.0099,-26.09,16.54,-44.06,211.31,-0.34,1.74
43708,51.655563,-2.432973,81,0.0,9,231.5,13 / 23,4370888,2019-08-31 09:38:22:610,0.0502,0.044,9.9196,0.0008,-0.0054,9.8066,0.0011,0.0425,0.0109,-26.09,16.54,-44.06,211.31,-0.34,1.74
43709,51.655563,-2.432973,81,0.0,9,231.5,13 / 23,4370988,2019-08-31 09:38:22:710,0.0407,-0.1311,9.5293,-0.0039,-0.0019,9.8066,0.0011,0.0425,0.0109,-26.46,16.54,-43.69,211.33,-0.33,1.73
43710,51.655563,-2.432973,81,0.0,9,231.5,13 / 23,4371088,2019-08-31 09:38:22:810,0.067,0.2303,9.9051,0.0013,0.0025,9.8066,0.0053,-0.0289,-0.0019,-26.09,16.92,-44.06,211.34,-0.36,1.73
43711,51.655563,-2.432973,81,0.0,9,231.5,13 / 23,4371189,2019-08-31 09:38:22:911,-0.0082,-0.1705,9.3885,-0.0003,-0.0003,9.8067,-0.0043,0.0382,0.0099,-26.09,16.92,-44.06,211.32,-0.34,1.74
43712,51.655563,-2.432973,81,0.0,9,231.5,13 / 23,4371288,2019-08-31 09:38:23:010,0.0675,0.1012,9.9,-0.0006,-0.0035,9.8067,-0.0021,-0.0257,0.0013,-26.09,16.92,-44.06,211.32,-0.34,1.74
43713,51.655563,-2.432973,81,0.0,9,231.5,13 / 23,4371388,2019-08-31 09:38:23:110,-0.0192,0.0532,9.6465,0.0016,0.0041,9.8067,-0.0064,0.0468,0.0152,-25.71,16.17,-44.06,209.7,-0.36,1.72
43714,51.655563,-2.432973,81,0.0,9,231.5,13 / 23,4371488,2019-08-31 09:38:23:210,-0.1926,0.3401,10.0341,-0.0017,0.0017,9.8067,0.0106,0.0105,0.0024,-25.71,16.54,-43.69,211.34,-0.36,1.73
43715,51.655563,-2.432973,81,0.0,9,231.5,13 / 23,4371588,2019-08-31 09:38:23:310,-0.014,-0.1049,9.5604,0.0005,0.002,9.8067,0.0,-0.0033,0.0035,-25.34,16.54,-43.31,211.34,-0.36,1.73
43716,51.655563,-2.432973,81,0.0,9,231.5,13 / 23,4371688,2019-08-31 09:38:23:410,-0.0319,0.1223,9.7426,0.0015,0.003,9.8067,0.0,-0.0033,0.0035,-25.34,16.92,-43.25,212.37,-0.34,1.74
43717,51.655563,-2.432973,81,0.0,9,231.5,13 / 23,4371788,2019-08-31 09:38:23:510,-0.1485,-0.0644,9.9194,-0.0001,-0.0059,9.8066,-0.0053,0.0329,0.0109,-25.34,16.92,-43.25,212.37,-0.34,1.74
43718,51.655563,-2.432973,81,0.0,9,231.5,13 / 23,4371888,2019-08-31 09:38:23:610,-0.0276,-0.2253,9.4045,0.0004,-0.0003,9.8067,0.0032,0.0233,0.0056,-25.71,16.17,-43.69,209.69,-0.35,1.73
43719,51.655563,-2.432973,81,0.0,9,231.5,13 / 23,4371987,2019-08-31 09:38:23:709,0.0302,0.128,9.8163,-0.0015,-0.0015,9.8067,-0.0011,-0.0023,0.0035,-25.34,16.54,-43.69,209.69,-0.35,1.73
43720,51.655563,-2.432973,81,0.0,9,231.5,13 / 23,4372088,2019-08-31 09:38:23:810,-0.0634,-0.0618,9.8776,0.0017,0.0036,9.8067,0.0021,-0.0236,0.0003,-25.71,16.17,-43.69,209.7,-0.36,1.72
43721,51.655563,-2.432973,81,0.0,9,231.5,13 / 23,4372188,2019-08-31 09:38:23:910,-0.0633,-0.0618,9.835,0.0004,0.0023,9.8067,-0.0011,0.0318,0.0098,-25.34,16.54,-43.69,212.35,-0.35,1.74
43722,51.655563,-2.432973,81,0.0,9,231.5,13 / 23,4372288,2019-08-31 09:38:24:010,0.1297,0.0599,9.6679,-0.0024,-0.0007,9.8066,-0.0011,-0.0225,0.0003,-25.34,16.54,-43.69,212.35,-0.35,1.74
43723,51.655563,-2.432973,81,0.0,9,231.5,13 / 23,4372388,2019-08-31 09:38:24:110,0.148,0.2229,10.1778,0.0026,0.0013,9.8066,0.0021,0.0265,0.0045,-26.09,16.54,-42.87,211.38,-0.37,1.74
43724,51.655563,-2.432973,81,0.0,9,231.5,13 / 23,4372488,2019-08-31 09:38:24:210,0.0388,-0.0131,9.7211,0.0038,0.0003,9.8066,0.0021,0.0265,0.0045,-25.71,16.54,-44.06,211.38,-0.37,1.74
43725,51.655563,-2.432973,81,0.0,9,231.5,13 / 23,4372588,2019-08-31 09:38:24:310,0.1036,0.1789,9.8722,-0.0012,-0.0026,9.8067,0.016,-0.0161,-0.0083,-25.71,16.54,-43.31,211.4,-0.38,1.73
43726,51.655563,-2.432973,81,0.0,9,231.5,13 / 23,4372688,2019-08-31 09:38:24:410,-0.0553,-0.0609,9.961,0.0063,0.0043,9.8066,-0.0032,0.0095,0.0077,-25.71,16.54,-43.31,211.4,-0.38,1.73
43727,51.655563,-2.432973,81,0.0,9,231.5,13 / 23,4372787,2019-08-31 09:38:24:509,-0.0203,-0.2051,9.4637,0.0039,0.0001,9.8067,-0.0096,0.0489,0.0152,-26.09,16.54,-43.31,211.4,-0.36,1.72
43728,51.655563,-2.432973,81,0.0,9,231.5,13 / 23,4372887,2019-08-31 09:38:24:609,0.0067,0.0917,9.9093,0.0016,0.0017,9.8067,0.0011,0.0063,0.0056,-24.27,16.54,-42.0,213.53,-0.35,1.72
43729,51.655563,-2.432973,81,0.0,9,231.5,13 / 23,4372989,2019-08-31 09:38:24:711,0.0261,0.1101,9.9344,-0.0022,0.0001,9.8066,0.0021,-0.0012,0.0034,-24.27,16.54,-42.0,213.53,-0.35,1.72
43730,51.655563,-2.432973,81,0.0,9,231.5,13 / 23,4373088,2019-08-31 09:38:24:810,-0.0359,-0.2019,9.7013,0.0027,0.0013,9.8067,-0.0043,0.0414,0.0109,-24.65,16.54,-42.06,212.45,-0.36,1.73
43731,51.655563,-2.432973,81,0.0,9,231.5,13 / 23,4373188,2019-08-31 09:38:24:910,0.0839,0.0527,9.9141,-0.0019,-0.0022,9.8066,0.0032,0.018,0.0077,-24.65,16.54,-41.62,212.44,-0.34,1.73
43732,51.655563,-2.432973,81,0.0,9,231.5,13 / 23,4373288,2019-08-31 09:38:25:010,-0.0215,-0.2337,9.7044,0.002,0.0039,9.8066,-0.0011,-0.0129,0.0013,-24.27,16.54,-41.62,213.54,-0.36,1.72
43733,51.655563,-2.432973,81,0.0,9,231.5,13 / 23,4373388,2019-08-31 09:38:25:110,0.0861,0.0847,9.9556,0.001,0.0016,9.8066,-0.0011,-0.0129,0.0013,-24.27,16.54,-41.62,213.54,-0.36,1.72
43734,51.655563,-2.432973,81,0.0,9,231.5,13 / 23,4373489,2019-08-31 09:38:25:211,0.0317,-0.1934,9.5725,-0.002,-0.0014,9.8067,0.0,0.0254,0.0077,-23.9,16.54,-41.56,213.52,-0.35,1.73
43735,51.655563,-2.432973,81,0.0,9,231.5,13 / 23,4373588,2019-08-31 09:38:25:310,-0.0082,-0.1937,9.5116,0.0003,0.0018,9.8067,0.0032,-0.0119,0.0013,-24.59,16.92,-42.0,212.43,-0.34,1.73
43736,51.655563,-2.432973,81,0.0,9,231.5,13 / 23,4373688,2019-08-31 09:38:25:410,-0.032,0.0299,9.9759,-0.0039,-0.0022,9.8066,-0.0021,-0.0225,0.0024,-24.65,17.29,-41.56,212.43,-0.34,1.73
43737,51.655563,-2.432973,81,0.0,9,231.5,13 / 23,4373788,2019-08-31 09:38:25:510,-0.0308,-0.1613,9.4789,-0.0024,-0.0014,9.8067,0.0043,0.0148,0.0024,-24.65,17.29,-41.56,212.43,-0.34,1.73
43738,51.655563,-2.432973,81,0.0,9,231.5,13 / 23,4373888,2019-08-31 09:38:25:610,0.0463,0.056,9.7307,-0.0001,-0.0016,9.8067,-0.0011,0.0393,0.0109,-24.59,16.92,-41.56,212.44,-0.35,1.73
43739,51.655563,-2.432973,81,0.0,9,231.5,13 / 23,4373988,2019-08-31 09:38:25:710,-0.0225,-0.0905,9.5243,0.0031,0.0041,9.8066,-0.0042,0.0212,0.0098,-24.27,16.92,-42.0,213.53,-0.36,1.73
43740,51.655563,-2.432973,81,0.0,9,231.5,13 / 23,4374088,2019-08-31 09:38:25:810,0.0503,0.0484,9.8445,0.0016,0.0026,9.8067,0.0043,-0.0033,0.0002,-24.27,16.92,-42.0,213.53,-0.36,1.73
43741,51.655563,-2.432973,81,0.0,9,231.5,13 / 23,4374189,2019-08-31 09:38:25:911,-0.0705,-0.2175,9.7244,-0.0009,-0.0005,9.8066,0.0043,-0.0033,0.0002,-24.27,16.92,-41.56,213.51,-0.35,1.73
43742,51.655563,-2.432973,81,0.0,9,231.5,13 / 23,4374288,2019-08-31 09:38:26:010,0.0401,0.0009,9.9085,0.0021,0.0004,9.8066,-0.0032,0.0318,0.0098,-24.27,16.92,-41.56,213.51,-0.35,1.73
43743,51.655563,-2.432973,81,0.0,9,231.5,13 / 23,4374388,2019-08-31 09:38:26:110,-0.022,-0.1417,9.5033,-0.0025,-0.0036,9.8067,-0.0042,-0.0097,0.0034,-24.27,16.92,-42.0,213.51,-0.34,1.73
43744,51.655563,-2.432973,81,0.0,9,231.5,13 / 23,4374487,2019-08-31 09:38:26:209,0.0032,0.134,9.7862,-0.0025,-0.0002,9.8067,0.0,0.035,0.0077,-24.59,16.54,-42.0,212.43,-0.35,1.74
43745,51.655563,-2.432973,81,0.0,9,231.5,13 / 23,4374590,2019-08-31 09:38:26:312,0.0409,-0.1478,9.4859,-0.0008,0.0001,9.8067,0.0,0.0308,0.0109,-24.59,16.54,-41.19,212.43,-0.35,1.74
43746,51.655563,-2.432973,81,0.0,9,231.5,13 / 23,4374688,2019-08-31 09:38:26:410,0.0376,0.1233,9.8265,-0.0027,-0.0032,9.8067,-0.0032,-0.015,0.0024,-24.59,16.54,-41.19,212.43,-0.35,1.74
43747,51.655563,-2.432973,81,0.0,9,231.5,13 / 23,4374788,2019-08-31 09:38:26:510,0.0145,-0.149,9.3782,0.0027,0.0002,9.8067,0.0022,0.0084,0.0013,-24.59,16.92,-41.56,212.46,-0.37,1.73
43748,51.655563,-2.432973,81,0.0,9,231.5,13 / 23,4374888,2019-08-31 09:38:26:610,0.0656,0.1343,9.8987,-0.0005,0.0006,9.8067,0.0,0.0318,0.0088,-24.27,16.54,-41.56,213.54,-0.36,1.72
43749,51.655563,-2.432973,81,0.0,9,231.5,13 / 23,4374987,2019-08-31 09:38:26:709,-0.0838,0.0615,9.6641,0.0018,0.0028,9.8067,0.0,0.0318,0.0088,-24.27,16.54,-41.56,213.54,-0.36,1.72
43750,51.655563,-2.432973,81,0.0,9,231.5,13 / 23,4375088,2019-08-31 09:38:26:810,-0.0504,0.1842,9.9311,-0.0023,-0.0036,9.8066,-0.0064,-0.0172,0.0045,-24.27,16.92,-43.62,213.42,-0.34,1.73
43751,51.655563,-2.432973,81,0.0,9,231.5,13 / 23,4375188,2019-08-31 09:38:26:910,-0.0961,-0.0675,9.4747,0.0011,0.0026,9.8067,0.0053,-0.0214,-0.0019,-24.96,16.92,-42.37,212.46,-0.36,1.72
43752,51.655563,-2.432973,81,0.0,9,231.5,13 / 23,4375288,2019-08-31 09:38:27:010,0.0008,0.1248,9.8452,0.0004,-0.0004,9.8067,-0.001,0.0361,0.0119,-24.59,16.17,-41.94,210.79,-0.36,1.72
43753,51.655563,-2.432973,81,0.0,9,231.5,13 / 23,4375388,2019-08-31 09:38:27:110,-0.1972,-0.2034,9.7325,-0.001,0.0016,9.8066,-0.0064,0.0084,0.0077,-24.59,16.17,-41.94,210.79,-0.36,1.72
43754,51.655563,-2.432973,81,0.0,9,231.5,13 / 23,4375488,2019-08-31 09:38:27:210,-0.1364,-0.0735,9.5983,0.0038,0.003,9.8066,0.0053,0.0041,0.0034,-25.34,16.92,-43.19,212.41,-0.36,1.73
43755,51.655563,-2.432973,81,0.0,9,231.5,13 / 23,4375588,2019-08-31 09:38:27:310,-0.1564,-0.0841,9.7068,-0.0015,-0.0018,9.8067,-0.001,0.035,0.0098,-25.71,16.54,-42.81,212.41,-0.36,1.73
43756,51.655563,-2.432973,81,0.0,9,231.5,13 / 23,4375688,2019-08-31 09:38:27:410,0.0344,-0.079,9.8888,0.0011,-0.0016,9.8066,-0.0074,-0.0193,0.0045,-25.34,17.29,-43.19,212.4,-0.36,1.73
43757,51.655563,-2.432973,81,0.0,9,231.5,13 / 23,4375788,2019-08-31 09:38:27:510,0.0033,-0.1943,9.4528,-0.0019,-0.0012,9.8067,-0.0074,-0.0193,0.0045,-25.34,16.54,-43.19,212.42,-0.36,1.72
43758,51.655563,-2.432973,81,0.0,9,231.5,13 / 23,4375888,2019-08-31 09:38:27:610,0.0728,0.1572,9.8327,0.0007,0.0026,9.8067,0.0043,-0.0108,-0.0008,-24.96,16.54,-42.81,212.39,-0.34,1.73
43759,51.655563,-2.432973,81,0.0,9,231.5,13 / 23,4375988,2019-08-31 09:38:27:710,0.0228,-0.1293,9.7883,0.0,-0.0035,9.8067,-0.0021,0.0255,0.0077,-24.96,16.54,-42.81,212.39,-0.34,1.73
43760,51.655563,-2.432973,81,0.0,9,231.5,13 / 23,4376088,2019-08-31 09:38:27:810,-0.045,0.0523,9.5756,-0.002,0.0046,9.8066,0.0,0.0031,0.0034,-25.34,16.92,-42.81,212.43,-0.35,1.71
43761,51.655563,-2.432973,81,0.0,9,231.5,13 / 23,4376188,2019-08-31 09:38:27:910,-0.06,-0.0406,9.776,0.0003,0.0064,9.8066,0.0011,-0.0246,0.0002,-25.34,16.92,-42.37,212.41,-0.33,1.74
43762,51.655563,-2.432973,81,0.0,9,231.5,13 / 23,4376288,2019-08-31 09:38:28:010,0.066,0.1226,9.69,-0.0023,-0.0038,9.8066,-0.001,0.0095,0.0045,-25.71,16.54,-43.19,212.41,-0.33,1.74
43763,51.655563,-2.432973,81,0.0,9,231.5,13 / 23,4376388,2019-08-31 09:38:28:110,0.0249,0.1238,10.2306,0.0016,-0.0031,9.8067,-0.0042,0.0361,0.0077,-24.27,16.54,-41.94,213.52,-0.33,1.72
43764,51.655563,-2.432973,81,0.0,9,231.5,13 / 23,4376488,2019-08-31 09:38:28:210,0.0354,0.2136,9.8501,-0.0011,-0.0013,9.8067,0.0064,-0.0022,0.0013,-24.27,16.54,-41.94,213.52,-0.33,1.72
43765,51.655563,-2.432973,81,0.0,9,231.5,13 / 23,4376588,2019-08-31 09:38:28:310,0.0935,-0.0469,9.642,0.0021,0.0024,9.8067,0.0064,-0.0022,0.0013,-23.9,16.92,-41.56,213.53,-0.35,1.73
43766,51.655563,-2.432973,81,0.0,9,231.5,13 / 23,4376688,2019-08-31 09:38:28:410,0.13,0.211,9.8891,0.0014,-0.0024,9.8067,-0.0011,0.035,0.0087,-24.27,16.92,-42.37,213.55,-0.35,1.71
43767,51.655563,-2.432973,81,0.0,9,231.5,13 / 23,4376788,2019-08-31 09:38:28:510,-0.0749,-0.0179,9.9441,-0.002,0.0013,9.8066,-0.0042,0.0276,0.0098,-24.27,16.92,-42.37,213.55,-0.35,1.71
43768,51.655563,-2.432973,81,0.0,9,231.5,13 / 23,4376887,2019-08-31 09:38:28:609,0.0045,-0.0538,9.5179,0.0024,0.0019,9.8067,0.0075,-0.0054,-0.0019,-24.27,16.54,-41.56,213.53,-0.36,1.72
43769,51.655563,-2.432973,81,0.0,9,231.5,13 / 23,4376989,2019-08-31 09:38:28:711,-0.0925,-0.0354,9.9404,-0.0034,-0.0022,9.8066,-0.0021,0.0329,0.0098,-24.59,16.92,-41.56,212.44,-0.34,1.73
43770,51.655563,-2.432973,81,0.0,9,231.5,13 / 23,4377087,2019-08-31 09:38:28:809,0.0133,0.0009,9.5877,-0.0054,-0.0017,9.8066,-0.0021,0.0329,0.0098,-24.59,16.92,-41.56,212.44,-0.34,1.73
43771,51.655563,-2.432973,81,0.0,9,231.5,13 / 23,4377188,2019-08-31 09:38:28:910,-0.0838,-0.2686,9.6106,-0.0051,-0.0039,9.8066,0.0032,-0.0193,-0.0019,-24.59,16.92,-41.56,212.44,-0.34,1.73
43772,51.655563,-2.432973,81,0.0,9,231.5,13 / 23,4377288,2019-08-31 09:38:29:010,-0.029,-0.005,9.51,0.0048,0.0021,9.8067,-0.0011,0.0286,0.0077,-23.9,16.92,-41.56,213.55,-0.38,1.72
43773,51.655563,-2.432973,81,0.0,9,231.5,13 / 23,4377387,2019-08-31 09:38:29:109,-0.0449,-0.1574,9.5605,0.0021,-0.0002,9.8067,0.0021,0.0382,0.0087,-24.27,17.29,-41.12,213.6,-0.37,1.71
43774,51.655563,-2.432973,81,0.0,9,231.5,13 / 23,4377487,2019-08-31 09:38:29:209,0.0587,0.0198,9.6216,0.0011,0.0028,9.8067,0.0021,0.0382,0.0087,-24.59,16.54,-41.56,213.6,-0.37,1.71
43775,51.655563,-2.432973,81,0.0,9,231.5,13 / 23,4377588,2019-08-31 09:38:29:310,0.0039,-0.0738,9.8755,0.0041,0.0041,9.8066,0.0021,-0.0278,-0.0019,-24.59,16.54,-41.56,213.6,-0.37,1.71
43776,51.655563,-2.432973,81,0.0,9,231.5,13 / 23,4377688,2019-08-31 09:38:29:410,0.0247,-0.1487,9.4125,0.0017,0.0032,9.8067,-0.001,0.0127,0.0066,-24.27,16.92,-41.56,213.53,-0.35,1.72
43777,51.655563,-2.432973,81,0.0,9,231.5,13 / 23,4377788,2019-08-31 09:38:29:510,0.0588,0.0857,9.8624,0.0007,-0.0013,9.8067,0.0,0.0159,0.0087,-24.59,17.67,-41.56,214.05,-0.33,1.73
43778,51.655563,-2.432973,81,0.0,9,231.5,13 / 23,4377888,2019-08-31 09:38:29:610,0.0621,0.145,9.936,-0.0025,-0.0061,9.8066,-0.001,-0.0225,0.0023,-24.96,16.54,-41.12,214.05,-0.33,1.73
43779,51.655563,-2.432973,81,0.0,9,231.5,13 / 23,4377988,2019-08-31 09:38:29:710,-0.0244,-0.1091,9.7427,-0.0035,-0.0048,9.8066,-0.0021,0.0329,0.0077,-24.96,16.92,-40.75,212.51,-0.37,1.72
43780,51.655563,-2.432973,81,0.0,9,231.5,13 / 23,4378088,2019-08-31 09:38:29:810,-0.0372,0.0441,9.6216,0.0017,0.0002,9.8067,0.0032,0.034,0.0098,-24.96,16.92,-40.75,212.51,-0.37,1.72
43781,51.655563,-2.432973,81,0.0,9,231.5,13 / 23,4378187,2019-08-31 09:38:29:909,-0.029,0.1029,10.0523,-0.0013,-0.0011,9.8066,0.0032,0.034,0.0098,-23.15,14.73,-39.06,211.29,-0.36,1.71
43782,51.655563,-2.432973,81,0.0,9,231.5,13 / 23,4378287,2019-08-31 09:38:30:009,-0.048,-0.0511,9.4978,0.0009,0.0017,9.8066,0.0022,-0.0257,-0.0009,-22.77,15.11,-39.44,211.29,-0.36,1.71
43783,51.655563,-2.432973,81,0.0,9,231.5,13 / 23,4378387,2019-08-31 09:38:30:109,0.0461,0.0652,9.7476,-0.0005,-0.0003,9.8066,0.0022,0.0318,0.0076,-23.15,16.17,-40.31,213.05,-0.36,1.71
43784,51.655563,-2.432973,81,0.0,9,231.5,13 / 23,4378487,2019-08-31 09:38:30:209,-0.17,-0.1037,9.7313,-0.0012,-0.001,9.8067,-0.0021,-0.0204,0.0034,-23.15,16.17,-40.31,213.05,-0.36,1.71
43785,51.655563,-2.432973,81,0.0,9,231.5,13 / 23,4378589,2019-08-31 09:38:30:311,-0.0704,-0.1241,9.4778,0.001,0.0028,9.8067,0.0032,0.0127,0.0023,-23.9,16.92,-41.56,213.53,-0.35,1.72
43786,51.655563,-2.432973,81,0.0,9,231.5,13 / 23,4378687,2019-08-31 09:38:30:409,-0.0126,-0.0405,9.6201,-0.0014,-0.0008,9.8067,-0.0021,0.035,0.0108,-23.9,16.54,-41.56,213.53,-0.36,1.72
43787,51.655563,-2.432973,81,0.0,9,231.5,13 / 23,4378787,2019-08-31 09:38:30:509,0.0026,0.0119,9.9194,0.0009,-0.0011,9.8067,0.0011,0.0276,0.0076,-23.9,16.54,-41.56,213.53,-0.36,1.72
43788,51.655563,-2.432973,81,0.0,9,231.5,13 / 23,4378887,2019-08-31 09:38:30:609,-0.092,-0.0085,9.6032,-0.0009,0.0001,9.8067,0.0,-0.0321,0.0002,-24.59,16.92,-41.94,213.53,-0.36,1.72
43789,51.655563,-2.432973,81,0.0,9,231.5,13 / 23,4378989,2019-08-31 09:38:30:711,-0.0331,-0.063,9.8627,0.0019,0.0011,9.8066,-0.0021,-0.0001,0.0044,-24.27,16.54,-41.56,213.53,-0.36,1.73
43790,51.655563,-2.432973,81,0.0,9,231.5,13 / 23,4379088,2019-08-31 09:38:30:810,-0.0058,-0.1289,9.4046,0.001,0.0004,9.8067,-0.0021,-0.0001,0.0044,-24.27,16.92,-41.56,213.53,-0.35,1.72
43791,51.655563,-2.432973,81,0.0,9,231.5,13 / 23,4379187,2019-08-31 09:38:30:909,0.1908,0.1404,9.8085,0.0013,0.0001,9.8066,0.0021,0.035,0.0076,-24.27,16.92,-41.56,213.53,-0.35,1.72
43792,51.655563,-2.432973,81,0.0,9,231.5,13 / 23,4379288,2019-08-31 09:38:31:010,0.0308,-0.0013,9.7931,0.0012,0.0011,9.8067,0.0043,-0.0236,-0.0009,-24.59,16.54,-41.56,212.45,-0.35,1.72
43793,51.655563,-2.432973,81,0.0,9,231.5,13 / 23,4379388,2019-08-31 09:38:31:110,0.0374,-0.1378,9.6351,-0.0001,0.0006,9.8067,-0.0021,0.0191,0.0087,-24.59,16.54,-41.56,212.45,-0.35,1.72
43794,51.65556,-2.432973,82,0.0,9,231.5,13 / 23,4379487,2019-08-31 09:38:31:209,0.0422,0.0022,9.637,-0.0024,-0.0024,9.8067,0.0053,0.0255,0.0055,-24.59,16.54,-41.5,212.49,-0.35,1.72
