,GPS LATITUDE (degrees), GPS LONGITUDE (degrees), GPS ALTITUDE (m), GPS SPEED (Kmh), GPS ACCURACY (m), GPS ORIENTATION (Â°),GPS SATELLITES IN RANGE, TIME SINCE START (ms), DATE (YYYY-MO-DD HH-MI-SS_SSS), ACCELEROMETER X (m/s²) , ACCELEROMETER Y (m/s²), ACCELEROMETER Z (m/s²), GRAVITY X (m/s²), GRAVITY Y (m/s²), GRAVITY Z (m/s²), GYROSCOPE Yaw (rad/s), GYROSCOPE Pitch (rad/s), GYROSCOPE Roll (rad/s), MAGNETIC FIELD X (Î¼T), MAGNETIC FIELD Y (Î¼T), MAGNETIC FIELD Z (Î¼T), ORIENTATION (Yaw) (Â°), ORIENTATION (Pitch) (Â°), ORIENTATION (Roll ) (Â°)
34190,52.42023,-1.532483,164.72,13.31,2,306.54,21 / 21,3427430,2019-09-06 19:13:14:112,0.5588,-0.731,9.3166,0.0213,-0.0211,9.8066,-0.0171,0.0302,0.0126,6.0,-36.37,-2.06,145.02,-83.26,-165.81
34191,52.42023,-1.532483,164.72,13.31,2,306.54,21 / 21,3427529,2019-09-06 19:13:14:211,1.9799,0.6978,9.9972,0.0013,0.0087,9.8066,0.0128,0.0943,-0.1022,6.5,-35.25,-1.81,140.74,-83.32,-165.81
34192,52.42023,-1.532483,164.72,13.31,2,306.54,21 / 21,3427628,2019-09-06 19:13:14:310,0.3265,-0.5863,10.186,-0.0224,0.0084,9.8066,0.0603,0.0032,0.0484,7.0,-36.0,-2.06,140.83,-83.1,-167.03
34193,52.42023,-1.532483,164.72,13.31,2,306.54,21 / 21,3427729,2019-09-06 19:13:14:411,0.3173,1.0824,9.5205,-0.006,0.0054,9.8066,0.0265,0.0333,-0.0505,6.63,-35.44,-1.94,140.78,-82.8,-167.4
34194,52.42023,-1.532483,164.72,13.31,2,306.54,21 / 21,3427829,2019-09-06 19:13:14:511,-0.7362,0.2651,9.8682,-0.0014,0.0081,9.8066,0.0103,0.1233,-0.0442,6.31,-35.19,-2.44,144.43,-82.82,-167.58
34195,52.42023,-1.532483,164.72,13.31,2,306.54,21 / 21,3427928,2019-09-06 19:13:14:610,0.2902,-0.9138,9.734,0.0047,0.0049,9.8066,-0.1435,0.0402,-0.0321,5.94,-35.31,-2.69,147.99,-83.27,-167.36
34196,52.42023,-1.532483,164.72,13.31,2,306.54,21 / 21,3428028,2019-09-06 19:13:14:710,-0.0813,-1.6839,9.6175,-0.0192,0.0205,9.8065,-0.0164,-0.0675,0.0653,6.13,-34.62,-2.75,148.1,-83.32,-167.04
34197,52.42023,-1.532483,164.72,13.31,2,306.54,21 / 21,3428128,2019-09-06 19:13:14:810,1.3975,-0.1017,9.7209,0.0162,0.0044,9.8066,0.0429,0.0282,-0.0357,5.56,-35.5,-2.62,147.12,-83.43,-168.21
34198,52.42023,-1.532483,164.72,13.31,2,306.54,21 / 21,3428230,2019-09-06 19:13:14:912,0.5128,-1.2947,10.2047,0.0185,-0.0255,9.8066,0.1033,-0.0487,0.0614,5.06,-35.25,-1.81,147.53,-83.49,-167.45
34199,52.42023,-1.532483,164.72,13.31,2,306.54,21 / 21,3428329,2019-09-06 19:13:15:011,0.4392,-0.1476,10.5344,-0.0259,0.0157,9.8066,0.0241,-0.001,-0.0584,6.0,-35.56,-1.69,144.17,-83.31,-166.99
34200,52.42023,-1.532483,164.72,13.31,2,306.54,21 / 21,3428429,2019-09-06 19:13:15:111,0.5637,-0.7985,10.6559,-0.0122,-0.0177,9.8066,0.0322,-0.0308,-0.0025,6.38,-35.25,-1.25,137.43,-83.41,-168.46
34201,52.42023,-1.532483,164.72,13.31,2,306.54,21 / 21,3428528,2019-09-06 19:13:15:210,0.7465,-0.1915,10.303,-0.0191,0.0191,9.8065,-0.0796,-0.0166,0.0286,6.69,-36.19,-2.25,139.32,-83.34,-168.46
34202,52.42023,-1.532483,164.72,13.31,2,306.54,21 / 21,3428629,2019-09-06 19:13:15:311,0.9699,-0.7466,9.3527,-0.0256,0.0127,9.8065,-0.119,0.0154,-0.0585,6.88,-36.62,-2.94,143.78,-83.4,-168.55
34203,52.42023,-1.532483,164.72,13.31,2,306.54,21 / 21,3428728,2019-09-06 19:13:15:410,1.8523,-1.1007,9.6858,0.0368,-0.0313,9.8065,0.0993,0.0402,-0.0063,6.69,-37.5,-2.87,143.02,-83.52,-169.3
34204,52.42023,-1.532483,164.72,13.31,2,306.54,21 / 21,3428829,2019-09-06 19:13:15:511,0.8572,-0.3285,10.2535,0.0375,-0.0412,9.8064,-0.0414,0.0281,-0.0558,7.0,-37.31,-2.81,142.31,-83.94,-169.07
34205,52.42023,-1.532483,164.72,13.31,2,306.54,21 / 21,3428929,2019-09-06 19:13:15:611,0.1249,-0.7381,10.1104,-0.012,0.0013,9.8066,0.0689,0.0601,-0.0548,6.75,-37.44,-2.5,137.37,-83.85,-170.09
34206,52.42023,-1.532483,164.72,13.31,2,306.54,21 / 21,3429029,2019-09-06 19:13:15:711,1.7077,-0.1543,10.6836,-0.0027,0.0067,9.8066,0.0337,-0.0515,0.0462,6.63,-37.69,-2.44,137.48,-83.89,-170.41
34207,52.42023,-1.532483,164.72,13.31,2,306.54,21 / 21,3429128,2019-09-06 19:13:15:810,1.1026,-0.0558,9.9675,-0.0118,0.0148,9.8066,0.0293,-0.0133,0.0159,6.63,-37.12,-1.69,137.43,-83.72,-170.5
34208,52.42023,-1.532483,164.72,13.31,2,306.54,21 / 21,3429229,2019-09-06 19:13:15:911,0.8142,-0.0984,9.9954,0.0047,0.009,9.8066,-0.0284,-0.0163,0.0183,6.63,-37.75,-1.75,138.2,-83.7,-170.1
34209,52.42023,-1.532483,164.72,13.31,2,306.54,21 / 21,3429329,2019-09-06 19:13:16:011,0.3317,-0.067,9.9996,-0.0035,0.0091,9.8066,-0.0307,-0.0001,0.0261,7.13,-37.37,-2.19,138.25,-83.73,-169.26
34210,52.420864,-1.533795,166.13,10.69,2,307.72,21 / 21,3429429,2019-09-06 19:13:16:111,0.2716,0.0878,10.491,-0.0119,0.0121,9.8066,-0.1199,0.0262,0.0319,6.75,-37.19,-2.06,138.64,-83.83,-168.37
34211,52.420864,-1.533795,166.13,10.69,2,307.72,21 / 21,3429528,2019-09-06 19:13:16:210,1.5096,-0.5892,10.0963,-0.0139,0.0278,9.8066,-0.0869,-0.0303,0.0379,6.44,-36.44,-2.81,147.31,-83.72,-167.61
34212,52.420864,-1.533795,166.13,10.69,2,307.72,21 / 21,3429628,2019-09-06 19:13:16:310,2.4803,-0.8694,9.5495,0.0248,-0.0229,9.8066,0.0906,-0.0405,-0.0409,6.81,-36.37,-1.81,139.96,-83.67,-166.41
34213,52.420864,-1.533795,166.13,10.69,2,307.72,21 / 21,3429729,2019-09-06 19:13:16:411,0.2636,-1.62,9.2608,0.0324,-0.0531,9.8064,0.0814,0.0331,-0.0308,6.63,-37.19,-2.19,138.29,-84.0,-168.26
34214,52.420864,-1.533795,166.13,10.69,2,307.72,21 / 21,3429829,2019-09-06 19:13:16:511,0.4762,-0.7727,9.5899,-0.0033,-0.0054,9.8066,-0.0595,0.0675,-0.0711,6.44,-36.56,-2.87,145.79,-83.93,-169.81
34215,52.420864,-1.533795,166.13,10.69,2,307.72,21 / 21,3429928,2019-09-06 19:13:16:610,0.8595,-1.7539,8.9475,0.0174,-0.0283,9.8065,0.0066,0.0711,-0.0288,6.31,-37.12,-2.0,139.94,-84.21,-170.7
34216,52.420864,-1.533795,166.13,10.69,2,307.72,21 / 21,3430029,2019-09-06 19:13:16:711,0.577,-2.0253,9.8463,-0.0065,-0.0008,9.8066,0.0051,0.0401,-0.0673,6.88,-36.94,-2.44,134.33,-84.47,-172.03
34217,52.420864,-1.533795,166.13,10.69,2,307.72,21 / 21,3430128,2019-09-06 19:13:16:810,1.0533,-1.1084,10.1584,0.0028,-0.009,9.8066,-0.0116,-0.0156,0.033,6.31,-37.06,-2.0,137.66,-84.63,-172.34
34218,52.420864,-1.533795,166.13,10.69,2,307.72,21 / 21,3430230,2019-09-06 19:13:16:912,1.0136,-1.5911,9.8908,-0.0121,0.0031,9.8066,-0.0602,0.0031,0.032,7.06,-36.31,-1.37,128.0,-84.69,-171.87
34219,52.420864,-1.533795,166.13,10.69,2,307.72,21 / 21,3430329,2019-09-06 19:13:17:011,0.7427,-1.2014,9.6828,-0.0378,0.0222,9.8065,-0.1208,0.0754,-0.0643,7.13,-36.5,-2.06,133.64,-84.54,-172.13
34220,52.420864,-1.533795,166.13,10.69,2,307.72,21 / 21,3430429,2019-09-06 19:13:17:111,1.7674,-1.4724,9.8047,0.008,-0.0052,9.8066,0.0389,0.0867,0.0267,7.88,-35.75,-1.5,124.54,-84.71,-172.35
34221,52.420864,-1.533795,166.13,10.69,2,307.72,21 / 21,3430529,2019-09-06 19:13:17:211,0.9298,0.526,10.8039,0.0079,0.0014,9.8066,-0.0573,0.0677,-0.0455,8.13,-36.06,-1.5,124.77,-84.69,-172.16
34222,52.420864,-1.533795,166.13,10.69,2,307.72,21 / 21,3430628,2019-09-06 19:13:17:310,-0.5869,0.6284,9.5203,-0.0287,0.0117,9.8065,0.1004,0.057,0.0019,8.19,-35.75,-1.44,124.65,-84.63,-172.51
34223,52.420864,-1.533795,166.13,10.69,2,307.72,21 / 21,3430728,2019-09-06 19:13:17:410,0.2061,-2.2365,9.7827,-0.045,0.0163,9.8064,0.0663,0.1573,-0.0947,8.19,-36.31,-1.25,124.33,-84.39,-173.87
34224,52.420864,-1.533795,166.13,10.69,2,307.72,21 / 21,3430829,2019-09-06 19:13:17:511,0.7667,-0.9307,9.9371,0.0074,0.0021,9.8066,-0.0888,0.0835,0.0116,8.56,-35.94,-1.81,125.9,-84.41,-174.5
34225,52.420864,-1.533795,166.13,10.69,2,307.72,21 / 21,3430929,2019-09-06 19:13:17:611,0.0767,-1.8093,9.6975,0.0081,0.0001,9.8066,0.0024,0.0535,-0.0014,8.63,-36.31,-1.31,120.8,-84.53,-174.5
34226,52.420864,-1.533795,166.13,10.69,2,307.72,21 / 21,3431029,2019-09-06 19:13:17:711,0.4253,-0.6303,10.428,-0.0173,0.0066,9.8066,-0.0017,0.0454,0.0356,8.69,-36.75,-1.06,122.03,-84.39,-174.05
34227,52.420864,-1.533795,166.13,10.69,2,307.72,21 / 21,3431129,2019-09-06 19:13:17:811,1.7338,-0.7093,10.5199,-0.0405,0.0341,9.8064,-0.0513,0.116,-0.0167,8.44,-36.56,-0.87,125.85,-84.29,-172.93
34228,52.420864,-1.533795,166.13,10.69,2,307.72,21 / 21,3431229,2019-09-06 19:13:17:911,0.2893,-2.4584,9.9013,-0.0003,0.0055,9.8066,0.0632,0.0716,-0.0377,8.56,-36.62,-1.12,121.78,-84.38,-174.42
34229,52.420864,-1.533795,166.13,10.69,2,307.72,21 / 21,3431328,2019-09-06 19:13:18:010,0.7096,-0.331,9.2034,0.0315,-0.0088,9.8066,0.0247,0.0293,0.0536,8.13,-36.56,0.25,120.57,-84.22,-173.03
34230,52.420864,-1.533795,166.13,10.69,2,307.72,21 / 21,3431429,2019-09-06 19:13:18:111,0.0142,0.8285,10.0029,-0.0378,0.0286,9.8065,-0.2064,0.1612,0.0098,7.94,-36.37,-0.62,127.13,-84.14,-171.25
34231,52.420864,-1.533795,166.13,10.69,2,307.72,21 / 21,3431529,2019-09-06 19:13:18:211,1.3327,-1.5317,9.8443,-0.0209,0.0045,9.8066,0.0218,0.1245,-0.0318,8.5,-35.94,0.0,118.3,-84.53,-171.28
34232,52.420864,-1.533795,166.13,10.69,2,307.72,21 / 21,3431628,2019-09-06 19:13:18:310,1.2612,-1.2233,10.5618,0.0264,-0.0095,9.8066,0.0352,0.1004,-0.0544,7.69,-36.56,-0.56,125.23,-84.94,-171.15
34233,52.420864,-1.533795,166.13,10.69,2,307.72,21 / 21,3431728,2019-09-06 19:13:18:410,-0.2796,-1.4343,10.0188,0.0429,-0.04,9.8064,0.1569,0.1236,-0.0089,8.5,-36.12,-0.12,114.85,-85.1,-173.2
34234,52.420864,-1.533795,166.13,10.69,2,307.72,21 / 21,3431828,2019-09-06 19:13:18:510,-1.3085,0.7813,10.7089,-0.0948,0.0424,9.806,-0.0265,0.1592,-0.0003,8.19,-36.56,0.81,110.5,-85.17,-173.58
34235,52.420864,-1.533795,166.13,10.69,2,307.72,21 / 21,3431928,2019-09-06 19:13:18:610,-0.5087,-0.9236,10.1066,-0.0128,0.0301,9.8065,-0.3081,0.1022,0.0279,8.63,-36.69,-0.25,117.82,-84.97,-170.74
34236,52.420864,-1.533795,166.13,10.69,2,307.72,21 / 21,3432029,2019-09-06 19:13:18:711,0.0864,-1.2891,10.092,-0.0145,0.0056,9.8066,-0.1642,0.2838,-0.0541,8.44,-36.87,0.5,113.38,-85.25,-169.92
34237,52.420864,-1.533795,166.13,10.69,2,307.72,21 / 21,3432129,2019-09-06 19:13:18:811,-1.1413,-1.4083,10.2358,-0.016,0.02,9.8065,-0.0074,0.135,0.0802,9.0,-37.75,0.5,112.89,-85.36,-168.99
34238,52.420864,-1.533795,166.13,10.69,2,307.72,21 / 21,3432229,2019-09-06 19:13:18:911,-0.3121,-0.9316,10.1424,-0.0081,0.0243,9.8065,0.11,0.1931,-0.0051,8.06,-37.44,1.69,111.7,-85.11,-165.07
34239,52.420864,-1.533795,166.13,10.69,2,307.72,21 / 21,3432330,2019-09-06 19:13:19:012,0.3826,-0.3421,9.4865,0.0121,0.018,9.8065,0.0471,0.2469,0.0251,8.69,-37.5,1.69,112.73,-85.01,-163.51
34240,52.420864,-1.533795,166.13,10.69,2,307.72,21 / 21,3432429,2019-09-06 19:13:19:111,0.5298,-1.5435,9.333,0.0325,0.0338,9.8065,0.1156,0.1349,0.101,8.75,-37.0,1.94,115.06,-84.87,-161.37
34241,52.420864,-1.533795,166.13,10.69,2,307.72,21 / 21,3432529,2019-09-06 19:13:19:211,-0.663,0.4912,10.3911,0.0212,0.0351,9.8065,-0.1218,0.1931,-0.0487,8.31,-37.12,2.81,116.44,-84.75,-153.78
34242,52.420864,-1.533795,166.13,10.69,2,307.72,21 / 21,3432628,2019-09-06 19:13:19:310,0.3775,-0.9373,9.9322,-0.0231,-0.0022,9.8065,-0.1257,0.1123,0.0239,8.63,-36.81,1.75,121.89,-84.88,-153.24
34243,52.420864,-1.533795,166.13,10.69,2,307.72,21 / 21,3432729,2019-09-06 19:13:19:411,0.7166,-0.9862,9.9189,-0.0363,-0.0077,9.8065,-0.1443,0.1055,-0.0175,8.31,-36.37,1.75,121.42,-84.93,-153.73
34244,52.420864,-1.533795,166.13,10.69,2,307.72,21 / 21,3432828,2019-09-06 19:13:19:510,-0.1582,-0.7786,10.9127,0.0013,-0.0027,9.8066,0.1148,0.154,-0.0719,8.56,-37.0,2.69,114.94,-85.07,-154.28
34245,52.420864,-1.533795,166.13,10.69,2,307.72,21 / 21,3432929,2019-09-06 19:13:19:611,-0.2108,-0.7614,10.5302,0.0282,-0.0264,9.8065,0.1266,0.1005,-0.0817,8.75,-36.37,3.31,111.72,-85.21,-156.94
34246,52.420864,-1.533795,166.13,10.69,2,307.72,21 / 21,3433028,2019-09-06 19:13:19:710,-0.0493,-0.6738,10.0663,-0.0508,-0.0203,9.8064,0.0273,0.1413,-0.0371,9.44,-37.12,3.25,109.4,-85.22,-160.01
34247,52.420864,-1.533795,166.13,10.69,2,307.72,21 / 21,3433128,2019-09-06 19:13:19:810,0.7668,-0.8847,8.6078,-0.0244,-0.0161,9.8065,-0.033,0.1266,-0.0298,9.44,-36.19,3.63,99.76,-84.98,-164.68
34248,52.420864,-1.533795,166.13,10.69,2,307.72,21 / 21,3433229,2019-09-06 19:13:19:911,1.7695,-0.4673,9.7373,0.0952,-0.012,9.8062,0.0634,-0.018,0.0079,9.38,-36.25,4.25,97.83,-85.41,-165.08
34249,52.420864,-1.533795,166.13,10.69,2,307.72,21 / 21,3433329,2019-09-06 19:13:20:011,0.4858,-0.6152,10.3604,0.0512,-0.0071,9.8065,0.0977,0.028,-0.0185,9.44,-36.56,3.13,102.63,-85.44,-166.55
34250,52.420864,-1.533795,166.13,10.69,2,307.72,21 / 21,3433428,2019-09-06 19:13:20:110,0.9946,-0.7796,9.4194,0.027,-0.0035,9.8065,0.0958,0.0696,-0.0004,10.38,-35.81,3.88,95.66,-85.56,-167.5
34251,52.420864,-1.533795,166.13,10.69,2,307.72,21 / 21,3433529,2019-09-06 19:13:20:211,0.3882,-0.7238,8.8489,-0.0082,0.0045,9.8065,0.0752,0.1175,-0.022,10.06,-36.62,3.31,102.87,-85.32,-166.83
34252,52.420864,-1.533795,166.13,10.69,2,307.72,21 / 21,3433628,2019-09-06 19:13:20:310,1.0382,0.1402,8.7033,0.0182,0.009,9.8065,-0.1234,0.0024,0.0384,10.0,-36.06,2.88,101.06,-85.31,-168.32
34253,52.420864,-1.533795,166.13,10.69,2,307.72,21 / 21,3433729,2019-09-06 19:13:20:411,2.8188,1.1903,10.4011,0.0467,0.024,9.8065,-0.0551,-0.105,0.1252,9.38,-36.5,2.88,104.39,-85.65,-163.35
34254,52.420864,-1.533795,166.13,10.69,2,307.72,21 / 21,3433829,2019-09-06 19:13:20:511,1.0792,3.5436,12.5244,-0.0585,0.0095,9.8064,0.191,-0.035,-0.0691,9.81,-36.81,2.81,109.79,-85.35,-159.19
34255,52.420864,-1.533795,166.13,10.69,2,307.72,21 / 21,3433928,2019-09-06 19:13:20:610,0.2401,0.3887,10.6857,-0.0636,-0.0279,9.8064,0.2464,-0.0006,-0.1257,9.25,-36.44,4.0,99.8,-85.07,-164.3
34256,52.420864,-1.533795,166.13,10.69,2,307.72,21 / 21,3434029,2019-09-06 19:13:20:711,-0.6773,1.2591,8.2045,-0.1041,0.0003,9.806,-0.2445,-0.1037,-0.0234,9.25,-37.44,3.19,104.2,-84.26,-169.61
34257,52.420864,-1.533795,166.13,10.69,2,307.72,21 / 21,3434129,2019-09-06 19:13:20:811,1.1701,3.8766,7.7357,-0.1044,0.004,9.8061,-0.3053,-0.2732,0.1339,9.0,-37.31,3.63,100.13,-83.81,-169.51
34258,52.420864,-1.533795,166.13,10.69,2,307.72,21 / 21,3434229,2019-09-06 19:13:20:911,2.9404,3.7678,9.8781,0.1696,0.0212,9.8051,-0.0737,-0.249,0.0604,9.13,-37.31,2.75,106.95,-84.01,-167.58
34259,52.420864,-1.533795,166.13,10.69,2,307.72,21 / 21,3434328,2019-09-06 19:13:21:010,3.3393,2.5319,11.2306,0.1454,-0.0093,9.8055,-0.1304,-0.34,-0.0362,8.75,-38.12,2.0,115.19,-85.54,-159.12
34260,52.420864,-1.533795,166.13,10.69,2,307.72,21 / 21,3434429,2019-09-06 19:13:21:111,1.1136,0.2311,10.9577,0.0067,-0.0222,9.8065,0.2504,-0.2179,-0.0202,8.75,-37.12,2.19,110.56,-85.9,-162.47
34261,52.420864,-1.533795,166.13,10.69,2,307.72,21 / 21,3434528,2019-09-06 19:13:21:210,-0.1053,3.2364,10.1834,-0.0027,0.0062,9.8066,0.3538,-0.3418,0.0489,8.06,-37.5,2.19,111.64,-85.55,-163.2
34262,52.420864,-1.533795,166.13,10.69,2,307.72,21 / 21,3434629,2019-09-06 19:13:21:311,-0.9728,1.411,8.9839,-0.0993,0.0301,9.806,-0.0548,-0.4207,0.1111,7.63,-36.94,0.88,118.87,-84.47,-166.78
34263,52.420864,-1.533795,166.13,10.69,2,307.72,21 / 21,3434729,2019-09-06 19:13:21:411,2.6696,3.425,9.3749,-0.0669,0.0238,9.8064,-0.1711,-0.4063,0.0568,6.94,-37.0,1.0,123.13,-84.11,-165.41
34264,52.420864,-1.533795,166.13,10.69,2,307.72,21 / 21,3434829,2019-09-06 19:13:21:511,3.0756,1.9414,9.7782,0.0533,-0.0303,9.8064,-0.094,-0.3881,0.0142,6.94,-36.81,0.0,127.53,-84.43,-166.44
34265,52.420864,-1.533795,166.13,10.69,2,307.72,21 / 21,3434929,2019-09-06 19:13:21:611,6.181,1.7749,11.206,0.0392,-0.0122,9.8065,-0.1176,-0.3858,0.0092,7.19,-35.94,-0.12,126.21,-85.0,-164.96
34266,52.420864,-1.533795,166.13,10.69,2,307.72,21 / 21,3435029,2019-09-06 19:13:21:711,0.8732,4.0632,10.5703,-0.0515,0.006,9.8065,0.3716,-0.4531,0.0658,6.31,-36.56,-1.12,134.4,-84.6,-169.16
34267,52.420864,-1.533795,166.13,10.69,2,307.72,21 / 21,3435129,2019-09-06 19:13:21:811,1.5164,2.9615,10.1669,0.0246,-0.0023,9.8066,0.336,-0.4066,0.0237,6.75,-37.06,-1.12,131.28,-84.48,-168.99
34268,52.420864,-1.533795,166.13,10.69,2,307.72,21 / 21,3435228,2019-09-06 19:13:21:910,2.4611,2.8754,10.097,-0.0597,0.0579,9.8062,0.0762,-0.4244,0.0355,5.81,-36.62,-2.06,141.22,-83.74,-170.65
34269,52.420864,-1.533795,166.13,10.69,2,307.72,21 / 21,3435329,2019-09-06 19:13:22:011,0.9652,0.5447,10.7757,-0.0145,0.0216,9.8066,0.1778,-0.3885,-0.0199,5.06,-37.31,-2.12,146.1,-83.82,-169.97
34270,52.420864,-1.533795,166.13,10.69,2,307.72,21 / 21,3435429,2019-09-06 19:13:22:111,2.7508,1.0809,10.8527,-0.02,0.0509,9.8065,-0.1887,-0.5208,0.1447,5.25,-37.31,-4.25,154.97,-83.92,-168.59
34271,52.420864,-1.533795,166.13,10.69,2,307.72,21 / 21,3435529,2019-09-06 19:13:22:211,5.3108,2.3849,10.7423,-0.0137,0.0271,9.8066,0.0392,-0.3438,-0.1547,4.56,-37.25,-4.25,156.39,-84.08,-165.99
34272,52.420864,-1.533795,166.13,10.69,2,307.72,21 / 21,3435628,2019-09-06 19:13:22:310,3.0783,0.1805,9.9972,-0.016,-0.011,9.8065,0.0479,-0.3896,0.0237,4.25,-37.12,-4.87,160.27,-84.16,-172.43
34273,52.420864,-1.533795,166.13,10.69,2,307.72,21 / 21,3435728,2019-09-06 19:13:22:410,0.7589,1.4377,8.9223,0.0038,-0.0284,9.8066,-0.0052,-0.3843,0.0313,4.31,-37.37,-5.12,159.35,-84.12,-173.94
34274,52.420864,-1.533795,166.13,10.69,2,307.72,21 / 21,3435829,2019-09-06 19:13:22:511,1.4186,1.1996,9.182,0.0324,0.0327,9.8065,0.0685,-0.4498,0.1442,3.13,-36.94,-5.0,164.97,-83.92,-174.02
34275,52.420864,-1.533795,166.13,10.69,2,307.72,21 / 21,3435929,2019-09-06 19:13:22:611,2.8925,0.8822,9.9357,0.0024,0.0045,9.8066,0.0691,-0.4428,0.084,1.69,-37.31,-5.44,173.57,-83.75,-169.39
34276,52.420864,-1.533795,166.13,10.69,2,307.72,21 / 21,3436030,2019-09-06 19:13:22:712,1.3348,-0.424,10.0616,-0.0342,-0.0164,9.8066,-0.122,-0.283,-0.0874,2.38,-37.31,-5.19,171.79,-83.76,-172.49
34277,52.420864,-1.533795,166.13,10.69,2,307.72,21 / 21,3436129,2019-09-06 19:13:22:811,0.8002,-0.8102,8.9847,-0.0369,0.0288,9.8065,-0.2529,-0.3309,0.0429,2.38,-37.44,-6.06,171.37,-83.7,-175.67
34278,52.420864,-1.533795,166.13,10.69,2,307.72,21 / 21,3436228,2019-09-06 19:13:22:910,1.5275,0.0301,10.8047,0.0088,-0.0154,9.8066,0.112,-0.2865,-0.0184,1.19,-37.37,-5.69,177.15,-83.82,-175.24
34279,52.420864,-1.533795,166.13,10.69,2,307.72,21 / 21,3436328,2019-09-06 19:13:23:010,0.0401,2.9421,9.4618,-0.0035,-0.0239,9.8066,0.1395,-0.2601,0.0686,1.25,-37.56,-5.69,176.73,-83.71,-176.03
34280,52.420864,-1.533795,166.13,10.69,2,307.72,21 / 21,3436429,2019-09-06 19:13:23:111,0.2576,1.0701,10.0697,-0.0076,0.038,9.8065,0.1614,-0.2138,-0.0291,0.88,-37.25,-5.62,177.55,-83.37,-174.69
34281,52.420864,-1.533795,166.13,10.69,2,307.72,21 / 21,3436528,2019-09-06 19:13:23:210,-0.0188,0.1798,9.7164,-0.0098,0.0087,9.8066,-0.1528,-0.2072,0.0652,0.19,-37.75,-6.19,182.73,-83.36,-175.3
34282,52.420864,-1.533795,166.13,10.69,2,307.72,21 / 21,3436629,2019-09-06 19:13:23:311,-0.5242,-0.2231,9.3442,0.0332,-0.0535,9.8064,-0.256,-0.1161,0.1035,0.56,-37.69,-6.56,179.67,-83.86,-172.39
34283,52.420864,-1.533795,166.13,10.69,2,307.72,21 / 21,3436731,2019-09-06 19:13:23:413,0.332,1.316,9.6191,0.0251,-0.033,9.8065,0.0887,-0.0712,0.0308,-0.12,-37.44,-6.81,186.83,-83.92,-169.39
34284,52.420864,-1.533795,166.13,10.69,2,307.72,21 / 21,3436829,2019-09-06 19:13:23:511,-0.5548,0.6837,10.1218,0.0215,0.0002,9.8066,0.0565,-0.0012,0.0297,-0.56,-37.75,-6.69,193.5,-83.71,-166.81
34285,52.420864,-1.533795,166.13,10.69,2,307.72,21 / 21,3436929,2019-09-06 19:13:23:611,0.1676,1.0699,10.4248,0.0075,-0.0092,9.8066,0.1118,0.0302,-0.0158,-0.75,-37.37,-6.31,194.86,-83.62,-164.71
34286,52.420864,-1.533795,166.13,10.69,2,307.72,21 / 21,3437029,2019-09-06 19:13:23:711,-1.2397,1.8043,9.9607,0.0223,0.0255,9.8065,0.1101,0.041,0.0124,-0.69,-37.81,-6.37,194.18,-83.62,-165.57
34287,52.420864,-1.533795,166.13,10.69,2,307.72,21 / 21,3437128,2019-09-06 19:13:23:810,-1.5506,1.0126,10.3459,0.0059,0.0043,9.8066,-0.0679,0.0746,0.0,-0.62,-37.37,-6.25,195.34,-83.35,-163.48
34288,52.420864,-1.533795,166.13,10.69,2,307.72,21 / 21,3437228,2019-09-06 19:13:23:910,0.3789,1.1219,9.6039,0.0408,-0.018,9.8065,0.0043,-0.0568,0.1575,-0.75,-37.62,-6.25,197.35,-83.3,-159.67
34289,52.420864,-1.533795,166.13,10.69,2,307.72,21 / 21,3437329,2019-09-06 19:13:24:011,1.3387,2.4637,10.1262,0.023,-0.0239,9.8066,0.2002,0.0306,0.0087,-1.0,-37.62,-6.37,198.4,-83.13,-157.52
34290,52.420864,-1.533795,166.13,10.69,2,307.72,21 / 21,3437429,2019-09-06 19:13:24:111,1.6178,0.306,8.9529,-0.0031,-0.0638,9.8064,-0.1812,0.0237,-0.0453,-0.75,-37.56,-6.25,199.75,-83.41,-155.8
34291,52.420864,-1.533795,166.13,10.69,2,307.72,21 / 21,3437529,2019-09-06 19:13:24:211,-4.1301,0.6382,10.5238,0.0005,-0.0604,9.8064,0.2157,0.0897,-0.0219,-0.37,-37.75,-6.5,192.77,-83.86,-158.69
34292,52.420864,-1.533795,166.13,10.69,2,307.72,21 / 21,3437629,2019-09-06 19:13:24:311,-0.4732,0.865,10.1311,0.0151,-0.0761,9.8063,0.2204,-0.0585,0.2183,-1.0,-37.44,-6.31,200.43,-83.9,-156.08
34293,52.420864,-1.533795,166.13,10.69,2,307.72,21 / 21,3437729,2019-09-06 19:13:24:411,0.5892,2.3297,11.4911,-0.0129,0.0583,9.8065,-0.0497,0.0348,-0.0577,-0.37,-37.19,-5.69,195.58,-83.32,-153.41
34294,52.420864,-1.533795,166.13,10.69,2,307.72,21 / 21,3437829,2019-09-06 19:13:24:511,-1.0847,2.0738,9.8875,-0.0405,0.0383,9.8064,0.2104,0.1923,-0.1215,-1.06,-37.31,-6.31,200.13,-83.51,-155.74
34295,52.420864,-1.533795,166.13,10.69,2,307.72,21 / 21,3437928,2019-09-06 19:13:24:610,-1.8726,0.5794,8.8705,0.0038,0.036,9.8065,-0.1762,0.0511,-0.0379,0.19,-37.37,-6.0,193.05,-83.67,-158.18
34296,52.420864,-1.533795,166.13,10.69,2,307.72,21 / 21,3438028,2019-09-06 19:13:24:710,1.3717,0.9223,9.5171,-0.0177,0.0169,9.8065,-0.1507,-0.0013,0.002,0.38,-37.19,-6.0,192.85,-83.58,-158.41
34297,52.420864,-1.533795,166.13,10.69,2,307.72,21 / 21,3438128,2019-09-06 19:13:24:810,-0.3505,-0.182,10.8841,0.0079,-0.0388,9.8065,-0.1176,0.1848,-0.0256,0.25,-37.12,-7.25,193.96,-84.08,-158.55
34298,52.420864,-1.533795,166.13,10.69,2,307.72,21 / 21,3438229,2019-09-06 19:13:24:911,-0.3529,0.0621,9.9844,0.0243,-0.0535,9.8064,0.0079,0.1126,-0.0494,0.38,-37.56,-6.31,193.58,-84.3,-157.98
34299,52.420864,-1.533795,166.13,10.69,2,307.72,21 / 21,3438329,2019-09-06 19:13:25:011,-1.155,0.4822,9.8234,-0.0228,0.0312,9.8065,0.1493,-0.0138,0.0128,0.0,-37.62,-6.12,191.39,-83.97,-161.11
34300,52.42125,-1.534545,166.44,7.6,2,334.97,21 / 21,3438428,2019-09-06 19:13:25:110,-2.6329,0.8003,9.5145,-0.0046,0.0134,9.8066,0.0892,0.0654,-0.0482,0.0,-36.75,-5.5,189.78,-83.77,-162.44
34301,52.42125,-1.534545,166.44,7.6,2,334.97,21 / 21,3438529,2019-09-06 19:13:25:211,-1.2576,0.9658,9.9816,0.0265,0.0006,9.8065,-0.1159,0.0364,0.0459,-0.25,-37.25,-5.87,191.77,-83.65,-160.29
34302,52.42125,-1.534545,166.44,7.6,2,334.97,21 / 21,3438628,2019-09-06 19:13:25:310,-1.0162,0.9181,9.2415,0.0184,-0.0127,9.8066,-0.181,0.0387,0.0413,-0.06,-36.31,-5.81,192.91,-83.86,-158.92
34303,52.42125,-1.534545,166.44,7.6,2,334.97,21 / 21,3438728,2019-09-06 19:13:25:410,-0.7279,-0.4209,9.518,0.016,-0.0118,9.8065,-0.1346,0.0655,0.0509,-0.31,-36.87,-6.19,195.68,-84.12,-154.56
34304,52.42125,-1.534545,166.44,7.6,2,334.97,21 / 21,3438829,2019-09-06 19:13:25:511,-0.0501,-0.5568,9.9612,0.0144,-0.0317,9.8065,0.1115,-0.0196,0.0333,-0.62,-36.31,-6.0,204.44,-84.28,-150.98
34305,52.42125,-1.534545,166.44,7.6,2,334.97,21 / 21,3438929,2019-09-06 19:13:25:611,-0.8954,1.128,9.8213,0.0122,-0.0319,9.8066,-0.0199,0.0129,0.017,-0.37,-36.44,-5.56,198.9,-84.23,-149.91
34306,52.42125,-1.534545,166.44,7.6,2,334.97,21 / 21,3439028,2019-09-06 19:13:25:710,-0.051,0.7919,9.6739,-0.0051,0.0144,9.8066,0.0529,0.0398,0.0013,0.0,-35.94,-6.06,198.23,-84.1,-150.74
34307,52.42125,-1.534545,166.44,7.6,2,334.97,21 / 21,3439129,2019-09-06 19:13:25:811,-0.8864,2.2805,9.8489,0.003,0.0017,9.8066,0.0837,0.0703,-0.0298,0.38,-36.25,-6.12,198.26,-84.11,-150.7
34308,52.42125,-1.534545,166.44,7.6,2,334.97,21 / 21,3439229,2019-09-06 19:13:25:911,0.5763,-0.8671,10.2373,0.0002,0.0046,9.8066,-0.1444,-0.0087,-0.0119,-0.25,-36.44,-6.56,199.11,-84.2,-151.19
34309,52.42125,-1.534545,166.44,7.6,2,334.97,21 / 21,3439328,2019-09-06 19:13:26:010,0.1731,0.6825,9.7632,-0.0009,-0.002,9.8066,0.1842,0.0335,-0.0272,0.63,-35.94,-5.81,191.91,-84.21,-151.61
34310,52.42125,-1.534545,166.44,7.6,2,334.97,21 / 21,3439429,2019-09-06 19:13:26:111,-1.0239,1.2112,10.0916,-0.001,0.008,9.8066,0.1657,0.0119,-0.0304,0.06,-36.12,-6.0,196.89,-84.1,-152.87
34311,52.42125,-1.534545,166.44,7.6,2,334.97,21 / 21,3439528,2019-09-06 19:13:26:210,0.2992,1.4018,10.235,-0.0126,-0.0075,9.8066,0.0262,-0.0475,0.0351,0.69,-35.94,-5.75,189.71,-84.09,-154.97
34312,52.42125,-1.534545,166.44,7.6,2,334.97,21 / 21,3439629,2019-09-06 19:13:26:311,-0.0083,1.6999,10.3764,-0.0169,0.0511,9.8064,0.0448,-0.0136,-0.0273,0.81,-36.5,-5.69,188.58,-83.69,-156.44
34313,52.42125,-1.534545,166.44,7.6,2,334.97,21 / 21,3439728,2019-09-06 19:13:26:410,-0.0431,0.729,10.2172,-0.0024,0.0306,9.8065,0.0671,-0.0592,0.0434,0.75,-36.12,-5.94,188.55,-83.75,-156.54
34314,52.42125,-1.534545,166.44,7.6,2,334.97,21 / 21,3439829,2019-09-06 19:13:26:511,-0.3767,0.0966,9.849,-0.0007,0.0265,9.8066,0.0512,0.0008,-0.0317,1.25,-36.37,-5.81,188.14,-83.9,-157.33
34315,52.42125,-1.534545,166.44,7.6,2,334.97,21 / 21,3439929,2019-09-06 19:13:26:611,-0.622,1.4005,9.3994,-0.01,0.016,9.8066,-0.0951,0.1195,-0.021,0.56,-36.19,-6.5,187.78,-83.7,-157.75
34316,52.42125,-1.534545,166.44,7.6,2,334.97,21 / 21,3440028,2019-09-06 19:13:26:710,-0.3609,0.5656,10.1862,0.0016,-0.0065,9.8066,-0.0115,-0.0179,0.0094,1.13,-35.62,-6.0,187.71,-83.73,-157.9
34317,52.42125,-1.534545,166.44,7.6,2,334.97,21 / 21,3440129,2019-09-06 19:13:26:811,0.0968,-0.3643,9.749,-0.0003,-0.0062,9.8066,-0.0223,-0.042,-0.008,0.88,-34.81,-6.75,189.07,-83.79,-158.01
34318,52.42125,-1.534545,166.44,7.6,2,334.97,21 / 21,3440228,2019-09-06 19:13:26:910,0.3945,-0.3407,9.8912,-0.0003,0.0103,9.8066,0.0417,-0.0311,0.0315,0.63,-35.69,-6.75,189.03,-83.83,-157.97
34319,52.42125,-1.534545,166.44,7.6,2,334.97,21 / 21,3440328,2019-09-06 19:13:27:010,0.1289,0.023,9.9852,-0.0144,0.0169,9.8066,-0.0709,-0.0246,-0.0451,-0.25,-35.37,-6.94,193.6,-83.76,-159.14
34320,52.42125,-1.534545,166.44,7.6,2,334.97,21 / 21,3440428,2019-09-06 19:13:27:110,0.5444,-0.1945,9.5898,0.0012,-0.0263,9.8065,-0.0781,-0.0108,-0.0197,-0.62,-34.69,-7.19,198.8,-83.94,-159.73
34321,52.42125,-1.534545,166.44,7.6,2,334.97,21 / 21,3440529,2019-09-06 19:13:27:211,-0.3696,-0.3013,9.6062,-0.0051,-0.0071,9.8066,0.037,-0.0509,0.0098,-1.31,-35.25,-6.31,198.09,-83.86,-160.44
34322,52.42125,-1.534545,166.44,7.6,2,334.97,21 / 21,3440628,2019-09-06 19:13:27:310,0.3782,-0.7049,9.7646,-0.007,-0.0104,9.8066,0.0053,-0.0327,-0.0278,-0.19,-34.06,-5.69,191.41,-83.89,-161.8
34323,52.42125,-1.534545,166.44,7.6,2,334.97,21 / 21,3440728,2019-09-06 19:13:27:410,0.2492,-0.123,9.8652,-0.0089,-0.0105,9.8066,-0.0108,-0.0251,-0.0123,-0.69,-35.06,-5.25,196.59,-84.03,-163.03
34324,52.42125,-1.534545,166.44,7.6,2,334.97,21 / 21,3440829,2019-09-06 19:13:27:511,-0.6284,0.0664,9.5503,-0.0072,-0.0058,9.8065,0.0016,-0.0435,-0.0171,0.13,-34.75,-4.69,188.94,-84.06,-164.64
34325,52.42125,-1.534545,166.44,7.6,2,334.97,21 / 21,3440929,2019-09-06 19:13:27:611,0.0108,-0.1083,10.1504,-0.0005,0.0018,9.8066,0.0485,-0.0269,-0.0118,0.88,-35.56,-4.44,180.77,-84.03,-164.5
34326,52.42125,-1.534545,166.44,7.6,2,334.97,21 / 21,3441029,2019-09-06 19:13:27:711,-0.4382,0.2227,9.6246,-0.0064,0.0142,9.8066,0.0606,-0.0161,0.0127,1.75,-34.81,-5.06,175.29,-83.92,-166.13
34327,52.42125,-1.534545,166.44,7.6,2,334.97,21 / 21,3441128,2019-09-06 19:13:27:810,0.1864,-0.4156,10.1628,-0.0007,0.0176,9.8066,-0.0326,0.0088,-0.0271,1.5,-35.44,-5.37,175.57,-83.87,-165.68
34328,52.42125,-1.534545,166.44,7.6,2,334.97,21 / 21,3441228,2019-09-06 19:13:27:910,0.494,-0.5373,10.1297,-0.0101,0.0169,9.8066,-0.0882,-0.0154,-0.0058,2.13,-35.87,-5.19,175.88,-83.93,-165.21
34329,52.42125,-1.534545,166.44,7.6,2,334.97,21 / 21,3441328,2019-09-06 19:13:28:010,0.2235,-0.4812,9.4298,-0.0064,-0.0031,9.8066,-0.0357,-0.0042,0.0099,2.5,-35.69,-5.62,172.13,-83.86,-165.78
34330,52.42125,-1.534545,166.44,7.6,2,334.97,21 / 21,3441429,2019-09-06 19:13:28:111,-0.0474,0.2097,9.77,-0.0049,0.0106,9.8066,-0.0242,0.0175,-0.0093,1.44,-35.25,-5.25,181.31,-83.88,-166.43
34331,52.42125,-1.534545,166.44,7.6,2,334.97,21 / 21,3441528,2019-09-06 19:13:28:210,0.377,-0.8057,10.2345,0.0033,0.0038,9.8066,0.0194,0.0025,0.0294,1.88,-35.37,-5.19,175.56,-83.91,-165.67
34332,52.42125,-1.534545,166.44,7.6,2,334.97,21 / 21,3441629,2019-09-06 19:13:28:311,-0.0213,-1.1095,10.1974,-0.0143,-0.0122,9.8066,-0.031,0.0006,-0.0529,1.19,-34.44,-5.62,182.51,-84.0,-166.57
34333,52.42125,-1.534545,166.44,7.6,2,334.97,21 / 21,3441730,2019-09-06 19:13:28:412,-0.3348,-0.8243,9.645,-0.0069,0.0007,9.8066,0.0326,0.0077,-0.0378,2.19,-35.37,-5.56,176.06,-83.98,-167.76
34334,52.42125,-1.534545,166.44,7.6,2,334.97,21 / 21,3441829,2019-09-06 19:13:28:511,-0.136,-0.7267,9.8775,0.0012,0.0014,9.8066,0.0393,0.0179,-0.0049,2.25,-36.12,-6.31,175.79,-83.89,-168.31
34335,52.42125,-1.534545,166.44,7.6,2,334.97,21 / 21,3441929,2019-09-06 19:13:28:611,-0.1397,-1.1651,9.8019,-0.0105,0.0235,9.8065,0.0822,-0.0005,0.0278,3.19,-35.62,-5.87,170.12,-83.68,-169.07
34336,52.42125,-1.534545,166.44,7.6,2,334.97,21 / 21,3442029,2019-09-06 19:13:28:711,0.5762,-0.7629,9.7972,-0.0059,0.0245,9.8066,-0.1058,-0.0027,-0.0263,3.0,-35.94,-6.06,170.13,-83.66,-169.08
34337,52.42125,-1.534545,166.44,7.6,2,334.97,21 / 21,3442129,2019-09-06 19:13:28:811,-0.0494,-0.7482,9.6906,0.0063,-0.0209,9.8066,-0.0797,0.0481,0.0067,2.94,-36.25,-5.69,170.07,-83.76,-169.08
34338,52.42125,-1.534545,166.44,7.6,2,334.97,21 / 21,3442228,2019-09-06 19:13:28:910,0.0379,-0.9446,10.1242,0.0146,-0.0349,9.8065,0.0912,0.0179,-0.0158,3.5,-36.06,-5.81,165.05,-83.81,-169.16
34339,52.42125,-1.534545,166.44,7.6,2,334.97,21 / 21,3442329,2019-09-06 19:13:29:011,-0.907,-0.6982,9.8532,-0.0131,0.0189,9.8066,0.1193,0.048,-0.0286,2.88,-36.81,-6.37,170.27,-83.78,-168.91
34340,52.42125,-1.534545,166.44,7.6,2,334.97,21 / 21,3442429,2019-09-06 19:13:29:111,-0.0449,-1.0191,9.6056,-0.0101,0.0149,9.8066,-0.1207,0.0936,-0.0298,3.44,-36.06,-6.06,169.9,-83.63,-169.47
34341,52.42125,-1.534545,166.44,7.6,2,334.97,21 / 21,3442528,2019-09-06 19:13:29:210,0.5773,-1.851,9.6917,0.01,-0.0092,9.8066,-0.052,-0.0049,0.0539,3.19,-37.0,-6.06,170.99,-83.72,-167.81
34342,52.42125,-1.534545,166.44,7.6,2,334.97,21 / 21,3442629,2019-09-06 19:13:29:311,-0.3917,-2.4407,9.6586,0.0062,-0.011,9.8066,0.1089,0.0847,-0.024,3.25,-35.94,-5.87,170.85,-83.77,-167.85
34343,52.42125,-1.534545,166.44,7.6,2,334.97,21 / 21,3442729,2019-09-06 19:13:29:411,0.1448,-1.8961,9.7907,0.0167,-0.0162,9.8066,0.0163,0.0435,0.0293,3.63,-35.75,-5.44,163.21,-83.77,-168.19
34344,52.42125,-1.534545,166.44,7.6,2,334.97,21 / 21,3442828,2019-09-06 19:13:29:510,-0.8427,-1.8144,10.017,0.0243,-0.0336,9.8065,0.0781,0.0624,-0.011,3.5,-36.69,-5.06,163.96,-83.96,-166.97
34345,52.42125,-1.534545,166.44,7.6,2,334.97,21 / 21,3442928,2019-09-06 19:13:29:610,-0.1693,-1.5639,9.6166,-0.0259,0.0392,9.8065,0.1538,0.1312,-0.0238,3.63,-36.56,-5.94,166.11,-83.82,-167.75
34346,52.42125,-1.534545,166.44,7.6,2,334.97,21 / 21,3443028,2019-09-06 19:13:29:710,-0.9275,-2.5902,9.922,-0.008,0.0284,9.8065,-0.0887,0.1799,-0.0001,4.19,-36.12,-5.56,166.49,-83.95,-166.82
34347,52.42125,-1.534545,166.44,7.6,2,334.97,21 / 21,3443129,2019-09-06 19:13:29:811,-0.9389,-2.1289,9.3681,0.0144,-0.01,9.8066,-0.0634,0.1314,0.0024,3.56,-36.0,-5.44,163.84,-84.18,-166.57
34348,52.42125,-1.534545,166.44,7.6,2,334.97,21 / 21,3443229,2019-09-06 19:13:29:911,-0.2373,-1.5473,9.8243,-0.0029,0.0079,9.8066,0.0124,0.1629,0.0019,3.63,-36.44,-5.37,164.22,-84.2,-165.95
34349,52.42125,-1.534545,166.44,7.6,2,334.97,21 / 21,3443329,2019-09-06 19:13:30:011,-0.624,-2.1369,10.1983,0.0111,-0.0157,9.8065,0.0267,0.2445,-0.0329,4.63,-35.87,-5.44,159.39,-84.28,-165.83
34350,52.42125,-1.534545,166.44,7.6,2,334.97,21 / 21,3443429,2019-09-06 19:13:30:111,-0.3674,-2.3121,10.2495,-0.0181,-0.0205,9.8066,0.0256,0.2619,-0.1254,4.75,-36.5,-4.87,157.99,-84.29,-167.86
34351,52.42125,-1.534545,166.44,7.6,2,334.97,21 / 21,3443529,2019-09-06 19:13:30:211,-0.9269,-3.0068,9.3265,-0.0238,0.018,9.8065,-0.0246,0.3609,-0.041,5.19,-35.87,-4.75,155.18,-84.22,-172.14
34352,52.42125,-1.534545,166.44,7.6,2,334.97,21 / 21,3443628,2019-09-06 19:13:30:310,-0.9722,-2.8955,9.1752,-0.0108,0.0175,9.8066,-0.0137,0.2902,0.0018,5.88,-35.94,-3.62,147.23,-84.2,-172.21
34353,52.42125,-1.534545,166.44,7.6,2,334.97,21 / 21,3443729,2019-09-06 19:13:30:411,-1.6902,-3.0047,9.8458,0.012,0.0005,9.8065,-0.0264,0.3913,-0.0375,5.63,-36.0,-3.37,143.21,-84.31,-171.83
34354,52.42125,-1.534545,166.44,7.6,2,334.97,21 / 21,3443829,2019-09-06 19:13:30:511,-0.7945,-3.0449,10.1477,0.015,0.0028,9.8066,0.0144,0.3183,0.0148,5.13,-36.56,-3.62,153.43,-84.33,-169.92
34355,52.42125,-1.534545,166.44,7.6,2,334.97,21 / 21,3443929,2019-09-06 19:13:30:611,0.0703,-1.959,9.8504,0.0036,-0.0087,9.8066,-0.0656,0.3367,-0.0646,6.38,-35.5,-3.12,144.09,-84.46,-169.55
34356,52.42125,-1.534545,166.44,7.6,2,334.97,21 / 21,3444028,2019-09-06 19:13:30:710,0.177,-2.7779,10.2504,-0.005,-0.012,9.8066,0.0707,0.4072,-0.0208,7.25,-35.94,-2.31,134.3,-84.59,-171.07
34357,52.42125,-1.534545,166.44,7.6,2,334.97,21 / 21,3444130,2019-09-06 19:13:30:812,-0.3883,-2.2722,9.4406,-0.0005,-0.0146,9.8066,-0.0022,0.4177,-0.0743,7.13,-35.0,-1.94,132.19,-84.72,-172.84
34358,52.42125,-1.534545,166.44,7.6,2,334.97,21 / 21,3444229,2019-09-06 19:13:30:911,-0.5267,-2.6871,9.8549,0.0096,0.004,9.8066,0.0719,0.419,0.0056,7.25,-36.19,-1.31,127.45,-84.66,-172.71
34359,52.42125,-1.534545,166.44,7.6,2,334.97,21 / 21,3444328,2019-09-06 19:13:31:010,0.3541,-2.2482,9.6394,-0.0073,0.0086,9.8066,0.02,0.4045,-0.0172,8.63,-36.31,-1.06,123.21,-84.61,-171.28
34360,52.42125,-1.534545,166.44,7.6,2,334.97,21 / 21,3444429,2019-09-06 19:13:31:111,-0.5721,-1.8596,9.7235,0.0053,0.0077,9.8066,-0.0203,0.3979,0.029,8.88,-35.75,-0.44,119.55,-84.7,-169.16
34361,52.42125,-1.534545,166.44,7.6,2,334.97,21 / 21,3444528,2019-09-06 19:13:31:210,0.6708,-0.9786,9.6234,-0.0046,0.012,9.8066,-0.0798,0.3667,-0.0185,8.75,-36.0,0.94,115.32,-84.71,-167.67
34362,52.42125,-1.534545,166.44,7.6,2,334.97,21 / 21,3444629,2019-09-06 19:13:31:311,0.7685,-2.1542,9.7804,0.0484,-0.009,9.8065,0.0888,0.3965,0.0063,8.38,-35.94,1.0,117.46,-85.04,-165.41
34363,52.42125,-1.534545,166.44,7.6,2,334.97,21 / 21,3444729,2019-09-06 19:13:31:411,0.8292,-1.6653,9.8308,0.0396,-0.013,9.8065,0.0719,0.3713,-0.0276,9.19,-35.94,1.13,115.8,-85.21,-165.22
34364,52.42125,-1.534545,166.44,7.6,2,334.97,21 / 21,3444829,2019-09-06 19:13:31:511,0.5471,-1.3842,9.8319,-0.0176,-0.0137,9.8065,-0.0712,0.3649,-0.0596,9.75,-36.31,1.25,114.44,-85.3,-165.33
34365,52.42125,-1.534545,166.44,7.6,2,334.97,21 / 21,3444929,2019-09-06 19:13:31:611,1.0499,-1.6307,9.8635,-0.0069,-0.0079,9.8066,-0.0103,0.381,-0.0278,10.19,-35.25,2.69,100.53,-85.4,-168.11
34366,52.42125,-1.534545,166.44,7.6,2,334.97,21 / 21,3445029,2019-09-06 19:13:31:711,1.4199,-1.2215,9.9908,0.0041,0.0038,9.8066,0.026,0.3769,-0.0267,9.69,-36.25,3.75,95.26,-85.37,-168.55
34367,52.42125,-1.534545,166.44,7.6,2,334.97,21 / 21,3445129,2019-09-06 19:13:31:811,1.3018,-0.3701,9.6284,0.0024,-0.0007,9.8066,0.077,0.3647,-0.0322,9.19,-36.56,4.88,89.24,-85.34,-168.74
34368,52.42125,-1.534545,166.44,7.6,2,334.97,21 / 21,3445229,2019-09-06 19:13:31:911,1.2341,-1.3127,9.3515,-0.0034,-0.0175,9.8066,-0.0405,0.4111,-0.0458,9.38,-35.37,5.25,85.92,-85.23,-171.48
34369,52.42125,-1.534545,166.44,7.6,2,334.97,21 / 21,3445329,2019-09-06 19:13:32:011,2.0341,-1.5996,9.4645,0.0073,-0.0178,9.8066,-0.0284,0.4246,-0.091,9.75,-35.94,6.25,79.51,-85.26,-174.13
34370,52.42125,-1.534545,166.44,7.6,2,334.97,21 / 21,3445429,2019-09-06 19:13:32:111,2.5658,-1.3814,9.7718,0.012,-0.0111,9.8065,-0.0094,0.4112,-0.0233,10.38,-35.5,7.19,70.42,-85.33,-177.39
34371,52.42125,-1.534545,166.44,7.6,2,334.97,21 / 21,3445529,2019-09-06 19:13:32:211,1.8973,-1.0498,9.9873,0.0063,0.0093,9.8066,-0.0375,0.4182,0.0037,9.81,-35.75,8.56,60.84,-85.48,-177.89
34372,52.42125,-1.534545,166.44,7.6,2,334.97,21 / 21,3445628,2019-09-06 19:13:32:310,2.0055,-0.3953,9.9138,0.0082,0.0095,9.8066,-0.0625,0.4714,-0.0244,9.63,-36.06,8.94,61.67,-85.68,-176.65
34373,52.42125,-1.534545,166.44,7.6,2,334.97,21 / 21,3445728,2019-09-06 19:13:32:410,2.317,0.1183,10.1069,0.0109,0.0028,9.8066,0.0119,0.476,-0.0617,9.69,-35.44,9.56,56.97,-85.81,-176.84
34374,52.42125,-1.534545,166.44,7.6,2,334.97,21 / 21,3445829,2019-09-06 19:13:32:511,3.1251,0.5207,9.6939,0.0154,0.0003,9.8065,-0.0134,0.4951,-0.0611,9.63,-35.19,10.38,54.63,-85.96,-178.62
34375,52.42125,-1.534545,166.44,7.6,2,334.97,21 / 21,3445929,2019-09-06 19:13:32:611,2.9548,1.0661,9.9018,0.0098,0.0022,9.8066,0.0141,0.4619,0.0006,10.25,-35.19,11.5,46.57,-86.02,-179.81
34376,52.42125,-1.534545,166.44,7.6,2,334.97,21 / 21,3446029,2019-09-06 19:13:32:711,2.6908,1.7676,9.7952,0.0083,0.0125,9.8066,-0.0102,0.4518,-0.0113,9.81,-35.5,12.25,47.09,-86.07,-179.25
34377,52.42125,-1.534545,166.44,7.6,2,334.97,21 / 21,3446129,2019-09-06 19:13:32:811,1.8553,1.5514,9.8049,0.0064,0.0138,9.8065,0.0315,0.4398,0.021,10.38,-35.69,13.06,45.17,-86.22,-178.36
34378,52.42125,-1.534545,166.44,7.6,2,334.97,21 / 21,3446228,2019-09-06 19:13:32:910,1.2009,2.1552,9.9676,-0.0096,0.0011,9.8066,-0.0085,0.4094,-0.042,10.19,-35.56,13.88,45.19,-86.23,-176.01
34379,52.42125,-1.534545,166.44,7.6,2,334.97,21 / 21,3446329,2019-09-06 19:13:33:011,1.5921,2.1969,9.7285,0.0059,-0.0012,9.8066,-0.0062,0.3319,0.0294,9.75,-35.5,13.88,44.44,-86.27,-176.49
34380,52.42125,-1.534545,166.44,7.6,2,334.97,21 / 21,3446429,2019-09-06 19:13:33:111,0.8908,1.9905,9.8444,0.002,0.004,9.8066,0.048,0.3314,-0.0151,9.13,-35.44,13.94,42.11,-86.28,-175.93
34381,52.42125,-1.534545,166.44,7.6,2,334.97,21 / 21,3446528,2019-09-06 19:13:33:210,0.8007,1.9802,9.8363,0.0014,-0.0037,9.8066,0.0474,0.2782,-0.0308,9.19,-35.56,14.0,41.74,-86.26,-176.45
34382,52.42125,-1.534545,166.44,7.6,2,334.97,21 / 21,3446629,2019-09-06 19:13:33:311,0.644,1.7949,9.7446,-0.0096,-0.013,9.8066,-0.0379,0.2159,0.0494,9.19,-35.5,14.81,38.74,-86.2,-177.04
34383,52.42125,-1.534545,166.44,7.6,2,334.97,21 / 21,3446729,2019-09-06 19:13:33:411,0.446,2.0006,9.8469,-0.018,-0.0097,9.8065,0.0592,0.1741,-0.0103,9.63,-35.69,14.81,43.44,-86.06,-175.73
34384,52.42125,-1.534545,166.44,7.6,2,334.97,21 / 21,3446828,2019-09-06 19:13:33:510,0.2486,1.6354,9.6921,0.0076,0.0019,9.8066,0.0228,0.1483,-0.0153,9.44,-35.31,16.06,37.2,-85.98,-176.86
34385,52.42125,-1.534545,166.44,7.6,2,334.97,21 / 21,3446929,2019-09-06 19:13:33:611,-0.154,1.7436,9.7842,0.0035,0.0003,9.8066,0.022,0.1029,0.0001,9.38,-35.0,16.13,36.53,-85.96,-177.48
34386,52.42125,-1.534545,166.44,7.6,2,334.97,21 / 21,3447028,2019-09-06 19:13:33:710,0.2578,1.3795,9.9612,0.0011,-0.01,9.8066,-0.007,0.0882,-0.0308,8.94,-35.25,16.63,33.18,-85.91,-178.86
34387,52.42125,-1.534545,166.44,7.6,2,334.97,21 / 21,3447131,2019-09-06 19:13:33:813,0.057,0.9567,9.8357,0.0051,-0.0081,9.8066,0.0116,0.0942,-0.0025,9.06,-35.12,16.19,33.54,-85.9,179.8
34388,52.42125,-1.534545,166.44,7.6,2,334.97,21 / 21,3447229,2019-09-06 19:13:33:911,-0.1873,0.7253,9.8448,0.0035,-0.0045,9.8066,0.0038,0.0616,-0.0094,9.06,-35.06,15.88,32.28,-85.88,178.65
34389,52.42125,-1.534545,166.44,7.6,2,334.97,21 / 21,3447329,2019-09-06 19:13:34:011,-0.3003,0.5719,9.802,0.0025,-0.0036,9.8066,0.0099,0.035,0.0013,8.69,-34.87,16.5,29.08,-85.84,177.43
34390,52.4216,-1.534987,166.66,0.07,3,246.24,20 / 20,3447429,2019-09-06 19:13:34:111,-0.197,0.7222,9.8486,0.0034,-0.002,9.8066,0.0175,0.0496,-0.0065,9.13,-34.69,16.44,30.35,-85.8,176.88
34391,52.4216,-1.534987,166.66,0.07,3,246.24,20 / 20,3447528,2019-09-06 19:13:34:210,-0.5245,0.309,9.7147,0.0096,-0.0023,9.8066,0.0211,0.0402,0.009,9.06,-34.56,16.75,27.13,-85.78,175.67
34392,52.4216,-1.534987,166.66,0.07,3,246.24,20 / 20,3447628,2019-09-06 19:13:34:310,-0.191,0.278,9.9416,0.0011,-0.0049,9.8066,-0.0024,0.0231,-0.0248,8.69,-34.62,17.13,25.67,-85.74,174.36
34393,52.4216,-1.534987,166.66,0.07,3,246.24,20 / 20,3447729,2019-09-06 19:13:34:411,-0.213,0.4992,9.8618,0.0072,-0.0006,9.8066,-0.0102,0.009,0.0081,9.44,-34.62,17.38,24.57,-85.75,173.4
34394,52.4216,-1.534987,166.66,0.07,3,246.24,20 / 20,3447828,2019-09-06 19:13:34:510,-0.2748,0.6072,9.8371,0.0057,-0.0016,9.8066,0.0013,0.0328,0.0084,8.75,-34.06,17.19,23.27,-85.74,172.34
34395,52.4216,-1.534987,166.66,0.07,3,246.24,20 / 20,3447928,2019-09-06 19:13:34:610,-0.3985,0.5936,9.8605,0.0052,-0.0026,9.8066,-0.0073,0.0208,0.0032,8.38,-34.44,17.31,18.65,-85.75,170.94
34396,52.4216,-1.534987,166.66,0.07,3,246.24,20 / 20,3448029,2019-09-06 19:13:34:711,-0.3191,0.8415,9.9126,0.006,-0.001,9.8066,0.0132,-0.0005,0.0039,8.56,-34.44,17.06,19.97,-85.76,169.46
34397,52.4216,-1.534987,166.66,0.07,3,246.24,20 / 20,3448128,2019-09-06 19:13:34:810,-0.2931,1.0915,9.8373,0.0064,-0.0019,9.8066,-0.0065,-0.0172,0.0006,8.44,-34.69,17.25,15.92,-85.76,168.51
34398,52.4216,-1.534987,166.66,0.07,3,246.24,20 / 20,3448229,2019-09-06 19:13:34:911,-0.4335,0.0205,9.9198,0.0094,-0.0072,9.8066,0.0174,0.0031,-0.0094,8.63,-34.25,17.13,16.48,-85.73,166.4
34399,52.4216,-1.534987,166.66,0.07,3,246.24,20 / 20,3448328,2019-09-06 19:13:35:010,-0.5485,-0.0259,9.8077,0.0088,-0.006,9.8066,0.0245,-0.009,-0.0034,8.69,-34.5,17.63,12.95,-85.69,164.71
34400,52.4216,-1.534987,166.66,0.07,3,246.24,21 / 21,3448429,2019-09-06 19:13:35:111,-0.498,0.3588,9.6675,0.0031,-0.0034,9.8066,0.0111,-0.0066,0.0155,8.5,-34.5,17.25,13.36,-85.64,163.65
34401,52.4216,-1.534987,166.66,0.07,3,246.24,21 / 21,3448529,2019-09-06 19:13:35:211,-0.5024,0.3101,9.8031,0.0022,-0.0026,9.8066,-0.0064,-0.0154,-0.0042,8.94,-34.44,17.69,10.82,-85.63,162.84
34402,52.4216,-1.534987,166.66,0.07,3,246.24,21 / 21,3448629,2019-09-06 19:13:35:311,-0.5753,0.2522,9.8803,0.0057,-0.0004,9.8066,0.0121,-0.0081,0.0075,8.19,-34.62,16.88,8.15,-85.63,161.77
34403,52.4216,-1.534987,166.66,0.07,3,246.24,21 / 21,3448729,2019-09-06 19:13:35:411,-0.6093,0.2211,9.7874,0.0075,0.0021,9.8066,0.0188,-0.0094,0.0148,8.25,-34.25,17.44,7.24,-85.62,161.02
34404,52.4216,-1.534987,166.66,0.07,3,246.24,21 / 21,3448829,2019-09-06 19:13:35:511,-0.5204,0.2036,9.7612,0.0028,-0.0037,9.8066,-0.0032,-0.0073,-0.0004,8.25,-34.37,16.88,6.24,-85.59,160.15
34405,52.4216,-1.534987,166.66,0.07,3,246.24,21 / 21,3448928,2019-09-06 19:13:35:610,-0.5631,0.1458,9.8089,0.0026,-0.0071,9.8065,-0.0063,-0.0058,-0.0001,8.5,-34.06,16.63,8.6,-85.57,159.51
34406,52.4216,-1.534987,166.66,0.07,3,246.24,21 / 21,3449029,2019-09-06 19:13:35:711,-0.5183,0.1956,9.7442,0.0052,0.0004,9.8066,-0.0032,-0.0167,-0.0007,8.44,-34.56,16.94,4.77,-85.56,158.87
34407,52.4216,-1.534987,166.66,0.07,3,246.24,21 / 21,3449129,2019-09-06 19:13:35:811,-0.469,0.4625,9.8827,0.0014,0.0017,9.8066,-0.0107,-0.0049,0.0081,8.19,-34.81,17.31,3.89,-85.56,158.11
34408,52.4216,-1.534987,166.66,0.07,3,246.24,21 / 21,3449229,2019-09-06 19:13:35:911,-0.6406,0.0784,9.8899,0.0032,-0.0038,9.8066,0.0057,-0.0021,-0.0024,8.13,-34.44,16.81,2.91,-85.54,157.29
34409,52.4216,-1.534987,166.66,0.07,3,246.24,21 / 21,3449329,2019-09-06 19:13:36:011,-0.6579,0.1694,9.8305,0.0047,0.0004,9.8066,0.0262,-0.0088,0.0043,8.06,-34.0,16.88,2.05,-85.54,156.56
34410,52.4216,-1.534987,166.66,0.07,3,246.24,21 / 21,3449429,2019-09-06 19:13:36:111,-0.6067,0.1848,9.8084,0.0028,-0.0065,9.8066,-0.0141,-0.0121,-0.0055,8.44,-33.94,16.69,1.92,-85.52,156.44
34411,52.4216,-1.534987,166.66,0.07,3,246.24,21 / 21,3449528,2019-09-06 19:13:36:210,-0.5317,-0.0437,9.8757,0.0034,-0.0086,9.8066,-0.0091,0.0165,-0.0003,8.0,-34.62,17.31,0.83,-85.45,155.5
34412,52.4216,-1.534987,166.66,0.07,3,246.24,21 / 21,3449628,2019-09-06 19:13:36:310,-0.4906,0.2075,9.9051,0.0039,0.0012,9.8066,0.0171,0.0124,0.0041,7.25,-33.94,18.19,355.03,-85.43,154.49
34413,52.4216,-1.534987,166.66,0.07,3,246.24,21 / 21,3449729,2019-09-06 19:13:36:411,-0.6474,-0.1635,9.8551,0.0028,-0.0046,9.8066,-0.0081,0.0145,-0.01,7.56,-33.69,18.06,357.89,-85.37,154.23
34414,52.4216,-1.534987,166.66,0.07,3,246.24,21 / 21,3449828,2019-09-06 19:13:36:510,-0.638,-0.0848,9.6996,0.0063,0.0013,9.8066,0.0106,0.0331,0.0061,7.5,-34.31,18.06,356.77,-85.33,153.27
34415,52.4216,-1.534987,166.66,0.07,3,246.24,21 / 21,3449929,2019-09-06 19:13:36:611,-0.7185,-0.4137,9.9124,0.0042,0.0019,9.8066,0.0042,0.0412,-0.0108,7.63,-33.31,17.5,356.43,-85.3,152.97
34416,52.4216,-1.534987,166.66,0.07,3,246.24,21 / 21,3450028,2019-09-06 19:13:36:710,-0.6635,-0.6173,9.9567,0.0042,-0.004,9.8066,0.0172,0.0595,-0.0038,7.06,-34.19,18.19,353.13,-85.26,152.9
34417,52.4216,-1.534987,166.66,0.07,3,246.24,21 / 21,3450129,2019-09-06 19:13:36:811,-0.5824,-0.2531,9.8693,0.0039,-0.0016,9.8066,-0.0085,0.0723,-0.0077,7.88,-33.75,18.44,355.5,-85.2,152.2
34418,52.4216,-1.534987,166.66,0.07,3,246.24,21 / 21,3450229,2019-09-06 19:13:36:911,-0.4602,-0.3757,9.719,0.0034,-0.0033,9.8066,0.0071,0.0827,-0.0059,8.19,-33.94,17.94,354.67,-85.15,151.51
34419,52.4216,-1.534987,166.66,0.07,3,246.24,21 / 21,3450329,2019-09-06 19:13:37:011,-0.4001,-0.4728,9.7655,0.0047,-0.0024,9.8065,-0.0026,0.1046,-0.0098,8.56,-33.81,17.44,358.84,-85.09,151.12
34420,52.4216,-1.534987,166.66,0.07,3,246.24,21 / 21,3450429,2019-09-06 19:13:37:111,-0.7982,-1.4941,9.8683,0.0045,-0.0006,9.8066,0.015,0.1532,-0.0229,8.5,-33.56,17.75,356.55,-85.01,150.51
34421,52.4216,-1.534987,166.66,0.07,3,246.24,21 / 21,3450528,2019-09-06 19:13:37:210,-0.7783,-1.3906,9.7681,0.0032,-0.0068,9.8066,0.0151,0.1737,-0.0155,9.25,-34.19,17.56,356.26,-84.92,150.27
34422,52.4216,-1.534987,166.66,0.07,3,246.24,21 / 21,3450629,2019-09-06 19:13:37:311,-0.6149,-1.8245,9.8937,-0.0004,-0.0102,9.8066,0.0035,0.221,-0.0308,8.75,-34.0,18.0,355.73,-84.88,149.82
34423,52.4216,-1.534987,166.66,0.07,3,246.24,21 / 21,3450729,2019-09-06 19:13:37:411,-0.5416,-1.6117,9.9099,0.0029,0.0008,9.8066,0.0066,0.2611,-0.0077,8.44,-34.25,17.63,352.27,-84.81,149.55
34424,52.4216,-1.534987,166.66,0.07,3,246.24,21 / 21,3450828,2019-09-06 19:13:37:510,-0.2248,-1.3318,9.8455,-0.0017,0.0005,9.8066,-0.0057,0.2602,-0.0059,8.38,-34.56,18.25,352.55,-84.78,149.82
34425,52.4216,-1.534987,166.66,0.07,3,246.24,21 / 21,3450929,2019-09-06 19:13:37:611,-0.5781,-1.0057,9.7967,0.0018,0.0027,9.8066,-0.0049,0.2985,-0.041,8.06,-34.19,19.63,350.24,-84.79,149.87
34426,52.4216,-1.534987,166.66,0.07,3,246.24,21 / 21,3451028,2019-09-06 19:13:37:710,-0.4695,-0.4889,9.9286,0.0068,0.0033,9.8066,0.0266,0.3385,-0.0177,7.5,-34.31,19.19,350.97,-84.71,149.54
34427,52.4216,-1.534987,166.66,0.07,3,246.24,21 / 21,3451128,2019-09-06 19:13:37:810,-0.1198,-0.1222,9.9368,0.0046,-0.0034,9.8066,-0.0133,0.3328,-0.0279,6.88,-34.5,20.13,346.46,-84.63,149.25
34428,52.4216,-1.534987,166.66,0.07,3,246.24,21 / 21,3451229,2019-09-06 19:13:37:911,-0.108,0.0668,9.5616,0.008,0.0032,9.8066,-0.0401,0.3505,-0.0342,6.88,-34.19,19.88,346.48,-84.57,149.28
34429,52.4216,-1.534987,166.66,0.07,3,246.24,21 / 21,3451329,2019-09-06 19:13:38:011,0.0279,0.3168,9.6703,0.0009,-0.0074,9.8066,0.0154,0.3765,-0.0333,6.56,-33.81,20.81,344.64,-84.52,148.5
34430,52.4216,-1.534987,166.66,0.07,3,246.24,21 / 21,3451429,2019-09-06 19:13:38:111,0.053,0.2923,9.8793,0.0003,-0.003,9.8066,0.0226,0.3568,-0.0202,7.06,-34.06,21.69,343.36,-84.46,148.12
34431,52.4216,-1.534987,166.66,0.07,3,246.24,21 / 21,3451529,2019-09-06 19:13:38:211,-1.1031,1.2764,10.6576,-0.0018,-0.0067,9.8066,-0.1304,0.328,-0.0543,6.06,-33.94,21.94,341.0,-84.42,148.53
34432,52.4216,-1.534987,166.66,0.07,3,246.24,21 / 21,3451629,2019-09-06 19:13:38:311,-1.9525,1.7948,12.0252,0.0312,-0.073,9.8063,-0.0329,0.3515,-0.2297,6.06,-33.75,22.5,338.93,-83.84,147.59
34433,52.4216,-1.534987,166.66,0.07,3,246.24,21 / 21,3451729,2019-09-06 19:13:38:411,1.2625,-0.5959,9.3575,0.0873,-0.0586,9.8061,0.0443,0.3763,-0.2259,6.5,-34.06,23.38,333.31,-83.07,140.95
34434,52.4216,-1.534987,166.66,0.07,3,246.24,21 / 21,3451828,2019-09-06 19:13:38:510,0.1679,0.5926,8.9388,-0.0106,0.0015,9.8066,0.0508,0.3342,0.0192,5.63,-32.62,23.75,328.51,-82.44,139.97
34435,52.4216,-1.534987,166.66,0.07,3,246.24,21 / 21,3451929,2019-09-06 19:13:38:611,-0.3312,0.7069,9.0122,0.003,0.0199,9.8066,-0.0154,0.3303,-0.0841,5.19,-32.81,24.69,327.06,-82.44,141.3
34436,52.4216,-1.534987,166.66,0.07,3,246.24,21 / 21,3452029,2019-09-06 19:13:38:711,0.0411,0.7028,9.9206,0.0077,-0.0094,9.8065,-0.0001,0.3428,-0.0371,5.19,-33.62,24.81,325.96,-82.23,140.7
34437,52.4216,-1.534987,166.66,0.07,3,246.24,21 / 21,3452129,2019-09-06 19:13:38:811,-0.105,0.1889,10.0597,-0.0059,-0.011,9.8066,0.0575,0.3608,-0.0209,4.31,-33.25,25.94,323.86,-82.22,141.14
34438,52.4216,-1.534987,166.66,0.07,3,246.24,21 / 21,3452229,2019-09-06 19:13:38:911,-0.9004,2.4783,10.2032,0.001,-0.0206,9.8065,0.1116,0.281,0.0463,3.5,-33.06,26.13,325.2,-82.05,142.41
34439,52.4216,-1.534987,166.66,0.07,3,246.24,21 / 21,3452329,2019-09-06 19:13:39:011,-6.7916,3.4095,10.575,-0.1029,-0.0675,9.8058,0.1211,0.9095,-0.1172,2.94,-33.5,26.0,330.73,-82.02,149.3
34440,52.4216,-1.534987,166.66,0.07,3,246.24,21 / 21,3452429,2019-09-06 19:13:39:111,1.711,2.8225,8.7874,-0.0506,0.0805,9.8062,0.0356,0.3324,0.1924,1.5,-33.44,26.5,336.72,-81.73,156.68
34441,52.4216,-1.534987,166.66,0.07,3,246.24,21 / 21,3452529,2019-09-06 19:13:39:211,-0.6847,1.1101,7.5591,-0.0214,-0.0161,9.8066,-0.3112,0.3213,-0.1007,0.69,-33.19,27.31,340.78,-81.71,162.17
34442,52.4216,-1.534987,166.66,0.07,3,246.24,21 / 21,3452629,2019-09-06 19:13:39:311,-2.095,1.2463,8.6049,-0.0507,0.087,9.8061,0.3782,0.2333,0.0383,0.06,-33.06,27.38,343.93,-81.84,166.84
34443,52.4216,-1.534987,166.66,0.07,3,246.24,21 / 21,3452729,2019-09-06 19:13:39:411,-0.936,0.0615,10.2191,0.0056,0.0803,9.8063,0.0413,0.2729,-0.1429,0.19,-33.0,27.38,344.75,-81.52,167.63
34444,52.4216,-1.534987,166.66,0.07,3,246.24,21 / 21,3452829,2019-09-06 19:13:39:511,0.0749,0.2788,10.4658,0.0515,0.0117,9.8065,0.0419,0.3242,-0.1894,-0.12,-32.56,27.88,339.32,-81.25,163.17
34445,52.4216,-1.534987,166.66,0.07,3,246.24,21 / 21,3452929,2019-09-06 19:13:39:611,0.724,0.37,10.1911,0.0379,0.0528,9.8064,-0.1071,0.3064,-0.0961,-0.56,-32.62,28.31,331.87,-81.36,158.98
34446,52.4216,-1.534987,166.66,0.07,3,246.24,21 / 21,3453030,2019-09-06 19:13:39:712,0.4921,0.9576,10.27,0.0011,-0.0123,9.8065,-0.011,0.2732,0.0027,-1.0,-32.69,28.63,329.86,-81.34,157.06
34447,52.4216,-1.534987,166.66,0.07,3,246.24,21 / 21,3453128,2019-09-06 19:13:39:810,-0.2857,0.9458,9.9927,-0.0204,-0.0129,9.8066,0.0606,0.2841,-0.001,-1.5,-32.87,29.0,331.84,-81.35,158.73
34448,52.4216,-1.534987,166.66,0.07,3,246.24,21 / 21,3453229,2019-09-06 19:13:39:911,-0.266,1.2204,9.9184,-0.0186,-0.0315,9.8065,0.011,0.3082,0.0284,-2.25,-32.81,28.25,332.52,-81.21,161.65
34449,52.4216,-1.534987,166.66,0.07,3,246.24,21 / 21,3453329,2019-09-06 19:13:40:011,-0.7417,0.8293,9.7561,-0.0155,-0.0317,9.8065,-0.035,0.3206,-0.0268,-2.44,-32.12,29.25,335.5,-81.05,163.8
34450,52.4216,-1.534987,166.66,0.07,3,246.24,21 / 21,3453428,2019-09-06 19:13:40:110,-0.777,0.5803,9.9468,-0.0126,0.0137,9.8066,0.0565,0.3444,-0.0531,-3.37,-32.06,29.25,334.27,-80.98,164.75
34451,52.4216,-1.534987,166.66,0.07,3,246.24,21 / 21,3453529,2019-09-06 19:13:40:211,-1.0276,0.5731,9.9399,-0.0079,0.0223,9.8065,0.0833,0.2642,-0.0215,-3.25,-32.31,29.19,334.87,-81.07,165.2
34452,52.4216,-1.534987,166.66,0.07,3,246.24,21 / 21,3453629,2019-09-06 19:13:40:311,-0.5519,0.3689,10.0667,0.0156,-0.0103,9.8066,-0.009,0.2942,-0.0596,-3.5,-32.62,29.38,334.22,-80.95,164.86
34453,52.4216,-1.534987,166.66,0.07,3,246.24,21 / 21,3453729,2019-09-06 19:13:40:411,0.695,1.3108,10.3861,0.0178,0.0017,9.8066,0.0318,0.3637,-0.0957,-4.31,-33.25,28.81,330.39,-81.02,163.55
34454,52.4216,-1.534987,166.66,0.07,3,246.24,21 / 21,3453828,2019-09-06 19:13:40:510,-0.7016,0.1336,8.743,-0.101,0.0467,9.8059,-0.3563,0.2459,0.2232,-5.5,-33.81,28.19,331.21,-81.96,166.2
34455,52.4216,-1.534987,166.66,0.07,3,246.24,21 / 21,3453929,2019-09-06 19:13:40:611,-3.4688,1.7947,10.1693,-0.0943,0.0211,9.8061,-0.3053,0.1284,0.2564,-6.06,-33.75,26.81,336.18,-82.92,172.38
34456,52.4216,-1.534987,166.66,0.07,3,246.24,21 / 21,3454029,2019-09-06 19:13:40:711,-1.1299,0.8612,9.152,-0.015,0.0582,9.8064,0.1166,0.2618,-0.0482,-6.75,-34.06,26.5,339.02,-83.49,176.51
34457,52.4216,-1.534987,166.66,0.07,3,246.24,21 / 21,3454129,2019-09-06 19:13:40:811,-0.5381,-0.1296,8.6985,0.0144,0.0024,9.8066,0.1983,0.307,-0.0766,-7.19,-33.44,26.63,337.42,-83.57,175.0
34458,52.4216,-1.534987,166.66,0.07,3,246.24,21 / 21,3454228,2019-09-06 19:13:40:910,0.4192,-0.084,9.2857,0.0545,-0.0407,9.8063,0.0589,0.2448,-0.1033,-7.44,-32.94,26.94,332.68,-82.66,171.39
34459,52.4216,-1.534987,166.66,0.07,3,246.24,21 / 21,3454328,2019-09-06 19:13:41:010,0.2933,0.0531,10.3232,0.0191,-0.0143,9.8066,0.0411,0.2285,-0.0398,-7.81,-33.31,27.5,329.39,-82.47,169.89
34460,52.4216,-1.534987,166.66,0.07,3,246.24,21 / 21,3454429,2019-09-06 19:13:41:111,-0.0506,0.5661,10.3148,-0.0015,0.0123,9.8066,-0.1075,0.2354,-0.0372,-8.25,-33.44,27.06,327.89,-82.66,169.18
34461,52.4216,-1.534987,166.66,0.07,3,246.24,21 / 21,3454529,2019-09-06 19:13:41:211,-0.8344,1.1124,10.1157,0.0048,0.0031,9.8066,-0.1047,0.2504,-0.0378,-8.06,-32.87,27.13,327.33,-82.82,168.59
34462,52.4216,-1.534987,166.66,0.07,3,246.24,21 / 21,3454629,2019-09-06 19:13:41:311,-0.0236,0.4689,9.4868,0.0074,0.0022,9.8066,0.013,0.2771,-0.0556,-8.12,-33.69,26.75,326.33,-82.9,167.8
34463,52.4216,-1.534987,166.66,0.07,3,246.24,21 / 21,3454729,2019-09-06 19:13:41:411,-0.0344,0.6178,9.2612,0.0124,-0.0066,9.8066,0.0016,0.2847,-0.0618,-8.56,-33.75,27.13,322.92,-82.76,166.8
34464,52.4216,-1.534987,166.66,0.07,3,246.24,21 / 21,3454828,2019-09-06 19:13:41:510,-0.1145,0.3294,9.8011,0.0044,-0.0013,9.8066,-0.0299,0.2593,-0.0115,-9.12,-33.62,27.19,322.05,-82.66,166.12
34465,52.4216,-1.534987,166.66,0.07,3,246.24,21 / 21,3454929,2019-09-06 19:13:41:611,-0.3054,0.5367,9.8465,0.0005,-0.0038,9.8066,0.0114,0.2728,-0.0349,-9.44,-33.25,26.69,322.38,-82.64,166.26
34466,52.4216,-1.534987,166.66,0.07,3,246.24,21 / 21,3455028,2019-09-06 19:13:41:710,-0.075,0.3947,9.7127,-0.0056,0.0054,9.8066,0.0097,0.2514,-0.0184,-10.12,-32.75,26.81,320.31,-82.7,166.22
34467,52.4216,-1.534987,166.66,0.07,3,246.24,21 / 21,3455128,2019-09-06 19:13:41:810,-0.4301,0.4537,9.6764,-0.0069,0.0039,9.8066,0.0094,0.2741,-0.042,-10.25,-33.12,26.63,320.78,-82.75,166.59
34468,52.4216,-1.534987,166.66,0.07,3,246.24,21 / 21,3455228,2019-09-06 19:13:41:910,0.0025,0.2366,9.7386,-0.0028,-0.0026,9.8066,-0.0173,0.2761,-0.0423,-10.81,-33.44,26.25,317.56,-82.8,166.41
34469,52.4216,-1.534987,166.66,0.07,3,246.24,21 / 21,3455329,2019-09-06 19:13:42:011,-0.3609,0.7605,9.8863,-0.0043,-0.0026,9.8066,-0.038,0.2297,-0.0111,-11.37,-33.56,25.88,317.93,-82.85,166.87
34470,52.4216,-1.534987,166.66,0.07,3,246.24,21 / 21,3455429,2019-09-06 19:13:42:111,-0.0327,1.1728,9.7525,-0.0058,-0.0042,9.8066,-0.0295,0.2463,-0.029,-11.62,-33.56,25.75,316.6,-82.95,167.36
34471,52.4216,-1.534987,166.66,0.07,3,246.24,21 / 21,3455529,2019-09-06 19:13:42:211,-0.5147,0.7408,9.8764,-0.0141,-0.0055,9.8066,0.003,0.2677,0.0144,-12.5,-33.37,25.19,316.55,-83.09,168.07
34472,52.4216,-1.534987,166.66,0.07,3,246.24,21 / 21,3455628,2019-09-06 19:13:42:310,-0.869,0.4872,9.9182,-0.0111,-0.0092,9.8066,0.0073,0.2202,0.0164,-12.81,-33.44,25.38,316.85,-83.17,170.01
34473,52.4216,-1.534987,166.66,0.07,3,246.24,21 / 21,3455728,2019-09-06 19:13:42:410,-0.7999,0.3785,9.8482,-0.0103,-0.0059,9.8065,-0.0264,0.2189,-0.0312,-12.94,-33.81,24.75,318.58,-83.21,171.69
34474,52.4216,-1.534987,166.66,0.07,3,246.24,21 / 21,3455829,2019-09-06 19:13:42:511,-0.2796,0.6548,9.6274,-0.004,-0.0002,9.8066,-0.0183,0.1939,-0.0038,-14.0,-33.44,25.56,318.68,-83.2,172.21
34475,52.4216,-1.534987,166.66,0.07,3,246.24,21 / 21,3455931,2019-09-06 19:13:42:613,-0.5959,0.6143,9.7334,-0.0043,0.002,9.8065,-0.0055,0.2028,-0.0444,-13.87,-33.06,25.44,317.44,-83.28,172.14
34476,52.4216,-1.534987,166.66,0.07,3,246.24,21 / 21,3456029,2019-09-06 19:13:42:711,-0.7698,0.7693,9.7475,-0.0013,0.0066,9.8066,-0.0182,0.1577,0.0014,-14.37,-33.31,25.06,317.27,-83.33,171.94
34477,52.4216,-1.534987,166.66,0.07,3,246.24,21 / 21,3456129,2019-09-06 19:13:42:811,-0.6771,0.7802,10.0124,-0.0093,-0.0089,9.8066,-0.0151,0.1484,0.0122,-14.12,-32.94,24.63,318.12,-83.38,172.66
34478,52.4216,-1.534987,166.66,0.07,3,246.24,21 / 21,3456229,2019-09-06 19:13:42:911,-0.893,0.5723,9.8687,-0.0094,-0.0017,9.8066,0.0273,0.1269,0.0093,-15.0,-33.25,25.0,318.1,-83.43,174.23
34479,52.4216,-1.534987,166.66,0.07,3,246.24,21 / 21,3456329,2019-09-06 19:13:43:011,-0.8085,0.3492,9.9166,-0.0018,-0.0021,9.8066,0.0372,0.1024,0.0258,-14.94,-32.75,24.88,318.75,-83.39,174.85
34480,52.4216,-1.534987,166.66,0.07,3,246.24,21 / 21,3456429,2019-09-06 19:13:43:111,-1.0973,0.434,9.8832,-0.0039,-0.0086,9.8066,-0.0284,0.0771,-0.0041,-14.94,-32.31,25.13,319.77,-83.35,175.65
34481,52.4216,-1.534987,166.66,0.07,3,246.24,21 / 21,3456529,2019-09-06 19:13:43:211,-1.0184,0.3521,9.8302,0.0048,0.0015,9.8066,-0.023,0.0708,-0.0204,-14.94,-32.56,24.88,319.78,-83.34,175.81
34482,52.4216,-1.534987,166.66,0.07,3,246.24,21 / 21,3456629,2019-09-06 19:13:43:311,-0.6307,0.8291,9.8243,0.0079,0.0075,9.8066,-0.0373,0.0816,-0.0503,-15.12,-32.75,24.13,317.34,-83.39,174.77
34483,52.4216,-1.534987,166.66,0.07,3,246.24,21 / 21,3456728,2019-09-06 19:13:43:410,-0.8114,1.1244,9.7503,0.0023,0.0087,9.8066,0.0097,0.0527,-0.0003,-14.94,-32.69,24.0,315.95,-83.46,173.46
34484,52.4216,-1.534987,166.66,0.07,3,246.24,21 / 21,3456828,2019-09-06 19:13:43:510,-0.6663,0.6216,9.8538,-0.0015,0.0049,9.8065,0.0099,0.0355,-0.011,-15.19,-33.06,23.69,315.12,-83.51,172.65
34485,52.4216,-1.534987,166.66,0.07,3,246.24,21 / 21,3456929,2019-09-06 19:13:43:611,-0.5594,0.5203,9.7977,0.004,0.0048,9.8066,0.0183,0.033,-0.0056,-15.44,-32.94,24.5,315.94,-83.51,172.21
34486,52.4216,-1.534987,166.66,0.07,3,246.24,21 / 21,3457028,2019-09-06 19:13:43:710,-0.8603,0.7201,9.8079,0.0035,0.002,9.8066,0.0082,0.035,-0.0076,-14.94,-32.87,24.44,314.2,-83.49,171.85
34487,52.4216,-1.534987,166.66,0.07,3,246.24,21 / 21,3457129,2019-09-06 19:13:43:811,-0.5859,0.4931,9.6684,0.0004,0.0106,9.8066,-0.0001,0.023,-0.0016,-15.06,-33.75,24.13,313.21,-83.6,171.02
34488,52.4216,-1.534987,166.66,0.07,3,246.24,21 / 21,3457229,2019-09-06 19:13:43:911,-0.477,0.8034,9.7208,-0.0016,0.0069,9.8066,0.0043,-0.0013,-0.0188,-15.94,-33.0,24.31,311.22,-83.68,170.54
34489,52.4216,-1.534987,166.66,0.07,3,246.24,21 / 21,3457329,2019-09-06 19:13:44:011,-0.6246,0.8179,9.6027,-0.0025,0.0077,9.8066,-0.0099,0.0207,-0.0035,-15.69,-33.44,24.06,310.61,-83.73,169.93
34490,52.421513,-1.534985,166.88,1.02,3,142.47,21 / 21,3457429,2019-09-06 19:13:44:111,-0.7911,0.8746,9.8809,-0.0043,0.0002,9.8066,-0.0143,0.0215,0.0219,-15.0,-33.19,24.44,312.24,-83.83,169.75
34491,52.421513,-1.534985,166.88,1.02,3,142.47,21 / 21,3457528,2019-09-06 19:13:44:210,-0.8744,1.0783,9.8736,-0.0124,0.0004,9.8065,-0.0006,0.0002,0.0332,-15.69,-33.25,24.0,311.27,-83.92,170.37
34492,52.421513,-1.534985,166.88,1.02,3,142.47,21 / 21,3457629,2019-09-06 19:13:44:311,-0.9473,0.9022,9.8779,-0.0088,0.0009,9.8066,0.011,0.0281,0.0186,-15.81,-33.25,24.0,312.14,-84.02,171.07
34493,52.421513,-1.534985,166.88,1.02,3,142.47,21 / 21,3457729,2019-09-06 19:13:44:411,-1.1078,0.8152,9.9386,-0.0071,0.0045,9.8066,0.006,0.0103,-0.0046,-16.44,-33.06,23.38,311.23,-84.08,171.47
34494,52.421513,-1.534985,166.88,1.02,3,142.47,21 / 21,3457829,2019-09-06 19:13:44:511,-1.0945,1.0528,9.8524,-0.0032,0.0031,9.8066,0.0226,-0.001,0.0006,-15.75,-33.06,23.81,312.9,-84.1,171.7
34495,52.421513,-1.534985,166.88,1.02,3,142.47,21 / 21,3457929,2019-09-06 19:13:44:611,-0.8405,1.0143,9.9295,-0.0037,0.0043,9.8066,0.008,-0.0025,-0.0073,-16.19,-33.0,23.88,312.94,-84.15,171.68
34496,52.421513,-1.534985,166.88,1.02,3,142.47,21 / 21,3458029,2019-09-06 19:13:44:711,-0.6246,0.6827,9.7397,0.0009,0.0007,9.8066,-0.0008,0.0155,0.0204,-15.75,-33.5,23.88,312.65,-84.16,171.41
34497,52.421513,-1.534985,166.88,1.02,3,142.47,21 / 21,3458129,2019-09-06 19:13:44:811,-0.6122,0.4928,9.682,-0.0041,-0.0003,9.8066,0.0167,-0.0043,0.0014,-15.5,-32.69,23.38,313.25,-84.21,171.59
34498,52.421513,-1.534985,166.88,1.02,3,142.47,21 / 21,3458228,2019-09-06 19:13:44:910,-0.3589,0.3434,9.7583,-0.0011,0.0007,9.8066,0.0017,-0.0101,0.0,-15.19,-33.19,23.63,314.93,-84.23,171.85
34499,52.421513,-1.534985,166.88,1.02,3,142.47,21 / 21,3458329,2019-09-06 19:13:45:011,-0.5237,0.419,9.7587,-0.0006,0.0019,9.8066,0.0098,0.0046,0.018,-15.69,-33.25,23.88,313.04,-84.25,171.69
34500,52.421513,-1.534985,166.88,1.02,3,142.47,21 / 21,3458429,2019-09-06 19:13:45:111,-0.546,0.5793,9.745,-0.0024,0.0061,9.8066,0.0072,-0.0067,0.0019,-15.37,-33.19,24.06,314.82,-84.27,171.72
