,GPS LATITUDE (degrees), GPS LONGITUDE (degrees), GPS ALTITUDE (m), GPS SPEED (Kmh), GPS ACCURACY (m), GPS ORIENTATION (Â°),GPS SATELLITES IN RANGE, TIME SINCE START (ms), DATE (YYYY-MO-DD HH-MI-SS_SSS), ACCELEROMETER X (m/s²) , ACCELEROMETER Y (m/s²), ACCELEROMETER Z (m/s²), GRAVITY X (m/s²), GRAVITY Y (m/s²), GRAVITY Z (m/s²), GYROSCOPE Yaw (rad/s), GYROSCOPE Pitch (rad/s), GYROSCOPE Roll (rad/s), MAGNETIC FIELD X (Î¼T), MAGNETIC FIELD Y (Î¼T), MAGNETIC FIELD Z (Î¼T), ORIENTATION (Yaw) (Â°), ORIENTATION (Pitch) (Â°), ORIENTATION (Roll ) (Â°)
18684,52.40962,-1.541953,155.36,16.0,2,302.49,20 / 21,1876828,2019-09-06 18:47:23:510,2.0813,0.961,9.299,-0.0378,-0.0277,9.8065,-0.3386,0.0515,-0.0361,1.56,-31.37,5.63,65.29,-85.0,-156.16
18685,52.40962,-1.541953,155.36,16.0,2,302.49,20 / 21,1876929,2019-09-06 18:47:23:611,1.2272,0.2312,9.8925,-0.0317,-0.0194,9.8065,0.0766,-0.0419,0.072,2.56,-31.25,5.0,82.48,-85.09,-155.45
18686,52.40962,-1.541953,155.36,16.0,2,302.49,20 / 21,1877028,2019-09-06 18:47:23:710,0.0777,0.6966,10.1854,0.0158,0.0271,9.8066,0.1571,0.0057,-0.0319,2.25,-31.44,5.25,76.0,-85.23,-153.6
18687,52.40962,-1.541953,155.36,16.0,2,302.49,20 / 21,1877129,2019-09-06 18:47:23:811,0.7019,-0.0419,9.8548,0.0147,-0.0009,9.8066,0.0722,-0.0081,0.0306,1.88,-31.06,5.06,75.52,-85.17,-154.44
18688,52.40962,-1.541953,155.36,16.0,2,302.49,20 / 21,1877229,2019-09-06 18:47:23:911,-0.0156,0.3868,9.7389,0.0,-0.0034,9.8066,-0.0371,-0.0235,-0.0273,1.88,-31.19,5.19,75.5,-85.19,-154.32
18689,52.40962,-1.541953,155.36,16.0,2,302.49,20 / 21,1877329,2019-09-06 18:47:24:011,0.377,-0.0393,9.5129,-0.0168,-0.0169,9.8065,-0.1142,0.0831,-0.0208,1.19,-31.25,4.94,63.44,-85.2,-155.09
18690,52.40962,-1.541953,155.36,16.0,2,302.49,20 / 21,1877429,2019-09-06 18:47:24:111,0.6915,0.0709,10.0634,-0.0008,0.0026,9.8066,-0.0446,-0.0264,0.0132,1.38,-30.94,4.88,62.74,-85.35,-154.72
18691,52.40962,-1.541953,155.36,16.0,2,302.49,20 / 21,1877528,2019-09-06 18:47:24:210,1.4675,1.0573,9.9804,0.0149,0.0094,9.8066,0.0076,-0.0053,-0.0119,1.69,-31.06,4.94,74.32,-85.39,-154.09
18692,52.40962,-1.541953,155.36,16.0,2,302.49,20 / 21,1877629,2019-09-06 18:47:24:311,-0.6924,0.1686,10.3643,-0.0196,-0.024,9.8065,-0.056,-0.0002,-0.0155,1.06,-31.62,5.44,63.92,-85.4,-154.39
18693,52.40962,-1.541953,155.36,16.0,2,302.49,20 / 21,1877728,2019-09-06 18:47:24:410,1.0545,0.1921,9.9992,-0.0217,-0.0347,9.8065,-0.0934,0.0771,-0.0017,1.75,-31.5,5.38,72.93,-85.22,-156.3
18694,52.40962,-1.541953,155.36,16.0,2,302.49,20 / 21,1877829,2019-09-06 18:47:24:511,0.7161,-1.1161,9.4012,-0.0027,0.0002,9.8066,-0.0155,0.05,-0.0291,1.88,-31.62,5.94,64.97,-85.28,-155.77
18695,52.40962,-1.541953,155.36,16.0,2,302.49,20 / 21,1877929,2019-09-06 18:47:24:611,1.1637,-0.4336,9.3883,0.0025,-0.0026,9.8066,0.0689,-0.0433,0.0584,1.63,-31.62,5.0,74.34,-85.27,-155.76
18696,52.40962,-1.541953,155.36,16.0,2,302.49,20 / 21,1878028,2019-09-06 18:47:24:710,-1.532,-0.6706,9.5913,-0.0165,-0.0073,9.8066,-0.0595,0.0391,-0.0618,1.56,-30.69,5.44,72.7,-85.18,-156.78
18697,52.40962,-1.541953,155.36,16.0,2,302.49,20 / 21,1878129,2019-09-06 18:47:24:811,1.0969,-0.88,9.2583,-0.0153,-0.014,9.8065,0.0222,0.0338,-0.039,1.63,-31.06,5.94,62.96,-85.12,-157.44
18698,52.40962,-1.541953,155.36,16.0,2,302.49,20 / 21,1878228,2019-09-06 18:47:24:910,0.5499,1.7645,9.8714,0.0095,0.0146,9.8066,-0.0768,-0.0203,0.1316,1.88,-30.81,5.19,74.8,-85.07,-155.65
18699,52.40962,-1.541953,155.36,16.0,2,302.49,20 / 21,1878328,2019-09-06 18:47:25:010,1.4008,-0.3677,9.3301,-0.0131,0.0122,9.8066,-0.1322,-0.0122,0.0359,1.25,-31.37,5.44,66.76,-85.06,-153.47
18700,52.40962,-1.541953,155.36,16.0,2,302.49,20 / 21,1878428,2019-09-06 18:47:25:110,-1.6025,0.8349,11.0955,0.0156,0.0618,9.8064,0.4037,-0.1096,0.0905,0.69,-31.5,6.06,65.32,-85.22,-146.98
18701,52.40962,-1.541953,155.36,16.0,2,302.49,20 / 21,1878528,2019-09-06 18:47:25:210,-2.3738,-0.7277,9.7162,0.1135,0.078,9.8056,0.0513,-0.1361,-0.0823,1.63,-30.87,6.63,67.98,-85.48,-146.19
18702,52.40962,-1.541953,155.36,16.0,2,302.49,20 / 21,1878629,2019-09-06 18:47:25:311,-1.7772,0.359,12.413,0.0007,-0.065,9.8064,0.1487,-0.0365,0.0716,1.75,-31.0,6.88,66.07,-85.46,-147.94
18703,52.40962,-1.541953,155.36,16.0,2,302.49,20 / 21,1878728,2019-09-06 18:47:25:410,2.2104,-2.4475,9.8753,-0.0169,0.0028,9.8065,0.1739,0.1679,-0.2858,3.31,-30.44,5.5,73.97,-85.51,-152.39
18704,52.40962,-1.541953,155.36,16.0,2,302.49,20 / 21,1878828,2019-09-06 18:47:25:510,-0.1086,0.6945,11.2499,-0.1144,-0.112,9.8053,-0.3778,-0.0453,0.1099,3.25,-31.0,4.88,76.11,-85.31,-159.92
18705,52.40962,-1.541953,155.36,16.0,2,302.49,20 / 21,1878929,2019-09-06 18:47:25:611,1.0111,2.638,9.4727,-0.0558,-0.0438,9.8063,0.0928,-0.0621,0.0774,2.75,-30.87,4.69,76.16,-85.66,-157.92
18706,52.40962,-1.541953,155.36,16.0,2,302.49,20 / 21,1879028,2019-09-06 18:47:25:710,-1.2775,-1.5462,10.2824,-0.0108,0.0009,9.8066,-0.1455,0.125,-0.028,1.44,-31.31,4.94,58.29,-85.34,-158.0
18707,52.40962,-1.541953,155.36,16.0,2,302.49,20 / 21,1879128,2019-09-06 18:47:25:810,1.2546,1.7153,10.0417,-0.0237,-0.0371,9.8065,-0.1609,-0.0756,0.1123,1.63,-31.31,6.38,61.34,-85.11,-158.74
18708,52.40962,-1.541953,155.36,16.0,2,302.49,20 / 21,1879229,2019-09-06 18:47:25:911,-1.5845,-0.2869,9.6378,0.0286,0.0374,9.8065,0.1079,-0.0082,0.0018,2.13,-31.44,6.81,58.26,-85.0,-156.25
18709,52.40962,-1.541953,155.36,16.0,2,302.49,20 / 21,1879329,2019-09-06 18:47:26:011,0.4533,0.0327,9.8749,0.0258,0.0295,9.8066,0.0838,0.0748,0.0088,3.06,-31.19,6.0,72.98,-85.37,-154.58
18710,52.40962,-1.541953,155.36,16.0,2,302.49,20 / 21,1879428,2019-09-06 18:47:26:110,0.1467,0.3999,10.3303,-0.0199,-0.0135,9.8066,-0.0486,0.0139,-0.0406,2.44,-31.25,5.56,65.39,-85.39,-154.14
18711,52.40962,-1.541953,155.36,16.0,2,302.49,20 / 21,1879529,2019-09-06 18:47:26:211,-0.6446,-0.6875,8.8945,-0.021,-0.0357,9.8065,0.0091,-0.002,-0.0091,2.31,-31.69,5.44,74.38,-85.29,-155.61
18712,52.40962,-1.541953,155.36,16.0,2,302.49,20 / 21,1879628,2019-09-06 18:47:26:310,1.8473,0.5018,9.8123,0.0047,0.016,9.8066,-0.0568,0.023,0.0212,2.44,-31.69,5.19,74.58,-85.41,-154.66
18713,52.40962,-1.541953,155.36,16.0,2,302.49,20 / 21,1879729,2019-09-06 18:47:26:411,0.9007,0.5753,10.4849,-0.0015,0.001,9.8066,0.2204,0.0444,0.047,1.94,-31.5,5.5,66.07,-85.27,-154.2
18714,52.40962,-1.541953,155.36,16.0,2,302.49,20 / 21,1879828,2019-09-06 18:47:26:510,-0.118,-0.8039,10.3647,0.0108,0.0115,9.8066,0.0962,-0.0065,0.0209,2.06,-30.19,6.44,64.76,-85.3,-154.39
18715,52.40962,-1.541953,155.36,16.0,2,302.49,20 / 21,1879929,2019-09-06 18:47:26:611,-0.3177,0.2852,10.7273,0.0134,0.037,9.8065,0.1061,-0.0345,-0.0144,1.31,-31.0,6.13,56.78,-85.34,-153.09
18716,52.40962,-1.541953,155.36,16.0,2,302.49,20 / 21,1880029,2019-09-06 18:47:26:711,0.6098,0.2246,8.7183,-0.0408,-0.0466,9.8064,-0.0898,0.0214,0.0255,1.63,-31.31,6.25,66.07,-85.51,-153.0
18717,52.40962,-1.541953,155.36,16.0,2,302.49,20 / 21,1880131,2019-09-06 18:47:26:813,1.4431,0.6235,9.0427,-0.0435,-0.0598,9.8063,-0.1073,0.1534,-0.0704,2.63,-30.19,6.56,66.72,-85.05,-154.8
18718,52.40962,-1.541953,155.36,16.0,2,302.49,20 / 21,1880228,2019-09-06 18:47:26:910,1.2158,0.3498,9.1417,0.0139,0.0363,9.8065,-0.0684,-0.0018,0.0261,1.75,-31.06,6.13,68.52,-85.38,-151.58
18719,52.40962,-1.541953,155.36,16.0,2,302.49,20 / 21,1880330,2019-09-06 18:47:27:012,0.857,0.4835,8.8478,0.0248,0.0259,9.8065,-0.1838,0.0279,0.037,1.56,-30.94,5.63,68.73,-85.46,-151.02
18720,52.40962,-1.541953,155.36,16.0,2,302.49,20 / 21,1880429,2019-09-06 18:47:27:111,-0.2283,-0.0832,11.5189,-0.0295,-0.0065,9.8066,0.0933,0.1031,-0.0313,1.56,-30.81,6.88,68.29,-85.27,-146.8
18721,52.40962,-1.541953,155.36,16.0,2,302.49,20 / 21,1880529,2019-09-06 18:47:27:211,-0.0028,0.1764,10.0593,0.0431,0.0482,9.8063,-0.215,-0.0202,-0.0426,1.38,-31.0,6.63,59.86,-85.62,-145.22
18722,52.40962,-1.541953,155.36,16.0,2,302.49,20 / 21,1880628,2019-09-06 18:47:27:310,-1.1181,-0.5584,10.6815,-0.0338,-0.0513,9.8064,-0.2057,0.0289,-0.1266,1.69,-31.5,7.06,68.08,-85.49,-146.08
18723,52.40962,-1.541953,155.36,16.0,2,302.49,20 / 21,1880729,2019-09-06 18:47:27:411,0.0402,-0.5705,10.3391,-0.0275,-0.0618,9.8064,0.0507,0.0424,0.014,1.63,-31.87,6.38,71.96,-85.4,-149.28
18724,52.40962,-1.541953,155.36,16.0,2,302.49,20 / 21,1880828,2019-09-06 18:47:27:510,0.0657,-0.2831,10.1592,-0.004,0.0001,9.8066,0.0652,-0.015,-0.0324,1.88,-31.81,6.44,71.51,-85.47,-149.34
18725,52.40962,-1.541953,155.36,16.0,2,302.49,20 / 21,1880929,2019-09-06 18:47:27:611,0.1657,0.2463,10.3637,0.014,-0.0058,9.8065,0.0504,0.0366,-0.0477,2.31,-31.69,7.31,62.98,-85.42,-151.32
18726,52.40962,-1.541953,155.36,16.0,2,302.49,20 / 21,1881028,2019-09-06 18:47:27:710,1.1167,-1.0296,9.0379,-0.0265,-0.0287,9.8065,-0.1667,0.1053,-0.0105,2.63,-31.5,7.0,68.23,-85.3,-153.14
18727,52.40962,-1.541953,155.36,16.0,2,302.49,20 / 21,1881129,2019-09-06 18:47:27:811,1.1585,-0.1273,9.016,-0.035,-0.0255,9.8065,-0.1318,0.076,-0.0494,2.56,-30.94,7.06,69.42,-85.28,-152.18
18728,52.40962,-1.541953,155.36,16.0,2,302.49,20 / 21,1881229,2019-09-06 18:47:27:911,0.0397,-0.1869,9.8609,0.0269,0.0331,9.8065,0.0317,0.0052,0.0445,2.81,-31.0,6.25,76.82,-85.4,-151.02
18729,52.40962,-1.541953,155.36,16.0,2,302.49,20 / 21,1881329,2019-09-06 18:47:28:011,-0.6301,-1.1202,9.7322,0.0263,0.0337,9.8065,-0.038,0.0175,0.006,2.81,-30.69,5.56,78.62,-85.62,-148.27
18730,52.40962,-1.541953,155.36,16.0,2,302.49,20 / 21,1881428,2019-09-06 18:47:28:110,0.0217,-0.3439,10.0483,-0.0305,-0.0211,9.8065,0.0203,0.0547,-0.0766,2.69,-31.19,5.94,79.3,-85.39,-148.76
18731,52.40962,-1.541953,155.36,16.0,2,302.49,20 / 21,1881529,2019-09-06 18:47:28:211,0.5577,-1.535,10.8832,-0.0021,-0.0133,9.8066,0.05,-0.0671,0.0371,2.56,-31.44,6.5,71.85,-85.49,-149.16
18732,52.40962,-1.541953,155.36,16.0,2,302.49,20 / 21,1881628,2019-09-06 18:47:28:310,0.102,0.373,9.6008,-0.0101,-0.0479,9.8065,-0.2656,-0.0569,-0.0024,2.94,-31.75,6.81,72.03,-85.27,-150.52
18733,52.40962,-1.541953,155.36,16.0,2,302.49,20 / 21,1881728,2019-09-06 18:47:28:410,0.6924,2.5091,9.2373,-0.0349,-0.0534,9.8064,-0.2228,-0.0026,0.0125,2.0,-31.06,6.31,69.92,-85.3,-150.81
18734,52.40962,-1.541953,155.36,16.0,2,302.49,20 / 21,1881828,2019-09-06 18:47:28:510,-0.0829,0.9336,10.0181,0.0209,0.0395,9.8065,0.0279,-0.0082,0.0398,2.25,-31.75,7.06,64.16,-85.42,-150.3
18735,52.40962,-1.541953,155.36,16.0,2,302.49,20 / 21,1881930,2019-09-06 18:47:28:612,0.2143,-1.6554,10.176,-0.0012,0.0232,9.8066,-0.0376,0.1018,-0.1053,2.44,-31.75,7.63,61.57,-85.53,-147.99
18736,52.40962,-1.541953,155.36,16.0,2,302.49,20 / 21,1882029,2019-09-06 18:47:28:711,0.2631,-1.4707,9.9778,-0.0026,-0.0226,9.8065,0.0667,0.0273,0.0121,2.69,-31.69,7.56,64.11,-85.52,-151.81
18737,52.40962,-1.541953,155.36,16.0,2,302.49,20 / 21,1882128,2019-09-06 18:47:28:810,0.7672,-0.8172,9.7534,-0.003,-0.0236,9.8065,-0.0823,0.0105,-0.0398,2.5,-31.37,7.75,62.52,-85.49,-152.8
18738,52.40962,-1.541953,155.36,16.0,2,302.49,20 / 21,1882228,2019-09-06 18:47:28:910,-0.0079,-0.1813,9.4243,0.0377,0.0301,9.8064,0.0098,0.0026,0.0132,2.81,-32.0,7.38,66.6,-85.79,-153.14
18739,52.40962,-1.541953,155.36,16.0,2,302.49,20 / 21,1882329,2019-09-06 18:47:29:011,0.2438,-1.1828,10.1887,0.0132,0.0278,9.8066,0.0773,0.0383,-0.0447,3.19,-31.62,7.5,61.61,-85.85,-152.83
18740,52.40962,-1.541953,155.36,16.0,2,302.49,20 / 21,1882429,2019-09-06 18:47:29:111,-0.5457,0.7953,9.8389,-0.0222,-0.0381,9.8065,-0.0578,-0.0542,-0.0161,3.63,-31.56,7.81,66.41,-85.84,-154.02
18741,52.40962,-1.541953,155.36,16.0,2,302.49,20 / 21,1882529,2019-09-06 18:47:29:211,0.0219,0.8124,9.9716,-0.0033,-0.0253,9.8066,0.0675,0.0483,-0.0381,3.13,-32.12,6.69,62.15,-85.74,-157.17
18742,52.40962,-1.541953,155.36,16.0,2,302.49,20 / 21,1882629,2019-09-06 18:47:29:311,-1.5539,0.3533,9.988,-0.028,-0.0062,9.8066,0.0373,0.0944,0.0434,2.88,-31.5,7.06,59.6,-85.86,-158.39
18743,52.40962,-1.541953,155.36,16.0,2,302.49,20 / 21,1882728,2019-09-06 18:47:29:410,0.4735,-1.9207,8.4862,-0.0024,-0.0021,9.8066,-0.2217,-0.083,-0.1298,2.81,-31.87,7.63,55.52,-86.03,-157.48
18744,52.40962,-1.541953,155.36,16.0,2,302.49,20 / 21,1882828,2019-09-06 18:47:29:510,-0.1236,0.8001,8.8922,-0.0087,-0.0444,9.8065,-0.2002,0.0221,0.0542,3.31,-31.69,7.19,60.22,-85.93,-158.07
18745,52.40962,-1.541953,155.36,16.0,2,302.49,20 / 21,1882929,2019-09-06 18:47:29:611,-0.0652,0.6907,9.861,-0.0645,-0.0705,9.8061,-0.1683,0.0229,0.123,2.69,-31.06,7.56,55.31,-85.74,-158.15
18746,52.40962,-1.541953,155.36,16.0,2,302.49,20 / 21,1883029,2019-09-06 18:47:29:711,1.0581,-0.1607,9.9435,0.0415,0.0645,9.8063,0.2225,-0.1803,0.0698,2.5,-31.19,7.75,59.29,-85.51,-155.52
18747,52.40962,-1.541953,155.36,16.0,2,302.49,20 / 21,1883129,2019-09-06 18:47:29:811,0.3021,-2.0329,8.9097,0.0445,0.0465,9.8064,0.0864,0.1604,-0.0731,2.88,-31.69,8.0,60.49,-85.75,-154.15
18748,52.40962,-1.541953,155.36,16.0,2,302.49,20 / 21,1883229,2019-09-06 18:47:29:911,-1.0867,-1.3584,8.8899,0.0144,0.0439,9.8065,0.0955,-0.0161,-0.04,2.88,-31.19,7.63,57.43,-85.93,-155.76
18749,52.40962,-1.541953,155.36,16.0,2,302.49,20 / 21,1883330,2019-09-06 18:47:30:012,-0.2717,-0.3731,11.077,0.0261,-0.0431,9.8064,0.2306,-0.0597,0.0064,3.31,-32.37,7.75,52.54,-85.86,-160.52
18750,52.410263,-1.543733,153.68,15.34,2,295.79,20 / 21,1883429,2019-09-06 18:47:30:111,-2.0151,2.1398,9.4102,-0.0169,-0.0329,9.8066,-0.0451,0.2795,-0.2366,3.25,-31.81,8.44,47.42,-85.92,-164.55
18751,52.410263,-1.543733,153.68,15.34,2,295.79,20 / 21,1883529,2019-09-06 18:47:30:211,-0.5955,-0.7291,8.7482,-0.008,-0.0101,9.8065,-0.0521,-0.0306,-0.0673,3.25,-31.37,8.13,42.1,-85.76,-168.91
18752,52.410263,-1.543733,153.68,15.34,2,295.79,20 / 21,1883628,2019-09-06 18:47:30:310,-1.6313,1.4141,9.1839,0.0471,0.0291,9.8065,-0.0013,-0.075,0.1503,2.81,-31.12,7.38,51.45,-85.76,-165.46
18753,52.410263,-1.543733,153.68,15.34,2,295.79,20 / 21,1883729,2019-09-06 18:47:30:411,0.9034,-0.0663,9.934,-0.0142,0.0107,9.8066,-0.1147,0.0727,0.0541,3.81,-30.62,6.81,57.28,-86.05,-165.42
18754,52.410263,-1.543733,153.68,15.34,2,295.79,20 / 21,1883828,2019-09-06 18:47:30:510,0.1718,-0.9956,9.8944,-0.0023,0.013,9.8066,0.0738,0.0319,-0.0376,3.5,-31.12,7.75,55.0,-86.05,-162.92
18755,52.410263,-1.543733,153.68,15.34,2,295.79,20 / 21,1883929,2019-09-06 18:47:30:611,-0.6214,0.0515,9.6766,0.0011,0.0069,9.8066,0.039,-0.0591,0.0682,3.38,-31.5,7.69,48.91,-85.95,-162.88
18756,52.410263,-1.543733,153.68,15.34,2,295.79,20 / 21,1884030,2019-09-06 18:47:30:712,-0.3242,-0.3198,9.8239,0.0037,0.0066,9.8066,-0.0039,0.0105,0.0416,3.06,-30.62,7.31,55.38,-85.86,-161.91
18757,52.410263,-1.543733,153.68,15.34,2,295.79,20 / 21,1884129,2019-09-06 18:47:30:811,-0.1025,0.2123,9.5407,-0.006,0.0008,9.8066,-0.0265,0.0566,-0.0213,3.0,-31.0,6.75,56.5,-85.9,-160.82
18758,52.410263,-1.543733,153.68,15.34,2,295.79,20 / 21,1884229,2019-09-06 18:47:30:911,-0.4719,0.0082,10.0017,-0.0026,0.0131,9.8066,-0.0419,0.0454,0.0131,2.44,-31.69,6.69,49.88,-86.01,-159.69
18759,52.410263,-1.543733,153.68,15.34,2,295.79,20 / 21,1884328,2019-09-06 18:47:31:010,0.6912,1.3738,10.1324,-0.001,0.0111,9.8066,-0.095,-0.0436,0.0404,2.94,-31.56,7.31,59.89,-86.04,-157.93
18760,52.410263,-1.543733,153.68,15.34,2,295.79,19 / 20,1884429,2019-09-06 18:47:31:111,-1.6241,0.1907,10.765,-0.0104,0.0013,9.8065,0.2076,-0.0784,0.0289,2.56,-31.87,7.25,62.1,-85.89,-156.64
18761,52.410263,-1.543733,153.68,15.34,2,295.79,19 / 20,1884529,2019-09-06 18:47:31:211,-0.768,-1.1182,10.0671,0.0121,0.0153,9.8066,-0.1046,-0.0427,0.0224,2.31,-31.87,7.31,54.44,-85.84,-156.63
18762,52.410263,-1.543733,153.68,15.34,2,295.79,19 / 20,1884628,2019-09-06 18:47:31:310,-0.6208,-1.3638,9.2934,-0.0042,-0.0153,9.8066,-0.1752,-0.0587,0.0521,2.19,-32.06,7.5,49.59,-85.77,-157.13
18763,52.410263,-1.543733,153.68,15.34,2,295.79,19 / 20,1884728,2019-09-06 18:47:31:410,-0.2251,0.0371,9.6563,-0.0031,0.0011,9.8066,-0.0165,0.009,-0.0386,2.69,-31.5,7.63,57.66,-85.95,-155.48
18764,52.410263,-1.543733,153.68,15.34,2,295.79,19 / 20,1884829,2019-09-06 18:47:31:511,0.1054,0.4338,10.2223,-0.0083,-0.0129,9.8065,0.0047,0.0311,-0.028,2.69,-31.5,7.63,56.58,-86.09,-155.99
18765,52.410263,-1.543733,153.68,15.34,2,295.79,19 / 20,1884929,2019-09-06 18:47:31:611,0.8002,0.1717,9.702,-0.0086,-0.0292,9.8066,-0.0934,-0.0396,-0.0421,3.06,-31.81,7.56,54.81,-85.91,-158.46
18766,52.410263,-1.543733,153.68,15.34,2,295.79,19 / 20,1885029,2019-09-06 18:47:31:711,-1.7722,0.381,9.8576,-0.0179,-0.0162,9.8065,0.0315,-0.0052,0.0523,3.0,-31.31,7.75,54.49,-85.82,-158.58
18767,52.410263,-1.543733,153.68,15.34,2,295.79,19 / 20,1885129,2019-09-06 18:47:31:811,0.1334,-0.5046,10.5586,-0.0158,-0.0242,9.8065,-0.0416,0.0598,-0.0018,2.94,-31.19,7.69,54.15,-85.84,-158.82
18768,52.410263,-1.543733,153.68,15.34,2,295.79,19 / 20,1885228,2019-09-06 18:47:31:910,-1.7355,-1.7782,10.3426,-0.0198,-0.0311,9.8065,-0.1015,-0.0616,-0.0014,2.56,-32.37,7.75,53.96,-85.96,-159.02
18769,52.410263,-1.543733,153.68,15.34,2,295.79,19 / 20,1885329,2019-09-06 18:47:32:011,0.6683,0.6688,9.3695,-0.0127,-0.0301,9.8066,0.0976,-0.0813,0.0324,3.25,-32.31,6.94,57.61,-85.84,-160.59
18770,52.410263,-1.543733,153.68,15.34,2,295.79,20 / 21,1885429,2019-09-06 18:47:32:111,-0.2416,0.2579,9.4827,0.0226,0.0084,9.8066,-0.073,-0.0419,0.0054,2.63,-32.37,7.19,56.39,-85.95,-161.2
18771,52.410263,-1.543733,153.68,15.34,2,295.79,20 / 21,1885528,2019-09-06 18:47:32:210,-1.195,0.3855,9.2306,-0.0024,-0.0133,9.8066,-0.1043,-0.0975,0.0662,3.06,-32.0,7.31,54.77,-85.93,-162.6
18772,52.410263,-1.543733,153.68,15.34,2,295.79,20 / 21,1885629,2019-09-06 18:47:32:311,-0.2505,-0.0303,9.7645,0.0183,0.0223,9.8066,0.0711,-0.0194,-0.0452,1.81,-32.0,7.44,45.75,-86.04,-162.84
18773,52.410263,-1.543733,153.68,15.34,2,295.79,20 / 21,1885728,2019-09-06 18:47:32:410,-1.0316,0.8992,10.4389,0.012,0.0123,9.8065,0.0601,-0.0572,-0.0038,3.06,-31.81,7.63,48.32,-86.04,-163.44
18774,52.410263,-1.543733,153.68,15.34,2,295.79,20 / 21,1885828,2019-09-06 18:47:32:510,0.4375,1.6383,9.7507,0.0067,-0.0241,9.8065,-0.0338,-0.0373,-0.0038,3.19,-31.56,6.81,49.53,-86.16,-166.11
18775,52.410263,-1.543733,153.68,15.34,2,295.79,20 / 21,1885929,2019-09-06 18:47:32:611,0.7277,1.099,10.2097,-0.0039,-0.0242,9.8066,0.158,-0.1088,-0.0297,3.0,-31.94,7.19,45.23,-86.04,-169.94
18776,52.410263,-1.543733,153.68,15.34,2,295.79,20 / 21,1886028,2019-09-06 18:47:32:710,0.6468,-1.1444,10.5524,-0.0003,-0.0079,9.8066,0.1664,-0.1863,0.0773,2.75,-31.81,7.0,42.38,-85.81,-172.84
18777,52.410263,-1.543733,153.68,15.34,2,295.79,20 / 21,1886129,2019-09-06 18:47:32:811,0.537,0.6995,8.8445,-0.0057,-0.0057,9.8066,0.0303,-0.0664,0.0467,1.94,-31.87,7.0,37.01,-85.65,-170.6
18778,52.410263,-1.543733,153.68,15.34,2,295.79,20 / 21,1886228,2019-09-06 18:47:32:910,-0.1432,2.8198,10.0937,-0.0292,0.0034,9.8066,-0.0572,0.0012,-0.0805,3.63,-32.25,6.31,60.74,-85.87,-169.23
18779,52.410263,-1.543733,153.68,15.34,2,295.79,20 / 21,1886329,2019-09-06 18:47:33:011,-2.7781,0.6925,11.0347,0.0178,-0.0082,9.8066,0.1566,-0.1014,0.0063,3.13,-31.81,6.69,46.21,-86.06,-169.09
18780,52.410263,-1.543733,153.68,15.34,2,295.79,20 / 21,1886429,2019-09-06 18:47:33:111,-1.6658,0.2563,8.8397,0.0367,-0.0469,9.8064,0.0466,0.1571,-0.0811,3.44,-32.0,7.0,32.18,-86.19,-179.62
18781,52.410263,-1.543733,153.68,15.34,2,295.79,20 / 21,1886529,2019-09-06 18:47:33:211,-2.6125,2.8379,8.5275,-0.0026,0.044,9.8065,-0.0571,-0.0665,-0.0606,3.25,-32.56,6.0,36.68,-86.39,179.39
18782,52.410263,-1.543733,153.68,15.34,2,295.79,20 / 21,1886628,2019-09-06 18:47:33:310,0.6377,2.0382,12.389,-0.0169,-0.0188,9.8066,0.2309,-0.1555,0.3208,2.88,-32.37,6.25,38.65,-86.61,-178.12
18783,52.410263,-1.543733,153.68,15.34,2,295.79,20 / 21,1886729,2019-09-06 18:47:33:411,-2.2122,0.5638,9.3356,-0.0208,0.0371,9.8065,-0.2488,-0.0214,0.0538,2.69,-32.12,6.25,50.16,-86.41,-169.75
18784,52.410263,-1.543733,153.68,15.34,2,295.79,20 / 21,1886828,2019-09-06 18:47:33:510,-3.5801,-0.6805,8.8244,-0.073,-0.087,9.806,-0.0873,-0.1584,0.1824,2.38,-31.81,6.25,48.48,-85.63,-166.84
18785,52.410263,-1.543733,153.68,15.34,2,295.79,20 / 21,1886928,2019-09-06 18:47:33:610,0.5048,0.8,9.6858,-0.0691,-0.0599,9.8062,-0.102,-0.0013,0.0059,2.13,-31.87,6.0,55.03,-85.57,-162.19
18786,52.410263,-1.543733,153.68,15.34,2,295.79,20 / 21,1887028,2019-09-06 18:47:33:710,-1.2075,1.1383,9.5002,-0.0081,0.0245,9.8066,-0.2136,0.0099,0.004,1.94,-32.56,5.56,61.86,-86.01,-155.32
18787,52.410263,-1.543733,153.68,15.34,2,295.79,20 / 21,1887129,2019-09-06 18:47:33:811,-0.2793,0.7881,9.9869,-0.0134,0.0079,9.8065,-0.1262,-0.1166,0.0948,1.63,-32.25,5.0,72.98,-86.07,-151.83
18788,52.410263,-1.543733,153.68,15.34,2,295.79,20 / 21,1887229,2019-09-06 18:47:33:911,-1.6634,0.5395,10.1395,0.0006,-0.0013,9.8066,0.0908,-0.0744,0.0986,1.06,-32.0,4.81,66.69,-85.94,-148.79
18789,52.410263,-1.543733,153.68,15.34,2,295.79,20 / 21,1887329,2019-09-06 18:47:34:011,-0.4381,-0.3431,11.0388,-0.0275,-0.0041,9.8066,0.0235,-0.0359,-0.0452,0.75,-32.56,4.94,70.84,-85.75,-147.52
18790,52.410263,-1.543733,153.68,15.34,2,295.79,20 / 21,1887429,2019-09-06 18:47:34:111,0.2555,-0.2981,10.8057,0.0017,-0.0143,9.8066,0.0401,-0.1238,0.0801,1.38,-32.87,4.63,69.94,-85.81,-147.89
18791,52.410263,-1.543733,153.68,15.34,2,295.79,20 / 21,1887529,2019-09-06 18:47:34:211,-0.8588,1.7753,9.5969,0.0015,-0.0101,9.8066,-0.1484,-0.1265,-0.0437,1.0,-32.62,4.94,70.28,-85.8,-147.64
18792,52.410263,-1.543733,153.68,15.34,2,295.79,20 / 21,1887628,2019-09-06 18:47:34:310,-0.5075,0.191,9.6032,-0.013,-0.0035,9.8066,-0.1058,0.0017,-0.0631,0.81,-31.87,4.69,71.91,-85.66,-146.38
18793,52.410263,-1.543733,153.68,15.34,2,295.79,20 / 21,1887729,2019-09-06 18:47:34:411,-2.4797,0.8589,9.118,-0.0042,0.0039,9.8066,-0.0335,-0.1561,0.1203,0.63,-32.19,5.06,71.9,-85.68,-146.2
18794,52.410263,-1.543733,153.68,15.34,2,295.79,20 / 21,1887829,2019-09-06 18:47:34:511,-0.7725,-0.4505,9.3964,0.0126,0.028,9.8065,0.0608,-0.125,0.026,0.38,-32.44,4.44,71.73,-85.47,-145.27
18795,52.410263,-1.543733,153.68,15.34,2,295.79,20 / 21,1887929,2019-09-06 18:47:34:611,-0.1336,0.5001,10.4923,0.0396,0.0482,9.8064,0.2265,-0.0653,0.0259,0.0,-32.0,4.38,73.9,-85.69,-141.53
18796,52.410263,-1.543733,153.68,15.34,2,295.79,20 / 21,1888029,2019-09-06 18:47:34:711,-2.4436,0.8247,9.6222,-0.0419,-0.0373,9.8064,-0.0958,0.055,-0.09,0.31,-32.62,4.56,67.03,-85.31,-142.91
18797,52.410263,-1.543733,153.68,15.34,2,295.79,20 / 21,1888129,2019-09-06 18:47:34:811,-1.4855,0.7031,9.8379,-0.0176,-0.0175,9.8066,0.0141,-0.084,0.0671,-0.12,-32.56,3.69,77.46,-85.51,-141.75
18798,52.410263,-1.543733,153.68,15.34,2,295.79,20 / 21,1888229,2019-09-06 18:47:34:911,1.0852,0.4877,9.2956,0.0059,-0.0016,9.8066,-0.2278,-0.0197,-0.0224,0.13,-32.44,3.81,75.61,-85.65,-140.54
18799,52.410263,-1.543733,153.68,15.34,2,295.79,20 / 21,1888328,2019-09-06 18:47:35:010,-2.0891,1.0849,9.7481,0.0155,-0.0031,9.8066,-0.1048,-0.2024,0.0555,0.06,-32.37,4.25,74.42,-85.79,-140.2
18800,52.410263,-1.543733,153.68,15.34,2,295.79,20 / 21,1888429,2019-09-06 18:47:35:111,-0.5927,1.5895,10.3303,-0.0013,0.0166,9.8066,0.1442,-0.0751,-0.043,0.06,-31.87,4.56,65.35,-85.72,-140.53
18801,52.410263,-1.543733,153.68,15.34,2,295.79,20 / 21,1888528,2019-09-06 18:47:35:210,-1.2605,-0.1563,10.4847,0.0082,0.0378,9.8065,0.1236,-0.0087,-0.1533,-0.31,-32.12,3.44,93.48,-85.73,-139.1
18802,52.410263,-1.543733,153.68,15.34,2,295.79,20 / 21,1888628,2019-09-06 18:47:35:310,-0.7403,-0.3745,10.4634,-0.0114,-0.0456,9.8065,-0.0153,-0.1761,0.1011,0.19,-32.31,3.88,71.81,-85.6,-143.98
18803,52.410263,-1.543733,153.68,15.34,2,295.79,20 / 21,1888729,2019-09-06 18:47:35:411,-0.7906,0.4893,9.7188,-0.0185,-0.0351,9.8065,-0.0693,-0.0751,0.0432,0.06,-32.62,3.63,74.11,-85.52,-144.37
18804,52.410263,-1.543733,153.68,15.34,2,295.79,20 / 21,1888828,2019-09-06 18:47:35:510,-0.7034,1.338,10.2197,0.0064,0.0047,9.8066,0.039,-0.1169,-0.0609,-0.06,-31.69,3.69,74.81,-85.45,-143.14
18805,52.410263,-1.543733,153.68,15.34,2,295.79,20 / 21,1888929,2019-09-06 18:47:35:611,0.088,0.6898,9.9794,-0.0153,-0.0057,9.8065,0.1198,0.0457,-0.0653,-0.06,-31.69,3.56,73.96,-85.42,-144.04
18806,52.410263,-1.543733,153.68,15.34,2,295.79,20 / 21,1889029,2019-09-06 18:47:35:711,0.4107,2.3844,9.5789,-0.0404,-0.0135,9.8065,-0.2294,-0.087,0.0205,-0.94,-31.94,3.25,65.36,-85.33,-144.94
18807,52.410263,-1.543733,153.68,15.34,2,295.79,20 / 21,1889129,2019-09-06 18:47:35:811,0.5399,0.0838,9.1818,-0.0048,-0.0067,9.8066,-0.1414,-0.0542,-0.0416,-0.12,-32.81,3.56,75.25,-85.49,-143.8
18808,52.410263,-1.543733,153.68,15.34,2,295.79,20 / 21,1889229,2019-09-06 18:47:35:911,-0.0925,1.0872,10.6325,0.016,0.043,9.8065,0.2192,0.0126,-0.0042,-0.44,-31.69,2.81,90.21,-85.79,-141.47
18809,52.410263,-1.543733,153.68,15.34,2,295.79,20 / 21,1889329,2019-09-06 18:47:36:011,0.4044,1.4878,10.5968,0.0462,-0.0027,9.8065,0.1126,-0.094,-0.0154,-0.69,-31.81,2.75,58.86,-85.73,-143.03
18810,52.410263,-1.543733,153.68,15.34,2,295.79,20 / 21,1889429,2019-09-06 18:47:36:111,-0.9436,1.4851,10.7069,-0.0189,-0.005,9.8066,0.0252,-0.0047,-0.0897,-0.31,-32.12,2.75,89.35,-85.67,-144.56
18811,52.410263,-1.543733,153.68,15.34,2,295.79,20 / 21,1889529,2019-09-06 18:47:36:211,-2.351,-0.0619,9.4576,-0.001,-0.0049,9.8066,-0.1713,0.0842,-0.0591,-1.06,-31.5,3.44,55.3,-85.53,-145.36
18812,52.410263,-1.543733,153.68,15.34,2,295.79,20 / 21,1889629,2019-09-06 18:47:36:311,0.6175,0.0955,9.3968,-0.0103,-0.0133,9.8066,-0.2145,-0.0302,0.0649,-0.69,-31.94,4.25,46.9,-85.52,-145.49
18813,52.410263,-1.543733,153.68,15.34,2,295.79,20 / 21,1889728,2019-09-06 18:47:36:410,-0.9129,1.0736,8.9691,0.0057,-0.0259,9.8066,-0.1991,-0.133,0.0784,-0.5,-31.87,2.69,90.6,-85.57,-145.13
18814,52.410263,-1.543733,153.68,15.34,2,295.79,20 / 21,1889829,2019-09-06 18:47:36:511,-0.7313,2.0553,10.1588,0.0358,0.0466,9.8064,0.1273,-0.1814,-0.024,-0.19,-31.25,2.94,85.69,-85.85,-142.68
18815,52.410263,-1.543733,153.68,15.34,2,295.79,20 / 21,1889929,2019-09-06 18:47:36:611,-0.3832,1.998,10.291,0.0269,0.0043,9.8066,0.0669,0.0813,-0.0444,-0.37,-31.94,3.06,86.19,-85.8,-145.19
18816,52.410263,-1.543733,153.68,15.34,2,295.79,20 / 21,1890029,2019-09-06 18:47:36:711,1.6476,0.721,11.2368,-0.002,-0.0015,9.8066,0.224,-0.0878,0.0788,-0.25,-31.31,3.06,81.31,-85.82,-146.98
18817,52.410263,-1.543733,153.68,15.34,2,295.79,20 / 21,1890128,2019-09-06 18:47:36:810,0.7108,-0.1446,9.4601,-0.0163,-0.0194,9.8065,0.024,-0.1045,0.0097,0.06,-32.06,3.19,86.31,-85.7,-146.79
18818,52.410263,-1.543733,153.68,15.34,2,295.79,20 / 21,1890228,2019-09-06 18:47:36:910,-0.2284,1.1324,9.2755,-0.0049,0.002,9.8066,-0.0907,-0.0281,-0.0222,-0.12,-32.19,2.38,121.68,-85.8,-146.95
18819,52.410263,-1.543733,153.68,15.34,2,295.79,20 / 21,1890328,2019-09-06 18:47:37:010,-0.1029,0.9681,10.0744,-0.0053,0.018,9.8065,0.083,-0.0599,-0.0227,-0.56,-32.44,2.81,48.77,-85.94,-145.48
18820,52.410263,-1.543733,153.68,15.34,2,295.79,20 / 21,1890429,2019-09-06 18:47:37:111,-0.4609,-0.3778,10.8021,-0.0347,-0.036,9.8065,-0.0585,-0.0764,0.0077,-0.69,-32.12,2.44,112.75,-85.83,-146.71
18821,52.410263,-1.543733,153.68,15.34,2,295.79,20 / 21,1890528,2019-09-06 18:47:37:210,0.756,2.3752,9.245,-0.0123,-0.0342,9.8065,-0.0742,-0.011,-0.0406,-0.87,-31.94,2.75,50.03,-85.84,-145.93
18822,52.410263,-1.543733,153.68,15.34,2,295.79,20 / 21,1890629,2019-09-06 18:47:37:311,0.0043,1.008,9.3542,0.0074,-0.0032,9.8066,0.0136,-0.0369,0.077,-0.69,-31.87,2.19,105.17,-85.89,-144.99
18823,52.410263,-1.543733,153.68,15.34,2,295.79,20 / 21,1890729,2019-09-06 18:47:37:411,0.4549,0.7341,10.3183,-0.014,0.003,9.8066,-0.0393,0.0051,-0.0432,-0.62,-31.81,2.19,101.13,-85.93,-144.62
18824,52.410263,-1.543733,153.68,15.34,2,295.79,20 / 21,1890828,2019-09-06 18:47:37:510,-0.9276,0.6577,10.1167,0.0027,-0.0014,9.8066,0.092,-0.0429,-0.0161,0.13,-31.37,2.44,116.11,-85.93,-145.46
18825,52.410263,-1.543733,153.68,15.34,2,295.79,20 / 21,1890929,2019-09-06 18:47:37:611,0.745,-0.2922,9.7558,0.0056,0.0019,9.8066,-0.0116,0.0578,-0.0168,0.44,-31.44,2.75,79.86,-85.92,-146.66
18826,52.410263,-1.543733,153.68,15.34,2,295.79,20 / 21,1891029,2019-09-06 18:47:37:711,0.7416,1.1326,9.7682,-0.0117,0.0037,9.8065,-0.0811,0.037,-0.0678,0.0,-31.25,2.44,117.3,-85.86,-147.35
18827,52.410263,-1.543733,153.68,15.34,2,295.79,20 / 21,1891128,2019-09-06 18:47:37:810,0.822,0.1806,10.0759,0.0068,-0.0048,9.8066,0.0312,-0.078,-0.0068,-0.81,-31.56,1.19,199.78,-86.02,-147.35
18828,52.410263,-1.543733,153.68,15.34,2,295.79,20 / 21,1891228,2019-09-06 18:47:37:910,-0.7026,-0.6959,9.2247,-0.0079,-0.0198,9.8066,-0.017,-0.0467,-0.0053,-1.0,-31.62,1.44,199.07,-86.0,-147.0
18829,52.410263,-1.543733,153.68,15.34,2,295.79,20 / 21,1891329,2019-09-06 18:47:38:011,0.3551,-1.5629,9.1528,0.0095,-0.0117,9.8065,0.0593,-0.0124,0.0402,-1.12,-31.75,2.13,74.84,-86.11,-148.4
18830,52.410263,-1.543733,153.68,15.34,2,295.79,20 / 21,1891430,2019-09-06 18:47:38:112,0.5629,-0.2067,9.6252,-0.0032,0.0187,9.8066,0.0661,-0.0744,-0.0216,-0.87,-31.31,2.88,37.73,-86.27,-146.9
18831,52.410263,-1.543733,153.68,15.34,2,295.79,20 / 21,1891528,2019-09-06 18:47:38:210,-0.0659,-1.1985,9.5156,-0.0014,0.0269,9.8066,0.0906,-0.0659,0.0052,-0.56,-31.44,3.13,41.34,-86.22,-145.58
18832,52.410263,-1.543733,153.68,15.34,2,295.79,20 / 21,1891628,2019-09-06 18:47:38:310,0.0497,-0.222,10.3105,-0.0005,0.008,9.8066,-0.0365,0.0326,0.0636,0.38,-31.0,2.63,79.73,-86.12,-143.93
18833,52.410263,-1.543733,153.68,15.34,2,295.79,20 / 21,1891728,2019-09-06 18:47:38:410,0.2286,-0.0687,9.8459,-0.0298,0.0032,9.8065,0.0516,0.0199,0.0631,-0.19,-31.37,2.06,116.49,-85.95,-142.4
18834,52.410263,-1.543733,153.68,15.34,2,295.79,20 / 21,1891830,2019-09-06 18:47:38:512,-1.006,0.4251,9.5052,-0.0517,0.0066,9.8064,-0.1877,0.1026,-0.0641,0.06,-31.69,2.25,122.01,-85.82,-140.05
18835,52.410263,-1.543733,153.68,15.34,2,295.79,20 / 21,1891928,2019-09-06 18:47:38:610,-0.5008,-0.3108,9.7188,-0.0524,0.0044,9.8064,-0.1163,-0.0161,0.0323,-0.44,-31.75,2.75,95.11,-85.5,-141.64
18836,52.410263,-1.543733,153.68,15.34,2,295.79,20 / 21,1892029,2019-09-06 18:47:38:711,-0.1149,-0.762,9.3609,0.0068,0.0061,9.8066,-0.0595,-0.0103,-0.0226,-0.06,-31.5,2.19,125.21,-85.49,-140.22
18837,52.410263,-1.543733,153.68,15.34,2,295.79,20 / 21,1892129,2019-09-06 18:47:38:811,0.4647,-0.23,9.5015,-0.0288,-0.0041,9.8066,-0.0803,0.005,0.0104,-0.19,-32.06,2.69,97.45,-85.43,-140.14
18838,52.410263,-1.543733,153.68,15.34,2,295.79,20 / 21,1892229,2019-09-06 18:47:38:911,0.1194,-0.4499,9.9182,0.0278,0.019,9.8065,0.0877,-0.0326,0.0257,-0.5,-32.12,2.38,125.27,-85.65,-138.2
18839,52.410263,-1.543733,153.68,15.34,2,295.79,20 / 21,1892328,2019-09-06 18:47:39:010,-0.8806,-0.7757,9.0784,-0.0078,0.0114,9.8065,-0.0013,-0.016,-0.0417,-0.12,-32.62,2.69,100.25,-85.44,-139.42
18840,52.410934,-1.545311,152.02,13.16,2,314.1,20 / 21,1892429,2019-09-06 18:47:39:111,-1.3124,-1.2365,9.8755,-0.0174,-0.0083,9.8066,-0.0043,0.0197,-0.0181,-0.25,-32.94,3.0,101.77,-85.3,-140.55
18841,52.410934,-1.545311,152.02,13.16,2,314.1,20 / 21,1892529,2019-09-06 18:47:39:211,0.3939,-0.1093,9.9538,0.002,-0.0024,9.8065,-0.0012,-0.014,0.0043,-0.56,-32.25,2.69,76.38,-85.29,-139.38
18842,52.410934,-1.545311,152.02,13.16,2,314.1,20 / 21,1892628,2019-09-06 18:47:39:310,0.714,1.1148,9.6276,0.0097,0.0043,9.8066,0.0331,0.0462,-0.0244,-0.37,-32.25,3.5,80.03,-85.44,-138.9
18843,52.410934,-1.545311,152.02,13.16,2,314.1,20 / 21,1892729,2019-09-06 18:47:39:411,-0.7328,-0.766,9.9174,0.0028,0.0078,9.8065,-0.0726,0.0271,-0.0643,-0.12,-31.62,2.56,97.64,-85.47,-139.29
18844,52.410934,-1.545311,152.02,13.16,2,314.1,20 / 21,1892829,2019-09-06 18:47:39:511,-0.1417,-0.735,9.4627,0.0332,0.0101,9.8065,0.0364,-0.019,0.0102,-0.56,-31.94,2.75,70.21,-85.56,-139.08
18845,52.410934,-1.545311,152.02,13.16,2,314.1,20 / 21,1892928,2019-09-06 18:47:39:610,-0.156,-0.7941,10.277,-0.0169,-0.0129,9.8066,0.0664,-0.0197,-0.0176,-1.0,-32.31,3.13,73.56,-85.33,-140.43
18846,52.410934,-1.545311,152.02,13.16,2,314.1,20 / 21,1893029,2019-09-06 18:47:39:711,-0.2431,-1.3095,10.2246,0.0081,0.014,9.8066,0.0987,-0.0383,0.0164,-0.56,-31.75,3.13,74.12,-85.41,-138.94
18847,52.410934,-1.545311,152.02,13.16,2,314.1,20 / 21,1893130,2019-09-06 18:47:39:812,-0.556,-0.0275,10.3788,-0.0453,-0.0262,9.8064,-0.1603,0.0184,-0.0073,-0.37,-32.06,2.81,99.72,-85.45,-136.96
18848,52.410934,-1.545311,152.02,13.16,2,314.1,20 / 21,1893228,2019-09-06 18:47:39:910,0.5493,-0.1942,9.5743,-0.053,-0.0264,9.8064,0.0126,0.0429,0.0144,-0.62,-32.06,3.06,78.46,-85.28,-138.16
18849,52.410934,-1.545311,152.02,13.16,2,314.1,20 / 21,1893329,2019-09-06 18:47:40:011,-1.0156,-1.8285,9.5393,-0.0026,0.0015,9.8066,-0.084,-0.0378,-0.0162,0.0,-31.75,2.94,101.62,-85.31,-137.35
18850,52.410934,-1.545311,152.02,13.16,2,314.1,21 / 22,1893428,2019-09-06 18:47:40:110,-0.2278,-0.2648,9.2917,-0.0238,-0.0137,9.8066,-0.0591,-0.012,-0.0242,0.0,-32.06,2.88,102.94,-85.22,-137.43
18851,52.410934,-1.545311,152.02,13.16,2,314.1,21 / 22,1893528,2019-09-06 18:47:40:210,-0.1741,-0.1659,10.1289,0.0212,-0.0008,9.8066,0.0252,0.0101,-0.0028,-0.44,-31.87,2.75,101.98,-85.35,-135.96
18852,52.410934,-1.545311,152.02,13.16,2,314.1,21 / 22,1893629,2019-09-06 18:47:40:311,0.1958,-0.3945,9.2623,0.0222,0.0136,9.8065,0.1036,0.0064,0.0119,-0.19,-32.25,2.69,101.21,-85.41,-135.9
18853,52.410934,-1.545311,152.02,13.16,2,314.1,21 / 22,1893728,2019-09-06 18:47:40:410,0.7321,-1.0242,9.0455,0.0245,0.0029,9.8065,-0.0481,-0.0539,0.0029,-0.12,-32.31,2.56,102.99,-85.27,-136.36
18854,52.410934,-1.545311,152.02,13.16,2,314.1,21 / 22,1893829,2019-09-06 18:47:40:511,0.4356,-1.0008,9.9385,0.0137,0.0136,9.8066,-0.0827,0.1166,-0.0657,-0.25,-32.25,2.63,101.67,-85.39,-135.68
18855,52.410934,-1.545311,152.02,13.16,2,314.1,21 / 22,1893929,2019-09-06 18:47:40:611,-1.1595,-0.7019,9.7966,0.0152,0.0042,9.8066,0.0653,0.0736,-0.0271,-0.37,-32.19,2.25,128.03,-85.49,-135.39
18856,52.410934,-1.545311,152.02,13.16,2,314.1,21 / 22,1894029,2019-09-06 18:47:40:711,-0.7839,-1.5235,9.6097,0.0203,0.0079,9.8066,-0.1241,0.0062,-0.008,-0.37,-31.56,2.75,99.87,-85.57,-134.57
18857,52.410934,-1.545311,152.02,13.16,2,314.1,21 / 22,1894129,2019-09-06 18:47:40:811,1.9043,-2.2568,9.6527,-0.0145,-0.0164,9.8066,-0.074,0.1859,-0.0416,-0.19,-31.44,3.63,81.75,-85.53,-135.1
18858,52.410934,-1.545311,152.02,13.16,2,314.1,21 / 22,1894228,2019-09-06 18:47:40:910,1.0568,-1.8253,9.5108,-0.0129,-0.025,9.8066,-0.0881,0.1224,0.0724,0.0,-31.37,3.63,80.91,-85.58,-135.34
18859,52.410934,-1.545311,152.02,13.16,2,314.1,21 / 22,1894329,2019-09-06 18:47:41:011,2.0488,-2.5357,10.9215,0.0223,0.0441,9.8065,0.2203,0.0401,0.0702,-0.25,-31.69,3.63,83.3,-85.49,-135.57
18860,52.410934,-1.545311,152.02,13.16,2,314.1,20 / 21,1894429,2019-09-06 18:47:41:111,0.1031,0.6645,10.1852,0.0556,0.048,9.8064,-0.017,0.0469,-0.1425,0.19,-31.12,3.63,83.29,-85.78,-131.29
18861,52.410934,-1.545311,152.02,13.16,2,314.1,20 / 21,1894528,2019-09-06 18:47:41:210,-2.0474,0.0829,11.0499,-0.003,0.0053,9.8066,0.252,0.1335,-0.1414,0.63,-30.31,4.31,95.17,-85.58,-132.9
18862,52.410934,-1.545311,152.02,13.16,2,314.1,20 / 21,1894629,2019-09-06 18:47:41:311,0.5106,1.6989,11.1714,0.0452,0.027,9.8064,0.3805,-0.0349,0.1568,1.5,-30.69,4.5,92.21,-85.9,-133.91
18863,52.410934,-1.545311,152.02,13.16,2,314.1,20 / 21,1894729,2019-09-06 18:47:41:411,0.5067,-1.4645,9.7157,-0.0296,-0.0432,9.8064,-0.0409,0.0342,-0.0512,1.75,-31.37,4.63,92.64,-85.67,-134.98
18864,52.410934,-1.545311,152.02,13.16,2,314.1,20 / 21,1894828,2019-09-06 18:47:41:510,-0.1773,-2.3609,9.6124,-0.0196,-0.0115,9.8065,0.0302,0.022,-0.0135,1.81,-31.62,4.06,102.05,-85.48,-138.03
18865,52.410934,-1.545311,152.02,13.16,2,314.1,20 / 21,1894929,2019-09-06 18:47:41:611,-1.821,-2.2576,9.5986,0.0284,0.0042,9.8066,-0.0696,0.0587,0.013,1.81,-31.81,3.56,101.93,-85.58,-137.32
18866,52.410934,-1.545311,152.02,13.16,2,314.1,20 / 21,1895028,2019-09-06 18:47:41:710,0.7567,-2.2082,8.5256,-0.0039,-0.0043,9.8066,-0.2133,0.03,-0.0176,0.63,-32.31,3.31,109.96,-85.5,-136.82
18867,52.410934,-1.545311,152.02,13.16,2,314.1,20 / 21,1895128,2019-09-06 18:47:41:810,-0.5359,0.75,8.8061,0.0172,0.0197,9.8065,0.0371,0.0056,0.0141,0.94,-32.56,4.25,97.57,-85.58,-134.27
18868,52.410934,-1.545311,152.02,13.16,2,314.1,20 / 21,1895228,2019-09-06 18:47:41:910,1.352,-0.3036,8.9169,0.015,0.0208,9.8065,0.0035,0.0215,0.0539,0.5,-32.37,3.88,96.71,-85.6,-133.72
18869,52.410934,-1.545311,152.02,13.16,2,314.1,20 / 21,1895328,2019-09-06 18:47:42:010,0.3964,1.3192,11.237,-0.0085,0.0055,9.8066,0.1207,-0.0134,-0.0055,0.5,-32.0,4.44,99.04,-85.34,-133.61
18870,52.410934,-1.545311,152.02,13.16,2,314.1,20 / 21,1895429,2019-09-06 18:47:42:111,0.7768,-0.3964,9.3019,0.0427,0.0197,9.8065,0.1515,0.0173,0.0737,0.75,-32.12,4.0,98.78,-85.39,-133.42
18871,52.410934,-1.545311,152.02,13.16,2,314.1,20 / 21,1895529,2019-09-06 18:47:42:211,-0.6307,1.7107,9.7942,0.0243,0.0487,9.8065,0.21,-0.0159,0.0666,0.31,-32.19,4.63,81.8,-85.05,-131.48
18872,52.410934,-1.545311,152.02,13.16,2,314.1,20 / 21,1895628,2019-09-06 18:47:42:310,0.9319,0.5678,8.949,0.0561,0.0948,9.806,0.1726,0.0226,0.0529,0.19,-31.62,4.25,96.3,-85.19,-125.67
18873,52.410934,-1.545311,152.02,13.16,2,314.1,20 / 21,1895728,2019-09-06 18:47:42:410,2.2896,1.2501,10.9739,-0.0062,0.0232,9.8066,-0.0393,0.0144,-0.0456,-0.5,-32.37,3.31,116.0,-84.91,-122.53
18874,52.410934,-1.545311,152.02,13.16,2,314.1,20 / 21,1895828,2019-09-06 18:47:42:510,-0.0682,-1.209,10.6023,-0.0067,0.0273,9.8065,0.2091,-0.0107,0.0494,-0.75,-32.75,3.44,106.13,-84.8,-121.05
18875,52.410934,-1.545311,152.02,13.16,2,314.1,20 / 21,1895929,2019-09-06 18:47:42:611,0.1788,0.18,10.2405,-0.0566,-0.0128,9.8064,0.0861,-0.0014,-0.0029,-0.06,-32.25,3.94,105.25,-84.48,-122.9
18876,52.410934,-1.545311,152.02,13.16,2,314.1,20 / 21,1896028,2019-09-06 18:47:42:710,-0.239,1.1527,9.5347,-0.0281,-0.0096,9.8066,0.0671,-0.0255,0.046,-1.44,-32.75,3.69,98.08,-83.91,-125.62
18877,52.410934,-1.545311,152.02,13.16,2,314.1,20 / 21,1896128,2019-09-06 18:47:42:810,-0.2029,-1.7227,9.5817,-0.0011,0.019,9.8066,-0.1035,-0.1068,0.0752,-1.06,-32.37,3.56,98.81,-83.79,-123.7
18878,52.410934,-1.545311,152.02,13.16,2,314.1,20 / 21,1896228,2019-09-06 18:47:42:910,-0.6899,0.862,9.8654,-0.0113,-0.0005,9.8066,-0.0501,-0.1689,0.0103,-0.81,-32.5,4.06,101.6,-83.65,-122.06
18879,52.410934,-1.545311,152.02,13.16,2,314.1,20 / 21,1896329,2019-09-06 18:47:43:011,0.2483,2.3956,9.3356,0.0421,0.0027,9.8065,-0.04,-0.1919,0.0672,-1.12,-32.12,3.38,118.88,-83.71,-119.66
18880,52.410934,-1.545311,152.02,13.16,2,314.1,20 / 21,1896429,2019-09-06 18:47:43:111,-0.9246,0.3655,9.8262,-0.0129,-0.0107,9.8066,0.1914,-0.1391,0.0368,-1.75,-32.37,3.19,102.0,-83.59,-121.52
18881,52.410934,-1.545311,152.02,13.16,2,314.1,20 / 21,1896529,2019-09-06 18:47:43:211,-0.8336,1.1966,9.5459,0.0108,0.005,9.8066,0.1765,-0.13,-0.0086,-1.06,-32.69,3.06,121.64,-83.61,-122.98
18882,52.410934,-1.545311,152.02,13.16,2,314.1,20 / 21,1896629,2019-09-06 18:47:43:311,-1.4435,0.8677,9.9921,0.0177,0.009,9.8066,0.0761,-0.1677,-0.0366,-1.37,-32.37,3.69,101.57,-83.6,-122.9
18883,52.410934,-1.545311,152.02,13.16,2,314.1,20 / 21,1896728,2019-09-06 18:47:43:410,-0.7377,0.7784,10.2524,0.0002,-0.023,9.8066,-0.0473,-0.1371,0.0165,-1.87,-32.19,3.06,96.51,-83.76,-124.38
18884,52.410934,-1.545311,152.02,13.16,2,314.1,20 / 21,1896828,2019-09-06 18:47:43:510,-1.4823,-1.2648,9.2503,-0.0147,-0.0295,9.8065,-0.0884,-0.1231,-0.0625,-1.62,-32.62,3.31,101.07,-83.75,-124.71
18885,52.410934,-1.545311,152.02,13.16,2,314.1,20 / 21,1896929,2019-09-06 18:47:43:611,-0.6746,1.0847,9.4796,-0.0204,-0.0283,9.8065,-0.0656,-0.1034,0.001,-2.0,-33.31,3.13,97.83,-83.85,-126.03
18886,52.410934,-1.545311,152.02,13.16,2,314.1,20 / 21,1897029,2019-09-06 18:47:43:711,-0.6358,-0.2594,10.2123,-0.0212,-0.0203,9.8066,-0.0654,-0.1008,-0.0613,-2.0,-32.75,3.44,97.88,-83.84,-126.5
18887,52.410934,-1.545311,152.02,13.16,2,314.1,20 / 21,1897129,2019-09-06 18:47:43:811,-1.4719,-0.5337,9.9192,-0.0146,-0.0712,9.8063,-0.3327,0.0154,-0.0312,-2.5,-32.75,3.06,92.66,-84.06,-125.55
18888,52.410934,-1.545311,152.02,13.16,2,314.1,20 / 21,1897229,2019-09-06 18:47:43:911,-0.2701,1.4753,9.2947,-0.0235,-0.0918,9.8061,-0.1977,-0.0825,-0.0717,-1.19,-32.87,3.06,112.16,-84.15,-130.98
18889,52.410934,-1.545311,152.02,13.16,2,314.1,20 / 21,1897329,2019-09-06 18:47:44:011,1.0608,0.9634,8.1729,0.0167,0.0047,9.8065,-0.1739,-0.0125,-0.0088,-1.87,-32.31,3.0,66.71,-84.47,-131.78
18890,52.410934,-1.545311,152.02,13.16,2,314.1,20 / 21,1897428,2019-09-06 18:47:44:110,-0.2884,0.4585,10.3809,0.0118,0.0043,9.8066,-0.2316,-0.0002,-0.0039,-1.87,-32.94,2.56,70.01,-84.47,-132.78
18891,52.410934,-1.545311,152.02,13.16,2,314.1,20 / 21,1897529,2019-09-06 18:47:44:211,-0.0309,-1.2187,10.0852,0.0134,0.0077,9.8066,-0.0123,-0.0021,-0.0607,-1.5,-32.62,2.75,103.87,-84.52,-133.82
18892,52.410934,-1.545311,152.02,13.16,2,314.1,20 / 21,1897628,2019-09-06 18:47:44:310,-0.9046,0.5618,9.8616,0.0153,-0.0153,9.8066,-0.1197,-0.0463,0.0125,-1.56,-32.81,2.56,61.16,-84.65,-133.83
18893,52.410934,-1.545311,152.02,13.16,2,314.1,20 / 21,1897729,2019-09-06 18:47:44:411,0.9331,0.0321,10.1132,0.0206,0.005,9.8065,0.0459,-0.0653,-0.0354,-2.0,-33.37,2.56,53.71,-84.77,-135.08
18894,52.410934,-1.545311,152.02,13.16,2,314.1,20 / 21,1897829,2019-09-06 18:47:44:511,1.3501,-0.3643,9.9961,0.0069,-0.0306,9.8066,-0.0227,-0.0768,-0.0247,-1.0,-32.81,2.13,141.85,-84.89,-137.13
18895,52.410934,-1.545311,152.02,13.16,2,314.1,20 / 21,1897928,2019-09-06 18:47:44:610,-1.5015,-0.3792,9.8936,-0.0144,-0.0054,9.8066,-0.0144,0.0007,-0.0037,-1.25,-32.44,1.94,142.47,-84.9,-139.99
18896,52.410934,-1.545311,152.02,13.16,2,314.1,20 / 21,1898029,2019-09-06 18:47:44:711,1.1945,-0.016,10.1971,-0.0105,-0.018,9.8066,0.0381,0.0858,-0.0572,-1.06,-32.12,1.94,143.72,-84.95,-141.38
18897,52.410934,-1.545311,152.02,13.16,2,314.1,20 / 21,1898129,2019-09-06 18:47:44:811,0.0971,-0.27,8.7181,0.006,-0.0069,9.8065,-0.0407,0.0435,-0.0408,-0.75,-32.62,2.13,147.6,-84.99,-142.02
18898,52.410934,-1.545311,152.02,13.16,2,314.1,20 / 21,1898228,2019-09-06 18:47:44:910,-0.5761,-0.0397,10.2099,0.0439,-0.035,9.8064,0.0457,-0.0128,0.0298,-0.62,-32.5,2.38,138.48,-85.23,-142.69
18899,52.410934,-1.545311,152.02,13.16,2,314.1,20 / 21,1898328,2019-09-06 18:47:45:010,-0.5369,-0.5088,9.5462,-0.0286,-0.0046,9.8065,-0.0747,0.0522,-0.0207,-1.0,-32.69,2.5,76.96,-85.15,-144.15
18900,52.410934,-1.545311,152.02,13.16,2,314.1,20 / 21,1898429,2019-09-06 18:47:45:111,0.5304,-0.1887,9.734,-0.0071,-0.0136,9.8066,-0.0749,0.064,0.0568,-1.12,-32.94,2.25,146.5,-85.24,-144.29
18901,52.410934,-1.545311,152.02,13.16,2,314.1,20 / 21,1898529,2019-09-06 18:47:45:211,-0.3396,-0.6683,9.1515,0.0096,-0.01,9.8066,0.0566,0.0788,-0.0066,-0.87,-32.5,2.81,67.01,-85.31,-144.39
18902,52.410934,-1.545311,152.02,13.16,2,314.1,20 / 21,1898628,2019-09-06 18:47:45:310,-0.3747,1.0143,10.4239,0.0198,-0.0184,9.8065,0.0239,-0.0094,0.0237,-1.0,-31.56,2.13,143.56,-85.34,-146.1
18903,52.410934,-1.545311,152.02,13.16,2,314.1,20 / 21,1898729,2019-09-06 18:47:45:411,0.9523,0.6426,10.176,0.0157,-0.0156,9.8066,-0.0306,0.0527,-0.1308,-1.87,-31.5,3.25,359.32,-85.45,-146.52
18904,52.410934,-1.545311,152.02,13.16,2,314.1,20 / 21,1898828,2019-09-06 18:47:45:510,1.3501,0.4808,9.9039,0.027,0.0101,9.8065,-0.0598,0.0948,-0.0029,-0.75,-31.5,4.13,37.01,-85.6,-149.4
18905,52.410934,-1.545311,152.02,13.16,2,314.1,20 / 21,1898929,2019-09-06 18:47:45:611,1.2675,-0.4021,10.227,-0.012,-0.03,9.8065,-0.0643,0.1372,-0.0393,-0.12,-31.44,3.56,58.95,-85.69,-151.1
18906,52.410934,-1.545311,152.02,13.16,2,314.1,20 / 21,1899029,2019-09-06 18:47:45:711,2.1322,-1.8967,10.0126,0.0,-0.0203,9.8066,-0.052,0.1654,-0.0757,0.75,-31.5,3.5,73.43,-85.81,-152.5
18907,52.410934,-1.545311,152.02,13.16,2,314.1,20 / 21,1899129,2019-09-06 18:47:45:811,0.6118,-0.8027,9.794,0.0019,0.0058,9.8066,0.0405,0.1333,-0.0241,0.88,-32.31,3.44,92.08,-85.86,-153.35
18908,52.410934,-1.545311,152.02,13.16,2,314.1,20 / 21,1899229,2019-09-06 18:47:45:911,0.0505,-1.3415,9.7728,0.006,-0.003,9.8066,-0.0201,0.1018,0.0094,0.75,-32.37,2.44,118.74,-85.84,-153.65
18909,52.410934,-1.545311,152.02,13.16,2,314.1,20 / 21,1899329,2019-09-06 18:47:46:011,1.1429,-0.0076,10.0195,-0.0004,-0.0038,9.8066,-0.0603,0.0626,0.0357,0.94,-32.37,2.63,90.99,-85.95,-153.18
18910,52.410934,-1.545311,152.02,13.16,2,314.1,20 / 21,1899429,2019-09-06 18:47:46:111,0.8856,-1.76,9.5009,-0.0084,-0.0033,9.8065,-0.1776,0.126,-0.0429,1.25,-32.06,2.94,89.66,-85.99,-153.88
18911,52.410934,-1.545311,152.02,13.16,2,314.1,20 / 21,1899528,2019-09-06 18:47:46:210,0.3856,-0.584,9.561,0.0277,0.0035,9.8065,0.0275,0.0626,0.0116,1.0,-32.5,3.06,86.7,-86.2,-153.9
18912,52.410934,-1.545311,152.02,13.16,2,314.1,20 / 21,1899629,2019-09-06 18:47:46:311,1.4806,-0.9137,10.2343,0.0044,0.0173,9.8066,-0.0061,0.1531,-0.0368,1.06,-32.37,3.5,69.47,-86.17,-153.72
18913,52.410934,-1.545311,152.02,13.16,2,314.1,20 / 21,1899728,2019-09-06 18:47:46:410,1.1316,-1.0696,9.2384,-0.0302,-0.0065,9.8066,0.021,0.129,-0.0334,1.63,-31.81,3.56,79.99,-86.07,-155.52
18914,52.410934,-1.545311,152.02,13.16,2,314.1,20 / 21,1899829,2019-09-06 18:47:46:511,2.5405,0.036,10.267,0.0021,0.0233,9.8066,-0.1326,0.0959,0.1576,1.06,-31.75,2.94,87.66,-86.22,-152.66
18915,52.410934,-1.545311,152.02,13.16,2,314.1,20 / 21,1899929,2019-09-06 18:47:46:611,7.6872,-1.7059,9.9038,0.2697,0.0283,9.8028,0.2676,-0.506,0.1068,0.94,-31.62,2.63,103.13,-85.38,-148.04
18916,52.410934,-1.545311,152.02,13.16,2,314.1,20 / 21,1900029,2019-09-06 18:47:46:711,2.2873,1.5684,12.4973,0.1906,0.0309,9.8047,0.7547,-0.2494,0.2419,0.44,-31.62,3.25,73.61,-86.48,-145.42
18917,52.410934,-1.545311,152.02,13.16,2,314.1,20 / 21,1900129,2019-09-06 18:47:46:811,2.4619,-0.2322,8.6041,0.1758,0.0824,9.8047,0.0106,-0.1542,-0.0204,-0.25,-32.19,3.06,75.45,-86.32,-146.15
18918,52.410934,-1.545311,152.02,13.16,2,314.1,20 / 21,1900228,2019-09-06 18:47:46:910,1.704,1.5628,9.0346,0.0296,0.0402,9.8065,-0.2633,-0.0109,0.0199,-0.25,-31.81,4.25,60.55,-85.96,-148.94
18919,52.410934,-1.545311,152.02,13.16,2,314.1,20 / 21,1900329,2019-09-06 18:47:47:011,1.0549,0.3597,8.6505,0.0284,0.0619,9.8064,0.1121,0.0838,-0.0517,0.31,-31.87,5.13,50.25,-86.29,-148.39
18920,52.410934,-1.545311,152.02,13.16,2,314.1,20 / 21,1900429,2019-09-06 18:47:47:111,1.189,-0.8993,9.8939,0.0351,0.0455,9.8064,0.0887,0.1053,0.0057,0.94,-32.56,4.94,64.26,-86.3,-149.2
18921,52.410934,-1.545311,152.02,13.16,2,314.1,20 / 21,1900529,2019-09-06 18:47:47:211,0.4145,-0.9917,9.7115,-0.026,-0.0281,9.8065,-0.0629,0.1085,-0.0285,1.0,-32.12,4.75,63.03,-86.31,-149.46
18922,52.410934,-1.545311,152.02,13.16,2,314.1,20 / 21,1900628,2019-09-06 18:47:47:310,0.691,-0.0196,10.1798,-0.0086,-0.0235,9.8065,-0.0746,0.0484,0.0121,1.81,-31.81,4.25,84.64,-86.16,-150.53
18923,52.410934,-1.545311,152.02,13.16,2,314.1,20 / 21,1900729,2019-09-06 18:47:47:411,-0.56,-2.2856,10.2844,0.0316,0.0223,9.8065,0.2541,0.0793,-0.0705,2.0,-32.81,4.13,85.08,-86.52,-148.05
18924,52.410934,-1.545311,152.02,13.16,2,314.1,20 / 21,1900829,2019-09-06 18:47:47:511,-2.1758,-0.6843,10.6545,0.0472,-0.0039,9.8064,-0.166,0.1952,-0.1112,2.19,-33.0,5.31,71.93,-86.51,-150.69
18925,52.410934,-1.545311,152.02,13.16,2,314.1,20 / 21,1900928,2019-09-06 18:47:47:610,-0.2932,-0.0526,9.8563,-0.0197,-0.0196,9.8066,-0.0084,0.1395,0.0328,1.63,-32.87,6.0,63.7,-86.4,-151.86
18926,52.410934,-1.545311,152.02,13.16,2,314.1,20 / 21,1901028,2019-09-06 18:47:47:710,2.854,-0.4486,9.2027,-0.0052,0.0201,9.8066,-0.0937,0.1308,-0.0763,1.63,-32.06,5.94,63.02,-86.13,-153.21
18927,52.410934,-1.545311,152.02,13.16,2,314.1,20 / 21,1901128,2019-09-06 18:47:47:810,-0.7121,0.0634,10.2736,0.012,0.0241,9.8066,0.1067,0.0189,0.0027,2.0,-31.5,5.31,70.45,-86.15,-152.79
18928,52.410934,-1.545311,152.02,13.16,2,314.1,20 / 21,1901229,2019-09-06 18:47:47:911,-0.9021,-1.4538,9.2811,0.0283,0.0112,9.8065,0.0219,0.0159,0.1225,2.31,-32.25,5.13,69.27,-86.22,-154.13
18929,52.410934,-1.545311,152.02,13.16,2,314.1,20 / 21,1901329,2019-09-06 18:47:48:011,0.2037,-0.4259,9.0655,0.0007,0.0168,9.8065,0.0488,0.0428,-0.0065,2.75,-31.87,5.81,70.63,-86.1,-153.86
18930,52.41162,-1.546534,150.62,11.82,2,305.23,20 / 21,1901429,2019-09-06 18:47:48:111,-0.6903,-1.7297,9.4885,0.0221,0.0102,9.8066,0.052,0.0891,0.01,2.69,-31.19,5.63,71.95,-86.2,-151.6
18931,52.41162,-1.546534,150.62,11.82,2,305.23,20 / 21,1901530,2019-09-06 18:47:48:212,-0.2613,-1.6006,9.903,-0.0112,-0.0109,9.8065,-0.0285,0.0573,-0.067,3.13,-31.0,5.69,71.95,-86.21,-151.56
18932,52.41162,-1.546534,150.62,11.82,2,305.23,20 / 21,1901629,2019-09-06 18:47:48:311,-0.0095,-1.5793,10.1507,-0.0159,-0.0212,9.8065,-0.0506,-0.0412,0.0656,3.69,-30.81,5.94,77.04,-86.11,-153.21
18933,52.41162,-1.546534,150.62,11.82,2,305.23,20 / 21,1901728,2019-09-06 18:47:48:410,0.0197,0.2031,10.0983,0.008,0.0126,9.8066,0.0216,0.1097,-0.0639,3.13,-30.94,4.56,80.45,-86.14,-151.24
18934,52.41162,-1.546534,150.62,11.82,2,305.23,20 / 21,1901829,2019-09-06 18:47:48:511,-1.2513,-0.4475,10.2506,0.0228,0.0063,9.8066,0.0759,-0.0104,0.077,2.63,-31.31,4.88,78.42,-86.21,-152.73
18935,52.41162,-1.546534,150.62,11.82,2,305.23,20 / 21,1901929,2019-09-06 18:47:48:611,-1.0835,-1.5869,9.4641,-0.0015,-0.002,9.8066,0.0496,0.0572,-0.0288,2.44,-31.25,4.81,70.18,-86.06,-153.53
18936,52.41162,-1.546534,150.62,11.82,2,305.23,20 / 21,1902029,2019-09-06 18:47:48:711,-0.8639,-1.2766,9.1648,0.0089,-0.0012,9.8066,-0.0273,0.0595,-0.0263,1.0,-31.0,5.44,56.78,-86.13,-154.72
18937,52.41162,-1.546534,150.62,11.82,2,305.23,20 / 21,1902129,2019-09-06 18:47:48:811,-0.1055,-1.8168,9.3487,0.0205,0.0123,9.8066,0.0162,-0.0045,0.0263,1.56,-31.56,6.63,55.39,-86.1,-154.88
18938,52.41162,-1.546534,150.62,11.82,2,305.23,20 / 21,1902228,2019-09-06 18:47:48:910,-1.1937,-1.0526,9.8928,0.0154,0.0371,9.8065,0.0763,0.0164,-0.0269,2.13,-31.06,6.81,54.61,-86.39,-154.02
18939,52.41162,-1.546534,150.62,11.82,2,305.23,20 / 21,1902329,2019-09-06 18:47:49:011,0.7395,-1.6034,9.2247,0.0087,-0.007,9.8066,0.0136,-0.0212,-0.0215,2.44,-31.0,6.56,51.39,-86.41,-156.66
18940,52.41162,-1.546534,150.62,11.82,2,305.23,20 / 21,1902429,2019-09-06 18:47:49:111,0.1147,-0.6632,9.8237,0.0176,0.0109,9.8066,0.1058,0.0058,0.043,2.06,-32.0,6.0,57.11,-86.46,-156.6
18941,52.41162,-1.546534,150.62,11.82,2,305.23,20 / 21,1902528,2019-09-06 18:47:49:210,-1.0035,-0.8588,10.3469,-0.0028,-0.0035,9.8066,-0.0016,-0.0246,-0.017,3.13,-31.94,7.0,58.7,-86.38,-157.67
18942,52.41162,-1.546534,150.62,11.82,2,305.23,20 / 21,1902628,2019-09-06 18:47:49:310,0.0839,-1.0599,10.8559,0.0033,-0.0128,9.8066,0.0881,0.0717,-0.0829,3.31,-31.37,6.25,62.49,-86.37,-159.19
18943,52.41162,-1.546534,150.62,11.82,2,305.23,20 / 21,1902729,2019-09-06 18:47:49:411,-0.4872,-1.1981,9.5566,-0.0127,-0.0406,9.8065,-0.0834,0.0069,0.0662,3.31,-31.31,6.63,53.79,-86.37,-161.49
18944,52.41162,-1.546534,150.62,11.82,2,305.23,20 / 21,1902828,2019-09-06 18:47:49:510,0.2673,-1.5203,9.0096,-0.0177,-0.0138,9.8066,0.0106,0.0302,0.0017,3.5,-32.0,6.69,59.05,-86.21,-163.79
18945,52.41162,-1.546534,150.62,11.82,2,305.23,20 / 21,1902929,2019-09-06 18:47:49:611,0.9031,-0.7701,9.2327,0.0187,0.0323,9.8065,0.0298,0.0233,-0.0654,3.56,-32.06,6.81,59.87,-86.65,-161.5
18946,52.41162,-1.546534,150.62,11.82,2,305.23,20 / 21,1903028,2019-09-06 18:47:49:710,1.2553,-1.1279,10.2392,0.0104,0.0128,9.8066,0.0367,0.0762,-0.0078,3.25,-31.5,6.25,58.99,-86.73,-160.68
18947,52.41162,-1.546534,150.62,11.82,2,305.23,20 / 21,1903128,2019-09-06 18:47:49:810,-0.8659,-2.0946,10.3424,-0.0421,-0.0319,9.8065,-0.0315,0.0625,0.0107,3.25,-31.62,6.13,62.02,-86.4,-159.98
18948,52.41162,-1.546534,150.62,11.82,2,305.23,20 / 21,1903229,2019-09-06 18:47:49:911,-0.7651,-0.8604,10.4587,-0.0408,-0.0251,9.8065,0.0641,0.0003,-0.0191,3.31,-32.06,7.0,58.92,-86.15,-158.33
18949,52.41162,-1.546534,150.62,11.82,2,305.23,20 / 21,1903329,2019-09-06 18:47:50:011,-0.6039,-1.5154,9.4357,-0.0109,-0.0115,9.8066,-0.1188,-0.0038,0.0967,2.69,-31.5,6.63,59.09,-86.13,-157.82
18950,52.41162,-1.546534,150.62,11.82,2,305.23,20 / 21,1903429,2019-09-06 18:47:50:111,0.2378,-1.5303,9.8564,-0.0149,-0.0182,9.8066,-0.1087,0.0741,-0.0279,2.44,-31.75,7.0,53.47,-86.09,-156.5
18951,52.41162,-1.546534,150.62,11.82,2,305.23,20 / 21,1903529,2019-09-06 18:47:50:211,-0.684,-0.0048,9.6141,0.0191,0.0214,9.8066,0.0288,0.05,-0.0731,2.63,-31.25,6.56,61.68,-86.43,-154.48
18952,52.41162,-1.546534,150.62,11.82,2,305.23,20 / 21,1903628,2019-09-06 18:47:50:310,-0.0904,0.3417,10.001,0.0018,-0.0052,9.8066,-0.004,0.0279,0.0298,3.44,-32.06,6.56,60.11,-86.43,-156.25
18953,52.41162,-1.546534,150.62,11.82,2,305.23,20 / 21,1903729,2019-09-06 18:47:50:411,0.7396,0.1883,10.3527,-0.0077,-0.0055,9.8066,0.0084,0.0853,0.0035,2.75,-32.0,6.94,57.64,-86.49,-158.16
18954,52.41162,-1.546534,150.62,11.82,2,305.23,20 / 21,1903828,2019-09-06 18:47:50:510,0.788,-0.4786,10.4956,-0.0093,-0.0034,9.8066,-0.0438,0.0758,-0.0898,2.94,-32.25,7.63,52.5,-86.35,-159.04
18955,52.41162,-1.546534,150.62,11.82,2,305.23,20 / 21,1903928,2019-09-06 18:47:50:610,0.2379,-0.828,10.7561,-0.005,-0.0124,9.8066,-0.0152,0.0336,0.0057,2.63,-32.06,7.25,56.98,-86.26,-159.59
18956,52.41162,-1.546534,150.62,11.82,2,305.23,20 / 21,1904029,2019-09-06 18:47:50:711,0.2093,0.1586,9.4819,-0.015,-0.0219,9.8066,-0.0957,-0.0038,0.0282,3.38,-32.25,6.88,56.9,-86.2,-159.85
18957,52.41162,-1.546534,150.62,11.82,2,305.23,20 / 21,1904128,2019-09-06 18:47:50:810,0.8554,-0.1975,9.4804,0.0241,0.0218,9.8066,0.0909,0.0259,0.0217,2.13,-31.5,7.38,47.29,-86.49,-159.78
18958,52.41162,-1.546534,150.62,11.82,2,305.23,20 / 21,1904229,2019-09-06 18:47:50:911,0.5847,-0.0439,9.6826,0.0047,0.0048,9.8066,0.0255,0.0948,-0.0153,2.63,-31.81,7.19,55.33,-86.43,-160.36
18959,52.41162,-1.546534,150.62,11.82,2,305.23,20 / 21,1904329,2019-09-06 18:47:51:011,0.9785,0.8913,10.4251,-0.0079,-0.0157,9.8066,0.0027,0.0247,-0.0062,3.31,-31.56,7.69,49.81,-86.42,-161.1
18960,52.41162,-1.546534,150.62,11.82,2,305.23,20 / 21,1904428,2019-09-06 18:47:51:110,0.7103,0.2043,10.4452,-0.0036,0.0054,9.8066,-0.0186,0.0321,-0.0095,3.06,-31.62,7.69,49.91,-86.24,-161.54
18961,52.41162,-1.546534,150.62,11.82,2,305.23,20 / 21,1904529,2019-09-06 18:47:51:211,0.5855,-0.3046,10.061,0.0019,0.0034,9.8066,-0.0396,0.0531,0.0317,3.19,-31.06,7.69,49.44,-86.3,-161.42
18962,52.41162,-1.546534,150.62,11.82,2,305.23,20 / 21,1904629,2019-09-06 18:47:51:311,-0.2027,0.1564,10.0934,0.0058,0.0203,9.8066,0.0521,-0.0048,0.0176,3.0,-31.44,7.44,55.47,-86.31,-160.26
18963,52.41162,-1.546534,150.62,11.82,2,305.23,20 / 21,1904730,2019-09-06 18:47:51:412,-0.5135,-0.0825,10.0253,-0.0004,-0.0083,9.8066,0.0206,-0.0321,0.0421,3.63,-31.0,7.31,61.47,-86.26,-161.06
18964,52.41162,-1.546534,150.62,11.82,2,305.23,20 / 21,1904829,2019-09-06 18:47:51:511,0.4883,-0.138,9.5079,0.0069,0.0129,9.8066,0.0038,-0.0072,0.0336,3.38,-31.44,8.06,50.89,-86.28,-160.26
18965,52.41162,-1.546534,150.62,11.82,2,305.23,20 / 21,1904929,2019-09-06 18:47:51:611,0.7375,-0.5314,9.5509,0.0004,-0.0018,9.8066,-0.0079,-0.0319,0.0408,2.94,-30.94,7.0,55.24,-86.31,-160.47
18966,52.41162,-1.546534,150.62,11.82,2,305.23,20 / 21,1905029,2019-09-06 18:47:51:711,0.6665,0.0641,9.9251,-0.0129,-0.0055,9.8066,0.0178,0.0191,-0.0172,2.5,-30.5,7.5,52.07,-86.27,-158.93
18967,52.41162,-1.546534,150.62,11.82,2,305.23,20 / 21,1905128,2019-09-06 18:47:51:810,0.1864,0.6785,9.8377,0.0073,0.0099,9.8066,-0.0441,-0.0295,0.0418,2.38,-30.19,7.63,44.91,-86.34,-158.62
18968,52.41162,-1.546534,150.62,11.82,2,305.23,20 / 21,1905228,2019-09-06 18:47:51:910,0.1149,0.5513,10.1792,-0.0098,-0.0113,9.8066,-0.0416,0.0556,-0.0159,2.44,-28.87,9.06,41.49,-86.19,-159.06
18969,52.41162,-1.546534,150.62,11.82,2,305.23,20 / 21,1905329,2019-09-06 18:47:52:011,-0.2933,0.5457,9.5476,0.0106,0.0102,9.8066,0.0908,0.0057,0.0357,4.44,-28.31,9.69,49.45,-86.19,-159.97
18970,52.41162,-1.546534,150.62,11.82,2,305.23,20 / 21,1905429,2019-09-06 18:47:52:111,0.0614,-0.4367,9.9361,-0.005,-0.005,9.8066,0.0298,0.0755,-0.018,5.25,-28.87,8.88,57.67,-86.09,-160.81
18971,52.41162,-1.546534,150.62,11.82,2,305.23,20 / 21,1905529,2019-09-06 18:47:52:211,-0.4011,0.619,9.5891,-0.0051,-0.007,9.8066,-0.0628,-0.0081,-0.0131,6.19,-30.31,7.56,65.61,-86.17,-161.85
18972,52.41162,-1.546534,150.62,11.82,2,305.23,20 / 21,1905628,2019-09-06 18:47:52:310,-0.0547,0.2014,10.3811,0.0104,-0.0217,9.8065,0.1364,-0.0763,0.0038,5.13,-31.06,6.94,63.31,-86.2,-164.62
18973,52.41162,-1.546534,150.62,11.82,2,305.23,20 / 21,1905729,2019-09-06 18:47:52:411,0.5282,-1.5509,10.0494,-0.005,-0.0239,9.8066,-0.1604,-0.0503,-0.0453,4.31,-31.06,7.31,55.35,-86.13,-166.81
18974,52.41162,-1.546534,150.62,11.82,2,305.23,20 / 21,1905829,2019-09-06 18:47:52:511,-1.1635,-0.1173,10.8112,-0.0284,-0.0602,9.8064,-0.0196,-0.0023,0.0336,3.5,-31.94,7.44,54.93,-85.85,-168.51
18975,52.41162,-1.546534,150.62,11.82,2,305.23,20 / 21,1905929,2019-09-06 18:47:52:611,-1.2215,0.2722,10.597,-0.0005,-0.0154,9.8065,-0.0326,-0.036,0.0925,3.63,-31.87,7.94,46.18,-85.75,-171.51
18976,52.41162,-1.546534,150.62,11.82,2,305.23,20 / 21,1906028,2019-09-06 18:47:52:710,0.7,1.0039,9.6503,0.0073,-0.007,9.8066,-0.0604,0.0539,-0.002,3.63,-31.87,8.13,45.09,-85.61,-172.76
18977,52.41162,-1.546534,150.62,11.82,2,305.23,20 / 21,1906129,2019-09-06 18:47:52:811,-0.2919,0.0943,9.6391,0.0038,-0.0152,9.8066,0.0558,-0.0572,0.0217,3.13,-32.5,7.75,37.29,-85.51,-173.6
18978,52.41162,-1.546534,150.62,11.82,2,305.23,20 / 21,1906229,2019-09-06 18:47:52:911,-0.6298,1.8771,9.7519,0.0002,-0.0137,9.8066,0.0696,-0.0105,-0.1044,3.31,-32.87,8.38,34.47,-85.51,-176.03
18979,52.41162,-1.546534,150.62,11.82,2,305.23,20 / 21,1906328,2019-09-06 18:47:53:010,0.4246,0.4311,9.65,0.0337,-0.0088,9.8065,-0.0201,-0.0512,-0.0586,4.5,-33.0,8.0,39.43,-85.72,177.8
18980,52.41162,-1.546534,150.62,11.82,2,305.23,20 / 21,1906429,2019-09-06 18:47:53:111,-0.6148,0.141,9.188,0.0061,0.0066,9.8066,-0.0801,-0.0446,0.0048,4.31,-32.75,9.19,25.9,-85.65,175.49
18981,52.41162,-1.546534,150.62,11.82,2,305.23,20 / 21,1906528,2019-09-06 18:47:53:210,-1.4537,-1.5033,9.5598,0.0107,0.0034,9.8066,0.1108,0.0536,-0.0334,3.63,-31.81,8.75,25.13,-85.5,174.88
18982,52.41162,-1.546534,150.62,11.82,2,305.23,20 / 21,1906629,2019-09-06 18:47:53:311,-1.5231,-0.2436,10.6136,0.0032,0.0299,9.8066,0.1289,-0.0711,0.054,3.88,-31.75,8.94,24.65,-85.65,174.71
18983,52.41162,-1.546534,150.62,11.82,2,305.23,20 / 21,1906729,2019-09-06 18:47:53:411,-0.4591,-0.6137,9.4944,-0.0199,-0.028,9.8066,-0.1034,-0.0505,0.0718,4.19,-31.56,8.75,25.18,-85.82,175.37
18984,52.41162,-1.546534,150.62,11.82,2,305.23,20 / 21,1906828,2019-09-06 18:47:53:510,-1.3806,-0.0306,9.7661,-0.0247,-0.0303,9.8066,-0.0741,-0.0268,0.0791,3.75,-31.62,8.44,32.77,-85.63,177.63
18985,52.41162,-1.546534,150.62,11.82,2,305.23,20 / 21,1906929,2019-09-06 18:47:53:611,-0.073,0.8994,9.4656,-0.0004,0.0186,9.8066,0.0052,-0.0292,-0.0101,3.56,-32.06,8.5,30.52,-85.82,179.58
18986,52.41162,-1.546534,150.62,11.82,2,305.23,20 / 21,1907028,2019-09-06 18:47:53:710,-1.0707,-0.0531,9.5958,-0.0003,0.0234,9.8066,-0.0236,-0.0502,0.0418,3.75,-31.81,8.19,36.55,-85.84,-178.98
18987,52.41162,-1.546534,150.62,11.82,2,305.23,20 / 21,1907128,2019-09-06 18:47:53:810,0.3578,0.8362,9.5675,0.0044,0.0136,9.8066,0.0743,-0.0757,0.026,3.88,-31.62,7.88,38.09,-85.92,-177.58
18988,52.41162,-1.546534,150.62,11.82,2,305.23,20 / 21,1907228,2019-09-06 18:47:53:910,0.1136,-0.5486,9.6849,0.0077,0.0192,9.8066,0.0296,-0.018,-0.0132,3.81,-31.56,7.31,45.3,-86.05,-175.74
18989,52.41162,-1.546534,150.62,11.82,2,305.23,20 / 21,1907329,2019-09-06 18:47:54:011,-0.7152,0.9672,9.9408,-0.0172,-0.0148,9.8065,-0.1475,0.0049,0.0168,3.38,-31.25,7.69,34.22,-86.22,-174.13
18990,52.41162,-1.546534,150.62,11.82,2,305.23,20 / 21,1907429,2019-09-06 18:47:54:111,-0.4529,0.516,9.3721,-0.0165,-0.013,9.8066,-0.0777,-0.1104,0.0772,3.25,-32.19,7.31,41.55,-86.2,-172.36
18991,52.41162,-1.546534,150.62,11.82,2,305.23,20 / 21,1907529,2019-09-06 18:47:54:211,-1.8008,0.1379,9.5308,0.0312,0.0436,9.8065,0.1191,-0.1508,0.0902,2.75,-31.37,7.63,41.26,-86.44,-167.9
18992,52.41162,-1.546534,150.62,11.82,2,305.23,20 / 21,1907628,2019-09-06 18:47:54:310,-0.2168,0.6672,9.8829,0.0101,0.0552,9.8064,0.154,0.0406,0.0592,2.19,-32.25,8.0,38.73,-86.49,-163.92
18993,52.41162,-1.546534,150.62,11.82,2,305.23,20 / 21,1907729,2019-09-06 18:47:54:411,-0.6437,0.4537,10.0566,-0.0257,-0.0054,9.8066,-0.004,-0.1013,-0.0168,2.56,-31.94,6.81,54.31,-86.37,-161.45
18994,52.41162,-1.546534,150.62,11.82,2,305.23,20 / 21,1907829,2019-09-06 18:47:54:511,-0.1712,0.3143,10.5513,0.0005,0.0024,9.8066,0.0961,-0.0603,-0.0003,2.06,-32.0,7.63,43.89,-86.24,-160.39
