,GPS LATITUDE (degrees),GPS LONGITUDE (degrees), GPS ALTITUDE (m),GPS SPEED (Kmh),GPS ACCURACY (m),GPS ORIENTATION (Â°), SATELLITES IN RANGE, TIME SINCE START (ms), DATE (YYYY-MO-DD HH-MI-SS_SSS),ACCELEROMETER X (m/s²) , ACCELEROMETER Y (m/s²), ACCELEROMETER Z (m/s²), GRAVITY X (m/s²), GRAVITY Y (m/s²), GRAVITY Z (m/s²), GYROSCOPE Yaw (rad/s), GYROSCOPE Pitch (rad/s), GYROSCOPE Roll (rad/s)
55497,46.663536,-1.15703,118.84,36.24,3.216,176.9,16 / 19,5549710,2019-08-09 21:46:38:448,-1.0659,-0.5116,9.4053,-0.5215,-0.6965,9.768,0.0088,-0.0177,-0.0019
55498,46.663536,-1.15703,118.84,36.24,3.216,176.9,16 / 19,5549811,2019-08-09 21:46:38:549,-1.6752,-0.0328,9.8907,-0.524,-0.6779,9.7691,0.0062,-0.018,0.0027
55499,46.663536,-1.15703,118.84,36.24,3.216,176.9,16 / 19,5549910,2019-08-09 21:46:38:648,-0.2339,-0.3943,10.1475,-0.5377,-0.6684,9.7691,-0.0038,0.0147,0.0158
55500,46.663536,-1.15703,118.84,36.24,3.216,176.9,16 / 19,5550011,2019-08-09 21:46:38:749,-0.6325,-0.4267,10.3055,-0.5602,-0.659,9.7684,-0.0022,0.0303,-0.0038
55501,46.663536,-1.15703,118.84,36.24,3.216,176.9,16 / 19,5550111,2019-08-09 21:46:38:849,0.4467,-0.6924,9.6663,-0.5514,-0.6545,9.7692,-0.0016,0.0036,0.0308
55502,46.663536,-1.15703,118.84,36.24,3.216,176.9,16 / 19,5550211,2019-08-09 21:46:38:949,-0.9886,-0.6367,9.2922,-0.5292,-0.6648,9.7698,-0.0088,-0.0304,0.04
55503,46.663536,-1.15703,118.84,36.24,3.216,176.9,16 / 19,5550311,2019-08-09 21:46:39:049,-0.9114,-1.121,9.1234,-0.5131,-0.6688,9.7704,-0.009,0.0008,0.0117
55504,46.663536,-1.15703,118.84,36.24,3.216,176.9,16 / 19,5550411,2019-08-09 21:46:39:149,-1.2041,-0.9492,9.5723,-0.5265,-0.6814,9.7688,-0.0009,-0.0223,0.0256
55505,46.663536,-1.15703,118.84,36.24,3.216,176.9,16 / 19,5550511,2019-08-09 21:46:39:249,0.4191,-0.9534,9.1719,-0.4844,-0.6832,9.7708,0.0107,0.0393,0.0139
55506,46.663536,-1.15703,118.84,36.24,3.216,176.9,17 / 19,5550611,2019-08-09 21:46:39:349,1.0434,-0.2285,10.4857,-0.5157,-0.6765,9.7697,-0.0091,0.0445,-0.0024
55507,46.663536,-1.15703,118.84,36.24,3.216,176.9,17 / 19,5550711,2019-08-09 21:46:39:449,0.0421,-0.6757,10.0595,-0.5265,-0.68,9.7689,-0.0004,-0.0264,0.0192
55508,46.663536,-1.15703,118.84,36.24,3.216,176.9,17 / 19,5550810,2019-08-09 21:46:39:548,-1.7171,-0.7696,9.0575,-0.5234,-0.6795,9.7691,0.0162,-0.0537,0.0199
55509,46.663536,-1.15703,118.84,36.24,3.216,176.9,17 / 19,5550910,2019-08-09 21:46:39:648,-1.0431,-0.514,8.9755,-0.497,-0.6644,9.7715,0.0086,0.021,-0.0132
55510,46.663536,-1.15703,118.84,36.24,3.216,176.9,17 / 19,5551010,2019-08-09 21:46:39:748,-0.1896,-0.1824,9.4663,-0.467,-0.6537,9.7737,-0.0002,-0.0217,-0.006
55511,46.663536,-1.15703,118.84,36.24,3.216,176.9,17 / 19,5551110,2019-08-09 21:46:39:848,0.0061,-0.201,10.3773,-0.4973,-0.6456,9.7727,-0.0007,0.0376,-0.0024
55512,46.663536,-1.15703,118.84,36.24,3.216,176.9,17 / 19,5551210,2019-08-09 21:46:39:948,0.5119,-0.2249,9.6082,-0.4905,-0.6401,9.7734,-0.0021,-0.0256,0.001
55513,46.663536,-1.15703,118.84,36.24,3.216,176.9,17 / 19,5551310,2019-08-09 21:46:40:048,-0.5613,-0.2752,9.5627,-0.4905,-0.6219,9.7746,0.0048,-0.0052,-0.0087
55514,46.663536,-1.15703,118.84,36.24,3.216,176.9,17 / 19,5551410,2019-08-09 21:46:40:148,-0.2662,-0.0639,9.4394,-0.4764,-0.6106,9.776,0.0057,0.0036,-0.0107
55515,46.663536,-1.15703,118.84,36.24,3.216,176.9,17 / 19,5551510,2019-08-09 21:46:40:248,-0.8372,-0.0933,9.3646,-0.4727,-0.5909,9.7774,-0.0035,-0.0039,-0.007
55516,46.663536,-1.15703,118.84,36.24,3.216,176.9,17 / 20,5551610,2019-08-09 21:46:40:348,-0.7708,-0.2519,10.2331,-0.4785,-0.5923,9.777,-0.0211,-0.0152,0.0136
55517,46.663536,-1.15703,118.84,36.24,3.216,176.9,17 / 20,5551710,2019-08-09 21:46:40:448,-1.2861,-0.2872,9.9356,-0.4836,-0.6024,9.7762,-0.0042,0.0281,-0.0026
55518,46.663536,-1.15703,118.84,36.24,3.216,176.9,17 / 20,5551811,2019-08-09 21:46:40:549,-0.0675,-0.028,10.4312,-0.4984,-0.5935,9.776,-0.0042,0.0281,-0.0026
55519,46.663536,-1.15703,118.84,36.24,3.216,176.9,17 / 20,5551911,2019-08-09 21:46:40:649,2.2573,-1.2778,6.9578,-0.3992,-0.5722,9.7818,-0.0173,0.3057,-0.123
55520,46.663536,-1.15703,118.84,36.24,3.216,176.9,17 / 20,5552010,2019-08-09 21:46:40:748,1.7587,-0.3997,9.6711,-0.5029,-0.5573,9.7779,0.0143,-0.066,0.0117
55521,46.663536,-1.15703,118.84,36.24,3.216,176.9,17 / 20,5552110,2019-08-09 21:46:40:848,-4.1394,-1.1443,10.1936,-0.4954,-0.5523,9.7785,0.0239,0.0169,0.0063
55522,46.663536,-1.15703,118.84,36.24,3.216,176.9,17 / 20,5552210,2019-08-09 21:46:40:948,-2.3246,0.0157,9.6268,-0.5091,-0.5361,9.7787,0.0089,-0.0293,-0.0073
55523,46.663536,-1.15703,118.84,36.24,3.216,176.9,17 / 20,5552310,2019-08-09 21:46:41:048,-1.1257,-0.2561,9.8273,-0.4966,-0.5279,9.7798,-0.01,0.0486,-0.0047
55524,46.663536,-1.15703,118.84,36.24,3.216,176.9,17 / 20,5552411,2019-08-09 21:46:41:149,-0.5499,-0.769,10.1996,-0.53,-0.5283,9.7781,0.0067,0.0178,0.0174
55525,46.663536,-1.15703,118.84,36.24,3.216,176.9,17 / 20,5552511,2019-08-09 21:46:41:249,0.3084,-0.605,10.5288,-0.5585,-0.5265,9.7766,0.0008,-0.0107,0.0025
55526,46.663536,-1.15703,118.84,36.24,3.216,176.9,17 / 20,5552610,2019-08-09 21:46:41:348,-0.9701,-0.8085,9.2658,-0.5395,-0.5276,9.7776,-0.0079,-0.0311,0.0346
55527,46.663536,-1.15703,118.84,36.24,3.216,176.9,17 / 20,5552710,2019-08-09 21:46:41:448,-0.3081,-0.9498,9.2605,-0.5077,-0.551,9.778,-0.0115,0.0068,0.0099
55528,46.663536,-1.15703,118.84,36.24,3.216,176.9,17 / 20,5552810,2019-08-09 21:46:41:548,-1.4082,-0.7175,9.7896,-0.5166,-0.5602,9.777,-0.0088,0.0046,0.017
55529,46.663536,-1.15703,118.84,36.24,3.216,176.9,17 / 20,5552910,2019-08-09 21:46:41:648,0.1444,-0.6721,10.3265,-0.5444,-0.5762,9.7746,-0.0021,0.0412,0.0231
55530,46.663536,-1.15703,118.84,36.24,3.216,176.9,17 / 20,5553010,2019-08-09 21:46:41:748,-0.991,-0.796,10.0906,-0.5381,-0.5803,9.7747,-0.0002,-0.0081,0.0127
55531,46.663536,-1.15703,118.84,36.24,3.216,176.9,17 / 20,5553111,2019-08-09 21:46:41:849,-0.599,-0.6727,9.4801,-0.5463,-0.5856,9.7739,0.0044,0.004,0.0176
55532,46.663536,-1.15703,118.84,36.24,3.216,176.9,17 / 20,5553210,2019-08-09 21:46:41:948,-1.3119,-0.6308,9.7207,-0.5431,-0.5844,9.7741,0.0001,0.0049,0.0166
55533,46.663536,-1.15703,118.84,36.24,3.216,176.9,17 / 20,5553310,2019-08-09 21:46:42:048,-0.2614,-0.6457,9.7411,-0.5355,-0.5874,9.7744,-0.0038,-0.014,0.0131
55534,46.663536,-1.15703,118.84,36.24,3.216,176.9,17 / 20,5553410,2019-08-09 21:46:42:148,-0.4559,-0.6415,9.2928,-0.531,-0.5947,9.7742,-0.0093,-0.0136,0.009
55535,46.663536,-1.15703,118.84,36.24,3.216,176.9,17 / 20,5553510,2019-08-09 21:46:42:248,0.0882,-0.5386,9.9189,-0.5531,-0.5934,9.773,-0.0007,-0.0091,0.0213
55536,46.663536,-1.15703,118.84,36.24,3.216,176.9,17 / 19,5553611,2019-08-09 21:46:42:349,-0.2201,-0.7056,9.7327,-0.5615,-0.5931,9.7726,0.0052,-0.003,0.0238
55537,46.663536,-1.15703,118.84,36.24,3.216,176.9,17 / 19,5553711,2019-08-09 21:46:42:449,-0.9025,-0.5787,9.6166,-0.5681,-0.5898,9.7724,-0.0021,0.003,-0.0051
55538,46.663536,-1.15703,118.84,36.24,3.216,176.9,17 / 19,5553810,2019-08-09 21:46:42:548,-1.7416,-0.7032,9.9961,-0.5668,-0.5909,9.7724,0.0038,0.0028,0.0268
55539,46.663536,-1.15703,118.84,36.24,3.216,176.9,17 / 19,5553911,2019-08-09 21:46:42:649,-0.3296,-0.5105,9.4077,-0.5666,-0.5971,9.772,-0.0098,-0.0082,0.0047
55540,46.663536,-1.15703,118.84,36.24,3.216,176.9,17 / 19,5554010,2019-08-09 21:46:42:748,-0.9204,-0.8355,9.8578,-0.5686,-0.6042,9.7715,-0.0136,0.0199,0.0258
55541,46.663536,-1.15703,118.84,36.24,3.216,176.9,17 / 19,5554111,2019-08-09 21:46:42:849,0.1396,-0.9258,9.8255,-0.5711,-0.6134,9.7708,0.0013,-0.0022,0.0283
55542,46.663536,-1.15703,118.84,36.24,3.216,176.9,17 / 19,5554211,2019-08-09 21:46:42:949,-0.1489,-0.9695,9.9326,-0.59,-0.6225,9.7691,-0.0016,0.0081,0.005
55543,46.663536,-1.15703,118.84,36.24,3.216,176.9,17 / 19,5554310,2019-08-09 21:46:43:048,-0.4464,-0.7421,9.8129,-0.6085,-0.6255,9.7677,-0.0007,-0.006,0.021
55544,46.663536,-1.15703,118.84,36.24,3.216,176.9,17 / 19,5554410,2019-08-09 21:46:43:148,-1.1598,-0.7457,9.6142,-0.5922,-0.629,9.7685,0.0016,-0.0048,-0.0002
55545,46.663536,-1.15703,118.84,36.24,3.216,176.9,17 / 19,5554510,2019-08-09 21:46:43:248,-1.7015,-0.7924,10.0882,-0.6108,-0.6321,9.7672,0.0053,0.0204,0.0259
55546,46.663536,-1.15703,118.84,36.24,3.216,176.9,16 / 20,5554610,2019-08-09 21:46:43:348,-0.8779,-0.7391,10.3426,-0.6151,-0.6392,9.7664,-0.0061,0.0163,0.0132
55547,46.663536,-1.15703,118.84,36.24,3.216,176.9,16 / 20,5554710,2019-08-09 21:46:43:448,-0.1519,-0.9713,9.5346,-0.6024,-0.6456,9.7668,-0.011,-0.0273,0.0054
55548,46.663536,-1.15703,118.84,36.24,3.216,176.9,16 / 20,5554810,2019-08-09 21:46:43:548,0.2779,-1.0551,9.5717,-0.5961,-0.663,9.766,0.0029,-0.0005,0.0398
55549,46.663536,-1.15703,118.84,36.24,3.216,176.9,16 / 20,5554911,2019-08-09 21:46:43:649,-1.2514,-1.3017,10.0798,-0.5953,-0.6704,9.7656,-0.0013,0.0038,0.0376
55550,46.663536,-1.15703,118.84,36.24,3.216,176.9,16 / 20,5555010,2019-08-09 21:46:43:748,-1.0892,-1.1084,10.5964,-0.627,-0.6836,9.7627,0.0018,0.0271,0.0187
55551,46.663536,-1.15703,118.84,36.24,3.216,176.9,16 / 20,5555110,2019-08-09 21:46:43:848,-1.659,-1.0833,10.3612,-0.6362,-0.6873,9.7618,0.0139,-0.0235,0.0372
55552,46.663536,-1.15703,118.84,36.24,3.216,176.9,16 / 20,5555210,2019-08-09 21:46:43:948,0.318,-0.9498,9.7351,-0.6323,-0.6841,9.7623,0.0058,-0.0032,0.0317
55553,46.663536,-1.15703,118.84,36.24,3.216,176.9,16 / 20,5555310,2019-08-09 21:46:44:048,-0.7899,-1.1036,9.5489,-0.6223,-0.6873,9.7627,0.0003,-0.0241,0.0248
55554,46.663536,-1.15703,118.84,36.24,3.216,176.9,16 / 20,5555410,2019-08-09 21:46:44:148,0.3737,-1.0773,9.4741,-0.6271,-0.6991,9.7616,-0.0051,0.0121,0.0177
55555,46.663536,-1.15703,118.84,36.24,3.216,176.9,16 / 20,5555510,2019-08-09 21:46:44:248,-1.9224,-1.1742,9.8704,-0.6279,-0.708,9.7609,-0.0052,-0.0009,0.0285
55556,46.663536,-1.15703,118.84,36.24,3.216,176.9,15 / 19,5555610,2019-08-09 21:46:44:348,-0.1459,-0.769,10.0942,-0.6478,-0.7184,9.7588,-0.0028,-0.0055,0.0154
55557,46.663536,-1.15703,118.84,36.24,3.216,176.9,15 / 19,5555712,2019-08-09 21:46:44:450,-1.1036,-0.9133,9.6471,-0.6413,-0.7209,9.7591,-0.0033,-0.0034,0.0212
55558,46.663536,-1.15703,118.84,36.24,3.216,176.9,15 / 19,5555810,2019-08-09 21:46:44:548,0.9896,-0.8678,10.099,-0.6541,-0.7258,9.7579,0.0034,-0.0174,0.016
55559,46.663536,-1.15703,118.84,36.24,3.216,176.9,15 / 19,5555910,2019-08-09 21:46:44:648,-1.1221,-0.9282,9.9583,-0.6381,-0.7251,9.759,0.0026,0.0305,0.0182
55560,46.663536,-1.15703,118.84,36.24,3.216,176.9,15 / 19,5556010,2019-08-09 21:46:44:748,-1.434,-0.9893,9.2742,-0.6434,-0.725,9.7586,0.0074,0.006,0.0173
55561,46.663536,-1.15703,118.84,36.24,3.216,176.9,15 / 19,5556111,2019-08-09 21:46:44:849,-2.2857,-0.951,9.8518,-0.6412,-0.7248,9.7588,0.0072,0.0144,0.0189
55562,46.663536,-1.15703,118.84,36.24,3.216,176.9,15 / 19,5556210,2019-08-09 21:46:44:948,-0.3021,-0.9845,9.8763,-0.6552,-0.7332,9.7572,-0.0094,0.0048,0.0317
55563,46.663536,-1.15703,118.84,36.24,3.216,176.9,15 / 19,5556311,2019-08-09 21:46:45:049,0.1408,-0.787,9.9332,-0.6631,-0.7436,9.7559,-0.0099,-0.0031,0.0195
55564,46.663536,-1.15703,118.84,36.24,3.216,176.9,15 / 19,5556410,2019-08-09 21:46:45:148,0.8322,-0.9306,9.6453,-0.6625,-0.7552,9.7551,0.0044,-0.0073,0.0252
55565,46.663536,-1.15703,118.84,36.24,3.216,176.9,15 / 19,5556511,2019-08-09 21:46:45:249,-1.6871,-0.8899,10.0906,-0.6673,-0.7567,9.7546,-0.0053,-0.002,0.0224
55566,46.663536,-1.15703,118.84,36.24,3.216,176.9,14 / 18,5556610,2019-08-09 21:46:45:348,-0.3416,-0.8379,10.0667,-0.6658,-0.7611,9.7544,0.0013,0.0057,0.0094
55567,46.663536,-1.15703,118.84,36.24,3.216,176.9,14 / 18,5556710,2019-08-09 21:46:45:448,-1.4196,-0.705,9.8039,-0.6651,-0.7589,9.7546,0.0013,0.0057,0.0094
55568,46.663536,-1.15703,118.84,36.24,3.216,176.9,14 / 18,5556810,2019-08-09 21:46:45:548,0.0786,-0.7852,9.5633,-0.6692,-0.7593,9.7543,-0.0063,0.0318,0.0102
55569,46.663536,-1.15703,118.84,36.24,3.216,176.9,14 / 18,5556910,2019-08-09 21:46:45:648,-1.2801,-0.8223,10.1367,-0.6779,-0.7603,9.7536,-0.0005,0.0068,0.0103
55570,46.663536,-1.15703,118.84,36.24,3.216,176.9,14 / 18,5557010,2019-08-09 21:46:45:748,-0.1938,-0.9127,9.4909,-0.6774,-0.7557,9.754,0.0117,0.0012,0.01
55571,46.663536,-1.15703,118.84,36.24,3.216,176.9,14 / 18,5557110,2019-08-09 21:46:45:848,-2.0636,-0.4608,9.6675,-0.678,-0.7498,9.7544,-0.0013,-0.0164,0.0
55572,46.663536,-1.15703,118.84,36.24,3.216,176.9,14 / 18,5557211,2019-08-09 21:46:45:949,-0.3003,-0.4781,9.7112,-0.6712,-0.7443,9.7553,-0.0005,0.0049,0.0208
55573,46.663536,-1.15703,118.84,36.24,3.216,176.9,14 / 18,5557310,2019-08-09 21:46:46:048,-0.1824,-0.453,9.953,-0.6762,-0.7465,9.7548,-0.0072,-0.0046,-0.0082
55574,46.663536,-1.15703,118.84,36.24,3.216,176.9,14 / 18,5557410,2019-08-09 21:46:46:148,0.9956,-0.7014,9.3664,-0.6639,-0.7436,9.7558,-0.0015,0.014,-0.0008
55575,46.663536,-1.15703,118.84,36.24,3.216,176.9,14 / 18,5557511,2019-08-09 21:46:46:249,-1.6051,-0.8199,10.0996,-0.681,-0.7398,9.755,0.0006,0.0387,0.0272
55576,46.6606,-1.156549,117.01,36.73,3.216,169.5,16 / 19,5557611,2019-08-09 21:46:46:349,-0.9162,-0.7289,9.9542,-0.6804,-0.7369,9.7552,0.0053,-0.016,0.019
55577,46.6606,-1.156549,117.01,36.73,3.216,169.5,16 / 19,5557710,2019-08-09 21:46:46:448,-1.3963,-0.4686,10.1194,-0.6849,-0.7275,9.7556,0.0016,0.0327,-0.0059
55578,46.6606,-1.156549,117.01,36.73,3.216,169.5,16 / 19,5557810,2019-08-09 21:46:46:548,-0.0543,-0.5727,10.1583,-0.6891,-0.7279,9.7553,-0.0069,0.0334,0.0167
55579,46.6606,-1.156549,117.01,36.73,3.216,169.5,16 / 19,5557911,2019-08-09 21:46:46:649,0.4515,-0.3913,10.4109,-0.7105,-0.7267,9.7539,0.0053,0.0037,-0.0007
55580,46.6606,-1.156549,117.01,36.73,3.216,169.5,16 / 19,5558010,2019-08-09 21:46:46:748,-0.6319,-0.711,10.0386,-0.7187,-0.7166,9.754,0.008,-0.013,0.0078
55581,46.6606,-1.156549,117.01,36.73,3.216,169.5,16 / 19,5558110,2019-08-09 21:46:46:848,-1.8116,-0.5236,9.6531,-0.7039,-0.6997,9.7563,0.0099,-0.014,0.0136
55582,46.6606,-1.156549,117.01,36.73,3.216,169.5,16 / 19,5558210,2019-08-09 21:46:46:948,-0.6433,-0.2297,9.4436,-0.6897,-0.6896,9.758,0.0036,-0.0304,-0.0031
55583,46.6606,-1.156549,117.01,36.73,3.216,169.5,16 / 19,5558310,2019-08-09 21:46:47:048,-0.1692,-0.2848,9.4723,-0.6629,-0.6737,9.761,-0.0051,0.0009,0.0021
55584,46.6606,-1.156549,117.01,36.73,3.216,169.5,16 / 19,5558410,2019-08-09 21:46:47:148,0.3545,-0.2561,9.4939,-0.6464,-0.6736,9.7621,-0.0104,-0.0036,0.0084
55585,46.6606,-1.156549,117.01,36.73,3.216,169.5,16 / 19,5558510,2019-08-09 21:46:47:248,0.303,-0.2112,10.1259,-0.6513,-0.6803,9.7613,-0.0206,0.0137,-0.0005
55586,46.6606,-1.156549,117.01,36.73,3.216,169.5,16 / 19,5558610,2019-08-09 21:46:47:348,-0.5445,-0.4159,10.1236,-0.652,-0.6871,9.7608,-0.0094,0.0076,0.0036
55587,46.6606,-1.156549,117.01,36.73,3.216,169.5,16 / 19,5558710,2019-08-09 21:46:47:448,-1.1054,-0.4979,9.7602,-0.643,-0.6774,9.7621,0.0075,-0.0015,0.0161
55588,46.6606,-1.156549,117.01,36.73,3.216,169.5,16 / 19,5558810,2019-08-09 21:46:47:548,-0.6547,-0.3273,9.8662,-0.6368,-0.6717,9.7629,-0.0051,0.0254,0.0026
55589,46.6606,-1.156549,117.01,36.73,3.216,169.5,16 / 19,5558911,2019-08-09 21:46:47:649,-0.0322,-0.4811,9.929,-0.6264,-0.6628,9.7642,0.0039,0.0201,0.0029
55590,46.6606,-1.156549,117.01,36.73,3.216,169.5,16 / 19,5559011,2019-08-09 21:46:47:749,-0.4883,-0.5613,9.6956,-0.6077,-0.6543,9.7659,0.0067,-0.0418,0.0027
55591,46.6606,-1.156549,117.01,36.73,3.216,169.5,16 / 19,5559111,2019-08-09 21:46:47:849,-1.267,-0.3806,9.4436,-0.5787,-0.6503,9.7679,-0.0185,-0.013,0.0094
55592,46.6606,-1.156549,117.01,36.73,3.216,169.5,16 / 19,5559210,2019-08-09 21:46:47:948,-0.3524,-0.6565,9.5561,-0.5805,-0.6558,9.7675,-0.0097,-0.0076,0.0077
55593,46.6606,-1.156549,117.01,36.73,3.216,169.5,16 / 19,5559311,2019-08-09 21:46:48:049,0.2007,-0.523,9.9332,-0.5705,-0.6672,9.7673,-0.0082,0.015,0.0115
55594,46.6606,-1.156549,117.01,36.73,3.216,169.5,16 / 19,5559411,2019-08-09 21:46:48:149,1.4786,-0.3812,10.3636,-0.562,-0.6751,9.7672,-0.0187,0.0159,0.0113
55595,46.6606,-1.156549,117.01,36.73,3.216,169.5,16 / 19,5559511,2019-08-09 21:46:48:249,1.0458,-0.6314,10.0936,-0.5578,-0.6825,9.767,-0.0054,0.0373,0.0048
55596,46.6606,-1.156549,117.01,36.73,3.216,169.5,16 / 19,5559611,2019-08-09 21:46:48:349,0.7406,-0.4847,10.0266,-0.543,-0.6836,9.7677,-0.0042,-0.0102,-0.0061
55597,46.6606,-1.156549,117.01,36.73,3.216,169.5,16 / 19,5559711,2019-08-09 21:46:48:449,0.3814,-0.7289,9.4418,-0.5182,-0.6678,9.7702,0.0121,-0.0256,0.0263
55598,46.6606,-1.156549,117.01,36.73,3.216,169.5,16 / 19,5559810,2019-08-09 21:46:48:548,-0.0501,-0.6092,9.6872,-0.5076,-0.6624,9.7711,0.004,-0.0092,0.0098
55599,46.6606,-1.156549,117.01,36.73,3.216,169.5,16 / 19,5559910,2019-08-09 21:46:48:648,-0.2027,-0.6631,9.625,-0.4689,-0.6601,9.7732,-0.0029,-0.0116,0.0099
55600,46.6606,-1.156549,117.01,36.73,3.216,169.5,16 / 19,5560010,2019-08-09 21:46:48:748,-0.4422,-0.7265,9.841,-0.4712,-0.6621,9.7729,0.0004,0.0064,0.0222
55601,46.6606,-1.156549,117.01,36.73,3.216,169.5,16 / 19,5560110,2019-08-09 21:46:48:848,0.4317,-0.6763,10.0535,-0.4599,-0.6651,9.7733,-0.003,-0.0064,0.0159
55602,46.6606,-1.156549,117.01,36.73,3.216,169.5,16 / 19,5560210,2019-08-09 21:46:48:948,0.5095,-0.7576,9.8135,-0.4528,-0.6655,9.7736,0.0014,0.0153,0.0159
55603,46.6606,-1.156549,117.01,36.73,3.216,169.5,16 / 19,5560310,2019-08-09 21:46:49:048,0.385,-0.8839,9.7333,-0.4431,-0.6623,9.7742,0.0094,0.0049,0.0092
55604,46.6606,-1.156549,117.01,36.73,3.216,169.5,16 / 19,5560411,2019-08-09 21:46:49:149,0.1474,-0.6134,9.8075,-0.4303,-0.659,9.775,-0.002,0.0013,0.015
55605,46.6606,-1.156549,117.01,36.73,3.216,169.5,16 / 19,5560511,2019-08-09 21:46:49:249,0.1468,-0.9288,9.6303,-0.4003,-0.662,9.7761,0.0073,0.0095,0.0227
55606,46.6606,-1.156549,117.01,36.73,3.216,169.5,17 / 20,5560611,2019-08-09 21:46:49:349,-0.1076,-0.5446,9.8734,-0.4066,-0.6603,9.7759,0.0017,0.0002,0.015
55607,46.6606,-1.156549,117.01,36.73,3.216,169.5,17 / 20,5560711,2019-08-09 21:46:49:449,-0.3685,-0.9396,9.6998,-0.3948,-0.6612,9.7764,0.0082,0.0166,0.0135
55608,46.6606,-1.156549,117.01,36.73,3.216,169.5,17 / 20,5560810,2019-08-09 21:46:49:548,0.2354,-0.5116,10.099,-0.3992,-0.6595,9.7763,0.0045,0.0037,0.0076
55609,46.6606,-1.156549,117.01,36.73,3.216,169.5,17 / 20,5560911,2019-08-09 21:46:49:649,-1.3927,-0.9145,9.7788,-0.41,-0.6631,9.7756,-0.0033,-0.0011,0.0176
55610,46.6606,-1.156549,117.01,36.73,3.216,169.5,17 / 20,5561011,2019-08-09 21:46:49:749,0.7813,-0.6314,9.5238,-0.4064,-0.6716,9.7752,-0.0006,-0.0067,0.0099
55611,46.6606,-1.156549,117.01,36.73,3.216,169.5,17 / 20,5561111,2019-08-09 21:46:49:849,1.0063,-0.8427,9.7351,-0.4309,-0.6732,9.774,-0.0116,0.0212,0.0159
55612,46.6606,-1.156549,117.01,36.73,3.216,169.5,17 / 20,5561211,2019-08-09 21:46:49:949,-0.244,-1.1563,9.771,-0.4183,-0.6893,9.7734,-0.0031,-0.0187,0.0372
55613,46.6606,-1.156549,117.01,36.73,3.216,169.5,17 / 20,5561311,2019-08-09 21:46:50:049,-0.6816,-0.8899,9.7315,-0.4268,-0.6918,9.7729,0.0001,-0.0118,0.009
55614,46.6606,-1.156549,117.01,36.73,3.216,169.5,17 / 20,5561411,2019-08-09 21:46:50:149,-0.4631,-0.6828,10.084,-0.4374,-0.6914,9.7725,-0.003,0.0081,0.0171
55615,46.6606,-1.156549,117.01,36.73,3.216,169.5,17 / 20,5561510,2019-08-09 21:46:50:248,-1.4795,-0.8205,10.023,-0.4448,-0.6926,9.772,-0.0023,0.0105,0.002
55616,46.6606,-1.156549,117.01,36.73,3.216,169.5,13 / 16,5561610,2019-08-09 21:46:50:348,-0.3494,-0.6948,9.6513,-0.4496,-0.6863,9.7723,0.0146,-0.0114,0.0211
55617,46.6606,-1.156549,117.01,36.73,3.216,169.5,13 / 16,5561710,2019-08-09 21:46:50:448,-0.2123,-0.5182,10.199,-0.4452,-0.6798,9.7729,0.0094,-0.0073,0.004
55618,46.6606,-1.156549,117.01,36.73,3.216,169.5,13 / 16,5561811,2019-08-09 21:46:50:549,-1.4573,-0.4458,9.8919,-0.463,-0.675,9.7724,-0.0085,0.0128,0.0059
55619,46.6606,-1.156549,117.01,36.73,3.216,169.5,13 / 16,5561910,2019-08-09 21:46:50:648,-1.2149,-0.5972,10.1122,-0.4606,-0.6763,9.7725,0.0002,0.0117,0.0152
55620,46.6606,-1.156549,117.01,36.73,3.216,169.5,13 / 16,5562011,2019-08-09 21:46:50:749,-1.1185,-0.696,9.6513,-0.4757,-0.6705,9.7721,0.0017,0.0084,-0.0059
55621,46.6606,-1.156549,117.01,36.73,3.216,169.5,13 / 16,5562110,2019-08-09 21:46:50:848,-0.022,-0.444,9.6734,-0.4724,-0.6686,9.7724,0.0029,0.021,0.0168
55622,46.6606,-1.156549,117.01,36.73,3.216,169.5,13 / 16,5562210,2019-08-09 21:46:50:948,-0.6942,-0.6493,9.8356,-0.4862,-0.664,9.7721,0.0008,0.0072,0.0174
55623,46.6606,-1.156549,117.01,36.73,3.216,169.5,13 / 16,5562310,2019-08-09 21:46:51:048,-0.5721,-0.5625,9.7429,-0.4895,-0.6619,9.772,0.0009,-0.0078,0.0027
55624,46.6606,-1.156549,117.01,36.73,3.216,169.5,13 / 16,5562410,2019-08-09 21:46:51:148,-0.9396,-0.5679,9.4759,-0.4967,-0.654,9.7722,0.0019,-0.0036,0.0138
55625,46.6606,-1.156549,117.01,36.73,3.216,169.5,13 / 16,5562510,2019-08-09 21:46:51:248,-2.2498,-0.5063,10.0392,-0.4948,-0.6523,9.7724,-0.0003,0.0317,0.0059
55626,46.6606,-1.156549,117.01,36.73,3.216,169.5,16 / 18,5562610,2019-08-09 21:46:51:348,-1.3436,-0.5919,9.4693,-0.5111,-0.6564,9.7713,-0.0087,-0.03,0.0214
55627,46.6606,-1.156549,117.01,36.73,3.216,169.5,16 / 18,5562710,2019-08-09 21:46:51:448,0.0115,-0.7002,9.9655,-0.5255,-0.6577,9.7705,0.0016,0.0176,0.0178
55628,46.6606,-1.156549,117.01,36.73,3.216,169.5,16 / 18,5562810,2019-08-09 21:46:51:548,-1.1987,-0.5051,10.3863,-0.5393,-0.6574,9.7697,-0.0079,-0.0066,0.0027
55629,46.6606,-1.156549,117.01,36.73,3.216,169.5,16 / 18,5562910,2019-08-09 21:46:51:648,-0.1561,-0.6876,9.5878,-0.54,-0.6568,9.7697,0.0112,-0.0095,0.0008
55630,46.6606,-1.156549,117.01,36.73,3.216,169.5,16 / 18,5563011,2019-08-09 21:46:51:749,-0.2901,-0.6349,9.6555,-0.5452,-0.6465,9.7701,0.0054,0.0084,0.0026
55631,46.6606,-1.156549,117.01,36.73,3.216,169.5,16 / 18,5563111,2019-08-09 21:46:51:849,-0.4948,-0.3967,9.8476,-0.5473,-0.6454,9.7701,-0.005,-0.023,0.0245
55632,46.6606,-1.156549,117.01,36.73,3.216,169.5,16 / 18,5563211,2019-08-09 21:46:51:949,0.3354,-0.4865,9.8967,-0.5608,-0.6463,9.7692,-0.0036,0.0233,0.0013
55633,46.6606,-1.156549,117.01,36.73,3.216,169.5,16 / 18,5563311,2019-08-09 21:46:52:049,-1.1892,-0.7535,9.2096,-0.5481,-0.6404,9.7704,0.0045,-0.0135,0.0157
55634,46.6606,-1.156549,117.01,36.73,3.216,169.5,16 / 18,5563410,2019-08-09 21:46:52:148,-0.9521,-0.5643,9.8775,-0.5654,-0.6321,9.7699,-0.0062,0.014,0.0088
55635,46.6606,-1.156549,117.01,36.73,3.216,169.5,16 / 18,5563510,2019-08-09 21:46:52:248,-1.5645,-0.6008,9.9105,-0.5706,-0.6319,9.7696,-0.0047,-0.0124,0.0057
55636,46.6606,-1.156549,117.01,36.73,3.216,169.5,15 / 19,5563610,2019-08-09 21:46:52:348,-1.6069,-0.6631,10.2175,-0.5987,-0.634,9.7678,0.002,-0.0039,0.0134
55637,46.6606,-1.156549,117.01,36.73,3.216,169.5,15 / 19,5563710,2019-08-09 21:46:52:448,-0.8707,-0.5248,9.704,-0.5925,-0.6316,9.7683,0.0104,-0.0087,0.0122
55638,46.6606,-1.156549,117.01,36.73,3.216,169.5,15 / 19,5563810,2019-08-09 21:46:52:548,-1.3843,-0.5859,9.5789,-0.5884,-0.6186,9.7694,0.0012,0.0115,0.0158
55639,46.6606,-1.156549,117.01,36.73,3.216,169.5,15 / 19,5563910,2019-08-09 21:46:52:648,-0.6511,-0.5248,9.9176,-0.5947,-0.6211,9.7689,-0.0043,-0.0022,0.0138
55640,46.6606,-1.156549,117.01,36.73,3.216,169.5,15 / 19,5564010,2019-08-09 21:46:52:748,-0.0914,-0.6715,10.0775,-0.6066,-0.6264,9.7678,-0.0037,0.0008,0.0271
55641,46.6606,-1.156549,117.01,36.73,3.216,169.5,15 / 19,5564110,2019-08-09 21:46:52:848,-0.3835,-0.6966,9.6447,-0.6102,-0.6272,9.7675,-0.0012,-0.0055,0.0113
55642,46.6606,-1.156549,117.01,36.73,3.216,169.5,15 / 19,5564211,2019-08-09 21:46:52:949,0.7633,-0.529,9.9356,-0.6156,-0.6269,9.7672,-0.0005,0.0159,0.0135
55643,46.6606,-1.156549,117.01,36.73,3.216,169.5,15 / 19,5564310,2019-08-09 21:46:53:048,-1.0389,-0.6014,10.0577,-0.6339,-0.6295,9.7659,-0.0062,0.0114,0.0073
55644,46.6606,-1.156549,117.01,36.73,3.216,169.5,15 / 19,5564410,2019-08-09 21:46:53:148,-1.5046,-0.7002,9.54,-0.6247,-0.629,9.7665,0.0023,0.0071,0.007
55645,46.6606,-1.156549,117.01,36.73,3.216,169.5,15 / 19,5564510,2019-08-09 21:46:53:248,-0.6265,-0.4159,10.415,-0.6325,-0.6279,9.7661,-0.0079,-0.0222,0.0092
55646,46.6606,-1.156549,117.01,36.73,3.216,169.5,15 / 18,5564610,2019-08-09 21:46:53:348,-1.3651,-0.8253,9.5166,-0.6375,-0.6284,9.7657,-0.0079,-0.0222,0.0092
55647,46.6606,-1.156549,117.01,36.73,3.216,169.5,15 / 18,5564710,2019-08-09 21:46:53:448,-0.5224,-0.6182,9.5501,-0.6239,-0.6342,9.7662,0.005,-0.0234,0.0134
55648,46.6606,-1.156549,117.01,36.73,3.216,169.5,15 / 18,5564811,2019-08-09 21:46:53:549,-0.2261,-0.5033,10.1206,-0.6374,-0.6323,9.7655,-0.0054,0.0086,0.0154
55649,46.6606,-1.156549,117.01,36.73,3.216,169.5,15 / 18,5564910,2019-08-09 21:46:53:648,-2.1265,-0.6804,9.9458,-0.6435,-0.6414,9.7645,-0.0158,-0.0121,0.0133
55650,46.6606,-1.156549,117.01,36.73,3.216,169.5,15 / 18,5565010,2019-08-09 21:46:53:748,-0.6325,-0.7241,9.2215,-0.6514,-0.6495,9.7634,0.0016,-0.0241,0.0085
55651,46.6606,-1.156549,117.01,36.73,3.216,169.5,15 / 18,5565110,2019-08-09 21:46:53:848,-1.2335,-0.6667,9.6866,-0.6504,-0.6503,9.7634,-0.0043,0.0053,0.0206
55652,46.6606,-1.156549,117.01,36.73,3.216,169.5,15 / 18,5565210,2019-08-09 21:46:53:948,-0.0016,-0.6326,9.8668,-0.6532,-0.653,9.7631,-0.0095,0.0084,0.0072
55653,46.6606,-1.156549,117.01,36.73,3.216,169.5,15 / 18,5565311,2019-08-09 21:46:54:049,0.3413,-0.7391,9.9464,-0.6743,-0.6666,9.7607,-0.0041,0.0092,0.0117
55654,46.6606,-1.156549,117.01,36.73,3.216,169.5,15 / 18,5565411,2019-08-09 21:46:54:149,-1.0413,-0.6667,9.6393,-0.686,-0.6666,9.7599,-0.0038,0.011,0.0132
55655,46.6606,-1.156549,117.01,36.73,3.216,169.5,15 / 18,5565511,2019-08-09 21:46:54:249,-1.1114,-0.9779,9.5298,-0.6783,-0.6673,9.7604,0.0008,-0.0059,-0.0021
55656,46.6606,-1.156549,117.01,36.73,3.216,169.5,16 / 19,5565611,2019-08-09 21:46:54:349,-1.8889,-0.7128,9.8925,-0.6818,-0.6626,9.7605,0.0015,0.0166,0.014
55657,46.6606,-1.156549,117.01,36.73,3.216,169.5,16 / 19,5565710,2019-08-09 21:46:54:448,-1.8063,-0.5817,9.8249,-0.6865,-0.664,9.76,-0.0027,-0.0163,0.0027
55658,46.6606,-1.156549,117.01,36.73,3.216,169.5,16 / 19,5565811,2019-08-09 21:46:54:549,-0.6493,-0.6798,9.5214,-0.6767,-0.6621,9.7608,0.0011,0.004,0.0204
55659,46.6606,-1.156549,117.01,36.73,3.216,169.5,16 / 19,5565910,2019-08-09 21:46:54:648,-1.3035,-0.3895,10.1655,-0.6993,-0.6591,9.7595,-0.0087,0.0137,0.0065
55660,46.6606,-1.156549,117.01,36.73,3.216,169.5,16 / 19,5566011,2019-08-09 21:46:54:749,-0.1926,-0.4105,10.0056,-0.6927,-0.6599,9.7599,0.0037,0.0038,-0.01
55661,46.6606,-1.156549,117.01,36.73,3.216,169.5,16 / 19,5566111,2019-08-09 21:46:54:849,-0.6265,-0.4931,9.6866,-0.7069,-0.651,9.7595,0.0058,-0.0118,0.0142
55662,46.6606,-1.156549,117.01,36.73,3.216,169.5,16 / 19,5566210,2019-08-09 21:46:54:948,-0.7618,-0.447,9.6986,-0.7045,-0.6464,9.7599,0.0005,0.0017,-0.0047
55663,46.6606,-1.156549,117.01,36.73,3.216,169.5,16 / 19,5566310,2019-08-09 21:46:55:048,0.1055,-0.6152,9.7147,-0.7058,-0.6358,9.7605,-0.0024,-0.0246,0.0186
55664,46.6606,-1.156549,117.01,36.73,3.216,169.5,16 / 19,5566410,2019-08-09 21:46:55:148,-0.4386,-0.7247,9.6722,-0.7099,-0.6378,9.7601,-0.0015,0.0006,0.0252
55665,46.6606,-1.156549,117.01,36.73,3.216,169.5,16 / 19,5566510,2019-08-09 21:46:55:248,-1.5866,-0.5763,9.8548,-0.7232,-0.6337,9.7594,-0.0003,0.0058,0.0059
55666,46.65785,-1.155615,120.27,34.87,3.216,163.4,17 / 20,5566611,2019-08-09 21:46:55:349,-1.2766,-0.7864,9.7183,-0.7228,-0.6346,9.7594,0.0026,-0.0308,0.0234
55667,46.65785,-1.155615,120.27,34.87,3.216,163.4,17 / 20,5566710,2019-08-09 21:46:55:448,-1.6848,-0.6828,9.4346,-0.7161,-0.6282,9.7603,0.0023,-0.0141,0.0145
55668,46.65785,-1.155615,120.27,34.87,3.216,163.4,17 / 20,5566810,2019-08-09 21:46:55:548,-0.5691,-0.5733,9.7399,-0.7109,-0.6266,9.7608,-0.0008,0.011,0.0047
55669,46.65785,-1.155615,120.27,34.87,3.216,163.4,17 / 20,5566910,2019-08-09 21:46:55:648,-0.9198,-0.4518,9.9362,-0.7189,-0.6312,9.7599,-0.0089,0.0154,0.0199
55670,46.65785,-1.155615,120.27,34.87,3.216,163.4,17 / 20,5567010,2019-08-09 21:46:55:748,-0.1662,-0.4183,10.0463,-0.7197,-0.6332,9.7597,-0.0064,-0.0058,0.0097
55671,46.65785,-1.155615,120.27,34.87,3.216,163.4,17 / 20,5567110,2019-08-09 21:46:55:848,-0.5649,-0.7032,10.2433,-0.7388,-0.6436,9.7576,-0.0049,-0.0186,0.0231
55672,46.65785,-1.155615,120.27,34.87,3.216,163.4,17 / 20,5567210,2019-08-09 21:46:55:948,-1.0892,-0.6242,9.5531,-0.736,-0.6419,9.7579,0.0026,-0.0019,0.0084
55673,46.65785,-1.155615,120.27,34.87,3.216,163.4,17 / 20,5567310,2019-08-09 21:46:56:048,-0.0495,-0.6924,9.6704,-0.7414,-0.6443,9.7573,-0.004,-0.0039,0.0222
55674,46.65785,-1.155615,120.27,34.87,3.216,163.4,17 / 20,5567410,2019-08-09 21:46:56:148,-0.0795,-0.9252,9.6776,-0.7335,-0.6484,9.7577,-0.0036,0.0,0.0168
55675,46.65785,-1.155615,120.27,34.87,3.216,163.4,17 / 20,5567510,2019-08-09 21:46:56:248,-1.2227,-0.9947,10.1696,-0.7599,-0.6579,9.755,-0.0063,0.011,0.0186
55676,46.65785,-1.155615,120.27,34.87,3.216,163.4,15 / 19,5567610,2019-08-09 21:46:56:348,-0.5721,-1.2227,9.677,-0.7511,-0.6629,9.7553,0.0003,-0.0029,0.0126
55677,46.65785,-1.155615,120.27,34.87,3.216,163.4,15 / 19,5567710,2019-08-09 21:46:56:448,-1.3963,-0.9797,9.6722,-0.7524,-0.6674,9.7549,0.0028,0.0186,0.0299
55678,46.65785,-1.155615,120.27,34.87,3.216,163.4,15 / 19,5567810,2019-08-09 21:46:56:548,-1.7033,-0.8917,9.6106,-0.7527,-0.6764,9.7543,-0.0028,-0.0117,0.0197
55679,46.65785,-1.155615,120.27,34.87,3.216,163.4,15 / 19,5567910,2019-08-09 21:46:56:648,-1.2065,-0.9151,10.0314,-0.7587,-0.6805,9.7536,-0.0124,0.0215,0.0219
55680,46.65785,-1.155615,120.27,34.87,3.216,163.4,15 / 19,5568011,2019-08-09 21:46:56:749,-1.2999,-0.8307,10.1104,-0.7773,-0.7005,9.7507,-0.0082,0.0059,0.0163
55681,46.65785,-1.155615,120.27,34.87,3.216,163.4,15 / 19,5568111,2019-08-09 21:46:56:849,-0.2716,-0.8504,10.1289,-0.7751,-0.7057,9.7505,-0.0028,0.0158,0.0181
55682,46.65785,-1.155615,120.27,34.87,3.216,163.4,15 / 19,5568211,2019-08-09 21:46:56:949,-0.7205,-0.8127,9.4322,-0.7917,-0.7096,9.7488,0.0021,-0.049,0.0078
55683,46.65785,-1.155615,120.27,34.87,3.216,163.4,15 / 19,5568311,2019-08-09 21:46:57:049,-1.5435,-0.9683,9.3808,-0.7674,-0.7116,9.7506,0.0034,0.0388,0.0158
55684,46.65785,-1.155615,120.27,34.87,3.216,163.4,15 / 19,5568410,2019-08-09 21:46:57:148,-0.0938,-0.7589,10.1439,-0.7935,-0.7123,9.7485,-0.0042,-0.0256,0.0089
55685,46.65785,-1.155615,120.27,34.87,3.216,163.4,15 / 19,5568510,2019-08-09 21:46:57:248,-1.7931,-1.0509,9.2497,-0.788,-0.7148,9.7488,0.0018,-0.0009,0.03
55686,46.65785,-1.155615,120.27,34.87,3.216,163.4,16 / 20,5568610,2019-08-09 21:46:57:348,-0.7917,-0.6373,9.4245,-0.7913,-0.7109,9.7488,-0.0032,0.0194,0.0005
55687,46.65785,-1.155615,120.27,34.87,3.216,163.4,16 / 20,5568710,2019-08-09 21:46:57:448,-0.8642,-0.6014,10.0817,-0.8011,-0.714,9.7478,-0.0155,0.0323,0.0215
55688,46.65785,-1.155615,120.27,34.87,3.216,163.4,16 / 20,5568811,2019-08-09 21:46:57:549,-1.1892,-0.7792,10.1792,-0.8204,-0.7223,9.7455,0.0036,0.0135,0.0044
55689,46.65785,-1.155615,120.27,34.87,3.216,163.4,16 / 20,5568910,2019-08-09 21:46:57:648,-1.0796,-0.7325,9.7584,-0.8219,-0.7184,9.7457,0.0055,-0.0065,0.0125
55690,46.65785,-1.155615,120.27,34.87,3.216,163.4,16 / 20,5569010,2019-08-09 21:46:57:748,-1.908,-0.6637,10.0236,-0.8403,-0.7048,9.7451,0.0022,0.0158,0.0051
55691,46.65785,-1.155615,120.27,34.87,3.216,163.4,16 / 20,5569110,2019-08-09 21:46:57:848,-1.896,-0.7792,9.6256,-0.8371,-0.7053,9.7454,0.0046,-0.0084,0.0032
55692,46.65785,-1.155615,120.27,34.87,3.216,163.4,16 / 20,5569210,2019-08-09 21:46:57:948,0.5891,-0.4919,9.2233,-0.8377,-0.6933,9.7462,0.0127,0.0089,0.017
55693,46.65785,-1.155615,120.27,34.87,3.216,163.4,16 / 20,5569310,2019-08-09 21:46:58:048,-1.4956,-0.6008,9.8746,-0.838,-0.6951,9.746,-0.0092,-0.0147,0.0072
55694,46.65785,-1.155615,120.27,34.87,3.216,163.4,16 / 20,5569410,2019-08-09 21:46:58:148,-0.7169,-0.6792,9.7141,-0.8431,-0.6983,9.7454,-0.0095,0.0096,0.0122
55695,46.65785,-1.155615,120.27,34.87,3.216,163.4,16 / 20,5569510,2019-08-09 21:46:58:248,0.3318,-0.468,9.7117,-0.846,-0.6999,9.745,-0.0032,0.0099,0.0021
55696,46.65785,-1.155615,120.27,34.87,3.216,163.4,14 / 19,5569610,2019-08-09 21:46:58:348,-0.9707,-0.465,9.7321,-0.8596,-0.6898,9.7445,0.0022,0.0062,-0.0078
55697,46.65785,-1.155615,120.27,34.87,3.216,163.4,14 / 19,5569711,2019-08-09 21:46:58:449,-0.2614,-0.4991,9.5244,-0.8697,-0.6824,9.7441,0.0059,-0.0257,0.0174
55698,46.65785,-1.155615,120.27,34.87,3.216,163.4,14 / 19,5569810,2019-08-09 21:46:58:548,-1.2975,-0.5057,9.7327,-0.8622,-0.6717,9.7456,0.0045,0.0043,-0.0036
55699,46.65785,-1.155615,120.27,34.87,3.216,163.4,14 / 19,5569911,2019-08-09 21:46:58:649,-1.1862,-0.3782,10.2367,-0.8728,-0.6683,9.7448,-0.0037,0.0108,0.0168
55700,46.65785,-1.155615,120.27,34.87,3.216,163.4,14 / 19,5570010,2019-08-09 21:46:58:748,-1.2514,-0.3602,10.1277,-0.8871,-0.6696,9.7435,-0.0046,-0.0062,0.0215
55701,46.65785,-1.155615,120.27,34.87,3.216,163.4,14 / 19,5570111,2019-08-09 21:46:58:849,-1.5357,-0.7313,10.3863,-0.881,-0.6697,9.744,0.0027,0.0483,0.0177
55702,46.65785,-1.155615,120.27,34.87,3.216,163.4,14 / 19,5570210,2019-08-09 21:46:58:948,-0.9916,-0.6631,9.3412,-0.8932,-0.6586,9.7437,0.0089,0.0079,0.0097
55703,46.65785,-1.155615,120.27,34.87,3.216,163.4,14 / 19,5570310,2019-08-09 21:46:59:048,-1.237,-0.4135,10.0344,-0.881,-0.6502,9.7453,0.0037,0.0143,-0.0015
55704,46.65785,-1.155615,120.27,34.87,3.216,163.4,14 / 19,5570410,2019-08-09 21:46:59:148,0.1408,-0.5631,9.8045,-0.8872,-0.6511,9.7447,-0.0083,0.0388,0.0276
55705,46.65785,-1.155615,120.27,34.87,3.216,163.4,14 / 19,5570510,2019-08-09 21:46:59:248,-0.6283,-0.4225,9.8285,-0.8969,-0.654,9.7436,-0.0088,0.0267,-0.0107
55706,46.65785,-1.155615,120.27,34.87,3.216,163.4,14 / 19,5570610,2019-08-09 21:46:59:348,-1.0503,-0.4919,9.5645,-0.9099,-0.6499,9.7427,0.0049,0.0006,0.0178
55707,46.65785,-1.155615,120.27,34.87,3.216,163.4,14 / 19,5570710,2019-08-09 21:46:59:448,0.3958,-0.4913,9.6968,-0.9017,-0.6444,9.7438,0.0047,-0.002,-0.0046
55708,46.65785,-1.155615,120.27,34.87,3.216,163.4,14 / 19,5570810,2019-08-09 21:46:59:548,-1.4896,-0.4303,9.9757,-0.9125,-0.6336,9.7435,-0.0098,-0.0049,0.0128
55709,46.65785,-1.155615,120.27,34.87,3.216,163.4,14 / 19,5570910,2019-08-09 21:46:59:648,-0.8204,-0.3333,10.7239,-0.9065,-0.6356,9.744,-0.0136,0.0463,0.0104
55710,46.65785,-1.155615,120.27,34.87,3.216,163.4,14 / 19,5571010,2019-08-09 21:46:59:748,-1.5639,-0.9983,9.3059,-0.9439,-0.6464,9.7397,0.0048,-0.0207,0.0368
55711,46.65785,-1.155615,120.27,34.87,3.216,163.4,14 / 19,5571110,2019-08-09 21:46:59:848,-1.5567,-0.6344,9.2012,-0.92,-0.6373,9.7426,0.0107,-0.0203,-0.0016
55712,46.65785,-1.155615,120.27,34.87,3.216,163.4,14 / 19,5571210,2019-08-09 21:46:59:948,-1.009,-0.465,9.1731,-0.9083,-0.6354,9.7438,-0.003,-0.0231,0.014
55713,46.65785,-1.155615,120.27,34.87,3.216,163.4,14 / 19,5571310,2019-08-09 21:47:00:048,-1.3795,-0.4506,10.199,-0.9214,-0.6403,9.7423,-0.0201,-0.0092,0.0181
55714,46.65785,-1.155615,120.27,34.87,3.216,163.4,14 / 19,5571410,2019-08-09 21:47:00:148,-1.9517,-0.8941,10.3049,-0.9211,-0.6488,9.7417,-0.0056,0.0419,0.0
55715,46.65785,-1.155615,120.27,34.87,3.216,163.4,14 / 19,5571510,2019-08-09 21:47:00:248,-1.0946,-0.629,9.862,-0.9556,-0.6451,9.7386,0.0138,-0.0268,0.0059
55716,46.65785,-1.155615,120.27,34.87,3.216,163.4,13 / 18,5571610,2019-08-09 21:47:00:348,-2.5712,-0.4602,9.4065,-0.9407,-0.6363,9.7407,0.0148,-0.0016,-0.0023
55717,46.65785,-1.155615,120.27,34.87,3.216,163.4,13 / 18,5571710,2019-08-09 21:47:00:448,-0.8689,-0.4278,9.7878,-0.95,-0.6174,9.741,-0.0029,0.0095,0.0059
55718,46.65785,-1.155615,120.27,34.87,3.216,163.4,13 / 18,5571810,2019-08-09 21:47:00:548,-1.4328,-0.7505,9.5675,-0.9576,-0.6152,9.7404,0.0035,-0.0028,0.0302
55719,46.65785,-1.155615,120.27,34.87,3.216,163.4,13 / 18,5571910,2019-08-09 21:47:00:648,-0.1549,0.0247,9.7363,-0.9546,-0.5983,9.7417,0.0208,0.0218,-0.0159
55720,46.65785,-1.155615,120.27,34.87,3.216,163.4,13 / 18,5572011,2019-08-09 21:47:00:749,-1.6806,0.1851,9.9907,-0.9775,-0.5743,9.7409,0.0092,0.0045,-0.0195
55721,46.65785,-1.155615,120.27,34.87,3.216,163.4,13 / 18,5572111,2019-08-09 21:47:00:849,-1.8889,-0.0298,9.9045,-0.9885,-0.5533,9.741,0.0035,0.0234,-0.0141
55722,46.65785,-1.155615,120.27,34.87,3.216,163.4,13 / 18,5572211,2019-08-09 21:47:00:949,-0.4428,0.1432,9.7207,-0.9928,-0.5424,9.7412,-0.0003,0.0036,-0.0014
55723,46.65785,-1.155615,120.27,34.87,3.216,163.4,13 / 18,5572310,2019-08-09 21:47:01:048,-0.9527,0.1516,9.677,-1.0032,-0.5322,9.7407,-0.0126,-0.0058,0.0062
55724,46.65785,-1.155615,120.27,34.87,3.216,163.4,13 / 18,5572410,2019-08-09 21:47:01:148,-1.5094,-0.2752,9.7327,-1.0135,-0.5277,9.7399,-0.0123,0.0072,0.0024
55725,46.65785,-1.155615,120.27,34.87,3.216,163.4,13 / 18,5572510,2019-08-09 21:47:01:248,-1.735,-0.4285,9.4113,-1.0047,-0.5256,9.7409,-0.0019,0.0007,0.0184
55726,46.65785,-1.155615,120.27,34.87,3.216,163.4,13 / 19,5572610,2019-08-09 21:47:01:348,-1.6758,-0.4302,9.6645,-1.007,-0.5231,9.7408,-0.002,0.0042,-0.0005
55727,46.65785,-1.155615,120.27,34.87,3.216,163.4,13 / 19,5572711,2019-08-09 21:47:01:449,-0.8127,-0.7044,9.3616,-1.0049,-0.5176,9.7413,-0.0047,-0.0268,0.0225
55728,46.65785,-1.155615,120.27,34.87,3.216,163.4,13 / 19,5572811,2019-08-09 21:47:01:549,-2.4431,-0.4799,9.4699,-1.0101,-0.5241,9.7404,-0.0046,-0.0181,0.0132
55729,46.65785,-1.155615,120.27,34.87,3.216,163.4,13 / 19,5572911,2019-08-09 21:47:01:649,-0.5852,-0.4434,9.7213,-0.9937,-0.5279,9.7419,-0.0059,-0.0069,0.0164
55730,46.65785,-1.155615,120.27,34.87,3.216,163.4,13 / 19,5573011,2019-08-09 21:47:01:749,-0.1968,-0.3997,10.1409,-1.0107,-0.5312,9.7399,-0.0102,-0.0024,0.0124
55731,46.65785,-1.155615,120.27,34.87,3.216,163.4,13 / 19,5573110,2019-08-09 21:47:01:848,-1.1215,-0.5009,9.6435,-1.0143,-0.5459,9.7388,-0.0135,0.009,0.0043
55732,46.65785,-1.155615,120.27,34.87,3.216,163.4,13 / 19,5573210,2019-08-09 21:47:01:948,-0.687,-0.8391,9.4089,-1.009,-0.5456,9.7393,-0.0002,-0.0169,0.0385
55733,46.65785,-1.155615,120.27,34.87,3.216,163.4,13 / 19,5573310,2019-08-09 21:47:02:048,-0.9473,-0.4536,9.9649,-1.0193,-0.5434,9.7384,0.0032,-0.01,0.0066
55734,46.65785,-1.155615,120.27,34.87,3.216,163.4,13 / 19,5573410,2019-08-09 21:47:02:148,0.5514,-0.5661,9.5274,-1.0002,-0.5392,9.7406,0.0109,-0.0095,0.0152
55735,46.65785,-1.155615,120.27,34.87,3.216,163.4,13 / 19,5573511,2019-08-09 21:47:02:249,-1.27,-0.4769,9.9446,-1.0011,-0.5254,9.7413,0.0008,-0.0076,-0.0004
55736,46.65785,-1.155615,120.27,34.87,3.216,163.4,13 / 19,5573610,2019-08-09 21:47:02:348,-1.0449,-0.2644,10.0619,-1.0152,-0.5171,9.7402,-0.0056,0.0071,-0.009
55737,46.65785,-1.155615,120.27,34.87,3.216,163.4,13 / 19,5573710,2019-08-09 21:47:02:448,0.3012,-0.1842,9.5184,-0.9951,-0.5093,9.7427,0.0115,-0.0252,-0.0046
55738,46.65785,-1.155615,120.27,34.87,3.216,163.4,13 / 19,5573810,2019-08-09 21:47:02:548,-2.2899,-0.3093,9.4077,-0.9869,-0.4999,9.7441,0.0067,0.017,-0.0124
55739,46.65785,-1.155615,120.27,34.87,3.216,163.4,13 / 19,5573911,2019-08-09 21:47:02:649,-0.347,-0.1136,9.8752,-0.9911,-0.4882,9.7442,-0.0118,-0.015,-0.0057
55740,46.65785,-1.155615,120.27,34.87,3.216,163.4,13 / 19,5574010,2019-08-09 21:47:02:748,-2.0894,-0.3063,9.2563,-0.9767,-0.4841,9.7459,-0.0038,-0.0042,0.0099
55741,46.65785,-1.155615,120.27,34.87,3.216,163.4,13 / 19,5574110,2019-08-09 21:47:02:848,-0.1058,-0.0927,10.2085,-0.9898,-0.4891,9.7443,-0.0139,0.0267,-0.0107
55742,46.65785,-1.155615,120.27,34.87,3.216,163.4,13 / 19,5574210,2019-08-09 21:47:02:948,-0.7175,-0.4231,9.8369,-0.9816,-0.4922,9.745,-0.0164,-0.0033,0.0238
55743,46.65785,-1.155615,120.27,34.87,3.216,163.4,13 / 19,5574310,2019-08-09 21:47:03:048,-1.3101,-0.5643,9.7381,-0.9835,-0.4951,9.7446,0.0022,0.0013,0.0053
55744,46.65785,-1.155615,120.27,34.87,3.216,163.4,13 / 19,5574410,2019-08-09 21:47:03:148,-0.5894,-0.5853,9.5867,-0.9637,-0.4922,9.7468,0.0079,0.013,0.0055
55745,46.65785,-1.155615,120.27,34.87,3.216,163.4,13 / 19,5574511,2019-08-09 21:47:03:249,-0.0226,-0.1094,9.9368,-0.9655,-0.4879,9.7468,-0.0029,0.0076,0.0152
55746,46.65785,-1.155615,120.27,34.87,3.216,163.4,15 / 19,5574610,2019-08-09 21:47:03:348,-1.8685,-0.526,9.6519,-0.9505,-0.4861,9.7484,-0.0045,0.0017,0.0082
55747,46.65785,-1.155615,120.27,34.87,3.216,163.4,15 / 19,5574710,2019-08-09 21:47:03:448,-0.1267,-0.2273,9.941,-0.9523,-0.4853,9.7482,0.0017,0.0163,-0.0037
55748,46.65785,-1.155615,120.27,34.87,3.216,163.4,15 / 19,5574810,2019-08-09 21:47:03:548,-0.341,-0.1836,10.0386,-0.9552,-0.4747,9.7485,-0.0011,0.0226,-0.0006
55749,46.65785,-1.155615,120.27,34.87,3.216,163.4,15 / 19,5574910,2019-08-09 21:47:03:648,-0.8288,-0.3884,9.5896,-0.9423,-0.4728,9.7498,0.0041,0.0034,0.0063
55750,46.65785,-1.155615,120.27,34.87,3.216,163.4,15 / 19,5575010,2019-08-09 21:47:03:748,-0.6181,-0.1585,9.6513,-0.9293,-0.46,9.7517,0.0073,0.002,0.0009
55751,46.65785,-1.155615,120.27,34.87,3.216,163.4,15 / 19,5575110,2019-08-09 21:47:03:848,-0.1579,0.0456,9.9123,-0.9256,-0.4542,9.7523,-0.0104,0.0063,0.0002
55752,46.65785,-1.155615,120.27,34.87,3.216,163.4,15 / 19,5575210,2019-08-09 21:47:03:948,0.0331,-0.4326,9.6112,-0.9006,-0.4567,9.7545,-0.0032,-0.0113,-0.0002
55753,46.65785,-1.155615,120.27,34.87,3.216,163.4,15 / 19,5575310,2019-08-09 21:47:04:048,-1.082,-0.2495,9.516,-0.8911,-0.4562,9.7554,0.0021,-0.0009,0.0067
55754,46.65785,-1.155615,120.27,34.87,3.216,163.4,15 / 19,5575410,2019-08-09 21:47:04:148,-0.6092,-0.0981,10.1104,-0.8872,-0.4496,9.7561,-0.0078,-0.0048,0.0072
55755,46.65785,-1.155615,120.27,34.87,3.216,163.4,15 / 19,5575510,2019-08-09 21:47:04:248,-0.4757,-0.2812,9.5346,-0.8665,-0.4465,9.7581,-0.0002,-0.0164,-0.0052
55756,46.655174,-1.154207,127.19,35.07,3.216,158.7,17 / 20,5575610,2019-08-09 21:47:04:348,-1.27,0.0133,9.6483,-0.8505,-0.4299,9.7602,0.0056,-0.0177,-0.002
55757,46.655174,-1.154207,127.19,35.07,3.216,158.7,17 / 20,5575710,2019-08-09 21:47:04:448,0.0528,0.0809,9.6836,-0.8449,-0.4199,9.7612,-0.0012,0.0174,-0.0138
55758,46.655174,-1.154207,127.19,35.07,3.216,158.7,17 / 20,5575810,2019-08-09 21:47:04:548,-0.1076,0.0354,10.2097,-0.856,-0.4133,9.7605,-0.005,-0.0058,0.0028
55759,46.655174,-1.154207,127.19,35.07,3.216,158.7,17 / 20,5575911,2019-08-09 21:47:04:649,0.3874,-0.1088,9.3514,-0.8396,-0.4042,9.7623,0.0173,0.0014,-0.0186
55760,46.655174,-1.154207,127.19,35.07,3.216,158.7,17 / 20,5576011,2019-08-09 21:47:04:749,0.0379,0.0462,9.877,-0.8275,-0.3774,9.7644,-0.0022,0.0021,-0.0012
55761,46.655174,-1.154207,127.19,35.07,3.216,158.7,17 / 20,5576111,2019-08-09 21:47:04:849,-1.1491,-0.1471,9.5519,-0.8191,-0.3729,9.7653,-0.0022,0.0021,-0.0012
55762,46.655174,-1.154207,127.19,35.07,3.216,158.7,17 / 20,5576211,2019-08-09 21:47:04:949,-0.2003,-0.0137,9.7237,-0.8134,-0.3592,9.7663,0.0043,-0.0005,0.0028
55763,46.655174,-1.154207,127.19,35.07,3.216,158.7,17 / 20,5576310,2019-08-09 21:47:05:048,-0.991,-0.0615,9.6016,-0.818,-0.3541,9.7661,-0.0077,-0.0298,-0.0007
55764,46.655174,-1.154207,127.19,35.07,3.216,158.7,17 / 20,5576410,2019-08-09 21:47:05:148,-1.4346,-0.0226,9.9985,-0.8174,-0.3519,9.7662,-0.0018,0.0013,-0.0009
55765,46.655174,-1.154207,127.19,35.07,3.216,158.7,17 / 20,5576510,2019-08-09 21:47:05:248,-0.7043,0.0348,9.6728,-0.807,-0.3485,9.7672,0.0022,-0.0005,-0.0096
55766,46.655174,-1.154207,127.19,35.07,3.216,158.7,16 / 19,5576610,2019-08-09 21:47:05:348,-0.9689,-0.0286,10.1744,-0.8132,-0.3311,9.7673,-0.003,0.0124,0.0018
55767,46.655174,-1.154207,127.19,35.07,3.216,158.7,16 / 19,5576710,2019-08-09 21:47:05:448,-0.678,-0.1292,10.1463,-0.8148,-0.3291,9.7672,-0.0015,-0.0042,0.0231
55768,46.655174,-1.154207,127.19,35.07,3.216,158.7,16 / 19,5576810,2019-08-09 21:47:05:548,0.2055,-0.383,9.6962,-0.8062,-0.3247,9.7681,0.0088,0.0002,0.0001
55769,46.655174,-1.154207,127.19,35.07,3.216,158.7,16 / 19,5576910,2019-08-09 21:47:05:648,-0.4912,-0.4141,9.6154,-0.7971,-0.3172,9.7691,-0.0015,-0.0103,0.0069
55770,46.655174,-1.154207,127.19,35.07,3.216,158.7,16 / 19,5577010,2019-08-09 21:47:05:748,-0.5212,-0.3895,9.3454,-0.7707,-0.3208,9.7711,0.0019,0.0108,0.0199
55771,46.655174,-1.154207,127.19,35.07,3.216,158.7,16 / 19,5577110,2019-08-09 21:47:05:848,-0.7522,-0.4135,9.713,-0.7729,-0.3277,9.7707,-0.0034,0.0071,0.0176
55772,46.655174,-1.154207,127.19,35.07,3.216,158.7,16 / 19,5577211,2019-08-09 21:47:05:949,-0.6948,-0.708,9.5555,-0.7721,-0.3402,9.7703,-0.0065,-0.0088,0.0344
55773,46.655174,-1.154207,127.19,35.07,3.216,158.7,16 / 19,5577310,2019-08-09 21:47:06:048,-0.4523,-0.5901,10.005,-0.7869,-0.3474,9.7689,0.0016,0.0142,0.0013
55774,46.655174,-1.154207,127.19,35.07,3.216,158.7,16 / 19,5577410,2019-08-09 21:47:06:148,-1.176,-0.6206,9.6926,-0.7724,-0.3392,9.7703,0.0117,-0.0145,0.0067
55775,46.655174,-1.154207,127.19,35.07,3.216,158.7,16 / 19,5577510,2019-08-09 21:47:06:248,-1.0617,-0.3465,9.7782,-0.7682,-0.3362,9.7707,-0.0022,0.0026,0.0002
55776,46.655174,-1.154207,127.19,35.07,3.216,158.7,14 / 17,5577610,2019-08-09 21:47:06:348,-0.2261,-0.3824,9.8368,-0.7718,-0.3415,9.7703,-0.0011,0.0081,0.0143
55777,46.655174,-1.154207,127.19,35.07,3.216,158.7,14 / 17,5577711,2019-08-09 21:47:06:449,-1.021,-0.3459,9.7908,-0.7708,-0.3443,9.7702,-0.0037,0.0024,-0.0022
55778,46.655174,-1.154207,127.19,35.07,3.216,158.7,14 / 17,5577810,2019-08-09 21:47:06:548,-0.6361,-0.4093,9.5406,-0.779,-0.3472,9.7695,-0.0033,-0.0191,0.0125
55779,46.655174,-1.154207,127.19,35.07,3.216,158.7,14 / 17,5577911,2019-08-09 21:47:06:649,-0.1848,-0.3243,9.2652,-0.7651,-0.3444,9.7707,0.0058,0.0013,-0.0102
55780,46.655174,-1.154207,127.19,35.07,3.216,158.7,14 / 17,5578010,2019-08-09 21:47:06:748,-0.8241,-0.1369,9.5376,-0.7619,-0.3341,9.7713,0.0019,-0.0062,-0.005
55781,46.655174,-1.154207,127.19,35.07,3.216,158.7,14 / 17,5578111,2019-08-09 21:47:06:849,-0.0741,-0.0855,10.0266,-0.7598,-0.3287,9.7716,-0.0004,0.0423,0.0008
55782,46.655174,-1.154207,127.19,35.07,3.216,158.7,14 / 17,5578210,2019-08-09 21:47:06:948,-0.4224,-0.2028,10.0858,-0.7804,-0.3249,9.7701,0.0004,0.0033,0.0046
55783,46.655174,-1.154207,127.19,35.07,3.216,158.7,14 / 17,5578311,2019-08-09 21:47:07:049,-1.7895,-0.1543,9.6345,-0.7812,-0.32,9.7702,0.0014,-0.004,-0.0082
55784,46.655174,-1.154207,127.19,35.07,3.216,158.7,14 / 17,5578411,2019-08-09 21:47:07:149,-0.52,0.1539,9.7022,-0.7729,-0.3122,9.7712,0.0021,-0.0009,-0.0207
55785,46.655174,-1.154207,127.19,35.07,3.216,158.7,14 / 17,5578511,2019-08-09 21:47:07:249,-0.1363,0.0031,9.777,-0.7835,-0.3034,9.7706,-0.0035,0.0163,-0.007
55786,46.655174,-1.154207,127.19,35.07,3.216,158.7,16 / 20,5578610,2019-08-09 21:47:07:348,-0.3991,0.2144,9.8811,-0.7817,-0.3004,9.7708,-0.0046,0.0123,-0.0135
55787,46.655174,-1.154207,127.19,35.07,3.216,158.7,16 / 20,5578710,2019-08-09 21:47:07:448,0.3371,0.1115,9.7836,-0.7831,-0.2907,9.771,0.0094,0.0235,-0.0112
55788,46.655174,-1.154207,127.19,35.07,3.216,158.7,16 / 20,5578810,2019-08-09 21:47:07:548,-1.2299,0.2832,9.935,-0.7923,-0.2808,9.7706,0.0034,0.0005,-0.0289
55789,46.655174,-1.154207,127.19,35.07,3.216,158.7,16 / 20,5578910,2019-08-09 21:47:07:648,-1.8745,-0.0017,9.4837,-0.7813,-0.2585,9.7721,0.0058,-0.0049,-0.0055
55790,46.655174,-1.154207,127.19,35.07,3.216,158.7,16 / 20,5579011,2019-08-09 21:47:07:749,0.1319,0.4053,9.5388,-0.7815,-0.2479,9.7723,0.0092,-0.0053,-0.0097
55791,46.655174,-1.154207,127.19,35.07,3.216,158.7,16 / 20,5579110,2019-08-09 21:47:07:848,-0.9743,0.2174,9.9841,-0.7807,-0.2298,9.7728,-0.0055,0.0124,-0.0105
55792,46.655174,-1.154207,127.19,35.07,3.216,158.7,16 / 20,5579210,2019-08-09 21:47:07:948,-1.4681,0.039,9.6711,-0.7752,-0.2215,9.7735,0.0012,-0.0023,-0.0023
55793,46.655174,-1.154207,127.19,35.07,3.216,158.7,16 / 20,5579311,2019-08-09 21:47:08:049,-0.5978,0.3383,9.6698,-0.7839,-0.2071,9.7731,0.0009,0.0024,-0.0082
55794,46.655174,-1.154207,127.19,35.07,3.216,158.7,16 / 20,5579410,2019-08-09 21:47:08:148,-0.2429,0.1109,9.6142,-0.7782,-0.1979,9.7737,0.0013,-0.0013,-0.0099
55795,46.655174,-1.154207,127.19,35.07,3.216,158.7,16 / 20,5579510,2019-08-09 21:47:08:248,-0.8953,0.3311,9.9601,-0.7868,-0.1843,9.7733,-0.0024,0.0072,-0.0285
55796,46.655174,-1.154207,127.19,35.07,3.216,158.7,16 / 20,5579610,2019-08-09 21:47:08:348,-0.8055,0.2611,9.2389,-0.7706,-0.1763,9.7747,0.0063,-0.0137,-0.0071
55797,46.655174,-1.154207,127.19,35.07,3.216,158.7,16 / 20,5579710,2019-08-09 21:47:08:448,-0.7313,0.1635,9.7345,-0.7825,-0.1569,9.7741,0.0007,0.0298,-0.0186
55798,46.655174,-1.154207,127.19,35.07,3.216,158.7,16 / 20,5579811,2019-08-09 21:47:08:549,-0.3733,0.4119,10.1241,-0.784,-0.1512,9.7741,-0.002,-0.0099,-0.0051
55799,46.655174,-1.154207,127.19,35.07,3.216,158.7,16 / 20,5579910,2019-08-09 21:47:08:648,-0.0986,0.3353,9.6178,-0.783,-0.1384,9.7744,0.0064,-0.0137,-0.0078
55800,46.655174,-1.154207,127.19,35.07,3.216,158.7,16 / 20,5580010,2019-08-09 21:47:08:748,-0.9078,0.209,9.2946,-0.7722,-0.1273,9.7754,0.0098,-0.004,-0.0194
55801,46.655174,-1.154207,127.19,35.07,3.216,158.7,16 / 20,5580110,2019-08-09 21:47:08:848,-0.9438,0.6472,9.7135,-0.7841,-0.1031,9.7747,-0.0035,0.0004,-0.0041
55802,46.655174,-1.154207,127.19,35.07,3.216,158.7,16 / 20,5580211,2019-08-09 21:47:08:949,-0.7768,0.5017,9.7465,-0.7748,-0.0983,9.7755,-0.0105,0.0049,-0.018
55803,46.655174,-1.154207,127.19,35.07,3.216,158.7,16 / 20,5580311,2019-08-09 21:47:09:049,-0.7073,0.1396,9.6022,-0.7881,-0.0953,9.7745,-0.0008,0.0394,-0.0233
55804,46.655174,-1.154207,127.19,35.07,3.216,158.7,16 / 20,5580410,2019-08-09 21:47:09:148,-0.4488,0.482,10.1822,-0.8058,-0.0847,9.7731,-0.0022,-0.0078,-0.029
55805,46.655174,-1.154207,127.19,35.07,3.216,158.7,16 / 20,5580510,2019-08-09 21:47:09:248,-0.4805,0.3964,9.4903,-0.7957,-0.0709,9.7741,0.0051,-0.0205,0.0021
55806,46.655174,-1.154207,127.19,35.07,3.216,158.7,16 / 20,5580611,2019-08-09 21:47:09:349,-1.6506,0.5376,9.5316,-0.7894,-0.0589,9.7747,0.011,-0.0191,-0.0058
55807,46.655174,-1.154207,127.19,35.07,3.216,158.7,16 / 20,5580710,2019-08-09 21:47:09:448,-0.8049,0.385,9.6537,-0.7877,-0.0433,9.7749,-0.0056,0.012,-0.0241
55808,46.655174,-1.154207,127.19,35.07,3.216,158.7,16 / 20,5580810,2019-08-09 21:47:09:548,-0.4518,0.3132,9.6052,-0.7802,-0.0378,9.7755,-0.0065,-0.0026,-0.0053
55809,46.655174,-1.154207,127.19,35.07,3.216,158.7,16 / 20,5580910,2019-08-09 21:47:09:648,-1.9433,0.1791,9.5322,-0.7776,-0.0274,9.7757,0.0044,-0.0214,-0.0112
55810,46.655174,-1.154207,127.19,35.07,3.216,158.7,16 / 20,5581011,2019-08-09 21:47:09:749,-0.6906,0.3988,9.4849,-0.7769,-0.0199,9.7758,0.0026,-0.0079,-0.0182
55811,46.655174,-1.154207,127.19,35.07,3.216,158.7,16 / 20,5581111,2019-08-09 21:47:09:849,-0.7361,0.4041,9.9021,-0.7772,-0.0128,9.7758,-0.0038,0.0184,-0.0103
55812,46.655174,-1.154207,127.19,35.07,3.216,158.7,16 / 20,5581211,2019-08-09 21:47:09:949,-1.9792,-0.0891,10.1996,-0.7885,-0.0126,9.7749,-0.0029,0.0156,0.0049
55813,46.655174,-1.154207,127.19,35.07,3.216,158.7,16 / 20,5581310,2019-08-09 21:47:10:048,-1.1479,-0.0029,9.674,-0.7945,-0.0097,9.7744,0.0092,-0.0136,-0.0192
55814,46.655174,-1.154207,127.19,35.07,3.216,158.7,16 / 20,5581411,2019-08-09 21:47:10:149,0.1127,0.209,9.4035,-0.7812,0.0047,9.7755,-0.0056,0.0131,-0.0108
55815,46.655174,-1.154207,127.19,35.07,3.216,158.7,16 / 20,5581510,2019-08-09 21:47:10:248,-0.7875,0.0163,10.0434,-0.7959,0.0017,9.7743,-0.0151,0.0111,-0.0024
55816,46.655174,-1.154207,127.19,35.07,3.216,158.7,15 / 18,5581610,2019-08-09 21:47:10:348,-1.4801,-0.3183,9.8452,-0.7919,-0.0105,9.7746,-0.0041,-0.0165,-0.014
55817,46.655174,-1.154207,127.19,35.07,3.216,158.7,15 / 18,5581710,2019-08-09 21:47:10:448,-0.9174,-0.2794,9.8722,-0.7885,-0.0135,9.7749,0.0073,0.0115,0.0081
55818,46.655174,-1.154207,127.19,35.07,3.216,158.7,15 / 18,5581810,2019-08-09 21:47:10:548,-1.4028,-0.1723,9.7363,-0.7906,-0.016,9.7747,-0.0042,-0.0132,-0.0058
55819,46.655174,-1.154207,127.19,35.07,3.216,158.7,15 / 18,5581910,2019-08-09 21:47:10:648,-0.1638,-0.2968,9.8123,-0.7793,-0.0196,9.7756,-0.0015,0.0117,0.0047
55820,46.655174,-1.154207,127.19,35.07,3.216,158.7,15 / 18,5582010,2019-08-09 21:47:10:748,0.1887,-0.2046,9.4651,-0.7844,-0.03,9.7752,0.0027,-0.0107,-0.004
55821,46.655174,-1.154207,127.19,35.07,3.216,158.7,15 / 18,5582110,2019-08-09 21:47:10:848,-0.4086,-0.1142,9.9655,-0.7776,-0.0342,9.7757,-0.0028,0.0113,-0.0046
55822,46.655174,-1.154207,127.19,35.07,3.216,158.7,15 / 18,5582211,2019-08-09 21:47:10:949,-1.3741,-0.1142,9.7123,-0.7862,-0.0313,9.775,0.0037,0.0037,-0.0115
55823,46.655174,-1.154207,127.19,35.07,3.216,158.7,15 / 18,5582310,2019-08-09 21:47:11:048,-0.5224,0.0881,9.455,-0.7885,-0.028,9.7749,0.0113,-0.0088,-0.0142
55824,46.655174,-1.154207,127.19,35.07,3.216,158.7,15 / 18,5582411,2019-08-09 21:47:11:149,-1.158,0.1791,9.6848,-0.7923,-0.0147,9.7746,0.01,-0.0139,-0.0241
55825,46.655174,-1.154207,127.19,35.07,3.216,158.7,15 / 18,5582511,2019-08-09 21:47:11:249,-1.1299,0.3521,9.8913,-0.7996,-0.0083,9.774,0.0068,0.0227,-0.0066
55826,46.655174,-1.154207,127.19,35.07,3.216,158.7,17 / 20,5582610,2019-08-09 21:47:11:348,-0.9611,0.2671,9.8165,-0.8023,0.0096,9.7738,0.009,-0.0027,-0.0031
55827,46.655174,-1.154207,127.19,35.07,3.216,158.7,17 / 20,5582710,2019-08-09 21:47:11:448,-1.1096,0.3521,9.3778,-0.7983,0.0213,9.7741,0.0104,-0.0162,-0.0106
55828,46.655174,-1.154207,127.19,35.07,3.216,158.7,17 / 20,5582810,2019-08-09 21:47:11:548,-1.4346,0.464,9.756,-0.7986,0.0372,9.774,0.0031,0.0169,-0.0227
55829,46.655174,-1.154207,127.19,35.07,3.216,158.7,17 / 20,5582912,2019-08-09 21:47:11:650,-0.0836,0.2234,9.6848,-0.7866,0.0431,9.775,0.0026,0.0003,-0.0084
55830,46.655174,-1.154207,127.19,35.07,3.216,158.7,17 / 20,5583010,2019-08-09 21:47:11:748,-0.1249,0.4071,10.1529,-0.8013,0.0503,9.7737,-0.0039,0.0199,-0.0037
55831,46.655174,-1.154207,127.19,35.07,3.216,158.7,17 / 20,5583111,2019-08-09 21:47:11:849,-1.1281,0.2138,9.9925,-0.8147,0.0562,9.7726,0.0,0.0045,-0.0182
55832,46.655174,-1.154207,127.19,35.07,3.216,158.7,17 / 20,5583210,2019-08-09 21:47:11:948,-1.2281,0.1647,9.8111,-0.822,0.063,9.7719,-0.0001,-0.0005,-0.0155
55833,46.655174,-1.154207,127.19,35.07,3.216,158.7,17 / 20,5583311,2019-08-09 21:47:12:049,-0.5918,0.2018,9.6369,-0.8189,0.0666,9.7722,-0.0002,0.003,-0.0172
55834,46.655174,-1.154207,127.19,35.07,3.216,158.7,17 / 20,5583411,2019-08-09 21:47:12:149,-0.7277,0.1958,9.7345,-0.8255,0.0755,9.7716,-0.0017,-0.0196,-0.0261
55835,46.655174,-1.154207,127.19,35.07,3.216,158.7,17 / 20,5583510,2019-08-09 21:47:12:248,-1.2837,0.2641,9.9757,-0.8287,0.0804,9.7712,0.0017,0.0121,-0.0038
55836,46.655174,-1.154207,127.19,35.07,3.216,158.7,17 / 20,5583610,2019-08-09 21:47:12:348,0.576,0.1635,9.4705,-0.8158,0.0967,9.7722,0.0153,-0.0223,-0.0173
55837,46.655174,-1.154207,127.19,35.07,3.216,158.7,17 / 20,5583710,2019-08-09 21:47:12:448,-1.7362,0.5508,9.5651,-0.8099,0.1018,9.7726,0.0029,0.0098,-0.0109
55838,46.655174,-1.154207,127.19,35.07,3.216,158.7,17 / 20,5583810,2019-08-09 21:47:12:548,-1.2729,0.4215,9.5418,-0.8111,0.11,9.7724,0.0034,0.0004,0.0063
55839,46.655174,-1.154207,127.19,35.07,3.216,158.7,17 / 20,5583910,2019-08-09 21:47:12:648,-0.5218,0.5346,9.856,-0.8155,0.1099,9.7721,0.0004,0.0131,-0.0448
55840,46.655174,-1.154207,127.19,35.07,3.216,158.7,17 / 20,5584010,2019-08-09 21:47:12:748,-1.2383,0.6406,9.9254,-0.8389,0.1258,9.7699,-0.0056,0.0055,-0.0186
55841,46.655174,-1.154207,127.19,35.07,3.216,158.7,17 / 20,5584110,2019-08-09 21:47:12:848,-1.0216,0.358,9.7112,-0.8412,0.1282,9.7697,-0.0069,0.0054,-0.0177
55842,46.655174,-1.154207,127.19,35.07,3.216,158.7,17 / 20,5584210,2019-08-09 21:47:12:948,-0.8091,0.3317,9.5507,-0.8451,0.1391,9.7692,0.0137,-0.002,-0.0145
55843,46.655174,-1.154207,127.19,35.07,3.216,158.7,17 / 20,5584310,2019-08-09 21:47:13:048,-0.0938,0.5855,9.9601,-0.8474,0.1547,9.7687,0.0063,-0.0013,-0.0285
55844,46.655174,-1.154207,127.19,35.07,3.216,158.7,17 / 20,5584410,2019-08-09 21:47:13:148,-1.3723,0.4413,9.8656,-0.8496,0.1677,9.7683,-0.0014,-0.0046,-0.0079
55845,46.655174,-1.154207,127.19,35.07,3.216,158.7,17 / 20,5584511,2019-08-09 21:47:13:249,-1.1658,0.2922,9.4598,-0.8506,0.1715,9.7682,0.0022,-0.0171,-0.0297
55846,46.65258,-1.152821,135.42,33.62,3.216,162.5,14 / 17,5584610,2019-08-09 21:47:13:348,-0.2943,0.5849,9.6184,-0.8468,0.1724,9.7685,0.0013,-0.0055,-0.0067
55847,46.65258,-1.152821,135.42,33.62,3.216,162.5,14 / 17,5584711,2019-08-09 21:47:13:449,-1.2658,0.2132,9.6663,-0.8521,0.1748,9.768,-0.0042,-0.0018,-0.0121
55848,46.65258,-1.152821,135.42,33.62,3.216,162.5,14 / 17,5584810,2019-08-09 21:47:13:548,-0.6876,0.4017,10.0326,-0.8521,0.1771,9.768,-0.001,0.0231,-0.0263
55849,46.65258,-1.152821,135.42,33.62,3.216,162.5,14 / 17,5584910,2019-08-09 21:47:13:648,-1.1766,0.4101,9.8847,-0.8723,0.1818,9.7661,-0.0022,0.0,-0.0218
55850,46.65258,-1.152821,135.42,33.62,3.216,162.5,14 / 17,5585010,2019-08-09 21:47:13:748,-0.4487,0.6651,9.8434,-0.8707,0.186,9.7662,-0.0005,0.0195,-0.0179
55851,46.65258,-1.152821,135.42,33.62,3.216,162.5,14 / 17,5585110,2019-08-09 21:47:13:848,-0.5673,0.3353,10.0302,-0.8893,0.1925,9.7643,-0.009,-0.0095,-0.0367
55852,46.65258,-1.152821,135.42,33.62,3.216,162.5,14 / 17,5585211,2019-08-09 21:47:13:949,-1.4771,0.4275,9.4262,-0.8762,0.1979,9.7654,0.0044,-0.0173,-0.013
55853,46.65258,-1.152821,135.42,33.62,3.216,162.5,14 / 17,5585310,2019-08-09 21:47:14:048,-0.2847,0.4724,9.4418,-0.8739,0.2127,9.7653,0.0051,-0.0213,-0.0242
55854,46.65258,-1.152821,135.42,33.62,3.216,162.5,14 / 17,5585410,2019-08-09 21:47:14:148,-0.3512,0.4903,9.4825,-0.8687,0.2207,9.7656,0.0074,0.0018,-0.016
55855,46.65258,-1.152821,135.42,33.62,3.216,162.5,14 / 17,5585510,2019-08-09 21:47:14:248,-0.8474,0.6059,10.041,-0.8829,0.2263,9.7642,-0.0058,-0.0085,-0.0197
55856,46.65258,-1.152821,135.42,33.62,3.216,162.5,14 / 17,5585610,2019-08-09 21:47:14:348,-0.6852,0.3742,9.9739,-0.877,0.2269,9.7647,-0.0001,0.0005,-0.0212
55857,46.65258,-1.152821,135.42,33.62,3.216,162.5,14 / 17,5585712,2019-08-09 21:47:14:450,0.4934,0.5023,9.8841,-0.897,0.2296,9.7628,0.0004,-0.0018,-0.0121
55858,46.65258,-1.152821,135.42,33.62,3.216,162.5,14 / 17,5585811,2019-08-09 21:47:14:549,-0.6499,0.2958,9.6453,-0.8886,0.2312,9.7636,0.0036,0.0045,-0.012
55859,46.65258,-1.152821,135.42,33.62,3.216,162.5,14 / 17,5585911,2019-08-09 21:47:14:649,-0.772,0.5813,10.2008,-0.9055,0.2338,9.762,-0.0042,0.0241,-0.0313
55860,46.65258,-1.152821,135.42,33.62,3.216,162.5,14 / 17,5586010,2019-08-09 21:47:14:748,-0.3279,0.2479,9.0755,-0.8807,0.2319,9.7643,-0.011,-0.053,-0.0048
55861,46.65258,-1.152821,135.42,33.62,3.216,162.5,14 / 17,5586110,2019-08-09 21:47:14:848,-1.0252,0.2802,9.7932,-0.8935,0.2244,9.7633,0.0004,0.0071,-0.015
55862,46.65258,-1.152821,135.42,33.62,3.216,162.5,14 / 17,5586210,2019-08-09 21:47:14:948,-1.0413,0.0061,9.5854,-0.8952,0.2196,9.7632,-0.0097,-0.0061,-0.0034
55863,46.65258,-1.152821,135.42,33.62,3.216,162.5,14 / 17,5586310,2019-08-09 21:47:15:048,-1.2328,0.1258,9.6543,-0.8917,0.2096,9.7638,0.0074,0.0222,-0.0046
55864,46.65258,-1.152821,135.42,33.62,3.216,162.5,14 / 17,5586410,2019-08-09 21:47:15:148,-1.3771,0.1552,9.9577,-0.9081,0.2055,9.7623,0.0011,-0.0113,-0.0109
55865,46.65258,-1.152821,135.42,33.62,3.216,162.5,14 / 17,5586511,2019-08-09 21:47:15:249,-1.2736,-0.0077,9.3778,-0.8891,0.2068,9.7641,0.0038,0.0053,-0.0216
55866,46.65258,-1.152821,135.42,33.62,3.216,162.5,16 / 19,5586610,2019-08-09 21:47:15:348,-0.7468,0.2336,9.7177,-0.8975,0.2077,9.7633,0.0026,0.0156,-0.0046
55867,46.65258,-1.152821,135.42,33.62,3.216,162.5,16 / 19,5586710,2019-08-09 21:47:15:448,-0.8917,0.2216,9.8231,-0.902,0.2036,9.763,-0.0032,-0.0042,-0.0055
55868,46.65258,-1.152821,135.42,33.62,3.216,162.5,16 / 19,5586810,2019-08-09 21:47:15:548,-1.4633,0.1486,9.5555,-0.8969,0.2009,9.7635,0.0037,-0.011,-0.0017
55869,46.65258,-1.152821,135.42,33.62,3.216,162.5,16 / 19,5586910,2019-08-09 21:47:15:648,-1.2394,0.2192,9.6016,-0.9001,0.2014,9.7632,0.0021,0.0053,-0.0048
55870,46.65258,-1.152821,135.42,33.62,3.216,162.5,16 / 19,5587010,2019-08-09 21:47:15:748,-1.0796,0.3048,10.1595,-0.9135,0.2023,9.7619,-0.0035,0.0222,-0.0176
55871,46.65258,-1.152821,135.42,33.62,3.216,162.5,16 / 19,5587110,2019-08-09 21:47:15:848,-1.4968,0.2288,9.6495,-0.9093,0.1982,9.7624,-0.0008,-0.0036,-0.0242
55872,46.65258,-1.152821,135.42,33.62,3.216,162.5,16 / 19,5587210,2019-08-09 21:47:15:948,-0.9234,-0.0011,9.4717,-0.9036,0.2015,9.7629,0.0056,0.0082,-0.0073
55873,46.65258,-1.152821,135.42,33.62,3.216,162.5,16 / 19,5587310,2019-08-09 21:47:16:048,-0.2387,0.2018,9.6429,-0.9038,0.1972,9.7629,-0.0008,-0.0128,-0.0098
55874,46.65258,-1.152821,135.42,33.62,3.216,162.5,16 / 19,5587410,2019-08-09 21:47:16:148,-0.3398,0.3557,9.7129,-0.9027,0.1967,9.763,-0.0001,0.0258,-0.0055
55875,46.65258,-1.152821,135.42,33.62,3.216,162.5,16 / 19,5587510,2019-08-09 21:47:16:248,-2.0684,0.1671,9.7824,-0.9086,0.1971,9.7625,0.0012,-0.0027,-0.0129
