,GPS LATITUDE (degrees), GPS LONGITUDE (degrees), GPS ALTITUDE (m), GPS SPEED (Kmh), GPS ACCURACY (m), GPS ORIENTATION (Â°),GPS SATELLITES IN RANGE, TIME SINCE START (ms), DATE (YYYY-MO-DD HH-MI-SS_SSS), ACCELEROMETER X (m/s²) , ACCELEROMETER Y (m/s²), ACCELEROMETER Z (m/s²), GRAVITY X (m/s²), GRAVITY Y (m/s²), GRAVITY Z (m/s²), GYROSCOPE Yaw (rad/s), GYROSCOPE Pitch (rad/s), GYROSCOPE Roll (rad/s), MAGNETIC FIELD X (Î¼T), MAGNETIC FIELD Y (Î¼T), MAGNETIC FIELD Z (Î¼T), ORIENTATION (Yaw) (Â°), ORIENTATION (Pitch) (Â°), ORIENTATION (Roll ) (Â°)
21142,53.276936,-1.730901,331.24,5.15,4,273.57,22 / 22,2114229,2019-11-06 15:32:51:346,-2.2162,-1.4096,10.3687,0.0152,0.0075,9.8066,0.1496,-0.1293,0.0337,5.69,-36.62,12.25,322.41,-86.24,122.25
21143,53.276936,-1.730901,331.24,5.15,4,273.57,21 / 22,2114328,2019-11-06 15:32:51:445,-0.1833,-1.7243,9.7112,-0.039,0.0112,9.8065,0.0346,0.1739,-0.163,-3.69,-39.56,16.06,281.22,-86.1,124.62
21144,53.276936,-1.730901,331.24,5.15,4,273.57,21 / 22,2114428,2019-11-06 15:32:51:545,2.2178,-0.9497,10.3306,0.0353,-0.0001,9.8065,-0.0763,0.2575,-0.0753,8.31,-34.62,35.06,311.13,-86.26,121.06
21145,53.276936,-1.730901,331.24,5.15,4,273.57,21 / 22,2114528,2019-11-06 15:32:51:645,-1.1967,-0.3669,10.2724,0.0371,0.011,9.8065,-0.0225,0.2232,-0.1208,9.56,-34.56,18.81,323.65,-86.31,119.52
21146,53.276936,-1.730901,331.24,5.15,4,273.57,21 / 22,2114628,2019-11-06 15:32:51:745,0.9324,-2.0842,10.3007,0.0308,-0.0124,9.8066,-0.0245,0.4297,-0.1584,10.5,-35.69,15.38,336.16,-86.44,122.73
21147,53.276936,-1.730901,331.24,5.15,4,273.57,21 / 22,2114728,2019-11-06 15:32:51:845,-4.791,1.7588,9.6792,0.0421,-0.0344,9.8064,0.0197,0.0537,0.0689,9.5,-36.06,12.94,334.49,-86.18,120.58
21148,53.276936,-1.730901,331.24,5.15,4,273.57,21 / 22,2114828,2019-11-06 15:32:51:945,1.1917,-0.8581,10.0898,0.0241,0.0004,9.8066,-0.0469,0.4293,-0.2731,9.38,-35.81,13.06,332.67,-86.65,121.52
21149,53.276936,-1.730901,331.24,5.15,4,273.57,21 / 22,2114928,2019-11-06 15:32:52:045,-4.3334,2.6263,10.1762,0.0475,0.0004,9.8065,-0.0348,-0.0891,0.157,9.56,-36.44,13.5,328.71,-86.77,116.73
21150,53.276936,-1.730901,331.24,5.15,4,273.57,21 / 22,2115028,2019-11-06 15:32:52:145,3.3194,-2.2318,9.7018,0.0007,0.0186,9.8066,-0.0959,0.4829,-0.2948,10.75,-35.5,17.0,325.9,-87.0,115.94
21151,53.276936,-1.730901,331.24,5.15,4,273.57,21 / 22,2115128,2019-11-06 15:32:52:245,-1.8655,-0.3283,10.352,0.0585,-0.0136,9.8064,0.0192,-0.1748,0.0055,10.31,-34.12,25.88,315.2,-87.01,116.78
21152,53.276936,-1.730901,331.24,5.15,4,273.57,21 / 22,2115229,2019-11-06 15:32:52:346,1.9845,-0.0462,9.3602,0.0006,-0.0168,9.8066,-0.0046,0.2647,-0.1648,-8.94,-40.44,35.13,282.16,-87.1,119.74
21153,53.276936,-1.730901,331.24,5.15,4,273.57,21 / 21,2115328,2019-11-06 15:32:52:445,-3.1136,-2.1724,10.1253,0.0281,0.0131,9.8065,-0.0401,-0.1391,0.0128,4.69,-37.56,11.0,321.87,-87.13,123.04
21154,53.276936,-1.730901,331.24,5.15,4,273.57,21 / 21,2115429,2019-11-06 15:32:52:546,-2.2742,-0.0108,9.8486,-0.0241,0.0109,9.8066,0.0552,0.0925,-0.07,6.56,-37.12,11.44,334.51,-87.09,125.62
21155,53.276936,-1.730901,331.24,5.15,4,273.57,21 / 21,2115529,2019-11-06 15:32:52:646,-3.2126,0.9748,8.799,0.0139,-0.0352,9.8065,0.0203,-0.2334,0.0394,7.38,-36.0,10.69,337.29,-87.1,127.94
21156,53.276936,-1.730901,331.24,5.15,4,273.57,21 / 21,2115629,2019-11-06 15:32:52:746,-1.0484,-3.1096,10.5327,-0.0087,-0.0058,9.8066,0.0652,0.0774,-0.192,7.38,-35.75,10.0,339.83,-87.18,127.73
21157,53.276936,-1.730901,331.24,5.15,4,273.57,21 / 21,2115728,2019-11-06 15:32:52:845,-1.2299,-1.3399,9.3063,0.0358,-0.0249,9.8065,0.0987,-0.2472,0.0223,2.75,-35.5,11.94,313.64,-87.18,125.42
21158,53.276936,-1.730901,331.24,5.15,4,273.57,21 / 21,2115828,2019-11-06 15:32:52:945,0.5027,-2.2554,8.9235,0.011,-0.0335,9.8065,0.0556,-0.1428,-0.0037,-6.81,-37.69,39.25,293.39,-87.08,126.17
21159,53.276936,-1.730901,331.24,5.15,4,273.57,21 / 21,2115928,2019-11-06 15:32:53:045,-1.3516,-2.7481,10.2976,-0.0044,0.0166,9.8065,0.074,-0.3631,0.1534,8.56,-31.62,21.88,327.87,-86.88,127.89
21160,53.276936,-1.730901,331.24,5.15,4,273.57,21 / 21,2116028,2019-11-06 15:32:53:145,-1.8883,0.9617,9.4163,-0.0196,0.0357,9.8066,-0.1452,0.0504,-0.0694,7.88,-32.94,14.69,330.04,-86.75,125.16
21161,53.276936,-1.730901,331.24,5.15,4,273.57,21 / 21,2116129,2019-11-06 15:32:53:246,-2.0637,0.2183,9.0803,0.0248,-0.0071,9.8065,-0.0611,-0.2647,0.0064,7.25,-33.5,12.19,331.78,-86.88,125.07
21162,53.276936,-1.730901,331.24,5.15,4,273.57,21 / 21,2116229,2019-11-06 15:32:53:346,-2.1878,-0.5708,10.5205,-0.0291,-0.007,9.8066,0.0898,-0.0269,0.0808,7.88,-34.12,10.75,342.42,-86.98,128.7
21163,53.276936,-1.730901,331.24,5.15,4,273.57,21 / 21,2116328,2019-11-06 15:32:53:445,-0.9914,-0.9831,10.2101,0.0237,-0.0068,9.8066,0.0622,-0.2589,0.0457,8.56,-35.44,10.13,342.5,-86.82,123.02
21164,53.276936,-1.730901,331.24,5.15,4,273.57,21 / 21,2116428,2019-11-06 15:32:53:545,-1.2655,-1.3214,10.823,-0.0022,0.0041,9.8066,-0.0032,-0.1472,0.0631,9.44,-35.37,12.0,341.3,-86.78,126.86
21165,53.276936,-1.730901,331.24,5.15,4,273.57,21 / 21,2116529,2019-11-06 15:32:53:646,0.1196,-0.5968,8.7861,-0.0215,-0.0073,9.8066,0.0513,-0.267,0.2624,9.88,-34.75,18.0,333.3,-86.59,126.89
21166,53.276936,-1.730901,331.24,5.15,4,273.57,21 / 21,2116628,2019-11-06 15:32:53:745,-1.7482,-0.1379,10.2636,-0.0105,-0.0124,9.8066,-0.0028,-0.2065,-0.0946,-0.62,-39.06,37.94,299.36,-86.64,123.92
21167,53.276936,-1.730901,331.24,5.15,4,273.57,21 / 21,2116728,2019-11-06 15:32:53:845,-0.8592,-0.2863,10.2602,-0.0217,-0.0179,9.8066,0.0395,-0.263,0.1564,-2.5,-38.69,13.0,290.28,-86.73,128.18
21168,53.276936,-1.730901,331.24,5.15,4,273.57,21 / 21,2116828,2019-11-06 15:32:53:945,-2.6418,-0.9745,9.5993,-0.053,0.0116,9.8064,0.0025,-0.2735,0.1344,6.38,-37.25,8.38,344.03,-86.79,130.45
21169,53.276936,-1.730901,331.24,5.15,4,273.57,21 / 21,2116928,2019-11-06 15:32:54:045,0.6952,-1.2642,10.0424,-0.0273,0.0143,9.8066,0.0146,-0.3106,0.0416,6.75,-37.12,8.56,348.45,-86.8,132.67
21170,53.276936,-1.730901,331.24,5.15,4,273.57,21 / 21,2117028,2019-11-06 15:32:54:145,-1.6823,1.6223,10.2696,-0.0288,0.0134,9.8065,0.0646,-0.3665,0.2234,6.56,-37.62,8.63,347.49,-86.81,131.94
21171,53.276936,-1.730901,331.24,5.15,4,273.57,21 / 21,2117128,2019-11-06 15:32:54:245,0.9918,-1.55,9.4541,-0.0286,0.0056,9.8065,0.0403,-0.0804,-0.1556,4.0,-37.94,8.44,333.79,-86.97,132.94
21172,53.276936,-1.730901,331.24,5.15,4,273.57,21 / 21,2117228,2019-11-06 15:32:54:345,-0.054,-2.2262,10.1872,0.0235,-0.0205,9.8066,0.078,-0.3526,0.1788,-8.37,-40.81,19.75,284.87,-86.86,132.48
21173,53.276936,-1.730901,331.24,5.15,4,273.57,21 / 22,2117328,2019-11-06 15:32:54:445,2.8003,-0.872,9.5006,-0.0318,-0.0054,9.8065,-0.0935,0.1467,-0.1667,5.56,-35.25,36.75,322.7,-86.66,135.43
21174,53.276936,-1.730901,331.24,5.15,4,273.57,21 / 22,2117428,2019-11-06 15:32:54:545,-2.9091,-0.5535,9.71,0.0154,0.0134,9.8066,-0.0384,-0.2668,0.0712,9.69,-35.69,14.0,345.67,-86.57,131.93
21175,53.276936,-1.730901,331.24,5.15,4,273.57,21 / 22,2117528,2019-11-06 15:32:54:645,-1.3946,1.6179,9.4274,-0.0181,0.0026,9.8066,-0.0529,0.1906,-0.0892,9.06,-36.37,10.63,350.98,-86.62,133.05
21176,53.276936,-1.730901,331.24,5.15,4,273.57,21 / 22,2117628,2019-11-06 15:32:54:745,-2.5057,2.4138,10.13,0.0218,-0.027,9.8066,0.019,-0.1694,-0.0933,9.06,-36.44,9.81,347.64,-86.78,127.52
21177,53.276936,-1.730901,331.24,5.15,4,273.57,21 / 22,2117728,2019-11-06 15:32:54:845,-0.8943,-1.4384,9.3893,-0.0032,0.0011,9.8066,0.0393,0.1533,-0.173,8.5,-36.5,9.44,349.37,-86.78,126.07
21178,53.276936,-1.730901,331.24,5.15,4,273.57,21 / 22,2117828,2019-11-06 15:32:54:945,-0.0975,-0.462,9.8697,0.0068,-0.006,9.8066,-0.0379,-0.0605,0.0294,9.13,-36.12,9.38,346.58,-86.7,123.77
21179,53.276936,-1.730901,331.24,5.15,4,273.57,21 / 22,2117928,2019-11-06 15:32:55:045,-1.335,-0.6016,9.5445,0.0082,-0.0083,9.8065,0.0212,0.14,-0.0968,9.5,-35.94,11.75,341.94,-86.55,124.63
21180,53.276936,-1.730901,331.24,5.15,4,273.57,21 / 22,2118028,2019-11-06 15:32:55:145,0.526,-1.3781,10.0898,0.0254,-0.0297,9.8065,0.0091,0.1778,-0.1427,9.75,-35.06,27.69,322.61,-86.44,125.56
21181,53.276936,-1.730901,331.24,5.15,4,273.57,21 / 22,2118129,2019-11-06 15:32:55:246,-2.6255,-3.6189,9.4278,0.0269,-0.0144,9.8065,0.1025,0.1995,-0.1377,-10.44,-40.62,25.13,281.33,-86.42,128.52
21182,53.276936,-1.730901,331.24,5.15,4,273.57,21 / 22,2118228,2019-11-06 15:32:55:345,-0.5971,-1.0338,9.0224,0.0232,-0.0338,9.8066,-0.0623,0.1748,-0.1415,3.06,-38.0,8.13,323.12,-86.29,132.56
21183,53.276936,-1.730901,331.24,5.15,4,273.57,21 / 21,2118328,2019-11-06 15:32:55:445,-3.0691,-0.2785,10.5181,0.0055,-0.0007,9.8066,-0.0063,0.067,-0.023,6.19,-37.69,7.13,354.82,-86.1,135.68
21184,53.276936,-1.730901,331.24,5.15,4,273.57,21 / 21,2118428,2019-11-06 15:32:55:545,1.0674,0.1376,9.607,0.0197,0.0117,9.8066,-0.1156,0.2394,-0.1398,7.13,-37.25,7.94,357.63,-86.1,137.01
21185,53.276936,-1.730901,331.24,5.15,4,273.57,21 / 21,2118528,2019-11-06 15:32:55:645,-3.134,0.0906,9.4754,0.0199,-0.0238,9.8066,0.0116,0.0324,-0.0494,6.31,-37.56,7.25,356.78,-86.11,137.09
21186,53.276936,-1.730901,331.24,5.15,4,273.57,21 / 21,2118628,2019-11-06 15:32:55:745,0.5148,-0.9973,9.2215,0.0147,-0.0112,9.8066,0.0431,0.1704,-0.1333,-1.19,-38.87,7.69,293.32,-85.96,138.75
21187,53.276936,-1.730901,331.24,5.15,4,273.57,21 / 21,2118728,2019-11-06 15:32:55:845,-1.5231,-2.814,10.5171,0.0073,0.0171,9.8066,-0.028,-0.0612,-0.0455,-5.25,-39.62,37.06,308.3,-86.05,139.38
21188,53.276936,-1.730901,331.24,5.15,4,273.57,21 / 21,2118828,2019-11-06 15:32:55:945,-0.4547,0.2017,8.9887,0.0074,0.0276,9.8065,-0.1312,0.0997,0.0141,8.88,-34.62,19.19,343.28,-86.0,139.88
21189,53.276936,-1.730901,331.24,5.15,4,273.57,21 / 21,2118928,2019-11-06 15:32:56:045,-2.2883,0.9662,8.9008,0.008,-0.0263,9.8066,-0.0155,-0.0549,0.026,9.06,-35.81,9.75,2.32,-85.91,139.89
21190,53.276936,-1.730901,331.24,5.15,4,273.57,21 / 21,2119028,2019-11-06 15:32:56:145,-1.4423,0.2765,11.9007,-0.0312,-0.0517,9.8064,0.3096,-0.1734,-0.1696,8.94,-36.25,8.0,13.12,-85.86,141.91
21191,53.276936,-1.730901,331.24,5.15,4,273.57,21 / 21,2119128,2019-11-06 15:32:56:245,-1.2913,2.1622,8.6312,-0.0197,-0.0142,9.8065,0.2414,0.0461,-0.1878,7.88,-36.37,7.38,19.05,-85.74,145.48
21192,53.276936,-1.730901,331.24,5.15,4,273.57,21 / 21,2119228,2019-11-06 15:32:56:345,-0.8919,1.4784,8.6349,0.0172,-0.0074,9.8066,-0.2243,0.0592,0.0011,8.25,-36.37,7.0,17.94,-85.71,144.6
21193,53.276936,-1.730901,331.24,5.15,4,273.57,20 / 21,2119329,2019-11-06 15:32:56:446,-1.7623,1.1745,10.7581,0.0281,0.0239,9.8065,-0.1256,0.0108,0.0392,9.5,-36.56,8.5,15.24,-85.8,144.15
21194,53.276936,-1.730901,331.24,5.15,4,273.57,20 / 21,2119428,2019-11-06 15:32:56:545,-0.3144,2.8126,9.2391,-0.0001,0.0298,9.8065,-0.0801,0.0911,-0.0255,9.63,-35.56,13.94,359.53,-85.72,144.07
21195,53.276936,-1.730901,331.24,5.15,4,273.57,20 / 21,2119528,2019-11-06 15:32:56:645,-4.6853,-0.5965,8.9239,0.0226,-0.0135,9.8065,-0.06,-0.2974,0.3241,-5.69,-39.75,34.19,308.82,-85.69,142.81
21196,53.276936,-1.730901,331.24,5.15,4,273.57,20 / 21,2119628,2019-11-06 15:32:56:745,-0.0862,0.0497,10.9,-0.0018,-0.0061,9.8066,0.1366,-0.1073,-0.2207,-1.25,-39.0,7.0,293.02,-85.66,143.87
21197,53.276936,-1.730901,331.24,5.15,4,273.57,20 / 21,2119728,2019-11-06 15:32:56:845,0.8612,-1.7602,8.9982,-0.0236,-0.0215,9.8066,0.1123,-0.4112,0.2271,4.75,-38.06,5.19,19.24,-85.67,146.51
21198,53.276936,-1.730901,331.24,5.15,4,273.57,20 / 21,2119828,2019-11-06 15:32:56:945,-1.3029,0.7041,9.8247,-0.0257,0.0189,9.8065,0.0425,-0.368,0.011,5.94,-37.56,4.69,27.97,-85.54,147.48
21199,53.276936,-1.730901,331.24,5.15,4,273.57,20 / 21,2119928,2019-11-06 15:32:57:045,-0.1555,-0.6057,10.0356,-0.0108,0.0174,9.8066,0.0779,-0.2275,0.0552,5.63,-37.25,4.69,27.35,-85.56,147.38
21200,53.276936,-1.730901,331.24,5.15,4,273.57,20 / 21,2120028,2019-11-06 15:32:57:145,-2.5644,1.1069,10.3971,-0.024,0.0071,9.8066,0.001,-0.2095,0.0985,3.5,-37.75,4.69,8.27,-85.5,145.74
21201,53.276936,-1.730901,331.24,5.15,4,273.57,20 / 21,2120128,2019-11-06 15:32:57:245,-0.5083,-0.2896,9.5537,-0.0107,-0.0002,9.8066,-0.1034,-0.1134,0.0387,-10.31,-40.62,24.19,298.01,-85.5,146.99
21202,53.276936,-1.730901,331.24,5.15,4,273.57,20 / 21,2120228,2019-11-06 15:32:57:345,-1.5587,-0.6595,11.046,-0.0186,-0.0048,9.8066,0.1467,-0.1325,0.0329,6.88,-34.56,24.81,340.1,-85.44,146.61
21203,53.276936,-1.730901,331.24,5.15,4,273.57,20 / 22,2120328,2019-11-06 15:32:57:445,-1.3564,0.1005,9.0911,-0.0164,-0.025,9.8066,0.1425,-0.118,-0.091,8.38,-35.25,11.38,6.72,-85.44,149.3
21204,53.276936,-1.730901,331.24,5.15,4,273.57,20 / 22,2120430,2019-11-06 15:32:57:547,-0.492,3.0418,9.5303,0.0059,0.0069,9.8066,-0.1141,-0.1151,0.1639,9.13,-36.25,6.88,31.32,-85.62,151.91
21205,53.276936,-1.730901,331.24,5.15,4,273.57,20 / 22,2120530,2019-11-06 15:32:57:647,-1.1005,0.0678,10.3539,-0.0068,0.0276,9.8066,-0.0955,0.0499,-0.0053,7.5,-36.25,6.94,29.33,-85.63,153.18
21206,53.276936,-1.730901,331.24,5.15,4,273.57,20 / 22,2120628,2019-11-06 15:32:57:745,-0.5062,0.0075,9.4257,0.0011,0.0022,9.8066,0.0422,0.0542,-0.0334,6.81,-36.62,5.13,40.95,-85.49,153.57
21207,53.276936,-1.730901,331.24,5.15,4,273.57,20 / 22,2120728,2019-11-06 15:32:57:845,-0.3935,0.1747,9.6998,-0.0045,-0.0337,9.8065,0.0377,0.0054,-0.1148,7.81,-36.44,7.0,30.15,-85.33,153.29
21208,53.276936,-1.730901,331.24,5.15,4,273.57,20 / 22,2120828,2019-11-06 15:32:57:945,0.3679,0.7288,9.7665,-0.0018,-0.0215,9.8065,-0.0526,0.0354,0.0171,7.63,-35.81,9.5,16.31,-85.52,154.06
21209,53.276936,-1.730901,331.24,5.15,4,273.57,20 / 22,2120928,2019-11-06 15:32:58:045,-0.1999,-1.1391,10.3848,-0.0052,0.0051,9.8066,-0.004,-0.0782,0.0729,9.0,-35.81,21.63,356.41,-85.34,154.61
21210,53.276936,-1.730901,331.24,5.15,4,273.57,20 / 22,2121028,2019-11-06 15:32:58:145,-0.0751,-0.1325,10.4555,-0.0174,-0.0031,9.8066,-0.0461,-0.04,0.057,-8.75,-39.94,11.69,286.95,-85.33,155.89
21211,53.276936,-1.730901,331.24,5.15,4,273.57,20 / 22,2121128,2019-11-06 15:32:58:245,-0.3803,0.8036,8.9727,-0.0013,-0.008,9.8065,0.0576,0.0809,-0.0379,3.0,-38.0,4.69,14.94,-85.26,155.94
21212,53.276936,-1.730901,331.24,5.15,4,273.57,20 / 22,2121228,2019-11-06 15:32:58:345,-1.6818,-0.9693,10.6645,-0.0288,-0.0363,9.8065,0.0832,0.0223,-0.0517,5.13,-37.81,4.19,49.63,-85.4,156.92
21213,53.27708,-1.732423,325.75,15.77,6,292.1,20 / 20,2121328,2019-11-06 15:32:58:445,-1.3658,0.6753,10.2953,0.0065,-0.0087,9.8066,-0.0274,0.0168,-0.0079,5.06,-37.75,3.69,51.82,-85.01,156.36
21214,53.27708,-1.732423,325.75,15.77,6,292.1,20 / 20,2121428,2019-11-06 15:32:58:545,0.4017,-0.2611,8.9772,0.0139,0.0085,9.8066,-0.1037,0.1148,0.0214,4.19,-37.75,3.94,47.0,-85.01,156.52
21215,53.27708,-1.732423,325.75,15.77,6,292.1,20 / 20,2121528,2019-11-06 15:32:58:645,0.8254,-1.6393,10.0258,0.0053,0.0046,9.8066,-0.0258,-0.0712,0.0656,-0.62,-38.56,5.63,297.56,-85.06,156.54
21216,53.27708,-1.732423,325.75,15.77,6,292.1,20 / 20,2121628,2019-11-06 15:32:58:745,1.0891,-1.2928,10.3777,-0.0104,-0.0076,9.8066,0.0597,0.1204,-0.0241,0.44,-37.37,35.5,337.53,-85.03,159.55
21217,53.27708,-1.732423,325.75,15.77,6,292.1,20 / 20,2121728,2019-11-06 15:32:58:845,-1.5864,1.367,10.4102,0.0039,-0.0263,9.8066,0.1099,-0.0652,-0.0363,6.69,-35.12,13.25,11.2,-84.95,160.53
21218,53.27708,-1.732423,325.75,15.77,6,292.1,20 / 20,2121828,2019-11-06 15:32:58:945,-0.5951,-0.4225,10.3925,-0.0166,-0.0055,9.8065,0.0131,0.2197,0.0177,7.06,-37.19,8.19,36.29,-84.87,164.37
21219,53.27708,-1.732423,325.75,15.77,6,292.1,20 / 20,2121928,2019-11-06 15:32:59:045,-1.8931,1.8611,10.3408,0.0123,-0.0139,9.8066,-0.0038,-0.1611,0.0589,6.5,-36.81,5.56,51.34,-84.68,164.89
21220,53.27708,-1.732423,325.75,15.77,6,292.1,20 / 20,2122028,2019-11-06 15:32:59:145,0.6037,0.07,10.1537,0.0017,0.0171,9.8066,0.0032,0.0799,0.0,6.5,-37.62,5.5,54.44,-84.58,166.4
21221,53.27708,-1.732423,325.75,15.77,6,292.1,20 / 20,2122128,2019-11-06 15:32:59:245,0.9909,-2.1419,10.2202,-0.0061,-0.0025,9.8066,-0.0033,-0.2035,0.1909,6.06,-37.31,5.5,50.04,-84.58,166.46
21222,53.27708,-1.732423,325.75,15.77,6,292.1,20 / 20,2122228,2019-11-06 15:32:59:345,1.1404,-0.8088,9.5264,-0.0207,0.0066,9.8065,0.0648,-0.0565,-0.0352,6.56,-36.75,8.0,42.67,-84.43,168.07
21223,53.27708,-1.732423,325.75,15.77,6,292.1,20 / 21,2122328,2019-11-06 15:32:59:445,1.5428,-0.5133,9.6897,-0.0189,-0.0012,9.8066,0.0711,-0.3156,0.1764,6.56,-35.94,15.44,17.7,-84.45,168.94
21224,53.27708,-1.732423,325.75,15.77,6,292.1,20 / 21,2122428,2019-11-06 15:32:59:545,-2.7594,-0.0815,10.1055,-0.0364,-0.0301,9.8065,-0.0534,-0.3065,0.1359,-7.94,-41.25,32.31,332.02,-84.43,169.42
21225,53.27708,-1.732423,325.75,15.77,6,292.1,20 / 21,2122528,2019-11-06 15:32:59:645,2.3445,-0.2666,9.1969,-0.0414,-0.0379,9.8064,-0.1905,-0.0657,0.0875,0.25,-39.12,5.25,338.02,-84.35,174.82
21226,53.27708,-1.732423,325.75,15.77,6,292.1,20 / 21,2122628,2019-11-06 15:32:59:745,-1.3518,3.0669,12.5928,0.0053,0.0602,9.8064,0.1375,-0.3648,0.2954,3.75,-38.5,4.69,68.35,-84.13,175.05
21227,53.27708,-1.732423,325.75,15.77,6,292.1,20 / 21,2122728,2019-11-06 15:32:59:845,0.116,-0.1366,9.5519,-0.0581,-0.0065,9.8064,0.0723,-0.0079,0.0219,3.75,-38.19,4.25,87.57,-83.98,177.54
21228,53.27708,-1.732423,325.75,15.77,6,292.1,20 / 21,2122829,2019-11-06 15:32:59:946,-0.4287,2.5307,8.649,-0.0528,-0.0425,9.8063,0.1781,-0.1125,-0.0333,2.94,-38.37,4.38,91.52,-83.85,179.69
21229,53.27708,-1.732423,325.75,15.77,6,292.1,20 / 21,2122928,2019-11-06 15:33:00:045,-0.0168,-2.6054,11.7443,0.0673,0.0345,9.8063,-0.07,-0.0559,0.1071,0.0,-39.62,4.94,22.21,-84.03,-176.25
21230,53.27708,-1.732423,325.75,15.77,6,292.1,20 / 21,2123028,2019-11-06 15:33:00:145,-2.2652,0.5532,8.1962,-0.0763,0.0127,9.8063,-0.1269,0.0492,0.0469,-13.56,-42.12,25.44,327.55,-83.76,-178.13
21231,53.27708,-1.732423,325.75,15.77,6,292.1,20 / 21,2123128,2019-11-06 15:33:00:245,0.2266,3.1385,9.6166,0.0238,-0.0268,9.8065,-0.0797,-0.0542,0.0839,5.06,-35.62,17.06,25.16,-83.86,-176.67
21232,53.27708,-1.732423,325.75,15.77,6,292.1,20 / 21,2123228,2019-11-06 15:33:00:345,1.385,-1.1591,10.0751,0.0047,-0.0218,9.8066,0.048,0.2272,-0.1847,5.63,-36.5,8.94,55.3,-84.18,-174.69
21233,53.27708,-1.732423,325.75,15.77,6,292.1,21 / 22,2123328,2019-11-06 15:33:00:445,-1.5064,1.6333,11.4088,0.0292,-0.012,9.8065,-0.0256,-0.0515,0.0483,5.56,-37.75,6.75,66.87,-84.27,-176.16
21234,53.27708,-1.732423,325.75,15.77,6,292.1,21 / 22,2123428,2019-11-06 15:33:00:545,2.007,0.3153,8.317,0.0278,0.0227,9.8066,-0.0599,0.2749,-0.1615,5.13,-38.12,5.88,69.09,-84.18,-178.39
21235,53.27708,-1.732423,325.75,15.77,6,292.1,21 / 22,2123528,2019-11-06 15:33:00:645,-0.9366,-4.2829,10.3423,0.0061,-0.0229,9.8066,0.0142,-0.0152,0.1663,5.06,-38.12,6.5,60.18,-84.19,-178.41
21236,53.27708,-1.732423,325.75,15.77,6,292.1,21 / 22,2123628,2019-11-06 15:33:00:745,-0.2141,-2.6893,10.2782,-0.0251,-0.0009,9.8065,0.0715,0.135,-0.1949,5.94,-38.19,7.13,66.37,-84.4,-176.06
21237,53.27708,-1.732423,325.75,15.77,6,292.1,21 / 22,2123728,2019-11-06 15:33:00:845,0.1711,0.8475,9.2914,0.0092,0.0098,9.8065,0.1603,-0.1748,0.0082,5.44,-37.0,11.75,40.72,-84.38,-172.53
21238,53.27708,-1.732423,325.75,15.77,6,292.1,21 / 22,2123828,2019-11-06 15:33:00:945,0.6974,0.3706,9.3177,-0.0142,0.0173,9.8066,-0.1881,0.0616,0.0713,-7.56,-41.19,33.63,356.65,-84.42,-169.71
21239,53.27708,-1.732423,325.75,15.77,6,292.1,21 / 22,2123928,2019-11-06 15:33:01:045,-2.2858,-0.6573,9.9427,-0.0159,0.0212,9.8066,-0.029,-0.2044,0.1541,-4.94,-39.94,8.75,327.97,-84.44,-171.32
21240,53.27708,-1.732423,325.75,15.77,6,292.1,21 / 22,2124028,2019-11-06 15:33:01:145,-0.2128,-0.2077,10.9394,-0.0179,-0.0053,9.8066,0.1007,-0.0434,-0.0956,2.25,-38.19,5.56,52.44,-84.44,-173.7
21241,53.27708,-1.732423,325.75,15.77,6,292.1,21 / 22,2124128,2019-11-06 15:33:01:245,-0.6205,-1.7955,8.7131,-0.0073,-0.0197,9.8066,0.1995,-0.1818,0.0307,4.5,-38.12,5.31,81.72,-84.37,-174.92
21242,53.27708,-1.732423,325.75,15.77,6,292.1,21 / 22,2124228,2019-11-06 15:33:01:345,-0.6983,0.3617,9.0325,-0.0279,0.0055,9.8065,0.0996,-0.298,0.0579,4.0,-37.87,4.38,90.8,-84.39,-175.5
21243,53.27708,-1.732423,325.75,15.77,6,292.1,21 / 21,2124328,2019-11-06 15:33:01:445,4.7885,-1.5017,8.6911,-0.0285,0.0331,9.8065,0.1872,-0.314,0.1017,2.0,-39.25,4.56,70.19,-84.37,-173.91
21244,53.27708,-1.732423,325.75,15.77,6,292.1,21 / 21,2124428,2019-11-06 15:33:01:545,-2.3868,-3.5047,10.0492,-0.0226,-0.0299,9.8066,-0.0868,-0.5383,0.3439,-13.06,-42.19,20.44,327.38,-84.26,-174.02
21245,53.27708,-1.732423,325.75,15.77,6,292.1,21 / 21,2124528,2019-11-06 15:33:01:645,1.0178,-0.4018,11.4892,-0.0399,-0.0165,9.8065,-0.0489,-0.0232,0.1104,4.63,-36.31,27.38,18.35,-84.02,-174.7
21246,53.27708,-1.732423,325.75,15.77,6,292.1,21 / 21,2124628,2019-11-06 15:33:01:745,-1.1815,-0.9119,11.5328,0.0224,0.0248,9.8065,0.0573,0.0418,-0.0995,6.5,-36.25,12.13,46.75,-83.69,-175.7
21247,53.27708,-1.732423,325.75,15.77,6,292.1,21 / 21,2124728,2019-11-06 15:33:01:845,0.6337,1.7579,9.5396,0.0183,-0.0254,9.8065,0.103,0.0087,-0.1602,5.31,-37.62,7.31,63.27,-84.05,-176.66
21248,53.27708,-1.732423,325.75,15.77,6,292.1,21 / 21,2124829,2019-11-06 15:33:01:946,-0.8345,0.193,10.3589,-0.0079,-0.0092,9.8066,-0.0821,0.1189,0.0685,5.5,-37.37,6.19,73.46,-84.27,-176.43
21249,53.27708,-1.732423,325.75,15.77,6,292.1,21 / 21,2124928,2019-11-06 15:33:02:045,-1.5876,1.3244,9.9285,0.0181,0.0115,9.8066,-0.0707,-0.2433,0.1887,5.38,-37.25,5.94,69.0,-84.14,-177.89
21250,53.27708,-1.732423,325.75,15.77,6,292.1,21 / 21,2125028,2019-11-06 15:33:02:145,0.7191,-1.5223,10.4654,-0.008,0.0475,9.8064,0.0441,0.137,-0.0225,5.75,-37.25,7.31,68.4,-83.87,-175.91
21251,53.27708,-1.732423,325.75,15.77,6,292.1,21 / 21,2125128,2019-11-06 15:33:02:245,0.279,-1.2003,9.4958,-0.0041,-0.0336,9.8066,0.064,-0.2267,0.1437,5.75,-36.69,9.81,50.16,-83.74,-176.43
21252,53.27708,-1.732423,325.75,15.77,6,292.1,21 / 21,2125228,2019-11-06 15:33:02:345,2.9302,-0.3463,9.3924,-0.0212,-0.0096,9.8066,0.0143,0.1669,-0.0611,6.19,-36.37,24.31,24.12,-83.8,-173.73
21253,53.27708,-1.732423,325.75,15.77,6,292.1,22 / 22,2125328,2019-11-06 15:33:02:445,-1.1015,-0.8636,10.4987,-0.0027,0.0152,9.8066,0.0554,-0.3051,0.1828,-8.44,-40.94,10.5,318.75,-83.89,-172.83
21254,53.27708,-1.732423,325.75,15.77,6,292.1,22 / 22,2125428,2019-11-06 15:33:02:545,-1.4308,-0.0559,9.053,0.0111,0.02,9.8066,-0.0652,0.2257,-0.137,1.69,-38.81,5.0,78.37,-83.73,-174.66
21255,53.27708,-1.732423,325.75,15.77,6,292.1,22 / 22,2125529,2019-11-06 15:33:02:646,0.3392,5.2344,9.1809,0.0066,-0.0289,9.8066,-0.0957,-0.3462,0.3007,3.69,-38.62,5.31,84.01,-83.79,-175.9
21256,53.27708,-1.732423,325.75,15.77,6,292.1,22 / 22,2125629,2019-11-06 15:33:02:746,-0.3605,-4.0454,10.0177,-0.0104,0.0394,9.8065,-0.0321,0.3316,-0.2047,3.88,-38.5,4.44,95.91,-83.87,-174.93
21257,53.27708,-1.732423,325.75,15.77,6,292.1,22 / 22,2125728,2019-11-06 15:33:02:845,2.1722,-4.4046,9.5672,0.0138,-0.0467,9.8065,0.0796,-0.6203,0.4161,1.94,-38.44,4.63,69.73,-83.87,-177.49
21258,53.27708,-1.732423,325.75,15.77,6,292.1,22 / 22,2125828,2019-11-06 15:33:02:945,3.4481,5.1516,9.316,-0.0264,-0.0589,9.8064,-0.0199,0.1343,-0.0656,-4.69,-40.44,7.25,302.63,-83.85,-176.78
21259,53.27708,-1.732423,325.75,15.77,6,292.1,22 / 22,2125928,2019-11-06 15:33:03:045,0.782,-1.2223,9.556,0.0171,0.0216,9.8065,0.0274,-0.7507,0.3684,0.69,-37.62,33.44,7.91,-84.04,-174.81
21260,53.27708,-1.732423,325.75,15.77,6,292.1,22 / 22,2126028,2019-11-06 15:33:03:145,-4.2637,2.1681,10.1359,-0.0745,0.0235,9.8062,0.0623,-0.0839,0.1131,5.81,-36.37,13.56,35.4,-84.14,-175.98
21261,53.27708,-1.732423,325.75,15.77,6,292.1,22 / 22,2126129,2019-11-06 15:33:03:246,-2.0343,3.407,10.2883,-0.0055,0.0006,9.8066,0.0842,-0.7763,0.3509,5.88,-37.06,8.44,63.88,-83.93,-173.77
21262,53.27708,-1.732423,325.75,15.77,6,292.1,22 / 22,2126228,2019-11-06 15:33:03:345,-1.4243,0.8485,10.5302,-0.0525,0.0346,9.8064,0.0933,-0.2367,0.1063,5.56,-38.0,6.75,73.97,-83.82,-172.1
21263,53.27708,-1.732423,325.75,15.77,6,292.1,20 / 22,2126328,2019-11-06 15:33:03:445,1.2722,-2.4731,8.0756,-0.0055,0.0008,9.8066,0.2541,-0.3773,0.0525,5.06,-37.5,7.06,66.88,-84.04,-173.14
21264,53.27708,-1.732423,325.75,15.77,6,292.1,20 / 22,2126428,2019-11-06 15:33:03:545,-2.3265,-0.8227,9.1371,-0.0526,-0.0142,9.8064,0.0703,-0.3335,0.2005,5.31,-38.06,7.25,68.34,-83.91,-173.28
21265,53.27708,-1.732423,325.75,15.77,6,292.1,20 / 22,2126528,2019-11-06 15:33:03:645,1.2669,-2.0807,10.1711,-0.023,0.0345,9.8066,-0.0756,-0.1473,0.173,6.06,-36.69,9.56,55.01,-83.48,-173.37
21266,53.27708,-1.732423,325.75,15.77,6,292.1,20 / 22,2126629,2019-11-06 15:33:03:746,-2.0126,1.3723,9.9958,-0.0229,0.0219,9.8065,0.0411,-0.2524,0.1426,6.69,-35.87,19.75,30.78,-83.39,-174.43
21267,53.27708,-1.732423,325.75,15.77,6,292.1,20 / 22,2126728,2019-11-06 15:33:03:845,1.2436,0.7749,9.5018,-0.0225,-0.046,9.8065,0.0585,-0.0987,0.0905,-11.87,-41.75,27.5,340.31,-83.22,-173.22
21268,53.27708,-1.732423,325.75,15.77,6,292.1,20 / 22,2126828,2019-11-06 15:33:03:945,-2.3982,-0.4595,10.31,0.0041,-0.0182,9.8066,0.1016,-0.363,0.0959,0.63,-38.31,5.13,77.18,-83.27,-173.23
21269,53.27708,-1.732423,325.75,15.77,6,292.1,20 / 22,2126928,2019-11-06 15:33:04:045,0.1866,-0.3645,9.7124,-0.0107,0.0353,9.8065,0.0465,0.1048,-0.1065,3.25,-38.87,5.19,91.23,-83.26,-171.94
21270,53.27708,-1.732423,325.75,15.77,6,292.1,20 / 22,2127028,2019-11-06 15:33:04:145,1.5802,2.3473,8.5919,-0.0403,-0.0287,9.8064,0.0339,-0.0584,-0.0088,3.63,-38.44,5.19,89.65,-83.24,-173.68
21271,53.27708,-1.732423,325.75,15.77,6,292.1,20 / 22,2127128,2019-11-06 15:33:04:245,1.9751,-1.8855,11.2894,0.0207,0.0061,9.8066,-0.0822,0.2927,-0.2917,2.81,-38.62,4.88,92.3,-82.96,-174.27
21272,53.27708,-1.732423,325.75,15.77,6,292.1,20 / 22,2127228,2019-11-06 15:33:04:345,-1.4199,-1.8398,9.3725,-0.0026,-0.0065,9.8066,0.0598,0.0427,0.1902,-3.0,-40.0,6.19,291.67,-82.48,-174.64
21273,53.27708,-1.732423,325.75,15.77,6,292.1,20 / 22,2127328,2019-11-06 15:33:04:445,1.4675,2.13,8.1809,-0.0016,0.0105,9.8066,-0.2016,0.3369,-0.2226,-10.37,-41.44,33.56,347.19,-82.28,-174.33
21274,53.27708,-1.732423,325.75,15.77,6,292.1,20 / 22,2127428,2019-11-06 15:33:04:545,0.2014,-0.9902,11.5347,0.0153,-0.0453,9.8065,0.3136,0.1054,-0.1026,5.56,-36.06,14.69,38.43,-82.01,-174.79
21275,53.27708,-1.732423,325.75,15.77,6,292.1,20 / 22,2127528,2019-11-06 15:33:04:645,-1.9252,3.7618,10.6667,0.0101,-0.0245,9.8065,0.0165,0.2691,-0.3837,5.44,-37.0,9.69,54.63,-82.02,-174.37
21276,53.27708,-1.732423,325.75,15.77,6,292.1,20 / 22,2127628,2019-11-06 15:33:04:745,-0.4231,0.3357,10.9268,0.0207,-0.0059,9.8066,-0.0697,0.1442,0.2042,5.44,-37.56,6.25,91.12,-81.66,-174.14
21277,53.27708,-1.732423,325.75,15.77,6,292.1,20 / 22,2127728,2019-11-06 15:33:04:845,-0.9312,2.5767,10.0387,-0.0063,-0.0105,9.8066,-0.1677,0.1355,-0.02,5.06,-38.56,6.81,81.83,-81.49,-175.95
21278,53.27708,-1.732423,325.75,15.77,6,292.1,20 / 22,2127828,2019-11-06 15:33:04:945,-0.5257,-1.4913,10.0961,0.001,-0.0436,9.8065,0.1161,0.2714,-0.2206,5.56,-37.69,6.69,83.13,-81.57,-174.89
21279,53.27708,-1.732423,325.75,15.77,6,292.1,20 / 22,2127928,2019-11-06 15:33:05:045,0.0264,0.7927,10.7249,0.0025,-0.034,9.8065,0.0992,0.0076,-0.0565,5.88,-37.0,7.63,70.94,-81.53,-177.46
21280,53.27708,-1.732423,325.75,15.77,6,292.1,20 / 22,2128028,2019-11-06 15:33:05:145,1.1086,-0.4849,9.6627,-0.0004,-0.0177,9.8066,-0.0653,0.1357,-0.0397,6.44,-35.44,16.63,30.59,-81.43,-177.62
21281,53.27708,-1.732423,325.75,15.77,6,292.1,20 / 22,2128128,2019-11-06 15:33:05:245,1.1291,-0.8959,10.1883,-0.0135,-0.0007,9.8065,0.0102,-0.1384,0.1646,-9.87,-41.31,32.63,343.18,-81.3,-176.8
21282,53.27708,-1.732423,325.75,15.77,6,292.1,20 / 22,2128228,2019-11-06 15:33:05:345,-1.6204,-1.836,9.503,-0.0206,-0.02,9.8065,0.0079,0.0964,-0.0738,-2.25,-40.0,6.94,299.17,-81.17,-176.63
21283,53.27708,-1.732423,325.75,15.77,6,292.1,20 / 20,2128329,2019-11-06 15:33:05:446,1.3276,1.2414,9.4174,-0.0076,-0.0083,9.8066,0.0242,-0.11,0.0368,2.63,-38.31,5.0,108.25,-81.22,-175.18
21284,53.27708,-1.732423,325.75,15.77,6,292.1,20 / 20,2128428,2019-11-06 15:33:05:545,-0.3586,1.0814,9.7694,-0.0124,-0.0002,9.8066,-0.0084,0.0767,-0.0571,3.0,-38.5,5.44,106.85,-81.41,-174.21
21285,53.27708,-1.732423,325.75,15.77,6,292.1,20 / 20,2128529,2019-11-06 15:33:05:646,1.5843,0.2081,9.6397,0.0025,-0.0093,9.8066,-0.0363,-0.1016,0.0498,2.56,-39.12,4.69,109.82,-81.3,-175.03
21286,53.27708,-1.732423,325.75,15.77,6,292.1,20 / 20,2128628,2019-11-06 15:33:05:745,-0.7052,-0.6871,9.9422,0.0016,0.0059,9.8066,0.0117,0.0427,-0.0491,-1.69,-39.69,5.38,238.49,-81.25,-176.29
21287,53.27708,-1.732423,325.75,15.77,6,292.1,20 / 20,2128728,2019-11-06 15:33:05:845,0.7137,1.7839,9.5545,0.009,0.01,9.8066,0.0176,-0.2423,0.1151,-11.75,-42.06,29.94,336.17,-81.21,-177.17
21288,53.27708,-1.732423,325.75,15.77,6,292.1,20 / 20,2128828,2019-11-06 15:33:05:945,1.7776,0.5681,9.2894,-0.0213,-0.0019,9.8066,0.025,0.0131,0.0548,5.5,-35.56,20.38,27.39,-81.38,-176.42
21289,53.27708,-1.732423,325.75,15.77,6,292.1,20 / 20,2128928,2019-11-06 15:33:06:045,-0.9392,0.01,10.2215,0.0121,0.0069,9.8066,0.0352,-0.1613,0.0922,5.69,-36.94,10.31,59.8,-81.4,-175.87
21290,53.27708,-1.732423,325.75,15.77,6,292.1,20 / 20,2129028,2019-11-06 15:33:06:145,0.8313,1.0865,10.7289,-0.0147,-0.0086,9.8066,0.0753,-0.0452,-0.0214,4.94,-37.62,6.75,81.4,-81.46,-175.23
21291,53.27708,-1.732423,325.75,15.77,6,292.1,20 / 20,2129128,2019-11-06 15:33:06:245,-0.6774,-0.8583,10.8094,-0.0151,0.0036,9.8066,0.0599,0.0184,-0.0157,5.13,-38.25,6.5,81.57,-81.39,-175.48
21292,53.27708,-1.732423,325.75,15.77,6,292.1,20 / 20,2129228,2019-11-06 15:33:06:345,1.4373,1.7916,9.1697,0.0177,-0.0038,9.8066,-0.1085,-0.082,0.0734,4.94,-37.62,6.75,81.45,-81.35,-175.8
21293,53.27708,-1.732423,325.75,15.77,6,292.1,21 / 22,2129328,2019-11-06 15:33:06:445,1.4955,-1.5696,10.173,-0.0022,0.0161,9.8066,-0.0196,0.0052,0.1045,5.75,-36.87,8.19,72.32,-81.42,-176.81
21294,53.27708,-1.732423,325.75,15.77,6,292.1,21 / 22,2129429,2019-11-06 15:33:06:546,-0.1858,2.9128,10.891,0.0056,0.0146,9.8065,0.0237,-0.2285,0.0276,5.94,-35.75,13.0,42.29,-81.25,-177.81
21295,53.27708,-1.732423,325.75,15.77,6,292.1,21 / 22,2129528,2019-11-06 15:33:06:645,1.0817,2.2118,9.8034,-0.0365,-0.01,9.8065,-0.0548,0.241,-0.0792,-2.56,-39.37,34.38,357.72,-81.12,-176.8
21296,53.27708,-1.732423,325.75,15.77,6,292.1,21 / 22,2129629,2019-11-06 15:33:06:746,0.1329,-0.0309,10.4798,-0.0011,-0.0111,9.8066,0.3466,-0.4136,0.105,-1.69,-39.19,6.94,297.94,-80.98,-177.28
21297,53.27708,-1.732423,325.75,15.77,6,292.1,21 / 22,2129728,2019-11-06 15:33:06:845,2.2789,-3.8614,8.4168,-0.0371,0.0004,9.8065,0.1398,0.291,-0.3229,2.56,-39.0,5.69,96.13,-80.98,-176.85
21298,53.27708,-1.732423,325.75,15.77,6,292.1,21 / 22,2129829,2019-11-06 15:33:06:946,1.28,1.5704,9.503,-0.0301,-0.0495,9.8064,0.0111,-0.1729,0.0908,3.5,-38.25,4.88,104.35,-81.4,-174.54
21299,53.27708,-1.732423,325.75,15.77,6,292.1,21 / 22,2129928,2019-11-06 15:33:07:045,-0.2805,-1.97,11.5643,0.0183,0.0405,9.8065,-0.0338,0.3124,-0.2194,3.5,-38.5,5.25,103.97,-81.41,-174.97
21300,53.27708,-1.732423,325.75,15.77,6,292.1,21 / 22,2130028,2019-11-06 15:33:07:145,0.3466,-1.2292,9.0877,-0.0035,-0.0184,9.8066,0.0,-0.1177,0.1387,0.38,-39.37,5.44,165.01,-81.1,-176.62
21301,53.27708,-1.732423,325.75,15.77,6,292.1,21 / 22,2130128,2019-11-06 15:33:07:245,-3.3294,-2.1356,10.9923,0.0468,-0.0064,9.8064,0.0919,0.3566,-0.2451,-12.81,-42.44,18.44,312.86,-80.83,-178.07
21302,53.27708,-1.732423,325.75,15.77,6,292.1,21 / 22,2130228,2019-11-06 15:33:07:345,-3.9037,3.0264,9.9479,0.0407,-0.0303,9.8065,0.0983,-0.1878,0.0476,6.06,-35.87,20.0,24.25,-80.52,-179.46
21303,53.27768,-1.734806,324.98,19.82,4,292.3,21 / 22,2130328,2019-11-06 15:33:07:445,1.64,-1.1252,10.559,-0.0173,0.0347,9.8065,0.098,0.3619,-0.263,6.19,-36.56,11.0,52.42,-80.43,-179.69
21304,53.27768,-1.734806,324.98,19.82,4,292.3,21 / 22,2130428,2019-11-06 15:33:07:545,1.9891,-0.9901,9.3989,-0.0297,-0.0504,9.8064,-0.1088,-0.121,0.1125,5.63,-37.81,7.56,77.09,-80.25,-179.45
21305,53.27768,-1.734806,324.98,19.82,4,292.3,21 / 22,2130529,2019-11-06 15:33:07:646,1.2851,-3.7695,10.2551,-0.0445,0.0069,9.8065,-0.0242,0.4748,-0.2628,4.88,-38.0,6.88,86.29,-80.17,-179.06
21306,53.27768,-1.734806,324.98,19.82,4,292.3,21 / 22,2130629,2019-11-06 15:33:07:746,0.1616,1.1744,9.6719,0.0005,-0.0223,9.8066,-0.0164,-0.1376,0.1033,5.0,-38.25,7.0,84.87,-80.17,179.62
21307,53.27768,-1.734806,324.98,19.82,4,292.3,21 / 22,2130728,2019-11-06 15:33:07:845,1.5357,1.0215,10.6985,-0.0281,0.0032,9.8066,-0.0202,0.1571,0.0228,5.31,-37.19,8.13,73.48,-80.19,-179.26
21308,53.27768,-1.734806,324.98,19.82,4,292.3,21 / 22,2130828,2019-11-06 15:33:07:945,1.5634,3.199,10.0639,0.0027,-0.0067,9.8066,-0.1668,-0.0134,0.1149,5.94,-36.31,13.81,40.96,-80.2,-178.04
21309,53.27768,-1.734806,324.98,19.82,4,292.3,21 / 22,2130928,2019-11-06 15:33:08:045,-1.2913,1.1163,9.6261,0.0063,-0.0427,9.8065,-0.1088,0.198,0.0599,-1.19,-39.56,33.63,2.51,-80.5,-176.33
21310,53.27768,-1.734806,324.98,19.82,4,292.3,21 / 22,2131028,2019-11-06 15:33:08:145,2.6741,1.7081,10.7395,-0.0446,-0.0137,9.8064,0.2285,0.1773,-0.2621,-8.81,-41.25,12.06,304.69,-80.3,-175.57
21311,53.27768,-1.734806,324.98,19.82,4,292.3,21 / 22,2131128,2019-11-06 15:33:08:245,-1.0966,-1.0349,11.4159,0.0294,0.0503,9.8064,0.3694,0.2098,-0.2825,2.94,-38.81,6.81,92.56,-79.96,-175.51
21312,53.27768,-1.734806,324.98,19.82,4,292.3,21 / 22,2131228,2019-11-06 15:33:08:345,0.0204,-0.3209,9.0916,-0.0214,-0.0118,9.8066,-0.0478,-0.0128,-0.0641,3.63,-38.5,6.5,93.07,-79.47,-177.67
21313,53.27768,-1.734806,324.98,19.82,4,292.3,21 / 22,2131328,2019-11-06 15:33:08:445,-2.2167,0.5931,10.7898,-0.0073,-0.0094,9.8066,-0.0983,0.1891,-0.1826,3.69,-39.12,6.5,93.23,-79.58,-179.09
21314,53.27768,-1.734806,324.98,19.82,4,292.3,21 / 22,2131428,2019-11-06 15:33:08:545,3.6006,-1.065,10.9978,-0.0302,-0.044,9.8065,-0.1143,-0.1143,0.0693,2.25,-39.25,6.25,118.1,-79.76,178.43
21315,53.27768,-1.734806,324.98,19.82,4,292.3,21 / 22,2131528,2019-11-06 15:33:08:645,-0.0497,2.6191,10.0715,0.0561,0.0214,9.8064,-0.0161,0.0542,0.0113,-11.31,-41.87,21.25,314.41,-79.7,175.71
21316,53.27768,-1.734806,324.98,19.82,4,292.3,21 / 22,2131628,2019-11-06 15:33:08:745,1.9203,1.1761,11.7861,-0.0015,0.0117,9.8066,0.2378,0.0258,-0.0943,5.13,-36.12,31.0,6.04,-79.55,175.52
21317,53.27768,-1.734806,324.98,19.82,4,292.3,21 / 22,2131728,2019-11-06 15:33:08:845,4.2313,-2.1761,10.8082,-0.0129,0.0294,9.8065,0.1352,0.2083,-0.1413,7.06,-36.06,14.38,37.93,-79.06,175.18
21318,53.27768,-1.734806,324.98,19.82,4,292.3,21 / 22,2131828,2019-11-06 15:33:08:945,-0.0372,1.2215,9.0328,-0.0105,-0.0193,9.8066,-0.0556,-0.0313,0.2299,6.81,-37.0,10.81,56.77,-79.08,176.73
21319,53.27768,-1.734806,324.98,19.82,4,292.3,21 / 22,2131929,2019-11-06 15:33:09:046,3.1975,-1.4397,9.5585,-0.0005,-0.0008,9.8066,-0.0113,-0.0686,0.1368,6.06,-38.44,9.19,72.3,-79.09,178.22
21320,53.27768,-1.734806,324.98,19.82,4,292.3,21 / 22,2132028,2019-11-06 15:33:09:145,1.0067,-0.5638,9.8561,0.0066,-0.0088,9.8066,0.0885,-0.2358,0.2027,6.44,-38.12,8.94,73.35,-79.13,179.2
21321,53.27768,-1.734806,324.98,19.82,4,292.3,21 / 22,2132129,2019-11-06 15:33:09:246,1.3768,-1.4799,9.4214,0.0027,-0.0145,9.8066,-0.0641,-0.2692,0.1787,6.31,-37.62,9.13,75.59,-79.08,-179.31
21322,53.27768,-1.734806,324.98,19.82,4,292.3,21 / 22,2132229,2019-11-06 15:33:09:346,-0.9709,2.9034,9.8727,0.0258,0.0037,9.8065,0.0568,-0.1279,0.1902,6.69,-36.44,13.63,46.18,-79.27,-179.05
21323,53.27768,-1.734806,324.98,19.82,4,292.3,20 / 21,2132328,2019-11-06 15:33:09:445,-0.162,-0.5414,11.6114,0.0185,0.0181,9.8065,0.2199,-0.3471,0.1105,6.25,-36.19,29.06,18.75,-79.16,-177.47
21324,53.27768,-1.734806,324.98,19.82,4,292.3,20 / 21,2132428,2019-11-06 15:33:09:545,-4.006,-1.3058,11.2312,0.0004,0.0316,9.8066,0.1965,-0.456,0.3071,-13.37,-42.5,22.81,322.19,-79.35,-177.41
21325,53.27768,-1.734806,324.98,19.82,4,292.3,20 / 21,2132528,2019-11-06 15:33:09:645,5.247,-4.9528,7.9155,0.0521,-0.0281,9.8064,0.1911,-0.409,0.1115,2.56,-38.31,7.94,80.05,-79.25,-176.94
21326,53.27768,-1.734806,324.98,19.82,4,292.3,20 / 21,2132628,2019-11-06 15:33:09:745,1.487,5.651,8.9262,0.0444,-0.0738,9.8062,0.2403,-1.1081,0.6077,3.5,-38.5,7.56,83.41,-79.1,-177.59
21327,53.27768,-1.734806,324.98,19.82,4,292.3,20 / 21,2132728,2019-11-06 15:33:09:845,-3.4139,-11.6205,10.6312,0.0495,-0.0441,9.8064,0.115,0.0921,-0.1463,4.0,-38.94,7.38,104.02,-78.65,-175.74
21328,53.27768,-1.734806,324.98,19.82,4,292.3,20 / 21,2132828,2019-11-06 15:33:09:945,3.118,2.6439,7.06,-0.0284,-0.1418,9.8055,-0.016,-1.2173,0.8656,2.0,-38.87,7.31,108.14,-78.87,-178.71
21329,53.27768,-1.734806,324.98,19.82,4,292.3,20 / 21,2132928,2019-11-06 15:33:10:045,0.4941,5.895,5.5082,0.0901,0.0467,9.8061,-0.3567,0.4194,0.1545,-7.06,-40.69,10.5,298.22,-78.82,-175.82
21330,53.27768,-1.734806,324.98,19.82,4,292.3,20 / 21,2133028,2019-11-06 15:33:10:145,-6.971,0.0259,12.051,-0.0424,0.0849,9.8061,0.3218,-0.4782,-0.1003,-4.06,-39.5,38.19,355.58,-78.81,-177.45
21331,53.27768,-1.734806,324.98,19.82,4,292.3,20 / 21,2133128,2019-11-06 15:33:10:245,2.4579,1.71,7.6038,-0.0538,0.0981,9.8059,0.209,0.7311,-0.5224,6.13,-36.31,14.63,44.11,-78.82,-175.9
21332,53.27768,-1.734806,324.98,19.82,4,292.3,20 / 21,2133228,2019-11-06 15:33:10:345,5.1857,-3.6799,9.1896,0.0031,-0.0068,9.8066,-0.1353,0.017,-0.004,6.44,-37.37,9.88,71.83,-78.64,-176.68
21333,53.27768,-1.734806,324.98,19.82,4,292.3,21 / 21,2133328,2019-11-06 15:33:10:445,3.4688,-5.4827,9.9668,-0.0336,0.0644,9.8063,-0.0778,0.7472,-0.4921,5.5,-37.94,8.19,89.19,-78.7,-177.11
21334,53.27768,-1.734806,324.98,19.82,4,292.3,21 / 21,2133428,2019-11-06 15:33:10:545,3.0618,1.4518,8.6843,-0.0333,-0.0516,9.8064,-0.1257,-0.0043,0.0952,5.31,-37.94,8.31,90.57,-78.45,-176.81
21335,53.27768,-1.734806,324.98,19.82,4,292.3,21 / 21,2133528,2019-11-06 15:33:10:645,0.0801,4.3548,11.7266,-0.0532,0.0165,9.8065,-0.228,0.5731,-0.324,5.5,-37.62,9.06,82.69,-78.4,-176.81
21336,53.27768,-1.734806,324.98,19.82,4,292.3,21 / 21,2133628,2019-11-06 15:33:10:745,-0.687,3.9141,10.7381,0.0022,-0.0056,9.8066,-0.0653,0.0919,0.026,6.06,-37.25,10.56,65.98,-78.4,-176.55
21337,53.27768,-1.734806,324.98,19.82,4,292.3,21 / 21,2133728,2019-11-06 15:33:10:845,-0.5771,0.7898,9.511,-0.0423,0.0292,9.8064,-0.1254,0.6011,-0.3085,6.94,-36.12,24.44,30.35,-78.62,-174.7
21338,53.27768,-1.734806,324.98,19.82,4,292.3,21 / 21,2133829,2019-11-06 15:33:10:946,4.8206,3.4469,8.6262,-0.0256,-0.0024,9.8066,-0.0515,0.2851,-0.1246,-13.5,-42.87,22.31,322.93,-78.8,-174.52
21339,53.27768,-1.734806,324.98,19.82,4,292.3,21 / 21,2133928,2019-11-06 15:33:11:045,-0.0966,-2.9904,9.5953,-0.0158,0.0628,9.8064,-0.1086,0.6796,-0.2944,0.69,-39.62,7.25,118.24,-78.97,-174.16
21340,53.27768,-1.734806,324.98,19.82,4,292.3,21 / 21,2134028,2019-11-06 15:33:11:145,3.4885,-3.202,8.5141,-0.0184,0.0122,9.8066,-0.1528,0.3501,-0.2047,3.06,-38.75,6.94,106.81,-78.74,-173.15
21341,53.27768,-1.734806,324.98,19.82,4,292.3,21 / 21,2134128,2019-11-06 15:33:11:245,3.8601,4.7469,10.8788,-0.0123,0.0438,9.8064,-0.138,0.677,-0.3293,3.56,-39.0,7.13,104.99,-78.72,-172.99
21342,53.27768,-1.734806,324.98,19.82,4,292.3,21 / 21,2134228,2019-11-06 15:33:11:345,0.0071,-0.548,10.2611,-0.0113,0.0063,9.8066,-0.1255,0.4495,-0.1511,2.25,-39.25,6.69,107.22,-78.96,-173.8
21343,53.27768,-1.734806,324.98,19.82,4,292.3,21 / 21,2134328,2019-11-06 15:33:11:445,-2.679,-1.8884,9.1372,0.0285,-0.0251,9.8066,-0.1997,0.3002,-0.0267,-2.25,-40.37,7.88,292.44,-79.09,-173.63
21344,53.27768,-1.734806,324.98,19.82,4,292.3,21 / 21,2134428,2019-11-06 15:33:11:545,0.3299,1.7329,9.4167,-0.0466,-0.0014,9.8065,0.0993,0.3909,-0.1468,-4.94,-40.31,37.56,0.04,-79.06,-172.47
21345,53.27768,-1.734806,324.98,19.82,4,292.3,21 / 21,2134528,2019-11-06 15:33:11:645,-0.3498,1.7427,10.7693,-0.0081,0.0163,9.8065,0.1528,-0.0485,-0.067,5.06,-36.56,16.69,39.51,-78.97,-172.24
21346,53.27768,-1.734806,324.98,19.82,4,292.3,21 / 21,2134628,2019-11-06 15:33:11:745,1.6125,0.7075,8.6099,-0.0224,-0.0104,9.8065,-0.0909,0.0437,0.0139,5.31,-38.06,10.88,67.03,-78.84,-172.52
21347,53.27768,-1.734806,324.98,19.82,4,292.3,21 / 21,2134729,2019-11-06 15:33:11:846,1.7083,-1.3485,10.8086,-0.0039,-0.0331,9.8065,-0.1259,-0.0039,0.1743,4.63,-38.37,8.06,91.32,-78.92,-172.69
21348,53.27768,-1.734806,324.98,19.82,4,292.3,21 / 21,2134829,2019-11-06 15:33:11:946,-1.3327,-2.3953,10.8624,-0.0063,0.0054,9.8066,-0.0038,0.0559,-0.0216,5.13,-38.0,8.38,91.61,-79.04,-171.63
21349,53.27768,-1.734806,324.98,19.82,4,292.3,21 / 21,2134928,2019-11-06 15:33:12:045,1.4878,1.2519,8.657,0.012,0.0052,9.8066,0.0405,-0.1839,0.042,4.88,-38.31,8.81,83.14,-78.96,-171.65
21350,53.27768,-1.734806,324.98,19.82,4,292.3,21 / 21,2135028,2019-11-06 15:33:12:145,-1.5174,1.2388,10.2259,0.0144,0.0164,9.8066,0.0311,0.1847,0.0334,5.69,-37.12,11.19,69.35,-79.11,-171.63
21351,53.27768,-1.734806,324.98,19.82,4,292.3,21 / 21,2135128,2019-11-06 15:33:12:245,-2.186,2.5661,9.702,0.019,-0.0514,9.8065,-0.0505,-0.3701,0.2447,6.13,-36.31,18.31,41.95,-79.02,-171.1
21352,53.27768,-1.734806,324.98,19.82,4,292.3,21 / 21,2135228,2019-11-06 15:33:12:345,0.139,-0.3219,9.2696,-0.0009,0.0048,9.8066,-0.1525,0.0999,0.0956,-10.69,-42.25,32.81,345.82,-79.06,-172.27
21353,53.27768,-1.734806,324.98,19.82,4,292.3,21 / 21,2135328,2019-11-06 15:33:12:445,1.3649,2.9717,8.6796,0.008,0.028,9.8066,0.2313,-0.5485,0.1823,-2.37,-39.69,8.38,306.97,-79.2,-171.24
21354,53.27768,-1.734806,324.98,19.82,4,292.3,21 / 21,2135428,2019-11-06 15:33:12:545,2.3349,-2.3772,8.6114,-0.0072,-0.0016,9.8066,-0.0111,-0.049,0.1273,2.25,-39.12,7.0,107.19,-78.99,-172.34
21355,53.27768,-1.734806,324.98,19.82,4,292.3,21 / 21,2135528,2019-11-06 15:33:12:645,1.4558,-2.364,9.3262,0.0054,-0.0532,9.8065,0.0257,-0.5229,0.3159,3.19,-39.0,7.38,104.23,-79.1,-171.5
21356,53.27768,-1.734806,324.98,19.82,4,292.3,21 / 21,2135628,2019-11-06 15:33:12:745,0.7449,3.7675,10.1847,0.0179,-0.0053,9.8066,0.0657,-0.2282,0.05,2.88,-39.44,7.5,88.98,-79.18,-172.34
21357,53.27768,-1.734806,324.98,19.82,4,292.3,21 / 21,2135728,2019-11-06 15:33:12:845,1.7582,-1.0032,10.6354,-0.013,-0.0332,9.8065,0.12,-0.369,0.1066,-2.56,-39.62,8.06,284.87,-79.12,-174.01
21358,53.27768,-1.734806,324.98,19.82,4,292.3,21 / 21,2135828,2019-11-06 15:33:12:945,-1.7123,-0.6797,9.6456,0.0454,-0.0008,9.8065,-0.0915,-0.148,0.1477,-11.19,-41.75,34.13,343.08,-78.84,-174.88
21359,53.27768,-1.734806,324.98,19.82,4,292.3,21 / 21,2135928,2019-11-06 15:33:13:045,2.8131,0.1299,9.8903,0.0353,0.0266,9.8065,-0.0916,-0.3024,0.1432,5.38,-36.19,21.81,26.3,-79.01,-174.7
21360,53.27768,-1.734806,324.98,19.82,4,292.3,21 / 21,2136028,2019-11-06 15:33:13:145,-0.7676,1.1417,9.5004,0.0317,0.0135,9.8065,0.0119,-0.3027,0.0752,5.75,-37.19,11.25,62.98,-79.58,-174.83
21361,53.27768,-1.734806,324.98,19.82,4,292.3,21 / 21,2136128,2019-11-06 15:33:13:245,3.0188,-0.7652,9.1548,-0.0138,-0.0177,9.8065,0.0369,-0.0785,0.104,5.38,-38.0,10.0,66.64,-79.6,-175.11
21362,53.27768,-1.734806,324.98,19.82,4,292.3,21 / 21,2136228,2019-11-06 15:33:13:345,-1.1129,1.0708,8.89,-0.0051,-0.0054,9.8066,-0.0198,0.0108,0.0572,4.88,-38.19,8.5,78.18,-79.26,-174.32
21363,53.27768,-1.734806,324.98,19.82,4,292.3,21 / 21,2136328,2019-11-06 15:33:13:445,1.8569,-0.2244,10.3123,-0.0058,-0.0073,9.8066,-0.1606,0.0704,0.1415,4.94,-38.56,7.81,89.53,-79.31,-173.74
21364,53.27768,-1.734806,324.98,19.82,4,292.3,21 / 21,2136428,2019-11-06 15:33:13:545,1.1863,0.7623,10.2633,0.014,0.0551,9.8064,-0.0673,0.0427,-0.1184,5.13,-37.12,10.13,69.15,-79.63,-172.1
21365,53.27768,-1.734806,324.98,19.82,4,292.3,21 / 21,2136528,2019-11-06 15:33:13:645,0.0647,5.0882,8.9522,0.0171,0.0107,9.8065,0.298,-0.0301,-0.0094,5.56,-36.56,15.38,48.6,-79.84,-171.45
21366,53.27768,-1.734806,324.98,19.82,4,292.3,21 / 21,2136628,2019-11-06 15:33:13:745,-0.5724,-1.43,10.2709,-0.0135,-0.0391,9.8065,0.0424,0.2502,-0.1634,-3.75,-40.12,35.63,0.15,-79.38,-173.54
21367,53.27768,-1.734806,324.98,19.82,4,292.3,21 / 21,2136728,2019-11-06 15:33:13:845,-3.5974,-3.7556,9.4405,0.0253,0.1014,9.806,0.0197,-0.7954,0.6439,-2.5,-39.12,7.94,301.08,-79.67,-177.15
21368,53.27768,-1.734806,324.98,19.82,4,292.3,21 / 21,2136828,2019-11-06 15:33:13:945,3.3662,5.6819,8.4937,0.0275,0.0067,9.8065,-0.0068,-0.7614,-0.0061,2.5,-39.0,6.81,95.06,-79.76,-175.17
21369,53.27768,-1.734806,324.98,19.82,4,292.3,21 / 21,2136929,2019-11-06 15:33:14:046,-2.7326,-4.1302,9.9244,-0.0206,-0.0366,9.8065,-0.0316,0.076,-0.0548,3.75,-38.81,6.81,93.01,-79.73,-177.75
21370,53.27768,-1.734806,324.98,19.82,4,292.3,21 / 21,2137028,2019-11-06 15:33:14:145,0.7225,9.7453,9.9113,0.042,-0.1068,9.8059,-0.047,-0.9553,0.421,3.25,-38.87,6.5,87.37,-80.08,-179.28
21371,53.27768,-1.734806,324.98,19.82,4,292.3,21 / 21,2137128,2019-11-06 15:33:14:245,-0.6881,-5.7049,8.7115,0.0016,0.0386,9.8065,-0.087,0.7004,-0.4494,0.5,-38.69,6.44,126.14,-80.15,-179.51
21372,53.27768,-1.734806,324.98,19.82,4,292.3,21 / 21,2137229,2019-11-06 15:33:14:346,1.7471,4.4241,10.2097,-0.0218,0.0795,9.8063,0.1441,-0.6006,0.2245,-12.0,-42.44,20.19,315.44,-80.21,179.32
21373,53.27768,-1.734806,324.98,19.82,4,292.3,21 / 21,2137328,2019-11-06 15:33:14:445,8.2882,-1.2582,8.7009,-0.0692,-0.0016,9.8064,-0.1498,1.0627,-0.5879,6.31,-35.5,20.06,24.65,-80.11,-179.29
21374,53.27768,-1.734806,324.98,19.82,4,292.3,21 / 21,2137428,2019-11-06 15:33:14:545,1.728,0.5779,9.7657,0.0371,-0.0063,9.8065,-0.0014,0.0872,-0.0461,6.25,-37.62,11.06,51.37,-80.25,178.49
21375,53.27768,-1.734806,324.98,19.82,4,292.3,21 / 21,2137528,2019-11-06 15:33:14:645,-2.2033,6.5909,10.045,-0.0444,0.0545,9.8064,-0.1052,0.8427,-0.4382,6.13,-37.5,8.69,63.35,-80.35,178.09
21376,53.27768,-1.734806,324.98,19.82,4,292.3,21 / 21,2137628,2019-11-06 15:33:14:745,2.5829,3.4356,10.5601,0.0101,0.0252,9.8066,0.0247,0.4225,-0.2458,6.19,-37.75,7.69,74.91,-80.4,179.52
21377,53.27768,-1.734806,324.98,19.82,4,292.3,21 / 21,2137728,2019-11-06 15:33:14:845,2.128,5.0513,9.9722,-0.029,0.0461,9.8064,0.0179,0.7168,-0.3368,5.88,-37.19,7.94,72.2,-80.38,178.5
21378,53.27768,-1.734806,324.98,19.82,4,292.3,21 / 21,2137828,2019-11-06 15:33:14:945,2.1863,-3.856,9.3001,-0.0363,0.0119,9.8065,-0.1007,0.4392,-0.2699,6.75,-37.31,8.81,68.91,-80.09,178.89
21379,53.27768,-1.734806,324.98,19.82,4,292.3,21 / 21,2137928,2019-11-06 15:33:15:045,0.9508,1.0582,10.0699,-0.0273,0.0077,9.8066,0.0011,0.3417,-0.1017,6.38,-36.37,13.94,36.78,-80.02,178.88
21380,53.27768,-1.734806,324.98,19.82,4,292.3,21 / 21,2138028,2019-11-06 15:33:15:145,0.3675,1.4224,9.8005,-0.0217,0.0177,9.8066,-0.016,0.0792,-0.0996,-2.5,-39.37,34.69,354.66,-80.18,179.02
21381,53.27768,-1.734806,324.98,19.82,4,292.3,21 / 21,2138128,2019-11-06 15:33:15:245,-3.9415,-1.5759,8.8989,-0.0448,-0.0146,9.8064,-0.0187,0.4354,-0.1115,-6.81,-40.25,10.75,298.49,-80.24,178.86
21382,53.27768,-1.734806,324.98,19.82,4,292.3,21 / 21,2138229,2019-11-06 15:33:15:346,-0.15,0.8011,9.5099,0.0056,0.0251,9.8065,-0.0116,0.27,-0.1752,3.06,-38.56,5.75,100.21,-80.48,-179.79
21383,53.27768,-1.734806,324.98,19.82,4,292.3,21 / 22,2138328,2019-11-06 15:33:15:445,2.8832,2.128,10.2104,0.0065,0.0292,9.8066,0.1178,0.2411,-0.2555,3.63,-38.44,6.5,82.02,-80.33,179.46
21384,53.27768,-1.734806,324.98,19.82,4,292.3,21 / 22,2138428,2019-11-06 15:33:15:545,3.1092,-0.3288,9.9138,0.0064,-0.0168,9.8065,0.0265,0.0174,0.0225,3.94,-38.69,6.0,97.02,-80.43,178.69
21385,53.27768,-1.734806,324.98,19.82,4,292.3,21 / 22,2138528,2019-11-06 15:33:15:645,1.1788,-0.0021,9.1615,-0.0044,-0.0144,9.8065,-0.0115,0.0419,0.0287,1.25,-39.37,6.25,119.63,-80.55,178.08
21386,53.27768,-1.734806,324.98,19.82,4,292.3,21 / 22,2138628,2019-11-06 15:33:15:745,0.5857,1.9,10.3141,-0.0274,0.0,9.8066,0.0848,0.0733,-0.1105,-12.25,-42.12,21.44,316.31,-80.56,177.86
21387,53.27768,-1.734806,324.98,19.82,4,292.3,21 / 22,2138728,2019-11-06 15:33:15:845,1.6736,1.4533,9.9563,0.0083,-0.0163,9.8065,0.0445,-0.1023,0.082,4.75,-36.0,29.19,9.28,-80.53,177.52
21388,53.27768,-1.734806,324.98,19.82,4,292.3,21 / 22,2138829,2019-11-06 15:33:15:946,2.9915,0.5298,9.9566,-0.007,0.0041,9.8066,0.0427,0.0494,-0.1033,6.69,-36.81,11.5,47.45,-80.51,177.78
21389,53.27768,-1.734806,324.98,19.82,4,292.3,21 / 22,2138928,2019-11-06 15:33:16:045,3.4303,1.5507,8.3871,0.0186,0.0256,9.8066,0.1003,-0.0634,-0.0818,6.75,-37.75,8.44,72.87,-80.55,176.84
21390,53.27768,-1.734806,324.98,19.82,4,292.3,21 / 22,2139028,2019-11-06 15:33:16:145,1.4277,-1.6418,10.5312,0.0164,0.0191,9.8065,0.0137,0.1802,-0.1267,7.0,-37.62,8.25,73.01,-80.67,177.48
21391,53.27768,-1.734806,324.98,19.82,4,292.3,21 / 22,2139128,2019-11-06 15:33:16:245,1.7118,-0.1215,9.9084,-0.0066,0.0347,9.8065,0.0527,0.0643,-0.1264,6.25,-37.75,7.69,70.44,-80.85,178.18
21392,53.27768,-1.734806,324.98,19.82,4,292.3,21 / 22,2139230,2019-11-06 15:33:16:347,1.4722,1.815,8.2269,-0.0012,-0.0113,9.8066,-0.1315,-0.1437,0.1691,7.0,-36.81,8.56,63.86,-80.83,177.72
21393,53.27829,-1.737207,326.71,16.96,4,291.94,21 / 22,2139328,2019-11-06 15:33:16:445,1.7703,1.2305,9.2391,-0.0133,0.0097,9.8066,-0.0477,-0.0234,-0.001,7.13,-37.0,10.75,52.1,-81.03,178.7
21394,53.27829,-1.737207,326.71,16.96,4,291.94,21 / 22,2139428,2019-11-06 15:33:16:545,0.5175,0.9392,10.202,-0.0044,-0.0053,9.8066,-0.1305,0.0099,-0.0051,-0.56,-39.37,34.44,357.34,-81.08,179.53
21395,53.27829,-1.737207,326.71,16.96,4,291.94,21 / 22,2139528,2019-11-06 15:33:16:645,0.6407,-0.6943,9.7562,0.0077,0.0089,9.8066,0.022,-0.0125,0.0405,-7.25,-40.87,11.44,303.02,-81.37,179.29
21396,53.27829,-1.737207,326.71,16.96,4,291.94,21 / 22,2139628,2019-11-06 15:33:16:745,2.5032,0.3485,9.7866,0.0031,-0.0077,9.8066,-0.0868,0.1266,0.0199,2.38,-38.81,6.5,60.26,-81.37,179.3
21397,53.27829,-1.737207,326.71,16.96,4,291.94,21 / 22,2139728,2019-11-06 15:33:16:845,-0.067,0.5946,10.8084,-0.0091,-0.0021,9.8066,0.0966,-0.1045,0.0426,4.19,-38.62,6.56,73.29,-81.4,178.94
21398,53.27829,-1.737207,326.71,16.96,4,291.94,21 / 22,2139828,2019-11-06 15:33:16:945,2.5398,0.336,8.9731,0.0227,-0.0128,9.8065,0.0743,0.119,0.1337,3.88,-38.25,6.75,73.77,-81.31,-179.89
21399,53.27829,-1.737207,326.71,16.96,4,291.94,21 / 22,2139928,2019-11-06 15:33:17:045,0.2304,2.0635,10.0845,-0.0107,0.0273,9.8066,-0.0485,-0.1125,-0.0899,2.38,-39.19,6.56,63.24,-81.36,-179.48
21400,53.27829,-1.737207,326.71,16.96,4,291.94,21 / 22,2140028,2019-11-06 15:33:17:145,-0.0143,0.7879,9.1654,0.0231,0.0038,9.8066,-0.0652,0.2268,0.1432,-12.0,-42.12,19.81,318.01,-81.41,179.71
21401,53.27829,-1.737207,326.71,16.96,4,291.94,21 / 22,2140128,2019-11-06 15:33:17:245,1.6119,-0.3397,8.7895,-0.016,0.0036,9.8065,-0.043,0.018,-0.1624,4.38,-36.56,31.25,9.94,-81.47,-179.26
21402,53.27829,-1.737207,326.71,16.96,4,291.94,21 / 22,2140228,2019-11-06 15:33:17:345,-0.6974,-1.1815,9.8232,-0.0006,-0.0106,9.8066,0.0414,0.1714,-0.0742,6.69,-36.25,14.13,38.1,-81.61,179.24
21403,53.27829,-1.737207,326.71,16.96,4,291.94,21 / 21,2140328,2019-11-06 15:33:17:445,0.3766,-1.7885,10.6724,-0.0147,-0.0106,9.8066,0.0389,0.1954,-0.1426,6.5,-37.31,9.06,62.11,-81.34,178.11
21404,53.27829,-1.737207,326.71,16.96,4,291.94,21 / 21,2140428,2019-11-06 15:33:17:545,-3.2554,-0.3092,10.9016,-0.0333,-0.0042,9.8065,0.007,0.0565,-0.1663,6.25,-37.56,8.13,65.69,-81.27,176.51
21405,53.27829,-1.737207,326.71,16.96,4,291.94,21 / 21,2140528,2019-11-06 15:33:17:645,-0.9594,0.0317,10.8676,0.0041,-0.0217,9.8065,0.0036,0.0071,-0.0031,6.56,-37.37,8.31,66.78,-81.12,175.42
21406,53.27829,-1.737207,326.71,16.96,4,291.94,21 / 21,2140628,2019-11-06 15:33:17:745,0.1577,1.462,9.9875,0.0055,-0.0065,9.8065,0.032,0.0954,-0.0869,7.31,-37.37,9.06,58.32,-80.97,174.18
21407,53.27829,-1.737207,326.71,16.96,4,291.94,21 / 21,2140728,2019-11-06 15:33:17:845,1.0248,1.9751,9.6339,0.0031,0.0046,9.8066,0.0383,-0.0427,-0.0844,7.56,-36.5,12.63,38.49,-80.96,173.14
21408,53.27829,-1.737207,326.71,16.96,4,291.94,21 / 21,2140828,2019-11-06 15:33:17:945,-0.718,-1.4626,8.8623,0.0063,0.013,9.8066,0.0987,0.1963,-0.0887,8.31,-35.19,25.94,11.46,-80.76,171.86
21409,53.27829,-1.737207,326.71,16.96,4,291.94,21 / 21,2140928,2019-11-06 15:33:18:045,-1.3817,-2.6512,9.9781,0.004,0.0033,9.8066,-0.0578,-0.1351,0.005,-6.62,-39.94,11.88,295.72,-80.74,171.21
21410,53.27829,-1.737207,326.71,16.96,4,291.94,21 / 21,2141028,2019-11-06 15:33:18:145,-0.3222,-1.3398,9.9761,0.0081,0.0122,9.8065,-0.0282,0.1823,-0.0988,3.56,-38.31,6.81,65.03,-80.76,171.09
21411,53.27829,-1.737207,326.71,16.96,4,291.94,21 / 21,2141128,2019-11-06 15:33:18:245,0.3534,-1.0672,8.2442,0.0201,-0.0091,9.8066,-0.0947,-0.0499,0.0158,4.63,-37.94,6.19,79.53,-81.04,170.68
21412,53.27829,-1.737207,326.71,16.96,4,291.94,21 / 21,2141228,2019-11-06 15:33:18:345,-0.6293,-1.3287,8.3347,-0.0114,0.0025,9.8066,-0.0942,0.1149,-0.0495,4.88,-38.37,6.13,78.52,-81.16,170.78
21413,53.27829,-1.737207,326.71,16.96,4,291.94,20 / 22,2141328,2019-11-06 15:33:18:445,1.3335,0.5339,9.8284,-0.0171,0.0113,9.8065,0.0677,-0.0556,0.0633,3.63,-38.25,6.13,78.58,-81.18,171.52
21414,53.27829,-1.737207,326.71,16.96,4,291.94,20 / 22,2141429,2019-11-06 15:33:18:546,-2.9876,0.5001,9.2969,-0.0341,-0.021,9.8065,0.1084,0.1564,0.0071,-5.06,-40.19,9.38,289.28,-81.26,172.83
21415,53.27829,-1.737207,326.71,16.96,4,291.94,20 / 22,2141528,2019-11-06 15:33:18:645,2.2769,-1.2202,9.7552,-0.0291,-0.0304,9.8065,0.0049,0.0856,-0.0088,4.25,-36.31,31.88,3.43,-81.17,175.67
21416,53.27829,-1.737207,326.71,16.96,4,291.94,20 / 22,2141628,2019-11-06 15:33:18:745,-1.7632,-1.2922,11.4524,-0.0452,-0.0023,9.8065,0.089,0.1858,-0.0912,6.5,-35.81,14.06,35.72,-81.09,176.77
21417,53.27829,-1.737207,326.71,16.96,4,291.94,20 / 22,2141728,2019-11-06 15:33:18:845,0.0989,-1.1339,9.496,-0.0505,-0.0218,9.8064,-0.1204,0.3316,-0.0652,6.75,-37.12,9.69,58.89,-80.65,178.35
21418,53.27829,-1.737207,326.71,16.96,4,291.94,20 / 22,2141828,2019-11-06 15:33:18:945,0.1846,1.2946,9.3473,0.0098,0.014,9.8065,-0.0775,-0.0968,-0.0013,5.81,-37.87,8.25,71.54,-80.81,178.85
21419,53.27829,-1.737207,326.71,16.96,4,291.94,20 / 22,2141928,2019-11-06 15:33:19:045,0.1376,0.1515,9.1279,-0.0034,0.0098,9.8066,-0.045,0.0809,-0.0613,6.13,-37.37,7.69,70.43,-80.86,179.27
21420,53.27829,-1.737207,326.71,16.96,4,291.94,20 / 22,2142028,2019-11-06 15:33:19:145,0.5389,-0.1229,9.6826,-0.0071,0.0256,9.8066,0.0694,0.0526,-0.0992,6.31,-37.56,9.06,61.78,-81.08,178.82
21421,53.27829,-1.737207,326.71,16.96,4,291.94,20 / 22,2142128,2019-11-06 15:33:19:245,2.6696,-0.313,9.57,-0.0189,-0.0018,9.8066,-0.0143,0.2086,-0.1044,6.75,-36.06,11.38,53.5,-80.83,179.78
21422,53.27829,-1.737207,326.71,16.96,4,291.94,20 / 22,2142228,2019-11-06 15:33:19:345,-1.5052,1.6521,11.1541,-0.0198,0.0143,9.8066,-0.0744,0.0297,-0.0939,7.5,-35.94,23.44,23.8,-80.92,178.94
21423,53.27829,-1.737207,326.71,16.96,4,291.94,20 / 21,2142329,2019-11-06 15:33:19:446,3.4694,1.0119,10.501,-0.0052,-0.0284,9.8065,-0.0596,0.3262,-0.0994,-12.37,-42.12,26.19,327.76,-80.94,179.96
21424,53.27829,-1.737207,326.71,16.96,4,291.94,20 / 21,2142428,2019-11-06 15:33:19:545,-3.0268,-0.4125,9.2713,0.0108,-0.0013,9.8066,-0.045,-0.1608,-0.0013,2.06,-39.06,6.38,95.91,-80.93,179.4
21425,53.27829,-1.737207,326.71,16.96,4,291.94,20 / 21,2142528,2019-11-06 15:33:19:645,2.4252,0.5002,11.9359,0.0482,0.033,9.8065,0.0958,0.4014,-0.1249,3.88,-38.19,6.19,87.62,-81.18,179.13
21426,53.27829,-1.737207,326.71,16.96,4,291.94,20 / 21,2142628,2019-11-06 15:33:19:745,1.5295,2.6144,10.9775,0.0413,0.0355,9.8064,0.0953,-0.2607,-0.0708,4.06,-38.25,6.69,71.79,-81.36,179.01
21427,53.27829,-1.737207,326.71,16.96,4,291.94,20 / 21,2142728,2019-11-06 15:33:19:845,-0.8148,-1.6205,8.8791,0.0013,0.0042,9.8066,-0.1627,0.1471,0.1157,2.56,-38.81,6.5,64.99,-81.75,179.39
21428,53.27829,-1.737207,326.71,16.96,4,291.94,20 / 21,2142828,2019-11-06 15:33:19:945,0.9496,-1.3276,10.9541,0.0409,0.0058,9.8065,-0.0632,-0.1591,0.19,-4.06,-40.25,9.06,312.8,-81.92,-178.06
21429,53.27829,-1.737207,326.71,16.96,4,291.94,20 / 21,2142929,2019-11-06 15:33:20:046,1.7242,1.4684,10.2743,-0.0422,-0.0101,9.8065,0.073,0.0613,-0.0664,-6.06,-39.81,36.88,351.47,-81.84,-177.94
21430,53.27829,-1.737207,326.71,16.96,4,291.94,20 / 21,2143028,2019-11-06 15:33:20:145,1.866,0.898,9.4369,0.0128,0.0133,9.8066,0.1129,-0.2019,0.0704,6.25,-36.44,14.63,34.58,-81.71,-178.05
21431,53.27829,-1.737207,326.71,16.96,4,291.94,20 / 21,2143128,2019-11-06 15:33:20:245,0.1966,3.3147,9.7502,0.0086,0.004,9.8066,-0.1666,-0.1976,0.1659,6.13,-37.75,9.5,57.75,-81.62,-177.38
21432,53.27829,-1.737207,326.71,16.96,4,291.94,20 / 21,2143229,2019-11-06 15:33:20:346,2.0133,-0.4215,8.4481,0.019,-0.0197,9.8066,-0.1608,-0.1343,0.1179,5.63,-38.0,8.38,70.92,-82.16,-175.72
21433,53.27829,-1.737207,326.71,16.96,4,291.94,21 / 21,2143328,2019-11-06 15:33:20:445,0.1242,4.4874,10.1597,0.0354,-0.0203,9.8065,0.0869,-0.3881,0.2376,5.31,-37.81,7.69,64.22,-82.49,-176.5
21434,53.27829,-1.737207,326.71,16.96,4,291.94,21 / 21,2143429,2019-11-06 15:33:20:546,3.471,-0.5359,10.4816,-0.0096,-0.0178,9.8066,-0.1809,0.1491,-0.073,6.19,-38.0,7.31,75.74,-82.47,-176.84
21435,53.27829,-1.737207,326.71,16.96,4,291.94,21 / 21,2143528,2019-11-06 15:33:20:645,-1.2334,3.6559,10.8779,0.0421,-0.025,9.8064,0.1844,-0.4109,0.1769,6.25,-37.25,10.31,53.47,-82.57,-177.09
21436,53.27829,-1.737207,326.71,16.96,4,291.94,21 / 21,2143628,2019-11-06 15:33:20:745,2.2503,-0.4248,9.5526,-0.0285,0.0205,9.8066,-0.0739,0.4294,-0.2497,6.56,-35.75,18.13,32.63,-82.51,-176.39
21437,53.27829,-1.737207,326.71,16.96,4,291.94,21 / 21,2143728,2019-11-06 15:33:20:845,2.3382,-0.0662,9.5741,0.0315,0.0191,9.8065,0.0593,-0.0846,0.0984,-12.94,-42.44,22.88,327.25,-82.58,-176.66
21438,53.27829,-1.737207,326.71,16.96,4,291.94,21 / 21,2143828,2019-11-06 15:33:20:945,3.2765,-0.624,9.1602,-0.0259,0.0225,9.8065,-0.0481,0.4365,-0.3203,0.75,-39.56,6.63,39.6,-82.42,-177.27
21439,53.27829,-1.737207,326.71,16.96,4,291.94,21 / 21,2143928,2019-11-06 15:33:21:045,3.8678,0.8307,8.9584,-0.0023,-0.0063,9.8066,0.0284,0.1793,-0.0027,3.44,-38.44,6.94,61.01,-82.47,-177.57
21440,53.27829,-1.737207,326.71,16.96,4,291.94,21 / 21,2144028,2019-11-06 15:33:21:145,-1.5782,0.5696,10.7241,-0.031,0.0057,9.8066,-0.1338,0.1268,-0.0129,4.13,-38.5,6.31,82.32,-82.24,-176.81
21441,53.27829,-1.737207,326.71,16.96,4,291.94,21 / 21,2144128,2019-11-06 15:33:21:245,0.9604,-2.9509,9.5288,-0.0166,0.0273,9.8066,-0.0271,0.2612,-0.1191,3.25,-38.44,6.0,79.5,-82.32,-175.84
21442,53.27829,-1.737207,326.71,16.96,4,291.94,21 / 21,2144228,2019-11-06 15:33:21:345,-1.6172,0.9321,9.1278,-0.0009,-0.0026,9.8066,0.0089,-0.2795,0.1517,-1.5,-39.94,7.25,346.11,-82.4,-175.28
21443,53.27829,-1.737207,326.71,16.96,4,291.94,21 / 22,2144328,2019-11-06 15:33:21:445,-2.6655,0.9344,11.1788,-0.0198,0.0125,9.8065,0.0475,-0.1518,0.0434,-4.37,-39.87,36.94,359.43,-82.47,-174.32
21444,53.27829,-1.737207,326.71,16.96,4,291.94,21 / 22,2144428,2019-11-06 15:33:21:545,0.533,0.7877,10.2829,-0.019,-0.0065,9.8066,0.1371,-0.11,0.0052,5.63,-36.0,16.94,33.52,-82.5,-174.44
21445,53.27829,-1.737207,326.71,16.96,4,291.94,21 / 22,2144528,2019-11-06 15:33:21:645,-0.3789,0.4965,10.6081,0.0088,0.0014,9.8066,0.0489,-0.0331,0.0713,6.25,-37.44,10.63,53.44,-82.23,-174.25
21446,53.27829,-1.737207,326.71,16.96,4,291.94,21 / 22,2144628,2019-11-06 15:33:21:745,0.3597,-1.1323,10.1752,0.0036,-0.0102,9.8066,-0.0057,-0.1728,0.099,5.44,-37.81,8.25,69.65,-82.13,-173.94
21447,53.27829,-1.737207,326.71,16.96,4,291.94,21 / 22,2144728,2019-11-06 15:33:21:845,1.1655,-0.0296,9.3637,0.0117,0.004,9.8066,-0.129,-0.0728,0.0987,5.19,-38.25,8.13,69.44,-82.28,-173.43
21448,53.27829,-1.737207,326.71,16.96,4,291.94,21 / 22,2144828,2019-11-06 15:33:21:945,0.3983,-0.4519,9.7813,0.0189,-0.0176,9.8065,0.0264,-0.226,0.1018,5.06,-38.12,8.5,62.86,-82.45,-172.14
21449,53.27829,-1.737207,326.71,16.96,4,291.94,21 / 22,2144928,2019-11-06 15:33:22:045,-1.1308,1.2623,10.4275,-0.0033,-0.0021,9.8066,0.0934,-0.0673,0.0223,6.25,-37.37,10.25,59.22,-82.47,-173.03
21450,53.27829,-1.737207,326.71,16.96,4,291.94,21 / 22,2145028,2019-11-06 15:33:22:145,0.1442,-1.2638,9.4532,0.0194,0.0084,9.8066,0.0627,-0.0529,0.0018,6.19,-36.0,18.19,32.95,-82.38,-173.6
21451,53.27829,-1.737207,326.71,16.96,4,291.94,21 / 22,2145128,2019-11-06 15:33:22:245,-2.2538,1.3339,10.7251,0.0265,0.0028,9.8066,0.064,-0.167,0.084,-7.69,-41.12,33.56,349.56,-82.35,-175.48
21452,53.27829,-1.737207,326.71,16.96,4,291.94,21 / 22,2145228,2019-11-06 15:33:22:345,0.6372,1.643,9.9129,0.0165,-0.0082,9.8066,0.1307,0.0008,-0.0515,0.31,-38.94,7.19,18.25,-82.02,-175.95
21453,53.27829,-1.737207,326.71,16.96,4,291.94,20 / 22,2145328,2019-11-06 15:33:22:445,-0.4757,-2.0922,9.7396,0.002,-0.027,9.8066,-0.0923,-0.0842,0.0484,3.63,-38.56,6.44,87.03,-81.89,-177.0
