,GPS LATITUDE (degrees),GPS LONGITUDE (degrees), GPS ALTITUDE (m),GPS SPEED (Kmh),GPS ACCURACY (m),GPS ORIENTATION (Â°), SATELLITES IN RANGE, TIME SINCE START (ms), DATE (YYYY-MO-DD HH-MI-SS_SSS),ACCELEROMETER X (m/s²) , ACCELEROMETER Y (m/s²), ACCELEROMETER Z (m/s²), GRAVITY X (m/s²), GRAVITY Y (m/s²), GRAVITY Z (m/s²), GYROSCOPE Yaw (rad/s), GYROSCOPE Pitch (rad/s), GYROSCOPE Roll (rad/s)
46023,45.778923,-0.061457,146.49,15.41,3.216,115.7,Dec-14,4602310,2019-08-09 23:51:59:537,1.4049,-0.2309,9.4484,1.2987,-1.3847,9.6211,0.0108,0.0082,-0.093
46024,45.778923,-0.061457,146.49,15.41,3.216,115.7,Dec-14,4602411,2019-08-09 23:51:59:638,1.8514,-1.3232,10.1601,1.3002,-1.3664,9.6236,-0.0121,0.0037,-0.0726
46025,45.778923,-0.061457,146.49,15.41,3.216,115.7,Dec-14,4602511,2019-08-09 23:51:59:738,1.2188,0.0217,9.6429,1.2971,-1.37,9.6235,-0.0081,0.0038,-0.0827
46026,45.778923,-0.061457,146.49,15.41,3.216,115.7,14 / 16,4602610,2019-08-09 23:51:59:837,1.5785,-0.7415,9.7375,1.3209,-1.3509,9.6229,0.0,0.0345,-0.087
46027,45.778923,-0.061457,146.49,15.41,3.216,115.7,14 / 16,4602710,2019-08-09 23:51:59:937,1.4839,-1.3729,9.3604,1.3341,-1.3459,9.6218,-0.0315,0.0288,-0.0747
46028,45.778923,-0.061457,146.49,15.41,3.216,115.7,14 / 16,4602810,2019-08-09 23:52:00:037,1.4552,-0.3482,9.5998,1.3635,-1.3315,9.6197,-0.0031,0.0279,-0.0788
46029,45.778923,-0.061457,146.49,15.41,3.216,115.7,14 / 16,4602910,2019-08-09 23:52:00:137,1.9724,0.336,10.1295,1.3751,-1.323,9.6192,0.0025,0.0092,-0.1017
46030,45.778923,-0.061457,146.49,15.41,3.216,115.7,14 / 16,4603010,2019-08-09 23:52:00:237,1.5929,-1.9972,9.3377,1.3859,-1.3212,9.6179,0.0238,0.0119,-0.0878
46031,45.778923,-0.061457,146.49,15.41,3.216,115.7,14 / 16,4603111,2019-08-09 23:52:00:338,1.7407,-1.3975,9.926,1.3891,-1.3446,9.6142,0.0164,0.0005,-0.096
46032,45.778923,-0.061457,146.49,15.41,3.216,115.7,14 / 16,4603211,2019-08-09 23:52:00:438,1.709,-0.833,9.5298,1.3892,-1.3462,9.614,-0.0027,0.0087,-0.0903
46033,45.778923,-0.061457,146.49,15.41,3.216,115.7,14 / 16,4603310,2019-08-09 23:52:00:537,1.8963,-1.1712,9.3376,1.3919,-1.3334,9.6154,-0.0123,0.0136,-0.1012
46034,45.778923,-0.061457,146.49,15.41,3.216,115.7,14 / 16,4603410,2019-08-09 23:52:00:637,2.0083,-0.2596,9.8075,1.3853,-1.3175,9.6185,-0.0159,-0.0113,-0.0853
46035,45.778923,-0.061457,146.49,15.41,3.216,115.7,14 / 16,4603511,2019-08-09 23:52:00:738,1.8119,0.1073,9.7123,1.3743,-1.3043,9.6219,0.0143,-0.0091,-0.1005
46036,45.778923,-0.061457,146.49,15.41,3.216,115.7,14 / 16,4603610,2019-08-09 23:52:00:837,1.6539,0.6197,9.2443,1.3703,-1.3058,9.6222,0.0211,-0.009,-0.1197
46037,45.778923,-0.061457,146.49,15.41,3.216,115.7,14 / 16,4603710,2019-08-09 23:52:00:937,1.6671,-0.0238,9.8913,1.3596,-1.2987,9.6247,-0.0368,-0.0031,-0.088
46038,45.778923,-0.061457,146.49,15.41,3.216,115.7,14 / 16,4603810,2019-08-09 23:52:01:037,1.8724,0.1121,9.7878,1.3521,-1.2753,9.6289,-0.0407,-0.0197,-0.0957
46039,45.778923,-0.061457,146.49,15.41,3.216,115.7,14 / 16,4603910,2019-08-09 23:52:01:137,1.4444,-1.1724,9.3107,1.3338,-1.2603,9.6334,-0.0027,-0.008,-0.1053
46040,45.778923,-0.061457,146.49,15.41,3.216,115.7,14 / 16,4604010,2019-08-09 23:52:01:237,1.7748,-0.9539,9.8105,1.3286,-1.262,9.6339,0.0035,0.0078,-0.0993
46041,45.778923,-0.061457,146.49,15.41,3.216,115.7,14 / 16,4604111,2019-08-09 23:52:01:338,1.5815,-0.28,9.6669,1.3216,-1.2572,9.6355,-0.0277,-0.008,-0.0827
46042,45.778923,-0.061457,146.49,15.41,3.216,115.7,14 / 16,4604210,2019-08-09 23:52:01:437,1.6066,-1.6686,9.622,1.3124,-1.2608,9.6363,0.0153,0.002,-0.1065
46043,45.778923,-0.061457,146.49,15.41,3.216,115.7,14 / 16,4604311,2019-08-09 23:52:01:538,2.2824,-0.8043,9.7518,1.3155,-1.2811,9.6332,0.014,-0.0044,-0.1434
46044,45.778923,-0.061457,146.49,15.41,3.216,115.7,14 / 16,4604410,2019-08-09 23:52:01:637,1.6886,-1.8374,9.8464,1.3191,-1.2867,9.632,0.0144,0.0142,-0.117
46045,45.778923,-0.061457,146.49,15.41,3.216,115.7,14 / 16,4604510,2019-08-09 23:52:01:737,1.5611,-0.08,9.8728,1.3282,-1.3052,9.6282,0.001,0.0319,-0.1048
46046,45.778923,-0.061457,146.49,15.41,3.216,115.7,14 / 16,4604610,2019-08-09 23:52:01:837,2.0023,-1.8661,9.8739,1.3485,-1.335,9.6213,-0.002,0.0423,-0.0893
46047,45.778923,-0.061457,146.49,15.41,3.216,115.7,14 / 16,4604710,2019-08-09 23:52:01:937,2.1663,-2.1648,9.6399,1.4069,-1.3593,9.6095,0.0055,0.0523,-0.1463
46048,45.778923,-0.061457,146.49,15.41,3.216,115.7,14 / 16,4604810,2019-08-09 23:52:02:037,2.3039,-1.164,9.8327,1.4472,-1.3685,9.6022,0.0044,0.0703,-0.1173
46049,45.778923,-0.061457,146.49,15.41,3.216,115.7,14 / 16,4604910,2019-08-09 23:52:02:137,1.9245,-1.0874,9.0629,1.5173,-1.3572,9.593,-0.0341,0.0585,-0.1026
46050,45.778923,-0.061457,146.49,15.41,3.216,115.7,14 / 16,4605010,2019-08-09 23:52:02:237,2.6062,-1.2131,9.6561,1.5496,-1.3938,9.5826,0.0277,0.0541,-0.1554
46051,45.778923,-0.061457,146.49,15.41,3.216,115.7,14 / 16,4605110,2019-08-09 23:52:02:337,2.3327,-1.2089,9.8524,1.5955,-1.395,9.5749,-0.0357,0.0233,-0.1114
46052,45.778923,-0.061457,146.49,15.41,3.216,115.7,14 / 16,4605210,2019-08-09 23:52:02:437,2.2124,-2.1828,9.3604,1.6131,-1.3878,9.573,-0.0147,0.02,-0.1384
46053,45.778923,-0.061457,146.49,15.41,3.216,115.7,14 / 16,4605310,2019-08-09 23:52:02:537,2.5781,-1.665,9.8632,1.633,-1.4043,9.5672,-0.0198,-0.0026,-0.1311
46054,45.778923,-0.061457,146.49,15.41,3.216,115.7,14 / 16,4605410,2019-08-09 23:52:02:637,2.1034,-1.6117,9.8644,1.6372,-1.3994,9.5672,0.0075,0.0163,-0.0944
46055,45.778923,-0.061457,146.49,15.41,3.216,115.7,14 / 16,4605510,2019-08-09 23:52:02:737,1.5725,-0.7115,9.7195,1.642,-1.4225,9.563,0.0142,0.0272,-0.1002
46056,45.778923,-0.061457,146.49,15.41,3.216,115.7,13 / 15,4605610,2019-08-09 23:52:02:837,1.8622,-1.1401,9.4807,1.6511,-1.4429,9.5584,-0.0106,0.0243,-0.1034
46057,45.778923,-0.061457,146.49,15.41,3.216,115.7,13 / 15,4605710,2019-08-09 23:52:02:937,2.0932,-1.3867,9.7842,1.6636,-1.4605,9.5535,-0.0057,0.0127,-0.1103
46058,45.778923,-0.061457,146.49,15.41,3.216,115.7,13 / 15,4605810,2019-08-09 23:52:03:037,1.6342,-1.2568,9.3652,1.6732,-1.4478,9.5538,-0.0195,0.0203,-0.0752
46059,45.778923,-0.061457,146.49,15.41,3.216,115.7,13 / 15,4605910,2019-08-09 23:52:03:137,2.1441,-1.9787,9.9452,1.6699,-1.4764,9.55,-0.0082,-0.0062,-0.0874
46060,45.778923,-0.061457,146.49,15.41,3.216,115.7,13 / 15,4606010,2019-08-09 23:52:03:237,1.3391,-1.0802,9.6477,1.6616,-1.4784,9.5511,-0.007,0.0029,-0.0617
46061,45.778923,-0.061457,146.49,15.41,3.216,115.7,13 / 15,4606110,2019-08-09 23:52:03:337,1.4307,-1.8374,9.5651,1.6453,-1.4928,9.5517,0.0,0.0018,-0.0571
46062,45.778923,-0.061457,146.49,15.41,3.216,115.7,13 / 15,4606210,2019-08-09 23:52:03:437,1.5055,-2.2803,9.4999,1.6415,-1.4933,9.5523,-0.0498,0.0078,-0.0658
46063,45.778923,-0.061457,146.49,15.41,3.216,115.7,13 / 15,4606311,2019-08-09 23:52:03:538,1.7545,-1.498,9.598,1.6304,-1.4821,9.5559,0.0141,0.0181,-0.0819
46064,45.778923,-0.061457,146.49,15.41,3.216,115.7,13 / 15,4606410,2019-08-09 23:52:03:637,1.351,-0.5691,9.3454,1.6325,-1.462,9.5587,-0.0426,0.0086,-0.0469
46065,45.778923,-0.061457,146.49,15.41,3.216,115.7,13 / 15,4606510,2019-08-09 23:52:03:737,0.9979,-1.0473,9.5483,1.6118,-1.451,9.5638,-0.0187,0.0064,-0.0422
46066,45.778923,-0.061457,146.49,15.41,3.216,115.7,14 / 17,4606610,2019-08-09 23:52:03:837,1.5743,-1.4214,9.4777,1.6054,-1.4734,9.5615,-0.0287,-0.0135,-0.0513
46067,45.778923,-0.061457,146.49,15.41,3.216,115.7,14 / 17,4606710,2019-08-09 23:52:03:937,0.8746,-1.9122,8.9785,1.5639,-1.4698,9.5689,-0.0467,-0.007,-0.0145
46068,45.778923,-0.061457,146.49,15.41,3.216,115.7,14 / 17,4606810,2019-08-09 23:52:04:037,0.7196,-0.9294,9.1437,1.5519,-1.4542,9.5733,-0.013,0.0006,-0.0681
46069,45.778923,-0.061457,146.49,15.41,3.216,115.7,14 / 17,4606910,2019-08-09 23:52:04:137,0.7722,-0.684,9.5346,1.5406,-1.4502,9.5757,0.0165,0.0011,-0.0468
46070,45.778923,-0.061457,146.49,15.41,3.216,115.7,14 / 17,4607010,2019-08-09 23:52:04:237,1.0727,-0.3356,9.7135,1.516,-1.4468,9.5801,-0.0163,-0.0047,-0.0263
46071,45.778923,-0.061457,146.49,15.41,3.216,115.7,14 / 17,4607110,2019-08-09 23:52:04:337,0.6735,-1.2472,9.7004,1.5089,-1.437,9.5827,0.0046,0.0024,-0.0492
46072,45.778923,-0.061457,146.49,15.41,3.216,115.7,14 / 17,4607210,2019-08-09 23:52:04:437,0.889,-0.8647,9.8602,1.486,-1.4489,9.5845,0.0243,0.0131,-0.0721
46073,45.778923,-0.061457,146.49,15.41,3.216,115.7,14 / 17,4607310,2019-08-09 23:52:04:537,0.9051,-0.9198,9.2982,1.4868,-1.4476,9.5846,0.0225,0.0066,-0.0418
46074,45.778923,-0.061457,146.49,15.41,3.216,115.7,14 / 17,4607410,2019-08-09 23:52:04:637,0.8357,-0.8624,9.3197,1.4806,-1.4215,9.5895,-0.0282,0.0154,-0.0241
46075,45.778923,-0.061457,146.49,15.41,3.216,115.7,14 / 17,4607510,2019-08-09 23:52:04:737,1.2008,-1.741,9.786,1.4732,-1.434,9.5887,0.0115,0.0039,-0.0499
46076,45.778923,-0.061457,146.49,15.41,3.216,115.7,Dec-16,4607611,2019-08-09 23:52:04:838,0.7585,-1.2215,9.695,1.4453,-1.4145,9.5959,0.0018,-0.0094,-0.0086
46077,45.778923,-0.061457,146.49,15.41,3.216,115.7,Dec-16,4607710,2019-08-09 23:52:04:937,1.3618,-1.6423,10.1349,1.4383,-1.4224,9.5958,0.0083,0.0226,-0.0483
46078,45.778923,-0.061457,146.49,15.41,3.216,115.7,Dec-16,4607810,2019-08-09 23:52:05:037,1.2355,-0.7624,9.8021,1.4448,-1.4411,9.592,0.014,0.0197,-0.0559
46079,45.778923,-0.061457,146.49,15.41,3.216,115.7,Dec-16,4607911,2019-08-09 23:52:05:138,1.0302,-0.6511,9.3281,1.457,-1.4371,9.5907,-0.006,0.0375,-0.0636
46080,45.778923,-0.061457,146.49,15.41,3.216,115.7,Dec-16,4608010,2019-08-09 23:52:05:237,1.6479,-1.1257,9.9488,1.4838,-1.4325,9.5873,-0.0104,-0.0054,-0.0752
46081,45.778923,-0.061457,146.49,15.41,3.216,115.7,Dec-16,4608110,2019-08-09 23:52:05:337,1.4337,-0.5936,9.6705,1.4765,-1.4296,9.5889,0.0045,0.0047,-0.0058
46082,45.778923,-0.061457,146.49,15.41,3.216,115.7,Dec-16,4608210,2019-08-09 23:52:05:437,1.2679,-0.6463,9.5513,1.4717,-1.4266,9.5901,0.0021,0.0198,-0.0248
46083,45.778923,-0.061457,146.49,15.41,3.216,115.7,Dec-16,4608311,2019-08-09 23:52:05:538,1.3229,-1.4813,9.5124,1.474,-1.4228,9.5903,-0.0108,0.0055,-0.0465
46084,45.778923,-0.061457,146.49,15.41,3.216,115.7,Dec-16,4608411,2019-08-09 23:52:05:638,0.9781,-0.6906,9.5944,1.4596,-1.4117,9.5941,-0.0116,0.0033,-0.0365
46085,45.778923,-0.061457,146.49,15.41,3.216,115.7,Dec-16,4608510,2019-08-09 23:52:05:737,0.971,-0.5415,9.631,1.4558,-1.3959,9.597,0.0053,0.0054,-0.0412
46086,45.778923,-0.061457,146.49,15.41,3.216,115.7,13 / 17,4608610,2019-08-09 23:52:05:837,0.6926,-1.3484,9.4089,1.442,-1.3924,9.5996,0.0182,0.0011,-0.0369
46087,45.778923,-0.061457,146.49,15.41,3.216,115.7,13 / 17,4608710,2019-08-09 23:52:05:937,0.944,-0.5924,9.6441,1.4322,-1.3965,9.6005,-0.0278,0.0096,-0.0133
46088,45.778923,-0.061457,146.49,15.41,3.216,115.7,13 / 17,4608811,2019-08-09 23:52:06:038,1.038,-0.8749,9.9033,1.4173,-1.3872,9.604,-0.0341,0.0051,-0.0063
46089,45.778923,-0.061457,146.49,15.41,3.216,115.7,13 / 17,4608911,2019-08-09 23:52:06:138,0.7926,-1.1987,9.8057,1.4092,-1.3769,9.6067,-0.0245,0.0053,-0.0065
46090,45.778923,-0.061457,146.49,15.41,3.216,115.7,13 / 17,4609010,2019-08-09 23:52:06:237,0.786,-0.7941,9.7058,1.385,-1.3756,9.6104,0.024,-0.0069,-0.0173
46091,45.778923,-0.061457,146.49,15.41,3.216,115.7,13 / 17,4609111,2019-08-09 23:52:06:338,0.798,-1.1449,9.9865,1.3626,-1.3727,9.614,0.0189,-0.0175,-0.0095
46092,45.778923,-0.061457,146.49,15.41,3.216,115.7,13 / 17,4609210,2019-08-09 23:52:06:437,0.4945,-0.4751,9.8021,1.3232,-1.37,9.6199,0.0032,-0.01,-0.0086
46093,45.778923,-0.061457,146.49,15.41,3.216,115.7,13 / 17,4609311,2019-08-09 23:52:06:538,0.5771,-0.9138,9.7985,1.295,-1.3604,9.6251,0.0141,-0.016,0.0191
46094,45.778923,-0.061457,146.49,15.41,3.216,115.7,13 / 17,4609410,2019-08-09 23:52:06:637,0.4059,-1.091,9.9667,1.242,-1.3173,9.6381,-0.0128,-0.012,0.0145
46095,45.778923,-0.061457,146.49,15.41,3.216,115.7,13 / 17,4609510,2019-08-09 23:52:06:737,-0.1417,-1.8733,9.3939,1.2173,-1.317,9.6413,-0.0161,-0.0025,0.0297
46096,45.778923,-0.061457,146.49,15.41,3.216,115.7,13 / 17,4609611,2019-08-09 23:52:06:838,0.2473,-0.7624,9.5513,1.1786,-1.2852,9.6504,0.0089,-0.0093,-0.0165
46097,45.778923,-0.061457,146.49,15.41,3.216,115.7,13 / 17,4609711,2019-08-09 23:52:06:938,0.4592,0.5945,9.856,1.1572,-1.2763,9.6541,-0.0348,0.0002,0.055
46098,45.778923,-0.061457,146.49,15.41,3.216,115.7,13 / 17,4609811,2019-08-09 23:52:07:038,0.2449,-2.0726,9.4975,1.1288,-1.2358,9.6628,0.0219,0.0018,-0.0027
46099,45.778923,-0.061457,146.49,15.41,3.216,115.7,13 / 17,4609910,2019-08-09 23:52:07:137,0.1115,-0.9868,9.8775,1.1174,-1.2351,9.6642,0.0073,-0.0048,0.0184
46100,45.778923,-0.061457,146.49,15.41,3.216,115.7,13 / 17,4610010,2019-08-09 23:52:07:237,0.4832,0.1366,10.1577,1.0931,-1.2045,9.6708,0.0115,-0.0023,0.0032
46101,45.778923,-0.061457,146.49,15.41,3.216,115.7,13 / 17,4610110,2019-08-09 23:52:07:337,0.2389,-0.4577,9.6375,1.077,-1.214,9.6714,-0.0131,0.0051,0.0388
46102,45.778923,-0.061457,146.49,15.41,3.216,115.7,13 / 17,4610211,2019-08-09 23:52:07:438,0.0175,-0.672,9.5034,1.0592,-1.2083,9.6741,-0.0077,-0.0039,0.025
46103,45.778923,-0.061457,146.49,15.41,3.216,115.7,13 / 17,4610311,2019-08-09 23:52:07:538,0.2024,-1.2652,10.008,1.0471,-1.2029,9.6761,0.0366,-0.0027,0.0056
46104,45.778923,-0.061457,146.49,15.41,3.216,115.7,13 / 17,4610410,2019-08-09 23:52:07:637,0.0061,-1.3633,9.446,1.0327,-1.2027,9.6777,0.0372,0.0214,-0.0108
46105,45.778923,-0.061457,146.49,15.41,3.216,115.7,13 / 17,4610511,2019-08-09 23:52:07:738,0.7962,-1.5261,9.7704,1.0345,-1.1901,9.6791,-0.0058,0.0289,0.0131
46106,45.777977,-0.060298,146.98,16.32,3.216,148.9,Dec-17,4610610,2019-08-09 23:52:07:837,1.6994,-0.2243,9.2796,1.0408,-1.191,9.6783,-0.0307,0.0014,-0.0654
46107,45.777977,-0.060298,146.98,16.32,3.216,148.9,Dec-17,4610710,2019-08-09 23:52:07:937,0.4706,0.0648,9.9757,1.0182,-1.1635,9.684,0.0039,-0.0124,-0.0061
46108,45.777977,-0.060298,146.98,16.32,3.216,148.9,Dec-17,4610810,2019-08-09 23:52:08:037,0.9141,-1.1999,9.844,1.0057,-1.1569,9.6861,-0.0121,-0.009,-0.024
46109,45.777977,-0.060298,146.98,16.32,3.216,148.9,Dec-17,4610912,2019-08-09 23:52:08:139,-0.0334,-0.7522,9.1222,0.9985,-1.1572,9.6868,0.0074,0.0226,0.0045
46110,45.777977,-0.060298,146.98,16.32,3.216,148.9,Dec-17,4611011,2019-08-09 23:52:08:238,0.2808,-0.1968,9.4352,0.9976,-1.1571,9.6869,-0.0165,0.0146,-0.015
46111,45.777977,-0.060298,146.98,16.32,3.216,148.9,Dec-17,4611111,2019-08-09 23:52:08:338,1.0566,-1.4795,9.6441,0.9999,-1.1439,9.6882,-0.013,-0.001,0.0026
46112,45.777977,-0.060298,146.98,16.32,3.216,148.9,Dec-17,4611211,2019-08-09 23:52:08:438,0.8004,-1.5046,9.452,0.985,-1.1157,9.693,0.0144,-0.0051,0.0133
46113,45.777977,-0.060298,146.98,16.32,3.216,148.9,Dec-17,4611311,2019-08-09 23:52:08:538,0.6412,-0.4266,9.85,0.9632,-1.1176,9.695,0.0029,-0.0114,-0.0137
46114,45.777977,-0.060298,146.98,16.32,3.216,148.9,Dec-17,4611411,2019-08-09 23:52:08:638,0.4772,-1.6105,9.8458,0.9451,-1.1181,9.6968,0.0208,-0.014,0.0054
46115,45.777977,-0.060298,146.98,16.32,3.216,148.9,Dec-17,4611511,2019-08-09 23:52:08:738,0.0031,-0.4625,9.7297,0.9123,-1.121,9.6996,0.0034,-0.004,0.0263
46116,45.777977,-0.060298,146.98,16.32,3.216,148.9,Dec-17,4611610,2019-08-09 23:52:08:837,0.4431,-0.7863,9.6657,0.9074,-1.1318,9.6988,0.0042,0.0098,0.0068
46117,45.777977,-0.060298,146.98,16.32,3.216,148.9,Dec-17,4611710,2019-08-09 23:52:08:937,0.3024,-0.5439,9.7255,0.9037,-1.1222,9.7002,0.0053,0.0083,0.0018
46118,45.777977,-0.060298,146.98,16.32,3.216,148.9,Dec-17,4611811,2019-08-09 23:52:09:038,0.7082,-1.2951,9.7584,0.8948,-1.1278,9.7004,0.0072,-0.0035,-0.0022
46119,45.777977,-0.060298,146.98,16.32,3.216,148.9,Dec-17,4611911,2019-08-09 23:52:09:138,0.5879,-0.5858,9.7423,0.8776,-1.1179,9.7031,-0.0085,0.0008,0.0042
46120,45.777977,-0.060298,146.98,16.32,3.216,148.9,Dec-17,4612010,2019-08-09 23:52:09:237,0.0923,-1.2766,9.5729,0.8768,-1.119,9.7031,0.0179,0.0095,0.0043
46121,45.777977,-0.060298,146.98,16.32,3.216,148.9,Dec-17,4612110,2019-08-09 23:52:09:337,0.5125,-0.7361,9.5878,0.8756,-1.1128,9.7039,-0.0057,0.0042,-0.0144
46122,45.777977,-0.060298,146.98,16.32,3.216,148.9,Dec-17,4612210,2019-08-09 23:52:09:437,0.4658,-0.2913,9.4226,0.8775,-1.1013,9.705,-0.0305,0.0095,0.0233
46123,45.777977,-0.060298,146.98,16.32,3.216,148.9,Dec-17,4612311,2019-08-09 23:52:09:538,0.8411,-1.3586,9.7788,0.8663,-1.0712,9.7094,-0.0191,-0.005,0.0232
46124,45.777977,-0.060298,146.98,16.32,3.216,148.9,Dec-17,4612410,2019-08-09 23:52:09:637,0.5107,-1.5633,9.78,0.8536,-1.0663,9.7111,0.0133,-0.0125,-0.0034
46125,45.777977,-0.060298,146.98,16.32,3.216,148.9,Dec-17,4612510,2019-08-09 23:52:09:737,0.7339,-1.7183,9.592,0.8408,-1.0582,9.7131,0.0266,0.0029,-0.0208
46126,45.777977,-0.060298,146.98,16.32,3.216,148.9,Dec-17,4612611,2019-08-09 23:52:09:838,0.3515,-0.4176,9.9446,0.8377,-1.0579,9.7134,0.0024,0.0011,0.0188
46127,45.777977,-0.060298,146.98,16.32,3.216,148.9,Dec-17,4612710,2019-08-09 23:52:09:937,0.5508,-0.7923,9.4203,0.8199,-1.0408,9.7167,-0.0045,-0.0092,0.0027
46128,45.777977,-0.060298,146.98,16.32,3.216,148.9,Dec-17,4612810,2019-08-09 23:52:10:037,0.3419,-0.3231,9.5687,0.8116,-1.0423,9.7173,0.0231,0.0071,-0.0215
46129,45.777977,-0.060298,146.98,16.32,3.216,148.9,Dec-17,4612910,2019-08-09 23:52:10:137,0.8908,-0.9874,10.0733,0.8093,-1.0373,9.718,-0.0194,0.0014,0.012
46130,45.777977,-0.060298,146.98,16.32,3.216,148.9,Dec-17,4613011,2019-08-09 23:52:10:238,0.7016,-1.7566,9.4023,0.7997,-1.0357,9.719,-0.0035,-0.01,-0.0275
46131,45.777977,-0.060298,146.98,16.32,3.216,148.9,Dec-17,4613110,2019-08-09 23:52:10:337,0.7627,-0.4021,9.8757,0.7986,-1.035,9.7191,-0.0025,0.0148,-0.0201
46132,45.777977,-0.060298,146.98,16.32,3.216,148.9,Dec-17,4613210,2019-08-09 23:52:10:437,0.8938,-0.1842,9.6687,0.8006,-1.0173,9.7208,0.0207,-0.006,0.0047
46133,45.777977,-0.060298,146.98,16.32,3.216,148.9,Dec-17,4613310,2019-08-09 23:52:10:537,0.9482,-0.1459,9.7902,0.7817,-1.0201,9.7221,0.0044,-0.0196,0.0136
46134,45.777977,-0.060298,146.98,16.32,3.216,148.9,Dec-17,4613412,2019-08-09 23:52:10:639,0.145,-0.2303,9.9733,0.7693,-1.0256,9.7225,0.0195,-0.0048,-0.0038
46135,45.777977,-0.060298,146.98,16.32,3.216,148.9,Dec-17,4613510,2019-08-09 23:52:10:737,0.4221,-1.0856,9.5992,0.7557,-1.0183,9.7243,0.0096,0.0196,0.0078
46136,45.777977,-0.060298,146.98,16.32,3.216,148.9,Dec-16,4613610,2019-08-09 23:52:10:837,0.9925,-1.2221,10.0487,0.7758,-1.036,9.7209,0.0078,0.0088,-0.0149
46137,45.777977,-0.060298,146.98,16.32,3.216,148.9,Dec-16,4613710,2019-08-09 23:52:10:937,1.2092,-0.7007,10.1882,0.7835,-1.0402,9.7198,-0.0158,0.0043,0.0176
46138,45.777977,-0.060298,146.98,16.32,3.216,148.9,Dec-16,4613810,2019-08-09 23:52:11:037,0.6998,0.1372,10.002,0.7778,-1.0367,9.7206,0.0086,-0.0003,-0.0129
46139,45.777977,-0.060298,146.98,16.32,3.216,148.9,Dec-16,4613910,2019-08-09 23:52:11:137,0.4269,-1.2137,9.774,0.7734,-1.0376,9.7209,0.0094,0.0004,-0.0042
46140,45.777977,-0.060298,146.98,16.32,3.216,148.9,Dec-16,4614010,2019-08-09 23:52:11:237,0.282,-0.5325,9.3299,0.7791,-1.0161,9.7227,-0.0227,0.0138,0.0119
46141,45.777977,-0.060298,146.98,16.32,3.216,148.9,Dec-16,4614110,2019-08-09 23:52:11:337,0.698,-0.5517,9.7884,0.7839,-1.0085,9.7231,-0.0059,0.0181,-0.0066
46142,45.777977,-0.060298,146.98,16.32,3.216,148.9,Dec-16,4614210,2019-08-09 23:52:11:437,0.938,0.066,9.6698,0.8005,-0.9746,9.7252,-0.0142,0.0045,-0.0124
46143,45.777977,-0.060298,146.98,16.32,3.216,148.9,Dec-16,4614310,2019-08-09 23:52:11:537,0.9345,0.142,9.6603,0.8025,-0.972,9.7253,-0.0054,0.0107,-0.0193
46144,45.777977,-0.060298,146.98,16.32,3.216,148.9,Dec-16,4614411,2019-08-09 23:52:11:638,0.9416,-0.1992,9.1377,0.8179,-0.9431,9.7269,0.0118,0.0045,-0.0285
46145,45.777977,-0.060298,146.98,16.32,3.216,148.9,Dec-16,4614510,2019-08-09 23:52:11:737,0.7417,-0.4823,9.6196,0.8218,-0.9418,9.7267,-0.0222,-0.0012,-0.0227
46146,45.777977,-0.060298,146.98,16.32,3.216,148.9,13 / 16,4614610,2019-08-09 23:52:11:837,0.7046,-0.6152,9.8728,0.819,-0.9173,9.7292,0.0063,-0.0137,-0.0131
46147,45.777977,-0.060298,146.98,16.32,3.216,148.9,13 / 16,4614710,2019-08-09 23:52:11:937,0.8692,-0.8953,9.2221,0.8095,-0.9225,9.7295,-0.0157,0.0028,-0.0169
46148,45.777977,-0.060298,146.98,16.32,3.216,148.9,13 / 16,4614810,2019-08-09 23:52:12:037,0.8147,-1.3669,9.759,0.8126,-0.9203,9.7295,0.0094,0.002,-0.0318
46149,45.777977,-0.060298,146.98,16.32,3.216,148.9,13 / 16,4614910,2019-08-09 23:52:12:137,0.0791,0.4185,8.7427,0.818,-0.9131,9.7297,-0.0749,0.0312,0.0209
46150,45.777977,-0.060298,146.98,16.32,3.216,148.9,13 / 16,4615010,2019-08-09 23:52:12:237,0.695,-0.7031,9.7979,0.8424,-0.9229,9.7267,-0.0063,0.0036,-0.0078
46151,45.777977,-0.060298,146.98,16.32,3.216,148.9,13 / 16,4615110,2019-08-09 23:52:12:337,0.7076,-0.3667,10.4833,0.8473,-0.9126,9.7273,-0.0201,0.0137,-0.0253
46152,45.777977,-0.060298,146.98,16.32,3.216,148.9,13 / 16,4615210,2019-08-09 23:52:12:437,0.9674,0.1971,9.5298,0.8505,-0.942,9.7242,-0.0464,-0.0133,-0.0254
46153,45.777977,-0.060298,146.98,16.32,3.216,148.9,13 / 16,4615310,2019-08-09 23:52:12:537,0.8094,-0.5457,9.4412,0.8457,-0.9474,9.7241,-0.0038,-0.0036,-0.0163
46154,45.777977,-0.060298,146.98,16.32,3.216,148.9,13 / 16,4615410,2019-08-09 23:52:12:637,0.6262,-0.924,10.1595,0.8537,-0.9476,9.7234,0.0183,0.0362,-0.006
46155,45.777977,-0.060298,146.98,16.32,3.216,148.9,13 / 16,4615511,2019-08-09 23:52:12:738,1.4414,-1.0024,9.7105,0.8781,-0.9551,9.7204,0.002,0.0556,-0.0624
46156,45.777977,-0.060298,146.98,16.32,3.216,148.9,Dec-15,4615610,2019-08-09 23:52:12:837,1.1972,-2.5024,9.3179,0.9716,-0.9689,9.7102,-0.0177,0.0854,-0.0648
46157,45.777977,-0.060298,146.98,16.32,3.216,148.9,Dec-15,4615710,2019-08-09 23:52:12:937,1.9215,0.2863,9.1731,1.0125,-0.9614,9.7067,-0.0222,0.053,-0.0572
46158,45.777977,-0.060298,146.98,16.32,3.216,148.9,Dec-15,4615811,2019-08-09 23:52:13:038,1.5887,-0.0064,9.3089,1.0596,-0.9313,9.7047,-0.0042,-0.0019,-0.0207
46159,45.777977,-0.060298,146.98,16.32,3.216,148.9,Dec-15,4615911,2019-08-09 23:52:13:138,0.1432,-0.7708,8.869,1.0447,-0.9483,9.7046,0.0329,-0.002,0.0222
46160,45.777977,-0.060298,146.98,16.32,3.216,148.9,Dec-15,4616010,2019-08-09 23:52:13:237,1.1739,-0.742,10.3366,1.0349,-0.9661,9.7039,0.0023,0.001,-0.0408
46161,45.777977,-0.060298,146.98,16.32,3.216,148.9,Dec-15,4616111,2019-08-09 23:52:13:338,0.5867,-0.9875,9.7423,1.0467,-0.9676,9.7025,0.0161,0.0233,0.0236
46162,45.777977,-0.060298,146.98,16.32,3.216,148.9,Dec-15,4616211,2019-08-09 23:52:13:438,1.2254,-0.8815,9.5501,1.0632,-0.9636,9.7011,-0.0285,0.0158,-0.0153
46163,45.777977,-0.060298,146.98,16.32,3.216,148.9,Dec-15,4616310,2019-08-09 23:52:13:537,0.8626,0.4868,9.6974,1.0698,-0.9554,9.7012,-0.0084,0.0014,-0.0204
46164,45.777977,-0.060298,146.98,16.32,3.216,148.9,Dec-15,4616410,2019-08-09 23:52:13:637,0.9255,-1.2634,9.7542,1.0681,-0.9403,9.7029,-0.0272,0.0005,-0.0066
46165,45.777977,-0.060298,146.98,16.32,3.216,148.9,Dec-15,4616511,2019-08-09 23:52:13:738,1.1033,0.5849,10.2672,1.0703,-0.9447,9.7022,0.0067,-0.0025,-0.0175
46166,45.777977,-0.060298,146.98,16.32,3.216,148.9,13 / 16,4616610,2019-08-09 23:52:13:837,0.5783,-0.9695,8.7397,1.0717,-0.8977,9.7065,-0.0699,0.0173,-0.0081
46167,45.777977,-0.060298,146.98,16.32,3.216,148.9,13 / 16,4616710,2019-08-09 23:52:13:937,0.6077,-1.3436,8.5793,1.0936,-0.8326,9.7098,-0.003,0.0138,-0.0422
46168,45.777977,-0.060298,146.98,16.32,3.216,148.9,13 / 16,4616810,2019-08-09 23:52:14:037,0.8171,0.5437,9.6537,1.0964,-0.8168,9.7109,0.0124,-0.0051,0.0011
46169,45.777977,-0.060298,146.98,16.32,3.216,148.9,13 / 16,4616911,2019-08-09 23:52:14:138,1.1529,0.9255,10.3522,1.0817,-0.7822,9.7154,0.0225,-0.0172,-0.0181
46170,45.777977,-0.060298,146.98,16.32,3.216,148.9,13 / 16,4617010,2019-08-09 23:52:14:237,0.5801,0.2061,9.3843,1.0718,-0.7823,9.7165,-0.0048,0.0107,0.0053
46171,45.777977,-0.060298,146.98,16.32,3.216,148.9,13 / 16,4617110,2019-08-09 23:52:14:337,0.5639,-0.2099,9.6004,1.0694,-0.7866,9.7164,0.0213,0.0153,-0.0065
46172,45.777977,-0.060298,146.98,16.32,3.216,148.9,13 / 16,4617210,2019-08-09 23:52:14:437,0.5257,0.7118,9.762,1.0725,-0.7647,9.7178,-0.0067,0.0036,-0.0248
46173,45.777977,-0.060298,146.98,16.32,3.216,148.9,13 / 16,4617310,2019-08-09 23:52:14:537,0.7453,1.3894,10.1403,1.071,-0.7184,9.7215,-0.0032,-0.0001,0.0168
46174,45.777977,-0.060298,146.98,16.32,3.216,148.9,13 / 16,4617410,2019-08-09 23:52:14:637,0.4508,1.7683,10.2439,1.0706,-0.7077,9.7223,0.0096,0.014,0.0162
46175,45.777977,-0.060298,146.98,16.32,3.216,148.9,13 / 16,4617510,2019-08-09 23:52:14:737,0.3742,0.7154,9.5334,1.0763,-0.6751,9.724,0.0212,0.0211,0.0071
46176,45.777977,-0.060298,146.98,16.32,3.216,148.9,14 / 17,4617610,2019-08-09 23:52:14:837,0.6831,0.2845,9.4364,1.0833,-0.6582,9.7244,-0.0276,0.0101,-0.0063
46177,45.777977,-0.060298,146.98,16.32,3.216,148.9,14 / 17,4617710,2019-08-09 23:52:14:937,1.0464,1.7156,10.0122,1.08,-0.5781,9.7298,-0.033,-0.0075,0.0098
46178,45.777977,-0.060298,146.98,16.32,3.216,148.9,14 / 17,4617810,2019-08-09 23:52:15:037,0.8435,1.3403,10.3821,1.0704,-0.5438,9.7329,-0.0048,-0.0127,0.0113
46179,45.777977,-0.060298,146.98,16.32,3.216,148.9,14 / 17,4617910,2019-08-09 23:52:15:137,0.3479,0.4,10.2289,1.0394,-0.4943,9.7389,0.0105,0.001,0.0256
46180,45.777977,-0.060298,146.98,16.32,3.216,148.9,14 / 17,4618011,2019-08-09 23:52:15:238,0.4353,0.7735,9.6513,1.0313,-0.4734,9.7408,0.0028,0.0153,0.038
46181,45.777977,-0.060298,146.98,16.32,3.216,148.9,14 / 17,4618110,2019-08-09 23:52:15:337,0.7872,0.0917,9.7225,1.0258,-0.4291,9.7434,-0.004,-0.0007,0.0312
46182,45.777977,-0.060298,146.98,16.32,3.216,148.9,14 / 17,4618210,2019-08-09 23:52:15:437,0.1929,1.6558,10.1822,1.0127,-0.3903,9.7464,-0.0096,0.0084,0.0472
46183,45.777977,-0.060298,146.98,16.32,3.216,148.9,14 / 17,4618311,2019-08-09 23:52:15:538,0.889,2.2986,9.7225,1.012,-0.3561,9.7478,-0.0626,-0.0008,0.0478
46184,45.777977,-0.060298,146.98,16.32,3.216,148.9,14 / 17,4618411,2019-08-09 23:52:15:638,0.6172,0.8004,9.7135,1.0,-0.3,9.7509,0.0396,-0.0117,0.0207
46185,45.777977,-0.060298,146.98,16.32,3.216,148.9,14 / 17,4618510,2019-08-09 23:52:15:737,0.6591,1.8329,9.5262,0.9766,-0.25,9.7547,-0.0122,-0.0094,0.0445
46186,45.777977,-0.060298,146.98,16.32,3.216,148.9,14 / 17,4618610,2019-08-09 23:52:15:837,0.728,0.8962,9.9823,0.9562,-0.2319,9.7572,0.0139,-0.0295,0.0155
46187,45.777977,-0.060298,146.98,16.32,3.216,148.9,14 / 17,4618710,2019-08-09 23:52:15:937,0.8321,0.4168,10.1547,0.9142,-0.1888,9.7621,0.0014,-0.0186,0.0381
46188,45.777977,-0.060298,146.98,16.32,3.216,148.9,14 / 17,4618810,2019-08-09 23:52:16:037,0.698,1.8365,10.1056,0.8983,-0.16,9.7641,0.0168,-0.0142,0.0171
46189,45.777977,-0.060298,146.98,16.32,3.216,148.9,14 / 17,4618911,2019-08-09 23:52:16:138,0.4287,-0.1064,9.625,0.8456,-0.1525,9.7689,0.0392,-0.048,0.0028
46190,45.777977,-0.060298,146.98,16.32,3.216,148.9,14 / 17,4619011,2019-08-09 23:52:16:238,0.3593,2.4357,9.9057,0.8164,-0.1352,9.7717,-0.03,-0.0469,0.0434
46191,45.777977,-0.060298,146.98,16.32,3.216,148.9,14 / 17,4619110,2019-08-09 23:52:16:337,-0.0783,0.9118,9.6465,0.7692,-0.1064,9.7759,0.0112,-0.0013,0.0467
46192,45.777977,-0.060298,146.98,16.32,3.216,148.9,14 / 17,4619210,2019-08-09 23:52:16:437,0.5502,1.0279,10.0703,0.7576,-0.1218,9.7766,-0.0086,0.0126,0.0408
46193,45.777977,-0.060298,146.98,16.32,3.216,148.9,14 / 17,4619311,2019-08-09 23:52:16:538,0.6735,0.4245,9.9823,0.7552,-0.0763,9.7772,-0.0047,0.005,-0.0066
46194,45.777977,-0.060298,146.98,16.32,3.216,148.9,14 / 17,4619410,2019-08-09 23:52:16:637,0.5813,1.1596,9.5902,0.7585,-0.0568,9.7771,-0.0194,0.0273,0.0363
46195,45.777977,-0.060298,146.98,16.32,3.216,148.9,14 / 17,4619510,2019-08-09 23:52:16:737,1.4564,0.5706,9.9847,0.7819,-0.0082,9.7754,-0.0351,0.0241,0.0536
46196,45.776897,-0.059427,146.4,11.27,3.216,150.3,14 / 16,4619610,2019-08-09 23:52:16:837,0.473,1.1524,9.4167,0.7968,0.0323,9.7742,0.0403,0.0079,-0.0304
46197,45.776897,-0.059427,146.4,11.27,3.216,150.3,14 / 16,4619711,2019-08-09 23:52:16:938,0.6525,0.3252,9.4963,0.8128,0.0551,9.7728,0.0519,0.0133,0.0154
46198,45.776897,-0.059427,146.4,11.27,3.216,150.3,14 / 16,4619811,2019-08-09 23:52:17:038,-0.2537,3.2216,7.4367,0.8289,0.0563,9.7714,-0.1057,0.0523,0.0295
46199,45.776897,-0.059427,146.4,11.27,3.216,150.3,14 / 16,4619911,2019-08-09 23:52:17:138,2.1872,1.6504,10.8963,0.903,0.0929,9.7645,-0.0802,0.0184,0.0441
46200,45.776897,-0.059427,146.4,11.27,3.216,150.3,14 / 16,4620010,2019-08-09 23:52:17:237,1.87,0.8447,10.5401,0.8995,0.0874,9.7649,-0.0211,0.0029,0.0374
46201,45.776897,-0.059427,146.4,11.27,3.216,150.3,14 / 16,4620110,2019-08-09 23:52:17:337,0.4006,0.7849,10.348,0.9109,0.1446,9.7632,0.0341,0.0286,-0.088
46202,45.776897,-0.059427,146.4,11.27,3.216,150.3,14 / 16,4620210,2019-08-09 23:52:17:437,1.8885,0.9429,10.0942,0.9509,0.1273,9.7596,-0.002,0.0011,0.0071
46203,45.776897,-0.059427,146.4,11.27,3.216,150.3,14 / 16,4620310,2019-08-09 23:52:17:537,0.6172,0.6239,9.6106,0.9439,0.1564,9.7599,-0.0071,-0.0067,-0.0461
46204,45.776897,-0.059427,146.4,11.27,3.216,150.3,14 / 16,4620410,2019-08-09 23:52:17:637,0.7441,0.9608,9.8925,0.9501,0.1788,9.7589,-0.0049,0.0032,0.0149
46205,45.776897,-0.059427,146.4,11.27,3.216,150.3,14 / 16,4620511,2019-08-09 23:52:17:738,1.3307,1.5594,10.1373,0.942,0.2085,9.7591,-0.0047,-0.0182,-0.0425
46206,45.776897,-0.059427,146.4,11.27,3.216,150.3,14 / 17,4620611,2019-08-09 23:52:17:838,0.8004,1.0943,10.1607,0.9451,0.2304,9.7583,0.0151,0.0118,-0.0144
46207,45.776897,-0.059427,146.4,11.27,3.216,150.3,14 / 17,4620710,2019-08-09 23:52:17:937,0.7812,1.6797,9.5549,0.9507,0.2397,9.7575,-0.0012,0.0056,-0.0212
46208,45.776897,-0.059427,146.4,11.27,3.216,150.3,14 / 17,4620810,2019-08-09 23:52:18:037,1.2343,0.3994,9.9123,0.9657,0.2464,9.7559,0.0284,0.0133,-0.0113
46209,45.776897,-0.059427,146.4,11.27,3.216,150.3,14 / 17,4620910,2019-08-09 23:52:18:137,1.2319,1.0279,10.4797,0.9728,0.2448,9.7552,-0.0053,0.0103,-0.0287
46210,45.776897,-0.059427,146.4,11.27,3.216,150.3,14 / 17,4621011,2019-08-09 23:52:18:238,1.1589,-0.004,9.7273,0.9962,0.2551,9.7526,-0.0159,0.0184,-0.0291
46211,45.776897,-0.059427,146.4,11.27,3.216,150.3,14 / 17,4621110,2019-08-09 23:52:18:337,1.2571,0.2731,9.5011,1.0109,0.2675,9.7507,0.0069,0.0101,-0.0456
46212,45.776897,-0.059427,146.4,11.27,3.216,150.3,14 / 17,4621210,2019-08-09 23:52:18:437,1.3056,-0.5415,9.6788,1.047,0.2327,9.7478,0.0134,0.0166,-0.0332
46213,45.776897,-0.059427,146.4,11.27,3.216,150.3,14 / 17,4621310,2019-08-09 23:52:18:537,1.3014,-1.1203,9.9631,1.0585,0.2392,9.7464,0.0221,0.0026,-0.0104
46214,45.776897,-0.059427,146.4,11.27,3.216,150.3,14 / 17,4621410,2019-08-09 23:52:18:637,1.9646,0.1097,9.5849,1.0822,0.2143,9.7444,-0.0045,0.011,-0.0626
46215,45.776897,-0.059427,146.4,11.27,3.216,150.3,14 / 17,4621510,2019-08-09 23:52:18:737,1.7425,0.1193,9.9135,1.0939,0.2038,9.7433,0.0141,0.0142,-0.0737
46216,45.776897,-0.059427,146.4,11.27,3.216,150.3,13 / 16,4621610,2019-08-09 23:52:18:837,2.5889,-0.2764,9.6974,1.1357,0.1661,9.7393,0.0237,0.0056,-0.1004
46217,45.776897,-0.059427,146.4,11.27,3.216,150.3,13 / 16,4621710,2019-08-09 23:52:18:937,1.8856,0.0343,9.513,1.1662,0.1595,9.7358,0.0006,0.0059,-0.1345
46218,45.776897,-0.059427,146.4,11.27,3.216,150.3,13 / 16,4621810,2019-08-09 23:52:19:037,2.4596,-0.2255,9.7794,1.2174,0.1353,9.7298,0.0034,0.0057,-0.1588
46219,45.776897,-0.059427,146.4,11.27,3.216,150.3,13 / 16,4621910,2019-08-09 23:52:19:137,2.93,0.4162,9.8841,1.2534,0.1362,9.7253,-0.0163,0.011,-0.1751
46220,45.776897,-0.059427,146.4,11.27,3.216,150.3,13 / 16,4622011,2019-08-09 23:52:19:238,2.8971,0.661,9.6525,1.3119,0.1268,9.7177,-0.0164,0.0015,-0.1804
46221,45.776897,-0.059427,146.4,11.27,3.216,150.3,13 / 16,4622111,2019-08-09 23:52:19:338,2.9198,0.4215,9.2479,1.3337,0.1174,9.7148,-0.0159,-0.0035,-0.2212
46222,45.776897,-0.059427,146.4,11.27,3.216,150.3,13 / 16,4622210,2019-08-09 23:52:19:437,2.4344,0.7136,9.4939,1.39,0.1193,9.7069,-0.0345,0.0112,-0.2187
46223,45.776897,-0.059427,146.4,11.27,3.216,150.3,13 / 16,4622310,2019-08-09 23:52:19:537,2.5871,0.5125,9.6663,1.4157,0.1186,9.7032,-0.0297,0.0106,-0.2154
46224,45.776897,-0.059427,146.4,11.27,3.216,150.3,13 / 16,4622410,2019-08-09 23:52:19:637,2.2848,0.6514,9.5986,1.4688,0.1557,9.6948,-0.0406,0.0158,-0.2181
46225,45.776897,-0.059427,146.4,11.27,3.216,150.3,13 / 16,4622510,2019-08-09 23:52:19:737,2.8708,-0.0555,10.2636,1.4818,0.135,9.6931,-0.0278,-0.0339,-0.1764
46226,45.776897,-0.059427,146.4,11.27,3.216,150.3,14 / 16,4622610,2019-08-09 23:52:19:837,1.9993,-0.2016,9.4741,1.4883,0.0782,9.6927,0.0385,0.0012,-0.2069
46227,45.776897,-0.059427,146.4,11.27,3.216,150.3,14 / 16,4622710,2019-08-09 23:52:19:937,1.77,-1.3071,9.4011,1.5158,0.0351,9.6887,0.0065,0.0366,-0.2298
46228,45.776897,-0.059427,146.4,11.27,3.216,150.3,14 / 16,4622810,2019-08-09 23:52:20:037,1.9813,-0.7073,9.0486,1.6088,-0.0842,9.6734,-0.0044,0.0509,-0.2232
46229,45.776897,-0.059427,146.4,11.27,3.216,150.3,14 / 16,4622911,2019-08-09 23:52:20:138,2.9953,-1.1957,9.0587,1.647,-0.1387,9.6664,-0.0356,0.0201,-0.1999
46230,45.776897,-0.059427,146.4,11.27,3.216,150.3,14 / 16,4623010,2019-08-09 23:52:20:237,2.7768,-2.0032,9.7549,1.6834,-0.1936,9.6591,-0.0041,-0.0055,-0.22
46231,45.776897,-0.059427,146.4,11.27,3.216,150.3,14 / 16,4623111,2019-08-09 23:52:20:338,1.9771,-2.2223,9.285,1.6913,-0.2376,9.6568,0.0003,0.0135,-0.1875
46232,45.776897,-0.059427,146.4,11.27,3.216,150.3,14 / 16,4623210,2019-08-09 23:52:20:437,2.1537,-1.4896,9.9308,1.6986,-0.3078,9.6535,0.0233,0.0086,-0.2487
46233,45.776897,-0.059427,146.4,11.27,3.216,150.3,14 / 16,4623310,2019-08-09 23:52:20:537,2.4871,-2.0882,9.7309,1.7176,-0.4202,9.6459,0.0185,0.0014,-0.2173
46234,45.776897,-0.059427,146.4,11.27,3.216,150.3,14 / 16,4623410,2019-08-09 23:52:20:637,2.1417,-2.6353,9.4837,1.7214,-0.4825,9.6423,-0.026,-0.0275,-0.1984
46235,45.776897,-0.059427,146.4,11.27,3.216,150.3,14 / 16,4623510,2019-08-09 23:52:20:737,1.1332,-2.6592,8.9552,1.6961,-0.5842,9.6412,0.0097,-0.0223,-0.1488
46236,45.776897,-0.059427,146.4,11.27,3.216,150.3,14 / 17,4623610,2019-08-09 23:52:20:837,0.6184,-2.0912,9.0839,1.6641,-0.6312,9.6438,-0.0485,-0.0213,-0.1248
46237,45.776897,-0.059427,146.4,11.27,3.216,150.3,14 / 17,4623710,2019-08-09 23:52:20:937,0.0576,-0.8995,9.765,1.5934,-0.5969,9.6579,-0.1163,-0.0098,-0.0421
46238,45.776897,-0.059427,146.4,11.27,3.216,150.3,14 / 17,4623810,2019-08-09 23:52:21:037,0.1151,0.0421,9.8273,1.5635,-0.5505,9.6655,-0.0835,0.0409,-0.0166
46239,45.776897,-0.059427,146.4,11.27,3.216,150.3,14 / 17,4623910,2019-08-09 23:52:21:137,0.7184,-0.3626,10.1385,1.5657,-0.5219,9.6668,0.0279,0.0368,-0.0676
46240,45.776897,-0.059427,146.4,11.27,3.216,150.3,14 / 17,4624011,2019-08-09 23:52:21:238,1.1541,-1.0467,9.8704,1.5826,-0.4905,9.6657,0.0576,0.007,-0.0744
46241,45.776897,-0.059427,146.4,11.27,3.216,150.3,14 / 17,4624110,2019-08-09 23:52:21:337,0.0462,-0.8839,9.2395,1.5694,-0.5021,9.6672,0.0458,-0.0254,-0.0042
46242,45.776897,-0.059427,146.4,11.27,3.216,150.3,14 / 17,4624210,2019-08-09 23:52:21:437,0.1785,-1.419,10.0224,1.5283,-0.5386,9.6718,-0.0726,-0.0345,0.0842
46243,45.776897,-0.059427,146.4,11.27,3.216,150.3,14 / 17,4624310,2019-08-09 23:52:21:537,-1.2299,-0.6684,9.8261,1.4237,-0.454,9.6921,-0.0202,-0.0422,0.1247
46244,45.776897,-0.059427,146.4,11.27,3.216,150.3,14 / 17,4624410,2019-08-09 23:52:21:637,-0.6816,-0.4817,9.868,1.3798,-0.4583,9.6983,-0.0387,-0.0109,0.1212
46245,45.776897,-0.059427,146.4,11.27,3.216,150.3,14 / 17,4624511,2019-08-09 23:52:21:738,-0.9037,-0.4326,9.1018,1.3011,-0.4221,9.7108,0.0023,-0.0091,0.1141
46246,45.776897,-0.059427,146.4,11.27,3.216,150.3,13 / 16,4624610,2019-08-09 23:52:21:837,-0.0214,-0.5242,9.8548,1.2748,-0.4146,9.7146,0.0175,-0.0431,0.1003
46247,45.776897,-0.059427,146.4,11.27,3.216,150.3,13 / 16,4624710,2019-08-09 23:52:21:937,-0.6822,-0.511,9.0138,1.1815,-0.3779,9.7279,0.0184,-0.0251,0.1187
46248,45.776897,-0.059427,146.4,11.27,3.216,150.3,13 / 16,4624810,2019-08-09 23:52:22:037,-1.0402,-0.3332,9.8249,1.1523,-0.3811,9.7313,-0.0135,-0.0025,0.1717
46249,45.776897,-0.059427,146.4,11.27,3.216,150.3,13 / 16,4624910,2019-08-09 23:52:22:137,-1.0049,-0.0507,9.8231,1.078,-0.3338,9.7415,0.0148,-0.0164,0.149
46250,45.776897,-0.059427,146.4,11.27,3.216,150.3,13 / 16,4625011,2019-08-09 23:52:22:238,-0.8444,-0.5715,9.4801,1.0448,-0.3301,9.7452,-0.0183,-0.0047,0.1791
46251,45.776897,-0.059427,146.4,11.27,3.216,150.3,13 / 16,4625111,2019-08-09 23:52:22:338,-0.365,-0.7271,9.7261,0.984,-0.3248,9.7517,0.0044,-0.014,0.2006
46252,45.776897,-0.059427,146.4,11.27,3.216,150.3,13 / 16,4625211,2019-08-09 23:52:22:438,-0.7002,-1.3113,9.8434,0.9529,-0.3361,9.7545,0.0316,-0.0017,0.1482
46253,45.776897,-0.059427,146.4,11.27,3.216,150.3,13 / 16,4625311,2019-08-09 23:52:22:538,-0.5476,-1.4819,10.199,0.907,-0.3513,9.7583,0.0069,-0.0143,0.187
46254,45.776897,-0.059427,146.4,11.27,3.216,150.3,13 / 16,4625410,2019-08-09 23:52:22:637,-1.2826,-0.3889,9.5615,0.8729,-0.3154,9.7626,-0.015,0.0009,0.2135
46255,45.776897,-0.059427,146.4,11.27,3.216,150.3,13 / 16,4625511,2019-08-09 23:52:22:738,-1.6255,-0.359,9.5998,0.8077,-0.3008,9.7687,-0.0236,-0.0099,0.2533
46256,45.776897,-0.059427,146.4,11.27,3.216,150.3,14 / 16,4625611,2019-08-09 23:52:22:838,-1.3347,-0.2524,9.3969,0.7589,-0.3055,9.7725,-0.0115,-0.009,0.2692
46257,45.776897,-0.059427,146.4,11.27,3.216,150.3,14 / 16,4625710,2019-08-09 23:52:22:937,-1.021,-1.2484,9.8668,0.6834,-0.3038,9.7781,0.0147,-0.019,0.2513
46258,45.776897,-0.059427,146.4,11.27,3.216,150.3,14 / 16,4625811,2019-08-09 23:52:23:038,-0.6254,-0.7115,10.108,0.643,-0.3135,9.7805,0.0175,-0.0261,0.2052
46259,45.776897,-0.059427,146.4,11.27,3.216,150.3,14 / 16,4625911,2019-08-09 23:52:23:138,-1.5549,-1.3783,8.5739,0.5692,-0.2669,9.7865,-0.034,-0.0068,0.2429
46260,45.776897,-0.059427,146.4,11.27,3.216,150.3,14 / 16,4626011,2019-08-09 23:52:23:238,-1.042,-1.4232,9.6363,0.5331,-0.2884,9.7879,0.0237,-0.0196,0.2424
46261,45.776897,-0.059427,146.4,11.27,3.216,150.3,14 / 16,4626110,2019-08-09 23:52:23:337,-1.7542,-0.0076,9.7513,0.4214,-0.2552,9.7943,-0.0027,-0.0391,0.2714
46262,45.776897,-0.059427,146.4,11.27,3.216,150.3,14 / 16,4626211,2019-08-09 23:52:23:438,-2.0344,0.2414,9.92,0.3615,-0.2182,9.7976,-0.0091,-0.0533,0.3862
46263,45.776897,-0.059427,146.4,11.27,3.216,150.3,14 / 16,4626310,2019-08-09 23:52:23:537,-2.7077,-0.1183,9.9577,0.22,-0.1788,9.8026,0.0712,-0.0438,0.314
46264,45.776897,-0.059427,146.4,11.27,3.216,150.3,14 / 16,4626410,2019-08-09 23:52:23:637,-2.1379,-0.2542,10.7395,0.1577,-0.2212,9.8029,0.025,-0.0449,0.3958
46265,45.776897,-0.059427,146.4,11.27,3.216,150.3,14 / 16,4626510,2019-08-09 23:52:23:737,-1.9099,0.5071,10.506,0.0076,-0.2661,9.803,0.0171,-0.0647,0.43
46266,45.776897,-0.059427,146.4,11.27,3.216,150.3,13 / 16,4626611,2019-08-09 23:52:23:838,-3.1488,-0.6439,9.4125,-0.0515,-0.2691,9.8028,0.0466,-0.0531,0.4362
46267,45.776897,-0.059427,146.4,11.27,3.216,150.3,13 / 16,4626710,2019-08-09 23:52:23:937,-3.3661,0.0666,9.8752,-0.2258,-0.3217,9.7988,0.0663,-0.0641,0.4733
46268,45.776897,-0.059427,146.4,11.27,3.216,150.3,13 / 16,4626810,2019-08-09 23:52:24:037,-4.1347,0.2115,10.0074,-0.3281,-0.3497,9.7949,-0.0265,-0.0507,0.5307
46269,45.776897,-0.059427,146.4,11.27,3.216,150.3,13 / 16,4626910,2019-08-09 23:52:24:137,-3.8599,0.4449,10.2995,-0.4791,-0.3672,9.7881,0.0027,-0.0548,0.5397
46270,45.776897,-0.059427,146.4,11.27,3.216,150.3,13 / 16,4627010,2019-08-09 23:52:24:237,-3.5906,0.4305,9.8374,-0.5597,-0.3684,9.7837,0.005,-0.0381,0.5394
46271,45.776897,-0.059427,146.4,11.27,3.216,150.3,13 / 16,4627111,2019-08-09 23:52:24:338,-3.5912,0.9207,9.7842,-0.6076,-0.385,9.7802,0.0128,0.01,0.5439
46272,45.776897,-0.059427,146.4,11.27,3.216,150.3,13 / 16,4627210,2019-08-09 23:52:24:437,-3.5086,1.1739,9.774,-0.6868,-0.4035,9.7742,0.029,-0.0235,0.4917
46273,45.776897,-0.059427,146.4,11.27,3.216,150.3,13 / 16,4627310,2019-08-09 23:52:24:537,-3.2566,1.2469,10.4917,-0.7327,-0.4272,9.7699,0.025,-0.0452,0.5638
46274,45.776897,-0.059427,146.4,11.27,3.216,150.3,13 / 16,4627410,2019-08-09 23:52:24:637,-2.9166,0.6723,10.0619,-0.8474,-0.4745,9.7584,0.0491,-0.0507,0.5226
46275,45.776897,-0.059427,146.4,11.27,3.216,150.3,13 / 16,4627510,2019-08-09 23:52:24:737,-3.2871,1.0195,9.6758,-0.8836,-0.4891,9.7545,0.0334,-0.0215,0.5296
46276,45.776897,-0.059427,146.4,11.27,3.216,150.3,13 / 16,4627610,2019-08-09 23:52:24:837,-2.6736,0.8687,10.1858,-0.9566,-0.5578,9.7439,0.0301,-0.0336,0.5278
46277,45.776897,-0.059427,146.4,11.27,3.216,150.3,13 / 16,4627710,2019-08-09 23:52:24:937,-2.8412,0.0989,10.187,-0.9827,-0.5898,9.7394,0.0406,-0.0212,0.5173
46278,45.776897,-0.059427,146.4,11.27,3.216,150.3,13 / 16,4627810,2019-08-09 23:52:25:037,-2.6443,-0.2518,10.0014,-1.019,-0.675,9.7302,0.0291,-0.0108,0.4984
46279,45.776897,-0.059427,146.4,11.27,3.216,150.3,13 / 16,4627911,2019-08-09 23:52:25:138,-2.1373,-0.5936,9.6196,-1.0258,-0.7167,9.7265,0.0204,0.0007,0.477
46280,45.776897,-0.059427,146.4,11.27,3.216,150.3,13 / 16,4628010,2019-08-09 23:52:25:237,-1.5477,0.4838,9.5873,-1.01,-0.7719,9.7239,0.0705,-0.0027,0.3721
46281,45.776897,-0.059427,146.4,11.27,3.216,150.3,13 / 16,4628110,2019-08-09 23:52:25:337,-1.4023,-1.2909,9.1449,-0.9883,-0.8165,9.7225,-0.0204,0.0055,0.454
46282,45.776897,-0.059427,146.4,11.27,3.216,150.3,13 / 16,4628211,2019-08-09 23:52:25:438,-0.6218,-2.2276,9.2233,-0.9559,-0.888,9.7195,0.0542,0.0078,0.341
46283,45.776897,-0.059427,146.4,11.27,3.216,150.3,13 / 16,4628310,2019-08-09 23:52:25:537,-0.3141,-2.2582,9.7345,-0.9192,-0.9602,9.7162,0.0042,-0.0063,0.2902
46284,45.776897,-0.059427,146.4,11.27,3.216,150.3,13 / 16,4628410,2019-08-09 23:52:25:637,-0.9821,-2.2115,9.707,-0.8711,-1.0378,9.7126,0.0105,-0.0092,0.2015
46285,45.776897,-0.059427,146.4,11.27,3.216,150.3,13 / 16,4628511,2019-08-09 23:52:25:738,-0.5547,-1.3346,9.9314,-0.8474,-1.0727,9.7109,-0.0157,-0.0178,0.2733
46286,45.77637,-0.05905,146.75,6.89,3.216,94.9,Dec-15,4628610,2019-08-09 23:52:25:837,-0.8947,-1.5639,9.9404,-0.8343,-1.0777,9.7115,-0.0093,-0.009,0.2727
46287,45.77637,-0.05905,146.75,6.89,3.216,94.9,Dec-15,4628711,2019-08-09 23:52:25:938,-0.3004,-0.9737,9.5873,-0.8286,-1.1179,9.7074,0.0309,-0.0255,0.1978
46288,45.77637,-0.05905,146.75,6.89,3.216,94.9,Dec-15,4628810,2019-08-09 23:52:26:037,-0.4775,-1.8039,9.6333,-0.8253,-1.2005,9.6978,0.0476,-0.0084,0.178
46289,45.77637,-0.05905,146.75,6.89,3.216,94.9,Dec-15,4628910,2019-08-09 23:52:26:137,-0.0226,-2.6921,9.5771,-0.7916,-1.2398,9.6957,0.006,0.031,0.1621
46290,45.77637,-0.05905,146.75,6.89,3.216,94.9,Dec-15,4629011,2019-08-09 23:52:26:238,0.7022,-2.588,9.5304,-0.6778,-1.2761,9.6996,-0.0301,0.0421,0.092
46291,45.77637,-0.05905,146.75,6.89,3.216,94.9,Dec-15,4629110,2019-08-09 23:52:26:337,0.7782,-2.5299,9.0031,-0.6274,-1.2983,9.7001,-0.0212,0.0217,0.0441
46292,45.77637,-0.05905,146.75,6.89,3.216,94.9,Dec-15,4629211,2019-08-09 23:52:26:438,1.1745,-1.9373,10.0511,-0.5439,-1.3329,9.7004,-0.003,-0.0267,0.0374
46293,45.77637,-0.05905,146.75,6.89,3.216,94.9,Dec-15,4629311,2019-08-09 23:52:26:538,0.9728,-1.9272,9.7411,-0.53,-1.3431,9.6998,-0.003,-0.0267,0.0374
46294,45.77637,-0.05905,146.75,6.89,3.216,94.9,Dec-15,4629411,2019-08-09 23:52:26:638,0.9895,-2.588,9.85,-0.4899,-1.3902,9.6952,0.0344,0.0015,-0.0058
46295,45.77637,-0.05905,146.75,6.89,3.216,94.9,Dec-15,4629511,2019-08-09 23:52:26:738,0.9919,-1.847,9.3275,-0.4578,-1.4145,9.6933,0.0045,0.0154,-0.0245
46296,45.77637,-0.05905,146.75,6.89,3.216,94.9,14 / 17,4629610,2019-08-09 23:52:26:837,1.3277,-2.7424,9.2581,-0.3821,-1.4677,9.6887,0.0416,0.0428,-0.0662
46297,45.77637,-0.05905,146.75,6.89,3.216,94.9,14 / 17,4629710,2019-08-09 23:52:26:937,1.9813,-2.424,9.2078,-0.305,-1.4813,9.6893,-0.0044,0.0573,-0.0871
46298,45.77637,-0.05905,146.75,6.89,3.216,94.9,14 / 17,4629811,2019-08-09 23:52:27:038,2.96,-3.0249,10.9184,-0.2027,-1.5207,9.6859,-0.0235,0.0246,-0.0929
46299,45.77637,-0.05905,146.75,6.89,3.216,94.9,14 / 17,4629911,2019-08-09 23:52:27:138,1.5749,-2.1241,9.1246,-0.135,-1.4992,9.6904,0.0427,0.0266,-0.1446
46300,45.77637,-0.05905,146.75,6.89,3.216,94.9,14 / 17,4630010,2019-08-09 23:52:27:237,2.2465,-2.6706,9.1838,-0.0373,-1.5623,9.6813,0.0565,0.0626,-0.1579
46301,45.77637,-0.05905,146.75,6.89,3.216,94.9,14 / 17,4630110,2019-08-09 23:52:27:337,3.6076,-4.0365,9.2173,0.0195,-1.59,9.6769,0.0127,0.0562,-0.2228
46302,45.77637,-0.05905,146.75,6.89,3.216,94.9,14 / 17,4630210,2019-08-09 23:52:27:437,3.51,-3.2314,9.1952,0.1353,-1.6185,9.6712,-0.0209,0.0492,-0.1955
46303,45.77637,-0.05905,146.75,6.89,3.216,94.9,14 / 17,4630310,2019-08-09 23:52:27:537,3.4693,-2.9279,9.7932,0.1982,-1.6456,9.6656,0.0051,0.0755,-0.2546
46304,45.77637,-0.05905,146.75,6.89,3.216,94.9,14 / 17,4630411,2019-08-09 23:52:27:638,4.2636,-2.3156,9.8494,0.3693,-1.6504,9.6597,0.0295,0.0665,-0.2994
46305,45.77637,-0.05905,146.75,6.89,3.216,94.9,14 / 17,4630510,2019-08-09 23:52:27:737,3.1497,-2.7178,8.5284,0.4407,-1.673,9.6528,-0.0575,0.1,-0.2132
46306,45.77637,-0.05905,146.75,6.89,3.216,94.9,14 / 17,4630610,2019-08-09 23:52:27:837,4.9322,-3.6785,9.5837,0.5953,-1.7466,9.6315,-0.0421,0.0534,-0.2832
46307,45.77637,-0.05905,146.75,6.89,3.216,94.9,14 / 17,4630710,2019-08-09 23:52:27:937,3.5022,-1.8895,9.607,0.6473,-1.7682,9.6242,-0.0679,0.0893,-0.2583
46308,45.77637,-0.05905,146.75,6.89,3.216,94.9,14 / 17,4630811,2019-08-09 23:52:28:038,3.4472,-2.7616,8.5961,0.7892,-1.7912,9.6093,0.0387,0.0871,-0.3657
46309,45.77637,-0.05905,146.75,6.89,3.216,94.9,14 / 17,4630910,2019-08-09 23:52:28:137,4.8149,-3.1045,9.179,0.8475,-1.8332,9.5964,-0.0485,0.0466,-0.3191
46310,45.77637,-0.05905,146.75,6.89,3.216,94.9,14 / 17,4631010,2019-08-09 23:52:28:237,4.3911,-2.0726,9.619,0.9365,-1.8575,9.5835,0.0086,0.0464,-0.3187
46311,45.77637,-0.05905,146.75,6.89,3.216,94.9,14 / 17,4631111,2019-08-09 23:52:28:338,4.3576,-3.0644,9.0635,1.0078,-1.8668,9.5744,-0.0468,0.0633,-0.2961
46312,45.77637,-0.05905,146.75,6.89,3.216,94.9,14 / 17,4631211,2019-08-09 23:52:28:438,3.3526,-2.509,8.5607,1.0812,-1.8922,9.5614,-0.0402,0.05,-0.2332
46313,45.77637,-0.05905,146.75,6.89,3.216,94.9,14 / 17,4631311,2019-08-09 23:52:28:538,3.3347,-2.1427,8.4967,1.1183,-1.9312,9.5494,-0.0282,0.0548,-0.2405
46314,45.77637,-0.05905,146.75,6.89,3.216,94.9,14 / 17,4631411,2019-08-09 23:52:28:638,4.1445,-3.0297,9.2299,1.1851,-1.9484,9.5378,0.0197,0.0264,-0.2719
46315,45.77637,-0.05905,146.75,6.89,3.216,94.9,14 / 17,4631510,2019-08-09 23:52:28:737,3.4807,-1.507,9.5621,1.215,-1.9827,9.527,-0.0953,0.0627,-0.1645
46316,45.77637,-0.05905,146.75,6.89,3.216,94.9,13 / 16,4631611,2019-08-09 23:52:28:838,3.7572,-2.749,9.938,1.3072,-2.021,9.5067,-0.0278,0.0491,-0.1719
46317,45.77637,-0.05905,146.75,6.89,3.216,94.9,13 / 16,4631711,2019-08-09 23:52:28:938,3.2951,-3.3619,9.2365,1.3282,-2.0348,9.5008,-0.0019,0.0284,-0.1838
46318,45.77637,-0.05905,146.75,6.89,3.216,94.9,13 / 16,4631810,2019-08-09 23:52:29:037,3.3688,-2.6999,9.3891,1.3588,-2.0568,9.4918,-0.0009,0.0278,-0.1271
46319,45.77637,-0.05905,146.75,6.89,3.216,94.9,13 / 16,4631910,2019-08-09 23:52:29:137,2.9121,-2.4928,9.4921,1.3928,-2.1076,9.4757,-0.0135,0.0097,-0.155
46320,45.77637,-0.05905,146.75,6.89,3.216,94.9,13 / 16,4632010,2019-08-09 23:52:29:237,2.7906,-3.0932,8.8026,1.3969,-2.1121,9.4741,-0.0638,-0.0035,-0.1123
46321,45.77637,-0.05905,146.75,6.89,3.216,94.9,13 / 16,4632111,2019-08-09 23:52:29:338,2.3476,-1.5375,9.3688,1.3946,-2.1107,9.4747,-0.0762,-0.0169,-0.0823
46322,45.77637,-0.05905,146.75,6.89,3.216,94.9,13 / 16,4632211,2019-08-09 23:52:29:438,1.7862,-0.6924,9.0635,1.386,-2.0256,9.4945,-0.1111,-0.055,-0.0523
46323,45.77637,-0.05905,146.75,6.89,3.216,94.9,13 / 16,4632310,2019-08-09 23:52:29:537,1.6725,-0.6983,8.2339,1.3334,-1.9088,9.5262,-0.0049,-0.0566,0.0132
46324,45.77637,-0.05905,146.75,6.89,3.216,94.9,13 / 16,4632410,2019-08-09 23:52:29:637,1.4498,-1.0659,9.8213,1.291,-1.8568,9.5423,-0.0636,-0.0446,-0.0394
46325,45.77637,-0.05905,146.75,6.89,3.216,94.9,13 / 16,4632510,2019-08-09 23:52:29:737,0.9572,-0.7768,10.0487,1.2563,-1.8238,9.5533,0.0298,-0.0185,-0.0218
46326,45.77637,-0.05905,146.75,6.89,3.216,94.9,14 / 17,4632610,2019-08-09 23:52:29:837,0.9584,-2.2546,9.795,1.2656,-1.8448,9.5481,0.0354,0.0391,-0.006
46327,45.77637,-0.05905,146.75,6.89,3.216,94.9,14 / 17,4632710,2019-08-09 23:52:29:937,1.4181,-2.9363,9.4526,1.3061,-1.882,9.5353,0.0395,0.0406,-0.0284
46328,45.77637,-0.05905,146.75,6.89,3.216,94.9,14 / 17,4632810,2019-08-09 23:52:30:037,1.6413,-1.4382,9.0426,1.326,-1.8823,9.5325,-0.0397,0.025,-0.0099
46329,45.77637,-0.05905,146.75,6.89,3.216,94.9,14 / 17,4632910,2019-08-09 23:52:30:137,1.4151,-1.422,8.7966,1.3597,-1.8554,9.533,0.0199,0.0092,-0.011
46330,45.77637,-0.05905,146.75,6.89,3.216,94.9,14 / 17,4633010,2019-08-09 23:52:30:237,1.6521,-3.3667,9.4831,1.3641,-1.881,9.5274,-0.049,0.0106,-0.0004
46331,45.77637,-0.05905,146.75,6.89,3.216,94.9,14 / 17,4633114,2019-08-09 23:52:30:341,1.6868,-2.2103,9.6896,1.3745,-1.8862,9.5249,0.0368,-0.0001,-0.0296
46332,45.77637,-0.05905,146.75,6.89,3.216,94.9,14 / 17,4633210,2019-08-09 23:52:30:437,1.4486,-1.9553,10.1595,1.3731,-1.8661,9.529,-0.0437,0.0029,0.0052
46333,45.77637,-0.05905,146.75,6.89,3.216,94.9,14 / 17,4633310,2019-08-09 23:52:30:537,1.2194,-3.2955,9.5765,1.3827,-1.874,9.5261,0.0247,0.0151,-0.0243
46334,45.77637,-0.05905,146.75,6.89,3.216,94.9,14 / 17,4633410,2019-08-09 23:52:30:637,1.3211,-1.911,9.3766,1.3947,-1.8792,9.5233,-0.0102,0.0076,-0.0196
46335,45.77637,-0.05905,146.75,6.89,3.216,94.9,14 / 17,4633510,2019-08-09 23:52:30:737,1.1272,-1.4609,9.4753,1.4067,-1.8884,9.5197,0.0183,0.0263,-0.0057
46336,45.77637,-0.05905,146.75,6.89,3.216,94.9,14 / 17,4633610,2019-08-09 23:52:30:837,1.1033,-2.7137,9.6998,1.4198,-1.8999,9.5155,0.02,0.0083,-0.0116
46337,45.77637,-0.05905,146.75,6.89,3.216,94.9,14 / 17,4633710,2019-08-09 23:52:30:937,0.9458,-2.6299,9.8853,1.4208,-1.91,9.5133,0.0071,0.0062,0.0194
46338,45.77637,-0.05905,146.75,6.89,3.216,94.9,14 / 17,4633810,2019-08-09 23:52:31:037,1.2876,-1.847,9.5507,1.4254,-1.9156,9.5115,0.0197,0.0087,0.0115
46339,45.77637,-0.05905,146.75,6.89,3.216,94.9,14 / 17,4633910,2019-08-09 23:52:31:137,0.3132,-1.8386,8.9839,1.4139,-1.926,9.5111,0.0246,-0.0015,0.028
46340,45.77637,-0.05905,146.75,6.89,3.216,94.9,14 / 17,4634010,2019-08-09 23:52:31:237,0.4574,-1.8697,9.5256,1.4156,-1.9047,9.5152,-0.0106,0.0203,0.0559
46341,45.77637,-0.05905,146.75,6.89,3.216,94.9,14 / 17,4634111,2019-08-09 23:52:31:338,0.6334,-1.2885,9.1952,1.4172,-1.882,9.5194,0.0061,0.0079,0.0613
46342,45.77637,-0.05905,146.75,6.89,3.216,94.9,14 / 17,4634211,2019-08-09 23:52:31:438,0.7884,-2.734,9.7878,1.4137,-1.8941,9.5176,0.0107,0.006,0.0303
46343,45.77637,-0.05905,146.75,6.89,3.216,94.9,14 / 17,4634310,2019-08-09 23:52:31:537,1.0979,-2.0493,9.2054,1.4178,-1.8865,9.5185,0.0515,0.0071,0.0192
46344,45.77637,-0.05905,146.75,6.89,3.216,94.9,14 / 17,4634410,2019-08-09 23:52:31:637,0.9979,-2.8573,10.1912,1.419,-1.8633,9.5229,-0.0022,0.0074,0.0618
46345,45.77637,-0.05905,146.75,6.89,3.216,94.9,14 / 17,4634510,2019-08-09 23:52:31:737,0.3676,-1.4328,9.6573,1.4148,-1.8835,9.5195,0.0412,0.0048,0.0287
46346,45.77637,-0.05905,146.75,6.89,3.216,94.9,14 / 16,4634610,2019-08-09 23:52:31:837,0.5837,-2.7639,9.4801,1.4184,-1.8716,9.5213,0.0105,0.0082,0.0686
46347,45.77637,-0.05905,146.75,6.89,3.216,94.9,14 / 16,4634710,2019-08-09 23:52:31:937,1.1912,-1.0982,9.7501,1.4014,-1.8616,9.5258,0.0033,-0.0191,0.0414
46348,45.77637,-0.05905,146.75,6.89,3.216,94.9,14 / 16,4634810,2019-08-09 23:52:32:037,0.4293,-1.7332,9.4167,1.3859,-1.8618,9.528,-0.0199,-0.0138,0.0766
46349,45.77637,-0.05905,146.75,6.89,3.216,94.9,14 / 16,4634910,2019-08-09 23:52:32:137,1.044,-1.1916,9.8919,1.3456,-1.8501,9.5361,-0.0018,-0.0426,0.0734
46350,45.77637,-0.05905,146.75,6.89,3.216,94.9,14 / 16,4635010,2019-08-09 23:52:32:237,0.6442,-1.6064,10.2295,1.3124,-1.849,9.5409,0.0177,-0.0371,0.0836
46351,45.77637,-0.05905,146.75,6.89,3.216,94.9,14 / 16,4635111,2019-08-09 23:52:32:338,0.4089,-1.6746,10.263,1.2454,-1.8683,9.5461,-0.027,-0.04,0.086
46352,45.77637,-0.05905,146.75,6.89,3.216,94.9,14 / 16,4635210,2019-08-09 23:52:32:437,0.2018,-2.3893,9.3011,1.2096,-1.8598,9.5524,0.0558,-0.0263,0.0597
46353,45.77637,-0.05905,146.75,6.89,3.216,94.9,14 / 16,4635311,2019-08-09 23:52:32:538,0.3239,-2.3474,9.8943,1.1775,-1.8901,9.5505,0.0291,-0.0122,0.0468
46354,45.77637,-0.05905,146.75,6.89,3.216,94.9,14 / 16,4635410,2019-08-09 23:52:32:637,0.4197,-1.3591,9.9865,1.1669,-1.8793,9.5539,0.0173,0.0015,0.0736
46355,45.77637,-0.05905,146.75,6.89,3.216,94.9,14 / 16,4635511,2019-08-09 23:52:32:738,0.2533,-2.9477,9.4909,1.1618,-1.8749,9.5554,0.0176,0.0092,0.0282
46356,45.77637,-0.05905,146.75,6.89,3.216,94.9,13 / 16,4635610,2019-08-09 23:52:32:837,0.3724,-1.6405,9.7728,1.171,-1.8813,9.553,0.0139,0.0237,0.0586
46357,45.77637,-0.05905,146.75,6.89,3.216,94.9,13 / 16,4635710,2019-08-09 23:52:32:937,0.8477,-1.2149,9.7327,1.1847,-1.8934,9.5489,0.0074,0.0082,0.0601
46358,45.77637,-0.05905,146.75,6.89,3.216,94.9,13 / 16,4635810,2019-08-09 23:52:33:037,0.0486,-2.3827,9.6028,1.1971,-1.8966,9.5467,0.0246,0.0365,0.0455
46359,45.77637,-0.05905,146.75,6.89,3.216,94.9,13 / 16,4635911,2019-08-09 23:52:33:138,0.8082,-2.0295,10.2397,1.2335,-1.9177,9.5379,0.0048,0.0257,0.0542
46360,45.77637,-0.05905,146.75,6.89,3.216,94.9,13 / 16,4636010,2019-08-09 23:52:33:237,0.5987,-2.0966,9.3059,1.2497,-1.9134,9.5366,0.0142,0.0216,0.0498
46361,45.77637,-0.05905,146.75,6.89,3.216,94.9,13 / 16,4636110,2019-08-09 23:52:33:337,0.6454,-1.9242,9.5226,1.2586,-1.9193,9.5343,-0.0323,0.0126,0.0844
46362,45.77637,-0.05905,146.75,6.89,3.216,94.9,13 / 16,4636210,2019-08-09 23:52:33:437,0.6543,-1.9074,9.3197,1.2647,-1.8962,9.5381,-0.0023,0.0069,0.0529
46363,45.77637,-0.05905,146.75,6.89,3.216,94.9,13 / 16,4636310,2019-08-09 23:52:33:537,0.6358,-2.172,9.5501,1.2673,-1.8581,9.5453,0.0018,-0.0014,0.063
46364,45.77637,-0.05905,146.75,6.89,3.216,94.9,13 / 16,4636410,2019-08-09 23:52:33:637,0.3611,-1.7272,8.8612,1.258,-1.8275,9.5524,-0.0451,-0.0073,0.096
46365,45.77637,-0.05905,146.75,6.89,3.216,94.9,13 / 16,4636510,2019-08-09 23:52:33:737,0.4556,-1.9912,9.516,1.2466,-1.8416,9.5512,-0.0217,0.0044,0.0876
46366,45.77637,-0.05905,146.75,6.89,3.216,94.9,14 / 17,4636610,2019-08-09 23:52:33:837,0.5819,-2.5981,9.534,1.2412,-1.8339,9.5534,0.0121,-0.0011,0.0801
46367,45.77637,-0.05905,146.75,6.89,3.216,94.9,14 / 17,4636710,2019-08-09 23:52:33:937,0.443,-1.0802,9.6321,1.2372,-1.8338,9.5539,-0.0139,-0.0079,0.0561
46368,45.77637,-0.05905,146.75,6.89,3.216,94.9,14 / 17,4636810,2019-08-09 23:52:34:037,0.3838,-1.331,9.5591,1.2144,-1.8406,9.5555,0.011,-0.0263,0.0489
46369,45.77637,-0.05905,146.75,6.89,3.216,94.9,14 / 17,4636910,2019-08-09 23:52:34:137,0.1701,-2.081,9.8255,1.1988,-1.8522,9.5552,0.0022,-0.0263,0.0978
46370,45.77637,-0.05905,146.75,6.89,3.216,94.9,14 / 17,4637010,2019-08-09 23:52:34:237,0.1348,-2.2534,9.352,1.1464,-1.841,9.5638,0.0281,-0.0267,0.1013
46371,45.77637,-0.05905,146.75,6.89,3.216,94.9,14 / 17,4637110,2019-08-09 23:52:34:337,0.0696,-2.1133,9.8159,1.1176,-1.8578,9.564,0.0013,-0.0364,0.09
46372,45.77637,-0.05905,146.75,6.89,3.216,94.9,14 / 17,4637210,2019-08-09 23:52:34:437,-0.0292,-2.269,10.0583,1.0625,-1.8707,9.5678,0.0292,-0.0202,0.1056
46373,45.77637,-0.05905,146.75,6.89,3.216,94.9,14 / 17,4637310,2019-08-09 23:52:34:537,-0.5901,-3.2955,9.5304,1.056,-1.8681,9.569,0.0071,0.0008,0.1008
46374,45.77637,-0.05905,146.75,6.89,3.216,94.9,14 / 17,4637410,2019-08-09 23:52:34:637,-0.3087,-2.7568,9.8781,1.0347,-1.9013,9.5648,0.0163,0.009,0.1123
46375,45.77637,-0.05905,146.75,6.89,3.216,94.9,14 / 17,4637510,2019-08-09 23:52:34:737,0.1252,-3.1446,9.7165,1.0269,-1.8986,9.5662,-0.0008,0.0063,0.0709
46376,45.775948,-0.057737,145.45,16.87,3.216,111.1,Dec-15,4637610,2019-08-09 23:52:34:837,0.0588,-1.8488,9.4119,1.0365,-1.918,9.5612,0.0163,0.0102,0.0797
46377,45.775948,-0.057737,145.45,16.87,3.216,111.1,Dec-15,4637710,2019-08-09 23:52:34:937,0.3634,-2.3067,9.4999,1.0283,-1.909,9.5639,-0.0003,-0.0136,0.0621
46378,45.775948,-0.057737,145.45,16.87,3.216,111.1,Dec-15,4637810,2019-08-09 23:52:35:037,0.4837,-1.8518,9.9344,1.017,-1.9273,9.5615,0.0237,0.0006,0.0561
46379,45.775948,-0.057737,145.45,16.87,3.216,111.1,Dec-15,4637910,2019-08-09 23:52:35:137,0.3916,-2.327,10.1014,1.0114,-1.9297,9.5616,0.0155,-0.0073,0.0798
46380,45.775948,-0.057737,145.45,16.87,3.216,111.1,Dec-15,4638010,2019-08-09 23:52:35:237,0.7722,-2.0894,9.7979,0.9927,-1.928,9.5639,-0.0134,-0.0175,0.042
46381,45.775948,-0.057737,145.45,16.87,3.216,111.1,Dec-15,4638111,2019-08-09 23:52:35:338,-0.2136,-1.6459,9.3718,0.9896,-1.9065,9.5685,-0.0339,-0.0063,0.0249
46382,45.775948,-0.057737,145.45,16.87,3.216,111.1,Dec-15,4638210,2019-08-09 23:52:35:437,0.5478,0.6586,10.2708,0.9737,-1.8424,9.5827,-0.0145,-0.0153,0.0729
46383,45.775948,-0.057737,145.45,16.87,3.216,111.1,Dec-15,4638312,2019-08-09 23:52:35:539,-0.0789,-0.8743,9.862,0.9652,-1.7937,9.5928,-0.0097,-0.0126,0.0956
46384,45.775948,-0.057737,145.45,16.87,3.216,111.1,Dec-15,4638410,2019-08-09 23:52:35:637,0.3958,-0.9749,10.8257,0.9406,-1.8056,9.593,0.008,-0.0001,0.0999
46385,45.775948,-0.057737,145.45,16.87,3.216,111.1,Dec-15,4638510,2019-08-09 23:52:35:737,0.3772,-0.9946,10.102,0.9282,-1.8112,9.5931,0.0604,-0.0092,0.0646
46386,45.775948,-0.057737,145.45,16.87,3.216,111.1,13 / 15,4638611,2019-08-09 23:52:35:838,-0.0555,-0.7181,9.2982,0.9135,-1.7715,9.602,0.0366,-0.0168,0.0472
46387,45.775948,-0.057737,145.45,16.87,3.216,111.1,13 / 15,4638710,2019-08-09 23:52:35:937,0.2473,-0.9785,9.8327,0.9014,-1.7621,9.6048,-0.0312,-0.009,0.1266
46388,45.775948,-0.057737,145.45,16.87,3.216,111.1,13 / 15,4638810,2019-08-09 23:52:36:037,0.2006,-1.0317,9.5172,0.8863,-1.6992,9.6176,-0.0031,0.0051,0.0948
46389,45.775948,-0.057737,145.45,16.87,3.216,111.1,13 / 15,4638910,2019-08-09 23:52:36:137,0.1055,-2.6514,9.8356,0.8854,-1.6815,9.6208,0.0107,-0.003,0.0758
46390,45.775948,-0.057737,145.45,16.87,3.216,111.1,13 / 15,4639010,2019-08-09 23:52:36:237,0.2072,-1.8637,10.1996,0.866,-1.6957,9.62,0.0086,-0.0145,0.0873
46391,45.775948,-0.057737,145.45,16.87,3.216,111.1,13 / 15,4639110,2019-08-09 23:52:36:337,0.0426,-1.4843,9.5573,0.8684,-1.7252,9.6146,0.0549,0.0022,0.0711
46392,45.775948,-0.057737,145.45,16.87,3.216,111.1,13 / 15,4639210,2019-08-09 23:52:36:437,0.3676,-0.7552,9.8638,0.8482,-1.754,9.6112,-0.0067,-0.0295,0.0844
46393,45.775948,-0.057737,145.45,16.87,3.216,111.1,13 / 15,4639311,2019-08-09 23:52:36:538,-0.4446,-0.9815,9.7501,0.8374,-1.7531,9.6123,0.0113,-0.0099,0.1088
46394,45.775948,-0.057737,145.45,16.87,3.216,111.1,13 / 15,4639411,2019-08-09 23:52:36:638,-0.0508,-1.6099,9.5292,0.8164,-1.7329,9.6177,-0.0072,-0.0052,0.0935
46395,45.775948,-0.057737,145.45,16.87,3.216,111.1,13 / 15,4639510,2019-08-09 23:52:36:737,-0.3213,-2.2534,9.3981,0.8036,-1.7506,9.6156,-0.0173,-0.003,0.0691
46396,45.775948,-0.057737,145.45,16.87,3.216,111.1,13 / 16,4639610,2019-08-09 23:52:36:837,0.6418,-1.1521,9.9326,0.7872,-1.7511,9.6169,0.0317,-0.0115,0.0745
46397,45.775948,-0.057737,145.45,16.87,3.216,111.1,13 / 16,4639710,2019-08-09 23:52:36:937,0.2838,-0.5822,10.0338,0.7801,-1.7391,9.6196,0.0444,-0.0083,0.0694
46398,45.775948,-0.057737,145.45,16.87,3.216,111.1,13 / 16,4639810,2019-08-09 23:52:37:037,-0.3093,-1.4836,9.5052,0.7708,-1.754,9.6177,-0.0031,-0.0017,0.1016
46399,45.775948,-0.057737,145.45,16.87,3.216,111.1,13 / 16,4639910,2019-08-09 23:52:37:137,0.3784,-1.4998,9.5801,0.7644,-1.7551,9.618,0.0078,-0.0071,0.0505
46400,45.775948,-0.057737,145.45,16.87,3.216,111.1,13 / 16,4640010,2019-08-09 23:52:37:237,0.7788,-0.8677,9.7812,0.7451,-1.7575,9.6191,0.0177,-0.0282,0.0425
46401,45.775948,-0.057737,145.45,16.87,3.216,111.1,13 / 16,4640110,2019-08-09 23:52:37:337,-0.4069,-1.1227,9.449,0.7208,-1.7432,9.6235,-0.0093,-0.0416,0.098
46402,45.775948,-0.057737,145.45,16.87,3.216,111.1,13 / 16,4640210,2019-08-09 23:52:37:437,-0.6236,-1.8356,9.5579,0.6926,-1.7333,9.6274,-0.0279,-0.0334,0.1358
46403,45.775948,-0.057737,145.45,16.87,3.216,111.1,13 / 16,4640311,2019-08-09 23:52:37:538,-0.9444,-2.1887,9.2682,0.6399,-1.7298,9.6317,0.0117,-0.0239,0.1126
46404,45.775948,-0.057737,145.45,16.87,3.216,111.1,13 / 16,4640411,2019-08-09 23:52:37:638,-0.3393,-1.4184,9.9781,0.6108,-1.745,9.6308,0.0198,-0.0139,0.1104
46405,45.775948,-0.057737,145.45,16.87,3.216,111.1,13 / 16,4640511,2019-08-09 23:52:37:738,-0.4608,-1.9984,10.0853,0.5827,-1.7526,9.6312,0.017,-0.0128,0.091
46406,45.775948,-0.057737,145.45,16.87,3.216,111.1,14 / 17,4640610,2019-08-09 23:52:37:837,-0.1729,-1.6058,10.002,0.5671,-1.7626,9.6303,0.0354,-0.0086,0.0834
