,GPS LATITUDE (degrees),GPS LONGITUDE (degrees), GPS ALTITUDE (m),GPS SPEED (Kmh),GPS ACCURACY (m),GPS ORIENTATION (Â°), SATELLITES IN RANGE, TIME SINCE START (ms), DATE (YYYY-MO-DD HH-MI-SS_SSS),ACCELEROMETER X (m/s²) , ACCELEROMETER Y (m/s²), ACCELEROMETER Z (m/s²), GRAVITY X (m/s²), GRAVITY Y (m/s²), GRAVITY Z (m/s²), GYROSCOPE Yaw (rad/s), GYROSCOPE Pitch (rad/s), GYROSCOPE Roll (rad/s)
29033,47.72041,-1.709721,78.92,28.64,25.728,343.2,0 / 23,817741,2019-08-12 16:46:18:183,0.3564,-0.6002,10.2099,0.392,-0.1734,9.7973,-0.008,0.0074,-0.0254
29034,47.72041,-1.709721,78.92,28.64,25.728,343.2,0 / 23,817741,2019-08-12 16:46:18:183,0.3564,-0.6002,10.2099,0.392,-0.1734,9.7973,-0.008,0.0074,-0.0254
29035,47.72041,-1.709721,78.92,28.64,25.728,343.2,0 / 23,817741,2019-08-12 16:46:18:183,0.3564,-0.6002,10.2099,0.392,-0.1734,9.7973,-0.008,0.0074,-0.0254
29036,47.72041,-1.709721,78.92,28.64,25.728,343.2,0 / 23,817742,2019-08-12 16:46:18:184,0.3564,-0.6002,10.2099,0.392,-0.1734,9.7973,-0.008,0.0074,-0.0254
29037,47.72041,-1.709721,78.92,28.64,25.728,343.2,0 / 23,817742,2019-08-12 16:46:18:184,0.3564,-0.6002,10.2099,0.392,-0.1734,9.7973,-0.008,0.0074,-0.0254
29038,47.72041,-1.709721,78.92,28.64,25.728,343.2,0 / 23,817742,2019-08-12 16:46:18:184,0.3564,-0.6002,10.2099,0.392,-0.1734,9.7973,-0.008,0.0074,-0.0254
29039,47.72041,-1.709721,78.92,28.64,25.728,343.2,0 / 23,817742,2019-08-12 16:46:18:184,0.3564,-0.6002,10.2099,0.392,-0.1734,9.7973,-0.008,0.0074,-0.0254
29040,47.72041,-1.709721,78.92,28.64,25.728,343.2,0 / 23,817742,2019-08-12 16:46:18:184,0.3564,-0.6002,10.2099,0.392,-0.1734,9.7973,-0.008,0.0074,-0.0254
29041,47.72041,-1.709721,78.92,28.64,25.728,343.2,0 / 23,817742,2019-08-12 16:46:18:184,0.3564,-0.6002,10.2099,0.392,-0.1734,9.7973,-0.008,0.0074,-0.0254
29042,47.72041,-1.709721,78.92,28.64,25.728,343.2,0 / 23,817742,2019-08-12 16:46:18:184,0.3564,-0.6002,10.2099,0.392,-0.1734,9.7973,-0.008,0.0074,-0.0254
29043,47.72041,-1.709721,78.92,28.64,25.728,343.2,0 / 23,817743,2019-08-12 16:46:18:185,0.3564,-0.6002,10.2099,0.392,-0.1734,9.7973,-0.008,0.0074,-0.0254
29044,47.72041,-1.709721,78.92,28.64,25.728,343.2,0 / 23,817743,2019-08-12 16:46:18:185,0.3564,-0.6002,10.2099,0.392,-0.1734,9.7973,-0.008,0.0074,-0.0254
29045,47.72041,-1.709721,78.92,28.64,25.728,343.2,0 / 23,817743,2019-08-12 16:46:18:185,0.3564,-0.6002,10.2099,0.392,-0.1734,9.7973,-0.008,0.0074,-0.0254
29046,47.72041,-1.709721,78.92,28.64,25.728,343.2,0 / 23,817743,2019-08-12 16:46:18:185,0.3564,-0.6002,10.2099,0.392,-0.1734,9.7973,-0.008,0.0074,-0.0254
29047,47.72041,-1.709721,78.92,28.64,25.728,343.2,0 / 23,817744,2019-08-12 16:46:18:186,0.3564,-0.6002,10.2099,0.392,-0.1734,9.7973,-0.008,0.0074,-0.0254
29048,47.72041,-1.709721,78.92,28.64,25.728,343.2,0 / 23,817745,2019-08-12 16:46:18:187,0.3564,-0.6002,10.2099,0.392,-0.1734,9.7973,-0.008,0.0074,-0.0254
29049,47.72041,-1.709721,78.92,28.64,25.728,343.2,0 / 23,817745,2019-08-12 16:46:18:187,0.3564,-0.6002,10.2099,0.392,-0.1734,9.7973,-0.008,0.0074,-0.0254
29050,47.72041,-1.709721,78.92,28.64,25.728,343.2,0 / 23,817745,2019-08-12 16:46:18:187,0.3564,-0.6002,10.2099,0.392,-0.1734,9.7973,-0.008,0.0074,-0.0254
29051,47.72041,-1.709721,78.92,28.64,25.728,343.2,0 / 23,817745,2019-08-12 16:46:18:187,0.3564,-0.6002,10.2099,0.392,-0.1734,9.7973,-0.008,0.0074,-0.0254
29052,47.72041,-1.709721,78.92,28.64,25.728,343.2,0 / 23,817745,2019-08-12 16:46:18:187,0.3564,-0.6002,10.2099,0.392,-0.1734,9.7973,-0.008,0.0074,-0.0254
29053,47.72041,-1.709721,78.92,28.64,25.728,343.2,0 / 23,817745,2019-08-12 16:46:18:187,0.3564,-0.6002,10.2099,0.392,-0.1734,9.7973,-0.008,0.0074,-0.0254
29054,47.72041,-1.709721,78.92,28.64,25.728,343.2,0 / 23,817745,2019-08-12 16:46:18:187,0.3564,-0.6002,10.2099,0.392,-0.1734,9.7973,-0.008,0.0074,-0.0254
29055,47.72041,-1.709721,78.92,28.64,25.728,343.2,0 / 23,817745,2019-08-12 16:46:18:187,0.3564,-0.6002,10.2099,0.392,-0.1734,9.7973,-0.008,0.0074,-0.0254
29056,47.72041,-1.709721,78.92,28.64,25.728,343.2,0 / 23,817745,2019-08-12 16:46:18:187,0.3564,-0.6002,10.2099,0.392,-0.1734,9.7973,-0.008,0.0074,-0.0254
29057,47.72041,-1.709721,78.92,28.64,25.728,343.2,0 / 23,817746,2019-08-12 16:46:18:188,0.3564,-0.6002,10.2099,0.392,-0.1734,9.7973,-0.008,0.0074,-0.0254
29058,47.72041,-1.709721,78.92,28.64,25.728,343.2,0 / 23,817746,2019-08-12 16:46:18:188,0.3564,-0.6002,10.2099,0.392,-0.1734,9.7973,-0.008,0.0074,-0.0254
29059,47.72041,-1.709721,78.92,28.64,25.728,343.2,0 / 23,817746,2019-08-12 16:46:18:188,0.3564,-0.6002,10.2099,0.392,-0.1734,9.7973,-0.008,0.0074,-0.0254
29060,47.72041,-1.709721,78.92,28.64,25.728,343.2,0 / 23,817746,2019-08-12 16:46:18:188,0.3564,-0.6002,10.2099,0.392,-0.1734,9.7973,-0.008,0.0074,-0.0254
29061,47.72041,-1.709721,78.92,28.64,25.728,343.2,0 / 23,817746,2019-08-12 16:46:18:188,0.3564,-0.6002,10.2099,0.392,-0.1734,9.7973,-0.008,0.0074,-0.0254
29062,47.72041,-1.709721,78.92,28.64,25.728,343.2,0 / 23,817746,2019-08-12 16:46:18:188,0.3564,-0.6002,10.2099,0.392,-0.1734,9.7973,-0.008,0.0074,-0.0254
29063,47.72041,-1.709721,78.92,28.64,25.728,343.2,0 / 23,817746,2019-08-12 16:46:18:188,0.3564,-0.6002,10.2099,0.392,-0.1734,9.7973,-0.008,0.0074,-0.0254
29064,47.72041,-1.709721,78.92,28.64,25.728,343.2,0 / 23,817746,2019-08-12 16:46:18:188,0.3564,-0.6002,10.2099,0.392,-0.1734,9.7973,-0.008,0.0074,-0.0254
29065,47.72041,-1.709721,78.92,28.64,25.728,343.2,0 / 23,817746,2019-08-12 16:46:18:188,0.3564,-0.6002,10.2099,0.392,-0.1734,9.7973,-0.008,0.0074,-0.0254
29066,47.72041,-1.709721,78.92,28.64,25.728,343.2,0 / 23,817747,2019-08-12 16:46:18:189,0.3564,-0.6002,10.2099,0.392,-0.1734,9.7973,-0.008,0.0074,-0.0254
29067,47.72041,-1.709721,78.92,28.64,25.728,343.2,0 / 23,817747,2019-08-12 16:46:18:189,0.3564,-0.6002,10.2099,0.392,-0.1734,9.7973,-0.008,0.0074,-0.0254
29068,47.72041,-1.709721,78.92,28.64,25.728,343.2,0 / 23,817747,2019-08-12 16:46:18:189,0.3564,-0.6002,10.2099,0.392,-0.1734,9.7973,-0.008,0.0074,-0.0254
29069,47.72041,-1.709721,78.92,28.64,25.728,343.2,0 / 23,817747,2019-08-12 16:46:18:189,0.3564,-0.6002,10.2099,0.392,-0.1734,9.7973,-0.008,0.0074,-0.0254
29070,47.72041,-1.709721,78.92,28.64,25.728,343.2,0 / 23,817800,2019-08-12 16:46:18:242,0.3564,-0.6002,10.2099,0.392,-0.1734,9.7973,-0.008,0.0074,-0.0254
29071,47.72041,-1.709721,78.92,28.64,25.728,343.2,0 / 23,818133,2019-08-12 16:46:18:575,0.3564,-0.6002,10.2099,0.392,-0.1734,9.7973,-0.008,0.0074,-0.0254
29072,47.72041,-1.709721,78.92,28.64,25.728,343.2,Dec-23,818133,2019-08-12 16:46:18:575,0.3564,-0.6002,10.2099,0.392,-0.1734,9.7973,-0.008,0.0074,-0.0254
29073,47.72041,-1.709721,78.92,28.64,25.728,343.2,Dec-23,818133,2019-08-12 16:46:18:575,0.3564,-0.6002,10.2099,0.392,-0.1734,9.7973,-0.008,0.0074,-0.0254
29074,47.72041,-1.709721,78.92,28.64,25.728,343.2,Dec-23,818134,2019-08-12 16:46:18:576,0.3564,-0.6002,10.2099,0.392,-0.1734,9.7973,-0.008,0.0074,-0.0254
29075,47.72041,-1.709721,78.92,28.64,25.728,343.2,Dec-23,818134,2019-08-12 16:46:18:576,0.3564,-0.6002,10.2099,0.392,-0.1734,9.7973,-0.008,0.0074,-0.0254
29076,47.72041,-1.709721,78.92,28.64,25.728,343.2,Dec-23,818134,2019-08-12 16:46:18:576,0.3564,-0.6002,10.2099,0.392,-0.1734,9.7973,-0.008,0.0074,-0.0254
29077,47.72041,-1.709721,78.92,28.64,25.728,343.2,Dec-23,818134,2019-08-12 16:46:18:576,0.3564,-0.6002,10.2099,0.392,-0.1734,9.7973,-0.008,0.0074,-0.0254
29078,47.72041,-1.709721,78.92,28.64,25.728,343.2,Dec-23,818134,2019-08-12 16:46:18:576,0.3564,-0.6002,10.2099,0.392,-0.1734,9.7973,-0.008,0.0074,-0.0254
29079,47.72041,-1.709721,78.92,28.64,25.728,343.2,Dec-23,818135,2019-08-12 16:46:18:577,0.3564,-0.6002,10.2099,0.392,-0.1734,9.7973,-0.008,0.0074,-0.0254
29080,47.72041,-1.709721,78.92,28.64,25.728,343.2,Dec-23,818185,2019-08-12 16:46:18:627,0.3564,-0.6002,10.2099,0.392,-0.1734,9.7973,-0.008,0.0074,-0.0254
29081,47.72041,-1.709721,78.92,28.64,25.728,343.2,0 / 23,818554,2019-08-12 16:46:18:996,0.3564,-0.6002,10.2099,0.392,-0.1734,9.7973,-0.008,0.0074,-0.0254
29082,47.72041,-1.709721,78.92,28.64,25.728,343.2,0 / 23,818555,2019-08-12 16:46:18:997,0.3564,-0.6002,10.2099,0.392,-0.1734,9.7973,-0.008,0.0074,-0.0254
29083,47.72041,-1.709721,78.92,28.64,25.728,343.2,0 / 23,818556,2019-08-12 16:46:18:998,0.3564,-0.6002,10.2099,0.392,-0.1734,9.7973,-0.008,0.0074,-0.0254
29084,47.72041,-1.709721,78.92,28.64,25.728,343.2,0 / 23,818556,2019-08-12 16:46:18:998,0.3564,-0.6002,10.2099,0.392,-0.1734,9.7973,-0.008,0.0074,-0.0254
29085,47.72041,-1.709721,78.92,28.64,25.728,343.2,0 / 23,818556,2019-08-12 16:46:18:998,0.3564,-0.6002,10.2099,0.392,-0.1734,9.7973,-0.008,0.0074,-0.0254
29086,47.72041,-1.709721,78.92,28.64,25.728,343.2,0 / 23,818557,2019-08-12 16:46:18:999,0.3564,-0.6002,10.2099,0.392,-0.1734,9.7973,-0.008,0.0074,-0.0254
29087,47.72041,-1.709721,78.92,28.64,25.728,343.2,0 / 23,818557,2019-08-12 16:46:18:999,0.3564,-0.6002,10.2099,0.392,-0.1734,9.7973,-0.008,0.0074,-0.0254
29088,47.72041,-1.709721,78.92,28.64,25.728,343.2,0 / 23,818557,2019-08-12 16:46:18:999,0.3564,-0.6002,10.2099,0.392,-0.1734,9.7973,-0.008,0.0074,-0.0254
29089,47.72041,-1.709721,78.92,28.64,25.728,343.2,0 / 23,818558,2019-08-12 16:46:19:000,0.3564,-0.6002,10.2099,0.392,-0.1734,9.7973,-0.008,0.0074,-0.0254
29090,47.72041,-1.709721,78.92,28.64,25.728,343.2,0 / 23,818590,2019-08-12 16:46:19:032,0.3564,-0.6002,10.2099,0.392,-0.1734,9.7973,-0.008,0.0074,-0.0254
29091,47.72041,-1.709721,78.92,28.64,25.728,343.2,0 / 23,818969,2019-08-12 16:46:19:411,0.3564,-0.6002,10.2099,0.392,-0.1734,9.7973,-0.008,0.0074,-0.0254
29092,47.72041,-1.709721,78.92,28.64,25.728,343.2,0 / 23,818969,2019-08-12 16:46:19:411,0.3564,-0.6002,10.2099,0.392,-0.1734,9.7973,-0.008,0.0074,-0.0254
29093,47.72041,-1.709721,78.92,28.64,25.728,343.2,0 / 23,818970,2019-08-12 16:46:19:412,0.3564,-0.6002,10.2099,0.392,-0.1734,9.7973,-0.008,0.0074,-0.0254
29094,47.72041,-1.709721,78.92,28.64,25.728,343.2,0 / 23,818971,2019-08-12 16:46:19:413,0.3564,-0.6002,10.2099,0.392,-0.1734,9.7973,-0.008,0.0074,-0.0254
29095,47.72041,-1.709721,78.92,28.64,25.728,343.2,0 / 23,818971,2019-08-12 16:46:19:413,0.3564,-0.6002,10.2099,0.392,-0.1734,9.7973,-0.008,0.0074,-0.0254
29096,47.72041,-1.709721,78.92,28.64,25.728,343.2,0 / 23,818972,2019-08-12 16:46:19:414,0.3564,-0.6002,10.2099,0.392,-0.1734,9.7973,-0.008,0.0074,-0.0254
29097,47.72041,-1.709721,78.92,28.64,25.728,343.2,0 / 23,818972,2019-08-12 16:46:19:414,0.3564,-0.6002,10.2099,0.392,-0.1734,9.7973,-0.008,0.0074,-0.0254
29098,47.72041,-1.709721,78.92,28.64,25.728,343.2,0 / 23,818972,2019-08-12 16:46:19:414,0.3564,-0.6002,10.2099,0.392,-0.1734,9.7973,-0.008,0.0074,-0.0254
29099,47.72041,-1.709721,78.92,28.64,25.728,343.2,0 / 23,818973,2019-08-12 16:46:19:415,0.3564,-0.6002,10.2099,0.392,-0.1734,9.7973,-0.008,0.0074,-0.0254
29100,47.72041,-1.709721,78.92,28.64,25.728,343.2,0 / 23,818982,2019-08-12 16:46:19:424,0.3564,-0.6002,10.2099,0.392,-0.1734,9.7973,-0.008,0.0074,-0.0254
29101,47.72041,-1.709721,78.92,28.64,25.728,343.2,0 / 23,818982,2019-08-12 16:46:19:424,0.3564,-0.6002,10.2099,0.392,-0.1734,9.7973,-0.008,0.0074,-0.0254
29102,47.72041,-1.709721,78.92,28.64,25.728,343.2,0 / 23,818985,2019-08-12 16:46:19:427,0.3564,-0.6002,10.2099,0.392,-0.1734,9.7973,-0.008,0.0074,-0.0254
29103,47.72041,-1.709721,78.92,28.64,25.728,343.2,0 / 23,819084,2019-08-12 16:46:19:526,0.3564,-0.6002,10.2099,0.392,-0.1734,9.7973,-0.008,0.0074,-0.0254
29104,47.72041,-1.709721,78.92,28.64,25.728,343.2,0 / 23,819443,2019-08-12 16:46:19:885,0.3564,-0.6002,10.2099,0.392,-0.1734,9.7973,-0.008,0.0074,-0.0254
29105,47.72041,-1.709721,78.92,28.64,25.728,343.2,0 / 23,819444,2019-08-12 16:46:19:886,0.3564,-0.6002,10.2099,0.392,-0.1734,9.7973,-0.008,0.0074,-0.0254
29106,47.72041,-1.709721,78.92,28.64,25.728,343.2,0 / 23,819445,2019-08-12 16:46:19:887,0.3564,-0.6002,10.2099,0.392,-0.1734,9.7973,-0.008,0.0074,-0.0254
29107,47.72041,-1.709721,78.92,28.64,25.728,343.2,0 / 23,819445,2019-08-12 16:46:19:887,0.3564,-0.6002,10.2099,0.392,-0.1734,9.7973,-0.008,0.0074,-0.0254
29108,47.72041,-1.709721,78.92,28.64,25.728,343.2,0 / 23,819445,2019-08-12 16:46:19:887,0.3564,-0.6002,10.2099,0.392,-0.1734,9.7973,-0.008,0.0074,-0.0254
29109,47.72041,-1.709721,78.92,28.64,25.728,343.2,0 / 23,819446,2019-08-12 16:46:19:888,0.3564,-0.6002,10.2099,0.392,-0.1734,9.7973,-0.008,0.0074,-0.0254
29110,47.72041,-1.709721,78.92,28.64,25.728,343.2,0 / 23,819446,2019-08-12 16:46:19:888,0.3564,-0.6002,10.2099,0.392,-0.1734,9.7973,-0.008,0.0074,-0.0254
29111,47.72041,-1.709721,78.92,28.64,25.728,343.2,0 / 23,819446,2019-08-12 16:46:19:888,0.3564,-0.6002,10.2099,0.392,-0.1734,9.7973,-0.008,0.0074,-0.0254
29112,47.72041,-1.709721,78.92,28.64,25.728,343.2,0 / 23,819447,2019-08-12 16:46:19:889,0.3564,-0.6002,10.2099,0.392,-0.1734,9.7973,-0.008,0.0074,-0.0254
29113,47.72041,-1.709721,78.92,28.64,25.728,343.2,0 / 23,819447,2019-08-12 16:46:19:889,0.3564,-0.6002,10.2099,0.392,-0.1734,9.7973,-0.008,0.0074,-0.0254
29114,47.72041,-1.709721,78.92,28.64,25.728,343.2,0 / 23,819447,2019-08-12 16:46:19:889,0.3564,-0.6002,10.2099,0.392,-0.1734,9.7973,-0.008,0.0074,-0.0254
29115,47.72041,-1.709721,78.92,28.64,25.728,343.2,0 / 23,819447,2019-08-12 16:46:19:889,0.3564,-0.6002,10.2099,0.392,-0.1734,9.7973,-0.008,0.0074,-0.0254
29116,47.72041,-1.709721,78.92,28.64,25.728,343.2,0 / 23,819448,2019-08-12 16:46:19:890,0.3564,-0.6002,10.2099,0.392,-0.1734,9.7973,-0.008,0.0074,-0.0254
29117,47.72041,-1.709721,78.92,28.64,25.728,343.2,0 / 23,819448,2019-08-12 16:46:19:890,0.3564,-0.6002,10.2099,0.392,-0.1734,9.7973,-0.008,0.0074,-0.0254
29118,47.72041,-1.709721,78.92,28.64,25.728,343.2,0 / 23,819448,2019-08-12 16:46:19:890,0.3564,-0.6002,10.2099,0.392,-0.1734,9.7973,-0.008,0.0074,-0.0254
29119,47.72041,-1.709721,78.92,28.64,25.728,343.2,0 / 23,819448,2019-08-12 16:46:19:890,0.3564,-0.6002,10.2099,0.392,-0.1734,9.7973,-0.008,0.0074,-0.0254
29120,47.72041,-1.709721,78.92,28.64,25.728,343.2,0 / 23,819449,2019-08-12 16:46:19:891,0.3564,-0.6002,10.2099,0.392,-0.1734,9.7973,-0.008,0.0074,-0.0254
29121,47.72041,-1.709721,78.92,28.64,25.728,343.2,0 / 23,819449,2019-08-12 16:46:19:891,0.3564,-0.6002,10.2099,0.392,-0.1734,9.7973,-0.008,0.0074,-0.0254
29122,47.72041,-1.709721,78.92,28.64,25.728,343.2,0 / 23,819449,2019-08-12 16:46:19:891,0.3564,-0.6002,10.2099,0.392,-0.1734,9.7973,-0.008,0.0074,-0.0254
29123,47.72041,-1.709721,78.92,28.64,25.728,343.2,0 / 23,819449,2019-08-12 16:46:19:891,0.3564,-0.6002,10.2099,0.392,-0.1734,9.7973,-0.008,0.0074,-0.0254
29124,47.72041,-1.709721,78.92,28.64,25.728,343.2,0 / 23,819450,2019-08-12 16:46:19:892,0.3564,-0.6002,10.2099,0.392,-0.1734,9.7973,-0.008,0.0074,-0.0254
29125,47.72041,-1.709721,78.92,28.64,25.728,343.2,0 / 23,819450,2019-08-12 16:46:19:892,0.3564,-0.6002,10.2099,0.392,-0.1734,9.7973,-0.008,0.0074,-0.0254
29126,47.72041,-1.709721,78.92,28.64,25.728,343.2,0 / 23,819450,2019-08-12 16:46:19:892,0.3564,-0.6002,10.2099,0.392,-0.1734,9.7973,-0.008,0.0074,-0.0254
29127,47.72041,-1.709721,78.92,28.64,25.728,343.2,0 / 23,819450,2019-08-12 16:46:19:892,0.3564,-0.6002,10.2099,0.392,-0.1734,9.7973,-0.008,0.0074,-0.0254
29128,47.72041,-1.709721,78.92,28.64,25.728,343.2,0 / 23,819451,2019-08-12 16:46:19:893,0.3564,-0.6002,10.2099,0.392,-0.1734,9.7973,-0.008,0.0074,-0.0254
29129,47.72041,-1.709721,78.92,28.64,25.728,343.2,0 / 23,819451,2019-08-12 16:46:19:893,0.3564,-0.6002,10.2099,0.392,-0.1734,9.7973,-0.008,0.0074,-0.0254
29130,47.72041,-1.709721,78.92,28.64,25.728,343.2,0 / 23,819451,2019-08-12 16:46:19:893,0.3564,-0.6002,10.2099,0.392,-0.1734,9.7973,-0.008,0.0074,-0.0254
29131,47.72041,-1.709721,78.92,28.64,25.728,343.2,0 / 23,819451,2019-08-12 16:46:19:893,0.3564,-0.6002,10.2099,0.392,-0.1734,9.7973,-0.008,0.0074,-0.0254
29132,47.72041,-1.709721,78.92,28.64,25.728,343.2,0 / 23,819452,2019-08-12 16:46:19:894,0.3564,-0.6002,10.2099,0.392,-0.1734,9.7973,-0.008,0.0074,-0.0254
29133,47.72041,-1.709721,78.92,28.64,25.728,343.2,0 / 23,819461,2019-08-12 16:46:19:903,0.3564,-0.6002,10.2099,0.392,-0.1734,9.7973,-0.008,0.0074,-0.0254
29134,47.72041,-1.709721,78.92,28.64,25.728,343.2,0 / 23,819461,2019-08-12 16:46:19:903,0.3564,-0.6002,10.2099,0.392,-0.1734,9.7973,-0.008,0.0074,-0.0254
29135,47.72041,-1.709721,78.92,28.64,25.728,343.2,0 / 23,819465,2019-08-12 16:46:19:907,0.3564,-0.6002,10.2099,0.392,-0.1734,9.7973,-0.008,0.0074,-0.0254
29136,47.72041,-1.709721,78.92,28.64,25.728,343.2,0 / 23,819465,2019-08-12 16:46:19:907,0.3564,-0.6002,10.2099,0.392,-0.1734,9.7973,-0.008,0.0074,-0.0254
29137,47.72041,-1.709721,78.92,28.64,25.728,343.2,0 / 23,819466,2019-08-12 16:46:19:908,0.3564,-0.6002,10.2099,0.392,-0.1734,9.7973,-0.008,0.0074,-0.0254
29138,47.72041,-1.709721,78.92,28.64,25.728,343.2,0 / 23,819466,2019-08-12 16:46:19:908,0.3564,-0.6002,10.2099,0.392,-0.1734,9.7973,-0.008,0.0074,-0.0254
29139,47.72041,-1.709721,78.92,28.64,25.728,343.2,0 / 23,819467,2019-08-12 16:46:19:909,0.3564,-0.6002,10.2099,0.392,-0.1734,9.7973,-0.008,0.0074,-0.0254
29140,47.72041,-1.709721,78.92,28.64,25.728,343.2,0 / 23,819467,2019-08-12 16:46:19:909,0.3564,-0.6002,10.2099,0.392,-0.1734,9.7973,-0.008,0.0074,-0.0254
29141,47.72041,-1.709721,78.92,28.64,25.728,343.2,0 / 23,819468,2019-08-12 16:46:19:910,0.3564,-0.6002,10.2099,0.392,-0.1734,9.7973,-0.008,0.0074,-0.0254
29142,47.72041,-1.709721,78.92,28.64,25.728,343.2,0 / 23,819468,2019-08-12 16:46:19:910,0.3564,-0.6002,10.2099,0.392,-0.1734,9.7973,-0.008,0.0074,-0.0254
29143,47.72041,-1.709721,78.92,28.64,25.728,343.2,0 / 23,819468,2019-08-12 16:46:19:910,0.3564,-0.6002,10.2099,0.392,-0.1734,9.7973,-0.008,0.0074,-0.0254
29144,47.72041,-1.709721,78.92,28.64,25.728,343.2,0 / 23,819469,2019-08-12 16:46:19:911,0.3564,-0.6002,10.2099,0.392,-0.1734,9.7973,-0.008,0.0074,-0.0254
29145,47.72041,-1.709721,78.92,28.64,25.728,343.2,0 / 23,819469,2019-08-12 16:46:19:911,0.3564,-0.6002,10.2099,0.392,-0.1734,9.7973,-0.008,0.0074,-0.0254
29146,47.72041,-1.709721,78.92,28.64,25.728,343.2,0 / 23,819469,2019-08-12 16:46:19:911,0.3564,-0.6002,10.2099,0.392,-0.1734,9.7973,-0.008,0.0074,-0.0254
29147,47.72041,-1.709721,78.92,28.64,25.728,343.2,0 / 23,819470,2019-08-12 16:46:19:912,0.3564,-0.6002,10.2099,0.392,-0.1734,9.7973,-0.008,0.0074,-0.0254
29148,47.72041,-1.709721,78.92,28.64,25.728,343.2,0 / 23,819470,2019-08-12 16:46:19:912,0.3564,-0.6002,10.2099,0.392,-0.1734,9.7973,-0.008,0.0074,-0.0254
29149,47.72041,-1.709721,78.92,28.64,25.728,343.2,0 / 23,819470,2019-08-12 16:46:19:912,0.3564,-0.6002,10.2099,0.392,-0.1734,9.7973,-0.008,0.0074,-0.0254
29150,47.72041,-1.709721,78.92,28.64,25.728,343.2,0 / 23,819471,2019-08-12 16:46:19:913,0.3564,-0.6002,10.2099,0.392,-0.1734,9.7973,-0.008,0.0074,-0.0254
29151,47.72041,-1.709721,78.92,28.64,25.728,343.2,0 / 23,819471,2019-08-12 16:46:19:913,0.3564,-0.6002,10.2099,0.392,-0.1734,9.7973,-0.008,0.0074,-0.0254
29152,47.72041,-1.709721,78.92,28.64,25.728,343.2,0 / 23,819471,2019-08-12 16:46:19:913,0.3564,-0.6002,10.2099,0.392,-0.1734,9.7973,-0.008,0.0074,-0.0254
29153,47.72041,-1.709721,78.92,28.64,25.728,343.2,0 / 23,819472,2019-08-12 16:46:19:914,0.3564,-0.6002,10.2099,0.392,-0.1734,9.7973,-0.008,0.0074,-0.0254
29154,47.72041,-1.709721,78.92,28.64,25.728,343.2,0 / 23,819472,2019-08-12 16:46:19:914,0.3564,-0.6002,10.2099,0.392,-0.1734,9.7973,-0.008,0.0074,-0.0254
29155,47.72041,-1.709721,78.92,28.64,25.728,343.2,0 / 23,819472,2019-08-12 16:46:19:914,0.3564,-0.6002,10.2099,0.392,-0.1734,9.7973,-0.008,0.0074,-0.0254
29156,47.72041,-1.709721,78.92,28.64,25.728,343.2,0 / 23,819473,2019-08-12 16:46:19:915,0.3564,-0.6002,10.2099,0.392,-0.1734,9.7973,-0.008,0.0074,-0.0254
29157,47.72041,-1.709721,78.92,28.64,25.728,343.2,0 / 23,819473,2019-08-12 16:46:19:915,0.3564,-0.6002,10.2099,0.392,-0.1734,9.7973,-0.008,0.0074,-0.0254
29158,47.72041,-1.709721,78.92,28.64,25.728,343.2,0 / 23,819474,2019-08-12 16:46:19:916,0.3564,-0.6002,10.2099,0.392,-0.1734,9.7973,-0.008,0.0074,-0.0254
29159,47.72041,-1.709721,78.92,28.64,25.728,343.2,0 / 23,819474,2019-08-12 16:46:19:916,0.3564,-0.6002,10.2099,0.392,-0.1734,9.7973,-0.008,0.0074,-0.0254
29160,47.72041,-1.709721,78.92,28.64,25.728,343.2,0 / 23,819486,2019-08-12 16:46:19:928,0.3564,-0.6002,10.2099,0.392,-0.1734,9.7973,-0.008,0.0074,-0.0254
29161,47.72041,-1.709721,78.92,28.64,25.728,343.2,0 / 23,819585,2019-08-12 16:46:20:027,0.3564,-0.6002,10.2099,0.392,-0.1734,9.7973,-0.008,0.0074,-0.0254
29162,47.72041,-1.709721,78.92,28.64,25.728,343.2,0 / 23,819876,2019-08-12 16:46:20:318,0.3564,-0.6002,10.2099,0.392,-0.1734,9.7973,-0.008,0.0074,-0.0254
29163,47.72041,-1.709721,78.92,28.64,25.728,343.2,0 / 23,819876,2019-08-12 16:46:20:318,0.3564,-0.6002,10.2099,0.392,-0.1734,9.7973,-0.008,0.0074,-0.0254
29164,47.72041,-1.709721,78.92,28.64,25.728,343.2,0 / 23,819877,2019-08-12 16:46:20:319,0.3564,-0.6002,10.2099,0.392,-0.1734,9.7973,-0.008,0.0074,-0.0254
29165,47.72041,-1.709721,78.92,28.64,25.728,343.2,0 / 23,819877,2019-08-12 16:46:20:319,0.3564,-0.6002,10.2099,0.392,-0.1734,9.7973,-0.008,0.0074,-0.0254
29166,47.72041,-1.709721,78.92,28.64,25.728,343.2,0 / 23,819877,2019-08-12 16:46:20:319,0.3564,-0.6002,10.2099,0.392,-0.1734,9.7973,-0.008,0.0074,-0.0254
29167,47.72041,-1.709721,78.92,28.64,25.728,343.2,0 / 23,819878,2019-08-12 16:46:20:320,0.3564,-0.6002,10.2099,0.392,-0.1734,9.7973,-0.008,0.0074,-0.0254
29168,47.72041,-1.709721,78.92,28.64,25.728,343.2,0 / 23,819878,2019-08-12 16:46:20:320,0.3564,-0.6002,10.2099,0.392,-0.1734,9.7973,-0.008,0.0074,-0.0254
29169,47.72041,-1.709721,78.92,28.64,25.728,343.2,0 / 23,819878,2019-08-12 16:46:20:320,0.3564,-0.6002,10.2099,0.392,-0.1734,9.7973,-0.008,0.0074,-0.0254
29170,47.72041,-1.709721,78.92,28.64,25.728,343.2,Aug-23,819919,2019-08-12 16:46:20:361,0.3564,-0.6002,10.2099,0.392,-0.1734,9.7973,-0.008,0.0074,-0.0254
29171,47.72041,-1.709721,78.92,28.64,25.728,343.2,Aug-23,820310,2019-08-12 16:46:20:752,0.3564,-0.6002,10.2099,0.392,-0.1734,9.7973,-0.008,0.0074,-0.0254
29172,47.72041,-1.709721,78.92,28.64,25.728,343.2,Aug-23,820311,2019-08-12 16:46:20:753,0.3564,-0.6002,10.2099,0.392,-0.1734,9.7973,-0.008,0.0074,-0.0254
29173,47.72041,-1.709721,78.92,28.64,25.728,343.2,Aug-23,820311,2019-08-12 16:46:20:753,0.3564,-0.6002,10.2099,0.392,-0.1734,9.7973,-0.008,0.0074,-0.0254
29174,47.72041,-1.709721,78.92,28.64,25.728,343.2,Aug-23,820312,2019-08-12 16:46:20:754,0.3564,-0.6002,10.2099,0.392,-0.1734,9.7973,-0.008,0.0074,-0.0254
29175,47.72041,-1.709721,78.92,28.64,25.728,343.2,Aug-23,820312,2019-08-12 16:46:20:754,0.3564,-0.6002,10.2099,0.392,-0.1734,9.7973,-0.008,0.0074,-0.0254
29176,47.72041,-1.709721,78.92,28.64,25.728,343.2,Aug-23,820313,2019-08-12 16:46:20:755,0.3564,-0.6002,10.2099,0.392,-0.1734,9.7973,-0.008,0.0074,-0.0254
29177,47.72041,-1.709721,78.92,28.64,25.728,343.2,Aug-23,820313,2019-08-12 16:46:20:755,0.3564,-0.6002,10.2099,0.392,-0.1734,9.7973,-0.008,0.0074,-0.0254
29178,47.72041,-1.709721,78.92,28.64,25.728,343.2,Aug-23,820313,2019-08-12 16:46:20:755,0.3564,-0.6002,10.2099,0.392,-0.1734,9.7973,-0.008,0.0074,-0.0254
29179,47.72041,-1.709721,78.92,28.64,25.728,343.2,Aug-23,820314,2019-08-12 16:46:20:756,0.3564,-0.6002,10.2099,0.392,-0.1734,9.7973,-0.008,0.0074,-0.0254
29180,47.72041,-1.709721,78.92,28.64,25.728,343.2,0 / 23,820350,2019-08-12 16:46:20:792,0.3564,-0.6002,10.2099,0.392,-0.1734,9.7973,-0.008,0.0074,-0.0254
29181,47.72041,-1.709721,78.92,28.64,25.728,343.2,0 / 23,820450,2019-08-12 16:46:20:892,0.3564,-0.6002,10.2099,0.392,-0.1734,9.7973,-0.008,0.0074,-0.0254
29182,47.72041,-1.709721,78.92,28.64,25.728,343.2,0 / 23,820756,2019-08-12 16:46:21:198,0.3564,-0.6002,10.2099,0.392,-0.1734,9.7973,-0.008,0.0074,-0.0254
29183,47.72041,-1.709721,78.92,28.64,25.728,343.2,0 / 23,820756,2019-08-12 16:46:21:198,0.3564,-0.6002,10.2099,0.392,-0.1734,9.7973,-0.008,0.0074,-0.0254
29184,47.72041,-1.709721,78.92,28.64,25.728,343.2,0 / 23,820757,2019-08-12 16:46:21:199,0.3564,-0.6002,10.2099,0.392,-0.1734,9.7973,-0.008,0.0074,-0.0254
29185,47.72041,-1.709721,78.92,28.64,25.728,343.2,0 / 23,820757,2019-08-12 16:46:21:199,0.3564,-0.6002,10.2099,0.392,-0.1734,9.7973,-0.008,0.0074,-0.0254
29186,47.72041,-1.709721,78.92,28.64,25.728,343.2,0 / 23,820757,2019-08-12 16:46:21:199,0.3564,-0.6002,10.2099,0.392,-0.1734,9.7973,-0.008,0.0074,-0.0254
29187,47.72041,-1.709721,78.92,28.64,25.728,343.2,0 / 23,820758,2019-08-12 16:46:21:200,0.3564,-0.6002,10.2099,0.392,-0.1734,9.7973,-0.008,0.0074,-0.0254
29188,47.72041,-1.709721,78.92,28.64,25.728,343.2,0 / 23,820758,2019-08-12 16:46:21:200,0.3564,-0.6002,10.2099,0.392,-0.1734,9.7973,-0.008,0.0074,-0.0254
29189,47.72041,-1.709721,78.92,28.64,25.728,343.2,0 / 23,820758,2019-08-12 16:46:21:200,0.3564,-0.6002,10.2099,0.392,-0.1734,9.7973,-0.008,0.0074,-0.0254
29190,47.72041,-1.709721,78.92,28.64,25.728,343.2,0 / 23,820797,2019-08-12 16:46:21:239,0.3564,-0.6002,10.2099,0.392,-0.1734,9.7973,-0.008,0.0074,-0.0254
29191,47.72041,-1.709721,78.92,28.64,25.728,343.2,0 / 23,820939,2019-08-12 16:46:21:381,0.3564,-0.6002,10.2099,0.392,-0.1734,9.7973,-0.008,0.0074,-0.0254
29192,47.72041,-1.709721,78.92,28.64,25.728,343.2,0 / 23,820996,2019-08-12 16:46:21:438,0.3564,-0.6002,10.2099,0.392,-0.1734,9.7973,-0.008,0.0074,-0.0254
29193,47.72041,-1.709721,78.92,28.64,25.728,343.2,0 / 23,821096,2019-08-12 16:46:21:538,0.3564,-0.6002,10.2099,0.392,-0.1734,9.7973,-0.008,0.0074,-0.0254
29194,47.72041,-1.709721,78.92,28.64,25.728,343.2,0 / 23,821442,2019-08-12 16:46:21:884,0.1014,0.0331,9.5515,0.0724,0.0558,9.8062,0.0207,0.0043,-0.0116
29195,47.72041,-1.709721,78.92,28.64,25.728,343.2,0 / 23,821442,2019-08-12 16:46:21:884,0.1014,0.0331,9.5515,0.0724,0.0558,9.8062,0.0207,0.0043,-0.0116
29196,47.72041,-1.709721,78.92,28.64,25.728,343.2,0 / 23,821442,2019-08-12 16:46:21:884,0.1014,0.0331,9.5515,0.0724,0.0558,9.8062,0.0207,0.0043,-0.0116
29197,47.72041,-1.709721,78.92,28.64,25.728,343.2,0 / 23,821443,2019-08-12 16:46:21:885,0.1014,0.0331,9.5515,0.0724,0.0558,9.8062,0.0207,0.0043,-0.0116
29198,47.72041,-1.709721,78.92,28.64,25.728,343.2,0 / 23,821443,2019-08-12 16:46:21:885,0.1014,0.0331,9.5515,0.0724,0.0558,9.8062,0.0207,0.0043,-0.0116
29199,47.72041,-1.709721,78.92,28.64,25.728,343.2,0 / 23,821443,2019-08-12 16:46:21:885,0.1014,0.0331,9.5515,0.0724,0.0558,9.8062,0.0207,0.0043,-0.0116
29200,47.72041,-1.709721,78.92,28.64,25.728,343.2,0 / 23,821500,2019-08-12 16:46:21:942,0.1014,0.0331,9.5515,0.0724,0.0558,9.8062,0.0207,0.0043,-0.0116
29201,47.72041,-1.709721,78.92,28.64,25.728,343.2,0 / 23,821819,2019-08-12 16:46:22:261,0.1014,0.0331,9.5515,0.0724,0.0558,9.8062,0.0207,0.0043,-0.0116
29202,47.72041,-1.709721,78.92,28.64,25.728,343.2,0 / 23,821819,2019-08-12 16:46:22:261,0.1014,0.0331,9.5515,0.0724,0.0558,9.8062,0.0207,0.0043,-0.0116
29203,47.72041,-1.709721,78.92,28.64,25.728,343.2,0 / 23,821820,2019-08-12 16:46:22:262,0.1014,0.0331,9.5515,0.0724,0.0558,9.8062,0.0207,0.0043,-0.0116
29204,47.72041,-1.709721,78.92,28.64,25.728,343.2,0 / 23,821820,2019-08-12 16:46:22:262,0.1014,0.0331,9.5515,0.0724,0.0558,9.8062,0.0207,0.0043,-0.0116
29205,47.72041,-1.709721,78.92,28.64,25.728,343.2,0 / 23,821820,2019-08-12 16:46:22:262,0.1014,0.0331,9.5515,0.0724,0.0558,9.8062,0.0207,0.0043,-0.0116
29206,47.72041,-1.709721,78.92,28.64,25.728,343.2,0 / 23,821820,2019-08-12 16:46:22:262,0.1014,0.0331,9.5515,0.0724,0.0558,9.8062,0.0207,0.0043,-0.0116
29207,47.72041,-1.709721,78.92,28.64,25.728,343.2,0 / 23,821820,2019-08-12 16:46:22:262,0.1014,0.0331,9.5515,0.0724,0.0558,9.8062,0.0207,0.0043,-0.0116
29208,47.72041,-1.709721,78.92,28.64,25.728,343.2,0 / 23,821861,2019-08-12 16:46:22:303,0.1014,0.0331,9.5515,0.0724,0.0558,9.8062,0.0207,0.0043,-0.0116
29209,47.72041,-1.709721,78.92,28.64,25.728,343.2,0 / 23,821969,2019-08-12 16:46:22:411,0.1014,0.0331,9.5515,0.0724,0.0558,9.8062,0.0207,0.0043,-0.0116
29210,47.72523,-1.711487,90.21,29.94,28.944,349.8,0 / 23,822060,2019-08-12 16:46:22:502,0.1014,0.0331,9.5515,0.0724,0.0558,9.8062,0.0207,0.0043,-0.0116
29211,47.72523,-1.711487,90.21,29.94,28.944,349.8,0 / 23,822161,2019-08-12 16:46:22:603,0.1014,0.0331,9.5515,0.0724,0.0558,9.8062,0.0207,0.0043,-0.0116
29212,47.72523,-1.711487,90.21,29.94,28.944,349.8,0 / 23,822261,2019-08-12 16:46:22:703,0.0691,-0.0651,10.2171,0.0646,0.1494,9.8053,0.0058,-0.0096,0.0001
29213,47.72523,-1.711487,90.21,29.94,28.944,349.8,0 / 23,822361,2019-08-12 16:46:22:803,0.2953,0.0714,10.2111,0.065,0.155,9.8052,0.0047,-0.0011,0.0001
29214,47.72523,-1.711487,90.21,29.94,28.944,349.8,0 / 23,822461,2019-08-12 16:46:22:903,0.2738,0.2976,9.9334,0.061,0.1502,9.8053,-0.0038,0.0064,0.0001
29215,47.72523,-1.711487,90.21,29.94,28.944,349.8,0 / 23,822561,2019-08-12 16:46:23:003,0.2738,0.2976,9.9334,0.0572,0.1498,9.8053,-0.0038,0.0096,0.0001
29216,47.72523,-1.711487,90.21,29.94,28.944,349.8,0 / 23,822661,2019-08-12 16:46:23:103,0.2738,0.2976,9.9334,0.0572,0.1498,9.8053,-0.0038,0.0096,0.0001
29217,47.72523,-1.711487,90.21,29.94,28.944,349.8,0 / 23,822760,2019-08-12 16:46:23:202,0.3624,0.3323,9.4414,0.0312,0.1518,9.8054,-0.0016,0.017,0.0012
29218,47.72523,-1.711487,90.21,29.94,28.944,349.8,0 / 23,822860,2019-08-12 16:46:23:302,-0.1309,0.1348,10.0866,0.0532,0.163,9.8052,0.009,-0.0181,0.0012
29219,47.72523,-1.711487,90.21,29.94,28.944,349.8,0 / 23,822962,2019-08-12 16:46:23:404,-0.1404,0.2018,9.7861,0.0614,0.1659,9.8051,0.0016,-0.0043,0.0001
29220,47.72523,-1.711487,90.21,29.94,28.944,349.8,0 / 23,823306,2019-08-12 16:46:23:748,-0.1404,0.2018,9.7861,0.06,0.1667,9.805,-0.0006,0.0053,0.0012
29221,47.72523,-1.711487,90.21,29.94,28.944,349.8,0 / 23,823307,2019-08-12 16:46:23:749,-0.1404,0.2018,9.7861,0.06,0.1667,9.805,-0.0006,0.0053,0.0012
29222,47.72523,-1.711487,90.21,29.94,28.944,349.8,0 / 23,823308,2019-08-12 16:46:23:750,-0.1404,0.2018,9.7861,0.06,0.1667,9.805,-0.0006,0.0053,0.0012
29223,47.72523,-1.711487,90.21,29.94,28.944,349.8,0 / 23,823308,2019-08-12 16:46:23:750,-0.1404,0.2018,9.7861,0.06,0.1667,9.805,-0.0006,0.0053,0.0012
29224,47.72523,-1.711487,90.21,29.94,28.944,349.8,0 / 23,823308,2019-08-12 16:46:23:750,-0.1404,0.2018,9.7861,0.06,0.1667,9.805,-0.0006,0.0053,0.0012
29225,47.72523,-1.711487,90.21,29.94,28.944,349.8,0 / 23,823309,2019-08-12 16:46:23:751,-0.1404,0.2018,9.7861,0.06,0.1667,9.805,-0.0006,0.0053,0.0012
29226,47.72523,-1.711487,90.21,29.94,28.944,349.8,0 / 23,823309,2019-08-12 16:46:23:751,-0.1404,0.2018,9.7861,0.06,0.1667,9.805,-0.0006,0.0053,0.0012
29227,47.72523,-1.711487,90.21,29.94,28.944,349.8,0 / 23,823310,2019-08-12 16:46:23:752,-0.1404,0.2018,9.7861,0.06,0.1667,9.805,-0.0006,0.0053,0.0012
29228,47.72523,-1.711487,90.21,29.94,28.944,349.8,0 / 23,823310,2019-08-12 16:46:23:752,-0.1404,0.2018,9.7861,0.06,0.1667,9.805,-0.0006,0.0053,0.0012
29229,47.72523,-1.711487,90.21,29.94,28.944,349.8,0 / 23,823311,2019-08-12 16:46:23:753,-0.1404,0.2018,9.7861,0.06,0.1667,9.805,-0.0006,0.0053,0.0012
29230,47.72523,-1.711487,90.21,29.94,28.944,349.8,0 / 23,823311,2019-08-12 16:46:23:753,-0.1404,0.2018,9.7861,0.06,0.1667,9.805,-0.0006,0.0053,0.0012
29231,47.72523,-1.711487,90.21,29.94,28.944,349.8,0 / 23,823312,2019-08-12 16:46:23:754,-0.1404,0.2018,9.7861,0.06,0.1667,9.805,-0.0006,0.0053,0.0012
29232,47.72523,-1.711487,90.21,29.94,28.944,349.8,0 / 23,823314,2019-08-12 16:46:23:756,-0.1404,0.2018,9.7861,0.06,0.1667,9.805,-0.0006,0.0053,0.0012
29233,47.72523,-1.711487,90.21,29.94,28.944,349.8,0 / 23,823315,2019-08-12 16:46:23:757,-0.1404,0.2018,9.7861,0.06,0.1667,9.805,-0.0006,0.0053,0.0012
29234,47.72523,-1.711487,90.21,29.94,28.944,349.8,0 / 23,823315,2019-08-12 16:46:23:757,-0.1404,0.2018,9.7861,0.06,0.1667,9.805,-0.0006,0.0053,0.0012
29235,47.72523,-1.711487,90.21,29.94,28.944,349.8,0 / 23,823316,2019-08-12 16:46:23:758,-0.1404,0.2018,9.7861,0.06,0.1667,9.805,-0.0006,0.0053,0.0012
29236,47.72523,-1.711487,90.21,29.94,28.944,349.8,0 / 23,823316,2019-08-12 16:46:23:758,-0.1404,0.2018,9.7861,0.06,0.1667,9.805,-0.0006,0.0053,0.0012
29237,47.72523,-1.711487,90.21,29.94,28.944,349.8,0 / 23,823317,2019-08-12 16:46:23:759,-0.1404,0.2018,9.7861,0.06,0.1667,9.805,-0.0006,0.0053,0.0012
29238,47.72523,-1.711487,90.21,29.94,28.944,349.8,0 / 23,823317,2019-08-12 16:46:23:759,-0.1404,0.2018,9.7861,0.06,0.1667,9.805,-0.0006,0.0053,0.0012
29239,47.72523,-1.711487,90.21,29.94,28.944,349.8,0 / 23,823318,2019-08-12 16:46:23:760,-0.1404,0.2018,9.7861,0.06,0.1667,9.805,-0.0006,0.0053,0.0012
29240,47.72523,-1.711487,90.21,29.94,28.944,349.8,0 / 23,823319,2019-08-12 16:46:23:761,-0.1404,0.2018,9.7861,0.06,0.1667,9.805,-0.0006,0.0053,0.0012
29241,47.72523,-1.711487,90.21,29.94,28.944,349.8,0 / 23,823319,2019-08-12 16:46:23:761,-0.1404,0.2018,9.7861,0.06,0.1667,9.805,-0.0006,0.0053,0.0012
29242,47.72523,-1.711487,90.21,29.94,28.944,349.8,0 / 23,823320,2019-08-12 16:46:23:762,-0.1404,0.2018,9.7861,0.06,0.1667,9.805,-0.0006,0.0053,0.0012
29243,47.72523,-1.711487,90.21,29.94,28.944,349.8,0 / 23,823321,2019-08-12 16:46:23:763,-0.1404,0.2018,9.7861,0.06,0.1667,9.805,-0.0006,0.0053,0.0012
29244,47.72523,-1.711487,90.21,29.94,28.944,349.8,0 / 23,823321,2019-08-12 16:46:23:763,-0.1404,0.2018,9.7861,0.06,0.1667,9.805,-0.0006,0.0053,0.0012
29245,47.72523,-1.711487,90.21,29.94,28.944,349.8,0 / 23,823322,2019-08-12 16:46:23:764,-0.1404,0.2018,9.7861,0.06,0.1667,9.805,-0.0006,0.0053,0.0012
29246,47.72523,-1.711487,90.21,29.94,28.944,349.8,0 / 23,823322,2019-08-12 16:46:23:764,-0.1404,0.2018,9.7861,0.06,0.1667,9.805,-0.0006,0.0053,0.0012
29247,47.72523,-1.711487,90.21,29.94,28.944,349.8,0 / 23,823323,2019-08-12 16:46:23:765,-0.1404,0.2018,9.7861,0.06,0.1667,9.805,-0.0006,0.0053,0.0012
29248,47.72523,-1.711487,90.21,29.94,28.944,349.8,0 / 23,823324,2019-08-12 16:46:23:766,-0.1404,0.2018,9.7861,0.06,0.1667,9.805,-0.0006,0.0053,0.0012
29249,47.72523,-1.711487,90.21,29.94,28.944,349.8,0 / 23,823324,2019-08-12 16:46:23:766,-0.1404,0.2018,9.7861,0.06,0.1667,9.805,-0.0006,0.0053,0.0012
29250,47.72523,-1.711487,90.21,29.94,28.944,349.8,0 / 23,823334,2019-08-12 16:46:23:776,-0.1404,0.2018,9.7861,0.06,0.1667,9.805,-0.0006,0.0053,0.0012
29251,47.72523,-1.711487,90.21,29.94,28.944,349.8,0 / 23,823434,2019-08-12 16:46:23:876,-0.1404,0.2018,9.7861,0.06,0.1667,9.805,-0.0006,0.0053,0.0012
29252,47.72523,-1.711487,90.21,29.94,28.944,349.8,Aug-23,823770,2019-08-12 16:46:24:212,-0.1404,0.2018,9.7861,0.06,0.1667,9.805,-0.0006,0.0053,0.0012
29253,47.72523,-1.711487,90.21,29.94,28.944,349.8,Aug-23,823771,2019-08-12 16:46:24:213,-0.1404,0.2018,9.7861,0.06,0.1667,9.805,-0.0006,0.0053,0.0012
29254,47.72523,-1.711487,90.21,29.94,28.944,349.8,Aug-23,823771,2019-08-12 16:46:24:213,-0.1404,0.2018,9.7861,0.06,0.1667,9.805,-0.0006,0.0053,0.0012
29255,47.72523,-1.711487,90.21,29.94,28.944,349.8,Aug-23,823771,2019-08-12 16:46:24:213,-0.1404,0.2018,9.7861,0.06,0.1667,9.805,-0.0006,0.0053,0.0012
29256,47.72523,-1.711487,90.21,29.94,28.944,349.8,Aug-23,823772,2019-08-12 16:46:24:214,-0.1404,0.2018,9.7861,0.06,0.1667,9.805,-0.0006,0.0053,0.0012
29257,47.72523,-1.711487,90.21,29.94,28.944,349.8,Aug-23,823772,2019-08-12 16:46:24:214,-0.1404,0.2018,9.7861,0.06,0.1667,9.805,-0.0006,0.0053,0.0012
29258,47.72523,-1.711487,90.21,29.94,28.944,349.8,Aug-23,823773,2019-08-12 16:46:24:215,-0.1404,0.2018,9.7861,0.06,0.1667,9.805,-0.0006,0.0053,0.0012
29259,47.72523,-1.711487,90.21,29.94,28.944,349.8,Aug-23,823773,2019-08-12 16:46:24:215,-0.1404,0.2018,9.7861,0.06,0.1667,9.805,-0.0006,0.0053,0.0012
29260,47.72523,-1.711487,90.21,29.94,28.944,349.8,Aug-23,823800,2019-08-12 16:46:24:242,-0.1404,0.2018,9.7861,0.06,0.1667,9.805,-0.0006,0.0053,0.0012
29261,47.72523,-1.711487,90.21,29.94,28.944,349.8,Aug-23,823901,2019-08-12 16:46:24:343,-0.1404,0.2018,9.7861,0.06,0.1667,9.805,-0.0006,0.0053,0.0012
29262,47.72523,-1.711487,90.21,29.94,28.944,349.8,Aug-23,824237,2019-08-12 16:46:24:679,-0.1404,0.2018,9.7861,0.06,0.1667,9.805,-0.0006,0.0053,0.0012
29263,47.72523,-1.711487,90.21,29.94,28.944,349.8,Aug-23,824237,2019-08-12 16:46:24:679,-0.1404,0.2018,9.7861,0.06,0.1667,9.805,-0.0006,0.0053,0.0012
29264,47.72523,-1.711487,90.21,29.94,28.944,349.8,Aug-23,824238,2019-08-12 16:46:24:680,-0.1404,0.2018,9.7861,0.06,0.1667,9.805,-0.0006,0.0053,0.0012
29265,47.72523,-1.711487,90.21,29.94,28.944,349.8,Aug-23,824239,2019-08-12 16:46:24:681,-0.1404,0.2018,9.7861,0.06,0.1667,9.805,-0.0006,0.0053,0.0012
29266,47.72523,-1.711487,90.21,29.94,28.944,349.8,Aug-23,824239,2019-08-12 16:46:24:681,-0.1404,0.2018,9.7861,0.06,0.1667,9.805,-0.0006,0.0053,0.0012
29267,47.72523,-1.711487,90.21,29.94,28.944,349.8,Aug-23,824239,2019-08-12 16:46:24:681,-0.1404,0.2018,9.7861,0.06,0.1667,9.805,-0.0006,0.0053,0.0012
29268,47.72523,-1.711487,90.21,29.94,28.944,349.8,Aug-23,824240,2019-08-12 16:46:24:682,-0.1404,0.2018,9.7861,0.06,0.1667,9.805,-0.0006,0.0053,0.0012
29269,47.72523,-1.711487,90.21,29.94,28.944,349.8,Aug-23,824240,2019-08-12 16:46:24:682,-0.1404,0.2018,9.7861,0.06,0.1667,9.805,-0.0006,0.0053,0.0012
29270,47.72523,-1.711487,90.21,29.94,28.944,349.8,0 / 23,824267,2019-08-12 16:46:24:709,-0.1404,0.2018,9.7861,0.06,0.1667,9.805,-0.0006,0.0053,0.0012
29271,47.72523,-1.711487,90.21,29.94,28.944,349.8,0 / 23,824367,2019-08-12 16:46:24:809,-0.1404,0.2018,9.7861,0.06,0.1667,9.805,-0.0006,0.0053,0.0012
29272,47.72523,-1.711487,90.21,29.94,28.944,349.8,0 / 23,824699,2019-08-12 16:46:25:141,-0.1404,0.2018,9.7861,0.06,0.1667,9.805,-0.0006,0.0053,0.0012
29273,47.72523,-1.711487,90.21,29.94,28.944,349.8,0 / 23,824700,2019-08-12 16:46:25:142,-0.1404,0.2018,9.7861,0.06,0.1667,9.805,-0.0006,0.0053,0.0012
29274,47.72523,-1.711487,90.21,29.94,28.944,349.8,0 / 23,824700,2019-08-12 16:46:25:142,-0.1404,0.2018,9.7861,0.06,0.1667,9.805,-0.0006,0.0053,0.0012
29275,47.72523,-1.711487,90.21,29.94,28.944,349.8,0 / 23,824701,2019-08-12 16:46:25:143,-0.1404,0.2018,9.7861,0.06,0.1667,9.805,-0.0006,0.0053,0.0012
29276,47.72523,-1.711487,90.21,29.94,28.944,349.8,0 / 23,824701,2019-08-12 16:46:25:143,-0.1404,0.2018,9.7861,0.06,0.1667,9.805,-0.0006,0.0053,0.0012
29277,47.72523,-1.711487,90.21,29.94,28.944,349.8,0 / 23,824701,2019-08-12 16:46:25:143,-0.1404,0.2018,9.7861,0.06,0.1667,9.805,-0.0006,0.0053,0.0012
29278,47.72523,-1.711487,90.21,29.94,28.944,349.8,0 / 23,824703,2019-08-12 16:46:25:145,-0.1404,0.2018,9.7861,0.06,0.1667,9.805,-0.0006,0.0053,0.0012
29279,47.72523,-1.711487,90.21,29.94,28.944,349.8,0 / 23,824704,2019-08-12 16:46:25:146,-0.1404,0.2018,9.7861,0.06,0.1667,9.805,-0.0006,0.0053,0.0012
29280,47.72523,-1.711487,90.21,29.94,28.944,349.8,0 / 23,824731,2019-08-12 16:46:25:173,-0.1404,0.2018,9.7861,0.06,0.1667,9.805,-0.0006,0.0053,0.0012
29281,47.72523,-1.711487,90.21,29.94,28.944,349.8,0 / 23,824831,2019-08-12 16:46:25:273,-0.1404,0.2018,9.7861,0.06,0.1667,9.805,-0.0006,0.0053,0.0012
29282,47.72523,-1.711487,90.21,29.94,28.944,349.8,0 / 23,825160,2019-08-12 16:46:25:602,-0.1404,0.2018,9.7861,0.06,0.1667,9.805,-0.0006,0.0053,0.0012
29283,47.72523,-1.711487,90.21,29.94,28.944,349.8,0 / 23,825161,2019-08-12 16:46:25:603,-0.1404,0.2018,9.7861,0.06,0.1667,9.805,-0.0006,0.0053,0.0012
29284,47.72523,-1.711487,90.21,29.94,28.944,349.8,0 / 23,825161,2019-08-12 16:46:25:603,-0.1404,0.2018,9.7861,0.06,0.1667,9.805,-0.0006,0.0053,0.0012
29285,47.72523,-1.711487,90.21,29.94,28.944,349.8,0 / 23,825162,2019-08-12 16:46:25:604,-0.1404,0.2018,9.7861,0.06,0.1667,9.805,-0.0006,0.0053,0.0012
29286,47.72523,-1.711487,90.21,29.94,28.944,349.8,0 / 23,825162,2019-08-12 16:46:25:604,-0.1404,0.2018,9.7861,0.06,0.1667,9.805,-0.0006,0.0053,0.0012
29287,47.72523,-1.711487,90.21,29.94,28.944,349.8,0 / 23,825163,2019-08-12 16:46:25:605,-0.1404,0.2018,9.7861,0.06,0.1667,9.805,-0.0006,0.0053,0.0012
29288,47.72523,-1.711487,90.21,29.94,28.944,349.8,0 / 23,825163,2019-08-12 16:46:25:605,-0.1404,0.2018,9.7861,0.06,0.1667,9.805,-0.0006,0.0053,0.0012
29289,47.72523,-1.711487,90.21,29.94,28.944,349.8,0 / 23,825164,2019-08-12 16:46:25:606,-0.1404,0.2018,9.7861,0.06,0.1667,9.805,-0.0006,0.0053,0.0012
29290,47.72523,-1.711487,90.21,29.94,28.944,349.8,0 / 23,825191,2019-08-12 16:46:25:633,-0.1404,0.2018,9.7861,0.06,0.1667,9.805,-0.0006,0.0053,0.0012
29291,47.72523,-1.711487,90.21,29.94,28.944,349.8,0 / 23,825291,2019-08-12 16:46:25:733,-0.1404,0.2018,9.7861,0.06,0.1667,9.805,-0.0006,0.0053,0.0012
29292,47.72523,-1.711487,90.21,29.94,28.944,349.8,0 / 23,825391,2019-08-12 16:46:25:833,-0.1404,0.2018,9.7861,0.06,0.1667,9.805,-0.0006,0.0053,0.0012
29293,47.72523,-1.711487,90.21,29.94,28.944,349.8,0 / 23,825491,2019-08-12 16:46:25:933,-0.1404,0.2018,9.7861,0.06,0.1667,9.805,-0.0006,0.0053,0.0012
29294,47.72523,-1.711487,90.21,29.94,28.944,349.8,0 / 23,825591,2019-08-12 16:46:26:033,0.0224,0.1336,10.2195,-0.1364,-0.2101,9.8035,-0.0006,0.0053,0.0001
29295,47.72523,-1.711487,90.21,29.94,28.944,349.8,0 / 23,825690,2019-08-12 16:46:26:132,-0.3607,-0.5739,9.5,-0.1516,-0.2319,9.8027,-0.0059,0.0138,-0.0201
29296,47.72523,-1.711487,90.21,29.94,28.944,349.8,0 / 23,825791,2019-08-12 16:46:26:233,-0.2805,-0.4829,9.5874,-0.1633,-0.2364,9.8024,0.009,0.0096,-0.018
29297,47.72523,-1.711487,90.21,29.94,28.944,349.8,0 / 23,825891,2019-08-12 16:46:26:333,-0.2075,-0.5284,9.7514,-0.1734,-0.2779,9.8012,0.0165,0.0053,-0.019
29298,47.72523,-1.711487,90.21,29.94,28.944,349.8,0 / 23,825991,2019-08-12 16:46:26:433,-0.0363,-0.5164,10.247,-0.1662,-0.3086,9.8004,-0.0006,-0.0107,-0.0201
29299,47.72523,-1.711487,90.21,29.94,28.944,349.8,0 / 23,826091,2019-08-12 16:46:26:533,0.026,-0.4446,10.156,-0.1564,-0.318,9.8002,-0.0059,-0.0139,-0.0212
29300,47.72523,-1.711487,90.21,29.94,28.944,349.8,0 / 23,826190,2019-08-12 16:46:26:632,-0.1045,-0.4075,9.8292,-0.1613,-0.3296,9.7998,-0.0027,0.0096,-0.0201
29301,47.72523,-1.711487,90.21,29.94,28.944,349.8,0 / 23,826290,2019-08-12 16:46:26:732,-0.2482,-0.3452,10.016,-0.1723,-0.3421,9.7992,0.0037,0.0,-0.019
29302,47.72523,-1.711487,90.21,29.94,28.944,349.8,0 / 23,826390,2019-08-12 16:46:26:832,-0.3799,-0.514,9.5814,-0.1755,-0.3636,9.7983,-0.0016,-0.0043,-0.0201
29303,47.72523,-1.711487,90.21,29.94,28.944,349.8,0 / 23,826490,2019-08-12 16:46:26:932,-0.4852,-0.3871,9.4366,-0.1866,-0.3865,9.7973,-0.0027,0.0021,-0.0212
29304,47.72523,-1.711487,90.21,29.94,28.944,349.8,0 / 23,826590,2019-08-12 16:46:27:032,-0.3643,-0.5332,9.3851,-0.1876,-0.3937,9.7969,0.0037,0.0011,-0.0201
29305,47.72523,-1.711487,90.21,29.94,28.944,349.8,0 / 23,826690,2019-08-12 16:46:27:132,-0.2709,-0.5092,9.9836,-0.1937,-0.4138,9.796,0.0037,-0.0043,-0.019
29306,47.72523,-1.711487,90.21,29.94,28.944,349.8,0 / 23,826791,2019-08-12 16:46:27:233,-0.0339,-0.5475,9.834,-0.2026,-0.4298,9.7951,0.0037,0.0117,-0.018
29307,47.72523,-1.711487,90.21,29.94,28.944,349.8,0 / 23,826890,2019-08-12 16:46:27:332,-0.0399,-0.3835,9.7167,-0.2075,-0.4338,9.7949,-0.008,0.0043,-0.018
29308,47.72523,-1.711487,90.21,29.94,28.944,349.8,0 / 23,826991,2019-08-12 16:46:27:433,-0.0183,-0.2542,9.8735,-0.2122,-0.4318,9.7948,-0.0027,0.0021,-0.018
29309,47.72523,-1.711487,90.21,29.94,28.944,349.8,0 / 23,827092,2019-08-12 16:46:27:534,-0.241,-0.4482,9.5982,-0.2218,-0.4367,9.7944,-0.0006,0.0085,-0.019
29310,47.72523,-1.711487,90.21,29.94,28.944,349.8,0 / 23,827191,2019-08-12 16:46:27:633,-0.3619,-0.5547,9.8915,-0.2263,-0.4565,9.7934,-0.0102,-0.0043,-0.019
29311,47.72523,-1.711487,90.21,29.94,28.944,349.8,0 / 23,827291,2019-08-12 16:46:27:733,-0.3655,-0.3069,9.3839,-0.2233,-0.4475,9.7939,-0.0123,-0.0032,-0.0169
29312,47.72523,-1.711487,90.21,29.94,28.944,349.8,0 / 23,827391,2019-08-12 16:46:27:833,-0.3559,-0.4099,9.494,-0.2158,-0.4443,9.7942,-0.0123,-0.0021,-0.0169
29313,47.72523,-1.711487,90.21,29.94,28.944,349.8,0 / 23,827724,2019-08-12 16:46:28:166,-0.3559,-0.4099,9.494,-0.2158,-0.4443,9.7942,-0.0123,-0.0021,-0.0169
29314,47.72523,-1.711487,90.21,29.94,28.944,349.8,0 / 23,827725,2019-08-12 16:46:28:167,-0.3559,-0.4099,9.494,-0.2158,-0.4443,9.7942,-0.0123,-0.0021,-0.0169
29315,47.72523,-1.711487,90.21,29.94,28.944,349.8,0 / 23,827725,2019-08-12 16:46:28:167,-0.3559,-0.4099,9.494,-0.2158,-0.4443,9.7942,-0.0123,-0.0021,-0.0169
29316,47.72523,-1.711487,90.21,29.94,28.944,349.8,0 / 23,827726,2019-08-12 16:46:28:168,-0.3559,-0.4099,9.494,-0.2158,-0.4443,9.7942,-0.0123,-0.0021,-0.0169
29317,47.72523,-1.711487,90.21,29.94,28.944,349.8,0 / 23,827726,2019-08-12 16:46:28:168,-0.3559,-0.4099,9.494,-0.2158,-0.4443,9.7942,-0.0123,-0.0021,-0.0169
29318,47.72523,-1.711487,90.21,29.94,28.944,349.8,0 / 23,827727,2019-08-12 16:46:28:169,-0.3559,-0.4099,9.494,-0.2158,-0.4443,9.7942,-0.0123,-0.0021,-0.0169
29319,47.72523,-1.711487,90.21,29.94,28.944,349.8,0 / 23,827727,2019-08-12 16:46:28:169,-0.3559,-0.4099,9.494,-0.2158,-0.4443,9.7942,-0.0123,-0.0021,-0.0169
29320,47.72523,-1.711487,90.21,29.94,28.944,349.8,0 / 23,827728,2019-08-12 16:46:28:170,-0.3559,-0.4099,9.494,-0.2158,-0.4443,9.7942,-0.0123,-0.0021,-0.0169
29321,47.72523,-1.711487,90.21,29.94,28.944,349.8,0 / 23,827729,2019-08-12 16:46:28:171,-0.3559,-0.4099,9.494,-0.2158,-0.4443,9.7942,-0.0123,-0.0021,-0.0169
29322,47.72523,-1.711487,90.21,29.94,28.944,349.8,0 / 23,827730,2019-08-12 16:46:28:172,-0.3559,-0.4099,9.494,-0.2158,-0.4443,9.7942,-0.0123,-0.0021,-0.0169
29323,47.72523,-1.711487,90.21,29.94,28.944,349.8,0 / 23,827731,2019-08-12 16:46:28:173,-0.3559,-0.4099,9.494,-0.2158,-0.4443,9.7942,-0.0123,-0.0021,-0.0169
29324,47.72523,-1.711487,90.21,29.94,28.944,349.8,0 / 23,827731,2019-08-12 16:46:28:173,-0.3559,-0.4099,9.494,-0.2158,-0.4443,9.7942,-0.0123,-0.0021,-0.0169
29325,47.72523,-1.711487,90.21,29.94,28.944,349.8,0 / 23,827733,2019-08-12 16:46:28:175,-0.3559,-0.4099,9.494,-0.2158,-0.4443,9.7942,-0.0123,-0.0021,-0.0169
29326,47.72523,-1.711487,90.21,29.94,28.944,349.8,0 / 23,827733,2019-08-12 16:46:28:175,-0.3559,-0.4099,9.494,-0.2158,-0.4443,9.7942,-0.0123,-0.0021,-0.0169
29327,47.72523,-1.711487,90.21,29.94,28.944,349.8,0 / 23,827734,2019-08-12 16:46:28:176,-0.3559,-0.4099,9.494,-0.2158,-0.4443,9.7942,-0.0123,-0.0021,-0.0169
29328,47.72523,-1.711487,90.21,29.94,28.944,349.8,0 / 23,827734,2019-08-12 16:46:28:176,-0.3559,-0.4099,9.494,-0.2158,-0.4443,9.7942,-0.0123,-0.0021,-0.0169
29329,47.72523,-1.711487,90.21,29.94,28.944,349.8,0 / 23,827735,2019-08-12 16:46:28:177,-0.3559,-0.4099,9.494,-0.2158,-0.4443,9.7942,-0.0123,-0.0021,-0.0169
29330,47.72523,-1.711487,90.21,29.94,28.944,349.8,0 / 23,827735,2019-08-12 16:46:28:177,-0.3559,-0.4099,9.494,-0.2158,-0.4443,9.7942,-0.0123,-0.0021,-0.0169
29331,47.72523,-1.711487,90.21,29.94,28.944,349.8,0 / 23,827737,2019-08-12 16:46:28:179,-0.3559,-0.4099,9.494,-0.2158,-0.4443,9.7942,-0.0123,-0.0021,-0.0169
29332,47.72523,-1.711487,90.21,29.94,28.944,349.8,0 / 23,827737,2019-08-12 16:46:28:179,-0.3559,-0.4099,9.494,-0.2158,-0.4443,9.7942,-0.0123,-0.0021,-0.0169
29333,47.72523,-1.711487,90.21,29.94,28.944,349.8,0 / 23,827738,2019-08-12 16:46:28:180,-0.3559,-0.4099,9.494,-0.2158,-0.4443,9.7942,-0.0123,-0.0021,-0.0169
29334,47.72523,-1.711487,90.21,29.94,28.944,349.8,0 / 23,827739,2019-08-12 16:46:28:181,-0.3559,-0.4099,9.494,-0.2158,-0.4443,9.7942,-0.0123,-0.0021,-0.0169
29335,47.72523,-1.711487,90.21,29.94,28.944,349.8,0 / 23,827739,2019-08-12 16:46:28:181,-0.3559,-0.4099,9.494,-0.2158,-0.4443,9.7942,-0.0123,-0.0021,-0.0169
29336,47.72523,-1.711487,90.21,29.94,28.944,349.8,0 / 23,827740,2019-08-12 16:46:28:182,-0.3559,-0.4099,9.494,-0.2158,-0.4443,9.7942,-0.0123,-0.0021,-0.0169
29337,47.72523,-1.711487,90.21,29.94,28.944,349.8,0 / 23,827740,2019-08-12 16:46:28:182,-0.3559,-0.4099,9.494,-0.2158,-0.4443,9.7942,-0.0123,-0.0021,-0.0169
29338,47.72523,-1.711487,90.21,29.94,28.944,349.8,0 / 23,827741,2019-08-12 16:46:28:183,-0.3559,-0.4099,9.494,-0.2158,-0.4443,9.7942,-0.0123,-0.0021,-0.0169
29339,47.72523,-1.711487,90.21,29.94,28.944,349.8,0 / 23,827742,2019-08-12 16:46:28:184,-0.3559,-0.4099,9.494,-0.2158,-0.4443,9.7942,-0.0123,-0.0021,-0.0169
29340,47.72523,-1.711487,90.21,29.94,28.944,349.8,0 / 23,827758,2019-08-12 16:46:28:200,-0.3559,-0.4099,9.494,-0.2158,-0.4443,9.7942,-0.0123,-0.0021,-0.0169
29341,47.72523,-1.711487,90.21,29.94,28.944,349.8,0 / 23,827858,2019-08-12 16:46:28:300,-0.3559,-0.4099,9.494,-0.2158,-0.4443,9.7942,-0.0123,-0.0021,-0.0169
29342,47.72523,-1.711487,90.21,29.94,28.944,349.8,0 / 23,827958,2019-08-12 16:46:28:400,-0.3559,-0.4099,9.494,-0.2158,-0.4443,9.7942,-0.0123,-0.0021,-0.0169
29343,47.72523,-1.711487,90.21,29.94,28.944,349.8,0 / 23,828058,2019-08-12 16:46:28:500,-0.3559,-0.4099,9.494,-0.2158,-0.4443,9.7942,-0.0123,-0.0021,-0.0169
29344,47.72523,-1.711487,90.21,29.94,28.944,349.8,0 / 23,828158,2019-08-12 16:46:28:600,-0.2446,-0.502,9.7897,-0.1252,-0.6013,9.7874,-0.007,0.0021,-0.018
29345,47.72523,-1.711487,90.21,29.94,28.944,349.8,0 / 23,828258,2019-08-12 16:46:28:700,-0.1943,-0.1154,9.7251,-0.1213,-0.5726,9.7892,0.0026,0.0107,-0.0052
29346,47.72523,-1.711487,90.21,29.94,28.944,349.8,0 / 23,828359,2019-08-12 16:46:28:801,-0.2889,-0.1118,9.9094,-0.1335,-0.5547,9.79,0.0058,0.0202,-0.0063
29347,47.72523,-1.711487,90.21,29.94,28.944,349.8,0 / 23,828458,2019-08-12 16:46:28:900,-0.1129,0.0187,10.174,-0.1411,-0.5258,9.7915,0.0047,0.0011,-0.0052
29348,47.72523,-1.711487,90.21,29.94,28.944,349.8,0 / 23,828559,2019-08-12 16:46:29:001,-0.0578,0.0163,9.8771,-0.1341,-0.4556,9.7951,0.0079,-0.0149,-0.0052
29349,47.72523,-1.711487,90.21,29.94,28.944,349.8,0 / 23,828659,2019-08-12 16:46:29:101,-0.0267,0.0127,10.0591,-0.1256,-0.3193,9.8006,0.0079,-0.0139,-0.0063
29350,47.72523,-1.711487,90.21,29.94,28.944,349.8,Aug-23,828759,2019-08-12 16:46:29:201,-0.1488,0.0175,9.9884,-0.125,-0.2565,9.8025,-0.0016,-0.0085,-0.0052
29351,47.72523,-1.711487,90.21,29.94,28.944,349.8,Aug-23,828859,2019-08-12 16:46:29:301,-0.0279,-0.0172,9.8807,-0.1155,-0.1674,9.8045,-0.0048,0.0021,-0.0031
29352,47.72523,-1.711487,90.21,29.94,28.944,349.8,Aug-23,828958,2019-08-12 16:46:29:400,-0.2877,0.1635,9.6221,-0.1119,-0.1189,9.8053,-0.007,-0.0085,-0.002
29353,47.72523,-1.711487,90.21,29.94,28.944,349.8,Aug-23,829059,2019-08-12 16:46:29:501,-0.1847,0.1564,9.7035,-0.1031,-0.0513,9.806,-0.0016,0.0064,0.0001
29354,47.72523,-1.711487,90.21,29.94,28.944,349.8,Aug-23,829159,2019-08-12 16:46:29:601,-0.2649,0.0343,9.7574,-0.1085,-0.0461,9.8059,0.0026,0.0085,-0.0009
29355,47.72523,-1.711487,90.21,29.94,28.944,349.8,Aug-23,829258,2019-08-12 16:46:29:700,-0.2087,0.039,9.9813,-0.1051,-0.0191,9.8061,0.0069,-0.0149,0.0001
29356,47.72523,-1.711487,90.21,29.94,28.944,349.8,Aug-23,829360,2019-08-12 16:46:29:802,-0.0818,0.1336,10.1477,-0.0956,-0.002,9.8062,-0.0016,-0.0171,-0.0009
29357,47.72523,-1.711487,90.21,29.94,28.944,349.8,Aug-23,829458,2019-08-12 16:46:29:900,-0.0387,0.2366,9.5587,-0.0824,0.001,9.8063,-0.007,-0.0032,-0.0009
29358,47.72523,-1.711487,90.21,29.94,28.944,349.8,Aug-23,829559,2019-08-12 16:46:30:001,0.3588,0.0893,10.5894,-0.0696,0.0328,9.8063,0.0016,0.0053,-0.0009
29359,47.72523,-1.711487,90.21,29.94,28.944,349.8,Aug-23,829659,2019-08-12 16:46:30:101,-0.1536,0.288,10.3152,-0.0701,0.0432,9.8063,0.0111,-0.0064,0.0012
29360,47.72523,-1.711487,90.21,29.94,28.944,349.8,0 / 23,829758,2019-08-12 16:46:30:200,-0.2087,0.0642,9.9932,-0.0638,0.0517,9.8063,0.0058,-0.0075,-0.002
29361,47.72523,-1.711487,90.21,29.94,28.944,349.8,0 / 23,829858,2019-08-12 16:46:30:300,-0.308,0.0259,9.4078,-0.0678,0.0675,9.8062,-0.0038,0.0011,-0.0009
29362,47.72523,-1.711487,90.21,29.94,28.944,349.8,0 / 23,830266,2019-08-12 16:46:30:708,-0.2278,0.0582,9.5671,-0.0671,0.0809,9.8061,-0.0091,0.0021,0.0001
29363,47.72523,-1.711487,90.21,29.94,28.944,349.8,0 / 23,830267,2019-08-12 16:46:30:709,-0.2278,0.0582,9.5671,-0.0671,0.0809,9.8061,-0.0091,0.0021,0.0001
29364,47.72523,-1.711487,90.21,29.94,28.944,349.8,0 / 23,830267,2019-08-12 16:46:30:709,-0.2278,0.0582,9.5671,-0.0671,0.0809,9.8061,-0.0091,0.0021,0.0001
29365,47.72523,-1.711487,90.21,29.94,28.944,349.8,0 / 23,830268,2019-08-12 16:46:30:710,-0.2278,0.0582,9.5671,-0.0671,0.0809,9.8061,-0.0091,0.0021,0.0001
29366,47.72523,-1.711487,90.21,29.94,28.944,349.8,0 / 23,830268,2019-08-12 16:46:30:710,-0.2278,0.0582,9.5671,-0.0671,0.0809,9.8061,-0.0091,0.0021,0.0001
29367,47.72523,-1.711487,90.21,29.94,28.944,349.8,0 / 23,830269,2019-08-12 16:46:30:711,-0.2278,0.0582,9.5671,-0.0671,0.0809,9.8061,-0.0091,0.0021,0.0001
29368,47.72523,-1.711487,90.21,29.94,28.944,349.8,0 / 23,830269,2019-08-12 16:46:30:711,-0.2278,0.0582,9.5671,-0.0671,0.0809,9.8061,-0.0091,0.0021,0.0001
29369,47.72523,-1.711487,90.21,29.94,28.944,349.8,0 / 23,830270,2019-08-12 16:46:30:712,-0.2278,0.0582,9.5671,-0.0671,0.0809,9.8061,-0.0091,0.0021,0.0001
29370,47.72523,-1.711487,90.21,29.94,28.944,349.8,0 / 23,830290,2019-08-12 16:46:30:732,-0.2278,0.0582,9.5671,-0.0671,0.0809,9.8061,-0.0091,0.0021,0.0001
29371,47.729748,-1.71229,112.92,29.52,20.368,355.9,0 / 23,830390,2019-08-12 16:46:30:832,-0.2278,0.0582,9.5671,-0.0671,0.0809,9.8061,-0.0091,0.0021,0.0001
29372,47.729748,-1.71229,112.92,29.52,20.368,355.9,0 / 23,830759,2019-08-12 16:46:31:201,-0.2278,0.0582,9.5671,-0.0671,0.0809,9.8061,-0.0091,0.0021,0.0001
29373,47.729748,-1.71229,112.92,29.52,20.368,355.9,0 / 23,830760,2019-08-12 16:46:31:202,-0.2278,0.0582,9.5671,-0.0671,0.0809,9.8061,-0.0091,0.0021,0.0001
29374,47.729748,-1.71229,112.92,29.52,20.368,355.9,0 / 23,830761,2019-08-12 16:46:31:203,-0.2278,0.0582,9.5671,-0.0671,0.0809,9.8061,-0.0091,0.0021,0.0001
29375,47.729748,-1.71229,112.92,29.52,20.368,355.9,0 / 23,830763,2019-08-12 16:46:31:205,-0.2278,0.0582,9.5671,-0.0671,0.0809,9.8061,-0.0091,0.0021,0.0001
29376,47.729748,-1.71229,112.92,29.52,20.368,355.9,0 / 23,830764,2019-08-12 16:46:31:206,-0.2278,0.0582,9.5671,-0.0671,0.0809,9.8061,-0.0091,0.0021,0.0001
29377,47.729748,-1.71229,112.92,29.52,20.368,355.9,0 / 23,830765,2019-08-12 16:46:31:207,-0.2278,0.0582,9.5671,-0.0671,0.0809,9.8061,-0.0091,0.0021,0.0001
29378,47.729748,-1.71229,112.92,29.52,20.368,355.9,0 / 23,830765,2019-08-12 16:46:31:207,-0.2278,0.0582,9.5671,-0.0671,0.0809,9.8061,-0.0091,0.0021,0.0001
29379,47.729748,-1.71229,112.92,29.52,20.368,355.9,0 / 23,830765,2019-08-12 16:46:31:207,-0.2278,0.0582,9.5671,-0.0671,0.0809,9.8061,-0.0091,0.0021,0.0001
29380,47.729748,-1.71229,112.92,29.52,20.368,355.9,0 / 23,830766,2019-08-12 16:46:31:208,-0.2278,0.0582,9.5671,-0.0671,0.0809,9.8061,-0.0091,0.0021,0.0001
29381,47.729748,-1.71229,112.92,29.52,20.368,355.9,0 / 23,830766,2019-08-12 16:46:31:208,-0.2278,0.0582,9.5671,-0.0671,0.0809,9.8061,-0.0091,0.0021,0.0001
29382,47.729748,-1.71229,112.92,29.52,20.368,355.9,0 / 23,830767,2019-08-12 16:46:31:209,-0.2278,0.0582,9.5671,-0.0671,0.0809,9.8061,-0.0091,0.0021,0.0001
29383,47.729748,-1.71229,112.92,29.52,20.368,355.9,0 / 23,830767,2019-08-12 16:46:31:209,-0.2278,0.0582,9.5671,-0.0671,0.0809,9.8061,-0.0091,0.0021,0.0001
29384,47.729748,-1.71229,112.92,29.52,20.368,355.9,0 / 23,830767,2019-08-12 16:46:31:209,-0.2278,0.0582,9.5671,-0.0671,0.0809,9.8061,-0.0091,0.0021,0.0001
29385,47.729748,-1.71229,112.92,29.52,20.368,355.9,0 / 23,830767,2019-08-12 16:46:31:209,-0.2278,0.0582,9.5671,-0.0671,0.0809,9.8061,-0.0091,0.0021,0.0001
29386,47.729748,-1.71229,112.92,29.52,20.368,355.9,0 / 23,830768,2019-08-12 16:46:31:210,-0.2278,0.0582,9.5671,-0.0671,0.0809,9.8061,-0.0091,0.0021,0.0001
29387,47.729748,-1.71229,112.92,29.52,20.368,355.9,0 / 23,830768,2019-08-12 16:46:31:210,-0.2278,0.0582,9.5671,-0.0671,0.0809,9.8061,-0.0091,0.0021,0.0001
29388,47.729748,-1.71229,112.92,29.52,20.368,355.9,0 / 23,830769,2019-08-12 16:46:31:211,-0.2278,0.0582,9.5671,-0.0671,0.0809,9.8061,-0.0091,0.0021,0.0001
29389,47.729748,-1.71229,112.92,29.52,20.368,355.9,0 / 23,830769,2019-08-12 16:46:31:211,-0.2278,0.0582,9.5671,-0.0671,0.0809,9.8061,-0.0091,0.0021,0.0001
29390,47.729748,-1.71229,112.92,29.52,20.368,355.9,0 / 23,830769,2019-08-12 16:46:31:211,-0.2278,0.0582,9.5671,-0.0671,0.0809,9.8061,-0.0091,0.0021,0.0001
29391,47.729748,-1.71229,112.92,29.52,20.368,355.9,0 / 23,830770,2019-08-12 16:46:31:212,-0.2278,0.0582,9.5671,-0.0671,0.0809,9.8061,-0.0091,0.0021,0.0001
29392,47.729748,-1.71229,112.92,29.52,20.368,355.9,0 / 23,830770,2019-08-12 16:46:31:212,-0.2278,0.0582,9.5671,-0.0671,0.0809,9.8061,-0.0091,0.0021,0.0001
29393,47.729748,-1.71229,112.92,29.52,20.368,355.9,0 / 23,830771,2019-08-12 16:46:31:213,-0.2278,0.0582,9.5671,-0.0671,0.0809,9.8061,-0.0091,0.0021,0.0001
29394,47.729748,-1.71229,112.92,29.52,20.368,355.9,0 / 23,830771,2019-08-12 16:46:31:213,-0.2278,0.0582,9.5671,-0.0671,0.0809,9.8061,-0.0091,0.0021,0.0001
29395,47.729748,-1.71229,112.92,29.52,20.368,355.9,0 / 23,830771,2019-08-12 16:46:31:213,-0.2278,0.0582,9.5671,-0.0671,0.0809,9.8061,-0.0091,0.0021,0.0001
29396,47.729748,-1.71229,112.92,29.52,20.368,355.9,0 / 23,830772,2019-08-12 16:46:31:214,-0.2278,0.0582,9.5671,-0.0671,0.0809,9.8061,-0.0091,0.0021,0.0001
29397,47.729748,-1.71229,112.92,29.52,20.368,355.9,0 / 23,830773,2019-08-12 16:46:31:215,-0.2278,0.0582,9.5671,-0.0671,0.0809,9.8061,-0.0091,0.0021,0.0001
29398,47.729748,-1.71229,112.92,29.52,20.368,355.9,0 / 23,830774,2019-08-12 16:46:31:216,-0.2278,0.0582,9.5671,-0.0671,0.0809,9.8061,-0.0091,0.0021,0.0001
29399,47.729748,-1.71229,112.92,29.52,20.368,355.9,0 / 23,830774,2019-08-12 16:46:31:216,-0.2278,0.0582,9.5671,-0.0671,0.0809,9.8061,-0.0091,0.0021,0.0001
29400,47.729748,-1.71229,112.92,29.52,20.368,355.9,0 / 23,830777,2019-08-12 16:46:31:219,-0.2278,0.0582,9.5671,-0.0671,0.0809,9.8061,-0.0091,0.0021,0.0001
29401,47.729748,-1.71229,112.92,29.52,20.368,355.9,0 / 23,830778,2019-08-12 16:46:31:220,-0.2278,0.0582,9.5671,-0.0671,0.0809,9.8061,-0.0091,0.0021,0.0001
29402,47.729748,-1.71229,112.92,29.52,20.368,355.9,0 / 23,830778,2019-08-12 16:46:31:220,-0.2278,0.0582,9.5671,-0.0671,0.0809,9.8061,-0.0091,0.0021,0.0001
29403,47.729748,-1.71229,112.92,29.52,20.368,355.9,0 / 23,830779,2019-08-12 16:46:31:221,-0.2278,0.0582,9.5671,-0.0671,0.0809,9.8061,-0.0091,0.0021,0.0001
29404,47.729748,-1.71229,112.92,29.52,20.368,355.9,0 / 23,830779,2019-08-12 16:46:31:221,-0.2278,0.0582,9.5671,-0.0671,0.0809,9.8061,-0.0091,0.0021,0.0001
29405,47.729748,-1.71229,112.92,29.52,20.368,355.9,0 / 23,830780,2019-08-12 16:46:31:222,-0.2278,0.0582,9.5671,-0.0671,0.0809,9.8061,-0.0091,0.0021,0.0001
29406,47.729748,-1.71229,112.92,29.52,20.368,355.9,0 / 23,830781,2019-08-12 16:46:31:223,-0.2278,0.0582,9.5671,-0.0671,0.0809,9.8061,-0.0091,0.0021,0.0001
29407,47.729748,-1.71229,112.92,29.52,20.368,355.9,0 / 23,830781,2019-08-12 16:46:31:223,-0.2278,0.0582,9.5671,-0.0671,0.0809,9.8061,-0.0091,0.0021,0.0001
29408,47.729748,-1.71229,112.92,29.52,20.368,355.9,0 / 23,830782,2019-08-12 16:46:31:224,-0.2278,0.0582,9.5671,-0.0671,0.0809,9.8061,-0.0091,0.0021,0.0001
29409,47.729748,-1.71229,112.92,29.52,20.368,355.9,0 / 23,830783,2019-08-12 16:46:31:225,-0.2278,0.0582,9.5671,-0.0671,0.0809,9.8061,-0.0091,0.0021,0.0001
29410,47.729748,-1.71229,112.92,29.52,20.368,355.9,0 / 23,830783,2019-08-12 16:46:31:225,-0.2278,0.0582,9.5671,-0.0671,0.0809,9.8061,-0.0091,0.0021,0.0001
29411,47.729748,-1.71229,112.92,29.52,20.368,355.9,0 / 23,830784,2019-08-12 16:46:31:226,-0.2278,0.0582,9.5671,-0.0671,0.0809,9.8061,-0.0091,0.0021,0.0001
29412,47.729748,-1.71229,112.92,29.52,20.368,355.9,0 / 23,830784,2019-08-12 16:46:31:226,-0.2278,0.0582,9.5671,-0.0671,0.0809,9.8061,-0.0091,0.0021,0.0001
29413,47.729748,-1.71229,112.92,29.52,20.368,355.9,0 / 23,830785,2019-08-12 16:46:31:227,-0.2278,0.0582,9.5671,-0.0671,0.0809,9.8061,-0.0091,0.0021,0.0001
29414,47.729748,-1.71229,112.92,29.52,20.368,355.9,0 / 23,830785,2019-08-12 16:46:31:227,-0.2278,0.0582,9.5671,-0.0671,0.0809,9.8061,-0.0091,0.0021,0.0001
29415,47.729748,-1.71229,112.92,29.52,20.368,355.9,0 / 23,830785,2019-08-12 16:46:31:227,-0.2278,0.0582,9.5671,-0.0671,0.0809,9.8061,-0.0091,0.0021,0.0001
29416,47.729748,-1.71229,112.92,29.52,20.368,355.9,0 / 23,830786,2019-08-12 16:46:31:228,-0.2278,0.0582,9.5671,-0.0671,0.0809,9.8061,-0.0091,0.0021,0.0001
29417,47.729748,-1.71229,112.92,29.52,20.368,355.9,0 / 23,830786,2019-08-12 16:46:31:228,-0.2278,0.0582,9.5671,-0.0671,0.0809,9.8061,-0.0091,0.0021,0.0001
29418,47.729748,-1.71229,112.92,29.52,20.368,355.9,0 / 23,830786,2019-08-12 16:46:31:228,-0.2278,0.0582,9.5671,-0.0671,0.0809,9.8061,-0.0091,0.0021,0.0001
29419,47.729748,-1.71229,112.92,29.52,20.368,355.9,0 / 23,830787,2019-08-12 16:46:31:229,-0.2278,0.0582,9.5671,-0.0671,0.0809,9.8061,-0.0091,0.0021,0.0001
29420,47.729748,-1.71229,112.92,29.52,20.368,355.9,0 / 23,830787,2019-08-12 16:46:31:229,-0.2278,0.0582,9.5671,-0.0671,0.0809,9.8061,-0.0091,0.0021,0.0001
