,GPS LATITUDE (degrees),GPS LONGITUDE (degrees), GPS ALTITUDE (m),GPS SPEED (Kmh),GPS ACCURACY (m),GPS ORIENTATION (Â°), SATELLITES IN RANGE, TIME SINCE START (ms), DATE (YYYY-MO-DD HH-MI-SS_SSS),ACCELEROMETER X (m/s²) , ACCELEROMETER Y (m/s²), ACCELEROMETER Z (m/s²), GRAVITY X (m/s²), GRAVITY Y (m/s²), GRAVITY Z (m/s²), GYROSCOPE Yaw (rad/s), GYROSCOPE Pitch (rad/s), GYROSCOPE Roll (rad/s)
13149,46.226967,-0.44513,94.41,32.2,3.216,207.9,16 / 19,1314910,2019-08-09 22:57:12:137,0.7238,-1.3502,9.8362,0.7106,-0.7638,9.751,-0.0142,-0.0063,-0.0206
13150,46.226967,-0.44513,94.41,32.2,3.216,207.9,16 / 19,1315010,2019-08-09 22:57:12:237,0.7489,-1.7578,10.0846,0.6967,-0.7807,9.7507,0.0327,-0.0172,0.0023
13151,46.226967,-0.44513,94.41,32.2,3.216,207.9,16 / 19,1315110,2019-08-09 22:57:12:337,0.4203,0.0576,9.765,0.6859,-0.7728,9.7521,-0.0206,-0.0172,0.0072
13152,46.226967,-0.44513,94.41,32.2,3.216,207.9,16 / 19,1315210,2019-08-09 22:57:12:437,0.7058,-1.5788,9.4005,0.6698,-0.7827,9.7524,0.0045,0.0063,0.0039
13153,46.226967,-0.44513,94.41,32.2,3.216,207.9,16 / 19,1315310,2019-08-09 22:57:12:537,0.95,-1.7356,9.9302,0.6809,-0.7801,9.7518,-0.0047,-0.0133,-0.0126
13154,46.226967,-0.44513,94.41,32.2,3.216,207.9,16 / 19,1315410,2019-08-09 22:57:12:637,0.2569,-0.8504,9.4795,0.6687,-0.7705,9.7534,-0.0294,0.0041,-0.0028
13155,46.226967,-0.44513,94.41,32.2,3.216,207.9,16 / 19,1315511,2019-08-09 22:57:12:738,0.7375,-0.4607,10.0799,0.6737,-0.7659,9.7535,0.0567,0.0065,-0.0203
13156,46.22468,-0.446871,92.72,31.52,3.216,208.3,15 / 18,1315611,2019-08-09 22:57:12:838,0.6448,-0.198,10.1254,0.6764,-0.7838,9.7518,-0.0181,-0.0026,0.0209
13157,46.22468,-0.446871,92.72,31.52,3.216,208.3,15 / 18,1315710,2019-08-09 22:57:12:937,0.3634,-1.0036,9.182,0.6706,-0.7673,9.7536,0.0029,0.006,0.0
13158,46.22468,-0.446871,92.72,31.52,3.216,208.3,15 / 18,1315810,2019-08-09 22:57:13:037,0.5604,-0.274,9.5711,0.6746,-0.7817,9.7521,-0.0122,0.0167,0.0005
13159,46.22468,-0.446871,92.72,31.52,3.216,208.3,15 / 18,1315910,2019-08-09 22:57:13:137,0.5005,-0.3572,9.2975,0.686,-0.774,9.752,-0.058,0.0038,0.0134
13160,46.22468,-0.446871,92.72,31.52,3.216,208.3,15 / 18,1316010,2019-08-09 22:57:13:237,0.3976,-1.923,9.3921,0.685,-0.7693,9.7524,0.0032,0.0096,0.01
13161,46.22468,-0.446871,92.72,31.52,3.216,208.3,15 / 18,1316110,2019-08-09 22:57:13:337,1.0045,-0.5966,9.9344,0.6816,-0.7814,9.7517,0.0101,-0.0161,-0.0105
13162,46.22468,-0.446871,92.72,31.52,3.216,208.3,15 / 18,1316210,2019-08-09 22:57:13:437,0.7926,-0.493,9.8877,0.6792,-0.7857,9.7515,-0.0079,-0.0018,0.0025
13163,46.22468,-0.446871,92.72,31.52,3.216,208.3,15 / 18,1316310,2019-08-09 22:57:13:537,0.3976,-1.355,8.9827,0.6746,-0.776,9.7526,-0.0128,0.0097,-0.0111
13164,46.22468,-0.446871,92.72,31.52,3.216,208.3,15 / 18,1316410,2019-08-09 22:57:13:637,0.9991,-0.6924,9.874,0.6861,-0.7866,9.7509,0.0433,-0.0016,-0.0071
13165,46.22468,-0.446871,92.72,31.52,3.216,208.3,15 / 18,1316510,2019-08-09 22:57:13:737,0.4963,-0.6505,9.7058,0.6806,-0.7846,9.7515,-0.0254,-0.0102,0.005
13166,46.22468,-0.446871,92.72,31.52,3.216,208.3,13 / 16,1316611,2019-08-09 22:57:13:838,0.6507,-1.3083,9.6166,0.679,-0.7964,9.7506,0.0164,0.0013,0.0007
13167,46.22468,-0.446871,92.72,31.52,3.216,208.3,13 / 16,1316711,2019-08-09 22:57:13:938,0.5867,-1.1215,9.4406,0.6823,-0.7826,9.7515,-0.006,0.0002,-0.0117
13168,46.22468,-0.446871,92.72,31.52,3.216,208.3,13 / 16,1316810,2019-08-09 22:57:14:037,0.455,-1.0294,9.7758,0.6796,-0.7803,9.7519,0.0136,0.0016,0.0203
13169,46.22468,-0.446871,92.72,31.52,3.216,208.3,13 / 16,1316911,2019-08-09 22:57:14:138,0.5681,-0.7193,9.6244,0.6762,-0.7764,9.7525,-0.0097,-0.0053,-0.003
13170,46.22468,-0.446871,92.72,31.52,3.216,208.3,13 / 16,1317010,2019-08-09 22:57:14:237,0.4107,-1.0335,9.4556,0.668,-0.7672,9.7537,0.0065,-0.002,0.0099
13171,46.22468,-0.446871,92.72,31.52,3.216,208.3,13 / 16,1317110,2019-08-09 22:57:14:337,0.3658,-0.7672,9.7734,0.6591,-0.7811,9.7532,-0.0019,-0.0058,0.0124
13172,46.22468,-0.446871,92.72,31.52,3.216,208.3,13 / 16,1317210,2019-08-09 22:57:14:437,0.4107,-0.6433,9.3855,0.6519,-0.7895,9.7531,0.003,0.0051,0.0062
13173,46.22468,-0.446871,92.72,31.52,3.216,208.3,13 / 16,1317310,2019-08-09 22:57:14:537,0.6304,-0.6822,9.5681,0.6497,-0.775,9.7544,-0.0133,-0.0006,-0.0066
13174,46.22468,-0.446871,92.72,31.52,3.216,208.3,13 / 16,1317410,2019-08-09 22:57:14:637,0.476,-0.5403,9.7632,0.6465,-0.7937,9.7531,0.0056,-0.0051,0.0107
13175,46.22468,-0.446871,92.72,31.52,3.216,208.3,13 / 16,1317511,2019-08-09 22:57:14:738,0.4514,-0.763,9.6309,0.6402,-0.7977,9.7532,-0.0148,0.0036,0.0092
13176,46.22468,-0.446871,92.72,31.52,3.216,208.3,14 / 17,1317611,2019-08-09 22:57:14:838,0.5382,-1.3424,9.4089,0.6435,-0.7989,9.7528,-0.0145,0.0152,0.0027
13177,46.22468,-0.446871,92.72,31.52,3.216,208.3,14 / 17,1317711,2019-08-09 22:57:14:938,0.8333,-0.6804,9.5298,0.651,-0.7913,9.753,-0.0006,-0.0051,-0.0151
13178,46.22468,-0.446871,92.72,31.52,3.216,208.3,14 / 17,1317811,2019-08-09 22:57:15:038,0.6418,-0.5984,9.8189,0.6506,-0.7905,9.7531,0.0212,0.0003,0.0078
13179,46.22468,-0.446871,92.72,31.52,3.216,208.3,14 / 17,1317911,2019-08-09 22:57:15:138,0.4778,-1.0473,9.4975,0.6454,-0.8022,9.7525,0.0109,0.0013,-0.0052
13180,46.22468,-0.446871,92.72,31.52,3.216,208.3,14 / 17,1318010,2019-08-09 22:57:15:237,0.7118,-1.188,9.352,0.6484,-0.8,9.7524,-0.0208,0.0048,0.0041
13181,46.22468,-0.446871,92.72,31.52,3.216,208.3,14 / 17,1318110,2019-08-09 22:57:15:337,0.7537,-0.9809,9.7854,0.6443,-0.8114,9.7518,0.0084,-0.0085,0.0117
13182,46.22468,-0.446871,92.72,31.52,3.216,208.3,14 / 17,1318210,2019-08-09 22:57:15:437,0.3658,-0.9647,9.1743,0.6422,-0.8035,9.7526,0.0159,0.0177,0.0008
13183,46.22468,-0.446871,92.72,31.52,3.216,208.3,14 / 17,1318311,2019-08-09 22:57:15:538,0.7543,-0.6654,9.7937,0.653,-0.8059,9.7516,-0.0147,0.0027,-0.0079
13184,46.22468,-0.446871,92.72,31.52,3.216,208.3,14 / 17,1318410,2019-08-09 22:57:15:637,0.6184,-0.9641,9.9727,0.6491,-0.8162,9.7511,-0.0156,-0.0049,0.0119
13185,46.22468,-0.446871,92.72,31.52,3.216,208.3,14 / 17,1318510,2019-08-09 22:57:15:737,0.464,-1.8589,9.2437,0.6448,-0.8046,9.7523,-0.0117,0.0063,-0.0123
13186,46.22468,-0.446871,92.72,31.52,3.216,208.3,15 / 19,1318611,2019-08-09 22:57:15:838,0.6837,-0.4733,9.5196,0.6467,-0.8092,9.7518,0.0196,-0.0068,-0.0077
13187,46.22468,-0.446871,92.72,31.52,3.216,208.3,15 / 19,1318710,2019-08-09 22:57:15:937,0.4706,-0.596,10.026,0.6448,-0.822,9.7508,0.0096,-0.0126,0.0041
13188,46.22468,-0.446871,92.72,31.52,3.216,208.3,15 / 19,1318810,2019-08-09 22:57:16:037,0.1988,-0.9994,9.607,0.6339,-0.8161,9.7521,-0.0226,0.0025,0.0002
13189,46.22468,-0.446871,92.72,31.52,3.216,208.3,15 / 19,1318910,2019-08-09 22:57:16:137,0.7537,-0.3183,9.8374,0.6294,-0.8217,9.7519,-0.0223,-0.001,-0.0026
13190,46.22468,-0.446871,92.72,31.52,3.216,208.3,15 / 19,1319011,2019-08-09 22:57:16:238,0.4957,-1.753,9.9296,0.6331,-0.8324,9.7507,-0.0036,0.0073,0.005
13191,46.22468,-0.446871,92.72,31.52,3.216,208.3,15 / 19,1319111,2019-08-09 22:57:16:338,0.5586,-1.5333,9.5214,0.6364,-0.8156,9.7519,-0.0256,-0.0058,-0.0143
13192,46.22468,-0.446871,92.72,31.52,3.216,208.3,15 / 19,1319210,2019-08-09 22:57:16:437,0.7962,-0.7426,9.7123,0.6391,-0.8154,9.7518,0.0104,-0.0055,0.0013
13193,46.22468,-0.446871,92.72,31.52,3.216,208.3,15 / 19,1319311,2019-08-09 22:57:16:538,0.3778,-0.4529,9.9326,0.6353,-0.8177,9.7518,0.0036,0.0039,0.0187
13194,46.22468,-0.446871,92.72,31.52,3.216,208.3,15 / 19,1319411,2019-08-09 22:57:16:638,0.7609,-0.5972,9.6782,0.6384,-0.8197,9.7515,0.0034,0.0021,-0.0026
13195,46.22468,-0.446871,92.72,31.52,3.216,208.3,15 / 19,1319510,2019-08-09 22:57:16:737,0.8824,-0.5152,9.7872,0.6396,-0.809,9.7523,0.0193,0.002,-0.0238
13196,46.22468,-0.446871,92.72,31.52,3.216,208.3,15 / 19,1319610,2019-08-09 22:57:16:837,0.7112,-1.8954,9.7692,0.6438,-0.8213,9.751,-0.0092,0.0033,0.0073
13197,46.22468,-0.446871,92.72,31.52,3.216,208.3,15 / 19,1319711,2019-08-09 22:57:16:938,0.3628,-1.3795,9.5854,0.6398,-0.8126,9.752,0.0251,-0.0056,0.0213
13198,46.22468,-0.446871,92.72,31.52,3.216,208.3,15 / 19,1319810,2019-08-09 22:57:17:037,0.5155,-0.7947,9.8183,0.63,-0.8251,9.7515,0.01,-0.0004,-0.0127
13199,46.22468,-0.446871,92.72,31.52,3.216,208.3,15 / 19,1319910,2019-08-09 22:57:17:137,0.7806,-0.6954,9.5926,0.632,-0.8263,9.7513,0.0044,0.0014,0.0009
13200,46.22468,-0.446871,92.72,31.52,3.216,208.3,15 / 19,1320010,2019-08-09 22:57:17:237,0.6328,-0.8665,9.613,0.6337,-0.8249,9.7513,-0.0076,-0.0038,-0.0027
13201,46.22468,-0.446871,92.72,31.52,3.216,208.3,15 / 19,1320111,2019-08-09 22:57:17:338,0.7004,-1.4842,9.4873,0.6297,-0.8416,9.7502,-0.0157,-0.0035,0.0039
13202,46.22468,-0.446871,92.72,31.52,3.216,208.3,15 / 19,1320210,2019-08-09 22:57:17:437,0.4622,-0.854,9.9176,0.6308,-0.8356,9.7506,-0.0012,0.0029,-0.0305
13203,46.22468,-0.446871,92.72,31.52,3.216,208.3,15 / 19,1320310,2019-08-09 22:57:17:537,0.7896,-0.4883,9.4394,0.6395,-0.8463,9.7491,-0.0152,0.0072,-0.0043
13204,46.22468,-0.446871,92.72,31.52,3.216,208.3,15 / 19,1320410,2019-08-09 22:57:17:637,0.9422,0.1666,9.4214,0.6498,-0.8248,9.7503,-0.0074,0.002,-0.0206
13205,46.22468,-0.446871,92.72,31.52,3.216,208.3,15 / 19,1320510,2019-08-09 22:57:17:737,0.8752,-1.3987,9.8859,0.6597,-0.8352,9.7487,-0.0084,0.0088,-0.0154
13206,46.22468,-0.446871,92.72,31.52,3.216,208.3,14 / 18,1320610,2019-08-09 22:57:17:837,0.9638,-1.5076,9.8805,0.674,-0.835,9.7478,-0.0022,-0.0051,-0.0222
13207,46.22468,-0.446871,92.72,31.52,3.216,208.3,14 / 18,1320710,2019-08-09 22:57:17:937,0.789,-1.4513,9.3975,0.6792,-0.8424,9.7468,0.0012,0.0056,-0.0336
13208,46.22468,-0.446871,92.72,31.52,3.216,208.3,14 / 18,1320810,2019-08-09 22:57:18:037,1.2122,-0.6846,9.9194,0.6963,-0.8414,9.7456,0.002,0.0078,-0.0086
13209,46.22468,-0.446871,92.72,31.52,3.216,208.3,14 / 18,1320910,2019-08-09 22:57:18:137,1.1254,-0.0118,9.9769,0.7021,-0.8566,9.7439,0.009,-0.0014,-0.0152
13210,46.22468,-0.446871,92.72,31.52,3.216,208.3,14 / 18,1321010,2019-08-09 22:57:18:237,0.9865,-0.435,9.5023,0.7186,-0.8338,9.7447,0.0105,0.011,-0.0065
13211,46.22468,-0.446871,92.72,31.52,3.216,208.3,14 / 18,1321111,2019-08-09 22:57:18:338,1.1565,-1.9403,9.2556,0.7264,-0.8328,9.7442,-0.0272,0.004,-0.0154
13212,46.22468,-0.446871,92.72,31.52,3.216,208.3,14 / 18,1321211,2019-08-09 22:57:18:438,1.2822,-1.4705,9.7824,0.7236,-0.8433,9.7435,0.0273,-0.0186,-0.0183
13213,46.22468,-0.446871,92.72,31.52,3.216,208.3,14 / 18,1321311,2019-08-09 22:57:18:538,0.634,-0.7097,9.6393,0.72,-0.8344,9.7445,-0.0071,0.0002,0.0057
13214,46.22468,-0.446871,92.72,31.52,3.216,208.3,14 / 18,1321411,2019-08-09 22:57:18:638,0.5699,-0.8995,9.3125,0.7211,-0.8366,9.7443,0.0004,-0.0003,-0.0045
13215,46.22468,-0.446871,92.72,31.52,3.216,208.3,14 / 18,1321511,2019-08-09 22:57:18:738,0.9632,-0.6798,10.1236,0.7188,-0.847,9.7435,-0.022,-0.0067,0.0158
13216,46.22468,-0.446871,92.72,31.52,3.216,208.3,15 / 19,1321611,2019-08-09 22:57:18:838,0.391,-1.0371,9.4921,0.7182,-0.8382,9.7443,0.0132,0.0056,0.0064
13217,46.22468,-0.446871,92.72,31.52,3.216,208.3,15 / 19,1321710,2019-08-09 22:57:18:937,0.8321,-1.2873,9.6639,0.7219,-0.8452,9.7435,-0.0067,0.0126,-0.0158
13218,46.22468,-0.446871,92.72,31.52,3.216,208.3,15 / 19,1321810,2019-08-09 22:57:19:037,0.4359,-1.1556,9.5328,0.7212,-0.8402,9.7439,-0.0072,0.0028,-0.0068
13219,46.22468,-0.446871,92.72,31.52,3.216,208.3,15 / 19,1321910,2019-08-09 22:57:19:137,0.7321,-0.6056,9.7501,0.7242,-0.8402,9.7437,0.0069,0.0065,-0.0178
13220,46.22468,-0.446871,92.72,31.52,3.216,208.3,15 / 19,1322010,2019-08-09 22:57:19:237,1.0895,-1.3382,9.7309,0.7294,-0.8451,9.7429,-0.0094,-0.0073,-0.0126
13221,46.22468,-0.446871,92.72,31.52,3.216,208.3,15 / 19,1322110,2019-08-09 22:57:19:337,0.534,-1.6016,9.6555,0.7281,-0.8427,9.7432,0.0135,-0.0005,-0.0009
13222,46.22468,-0.446871,92.72,31.52,3.216,208.3,15 / 19,1322211,2019-08-09 22:57:19:438,0.8704,-1.586,9.4651,0.7281,-0.8437,9.7431,0.0303,-0.004,-0.0043
13223,46.22468,-0.446871,92.72,31.52,3.216,208.3,15 / 19,1322310,2019-08-09 22:57:19:537,0.6908,-0.8186,10.1607,0.7257,-0.8506,9.7427,0.0064,-0.0102,0.0025
13224,46.22468,-0.446871,92.72,31.52,3.216,208.3,15 / 19,1322410,2019-08-09 22:57:19:637,0.4281,-1.0617,9.5878,0.7205,-0.8588,9.7424,-0.0163,0.0029,-0.0087
13225,46.22468,-0.446871,92.72,31.52,3.216,208.3,15 / 19,1322511,2019-08-09 22:57:19:738,0.9105,-0.7822,9.6016,0.72,-0.8541,9.7428,0.0132,-0.0009,-0.0135
13226,46.22468,-0.446871,92.72,31.52,3.216,208.3,14 / 18,1322611,2019-08-09 22:57:19:838,0.5059,-0.7163,9.598,0.7181,-0.8434,9.7439,0.0061,-0.0061,0.0165
13227,46.22468,-0.446871,92.72,31.52,3.216,208.3,14 / 18,1322710,2019-08-09 22:57:19:937,0.309,-0.8677,9.6315,0.7009,-0.8522,9.7444,0.0111,-0.0004,-0.0013
13228,46.22468,-0.446871,92.72,31.52,3.216,208.3,14 / 18,1322810,2019-08-09 22:57:20:037,0.4993,-0.933,9.5831,0.7002,-0.8528,9.7444,0.0104,-0.0025,-0.0067
13229,46.22468,-0.446871,92.72,31.52,3.216,208.3,14 / 18,1322910,2019-08-09 22:57:20:137,0.4987,-0.5409,9.6495,0.6982,-0.852,9.7446,-0.0063,0.0068,0.0103
13230,46.22468,-0.446871,92.72,31.52,3.216,208.3,14 / 18,1323015,2019-08-09 22:57:20:242,0.6501,-0.2333,9.7112,0.6959,-0.861,9.744,0.008,-0.0051,0.011
13231,46.22468,-0.446871,92.72,31.52,3.216,208.3,14 / 18,1323111,2019-08-09 22:57:20:338,0.4712,-0.6415,9.6321,0.6873,-0.8575,9.7449,-0.0011,-0.0057,0.0016
13232,46.22468,-0.446871,92.72,31.52,3.216,208.3,14 / 18,1323210,2019-08-09 22:57:20:437,0.5538,-1.5166,9.4741,0.6831,-0.8608,9.7449,-0.0154,0.002,0.0029
13233,46.22468,-0.446871,92.72,31.52,3.216,208.3,14 / 18,1323311,2019-08-09 22:57:20:538,0.5634,-0.763,9.6315,0.6793,-0.8531,9.7458,-0.0003,-0.003,0.0079
13234,46.22468,-0.446871,92.72,31.52,3.216,208.3,14 / 18,1323411,2019-08-09 22:57:20:638,0.5681,-0.8624,9.7435,0.6744,-0.8583,9.7457,0.0076,0.0023,-0.0036
13235,46.22468,-0.446871,92.72,31.52,3.216,208.3,14 / 18,1323510,2019-08-09 22:57:20:737,0.4269,-0.8037,9.6992,0.6713,-0.8603,9.7458,0.0087,-0.002,0.0073
13236,46.22468,-0.446871,92.72,31.52,3.216,208.3,14 / 18,1323610,2019-08-09 22:57:20:837,0.6088,-0.3087,9.6148,0.6649,-0.8657,9.7457,-0.0323,-0.0005,0.004
13237,46.22468,-0.446871,92.72,31.52,3.216,208.3,14 / 18,1323710,2019-08-09 22:57:20:937,0.8177,-0.6044,10.1014,0.667,-0.8721,9.745,-0.0084,0.0031,-0.0005
13238,46.22468,-0.446871,92.72,31.52,3.216,208.3,14 / 18,1323810,2019-08-09 22:57:21:037,0.5819,-1.3382,9.361,0.6675,-0.8741,9.7448,-0.0057,0.0,0.0022
13239,46.22468,-0.446871,92.72,31.52,3.216,208.3,14 / 18,1323911,2019-08-09 22:57:21:138,0.6627,-0.5242,9.525,0.6711,-0.8741,9.7445,0.0337,0.0024,-0.0144
13240,46.22468,-0.446871,92.72,31.52,3.216,208.3,14 / 18,1324010,2019-08-09 22:57:21:237,0.9039,-0.1076,9.8339,0.6726,-0.8821,9.7437,-0.0097,-0.0054,-0.0068
13241,46.22468,-0.446871,92.72,31.52,3.216,208.3,14 / 18,1324110,2019-08-09 22:57:21:337,0.8961,-1.3376,9.6585,0.6744,-0.8759,9.7441,0.001,0.0,-0.0258
13242,46.22468,-0.446871,92.72,31.52,3.216,208.3,14 / 18,1324210,2019-08-09 22:57:21:437,0.6956,-1.6064,9.595,0.6785,-0.8746,9.744,-0.0109,0.0052,0.0043
13243,46.22468,-0.446871,92.72,31.52,3.216,208.3,14 / 18,1324311,2019-08-09 22:57:21:538,0.7657,-1.4932,9.7794,0.6789,-0.8824,9.7432,-0.0137,-0.0004,-0.0038
13244,46.22468,-0.446871,92.72,31.52,3.216,208.3,14 / 18,1324411,2019-08-09 22:57:21:638,0.5741,-0.7355,9.5633,0.6829,-0.8823,9.743,0.0043,0.0065,-0.0015
13245,46.22468,-0.446871,92.72,31.52,3.216,208.3,14 / 18,1324511,2019-08-09 22:57:21:738,0.786,-0.192,9.8291,0.6897,-0.9001,9.7409,0.0092,-0.0002,0.003
13246,46.22243,-0.448614,93.69,31.75,3.216,208.5,13 / 15,1324610,2019-08-09 22:57:21:837,0.6819,-0.5559,9.6088,0.6891,-0.8857,9.7422,-0.0131,-0.0026,-0.0045
13247,46.22243,-0.448614,93.69,31.75,3.216,208.5,13 / 15,1324710,2019-08-09 22:57:21:937,0.8231,-1.0742,9.7339,0.6972,-0.8867,9.7416,0.0155,0.006,-0.0049
13248,46.22243,-0.448614,93.69,31.75,3.216,208.5,13 / 15,1324811,2019-08-09 22:57:22:038,0.8447,-1.5447,9.9991,0.6998,-0.8906,9.741,0.0077,-0.0005,-0.0078
13249,46.22243,-0.448614,93.69,31.75,3.216,208.5,13 / 15,1324910,2019-08-09 22:57:22:137,0.5825,-0.9198,9.5741,0.6985,-0.8828,9.7418,-0.0005,0.0044,-0.0033
13250,46.22243,-0.448614,93.69,31.75,3.216,208.5,13 / 15,1325010,2019-08-09 22:57:22:237,0.8441,-0.247,9.6669,0.705,-0.8995,9.7398,0.0053,0.0038,-0.0144
13251,46.22243,-0.448614,93.69,31.75,3.216,208.5,13 / 15,1325110,2019-08-09 22:57:22:337,0.7429,-0.5026,9.6962,0.7118,-0.8951,9.7397,-0.0001,-0.0023,-0.0223
13252,46.22243,-0.448614,93.69,31.75,3.216,208.5,13 / 15,1325210,2019-08-09 22:57:22:437,0.6938,-1.5369,9.9883,0.7157,-0.9063,9.7384,-0.0045,0.0099,0.0022
13253,46.22243,-0.448614,93.69,31.75,3.216,208.5,13 / 15,1325310,2019-08-09 22:57:22:537,0.8519,-1.7991,9.6914,0.7238,-0.9052,9.7379,-0.0209,-0.0028,-0.0022
13254,46.22243,-0.448614,93.69,31.75,3.216,208.5,13 / 15,1325410,2019-08-09 22:57:22:637,0.8082,-1.0892,9.8967,0.7248,-0.8966,9.7386,0.0166,0.0015,-0.0016
13255,46.22243,-0.448614,93.69,31.75,3.216,208.5,13 / 15,1325510,2019-08-09 22:57:22:737,0.7363,-0.2177,9.7794,0.7288,-0.9071,9.7374,0.0105,-0.0012,-0.0133
13256,46.22243,-0.448614,93.69,31.75,3.216,208.5,16 / 19,1325610,2019-08-09 22:57:22:837,0.619,-1.167,9.1767,0.7295,-0.8952,9.7384,-0.0254,0.0033,0.0171
13257,46.22243,-0.448614,93.69,31.75,3.216,208.5,16 / 19,1325710,2019-08-09 22:57:22:937,0.9644,-1.246,9.8752,0.7299,-0.8986,9.7381,0.0193,-0.0044,-0.0141
13258,46.22243,-0.448614,93.69,31.75,3.216,208.5,16 / 19,1325811,2019-08-09 22:57:23:038,0.8854,-1.8009,10.0469,0.7305,-0.9154,9.7365,0.0112,-0.014,-0.0145
13259,46.22243,-0.448614,93.69,31.75,3.216,208.5,16 / 19,1325914,2019-08-09 22:57:23:141,0.5993,-0.8558,9.452,0.7233,-0.8987,9.7386,0.0202,0.0006,-0.0149
13260,46.22243,-0.448614,93.69,31.75,3.216,208.5,16 / 19,1326011,2019-08-09 22:57:23:238,0.8064,-0.104,10.1014,0.7194,-0.9153,9.7373,-0.0289,0.0005,0.0082
13261,46.22243,-0.448614,93.69,31.75,3.216,208.5,16 / 19,1326111,2019-08-09 22:57:23:338,1.032,-1.4609,9.4693,0.7242,-0.9079,9.7376,-0.0289,0.0005,0.0082
13262,46.22243,-0.448614,93.69,31.75,3.216,208.5,16 / 19,1326210,2019-08-09 22:57:23:437,1.0751,-1.1395,9.5651,0.7193,-0.8886,9.7398,-0.0051,-0.0095,-0.04
13263,46.22243,-0.448614,93.69,31.75,3.216,208.5,16 / 19,1326310,2019-08-09 22:57:23:537,0.7681,-0.4045,9.6417,0.7243,-0.9033,9.7381,-0.0099,-0.0087,-0.0119
13264,46.22243,-0.448614,93.69,31.75,3.216,208.5,16 / 19,1326410,2019-08-09 22:57:23:637,0.6573,-0.4571,10.1433,0.7203,-0.9124,9.7375,0.0318,0.0014,-0.0047
13265,46.22243,-0.448614,93.69,31.75,3.216,208.5,16 / 19,1326511,2019-08-09 22:57:23:738,0.8447,-0.8624,9.5699,0.7235,-0.9096,9.7375,-0.0038,0.0106,-0.0086
13266,46.22243,-0.448614,93.69,31.75,3.216,208.5,16 / 19,1326610,2019-08-09 22:57:23:837,1.132,-1.088,9.5561,0.7426,-0.9164,9.7355,-0.0071,-0.0034,-0.0395
13267,46.22243,-0.448614,93.69,31.75,3.216,208.5,16 / 19,1326711,2019-08-09 22:57:23:938,0.8381,-1.9996,9.7261,0.743,-0.9155,9.7355,0.0052,0.004,0.015
13268,46.22243,-0.448614,93.69,31.75,3.216,208.5,16 / 19,1326811,2019-08-09 22:57:24:038,0.7537,-1.003,9.7704,0.7527,-0.9193,9.7344,0.0083,-0.0065,-0.0358
13269,46.22243,-0.448614,93.69,31.75,3.216,208.5,16 / 19,1326911,2019-08-09 22:57:24:138,0.5017,-0.2919,9.628,0.7516,-0.9368,9.7328,-0.0031,-0.0024,0.0202
13270,46.22243,-0.448614,93.69,31.75,3.216,208.5,16 / 19,1327010,2019-08-09 22:57:24:237,0.8537,-1.1592,9.4436,0.7558,-0.9235,9.7338,-0.0145,0.0144,-0.0023
13271,46.22243,-0.448614,93.69,31.75,3.216,208.5,16 / 19,1327110,2019-08-09 22:57:24:337,0.9823,-1.9086,9.7141,0.7634,-0.9203,9.7335,0.0089,-0.0014,-0.0059
13272,46.22243,-0.448614,93.69,31.75,3.216,208.5,16 / 19,1327211,2019-08-09 22:57:24:438,0.4233,-0.7097,9.1916,0.749,-0.9123,9.7354,-0.0348,-0.0091,0.0227
13273,46.22243,-0.448614,93.69,31.75,3.216,208.5,16 / 19,1327310,2019-08-09 22:57:24:537,0.2413,-1.6542,9.4765,0.7478,-0.9211,9.7346,-0.0038,0.0067,0.0064
13274,46.22243,-0.448614,93.69,31.75,3.216,208.5,16 / 19,1327410,2019-08-09 22:57:24:637,0.6897,-0.9078,10.1696,0.7418,-0.9347,9.7338,-0.029,-0.0089,0.0143
13275,46.22243,-0.448614,93.69,31.75,3.216,208.5,16 / 19,1327510,2019-08-09 22:57:24:737,0.3102,-0.9575,9.3622,0.7327,-0.9268,9.7352,0.0097,0.0066,-0.0078
13276,46.22243,-0.448614,93.69,31.75,3.216,208.5,15 / 18,1327610,2019-08-09 22:57:24:837,0.8608,-2.0182,10.1415,0.7299,-0.9428,9.7339,0.0229,-0.0019,-0.0086
13277,46.22243,-0.448614,93.69,31.75,3.216,208.5,15 / 18,1327710,2019-08-09 22:57:24:937,0.394,-2.2552,9.44,0.728,-0.9301,9.7353,-0.0119,-0.0024,0.0119
13278,46.22243,-0.448614,93.69,31.75,3.216,208.5,15 / 18,1327810,2019-08-09 22:57:25:037,0.9716,-0.7283,10.087,0.7241,-0.9422,9.7344,0.0356,-0.0001,-0.0286
13279,46.22243,-0.448614,93.69,31.75,3.216,208.5,15 / 18,1327911,2019-08-09 22:57:25:138,0.8393,-1.094,9.6992,0.725,-0.9396,9.7346,-0.0099,-0.0075,-0.001
13280,46.22243,-0.448614,93.69,31.75,3.216,208.5,15 / 18,1328010,2019-08-09 22:57:25:237,0.7238,-1.5956,9.2634,0.7199,-0.9465,9.7343,-0.0322,0.0042,-0.0132
13281,46.22243,-0.448614,93.69,31.75,3.216,208.5,15 / 18,1328110,2019-08-09 22:57:25:337,0.874,-1.1742,9.9135,0.7298,-0.9584,9.7324,0.0244,0.0017,-0.0152
13282,46.22243,-0.448614,93.69,31.75,3.216,208.5,15 / 18,1328210,2019-08-09 22:57:25:437,0.5358,-0.8228,9.7788,0.7323,-0.9674,9.7313,-0.0073,0.004,0.0113
13283,46.22243,-0.448614,93.69,31.75,3.216,208.5,15 / 18,1328310,2019-08-09 22:57:25:537,0.4993,-1.112,9.4921,0.7386,-0.9608,9.7315,-0.0199,0.0121,-0.0054
13284,46.22243,-0.448614,93.69,31.75,3.216,208.5,15 / 18,1328411,2019-08-09 22:57:25:638,0.7292,-1.923,9.4101,0.7486,-0.9537,9.7314,-0.0083,-0.0053,-0.0132
13285,46.22243,-0.448614,93.69,31.75,3.216,208.5,15 / 18,1328511,2019-08-09 22:57:25:738,0.5472,-0.4924,9.7339,0.7474,-0.9559,9.7313,-0.0051,0.0092,0.0159
13286,46.22243,-0.448614,93.69,31.75,3.216,208.5,16 / 19,1328610,2019-08-09 22:57:25:837,1.0117,-2.245,9.5501,0.7565,-0.9667,9.7295,-0.0235,0.0026,0.0036
13287,46.22243,-0.448614,93.69,31.75,3.216,208.5,16 / 19,1328710,2019-08-09 22:57:25:937,1.1996,-1.9302,9.9889,0.755,-0.9615,9.7302,0.0551,-0.0117,-0.0188
13288,46.22243,-0.448614,93.69,31.75,3.216,208.5,16 / 19,1328810,2019-08-09 22:57:26:037,0.9482,-1.3226,9.5836,0.7605,-0.9681,9.7291,0.0182,0.0086,-0.0099
13289,46.22243,-0.448614,93.69,31.75,3.216,208.5,16 / 19,1328911,2019-08-09 22:57:26:138,1.2553,-1.3095,10.023,0.7689,-0.9621,9.729,-0.0138,0.0083,-0.0218
13290,46.22243,-0.448614,93.69,31.75,3.216,208.5,16 / 19,1329010,2019-08-09 22:57:26:237,0.6897,-2.0104,9.6112,0.7803,-0.9636,9.7279,0.0245,-0.001,-0.0366
13291,46.22243,-0.448614,93.69,31.75,3.216,208.5,16 / 19,1329111,2019-08-09 22:57:26:338,1.059,-1.8871,9.367,0.7901,-0.9648,9.727,-0.0336,0.0054,0.0032
13292,46.22243,-0.448614,93.69,31.75,3.216,208.5,16 / 19,1329211,2019-08-09 22:57:26:438,0.9339,-1.2598,9.5082,0.7907,-0.974,9.7261,-0.0089,0.0033,-0.0183
13293,46.22243,-0.448614,93.69,31.75,3.216,208.5,16 / 19,1329310,2019-08-09 22:57:26:537,0.9943,-0.8408,9.765,0.7962,-0.9773,9.7253,0.0243,0.0005,-0.0027
13294,46.22243,-0.448614,93.69,31.75,3.216,208.5,16 / 19,1329410,2019-08-09 22:57:26:637,0.7106,-1.4986,9.3897,0.7948,-0.9782,9.7253,-0.0039,0.0024,-0.0041
13295,46.22243,-0.448614,93.69,31.75,3.216,208.5,16 / 19,1329511,2019-08-09 22:57:26:738,1.1026,-1.0635,9.8039,0.8024,-0.9721,9.7253,-0.0027,-0.0054,-0.0141
13296,46.22243,-0.448614,93.69,31.75,3.216,208.5,13 / 15,1329611,2019-08-09 22:57:26:838,0.8153,-2.0565,9.4143,0.8025,-0.9797,9.7245,0.0055,-0.0047,-0.0024
13297,46.22243,-0.448614,93.69,31.75,3.216,208.5,13 / 15,1329712,2019-08-09 22:57:26:939,0.6729,-1.5387,9.2072,0.799,-0.9692,9.7259,-0.0185,-0.0089,-0.0017
13298,46.22243,-0.448614,93.69,31.75,3.216,208.5,13 / 15,1329811,2019-08-09 22:57:27:038,0.78,-2.3216,9.1802,0.7951,-0.9896,9.7241,-0.0228,0.0006,0.0063
13299,46.22243,-0.448614,93.69,31.75,3.216,208.5,13 / 15,1329911,2019-08-09 22:57:27:138,0.7651,-1.1796,9.6046,0.7956,-0.9784,9.7252,-0.0059,-0.0039,-0.0066
13300,46.22243,-0.448614,93.69,31.75,3.216,208.5,13 / 15,1330010,2019-08-09 22:57:27:237,0.8136,-0.4709,9.8602,0.7887,-0.9762,9.726,0.0111,-0.0149,-0.0052
13301,46.22243,-0.448614,93.69,31.75,3.216,208.5,13 / 15,1330110,2019-08-09 22:57:27:337,0.5963,-0.7624,10.0134,0.7715,-0.9887,9.7261,0.0226,0.0009,0.0049
13302,46.22243,-0.448614,93.69,31.75,3.216,208.5,13 / 15,1330210,2019-08-09 22:57:27:437,0.3874,-1.0305,9.042,0.7724,-0.9859,9.7263,-0.0297,0.0145,0.0096
13303,46.22243,-0.448614,93.69,31.75,3.216,208.5,13 / 15,1330310,2019-08-09 22:57:27:537,0.7914,-1.0335,9.5358,0.7834,-0.9689,9.7272,-0.0066,0.0005,0.0091
13304,46.22243,-0.448614,93.69,31.75,3.216,208.5,13 / 15,1330410,2019-08-09 22:57:27:637,0.4323,-0.8653,9.273,0.7783,-0.9794,9.7265,-0.0191,-0.0004,0.0
13305,46.22243,-0.448614,93.69,31.75,3.216,208.5,13 / 15,1330510,2019-08-09 22:57:27:737,0.8692,-0.3578,9.5412,0.772,-0.9688,9.7281,-0.0078,0.0019,-0.0011
13306,46.22243,-0.448614,93.69,31.75,3.216,208.5,15 / 18,1330611,2019-08-09 22:57:27:838,0.7938,-1.2113,9.9093,0.7702,-0.965,9.7286,0.026,-0.0074,-0.0175
13307,46.22243,-0.448614,93.69,31.75,3.216,208.5,15 / 18,1330712,2019-08-09 22:57:27:939,0.5658,-1.9128,9.7842,0.7695,-0.9602,9.7292,0.0225,0.0049,0.0092
13308,46.22243,-0.448614,93.69,31.75,3.216,208.5,15 / 18,1330810,2019-08-09 22:57:28:037,0.8082,-0.5302,9.9727,0.7694,-0.9715,9.728,0.0056,0.0018,-0.0209
13309,46.22243,-0.448614,93.69,31.75,3.216,208.5,15 / 18,1330911,2019-08-09 22:57:28:138,0.7717,-0.6648,9.4568,0.768,-0.9668,9.7286,-0.0083,-0.0064,0.0021
13310,46.22243,-0.448614,93.69,31.75,3.216,208.5,15 / 18,1331010,2019-08-09 22:57:28:237,0.8519,-0.9623,9.6543,0.7638,-0.9713,9.7285,0.0255,-0.0045,-0.0136
13311,46.22243,-0.448614,93.69,31.75,3.216,208.5,15 / 18,1331110,2019-08-09 22:57:28:337,0.7555,-0.3907,10.1223,0.7582,-0.9743,9.7286,-0.0185,-0.0062,-0.0082
13312,46.22243,-0.448614,93.69,31.75,3.216,208.5,15 / 18,1331210,2019-08-09 22:57:28:437,0.3976,-0.2105,9.4448,0.7552,-0.9824,9.7281,-0.0169,0.0018,-0.008
13313,46.22243,-0.448614,93.69,31.75,3.216,208.5,15 / 18,1331310,2019-08-09 22:57:28:537,0.4586,-0.2123,9.3939,0.7604,-0.962,9.7297,-0.013,0.0146,0.0092
13314,46.22243,-0.448614,93.69,31.75,3.216,208.5,15 / 18,1331410,2019-08-09 22:57:28:637,0.8866,-0.4374,9.8608,0.7648,-0.967,9.7288,0.0101,0.0121,-0.0184
13315,46.22243,-0.448614,93.69,31.75,3.216,208.5,15 / 18,1331511,2019-08-09 22:57:28:738,0.7986,-1.1233,9.5885,0.7743,-0.964,9.7284,0.0061,0.0045,-0.0005
13316,46.22243,-0.448614,93.69,31.75,3.216,208.5,15 / 17,1331611,2019-08-09 22:57:28:838,0.9069,0.0235,9.6854,0.7776,-0.9605,9.7285,0.0123,-0.0026,-0.0119
13317,46.22243,-0.448614,93.69,31.75,3.216,208.5,15 / 17,1331710,2019-08-09 22:57:28:937,0.5053,-0.8235,9.5453,0.7781,-0.9697,9.7275,-0.0036,0.0099,0.0014
13318,46.22243,-0.448614,93.69,31.75,3.216,208.5,15 / 17,1331811,2019-08-09 22:57:29:038,1.111,-1.4657,9.8291,0.783,-0.9717,9.7269,-0.0055,-0.0062,-0.0274
13319,46.22243,-0.448614,93.69,31.75,3.216,208.5,15 / 17,1331910,2019-08-09 22:57:29:137,0.8441,-1.5692,9.9619,0.7818,-0.975,9.7267,-0.0054,0.0063,0.0103
13320,46.22243,-0.448614,93.69,31.75,3.216,208.5,15 / 17,1332010,2019-08-09 22:57:29:237,0.5981,-0.5146,9.6459,0.7852,-0.9623,9.7277,0.0225,0.0054,-0.0246
13321,46.22243,-0.448614,93.69,31.75,3.216,208.5,15 / 17,1332111,2019-08-09 22:57:29:338,0.7956,-0.745,9.3831,0.7894,-0.9666,9.7269,0.0048,-0.0007,-0.0091
13322,46.22243,-0.448614,93.69,31.75,3.216,208.5,15 / 17,1332211,2019-08-09 22:57:29:438,1.0631,-1.422,10.0182,0.7888,-0.9565,9.728,0.0311,-0.0067,-0.0132
13323,46.22243,-0.448614,93.69,31.75,3.216,208.5,15 / 17,1332311,2019-08-09 22:57:29:538,0.8812,-1.1676,9.6238,0.7798,-0.985,9.7258,0.0179,-0.0065,0.0024
13324,46.22243,-0.448614,93.69,31.75,3.216,208.5,15 / 17,1332410,2019-08-09 22:57:29:637,0.7501,-0.5026,9.103,0.7777,-0.9584,9.7287,-0.0226,-0.0022,-0.015
13325,46.22243,-0.448614,93.69,31.75,3.216,208.5,15 / 17,1332510,2019-08-09 22:57:29:737,1.117,-0.7606,9.5531,0.7822,-0.9648,9.7277,-0.0013,-0.0034,-0.0263
13326,46.22243,-0.448614,93.69,31.75,3.216,208.5,15 / 18,1332610,2019-08-09 22:57:29:837,0.6705,-0.5535,10.0224,0.7883,-0.9672,9.7269,0.0141,0.0015,0.0032
13327,46.22243,-0.448614,93.69,31.75,3.216,208.5,15 / 18,1332710,2019-08-09 22:57:29:937,0.5011,-1.2855,9.6788,0.782,-0.9533,9.7288,0.0275,-0.0032,-0.019
13328,46.22243,-0.448614,93.69,31.75,3.216,208.5,15 / 18,1332810,2019-08-09 22:57:30:037,0.7932,-1.079,10.099,0.7836,-0.9698,9.7271,0.0151,0.0099,0.0206
13329,46.22243,-0.448614,93.69,31.75,3.216,208.5,15 / 18,1332910,2019-08-09 22:57:30:137,0.6011,-0.8157,9.1449,0.784,-0.9512,9.7289,-0.0584,-0.0029,-0.0116
13330,46.22243,-0.448614,93.69,31.75,3.216,208.5,15 / 18,1333010,2019-08-09 22:57:30:237,0.6071,-0.5415,9.3107,0.7874,-0.952,9.7285,-0.0393,0.0025,0.0123
13331,46.22243,-0.448614,93.69,31.75,3.216,208.5,15 / 18,1333111,2019-08-09 22:57:30:338,0.9339,-0.1902,9.6196,0.7833,-0.9531,9.7287,-0.0022,-0.0103,-0.0077
13332,46.22243,-0.448614,93.69,31.75,3.216,208.5,15 / 18,1333211,2019-08-09 22:57:30:438,0.889,-0.3255,10.0798,0.7721,-0.9719,9.7278,0.0328,-0.0067,-0.0144
13333,46.22243,-0.448614,93.69,31.75,3.216,208.5,15 / 18,1333310,2019-08-09 22:57:30:537,0.7489,-0.4553,9.9542,0.7689,-0.9816,9.7271,0.0091,-0.0053,-0.0052
13334,46.22243,-0.448614,93.69,31.75,3.216,208.5,15 / 18,1333410,2019-08-09 22:57:30:637,0.9159,-1.4986,9.8237,0.7621,-0.9877,9.727,-0.0015,-0.004,-0.0087
13335,46.22243,-0.448614,93.69,31.75,3.216,208.5,15 / 18,1333510,2019-08-09 22:57:30:737,0.5017,-1.1676,9.0396,0.7617,-0.9833,9.7274,-0.0055,0.0019,-0.0102
13336,46.220158,-0.450487,92.21,32.92,3.216,210.6,16 / 18,1333611,2019-08-09 22:57:30:838,0.883,-0.119,9.3903,0.7635,-0.9552,9.7301,-0.0166,0.0051,-0.0015
13337,46.220158,-0.450487,92.21,32.92,3.216,210.6,16 / 18,1333710,2019-08-09 22:57:30:937,0.8644,-0.7366,9.3508,0.7627,-0.9521,9.7305,-0.0175,-0.0036,-0.0091
13338,46.220158,-0.450487,92.21,32.92,3.216,210.6,16 / 18,1333810,2019-08-09 22:57:31:037,1.1727,-1.0144,10.1146,0.7602,-0.9568,9.7302,-0.0131,-0.011,-0.0101
13339,46.220158,-0.450487,92.21,32.92,3.216,210.6,16 / 18,1333910,2019-08-09 22:57:31:137,0.8961,-1.249,9.443,0.7582,-0.9533,9.7307,-0.0099,-0.0081,-0.0185
13340,46.220158,-0.450487,92.21,32.92,3.216,210.6,16 / 18,1334010,2019-08-09 22:57:31:237,1.1003,-1.2239,9.9422,0.764,-0.9686,9.7287,0.0326,0.0005,-0.0307
13341,46.220158,-0.450487,92.21,32.92,3.216,210.6,16 / 18,1334110,2019-08-09 22:57:31:337,1.2906,-0.6559,9.4921,0.7755,-0.9513,9.7295,-0.028,0.0087,0.0007
13342,46.220158,-0.450487,92.21,32.92,3.216,210.6,16 / 18,1334211,2019-08-09 22:57:31:438,0.7124,-1.656,9.4071,0.784,-0.9545,9.7285,0.0412,-0.0008,-0.0444
13343,46.220158,-0.450487,92.21,32.92,3.216,210.6,16 / 18,1334311,2019-08-09 22:57:31:538,0.9608,-1.6477,9.8069,0.7913,-0.9561,9.7278,-0.0057,0.0029,0.0014
13344,46.220158,-0.450487,92.21,32.92,3.216,210.6,16 / 18,1334410,2019-08-09 22:57:31:637,0.959,-0.8396,9.4789,0.7947,-0.9616,9.727,0.0051,0.0024,-0.0174
13345,46.220158,-0.450487,92.21,32.92,3.216,210.6,16 / 18,1334510,2019-08-09 22:57:31:737,0.9171,-0.6433,10.2756,0.8005,-0.9684,9.7258,0.0128,0.005,0.0035
13346,46.220158,-0.450487,92.21,32.92,3.216,210.6,14 / 17,1334610,2019-08-09 22:57:31:837,0.4969,-1.5058,9.3377,0.7996,-0.9472,9.728,-0.048,0.0035,0.0109
13347,46.220158,-0.450487,92.21,32.92,3.216,210.6,14 / 17,1334711,2019-08-09 22:57:31:938,0.9225,-1.2083,9.929,0.8022,-0.9717,9.7254,-0.0197,-0.0032,-0.0087
13348,46.220158,-0.450487,92.21,32.92,3.216,210.6,14 / 17,1334811,2019-08-09 22:57:32:038,0.9536,-1.9038,9.7459,0.8018,-0.9663,9.7259,-0.0113,-0.0002,-0.0172
13349,46.220158,-0.450487,92.21,32.92,3.216,210.6,14 / 17,1334911,2019-08-09 22:57:32:138,0.9686,-1.492,9.85,0.7983,-0.9668,9.7262,0.0078,-0.002,-0.0051
13350,46.220158,-0.450487,92.21,32.92,3.216,210.6,14 / 17,1335011,2019-08-09 22:57:32:238,0.8471,-2.5281,9.7315,0.7986,-0.9782,9.725,-0.0176,0.008,0.0053
13351,46.220158,-0.450487,92.21,32.92,3.216,210.6,14 / 17,1335110,2019-08-09 22:57:32:337,0.8112,-1.5848,9.3604,0.8027,-0.9666,9.7258,-0.0139,0.0055,-0.0066
13352,46.220158,-0.450487,92.21,32.92,3.216,210.6,14 / 17,1335210,2019-08-09 22:57:32:437,0.9345,-0.59,9.5968,0.807,-0.9512,9.727,0.0039,-0.0043,-0.0036
13353,46.220158,-0.450487,92.21,32.92,3.216,210.6,14 / 17,1335310,2019-08-09 22:57:32:537,0.698,-1.1179,9.9027,0.7962,-0.9612,9.7269,0.0035,-0.004,0.01
13354,46.220158,-0.450487,92.21,32.92,3.216,210.6,14 / 17,1335410,2019-08-09 22:57:32:637,0.5155,-1.5567,9.6154,0.79,-0.9598,9.7275,-0.0108,-0.0013,0.0162
13355,46.220158,-0.450487,92.21,32.92,3.216,210.6,14 / 17,1335511,2019-08-09 22:57:32:738,0.8303,-1.1401,9.6902,0.7813,-0.9615,9.7281,0.0109,-0.0043,0.0
13356,46.220158,-0.450487,92.21,32.92,3.216,210.6,16 / 19,1335611,2019-08-09 22:57:32:838,0.8333,-0.599,10.2235,0.7732,-0.9762,9.7273,0.0106,-0.0051,0.0029
13357,46.220158,-0.450487,92.21,32.92,3.216,210.6,16 / 19,1335711,2019-08-09 22:57:32:938,0.5292,-1.9026,9.446,0.7666,-0.9644,9.729,0.0241,0.0094,-0.0032
13358,46.220158,-0.450487,92.21,32.92,3.216,210.6,16 / 19,1335810,2019-08-09 22:57:33:037,0.6615,-1.6447,9.9368,0.7657,-0.9617,9.7293,0.0005,0.007,-0.0097
13359,46.220158,-0.450487,92.21,32.92,3.216,210.6,16 / 19,1335911,2019-08-09 22:57:33:138,0.8279,-0.344,9.7231,0.7731,-0.9863,9.7263,-0.0305,0.0069,-0.0099
13360,46.220158,-0.450487,92.21,32.92,3.216,210.6,16 / 19,1336010,2019-08-09 22:57:33:237,0.8321,-1.273,9.343,0.7785,-0.957,9.7287,-0.0271,0.0061,-0.0126
13361,46.220158,-0.450487,92.21,32.92,3.216,210.6,16 / 19,1336110,2019-08-09 22:57:33:337,0.962,-1.5549,9.689,0.787,-0.9645,9.7273,-0.0013,0.0001,-0.0253
13362,46.220158,-0.450487,92.21,32.92,3.216,210.6,16 / 19,1336210,2019-08-09 22:57:33:437,0.7459,-1.3687,9.7997,0.7854,-0.9489,9.729,-0.0016,-0.0016,0.0006
13363,46.220158,-0.450487,92.21,32.92,3.216,210.6,16 / 19,1336310,2019-08-09 22:57:33:537,0.8417,-1.4902,9.7064,0.7827,-0.9434,9.7297,-0.0014,-0.0043,-0.002
13364,46.220158,-0.450487,92.21,32.92,3.216,210.6,16 / 19,1336411,2019-08-09 22:57:33:638,0.8764,-0.5828,9.7153,0.7795,-0.9398,9.7303,0.0319,-0.0063,-0.0001
13365,46.220158,-0.450487,92.21,32.92,3.216,210.6,16 / 19,1336510,2019-08-09 22:57:33:737,0.5783,-0.693,9.3694,0.775,-0.9342,9.7312,0.02,0.0056,-0.0099
13366,46.220158,-0.450487,92.21,32.92,3.216,210.6,15 / 18,1336610,2019-08-09 22:57:33:837,0.7507,-0.7139,9.9859,0.7767,-0.9494,9.7296,0.005,0.0025,0.0021
13367,46.220158,-0.450487,92.21,32.92,3.216,210.6,15 / 18,1336711,2019-08-09 22:57:33:938,0.9153,-1.0946,10.017,0.7782,-0.9449,9.7299,-0.0241,0.0059,-0.0029
13368,46.220158,-0.450487,92.21,32.92,3.216,210.6,15 / 18,1336810,2019-08-09 22:57:34:037,0.8459,-1.6638,9.6621,0.7788,-0.9386,9.7305,-0.0011,0.0048,-0.0047
13369,46.220158,-0.450487,92.21,32.92,3.216,210.6,15 / 18,1336910,2019-08-09 22:57:34:137,0.8375,-1.2191,10.2678,0.7831,-0.9674,9.7273,-0.0132,-0.0004,0.0027
13370,46.220158,-0.450487,92.21,32.92,3.216,210.6,15 / 18,1337010,2019-08-09 22:57:34:237,0.7274,-1.0724,9.8231,0.7831,-0.9559,9.7285,0.0015,0.0,-0.0099
13371,46.220158,-0.450487,92.21,32.92,3.216,210.6,15 / 18,1337110,2019-08-09 22:57:34:337,0.7262,-1.4902,9.4442,0.7852,-0.9485,9.729,0.0092,0.0034,-0.0188
13372,46.220158,-0.450487,92.21,32.92,3.216,210.6,15 / 18,1337210,2019-08-09 22:57:34:437,1.1607,-1.2215,10.3426,0.7908,-0.9704,9.7264,-0.0313,0.0063,0.0238
13373,46.220158,-0.450487,92.21,32.92,3.216,210.6,15 / 18,1337310,2019-08-09 22:57:34:537,0.5376,-1.407,9.4101,0.7946,-0.9525,9.7279,-0.0102,0.0106,-0.018
13374,46.220158,-0.450487,92.21,32.92,3.216,210.6,15 / 18,1337410,2019-08-09 22:57:34:637,0.7375,-1.7817,9.7159,0.8027,-0.9348,9.7289,0.0073,0.0205,-0.0013
13375,46.220158,-0.450487,92.21,32.92,3.216,210.6,15 / 18,1337510,2019-08-09 22:57:34:737,0.5807,-1.9421,9.6615,0.8218,-0.9378,9.7271,-0.0251,0.0042,0.0264
13376,46.220158,-0.450487,92.21,32.92,3.216,210.6,15 / 19,1337611,2019-08-09 22:57:34:838,0.9237,-1.0928,9.6435,0.8178,-0.9304,9.7281,0.0101,-0.0035,-0.0175
13377,46.220158,-0.450487,92.21,32.92,3.216,210.6,15 / 19,1337711,2019-08-09 22:57:34:938,1.0362,-0.8887,9.6202,0.8247,-0.9263,9.7279,0.0287,0.0062,0.006
13378,46.220158,-0.450487,92.21,32.92,3.216,210.6,15 / 19,1337810,2019-08-09 22:57:35:037,0.865,-1.9978,9.8997,0.8246,-0.9078,9.7297,0.0271,0.0042,-0.0119
13379,46.220158,-0.450487,92.21,32.92,3.216,210.6,15 / 19,1337910,2019-08-09 22:57:35:137,0.9991,-1.3155,10.0068,0.8305,-0.926,9.7274,-0.0011,-0.0028,-0.0278
13380,46.220158,-0.450487,92.21,32.92,3.216,210.6,15 / 19,1338010,2019-08-09 22:57:35:237,1.0219,-1.0282,9.5041,0.8337,-0.9179,9.7279,-0.0039,0.0064,-0.0056
13381,46.220158,-0.450487,92.21,32.92,3.216,210.6,15 / 19,1338110,2019-08-09 22:57:35:337,0.9967,-1.9655,9.9775,0.8488,-0.9198,9.7265,-0.0426,-0.0035,-0.0244
13382,46.220158,-0.450487,92.21,32.92,3.216,210.6,15 / 19,1338210,2019-08-09 22:57:35:437,1.2002,-1.0114,9.4556,0.8486,-0.9027,9.7281,-0.0071,0.0008,0.0018
13383,46.220158,-0.450487,92.21,32.92,3.216,210.6,15 / 19,1338310,2019-08-09 22:57:35:537,1.1116,-1.1203,9.6681,0.8474,-0.9008,9.7284,-0.0108,-0.0137,-0.0236
13384,46.220158,-0.450487,92.21,32.92,3.216,210.6,15 / 19,1338411,2019-08-09 22:57:35:638,0.8614,-0.7851,9.9392,0.8402,-0.9093,9.7282,0.0232,-0.0034,0.0076
13385,46.220158,-0.450487,92.21,32.92,3.216,210.6,15 / 19,1338510,2019-08-09 22:57:35:737,1.053,-0.6104,9.68,0.8417,-0.9116,9.7278,0.0182,0.0001,-0.0109
13386,46.220158,-0.450487,92.21,32.92,3.216,210.6,15 / 19,1338610,2019-08-09 22:57:35:837,1.0745,-0.824,10.3031,0.8413,-0.9322,9.7259,-0.0054,-0.0057,-0.0149
13387,46.220158,-0.450487,92.21,32.92,3.216,210.6,15 / 19,1338710,2019-08-09 22:57:35:937,0.8225,-0.514,9.3909,0.8397,-0.91,9.7282,-0.0189,0.0026,-0.0123
13388,46.220158,-0.450487,92.21,32.92,3.216,210.6,15 / 19,1338810,2019-08-09 22:57:36:037,1.0242,-0.9156,9.5759,0.8416,-0.9195,9.7271,-0.0013,0.0046,-0.0054
13389,46.220158,-0.450487,92.21,32.92,3.216,210.6,15 / 19,1338911,2019-08-09 22:57:36:138,1.0021,-1.3089,9.8428,0.8494,-0.9096,9.7274,-0.0208,0.0023,-0.0125
13390,46.220158,-0.450487,92.21,32.92,3.216,210.6,15 / 19,1339011,2019-08-09 22:57:36:238,0.9063,-0.687,9.9093,0.8534,-0.9218,9.7259,0.0173,0.0008,-0.0043
13391,46.220158,-0.450487,92.21,32.92,3.216,210.6,15 / 19,1339111,2019-08-09 22:57:36:338,0.7794,-0.4871,9.7034,0.8525,-0.9228,9.7258,0.0176,0.0018,0.0009
13392,46.220158,-0.450487,92.21,32.92,3.216,210.6,15 / 19,1339211,2019-08-09 22:57:36:438,0.8872,-0.7528,9.6728,0.8503,-0.9179,9.7265,0.0023,-0.0007,-0.0088
13393,46.220158,-0.450487,92.21,32.92,3.216,210.6,15 / 19,1339310,2019-08-09 22:57:36:537,0.8034,-0.696,9.8925,0.8499,-0.9131,9.727,-0.0072,-0.0056,0.0008
13394,46.220158,-0.450487,92.21,32.92,3.216,210.6,15 / 19,1339410,2019-08-09 22:57:36:637,0.5951,-0.4787,9.3742,0.84,-0.9122,9.7279,-0.0053,-0.0035,-0.0022
13395,46.220158,-0.450487,92.21,32.92,3.216,210.6,15 / 19,1339510,2019-08-09 22:57:36:737,0.5131,-0.2363,9.3335,0.8337,-0.9117,9.7285,0.0113,-0.0003,-0.0049
13396,46.220158,-0.450487,92.21,32.92,3.216,210.6,15 / 19,1339610,2019-08-09 22:57:36:837,0.6454,-1.1868,9.7764,0.8262,-0.92,9.7284,0.0091,-0.004,-0.0022
13397,46.220158,-0.450487,92.21,32.92,3.216,210.6,15 / 19,1339710,2019-08-09 22:57:36:937,0.6382,-0.5236,9.6752,0.816,-0.9288,9.7284,-0.0092,-0.0028,-0.0072
13398,46.220158,-0.450487,92.21,32.92,3.216,210.6,15 / 19,1339810,2019-08-09 22:57:37:037,0.7387,-0.4978,9.8482,0.8145,-0.932,9.7282,0.0048,0.0078,-0.005
13399,46.220158,-0.450487,92.21,32.92,3.216,210.6,15 / 19,1339910,2019-08-09 22:57:37:137,0.892,-1.0665,9.7926,0.8211,-0.9361,9.7273,-0.002,0.0032,-0.0157
13400,46.220158,-0.450487,92.21,32.92,3.216,210.6,15 / 19,1340010,2019-08-09 22:57:37:237,0.9572,-0.6493,9.7441,0.821,-0.9413,9.7268,-0.005,-0.0035,-0.0176
13401,46.220158,-0.450487,92.21,32.92,3.216,210.6,15 / 19,1340111,2019-08-09 22:57:37:338,0.7573,-0.6822,9.3969,0.8229,-0.9363,9.7271,0.0146,0.0004,-0.0094
13402,46.220158,-0.450487,92.21,32.92,3.216,210.6,15 / 19,1340210,2019-08-09 22:57:37:437,0.7992,-0.2075,9.5855,0.8211,-0.9411,9.7268,-0.0053,0.0108,0.0093
13403,46.220158,-0.450487,92.21,32.92,3.216,210.6,15 / 19,1340310,2019-08-09 22:57:37:537,0.8956,-1.3173,9.6716,0.8259,-0.9363,9.7269,-0.0231,0.0077,-0.0068
13404,46.220158,-0.450487,92.21,32.92,3.216,210.6,15 / 19,1340410,2019-08-09 22:57:37:637,0.9033,-0.6924,9.3891,0.8371,-0.9408,9.7255,-0.0001,0.0054,0.003
13405,46.220158,-0.450487,92.21,32.92,3.216,210.6,15 / 19,1340510,2019-08-09 22:57:37:737,0.8417,-0.031,9.5172,0.8365,-0.9304,9.7265,-0.0155,-0.0005,-0.0118
13406,46.220158,-0.450487,92.21,32.92,3.216,210.6,15 / 19,1340610,2019-08-09 22:57:37:837,0.7028,-1.2825,9.3287,0.8369,-0.9249,9.727,-0.0186,-0.0008,0.0
13407,46.220158,-0.450487,92.21,32.92,3.216,210.6,15 / 19,1340710,2019-08-09 22:57:37:937,0.8405,-0.6648,10.2804,0.8329,-0.9513,9.7248,0.0494,0.0004,-0.0059
13408,46.220158,-0.450487,92.21,32.92,3.216,210.6,15 / 19,1340810,2019-08-09 22:57:38:037,0.9362,-0.666,9.7165,0.8281,-0.9457,9.7258,-0.0145,-0.0032,0.0025
13409,46.220158,-0.450487,92.21,32.92,3.216,210.6,15 / 19,1340910,2019-08-09 22:57:38:137,0.7926,-1.4471,9.4209,0.8291,-0.9469,9.7256,-0.0058,0.0019,-0.0144
13410,46.220158,-0.450487,92.21,32.92,3.216,210.6,15 / 19,1341010,2019-08-09 22:57:38:237,0.9847,-0.9593,9.7572,0.8305,-0.9487,9.7253,0.0064,-0.007,-0.0098
13411,46.220158,-0.450487,92.21,32.92,3.216,210.6,15 / 19,1341110,2019-08-09 22:57:38:337,0.6651,-0.5816,9.8578,0.8213,-0.9485,9.7261,-0.0074,-0.0044,-0.004
13412,46.220158,-0.450487,92.21,32.92,3.216,210.6,15 / 19,1341210,2019-08-09 22:57:38:437,0.8141,-0.3733,9.8506,0.8153,-0.9487,9.7265,0.008,-0.0056,-0.0087
13413,46.220158,-0.450487,92.21,32.92,3.216,210.6,15 / 19,1341310,2019-08-09 22:57:38:537,0.8237,-1.7883,9.7082,0.8089,-0.9565,9.7263,0.0217,-0.0126,-0.0172
13414,46.220158,-0.450487,92.21,32.92,3.216,210.6,15 / 19,1341410,2019-08-09 22:57:38:637,0.8902,-1.592,9.5166,0.813,-0.9435,9.7272,0.0011,0.0109,-0.0181
13415,46.220158,-0.450487,92.21,32.92,3.216,210.6,15 / 19,1341510,2019-08-09 22:57:38:737,1.0236,-1.2359,9.6435,0.8164,-0.9362,9.7277,-0.0101,-0.009,-0.0174
13416,46.220158,-0.450487,92.21,32.92,3.216,210.6,15 / 19,1341611,2019-08-09 22:57:38:838,0.6394,0.0379,9.8189,0.8073,-0.9203,9.7299,0.0032,-0.0011,-0.0097
13417,46.220158,-0.450487,92.21,32.92,3.216,210.6,15 / 19,1341710,2019-08-09 22:57:38:937,0.5077,-0.1297,10.017,0.8152,-0.9319,9.7282,-0.002,0.0038,-0.0245
13418,46.220158,-0.450487,92.21,32.92,3.216,210.6,15 / 19,1341810,2019-08-09 22:57:39:037,0.7782,0.0923,9.4651,0.8204,-0.9234,9.7286,-0.0331,-0.0004,-0.018
13419,46.220158,-0.450487,92.21,32.92,3.216,210.6,15 / 19,1341911,2019-08-09 22:57:39:138,0.7986,-1.2352,9.4454,0.824,-0.9268,9.7279,0.0204,0.0053,-0.0137
13420,46.220158,-0.450487,92.21,32.92,3.216,210.6,15 / 19,1342010,2019-08-09 22:57:39:237,0.8339,-0.7606,10.0074,0.8209,-0.9176,9.7291,0.0123,-0.0006,0.0018
13421,46.220158,-0.450487,92.21,32.92,3.216,210.6,15 / 19,1342110,2019-08-09 22:57:39:337,0.8231,-0.6876,9.9284,0.8198,-0.9294,9.728,0.0108,0.0062,-0.0091
13422,46.220158,-0.450487,92.21,32.92,3.216,210.6,15 / 19,1342210,2019-08-09 22:57:39:437,0.7184,-1.276,9.3963,0.8303,-0.912,9.7288,-0.0091,0.0149,-0.0026
13423,46.220158,-0.450487,92.21,32.92,3.216,210.6,15 / 19,1342311,2019-08-09 22:57:39:538,1.044,-0.9426,9.6734,0.8354,-0.9073,9.7288,0.0028,0.0014,-0.0241
13424,46.220158,-0.450487,92.21,32.92,3.216,210.6,15 / 19,1342410,2019-08-09 22:57:39:637,0.777,-0.3865,10.0236,0.8258,-0.9135,9.729,-0.0106,-0.0125,0.0069
13425,46.220158,-0.450487,92.21,32.92,3.216,210.6,15 / 19,1342511,2019-08-09 22:57:39:738,0.5741,-0.5307,9.7902,0.8203,-0.903,9.7305,-0.0103,0.0014,-0.0068
13426,46.21789,-0.45259,89.33,33.4,3.216,213.9,15 / 19,1342610,2019-08-09 22:57:39:837,0.9614,-0.93,9.7345,0.825,-0.8836,9.7319,-0.0128,0.0012,-0.0192
13427,46.21789,-0.45259,89.33,33.4,3.216,213.9,15 / 19,1342711,2019-08-09 22:57:39:938,0.6334,-0.499,10.0625,0.825,-0.877,9.7325,-0.0209,-0.0055,0.0033
13428,46.21789,-0.45259,89.33,33.4,3.216,213.9,15 / 19,1342811,2019-08-09 22:57:40:038,0.7992,-2.2558,9.5699,0.8172,-0.8509,9.7354,0.0169,0.0036,-0.0046
13429,46.21789,-0.45259,89.33,33.4,3.216,213.9,15 / 19,1342911,2019-08-09 22:57:40:138,0.6334,-0.3015,9.586,0.8186,-0.8409,9.7362,-0.009,0.0071,0.0084
13430,46.21789,-0.45259,89.33,33.4,3.216,213.9,15 / 19,1343010,2019-08-09 22:57:40:237,0.722,-0.8833,10.2241,0.8171,-0.8193,9.7382,0.0269,-0.0135,-0.0054
13431,46.21789,-0.45259,89.33,33.4,3.216,213.9,15 / 19,1343110,2019-08-09 22:57:40:337,0.3784,-1.1048,10.0206,0.7897,-0.8051,9.7416,-0.0058,-0.0069,0.0241
13432,46.21789,-0.45259,89.33,33.4,3.216,213.9,15 / 19,1343210,2019-08-09 22:57:40:437,0.5622,-0.7774,9.4975,0.7817,-0.7872,9.7437,0.0049,-0.0028,-0.0017
13433,46.21789,-0.45259,89.33,33.4,3.216,213.9,15 / 19,1343310,2019-08-09 22:57:40:537,0.9237,-0.8025,10.172,0.7701,-0.8026,9.7434,-0.0097,-0.0044,0.0201
13434,46.21789,-0.45259,89.33,33.4,3.216,213.9,15 / 19,1343410,2019-08-09 22:57:40:637,0.7112,-2.0583,9.5089,0.7684,-0.7991,9.7438,0.0005,0.0128,-0.003
13435,46.21789,-0.45259,89.33,33.4,3.216,213.9,15 / 19,1343510,2019-08-09 22:57:40:737,0.6543,-0.1656,9.9548,0.7721,-0.7962,9.7437,0.0164,0.0005,-0.0236
13436,46.21789,-0.45259,89.33,33.4,3.216,213.9,15 / 18,1343610,2019-08-09 22:57:40:837,0.5963,-0.3003,9.6687,0.775,-0.7885,9.7441,-0.0249,0.0059,0.0087
13437,46.21789,-0.45259,89.33,33.4,3.216,213.9,15 / 18,1343710,2019-08-09 22:57:40:937,0.7543,-1.0802,9.8704,0.7835,-0.7901,9.7433,0.0087,0.0122,-0.0107
13438,46.21789,-0.45259,89.33,33.4,3.216,213.9,15 / 18,1343810,2019-08-09 22:57:41:037,0.8584,-1.2095,9.8883,0.7873,-0.7879,9.7432,0.0078,0.0043,-0.0115
13439,46.21789,-0.45259,89.33,33.4,3.216,213.9,15 / 18,1343910,2019-08-09 22:57:41:137,0.5999,-0.5463,9.4065,0.794,-0.7816,9.7431,-0.0022,0.0049,0.0051
13440,46.21789,-0.45259,89.33,33.4,3.216,213.9,15 / 18,1344011,2019-08-09 22:57:41:238,0.7004,-0.2123,9.7022,0.7949,-0.8004,9.7416,0.015,0.0055,-0.0103
13441,46.21789,-0.45259,89.33,33.4,3.216,213.9,15 / 18,1344111,2019-08-09 22:57:41:338,0.9602,-0.8462,9.6854,0.7995,-0.7873,9.7422,0.0024,0.0056,-0.0129
13442,46.21789,-0.45259,89.33,33.4,3.216,213.9,15 / 18,1344210,2019-08-09 22:57:41:437,0.6448,-0.5828,9.5926,0.8053,-0.7922,9.7414,-0.0108,0.0097,0.0136
13443,46.21789,-0.45259,89.33,33.4,3.216,213.9,15 / 18,1344310,2019-08-09 22:57:41:537,0.6621,-0.8492,9.5448,0.8146,-0.7903,9.7408,0.0056,0.0127,0.0051
13444,46.21789,-0.45259,89.33,33.4,3.216,213.9,15 / 18,1344410,2019-08-09 22:57:41:637,0.7663,-0.8396,9.4292,0.8173,-0.804,9.7394,0.0037,0.0047,0.0
13445,46.21789,-0.45259,89.33,33.4,3.216,213.9,15 / 18,1344511,2019-08-09 22:57:41:738,0.619,-0.198,9.8835,0.8259,-0.8006,9.739,-0.0099,0.0109,-0.0022
13446,46.21789,-0.45259,89.33,33.4,3.216,213.9,15 / 18,1344610,2019-08-09 22:57:41:837,1.1062,-0.4655,9.6555,0.8279,-0.8034,9.7386,-0.0122,-0.0071,-0.0069
13447,46.21789,-0.45259,89.33,33.4,3.216,213.9,15 / 18,1344710,2019-08-09 22:57:41:937,0.5831,-0.5691,9.2988,0.8212,-0.7966,9.7397,0.0033,0.0007,-0.0176
13448,46.21789,-0.45259,89.33,33.4,3.216,213.9,15 / 18,1344810,2019-08-09 22:57:42:037,1.0404,-0.8288,9.6106,0.8199,-0.7997,9.7395,-0.0129,-0.0022,-0.015
13449,46.21789,-0.45259,89.33,33.4,3.216,213.9,15 / 18,1344911,2019-08-09 22:57:42:138,1.1176,-0.7905,9.3065,0.8208,-0.793,9.74,0.0053,0.002,0.004
13450,46.21789,-0.45259,89.33,33.4,3.216,213.9,15 / 18,1345010,2019-08-09 22:57:42:237,1.1152,-0.939,9.7842,0.8245,-0.8028,9.7389,0.0055,-0.0008,-0.0197
13451,46.21789,-0.45259,89.33,33.4,3.216,213.9,15 / 18,1345111,2019-08-09 22:57:42:338,0.9075,-0.6409,9.4921,0.8229,-0.8034,9.739,0.005,-0.0021,-0.0061
13452,46.21789,-0.45259,89.33,33.4,3.216,213.9,15 / 18,1345210,2019-08-09 22:57:42:437,0.9578,0.1743,9.6908,0.8237,-0.8067,9.7386,0.0087,-0.0004,-0.0129
13453,46.21789,-0.45259,89.33,33.4,3.216,213.9,15 / 18,1345310,2019-08-09 22:57:42:537,0.9728,-1.0736,9.8841,0.8235,-0.826,9.737,-0.0007,-0.0081,-0.0222
13454,46.21789,-0.45259,89.33,33.4,3.216,213.9,15 / 18,1345410,2019-08-09 22:57:42:637,0.7465,-0.6541,9.8189,0.823,-0.8169,9.7378,0.0156,-0.0079,-0.0201
13455,46.21789,-0.45259,89.33,33.4,3.216,213.9,15 / 18,1345511,2019-08-09 22:57:42:738,0.7806,-0.9342,9.6202,0.8188,-0.8135,9.7385,-0.0265,-0.0103,-0.0004
13456,46.21789,-0.45259,89.33,33.4,3.216,213.9,16 / 19,1345610,2019-08-09 22:57:42:837,0.5969,-0.5882,9.4891,0.8135,-0.8284,9.7377,-0.0027,-0.0054,0.0128
13457,46.21789,-0.45259,89.33,33.4,3.216,213.9,16 / 19,1345710,2019-08-09 22:57:42:937,0.6238,-0.5044,9.3011,0.8048,-0.8178,9.7393,-0.0247,0.0004,0.0104
13458,46.21789,-0.45259,89.33,33.4,3.216,213.9,16 / 19,1345811,2019-08-09 22:57:43:038,0.7399,-0.7935,9.8327,0.8029,-0.8168,9.7395,0.0074,0.0021,-0.009
13459,46.21789,-0.45259,89.33,33.4,3.216,213.9,16 / 19,1345911,2019-08-09 22:57:43:138,0.7465,-0.7672,9.5076,0.8015,-0.806,9.7406,-0.0152,0.0065,-0.0101
13460,46.21789,-0.45259,89.33,33.4,3.216,213.9,16 / 19,1346011,2019-08-09 22:57:43:238,1.1589,-0.8534,9.8267,0.8162,-0.809,9.7391,-0.0131,0.0081,-0.0197
13461,46.21789,-0.45259,89.33,33.4,3.216,213.9,16 / 19,1346110,2019-08-09 22:57:43:337,1.1529,-1.0611,9.6585,0.8235,-0.8044,9.7388,0.0054,0.0029,-0.0249
13462,46.21789,-0.45259,89.33,33.4,3.216,213.9,16 / 19,1346210,2019-08-09 22:57:43:437,1.0093,-1.1963,9.7548,0.8357,-0.8164,9.7368,-0.0088,0.0146,-0.024
13463,46.21789,-0.45259,89.33,33.4,3.216,213.9,16 / 19,1346310,2019-08-09 22:57:43:537,1.287,-0.9611,9.7836,0.8475,-0.8058,9.7367,0.0109,0.0116,-0.0241
13464,46.21789,-0.45259,89.33,33.4,3.216,213.9,16 / 19,1346410,2019-08-09 22:57:43:637,1.1565,-0.2979,9.686,0.8677,-0.8213,9.7336,0.0097,0.0045,-0.0149
13465,46.21789,-0.45259,89.33,33.4,3.216,213.9,16 / 19,1346511,2019-08-09 22:57:43:738,1.3038,-0.8115,9.5902,0.8772,-0.8174,9.7331,-0.0082,-0.0002,-0.0309
13466,46.21789,-0.45259,89.33,33.4,3.216,213.9,16 / 19,1346611,2019-08-09 22:57:43:838,1.2086,-0.4128,9.7465,0.8871,-0.8196,9.732,0.0235,-0.0053,-0.0204
13467,46.21789,-0.45259,89.33,33.4,3.216,213.9,16 / 19,1346710,2019-08-09 22:57:43:937,0.8261,-0.5966,9.549,0.8884,-0.8295,9.731,-0.0189,0.0028,0.0002
13468,46.21789,-0.45259,89.33,33.4,3.216,213.9,16 / 19,1346811,2019-08-09 22:57:44:038,0.862,-1.3161,9.2515,0.896,-0.8025,9.7326,-0.0117,0.0051,-0.0131
13469,46.21789,-0.45259,89.33,33.4,3.216,213.9,16 / 19,1346910,2019-08-09 22:57:44:137,1.0703,-0.4859,9.8087,0.8949,-0.8108,9.732,-0.0018,-0.019,0.0017
13470,46.21789,-0.45259,89.33,33.4,3.216,213.9,16 / 19,1347011,2019-08-09 22:57:44:238,0.7303,-0.517,9.6537,0.879,-0.7979,9.7345,-0.0126,-0.0098,-0.0004
13471,46.21789,-0.45259,89.33,33.4,3.216,213.9,16 / 19,1347110,2019-08-09 22:57:44:337,0.9997,-0.5547,9.6286,0.8777,-0.809,9.7337,0.0127,0.0005,-0.0115
13472,46.21789,-0.45259,89.33,33.4,3.216,213.9,16 / 19,1347210,2019-08-09 22:57:44:437,1.044,-0.7624,9.9015,0.8764,-0.8062,9.7341,0.0119,-0.0059,-0.0291
13473,46.21789,-0.45259,89.33,33.4,3.216,213.9,16 / 19,1347310,2019-08-09 22:57:44:537,0.9668,-0.9473,9.8859,0.8773,-0.8107,9.7336,-0.004,0.0003,-0.0077
13474,46.21789,-0.45259,89.33,33.4,3.216,213.9,16 / 19,1347410,2019-08-09 22:57:44:637,1.1775,-0.8797,9.446,0.8829,-0.8046,9.7336,0.0121,0.0001,-0.0284
13475,46.21789,-0.45259,89.33,33.4,3.216,213.9,16 / 19,1347510,2019-08-09 22:57:44:737,1.1763,-1.0401,9.9769,0.8843,-0.8153,9.7326,-0.0063,-0.0048,-0.0102
13476,46.21789,-0.45259,89.33,33.4,3.216,213.9,15 / 18,1347610,2019-08-09 22:57:44:837,0.9764,-1.2616,9.7147,0.8879,-0.8236,9.7316,0.0069,-0.0004,-0.0102
13477,46.21789,-0.45259,89.33,33.4,3.216,213.9,15 / 18,1347710,2019-08-09 22:57:44:937,0.9955,-0.9928,9.2832,0.8955,-0.8242,9.7308,-0.0329,0.0205,-0.0202
13478,46.21789,-0.45259,89.33,33.4,3.216,213.9,15 / 18,1347810,2019-08-09 22:57:45:037,1.2092,-0.3267,9.8249,0.9215,-0.8173,9.729,0.0078,0.0142,-0.0229
13479,46.21789,-0.45259,89.33,33.4,3.216,213.9,15 / 18,1347911,2019-08-09 22:57:45:138,1.0847,-0.9198,9.8871,0.9269,-0.8053,9.7295,0.0268,-0.001,-0.0089
13480,46.21789,-0.45259,89.33,33.4,3.216,213.9,15 / 18,1348011,2019-08-09 22:57:45:238,0.8752,-1.17,9.3454,0.9264,-0.8117,9.729,0.0011,-0.0007,-0.0112
13481,46.21789,-0.45259,89.33,33.4,3.216,213.9,15 / 18,1348110,2019-08-09 22:57:45:337,0.8351,0.0504,9.3059,0.927,-0.8013,9.7298,0.0008,0.0033,-0.0024
13482,46.21789,-0.45259,89.33,33.4,3.216,213.9,15 / 18,1348210,2019-08-09 22:57:45:437,0.8381,-0.1764,9.5579,0.9299,-0.7983,9.7298,0.0272,-0.0062,-0.0154
13483,46.21789,-0.45259,89.33,33.4,3.216,213.9,15 / 18,1348310,2019-08-09 22:57:45:537,0.7932,-0.7223,9.0869,0.9225,-0.8038,9.73,-0.0403,-0.0068,0.0118
13484,46.21789,-0.45259,89.33,33.4,3.216,213.9,15 / 18,1348410,2019-08-09 22:57:45:637,0.9027,-0.608,9.8997,0.9161,-0.8157,9.7296,0.0104,-0.0042,-0.016
13485,46.21789,-0.45259,89.33,33.4,3.216,213.9,15 / 18,1348510,2019-08-09 22:57:45:737,1.123,-0.7205,10.0775,0.9133,-0.8238,9.7292,-0.0013,-0.0059,-0.0124
13486,46.21789,-0.45259,89.33,33.4,3.216,213.9,15 / 18,1348610,2019-08-09 22:57:45:837,0.9895,-1.252,9.5214,0.9144,-0.8214,9.7293,-0.0213,0.0014,-0.0166
13487,46.21789,-0.45259,89.33,33.4,3.216,213.9,15 / 18,1348710,2019-08-09 22:57:45:937,1.0422,-0.9527,9.4975,0.9177,-0.8158,9.7295,-0.0005,0.0014,-0.0162
13488,46.21789,-0.45259,89.33,33.4,3.216,213.9,15 / 18,1348810,2019-08-09 22:57:46:037,0.7339,0.1995,9.133,0.9155,-0.8041,9.7307,0.0146,-0.0053,-0.0177
13489,46.21789,-0.45259,89.33,33.4,3.216,213.9,15 / 18,1348910,2019-08-09 22:57:46:137,0.9398,0.1546,9.6675,0.9134,-0.8323,9.7285,0.0171,-0.007,0.0242
13490,46.21789,-0.45259,89.33,33.4,3.216,213.9,15 / 18,1349011,2019-08-09 22:57:46:238,0.4448,-1.9128,9.7321,0.9014,-0.8163,9.731,-0.024,0.0008,-0.0017
13491,46.21789,-0.45259,89.33,33.4,3.216,213.9,15 / 18,1349111,2019-08-09 22:57:46:338,0.7956,-1.1431,10.0936,0.8943,-0.8299,9.7305,0.0377,0.0064,-0.0055
13492,46.21789,-0.45259,89.33,33.4,3.216,213.9,15 / 18,1349210,2019-08-09 22:57:46:437,0.8878,-0.5391,10.4318,0.8907,-0.8145,9.7321,0.0616,-0.0083,-0.0062
13493,46.21789,-0.45259,89.33,33.4,3.216,213.9,15 / 18,1349310,2019-08-09 22:57:46:537,0.5179,-1.1084,10.0481,0.8758,-0.8356,9.7317,0.0054,0.0008,-0.0105
13494,46.21789,-0.45259,89.33,33.4,3.216,213.9,15 / 18,1349410,2019-08-09 22:57:46:637,0.6358,-0.3727,9.4586,0.8697,-0.8393,9.7319,0.082,0.011,-0.0095
13495,46.21789,-0.45259,89.33,33.4,3.216,213.9,15 / 18,1349510,2019-08-09 22:57:46:737,0.7046,-0.3087,9.0528,0.877,-0.8229,9.7326,0.0439,0.0074,-0.022
13496,46.21789,-0.45259,89.33,33.4,3.216,213.9,15 / 17,1349610,2019-08-09 22:57:46:837,0.7471,-0.098,9.2521,0.879,-0.8452,9.7305,-0.0693,-0.001,-0.0045
13497,46.21789,-0.45259,89.33,33.4,3.216,213.9,15 / 17,1349710,2019-08-09 22:57:46:937,0.868,-0.7007,9.2736,0.8703,-0.8191,9.7335,0.0295,-0.0117,-0.0112
13498,46.21789,-0.45259,89.33,33.4,3.216,213.9,15 / 17,1349810,2019-08-09 22:57:47:037,0.7687,-1.2801,9.6812,0.8615,-0.8323,9.7332,-0.0025,-0.0166,0.0031
13499,46.21789,-0.45259,89.33,33.4,3.216,213.9,15 / 17,1349910,2019-08-09 22:57:47:137,0.8207,-1.1431,9.8279,0.8461,-0.8348,9.7344,0.0273,0.0011,-0.0131
13500,46.21789,-0.45259,89.33,33.4,3.216,213.9,15 / 17,1350010,2019-08-09 22:57:47:237,0.9482,0.2695,10.2175,0.8458,-0.849,9.7331,0.027,-0.0024,-0.0129
13501,46.21789,-0.45259,89.33,33.4,3.216,213.9,15 / 17,1350111,2019-08-09 22:57:47:338,0.8195,-0.9408,9.3179,0.8419,-0.8428,9.734,0.0017,0.0142,-0.0208
13502,46.21789,-0.45259,89.33,33.4,3.216,213.9,15 / 17,1350214,2019-08-09 22:57:47:441,1.0697,-0.6008,9.8189,0.853,-0.8444,9.7329,0.0175,0.0007,-0.0059
13503,46.21789,-0.45259,89.33,33.4,3.216,213.9,15 / 17,1350310,2019-08-09 22:57:47:537,0.7489,-0.5547,9.6321,0.8571,-0.8376,9.7331,-0.011,-0.0104,-0.0035
13504,46.21789,-0.45259,89.33,33.4,3.216,213.9,15 / 17,1350410,2019-08-09 22:57:47:637,0.6196,-0.7115,9.3748,0.8505,-0.8388,9.7336,-0.019,-0.0026,0.0082
13505,46.21789,-0.45259,89.33,33.4,3.216,213.9,15 / 17,1350511,2019-08-09 22:57:47:738,0.8345,-1.4789,9.8823,0.8451,-0.847,9.7334,0.0166,-0.0026,0.0046
13506,46.21789,-0.45259,89.33,33.4,3.216,213.9,16 / 18,1350610,2019-08-09 22:57:47:837,0.6448,-0.6648,9.5394,0.8354,-0.8512,9.7339,-0.0272,-0.0098,0.0008
13507,46.21789,-0.45259,89.33,33.4,3.216,213.9,16 / 18,1350710,2019-08-09 22:57:47:937,0.5436,-0.3727,9.6208,0.8243,-0.8454,9.7353,-0.001,0.0036,0.0002
13508,46.21789,-0.45259,89.33,33.4,3.216,213.9,16 / 18,1350810,2019-08-09 22:57:48:037,0.5262,-1.6309,9.4227,0.8188,-0.8618,9.7343,-0.0135,-0.0026,-0.0026
13509,46.21789,-0.45259,89.33,33.4,3.216,213.9,16 / 18,1350911,2019-08-09 22:57:48:138,0.4939,-0.8971,9.5579,0.8151,-0.8589,9.7349,0.0044,0.0101,0.0096
13510,46.21789,-0.45259,89.33,33.4,3.216,213.9,16 / 18,1351011,2019-08-09 22:57:48:238,0.7974,-0.3769,9.8692,0.8161,-0.8783,9.7331,-0.0278,0.0044,-0.0026
13511,46.21789,-0.45259,89.33,33.4,3.216,213.9,16 / 18,1351110,2019-08-09 22:57:48:337,0.7986,-0.6457,9.6836,0.8204,-0.8674,9.7337,0.0174,0.0004,-0.0249
13512,46.21789,-0.45259,89.33,33.4,3.216,213.9,16 / 18,1351211,2019-08-09 22:57:48:438,0.8728,-0.8821,10.0727,0.8219,-0.8783,9.7326,0.0067,0.0004,-0.0066
13513,46.21789,-0.45259,89.33,33.4,3.216,213.9,16 / 18,1351311,2019-08-09 22:57:48:538,0.5562,-1.1844,9.0677,0.826,-0.8613,9.7338,0.008,0.0144,-0.0183
13514,46.21789,-0.45259,89.33,33.4,3.216,213.9,16 / 18,1351410,2019-08-09 22:57:48:637,0.7501,-0.2824,8.9193,0.8314,-0.8754,9.7321,-0.0555,0.0122,0.0059
13515,46.21789,-0.45259,89.33,33.4,3.216,213.9,16 / 18,1351510,2019-08-09 22:57:48:737,1.041,-0.8163,10.0858,0.8391,-0.8756,9.7314,0.0029,-0.0158,-0.0037
13516,46.215725,-0.454816,87.62,33.0,3.216,217.4,15 / 17,1351611,2019-08-09 22:57:48:838,0.6765,-1.5657,9.953,0.8321,-0.8855,9.7311,-0.0021,-0.012,0.0118
13517,46.215725,-0.454816,87.62,33.0,3.216,217.4,15 / 17,1351710,2019-08-09 22:57:48:937,0.8195,-1.1574,9.3813,0.8229,-0.8835,9.732,-0.0037,0.0074,-0.0218
13518,46.215725,-0.454816,87.62,33.0,3.216,217.4,15 / 17,1351811,2019-08-09 22:57:49:038,0.88,-0.2602,9.5974,0.8275,-0.8855,9.7315,0.002,0.0038,0.0026
13519,46.215725,-0.454816,87.62,33.0,3.216,217.4,15 / 17,1351910,2019-08-09 22:57:49:137,0.6561,-0.8073,9.5843,0.8202,-0.8818,9.7324,-0.0125,-0.0018,-0.0166
13520,46.215725,-0.454816,87.62,33.0,3.216,217.4,15 / 17,1352011,2019-08-09 22:57:49:238,0.7776,-1.2317,9.5435,0.8215,-0.8859,9.7319,0.0114,-0.0004,-0.0045
13521,46.215725,-0.454816,87.62,33.0,3.216,217.4,15 / 17,1352111,2019-08-09 22:57:49:338,0.7663,-0.9863,9.5585,0.8151,-0.8846,9.7326,-0.0115,-0.0025,0.0077
13522,46.215725,-0.454816,87.62,33.0,3.216,217.4,15 / 17,1352211,2019-08-09 22:57:49:438,0.8632,-0.5325,9.7291,0.8103,-0.8884,9.7327,0.0105,-0.0026,-0.0134
13523,46.215725,-0.454816,87.62,33.0,3.216,217.4,15 / 17,1352311,2019-08-09 22:57:49:538,0.6514,-0.8079,9.5998,0.8007,-0.8863,9.7336,-0.0049,-0.0047,0.0045
13524,46.215725,-0.454816,87.62,33.0,3.216,217.4,15 / 17,1352410,2019-08-09 22:57:49:637,0.446,-1.3167,9.346,0.8007,-0.8811,9.7341,-0.0165,0.0087,0.0069
13525,46.215725,-0.454816,87.62,33.0,3.216,217.4,15 / 17,1352510,2019-08-09 22:57:49:737,0.7663,-0.3326,9.7447,0.8118,-0.8942,9.732,0.0019,0.0085,0.0011
13526,46.215725,-0.454816,87.62,33.0,3.216,217.4,16 / 18,1352611,2019-08-09 22:57:49:838,0.4269,-0.8528,9.4849,0.8137,-0.8923,9.732,-0.0072,0.019,-0.0107
13527,46.215725,-0.454816,87.62,33.0,3.216,217.4,16 / 18,1352713,2019-08-09 22:57:49:940,1.029,-1.4244,9.8524,0.829,-0.9062,9.7294,0.0273,0.0122,-0.0167
13528,46.215725,-0.454816,87.62,33.0,3.216,217.4,16 / 18,1352810,2019-08-09 22:57:50:037,1.0608,-1.082,10.0547,0.8289,-0.9142,9.7287,0.0131,-0.0044,-0.0163
13529,46.215725,-0.454816,87.62,33.0,3.216,217.4,16 / 18,1352910,2019-08-09 22:57:50:137,0.9548,-0.7241,9.6435,0.8241,-0.9026,9.7302,-0.0236,-0.0107,-0.0005
13530,46.215725,-0.454816,87.62,33.0,3.216,217.4,16 / 18,1353011,2019-08-09 22:57:50:238,0.9686,-0.8342,10.1535,0.8134,-0.9257,9.7289,-0.0229,-0.0038,0.01
13531,46.215725,-0.454816,87.62,33.0,3.216,217.4,16 / 18,1353110,2019-08-09 22:57:50:337,0.6687,-0.4368,9.5047,0.8078,-0.9018,9.7316,-0.0065,-0.0049,-0.009
13532,46.215725,-0.454816,87.62,33.0,3.216,217.4,16 / 18,1353210,2019-08-09 22:57:50:437,0.9225,-1.2616,9.6363,0.8016,-0.9037,9.732,0.0018,-0.0015,0.005
13533,46.215725,-0.454816,87.62,33.0,3.216,217.4,16 / 18,1353310,2019-08-09 22:57:50:537,0.8453,-1.1532,9.8775,0.7986,-0.8981,9.7327,0.018,-0.0073,-0.0131
