,GPS LATITUDE (degrees),GPS LONGITUDE (degrees), GPS ALTITUDE (m),GPS SPEED (Kmh),GPS ACCURACY (m),GPS ORIENTATION (Â°), SATELLITES IN RANGE, TIME SINCE START (ms), DATE (YYYY-MO-DD HH-MI-SS_SSS),ACCELEROMETER X (m/s²) , ACCELEROMETER Y (m/s²), ACCELEROMETER Z (m/s²), GRAVITY X (m/s²), GRAVITY Y (m/s²), GRAVITY Z (m/s²), GYROSCOPE Yaw (rad/s), GYROSCOPE Pitch (rad/s), GYROSCOPE Roll (rad/s)
54879,45.692036,0.102046,145.64,10.19,3.216,178.4,13 / 15,5487910,2019-08-10 00:06:45:137,1.0979,-1.6159,8.8851,1.5463,-1.379,9.5853,0.0156,0.0217,-0.0381
54880,45.692036,0.102046,145.64,10.19,3.216,178.4,13 / 15,5488011,2019-08-10 00:06:45:238,1.6503,-1.8416,9.6968,1.5535,-1.4143,9.579,-0.0391,0.0149,-0.0212
54881,45.692036,0.102046,145.64,10.19,3.216,178.4,13 / 15,5488111,2019-08-10 00:06:45:338,1.0219,-2.3312,9.0803,1.5591,-1.3991,9.5803,0.0027,0.0104,-0.07
54882,45.692036,0.102046,145.64,10.19,3.216,178.4,13 / 15,5488210,2019-08-10 00:06:45:437,1.0883,-2.1421,9.449,1.5613,-1.4241,9.5763,0.0258,0.0138,-0.0556
54883,45.692036,0.102046,145.64,10.19,3.216,178.4,13 / 15,5488310,2019-08-10 00:06:45:537,1.466,-4.058,9.7961,1.5549,-1.4428,9.5745,-0.0135,0.0011,-0.0363
54884,45.692036,0.102046,145.64,10.19,3.216,178.4,13 / 15,5488410,2019-08-10 00:06:45:637,0.7992,-0.7792,9.5244,1.5454,-1.4712,9.5717,-0.0044,0.0151,-0.0409
54885,45.692036,0.102046,145.64,10.19,3.216,178.4,13 / 15,5488510,2019-08-10 00:06:45:737,1.1218,-2.4006,9.3161,1.5474,-1.4866,9.569,-0.0142,0.0137,-0.0204
54886,45.692036,0.102046,145.64,10.19,3.216,178.4,16 / 18,5488610,2019-08-10 00:06:45:837,1.1763,-1.7494,9.3604,1.5327,-1.4927,9.5704,-0.0227,-0.0015,0.004
54887,45.692036,0.102046,145.64,10.19,3.216,178.4,16 / 18,5488712,2019-08-10 00:06:45:939,1.2583,-2.011,10.0661,1.5163,-1.5112,9.5701,0.0179,-0.0084,-0.0568
54888,45.692036,0.102046,145.64,10.19,3.216,178.4,16 / 18,5488811,2019-08-10 00:06:46:038,0.9596,-1.4783,8.8073,1.4819,-1.4622,9.5831,-0.0371,-0.0173,-0.0318
54889,45.692036,0.102046,145.64,10.19,3.216,178.4,16 / 18,5488911,2019-08-10 00:06:46:138,1.5929,-1.9373,9.546,1.4691,-1.4284,9.5902,-0.0172,-0.0123,-0.0417
54890,45.692036,0.102046,145.64,10.19,3.216,178.4,16 / 18,5489011,2019-08-10 00:06:46:238,1.1859,-0.18,9.3921,1.4524,-1.4103,9.5954,-0.058,-0.0288,-0.0227
54891,45.692036,0.102046,145.64,10.19,3.216,178.4,16 / 18,5489111,2019-08-10 00:06:46:338,1.5665,0.646,9.5926,1.4062,-1.3367,9.6128,-0.0367,-0.0306,-0.0553
54892,45.692036,0.102046,145.64,10.19,3.216,178.4,16 / 18,5489210,2019-08-10 00:06:46:437,1.3409,-1.2005,9.7453,1.3781,-1.3645,9.613,-0.0227,-0.0374,-0.0595
54893,45.692036,0.102046,145.64,10.19,3.216,178.4,16 / 18,5489310,2019-08-10 00:06:46:537,0.7788,1.1596,10.2187,1.3362,-1.3887,9.6154,0.1151,-0.0057,0.0098
54894,45.692036,0.102046,145.64,10.19,3.216,178.4,16 / 18,5489410,2019-08-10 00:06:46:637,1.1529,-1.3478,9.2042,1.3232,-1.3761,9.619,0.025,-0.0017,-0.0401
54895,45.692036,0.102046,145.64,10.19,3.216,178.4,16 / 18,5489510,2019-08-10 00:06:46:737,0.5388,-2.7699,9.1324,1.3033,-1.3572,9.6244,-0.0508,0.0073,-0.0192
54896,45.692036,0.102046,145.64,10.19,3.216,178.4,16 / 18,5489610,2019-08-10 00:06:46:837,1.0284,-0.9354,8.456,1.2966,-1.329,9.6293,0.0008,0.0034,-0.0281
54897,45.692036,0.102046,145.64,10.19,3.216,178.4,16 / 18,5489710,2019-08-10 00:06:46:937,0.6484,-0.3452,9.1856,1.2815,-1.3475,9.6287,0.0387,-0.0136,-0.0435
54898,45.692036,0.102046,145.64,10.19,3.216,178.4,16 / 18,5489810,2019-08-10 00:06:47:037,0.5209,-1.4818,9.5992,1.268,-1.3218,9.6341,-0.0227,-0.0049,0.0132
54899,45.692036,0.102046,145.64,10.19,3.216,178.4,16 / 18,5489910,2019-08-10 00:06:47:137,0.6747,-0.2979,9.771,1.2561,-1.3385,9.6333,0.028,0.0262,-0.0253
54900,45.692036,0.102046,145.64,10.19,3.216,178.4,16 / 18,5490010,2019-08-10 00:06:47:237,1.3564,-1.0084,9.777,1.2552,-1.356,9.631,-0.0318,0.0042,-0.0136
54901,45.692036,0.102046,145.64,10.19,3.216,178.4,16 / 18,5490111,2019-08-10 00:06:47:338,0.3347,-1.0946,9.0659,1.2575,-1.3209,9.6356,-0.0146,0.0241,-0.0309
54902,45.692036,0.102046,145.64,10.19,3.216,178.4,16 / 18,5490211,2019-08-10 00:06:47:438,0.4293,-0.9659,8.7954,1.2559,-1.3559,9.6309,-0.0154,0.0052,0.0116
54903,45.692036,0.102046,145.64,10.19,3.216,178.4,16 / 18,5490311,2019-08-10 00:06:47:538,0.8698,-0.8618,9.9236,1.2447,-1.3318,9.6357,-0.0283,0.0047,-0.0057
54904,45.692036,0.102046,145.64,10.19,3.216,178.4,16 / 18,5490410,2019-08-10 00:06:47:637,1.0332,-1.7267,9.8506,1.2382,-1.3327,9.6365,-0.0553,-0.0085,0.0259
54905,45.692036,0.102046,145.64,10.19,3.216,178.4,16 / 18,5490510,2019-08-10 00:06:47:737,0.6992,-1.434,9.698,1.2088,-1.3017,9.6444,0.0173,-0.0048,-0.0094
54906,45.692036,0.102046,145.64,10.19,3.216,178.4,15 / 18,5490610,2019-08-10 00:06:47:837,0.634,-1.5291,10.0224,1.2007,-1.2988,9.6458,0.0095,0.0006,0.0019
54907,45.692036,0.102046,145.64,10.19,3.216,178.4,15 / 18,5490710,2019-08-10 00:06:47:937,0.2958,-3.0243,9.932,1.1698,-1.2942,9.6502,-0.0076,-0.0057,0.0257
54908,45.692036,0.102046,145.64,10.19,3.216,178.4,15 / 18,5490810,2019-08-10 00:06:48:037,0.6274,-2.0451,9.9039,1.1536,-1.2879,9.653,-0.0023,-0.0046,-0.0097
54909,45.692036,0.102046,145.64,10.19,3.216,178.4,15 / 18,5490910,2019-08-10 00:06:48:137,0.3527,-0.2554,9.437,1.1394,-1.2711,9.6569,0.0139,0.0099,0.0372
54910,45.692036,0.102046,145.64,10.19,3.216,178.4,15 / 18,5491010,2019-08-10 00:06:48:237,0.783,-0.2045,9.4185,1.1335,-1.2676,9.6581,-0.0354,0.0101,0.0211
54911,45.692036,0.102046,145.64,10.19,3.216,178.4,15 / 18,5491110,2019-08-10 00:06:48:337,1.0171,-1.4908,9.7734,1.1305,-1.2135,9.6654,0.0095,-0.0037,0.0076
54912,45.692036,0.102046,145.64,10.19,3.216,178.4,15 / 18,5491210,2019-08-10 00:06:48:437,0.4706,-0.244,10.0942,1.1235,-1.2088,9.6668,0.0157,-0.0119,-0.0176
54913,45.692036,0.102046,145.64,10.19,3.216,178.4,15 / 18,5491311,2019-08-10 00:06:48:538,0.394,-0.8103,9.6495,1.0951,-1.1959,9.6717,0.0217,-0.0026,-0.0078
54914,45.692036,0.102046,145.64,10.19,3.216,178.4,15 / 18,5491411,2019-08-10 00:06:48:638,0.7226,-1.1922,10.1475,1.0857,-1.2238,9.6692,0.0172,-0.0065,0.0041
54915,45.692036,0.102046,145.64,10.19,3.216,178.4,15 / 18,5491510,2019-08-10 00:06:48:737,0.8369,-1.8685,10.1846,1.0577,-1.2046,9.6747,-0.0177,0.0004,0.0215
54916,45.692036,0.102046,145.64,10.19,3.216,178.4,15 / 18,5491610,2019-08-10 00:06:48:837,1.0009,-3.2482,9.7961,1.0476,-1.2094,9.6752,0.0018,-0.0038,-0.0162
54917,45.692036,0.102046,145.64,10.19,3.216,178.4,15 / 18,5491710,2019-08-10 00:06:48:937,0.8303,-2.1684,9.276,1.0291,-1.186,9.6801,-0.0145,-0.0083,0.0108
54918,45.692036,0.102046,145.64,10.19,3.216,178.4,15 / 18,5491810,2019-08-10 00:06:49:037,0.4616,0.2073,10.0984,1.0239,-1.1734,9.6822,0.0038,-0.0226,-0.0376
54919,45.692036,0.102046,145.64,10.19,3.216,178.4,15 / 18,5491910,2019-08-10 00:06:49:137,0.5574,-0.0597,9.9189,0.9836,-1.1705,9.6867,0.0335,-0.0155,-0.0111
54920,45.692036,0.102046,145.64,10.19,3.216,178.4,15 / 18,5492011,2019-08-10 00:06:49:238,-0.1986,0.8603,9.7291,0.9688,-1.1942,9.6853,-0.0104,-0.0068,0.0264
54921,45.692036,0.102046,145.64,10.19,3.216,178.4,15 / 18,5492110,2019-08-10 00:06:49:337,0.9057,-2.5449,9.4861,0.9609,-1.2234,9.6825,0.0265,0.0067,0.0152
54922,45.692036,0.102046,145.64,10.19,3.216,178.4,15 / 18,5492210,2019-08-10 00:06:49:437,0.6256,-2.91,10.0984,0.9504,-1.2047,9.6859,-0.0028,-0.0032,-0.0025
54923,45.692036,0.102046,145.64,10.19,3.216,178.4,15 / 18,5492310,2019-08-10 00:06:49:537,1.129,-2.0241,10.257,0.9477,-1.2338,9.6825,0.0042,0.0076,-0.0143
54924,45.692036,0.102046,145.64,10.19,3.216,178.4,15 / 18,5492410,2019-08-10 00:06:49:637,0.2407,-0.0836,9.701,0.9548,-1.2074,9.6851,0.0094,0.018,0.0161
54925,45.692036,0.102046,145.64,10.19,3.216,178.4,15 / 18,5492510,2019-08-10 00:06:49:737,0.6675,-0.7756,10.2211,0.9571,-1.2265,9.6825,0.0362,0.0027,-0.0249
54926,45.691067,0.101281,142.25,16.32,4.288,215.1,07-Oct,5492610,2019-08-10 00:06:49:837,0.5275,-1.5285,10.0685,0.9474,-1.2244,9.6837,0.0236,-0.0106,0.0045
54927,45.691067,0.101281,142.25,16.32,4.288,215.1,07-Oct,5492710,2019-08-10 00:06:49:937,0.6884,0.0672,9.7788,0.9307,-1.2313,9.6844,0.0298,0.0051,0.0098
54928,45.691067,0.101281,142.25,16.32,4.288,215.1,07-Oct,5492810,2019-08-10 00:06:50:037,0.7064,-0.0352,10.199,0.9281,-1.2398,9.6836,0.0101,0.0083,-0.011
54929,45.691067,0.101281,142.25,16.32,4.288,215.1,07-Oct,5492910,2019-08-10 00:06:50:137,0.8537,0.8926,10.5665,0.9174,-1.2492,9.6834,-0.0005,-0.0115,-0.0002
54930,45.691067,0.101281,142.25,16.32,4.288,215.1,07-Oct,5493010,2019-08-10 00:06:50:237,0.2485,-0.9845,9.6226,0.9113,-1.2328,9.6861,0.0084,0.0064,0.0174
54931,45.691067,0.101281,142.25,16.32,4.288,215.1,07-Oct,5493110,2019-08-10 00:06:50:337,0.4903,-0.9186,9.4969,0.9145,-1.2397,9.6849,0.0382,-0.0017,-0.0066
54932,45.691067,0.101281,142.25,16.32,4.288,215.1,07-Oct,5493210,2019-08-10 00:06:50:437,0.6256,-0.5385,10.1912,0.9139,-1.2344,9.6856,0.0091,-0.0042,-0.003
54933,45.691067,0.101281,142.25,16.32,4.288,215.1,07-Oct,5493311,2019-08-10 00:06:50:538,0.9829,0.4066,10.3965,0.9024,-1.2276,9.6876,0.0329,0.0005,-0.024
54934,45.691067,0.101281,142.25,16.32,4.288,215.1,07-Oct,5493410,2019-08-10 00:06:50:637,1.3648,-0.259,10.4438,0.8929,-1.2403,9.6868,0.0103,-0.0062,0.0112
54935,45.691067,0.101281,142.25,16.32,4.288,215.1,07-Oct,5493510,2019-08-10 00:06:50:737,0.8908,0.6035,10.4246,0.8929,-1.2265,9.6889,0.0075,0.0142,0.0032
54936,45.691067,0.101281,142.25,16.32,4.288,215.1,Oct-15,5493610,2019-08-10 00:06:50:837,1.0027,0.0792,9.959,0.8926,-1.219,9.6896,0.013,-0.0013,-0.0199
54937,45.691067,0.101281,142.25,16.32,4.288,215.1,Oct-15,5493710,2019-08-10 00:06:50:937,0.2641,-0.5589,9.4789,0.8975,-1.1902,9.6927,0.0332,0.012,-0.0368
54938,45.691067,0.101281,142.25,16.32,4.288,215.1,Oct-15,5493810,2019-08-10 00:06:51:037,0.5687,0.5927,9.3855,0.9037,-1.1631,9.6954,-0.0324,0.01,0.0249
54939,45.691067,0.101281,142.25,16.32,4.288,215.1,Oct-15,5493910,2019-08-10 00:06:51:137,0.7519,0.09,10.1481,0.9039,-1.1735,9.6941,0.0182,0.0008,0.0088
54940,45.691067,0.101281,142.25,16.32,4.288,215.1,Oct-15,5494011,2019-08-10 00:06:51:238,1.3953,-1.2448,10.2169,0.8948,-1.1438,9.6985,0.0336,-0.0185,-0.0227
54941,45.691067,0.101281,142.25,16.32,4.288,215.1,Oct-15,5494111,2019-08-10 00:06:51:338,1.3074,-1.832,10.1577,0.886,-1.1495,9.6987,0.0259,-0.0144,0.0221
54942,45.691067,0.101281,142.25,16.32,4.288,215.1,Oct-15,5494210,2019-08-10 00:06:51:437,0.2126,-0.6241,9.6603,0.8628,-1.1494,9.7008,-0.0386,-0.0039,-0.0004
54943,45.691067,0.101281,142.25,16.32,4.288,215.1,Oct-15,5494310,2019-08-10 00:06:51:537,0.47,-0.7199,8.3967,0.8619,-1.1117,9.7052,-0.0861,0.0037,-0.0115
54944,45.691067,0.101281,142.25,16.32,4.288,215.1,Oct-15,5494410,2019-08-10 00:06:51:637,0.3682,0.0319,9.3251,0.8607,-1.0044,9.717,-0.049,-0.0012,0.0044
54945,45.691067,0.101281,142.25,16.32,4.288,215.1,Oct-15,5494510,2019-08-10 00:06:51:737,0.5436,-0.8031,9.9314,0.8463,-0.9928,9.7195,-0.0315,-0.0029,0.0187
54946,45.691067,0.101281,142.25,16.32,4.288,215.1,Dec-17,5494611,2019-08-10 00:06:51:838,0.5502,0.7885,10.4743,0.8519,-0.9836,9.7199,0.0763,0.0146,-0.0068
54947,45.691067,0.101281,142.25,16.32,4.288,215.1,Dec-17,5494711,2019-08-10 00:06:51:938,0.9488,0.9417,9.9985,0.8583,-0.9842,9.7193,0.0069,0.0036,-0.0176
54948,45.691067,0.101281,142.25,16.32,4.288,215.1,Dec-17,5494810,2019-08-10 00:06:52:037,1.3756,1.8132,10.0912,0.8595,-0.9249,9.725,-0.0168,-0.0221,-0.0258
54949,45.691067,0.101281,142.25,16.32,4.288,215.1,Dec-17,5494911,2019-08-10 00:06:52:138,0.895,2.4273,10.494,0.8521,-0.8915,9.7288,-0.0508,-0.012,0.0146
54950,45.691067,0.101281,142.25,16.32,4.288,215.1,Dec-17,5495011,2019-08-10 00:06:52:238,1.8939,2.3339,10.33,0.8423,-0.8149,9.7364,0.0054,-0.001,0.0173
54951,45.691067,0.101281,142.25,16.32,4.288,215.1,Dec-17,5495110,2019-08-10 00:06:52:337,1.2248,2.0077,9.2826,0.8492,-0.7506,9.7409,-0.0716,-0.0091,-0.0546
54952,45.691067,0.101281,142.25,16.32,4.288,215.1,Dec-17,5495210,2019-08-10 00:06:52:437,1.767,1.9072,10.1583,0.8358,-0.7219,9.7443,-0.0077,-0.0111,0.0453
54953,45.691067,0.101281,142.25,16.32,4.288,215.1,Dec-17,5495310,2019-08-10 00:06:52:537,0.9398,0.6939,9.7937,0.8305,-0.6716,9.7483,0.0117,0.0102,-0.0632
54954,45.691067,0.101281,142.25,16.32,4.288,215.1,Dec-17,5495410,2019-08-10 00:06:52:637,0.7753,1.2829,10.5862,0.8528,-0.648,9.748,0.075,0.0111,0.012
54955,45.691067,0.101281,142.25,16.32,4.288,215.1,Dec-17,5495511,2019-08-10 00:06:52:738,0.9339,-0.0226,10.287,0.8606,-0.6542,9.7469,-0.0085,0.0133,-0.0219
54956,45.691067,0.101281,142.25,16.32,4.288,215.1,13 / 18,5495611,2019-08-10 00:06:52:838,1.2792,-0.2955,9.2676,0.8987,-0.634,9.7448,0.0194,0.0223,-0.037
54957,45.691067,0.101281,142.25,16.32,4.288,215.1,13 / 18,5495711,2019-08-10 00:06:52:938,0.7351,0.8764,9.2652,0.9035,-0.6318,9.7445,-0.0406,-0.0043,-0.0357
54958,45.691067,0.101281,142.25,16.32,4.288,215.1,13 / 18,5495810,2019-08-10 00:06:53:037,1.3936,0.9926,10.169,0.9007,-0.5794,9.748,0.0166,-0.0212,-0.0336
54959,45.691067,0.101281,142.25,16.32,4.288,215.1,13 / 18,5495911,2019-08-10 00:06:53:138,0.8662,-0.0531,10.4336,0.8921,-0.5532,9.7503,0.0248,-0.0183,-0.0006
54960,45.691067,0.101281,142.25,16.32,4.288,215.1,13 / 18,5496013,2019-08-10 00:06:53:240,1.7216,1.8024,10.7838,0.8952,-0.5416,9.7507,0.0724,0.0121,-0.0867
54961,45.691067,0.101281,142.25,16.32,4.288,215.1,13 / 18,5496111,2019-08-10 00:06:53:338,0.8459,-0.007,8.9731,0.9058,-0.482,9.7528,-0.0569,0.0087,-0.0037
54962,45.691067,0.101281,142.25,16.32,4.288,215.1,13 / 18,5496212,2019-08-10 00:06:53:439,1.2738,0.9698,10.1607,0.9269,-0.4684,9.7515,0.0972,0.0259,-0.1173
54963,45.691067,0.101281,142.25,16.32,4.288,215.1,13 / 18,5496310,2019-08-10 00:06:53:537,2.2082,2.2022,10.5784,0.9628,-0.3595,9.7527,0.1232,-0.0058,-0.1472
54964,45.691067,0.101281,142.25,16.32,4.288,215.1,13 / 18,5496410,2019-08-10 00:06:53:637,0.5646,1.4606,9.9218,0.9731,-0.3623,9.7515,-0.0532,0.0113,0.0386
54965,45.691067,0.101281,142.25,16.32,4.288,215.1,13 / 18,5496511,2019-08-10 00:06:53:738,0.537,0.7759,9.3921,0.9777,-0.3497,9.7515,0.0064,-0.0149,-0.0595
54966,45.691067,0.101281,142.25,16.32,4.288,215.1,Nov-16,5496610,2019-08-10 00:06:53:837,0.777,1.5067,9.54,0.956,-0.2858,9.7558,-0.0249,-0.011,-0.009
54967,45.691067,0.101281,142.25,16.32,4.288,215.1,Nov-16,5496710,2019-08-10 00:06:53:937,0.6507,2.0694,9.9446,0.9431,-0.2598,9.7577,0.0147,-0.0279,-0.0725
54968,45.691067,0.101281,142.25,16.32,4.288,215.1,Nov-16,5496812,2019-08-10 00:06:54:039,0.8698,1.4534,9.3825,0.9127,-0.1747,9.7625,0.0226,-0.0284,-0.0372
54969,45.691067,0.101281,142.25,16.32,4.288,215.1,Nov-16,5496915,2019-08-10 00:06:54:142,0.7148,1.5402,10.3803,0.9003,-0.1594,9.7639,0.0152,0.0006,-0.0365
54970,45.691067,0.101281,142.25,16.32,4.288,215.1,Nov-16,5497010,2019-08-10 00:06:54:237,0.7519,2.2938,10.0368,0.9063,-0.1251,9.7639,0.0689,-0.0135,-0.099
54971,45.691067,0.101281,142.25,16.32,4.288,215.1,Nov-16,5497110,2019-08-10 00:06:54:337,1.2427,2.2986,10.3007,0.9116,-0.102,9.7637,0.0292,-0.01,-0.0451
54972,45.691067,0.101281,142.25,16.32,4.288,215.1,Nov-16,5497211,2019-08-10 00:06:54:438,1.3517,1.2841,9.6956,0.9213,-0.0781,9.763,0.0429,0.02,-0.0829
54973,45.691067,0.101281,142.25,16.32,4.288,215.1,Nov-16,5497310,2019-08-10 00:06:54:537,0.9434,1.6599,9.7525,0.9383,-0.053,9.7615,-0.0272,0.0224,-0.0208
54974,45.691067,0.101281,142.25,16.32,4.288,215.1,Nov-16,5497410,2019-08-10 00:06:54:637,1.4767,2.6787,10.12,0.967,-0.014,9.7588,-0.0336,0.0,-0.0516
54975,45.691067,0.101281,142.25,16.32,4.288,215.1,Nov-16,5497511,2019-08-10 00:06:54:738,0.631,2.3656,9.549,0.9629,0.011,9.7593,0.0127,0.0108,-0.0771
54976,45.691067,0.101281,142.25,16.32,4.288,215.1,13 / 18,5497611,2019-08-10 00:06:54:838,1.5432,1.0339,9.6262,0.9909,0.0041,9.7565,0.0336,0.0173,-0.0771
54977,45.691067,0.101281,142.25,16.32,4.288,215.1,13 / 18,5497711,2019-08-10 00:06:54:938,1.7407,-0.6391,10.1397,0.9999,-0.0044,9.7555,0.0238,-0.0027,-0.0966
54978,45.691067,0.101281,142.25,16.32,4.288,215.1,13 / 18,5497811,2019-08-10 00:06:55:038,1.2026,1.0129,9.0019,1.0095,-0.0403,9.7545,0.0082,0.0202,-0.0793
54979,45.691067,0.101281,142.25,16.32,4.288,215.1,13 / 18,5497910,2019-08-10 00:06:55:137,1.794,-0.5176,9.4651,1.042,-0.0777,9.7508,0.0268,0.0114,-0.1071
54980,45.691067,0.101281,142.25,16.32,4.288,215.1,13 / 18,5498011,2019-08-10 00:06:55:238,1.144,0.2713,9.5292,1.0444,-0.0566,9.7507,-0.0316,-0.003,-0.0637
54981,45.691067,0.101281,142.25,16.32,4.288,215.1,13 / 18,5498111,2019-08-10 00:06:55:338,0.8596,-0.6283,9.5681,1.0558,-0.0265,9.7496,-0.0446,0.0083,-0.103
54982,45.691067,0.101281,142.25,16.32,4.288,215.1,13 / 18,5498210,2019-08-10 00:06:55:437,1.4181,-0.0812,9.6579,1.0593,-0.025,9.7492,0.0182,0.0112,-0.0927
54983,45.691067,0.101281,142.25,16.32,4.288,215.1,13 / 18,5498310,2019-08-10 00:06:55:537,0.5161,0.1815,9.1228,1.0774,-0.0094,9.7473,0.0409,0.0228,-0.0868
54984,45.691067,0.101281,142.25,16.32,4.288,215.1,13 / 18,5498410,2019-08-10 00:06:55:637,1.1541,0.0211,9.7794,1.0818,-0.0628,9.7466,0.0042,0.0096,-0.0945
54985,45.691067,0.101281,142.25,16.32,4.288,215.1,13 / 18,5498510,2019-08-10 00:06:55:737,1.2379,-0.1483,10.1936,1.1035,-0.0933,9.7439,-0.0151,0.008,-0.0996
54986,45.691067,0.101281,142.25,16.32,4.288,215.1,13 / 17,5498610,2019-08-10 00:06:55:837,1.1781,0.5311,9.5436,1.1125,-0.0939,9.7429,0.0199,0.0085,-0.0816
54987,45.691067,0.101281,142.25,16.32,4.288,215.1,13 / 17,5498710,2019-08-10 00:06:55:937,1.9137,-0.2572,10.035,1.1302,-0.1384,9.7403,0.035,-0.0033,-0.1247
54988,45.691067,0.101281,142.25,16.32,4.288,215.1,13 / 17,5498810,2019-08-10 00:06:56:037,0.8273,0.8758,9.5064,1.1393,-0.131,9.7394,-0.0052,0.0093,-0.065
54989,45.691067,0.101281,142.25,16.32,4.288,215.1,13 / 17,5498911,2019-08-10 00:06:56:138,0.9602,1.8287,9.5974,1.1552,-0.1052,9.7378,0.0381,0.0129,-0.0918
54990,45.691067,0.101281,142.25,16.32,4.288,215.1,13 / 17,5499011,2019-08-10 00:06:56:238,1.2984,0.2144,9.9284,1.1632,-0.108,9.7368,0.0283,0.0108,-0.1102
54991,45.691067,0.101281,142.25,16.32,4.288,215.1,13 / 17,5499110,2019-08-10 00:06:56:337,0.5789,-0.2662,8.9743,1.1875,-0.1007,9.734,-0.0149,0.0324,-0.1193
54992,45.691067,0.101281,142.25,16.32,4.288,215.1,13 / 17,5499210,2019-08-10 00:06:56:437,1.5564,0.3312,9.2742,1.2189,-0.1522,9.7294,-0.0086,0.0327,-0.084
54993,45.691067,0.101281,142.25,16.32,4.288,215.1,13 / 17,5499310,2019-08-10 00:06:56:537,1.3858,0.7041,8.9019,1.2592,-0.1687,9.724,-0.0847,0.0431,-0.095
54994,45.691067,0.101281,142.25,16.32,4.288,215.1,13 / 17,5499410,2019-08-10 00:06:56:637,2.9025,-0.9755,11.1608,1.297,-0.2637,9.7169,0.138,0.0292,-0.1924
54995,45.691067,0.101281,142.25,16.32,4.288,215.1,13 / 17,5499511,2019-08-10 00:06:56:738,1.633,-0.7714,9.7668,1.3391,-0.3057,9.71,0.0658,0.0289,-0.1207
54996,45.691067,0.101281,142.25,16.32,4.288,215.1,15 / 18,5499611,2019-08-10 00:06:56:838,4.2738,-0.8294,10.1146,1.4108,-0.3193,9.6994,0.0475,0.0661,-0.3491
54997,45.691067,0.101281,142.25,16.32,4.288,215.1,15 / 18,5499710,2019-08-10 00:06:56:937,2.8911,-1.2945,10.8005,1.5384,-0.423,9.676,-0.0736,-0.0008,-0.3195
54998,45.691067,0.101281,142.25,16.32,4.288,215.1,15 / 18,5499810,2019-08-10 00:06:57:037,3.3239,-1.4783,9.3412,1.549,-0.4039,9.6751,0.0078,0.0514,-0.1791
54999,45.691067,0.101281,142.25,16.32,4.288,215.1,15 / 18,5499910,2019-08-10 00:06:57:137,2.8588,-1.088,8.8439,1.6488,-0.4409,9.657,0.0695,0.0475,-0.3145
55000,45.691067,0.101281,142.25,16.32,4.288,215.1,15 / 18,5500010,2019-08-10 00:06:57:237,2.5649,-0.7145,8.8564,1.6772,-0.5227,9.648,-0.0445,0.0245,-0.2633
55001,45.691067,0.101281,142.25,16.32,4.288,215.1,15 / 18,5500111,2019-08-10 00:06:57:338,3.4035,-1.7793,9.9506,1.7433,-0.5959,9.632,-0.106,0.0222,-0.2859
55002,45.691067,0.101281,142.25,16.32,4.288,215.1,15 / 18,5500211,2019-08-10 00:06:57:438,2.9073,-1.3017,9.4131,1.7828,-0.5799,9.6258,-0.0407,0.028,-0.2954
55003,45.691067,0.101281,142.25,16.32,4.288,215.1,15 / 18,5500311,2019-08-10 00:06:57:538,2.8211,-1.4836,9.1539,1.8375,-0.6236,9.6128,-0.0621,0.046,-0.2782
55004,45.691067,0.101281,142.25,16.32,4.288,215.1,15 / 18,5500411,2019-08-10 00:06:57:638,2.687,-2.0134,9.4556,1.8821,-0.6429,9.6028,-0.0136,0.0529,-0.3129
55005,45.691067,0.101281,142.25,16.32,4.288,215.1,15 / 18,5500511,2019-08-10 00:06:57:738,2.8325,-1.7985,9.2952,1.9367,-0.6806,9.5894,-0.0272,0.0288,-0.2572
55006,45.691067,0.101281,142.25,16.32,4.288,215.1,15 / 18,5500610,2019-08-10 00:06:57:837,2.6745,-2.3414,8.5051,1.9626,-0.7115,9.5819,-0.0324,0.0555,-0.2292
55007,45.691067,0.101281,142.25,16.32,4.288,215.1,15 / 18,5500710,2019-08-10 00:06:57:937,2.2369,-0.4488,8.8534,2.0262,-0.7575,9.5651,-0.0435,0.0605,-0.2515
55008,45.691067,0.101281,142.25,16.32,4.288,215.1,15 / 18,5500810,2019-08-10 00:06:58:037,2.9833,-2.0612,9.9135,2.0569,-0.8045,9.5547,-0.0229,0.0614,-0.2728
55009,45.691067,0.101281,142.25,16.32,4.288,215.1,15 / 18,5500910,2019-08-10 00:06:58:137,2.7995,-1.5088,9.1066,2.1196,-0.8119,9.5404,-0.048,0.0474,-0.2518
55010,45.691067,0.101281,142.25,16.32,4.288,215.1,15 / 18,5501010,2019-08-10 00:06:58:237,2.8217,-1.8571,8.7235,2.1496,-0.8191,9.533,-0.0824,0.0523,-0.2374
55011,45.691067,0.101281,142.25,16.32,4.288,215.1,15 / 18,5501110,2019-08-10 00:06:58:337,3.291,-2.02,9.0755,2.1773,-0.8585,9.5233,-0.0571,0.0242,-0.2571
55012,45.691067,0.101281,142.25,16.32,4.288,215.1,15 / 18,5501210,2019-08-10 00:06:58:437,3.4292,-1.8721,9.2084,2.2155,-0.9017,9.5105,-0.0608,0.0242,-0.2329
55013,45.691067,0.101281,142.25,16.32,4.288,215.1,15 / 18,5501310,2019-08-10 00:06:58:537,2.7511,-2.0241,8.9797,2.2373,-0.9144,9.5041,-0.044,0.0343,-0.2631
55014,45.691067,0.101281,142.25,16.32,4.288,215.1,15 / 18,5501410,2019-08-10 00:06:58:637,3.2688,-1.1359,9.2305,2.283,-0.9455,9.4902,-0.0491,0.0405,-0.265
55015,45.691067,0.101281,142.25,16.32,4.288,215.1,15 / 18,5501510,2019-08-10 00:06:58:737,3.4436,-0.2949,9.4149,2.3149,-0.9509,9.4819,-0.0664,0.0388,-0.2737
55016,45.690376,0.100366,141.94,9.16,3.216,262.0,16 / 18,5501610,2019-08-10 00:06:58:837,3.0635,-0.3458,9.4256,2.3631,-0.9519,9.47,-0.0535,0.0644,-0.2712
55017,45.690376,0.100366,141.94,9.16,3.216,262.0,16 / 18,5501710,2019-08-10 00:06:58:937,3.744,0.2528,9.5196,2.4059,-0.9621,9.4582,-0.0292,0.0613,-0.2909
55018,45.690376,0.100366,141.94,9.16,3.216,262.0,16 / 18,5501810,2019-08-10 00:06:59:037,3.6273,0.1803,9.622,2.4852,-1.0155,9.432,-0.0394,0.0618,-0.2871
55019,45.690376,0.100366,141.94,9.16,3.216,262.0,16 / 18,5501910,2019-08-10 00:06:59:137,4.1176,-0.1237,9.2616,2.5112,-1.0132,9.4254,-0.0526,0.0427,-0.2948
55020,45.690376,0.100366,141.94,9.16,3.216,262.0,16 / 18,5502010,2019-08-10 00:06:59:237,4.5611,-0.2764,9.6441,2.5553,-1.0709,9.4071,0.0173,0.002,-0.2993
55021,45.690376,0.100366,141.94,9.16,3.216,262.0,16 / 18,5502110,2019-08-10 00:06:59:337,3.7836,-3.7779,8.6882,2.5594,-1.0637,9.4068,-0.0803,-0.0196,-0.3003
55022,45.690376,0.100366,141.94,9.16,3.216,262.0,16 / 18,5502210,2019-08-10 00:06:59:437,3.2281,-1.7925,8.9588,2.5521,-1.1481,9.3989,-0.058,0.0179,-0.2737
55023,45.690376,0.100366,141.94,9.16,3.216,262.0,16 / 18,5502310,2019-08-10 00:06:59:537,3.4376,-1.2484,8.4985,2.5509,-1.1527,9.3987,-0.1015,0.0171,-0.2908
55024,45.690376,0.100366,141.94,9.16,3.216,262.0,16 / 18,5502410,2019-08-10 00:06:59:637,3.8099,-1.0162,8.696,2.5746,-1.178,9.389,-0.118,0.0122,-0.3134
55025,45.690376,0.100366,141.94,9.16,3.216,262.0,16 / 18,5502510,2019-08-10 00:06:59:737,3.4813,-1.0724,9.3772,2.566,-1.2042,9.3881,0.0261,-0.0185,-0.2338
55026,45.690376,0.100366,141.94,9.16,3.216,262.0,15 / 17,5502610,2019-08-10 00:06:59:837,1.9873,-1.9248,8.6475,2.5536,-1.2067,9.3911,-0.1275,0.0678,-0.2353
55027,45.690376,0.100366,141.94,9.16,3.216,262.0,15 / 17,5502710,2019-08-10 00:06:59:937,5.3835,-0.9037,10.8969,2.5912,-1.3707,9.3583,-0.1082,0.0319,-0.245
55028,45.690376,0.100366,141.94,9.16,3.216,262.0,15 / 17,5502810,2019-08-10 00:07:00:037,3.0186,-0.256,9.6214,2.5918,-1.4218,9.3505,0.0677,-0.0403,-0.2737
55029,45.690376,0.100366,141.94,9.16,3.216,262.0,15 / 17,5502910,2019-08-10 00:07:00:137,2.9923,-1.3172,9.428,2.5849,-1.4842,9.3427,0.0324,0.0243,-0.2405
55030,45.690376,0.100366,141.94,9.16,3.216,262.0,15 / 17,5503010,2019-08-10 00:07:00:237,3.1437,-1.8368,8.5398,2.5826,-1.6465,9.3161,-0.0431,0.0267,-0.209
55031,45.690376,0.100366,141.94,9.16,3.216,262.0,15 / 17,5503111,2019-08-10 00:07:00:338,3.4442,-1.3262,9.1856,2.5624,-1.7187,9.3086,-0.0529,-0.0131,-0.2401
55032,45.690376,0.100366,141.94,9.16,3.216,262.0,15 / 17,5503210,2019-08-10 00:07:00:437,4.0427,-2.2234,9.9883,2.5175,-1.7412,9.3167,-0.0449,-0.0162,-0.2526
55033,45.690376,0.100366,141.94,9.16,3.216,262.0,15 / 17,5503310,2019-08-10 00:07:00:537,3.6656,-2.4437,9.7997,2.4886,-1.7869,9.3158,0.0127,-0.0233,-0.2618
55034,45.690376,0.100366,141.94,9.16,3.216,262.0,15 / 17,5503410,2019-08-10 00:07:00:637,3.0773,-1.6447,9.6465,2.4158,-1.8609,9.3205,0.0081,-0.0389,-0.256
55035,45.690376,0.100366,141.94,9.16,3.216,262.0,15 / 17,5503511,2019-08-10 00:07:00:738,3.097,-1.2652,9.8979,2.3797,-1.8939,9.3231,-0.0172,-0.0257,-0.1949
55036,45.690376,0.100366,141.94,9.16,3.216,262.0,14 / 16,5503610,2019-08-10 00:07:00:837,2.8983,-1.5513,10.0912,2.2938,-1.9736,9.3281,0.0114,-0.0318,-0.1747
55037,45.690376,0.100366,141.94,9.16,3.216,262.0,14 / 16,5503710,2019-08-10 00:07:00:937,2.0466,-2.0008,9.9877,2.2558,-1.9984,9.3321,0.0379,-0.0091,-0.1815
55038,45.690376,0.100366,141.94,9.16,3.216,262.0,14 / 16,5503810,2019-08-10 00:07:01:037,2.2321,-1.0497,9.7878,2.2029,-2.0783,9.3273,0.0423,0.002,-0.1762
55039,45.690376,0.100366,141.94,9.16,3.216,262.0,14 / 16,5503910,2019-08-10 00:07:01:137,1.5378,-2.6418,9.2928,2.1807,-2.1018,9.3272,-0.0335,0.0148,-0.1188
55040,45.690376,0.100366,141.94,9.16,3.216,262.0,14 / 16,5504010,2019-08-10 00:07:01:237,1.8604,-2.1822,9.3712,2.1494,-2.1311,9.3279,-0.0245,0.0083,-0.1039
55041,45.690376,0.100366,141.94,9.16,3.216,262.0,14 / 16,5504110,2019-08-10 00:07:01:337,2.0945,-1.8512,10.0206,2.1292,-2.1503,9.3281,0.012,-0.0088,-0.1605
55042,45.690376,0.100366,141.94,9.16,3.216,262.0,14 / 16,5504211,2019-08-10 00:07:01:438,2.3273,-0.6499,9.6232,2.0932,-2.1586,9.3343,-0.0388,-0.0068,-0.0438
55043,45.690376,0.100366,141.94,9.16,3.216,262.0,14 / 16,5504311,2019-08-10 00:07:01:538,1.3989,-0.4913,9.8482,2.0638,-2.1755,9.3369,0.0083,0.0033,-0.1122
55044,45.690376,0.100366,141.94,9.16,3.216,262.0,14 / 16,5504411,2019-08-10 00:07:01:638,1.618,-1.1006,9.428,2.0288,-2.1866,9.342,-0.0558,-0.0083,-0.0757
55045,45.690376,0.100366,141.94,9.16,3.216,262.0,14 / 16,5504511,2019-08-10 00:07:01:738,1.8981,-2.4539,8.9977,2.0002,-2.1929,9.3467,-0.0037,-0.0157,-0.1118
55046,45.690376,0.100366,141.94,9.16,3.216,262.0,16 / 18,5504610,2019-08-10 00:07:01:837,1.9676,-2.9381,9.9218,1.9902,-2.2038,9.3463,-0.0092,-0.0123,-0.1032
55047,45.690376,0.100366,141.94,9.16,3.216,262.0,16 / 18,5504711,2019-08-10 00:07:01:938,1.6731,-1.3394,10.2038,1.9379,-2.1987,9.3584,0.0321,0.0015,-0.0965
55048,45.690376,0.100366,141.94,9.16,3.216,262.0,16 / 18,5504811,2019-08-10 00:07:02:038,1.3481,-2.5676,9.2772,1.9192,-2.1984,9.3624,0.0025,-0.0047,-0.0928
55049,45.690376,0.100366,141.94,9.16,3.216,262.0,16 / 18,5504911,2019-08-10 00:07:02:138,0.1534,-2.075,8.845,1.88,-2.1742,9.376,0.1448,0.0292,-0.0808
55050,45.690376,0.100366,141.94,9.16,3.216,262.0,16 / 18,5505010,2019-08-10 00:07:02:237,0.7591,-1.9787,9.6441,1.8462,-2.2479,9.3653,0.0335,0.0092,-0.1202
55051,45.690376,0.100366,141.94,9.16,3.216,262.0,16 / 18,5505112,2019-08-10 00:07:02:339,2.0136,-0.0525,9.6615,1.8407,-2.2272,9.3713,-0.0112,0.0335,-0.0547
55052,45.690376,0.100366,141.94,9.16,3.216,262.0,16 / 18,5505210,2019-08-10 00:07:02:437,2.4105,-2.3432,10.4138,1.855,-2.2491,9.3633,0.094,0.0323,-0.1357
55053,45.690376,0.100366,141.94,9.16,3.216,262.0,16 / 18,5505310,2019-08-10 00:07:02:537,2.5907,-1.9954,9.9931,1.8737,-2.2284,9.3645,0.0341,0.0392,-0.1496
55054,45.690376,0.100366,141.94,9.16,3.216,262.0,16 / 18,5505410,2019-08-10 00:07:02:637,1.8359,-0.4583,9.0509,1.8872,-2.2037,9.3676,-0.0523,0.0437,-0.0862
55055,45.690376,0.100366,141.94,9.16,3.216,262.0,16 / 18,5505510,2019-08-10 00:07:02:737,2.5721,-0.8863,9.4292,1.9022,-2.1765,9.371,-0.0365,0.005,-0.1021
55056,45.690376,0.100366,141.94,9.16,3.216,262.0,15 / 17,5505611,2019-08-10 00:07:02:838,2.6709,-0.4464,9.6232,1.898,-2.1718,9.3729,0.0,-0.0056,-0.1688
55057,45.690376,0.100366,141.94,9.16,3.216,262.0,15 / 17,5505711,2019-08-10 00:07:02:938,2.4626,-1.027,10.1182,1.8773,-2.1605,9.3797,0.0017,-0.0036,-0.0993
55058,45.690376,0.100366,141.94,9.16,3.216,262.0,15 / 17,5505811,2019-08-10 00:07:03:038,2.2932,-0.2291,9.7578,1.8539,-2.1449,9.3879,-0.004,-0.0112,-0.1665
55059,45.690376,0.100366,141.94,9.16,3.216,262.0,15 / 17,5505910,2019-08-10 00:07:03:137,2.0998,-0.8923,9.8578,1.8312,-2.1344,9.3948,0.0056,-0.0006,-0.1227
55060,45.690376,0.100366,141.94,9.16,3.216,262.0,15 / 17,5506010,2019-08-10 00:07:03:237,3.0928,0.0995,9.8327,1.8077,-2.1286,9.4006,-0.0093,-0.0077,-0.1974
55061,45.690376,0.100366,141.94,9.16,3.216,262.0,15 / 17,5506111,2019-08-10 00:07:03:338,2.6607,-1.8571,9.0049,1.7759,-2.1502,9.4018,-0.011,-0.0253,-0.1689
55062,45.690376,0.100366,141.94,9.16,3.216,262.0,15 / 17,5506211,2019-08-10 00:07:03:438,2.2525,-1.413,9.2988,1.7577,-2.1759,9.3993,-0.0161,0.0123,-0.1685
55063,45.690376,0.100366,141.94,9.16,3.216,262.0,15 / 17,5506311,2019-08-10 00:07:03:538,3.1,-1.4657,9.7495,1.7378,-2.1743,9.4033,-0.0576,0.0057,-0.1406
55064,45.690376,0.100366,141.94,9.16,3.216,262.0,15 / 17,5506410,2019-08-10 00:07:03:637,2.7523,-0.0741,9.4394,1.7296,-2.1479,9.4109,0.0092,0.006,-0.187
55065,45.690376,0.100366,141.94,9.16,3.216,262.0,15 / 17,5506510,2019-08-10 00:07:03:737,3.0066,-0.0902,9.9991,1.7163,-2.1424,9.4146,-0.0181,0.018,-0.1502
55066,45.690376,0.100366,141.94,9.16,3.216,262.0,15 / 17,5506610,2019-08-10 00:07:03:837,2.374,-1.3077,9.8057,1.7205,-2.1426,9.4138,0.0421,-0.0006,-0.2464
55067,45.690376,0.100366,141.94,9.16,3.216,262.0,15 / 17,5506711,2019-08-10 00:07:03:938,2.1184,-1.3185,9.8656,1.7067,-2.1825,9.4071,0.0389,0.0074,-0.227
55068,45.690376,0.100366,141.94,9.16,3.216,262.0,15 / 17,5506811,2019-08-10 00:07:04:038,2.757,-1.7033,9.2521,1.7095,-2.2008,9.4024,-0.0168,0.0266,-0.1691
55069,45.690376,0.100366,141.94,9.16,3.216,262.0,15 / 17,5506911,2019-08-10 00:07:04:138,2.6457,-2.3282,9.3802,1.7084,-2.2056,9.4014,0.0084,0.0225,-0.1924
55070,45.690376,0.100366,141.94,9.16,3.216,262.0,15 / 17,5507010,2019-08-10 00:07:04:237,3.0641,-2.0912,10.12,1.7002,-2.2302,9.3971,-0.0349,0.0144,-0.1866
55071,45.690376,0.100366,141.94,9.16,3.216,262.0,15 / 17,5507110,2019-08-10 00:07:04:337,2.763,-1.0473,9.2814,1.715,-2.1898,9.4039,-0.0159,0.0338,-0.1691
55072,45.690376,0.100366,141.94,9.16,3.216,262.0,15 / 17,5507210,2019-08-10 00:07:04:437,3.1856,-0.9881,9.1084,1.72,-2.1943,9.402,-0.0058,0.0326,-0.2386
55073,45.690376,0.100366,141.94,9.16,3.216,262.0,15 / 17,5507310,2019-08-10 00:07:04:537,3.7716,-1.34,9.7818,1.7559,-2.2089,9.3919,-0.0142,0.0356,-0.2628
55074,45.690376,0.100366,141.94,9.16,3.216,262.0,15 / 17,5507410,2019-08-10 00:07:04:637,3.4544,-1.1113,9.543,1.7752,-2.2027,9.3897,-0.024,0.0317,-0.2432
55075,45.690376,0.100366,141.94,9.16,3.216,262.0,15 / 17,5507511,2019-08-10 00:07:04:738,3.7722,-0.4164,9.3496,1.791,-2.2178,9.3832,-0.0154,0.0267,-0.2287
55076,45.690376,0.100366,141.94,9.16,3.216,262.0,14 / 15,5507611,2019-08-10 00:07:04:838,4.3803,-0.6714,10.0936,1.7937,-2.2481,9.3755,-0.0311,0.0394,-0.2122
55077,45.690376,0.100366,141.94,9.16,3.216,262.0,14 / 15,5507711,2019-08-10 00:07:04:938,4.2181,-0.4104,9.3107,1.8098,-2.2413,9.374,-0.0174,0.0179,-0.3306
55078,45.690376,0.100366,141.94,9.16,3.216,262.0,14 / 15,5507811,2019-08-10 00:07:05:038,3.6225,-2.0152,8.9959,1.8338,-2.2376,9.3702,-0.0226,0.0512,-0.2225
55079,45.690376,0.100366,141.94,9.16,3.216,262.0,14 / 15,5507911,2019-08-10 00:07:05:138,3.2257,-1.9816,8.8822,1.8355,-2.2399,9.3693,-0.0576,0.0275,-0.2326
55080,45.690376,0.100366,141.94,9.16,3.216,262.0,14 / 15,5508011,2019-08-10 00:07:05:238,3.5711,-1.7512,9.0426,1.8529,-2.2363,9.3668,-0.0501,0.015,-0.2806
55081,45.690376,0.100366,141.94,9.16,3.216,262.0,14 / 15,5508111,2019-08-10 00:07:05:338,3.2952,-1.1748,10.09,1.8435,-2.24,9.3677,0.0151,0.0346,-0.2237
55082,45.690376,0.100366,141.94,9.16,3.216,262.0,14 / 15,5508210,2019-08-10 00:07:05:437,3.0013,-0.8893,9.0958,1.8556,-2.2759,9.3567,-0.0027,0.0414,-0.2321
55083,45.690376,0.100366,141.94,9.16,3.216,262.0,14 / 15,5508310,2019-08-10 00:07:05:537,3.364,-1.7662,9.8602,1.8652,-2.3118,9.346,0.0326,0.0158,-0.2268
55084,45.690376,0.100366,141.94,9.16,3.216,262.0,14 / 15,5508410,2019-08-10 00:07:05:637,3.2131,-1.3053,10.1038,1.8599,-2.3363,9.3409,-0.0806,0.0096,-0.2004
55085,45.690376,0.100366,141.94,9.16,3.216,262.0,14 / 15,5508510,2019-08-10 00:07:05:737,2.8516,-1.6441,9.9165,1.8561,-2.3345,9.3421,0.0598,0.0375,-0.2014
55086,45.690376,0.100366,141.94,9.16,3.216,262.0,15 / 17,5508610,2019-08-10 00:07:05:837,2.3979,-1.7386,10.0499,1.847,-2.3776,9.3331,0.0097,0.0137,-0.1584
55087,45.690376,0.100366,141.94,9.16,3.216,262.0,15 / 17,5508710,2019-08-10 00:07:05:937,2.7157,-0.2686,9.6573,1.8154,-2.38,9.3386,-0.0069,-0.0033,-0.2079
55088,45.690376,0.100366,141.94,9.16,3.216,262.0,15 / 17,5508810,2019-08-10 00:07:06:037,2.9007,-0.7953,9.9835,1.8214,-2.4146,9.3286,0.0253,0.035,-0.1807
55089,45.690376,0.100366,141.94,9.16,3.216,262.0,15 / 17,5508910,2019-08-10 00:07:06:137,3.0126,-1.1084,9.9985,1.8228,-2.4117,9.3291,0.0031,0.037,-0.2033
55090,45.690376,0.100366,141.94,9.16,3.216,262.0,15 / 17,5509011,2019-08-10 00:07:06:238,3.2999,-1.3591,9.3634,1.8324,-2.4376,9.3204,0.0153,0.0276,-0.1938
55091,45.690376,0.100366,141.94,9.16,3.216,262.0,15 / 17,5509110,2019-08-10 00:07:06:337,2.8648,-2.312,9.0049,1.8372,-2.4248,9.3228,0.0477,0.0491,-0.2238
55092,45.690376,0.100366,141.94,9.16,3.216,262.0,15 / 17,5509210,2019-08-10 00:07:06:437,3.0569,-1.6291,9.4107,1.8586,-2.4219,9.3194,-0.057,0.0281,-0.2083
55093,45.690376,0.100366,141.94,9.16,3.216,262.0,15 / 17,5509310,2019-08-10 00:07:06:537,3.2203,-1.3143,9.6495,1.86,-2.4325,9.3163,0.0034,0.0256,-0.2078
55094,45.690376,0.100366,141.94,9.16,3.216,262.0,15 / 17,5509410,2019-08-10 00:07:06:637,2.9791,-1.0431,9.8261,1.8599,-2.4508,9.3115,0.0097,0.0301,-0.208
55095,45.690376,0.100366,141.94,9.16,3.216,262.0,15 / 17,5509511,2019-08-10 00:07:06:738,3.1928,-1.164,9.6986,1.8634,-2.4464,9.312,0.0274,0.0297,-0.231
55096,45.690376,0.100366,141.94,9.16,3.216,262.0,16 / 18,5509611,2019-08-10 00:07:06:838,2.6337,-1.2784,9.4334,1.8792,-2.4466,9.3087,0.0255,0.0296,-0.2589
55097,45.690376,0.100366,141.94,9.16,3.216,262.0,16 / 18,5509710,2019-08-10 00:07:06:937,2.705,-1.3334,9.5256,1.8762,-2.4561,9.3069,-0.0298,0.0455,-0.1664
55098,45.690376,0.100366,141.94,9.16,3.216,262.0,16 / 18,5509811,2019-08-10 00:07:07:038,2.9282,-1.0413,9.777,1.8902,-2.4604,9.3029,-0.0143,0.0319,-0.2162
55099,45.690376,0.100366,141.94,9.16,3.216,262.0,16 / 18,5509910,2019-08-10 00:07:07:137,3.3167,-2.2444,9.279,1.8916,-2.4623,9.3021,-0.0045,0.0396,-0.2006
55100,45.690376,0.100366,141.94,9.16,3.216,262.0,16 / 18,5510010,2019-08-10 00:07:07:237,3.5699,-1.9559,9.5591,1.9046,-2.4645,9.2989,-0.0311,0.04,-0.1924
55101,45.690376,0.100366,141.94,9.16,3.216,262.0,16 / 18,5510110,2019-08-10 00:07:07:337,3.771,-1.0551,9.4161,1.9149,-2.456,9.299,-0.0122,0.0341,-0.2673
55102,45.690376,0.100366,141.94,9.16,3.216,262.0,16 / 18,5510210,2019-08-10 00:07:07:437,3.1689,-2.2492,8.9085,1.9422,-2.471,9.2894,-0.0009,0.0414,-0.2721
55103,45.690376,0.100366,141.94,9.16,3.216,262.0,16 / 18,5510311,2019-08-10 00:07:07:538,3.2975,-1.6207,9.4131,1.9598,-2.4512,9.2909,-0.0319,0.0507,-0.2238
55104,45.690376,0.100366,141.94,9.16,3.216,262.0,16 / 18,5510411,2019-08-10 00:07:07:638,3.7028,-2.0547,9.5106,1.9778,-2.477,9.2803,0.005,0.0296,-0.2631
55105,45.690376,0.100366,141.94,9.16,3.216,262.0,16 / 18,5510510,2019-08-10 00:07:07:737,3.4585,-1.7027,9.8572,1.9857,-2.4925,9.2744,-0.0085,0.035,-0.233
55106,45.690983,0.099537,141.38,12.06,3.216,4.3,16 / 17,5510610,2019-08-10 00:07:07:837,3.8273,-0.6595,9.4292,1.9955,-2.5208,9.2647,0.0124,0.0441,-0.2609
55107,45.690983,0.099537,141.38,12.06,3.216,4.3,16 / 17,5510711,2019-08-10 00:07:07:938,4.1217,-0.9647,9.7351,2.0048,-2.5339,9.2591,-0.0337,0.0392,-0.271
55108,45.690983,0.099537,141.38,12.06,3.216,4.3,16 / 17,5510811,2019-08-10 00:07:08:038,3.6668,-1.5339,8.9935,2.0356,-2.553,9.2471,-0.0308,0.0546,-0.269
55109,45.690983,0.099537,141.38,12.06,3.216,4.3,16 / 17,5510910,2019-08-10 00:07:08:137,4.3869,-1.8811,9.5166,2.0564,-2.5672,9.2386,0.0005,0.0645,-0.2896
55110,45.690983,0.099537,141.38,12.06,3.216,4.3,16 / 17,5511010,2019-08-10 00:07:08:237,4.1355,-2.6772,9.6764,2.0693,-2.5488,9.2408,-0.0152,0.0235,-0.2741
55111,45.690983,0.099537,141.38,12.06,3.216,4.3,16 / 17,5511110,2019-08-10 00:07:08:337,3.8458,0.5113,9.0473,2.0708,-2.528,9.2462,-0.0602,0.0279,-0.2716
55112,45.690983,0.099537,141.38,12.06,3.216,4.3,16 / 17,5511210,2019-08-10 00:07:08:437,3.68,-0.1728,9.6878,2.0687,-2.5368,9.2442,0.013,0.0079,-0.2516
55113,45.690983,0.099537,141.38,12.06,3.216,4.3,16 / 17,5511310,2019-08-10 00:07:08:537,3.1718,-1.7117,9.0539,2.0355,-2.5287,9.2538,0.0222,0.0024,-0.2523
55114,45.690983,0.099537,141.38,12.06,3.216,4.3,16 / 17,5511410,2019-08-10 00:07:08:637,3.2209,-0.6546,9.3263,2.0208,-2.5541,9.25,-0.0035,0.0047,-0.2564
55115,45.690983,0.099537,141.38,12.06,3.216,4.3,16 / 17,5511510,2019-08-10 00:07:08:737,2.9665,-1.3119,8.9737,2.0019,-2.548,9.2558,0.0109,0.0199,-0.2743
55116,45.690983,0.099537,141.38,12.06,3.216,4.3,16 / 18,5511610,2019-08-10 00:07:08:837,2.6535,-1.9038,9.1784,1.9864,-2.563,9.255,-0.056,0.0359,-0.1883
55117,45.690983,0.099537,141.38,12.06,3.216,4.3,16 / 18,5511710,2019-08-10 00:07:08:937,3.4951,-1.1892,9.7303,1.9889,-2.5749,9.2512,-0.0161,0.031,-0.237
55118,45.690983,0.099537,141.38,12.06,3.216,4.3,16 / 18,5511810,2019-08-10 00:07:09:037,3.4663,-1.2658,9.5783,1.9779,-2.5731,9.2541,-0.0189,0.0035,-0.2473
55119,45.690983,0.099537,141.38,12.06,3.216,4.3,16 / 18,5511910,2019-08-10 00:07:09:137,3.2646,-1.6231,9.5681,1.9707,-2.5834,9.2527,0.0191,0.026,-0.2488
55120,45.690983,0.099537,141.38,12.06,3.216,4.3,16 / 18,5512010,2019-08-10 00:07:09:237,3.2915,-0.915,10.3115,1.9689,-2.6028,9.2477,0.0428,0.0137,-0.2346
55121,45.690983,0.099537,141.38,12.06,3.216,4.3,16 / 18,5512110,2019-08-10 00:07:09:337,3.1473,-1.6919,9.5795,1.9393,-2.6293,9.2464,-0.009,0.0118,-0.2014
55122,45.690983,0.099537,141.38,12.06,3.216,4.3,16 / 18,5512211,2019-08-10 00:07:09:438,2.9085,-1.653,9.197,1.9338,-2.6449,9.2431,0.0118,0.0484,-0.2056
55123,45.690983,0.099537,141.38,12.06,3.216,4.3,16 / 18,5512310,2019-08-10 00:07:09:537,3.4717,-2.0954,8.9761,1.9511,-2.6525,9.2373,-0.021,0.0555,-0.2197
55124,45.690983,0.099537,141.38,12.06,3.216,4.3,16 / 18,5512410,2019-08-10 00:07:09:637,3.2443,-0.8492,9.4406,1.9507,-2.6432,9.24,-0.0438,0.032,-0.2371
55125,45.690983,0.099537,141.38,12.06,3.216,4.3,16 / 18,5512510,2019-08-10 00:07:09:737,3.6291,-1.7129,9.6824,1.9668,-2.6142,9.2449,-0.0177,0.0432,-0.2525
55126,45.690983,0.099537,141.38,12.06,3.216,4.3,16 / 18,5512610,2019-08-10 00:07:09:837,2.9013,-1.4507,9.5154,1.9681,-2.6068,9.2467,-0.0101,0.0267,-0.1942
55127,45.690983,0.099537,141.38,12.06,3.216,4.3,16 / 18,5512710,2019-08-10 00:07:09:937,3.2993,-1.2293,9.5615,1.9664,-2.6007,9.2488,-0.0023,0.028,-0.2401
55128,45.690983,0.099537,141.38,12.06,3.216,4.3,16 / 18,5512810,2019-08-10 00:07:10:037,3.2185,-2.2947,9.8704,1.9686,-2.6344,9.2388,0.0019,0.0314,-0.2432
55129,45.690983,0.099537,141.38,12.06,3.216,4.3,16 / 18,5512910,2019-08-10 00:07:10:137,2.7846,-2.761,9.0599,1.9688,-2.6298,9.24,-0.0072,0.0405,-0.2287
55130,45.690983,0.099537,141.38,12.06,3.216,4.3,16 / 18,5513010,2019-08-10 00:07:10:237,3.3777,-0.6768,9.5472,1.9669,-2.649,9.2349,-0.0028,0.0395,-0.2422
55131,45.690983,0.099537,141.38,12.06,3.216,4.3,16 / 18,5513110,2019-08-10 00:07:10:337,2.5805,-1.434,9.4993,1.9689,-2.6517,9.2338,-0.0094,0.0468,-0.2081
55132,45.690983,0.099537,141.38,12.06,3.216,4.3,16 / 18,5513210,2019-08-10 00:07:10:437,3.4867,-1.085,9.4981,1.9606,-2.6732,9.2293,-0.0093,0.021,-0.2538
55133,45.690983,0.099537,141.38,12.06,3.216,4.3,16 / 18,5513310,2019-08-10 00:07:10:537,2.9504,-2.4228,9.2556,1.9564,-2.6674,9.2319,-0.0289,0.0409,-0.2083
55134,45.690983,0.099537,141.38,12.06,3.216,4.3,16 / 18,5513410,2019-08-10 00:07:10:637,3.8273,-1.85,9.6297,1.9652,-2.6802,9.2263,0.0121,0.0354,-0.2696
55135,45.690983,0.099537,141.38,12.06,3.216,4.3,16 / 18,5513511,2019-08-10 00:07:10:738,3.3101,-1.3172,9.5837,1.9706,-2.6726,9.2274,0.0141,0.0406,-0.2463
55136,45.690983,0.099537,141.38,12.06,3.216,4.3,15 / 18,5513610,2019-08-10 00:07:10:837,3.2269,-1.7811,9.4203,1.9839,-2.6659,9.2264,-0.0714,0.0519,-0.2302
55137,45.690983,0.099537,141.38,12.06,3.216,4.3,15 / 18,5513710,2019-08-10 00:07:10:937,3.7273,-1.0216,9.1509,1.9964,-2.6511,9.228,-0.0607,0.0342,-0.2185
55138,45.690983,0.099537,141.38,12.06,3.216,4.3,15 / 18,5513810,2019-08-10 00:07:11:037,3.8727,-0.9288,9.7141,2.0037,-2.6767,9.219,-0.0447,0.0471,-0.218
55139,45.690983,0.099537,141.38,12.06,3.216,4.3,15 / 18,5513910,2019-08-10 00:07:11:137,3.1976,-1.2233,9.4633,2.009,-2.6805,9.2168,0.0071,0.0279,-0.2832
55140,45.690983,0.099537,141.38,12.06,3.216,4.3,15 / 18,5514010,2019-08-10 00:07:11:237,3.6148,-0.7863,9.5172,2.0171,-2.6756,9.2164,-0.0181,0.0275,-0.2294
55141,45.690983,0.099537,141.38,12.06,3.216,4.3,15 / 18,5514111,2019-08-10 00:07:11:338,4.0284,0.0427,9.7884,2.0145,-2.6903,9.2127,0.0029,0.0373,-0.2916
55142,45.690983,0.099537,141.38,12.06,3.216,4.3,15 / 18,5514211,2019-08-10 00:07:11:438,3.5226,-2.4623,9.0869,2.029,-2.6861,9.2108,-0.0528,0.0435,-0.2246
55143,45.690983,0.099537,141.38,12.06,3.216,4.3,15 / 18,5514311,2019-08-10 00:07:11:538,3.5501,-2.1474,9.4639,2.0396,-2.692,9.2067,-0.0418,0.0546,-0.259
55144,45.690983,0.099537,141.38,12.06,3.216,4.3,15 / 18,5514411,2019-08-10 00:07:11:638,4.1445,-1.8721,9.4214,2.0514,-2.7009,9.2015,-0.022,0.0367,-0.2814
55145,45.690983,0.099537,141.38,12.06,3.216,4.3,15 / 18,5514510,2019-08-10 00:07:11:737,4.0595,-0.8372,9.2042,2.0562,-2.696,9.2018,-0.0437,0.0393,-0.2468
55146,45.690983,0.099537,141.38,12.06,3.216,4.3,15 / 17,5514610,2019-08-10 00:07:11:837,4.3624,0.5263,9.7453,2.0633,-2.6948,9.2006,-0.0326,0.0395,-0.2542
55147,45.690983,0.099537,141.38,12.06,3.216,4.3,15 / 17,5514710,2019-08-10 00:07:11:937,4.0589,-0.8492,9.5843,2.0785,-2.6779,9.2021,-0.0222,0.0231,-0.2804
55148,45.690983,0.099537,141.38,12.06,3.216,4.3,15 / 17,5514810,2019-08-10 00:07:12:037,3.4418,-1.668,8.6733,2.0779,-2.6702,9.2045,0.0146,0.0314,-0.3031
55149,45.690983,0.099537,141.38,12.06,3.216,4.3,15 / 17,5514911,2019-08-10 00:07:12:138,3.7572,-1.015,9.1874,2.0717,-2.6955,9.1985,-0.0644,0.0259,-0.2458
55150,45.690983,0.099537,141.38,12.06,3.216,4.3,15 / 17,5515010,2019-08-10 00:07:12:237,3.7267,-0.5284,8.927,2.0669,-2.6619,9.2094,-0.0429,0.033,-0.2582
55151,45.690983,0.099537,141.38,12.06,3.216,4.3,15 / 17,5515110,2019-08-10 00:07:12:337,3.9871,-1.5405,9.346,2.0758,-2.6595,9.2081,-0.0316,0.0291,-0.2991
55152,45.690983,0.099537,141.38,12.06,3.216,4.3,15 / 17,5515211,2019-08-10 00:07:12:438,3.9577,-2.1546,9.6034,2.0761,-2.6606,9.2077,-0.0563,0.0289,-0.2726
55153,45.690983,0.099537,141.38,12.06,3.216,4.3,15 / 17,5515310,2019-08-10 00:07:12:537,3.9045,-1.9439,9.3514,2.0763,-2.6415,9.2131,-0.0331,0.0302,-0.2913
55154,45.690983,0.099537,141.38,12.06,3.216,4.3,15 / 17,5515411,2019-08-10 00:07:12:638,3.5226,-1.0677,9.2173,2.0816,-2.6542,9.2083,-0.0216,0.0443,-0.2463
55155,45.690983,0.099537,141.38,12.06,3.216,4.3,15 / 17,5515510,2019-08-10 00:07:12:737,4.0864,-0.7211,9.6794,2.0856,-2.6477,9.2092,-0.0168,0.0322,-0.2995
55156,45.690983,0.099537,141.38,12.06,3.216,4.3,13 / 15,5515610,2019-08-10 00:07:12:837,3.531,-1.9379,9.2712,2.0825,-2.6354,9.2135,-0.0092,0.018,-0.2536
55157,45.690983,0.099537,141.38,12.06,3.216,4.3,13 / 15,5515710,2019-08-10 00:07:12:937,3.4897,-2.6167,9.0515,2.0734,-2.6276,9.2178,-0.0295,0.0337,-0.2478
55158,45.690983,0.099537,141.38,12.06,3.216,4.3,13 / 15,5515810,2019-08-10 00:07:13:037,3.7231,-1.4328,9.5807,2.0688,-2.6383,9.2157,-0.0043,0.0189,-0.25
55159,45.690983,0.099537,141.38,12.06,3.216,4.3,13 / 15,5515910,2019-08-10 00:07:13:137,3.4579,-1.3992,9.7842,2.0559,-2.621,9.2235,0.0165,0.0218,-0.2241
55160,45.690983,0.099537,141.38,12.06,3.216,4.3,13 / 15,5516010,2019-08-10 00:07:13:237,2.8283,-2.6251,9.7213,2.034,-2.6568,9.2182,0.0193,0.0269,-0.2146
55161,45.690983,0.099537,141.38,12.06,3.216,4.3,13 / 15,5516110,2019-08-10 00:07:13:337,3.1928,-1.2903,9.1132,2.0224,-2.6683,9.2174,0.015,0.0202,-0.2356
55162,45.690983,0.099537,141.38,12.06,3.216,4.3,13 / 15,5516210,2019-08-10 00:07:13:437,3.2592,-1.8027,9.4502,2.0035,-2.704,9.2111,-0.0274,0.0331,-0.1833
55163,45.690983,0.099537,141.38,12.06,3.216,4.3,13 / 15,5516311,2019-08-10 00:07:13:538,2.602,-2.1283,9.1294,2.0054,-2.6931,9.2139,-0.0317,0.0193,-0.2102
55164,45.690983,0.099537,141.38,12.06,3.216,4.3,13 / 15,5516410,2019-08-10 00:07:13:637,3.0001,-0.8085,9.3071,1.9953,-2.6696,9.2229,-0.0285,0.0374,-0.1915
55165,45.690983,0.099537,141.38,12.06,3.216,4.3,13 / 15,5516511,2019-08-10 00:07:13:738,3.1928,-0.7408,9.5412,1.9964,-2.6745,9.2213,-0.0325,0.0279,-0.2001
55166,45.690983,0.099537,141.38,12.06,3.216,4.3,15 / 17,5516611,2019-08-10 00:07:13:838,2.6325,-1.2867,9.0563,1.9933,-2.6577,9.2268,-0.061,0.0428,-0.1566
55167,45.690983,0.099537,141.38,12.06,3.216,4.3,15 / 17,5516711,2019-08-10 00:07:13:938,3.4202,-1.3759,9.9458,1.9944,-2.6639,9.2248,0.0418,0.0297,-0.2437
55168,45.690983,0.099537,141.38,12.06,3.216,4.3,15 / 17,5516810,2019-08-10 00:07:14:037,3.355,-2.2923,9.5867,1.9985,-2.6591,9.2253,0.012,0.0305,-0.1795
55169,45.690983,0.099537,141.38,12.06,3.216,4.3,15 / 17,5516910,2019-08-10 00:07:14:137,3.6585,-1.5339,9.8285,2.0021,-2.6447,9.2286,-0.0196,0.0195,-0.1802
55170,45.690983,0.099537,141.38,12.06,3.216,4.3,15 / 17,5517010,2019-08-10 00:07:14:237,2.8337,-1.2359,9.6405,1.997,-2.6536,9.2272,-0.0228,0.0197,-0.1833
55171,45.690983,0.099537,141.38,12.06,3.216,4.3,15 / 17,5517110,2019-08-10 00:07:14:337,2.9318,-2.2725,9.6166,1.9883,-2.6626,9.2265,0.0214,0.0314,-0.1967
55172,45.690983,0.099537,141.38,12.06,3.216,4.3,15 / 17,5517210,2019-08-10 00:07:14:437,2.9695,-1.2658,9.1048,1.9779,-2.6663,9.2276,-0.0458,0.013,-0.1934
55173,45.690983,0.099537,141.38,12.06,3.216,4.3,15 / 17,5517310,2019-08-10 00:07:14:537,2.9151,-2.0571,9.3305,1.9749,-2.678,9.2249,-0.0073,0.0277,-0.2005
55174,45.690983,0.099537,141.38,12.06,3.216,4.3,15 / 17,5517410,2019-08-10 00:07:14:637,2.9097,-1.8248,9.1437,1.9898,-2.6574,9.2277,-0.0476,0.0474,-0.2048
55175,45.690983,0.099537,141.38,12.06,3.216,4.3,15 / 17,5517511,2019-08-10 00:07:14:738,3.1808,-1.1006,9.4262,1.9916,-2.67,9.2236,-0.0509,0.0159,-0.1669
55176,45.690983,0.099537,141.38,12.06,3.216,4.3,14 / 16,5517611,2019-08-10 00:07:14:838,2.8462,-1.595,9.1024,1.9896,-2.6293,9.2357,-0.0317,0.0275,-0.1905
55177,45.690983,0.099537,141.38,12.06,3.216,4.3,14 / 16,5517711,2019-08-10 00:07:14:938,3.188,-2.1917,9.6956,1.9892,-2.6405,9.2326,-0.0391,0.0245,-0.1819
55178,45.690983,0.099537,141.38,12.06,3.216,4.3,14 / 16,5517810,2019-08-10 00:07:15:037,3.0025,-1.0401,9.5322,1.991,-2.6241,9.2369,-0.0385,0.0132,-0.1532
55179,45.690983,0.099537,141.38,12.06,3.216,4.3,14 / 16,5517910,2019-08-10 00:07:15:137,2.4117,-2.3773,9.297,1.977,-2.6246,9.2398,-0.0043,0.0162,-0.1932
55180,45.690983,0.099537,141.38,12.06,3.216,4.3,14 / 16,5518011,2019-08-10 00:07:15:238,2.6242,-1.4489,9.8692,1.9582,-2.6435,9.2384,-0.0376,0.0058,-0.1584
55181,45.690983,0.099537,141.38,12.06,3.216,4.3,14 / 16,5518110,2019-08-10 00:07:15:337,2.1735,-2.1361,9.5861,1.9412,-2.6451,9.2415,0.0217,0.0109,-0.1737
55182,45.690983,0.099537,141.38,12.06,3.216,4.3,14 / 16,5518210,2019-08-10 00:07:15:437,2.195,-1.5854,9.3855,1.9243,-2.6537,9.2426,-0.0178,0.0078,-0.13
55183,45.690983,0.099537,141.38,12.06,3.216,4.3,14 / 16,5518310,2019-08-10 00:07:15:537,2.7565,-1.8859,9.7782,1.913,-2.6549,9.2446,0.0191,0.0314,-0.1604
55184,45.690983,0.099537,141.38,12.06,3.216,4.3,14 / 16,5518410,2019-08-10 00:07:15:637,2.538,-2.3408,9.361,1.918,-2.6465,9.246,-0.0448,0.024,-0.1516
55185,45.690983,0.099537,141.38,12.06,3.216,4.3,14 / 16,5518510,2019-08-10 00:07:15:737,2.4524,-1.0958,9.012,1.9173,-2.6208,9.2534,-0.0045,0.027,-0.1627
55186,45.690983,0.099537,141.38,12.06,3.216,4.3,14 / 16,5518610,2019-08-10 00:07:15:837,3.1497,-1.5202,9.9793,1.92,-2.6245,9.2518,-0.0217,0.0168,-0.1511
55187,45.690983,0.099537,141.38,12.06,3.216,4.3,14 / 16,5518710,2019-08-10 00:07:15:937,2.6014,-2.5425,9.2473,1.9105,-2.6085,9.2583,0.0104,0.0188,-0.1531
55188,45.690983,0.099537,141.38,12.06,3.216,4.3,14 / 16,5518810,2019-08-10 00:07:16:037,2.3219,-2.6598,8.7702,1.9077,-2.6147,9.2571,0.0046,0.0246,-0.1759
55189,45.690983,0.099537,141.38,12.06,3.216,4.3,14 / 16,5518910,2019-08-10 00:07:16:137,2.7092,-2.8723,10.7772,1.9193,-2.6237,9.2522,0.0477,0.038,-0.1455
55190,45.690983,0.099537,141.38,12.06,3.216,4.3,14 / 16,5519010,2019-08-10 00:07:16:237,3.0581,-0.9132,9.0186,1.9081,-2.6104,9.2583,-0.0838,0.0046,-0.1809
55191,45.690983,0.099537,141.38,12.06,3.216,4.3,14 / 16,5519110,2019-08-10 00:07:16:337,2.5697,-2.6442,8.7421,1.9065,-2.6273,9.2538,-0.0565,0.025,-0.1494
55192,45.690983,0.099537,141.38,12.06,3.216,4.3,14 / 16,5519210,2019-08-10 00:07:16:437,2.1621,-1.6512,8.6451,1.9096,-2.6107,9.2579,-0.0112,0.0355,-0.1509
55193,45.690983,0.099537,141.38,12.06,3.216,4.3,14 / 16,5519310,2019-08-10 00:07:16:537,3.1341,-2.6454,9.9428,1.9081,-2.592,9.2634,-0.0526,0.0128,-0.1497
55194,45.690983,0.099537,141.38,12.06,3.216,4.3,14 / 16,5519410,2019-08-10 00:07:16:637,1.8293,-2.1031,8.9492,1.9102,-2.5786,9.2667,-0.0014,0.0236,-0.1471
55195,45.690983,0.099537,141.38,12.06,3.216,4.3,14 / 16,5519510,2019-08-10 00:07:16:737,2.3057,-2.3976,9.6896,1.8859,-2.5935,9.2675,-0.0244,-0.0212,-0.0822
55196,45.691315,0.100643,143.78,13.44,3.216,107.5,14 / 16,5519610,2019-08-10 00:07:16:837,1.5875,-1.0258,9.6711,1.8642,-2.5759,9.2769,0.009,-0.0172,-0.0764
55197,45.691315,0.100643,143.78,13.44,3.216,107.5,14 / 16,5519710,2019-08-10 00:07:16:937,1.4995,-2.0068,9.1904,1.8127,-2.5769,9.2868,0.0046,-0.0044,-0.0747
55198,45.691315,0.100643,143.78,13.44,3.216,107.5,14 / 16,5519810,2019-08-10 00:07:17:037,1.1936,-2.998,9.3849,1.7954,-2.5779,9.2899,-0.0071,0.0049,-0.048
55199,45.691315,0.100643,143.78,13.44,3.216,107.5,14 / 16,5519910,2019-08-10 00:07:17:137,1.5246,-2.0642,9.4286,1.7684,-2.5536,9.3017,0.012,-0.0002,-0.0663
55200,45.691315,0.100643,143.78,13.44,3.216,107.5,14 / 16,5520010,2019-08-10 00:07:17:237,1.615,-2.3192,9.932,1.7445,-2.5523,9.3066,0.0023,-0.0215,-0.0404
55201,45.691315,0.100643,143.78,13.44,3.216,107.5,14 / 16,5520110,2019-08-10 00:07:17:337,1.2086,-2.2444,9.3227,1.7007,-2.539,9.3183,0.035,-0.0022,-0.0746
55202,45.691315,0.100643,143.78,13.44,3.216,107.5,14 / 16,5520210,2019-08-10 00:07:17:437,1.6719,-1.519,9.795,1.6802,-2.5532,9.3182,-0.0085,-0.0221,-0.0486
55203,45.691315,0.100643,143.78,13.44,3.216,107.5,14 / 16,5520310,2019-08-10 00:07:17:537,0.3676,-2.7113,8.5374,1.6476,-2.499,9.3387,-0.0208,0.0365,-0.0022
55204,45.691315,0.100643,143.78,13.44,3.216,107.5,14 / 16,5520410,2019-08-10 00:07:17:637,1.214,-3.1979,10.0044,1.6259,-2.5277,9.3348,-0.0471,0.0091,-0.0221
55205,45.691315,0.100643,143.78,13.44,3.216,107.5,14 / 16,5520510,2019-08-10 00:07:17:737,1.1787,-1.0102,9.7626,1.6236,-2.5058,9.3411,0.0506,0.0236,-0.0436
55206,45.691315,0.100643,143.78,13.44,3.216,107.5,14 / 15,5520610,2019-08-10 00:07:17:837,1.4953,-1.9792,10.257,1.605,-2.5396,9.3352,0.0501,-0.0021,-0.0608
55207,45.691315,0.100643,143.78,13.44,3.216,107.5,14 / 15,5520710,2019-08-10 00:07:17:937,0.947,-3.6235,9.4855,1.5795,-2.5433,9.3385,-0.0009,0.0224,-0.0502
55208,45.691315,0.100643,143.78,13.44,3.216,107.5,14 / 15,5520810,2019-08-10 00:07:18:037,1.5941,-1.1335,9.8135,1.5811,-2.5219,9.344,-0.0159,0.006,-0.0288
55209,45.691315,0.100643,143.78,13.44,3.216,107.5,14 / 15,5520910,2019-08-10 00:07:18:137,1.2391,0.1319,9.619,1.574,-2.4119,9.3742,0.0022,0.0188,-0.0541
55210,45.691315,0.100643,143.78,13.44,3.216,107.5,14 / 15,5521010,2019-08-10 00:07:18:237,1.4773,0.5975,9.7908,1.5747,-2.3795,9.3824,-0.0312,0.0365,-0.0199
55211,45.691315,0.100643,143.78,13.44,3.216,107.5,14 / 15,5521110,2019-08-10 00:07:18:337,0.7327,-1.8254,9.4915,1.5894,-2.3336,9.3914,-0.0169,0.0676,-0.0009
55212,45.691315,0.100643,143.78,13.44,3.216,107.5,14 / 15,5521210,2019-08-10 00:07:18:437,0.7914,-0.8193,9.1533,1.6281,-2.2819,9.3975,0.002,0.0494,-0.0809
55213,45.691315,0.100643,143.78,13.44,3.216,107.5,14 / 15,5521310,2019-08-10 00:07:18:537,1.2224,-1.0694,9.8321,1.6435,-2.2617,9.3997,-0.0113,0.0163,-0.0079
55214,45.691315,0.100643,143.78,13.44,3.216,107.5,14 / 15,5521410,2019-08-10 00:07:18:637,1.0691,-1.2987,9.2431,1.6477,-2.1718,9.4201,0.0196,0.0254,-0.0311
55215,45.691315,0.100643,143.78,13.44,3.216,107.5,14 / 15,5521510,2019-08-10 00:07:18:737,0.7429,-0.7181,8.9977,1.6475,-2.1507,9.425,-0.0467,0.0206,0.0125
55216,45.691315,0.100643,143.78,13.44,3.216,107.5,15 / 17,5521610,2019-08-10 00:07:18:837,1.2882,-2.5628,9.4137,1.6579,-2.0903,9.4368,0.0256,0.0267,-0.0367
55217,45.691315,0.100643,143.78,13.44,3.216,107.5,15 / 17,5521710,2019-08-10 00:07:18:937,0.8806,-1.3304,9.1126,1.663,-2.0876,9.4365,-0.0145,0.0148,0.0001
55218,45.691315,0.100643,143.78,13.44,3.216,107.5,15 / 17,5521810,2019-08-10 00:07:19:037,0.8465,-1.3274,9.0827,1.6515,-2.0616,9.4442,0.0179,0.0165,-0.0177
55219,45.691315,0.100643,143.78,13.44,3.216,107.5,15 / 17,5521910,2019-08-10 00:07:19:137,1.023,-1.1646,9.8488,1.6435,-2.0712,9.4435,-0.0148,-0.0149,0.015
55220,45.691315,0.100643,143.78,13.44,3.216,107.5,15 / 17,5522010,2019-08-10 00:07:19:237,1.0614,-1.7805,9.4705,1.6012,-2.0399,9.4576,0.0137,-0.019,-0.0068
55221,45.691315,0.100643,143.78,13.44,3.216,107.5,15 / 17,5522110,2019-08-10 00:07:19:337,0.4879,-1.1532,9.5896,1.5873,-2.0323,9.4615,0.004,-0.0067,0.0304
55222,45.691315,0.100643,143.78,13.44,3.216,107.5,15 / 17,5522210,2019-08-10 00:07:19:437,0.2473,-0.2907,9.3083,1.5436,-1.9858,9.4786,-0.0097,-0.0057,0.0295
55223,45.691315,0.100643,143.78,13.44,3.216,107.5,15 / 17,5522310,2019-08-10 00:07:19:537,0.6483,-1.0485,9.9512,1.514,-2.0155,9.4771,-0.0009,-0.0299,0.0092
55224,45.691315,0.100643,143.78,13.44,3.216,107.5,15 / 17,5522410,2019-08-10 00:07:19:637,0.716,-1.4555,10.0122,1.4555,-1.9967,9.4903,0.0157,-0.0306,0.0082
55225,45.691315,0.100643,143.78,13.44,3.216,107.5,15 / 17,5522510,2019-08-10 00:07:19:737,0.6861,-0.696,9.8817,1.4298,-2.0129,9.4907,-0.0058,0.0038,-0.0139
55226,45.691315,0.100643,143.78,13.44,3.216,107.5,15 / 17,5522610,2019-08-10 00:07:19:837,0.4472,-0.7857,9.2287,1.4154,-1.9979,9.4961,0.0193,-0.0017,-0.0437
55227,45.691315,0.100643,143.78,13.44,3.216,107.5,15 / 17,5522710,2019-08-10 00:07:19:937,1.5276,-2.5329,10.0308,1.3992,-2.0147,9.4949,0.0005,-0.0194,0.0023
55228,45.691315,0.100643,143.78,13.44,3.216,107.5,15 / 17,5522810,2019-08-10 00:07:20:037,0.1689,-1.8338,9.4699,1.3618,-1.9787,9.5079,0.0459,-0.0062,-0.0222
55229,45.691315,0.100643,143.78,13.44,3.216,107.5,15 / 17,5522910,2019-08-10 00:07:20:137,1.0883,-2.9776,10.3289,1.3404,-2.0092,9.5046,-0.0507,-0.0014,-0.0113
55230,45.691315,0.100643,143.78,13.44,3.216,107.5,15 / 17,5523010,2019-08-10 00:07:20:237,0.6334,-2.1941,9.0881,1.314,-1.9457,9.5215,-0.0646,0.0003,-0.0088
55231,45.691315,0.100643,143.78,13.44,3.216,107.5,15 / 17,5523110,2019-08-10 00:07:20:337,1.3564,-1.8709,9.2664,1.3123,-1.9309,9.5247,-0.0279,0.0045,-0.035
55232,45.691315,0.100643,143.78,13.44,3.216,107.5,15 / 17,5523210,2019-08-10 00:07:20:437,0.959,-0.86,10.1852,1.2872,-1.8832,9.5377,0.0012,-0.0253,-0.02
55233,45.691315,0.100643,143.78,13.44,3.216,107.5,15 / 17,5523310,2019-08-10 00:07:20:537,0.9829,-1.6536,9.9763,1.2673,-1.8952,9.538,0.0255,-0.0335,-0.016
55234,45.691315,0.100643,143.78,13.44,3.216,107.5,15 / 17,5523410,2019-08-10 00:07:20:637,0.2156,-1.1592,9.4436,1.201,-1.8906,9.5475,-0.0101,-0.0241,-0.017
55235,45.691315,0.100643,143.78,13.44,3.216,107.5,15 / 17,5523510,2019-08-10 00:07:20:737,0.1378,-0.0064,8.5697,1.1809,-1.8952,9.549,0.0049,-0.0005,0.0068
55236,45.691315,0.100643,143.78,13.44,3.216,107.5,15 / 17,5523610,2019-08-10 00:07:20:837,1.0979,-0.7762,9.7381,1.1548,-1.8287,9.5652,-0.1216,-0.0041,0.0102
55237,45.691315,0.100643,143.78,13.44,3.216,107.5,15 / 17,5523710,2019-08-10 00:07:20:937,0.6035,-2.0421,9.522,1.145,-1.7971,9.5723,-0.0052,0.0017,-0.0172
55238,45.691315,0.100643,143.78,13.44,3.216,107.5,15 / 17,5523810,2019-08-10 00:07:21:037,1.1649,-0.4715,9.8722,1.1299,-1.7641,9.5803,-0.0113,-0.0072,-0.0303
55239,45.691315,0.100643,143.78,13.44,3.216,107.5,15 / 17,5523910,2019-08-10 00:07:21:137,0.367,-1.6285,9.9206,1.1278,-1.7615,9.581,0.0297,0.0074,0.0138
55240,45.691315,0.100643,143.78,13.44,3.216,107.5,15 / 17,5524010,2019-08-10 00:07:21:237,0.7501,-1.9828,9.8895,1.1372,-1.7739,9.5776,0.0177,0.0281,-0.0118
55241,45.691315,0.100643,143.78,13.44,3.216,107.5,15 / 17,5524110,2019-08-10 00:07:21:337,1.0308,-2.0708,9.9135,1.1479,-1.7731,9.5765,-0.01,0.0244,-0.0158
55242,45.691315,0.100643,143.78,13.44,3.216,107.5,15 / 17,5524210,2019-08-10 00:07:21:437,1.0153,-1.1443,9.8255,1.1695,-1.7653,9.5753,0.0186,0.0235,-0.0178
55243,45.691315,0.100643,143.78,13.44,3.216,107.5,15 / 17,5524310,2019-08-10 00:07:21:537,1.1039,-1.422,9.9254,1.1686,-1.7708,9.5744,0.0204,0.0223,0.013
55244,45.691315,0.100643,143.78,13.44,3.216,107.5,15 / 17,5524410,2019-08-10 00:07:21:637,1.1757,-2.2145,9.6447,1.1807,-1.7712,9.5728,-0.0058,0.0167,-0.0152
55245,45.691315,0.100643,143.78,13.44,3.216,107.5,15 / 17,5524510,2019-08-10 00:07:21:737,0.5065,-1.1963,9.4185,1.1988,-1.761,9.5725,-0.0362,0.0151,-0.0364
55246,45.691315,0.100643,143.78,13.44,3.216,107.5,15 / 17,5524611,2019-08-10 00:07:21:838,0.4562,-1.3687,9.5448,1.1904,-1.7397,9.5774,-0.0425,-0.0018,-0.039
55247,45.691315,0.100643,143.78,13.44,3.216,107.5,15 / 17,5524711,2019-08-10 00:07:21:938,1.1284,-0.5876,9.9087,1.2003,-1.6974,9.5838,-0.0007,-0.0122,-0.0096
55248,45.691315,0.100643,143.78,13.44,3.216,107.5,15 / 17,5524810,2019-08-10 00:07:22:037,1.0925,-2.0894,9.5017,1.1824,-1.6773,9.5895,-0.0288,-0.0221,-0.0116
55249,45.691315,0.100643,143.78,13.44,3.216,107.5,15 / 17,5524911,2019-08-10 00:07:22:138,1.0482,-2.1313,9.5178,1.1577,-1.6765,9.5927,0.0051,-0.007,-0.0186
55250,45.691315,0.100643,143.78,13.44,3.216,107.5,15 / 17,5525010,2019-08-10 00:07:22:237,1.0889,-1.3873,10.0326,1.1514,-1.6867,9.5917,0.0045,-0.005,-0.0052
55251,45.691315,0.100643,143.78,13.44,3.216,107.5,15 / 17,5525111,2019-08-10 00:07:22:338,0.6609,-1.5064,9.8351,1.1327,-1.6937,9.5926,0.0017,0.0003,-0.0106
55252,45.691315,0.100643,143.78,13.44,3.216,107.5,15 / 17,5525210,2019-08-10 00:07:22:437,0.8171,-1.8518,9.6321,1.1314,-1.6872,9.5939,-0.0066,0.0031,-0.0269
55253,45.691315,0.100643,143.78,13.44,3.216,107.5,15 / 17,5525310,2019-08-10 00:07:22:537,1.0296,-1.2795,9.9913,1.127,-1.6887,9.5942,0.0158,0.0042,-0.0105
55254,45.691315,0.100643,143.78,13.44,3.216,107.5,15 / 17,5525410,2019-08-10 00:07:22:637,0.7788,-0.7181,9.9368,1.1196,-1.6844,9.5958,0.003,-0.0043,-0.0083
55255,45.691315,0.100643,143.78,13.44,3.216,107.5,15 / 17,5525510,2019-08-10 00:07:22:737,0.5765,-1.1856,8.9336,1.111,-1.6662,9.6,-0.0374,0.0042,0.0075
55256,45.691315,0.100643,143.78,13.44,3.216,107.5,14 / 17,5525611,2019-08-10 00:07:22:838,0.792,-1.6459,9.5065,1.1055,-1.641,9.605,-0.0405,0.001,0.0009
55257,45.691315,0.100643,143.78,13.44,3.216,107.5,14 / 17,5525711,2019-08-10 00:07:22:938,1.4055,-0.5068,9.2257,1.088,-1.6049,9.6131,-0.0216,-0.0212,-0.03
55258,45.691315,0.100643,143.78,13.44,3.216,107.5,14 / 17,5525811,2019-08-10 00:07:23:038,0.7016,-1.3226,9.3311,1.0753,-1.5957,9.616,-0.0249,0.0033,0.0123
55259,45.691315,0.100643,143.78,13.44,3.216,107.5,14 / 17,5525911,2019-08-10 00:07:23:138,0.8608,-1.9403,9.7117,1.0667,-1.599,9.6164,-0.0159,0.005,-0.0043
55260,45.691315,0.100643,143.78,13.44,3.216,107.5,14 / 17,5526010,2019-08-10 00:07:23:237,0.7968,-2.5832,9.9416,1.0655,-1.6059,9.6154,-0.0008,-0.0002,-0.0189
55261,45.691315,0.100643,143.78,13.44,3.216,107.5,14 / 17,5526110,2019-08-10 00:07:23:337,0.9039,-1.9302,9.6363,1.0602,-1.5878,9.619,0.0,0.001,-0.0195
55262,45.691315,0.100643,143.78,13.44,3.216,107.5,14 / 17,5526210,2019-08-10 00:07:23:437,1.0506,-1.3951,9.7943,1.0592,-1.5807,9.6203,0.004,-0.0004,-0.0153
