,GPS LATITUDE (degrees),GPS LONGITUDE (degrees), GPS ALTITUDE (m),GPS SPEED (Kmh),GPS ACCURACY (m),GPS ORIENTATION (Â°), SATELLITES IN RANGE, TIME SINCE START (ms), DATE (YYYY-MO-DD HH-MI-SS_SSS),ACCELEROMETER X (m/s²) , ACCELEROMETER Y (m/s²), ACCELEROMETER Z (m/s²), GRAVITY X (m/s²), GRAVITY Y (m/s²), GRAVITY Z (m/s²), GYROSCOPE Yaw (rad/s), GYROSCOPE Pitch (rad/s), GYROSCOPE Roll (rad/s)
59870,46.237766,-0.436366,98.47,26.18,9.648001,30.6,15 / 19,2974293,2019-08-12 11:14:16:783,-0.162,-0.0447,9.591,-0.1261,0.0229,9.8058,-0.0078,0.0035,-0.0017
59871,46.237766,-0.436366,98.47,26.18,9.648001,30.6,15 / 19,2974293,2019-08-12 11:14:16:783,-0.162,-0.0447,9.591,-0.1261,0.0229,9.8058,-0.0078,0.0035,-0.0017
59872,46.237766,-0.436366,98.47,26.18,9.648001,30.6,15 / 19,2974294,2019-08-12 11:14:16:784,-0.162,-0.0447,9.591,-0.1261,0.0229,9.8058,-0.0078,0.0035,-0.0017
59873,46.237766,-0.436366,98.47,26.18,9.648001,30.6,15 / 19,2974294,2019-08-12 11:14:16:784,-0.162,-0.0447,9.591,-0.1261,0.0229,9.8058,-0.0078,0.0035,-0.0017
59874,46.237766,-0.436366,98.47,26.18,9.648001,30.6,15 / 19,2974295,2019-08-12 11:14:16:785,-0.162,-0.0447,9.591,-0.1261,0.0229,9.8058,-0.0078,0.0035,-0.0017
59875,46.237766,-0.436366,98.47,26.18,9.648001,30.6,13 / 19,2974375,2019-08-12 11:14:16:865,-0.162,-0.0447,9.591,-0.1261,0.0229,9.8058,-0.0078,0.0035,-0.0017
59876,46.237766,-0.436366,98.47,26.18,9.648001,30.6,13 / 19,2974497,2019-08-12 11:14:16:987,-0.162,-0.0447,9.591,-0.1261,0.0229,9.8058,-0.0078,0.0035,-0.0017
59877,46.237766,-0.436366,98.47,26.18,9.648001,30.6,13 / 19,2974559,2019-08-12 11:14:17:049,-0.162,-0.0447,9.591,-0.1261,0.0229,9.8058,-0.0078,0.0035,-0.0017
59878,46.237766,-0.436366,98.47,26.18,9.648001,30.6,13 / 19,2974659,2019-08-12 11:14:17:149,-0.162,-0.0447,9.591,-0.1261,0.0229,9.8058,-0.0078,0.0035,-0.0017
59879,46.237766,-0.436366,98.47,26.18,9.648001,30.6,13 / 19,2974759,2019-08-12 11:14:17:249,-0.0435,-0.1554,10.1614,-0.0293,-0.1726,9.8051,0.0039,0.0035,-0.0028
59880,46.237766,-0.436366,98.47,26.18,9.648001,30.6,13 / 19,2974859,2019-08-12 11:14:17:349,0.0846,-0.1734,9.7221,-0.0286,-0.1672,9.8052,0.0082,0.0067,-0.0017
59881,46.237766,-0.436366,98.47,26.18,9.648001,30.6,13 / 19,2974959,2019-08-12 11:14:17:449,0.1325,-0.1566,9.4127,-0.0263,-0.162,9.8053,0.0018,-0.004,-0.0028
59882,46.237766,-0.436366,98.47,26.18,9.648001,30.6,13 / 19,2975060,2019-08-12 11:14:17:550,0.2558,-0.2338,9.7879,0.0027,-0.1518,9.8055,0.005,0.0003,-0.0028
59883,46.237766,-0.436366,98.47,26.18,9.648001,30.6,13 / 19,2975160,2019-08-12 11:14:17:650,0.1325,-0.0381,9.6329,0.0329,-0.1403,9.8056,0.0039,-0.0018,-0.0038
59884,46.239807,-0.434504,105.28,26.94,8.576,33.3,0 / 19,2975261,2019-08-12 11:14:17:751,0.0612,-0.159,9.6467,0.0525,-0.1379,9.8055,0.005,-0.0018,-0.0038
59885,46.239807,-0.434504,105.28,26.94,8.576,33.3,0 / 19,2975361,2019-08-12 11:14:17:851,0.2432,-0.01,9.8532,0.0569,-0.1288,9.8056,0.0018,0.0046,-0.0028
59886,46.239807,-0.434504,105.28,26.94,8.576,33.3,0 / 19,2975460,2019-08-12 11:14:17:950,-0.074,-0.1548,10.2009,0.0665,-0.1244,9.8056,0.0039,0.0003,-0.0049
59887,46.239807,-0.434504,105.28,26.94,8.576,33.3,0 / 19,2975561,2019-08-12 11:14:18:051,-0.2207,-0.1165,9.7861,0.0722,-0.1231,9.8056,0.0018,-0.0018,-0.0038
59888,46.239807,-0.434504,105.28,26.94,8.576,33.3,0 / 19,2975661,2019-08-12 11:14:18:151,-0.0663,-0.3386,9.6952,0.0664,-0.1212,9.8057,0.0028,0.0014,-0.0038
59889,46.239807,-0.434504,105.28,26.94,8.576,33.3,0 / 19,2975761,2019-08-12 11:14:18:251,0.1516,-0.1901,9.9005,0.0574,-0.1193,9.8058,0.0007,0.0099,-0.0038
59890,46.239807,-0.434504,105.28,26.94,8.576,33.3,0 / 19,2975860,2019-08-12 11:14:18:350,-0.086,-0.1518,10.3458,0.0545,-0.1246,9.8057,0.0007,0.0014,-0.0038
59891,46.239807,-0.434504,105.28,26.94,8.576,33.3,0 / 19,2975960,2019-08-12 11:14:18:450,0.0146,-0.0656,9.7287,0.0452,-0.1273,9.8057,-0.0057,-0.0072,-0.0049
59892,46.239807,-0.434504,105.28,26.94,8.576,33.3,0 / 19,2976060,2019-08-12 11:14:18:550,0.054,0.1367,9.5348,0.0322,-0.1222,9.8058,-0.0025,-0.0018,-0.0028
59893,46.239807,-0.434504,105.28,26.94,8.576,33.3,0 / 19,2976159,2019-08-12 11:14:18:649,0.2797,-0.1488,10.5355,0.0292,-0.109,9.806,-0.0036,-0.0008,-0.0007
59894,46.239807,-0.434504,105.28,26.94,8.576,33.3,0 / 19,2976261,2019-08-12 11:14:18:751,-0.0321,-0.0154,10.0878,0.0164,-0.0957,9.8062,0.005,0.0035,-0.0007
59895,46.239807,-0.434504,105.28,26.94,8.576,33.3,0 / 19,2976360,2019-08-12 11:14:18:850,0.0062,-0.0716,9.8568,0.0058,-0.0813,9.8063,0.0007,-0.0018,0.0004
59896,46.239807,-0.434504,105.28,26.94,8.576,33.3,0 / 19,2976461,2019-08-12 11:14:18:951,0.0385,0.1528,9.3265,-0.0029,-0.0733,9.8064,-0.0004,0.0078,0.0025
59897,46.239807,-0.434504,105.28,26.94,8.576,33.3,0 / 19,2976831,2019-08-12 11:14:19:321,0.0385,0.1528,9.3265,-0.0059,-0.0708,9.8064,0.0018,0.0067,0.0036
59898,46.239807,-0.434504,105.28,26.94,8.576,33.3,0 / 19,2976831,2019-08-12 11:14:19:321,0.0385,0.1528,9.3265,-0.0059,-0.0708,9.8064,0.0018,0.0067,0.0036
59899,46.239807,-0.434504,105.28,26.94,8.576,33.3,0 / 19,2976832,2019-08-12 11:14:19:322,0.0385,0.1528,9.3265,-0.0059,-0.0708,9.8064,0.0018,0.0067,0.0036
59900,46.239807,-0.434504,105.28,26.94,8.576,33.3,0 / 19,2976836,2019-08-12 11:14:19:326,0.0385,0.1528,9.3265,-0.0059,-0.0708,9.8064,0.0018,0.0067,0.0036
59901,46.239807,-0.434504,105.28,26.94,8.576,33.3,0 / 19,2976837,2019-08-12 11:14:19:327,0.0385,0.1528,9.3265,-0.0059,-0.0708,9.8064,0.0018,0.0067,0.0036
59902,46.239807,-0.434504,105.28,26.94,8.576,33.3,0 / 19,2976837,2019-08-12 11:14:19:327,0.0385,0.1528,9.3265,-0.0059,-0.0708,9.8064,0.0018,0.0067,0.0036
59903,46.239807,-0.434504,105.28,26.94,8.576,33.3,0 / 19,2976838,2019-08-12 11:14:19:328,0.0385,0.1528,9.3265,-0.0059,-0.0708,9.8064,0.0018,0.0067,0.0036
59904,46.239807,-0.434504,105.28,26.94,8.576,33.3,0 / 19,2976838,2019-08-12 11:14:19:328,0.0385,0.1528,9.3265,-0.0059,-0.0708,9.8064,0.0018,0.0067,0.0036
59905,46.239807,-0.434504,105.28,26.94,8.576,33.3,0 / 19,2976839,2019-08-12 11:14:19:329,0.0385,0.1528,9.3265,-0.0059,-0.0708,9.8064,0.0018,0.0067,0.0036
59906,46.239807,-0.434504,105.28,26.94,8.576,33.3,0 / 19,2976839,2019-08-12 11:14:19:329,0.0385,0.1528,9.3265,-0.0059,-0.0708,9.8064,0.0018,0.0067,0.0036
59907,46.239807,-0.434504,105.28,26.94,8.576,33.3,0 / 19,2976840,2019-08-12 11:14:19:330,0.0385,0.1528,9.3265,-0.0059,-0.0708,9.8064,0.0018,0.0067,0.0036
59908,46.239807,-0.434504,105.28,26.94,8.576,33.3,0 / 19,2976840,2019-08-12 11:14:19:330,0.0385,0.1528,9.3265,-0.0059,-0.0708,9.8064,0.0018,0.0067,0.0036
59909,46.239807,-0.434504,105.28,26.94,8.576,33.3,0 / 19,2976843,2019-08-12 11:14:19:333,0.0385,0.1528,9.3265,-0.0059,-0.0708,9.8064,0.0018,0.0067,0.0036
59910,46.239807,-0.434504,105.28,26.94,8.576,33.3,0 / 19,2976843,2019-08-12 11:14:19:333,0.0385,0.1528,9.3265,-0.0059,-0.0708,9.8064,0.0018,0.0067,0.0036
59911,46.239807,-0.434504,105.28,26.94,8.576,33.3,0 / 19,2976844,2019-08-12 11:14:19:334,0.0385,0.1528,9.3265,-0.0059,-0.0708,9.8064,0.0018,0.0067,0.0036
59912,46.239807,-0.434504,105.28,26.94,8.576,33.3,0 / 19,2976844,2019-08-12 11:14:19:334,0.0385,0.1528,9.3265,-0.0059,-0.0708,9.8064,0.0018,0.0067,0.0036
59913,46.239807,-0.434504,105.28,26.94,8.576,33.3,0 / 19,2976845,2019-08-12 11:14:19:335,0.0385,0.1528,9.3265,-0.0059,-0.0708,9.8064,0.0018,0.0067,0.0036
59914,46.239807,-0.434504,105.28,26.94,8.576,33.3,0 / 19,2976846,2019-08-12 11:14:19:336,0.0385,0.1528,9.3265,-0.0059,-0.0708,9.8064,0.0018,0.0067,0.0036
59915,46.239807,-0.434504,105.28,26.94,8.576,33.3,0 / 19,2976846,2019-08-12 11:14:19:336,0.0385,0.1528,9.3265,-0.0059,-0.0708,9.8064,0.0018,0.0067,0.0036
59916,46.239807,-0.434504,105.28,26.94,8.576,33.3,0 / 19,2976847,2019-08-12 11:14:19:337,0.0385,0.1528,9.3265,-0.0059,-0.0708,9.8064,0.0018,0.0067,0.0036
59917,46.239807,-0.434504,105.28,26.94,8.576,33.3,0 / 19,2976848,2019-08-12 11:14:19:338,0.0385,0.1528,9.3265,-0.0059,-0.0708,9.8064,0.0018,0.0067,0.0036
59918,46.239807,-0.434504,105.28,26.94,8.576,33.3,0 / 19,2976848,2019-08-12 11:14:19:338,0.0385,0.1528,9.3265,-0.0059,-0.0708,9.8064,0.0018,0.0067,0.0036
59919,46.239807,-0.434504,105.28,26.94,8.576,33.3,0 / 19,2976849,2019-08-12 11:14:19:339,0.0385,0.1528,9.3265,-0.0059,-0.0708,9.8064,0.0018,0.0067,0.0036
59920,46.239807,-0.434504,105.28,26.94,8.576,33.3,0 / 19,2976849,2019-08-12 11:14:19:339,0.0385,0.1528,9.3265,-0.0059,-0.0708,9.8064,0.0018,0.0067,0.0036
59921,46.239807,-0.434504,105.28,26.94,8.576,33.3,0 / 19,2976849,2019-08-12 11:14:19:339,0.0385,0.1528,9.3265,-0.0059,-0.0708,9.8064,0.0018,0.0067,0.0036
59922,46.239807,-0.434504,105.28,26.94,8.576,33.3,0 / 19,2976850,2019-08-12 11:14:19:340,0.0385,0.1528,9.3265,-0.0059,-0.0708,9.8064,0.0018,0.0067,0.0036
59923,46.239807,-0.434504,105.28,26.94,8.576,33.3,0 / 19,2976850,2019-08-12 11:14:19:340,0.0385,0.1528,9.3265,-0.0059,-0.0708,9.8064,0.0018,0.0067,0.0036
59924,46.239807,-0.434504,105.28,26.94,8.576,33.3,0 / 19,2976850,2019-08-12 11:14:19:340,0.0385,0.1528,9.3265,-0.0059,-0.0708,9.8064,0.0018,0.0067,0.0036
59925,46.239807,-0.434504,105.28,26.94,8.576,33.3,0 / 19,2976851,2019-08-12 11:14:19:341,0.0385,0.1528,9.3265,-0.0059,-0.0708,9.8064,0.0018,0.0067,0.0036
59926,46.239807,-0.434504,105.28,26.94,8.576,33.3,0 / 19,2976851,2019-08-12 11:14:19:341,0.0385,0.1528,9.3265,-0.0059,-0.0708,9.8064,0.0018,0.0067,0.0036
59927,46.239807,-0.434504,105.28,26.94,8.576,33.3,0 / 19,2976851,2019-08-12 11:14:19:341,0.0385,0.1528,9.3265,-0.0059,-0.0708,9.8064,0.0018,0.0067,0.0036
59928,46.239807,-0.434504,105.28,26.94,8.576,33.3,0 / 19,2976854,2019-08-12 11:14:19:344,0.0385,0.1528,9.3265,-0.0059,-0.0708,9.8064,0.0018,0.0067,0.0036
59929,46.239807,-0.434504,105.28,26.94,8.576,33.3,0 / 19,2976854,2019-08-12 11:14:19:344,0.0385,0.1528,9.3265,-0.0059,-0.0708,9.8064,0.0018,0.0067,0.0036
59930,46.239807,-0.434504,105.28,26.94,8.576,33.3,0 / 19,2976855,2019-08-12 11:14:19:345,0.0385,0.1528,9.3265,-0.0059,-0.0708,9.8064,0.0018,0.0067,0.0036
59931,46.239807,-0.434504,105.28,26.94,8.576,33.3,0 / 19,2976856,2019-08-12 11:14:19:346,0.0385,0.1528,9.3265,-0.0059,-0.0708,9.8064,0.0018,0.0067,0.0036
59932,46.239807,-0.434504,105.28,26.94,8.576,33.3,0 / 19,2976856,2019-08-12 11:14:19:346,0.0385,0.1528,9.3265,-0.0059,-0.0708,9.8064,0.0018,0.0067,0.0036
59933,46.239807,-0.434504,105.28,26.94,8.576,33.3,0 / 19,2976857,2019-08-12 11:14:19:347,0.0385,0.1528,9.3265,-0.0059,-0.0708,9.8064,0.0018,0.0067,0.0036
59934,46.239807,-0.434504,105.28,26.94,8.576,33.3,0 / 19,2976857,2019-08-12 11:14:19:347,0.0385,0.1528,9.3265,-0.0059,-0.0708,9.8064,0.0018,0.0067,0.0036
59935,46.239807,-0.434504,105.28,26.94,8.576,33.3,0 / 19,2976858,2019-08-12 11:14:19:348,0.0385,0.1528,9.3265,-0.0059,-0.0708,9.8064,0.0018,0.0067,0.0036
59936,46.239807,-0.434504,105.28,26.94,8.576,33.3,0 / 19,2976858,2019-08-12 11:14:19:348,0.0385,0.1528,9.3265,-0.0059,-0.0708,9.8064,0.0018,0.0067,0.0036
59937,46.239807,-0.434504,105.28,26.94,8.576,33.3,0 / 19,2976858,2019-08-12 11:14:19:348,0.0385,0.1528,9.3265,-0.0059,-0.0708,9.8064,0.0018,0.0067,0.0036
59938,46.239807,-0.434504,105.28,26.94,8.576,33.3,0 / 19,2976859,2019-08-12 11:14:19:349,0.0385,0.1528,9.3265,-0.0059,-0.0708,9.8064,0.0018,0.0067,0.0036
59939,46.239807,-0.434504,105.28,26.94,8.576,33.3,0 / 19,2976859,2019-08-12 11:14:19:349,0.0385,0.1528,9.3265,-0.0059,-0.0708,9.8064,0.0018,0.0067,0.0036
59940,46.239807,-0.434504,105.28,26.94,8.576,33.3,0 / 19,2976859,2019-08-12 11:14:19:349,0.0385,0.1528,9.3265,-0.0059,-0.0708,9.8064,0.0018,0.0067,0.0036
59941,46.239807,-0.434504,105.28,26.94,8.576,33.3,0 / 19,2976860,2019-08-12 11:14:19:350,0.0385,0.1528,9.3265,-0.0059,-0.0708,9.8064,0.0018,0.0067,0.0036
59942,46.239807,-0.434504,105.28,26.94,8.576,33.3,0 / 19,2976860,2019-08-12 11:14:19:350,0.0385,0.1528,9.3265,-0.0059,-0.0708,9.8064,0.0018,0.0067,0.0036
59943,46.239807,-0.434504,105.28,26.94,8.576,33.3,0 / 19,2976860,2019-08-12 11:14:19:350,0.0385,0.1528,9.3265,-0.0059,-0.0708,9.8064,0.0018,0.0067,0.0036
59944,46.239807,-0.434504,105.28,26.94,8.576,33.3,0 / 19,2976861,2019-08-12 11:14:19:351,0.0385,0.1528,9.3265,-0.0059,-0.0708,9.8064,0.0018,0.0067,0.0036
59945,46.239807,-0.434504,105.28,26.94,8.576,33.3,0 / 19,2976861,2019-08-12 11:14:19:351,0.0385,0.1528,9.3265,-0.0059,-0.0708,9.8064,0.0018,0.0067,0.0036
59946,46.239807,-0.434504,105.28,26.94,8.576,33.3,0 / 19,2976861,2019-08-12 11:14:19:351,0.0385,0.1528,9.3265,-0.0059,-0.0708,9.8064,0.0018,0.0067,0.0036
59947,46.239807,-0.434504,105.28,26.94,8.576,33.3,0 / 19,2976862,2019-08-12 11:14:19:352,0.0385,0.1528,9.3265,-0.0059,-0.0708,9.8064,0.0018,0.0067,0.0036
59948,46.239807,-0.434504,105.28,26.94,8.576,33.3,0 / 19,2976862,2019-08-12 11:14:19:352,0.0385,0.1528,9.3265,-0.0059,-0.0708,9.8064,0.0018,0.0067,0.0036
59949,46.239807,-0.434504,105.28,26.94,8.576,33.3,0 / 19,2976862,2019-08-12 11:14:19:352,0.0385,0.1528,9.3265,-0.0059,-0.0708,9.8064,0.0018,0.0067,0.0036
59950,46.239807,-0.434504,105.28,26.94,8.576,33.3,0 / 19,2976863,2019-08-12 11:14:19:353,0.0385,0.1528,9.3265,-0.0059,-0.0708,9.8064,0.0018,0.0067,0.0036
59951,46.239807,-0.434504,105.28,26.94,8.576,33.3,0 / 19,2976863,2019-08-12 11:14:19:353,0.0385,0.1528,9.3265,-0.0059,-0.0708,9.8064,0.0018,0.0067,0.0036
59952,46.239807,-0.434504,105.28,26.94,8.576,33.3,0 / 19,2976863,2019-08-12 11:14:19:353,0.0385,0.1528,9.3265,-0.0059,-0.0708,9.8064,0.0018,0.0067,0.0036
59953,46.239807,-0.434504,105.28,26.94,8.576,33.3,0 / 19,2976864,2019-08-12 11:14:19:354,0.0385,0.1528,9.3265,-0.0059,-0.0708,9.8064,0.0018,0.0067,0.0036
59954,46.239807,-0.434504,105.28,26.94,8.576,33.3,0 / 19,2976864,2019-08-12 11:14:19:354,0.0385,0.1528,9.3265,-0.0059,-0.0708,9.8064,0.0018,0.0067,0.0036
59955,46.239807,-0.434504,105.28,26.94,8.576,33.3,0 / 19,2976900,2019-08-12 11:14:19:390,0.0385,0.1528,9.3265,-0.0059,-0.0708,9.8064,0.0018,0.0067,0.0036
59956,46.239807,-0.434504,105.28,26.94,8.576,33.3,Dec-19,2977293,2019-08-12 11:14:19:783,0.0385,0.1528,9.3265,-0.0059,-0.0708,9.8064,0.0018,0.0067,0.0036
59957,46.239807,-0.434504,105.28,26.94,8.576,33.3,Dec-19,2977294,2019-08-12 11:14:19:784,0.0385,0.1528,9.3265,-0.0059,-0.0708,9.8064,0.0018,0.0067,0.0036
59958,46.239807,-0.434504,105.28,26.94,8.576,33.3,Dec-19,2977294,2019-08-12 11:14:19:784,0.0385,0.1528,9.3265,-0.0059,-0.0708,9.8064,0.0018,0.0067,0.0036
59959,46.239807,-0.434504,105.28,26.94,8.576,33.3,Dec-19,2977295,2019-08-12 11:14:19:785,0.0385,0.1528,9.3265,-0.0059,-0.0708,9.8064,0.0018,0.0067,0.0036
59960,46.239807,-0.434504,105.28,26.94,8.576,33.3,Dec-19,2977295,2019-08-12 11:14:19:785,0.0385,0.1528,9.3265,-0.0059,-0.0708,9.8064,0.0018,0.0067,0.0036
59961,46.239807,-0.434504,105.28,26.94,8.576,33.3,Dec-19,2977296,2019-08-12 11:14:19:786,0.0385,0.1528,9.3265,-0.0059,-0.0708,9.8064,0.0018,0.0067,0.0036
59962,46.239807,-0.434504,105.28,26.94,8.576,33.3,Dec-19,2977296,2019-08-12 11:14:19:786,0.0385,0.1528,9.3265,-0.0059,-0.0708,9.8064,0.0018,0.0067,0.0036
59963,46.239807,-0.434504,105.28,26.94,8.576,33.3,Dec-19,2977296,2019-08-12 11:14:19:786,0.0385,0.1528,9.3265,-0.0059,-0.0708,9.8064,0.0018,0.0067,0.0036
59964,46.239807,-0.434504,105.28,26.94,8.576,33.3,Dec-19,2977297,2019-08-12 11:14:19:787,0.0385,0.1528,9.3265,-0.0059,-0.0708,9.8064,0.0018,0.0067,0.0036
59965,46.239807,-0.434504,105.28,26.94,8.576,33.3,Dec-19,2977354,2019-08-12 11:14:19:844,0.0385,0.1528,9.3265,-0.0059,-0.0708,9.8064,0.0018,0.0067,0.0036
59966,46.239807,-0.434504,105.28,26.94,8.576,33.3,Dec-19,2977747,2019-08-12 11:14:20:237,0.0385,0.1528,9.3265,-0.0059,-0.0708,9.8064,0.0018,0.0067,0.0036
59967,46.239807,-0.434504,105.28,26.94,8.576,33.3,Dec-19,2977748,2019-08-12 11:14:20:238,0.0385,0.1528,9.3265,-0.0059,-0.0708,9.8064,0.0018,0.0067,0.0036
59968,46.239807,-0.434504,105.28,26.94,8.576,33.3,Dec-19,2977748,2019-08-12 11:14:20:238,0.0385,0.1528,9.3265,-0.0059,-0.0708,9.8064,0.0018,0.0067,0.0036
59969,46.239807,-0.434504,105.28,26.94,8.576,33.3,Dec-19,2977749,2019-08-12 11:14:20:239,0.0385,0.1528,9.3265,-0.0059,-0.0708,9.8064,0.0018,0.0067,0.0036
59970,46.239807,-0.434504,105.28,26.94,8.576,33.3,Dec-19,2977749,2019-08-12 11:14:20:239,0.0385,0.1528,9.3265,-0.0059,-0.0708,9.8064,0.0018,0.0067,0.0036
59971,46.239807,-0.434504,105.28,26.94,8.576,33.3,Dec-19,2977750,2019-08-12 11:14:20:240,0.0385,0.1528,9.3265,-0.0059,-0.0708,9.8064,0.0018,0.0067,0.0036
59972,46.24167,-0.432684,110.7,28.08,10.72,33.9,0 / 19,2977754,2019-08-12 11:14:20:244,0.0385,0.1528,9.3265,-0.0059,-0.0708,9.8064,0.0018,0.0067,0.0036
59973,46.24167,-0.432684,110.7,28.08,10.72,33.9,0 / 19,2977754,2019-08-12 11:14:20:244,0.0385,0.1528,9.3265,-0.0059,-0.0708,9.8064,0.0018,0.0067,0.0036
59974,46.24167,-0.432684,110.7,28.08,10.72,33.9,0 / 19,2977755,2019-08-12 11:14:20:245,0.0385,0.1528,9.3265,-0.0059,-0.0708,9.8064,0.0018,0.0067,0.0036
59975,46.24167,-0.432684,110.7,28.08,10.72,33.9,0 / 19,2977815,2019-08-12 11:14:20:305,0.0385,0.1528,9.3265,-0.0059,-0.0708,9.8064,0.0018,0.0067,0.0036
59976,46.24167,-0.432684,110.7,28.08,10.72,33.9,0 / 19,2978223,2019-08-12 11:14:20:713,0.0385,0.1528,9.3265,-0.0059,-0.0708,9.8064,0.0018,0.0067,0.0036
59977,46.24167,-0.432684,110.7,28.08,10.72,33.9,0 / 19,2978224,2019-08-12 11:14:20:714,0.0385,0.1528,9.3265,-0.0059,-0.0708,9.8064,0.0018,0.0067,0.0036
59978,46.24167,-0.432684,110.7,28.08,10.72,33.9,0 / 19,2978224,2019-08-12 11:14:20:714,0.0385,0.1528,9.3265,-0.0059,-0.0708,9.8064,0.0018,0.0067,0.0036
59979,46.24167,-0.432684,110.7,28.08,10.72,33.9,0 / 19,2978225,2019-08-12 11:14:20:715,0.0385,0.1528,9.3265,-0.0059,-0.0708,9.8064,0.0018,0.0067,0.0036
59980,46.24167,-0.432684,110.7,28.08,10.72,33.9,0 / 19,2978310,2019-08-12 11:14:20:800,0.0385,0.1528,9.3265,-0.0059,-0.0708,9.8064,0.0018,0.0067,0.0036
59981,46.24167,-0.432684,110.7,28.08,10.72,33.9,0 / 19,2978410,2019-08-12 11:14:20:900,0.0385,0.1528,9.3265,-0.0059,-0.0708,9.8064,0.0018,0.0067,0.0036
59982,46.24167,-0.432684,110.7,28.08,10.72,33.9,0 / 19,2978510,2019-08-12 11:14:21:000,-0.2345,-0.1979,9.8053,-0.3857,0.0315,9.799,-0.0089,-0.0018,-0.0049
59983,46.24167,-0.432684,110.7,28.08,10.72,33.9,0 / 19,2978610,2019-08-12 11:14:21:100,-0.5637,-0.1183,9.6838,-0.3882,0.0058,9.799,-0.0014,0.0035,-0.0049
59984,46.24167,-0.432684,110.7,28.08,10.72,33.9,0 / 19,2978710,2019-08-12 11:14:21:200,-0.0465,0.0092,9.5575,-0.3915,-0.0469,9.7987,-0.0036,-0.0008,-0.0028
59985,46.24167,-0.432684,110.7,28.08,10.72,33.9,0 / 19,2978810,2019-08-12 11:14:21:300,-0.5978,-0.1321,9.4528,-0.3927,-0.0731,9.7985,0.005,-0.0029,-0.006
59986,46.24167,-0.432684,110.7,28.08,10.72,33.9,0 / 19,2978910,2019-08-12 11:14:21:400,-0.3302,-0.302,9.998,-0.4014,-0.0919,9.798,0.0071,0.0024,-0.0049
59987,46.24167,-0.432684,110.7,28.08,10.72,33.9,0 / 19,2979012,2019-08-12 11:14:21:502,-0.5355,0.0008,9.7,-0.4271,-0.1114,9.7967,0.0018,0.0078,-0.0038
59988,46.24167,-0.432684,110.7,28.08,10.72,33.9,0 / 19,2979110,2019-08-12 11:14:21:600,-0.4409,-0.2009,9.2912,-0.4366,-0.1245,9.7961,0.005,-0.0072,-0.0049
59989,46.24167,-0.432684,110.7,28.08,10.72,33.9,0 / 19,2979211,2019-08-12 11:14:21:701,-0.581,-0.0237,9.3121,-0.4406,-0.1249,9.796,-0.0004,-0.0029,-0.006
59990,46.24167,-0.432684,110.7,28.08,10.72,33.9,0 / 19,2979310,2019-08-12 11:14:21:800,-0.2782,-0.2655,10.414,-0.4603,-0.1351,9.7949,0.0007,0.0078,-0.0049
59991,46.24167,-0.432684,110.7,28.08,10.72,33.9,0 / 19,2979411,2019-08-12 11:14:21:901,-0.8073,-0.1428,9.2115,-0.4886,-0.1345,9.7935,0.0007,0.0078,-0.006
59992,46.24167,-0.432684,110.7,28.08,10.72,33.9,0 / 19,2979510,2019-08-12 11:14:22:000,-0.3811,-0.2015,9.433,-0.4957,-0.1357,9.7932,-0.0014,-0.0061,-0.006
59993,46.24167,-0.432684,110.7,28.08,10.72,33.9,0 / 19,2979611,2019-08-12 11:14:22:101,-0.672,0.0224,9.0643,-0.5002,-0.1357,9.7929,-0.0014,0.0003,-0.0028
59994,46.24167,-0.432684,110.7,28.08,10.72,33.9,0 / 19,2979710,2019-08-12 11:14:22:200,-0.4739,-0.1243,10.6062,-0.5025,-0.1341,9.7928,-0.0014,-0.0018,-0.0017
59995,46.24167,-0.432684,110.7,28.08,10.72,33.9,0 / 19,2979810,2019-08-12 11:14:22:300,-0.7271,-0.0674,9.9035,-0.5117,-0.131,9.7924,-0.0014,0.0078,0.0004
59996,46.24167,-0.432684,110.7,28.08,10.72,33.9,0 / 19,2979910,2019-08-12 11:14:22:400,-0.6445,0.1445,9.4193,-0.5251,-0.1274,9.7918,-0.0025,0.0014,0.0025
59997,46.24167,-0.432684,110.7,28.08,10.72,33.9,0 / 19,2980010,2019-08-12 11:14:22:500,-0.7115,0.2462,9.5455,-0.536,-0.1184,9.7913,-0.0004,0.0056,0.0047
59998,46.24167,-0.432684,110.7,28.08,10.72,33.9,0 / 19,2980110,2019-08-12 11:14:22:600,-0.8073,0.0625,10.08,-0.5418,-0.1042,9.7911,0.0018,-0.0114,0.0057
59999,46.24167,-0.432684,110.7,28.08,10.72,33.9,0 / 19,2980212,2019-08-12 11:14:22:702,-0.9623,0.2229,10.4523,-0.5465,-0.0967,9.7909,-0.0046,-0.0018,0.0057
60000,46.24167,-0.432684,110.7,28.08,10.72,33.9,0 / 19,2980311,2019-08-12 11:14:22:801,-0.7761,0.0307,9.667,-0.5871,-0.0662,9.7888,-0.0004,0.0024,0.0036
60001,46.24167,-0.432684,110.7,28.08,10.72,33.9,0 / 19,2980410,2019-08-12 11:14:22:900,-0.7408,0.1792,10.0184,-0.6281,-0.0316,9.7865,-0.0014,-0.004,0.0015
60002,46.24167,-0.432684,110.7,28.08,10.72,33.9,0 / 19,2980510,2019-08-12 11:14:23:000,-0.7223,-0.0968,10.2021,-0.6429,-0.0329,9.7855,-0.0078,0.0078,0.0004
60003,46.24167,-0.432684,110.7,28.08,10.72,33.9,0 / 19,2980610,2019-08-12 11:14:23:100,-0.8246,0.1576,9.6299,-0.6481,-0.034,9.7852,-0.0078,-0.0018,-0.0007
60004,46.24167,-0.432684,110.7,28.08,10.72,33.9,0 / 19,2980710,2019-08-12 11:14:23:200,-0.7486,0.0661,9.2229,-0.6845,-0.024,9.7827,-0.0014,0.0109,0.0015
60005,46.24167,-0.432684,110.7,28.08,10.72,33.9,0 / 19,2980810,2019-08-12 11:14:23:300,-0.6552,0.0349,9.0996,-0.6863,-0.0174,9.7826,-0.0004,0.0056,0.0015
60006,46.24167,-0.432684,110.7,28.08,10.72,33.9,0 / 19,2980910,2019-08-12 11:14:23:400,-0.5828,-0.0183,10.6552,-0.6753,-0.0167,9.7834,0.0039,-0.0093,-0.0017
60007,46.24167,-0.432684,110.7,28.08,10.72,33.9,0 / 19,2981010,2019-08-12 11:14:23:500,-0.6127,-0.2673,9.2546,-0.6715,-0.0124,9.7836,0.0092,0.0003,-0.0028
60008,46.24167,-0.432684,110.7,28.08,10.72,33.9,0 / 19,2981110,2019-08-12 11:14:23:600,-0.5595,-0.0848,10.0477,-0.6628,-0.009,9.7842,0.0039,-0.0104,-0.0028
60009,46.24167,-0.432684,110.7,28.08,10.72,33.9,0 / 19,2981210,2019-08-12 11:14:23:700,-0.4146,-0.062,10.0603,-0.651,-0.0095,9.785,-0.0014,-0.0093,-0.0007
60010,46.24167,-0.432684,110.7,28.08,10.72,33.9,0 / 19,2981311,2019-08-12 11:14:23:801,-0.5367,0.017,9.758,-0.6475,-0.0092,9.7852,-0.0004,0.0056,0.0015
60011,46.24167,-0.432684,110.7,28.08,10.72,33.9,0 / 19,2981410,2019-08-12 11:14:23:900,-0.3518,-0.1393,10.1872,-0.6065,-0.0073,9.7879,0.0018,0.0014,0.0004
60012,46.24167,-0.432684,110.7,28.08,10.72,33.9,0 / 19,2981510,2019-08-12 11:14:24:000,-0.5583,0.2803,9.6311,-0.5798,-0.0101,9.7895,-0.0057,-0.0008,0.0015
60013,46.24167,-0.432684,110.7,28.08,10.72,33.9,0 / 19,2981609,2019-08-12 11:14:24:099,-0.3548,0.0062,10.2417,-0.5754,-0.0133,9.7897,-0.0036,0.0035,0.0025
60014,46.24167,-0.432684,110.7,28.08,10.72,33.9,0 / 19,2981710,2019-08-12 11:14:24:200,-0.4834,0.2043,10.3673,-0.563,-0.0158,9.7905,-0.0025,-0.0072,0.0004
60015,46.24167,-0.432684,110.7,28.08,10.72,33.9,0 / 19,2981810,2019-08-12 11:14:24:300,-0.1734,0.0894,9.8227,-0.5536,-0.0193,9.791,-0.0099,-0.005,0.0025
60016,46.24167,-0.432684,110.7,28.08,10.72,33.9,0 / 19,2981911,2019-08-12 11:14:24:401,-0.0178,-0.1069,9.7538,-0.5444,-0.0258,9.7915,-0.0068,0.0014,0.0025
60017,46.24167,-0.432684,110.7,28.08,10.72,33.9,0 / 19,2982011,2019-08-12 11:14:24:501,-0.4332,-0.0896,10.1567,-0.5215,-0.022,9.7927,-0.0036,0.0024,0.0004
60018,46.24167,-0.432684,110.7,28.08,10.72,33.9,0 / 19,2982110,2019-08-12 11:14:24:600,-0.2787,-0.0201,10.2099,-0.4728,-0.0325,9.7952,-0.0004,-0.0008,-0.0007
60019,46.24167,-0.432684,110.7,28.08,10.72,33.9,0 / 19,2982210,2019-08-12 11:14:24:700,-0.2835,-0.1051,9.2672,-0.4404,-0.0357,9.7967,0.0039,-0.0082,-0.0007
60020,46.24167,-0.432684,110.7,28.08,10.72,33.9,0 / 19,2982310,2019-08-12 11:14:24:800,-0.2422,-0.0183,9.9454,-0.379,-0.0494,9.7992,-0.0014,-0.004,-0.0007
60021,46.24167,-0.432684,110.7,28.08,10.72,33.9,0 / 19,2982411,2019-08-12 11:14:24:901,-0.4535,0.0104,10.0022,-0.3581,-0.0459,9.8,-0.0014,0.0003,0.0004
60022,46.24167,-0.432684,110.7,28.08,10.72,33.9,0 / 19,2982510,2019-08-12 11:14:25:000,-0.353,0.0996,9.5336,-0.3442,-0.0413,9.8005,0.0028,-0.0008,0.0015
60023,46.24167,-0.432684,110.7,28.08,10.72,33.9,0 / 19,2982610,2019-08-12 11:14:25:100,-0.2644,0.0936,9.2427,-0.3274,-0.0376,9.8011,0.0018,0.0024,0.0015
60024,46.24167,-0.432684,110.7,28.08,10.72,33.9,0 / 19,2982710,2019-08-12 11:14:25:200,-0.3308,-0.0112,9.8436,-0.3047,-0.0377,9.8018,-0.0025,-0.0008,0.0015
60025,46.24167,-0.432684,110.7,28.08,10.72,33.9,0 / 19,2983167,2019-08-12 11:14:25:657,-0.2578,-0.0608,9.6796,-0.3119,-0.0355,9.8016,-0.0004,0.0131,0.0015
60026,46.24167,-0.432684,110.7,28.08,10.72,33.9,0 / 19,2983167,2019-08-12 11:14:25:657,-0.2578,-0.0608,9.6796,-0.3119,-0.0355,9.8016,-0.0004,0.0131,0.0015
60027,46.24167,-0.432684,110.7,28.08,10.72,33.9,0 / 19,2983168,2019-08-12 11:14:25:658,-0.2578,-0.0608,9.6796,-0.3119,-0.0355,9.8016,-0.0004,0.0131,0.0015
60028,46.24167,-0.432684,110.7,28.08,10.72,33.9,0 / 19,2983168,2019-08-12 11:14:25:658,-0.2578,-0.0608,9.6796,-0.3119,-0.0355,9.8016,-0.0004,0.0131,0.0015
60029,46.24167,-0.432684,110.7,28.08,10.72,33.9,0 / 19,2983168,2019-08-12 11:14:25:658,-0.2578,-0.0608,9.6796,-0.3119,-0.0355,9.8016,-0.0004,0.0131,0.0015
60030,46.24167,-0.432684,110.7,28.08,10.72,33.9,0 / 19,2983169,2019-08-12 11:14:25:659,-0.2578,-0.0608,9.6796,-0.3119,-0.0355,9.8016,-0.0004,0.0131,0.0015
60031,46.24167,-0.432684,110.7,28.08,10.72,33.9,0 / 19,2983169,2019-08-12 11:14:25:659,-0.2578,-0.0608,9.6796,-0.3119,-0.0355,9.8016,-0.0004,0.0131,0.0015
60032,46.24167,-0.432684,110.7,28.08,10.72,33.9,0 / 19,2983169,2019-08-12 11:14:25:659,-0.2578,-0.0608,9.6796,-0.3119,-0.0355,9.8016,-0.0004,0.0131,0.0015
60033,46.24167,-0.432684,110.7,28.08,10.72,33.9,0 / 19,2983170,2019-08-12 11:14:25:660,-0.2578,-0.0608,9.6796,-0.3119,-0.0355,9.8016,-0.0004,0.0131,0.0015
60034,46.24167,-0.432684,110.7,28.08,10.72,33.9,0 / 19,2983171,2019-08-12 11:14:25:661,-0.2578,-0.0608,9.6796,-0.3119,-0.0355,9.8016,-0.0004,0.0131,0.0015
60035,46.24167,-0.432684,110.7,28.08,10.72,33.9,0 / 19,2983171,2019-08-12 11:14:25:661,-0.2578,-0.0608,9.6796,-0.3119,-0.0355,9.8016,-0.0004,0.0131,0.0015
60036,46.24167,-0.432684,110.7,28.08,10.72,33.9,0 / 19,2983200,2019-08-12 11:14:25:690,-0.2578,-0.0608,9.6796,-0.3119,-0.0355,9.8016,-0.0004,0.0131,0.0015
60037,46.24167,-0.432684,110.7,28.08,10.72,33.9,0 / 19,2983300,2019-08-12 11:14:25:790,-0.2578,-0.0608,9.6796,-0.3119,-0.0355,9.8016,-0.0004,0.0131,0.0015
60038,46.24167,-0.432684,110.7,28.08,10.72,33.9,0 / 19,2983635,2019-08-12 11:14:26:125,-0.2578,-0.0608,9.6796,-0.3119,-0.0355,9.8016,-0.0004,0.0131,0.0015
60039,46.24167,-0.432684,110.7,28.08,10.72,33.9,0 / 19,2983636,2019-08-12 11:14:26:126,-0.2578,-0.0608,9.6796,-0.3119,-0.0355,9.8016,-0.0004,0.0131,0.0015
60040,46.24167,-0.432684,110.7,28.08,10.72,33.9,0 / 19,2983639,2019-08-12 11:14:26:129,-0.2578,-0.0608,9.6796,-0.3119,-0.0355,9.8016,-0.0004,0.0131,0.0015
60041,46.24167,-0.432684,110.7,28.08,10.72,33.9,0 / 19,2983639,2019-08-12 11:14:26:129,-0.2578,-0.0608,9.6796,-0.3119,-0.0355,9.8016,-0.0004,0.0131,0.0015
60042,46.24167,-0.432684,110.7,28.08,10.72,33.9,0 / 19,2983640,2019-08-12 11:14:26:130,-0.2578,-0.0608,9.6796,-0.3119,-0.0355,9.8016,-0.0004,0.0131,0.0015
60043,46.24167,-0.432684,110.7,28.08,10.72,33.9,0 / 19,2983640,2019-08-12 11:14:26:130,-0.2578,-0.0608,9.6796,-0.3119,-0.0355,9.8016,-0.0004,0.0131,0.0015
60044,46.24167,-0.432684,110.7,28.08,10.72,33.9,0 / 19,2983641,2019-08-12 11:14:26:131,-0.2578,-0.0608,9.6796,-0.3119,-0.0355,9.8016,-0.0004,0.0131,0.0015
60045,46.24167,-0.432684,110.7,28.08,10.72,33.9,0 / 19,2983708,2019-08-12 11:14:26:198,-0.2578,-0.0608,9.6796,-0.3119,-0.0355,9.8016,-0.0004,0.0131,0.0015
60046,46.24167,-0.432684,110.7,28.08,10.72,33.9,0 / 19,2984092,2019-08-12 11:14:26:582,-0.2578,-0.0608,9.6796,-0.3119,-0.0355,9.8016,-0.0004,0.0131,0.0015
60047,46.24167,-0.432684,110.7,28.08,10.72,33.9,0 / 19,2984093,2019-08-12 11:14:26:583,-0.2578,-0.0608,9.6796,-0.3119,-0.0355,9.8016,-0.0004,0.0131,0.0015
60048,46.24167,-0.432684,110.7,28.08,10.72,33.9,0 / 19,2984094,2019-08-12 11:14:26:584,-0.2578,-0.0608,9.6796,-0.3119,-0.0355,9.8016,-0.0004,0.0131,0.0015
60049,46.24167,-0.432684,110.7,28.08,10.72,33.9,0 / 19,2984108,2019-08-12 11:14:26:598,-0.2578,-0.0608,9.6796,-0.3119,-0.0355,9.8016,-0.0004,0.0131,0.0015
60050,46.24167,-0.432684,110.7,28.08,10.72,33.9,0 / 19,2984208,2019-08-12 11:14:26:698,-0.2578,-0.0608,9.6796,-0.3119,-0.0355,9.8016,-0.0004,0.0131,0.0015
60051,46.24167,-0.432684,110.7,28.08,10.72,33.9,0 / 19,2984308,2019-08-12 11:14:26:798,-0.1339,0.2151,9.7036,-0.8476,0.1604,9.7686,0.0018,0.012,0.0015
60052,46.24167,-0.432684,110.7,28.08,10.72,33.9,0 / 19,2984408,2019-08-12 11:14:26:898,-1.1113,0.1259,9.752,-0.8683,0.1574,9.7669,-0.0036,0.0163,0.0047
60053,46.24167,-0.432684,110.7,28.08,10.72,33.9,0 / 19,2984508,2019-08-12 11:14:26:998,-1.252,0.0619,9.6437,-0.8721,0.1613,9.7665,0.005,-0.0146,0.0036
60054,46.24167,-0.432684,110.7,28.08,10.72,33.9,Sep-19,2984608,2019-08-12 11:14:27:098,-1.1287,0.0876,9.6299,-0.873,0.1622,9.7664,0.0039,-0.0082,0.0025
60055,46.24167,-0.432684,110.7,28.08,10.72,33.9,Sep-19,2984709,2019-08-12 11:14:27:199,-1.1083,0.0134,9.9729,-0.9298,0.1444,9.7614,0.0018,0.0035,-0.0007
60056,46.24167,-0.432684,110.7,28.08,10.72,33.9,Sep-19,2984808,2019-08-12 11:14:27:298,-0.9054,0.0481,9.3767,-0.9613,0.1277,9.7586,-0.0046,0.0035,-0.0007
60057,46.24167,-0.432684,110.7,28.08,10.72,33.9,Sep-19,2984909,2019-08-12 11:14:27:399,-0.7528,0.1714,9.949,-0.9545,0.1189,9.7594,-0.0046,0.0014,-0.0007
60058,46.24167,-0.432684,110.7,28.08,10.72,33.9,Sep-19,2985009,2019-08-12 11:14:27:499,-0.5607,-0.0267,9.527,-0.9443,0.1124,9.7604,-0.0046,-0.0018,-0.0007
60059,46.24167,-0.432684,110.7,28.08,10.72,33.9,Sep-19,2985109,2019-08-12 11:14:27:599,-0.6828,0.0679,9.8083,-0.8643,0.0929,9.768,-0.0004,-0.0061,0.0015
60060,46.24167,-0.432684,110.7,28.08,10.72,33.9,Sep-19,2985209,2019-08-12 11:14:27:699,-0.5696,0.0445,9.7041,-0.8182,0.0852,9.7721,0.0007,-0.004,0.0025
60061,46.24167,-0.432684,110.7,28.08,10.72,33.9,Sep-19,2985309,2019-08-12 11:14:27:799,-0.666,0.0307,9.773,-0.7583,0.0816,9.777,-0.0025,-0.0008,0.0036
60062,46.24167,-0.432684,110.7,28.08,10.72,33.9,Sep-19,2985408,2019-08-12 11:14:27:898,-0.6534,0.1475,9.6832,-0.7298,0.0857,9.7791,0.0007,-0.0018,0.0047
60063,46.24167,-0.432684,110.7,28.08,10.72,33.9,Sep-19,2985508,2019-08-12 11:14:27:998,-0.6481,0.1199,9.6491,-0.6965,0.1203,9.7811,0.0018,-0.0029,0.0068
60064,46.243385,-0.431146,93.64,25.67,13.936001,33.0,0 / 20,2985608,2019-08-12 11:14:28:098,-0.4499,0.1271,9.7353,-0.6718,0.1362,9.7827,0.0007,0.0024,0.0079
60065,46.243385,-0.431146,93.64,25.67,13.936001,33.0,0 / 20,2985708,2019-08-12 11:14:28:198,-0.7265,0.2833,9.7335,-0.6621,0.1475,9.7832,-0.0004,-0.0018,0.0068
60066,46.243385,-0.431146,93.64,25.67,13.936001,33.0,0 / 20,2985808,2019-08-12 11:14:28:298,-0.5517,0.0846,10.3757,-0.6523,0.1639,9.7836,-0.0004,-0.0061,0.0057
60067,46.243385,-0.431146,93.64,25.67,13.936001,33.0,0 / 20,2985908,2019-08-12 11:14:28:398,-0.4715,0.2055,9.7137,-0.6385,0.1684,9.7844,-0.0036,0.0035,0.0079
60068,46.243385,-0.431146,93.64,25.67,13.936001,33.0,0 / 20,2986009,2019-08-12 11:14:28:499,-0.5846,0.1678,9.7191,-0.6224,0.1708,9.7854,0.0018,0.0014,0.0057
60069,46.243385,-0.431146,93.64,25.67,13.936001,33.0,0 / 20,2986109,2019-08-12 11:14:28:599,-0.5194,0.2307,10.2596,-0.608,0.1704,9.7863,0.0028,-0.0029,0.0068
60070,46.243385,-0.431146,93.64,25.67,13.936001,33.0,0 / 20,2986208,2019-08-12 11:14:28:698,-0.5625,0.2343,9.8071,-0.5881,0.1762,9.7874,0.0007,0.0014,0.0079
60071,46.243385,-0.431146,93.64,25.67,13.936001,33.0,0 / 20,2986309,2019-08-12 11:14:28:799,-0.5553,0.0822,10.4901,-0.5711,0.1831,9.7883,-0.0025,-0.004,0.0079
60072,46.243385,-0.431146,93.64,25.67,13.936001,33.0,0 / 20,2986409,2019-08-12 11:14:28:899,-0.7085,0.2546,10.1758,-0.5566,0.1823,9.7891,-0.0078,-0.0082,0.0068
60073,46.243385,-0.431146,93.64,25.67,13.936001,33.0,0 / 20,2986508,2019-08-12 11:14:28:998,-0.2303,0.4138,10.2411,-0.5528,0.1853,9.7893,-0.0099,0.0024,0.0068
60074,46.243385,-0.431146,93.64,25.67,13.936001,33.0,0 / 20,2986609,2019-08-12 11:14:29:099,-0.5577,0.1786,10.1189,-0.5467,0.1835,9.7897,0.006,0.0067,0.0068
60075,46.243385,-0.431146,93.64,25.67,13.936001,33.0,0 / 20,2986709,2019-08-12 11:14:29:199,-0.3595,-0.0135,10.2458,-0.5325,0.1803,9.7905,-0.0004,0.0024,0.0068
60076,46.243385,-0.431146,93.64,25.67,13.936001,33.0,0 / 20,2986808,2019-08-12 11:14:29:298,-0.3781,0.1648,9.4899,-0.5039,0.1725,9.7922,-0.0025,0.0014,0.0057
60077,46.243385,-0.431146,93.64,25.67,13.936001,33.0,0 / 20,2986909,2019-08-12 11:14:29:399,-0.4236,0.2271,9.4444,-0.5077,0.1801,9.7918,0.0007,0.0024,0.0047
60078,46.243385,-0.431146,93.64,25.67,13.936001,33.0,0 / 20,2987009,2019-08-12 11:14:29:499,-0.3129,0.09,10.174,-0.4632,0.1583,9.7944,-0.0014,-0.004,0.0047
60079,46.243385,-0.431146,93.64,25.67,13.936001,33.0,0 / 20,2987108,2019-08-12 11:14:29:598,-0.6068,0.1499,9.8843,-0.464,0.1585,9.7944,0.0007,0.0024,0.0057
60080,46.243385,-0.431146,93.64,25.67,13.936001,33.0,0 / 20,2987209,2019-08-12 11:14:29:699,-0.3248,-0.0686,9.8592,-0.4558,0.1541,9.7948,0.0018,-0.004,0.0057
60081,46.243385,-0.431146,93.64,25.67,13.936001,33.0,0 / 20,2987308,2019-08-12 11:14:29:798,-0.4888,0.075,9.6922,-0.4483,0.1513,9.7952,-0.0025,-0.0018,0.0047
60082,46.243385,-0.431146,93.64,25.67,13.936001,33.0,0 / 20,2987408,2019-08-12 11:14:29:898,-0.4272,0.1546,9.9095,-0.4437,0.1519,9.7954,-0.0025,-0.0018,0.0047
60083,46.243385,-0.431146,93.64,25.67,13.936001,33.0,0 / 20,2987509,2019-08-12 11:14:29:999,-0.3703,0.0038,9.5419,-0.4366,0.147,9.7958,-0.0036,-0.0072,0.0015
60084,46.243385,-0.431146,93.64,25.67,13.936001,33.0,0 / 20,2987609,2019-08-12 11:14:30:099,-0.5385,0.0188,9.7544,-0.4385,0.1372,9.7959,-0.0057,0.0078,0.0004
60085,46.243385,-0.431146,93.64,25.67,13.936001,33.0,0 / 20,2987708,2019-08-12 11:14:30:198,-0.3212,-0.0513,10.1279,-0.441,0.129,9.7959,-0.0046,0.0035,-0.0017
60086,46.243385,-0.431146,93.64,25.67,13.936001,33.0,0 / 20,2987809,2019-08-12 11:14:30:299,-0.4775,-0.1267,9.5797,-0.4377,0.0865,9.7965,0.0018,0.0035,-0.0028
60087,46.243385,-0.431146,93.64,25.67,13.936001,33.0,0 / 20,2987908,2019-08-12 11:14:30:398,-0.3697,-0.062,10.1489,-0.4305,0.0536,9.7971,-0.0004,-0.005,-0.0017
60088,46.243385,-0.431146,93.64,25.67,13.936001,33.0,0 / 20,2988009,2019-08-12 11:14:30:499,-0.3637,-0.1416,9.682,-0.4312,0.0293,9.7971,0.0018,0.0024,-0.0028
60089,46.243385,-0.431146,93.64,25.67,13.936001,33.0,0 / 20,2988108,2019-08-12 11:14:30:598,-0.5086,-0.004,9.8622,-0.4206,0.003,9.7976,0.0018,0.0014,-0.0028
60090,46.243385,-0.431146,93.64,25.67,13.936001,33.0,0 / 20,2988209,2019-08-12 11:14:30:699,-0.2853,0.1068,10.426,-0.4183,-0.0121,9.7977,-0.0014,-0.0114,-0.0038
60091,46.243385,-0.431146,93.64,25.67,13.936001,33.0,0 / 20,2988308,2019-08-12 11:14:30:798,-0.3338,-0.2799,9.6563,-0.4153,-0.0234,9.7978,0.0007,-0.0061,-0.0049
60092,46.243385,-0.431146,93.64,25.67,13.936001,33.0,0 / 20,2988409,2019-08-12 11:14:30:899,-0.526,-0.0513,9.8622,-0.4212,-0.0288,9.7976,-0.0057,0.0078,-0.0028
60093,46.243385,-0.431146,93.64,25.67,13.936001,33.0,0 / 20,2988509,2019-08-12 11:14:30:999,-0.3578,-0.162,9.8304,-0.4238,-0.0306,9.7974,-0.0004,0.0014,-0.0028
60094,46.243385,-0.431146,93.64,25.67,13.936001,33.0,0 / 20,2988608,2019-08-12 11:14:31:098,-0.5451,-0.0022,9.281,-0.4179,-0.0545,9.7976,0.0018,0.0014,-0.0017
60095,46.243385,-0.431146,93.64,25.67,13.936001,33.0,0 / 20,2989024,2019-08-12 11:14:31:514,-0.4601,0.026,9.5653,-0.4225,-0.0554,9.7974,-0.0014,0.0099,-0.0017
60096,46.243385,-0.431146,93.64,25.67,13.936001,33.0,0 / 20,2989025,2019-08-12 11:14:31:515,-0.4601,0.026,9.5653,-0.4225,-0.0554,9.7974,-0.0014,0.0099,-0.0017
60097,46.243385,-0.431146,93.64,25.67,13.936001,33.0,0 / 20,2989026,2019-08-12 11:14:31:516,-0.4601,0.026,9.5653,-0.4225,-0.0554,9.7974,-0.0014,0.0099,-0.0017
60098,46.243385,-0.431146,93.64,25.67,13.936001,33.0,0 / 20,2989026,2019-08-12 11:14:31:516,-0.4601,0.026,9.5653,-0.4225,-0.0554,9.7974,-0.0014,0.0099,-0.0017
60099,46.243385,-0.431146,93.64,25.67,13.936001,33.0,0 / 20,2989027,2019-08-12 11:14:31:517,-0.4601,0.026,9.5653,-0.4225,-0.0554,9.7974,-0.0014,0.0099,-0.0017
60100,46.243385,-0.431146,93.64,25.67,13.936001,33.0,0 / 20,2989031,2019-08-12 11:14:31:521,-0.4601,0.026,9.5653,-0.4225,-0.0554,9.7974,-0.0014,0.0099,-0.0017
60101,46.243385,-0.431146,93.64,25.67,13.936001,33.0,0 / 20,2989032,2019-08-12 11:14:31:522,-0.4601,0.026,9.5653,-0.4225,-0.0554,9.7974,-0.0014,0.0099,-0.0017
60102,46.243385,-0.431146,93.64,25.67,13.936001,33.0,0 / 20,2989033,2019-08-12 11:14:31:523,-0.4601,0.026,9.5653,-0.4225,-0.0554,9.7974,-0.0014,0.0099,-0.0017
60103,46.243385,-0.431146,93.64,25.67,13.936001,33.0,0 / 20,2989037,2019-08-12 11:14:31:527,-0.4601,0.026,9.5653,-0.4225,-0.0554,9.7974,-0.0014,0.0099,-0.0017
60104,46.243385,-0.431146,93.64,25.67,13.936001,33.0,0 / 20,2989040,2019-08-12 11:14:31:530,-0.4601,0.026,9.5653,-0.4225,-0.0554,9.7974,-0.0014,0.0099,-0.0017
60105,46.243385,-0.431146,93.64,25.67,13.936001,33.0,0 / 20,2989042,2019-08-12 11:14:31:532,-0.4601,0.026,9.5653,-0.4225,-0.0554,9.7974,-0.0014,0.0099,-0.0017
60106,46.243385,-0.431146,93.64,25.67,13.936001,33.0,0 / 20,2989044,2019-08-12 11:14:31:534,-0.4601,0.026,9.5653,-0.4225,-0.0554,9.7974,-0.0014,0.0099,-0.0017
60107,46.243385,-0.431146,93.64,25.67,13.936001,33.0,0 / 20,2989046,2019-08-12 11:14:31:536,-0.4601,0.026,9.5653,-0.4225,-0.0554,9.7974,-0.0014,0.0099,-0.0017
60108,46.243385,-0.431146,93.64,25.67,13.936001,33.0,0 / 20,2989047,2019-08-12 11:14:31:537,-0.4601,0.026,9.5653,-0.4225,-0.0554,9.7974,-0.0014,0.0099,-0.0017
60109,46.243385,-0.431146,93.64,25.67,13.936001,33.0,0 / 20,2989047,2019-08-12 11:14:31:537,-0.4601,0.026,9.5653,-0.4225,-0.0554,9.7974,-0.0014,0.0099,-0.0017
60110,46.243385,-0.431146,93.64,25.67,13.936001,33.0,0 / 20,2989048,2019-08-12 11:14:31:538,-0.4601,0.026,9.5653,-0.4225,-0.0554,9.7974,-0.0014,0.0099,-0.0017
60111,46.243385,-0.431146,93.64,25.67,13.936001,33.0,0 / 20,2989048,2019-08-12 11:14:31:538,-0.4601,0.026,9.5653,-0.4225,-0.0554,9.7974,-0.0014,0.0099,-0.0017
60112,46.243385,-0.431146,93.64,25.67,13.936001,33.0,0 / 20,2989049,2019-08-12 11:14:31:539,-0.4601,0.026,9.5653,-0.4225,-0.0554,9.7974,-0.0014,0.0099,-0.0017
60113,46.243385,-0.431146,93.64,25.67,13.936001,33.0,0 / 20,2989050,2019-08-12 11:14:31:540,-0.4601,0.026,9.5653,-0.4225,-0.0554,9.7974,-0.0014,0.0099,-0.0017
60114,46.243385,-0.431146,93.64,25.67,13.936001,33.0,0 / 20,2989051,2019-08-12 11:14:31:541,-0.4601,0.026,9.5653,-0.4225,-0.0554,9.7974,-0.0014,0.0099,-0.0017
60115,46.243385,-0.431146,93.64,25.67,13.936001,33.0,0 / 20,2989051,2019-08-12 11:14:31:541,-0.4601,0.026,9.5653,-0.4225,-0.0554,9.7974,-0.0014,0.0099,-0.0017
60116,46.243385,-0.431146,93.64,25.67,13.936001,33.0,0 / 20,2989052,2019-08-12 11:14:31:542,-0.4601,0.026,9.5653,-0.4225,-0.0554,9.7974,-0.0014,0.0099,-0.0017
60117,46.243385,-0.431146,93.64,25.67,13.936001,33.0,0 / 20,2989053,2019-08-12 11:14:31:543,-0.4601,0.026,9.5653,-0.4225,-0.0554,9.7974,-0.0014,0.0099,-0.0017
60118,46.243385,-0.431146,93.64,25.67,13.936001,33.0,0 / 20,2989053,2019-08-12 11:14:31:543,-0.4601,0.026,9.5653,-0.4225,-0.0554,9.7974,-0.0014,0.0099,-0.0017
60119,46.243385,-0.431146,93.64,25.67,13.936001,33.0,0 / 20,2989054,2019-08-12 11:14:31:544,-0.4601,0.026,9.5653,-0.4225,-0.0554,9.7974,-0.0014,0.0099,-0.0017
60120,46.243385,-0.431146,93.64,25.67,13.936001,33.0,0 / 20,2989054,2019-08-12 11:14:31:544,-0.4601,0.026,9.5653,-0.4225,-0.0554,9.7974,-0.0014,0.0099,-0.0017
60121,46.243385,-0.431146,93.64,25.67,13.936001,33.0,0 / 20,2989055,2019-08-12 11:14:31:545,-0.4601,0.026,9.5653,-0.4225,-0.0554,9.7974,-0.0014,0.0099,-0.0017
60122,46.243385,-0.431146,93.64,25.67,13.936001,33.0,0 / 20,2989056,2019-08-12 11:14:31:546,-0.4601,0.026,9.5653,-0.4225,-0.0554,9.7974,-0.0014,0.0099,-0.0017
60123,46.243385,-0.431146,93.64,25.67,13.936001,33.0,0 / 20,2989079,2019-08-12 11:14:31:569,-0.4601,0.026,9.5653,-0.4225,-0.0554,9.7974,-0.0014,0.0099,-0.0017
60124,46.243385,-0.431146,93.64,25.67,13.936001,33.0,0 / 20,2989180,2019-08-12 11:14:31:670,-0.4601,0.026,9.5653,-0.4225,-0.0554,9.7974,-0.0014,0.0099,-0.0017
60125,46.243385,-0.431146,93.64,25.67,13.936001,33.0,0 / 20,2989280,2019-08-12 11:14:31:770,-0.3314,-0.0896,9.7951,-0.2642,0.1542,9.8019,-0.0099,-0.004,-0.0007
60126,46.243385,-0.431146,93.64,25.67,13.936001,33.0,0 / 20,2989380,2019-08-12 11:14:31:870,-0.1435,0.0134,10.6367,-0.226,0.1144,9.8034,0.0007,-0.0029,-0.0049
60127,46.243385,-0.431146,93.64,25.67,13.936001,33.0,0 / 20,2989480,2019-08-12 11:14:31:970,-0.1459,0.0475,9.9017,-0.2073,0.0605,9.8043,-0.0057,0.0109,-0.0038
60128,46.243385,-0.431146,93.64,25.67,13.936001,33.0,0 / 20,2989580,2019-08-12 11:14:32:070,-0.0196,-0.1183,9.7065,-0.1955,0.0294,9.8047,-0.0004,0.0046,-0.0049
60129,46.243385,-0.431146,93.64,25.67,13.936001,33.0,0 / 20,2989680,2019-08-12 11:14:32:170,-0.1752,-0.1686,9.8939,-0.1746,0.0105,9.8051,-0.0036,-0.0093,-0.0038
60130,46.243385,-0.431146,93.64,25.67,13.936001,33.0,0 / 20,2989781,2019-08-12 11:14:32:271,-0.0836,0.157,9.5802,-0.1693,0.0043,9.8052,-0.0057,-0.005,-0.0028
60131,46.243385,-0.431146,93.64,25.67,13.936001,33.0,0 / 20,2989880,2019-08-12 11:14:32:370,0.0421,-0.0932,9.861,-0.1407,-0.0184,9.8056,0.0082,-0.004,-0.0038
60132,46.243385,-0.431146,93.64,25.67,13.936001,33.0,0 / 20,2989981,2019-08-12 11:14:32:471,-0.3201,-0.1859,10.2674,-0.132,-0.0419,9.8057,0.0082,-0.0029,-0.0038
60133,46.243385,-0.431146,93.64,25.67,13.936001,33.0,0 / 20,2990080,2019-08-12 11:14:32:570,0.1779,0.0559,9.7401,-0.1212,-0.041,9.8058,0.0039,-0.0008,-0.0028
60134,46.243385,-0.431146,93.64,25.67,13.936001,33.0,0 / 20,2990181,2019-08-12 11:14:32:671,-0.1584,-0.0902,9.8251,-0.1092,-0.0474,9.8059,0.006,0.0035,-0.0017
60135,46.243385,-0.431146,93.64,25.67,13.936001,33.0,0 / 20,2990280,2019-08-12 11:14:32:770,-0.0675,0.1157,9.8478,-0.1089,-0.0435,9.8059,-0.0004,0.0035,-0.0028
60136,46.243385,-0.431146,93.64,25.67,13.936001,33.0,0 / 20,2990380,2019-08-12 11:14:32:870,-0.1489,-0.095,10.6163,-0.0951,-0.0404,9.8061,0.0028,-0.0018,-0.0028
60137,46.243385,-0.431146,93.64,25.67,13.936001,33.0,0 / 20,2990481,2019-08-12 11:14:32:971,-0.2033,-0.1626,9.6874,-0.1006,-0.0281,9.8061,0.005,0.0035,-0.0007
60138,46.243385,-0.431146,93.64,25.67,13.936001,33.0,0 / 20,2990580,2019-08-12 11:14:33:070,-0.0519,0.0062,9.3702,-0.0965,-0.0244,9.8061,0.006,0.0035,-0.0007
60139,46.243385,-0.431146,93.64,25.67,13.936001,33.0,0 / 20,2990681,2019-08-12 11:14:33:171,-0.3464,0.2666,9.8843,-0.0937,-0.0162,9.8062,0.0018,0.0035,0.0015
60140,46.243385,-0.431146,93.64,25.67,13.936001,33.0,0 / 20,2990779,2019-08-12 11:14:33:269,-0.1177,0.1852,9.8628,-0.0906,-0.0044,9.8062,0.0018,-0.0104,0.0121
60141,46.243385,-0.431146,93.64,25.67,13.936001,33.0,0 / 20,2990880,2019-08-12 11:14:33:370,-0.013,0.324,9.6114,-0.0813,0.007,9.8063,-0.0078,-0.005,0.0132
60142,46.243385,-0.431146,93.64,25.67,13.936001,33.0,0 / 20,2990980,2019-08-12 11:14:33:470,-0.095,0.4689,9.533,-0.0784,0.0554,9.8062,-0.0004,0.0003,0.0143
60143,46.243385,-0.431146,93.64,25.67,13.936001,33.0,0 / 20,2991081,2019-08-12 11:14:33:571,-0.0746,0.4545,9.5467,-0.0872,0.1164,9.8056,-0.0036,0.0067,0.0132
60144,46.243385,-0.431146,93.64,25.67,13.936001,33.0,Nov-19,2991180,2019-08-12 11:14:33:670,-0.086,0.2097,9.8795,-0.071,0.1591,9.8051,-0.0078,-0.005,0.0089
60145,46.243385,-0.431146,93.64,25.67,13.936001,33.0,Nov-19,2991280,2019-08-12 11:14:33:770,-0.1764,0.3252,9.4468,-0.0764,0.1784,9.8047,-0.0068,0.0003,0.0057
60146,46.243385,-0.431146,93.64,25.67,13.936001,33.0,Nov-19,2991380,2019-08-12 11:14:33:870,0.2211,0.2235,9.3899,-0.0774,0.1782,9.8047,-0.011,0.0035,0.0068
60147,46.243385,-0.431146,93.64,25.67,13.936001,33.0,Nov-19,2991480,2019-08-12 11:14:33:970,-0.259,0.1205,9.6521,-0.0784,0.1705,9.8049,-0.0036,0.0003,0.0047
60148,46.243385,-0.431146,93.64,25.67,13.936001,33.0,Nov-19,2991579,2019-08-12 11:14:34:069,-0.1351,0.1888,9.7754,-0.0874,0.1524,9.8051,0.0007,0.0024,0.0025
60149,46.243385,-0.431146,93.64,25.67,13.936001,33.0,Nov-19,2991681,2019-08-12 11:14:34:171,0.072,0.1062,9.6198,-0.0938,0.1404,9.8052,-0.0068,0.0099,0.0036
60150,46.243385,-0.431146,93.64,25.67,13.936001,33.0,Nov-19,2991780,2019-08-12 11:14:34:270,-0.1321,0.1463,10.2925,-0.0968,0.1313,9.8053,-0.0025,-0.0061,0.0025
60151,46.243385,-0.431146,93.64,25.67,13.936001,33.0,Nov-19,2991880,2019-08-12 11:14:34:370,-0.0561,0.0978,10.1974,-0.0932,0.1253,9.8054,-0.0036,-0.005,0.0004
60152,46.243385,-0.431146,93.64,25.67,13.936001,33.0,Nov-19,2991980,2019-08-12 11:14:34:470,-0.1022,0.0559,9.6928,-0.1095,0.096,9.8056,0.0039,0.0024,0.0004
60153,46.243385,-0.431146,93.64,25.67,13.936001,33.0,Nov-19,2992080,2019-08-12 11:14:34:570,-0.408,0.0062,9.6353,-0.1396,0.0808,9.8053,-0.0014,0.0067,0.0004
60154,46.245224,-0.429476,101.44,25.22,9.648001,31.8,0 / 20,2992180,2019-08-12 11:14:34:670,-0.4068,0.02,9.8694,-0.1569,0.0792,9.8051,0.0018,0.0024,0.0004
60155,46.245224,-0.429476,101.44,25.22,9.648001,31.8,0 / 20,2992280,2019-08-12 11:14:34:770,-0.3135,0.017,9.7191,-0.1871,0.0759,9.8046,0.0039,0.0003,-0.0007
60156,46.245224,-0.429476,101.44,25.22,9.648001,31.8,0 / 20,2992380,2019-08-12 11:14:34:870,-0.3398,-0.1602,9.6916,-0.243,0.0408,9.8036,-0.0036,-0.0029,-0.0007
60157,46.245224,-0.429476,101.44,25.22,9.648001,31.8,0 / 20,2992480,2019-08-12 11:14:34:970,-0.4834,0.1068,9.6335,-0.2741,0.0335,9.8028,0.0018,-0.005,-0.0017
60158,46.245224,-0.429476,101.44,25.22,9.648001,31.8,0 / 20,2992579,2019-08-12 11:14:35:069,-0.3913,0.0056,9.8951,-0.3106,0.0276,9.8017,0.0039,-0.0008,-0.0017
60159,46.245224,-0.429476,101.44,25.22,9.648001,31.8,0 / 20,2992681,2019-08-12 11:14:35:171,-0.411,0.0194,9.8035,-0.3307,0.0181,9.8011,-0.0004,0.0024,-0.0007
60160,46.245224,-0.429476,101.44,25.22,9.648001,31.8,0 / 20,2992780,2019-08-12 11:14:35:270,-0.4948,0.0343,9.594,-0.345,0.0163,9.8006,0.0028,0.0046,0.0004
60161,46.245224,-0.429476,101.44,25.22,9.648001,31.8,0 / 20,2992880,2019-08-12 11:14:35:370,-0.183,-0.0573,10.2949,-0.3557,0.0187,9.8002,0.0018,0.0056,0.0015
60162,46.245224,-0.429476,101.44,25.22,9.648001,31.8,0 / 20,2992982,2019-08-12 11:14:35:472,-0.5637,0.1343,9.3947,-0.3977,0.0337,9.7985,0.0028,0.0046,0.0025
60163,46.245224,-0.429476,101.44,25.22,9.648001,31.8,0 / 20,2993080,2019-08-12 11:14:35:570,-0.4188,0.1109,9.8424,-0.4166,0.028,9.7978,-0.0014,-0.0018,0.0015
60164,46.245224,-0.429476,101.44,25.22,9.648001,31.8,0 / 20,2993180,2019-08-12 11:14:35:670,-0.6475,-0.0339,9.527,-0.4408,0.0389,9.7967,-0.0014,-0.004,0.0004
60165,46.245224,-0.429476,101.44,25.22,9.648001,31.8,0 / 20,2993280,2019-08-12 11:14:35:770,-0.5744,0.0152,9.5396,-0.4278,0.0316,9.7973,-0.0025,-0.0018,-0.0007
60166,46.245224,-0.429476,101.44,25.22,9.648001,31.8,0 / 20,2993380,2019-08-12 11:14:35:870,-0.2003,0.0212,10.2818,-0.4185,0.0215,9.7977,-0.0089,-0.0061,-0.0017
60167,46.245224,-0.429476,101.44,25.22,9.648001,31.8,0 / 20,2993480,2019-08-12 11:14:35:970,-0.5774,-0.1021,9.8424,-0.4089,0.016,9.7981,-0.0014,-0.0061,-0.0028
60168,46.245224,-0.429476,101.44,25.22,9.648001,31.8,0 / 20,2993580,2019-08-12 11:14:36:070,-0.3009,-0.3212,9.9783,-0.4104,0.0064,9.7981,-0.0025,0.0067,-0.0038
60169,46.245224,-0.429476,101.44,25.22,9.648001,31.8,0 / 20,2993932,2019-08-12 11:14:36:422,-0.3009,-0.3212,9.9783,-0.4104,0.0064,9.7981,-0.0025,0.0067,-0.0038
60170,46.245224,-0.429476,101.44,25.22,9.648001,31.8,0 / 20,2993932,2019-08-12 11:14:36:422,-0.3009,-0.3212,9.9783,-0.4104,0.0064,9.7981,-0.0025,0.0067,-0.0038
60171,46.245224,-0.429476,101.44,25.22,9.648001,31.8,0 / 20,2993933,2019-08-12 11:14:36:423,-0.3009,-0.3212,9.9783,-0.4104,0.0064,9.7981,-0.0025,0.0067,-0.0038
60172,46.245224,-0.429476,101.44,25.22,9.648001,31.8,0 / 20,2993950,2019-08-12 11:14:36:440,-0.3009,-0.3212,9.9783,-0.4104,0.0064,9.7981,-0.0025,0.0067,-0.0038
60173,46.245224,-0.429476,101.44,25.22,9.648001,31.8,0 / 20,2994050,2019-08-12 11:14:36:540,-0.3009,-0.3212,9.9783,-0.4104,0.0064,9.7981,-0.0025,0.0067,-0.0038
60174,46.245224,-0.429476,101.44,25.22,9.648001,31.8,0 / 20,2994470,2019-08-12 11:14:36:960,-0.4356,0.1002,10.2153,-0.3378,-0.0416,9.8007,0.0018,-0.0018,-0.0049
60175,46.245224,-0.429476,101.44,25.22,9.648001,31.8,0 / 20,2994471,2019-08-12 11:14:36:961,-0.4356,0.1002,10.2153,-0.3378,-0.0416,9.8007,0.0018,-0.0018,-0.0049
60176,46.245224,-0.429476,101.44,25.22,9.648001,31.8,0 / 20,2994471,2019-08-12 11:14:36:961,-0.4356,0.1002,10.2153,-0.3378,-0.0416,9.8007,0.0018,-0.0018,-0.0049
60177,46.245224,-0.429476,101.44,25.22,9.648001,31.8,0 / 20,2994472,2019-08-12 11:14:36:962,-0.4356,0.1002,10.2153,-0.3378,-0.0416,9.8007,0.0018,-0.0018,-0.0049
60178,46.245224,-0.429476,101.44,25.22,9.648001,31.8,0 / 20,2994549,2019-08-12 11:14:37:039,-0.4356,0.1002,10.2153,-0.3378,-0.0416,9.8007,0.0018,-0.0018,-0.0049
60179,46.245224,-0.429476,101.44,25.22,9.648001,31.8,0 / 20,2994649,2019-08-12 11:14:37:139,-0.4356,0.1002,10.2153,-0.3378,-0.0416,9.8007,0.0018,-0.0018,-0.0049
60180,46.245224,-0.429476,101.44,25.22,9.648001,31.8,0 / 20,2995041,2019-08-12 11:14:37:531,-0.332,-0.1578,9.1547,-0.274,-0.0414,9.8027,0.0007,0.0014,-0.0038
60181,46.245224,-0.429476,101.44,25.22,9.648001,31.8,0 / 20,2995042,2019-08-12 11:14:37:532,-0.332,-0.1578,9.1547,-0.274,-0.0414,9.8027,0.0007,0.0014,-0.0038
60182,46.245224,-0.429476,101.44,25.22,9.648001,31.8,0 / 20,2995043,2019-08-12 11:14:37:533,-0.332,-0.1578,9.1547,-0.274,-0.0414,9.8027,0.0007,0.0014,-0.0038
60183,46.245224,-0.429476,101.44,25.22,9.648001,31.8,0 / 20,2995043,2019-08-12 11:14:37:533,-0.332,-0.1578,9.1547,-0.274,-0.0414,9.8027,0.0007,0.0014,-0.0038
60184,46.245224,-0.429476,101.44,25.22,9.648001,31.8,0 / 20,2995043,2019-08-12 11:14:37:533,-0.332,-0.1578,9.1547,-0.274,-0.0414,9.8027,0.0007,0.0014,-0.0038
60185,46.245224,-0.429476,101.44,25.22,9.648001,31.8,0 / 20,2995044,2019-08-12 11:14:37:534,-0.332,-0.1578,9.1547,-0.274,-0.0414,9.8027,0.0007,0.0014,-0.0038
60186,46.245224,-0.429476,101.44,25.22,9.648001,31.8,0 / 20,2995044,2019-08-12 11:14:37:534,-0.332,-0.1578,9.1547,-0.274,-0.0414,9.8027,0.0007,0.0014,-0.0038
60187,46.245224,-0.429476,101.44,25.22,9.648001,31.8,0 / 20,2995044,2019-08-12 11:14:37:534,-0.332,-0.1578,9.1547,-0.274,-0.0414,9.8027,0.0007,0.0014,-0.0038
60188,46.245224,-0.429476,101.44,25.22,9.648001,31.8,0 / 20,2995045,2019-08-12 11:14:37:535,-0.332,-0.1578,9.1547,-0.274,-0.0414,9.8027,0.0007,0.0014,-0.0038
60189,46.245224,-0.429476,101.44,25.22,9.648001,31.8,0 / 20,2995045,2019-08-12 11:14:37:535,-0.332,-0.1578,9.1547,-0.274,-0.0414,9.8027,0.0007,0.0014,-0.0038
60190,46.245224,-0.429476,101.44,25.22,9.648001,31.8,0 / 20,2995046,2019-08-12 11:14:37:536,-0.332,-0.1578,9.1547,-0.274,-0.0414,9.8027,0.0007,0.0014,-0.0038
60191,46.245224,-0.429476,101.44,25.22,9.648001,31.8,0 / 20,2995047,2019-08-12 11:14:37:537,-0.332,-0.1578,9.1547,-0.274,-0.0414,9.8027,0.0007,0.0014,-0.0038
60192,46.245224,-0.429476,101.44,25.22,9.648001,31.8,0 / 20,2995047,2019-08-12 11:14:37:537,-0.332,-0.1578,9.1547,-0.274,-0.0414,9.8027,0.0007,0.0014,-0.0038
60193,46.245224,-0.429476,101.44,25.22,9.648001,31.8,0 / 20,2995047,2019-08-12 11:14:37:537,-0.332,-0.1578,9.1547,-0.274,-0.0414,9.8027,0.0007,0.0014,-0.0038
60194,46.245224,-0.429476,101.44,25.22,9.648001,31.8,0 / 20,2995048,2019-08-12 11:14:37:538,-0.332,-0.1578,9.1547,-0.274,-0.0414,9.8027,0.0007,0.0014,-0.0038
60195,46.245224,-0.429476,101.44,25.22,9.648001,31.8,0 / 20,2995048,2019-08-12 11:14:37:538,-0.332,-0.1578,9.1547,-0.274,-0.0414,9.8027,0.0007,0.0014,-0.0038
60196,46.245224,-0.429476,101.44,25.22,9.648001,31.8,0 / 20,2995048,2019-08-12 11:14:37:538,-0.332,-0.1578,9.1547,-0.274,-0.0414,9.8027,0.0007,0.0014,-0.0038
60197,46.245224,-0.429476,101.44,25.22,9.648001,31.8,0 / 20,2995050,2019-08-12 11:14:37:540,-0.332,-0.1578,9.1547,-0.274,-0.0414,9.8027,0.0007,0.0014,-0.0038
60198,46.245224,-0.429476,101.44,25.22,9.648001,31.8,0 / 20,2995051,2019-08-12 11:14:37:541,-0.332,-0.1578,9.1547,-0.274,-0.0414,9.8027,0.0007,0.0014,-0.0038
60199,46.245224,-0.429476,101.44,25.22,9.648001,31.8,0 / 20,2995051,2019-08-12 11:14:37:541,-0.332,-0.1578,9.1547,-0.274,-0.0414,9.8027,0.0007,0.0014,-0.0038
60200,46.245224,-0.429476,101.44,25.22,9.648001,31.8,0 / 20,2995054,2019-08-12 11:14:37:544,-0.332,-0.1578,9.1547,-0.274,-0.0414,9.8027,0.0007,0.0014,-0.0038
60201,46.245224,-0.429476,101.44,25.22,9.648001,31.8,0 / 20,2995055,2019-08-12 11:14:37:545,-0.332,-0.1578,9.1547,-0.274,-0.0414,9.8027,0.0007,0.0014,-0.0038
60202,46.245224,-0.429476,101.44,25.22,9.648001,31.8,0 / 20,2995056,2019-08-12 11:14:37:546,-0.332,-0.1578,9.1547,-0.274,-0.0414,9.8027,0.0007,0.0014,-0.0038
60203,46.245224,-0.429476,101.44,25.22,9.648001,31.8,0 / 20,2995057,2019-08-12 11:14:37:547,-0.332,-0.1578,9.1547,-0.274,-0.0414,9.8027,0.0007,0.0014,-0.0038
60204,46.245224,-0.429476,101.44,25.22,9.648001,31.8,0 / 20,2995057,2019-08-12 11:14:37:547,-0.332,-0.1578,9.1547,-0.274,-0.0414,9.8027,0.0007,0.0014,-0.0038
60205,46.245224,-0.429476,101.44,25.22,9.648001,31.8,0 / 20,2995058,2019-08-12 11:14:37:548,-0.332,-0.1578,9.1547,-0.274,-0.0414,9.8027,0.0007,0.0014,-0.0038
60206,46.245224,-0.429476,101.44,25.22,9.648001,31.8,0 / 20,2995058,2019-08-12 11:14:37:548,-0.332,-0.1578,9.1547,-0.274,-0.0414,9.8027,0.0007,0.0014,-0.0038
60207,46.245224,-0.429476,101.44,25.22,9.648001,31.8,0 / 20,2995059,2019-08-12 11:14:37:549,-0.332,-0.1578,9.1547,-0.274,-0.0414,9.8027,0.0007,0.0014,-0.0038
60208,46.245224,-0.429476,101.44,25.22,9.648001,31.8,0 / 20,2995059,2019-08-12 11:14:37:549,-0.332,-0.1578,9.1547,-0.274,-0.0414,9.8027,0.0007,0.0014,-0.0038
60209,46.245224,-0.429476,101.44,25.22,9.648001,31.8,0 / 20,2995062,2019-08-12 11:14:37:552,-0.332,-0.1578,9.1547,-0.274,-0.0414,9.8027,0.0007,0.0014,-0.0038
60210,46.245224,-0.429476,101.44,25.22,9.648001,31.8,0 / 20,2995062,2019-08-12 11:14:37:552,-0.332,-0.1578,9.1547,-0.274,-0.0414,9.8027,0.0007,0.0014,-0.0038
60211,46.245224,-0.429476,101.44,25.22,9.648001,31.8,0 / 20,2995063,2019-08-12 11:14:37:553,-0.332,-0.1578,9.1547,-0.274,-0.0414,9.8027,0.0007,0.0014,-0.0038
60212,46.245224,-0.429476,101.44,25.22,9.648001,31.8,0 / 20,2995063,2019-08-12 11:14:37:553,-0.332,-0.1578,9.1547,-0.274,-0.0414,9.8027,0.0007,0.0014,-0.0038
60213,46.245224,-0.429476,101.44,25.22,9.648001,31.8,0 / 20,2995064,2019-08-12 11:14:37:554,-0.332,-0.1578,9.1547,-0.274,-0.0414,9.8027,0.0007,0.0014,-0.0038
60214,46.245224,-0.429476,101.44,25.22,9.648001,31.8,0 / 20,2995064,2019-08-12 11:14:37:554,-0.332,-0.1578,9.1547,-0.274,-0.0414,9.8027,0.0007,0.0014,-0.0038
60215,46.245224,-0.429476,101.44,25.22,9.648001,31.8,0 / 20,2995065,2019-08-12 11:14:37:555,-0.332,-0.1578,9.1547,-0.274,-0.0414,9.8027,0.0007,0.0014,-0.0038
60216,46.245224,-0.429476,101.44,25.22,9.648001,31.8,0 / 20,2995066,2019-08-12 11:14:37:556,-0.332,-0.1578,9.1547,-0.274,-0.0414,9.8027,0.0007,0.0014,-0.0038
60217,46.245224,-0.429476,101.44,25.22,9.648001,31.8,0 / 20,2995066,2019-08-12 11:14:37:556,-0.332,-0.1578,9.1547,-0.274,-0.0414,9.8027,0.0007,0.0014,-0.0038
60218,46.245224,-0.429476,101.44,25.22,9.648001,31.8,0 / 20,2995067,2019-08-12 11:14:37:557,-0.332,-0.1578,9.1547,-0.274,-0.0414,9.8027,0.0007,0.0014,-0.0038
60219,46.245224,-0.429476,101.44,25.22,9.648001,31.8,0 / 20,2995068,2019-08-12 11:14:37:558,-0.332,-0.1578,9.1547,-0.274,-0.0414,9.8027,0.0007,0.0014,-0.0038
60220,46.245224,-0.429476,101.44,25.22,9.648001,31.8,0 / 20,2995068,2019-08-12 11:14:37:558,-0.332,-0.1578,9.1547,-0.274,-0.0414,9.8027,0.0007,0.0014,-0.0038
60221,46.245224,-0.429476,101.44,25.22,9.648001,31.8,0 / 20,2995068,2019-08-12 11:14:37:558,-0.332,-0.1578,9.1547,-0.274,-0.0414,9.8027,0.0007,0.0014,-0.0038
60222,46.245224,-0.429476,101.44,25.22,9.648001,31.8,0 / 20,2995069,2019-08-12 11:14:37:559,-0.332,-0.1578,9.1547,-0.274,-0.0414,9.8027,0.0007,0.0014,-0.0038
60223,46.245224,-0.429476,101.44,25.22,9.648001,31.8,0 / 20,2995069,2019-08-12 11:14:37:559,-0.332,-0.1578,9.1547,-0.274,-0.0414,9.8027,0.0007,0.0014,-0.0038
60224,46.245224,-0.429476,101.44,25.22,9.648001,31.8,0 / 20,2995069,2019-08-12 11:14:37:559,-0.332,-0.1578,9.1547,-0.274,-0.0414,9.8027,0.0007,0.0014,-0.0038
60225,46.245224,-0.429476,101.44,25.22,9.648001,31.8,0 / 20,2995116,2019-08-12 11:14:37:606,-0.332,-0.1578,9.1547,-0.274,-0.0414,9.8027,0.0007,0.0014,-0.0038
60226,46.245224,-0.429476,101.44,25.22,9.648001,31.8,Nov-19,2995513,2019-08-12 11:14:38:003,-0.332,-0.1578,9.1547,-0.274,-0.0414,9.8027,0.0007,0.0014,-0.0038
60227,46.245224,-0.429476,101.44,25.22,9.648001,31.8,Nov-19,2995513,2019-08-12 11:14:38:003,-0.332,-0.1578,9.1547,-0.274,-0.0414,9.8027,0.0007,0.0014,-0.0038
60228,46.245224,-0.429476,101.44,25.22,9.648001,31.8,Nov-19,2995514,2019-08-12 11:14:38:004,-0.332,-0.1578,9.1547,-0.274,-0.0414,9.8027,0.0007,0.0014,-0.0038
60229,46.245224,-0.429476,101.44,25.22,9.648001,31.8,Nov-19,2995515,2019-08-12 11:14:38:005,-0.332,-0.1578,9.1547,-0.274,-0.0414,9.8027,0.0007,0.0014,-0.0038
60230,46.245224,-0.429476,101.44,25.22,9.648001,31.8,Nov-19,2995516,2019-08-12 11:14:38:006,-0.332,-0.1578,9.1547,-0.274,-0.0414,9.8027,0.0007,0.0014,-0.0038
60231,46.245224,-0.429476,101.44,25.22,9.648001,31.8,Nov-19,2995516,2019-08-12 11:14:38:006,-0.332,-0.1578,9.1547,-0.274,-0.0414,9.8027,0.0007,0.0014,-0.0038
60232,46.245224,-0.429476,101.44,25.22,9.648001,31.8,Nov-19,2995517,2019-08-12 11:14:38:007,-0.332,-0.1578,9.1547,-0.274,-0.0414,9.8027,0.0007,0.0014,-0.0038
60233,46.245224,-0.429476,101.44,25.22,9.648001,31.8,Nov-19,2995517,2019-08-12 11:14:38:007,-0.332,-0.1578,9.1547,-0.274,-0.0414,9.8027,0.0007,0.0014,-0.0038
60234,46.245224,-0.429476,101.44,25.22,9.648001,31.8,Nov-19,2995519,2019-08-12 11:14:38:009,-0.332,-0.1578,9.1547,-0.274,-0.0414,9.8027,0.0007,0.0014,-0.0038
60235,46.245224,-0.429476,101.44,25.22,9.648001,31.8,Nov-19,2995574,2019-08-12 11:14:38:064,-0.332,-0.1578,9.1547,-0.274,-0.0414,9.8027,0.0007,0.0014,-0.0038
60236,46.245224,-0.429476,101.44,25.22,9.648001,31.8,Nov-19,2995994,2019-08-12 11:14:38:484,-0.332,-0.1578,9.1547,-0.274,-0.0414,9.8027,0.0007,0.0014,-0.0038
60237,46.245224,-0.429476,101.44,25.22,9.648001,31.8,Nov-19,2995994,2019-08-12 11:14:38:484,-0.332,-0.1578,9.1547,-0.274,-0.0414,9.8027,0.0007,0.0014,-0.0038
60238,46.245224,-0.429476,101.44,25.22,9.648001,31.8,Nov-19,2995995,2019-08-12 11:14:38:485,-0.332,-0.1578,9.1547,-0.274,-0.0414,9.8027,0.0007,0.0014,-0.0038
60239,46.245224,-0.429476,101.44,25.22,9.648001,31.8,Nov-19,2995995,2019-08-12 11:14:38:485,-0.332,-0.1578,9.1547,-0.274,-0.0414,9.8027,0.0007,0.0014,-0.0038
60240,46.245224,-0.429476,101.44,25.22,9.648001,31.8,Nov-19,2995996,2019-08-12 11:14:38:486,-0.332,-0.1578,9.1547,-0.274,-0.0414,9.8027,0.0007,0.0014,-0.0038
60241,46.245224,-0.429476,101.44,25.22,9.648001,31.8,Nov-19,2995996,2019-08-12 11:14:38:486,-0.332,-0.1578,9.1547,-0.274,-0.0414,9.8027,0.0007,0.0014,-0.0038
60242,46.245224,-0.429476,101.44,25.22,9.648001,31.8,Nov-19,2995996,2019-08-12 11:14:38:486,-0.332,-0.1578,9.1547,-0.274,-0.0414,9.8027,0.0007,0.0014,-0.0038
60243,46.245224,-0.429476,101.44,25.22,9.648001,31.8,Nov-19,2995998,2019-08-12 11:14:38:488,-0.332,-0.1578,9.1547,-0.274,-0.0414,9.8027,0.0007,0.0014,-0.0038
60244,46.245224,-0.429476,101.44,25.22,9.648001,31.8,Nov-19,2995999,2019-08-12 11:14:38:489,-0.332,-0.1578,9.1547,-0.274,-0.0414,9.8027,0.0007,0.0014,-0.0038
60245,46.245224,-0.429476,101.44,25.22,9.648001,31.8,Nov-19,2995999,2019-08-12 11:14:38:489,-0.332,-0.1578,9.1547,-0.274,-0.0414,9.8027,0.0007,0.0014,-0.0038
60246,46.245224,-0.429476,101.44,25.22,9.648001,31.8,Nov-19,2996001,2019-08-12 11:14:38:491,-0.332,-0.1578,9.1547,-0.274,-0.0414,9.8027,0.0007,0.0014,-0.0038
60247,46.245224,-0.429476,101.44,25.22,9.648001,31.8,Nov-19,2996002,2019-08-12 11:14:38:492,-0.332,-0.1578,9.1547,-0.274,-0.0414,9.8027,0.0007,0.0014,-0.0038
60248,46.245224,-0.429476,101.44,25.22,9.648001,31.8,Nov-19,2996003,2019-08-12 11:14:38:493,-0.332,-0.1578,9.1547,-0.274,-0.0414,9.8027,0.0007,0.0014,-0.0038
60249,46.245224,-0.429476,101.44,25.22,9.648001,31.8,Nov-19,2996003,2019-08-12 11:14:38:493,-0.332,-0.1578,9.1547,-0.274,-0.0414,9.8027,0.0007,0.0014,-0.0038
60250,46.245224,-0.429476,101.44,25.22,9.648001,31.8,Nov-19,2996004,2019-08-12 11:14:38:494,-0.332,-0.1578,9.1547,-0.274,-0.0414,9.8027,0.0007,0.0014,-0.0038
