,GPS LATITUDE (degrees), GPS LONGITUDE (degrees), GPS ALTITUDE (m), GPS SPEED (Kmh), GPS ACCURACY (m), GPS ORIENTATION (Â°),GPS SATELLITES IN RANGE, TIME SINCE START (ms), DATE (YYYY-MO-DD HH-MI-SS_SSS), ACCELEROMETER X (m/s²) , ACCELEROMETER Y (m/s²), ACCELEROMETER Z (m/s²), GRAVITY X (m/s²), GRAVITY Y (m/s²), GRAVITY Z (m/s²), GYROSCOPE Yaw (rad/s), GYROSCOPE Pitch (rad/s), GYROSCOPE Roll (rad/s), MAGNETIC FIELD X (Î¼T), MAGNETIC FIELD Y (Î¼T), MAGNETIC FIELD Z (Î¼T), ORIENTATION (Yaw) (Â°), ORIENTATION (Pitch) (Â°), ORIENTATION (Roll ) (Â°)
78155,51.00968,-3.069062,66,21.05,9,204.0,13 / 21,7815872,2019-08-16 14:59:29:652,-0.8984,-0.1359,9.9592,0.0158,0.0221,9.8066,-0.0117,0.0325,0.0016,-20.6,19.8,-9.13,221.89,9.03,0.63
78156,51.00968,-3.069062,66,21.05,9,204.0,13 / 21,7815973,2019-08-16 14:59:29:753,0.2964,0.2068,10.191,0.0449,0.0233,9.8065,0.0022,-0.0527,-0.0186,-20.84,19.19,-9.87,220.18,9.19,0.67
78157,51.00968,-3.069062,66,21.05,9,204.0,13 / 21,7816073,2019-08-16 14:59:29:853,0.4865,0.201,10.1107,0.0413,0.0247,9.8065,0.0171,0.0027,-0.0069,-20.4,20.5,-8.0,223.37,9.46,0.62
78158,51.00968,-3.069062,66,21.05,9,204.0,13 / 21,7816173,2019-08-16 14:59:29:953,0.197,-0.6321,9.0977,-0.0248,-0.0192,9.8066,0.0288,0.0091,0.0208,-20.4,20.5,-8.0,223.37,9.46,0.62
78159,51.00968,-3.069062,66,21.05,9,204.0,13 / 21,7816272,2019-08-16 14:59:30:052,0.1744,-0.0312,10.9533,-0.057,-0.0305,9.8064,-0.0096,0.0304,0.0005,-20.55,20.65,-7.16,223.7,9.1,0.72
78160,51.00968,-3.069062,66,21.05,9,204.0,13 / 21,7816372,2019-08-16 14:59:30:152,-0.1166,-0.1125,10.0004,-0.0183,-0.001,9.8066,-0.0096,0.0304,0.0005,-20.55,20.65,-7.16,223.7,9.1,0.72
78161,51.00968,-3.069062,66,21.05,9,204.0,13 / 21,7816472,2019-08-16 14:59:30:252,0.1721,-0.0779,9.9308,0.0017,0.0205,9.8066,-0.017,0.0368,0.0133,-21.01,20.23,-7.01,222.29,9.02,0.79
78162,51.00968,-3.069062,66,21.05,9,204.0,13 / 21,7816573,2019-08-16 14:59:30:353,-0.2398,-0.0744,10.2652,0.0217,0.0334,9.8066,0.0053,-0.0133,0.0027,-21.27,19.59,-7.99,222.02,9.24,0.85
78163,51.00968,-3.069062,66,21.05,9,204.0,13 / 21,7816673,2019-08-16 14:59:30:453,-0.3069,-0.0946,9.476,0.0014,-0.0077,9.8066,-0.0053,0.008,0.0027,-21.43,19.74,-7.15,222.23,9.44,0.88
78164,51.009514,-3.069187,65,21.02,9,203.9,13 / 21,7816773,2019-08-16 14:59:30:553,0.2789,-0.2415,9.6847,-0.0222,-0.0329,9.8066,-0.0223,0.0719,0.0208,-21.43,19.74,-7.15,222.23,9.44,0.88
78165,51.009514,-3.069187,65,21.02,9,203.9,13 / 21,7816873,2019-08-16 14:59:30:653,-0.0874,0.1214,10.5926,-0.0272,-0.006,9.8066,0.0107,0.0421,0.0123,-21.86,19.21,-7.3,219.55,9.22,0.82
78166,51.009514,-3.069187,65,21.02,9,203.9,13 / 21,7816973,2019-08-16 14:59:30:753,-0.442,-0.3191,9.8532,-0.0396,0.0129,9.8066,0.0043,-0.0154,-0.0048,-21.6,19.89,-6.15,219.55,9.22,0.82
78167,51.009514,-3.069187,65,21.02,9,203.9,13 / 21,7817074,2019-08-16 14:59:30:854,0.0949,-0.1746,9.6928,-0.0477,0.0228,9.8065,-0.001,-0.0367,-0.0123,-21.04,20.25,-6.87,222.2,9.09,1.11
78168,51.009514,-3.069187,65,21.02,9,203.9,13 / 21,7817173,2019-08-16 14:59:30:953,-0.0775,0.1028,10.8089,-0.0124,-0.0065,9.8066,-0.001,-0.0367,-0.0123,-21.41,19.64,-7.46,222.2,9.01,1.13
78169,51.009514,-3.069187,65,21.02,9,203.9,13 / 21,7817273,2019-08-16 14:59:31:053,-0.255,-0.3052,9.3647,0.0111,0.0138,9.8066,-0.0064,-0.0538,-0.0165,-21.41,19.64,-7.46,222.2,9.01,1.13
78170,51.009514,-3.069187,65,21.02,9,203.9,13 / 21,7817373,2019-08-16 14:59:31:153,0.1212,-0.3375,9.9222,0.0331,0.0083,9.8066,-0.0383,-0.0101,-0.0048,-21.62,19.91,-6.01,221.16,9.11,1.14
78171,51.009514,-3.069187,65,21.02,9,203.9,13 / 21,7817473,2019-08-16 14:59:31:253,0.3586,0.0705,9.5482,0.0632,-0.0054,9.8064,0.0043,0.0272,-0.0005,-22.07,19.28,-6.4,221.16,9.11,1.14
78172,51.009514,-3.069187,65,21.02,9,203.9,13 / 21,7817574,2019-08-16 14:59:31:354,0.1853,0.1221,10.6756,-0.0011,-0.0108,9.8066,0.0235,-0.0016,0.0091,-21.43,19.74,-7.15,222.26,9.31,0.8
78173,51.009514,-3.069187,65,21.02,9,203.9,13 / 21,7817673,2019-08-16 14:59:31:453,-0.0028,-0.4581,9.569,-0.0053,0.006,9.8066,0.0533,-0.0538,0.0005,-21.43,19.74,-7.15,222.26,9.31,0.8
78174,51.009342,-3.069297,64,20.78,9,203.7,13 / 21,7817772,2019-08-16 14:59:31:552,0.4275,-0.1427,9.2802,-0.0307,-0.0038,9.8066,0.0149,0.0187,0.0016,-21.44,19.67,-7.31,222.25,9.31,0.85
78175,51.009342,-3.069297,64,20.78,9,203.7,13 / 21,7817872,2019-08-16 14:59:31:652,-0.2408,-0.1422,10.248,-0.042,-0.0125,9.8066,-0.016,0.0251,0.0123,-21.07,19.4,-8.94,220.32,9.08,0.96
78176,51.009342,-3.069297,64,20.78,9,203.7,13 / 21,7817973,2019-08-16 14:59:31:753,0.1763,0.339,10.1673,0.0192,-0.0023,9.8066,-0.016,0.0251,0.0123,-21.07,19.4,-8.94,220.34,9.16,0.88
78177,51.009342,-3.069297,64,20.78,9,203.7,13 / 21,7818074,2019-08-16 14:59:31:854,-0.2431,-0.1489,9.9832,0.0163,0.0064,9.8066,-0.0096,-0.0335,0.0005,-21.07,19.4,-8.94,220.34,9.16,0.88
78178,51.009342,-3.069297,64,20.78,9,203.7,13 / 21,7818173,2019-08-16 14:59:31:953,-0.109,0.1487,10.308,0.0116,0.0061,9.8066,-0.0032,0.0165,0.0133,-21.47,18.75,-9.36,220.33,9.23,0.86
78179,51.009342,-3.069297,64,20.78,9,203.7,13 / 21,7818272,2019-08-16 14:59:32:052,0.0056,-0.0935,9.4601,-0.0254,-0.0209,9.8066,-0.0181,0.0453,0.0101,-21.69,19.06,-8.15,219.34,9.04,0.86
78180,51.009342,-3.069297,64,20.78,9,203.7,13 / 21,7818372,2019-08-16 14:59:32:152,0.0825,-0.0286,9.1486,0.0194,0.0135,9.8066,-0.0096,0.0059,-0.0059,-21.69,19.06,-8.15,219.34,9.04,0.86
78181,51.009342,-3.069297,64,20.78,9,203.7,13 / 21,7818473,2019-08-16 14:59:32:253,0.2594,0.1526,10.2051,0.0178,0.0003,9.8066,-0.001,-0.0421,-0.0091,-21.5,18.9,-8.98,219.12,9.18,0.85
78182,51.009342,-3.069297,64,20.78,9,203.7,13 / 21,7818573,2019-08-16 14:59:32:353,0.1805,-0.2437,9.4571,0.0207,-0.0211,9.8066,-0.001,-0.0005,0.0144,-21.89,18.16,-9.54,219.12,9.18,0.85
78183,51.009342,-3.069297,64,20.78,9,203.7,13 / 21,7818673,2019-08-16 14:59:32:453,0.1667,0.3767,10.3998,-0.0209,-0.0133,9.8066,-0.001,-0.0005,0.0144,-21.43,18.72,-9.5,220.39,9.2,0.68
78184,51.009167,-3.069416,64,20.72,9,203.7,14 / 21,7818773,2019-08-16 14:59:32:553,0.0211,-0.3435,8.6614,-0.0274,0.0131,9.8066,0.0011,0.04,0.0037,-21.73,19.2,-7.69,220.39,9.2,0.68
78185,51.009167,-3.069416,64,20.72,9,203.7,14 / 21,7818872,2019-08-16 14:59:32:652,0.0126,0.052,10.0404,-0.0261,0.013,9.8066,-0.049,0.056,0.0059,-21.73,19.2,-7.69,220.39,9.2,0.68
78186,51.009167,-3.069416,64,20.72,9,203.7,14 / 21,7818973,2019-08-16 14:59:32:753,0.1302,0.6315,10.0115,0.0143,0.0049,9.8066,0.0096,-0.0026,-0.0016,-21.88,19.34,-6.86,219.56,9.13,0.84
78187,51.009167,-3.069416,64,20.72,9,203.7,14 / 21,7819073,2019-08-16 14:59:32:853,-0.7531,-0.1225,9.8703,-0.0089,-0.0053,9.8066,0.0011,-0.0463,-0.0144,-22.31,18.68,-7.29,219.56,9.21,0.8
78188,51.009167,-3.069416,64,20.72,9,203.7,14 / 21,7819173,2019-08-16 14:59:32:953,-0.3494,-0.5424,9.0726,-0.0083,-0.0083,9.8066,-0.0021,-0.0218,0.0091,-21.88,19.34,-6.86,219.56,9.21,0.8
78189,51.009167,-3.069416,64,20.72,9,203.7,14 / 21,7819273,2019-08-16 14:59:33:053,0.1332,0.2815,9.7673,-0.0092,-0.0022,9.8066,0.0117,-0.0005,-0.0016,-22.3,18.81,-6.99,219.56,9.16,0.83
78190,51.009167,-3.069416,64,20.72,9,203.7,14 / 21,7819373,2019-08-16 14:59:33:153,-0.0584,0.4574,9.6246,-0.0032,0.0175,9.8066,0.0213,0.0357,-0.0048,-22.3,18.81,-6.99,219.56,9.16,0.83
78191,51.009167,-3.069416,64,20.72,9,203.7,14 / 21,7819473,2019-08-16 14:59:33:253,-0.4174,-0.3967,9.9263,-0.0153,-0.0267,9.8066,0.0213,0.0357,-0.0048,-20.51,21.43,-4.51,224.1,9.17,0.93
78192,51.009167,-3.069416,64,20.72,9,203.7,14 / 21,7819573,2019-08-16 14:59:33:353,0.359,0.1527,10.1392,-0.0037,-0.0239,9.8066,-0.0042,-0.0154,-0.0016,-20.52,21.52,-4.01,225.68,9.0,0.88
78193,51.009167,-3.069416,64,20.72,9,203.7,14 / 21,7819673,2019-08-16 14:59:33:453,0.2988,-0.1087,9.51,0.0092,-0.0013,9.8066,0.0171,-0.0399,-0.0069,-23.26,17.91,-6.2,217.1,8.88,0.8
78194,51.009007,-3.069526,64,20.58,9,203.7,13 / 21,7819773,2019-08-16 14:59:33:553,-0.3279,-0.5057,9.4378,0.0163,-0.0051,9.8066,-0.0106,0.0464,0.0037,-22.99,18.65,-4.86,217.1,8.88,0.8
78195,51.009007,-3.069526,64,20.58,9,203.7,13 / 21,7819872,2019-08-16 14:59:33:652,0.024,-0.018,8.9996,0.039,-0.0151,9.8066,-0.0053,-0.0176,-0.0091,-22.99,18.65,-4.86,217.1,8.88,0.8
78196,51.009007,-3.069526,64,20.58,9,203.7,13 / 21,7819973,2019-08-16 14:59:33:753,0.3724,0.1016,9.531,0.0084,-0.0045,9.8066,-0.0053,0.024,-0.0091,-21.88,19.23,-7.15,219.63,9.01,0.59
78197,51.009007,-3.069526,64,20.58,9,203.7,13 / 21,7820074,2019-08-16 14:59:33:854,0.2172,0.0267,9.6387,0.0121,0.0001,9.8066,-0.0032,-0.0058,0.0005,-22.06,19.39,-6.13,219.85,9.06,0.54
78198,51.009007,-3.069526,64,20.58,9,203.7,13 / 21,7820172,2019-08-16 14:59:33:952,-0.1773,0.1312,10.0828,-0.0013,0.0073,9.8066,-0.0128,0.0123,-0.0027,-21.62,19.91,-6.01,219.85,9.06,0.54
78199,51.009007,-3.069526,64,20.58,9,203.7,13 / 21,7820274,2019-08-16 14:59:34:054,-0.4719,-0.4828,9.8587,-0.0111,-0.013,9.8066,-0.0128,0.0123,-0.0027,-22.06,19.39,-6.13,219.86,8.97,0.52
78200,51.009007,-3.069526,64,20.58,9,203.7,13 / 21,7820372,2019-08-16 14:59:34:152,-0.0704,-0.0462,10.3478,-0.0415,-0.0329,9.8065,-0.0192,0.0496,0.0091,-22.06,19.39,-6.13,219.86,8.97,0.52
78201,51.009007,-3.069526,64,20.58,9,203.7,13 / 21,7820472,2019-08-16 14:59:34:252,0.0918,0.1541,10.8331,-0.004,-0.0036,9.8066,-0.0085,-0.009,0.0101,-23.26,17.91,-6.2,217.17,8.66,0.53
78202,51.009007,-3.069526,64,20.58,9,203.7,13 / 21,7820572,2019-08-16 14:59:34:352,0.1016,0.3535,9.2493,0.0033,-0.0078,9.8066,0.0235,-0.0452,-0.0186,-22.99,18.65,-4.86,218.88,8.64,0.48
78203,51.009007,-3.069526,64,20.58,9,203.7,13 / 21,7820672,2019-08-16 14:59:34:452,0.1022,-0.1239,10.2009,0.0004,-0.0005,9.8067,0.0064,0.0229,-0.0123,-22.99,18.65,-4.86,218.88,8.64,0.48
78204,51.008835,-3.06964,64,20.51,9,203.8,13 / 21,7820773,2019-08-16 14:59:34:553,0.276,-0.2987,10.2805,0.0115,0.0152,9.8066,0.0309,-0.0442,0.0037,-22.47,18.95,-5.99,219.88,8.64,0.48
78205,51.008835,-3.06964,64,20.51,9,203.8,13 / 21,7820873,2019-08-16 14:59:34:653,-0.206,0.0553,9.1373,0.0259,0.0459,9.8065,0.0586,-0.0154,-0.0186,-21.75,20.1,-4.78,221.51,8.93,0.59
78206,51.008835,-3.06964,64,20.51,9,203.8,13 / 21,7820972,2019-08-16 14:59:34:752,-0.5423,0.0502,9.3672,-0.0029,-0.0104,9.8066,0.0586,-0.0154,-0.0186,-21.75,20.1,-4.78,221.51,8.93,0.59
78207,51.008835,-3.06964,64,20.51,9,203.8,13 / 21,7821073,2019-08-16 14:59:34:853,-0.0554,-0.1482,9.9003,-0.0032,-0.0148,9.8066,-0.0287,-0.0037,0.0101,-21.3,19.61,-7.85,222.15,8.88,0.55
78208,51.008835,-3.06964,64,20.51,9,203.8,13 / 21,7821173,2019-08-16 14:59:34:953,-0.2701,-0.3408,9.2257,-0.0091,0.0123,9.8066,0.0192,0.0059,0.0144,-21.72,19.09,-8.01,219.47,8.81,0.5
78209,51.008835,-3.06964,64,20.51,9,203.8,13 / 21,7821272,2019-08-16 14:59:35:052,-0.4138,0.0324,9.7077,-0.041,-0.0011,9.8066,0.0309,0.0165,0.0027,-22.14,18.53,-8.16,219.41,8.81,0.69
78210,51.008835,-3.06964,64,20.51,9,203.8,13 / 21,7821373,2019-08-16 14:59:35:153,-0.2409,0.6835,11.4824,0.0027,0.0231,9.8066,0.0171,0.1007,-0.024,-21.91,19.14,-7.31,219.6,8.62,0.84
78211,51.008835,-3.06964,64,20.51,9,203.8,13 / 21,7821473,2019-08-16 14:59:35:253,-0.2017,-0.3578,8.9269,0.0051,0.0075,9.8066,0.0107,0.041,-0.0133,-21.91,19.14,-7.31,219.6,8.62,0.84
78212,51.008835,-3.06964,64,20.51,9,203.8,13 / 21,7821573,2019-08-16 14:59:35:353,0.1361,0.2732,10.9757,0.01,-0.014,9.8066,0.016,-0.0644,-0.0123,-21.88,19.23,-7.15,219.59,8.67,0.85
78213,51.008835,-3.06964,64,20.51,9,203.8,13 / 21,7821673,2019-08-16 14:59:35:453,0.1597,0.262,9.9353,0.0175,-0.0106,9.8066,0.016,-0.0644,-0.0123,-21.3,19.61,-7.85,222.11,8.71,0.74
78214,51.008663,-3.069762,64,20.56,9,204.0,14 / 21,7821773,2019-08-16 14:59:35:553,-0.1446,-0.559,9.2931,0.0102,0.0127,9.8066,0.0,0.0634,-0.0016,-22.13,18.67,-7.83,219.4,8.8,0.76
78215,51.008663,-3.069762,64,20.56,9,204.0,14 / 21,7821873,2019-08-16 14:59:35:653,0.1923,-0.0708,9.7011,-0.0016,-0.0118,9.8066,0.0085,-0.0048,0.0037,-22.13,18.67,-7.83,219.4,8.8,0.76
78216,51.008663,-3.069762,64,20.56,9,204.0,14 / 21,7821974,2019-08-16 14:59:35:754,-0.0687,0.1327,9.7088,0.0047,-0.0101,9.8066,0.0054,0.007,0.0069,-21.33,20.57,-4.69,224.17,8.79,0.69
78217,51.008663,-3.069762,64,20.56,9,204.0,14 / 21,7822073,2019-08-16 14:59:35:853,-0.2009,-0.1565,9.7967,0.0011,0.0113,9.8066,-0.0042,-0.0112,0.0005,-22.18,19.6,-4.88,221.48,8.84,0.74
78218,51.008663,-3.069762,64,20.56,9,204.0,14 / 21,7822173,2019-08-16 14:59:35:953,-0.2584,-0.3979,9.2279,-0.0051,-0.0054,9.8066,-0.0192,-0.0186,-0.0069,-22.18,19.6,-4.88,221.48,8.84,0.74
78219,51.008663,-3.069762,64,20.56,9,204.0,14 / 21,7822272,2019-08-16 14:59:36:052,-0.3213,-0.3649,9.4585,-0.0145,-0.0147,9.8066,-0.001,0.0187,-0.0027,-22.18,19.6,-4.88,221.48,8.79,0.73
78220,51.008663,-3.069762,64,20.56,9,204.0,14 / 21,7822373,2019-08-16 14:59:36:153,0.1556,-0.2597,10.1962,-0.0237,-0.0178,9.8066,-0.001,-0.0016,-0.0037,-22.03,19.57,-5.65,221.28,8.62,0.75
78221,51.008663,-3.069762,64,20.56,9,204.0,14 / 21,7822472,2019-08-16 14:59:36:252,0.2104,0.0126,9.7963,-0.0115,-0.006,9.8066,-0.001,-0.0016,-0.0037,-22.03,19.57,-5.65,221.28,8.62,0.75
78222,51.008663,-3.069762,64,20.56,9,204.0,14 / 21,7822573,2019-08-16 14:59:36:353,-0.1649,0.113,10.1247,-0.0117,-0.0023,9.8066,0.0139,-0.0357,-0.008,-22.03,19.57,-5.65,221.28,8.55,0.76
78223,51.008663,-3.069762,64,20.56,9,204.0,14 / 21,7822674,2019-08-16 14:59:36:454,0.1149,0.2084,9.5603,-0.0164,0.0106,9.8066,0.0267,-0.0122,0.0059,-22.03,19.57,-5.65,221.28,8.55,0.76
78224,51.0085,-3.06988,64,20.33,9,204.2,14 / 21,7822772,2019-08-16 14:59:36:552,0.0781,-0.1871,9.0978,0.0086,0.0288,9.8066,-0.0032,0.0229,0.0101,-21.9,19.46,-6.46,219.8,8.52,0.87
78225,51.0085,-3.06988,64,20.33,9,204.2,14 / 21,7822873,2019-08-16 14:59:36:653,-0.2167,0.1634,9.9735,0.0007,0.0517,9.8065,0.0,0.0123,-0.0048,-20.47,21.42,-4.69,225.43,8.71,1.11
78226,51.0085,-3.06988,64,20.33,9,204.2,14 / 21,7822973,2019-08-16 14:59:36:753,-0.0641,0.235,10.2192,-0.0134,-0.0028,9.8066,0.0139,-0.0005,-0.0048,-20.79,20.88,-5.63,223.86,8.65,1.15
78227,51.0085,-3.06988,64,20.33,9,204.2,14 / 21,7823073,2019-08-16 14:59:36:853,-0.0291,-0.1884,9.6864,-0.0089,-0.0194,9.8066,-0.0085,0.0442,-0.0048,-20.79,20.88,-5.63,223.86,8.65,1.15
78228,51.0085,-3.06988,64,20.33,9,204.2,14 / 21,7823172,2019-08-16 14:59:36:952,0.1156,0.1303,10.2593,0.0004,0.0032,9.8067,-0.0042,-0.0602,-0.0005,-21.64,20.0,-5.63,221.23,8.44,1.02
78229,51.0085,-3.06988,64,20.33,9,204.2,14 / 21,7823273,2019-08-16 14:59:37:053,-0.2688,-0.776,8.6502,-0.0033,0.0025,9.8066,-0.0042,-0.0602,-0.0005,-22.3,18.95,-6.58,219.56,8.45,1.04
78230,51.0085,-3.06988,64,20.33,9,204.2,14 / 21,7823374,2019-08-16 14:59:37:154,-0.2311,0.0353,9.6477,-0.0137,0.0005,9.8066,0.0405,-0.0623,-0.0133,-21.5,19.93,-6.35,219.56,8.45,1.04
78231,51.0085,-3.06988,64,20.33,9,204.2,14 / 21,7823473,2019-08-16 14:59:37:253,0.093,0.2688,9.9001,-0.0121,-0.0164,9.8066,-0.0223,0.0464,-0.0069,-20.69,20.78,-6.35,223.91,8.33,1.01
78232,51.0085,-3.06988,64,20.33,9,204.2,14 / 21,7823573,2019-08-16 14:59:37:353,0.2212,0.0501,10.2893,0.0044,-0.0094,9.8066,-0.0053,0.0357,0.0069,-20.69,20.78,-6.35,223.91,8.33,1.01
78233,51.0085,-3.06988,64,20.33,9,204.2,14 / 21,7823672,2019-08-16 14:59:37:452,0.1464,-0.2935,9.3565,0.0047,0.0008,9.8066,0.0362,-0.0452,-0.0123,-20.92,21.01,-4.6,224.14,8.32,0.95
78234,51.008335,-3.069996,65,20.22,9,204.5,14 / 21,7823774,2019-08-16 14:59:37:554,-0.0631,-0.3513,9.4841,-0.0003,0.0025,9.8066,-0.0085,0.0592,-0.0005,-20.37,21.32,-5.52,224.14,8.32,0.95
78235,51.008335,-3.069996,65,20.22,9,204.5,14 / 21,7823873,2019-08-16 14:59:37:653,0.3342,0.3185,9.7538,-0.0015,0.0137,9.8066,-0.0021,0.0197,-0.008,-20.54,20.63,-7.27,223.69,8.36,1.01
78236,51.008335,-3.069996,65,20.22,9,204.5,14 / 21,7823973,2019-08-16 14:59:37:753,-0.0584,0.3397,9.8155,-0.0114,-0.0061,9.8066,-0.0021,0.0197,-0.008,-20.54,20.63,-7.27,223.69,8.36,1.01
78237,51.008335,-3.069996,65,20.22,9,204.5,14 / 21,7824072,2019-08-16 14:59:37:852,-0.0419,0.1702,9.5403,-0.0277,-0.0158,9.8066,-0.0074,0.0197,0.0037,-20.48,20.58,-7.55,224.81,8.18,1.06
78238,51.008335,-3.069996,65,20.22,9,204.5,14 / 21,7824173,2019-08-16 14:59:37:953,-0.4854,-0.3966,7.6621,0.0118,0.032,9.8066,0.0128,-0.1166,-0.0133,-21.48,19.78,-6.87,224.81,8.18,1.06
78239,51.008335,-3.069996,65,20.22,9,204.5,14 / 21,7824273,2019-08-16 14:59:38:053,-0.2946,-0.1211,12.4432,0.0199,0.0193,9.8066,0.0011,0.0485,-0.0005,-20.99,20.14,-7.33,222.26,8.36,1.14
78240,51.008335,-3.069996,65,20.22,9,204.5,14 / 21,7824373,2019-08-16 14:59:38:153,0.8129,0.6695,9.44,0.0094,0.0119,9.8066,-0.001,0.0741,0.0112,-21.54,17.87,-10.8,217.18,8.45,1.16
78241,51.008335,-3.069996,65,20.22,9,204.5,14 / 21,7824473,2019-08-16 14:59:38:253,-1.1587,-0.4131,12.6154,-0.0312,-0.0073,9.8066,-0.0096,-0.0144,0.0123,-21.54,17.87,-10.8,217.18,8.45,1.16
78242,51.008335,-3.069996,65,20.22,9,204.5,14 / 21,7824573,2019-08-16 14:59:38:353,1.0878,0.056,9.3754,-0.0238,-0.0201,9.8066,0.0256,0.0325,0.0123,-23.75,17.13,-6.54,214.17,8.28,1.24
78243,51.008335,-3.069996,65,20.22,9,204.5,14 / 21,7824673,2019-08-16 14:59:38:453,1.0567,0.1013,8.7436,-0.0566,-0.0523,9.8063,0.0256,0.0325,0.0123,-21.83,19.61,-6.24,214.17,8.28,1.24
78244,51.008163,-3.070112,64,20.26,9,204.7,14 / 21,7824772,2019-08-16 14:59:38:552,0.0893,-0.8949,11.6577,-0.0624,-0.073,9.8062,0.0043,0.0815,-0.0208,-21.83,19.61,-6.24,214.17,8.28,1.24
78245,51.008163,-3.070112,64,20.26,9,204.7,14 / 21,7824873,2019-08-16 14:59:38:653,0.4306,0.3898,8.4068,0.0186,0.0344,9.8066,0.032,-0.1251,-0.0186,-21.17,20.63,-5.12,224.14,7.74,1.09
78246,51.008163,-3.070112,64,20.26,9,204.7,14 / 21,7824973,2019-08-16 14:59:38:753,0.4284,0.5785,8.0659,0.0141,0.0319,9.8066,0.0299,0.0059,-0.0144,-20.81,21.22,-4.08,224.14,7.74,1.09
78247,51.008163,-3.070112,64,20.26,9,204.7,14 / 21,7825072,2019-08-16 14:59:38:852,-0.3807,0.6409,10.4933,-0.0174,0.0199,9.8066,0.0629,-0.0026,-0.0059,-20.43,21.55,-4.31,227.0,7.91,1.26
78248,51.008163,-3.070112,64,20.26,9,204.7,14 / 21,7825173,2019-08-16 14:59:38:953,0.2917,-0.1526,9.8962,-0.0158,0.0297,9.8066,0.0341,0.0613,0.025,-21.58,20.18,-5.21,221.39,7.93,1.42
78249,51.008163,-3.070112,64,20.26,9,204.7,14 / 21,7825273,2019-08-16 14:59:39:053,0.9095,0.5149,6.9207,-0.0386,0.0575,9.8064,0.0267,0.0719,0.0559,-21.58,20.18,-5.21,221.39,7.93,1.42
78250,51.008163,-3.070112,64,20.26,9,204.7,14 / 21,7825373,2019-08-16 14:59:39:153,-1.2511,-0.8953,13.5628,-0.0338,0.0041,9.8066,-0.0383,-0.0836,-0.0442,-21.2,20.81,-4.16,224.21,7.98,1.82
78251,51.008163,-3.070112,64,20.26,9,204.7,14 / 21,7825473,2019-08-16 14:59:39:253,1.6135,0.6756,7.3064,-0.0405,-0.0162,9.8066,-0.0106,0.0261,-0.0091,-20.89,21.3,-3.18,224.21,7.98,1.82
78252,51.008163,-3.070112,64,20.26,9,204.7,14 / 21,7825573,2019-08-16 14:59:39:353,-0.3228,0.164,10.2788,-0.0299,-0.0036,9.8066,-0.0106,0.0261,-0.0091,-19.38,22.68,-3.17,229.8,7.84,1.93
78253,51.008163,-3.070112,64,20.26,9,204.7,14 / 21,7825672,2019-08-16 14:59:39:452,0.6575,0.5015,8.035,-0.0059,-0.0372,9.8066,0.0288,-0.0783,-0.0336,-19.38,22.68,-3.17,229.8,7.84,1.93
78254,51.008,-3.070234,64,20.16,9,205.0,14 / 21,7825774,2019-08-16 14:59:39:554,0.3884,-0.0928,11.6896,-0.0028,-0.0207,9.8066,-0.0106,-0.0037,0.0133,-19.07,22.74,-4.38,229.6,7.65,1.82
78255,51.008,-3.070234,64,20.16,9,205.0,14 / 21,7825872,2019-08-16 14:59:39:652,-0.1209,0.4991,9.3926,0.0067,0.0004,9.8066,0.0352,0.0091,0.0357,-20.74,21.04,-5.22,229.6,7.65,1.82
78256,51.008,-3.070234,64,20.16,9,205.0,14 / 21,7825973,2019-08-16 14:59:39:753,0.4934,0.5936,8.4796,-0.0114,0.0204,9.8066,0.0086,-0.0144,-0.0037,-19.97,21.95,-4.39,226.92,7.68,1.79
78257,51.008,-3.070234,64,20.16,9,205.0,14 / 21,7826072,2019-08-16 14:59:39:852,-0.395,-0.0389,9.8631,-0.0189,0.0355,9.8066,0.0075,-0.0804,0.0005,-19.94,21.84,-5.01,226.64,7.75,2.01
78258,51.008,-3.070234,64,20.16,9,205.0,14 / 21,7826173,2019-08-16 14:59:39:953,0.1289,0.8009,8.3738,-0.0054,0.0218,9.8066,0.0373,0.0176,-0.0122,-19.94,21.84,-5.01,226.64,7.75,2.01
78259,51.008,-3.070234,64,20.16,9,205.0,14 / 21,7826273,2019-08-16 14:59:40:053,-1.1005,-0.2328,12.7871,-0.0258,0.02,9.8066,0.0107,0.0176,0.0282,-19.16,22.69,-4.21,229.48,8.01,2.31
78260,51.008,-3.070234,64,20.16,9,205.0,14 / 21,7826373,2019-08-16 14:59:40:153,0.944,0.5873,7.8367,-0.015,-0.0195,9.8066,0.0107,0.0176,0.0282,-19.57,22.35,-4.16,226.77,8.01,2.5
78261,51.008,-3.070234,64,20.16,9,205.0,14 / 21,7826473,2019-08-16 14:59:40:253,-0.1814,-0.1958,11.0396,-0.0095,-0.0337,9.8066,-0.0341,-0.0058,-0.0069,-19.57,22.35,-4.16,226.77,8.01,2.5
78262,51.008,-3.070234,64,20.16,9,205.0,14 / 21,7826572,2019-08-16 14:59:40:352,0.2596,-0.1091,10.7115,0.0162,-0.0079,9.8066,0.0064,0.09,-0.0133,-20.85,21.15,-4.25,224.11,7.82,2.41
78263,51.008,-3.070234,64,20.16,9,205.0,14 / 21,7826673,2019-08-16 14:59:40:453,-0.0525,-0.4137,8.9416,0.0291,0.0007,9.8066,0.0139,-0.0719,-0.0005,-20.27,21.34,-5.82,224.11,7.82,2.41
78264,51.00784,-3.070362,65,20.1,9,205.1,14 / 20,7826773,2019-08-16 14:59:40:553,-0.4576,-0.5474,8.188,-0.0017,-0.0011,9.8067,0.0362,0.1177,0.0069,-19.58,22.02,-5.63,226.31,7.81,2.41
78265,51.00784,-3.070362,65,20.1,9,205.1,14 / 20,7826873,2019-08-16 14:59:40:653,-0.5507,0.7208,9.8688,-0.0276,0.0409,9.8065,-0.0213,0.0421,0.008,-18.98,22.47,-5.91,226.31,7.81,2.41
78266,51.00784,-3.070362,65,20.1,9,205.1,14 / 20,7826972,2019-08-16 14:59:40:752,0.2208,-0.1307,8.9809,-0.0329,0.0373,9.8065,-0.0426,-0.0154,0.0208,-18.98,22.47,-5.91,226.31,7.81,2.41
78267,51.00784,-3.070362,65,20.1,9,205.1,14 / 20,7827072,2019-08-16 14:59:40:852,0.3881,0.314,9.9292,0.0142,0.0299,9.8066,0.0011,-0.0303,-0.0037,-19.48,22.24,-5.11,227.9,7.84,2.7
78268,51.00784,-3.070362,65,20.1,9,205.1,14 / 20,7827173,2019-08-16 14:59:40:953,-0.0671,0.3266,10.3126,0.0359,0.0466,9.8065,-0.0106,0.0538,0.0059,-19.39,22.26,-5.31,227.86,8.18,2.73
78269,51.00784,-3.070362,65,20.1,9,205.1,14 / 20,7827273,2019-08-16 14:59:41:053,-0.0922,0.2578,10.1404,-0.0272,-0.0036,9.8066,-0.0106,0.0538,0.0059,-19.39,22.26,-5.31,227.86,8.18,2.73
78270,51.00784,-3.070362,65,20.1,9,205.1,14 / 20,7827373,2019-08-16 14:59:41:153,0.1559,0.0462,9.6847,-0.0112,-0.0058,9.8066,-0.0128,0.0719,0.0059,-19.97,21.95,-4.39,226.71,8.06,2.83
78271,51.00784,-3.070362,65,20.1,9,205.1,14 / 20,7827473,2019-08-16 14:59:41:253,0.2492,0.176,9.3961,-0.0069,-0.0088,9.8066,0.0011,0.0006,-0.0101,-19.97,21.95,-4.39,226.71,8.06,2.83
78272,51.00784,-3.070362,65,20.1,9,205.1,14 / 20,7827573,2019-08-16 14:59:41:353,0.2306,-0.0671,10.2909,0.0079,-0.0045,9.8066,0.0213,-0.025,-0.0229,-20.29,21.45,-5.32,225.12,7.99,2.83
78273,51.00784,-3.070362,65,20.1,9,205.1,14 / 20,7827673,2019-08-16 14:59:41:453,-0.3243,-0.2822,9.427,0.0178,0.0041,9.8066,0.0149,-0.0069,-0.0101,-20.92,20.39,-6.83,225.12,7.99,2.83
78274,51.00768,-3.070496,64,20.03,9,205.2,14 / 21,7827773,2019-08-16 14:59:41:553,-0.2386,-0.1552,9.805,0.0271,0.0024,9.8066,0.0192,-0.008,-0.0208,-19.94,21.84,-5.01,226.47,8.11,2.73
78275,51.00768,-3.070496,64,20.03,9,205.2,14 / 21,7827872,2019-08-16 14:59:41:652,-0.1975,-0.5573,9.6058,0.0245,0.0154,9.8066,-0.0064,0.0432,-0.0016,-19.94,21.84,-5.01,226.47,8.11,2.73
78276,51.00768,-3.070496,64,20.03,9,205.2,14 / 21,7827973,2019-08-16 14:59:41:753,0.1802,0.6998,9.5857,0.0049,-0.0066,9.8066,0.0011,0.008,0.0101,-20.71,21.01,-5.43,223.79,8.28,2.68
78277,51.00768,-3.070496,64,20.03,9,205.2,14 / 21,7828073,2019-08-16 14:59:41:853,0.1034,0.0483,10.8469,-0.0304,-0.0418,9.8065,0.0011,0.008,0.0101,-21.91,19.85,-5.13,223.79,8.28,2.68
78278,51.00768,-3.070496,64,20.03,9,205.2,14 / 21,7828173,2019-08-16 14:59:41:953,0.2199,0.2213,10.18,-0.0448,-0.0329,9.8065,0.0203,-0.0527,-0.0208,-20.24,22.04,-2.18,227.25,7.96,2.73
78279,51.00768,-3.070496,64,20.03,9,205.2,14 / 21,7828273,2019-08-16 14:59:42:053,0.2593,-0.266,9.569,0.0136,0.0037,9.8066,-0.0042,-0.0591,-0.0197,-19.0,23.17,-1.36,230.2,8.03,2.68
78280,51.00768,-3.070496,64,20.03,9,205.2,14 / 21,7828372,2019-08-16 14:59:42:152,-0.0069,-0.2419,9.8719,0.0432,0.0121,9.8065,-0.0202,0.0038,-0.0069,-19.0,23.17,-1.36,230.2,8.03,2.68
78281,51.00768,-3.070496,64,20.03,9,205.2,14 / 21,7828473,2019-08-16 14:59:42:253,0.4829,0.1864,9.0913,-0.0043,-0.0068,9.8066,0.0149,-0.0069,-0.0091,-17.56,24.21,-2.32,232.62,8.24,2.53
78282,51.00768,-3.070496,64,20.03,9,205.2,14 / 21,7828572,2019-08-16 14:59:42:352,0.1732,-0.0619,10.3975,0.003,-0.0096,9.8066,0.0149,-0.0069,-0.0091,-19.7,22.5,-2.38,232.62,8.24,2.53
78283,51.00768,-3.070496,64,20.03,9,205.2,14 / 21,7828673,2019-08-16 14:59:42:453,0.1628,0.3233,9.5995,0.0137,-0.0058,9.8066,0.0043,-0.0229,-0.0165,-20.43,21.55,-4.31,226.77,8.26,2.45
78284,51.00751,-3.070623,64,20.06,9,205.7,14 / 21,7828774,2019-08-16 14:59:42:554,0.1166,-0.1268,9.8693,0.0005,-0.0175,9.8066,-0.0021,0.0315,-0.0165,-20.43,21.55,-4.31,226.77,8.26,2.45
78285,51.00751,-3.070623,64,20.06,9,205.7,14 / 21,7828873,2019-08-16 14:59:42:653,0.299,0.3676,9.6593,-0.0142,-0.0133,9.8066,0.0054,0.0496,0.0048,-20.14,21.86,-4.08,226.79,8.19,2.37
78286,51.00751,-3.070623,64,20.06,9,205.7,14 / 21,7828973,2019-08-16 14:59:42:753,-0.4101,-0.0253,10.1161,-0.0176,0.0016,9.8066,-0.0085,0.0197,-0.0005,-20.14,21.86,-4.08,226.79,8.19,2.37
78287,51.00751,-3.070623,64,20.06,9,205.7,14 / 21,7829072,2019-08-16 14:59:42:852,-0.2084,0.2751,9.412,0.0051,0.0243,9.8066,0.0,-0.0154,-0.0091,-19.39,22.55,-3.93,229.45,8.13,2.46
78288,51.00751,-3.070623,64,20.06,9,205.7,14 / 21,7829172,2019-08-16 14:59:42:952,-0.31,-0.3221,9.1925,0.0047,0.0299,9.8066,0.0203,0.0027,-0.0037,-18.26,23.6,-3.11,232.35,8.28,2.55
78289,51.00751,-3.070623,64,20.06,9,205.7,14 / 21,7829273,2019-08-16 14:59:43:053,0.0607,0.216,10.3739,-0.0004,-0.0042,9.8066,-0.0117,-0.0026,0.0005,-18.26,23.6,-3.11,232.35,8.28,2.55
78290,51.00751,-3.070623,64,20.06,9,205.7,14 / 21,7829373,2019-08-16 14:59:43:153,0.5007,0.3713,10.161,-0.0043,0.0035,9.8066,0.0054,-0.0165,0.0037,-18.22,23.43,-4.37,230.89,8.26,2.54
78291,51.00751,-3.070623,64,20.06,9,205.7,14 / 21,7829472,2019-08-16 14:59:43:252,-0.1039,-0.0538,9.6546,-0.0145,-0.0149,9.8066,0.0054,-0.0165,0.0037,-19.38,22.25,-5.45,227.88,8.22,2.61
78292,51.00751,-3.070623,64,20.06,9,205.7,14 / 21,7829573,2019-08-16 14:59:43:353,-0.1356,-0.0652,9.2335,-0.0222,-0.0201,9.8066,0.0011,0.0283,-0.0059,-19.38,22.25,-5.45,227.88,8.22,2.61
78293,51.00751,-3.070623,64,20.06,9,205.7,14 / 21,7829673,2019-08-16 14:59:43:453,0.0211,0.1201,9.9583,0.0211,0.0169,9.8066,-0.0341,-0.0037,-0.0037,-20.88,21.19,-3.85,224.06,8.04,2.63
78294,51.00734,-3.070756,65,20.08,9,206.0,14 / 21,7829772,2019-08-16 14:59:43:552,-0.255,-0.3016,9.7914,0.0435,0.0232,9.8065,-0.0064,0.0091,-0.0069,-20.66,20.11,-8.28,224.06,8.04,2.63
78295,51.00734,-3.070756,65,20.08,9,206.0,14 / 21,7829872,2019-08-16 14:59:43:652,-0.0821,0.0683,9.7515,0.0436,0.0216,9.8065,0.0181,0.0165,-0.0048,-20.12,21.09,-7.1,224.63,8.31,2.54
78296,51.00734,-3.070756,65,20.08,9,206.0,14 / 21,7829972,2019-08-16 14:59:43:752,-0.306,-0.1111,10.6371,-0.0106,-0.0033,9.8066,0.0171,0.0123,0.0005,-19.64,21.45,-7.37,224.63,8.31,2.54
78297,51.00734,-3.070756,65,20.08,9,206.0,14 / 21,7830072,2019-08-16 14:59:43:852,-0.0902,-0.0408,9.69,-0.0247,0.0023,9.8066,0.0064,-0.0005,0.0059,-19.39,22.0,-6.31,227.61,8.22,2.66
78298,51.00734,-3.070756,65,20.08,9,206.0,14 / 21,7830173,2019-08-16 14:59:43:953,-0.2871,-0.0737,9.9452,-0.0201,-0.0057,9.8066,0.0064,-0.0005,0.0059,-18.76,22.23,-7.35,227.61,8.22,2.66
78299,51.00734,-3.070756,65,20.08,9,206.0,14 / 21,7830272,2019-08-16 14:59:44:052,0.1568,0.1107,9.1826,-0.0471,-0.021,9.8065,0.016,0.0112,-0.0027,-18.76,22.23,-7.35,227.61,8.22,2.66
78300,51.00734,-3.070756,65,20.08,9,206.0,14 / 21,7830373,2019-08-16 14:59:44:153,0.0911,0.1125,9.8771,-0.0547,-0.0285,9.8065,-0.0106,0.0048,-0.0101,-19.01,22.37,-6.19,227.62,7.88,2.78
78301,51.00734,-3.070756,65,20.08,9,206.0,14 / 21,7830473,2019-08-16 14:59:44:253,-0.4917,0.1888,8.7366,0.0289,0.0209,9.8066,0.0096,-0.0602,-0.0229,-18.39,22.43,-7.68,227.62,7.88,2.78
78302,51.00734,-3.070756,65,20.08,9,206.0,14 / 21,7830572,2019-08-16 14:59:44:352,-0.1536,0.4792,9.6811,0.0395,0.0411,9.8065,0.0043,0.0059,-0.0112,-18.04,22.76,-7.53,229.79,8.09,2.74
78303,51.00734,-3.070756,65,20.08,9,206.0,14 / 21,7830672,2019-08-16 14:59:44:452,0.0111,0.0599,10.1188,0.0425,0.0393,9.8065,-0.0064,-0.0005,-0.0123,-19.1,22.49,-5.41,227.85,8.42,2.7
78304,51.00718,-3.070887,65,20.06,9,206.3,14 / 21,7830772,2019-08-16 14:59:44:552,0.0415,-0.1703,9.3454,-0.0039,-0.001,9.8067,-0.0106,-0.0325,-0.0005,-18.23,23.21,-5.39,227.85,8.42,2.7
78305,51.00718,-3.070887,65,20.06,9,206.3,14 / 21,7830873,2019-08-16 14:59:44:653,0.1481,0.4483,10.4745,-0.0057,-0.0178,9.8066,-0.0085,0.0197,-0.0005,-18.23,23.21,-5.39,227.85,8.42,2.7
78306,51.00718,-3.070887,65,20.06,9,206.3,14 / 21,7830973,2019-08-16 14:59:44:753,0.4235,0.3853,10.3986,0.0088,-0.0225,9.8066,-0.0213,0.04,-0.008,-18.63,22.72,-6.07,228.87,8.32,2.65
78307,51.00718,-3.070887,65,20.06,9,206.3,14 / 21,7831072,2019-08-16 14:59:44:852,0.1472,-0.1136,9.7272,0.0132,-0.0447,9.8065,-0.0213,0.04,-0.008,-18.63,22.9,-5.37,229.2,8.18,2.42
78308,51.00718,-3.070887,65,20.06,9,206.3,14 / 21,7831173,2019-08-16 14:59:44:953,0.1494,0.3117,9.8389,0.0084,-0.0162,9.8066,-0.0096,0.0283,-0.0133,-18.63,22.9,-5.37,229.2,8.18,2.42
78309,51.00718,-3.070887,65,20.06,9,206.3,14 / 21,7831274,2019-08-16 14:59:45:054,-0.0823,-0.0502,9.2307,0.002,-0.0015,9.8067,0.0299,-0.0452,-0.0091,-18.36,23.17,-5.07,230.68,8.14,2.32
78310,51.00718,-3.070887,65,20.06,9,206.3,14 / 21,7831373,2019-08-16 14:59:45:153,0.1595,0.0724,9.6524,-0.0139,0.0207,9.8066,0.032,-0.0293,-0.0027,-18.35,23.16,-5.2,230.65,8.18,2.46
78311,51.00718,-3.070887,65,20.06,9,206.3,14 / 21,7831473,2019-08-16 14:59:45:253,-0.1862,0.1821,9.0373,-0.0069,0.0673,9.8064,0.0341,-0.0154,-0.0005,-18.35,23.16,-5.2,230.65,8.18,2.46
78312,51.00718,-3.070887,65,20.06,9,206.3,14 / 21,7831572,2019-08-16 14:59:45:352,0.031,-0.1114,10.2801,0.0033,0.0052,9.8066,0.0054,-0.0154,-0.0069,-18.72,22.83,-5.3,229.1,8.46,2.74
78313,51.00718,-3.070887,65,20.06,9,206.3,14 / 21,7831672,2019-08-16 14:59:45:452,0.2387,0.4029,9.8986,-0.0062,-0.015,9.8066,-0.0149,-0.0048,-0.0144,-17.61,23.46,-6.27,230.28,8.49,2.75
78314,51.007015,-3.071011,64,20.05,9,206.9,14 / 21,7831774,2019-08-16 14:59:45:554,0.1498,-0.0223,10.0573,0.0055,-0.037,9.8066,-0.0096,-0.008,-0.0144,-17.87,23.54,-5.15,230.28,8.49,2.75
78315,51.007015,-3.071011,64,20.05,9,206.9,14 / 21,7831872,2019-08-16 14:59:45:652,0.2866,0.0297,10.1602,0.0245,-0.0357,9.8066,-0.0096,-0.008,-0.0144,-17.87,23.54,-5.15,230.28,8.49,2.75
78316,51.007015,-3.071011,64,20.05,9,206.9,14 / 21,7831973,2019-08-16 14:59:45:753,0.1033,0.0493,10.4248,0.0094,-0.0039,9.8066,0.0128,0.0176,-0.0048,-18.24,23.23,-5.26,230.62,8.43,2.5
78317,51.007015,-3.071011,64,20.05,9,206.9,14 / 21,7832074,2019-08-16 14:59:45:854,0.461,-0.1906,8.8936,0.0012,0.0096,9.8066,0.0203,-0.0016,-0.0165,-17.41,23.71,-5.92,233.05,8.44,2.44
78318,51.007015,-3.071011,64,20.05,9,206.9,14 / 21,7832173,2019-08-16 14:59:45:953,0.0238,-0.003,10.0073,0.0161,0.02,9.8066,0.0022,-0.0239,-0.0144,-18.36,23.17,-5.07,230.61,8.59,2.44
78319,51.007015,-3.071011,64,20.05,9,206.9,14 / 21,7832272,2019-08-16 14:59:46:052,0.1261,-0.2233,9.7828,0.0209,0.0111,9.8066,0.016,0.0389,-0.0154,-18.36,23.17,-5.07,230.61,8.59,2.44
78320,51.007015,-3.071011,64,20.05,9,206.9,14 / 21,7832373,2019-08-16 14:59:46:153,-0.3191,0.0834,9.4634,-0.0202,-0.0234,9.8066,-0.0234,0.0453,0.0154,-17.49,23.82,-5.17,233.31,8.72,2.39
78321,51.007015,-3.071011,64,20.05,9,206.9,14 / 21,7832473,2019-08-16 14:59:46:253,-0.3944,-0.1258,10.1618,-0.0376,0.0128,9.8066,0.0224,0.0357,0.0144,-17.34,23.91,-5.23,233.32,8.54,2.4
78322,51.007015,-3.071011,64,20.05,9,206.9,14 / 21,7832573,2019-08-16 14:59:46:353,0.152,0.3397,9.214,-0.0734,0.0313,9.8063,0.0235,0.0347,-0.0016,-16.98,24.2,-5.12,233.23,8.43,2.86
78323,51.007015,-3.071011,64,20.05,9,206.9,14 / 21,7832673,2019-08-16 14:59:46:453,-0.2484,0.0695,9.9347,-0.0269,0.0089,9.8066,0.0235,0.0347,-0.0016,-16.98,24.2,-5.12,233.23,8.43,2.86
78324,51.00685,-3.071126,64,20.1,9,207.2,14 / 21,7832773,2019-08-16 14:59:46:553,-0.0505,0.1251,9.8861,-0.0011,0.0308,9.8066,-0.0096,-0.0111,-0.0091,-18.36,23.17,-5.07,230.51,8.38,3.02
78325,51.00685,-3.071126,64,20.1,9,207.2,14 / 21,7832873,2019-08-16 14:59:46:653,-0.0755,-0.2572,10.0372,0.0094,0.0061,9.8066,-0.0138,0.0272,-0.008,-18.64,22.57,-6.58,228.45,8.51,3.14
78326,51.00685,-3.071126,64,20.1,9,207.2,14 / 21,7832972,2019-08-16 14:59:46:752,-0.1863,0.2179,10.1761,0.0251,0.0128,9.8066,-0.0117,0.0229,-0.0016,-17.51,23.32,-7.04,229.89,8.67,3.08
78327,51.00685,-3.071126,64,20.1,9,207.2,14 / 21,7833073,2019-08-16 14:59:46:853,0.0217,0.1975,10.264,0.0095,0.0069,9.8066,0.0139,-0.0378,-0.0027,-17.51,23.32,-7.04,229.89,8.67,3.08
78328,51.00685,-3.071126,64,20.1,9,207.2,14 / 21,7833173,2019-08-16 14:59:46:953,0.0945,0.0858,9.306,0.011,0.0118,9.8066,0.0171,-0.0005,0.0069,-17.73,23.63,-5.22,229.89,8.67,3.08
78329,51.00685,-3.071126,64,20.1,9,207.2,14 / 21,7833272,2019-08-16 14:59:47:052,0.0838,0.2053,9.083,-0.0238,0.0026,9.8066,-0.001,-0.0048,0.0005,-18.01,23.16,-6.27,230.17,8.76,3.07
78330,51.00685,-3.071126,64,20.1,9,207.2,14 / 21,7833373,2019-08-16 14:59:47:153,0.3119,0.3832,10.3419,-0.0123,-0.0011,9.8066,-0.0042,-0.008,-0.0069,-18.03,22.96,-6.93,229.85,8.68,3.19
78331,51.00685,-3.071126,64,20.1,9,207.2,14 / 21,7833474,2019-08-16 14:59:47:254,0.3856,0.1472,10.5289,-0.0153,0.0019,9.8066,-0.0042,-0.008,-0.0069,-18.53,22.77,-6.16,229.85,8.68,3.19
78332,51.00685,-3.071126,64,20.1,9,207.2,14 / 21,7833573,2019-08-16 14:59:47:353,-0.1816,-0.6296,9.8656,-0.0171,-0.0191,9.8066,-0.0298,0.0656,-0.0048,-18.53,22.77,-6.16,229.85,8.68,3.19
78333,51.00685,-3.071126,64,20.1,9,207.2,14 / 21,7833673,2019-08-16 14:59:47:453,0.1359,0.3739,9.6679,0.0003,0.0059,9.8066,-0.0074,0.0464,0.0016,-17.26,23.79,-6.01,232.86,8.53,3.19
78334,51.00669,-3.071256,65,20.01,9,207.3,16 / 21,7833772,2019-08-16 14:59:47:552,-0.1452,-0.255,9.5633,0.008,0.0052,9.8066,-0.017,-0.0037,-0.0016,-17.81,23.23,-6.56,229.87,8.59,3.17
78335,51.00669,-3.071256,65,20.01,9,207.3,16 / 21,7833872,2019-08-16 14:59:47:652,-0.0028,0.1689,9.7972,0.0046,0.0242,9.8066,-0.001,-0.0388,-0.0048,-17.81,23.23,-6.56,229.87,8.59,3.17
78336,51.00669,-3.071256,65,20.01,9,207.3,16 / 21,7833973,2019-08-16 14:59:47:753,0.1209,0.3024,9.3276,0.0085,0.0111,9.8066,-0.0074,0.0304,-0.0005,-18.26,23.25,-5.13,230.43,8.71,3.25
78337,51.00669,-3.071256,65,20.01,9,207.3,16 / 21,7834073,2019-08-16 14:59:47:853,0.0815,0.0203,9.7031,0.0054,0.002,9.8066,-0.0085,0.008,0.0048,-18.46,23.3,-4.06,230.72,8.74,3.23
78338,51.00669,-3.071256,65,20.01,9,207.3,16 / 21,7834173,2019-08-16 14:59:47:953,-0.2925,-0.4952,9.8464,-0.0378,0.0141,9.8066,0.0096,0.0123,-0.0005,-18.75,22.87,-5.05,230.72,8.74,3.23
78339,51.00669,-3.071256,65,20.01,9,207.3,16 / 21,7834273,2019-08-16 14:59:48:053,0.2547,0.4116,9.6708,0.0002,0.0017,9.8067,0.0096,0.0123,-0.0005,-18.38,23.19,-4.95,230.38,8.66,3.45
78340,51.00669,-3.071256,65,20.01,9,207.3,16 / 21,7834372,2019-08-16 14:59:48:152,0.1439,-0.3883,10.2612,0.0209,-0.0235,9.8066,-0.0181,0.0048,-0.0144,-18.38,23.19,-4.95,230.38,8.66,3.45
78341,51.00669,-3.071256,65,20.01,9,207.3,16 / 21,7834473,2019-08-16 14:59:48:253,0.1059,-0.2027,9.5862,0.048,-0.0353,9.8065,-0.0383,-0.0143,-0.0229,-18.01,23.49,-4.85,230.46,8.68,3.1
78342,51.00669,-3.071256,65,20.01,9,207.3,16 / 21,7834573,2019-08-16 14:59:48:353,0.2066,-0.1997,9.626,0.0234,-0.0137,9.8066,-0.0053,-0.0048,-0.0261,-17.88,23.56,-5.03,230.46,8.68,3.1
78343,51.00669,-3.071256,65,20.01,9,207.3,16 / 21,7834673,2019-08-16 14:59:48:453,0.1867,-0.3739,10.1042,0.0378,-0.0258,9.8065,0.0075,0.0954,-0.008,-17.88,23.56,-5.03,230.46,8.68,3.1
78344,51.00653,-3.071388,64,19.78,9,207.6,16 / 21,7834772,2019-08-16 14:59:48:552,0.3253,0.2387,9.514,-0.002,-0.0074,9.8066,0.0213,-0.0367,-0.008,-18.26,23.25,-5.13,230.52,8.71,2.83
78345,51.00653,-3.071388,64,19.78,9,207.6,16 / 21,7834873,2019-08-16 14:59:48:653,-0.2031,-0.0039,9.1931,-0.0104,0.0017,9.8066,0.0288,0.0155,-0.0016,-17.88,23.56,-5.03,231.7,8.68,2.89
78346,51.00653,-3.071388,64,19.78,9,207.6,16 / 21,7834972,2019-08-16 14:59:48:752,0.0555,-0.2189,9.499,0.0004,0.0238,9.8066,-0.0053,0.0581,0.0091,-17.88,23.56,-5.03,231.7,8.68,2.89
78347,51.00653,-3.071388,64,19.78,9,207.6,16 / 21,7835073,2019-08-16 14:59:48:853,0.041,-0.037,10.1619,-0.0056,0.0205,9.8066,-0.0053,0.0581,0.0091,-18.46,23.3,-4.06,230.77,8.75,2.99
78348,51.00653,-3.071388,64,19.78,9,207.6,16 / 21,7835173,2019-08-16 14:59:48:953,-0.0932,-0.1433,9.6224,-0.0021,0.0146,9.8066,0.016,-0.0026,-0.0165,-17.59,23.96,-4.04,230.77,8.75,2.99
78349,51.00653,-3.071388,64,19.78,9,207.6,16 / 21,7835272,2019-08-16 14:59:49:052,-0.1596,-0.4947,10.2119,-0.0023,0.0046,9.8066,0.0288,-0.0165,-0.024,-17.95,23.66,-4.25,231.93,8.92,3.08
78350,51.00653,-3.071388,64,19.78,9,207.6,16 / 21,7835372,2019-08-16 14:59:49:152,0.217,0.2353,9.9272,-0.0083,-0.0177,9.8066,-0.0053,-0.0325,-0.0218,-17.95,23.66,-4.25,231.93,8.92,3.08
78351,51.00653,-3.071388,64,19.78,9,207.6,16 / 21,7835473,2019-08-16 14:59:49:253,-0.4038,-0.2008,10.1262,-0.0011,-0.0277,9.8066,-0.0096,-0.0048,-0.0048,-18.15,23.67,-3.22,232.24,8.81,3.05
78352,51.00653,-3.071388,64,19.78,9,207.6,16 / 21,7835573,2019-08-16 14:59:49:353,-0.2577,-0.1352,9.5592,0.0111,-0.0067,9.8066,-0.0223,0.0421,-0.0091,-17.51,23.85,-4.92,231.69,8.68,2.96
78353,51.00653,-3.071388,64,19.78,9,207.6,16 / 21,7835672,2019-08-16 14:59:49:452,0.1991,-0.0122,9.6971,0.0108,-0.0404,9.8066,-0.0415,0.0027,-0.0112,-17.59,23.96,-4.04,232.02,8.53,2.76
78354,51.00638,-3.071527,64,19.73,9,208.1,16 / 21,7835773,2019-08-16 14:59:49:553,0.2003,0.3883,9.7853,0.0063,-0.0233,9.8066,-0.0181,-0.0282,-0.0144,-18.46,23.3,-4.06,232.02,8.53,2.76
78355,51.00638,-3.071527,64,19.73,9,208.1,16 / 21,7835873,2019-08-16 14:59:49:653,0.3475,0.2633,9.6145,0.021,-0.0375,9.8066,-0.0181,-0.0282,-0.0144,-18.46,23.3,-4.06,232.02,8.53,2.76
78356,51.00638,-3.071527,64,19.73,9,208.1,16 / 21,7835972,2019-08-16 14:59:49:752,-0.2224,-0.6548,10.1572,0.0242,0.0017,9.8066,-0.0074,0.0155,-0.0165,-17.51,23.85,-4.92,231.8,8.43,2.53
78357,51.00638,-3.071527,64,19.73,9,208.1,16 / 21,7836072,2019-08-16 14:59:49:852,0.0205,-0.2766,9.0216,0.0495,0.0113,9.8065,0.0054,0.0102,-0.0005,-16.89,24.42,-4.25,233.61,8.66,2.34
78358,51.00638,-3.071527,64,19.73,9,208.1,16 / 21,7836173,2019-08-16 14:59:49:953,-0.4731,0.0123,9.7639,-0.0242,0.0309,9.8066,0.0426,-0.0207,-0.0165,-16.89,24.42,-4.25,233.61,8.66,2.34
78359,51.00638,-3.071527,64,19.73,9,208.1,16 / 21,7836272,2019-08-16 14:59:50:052,-0.2132,-0.3162,10.4509,-0.0171,0.0105,9.8066,0.0064,-0.025,-0.0091,-17.67,23.83,-4.45,232.05,8.73,2.56
78360,51.00638,-3.071527,64,19.73,9,208.1,16 / 21,7836373,2019-08-16 14:59:50:153,-0.0512,-0.1345,9.791,-0.0224,0.0043,9.8066,0.0107,0.0368,-0.0069,-18.02,23.75,-3.34,232.05,8.73,2.56
78361,51.00638,-3.071527,64,19.73,9,208.1,16 / 21,7836473,2019-08-16 14:59:50:253,-0.4084,-0.3036,9.4762,-0.0076,-0.0185,9.8066,0.0117,-0.0133,-0.0027,-18.26,23.25,-5.13,230.56,8.67,2.68
78362,51.00638,-3.071527,64,19.73,9,208.1,16 / 21,7836572,2019-08-16 14:59:50:352,0.1225,0.0836,10.0592,-0.0303,-0.0382,9.8065,0.0043,0.0176,-0.0123,-18.09,23.6,-3.98,230.56,8.67,2.68
78363,51.00638,-3.071527,64,19.73,9,208.1,16 / 21,7836672,2019-08-16 14:59:50:452,-0.0377,0.0071,9.7588,-0.0387,-0.0439,9.8065,0.0128,-0.0016,-0.0091,-17.87,24.06,-1.4,232.87,8.32,2.69
78364,51.006226,-3.07167,65,19.69,9,208.7,16 / 21,7836773,2019-08-16 14:59:50:553,-0.4201,-0.4849,10.2594,-0.0047,0.0043,9.8066,0.0128,-0.0016,-0.0091,-17.87,24.06,-1.4,232.87,8.32,2.69
78365,51.006226,-3.07167,65,19.69,9,208.7,16 / 21,7836872,2019-08-16 14:59:50:652,0.0429,0.0819,10.4088,-0.0093,0.0024,9.8066,-0.0074,0.0411,-0.0069,-15.66,25.54,-1.54,237.79,8.3,2.75
78366,51.006226,-3.07167,65,19.69,9,208.7,16 / 21,7836973,2019-08-16 14:59:50:753,-0.3252,-0.579,9.2929,-0.0061,-0.0071,9.8066,-0.0181,0.0325,-0.0091,-15.04,25.92,-1.42,237.79,8.3,2.75
78367,51.006226,-3.07167,65,19.69,9,208.7,16 / 21,7837073,2019-08-16 14:59:50:853,-0.1593,0.0969,8.8151,-0.0123,-0.0208,9.8066,0.0139,-0.0197,-0.0186,-15.58,25.23,-4.55,235.94,8.16,2.74
78368,51.006226,-3.07167,65,19.69,9,208.7,16 / 21,7837173,2019-08-16 14:59:50:953,0.1191,0.3544,9.5155,0.0045,0.0212,9.8066,-0.001,-0.0442,-0.0197,-15.58,25.23,-4.55,235.94,8.16,2.74
78369,51.006226,-3.07167,65,19.69,9,208.7,16 / 21,7837273,2019-08-16 14:59:51:053,-0.0472,0.1976,9.1595,0.0086,-0.0116,9.8066,-0.0309,-0.0356,-0.0059,-17.0,24.1,-5.51,233.01,8.28,2.68
78370,51.006226,-3.07167,65,19.69,9,208.7,16 / 21,7837373,2019-08-16 14:59:51:153,0.0118,-0.3372,9.0154,0.0042,0.0083,9.8066,-0.0128,0.0506,-0.0186,-16.89,24.42,-4.25,233.58,8.26,2.6
78371,51.006226,-3.07167,65,19.69,9,208.7,16 / 21,7837473,2019-08-16 14:59:51:253,0.1305,0.4865,10.1445,0.0232,0.0446,9.8065,0.0043,0.0315,0.0027,-16.89,24.42,-4.25,233.58,8.26,2.6
78372,51.006226,-3.07167,65,19.69,9,208.7,16 / 21,7837573,2019-08-16 14:59:51:353,-0.2812,0.0816,10.0441,-0.0111,-0.0059,9.8066,0.0043,0.0315,0.0027,-18.42,23.45,-3.28,231.14,8.55,2.65
78373,51.006226,-3.07167,65,19.69,9,208.7,16 / 21,7837673,2019-08-16 14:59:51:453,-0.6391,-0.3618,10.1004,-0.05,-0.0137,9.8065,0.0256,0.0006,-0.0016,-17.71,24.11,-2.24,231.14,8.55,2.65
78374,51.006073,-3.071802,65,19.87,9,209.1,16 / 21,7837773,2019-08-16 14:59:51:553,-0.223,-0.0778,9.506,-0.0298,-0.0019,9.8066,0.0075,0.0059,-0.0154,-18.68,23.37,-2.29,229.91,8.3,2.83
78375,51.006073,-3.071802,65,19.87,9,209.1,16 / 21,7837873,2019-08-16 14:59:51:653,-0.0185,0.0685,10.0606,-0.0217,-0.0128,9.8066,-0.0181,0.0315,-0.0112,-18.2,23.74,-2.33,232.57,8.16,2.87
78376,51.006073,-3.071802,65,19.87,9,209.1,16 / 21,7837973,2019-08-16 14:59:51:753,0.0647,0.2551,9.7301,0.0118,-0.0069,9.8066,0.0011,0.0219,-0.0016,-18.61,23.48,-1.46,232.57,8.16,2.87
78377,51.006073,-3.071802,65,19.87,9,209.1,16 / 21,7838073,2019-08-16 14:59:51:853,-0.0469,0.0442,10.3059,0.0089,-0.0057,9.8066,0.0011,-0.0207,-0.0154,-18.61,23.48,-1.46,232.57,8.16,2.87
78378,51.006073,-3.071802,65,19.87,9,209.1,16 / 21,7838173,2019-08-16 14:59:51:953,0.0642,0.1365,9.276,0.0187,0.0009,9.8066,0.0064,-0.0239,-0.0112,-18.46,23.3,-4.06,230.85,8.23,2.79
78379,51.006073,-3.071802,65,19.87,9,209.1,16 / 21,7838273,2019-08-16 14:59:52:053,-0.153,-0.1753,9.2499,0.0269,0.011,9.8066,0.0022,-0.042,-0.0059,-17.16,23.66,-6.77,232.7,8.43,2.73
78380,51.006073,-3.071802,65,19.87,9,209.1,16 / 21,7838374,2019-08-16 14:59:52:154,0.1172,-0.2574,10.0439,0.0208,-0.0002,9.8066,0.0022,-0.042,-0.0059,-17.16,23.66,-6.77,232.7,8.43,2.73
78381,51.006073,-3.071802,65,19.87,9,209.1,16 / 21,7838473,2019-08-16 14:59:52:253,0.0678,-0.1501,10.006,-0.0209,-0.0109,9.8066,0.0075,-0.0047,-0.0027,-17.16,23.66,-6.77,232.71,8.51,2.63
78382,51.006073,-3.071802,65,19.87,9,209.1,16 / 21,7838573,2019-08-16 14:59:52:353,-0.1459,-0.0671,10.1333,-0.0386,-0.0132,9.8066,0.0437,0.0602,-0.0112,-17.63,23.49,-6.14,232.71,8.51,2.63
78383,51.006073,-3.071802,65,19.87,9,209.1,16 / 21,7838672,2019-08-16 14:59:52:452,-0.0689,0.1872,8.9657,-0.0364,-0.0103,9.8066,-0.0032,-0.0303,-0.0122,-17.63,23.49,-6.14,230.29,8.33,2.77
78384,51.00592,-3.07194,66,19.73,9,209.5,16 / 21,7838773,2019-08-16 14:59:52:553,0.1827,0.4566,10.0698,-0.0101,-0.0068,9.8066,0.0043,-0.0079,-0.008,-16.73,24.18,-5.97,232.99,8.26,2.79
78385,51.00592,-3.07194,66,19.73,9,209.5,16 / 21,7838873,2019-08-16 14:59:52:653,-0.1906,-0.1189,10.0218,0.015,0.0019,9.8066,0.0128,0.0144,-0.0186,-16.73,24.18,-5.97,232.99,8.26,2.79
78386,51.00592,-3.07194,66,19.73,9,209.5,16 / 21,7838972,2019-08-16 14:59:52:752,0.3685,0.2757,9.4456,0.0293,0.009,9.8066,0.0,-0.0218,-0.0112,-16.71,23.81,-7.36,232.72,8.41,2.68
78387,51.00592,-3.07194,66,19.73,9,209.5,16 / 21,7839073,2019-08-16 14:59:52:853,0.0153,0.0825,10.4442,0.0267,0.0219,9.8066,0.0043,0.0347,-0.0027,-16.56,24.37,-5.64,232.98,8.6,2.63
78388,51.00592,-3.07194,66,19.73,9,209.5,16 / 21,7839173,2019-08-16 14:59:52:953,0.1251,-0.1619,9.2116,-0.0049,0.0165,9.8066,0.0043,0.0347,-0.0027,-16.56,24.37,-5.64,232.98,8.6,2.63
78389,51.00592,-3.07194,66,19.73,9,209.5,16 / 21,7839273,2019-08-16 14:59:53:053,0.2903,0.0658,9.3282,0.0057,-0.0044,9.8066,-0.0351,-0.0111,-0.0005,-16.65,24.5,-4.77,232.98,8.6,2.63
78390,51.00592,-3.07194,66,19.73,9,209.5,16 / 21,7839373,2019-08-16 14:59:53:153,0.2817,0.2267,9.9066,0.0129,-0.0007,9.8066,0.0064,-0.0143,-0.008,-16.51,23.86,-7.63,232.43,8.6,2.59
78391,51.00592,-3.07194,66,19.73,9,209.5,16 / 21,7839473,2019-08-16 14:59:53:253,0.332,0.0561,9.7158,0.0338,-0.0145,9.8066,0.0139,0.0283,-0.0293,-16.51,23.86,-7.63,232.43,8.6,2.59
78392,51.00592,-3.07194,66,19.73,9,209.5,16 / 21,7839573,2019-08-16 14:59:53:353,-0.2301,0.1982,10.1162,0.0093,-0.0395,9.8066,-0.049,0.0283,-0.0048,-17.42,23.73,-5.8,233.04,8.66,2.38
78393,51.00592,-3.07194,66,19.73,9,209.5,16 / 21,7839673,2019-08-16 14:59:53:453,0.1381,-0.2333,10.1037,0.0142,-0.0364,9.8066,-0.0096,-0.0026,-0.0176,-17.42,23.73,-5.8,233.04,8.66,2.38
78394,51.005764,-3.072079,66,19.7,9,210.3,16 / 21,7839773,2019-08-16 14:59:53:553,0.4623,-0.3577,11.0735,0.0132,-0.0035,9.8066,0.0267,0.0102,-0.008,-17.73,23.88,-3.9,232.13,8.54,2.18
78395,51.005764,-3.072079,66,19.7,9,210.3,16 / 21,7839873,2019-08-16 14:59:53:653,0.3323,-0.0498,10.4823,0.0283,0.0037,9.8066,0.0267,0.0102,-0.008,-17.23,24.23,-3.96,233.66,8.65,2.06
78396,51.005764,-3.072079,66,19.7,9,210.3,16 / 21,7839973,2019-08-16 14:59:53:753,0.0163,0.014,9.2799,0.0027,0.022,9.8066,-0.001,-0.0399,0.0037,-16.53,24.69,-4.16,234.75,8.77,2.13
78397,51.005764,-3.072079,66,19.7,9,210.3,16 / 21,7840074,2019-08-16 14:59:53:854,-0.1439,0.2552,9.2388,-0.024,0.0104,9.8066,0.0224,0.0293,-0.0101,-16.53,24.69,-4.16,234.75,8.77,2.13
78398,51.005764,-3.072079,66,19.7,9,210.3,16 / 21,7840173,2019-08-16 14:59:53:953,0.0284,0.0812,9.5179,-0.0375,0.019,9.8066,-0.001,-0.0026,-0.0101,-16.7,24.57,-4.14,234.7,8.73,2.38
78399,51.005764,-3.072079,66,19.7,9,210.3,16 / 21,7840273,2019-08-16 14:59:54:053,0.01,0.2475,9.4854,0.0035,-0.0043,9.8066,-0.0053,-0.0101,-0.024,-16.9,24.5,-3.75,234.7,8.73,2.38
78400,51.005764,-3.072079,66,19.7,9,210.3,16 / 21,7840374,2019-08-16 14:59:54:154,-0.1906,-0.2587,9.5225,-0.0096,-0.0104,9.8066,0.0032,0.0134,-0.0069,-16.71,24.59,-4.01,234.71,8.72,2.34
78401,51.005764,-3.072079,66,19.7,9,210.3,16 / 21,7840473,2019-08-16 14:59:54:253,-0.1736,0.241,9.4721,-0.0068,-0.0101,9.8066,0.0192,-0.009,-0.0186,-16.71,24.59,-4.01,234.71,8.72,2.34
78402,51.005764,-3.072079,66,19.7,9,210.3,16 / 21,7840573,2019-08-16 14:59:54:353,0.3753,-0.0116,9.3066,0.0235,0.0135,9.8066,0.0032,-0.0527,-0.0165,-16.31,24.74,-4.67,235.98,8.65,2.34
78403,51.005764,-3.072079,66,19.7,9,210.3,16 / 21,7840673,2019-08-16 14:59:54:453,0.1215,-0.3874,9.6296,0.0248,0.0156,9.8066,0.0085,-0.0069,-0.0005,-16.77,24.68,-3.12,235.0,8.79,2.27
78404,51.005615,-3.072216,65,19.57,9,211.0,16 / 21,7840773,2019-08-16 14:59:54:553,0.2327,0.2589,10.0239,0.0292,0.0308,9.8066,0.0085,-0.0069,-0.0005,-16.56,24.37,-5.64,233.03,9.04,2.23
78405,51.005615,-3.072216,65,19.57,9,211.0,16 / 21,7840873,2019-08-16 14:59:54:653,-0.0848,-0.0065,10.0735,-0.0072,0.0236,9.8066,0.0085,0.0443,-0.008,-15.6,24.83,-6.33,233.03,9.04,2.23
78406,51.005615,-3.072216,65,19.57,9,211.0,16 / 21,7840973,2019-08-16 14:59:54:753,0.3349,0.0963,10.0138,-0.0172,0.0277,9.8066,0.0011,-0.0026,-0.0122,-15.6,24.83,-6.33,233.03,9.04,2.23
78407,51.005615,-3.072216,65,19.57,9,211.0,16 / 21,7841072,2019-08-16 14:59:54:852,-0.0164,0.1505,9.9853,-0.0458,0.0118,9.8065,-0.0213,0.0176,-0.0037,-14.94,24.98,-7.26,236.92,8.93,2.49
78408,51.005615,-3.072216,65,19.57,9,211.0,16 / 21,7841172,2019-08-16 14:59:54:952,-0.1006,0.0692,9.5469,-0.0127,-0.0178,9.8066,-0.0053,0.0336,-0.008,-15.8,24.81,-5.93,235.64,8.81,2.5
78409,51.005615,-3.072216,65,19.57,9,211.0,16 / 21,7841273,2019-08-16 14:59:55:053,0.0233,-0.2083,10.2912,-0.0024,0.003,9.8066,-0.0266,0.0144,-0.0091,-16.02,24.71,-5.72,235.64,8.81,2.52
78410,51.005615,-3.072216,65,19.57,9,211.0,16 / 21,7841373,2019-08-16 14:59:55:153,-0.0879,0.3353,9.2834,0.0063,-0.0146,9.8066,-0.0192,-0.0122,-0.0069,-16.02,24.71,-5.72,235.64,8.81,2.52
78411,51.005615,-3.072216,65,19.57,9,211.0,16 / 21,7841474,2019-08-16 14:59:55:254,-0.4815,-0.0884,10.0782,0.0059,0.0041,9.8066,0.0096,-0.0165,0.0027,-15.37,24.92,-6.55,236.96,8.76,2.44
78412,51.005615,-3.072216,65,19.57,9,211.0,16 / 21,7841573,2019-08-16 14:59:55:353,0.1182,-0.1431,9.4517,-0.0041,0.0218,9.8066,0.0096,-0.0165,0.0027,-15.83,24.41,-7.31,234.27,8.8,2.42
78413,51.005615,-3.072216,65,19.57,9,211.0,16 / 21,7841673,2019-08-16 14:59:55:453,0.1065,0.4393,9.7979,0.0034,0.0397,9.8066,0.0128,-0.0367,-0.0112,-15.83,24.41,-7.31,234.27,8.8,2.42
78414,51.005463,-3.072355,66,19.46,9,211.3,13 / 21,7841772,2019-08-16 14:59:55:552,0.3509,-0.0942,8.7356,-0.013,0.0104,9.8066,0.0054,0.0134,-0.0027,-15.94,24.58,-6.46,235.61,9.0,2.55
78415,51.005463,-3.072355,66,19.46,9,211.3,13 / 21,7841873,2019-08-16 14:59:55:653,-0.1429,0.302,9.9118,-0.0312,0.0386,9.8065,0.0022,-0.0442,-0.0133,-15.83,25.19,-3.86,235.61,9.0,2.55
78416,51.005463,-3.072355,66,19.46,9,211.3,13 / 21,7841972,2019-08-16 14:59:55:752,-0.1247,-0.1477,9.5044,-0.0093,-0.0009,9.8066,-0.0138,-0.0314,-0.0133,-15.76,25.08,-4.73,235.83,9.08,2.83
78417,51.005463,-3.072355,66,19.46,9,211.3,13 / 21,7842072,2019-08-16 14:59:55:852,0.2256,0.3282,9.923,-0.0026,0.0067,9.8066,-0.0064,-0.0314,0.0037,-16.02,24.71,-5.72,235.52,9.11,2.86
78418,51.005463,-3.072355,66,19.46,9,211.3,13 / 21,7842173,2019-08-16 14:59:55:953,0.0639,-0.0605,9.9577,-0.0301,-0.015,9.8066,0.0245,0.0336,-0.0016,-16.02,24.71,-5.72,235.52,9.11,2.86
78419,51.005463,-3.072355,66,19.46,9,211.3,13 / 21,7842272,2019-08-16 14:59:56:052,-0.2631,-0.1667,9.5285,-0.0134,-0.0029,9.8066,-0.0085,0.0379,-0.0069,-16.37,24.85,-3.81,236.12,8.94,2.96
78420,51.005463,-3.072355,66,19.46,9,211.3,13 / 21,7842372,2019-08-16 14:59:56:152,-0.2763,0.1244,10.5934,-0.0071,0.0246,9.8066,-0.0085,0.0379,-0.0069,-15.76,25.08,-4.73,235.81,8.88,3.01
78421,51.005463,-3.072355,66,19.46,9,211.3,13 / 21,7842473,2019-08-16 14:59:56:253,-0.4167,-0.2158,9.9818,-0.0061,0.0383,9.8066,0.0075,-0.0016,0.0048,-15.68,24.95,-5.6,235.45,9.04,3.17
78422,51.005463,-3.072355,66,19.46,9,211.3,13 / 21,7842573,2019-08-16 14:59:56:353,-0.2231,0.0753,9.3056,0.0129,0.0201,9.8066,-0.0149,0.0091,0.0027,-15.2,25.42,-4.8,235.45,9.04,3.17
78423,51.005463,-3.072355,66,19.46,9,211.3,13 / 21,7842673,2019-08-16 14:59:56:453,0.0787,0.1626,10.0994,0.0112,0.0084,9.8066,-0.0341,0.0293,-0.0005,-15.83,25.19,-3.86,236.07,9.12,3.14
78424,51.005314,-3.072502,67,19.39,9,211.5,13 / 21,7842773,2019-08-16 14:59:56:553,0.3334,0.4368,10.2986,-0.0137,-0.0038,9.8066,0.0139,0.0197,-0.0027,-15.83,25.19,-3.86,236.07,9.12,3.14
78425,51.005314,-3.072502,67,19.39,9,211.5,13 / 21,7842873,2019-08-16 14:59:56:653,-0.1457,0.2245,9.5434,-0.002,0.0011,9.8066,0.0011,0.007,-0.0176,-15.76,25.08,-4.73,235.75,9.06,3.2
78426,51.005314,-3.072502,67,19.39,9,211.5,13 / 21,7842973,2019-08-16 14:59:56:753,-0.2521,-0.2441,9.4351,-0.0055,-0.0074,9.8066,-0.017,0.0006,-0.0091,-15.76,25.08,-4.73,235.75,9.0,3.2
78427,51.005314,-3.072502,67,19.39,9,211.5,13 / 21,7843073,2019-08-16 14:59:56:853,-0.1239,0.4447,9.6479,-0.0066,-0.0244,9.8066,0.0256,-0.0207,-0.0069,-15.76,25.08,-4.73,235.75,9.0,3.2
78428,51.005314,-3.072502,67,19.39,9,211.5,13 / 21,7843172,2019-08-16 14:59:56:952,0.231,-0.0076,9.1003,0.0113,0.0188,9.8066,-0.001,0.0038,-0.0005,-16.31,24.74,-4.67,235.78,8.86,3.17
78429,51.005314,-3.072502,67,19.39,9,211.5,13 / 21,7843273,2019-08-16 14:59:57:053,0.1693,0.1078,9.7543,0.0198,0.0522,9.8065,-0.001,0.0038,-0.0005,-16.1,24.84,-4.84,235.72,9.18,3.25
78430,51.005314,-3.072502,67,19.39,9,211.5,13 / 21,7843374,2019-08-16 14:59:57:154,0.4397,0.276,9.4329,0.0159,0.0397,9.8066,0.0011,-0.0378,-0.0005,-16.1,24.84,-4.84,235.72,9.18,3.25
78431,51.005314,-3.072502,67,19.39,9,211.5,13 / 21,7843473,2019-08-16 14:59:57:253,-0.2364,-0.5652,8.8281,-0.0155,0.003,9.8066,0.0544,-0.0538,-0.0123,-15.83,25.19,-3.86,236.01,9.42,3.31
78432,51.005314,-3.072502,67,19.39,9,211.5,13 / 21,7843573,2019-08-16 14:59:57:353,-0.2031,0.1523,11.05,0.0018,0.0148,9.8066,0.0426,0.0027,-0.0154,-15.43,25.31,-4.63,237.26,9.38,3.39
78433,51.005314,-3.072502,67,19.39,9,211.5,13 / 21,7843673,2019-08-16 14:59:57:453,0.0205,0.1535,11.4301,0.0123,0.017,9.8066,-0.0096,0.0762,-0.0016,-15.43,25.31,-4.63,237.26,9.38,3.39
78434,51.005154,-3.072649,67,19.36,9,211.7,14 / 21,7843772,2019-08-16 14:59:57:552,0.2718,0.2249,10.8969,-0.0135,-0.0122,9.8066,0.0299,0.0474,-0.0027,-15.2,25.42,-4.8,237.25,9.51,3.38
78435,51.005154,-3.072649,67,19.36,9,211.7,14 / 21,7843873,2019-08-16 14:59:57:653,-0.0126,-0.4424,10.04,-0.0597,-0.0613,9.8063,-0.0351,0.0538,-0.0016,-16.15,24.5,-6.24,235.37,9.02,3.49
78436,51.005154,-3.072649,67,19.36,9,211.7,14 / 21,7843973,2019-08-16 14:59:57:753,-0.1606,0.3568,10.7368,-0.0243,-0.0015,9.8066,-0.0351,0.0538,-0.0016,-16.15,24.5,-6.24,235.37,9.02,3.49
78437,51.005154,-3.072649,67,19.36,9,211.7,14 / 21,7844073,2019-08-16 14:59:57:853,-0.5025,-0.3867,9.1239,0.0076,0.0053,9.8066,-0.0213,0.0261,0.0037,-15.12,25.28,-5.67,236.95,8.93,3.6
78438,51.005154,-3.072649,67,19.36,9,211.7,14 / 21,7844172,2019-08-16 14:59:57:952,0.2956,-0.0394,9.5485,0.0242,0.0152,9.8066,-0.0074,0.0304,-0.0282,-15.37,24.92,-6.55,236.62,9.08,3.53
78439,51.005154,-3.072649,67,19.36,9,211.7,14 / 21,7844273,2019-08-16 14:59:58:053,0.1847,0.1257,10.0794,0.0441,0.0213,9.8065,-0.0245,-0.0687,-0.0027,-15.37,24.92,-6.55,236.62,9.08,3.53
78440,51.005154,-3.072649,67,19.36,9,211.7,14 / 21,7844373,2019-08-16 14:59:58:153,-0.1019,0.0581,9.0223,0.0196,0.0155,9.8066,-0.0032,-0.0356,-0.0005,-15.38,24.94,-6.42,236.94,9.33,3.38
78441,51.005154,-3.072649,67,19.36,9,211.7,14 / 21,7844473,2019-08-16 14:59:58:253,0.1286,0.2983,10.2355,-0.0066,0.0167,9.8066,0.0331,-0.009,0.0005,-15.37,24.92,-6.55,236.61,9.46,3.33
78442,51.005154,-3.072649,67,19.36,9,211.7,14 / 21,7844572,2019-08-16 14:59:58:352,-0.1834,-0.0048,11.5018,-0.0228,0.0239,9.8066,-0.0042,0.0123,0.0123,-15.36,25.18,-5.48,236.61,9.46,3.33
78443,51.005154,-3.072649,67,19.36,9,211.7,14 / 21,7844673,2019-08-16 14:59:58:453,0.0494,-0.1435,10.7474,-0.0587,0.0197,9.8065,0.0576,0.1124,-0.0005,-15.36,25.18,-5.48,236.61,9.46,3.33
78444,51.00501,-3.072794,66,19.1,9,211.9,14 / 21,7844772,2019-08-16 14:59:58:552,-0.4749,-0.5278,8.4899,-0.048,-0.0367,9.8065,0.0576,0.1124,-0.0005,-16.32,24.76,-4.55,235.6,9.37,3.69
78445,51.00501,-3.072794,66,19.1,9,211.9,14 / 21,7844873,2019-08-16 14:59:58:653,-0.0076,-0.4587,9.874,-0.0229,-0.033,9.8066,-0.1172,0.007,0.0005,-15.43,25.31,-4.63,237.22,9.14,3.69
78446,51.00501,-3.072794,66,19.1,9,211.9,14 / 21,7844973,2019-08-16 14:59:58:753,0.0711,0.3069,10.5011,0.0378,-0.0453,9.8065,-0.0405,-0.1315,-0.008,-16.1,24.84,-4.84,237.22,9.14,3.69
78447,51.00501,-3.072794,66,19.1,9,211.9,14 / 21,7845073,2019-08-16 14:59:58:853,-0.2702,-0.5328,8.427,0.0812,-0.0282,9.8063,0.0565,-0.0665,-0.0165,-16.24,24.64,-5.4,235.73,9.25,3.19
78448,51.00501,-3.072794,66,19.1,9,211.9,14 / 21,7845173,2019-08-16 14:59:58:953,0.5459,-0.4981,10.4165,0.0522,-0.0142,9.8065,-0.0096,-0.0591,-0.0176,-16.24,24.64,-5.4,235.73,9.25,3.19
78449,51.00501,-3.072794,66,19.1,9,211.9,14 / 21,7845273,2019-08-16 14:59:59:053,-0.0249,-0.7343,9.8593,0.0668,-0.0244,9.8064,0.0256,0.0208,-0.0059,-15.21,25.43,-4.67,237.41,9.36,2.79
78450,51.00501,-3.072794,66,19.1,9,211.9,14 / 21,7845373,2019-08-16 14:59:59:153,0.3196,-0.5468,10.2145,-0.0325,-0.0279,9.8066,0.0288,0.0677,-0.0091,-15.21,25.43,-4.67,237.41,9.36,2.79
78451,51.00501,-3.072794,66,19.1,9,211.9,14 / 21,7845472,2019-08-16 14:59:59:252,0.1291,0.1993,9.5836,-0.026,-0.0502,9.8065,-0.0032,-0.0474,0.0037,-16.24,24.64,-5.4,235.85,9.03,2.75
78452,51.00501,-3.072794,66,19.1,9,211.9,14 / 21,7845573,2019-08-16 14:59:59:353,-0.3304,-0.1026,9.297,0.0349,0.0217,9.8066,-0.0032,-0.0474,0.0037,-16.24,24.64,-5.4,235.85,9.03,2.75
78453,51.00501,-3.072794,66,19.1,9,211.9,14 / 21,7845673,2019-08-16 14:59:59:453,-0.1965,-0.2387,10.3233,-0.0245,-0.0271,9.8066,0.0149,0.0389,-0.025,-15.2,25.42,-4.8,237.45,9.25,2.66
78454,51.004868,-3.07295,67,18.9,9,212.8,14 / 21,7845773,2019-08-16 14:59:59:553,0.1886,0.2198,10.1037,-0.0383,-0.0439,9.8065,0.0043,-0.0186,-0.0101,-15.61,25.31,-4.0,237.45,9.25,2.66
78455,51.004868,-3.07295,67,18.9,9,212.8,14 / 21,7845873,2019-08-16 14:59:59:653,0.3655,0.2533,9.241,0.013,0.0116,9.8066,0.0256,-0.0122,-0.0133,-15.83,25.19,-3.86,236.17,8.91,2.71
78456,51.004868,-3.07295,67,18.9,9,212.8,14 / 21,7845973,2019-08-16 14:59:59:753,-0.1648,0.1406,9.6325,0.0242,0.0026,9.8066,-0.0405,0.0016,-0.0176,-15.37,25.2,-5.36,236.17,8.91,2.71
78457,51.004868,-3.07295,67,18.9,9,212.8,14 / 21,7846073,2019-08-16 14:59:59:853,-0.6961,-0.6708,9.2736,-0.0218,-0.0303,9.8066,-0.0032,0.1423,0.0154,-15.43,25.31,-4.63,237.49,9.0,2.6
78458,51.004868,-3.07295,67,18.9,9,212.8,14 / 21,7846173,2019-08-16 14:59:59:953,-0.134,0.0866,9.8191,-0.0312,-0.0708,9.8063,-0.0096,-0.0314,-0.0048,-15.5,25.41,-3.78,237.49,9.0,2.6
78459,51.004868,-3.07295,67,18.9,9,212.8,14 / 21,7846273,2019-08-16 15:00:00:053,0.1114,0.1581,9.9679,-0.0094,-0.043,9.8066,-0.0096,-0.0314,-0.0048,-15.17,25.62,-3.7,238.83,8.76,2.51
78460,51.004868,-3.07295,67,18.9,9,212.8,14 / 21,7846373,2019-08-16 15:00:00:153,-0.0489,-0.2699,9.0233,0.0242,0.0145,9.8066,-0.0106,-0.041,0.0069,-14.29,25.95,-4.75,238.83,8.76,2.51
78461,51.004868,-3.07295,67,18.9,9,212.8,14 / 21,7846472,2019-08-16 15:00:00:252,0.2498,0.0388,10.3099,0.0225,-0.0102,9.8066,-0.0032,0.0134,-0.0048,-14.29,25.95,-4.75,238.83,8.76,2.51
78462,51.004868,-3.07295,67,18.9,9,212.8,14 / 21,7846573,2019-08-16 15:00:00:353,-0.5603,-0.488,8.352,-0.0112,0.0056,9.8066,0.0235,-0.0687,-0.0154,-15.43,25.31,-4.63,237.57,8.7,2.36
78463,51.004868,-3.07295,67,18.9,9,212.8,14 / 21,7846672,2019-08-16 15:00:00:452,-0.3186,0.1087,10.6844,-0.0377,0.0213,9.8066,0.0149,0.0506,-0.0037,-15.37,25.2,-5.36,237.57,8.7,2.36
78464,51.004868,-3.07295,67,18.9,9,212.8,16 / 21,7846773,2019-08-16 15:00:00:553,-0.332,-0.5413,10.6189,-0.0651,-0.0087,9.8064,-0.0202,0.0602,-0.0016,-14.67,25.48,-5.95,237.24,8.46,2.66
78465,51.00472,-3.073088,67,18.91,9,213.4,16 / 21,7846873,2019-08-16 15:00:00:653,-0.1918,-0.3574,10.7157,-0.0157,-0.0168,9.8066,0.0224,-0.0037,-0.0186,-14.67,25.48,-5.95,237.24,8.46,2.66
78466,51.00472,-3.073088,67,18.91,9,213.4,16 / 21,7846973,2019-08-16 15:00:00:753,-0.3229,0.0093,9.0685,-0.0056,-0.0047,9.8066,-0.0383,-0.0111,0.008,-14.23,25.83,-5.5,240.18,8.32,2.68
78467,51.00472,-3.073088,67,18.91,9,213.4,16 / 21,7847073,2019-08-16 15:00:00:853,0.0261,-0.1174,9.1666,-0.0087,-0.0158,9.8066,-0.0383,-0.0111,0.008,-14.23,25.83,-5.5,240.18,8.32,2.68
78468,51.00472,-3.073088,67,18.91,9,213.4,16 / 21,7847173,2019-08-16 15:00:00:953,0.2886,0.5052,9.9881,-0.0031,-0.0047,9.8066,0.0352,0.0283,-0.0133,-14.23,25.83,-5.5,240.18,8.29,2.68
78469,51.00472,-3.073088,67,18.91,9,213.4,16 / 21,7847273,2019-08-16 15:00:01:053,0.3468,0.0626,10.1618,0.005,0.001,9.8067,-0.0181,0.0368,0.0048,-13.72,26.09,-5.55,239.9,8.31,2.66
78470,51.00472,-3.073088,67,18.91,9,213.4,16 / 21,7847373,2019-08-16 15:00:01:153,-0.323,-0.2299,9.1757,-0.0249,0.0249,9.8066,-0.0064,-0.0506,0.0112,-13.72,26.09,-5.55,239.9,8.31,2.66
78471,51.00472,-3.073088,67,18.91,9,213.4,16 / 21,7847472,2019-08-16 15:00:01:252,-0.4918,-0.1568,10.9814,-0.0253,-0.0306,9.8066,0.0309,-0.0005,-0.0154,-13.36,26.15,-6.15,241.52,8.36,2.86
78472,51.00472,-3.073088,67,18.91,9,213.4,16 / 21,7847573,2019-08-16 15:00:01:353,-0.1417,-0.5053,9.6107,-0.0108,0.0157,9.8066,-0.001,0.0059,0.0112,-15.34,25.41,-4.39,237.8,8.14,2.91
78473,51.00472,-3.073088,67,18.91,9,213.4,16 / 21,7847673,2019-08-16 15:00:01:453,-0.2367,-0.0701,10.5106,-0.0321,0.0189,9.8066,-0.0064,0.0016,-0.0059,-15.34,25.41,-4.39,237.8,8.14,2.91
78474,51.004585,-3.07324,66,18.74,9,214.0,16 / 21,7847773,2019-08-16 15:00:01:553,-0.0792,-0.254,10.2459,-0.0199,-0.0123,9.8066,0.0192,-0.0154,-0.0218,-14.04,26.24,-3.79,240.4,8.13,3.13
78475,51.004585,-3.07324,66,18.74,9,214.0,16 / 21,7847872,2019-08-16 15:00:01:652,-0.2079,-0.1537,10.1803,-0.0216,-0.0127,9.8066,0.0213,0.0048,0.0069,-14.56,25.83,-4.59,238.48,8.01,3.19
78476,51.004585,-3.07324,66,18.74,9,214.0,16 / 21,7847973,2019-08-16 15:00:01:753,-0.1804,0.3891,9.4793,-0.033,-0.02,9.8066,0.0213,0.0048,0.0069,-14.9,25.89,-2.79,238.48,8.01,3.19
78477,51.004585,-3.07324,66,18.74,9,214.0,16 / 21,7848073,2019-08-16 15:00:01:853,0.0149,0.4145,9.6596,-0.0354,-0.0276,9.8065,-0.0021,-0.009,0.0112,-14.61,25.93,-3.74,238.76,7.76,3.29
