,GPS LATITUDE (degrees), GPS LONGITUDE (degrees), GPS ALTITUDE (m), GPS SPEED (Kmh), GPS ACCURACY (m), GPS ORIENTATION (Â°),GPS SATELLITES IN RANGE, TIME SINCE START (ms), DATE (YYYY-MO-DD HH-MI-SS_SSS), ACCELEROMETER X (m/s²) , ACCELEROMETER Y (m/s²), ACCELEROMETER Z (m/s²), GRAVITY X (m/s²), GRAVITY Y (m/s²), GRAVITY Z (m/s²), GYROSCOPE Yaw (rad/s), GYROSCOPE Pitch (rad/s), GYROSCOPE Roll (rad/s), MAGNETIC FIELD X (Î¼T), MAGNETIC FIELD Y (Î¼T), MAGNETIC FIELD Z (Î¼T), ORIENTATION (Yaw) (Â°), ORIENTATION (Pitch) (Â°), ORIENTATION (Roll ) (Â°)
64858,50.481598,-4.698233,225,26.24,11.0,197.2,Jun-22,6420042,2019-08-17 09:07:29:409,0.1574,-0.2572,9.6168,0.0534,-0.0305,9.8065,0.0015,0.016,0.0005,-16.01,6.95,-41.4,197.34,5.67,1.06
64859,50.481598,-4.698233,225,26.24,11.0,197.2,Jun-22,6420141,2019-08-17 09:07:29:508,0.1267,-0.2765,9.4089,-0.0064,-0.0138,9.8066,0.0026,0.0256,0.0207,-16.01,6.95,-41.84,197.58,5.92,0.79
64860,50.481598,-4.698233,225,26.24,11.0,197.2,Jun-22,6420241,2019-08-17 09:07:29:608,0.1602,-0.0807,9.8612,-0.0355,-0.0169,9.8066,-0.0219,-0.0053,0.0314,-16.38,6.95,-42.21,197.77,5.69,0.76
64861,50.481598,-4.698233,225,26.24,11.0,197.2,Jun-22,6420341,2019-08-17 09:07:29:708,0.2677,-0.348,9.8282,-0.032,-0.0142,9.8066,0.01,0.0309,0.042,-16.38,7.32,-41.84,197.77,5.69,0.76
64862,50.481598,-4.698233,225,26.24,11.0,197.2,Jun-22,6420441,2019-08-17 09:07:29:808,-0.3906,0.0597,10.9519,-0.0587,-0.024,9.8064,-0.0028,-0.048,0.0143,-16.38,7.32,-41.84,197.77,5.69,0.76
64863,50.481598,-4.698233,225,26.24,11.0,197.2,Jun-22,6420540,2019-08-17 09:07:29:907,0.0794,-0.0309,9.7996,-0.0034,-0.0002,9.8067,0.01,0.0053,0.009,-16.38,6.95,-40.59,198.16,5.32,0.73
64864,50.481365,-4.698328,224,26.18,11.0,196.0,Jun-22,6420642,2019-08-17 09:07:30:009,-0.1183,-0.0718,10.0167,0.012,-0.0082,9.8066,0.01,0.0053,0.009,-16.38,6.95,-40.96,198.26,5.37,0.66
64865,50.481365,-4.698328,224,26.18,11.0,196.0,Aug-22,6420741,2019-08-17 09:07:30:108,-0.0648,-0.1907,9.2239,0.0268,0.0053,9.8066,-0.0113,-0.0511,0.0175,-16.38,6.57,-41.84,198.26,5.37,0.66
64866,50.481365,-4.698328,224,26.18,11.0,196.0,Aug-22,6420841,2019-08-17 09:07:30:208,0.1216,0.0232,9.7783,0.0471,0.0186,9.8065,-0.0209,-0.0373,0.0239,-16.38,6.57,-41.84,198.26,5.37,0.66
64867,50.481365,-4.698328,224,26.18,11.0,196.0,Aug-22,6420942,2019-08-17 09:07:30:309,-0.0101,-0.2006,9.3415,-0.0008,-0.0113,9.8066,-0.0006,0.0703,0.0111,-16.76,6.57,-41.34,197.36,5.67,0.62
64868,50.481365,-4.698328,224,26.18,11.0,196.0,Aug-22,6421041,2019-08-17 09:07:30:408,-0.3521,-0.1879,10.0911,0.0005,-0.0167,9.8066,-0.0006,0.017,0.0122,-16.38,6.57,-41.4,198.3,5.64,0.56
64869,50.481365,-4.698328,224,26.18,11.0,196.0,Aug-22,6421141,2019-08-17 09:07:30:508,-0.0308,0.1613,10.2141,-0.0119,-0.0485,9.8065,0.009,0.0128,0.0079,-16.38,6.57,-41.4,198.3,5.64,0.56
64870,50.481365,-4.698328,224,26.18,11.0,196.0,Aug-22,6421240,2019-08-17 09:07:30:607,0.0735,-0.046,9.1074,-0.0124,-0.0133,9.8066,0.0249,0.0106,-0.007,-16.38,6.95,-42.21,198.76,5.49,0.31
64871,50.481365,-4.698328,224,26.18,11.0,196.0,Aug-22,6421341,2019-08-17 09:07:30:708,0.5225,-0.2064,9.5068,0.0054,-0.0193,9.8066,-0.0219,-0.0522,0.0133,-16.38,6.57,-40.52,199.01,5.39,0.26
64872,50.481365,-4.698328,224,26.18,11.0,196.0,Aug-22,6421441,2019-08-17 09:07:30:808,0.4496,-0.395,9.5599,0.018,-0.0242,9.8066,-0.0219,-0.0522,0.0133,-16.38,6.57,-40.52,199.01,5.39,0.26
64873,50.481365,-4.698328,224,26.18,11.0,196.0,Aug-22,6421541,2019-08-17 09:07:30:908,0.6725,-0.2124,9.061,0.0119,0.0005,9.8066,0.0228,0.0458,0.0015,-16.38,6.57,-40.96,199.29,5.45,0.09
64874,50.481136,-4.698434,225,25.89,11.0,195.0,Aug-22,6421641,2019-08-17 09:07:31:008,0.38,-0.0548,9.6959,0.036,-0.0198,9.8066,-0.04,-0.065,0.0196,-16.38,6.2,-40.96,196.92,5.61,-0.09
64875,50.481136,-4.698434,225,25.89,11.0,195.0,Sep-22,6421741,2019-08-17 09:07:31:108,-0.0636,0.0419,9.7746,0.0341,-0.0167,9.8066,-0.0006,0.0234,0.0196,-16.38,6.2,-40.96,196.92,5.61,-0.09
64876,50.481136,-4.698434,225,25.89,11.0,195.0,Sep-22,6421841,2019-08-17 09:07:31:208,0.0725,-0.0989,9.635,-0.0193,-0.0233,9.8066,0.01,0.0128,0.0047,-16.01,6.57,-41.34,199.7,5.77,-0.24
64877,50.481136,-4.698434,225,25.89,11.0,195.0,Sep-22,6421941,2019-08-17 09:07:31:308,-0.1845,0.043,10.2716,-0.011,0.0023,9.8066,0.0068,0.0064,0.0015,-16.38,6.2,-40.9,197.53,5.45,-0.36
64878,50.481136,-4.698434,225,25.89,11.0,195.0,Sep-22,6422041,2019-08-17 09:07:31:408,-0.0989,-0.2957,9.6609,-0.0077,-0.0081,9.8066,0.0164,-0.0064,0.0218,-16.76,6.57,-41.34,199.21,5.39,-0.33
64879,50.481136,-4.698434,225,25.89,11.0,195.0,Sep-22,6422141,2019-08-17 09:07:31:508,-0.0857,-0.0414,9.6883,0.0008,-0.0051,9.8067,0.0164,-0.0064,0.0218,-16.38,6.57,-40.96,199.21,5.39,-0.33
64880,50.481136,-4.698434,225,25.89,11.0,195.0,Sep-22,6422241,2019-08-17 09:07:31:608,0.2237,0.1129,9.3194,0.0158,0.0233,9.8066,0.026,-0.065,0.0132,-16.76,6.95,-41.34,198.96,5.52,-0.23
64881,50.481136,-4.698434,225,25.89,11.0,195.0,Sep-22,6422341,2019-08-17 09:07:31:708,-0.0212,0.0664,10.3661,0.0294,0.0064,9.8066,-0.0187,-0.0096,-0.0049,-16.38,6.95,-41.34,198.96,5.52,-0.23
64882,50.481136,-4.698434,225,25.89,11.0,195.0,Sep-22,6422440,2019-08-17 09:07:31:807,-0.4568,0.2524,9.9293,0.0606,0.0218,9.8064,-0.007,-0.0405,0.0186,-16.38,6.95,-41.34,198.96,5.52,-0.23
64883,50.481136,-4.698434,225,25.89,11.0,195.0,Sep-22,6422541,2019-08-17 09:07:31:908,-0.1333,0.3966,10.0379,-0.0014,-0.0132,9.8066,0.01,0.0277,-0.0059,-16.38,6.2,-40.96,197.02,5.9,-0.23
64884,50.480904,-4.698521,225,26.09,10.0,194.5,Sep-22,6422642,2019-08-17 09:07:32:009,-0.3174,0.0932,10.2777,-0.0271,-0.0249,9.8066,-0.0219,-0.0192,0.0292,-16.76,6.57,-41.34,199.01,5.7,-0.32
64885,50.480904,-4.698521,225,26.09,10.0,194.5,Sep-22,6422740,2019-08-17 09:07:32:107,-0.3769,-0.1507,9.8065,-0.0101,-0.007,9.8066,0.0462,-0.0075,-0.0208,-16.76,6.57,-41.34,199.01,5.7,-0.32
64886,50.480904,-4.698521,225,26.09,10.0,194.5,Sep-22,6422841,2019-08-17 09:07:32:208,-0.1656,0.6405,9.5537,-0.0113,-0.0039,9.8066,0.0462,-0.0075,-0.0208,-16.76,6.57,-41.71,198.98,5.63,-0.32
64887,50.480904,-4.698521,225,26.09,10.0,194.5,Sep-22,6422942,2019-08-17 09:07:32:309,-0.0137,0.0046,9.1174,0.003,-0.0104,9.8066,0.0196,0.0213,0.0218,-16.76,6.95,-40.9,198.98,5.63,-0.32
64888,50.480904,-4.698521,225,26.09,10.0,194.5,Sep-22,6423041,2019-08-17 09:07:32:408,-0.0634,0.3061,9.8822,-0.0014,-0.012,9.8066,-0.007,-0.0107,0.0143,-16.76,6.57,-40.9,199.18,5.6,-0.38
64889,50.480904,-4.698521,225,26.09,10.0,194.5,Sep-22,6423141,2019-08-17 09:07:32:508,-0.1244,-0.1469,9.3174,-0.0005,-0.0079,9.8066,0.0111,-0.0117,0.0037,-16.76,6.57,-40.9,199.18,5.6,-0.38
64890,50.480904,-4.698521,225,26.09,10.0,194.5,Sep-22,6423241,2019-08-17 09:07:32:608,0.1302,0.5875,8.0297,-0.0044,0.0,9.8066,-0.04,0.0703,-0.0027,-17.07,6.57,-41.71,199.2,5.58,-0.43
64891,50.480904,-4.698521,225,26.09,10.0,194.5,Sep-22,6423341,2019-08-17 09:07:32:708,-0.0337,-0.4799,10.5657,-0.0194,0.0136,9.8066,0.0452,-0.0629,0.0122,-16.76,6.95,-42.15,199.2,5.58,-0.43
64892,50.480904,-4.698521,225,26.09,10.0,194.5,Sep-22,6423440,2019-08-17 09:07:32:807,-0.4407,-0.2275,10.5545,0.0036,0.0049,9.8066,-0.0305,0.0383,0.0303,-17.07,6.2,-42.15,196.56,5.5,-0.31
64893,50.480904,-4.698521,225,26.09,10.0,194.5,Sep-22,6423541,2019-08-17 09:07:32:908,0.0056,-0.141,10.1562,0.0014,-0.0027,9.8067,-0.0347,0.0288,0.009,-17.44,6.57,-42.21,198.99,5.53,-0.29
64894,50.480667,-4.698619,225,26.12,11.0,194.6,Sep-22,6423642,2019-08-17 09:07:33:009,0.1991,0.461,9.7512,0.0116,-0.0219,9.8066,-0.0347,0.0288,0.009,-17.44,6.57,-42.21,198.99,5.53,-0.29
64895,50.480667,-4.698619,225,26.12,11.0,194.6,Sep-22,6423741,2019-08-17 09:07:33:108,-0.1779,0.6484,9.4556,0.0319,-0.0052,9.8066,-0.0496,0.0405,0.0143,-17.13,6.95,-41.77,199.23,5.56,-0.44
64896,50.480667,-4.698619,225,26.12,11.0,194.6,Sep-22,6423841,2019-08-17 09:07:33:208,-0.4147,0.6378,9.8322,0.0723,-0.0357,9.8063,-0.0624,-0.0756,-0.0102,-17.07,6.2,-42.15,197.2,5.89,-0.77
64897,50.480667,-4.698619,225,26.12,11.0,194.6,Sep-22,6423940,2019-08-17 09:07:33:307,-0.5598,0.139,10.2603,0.0247,-0.0355,9.8066,-0.0528,0.0032,0.0122,-17.07,6.57,-42.15,197.2,5.89,-0.77
64898,50.480667,-4.698619,225,26.12,11.0,194.6,Sep-22,6424041,2019-08-17 09:07:33:408,-0.2705,0.6473,10.5507,0.0119,-0.0475,9.8065,0.1847,-0.0021,0.0005,-17.07,6.95,-41.71,200.15,5.87,-1.06
64899,50.480667,-4.698619,225,26.12,11.0,194.6,Sep-22,6424141,2019-08-17 09:07:33:508,-0.6082,0.1423,9.9839,-0.1526,0.1014,9.8049,0.0537,-0.0682,0.0335,-18.19,6.2,-41.27,200.15,5.87,-1.06
64900,50.480667,-4.698619,225,26.12,11.0,194.6,Sep-22,6424241,2019-08-17 09:07:33:608,-0.3321,0.5214,10.9682,-0.2109,0.1269,9.8036,0.0761,0.0639,0.009,-18.19,6.2,-41.27,200.15,5.87,-1.06
64901,50.480667,-4.698619,225,26.12,11.0,194.6,Sep-22,6424341,2019-08-17 09:07:33:708,-0.3295,0.1338,11.0455,-0.0124,0.0286,9.8066,0.0367,-0.0469,0.0463,-18.94,7.7,-42.59,199.34,4.97,0.06
64902,50.480667,-4.698619,225,26.12,11.0,194.6,Sep-22,6424441,2019-08-17 09:07:33:808,0.0105,0.1678,9.9481,-0.0255,0.0665,9.8064,0.0367,-0.0469,0.0463,-17.44,6.95,-43.4,199.34,4.97,0.06
64903,50.480667,-4.698619,225,26.12,11.0,194.6,Sep-22,6424540,2019-08-17 09:07:33:907,-0.0148,0.3205,10.7332,-0.0255,0.0944,9.8062,0.0377,-0.0117,0.0069,-16.01,5.13,-42.96,192.93,5.01,0.64
64904,50.480453,-4.698711,225,25.76,11.0,193.8,Sep-22,6424641,2019-08-17 09:07:34:008,0.3369,0.1083,10.1275,0.0423,0.0114,9.8066,-0.0518,-0.0256,0.0111,-16.01,5.13,-42.96,192.93,5.01,0.64
64905,50.480453,-4.698711,225,25.76,11.0,193.8,Sep-22,6424741,2019-08-17 09:07:34:108,0.0719,0.053,9.4713,0.0841,-0.0161,9.8063,-0.0475,-0.0043,0.0047,-15.26,5.88,-41.71,196.38,5.27,0.65
64906,50.480453,-4.698711,225,25.76,11.0,193.8,Sep-22,6424841,2019-08-17 09:07:34:208,0.3145,-0.0688,10.0209,0.0766,-0.0586,9.8062,-0.0379,0.0724,0.0154,-11.94,6.2,-40.84,200.2,5.6,0.19
64907,50.480453,-4.698711,225,25.76,11.0,193.8,Sep-22,6424941,2019-08-17 09:07:34:308,0.4568,-0.4021,10.5923,-0.0179,-0.053,9.8065,-0.0017,0.1044,-0.0049,-11.94,6.2,-40.84,200.2,5.6,0.19
64908,50.480453,-4.698711,225,25.76,11.0,193.8,Sep-22,6425040,2019-08-17 09:07:34:407,0.3522,-0.6995,11.1025,0.0068,-0.0389,9.8066,-0.0645,-0.0107,0.0324,-11.19,4.01,-40.02,195.38,5.39,-0.07
64909,50.480453,-4.698711,225,25.76,11.0,193.8,Sep-22,6425141,2019-08-17 09:07:34:508,-0.0784,-0.3029,9.5316,-0.0026,-0.03,9.8066,0.0271,0.0714,0.0058,-12.69,3.63,-40.46,195.38,5.39,-0.07
64910,50.480453,-4.698711,225,25.76,11.0,193.8,Sep-22,6425242,2019-08-17 09:07:34:609,-0.2966,0.3537,9.545,-0.0394,-0.042,9.8065,0.0271,0.0714,0.0058,-14.51,3.63,-37.9,192.8,5.11,-0.24
64911,50.480453,-4.698711,225,25.76,11.0,193.8,Sep-22,6425341,2019-08-17 09:07:34:708,0.044,0.0974,9.0768,-0.0123,-0.0149,9.8066,-0.0262,-0.0224,0.0164,-14.51,3.63,-37.9,192.8,5.11,-0.24
64912,50.480453,-4.698711,225,25.76,11.0,193.8,Sep-22,6425441,2019-08-17 09:07:34:808,-0.0837,0.4075,9.3189,0.0414,0.0173,9.8065,-0.006,-0.016,0.0143,-17.07,5.51,-37.9,196.84,5.28,-0.27
64913,50.480453,-4.698711,225,25.76,11.0,193.8,Sep-22,6425541,2019-08-17 09:07:34:908,-0.1119,0.3597,10.2921,0.047,0.0056,9.8065,0.0036,-0.0021,-0.0027,-17.44,6.57,-38.77,196.84,5.28,-0.27
64914,50.48024,-4.698775,225,25.21,11.0,192.4,Sep-22,6425642,2019-08-17 09:07:35:009,0.0519,-0.4227,10.5654,-0.0117,0.0048,9.8066,-0.0028,0.0192,0.0058,-17.82,5.88,-39.15,196.0,5.55,-0.32
64915,50.48024,-4.698775,225,25.21,11.0,192.4,Sep-22,6425740,2019-08-17 09:07:35:107,0.5561,-0.1005,10.3855,-0.0419,0.0154,9.8066,0.0281,-0.0341,-0.0134,-18.19,6.57,-40.84,198.13,5.34,-0.16
64916,50.48024,-4.698775,225,25.21,11.0,192.4,Sep-22,6425841,2019-08-17 09:07:35:208,0.1781,-0.0819,11.5886,-0.0236,-0.0087,9.8066,-0.0667,-0.0565,0.0037,-17.44,6.95,-40.84,199.04,5.19,-0.17
64917,50.48024,-4.698775,225,25.21,11.0,192.4,Sep-22,6425941,2019-08-17 09:07:35:308,0.1269,-0.4519,9.6737,-0.0257,-0.0164,9.8066,0.0132,-0.0213,0.0175,-17.44,6.95,-40.84,199.04,5.19,-0.17
64918,50.48024,-4.698775,225,25.21,11.0,192.4,Sep-22,6426041,2019-08-17 09:07:35:408,-0.4413,-0.2924,10.178,-0.0244,-0.0321,9.8066,0.0132,-0.0213,0.0175,-17.44,6.57,-40.4,199.28,5.02,-0.21
64919,50.48024,-4.698775,225,25.21,11.0,192.4,Sep-22,6426140,2019-08-17 09:07:35:507,-0.3078,0.31,10.1209,-0.0124,-0.0403,9.8066,0.0409,0.0149,0.0005,-17.44,6.57,-40.84,199.66,4.87,-0.41
64920,50.48024,-4.698775,225,25.21,11.0,192.4,Sep-22,6426241,2019-08-17 09:07:35:608,0.5469,-0.1895,8.6337,0.0541,0.0047,9.8065,0.0079,-0.0714,0.026,-17.44,6.57,-40.84,199.66,4.87,-0.41
64921,50.48024,-4.698775,225,25.21,11.0,192.4,Sep-22,6426341,2019-08-17 09:07:35:708,-0.0063,-0.1734,8.9536,-0.0026,-0.0015,9.8066,0.01,0.0405,0.0164,-17.07,6.26,-40.4,197.16,5.18,-0.49
64922,50.48024,-4.698775,225,25.21,11.0,192.4,Sep-22,6426440,2019-08-17 09:07:35:807,-0.441,0.1628,10.1281,0.0059,0.0038,9.8066,0.0122,-0.016,0.0111,-17.44,6.26,-40.4,197.12,5.22,-0.48
64923,50.48024,-4.698775,225,25.21,11.0,192.4,Sep-22,6426541,2019-08-17 09:07:35:908,-0.3599,0.5299,9.8697,0.0175,0.0171,9.8066,0.0036,-0.0298,0.0111,-17.44,6.26,-40.4,197.12,5.22,-0.48
64924,50.480015,-4.698878,224,25.34,12.0,193.3,Sep-22,6426641,2019-08-17 09:07:36:008,-0.2285,0.3161,9.0586,-0.0016,0.0169,9.8066,0.0175,0.0437,0.0303,-17.07,6.26,-40.84,196.89,5.35,-0.42
64925,50.480015,-4.698878,224,25.34,12.0,193.3,Sep-22,6426740,2019-08-17 09:07:36:107,-0.0334,0.1911,10.4004,-0.0152,0.0356,9.8066,0.0015,-0.0277,0.0239,-17.82,5.88,-41.27,196.89,5.35,-0.42
64926,50.480015,-4.698878,224,25.34,12.0,193.3,Sep-22,6426841,2019-08-17 09:07:36:208,0.1646,0.1377,10.346,-0.0261,0.0533,9.8065,0.0015,-0.0277,0.0239,-17.44,5.88,-41.71,196.22,5.29,-0.07
64927,50.480015,-4.698878,224,25.34,12.0,193.3,Sep-22,6426941,2019-08-17 09:07:36:308,0.2229,0.1942,10.0596,-0.0053,0.0274,9.8066,0.0537,-0.0043,0.0047,-17.07,5.88,-41.27,195.98,5.31,0.09
64928,50.480015,-4.698878,224,25.34,12.0,193.3,Sep-22,6427041,2019-08-17 09:07:36:408,0.1127,0.0934,10.1134,-0.025,0.008,9.8066,-0.0028,0.0266,0.0026,-17.07,5.88,-41.27,195.98,5.31,0.09
64929,50.480015,-4.698878,224,25.34,12.0,193.3,Sep-22,6427141,2019-08-17 09:07:36:508,0.337,-0.0783,9.5646,-0.0048,-0.007,9.8066,-0.0092,-0.0405,0.0026,-17.07,6.26,-40.4,195.96,5.18,0.18
64930,50.480015,-4.698878,224,25.34,12.0,193.3,Sep-22,6427241,2019-08-17 09:07:36:608,0.3355,-0.2335,8.8834,0.0063,-0.0127,9.8066,0.0175,-0.0234,0.0058,-17.07,6.26,-40.02,196.1,5.2,0.1
64931,50.480015,-4.698878,224,25.34,12.0,193.3,Sep-22,6427341,2019-08-17 09:07:36:708,-0.1408,0.2721,9.1483,0.0441,0.0082,9.8065,-0.0145,-0.0309,-0.0006,-17.07,6.26,-40.84,196.1,5.2,0.1
64932,50.480015,-4.698878,224,25.34,12.0,193.3,Sep-22,6427441,2019-08-17 09:07:36:808,-0.0386,0.0691,9.7301,0.0584,-0.0066,9.8065,0.0026,-0.0011,0.0111,-17.07,6.26,-40.84,196.1,5.2,0.1
64933,50.480015,-4.698878,224,25.34,12.0,193.3,Sep-22,6427540,2019-08-17 09:07:36:907,-0.1398,-0.2144,10.0859,-0.0072,-0.0124,9.8066,0.0132,-0.0075,0.0164,-16.76,6.26,-40.84,196.11,5.51,-0.04
64934,50.47977,-4.698975,224,26.02,12.0,193.1,Sep-22,6427641,2019-08-17 09:07:37:008,-0.3838,-0.1413,10.4587,-0.0169,-0.0041,9.8066,0.0132,-0.0075,0.0164,-17.07,5.88,-40.84,196.11,5.51,-0.04
64935,50.47977,-4.698975,224,26.02,12.0,193.1,Sep-22,6427741,2019-08-17 09:07:37:108,-0.5335,0.385,9.905,-0.0298,-0.0078,9.8066,-0.0209,-0.0384,0.0111,-17.07,5.51,-40.84,196.16,5.41,-0.03
64936,50.47977,-4.698975,224,26.02,12.0,193.1,Sep-22,6427841,2019-08-17 09:07:37:208,-0.538,-0.0204,9.7889,-0.0543,-0.0238,9.8065,0.0281,0.033,-0.0134,-17.07,5.88,-40.77,196.16,5.41,-0.03
64937,50.47977,-4.698975,224,26.02,12.0,193.1,Sep-22,6427941,2019-08-17 09:07:37:308,0.083,-0.0128,10.1996,-0.0469,-0.029,9.8065,-0.0155,-0.0362,0.026,-17.07,5.88,-40.84,196.48,5.1,-0.12
64938,50.47977,-4.698975,224,26.02,12.0,193.1,Sep-22,6428041,2019-08-17 09:07:37:408,0.2531,-0.305,10.0779,0.03,0.0049,9.8066,0.0217,-0.0298,0.0143,-16.77,5.53,-41.2,196.43,5.28,-0.14
64939,50.47977,-4.698975,224,26.02,12.0,193.1,Sep-22,6428141,2019-08-17 09:07:37:508,0.2665,0.2611,9.7752,0.0314,0.0192,9.8066,-0.0155,0.0213,0.0207,-16.77,5.53,-41.2,196.43,5.28,-0.14
64940,50.47977,-4.698975,224,26.02,12.0,193.1,Sep-22,6428241,2019-08-17 09:07:37:608,0.2093,-0.0965,10.2354,0.0059,-0.0236,9.8066,-0.0518,-0.0181,0.0143,-16.77,5.15,-40.32,193.61,5.56,-0.05
64941,50.47977,-4.698975,224,26.02,12.0,193.1,Sep-22,6428341,2019-08-17 09:07:37:708,-0.1319,-0.0245,9.7247,0.0009,-0.0171,9.8066,0.0548,0.0266,0.009,-16.77,5.53,-40.32,196.44,5.57,-0.19
64942,50.47977,-4.698975,224,26.02,12.0,193.1,Sep-22,6428441,2019-08-17 09:07:37:808,-0.2273,-0.1478,9.3697,-0.0141,0.0028,9.8066,0.0548,0.0266,0.009,-16.77,5.53,-40.32,196.44,5.57,-0.19
64943,50.47977,-4.698975,224,26.02,12.0,193.1,Sep-22,6428540,2019-08-17 09:07:37:907,-0.43,0.2678,10.0803,-0.0218,0.0128,9.8066,0.0143,0.0011,0.0196,-17.08,5.53,-40.32,196.4,5.49,-0.15
64944,50.47956,-4.699016,222,25.87,11.0,191.2,Sep-22,6428641,2019-08-17 09:07:38:008,-0.2209,-0.0354,10.1145,0.0119,-0.0066,9.8066,-0.0092,-0.0234,-0.0059,-17.08,5.53,-40.76,196.19,5.39,-0.05
64945,50.47956,-4.699016,222,25.87,11.0,191.2,Sep-22,6428741,2019-08-17 09:07:38:108,-0.3826,0.1016,10.8087,0.0206,-0.0327,9.8066,-0.0049,0.0021,0.0143,-17.08,4.78,-41.57,193.95,5.45,-0.26
64946,50.47956,-4.699016,222,25.87,11.0,191.2,Sep-22,6428841,2019-08-17 09:07:38:208,0.2186,-0.822,9.3359,-0.0013,-0.0415,9.8066,0.0409,-0.0213,0.0079,-17.08,4.78,-41.57,193.95,5.45,-0.26
64947,50.47956,-4.699016,222,25.87,11.0,191.2,Sep-22,6428941,2019-08-17 09:07:38:308,0.1275,-0.4673,10.5081,-0.0095,0.0083,9.8066,0.0771,0.0511,-0.0017,-17.08,5.15,-40.76,194.46,5.39,-0.5
64948,50.47956,-4.699016,222,25.87,11.0,191.2,Sep-22,6429041,2019-08-17 09:07:38:408,0.2296,0.0415,9.8757,-0.0019,0.0372,9.8066,-0.0166,-0.0224,0.0196,-16.77,5.53,-40.76,196.61,5.43,-0.28
64949,50.47956,-4.699016,222,25.87,11.0,191.2,Sep-22,6429141,2019-08-17 09:07:38:508,0.2035,0.0623,9.9554,0.0032,0.0127,9.8066,-0.0166,-0.0224,0.0196,-16.77,5.53,-40.76,196.61,5.43,-0.28
64950,50.47956,-4.699016,222,25.87,11.0,191.2,Sep-22,6429241,2019-08-17 09:07:38:608,0.0891,-0.1138,9.4874,-0.0383,0.0144,9.8066,-0.0092,0.0,0.0314,-16.77,5.15,-41.2,193.74,5.41,-0.12
64951,50.47956,-4.699016,222,25.87,11.0,191.2,Sep-22,6429341,2019-08-17 09:07:38:708,-0.178,0.621,10.4973,-0.0476,0.0546,9.8064,-0.0081,-0.0213,0.0378,-17.46,5.15,-41.2,193.74,5.41,-0.12
64952,50.47956,-4.699016,222,25.87,11.0,191.2,Sep-22,6429441,2019-08-17 09:07:38:808,0.0187,-0.2319,9.8038,0.0029,0.0212,9.8066,0.0004,0.0426,0.0037,-17.08,4.78,-40.76,193.11,5.21,0.26
64953,50.47956,-4.699016,222,25.87,11.0,191.2,Sep-22,6429541,2019-08-17 09:07:38:908,-0.1451,-0.0478,10.3306,-0.0206,0.0257,9.8066,-0.0145,0.0543,0.0069,-17.46,5.15,-41.57,193.11,5.21,0.26
64954,50.479332,-4.699071,221,25.98,11.0,190.8,Sep-22,6429641,2019-08-17 09:07:39:008,-0.2256,0.0378,9.7296,-0.0239,0.0198,9.8066,-0.0049,0.0074,-0.0027,-17.08,4.78,-40.7,192.89,5.1,0.41
64955,50.479332,-4.699071,221,25.98,11.0,190.8,Sep-22,6429741,2019-08-17 09:07:39:108,-0.2017,0.1144,9.891,0.0215,0.0049,9.8066,0.0132,-0.0096,-0.007,-17.08,4.78,-40.7,192.89,5.1,0.41
64956,50.479332,-4.699071,221,25.98,11.0,190.8,Sep-22,6429841,2019-08-17 09:07:39:208,-0.1618,-0.0672,9.8318,0.0295,0.0003,9.8066,-0.0305,-0.0181,0.009,-17.46,4.4,-42.01,190.11,5.23,0.41
64957,50.479332,-4.699071,221,25.98,11.0,190.8,Sep-22,6429941,2019-08-17 09:07:39:308,0.0691,-0.0235,9.6107,0.0315,-0.0155,9.8066,-0.0305,-0.0181,0.009,-17.08,4.03,-41.2,190.35,5.4,0.29
64958,50.479332,-4.699071,221,25.98,11.0,190.8,Sep-22,6430041,2019-08-17 09:07:39:408,0.115,-0.1743,10.0527,-0.0191,-0.0251,9.8066,-0.0155,-0.0171,0.0058,-17.08,4.03,-41.2,190.35,5.4,0.29
64959,50.479332,-4.699071,221,25.98,11.0,190.8,Sep-22,6430141,2019-08-17 09:07:39:508,0.0542,-0.0085,9.7708,-0.0281,-0.0388,9.8065,0.0026,-0.0021,0.0186,-17.46,4.4,-41.57,190.74,5.2,0.09
64960,50.479332,-4.699071,221,25.98,11.0,190.8,Sep-22,6430241,2019-08-17 09:07:39:608,0.1388,0.159,9.8085,-0.0133,0.0018,9.8066,0.0217,-0.0064,0.0047,-17.46,5.15,-41.57,190.74,5.2,0.09
64961,50.479332,-4.699071,221,25.98,11.0,190.8,Sep-22,6430341,2019-08-17 09:07:39:708,0.017,-0.0405,9.7507,-0.0052,-0.0091,9.8066,-0.0017,-0.0373,0.0111,-17.46,5.53,-40.32,196.1,5.12,0.12
64962,50.479332,-4.699071,221,25.98,11.0,190.8,Sep-22,6430442,2019-08-17 09:07:39:809,0.2178,0.0847,10.0587,-0.0017,-0.0088,9.8066,0.0239,0.0064,0.009,-17.46,5.15,-39.88,193.59,5.1,0.07
64963,50.479332,-4.699071,221,25.98,11.0,190.8,Sep-22,6430541,2019-08-17 09:07:39:908,0.4242,0.061,9.3104,-0.0037,0.0012,9.8066,-0.0198,-0.0245,0.0218,-17.46,5.15,-39.88,193.59,5.1,0.07
64964,50.479073,-4.699167,223,25.87,11.0,190.2,Sep-22,6430641,2019-08-17 09:07:40:008,0.1059,-0.1639,9.4885,-0.012,0.0088,9.8066,0.0143,0.0128,0.0079,-17.46,5.15,-41.13,193.51,5.08,0.08
64965,50.479073,-4.699167,223,25.87,11.0,190.2,Sep-22,6430741,2019-08-17 09:07:40:108,-0.0378,-0.0247,10.0265,-0.0141,0.0024,9.8066,0.0143,0.0128,0.0079,-17.46,5.53,-41.57,193.51,5.08,0.08
64966,50.479073,-4.699167,223,25.87,11.0,190.2,Sep-22,6430842,2019-08-17 09:07:40:209,-0.0704,0.161,9.2223,0.0113,0.0096,9.8066,0.0026,-0.0437,0.0005,-17.46,5.15,-40.7,193.41,5.16,0.12
64967,50.479073,-4.699167,223,25.87,11.0,190.2,Sep-22,6430941,2019-08-17 09:07:40:308,-0.1877,-0.1643,9.7842,0.0187,-0.0006,9.8066,-0.0241,-0.0053,0.0292,-17.46,5.15,-40.7,193.41,5.16,0.12
64968,50.479073,-4.699167,223,25.87,11.0,190.2,Sep-22,6431041,2019-08-17 09:07:40:408,-0.2097,0.1143,10.0184,-0.0078,-0.0062,9.8066,0.01,0.0181,0.0175,-17.46,4.78,-40.26,193.48,5.26,0.09
64969,50.479073,-4.699167,223,25.87,11.0,190.2,Sep-22,6431141,2019-08-17 09:07:40:508,-0.2675,-0.0816,10.3088,-0.0219,-0.0067,9.8066,-0.0123,-0.0149,0.009,-17.08,5.53,-40.32,193.48,5.26,0.09
64970,50.479073,-4.699167,223,25.87,11.0,190.2,Sep-22,6431241,2019-08-17 09:07:40:608,0.0784,0.0104,9.5143,-0.0054,0.0002,9.8066,0.0143,-0.0021,0.0079,-17.08,5.15,-40.7,193.49,5.13,0.08
64971,50.479073,-4.699167,223,25.87,11.0,190.2,Sep-22,6431341,2019-08-17 09:07:40:708,-0.061,0.045,9.6966,-0.0104,0.0013,9.8066,-0.0155,0.0,0.0111,-17.08,4.78,-40.26,193.55,5.1,0.09
64972,50.479073,-4.699167,223,25.87,11.0,190.2,Sep-22,6431441,2019-08-17 09:07:40:808,0.3614,0.0255,9.7701,-0.0126,-0.0076,9.8066,-0.0166,-0.0011,-0.0006,-17.08,5.15,-40.32,193.63,5.02,0.07
64973,50.479073,-4.699167,223,25.87,11.0,190.2,Sep-22,6431541,2019-08-17 09:07:40:908,0.081,0.044,10.5007,0.0208,-0.0175,9.8066,-0.0166,-0.0011,-0.0006,-17.08,5.15,-40.32,193.63,5.02,0.07
64974,50.479073,-4.699167,223,25.87,11.0,190.2,Sep-22,6431641,2019-08-17 09:07:41:008,0.0225,-0.2458,10.5709,0.0161,0.0045,9.8066,-0.0081,-0.032,-0.0038,-17.83,5.15,-40.7,193.16,5.11,-0.06
64975,50.478832,-4.699248,223,25.7,11.0,189.2,Sep-22,6431741,2019-08-17 09:07:41:108,0.0979,0.3005,9.7447,0.0035,-0.006,9.8066,0.0058,0.0234,0.0079,-17.08,4.4,-41.57,191.15,5.12,-0.1
64976,50.478832,-4.699248,223,25.7,11.0,189.2,Sep-22,6431841,2019-08-17 09:07:41:208,-0.3604,0.0427,9.7347,-0.0186,-0.0152,9.8066,0.01,-0.0021,0.0079,-17.46,5.15,-40.7,191.15,5.12,-0.1
64977,50.478832,-4.699248,223,25.7,11.0,189.2,Sep-22,6431941,2019-08-17 09:07:41:308,-0.2216,0.3035,9.7392,-0.0111,-0.0124,9.8066,-0.0028,-0.065,-0.0027,-17.46,5.15,-40.7,193.99,5.04,-0.16
64978,50.478832,-4.699248,223,25.7,11.0,189.2,Sep-22,6432041,2019-08-17 09:07:41:408,0.0805,0.2087,9.1038,0.0057,0.0005,9.8066,0.0143,0.0458,0.0196,-17.46,5.15,-40.7,193.99,5.04,-0.16
64979,50.478832,-4.699248,223,25.7,11.0,189.2,Sep-22,6432141,2019-08-17 09:07:41:508,0.1252,-0.1606,8.8852,-0.0242,0.0055,9.8066,0.0185,0.0437,0.0069,-17.08,5.53,-40.26,196.63,5.08,-0.17
64980,50.478832,-4.699248,223,25.7,11.0,189.2,Sep-22,6432242,2019-08-17 09:07:41:609,-0.0437,0.1228,9.3538,-0.0255,0.0184,9.8066,0.0153,-0.0618,0.0058,-17.83,4.78,-40.26,193.19,4.96,-0.02
64981,50.478832,-4.699248,223,25.7,11.0,189.2,Sep-22,6432342,2019-08-17 09:07:41:709,0.0593,0.2836,9.0563,0.0263,0.008,9.8066,0.0153,-0.0618,0.0058,-17.83,4.78,-40.26,193.19,4.96,-0.02
64982,50.478832,-4.699248,223,25.7,11.0,189.2,Sep-22,6432440,2019-08-17 09:07:41:807,-0.1339,0.096,9.6074,0.0071,-0.0145,9.8066,-0.0262,0.0298,0.0207,-17.46,5.15,-40.26,193.72,5.13,-0.01
64983,50.478832,-4.699248,223,25.7,11.0,189.2,Sep-22,6432541,2019-08-17 09:07:41:908,-0.2876,-0.0319,10.9882,-0.0135,-0.0204,9.8066,0.0036,0.0309,0.0186,-17.46,5.15,-40.26,193.72,5.13,-0.01
64984,50.478832,-4.699248,223,25.7,11.0,189.2,Sep-22,6432641,2019-08-17 09:07:42:008,-0.1419,0.1794,10.8791,-0.0086,0.0096,9.8066,0.0249,0.0032,0.0069,-17.46,4.78,-39.38,194.0,5.02,-0.11
64985,50.47859,-4.699288,223,25.75,10.0,188.7,Sep-22,6432742,2019-08-17 09:07:42:109,0.0311,0.2493,10.2288,0.0051,0.033,9.8066,-0.0102,-0.0053,0.0143,-17.08,4.78,-41.95,193.46,5.1,0.07
64986,50.47859,-4.699288,223,25.75,10.0,188.7,Sep-22,6432841,2019-08-17 09:07:42:208,-0.0411,-0.0063,9.5361,0.001,-0.0017,9.8066,-0.0347,0.0415,0.0079,-17.08,4.78,-41.95,193.46,5.1,0.07
64987,50.47859,-4.699288,223,25.75,10.0,188.7,Sep-22,6432941,2019-08-17 09:07:42:308,-0.114,-0.1116,10.1051,-0.0356,-0.0224,9.8066,-0.0081,0.0032,0.0132,-17.83,4.78,-40.7,192.94,5.1,0.06
64988,50.47859,-4.699288,223,25.75,10.0,188.7,Sep-22,6433041,2019-08-17 09:07:42:408,-0.3189,-0.038,10.243,-0.0471,-0.0191,9.8065,0.0122,0.0319,0.0111,-17.83,4.4,-41.13,192.94,5.1,0.06
64989,50.47859,-4.699288,223,25.75,10.0,188.7,Sep-22,6433141,2019-08-17 09:07:42:508,-0.0867,-0.1269,9.3096,-0.0121,0.005,9.8066,-0.0038,-0.016,0.0143,-17.83,4.78,-39.88,193.19,4.81,0.02
64990,50.47859,-4.699288,223,25.75,10.0,188.7,Sep-22,6433241,2019-08-17 09:07:42:608,0.0657,-0.3409,9.194,-0.0098,0.0012,9.8066,-0.0038,-0.016,0.0143,-17.83,4.4,-40.7,190.51,4.74,0.06
64991,50.47859,-4.699288,223,25.75,10.0,188.7,Sep-22,6433341,2019-08-17 09:07:42:708,0.2588,0.2795,8.7427,-0.0019,0.0106,9.8066,0.0132,0.0042,0.0154,-17.83,4.78,-40.32,190.51,4.74,0.06
64992,50.47859,-4.699288,223,25.75,10.0,188.7,Sep-22,6433441,2019-08-17 09:07:42:808,0.232,-0.0683,9.4476,0.0173,0.02,9.8066,0.0196,0.0096,0.0196,-17.83,4.4,-40.32,190.34,4.86,0.16
64993,50.47859,-4.699288,223,25.75,10.0,188.7,Sep-22,6433541,2019-08-17 09:07:42:908,-0.1129,0.1586,10.548,0.0149,0.011,9.8066,-0.007,-0.0565,0.0005,-17.83,4.4,-40.32,190.34,4.86,0.16
64994,50.47836,-4.699331,223,25.76,10.0,188.3,Oct-22,6433641,2019-08-17 09:07:43:008,0.2344,-0.1407,9.4055,-0.0055,-0.0027,9.8066,-0.0028,0.0469,0.025,-17.83,4.78,-40.7,192.73,4.96,0.2
64995,50.47836,-4.699331,223,25.76,10.0,188.3,Oct-22,6433741,2019-08-17 09:07:43:108,0.0595,0.3912,10.4348,-0.0149,0.0055,9.8066,0.0143,-0.032,0.0111,-17.83,4.78,-40.32,192.73,4.88,0.26
64996,50.47836,-4.699331,223,25.76,10.0,188.3,Oct-22,6433840,2019-08-17 09:07:43:207,0.2589,0.0153,9.6753,-0.0018,0.0038,9.8066,-0.0134,-0.0341,0.0292,-17.83,4.78,-40.32,192.73,4.88,0.26
64997,50.47836,-4.699331,223,25.76,10.0,188.3,Oct-22,6433941,2019-08-17 09:07:43:308,0.1598,-0.1195,9.7939,-0.0188,-0.0024,9.8066,0.0154,0.0074,0.0026,-17.46,4.03,-41.13,190.43,4.83,0.34
64998,50.47836,-4.699331,223,25.76,10.0,188.3,Oct-22,6434041,2019-08-17 09:07:43:408,-0.1599,-0.0141,9.5061,-0.0048,-0.0101,9.8066,0.0154,0.0074,0.0026,-17.46,3.72,-40.7,190.46,4.71,0.35
64999,50.47836,-4.699331,223,25.76,10.0,188.3,Oct-22,6434140,2019-08-17 09:07:43:507,-0.1597,-0.2179,9.4718,0.0053,-0.0195,9.8066,-0.0166,-0.0224,0.0186,-17.46,3.72,-40.7,190.46,4.71,0.35
65000,50.47836,-4.699331,223,25.76,10.0,188.3,Oct-22,6434241,2019-08-17 09:07:43:608,0.1663,-0.2027,9.4384,0.0129,-0.022,9.8066,-0.0155,0.0426,0.0047,-18.21,4.03,-41.13,190.19,4.72,0.23
65001,50.47836,-4.699331,223,25.76,10.0,188.3,Oct-22,6434341,2019-08-17 09:07:43:708,0.163,-0.27,9.8047,0.0058,-0.0333,9.8066,-0.0038,0.0011,0.0164,-17.46,4.03,-41.13,191.07,4.72,0.03
65002,50.47836,-4.699331,223,25.76,10.0,188.3,Oct-22,6434440,2019-08-17 09:07:43:807,0.1348,0.0433,9.5014,-0.0181,0.0063,9.8066,0.0196,0.0011,0.0282,-17.46,4.03,-41.13,191.07,4.72,0.03
65003,50.47836,-4.699331,223,25.76,10.0,188.3,Oct-22,6434541,2019-08-17 09:07:43:908,0.4852,-0.0765,9.0939,-0.0052,0.0059,9.8066,-0.0198,-0.016,0.0186,-18.21,4.4,-40.7,190.49,4.63,0.09
65004,50.47813,-4.699359,222,25.61,10.0,187.3,Oct-22,6434640,2019-08-17 09:07:44:007,0.3188,0.0962,9.4486,0.0093,0.0137,9.8066,0.0036,0.0319,0.0143,-18.21,4.4,-40.7,190.49,4.63,0.09
65005,50.47813,-4.699359,222,25.61,10.0,187.3,Oct-22,6434741,2019-08-17 09:07:44:108,0.3461,-0.0196,10.2018,0.0012,0.0044,9.8066,0.0036,0.0319,0.0143,-17.08,4.4,-41.07,190.84,4.69,0.16
65006,50.47813,-4.699359,222,25.61,10.0,187.3,Oct-22,6434841,2019-08-17 09:07:44:208,0.4458,0.0343,9.8381,-0.0033,0.0225,9.8066,-0.007,0.0106,0.0154,-17.83,4.03,-41.13,190.84,4.69,0.16
65007,50.47813,-4.699359,222,25.61,10.0,187.3,Oct-22,6434940,2019-08-17 09:07:44:307,-0.0342,-0.0487,10.1151,-0.0104,0.0341,9.8066,0.0079,-0.0032,0.0228,-17.83,4.03,-41.07,189.96,4.67,0.37
65008,50.47813,-4.699359,222,25.61,10.0,187.3,Oct-22,6435041,2019-08-17 09:07:44:408,0.3911,-0.04,10.064,-0.0103,0.0086,9.8066,-0.0283,-0.0288,0.0143,-17.83,4.4,-40.7,189.96,4.67,0.37
65009,50.47813,-4.699359,222,25.61,10.0,187.3,Oct-22,6435141,2019-08-17 09:07:44:508,0.1534,0.0105,10.3165,-0.0161,0.0048,9.8066,0.01,0.0021,0.0154,-17.83,4.09,-41.07,189.9,4.59,0.41
65010,50.47813,-4.699359,222,25.61,10.0,187.3,Oct-22,6435241,2019-08-17 09:07:44:608,0.0056,-0.095,9.3702,0.0091,-0.0043,9.8066,-0.0155,-0.0224,0.0143,-17.83,4.09,-40.7,189.9,4.59,0.41
65011,50.47813,-4.699359,222,25.61,10.0,187.3,Oct-22,6435340,2019-08-17 09:07:44:707,-0.2571,0.2496,10.1149,0.0168,-0.0067,9.8066,0.0143,0.0234,0.0015,-17.83,4.09,-40.7,189.9,4.59,0.41
65012,50.47813,-4.699359,222,25.61,10.0,187.3,Oct-22,6435441,2019-08-17 09:07:44:808,-0.2201,-0.1893,9.3029,-0.0062,0.0038,9.8066,0.009,0.0234,0.0175,-17.83,4.03,-39.88,190.03,4.68,0.36
65013,50.47813,-4.699359,222,25.61,10.0,187.3,Oct-22,6435541,2019-08-17 09:07:44:908,0.1263,-0.0333,9.3895,-0.0196,0.0158,9.8066,0.0132,0.0011,0.0388,-17.83,4.4,-41.13,189.8,4.58,0.47
65014,50.47813,-4.699359,222,25.61,10.0,187.3,Oct-22,6435641,2019-08-17 09:07:45:008,0.107,0.1385,9.7876,-0.0077,0.0271,9.8066,0.0132,0.0011,0.0388,-17.83,4.4,-41.13,189.8,4.58,0.47
65015,50.477894,-4.699406,221,25.71,10.0,186.8,Oct-22,6435741,2019-08-17 09:07:45:108,-0.1465,0.0824,10.0861,-0.014,0.0427,9.8065,0.0164,-0.0362,0.0356,-18.21,4.03,-39.88,189.56,4.56,0.63
65016,50.477894,-4.699406,221,25.71,10.0,186.8,Oct-22,6435841,2019-08-17 09:07:45:208,-0.3247,0.3846,9.3169,-0.0601,0.085,9.8061,0.0462,0.0554,0.0282,-18.21,4.03,-41.13,188.53,4.3,1.18
65017,50.477894,-4.699406,221,25.71,10.0,186.8,Oct-22,6435941,2019-08-17 09:07:45:308,-0.1537,0.3354,9.682,-0.0274,0.0281,9.8066,0.0228,-0.0128,0.0271,-18.58,4.03,-39.88,187.93,4.16,1.37
65018,50.477894,-4.699406,221,25.71,10.0,186.8,Oct-22,6436041,2019-08-17 09:07:45:408,0.0407,0.5674,9.3454,0.0303,0.0268,9.8066,0.0111,-0.0107,-0.0049,-18.58,4.03,-39.88,187.93,4.16,1.37
65019,50.477894,-4.699406,221,25.71,10.0,186.8,Oct-22,6436142,2019-08-17 09:07:45:509,-0.1192,0.102,10.4288,0.0232,-0.012,9.8066,-0.04,-0.0426,0.0122,-17.83,4.4,-39.88,188.01,4.64,1.46
65020,50.477894,-4.699406,221,25.71,10.0,186.8,Oct-22,6436241,2019-08-17 09:07:45:608,-0.1192,0.102,10.4288,0.0232,-0.012,9.8066,-0.04,-0.0426,0.0122,-17.83,4.4,-39.88,188.01,4.64,1.46
65021,50.477894,-4.699406,221,25.71,10.0,186.8,Oct-22,6436340,2019-08-17 09:07:45:707,-0.3276,-0.1595,10.8176,-0.06,0.0027,9.8065,-0.0081,0.016,0.0218,-17.83,3.72,-41.13,188.25,4.63,1.28
65022,50.477894,-4.699406,221,25.71,10.0,186.8,Oct-22,6436441,2019-08-17 09:07:45:808,-0.2041,-0.0941,9.8526,-0.0074,0.0177,9.8066,0.0058,-0.0384,0.0132,-18.96,4.03,-40.26,187.93,4.28,1.35
65023,50.477894,-4.699406,221,25.71,10.0,186.8,Oct-22,6436541,2019-08-17 09:07:45:908,0.0659,-0.3843,8.8794,-0.0054,0.0026,9.8066,-0.0017,-0.0021,0.0303,-18.58,4.4,-40.7,187.82,4.25,1.37
65024,50.477688,-4.699449,219,25.5,10.0,186.2,Oct-22,6436640,2019-08-17 09:07:46:007,0.2221,-0.1625,8.9724,-0.006,-0.0171,9.8066,0.0143,0.0064,0.0047,-18.58,4.4,-40.7,187.82,4.25,1.37
65025,50.477688,-4.699449,219,25.5,10.0,186.2,Oct-22,6436741,2019-08-17 09:07:46:108,0.2715,-0.1561,9.6008,0.0005,-0.0143,9.8066,0.0079,-0.0064,0.0282,-18.58,4.03,-40.76,187.97,4.25,1.28
65026,50.477688,-4.699449,219,25.5,10.0,186.2,Oct-22,6436841,2019-08-17 09:07:46:208,0.0102,0.1463,9.6514,0.0186,0.0096,9.8066,-0.0209,0.0533,0.0292,-18.58,4.03,-40.76,187.97,4.25,1.28
65027,50.477688,-4.699449,219,25.5,10.0,186.2,Oct-22,6436941,2019-08-17 09:07:46:308,0.1307,0.0511,9.6946,0.0026,-0.0018,9.8066,-0.0305,-0.033,0.0122,-18.21,4.4,-41.57,188.15,4.36,1.32
65028,50.477688,-4.699449,219,25.5,10.0,186.2,Oct-22,6437041,2019-08-17 09:07:46:408,0.0628,0.2321,9.9461,-0.0034,-0.0103,9.8066,0.0111,0.0117,0.0154,-18.21,3.72,-41.13,188.36,4.33,1.27
65029,50.477688,-4.699449,219,25.5,10.0,186.2,Oct-22,6437140,2019-08-17 09:07:46:507,-0.0261,-0.1261,9.9263,0.0055,-0.0071,9.8066,0.0111,0.0117,0.0154,-18.21,3.72,-41.13,188.36,4.33,1.27
65030,50.477688,-4.699449,219,25.5,10.0,186.2,Oct-22,6437240,2019-08-17 09:07:46:607,-0.2287,0.1088,10.0607,-0.0147,0.0039,9.8066,0.0015,0.0128,0.0303,-18.21,3.34,-41.13,185.76,4.36,1.22
65031,50.477688,-4.699449,219,25.5,10.0,186.2,Oct-22,6437340,2019-08-17 09:07:46:707,-0.1884,-0.0406,10.1003,-0.0265,0.0042,9.8066,0.026,0.0277,0.0154,-18.58,3.34,-40.7,185.46,4.28,1.25
65032,50.477688,-4.699449,219,25.5,10.0,186.2,Oct-22,6437441,2019-08-17 09:07:46:808,0.0053,-0.2822,9.7108,-0.0216,0.009,9.8066,-0.0028,-0.0128,0.0026,-18.58,3.34,-41.13,185.46,4.28,1.25
65033,50.477688,-4.699449,219,25.5,10.0,186.2,Oct-22,6437541,2019-08-17 09:07:46:908,0.0837,-0.2743,9.3828,-0.0065,0.0072,9.8066,0.009,0.0021,0.0207,-18.21,3.34,-41.13,185.63,4.24,1.3
65034,50.47748,-4.699498,218,25.36,10.0,185.7,Oct-22,6437640,2019-08-17 09:07:47:007,-0.0708,-0.1261,9.5235,0.014,-0.0026,9.8066,-0.0038,-0.0128,0.0164,-18.21,3.34,-41.13,185.63,4.24,1.3
65035,50.47748,-4.699498,218,25.36,10.0,185.7,Oct-22,6437740,2019-08-17 09:07:47:107,0.0206,0.0317,10.1095,0.0072,0.0061,9.8066,0.0175,0.0064,0.0186,-17.83,3.34,-41.57,185.58,4.32,1.28
65036,50.47748,-4.699498,218,25.36,10.0,185.7,Oct-22,6437841,2019-08-17 09:07:47:208,0.2424,-0.3525,10.1824,0.003,0.0221,9.8066,-0.0187,-0.049,0.0335,-18.21,3.72,-40.7,185.58,4.32,1.28
65037,50.47748,-4.699498,218,25.36,10.0,185.7,Oct-22,6437941,2019-08-17 09:07:47:308,0.2036,0.304,9.2733,-0.0102,0.034,9.8066,-0.0187,-0.049,0.0335,-18.58,3.34,-41.13,185.04,4.28,1.48
65038,50.47748,-4.699498,218,25.36,10.0,185.7,Oct-22,6438041,2019-08-17 09:07:47:408,-0.0364,0.3044,10.1306,-0.0111,-0.008,9.8066,0.0026,-0.0064,-0.0027,-18.58,3.34,-41.13,185.04,4.28,1.48
65039,50.47748,-4.699498,218,25.36,10.0,185.7,Oct-22,6438141,2019-08-17 09:07:47:508,0.2081,0.0997,10.2238,0.0256,0.0028,9.8066,-0.0017,-0.0234,0.0324,-18.96,3.34,-40.7,185.17,4.26,1.41
65040,50.47748,-4.699498,218,25.36,10.0,185.7,Oct-22,6438241,2019-08-17 09:07:47:608,0.0226,0.3292,9.6168,0.0259,0.0042,9.8066,0.0217,-0.0256,0.0101,-18.21,3.72,-40.32,185.17,4.26,1.41
65041,50.47748,-4.699498,218,25.36,10.0,185.7,Oct-22,6438341,2019-08-17 09:07:47:708,0.1292,0.0325,10.4404,-0.0324,0.0019,9.8066,-0.0187,0.0138,0.0239,-18.58,4.03,-40.7,187.68,4.41,1.42
65042,50.47748,-4.699498,218,25.36,10.0,185.7,Oct-22,6438441,2019-08-17 09:07:47:808,-0.1759,-0.403,11.0573,-0.0505,-0.0022,9.8065,0.0186,0.0213,0.0228,-19.33,4.03,-39.82,187.79,4.11,1.45
65043,50.47748,-4.699498,218,25.36,10.0,185.7,Oct-22,6438541,2019-08-17 09:07:47:908,-0.0797,-0.3814,10.1365,0.004,-0.0057,9.8066,0.0079,-0.0149,0.0143,-19.33,4.03,-39.82,187.79,4.11,1.45
65044,50.477257,-4.69951,216,25.59,10.0,184.0,Oct-22,6438641,2019-08-17 09:07:48:008,-0.0581,-0.3002,9.2889,-0.0043,0.0042,9.8066,-0.0241,-0.0128,0.0292,-18.21,5.15,-40.32,190.89,4.13,1.41
65045,50.477257,-4.69951,216,25.59,10.0,184.0,Oct-22,6438741,2019-08-17 09:07:48:108,0.1988,-0.4069,9.8604,0.0094,-0.0057,9.8066,-0.0294,0.0106,0.0207,-17.46,4.4,-41.13,190.89,4.13,1.41
65046,50.477257,-4.69951,216,25.59,10.0,184.0,Oct-22,6438841,2019-08-17 09:07:48:208,0.23,-0.1235,10.0317,0.0307,-0.0153,9.8066,-0.0294,0.0106,0.0207,-17.83,2.97,-41.13,185.64,4.29,1.29
65047,50.477257,-4.69951,216,25.59,10.0,184.0,Oct-22,6438942,2019-08-17 09:07:48:309,0.0284,-0.7568,9.7631,0.0014,-0.0134,9.8066,0.0239,0.0266,0.009,-17.83,2.97,-41.13,185.64,4.29,1.29
65048,50.477257,-4.69951,216,25.59,10.0,184.0,Oct-22,6439041,2019-08-17 09:07:48:408,-0.0211,0.095,10.6073,-0.0406,-0.0142,9.8066,-0.007,0.0554,0.0132,-18.58,4.4,-40.32,188.21,4.17,1.21
65049,50.477257,-4.69951,216,25.59,10.0,184.0,Oct-22,6439140,2019-08-17 09:07:48:507,0.0137,-0.1389,9.4163,-0.0037,-0.0029,9.8066,0.0026,-0.0085,0.0132,-18.58,4.03,-40.32,188.36,3.92,1.16
65050,50.477257,-4.69951,216,25.59,10.0,184.0,Oct-22,6439241,2019-08-17 09:07:48:608,0.0158,0.2906,9.8252,0.0086,-0.0025,9.8066,0.0249,-0.0256,0.0069,-18.21,4.4,-40.32,188.36,3.92,1.16
65051,50.477257,-4.69951,216,25.59,10.0,184.0,Oct-22,6439341,2019-08-17 09:07:48:708,-0.2062,0.0909,9.5704,0.013,-0.0022,9.8066,-0.006,-0.0234,0.0175,-18.21,4.4,-40.32,188.36,3.92,1.16
65052,50.477257,-4.69951,216,25.59,10.0,184.0,Oct-22,6439441,2019-08-17 09:07:48:808,-0.1335,-0.0559,9.8481,0.0095,-0.0119,9.8066,0.0143,-0.0044,0.0324,-18.58,3.34,-41.57,185.65,3.99,1.14
65053,50.477257,-4.69951,216,25.59,10.0,184.0,Oct-22,6439541,2019-08-17 09:07:48:908,-0.0141,-0.0757,9.642,0.0262,-0.0109,9.8066,-0.0049,-0.0311,0.0207,-18.21,3.72,-41.13,188.81,4.14,1.06
65054,50.477024,-4.699511,215,25.72,10.0,182.9,Oct-22,6439641,2019-08-17 09:07:49:008,-0.0479,-0.4474,9.1398,0.0306,-0.0145,9.8066,-0.0049,-0.0311,0.0207,-18.21,3.72,-40.7,188.81,4.14,1.06
65055,50.477024,-4.699511,215,25.72,10.0,182.9,Oct-22,6439741,2019-08-17 09:07:49:108,0.0795,-0.0233,9.5821,0.0326,-0.0308,9.8065,-0.0113,-0.0151,0.0037,-17.83,2.97,-41.57,186.42,4.3,0.85
65056,50.477024,-4.699511,215,25.72,10.0,182.9,Oct-22,6439840,2019-08-17 09:07:49:207,-0.0619,0.0872,9.6141,-0.0162,-0.0059,9.8066,0.009,-0.0034,0.0047,-17.83,2.97,-41.57,186.42,4.3,0.85
65057,50.477024,-4.699511,215,25.72,10.0,182.9,Oct-22,6439941,2019-08-17 09:07:49:308,-0.1097,-0.0367,10.4935,-0.0134,-0.0071,9.8066,-0.023,0.0275,0.0228,-18.58,2.22,-41.57,183.73,4.04,0.78
65058,50.477024,-4.699511,215,25.72,10.0,182.9,Oct-22,6440041,2019-08-17 09:07:49:408,-0.2423,-0.3333,9.7035,-0.0212,-0.0074,9.8066,0.0175,0.0222,0.009,-19.33,2.97,-40.7,186.47,3.91,0.74
65059,50.477024,-4.699511,215,25.72,10.0,182.9,Oct-22,6440141,2019-08-17 09:07:49:508,0.0029,0.0093,9.5195,-0.0125,0.0053,9.8066,0.0154,0.0126,0.0154,-19.33,2.97,-40.7,186.47,3.91,0.74
65060,50.477024,-4.699511,215,25.72,10.0,182.9,Oct-22,6440241,2019-08-17 09:07:49:608,0.1259,0.0903,9.2286,0.0071,0.0032,9.8066,0.0015,-0.03,0.0079,-18.21,3.72,-40.7,189.43,3.84,0.78
65061,50.477024,-4.699511,215,25.72,10.0,182.9,Oct-22,6440341,2019-08-17 09:07:49:708,-0.0028,-0.055,10.0157,0.0403,0.001,9.8066,-0.0017,-0.0353,0.0037,-17.83,3.34,-40.7,186.73,4.07,0.75
65062,50.477024,-4.699511,215,25.72,10.0,182.9,Oct-22,6440441,2019-08-17 09:07:49:808,-0.1151,0.0778,9.9084,0.0228,-0.0121,9.8066,-0.0017,-0.0353,0.0037,-17.83,3.34,-40.7,186.73,4.07,0.75
65063,50.477024,-4.699511,215,25.72,10.0,182.9,Oct-22,6440541,2019-08-17 09:07:49:908,0.3588,-0.1769,9.787,0.0145,-0.0255,9.8066,0.0132,-0.0087,0.0069,-19.33,2.59,-40.7,186.73,4.07,0.75
65064,50.476784,-4.699514,215,25.74,10.0,182.2,Oct-21,6440641,2019-08-17 09:07:50:008,-0.0197,0.3141,10.0438,0.0163,-0.0151,9.8066,0.0058,-0.0172,0.009,-18.21,3.72,-40.7,189.59,4.16,0.65
65065,50.476784,-4.699514,215,25.74,10.0,182.2,Oct-21,6440741,2019-08-17 09:07:50:108,-0.0988,0.4638,10.4943,0.0008,0.0062,9.8066,0.0004,-0.0545,-0.0059,-18.58,3.72,-40.7,189.59,4.16,0.65
65066,50.476784,-4.699514,215,25.74,10.0,182.2,Oct-21,6440840,2019-08-17 09:07:50:207,0.1308,0.242,9.819,-0.0021,-0.0017,9.8067,-0.0123,0.0243,0.0069,-18.58,3.72,-40.7,189.59,4.16,0.65
65067,50.476784,-4.699514,215,25.74,10.0,182.2,Oct-21,6440941,2019-08-17 09:07:50:308,0.0423,0.1195,9.7834,-0.0124,-0.007,9.8066,0.0239,0.0179,-0.0102,-18.96,3.34,-40.26,186.92,4.05,0.51
65068,50.476784,-4.699514,215,25.74,10.0,182.2,Oct-21,6441041,2019-08-17 09:07:50:408,-0.1116,0.2687,10.4994,-0.0008,0.0136,9.8066,0.0462,-0.0076,0.0015,-18.58,2.97,-40.7,186.92,4.05,0.51
65069,50.476784,-4.699514,215,25.74,10.0,182.2,Oct-21,6441141,2019-08-17 09:07:50:508,-0.196,-0.0972,10.2172,0.0068,0.001,9.8066,0.0015,-0.013,0.0047,-18.21,3.34,-39.82,187.1,4.06,0.59
65070,50.476784,-4.699514,215,25.74,10.0,182.2,Oct-21,6441241,2019-08-17 09:07:50:608,-0.0853,-0.3005,9.8907,0.0065,-0.013,9.8066,-0.007,0.0179,0.0132,-17.83,2.22,-41.07,184.48,4.08,0.51
65071,50.476784,-4.699514,215,25.74,10.0,182.2,Oct-21,6441341,2019-08-17 09:07:50:708,0.3269,-0.0554,9.756,0.0176,-0.0086,9.8066,-0.007,0.0179,0.0132,-18.96,2.22,-41.07,184.48,4.08,0.51
65072,50.476784,-4.699514,215,25.74,10.0,182.2,Oct-21,6441441,2019-08-17 09:07:50:808,0.3377,-0.2286,8.515,0.037,-0.013,9.8066,0.0175,0.0083,0.0069,-18.96,2.22,-41.07,184.48,4.08,0.51
65073,50.476784,-4.699514,215,25.74,10.0,182.2,Oct-21,6441541,2019-08-17 09:07:50:908,0.3041,-0.2745,9.6876,0.0125,-0.0074,9.8066,-0.0145,-0.0151,0.009,-18.21,3.34,-40.26,187.37,4.29,0.42
65074,50.476543,-4.699506,215,25.86,10.0,181.3,Oct-22,6441640,2019-08-17 09:07:51:007,0.3084,-0.3975,9.6061,0.0032,-0.032,9.8066,0.0058,-0.0002,0.0047,-18.21,4.09,-40.26,187.37,4.29,0.42
65075,50.476543,-4.699506,215,25.86,10.0,181.3,Oct-22,6441740,2019-08-17 09:07:51:107,-0.3386,0.2104,10.1388,-0.001,-0.0425,9.8066,0.0015,0.0083,0.0324,-17.46,2.59,-41.07,188.19,4.26,0.17
65076,50.476543,-4.699506,215,25.86,10.0,181.3,Oct-22,6441841,2019-08-17 09:07:51:208,-0.0721,-0.0035,9.4759,-0.0213,0.0013,9.8066,0.0292,-0.0193,0.0132,-18.96,1.47,-41.07,182.24,4.26,0.19
65077,50.476543,-4.699506,215,25.86,10.0,181.3,Oct-22,6441941,2019-08-17 09:07:51:308,-0.1004,0.2554,9.7495,-0.0282,0.0202,9.8066,0.0356,-0.0162,0.0026,-18.96,3.34,-40.26,182.24,4.26,0.19
65078,50.476543,-4.699506,215,25.86,10.0,181.3,Oct-22,6442041,2019-08-17 09:07:51:408,-0.0492,0.1878,9.9882,-0.0309,0.0284,9.8066,-0.006,-0.0044,0.0143,-18.96,3.34,-40.26,182.24,4.26,0.19
65079,50.476543,-4.699506,215,25.86,10.0,181.3,Oct-22,6442141,2019-08-17 09:07:51:508,-0.1352,-0.0096,9.6881,-0.0025,0.003,9.8067,0.0122,0.003,0.0058,-17.83,2.22,-40.7,184.76,4.08,0.37
65080,50.476543,-4.699506,215,25.86,10.0,181.3,Oct-22,6442241,2019-08-17 09:07:51:608,0.0292,-0.0003,8.5299,-0.002,0.0142,9.8066,0.0154,-0.0311,0.0377,-18.58,1.09,-40.7,181.89,4.07,0.39
65081,50.476543,-4.699506,215,25.86,10.0,181.3,Oct-22,6442341,2019-08-17 09:07:51:708,-0.124,0.2985,9.9486,-0.0018,0.0439,9.8066,0.0154,-0.0311,0.0377,-18.58,1.09,-40.7,181.89,4.07,0.39
65082,50.476543,-4.699506,215,25.86,10.0,181.3,Oct-22,6442441,2019-08-17 09:07:51:808,0.0902,-0.1575,9.2103,0.0111,0.017,9.8066,-0.0049,0.0179,0.0111,-18.96,2.22,-40.76,184.03,4.07,0.64
65083,50.476543,-4.699506,215,25.86,10.0,181.3,Oct-22,6442541,2019-08-17 09:07:51:908,0.0271,0.4986,9.8698,0.0182,0.0511,9.8065,-0.0123,-0.0098,0.0324,-19.71,1.84,-40.76,183.32,4.19,0.93
65084,50.476315,-4.69952,215,25.84,10.0,181.8,Oct-22,6442640,2019-08-17 09:07:52:007,0.2651,-0.3124,9.6214,0.0037,0.0043,9.8066,-0.0198,-0.0194,0.0228,-19.71,1.84,-40.76,183.32,4.19,0.93
65085,50.476315,-4.69952,215,25.84,10.0,181.8,Oct-22,6442741,2019-08-17 09:07:52:108,0.0665,-0.2888,9.5107,-0.0036,-0.0351,9.8066,-0.0507,0.0051,0.0015,-19.33,3.65,-40.76,188.75,4.21,0.87
65086,50.476315,-4.69952,215,25.84,10.0,181.8,Oct-22,6442841,2019-08-17 09:07:52:208,-0.1656,0.1345,10.6037,-0.0096,-0.0497,9.8065,0.0079,-0.0236,-0.0113,-18.58,3.65,-40.76,189.13,4.16,0.67
65087,50.476315,-4.69952,215,25.84,10.0,181.8,Oct-22,6442941,2019-08-17 09:07:52:308,0.1123,-0.2231,9.3118,-0.0107,-0.0891,9.8062,0.0111,0.0169,0.009,-18.58,3.65,-40.76,189.13,4.16,0.67
65088,50.476315,-4.69952,215,25.84,10.0,181.8,Oct-22,6443040,2019-08-17 09:07:52:407,0.1686,-0.0821,9.3513,0.0005,-0.0079,9.8066,0.0111,0.0169,0.009,-18.21,2.22,-41.2,185.17,4.01,0.16
65089,50.476315,-4.69952,215,25.84,10.0,181.8,Oct-22,6443141,2019-08-17 09:07:52:508,0.0279,0.1311,9.1416,0.0031,0.0073,9.8066,0.0239,-0.0002,0.0111,-18.96,1.09,-41.2,182.24,4.03,0.2
65090,50.476315,-4.69952,215,25.84,10.0,181.8,Oct-22,6443241,2019-08-17 09:07:52:608,0.0384,0.246,9.9564,0.0098,0.0103,9.8066,0.0217,0.0094,0.0164,-18.96,1.09,-41.2,182.24,4.03,0.2
65091,50.476315,-4.69952,215,25.84,10.0,181.8,Oct-22,6443341,2019-08-17 09:07:52:708,0.0402,-0.3195,9.9478,-0.0012,0.0089,9.8066,-0.0219,0.0105,0.0303,-19.71,2.53,-41.7,186.98,4.09,0.26
65092,50.476315,-4.69952,215,25.84,10.0,181.8,Oct-22,6443441,2019-08-17 09:07:52:808,-0.1931,0.0573,10.5628,-0.0036,0.0234,9.8066,-0.0006,0.0211,0.0218,-18.21,2.22,-41.7,184.66,4.09,0.4
65093,50.476315,-4.69952,215,25.84,10.0,181.8,Oct-22,6443541,2019-08-17 09:07:52:908,0.0656,0.4914,9.3449,0.0031,0.0133,9.8066,-0.0294,0.0243,0.0367,-18.21,2.22,-41.7,184.66,4.09,0.4
65094,50.476097,-4.699569,213,25.31,10.0,181.9,Aug-22,6443641,2019-08-17 09:07:53:008,0.1852,0.3284,9.4607,0.0084,0.0239,9.8066,-0.0337,0.002,0.0282,-18.96,1.84,-41.26,184.22,4.15,0.54
65095,50.476097,-4.699569,213,25.31,10.0,181.9,Aug-22,6443741,2019-08-17 09:07:53:108,-0.0224,0.1162,10.0231,-0.0012,-0.0045,9.8066,-0.0049,-0.0098,0.0015,-18.96,2.15,-41.76,183.99,4.19,0.64
65096,50.476097,-4.699569,213,25.31,10.0,181.9,Aug-22,6443840,2019-08-17 09:07:53:207,-0.1693,0.2313,10.3942,-0.0211,0.0005,9.8066,-0.0049,-0.0098,0.0015,-18.58,2.15,-41.32,184.02,4.07,0.65
65097,50.476097,-4.699569,213,25.31,10.0,181.9,Aug-22,6443941,2019-08-17 09:07:53:308,-0.3616,0.3703,10.5851,-0.0235,0.0058,9.8066,-0.0326,0.0467,0.0356,-18.58,2.15,-41.32,184.02,4.07,0.65
65098,50.476097,-4.699569,213,25.31,10.0,181.9,Aug-22,6444041,2019-08-17 09:07:53:408,0.2212,0.1458,9.1629,0.0078,0.0072,9.8066,0.0047,0.0115,0.0122,-18.58,2.9,-40.88,186.57,3.94,0.69
65099,50.476097,-4.699569,213,25.31,10.0,181.9,Aug-22,6444141,2019-08-17 09:07:53:508,0.5026,-0.0651,8.5219,0.0468,-0.0055,9.8065,-0.0358,-0.0087,0.0314,-18.21,2.15,-41.32,184.23,4.2,0.63
65100,50.476097,-4.699569,213,25.31,10.0,181.9,Aug-22,6444241,2019-08-17 09:07:53:608,-0.1155,-0.3152,10.4038,0.0228,-0.0101,9.8066,0.0185,0.0201,0.0047,-18.21,2.15,-41.32,184.23,4.2,0.63
65101,50.476097,-4.699569,213,25.31,10.0,181.9,Aug-22,6444341,2019-08-17 09:07:53:708,0.1209,-0.2118,10.2235,0.0198,-0.0119,9.8066,-0.0219,-0.0321,0.0346,-18.96,2.15,-41.32,184.23,4.2,0.63
65102,50.476097,-4.699569,213,25.31,10.0,181.9,Aug-22,6444441,2019-08-17 09:07:53:808,0.3317,-0.1696,8.742,0.0239,0.0007,9.8066,-0.0198,0.0446,0.026,-18.21,2.17,-41.24,184.23,4.34,0.62
65103,50.476097,-4.699569,213,25.31,10.0,181.9,Aug-22,6444540,2019-08-17 09:07:53:907,0.1264,-0.0933,9.3062,0.007,0.0053,9.8066,-0.0028,0.0403,0.0356,-18.21,2.17,-41.24,184.23,4.34,0.62
65104,50.47585,-4.699553,212,25.58,10.0,180.2,Aug-22,6444641,2019-08-17 09:07:54:008,-0.2083,0.3379,9.6601,-0.0276,0.0181,9.8066,-0.0028,0.0403,0.0356,-18.21,1.8,-41.24,184.01,4.38,0.73
65105,50.47585,-4.699553,212,25.58,10.0,180.2,Aug-22,6444741,2019-08-17 09:07:54:108,-0.367,0.2991,10.4831,-0.0279,0.0073,9.8066,-0.0155,0.0296,0.0196,-18.59,1.8,-40.86,183.63,4.22,0.85
65106,50.47585,-4.699553,212,25.58,10.0,180.2,Aug-22,6444841,2019-08-17 09:07:54:208,-0.0134,-0.0581,9.6373,-0.0014,-0.0009,9.8067,-0.0187,-0.0098,0.0356,-18.21,1.86,-41.24,183.71,4.06,0.9
65107,50.47585,-4.699553,212,25.58,10.0,180.2,Aug-22,6444941,2019-08-17 09:07:54:308,0.0321,0.1383,9.3359,0.0013,0.0003,9.8067,-0.0134,0.0158,0.0324,-18.21,1.86,-41.24,183.71,4.06,0.9
65108,50.47585,-4.699553,212,25.58,10.0,180.2,Aug-22,6445041,2019-08-17 09:07:54:408,-0.3229,0.6983,10.0118,-0.0021,0.0105,9.8066,-0.0166,-0.0034,0.025,-18.59,1.48,-40.8,180.93,4.07,0.9
65109,50.47585,-4.699553,212,25.58,10.0,180.2,Aug-22,6445141,2019-08-17 09:07:54:508,-0.2236,0.3783,10.222,-0.0052,0.0232,9.8066,-0.0113,0.0051,0.0239,-19.34,1.8,-40.8,180.93,4.07,0.9
65110,50.47585,-4.699553,212,25.58,10.0,180.2,Aug-22,6445241,2019-08-17 09:07:54:608,0.0488,0.2122,9.7651,0.0037,0.0131,9.8066,0.0367,0.0126,0.0037,-18.59,1.11,-41.68,180.62,4.04,1.04
65111,50.47585,-4.699553,212,25.58,10.0,180.2,Aug-22,6445341,2019-08-17 09:07:54:708,-0.0887,-0.3667,10.3038,-0.0099,0.034,9.8066,0.0068,0.0211,0.0175,-18.59,1.48,-39.99,180.36,3.99,1.24
65112,50.47585,-4.699553,212,25.58,10.0,180.2,Aug-22,6445441,2019-08-17 09:07:54:808,0.286,-0.0496,9.2317,-0.0131,0.0241,9.8066,-0.0305,0.0573,0.0282,-18.59,1.48,-39.99,180.36,3.99,1.24
65113,50.47585,-4.699553,212,25.58,10.0,180.2,Aug-22,6445541,2019-08-17 09:07:54:908,0.0665,-0.8154,9.7286,-0.0212,0.0173,9.8066,-0.0305,0.0573,0.0282,-18.96,1.48,-40.8,180.11,3.86,1.34
65114,50.47564,-4.699587,212,25.2,11.0,181.0,Aug-22,6445644,2019-08-17 09:07:55:011,0.1418,-0.1011,10.3683,0.0092,-0.014,9.8066,-0.0337,-0.013,0.0069,-18.96,1.86,-40.8,182.74,3.89,1.34
65115,50.47564,-4.699587,212,25.2,11.0,181.0,Aug-22,6445741,2019-08-17 09:07:55:108,0.2664,-0.192,9.3452,0.0182,-0.0236,9.8066,-0.0049,-0.0311,0.0058,-18.96,1.86,-40.8,182.74,3.89,1.34
65116,50.47564,-4.699587,212,25.2,11.0,181.0,Aug-22,6445841,2019-08-17 09:07:55:208,0.3041,-0.3499,9.7074,0.004,-0.0109,9.8066,-0.0038,-0.0162,0.0111,-18.59,2.55,-40.43,185.68,3.99,1.2
65117,50.47564,-4.699587,212,25.2,11.0,181.0,Aug-22,6445941,2019-08-17 09:07:55:308,0.1591,-0.2604,10.1259,0.0066,-0.0286,9.8066,0.0036,0.0296,0.0132,-18.59,1.8,-39.55,183.38,4.01,1.03
65118,50.47564,-4.699587,212,25.2,11.0,181.0,Aug-22,6446041,2019-08-17 09:07:55:408,0.3357,-0.1604,9.9077,-0.009,-0.0012,9.8066,-0.0092,-0.0258,0.0175,-18.59,1.86,-40.36,183.39,3.96,1.02
65119,50.47564,-4.699587,212,25.2,11.0,181.0,Aug-22,6446141,2019-08-17 09:07:55:508,0.1453,-0.0325,9.3631,-0.007,-0.0107,9.8066,-0.0337,-0.0375,0.0196,-18.59,1.86,-40.36,183.39,3.96,1.02
65120,50.47564,-4.699587,212,25.2,11.0,181.0,Aug-22,6446241,2019-08-17 09:07:55:608,0.2179,0.0325,9.5965,0.0026,-0.0449,9.8065,-0.039,-0.0151,0.0175,-18.96,1.48,-39.93,183.39,3.96,1.02
65121,50.47564,-4.699587,212,25.2,11.0,181.0,Aug-22,6446342,2019-08-17 09:07:55:709,0.1496,-0.2033,9.8187,0.0331,-0.0718,9.8063,-0.039,-0.0151,0.0175,-18.59,1.48,-40.36,181.54,4.13,0.59
65122,50.47564,-4.699587,212,25.2,11.0,181.0,Aug-22,6446441,2019-08-17 09:07:55:808,-0.2327,-0.0762,11.1347,0.005,0.0014,9.8067,0.0345,0.0041,0.0069,-18.59,1.48,-40.36,181.54,4.13,0.59
65123,50.47564,-4.699587,212,25.2,11.0,181.0,Aug-22,6446542,2019-08-17 09:07:55:909,-0.1715,0.006,10.0326,-0.03,0.003,9.8066,0.0047,0.036,0.0292,-18.59,2.17,-39.93,184.14,4.16,0.6
65124,50.47541,-4.699598,213,25.09,11.0,179.3,Aug-22,6446642,2019-08-17 09:07:56:009,-0.2736,-0.1343,10.6026,-0.0111,0.0058,9.8066,-0.0134,0.0158,0.0111,-18.96,1.86,-39.55,183.97,3.75,0.72
65125,50.47541,-4.699598,213,25.09,11.0,179.3,Aug-22,6446741,2019-08-17 09:07:56:108,-0.2907,-0.0358,10.5743,-0.0046,0.0021,9.8066,0.0207,-0.0407,-0.0017,-18.96,1.48,-41.24,181.26,3.73,0.74
65126,50.47541,-4.699598,213,25.09,11.0,179.3,Aug-22,6446841,2019-08-17 09:07:56:208,0.3367,-0.3296,8.8772,-0.0024,0.0033,9.8066,-0.0049,-0.0258,0.0122,-18.96,1.48,-41.24,181.26,3.73,0.74
65127,50.47541,-4.699598,213,25.09,11.0,179.3,Aug-22,6446942,2019-08-17 09:07:56:309,0.0113,0.2827,9.7182,0.0055,0.0067,9.8066,0.0271,-0.0087,0.0122,-18.96,1.86,-39.93,183.91,3.71,0.75
65128,50.47541,-4.699598,213,25.09,11.0,179.3,Aug-22,6447042,2019-08-17 09:07:56:409,0.293,0.0202,8.8663,0.0194,0.0052,9.8066,0.0079,-0.0289,0.0101,-18.21,1.86,-39.49,184.09,3.83,0.78
65129,50.47541,-4.699598,213,25.09,11.0,179.3,Aug-22,6447141,2019-08-17 09:07:56:508,0.2944,0.1604,9.8104,0.0266,-0.0029,9.8066,-0.0038,0.0009,0.0196,-18.21,2.23,-39.49,184.09,3.83,0.78
65130,50.47541,-4.699598,213,25.09,11.0,179.3,Aug-22,6447241,2019-08-17 09:07:56:608,-0.2444,0.0268,10.1428,0.0352,-0.0271,9.8066,-0.0038,0.0009,0.0196,-18.21,1.11,-39.49,181.63,4.02,0.6
65131,50.47541,-4.699598,213,25.09,11.0,179.3,Aug-22,6447341,2019-08-17 09:07:56:708,-0.1555,0.1519,10.5747,-0.0073,-0.0052,9.8066,0.01,-0.013,0.0132,-18.21,1.11,-39.49,181.63,4.02,0.6
65132,50.47541,-4.699598,213,25.09,11.0,179.3,Aug-22,6447441,2019-08-17 09:07:56:808,0.3113,-0.1664,9.446,-0.0017,-0.0124,9.8066,0.0068,-0.0098,-0.0081,-18.59,1.48,-39.93,181.66,4.01,0.53
65133,50.47541,-4.699598,213,25.09,11.0,179.3,Aug-22,6447542,2019-08-17 09:07:56:909,-0.0278,-0.2184,9.3546,0.0003,-0.03,9.8066,-0.0049,-0.0215,-0.0113,-18.96,1.48,-39.49,181.9,4.11,0.41
65134,50.47541,-4.699598,213,25.09,11.0,179.3,Aug-22,6447642,2019-08-17 09:07:57:009,-0.0782,-0.3705,9.4873,0.0007,-0.0553,9.8065,-0.0081,-0.0066,0.0079,-18.96,1.48,-39.49,181.9,4.11,0.41
65135,50.47519,-4.6996,214,25.12,12.0,179.0,Sep-22,6447742,2019-08-17 09:07:57:109,-0.1325,-0.3087,10.2061,0.0135,-0.0187,9.8066,-0.006,-0.0002,0.0143,-18.59,1.86,-39.93,185.08,4.1,0.09
65136,50.47519,-4.6996,214,25.12,12.0,179.0,Sep-22,6447842,2019-08-17 09:07:57:209,-0.0952,0.0501,10.7049,0.0162,-0.0127,9.8066,0.0388,-0.0258,0.0037,-18.59,1.48,-40.3,182.67,4.17,-0.03
65137,50.47519,-4.6996,214,25.12,12.0,179.0,Sep-22,6447941,2019-08-17 09:07:57:308,-0.1302,-0.1276,9.9541,-0.0013,-0.0143,9.8066,0.0335,0.0169,0.0218,-18.59,1.48,-39.49,182.83,4.16,-0.11
65138,50.47519,-4.6996,214,25.12,12.0,179.0,Sep-22,6448041,2019-08-17 09:07:57:408,-0.059,0.1731,10.3659,-0.0457,0.0221,9.8065,0.0335,0.0169,0.0218,-18.59,1.48,-39.49,182.83,4.16,-0.11
65139,50.47519,-4.6996,214,25.12,12.0,179.0,Sep-22,6448141,2019-08-17 09:07:57:508,-0.1112,0.2428,10.6592,-0.0806,0.0424,9.8062,0.0271,0.0478,0.0228,-18.96,1.48,-39.49,182.38,3.7,0.16
65140,50.47519,-4.6996,214,25.12,12.0,179.0,Sep-22,6448241,2019-08-17 09:07:57:608,-0.2125,0.4871,9.6549,-0.0051,0.0337,9.8066,0.0409,0.0094,0.026,-18.96,1.48,-39.05,182.38,3.7,0.16
65141,50.47519,-4.6996,214,25.12,12.0,179.0,Sep-22,6448341,2019-08-17 09:07:57:708,-0.0858,0.5039,9.1833,-0.0044,0.0714,9.8064,-0.006,-0.0194,0.026,-18.96,2.61,-39.49,186.92,3.69,0.58
65142,50.47519,-4.6996,214,25.12,12.0,179.0,Sep-22,6448441,2019-08-17 09:07:57:808,-0.0262,0.4386,9.292,0.0385,0.0289,9.8065,-0.0081,-0.0002,0.0132,-18.96,2.61,-39.49,186.92,3.69,0.58
65143,50.47519,-4.6996,214,25.12,12.0,179.0,Sep-22,6448541,2019-08-17 09:07:57:908,0.1134,-0.3441,10.0475,0.0315,-0.0026,9.8066,-0.04,-0.0194,0.0196,-18.96,1.48,-39.49,181.35,3.94,0.72
65144,50.47519,-4.6996,214,25.12,12.0,179.0,Sep-22,6448641,2019-08-17 09:07:58:008,-0.3821,-0.0559,10.635,0.0207,-0.0253,9.8066,-0.0187,0.0328,0.0239,-18.59,1.86,-39.93,181.35,3.94,0.72
65145,50.47494,-4.699552,214,25.64,11.0,178.0,Sep-22,6448741,2019-08-17 09:07:58:108,-0.2502,-0.511,10.275,-0.0295,-0.0065,9.8066,-0.0422,-0.0321,0.0015,-18.59,1.48,-39.93,181.59,4.05,0.57
65146,50.47494,-4.699552,214,25.64,11.0,178.0,Sep-22,6448841,2019-08-17 09:07:58:208,0.072,-0.4872,10.1662,-0.014,-0.0234,9.8066,0.0047,-0.0257,-0.0006,-18.59,1.48,-39.93,181.59,4.05,0.57
65147,50.47494,-4.699552,214,25.64,11.0,178.0,Sep-22,6448941,2019-08-17 09:07:58:308,0.4126,-0.2693,8.5282,0.0391,-0.0214,9.8065,0.0047,-0.0257,-0.0006,-18.21,1.48,-39.86,181.93,3.97,0.43
65148,50.47494,-4.699552,214,25.64,11.0,178.0,Sep-22,6449041,2019-08-17 09:07:58:408,-0.1266,-0.0867,9.3849,0.0521,-0.0339,9.8065,0.0026,0.0403,0.0026,-18.21,1.48,-40.3,182.31,4.26,0.22
65149,50.47494,-4.699552,214,25.64,11.0,178.0,Sep-22,6449141,2019-08-17 09:07:58:508,-0.0546,0.2641,10.6643,-0.0448,-0.0157,9.8065,0.0068,0.0552,0.009,-18.21,1.48,-40.3,182.31,4.26,0.22
65150,50.47494,-4.699552,214,25.64,11.0,178.0,Sep-22,6449241,2019-08-17 09:07:58:608,-0.1035,0.0061,11.5982,-0.0612,-0.0183,9.8064,0.0217,0.0286,0.009,-18.96,1.48,-39.86,182.4,3.9,0.13
65151,50.47494,-4.699552,214,25.64,11.0,178.0,Sep-22,6449341,2019-08-17 09:07:58:708,0.1097,0.0232,9.4902,-0.0083,0.0045,9.8066,-0.0017,0.0201,0.0143,-18.96,0.73,-41.11,182.4,3.9,0.13
65152,50.47494,-4.699552,214,25.64,11.0,178.0,Sep-22,6449441,2019-08-17 09:07:58:808,-0.0168,0.2523,9.8369,-0.0212,0.0027,9.8066,0.0068,-0.0215,0.0111,-18.96,1.48,-40.74,182.32,3.71,0.17
65153,50.47494,-4.699552,214,25.64,11.0,178.0,Sep-22,6449541,2019-08-17 09:07:58:908,0.0475,0.0901,10.1349,-0.0079,0.0205,9.8066,0.0132,-0.0556,0.0111,-18.96,1.48,-40.74,182.32,3.71,0.17
65154,50.47494,-4.699552,214,25.64,11.0,178.0,Sep-22,6449641,2019-08-17 09:07:59:008,0.1813,0.3751,10.2417,0.0439,0.0191,9.8065,0.0537,-0.0375,0.0005,-18.59,1.48,-40.68,182.1,3.67,0.29
65155,50.4747,-4.699515,214,25.71,12.0,177.0,Sep-22,6449741,2019-08-17 09:07:59:108,0.0945,-0.0541,9.1877,0.0588,0.0461,9.8064,0.0537,-0.0375,0.0005,-18.21,1.48,-40.68,181.66,4.02,0.55
65156,50.4747,-4.699515,214,25.71,12.0,177.0,Sep-22,6449841,2019-08-17 09:07:59:208,-0.105,0.1988,9.8932,-0.0251,0.0007,9.8066,-0.0123,0.0062,0.01,-18.21,1.48,-40.68,181.66,4.02,0.55
65157,50.4747,-4.699515,214,25.71,12.0,177.0,Sep-22,6449941,2019-08-17 09:07:59:308,-0.0274,-0.3122,10.3137,0.0076,-0.0094,9.8066,-0.0166,-0.03,0.0037,-18.59,1.48,-40.3,181.61,3.87,0.56
65158,50.4747,-4.699515,214,25.71,12.0,177.0,Sep-22,6450041,2019-08-17 09:07:59:408,0.1735,-0.3648,9.4898,0.0276,-0.0161,9.8066,0.0537,-0.0172,-0.0145,-18.59,1.48,-40.3,181.79,4.03,0.46
65159,50.4747,-4.699515,214,25.71,12.0,177.0,Sep-22,6450141,2019-08-17 09:07:59:508,-0.21,-0.346,10.5643,-0.0081,0.0082,9.8066,-0.0209,0.0541,0.0367,-18.59,1.48,-40.3,181.79,4.03,0.46
65160,50.4747,-4.699515,214,25.71,12.0,177.0,Sep-22,6450241,2019-08-17 09:07:59:608,0.2097,-0.3743,9.9353,-0.032,0.0116,9.8066,0.0239,0.0009,0.01,-18.59,1.11,-40.3,181.7,3.98,0.51
65161,50.4747,-4.699515,214,25.71,12.0,177.0,Sep-22,6450340,2019-08-17 09:07:59:707,-0.041,0.1759,10.5289,0.0172,0.0037,9.8066,-0.0209,-0.0641,0.0111,-18.96,1.48,-40.3,181.59,3.78,0.57
65162,50.4747,-4.699515,214,25.71,12.0,177.0,Sep-22,6450441,2019-08-17 09:07:59:808,-0.3117,0.2433,10.375,0.01,0.0068,9.8066,-0.0209,-0.0641,0.0111,-18.96,1.48,-40.3,181.59,3.78,0.57
65163,50.4747,-4.699515,214,25.71,12.0,177.0,Sep-22,6450540,2019-08-17 09:07:59:907,-0.1166,-0.1215,8.8195,-0.0102,-0.0073,9.8066,0.0036,0.0371,0.0111,-18.96,1.48,-40.68,181.49,3.84,0.61
65164,50.47448,-4.699483,215,25.49,13.0,176.2,Sep-22,6450641,2019-08-17 09:08:00:008,0.3669,0.1192,9.5767,0.0328,-0.0056,9.8066,-0.0379,-0.0108,0.0271,-18.96,1.11,-40.68,181.57,3.77,0.57
65165,50.47448,-4.699483,215,25.49,13.0,176.2,Sep-22,6450740,2019-08-17 09:08:00:107,0.2767,-0.0168,9.3529,0.0699,-0.0176,9.8064,-0.0219,0.0137,0.0282,-18.96,1.11,-40.68,181.57,3.77,0.57
65166,50.47448,-4.699483,215,25.49,13.0,176.2,Sep-22,6450841,2019-08-17 09:08:00:208,-0.1209,-0.0745,9.728,-0.0023,0.0024,9.8066,-0.0155,0.0605,0.0345,-18.59,0.73,-40.3,181.79,4.18,0.46
65167,50.47448,-4.699483,215,25.49,13.0,176.2,Sep-22,6450941,2019-08-17 09:08:00:308,0.0199,0.3011,10.5954,-0.0538,0.0017,9.8065,0.0207,0.0552,0.0058,-18.21,0.73,-38.99,181.88,3.87,0.48
65168,50.47448,-4.699483,215,25.49,13.0,176.2,Sep-22,6451040,2019-08-17 09:08:00:407,-0.2241,0.0273,11.2209,-0.0169,0.0156,9.8066,0.0249,-0.0375,0.0069,-18.59,0.73,-39.36,181.88,3.87,0.48
65169,50.47448,-4.699483,215,25.49,13.0,176.2,Sep-22,6451141,2019-08-17 09:08:00:508,-0.1427,0.2176,9.2649,-0.0063,0.0243,9.8066,0.0271,-0.0162,-0.0038,-18.59,1.11,-39.36,181.54,3.83,0.62
65170,50.47448,-4.699483,215,25.49,13.0,176.2,Sep-22,6451242,2019-08-17 09:08:00:609,-0.173,-0.0756,10.2473,-0.0372,0.001,9.8066,0.0271,-0.0162,-0.0038,-18.59,1.11,-39.36,181.54,3.83,0.62
65171,50.47448,-4.699483,215,25.49,13.0,176.2,Sep-22,6451341,2019-08-17 09:08:00:708,-0.0093,-0.1379,9.1548,0.0098,-0.0089,9.8066,-0.0347,0.0296,0.0239,-18.96,1.11,-39.43,181.53,3.62,0.63
65172,50.47448,-4.699483,215,25.49,13.0,176.2,Sep-22,6451441,2019-08-17 09:08:00:808,-0.1437,0.0315,9.8251,0.053,-0.0036,9.8065,0.0036,-0.0939,0.0015,-18.96,0.73,-40.68,181.5,3.93,0.6
65173,50.47448,-4.699483,215,25.49,13.0,176.2,Sep-22,6451541,2019-08-17 09:08:00:908,-0.0461,-0.3844,9.3749,0.0062,-0.0077,9.8066,0.0132,-0.014,0.0111,-18.21,1.48,-40.3,181.5,3.93,0.6
65174,50.474236,-4.699444,215,25.89,13.0,175.6,Sep-22,6451641,2019-08-17 09:08:01:008,-0.1271,-0.1791,10.1554,-0.0177,-0.0088,9.8066,0.0079,0.0382,0.0218,-18.59,1.11,-39.49,181.66,3.82,0.55
65175,50.474236,-4.699444,215,25.89,13.0,175.6,Sep-22,6451741,2019-08-17 09:08:01:108,0.112,0.0415,10.1106,0.0067,0.021,9.8066,0.0409,-0.0428,-0.0017,-18.59,1.11,-39.49,181.66,3.82,0.55
