,GPS LATITUDE (degrees), GPS LONGITUDE (degrees), GPS ALTITUDE (m), GPS SPEED (Kmh), GPS ACCURACY (m), GPS ORIENTATION (Â°),GPS SATELLITES IN RANGE, TIME SINCE START (ms), DATE (YYYY-MO-DD HH-MI-SS_SSS), ACCELEROMETER X (m/s²) , ACCELEROMETER Y (m/s²), ACCELEROMETER Z (m/s²), GRAVITY X (m/s²), GRAVITY Y (m/s²), GRAVITY Z (m/s²), GYROSCOPE Yaw (rad/s), GYROSCOPE Pitch (rad/s), GYROSCOPE Roll (rad/s), MAGNETIC FIELD X (Î¼T), MAGNETIC FIELD Y (Î¼T), MAGNETIC FIELD Z (Î¼T), ORIENTATION (Yaw) (Â°), ORIENTATION (Pitch) (Â°), ORIENTATION (Roll ) (Â°)
13444,50.80588,-3.432332,91,24.29,9.0,221.8,Dec-21,1344539,2019-08-17 07:42:53:906,0.1201,0.0151,10.233,0.0033,-0.0075,9.8066,0.0,0.0515,-0.0043,-8.49,28.76,0.91,254.72,2.44,-1.94
13445,50.80588,-3.432332,91,24.29,9.0,221.8,Dec-21,1344639,2019-08-17 07:42:54:006,0.294,0.0925,10.682,0.0096,0.0055,9.8066,0.0,0.0515,-0.0043,-8.67,28.72,0.17,252.84,2.41,-1.97
13446,50.80588,-3.432332,91,24.29,9.0,221.8,Dec-21,1344739,2019-08-17 07:42:54:106,0.4868,-0.0631,9.7325,0.0149,-0.0036,9.8066,-0.0182,0.0046,0.0202,-8.49,28.77,0.16,254.66,2.41,-2.06
13447,50.80588,-3.432332,91,24.29,9.0,221.8,Dec-21,1344840,2019-08-17 07:42:54:207,0.1884,0.4315,10.0688,-0.007,-0.0074,9.8066,0.0074,0.0014,-0.0181,-8.49,28.77,0.16,254.66,2.41,-2.06
13448,50.80588,-3.432332,91,24.29,9.0,221.8,Dec-21,1344939,2019-08-17 07:42:54:306,0.7173,0.2827,9.3835,0.0244,-0.0046,9.8066,0.017,-0.0028,-0.0022,-8.49,28.77,-0.48,254.66,2.36,-2.03
13449,50.80588,-3.432332,91,24.29,9.0,221.8,Dec-21,1345039,2019-08-17 07:42:54:406,0.1911,0.2089,9.4399,0.0327,0.0172,9.8066,0.0106,0.0206,0.0096,-7.89,28.94,0.16,254.67,2.51,-2.19
13450,50.80588,-3.432332,91,24.29,9.0,221.8,Dec-21,1345140,2019-08-17 07:42:54:507,0.1227,0.2939,9.7034,-0.0207,0.0419,9.8065,0.0095,-0.0145,0.017,-7.89,28.94,0.16,254.67,2.51,-2.19
13451,50.80588,-3.432332,91,24.29,9.0,221.8,Dec-21,1345239,2019-08-17 07:42:54:606,0.1458,0.1941,9.8471,0.0184,0.0172,9.8066,0.0127,0.0419,-0.0203,-8.67,28.72,-0.49,252.85,2.71,-2.01
13452,50.80588,-3.432332,91,24.29,9.0,221.8,Dec-21,1345340,2019-08-17 07:42:54:707,0.0187,0.0444,9.5408,0.0272,0.0231,9.8066,0.0127,0.0419,-0.0203,-7.89,28.92,-1.24,254.61,2.89,-2.12
13453,50.80588,-3.432332,91,24.29,9.0,221.8,Dec-21,1345439,2019-08-17 07:42:54:806,-0.028,0.2177,9.1744,0.0192,-0.014,9.8066,-0.049,-0.0113,0.0032,-7.89,28.92,-1.24,254.61,2.89,-2.12
13454,50.80572,-3.432558,91,24.32,9.0,222.8,Dec-21,1345539,2019-08-17 07:42:54:906,-0.2013,-0.3075,10.6148,0.0207,-0.0307,9.8066,-0.0213,-0.0071,-0.0075,-8.06,28.89,-0.49,254.69,2.84,-2.25
13455,50.80572,-3.432558,91,24.32,9.0,222.8,Dec-21,1345640,2019-08-17 07:42:55:007,-0.1976,-0.0336,9.9331,0.0141,-0.0386,9.8066,0.0149,0.0078,0.0042,-8.23,28.84,-0.5,254.62,2.64,-2.39
13456,50.80572,-3.432558,91,24.32,9.0,222.8,Dec-21,1345739,2019-08-17 07:42:55:106,-0.1688,0.0597,9.9213,-0.0099,-0.023,9.8066,0.0202,0.0547,0.0106,-8.23,28.84,-0.5,254.62,2.64,-2.39
13457,50.80572,-3.432558,91,24.32,9.0,222.8,Dec-21,1345840,2019-08-17 07:42:55:207,-0.2267,-0.0021,10.3699,-0.0443,-0.0458,9.8064,0.0032,-0.0049,0.0394,-8.67,28.72,-0.49,252.84,2.32,-2.21
13458,50.80572,-3.432558,91,24.32,9.0,222.8,Dec-21,1345940,2019-08-17 07:42:55:307,-0.3557,0.1357,9.6418,-0.0466,0.0012,9.8065,0.0309,-0.022,0.0149,-8.48,28.73,1.56,254.76,2.24,-1.95
13459,50.80572,-3.432558,91,24.32,9.0,222.8,Dec-21,1346039,2019-08-17 07:42:55:406,-0.441,0.2806,9.7768,-0.0459,0.0529,9.8064,0.001,0.0046,0.0,-8.48,28.73,1.56,254.76,2.24,-1.95
13460,50.80572,-3.432558,91,24.32,9.0,222.8,Dec-21,1346139,2019-08-17 07:42:55:506,-0.1241,0.5713,9.1787,-0.0068,0.0192,9.8066,-0.0192,-0.006,0.0,-8.48,28.73,1.66,254.78,2.47,-1.61
13461,50.80572,-3.432558,91,24.32,9.0,222.8,Dec-21,1346239,2019-08-17 07:42:55:606,-0.1656,0.1452,9.8902,-0.0199,0.0218,9.8066,-0.0192,-0.006,0.0,-8.48,28.73,1.66,254.78,2.47,-1.61
13462,50.80572,-3.432558,91,24.32,9.0,222.8,Dec-21,1346340,2019-08-17 07:42:55:707,0.1007,0.2764,9.173,-0.0177,-0.001,9.8066,-0.0011,0.0004,0.0181,-7.88,28.9,1.67,254.79,2.56,-1.46
13463,50.80572,-3.432558,91,24.32,9.0,222.8,Dec-21,1346439,2019-08-17 07:42:55:806,-0.0957,-0.0046,9.581,-0.0226,0.0001,9.8066,0.0223,0.0036,0.0053,-8.3,28.74,2.26,254.78,2.53,-1.36
13464,50.805565,-3.432792,91,24.19,9.0,222.9,Dec-21,1346540,2019-08-17 07:42:55:907,-0.1577,0.2571,9.6411,-0.0413,-0.0079,9.8066,-0.0139,0.0142,0.0053,-8.48,28.73,1.66,254.77,2.42,-1.14
13465,50.805565,-3.432792,91,24.19,9.0,222.9,Dec-21,1346639,2019-08-17 07:42:56:006,-0.2138,-0.2495,10.3523,0.0113,0.0056,9.8066,0.0,-0.0001,0.0021,-8.48,28.73,1.66,254.77,2.42,-1.14
13466,50.805565,-3.432792,91,24.19,9.0,222.9,Dec-21,1346739,2019-08-17 07:42:56:106,0.0591,0.2303,9.2104,0.0046,0.0109,9.8066,0.0106,-0.0288,0.0096,-8.48,28.73,1.66,254.77,2.47,-1.2
13467,50.805565,-3.432792,91,24.19,9.0,222.9,Dec-21,1346839,2019-08-17 07:42:56:206,-0.0722,0.0871,9.5364,0.0002,0.019,9.8066,-0.0096,0.0074,0.0042,-7.73,28.99,0.16,254.64,2.58,-1.17
13468,50.805565,-3.432792,91,24.19,9.0,222.9,Dec-21,1346941,2019-08-17 07:42:56:308,0.0937,0.2535,9.6789,0.0063,-0.0042,9.8066,-0.0256,-0.0124,0.0021,-8.66,28.7,1.04,252.89,2.56,-1.18
13469,50.805565,-3.432792,91,24.19,9.0,222.9,Dec-21,1347039,2019-08-17 07:42:56:406,0.0733,0.2231,10.1414,0.0185,-0.006,9.8066,-0.0256,-0.0124,0.0021,-8.66,28.7,1.04,252.89,2.56,-1.18
13470,50.805565,-3.432792,91,24.19,9.0,222.9,Dec-21,1347139,2019-08-17 07:42:56:506,0.1576,-0.0945,10.5962,0.0159,-0.0146,9.8066,-0.0245,-0.0199,0.0085,-8.66,28.67,1.7,252.96,2.56,-1.3
13471,50.805565,-3.432792,91,24.19,9.0,222.9,Dec-21,1347239,2019-08-17 07:42:56:606,0.0005,-0.0076,10.1835,0.0178,-0.025,9.8066,-0.0118,0.0398,0.0085,-8.48,28.73,1.66,254.78,2.45,-1.44
13472,50.805565,-3.432792,91,24.19,9.0,222.9,Dec-21,1347339,2019-08-17 07:42:56:706,-0.1774,-0.0494,10.3091,-0.0192,-0.0119,9.8066,0.0223,-0.0422,0.0032,-8.48,28.73,1.66,254.78,2.45,-1.44
13473,50.805565,-3.432792,91,24.19,9.0,222.9,Dec-21,1347440,2019-08-17 07:42:56:807,-0.1221,-0.1462,9.6994,-0.0119,0.0104,9.8066,0.0085,0.0132,-0.0022,-8.49,28.76,1.02,254.7,2.35,-1.35
13474,50.805405,-3.433024,92,24.3,9.0,222.4,Dec-21,1347539,2019-08-17 07:42:56:906,-0.2411,0.0895,8.8189,0.0034,0.0225,9.8066,-0.0022,0.0472,-0.0022,-7.89,28.94,-0.38,254.64,2.48,-1.34
13475,50.805405,-3.433024,92,24.3,9.0,222.4,Dec-21,1347640,2019-08-17 07:42:57:007,0.4067,0.0491,9.5472,0.0111,-0.0003,9.8066,0.0149,-0.0327,-0.0022,-8.23,28.83,-1.18,254.64,2.48,-1.34
13476,50.805405,-3.433024,92,24.3,9.0,222.4,Dec-21,1347739,2019-08-17 07:42:57:106,0.3961,0.0041,9.8153,0.0301,0.0184,9.8066,0.0149,-0.0327,-0.0022,-8.23,28.83,-1.18,254.64,2.48,-1.34
13477,50.805405,-3.433024,92,24.3,9.0,222.4,Dec-21,1347839,2019-08-17 07:42:57:206,0.1228,0.0316,10.4395,0.0294,0.0139,9.8066,0.0085,0.0121,-0.0011,-7.89,28.94,0.27,254.65,2.61,-1.48
13478,50.805405,-3.433024,92,24.3,9.0,222.4,Dec-21,1347939,2019-08-17 07:42:57:306,0.3344,-0.0156,9.2843,-0.0104,-0.0591,9.8065,-0.0139,0.044,-0.0022,-7.89,28.94,0.27,254.65,2.61,-1.48
13479,50.805405,-3.433024,92,24.3,9.0,222.4,Dec-21,1348040,2019-08-17 07:42:57:407,0.1171,0.0602,9.3498,-0.0222,-0.0867,9.8062,-0.0224,0.0276,0.0106,-8.35,28.81,0.16,254.63,2.08,-1.49
13480,50.805405,-3.433024,92,24.3,9.0,222.4,Dec-21,1348140,2019-08-17 07:42:57:507,-0.0669,-0.049,9.8541,-0.0165,-0.0051,9.8066,0.0042,-0.0406,0.0085,-9.27,28.53,0.17,252.81,2.03,-1.4
13481,50.805405,-3.433024,92,24.3,9.0,222.4,Dec-21,1348240,2019-08-17 07:42:57:607,-0.084,0.0405,9.8173,0.0,0.0169,9.8066,-0.0118,-0.0065,0.0021,-9.27,28.53,0.17,252.81,2.03,-1.4
13482,50.805405,-3.433024,92,24.3,9.0,222.4,Dec-21,1348339,2019-08-17 07:42:57:706,-0.165,0.0759,9.4452,0.0009,0.028,9.8066,-0.0309,-0.0235,0.0191,-8.52,28.76,-0.7,252.76,2.12,-1.37
13483,50.805405,-3.433024,92,24.3,9.0,222.4,Dec-21,1348440,2019-08-17 07:42:57:807,0.1855,-0.0084,9.4117,0.0047,0.0341,9.8066,-0.0075,-0.0448,0.0064,-7.92,28.94,0.06,254.64,2.32,-1.34
13484,50.80524,-3.43324,92,24.06,9.0,222.2,Dec-21,1348540,2019-08-17 07:42:57:907,0.1168,-0.0521,9.8956,0.0111,-0.0043,9.8066,-0.0075,-0.0448,0.0064,-7.92,28.94,0.06,254.64,2.32,-1.34
13485,50.80524,-3.43324,92,24.06,9.0,222.2,Dec-21,1348640,2019-08-17 07:42:58:007,0.2561,0.1218,8.8472,0.0156,0.0016,9.8066,0.0021,0.0366,-0.0011,-7.92,28.94,0.06,254.64,2.31,-1.41
13486,50.80524,-3.43324,92,24.06,9.0,222.2,Dec-21,1348740,2019-08-17 07:42:58:107,0.1288,0.0463,9.7739,-0.0111,-0.011,9.8066,-0.0043,-0.005,0.0128,-7.92,28.94,-0.05,254.64,2.36,-1.55
13487,50.80524,-3.43324,92,24.06,9.0,222.2,Dec-21,1348839,2019-08-17 07:42:58:206,0.0689,-0.2093,10.3094,-0.016,-0.0181,9.8066,0.0181,0.0163,0.0149,-7.92,28.94,-0.05,254.64,2.36,-1.55
13488,50.80524,-3.43324,92,24.06,9.0,222.2,Dec-21,1348940,2019-08-17 07:42:58:307,0.0971,-0.1915,10.0469,-0.0041,-0.0059,9.8066,0.0085,0.0078,0.0042,-8.7,28.7,0.72,252.87,2.23,-1.49
13489,50.80524,-3.43324,92,24.06,9.0,222.2,Dec-21,1349040,2019-08-17 07:42:58:407,0.2906,0.1211,8.9029,-0.0015,0.0014,9.8067,-0.0032,-0.0018,-0.0011,-8.09,28.89,-0.05,254.64,2.19,-1.48
13490,50.80524,-3.43324,92,24.06,9.0,222.2,Dec-21,1349140,2019-08-17 07:42:58:507,-0.2605,-0.2371,10.4722,-0.0053,0.0005,9.8066,-0.0043,0.0281,0.0149,-8.52,28.76,0.59,254.64,2.19,-1.48
13491,50.80524,-3.43324,92,24.06,9.0,222.2,Dec-21,1349240,2019-08-17 07:42:58:607,0.0147,0.1278,9.7395,-0.0044,0.0071,9.8066,0.0085,-0.005,0.0128,-8.51,28.74,1.24,252.87,2.23,-1.44
13492,50.80524,-3.43324,92,24.06,9.0,222.2,Dec-21,1349339,2019-08-17 07:42:58:706,0.1958,-0.0364,10.0822,0.0,0.0055,9.8066,0.0085,-0.005,0.0128,-8.35,28.81,0.48,252.87,2.23,-1.44
13493,50.80524,-3.43324,92,24.06,9.0,222.2,Dec-21,1349439,2019-08-17 07:42:58:806,0.2019,-0.081,9.5115,-0.0142,0.0014,9.8066,0.0042,0.01,-0.0022,-8.35,28.81,0.48,252.87,2.23,-1.44
13494,50.805084,-3.43348,91,24.31,10.0,222.8,Dec-21,1349541,2019-08-17 07:42:58:908,0.0851,-0.0922,9.8682,0.0046,-0.0084,9.8066,0.0053,-0.0177,0.0064,-8.35,28.81,0.37,254.63,2.21,-1.36
13495,50.805084,-3.43348,91,24.31,10.0,222.8,Dec-21,1349640,2019-08-17 07:42:59:007,0.0758,0.0024,10.2071,0.0103,-0.0049,9.8066,-0.0171,-0.006,0.0085,-8.35,28.81,0.48,254.63,2.2,-1.42
13496,50.805084,-3.43348,91,24.31,10.0,222.8,Dec-21,1349740,2019-08-17 07:42:59:107,0.1209,0.0348,9.4949,0.0478,0.0336,9.8065,-0.0235,0.0345,0.0032,-7.04,29.16,0.37,254.63,2.2,-1.42
13497,50.805084,-3.43348,91,24.31,10.0,222.8,Dec-21,1349839,2019-08-17 07:42:59:206,0.1808,0.1788,9.3708,0.0587,0.0382,9.8064,0.0096,0.0142,0.0106,-7.04,29.16,0.37,254.63,2.2,-1.42
13498,50.805084,-3.43348,91,24.31,10.0,222.8,Dec-21,1349939,2019-08-17 07:42:59:306,-0.1654,-0.0821,9.7674,-0.0216,0.0027,9.8066,0.0181,0.0014,-0.0011,-7.92,28.93,-0.38,254.65,2.5,-1.69
13499,50.805084,-3.43348,91,24.31,10.0,222.8,Dec-21,1350039,2019-08-17 07:42:59:406,0.2076,-0.0596,10.0349,-0.0191,-0.0052,9.8066,0.0181,0.059,0.0106,-7.92,28.93,-0.38,254.65,2.49,-1.57
13500,50.805084,-3.43348,91,24.31,10.0,222.8,Dec-21,1350139,2019-08-17 07:42:59:506,-0.0682,0.0048,9.5388,-0.0326,-0.0061,9.8066,0.0,-0.0188,-0.0022,-7.92,28.93,-0.48,254.64,2.4,-1.39
13501,50.805084,-3.43348,91,24.31,10.0,222.8,Dec-21,1350240,2019-08-17 07:42:59:607,-0.0507,-0.2431,10.0445,-0.0107,0.0028,9.8066,0.0,-0.0188,-0.0022,-7.92,28.93,-0.48,254.64,2.4,-1.39
13502,50.805084,-3.43348,91,24.31,10.0,222.8,Dec-21,1350340,2019-08-17 07:42:59:707,0.2214,0.0902,10.4416,0.0007,-0.0066,9.8066,0.0,-0.0156,0.0064,-8.55,28.76,0.16,252.82,2.36,-1.41
13503,50.805084,-3.43348,91,24.31,10.0,222.8,Dec-21,1350440,2019-08-17 07:42:59:807,0.2107,-0.1824,9.8214,0.0007,0.0005,9.8067,0.0032,0.0068,-0.0022,-8.55,28.76,0.16,252.82,2.36,-1.41
13504,50.804916,-3.433711,92,24.39,9.0,222.3,Dec-21,1350540,2019-08-17 07:42:59:907,0.4952,-0.0047,9.9651,-0.002,-0.0006,9.8067,0.0117,-0.0124,0.0053,-7.79,28.97,0.16,254.64,2.37,-1.41
13505,50.804916,-3.433711,92,24.39,9.0,222.3,Dec-21,1350640,2019-08-17 07:43:00:007,0.1455,0.0946,10.1789,0.0022,-0.0011,9.8067,0.001,-0.0097,0.0128,-8.55,28.75,0.81,252.88,2.32,-1.42
13506,50.804916,-3.433711,92,24.39,9.0,222.3,Dec-21,1350739,2019-08-17 07:43:00:106,0.0278,0.1624,9.7006,0.0029,0.0015,9.8067,-0.0022,-0.0544,-0.0085,-8.55,28.76,0.06,252.82,2.31,-1.44
13507,50.804916,-3.433711,92,24.39,9.0,222.3,Dec-21,1350840,2019-08-17 07:43:00:207,0.0473,0.1966,9.5511,0.0026,0.0095,9.8066,0.0106,0.0191,0.0085,-8.55,28.76,0.06,252.82,2.31,-1.44
13508,50.804916,-3.433711,92,24.39,9.0,222.3,Dec-21,1350939,2019-08-17 07:43:00:306,0.0336,0.1171,9.5124,-0.0074,0.0008,9.8066,-0.0032,0.0025,0.0106,-8.55,28.76,0.06,252.82,2.37,-1.43
13509,50.804916,-3.433711,92,24.39,9.0,222.3,Dec-21,1351040,2019-08-17 07:43:00:407,-0.0777,0.3375,10.129,-0.0046,0.0048,9.8066,-0.0032,0.0025,0.0106,-8.38,28.81,0.06,254.64,2.36,-1.39
13510,50.804916,-3.433711,92,24.39,9.0,222.3,Dec-21,1351140,2019-08-17 07:43:00:507,-0.0901,0.4185,9.5156,-0.0047,0.0157,9.8066,0.0074,-0.0358,-0.0075,-8.55,28.76,-0.05,254.64,2.36,-1.39
13511,50.804916,-3.433711,92,24.39,9.0,222.3,Dec-21,1351240,2019-08-17 07:43:00:607,-0.0041,0.1586,9.7259,-0.0028,0.0106,9.8066,-0.0192,0.0355,0.0074,-7.79,28.97,-0.05,254.64,2.42,-1.36
13512,50.804916,-3.433711,92,24.39,9.0,222.3,Dec-21,1351339,2019-08-17 07:43:00:706,0.0618,0.0012,10.4836,0.014,-0.0032,9.8066,-0.0288,0.0227,-0.0096,-7.79,28.97,-0.05,254.64,2.42,-1.36
13513,50.804916,-3.433711,92,24.39,9.0,222.3,Dec-21,1351440,2019-08-17 07:43:00:807,-0.1901,-0.1102,10.9667,0.018,0.0019,9.8066,-0.0235,0.0227,0.0138,-8.55,28.76,-0.05,252.82,2.42,-1.44
13514,50.80475,-3.433939,92,24.45,9.0,222.3,Dec-21,1351541,2019-08-17 07:43:00:908,0.1478,-0.1178,10.046,0.033,-0.0069,9.8066,0.0159,0.0451,-0.0043,-7.78,28.96,-0.8,252.82,2.42,-1.44
13515,50.80475,-3.433939,92,24.45,9.0,222.3,Dec-21,1351639,2019-08-17 07:43:01:006,-0.2713,0.1923,10.0806,-0.0016,-0.0236,9.8066,-0.0139,0.0472,0.0128,-7.77,28.93,-1.54,254.52,2.38,-1.59
13516,50.80475,-3.433939,92,24.45,9.0,222.3,Dec-21,1351740,2019-08-17 07:43:01:107,0.03,-0.0918,9.9482,0.0023,-0.0117,9.8066,-0.016,-0.0199,0.0085,-7.94,28.89,-1.46,254.58,2.25,-1.62
13517,50.80475,-3.433939,92,24.45,9.0,222.3,Dec-21,1351839,2019-08-17 07:43:01:206,-0.0823,0.2317,9.7076,0.0086,-0.0018,9.8066,0.0191,-0.022,-0.0107,-7.94,28.89,-1.46,254.58,2.25,-1.62
13518,50.80475,-3.433939,92,24.45,9.0,222.3,Dec-21,1351940,2019-08-17 07:43:01:307,-0.2819,-0.1373,10.5506,0.0054,0.0097,9.8066,0.0191,-0.022,-0.0107,-7.93,28.85,-2.22,254.53,2.25,-1.67
13519,50.80475,-3.433939,92,24.45,9.0,222.3,Dec-21,1352039,2019-08-17 07:43:01:406,-0.0146,0.2009,9.7389,0.0099,0.0209,9.8066,0.0106,0.0185,0.0181,-8.54,28.72,-1.56,254.53,2.25,-1.67
13520,50.80475,-3.433939,92,24.45,9.0,222.3,Dec-21,1352140,2019-08-17 07:43:01:507,-0.0836,0.1571,9.7438,-0.0086,0.0165,9.8066,0.0053,-0.054,0.0159,-8.73,28.7,-0.16,252.83,2.38,-1.7
13521,50.80475,-3.433939,92,24.45,9.0,222.3,Dec-21,1352239,2019-08-17 07:43:01:606,-0.0836,0.1571,9.7438,-0.0269,0.0277,9.8066,0.0032,-0.0082,0.0042,-8.38,28.81,-0.05,252.83,2.38,-1.7
13522,50.80475,-3.433939,92,24.45,9.0,222.3,Dec-21,1352340,2019-08-17 07:43:01:707,0.1634,0.104,9.5801,-0.0372,0.0391,9.8065,0.0149,0.0036,-0.0107,-8.38,28.81,-0.05,252.83,2.38,-1.7
13523,50.80475,-3.433939,92,24.45,9.0,222.3,Dec-21,1352439,2019-08-17 07:43:01:806,0.398,-0.0119,9.6997,0.0004,-0.0088,9.8066,-0.0149,-0.0305,-0.0011,-8.55,28.75,-0.7,252.76,2.54,-1.42
13524,50.804592,-3.434165,92,24.26,9.0,222.7,Dec-21,1352540,2019-08-17 07:43:01:907,0.2726,-0.4157,10.2717,-0.0055,-0.0185,9.8066,0.0277,-0.0018,0.0085,-9.14,28.57,0.7,252.89,2.42,-1.42
13525,50.804592,-3.434165,92,24.26,9.0,222.7,Dec-21,1352639,2019-08-17 07:43:02:006,0.2753,-0.0642,9.0138,0.0111,0.0024,9.8066,0.0277,-0.0018,0.0085,-8.38,28.81,-0.05,254.64,2.36,-1.42
13526,50.804592,-3.434165,92,24.26,9.0,222.7,Dec-21,1352740,2019-08-17 07:43:02:107,0.3409,0.0629,9.2922,0.0128,0.0202,9.8066,0.0266,-0.0092,-0.0064,-8.55,28.75,0.7,254.64,2.36,-1.42
13527,50.804592,-3.434165,92,24.26,9.0,222.7,Dec-21,1352840,2019-08-17 07:43:02:207,-0.0127,0.1168,9.5984,0.0134,0.0533,9.8065,-0.0086,-0.0806,0.0074,-8.55,28.75,0.7,254.64,2.36,-1.42
13528,50.804592,-3.434165,92,24.26,9.0,222.7,Dec-21,1352940,2019-08-17 07:43:02:307,0.2166,0.1801,8.8805,-0.0236,0.0108,9.8066,0.0415,-0.0295,0.0053,-8.38,28.81,-0.05,254.65,2.68,-1.41
13529,50.804592,-3.434165,92,24.26,9.0,222.7,Dec-21,1353040,2019-08-17 07:43:02:407,-0.0294,0.1026,10.3259,-0.0196,-0.0024,9.8066,0.0096,0.0504,0.0181,-8.21,28.86,0.05,254.65,2.71,-1.26
13530,50.804592,-3.434165,92,24.26,9.0,222.7,Dec-21,1353140,2019-08-17 07:43:02:507,-0.1534,-0.0254,10.4115,-0.0226,-0.0232,9.8066,-0.016,0.0195,0.0,-8.55,28.76,0.06,252.82,2.54,-1.17
13531,50.804592,-3.434165,92,24.26,9.0,222.7,Dec-21,1353240,2019-08-17 07:43:02:607,-0.1519,-0.0176,10.0689,-0.0017,-0.0312,9.8066,0.0138,-0.0054,0.0128,-8.55,28.76,0.06,252.82,2.54,-1.17
13532,50.804592,-3.434165,92,24.26,9.0,222.7,Dec-21,1353339,2019-08-17 07:43:02:706,-0.0115,0.2266,9.0755,-0.0055,-0.0165,9.8066,0.0138,-0.0054,0.0128,-8.78,28.68,0.78,252.88,2.36,-1.21
13533,50.804592,-3.434165,92,24.26,9.0,222.7,Dec-21,1353439,2019-08-17 07:43:02:806,-0.0423,0.2737,9.2044,-0.0162,-0.0088,9.8066,-0.0075,0.0052,0.0223,-8.2,28.82,1.51,252.88,2.36,-1.21
13534,50.80445,-3.434424,91,24.27,9.0,222.8,Dec-21,1353540,2019-08-17 07:43:02:907,-0.0348,0.2559,9.6715,-0.0316,0.0173,9.8066,-0.0064,-0.0118,0.0053,-8.2,28.82,1.51,254.76,2.41,-1.01
13535,50.80445,-3.434424,91,24.27,9.0,222.8,Dec-21,1353640,2019-08-17 07:43:03:007,-0.2293,0.0211,10.1883,0.0029,0.0049,9.8066,-0.0117,-0.0491,0.0042,-8.21,28.86,0.05,254.63,2.47,-0.99
13536,50.80445,-3.434424,91,24.27,9.0,222.8,Dec-21,1353739,2019-08-17 07:43:03:106,0.1005,0.1703,9.6022,0.0022,0.007,9.8066,0.0255,0.0031,0.0021,-7.48,29.05,0.05,256.48,2.52,-0.99
13537,50.80445,-3.434424,91,24.27,9.0,222.8,Dec-21,1353839,2019-08-17 07:43:03:206,-0.182,0.107,10.2918,-0.0038,-0.0003,9.8067,-0.0149,-0.0139,0.0064,-7.48,29.05,0.05,256.48,2.52,-0.99
13538,50.80445,-3.434424,91,24.27,9.0,222.8,Dec-21,1353940,2019-08-17 07:43:03:307,-0.0136,-0.1511,10.141,-0.0002,-0.0189,9.8066,-0.016,0.001,0.0032,-8.38,28.81,0.06,254.63,2.51,-0.97
13539,50.80445,-3.434424,91,24.27,9.0,222.8,Dec-21,1354039,2019-08-17 07:43:03:406,-0.1845,-0.0278,9.529,-0.0037,-0.0493,9.8065,-0.0139,0.0095,0.0085,-7.79,28.97,0.06,254.62,2.23,-1.03
13540,50.80445,-3.434424,91,24.27,9.0,222.8,Dec-21,1354140,2019-08-17 07:43:03:507,0.2287,-0.0478,9.1312,0.005,-0.0195,9.8066,-0.0139,0.0095,0.0085,-8.55,28.75,-0.59,254.62,2.23,-1.03
13541,50.80445,-3.434424,91,24.27,9.0,222.8,Dec-21,1354239,2019-08-17 07:43:03:606,0.0142,0.014,9.6348,0.0262,-0.0247,9.8066,-0.0298,0.0031,-0.0149,-8.55,28.75,-0.59,254.62,2.23,-1.03
13542,50.80445,-3.434424,91,24.27,9.0,222.8,Dec-21,1354339,2019-08-17 07:43:03:706,-0.1033,0.1978,9.1682,0.0302,0.0302,9.8066,-0.0192,-0.0555,0.0064,-8.37,28.8,-0.58,254.57,2.13,-1.21
13543,50.80445,-3.434424,91,24.27,9.0,222.8,Dec-21,1354439,2019-08-17 07:43:03:806,-0.2463,0.1992,9.6804,0.049,0.064,9.8063,0.0192,-0.0374,0.0032,-7.18,29.11,0.91,256.57,2.56,-1.39
13544,50.804283,-3.434647,91,24.26,9.0,222.5,Dec-21,1354540,2019-08-17 07:43:03:907,-0.094,0.205,9.9591,0.0321,0.0191,9.8066,-0.0554,0.018,0.017,-7.18,29.11,0.91,256.57,2.56,-1.39
13545,50.804283,-3.434647,91,24.26,9.0,222.5,Dec-21,1354640,2019-08-17 07:43:04:007,-0.0705,-0.0074,9.696,-0.0036,-0.0269,9.8066,0.0106,-0.0544,-0.0054,-7.95,28.92,-0.59,254.58,2.72,-1.55
13546,50.804283,-3.434647,91,24.26,9.0,222.5,Dec-21,1354740,2019-08-17 07:43:04:107,-0.3527,-0.2286,11.132,-0.0235,-0.072,9.8064,0.0405,0.0553,0.001,-8.7,28.71,-0.6,254.58,2.72,-1.55
13547,50.804283,-3.434647,91,24.26,9.0,222.5,Dec-21,1354839,2019-08-17 07:43:04:206,-0.2466,-0.2914,10.5716,-0.0403,-0.0426,9.8065,0.0223,0.0532,0.0159,-8.37,28.79,0.9,254.7,2.27,-1.53
13548,50.804283,-3.434647,91,24.26,9.0,222.5,Dec-21,1354939,2019-08-17 07:43:04:306,-0.0459,-0.0688,10.0347,-0.0772,-0.0696,9.8061,0.0223,0.0532,0.0159,-9.53,28.45,0.26,254.7,2.27,-1.53
13549,50.804283,-3.434647,91,24.26,9.0,222.5,Dec-21,1355039,2019-08-17 07:43:04:406,0.4023,0.1946,9.2534,-0.0767,-0.0566,9.8062,0.001,-0.0363,-0.0224,-9.11,28.58,0.27,252.8,1.84,-1.18
13550,50.804283,-3.434647,91,24.26,9.0,222.5,Dec-21,1355140,2019-08-17 07:43:04:507,-0.5396,0.0999,9.432,0.0294,0.0342,9.8065,-0.0203,0.0159,0.0138,-8.37,28.79,1.01,252.8,1.84,-1.18
13551,50.804283,-3.434647,91,24.26,9.0,222.5,Dec-21,1355240,2019-08-17 07:43:04:607,-0.0497,0.2933,9.7729,0.0565,0.0674,9.8063,-0.0128,-0.0395,0.0138,-8.37,28.79,1.01,252.8,1.84,-1.18
13552,50.804283,-3.434647,91,24.26,9.0,222.5,Dec-21,1355339,2019-08-17 07:43:04:706,0.0293,0.0643,9.6453,0.0758,0.0832,9.806,0.0106,-0.038,0.0074,-7.92,28.92,1.03,254.71,2.43,-1.46
13553,50.804283,-3.434647,91,24.26,9.0,222.5,Dec-21,1355439,2019-08-17 07:43:04:806,-0.4786,-0.1455,9.9675,-0.0288,-0.0133,9.8066,0.0522,0.0568,-0.0064,-7.92,28.93,0.38,254.64,2.45,-1.46
13554,50.80412,-3.434875,91,24.28,9.0,222.2,Dec-21,1355540,2019-08-17 07:43:04:907,-0.3818,-0.1816,9.6249,-0.0298,-0.0249,9.8066,0.016,0.0526,0.0032,-8.52,28.76,0.27,252.82,2.33,-1.32
13555,50.80412,-3.434875,91,24.28,9.0,222.2,Dec-21,1355640,2019-08-17 07:43:05:007,-0.1633,-0.1957,9.8059,-0.0468,-0.0562,9.8064,0.0,0.0383,0.0,-8.78,28.69,0.26,252.82,2.33,-1.32
13556,50.80412,-3.434875,91,24.28,9.0,222.2,Dec-21,1355739,2019-08-17 07:43:05:106,-0.2033,-0.2909,10.2512,-0.0551,-0.0854,9.8061,0.0,0.0383,0.0,-8.78,28.69,0.26,252.82,2.33,-1.32
13557,50.80412,-3.434875,91,24.28,9.0,222.2,Dec-21,1355841,2019-08-17 07:43:05:208,-0.5029,-0.0845,9.5834,0.0004,0.0081,9.8066,0.0085,-0.0022,0.0191,-9.1,28.56,1.13,252.84,1.76,-1.15
13558,50.80412,-3.434875,91,24.28,9.0,222.2,Dec-21,1355939,2019-08-17 07:43:05:306,-0.0887,0.1429,9.9737,0.0164,0.0402,9.8066,0.0085,-0.0022,0.001,-8.37,28.79,1.01,254.68,2.01,-1.18
13559,50.80412,-3.434875,91,24.28,9.0,222.2,Dec-21,1356039,2019-08-17 07:43:05:406,-0.0628,0.1689,10.0345,0.0109,0.0365,9.8066,-0.0192,-0.0608,-0.0054,-8.37,28.79,1.01,254.68,2.01,-1.18
13560,50.80412,-3.434875,91,24.28,9.0,222.2,Dec-21,1356140,2019-08-17 07:43:05:507,-0.0948,-0.2298,9.9738,0.0304,0.032,9.8066,-0.0267,-0.0214,0.0128,-8.34,28.8,1.0,254.69,2.24,-1.3
13561,50.80412,-3.434875,91,24.28,9.0,222.2,Dec-21,1356240,2019-08-17 07:43:05:607,0.0949,-0.116,9.191,0.0176,-0.0109,9.8066,-0.0022,0.0287,0.0106,-8.7,28.71,0.39,252.82,2.2,-1.41
13562,50.80412,-3.434875,91,24.28,9.0,222.2,Dec-21,1356339,2019-08-17 07:43:05:706,-0.2346,-0.4533,10.5047,0.0034,-0.0352,9.8066,-0.0203,-0.0011,0.0021,-8.7,28.71,0.39,252.82,2.2,-1.41
13563,50.80412,-3.434875,91,24.28,9.0,222.2,Dec-21,1356440,2019-08-17 07:43:05:807,0.0071,-0.3193,10.2312,0.0003,-0.0246,9.8066,-0.0203,-0.0011,0.0021,-8.52,28.76,-0.27,252.81,2.01,-1.49
13564,50.80395,-3.435107,91,24.34,10.0,222.0,Dec-21,1356540,2019-08-17 07:43:05:907,0.3889,0.0857,8.9511,-0.0025,-0.0396,9.8066,0.0202,-0.032,0.0074,-8.52,28.76,0.38,252.81,2.01,-1.49
13565,50.80395,-3.435107,91,24.34,10.0,222.0,Dec-21,1356639,2019-08-17 07:43:06:006,-0.2487,-0.1017,9.8933,-0.0276,-0.0604,9.8064,0.0117,-0.0001,-0.0075,-8.52,28.76,0.38,252.81,2.01,-1.49
13566,50.80395,-3.435107,91,24.34,10.0,222.0,Dec-21,1356740,2019-08-17 07:43:06:107,0.1718,-0.0034,9.374,-0.018,0.0034,9.8066,0.0106,-0.0118,0.0266,-8.78,28.68,-0.36,252.8,1.63,-1.45
13567,50.80395,-3.435107,91,24.34,10.0,222.0,Dec-21,1356840,2019-08-17 07:43:06:207,-0.3189,-0.1789,9.9434,-0.0165,0.0324,9.8066,0.0,-0.0257,-0.0171,-9.3,28.5,1.07,252.8,1.63,-1.45
13568,50.80395,-3.435107,91,24.34,10.0,222.0,Dec-21,1356940,2019-08-17 07:43:06:307,0.2042,0.0947,10.2938,0.0058,0.0666,9.8064,-0.0064,-0.0054,-0.0011,-8.21,28.85,0.37,254.63,2.01,-1.36
13569,50.80395,-3.435107,91,24.34,10.0,222.0,Dec-21,1357040,2019-08-17 07:43:06:407,0.1238,0.1212,8.9477,0.0162,0.0219,9.8066,-0.0054,0.0052,-0.0011,-8.21,28.85,0.37,254.63,2.01,-1.36
13570,50.80395,-3.435107,91,24.34,10.0,222.0,Dec-21,1357140,2019-08-17 07:43:06:507,-0.0691,0.0604,10.1408,-0.0037,-0.0038,9.8067,-0.0054,0.0052,-0.0011,-8.52,28.76,0.38,252.81,2.16,-1.42
13571,50.80395,-3.435107,91,24.34,10.0,222.0,Dec-21,1357239,2019-08-17 07:43:06:606,0.1832,-0.1465,10.7022,-0.0026,-0.0617,9.8065,-0.0107,0.0223,0.0074,-8.34,28.8,-1.0,252.81,2.16,-1.42
13572,50.80395,-3.435107,91,24.34,10.0,222.0,Dec-21,1357339,2019-08-17 07:43:06:706,0.1772,-0.1176,10.242,-0.0019,-0.0189,9.8066,0.0085,0.0234,0.0042,-9.3,28.52,-0.27,252.8,1.81,-1.51
13573,50.80395,-3.435107,91,24.34,10.0,222.0,Dec-21,1357439,2019-08-17 07:43:06:806,0.1173,0.0157,9.7559,-0.0079,-0.0214,9.8066,0.0074,0.017,0.0021,-9.3,28.52,-0.27,252.8,1.81,-1.51
13574,50.803795,-3.435361,91,24.35,10.0,223.2,Dec-21,1357540,2019-08-17 07:43:06:907,0.0202,-0.0903,10.8616,-0.0013,0.0096,9.8066,0.0032,0.0159,0.0159,-9.28,28.48,-1.69,252.15,1.68,-1.5
13575,50.803795,-3.435361,91,24.35,10.0,223.2,Dec-21,1357639,2019-08-17 07:43:07:006,0.3137,0.2264,8.989,0.0031,0.0258,9.8066,0.0192,-0.0502,-0.0139,-9.1,28.57,-0.91,252.76,1.83,-1.48
13576,50.803795,-3.435361,91,24.35,10.0,223.2,Dec-21,1357739,2019-08-17 07:43:07:106,0.2582,0.2266,9.1822,0.0069,0.0231,9.8066,-0.0192,0.0127,0.0053,-9.11,28.58,-0.16,252.76,1.83,-1.48
13577,50.803795,-3.435361,91,24.35,10.0,223.2,Dec-21,1357840,2019-08-17 07:43:07:207,-0.0496,0.2636,9.5465,0.0053,0.0405,9.8066,0.0032,0.0095,0.0127,-9.11,28.58,-0.16,252.76,1.83,-1.48
13578,50.803795,-3.435361,91,24.35,10.0,223.2,Dec-21,1357940,2019-08-17 07:43:07:307,-0.1261,0.1609,9.1298,-0.0033,0.0415,9.8066,0.0106,-0.0075,0.0021,-8.35,28.81,0.48,254.63,2.05,-1.38
13579,50.803795,-3.435361,91,24.35,10.0,223.2,Dec-21,1358040,2019-08-17 07:43:07:407,0.0832,0.2718,10.6501,-0.0102,-0.0031,9.8066,0.0106,-0.0075,0.0021,-7.92,28.93,0.49,254.63,2.02,-1.33
13580,50.803795,-3.435361,91,24.35,10.0,223.2,Dec-21,1358139,2019-08-17 07:43:07:506,-0.0048,-0.1643,9.9302,-0.0227,-0.0337,9.8066,0.017,0.0692,0.001,-7.92,28.93,0.49,254.63,2.02,-1.33
13581,50.803795,-3.435361,91,24.35,10.0,223.2,Dec-21,1358240,2019-08-17 07:43:07:607,-0.2499,-0.0721,10.8631,-0.0217,-0.0047,9.8066,-0.0011,0.0074,0.0096,-7.76,28.97,0.59,254.66,1.8,-1.26
13582,50.803795,-3.435361,91,24.35,10.0,223.2,Dec-21,1358339,2019-08-17 07:43:07:706,0.1269,-0.0467,10.4194,-0.0197,0.0057,9.8066,-0.0117,0.0191,0.0053,-8.18,28.86,0.47,254.62,1.8,-1.14
13583,50.803795,-3.435361,91,24.35,10.0,223.2,Dec-21,1358439,2019-08-17 07:43:07:806,0.2887,0.3006,9.9723,0.0189,0.0245,9.8066,0.0074,-0.0107,0.0021,-8.18,28.86,0.47,254.62,1.8,-1.14
13584,50.80362,-3.435573,91,24.41,10.0,221.7,Dec-21,1358549,2019-08-17 07:43:07:916,0.2107,0.1418,9.522,0.0535,0.0305,9.8065,-0.0171,0.001,-0.0032,-8.52,28.76,-0.16,254.62,1.8,-1.14
13585,50.80362,-3.435573,91,24.41,10.0,221.7,Dec-21,1358639,2019-08-17 07:43:08:006,0.0666,-0.0758,10.4019,0.0802,0.0172,9.8063,-0.0053,-0.0075,0.0181,-8.7,28.7,-0.93,252.76,2.02,-1.56
13586,50.80362,-3.435573,91,24.41,10.0,221.7,Dec-21,1358739,2019-08-17 07:43:08:106,-0.1756,-0.0461,9.9919,0.0088,0.0022,9.8066,-0.0053,-0.0075,0.0181,-8.52,28.76,0.59,252.76,2.02,-1.56
13587,50.80362,-3.435573,91,24.41,10.0,221.7,Dec-21,1358840,2019-08-17 07:43:08:207,-0.1469,-0.1109,9.8785,-0.0016,0.0034,9.8067,0.017,0.0084,-0.0054,-8.35,28.81,0.58,254.68,2.03,-1.55
13588,50.80362,-3.435573,91,24.41,10.0,221.7,Dec-21,1358940,2019-08-17 07:43:08:307,-0.3644,-0.027,10.4474,-0.0149,-0.0231,9.8066,0.0021,-0.0022,0.0085,-8.35,28.81,0.58,254.68,2.03,-1.55
13589,50.80362,-3.435573,91,24.41,10.0,221.7,Dec-21,1359040,2019-08-17 07:43:08:407,-0.0663,0.1762,9.2269,-0.002,0.0053,9.8066,0.0096,0.0046,0.0149,-8.34,28.79,1.32,254.67,1.83,-1.45
13590,50.80362,-3.435573,91,24.41,10.0,221.7,Dec-21,1359139,2019-08-17 07:43:08:506,-0.4327,-0.0671,10.4859,0.0108,0.0103,9.8066,0.0053,0.0174,-0.0043,-8.35,28.81,-0.16,254.62,1.85,-1.43
13591,50.80362,-3.435573,91,24.41,10.0,221.7,Dec-21,1359240,2019-08-17 07:43:08:607,0.1033,0.1291,9.2749,0.0101,0.0065,9.8066,-0.0021,0.011,-0.0032,-9.3,28.52,0.6,252.85,1.93,-1.48
13592,50.80362,-3.435573,91,24.41,10.0,221.7,Dec-21,1359340,2019-08-17 07:43:08:707,0.0696,0.1523,9.696,0.0214,0.0052,9.8066,0.0085,0.0036,-0.0032,-9.3,28.52,0.6,252.85,1.93,-1.48
13593,50.80362,-3.435573,91,24.41,10.0,221.7,Dec-21,1359440,2019-08-17 07:43:08:807,-0.1277,-0.0167,10.0083,-0.0054,0.0104,9.8066,0.0362,-0.0103,-0.0245,-7.76,28.97,0.59,254.68,1.99,-1.59
13594,50.803455,-3.435801,90,24.38,9.0,222.5,Dec-21,1359540,2019-08-17 07:43:08:907,-0.0403,0.1831,8.8993,-0.009,0.0182,9.8066,-0.0352,0.0409,0.0106,-8.35,28.81,-0.16,254.63,2.08,-1.51
13595,50.803455,-3.435801,90,24.38,9.0,222.5,Dec-21,1359639,2019-08-17 07:43:09:006,0.1442,-0.24,10.0428,0.0113,0.005,9.8066,-0.0352,0.0409,0.0106,-8.35,28.81,-0.16,254.63,2.08,-1.51
13596,50.803455,-3.435801,90,24.38,9.0,222.5,Dec-21,1359740,2019-08-17 07:43:09:107,-0.0838,0.0405,9.3885,0.0159,0.0077,9.8066,-0.0043,-0.0316,0.0053,-8.35,28.81,0.69,254.69,2.15,-1.59
13597,50.803455,-3.435801,90,24.38,9.0,222.5,Dec-21,1359839,2019-08-17 07:43:09:206,-0.1591,-0.1226,10.3308,0.0036,0.0036,9.8066,0.0042,-0.0252,-0.0022,-8.93,28.64,-0.05,252.82,2.18,-1.6
13598,50.803455,-3.435801,90,24.38,9.0,222.5,Dec-21,1359939,2019-08-17 07:43:09:306,-0.1329,-0.0046,9.8144,0.0216,0.025,9.8066,-0.0245,0.0174,-0.0011,-8.93,28.64,-0.05,252.82,2.18,-1.6
13599,50.803455,-3.435801,90,24.38,9.0,222.5,Dec-21,1360040,2019-08-17 07:43:09:407,-0.1393,-0.1878,10.499,0.0156,-0.0163,9.8066,-0.0234,0.0547,0.0064,-8.92,28.63,-0.78,252.77,2.35,-1.68
13600,50.803455,-3.435801,90,24.38,9.0,222.5,Dec-21,1360140,2019-08-17 07:43:09:507,0.0,-0.0818,10.36,0.0257,-0.0286,9.8066,-0.0117,-0.0231,-0.0064,-8.93,28.64,-0.05,252.83,2.24,-1.87
13601,50.803455,-3.435801,90,24.38,9.0,222.5,Dec-21,1360240,2019-08-17 07:43:09:607,-0.1948,-0.2673,10.1129,0.0046,-0.012,9.8066,0.0298,0.0387,-0.0096,-8.93,28.64,-0.05,252.83,2.24,-1.87
13602,50.803455,-3.435801,90,24.38,9.0,222.5,Dec-21,1360339,2019-08-17 07:43:09:706,0.2029,-0.076,9.3281,-0.0164,-0.0168,9.8066,-0.0043,0.0164,0.0074,-8.35,28.82,-0.05,254.65,2.18,-1.92
13603,50.803455,-3.435801,90,24.38,9.0,222.5,Dec-21,1360440,2019-08-17 07:43:09:807,-0.1681,-0.1822,10.0178,-0.0264,-0.0312,9.8066,0.0053,0.0025,0.0223,-8.35,28.82,-0.05,254.65,2.18,-1.92
13604,50.8033,-3.436041,89,24.37,9.0,222.7,Dec-21,1360540,2019-08-17 07:43:09:907,0.0735,0.1027,9.4218,-0.0022,0.0209,9.8066,0.0053,0.0025,0.0223,-8.35,28.81,0.69,254.68,1.96,-1.82
13605,50.8033,-3.436041,89,24.37,9.0,222.7,Dec-21,1360639,2019-08-17 07:43:10:006,0.347,0.1312,9.3076,-0.0107,0.0459,9.8065,0.0415,-0.0135,-0.016,-9.29,28.51,-0.82,252.77,2.2,-1.69
13606,50.8033,-3.436041,89,24.37,9.0,222.7,Dec-21,1360739,2019-08-17 07:43:10:106,-0.0377,-0.0143,9.6272,-0.0023,0.0182,9.8066,-0.0075,-0.0071,0.0117,-8.52,28.76,-0.05,252.77,2.2,-1.69
13607,50.8033,-3.436041,89,24.37,9.0,222.7,Dec-21,1360839,2019-08-17 07:43:10:206,0.1156,0.164,9.8508,-0.0059,0.0289,9.8066,-0.0224,-0.0369,0.0159,-8.52,28.76,-0.05,252.77,2.2,-1.69
13608,50.8033,-3.436041,89,24.37,9.0,222.7,Dec-21,1360939,2019-08-17 07:43:10:306,0.0131,-0.0146,10.0997,0.0001,-0.0102,9.8066,0.0085,0.0249,0.0159,-8.35,28.82,-0.05,254.65,2.35,-1.6
13609,50.8033,-3.436041,89,24.37,9.0,222.7,Dec-21,1361039,2019-08-17 07:43:10:406,-0.0793,-0.18,10.3539,-0.0229,-0.0138,9.8066,0.0309,-0.0092,0.0106,-9.11,28.58,-0.05,252.82,2.3,-1.62
13610,50.8033,-3.436041,89,24.37,9.0,222.7,Dec-21,1361139,2019-08-17 07:43:10:506,-0.0722,-0.1109,9.3147,-0.0535,-0.0237,9.8065,0.016,0.0504,0.0042,-9.1,28.55,1.45,252.86,2.07,-1.36
13611,50.8033,-3.436041,89,24.37,9.0,222.7,Dec-21,1361239,2019-08-17 07:43:10:606,0.2375,0.0894,9.479,-0.0471,-0.0056,9.8065,-0.0064,0.0089,0.0159,-9.1,28.55,1.45,252.86,2.07,-1.36
13612,50.8033,-3.436041,89,24.37,9.0,222.7,Dec-21,1361339,2019-08-17 07:43:10:706,-0.1879,0.1148,9.3886,-0.0224,0.0063,9.8066,-0.0096,-0.0231,0.0064,-8.92,28.61,1.42,252.85,1.96,-1.11
13613,50.8033,-3.436041,89,24.37,9.0,222.7,Dec-21,1361440,2019-08-17 07:43:10:807,-0.1978,0.2754,9.7307,0.0032,0.0045,9.8066,-0.0096,-0.0231,0.0064,-8.51,28.73,1.45,252.85,1.96,-0.97
13614,50.803143,-3.436288,89,24.38,9.0,222.7,Dec-21,1361540,2019-08-17 07:43:10:907,-0.3661,-0.134,10.3991,0.0073,0.01,9.8066,-0.0213,0.0014,0.0127,-8.33,28.74,2.16,254.73,2.03,-1.0
13615,50.803143,-3.436288,89,24.38,9.0,222.7,Dec-21,1361640,2019-08-17 07:43:11:007,0.4989,0.2796,8.3811,0.0077,0.0014,9.8066,-0.0011,0.0387,0.0117,-8.33,28.74,2.16,254.73,2.03,-1.0
13616,50.803143,-3.436288,89,24.38,9.0,222.7,Dec-21,1361739,2019-08-17 07:43:11:106,0.3167,0.243,9.0916,0.0086,-0.0052,9.8066,0.0064,-0.0231,-0.0043,-8.92,28.63,0.68,252.85,2.04,-1.08
13617,50.803143,-3.436288,89,24.38,9.0,222.7,Dec-21,1361839,2019-08-17 07:43:11:206,-0.0638,-0.157,10.9294,0.0047,0.0059,9.8066,-0.0107,0.011,0.0127,-8.68,28.63,2.25,252.91,2.03,-1.14
13618,50.803143,-3.436288,89,24.38,9.0,222.7,Dec-21,1361940,2019-08-17 07:43:11:307,0.3734,0.0299,9.0809,0.0159,-0.0078,9.8066,-0.0053,-0.0252,0.0298,-8.67,28.71,0.82,252.86,2.01,-1.24
13619,50.803143,-3.436288,89,24.38,9.0,222.7,Dec-21,1362040,2019-08-17 07:43:11:407,-0.292,0.0076,10.1401,-0.0103,-0.0095,9.8066,0.0128,-0.0273,-0.0075,-8.67,28.71,0.82,252.86,2.01,-1.24
13620,50.803143,-3.436288,89,24.38,9.0,222.7,Dec-21,1362139,2019-08-17 07:43:11:506,0.0132,0.278,8.9376,0.0101,0.0018,9.8066,0.0074,-0.0092,0.0127,-8.52,28.75,0.81,252.85,1.94,-1.2
13621,50.803143,-3.436288,89,24.38,9.0,222.7,Dec-21,1362239,2019-08-17 07:43:11:606,-0.5638,-0.0235,10.3406,0.0168,0.0038,9.8066,-0.0352,0.0472,0.0319,-8.66,28.69,1.48,252.85,1.94,-1.2
13622,50.803143,-3.436288,89,24.38,9.0,222.7,Dec-21,1362339,2019-08-17 07:43:11:706,0.1447,-0.0073,9.5936,0.0103,0.0072,9.8066,-0.0352,0.0472,0.0319,-8.92,28.61,1.42,252.86,2.0,-1.24
13623,50.803143,-3.436288,89,24.38,9.0,222.7,Dec-21,1362440,2019-08-17 07:43:11:807,-0.1034,-0.2778,10.6671,-0.0039,-0.0171,9.8066,0.0309,0.0504,-0.0054,-8.92,28.61,1.42,252.86,2.0,-1.24
13624,50.802982,-3.436534,88,24.38,9.0,222.4,Dec-21,1362539,2019-08-17 07:43:11:906,0.5795,0.3269,9.0015,-0.0033,-0.0247,9.8066,-0.0043,-0.0273,-0.0118,-8.49,28.76,0.81,254.67,1.86,-1.27
13625,50.802982,-3.436534,88,24.38,9.0,222.4,Dec-21,1362640,2019-08-17 07:43:12:007,0.0181,0.0563,10.0421,-0.0033,-0.0247,9.8066,0.0053,-0.0231,-0.0139,-8.49,28.76,0.81,254.67,1.86,-1.27
13626,50.802982,-3.436534,88,24.38,9.0,222.4,Dec-21,1362739,2019-08-17 07:43:12:106,-0.1838,0.1876,9.8723,0.0317,0.0092,9.8066,-0.0224,-0.0412,0.0032,-9.11,28.58,0.06,254.67,1.86,-1.27
13627,50.802982,-3.436534,88,24.38,9.0,222.4,Dec-21,1362840,2019-08-17 07:43:12:207,-0.2275,-0.0455,10.0208,0.0171,-0.0074,9.8066,-0.0235,0.0174,0.017,-8.49,28.77,-0.59,254.58,1.96,-1.43
13628,50.802982,-3.436534,88,24.38,9.0,222.4,Dec-21,1362939,2019-08-17 07:43:12:306,-0.1578,-0.1221,10.2384,0.031,-0.004,9.8066,0.0192,0.0206,0.0053,-9.68,28.38,0.8,254.58,1.96,-1.43
13629,50.802982,-3.436534,88,24.38,9.0,222.4,Dec-21,1363040,2019-08-17 07:43:12:407,-0.2578,-0.044,10.2536,0.032,0.0074,9.8066,0.0192,0.0206,0.0053,-9.68,28.38,0.8,254.58,1.96,-1.43
13630,50.802982,-3.436534,88,24.38,9.0,222.4,Dec-21,1363140,2019-08-17 07:43:12:507,-0.0273,0.1866,9.9596,0.0003,0.0048,9.8066,0.0213,0.0068,0.0117,-8.67,28.71,0.82,252.86,2.05,-1.6
13631,50.802982,-3.436534,88,24.38,9.0,222.4,Dec-21,1363239,2019-08-17 07:43:12:606,-0.0507,0.0529,9.8674,-0.0057,-0.0033,9.8066,0.016,0.0025,0.0032,-9.27,28.53,0.06,252.81,2.02,-1.58
13632,50.802982,-3.436534,88,24.38,9.0,222.4,Dec-21,1363339,2019-08-17 07:43:12:706,-0.3212,-0.0645,10.4477,-0.0108,0.0009,9.8066,-0.0053,0.0249,0.0042,-9.07,28.58,0.8,252.81,2.02,-1.58
13633,50.802982,-3.436534,88,24.38,9.0,222.4,Dec-21,1363439,2019-08-17 07:43:12:806,0.1404,0.0246,9.6597,-0.0056,-0.0057,9.8066,0.0287,0.0206,0.0032,-9.26,28.52,0.82,252.86,1.98,-1.55
13634,50.80282,-3.436757,88,24.42,9.0,221.6,Dec-21,1363541,2019-08-17 07:43:12:908,-0.0822,0.028,9.9987,-0.0201,-0.0153,9.8066,0.0458,0.0355,0.0053,-9.26,28.52,0.82,252.86,1.98,-1.55
13635,50.80282,-3.436757,88,24.42,9.0,221.6,Dec-21,1363639,2019-08-17 07:43:13:006,-0.2706,0.1541,9.8389,-0.0231,-0.0067,9.8066,0.0341,-0.0103,-0.0022,-9.26,28.52,0.82,252.85,1.86,-1.47
13636,50.80282,-3.436757,88,24.42,9.0,221.6,Dec-21,1363740,2019-08-17 07:43:13:107,0.0303,-0.047,10.0951,-0.0085,0.0186,9.8066,0.001,0.0099,0.0,-8.93,28.64,0.16,252.79,1.75,-1.1
13637,50.80282,-3.436757,88,24.42,9.0,221.6,Dec-21,1363839,2019-08-17 07:43:13:206,0.3493,0.0849,9.7202,-0.0069,0.0436,9.8066,0.001,0.0099,0.0,-8.93,28.64,0.16,252.8,1.98,-0.98
13638,50.80282,-3.436757,88,24.42,9.0,221.6,Dec-21,1363939,2019-08-17 07:43:13:306,-0.0446,-0.2714,10.2323,0.0007,0.0025,9.8067,0.016,0.0004,-0.0043,-8.75,28.69,0.16,252.8,1.98,-0.98
13639,50.80282,-3.436757,88,24.42,9.0,221.6,Dec-21,1364040,2019-08-17 07:43:13:407,0.1338,0.1338,9.6961,-0.0002,0.0053,9.8066,0.001,0.0313,0.0096,-8.92,28.63,0.89,252.85,2.01,-0.97
13640,50.80282,-3.436757,88,24.42,9.0,221.6,Dec-21,1364139,2019-08-17 07:43:13:506,0.2316,0.0459,9.4108,0.007,0.003,9.8066,-0.0181,-0.0082,0.0,-8.92,28.63,0.89,252.85,2.01,-0.97
13641,50.80282,-3.436757,88,24.42,9.0,221.6,Dec-21,1364239,2019-08-17 07:43:13:606,-0.2368,-0.3194,10.6794,0.0155,-0.0172,9.8066,-0.0341,0.0547,0.0181,-8.75,28.69,0.16,252.85,2.01,-0.97
13642,50.80282,-3.436757,88,24.42,9.0,221.6,Dec-21,1364340,2019-08-17 07:43:13:707,0.5307,-0.1472,8.7915,0.021,-0.0344,9.8066,0.0053,-0.0465,-0.0022,-9.4,28.49,-0.47,252.22,1.86,-1.15
13643,50.80282,-3.436757,88,24.42,9.0,221.6,Dec-21,1364439,2019-08-17 07:43:13:806,0.2864,0.0774,9.4181,0.0054,0.0056,9.8066,0.0085,-0.0305,-0.015,-9.4,28.49,-0.47,252.22,1.86,-1.15
13644,50.802654,-3.436999,87,24.44,9.0,222.2,Dec-21,1364539,2019-08-17 07:43:13:906,0.1812,-0.0235,9.5327,0.0079,0.0272,9.8066,0.0,-0.0124,-0.0128,-9.56,28.44,0.16,250.39,1.9,-1.17
13645,50.802654,-3.436999,87,24.44,9.0,222.2,Dec-21,1364639,2019-08-17 07:43:14:006,0.0342,-0.1108,10.1392,0.023,0.0409,9.8065,0.0149,-0.0018,0.0,-7.76,28.98,0.16,250.39,1.9,-1.17
13646,50.802654,-3.436999,87,24.44,9.0,222.2,Dec-21,1364739,2019-08-17 07:43:14:106,-0.2528,-0.0119,9.498,0.0372,0.0418,9.8065,0.0149,-0.0018,0.0,-8.92,28.63,0.89,252.87,2.2,-1.29
13647,50.802654,-3.436999,87,24.44,9.0,222.2,Dec-21,1364840,2019-08-17 07:43:14:207,0.0197,0.0378,10.4323,0.0072,-0.0182,9.8066,-0.0192,0.0259,0.0064,-8.92,28.63,0.89,252.87,2.2,-1.29
13648,50.802654,-3.436999,87,24.44,9.0,222.2,Dec-21,1364939,2019-08-17 07:43:14:306,0.1311,-0.1531,10.0491,0.0047,-0.0229,9.8066,-0.0341,0.0803,0.0245,-8.75,28.69,0.16,252.81,2.11,-1.36
13649,50.802654,-3.436999,87,24.44,9.0,222.2,Dec-21,1365039,2019-08-17 07:43:14:406,0.0674,-0.255,10.1751,0.003,-0.0542,9.8065,0.0234,0.0334,-0.0054,-8.93,28.64,0.16,252.81,2.11,-1.36
13650,50.802654,-3.436999,87,24.44,9.0,222.2,Dec-21,1365139,2019-08-17 07:43:14:506,-0.1409,0.0936,9.9867,0.0078,0.0004,9.8066,-0.0171,0.0153,0.0159,-9.08,28.59,0.16,252.8,1.81,-1.47
13651,50.802654,-3.436999,87,24.44,9.0,222.2,Dec-21,1365239,2019-08-17 07:43:14:606,0.0162,0.4375,9.6706,0.0065,0.0241,9.8066,-0.0192,-0.0572,-0.0032,-8.92,28.64,-0.57,252.76,1.96,-1.47
13652,50.802654,-3.436999,87,24.44,9.0,222.2,Dec-21,1365339,2019-08-17 07:43:14:706,-0.0226,0.0251,9.8151,0.0071,0.0145,9.8066,-0.0128,-0.0039,-0.0011,-8.92,28.64,-0.57,252.76,1.96,-1.47
13653,50.802654,-3.436999,87,24.44,9.0,222.2,Dec-21,1365440,2019-08-17 07:43:14:807,0.3616,-0.0332,10.2977,0.0082,0.0024,9.8066,0.0309,0.0771,0.0096,-9.07,28.58,0.91,252.86,2.05,-1.48
13654,50.802505,-3.437241,87,24.39,10.0,222.8,Dec-21,1365540,2019-08-17 07:43:14:907,0.3974,0.3283,9.3913,0.0027,-0.0224,9.8066,0.0309,0.0771,0.0096,-8.74,28.65,1.59,252.86,2.05,-1.48
13655,50.802505,-3.437241,87,24.39,10.0,222.8,Dec-21,1365639,2019-08-17 07:43:15:006,-0.4176,-0.038,10.9947,-0.0096,-0.0257,9.8066,-0.0011,-0.0124,0.0085,-8.35,28.81,-0.47,254.63,1.89,-1.47
13656,50.802505,-3.437241,87,24.39,10.0,222.8,Dec-21,1365740,2019-08-17 07:43:15:107,-0.1666,0.2333,9.3466,-0.0119,-0.0047,9.8066,0.0064,-0.0177,0.0127,-9.21,28.54,0.87,252.85,1.94,-1.31
13657,50.802505,-3.437241,87,24.39,10.0,222.8,Dec-21,1365839,2019-08-17 07:43:15:206,-0.0715,0.0986,9.0833,-0.0058,-0.001,9.8066,-0.0085,0.0014,0.0138,-9.21,28.54,0.87,252.85,1.94,-1.31
13658,50.802505,-3.437241,87,24.39,10.0,222.8,Dec-21,1365939,2019-08-17 07:43:15:306,-0.0468,0.0707,9.1304,0.0083,0.0185,9.8066,-0.0256,0.0067,0.0202,-7.89,28.93,0.92,254.67,1.92,-1.28
13659,50.802505,-3.437241,87,24.39,10.0,222.8,Dec-21,1366039,2019-08-17 07:43:15:406,-0.223,0.1006,9.9275,0.0052,0.0339,9.8066,0.0021,-0.0082,0.0074,-9.26,28.53,-0.49,254.67,1.92,-1.28
13660,50.802505,-3.437241,87,24.39,10.0,222.8,Dec-21,1366140,2019-08-17 07:43:15:507,-0.0292,0.3108,9.6106,0.0084,0.0374,9.8066,0.0021,-0.0114,0.0032,-8.9,28.65,0.16,252.81,2.15,-1.27
13661,50.802505,-3.437241,87,24.39,10.0,222.8,Dec-21,1366239,2019-08-17 07:43:15:606,-0.2341,-0.0518,10.1442,0.0004,-0.0117,9.8066,-0.0085,0.0483,0.0106,-8.9,28.65,0.16,252.81,2.15,-1.27
13662,50.802505,-3.437241,87,24.39,10.0,222.8,Dec-21,1366342,2019-08-17 07:43:15:709,-0.0382,-0.0342,10.1106,0.003,-0.0219,9.8066,-0.0085,0.0483,0.0106,-9.07,28.58,0.91,252.86,2.03,-1.32
13663,50.802505,-3.437241,87,24.39,10.0,222.8,Dec-21,1366439,2019-08-17 07:43:15:806,0.1034,0.2414,9.3971,-0.0064,-0.0005,9.8066,0.0149,-0.0124,-0.0043,-8.32,28.82,0.27,252.86,2.03,-1.32
13664,50.80234,-3.437466,87,24.38,9.0,222.4,Dec-21,1366541,2019-08-17 07:43:15:908,-0.2902,0.1573,9.7656,-0.0202,-0.006,9.8066,0.0298,-0.0231,0.0064,-8.9,28.65,0.16,252.8,1.96,-1.22
13665,50.80234,-3.437466,87,24.38,9.0,222.4,Dec-21,1366639,2019-08-17 07:43:16:006,-0.436,0.1615,9.504,-0.0421,0.0207,9.8065,0.0042,0.0163,0.0213,-8.9,28.65,0.16,252.8,1.96,-1.22
13666,50.80234,-3.437466,87,24.38,9.0,222.4,Dec-21,1366739,2019-08-17 07:43:16:106,-0.646,0.2484,10.268,-0.0173,0.0237,9.8066,-0.0235,-0.0636,0.0383,-8.9,28.65,0.26,252.8,2.0,-0.95
13667,50.80234,-3.437466,87,24.38,9.0,222.4,Dec-21,1366840,2019-08-17 07:43:16:207,-0.4763,-0.0091,10.352,-0.004,0.0146,9.8066,0.0181,-0.0241,-0.0128,-9.37,28.49,0.89,252.28,2.11,-0.81
13668,50.80234,-3.437466,87,24.38,9.0,222.4,Dec-21,1366939,2019-08-17 07:43:16:306,-0.4169,-0.2077,10.0165,0.0141,-0.0199,9.8066,-0.0139,0.0472,-0.0181,-8.9,28.65,-0.47,252.8,2.18,-0.76
13669,50.80234,-3.437466,87,24.38,9.0,222.4,Dec-21,1367039,2019-08-17 07:43:16:406,-0.1326,0.0244,10.1884,0.0108,-0.0343,9.8066,-0.0085,-0.0273,0.0064,-8.9,28.65,-0.47,252.8,2.18,-0.76
13670,50.80234,-3.437466,87,24.38,9.0,222.4,Dec-21,1367140,2019-08-17 07:43:16:507,0.2729,0.0204,8.5775,-0.0111,-0.0054,9.8066,-0.0085,-0.0273,0.0064,-8.49,28.77,0.27,254.61,2.01,-0.88
13671,50.80234,-3.437466,87,24.38,9.0,222.4,Dec-21,1367240,2019-08-17 07:43:16:607,-0.2264,-0.1847,10.0316,-0.0075,-0.0002,9.8066,-0.0043,0.0419,0.0096,-8.49,28.77,0.27,254.61,2.01,-0.88
13672,50.80234,-3.437466,87,24.38,9.0,222.4,Dec-21,1367340,2019-08-17 07:43:16:707,0.3124,0.4032,8.5022,0.0045,0.0155,9.8066,0.0064,-0.0124,0.0213,-8.9,28.65,0.26,252.79,2.0,-0.84
13673,50.80234,-3.437466,87,24.38,9.0,222.4,Dec-21,1367439,2019-08-17 07:43:16:806,-0.1914,0.2909,10.418,0.0074,0.0163,9.8066,-0.0565,-0.0273,0.0213,-8.66,28.7,1.04,252.85,2.1,-0.85
13674,50.80218,-3.437703,88,24.36,9.0,222.4,Dec-21,1367539,2019-08-17 07:43:16:906,0.159,-0.1933,10.1817,0.0485,0.0057,9.8065,0.0021,-0.0359,-0.0075,-7.73,28.97,1.01,252.85,2.1,-0.85
13675,50.80218,-3.437703,88,24.36,9.0,222.4,Dec-21,1367639,2019-08-17 07:43:17:006,0.3746,-0.0006,9.6298,0.0661,-0.0168,9.8064,0.001,-0.0092,-0.0011,-7.73,28.97,1.01,252.85,2.1,-0.85
13676,50.80218,-3.437703,88,24.36,9.0,222.4,Dec-21,1367740,2019-08-17 07:43:17:107,0.2527,0.0413,9.7604,-0.0099,-0.017,9.8066,0.0138,0.0163,-0.0064,-8.49,28.76,1.02,254.68,2.12,-1.25
13677,50.80218,-3.437703,88,24.36,9.0,222.4,Dec-21,1367839,2019-08-17 07:43:17:206,-0.052,-0.2315,10.489,-0.0108,-0.0248,9.8066,0.0138,0.0163,-0.0064,-7.13,29.12,1.01,254.68,2.12,-1.25
13678,50.80218,-3.437703,88,24.36,9.0,222.4,Dec-21,1367940,2019-08-17 07:43:17:307,-0.4217,-0.2414,10.39,-0.0074,-0.0308,9.8066,0.0042,0.0046,0.0159,-4.72,29.61,-1.09,260.53,1.93,-1.26
13679,50.80218,-3.437703,88,24.36,9.0,222.4,Dec-21,1368040,2019-08-17 07:43:17:407,-0.1919,-0.0765,9.1689,0.0106,-0.0115,9.8066,0.0181,0.0291,-0.0054,-9.42,28.12,-4.5,260.53,1.93,-1.26
13680,50.80218,-3.437703,88,24.36,9.0,222.4,Dec-21,1368140,2019-08-17 07:43:17:507,0.0577,-0.3322,10.0192,0.0247,-0.0011,9.8066,-0.0117,0.0121,-0.0032,-9.42,28.12,-4.5,260.53,1.93,-1.26
13681,50.80218,-3.437703,88,24.36,9.0,222.4,Dec-21,1368240,2019-08-17 07:43:17:607,0.512,0.1518,9.1649,0.0449,0.0249,9.8065,0.0234,0.0025,-0.0203,-10.65,28.04,0.44,248.61,2.12,-1.49
13682,50.80218,-3.437703,88,24.36,9.0,222.4,Dec-21,1368340,2019-08-17 07:43:17:707,0.3121,-0.2158,9.7319,0.016,0.0115,9.8066,0.0106,0.0227,-0.0267,-9.16,28.56,0.43,252.82,2.22,-1.55
13683,50.80218,-3.437703,88,24.36,9.0,222.4,Dec-21,1368440,2019-08-17 07:43:17:807,0.3535,-0.0057,10.3065,0.0122,-0.0113,9.8066,0.0224,0.0355,-0.0267,-9.16,28.56,0.43,252.82,2.22,-1.55
13684,50.802017,-3.437942,89,24.36,9.0,222.8,Dec-21,1368539,2019-08-17 07:43:17:906,0.1935,-0.3503,10.6694,0.0031,-0.0405,9.8066,0.0021,0.0696,-0.0043,-9.9,28.32,-0.29,250.41,2.17,-1.64
13685,50.802017,-3.437942,89,24.36,9.0,222.8,Dec-21,1368640,2019-08-17 07:43:18:007,0.0362,-0.0306,9.7686,-0.0013,-0.0537,9.8065,0.0021,0.0696,-0.0043,-9.43,28.46,1.14,250.41,2.17,-1.64
13686,50.802017,-3.437942,89,24.36,9.0,222.8,Dec-21,1368740,2019-08-17 07:43:18:107,0.2509,-0.0465,9.1251,-0.0007,0.0007,9.8067,0.0021,0.0035,0.0117,-9.24,28.54,-0.31,252.81,1.88,-1.74
13687,50.802017,-3.437942,89,24.36,9.0,222.8,Dec-21,1368840,2019-08-17 07:43:18:207,-0.3874,-0.1195,9.8325,0.0065,0.0266,9.8066,-0.0139,0.0035,0.0117,-9.34,28.51,-0.29,252.81,1.88,-1.74
13688,50.802017,-3.437942,89,24.36,9.0,222.8,Dec-21,1368940,2019-08-17 07:43:18:307,0.4006,0.2713,8.8281,0.02,0.0473,9.8065,-0.0149,0.0025,0.0106,-9.34,28.51,-0.29,252.81,1.88,-1.74
13689,50.802017,-3.437942,89,24.36,9.0,222.8,Dec-21,1369040,2019-08-17 07:43:18:407,0.21,-0.0088,10.0564,0.0096,0.0053,9.8066,0.0042,-0.006,-0.0032,-8.87,28.66,-0.29,252.82,2.18,-1.77
13690,50.802017,-3.437942,89,24.36,9.0,222.8,Dec-21,1369139,2019-08-17 07:43:18:506,0.4158,-0.1144,10.3043,0.0092,-0.012,9.8066,0.0064,0.0526,-0.0118,-9.34,28.5,0.44,252.82,2.18,-1.77
13691,50.802017,-3.437942,89,24.36,9.0,222.8,Dec-21,1369240,2019-08-17 07:43:18:607,0.056,-0.2088,10.7309,0.0147,-0.0519,9.8065,-0.0139,-0.0241,-0.0022,-9.53,28.44,0.45,250.4,1.91,-1.94
13692,50.802017,-3.437942,89,24.36,9.0,222.8,Dec-21,1369340,2019-08-17 07:43:18:707,0.4702,0.1622,9.2052,0.0082,-0.0277,9.8066,0.0138,-0.0092,-0.0022,-9.53,28.44,0.45,250.4,1.91,-1.94
13693,50.802017,-3.437942,89,24.36,9.0,222.8,Dec-21,1369439,2019-08-17 07:43:18:806,0.5022,-0.1261,9.2929,0.0168,-0.0126,9.8066,0.0138,-0.0092,-0.0022,-8.85,28.61,1.8,252.9,1.88,-2.05
13694,50.80187,-3.43819,89,24.33,9.0,223.1,Dec-21,1369539,2019-08-17 07:43:18:906,0.2632,0.2167,8.8595,0.0132,0.0214,9.8066,-0.0022,-0.005,0.0149,-8.11,28.83,1.67,254.74,2.02,-2.09
13695,50.80187,-3.43819,89,24.33,9.0,223.1,Dec-21,1369639,2019-08-17 07:43:19:006,-0.1646,0.2199,9.7751,-0.0471,0.0324,9.8065,0.0138,0.0025,0.0053,-8.86,28.64,1.17,254.74,2.02,-2.09
13696,50.80187,-3.43819,89,24.33,9.0,223.1,Dec-21,1369740,2019-08-17 07:43:19:107,-0.3728,0.0554,10.4612,-0.0144,0.0103,9.8066,0.0053,0.0344,0.0096,-8.28,28.81,1.18,254.69,2.13,-1.78
13697,50.80187,-3.43819,89,24.33,9.0,223.1,Dec-21,1369839,2019-08-17 07:43:19:206,-0.2048,0.3823,8.5777,-0.0087,0.0043,9.8066,-0.0544,0.0387,-0.0064,-8.28,28.81,1.18,254.69,2.13,-1.78
13698,50.80187,-3.43819,89,24.33,9.0,223.1,Dec-21,1369940,2019-08-17 07:43:19:307,-0.4036,-0.0942,10.5698,0.0169,-0.0145,9.8066,-0.0245,0.0259,0.0074,-8.29,28.83,0.44,254.64,2.14,-1.72
13699,50.80187,-3.43819,89,24.33,9.0,223.1,Dec-21,1370039,2019-08-17 07:43:19:406,-0.1017,0.0951,9.3758,0.0257,-0.0281,9.8066,-0.0245,0.0259,0.0074,-9.04,28.55,1.73,254.64,2.14,-1.72
13700,50.80187,-3.43819,89,24.33,9.0,223.1,Dec-21,1370140,2019-08-17 07:43:19:507,0.0549,0.2997,9.5962,0.0165,-0.0334,9.8066,0.0277,0.0302,0.0042,-8.28,28.81,1.07,254.69,1.98,-1.86
13701,50.80187,-3.43819,89,24.33,9.0,223.1,Dec-21,1370240,2019-08-17 07:43:19:607,-0.4984,0.0685,10.8482,-0.0243,0.0021,9.8066,-0.0022,0.0494,0.0202,-9.05,28.59,0.98,254.69,1.98,-1.86
13702,50.80187,-3.43819,89,24.33,9.0,223.1,Dec-21,1370340,2019-08-17 07:43:19:707,-0.1751,-0.1673,9.5853,-0.0403,0.0171,9.8066,0.0245,-0.0295,-0.0032,-9.05,28.59,0.98,254.69,1.98,-1.86
13703,50.80187,-3.43819,89,24.33,9.0,223.1,Dec-21,1370439,2019-08-17 07:43:19:806,-0.4733,0.2432,10.4358,-0.01,-0.0036,9.8066,0.0319,-0.0135,0.0042,-9.04,28.55,1.73,252.91,2.01,-1.61
13704,50.80187,-3.43819,89,24.33,9.0,223.1,Dec-21,1370540,2019-08-17 07:43:19:907,-0.1241,0.2268,8.9871,-0.0035,0.0141,9.8066,-0.0032,-0.0082,0.0074,-9.24,28.54,0.24,252.81,1.99,-1.5
13705,50.80171,-3.438417,89,24.3,9.0,223.0,Oct-20,1370639,2019-08-17 07:43:20:006,-0.288,-0.076,9.3528,-0.0006,0.0327,9.8066,-0.0075,-0.0582,0.0021,-8.31,28.81,0.87,254.69,2.17,-1.44
13706,50.80171,-3.438417,89,24.3,9.0,223.0,Oct-20,1370740,2019-08-17 07:43:20:107,-0.1865,0.0929,9.9757,-0.0063,0.0112,9.8066,0.0138,-0.005,0.0117,-8.31,28.81,0.87,254.69,2.17,-1.44
13707,50.80171,-3.438417,89,24.3,9.0,223.0,Oct-20,1370840,2019-08-17 07:43:20:207,-0.0188,0.0287,10.0768,-0.013,0.007,9.8066,0.0213,0.0185,0.0085,-8.31,28.79,1.5,254.69,2.22,-1.39
13708,50.80171,-3.438417,89,24.3,9.0,223.0,Oct-20,1370939,2019-08-17 07:43:20:306,-0.4304,-0.0471,10.5172,-0.0384,-0.0007,9.8066,0.0213,0.0185,0.0085,-7.72,28.95,1.51,254.74,2.16,-1.17
13709,50.80171,-3.438417,89,24.3,9.0,223.0,Oct-20,1371039,2019-08-17 07:43:20:406,-0.2006,0.3367,9.2025,-0.0283,-0.0248,9.8066,-0.0256,0.0749,0.0436,-8.7,28.63,2.18,254.74,2.16,-1.17
13710,50.80171,-3.438417,89,24.3,9.0,223.0,Oct-20,1371140,2019-08-17 07:43:20:507,-0.4416,-0.209,11.0915,-0.0578,-0.0406,9.8064,-0.0043,0.0494,0.0213,-8.7,28.63,2.18,254.74,2.16,-1.17
13711,50.80171,-3.438417,89,24.3,9.0,223.0,Oct-20,1371239,2019-08-17 07:43:20:606,-0.3033,0.1189,9.3814,-0.0144,-0.0087,9.8066,0.0106,0.0217,0.0042,-9.46,28.43,1.48,252.26,1.84,-0.91
13712,50.80171,-3.438417,89,24.3,9.0,223.0,Oct-20,1371339,2019-08-17 07:43:20:706,-0.1066,0.1587,9.2253,-0.0059,0.0227,9.8066,0.0053,-0.0007,-0.0054,-9.47,28.46,0.75,252.26,1.82,-0.78
13713,50.80171,-3.438417,89,24.3,9.0,223.0,Oct-20,1371439,2019-08-17 07:43:20:806,-0.2193,0.3996,9.663,-0.0142,0.0527,9.8065,-0.0213,-0.0092,0.0277,-9.47,28.46,0.75,252.26,1.82,-0.78
13714,50.80171,-3.438417,89,24.3,9.0,223.0,Oct-20,1371539,2019-08-17 07:43:20:906,-0.6197,0.0505,10.748,-0.0077,0.0225,9.8066,0.0266,0.0057,-0.0054,-8.15,28.86,0.64,254.67,2.09,-0.61
13715,50.80155,-3.438665,87,24.27,9.0,223.1,Oct-21,1371640,2019-08-17 07:43:21:007,-0.307,0.4113,9.5136,-0.0171,0.0195,9.8066,0.0266,0.0057,-0.0054,-8.9,28.64,0.65,252.85,2.17,-0.48
13716,50.80155,-3.438665,87,24.27,9.0,223.1,Oct-21,1371741,2019-08-17 07:43:21:108,-0.2047,0.086,10.5036,-0.0245,-0.0276,9.8066,-0.0022,0.0227,0.0085,-9.28,28.5,1.25,252.85,2.17,-0.48
13717,50.80155,-3.438665,87,24.27,9.0,223.1,Oct-21,1371839,2019-08-17 07:43:21:206,-0.166,0.151,9.8351,-0.0402,-0.0462,9.8065,-0.0149,-0.0327,0.0117,-9.07,28.57,1.2,252.83,1.84,-0.34
13718,50.80155,-3.438665,87,24.27,9.0,223.1,Oct-21,1371940,2019-08-17 07:43:21:307,0.0711,0.0073,9.1574,-0.0125,-0.0261,9.8066,0.0042,0.0643,0.0191,-9.07,28.57,1.2,252.83,1.84,-0.34
13719,50.80155,-3.438665,87,24.27,9.0,223.1,Oct-21,1372039,2019-08-17 07:43:21:406,-0.3965,-0.1339,10.1386,-0.0304,-0.0273,9.8066,0.0106,-0.0284,0.0234,-9.46,28.44,1.27,252.24,1.64,-0.21
13720,50.80155,-3.438665,87,24.27,9.0,223.1,Oct-21,1372139,2019-08-17 07:43:21:506,-0.2958,0.053,9.7909,-0.0098,0.0265,9.8066,0.0,-0.0582,0.0245,-9.45,28.41,1.9,252.24,1.64,-0.21
13721,50.80155,-3.438665,87,24.27,9.0,223.1,Oct-21,1372239,2019-08-17 07:43:21:606,-0.3297,0.1376,9.982,-0.0117,0.0298,9.8066,0.0202,0.0334,0.0117,-8.17,28.84,1.16,254.65,1.87,-0.06
13722,50.80155,-3.438665,87,24.27,9.0,223.1,Oct-21,1372340,2019-08-17 07:43:21:707,-0.2093,0.3364,9.5047,-0.0153,0.0394,9.8066,0.001,-0.0231,0.0095,-8.17,28.84,1.16,254.65,1.87,-0.06
13723,50.80155,-3.438665,87,24.27,9.0,223.1,Oct-21,1372440,2019-08-17 07:43:21:807,-0.3581,0.1358,10.5302,-0.0116,-0.0187,9.8066,0.001,-0.0231,0.0095,-8.3,28.77,1.82,254.72,2.07,0.09
13724,50.801388,-3.4389,86,24.27,9.0,222.4,Oct-21,1372539,2019-08-17 07:43:21:906,-0.1446,0.2003,10.2053,-0.0251,-0.0323,9.8066,-0.0149,-0.0092,0.0106,-9.06,28.54,1.84,254.72,2.07,0.09
13725,50.801388,-3.4389,86,24.27,9.0,222.4,Oct-21,1372639,2019-08-17 07:43:22:006,-0.2701,0.0818,10.2533,-0.0381,-0.0238,9.8065,0.0266,0.0185,0.0277,-9.47,28.46,0.44,252.18,1.85,0.18
13726,50.801388,-3.4389,86,24.27,9.0,222.4,Oct-21,1372740,2019-08-17 07:43:22:107,-0.612,-0.1097,10.5873,-0.0842,-0.0452,9.8062,0.0319,0.0589,0.0191,-9.86,28.31,1.04,252.18,1.85,0.18
13727,50.801388,-3.4389,86,24.27,9.0,222.4,Oct-21,1372839,2019-08-17 07:43:22:206,-0.2339,0.1858,9.4323,-0.1231,-0.048,9.8058,-0.0032,0.0004,0.0309,-9.86,28.31,1.04,252.18,1.85,0.18
13728,50.801388,-3.4389,86,24.27,9.0,222.4,Oct-21,1372939,2019-08-17 07:43:22:306,-0.1391,0.252,9.3668,-0.0133,0.0292,9.8066,-0.0192,-0.0891,0.0159,-9.87,28.33,0.22,250.33,1.36,0.78
13729,50.801388,-3.4389,86,24.27,9.0,222.4,Oct-21,1373039,2019-08-17 07:43:22:406,-0.3489,0.067,9.6815,0.0113,0.0424,9.8066,0.0106,-0.0188,0.0,-9.87,28.33,0.22,250.33,1.49,0.91
13730,50.801388,-3.4389,86,24.27,9.0,222.4,Oct-21,1373140,2019-08-17 07:43:22:507,-0.1625,0.2633,9.2728,0.0174,0.0656,9.8064,-0.0331,0.0206,0.0127,-8.93,28.64,0.13,252.74,1.89,0.94
13731,50.801388,-3.4389,86,24.27,9.0,222.4,Oct-21,1373240,2019-08-17 07:43:22:607,-0.1961,0.1046,10.2356,0.007,-0.0087,9.8066,-0.0331,0.0206,0.0127,-8.93,28.64,0.13,252.74,1.89,0.94
13732,50.801388,-3.4389,86,24.27,9.0,222.4,Oct-21,1373340,2019-08-17 07:43:22:707,-0.1803,-0.161,10.2161,-0.0124,-0.026,9.8066,0.0085,-0.0018,0.0191,-9.69,28.39,0.13,250.33,1.85,0.89
13733,50.801388,-3.4389,86,24.27,9.0,222.4,Oct-21,1373439,2019-08-17 07:43:22:806,-0.1739,0.2803,8.5011,-0.0129,-0.0311,9.8066,0.0106,0.0206,0.0149,-9.69,28.39,0.13,250.33,1.69,0.9
13734,50.801224,-3.439139,86,24.29,9.0,221.7,Oct-21,1373539,2019-08-17 07:43:22:906,-0.6166,-0.319,11.0581,-0.0286,-0.0633,9.8064,0.0053,0.0494,0.0372,-10.26,28.19,0.13,250.33,1.69,0.9
13735,50.801224,-3.439139,86,24.29,9.0,221.7,Oct-21,1373640,2019-08-17 07:43:23:007,-0.2805,-0.1056,9.2508,-0.0302,-0.0616,9.8064,-0.0117,-0.0774,0.0149,-10.26,28.19,0.13,250.33,1.69,0.9
13736,50.801224,-3.439139,86,24.29,9.0,221.7,Oct-21,1373740,2019-08-17 07:43:23:107,-0.0513,0.1894,9.8731,0.0184,0.0106,9.8066,0.0021,-0.0156,0.0032,-10.82,27.98,-0.61,248.48,1.29,0.95
13737,50.801224,-3.439139,86,24.29,9.0,221.7,Oct-21,1373839,2019-08-17 07:43:23:206,0.0445,0.1847,9.2887,0.0368,0.0238,9.8066,-0.0203,-0.0273,0.0309,-10.06,28.26,-0.6,250.28,1.5,0.8
13738,50.801224,-3.439139,86,24.29,9.0,221.7,Oct-21,1373939,2019-08-17 07:43:23:306,-0.2366,-0.3066,10.4122,0.0126,0.0171,9.8066,-0.0096,-0.0305,0.0341,-10.47,28.1,0.89,250.28,1.5,0.8
13739,50.801224,-3.439139,86,24.29,9.0,221.7,Oct-21,1374040,2019-08-17 07:43:23:407,0.4278,0.1467,8.2091,0.0118,0.0169,9.8066,0.0053,-0.0582,0.0245,-9.89,28.32,-0.63,250.27,1.61,0.77
13740,50.801224,-3.439139,86,24.29,9.0,221.7,Oct-21,1374139,2019-08-17 07:43:23:506,0.2966,0.287,8.803,-0.0011,-0.0085,9.8066,0.0053,-0.0582,0.0245,-9.89,28.32,-0.63,250.27,1.61,0.77
13741,50.801224,-3.439139,86,24.29,9.0,221.7,Oct-21,1374239,2019-08-17 07:43:23:606,-0.477,-0.045,10.3115,0.0041,-0.0097,9.8066,0.0287,-0.0028,-0.0086,-10.26,28.19,0.13,250.33,1.56,0.76
13742,50.801224,-3.439139,86,24.29,9.0,221.7,Oct-21,1374339,2019-08-17 07:43:23:706,-0.4531,-0.0494,9.5689,-0.0016,-0.0424,9.8066,-0.0309,0.0291,0.0341,-10.26,28.18,0.76,250.33,1.56,0.76
13743,50.801224,-3.439139,86,24.29,9.0,221.7,Oct-21,1374440,2019-08-17 07:43:23:807,0.1443,-0.0945,9.7137,-0.0025,-0.0204,9.8066,-0.0107,-0.0018,0.0064,-10.82,27.98,0.13,248.54,1.33,0.68
13744,50.801056,-3.439369,86,24.28,9.0,221.0,Oct-21,1374539,2019-08-17 07:43:23:906,-0.048,-0.2456,10.6221,-0.0031,-0.0232,9.8066,0.0351,0.0877,0.0127,-10.82,27.98,0.13,248.54,1.33,0.68
13745,50.801056,-3.439369,86,24.28,9.0,221.0,Oct-21,1374640,2019-08-17 07:43:24:007,0.3027,-0.0169,8.812,-0.0149,0.0033,9.8066,0.0096,-0.0273,0.0277,-11.03,27.9,0.13,248.54,1.19,0.65
13746,50.801056,-3.439369,86,24.28,9.0,221.0,Oct-21,1374739,2019-08-17 07:43:24:106,0.1182,-0.1869,9.8715,-0.0272,0.0118,9.8066,-0.0139,-0.0071,0.0181,-10.81,27.97,0.76,248.59,1.2,0.82
13747,50.801056,-3.439369,86,24.28,9.0,221.0,Oct-21,1374840,2019-08-17 07:43:24:207,0.0676,0.2427,10.0734,0.0061,0.0154,9.8066,-0.0054,0.0366,0.0245,-10.81,27.97,0.76,248.59,1.3,0.82
13748,50.801056,-3.439369,86,24.28,9.0,221.0,Oct-21,1374940,2019-08-17 07:43:24:307,0.699,-0.0136,9.8871,0.0146,0.0222,9.8066,0.0117,0.0238,0.0277,-10.81,27.97,0.76,248.59,1.3,0.82
13749,50.801056,-3.439369,86,24.28,9.0,221.0,Oct-21,1375040,2019-08-17 07:43:24:407,0.22,-0.3589,11.1494,0.013,-0.0172,9.8066,0.0117,0.0238,0.0277,-10.26,28.18,0.87,250.39,1.59,0.69
13750,50.801056,-3.439369,86,24.28,9.0,221.0,Oct-21,1375139,2019-08-17 07:43:24:506,0.5648,-0.2635,9.57,-0.0025,-0.0206,9.8066,-0.016,-0.0007,0.0287,-9.89,28.32,-0.63,250.28,1.52,0.59
13751,50.801056,-3.439369,86,24.28,9.0,221.0,Oct-21,1375240,2019-08-17 07:43:24:607,0.4558,-0.1686,9.6447,-0.0222,-0.0275,9.8066,0.0447,0.0174,0.0202,-10.47,28.11,0.13,250.28,1.52,0.59
13752,50.801056,-3.439369,86,24.28,9.0,221.0,Oct-21,1375339,2019-08-17 07:43:24:706,0.1933,-0.0959,8.6515,-0.0455,-0.0281,9.8065,0.0479,-0.0114,0.0053,-10.47,28.11,0.13,250.28,1.52,0.59
13753,50.801056,-3.439369,86,24.28,9.0,221.0,Oct-21,1375439,2019-08-17 07:43:24:806,0.1292,0.008,9.7784,-0.0183,-0.0204,9.8066,-0.0064,0.0515,0.0266,-10.61,28.06,0.12,248.54,1.27,0.78
13754,50.800888,-3.439581,86,24.37,9.0,219.7,Oct-21,1375539,2019-08-17 07:43:24:906,0.3307,0.1187,9.9795,-0.0195,-0.0162,9.8066,0.0042,-0.0721,0.0277,-10.26,28.18,0.87,250.38,1.14,0.85
13755,50.800888,-3.439581,86,24.37,9.0,219.7,Aug-21,1375640,2019-08-17 07:43:25:007,0.2972,0.0346,9.9857,0.0184,0.0424,9.8065,0.0234,-0.0284,0.001,-11.03,27.88,0.88,250.38,1.14,0.85
13756,50.800888,-3.439581,86,24.37,9.0,219.7,Aug-21,1375739,2019-08-17 07:43:25:106,0.7431,0.3464,9.9581,0.0339,0.0764,9.8063,0.0234,-0.0284,0.001,-11.03,27.88,0.88,250.38,1.14,0.85
13757,50.800888,-3.439581,86,24.37,9.0,219.7,Aug-21,1375840,2019-08-17 07:43:25:207,0.7029,0.0959,9.2662,0.0306,0.0763,9.8063,-0.0085,0.0462,0.0479,-10.26,28.18,0.87,250.39,1.62,0.83
13758,50.800888,-3.439581,86,24.37,9.0,219.7,Aug-21,1375939,2019-08-17 07:43:25:306,0.4168,0.0118,9.0549,-0.0098,-0.0039,9.8066,-0.0043,0.0366,0.0085,-10.99,27.9,0.98,248.6,1.58,0.88
13759,50.800888,-3.439581,86,24.37,9.0,219.7,Aug-21,1376039,2019-08-17 07:43:25:406,0.2174,-0.0712,10.571,0.0076,-0.0033,9.8066,0.0351,0.0664,0.0,-10.99,27.9,0.98,248.6,1.58,0.88
13760,50.800888,-3.439581,86,24.37,9.0,219.7,Aug-21,1376140,2019-08-17 07:43:25:507,0.579,0.0633,8.1376,-0.0197,-0.0009,9.8066,0.0596,0.0462,0.0074,-11.0,27.91,0.24,248.54,1.58,0.83
13761,50.800888,-3.439581,86,24.37,9.0,219.7,Aug-21,1376240,2019-08-17 07:43:25:607,0.1454,-0.2376,10.9415,-0.0347,0.0063,9.8066,-0.0054,0.044,0.0191,-10.51,28.08,1.05,248.59,1.54,1.03
13762,50.800888,-3.439581,86,24.37,9.0,219.7,Aug-21,1376339,2019-08-17 07:43:25:706,0.253,0.1662,8.7621,-0.0067,-0.0038,9.8066,0.001,0.027,-0.0011,-10.51,28.08,1.05,248.59,1.54,1.03
13763,50.800888,-3.439581,86,24.37,9.0,219.7,Aug-21,1376440,2019-08-17 07:43:25:807,0.4297,0.21,9.8856,0.0074,-0.0045,9.8066,-0.0384,0.0121,0.0085,-10.22,28.18,1.08,250.38,1.51,1.06
13764,50.800888,-3.439581,86,24.37,9.0,219.7,Aug-21,1376540,2019-08-17 07:43:25:907,-0.1394,0.0143,9.6287,0.0163,-0.0135,9.8066,-0.0384,0.0121,0.0085,-10.98,27.86,1.73,248.65,1.5,1.01
13765,50.800713,-3.439797,86,24.39,9.0,219.2,Aug-21,1376639,2019-08-17 07:43:26:006,0.2219,-0.1362,8.9688,0.0307,-0.0336,9.8065,-0.0213,0.0121,0.0159,-10.98,27.86,1.73,248.65,1.5,1.01
13766,50.800713,-3.439797,86,24.39,9.0,219.2,Aug-21,1376740,2019-08-17 07:43:26:107,0.1402,0.3455,9.194,0.0129,0.0147,9.8066,0.0383,-0.0039,0.0213,-10.9,27.95,0.34,248.54,1.38,0.77
