,GPS LATITUDE (degrees), GPS LONGITUDE (degrees), GPS ALTITUDE (m), GPS SPEED (Kmh), GPS ACCURACY (m), GPS ORIENTATION (Â°),GPS SATELLITES IN RANGE, TIME SINCE START (ms), DATE (YYYY-MO-DD HH-MI-SS_SSS), ACCELEROMETER X (m/s²) , ACCELEROMETER Y (m/s²), ACCELEROMETER Z (m/s²), GRAVITY X (m/s²), GRAVITY Y (m/s²), GRAVITY Z (m/s²), GYROSCOPE Yaw (rad/s), GYROSCOPE Pitch (rad/s), GYROSCOPE Roll (rad/s), MAGNETIC FIELD X (Î¼T), MAGNETIC FIELD Y (Î¼T), MAGNETIC FIELD Z (Î¼T), ORIENTATION (Yaw) (Â°), ORIENTATION (Pitch) (Â°), ORIENTATION (Roll ) (Â°)
32715,52.402897,-1.513357,139.23,18.22,4,272.28,May-22,3747908,2019-09-04 21:09:00:021,1.514,1.1973,10.1221,0.0031,-0.0034,9.8066,-0.0048,-0.1016,-0.0157,11.13,-24.06,-6.87,354.23,-89.45,51.86
32716,52.402897,-1.513357,139.23,18.22,4,272.28,May-22,3748008,2019-09-04 21:09:00:121,1.7339,1.3371,10.6935,-0.0097,0.0002,9.8066,0.0432,-0.0963,-0.0301,10.81,-23.44,-7.81,3.27,-89.43,57.19
32717,52.402897,-1.513357,139.23,18.22,4,272.28,May-22,3748107,2019-09-04 21:09:00:220,1.2795,0.8053,10.2731,-0.0238,-0.0029,9.8066,0.0205,-0.0928,-0.0242,10.56,-22.19,-7.5,28.82,-89.34,85.82
32718,52.402897,-1.513357,139.23,18.22,4,272.28,May-22,3748208,2019-09-04 21:09:00:321,1.7182,1.9401,9.7378,0.0032,0.0061,9.8066,-0.0137,-0.1032,-0.0111,10.0,-23.0,-6.62,45.17,-89.28,99.21
32719,52.402897,-1.513357,139.23,18.22,4,272.28,May-22,3748307,2019-09-04 21:09:00:420,2.3595,0.7195,8.6413,0.0116,0.0005,9.8066,0.0054,-0.1266,0.0111,9.75,-22.56,-5.69,34.55,-89.22,92.71
32720,52.402897,-1.513357,139.23,18.22,4,272.28,May-17,3748408,2019-09-04 21:09:00:521,1.2868,1.4941,10.0104,-0.004,-0.0022,9.8066,0.0145,-0.0995,-0.011,10.56,-23.81,-4.44,21.83,-89.28,91.29
32721,52.402897,-1.513357,139.23,18.22,4,272.28,May-17,3748508,2019-09-04 21:09:00:621,0.6912,1.7192,9.9476,-0.0307,-0.0179,9.8065,0.0685,-0.0999,-0.0493,10.69,-24.12,-3.5,33.37,-88.98,106.93
32722,52.402897,-1.513357,139.23,18.22,4,272.28,May-17,3748607,2019-09-04 21:09:00:720,0.7728,1.9038,9.753,-0.0083,0.0031,9.8066,-0.0054,-0.1007,0.0121,10.94,-23.81,-2.5,36.74,-88.84,114.93
32723,52.402897,-1.513357,139.23,18.22,4,272.28,May-17,3748707,2019-09-04 21:09:00:820,1.0647,0.4747,9.7267,0.0151,-0.0003,9.8066,-0.0347,-0.1233,0.0414,11.0,-24.44,-2.37,30.27,-88.92,108.8
32724,52.402897,-1.513357,139.23,18.22,4,272.28,May-17,3748808,2019-09-04 21:09:00:921,1.1939,2.3873,10.0576,0.009,0.01,9.8066,0.0202,-0.1134,0.0211,10.69,-27.19,-3.12,26.55,-89.17,100.41
32725,52.402897,-1.513357,139.23,18.22,4,272.28,May-17,3748908,2019-09-04 21:09:01:021,0.6005,0.4053,10.6948,-0.0228,-0.0001,9.8066,0.0589,-0.0938,0.0225,11.06,-29.06,-3.19,38.92,-89.16,112.31
32726,52.402897,-1.513357,139.23,18.22,4,272.28,May-17,3749008,2019-09-04 21:09:01:121,0.8243,2.806,8.9077,-0.012,0.0059,9.8066,0.0401,-0.107,-0.0354,10.81,-30.12,-5.0,67.73,-89.01,131.0
32727,52.402897,-1.513357,139.23,18.22,4,272.28,May-17,3749107,2019-09-04 21:09:01:220,0.7915,0.2645,9.0335,0.0092,-0.0023,9.8066,-0.0318,-0.1191,0.0352,11.25,-29.69,-7.69,79.93,-88.93,131.58
32728,52.402897,-1.513357,139.23,18.22,4,272.28,May-17,3749207,2019-09-04 21:09:01:320,1.0781,0.1239,9.7689,0.0208,-0.0049,9.8066,-0.0576,-0.1037,0.0206,10.75,-28.69,-8.25,75.83,-89.17,128.09
32729,52.402897,-1.513357,139.23,18.22,4,272.28,May-17,3749308,2019-09-04 21:09:01:421,2.6602,1.9293,10.7326,-0.0062,0.0054,9.8066,0.0344,-0.1017,-0.0191,10.69,-28.25,-8.37,76.16,-89.39,128.92
32730,52.402897,-1.513357,139.23,18.22,4,272.28,Nov-16,3749407,2019-09-04 21:09:01:520,1.9757,2.2845,9.6876,-0.013,0.0113,9.8065,0.0343,-0.0863,0.0,11.06,-28.5,-7.37,85.03,-89.2,140.84
32731,52.402897,-1.513357,139.23,18.22,4,272.28,Nov-16,3749508,2019-09-04 21:09:01:621,0.4398,0.7145,10.8343,-0.0233,-0.0093,9.8066,0.0374,-0.1118,-0.0236,11.38,-28.12,-7.37,85.79,-88.98,141.14
32732,52.402897,-1.513357,139.23,18.22,4,272.28,Nov-16,3749607,2019-09-04 21:09:01:720,1.0718,1.1296,10.4102,-0.0156,0.0022,9.8066,0.0314,-0.1103,-0.0317,11.13,-28.5,-7.06,86.75,-88.67,141.42
32733,52.402897,-1.513357,139.23,18.22,4,272.28,Nov-16,3749708,2019-09-04 21:09:01:821,1.1444,1.0972,9.0918,0.007,0.0062,9.8066,-0.0207,-0.1005,0.0158,11.81,-28.75,-7.06,85.46,-88.64,142.37
32734,52.402897,-1.513357,139.23,18.22,4,272.28,Nov-16,3749808,2019-09-04 21:09:01:921,0.4001,1.1633,9.2724,0.0172,-0.0004,9.8066,-0.0304,-0.1111,0.0191,12.31,-29.12,-7.87,88.49,-88.81,142.4
32735,52.402897,-1.513357,139.23,18.22,4,272.28,Nov-16,3749908,2019-09-04 21:09:02:021,1.0051,1.0838,10.1786,0.0041,0.0041,9.8066,0.0049,-0.0825,0.0144,12.06,-29.37,-7.81,90.01,-88.98,144.27
32736,52.402897,-1.513357,139.23,18.22,4,272.28,Nov-16,3750008,2019-09-04 21:09:02:121,0.7446,1.1765,9.6796,-0.0214,0.0007,9.8066,0.0847,-0.1124,-0.0234,11.94,-29.75,-7.87,93.4,-88.88,147.38
32737,52.402897,-1.513357,139.23,18.22,4,272.28,Nov-16,3750108,2019-09-04 21:09:02:221,-0.6962,0.0636,10.6469,-0.0303,0.0044,9.8065,0.0688,-0.0848,-0.0185,12.25,-29.81,-8.19,101.8,-88.59,155.24
32738,52.402897,-1.513357,139.23,18.22,4,272.28,Nov-16,3750207,2019-09-04 21:09:02:320,1.08,1.2597,9.9569,0.0018,0.0127,9.8066,-0.0084,-0.1065,-0.0032,12.31,-29.69,-8.0,106.48,-88.28,159.35
32739,52.402897,-1.513357,139.23,18.22,4,272.28,16 / 19,3750307,2019-09-04 21:09:02:420,1.9686,2.1497,9.6572,0.0146,0.0032,9.8066,-0.0325,-0.0812,0.014,11.31,-29.75,-8.81,108.06,-88.51,155.78
32740,52.402897,-1.513357,139.23,18.22,4,272.28,16 / 19,3750408,2019-09-04 21:09:02:521,1.4752,0.7737,9.4321,0.0093,-0.0051,9.8066,-0.0038,-0.0927,-0.0079,10.63,-28.94,-9.19,107.41,-88.65,155.5
32741,52.402897,-1.513357,139.23,18.22,4,272.28,16 / 19,3750507,2019-09-04 21:09:02:620,1.2237,0.43,10.2545,-0.0107,-0.0059,9.8066,0.0041,-0.0637,-0.0286,9.56,-28.31,-9.75,110.59,-88.59,152.99
32742,52.402897,-1.513357,139.23,18.22,4,272.28,16 / 19,3750607,2019-09-04 21:09:02:720,1.4682,0.7458,9.3087,-0.0056,-0.0015,9.8066,0.014,-0.0887,-0.0313,9.13,-27.31,-9.19,108.41,-88.47,150.34
32743,52.402897,-1.513357,139.23,18.22,4,272.28,16 / 19,3750708,2019-09-04 21:09:02:821,1.2795,0.4265,10.2314,-0.0008,-0.0098,9.8066,-0.0228,-0.0585,-0.0218,8.94,-26.19,-8.25,102.77,-88.39,147.75
32744,52.402897,-1.513357,139.23,18.22,4,272.28,16 / 19,3750807,2019-09-04 21:09:02:920,1.2174,0.1763,9.013,-0.0031,-0.0085,9.8066,-0.0177,-0.0753,-0.0346,9.31,-25.75,-8.44,97.69,-88.39,142.6
32745,52.402897,-1.513357,139.23,18.22,4,272.28,16 / 19,3750907,2019-09-04 21:09:03:020,1.5495,0.5178,9.5183,0.0095,-0.0181,9.8066,-0.0492,-0.0703,-0.0139,9.56,-25.19,-8.44,84.36,-88.44,132.66
32746,52.402897,-1.513357,139.23,18.22,4,272.28,16 / 19,3751008,2019-09-04 21:09:03:121,1.8095,0.0791,10.823,0.0035,0.0073,9.8066,0.0639,-0.0758,-0.0026,10.25,-26.06,-8.87,87.24,-88.51,132.37
32747,52.402897,-1.513357,139.23,18.22,4,272.28,16 / 19,3751108,2019-09-04 21:09:03:221,1.0874,0.1639,12.1002,-0.0403,0.0373,9.8064,0.1459,-0.078,0.0091,10.56,-27.06,-9.25,92.78,-88.28,140.22
32748,52.402897,-1.513357,139.23,18.22,4,272.28,16 / 19,3751208,2019-09-04 21:09:03:321,0.3065,1.3821,9.599,-0.0311,0.043,9.8065,0.0363,-0.0808,-0.0032,11.38,-29.87,-8.31,108.66,-87.46,157.33
32749,52.402897,-1.513357,139.23,18.22,4,272.28,16 / 19,3751308,2019-09-04 21:09:03:421,1.0286,1.5069,8.2912,0.0372,-0.0083,9.8066,-0.101,-0.08,0.0446,11.25,-29.5,-7.94,109.87,-87.45,158.73
32750,52.402897,-1.513357,139.23,18.22,4,272.28,21 / 21,3751407,2019-09-04 21:09:03:520,1.3134,0.2809,7.8149,0.0406,-0.0422,9.8064,-0.1503,-0.054,0.0009,10.88,-28.5,-9.06,106.36,-88.25,153.77
32751,52.402897,-1.513357,139.23,18.22,4,272.28,21 / 21,3751508,2019-09-04 21:09:03:621,1.0199,-1.028,9.69,0.0049,-0.0158,9.8065,-0.0194,-0.0443,-0.0221,10.38,-28.69,-9.37,93.81,-88.77,139.16
32752,52.402897,-1.513357,139.23,18.22,4,272.28,21 / 21,3751607,2019-09-04 21:09:03:720,1.5004,-0.0707,10.3297,-0.0255,0.0189,9.8066,0.0996,-0.0588,-0.0321,9.44,-29.44,-8.5,96.67,-88.58,141.63
32753,52.402897,-1.513357,139.23,18.22,4,272.28,21 / 21,3751711,2019-09-04 21:09:03:824,0.9457,2.8015,9.8328,0.0145,0.0568,9.8064,0.0647,-0.0802,0.1066,10.06,-29.69,-8.19,104.28,-88.23,151.6
32754,52.402897,-1.513357,139.23,18.22,4,272.28,21 / 21,3751808,2019-09-04 21:09:03:921,-0.5002,0.7052,8.6874,-0.004,-0.0071,9.8066,0.0358,-0.05,0.073,10.38,-29.94,-8.19,114.48,-88.02,161.6
32755,52.402897,-1.513357,139.23,18.22,4,272.28,21 / 21,3751908,2019-09-04 21:09:04:021,1.3598,0.2983,9.3075,0.0032,-0.0176,9.8066,-0.0236,-0.0286,-0.0223,11.31,-30.5,-8.44,107.43,-88.23,157.68
32756,52.402897,-1.513357,139.23,18.22,4,272.28,21 / 21,3752007,2019-09-04 21:09:04:120,0.8843,-0.5605,9.875,-0.0061,-0.0204,9.8066,-0.0032,-0.0404,-0.0542,11.69,-30.19,-9.12,97.52,-88.28,147.24
32757,52.402897,-1.513357,139.23,18.22,4,272.28,21 / 21,3752109,2019-09-04 21:09:04:222,0.9026,0.0448,9.0548,-0.0129,-0.0024,9.8066,0.0205,-0.0332,-0.0311,12.0,-30.5,-9.25,93.88,-88.22,143.45
32758,52.402897,-1.513357,139.23,18.22,4,272.28,21 / 21,3752207,2019-09-04 21:09:04:320,0.9612,0.0169,9.036,-0.012,-0.0029,9.8066,0.0131,-0.0311,-0.0263,12.31,-30.37,-9.44,93.44,-88.15,142.87
32759,52.402897,-1.513357,139.23,18.22,4,272.28,21 / 21,3752308,2019-09-04 21:09:04:421,0.7379,-0.1374,9.4353,-0.0031,-0.0052,9.8066,-0.0193,-0.0548,-0.0037,12.63,-30.12,-10.25,98.41,-87.95,147.14
32760,52.403473,-1.515426,139.78,17.85,12,316.97,20 / 20,3752408,2019-09-04 21:09:04:521,1.068,-0.5032,9.9401,0.0138,-0.0068,9.8066,-0.0221,-0.0496,-0.0087,12.0,-30.31,-9.62,98.09,-88.09,144.64
32761,52.403473,-1.515426,139.78,17.85,12,316.97,20 / 20,3752507,2019-09-04 21:09:04:620,0.6482,-0.2662,10.2317,-0.0024,-0.0033,9.8066,0.0032,-0.0384,-0.0095,11.63,-30.06,-9.37,94.45,-88.13,143.84
32762,52.403473,-1.515426,139.78,17.85,12,316.97,20 / 20,3752608,2019-09-04 21:09:04:721,1.3113,0.0812,9.6332,-0.0047,-0.0015,9.8066,-0.0005,-0.0415,-0.0067,12.63,-31.62,-9.5,91.21,-88.06,142.59
32763,52.403473,-1.515426,139.78,17.85,12,316.97,20 / 20,3752708,2019-09-04 21:09:04:821,1.1784,-0.1721,9.6416,0.0085,0.0076,9.8066,-0.008,-0.0554,0.0219,12.88,-30.75,-10.06,95.88,-88.13,144.8
32764,52.403473,-1.515426,139.78,17.85,12,316.97,20 / 20,3752808,2019-09-04 21:09:04:921,0.946,-0.1765,10.3128,0.0071,0.0083,9.8066,-0.0001,-0.0462,0.0242,12.94,-30.69,-9.87,98.29,-88.21,147.38
32765,52.403473,-1.515426,139.78,17.85,12,316.97,20 / 20,3752908,2019-09-04 21:09:05:021,1.0591,-0.1066,9.8182,0.0068,0.0145,9.8066,0.0153,-0.0602,0.0281,12.75,-30.31,-9.56,103.28,-88.28,152.66
32766,52.403473,-1.515426,139.78,17.85,12,316.97,20 / 20,3753008,2019-09-04 21:09:05:121,1.1717,0.8538,9.3077,0.0135,0.0068,9.8065,-0.0196,-0.0547,0.0377,13.75,-31.5,-10.81,111.3,-88.37,160.51
32767,52.403473,-1.515426,139.78,17.85,12,316.97,20 / 20,3753107,2019-09-04 21:09:05:220,1.3545,-0.0306,8.9903,0.007,-0.0137,9.8066,-0.036,-0.0508,-0.0309,13.38,-31.19,-11.31,117.18,-88.53,164.57
32768,52.403473,-1.515426,139.78,17.85,12,316.97,20 / 20,3753207,2019-09-04 21:09:05:320,1.8133,0.369,9.9123,0.003,-0.0093,9.8066,-0.004,-0.0386,-0.0307,12.63,-31.12,-11.81,112.28,-88.7,157.47
32769,52.403473,-1.515426,139.78,17.85,12,316.97,20 / 20,3753308,2019-09-04 21:09:05:421,0.5718,-0.2648,9.7486,-0.002,-0.0009,9.8066,-0.012,-0.0363,-0.0014,11.44,-31.06,-11.94,111.45,-88.59,151.47
32770,52.403473,-1.515426,139.78,17.85,12,316.97,20 / 20,3753407,2019-09-04 21:09:05:520,1.0067,-0.4149,9.3138,0.0254,-0.0013,9.8066,-0.0379,-0.0445,0.0297,11.44,-31.0,-11.69,111.96,-88.72,152.22
32771,52.403473,-1.515426,139.78,17.85,12,316.97,20 / 20,3753508,2019-09-04 21:09:05:621,1.2985,0.0454,10.1109,0.0184,0.0066,9.8066,0.0021,-0.0437,0.0238,11.06,-30.69,-11.31,119.62,-89.04,162.97
32772,52.403473,-1.515426,139.78,17.85,12,316.97,20 / 20,3753608,2019-09-04 21:09:05:721,1.2706,-0.1893,10.0254,-0.0114,0.0013,9.8066,0.0232,-0.0355,-0.0243,12.31,-30.31,-11.06,122.12,-89.04,168.1
32773,52.403473,-1.515426,139.78,17.85,12,316.97,20 / 20,3753707,2019-09-04 21:09:05:820,-0.4766,0.1405,9.2765,-0.0111,-0.0006,9.8066,-0.016,-0.0285,-0.0094,12.31,-30.62,-11.44,118.05,-88.82,163.56
32774,52.403473,-1.515426,139.78,17.85,12,316.97,20 / 20,3753807,2019-09-04 21:09:05:920,0.7655,-0.4748,8.8595,0.01,-0.0202,9.8066,-0.0546,-0.0416,-0.0252,11.56,-30.19,-11.87,117.25,-88.95,160.61
32775,52.403473,-1.515426,139.78,17.85,12,316.97,20 / 20,3753907,2019-09-04 21:09:06:020,0.6776,-0.7601,9.2878,0.0129,-0.0149,9.8066,-0.0447,-0.0143,-0.0054,11.13,-30.37,-12.56,107.12,-89.22,146.05
32776,52.403473,-1.515426,139.78,17.85,12,316.97,20 / 20,3754007,2019-09-04 21:09:06:120,0.6608,-0.9362,10.6879,-0.0147,-0.0088,9.8066,-0.0046,-0.0446,-0.0593,10.31,-29.87,-12.75,92.97,-89.23,129.14
32777,52.403473,-1.515426,139.78,17.85,12,316.97,20 / 20,3754107,2019-09-04 21:09:06:220,0.4408,-0.2463,9.6143,-0.011,0.0121,9.8066,0.0241,0.0064,-0.0265,10.13,-29.56,-12.31,96.07,-89.05,134.07
32778,52.403473,-1.515426,139.78,17.85,12,316.97,20 / 20,3754208,2019-09-04 21:09:06:321,0.4445,-0.7342,11.454,0.0139,-0.0027,9.8066,-0.0256,-0.0068,0.007,9.56,-29.44,-12.12,94.6,-88.95,132.46
32779,52.403473,-1.515426,139.78,17.85,12,316.97,20 / 20,3754308,2019-09-04 21:09:06:421,0.0281,-0.487,8.443,-0.0099,0.0027,9.8066,0.021,0.004,0.0196,9.5,-29.31,-11.06,93.17,-89.0,133.49
32780,52.403473,-1.515426,139.78,17.85,12,316.97,22 / 22,3754408,2019-09-04 21:09:06:521,0.3588,-1.0467,8.1914,0.0128,-0.0121,9.8066,-0.0364,-0.0113,0.003,9.31,-29.5,-10.81,101.15,-89.1,138.64
32781,52.403473,-1.515426,139.78,17.85,12,316.97,22 / 22,3754507,2019-09-04 21:09:06:620,0.4201,-0.1211,9.2206,0.0203,-0.0024,9.8066,-0.0394,-0.0069,0.0194,10.38,-29.81,-11.06,89.84,-89.39,130.89
32782,52.403473,-1.515426,139.78,17.85,12,316.97,22 / 22,3754608,2019-09-04 21:09:06:721,0.5384,-0.7993,9.3915,0.0042,-0.009,9.8066,-0.0431,-0.0034,-0.0069,10.31,-30.12,-12.0,68.05,-89.56,107.07
32783,52.403473,-1.515426,139.78,17.85,12,316.97,22 / 22,3754708,2019-09-04 21:09:06:821,0.3638,-0.7186,9.4351,-0.0065,-0.0062,9.8066,0.0104,0.0286,-0.0193,10.69,-29.31,-12.06,59.2,-89.47,100.91
32784,52.403473,-1.515426,139.78,17.85,12,316.97,22 / 22,3754807,2019-09-04 21:09:06:920,0.2719,-0.5724,10.8496,-0.0086,-0.0043,9.8066,-0.0053,0.0221,-0.0209,10.75,-30.19,-12.06,56.11,-89.35,97.63
32785,52.403473,-1.515426,139.78,17.85,12,316.97,22 / 22,3754908,2019-09-04 21:09:07:021,-0.6622,-0.3982,9.0491,-0.0124,0.001,9.8066,0.0032,0.0022,-0.0364,10.63,-30.06,-12.81,63.95,-89.16,102.86
32786,52.403473,-1.515426,139.78,17.85,12,316.97,22 / 22,3755007,2019-09-04 21:09:07:120,-0.3162,-0.7663,9.6773,0.0045,-0.0127,9.8066,-0.0216,0.0218,-0.0049,10.56,-29.87,-12.69,63.42,-89.06,102.18
32787,52.403473,-1.515426,139.78,17.85,12,316.97,22 / 22,3755108,2019-09-04 21:09:07:221,0.4056,-1.2133,9.544,0.0137,0.0011,9.8066,-0.0221,0.037,0.0284,10.75,-30.0,-12.06,48.24,-89.12,89.54
32788,52.403473,-1.515426,139.78,17.85,12,316.97,22 / 22,3755208,2019-09-04 21:09:07:321,-0.264,-0.5151,9.0982,0.0125,0.0102,9.8066,0.0008,0.0189,0.0334,10.19,-29.56,-12.75,49.6,-89.38,86.31
32789,52.403473,-1.515426,139.78,17.85,12,316.97,22 / 22,3755308,2019-09-04 21:09:07:421,0.5205,-0.5311,9.3642,0.0144,0.0084,9.8065,0.0028,0.0169,0.0261,9.88,-30.44,-13.06,42.53,-89.58,79.58
32790,52.403473,-1.515426,139.78,17.85,12,316.97,22 / 22,3755407,2019-09-04 21:09:07:520,0.1322,-0.4298,10.1948,0.0004,0.0059,9.8066,0.0045,0.0233,0.0219,9.81,-31.06,-12.75,39.75,-89.68,76.93
32791,52.403473,-1.515426,139.78,17.85,12,316.97,22 / 22,3755508,2019-09-04 21:09:07:621,0.2611,-0.2364,9.3399,-0.0002,-0.0039,9.8066,-0.0124,-0.0081,-0.0137,9.69,-31.31,-11.31,38.66,-89.67,80.5
32792,52.403473,-1.515426,139.78,17.85,12,316.97,22 / 22,3755608,2019-09-04 21:09:07:721,-0.3353,-0.3159,9.0604,0.0084,-0.0099,9.8066,-0.0165,0.0201,-0.0249,10.19,-30.94,-10.81,25.7,-89.55,67.57
32793,52.403473,-1.515426,139.78,17.85,12,316.97,22 / 22,3755707,2019-09-04 21:09:07:820,-0.439,-0.8975,9.2796,0.0036,-0.0143,9.8066,-0.0283,0.0157,-0.0177,9.81,-30.31,-10.56,4.35,-89.41,46.53
32794,52.403473,-1.515426,139.78,17.85,12,316.97,22 / 22,3755807,2019-09-04 21:09:07:920,-0.151,-1.0384,9.4776,0.008,-0.0023,9.8066,-0.029,0.029,0.0061,10.31,-28.94,-11.44,349.44,-89.26,31.98
32795,52.403473,-1.515426,139.78,17.85,12,316.97,22 / 22,3755908,2019-09-04 21:09:08:021,0.4312,-0.2165,9.7725,-0.0009,0.002,9.8066,0.0129,0.0092,0.0043,10.0,-29.44,-11.87,351.26,-89.28,31.27
32796,52.403473,-1.515426,139.78,17.85,12,316.97,22 / 22,3756009,2019-09-04 21:09:08:122,-0.0098,-0.7613,9.6152,-0.0017,-0.0118,9.8066,-0.0217,0.0302,-0.018,10.13,-28.87,-11.69,355.05,-89.27,34.97
32797,52.403473,-1.515426,139.78,17.85,12,316.97,22 / 22,3756108,2019-09-04 21:09:08:221,0.0391,-0.9614,9.9259,0.0018,-0.0154,9.8066,-0.0301,0.0042,-0.0182,10.06,-29.0,-12.56,358.2,-89.04,35.83
32798,52.403473,-1.515426,139.78,17.85,12,316.97,22 / 22,3756208,2019-09-04 21:09:08:321,-0.0307,-1.0945,9.3361,0.0071,-0.0055,9.8066,-0.022,0.008,0.004,10.31,-29.06,-12.87,354.04,-88.93,31.81
32799,52.403473,-1.515426,139.78,17.85,12,316.97,20 / 21,3756308,2019-09-04 21:09:08:421,-0.1837,-0.8869,9.7451,0.0067,-0.0047,9.8065,-0.0181,0.0071,-0.0004,9.31,-29.19,-13.19,349.68,-88.83,24.77
32800,52.403473,-1.515426,139.78,17.85,12,316.97,20 / 21,3756407,2019-09-04 21:09:08:520,-0.1908,-0.6994,9.4445,0.0051,0.0021,9.8066,0.0087,0.0088,0.018,9.25,-29.69,-12.62,345.72,-88.8,20.98
32801,52.403473,-1.515426,139.78,17.85,12,316.97,20 / 21,3756507,2019-09-04 21:09:08:620,-0.1114,-0.3889,9.5578,0.0051,0.0001,9.8066,0.001,0.0016,0.0053,9.19,-29.25,-13.31,340.64,-88.83,16.05
32802,52.403473,-1.515426,139.78,17.85,12,316.97,20 / 21,3756608,2019-09-04 21:09:08:721,0.4338,0.0573,9.2253,0.0068,-0.0107,9.8066,-0.0296,-0.0029,-0.0392,9.56,-30.0,-13.31,333.62,-88.72,12.24
32803,52.403473,-1.515426,139.78,17.85,12,316.97,20 / 21,3756707,2019-09-04 21:09:08:820,-0.5131,-1.3684,10.096,-0.0017,-0.0214,9.8066,-0.0282,-0.006,-0.0456,9.19,-31.87,-14.19,342.1,-88.44,15.76
32804,52.403473,-1.515426,139.78,17.85,12,316.97,20 / 21,3756808,2019-09-04 21:09:08:921,-0.7409,-0.8418,10.6547,-0.0147,-0.0106,9.8066,0.0189,0.0193,-0.0352,9.56,-32.56,-11.44,337.52,-88.29,21.25
32805,52.403473,-1.515426,139.78,17.85,12,316.97,20 / 21,3756908,2019-09-04 21:09:09:021,0.432,-1.1307,9.822,-0.003,0.0115,9.8066,0.0231,-0.0036,0.0223,9.19,-29.94,-12.37,345.29,-88.39,22.98
32806,52.403473,-1.515426,139.78,17.85,12,316.97,20 / 21,3757008,2019-09-04 21:09:09:121,-0.2392,-0.4419,10.2291,0.0035,0.0179,9.8066,0.0339,-0.0489,0.0295,9.25,-29.5,-12.44,342.79,-88.59,20.48
32807,52.403473,-1.515426,139.78,17.85,12,316.97,20 / 21,3757107,2019-09-04 21:09:09:220,0.0759,0.2667,8.9206,0.0103,0.0129,9.8066,-0.0053,-0.0069,0.0363,8.94,-29.62,-12.56,336.08,-88.81,11.7
32808,52.403473,-1.515426,139.78,17.85,12,316.97,20 / 21,3757208,2019-09-04 21:09:09:321,0.3078,-0.4516,8.6082,0.0207,-0.0229,9.8065,-0.0835,-0.0021,-0.0057,8.63,-29.44,-13.06,329.8,-88.63,5.76
32809,52.403473,-1.515426,139.78,17.85,12,316.97,20 / 21,3757307,2019-09-04 21:09:09:420,0.238,-0.4234,9.2371,0.0154,-0.021,9.8065,-0.0638,0.0134,-0.0051,9.44,-29.25,-13.44,327.35,-88.12,3.91
32810,52.403473,-1.515426,139.78,17.85,12,316.97,21 / 21,3757408,2019-09-04 21:09:09:521,-0.342,-0.3955,9.3987,0.0012,-0.0005,9.8066,0.0039,-0.006,0.0148,9.25,-29.62,-12.87,328.77,-87.97,5.48
32811,52.403473,-1.515426,139.78,17.85,12,316.97,21 / 21,3757507,2019-09-04 21:09:09:620,0.592,-0.7622,10.4392,0.0041,0.0112,9.8066,0.0188,-0.0252,0.0299,9.69,-29.62,-12.94,323.21,-88.03,2.95
32812,52.403473,-1.515426,139.78,17.85,12,316.97,21 / 21,3757608,2019-09-04 21:09:09:721,0.4711,-0.4387,10.1068,-0.0106,0.0195,9.8065,0.0507,-0.0305,-0.0079,9.19,-30.19,-12.87,321.78,-88.16,-1.35
32813,52.403473,-1.515426,139.78,17.85,12,316.97,21 / 21,3757707,2019-09-04 21:09:09:820,-0.0792,-0.0464,9.8035,-0.0036,0.0082,9.8066,0.0194,-0.014,0.0005,9.25,-30.06,-12.69,320.62,-88.44,-2.8
32814,52.403473,-1.515426,139.78,17.85,12,316.97,21 / 21,3757808,2019-09-04 21:09:09:921,0.5869,-0.3634,10.0338,0.0054,-0.012,9.8066,-0.0308,-0.006,-0.0026,9.25,-29.5,-12.75,322.05,-88.34,-1.37
32815,52.403473,-1.515426,139.78,17.85,12,316.97,21 / 21,3757908,2019-09-04 21:09:10:021,0.2938,-0.2358,10.0465,-0.0006,-0.0078,9.8066,-0.0062,0.0063,-0.0087,9.25,-29.75,-13.12,323.46,-88.19,0.22
32816,52.403473,-1.515426,139.78,17.85,12,316.97,21 / 21,3758008,2019-09-04 21:09:10:121,0.4721,-0.4877,11.0859,-0.0088,0.0108,9.8066,0.0511,-0.0058,-0.0006,9.44,-29.56,-13.56,330.98,-88.26,5.25
32817,52.403473,-1.515426,139.78,17.85,12,316.97,21 / 21,3758107,2019-09-04 21:09:10:220,-0.3601,-0.6817,9.7787,-0.0169,0.0237,9.8065,0.0808,-0.0153,-0.0011,9.38,-29.19,-13.06,330.92,-88.59,6.88
32818,52.403473,-1.515426,139.78,17.85,12,316.97,21 / 21,3758207,2019-09-04 21:09:10:320,-0.7563,-0.933,9.6104,0.0101,-0.0029,9.8065,-0.0312,-0.0346,0.0488,8.88,-29.5,-12.56,327.16,-88.74,3.11
32819,52.403473,-1.515426,139.78,17.85,12,316.97,22 / 22,3758307,2019-09-04 21:09:10:420,0.8527,0.5413,9.4882,0.0229,-0.0052,9.8065,-0.0436,0.0011,0.0388,9.5,-29.75,-12.75,313.41,-88.48,-6.99
32820,52.403473,-1.515426,139.78,17.85,12,316.97,22 / 22,3758407,2019-09-04 21:09:10:520,-1.6259,-1.1054,8.8608,0.0086,-0.0094,9.8066,-0.0219,-0.0004,0.0169,8.88,-29.56,-13.19,318.97,-88.24,-4.13
32821,52.403473,-1.515426,139.78,17.85,12,316.97,22 / 22,3758508,2019-09-04 21:09:10:621,-1.4103,-2.3412,10.3495,-0.0002,0.0132,9.8065,0.0183,-0.0094,0.0034,9.06,-29.69,-13.06,312.05,-88.2,-10.7
32822,52.403473,-1.515426,139.78,17.85,12,316.97,22 / 22,3758608,2019-09-04 21:09:10:721,1.0369,0.1937,9.3602,-0.0431,0.019,9.8065,0.0775,-0.0232,-0.083,9.38,-29.0,-12.37,323.27,-88.71,1.64
32823,52.403473,-1.515426,139.78,17.85,12,316.97,22 / 22,3758708,2019-09-04 21:09:10:821,-0.5941,-0.4462,10.8508,-0.0401,0.0036,9.8065,0.0775,-0.0115,-0.0669,10.0,-29.5,-11.87,342.67,-89.0,23.03
32824,52.403473,-1.515426,139.78,17.85,12,316.97,22 / 22,3758808,2019-09-04 21:09:10:921,-0.2157,0.1233,9.351,-0.0104,-0.0141,9.8065,-0.0267,0.0117,-0.045,10.25,-29.5,-12.19,4.66,-89.0,44.31
32825,52.403473,-1.515426,139.78,17.85,12,316.97,22 / 22,3758908,2019-09-04 21:09:11:021,-0.4494,-0.823,8.2809,0.0041,-0.024,9.8066,-0.0547,-0.0037,-0.0323,9.88,-29.56,-13.12,7.62,-88.65,44.86
32826,52.403473,-1.515426,139.78,17.85,12,316.97,22 / 22,3759007,2019-09-04 21:09:11:120,0.2876,-1.4022,9.9917,0.0102,-0.0046,9.8066,-0.0153,-0.0082,0.0238,9.88,-29.37,-12.44,357.77,-88.45,37.69
32827,52.403473,-1.515426,139.78,17.85,12,316.97,22 / 22,3759108,2019-09-04 21:09:11:221,0.349,-0.4432,9.9091,0.0038,0.0315,9.8065,0.0582,-0.0161,0.0294,9.38,-29.37,-12.44,355.6,-88.67,32.67
32828,52.403473,-1.515426,139.78,17.85,12,316.97,22 / 22,3759208,2019-09-04 21:09:11:321,0.0483,-0.6067,9.8711,0.0059,0.0089,9.8066,0.0096,-0.0128,0.0247,9.56,-29.81,-13.0,352.87,-89.03,30.66
32829,52.403473,-1.515426,139.78,17.85,12,316.97,22 / 22,3759308,2019-09-04 21:09:11:421,0.3948,-0.4836,9.9849,0.015,-0.0002,9.8066,-0.0102,-0.0127,0.0094,9.44,-29.5,-12.56,346.46,-88.98,21.59
32830,52.403473,-1.515426,139.78,17.85,12,316.97,22 / 22,3759407,2019-09-04 21:09:11:520,0.1986,-0.6849,9.9988,0.0054,-0.0039,9.8066,-0.0165,0.0037,0.0088,8.88,-30.06,-12.87,342.17,-88.91,17.5
32831,52.403473,-1.515426,139.78,17.85,12,316.97,22 / 22,3759508,2019-09-04 21:09:11:621,0.1646,-0.6487,10.5154,0.0013,-0.0051,9.8066,0.0045,-0.006,-0.012,9.0,-30.0,-13.62,342.19,-88.83,15.58
32832,52.403473,-1.515426,139.78,17.85,12,316.97,22 / 22,3759608,2019-09-04 21:09:11:721,0.5239,-0.7636,10.3613,-0.0077,0.0067,9.8066,0.0347,-0.0049,-0.0005,8.88,-30.69,-12.94,343.51,-88.84,18.86
32833,52.403473,-1.515426,139.78,17.85,12,316.97,22 / 22,3759708,2019-09-04 21:09:11:821,0.2313,-0.5632,10.5566,-0.0108,0.0092,9.8066,0.0324,-0.0114,-0.0109,8.75,-29.81,-12.12,348.68,-89.03,25.93
32834,52.403473,-1.515426,139.78,17.85,12,316.97,22 / 22,3759808,2019-09-04 21:09:11:921,0.1749,-0.5495,10.2203,-0.0067,0.0079,9.8066,0.0266,-0.0149,-0.0039,9.06,-29.81,-12.25,1.09,-89.2,37.93
32835,52.403473,-1.515426,139.78,17.85,12,316.97,22 / 22,3759908,2019-09-04 21:09:12:021,0.3035,0.4139,9.5301,-0.0014,-0.0006,9.8066,-0.0192,0.0108,-0.0334,9.63,-29.06,-13.0,1.81,-89.23,39.34
32836,52.403473,-1.515426,139.78,17.85,12,316.97,22 / 22,3760007,2019-09-04 21:09:12:120,-0.7321,-0.6443,9.4939,0.0043,-0.017,9.8066,-0.0227,-0.0145,-0.0126,9.25,-30.25,-13.44,7.38,-89.07,41.85
32837,52.403473,-1.515426,139.78,17.85,12,316.97,22 / 22,3760108,2019-09-04 21:09:12:221,-0.0287,-0.4985,10.3521,-0.0021,-0.0097,9.8066,0.0169,0.0033,0.0038,9.38,-30.75,-12.06,359.95,-88.85,36.82
32838,52.403473,-1.515426,139.78,17.85,12,316.97,22 / 22,3760208,2019-09-04 21:09:12:321,0.4668,-0.9967,11.6484,-0.0141,0.0098,9.8066,0.0405,0.0008,-0.0002,8.88,-29.81,-11.5,1.23,-88.91,40.47
32839,52.403473,-1.515426,139.78,17.85,12,316.97,22 / 22,3760308,2019-09-04 21:09:12:421,-0.0756,0.0468,10.7833,-0.0209,0.0103,9.8065,0.0547,-0.0012,-0.021,9.94,-29.5,-11.5,16.64,-89.04,58.38
32840,52.403473,-1.515426,139.78,17.85,12,316.97,21 / 21,3760407,2019-09-04 21:09:12:520,-0.1813,-0.7723,10.2525,-0.0082,-0.0021,9.8066,0.0278,-0.0087,-0.0209,9.31,-29.94,-11.69,38.37,-88.99,73.98
32841,52.403473,-1.515426,139.78,17.85,12,316.97,21 / 21,3760508,2019-09-04 21:09:12:621,-0.2394,-0.3212,9.8666,0.0024,-0.0017,9.8066,0.0072,0.0017,0.0233,8.94,-29.31,-11.31,35.54,-88.97,73.6
32842,52.403473,-1.515426,139.78,17.85,12,316.97,21 / 21,3760608,2019-09-04 21:09:12:721,0.0269,-1.0639,9.8733,0.0114,0.004,9.8066,-0.0122,0.0053,0.0297,9.31,-30.25,-11.5,34.95,-89.07,73.11
32843,52.403473,-1.515426,139.78,17.85,12,316.97,21 / 21,3760708,2019-09-04 21:09:12:821,0.1731,-0.5704,9.1196,0.024,0.0123,9.8066,-0.0071,0.0023,0.0489,9.38,-29.62,-12.06,21.69,-89.35,58.08
32844,52.403473,-1.515426,139.78,17.85,12,316.97,21 / 21,3760807,2019-09-04 21:09:12:920,0.6553,-0.2815,9.0026,0.0194,-0.0078,9.8065,-0.0397,-0.0142,0.0317,9.31,-29.44,-11.25,2.19,-89.44,41.43
32845,52.403473,-1.515426,139.78,17.85,12,316.97,21 / 21,3760908,2019-09-04 21:09:13:021,0.7087,-0.9188,9.6755,0.0039,0.0022,9.8066,0.029,0.0205,-0.002,9.06,-29.5,-12.0,343.77,-89.33,21.01
32846,52.403473,-1.515426,139.78,17.85,12,316.97,21 / 21,3761008,2019-09-04 21:09:13:121,0.4892,-0.6986,11.2459,-0.0069,0.0122,9.8066,0.0371,0.0345,0.0056,9.0,-29.75,-11.56,352.86,-89.53,29.84
32847,52.403473,-1.515426,139.78,17.85,12,316.97,21 / 21,3761107,2019-09-04 21:09:13:220,-0.7689,-0.2916,10.5467,-0.0166,0.02,9.8066,0.0542,0.0027,0.0234,8.75,-29.81,-11.19,19.92,-89.73,59.02
32848,52.403473,-1.515426,139.78,17.85,12,316.97,21 / 21,3761207,2019-09-04 21:09:13:320,-0.2008,-0.7182,9.7375,0.0126,0.0023,9.8066,-0.0009,0.0082,0.0369,9.0,-29.87,-11.56,110.0,-89.9,146.69
32849,52.40457,-1.516937,143.28,17.15,6,320.52,21 / 22,3761308,2019-09-04 21:09:13:421,0.2861,-1.1142,11.2947,0.0157,0.0045,9.8065,0.0351,0.0052,0.0454,8.75,-31.06,-11.31,242.99,-89.8,-77.33
32850,52.40457,-1.516937,143.28,17.15,6,320.52,21 / 22,3761408,2019-09-04 21:09:13:521,-1.4088,0.325,7.131,-0.0152,0.0322,9.8066,0.0608,0.0042,0.0204,8.38,-31.62,-11.0,196.67,-89.6,-127.04
32851,52.40457,-1.516937,143.28,17.15,6,320.52,21 / 22,3761507,2019-09-04 21:09:13:620,0.3846,0.2492,8.8894,0.0393,-0.018,9.8065,-0.0837,-0.0017,0.0639,7.94,-31.0,-11.06,210.74,-89.34,-112.47
32852,52.40457,-1.516937,143.28,17.15,6,320.52,21 / 22,3761608,2019-09-04 21:09:13:721,0.5393,-0.4033,10.351,0.0237,-0.0141,9.8066,-0.0304,-0.013,0.0341,7.38,-30.62,-12.06,258.93,-89.07,-68.78
32853,52.40457,-1.516937,143.28,17.15,6,320.52,21 / 22,3761708,2019-09-04 21:09:13:821,0.3222,-0.817,10.555,-0.0203,0.0074,9.8065,0.039,0.0304,-0.0319,7.94,-31.25,-11.62,254.35,-89.14,-70.18
32854,52.40457,-1.516937,143.28,17.15,6,320.52,21 / 22,3761808,2019-09-04 21:09:13:921,-0.6448,-0.1229,10.9939,-0.0245,0.0161,9.8066,0.0587,0.0298,-0.0295,7.19,-31.25,-11.37,227.63,-89.4,-98.85
32855,52.40457,-1.516937,143.28,17.15,6,320.52,21 / 22,3761907,2019-09-04 21:09:14:020,-0.1814,-0.1466,10.5136,-0.0109,0.0046,9.8066,0.0228,-0.0034,-0.0195,7.44,-30.87,-10.94,195.76,-89.39,-131.38
32856,52.40457,-1.516937,143.28,17.15,6,320.52,21 / 22,3762008,2019-09-04 21:09:14:121,-0.1223,0.2053,9.3233,-0.0022,-0.0066,9.8066,-0.0098,-0.0086,-0.0095,6.94,-30.87,-11.06,193.24,-89.44,-133.98
32857,52.40457,-1.516937,143.28,17.15,6,320.52,21 / 22,3762108,2019-09-04 21:09:14:221,-0.1254,-0.3276,9.7682,-0.0044,-0.015,9.8065,-0.0298,0.0105,-0.0288,7.19,-30.94,-10.94,193.94,-89.58,-133.35
32858,52.40457,-1.516937,143.28,17.15,6,320.52,21 / 22,3762208,2019-09-04 21:09:14:321,-0.2129,-0.4766,9.9997,-0.0078,-0.01,9.8066,-0.0058,-0.0064,-0.0256,7.38,-31.69,-11.37,180.94,-89.83,-146.58
32859,52.40457,-1.516937,143.28,17.15,6,320.52,21 / 22,3762307,2019-09-04 21:09:14:420,0.7102,-0.3707,10.1929,-0.0122,0.0054,9.8066,0.0349,0.009,-0.0156,7.81,-32.5,-11.06,143.98,-89.78,179.7
32860,52.40457,-1.516937,143.28,17.15,6,320.52,20 / 21,3762408,2019-09-04 21:09:14:521,0.0708,-0.4905,10.3606,-0.0139,0.0151,9.8066,0.0343,-0.0094,0.0262,7.94,-31.69,-11.12,131.95,-89.5,167.1
32861,52.40457,-1.516937,143.28,17.15,6,320.52,20 / 21,3762508,2019-09-04 21:09:14:621,-0.4687,-0.5316,9.7026,0.0086,-0.0017,9.8066,-0.0012,-0.0207,0.0091,7.75,-31.56,-11.62,145.84,-89.47,178.87
32862,52.40457,-1.516937,143.28,17.15,6,320.52,20 / 21,3762608,2019-09-04 21:09:14:721,-0.0932,-0.1124,9.6061,0.0137,-0.0083,9.8066,-0.035,-0.0011,0.007,7.88,-31.87,-11.31,153.26,-89.6,-171.14
32863,52.40457,-1.516937,143.28,17.15,6,320.52,20 / 21,3762707,2019-09-04 21:09:14:820,0.3254,0.5446,9.0745,0.0008,-0.0059,9.8066,-0.0157,-0.0138,-0.0078,7.63,-31.62,-11.87,164.6,-89.71,-161.89
32864,52.40457,-1.516937,143.28,17.15,6,320.52,20 / 21,3762808,2019-09-04 21:09:14:921,0.2166,-0.0097,8.9323,-0.0031,-0.0115,9.8066,-0.0166,-0.0056,-0.0155,8.19,-31.12,-11.5,134.15,-89.86,169.95
32865,52.40457,-1.516937,143.28,17.15,6,320.52,20 / 21,3762908,2019-09-04 21:09:15:021,-0.0002,-0.2909,9.4509,0.0042,-0.0103,9.8066,-0.0275,-0.0066,-0.0027,7.31,-30.94,-11.94,60.57,-89.89,90.62
32866,52.40457,-1.516937,143.28,17.15,6,320.52,20 / 21,3763008,2019-09-04 21:09:15:121,-0.0777,-0.6293,10.3315,-0.0001,-0.0083,9.8066,-0.0086,-0.0007,0.0135,7.75,-31.37,-12.19,8.97,-89.78,42.59
32867,52.40457,-1.516937,143.28,17.15,6,320.52,20 / 21,3763107,2019-09-04 21:09:15:220,-0.1476,0.0306,10.3869,-0.0034,0.0025,9.8066,0.0072,-0.0082,0.0014,7.31,-31.37,-12.62,8.39,-89.74,36.61
32868,52.40457,-1.516937,143.28,17.15,6,320.52,20 / 21,3763207,2019-09-04 21:09:15:320,-0.9357,0.3083,10.7285,-0.0081,0.0079,9.8066,0.032,0.0092,0.0121,7.63,-31.62,-12.62,28.14,-89.78,59.53
32869,52.40457,-1.516937,143.28,17.15,6,320.52,20 / 21,3763308,2019-09-04 21:09:15:421,0.0612,0.1077,10.5081,-0.005,0.004,9.8065,0.0134,-0.0094,-0.0153,6.88,-31.5,-12.75,56.76,-89.83,84.75
32870,52.40457,-1.516937,143.28,17.15,6,320.52,20 / 21,3763407,2019-09-04 21:09:15:520,0.261,0.8389,9.5977,-0.0001,-0.0014,9.8066,-0.0004,0.009,0.0048,5.56,-32.31,-13.56,72.99,-89.78,95.76
32871,52.40457,-1.516937,143.28,17.15,6,320.52,20 / 21,3763508,2019-09-04 21:09:15:621,-0.4656,-0.8251,10.0944,0.0019,-0.0066,9.8066,-0.0154,0.0116,-0.0051,4.94,-32.44,-12.31,57.49,-89.78,79.65
32872,52.40457,-1.516937,143.28,17.15,6,320.52,20 / 21,3763607,2019-09-04 21:09:15:720,-0.8093,-0.4104,9.864,0.0012,0.005,9.8066,0.0306,0.0027,0.0043,4.25,-32.37,-11.56,48.37,-89.79,66.41
32873,52.40457,-1.516937,143.28,17.15,6,320.52,20 / 21,3763708,2019-09-04 21:09:15:821,-0.3626,-0.1186,9.3965,0.0007,0.0061,9.8066,0.0161,-0.0128,0.0094,4.75,-31.5,-9.81,74.78,-89.81,100.85
32874,52.40457,-1.516937,143.28,17.15,6,320.52,20 / 21,3763808,2019-09-04 21:09:15:921,-0.465,0.3047,9.8301,0.0074,-0.003,9.8066,-0.0423,0.0066,0.0163,5.25,-31.37,-10.12,50.13,-89.88,76.44
32875,52.40457,-1.516937,143.28,17.15,6,320.52,20 / 21,3763908,2019-09-04 21:09:16:021,-0.1415,-0.595,9.5316,0.0101,-0.014,9.8066,-0.0375,-0.008,0.0124,5.69,-30.06,-10.06,338.2,-89.82,9.34
32876,52.40457,-1.516937,143.28,17.15,6,320.52,20 / 21,3764008,2019-09-04 21:09:16:121,0.2744,-0.2218,9.9071,0.0051,-0.0087,9.8066,-0.0069,-0.0045,-0.0131,5.63,-29.19,-10.56,333.09,-89.6,2.11
32877,52.40457,-1.516937,143.28,17.15,6,320.52,20 / 21,3764108,2019-09-04 21:09:16:221,0.7437,-1.0175,10.3209,-0.002,0.0166,9.8066,0.0493,-0.03,0.0311,6.0,-29.37,-10.44,340.73,-89.62,12.0
32878,52.40457,-1.516937,143.28,17.15,6,320.52,20 / 21,3764208,2019-09-04 21:09:16:321,-0.642,-0.8451,10.622,-0.0164,0.0068,9.8065,0.0218,-0.0048,0.0004,6.63,-29.06,-11.0,21.98,-89.8,54.28
32879,52.40457,-1.516937,143.28,17.15,6,320.52,20 / 21,3764308,2019-09-04 21:09:16:421,-0.2121,0.0971,9.7562,0.0016,0.006,9.8066,0.0071,-0.0063,0.0139,6.13,-29.37,-11.56,80.19,-89.87,106.48
32880,52.40457,-1.516937,143.28,17.15,6,320.52,21 / 21,3764408,2019-09-04 21:09:16:521,-0.2209,-0.0839,9.4416,0.0123,-0.0052,9.8066,-0.0458,-0.0227,0.0105,5.69,-29.69,-11.94,37.74,-89.97,64.26
32881,52.40457,-1.516937,143.28,17.15,6,320.52,21 / 21,3764508,2019-09-04 21:09:16:621,0.1983,-0.6095,9.045,0.0046,-0.0172,9.8066,-0.0436,0.0011,-0.0015,5.56,-29.69,-12.19,326.26,-89.83,-6.96
32882,52.40457,-1.516937,143.28,17.15,6,320.52,21 / 21,3764608,2019-09-04 21:09:16:721,0.557,-0.2866,10.4514,-0.004,-0.0021,9.8066,0.0022,0.0102,-0.0218,4.75,-29.81,-12.81,347.13,-89.63,8.35
32883,52.40457,-1.516937,143.28,17.15,6,320.52,21 / 21,3764708,2019-09-04 21:09:16:821,0.0342,-0.3902,9.0701,-0.0001,0.0051,9.8066,0.0165,-0.0046,0.0129,3.88,-30.37,-12.56,7.99,-89.64,24.98
32884,52.40457,-1.516937,143.28,17.15,6,320.52,21 / 21,3764808,2019-09-04 21:09:16:921,-0.5426,-0.6147,9.9218,0.0096,0.0007,9.8066,-0.0181,-0.0002,0.0413,3.81,-31.12,-12.37,355.57,-89.71,14.06
32885,52.40457,-1.516937,143.28,17.15,6,320.52,21 / 21,3764908,2019-09-04 21:09:17:021,0.4389,-0.8947,9.9149,0.0137,0.0026,9.8066,-0.0085,-0.0046,0.0355,3.06,-31.37,-12.44,318.66,-89.6,-26.64
32886,52.40457,-1.516937,143.28,17.15,6,320.52,21 / 21,3765008,2019-09-04 21:09:17:121,-0.3189,-0.4016,9.8839,0.0023,0.0024,9.8066,-0.0025,-0.0014,0.0184,3.19,-31.56,-12.12,308.96,-89.56,-36.11
32887,52.40457,-1.516937,143.28,17.15,6,320.52,21 / 21,3765107,2019-09-04 21:09:17:220,-0.0066,-0.385,9.2545,0.0042,0.0011,9.8066,-0.0002,-0.0078,0.0118,3.19,-31.06,-12.19,299.96,-89.5,-44.91
32888,52.40457,-1.516937,143.28,17.15,6,320.52,21 / 21,3765208,2019-09-04 21:09:17:321,0.0525,-0.7197,9.3561,0.0015,-0.0092,9.8066,-0.033,-0.001,0.0095,3.13,-31.25,-12.44,303.84,-89.43,-40.93
32889,52.40457,-1.516937,143.28,17.15,6,320.52,21 / 21,3765308,2019-09-04 21:09:17:421,-0.2303,-1.2254,9.89,0.0008,-0.0062,9.8066,-0.0278,0.0191,0.0009,3.0,-30.94,-12.06,310.99,-89.3,-33.65
32890,52.40457,-1.516937,143.28,17.15,6,320.52,19 / 21,3765407,2019-09-04 21:09:17:520,-0.6086,-0.2854,9.9217,-0.0045,0.0097,9.8065,0.0236,0.0032,0.0006,3.31,-30.94,-12.5,310.72,-89.34,-33.98
32891,52.40457,-1.516937,143.28,17.15,6,320.52,19 / 21,3765508,2019-09-04 21:09:17:621,-0.1831,-0.0586,10.2524,-0.0062,0.0056,9.8066,0.0177,0.0169,0.0032,3.38,-30.37,-12.56,305.18,-89.49,-40.88
32892,52.40457,-1.516937,143.28,17.15,6,320.52,19 / 21,3765607,2019-09-04 21:09:17:720,0.673,-0.3286,9.5356,-0.0077,0.0067,9.8066,0.0151,0.0024,-0.0262,3.69,-31.0,-12.81,296.42,-89.58,-45.62
32893,52.40457,-1.516937,143.28,17.15,6,320.52,19 / 21,3765707,2019-09-04 21:09:17:820,-0.2408,-0.4067,9.6262,-0.004,-0.0213,9.8066,-0.0381,0.024,-0.0256,3.81,-30.62,-14.19,319.45,-89.61,-24.07
32894,52.40457,-1.516937,143.28,17.15,6,320.52,19 / 21,3765807,2019-09-04 21:09:17:920,0.0018,-1.5426,9.5319,-0.0022,-0.021,9.8066,-0.0312,0.0054,-0.0237,3.63,-31.94,-17.0,345.51,-89.27,-0.91
32895,52.40457,-1.516937,143.28,17.15,6,320.52,19 / 21,3765908,2019-09-04 21:09:18:021,-0.3238,-0.6023,10.1314,-0.0045,0.0111,9.8066,0.0414,0.0212,0.0078,4.06,-34.12,-19.12,351.66,-89.21,3.75
32896,52.40457,-1.516937,143.28,17.15,6,320.52,19 / 21,3766007,2019-09-04 21:09:18:120,0.2983,-0.9523,10.5761,-0.0007,0.0175,9.8066,0.033,0.0304,0.0152,4.94,-39.62,-19.75,349.51,-89.49,3.73
32897,52.40457,-1.516937,143.28,17.15,6,320.52,19 / 21,3766108,2019-09-04 21:09:18:221,-0.4112,-0.4189,10.3865,-0.0035,0.0118,9.8066,0.0298,-0.0208,0.0042,4.25,-45.25,-17.5,346.58,-89.69,0.0
32898,52.40457,-1.516937,143.28,17.15,6,320.52,19 / 21,3766207,2019-09-04 21:09:18:320,0.5888,-0.4339,9.3765,0.001,-0.0056,9.8066,-0.0275,0.0216,0.0005,4.0,-45.37,-13.37,347.47,-89.79,4.72
32899,52.40457,-1.516937,143.28,17.15,6,320.52,19 / 21,3766308,2019-09-04 21:09:18:421,0.3309,-0.1812,8.4908,-0.0006,-0.012,9.8066,-0.0475,0.0,-0.0176,4.75,-50.31,-13.81,352.17,-89.62,12.0
32900,52.40457,-1.516937,143.28,17.15,6,320.52,20 / 21,3766407,2019-09-04 21:09:18:520,1.0339,-0.4393,8.3238,0.0198,-0.0276,9.8065,-0.0393,-0.0005,0.001,6.88,-50.06,-4.75,315.88,-89.15,13.79
32901,52.40457,-1.516937,143.28,17.15,6,320.52,20 / 21,3766507,2019-09-04 21:09:18:620,0.0916,-0.0555,9.8598,0.013,-0.0113,9.8066,-0.0215,-0.0064,-0.025,7.38,-45.06,-3.0,302.93,-88.85,15.45
32902,52.40457,-1.516937,143.28,17.15,6,320.52,20 / 21,3766608,2019-09-04 21:09:18:721,0.7646,-0.1489,9.9681,-0.0006,-0.0122,9.8066,0.0,0.0002,-0.0276,8.56,-36.25,-1.12,292.52,-88.65,21.14
32903,52.40457,-1.516937,143.28,17.15,6,320.52,20 / 21,3766707,2019-09-04 21:09:18:820,0.3534,-0.7685,10.8803,-0.0215,0.0018,9.8065,0.0421,0.0389,-0.0057,8.13,-28.31,-2.87,316.35,-88.68,28.79
32904,52.40457,-1.516937,143.28,17.15,6,320.52,20 / 21,3766807,2019-09-04 21:09:18:920,0.0567,-0.2657,10.6713,-0.0162,0.0066,9.8065,0.0394,0.01,0.0011,8.94,-25.75,-5.37,338.24,-88.92,40.21
32905,52.40457,-1.516937,143.28,17.15,6,320.52,20 / 21,3766907,2019-09-04 21:09:19:020,0.7074,-0.3343,9.5788,-0.0036,-0.0029,9.8066,0.0023,0.002,-0.0036,9.44,-24.25,-7.81,357.11,-88.98,45.58
32906,52.40457,-1.516937,143.28,17.15,6,320.52,20 / 21,3767008,2019-09-04 21:09:19:121,0.4792,-0.9334,10.5878,0.0001,-0.0011,9.8066,0.0013,0.0017,-0.0013,11.44,-24.69,-10.94,0.69,-88.97,45.67
32907,52.40457,-1.516937,143.28,17.15,6,320.52,20 / 21,3767108,2019-09-04 21:09:19:221,0.6213,0.2668,9.7721,0.0018,0.0014,9.8066,-0.0118,0.0271,0.0089,12.56,-26.75,-11.44,355.55,-89.01,45.43
32908,52.40457,-1.516937,143.28,17.15,6,320.52,20 / 21,3767207,2019-09-04 21:09:19:320,0.7125,0.1347,8.6096,0.0112,-0.0012,9.8066,-0.0236,-0.0205,0.0141,11.69,-30.75,-11.0,353.34,-89.01,41.05
32909,52.40457,-1.516937,143.28,17.15,6,320.52,20 / 21,3767307,2019-09-04 21:09:19:420,1.19,-0.8794,8.395,0.0224,-0.0108,9.8066,-0.0496,-0.0088,0.0179,9.25,-31.37,-6.5,334.49,-88.86,32.2
32910,52.40457,-1.516937,143.28,17.15,6,320.52,22 / 22,3767407,2019-09-04 21:09:19:520,0.6172,-0.4895,9.9959,0.0132,-0.006,9.8066,-0.0326,-0.0088,-0.001,7.31,-28.31,-3.44,312.31,-88.54,23.11
32911,52.40457,-1.516937,143.28,17.15,6,320.52,22 / 22,3767507,2019-09-04 21:09:19:620,0.7564,0.0273,9.9352,-0.0025,0.004,9.8066,0.0209,-0.019,0.02,4.81,-21.94,-1.44,296.0,-88.51,20.48
32912,52.40457,-1.516937,143.28,17.15,6,320.52,22 / 22,3767608,2019-09-04 21:09:19:721,0.2243,-0.741,10.5231,0.0004,0.0087,9.8066,0.0248,-0.0242,0.0028,2.81,-17.19,-4.87,345.88,-88.6,17.84
32913,52.40457,-1.516937,143.28,17.15,6,320.52,22 / 22,3767708,2019-09-04 21:09:19:821,-0.187,-0.3898,10.7443,-0.0075,0.0076,9.8066,0.0107,-0.0101,-0.0486,0.56,-17.19,-9.37,10.91,-88.71,16.79
32914,52.40457,-1.516937,143.28,17.15,6,320.52,22 / 22,3767807,2019-09-04 21:09:19:920,0.2276,0.1673,10.6827,-0.0035,0.0081,9.8066,0.0172,0.0099,-0.0097,-0.37,-20.62,-12.31,25.75,-88.81,24.85
32915,52.40457,-1.516937,143.28,17.15,6,320.52,22 / 22,3767907,2019-09-04 21:09:20:020,-0.0891,0.038,9.5287,-0.0081,-0.0063,9.8065,-0.001,-0.0223,-0.0291,1.31,-21.0,-13.94,28.74,-88.8,31.96
32916,52.40457,-1.516937,143.28,17.15,6,320.52,22 / 22,3768008,2019-09-04 21:09:20:121,0.1768,-0.6557,9.785,-0.0043,-0.014,9.8066,-0.0192,-0.0426,-0.0188,3.13,-24.56,-17.37,24.4,-88.6,33.57
32917,52.40457,-1.516937,143.28,17.15,6,320.52,22 / 22,3768107,2019-09-04 21:09:20:220,0.5128,-1.149,9.7875,-0.0015,-0.0093,9.8066,-0.0091,-0.0166,-0.0046,6.19,-31.12,-20.94,15.79,-88.38,31.11
32918,52.40457,-1.516937,143.28,17.15,6,320.52,22 / 22,3768208,2019-09-04 21:09:20:321,-0.3107,-0.929,9.6284,0.0012,0.0035,9.8066,0.0136,-0.0129,0.0092,5.5,-37.62,-21.62,16.9,-88.38,31.37
32919,52.40457,-1.516937,143.28,17.15,6,320.52,22 / 22,3768307,2019-09-04 21:09:20:420,0.658,-1.0305,9.4695,0.0072,0.0027,9.8066,0.0182,-0.0236,0.015,3.13,-43.87,-16.87,22.81,-88.44,31.27
32920,52.40457,-1.516937,143.28,17.15,6,320.52,20 / 20,3768407,2019-09-04 21:09:20:520,0.7129,-0.2177,10.3012,0.0014,0.0077,9.8066,0.0189,-0.0171,0.0264,5.19,-41.81,-8.37,357.77,-88.56,30.02
32921,52.40457,-1.516937,143.28,17.15,6,320.52,20 / 20,3768508,2019-09-04 21:09:20:621,0.1246,-0.4901,10.0957,-0.0012,0.0022,9.8065,-0.0057,-0.0129,0.0022,5.63,-34.44,-5.44,336.6,-88.64,29.15
32922,52.40457,-1.516937,143.28,17.15,6,320.52,20 / 20,3768607,2019-09-04 21:09:20:720,0.5175,-0.0851,9.902,0.0021,0.0005,9.8066,-0.0066,-0.0121,0.0004,4.56,-30.0,-5.19,342.2,-88.64,28.97
32923,52.40457,-1.516937,143.28,17.15,6,320.52,20 / 20,3768707,2019-09-04 21:09:20:820,0.1411,-0.3653,8.6985,-0.0076,-0.0135,9.8066,-0.0272,-0.0191,-0.0114,3.5,-25.37,-7.37,1.61,-88.52,31.23
32924,52.40457,-1.516937,143.28,17.15,6,320.52,20 / 20,3768807,2019-09-04 21:09:20:920,0.1411,-0.3653,8.6985,-0.0076,-0.0135,9.8066,-0.0272,-0.0191,-0.0114,3.5,-25.37,-7.37,1.61,-88.52,31.23
32925,52.40457,-1.516937,143.28,17.15,6,320.52,20 / 20,3768908,2019-09-04 21:09:21:021,0.1963,-0.5271,9.0719,0.0262,-0.0698,9.8063,-0.0168,-0.0415,-0.0092,6.31,-23.25,-17.56,6.28,-88.05,24.45
32926,52.40457,-1.516937,143.28,17.15,6,320.52,20 / 20,3769007,2019-09-04 21:09:21:120,0.5422,-0.8379,10.2171,0.0009,0.0081,9.8066,-0.005,-0.0065,0.0024,5.88,-23.87,-22.44,8.85,-87.98,23.78
32927,52.40457,-1.516937,143.28,17.15,6,320.52,20 / 20,3769108,2019-09-04 21:09:21:221,0.4852,-0.524,10.401,-0.003,0.0181,9.8066,0.0352,0.0027,0.0063,5.19,-27.81,-28.31,16.38,-88.18,26.0
32928,52.40457,-1.516937,143.28,17.15,6,320.52,20 / 20,3769208,2019-09-04 21:09:21:321,0.3475,-0.5724,9.5747,0.001,0.0085,9.8066,0.0023,-0.0155,0.0126,5.06,-34.5,-31.94,19.72,-88.34,28.0
32929,52.40457,-1.516937,143.28,17.15,6,320.52,20 / 20,3769308,2019-09-04 21:09:21:421,0.4636,-0.2173,10.2614,0.0038,-0.0036,9.8066,-0.006,0.0047,0.0166,5.06,-41.5,-32.37,19.02,-88.39,27.23
32930,52.40457,-1.516937,143.28,17.15,6,320.52,19 / 21,3769408,2019-09-04 21:09:21:521,0.2078,-0.8557,10.1074,0.0031,-0.0065,9.8066,-0.0112,-0.0251,-0.0182,5.94,-51.12,-30.87,15.32,-88.34,25.56
32931,52.40457,-1.516937,143.28,17.15,6,320.52,19 / 21,3769507,2019-09-04 21:09:21:620,0.2187,-0.4774,9.3708,-0.0041,-0.0017,9.8066,-0.0035,-0.0089,-0.0195,5.69,-56.81,-25.62,14.13,-88.31,26.24
32932,52.40457,-1.516937,143.28,17.15,6,320.52,19 / 21,3769608,2019-09-04 21:09:21:721,-0.1442,-0.1838,8.2375,0.0033,-0.0069,9.8066,-0.0218,-0.0072,0.0145,5.81,-59.75,-17.87,9.19,-88.31,26.77
32933,52.40457,-1.516937,143.28,17.15,6,320.52,19 / 21,3769708,2019-09-04 21:09:21:821,-0.0342,-0.5007,9.6402,0.0055,-0.0141,9.8066,-0.0226,-0.0076,0.0,4.75,-52.37,-6.56,345.17,-88.15,23.58
32934,52.40457,-1.516937,143.28,17.15,6,320.52,19 / 21,3769808,2019-09-04 21:09:21:921,0.0732,-0.9426,9.1807,0.0064,-0.0108,9.8066,-0.0312,0.0267,0.0104,3.44,-46.31,-4.87,347.82,-88.03,22.07
32935,52.40457,-1.516937,143.28,17.15,6,320.52,19 / 21,3769908,2019-09-04 21:09:22:021,0.6947,-1.0777,9.8126,0.0077,-0.0085,9.8066,-0.0195,0.0019,-0.0072,1.75,-40.75,-4.25,350.1,-87.85,20.06
32936,52.40457,-1.516937,143.28,17.15,6,320.52,19 / 21,3770008,2019-09-04 21:09:22:121,-0.1717,-0.2831,9.713,-0.0068,0.0029,9.8066,-0.0066,0.008,-0.0102,0.0,-36.25,-6.56,26.54,-87.79,21.44
32937,52.40457,-1.516937,143.28,17.15,6,320.52,19 / 21,3770108,2019-09-04 21:09:22:221,-0.2113,-0.1892,10.5684,-0.0032,0.0008,9.8066,-0.0031,0.0041,-0.0192,-1.62,-33.37,-10.19,38.19,-87.76,22.37
32938,52.40457,-1.516937,143.28,17.15,6,320.52,19 / 21,3770208,2019-09-04 21:09:22:321,-0.4192,-0.3317,9.9762,0.0014,0.0061,9.8066,0.0013,0.0037,0.0046,-1.19,-33.25,-13.56,30.97,-87.78,24.18
32939,52.40457,-1.516937,143.28,17.15,6,320.52,19 / 21,3770307,2019-09-04 21:09:22:420,0.3273,-0.6507,10.1305,0.002,0.0,9.8066,-0.002,0.016,0.01,2.56,-34.37,-17.94,15.53,-87.83,23.9
32940,52.40565,-1.518388,145.48,16.65,6,320.69,20 / 20,3770407,2019-09-04 21:09:22:520,0.1511,-0.345,10.0158,-0.0024,0.0024,9.8066,0.0103,0.0044,-0.0105,7.25,-37.62,-21.56,7.35,-87.83,24.53
32941,52.40565,-1.518388,145.48,16.65,6,320.69,20 / 20,3770508,2019-09-04 21:09:22:621,0.1079,-0.5677,9.7941,-0.0025,0.0051,9.8066,0.0169,-0.011,-0.0001,12.81,-42.37,-21.5,354.52,-87.89,26.63
32942,52.40565,-1.518388,145.48,16.65,6,320.69,20 / 20,3770608,2019-09-04 21:09:22:721,0.3946,-0.1993,9.8231,-0.0024,-0.0029,9.8066,0.0031,-0.0017,0.0003,16.69,-45.31,-18.5,342.72,-87.93,27.22
32943,52.40565,-1.518388,145.48,16.65,6,320.69,20 / 20,3770708,2019-09-04 21:09:22:821,-0.094,-0.1954,10.0207,-0.0037,-0.0013,9.8066,0.0112,0.004,-0.0034,18.13,-46.5,-15.62,338.53,-87.92,28.37
32944,52.40565,-1.518388,145.48,16.65,6,320.69,20 / 20,3770808,2019-09-04 21:09:22:921,-0.3215,-0.447,10.21,-0.0022,-0.0008,9.8066,-0.0027,0.0261,-0.0102,17.56,-46.06,-13.56,337.56,-87.93,31.3
32945,52.40565,-1.518388,145.48,16.65,6,320.69,20 / 20,3770908,2019-09-04 21:09:23:021,0.3923,-0.1719,9.1656,-0.0029,-0.0048,9.8066,0.0027,0.0107,-0.0127,15.75,-44.62,-9.62,333.27,-87.92,33.51
32946,52.40565,-1.518388,145.48,16.65,6,320.69,20 / 20,3771008,2019-09-04 21:09:23:121,0.1747,-0.247,9.3623,0.0008,-0.0056,9.8066,-0.0094,0.0136,-0.0061,13.88,-41.37,-9.19,334.88,-87.85,34.4
32947,52.40565,-1.518388,145.48,16.65,6,320.69,20 / 20,3771108,2019-09-04 21:09:23:221,0.1471,-0.1979,9.7013,0.0054,-0.0017,9.8066,-0.0115,-0.0237,0.0062,13.31,-38.31,-9.44,336.61,-87.75,34.07
32948,52.40565,-1.518388,145.48,16.65,6,320.69,20 / 20,3771207,2019-09-04 21:09:23:320,-0.3651,-0.1041,9.4535,0.008,-0.0057,9.8066,-0.052,0.016,0.0118,15.25,-36.62,-11.31,336.06,-87.66,31.71
32949,52.40565,-1.518388,145.48,16.65,6,320.69,20 / 20,3771308,2019-09-04 21:09:23:421,1.0675,-0.2465,9.929,0.0152,-0.0015,9.8066,-0.0351,0.0221,0.0293,14.88,-35.5,-12.19,334.43,-87.56,27.71
32950,52.40565,-1.518388,145.48,16.65,6,320.69,20 / 20,3771408,2019-09-04 21:09:23:521,0.091,-0.5857,9.716,-0.0027,-0.0016,9.8065,0.0162,0.0234,-0.0005,13.56,-34.94,-14.0,339.69,-87.49,26.25
32951,52.40565,-1.518388,145.48,16.65,6,320.69,20 / 20,3771507,2019-09-04 21:09:23:620,0.0224,0.1002,10.6424,-0.0027,-0.0026,9.8066,0.0053,0.0121,-0.0017,12.38,-34.69,-16.69,351.37,-87.47,27.23
32952,52.40565,-1.518388,145.48,16.65,6,320.69,20 / 20,3771608,2019-09-04 21:09:23:721,-0.1405,-0.0173,9.8722,-0.0057,0.0142,9.8066,0.0444,-0.0114,0.0115,11.25,-36.12,-19.06,358.47,-87.48,28.65
32953,52.40565,-1.518388,145.48,16.65,6,320.69,20 / 20,3771708,2019-09-04 21:09:23:821,-0.8041,0.1213,10.2966,-0.0015,0.0133,9.8065,0.0455,-0.0085,0.0003,8.94,-39.19,-20.31,7.39,-87.74,31.09
32954,52.40565,-1.518388,145.48,16.65,6,320.69,20 / 20,3771807,2019-09-04 21:09:23:920,0.1698,0.096,9.2341,0.0083,0.0042,9.8066,0.0009,-0.0084,0.0233,7.06,-40.44,-19.37,9.3,-87.91,28.85
32955,52.40565,-1.518388,145.48,16.65,6,320.69,20 / 20,3771907,2019-09-04 21:09:24:020,0.3355,-0.2711,9.1904,-0.0013,-0.0108,9.8066,-0.0154,0.0037,0.0075,5.5,-41.06,-21.0,12.87,-87.82,27.9
32956,52.40565,-1.518388,145.48,16.65,6,320.69,20 / 20,3772008,2019-09-04 21:09:24:121,-0.0233,-0.3323,9.5717,-0.0028,-0.0078,9.8066,-0.0179,0.0022,-0.0095,5.13,-44.44,-22.75,15.94,-87.68,27.0
32957,52.40565,-1.518388,145.48,16.65,6,320.69,20 / 20,3772108,2019-09-04 21:09:24:221,0.1047,-0.2075,9.1814,-0.0079,-0.001,9.8066,-0.0138,-0.0031,-0.0156,4.63,-50.0,-20.62,16.6,-87.58,28.38
32958,52.40565,-1.518388,145.48,16.65,6,320.69,20 / 20,3772208,2019-09-04 21:09:24:321,-0.0647,0.0553,9.5529,-0.001,-0.0098,9.8066,-0.0273,-0.0055,-0.0165,6.81,-52.37,-16.25,6.89,-87.54,29.64
32959,52.40565,-1.518388,145.48,16.65,6,320.69,20 / 20,3772308,2019-09-04 21:09:24:421,0.2553,0.1617,9.7713,0.0048,-0.0159,9.8066,-0.0213,-0.0077,-0.0211,6.88,-50.56,-12.12,357.61,-87.27,28.29
32960,52.40565,-1.518388,145.48,16.65,6,320.69,21 / 21,3772407,2019-09-04 21:09:24:520,0.0142,0.5006,10.7609,-0.0038,-0.0094,9.8065,-0.0174,0.0068,-0.0102,4.75,-48.5,-12.06,6.75,-87.08,28.09
32961,52.40565,-1.518388,145.48,16.65,6,320.69,21 / 21,3772508,2019-09-04 21:09:24:621,0.5048,-0.2425,9.8315,-0.0053,0.0021,9.8066,0.0063,0.0057,-0.0017,3.56,-49.06,-11.12,11.2,-87.05,28.77
32962,52.40565,-1.518388,145.48,16.65,6,320.69,21 / 21,3772608,2019-09-04 21:09:24:721,0.0503,0.5938,10.2047,0.0004,0.0068,9.8066,0.025,-0.0048,0.0069,3.31,-49.12,-7.06,9.8,-87.14,29.86
32963,52.40565,-1.518388,145.48,16.65,6,320.69,21 / 21,3772707,2019-09-04 21:09:24:820,0.7555,-0.1476,9.7418,0.0053,0.008,9.8066,0.0316,-0.0088,0.0201,4.44,-44.06,-4.0,333.8,-87.25,28.32
32964,52.40565,-1.518388,145.48,16.65,6,320.69,21 / 21,3772808,2019-09-04 21:09:24:921,-0.3912,0.438,9.1753,-0.0001,0.0059,9.8066,-0.0026,-0.0135,0.0127,4.94,-41.06,-4.31,326.53,-87.32,27.4
32965,52.40565,-1.518388,145.48,16.65,6,320.69,21 / 21,3772907,2019-09-04 21:09:25:020,-0.015,0.0965,9.5826,0.0078,-0.0066,9.8066,-0.0251,0.001,-0.0046,5.06,-38.81,-5.12,334.41,-87.3,25.89
32966,52.40565,-1.518388,145.48,16.65,6,320.69,21 / 21,3773007,2019-09-04 21:09:25:120,-0.1292,0.0096,9.7874,-0.005,-0.0131,9.8066,0.0029,0.0084,-0.0192,6.56,-34.81,-6.19,332.11,-87.11,26.68
32967,52.40565,-1.518388,145.48,16.65,6,320.69,21 / 21,3773108,2019-09-04 21:09:25:221,0.03,0.1013,9.6016,-0.0128,-0.004,9.8066,0.0191,0.0109,-0.0247,9.38,-32.62,-8.94,342.64,-87.09,29.91
32968,52.40565,-1.518388,145.48,16.65,6,320.69,21 / 21,3773207,2019-09-04 21:09:25:320,0.1022,0.3879,9.632,-0.0085,0.0011,9.8066,0.0214,-0.0056,-0.0065,11.75,-31.44,-11.56,346.72,-87.13,32.94
32969,52.40565,-1.518388,145.48,16.65,6,320.69,22 / 22,3773307,2019-09-04 21:09:25:420,-0.3036,0.1558,9.9699,0.0044,-0.0023,9.8066,-0.0105,-0.0061,0.0069,10.88,-35.5,-18.31,2.38,-87.14,33.61
32970,52.40565,-1.518388,145.48,16.65,6,320.69,22 / 22,3773408,2019-09-04 21:09:25:521,-0.3894,0.2604,9.8916,0.0028,-0.0054,9.8066,-0.0262,0.0038,0.0025,7.94,-40.5,-17.62,10.29,-87.11,33.19
32971,52.40565,-1.518388,145.48,16.65,6,320.69,22 / 22,3773508,2019-09-04 21:09:25:621,-0.016,-0.0543,9.9106,0.0063,-0.0081,9.8066,-0.0026,0.0084,0.0012,6.0,-41.37,-16.19,11.83,-87.0,30.9
32972,52.40565,-1.518388,145.48,16.65,6,320.69,22 / 22,3773608,2019-09-04 21:09:25:721,0.2143,0.6399,10.0675,0.0042,0.0008,9.8066,0.0077,0.0104,0.0139,3.0,-44.87,-21.56,24.98,-87.02,30.16
32973,52.40565,-1.518388,145.48,16.65,6,320.69,22 / 22,3773708,2019-09-04 21:09:25:821,-0.2264,0.0641,9.388,0.0002,-0.0099,9.8066,-0.035,-0.002,0.0114,1.0,-55.5,-20.44,30.35,-86.93,28.92
32974,52.40565,-1.518388,145.48,16.65,6,320.69,22 / 22,3773808,2019-09-04 21:09:25:921,0.1684,0.0028,9.6936,-0.013,-0.0151,9.8065,-0.0445,-0.0151,-0.0242,0.0,-56.12,-12.31,35.77,-86.78,26.9
32975,52.40565,-1.518388,145.48,16.65,6,320.69,22 / 22,3773907,2019-09-04 21:09:26:020,0.0826,-0.3464,10.2145,-0.0154,-0.0049,9.8066,0.0035,-0.0184,-0.0491,1.94,-50.69,-5.19,15.48,-86.51,28.4
32976,52.40565,-1.518388,145.48,16.65,6,320.69,22 / 22,3774007,2019-09-04 21:09:26:120,0.397,0.2737,10.2224,0.001,-0.0175,9.8066,0.0164,-0.0033,-0.0469,5.0,-43.56,-1.25,280.92,-86.44,31.44
32977,52.40565,-1.518388,145.48,16.65,6,320.69,22 / 22,3774108,2019-09-04 21:09:26:221,0.5754,0.0016,9.5225,0.0002,-0.0101,9.8066,0.0045,0.0031,-0.022,8.06,-33.75,-0.56,298.54,-86.37,35.05
32978,52.40565,-1.518388,145.48,16.65,6,320.69,22 / 22,3774208,2019-09-04 21:09:26:321,0.6698,0.1075,9.8991,0.0021,-0.0013,9.8066,-0.0002,-0.011,-0.0021,12.81,-22.94,-4.37,318.85,-86.32,35.91
32979,52.40565,-1.518388,145.48,16.65,6,320.69,22 / 22,3774308,2019-09-04 21:09:26:421,0.6669,0.2497,10.621,0.0005,0.005,9.8066,0.018,-0.0224,0.0016,15.25,-19.69,-8.94,334.61,-86.33,35.49
32980,52.40565,-1.518388,145.48,16.65,6,320.69,22 / 22,3774408,2019-09-04 21:09:26:521,0.3038,0.3004,10.4089,-0.0102,0.0063,9.8066,0.0345,-0.0163,-0.0046,17.88,-19.62,-11.94,338.85,-86.39,36.4
32981,52.40565,-1.518388,145.48,16.65,6,320.69,22 / 22,3774507,2019-09-04 21:09:26:620,0.5251,0.3525,9.9595,-0.0118,0.0107,9.8066,0.0368,-0.028,-0.0106,18.44,-21.87,-16.69,351.58,-86.57,38.68
32982,52.40565,-1.518388,145.48,16.65,6,320.69,22 / 22,3774608,2019-09-04 21:09:26:721,0.4767,0.2829,8.597,0.0043,0.0002,9.8066,0.0131,-0.0127,0.0034,17.19,-30.12,-17.37,354.9,-86.69,40.28
32983,52.40565,-1.518388,145.48,16.65,6,320.69,22 / 22,3774708,2019-09-04 21:09:26:821,0.8167,0.6911,9.0891,0.028,-0.012,9.8066,-0.065,-0.0376,0.0067,16.0,-31.75,-10.81,338.06,-86.56,35.71
32984,52.40565,-1.518388,145.48,16.65,6,320.69,22 / 22,3774808,2019-09-04 21:09:26:921,1.0718,0.5454,9.1194,0.0168,-0.0052,9.8066,-0.0678,-0.0176,0.0108,13.13,-26.44,-7.25,326.44,-86.25,31.86
32985,52.40565,-1.518388,145.48,16.65,6,320.69,22 / 22,3774908,2019-09-04 21:09:27:021,1.0949,0.2929,9.9212,0.0065,-0.0049,9.8066,-0.0125,-0.0416,0.0116,10.56,-20.81,-8.87,337.86,-86.12,30.77
32986,52.40565,-1.518388,145.48,16.65,6,320.69,22 / 22,3775007,2019-09-04 21:09:27:120,1.099,-0.0206,9.9982,-0.0008,0.0057,9.8066,0.0214,-0.0469,-0.0028,9.0,-19.81,-12.81,355.17,-86.12,30.29
32987,52.40565,-1.518388,145.48,16.65,6,320.69,22 / 22,3775108,2019-09-04 21:09:27:221,0.5218,0.3667,10.5904,-0.0065,0.0144,9.8066,0.0283,-0.0408,-0.0081,7.5,-20.62,-17.94,8.18,-86.3,31.57
32988,52.40565,-1.518388,145.48,16.65,6,320.69,22 / 22,3775208,2019-09-04 21:09:27:321,0.9728,0.1757,9.5187,0.0033,0.0018,9.8066,0.0139,-0.0375,0.0118,7.44,-24.75,-22.31,16.43,-86.38,32.94
32989,52.40565,-1.518388,145.48,16.65,6,320.69,22 / 22,3775308,2019-09-04 21:09:27:421,0.8526,0.0158,9.0552,0.0027,-0.0046,9.8066,-0.0162,-0.0404,0.007,8.5,-29.94,-24.37,12.03,-86.36,31.67
32990,52.40565,-1.518388,145.48,16.65,6,320.69,21 / 21,3775407,2019-09-04 21:09:27:520,1.1852,-0.1267,10.235,-0.0024,-0.0017,9.8066,-0.0102,-0.0483,0.0147,10.13,-38.5,-22.94,7.73,-86.31,30.46
32991,52.40565,-1.518388,145.48,16.65,6,320.69,21 / 21,3775508,2019-09-04 21:09:27:621,1.4109,0.4876,10.0701,-0.0095,0.0038,9.8066,0.0237,-0.0365,-0.0236,9.75,-41.81,-20.12,6.49,-86.32,32.26
32992,52.40565,-1.518388,145.48,16.65,6,320.69,21 / 21,3775607,2019-09-04 21:09:27:720,1.4139,0.0036,10.0085,-0.01,0.0032,9.8066,0.0244,-0.0512,-0.034,8.5,-43.12,-18.06,10.0,-86.34,35.18
32993,52.40565,-1.518388,145.48,16.65,6,320.69,21 / 21,3775708,2019-09-04 21:09:27:821,1.0297,0.374,9.6659,0.0026,-0.0071,9.8066,-0.0266,-0.0612,0.0006,9.06,-45.56,-15.62,7.62,-86.28,35.73
32994,52.40565,-1.518388,145.48,16.65,6,320.69,21 / 21,3775808,2019-09-04 21:09:27:921,1.1578,0.0657,9.7931,0.015,-0.0041,9.8066,-0.0141,-0.0782,0.0142,7.63,-45.69,-12.12,359.82,-86.22,33.55
32995,52.40565,-1.518388,145.48,16.65,6,320.69,21 / 21,3775908,2019-09-04 21:09:28:021,0.8447,1.4439,10.2845,0.0077,0.0029,9.8066,-0.0097,-0.0456,0.027,6.94,-42.81,-8.94,350.23,-86.2,30.55
32996,52.40565,-1.518388,145.48,16.65,6,320.69,21 / 21,3776008,2019-09-04 21:09:28:121,1.1128,1.5073,9.5425,0.004,-0.0014,9.8066,-0.0244,-0.081,-0.006,6.88,-36.44,-7.62,345.46,-86.2,29.91
32997,52.40565,-1.518388,145.48,16.65,6,320.69,21 / 21,3776108,2019-09-04 21:09:28:221,0.6642,1.3343,9.8054,0.001,-0.0015,9.8066,-0.024,-0.0212,0.0016,8.19,-32.5,-8.56,345.14,-86.17,29.42
32998,52.40565,-1.518388,145.48,16.65,6,320.69,21 / 21,3776209,2019-09-04 21:09:28:322,0.8226,1.725,10.7884,0.0019,-0.0042,9.8066,0.0294,-0.1117,-0.0014,9.81,-29.56,-9.87,342.35,-86.1,29.89
32999,52.40565,-1.518388,145.48,16.65,6,320.69,21 / 21,3776311,2019-09-04 21:09:28:424,1.3735,1.1566,10.278,0.002,-0.0067,9.8066,-0.0053,-0.0604,-0.0274,10.31,-27.37,-11.69,348.23,-86.08,29.44
33000,52.40565,-1.518388,145.48,16.65,6,320.69,21 / 21,3776407,2019-09-04 21:09:28:520,2.0843,0.8012,10.2239,-0.0087,0.0032,9.8066,0.0262,-0.0597,-0.0391,8.88,-25.31,-16.69,4.44,-86.0,31.93
33001,52.40565,-1.518388,145.48,16.65,6,320.69,21 / 21,3776507,2019-09-04 21:09:28:620,1.2973,0.0525,9.236,-0.0142,0.0059,9.8066,0.015,-0.0898,-0.0295,6.69,-27.31,-21.5,17.77,-86.01,34.68
33002,52.40565,-1.518388,145.48,16.65,6,320.69,21 / 21,3776608,2019-09-04 21:09:28:721,1.7603,0.0266,10.4453,-0.0089,-0.0011,9.8066,0.0061,-0.0872,-0.0133,4.56,-33.06,-25.94,27.67,-85.99,36.18
33003,52.40565,-1.518388,145.48,16.65,6,320.69,21 / 21,3776708,2019-09-04 21:09:28:821,1.7635,-0.3652,10.378,-0.0011,0.0035,9.8066,0.0204,-0.0853,0.0025,2.56,-42.62,-26.37,34.68,-85.97,37.43
33004,52.40565,-1.518388,145.48,16.65,6,320.69,21 / 21,3776808,2019-09-04 21:09:28:921,1.4757,-0.3463,9.7459,0.0107,0.0058,9.8066,0.0246,-0.0931,0.0349,1.0,-47.37,-24.94,39.29,-86.06,36.82
33005,52.40565,-1.518388,145.48,16.65,6,320.69,21 / 21,3776908,2019-09-04 21:09:29:021,1.7776,-0.6362,10.0773,0.0136,0.0064,9.8066,0.0225,-0.1131,0.0196,0.69,-51.44,-21.94,37.83,-86.29,35.11
33006,52.40565,-1.518388,145.48,16.65,6,320.69,21 / 21,3777008,2019-09-04 21:09:29:121,2.3142,-0.7385,9.7963,-0.0042,0.007,9.8066,-0.0016,-0.0873,-0.007,2.44,-55.44,-14.37,33.76,-86.41,34.06
33007,52.40565,-1.518388,145.48,16.65,6,320.69,21 / 21,3777108,2019-09-04 21:09:29:221,2.0729,1.2661,9.5704,0.0047,-0.0012,9.8066,-0.0149,-0.1074,0.0038,3.5,-53.06,-7.5,6.03,-86.43,33.3
33008,52.40565,-1.518388,145.48,16.65,6,320.69,21 / 21,3777208,2019-09-04 21:09:29:321,0.1344,1.833,9.1919,0.0103,0.0042,9.8066,-0.0234,-0.0974,-0.0043,3.94,-45.25,-2.12,292.36,-86.35,32.23
33009,52.40565,-1.518388,145.48,16.65,6,320.69,21 / 21,3777308,2019-09-04 21:09:29:421,-0.0404,2.1052,9.9129,0.0073,0.0013,9.8066,-0.0108,-0.1183,-0.0187,5.69,-34.19,-2.06,301.59,-86.22,30.79
33010,52.40565,-1.518388,145.48,16.65,6,320.69,22 / 22,3777408,2019-09-04 21:09:29:521,0.3468,1.9268,9.0645,-0.0068,-0.0024,9.8066,-0.0025,-0.1217,-0.029,6.75,-28.81,-4.19,323.46,-86.21,31.92
33011,52.40565,-1.518388,145.48,16.65,6,320.69,22 / 22,3777507,2019-09-04 21:09:29:620,2.1076,1.3533,9.1434,0.0059,-0.0075,9.8066,-0.0246,-0.1148,-0.0146,6.88,-24.37,-8.62,353.67,-86.16,32.45
33012,52.40565,-1.518388,145.48,16.65,6,320.69,22 / 22,3777608,2019-09-04 21:09:29:721,2.5804,0.5959,9.9026,-0.0091,-0.0143,9.8066,-0.0076,-0.1122,-0.0451,4.44,-23.94,-13.87,18.98,-85.84,32.64
33013,52.40565,-1.518388,145.48,16.65,6,320.69,22 / 22,3777708,2019-09-04 21:09:29:821,2.6931,-0.4201,10.1009,-0.0076,0.0026,9.8066,0.015,-0.1197,-0.0253,2.75,-26.44,-16.44,26.42,-85.77,33.97
33014,52.40565,-1.518388,145.48,16.65,6,320.69,22 / 22,3777808,2019-09-04 21:09:29:921,1.562,0.106,11.0919,0.003,0.0188,9.8066,0.0432,-0.1055,-0.0211,1.0,-27.69,-17.31,36.29,-85.87,35.56
33015,52.40565,-1.518388,145.48,16.65,6,320.69,22 / 22,3777908,2019-09-04 21:09:30:021,2.1005,-0.2672,10.1042,0.0022,0.0128,9.8066,0.0355,-0.125,-0.009,-0.25,-30.5,-18.87,41.95,-86.1,37.76
33016,52.40565,-1.518388,145.48,16.65,6,320.69,22 / 22,3778008,2019-09-04 21:09:30:121,2.1937,-0.5787,9.4541,0.0022,0.001,9.8066,-0.0101,-0.1039,-0.0001,-0.56,-32.37,-20.0,45.23,-86.21,38.0
33017,52.40565,-1.518388,145.48,16.65,6,320.69,22 / 22,3778107,2019-09-04 21:09:30:220,2.7273,-0.5012,10.0003,-0.0022,-0.0037,9.8066,-0.0126,-0.1116,-0.0132,1.19,-36.44,-20.94,39.03,-86.18,37.58
33018,52.40565,-1.518388,145.48,16.65,6,320.69,22 / 22,3778208,2019-09-04 21:09:30:321,2.0095,-0.4768,9.7248,-0.0061,0.004,9.8066,0.0084,-0.1013,-0.0215,1.88,-39.94,-19.12,37.88,-86.13,38.85
33019,52.40565,-1.518388,145.48,16.65,6,320.69,22 / 22,3778308,2019-09-04 21:09:30:421,1.7238,0.1902,9.599,-0.0092,0.0034,9.8066,0.0151,-0.0818,-0.0202,2.13,-40.12,-15.62,39.41,-86.1,40.33
33020,52.40565,-1.518388,145.48,16.65,6,320.69,20 / 21,3778407,2019-09-04 21:09:30:520,2.1816,-0.7546,9.5239,-0.0005,-0.0014,9.8066,0.0068,-0.1101,-0.0091,2.13,-36.56,-12.87,39.0,-86.06,40.69
33021,52.40565,-1.518388,145.48,16.65,6,320.69,20 / 21,3778507,2019-09-04 21:09:30:620,1.6577,0.442,9.234,-0.0057,0.0045,9.8066,0.0225,-0.1167,0.0045,2.88,-32.87,-14.12,34.6,-86.07,41.48
33022,52.40565,-1.518388,145.48,16.65,6,320.69,20 / 21,3778607,2019-09-04 21:09:30:720,2.1266,0.6918,8.8859,0.005,-0.0001,9.8066,-0.0003,-0.1189,0.0012,5.06,-36.0,-17.0,28.97,-86.1,41.47
33023,52.40565,-1.518388,145.48,16.65,6,320.69,20 / 21,3778708,2019-09-04 21:09:30:821,1.4908,1.3293,8.7613,0.0086,-0.0175,9.8066,-0.0608,-0.1078,-0.0101,6.5,-37.69,-14.62,16.73,-86.01,39.07
