,GPS LATITUDE (degrees),GPS LONGITUDE (degrees), GPS ALTITUDE (m),GPS SPEED (Kmh),GPS ACCURACY (m),GPS ORIENTATION (Â°), SATELLITES IN RANGE, TIME SINCE START (ms), DATE (YYYY-MO-DD HH-MI-SS_SSS),ACCELEROMETER X (m/s²) , ACCELEROMETER Y (m/s²), ACCELEROMETER Z (m/s²), GRAVITY X (m/s²), GRAVITY Y (m/s²), GRAVITY Z (m/s²), GYROSCOPE Yaw (rad/s), GYROSCOPE Pitch (rad/s), GYROSCOPE Roll (rad/s)
33520,46.953865,-1.35519,88.51,34.23,11.792,166.1,0 / 18,3352014,2019-08-18 21:47:01:126,2.6497,-0.7563,9.3758,2.6774,-0.8346,9.3971,0.0137,0.0022,0.0015
33521,46.953865,-1.35519,88.51,34.23,11.792,166.1,0 / 18,3352114,2019-08-18 21:47:01:226,2.6676,-0.8383,9.0855,2.6672,-0.8315,9.4003,-0.0002,0.015,0.0026
33522,46.953865,-1.35519,88.51,34.23,11.792,166.1,0 / 18,3352214,2019-08-18 21:47:01:326,2.6209,-0.5696,9.6571,2.6645,-0.8359,9.4007,-0.0076,0.0032,0.0015
33523,46.953865,-1.35519,88.51,34.23,11.792,166.1,0 / 18,3352314,2019-08-18 21:47:01:426,2.7963,-0.9886,9.872,2.6695,-0.844,9.3985,-0.0076,-0.0063,0.0004
33524,46.953865,-1.35519,88.51,34.23,11.792,166.1,0 / 18,3352415,2019-08-18 21:47:01:527,2.6407,-1.1358,9.6164,2.6824,-0.8534,9.394,0.0062,0.0,-0.0006
33525,46.953865,-1.35519,88.51,34.23,11.792,166.1,0 / 18,3352514,2019-08-18 21:47:01:626,2.5772,-0.8084,8.9921,2.6904,-0.854,9.3916,0.0051,0.0022,0.0015
33526,46.953865,-1.35519,88.51,34.23,11.792,166.1,0 / 18,3352614,2019-08-18 21:47:01:726,2.755,-1.219,9.3022,2.7053,-0.8812,9.3848,-0.0066,0.0022,0.0036
33527,46.953865,-1.35519,88.51,34.23,11.792,166.1,0 / 18,3352714,2019-08-18 21:47:01:826,2.5892,-0.9053,9.2447,2.7107,-0.8872,9.3827,0.0019,0.0107,-0.0006
33528,46.953865,-1.35519,88.51,34.23,11.792,166.1,0 / 18,3352814,2019-08-18 21:47:01:926,2.6592,-0.706,9.2681,2.7061,-0.8883,9.3839,-0.0023,-0.001,0.0026
33529,46.953865,-1.35519,88.51,34.23,11.792,166.1,0 / 18,3352914,2019-08-18 21:47:02:026,2.7987,-0.6959,9.8319,2.709,-0.8864,9.3833,0.0051,-0.0074,-0.0006
33530,46.953865,-1.35519,88.51,34.23,11.792,166.1,0 / 18,3353015,2019-08-18 21:47:02:127,2.8843,-0.9317,9.9654,2.7091,-0.8864,9.3833,-0.0034,0.0043,0.0026
33531,46.953865,-1.35519,88.51,34.23,11.792,166.1,0 / 18,3353114,2019-08-18 21:47:02:226,2.5324,-0.9586,9.3208,2.6969,-0.8973,9.3857,-0.014,0.015,0.0047
33532,46.953865,-1.35519,88.51,34.23,11.792,166.1,0 / 18,3353214,2019-08-18 21:47:02:326,2.4767,-1.219,9.3201,2.6885,-0.9018,9.3877,-0.0002,0.0075,0.0004
33533,46.953865,-1.35519,88.51,34.23,11.792,166.1,0 / 18,3353314,2019-08-18 21:47:02:426,2.5779,-1.4237,9.6871,2.695,-0.8911,9.3869,0.0201,-0.0074,-0.0017
33534,46.953865,-1.35519,88.51,34.23,11.792,166.1,0 / 18,3353414,2019-08-18 21:47:02:526,2.5695,-0.6264,9.4243,2.6904,-0.8839,9.3889,0.0019,0.0054,0.0058
33535,46.953865,-1.35519,88.51,34.23,11.792,166.1,0 / 18,3353514,2019-08-18 21:47:02:626,2.6317,-0.6432,9.4399,2.679,-0.8824,9.3923,0.0009,0.0128,0.01
33536,46.953865,-1.35519,88.51,34.23,11.792,166.1,0 / 18,3353614,2019-08-18 21:47:02:726,2.8771,-0.7659,9.8894,2.6668,-0.8695,9.3969,0.0083,0.0043,0.0121
33537,46.953865,-1.35519,88.51,34.23,11.792,166.1,0 / 18,3353715,2019-08-18 21:47:02:827,2.5455,-0.8838,9.4907,2.65,-0.8329,9.405,0.0147,-0.0021,0.0079
33538,46.953865,-1.35519,88.51,34.23,11.792,166.1,0 / 18,3353815,2019-08-18 21:47:02:927,2.5653,-0.5384,9.4512,2.6299,-0.7632,9.4166,-0.0066,-0.0032,0.0121
33539,46.953865,-1.35519,88.51,34.23,11.792,166.1,0 / 18,3353914,2019-08-18 21:47:03:026,2.4719,-0.6791,9.4261,2.6213,-0.7345,9.4212,-0.0013,-0.0063,0.0079
33540,46.953865,-1.35519,88.51,34.23,11.792,166.1,0 / 18,3354014,2019-08-18 21:47:03:126,2.6263,-0.9401,9.7463,2.6165,-0.7274,9.4231,-0.0002,0.0054,0.0047
33541,46.953865,-1.35519,88.51,34.23,11.792,166.1,0 / 18,3354114,2019-08-18 21:47:03:226,2.6269,-0.794,9.1454,2.6115,-0.7137,9.4256,-0.0023,0.0022,0.0047
33542,46.953865,-1.35519,88.51,34.23,11.792,166.1,0 / 18,3354214,2019-08-18 21:47:03:326,2.5078,-0.4966,9.3309,2.6145,-0.7316,9.4234,-0.0055,-0.001,0.0036
33543,46.953865,-1.35519,88.51,34.23,11.792,166.1,0 / 18,3354314,2019-08-18 21:47:03:426,2.5946,-0.7779,9.2106,2.6083,-0.7393,9.4245,-0.0023,0.0096,0.0026
33544,46.953865,-1.35519,88.51,34.23,11.792,166.1,0 / 18,3354414,2019-08-18 21:47:03:526,2.6922,-0.8682,9.638,2.5953,-0.7461,9.4275,0.0009,0.0096,0.0026
33545,46.953865,-1.35519,88.51,34.23,11.792,166.1,0 / 18,3354514,2019-08-18 21:47:03:626,2.3318,-1.2334,9.8666,2.5842,-0.7752,9.4282,0.0009,-0.0117,-0.0028
33546,46.953865,-1.35519,88.51,34.23,11.792,166.1,0 / 18,3354614,2019-08-18 21:47:03:726,2.515,-1.2346,9.6027,2.5862,-0.7838,9.427,0.0062,0.0043,0.0004
33547,46.953865,-1.35519,88.51,34.23,11.792,166.1,0 / 18,3354714,2019-08-18 21:47:03:826,2.1343,-0.8078,8.9772,2.5693,-0.7885,9.4312,0.0083,0.0171,0.0004
33548,46.953865,-1.35519,88.51,34.23,11.792,166.1,0 / 18,3354814,2019-08-18 21:47:03:926,2.6706,-0.6073,9.1795,2.5547,-0.8004,9.4342,-0.0087,0.0064,0.0026
33549,46.953865,-1.35519,88.51,34.23,11.792,166.1,0 / 18,3354914,2019-08-18 21:47:04:026,2.6347,-0.8491,9.6889,2.5376,-0.8252,9.4366,-0.0023,-0.0021,-0.0028
33550,46.953865,-1.35519,88.51,34.23,11.792,166.1,0 / 18,3355014,2019-08-18 21:47:04:126,2.907,-1.2723,9.7595,2.5333,-0.8437,9.4361,0.003,-0.0053,-0.006
33551,46.953865,-1.35519,88.51,34.23,11.792,166.1,0 / 18,3355114,2019-08-18 21:47:04:226,2.7406,-1.5195,9.6494,2.5354,-0.8588,9.4342,-0.0098,0.0022,-0.0113
33552,46.953865,-1.35519,88.51,34.23,11.792,166.1,0 / 18,3355215,2019-08-18 21:47:04:327,2.5844,-1.3166,9.2687,2.546,-0.8846,9.429,-0.0066,-0.001,-0.0188
33553,46.953865,-1.35519,88.51,34.23,11.792,166.1,Aug-18,3355314,2019-08-18 21:47:04:426,2.4378,-1.5249,9.1424,2.5519,-0.9177,9.4242,-0.0119,0.0064,-0.0166
33554,46.953865,-1.35519,88.51,34.23,11.792,166.1,Aug-18,3355414,2019-08-18 21:47:04:526,2.907,-1.5775,9.3327,2.5613,-0.9411,9.4194,-0.0055,0.0011,-0.0188
33555,46.953865,-1.35519,88.51,34.23,11.792,166.1,Aug-18,3355515,2019-08-18 21:47:04:627,2.9711,-1.4249,9.2094,2.5667,-0.9652,9.4154,0.003,0.0086,-0.0155
33556,46.953865,-1.35519,88.51,34.23,11.792,166.1,Aug-18,3355614,2019-08-18 21:47:04:726,2.8616,-1.4836,9.4704,2.6111,-1.0779,9.391,0.0115,0.0054,-0.0102
33557,46.953865,-1.35519,88.51,34.23,11.792,166.1,Aug-18,3355714,2019-08-18 21:47:04:826,2.7981,-1.4494,10.0917,2.6352,-1.1069,9.3809,0.0243,-0.0053,-0.0081
33558,46.953865,-1.35519,88.51,34.23,11.792,166.1,Aug-18,3355814,2019-08-18 21:47:04:926,2.4091,-1.0771,9.6446,2.64,-1.0859,9.382,0.019,0.0043,-0.0038
33559,46.953865,-1.35519,88.51,34.23,11.792,166.1,Aug-18,3355914,2019-08-18 21:47:05:026,2.4444,-0.821,8.8288,2.6267,-1.0815,9.3862,-0.0045,0.015,0.0026
33560,46.953865,-1.35519,88.51,34.23,11.792,166.1,Aug-18,3356014,2019-08-18 21:47:05:126,2.603,-0.6689,9.2567,2.6225,-1.0761,9.388,-0.0066,0.0022,0.0026
33561,46.953865,-1.35519,88.51,34.23,11.792,166.1,Aug-18,3356114,2019-08-18 21:47:05:226,2.8628,-0.8515,9.468,2.6279,-1.0741,9.3867,-0.0045,-0.0042,0.0015
33562,46.953865,-1.35519,88.51,34.23,11.792,166.1,Aug-18,3356214,2019-08-18 21:47:05:326,2.7299,-0.8676,9.9408,2.6269,-1.0728,9.3872,-0.0087,0.0032,0.0058
33563,46.951183,-1.354257,87.74,35.64,12.864,167.8,0 / 18,3356314,2019-08-18 21:47:05:426,2.4115,-1.1484,9.3124,2.6269,-1.0605,9.3886,-0.0023,0.0043,0.0036
33564,46.951183,-1.354257,87.74,35.64,12.864,167.8,0 / 18,3356415,2019-08-18 21:47:05:527,2.6994,-0.9796,9.2118,2.6321,-1.0136,9.3923,0.0019,0.0022,0.0015
33565,46.951183,-1.354257,87.74,35.64,12.864,167.8,0 / 18,3356514,2019-08-18 21:47:05:626,2.4306,-0.7461,9.0323,2.6323,-0.9965,9.3941,0.0041,-0.0053,0.0015
33566,46.951183,-1.354257,87.74,35.64,12.864,167.8,0 / 18,3356616,2019-08-18 21:47:05:728,2.7903,-0.9443,9.7745,2.6383,-0.995,9.3925,-0.0045,-0.0063,0.0026
33567,46.951183,-1.354257,87.74,35.64,12.864,167.8,0 / 18,3356715,2019-08-18 21:47:05:827,2.6185,-0.8431,9.6739,2.6245,-0.9928,9.3966,-0.0023,0.015,0.0047
33568,46.951183,-1.354257,87.74,35.64,12.864,167.8,0 / 18,3356814,2019-08-18 21:47:05:926,2.4851,-0.9766,9.2154,2.6079,-0.9959,9.4009,-0.0045,0.0213,0.0047
33569,46.951183,-1.354257,87.74,35.64,12.864,167.8,0 / 18,3356914,2019-08-18 21:47:06:026,2.4354,-1.0748,9.4105,2.5949,-0.9919,9.4049,0.0094,0.0075,-0.0017
33570,46.951183,-1.354257,87.74,35.64,12.864,167.8,0 / 18,3357015,2019-08-18 21:47:06:127,2.3785,-1.213,9.3543,2.6044,-0.9714,9.4045,0.0158,-0.0149,-0.0049
33571,46.951183,-1.354257,87.74,35.64,12.864,167.8,0 / 18,3357114,2019-08-18 21:47:06:226,2.7155,-0.8156,9.5817,2.6017,-0.9703,9.4053,-0.0055,0.0043,0.0004
33572,46.951183,-1.354257,87.74,35.64,12.864,167.8,0 / 18,3357215,2019-08-18 21:47:06:327,2.4821,-0.8479,9.5105,2.5905,-0.9781,9.4076,-0.014,0.0107,0.0036
33573,46.951183,-1.354257,87.74,35.64,12.864,167.8,0 / 18,3357314,2019-08-18 21:47:06:426,2.4671,-0.7509,9.4333,2.583,-0.9881,9.4086,-0.0066,0.0022,0.0004
33574,46.951183,-1.354257,87.74,35.64,12.864,167.8,0 / 18,3357415,2019-08-18 21:47:06:527,2.4312,-1.0185,9.389,2.5845,-0.9907,9.4079,0.0041,-0.0032,-0.0006
33575,46.951183,-1.354257,87.74,35.64,12.864,167.8,0 / 18,3357515,2019-08-18 21:47:06:627,2.5473,-1.0275,9.2477,2.5914,-0.9933,9.4058,0.0051,-0.0021,0.0015
33576,46.951183,-1.354257,87.74,35.64,12.864,167.8,0 / 18,3357615,2019-08-18 21:47:06:727,2.7347,-0.7821,9.2986,2.6079,-0.9741,9.4032,-0.0013,-0.0074,0.0047
33577,46.951183,-1.354257,87.74,35.64,12.864,167.8,0 / 18,3357714,2019-08-18 21:47:06:826,2.9256,-0.548,9.5799,2.6149,-0.9665,9.4021,0.0073,-0.0042,0.0026
33578,46.951183,-1.354257,87.74,35.64,12.864,167.8,0 / 18,3357815,2019-08-18 21:47:06:927,2.919,-0.727,10.0246,2.6159,-0.9509,9.4034,0.0147,-0.0021,0.0026
33579,46.951183,-1.354257,87.74,35.64,12.864,167.8,0 / 18,3357914,2019-08-18 21:47:07:026,2.7095,-0.8832,9.7122,2.6214,-0.9091,9.406,0.0019,0.0128,0.0079
33580,46.951183,-1.354257,87.74,35.64,12.864,167.8,0 / 18,3358014,2019-08-18 21:47:07:126,2.5838,-0.8305,9.237,2.618,-0.9093,9.4069,-0.0034,0.0054,0.0058
33581,46.951183,-1.354257,87.74,35.64,12.864,167.8,0 / 18,3358114,2019-08-18 21:47:07:226,2.9166,-0.9736,9.2651,2.6243,-0.8997,9.4061,0.0073,-0.0042,-0.0006
33582,46.951183,-1.354257,87.74,35.64,12.864,167.8,0 / 18,3358215,2019-08-18 21:47:07:327,2.77,-0.7216,9.614,2.6307,-0.8869,9.4055,0.0158,-0.0063,-0.0028
33583,46.951183,-1.354257,87.74,35.64,12.864,167.8,0 / 18,3358314,2019-08-18 21:47:07:426,3.1674,-0.9664,10.3736,2.6452,-0.8713,9.4029,0.0073,-0.0053,-0.0017
33584,46.951183,-1.354257,87.74,35.64,12.864,167.8,0 / 18,3358415,2019-08-18 21:47:07:527,2.6461,-1.1023,9.8217,2.6433,-0.8806,9.4025,-0.0151,0.0064,0.0047
33585,46.951183,-1.354257,87.74,35.64,12.864,167.8,0 / 18,3358515,2019-08-18 21:47:07:627,2.7317,-1.061,8.5295,2.6348,-0.898,9.4033,-0.0151,0.016,0.0026
33586,46.951183,-1.354257,87.74,35.64,12.864,167.8,0 / 18,3358615,2019-08-18 21:47:07:727,2.533,-0.7629,8.6402,2.6376,-0.9056,9.4018,-0.0098,-0.0021,0.0004
33587,46.951183,-1.354257,87.74,35.64,12.864,167.8,0 / 18,3358715,2019-08-18 21:47:07:827,2.7227,-0.897,9.1777,2.6505,-0.9082,9.3979,-0.0002,-0.0021,-0.0038
33588,46.951183,-1.354257,87.74,35.64,12.864,167.8,0 / 18,3358815,2019-08-18 21:47:07:927,2.9699,-0.7545,9.7451,2.6585,-0.9052,9.3959,0.0094,-0.001,-0.006
33589,46.951183,-1.354257,87.74,35.64,12.864,167.8,0 / 18,3358915,2019-08-18 21:47:08:027,3.0375,-1.0406,9.9851,2.6677,-0.9069,9.3932,-0.0023,0.0022,-0.0006
33590,46.951183,-1.354257,87.74,35.64,12.864,167.8,0 / 18,3359014,2019-08-18 21:47:08:126,2.6018,-1.3052,9.7092,2.6659,-0.9139,9.393,-0.0002,0.0086,0.0004
33591,46.951183,-1.354257,87.74,35.64,12.864,167.8,0 / 18,3359115,2019-08-18 21:47:08:227,2.4797,-0.9251,8.9527,2.6593,-0.9107,9.3952,0.0126,0.0118,0.0026
33592,46.951183,-1.354257,87.74,35.64,12.864,167.8,0 / 18,3359214,2019-08-18 21:47:08:326,2.7125,-0.8748,8.8982,2.6556,-0.9131,9.396,-0.0098,0.0054,0.009
33593,46.951183,-1.354257,87.74,35.64,12.864,167.8,0 / 18,3359314,2019-08-18 21:47:08:426,3.0519,-0.8431,9.5398,2.6713,-0.8978,9.393,0.003,-0.0042,0.0015
33594,46.951183,-1.354257,87.74,35.64,12.864,167.8,0 / 18,3359415,2019-08-18 21:47:08:527,2.6461,-1.2447,10.2683,2.6804,-0.8779,9.3923,0.0211,-0.0127,-0.0017
33595,46.951183,-1.354257,87.74,35.64,12.864,167.8,0 / 18,3359514,2019-08-18 21:47:08:626,2.6072,-0.7025,9.5512,2.6797,-0.8617,9.394,0.0062,0.0075,0.0058
33596,46.951183,-1.354257,87.74,35.64,12.864,167.8,0 / 18,3359615,2019-08-18 21:47:08:727,2.7981,-0.8533,9.1328,2.674,-0.8616,9.3956,-0.0013,0.0064,0.0015
33597,46.951183,-1.354257,87.74,35.64,12.864,167.8,0 / 18,3359716,2019-08-18 21:47:08:828,2.9986,-0.651,9.1095,2.6717,-0.8591,9.3965,-0.0023,0.0064,0.0015
33598,46.951183,-1.354257,87.74,35.64,12.864,167.8,0 / 18,3359814,2019-08-18 21:47:08:926,2.8053,-0.7551,9.4937,2.6749,-0.8627,9.3953,-0.0087,-0.0032,-0.0006
33599,46.951183,-1.354257,87.74,35.64,12.864,167.8,0 / 18,3359914,2019-08-18 21:47:09:026,2.679,-1.295,9.2537,2.6811,-0.8759,9.3923,-0.0034,0.0,-0.0081
33600,46.951183,-1.354257,87.74,35.64,12.864,167.8,0 / 18,3360014,2019-08-18 21:47:09:126,2.6167,-1.0933,9.3962,2.6872,-0.8842,9.3898,-0.0023,-0.0063,-0.0102
33601,46.951183,-1.354257,87.74,35.64,12.864,167.8,0 / 18,3360115,2019-08-18 21:47:09:227,2.7131,-1.0293,9.0652,2.6894,-0.9029,9.3874,-0.0087,0.0064,-0.0028
33602,46.951183,-1.354257,87.74,35.64,12.864,167.8,0 / 18,3360215,2019-08-18 21:47:09:327,2.94,-0.9479,9.3944,2.7121,-0.9852,9.3725,0.0115,0.0043,-0.0081
33603,46.951183,-1.354257,87.74,35.64,12.864,167.8,0 / 18,3360316,2019-08-18 21:47:09:428,2.7496,-1.237,9.4895,2.7432,-1.0625,9.355,0.0019,-0.0053,-0.0081
33604,46.951183,-1.354257,87.74,35.64,12.864,167.8,0 / 18,3360415,2019-08-18 21:47:09:527,2.5665,-1.0807,9.3519,2.7397,-1.1078,9.3508,-0.0236,0.0075,-0.0028
33605,46.951183,-1.354257,87.74,35.64,12.864,167.8,0 / 18,3360516,2019-08-18 21:47:09:628,2.4456,-1.0532,8.3289,2.7274,-1.1173,9.3532,-0.0055,0.0182,-0.006
33606,46.951183,-1.354257,87.74,35.64,12.864,167.8,0 / 18,3360615,2019-08-18 21:47:09:727,2.8903,-1.2483,8.9042,2.7253,-1.1076,9.355,0.0169,0.0043,-0.0113
33607,46.951183,-1.354257,87.74,35.64,12.864,167.8,0 / 18,3360714,2019-08-18 21:47:09:826,3.3332,-1.6128,9.7314,2.7366,-1.1035,9.3522,0.003,-0.0096,-0.006
33608,46.951183,-1.354257,87.74,35.64,12.864,167.8,0 / 18,3360814,2019-08-18 21:47:09:926,2.7119,-1.0909,10.0749,2.741,-1.1122,9.3499,-0.0066,-0.0021,-0.0038
33609,46.951183,-1.354257,87.74,35.64,12.864,167.8,0 / 18,3360914,2019-08-18 21:47:10:026,2.4498,-1.0676,9.0424,2.7352,-1.1131,9.3515,-0.0013,0.0128,-0.0028
33610,46.951183,-1.354257,87.74,35.64,12.864,167.8,0 / 18,3361015,2019-08-18 21:47:10:127,2.8251,-0.9479,8.9107,2.7227,-1.1126,9.3552,-0.0023,0.0107,-0.0017
33611,46.951183,-1.354257,87.74,35.64,12.864,167.8,0 / 18,3361115,2019-08-18 21:47:10:227,2.9262,-1.1167,9.3734,2.7258,-1.1162,9.3539,0.0009,0.0032,-0.0017
33612,46.951183,-1.354257,87.74,35.64,12.864,167.8,0 / 18,3361215,2019-08-18 21:47:10:327,2.7999,-1.2974,9.547,2.736,-1.1188,9.3506,0.0019,-0.0096,-0.0049
33613,46.951183,-1.354257,87.74,35.64,12.864,167.8,0 / 18,3361314,2019-08-18 21:47:10:426,2.4162,-1.0293,9.4022,2.7323,-1.1162,9.352,-0.0045,-0.0074,-0.0049
33614,46.951183,-1.354257,87.74,35.64,12.864,167.8,0 / 18,3361415,2019-08-18 21:47:10:527,2.6664,-1.1843,9.1711,2.7442,-1.126,9.3473,0.0009,0.0032,-0.006
33615,46.951183,-1.354257,87.74,35.64,12.864,167.8,0 / 18,3361516,2019-08-18 21:47:10:628,3.1704,-1.2753,9.8726,2.7471,-1.1252,9.3465,-0.0055,0.0064,-0.007
33616,46.951183,-1.354257,87.74,35.64,12.864,167.8,0 / 18,3361614,2019-08-18 21:47:10:726,2.8394,-1.4183,9.2711,2.7377,-1.1412,9.3474,-0.0108,0.0107,-0.007
33617,46.951183,-1.354257,87.74,35.64,12.864,167.8,0 / 18,3361714,2019-08-18 21:47:10:826,2.6347,-1.0574,9.0251,2.7409,-1.1541,9.3448,-0.0162,-0.0042,-0.0092
33618,46.951183,-1.354257,87.74,35.64,12.864,167.8,0 / 18,3361814,2019-08-18 21:47:10:926,3.0741,-1.2651,9.5147,2.7406,-1.1524,9.3451,0.0115,0.0022,-0.0166
33619,46.951183,-1.354257,87.74,35.64,12.864,167.8,0 / 18,3361914,2019-08-18 21:47:11:026,3.2249,-1.5081,9.7834,2.748,-1.1436,9.344,0.0105,0.0011,-0.0145
33620,46.951183,-1.354257,87.74,35.64,12.864,167.8,0 / 18,3362014,2019-08-18 21:47:11:126,3.0693,-1.7116,9.9636,2.746,-1.1788,9.3403,0.0009,0.0128,-0.0102
33621,46.951183,-1.354257,87.74,35.64,12.864,167.8,0 / 18,3362115,2019-08-18 21:47:11:227,2.4845,-1.362,9.3429,2.7398,-1.1832,9.3415,-0.0002,0.0054,-0.0102
33622,46.951183,-1.354257,87.74,35.64,12.864,167.8,0 / 18,3362215,2019-08-18 21:47:11:327,2.4887,-1.228,9.3178,2.7287,-1.1798,9.3452,0.0073,0.0064,-0.006
33623,46.951183,-1.354257,87.74,35.64,12.864,167.8,0 / 18,3362314,2019-08-18 21:47:11:426,2.6796,-1.1969,9.6392,2.7164,-1.1755,9.3493,0.0062,0.0118,-0.0006
33624,46.951183,-1.354257,87.74,35.64,12.864,167.8,0 / 18,3362414,2019-08-18 21:47:11:526,2.6994,-1.3722,9.8595,2.7033,-1.1649,9.3545,0.0105,-0.001,-0.0028
33625,46.951183,-1.354257,87.74,35.64,12.864,167.8,0 / 18,3362514,2019-08-18 21:47:11:626,2.2893,-0.9221,8.9706,2.7018,-1.147,9.3571,0.0243,-0.0032,-0.006
33626,46.951183,-1.354257,87.74,35.64,12.864,167.8,0 / 18,3362615,2019-08-18 21:47:11:727,2.5587,-0.7066,8.9054,2.6677,-1.0952,9.3731,0.0073,0.015,-0.0006
33627,46.951183,-1.354257,87.74,35.64,12.864,167.8,0 / 18,3362716,2019-08-18 21:47:11:828,2.9328,-0.9,9.641,2.6642,-1.0931,9.3743,-0.0076,0.0011,-0.0017
33628,46.951183,-1.354257,87.74,35.64,12.864,167.8,0 / 18,3362815,2019-08-18 21:47:11:927,2.4073,-1.0083,9.653,2.6688,-1.0881,9.3736,0.0009,-0.0085,-0.0049
33629,46.951183,-1.354257,87.74,35.64,12.864,167.8,0 / 18,3362914,2019-08-18 21:47:12:026,2.5132,-0.976,9.1131,2.6681,-1.0762,9.3752,0.0126,0.0054,-0.006
33630,46.951183,-1.354257,87.74,35.64,12.864,167.8,0 / 18,3363015,2019-08-18 21:47:12:127,2.8532,-0.7449,9.6667,2.6717,-1.0681,9.3751,-0.0013,-0.0085,-0.0038
33631,46.951183,-1.354257,87.74,35.64,12.864,167.8,0 / 18,3363115,2019-08-18 21:47:12:227,2.937,-1.2034,9.9019,2.6733,-1.0512,9.3765,0.0126,0.0022,-0.0017
33632,46.951183,-1.354257,87.74,35.64,12.864,167.8,0 / 18,3363215,2019-08-18 21:47:12:327,2.6263,-0.9951,9.3022,2.6634,-1.0426,9.3803,0.0041,0.0096,0.0026
33633,46.951183,-1.354257,87.74,35.64,12.864,167.8,0 / 18,3363314,2019-08-18 21:47:12:426,2.6395,-0.6911,9.2405,2.6628,-1.0437,9.3803,-0.0119,-0.0021,0.0058
33634,46.951183,-1.354257,87.74,35.64,12.864,167.8,0 / 18,3363415,2019-08-18 21:47:12:527,2.7173,-0.5151,9.3914,2.661,-1.0417,9.3811,-0.0045,0.0022,0.0036
33635,46.951183,-1.354257,87.74,35.64,12.864,167.8,0 / 18,3363514,2019-08-18 21:47:12:626,2.9813,-1.0406,9.957,2.6682,-0.9956,9.384,-0.0098,-0.0096,0.0058
33636,46.951183,-1.354257,87.74,35.64,12.864,167.8,0 / 18,3363614,2019-08-18 21:47:12:726,2.7101,-0.8587,9.6314,2.6697,-0.9422,9.3891,-0.0055,-0.0085,0.0068
33637,46.951183,-1.354257,87.74,35.64,12.864,167.8,0 / 18,3363715,2019-08-18 21:47:12:827,2.776,-0.6181,8.9048,2.6682,-0.9334,9.3904,0.0115,0.0064,0.0036
33638,46.951183,-1.354257,87.74,35.64,12.864,167.8,0 / 18,3363815,2019-08-18 21:47:12:927,2.6569,-0.3607,9.4093,2.6515,-0.8924,9.3991,0.0009,0.016,0.0079
33639,46.951183,-1.354257,87.74,35.64,12.864,167.8,0 / 18,3363915,2019-08-18 21:47:13:027,2.2002,-1.2304,9.7738,2.6122,-0.8941,9.41,-0.0002,0.015,0.0079
33640,46.951183,-1.354257,87.74,35.64,12.864,167.8,0 / 18,3364015,2019-08-18 21:47:13:127,1.8608,-0.8347,9.62,2.5829,-0.8917,9.4183,0.0041,0.0054,0.0068
33641,46.951183,-1.354257,87.74,35.64,12.864,167.8,0 / 18,3364114,2019-08-18 21:47:13:226,1.7638,-0.9185,9.1448,2.5386,-0.8924,9.4302,-0.0055,0.015,0.0121
33642,46.951183,-1.354257,87.74,35.64,12.864,167.8,0 / 18,3364214,2019-08-18 21:47:13:326,1.8356,-0.6731,9.9373,2.5077,-0.8936,9.4384,-0.0013,0.0064,0.009
33643,46.951183,-1.354257,87.74,35.64,12.864,167.8,Jul-18,3364314,2019-08-18 21:47:13:426,1.7375,-1.0173,10.0935,2.4872,-0.8941,9.4438,-0.0002,-0.0085,0.0079
33644,46.951183,-1.354257,87.74,35.64,12.864,167.8,Jul-18,3364414,2019-08-18 21:47:13:526,1.5046,-0.8341,9.1322,2.4493,-0.8874,9.4543,0.003,0.0086,0.01
33645,46.951183,-1.354257,87.74,35.64,12.864,167.8,Jul-18,3364514,2019-08-18 21:47:13:626,1.8249,-0.8305,9.8475,2.354,-0.8666,9.4804,0.0019,-0.0021,0.0121
33646,46.951183,-1.354257,87.74,35.64,12.864,167.8,Jul-18,3364614,2019-08-18 21:47:13:726,1.7297,-0.7018,9.7367,2.2328,-0.8269,9.5132,0.0147,-0.0032,0.01
33647,46.951183,-1.354257,87.74,35.64,12.864,167.8,Jul-18,3364714,2019-08-18 21:47:13:826,1.8171,-0.788,9.7643,2.0952,-0.761,9.55,0.0147,0.0054,0.0175
33648,46.951183,-1.354257,87.74,35.64,12.864,167.8,Jul-18,3364814,2019-08-18 21:47:13:926,1.5495,-0.4912,9.3513,2.0143,-0.7013,9.5719,0.0094,0.0022,0.0217
33649,46.951183,-1.354257,87.74,35.64,12.864,167.8,Jul-18,3364914,2019-08-18 21:47:14:026,1.7082,-0.2039,9.6637,1.9814,-0.6588,9.5818,0.0147,-0.001,0.0207
33650,46.951183,-1.354257,87.74,35.64,12.864,167.8,Jul-18,3365016,2019-08-18 21:47:14:128,1.9823,-0.2386,9.8146,1.977,-0.6362,9.5842,0.0105,-0.0053,0.0207
33651,46.951183,-1.354257,87.74,35.64,12.864,167.8,Jul-18,3365114,2019-08-18 21:47:14:226,1.6627,-0.3409,10.0737,1.9627,-0.6177,9.5884,0.0009,0.0,0.0228
33652,46.951183,-1.354257,87.74,35.64,12.864,167.8,Jul-18,3365215,2019-08-18 21:47:14:327,1.4256,-0.3559,9.468,1.9508,-0.6041,9.5917,0.0051,0.0032,0.0217
33653,46.9484,-1.353434,88.08,37.25,9.648001,167.5,0 / 18,3365314,2019-08-18 21:47:14:426,1.422,-0.3313,9.2202,1.9375,-0.5977,9.5948,-0.0055,0.0,0.0239
33654,46.9484,-1.353434,88.08,37.25,9.648001,167.5,0 / 18,3365414,2019-08-18 21:47:14:526,1.9039,-0.3996,9.7373,1.9123,-0.5584,9.6022,0.0009,-0.0042,0.0217
33655,46.9484,-1.353434,88.08,37.25,9.648001,167.5,0 / 18,3365514,2019-08-18 21:47:14:626,1.7746,-0.4558,10.2258,1.9049,-0.55,9.6041,0.0073,-0.0032,0.0207
33656,46.9484,-1.353434,88.08,37.25,9.648001,167.5,0 / 18,3365614,2019-08-18 21:47:14:726,1.7261,-0.5923,9.8547,1.8938,-0.5332,9.6073,0.0147,-0.0032,0.0153
33657,46.9484,-1.353434,88.08,37.25,9.648001,167.5,0 / 18,3365714,2019-08-18 21:47:14:826,1.4843,-0.4953,9.3992,1.8187,-0.4798,9.6246,0.0083,0.0075,0.0175
33658,46.9484,-1.353434,88.08,37.25,9.648001,167.5,0 / 18,3365814,2019-08-18 21:47:14:926,1.8141,-0.1171,9.5937,1.8127,-0.4729,9.6261,0.0019,-0.0032,0.0207
33659,46.9484,-1.353434,88.08,37.25,9.648001,167.5,0 / 18,3365914,2019-08-18 21:47:15:026,2.0763,-0.2218,10.1108,1.7715,-0.465,9.6341,-0.0045,0.0022,0.0207
33660,46.9484,-1.353434,88.08,37.25,9.648001,167.5,0 / 18,3366014,2019-08-18 21:47:15:126,1.5831,-0.5827,9.7744,1.7352,-0.4567,9.6411,0.0062,-0.001,0.0185
33661,46.9484,-1.353434,88.08,37.25,9.648001,167.5,0 / 18,3366114,2019-08-18 21:47:15:226,1.1994,-0.5666,9.3609,1.7086,-0.4442,9.6464,0.0073,0.0011,0.0196
33662,46.9484,-1.353434,88.08,37.25,9.648001,167.5,0 / 18,3366214,2019-08-18 21:47:15:326,1.3939,-0.4439,9.2956,1.7044,-0.4389,9.6474,0.0073,-0.0063,0.0196
33663,46.9484,-1.353434,88.08,37.25,9.648001,167.5,0 / 18,3366314,2019-08-18 21:47:15:426,1.7758,-0.1649,9.8319,1.7197,-0.4321,9.645,0.0073,-0.0138,0.0175
33664,46.9484,-1.353434,88.08,37.25,9.648001,167.5,0 / 18,3366415,2019-08-18 21:47:15:527,2.2881,-0.2721,10.1084,1.7246,-0.4278,9.6443,0.0051,0.0011,0.0185
33665,46.9484,-1.353434,88.08,37.25,9.648001,167.5,0 / 18,3366514,2019-08-18 21:47:15:626,2.2451,-0.5875,9.7104,1.7235,-0.4265,9.6446,-0.0013,-0.001,0.0207
33666,46.9484,-1.353434,88.08,37.25,9.648001,167.5,0 / 18,3366614,2019-08-18 21:47:15:726,1.9015,-0.3397,9.374,1.7224,-0.4288,9.6447,0.0009,0.0075,0.0207
33667,46.9484,-1.353434,88.08,37.25,9.648001,167.5,0 / 18,3366714,2019-08-18 21:47:15:826,1.695,-0.3164,9.4734,1.7222,-0.416,9.6453,0.0179,0.0011,0.0164
33668,46.9484,-1.353434,88.08,37.25,9.648001,167.5,0 / 18,3366814,2019-08-18 21:47:15:926,1.7979,-0.2194,9.5745,1.7275,-0.4127,9.6445,0.0019,-0.0063,0.0185
33669,46.9484,-1.353434,88.08,37.25,9.648001,167.5,0 / 18,3366914,2019-08-18 21:47:16:026,2.4851,-0.2918,9.7912,1.7461,-0.4051,9.6414,0.0115,-0.0096,0.0111
33670,46.9484,-1.353434,88.08,37.25,9.648001,167.5,0 / 18,3367014,2019-08-18 21:47:16:126,2.2534,-0.991,10.4598,1.7667,-0.41,9.6375,-0.0034,-0.0159,0.0111
33671,46.9484,-1.353434,88.08,37.25,9.648001,167.5,0 / 18,3367114,2019-08-18 21:47:16:226,2.0888,-0.5444,9.6769,1.7948,-0.4224,9.6318,-0.0002,-0.0053,0.009
33672,46.9484,-1.353434,88.08,37.25,9.648001,167.5,0 / 18,3367214,2019-08-18 21:47:16:326,1.9236,-0.5618,9.3686,1.7997,-0.4252,9.6307,0.0083,0.0128,0.009
33673,46.9484,-1.353434,88.08,37.25,9.648001,167.5,0 / 18,3367315,2019-08-18 21:47:16:427,2.0433,-0.39,9.2974,1.8145,-0.4428,9.6272,-0.0087,0.0022,0.0175
33674,46.9484,-1.353434,88.08,37.25,9.648001,167.5,0 / 18,3367415,2019-08-18 21:47:16:527,2.3199,-0.6408,9.2747,1.8222,-0.4499,9.6254,-0.0002,0.0054,0.0153
33675,46.9484,-1.353434,88.08,37.25,9.648001,167.5,0 / 18,3367515,2019-08-18 21:47:16:627,2.2983,-0.6336,9.304,1.8434,-0.4444,9.6216,0.0179,-0.0053,0.0079
33676,46.9484,-1.353434,88.08,37.25,9.648001,167.5,0 / 18,3367614,2019-08-18 21:47:16:726,2.33,-0.6438,9.6003,1.9399,-0.4678,9.6015,0.0158,-0.0085,0.009
33677,46.9484,-1.353434,88.08,37.25,9.648001,167.5,0 / 18,3367716,2019-08-18 21:47:16:828,2.2576,-0.5372,10.0007,1.9706,-0.4651,9.5953,-0.0002,-0.0127,0.0121
33678,46.9484,-1.353434,88.08,37.25,9.648001,167.5,0 / 18,3367814,2019-08-18 21:47:16:926,2.2247,-0.4828,10.0677,1.9935,-0.4759,9.5901,-0.0013,-0.001,0.0153
33679,46.9484,-1.353434,88.08,37.25,9.648001,167.5,0 / 18,3367915,2019-08-18 21:47:17:027,2.4946,-0.4582,9.5171,2.0439,-0.4711,9.5797,0.0083,0.0064,0.0153
33680,46.9484,-1.353434,88.08,37.25,9.648001,167.5,0 / 18,3368014,2019-08-18 21:47:17:126,2.4563,-0.1099,9.0215,2.0836,-0.4672,9.5713,0.0062,0.0118,0.0196
33681,46.9484,-1.353434,88.08,37.25,9.648001,167.5,0 / 18,3368114,2019-08-18 21:47:17:226,2.4091,-0.3445,9.2675,2.089,-0.4639,9.5703,0.0041,0.0011,0.0207
33682,46.9484,-1.353434,88.08,37.25,9.648001,167.5,0 / 18,3368214,2019-08-18 21:47:17:326,2.1654,-0.4702,9.3998,2.1006,-0.4544,9.5683,0.0105,0.0,0.0196
33683,46.9484,-1.353434,88.08,37.25,9.648001,167.5,0 / 18,3368314,2019-08-18 21:47:17:426,1.953,-0.4774,9.8056,2.0961,-0.4436,9.5697,0.0115,0.0032,0.0185
33684,46.9484,-1.353434,88.08,37.25,9.648001,167.5,0 / 18,3368414,2019-08-18 21:47:17:526,1.7548,-0.2577,9.1867,2.0729,-0.4358,9.5751,0.0009,0.016,0.0249
33685,46.9484,-1.353434,88.08,37.25,9.648001,167.5,0 / 18,3368514,2019-08-18 21:47:17:626,1.9853,-0.1494,9.8624,2.0344,-0.4183,9.5842,0.0062,0.0064,0.0239
33686,46.9484,-1.353434,88.08,37.25,9.648001,167.5,0 / 18,3368614,2019-08-18 21:47:17:726,2.2415,-0.5109,10.3317,1.9891,-0.3928,9.5948,0.0147,-0.0074,0.0196
33687,46.9484,-1.353434,88.08,37.25,9.648001,167.5,0 / 18,3368714,2019-08-18 21:47:17:826,2.1804,-0.6103,10.2719,1.9509,-0.3733,9.6034,0.0041,-0.0053,0.0207
33688,46.9484,-1.353434,88.08,37.25,9.648001,167.5,0 / 18,3368814,2019-08-18 21:47:17:926,1.6932,-0.2637,9.6428,1.9341,-0.3718,9.6068,-0.0002,0.0075,0.0228
33689,46.9484,-1.353434,88.08,37.25,9.648001,167.5,0 / 18,3368915,2019-08-18 21:47:18:027,1.6842,-0.5791,9.5482,1.9258,-0.3706,9.6086,0.003,-0.001,0.0217
33690,46.9484,-1.353434,88.08,37.25,9.648001,167.5,0 / 18,3369015,2019-08-18 21:47:18:127,1.6818,-0.3284,9.3896,1.9218,-0.3641,9.6096,0.0115,-0.001,0.0175
33691,46.9484,-1.353434,88.08,37.25,9.648001,167.5,0 / 18,3369114,2019-08-18 21:47:18:226,1.6651,-0.0105,9.6093,1.9137,-0.3562,9.6115,0.0094,0.0075,0.0217
33692,46.9484,-1.353434,88.08,37.25,9.648001,167.5,0 / 18,3369216,2019-08-18 21:47:18:328,2.2876,-0.1649,10.0839,1.9117,-0.3535,9.612,0.0062,-0.0032,0.0207
33693,46.9484,-1.353434,88.08,37.25,9.648001,167.5,0 / 18,3369315,2019-08-18 21:47:18:427,2.0188,-0.4547,9.4423,1.8943,-0.344,9.6158,0.0115,0.0107,0.0217
33694,46.9484,-1.353434,88.08,37.25,9.648001,167.5,0 / 18,3369414,2019-08-18 21:47:18:526,1.8392,-0.3038,9.6236,1.8823,-0.3315,9.6186,-0.0034,-0.0021,0.0239
33695,46.9484,-1.353434,88.08,37.25,9.648001,167.5,0 / 18,3369514,2019-08-18 21:47:18:626,2.0924,-0.3523,10.2701,1.9013,-0.3297,9.6149,0.0062,-0.0287,0.0175
33696,46.9484,-1.353434,88.08,37.25,9.648001,167.5,0 / 18,3369614,2019-08-18 21:47:18:726,2.2427,-0.3655,10.4975,1.9376,-0.3099,9.6083,0.0179,-0.0181,0.0143
33697,46.9484,-1.353434,88.08,37.25,9.648001,167.5,0 / 18,3369715,2019-08-18 21:47:18:827,2.2774,-0.1201,9.9055,1.9507,-0.3021,9.6059,0.0126,-0.0042,0.0164
33698,46.9484,-1.353434,88.08,37.25,9.648001,167.5,0 / 18,3369814,2019-08-18 21:47:18:926,2.266,-0.2152,9.7332,1.9652,-0.2969,9.6031,0.0083,-0.0063,0.0175
33699,46.9484,-1.353434,88.08,37.25,9.648001,167.5,0 / 18,3369914,2019-08-18 21:47:19:026,2.1774,-0.1081,9.6697,1.9854,-0.2947,9.5991,0.0062,-0.0042,0.0207
33700,46.9484,-1.353434,88.08,37.25,9.648001,167.5,0 / 18,3370014,2019-08-18 21:47:19:126,2.506,-0.2739,9.1376,2.0029,-0.291,9.5955,0.0062,0.0022,0.0228
33701,46.9484,-1.353434,88.08,37.25,9.648001,167.5,0 / 18,3370114,2019-08-18 21:47:19:226,2.2995,-0.3391,9.0915,2.0101,-0.2847,9.5942,0.0083,0.0086,0.0217
33702,46.9484,-1.353434,88.08,37.25,9.648001,167.5,0 / 18,3370214,2019-08-18 21:47:19:326,2.3079,-0.1685,8.903,2.0226,-0.2715,9.592,0.0062,0.0107,0.0217
33703,46.9484,-1.353434,88.08,37.25,9.648001,167.5,0 / 18,3370314,2019-08-18 21:47:19:426,2.2391,-0.1602,9.2741,2.077,-0.2501,9.5809,0.0062,-0.001,0.0185
33704,46.9484,-1.353434,88.08,37.25,9.648001,167.5,0 / 18,3370415,2019-08-18 21:47:19:527,2.4366,-0.0482,9.7008,2.1406,-0.2327,9.5674,0.0041,-0.0085,0.0153
33705,46.9484,-1.353434,88.08,37.25,9.648001,167.5,0 / 18,3370515,2019-08-18 21:47:19:627,2.6766,-0.0464,9.5578,2.1516,-0.2302,9.5649,0.0062,0.0064,0.0143
33706,46.9484,-1.353434,88.08,37.25,9.648001,167.5,0 / 18,3370615,2019-08-18 21:47:19:727,2.7999,-0.2458,9.8098,2.2031,-0.2365,9.553,0.0041,-0.0063,0.0185
33707,46.9484,-1.353434,88.08,37.25,9.648001,167.5,0 / 18,3370715,2019-08-18 21:47:19:827,2.4833,-0.4122,9.3764,2.2722,-0.261,9.5362,0.0094,-0.0085,0.0164
33708,46.9484,-1.353434,88.08,37.25,9.648001,167.5,0 / 18,3370815,2019-08-18 21:47:19:927,2.4887,-0.3373,9.1137,2.3654,-0.2824,9.5129,-0.0002,0.0022,0.0175
33709,46.9484,-1.353434,88.08,37.25,9.648001,167.5,0 / 18,3370914,2019-08-18 21:47:20:026,2.3588,-0.3918,9.3345,2.3731,-0.2922,9.5107,-0.0108,-0.0074,0.0185
33710,46.9484,-1.353434,88.08,37.25,9.648001,167.5,0 / 18,3371014,2019-08-18 21:47:20:126,2.6497,-0.1524,9.3573,2.4079,-0.2947,9.5019,0.0041,0.0,0.0196
33711,46.9484,-1.353434,88.08,37.25,9.648001,167.5,0 / 18,3371115,2019-08-18 21:47:20:227,2.8322,-0.3607,9.5584,2.442,-0.2937,9.4932,-0.0002,0.0032,0.0207
33712,46.9484,-1.353434,88.08,37.25,9.648001,167.5,0 / 18,3371215,2019-08-18 21:47:20:327,2.4893,-0.2541,9.5745,2.4389,-0.2959,9.4939,0.0051,0.0075,0.0185
33713,46.9484,-1.353434,88.08,37.25,9.648001,167.5,0 / 18,3371315,2019-08-18 21:47:20:427,2.3498,-0.2805,9.313,2.451,-0.2944,9.4908,0.0009,0.0011,0.0196
33714,46.9484,-1.353434,88.08,37.25,9.648001,167.5,0 / 18,3371415,2019-08-18 21:47:20:527,2.2109,-0.5438,9.2543,2.4373,-0.298,9.4943,0.0062,-0.0053,0.0164
33715,46.9484,-1.353434,88.08,37.25,9.648001,167.5,0 / 18,3371514,2019-08-18 21:47:20:626,2.263,-0.4193,9.1741,2.4276,-0.2944,9.4969,0.0083,0.0032,0.0185
33716,46.9484,-1.353434,88.08,37.25,9.648001,167.5,0 / 18,3371614,2019-08-18 21:47:20:726,2.3474,0.2594,9.2274,2.4083,-0.2979,9.5017,-0.0002,0.0118,0.0239
33717,46.9484,-1.353434,88.08,37.25,9.648001,167.5,0 / 18,3371714,2019-08-18 21:47:20:826,2.7131,-0.1961,9.9349,2.3976,-0.295,9.5045,0.0062,0.0086,0.0228
33718,46.9484,-1.353434,88.08,37.25,9.648001,167.5,0 / 18,3371814,2019-08-18 21:47:20:926,2.3348,-0.0512,10.1803,2.3997,-0.2867,9.5042,0.0147,-0.0117,0.0175
33719,46.9484,-1.353434,88.08,37.25,9.648001,167.5,0 / 18,3371914,2019-08-18 21:47:21:026,2.4306,-0.4594,9.9947,2.3981,-0.2749,9.5049,0.0179,-0.001,0.0196
33720,46.9484,-1.353434,88.08,37.25,9.648001,167.5,0 / 18,3372014,2019-08-18 21:47:21:126,2.1164,-0.2721,9.4482,2.3866,-0.261,9.5082,0.0147,0.0064,0.0196
33721,46.9484,-1.353434,88.08,37.25,9.648001,167.5,0 / 18,3372114,2019-08-18 21:47:21:226,2.1493,-0.3535,9.1855,2.369,-0.2573,9.5127,0.0051,-0.0032,0.0207
33722,46.9484,-1.353434,88.08,37.25,9.648001,167.5,0 / 18,3372215,2019-08-18 21:47:21:327,2.3923,-0.0835,9.5626,2.3659,-0.2418,9.5139,0.0041,-0.0117,0.0207
33723,46.9484,-1.353434,88.08,37.25,9.648001,167.5,0 / 18,3372316,2019-08-18 21:47:21:428,2.4899,0.096,9.6093,2.3694,-0.2433,9.513,-0.0013,-0.0032,0.0228
33724,46.9484,-1.353434,88.08,37.25,9.648001,167.5,0 / 18,3372414,2019-08-18 21:47:21:526,2.5054,-0.3218,9.4842,2.3641,-0.2421,9.5144,0.0051,0.0032,0.0217
33725,46.9484,-1.353434,88.08,37.25,9.648001,167.5,0 / 18,3372514,2019-08-18 21:47:21:626,2.3001,-0.2003,9.535,2.3599,-0.2338,9.5156,0.0083,0.0043,0.0217
33726,46.9484,-1.353434,88.08,37.25,9.648001,167.5,0 / 18,3372614,2019-08-18 21:47:21:726,2.0625,-0.3307,9.5021,2.3548,-0.2223,9.5171,0.0094,-0.0053,0.0185
33727,46.9484,-1.353434,88.08,37.25,9.648001,167.5,0 / 18,3372714,2019-08-18 21:47:21:826,2.202,-0.2434,9.3309,2.3483,-0.2202,9.5188,0.0062,-0.0042,0.0196
33728,46.9484,-1.353434,88.08,37.25,9.648001,167.5,0 / 18,3372814,2019-08-18 21:47:21:926,2.2085,-0.1985,9.7014,2.3432,-0.2212,9.52,0.0062,0.0022,0.0207
33729,46.9484,-1.353434,88.08,37.25,9.648001,167.5,0 / 18,3372914,2019-08-18 21:47:22:026,2.336,-0.0051,9.6889,2.3213,-0.2205,9.5254,0.0051,0.0022,0.0207
33730,46.9484,-1.353434,88.08,37.25,9.648001,167.5,0 / 18,3373015,2019-08-18 21:47:22:127,2.4809,-0.3367,10.1815,2.2829,-0.2471,9.534,-0.0002,-0.0138,0.0196
33731,46.9484,-1.353434,88.08,37.25,9.648001,167.5,0 / 18,3373115,2019-08-18 21:47:22:227,1.9673,-0.2505,9.2818,2.2242,-0.2432,9.548,0.003,0.016,0.0239
33732,46.9484,-1.353434,88.08,37.25,9.648001,167.5,0 / 18,3373214,2019-08-18 21:47:22:326,1.9877,-0.2122,8.9299,2.213,-0.2401,9.5507,0.0158,0.0128,0.0196
33733,46.9484,-1.353434,88.08,37.25,9.648001,167.5,Dec-18,3373314,2019-08-18 21:47:22:426,1.9446,-0.2218,9.2711,2.2149,-0.234,9.5504,0.0051,-0.0106,0.0217
33734,46.9484,-1.353434,88.08,37.25,9.648001,167.5,Dec-18,3373414,2019-08-18 21:47:22:526,2.3025,-0.0865,9.6565,2.2206,-0.2273,9.5492,0.0158,-0.0053,0.0175
33735,46.9484,-1.353434,88.08,37.25,9.648001,167.5,Dec-18,3373515,2019-08-18 21:47:22:627,2.345,0.0763,9.4578,2.2144,-0.2205,9.5508,0.0073,0.0118,0.0217
33736,46.9484,-1.353434,88.08,37.25,9.648001,167.5,Dec-18,3373614,2019-08-18 21:47:22:726,2.4115,-0.1895,9.5344,2.2253,-0.2057,9.5486,0.0083,0.0,0.0196
33737,46.9484,-1.353434,88.08,37.25,9.648001,167.5,Dec-18,3373714,2019-08-18 21:47:22:826,2.445,-0.3266,10.0217,2.238,-0.2019,9.5457,0.0083,-0.0096,0.0175
33738,46.9484,-1.353434,88.08,37.25,9.648001,167.5,Dec-18,3373814,2019-08-18 21:47:22:926,2.4528,-0.3451,10.2623,2.2464,-0.1999,9.5438,0.0041,-0.0106,0.0175
33739,46.9484,-1.353434,88.08,37.25,9.648001,167.5,Dec-18,3373914,2019-08-18 21:47:23:026,2.3037,-0.3403,9.2459,2.2534,-0.2027,9.5421,0.0009,0.0064,0.0185
33740,46.9484,-1.353434,88.08,37.25,9.648001,167.5,Dec-18,3374014,2019-08-18 21:47:23:126,2.4653,-0.0584,9.3758,2.2534,-0.2018,9.5421,0.0094,0.0086,0.0164
33741,46.9484,-1.353434,88.08,37.25,9.648001,167.5,Dec-18,3374114,2019-08-18 21:47:23:226,2.3911,-0.3912,9.4093,2.2537,-0.2083,9.5419,-0.0034,0.0054,0.0164
33742,46.9484,-1.353434,88.08,37.25,9.648001,167.5,Dec-18,3374214,2019-08-18 21:47:23:326,2.7167,-0.648,10.1312,2.2679,-0.2271,9.5381,-0.0002,-0.0085,0.0079
33743,46.9484,-1.353434,88.08,37.25,9.648001,167.5,0 / 18,3374314,2019-08-18 21:47:23:426,2.351,-0.5103,9.7332,2.2797,-0.2402,9.535,-0.0002,-0.0032,0.01
33744,46.9484,-1.353434,88.08,37.25,9.648001,167.5,0 / 18,3374415,2019-08-18 21:47:23:527,2.4126,-0.8353,9.2645,2.2844,-0.2536,9.5335,-0.0034,0.0,0.009
33745,46.9484,-1.353434,88.08,37.25,9.648001,167.5,0 / 18,3374514,2019-08-18 21:47:23:626,2.3384,-0.5187,9.295,2.3096,-0.3516,9.5243,0.0073,0.0064,0.01
33746,46.9484,-1.353434,88.08,37.25,9.648001,167.5,0 / 18,3374614,2019-08-18 21:47:23:726,2.4665,-0.3948,9.5093,2.3209,-0.3891,9.5201,0.0083,-0.0021,0.0143
33747,46.9484,-1.353434,88.08,37.25,9.648001,167.5,0 / 18,3374715,2019-08-18 21:47:23:827,2.4809,-0.3756,9.7319,2.3238,-0.3979,9.519,0.0179,0.0011,0.0175
33748,46.9484,-1.353434,88.08,37.25,9.648001,167.5,0 / 18,3374814,2019-08-18 21:47:23:926,2.2714,-0.4499,9.6428,2.3105,-0.4022,9.5221,0.0073,0.0128,0.0249
33749,46.9484,-1.353434,88.08,37.25,9.648001,167.5,0 / 18,3374914,2019-08-18 21:47:24:026,1.9512,-0.3385,9.5602,2.2941,-0.394,9.5264,0.003,0.0043,0.0249
33750,46.9484,-1.353434,88.08,37.25,9.648001,167.5,0 / 18,3375014,2019-08-18 21:47:24:126,1.8578,-0.2116,9.4806,2.2797,-0.3917,9.53,0.0019,0.0054,0.0249
33751,46.9484,-1.353434,88.08,37.25,9.648001,167.5,0 / 18,3375114,2019-08-18 21:47:24:226,2.0607,-0.1937,9.7361,2.2635,-0.383,9.5342,0.003,-0.001,0.0228
33752,46.9484,-1.353434,88.08,37.25,9.648001,167.5,0 / 18,3375214,2019-08-18 21:47:24:326,2.0332,-0.1165,9.8056,2.2531,-0.3783,9.5368,0.003,0.0,0.0228
33753,46.945244,-1.351873,89.75,36.01,24.656,158.4,0 / 18,3375314,2019-08-18 21:47:24:426,2.023,-0.1117,9.887,2.1663,-0.3492,9.558,0.0019,0.0011,0.0228
33754,46.945244,-1.351873,89.75,36.01,24.656,158.4,0 / 18,3375415,2019-08-18 21:47:24:527,2.0739,-0.3445,9.8618,2.1291,-0.3472,9.5664,-0.0055,0.0032,0.0217
33755,46.945244,-1.351873,89.75,36.01,24.656,158.4,0 / 18,3375515,2019-08-18 21:47:24:627,1.9452,-0.4948,9.9977,2.0467,-0.32,9.5854,0.0083,0.0086,0.0175
33756,46.945244,-1.351873,89.75,36.01,24.656,158.4,0 / 18,3375616,2019-08-18 21:47:24:728,1.704,-0.5229,9.1268,2.0184,-0.315,9.5915,0.003,0.0011,0.0175
33757,46.945244,-1.351873,89.75,36.01,24.656,158.4,0 / 18,3375715,2019-08-18 21:47:24:827,2.1732,-0.1973,9.5117,2.0262,-0.3137,9.5899,0.0073,-0.0106,0.0143
33758,46.945244,-1.351873,89.75,36.01,24.656,158.4,0 / 18,3375815,2019-08-18 21:47:24:927,2.2397,-0.1835,9.5919,2.042,-0.3127,9.5866,0.0041,-0.0191,0.0153
33759,46.945244,-1.351873,89.75,36.01,24.656,158.4,0 / 18,3375914,2019-08-18 21:47:25:026,2.4456,-0.2386,9.614,2.0553,-0.3078,9.5839,0.0083,0.0054,0.0185
33760,46.945244,-1.351873,89.75,36.01,24.656,158.4,0 / 18,3376014,2019-08-18 21:47:25:126,2.354,-0.2673,9.9331,2.0557,-0.3105,9.5837,0.0009,0.0064,0.0217
33761,46.945244,-1.351873,89.75,36.01,24.656,158.4,0 / 18,3376114,2019-08-18 21:47:25:226,2.4043,-0.5277,9.6931,2.0679,-0.3115,9.5811,0.0094,-0.0032,0.0175
33762,46.945244,-1.351873,89.75,36.01,24.656,158.4,0 / 18,3376215,2019-08-18 21:47:25:327,2.3282,-0.3876,9.5219,2.1029,-0.2951,9.574,0.0105,0.0,0.0185
33763,46.945244,-1.351873,89.75,36.01,24.656,158.4,0 / 18,3376315,2019-08-18 21:47:25:427,2.0571,-0.1955,9.456,2.1422,-0.2864,9.5655,0.0105,-0.0032,0.0175
33764,46.945244,-1.351873,89.75,36.01,24.656,158.4,0 / 18,3376414,2019-08-18 21:47:25:526,2.2283,-0.293,9.3028,2.1983,-0.2755,9.5531,0.0083,-0.0032,0.0175
33765,46.945244,-1.351873,89.75,36.01,24.656,158.4,0 / 18,3376516,2019-08-18 21:47:25:628,2.6479,-0.0674,9.3573,2.2653,-0.2559,9.538,0.003,0.0064,0.0207
33766,46.945244,-1.351873,89.75,36.01,24.656,158.4,0 / 18,3376614,2019-08-18 21:47:25:726,2.6078,-0.077,10.0977,2.2904,-0.2362,9.5325,0.0051,0.0032,0.0207
33767,46.945244,-1.351873,89.75,36.01,24.656,158.4,0 / 18,3376715,2019-08-18 21:47:25:827,2.7706,-0.1685,10.2766,2.3247,-0.2496,9.5239,0.0083,-0.0032,0.0175
33768,46.945244,-1.351873,89.75,36.01,24.656,158.4,0 / 18,3376814,2019-08-18 21:47:25:926,2.3558,-0.5235,9.6877,2.3272,-0.2488,9.5233,-0.0002,0.0011,0.0207
33769,46.945244,-1.351873,89.75,36.01,24.656,158.4,0 / 18,3376915,2019-08-18 21:47:26:027,2.3312,-0.4648,9.866,2.3324,-0.2483,9.522,0.003,-0.0106,0.0185
33770,46.945244,-1.351873,89.75,36.01,24.656,158.4,0 / 18,3377015,2019-08-18 21:47:26:127,2.2187,-0.2015,9.2651,2.3395,-0.2495,9.5202,0.003,0.0032,0.0207
33771,46.945244,-1.351873,89.75,36.01,24.656,158.4,0 / 18,3377115,2019-08-18 21:47:26:227,2.3642,-0.2607,9.3525,2.3319,-0.2515,9.5221,0.0009,0.0118,0.0217
33772,46.945244,-1.351873,89.75,36.01,24.656,158.4,0 / 18,3377215,2019-08-18 21:47:26:327,2.4893,0.0487,9.6284,2.328,-0.2495,9.523,0.0073,0.0064,0.0207
33773,46.945244,-1.351873,89.75,36.01,24.656,158.4,0 / 18,3377314,2019-08-18 21:47:26:426,2.7059,-0.1626,9.7493,2.3365,-0.2483,9.521,0.0083,-0.0096,0.0185
33774,46.945244,-1.351873,89.75,36.01,24.656,158.4,0 / 18,3377414,2019-08-18 21:47:26:526,2.3708,-0.2511,9.5075,2.3374,-0.2364,9.5211,0.0083,0.0011,0.0196
33775,46.945244,-1.351873,89.75,36.01,24.656,158.4,0 / 18,3377515,2019-08-18 21:47:26:627,2.1571,-0.3451,9.4949,2.348,-0.2397,9.5184,0.0073,0.0022,0.0185
33776,46.945244,-1.351873,89.75,36.01,24.656,158.4,0 / 18,3377614,2019-08-18 21:47:26:726,2.2097,-0.2954,9.5973,2.3495,-0.2455,9.5179,-0.0002,-0.0021,0.0207
33777,46.945244,-1.351873,89.75,36.01,24.656,158.4,0 / 18,3377715,2019-08-18 21:47:26:827,2.0739,-0.2218,9.2154,2.3458,-0.2414,9.5189,-0.0013,0.0011,0.0207
33778,46.945244,-1.351873,89.75,36.01,24.656,158.4,0 / 18,3377814,2019-08-18 21:47:26:926,2.5964,-0.1793,9.7296,2.3467,-0.2371,9.5188,0.0062,-0.001,0.0196
33779,46.945244,-1.351873,89.75,36.01,24.656,158.4,0 / 18,3377914,2019-08-18 21:47:27:026,2.3893,0.1559,9.7918,2.3417,-0.2303,9.5202,0.003,-0.0042,0.0228
33780,46.945244,-1.351873,89.75,36.01,24.656,158.4,0 / 18,3378014,2019-08-18 21:47:27:126,2.5252,-0.1578,9.6386,2.3356,-0.2253,9.5218,0.0019,0.0032,0.0249
33781,46.945244,-1.351873,89.75,36.01,24.656,158.4,0 / 18,3378114,2019-08-18 21:47:27:226,2.0254,-0.2092,9.6434,2.3077,-0.2232,9.5286,0.0041,0.0107,0.026
33782,46.945244,-1.351873,89.75,36.01,24.656,158.4,0 / 18,3378214,2019-08-18 21:47:27:326,1.8919,-0.2954,9.8678,2.2528,-0.2227,9.5418,0.0009,0.0064,0.0271
33783,46.945244,-1.351873,89.75,36.01,24.656,158.4,0 / 18,3378316,2019-08-18 21:47:27:428,1.4466,-0.3098,9.2166,2.2335,-0.225,9.5463,0.0051,0.0064,0.0239
33784,46.945244,-1.351873,89.75,36.01,24.656,158.4,0 / 18,3378415,2019-08-18 21:47:27:527,1.5657,-0.1219,9.2525,2.2171,-0.2222,9.5502,0.0073,0.0011,0.0228
33785,46.945244,-1.351873,89.75,36.01,24.656,158.4,0 / 18,3378514,2019-08-18 21:47:27:626,1.8614,-0.153,10.0516,2.1952,-0.2151,9.5554,0.0126,0.0,0.0228
33786,46.945244,-1.351873,89.75,36.01,24.656,158.4,0 / 18,3378615,2019-08-18 21:47:27:727,1.8261,0.023,9.4207,2.1687,-0.2113,9.5615,0.0126,-0.0021,0.0207
33787,46.945244,-1.351873,89.75,36.01,24.656,158.4,0 / 18,3378714,2019-08-18 21:47:27:826,2.0763,-0.4463,9.8325,2.16,-0.2055,9.5636,0.0147,-0.001,0.0185
33788,46.945244,-1.351873,89.75,36.01,24.656,158.4,0 / 18,3378814,2019-08-18 21:47:27:926,1.8626,-0.3182,10.2347,2.1522,-0.2082,9.5653,0.0041,-0.0096,0.0207
33789,46.945244,-1.351873,89.75,36.01,24.656,158.4,0 / 18,3378914,2019-08-18 21:47:28:026,1.534,-0.3511,9.8684,2.1396,-0.2105,9.5681,0.0051,0.0,0.0207
33790,46.945244,-1.351873,89.75,36.01,24.656,158.4,0 / 18,3379014,2019-08-18 21:47:28:126,1.6465,-0.4672,9.289,2.1053,-0.2319,9.5752,-0.0034,-0.0021,0.0228
33791,46.945244,-1.351873,89.75,36.01,24.656,158.4,0 / 18,3379115,2019-08-18 21:47:28:227,2.0463,-0.0626,9.4674,2.0809,-0.2529,9.58,-0.0087,-0.0032,0.0249
33792,46.945244,-1.351873,89.75,36.01,24.656,158.4,0 / 18,3379214,2019-08-18 21:47:28:326,1.9087,-0.1015,9.3812,2.0229,-0.2624,9.5922,0.003,0.0032,0.0239
33793,46.945244,-1.351873,89.75,36.01,24.656,158.4,0 / 18,3379314,2019-08-18 21:47:28:426,1.932,-0.1045,9.4045,1.9939,-0.2778,9.5978,0.0105,0.0011,0.0217
33794,46.945244,-1.351873,89.75,36.01,24.656,158.4,0 / 18,3379415,2019-08-18 21:47:28:527,2.3773,-0.5247,9.5907,1.9987,-0.2551,9.5974,0.0339,0.0,0.0132
33795,46.945244,-1.351873,89.75,36.01,24.656,158.4,0 / 18,3379515,2019-08-18 21:47:28:627,2.4551,-0.4612,9.6535,2.0043,-0.24,9.5966,0.0222,-0.0021,0.0175
33796,46.945244,-1.351873,89.75,36.01,24.656,158.4,0 / 18,3379615,2019-08-18 21:47:28:727,2.084,-0.3068,9.6362,2.0496,-0.2329,9.5872,0.0083,-0.0085,0.0175
33797,46.945244,-1.351873,89.75,36.01,24.656,158.4,0 / 18,3379714,2019-08-18 21:47:28:826,2.0535,-0.5193,9.3459,2.1028,-0.2285,9.5758,0.003,-0.0096,0.0175
33798,46.945244,-1.351873,89.75,36.01,24.656,158.4,0 / 18,3379815,2019-08-18 21:47:28:927,2.2941,-0.5971,9.9726,2.1469,-0.2497,9.5655,0.0062,-0.0159,0.0175
33799,46.945244,-1.351873,89.75,36.01,24.656,158.4,0 / 18,3379915,2019-08-18 21:47:29:027,2.6012,-0.056,9.8523,2.1605,-0.244,9.5626,0.0083,-0.0127,0.0185
33800,46.945244,-1.351873,89.75,36.01,24.656,158.4,0 / 18,3380014,2019-08-18 21:47:29:126,2.5407,-0.0746,9.9109,2.1688,-0.2374,9.5609,0.0094,0.0022,0.0185
33801,46.945244,-1.351873,89.75,36.01,24.656,158.4,0 / 18,3380114,2019-08-18 21:47:29:226,2.609,-0.2236,9.7481,2.1784,-0.2332,9.5588,0.0115,-0.001,0.0185
33802,46.945244,-1.351873,89.75,36.01,24.656,158.4,0 / 18,3380214,2019-08-18 21:47:29:326,2.5168,-0.2888,9.6811,2.2162,-0.2276,9.5502,0.0009,0.0,0.0207
33803,46.945244,-1.351873,89.75,36.01,24.656,158.4,0 / 18,3380316,2019-08-18 21:47:29:428,2.5228,-0.3655,9.6236,2.2428,-0.2249,9.5441,0.0009,0.0032,0.0185
33804,46.945244,-1.351873,89.75,36.01,24.656,158.4,0 / 18,3380416,2019-08-18 21:47:29:528,2.5096,-0.3589,9.6553,2.3206,-0.2265,9.5254,0.0126,-0.0138,0.0153
33805,46.945244,-1.351873,89.75,36.01,24.656,158.4,0 / 18,3380514,2019-08-18 21:47:29:626,2.5784,-0.2218,9.5063,2.3666,-0.227,9.5141,0.0147,-0.0159,0.0175
33806,46.945244,-1.351873,89.75,36.01,24.656,158.4,0 / 18,3380616,2019-08-18 21:47:29:728,2.2564,-0.0081,9.7062,2.3789,-0.2213,9.5112,0.0073,-0.0063,0.0185
33807,46.945244,-1.351873,89.75,36.01,24.656,158.4,0 / 18,3380714,2019-08-18 21:47:29:826,2.4893,-0.0578,10.3461,2.3839,-0.2249,9.5098,-0.0034,-0.001,0.0217
33808,46.945244,-1.351873,89.75,36.01,24.656,158.4,0 / 18,3380815,2019-08-18 21:47:29:927,2.3642,-0.1057,9.6883,2.3768,-0.2292,9.5115,0.003,0.0075,0.0207
33809,46.945244,-1.351873,89.75,36.01,24.656,158.4,0 / 18,3380915,2019-08-18 21:47:30:027,2.3887,-0.3673,9.7559,2.3722,-0.2257,9.5127,0.0115,0.0,0.0196
33810,46.945244,-1.351873,89.75,36.01,24.656,158.4,0 / 18,3381014,2019-08-18 21:47:30:126,2.4797,-0.5516,10.0282,2.3581,-0.2291,9.5161,0.0083,-0.0063,0.0217
33811,46.945244,-1.351873,89.75,36.01,24.656,158.4,0 / 18,3381114,2019-08-18 21:47:30:226,2.1648,-0.1997,9.4524,2.3203,-0.2104,9.5259,0.0094,-0.0021,0.0185
33812,46.945244,-1.351873,89.75,36.01,24.656,158.4,0 / 18,3381215,2019-08-18 21:47:30:327,2.2313,-0.2272,9.3567,2.3031,-0.2068,9.5301,0.0073,-0.0021,0.0196
33813,46.945244,-1.351873,89.75,36.01,24.656,158.4,0 / 18,3381315,2019-08-18 21:47:30:427,2.3558,-0.1985,9.7571,2.2957,-0.2086,9.5319,0.0126,-0.0138,0.0164
33814,46.945244,-1.351873,89.75,36.01,24.656,158.4,0 / 18,3381416,2019-08-18 21:47:30:528,2.3678,-0.1745,9.9863,2.3003,-0.2067,9.5308,0.0062,-0.0096,0.0185
33815,46.945244,-1.351873,89.75,36.01,24.656,158.4,0 / 18,3381514,2019-08-18 21:47:30:626,2.284,-0.1051,9.6416,2.2967,-0.205,9.5317,0.0083,0.0043,0.0185
33816,46.945244,-1.351873,89.75,36.01,24.656,158.4,0 / 18,3381615,2019-08-18 21:47:30:727,2.1313,-0.1823,9.7008,2.2829,-0.2068,9.535,0.0073,0.0064,0.0217
33817,46.945244,-1.351873,89.75,36.01,24.656,158.4,0 / 18,3381715,2019-08-18 21:47:30:827,1.9901,-0.3649,9.7403,2.2562,-0.2073,9.5413,0.0147,-0.0053,0.0185
33818,46.945244,-1.351873,89.75,36.01,24.656,158.4,0 / 18,3381814,2019-08-18 21:47:30:926,1.9536,-0.2942,9.3381,2.2351,-0.218,9.5461,0.0073,-0.0053,0.0207
33819,46.945244,-1.351873,89.75,36.01,24.656,158.4,0 / 18,3381914,2019-08-18 21:47:31:026,2.117,-0.3924,9.9289,2.2111,-0.2323,9.5513,0.0051,-0.0074,0.0175
33820,46.945244,-1.351873,89.75,36.01,24.656,158.4,0 / 18,3382015,2019-08-18 21:47:31:127,2.2965,-0.32,9.8672,2.2079,-0.2302,9.5521,0.0062,-0.0159,0.0153
33821,46.945244,-1.351873,89.75,36.01,24.656,158.4,0 / 18,3382114,2019-08-18 21:47:31:226,2.3881,-0.1901,9.6332,2.2091,-0.2321,9.5518,0.0019,0.0011,0.0185
33822,46.945244,-1.351873,89.75,36.01,24.656,158.4,0 / 18,3382214,2019-08-18 21:47:31:326,2.3797,-0.159,9.325,2.2063,-0.243,9.5521,-0.0034,0.0054,0.0175
33823,46.945244,-1.351873,89.75,36.01,24.656,158.4,Sep-18,3382314,2019-08-18 21:47:31:426,2.3995,-0.3655,9.5901,2.2053,-0.256,9.552,0.0041,0.0011,0.0079
33824,46.945244,-1.351873,89.75,36.01,24.656,158.4,Sep-18,3382414,2019-08-18 21:47:31:526,2.3863,-0.5277,9.723,2.2141,-0.2617,9.5499,0.003,-0.0063,0.0058
33825,46.945244,-1.351873,89.75,36.01,24.656,158.4,Sep-18,3382514,2019-08-18 21:47:31:626,2.4581,-0.8629,9.9043,2.2446,-0.3056,9.5414,-0.0013,-0.0117,0.0058
33826,46.945244,-1.351873,89.75,36.01,24.656,158.4,Sep-18,3382614,2019-08-18 21:47:31:726,2.2331,-0.7659,9.4704,2.2519,-0.3181,9.5393,-0.0013,0.0,0.009
33827,46.945244,-1.351873,89.75,36.01,24.656,158.4,Sep-18,3382714,2019-08-18 21:47:31:826,2.2804,-0.6432,9.1011,2.2557,-0.3389,9.5377,-0.0023,0.0064,0.0121
33828,46.945244,-1.351873,89.75,36.01,24.656,158.4,Sep-18,3382814,2019-08-18 21:47:31:926,2.3306,-0.551,8.9904,2.2614,-0.348,9.536,0.0062,0.0,0.01
33829,46.945244,-1.351873,89.75,36.01,24.656,158.4,Sep-18,3382916,2019-08-18 21:47:32:028,2.5749,-0.5199,9.4004,2.3386,-0.4105,9.5149,0.0041,-0.0021,0.0111
33830,46.945244,-1.351873,89.75,36.01,24.656,158.4,Sep-18,3383014,2019-08-18 21:47:32:126,2.6916,-0.2577,9.3321,2.3808,-0.4357,9.5033,0.0062,0.0043,0.01
33831,46.945244,-1.351873,89.75,36.01,24.656,158.4,Sep-18,3383114,2019-08-18 21:47:32:226,2.922,-0.3469,10.1521,2.4362,-0.4457,9.4888,0.0051,-0.0085,0.01
33832,46.945244,-1.351873,89.75,36.01,24.656,158.4,Sep-18,3383215,2019-08-18 21:47:32:327,2.773,-0.4361,9.8654,2.4599,-0.4531,9.4823,0.0105,-0.001,0.0111
33833,46.945244,-1.351873,89.75,36.01,24.656,158.4,0 / 18,3383314,2019-08-18 21:47:32:426,2.6209,-0.578,9.5727,2.4779,-0.4513,9.4777,0.0073,0.0096,0.0121
33834,46.945244,-1.351873,89.75,36.01,24.656,158.4,0 / 18,3383414,2019-08-18 21:47:32:526,2.3863,-0.6408,9.3465,2.4806,-0.4468,9.4772,0.0009,0.0064,0.0143
33835,46.945244,-1.351873,89.75,36.01,24.656,158.4,0 / 18,3383514,2019-08-18 21:47:32:626,2.3462,-0.645,9.4321,2.4993,-0.4499,9.4721,0.0019,-0.0138,0.009
33836,46.945244,-1.351873,89.75,36.01,24.656,158.4,0 / 18,3383614,2019-08-18 21:47:32:726,2.4964,-0.6013,9.2831,2.5103,-0.454,9.469,0.0009,-0.0117,0.01
33837,46.945244,-1.351873,89.75,36.01,24.656,158.4,0 / 18,3383714,2019-08-18 21:47:32:826,2.6221,-0.2894,9.5057,2.5191,-0.4563,9.4666,-0.0023,0.0,0.0132
33838,46.945244,-1.351873,89.75,36.01,24.656,158.4,0 / 18,3383814,2019-08-18 21:47:32:926,2.6209,-0.2386,9.5853,2.514,-0.4586,9.4678,-0.0055,0.016,0.0196
33839,46.945244,-1.351873,89.75,36.01,24.656,158.4,0 / 18,3383914,2019-08-18 21:47:33:026,2.782,-0.3427,9.802,2.5104,-0.4615,9.4687,0.0062,-0.0021,0.0143
33840,46.945244,-1.351873,89.75,36.01,24.656,158.4,0 / 18,3384014,2019-08-18 21:47:33:126,2.8364,-0.542,9.9504,2.5181,-0.4585,9.4667,0.0083,-0.0085,0.009
33841,46.945244,-1.351873,89.75,36.01,24.656,158.4,0 / 18,3384114,2019-08-18 21:47:33:226,2.5258,-0.6324,9.3878,2.5172,-0.4558,9.4671,0.0041,0.0043,0.0121
33842,46.945244,-1.351873,89.75,36.01,24.656,158.4,0 / 18,3384214,2019-08-18 21:47:33:326,2.2409,-0.5702,9.3208,2.5027,-0.4506,9.4712,0.0115,0.0128,0.0121
33843,46.9428,-1.349999,89.83,34.87,17.152,147.4,0 / 18,3384314,2019-08-18 21:47:33:426,2.281,-0.891,8.824,2.4936,-0.4542,9.4734,0.0019,0.0075,0.009
33844,46.9428,-1.349999,89.83,34.87,17.152,147.4,0 / 18,3384414,2019-08-18 21:47:33:526,2.4552,-0.5947,9.5021,2.4972,-0.4642,9.472,-0.0034,-0.0096,0.0015
33845,46.9428,-1.349999,89.83,34.87,17.152,147.4,0 / 18,3384514,2019-08-18 21:47:33:626,2.6162,-0.9766,9.6655,2.5119,-0.4812,9.4673,-0.0066,-0.0117,-0.0038
33846,46.9428,-1.349999,89.83,34.87,17.152,147.4,0 / 18,3384614,2019-08-18 21:47:33:726,2.6485,-0.8371,9.7673,2.5111,-0.4996,9.4665,-0.0066,0.0054,-0.0006
33847,46.9428,-1.349999,89.83,34.87,17.152,147.4,0 / 18,3384715,2019-08-18 21:47:33:827,2.6036,-0.7246,9.4644,2.5031,-0.5274,9.4671,-0.0076,0.0064,-0.0006
33848,46.9428,-1.349999,89.83,34.87,17.152,147.4,0 / 18,3384814,2019-08-18 21:47:33:926,2.7173,-1.1909,9.6152,2.5124,-0.6024,9.4602,-0.0002,-0.0021,-0.0028
33849,46.9428,-1.349999,89.83,34.87,17.152,147.4,0 / 18,3384914,2019-08-18 21:47:34:026,2.4569,-1.0676,9.3291,2.5197,-0.6889,9.4524,-0.0023,0.0043,-0.0006
33850,46.9428,-1.349999,89.83,34.87,17.152,147.4,0 / 18,3385014,2019-08-18 21:47:34:126,2.3719,-1.2477,8.8958,2.5149,-0.7075,9.4523,0.0009,0.0054,-0.0017
33851,46.9428,-1.349999,89.83,34.87,17.152,147.4,0 / 18,3385115,2019-08-18 21:47:34:227,2.4575,-1.0251,9.45,2.522,-0.7145,9.4498,0.0009,-0.0106,-0.0038
33852,46.9428,-1.349999,89.83,34.87,17.152,147.4,0 / 18,3385216,2019-08-18 21:47:34:328,2.5066,-0.8545,9.228,2.5299,-0.718,9.4475,0.0073,-0.0063,-0.0038
33853,46.9428,-1.349999,89.83,34.87,17.152,147.4,0 / 18,3385316,2019-08-18 21:47:34:428,2.7275,-1.0041,9.0538,2.523,-0.7247,9.4488,0.0094,0.0182,0.0015
33854,46.9428,-1.349999,89.83,34.87,17.152,147.4,0 / 18,3385415,2019-08-18 21:47:34:527,2.6503,-0.8371,9.4333,2.5134,-0.7305,9.4509,0.0073,0.0054,0.0004
33855,46.9428,-1.349999,89.83,34.87,17.152,147.4,0 / 18,3385514,2019-08-18 21:47:34:626,2.7107,-0.9784,9.7511,2.5105,-0.7263,9.452,0.0094,0.0011,0.0004
33856,46.9428,-1.349999,89.83,34.87,17.152,147.4,0 / 18,3385615,2019-08-18 21:47:34:727,2.4115,-0.9251,9.7523,2.5041,-0.7342,9.4531,-0.0013,0.0022,0.0015
33857,46.9428,-1.349999,89.83,34.87,17.152,147.4,0 / 18,3385715,2019-08-18 21:47:34:827,2.3259,-0.9886,9.5135,2.4721,-0.7706,9.4586,-0.0023,-0.001,0.0015
33858,46.9428,-1.349999,89.83,34.87,17.152,147.4,0 / 18,3385814,2019-08-18 21:47:34:926,2.1738,-0.8299,9.4465,2.4436,-0.7972,9.4638,-0.0034,-0.0021,0.0026
33859,46.9428,-1.349999,89.83,34.87,17.152,147.4,0 / 18,3385915,2019-08-18 21:47:35:027,2.2271,-0.9951,9.5045,2.4058,-0.8143,9.472,-0.0013,0.0054,0.0036
33860,46.9428,-1.349999,89.83,34.87,17.152,147.4,0 / 18,3386015,2019-08-18 21:47:35:127,2.2433,-0.8383,9.1765,2.378,-0.8416,9.4767,-0.0045,0.0064,0.0058
33861,46.9428,-1.349999,89.83,34.87,17.152,147.4,0 / 18,3386114,2019-08-18 21:47:35:226,2.3205,-0.7174,9.7619,2.3652,-0.8389,9.4801,-0.0002,-0.0085,0.0026
33862,46.9428,-1.349999,89.83,34.87,17.152,147.4,0 / 18,3386214,2019-08-18 21:47:35:326,2.4468,-0.8216,9.6853,2.3581,-0.8492,9.4809,-0.0002,0.0011,0.0047
33863,46.9428,-1.349999,89.83,34.87,17.152,147.4,0 / 18,3386314,2019-08-18 21:47:35:426,2.3205,-0.9682,9.726,2.3582,-0.8468,9.4811,0.003,-0.0053,0.0026
33864,46.9428,-1.349999,89.83,34.87,17.152,147.4,0 / 18,3386414,2019-08-18 21:47:35:526,2.2899,-0.9395,9.0568,2.365,-0.8415,9.4799,0.0073,0.0032,0.0026
33865,46.9428,-1.349999,89.83,34.87,17.152,147.4,0 / 18,3386514,2019-08-18 21:47:35:626,2.582,-0.8922,9.644,2.368,-0.8498,9.4784,-0.0023,-0.0021,0.0079
33866,46.9428,-1.349999,89.83,34.87,17.152,147.4,0 / 18,3386615,2019-08-18 21:47:35:727,2.6012,-0.9784,9.2794,2.3874,-0.8222,9.476,0.0147,-0.0042,0.0004
33867,46.9428,-1.349999,89.83,34.87,17.152,147.4,0 / 18,3386715,2019-08-18 21:47:35:827,2.5078,-0.7174,9.2166,2.3885,-0.813,9.4765,0.0041,0.0011,0.0047
33868,46.9428,-1.349999,89.83,34.87,17.152,147.4,0 / 18,3386814,2019-08-18 21:47:35:926,2.4977,-0.5325,9.5967,2.4142,-0.7895,9.472,0.0051,0.0032,0.0058
33869,46.9428,-1.349999,89.83,34.87,17.152,147.4,0 / 18,3386914,2019-08-18 21:47:36:026,2.6287,-0.6085,9.5129,2.4423,-0.7754,9.466,0.0041,0.0096,0.0068
33870,46.9428,-1.349999,89.83,34.87,17.152,147.4,0 / 18,3387014,2019-08-18 21:47:36:126,2.7197,-0.8934,9.9738,2.4824,-0.7734,9.4557,-0.0013,-0.0063,0.0015
33871,46.9428,-1.349999,89.83,34.87,17.152,147.4,0 / 18,3387114,2019-08-18 21:47:36:226,2.5156,-1.1167,9.3046,2.5045,-0.7773,9.4495,-0.0034,-0.0053,-0.0028
33872,46.9428,-1.349999,89.83,34.87,17.152,147.4,0 / 18,3387214,2019-08-18 21:47:36:326,2.4929,-1.1394,9.2711,2.519,-0.8017,9.4436,-0.0087,0.0022,-0.0017
33873,46.9428,-1.349999,89.83,34.87,17.152,147.4,0 / 18,3387315,2019-08-18 21:47:36:427,2.5156,-1.128,9.2992,2.5492,-0.8355,9.4326,-0.0087,0.0,-0.0038
33874,46.9428,-1.349999,89.83,34.87,17.152,147.4,0 / 18,3387415,2019-08-18 21:47:36:527,2.7885,-0.8976,9.225,2.5895,-0.9014,9.4155,-0.0002,0.0054,-0.0028
33875,46.9428,-1.349999,89.83,34.87,17.152,147.4,0 / 18,3387515,2019-08-18 21:47:36:627,2.7155,-0.8575,8.9485,2.5989,-0.9244,9.4107,-0.0066,0.0075,0.0015
33876,46.9428,-1.349999,89.83,34.87,17.152,147.4,0 / 18,3387614,2019-08-18 21:47:36:726,2.6425,-0.6725,9.5865,2.6143,-0.9345,9.4055,0.0062,-0.001,-0.0017
33877,46.9428,-1.349999,89.83,34.87,17.152,147.4,0 / 18,3387714,2019-08-18 21:47:36:826,2.767,-0.9742,9.6176,2.6269,-0.93,9.4024,0.0115,-0.0127,-0.0028
33878,46.9428,-1.349999,89.83,34.87,17.152,147.4,0 / 18,3387815,2019-08-18 21:47:36:927,2.676,-0.8024,9.4315,2.6347,-0.9226,9.4009,-0.0002,0.0022,0.0036
33879,46.9428,-1.349999,89.83,34.87,17.152,147.4,0 / 18,3387915,2019-08-18 21:47:37:027,2.6263,-0.9772,9.5249,2.6373,-0.9069,9.4017,0.0041,-0.0021,0.0015
33880,46.9428,-1.349999,89.83,34.87,17.152,147.4,0 / 18,3388014,2019-08-18 21:47:37:126,2.5156,-0.9538,8.9574,2.6369,-0.8889,9.4036,0.0051,0.0075,0.0036
33881,46.9428,-1.349999,89.83,34.87,17.152,147.4,0 / 18,3388114,2019-08-18 21:47:37:226,2.4827,-1.0143,9.1334,2.6319,-0.8872,9.4051,-0.0023,0.0064,0.0058
33882,46.9428,-1.349999,89.83,34.87,17.152,147.4,0 / 18,3388214,2019-08-18 21:47:37:326,2.7323,-0.6372,9.4369,2.6283,-0.8651,9.4082,0.0105,-0.001,0.0026
33883,46.9428,-1.349999,89.83,34.87,17.152,147.4,0 / 18,3388314,2019-08-18 21:47:37:426,2.864,-0.6498,9.55,2.6298,-0.8446,9.4096,0.0083,-0.001,0.0047
33884,46.9428,-1.349999,89.83,34.87,17.152,147.4,0 / 18,3388414,2019-08-18 21:47:37:526,2.8382,-0.6863,9.8139,2.6232,-0.8004,9.4153,0.0019,-0.0021,0.0058
33885,46.9428,-1.349999,89.83,34.87,17.152,147.4,0 / 18,3388515,2019-08-18 21:47:37:627,2.6156,-0.6169,9.8702,2.6075,-0.7764,9.4217,0.0041,0.0043,0.0047
33886,46.9428,-1.349999,89.83,34.87,17.152,147.4,0 / 18,3388614,2019-08-18 21:47:37:726,2.4426,-0.9892,9.5105,2.5848,-0.7584,9.4294,0.003,0.0075,0.0058
33887,46.9428,-1.349999,89.83,34.87,17.152,147.4,0 / 18,3388714,2019-08-18 21:47:37:826,2.1565,-0.8844,8.9808,2.5649,-0.7663,9.4342,-0.0055,0.0054,0.0068
33888,46.9428,-1.349999,89.83,34.87,17.152,147.4,0 / 18,3388815,2019-08-18 21:47:37:927,2.2947,-0.9509,9.4099,2.5677,-0.7674,9.4334,0.003,-0.0096,0.0036
33889,46.9428,-1.349999,89.83,34.87,17.152,147.4,0 / 18,3388914,2019-08-18 21:47:38:026,2.5084,-0.7922,8.9778,2.5691,-0.7626,9.4334,0.0083,-0.0032,0.0015
33890,46.9428,-1.349999,89.83,34.87,17.152,147.4,0 / 18,3389014,2019-08-18 21:47:38:126,2.8574,-0.806,9.6075,2.5636,-0.7681,9.4344,-0.0098,0.0011,0.0026
33891,46.9428,-1.349999,89.83,34.87,17.152,147.4,0 / 18,3389114,2019-08-18 21:47:38:226,2.7526,-0.9407,9.8367,2.5458,-0.8045,9.4362,0.003,0.0032,-0.007
33892,46.9428,-1.349999,89.83,34.87,17.152,147.4,0 / 18,3389215,2019-08-18 21:47:38:327,2.4964,-0.982,9.4991,2.5268,-0.8709,9.4354,-0.0002,0.0043,-0.006
33893,46.9428,-1.349999,89.83,34.87,17.152,147.4,0 / 18,3389314,2019-08-18 21:47:38:426,2.4348,-1.0915,9.6266,2.524,-0.9181,9.4317,-0.0055,-0.0021,-0.0049
33894,46.9428,-1.349999,89.83,34.87,17.152,147.4,0 / 18,3389414,2019-08-18 21:47:38:526,2.2911,-1.1873,9.1352,2.5259,-0.9661,9.4264,-0.0013,-0.0032,-0.0049
33895,46.9428,-1.349999,89.83,34.87,17.152,147.4,0 / 18,3389514,2019-08-18 21:47:38:626,2.2959,-1.0155,9.231,2.5278,-0.9937,9.423,0.0009,-0.0021,-0.0028
33896,46.9428,-1.349999,89.83,34.87,17.152,147.4,0 / 18,3389614,2019-08-18 21:47:38:726,2.5802,-1.0987,9.2771,2.531,-1.0074,9.4207,0.0051,0.0032,0.0004
33897,46.9428,-1.349999,89.83,34.87,17.152,147.4,0 / 18,3389714,2019-08-18 21:47:38:826,2.5868,-0.9395,8.8832,2.5201,-1.0039,9.424,0.003,0.0118,0.0026
33898,46.9428,-1.349999,89.83,34.87,17.152,147.4,0 / 18,3389814,2019-08-18 21:47:38:926,2.8304,-0.7288,9.6278,2.516,-0.9976,9.4258,0.0019,0.0064,0.0015
33899,46.9428,-1.349999,89.83,34.87,17.152,147.4,0 / 18,3389914,2019-08-18 21:47:39:026,2.9106,-0.8748,9.9875,2.5247,-0.971,9.4262,0.0115,-0.0117,-0.0028
33900,46.9428,-1.349999,89.83,34.87,17.152,147.4,0 / 18,3390015,2019-08-18 21:47:39:127,2.688,-1.0281,9.5386,2.53,-0.9642,9.4255,0.003,-0.0032,-0.0006
33901,46.9428,-1.349999,89.83,34.87,17.152,147.4,0 / 18,3390114,2019-08-18 21:47:39:226,2.2971,-1.0203,9.6452,2.5295,-0.9566,9.4264,0.003,0.0022,0.0015
33902,46.9428,-1.349999,89.83,34.87,17.152,147.4,0 / 18,3390215,2019-08-18 21:47:39:327,2.2899,-0.9664,9.4111,2.5274,-0.9331,9.4293,-0.0023,0.0032,0.0036
33903,46.9428,-1.349999,89.83,34.87,17.152,147.4,0 / 18,3390314,2019-08-18 21:47:39:426,2.2624,-0.9544,9.1065,2.5172,-0.9102,9.4343,-0.0013,0.0096,0.0068
33904,46.9428,-1.349999,89.83,34.87,17.152,147.4,0 / 18,3390414,2019-08-18 21:47:39:526,2.5132,-0.7246,9.4081,2.5108,-0.8869,9.4382,0.0062,0.0011,0.0036
